{"displayFieldName":"TOWNNAME","fieldAliases":{"ID":"ID","DIS_CODE":"DIS_CODE","TOWNNAME":"TOWNNAME","LI":"LI","LIN":"LIN","STREET":"STREET","SECT":"SECT","MAREA":"MAREA","LANE":"LANE","ALLEY":"ALLEY","HOUSE_NO":"HOUSE_NO","E_COORD97":"E_COORD97","N_COORD97":"N_COORD97","ADDRESS":"ADDRESS","OBJECTID":"OBJECTID"},"geometryType":"esriGeometryPoint","spatialReference":{"wkid":102443,"latestWkid":3826},"fields":[{"name":"ID","type":"esriFieldTypeDouble","alias":"ID"},{"name":"DIS_CODE","type":"esriFieldTypeInteger","alias":"DIS_CODE"},{"name":"TOWNNAME","type":"esriFieldTypeString","alias":"TOWNNAME","length":8},{"name":"LI","type":"esriFieldTypeString","alias":"LI","length":8},{"name":"LIN","type":"esriFieldTypeString","alias":"LIN","length":12},{"name":"STREET","type":"esriFieldTypeString","alias":"STREET","length":20},{"name":"SECT","type":"esriFieldTypeString","alias":"SECT","length":8},{"name":"MAREA","type":"esriFieldTypeString","alias":"MAREA","length":12},{"name":"LANE","type":"esriFieldTypeString","alias":"LANE","length":10},{"name":"ALLEY","type":"esriFieldTypeString","alias":"ALLEY","length":10},{"name":"HOUSE_NO","type":"esriFieldTypeString","alias":"HOUSE_NO","length":20},{"name":"E_COORD97","type":"esriFieldTypeDouble","alias":"E_COORD97"},{"name":"N_COORD97","type":"esriFieldTypeDouble","alias":"N_COORD97"},{"name":"ADDRESS","type":"esriFieldTypeString","alias":"ADDRESS","length":50},{"name":"OBJECTID","type":"esriFieldTypeOID","alias":"OBJECTID"}],"features":[{"attributes":{"ID":156202,"DIS_CODE":0,"TOWNNAME":"西港區","LI":"南海里","LIN":"19鄰","STREET":" ","SECT":" ","MAREA":"中港","LANE":" ","ALLEY":" ","HOUSE_NO":"２２號之２","E_COORD97":167347.06,"N_COORD97":2556526.6699999999,"ADDRESS":"中港２２號之２","OBJECTID":156201},"geometry":{"x":167347.06000000052,"y":2556526.6700000037}},{"attributes":{"ID":156203,"DIS_CODE":0,"TOWNNAME":"西港區","LI":"南海里","LIN":"19鄰","STREET":" ","SECT":" ","MAREA":"中港","LANE":" ","ALLEY":" ","HOUSE_NO":"２２號之３","E_COORD97":167346.10999999999,"N_COORD97":2556522.8199999998,"ADDRESS":"中港２２號之３","OBJECTID":156202},"geometry":{"x":167346.11000000034,"y":2556522.820000004}},{"attributes":{"ID":156204,"DIS_CODE":0,"TOWNNAME":"西港區","LI":"南海里","LIN":"19鄰","STREET":" ","SECT":" ","MAREA":"中港","LANE":" ","ALLEY":" ","HOUSE_NO":"２２號之４","E_COORD97":167345.28,"N_COORD97":2556518.6299999999,"ADDRESS":"中港２２號之４","OBJECTID":156203},"geometry":{"x":167345.28000000026,"y":2556518.629999999}},{"attributes":{"ID":156205,"DIS_CODE":0,"TOWNNAME":"西港區","LI":"南海里","LIN":"19鄰","STREET":" ","SECT":" ","MAREA":"中港","LANE":" ","ALLEY":" ","HOUSE_NO":"２２號之５","E_COORD97":167344.20000000001,"N_COORD97":2556514.0099999998,"ADDRESS":"中港２２號之５","OBJECTID":156204},"geometry":{"x":167344.20000000205,"y":2556514.0100000035}},{"attributes":{"ID":156206,"DIS_CODE":0,"TOWNNAME":"西港區","LI":"南海里","LIN":"19鄰","STREET":" ","SECT":" ","MAREA":"中港","LANE":" ","ALLEY":" ","HOUSE_NO":"２２號之６","E_COORD97":167343.34,"N_COORD97":2556509.48,"ADDRESS":"中港２２號之６","OBJECTID":156205},"geometry":{"x":167343.34000000078,"y":2556509.4800000023}},{"attributes":{"ID":156207,"DIS_CODE":0,"TOWNNAME":"西港區","LI":"南海里","LIN":"19鄰","STREET":" ","SECT":" ","MAREA":"中港","LANE":" ","ALLEY":" ","HOUSE_NO":"２２號","E_COORD97":167347.66,"N_COORD97":2556531.3700000001,"ADDRESS":"中港２２號","OBJECTID":156206},"geometry":{"x":167347.66000000015,"y":2556531.3700000029}},{"attributes":{"ID":156208,"DIS_CODE":0,"TOWNNAME":"西港區","LI":"南海里","LIN":"19鄰","STREET":" ","SECT":" ","MAREA":"中港","LANE":" ","ALLEY":" ","HOUSE_NO":"２３號之１０","E_COORD97":167395.57000000001,"N_COORD97":2556547.5499999998,"ADDRESS":"中港２３號之１０","OBJECTID":156207},"geometry":{"x":167395.5700000003,"y":2556547.5500000007}},{"attributes":{"ID":156209,"DIS_CODE":0,"TOWNNAME":"新市區","LI":"大營里","LIN":"19鄰","STREET":" ","SECT":" ","MAREA":"豐榮","LANE":" ","ALLEY":" ","HOUSE_NO":"４３之６０號","E_COORD97":178766.95000000001,"N_COORD97":2554303.0499999998,"ADDRESS":"豐榮４３之６０號","OBJECTID":156208},"geometry":{"x":178766.95000000112,"y":2554303.0500000007}},{"attributes":{"ID":156210,"DIS_CODE":0,"TOWNNAME":"安南區","LI":"大安里","LIN":"2鄰","STREET":"大安街","SECT":" ","MAREA":" ","LANE":"２６巷","ALLEY":"１弄","HOUSE_NO":"２３號","E_COORD97":167177.07000000001,"N_COORD97":2547947.8900000001,"ADDRESS":"大安街２６巷１弄２３號","OBJECTID":156209},"geometry":{"x":167177.0700000003,"y":2547947.8900000006}},{"attributes":{"ID":156211,"DIS_CODE":0,"TOWNNAME":"新市區","LI":"大營里","LIN":"19鄰","STREET":" ","SECT":" ","MAREA":"豐榮","LANE":" ","ALLEY":" ","HOUSE_NO":"４３之５７號","E_COORD97":178757.45000000001,"N_COORD97":2554313.7999999998,"ADDRESS":"豐榮４３之５７號","OBJECTID":156210},"geometry":{"x":178757.45000000019,"y":2554313.8000000026}},{"attributes":{"ID":156212,"DIS_CODE":0,"TOWNNAME":"安南區","LI":"大安里","LIN":"2鄰","STREET":"大安街","SECT":" ","MAREA":" ","LANE":"２６巷","ALLEY":"１弄","HOUSE_NO":"２５號","E_COORD97":167181.76000000001,"N_COORD97":2547948.77,"ADDRESS":"大安街２６巷１弄２５號","OBJECTID":156211},"geometry":{"x":167181.75999999978,"y":2547948.7700000014}},{"attributes":{"ID":156213,"DIS_CODE":0,"TOWNNAME":"安南區","LI":"大安里","LIN":"2鄰","STREET":"大安街","SECT":" ","MAREA":" ","LANE":"２６巷","ALLEY":"１弄","HOUSE_NO":"２７號","E_COORD97":167187.20999999999,"N_COORD97":2547949.52,"ADDRESS":"大安街２６巷１弄２７號","OBJECTID":156212},"geometry":{"x":167187.20999999996,"y":2547949.5199999977}},{"attributes":{"ID":156214,"DIS_CODE":0,"TOWNNAME":"新市區","LI":"大營里","LIN":"19鄰","STREET":" ","SECT":" ","MAREA":"豐榮","LANE":" ","ALLEY":" ","HOUSE_NO":"４３之６６號","E_COORD97":178759.45000000001,"N_COORD97":2554267.5499999998,"ADDRESS":"豐榮４３之６６號","OBJECTID":156213},"geometry":{"x":178759.45000000019,"y":2554267.5500000026}},{"attributes":{"ID":156215,"DIS_CODE":0,"TOWNNAME":"安南區","LI":"大安里","LIN":"2鄰","STREET":"大安街","SECT":" ","MAREA":" ","LANE":"２６巷","ALLEY":"１弄","HOUSE_NO":"２９號","E_COORD97":167192.82000000001,"N_COORD97":2547950.75,"ADDRESS":"大安街２６巷１弄２９號","OBJECTID":156214},"geometry":{"x":167192.82000000123,"y":2547950.75}},{"attributes":{"ID":156216,"DIS_CODE":0,"TOWNNAME":"新市區","LI":"新市里","LIN":"19鄰","STREET":"和平街","SECT":" ","MAREA":" ","LANE":"４５巷","ALLEY":" ","HOUSE_NO":"１１號","E_COORD97":177700.06,"N_COORD97":2553398,"ADDRESS":"和平街４５巷１１號","OBJECTID":156215},"geometry":{"x":177700.05999999959,"y":2553398}},{"attributes":{"ID":156217,"DIS_CODE":0,"TOWNNAME":"北區","LI":"公園里","LIN":"17鄰","STREET":"成功路","SECT":" ","MAREA":" ","LANE":" ","ALLEY":" ","HOUSE_NO":"２６號","E_COORD97":168856.39000000001,"N_COORD97":2544273.3300000001,"ADDRESS":"成功路２６號","OBJECTID":156216},"geometry":{"x":168856.3900000006,"y":2544273.3300000019}},{"attributes":{"ID":156218,"DIS_CODE":0,"TOWNNAME":"北區","LI":"公園里","LIN":"17鄰","STREET":"成功路","SECT":" ","MAREA":" ","LANE":" ","ALLEY":" ","HOUSE_NO":"２８號","E_COORD97":168852.07000000001,"N_COORD97":2544274.3900000001,"ADDRESS":"成功路２８號","OBJECTID":156217},"geometry":{"x":168852.0700000003,"y":2544274.3900000025}},{"attributes":{"ID":156219,"DIS_CODE":0,"TOWNNAME":"安南區","LI":"大安里","LIN":"2鄰","STREET":"大安街","SECT":" ","MAREA":" ","LANE":"２６巷","ALLEY":"１弄","HOUSE_NO":"３１號","E_COORD97":167197.14000000001,"N_COORD97":2547951.2999999998,"ADDRESS":"大安街２６巷１弄３１號","OBJECTID":156218},"geometry":{"x":167197.1400000006,"y":2547951.3000000007}},{"attributes":{"ID":156220,"DIS_CODE":0,"TOWNNAME":"新市區","LI":"社內里","LIN":"19鄰","STREET":" ","SECT":" ","MAREA":"社內","LANE":" ","ALLEY":" ","HOUSE_NO":"２０１號","E_COORD97":175973.07999999999,"N_COORD97":2553092.5,"ADDRESS":"社內２０１號","OBJECTID":156219},"geometry":{"x":175973.08000000007,"y":2553092.5}},{"attributes":{"ID":156221,"DIS_CODE":0,"TOWNNAME":"麻豆區","LI":"安西里","LIN":"5鄰","STREET":" ","SECT":" ","MAREA":"安業","LANE":" ","ALLEY":" ","HOUSE_NO":"２３２號","E_COORD97":172461.72,"N_COORD97":2562058.8399999999,"ADDRESS":"安業２３２號","OBJECTID":156220},"geometry":{"x":172461.72000000067,"y":2562058.8400000036}},{"attributes":{"ID":156222,"DIS_CODE":0,"TOWNNAME":"麻豆區","LI":"安西里","LIN":"5鄰","STREET":" ","SECT":" ","MAREA":"安業","LANE":" ","ALLEY":" ","HOUSE_NO":"２３５號","E_COORD97":172470.95000000001,"N_COORD97":2562021.8500000001,"ADDRESS":"安業２３５號","OBJECTID":156221},"geometry":{"x":172470.95000000112,"y":2562021.8500000015}},{"attributes":{"ID":156223,"DIS_CODE":0,"TOWNNAME":"鹽水區","LI":"福得里","LIN":"5鄰","STREET":" ","SECT":" ","MAREA":"後厝","LANE":" ","ALLEY":" ","HOUSE_NO":"４７號","E_COORD97":175390.95999999999,"N_COORD97":2579865.4700000002,"ADDRESS":"後厝４７號","OBJECTID":156222},"geometry":{"x":175390.96000000183,"y":2579865.4700000025}},{"attributes":{"ID":156224,"DIS_CODE":0,"TOWNNAME":"麻豆區","LI":"安西里","LIN":"5鄰","STREET":" ","SECT":" ","MAREA":"安業","LANE":" ","ALLEY":" ","HOUSE_NO":"２３６號之１０","E_COORD97":172446.13,"N_COORD97":2561999.3199999998,"ADDRESS":"安業２３６號之１０","OBJECTID":156223},"geometry":{"x":172446.12999999989,"y":2561999.3200000022}},{"attributes":{"ID":156225,"DIS_CODE":0,"TOWNNAME":"麻豆區","LI":"安西里","LIN":"5鄰","STREET":" ","SECT":" ","MAREA":"安業","LANE":" ","ALLEY":" ","HOUSE_NO":"２３６號之１１","E_COORD97":172441.42000000001,"N_COORD97":2561998.2999999998,"ADDRESS":"安業２３６號之１１","OBJECTID":156224},"geometry":{"x":172441.41999999993,"y":2561998.3000000007}},{"attributes":{"ID":156226,"DIS_CODE":0,"TOWNNAME":"麻豆區","LI":"安西里","LIN":"5鄰","STREET":" ","SECT":" ","MAREA":"安業","LANE":" ","ALLEY":" ","HOUSE_NO":"２３６號之１２","E_COORD97":172436.97,"N_COORD97":2561997.2400000002,"ADDRESS":"安業２３６號之１２","OBJECTID":156225},"geometry":{"x":172436.96999999974,"y":2561997.2400000002}},{"attributes":{"ID":156227,"DIS_CODE":0,"TOWNNAME":"新市區","LI":"新市里","LIN":"19鄰","STREET":"和平街","SECT":" ","MAREA":" ","LANE":" ","ALLEY":" ","HOUSE_NO":"１７號","E_COORD97":177741.23000000001,"N_COORD97":2553448.75,"ADDRESS":"和平街１７號","OBJECTID":156226},"geometry":{"x":177741.23000000138,"y":2553448.7500000019}},{"attributes":{"ID":156228,"DIS_CODE":0,"TOWNNAME":"安南區","LI":"大安里","LIN":"2鄰","STREET":"大安街","SECT":" ","MAREA":" ","LANE":"２６巷","ALLEY":"１弄","HOUSE_NO":"３３號","E_COORD97":167201.51999999999,"N_COORD97":2547951.73,"ADDRESS":"大安街２６巷１弄３３號","OBJECTID":156227},"geometry":{"x":167201.51999999955,"y":2547951.7300000004}},{"attributes":{"ID":156229,"DIS_CODE":0,"TOWNNAME":"安南區","LI":"大安里","LIN":"2鄰","STREET":"大安街","SECT":" ","MAREA":" ","LANE":"２６巷","ALLEY":"１弄","HOUSE_NO":"３５號","E_COORD97":167209.64000000001,"N_COORD97":2547950.6400000001,"ADDRESS":"大安街２６巷１弄３５號","OBJECTID":156228},"geometry":{"x":167209.63999999966,"y":2547950.6400000025}},{"attributes":{"ID":156230,"DIS_CODE":0,"TOWNNAME":"安南區","LI":"大安里","LIN":"2鄰","STREET":"大安街","SECT":" ","MAREA":" ","LANE":"２６巷","ALLEY":"１弄","HOUSE_NO":"３７號","E_COORD97":167214.92999999999,"N_COORD97":2547946.9100000001,"ADDRESS":"大安街２６巷１弄３７號","OBJECTID":156229},"geometry":{"x":167214.93000000156,"y":2547946.9100000001}},{"attributes":{"ID":156231,"DIS_CODE":0,"TOWNNAME":"安南區","LI":"大安里","LIN":"2鄰","STREET":"大安街","SECT":" ","MAREA":" ","LANE":"２６巷","ALLEY":"１弄","HOUSE_NO":"３９號","E_COORD97":167219.32999999999,"N_COORD97":2547944.0499999998,"ADDRESS":"大安街２６巷１弄３９號","OBJECTID":156230},"geometry":{"x":167219.32999999914,"y":2547944.0500000045}},{"attributes":{"ID":156232,"DIS_CODE":0,"TOWNNAME":"安南區","LI":"大安里","LIN":"2鄰","STREET":"大安街","SECT":" ","MAREA":" ","LANE":"２６巷","ALLEY":"１弄","HOUSE_NO":"３號","E_COORD97":167126.38,"N_COORD97":2547938.8199999998,"ADDRESS":"大安街２６巷１弄３號","OBJECTID":156231},"geometry":{"x":167126.38000000082,"y":2547938.8200000022}},{"attributes":{"ID":156233,"DIS_CODE":0,"TOWNNAME":"安南區","LI":"大安里","LIN":"2鄰","STREET":"大安街","SECT":" ","MAREA":" ","LANE":"２６巷","ALLEY":"１弄","HOUSE_NO":"４１號","E_COORD97":167223.95999999999,"N_COORD97":2547939.6499999999,"ADDRESS":"大安街２６巷１弄４１號","OBJECTID":156232},"geometry":{"x":167223.96000000089,"y":2547939.6500000041}},{"attributes":{"ID":156234,"DIS_CODE":0,"TOWNNAME":"安南區","LI":"大安里","LIN":"2鄰","STREET":"大安街","SECT":" ","MAREA":" ","LANE":"２６巷","ALLEY":"１弄","HOUSE_NO":"４３號","E_COORD97":167230.78,"N_COORD97":2547937.25,"ADDRESS":"大安街２６巷１弄４３號","OBJECTID":156233},"geometry":{"x":167230.78000000119,"y":2547937.25}},{"attributes":{"ID":156235,"DIS_CODE":0,"TOWNNAME":"安南區","LI":"大安里","LIN":"2鄰","STREET":"大安街","SECT":" ","MAREA":" ","LANE":"２６巷","ALLEY":"１弄","HOUSE_NO":"４５號","E_COORD97":167236.10000000001,"N_COORD97":2547934.5299999998,"ADDRESS":"大安街２６巷１弄４５號","OBJECTID":156234},"geometry":{"x":167236.10000000056,"y":2547934.5299999993}},{"attributes":{"ID":156236,"DIS_CODE":0,"TOWNNAME":"安南區","LI":"大安里","LIN":"2鄰","STREET":"大安街","SECT":" ","MAREA":" ","LANE":"２６巷","ALLEY":"１弄","HOUSE_NO":"４７號","E_COORD97":167240.60999999999,"N_COORD97":2547931.1099999999,"ADDRESS":"大安街２６巷１弄４７號","OBJECTID":156235},"geometry":{"x":167240.61000000127,"y":2547931.1099999994}},{"attributes":{"ID":156237,"DIS_CODE":0,"TOWNNAME":"安南區","LI":"大安里","LIN":"2鄰","STREET":"大安街","SECT":" ","MAREA":" ","LANE":"２６巷","ALLEY":"１弄","HOUSE_NO":"４９號","E_COORD97":167245.12,"N_COORD97":2547927.6600000001,"ADDRESS":"大安街２６巷１弄４９號","OBJECTID":156236},"geometry":{"x":167245.12000000104,"y":2547927.6600000001}},{"attributes":{"ID":156238,"DIS_CODE":0,"TOWNNAME":"安南區","LI":"大安里","LIN":"2鄰","STREET":"大安街","SECT":" ","MAREA":" ","LANE":"２６巷","ALLEY":"１弄","HOUSE_NO":"５１號","E_COORD97":167251.12,"N_COORD97":2547924.2000000002,"ADDRESS":"大安街２６巷１弄５１號","OBJECTID":156237},"geometry":{"x":167251.12000000011,"y":2547924.1999999974}},{"attributes":{"ID":156239,"DIS_CODE":0,"TOWNNAME":"安南區","LI":"大安里","LIN":"2鄰","STREET":"大安街","SECT":" ","MAREA":" ","LANE":"２６巷","ALLEY":"１弄","HOUSE_NO":"５３號","E_COORD97":167255.38,"N_COORD97":2547921.4199999999,"ADDRESS":"大安街２６巷１弄５３號","OBJECTID":156238},"geometry":{"x":167255.37999999989,"y":2547921.4200000018}},{"attributes":{"ID":156240,"DIS_CODE":0,"TOWNNAME":"安南區","LI":"大安里","LIN":"2鄰","STREET":"大安街","SECT":" ","MAREA":" ","LANE":"２６巷","ALLEY":"１弄","HOUSE_NO":"５５號","E_COORD97":167260.01999999999,"N_COORD97":2547918.2799999998,"ADDRESS":"大安街２６巷１弄５５號","OBJECTID":156239},"geometry":{"x":167260.02000000142,"y":2547918.2800000012}},{"attributes":{"ID":156241,"DIS_CODE":0,"TOWNNAME":"安南區","LI":"大安里","LIN":"2鄰","STREET":"大安街","SECT":" ","MAREA":" ","LANE":"２６巷","ALLEY":"１弄","HOUSE_NO":"５號","E_COORD97":167131.66,"N_COORD97":2547939.5600000001,"ADDRESS":"大安街２６巷１弄５號","OBJECTID":156240},"geometry":{"x":167131.66000000108,"y":2547939.5600000005}},{"attributes":{"ID":156242,"DIS_CODE":0,"TOWNNAME":"安南區","LI":"大安里","LIN":"2鄰","STREET":"大安街","SECT":" ","MAREA":" ","LANE":"２６巷","ALLEY":"１弄","HOUSE_NO":"７號","E_COORD97":167136.64000000001,"N_COORD97":2547940.4300000002,"ADDRESS":"大安街２６巷１弄７號","OBJECTID":156241},"geometry":{"x":167136.63999999966,"y":2547940.4300000034}},{"attributes":{"ID":156243,"DIS_CODE":0,"TOWNNAME":"安南區","LI":"大安里","LIN":"2鄰","STREET":"大安街","SECT":" ","MAREA":" ","LANE":"２６巷","ALLEY":"１弄","HOUSE_NO":"９號","E_COORD97":167141.91,"N_COORD97":2547941.02,"ADDRESS":"大安街２６巷１弄９號","OBJECTID":156242},"geometry":{"x":167141.91000000015,"y":2547941.0200000014}},{"attributes":{"ID":156244,"DIS_CODE":0,"TOWNNAME":"安南區","LI":"學東里","LIN":"2鄰","STREET":"公學路","SECT":"六段","MAREA":" ","LANE":"４６９巷","ALLEY":"３３弄","HOUSE_NO":"３６號","E_COORD97":162608.84,"N_COORD97":2553029.8700000001,"ADDRESS":"公學路六段４６９巷３３弄３６號","OBJECTID":156243},"geometry":{"x":162608.84000000078,"y":2553029.870000001}},{"attributes":{"ID":156245,"DIS_CODE":0,"TOWNNAME":"新化區","LI":"武安里","LIN":"2鄰","STREET":"正新南路","SECT":" ","MAREA":" ","LANE":"６１巷","ALLEY":"１７弄","HOUSE_NO":"５號","E_COORD97":179067.87,"N_COORD97":2547977.25,"ADDRESS":"正新南路６１巷１７弄５號","OBJECTID":156244},"geometry":{"x":179067.87000000011,"y":2547977.2500000019}},{"attributes":{"ID":156246,"DIS_CODE":0,"TOWNNAME":"東區","LI":"自強里","LIN":"7鄰","STREET":"東門路","SECT":"三段","MAREA":" ","LANE":"３７巷","ALLEY":"５５弄","HOUSE_NO":"７號","E_COORD97":171197.54000000001,"N_COORD97":2542334.3999999999,"ADDRESS":"東門路三段３７巷５５弄７號","OBJECTID":156245},"geometry":{"x":171197.54000000004,"y":2542334.4000000022}},{"attributes":{"ID":156247,"DIS_CODE":0,"TOWNNAME":"東區","LI":"自強里","LIN":"7鄰","STREET":"東門路","SECT":"三段","MAREA":" ","LANE":"３７巷","ALLEY":"５５弄","HOUSE_NO":"８號","E_COORD97":171192.16,"N_COORD97":2542344.8199999998,"ADDRESS":"東門路三段３７巷５５弄８號","OBJECTID":156246},"geometry":{"x":171192.16000000015,"y":2542344.8200000022}},{"attributes":{"ID":156248,"DIS_CODE":0,"TOWNNAME":"東區","LI":"自強里","LIN":"7鄰","STREET":"東門路","SECT":"三段","MAREA":" ","LANE":"３７巷","ALLEY":"５５弄","HOUSE_NO":"９號","E_COORD97":171192.48000000001,"N_COORD97":2542333.9300000002,"ADDRESS":"東門路三段３７巷５５弄９號","OBJECTID":156247},"geometry":{"x":171192.48000000231,"y":2542333.9300000016}},{"attributes":{"ID":156249,"DIS_CODE":0,"TOWNNAME":"東區","LI":"自強里","LIN":"10鄰","STREET":"東門路","SECT":"三段","MAREA":" ","LANE":"３７巷","ALLEY":"７５弄","HOUSE_NO":"２６號","E_COORD97":171163.31,"N_COORD97":2542424.8500000001,"ADDRESS":"東門路三段３７巷７５弄２６號","OBJECTID":156248},"geometry":{"x":171163.30999999959,"y":2542424.8500000034}},{"attributes":{"ID":156250,"DIS_CODE":0,"TOWNNAME":"東區","LI":"自強里","LIN":"10鄰","STREET":"東門路","SECT":"三段","MAREA":" ","LANE":"３７巷","ALLEY":"７５弄","HOUSE_NO":"２８號","E_COORD97":171159.51000000001,"N_COORD97":2542424.6899999999,"ADDRESS":"東門路三段３７巷７５弄２８號","OBJECTID":156249},"geometry":{"x":171159.51000000071,"y":2542424.6899999995}},{"attributes":{"ID":156251,"DIS_CODE":0,"TOWNNAME":"安南區","LI":"溪墘里","LIN":"19鄰","STREET":"海佃路","SECT":"一段","MAREA":" ","LANE":" ","ALLEY":" ","HOUSE_NO":"３９６號","E_COORD97":167074.26000000001,"N_COORD97":2547659.1400000001,"ADDRESS":"海佃路一段３９６號","OBJECTID":156250},"geometry":{"x":167074.26000000071,"y":2547659.1400000025}},{"attributes":{"ID":156252,"DIS_CODE":0,"TOWNNAME":"安南區","LI":"州北里","LIN":"16鄰","STREET":"安和路","SECT":"五段","MAREA":" ","LANE":" ","ALLEY":" ","HOUSE_NO":"２０２號","E_COORD97":169841.75,"N_COORD97":2551897.8300000001,"ADDRESS":"安和路五段２０２號","OBJECTID":156251},"geometry":{"x":169841.75,"y":2551897.8300000038}},{"attributes":{"ID":156253,"DIS_CODE":0,"TOWNNAME":"安南區","LI":"州北里","LIN":"16鄰","STREET":"安和路","SECT":"五段","MAREA":" ","LANE":" ","ALLEY":" ","HOUSE_NO":"２０４號","E_COORD97":169839.94,"N_COORD97":2551901.3100000001,"ADDRESS":"安和路五段２０４號","OBJECTID":156252},"geometry":{"x":169839.94000000227,"y":2551901.3100000005}},{"attributes":{"ID":156254,"DIS_CODE":0,"TOWNNAME":"安南區","LI":"安順里","LIN":"11鄰","STREET":"安和路","SECT":"四段","MAREA":" ","LANE":" ","ALLEY":" ","HOUSE_NO":"８８號","E_COORD97":169961.81,"N_COORD97":2550280.4199999999,"ADDRESS":"安和路四段８８號","OBJECTID":156253},"geometry":{"x":169961.80999999866,"y":2550280.4200000018}},{"attributes":{"ID":156255,"DIS_CODE":0,"TOWNNAME":"安南區","LI":"海佃里","LIN":"22鄰","STREET":"海佃路","SECT":"一段","MAREA":" ","LANE":" ","ALLEY":" ","HOUSE_NO":"４０９號","E_COORD97":167013.66,"N_COORD97":2547658.3799999999,"ADDRESS":"海佃路一段４０９號","OBJECTID":156254},"geometry":{"x":167013.66000000015,"y":2547658.3800000027}},{"attributes":{"ID":156256,"DIS_CODE":0,"TOWNNAME":"東區","LI":"自強里","LIN":"10鄰","STREET":"東門路","SECT":"三段","MAREA":" ","LANE":"３７巷","ALLEY":"７５弄","HOUSE_NO":"３０號","E_COORD97":171155.87,"N_COORD97":2542424.54,"ADDRESS":"東門路三段３７巷７５弄３０號","OBJECTID":156255},"geometry":{"x":171155.87000000104,"y":2542424.5399999991}},{"attributes":{"ID":156257,"DIS_CODE":0,"TOWNNAME":"東區","LI":"自強里","LIN":"10鄰","STREET":"東門路","SECT":"三段","MAREA":" ","LANE":"３７巷","ALLEY":"７５弄","HOUSE_NO":"３２號","E_COORD97":171148.97,"N_COORD97":2542441.6499999999,"ADDRESS":"東門路三段３７巷７５弄３２號","OBJECTID":156256},"geometry":{"x":171148.96999999974,"y":2542441.6500000022}},{"attributes":{"ID":156258,"DIS_CODE":0,"TOWNNAME":"東區","LI":"自強里","LIN":"10鄰","STREET":"東門路","SECT":"三段","MAREA":" ","LANE":"３７巷","ALLEY":"７５弄","HOUSE_NO":"３４號","E_COORD97":171151.29000000001,"N_COORD97":2542424.3799999999,"ADDRESS":"東門路三段３７巷７５弄３４號","OBJECTID":156257},"geometry":{"x":171151.29000000097,"y":2542424.3800000008}},{"attributes":{"ID":156259,"DIS_CODE":0,"TOWNNAME":"東區","LI":"自強里","LIN":"20鄰","STREET":"中華東路","SECT":"二段","MAREA":" ","LANE":"２４３巷","ALLEY":"２９弄","HOUSE_NO":"２號","E_COORD97":171342.67999999999,"N_COORD97":2542608.23,"ADDRESS":"中華東路二段２４３巷２９弄２號","OBJECTID":156258},"geometry":{"x":171342.67999999877,"y":2542608.2300000004}},{"attributes":{"ID":156260,"DIS_CODE":0,"TOWNNAME":"東區","LI":"自強里","LIN":"10鄰","STREET":"東門路","SECT":"三段","MAREA":" ","LANE":"３７巷","ALLEY":"７５弄","HOUSE_NO":"３６號","E_COORD97":171147.17999999999,"N_COORD97":2542424.6899999999,"ADDRESS":"東門路三段３７巷７５弄３６號","OBJECTID":156259},"geometry":{"x":171147.1799999997,"y":2542424.6899999995}},{"attributes":{"ID":156261,"DIS_CODE":0,"TOWNNAME":"東區","LI":"自強里","LIN":"10鄰","STREET":"東門路","SECT":"三段","MAREA":" ","LANE":"３７巷","ALLEY":"７５弄","HOUSE_NO":"３８號","E_COORD97":171142.91,"N_COORD97":2542424.54,"ADDRESS":"東門路三段３７巷７５弄３８號","OBJECTID":156260},"geometry":{"x":171142.91000000015,"y":2542424.5399999991}},{"attributes":{"ID":156262,"DIS_CODE":0,"TOWNNAME":"東區","LI":"自強里","LIN":"10鄰","STREET":"東門路","SECT":"三段","MAREA":" ","LANE":"３７巷","ALLEY":"７５弄","HOUSE_NO":"４０號","E_COORD97":171139.73999999999,"N_COORD97":2542424.54,"ADDRESS":"東門路三段３７巷７５弄４０號","OBJECTID":156261},"geometry":{"x":171139.74000000115,"y":2542424.5399999991}},{"attributes":{"ID":156263,"DIS_CODE":0,"TOWNNAME":"東區","LI":"自強里","LIN":"21鄰","STREET":"中華東路","SECT":"二段","MAREA":" ","LANE":"２４３巷","ALLEY":"４４弄","HOUSE_NO":"１１號","E_COORD97":171394.01999999999,"N_COORD97":2542550.3700000001,"ADDRESS":"中華東路二段２４３巷４４弄１１號","OBJECTID":156262},"geometry":{"x":171394.01999999955,"y":2542550.370000001}},{"attributes":{"ID":156264,"DIS_CODE":0,"TOWNNAME":"東區","LI":"自強里","LIN":"21鄰","STREET":"中華東路","SECT":"二段","MAREA":" ","LANE":"２４３巷","ALLEY":"４４弄","HOUSE_NO":"１３號","E_COORD97":171399.10999999999,"N_COORD97":2542550.54,"ADDRESS":"中華東路二段２４３巷４４弄１３號","OBJECTID":156263},"geometry":{"x":171399.11000000034,"y":2542550.5399999991}},{"attributes":{"ID":156265,"DIS_CODE":0,"TOWNNAME":"東區","LI":"自強里","LIN":"21鄰","STREET":"中華東路","SECT":"二段","MAREA":" ","LANE":"２４３巷","ALLEY":"４４弄","HOUSE_NO":"１５號","E_COORD97":171404.91,"N_COORD97":2542551.4199999999,"ADDRESS":"中華東路二段２４３巷４４弄１５號","OBJECTID":156264},"geometry":{"x":171404.91000000108,"y":2542551.4200000018}},{"attributes":{"ID":156266,"DIS_CODE":0,"TOWNNAME":"東區","LI":"自強里","LIN":"21鄰","STREET":"中華東路","SECT":"二段","MAREA":" ","LANE":"２４３巷","ALLEY":"４４弄","HOUSE_NO":"１７號","E_COORD97":171410.17000000001,"N_COORD97":2542555.1000000001,"ADDRESS":"中華東路二段２４３巷４４弄１７號","OBJECTID":156265},"geometry":{"x":171410.16999999993,"y":2542555.1000000034}},{"attributes":{"ID":156267,"DIS_CODE":0,"TOWNNAME":"東區","LI":"自強里","LIN":"21鄰","STREET":"中華東路","SECT":"二段","MAREA":" ","LANE":"２４３巷","ALLEY":"４４弄","HOUSE_NO":"１號","E_COORD97":171365.39999999999,"N_COORD97":2542548.6200000001,"ADDRESS":"中華東路二段２４３巷４４弄１號","OBJECTID":156266},"geometry":{"x":171365.40000000037,"y":2542548.620000001}},{"attributes":{"ID":156268,"DIS_CODE":0,"TOWNNAME":"東區","LI":"自強里","LIN":"21鄰","STREET":"中華東路","SECT":"二段","MAREA":" ","LANE":"２４３巷","ALLEY":"４４弄","HOUSE_NO":"２號","E_COORD97":171344.06,"N_COORD97":2542551.9199999999,"ADDRESS":"中華東路二段２４３巷４４弄２號","OBJECTID":156267},"geometry":{"x":171344.06000000052,"y":2542551.9199999999}},{"attributes":{"ID":156269,"DIS_CODE":0,"TOWNNAME":"東區","LI":"自強里","LIN":"21鄰","STREET":"中華東路","SECT":"二段","MAREA":" ","LANE":"２４３巷","ALLEY":"４４弄","HOUSE_NO":"３號","E_COORD97":171372.25,"N_COORD97":2542548.79,"ADDRESS":"中華東路二段２４３巷４４弄３號","OBJECTID":156268},"geometry":{"x":171372.25000000093,"y":2542548.7899999991}},{"attributes":{"ID":156270,"DIS_CODE":0,"TOWNNAME":"東區","LI":"自強里","LIN":"21鄰","STREET":"中華東路","SECT":"二段","MAREA":" ","LANE":"２４３巷","ALLEY":"４４弄","HOUSE_NO":"４號","E_COORD97":171344.59,"N_COORD97":2542545.7799999998,"ADDRESS":"中華東路二段２４３巷４４弄４號","OBJECTID":156269},"geometry":{"x":171344.58999999985,"y":2542545.7799999993}},{"attributes":{"ID":156271,"DIS_CODE":0,"TOWNNAME":"東區","LI":"自強里","LIN":"21鄰","STREET":"中華東路","SECT":"二段","MAREA":" ","LANE":"２４３巷","ALLEY":"４４弄","HOUSE_NO":"５號","E_COORD97":171378.04000000001,"N_COORD97":2542549.1400000001,"ADDRESS":"中華東路二段２４３巷４４弄５號","OBJECTID":156270},"geometry":{"x":171378.0400000019,"y":2542549.1400000043}},{"attributes":{"ID":156272,"DIS_CODE":0,"TOWNNAME":"東區","LI":"自強里","LIN":"21鄰","STREET":"中華東路","SECT":"二段","MAREA":" ","LANE":"２４３巷","ALLEY":"４４弄","HOUSE_NO":"７號","E_COORD97":171383.84,"N_COORD97":2542549.4900000002,"ADDRESS":"中華東路二段２４３巷４４弄７號","OBJECTID":156271},"geometry":{"x":171383.83999999985,"y":2542549.4899999984}},{"attributes":{"ID":156273,"DIS_CODE":0,"TOWNNAME":"東區","LI":"自強里","LIN":"21鄰","STREET":"中華東路","SECT":"二段","MAREA":" ","LANE":"２４３巷","ALLEY":"４４弄","HOUSE_NO":"９號","E_COORD97":171388.75,"N_COORD97":2542549.8399999999,"ADDRESS":"中華東路二段２４３巷４４弄９號","OBJECTID":156272},"geometry":{"x":171388.75000000093,"y":2542549.8399999999}},{"attributes":{"ID":156274,"DIS_CODE":0,"TOWNNAME":"永康區","LI":"東灣里","LIN":"2鄰","STREET":"立興街","SECT":" ","MAREA":" ","LANE":"２８巷","ALLEY":"１３弄","HOUSE_NO":"１２號","E_COORD97":174628.88,"N_COORD97":2544940.73,"ADDRESS":"立興街２８巷１３弄１２號","OBJECTID":156273},"geometry":{"x":174628.88000000082,"y":2544940.7300000004}},{"attributes":{"ID":156275,"DIS_CODE":0,"TOWNNAME":"永康區","LI":"西橋里","LIN":"2鄰","STREET":"中山南路","SECT":" ","MAREA":" ","LANE":"４３巷","ALLEY":"１０弄","HOUSE_NO":"１６號","E_COORD97":170782.17999999999,"N_COORD97":2545880.4900000002,"ADDRESS":"中山南路４３巷１０弄１６號","OBJECTID":156274},"geometry":{"x":170782.18000000063,"y":2545880.4900000021}},{"attributes":{"ID":156276,"DIS_CODE":0,"TOWNNAME":"永康區","LI":"尚頂里","LIN":"2鄰","STREET":"中正南路","SECT":" ","MAREA":" ","LANE":"３４４巷","ALLEY":"１１弄","HOUSE_NO":"２號","E_COORD97":171062.76999999999,"N_COORD97":2547948.3500000001,"ADDRESS":"中正南路３４４巷１１弄２號","OBJECTID":156275},"geometry":{"x":171062.77000000048,"y":2547948.3500000015}},{"attributes":{"ID":156277,"DIS_CODE":0,"TOWNNAME":"永康區","LI":"尚頂里","LIN":"2鄰","STREET":"中正南路","SECT":" ","MAREA":" ","LANE":"３４４巷","ALLEY":"１１弄","HOUSE_NO":"１０號","E_COORD97":171082.31,"N_COORD97":2547971.3599999999,"ADDRESS":"中正南路３４４巷１１弄１０號","OBJECTID":156276},"geometry":{"x":171082.30999999866,"y":2547971.3600000013}},{"attributes":{"ID":156278,"DIS_CODE":0,"TOWNNAME":"東區","LI":"自強里","LIN":"18鄰","STREET":"中華東路","SECT":"二段","MAREA":" ","LANE":"２０３巷","ALLEY":"１９弄","HOUSE_NO":"３９號","E_COORD97":171413.69,"N_COORD97":2542647.6299999999,"ADDRESS":"中華東路二段２０３巷１９弄３９號","OBJECTID":156277},"geometry":{"x":171413.69000000134,"y":2542647.629999999}},{"attributes":{"ID":156279,"DIS_CODE":0,"TOWNNAME":"麻豆區","LI":"安西里","LIN":"5鄰","STREET":" ","SECT":" ","MAREA":"安業","LANE":" ","ALLEY":" ","HOUSE_NO":"２３６號之１３","E_COORD97":172432.03,"N_COORD97":2561996.1000000001,"ADDRESS":"安業２３６號之１３","OBJECTID":156278},"geometry":{"x":172432.03000000026,"y":2561996.1000000015}},{"attributes":{"ID":156280,"DIS_CODE":0,"TOWNNAME":"東區","LI":"自強里","LIN":"18鄰","STREET":"中華東路","SECT":"二段","MAREA":" ","LANE":"２０３巷","ALLEY":"１９弄","HOUSE_NO":"３號","E_COORD97":171332.32000000001,"N_COORD97":2542631.3900000001,"ADDRESS":"中華東路二段２０３巷１９弄３號","OBJECTID":156279},"geometry":{"x":171332.32000000216,"y":2542631.3900000006}},{"attributes":{"ID":156281,"DIS_CODE":0,"TOWNNAME":"東區","LI":"自強里","LIN":"18鄰","STREET":"中華東路","SECT":"二段","MAREA":" ","LANE":"２０３巷","ALLEY":"１９弄","HOUSE_NO":"４１號","E_COORD97":171425.31,"N_COORD97":2542647.6299999999,"ADDRESS":"中華東路二段２０３巷１９弄４１號","OBJECTID":156280},"geometry":{"x":171425.31000000052,"y":2542647.629999999}},{"attributes":{"ID":156282,"DIS_CODE":0,"TOWNNAME":"東區","LI":"自強里","LIN":"18鄰","STREET":"中華東路","SECT":"二段","MAREA":" ","LANE":"２０３巷","ALLEY":"１９弄","HOUSE_NO":"４３號","E_COORD97":171433.23999999999,"N_COORD97":2542648.3999999999,"ADDRESS":"中華東路二段２０３巷１９弄４３號","OBJECTID":156281},"geometry":{"x":171433.24000000115,"y":2542648.4000000004}},{"attributes":{"ID":156283,"DIS_CODE":0,"TOWNNAME":"東區","LI":"自強里","LIN":"18鄰","STREET":"中華東路","SECT":"二段","MAREA":" ","LANE":"２０３巷","ALLEY":"１９弄","HOUSE_NO":"４５號","E_COORD97":171439.23999999999,"N_COORD97":2542645.5,"ADDRESS":"中華東路二段２０３巷１９弄４５號","OBJECTID":156282},"geometry":{"x":171439.24000000022,"y":2542645.5000000019}},{"attributes":{"ID":156284,"DIS_CODE":0,"TOWNNAME":"東區","LI":"自強里","LIN":"18鄰","STREET":"中華東路","SECT":"二段","MAREA":" ","LANE":"２０３巷","ALLEY":"１９弄","HOUSE_NO":"５號","E_COORD97":171337.14999999999,"N_COORD97":2542631.77,"ADDRESS":"中華東路二段２０３巷１９弄５號","OBJECTID":156283},"geometry":{"x":171337.1500000013,"y":2542631.7700000033}},{"attributes":{"ID":156285,"DIS_CODE":0,"TOWNNAME":"東區","LI":"自強里","LIN":"18鄰","STREET":"中華東路","SECT":"二段","MAREA":" ","LANE":"２０３巷","ALLEY":"１９弄","HOUSE_NO":"７號","E_COORD97":171340.82999999999,"N_COORD97":2542632.1600000001,"ADDRESS":"中華東路二段２０３巷１９弄７號","OBJECTID":156284},"geometry":{"x":171340.83000000101,"y":2542632.1600000001}},{"attributes":{"ID":156286,"DIS_CODE":0,"TOWNNAME":"東區","LI":"自強里","LIN":"18鄰","STREET":"中華東路","SECT":"二段","MAREA":" ","LANE":"２０３巷","ALLEY":"１９弄","HOUSE_NO":"９號","E_COORD97":171344.32000000001,"N_COORD97":2542632.3500000001,"ADDRESS":"中華東路二段２０３巷１９弄９號","OBJECTID":156285},"geometry":{"x":171344.32000000123,"y":2542632.3500000015}},{"attributes":{"ID":156287,"DIS_CODE":0,"TOWNNAME":"南區","LI":"田寮里","LIN":"2鄰","STREET":"新興路","SECT":" ","MAREA":" ","LANE":"２６７巷","ALLEY":"１５弄","HOUSE_NO":"７０號","E_COORD97":167357.29000000001,"N_COORD97":2541775.6899999999,"ADDRESS":"新興路２６７巷１５弄７０號","OBJECTID":156286},"geometry":{"x":167357.29000000097,"y":2541775.6900000013}},{"attributes":{"ID":156288,"DIS_CODE":0,"TOWNNAME":"南區","LI":"佛壇里","LIN":"2鄰","STREET":"興南街","SECT":" ","MAREA":" ","LANE":"２５２巷","ALLEY":"３５弄","HOUSE_NO":"６１號","E_COORD97":165778.79000000001,"N_COORD97":2535951.1000000001,"ADDRESS":"興南街２５２巷３５弄６１號","OBJECTID":156287},"geometry":{"x":165778.7900000019,"y":2535951.1000000015}},{"attributes":{"ID":156289,"DIS_CODE":0,"TOWNNAME":"南區","LI":"佛壇里","LIN":"2鄰","STREET":"興南街","SECT":" ","MAREA":" ","LANE":"２５２巷","ALLEY":"３５弄","HOUSE_NO":"６２號","E_COORD97":165776.88,"N_COORD97":2535962.0499999998,"ADDRESS":"興南街２５２巷３５弄６２號","OBJECTID":156288},"geometry":{"x":165776.88000000082,"y":2535962.0500000007}},{"attributes":{"ID":156290,"DIS_CODE":0,"TOWNNAME":"南區","LI":"興農里","LIN":"2鄰","STREET":"灣裡路","SECT":" ","MAREA":" ","LANE":"２６３巷","ALLEY":"６１弄","HOUSE_NO":"１１之５號","E_COORD97":166264.01000000001,"N_COORD97":2536523.3199999998,"ADDRESS":"灣裡路２６３巷６１弄１１之５號","OBJECTID":156289},"geometry":{"x":166264.01000000071,"y":2536523.3200000022}},{"attributes":{"ID":156291,"DIS_CODE":0,"TOWNNAME":"南區","LI":"佛壇里","LIN":"2鄰","STREET":"興南街","SECT":" ","MAREA":" ","LANE":"２２２巷","ALLEY":"３６弄","HOUSE_NO":"１號","E_COORD97":165945.84,"N_COORD97":2535879.21,"ADDRESS":"興南街２２２巷３６弄１號","OBJECTID":156290},"geometry":{"x":165945.83999999985,"y":2535879.2100000009}},{"attributes":{"ID":156292,"DIS_CODE":0,"TOWNNAME":"南區","LI":"佛壇里","LIN":"2鄰","STREET":"興南街","SECT":" ","MAREA":" ","LANE":"２２２巷","ALLEY":"３５弄","HOUSE_NO":"１３號","E_COORD97":165923.17999999999,"N_COORD97":2535843.0699999998,"ADDRESS":"興南街２２２巷３５弄１３號","OBJECTID":156291},"geometry":{"x":165923.17999999877,"y":2535843.070000004}},{"attributes":{"ID":156293,"DIS_CODE":0,"TOWNNAME":"南區","LI":"佛壇里","LIN":"2鄰","STREET":"興南街","SECT":" ","MAREA":" ","LANE":"２２２巷","ALLEY":"３５弄","HOUSE_NO":"１１號","E_COORD97":165925.72,"N_COORD97":2535846.7999999998,"ADDRESS":"興南街２２２巷３５弄１１號","OBJECTID":156292},"geometry":{"x":165925.71999999974,"y":2535846.8000000026}},{"attributes":{"ID":156294,"DIS_CODE":0,"TOWNNAME":"南區","LI":"佛壇里","LIN":"2鄰","STREET":"興南街","SECT":" ","MAREA":" ","LANE":"２２２巷","ALLEY":"３６弄","HOUSE_NO":"３號","E_COORD97":165944.57000000001,"N_COORD97":2535884.3700000001,"ADDRESS":"興南街２２２巷３６弄３號","OBJECTID":156293},"geometry":{"x":165944.5700000003,"y":2535884.370000001}},{"attributes":{"ID":156295,"DIS_CODE":0,"TOWNNAME":"南區","LI":"佛壇里","LIN":"2鄰","STREET":"興南街","SECT":" ","MAREA":" ","LANE":"２２２巷","ALLEY":"３６弄","HOUSE_NO":"５號","E_COORD97":165943.14000000001,"N_COORD97":2535889.1400000001,"ADDRESS":"興南街２２２巷３６弄５號","OBJECTID":156294},"geometry":{"x":165943.13999999966,"y":2535889.1400000006}},{"attributes":{"ID":156296,"DIS_CODE":0,"TOWNNAME":"南區","LI":"佛壇里","LIN":"2鄰","STREET":"興南街","SECT":" ","MAREA":" ","LANE":"２２２巷","ALLEY":"３６弄","HOUSE_NO":"７號","E_COORD97":165941.87,"N_COORD97":2535893.5800000001,"ADDRESS":"興南街２２２巷３６弄７號","OBJECTID":156295},"geometry":{"x":165941.87000000104,"y":2535893.5800000038}},{"attributes":{"ID":156297,"DIS_CODE":0,"TOWNNAME":"南區","LI":"佛壇里","LIN":"2鄰","STREET":"興南街","SECT":" ","MAREA":" ","LANE":"２２２巷","ALLEY":"３６弄","HOUSE_NO":"２號","E_COORD97":165951.07999999999,"N_COORD97":2535881.04,"ADDRESS":"興南街２２２巷３６弄２號","OBJECTID":156296},"geometry":{"x":165951.08000000007,"y":2535881.0399999991}},{"attributes":{"ID":156298,"DIS_CODE":0,"TOWNNAME":"安南區","LI":"海東里","LIN":"19鄰","STREET":"海佃路","SECT":"二段","MAREA":" ","LANE":"２６５巷","ALLEY":" ","HOUSE_NO":"６號","E_COORD97":166752.92999999999,"N_COORD97":2548628.0800000001,"ADDRESS":"海佃路二段２６５巷６號","OBJECTID":156297},"geometry":{"x":166752.93000000063,"y":2548628.0800000038}},{"attributes":{"ID":156299,"DIS_CODE":0,"TOWNNAME":"北區","LI":"公園里","LIN":"17鄰","STREET":"成功路","SECT":" ","MAREA":" ","LANE":" ","ALLEY":" ","HOUSE_NO":"３０號","E_COORD97":168847.10000000001,"N_COORD97":2544275.48,"ADDRESS":"成功路３０號","OBJECTID":156298},"geometry":{"x":168847.09999999963,"y":2544275.4799999986}},{"attributes":{"ID":156300,"DIS_CODE":0,"TOWNNAME":"北區","LI":"公園里","LIN":"17鄰","STREET":"成功路","SECT":" ","MAREA":" ","LANE":" ","ALLEY":" ","HOUSE_NO":"３２號","E_COORD97":168838.06,"N_COORD97":2544276.6899999999,"ADDRESS":"成功路３２號","OBJECTID":156299},"geometry":{"x":168838.06000000145,"y":2544276.6900000032}},{"attributes":{"ID":156301,"DIS_CODE":0,"TOWNNAME":"東區","LI":"關聖里","LIN":"15鄰","STREET":"裕平一街","SECT":" ","MAREA":" ","LANE":" ","ALLEY":" ","HOUSE_NO":"１９５號","E_COORD97":172333.51999999999,"N_COORD97":2543100.3199999998,"ADDRESS":"裕平一街１９５號","OBJECTID":156300},"geometry":{"x":172333.51999999955,"y":2543100.320000004}},{"attributes":{"ID":156302,"DIS_CODE":0,"TOWNNAME":"東區","LI":"關聖里","LIN":"15鄰","STREET":"裕平一街","SECT":" ","MAREA":" ","LANE":" ","ALLEY":" ","HOUSE_NO":"１９７號","E_COORD97":172338.73999999999,"N_COORD97":2543100.3199999998,"ADDRESS":"裕平一街１９７號","OBJECTID":156301},"geometry":{"x":172338.74000000115,"y":2543100.320000004}},{"attributes":{"ID":156303,"DIS_CODE":0,"TOWNNAME":"東區","LI":"關聖里","LIN":"15鄰","STREET":"裕平一街","SECT":" ","MAREA":" ","LANE":" ","ALLEY":" ","HOUSE_NO":"１９９號","E_COORD97":172344.53,"N_COORD97":2543100.0299999998,"ADDRESS":"裕平一街１９９號","OBJECTID":156302},"geometry":{"x":172344.53000000212,"y":2543100.0299999993}},{"attributes":{"ID":156304,"DIS_CODE":0,"TOWNNAME":"東區","LI":"關聖里","LIN":"15鄰","STREET":"裕平一街","SECT":" ","MAREA":" ","LANE":" ","ALLEY":" ","HOUSE_NO":"２０１號","E_COORD97":172350.03,"N_COORD97":2543099.4500000002,"ADDRESS":"裕平一街２０１號","OBJECTID":156303},"geometry":{"x":172350.03000000119,"y":2543099.4500000011}},{"attributes":{"ID":156305,"DIS_CODE":0,"TOWNNAME":"東區","LI":"關聖里","LIN":"15鄰","STREET":"裕平一街","SECT":" ","MAREA":" ","LANE":" ","ALLEY":" ","HOUSE_NO":"２０３號","E_COORD97":172356.12,"N_COORD97":2543099.7400000002,"ADDRESS":"裕平一街２０３號","OBJECTID":156304},"geometry":{"x":172356.12000000104,"y":2543099.7400000002}},{"attributes":{"ID":156306,"DIS_CODE":0,"TOWNNAME":"東區","LI":"關聖里","LIN":"15鄰","STREET":"裕平一街","SECT":" ","MAREA":" ","LANE":" ","ALLEY":" ","HOUSE_NO":"２０５號","E_COORD97":172362.48999999999,"N_COORD97":2543098.8700000001,"ADDRESS":"裕平一街２０５號","OBJECTID":156305},"geometry":{"x":172362.49000000115,"y":2543098.8700000029}},{"attributes":{"ID":156307,"DIS_CODE":0,"TOWNNAME":"東區","LI":"關聖里","LIN":"15鄰","STREET":"裕平一街","SECT":" ","MAREA":" ","LANE":" ","ALLEY":" ","HOUSE_NO":"２０７號","E_COORD97":172368.57999999999,"N_COORD97":2543099.1600000001,"ADDRESS":"裕平一街２０７號","OBJECTID":156306},"geometry":{"x":172368.58000000101,"y":2543099.160000002}},{"attributes":{"ID":156308,"DIS_CODE":0,"TOWNNAME":"東區","LI":"關聖里","LIN":"15鄰","STREET":"裕平一街","SECT":" ","MAREA":" ","LANE":" ","ALLEY":" ","HOUSE_NO":"２０９號","E_COORD97":172373.5,"N_COORD97":2543100.3199999998,"ADDRESS":"裕平一街２０９號","OBJECTID":156307},"geometry":{"x":172373.50000000093,"y":2543100.320000004}},{"attributes":{"ID":156309,"DIS_CODE":0,"TOWNNAME":"東區","LI":"關聖里","LIN":"15鄰","STREET":"裕平一街","SECT":" ","MAREA":" ","LANE":" ","ALLEY":" ","HOUSE_NO":"８２號","E_COORD97":172392.32999999999,"N_COORD97":2543053.0899999999,"ADDRESS":"裕平一街８２號","OBJECTID":156308},"geometry":{"x":172392.33000000007,"y":2543053.0899999999}},{"attributes":{"ID":156310,"DIS_CODE":0,"TOWNNAME":"東區","LI":"裕聖里","LIN":"15鄰","STREET":"裕孝路","SECT":" ","MAREA":" ","LANE":" ","ALLEY":" ","HOUSE_NO":"３０１號","E_COORD97":172445.29000000001,"N_COORD97":2542386.7000000002,"ADDRESS":"裕孝路３０１號","OBJECTID":156309},"geometry":{"x":172445.29000000004,"y":2542386.6999999993}},{"attributes":{"ID":156311,"DIS_CODE":0,"TOWNNAME":"安南區","LI":"海佃里","LIN":"22鄰","STREET":"海佃路","SECT":"一段","MAREA":" ","LANE":" ","ALLEY":" ","HOUSE_NO":"４１１號","E_COORD97":167013,"N_COORD97":2547663.0299999998,"ADDRESS":"海佃路一段４１１號","OBJECTID":156310},"geometry":{"x":167012.99999999907,"y":2547663.0299999993}},{"attributes":{"ID":156312,"DIS_CODE":0,"TOWNNAME":"安南區","LI":"海佃里","LIN":"22鄰","STREET":"海佃路","SECT":"一段","MAREA":" ","LANE":" ","ALLEY":" ","HOUSE_NO":"４１３號","E_COORD97":167013,"N_COORD97":2547668.3399999999,"ADDRESS":"海佃路一段４１３號","OBJECTID":156311},"geometry":{"x":167012.99999999907,"y":2547668.3399999999}},{"attributes":{"ID":156313,"DIS_CODE":0,"TOWNNAME":"安南區","LI":"海佃里","LIN":"22鄰","STREET":"海佃路","SECT":"一段","MAREA":" ","LANE":" ","ALLEY":" ","HOUSE_NO":"４１５號","E_COORD97":167013.66,"N_COORD97":2547672.3300000001,"ADDRESS":"海佃路一段４１５號","OBJECTID":156312},"geometry":{"x":167013.66000000015,"y":2547672.3300000001}},{"attributes":{"ID":156314,"DIS_CODE":0,"TOWNNAME":"安南區","LI":"海佃里","LIN":"22鄰","STREET":"海佃路","SECT":"一段","MAREA":" ","LANE":" ","ALLEY":" ","HOUSE_NO":"４１７號","E_COORD97":167013.66,"N_COORD97":2547677.6400000001,"ADDRESS":"海佃路一段４１７號","OBJECTID":156313},"geometry":{"x":167013.66000000015,"y":2547677.6400000006}},{"attributes":{"ID":156315,"DIS_CODE":0,"TOWNNAME":"安南區","LI":"海佃里","LIN":"22鄰","STREET":"海佃路","SECT":"一段","MAREA":" ","LANE":" ","ALLEY":" ","HOUSE_NO":"４１９號","E_COORD97":167012.32999999999,"N_COORD97":2547681.6299999999,"ADDRESS":"海佃路一段４１９號","OBJECTID":156314},"geometry":{"x":167012.33000000007,"y":2547681.6300000008}},{"attributes":{"ID":156316,"DIS_CODE":0,"TOWNNAME":"安南區","LI":"安東里","LIN":"24鄰","STREET":"安和路","SECT":"二段","MAREA":" ","LANE":" ","ALLEY":" ","HOUSE_NO":"３４號","E_COORD97":169461.38,"N_COORD97":2548598.3799999999,"ADDRESS":"安和路二段３４號","OBJECTID":156315},"geometry":{"x":169461.37999999989,"y":2548598.3800000008}},{"attributes":{"ID":156317,"DIS_CODE":0,"TOWNNAME":"南區","LI":"佛壇里","LIN":"2鄰","STREET":"興南街","SECT":" ","MAREA":" ","LANE":"２２２巷","ALLEY":"３６弄","HOUSE_NO":"６號","E_COORD97":165949.64999999999,"N_COORD97":2535885.6400000001,"ADDRESS":"興南街２２２巷３６弄６號","OBJECTID":156316},"geometry":{"x":165949.65000000224,"y":2535885.6400000006}},{"attributes":{"ID":156318,"DIS_CODE":0,"TOWNNAME":"南區","LI":"佛壇里","LIN":"2鄰","STREET":"興南街","SECT":" ","MAREA":" ","LANE":"２２２巷","ALLEY":"３６弄","HOUSE_NO":"１０號","E_COORD97":165946.47,"N_COORD97":2535895.4900000002,"ADDRESS":"興南街２２２巷３６弄１０號","OBJECTID":156317},"geometry":{"x":165946.46999999974,"y":2535895.4900000021}},{"attributes":{"ID":156319,"DIS_CODE":0,"TOWNNAME":"南區","LI":"佛壇里","LIN":"2鄰","STREET":"興南街","SECT":" ","MAREA":" ","LANE":"２２２巷","ALLEY":"３６弄","HOUSE_NO":"８號","E_COORD97":165948.06,"N_COORD97":2535890.4100000001,"ADDRESS":"興南街２２２巷３６弄８號","OBJECTID":156318},"geometry":{"x":165948.06000000052,"y":2535890.4100000001}},{"attributes":{"ID":156320,"DIS_CODE":0,"TOWNNAME":"東區","LI":"自強里","LIN":"17鄰","STREET":"中華東路","SECT":"二段","MAREA":" ","LANE":"２４３巷","ALLEY":"２４弄","HOUSE_NO":"１２號","E_COORD97":171256.01000000001,"N_COORD97":2542561.3900000001,"ADDRESS":"中華東路二段２４３巷２４弄１２號","OBJECTID":156319},"geometry":{"x":171256.01000000071,"y":2542561.3900000025}},{"attributes":{"ID":156321,"DIS_CODE":0,"TOWNNAME":"南區","LI":"佛壇里","LIN":"2鄰","STREET":"興南街","SECT":" ","MAREA":" ","LANE":"２２２巷","ALLEY":"３６弄","HOUSE_NO":"１２號","E_COORD97":165945.20000000001,"N_COORD97":2535899.9300000002,"ADDRESS":"興南街２２２巷３６弄１２號","OBJECTID":156320},"geometry":{"x":165945.20000000019,"y":2535899.9299999997}},{"attributes":{"ID":156322,"DIS_CODE":0,"TOWNNAME":"南區","LI":"佛壇里","LIN":"2鄰","STREET":"興南街","SECT":" ","MAREA":" ","LANE":"２２２巷","ALLEY":"３６弄","HOUSE_NO":"１６號","E_COORD97":165944.25,"N_COORD97":2535904.2999999998,"ADDRESS":"興南街２２２巷３６弄１６號","OBJECTID":156321},"geometry":{"x":165944.25000000093,"y":2535904.3000000026}},{"attributes":{"ID":156323,"DIS_CODE":0,"TOWNNAME":"南區","LI":"興農里","LIN":"2鄰","STREET":"灣裡路","SECT":" ","MAREA":" ","LANE":"２６３巷","ALLEY":"６１弄","HOUSE_NO":"１７號","E_COORD97":166265.92000000001,"N_COORD97":2536515.7799999998,"ADDRESS":"灣裡路２６３巷６１弄１７號","OBJECTID":156322},"geometry":{"x":166265.91999999899,"y":2536515.7800000012}},{"attributes":{"ID":156324,"DIS_CODE":0,"TOWNNAME":"東區","LI":"自強里","LIN":"17鄰","STREET":"中華東路","SECT":"二段","MAREA":" ","LANE":"２４３巷","ALLEY":"２４弄","HOUSE_NO":"７號","E_COORD97":171277.82999999999,"N_COORD97":2542567.7200000002,"ADDRESS":"中華東路二段２４３巷２４弄７號","OBJECTID":156323},"geometry":{"x":171277.83000000194,"y":2542567.7200000007}},{"attributes":{"ID":156325,"DIS_CODE":0,"TOWNNAME":"南區","LI":"佛壇里","LIN":"2鄰","STREET":"興南街","SECT":" ","MAREA":" ","LANE":"２２２巷","ALLEY":"３５弄","HOUSE_NO":"２號","E_COORD97":165919.54000000001,"N_COORD97":2535865.3500000001,"ADDRESS":"興南街２２２巷３５弄２號","OBJECTID":156324},"geometry":{"x":165919.5400000019,"y":2535865.3500000015}},{"attributes":{"ID":156326,"DIS_CODE":0,"TOWNNAME":"東區","LI":"裕農里","LIN":"2鄰","STREET":"裕農路","SECT":" ","MAREA":" ","LANE":"１２１巷","ALLEY":"２弄","HOUSE_NO":"７號","E_COORD97":170835.97,"N_COORD97":2543006.23,"ADDRESS":"裕農路１２１巷２弄７號","OBJECTID":156325},"geometry":{"x":170835.97000000067,"y":2543006.2300000042}},{"attributes":{"ID":156327,"DIS_CODE":0,"TOWNNAME":"東區","LI":"裕農里","LIN":"2鄰","STREET":"裕農路","SECT":" ","MAREA":" ","LANE":"１２１巷","ALLEY":"２弄","HOUSE_NO":"１２號","E_COORD97":170843.28,"N_COORD97":2543010.21,"ADDRESS":"裕農路１２１巷２弄１２號","OBJECTID":156326},"geometry":{"x":170843.28000000119,"y":2543010.2100000046}},{"attributes":{"ID":156328,"DIS_CODE":0,"TOWNNAME":"東區","LI":"裕農里","LIN":"2鄰","STREET":"裕農路","SECT":" ","MAREA":" ","LANE":"１２１巷","ALLEY":"２弄","HOUSE_NO":"１號","E_COORD97":170825.34,"N_COORD97":2542998.71,"ADDRESS":"裕農路１２１巷２弄１號","OBJECTID":156327},"geometry":{"x":170825.34000000078,"y":2542998.7100000009}},{"attributes":{"ID":156329,"DIS_CODE":0,"TOWNNAME":"東區","LI":"裕農里","LIN":"2鄰","STREET":"裕農路","SECT":" ","MAREA":" ","LANE":"１２１巷","ALLEY":"１弄","HOUSE_NO":"７號","E_COORD97":170806.41,"N_COORD97":2542990.8300000001,"ADDRESS":"裕農路１２１巷１弄７號","OBJECTID":156328},"geometry":{"x":170806.41000000108,"y":2542990.8300000001}},{"attributes":{"ID":156330,"DIS_CODE":0,"TOWNNAME":"東區","LI":"裕農里","LIN":"2鄰","STREET":"裕農路","SECT":" ","MAREA":" ","LANE":"１２１巷","ALLEY":"１弄","HOUSE_NO":"９號","E_COORD97":170802.38,"N_COORD97":2542989.8999999999,"ADDRESS":"裕農路１２１巷１弄９號","OBJECTID":156329},"geometry":{"x":170802.37999999989,"y":2542989.9000000004}},{"attributes":{"ID":156331,"DIS_CODE":0,"TOWNNAME":"東區","LI":"裕農里","LIN":"2鄰","STREET":"裕農路","SECT":" ","MAREA":" ","LANE":"１２１巷","ALLEY":"１弄","HOUSE_NO":"１３號","E_COORD97":170794.95000000001,"N_COORD97":2542986.5,"ADDRESS":"裕農路１２１巷１弄１３號","OBJECTID":156330},"geometry":{"x":170794.95000000019,"y":2542986.5}},{"attributes":{"ID":156332,"DIS_CODE":0,"TOWNNAME":"東區","LI":"裕農里","LIN":"2鄰","STREET":"裕農路","SECT":" ","MAREA":" ","LANE":"１２１巷","ALLEY":"２弄","HOUSE_NO":"２０號","E_COORD97":170857.67999999999,"N_COORD97":2543017.0699999998,"ADDRESS":"裕農路１２１巷２弄２０號","OBJECTID":156331},"geometry":{"x":170857.6799999997,"y":2543017.070000004}},{"attributes":{"ID":156333,"DIS_CODE":0,"TOWNNAME":"東區","LI":"裕農里","LIN":"2鄰","STREET":"裕農路","SECT":" ","MAREA":" ","LANE":"１２１巷","ALLEY":"１弄","HOUSE_NO":"１號","E_COORD97":170813.84,"N_COORD97":2542992.6800000002,"ADDRESS":"裕農路１２１巷１弄１號","OBJECTID":156332},"geometry":{"x":170813.83999999985,"y":2542992.6800000016}},{"attributes":{"ID":156334,"DIS_CODE":0,"TOWNNAME":"安南區","LI":"溪墘里","LIN":"14鄰","STREET":"海佃路","SECT":"一段","MAREA":" ","LANE":" ","ALLEY":" ","HOUSE_NO":"３２６號","E_COORD97":167108.23000000001,"N_COORD97":2547485.7599999998,"ADDRESS":"海佃路一段３２６號","OBJECTID":156333},"geometry":{"x":167108.23000000045,"y":2547485.7599999998}},{"attributes":{"ID":156335,"DIS_CODE":0,"TOWNNAME":"安南區","LI":"溪墘里","LIN":"14鄰","STREET":"海佃路","SECT":"一段","MAREA":" ","LANE":" ","ALLEY":" ","HOUSE_NO":"３２８號","E_COORD97":167107.09,"N_COORD97":2547490.3700000001,"ADDRESS":"海佃路一段３２８號","OBJECTID":156334},"geometry":{"x":167107.08999999985,"y":2547490.370000001}},{"attributes":{"ID":156336,"DIS_CODE":0,"TOWNNAME":"安南區","LI":"溪墘里","LIN":"15鄰","STREET":"海佃路","SECT":"一段","MAREA":" ","LANE":" ","ALLEY":" ","HOUSE_NO":"３３６號","E_COORD97":167103.12,"N_COORD97":2547507.6000000001,"ADDRESS":"海佃路一段３３６號","OBJECTID":156335},"geometry":{"x":167103.12000000011,"y":2547507.5999999996}},{"attributes":{"ID":156337,"DIS_CODE":0,"TOWNNAME":"中西區","LI":"保安里","LIN":" ","STREET":"友愛街","SECT":" ","MAREA":" ","LANE":" ","ALLEY":" ","HOUSE_NO":"１４４號","E_COORD97":167745.32000000001,"N_COORD97":2543616.9399999999,"ADDRESS":"友愛街１４４號","OBJECTID":156336},"geometry":{"x":167745.32000000216,"y":2543616.9399999995}},{"attributes":{"ID":156338,"DIS_CODE":0,"TOWNNAME":"安南區","LI":"海東里","LIN":"20鄰","STREET":"海佃路","SECT":"二段","MAREA":" ","LANE":" ","ALLEY":" ","HOUSE_NO":"２７３號","E_COORD97":166812.04999999999,"N_COORD97":2548619.54,"ADDRESS":"海佃路二段２７３號","OBJECTID":156337},"geometry":{"x":166812.04999999981,"y":2548619.5399999991}},{"attributes":{"ID":156339,"DIS_CODE":0,"TOWNNAME":"東區","LI":"裕農里","LIN":"2鄰","STREET":"裕農路","SECT":" ","MAREA":" ","LANE":"１２１巷","ALLEY":"１弄","HOUSE_NO":"１７號","E_COORD97":170786.91,"N_COORD97":2542982.48,"ADDRESS":"裕農路１２１巷１弄１７號","OBJECTID":156338},"geometry":{"x":170786.91000000015,"y":2542982.4800000004}},{"attributes":{"ID":156340,"DIS_CODE":0,"TOWNNAME":"東區","LI":"裕農里","LIN":"2鄰","STREET":"裕農路","SECT":" ","MAREA":" ","LANE":"１２１巷","ALLEY":"２弄","HOUSE_NO":"２２號","E_COORD97":170862.98999999999,"N_COORD97":2543019.2799999998,"ADDRESS":"裕農路１２１巷２弄２２號","OBJECTID":156339},"geometry":{"x":170862.99000000022,"y":2543019.2800000012}},{"attributes":{"ID":156341,"DIS_CODE":0,"TOWNNAME":"安南區","LI":"海西里","LIN":"2鄰","STREET":"海中街","SECT":" ","MAREA":" ","LANE":"１６９巷","ALLEY":"５８弄","HOUSE_NO":"５號","E_COORD97":166247.42999999999,"N_COORD97":2549123.3799999999,"ADDRESS":"海中街１６９巷５８弄５號","OBJECTID":156340},"geometry":{"x":166247.43000000063,"y":2549123.3800000008}},{"attributes":{"ID":156342,"DIS_CODE":0,"TOWNNAME":"安南區","LI":"海西里","LIN":"2鄰","STREET":"海中街","SECT":" ","MAREA":" ","LANE":"１６９巷","ALLEY":"５８弄","HOUSE_NO":"７號","E_COORD97":166242.41,"N_COORD97":2549132.1600000001,"ADDRESS":"海中街１６９巷５８弄７號","OBJECTID":156341},"geometry":{"x":166242.41000000015,"y":2549132.1600000001}},{"attributes":{"ID":156343,"DIS_CODE":0,"TOWNNAME":"安南區","LI":"海西里","LIN":"2鄰","STREET":"海中街","SECT":" ","MAREA":" ","LANE":"１６９巷","ALLEY":"５８弄","HOUSE_NO":"１號","E_COORD97":166255.81,"N_COORD97":2549112.0800000001,"ADDRESS":"海中街１６９巷５８弄１號","OBJECTID":156342},"geometry":{"x":166255.80999999959,"y":2549112.0800000001}},{"attributes":{"ID":156344,"DIS_CODE":0,"TOWNNAME":"安南區","LI":"海西里","LIN":"2鄰","STREET":"海中街","SECT":" ","MAREA":" ","LANE":"１６９巷","ALLEY":"５８弄","HOUSE_NO":"３號","E_COORD97":166252.04000000001,"N_COORD97":2549118.7799999998,"ADDRESS":"海中街１６９巷５８弄３號","OBJECTID":156343},"geometry":{"x":166252.04000000097,"y":2549118.7800000012}},{"attributes":{"ID":156345,"DIS_CODE":0,"TOWNNAME":"東區","LI":"自強里","LIN":"17鄰","STREET":"中華東路","SECT":"二段","MAREA":" ","LANE":"２９５巷","ALLEY":"２７弄","HOUSE_NO":"１８號","E_COORD97":171251.32000000001,"N_COORD97":2542535.4399999999,"ADDRESS":"中華東路二段２９５巷２７弄１８號","OBJECTID":156344},"geometry":{"x":171251.32000000123,"y":2542535.4399999995}},{"attributes":{"ID":156346,"DIS_CODE":0,"TOWNNAME":"東區","LI":"自強里","LIN":"17鄰","STREET":"中華東路","SECT":"二段","MAREA":" ","LANE":"２９５巷","ALLEY":"２７弄","HOUSE_NO":"２０號","E_COORD97":171248.69,"N_COORD97":2542531.29,"ADDRESS":"中華東路二段２９５巷２７弄２０號","OBJECTID":156345},"geometry":{"x":171248.69000000134,"y":2542531.2899999991}},{"attributes":{"ID":156347,"DIS_CODE":0,"TOWNNAME":"東區","LI":"自強里","LIN":"17鄰","STREET":"中華東路","SECT":"二段","MAREA":" ","LANE":"２９５巷","ALLEY":"２７弄","HOUSE_NO":"２２號","E_COORD97":171246.04999999999,"N_COORD97":2542527.6099999999,"ADDRESS":"中華東路二段２９５巷２７弄２２號","OBJECTID":156346},"geometry":{"x":171246.05000000075,"y":2542527.6100000031}},{"attributes":{"ID":156348,"DIS_CODE":0,"TOWNNAME":"永康區","LI":"崑山里","LIN":"19鄰","STREET":"大仁街","SECT":" ","MAREA":" ","LANE":" ","ALLEY":" ","HOUSE_NO":"９之３號","E_COORD97":173801.84,"N_COORD97":2544523.2999999998,"ADDRESS":"大仁街９之３號","OBJECTID":156347},"geometry":{"x":173801.84000000078,"y":2544523.3000000007}},{"attributes":{"ID":156349,"DIS_CODE":0,"TOWNNAME":"永康區","LI":"東橋里","LIN":"19鄰","STREET":"中山南路","SECT":" ","MAREA":" ","LANE":" ","ALLEY":" ","HOUSE_NO":"４２５號","E_COORD97":172832.60999999999,"N_COORD97":2546853.8900000001,"ADDRESS":"中山南路４２５號","OBJECTID":156348},"geometry":{"x":172832.61000000127,"y":2546853.8900000025}},{"attributes":{"ID":156350,"DIS_CODE":0,"TOWNNAME":"永康區","LI":"烏竹里","LIN":"19鄰","STREET":"龍中街","SECT":" ","MAREA":" ","LANE":" ","ALLEY":" ","HOUSE_NO":"２２４號","E_COORD97":174376.91,"N_COORD97":2548519.21,"ADDRESS":"龍中街２２４號","OBJECTID":156349},"geometry":{"x":174376.91000000108,"y":2548519.209999999}},{"attributes":{"ID":156351,"DIS_CODE":0,"TOWNNAME":"安南區","LI":"原佃里","LIN":"4鄰","STREET":"本原街","SECT":"一段","MAREA":" ","LANE":" ","ALLEY":" ","HOUSE_NO":"３２號","E_COORD97":168151.95999999999,"N_COORD97":2550187.29,"ADDRESS":"本原街一段３２號","OBJECTID":156350},"geometry":{"x":168151.95999999996,"y":2550187.2899999991}},{"attributes":{"ID":156352,"DIS_CODE":0,"TOWNNAME":"安南區","LI":"原佃里","LIN":"4鄰","STREET":"本原街","SECT":"一段","MAREA":" ","LANE":" ","ALLEY":" ","HOUSE_NO":"４６號","E_COORD97":168117.10999999999,"N_COORD97":2550188.5600000001,"ADDRESS":"本原街一段４６號","OBJECTID":156351},"geometry":{"x":168117.11000000127,"y":2550188.5600000024}},{"attributes":{"ID":156353,"DIS_CODE":0,"TOWNNAME":"東區","LI":"自強里","LIN":"17鄰","STREET":"中華東路","SECT":"二段","MAREA":" ","LANE":"２９５巷","ALLEY":"２７弄","HOUSE_NO":"２４號","E_COORD97":171243.07000000001,"N_COORD97":2542524.46,"ADDRESS":"中華東路二段２９５巷２７弄２４號","OBJECTID":156352},"geometry":{"x":171243.07000000123,"y":2542524.4600000028}},{"attributes":{"ID":156354,"DIS_CODE":0,"TOWNNAME":"東區","LI":"自強里","LIN":"17鄰","STREET":"中華東路","SECT":"二段","MAREA":" ","LANE":"２９５巷","ALLEY":"２７弄","HOUSE_NO":"２６號","E_COORD97":171266.59,"N_COORD97":2542522.5,"ADDRESS":"中華東路二段２９５巷２７弄２６號","OBJECTID":156353},"geometry":{"x":171266.58999999985,"y":2542522.5000000037}},{"attributes":{"ID":156355,"DIS_CODE":0,"TOWNNAME":"安南區","LI":"學東里","LIN":"2鄰","STREET":"公學路","SECT":"六段","MAREA":" ","LANE":"４６９巷","ALLEY":"７２弄","HOUSE_NO":"１０號","E_COORD97":162537.35000000001,"N_COORD97":2553034.4900000002,"ADDRESS":"公學路六段４６９巷７２弄１０號","OBJECTID":156354},"geometry":{"x":162537.35000000056,"y":2553034.4900000002}},{"attributes":{"ID":156356,"DIS_CODE":0,"TOWNNAME":"安南區","LI":"學東里","LIN":"2鄰","STREET":"公學路","SECT":"六段","MAREA":" ","LANE":"４６９巷","ALLEY":"７２弄","HOUSE_NO":"１２號","E_COORD97":162526.39000000001,"N_COORD97":2553032.4900000002,"ADDRESS":"公學路六段４６９巷７２弄１２號","OBJECTID":156355},"geometry":{"x":162526.39000000153,"y":2553032.4900000002}},{"attributes":{"ID":156357,"DIS_CODE":0,"TOWNNAME":"安南區","LI":"學東里","LIN":"2鄰","STREET":"公學路","SECT":"六段","MAREA":" ","LANE":"４６９巷","ALLEY":"７２弄","HOUSE_NO":"８號","E_COORD97":162545.04000000001,"N_COORD97":2553032.21,"ADDRESS":"公學路六段４６９巷７２弄８號","OBJECTID":156356},"geometry":{"x":162545.04000000097,"y":2553032.2100000046}},{"attributes":{"ID":156358,"DIS_CODE":0,"TOWNNAME":"安南區","LI":"四草里","LIN":"3鄰","STREET":"大眾路","SECT":" ","MAREA":" ","LANE":"３０１巷","ALLEY":"８０弄","HOUSE_NO":"４００號","E_COORD97":161671.47776000001,"N_COORD97":2546218.2317400002,"ADDRESS":"大眾路３０１巷８０弄４００號","OBJECTID":156357},"geometry":{"x":161671.47776000109,"y":2546218.2317430042}},{"attributes":{"ID":156359,"DIS_CODE":0,"TOWNNAME":"安南區","LI":"淵東里","LIN":"2鄰","STREET":"海佃路","SECT":"四段","MAREA":" ","LANE":"５５巷","ALLEY":"４８弄","HOUSE_NO":"１０１號","E_COORD97":165478.07000000001,"N_COORD97":2550716.1000000001,"ADDRESS":"海佃路四段５５巷４８弄１０１號","OBJECTID":156358},"geometry":{"x":165478.0700000003,"y":2550716.1000000015}},{"attributes":{"ID":156360,"DIS_CODE":0,"TOWNNAME":"安南區","LI":"淵東里","LIN":"2鄰","STREET":"海佃路","SECT":"四段","MAREA":" ","LANE":"５５巷","ALLEY":"４８弄","HOUSE_NO":"１０３號","E_COORD97":165474.12,"N_COORD97":2550715.3999999999,"ADDRESS":"海佃路四段５５巷４８弄１０３號","OBJECTID":156359},"geometry":{"x":165474.12000000011,"y":2550715.4000000022}},{"attributes":{"ID":156361,"DIS_CODE":0,"TOWNNAME":"安南區","LI":"淵東里","LIN":"2鄰","STREET":"海佃路","SECT":"四段","MAREA":" ","LANE":"５５巷","ALLEY":"４８弄","HOUSE_NO":"１０５號","E_COORD97":165470.17000000001,"N_COORD97":2550711.54,"ADDRESS":"海佃路四段５５巷４８弄１０５號","OBJECTID":156360},"geometry":{"x":165470.16999999993,"y":2550711.5399999991}},{"attributes":{"ID":156362,"DIS_CODE":0,"TOWNNAME":"安南區","LI":"淵東里","LIN":"2鄰","STREET":"海佃路","SECT":"四段","MAREA":" ","LANE":"５５巷","ALLEY":"４８弄","HOUSE_NO":"１０７號","E_COORD97":165464.76999999999,"N_COORD97":2550710.3599999999,"ADDRESS":"海佃路四段５５巷４８弄１０７號","OBJECTID":156361},"geometry":{"x":165464.77000000142,"y":2550710.3600000031}},{"attributes":{"ID":156363,"DIS_CODE":0,"TOWNNAME":"安南區","LI":"淵東里","LIN":"2鄰","STREET":"海佃路","SECT":"四段","MAREA":" ","LANE":"５５巷","ALLEY":"４８弄","HOUSE_NO":"１０９號","E_COORD97":165459.45999999999,"N_COORD97":2550709.1400000001,"ADDRESS":"海佃路四段５５巷４８弄１０９號","OBJECTID":156362},"geometry":{"x":165459.46000000089,"y":2550709.1400000006}},{"attributes":{"ID":156364,"DIS_CODE":0,"TOWNNAME":"安南區","LI":"淵東里","LIN":"2鄰","STREET":"海佃路","SECT":"四段","MAREA":" ","LANE":"５５巷","ALLEY":"４８弄","HOUSE_NO":"１１１號","E_COORD97":165455.98000000001,"N_COORD97":2550732.4100000001,"ADDRESS":"海佃路四段５５巷４８弄１１１號","OBJECTID":156363},"geometry":{"x":165455.98000000138,"y":2550732.410000002}},{"attributes":{"ID":156365,"DIS_CODE":0,"TOWNNAME":"安南區","LI":"淵東里","LIN":"2鄰","STREET":"海佃路","SECT":"四段","MAREA":" ","LANE":"５５巷","ALLEY":"４８弄","HOUSE_NO":"１１３號","E_COORD97":165459.95000000001,"N_COORD97":2550733.79,"ADDRESS":"海佃路四段５５巷４８弄１１３號","OBJECTID":156364},"geometry":{"x":165459.95000000112,"y":2550733.7899999991}},{"attributes":{"ID":156366,"DIS_CODE":0,"TOWNNAME":"安南區","LI":"淵東里","LIN":"2鄰","STREET":"海佃路","SECT":"四段","MAREA":" ","LANE":"５５巷","ALLEY":"４８弄","HOUSE_NO":"１１５號","E_COORD97":165464.57000000001,"N_COORD97":2550734.9199999999,"ADDRESS":"海佃路四段５５巷４８弄１１５號","OBJECTID":156365},"geometry":{"x":165464.5700000003,"y":2550734.9200000018}},{"attributes":{"ID":156367,"DIS_CODE":0,"TOWNNAME":"安南區","LI":"淵東里","LIN":"2鄰","STREET":"海佃路","SECT":"四段","MAREA":" ","LANE":"５５巷","ALLEY":"４８弄","HOUSE_NO":"１１７號","E_COORD97":165469.17999999999,"N_COORD97":2550736.29,"ADDRESS":"海佃路四段５５巷４８弄１１７號","OBJECTID":156366},"geometry":{"x":165469.18000000063,"y":2550736.2899999991}},{"attributes":{"ID":156368,"DIS_CODE":0,"TOWNNAME":"安南區","LI":"淵東里","LIN":"2鄰","STREET":"海佃路","SECT":"四段","MAREA":" ","LANE":"５５巷","ALLEY":"４８弄","HOUSE_NO":"１１９號","E_COORD97":165473.48000000001,"N_COORD97":2550737.1800000002,"ADDRESS":"海佃路四段５５巷４８弄１１９號","OBJECTID":156367},"geometry":{"x":165473.48000000138,"y":2550737.1800000016}},{"attributes":{"ID":156369,"DIS_CODE":0,"TOWNNAME":"安南區","LI":"原佃里","LIN":"4鄰","STREET":"本原街","SECT":"一段","MAREA":" ","LANE":" ","ALLEY":" ","HOUSE_NO":"５２號","E_COORD97":168090.25,"N_COORD97":2550187.3599999999,"ADDRESS":"本原街一段５２號","OBJECTID":156368},"geometry":{"x":168090.25000000093,"y":2550187.3599999994}},{"attributes":{"ID":156370,"DIS_CODE":0,"TOWNNAME":"麻豆區","LI":"安西里","LIN":"5鄰","STREET":" ","SECT":" ","MAREA":"安業","LANE":" ","ALLEY":" ","HOUSE_NO":"２３６號之１４","E_COORD97":172439.37,"N_COORD97":2561975.2400000002,"ADDRESS":"安業２３６號之１４","OBJECTID":156369},"geometry":{"x":172439.37000000104,"y":2561975.2400000021}},{"attributes":{"ID":156371,"DIS_CODE":0,"TOWNNAME":"麻豆區","LI":"安西里","LIN":"5鄰","STREET":" ","SECT":" ","MAREA":"安業","LANE":" ","ALLEY":" ","HOUSE_NO":"２３６號之１５","E_COORD97":172447.94,"N_COORD97":2561976.9900000002,"ADDRESS":"安業２３６號之１５","OBJECTID":156370},"geometry":{"x":172447.94000000041,"y":2561976.9900000021}},{"attributes":{"ID":156372,"DIS_CODE":0,"TOWNNAME":"永康區","LI":"南灣里","LIN":"19鄰","STREET":"大灣一街","SECT":" ","MAREA":" ","LANE":" ","ALLEY":" ","HOUSE_NO":"８０號","E_COORD97":174388.82000000001,"N_COORD97":2544730.4300000002,"ADDRESS":"大灣一街８０號","OBJECTID":156371},"geometry":{"x":174388.82000000216,"y":2544730.4300000016}},{"attributes":{"ID":156373,"DIS_CODE":0,"TOWNNAME":"安南區","LI":"淵東里","LIN":"2鄰","STREET":"海佃路","SECT":"四段","MAREA":" ","LANE":"５５巷","ALLEY":"４８弄","HOUSE_NO":"１２１號","E_COORD97":165477.44,"N_COORD97":2550738.3100000001,"ADDRESS":"海佃路四段５５巷４８弄１２１號","OBJECTID":156372},"geometry":{"x":165477.44000000041,"y":2550738.3100000005}},{"attributes":{"ID":156374,"DIS_CODE":0,"TOWNNAME":"安南區","LI":"淵東里","LIN":"2鄰","STREET":"海佃路","SECT":"四段","MAREA":" ","LANE":"５５巷","ALLEY":"４８弄","HOUSE_NO":"１２３號","E_COORD97":165482.06,"N_COORD97":2550738.96,"ADDRESS":"海佃路四段５５巷４８弄１２３號","OBJECTID":156373},"geometry":{"x":165482.06000000052,"y":2550738.9600000028}},{"attributes":{"ID":156375,"DIS_CODE":0,"TOWNNAME":"新市區","LI":"新市里","LIN":"19鄰","STREET":"和平街","SECT":" ","MAREA":" ","LANE":" ","ALLEY":" ","HOUSE_NO":"１９號","E_COORD97":177735.73999999999,"N_COORD97":2553448.75,"ADDRESS":"和平街１９號","OBJECTID":156374},"geometry":{"x":177735.74000000115,"y":2553448.7500000019}},{"attributes":{"ID":156376,"DIS_CODE":0,"TOWNNAME":"安南區","LI":"淵東里","LIN":"2鄰","STREET":"海佃路","SECT":"四段","MAREA":" ","LANE":"５５巷","ALLEY":"４８弄","HOUSE_NO":"１２５號","E_COORD97":165486.51000000001,"N_COORD97":2550739.9300000002,"ADDRESS":"海佃路四段５５巷４８弄１２５號","OBJECTID":156375},"geometry":{"x":165486.50999999978,"y":2550739.9299999997}},{"attributes":{"ID":156377,"DIS_CODE":0,"TOWNNAME":"安南區","LI":"淵東里","LIN":"2鄰","STREET":"海佃路","SECT":"四段","MAREA":" ","LANE":"５５巷","ALLEY":"４８弄","HOUSE_NO":"１２７號","E_COORD97":165490.56,"N_COORD97":2550740.98,"ADDRESS":"海佃路四段５５巷４８弄１２７號","OBJECTID":156376},"geometry":{"x":165490.56000000052,"y":2550740.9799999986}},{"attributes":{"ID":156378,"DIS_CODE":0,"TOWNNAME":"安南區","LI":"淵東里","LIN":"2鄰","STREET":"海佃路","SECT":"四段","MAREA":" ","LANE":"５５巷","ALLEY":"４８弄","HOUSE_NO":"１３３號","E_COORD97":165504.13,"N_COORD97":2550744.1499999999,"ADDRESS":"海佃路四段５５巷４８弄１３３號","OBJECTID":156377},"geometry":{"x":165504.13000000082,"y":2550744.1500000022}},{"attributes":{"ID":156379,"DIS_CODE":0,"TOWNNAME":"安南區","LI":"淵東里","LIN":"2鄰","STREET":"海佃路","SECT":"四段","MAREA":" ","LANE":"５５巷","ALLEY":"４８弄","HOUSE_NO":"１３５號","E_COORD97":165508.29999999999,"N_COORD97":2550745.0499999998,"ADDRESS":"海佃路四段５５巷４８弄１３５號","OBJECTID":156378},"geometry":{"x":165508.29999999981,"y":2550745.0500000026}},{"attributes":{"ID":156380,"DIS_CODE":0,"TOWNNAME":"安南區","LI":"淵東里","LIN":"2鄰","STREET":"海佃路","SECT":"四段","MAREA":" ","LANE":"５５巷","ALLEY":"４８弄","HOUSE_NO":"１３７號","E_COORD97":165512.48000000001,"N_COORD97":2550746.2400000002,"ADDRESS":"海佃路四段５５巷４８弄１３７號","OBJECTID":156379},"geometry":{"x":165512.48000000138,"y":2550746.2400000039}},{"attributes":{"ID":156381,"DIS_CODE":0,"TOWNNAME":"安南區","LI":"淵東里","LIN":"2鄰","STREET":"海佃路","SECT":"四段","MAREA":" ","LANE":"５５巷","ALLEY":"４８弄","HOUSE_NO":"１３９號","E_COORD97":165517.14999999999,"N_COORD97":2550747.23,"ADDRESS":"海佃路四段５５巷４８弄１３９號","OBJECTID":156380},"geometry":{"x":165517.15000000037,"y":2550747.2300000023}},{"attributes":{"ID":156382,"DIS_CODE":0,"TOWNNAME":"安南區","LI":"淵東里","LIN":"2鄰","STREET":"海佃路","SECT":"四段","MAREA":" ","LANE":"５５巷","ALLEY":"４８弄","HOUSE_NO":"１４１號","E_COORD97":165525.22,"N_COORD97":2550739.3799999999,"ADDRESS":"海佃路四段５５巷４８弄１４１號","OBJECTID":156381},"geometry":{"x":165525.22000000067,"y":2550739.379999999}},{"attributes":{"ID":156383,"DIS_CODE":0,"TOWNNAME":"安南區","LI":"東和里","LIN":"1鄰","STREET":"長和路","SECT":"一段","MAREA":" ","LANE":"８７１巷","ALLEY":" ","HOUSE_NO":"１５號","E_COORD97":170762.61901900001,"N_COORD97":2551450.8075100002,"ADDRESS":"長和路一段８７１巷１５號","OBJECTID":156382},"geometry":{"x":170762.61901899986,"y":2551450.8075070046}},{"attributes":{"ID":156384,"DIS_CODE":0,"TOWNNAME":"新市區","LI":"社內里","LIN":"19鄰","STREET":" ","SECT":" ","MAREA":"社內","LANE":" ","ALLEY":" ","HOUSE_NO":"１９５之１號","E_COORD97":176098.37,"N_COORD97":2553050.0499999998,"ADDRESS":"社內１９５之１號","OBJECTID":156383},"geometry":{"x":176098.37000000011,"y":2553050.0500000045}},{"attributes":{"ID":156385,"DIS_CODE":0,"TOWNNAME":"新市區","LI":"社內里","LIN":"19鄰","STREET":" ","SECT":" ","MAREA":"社內","LANE":" ","ALLEY":" ","HOUSE_NO":"１９６號","E_COORD97":176050.23000000001,"N_COORD97":2553042.5,"ADDRESS":"社內１９６號","OBJECTID":156384},"geometry":{"x":176050.23000000045,"y":2553042.4999999981}},{"attributes":{"ID":156386,"DIS_CODE":0,"TOWNNAME":"安南區","LI":"淵東里","LIN":"2鄰","STREET":"海佃路","SECT":"四段","MAREA":" ","LANE":"５５巷","ALLEY":"４８弄","HOUSE_NO":"１４３號","E_COORD97":165523.64000000001,"N_COORD97":2550746.7400000002,"ADDRESS":"海佃路四段５５巷４８弄１４３號","OBJECTID":156385},"geometry":{"x":165523.6400000006,"y":2550746.7400000021}},{"attributes":{"ID":156387,"DIS_CODE":0,"TOWNNAME":"安南區","LI":"淵東里","LIN":"2鄰","STREET":"海佃路","SECT":"四段","MAREA":" ","LANE":"５５巷","ALLEY":"４８弄","HOUSE_NO":"７３號","E_COORD97":165525.75,"N_COORD97":2550726.5899999999,"ADDRESS":"海佃路四段５５巷４８弄７３號","OBJECTID":156386},"geometry":{"x":165525.75,"y":2550726.5900000017}},{"attributes":{"ID":156388,"DIS_CODE":0,"TOWNNAME":"安南區","LI":"淵東里","LIN":"2鄰","STREET":"海佃路","SECT":"四段","MAREA":" ","LANE":"５５巷","ALLEY":"４８弄","HOUSE_NO":"７５號","E_COORD97":165526.10000000001,"N_COORD97":2550722.3799999999,"ADDRESS":"海佃路四段５５巷４８弄７５號","OBJECTID":156387},"geometry":{"x":165526.10000000056,"y":2550722.379999999}},{"attributes":{"ID":156389,"DIS_CODE":0,"TOWNNAME":"安南區","LI":"淵東里","LIN":"2鄰","STREET":"海佃路","SECT":"四段","MAREA":" ","LANE":"５５巷","ALLEY":"４８弄","HOUSE_NO":"７７號","E_COORD97":165526.28,"N_COORD97":2550718.3500000001,"ADDRESS":"海佃路四段５５巷４８弄７７號","OBJECTID":156388},"geometry":{"x":165526.28000000026,"y":2550718.3500000015}},{"attributes":{"ID":156390,"DIS_CODE":0,"TOWNNAME":"安南區","LI":"淵東里","LIN":"2鄰","STREET":"海佃路","SECT":"四段","MAREA":" ","LANE":"５５巷","ALLEY":"４８弄","HOUSE_NO":"７９號","E_COORD97":165527.32999999999,"N_COORD97":2550713.6200000001,"ADDRESS":"海佃路四段５５巷４８弄７９號","OBJECTID":156389},"geometry":{"x":165527.33000000007,"y":2550713.6200000048}},{"attributes":{"ID":156391,"DIS_CODE":0,"TOWNNAME":"安南區","LI":"淵東里","LIN":"2鄰","STREET":"海佃路","SECT":"四段","MAREA":" ","LANE":"５５巷","ALLEY":"４８弄","HOUSE_NO":"８１號","E_COORD97":165526.98000000001,"N_COORD97":2550709.0699999998,"ADDRESS":"海佃路四段５５巷４８弄８１號","OBJECTID":156390},"geometry":{"x":165526.98000000231,"y":2550709.0700000003}},{"attributes":{"ID":156392,"DIS_CODE":0,"TOWNNAME":"安南區","LI":"淵東里","LIN":"2鄰","STREET":"海佃路","SECT":"四段","MAREA":" ","LANE":"５５巷","ALLEY":"４８弄","HOUSE_NO":"８３號","E_COORD97":165526.98000000001,"N_COORD97":2550704.5099999998,"ADDRESS":"海佃路四段５５巷４８弄８３號","OBJECTID":156391},"geometry":{"x":165526.98000000231,"y":2550704.5100000016}},{"attributes":{"ID":156393,"DIS_CODE":0,"TOWNNAME":"安南區","LI":"淵東里","LIN":"2鄰","STREET":"海佃路","SECT":"四段","MAREA":" ","LANE":"５５巷","ALLEY":"４８弄","HOUSE_NO":"８５號","E_COORD97":165513.54999999999,"N_COORD97":2550724.4300000002,"ADDRESS":"海佃路四段５５巷４８弄８５號","OBJECTID":156392},"geometry":{"x":165513.54999999981,"y":2550724.4300000016}},{"attributes":{"ID":156394,"DIS_CODE":0,"TOWNNAME":"安南區","LI":"淵東里","LIN":"2鄰","STREET":"海佃路","SECT":"四段","MAREA":" ","LANE":"５５巷","ALLEY":"４８弄","HOUSE_NO":"８７號","E_COORD97":165509.42000000001,"N_COORD97":2550723.6400000001,"ADDRESS":"海佃路四段５５巷４８弄８７號","OBJECTID":156393},"geometry":{"x":165509.41999999993,"y":2550723.6400000025}},{"attributes":{"ID":156395,"DIS_CODE":0,"TOWNNAME":"安南區","LI":"淵東里","LIN":"2鄰","STREET":"海佃路","SECT":"四段","MAREA":" ","LANE":"５５巷","ALLEY":"４８弄","HOUSE_NO":"８９號","E_COORD97":165504.85999999999,"N_COORD97":2550722.9399999999,"ADDRESS":"海佃路四段５５巷４８弄８９號","OBJECTID":156394},"geometry":{"x":165504.86000000034,"y":2550722.9399999995}},{"attributes":{"ID":156396,"DIS_CODE":0,"TOWNNAME":"安南區","LI":"淵東里","LIN":"2鄰","STREET":"海佃路","SECT":"四段","MAREA":" ","LANE":"５５巷","ALLEY":"４８弄","HOUSE_NO":"９１號","E_COORD97":165500.38,"N_COORD97":2550721.8900000001,"ADDRESS":"海佃路四段５５巷４８弄９１號","OBJECTID":156395},"geometry":{"x":165500.38000000082,"y":2550721.8900000043}},{"attributes":{"ID":156397,"DIS_CODE":0,"TOWNNAME":"安南區","LI":"淵東里","LIN":"2鄰","STREET":"海佃路","SECT":"四段","MAREA":" ","LANE":"５５巷","ALLEY":"４８弄","HOUSE_NO":"９３號","E_COORD97":165495.72,"N_COORD97":2550720.9300000002,"ADDRESS":"海佃路四段５５巷４８弄９３號","OBJECTID":156396},"geometry":{"x":165495.71999999881,"y":2550720.9300000016}},{"attributes":{"ID":156398,"DIS_CODE":0,"TOWNNAME":"安南區","LI":"淵東里","LIN":"2鄰","STREET":"海佃路","SECT":"四段","MAREA":" ","LANE":"５５巷","ALLEY":"４８弄","HOUSE_NO":"９５號","E_COORD97":165491.67999999999,"N_COORD97":2550720.0499999998,"ADDRESS":"海佃路四段５５巷４８弄９５號","OBJECTID":156397},"geometry":{"x":165491.68000000063,"y":2550720.0500000007}},{"attributes":{"ID":156399,"DIS_CODE":0,"TOWNNAME":"安南區","LI":"淵東里","LIN":"2鄰","STREET":"海佃路","SECT":"四段","MAREA":" ","LANE":"５５巷","ALLEY":"４８弄","HOUSE_NO":"９７號","E_COORD97":165487.56,"N_COORD97":2550718.9100000001,"ADDRESS":"海佃路四段５５巷４８弄９７號","OBJECTID":156398},"geometry":{"x":165487.55999999959,"y":2550718.910000002}},{"attributes":{"ID":156400,"DIS_CODE":0,"TOWNNAME":"山上區","LI":"南洲里","LIN":"19鄰","STREET":" ","SECT":" ","MAREA":"南洲","LANE":" ","ALLEY":" ","HOUSE_NO":"３３６號之１","E_COORD97":183665.26999999999,"N_COORD97":2555855.2999999998,"ADDRESS":"南洲３３６號之１","OBJECTID":156399},"geometry":{"x":183665.26999999955,"y":2555855.3000000045}},{"attributes":{"ID":156401,"DIS_CODE":0,"TOWNNAME":"山上區","LI":"南洲里","LIN":"19鄰","STREET":" ","SECT":" ","MAREA":"南洲","LANE":" ","ALLEY":" ","HOUSE_NO":"３３６號之５","E_COORD97":183679.73000000001,"N_COORD97":2555841.2999999998,"ADDRESS":"南洲３３６號之５","OBJECTID":156400},"geometry":{"x":183679.73000000138,"y":2555841.3000000007}}]}