{"displayFieldName":"TOWNNAME","fieldAliases":{"ID":"ID","DIS_CODE":"DIS_CODE","TOWNNAME":"TOWNNAME","LI":"LI","LIN":"LIN","STREET":"STREET","SECT":"SECT","MAREA":"MAREA","LANE":"LANE","ALLEY":"ALLEY","HOUSE_NO":"HOUSE_NO","E_COORD97":"E_COORD97","N_COORD97":"N_COORD97","ADDRESS":"ADDRESS","OBJECTID":"OBJECTID"},"geometryType":"esriGeometryPoint","spatialReference":{"wkid":102443,"latestWkid":3826},"fields":[{"name":"ID","type":"esriFieldTypeDouble","alias":"ID"},{"name":"DIS_CODE","type":"esriFieldTypeInteger","alias":"DIS_CODE"},{"name":"TOWNNAME","type":"esriFieldTypeString","alias":"TOWNNAME","length":8},{"name":"LI","type":"esriFieldTypeString","alias":"LI","length":8},{"name":"LIN","type":"esriFieldTypeString","alias":"LIN","length":12},{"name":"STREET","type":"esriFieldTypeString","alias":"STREET","length":20},{"name":"SECT","type":"esriFieldTypeString","alias":"SECT","length":8},{"name":"MAREA","type":"esriFieldTypeString","alias":"MAREA","length":12},{"name":"LANE","type":"esriFieldTypeString","alias":"LANE","length":10},{"name":"ALLEY","type":"esriFieldTypeString","alias":"ALLEY","length":10},{"name":"HOUSE_NO","type":"esriFieldTypeString","alias":"HOUSE_NO","length":20},{"name":"E_COORD97","type":"esriFieldTypeDouble","alias":"E_COORD97"},{"name":"N_COORD97","type":"esriFieldTypeDouble","alias":"N_COORD97"},{"name":"ADDRESS","type":"esriFieldTypeString","alias":"ADDRESS","length":50},{"name":"OBJECTID","type":"esriFieldTypeOID","alias":"OBJECTID"}],"features":[{"attributes":{"ID":85801,"DIS_CODE":0,"TOWNNAME":"安平區","LI":"金城里","LIN":" ","STREET":"運河路","SECT":" ","MAREA":" ","LANE":" ","ALLEY":" ","HOUSE_NO":"３８號","E_COORD97":163983.19,"N_COORD97":2544377.0699999998,"ADDRESS":"運河路３８號","OBJECTID":85801},"geometry":{"x":163983.19000000134,"y":2544377.0700000022}},{"attributes":{"ID":85802,"DIS_CODE":0,"TOWNNAME":"安定區","LI":"新吉里","LIN":"12鄰","STREET":" ","SECT":" ","MAREA":"新吉","LANE":" ","ALLEY":" ","HOUSE_NO":"１０１之２號","E_COORD97":169319.32000000001,"N_COORD97":2553993.2999999998,"ADDRESS":"新吉１０１之２號","OBJECTID":85802},"geometry":{"x":169319.3200000003,"y":2553993.3000000007}},{"attributes":{"ID":85803,"DIS_CODE":0,"TOWNNAME":"安定區","LI":"中榮里","LIN":"12鄰","STREET":" ","SECT":" ","MAREA":"許中營","LANE":" ","ALLEY":" ","HOUSE_NO":"１０１號","E_COORD97":172509.69,"N_COORD97":2555447.25,"ADDRESS":"許中營１０１號","OBJECTID":85803},"geometry":{"x":172509.69000000227,"y":2555447.25}},{"attributes":{"ID":85804,"DIS_CODE":0,"TOWNNAME":"東區","LI":"仁和里","LIN":"12鄰","STREET":"仁和路","SECT":" ","MAREA":" ","LANE":"１３９巷","ALLEY":"５１弄","HOUSE_NO":"１６號之７","E_COORD97":171763.06,"N_COORD97":2541179.1600000001,"ADDRESS":"仁和路１３９巷５１弄１６號之７","OBJECTID":85804},"geometry":{"x":171763.05999999959,"y":2541179.160000002}},{"attributes":{"ID":85805,"DIS_CODE":0,"TOWNNAME":"東區","LI":"仁和里","LIN":"12鄰","STREET":"仁和路","SECT":" ","MAREA":" ","LANE":"１３９巷","ALLEY":"５１弄","HOUSE_NO":"１６號之８","E_COORD97":171768.07999999999,"N_COORD97":2541180.79,"ADDRESS":"仁和路１３９巷５１弄１６號之８","OBJECTID":85805},"geometry":{"x":171768.08000000101,"y":2541180.790000001}},{"attributes":{"ID":85806,"DIS_CODE":0,"TOWNNAME":"東區","LI":"仁和里","LIN":"12鄰","STREET":"仁和路","SECT":" ","MAREA":" ","LANE":"１３９巷","ALLEY":"５１弄","HOUSE_NO":"１６號之９","E_COORD97":171772.54999999999,"N_COORD97":2541179.71,"ADDRESS":"仁和路１３９巷５１弄１６號之９","OBJECTID":85806},"geometry":{"x":171772.54999999888,"y":2541179.7100000028}},{"attributes":{"ID":85807,"DIS_CODE":0,"TOWNNAME":"東區","LI":"仁和里","LIN":"12鄰","STREET":"仁和路","SECT":" ","MAREA":" ","LANE":"１３９巷","ALLEY":"５１弄","HOUSE_NO":"１６號之１０","E_COORD97":171777.29999999999,"N_COORD97":2541181.6000000001,"ADDRESS":"仁和路１３９巷５１弄１６號之１０","OBJECTID":85807},"geometry":{"x":171777.29999999981,"y":2541181.5999999996}},{"attributes":{"ID":85808,"DIS_CODE":0,"TOWNNAME":"東區","LI":"仁和里","LIN":"12鄰","STREET":"仁和路","SECT":" ","MAREA":" ","LANE":"１３９巷","ALLEY":"５１弄","HOUSE_NO":"１６號之１１","E_COORD97":171781.64000000001,"N_COORD97":2541179.98,"ADDRESS":"仁和路１３９巷５１弄１６號之１１","OBJECTID":85808},"geometry":{"x":171781.63999999966,"y":2541179.9800000004}},{"attributes":{"ID":85809,"DIS_CODE":0,"TOWNNAME":"東區","LI":"仁和里","LIN":"12鄰","STREET":"仁和路","SECT":" ","MAREA":" ","LANE":"１３９巷","ALLEY":"５１弄","HOUSE_NO":"１６號之１２","E_COORD97":171785.98000000001,"N_COORD97":2541182.4199999999,"ADDRESS":"仁和路１３９巷５１弄１６號之１２","OBJECTID":85809},"geometry":{"x":171785.98000000138,"y":2541182.4199999999}},{"attributes":{"ID":85810,"DIS_CODE":0,"TOWNNAME":"東區","LI":"仁和里","LIN":"12鄰","STREET":"仁和路","SECT":" ","MAREA":" ","LANE":"１３９巷","ALLEY":"５１弄","HOUSE_NO":"１６號之１３","E_COORD97":171790.45999999999,"N_COORD97":2541181.4700000002,"ADDRESS":"仁和路１３９巷５１弄１６號之１３","OBJECTID":85810},"geometry":{"x":171790.46000000183,"y":2541181.4700000025}},{"attributes":{"ID":85811,"DIS_CODE":0,"TOWNNAME":"東區","LI":"仁和里","LIN":"12鄰","STREET":"仁和路","SECT":" ","MAREA":" ","LANE":"１３９巷","ALLEY":"５１弄","HOUSE_NO":"１６號之１５","E_COORD97":171795.60999999999,"N_COORD97":2541182.0099999998,"ADDRESS":"仁和路１３９巷５１弄１６號之１５","OBJECTID":85811},"geometry":{"x":171795.61000000127,"y":2541182.0099999998}},{"attributes":{"ID":85812,"DIS_CODE":0,"TOWNNAME":"東區","LI":"仁和里","LIN":"12鄰","STREET":"仁和路","SECT":" ","MAREA":" ","LANE":"１３９巷","ALLEY":"５１弄","HOUSE_NO":"１６號之１６","E_COORD97":171799.14000000001,"N_COORD97":2541183.6400000001,"ADDRESS":"仁和路１３９巷５１弄１６號之１６","OBJECTID":85812},"geometry":{"x":171799.14000000153,"y":2541183.6400000025}},{"attributes":{"ID":85813,"DIS_CODE":0,"TOWNNAME":"東區","LI":"仁和里","LIN":"12鄰","STREET":"仁和路","SECT":" ","MAREA":" ","LANE":"１３９巷","ALLEY":"５１弄","HOUSE_NO":"１６號之１７","E_COORD97":171804.97,"N_COORD97":2541182.5499999998,"ADDRESS":"仁和路１３９巷５１弄１６號之１７","OBJECTID":85813},"geometry":{"x":171804.96999999974,"y":2541182.5500000007}},{"attributes":{"ID":85814,"DIS_CODE":0,"TOWNNAME":"東區","LI":"仁和里","LIN":"12鄰","STREET":"仁和路","SECT":" ","MAREA":" ","LANE":"１３９巷","ALLEY":"５１弄","HOUSE_NO":"１６號之１８","E_COORD97":171809.17999999999,"N_COORD97":2541183.9100000001,"ADDRESS":"仁和路１３９巷５１弄１６號之１８","OBJECTID":85814},"geometry":{"x":171809.18000000063,"y":2541183.9100000039}},{"attributes":{"ID":85815,"DIS_CODE":0,"TOWNNAME":"東區","LI":"仁和里","LIN":"12鄰","STREET":"仁和路","SECT":" ","MAREA":" ","LANE":"１３９巷","ALLEY":"５１弄","HOUSE_NO":"１６號之１９","E_COORD97":171813.25,"N_COORD97":2541182.2799999998,"ADDRESS":"仁和路１３９巷５１弄１６號之１９","OBJECTID":85815},"geometry":{"x":171813.25,"y":2541182.2799999993}},{"attributes":{"ID":85816,"DIS_CODE":0,"TOWNNAME":"東區","LI":"仁和里","LIN":"12鄰","STREET":"仁和路","SECT":" ","MAREA":" ","LANE":"１３９巷","ALLEY":"５１弄","HOUSE_NO":"１６號之２０","E_COORD97":171818.26999999999,"N_COORD97":2541184.1800000002,"ADDRESS":"仁和路１３９巷５１弄１６號之２０","OBJECTID":85816},"geometry":{"x":171818.26999999862,"y":2541184.1799999997}},{"attributes":{"ID":85817,"DIS_CODE":0,"TOWNNAME":"東區","LI":"仁和里","LIN":"12鄰","STREET":"仁和路","SECT":" ","MAREA":" ","LANE":"１３９巷","ALLEY":"５１弄","HOUSE_NO":"１８號","E_COORD97":171735.12,"N_COORD97":2541197.1699999999,"ADDRESS":"仁和路１３９巷５１弄１８號","OBJECTID":85817},"geometry":{"x":171735.11999999918,"y":2541197.1699999999}},{"attributes":{"ID":85818,"DIS_CODE":0,"TOWNNAME":"東區","LI":"仁和里","LIN":"12鄰","STREET":"仁和路","SECT":" ","MAREA":" ","LANE":"１３９巷","ALLEY":"５１弄","HOUSE_NO":"１８號之１","E_COORD97":171739.13,"N_COORD97":2541196.1699999999,"ADDRESS":"仁和路１３９巷５１弄１８號之１","OBJECTID":85818},"geometry":{"x":171739.13000000082,"y":2541196.1700000018}},{"attributes":{"ID":85819,"DIS_CODE":0,"TOWNNAME":"東區","LI":"仁和里","LIN":"12鄰","STREET":"仁和路","SECT":" ","MAREA":" ","LANE":"１３９巷","ALLEY":"５１弄","HOUSE_NO":"１８號之２","E_COORD97":171743.64000000001,"N_COORD97":2541198.5,"ADDRESS":"仁和路１３９巷５１弄１８號之２","OBJECTID":85819},"geometry":{"x":171743.6400000006,"y":2541198.5}},{"attributes":{"ID":85820,"DIS_CODE":0,"TOWNNAME":"安定區","LI":"蘇厝里","LIN":"12鄰","STREET":" ","SECT":" ","MAREA":"蘇厝","LANE":" ","ALLEY":" ","HOUSE_NO":"３９５號之７","E_COORD97":173174.82999999999,"N_COORD97":2558818.2999999998,"ADDRESS":"蘇厝３９５號之７","OBJECTID":85820},"geometry":{"x":173174.83000000101,"y":2558818.3000000007}},{"attributes":{"ID":85821,"DIS_CODE":0,"TOWNNAME":"東區","LI":"仁和里","LIN":"12鄰","STREET":"仁和路","SECT":" ","MAREA":" ","LANE":"１３９巷","ALLEY":"５１弄","HOUSE_NO":"１８號之３","E_COORD97":171748.48999999999,"N_COORD97":2541197.8399999999,"ADDRESS":"仁和路１３９巷５１弄１８號之３","OBJECTID":85821},"geometry":{"x":171748.49000000115,"y":2541197.8400000036}},{"attributes":{"ID":85822,"DIS_CODE":0,"TOWNNAME":"東區","LI":"仁和里","LIN":"12鄰","STREET":"仁和路","SECT":" ","MAREA":" ","LANE":"１３９巷","ALLEY":"５１弄","HOUSE_NO":"１８號之５","E_COORD97":171753.17000000001,"N_COORD97":2541199.0099999998,"ADDRESS":"仁和路１３９巷５１弄１８號之５","OBJECTID":85822},"geometry":{"x":171753.16999999993,"y":2541199.0099999998}},{"attributes":{"ID":85823,"DIS_CODE":0,"TOWNNAME":"東區","LI":"仁和里","LIN":"12鄰","STREET":"仁和路","SECT":" ","MAREA":" ","LANE":"１３９巷","ALLEY":"５１弄","HOUSE_NO":"１８號之６","E_COORD97":171757.01999999999,"N_COORD97":2541200.6800000002,"ADDRESS":"仁和路１３９巷５１弄１８號之６","OBJECTID":85823},"geometry":{"x":171757.01999999955,"y":2541200.6799999997}},{"attributes":{"ID":85824,"DIS_CODE":0,"TOWNNAME":"東區","LI":"仁和里","LIN":"12鄰","STREET":"仁和路","SECT":" ","MAREA":" ","LANE":"１３９巷","ALLEY":"５１弄","HOUSE_NO":"１８號之７","E_COORD97":171761.87,"N_COORD97":2541199.3399999999,"ADDRESS":"仁和路１３９巷５１弄１８號之７","OBJECTID":85824},"geometry":{"x":171761.87000000011,"y":2541199.3399999999}},{"attributes":{"ID":85825,"DIS_CODE":0,"TOWNNAME":"東區","LI":"仁和里","LIN":"12鄰","STREET":"仁和路","SECT":" ","MAREA":" ","LANE":"１３９巷","ALLEY":"５１弄","HOUSE_NO":"１８號之８","E_COORD97":171766.38,"N_COORD97":2541200.3399999999,"ADDRESS":"仁和路１３９巷５１弄１８號之８","OBJECTID":85825},"geometry":{"x":171766.37999999989,"y":2541200.3399999999}},{"attributes":{"ID":85826,"DIS_CODE":0,"TOWNNAME":"東區","LI":"仁和里","LIN":"12鄰","STREET":"仁和路","SECT":" ","MAREA":" ","LANE":"１３９巷","ALLEY":"５１弄","HOUSE_NO":"１８號之９","E_COORD97":171776.07999999999,"N_COORD97":2541201.5099999998,"ADDRESS":"仁和路１３９巷５１弄１８號之９","OBJECTID":85826},"geometry":{"x":171776.08000000194,"y":2541201.5099999998}},{"attributes":{"ID":85827,"DIS_CODE":0,"TOWNNAME":"東區","LI":"仁和里","LIN":"12鄰","STREET":"仁和路","SECT":" ","MAREA":" ","LANE":"１３９巷","ALLEY":"５１弄","HOUSE_NO":"１８號之１０","E_COORD97":171779.92000000001,"N_COORD97":2541200.1699999999,"ADDRESS":"仁和路１３９巷５１弄１８號之１０","OBJECTID":85827},"geometry":{"x":171779.91999999993,"y":2541200.1700000018}},{"attributes":{"ID":85828,"DIS_CODE":0,"TOWNNAME":"東區","LI":"仁和里","LIN":"12鄰","STREET":"仁和路","SECT":" ","MAREA":" ","LANE":"１３９巷","ALLEY":"５１弄","HOUSE_NO":"１８號之１２","E_COORD97":171784.76999999999,"N_COORD97":2541201.6800000002,"ADDRESS":"仁和路１３９巷５１弄１８號之１２","OBJECTID":85828},"geometry":{"x":171784.77000000048,"y":2541201.6799999978}},{"attributes":{"ID":85829,"DIS_CODE":0,"TOWNNAME":"東區","LI":"仁和里","LIN":"12鄰","STREET":"仁和路","SECT":" ","MAREA":" ","LANE":"１３９巷","ALLEY":"５１弄","HOUSE_NO":"１８號之１３","E_COORD97":171789.28,"N_COORD97":2541201.5099999998,"ADDRESS":"仁和路１３９巷５１弄１８號之１３","OBJECTID":85829},"geometry":{"x":171789.28000000119,"y":2541201.5099999998}},{"attributes":{"ID":85830,"DIS_CODE":0,"TOWNNAME":"安定區","LI":"六嘉里","LIN":"12鄰","STREET":" ","SECT":" ","MAREA":"六塊寮","LANE":" ","ALLEY":" ","HOUSE_NO":"９７號之２","E_COORD97":170391.22,"N_COORD97":2553393.2999999998,"ADDRESS":"六塊寮９７之２號","OBJECTID":85830},"geometry":{"x":170391.21999999974,"y":2553393.3000000007}},{"attributes":{"ID":85831,"DIS_CODE":0,"TOWNNAME":"安定區","LI":"蘇厝里","LIN":"12鄰","STREET":" ","SECT":" ","MAREA":"蘇厝","LANE":" ","ALLEY":" ","HOUSE_NO":"３９７之３號","E_COORD97":173101.92000000001,"N_COORD97":2558860.2999999998,"ADDRESS":"蘇厝３９７之３號","OBJECTID":85831},"geometry":{"x":173101.91999999993,"y":2558860.3000000026}},{"attributes":{"ID":85832,"DIS_CODE":0,"TOWNNAME":"安定區","LI":"六嘉里","LIN":"12鄰","STREET":" ","SECT":" ","MAREA":"六塊寮","LANE":" ","ALLEY":" ","HOUSE_NO":"１０１號","E_COORD97":170345.37,"N_COORD97":2553369.27,"ADDRESS":"六塊寮１０１號","OBJECTID":85832},"geometry":{"x":170345.37000000104,"y":2553369.2700000033}},{"attributes":{"ID":85833,"DIS_CODE":0,"TOWNNAME":"南區","LI":"白雪里","LIN":" ","STREET":"鹽埕路","SECT":" ","MAREA":" ","LANE":" ","ALLEY":" ","HOUSE_NO":"１６７號","E_COORD97":166824.98999999999,"N_COORD97":2541052.6200000001,"ADDRESS":"鹽埕路１６７號","OBJECTID":85833},"geometry":{"x":166824.99000000022,"y":2541052.6200000029}},{"attributes":{"ID":85834,"DIS_CODE":0,"TOWNNAME":"安定區","LI":"新吉里","LIN":"12鄰","STREET":" ","SECT":" ","MAREA":"新吉","LANE":" ","ALLEY":" ","HOUSE_NO":"９９之１３號","E_COORD97":169382.32000000001,"N_COORD97":2553919.2999999998,"ADDRESS":"新吉９９之１３號","OBJECTID":85834},"geometry":{"x":169382.3200000003,"y":2553919.2999999989}},{"attributes":{"ID":85835,"DIS_CODE":0,"TOWNNAME":"安定區","LI":"新吉里","LIN":"12鄰","STREET":" ","SECT":" ","MAREA":"新吉","LANE":" ","ALLEY":" ","HOUSE_NO":"１０２之７號","E_COORD97":169319.12,"N_COORD97":2554038.2999999998,"ADDRESS":"新吉１０２之７號","OBJECTID":85835},"geometry":{"x":169319.12000000011,"y":2554038.3000000045}},{"attributes":{"ID":85836,"DIS_CODE":0,"TOWNNAME":"安定區","LI":"蘇厝里","LIN":"12鄰","STREET":" ","SECT":" ","MAREA":"蘇厝","LANE":" ","ALLEY":" ","HOUSE_NO":"３９６號之２","E_COORD97":173141.89000000001,"N_COORD97":2558802.2999999998,"ADDRESS":"蘇厝３９６號之２","OBJECTID":85836},"geometry":{"x":173141.8900000006,"y":2558802.3000000026}},{"attributes":{"ID":85837,"DIS_CODE":0,"TOWNNAME":"安定區","LI":"中榮里","LIN":"12鄰","STREET":" ","SECT":" ","MAREA":"許中營","LANE":" ","ALLEY":" ","HOUSE_NO":"１００號","E_COORD97":172519.69,"N_COORD97":2555432.25,"ADDRESS":"許中營１００號","OBJECTID":85837},"geometry":{"x":172519.69000000041,"y":2555432.2500000019}},{"attributes":{"ID":85838,"DIS_CODE":0,"TOWNNAME":"安定區","LI":"中榮里","LIN":"12鄰","STREET":" ","SECT":" ","MAREA":"許中營","LANE":" ","ALLEY":" ","HOUSE_NO":"９７號","E_COORD97":172475.64000000001,"N_COORD97":2555460.25,"ADDRESS":"許中營９７號","OBJECTID":85838},"geometry":{"x":172475.6400000006,"y":2555460.25}},{"attributes":{"ID":85839,"DIS_CODE":0,"TOWNNAME":"安定區","LI":"蘇厝里","LIN":"12鄰","STREET":" ","SECT":" ","MAREA":"蘇厝","LANE":" ","ALLEY":" ","HOUSE_NO":"３９４之８號","E_COORD97":173136.82000000001,"N_COORD97":2558777.2999999998,"ADDRESS":"蘇厝３９４之８號","OBJECTID":85839},"geometry":{"x":173136.82000000123,"y":2558777.3000000007}},{"attributes":{"ID":85840,"DIS_CODE":0,"TOWNNAME":"東區","LI":"仁和里","LIN":"12鄰","STREET":"仁和路","SECT":" ","MAREA":" ","LANE":"１３９巷","ALLEY":"５１弄","HOUSE_NO":"１８號之１５","E_COORD97":171793.97,"N_COORD97":2541201.6800000002,"ADDRESS":"仁和路１３９巷５１弄１８號之１５","OBJECTID":85840},"geometry":{"x":171793.97000000067,"y":2541201.6799999978}},{"attributes":{"ID":85841,"DIS_CODE":0,"TOWNNAME":"東區","LI":"仁和里","LIN":"12鄰","STREET":"仁和路","SECT":" ","MAREA":" ","LANE":"１３９巷","ALLEY":"５１弄","HOUSE_NO":"１８號之１６","E_COORD97":171799.14999999999,"N_COORD97":2541203.0099999998,"ADDRESS":"仁和路１３９巷５１弄１８號之１６","OBJECTID":85841},"geometry":{"x":171799.15000000037,"y":2541203.0099999979}},{"attributes":{"ID":85842,"DIS_CODE":0,"TOWNNAME":"東區","LI":"仁和里","LIN":"12鄰","STREET":"仁和路","SECT":" ","MAREA":" ","LANE":"１３９巷","ALLEY":"５１弄","HOUSE_NO":"１８號之１７","E_COORD97":171802.98999999999,"N_COORD97":2541201.1800000002,"ADDRESS":"仁和路１３９巷５１弄１８號之１７","OBJECTID":85842},"geometry":{"x":171802.99000000115,"y":2541201.1799999997}},{"attributes":{"ID":85843,"DIS_CODE":0,"TOWNNAME":"東區","LI":"仁和里","LIN":"12鄰","STREET":"仁和路","SECT":" ","MAREA":" ","LANE":"１３９巷","ALLEY":"５１弄","HOUSE_NO":"１８號之１８","E_COORD97":171807.84,"N_COORD97":2541203.3500000001,"ADDRESS":"仁和路１３９巷５１弄１８號之１８","OBJECTID":85843},"geometry":{"x":171807.83999999985,"y":2541203.3499999996}},{"attributes":{"ID":85844,"DIS_CODE":0,"TOWNNAME":"東區","LI":"仁和里","LIN":"12鄰","STREET":"仁和路","SECT":" ","MAREA":" ","LANE":"１３９巷","ALLEY":"５１弄","HOUSE_NO":"１８號之１９","E_COORD97":171812.69,"N_COORD97":2541202.3500000001,"ADDRESS":"仁和路１３９巷５１弄１８號之１９","OBJECTID":85844},"geometry":{"x":171812.69000000041,"y":2541202.3500000015}},{"attributes":{"ID":85845,"DIS_CODE":0,"TOWNNAME":"新市區","LI":"新市里","LIN":"12鄰","STREET":"中正路","SECT":" ","MAREA":" ","LANE":"３０１巷","ALLEY":"１５弄","HOUSE_NO":"５７號","E_COORD97":177473.84,"N_COORD97":2553233.25,"ADDRESS":"中正路３０１巷１５弄５７號","OBJECTID":85845},"geometry":{"x":177473.84000000078,"y":2553233.25}},{"attributes":{"ID":85846,"DIS_CODE":0,"TOWNNAME":"新市區","LI":"新市里","LIN":"12鄰","STREET":"中正路","SECT":" ","MAREA":" ","LANE":"３０１巷","ALLEY":"１５弄","HOUSE_NO":"５３號","E_COORD97":177481.23999999999,"N_COORD97":2553237.25,"ADDRESS":"中正路３０１巷１５弄５３號","OBJECTID":85846},"geometry":{"x":177481.24000000209,"y":2553237.25}},{"attributes":{"ID":85847,"DIS_CODE":0,"TOWNNAME":"新市區","LI":"潭頂里","LIN":"12鄰","STREET":" ","SECT":" ","MAREA":"潭頂","LANE":" ","ALLEY":" ","HOUSE_NO":"４０３號","E_COORD97":180536.09,"N_COORD97":2553035.75,"ADDRESS":"潭頂４０３號","OBJECTID":85847},"geometry":{"x":180536.08999999985,"y":2553035.7500000019}},{"attributes":{"ID":85848,"DIS_CODE":0,"TOWNNAME":"新市區","LI":"新市里","LIN":"12鄰","STREET":"中正路","SECT":" ","MAREA":" ","LANE":"３０１巷","ALLEY":"１５弄","HOUSE_NO":"３９號","E_COORD97":177507.98999999999,"N_COORD97":2553251.25,"ADDRESS":"中正路３０１巷１５弄３９號","OBJECTID":85848},"geometry":{"x":177507.99000000022,"y":2553251.2500000037}},{"attributes":{"ID":85849,"DIS_CODE":0,"TOWNNAME":"新市區","LI":"港墘里","LIN":"12鄰","STREET":"中山路","SECT":" ","MAREA":" ","LANE":"１０６巷","ALLEY":"５弄","HOUSE_NO":"４號","E_COORD97":178345.29000000001,"N_COORD97":2552742.75,"ADDRESS":"中山路１０６巷５弄４號","OBJECTID":85849},"geometry":{"x":178345.2900000019,"y":2552742.7500000037}},{"attributes":{"ID":85850,"DIS_CODE":0,"TOWNNAME":"新市區","LI":"新市里","LIN":"12鄰","STREET":"中正路","SECT":" ","MAREA":" ","LANE":"３０１巷","ALLEY":"１５弄","HOUSE_NO":"２３號","E_COORD97":177546.10000000001,"N_COORD97":2553258.5,"ADDRESS":"中正路３０１巷１５弄２３號","OBJECTID":85850},"geometry":{"x":177546.10000000056,"y":2553258.5}},{"attributes":{"ID":85851,"DIS_CODE":0,"TOWNNAME":"安南區","LI":"海東里","LIN":"12鄰","STREET":"海環街","SECT":" ","MAREA":" ","LANE":"３２巷","ALLEY":"３７弄","HOUSE_NO":"１４號","E_COORD97":166564.75,"N_COORD97":2548932.8500000001,"ADDRESS":"海環街３２巷３７弄１４號","OBJECTID":85851},"geometry":{"x":166564.75,"y":2548932.8499999996}},{"attributes":{"ID":85852,"DIS_CODE":0,"TOWNNAME":"安南區","LI":"海東里","LIN":"12鄰","STREET":"海環街","SECT":" ","MAREA":" ","LANE":"３２巷","ALLEY":"３７弄","HOUSE_NO":"１６號","E_COORD97":166561.29000000001,"N_COORD97":2548930.5899999999,"ADDRESS":"海環街３２巷３７弄１６號","OBJECTID":85852},"geometry":{"x":166561.29000000004,"y":2548930.5900000017}},{"attributes":{"ID":85853,"DIS_CODE":0,"TOWNNAME":"安南區","LI":"海東里","LIN":"12鄰","STREET":"海環街","SECT":" ","MAREA":" ","LANE":"３２巷","ALLEY":"３７弄","HOUSE_NO":"１８號","E_COORD97":166557.62,"N_COORD97":2548928.98,"ADDRESS":"海環街３２巷３７弄１８號","OBJECTID":85853},"geometry":{"x":166557.62000000011,"y":2548928.9800000023}},{"attributes":{"ID":85854,"DIS_CODE":0,"TOWNNAME":"安南區","LI":"海東里","LIN":"12鄰","STREET":"海環街","SECT":" ","MAREA":" ","LANE":"３２巷","ALLEY":"３７弄","HOUSE_NO":"２０號","E_COORD97":166554.35999999999,"N_COORD97":2548926.9700000002,"ADDRESS":"海環街３２巷３７弄２０號","OBJECTID":85854},"geometry":{"x":166554.36000000034,"y":2548926.9700000007}},{"attributes":{"ID":85855,"DIS_CODE":0,"TOWNNAME":"安南區","LI":"海東里","LIN":"12鄰","STREET":"海環街","SECT":" ","MAREA":" ","LANE":"３２巷","ALLEY":"３７弄","HOUSE_NO":"２２號","E_COORD97":166550.82999999999,"N_COORD97":2548925.3199999998,"ADDRESS":"海環街３２巷３７弄２２號","OBJECTID":85855},"geometry":{"x":166550.83000000007,"y":2548925.3200000022}},{"attributes":{"ID":85856,"DIS_CODE":0,"TOWNNAME":"安南區","LI":"海東里","LIN":"12鄰","STREET":"海環街","SECT":" ","MAREA":" ","LANE":"３２巷","ALLEY":"３７弄","HOUSE_NO":"２４號","E_COORD97":166547.29999999999,"N_COORD97":2548923.8500000001,"ADDRESS":"海環街３２巷３７弄２４號","OBJECTID":85856},"geometry":{"x":166547.29999999981,"y":2548923.8500000034}},{"attributes":{"ID":85857,"DIS_CODE":0,"TOWNNAME":"安南區","LI":"海東里","LIN":"12鄰","STREET":"海環街","SECT":" ","MAREA":" ","LANE":"３２巷","ALLEY":"３７弄","HOUSE_NO":"２號","E_COORD97":166585.82000000001,"N_COORD97":2548943.73,"ADDRESS":"海環街３２巷３７弄２號","OBJECTID":85857},"geometry":{"x":166585.82000000216,"y":2548943.7300000023}},{"attributes":{"ID":85858,"DIS_CODE":0,"TOWNNAME":"永康區","LI":"中華里","LIN":"15鄰","STREET":"華興街","SECT":" ","MAREA":" ","LANE":" ","ALLEY":" ","HOUSE_NO":"９７號二樓之５","E_COORD97":171790.5,"N_COORD97":2544563.1299999999,"ADDRESS":"華興街９７號二樓之５","OBJECTID":85858},"geometry":{"x":171790.50000000093,"y":2544563.129999999}},{"attributes":{"ID":85859,"DIS_CODE":0,"TOWNNAME":"永康區","LI":"中華里","LIN":"15鄰","STREET":"華興街","SECT":" ","MAREA":" ","LANE":" ","ALLEY":" ","HOUSE_NO":"９７號三樓之２３","E_COORD97":171791.69,"N_COORD97":2544563.1299999999,"ADDRESS":"華興街９７號三樓之２３","OBJECTID":85859},"geometry":{"x":171791.69000000134,"y":2544563.129999999}},{"attributes":{"ID":85860,"DIS_CODE":0,"TOWNNAME":"永康區","LI":"中華里","LIN":"15鄰","STREET":"華興街","SECT":" ","MAREA":" ","LANE":" ","ALLEY":" ","HOUSE_NO":"９７號三樓之２８","E_COORD97":171791.73999999999,"N_COORD97":2544563.1299999999,"ADDRESS":"華興街９７號三樓之２８","OBJECTID":85860},"geometry":{"x":171791.74000000022,"y":2544563.129999999}},{"attributes":{"ID":85861,"DIS_CODE":0,"TOWNNAME":"安平區","LI":"怡平里","LIN":"14鄰","STREET":"建平十一街","SECT":" ","MAREA":" ","LANE":" ","ALLEY":" ","HOUSE_NO":"３１６號","E_COORD97":165577.67000000001,"N_COORD97":2544007.6400000001,"ADDRESS":"建平十一街３１６號","OBJECTID":85861},"geometry":{"x":165577.66999999899,"y":2544007.6400000025}},{"attributes":{"ID":85862,"DIS_CODE":0,"TOWNNAME":"永康區","LI":"中華里","LIN":"15鄰","STREET":"華興街","SECT":" ","MAREA":" ","LANE":" ","ALLEY":" ","HOUSE_NO":"９７號四樓之１","E_COORD97":171790.35000000001,"N_COORD97":2544563.1299999999,"ADDRESS":"華興街９７號四樓之１","OBJECTID":85862},"geometry":{"x":171790.34999999963,"y":2544563.129999999}},{"attributes":{"ID":85863,"DIS_CODE":0,"TOWNNAME":"永康區","LI":"中華里","LIN":"15鄰","STREET":"華興街","SECT":" ","MAREA":" ","LANE":" ","ALLEY":" ","HOUSE_NO":"９７號三樓之１９","E_COORD97":171791.67999999999,"N_COORD97":2544563.1299999999,"ADDRESS":"華興街９７號三樓之１９","OBJECTID":85863},"geometry":{"x":171791.6799999997,"y":2544563.129999999}},{"attributes":{"ID":85864,"DIS_CODE":0,"TOWNNAME":"善化區","LI":"文昌里","LIN":"15鄰","STREET":"永福路","SECT":" ","MAREA":" ","LANE":" ","ALLEY":" ","HOUSE_NO":"２９號二樓","E_COORD97":177585.32000000001,"N_COORD97":2558872.25,"ADDRESS":"永福路２９號二樓","OBJECTID":85864},"geometry":{"x":177585.3200000003,"y":2558872.2499999981}},{"attributes":{"ID":85865,"DIS_CODE":0,"TOWNNAME":"安南區","LI":"海東里","LIN":"12鄰","STREET":"海環街","SECT":" ","MAREA":" ","LANE":"３２巷","ALLEY":"３７弄","HOUSE_NO":"６號","E_COORD97":166579.03,"N_COORD97":2548939.5,"ADDRESS":"海環街３２巷３７弄６號","OBJECTID":85865},"geometry":{"x":166579.03000000026,"y":2548939.5}},{"attributes":{"ID":85866,"DIS_CODE":0,"TOWNNAME":"安南區","LI":"海東里","LIN":"12鄰","STREET":"海環街","SECT":" ","MAREA":" ","LANE":"３２巷","ALLEY":"３７弄","HOUSE_NO":"８號","E_COORD97":166575.70999999999,"N_COORD97":2548937.71,"ADDRESS":"海環街３２巷３７弄８號","OBJECTID":85866},"geometry":{"x":166575.70999999996,"y":2548937.7100000028}},{"attributes":{"ID":85867,"DIS_CODE":0,"TOWNNAME":"安南區","LI":"海東里","LIN":"12鄰","STREET":"海環街","SECT":" ","MAREA":" ","LANE":"３２巷","ALLEY":"５７弄","HOUSE_NO":"１號","E_COORD97":166543.82999999999,"N_COORD97":2548978.4300000002,"ADDRESS":"海環街３２巷５７弄１號","OBJECTID":85867},"geometry":{"x":166543.83000000101,"y":2548978.4300000016}},{"attributes":{"ID":85868,"DIS_CODE":0,"TOWNNAME":"安南區","LI":"海東里","LIN":"12鄰","STREET":"海環街","SECT":" ","MAREA":" ","LANE":"３２巷","ALLEY":"５７弄","HOUSE_NO":"４號","E_COORD97":166520.20000000001,"N_COORD97":2548996.7000000002,"ADDRESS":"海環街３２巷５７弄４號","OBJECTID":85868},"geometry":{"x":166520.20000000019,"y":2548996.7000000011}},{"attributes":{"ID":85869,"DIS_CODE":0,"TOWNNAME":"安南區","LI":"佃東里","LIN":"12鄰","STREET":"海佃路","SECT":"四段","MAREA":" ","LANE":"３８８巷","ALLEY":"１０８弄","HOUSE_NO":"７號","E_COORD97":165647.38,"N_COORD97":2551789.0899999999,"ADDRESS":"海佃路四段３８８巷１０８弄７號","OBJECTID":85869},"geometry":{"x":165647.37999999896,"y":2551789.0900000017}},{"attributes":{"ID":85870,"DIS_CODE":0,"TOWNNAME":"安南區","LI":"佃東里","LIN":"12鄰","STREET":"海佃路","SECT":"四段","MAREA":" ","LANE":"３８８巷","ALLEY":"１０８弄","HOUSE_NO":"９號","E_COORD97":165663.26000000001,"N_COORD97":2551788.5699999998,"ADDRESS":"海佃路四段３８８巷１０８弄９號","OBJECTID":85870},"geometry":{"x":165663.25999999978,"y":2551788.5700000022}},{"attributes":{"ID":85871,"DIS_CODE":0,"TOWNNAME":"安南區","LI":"佃東里","LIN":"12鄰","STREET":"海佃路","SECT":"四段","MAREA":" ","LANE":"３８８巷","ALLEY":"１３４弄","HOUSE_NO":"１５號","E_COORD97":165654.85000000001,"N_COORD97":2551861.9199999999,"ADDRESS":"海佃路四段３８８巷１３４弄１５號","OBJECTID":85871},"geometry":{"x":165654.85000000056,"y":2551861.9199999999}},{"attributes":{"ID":85872,"DIS_CODE":0,"TOWNNAME":"安南區","LI":"佃東里","LIN":"12鄰","STREET":"海佃路","SECT":"四段","MAREA":" ","LANE":"３８８巷","ALLEY":"１３４弄","HOUSE_NO":"１８號","E_COORD97":165646.17999999999,"N_COORD97":2551837.8399999999,"ADDRESS":"海佃路四段３８８巷１３４弄１８號","OBJECTID":85872},"geometry":{"x":165646.1799999997,"y":2551837.8400000017}},{"attributes":{"ID":85873,"DIS_CODE":0,"TOWNNAME":"安南區","LI":"佃東里","LIN":"12鄰","STREET":"海佃路","SECT":"四段","MAREA":" ","LANE":"３８８巷","ALLEY":"１３４弄","HOUSE_NO":"２４號","E_COORD97":165680.31,"N_COORD97":2551838.04,"ADDRESS":"海佃路四段３８８巷１３４弄２４號","OBJECTID":85873},"geometry":{"x":165680.31000000052,"y":2551838.0400000028}},{"attributes":{"ID":85874,"DIS_CODE":0,"TOWNNAME":"安南區","LI":"佃東里","LIN":"12鄰","STREET":"海佃路","SECT":"四段","MAREA":" ","LANE":"３８８巷","ALLEY":"１３４弄","HOUSE_NO":"５號","E_COORD97":165621.48000000001,"N_COORD97":2551866.8900000001,"ADDRESS":"海佃路四段３８８巷１３４弄５號","OBJECTID":85874},"geometry":{"x":165621.48000000045,"y":2551866.8900000006}},{"attributes":{"ID":85875,"DIS_CODE":0,"TOWNNAME":"安南區","LI":"佃東里","LIN":"12鄰","STREET":"海佃路","SECT":"四段","MAREA":" ","LANE":"３８８巷","ALLEY":"１３４弄","HOUSE_NO":"９號","E_COORD97":165629.23999999999,"N_COORD97":2551869.5099999998,"ADDRESS":"海佃路四段３８８巷１３４弄９號","OBJECTID":85875},"geometry":{"x":165629.24000000115,"y":2551869.5100000035}},{"attributes":{"ID":85876,"DIS_CODE":0,"TOWNNAME":"安南區","LI":"海東里","LIN":"12鄰","STREET":"海環街","SECT":" ","MAREA":" ","LANE":"３２巷","ALLEY":"３７弄","HOUSE_NO":"２１號","E_COORD97":166589.81,"N_COORD97":2548926.5499999998,"ADDRESS":"海環街３２巷３７弄２１號","OBJECTID":85876},"geometry":{"x":166589.80999999959,"y":2548926.5500000007}},{"attributes":{"ID":85877,"DIS_CODE":0,"TOWNNAME":"安定區","LI":"六嘉里","LIN":"12鄰","STREET":" ","SECT":" ","MAREA":"六塊寮","LANE":" ","ALLEY":" ","HOUSE_NO":"１０１之１號","E_COORD97":170350.17000000001,"N_COORD97":2553353.2999999998,"ADDRESS":"六塊寮１０１之１號","OBJECTID":85877},"geometry":{"x":170350.17000000086,"y":2553353.3000000045}},{"attributes":{"ID":85878,"DIS_CODE":0,"TOWNNAME":"安南區","LI":"海東里","LIN":"12鄰","STREET":"海環街","SECT":" ","MAREA":" ","LANE":"３２巷","ALLEY":"３７弄","HOUSE_NO":"２３號","E_COORD97":166586.70000000001,"N_COORD97":2548924.9500000002,"ADDRESS":"海環街３２巷３７弄２３號","OBJECTID":85878},"geometry":{"x":166586.70000000112,"y":2548924.9499999993}},{"attributes":{"ID":85879,"DIS_CODE":0,"TOWNNAME":"安南區","LI":"海東里","LIN":"12鄰","STREET":"海環街","SECT":" ","MAREA":" ","LANE":"３２巷","ALLEY":"３７弄","HOUSE_NO":"２５號","E_COORD97":166583.26000000001,"N_COORD97":2548923.4900000002,"ADDRESS":"海環街３２巷３７弄２５號","OBJECTID":85879},"geometry":{"x":166583.25999999978,"y":2548923.4899999984}},{"attributes":{"ID":85880,"DIS_CODE":0,"TOWNNAME":"安南區","LI":"海東里","LIN":"12鄰","STREET":"海環街","SECT":" ","MAREA":" ","LANE":"３２巷","ALLEY":"３７弄","HOUSE_NO":"２６號","E_COORD97":166546.04000000001,"N_COORD97":2548911.6699999999,"ADDRESS":"海環街３２巷３７弄２６號","OBJECTID":85880},"geometry":{"x":166546.04000000004,"y":2548911.6699999981}},{"attributes":{"ID":85881,"DIS_CODE":0,"TOWNNAME":"安南區","LI":"海東里","LIN":"12鄰","STREET":"海環街","SECT":" ","MAREA":" ","LANE":"３２巷","ALLEY":"３７弄","HOUSE_NO":"２７號","E_COORD97":166580.19,"N_COORD97":2548921.6600000001,"ADDRESS":"海環街３２巷３７弄２７號","OBJECTID":85881},"geometry":{"x":166580.19000000134,"y":2548921.6600000001}},{"attributes":{"ID":85882,"DIS_CODE":0,"TOWNNAME":"安定區","LI":"六嘉里","LIN":"12鄰","STREET":" ","SECT":" ","MAREA":"六塊寮","LANE":" ","ALLEY":" ","HOUSE_NO":"１５６號","E_COORD97":170134.97,"N_COORD97":2552700.27,"ADDRESS":"六塊寮１５６號","OBJECTID":85882},"geometry":{"x":170134.96999999974,"y":2552700.2699999996}},{"attributes":{"ID":85883,"DIS_CODE":0,"TOWNNAME":"安南區","LI":"海東里","LIN":"12鄰","STREET":"海環街","SECT":" ","MAREA":" ","LANE":"３２巷","ALLEY":"３７弄","HOUSE_NO":"２８號","E_COORD97":166542.5,"N_COORD97":2548910.3799999999,"ADDRESS":"海環街３２巷３７弄２８號","OBJECTID":85883},"geometry":{"x":166542.50000000093,"y":2548910.3800000008}},{"attributes":{"ID":85884,"DIS_CODE":0,"TOWNNAME":"安南區","LI":"海東里","LIN":"12鄰","STREET":"海環街","SECT":" ","MAREA":" ","LANE":"３２巷","ALLEY":"３７弄","HOUSE_NO":"２９號","E_COORD97":166576.67999999999,"N_COORD97":2548919.54,"ADDRESS":"海環街３２巷３７弄２９號","OBJECTID":85884},"geometry":{"x":166576.68000000063,"y":2548919.540000001}},{"attributes":{"ID":85885,"DIS_CODE":0,"TOWNNAME":"安南區","LI":"海東里","LIN":"12鄰","STREET":"海環街","SECT":" ","MAREA":" ","LANE":"３２巷","ALLEY":"３７弄","HOUSE_NO":"３０號","E_COORD97":166538.70000000001,"N_COORD97":2548909.0600000001,"ADDRESS":"海環街３２巷３７弄３０號","OBJECTID":85885},"geometry":{"x":166538.70000000019,"y":2548909.0600000005}},{"attributes":{"ID":85886,"DIS_CODE":0,"TOWNNAME":"安南區","LI":"海東里","LIN":"12鄰","STREET":"海環街","SECT":" ","MAREA":" ","LANE":"３２巷","ALLEY":"３７弄","HOUSE_NO":"３１號","E_COORD97":166572.67999999999,"N_COORD97":2548917.6099999999,"ADDRESS":"海環街３２巷３７弄３１號","OBJECTID":85886},"geometry":{"x":166572.68000000063,"y":2548917.6099999994}},{"attributes":{"ID":85887,"DIS_CODE":0,"TOWNNAME":"安南區","LI":"海東里","LIN":"12鄰","STREET":"海環街","SECT":" ","MAREA":" ","LANE":"３２巷","ALLEY":"３７弄","HOUSE_NO":"３２號","E_COORD97":166533.79000000001,"N_COORD97":2548907.3599999999,"ADDRESS":"海環街３２巷３７弄３２號","OBJECTID":85887},"geometry":{"x":166533.79000000097,"y":2548907.3600000013}},{"attributes":{"ID":85888,"DIS_CODE":0,"TOWNNAME":"安南區","LI":"海東里","LIN":"12鄰","STREET":"海環街","SECT":" ","MAREA":" ","LANE":"３２巷","ALLEY":"３７弄","HOUSE_NO":"３３號","E_COORD97":166568.51999999999,"N_COORD97":2548915.5899999999,"ADDRESS":"海環街３２巷３７弄３３號","OBJECTID":85888},"geometry":{"x":166568.52000000048,"y":2548915.589999998}},{"attributes":{"ID":85889,"DIS_CODE":0,"TOWNNAME":"安南區","LI":"海東里","LIN":"12鄰","STREET":"海環街","SECT":" ","MAREA":" ","LANE":"３２巷","ALLEY":"３７弄","HOUSE_NO":"３４號","E_COORD97":166529.51999999999,"N_COORD97":2548905.3900000001,"ADDRESS":"海環街３２巷３７弄３４號","OBJECTID":85889},"geometry":{"x":166529.52000000048,"y":2548905.3900000025}},{"attributes":{"ID":85890,"DIS_CODE":0,"TOWNNAME":"安南區","LI":"海東里","LIN":"12鄰","STREET":"海環街","SECT":" ","MAREA":" ","LANE":"３２巷","ALLEY":"３７弄","HOUSE_NO":"３５號","E_COORD97":166564.12,"N_COORD97":2548913.8500000001,"ADDRESS":"海環街３２巷３７弄３５號","OBJECTID":85890},"geometry":{"x":166564.12000000011,"y":2548913.8500000034}},{"attributes":{"ID":85891,"DIS_CODE":0,"TOWNNAME":"安南區","LI":"海東里","LIN":"12鄰","STREET":"海環街","SECT":" ","MAREA":" ","LANE":"３２巷","ALLEY":"３７弄","HOUSE_NO":"３６號","E_COORD97":166525.26000000001,"N_COORD97":2548903.3700000001,"ADDRESS":"海環街３２巷３７弄３６號","OBJECTID":85891},"geometry":{"x":166525.26000000071,"y":2548903.370000001}},{"attributes":{"ID":85892,"DIS_CODE":0,"TOWNNAME":"安南區","LI":"海東里","LIN":"12鄰","STREET":"海環街","SECT":" ","MAREA":" ","LANE":"３２巷","ALLEY":"３７弄","HOUSE_NO":"３８號","E_COORD97":166521.26999999999,"N_COORD97":2548901.54,"ADDRESS":"海環街３２巷３７弄３８號","OBJECTID":85892},"geometry":{"x":166521.27000000048,"y":2548901.5399999972}},{"attributes":{"ID":85893,"DIS_CODE":0,"TOWNNAME":"南區","LI":"喜北里","LIN":"12鄰","STREET":"喜樹路","SECT":" ","MAREA":" ","LANE":"２０６巷","ALLEY":"４２弄","HOUSE_NO":"３號","E_COORD97":165766.53,"N_COORD97":2538185.25,"ADDRESS":"喜樹路２０６巷４２弄３號","OBJECTID":85893},"geometry":{"x":165766.53000000026,"y":2538185.2500000019}},{"attributes":{"ID":85894,"DIS_CODE":0,"TOWNNAME":"南區","LI":"喜北里","LIN":"12鄰","STREET":"喜樹路","SECT":" ","MAREA":" ","LANE":"２０６巷","ALLEY":"４２弄","HOUSE_NO":"５號","E_COORD97":165773.48000000001,"N_COORD97":2538186.0800000001,"ADDRESS":"喜樹路２０６巷４２弄５號","OBJECTID":85894},"geometry":{"x":165773.48000000138,"y":2538186.0800000019}},{"attributes":{"ID":85895,"DIS_CODE":0,"TOWNNAME":"南區","LI":"喜北里","LIN":"12鄰","STREET":"喜樹路","SECT":" ","MAREA":" ","LANE":"２０６巷","ALLEY":"４２弄","HOUSE_NO":"７號","E_COORD97":165780.5,"N_COORD97":2538186.4500000002,"ADDRESS":"喜樹路２０６巷４２弄７號","OBJECTID":85895},"geometry":{"x":165780.5,"y":2538186.4500000011}},{"attributes":{"ID":85896,"DIS_CODE":0,"TOWNNAME":"南區","LI":"喜北里","LIN":"12鄰","STREET":"喜樹路","SECT":" ","MAREA":" ","LANE":"２０６巷","ALLEY":"５６弄","HOUSE_NO":"１號","E_COORD97":165754.14000000001,"N_COORD97":2538215.9399999999,"ADDRESS":"喜樹路２０６巷５６弄１號","OBJECTID":85896},"geometry":{"x":165754.1400000006,"y":2538215.9399999995}},{"attributes":{"ID":85897,"DIS_CODE":0,"TOWNNAME":"南區","LI":"喜北里","LIN":"12鄰","STREET":"喜樹路","SECT":" ","MAREA":" ","LANE":"２０６巷","ALLEY":"５６弄","HOUSE_NO":"２號","E_COORD97":165757.60999999999,"N_COORD97":2538195.9700000002,"ADDRESS":"喜樹路２０６巷５６弄２號","OBJECTID":85897},"geometry":{"x":165757.61000000034,"y":2538195.9700000007}},{"attributes":{"ID":85898,"DIS_CODE":0,"TOWNNAME":"南區","LI":"喜北里","LIN":"12鄰","STREET":"喜樹路","SECT":" ","MAREA":" ","LANE":"２０６巷","ALLEY":"５６弄","HOUSE_NO":"３號","E_COORD97":165761.01000000001,"N_COORD97":2538217.0699999998,"ADDRESS":"喜樹路２０６巷５６弄３號","OBJECTID":85898},"geometry":{"x":165761.00999999978,"y":2538217.0700000022}},{"attributes":{"ID":85899,"DIS_CODE":0,"TOWNNAME":"南區","LI":"喜北里","LIN":"12鄰","STREET":"喜樹路","SECT":" ","MAREA":" ","LANE":"２０６巷","ALLEY":"５６弄","HOUSE_NO":"４號","E_COORD97":165764.48999999999,"N_COORD97":2538197.1000000001,"ADDRESS":"喜樹路２０６巷５６弄４號","OBJECTID":85899},"geometry":{"x":165764.49000000115,"y":2538197.0999999996}},{"attributes":{"ID":85900,"DIS_CODE":0,"TOWNNAME":"南區","LI":"喜北里","LIN":"12鄰","STREET":"喜樹路","SECT":" ","MAREA":" ","LANE":"２０６巷","ALLEY":"５６弄","HOUSE_NO":"５號","E_COORD97":165767.95999999999,"N_COORD97":2538218.6600000001,"ADDRESS":"喜樹路２０６巷５６弄５號","OBJECTID":85900},"geometry":{"x":165767.96000000089,"y":2538218.6600000001}},{"attributes":{"ID":85901,"DIS_CODE":0,"TOWNNAME":"南區","LI":"喜北里","LIN":"12鄰","STREET":"喜樹路","SECT":" ","MAREA":" ","LANE":"２０６巷","ALLEY":"５６弄","HOUSE_NO":"６號","E_COORD97":165771.44,"N_COORD97":2538198.3799999999,"ADDRESS":"喜樹路２０６巷５６弄６號","OBJECTID":85901},"geometry":{"x":165771.44000000227,"y":2538198.379999999}},{"attributes":{"ID":85902,"DIS_CODE":0,"TOWNNAME":"南區","LI":"喜北里","LIN":"12鄰","STREET":"喜樹路","SECT":" ","MAREA":" ","LANE":"２０６巷","ALLEY":"５６弄","HOUSE_NO":"７號","E_COORD97":165774.84,"N_COORD97":2538220.1600000001,"ADDRESS":"喜樹路２０６巷５６弄７號","OBJECTID":85902},"geometry":{"x":165774.84000000171,"y":2538220.160000002}},{"attributes":{"ID":85903,"DIS_CODE":0,"TOWNNAME":"南區","LI":"喜北里","LIN":"12鄰","STREET":"喜樹路","SECT":" ","MAREA":" ","LANE":"２０６巷","ALLEY":"５６弄","HOUSE_NO":"８號","E_COORD97":165777.92999999999,"N_COORD97":2538199.5099999998,"ADDRESS":"喜樹路２０６巷５６弄８號","OBJECTID":85903},"geometry":{"x":165777.93000000063,"y":2538199.5100000035}},{"attributes":{"ID":85904,"DIS_CODE":0,"TOWNNAME":"南區","LI":"喜北里","LIN":"12鄰","STREET":"喜樹路","SECT":" ","MAREA":" ","LANE":"２０６巷","ALLEY":"７０弄","HOUSE_NO":"１號","E_COORD97":165748.31,"N_COORD97":2538248.6200000001,"ADDRESS":"喜樹路２０６巷７０弄１號","OBJECTID":85904},"geometry":{"x":165748.31000000052,"y":2538248.6200000029}},{"attributes":{"ID":85905,"DIS_CODE":0,"TOWNNAME":"南區","LI":"喜北里","LIN":"12鄰","STREET":"喜樹路","SECT":" ","MAREA":" ","LANE":"２０６巷","ALLEY":"７０弄","HOUSE_NO":"２號","E_COORD97":165751.79000000001,"N_COORD97":2538228.4100000001,"ADDRESS":"喜樹路２０６巷７０弄２號","OBJECTID":85905},"geometry":{"x":165751.7900000019,"y":2538228.410000002}},{"attributes":{"ID":85906,"DIS_CODE":0,"TOWNNAME":"南區","LI":"喜北里","LIN":"12鄰","STREET":"喜樹路","SECT":" ","MAREA":" ","LANE":"２０６巷","ALLEY":"７０弄","HOUSE_NO":"３號","E_COORD97":165755.41,"N_COORD97":2538249.5299999998,"ADDRESS":"喜樹路２０６巷７０弄３號","OBJECTID":85906},"geometry":{"x":165755.41000000015,"y":2538249.5300000031}},{"attributes":{"ID":85907,"DIS_CODE":0,"TOWNNAME":"安定區","LI":"六嘉里","LIN":"12鄰","STREET":" ","SECT":" ","MAREA":"六塊寮","LANE":" ","ALLEY":" ","HOUSE_NO":"１５５號","E_COORD97":170042.67000000001,"N_COORD97":2552776.27,"ADDRESS":"六塊寮１５５號","OBJECTID":85907},"geometry":{"x":170042.66999999993,"y":2552776.2700000014}},{"attributes":{"ID":85908,"DIS_CODE":0,"TOWNNAME":"安定區","LI":"蘇林里","LIN":"12鄰","STREET":" ","SECT":" ","MAREA":"蘇厝","LANE":" ","ALLEY":" ","HOUSE_NO":"１３１之１號","E_COORD97":173598.72,"N_COORD97":2558988.2999999998,"ADDRESS":"蘇厝１３１之１號","OBJECTID":85908},"geometry":{"x":173598.71999999881,"y":2558988.3000000045}},{"attributes":{"ID":85909,"DIS_CODE":0,"TOWNNAME":"安定區","LI":"蘇厝里","LIN":"12鄰","STREET":" ","SECT":" ","MAREA":"蘇厝","LANE":" ","ALLEY":" ","HOUSE_NO":"３９４之６號","E_COORD97":173136.92000000001,"N_COORD97":2558769.2999999998,"ADDRESS":"蘇厝３９４之６號","OBJECTID":85909},"geometry":{"x":173136.92000000086,"y":2558769.3000000026}},{"attributes":{"ID":85910,"DIS_CODE":0,"TOWNNAME":"安定區","LI":"保西里","LIN":"12鄰","STREET":" ","SECT":" ","MAREA":"安定","LANE":" ","ALLEY":" ","HOUSE_NO":"４４６號","E_COORD97":171784.26039800001,"N_COORD97":2557955.56758,"ADDRESS":"安定４４６號","OBJECTID":85910},"geometry":{"x":171784.26039800048,"y":2557955.567582}},{"attributes":{"ID":85911,"DIS_CODE":0,"TOWNNAME":"安定區","LI":"蘇厝里","LIN":"12鄰","STREET":" ","SECT":" ","MAREA":"蘇厝","LANE":" ","ALLEY":" ","HOUSE_NO":"３９７之２號","E_COORD97":173125.42000000001,"N_COORD97":2558890.2999999998,"ADDRESS":"蘇厝３９７之２號","OBJECTID":85911},"geometry":{"x":173125.42000000086,"y":2558890.3000000026}},{"attributes":{"ID":85912,"DIS_CODE":0,"TOWNNAME":"安定區","LI":"六嘉里","LIN":"12鄰","STREET":" ","SECT":" ","MAREA":"六塊寮","LANE":" ","ALLEY":" ","HOUSE_NO":"９７之１２號","E_COORD97":170362.97,"N_COORD97":2553419.2999999998,"ADDRESS":"六塊寮９７之１２號","OBJECTID":85912},"geometry":{"x":170362.97000000067,"y":2553419.3000000026}},{"attributes":{"ID":85913,"DIS_CODE":0,"TOWNNAME":"安定區","LI":"中榮里","LIN":"12鄰","STREET":" ","SECT":" ","MAREA":"許中營","LANE":" ","ALLEY":" ","HOUSE_NO":"１０２號","E_COORD97":172501.79000000001,"N_COORD97":2555422.25,"ADDRESS":"許中營１０２號","OBJECTID":85913},"geometry":{"x":172501.78999999911,"y":2555422.2500000019}},{"attributes":{"ID":85914,"DIS_CODE":0,"TOWNNAME":"麻豆區","LI":"油車里","LIN":"12鄰","STREET":" ","SECT":" ","MAREA":"油車","LANE":" ","ALLEY":" ","HOUSE_NO":"９０號","E_COORD97":172395.29999999999,"N_COORD97":2565946.6899999999,"ADDRESS":"油車９０號","OBJECTID":85914},"geometry":{"x":172395.30000000075,"y":2565946.6899999995}},{"attributes":{"ID":85915,"DIS_CODE":0,"TOWNNAME":"安定區","LI":"新吉里","LIN":"12鄰","STREET":" ","SECT":" ","MAREA":"新吉","LANE":" ","ALLEY":" ","HOUSE_NO":"１０１號","E_COORD97":169316.12,"N_COORD97":2554001.25,"ADDRESS":"新吉１０１號","OBJECTID":85915},"geometry":{"x":169316.12000000197,"y":2554001.2500000019}},{"attributes":{"ID":85916,"DIS_CODE":0,"TOWNNAME":"安定區","LI":"六嘉里","LIN":"12鄰","STREET":" ","SECT":" ","MAREA":"六塊寮","LANE":" ","ALLEY":" ","HOUSE_NO":"９７號之９","E_COORD97":170428.54000000001,"N_COORD97":2553349.2999999998,"ADDRESS":"六塊寮９７號之９","OBJECTID":85916},"geometry":{"x":170428.54000000004,"y":2553349.3000000007}},{"attributes":{"ID":85917,"DIS_CODE":0,"TOWNNAME":"安定區","LI":"六嘉里","LIN":"12鄰","STREET":" ","SECT":" ","MAREA":"六塊寮","LANE":" ","ALLEY":" ","HOUSE_NO":"１０１號之３","E_COORD97":170312.29999999999,"N_COORD97":2553361.2999999998,"ADDRESS":"六塊寮１０１號之３","OBJECTID":85917},"geometry":{"x":170312.29999999981,"y":2553361.3000000026}},{"attributes":{"ID":85918,"DIS_CODE":0,"TOWNNAME":"安定區","LI":"六嘉里","LIN":"12鄰","STREET":" ","SECT":" ","MAREA":"六塊寮","LANE":" ","ALLEY":" ","HOUSE_NO":"９７之１０號","E_COORD97":170692.47,"N_COORD97":2553142.2999999998,"ADDRESS":"六塊寮９７之１０號","OBJECTID":85918},"geometry":{"x":170692.46999999974,"y":2553142.3000000007}},{"attributes":{"ID":85919,"DIS_CODE":0,"TOWNNAME":"安定區","LI":"蘇林里","LIN":"12鄰","STREET":" ","SECT":" ","MAREA":"蘇厝","LANE":" ","ALLEY":" ","HOUSE_NO":"１３０號之２","E_COORD97":173610.09,"N_COORD97":2559003.9500000002,"ADDRESS":"蘇厝１３０號之２","OBJECTID":85919},"geometry":{"x":173610.09000000171,"y":2559003.9500000011}},{"attributes":{"ID":85920,"DIS_CODE":0,"TOWNNAME":"安定區","LI":"蘇厝里","LIN":"12鄰","STREET":" ","SECT":" ","MAREA":"蘇厝","LANE":" ","ALLEY":" ","HOUSE_NO":"３９７號之１","E_COORD97":173081.82000000001,"N_COORD97":2558873.25,"ADDRESS":"蘇厝３９７號","OBJECTID":85920},"geometry":{"x":173081.82000000216,"y":2558873.2500000019}},{"attributes":{"ID":85921,"DIS_CODE":0,"TOWNNAME":"安定區","LI":"六嘉里","LIN":"12鄰","STREET":" ","SECT":" ","MAREA":"六塊寮","LANE":" ","ALLEY":" ","HOUSE_NO":"９７之１６號","E_COORD97":170406.97,"N_COORD97":2553401.2999999998,"ADDRESS":"六塊寮９７之１６號","OBJECTID":85921},"geometry":{"x":170406.97000000067,"y":2553401.3000000026}},{"attributes":{"ID":85922,"DIS_CODE":0,"TOWNNAME":"安定區","LI":"保西里","LIN":"12鄰","STREET":" ","SECT":" ","MAREA":"安定","LANE":" ","ALLEY":" ","HOUSE_NO":"４４９號","E_COORD97":171803.01999999999,"N_COORD97":2557982.3199999998,"ADDRESS":"安定４４９號","OBJECTID":85922},"geometry":{"x":171803.01999999862,"y":2557982.3200000003}},{"attributes":{"ID":85923,"DIS_CODE":0,"TOWNNAME":"安定區","LI":"蘇厝里","LIN":"12鄰","STREET":" ","SECT":" ","MAREA":"蘇厝","LANE":" ","ALLEY":" ","HOUSE_NO":"３９６號","E_COORD97":173112.12,"N_COORD97":2558816.25,"ADDRESS":"蘇厝３９６號","OBJECTID":85923},"geometry":{"x":173112.12000000104,"y":2558816.2500000019}},{"attributes":{"ID":85924,"DIS_CODE":0,"TOWNNAME":"安定區","LI":"新吉里","LIN":"12鄰","STREET":" ","SECT":" ","MAREA":"新吉","LANE":" ","ALLEY":" ","HOUSE_NO":"１０３號","E_COORD97":169351.72,"N_COORD97":2554000.25,"ADDRESS":"新吉１０３號","OBJECTID":85924},"geometry":{"x":169351.71999999974,"y":2554000.2499999981}},{"attributes":{"ID":85925,"DIS_CODE":0,"TOWNNAME":"安定區","LI":"保西里","LIN":"12鄰","STREET":" ","SECT":" ","MAREA":"安定","LANE":" ","ALLEY":" ","HOUSE_NO":"４４７之１號","E_COORD97":171742.64999999999,"N_COORD97":2557972.3199999998,"ADDRESS":"安定４４７號之１","OBJECTID":85925},"geometry":{"x":171742.6500000013,"y":2557972.3200000003}},{"attributes":{"ID":85926,"DIS_CODE":0,"TOWNNAME":"安定區","LI":"蘇厝里","LIN":"12鄰","STREET":" ","SECT":" ","MAREA":"蘇厝","LANE":" ","ALLEY":" ","HOUSE_NO":"３９５號之３","E_COORD97":173175.64999999999,"N_COORD97":2558803.2999999998,"ADDRESS":"蘇厝３９５號之３","OBJECTID":85926},"geometry":{"x":173175.65000000037,"y":2558803.3000000026}},{"attributes":{"ID":85927,"DIS_CODE":0,"TOWNNAME":"安定區","LI":"六嘉里","LIN":"12鄰","STREET":" ","SECT":" ","MAREA":"六塊寮","LANE":" ","ALLEY":" ","HOUSE_NO":"９７號之７","E_COORD97":170440.63,"N_COORD97":2553359.2999999998,"ADDRESS":"六塊寮９７號之７","OBJECTID":85927},"geometry":{"x":170440.62999999989,"y":2553359.3000000007}},{"attributes":{"ID":85928,"DIS_CODE":0,"TOWNNAME":"安定區","LI":"六嘉里","LIN":"12鄰","STREET":" ","SECT":" ","MAREA":"六塊寮","LANE":" ","ALLEY":" ","HOUSE_NO":"１５４號","E_COORD97":170016.97,"N_COORD97":2552710.27,"ADDRESS":"六塊寮１５４號","OBJECTID":85928},"geometry":{"x":170016.9700000016,"y":2552710.2699999996}},{"attributes":{"ID":85929,"DIS_CODE":0,"TOWNNAME":"安定區","LI":"六嘉里","LIN":"12鄰","STREET":" ","SECT":" ","MAREA":"六塊寮","LANE":" ","ALLEY":" ","HOUSE_NO":"９７號之３","E_COORD97":170379.41128500001,"N_COORD97":2553436.4339399999,"ADDRESS":"六塊寮９７號之３","OBJECTID":85929},"geometry":{"x":170379.41128500085,"y":2553436.433937002}},{"attributes":{"ID":85930,"DIS_CODE":0,"TOWNNAME":"安定區","LI":"六嘉里","LIN":"12鄰","STREET":" ","SECT":" ","MAREA":"六塊寮","LANE":" ","ALLEY":" ","HOUSE_NO":"９７號之１１","E_COORD97":170366.5,"N_COORD97":2553421.2999999998,"ADDRESS":"六塊寮９７號之１１","OBJECTID":85930},"geometry":{"x":170366.50000000093,"y":2553421.3000000045}},{"attributes":{"ID":85931,"DIS_CODE":0,"TOWNNAME":"安定區","LI":"中榮里","LIN":"12鄰","STREET":" ","SECT":" ","MAREA":"許中營","LANE":" ","ALLEY":" ","HOUSE_NO":"９１之７號","E_COORD97":172492.73999999999,"N_COORD97":2555349.2999999998,"ADDRESS":"許中營９１之７號","OBJECTID":85931},"geometry":{"x":172492.74000000115,"y":2555349.3000000007}},{"attributes":{"ID":85932,"DIS_CODE":0,"TOWNNAME":"安定區","LI":"新吉里","LIN":"12鄰","STREET":" ","SECT":" ","MAREA":"新吉","LANE":" ","ALLEY":" ","HOUSE_NO":"１０２號","E_COORD97":169320.22,"N_COORD97":2554007.25,"ADDRESS":"新吉１０２號","OBJECTID":85932},"geometry":{"x":169320.2200000016,"y":2554007.2500000037}},{"attributes":{"ID":85933,"DIS_CODE":0,"TOWNNAME":"安定區","LI":"新吉里","LIN":"12鄰","STREET":" ","SECT":" ","MAREA":"新吉","LANE":" ","ALLEY":" ","HOUSE_NO":"１０２之８號","E_COORD97":169333.51999999999,"N_COORD97":2554033.2999999998,"ADDRESS":"新吉１０２之８號","OBJECTID":85933},"geometry":{"x":169333.52000000048,"y":2554033.3000000007}},{"attributes":{"ID":85934,"DIS_CODE":0,"TOWNNAME":"安定區","LI":"六嘉里","LIN":"12鄰","STREET":" ","SECT":" ","MAREA":"六塊寮","LANE":" ","ALLEY":" ","HOUSE_NO":"１５９之１號","E_COORD97":170011.07000000001,"N_COORD97":2552907.2999999998,"ADDRESS":"六塊寮１５９之１號","OBJECTID":85934},"geometry":{"x":170011.0700000003,"y":2552907.3000000026}},{"attributes":{"ID":85935,"DIS_CODE":0,"TOWNNAME":"安定區","LI":"六嘉里","LIN":"12鄰","STREET":" ","SECT":" ","MAREA":"六塊寮","LANE":" ","ALLEY":" ","HOUSE_NO":"９７之１９號","E_COORD97":170504.97,"N_COORD97":2553274.2999999998,"ADDRESS":"六塊寮９７之１９號","OBJECTID":85935},"geometry":{"x":170504.96999999974,"y":2553274.3000000007}},{"attributes":{"ID":85936,"DIS_CODE":0,"TOWNNAME":"安定區","LI":"保西里","LIN":"12鄰","STREET":" ","SECT":" ","MAREA":"安定","LANE":" ","ALLEY":" ","HOUSE_NO":"４４２號","E_COORD97":171738.72,"N_COORD97":2557927.3199999998,"ADDRESS":"安定４４２號","OBJECTID":85936},"geometry":{"x":171738.71999999974,"y":2557927.3200000022}},{"attributes":{"ID":85937,"DIS_CODE":0,"TOWNNAME":"安定區","LI":"蘇厝里","LIN":"12鄰","STREET":" ","SECT":" ","MAREA":"蘇厝","LANE":" ","ALLEY":" ","HOUSE_NO":"３９５號之２","E_COORD97":173174.39000000001,"N_COORD97":2558824.2999999998,"ADDRESS":"蘇厝３９５號之２","OBJECTID":85937},"geometry":{"x":173174.3900000006,"y":2558824.3000000007}},{"attributes":{"ID":85938,"DIS_CODE":0,"TOWNNAME":"安定區","LI":"六嘉里","LIN":"12鄰","STREET":" ","SECT":" ","MAREA":"六塊寮","LANE":" ","ALLEY":" ","HOUSE_NO":"９４之１號","E_COORD97":170398.80397800001,"N_COORD97":2553305.98202,"ADDRESS":"六塊寮９４之１號","OBJECTID":85938},"geometry":{"x":170398.80397800077,"y":2553305.9820230007}},{"attributes":{"ID":85939,"DIS_CODE":0,"TOWNNAME":"南區","LI":"喜北里","LIN":"12鄰","STREET":"喜樹路","SECT":" ","MAREA":" ","LANE":"２０６巷","ALLEY":"７０弄","HOUSE_NO":"４號","E_COORD97":165758.67000000001,"N_COORD97":2538229.54,"ADDRESS":"喜樹路２０６巷７０弄４號","OBJECTID":85939},"geometry":{"x":165758.66999999993,"y":2538229.540000001}},{"attributes":{"ID":85940,"DIS_CODE":0,"TOWNNAME":"南區","LI":"喜北里","LIN":"12鄰","STREET":"喜樹路","SECT":" ","MAREA":" ","LANE":"２０６巷","ALLEY":"７０弄","HOUSE_NO":"５號","E_COORD97":165762.14000000001,"N_COORD97":2538251.1899999999,"ADDRESS":"喜樹路２０６巷７０弄５號","OBJECTID":85940},"geometry":{"x":165762.13999999966,"y":2538251.1899999995}},{"attributes":{"ID":85941,"DIS_CODE":0,"TOWNNAME":"安定區","LI":"六嘉里","LIN":"12鄰","STREET":" ","SECT":" ","MAREA":"六塊寮","LANE":" ","ALLEY":" ","HOUSE_NO":"９７之２１號","E_COORD97":170509.76999999999,"N_COORD97":2553376.2999999998,"ADDRESS":"六塊寮９７之２１號","OBJECTID":85941},"geometry":{"x":170509.77000000142,"y":2553376.3000000007}},{"attributes":{"ID":85942,"DIS_CODE":0,"TOWNNAME":"安定區","LI":"六嘉里","LIN":"12鄰","STREET":" ","SECT":" ","MAREA":"六塊寮","LANE":" ","ALLEY":" ","HOUSE_NO":"９４號","E_COORD97":170404.22,"N_COORD97":2553338.27,"ADDRESS":"六塊寮９４號","OBJECTID":85942},"geometry":{"x":170404.22000000067,"y":2553338.2699999996}},{"attributes":{"ID":85943,"DIS_CODE":0,"TOWNNAME":"安定區","LI":"蘇林里","LIN":"12鄰","STREET":" ","SECT":" ","MAREA":"蘇厝","LANE":" ","ALLEY":" ","HOUSE_NO":"１３０之１號","E_COORD97":173598.00916700001,"N_COORD97":2559027.49926,"ADDRESS":"蘇厝１３０之１號","OBJECTID":85943},"geometry":{"x":173598.00916700158,"y":2559027.4992569983}},{"attributes":{"ID":85944,"DIS_CODE":0,"TOWNNAME":"安定區","LI":"蘇厝里","LIN":"12鄰","STREET":" ","SECT":" ","MAREA":"蘇厝","LANE":" ","ALLEY":" ","HOUSE_NO":"３９７之４號","E_COORD97":173109.72,"N_COORD97":2558873.2999999998,"ADDRESS":"蘇厝３９７之４號","OBJECTID":85944},"geometry":{"x":173109.72000000067,"y":2558873.3000000026}},{"attributes":{"ID":85945,"DIS_CODE":0,"TOWNNAME":"安定區","LI":"港南里","LIN":"12鄰","STREET":" ","SECT":" ","MAREA":"港口","LANE":" ","ALLEY":" ","HOUSE_NO":"９１號","E_COORD97":171291.14000000001,"N_COORD97":2554371.25,"ADDRESS":"港口９１號","OBJECTID":85945},"geometry":{"x":171291.1400000006,"y":2554371.2500000019}},{"attributes":{"ID":85946,"DIS_CODE":0,"TOWNNAME":"安定區","LI":"六嘉里","LIN":"12鄰","STREET":" ","SECT":" ","MAREA":"六塊寮","LANE":" ","ALLEY":" ","HOUSE_NO":"９４之２號","E_COORD97":170409.51999999999,"N_COORD97":2553312.2999999998,"ADDRESS":"六塊寮９４之２號","OBJECTID":85946},"geometry":{"x":170409.51999999955,"y":2553312.3000000007}},{"attributes":{"ID":85947,"DIS_CODE":0,"TOWNNAME":"安定區","LI":"蘇林里","LIN":"12鄰","STREET":" ","SECT":" ","MAREA":"蘇厝","LANE":" ","ALLEY":" ","HOUSE_NO":"１３２之１號","E_COORD97":173589.62,"N_COORD97":2558948.2999999998,"ADDRESS":"蘇厝１３２之１號","OBJECTID":85947},"geometry":{"x":173589.61999999918,"y":2558948.3000000026}},{"attributes":{"ID":85948,"DIS_CODE":0,"TOWNNAME":"安定區","LI":"安定里","LIN":"12鄰","STREET":" ","SECT":" ","MAREA":"安定","LANE":" ","ALLEY":" ","HOUSE_NO":"１１０之１號","E_COORD97":171966.56399299999,"N_COORD97":2557714.7230199999,"ADDRESS":"安定１１０之１號","OBJECTID":85948},"geometry":{"x":171966.56399300136,"y":2557714.7230179999}},{"attributes":{"ID":85949,"DIS_CODE":0,"TOWNNAME":"安定區","LI":"港南里","LIN":"12鄰","STREET":" ","SECT":" ","MAREA":"港口","LANE":" ","ALLEY":" ","HOUSE_NO":"８８號之２","E_COORD97":171295.20999999999,"N_COORD97":2554444.2999999998,"ADDRESS":"港口８８號之２","OBJECTID":85949},"geometry":{"x":171295.20999999996,"y":2554444.3000000007}},{"attributes":{"ID":85950,"DIS_CODE":0,"TOWNNAME":"安定區","LI":"港南里","LIN":"12鄰","STREET":" ","SECT":" ","MAREA":"港口","LANE":" ","ALLEY":" ","HOUSE_NO":"９５號之１","E_COORD97":171265.57999999999,"N_COORD97":2554383.2999999998,"ADDRESS":"港口９５號之１","OBJECTID":85950},"geometry":{"x":171265.58000000007,"y":2554383.3000000007}},{"attributes":{"ID":85951,"DIS_CODE":0,"TOWNNAME":"安定區","LI":"六嘉里","LIN":"12鄰","STREET":" ","SECT":" ","MAREA":"六塊寮","LANE":" ","ALLEY":" ","HOUSE_NO":"９７之２０號","E_COORD97":170439.17000000001,"N_COORD97":2553356.2999999998,"ADDRESS":"六塊寮９７之２０號","OBJECTID":85951},"geometry":{"x":170439.16999999993,"y":2553356.3000000007}},{"attributes":{"ID":85952,"DIS_CODE":0,"TOWNNAME":"安定區","LI":"港南里","LIN":"12鄰","STREET":" ","SECT":" ","MAREA":"港口","LANE":" ","ALLEY":" ","HOUSE_NO":"９４之１號","E_COORD97":171278.84,"N_COORD97":2554432.2999999998,"ADDRESS":"港口９４之１號","OBJECTID":85952},"geometry":{"x":171278.83999999985,"y":2554432.3000000026}},{"attributes":{"ID":85953,"DIS_CODE":0,"TOWNNAME":"安定區","LI":"六嘉里","LIN":"12鄰","STREET":" ","SECT":" ","MAREA":"六塊寮","LANE":" ","ALLEY":" ","HOUSE_NO":"９６號","E_COORD97":170368.22,"N_COORD97":2553380.27,"ADDRESS":"六塊寮９６號","OBJECTID":85953},"geometry":{"x":170368.22000000067,"y":2553380.2700000014}},{"attributes":{"ID":85954,"DIS_CODE":0,"TOWNNAME":"安定區","LI":"六嘉里","LIN":"12鄰","STREET":" ","SECT":" ","MAREA":"六塊寮","LANE":" ","ALLEY":" ","HOUSE_NO":"９９號","E_COORD97":170344.72,"N_COORD97":2553321.27,"ADDRESS":"六塊寮９９號","OBJECTID":85954},"geometry":{"x":170344.72000000067,"y":2553321.2699999996}},{"attributes":{"ID":85955,"DIS_CODE":0,"TOWNNAME":"安定區","LI":"新吉里","LIN":"12鄰","STREET":" ","SECT":" ","MAREA":"新吉","LANE":" ","ALLEY":" ","HOUSE_NO":"９９之３號","E_COORD97":169390.97,"N_COORD97":2553961.2999999998,"ADDRESS":"新吉９９之３號","OBJECTID":85955},"geometry":{"x":169390.96999999974,"y":2553961.3000000026}},{"attributes":{"ID":85956,"DIS_CODE":0,"TOWNNAME":"安定區","LI":"港南里","LIN":"12鄰","STREET":" ","SECT":" ","MAREA":"港口","LANE":" ","ALLEY":" ","HOUSE_NO":"８６號之１","E_COORD97":171348.88,"N_COORD97":2554406.2999999998,"ADDRESS":"港口８６號之１","OBJECTID":85956},"geometry":{"x":171348.88000000082,"y":2554406.3000000007}},{"attributes":{"ID":85957,"DIS_CODE":0,"TOWNNAME":"安定區","LI":"六嘉里","LIN":"12鄰","STREET":" ","SECT":" ","MAREA":"六塊寮","LANE":" ","ALLEY":" ","HOUSE_NO":"１５９號","E_COORD97":170016.67000000001,"N_COORD97":2552868.27,"ADDRESS":"六塊寮１５９號","OBJECTID":85957},"geometry":{"x":170016.66999999993,"y":2552868.2700000014}},{"attributes":{"ID":85958,"DIS_CODE":0,"TOWNNAME":"善化區","LI":"文昌里","LIN":"15鄰","STREET":"大信路","SECT":" ","MAREA":" ","LANE":" ","ALLEY":" ","HOUSE_NO":"６７號六樓之１","E_COORD97":177598.54000000001,"N_COORD97":2558743.52,"ADDRESS":"大信路６７號六樓之１","OBJECTID":85958},"geometry":{"x":177598.54000000004,"y":2558743.5199999996}},{"attributes":{"ID":85959,"DIS_CODE":0,"TOWNNAME":"安定區","LI":"保西里","LIN":"12鄰","STREET":" ","SECT":" ","MAREA":"安定","LANE":" ","ALLEY":" ","HOUSE_NO":"４４２之３號","E_COORD97":171751.01999999999,"N_COORD97":2557951.3199999998,"ADDRESS":"安定４４２之３號","OBJECTID":85959},"geometry":{"x":171751.02000000048,"y":2557951.3200000022}},{"attributes":{"ID":85960,"DIS_CODE":0,"TOWNNAME":"安定區","LI":"蘇林里","LIN":"12鄰","STREET":" ","SECT":" ","MAREA":"蘇厝","LANE":" ","ALLEY":" ","HOUSE_NO":"１３１號","E_COORD97":173592.75363799999,"N_COORD97":2558998.7126099998,"ADDRESS":"蘇厝１３１號","OBJECTID":85960},"geometry":{"x":173592.75363800023,"y":2558998.7126060016}},{"attributes":{"ID":85961,"DIS_CODE":0,"TOWNNAME":"安定區","LI":"六嘉里","LIN":"12鄰","STREET":" ","SECT":" ","MAREA":"六塊寮","LANE":" ","ALLEY":" ","HOUSE_NO":"１５９之２號","E_COORD97":170051.47,"N_COORD97":2552886.2999999998,"ADDRESS":"六塊寮１５９之２號","OBJECTID":85961},"geometry":{"x":170051.47000000067,"y":2552886.3000000026}},{"attributes":{"ID":85962,"DIS_CODE":0,"TOWNNAME":"安定區","LI":"六嘉里","LIN":"12鄰","STREET":" ","SECT":" ","MAREA":"六塊寮","LANE":" ","ALLEY":" ","HOUSE_NO":"１６０號","E_COORD97":169627.97,"N_COORD97":2552860.27,"ADDRESS":"六塊寮１６０號","OBJECTID":85962},"geometry":{"x":169627.96999999974,"y":2552860.2699999996}},{"attributes":{"ID":85963,"DIS_CODE":0,"TOWNNAME":"安定區","LI":"六嘉里","LIN":"12鄰","STREET":" ","SECT":" ","MAREA":"六塊寮","LANE":" ","ALLEY":" ","HOUSE_NO":"９８號","E_COORD97":170359.62,"N_COORD97":2553329.27,"ADDRESS":"六塊寮９８號","OBJECTID":85963},"geometry":{"x":170359.62000000011,"y":2553329.2700000014}},{"attributes":{"ID":85964,"DIS_CODE":0,"TOWNNAME":"安定區","LI":"港南里","LIN":"12鄰","STREET":" ","SECT":" ","MAREA":"港口","LANE":" ","ALLEY":" ","HOUSE_NO":"９４號之３","E_COORD97":171274.87,"N_COORD97":2554425.2999999998,"ADDRESS":"港口９４號之３","OBJECTID":85964},"geometry":{"x":171274.87000000104,"y":2554425.3000000026}},{"attributes":{"ID":85965,"DIS_CODE":0,"TOWNNAME":"安定區","LI":"六嘉里","LIN":"12鄰","STREET":" ","SECT":" ","MAREA":"六塊寮","LANE":" ","ALLEY":" ","HOUSE_NO":"１６０之３號","E_COORD97":169659.26999999999,"N_COORD97":2552934.2999999998,"ADDRESS":"六塊寮１６０之３號","OBJECTID":85965},"geometry":{"x":169659.27000000048,"y":2552934.3000000026}},{"attributes":{"ID":85966,"DIS_CODE":0,"TOWNNAME":"安定區","LI":"安定里","LIN":"12鄰","STREET":" ","SECT":" ","MAREA":"安定","LANE":" ","ALLEY":" ","HOUSE_NO":"１５２號","E_COORD97":171953.72,"N_COORD97":2557674.3199999998,"ADDRESS":"安定１５２號","OBJECTID":85966},"geometry":{"x":171953.71999999974,"y":2557674.3200000003}},{"attributes":{"ID":85967,"DIS_CODE":0,"TOWNNAME":"安定區","LI":"六嘉里","LIN":"12鄰","STREET":" ","SECT":" ","MAREA":"六塊寮","LANE":" ","ALLEY":" ","HOUSE_NO":"９７號之４","E_COORD97":170418.57999999999,"N_COORD97":2553391.2999999998,"ADDRESS":"六塊寮９７號之４","OBJECTID":85967},"geometry":{"x":170418.58000000101,"y":2553391.3000000026}},{"attributes":{"ID":85968,"DIS_CODE":0,"TOWNNAME":"安定區","LI":"六嘉里","LIN":"12鄰","STREET":" ","SECT":" ","MAREA":"六塊寮","LANE":" ","ALLEY":" ","HOUSE_NO":"１５７之２號","E_COORD97":169877.47,"N_COORD97":2552768.2999999998,"ADDRESS":"六塊寮１５７之２號","OBJECTID":85968},"geometry":{"x":169877.46999999974,"y":2552768.3000000026}},{"attributes":{"ID":85969,"DIS_CODE":0,"TOWNNAME":"安定區","LI":"六嘉里","LIN":"12鄰","STREET":" ","SECT":" ","MAREA":"六塊寮","LANE":" ","ALLEY":" ","HOUSE_NO":"９７之１７號","E_COORD97":170403.67000000001,"N_COORD97":2553398.2999999998,"ADDRESS":"六塊寮９７之１７號","OBJECTID":85969},"geometry":{"x":170403.66999999993,"y":2553398.3000000026}},{"attributes":{"ID":85970,"DIS_CODE":0,"TOWNNAME":"安定區","LI":"六嘉里","LIN":"12鄰","STREET":" ","SECT":" ","MAREA":"六塊寮","LANE":" ","ALLEY":" ","HOUSE_NO":"１０２號之３","E_COORD97":170360.29999999999,"N_COORD97":2553393.2999999998,"ADDRESS":"六塊寮１０２號之３","OBJECTID":85970},"geometry":{"x":170360.29999999981,"y":2553393.3000000007}},{"attributes":{"ID":85971,"DIS_CODE":0,"TOWNNAME":"安定區","LI":"六嘉里","LIN":"12鄰","STREET":" ","SECT":" ","MAREA":"六塊寮","LANE":" ","ALLEY":" ","HOUSE_NO":"１０２號之１","E_COORD97":170333.20000000001,"N_COORD97":2553483.2999999998,"ADDRESS":"六塊寮１０２號之１","OBJECTID":85971},"geometry":{"x":170333.20000000112,"y":2553483.3000000026}},{"attributes":{"ID":85972,"DIS_CODE":0,"TOWNNAME":"安定區","LI":"中榮里","LIN":"12鄰","STREET":" ","SECT":" ","MAREA":"許中營","LANE":" ","ALLEY":" ","HOUSE_NO":"９１號之３","E_COORD97":172401.88,"N_COORD97":2555256.2999999998,"ADDRESS":"許中營９１號之３","OBJECTID":85972},"geometry":{"x":172401.88000000082,"y":2555256.3000000026}},{"attributes":{"ID":85973,"DIS_CODE":0,"TOWNNAME":"安定區","LI":"中榮里","LIN":"12鄰","STREET":" ","SECT":" ","MAREA":"許中營","LANE":" ","ALLEY":" ","HOUSE_NO":"９１之４號","E_COORD97":172373.64000000001,"N_COORD97":2555234.2999999998,"ADDRESS":"許中營９１之４號","OBJECTID":85973},"geometry":{"x":172373.64000000153,"y":2555234.3000000007}},{"attributes":{"ID":85974,"DIS_CODE":0,"TOWNNAME":"安定區","LI":"中榮里","LIN":"12鄰","STREET":" ","SECT":" ","MAREA":"許中營","LANE":" ","ALLEY":" ","HOUSE_NO":"９１之１號","E_COORD97":172329.64000000001,"N_COORD97":2555263.2999999998,"ADDRESS":"許中營９１之１號","OBJECTID":85974},"geometry":{"x":172329.64000000153,"y":2555263.3000000026}},{"attributes":{"ID":85975,"DIS_CODE":0,"TOWNNAME":"安定區","LI":"保西里","LIN":"12鄰","STREET":" ","SECT":" ","MAREA":"安定","LANE":" ","ALLEY":" ","HOUSE_NO":"４４２之２號","E_COORD97":171732.51999999999,"N_COORD97":2557908.3199999998,"ADDRESS":"安定４４２之２號","OBJECTID":85975},"geometry":{"x":171732.52000000048,"y":2557908.3200000003}},{"attributes":{"ID":85976,"DIS_CODE":0,"TOWNNAME":"安定區","LI":"安定里","LIN":"12鄰","STREET":" ","SECT":" ","MAREA":"安定","LANE":" ","ALLEY":" ","HOUSE_NO":"１５０號","E_COORD97":171903.42000000001,"N_COORD97":2557687.3199999998,"ADDRESS":"安定１５０號","OBJECTID":85976},"geometry":{"x":171903.41999999993,"y":2557687.3200000003}},{"attributes":{"ID":85977,"DIS_CODE":0,"TOWNNAME":"安定區","LI":"六嘉里","LIN":"12鄰","STREET":" ","SECT":" ","MAREA":"六塊寮","LANE":" ","ALLEY":" ","HOUSE_NO":"１６０之６號","E_COORD97":169832.26999999999,"N_COORD97":2552943.2999999998,"ADDRESS":"六塊寮１６０之６號","OBJECTID":85977},"geometry":{"x":169832.27000000048,"y":2552943.3000000045}},{"attributes":{"ID":85978,"DIS_CODE":0,"TOWNNAME":"安定區","LI":"六嘉里","LIN":"12鄰","STREET":" ","SECT":" ","MAREA":"六塊寮","LANE":" ","ALLEY":" ","HOUSE_NO":"１６０之５號","E_COORD97":169585.37,"N_COORD97":2552772.2999999998,"ADDRESS":"六塊寮１６０之５號","OBJECTID":85978},"geometry":{"x":169585.37000000011,"y":2552772.3000000007}},{"attributes":{"ID":85979,"DIS_CODE":0,"TOWNNAME":"安定區","LI":"六嘉里","LIN":"12鄰","STREET":" ","SECT":" ","MAREA":"六塊寮","LANE":" ","ALLEY":" ","HOUSE_NO":"１６０之２號","E_COORD97":169738.07000000001,"N_COORD97":2552855.2999999998,"ADDRESS":"六塊寮１６０之２號","OBJECTID":85979},"geometry":{"x":169738.0700000003,"y":2552855.3000000026}},{"attributes":{"ID":85980,"DIS_CODE":0,"TOWNNAME":"安定區","LI":"保西里","LIN":"12鄰","STREET":" ","SECT":" ","MAREA":"安定","LANE":" ","ALLEY":" ","HOUSE_NO":"４４３號","E_COORD97":171760.72,"N_COORD97":2557906.3199999998,"ADDRESS":"安定４４３號","OBJECTID":85980},"geometry":{"x":171760.71999999974,"y":2557906.3200000022}},{"attributes":{"ID":85981,"DIS_CODE":0,"TOWNNAME":"安定區","LI":"港南里","LIN":"12鄰","STREET":" ","SECT":" ","MAREA":"港口","LANE":" ","ALLEY":" ","HOUSE_NO":"８９之１號","E_COORD97":171297.94,"N_COORD97":2554388.2999999998,"ADDRESS":"港口８９之１號","OBJECTID":85981},"geometry":{"x":171297.94000000134,"y":2554388.3000000026}},{"attributes":{"ID":85982,"DIS_CODE":0,"TOWNNAME":"安定區","LI":"保西里","LIN":"12鄰","STREET":" ","SECT":" ","MAREA":"安定","LANE":" ","ALLEY":" ","HOUSE_NO":"４４７號之２","E_COORD97":171764.43671400001,"N_COORD97":2557966.71857,"ADDRESS":"安定４４７號之２","OBJECTID":85982},"geometry":{"x":171764.436714001,"y":2557966.7185709998}},{"attributes":{"ID":85983,"DIS_CODE":0,"TOWNNAME":"安定區","LI":"安定里","LIN":"12鄰","STREET":" ","SECT":" ","MAREA":"安定","LANE":" ","ALLEY":" ","HOUSE_NO":"１１０號","E_COORD97":171973.82000000001,"N_COORD97":2557718.3199999998,"ADDRESS":"安定１１０號","OBJECTID":85983},"geometry":{"x":171973.82000000123,"y":2557718.3200000003}},{"attributes":{"ID":85984,"DIS_CODE":0,"TOWNNAME":"安定區","LI":"六嘉里","LIN":"12鄰","STREET":" ","SECT":" ","MAREA":"六塊寮","LANE":" ","ALLEY":" ","HOUSE_NO":"９７之１４號","E_COORD97":170443.76999999999,"N_COORD97":2553364.2999999998,"ADDRESS":"六塊寮９７之１４號","OBJECTID":85984},"geometry":{"x":170443.77000000048,"y":2553364.3000000026}},{"attributes":{"ID":85985,"DIS_CODE":0,"TOWNNAME":"安定區","LI":"保西里","LIN":"12鄰","STREET":" ","SECT":" ","MAREA":"安定","LANE":" ","ALLEY":" ","HOUSE_NO":"４４２之４號","E_COORD97":171707.82000000001,"N_COORD97":2557918.3199999998,"ADDRESS":"安定４４２之４號","OBJECTID":85985},"geometry":{"x":171707.8200000003,"y":2557918.3200000003}},{"attributes":{"ID":85986,"DIS_CODE":0,"TOWNNAME":"安定區","LI":"六嘉里","LIN":"12鄰","STREET":" ","SECT":" ","MAREA":"六塊寮","LANE":" ","ALLEY":" ","HOUSE_NO":"１０２之２號","E_COORD97":170301.47,"N_COORD97":2553543.2999999998,"ADDRESS":"六塊寮１０２之２號","OBJECTID":85986},"geometry":{"x":170301.46999999974,"y":2553543.3000000045}},{"attributes":{"ID":85987,"DIS_CODE":0,"TOWNNAME":"安定區","LI":"港南里","LIN":"12鄰","STREET":" ","SECT":" ","MAREA":"港口","LANE":" ","ALLEY":" ","HOUSE_NO":"８８之１號","E_COORD97":171318.84,"N_COORD97":2554449.2999999998,"ADDRESS":"港口８８之１號","OBJECTID":85987},"geometry":{"x":171318.84000000078,"y":2554449.3000000026}},{"attributes":{"ID":85988,"DIS_CODE":0,"TOWNNAME":"安定區","LI":"六嘉里","LIN":"12鄰","STREET":" ","SECT":" ","MAREA":"六塊寮","LANE":" ","ALLEY":" ","HOUSE_NO":"１５３號","E_COORD97":170053.99818299999,"N_COORD97":2552694.1348999999,"ADDRESS":"六塊寮１５３號","OBJECTID":85988},"geometry":{"x":170053.9981829999,"y":2552694.1349040028}},{"attributes":{"ID":85989,"DIS_CODE":0,"TOWNNAME":"安定區","LI":"保西里","LIN":"12鄰","STREET":" ","SECT":" ","MAREA":"安定","LANE":" ","ALLEY":" ","HOUSE_NO":"４７４號","E_COORD97":171791.73376800001,"N_COORD97":2558058.2379000001,"ADDRESS":"安定４７４號","OBJECTID":85989},"geometry":{"x":171791.7337680012,"y":2558058.2378970012}},{"attributes":{"ID":85990,"DIS_CODE":0,"TOWNNAME":"安定區","LI":"新吉里","LIN":"12鄰","STREET":" ","SECT":" ","MAREA":"新吉","LANE":" ","ALLEY":" ","HOUSE_NO":"９９之５號","E_COORD97":169392.17000000001,"N_COORD97":2553951.2999999998,"ADDRESS":"新吉９９之５號","OBJECTID":85990},"geometry":{"x":169392.17000000086,"y":2553951.3000000026}},{"attributes":{"ID":85991,"DIS_CODE":0,"TOWNNAME":"安定區","LI":"管寮里","LIN":"12鄰","STREET":" ","SECT":" ","MAREA":"管寮","LANE":" ","ALLEY":" ","HOUSE_NO":"１１３號","E_COORD97":169996.48999999999,"N_COORD97":2556390.25,"ADDRESS":"管寮１１３號","OBJECTID":85991},"geometry":{"x":169996.49000000022,"y":2556390.25}},{"attributes":{"ID":85992,"DIS_CODE":0,"TOWNNAME":"安定區","LI":"蘇厝里","LIN":"12鄰","STREET":" ","SECT":" ","MAREA":"蘇厝","LANE":" ","ALLEY":" ","HOUSE_NO":"３９５號之６","E_COORD97":173175.35999999999,"N_COORD97":2558814.2999999998,"ADDRESS":"蘇厝３９５號之６","OBJECTID":85992},"geometry":{"x":173175.36000000127,"y":2558814.3000000007}},{"attributes":{"ID":85993,"DIS_CODE":0,"TOWNNAME":"安定區","LI":"中榮里","LIN":"12鄰","STREET":" ","SECT":" ","MAREA":"許中營","LANE":" ","ALLEY":" ","HOUSE_NO":"９３號之５","E_COORD97":172438.23000000001,"N_COORD97":2555407.2999999998,"ADDRESS":"許中營９３號之５","OBJECTID":85993},"geometry":{"x":172438.22999999952,"y":2555407.3000000007}},{"attributes":{"ID":85994,"DIS_CODE":0,"TOWNNAME":"安定區","LI":"港口里","LIN":"12鄰","STREET":" ","SECT":" ","MAREA":"港口","LANE":" ","ALLEY":" ","HOUSE_NO":"３２９號之１７","E_COORD97":171152.95000000001,"N_COORD97":2554586.2999999998,"ADDRESS":"港口３２９號之１７","OBJECTID":85994},"geometry":{"x":171152.95000000019,"y":2554586.3000000007}},{"attributes":{"ID":85995,"DIS_CODE":0,"TOWNNAME":"安定區","LI":"保西里","LIN":"12鄰","STREET":" ","SECT":" ","MAREA":"安定","LANE":" ","ALLEY":" ","HOUSE_NO":"４７１號","E_COORD97":171804.177624,"N_COORD97":2558053.1049799998,"ADDRESS":"安定４７１號","OBJECTID":85995},"geometry":{"x":171804.17762400024,"y":2558053.1049830001}},{"attributes":{"ID":85996,"DIS_CODE":0,"TOWNNAME":"安定區","LI":"保西里","LIN":"12鄰","STREET":" ","SECT":" ","MAREA":"安定","LANE":" ","ALLEY":" ","HOUSE_NO":"４６８之２號","E_COORD97":171834.72,"N_COORD97":2558063.3199999998,"ADDRESS":"安定４６８之２號","OBJECTID":85996},"geometry":{"x":171834.72000000067,"y":2558063.3200000022}},{"attributes":{"ID":85997,"DIS_CODE":0,"TOWNNAME":"安定區","LI":"保西里","LIN":"12鄰","STREET":" ","SECT":" ","MAREA":"安定","LANE":" ","ALLEY":" ","HOUSE_NO":"４６７號","E_COORD97":171831.12,"N_COORD97":2558050.3199999998,"ADDRESS":"安定４６７號","OBJECTID":85997},"geometry":{"x":171831.12000000011,"y":2558050.3200000003}},{"attributes":{"ID":85998,"DIS_CODE":0,"TOWNNAME":"安定區","LI":"保西里","LIN":"12鄰","STREET":" ","SECT":" ","MAREA":"安定","LANE":" ","ALLEY":" ","HOUSE_NO":"４７０號","E_COORD97":171808.254972,"N_COORD97":2558051.5704000001,"ADDRESS":"安定４７０號","OBJECTID":85998},"geometry":{"x":171808.25497200154,"y":2558051.5704000015}},{"attributes":{"ID":85999,"DIS_CODE":0,"TOWNNAME":"安定區","LI":"新吉里","LIN":"12鄰","STREET":" ","SECT":" ","MAREA":"新吉","LANE":" ","ALLEY":" ","HOUSE_NO":"９９之１２號","E_COORD97":169385.51999999999,"N_COORD97":2553928.2999999998,"ADDRESS":"新吉９９之１２號","OBJECTID":85999},"geometry":{"x":169385.51999999955,"y":2553928.3000000007}},{"attributes":{"ID":86000,"DIS_CODE":0,"TOWNNAME":"安定區","LI":"管寮里","LIN":"12鄰","STREET":" ","SECT":" ","MAREA":"管寮","LANE":" ","ALLEY":" ","HOUSE_NO":"１０８號","E_COORD97":169981.19,"N_COORD97":2556306.25,"ADDRESS":"管寮１０８號","OBJECTID":86000},"geometry":{"x":169981.19000000134,"y":2556306.2500000019}}]}