{"displayFieldName":"TOWNNAME","fieldAliases":{"ID":"ID","DIS_CODE":"DIS_CODE","TOWNNAME":"TOWNNAME","LI":"LI","LIN":"LIN","STREET":"STREET","SECT":"SECT","MAREA":"MAREA","LANE":"LANE","ALLEY":"ALLEY","HOUSE_NO":"HOUSE_NO","E_COORD97":"E_COORD97","N_COORD97":"N_COORD97","ADDRESS":"ADDRESS","OBJECTID":"OBJECTID"},"geometryType":"esriGeometryPoint","spatialReference":{"wkid":102443,"latestWkid":3826},"fields":[{"name":"ID","type":"esriFieldTypeDouble","alias":"ID"},{"name":"DIS_CODE","type":"esriFieldTypeInteger","alias":"DIS_CODE"},{"name":"TOWNNAME","type":"esriFieldTypeString","alias":"TOWNNAME","length":8},{"name":"LI","type":"esriFieldTypeString","alias":"LI","length":8},{"name":"LIN","type":"esriFieldTypeString","alias":"LIN","length":12},{"name":"STREET","type":"esriFieldTypeString","alias":"STREET","length":20},{"name":"SECT","type":"esriFieldTypeString","alias":"SECT","length":8},{"name":"MAREA","type":"esriFieldTypeString","alias":"MAREA","length":12},{"name":"LANE","type":"esriFieldTypeString","alias":"LANE","length":10},{"name":"ALLEY","type":"esriFieldTypeString","alias":"ALLEY","length":10},{"name":"HOUSE_NO","type":"esriFieldTypeString","alias":"HOUSE_NO","length":20},{"name":"E_COORD97","type":"esriFieldTypeDouble","alias":"E_COORD97"},{"name":"N_COORD97","type":"esriFieldTypeDouble","alias":"N_COORD97"},{"name":"ADDRESS","type":"esriFieldTypeString","alias":"ADDRESS","length":50},{"name":"OBJECTID","type":"esriFieldTypeOID","alias":"OBJECTID"}],"features":[{"attributes":{"ID":361211,"DIS_CODE":0,"TOWNNAME":"佳里區","LI":"東寧里","LIN":"19鄰","STREET":"信義一街","SECT":" ","MAREA":" ","LANE":"４１８巷","ALLEY":" ","HOUSE_NO":"２６號","E_COORD97":166261.25,"N_COORD97":2562413.5499999998,"ADDRESS":"信義一街４１８巷２６號","OBJECTID":361201},"geometry":{"x":166261.25000000093,"y":2562413.5500000007}},{"attributes":{"ID":361212,"DIS_CODE":0,"TOWNNAME":"佳里區","LI":"東寧里","LIN":"19鄰","STREET":"信義一街","SECT":" ","MAREA":" ","LANE":"４１８巷","ALLEY":" ","HOUSE_NO":"２７號","E_COORD97":166260.09,"N_COORD97":2562442.9700000002,"ADDRESS":"信義一街４１８巷２７號","OBJECTID":361202},"geometry":{"x":166260.09000000078,"y":2562442.9700000025}},{"attributes":{"ID":361213,"DIS_CODE":0,"TOWNNAME":"佳里區","LI":"東寧里","LIN":"19鄰","STREET":"信義一街","SECT":" ","MAREA":" ","LANE":"４１８巷","ALLEY":" ","HOUSE_NO":"２８號","E_COORD97":166265.25,"N_COORD97":2562413.9300000002,"ADDRESS":"信義一街４１８巷２８號","OBJECTID":361203},"geometry":{"x":166265.25,"y":2562413.9300000034}},{"attributes":{"ID":361214,"DIS_CODE":0,"TOWNNAME":"佳里區","LI":"東寧里","LIN":"19鄰","STREET":"信義一街","SECT":" ","MAREA":" ","LANE":"４１８巷","ALLEY":" ","HOUSE_NO":"２９號","E_COORD97":166259.44,"N_COORD97":2562447.1000000001,"ADDRESS":"信義一街４１８巷２９號","OBJECTID":361204},"geometry":{"x":166259.44000000041,"y":2562447.1000000015}},{"attributes":{"ID":361215,"DIS_CODE":0,"TOWNNAME":"佳里區","LI":"東寧里","LIN":"19鄰","STREET":"信義一街","SECT":" ","MAREA":" ","LANE":"４１８巷","ALLEY":" ","HOUSE_NO":"２號","E_COORD97":166224.72,"N_COORD97":2562409.7400000002,"ADDRESS":"信義一街４１８巷２號","OBJECTID":361205},"geometry":{"x":166224.7200000016,"y":2562409.7400000021}},{"attributes":{"ID":361216,"DIS_CODE":0,"TOWNNAME":"佳里區","LI":"東寧里","LIN":"19鄰","STREET":"信義一街","SECT":" ","MAREA":" ","LANE":"４１８巷","ALLEY":" ","HOUSE_NO":"３０號","E_COORD97":166269.25,"N_COORD97":2562414.3100000001,"ADDRESS":"信義一街４１８巷３０號","OBJECTID":361206},"geometry":{"x":166269.25000000093,"y":2562414.3100000005}},{"attributes":{"ID":361217,"DIS_CODE":0,"TOWNNAME":"佳里區","LI":"東寧里","LIN":"19鄰","STREET":"信義一街","SECT":" ","MAREA":" ","LANE":"４１８巷","ALLEY":" ","HOUSE_NO":"３１號","E_COORD97":166258.92999999999,"N_COORD97":2562451.3599999999,"ADDRESS":"信義一街４１８巷３１號","OBJECTID":361207},"geometry":{"x":166258.93000000156,"y":2562451.3600000031}},{"attributes":{"ID":361218,"DIS_CODE":0,"TOWNNAME":"佳里區","LI":"東寧里","LIN":"19鄰","STREET":"信義一街","SECT":" ","MAREA":" ","LANE":"４１８巷","ALLEY":" ","HOUSE_NO":"３２號","E_COORD97":166273.25,"N_COORD97":2562414.6899999999,"ADDRESS":"信義一街４１８巷３２號","OBJECTID":361208},"geometry":{"x":166273.25,"y":2562414.6899999995}},{"attributes":{"ID":361219,"DIS_CODE":0,"TOWNNAME":"柳營區","LI":"光福里","LIN":"13鄰","STREET":"柳營路","SECT":"二段","MAREA":" ","LANE":" ","ALLEY":" ","HOUSE_NO":"８６號","E_COORD97":179657.10000000001,"N_COORD97":2575310.3300000001,"ADDRESS":"柳營路二段８６號","OBJECTID":361209},"geometry":{"x":179657.10000000056,"y":2575310.3300000001}},{"attributes":{"ID":361220,"DIS_CODE":0,"TOWNNAME":"學甲區","LI":"新榮里","LIN":"4鄰","STREET":" ","SECT":" ","MAREA":"東寮","LANE":" ","ALLEY":" ","HOUSE_NO":"３８號之９","E_COORD97":166722.70000000001,"N_COORD97":2569328.75,"ADDRESS":"東寮３８號之９","OBJECTID":361210},"geometry":{"x":166722.70000000112,"y":2569328.7500000019}},{"attributes":{"ID":361221,"DIS_CODE":0,"TOWNNAME":"學甲區","LI":"新榮里","LIN":"1鄰","STREET":" ","SECT":" ","MAREA":"東寮","LANE":" ","ALLEY":" ","HOUSE_NO":"３號","E_COORD97":166618.54999999999,"N_COORD97":2569575.6000000001,"ADDRESS":"東寮３號","OBJECTID":361211},"geometry":{"x":166618.54999999981,"y":2569575.5999999996}},{"attributes":{"ID":361222,"DIS_CODE":0,"TOWNNAME":"佳里區","LI":"東寧里","LIN":"19鄰","STREET":"信義一街","SECT":" ","MAREA":" ","LANE":"４１８巷","ALLEY":" ","HOUSE_NO":"３３號","E_COORD97":166258.48999999999,"N_COORD97":2562455.1099999999,"ADDRESS":"信義一街４１８巷３３號","OBJECTID":361212},"geometry":{"x":166258.49000000022,"y":2562455.1099999994}},{"attributes":{"ID":361223,"DIS_CODE":0,"TOWNNAME":"佳里區","LI":"東寧里","LIN":"19鄰","STREET":"信義一街","SECT":" ","MAREA":" ","LANE":"４１８巷","ALLEY":" ","HOUSE_NO":"３５號","E_COORD97":166258.29999999999,"N_COORD97":2562459.2599999998,"ADDRESS":"信義一街４１８巷３５號","OBJECTID":361213},"geometry":{"x":166258.30000000168,"y":2562459.2600000035}},{"attributes":{"ID":361224,"DIS_CODE":0,"TOWNNAME":"永康區","LI":"勝利里","LIN":"39鄰","STREET":"勝華街","SECT":" ","MAREA":" ","LANE":"３７巷","ALLEY":" ","HOUSE_NO":"５６號五樓之１０","E_COORD97":171423.81,"N_COORD97":2545110.29,"ADDRESS":"勝華街３７巷５６號五樓之１０","OBJECTID":361214},"geometry":{"x":171423.81000000052,"y":2545110.290000001}},{"attributes":{"ID":361225,"DIS_CODE":0,"TOWNNAME":"永康區","LI":"西灣里","LIN":"39鄰","STREET":"永華路","SECT":" ","MAREA":" ","LANE":"２１２巷","ALLEY":" ","HOUSE_NO":"２２號八樓","E_COORD97":174160.76999999999,"N_COORD97":2545436.75,"ADDRESS":"永華路２１２巷２２號八樓","OBJECTID":361215},"geometry":{"x":174160.76999999955,"y":2545436.7500000019}},{"attributes":{"ID":361226,"DIS_CODE":0,"TOWNNAME":"永康區","LI":"西灣里","LIN":"39鄰","STREET":"永華路","SECT":" ","MAREA":" ","LANE":"２１２巷","ALLEY":" ","HOUSE_NO":"１２號二樓","E_COORD97":174157.16,"N_COORD97":2545457.3500000001,"ADDRESS":"永華路２１２巷１２號二樓","OBJECTID":361216},"geometry":{"x":174157.16000000015,"y":2545457.3499999996}},{"attributes":{"ID":361227,"DIS_CODE":0,"TOWNNAME":"永康區","LI":"西灣里","LIN":"39鄰","STREET":"永華路","SECT":" ","MAREA":" ","LANE":"２１２巷","ALLEY":" ","HOUSE_NO":"２７號一樓之２","E_COORD97":174184.56,"N_COORD97":2545474.7999999998,"ADDRESS":"永華路２１２巷２７號一樓之２","OBJECTID":361217},"geometry":{"x":174184.56000000145,"y":2545474.8000000026}},{"attributes":{"ID":361228,"DIS_CODE":0,"TOWNNAME":"永康區","LI":"西灣里","LIN":"39鄰","STREET":"永華路","SECT":" ","MAREA":" ","LANE":"２１２巷","ALLEY":" ","HOUSE_NO":"１２號八樓","E_COORD97":174157.16,"N_COORD97":2545457.3500000001,"ADDRESS":"永華路２１２巷１２號八樓","OBJECTID":361218},"geometry":{"x":174157.16000000015,"y":2545457.3499999996}},{"attributes":{"ID":361229,"DIS_CODE":0,"TOWNNAME":"永康區","LI":"西灣里","LIN":"39鄰","STREET":"永華路","SECT":" ","MAREA":" ","LANE":"２１２巷","ALLEY":" ","HOUSE_NO":"１２號六樓","E_COORD97":174157.16,"N_COORD97":2545457.3500000001,"ADDRESS":"永華路２１２巷１２號六樓","OBJECTID":361219},"geometry":{"x":174157.16000000015,"y":2545457.3499999996}},{"attributes":{"ID":361230,"DIS_CODE":0,"TOWNNAME":"永康區","LI":"西灣里","LIN":"39鄰","STREET":"永華路","SECT":" ","MAREA":" ","LANE":"２１２巷","ALLEY":" ","HOUSE_NO":"２７號一樓之１","E_COORD97":174184.42999999999,"N_COORD97":2545474.7999999998,"ADDRESS":"永華路２１２巷２７號一樓之１","OBJECTID":361220},"geometry":{"x":174184.43000000063,"y":2545474.8000000026}},{"attributes":{"ID":361231,"DIS_CODE":0,"TOWNNAME":"永康區","LI":"西灣里","LIN":"39鄰","STREET":"永華路","SECT":" ","MAREA":" ","LANE":"２１２巷","ALLEY":" ","HOUSE_NO":"１２號七樓","E_COORD97":174157.16,"N_COORD97":2545457.3500000001,"ADDRESS":"永華路２１２巷１２號七樓","OBJECTID":361221},"geometry":{"x":174157.16000000015,"y":2545457.3499999996}},{"attributes":{"ID":361232,"DIS_CODE":0,"TOWNNAME":"永康區","LI":"西灣里","LIN":"39鄰","STREET":"永華路","SECT":" ","MAREA":" ","LANE":"２１２巷","ALLEY":" ","HOUSE_NO":"１２號四樓","E_COORD97":174157.16,"N_COORD97":2545457.3500000001,"ADDRESS":"永華路２１２巷１２號四樓","OBJECTID":361222},"geometry":{"x":174157.16000000015,"y":2545457.3499999996}},{"attributes":{"ID":361233,"DIS_CODE":0,"TOWNNAME":"佳里區","LI":"東寧里","LIN":"19鄰","STREET":"信義一街","SECT":" ","MAREA":" ","LANE":"４１８巷","ALLEY":" ","HOUSE_NO":"３６號","E_COORD97":166277.25,"N_COORD97":2562415.0699999998,"ADDRESS":"信義一街４１８巷３６號","OBJECTID":361223},"geometry":{"x":166277.25,"y":2562415.0700000022}},{"attributes":{"ID":361234,"DIS_CODE":0,"TOWNNAME":"佳里區","LI":"東寧里","LIN":"19鄰","STREET":"信義一街","SECT":" ","MAREA":" ","LANE":"４１８巷","ALLEY":" ","HOUSE_NO":"３７號","E_COORD97":166275.64000000001,"N_COORD97":2562461.9700000002,"ADDRESS":"信義一街４１８巷３７號","OBJECTID":361224},"geometry":{"x":166275.63999999966,"y":2562461.9700000044}},{"attributes":{"ID":361235,"DIS_CODE":0,"TOWNNAME":"佳里區","LI":"東寧里","LIN":"19鄰","STREET":"信義一街","SECT":" ","MAREA":" ","LANE":"４１８巷","ALLEY":" ","HOUSE_NO":"３８號","E_COORD97":166281.25,"N_COORD97":2562415.4500000002,"ADDRESS":"信義一街４１８巷３８號","OBJECTID":361225},"geometry":{"x":166281.25000000093,"y":2562415.4499999993}},{"attributes":{"ID":361236,"DIS_CODE":0,"TOWNNAME":"佳里區","LI":"東寧里","LIN":"19鄰","STREET":"信義一街","SECT":" ","MAREA":" ","LANE":"４１８巷","ALLEY":" ","HOUSE_NO":"３９號","E_COORD97":166275.97,"N_COORD97":2562457.6600000001,"ADDRESS":"信義一街４１８巷３９號","OBJECTID":361226},"geometry":{"x":166275.97000000067,"y":2562457.660000002}},{"attributes":{"ID":361237,"DIS_CODE":0,"TOWNNAME":"佳里區","LI":"東寧里","LIN":"19鄰","STREET":"信義一街","SECT":" ","MAREA":" ","LANE":"４１８巷","ALLEY":" ","HOUSE_NO":"３號","E_COORD97":166222.64000000001,"N_COORD97":2562427.2400000002,"ADDRESS":"信義一街４１８巷３號","OBJECTID":361227},"geometry":{"x":166222.6400000006,"y":2562427.2400000021}},{"attributes":{"ID":361238,"DIS_CODE":0,"TOWNNAME":"佳里區","LI":"東寧里","LIN":"19鄰","STREET":"信義一街","SECT":" ","MAREA":" ","LANE":"４１８巷","ALLEY":" ","HOUSE_NO":"４０號","E_COORD97":166285.25,"N_COORD97":2562415.8300000001,"ADDRESS":"信義一街４１８巷４０號","OBJECTID":361228},"geometry":{"x":166285.25,"y":2562415.8300000019}},{"attributes":{"ID":361239,"DIS_CODE":0,"TOWNNAME":"佳里區","LI":"東寧里","LIN":"19鄰","STREET":"信義一街","SECT":" ","MAREA":" ","LANE":"４１８巷","ALLEY":" ","HOUSE_NO":"４１號","E_COORD97":166276.57999999999,"N_COORD97":2562453.7200000002,"ADDRESS":"信義一街４１８巷４１號","OBJECTID":361229},"geometry":{"x":166276.58000000007,"y":2562453.7200000044}},{"attributes":{"ID":361240,"DIS_CODE":0,"TOWNNAME":"佳里區","LI":"東寧里","LIN":"19鄰","STREET":"信義一街","SECT":" ","MAREA":" ","LANE":"４１８巷","ALLEY":" ","HOUSE_NO":"４２號","E_COORD97":166289.25,"N_COORD97":2562416.21,"ADDRESS":"信義一街４１８巷４２號","OBJECTID":361230},"geometry":{"x":166289.25000000186,"y":2562416.2100000009}},{"attributes":{"ID":361241,"DIS_CODE":0,"TOWNNAME":"佳里區","LI":"東寧里","LIN":"19鄰","STREET":"信義一街","SECT":" ","MAREA":" ","LANE":"４１８巷","ALLEY":" ","HOUSE_NO":"４３號","E_COORD97":166276.95000000001,"N_COORD97":2562449.7599999998,"ADDRESS":"信義一街４１８巷４３號","OBJECTID":361231},"geometry":{"x":166276.95000000112,"y":2562449.7600000016}},{"attributes":{"ID":361242,"DIS_CODE":0,"TOWNNAME":"佳里區","LI":"東寧里","LIN":"19鄰","STREET":"信義一街","SECT":" ","MAREA":" ","LANE":"４１８巷","ALLEY":" ","HOUSE_NO":"４５號","E_COORD97":166277.48000000001,"N_COORD97":2562445.6099999999,"ADDRESS":"信義一街４１８巷４５號","OBJECTID":361232},"geometry":{"x":166277.48000000045,"y":2562445.6099999994}},{"attributes":{"ID":361243,"DIS_CODE":0,"TOWNNAME":"佳里區","LI":"東寧里","LIN":"19鄰","STREET":"信義一街","SECT":" ","MAREA":" ","LANE":"４１８巷","ALLEY":" ","HOUSE_NO":"４７號","E_COORD97":166277.48000000001,"N_COORD97":2562433.9300000002,"ADDRESS":"信義一街４１８巷４７號","OBJECTID":361233},"geometry":{"x":166277.48000000045,"y":2562433.9299999978}},{"attributes":{"ID":361244,"DIS_CODE":0,"TOWNNAME":"柳營區","LI":"光福里","LIN":"13鄰","STREET":"柳營路","SECT":"二段","MAREA":" ","LANE":" ","ALLEY":" ","HOUSE_NO":"８８號","E_COORD97":179635.10000000001,"N_COORD97":2575300.1499999999,"ADDRESS":"柳營路二段８８號","OBJECTID":361234},"geometry":{"x":179635.10000000056,"y":2575300.1500000022}},{"attributes":{"ID":361245,"DIS_CODE":0,"TOWNNAME":"柳營區","LI":"光福里","LIN":"13鄰","STREET":"柳營路","SECT":"二段","MAREA":" ","LANE":" ","ALLEY":" ","HOUSE_NO":"９０號","E_COORD97":179633.98000000001,"N_COORD97":2575305.1099999999,"ADDRESS":"柳營路二段９０號","OBJECTID":361235},"geometry":{"x":179633.98000000045,"y":2575305.1099999994}},{"attributes":{"ID":361246,"DIS_CODE":0,"TOWNNAME":"柳營區","LI":"光福里","LIN":"13鄰","STREET":"柳營路","SECT":"二段","MAREA":" ","LANE":" ","ALLEY":" ","HOUSE_NO":"９２號","E_COORD97":179632.85999999999,"N_COORD97":2575310.0600000001,"ADDRESS":"柳營路二段９２號","OBJECTID":361236},"geometry":{"x":179632.86000000034,"y":2575310.0600000005}},{"attributes":{"ID":361247,"DIS_CODE":0,"TOWNNAME":"柳營區","LI":"光福里","LIN":"13鄰","STREET":"柳營路","SECT":"二段","MAREA":" ","LANE":" ","ALLEY":" ","HOUSE_NO":"９６號","E_COORD97":179631.73999999999,"N_COORD97":2575315.0099999998,"ADDRESS":"柳營路二段９６號","OBJECTID":361237},"geometry":{"x":179631.74000000022,"y":2575315.0100000016}},{"attributes":{"ID":361248,"DIS_CODE":0,"TOWNNAME":"柳營區","LI":"光福里","LIN":"13鄰","STREET":"柳營路","SECT":"二段","MAREA":" ","LANE":" ","ALLEY":" ","HOUSE_NO":"９８號","E_COORD97":179630.62,"N_COORD97":2575319.9700000002,"ADDRESS":"柳營路二段９８號","OBJECTID":361238},"geometry":{"x":179630.62000000011,"y":2575319.9700000025}},{"attributes":{"ID":361249,"DIS_CODE":0,"TOWNNAME":"柳營區","LI":"東昇里","LIN":"13鄰","STREET":"康樂街","SECT":" ","MAREA":" ","LANE":" ","ALLEY":" ","HOUSE_NO":"７３號","E_COORD97":180362.03,"N_COORD97":2575125.6200000001,"ADDRESS":"康樂街７３號","OBJECTID":361239},"geometry":{"x":180362.03000000026,"y":2575125.6200000029}},{"attributes":{"ID":361250,"DIS_CODE":0,"TOWNNAME":"柳營區","LI":"東昇里","LIN":"13鄰","STREET":"康樂街","SECT":" ","MAREA":" ","LANE":" ","ALLEY":" ","HOUSE_NO":"８１號","E_COORD97":180344.29000000001,"N_COORD97":2575126.0099999998,"ADDRESS":"康樂街８１號","OBJECTID":361240},"geometry":{"x":180344.29000000097,"y":2575126.0099999998}},{"attributes":{"ID":361251,"DIS_CODE":0,"TOWNNAME":"柳營區","LI":"東昇里","LIN":"13鄰","STREET":"康樂街","SECT":" ","MAREA":" ","LANE":" ","ALLEY":" ","HOUSE_NO":"８５號","E_COORD97":180335.42000000001,"N_COORD97":2575126.21,"ADDRESS":"康樂街８５號","OBJECTID":361241},"geometry":{"x":180335.41999999993,"y":2575126.2100000009}},{"attributes":{"ID":361252,"DIS_CODE":0,"TOWNNAME":"佳里區","LI":"東寧里","LIN":"19鄰","STREET":"信義一街","SECT":" ","MAREA":" ","LANE":"４１８巷","ALLEY":" ","HOUSE_NO":"４９號","E_COORD97":166281.79000000001,"N_COORD97":2562434.5699999998,"ADDRESS":"信義一街４１８巷４９號","OBJECTID":361242},"geometry":{"x":166281.79000000004,"y":2562434.5700000022}},{"attributes":{"ID":361253,"DIS_CODE":0,"TOWNNAME":"佳里區","LI":"東寧里","LIN":"19鄰","STREET":"信義一街","SECT":" ","MAREA":" ","LANE":"４１８巷","ALLEY":" ","HOUSE_NO":"５１號","E_COORD97":166285.66,"N_COORD97":2562434.8399999999,"ADDRESS":"信義一街４１８巷５１號","OBJECTID":361243},"geometry":{"x":166285.66000000108,"y":2562434.8400000036}},{"attributes":{"ID":361254,"DIS_CODE":0,"TOWNNAME":"佳里區","LI":"東寧里","LIN":"19鄰","STREET":"信義一街","SECT":" ","MAREA":" ","LANE":"４１８巷","ALLEY":" ","HOUSE_NO":"５３號","E_COORD97":166290.10999999999,"N_COORD97":2562435.2200000002,"ADDRESS":"信義一街４１８巷５３號","OBJECTID":361244},"geometry":{"x":166290.11000000034,"y":2562435.2200000007}},{"attributes":{"ID":361255,"DIS_CODE":0,"TOWNNAME":"佳里區","LI":"東寧里","LIN":"19鄰","STREET":"信義一街","SECT":" ","MAREA":" ","LANE":"４１８巷","ALLEY":" ","HOUSE_NO":"５號","E_COORD97":166226.69,"N_COORD97":2562427.5600000001,"ADDRESS":"信義一街４１８巷５號","OBJECTID":361245},"geometry":{"x":166226.69000000041,"y":2562427.5600000042}},{"attributes":{"ID":361256,"DIS_CODE":0,"TOWNNAME":"佳里區","LI":"東寧里","LIN":"19鄰","STREET":"信義一街","SECT":" ","MAREA":" ","LANE":"４１８巷","ALLEY":" ","HOUSE_NO":"６號","E_COORD97":166228.84,"N_COORD97":2562410.21,"ADDRESS":"信義一街４１８巷６號","OBJECTID":361246},"geometry":{"x":166228.83999999985,"y":2562410.2100000028}},{"attributes":{"ID":361257,"DIS_CODE":0,"TOWNNAME":"佳里區","LI":"東寧里","LIN":"19鄰","STREET":"信義一街","SECT":" ","MAREA":" ","LANE":"４１８巷","ALLEY":" ","HOUSE_NO":"７號","E_COORD97":166230.47,"N_COORD97":2562428.1000000001,"ADDRESS":"信義一街４１８巷７號","OBJECTID":361247},"geometry":{"x":166230.47000000067,"y":2562428.0999999996}},{"attributes":{"ID":361258,"DIS_CODE":0,"TOWNNAME":"佳里區","LI":"東寧里","LIN":"19鄰","STREET":"信義一街","SECT":" ","MAREA":" ","LANE":"４１８巷","ALLEY":" ","HOUSE_NO":"８號","E_COORD97":166232.95999999999,"N_COORD97":2562410.6699999999,"ADDRESS":"信義一街４１８巷８號","OBJECTID":361248},"geometry":{"x":166232.95999999996,"y":2562410.6700000018}},{"attributes":{"ID":361259,"DIS_CODE":0,"TOWNNAME":"佳里區","LI":"東寧里","LIN":"19鄰","STREET":"信義一街","SECT":" ","MAREA":" ","LANE":"４１８巷","ALLEY":" ","HOUSE_NO":"９號","E_COORD97":166234.76999999999,"N_COORD97":2562428.8399999999,"ADDRESS":"信義一街４１８巷９號","OBJECTID":361249},"geometry":{"x":166234.77000000048,"y":2562428.8400000017}},{"attributes":{"ID":361260,"DIS_CODE":0,"TOWNNAME":"佳里區","LI":"建南里","LIN":"32鄰","STREET":"南勢街","SECT":" ","MAREA":" ","LANE":" ","ALLEY":" ","HOUSE_NO":"２３８號","E_COORD97":165664.14999999999,"N_COORD97":2560736.6699999999,"ADDRESS":"南勢街２３８號","OBJECTID":361250},"geometry":{"x":165664.15000000037,"y":2560736.6699999999}},{"attributes":{"ID":361261,"DIS_CODE":0,"TOWNNAME":"永康區","LI":"五王里","LIN":"32鄰","STREET":"中華路","SECT":" ","MAREA":" ","LANE":"５７８巷","ALLEY":" ","HOUSE_NO":"２號之３五樓之２","E_COORD97":171247.87,"N_COORD97":2545918.5499999998,"ADDRESS":"中華路５７８巷２號之３五樓之２","OBJECTID":361251},"geometry":{"x":171247.87000000011,"y":2545918.5500000007}},{"attributes":{"ID":361262,"DIS_CODE":0,"TOWNNAME":"永康區","LI":"五王里","LIN":"32鄰","STREET":"中華路","SECT":" ","MAREA":" ","LANE":"５７８巷","ALLEY":" ","HOUSE_NO":"２號之２三樓之３","E_COORD97":171242.67999999999,"N_COORD97":2545916.0499999998,"ADDRESS":"中華路５７８巷２號之２三樓之３","OBJECTID":361252},"geometry":{"x":171242.67999999877,"y":2545916.0500000007}},{"attributes":{"ID":361263,"DIS_CODE":0,"TOWNNAME":"永康區","LI":"五王里","LIN":"32鄰","STREET":"中華路","SECT":" ","MAREA":" ","LANE":"５７８巷","ALLEY":" ","HOUSE_NO":"２號之２四樓之６","E_COORD97":171242.67999999999,"N_COORD97":2545916.0499999998,"ADDRESS":"中華路５７８巷２號之２四樓之６","OBJECTID":361253},"geometry":{"x":171242.67999999877,"y":2545916.0500000007}},{"attributes":{"ID":361264,"DIS_CODE":0,"TOWNNAME":"永康區","LI":"五王里","LIN":"32鄰","STREET":"中華路","SECT":" ","MAREA":" ","LANE":"５７８巷","ALLEY":" ","HOUSE_NO":"２號之２三樓之５","E_COORD97":171242.73000000001,"N_COORD97":2545916.0499999998,"ADDRESS":"中華路５７８巷２號之２三樓之５","OBJECTID":361254},"geometry":{"x":171242.73000000045,"y":2545916.0500000007}},{"attributes":{"ID":361265,"DIS_CODE":0,"TOWNNAME":"永康區","LI":"正強里","LIN":"32鄰","STREET":"四維街","SECT":" ","MAREA":" ","LANE":"５１巷","ALLEY":" ","HOUSE_NO":"５號五樓之１","E_COORD97":173382.45999999999,"N_COORD97":2548047.1899999999,"ADDRESS":"四維街５１巷５號五樓之１","OBJECTID":361255},"geometry":{"x":173382.46000000089,"y":2548047.1900000013}},{"attributes":{"ID":361266,"DIS_CODE":0,"TOWNNAME":"柳營區","LI":"東昇里","LIN":"13鄰","STREET":"康樂街","SECT":" ","MAREA":" ","LANE":" ","ALLEY":" ","HOUSE_NO":"８７號","E_COORD97":180330.98000000001,"N_COORD97":2575126.3100000001,"ADDRESS":"康樂街８７號","OBJECTID":361256},"geometry":{"x":180330.98000000045,"y":2575126.3100000024}},{"attributes":{"ID":361267,"DIS_CODE":0,"TOWNNAME":"柳營區","LI":"東昇里","LIN":"13鄰","STREET":"康樂街","SECT":" ","MAREA":" ","LANE":" ","ALLEY":" ","HOUSE_NO":"８９號","E_COORD97":180317.67999999999,"N_COORD97":2575123.7200000002,"ADDRESS":"康樂街８９號","OBJECTID":361257},"geometry":{"x":180317.68000000063,"y":2575123.7200000025}},{"attributes":{"ID":361268,"DIS_CODE":0,"TOWNNAME":"柳營區","LI":"東昇里","LIN":"13鄰","STREET":"康樂街","SECT":" ","MAREA":" ","LANE":" ","ALLEY":" ","HOUSE_NO":"９１號","E_COORD97":180312.89000000001,"N_COORD97":2575123.8500000001,"ADDRESS":"康樂街９１號","OBJECTID":361258},"geometry":{"x":180312.8900000006,"y":2575123.8499999996}},{"attributes":{"ID":361269,"DIS_CODE":0,"TOWNNAME":"柳營區","LI":"東昇里","LIN":"13鄰","STREET":"康樂街","SECT":" ","MAREA":" ","LANE":" ","ALLEY":" ","HOUSE_NO":"９３號","E_COORD97":180308.39000000001,"N_COORD97":2575124.0099999998,"ADDRESS":"康樂街９３號","OBJECTID":361259},"geometry":{"x":180308.38999999966,"y":2575124.0100000035}},{"attributes":{"ID":361270,"DIS_CODE":0,"TOWNNAME":"柳營區","LI":"東昇里","LIN":"13鄰","STREET":"康樂街","SECT":" ","MAREA":" ","LANE":" ","ALLEY":" ","HOUSE_NO":"９５號","E_COORD97":180303.42999999999,"N_COORD97":2575124.3100000001,"ADDRESS":"康樂街９５號","OBJECTID":361260},"geometry":{"x":180303.42999999877,"y":2575124.3100000024}},{"attributes":{"ID":361271,"DIS_CODE":0,"TOWNNAME":"柳營區","LI":"士林里","LIN":"13鄰","STREET":"進學一街","SECT":" ","MAREA":" ","LANE":" ","ALLEY":" ","HOUSE_NO":"１３號","E_COORD97":179424.66,"N_COORD97":2575042.6000000001,"ADDRESS":"進學一街１３號","OBJECTID":361261},"geometry":{"x":179424.66000000108,"y":2575042.6000000015}},{"attributes":{"ID":361272,"DIS_CODE":0,"TOWNNAME":"佳里區","LI":"東寧里","LIN":"19鄰","STREET":"信義一街","SECT":" ","MAREA":" ","LANE":"４１８巷","ALLEY":" ","HOUSE_NO":"１０號","E_COORD97":166237.26000000001,"N_COORD97":2562411.2799999998,"ADDRESS":"信義一街４１８巷１０號","OBJECTID":361262},"geometry":{"x":166237.25999999978,"y":2562411.2800000031}},{"attributes":{"ID":361273,"DIS_CODE":0,"TOWNNAME":"佳里區","LI":"東寧里","LIN":"19鄰","STREET":"信義一街","SECT":" ","MAREA":" ","LANE":"４１８巷","ALLEY":" ","HOUSE_NO":"１１號","E_COORD97":166238.73000000001,"N_COORD97":2562429.2999999998,"ADDRESS":"信義一街４１８巷１１號","OBJECTID":361263},"geometry":{"x":166238.73000000045,"y":2562429.3000000045}},{"attributes":{"ID":361274,"DIS_CODE":0,"TOWNNAME":"柳營區","LI":"士林里","LIN":"13鄰","STREET":"進學一街","SECT":" ","MAREA":" ","LANE":" ","ALLEY":" ","HOUSE_NO":"１７號","E_COORD97":179422.5,"N_COORD97":2575020.4900000002,"ADDRESS":"進學一街１７號","OBJECTID":361264},"geometry":{"x":179422.50000000093,"y":2575020.4900000021}},{"attributes":{"ID":361275,"DIS_CODE":0,"TOWNNAME":"新營區","LI":"新北里","LIN":"32鄰","STREET":"新北六街","SECT":" ","MAREA":" ","LANE":"５巷","ALLEY":" ","HOUSE_NO":"６之２號三樓","E_COORD97":178692.72,"N_COORD97":2579085.1299999999,"ADDRESS":"新北六街５巷６之２號三樓","OBJECTID":361265},"geometry":{"x":178692.71999999974,"y":2579085.129999999}},{"attributes":{"ID":361276,"DIS_CODE":0,"TOWNNAME":"新營區","LI":"新北里","LIN":"32鄰","STREET":"新北六街","SECT":" ","MAREA":" ","LANE":"５巷","ALLEY":" ","HOUSE_NO":"６之２號五樓","E_COORD97":178692.72,"N_COORD97":2579085.1299999999,"ADDRESS":"新北六街５巷６之２號五樓","OBJECTID":361266},"geometry":{"x":178692.71999999974,"y":2579085.129999999}},{"attributes":{"ID":361277,"DIS_CODE":0,"TOWNNAME":"新營區","LI":"新北里","LIN":"32鄰","STREET":"新北六街","SECT":" ","MAREA":" ","LANE":"５巷","ALLEY":" ","HOUSE_NO":"６之１號五樓","E_COORD97":178692.72,"N_COORD97":2579085.1299999999,"ADDRESS":"新北六街５巷６之１號五樓","OBJECTID":361267},"geometry":{"x":178692.71999999974,"y":2579085.129999999}},{"attributes":{"ID":361278,"DIS_CODE":0,"TOWNNAME":"新營區","LI":"新北里","LIN":"32鄰","STREET":"新北六街","SECT":" ","MAREA":" ","LANE":"５巷","ALLEY":" ","HOUSE_NO":"６之１號一樓","E_COORD97":178702.97,"N_COORD97":2579090.6099999999,"ADDRESS":"新北六街５巷６之１號一樓","OBJECTID":361268},"geometry":{"x":178702.96999999881,"y":2579090.6100000013}},{"attributes":{"ID":361279,"DIS_CODE":0,"TOWNNAME":"新營區","LI":"新北里","LIN":"32鄰","STREET":"新北六街","SECT":" ","MAREA":" ","LANE":"５巷","ALLEY":" ","HOUSE_NO":"６之２號四樓","E_COORD97":178692.72,"N_COORD97":2579085.1299999999,"ADDRESS":"新北六街５巷６之２號四樓","OBJECTID":361269},"geometry":{"x":178692.71999999974,"y":2579085.129999999}},{"attributes":{"ID":361280,"DIS_CODE":0,"TOWNNAME":"佳里區","LI":"東寧里","LIN":"19鄰","STREET":"信義一街","SECT":" ","MAREA":" ","LANE":"４１８巷","ALLEY":" ","HOUSE_NO":"１２號","E_COORD97":166241.26000000001,"N_COORD97":2562411.6600000001,"ADDRESS":"信義一街４１８巷１２號","OBJECTID":361270},"geometry":{"x":166241.25999999978,"y":2562411.6600000001}},{"attributes":{"ID":361281,"DIS_CODE":0,"TOWNNAME":"佳里區","LI":"東寧里","LIN":"19鄰","STREET":"信義一街","SECT":" ","MAREA":" ","LANE":"４１８巷","ALLEY":" ","HOUSE_NO":"１３號","E_COORD97":166242.92999999999,"N_COORD97":2562429.9500000002,"ADDRESS":"信義一街４１８巷１３號","OBJECTID":361271},"geometry":{"x":166242.9299999997,"y":2562429.9499999974}},{"attributes":{"ID":361282,"DIS_CODE":0,"TOWNNAME":"佳里區","LI":"東寧里","LIN":"19鄰","STREET":"信義一街","SECT":" ","MAREA":" ","LANE":"４１８巷","ALLEY":" ","HOUSE_NO":"１５號","E_COORD97":166246.95000000001,"N_COORD97":2562430.2799999998,"ADDRESS":"信義一街４１８巷１５號","OBJECTID":361272},"geometry":{"x":166246.95000000019,"y":2562430.2799999993}},{"attributes":{"ID":361283,"DIS_CODE":0,"TOWNNAME":"佳里區","LI":"東寧里","LIN":"19鄰","STREET":"信義一街","SECT":" ","MAREA":" ","LANE":"４１８巷","ALLEY":" ","HOUSE_NO":"１６號","E_COORD97":166245.26000000001,"N_COORD97":2562412.04,"ADDRESS":"信義一街４１８巷１６號","OBJECTID":361273},"geometry":{"x":166245.26000000071,"y":2562412.0399999991}},{"attributes":{"ID":361284,"DIS_CODE":0,"TOWNNAME":"佳里區","LI":"東寧里","LIN":"19鄰","STREET":"信義一街","SECT":" ","MAREA":" ","LANE":"４１８巷","ALLEY":" ","HOUSE_NO":"１７號","E_COORD97":166251.01000000001,"N_COORD97":2562430.7799999998,"ADDRESS":"信義一街４１８巷１７號","OBJECTID":361274},"geometry":{"x":166251.00999999978,"y":2562430.7799999993}},{"attributes":{"ID":361285,"DIS_CODE":0,"TOWNNAME":"東區","LI":"崇學里","LIN":"19鄰","STREET":"崇德四街","SECT":" ","MAREA":" ","LANE":"７巷","ALLEY":" ","HOUSE_NO":"３３號","E_COORD97":170496.07000000001,"N_COORD97":2542022.5,"ADDRESS":"崇德四街７巷３３號","OBJECTID":361275},"geometry":{"x":170496.0700000003,"y":2542022.5}},{"attributes":{"ID":361286,"DIS_CODE":0,"TOWNNAME":"東區","LI":"崇學里","LIN":"19鄰","STREET":"崇德四街","SECT":" ","MAREA":" ","LANE":"７巷","ALLEY":" ","HOUSE_NO":"３５號","E_COORD97":170493.60999999999,"N_COORD97":2542025.0699999998,"ADDRESS":"崇德四街７巷３５號","OBJECTID":361276},"geometry":{"x":170493.61000000127,"y":2542025.0700000022}},{"attributes":{"ID":361287,"DIS_CODE":0,"TOWNNAME":"東區","LI":"崇學里","LIN":"19鄰","STREET":"崇德四街","SECT":" ","MAREA":" ","LANE":"７巷","ALLEY":" ","HOUSE_NO":"３７號","E_COORD97":170490.37,"N_COORD97":2542027.8599999999,"ADDRESS":"崇德四街７巷３７號","OBJECTID":361277},"geometry":{"x":170490.37000000011,"y":2542027.8600000031}},{"attributes":{"ID":361288,"DIS_CODE":0,"TOWNNAME":"東區","LI":"崇學里","LIN":"19鄰","STREET":"崇德四街","SECT":" ","MAREA":" ","LANE":"７巷","ALLEY":" ","HOUSE_NO":"３９號","E_COORD97":170487.69,"N_COORD97":2542030.8799999999,"ADDRESS":"崇德四街７巷３９號","OBJECTID":361278},"geometry":{"x":170487.69000000134,"y":2542030.8800000008}},{"attributes":{"ID":361289,"DIS_CODE":0,"TOWNNAME":"東區","LI":"崇學里","LIN":"19鄰","STREET":"崇德四街","SECT":" ","MAREA":" ","LANE":"７巷","ALLEY":" ","HOUSE_NO":"３號","E_COORD97":170544.70000000001,"N_COORD97":2541983.04,"ADDRESS":"崇德四街７巷３號","OBJECTID":361279},"geometry":{"x":170544.70000000205,"y":2541983.040000001}},{"attributes":{"ID":361290,"DIS_CODE":0,"TOWNNAME":"東區","LI":"崇學里","LIN":"19鄰","STREET":"崇德四街","SECT":" ","MAREA":" ","LANE":"７巷","ALLEY":" ","HOUSE_NO":"４５號","E_COORD97":170476.73000000001,"N_COORD97":2542037.8599999999,"ADDRESS":"崇德四街７巷４５號","OBJECTID":361280},"geometry":{"x":170476.73000000045,"y":2542037.8600000031}},{"attributes":{"ID":361291,"DIS_CODE":0,"TOWNNAME":"東區","LI":"崇學里","LIN":"19鄰","STREET":"崇德四街","SECT":" ","MAREA":" ","LANE":"７巷","ALLEY":" ","HOUSE_NO":"４７號","E_COORD97":170473.48999999999,"N_COORD97":2542040.2000000002,"ADDRESS":"崇德四街７巷４７號","OBJECTID":361281},"geometry":{"x":170473.49000000115,"y":2542040.2000000011}},{"attributes":{"ID":361292,"DIS_CODE":0,"TOWNNAME":"東區","LI":"崇學里","LIN":"19鄰","STREET":"崇德四街","SECT":" ","MAREA":" ","LANE":"７巷","ALLEY":" ","HOUSE_NO":"４９號","E_COORD97":170469.57000000001,"N_COORD97":2542042.3300000001,"ADDRESS":"崇德四街７巷４９號","OBJECTID":361282},"geometry":{"x":170469.57000000216,"y":2542042.3300000038}},{"attributes":{"ID":361293,"DIS_CODE":0,"TOWNNAME":"東區","LI":"崇學里","LIN":"19鄰","STREET":"崇德四街","SECT":" ","MAREA":" ","LANE":"７巷","ALLEY":" ","HOUSE_NO":"５１號","E_COORD97":170466.54999999999,"N_COORD97":2542044.4500000002,"ADDRESS":"崇德四街７巷５１號","OBJECTID":361283},"geometry":{"x":170466.54999999981,"y":2542044.4500000011}},{"attributes":{"ID":361294,"DIS_CODE":0,"TOWNNAME":"東區","LI":"崇學里","LIN":"19鄰","STREET":"崇德四街","SECT":" ","MAREA":" ","LANE":"７巷","ALLEY":" ","HOUSE_NO":"５號","E_COORD97":170541.04999999999,"N_COORD97":2541985.6099999999,"ADDRESS":"崇德四街７巷５號","OBJECTID":361284},"geometry":{"x":170541.05000000075,"y":2541985.6100000013}},{"attributes":{"ID":361295,"DIS_CODE":0,"TOWNNAME":"東區","LI":"崇學里","LIN":"19鄰","STREET":"崇德四街","SECT":" ","MAREA":" ","LANE":"７巷","ALLEY":" ","HOUSE_NO":"７號","E_COORD97":170538.20999999999,"N_COORD97":2541988.8500000001,"ADDRESS":"崇德四街７巷７號","OBJECTID":361285},"geometry":{"x":170538.21000000089,"y":2541988.8500000015}},{"attributes":{"ID":361296,"DIS_CODE":0,"TOWNNAME":"東區","LI":"崇學里","LIN":"19鄰","STREET":"崇德四街","SECT":" ","MAREA":" ","LANE":"７巷","ALLEY":" ","HOUSE_NO":"９號","E_COORD97":170535.37,"N_COORD97":2541991.1499999999,"ADDRESS":"崇德四街７巷９號","OBJECTID":361286},"geometry":{"x":170535.37000000104,"y":2541991.1500000004}},{"attributes":{"ID":361297,"DIS_CODE":0,"TOWNNAME":"新營區","LI":"南紙里","LIN":"19鄰","STREET":"太子路","SECT":" ","MAREA":" ","LANE":"２５６巷","ALLEY":" ","HOUSE_NO":"６號","E_COORD97":177755.95000000001,"N_COORD97":2577831.52,"ADDRESS":"太子路２５６巷６號","OBJECTID":361287},"geometry":{"x":177755.94999999925,"y":2577831.5199999996}},{"attributes":{"ID":361298,"DIS_CODE":0,"TOWNNAME":"新營區","LI":"南紙里","LIN":"19鄰","STREET":"太子路","SECT":" ","MAREA":" ","LANE":"２３８巷","ALLEY":" ","HOUSE_NO":"４３之１號","E_COORD97":177747.98999999999,"N_COORD97":2577934.6200000001,"ADDRESS":"太子路２３８巷４３之１號","OBJECTID":361288},"geometry":{"x":177747.99000000115,"y":2577934.620000001}},{"attributes":{"ID":361299,"DIS_CODE":0,"TOWNNAME":"新營區","LI":"新北里","LIN":"19鄰","STREET":"民生路","SECT":" ","MAREA":" ","LANE":"２０８巷","ALLEY":" ","HOUSE_NO":"１１號","E_COORD97":179079.54000000001,"N_COORD97":2579056.6200000001,"ADDRESS":"民生路２０８巷１１號","OBJECTID":361289},"geometry":{"x":179079.54000000097,"y":2579056.620000001}},{"attributes":{"ID":361300,"DIS_CODE":0,"TOWNNAME":"新營區","LI":"南紙里","LIN":"19鄰","STREET":"太子路","SECT":" ","MAREA":" ","LANE":"２３８巷","ALLEY":" ","HOUSE_NO":"３３號","E_COORD97":177774.07000000001,"N_COORD97":2577917.8199999998,"ADDRESS":"太子路２３８巷３３號","OBJECTID":361290},"geometry":{"x":177774.07000000216,"y":2577917.8200000003}},{"attributes":{"ID":361301,"DIS_CODE":0,"TOWNNAME":"柳營區","LI":"士林里","LIN":"13鄰","STREET":"進學一街","SECT":" ","MAREA":" ","LANE":" ","ALLEY":" ","HOUSE_NO":"２５號","E_COORD97":179430.04000000001,"N_COORD97":2574997.8100000001,"ADDRESS":"進學一街２５號","OBJECTID":361291},"geometry":{"x":179430.03999999911,"y":2574997.8100000024}},{"attributes":{"ID":361302,"DIS_CODE":0,"TOWNNAME":"柳營區","LI":"士林里","LIN":"13鄰","STREET":"進學一街","SECT":" ","MAREA":" ","LANE":" ","ALLEY":" ","HOUSE_NO":"２７號","E_COORD97":179429.01999999999,"N_COORD97":2574990.1299999999,"ADDRESS":"進學一街２７號","OBJECTID":361292},"geometry":{"x":179429.01999999955,"y":2574990.1300000027}},{"attributes":{"ID":361303,"DIS_CODE":0,"TOWNNAME":"柳營區","LI":"士林里","LIN":"13鄰","STREET":"進學一街","SECT":" ","MAREA":" ","LANE":" ","ALLEY":" ","HOUSE_NO":"２９號","E_COORD97":179429.87,"N_COORD97":2574986.1699999999,"ADDRESS":"進學一街２９號","OBJECTID":361293},"geometry":{"x":179429.87000000104,"y":2574986.1699999999}},{"attributes":{"ID":361304,"DIS_CODE":0,"TOWNNAME":"柳營區","LI":"人和里","LIN":"13鄰","STREET":"雙和路","SECT":" ","MAREA":" ","LANE":" ","ALLEY":" ","HOUSE_NO":"１４３號","E_COORD97":179469.59,"N_COORD97":2576797.0499999998,"ADDRESS":"雙和路１４３號","OBJECTID":361294},"geometry":{"x":179469.58999999985,"y":2576797.0500000026}},{"attributes":{"ID":361305,"DIS_CODE":0,"TOWNNAME":"柳營區","LI":"人和里","LIN":"13鄰","STREET":"雙和路","SECT":" ","MAREA":" ","LANE":" ","ALLEY":" ","HOUSE_NO":"２０５號","E_COORD97":179383.51999999999,"N_COORD97":2576697.8700000001,"ADDRESS":"雙和路２０５號","OBJECTID":361295},"geometry":{"x":179383.51999999955,"y":2576697.870000001}},{"attributes":{"ID":361306,"DIS_CODE":0,"TOWNNAME":"柳營區","LI":"人和里","LIN":"13鄰","STREET":"雙和路","SECT":" ","MAREA":" ","LANE":" ","ALLEY":" ","HOUSE_NO":"３７９號","E_COORD97":179119.62,"N_COORD97":2576417.9399999999,"ADDRESS":"雙和路３７９號","OBJECTID":361296},"geometry":{"x":179119.62000000104,"y":2576417.9399999995}},{"attributes":{"ID":361307,"DIS_CODE":0,"TOWNNAME":"北區","LI":"文成里","LIN":"13鄰","STREET":"文賢一路","SECT":" ","MAREA":" ","LANE":" ","ALLEY":" ","HOUSE_NO":"２６號","E_COORD97":167647.79999999999,"N_COORD97":2545262.8599999999,"ADDRESS":"文賢一路２６號","OBJECTID":361297},"geometry":{"x":167647.79999999981,"y":2545262.8600000013}},{"attributes":{"ID":361308,"DIS_CODE":0,"TOWNNAME":"東區","LI":"崇文里","LIN":"32鄰","STREET":"生產路","SECT":" ","MAREA":" ","LANE":"３２１巷","ALLEY":" ","HOUSE_NO":"６號","E_COORD97":171046.64999999999,"N_COORD97":2540697.8700000001,"ADDRESS":"生產路３２１巷６號","OBJECTID":361298},"geometry":{"x":171046.65000000037,"y":2540697.8700000029}},{"attributes":{"ID":361309,"DIS_CODE":0,"TOWNNAME":"新營區","LI":"王公里","LIN":"19鄰","STREET":"民族路","SECT":" ","MAREA":" ","LANE":"１１４巷","ALLEY":" ","HOUSE_NO":"４３號","E_COORD97":180466.29999999999,"N_COORD97":2579218.3799999999,"ADDRESS":"民族路１１４巷４３號","OBJECTID":361299},"geometry":{"x":180466.30000000075,"y":2579218.379999999}},{"attributes":{"ID":361310,"DIS_CODE":0,"TOWNNAME":"新營區","LI":"新東里","LIN":"19鄰","STREET":"東學路","SECT":" ","MAREA":" ","LANE":"８０巷","ALLEY":" ","HOUSE_NO":"５５號","E_COORD97":180942.17999999999,"N_COORD97":2579289.2400000002,"ADDRESS":"東學路８０巷５５號","OBJECTID":361300},"geometry":{"x":180942.1799999997,"y":2579289.2400000002}},{"attributes":{"ID":361311,"DIS_CODE":0,"TOWNNAME":"新營區","LI":"新東里","LIN":"19鄰","STREET":"東學路","SECT":" ","MAREA":" ","LANE":"８０巷","ALLEY":" ","HOUSE_NO":"４３號","E_COORD97":180907.5,"N_COORD97":2579296.0499999998,"ADDRESS":"東學路８０巷４３號","OBJECTID":361301},"geometry":{"x":180907.50000000093,"y":2579296.0500000026}},{"attributes":{"ID":361312,"DIS_CODE":0,"TOWNNAME":"新營區","LI":"新東里","LIN":"19鄰","STREET":"東學路","SECT":" ","MAREA":" ","LANE":"８０巷","ALLEY":" ","HOUSE_NO":"５１號","E_COORD97":180947.32999999999,"N_COORD97":2579298.0800000001,"ADDRESS":"東學路８０巷５１號","OBJECTID":361302},"geometry":{"x":180947.33000000101,"y":2579298.0800000019}},{"attributes":{"ID":361313,"DIS_CODE":0,"TOWNNAME":"新營區","LI":"新東里","LIN":"19鄰","STREET":"東學路","SECT":" ","MAREA":" ","LANE":"８０巷","ALLEY":" ","HOUSE_NO":"４５號","E_COORD97":180921.82000000001,"N_COORD97":2579297.0899999999,"ADDRESS":"東學路８０巷４５號","OBJECTID":361303},"geometry":{"x":180921.8200000003,"y":2579297.0900000036}},{"attributes":{"ID":361314,"DIS_CODE":0,"TOWNNAME":"新營區","LI":"新東里","LIN":"19鄰","STREET":"東學路","SECT":" ","MAREA":" ","LANE":"８０巷","ALLEY":" ","HOUSE_NO":"５７號","E_COORD97":180927.85000000001,"N_COORD97":2579288.2000000002,"ADDRESS":"東學路８０巷５７號","OBJECTID":361304},"geometry":{"x":180927.85000000149,"y":2579288.1999999993}},{"attributes":{"ID":361315,"DIS_CODE":0,"TOWNNAME":"新營區","LI":"王公里","LIN":"19鄰","STREET":"民族路","SECT":" ","MAREA":" ","LANE":"１１４巷","ALLEY":" ","HOUSE_NO":"３９號","E_COORD97":180456.07999999999,"N_COORD97":2579217.3199999998,"ADDRESS":"民族路１１４巷３９號","OBJECTID":361305},"geometry":{"x":180456.08000000101,"y":2579217.3200000003}},{"attributes":{"ID":361316,"DIS_CODE":0,"TOWNNAME":"新營區","LI":"新東里","LIN":"19鄰","STREET":"東學路","SECT":" ","MAREA":" ","LANE":"８０巷","ALLEY":" ","HOUSE_NO":"４７號","E_COORD97":180926.92999999999,"N_COORD97":2579297.0699999998,"ADDRESS":"東學路８０巷４７號","OBJECTID":361306},"geometry":{"x":180926.9299999997,"y":2579297.0700000003}},{"attributes":{"ID":361317,"DIS_CODE":0,"TOWNNAME":"新營區","LI":"王公里","LIN":"19鄰","STREET":"民族路","SECT":" ","MAREA":" ","LANE":"１１４巷","ALLEY":" ","HOUSE_NO":"３３號","E_COORD97":180441.76000000001,"N_COORD97":2579217.3799999999,"ADDRESS":"民族路１１４巷３３號","OBJECTID":361307},"geometry":{"x":180441.75999999978,"y":2579217.3800000008}},{"attributes":{"ID":361318,"DIS_CODE":0,"TOWNNAME":"新營區","LI":"新東里","LIN":"19鄰","STREET":"東學路","SECT":" ","MAREA":" ","LANE":"８０巷","ALLEY":" ","HOUSE_NO":"６１號","E_COORD97":180908.41,"N_COORD97":2579287.1899999999,"ADDRESS":"東學路８０巷６１號","OBJECTID":361308},"geometry":{"x":180908.41000000108,"y":2579287.1900000013}},{"attributes":{"ID":361319,"DIS_CODE":0,"TOWNNAME":"新營區","LI":"王公里","LIN":"19鄰","STREET":"民族路","SECT":" ","MAREA":" ","LANE":"１１４巷","ALLEY":" ","HOUSE_NO":"２７號","E_COORD97":180427.42000000001,"N_COORD97":2579216.3399999999,"ADDRESS":"民族路１１４巷２７號","OBJECTID":361309},"geometry":{"x":180427.41999999993,"y":2579216.3399999999}},{"attributes":{"ID":361320,"DIS_CODE":0,"TOWNNAME":"新營區","LI":"王公里","LIN":"19鄰","STREET":"民族路","SECT":" ","MAREA":" ","LANE":"１１４巷","ALLEY":" ","HOUSE_NO":"４９號","E_COORD97":180479.60999999999,"N_COORD97":2579219.4199999999,"ADDRESS":"民族路１１４巷４９號","OBJECTID":361310},"geometry":{"x":180479.61000000127,"y":2579219.4199999999}},{"attributes":{"ID":361321,"DIS_CODE":0,"TOWNNAME":"新營區","LI":"新東里","LIN":"19鄰","STREET":"東學路","SECT":" ","MAREA":" ","LANE":"８０巷","ALLEY":" ","HOUSE_NO":"７號","E_COORD97":180915.56,"N_COORD97":2579329.23,"ADDRESS":"東學路８０巷７號","OBJECTID":361311},"geometry":{"x":180915.55999999959,"y":2579329.2300000004}},{"attributes":{"ID":361322,"DIS_CODE":0,"TOWNNAME":"新營區","LI":"新東里","LIN":"19鄰","STREET":"東學路","SECT":" ","MAREA":" ","LANE":"８０巷","ALLEY":" ","HOUSE_NO":"４９號","E_COORD97":180942.28,"N_COORD97":2579298.1000000001,"ADDRESS":"東學路８０巷４９號","OBJECTID":361312},"geometry":{"x":180942.28000000026,"y":2579298.1000000015}},{"attributes":{"ID":361323,"DIS_CODE":0,"TOWNNAME":"新營區","LI":"新東里","LIN":"19鄰","STREET":"東學路","SECT":" ","MAREA":" ","LANE":"８０巷","ALLEY":" ","HOUSE_NO":"５號","E_COORD97":180910.42999999999,"N_COORD97":2579329.25,"ADDRESS":"東學路８０巷５號","OBJECTID":361313},"geometry":{"x":180910.43000000156,"y":2579329.25}},{"attributes":{"ID":361324,"DIS_CODE":0,"TOWNNAME":"新營區","LI":"王公里","LIN":"19鄰","STREET":"民族路","SECT":" ","MAREA":" ","LANE":"１１４巷","ALLEY":" ","HOUSE_NO":"２５號","E_COORD97":180423.35000000001,"N_COORD97":2579221.8999999999,"ADDRESS":"民族路１１４巷２５號","OBJECTID":361314},"geometry":{"x":180423.35000000056,"y":2579221.9000000022}},{"attributes":{"ID":361325,"DIS_CODE":0,"TOWNNAME":"新營區","LI":"新北里","LIN":"19鄰","STREET":"民生路","SECT":" ","MAREA":" ","LANE":"２２６巷","ALLEY":" ","HOUSE_NO":"１４之１號","E_COORD97":179108.84,"N_COORD97":2579099.73,"ADDRESS":"民生路２２６巷１４之１號","OBJECTID":361315},"geometry":{"x":179108.83999999985,"y":2579099.7300000004}},{"attributes":{"ID":361326,"DIS_CODE":0,"TOWNNAME":"歸仁區","LI":"西埔里","LIN":"13鄰","STREET":"西埔二街","SECT":" ","MAREA":" ","LANE":" ","ALLEY":" ","HOUSE_NO":"５８號","E_COORD97":176912.64000000001,"N_COORD97":2544772.25,"ADDRESS":"西埔二街５８號","OBJECTID":361316},"geometry":{"x":176912.63999999966,"y":2544772.2500000019}},{"attributes":{"ID":361327,"DIS_CODE":0,"TOWNNAME":"安南區","LI":"鳳凰里","LIN":"25鄰","STREET":"怡安路","SECT":"二段","MAREA":" ","LANE":" ","ALLEY":" ","HOUSE_NO":"５９９號八樓之１","E_COORD97":167393.91,"N_COORD97":2549474.3999999999,"ADDRESS":"怡安路二段５９９號八樓之１","OBJECTID":361317},"geometry":{"x":167393.91000000108,"y":2549474.4000000022}},{"attributes":{"ID":361328,"DIS_CODE":0,"TOWNNAME":"安南區","LI":"安慶里","LIN":"32鄰","STREET":"怡安路","SECT":"一段","MAREA":" ","LANE":"３４４巷","ALLEY":" ","HOUSE_NO":"５號","E_COORD97":168784.04000000001,"N_COORD97":2549195.8100000001,"ADDRESS":"怡安路一段３４４巷５號","OBJECTID":361318},"geometry":{"x":168784.04000000004,"y":2549195.8100000005}},{"attributes":{"ID":361329,"DIS_CODE":0,"TOWNNAME":"安南區","LI":"安慶里","LIN":"32鄰","STREET":"怡安路","SECT":"一段","MAREA":" ","LANE":"３４４巷","ALLEY":" ","HOUSE_NO":"６號","E_COORD97":168815.89000000001,"N_COORD97":2549217.7000000002,"ADDRESS":"怡安路一段３４４巷６號","OBJECTID":361319},"geometry":{"x":168815.8900000006,"y":2549217.7000000011}},{"attributes":{"ID":361330,"DIS_CODE":0,"TOWNNAME":"安南區","LI":"安慶里","LIN":"32鄰","STREET":"怡安路","SECT":"一段","MAREA":" ","LANE":"３４４巷","ALLEY":" ","HOUSE_NO":"７號","E_COORD97":168782.62,"N_COORD97":2549202.0299999998,"ADDRESS":"怡安路一段３４４巷７號","OBJECTID":361320},"geometry":{"x":168782.62000000104,"y":2549202.0300000012}},{"attributes":{"ID":361331,"DIS_CODE":0,"TOWNNAME":"安南區","LI":"安慶里","LIN":"32鄰","STREET":"怡安路","SECT":"一段","MAREA":" ","LANE":"３４４巷","ALLEY":" ","HOUSE_NO":"８號","E_COORD97":168816.26000000001,"N_COORD97":2549221.9199999999,"ADDRESS":"怡安路一段３４４巷８號","OBJECTID":361321},"geometry":{"x":168816.25999999978,"y":2549221.9199999981}},{"attributes":{"ID":361332,"DIS_CODE":0,"TOWNNAME":"安南區","LI":"安慶里","LIN":"32鄰","STREET":"怡安路","SECT":"一段","MAREA":" ","LANE":"３４４巷","ALLEY":" ","HOUSE_NO":"９號","E_COORD97":168781.98999999999,"N_COORD97":2549208.52,"ADDRESS":"怡安路一段３４４巷９號","OBJECTID":361322},"geometry":{"x":168781.99000000115,"y":2549208.5200000014}},{"attributes":{"ID":361333,"DIS_CODE":0,"TOWNNAME":"安南區","LI":"安慶里","LIN":"32鄰","STREET":"頂安街","SECT":" ","MAREA":" ","LANE":"４７９巷","ALLEY":" ","HOUSE_NO":"１１號","E_COORD97":168808.57000000001,"N_COORD97":2549272.3900000001,"ADDRESS":"頂安街４７９巷１１號","OBJECTID":361323},"geometry":{"x":168808.57000000123,"y":2549272.3900000006}},{"attributes":{"ID":361334,"DIS_CODE":0,"TOWNNAME":"安南區","LI":"安慶里","LIN":"32鄰","STREET":"頂安街","SECT":" ","MAREA":" ","LANE":"４７９巷","ALLEY":" ","HOUSE_NO":"１３號","E_COORD97":168808.63,"N_COORD97":2549268.1299999999,"ADDRESS":"頂安街４７９巷１３號","OBJECTID":361324},"geometry":{"x":168808.62999999989,"y":2549268.1300000008}},{"attributes":{"ID":361335,"DIS_CODE":0,"TOWNNAME":"安南區","LI":"安慶里","LIN":"32鄰","STREET":"頂安街","SECT":" ","MAREA":" ","LANE":"４７９巷","ALLEY":" ","HOUSE_NO":"１５號","E_COORD97":168809.34,"N_COORD97":2549263.8900000001,"ADDRESS":"頂安街４７９巷１５號","OBJECTID":361325},"geometry":{"x":168809.34000000171,"y":2549263.8900000043}},{"attributes":{"ID":361336,"DIS_CODE":0,"TOWNNAME":"安南區","LI":"鳳凰里","LIN":"25鄰","STREET":"怡安路","SECT":"二段","MAREA":" ","LANE":" ","ALLEY":" ","HOUSE_NO":"５９９號八樓之２","E_COORD97":167393.91,"N_COORD97":2549474.3999999999,"ADDRESS":"怡安路二段５９９號八樓之２","OBJECTID":361326},"geometry":{"x":167393.91000000108,"y":2549474.4000000022}},{"attributes":{"ID":361337,"DIS_CODE":0,"TOWNNAME":"安南區","LI":"鳳凰里","LIN":"25鄰","STREET":"怡安路","SECT":"二段","MAREA":" ","LANE":" ","ALLEY":" ","HOUSE_NO":"５９９號十一樓之１","E_COORD97":167393.91,"N_COORD97":2549474.3999999999,"ADDRESS":"怡安路二段５９９號十一樓之１","OBJECTID":361327},"geometry":{"x":167393.91000000108,"y":2549474.4000000022}},{"attributes":{"ID":361338,"DIS_CODE":0,"TOWNNAME":"安南區","LI":"鳳凰里","LIN":"25鄰","STREET":"怡安路","SECT":"二段","MAREA":" ","LANE":" ","ALLEY":" ","HOUSE_NO":"５９９號十一樓之２","E_COORD97":167393.91,"N_COORD97":2549474.3999999999,"ADDRESS":"怡安路二段５９９號十一樓之２","OBJECTID":361328},"geometry":{"x":167393.91000000108,"y":2549474.4000000022}},{"attributes":{"ID":361339,"DIS_CODE":0,"TOWNNAME":"安南區","LI":"鳳凰里","LIN":"25鄰","STREET":"怡安路","SECT":"二段","MAREA":" ","LANE":" ","ALLEY":" ","HOUSE_NO":"５９９號十七樓之１","E_COORD97":167393.91,"N_COORD97":2549474.3999999999,"ADDRESS":"怡安路二段５９９號十七樓之１","OBJECTID":361329},"geometry":{"x":167393.91000000108,"y":2549474.4000000022}},{"attributes":{"ID":361340,"DIS_CODE":0,"TOWNNAME":"安南區","LI":"鳳凰里","LIN":"25鄰","STREET":"怡安路","SECT":"二段","MAREA":" ","LANE":" ","ALLEY":" ","HOUSE_NO":"５９９號十七樓之２","E_COORD97":167393.91,"N_COORD97":2549474.3999999999,"ADDRESS":"怡安路二段５９９號十七樓之２","OBJECTID":361330},"geometry":{"x":167393.91000000108,"y":2549474.4000000022}},{"attributes":{"ID":361341,"DIS_CODE":0,"TOWNNAME":"安南區","LI":"鳳凰里","LIN":"25鄰","STREET":"怡安路","SECT":"二段","MAREA":" ","LANE":" ","ALLEY":" ","HOUSE_NO":"５９９號十二樓之１","E_COORD97":167393.91,"N_COORD97":2549474.3999999999,"ADDRESS":"怡安路二段５９９號十二樓之１","OBJECTID":361331},"geometry":{"x":167393.91000000108,"y":2549474.4000000022}},{"attributes":{"ID":361342,"DIS_CODE":0,"TOWNNAME":"佳里區","LI":"建南里","LIN":"32鄰","STREET":"南勢街","SECT":" ","MAREA":" ","LANE":" ","ALLEY":" ","HOUSE_NO":"２９４號","E_COORD97":165705.19,"N_COORD97":2560886.6699999999,"ADDRESS":"南勢街２９４號","OBJECTID":361332},"geometry":{"x":165705.18999999948,"y":2560886.6700000037}},{"attributes":{"ID":361343,"DIS_CODE":0,"TOWNNAME":"安南區","LI":"安慶里","LIN":"32鄰","STREET":"怡安路","SECT":"一段","MAREA":" ","LANE":"３４４巷","ALLEY":" ","HOUSE_NO":"１０號","E_COORD97":168815.51999999999,"N_COORD97":2549226.77,"ADDRESS":"怡安路一段３４４巷１０號","OBJECTID":361333},"geometry":{"x":168815.51999999955,"y":2549226.7700000014}},{"attributes":{"ID":361344,"DIS_CODE":0,"TOWNNAME":"安南區","LI":"安慶里","LIN":"32鄰","STREET":"怡安路","SECT":"一段","MAREA":" ","LANE":"３４４巷","ALLEY":" ","HOUSE_NO":"１２號","E_COORD97":168815.37,"N_COORD97":2549230.3999999999,"ADDRESS":"怡安路一段３４４巷１２號","OBJECTID":361334},"geometry":{"x":168815.37000000011,"y":2549230.4000000022}},{"attributes":{"ID":361345,"DIS_CODE":0,"TOWNNAME":"安南區","LI":"安慶里","LIN":"32鄰","STREET":"怡安路","SECT":"一段","MAREA":" ","LANE":"３４４巷","ALLEY":" ","HOUSE_NO":"１３號","E_COORD97":168780.22,"N_COORD97":2549223.21,"ADDRESS":"怡安路一段３４４巷１３號","OBJECTID":361335},"geometry":{"x":168780.22000000067,"y":2549223.2100000009}},{"attributes":{"ID":361346,"DIS_CODE":0,"TOWNNAME":"安南區","LI":"安慶里","LIN":"32鄰","STREET":"怡安路","SECT":"一段","MAREA":" ","LANE":"３４４巷","ALLEY":" ","HOUSE_NO":"１４號","E_COORD97":168815.14999999999,"N_COORD97":2549234.9900000002,"ADDRESS":"怡安路一段３４４巷１４號","OBJECTID":361336},"geometry":{"x":168815.1500000013,"y":2549234.9900000002}},{"attributes":{"ID":361347,"DIS_CODE":0,"TOWNNAME":"安南區","LI":"安慶里","LIN":"32鄰","STREET":"怡安路","SECT":"一段","MAREA":" ","LANE":"３４４巷","ALLEY":" ","HOUSE_NO":"１５號","E_COORD97":168781.10999999999,"N_COORD97":2549230.52,"ADDRESS":"怡安路一段３４４巷１５號","OBJECTID":361337},"geometry":{"x":168781.11000000127,"y":2549230.5199999996}},{"attributes":{"ID":361348,"DIS_CODE":0,"TOWNNAME":"安南區","LI":"安慶里","LIN":"32鄰","STREET":"怡安路","SECT":"一段","MAREA":" ","LANE":"３４４巷","ALLEY":" ","HOUSE_NO":"１６號","E_COORD97":168814.63,"N_COORD97":2549239.8799999999,"ADDRESS":"怡安路一段３４４巷１６號","OBJECTID":361338},"geometry":{"x":168814.63000000082,"y":2549239.8800000008}},{"attributes":{"ID":361349,"DIS_CODE":0,"TOWNNAME":"安南區","LI":"安慶里","LIN":"32鄰","STREET":"怡安路","SECT":"一段","MAREA":" ","LANE":"３４４巷","ALLEY":" ","HOUSE_NO":"１７號","E_COORD97":168780.39999999999,"N_COORD97":2549234.96,"ADDRESS":"怡安路一段３４４巷１７號","OBJECTID":361339},"geometry":{"x":168780.40000000037,"y":2549234.9600000009}},{"attributes":{"ID":361350,"DIS_CODE":0,"TOWNNAME":"安南區","LI":"安慶里","LIN":"32鄰","STREET":"怡安路","SECT":"一段","MAREA":" ","LANE":"３４４巷","ALLEY":" ","HOUSE_NO":"１８號","E_COORD97":168814.19,"N_COORD97":2549243.75,"ADDRESS":"怡安路一段３４４巷１８號","OBJECTID":361340},"geometry":{"x":168814.19000000227,"y":2549243.7500000037}},{"attributes":{"ID":361351,"DIS_CODE":0,"TOWNNAME":"安南區","LI":"安慶里","LIN":"32鄰","STREET":"怡安路","SECT":"一段","MAREA":" ","LANE":"３４４巷","ALLEY":" ","HOUSE_NO":"１９號","E_COORD97":168779.85999999999,"N_COORD97":2549239.3999999999,"ADDRESS":"怡安路一段３４４巷１９號","OBJECTID":361341},"geometry":{"x":168779.86000000127,"y":2549239.4000000004}},{"attributes":{"ID":361352,"DIS_CODE":0,"TOWNNAME":"安南區","LI":"安慶里","LIN":"32鄰","STREET":"怡安路","SECT":"一段","MAREA":" ","LANE":"３４４巷","ALLEY":" ","HOUSE_NO":"１號","E_COORD97":168782.10000000001,"N_COORD97":2549186.2400000002,"ADDRESS":"怡安路一段３４４巷１號","OBJECTID":361342},"geometry":{"x":168782.10000000056,"y":2549186.2399999984}},{"attributes":{"ID":361353,"DIS_CODE":0,"TOWNNAME":"新營區","LI":"王公里","LIN":"19鄰","STREET":"民族路","SECT":" ","MAREA":" ","LANE":"１１４巷","ALLEY":" ","HOUSE_NO":"４７號","E_COORD97":180475.51000000001,"N_COORD97":2579218.3300000001,"ADDRESS":"民族路１１４巷４７號","OBJECTID":361343},"geometry":{"x":180475.50999999978,"y":2579218.3300000019}},{"attributes":{"ID":361354,"DIS_CODE":0,"TOWNNAME":"新營區","LI":"王公里","LIN":"19鄰","STREET":"民族路","SECT":" ","MAREA":" ","LANE":"１１４巷","ALLEY":" ","HOUSE_NO":"２號","E_COORD97":180382.13,"N_COORD97":2579204.3700000001,"ADDRESS":"民族路１１４巷２號","OBJECTID":361344},"geometry":{"x":180382.13000000175,"y":2579204.370000001}},{"attributes":{"ID":361355,"DIS_CODE":0,"TOWNNAME":"歸仁區","LI":"西埔里","LIN":"13鄰","STREET":"西埔二街","SECT":" ","MAREA":" ","LANE":" ","ALLEY":" ","HOUSE_NO":"２２號","E_COORD97":176991.54000000001,"N_COORD97":2544764.25,"ADDRESS":"西埔二街２２號","OBJECTID":361345},"geometry":{"x":176991.54000000097,"y":2544764.25}},{"attributes":{"ID":361356,"DIS_CODE":0,"TOWNNAME":"歸仁區","LI":"大潭里","LIN":"13鄰","STREET":"長榮路","SECT":"一段","MAREA":" ","LANE":" ","ALLEY":" ","HOUSE_NO":"５號","E_COORD97":174728.17000000001,"N_COORD97":2534526.2799999998,"ADDRESS":"長榮路一段５號","OBJECTID":361346},"geometry":{"x":174728.16999999993,"y":2534526.2800000012}},{"attributes":{"ID":361357,"DIS_CODE":0,"TOWNNAME":"歸仁區","LI":"六甲里","LIN":"13鄰","STREET":"中正二十街","SECT":" ","MAREA":" ","LANE":" ","ALLEY":" ","HOUSE_NO":"７１號","E_COORD97":175812.41,"N_COORD97":2539079.25,"ADDRESS":"中正二十街７１號","OBJECTID":361347},"geometry":{"x":175812.41000000108,"y":2539079.2500000037}},{"attributes":{"ID":361358,"DIS_CODE":0,"TOWNNAME":"歸仁區","LI":"六甲里","LIN":"13鄰","STREET":"中正二十街","SECT":" ","MAREA":" ","LANE":" ","ALLEY":" ","HOUSE_NO":"３１號","E_COORD97":175901.67999999999,"N_COORD97":2539095.73,"ADDRESS":"中正二十街３１號","OBJECTID":361348},"geometry":{"x":175901.68000000063,"y":2539095.7300000004}},{"attributes":{"ID":361359,"DIS_CODE":0,"TOWNNAME":"歸仁區","LI":"八甲里","LIN":"13鄰","STREET":"大明二街","SECT":" ","MAREA":" ","LANE":" ","ALLEY":" ","HOUSE_NO":"２５號","E_COORD97":178003.62,"N_COORD97":2541930.6099999999,"ADDRESS":"大明二街２５號","OBJECTID":361349},"geometry":{"x":178003.62000000011,"y":2541930.6099999994}},{"attributes":{"ID":361360,"DIS_CODE":0,"TOWNNAME":"歸仁區","LI":"大潭里","LIN":"13鄰","STREET":"長榮路","SECT":"一段","MAREA":" ","LANE":" ","ALLEY":" ","HOUSE_NO":"７９號","E_COORD97":174844.32000000001,"N_COORD97":2534539.2799999998,"ADDRESS":"長榮路一段７９號","OBJECTID":361350},"geometry":{"x":174844.3200000003,"y":2534539.2800000012}},{"attributes":{"ID":361361,"DIS_CODE":0,"TOWNNAME":"歸仁區","LI":"六甲里","LIN":"13鄰","STREET":"中正二十街","SECT":" ","MAREA":" ","LANE":" ","ALLEY":" ","HOUSE_NO":"５７號","E_COORD97":175851.41,"N_COORD97":2539091.25,"ADDRESS":"中正二十街５７號","OBJECTID":361351},"geometry":{"x":175851.41000000108,"y":2539091.25}},{"attributes":{"ID":361362,"DIS_CODE":0,"TOWNNAME":"南區","LI":"金華里","LIN":"13鄰","STREET":"尊南街","SECT":" ","MAREA":" ","LANE":" ","ALLEY":" ","HOUSE_NO":"１６３號","E_COORD97":166815.92000000001,"N_COORD97":2542084.9300000002,"ADDRESS":"尊南街１６３號","OBJECTID":361352},"geometry":{"x":166815.92000000086,"y":2542084.9299999978}},{"attributes":{"ID":361363,"DIS_CODE":0,"TOWNNAME":"南區","LI":"金華里","LIN":"13鄰","STREET":"尊南街","SECT":" ","MAREA":" ","LANE":" ","ALLEY":" ","HOUSE_NO":"１６７號","E_COORD97":166817.79000000001,"N_COORD97":2542107.1600000001,"ADDRESS":"尊南街１６７號","OBJECTID":361353},"geometry":{"x":166817.79000000004,"y":2542107.1600000001}},{"attributes":{"ID":361364,"DIS_CODE":0,"TOWNNAME":"南區","LI":"金華里","LIN":"13鄰","STREET":"惠南街","SECT":" ","MAREA":" ","LANE":" ","ALLEY":" ","HOUSE_NO":"４０號","E_COORD97":166770.26999999999,"N_COORD97":2542110.0099999998,"ADDRESS":"惠南街４０號","OBJECTID":361354},"geometry":{"x":166770.27000000048,"y":2542110.0100000016}},{"attributes":{"ID":361365,"DIS_CODE":0,"TOWNNAME":"北區","LI":"成德里","LIN":"13鄰","STREET":"育德二路","SECT":" ","MAREA":" ","LANE":" ","ALLEY":" ","HOUSE_NO":"１５３號","E_COORD97":168350.69,"N_COORD97":2545627.4500000002,"ADDRESS":"育德二路１５３號","OBJECTID":361355},"geometry":{"x":168350.69000000041,"y":2545627.450000003}},{"attributes":{"ID":361366,"DIS_CODE":0,"TOWNNAME":"北區","LI":"成德里","LIN":"13鄰","STREET":"育德二路","SECT":" ","MAREA":" ","LANE":" ","ALLEY":" ","HOUSE_NO":"１５１號","E_COORD97":168351.01000000001,"N_COORD97":2545621.4199999999,"ADDRESS":"育德二路１５１號","OBJECTID":361356},"geometry":{"x":168351.01000000071,"y":2545621.4199999981}},{"attributes":{"ID":361367,"DIS_CODE":0,"TOWNNAME":"六甲區","LI":"六甲里","LIN":"32鄰","STREET":"中正路","SECT":" ","MAREA":" ","LANE":"２２１巷","ALLEY":" ","HOUSE_NO":"２號","E_COORD97":183447.87,"N_COORD97":2569180.54,"ADDRESS":"中正路２２１巷２號","OBJECTID":361357},"geometry":{"x":183447.87000000104,"y":2569180.540000001}},{"attributes":{"ID":361368,"DIS_CODE":0,"TOWNNAME":"北區","LI":"成德里","LIN":"13鄰","STREET":"育德二路","SECT":" ","MAREA":" ","LANE":" ","ALLEY":" ","HOUSE_NO":"１４９號","E_COORD97":168351.01000000001,"N_COORD97":2545615.0699999998,"ADDRESS":"育德二路１４９號","OBJECTID":361358},"geometry":{"x":168351.01000000071,"y":2545615.0700000022}},{"attributes":{"ID":361369,"DIS_CODE":0,"TOWNNAME":"歸仁區","LI":"南保里","LIN":"32鄰","STREET":"民權八街","SECT":" ","MAREA":" ","LANE":"４０巷","ALLEY":" ","HOUSE_NO":"８號","E_COORD97":176864.98999999999,"N_COORD97":2541005.29,"ADDRESS":"民權八街４０巷８號","OBJECTID":361359},"geometry":{"x":176864.99000000115,"y":2541005.290000001}},{"attributes":{"ID":361370,"DIS_CODE":0,"TOWNNAME":"六甲區","LI":"六甲里","LIN":"19鄰","STREET":"仁愛街","SECT":" ","MAREA":" ","LANE":"８３巷","ALLEY":" ","HOUSE_NO":"２號","E_COORD97":183843.31,"N_COORD97":2570093.71,"ADDRESS":"仁愛街８３巷２號","OBJECTID":361360},"geometry":{"x":183843.30999999959,"y":2570093.7100000028}},{"attributes":{"ID":361371,"DIS_CODE":0,"TOWNNAME":"六甲區","LI":"六甲里","LIN":"19鄰","STREET":"仁愛街","SECT":" ","MAREA":" ","LANE":"８３巷","ALLEY":" ","HOUSE_NO":"４號","E_COORD97":183837.12,"N_COORD97":2570092.2000000002,"ADDRESS":"仁愛街８３巷４號","OBJECTID":361361},"geometry":{"x":183837.12000000197,"y":2570092.2000000011}},{"attributes":{"ID":361372,"DIS_CODE":0,"TOWNNAME":"六甲區","LI":"六甲里","LIN":"19鄰","STREET":"仁愛街","SECT":" ","MAREA":" ","LANE":"８３巷","ALLEY":" ","HOUSE_NO":"８號","E_COORD97":183809.47,"N_COORD97":2570097.1000000001,"ADDRESS":"仁愛街８３巷８號","OBJECTID":361362},"geometry":{"x":183809.47000000067,"y":2570097.0999999996}},{"attributes":{"ID":361373,"DIS_CODE":0,"TOWNNAME":"新營區","LI":"民榮里","LIN":"19鄰","STREET":"裕民路","SECT":" ","MAREA":" ","LANE":"５８巷","ALLEY":" ","HOUSE_NO":"３８之３號","E_COORD97":179034.42999999999,"N_COORD97":2577853.1000000001,"ADDRESS":"裕民路５８巷３８之３號","OBJECTID":361363},"geometry":{"x":179034.43000000063,"y":2577853.1000000015}},{"attributes":{"ID":361374,"DIS_CODE":0,"TOWNNAME":"新營區","LI":"王公里","LIN":"19鄰","STREET":"民族路","SECT":" ","MAREA":" ","LANE":"１１４巷","ALLEY":" ","HOUSE_NO":"３１號","E_COORD97":180436.64000000001,"N_COORD97":2579217.4100000001,"ADDRESS":"民族路１１４巷３１號","OBJECTID":361364},"geometry":{"x":180436.6400000006,"y":2579217.4100000039}},{"attributes":{"ID":361375,"DIS_CODE":0,"TOWNNAME":"新營區","LI":"王公里","LIN":"19鄰","STREET":"民族路","SECT":" ","MAREA":" ","LANE":"１１４巷","ALLEY":" ","HOUSE_NO":"２９號","E_COORD97":180431.51000000001,"N_COORD97":2579217.4300000002,"ADDRESS":"民族路１１４巷２９號","OBJECTID":361365},"geometry":{"x":180431.50999999978,"y":2579217.4300000016}},{"attributes":{"ID":361376,"DIS_CODE":0,"TOWNNAME":"東區","LI":"富強里","LIN":" ","STREET":"中華東路","SECT":"二段","MAREA":" ","LANE":"９６巷","ALLEY":" ","HOUSE_NO":"５４號","E_COORD97":171200.42000000001,"N_COORD97":2542856.2000000002,"ADDRESS":"中華東路二段９６巷５４號","OBJECTID":361366},"geometry":{"x":171200.41999999993,"y":2542856.2000000011}},{"attributes":{"ID":361377,"DIS_CODE":0,"TOWNNAME":"柳營區","LI":"八翁里","LIN":"19鄰","STREET":"仁愛路","SECT":" ","MAREA":" ","LANE":"１６１巷","ALLEY":" ","HOUSE_NO":"１號","E_COORD97":178916.04000000001,"N_COORD97":2575208.0299999998,"ADDRESS":"仁愛路１６１巷１號","OBJECTID":361367},"geometry":{"x":178916.04000000004,"y":2575208.0300000031}},{"attributes":{"ID":361378,"DIS_CODE":0,"TOWNNAME":"北區","LI":"成德里","LIN":"13鄰","STREET":"育德二路","SECT":" ","MAREA":" ","LANE":" ","ALLEY":" ","HOUSE_NO":"１４７號","E_COORD97":168351.32000000001,"N_COORD97":2545608.7200000002,"ADDRESS":"育德二路１４７號","OBJECTID":361368},"geometry":{"x":168351.3200000003,"y":2545608.7200000007}},{"attributes":{"ID":361379,"DIS_CODE":0,"TOWNNAME":"南區","LI":"金華里","LIN":"32鄰","STREET":"新孝路","SECT":" ","MAREA":" ","LANE":"１０２巷","ALLEY":" ","HOUSE_NO":"５０號","E_COORD97":166585.89999999999,"N_COORD97":2542343.04,"ADDRESS":"新孝路１０２巷５０號","OBJECTID":361369},"geometry":{"x":166585.9000000013,"y":2542343.040000001}},{"attributes":{"ID":361380,"DIS_CODE":0,"TOWNNAME":"南區","LI":"金華里","LIN":"32鄰","STREET":"新孝路","SECT":" ","MAREA":" ","LANE":"１０２巷","ALLEY":" ","HOUSE_NO":"５１號","E_COORD97":166581.26999999999,"N_COORD97":2542343.8300000001,"ADDRESS":"新孝路１０２巷５１號","OBJECTID":361370},"geometry":{"x":166581.26999999955,"y":2542343.8300000038}},{"attributes":{"ID":361381,"DIS_CODE":0,"TOWNNAME":"南區","LI":"金華里","LIN":"32鄰","STREET":"新孝路","SECT":" ","MAREA":" ","LANE":"１０２巷","ALLEY":" ","HOUSE_NO":"５２號","E_COORD97":166576.92999999999,"N_COORD97":2542345.7000000002,"ADDRESS":"新孝路１０２巷５２號","OBJECTID":361371},"geometry":{"x":166576.9299999997,"y":2542345.6999999993}},{"attributes":{"ID":361382,"DIS_CODE":0,"TOWNNAME":"南區","LI":"金華里","LIN":"32鄰","STREET":"新孝路","SECT":" ","MAREA":" ","LANE":"１０２巷","ALLEY":" ","HOUSE_NO":"５３號","E_COORD97":166573.28,"N_COORD97":2542347.1800000002,"ADDRESS":"新孝路１０２巷５３號","OBJECTID":361372},"geometry":{"x":166573.28000000026,"y":2542347.1799999997}},{"attributes":{"ID":361383,"DIS_CODE":0,"TOWNNAME":"南區","LI":"金華里","LIN":"32鄰","STREET":"新孝路","SECT":" ","MAREA":" ","LANE":"１４８巷","ALLEY":" ","HOUSE_NO":"１０１號","E_COORD97":166591.31,"N_COORD97":2542327.5499999998,"ADDRESS":"新孝路１４８巷１０１號","OBJECTID":361373},"geometry":{"x":166591.30999999959,"y":2542327.5500000026}},{"attributes":{"ID":361384,"DIS_CODE":0,"TOWNNAME":"南區","LI":"金華里","LIN":"32鄰","STREET":"新孝路","SECT":" ","MAREA":" ","LANE":"１４８巷","ALLEY":" ","HOUSE_NO":"１０３號","E_COORD97":166592.89999999999,"N_COORD97":2542335.21,"ADDRESS":"新孝路１４８巷１０３號","OBJECTID":361374},"geometry":{"x":166592.9000000013,"y":2542335.209999999}},{"attributes":{"ID":361385,"DIS_CODE":0,"TOWNNAME":"南區","LI":"金華里","LIN":"32鄰","STREET":"新孝路","SECT":" ","MAREA":" ","LANE":"１４８巷","ALLEY":" ","HOUSE_NO":"１０５號","E_COORD97":166593.54000000001,"N_COORD97":2542338.3999999999,"ADDRESS":"新孝路１４８巷１０５號","OBJECTID":361375},"geometry":{"x":166593.54000000004,"y":2542338.4000000022}},{"attributes":{"ID":361386,"DIS_CODE":0,"TOWNNAME":"南區","LI":"金華里","LIN":"32鄰","STREET":"新孝路","SECT":" ","MAREA":" ","LANE":"１４８巷","ALLEY":" ","HOUSE_NO":"１０７號","E_COORD97":166593.54000000001,"N_COORD97":2542343.1899999999,"ADDRESS":"新孝路１４８巷１０７號","OBJECTID":361376},"geometry":{"x":166593.54000000004,"y":2542343.1899999995}},{"attributes":{"ID":361387,"DIS_CODE":0,"TOWNNAME":"南區","LI":"金華里","LIN":"32鄰","STREET":"新孝路","SECT":" ","MAREA":" ","LANE":"１４８巷","ALLEY":" ","HOUSE_NO":"１０９號","E_COORD97":166594.5,"N_COORD97":2542348.2999999998,"ADDRESS":"新孝路１４８巷１０９號","OBJECTID":361377},"geometry":{"x":166594.50000000186,"y":2542348.3000000045}},{"attributes":{"ID":361388,"DIS_CODE":0,"TOWNNAME":"南區","LI":"金華里","LIN":"32鄰","STREET":"新孝路","SECT":" ","MAREA":" ","LANE":"１４８巷","ALLEY":" ","HOUSE_NO":"５９號","E_COORD97":166558.75,"N_COORD97":2542235.6099999999,"ADDRESS":"新孝路１４８巷５９號","OBJECTID":361378},"geometry":{"x":166558.75000000186,"y":2542235.6099999994}},{"attributes":{"ID":361389,"DIS_CODE":0,"TOWNNAME":"南區","LI":"金華里","LIN":"32鄰","STREET":"新孝路","SECT":" ","MAREA":" ","LANE":"１４８巷","ALLEY":" ","HOUSE_NO":"６１號","E_COORD97":166560.07000000001,"N_COORD97":2542239.1400000001,"ADDRESS":"新孝路１４８巷６１號","OBJECTID":361379},"geometry":{"x":166560.0700000003,"y":2542239.1400000006}},{"attributes":{"ID":361390,"DIS_CODE":0,"TOWNNAME":"南區","LI":"金華里","LIN":"32鄰","STREET":"新孝路","SECT":" ","MAREA":" ","LANE":"１４８巷","ALLEY":" ","HOUSE_NO":"６３號","E_COORD97":166562.79000000001,"N_COORD97":2542242.2599999998,"ADDRESS":"新孝路１４８巷６３號","OBJECTID":361380},"geometry":{"x":166562.79000000097,"y":2542242.2600000035}},{"attributes":{"ID":361391,"DIS_CODE":0,"TOWNNAME":"南區","LI":"金華里","LIN":"32鄰","STREET":"新孝路","SECT":" ","MAREA":" ","LANE":"１４８巷","ALLEY":" ","HOUSE_NO":"６５號","E_COORD97":166563.76999999999,"N_COORD97":2542246.7000000002,"ADDRESS":"新孝路１４８巷６５號","OBJECTID":361381},"geometry":{"x":166563.77000000048,"y":2542246.7000000011}},{"attributes":{"ID":361392,"DIS_CODE":0,"TOWNNAME":"柳營區","LI":"八翁里","LIN":"19鄰","STREET":"仁愛路","SECT":" ","MAREA":" ","LANE":"１６１巷","ALLEY":" ","HOUSE_NO":"３６號","E_COORD97":178873.94,"N_COORD97":2575298.98,"ADDRESS":"仁愛路１６１巷３６號","OBJECTID":361382},"geometry":{"x":178873.94000000134,"y":2575298.9800000023}},{"attributes":{"ID":361393,"DIS_CODE":0,"TOWNNAME":"柳營區","LI":"八翁里","LIN":"19鄰","STREET":"仁愛路","SECT":" ","MAREA":" ","LANE":"４９巷","ALLEY":" ","HOUSE_NO":"２號","E_COORD97":179068.16,"N_COORD97":2575098.6899999999,"ADDRESS":"仁愛路４９巷２號","OBJECTID":361383},"geometry":{"x":179068.16000000015,"y":2575098.6900000032}},{"attributes":{"ID":361394,"DIS_CODE":0,"TOWNNAME":"柳營區","LI":"八翁里","LIN":"19鄰","STREET":"仁愛路","SECT":" ","MAREA":" ","LANE":"６９巷","ALLEY":" ","HOUSE_NO":"１１號","E_COORD97":179062.76000000001,"N_COORD97":2575117.3199999998,"ADDRESS":"仁愛路６９巷１１號","OBJECTID":361384},"geometry":{"x":179062.76000000071,"y":2575117.3200000003}},{"attributes":{"ID":361395,"DIS_CODE":0,"TOWNNAME":"北區","LI":"成德里","LIN":"13鄰","STREET":"育德二路","SECT":" ","MAREA":" ","LANE":" ","ALLEY":" ","HOUSE_NO":"１７１號","E_COORD97":168351.01000000001,"N_COORD97":2545650.6299999999,"ADDRESS":"育德二路１７１號","OBJECTID":361385},"geometry":{"x":168351.01000000071,"y":2545650.6300000008}},{"attributes":{"ID":361396,"DIS_CODE":0,"TOWNNAME":"北區","LI":"成德里","LIN":"13鄰","STREET":"育德二路","SECT":" ","MAREA":" ","LANE":" ","ALLEY":" ","HOUSE_NO":"１８１號","E_COORD97":168349.42000000001,"N_COORD97":2545668.9700000002,"ADDRESS":"育德二路１８１號","OBJECTID":361386},"geometry":{"x":168349.42000000179,"y":2545668.9700000007}},{"attributes":{"ID":361397,"DIS_CODE":0,"TOWNNAME":"北區","LI":"成德里","LIN":"13鄰","STREET":"育德二路","SECT":" ","MAREA":" ","LANE":" ","ALLEY":" ","HOUSE_NO":"１８３號","E_COORD97":168349.26000000001,"N_COORD97":2545674.3599999999,"ADDRESS":"育德二路１８３號","OBJECTID":361387},"geometry":{"x":168349.26000000071,"y":2545674.3599999994}},{"attributes":{"ID":361398,"DIS_CODE":0,"TOWNNAME":"北區","LI":"成德里","LIN":"13鄰","STREET":"育德二路","SECT":" ","MAREA":" ","LANE":" ","ALLEY":" ","HOUSE_NO":"１８５號","E_COORD97":168349.10000000001,"N_COORD97":2545679.7599999998,"ADDRESS":"育德二路１８５號","OBJECTID":361388},"geometry":{"x":168349.09999999963,"y":2545679.7599999998}},{"attributes":{"ID":361399,"DIS_CODE":0,"TOWNNAME":"北區","LI":"成德里","LIN":"13鄰","STREET":"育德二路","SECT":" ","MAREA":" ","LANE":" ","ALLEY":" ","HOUSE_NO":"１８７號","E_COORD97":168349.10000000001,"N_COORD97":2545685.3199999998,"ADDRESS":"育德二路１８７號","OBJECTID":361389},"geometry":{"x":168349.09999999963,"y":2545685.3200000022}},{"attributes":{"ID":361400,"DIS_CODE":0,"TOWNNAME":"關廟區","LI":"北勢里","LIN":"13鄰","STREET":"仁愛路","SECT":" ","MAREA":" ","LANE":" ","ALLEY":" ","HOUSE_NO":"２０３號","E_COORD97":181421.09,"N_COORD97":2540508.2799999998,"ADDRESS":"仁愛路２０３號","OBJECTID":361390},"geometry":{"x":181421.08999999985,"y":2540508.2799999993}},{"attributes":{"ID":361401,"DIS_CODE":0,"TOWNNAME":"關廟區","LI":"北花里","LIN":"13鄰","STREET":"中正路","SECT":" ","MAREA":" ","LANE":" ","ALLEY":" ","HOUSE_NO":"２６３號","E_COORD97":183251.16,"N_COORD97":2540862.25,"ADDRESS":"中正路２６３號","OBJECTID":361391},"geometry":{"x":183251.16000000108,"y":2540862.25}},{"attributes":{"ID":361402,"DIS_CODE":0,"TOWNNAME":"北區","LI":"開元里","LIN":"13鄰","STREET":"北園街","SECT":" ","MAREA":" ","LANE":" ","ALLEY":" ","HOUSE_NO":"１５６號","E_COORD97":170237.84,"N_COORD97":2545984.27,"ADDRESS":"北園街１５６號","OBJECTID":361392},"geometry":{"x":170237.83999999985,"y":2545984.2699999996}},{"attributes":{"ID":361403,"DIS_CODE":0,"TOWNNAME":"北區","LI":"開元里","LIN":"13鄰","STREET":"北園街","SECT":" ","MAREA":" ","LANE":" ","ALLEY":" ","HOUSE_NO":"１５８號之１","E_COORD97":170228.35000000001,"N_COORD97":2545958.0499999998,"ADDRESS":"北園街１５８號之１","OBJECTID":361393},"geometry":{"x":170228.35000000056,"y":2545958.0500000026}},{"attributes":{"ID":361404,"DIS_CODE":0,"TOWNNAME":"北區","LI":"開元里","LIN":"13鄰","STREET":"北園街","SECT":" ","MAREA":" ","LANE":" ","ALLEY":" ","HOUSE_NO":"１６０號","E_COORD97":170218,"N_COORD97":2545983.6099999999,"ADDRESS":"北園街１６０號","OBJECTID":361394},"geometry":{"x":170218,"y":2545983.6100000013}},{"attributes":{"ID":361405,"DIS_CODE":0,"TOWNNAME":"北區","LI":"開元里","LIN":"13鄰","STREET":"北園街","SECT":" ","MAREA":" ","LANE":" ","ALLEY":" ","HOUSE_NO":"１６２號","E_COORD97":170217.84,"N_COORD97":2545979.2400000002,"ADDRESS":"北園街１６２號","OBJECTID":361395},"geometry":{"x":170217.83999999892,"y":2545979.2400000039}},{"attributes":{"ID":361406,"DIS_CODE":0,"TOWNNAME":"北區","LI":"開元里","LIN":"13鄰","STREET":"北園街","SECT":" ","MAREA":" ","LANE":" ","ALLEY":" ","HOUSE_NO":"１６４號","E_COORD97":170217.76000000001,"N_COORD97":2545976.0099999998,"ADDRESS":"北園街１６４號","OBJECTID":361396},"geometry":{"x":170217.75999999978,"y":2545976.0099999998}},{"attributes":{"ID":361407,"DIS_CODE":0,"TOWNNAME":"北區","LI":"開元里","LIN":"13鄰","STREET":"北園街","SECT":" ","MAREA":" ","LANE":" ","ALLEY":" ","HOUSE_NO":"１６６號","E_COORD97":170220.26000000001,"N_COORD97":2545958.7000000002,"ADDRESS":"北園街１６６號","OBJECTID":361397},"geometry":{"x":170220.26000000071,"y":2545958.7000000011}},{"attributes":{"ID":361408,"DIS_CODE":0,"TOWNNAME":"北區","LI":"振興里","LIN":"13鄰","STREET":"長榮路","SECT":"四段","MAREA":" ","LANE":" ","ALLEY":" ","HOUSE_NO":"１５０號","E_COORD97":170230.67000000001,"N_COORD97":2545212.5699999998,"ADDRESS":"長榮路四段１５０號","OBJECTID":361398},"geometry":{"x":170230.66999999993,"y":2545212.5700000003}},{"attributes":{"ID":361409,"DIS_CODE":0,"TOWNNAME":"北區","LI":"振興里","LIN":"13鄰","STREET":"長榮路","SECT":"四段","MAREA":" ","LANE":" ","ALLEY":" ","HOUSE_NO":"１３８號","E_COORD97":170247.70999999999,"N_COORD97":2545185.0299999998,"ADDRESS":"長榮路四段１３８號","OBJECTID":361399},"geometry":{"x":170247.71000000183,"y":2545185.0299999993}},{"attributes":{"ID":361410,"DIS_CODE":0,"TOWNNAME":"南區","LI":"金華里","LIN":"32鄰","STREET":"新孝路","SECT":" ","MAREA":" ","LANE":"１４８巷","ALLEY":" ","HOUSE_NO":"７９號","E_COORD97":166575.64999999999,"N_COORD97":2542278.1299999999,"ADDRESS":"新孝路１４８巷７９號","OBJECTID":361400},"geometry":{"x":166575.6500000013,"y":2542278.129999999}}]}