{"displayFieldName":"TOWNNAME","fieldAliases":{"ID":"ID","DIS_CODE":"DIS_CODE","TOWNNAME":"TOWNNAME","LI":"LI","LIN":"LIN","STREET":"STREET","SECT":"SECT","MAREA":"MAREA","LANE":"LANE","ALLEY":"ALLEY","HOUSE_NO":"HOUSE_NO","E_COORD97":"E_COORD97","N_COORD97":"N_COORD97","ADDRESS":"ADDRESS","OBJECTID":"OBJECTID"},"geometryType":"esriGeometryPoint","spatialReference":{"wkid":102443,"latestWkid":3826},"fields":[{"name":"ID","type":"esriFieldTypeDouble","alias":"ID"},{"name":"DIS_CODE","type":"esriFieldTypeInteger","alias":"DIS_CODE"},{"name":"TOWNNAME","type":"esriFieldTypeString","alias":"TOWNNAME","length":8},{"name":"LI","type":"esriFieldTypeString","alias":"LI","length":8},{"name":"LIN","type":"esriFieldTypeString","alias":"LIN","length":12},{"name":"STREET","type":"esriFieldTypeString","alias":"STREET","length":20},{"name":"SECT","type":"esriFieldTypeString","alias":"SECT","length":8},{"name":"MAREA","type":"esriFieldTypeString","alias":"MAREA","length":12},{"name":"LANE","type":"esriFieldTypeString","alias":"LANE","length":10},{"name":"ALLEY","type":"esriFieldTypeString","alias":"ALLEY","length":10},{"name":"HOUSE_NO","type":"esriFieldTypeString","alias":"HOUSE_NO","length":20},{"name":"E_COORD97","type":"esriFieldTypeDouble","alias":"E_COORD97"},{"name":"N_COORD97","type":"esriFieldTypeDouble","alias":"N_COORD97"},{"name":"ADDRESS","type":"esriFieldTypeString","alias":"ADDRESS","length":50},{"name":"OBJECTID","type":"esriFieldTypeOID","alias":"OBJECTID"}],"features":[{"attributes":{"ID":338810,"DIS_CODE":0,"TOWNNAME":"中西區","LI":"郡西里","LIN":"1鄰","STREET":"永華路","SECT":"一段","MAREA":" ","LANE":"９８巷","ALLEY":" ","HOUSE_NO":"４號","E_COORD97":167404.73000000001,"N_COORD97":2543176.6200000001,"ADDRESS":"永華路一段９８巷４號","OBJECTID":338801},"geometry":{"x":167404.73000000045,"y":2543176.620000001}},{"attributes":{"ID":338811,"DIS_CODE":0,"TOWNNAME":"中西區","LI":"郡西里","LIN":"1鄰","STREET":"永華路","SECT":"一段","MAREA":" ","LANE":"９８巷","ALLEY":" ","HOUSE_NO":"６號","E_COORD97":167404.47,"N_COORD97":2543181.0699999998,"ADDRESS":"永華路一段９８巷６號","OBJECTID":338802},"geometry":{"x":167404.46999999974,"y":2543181.0700000022}},{"attributes":{"ID":338812,"DIS_CODE":0,"TOWNNAME":"中西區","LI":"郡西里","LIN":"1鄰","STREET":"永華路","SECT":"一段","MAREA":" ","LANE":"９８巷","ALLEY":" ","HOUSE_NO":"８號","E_COORD97":167404.38,"N_COORD97":2543184.8999999999,"ADDRESS":"永華路一段９８巷８號","OBJECTID":338803},"geometry":{"x":167404.38000000082,"y":2543184.9000000022}},{"attributes":{"ID":338813,"DIS_CODE":0,"TOWNNAME":"下營區","LI":"宅內里","LIN":"1鄰","STREET":"友愛街","SECT":" ","MAREA":" ","LANE":"１０２巷","ALLEY":" ","HOUSE_NO":"１０號","E_COORD97":174232.39000000001,"N_COORD97":2570527.0800000001,"ADDRESS":"友愛街１０２巷１０號","OBJECTID":338804},"geometry":{"x":174232.3900000006,"y":2570527.0800000019}},{"attributes":{"ID":338814,"DIS_CODE":0,"TOWNNAME":"下營區","LI":"宅內里","LIN":"1鄰","STREET":"友愛街","SECT":" ","MAREA":" ","LANE":"１０２巷","ALLEY":" ","HOUSE_NO":"６號","E_COORD97":174217.91,"N_COORD97":2570529.6600000001,"ADDRESS":"友愛街１０２巷６號","OBJECTID":338805},"geometry":{"x":174217.91000000015,"y":2570529.660000002}},{"attributes":{"ID":338815,"DIS_CODE":0,"TOWNNAME":"下營區","LI":"宅內里","LIN":"1鄰","STREET":"友愛街","SECT":" ","MAREA":" ","LANE":"６２巷","ALLEY":" ","HOUSE_NO":"１１號","E_COORD97":174252.38,"N_COORD97":2570456.8199999998,"ADDRESS":"友愛街６２巷１１號","OBJECTID":338806},"geometry":{"x":174252.38000000175,"y":2570456.8200000003}},{"attributes":{"ID":338816,"DIS_CODE":0,"TOWNNAME":"下營區","LI":"宅內里","LIN":"1鄰","STREET":"友愛街","SECT":" ","MAREA":" ","LANE":"６２巷","ALLEY":" ","HOUSE_NO":"２１號","E_COORD97":174274.04000000001,"N_COORD97":2570464.1899999999,"ADDRESS":"友愛街６２巷２１號","OBJECTID":338807},"geometry":{"x":174274.04000000097,"y":2570464.1900000032}},{"attributes":{"ID":338817,"DIS_CODE":0,"TOWNNAME":"下營區","LI":"下營里","LIN":"1鄰","STREET":"文化街","SECT":" ","MAREA":" ","LANE":"９７巷","ALLEY":" ","HOUSE_NO":"６號","E_COORD97":174728.45000000001,"N_COORD97":2570468.2200000002,"ADDRESS":"文化街９７巷６號","OBJECTID":338808},"geometry":{"x":174728.45000000205,"y":2570468.2199999988}},{"attributes":{"ID":338818,"DIS_CODE":0,"TOWNNAME":"下營區","LI":"下營里","LIN":"1鄰","STREET":"文化街","SECT":" ","MAREA":" ","LANE":"９７巷","ALLEY":" ","HOUSE_NO":"８號","E_COORD97":174718.28,"N_COORD97":2570470.9399999999,"ADDRESS":"文化街９７巷８號","OBJECTID":338809},"geometry":{"x":174718.28000000119,"y":2570470.9399999995}},{"attributes":{"ID":338819,"DIS_CODE":0,"TOWNNAME":"下營區","LI":"後街里","LIN":"1鄰","STREET":"水池街","SECT":" ","MAREA":" ","LANE":"１５巷","ALLEY":" ","HOUSE_NO":"１３號","E_COORD97":174447.45000000001,"N_COORD97":2571094.7400000002,"ADDRESS":"水池街１５巷１３號","OBJECTID":338810},"geometry":{"x":174447.45000000112,"y":2571094.7400000002}},{"attributes":{"ID":338820,"DIS_CODE":0,"TOWNNAME":"下營區","LI":"後街里","LIN":"1鄰","STREET":"水池街","SECT":" ","MAREA":" ","LANE":"１５巷","ALLEY":" ","HOUSE_NO":"１號","E_COORD97":174450.14000000001,"N_COORD97":2571069.9199999999,"ADDRESS":"水池街１５巷１號","OBJECTID":338811},"geometry":{"x":174450.13999999966,"y":2571069.9200000037}},{"attributes":{"ID":338821,"DIS_CODE":0,"TOWNNAME":"下營區","LI":"新興里","LIN":"1鄰","STREET":"自由街","SECT":" ","MAREA":" ","LANE":"３２０巷","ALLEY":" ","HOUSE_NO":"１０號","E_COORD97":174970.60000000001,"N_COORD97":2571234.96,"ADDRESS":"自由街３２０巷１０號","OBJECTID":338812},"geometry":{"x":174970.59999999963,"y":2571234.9600000009}},{"attributes":{"ID":338822,"DIS_CODE":0,"TOWNNAME":"下營區","LI":"新興里","LIN":"1鄰","STREET":"自由街","SECT":" ","MAREA":" ","LANE":"３２０巷","ALLEY":" ","HOUSE_NO":"２號","E_COORD97":174945.22,"N_COORD97":2571248.1200000001,"ADDRESS":"自由街３２０巷２號","OBJECTID":338813},"geometry":{"x":174945.22000000067,"y":2571248.120000001}},{"attributes":{"ID":338823,"DIS_CODE":0,"TOWNNAME":"下營區","LI":"新興里","LIN":"1鄰","STREET":"自由街","SECT":" ","MAREA":" ","LANE":"３２０巷","ALLEY":" ","HOUSE_NO":"３８號","E_COORD97":175037.54999999999,"N_COORD97":2571258.1299999999,"ADDRESS":"自由街３２０巷３８號","OBJECTID":338814},"geometry":{"x":175037.55000000168,"y":2571258.1300000008}},{"attributes":{"ID":338824,"DIS_CODE":0,"TOWNNAME":"下營區","LI":"新興里","LIN":"1鄰","STREET":"自由街","SECT":" ","MAREA":" ","LANE":"３２０巷","ALLEY":" ","HOUSE_NO":"５８號","E_COORD97":175074.64999999999,"N_COORD97":2571252.6699999999,"ADDRESS":"自由街３２０巷５８號","OBJECTID":338815},"geometry":{"x":175074.65000000037,"y":2571252.6700000018}},{"attributes":{"ID":338825,"DIS_CODE":0,"TOWNNAME":"下營區","LI":"新興里","LIN":"1鄰","STREET":"自由街","SECT":" ","MAREA":" ","LANE":"３２０巷","ALLEY":" ","HOUSE_NO":"６６號","E_COORD97":175089.5,"N_COORD97":2571265.9100000001,"ADDRESS":"自由街３２０巷６６號","OBJECTID":338816},"geometry":{"x":175089.50000000093,"y":2571265.9100000001}},{"attributes":{"ID":338826,"DIS_CODE":0,"TOWNNAME":"下營區","LI":"新興里","LIN":"1鄰","STREET":"東興一街","SECT":" ","MAREA":" ","LANE":"１２５巷","ALLEY":" ","HOUSE_NO":"８號","E_COORD97":174828.01000000001,"N_COORD97":2570835.79,"ADDRESS":"東興一街１２５巷８號","OBJECTID":338817},"geometry":{"x":174828.01000000071,"y":2570835.7900000028}},{"attributes":{"ID":338827,"DIS_CODE":0,"TOWNNAME":"南區","LI":"開南里","LIN":"20鄰","STREET":"新建路","SECT":" ","MAREA":" ","LANE":"３９巷","ALLEY":" ","HOUSE_NO":"１８號","E_COORD97":166573.57999999999,"N_COORD97":2541015.73,"ADDRESS":"新建路３９巷１８號","OBJECTID":338818},"geometry":{"x":166573.58000000194,"y":2541015.7299999986}},{"attributes":{"ID":338828,"DIS_CODE":0,"TOWNNAME":"南區","LI":"開南里","LIN":"20鄰","STREET":"新建路","SECT":" ","MAREA":" ","LANE":"３９巷","ALLEY":" ","HOUSE_NO":"２０號","E_COORD97":166578.09,"N_COORD97":2541016.0499999998,"ADDRESS":"新建路３９巷２０號","OBJECTID":338819},"geometry":{"x":166578.08999999985,"y":2541016.0500000007}},{"attributes":{"ID":338829,"DIS_CODE":0,"TOWNNAME":"南區","LI":"開南里","LIN":"20鄰","STREET":"新建路","SECT":" ","MAREA":" ","LANE":"３９巷","ALLEY":" ","HOUSE_NO":"２２號","E_COORD97":166591.79000000001,"N_COORD97":2541016.21,"ADDRESS":"新建路３９巷２２號","OBJECTID":338820},"geometry":{"x":166591.79000000004,"y":2541016.2100000009}},{"attributes":{"ID":338830,"DIS_CODE":0,"TOWNNAME":"南區","LI":"開南里","LIN":"20鄰","STREET":"新建路","SECT":" ","MAREA":" ","LANE":"３９巷","ALLEY":" ","HOUSE_NO":"２４號","E_COORD97":166595.98000000001,"N_COORD97":2541016.0499999998,"ADDRESS":"新建路３９巷２４號","OBJECTID":338821},"geometry":{"x":166595.98000000045,"y":2541016.0500000007}},{"attributes":{"ID":338831,"DIS_CODE":0,"TOWNNAME":"南區","LI":"開南里","LIN":"20鄰","STREET":"新建路","SECT":" ","MAREA":" ","LANE":"３９巷","ALLEY":" ","HOUSE_NO":"２６號","E_COORD97":166608.85999999999,"N_COORD97":2541015.73,"ADDRESS":"新建路３９巷２６號","OBJECTID":338822},"geometry":{"x":166608.86000000034,"y":2541015.7299999986}},{"attributes":{"ID":338832,"DIS_CODE":0,"TOWNNAME":"南區","LI":"開南里","LIN":"20鄰","STREET":"新建路","SECT":" ","MAREA":" ","LANE":"３９巷","ALLEY":" ","HOUSE_NO":"２８號","E_COORD97":166613.37,"N_COORD97":2541016.0499999998,"ADDRESS":"新建路３９巷２８號","OBJECTID":338823},"geometry":{"x":166613.37000000011,"y":2541016.0500000007}},{"attributes":{"ID":338833,"DIS_CODE":0,"TOWNNAME":"南區","LI":"開南里","LIN":"20鄰","STREET":"新建路","SECT":" ","MAREA":" ","LANE":"３９巷","ALLEY":" ","HOUSE_NO":"３０號","E_COORD97":166625.94,"N_COORD97":2541016.21,"ADDRESS":"新建路３９巷３０號","OBJECTID":338824},"geometry":{"x":166625.94000000134,"y":2541016.2100000009}},{"attributes":{"ID":338834,"DIS_CODE":0,"TOWNNAME":"南區","LI":"開南里","LIN":"20鄰","STREET":"新建路","SECT":" ","MAREA":" ","LANE":"３９巷","ALLEY":" ","HOUSE_NO":"３２號","E_COORD97":166630.76999999999,"N_COORD97":2541016.21,"ADDRESS":"新建路３９巷３２號","OBJECTID":338825},"geometry":{"x":166630.76999999955,"y":2541016.2100000009}},{"attributes":{"ID":338835,"DIS_CODE":0,"TOWNNAME":"南區","LI":"開南里","LIN":"19鄰","STREET":"新建路","SECT":" ","MAREA":" ","LANE":"３９巷","ALLEY":" ","HOUSE_NO":"４號","E_COORD97":166485.98000000001,"N_COORD97":2541016.21,"ADDRESS":"新建路３９巷４號","OBJECTID":338826},"geometry":{"x":166485.98000000045,"y":2541016.2100000009}},{"attributes":{"ID":338836,"DIS_CODE":0,"TOWNNAME":"將軍區","LI":"嘉昌里","LIN":"18鄰","STREET":" ","SECT":" ","MAREA":"昌平","LANE":" ","ALLEY":" ","HOUSE_NO":"５５號","E_COORD97":163521.32000000001,"N_COORD97":2567385.8799999999,"ADDRESS":"昌平５５號","OBJECTID":338827},"geometry":{"x":163521.32000000123,"y":2567385.879999999}},{"attributes":{"ID":338837,"DIS_CODE":0,"TOWNNAME":"東區","LI":"龍山里","LIN":"5鄰","STREET":"崇仁街","SECT":" ","MAREA":" ","LANE":"６６巷","ALLEY":" ","HOUSE_NO":"７號十二樓","E_COORD97":170322.06,"N_COORD97":2542709.3700000001,"ADDRESS":"崇仁街６６巷７號十二樓","OBJECTID":338828},"geometry":{"x":170322.06000000052,"y":2542709.370000001}},{"attributes":{"ID":338838,"DIS_CODE":0,"TOWNNAME":"永康區","LI":"正強里","LIN":"20鄰","STREET":"中山南路","SECT":" ","MAREA":" ","LANE":"４７１巷","ALLEY":" ","HOUSE_NO":"２１號","E_COORD97":173136.51000000001,"N_COORD97":2547164.5699999998,"ADDRESS":"中山南路４７１巷２１號","OBJECTID":338829},"geometry":{"x":173136.51000000071,"y":2547164.5700000022}},{"attributes":{"ID":338839,"DIS_CODE":0,"TOWNNAME":"南區","LI":"開南里","LIN":"19鄰","STREET":"新建路","SECT":" ","MAREA":" ","LANE":"３９巷","ALLEY":" ","HOUSE_NO":"６號","E_COORD97":166498.70000000001,"N_COORD97":2541015.8900000001,"ADDRESS":"新建路３９巷６號","OBJECTID":338830},"geometry":{"x":166498.70000000112,"y":2541015.8900000025}},{"attributes":{"ID":338840,"DIS_CODE":0,"TOWNNAME":"東區","LI":"大同里","LIN":"8鄰","STREET":"樹林街","SECT":"一段","MAREA":" ","LANE":" ","ALLEY":" ","HOUSE_NO":"２１７號","E_COORD97":169191.26999999999,"N_COORD97":2542995.9700000002,"ADDRESS":"樹林街一段２１７號","OBJECTID":338831},"geometry":{"x":169191.27000000048,"y":2542995.9700000025}},{"attributes":{"ID":338841,"DIS_CODE":0,"TOWNNAME":"東區","LI":"大同里","LIN":"8鄰","STREET":"樹林街","SECT":"一段","MAREA":" ","LANE":" ","ALLEY":" ","HOUSE_NO":"２１９號","E_COORD97":169185.19,"N_COORD97":2542995.9700000002,"ADDRESS":"樹林街一段２１９號","OBJECTID":338832},"geometry":{"x":169185.19000000041,"y":2542995.9700000025}},{"attributes":{"ID":338842,"DIS_CODE":0,"TOWNNAME":"永康區","LI":"\u25A0洲里","LIN":"14鄰","STREET":"\u25A0洲一街","SECT":" ","MAREA":" ","LANE":" ","ALLEY":" ","HOUSE_NO":"４２號","E_COORD97":171558.88,"N_COORD97":2549018,"ADDRESS":"\u25A0洲一街４２號","OBJECTID":338833},"geometry":{"x":171558.88000000082,"y":2549018}},{"attributes":{"ID":338843,"DIS_CODE":0,"TOWNNAME":"南區","LI":"開南里","LIN":"19鄰","STREET":"新建路","SECT":" ","MAREA":" ","LANE":"３９巷","ALLEY":" ","HOUSE_NO":"８號","E_COORD97":166503.20999999999,"N_COORD97":2541015.8900000001,"ADDRESS":"新建路３９巷８號","OBJECTID":338834},"geometry":{"x":166503.21000000183,"y":2541015.8900000025}},{"attributes":{"ID":338844,"DIS_CODE":0,"TOWNNAME":"歸仁區","LI":"看東里","LIN":"14鄰","STREET":"忠孝南路","SECT":" ","MAREA":" ","LANE":"２５巷","ALLEY":" ","HOUSE_NO":"３號","E_COORD97":178543.76000000001,"N_COORD97":2540567.6400000001,"ADDRESS":"忠孝南路２５巷３號","OBJECTID":338835},"geometry":{"x":178543.76000000071,"y":2540567.6400000006}},{"attributes":{"ID":338845,"DIS_CODE":0,"TOWNNAME":"永康區","LI":"復華里","LIN":"1鄰","STREET":"復國二路","SECT":" ","MAREA":" ","LANE":"２７４巷","ALLEY":" ","HOUSE_NO":"５號","E_COORD97":173052.01000000001,"N_COORD97":2546068.4399999999,"ADDRESS":"復國二路２７４巷５號","OBJECTID":338836},"geometry":{"x":173052.00999999978,"y":2546068.4400000032}},{"attributes":{"ID":338846,"DIS_CODE":0,"TOWNNAME":"永康區","LI":"烏竹里","LIN":"1鄰","STREET":"烏竹北街","SECT":" ","MAREA":" ","LANE":"９８巷","ALLEY":" ","HOUSE_NO":"１７號","E_COORD97":174451.10000000001,"N_COORD97":2549561.5,"ADDRESS":"烏竹北街９８巷１７號","OBJECTID":338837},"geometry":{"x":174451.10000000056,"y":2549561.5000000019}},{"attributes":{"ID":338847,"DIS_CODE":0,"TOWNNAME":"永康區","LI":"復國里","LIN":"1鄰","STREET":"復國二路","SECT":" ","MAREA":" ","LANE":"１０巷","ALLEY":" ","HOUSE_NO":"６號","E_COORD97":172849.66,"N_COORD97":2544752.4500000002,"ADDRESS":"復國二路１０巷６號","OBJECTID":338838},"geometry":{"x":172849.66000000015,"y":2544752.4499999993}},{"attributes":{"ID":338848,"DIS_CODE":0,"TOWNNAME":"永康區","LI":"神洲里","LIN":"1鄰","STREET":"忠孝路","SECT":" ","MAREA":" ","LANE":"６巷","ALLEY":" ","HOUSE_NO":"１２號","E_COORD97":172136.66,"N_COORD97":2544568.5,"ADDRESS":"忠孝路６巷１２號","OBJECTID":338839},"geometry":{"x":172136.65999999922,"y":2544568.5}},{"attributes":{"ID":338849,"DIS_CODE":0,"TOWNNAME":"永康區","LI":"復華里","LIN":"1鄰","STREET":"復國二路","SECT":" ","MAREA":" ","LANE":"２１０巷","ALLEY":" ","HOUSE_NO":"９號","E_COORD97":172988.09,"N_COORD97":2545840.5899999999,"ADDRESS":"復國二路２１０巷９號","OBJECTID":338840},"geometry":{"x":172988.09000000078,"y":2545840.5900000036}},{"attributes":{"ID":338850,"DIS_CODE":0,"TOWNNAME":"永康區","LI":"烏竹里","LIN":"1鄰","STREET":"烏竹北街","SECT":" ","MAREA":" ","LANE":"９８巷","ALLEY":" ","HOUSE_NO":"７號","E_COORD97":174449.87,"N_COORD97":2549516.8900000001,"ADDRESS":"烏竹北街９８巷７號","OBJECTID":338841},"geometry":{"x":174449.87000000104,"y":2549516.8900000006}},{"attributes":{"ID":338851,"DIS_CODE":0,"TOWNNAME":"永康區","LI":"網寮里","LIN":"24鄰","STREET":"永春街","SECT":" ","MAREA":" ","LANE":"３８巷","ALLEY":" ","HOUSE_NO":"２６號","E_COORD97":173802.01000000001,"N_COORD97":2546437.71,"ADDRESS":"永春街３８巷２６號","OBJECTID":338842},"geometry":{"x":173802.01000000164,"y":2546437.7100000046}},{"attributes":{"ID":338852,"DIS_CODE":0,"TOWNNAME":"東區","LI":"大同里","LIN":"8鄰","STREET":"樹林街","SECT":"一段","MAREA":" ","LANE":" ","ALLEY":" ","HOUSE_NO":"２２１號","E_COORD97":169179.67000000001,"N_COORD97":2542994.1800000002,"ADDRESS":"樹林街一段２２１號","OBJECTID":338843},"geometry":{"x":169179.66999999993,"y":2542994.1799999997}},{"attributes":{"ID":338853,"DIS_CODE":0,"TOWNNAME":"永康區","LI":"永康里","LIN":" ","STREET":"中山北路","SECT":" ","MAREA":" ","LANE":" ","ALLEY":" ","HOUSE_NO":"４號","E_COORD97":173867.41,"N_COORD97":2547340,"ADDRESS":"中山北路４號","OBJECTID":338844},"geometry":{"x":173867.40999999922,"y":2547340.0000000037}},{"attributes":{"ID":338854,"DIS_CODE":0,"TOWNNAME":"東區","LI":"龍山里","LIN":"5鄰","STREET":"崇仁街","SECT":" ","MAREA":" ","LANE":"６６巷","ALLEY":" ","HOUSE_NO":"２０號四樓","E_COORD97":170286.81,"N_COORD97":2542687.71,"ADDRESS":"崇仁街６６巷２０號四樓","OBJECTID":338845},"geometry":{"x":170286.80999999959,"y":2542687.709999999}},{"attributes":{"ID":338855,"DIS_CODE":0,"TOWNNAME":"永康區","LI":"烏竹里","LIN":"1鄰","STREET":"烏竹北街","SECT":" ","MAREA":" ","LANE":"９８巷","ALLEY":" ","HOUSE_NO":"３３號","E_COORD97":174490.31,"N_COORD97":2549573.4900000002,"ADDRESS":"烏竹北街９８巷３３號","OBJECTID":338846},"geometry":{"x":174490.31000000052,"y":2549573.4900000002}},{"attributes":{"ID":338856,"DIS_CODE":0,"TOWNNAME":"永康區","LI":"中華里","LIN":"1鄰","STREET":"小東路","SECT":" ","MAREA":" ","LANE":"６８５巷","ALLEY":" ","HOUSE_NO":"６號之２９","E_COORD97":172052.28,"N_COORD97":2544383.3599999999,"ADDRESS":"小東路６８５巷６號之２９","OBJECTID":338847},"geometry":{"x":172052.28000000026,"y":2544383.3599999994}},{"attributes":{"ID":338857,"DIS_CODE":0,"TOWNNAME":"永康區","LI":"復華里","LIN":"1鄰","STREET":"復國二路","SECT":" ","MAREA":" ","LANE":"２４４巷","ALLEY":" ","HOUSE_NO":"１２號","E_COORD97":173029.14000000001,"N_COORD97":2545909.2799999998,"ADDRESS":"復國二路２４４巷１２號","OBJECTID":338848},"geometry":{"x":173029.13999999966,"y":2545909.2799999993}},{"attributes":{"ID":338858,"DIS_CODE":0,"TOWNNAME":"永康區","LI":"龍潭里","LIN":"1鄰","STREET":"龍國街","SECT":" ","MAREA":" ","LANE":"３３０巷","ALLEY":" ","HOUSE_NO":"１號","E_COORD97":174657.73999999999,"N_COORD97":2547981.2999999998,"ADDRESS":"龍國街３３０巷１號","OBJECTID":338849},"geometry":{"x":174657.74000000115,"y":2547981.3000000007}},{"attributes":{"ID":338859,"DIS_CODE":0,"TOWNNAME":"永康區","LI":"新樹里","LIN":"1鄰","STREET":"富強路","SECT":"二段","MAREA":" ","LANE":"１８９巷","ALLEY":" ","HOUSE_NO":"１６３號","E_COORD97":175231.85999999999,"N_COORD97":2547188.8100000001,"ADDRESS":"富強路二段１８９巷１６３號","OBJECTID":338850},"geometry":{"x":175231.86000000034,"y":2547188.8100000005}},{"attributes":{"ID":338860,"DIS_CODE":0,"TOWNNAME":"永康區","LI":"網寮里","LIN":"1鄰","STREET":"永二街","SECT":" ","MAREA":" ","LANE":"８９巷","ALLEY":" ","HOUSE_NO":"２５號","E_COORD97":173668.89999999999,"N_COORD97":2546558.7799999998,"ADDRESS":"永二街８９巷２５號","OBJECTID":338851},"geometry":{"x":173668.90000000037,"y":2546558.7800000012}},{"attributes":{"ID":338861,"DIS_CODE":0,"TOWNNAME":"東區","LI":"崇學里","LIN":"1鄰","STREET":"崇學路","SECT":" ","MAREA":" ","LANE":"９６巷","ALLEY":" ","HOUSE_NO":"２６號","E_COORD97":170378.60999999999,"N_COORD97":2542113.0600000001,"ADDRESS":"崇學路９６巷２６號","OBJECTID":338852},"geometry":{"x":170378.61000000034,"y":2542113.0600000024}},{"attributes":{"ID":338862,"DIS_CODE":0,"TOWNNAME":"東區","LI":"崇學里","LIN":"1鄰","STREET":"崇學路","SECT":" ","MAREA":" ","LANE":"９６巷","ALLEY":" ","HOUSE_NO":"２８號","E_COORD97":170382,"N_COORD97":2542110.29,"ADDRESS":"崇學路９６巷２８號","OBJECTID":338853},"geometry":{"x":170382.00000000093,"y":2542110.290000001}},{"attributes":{"ID":338863,"DIS_CODE":0,"TOWNNAME":"東區","LI":"崇學里","LIN":"1鄰","STREET":"崇學路","SECT":" ","MAREA":" ","LANE":"９６巷","ALLEY":" ","HOUSE_NO":"３０號","E_COORD97":170385.39000000001,"N_COORD97":2542108.5899999999,"ADDRESS":"崇學路９６巷３０號","OBJECTID":338854},"geometry":{"x":170385.3900000006,"y":2542108.5900000017}},{"attributes":{"ID":338864,"DIS_CODE":0,"TOWNNAME":"東區","LI":"崇學里","LIN":"1鄰","STREET":"崇學路","SECT":" ","MAREA":" ","LANE":"９６巷","ALLEY":" ","HOUSE_NO":"３２號","E_COORD97":170388.62,"N_COORD97":2542105.98,"ADDRESS":"崇學路９６巷３２號","OBJECTID":338855},"geometry":{"x":170388.62000000011,"y":2542105.9800000042}},{"attributes":{"ID":338865,"DIS_CODE":0,"TOWNNAME":"東區","LI":"崇學里","LIN":"1鄰","STREET":"崇學路","SECT":" ","MAREA":" ","LANE":"９６巷","ALLEY":" ","HOUSE_NO":"３４號","E_COORD97":170391.23999999999,"N_COORD97":2542102.4399999999,"ADDRESS":"崇學路９６巷３４號","OBJECTID":338856},"geometry":{"x":170391.24000000022,"y":2542102.4400000013}},{"attributes":{"ID":338866,"DIS_CODE":0,"TOWNNAME":"東區","LI":"崇學里","LIN":"1鄰","STREET":"崇學路","SECT":" ","MAREA":" ","LANE":"９６巷","ALLEY":" ","HOUSE_NO":"３６號","E_COORD97":170394.47,"N_COORD97":2542100.29,"ADDRESS":"崇學路９６巷３６號","OBJECTID":338857},"geometry":{"x":170394.46999999974,"y":2542100.290000001}},{"attributes":{"ID":338867,"DIS_CODE":0,"TOWNNAME":"東區","LI":"崇學里","LIN":"1鄰","STREET":"崇學路","SECT":" ","MAREA":" ","LANE":"９６巷","ALLEY":" ","HOUSE_NO":"３８號","E_COORD97":170399.54999999999,"N_COORD97":2542099.21,"ADDRESS":"崇學路９６巷３８號","OBJECTID":338858},"geometry":{"x":170399.55000000168,"y":2542099.2100000028}},{"attributes":{"ID":338868,"DIS_CODE":0,"TOWNNAME":"東區","LI":"崇學里","LIN":"1鄰","STREET":"崇學路","SECT":" ","MAREA":" ","LANE":"９６巷","ALLEY":" ","HOUSE_NO":"４０號","E_COORD97":170402.29999999999,"N_COORD97":2542096.29,"ADDRESS":"崇學路９６巷４０號","OBJECTID":338859},"geometry":{"x":170402.29999999981,"y":2542096.290000001}},{"attributes":{"ID":338869,"DIS_CODE":0,"TOWNNAME":"東區","LI":"崇學里","LIN":"1鄰","STREET":"崇學路","SECT":" ","MAREA":" ","LANE":"９６巷","ALLEY":" ","HOUSE_NO":"４２號","E_COORD97":170405.69,"N_COORD97":2542093.0600000001,"ADDRESS":"崇學路９６巷４２號","OBJECTID":338860},"geometry":{"x":170405.69000000041,"y":2542093.0600000024}},{"attributes":{"ID":338870,"DIS_CODE":0,"TOWNNAME":"東區","LI":"崇學里","LIN":"1鄰","STREET":"崇學路","SECT":" ","MAREA":" ","LANE":"９６巷","ALLEY":" ","HOUSE_NO":"４４號","E_COORD97":170408.60999999999,"N_COORD97":2542090.6000000001,"ADDRESS":"崇學路９６巷４４號","OBJECTID":338861},"geometry":{"x":170408.61000000127,"y":2542090.6000000034}},{"attributes":{"ID":338871,"DIS_CODE":0,"TOWNNAME":"東區","LI":"崇學里","LIN":"1鄰","STREET":"崇學路","SECT":" ","MAREA":" ","LANE":"９６巷","ALLEY":" ","HOUSE_NO":"４６號","E_COORD97":170411.69,"N_COORD97":2542087.98,"ADDRESS":"崇學路９６巷４６號","OBJECTID":338862},"geometry":{"x":170411.69000000134,"y":2542087.9800000004}},{"attributes":{"ID":338872,"DIS_CODE":0,"TOWNNAME":"東區","LI":"崇學里","LIN":"1鄰","STREET":"崇學路","SECT":" ","MAREA":" ","LANE":"９６巷","ALLEY":" ","HOUSE_NO":"４８號","E_COORD97":170399.84,"N_COORD97":2542081.3700000001,"ADDRESS":"崇學路９６巷４８號","OBJECTID":338863},"geometry":{"x":170399.84000000078,"y":2542081.3700000029}},{"attributes":{"ID":338873,"DIS_CODE":0,"TOWNNAME":"東區","LI":"崇學里","LIN":"1鄰","STREET":"崇學路","SECT":" ","MAREA":" ","LANE":"９６巷","ALLEY":" ","HOUSE_NO":"５０號","E_COORD97":170398.10999999999,"N_COORD97":2542077.3999999999,"ADDRESS":"崇學路９６巷５０號","OBJECTID":338864},"geometry":{"x":170398.1100000022,"y":2542077.4000000022}},{"attributes":{"ID":338874,"DIS_CODE":0,"TOWNNAME":"東區","LI":"崇學里","LIN":"1鄰","STREET":"崇學路","SECT":" ","MAREA":" ","LANE":"９６巷","ALLEY":" ","HOUSE_NO":"５２號","E_COORD97":170395.42999999999,"N_COORD97":2542073.8599999999,"ADDRESS":"崇學路９６巷５２號","OBJECTID":338865},"geometry":{"x":170395.43000000063,"y":2542073.8599999994}},{"attributes":{"ID":338875,"DIS_CODE":0,"TOWNNAME":"歸仁區","LI":"辜厝里","LIN":"44鄰","STREET":"中正八街","SECT":" ","MAREA":" ","LANE":"１２巷","ALLEY":" ","HOUSE_NO":"２號","E_COORD97":177172.59,"N_COORD97":2540276.9500000002,"ADDRESS":"中正八街１２巷２號","OBJECTID":338866},"geometry":{"x":177172.58999999985,"y":2540276.9499999993}},{"attributes":{"ID":338876,"DIS_CODE":0,"TOWNNAME":"歸仁區","LI":"許厝里","LIN":"3鄰","STREET":"仁愛一街","SECT":" ","MAREA":" ","LANE":"１２巷","ALLEY":" ","HOUSE_NO":"２０號","E_COORD97":178331.56,"N_COORD97":2540578.8999999999,"ADDRESS":"仁愛一街１２巷２０號","OBJECTID":338867},"geometry":{"x":178331.56000000052,"y":2540578.9000000022}},{"attributes":{"ID":338877,"DIS_CODE":0,"TOWNNAME":"歸仁區","LI":"許厝里","LIN":"24鄰","STREET":"大仁街","SECT":" ","MAREA":" ","LANE":"１２６巷","ALLEY":" ","HOUSE_NO":"３９號","E_COORD97":178225.01999999999,"N_COORD97":2540900.1099999999,"ADDRESS":"大仁街１２６巷３９號","OBJECTID":338868},"geometry":{"x":178225.02000000048,"y":2540900.1099999975}},{"attributes":{"ID":338878,"DIS_CODE":0,"TOWNNAME":"麻豆區","LI":"巷口里","LIN":"1鄰","STREET":"興南路","SECT":" ","MAREA":" ","LANE":"３８巷","ALLEY":" ","HOUSE_NO":"４號","E_COORD97":173148.17999999999,"N_COORD97":2564686.2799999998,"ADDRESS":"興南路３８巷４號","OBJECTID":338869},"geometry":{"x":173148.18000000156,"y":2564686.2800000012}},{"attributes":{"ID":338879,"DIS_CODE":0,"TOWNNAME":"東區","LI":"大同里","LIN":"8鄰","STREET":"樹林街","SECT":"一段","MAREA":" ","LANE":" ","ALLEY":" ","HOUSE_NO":"２２５號","E_COORD97":169170.26999999999,"N_COORD97":2542992.7999999998,"ADDRESS":"樹林街一段２２５號","OBJECTID":338870},"geometry":{"x":169170.26999999955,"y":2542992.8000000026}},{"attributes":{"ID":338880,"DIS_CODE":0,"TOWNNAME":"東區","LI":"龍山里","LIN":"5鄰","STREET":"崇仁街","SECT":" ","MAREA":" ","LANE":"６６巷","ALLEY":" ","HOUSE_NO":"２８號五樓","E_COORD97":170265.17000000001,"N_COORD97":2542660.5899999999,"ADDRESS":"崇仁街６６巷２８號五樓","OBJECTID":338871},"geometry":{"x":170265.17000000086,"y":2542660.5900000036}},{"attributes":{"ID":338881,"DIS_CODE":0,"TOWNNAME":"麻豆區","LI":"巷口里","LIN":"1鄰","STREET":"興南路","SECT":" ","MAREA":" ","LANE":"３８巷","ALLEY":" ","HOUSE_NO":"５號之１","E_COORD97":173147.92999999999,"N_COORD97":2564679.79,"ADDRESS":"興南路３８巷５號之１","OBJECTID":338872},"geometry":{"x":173147.9299999997,"y":2564679.790000001}},{"attributes":{"ID":338882,"DIS_CODE":0,"TOWNNAME":"麻豆區","LI":"巷口里","LIN":"1鄰","STREET":"興南路","SECT":" ","MAREA":" ","LANE":"３８巷","ALLEY":" ","HOUSE_NO":"５號之２","E_COORD97":173147.95999999999,"N_COORD97":2564681.8700000001,"ADDRESS":"興南路３８巷５號之２","OBJECTID":338873},"geometry":{"x":173147.95999999996,"y":2564681.8700000029}},{"attributes":{"ID":338883,"DIS_CODE":0,"TOWNNAME":"麻豆區","LI":"巷口里","LIN":"1鄰","STREET":"興南路","SECT":" ","MAREA":" ","LANE":"３８巷","ALLEY":" ","HOUSE_NO":"５號之３","E_COORD97":173148.01999999999,"N_COORD97":2564684.0099999998,"ADDRESS":"興南路３８巷５號之３","OBJECTID":338874},"geometry":{"x":173148.02000000048,"y":2564684.0099999998}},{"attributes":{"ID":338884,"DIS_CODE":0,"TOWNNAME":"麻豆區","LI":"巷口里","LIN":"1鄰","STREET":"興南路","SECT":" ","MAREA":" ","LANE":"３８巷","ALLEY":" ","HOUSE_NO":"５號","E_COORD97":173147.76999999999,"N_COORD97":2564678.1600000001,"ADDRESS":"興南路３８巷５號","OBJECTID":338875},"geometry":{"x":173147.77000000048,"y":2564678.160000002}},{"attributes":{"ID":338885,"DIS_CODE":0,"TOWNNAME":"麻豆區","LI":"巷口里","LIN":"1鄰","STREET":"興南路","SECT":" ","MAREA":" ","LANE":"３８巷","ALLEY":" ","HOUSE_NO":"６號之１","E_COORD97":173147.42000000001,"N_COORD97":2564671.3799999999,"ADDRESS":"興南路３８巷６號之１","OBJECTID":338876},"geometry":{"x":173147.42000000086,"y":2564671.3800000027}},{"attributes":{"ID":338886,"DIS_CODE":0,"TOWNNAME":"麻豆區","LI":"巷口里","LIN":"1鄰","STREET":"興南路","SECT":" ","MAREA":" ","LANE":"３８巷","ALLEY":" ","HOUSE_NO":"６號之２","E_COORD97":173147.41,"N_COORD97":2564673.3100000001,"ADDRESS":"興南路３８巷６號之２","OBJECTID":338877},"geometry":{"x":173147.41000000108,"y":2564673.3099999987}},{"attributes":{"ID":338887,"DIS_CODE":0,"TOWNNAME":"麻豆區","LI":"巷口里","LIN":"1鄰","STREET":"興南路","SECT":" ","MAREA":" ","LANE":"３８巷","ALLEY":" ","HOUSE_NO":"６號之３","E_COORD97":173147.39999999999,"N_COORD97":2564675.25,"ADDRESS":"興南路３８巷６號之３","OBJECTID":338878},"geometry":{"x":173147.40000000224,"y":2564675.25}},{"attributes":{"ID":338888,"DIS_CODE":0,"TOWNNAME":"麻豆區","LI":"巷口里","LIN":"1鄰","STREET":"興南路","SECT":" ","MAREA":" ","LANE":"３８巷","ALLEY":" ","HOUSE_NO":"６號","E_COORD97":173147.54000000001,"N_COORD97":2564669.5800000001,"ADDRESS":"興南路３８巷６號","OBJECTID":338879},"geometry":{"x":173147.54000000004,"y":2564669.5800000001}},{"attributes":{"ID":338889,"DIS_CODE":0,"TOWNNAME":"麻豆區","LI":"巷口里","LIN":"1鄰","STREET":"興南路","SECT":" ","MAREA":" ","LANE":"３８巷","ALLEY":" ","HOUSE_NO":"７號之２","E_COORD97":173147.57000000001,"N_COORD97":2564665.1200000001,"ADDRESS":"興南路３８巷７號之２","OBJECTID":338880},"geometry":{"x":173147.5700000003,"y":2564665.1200000048}},{"attributes":{"ID":338890,"DIS_CODE":0,"TOWNNAME":"麻豆區","LI":"巷口里","LIN":"1鄰","STREET":"興南路","SECT":" ","MAREA":" ","LANE":"３８巷","ALLEY":" ","HOUSE_NO":"７號之３","E_COORD97":173147.60999999999,"N_COORD97":2564667.04,"ADDRESS":"興南路３８巷７號之３","OBJECTID":338881},"geometry":{"x":173147.6100000022,"y":2564667.0400000028}},{"attributes":{"ID":338891,"DIS_CODE":0,"TOWNNAME":"麻豆區","LI":"巷口里","LIN":"1鄰","STREET":"興南路","SECT":" ","MAREA":" ","LANE":"３８巷","ALLEY":" ","HOUSE_NO":"７號","E_COORD97":173147.32999999999,"N_COORD97":2564661.4300000002,"ADDRESS":"興南路３８巷７號","OBJECTID":338882},"geometry":{"x":173147.33000000007,"y":2564661.4299999978}},{"attributes":{"ID":338892,"DIS_CODE":0,"TOWNNAME":"麻豆區","LI":"巷口里","LIN":"1鄰","STREET":"興南路","SECT":" ","MAREA":" ","LANE":"３８巷","ALLEY":" ","HOUSE_NO":"８號之１","E_COORD97":173147.70999999999,"N_COORD97":2564655.0499999998,"ADDRESS":"興南路３８巷８號之１","OBJECTID":338883},"geometry":{"x":173147.70999999996,"y":2564655.0500000045}},{"attributes":{"ID":338893,"DIS_CODE":0,"TOWNNAME":"麻豆區","LI":"巷口里","LIN":"1鄰","STREET":"興南路","SECT":" ","MAREA":" ","LANE":"３８巷","ALLEY":" ","HOUSE_NO":"８號之２","E_COORD97":173147.63,"N_COORD97":2564657.02,"ADDRESS":"興南路３８巷８號之２","OBJECTID":338884},"geometry":{"x":173147.63000000082,"y":2564657.0199999996}},{"attributes":{"ID":338894,"DIS_CODE":0,"TOWNNAME":"麻豆區","LI":"巷口里","LIN":"1鄰","STREET":"興南路","SECT":" ","MAREA":" ","LANE":"３８巷","ALLEY":" ","HOUSE_NO":"８號之３","E_COORD97":173147.85999999999,"N_COORD97":2564658.98,"ADDRESS":"興南路３８巷８號之３","OBJECTID":338885},"geometry":{"x":173147.86000000127,"y":2564658.9800000023}},{"attributes":{"ID":338895,"DIS_CODE":0,"TOWNNAME":"麻豆區","LI":"巷口里","LIN":"1鄰","STREET":"興南路","SECT":" ","MAREA":" ","LANE":"３８巷","ALLEY":" ","HOUSE_NO":"８號","E_COORD97":173147.66,"N_COORD97":2564652.9900000002,"ADDRESS":"興南路３８巷８號","OBJECTID":338886},"geometry":{"x":173147.66000000108,"y":2564652.9900000021}},{"attributes":{"ID":338896,"DIS_CODE":0,"TOWNNAME":"麻豆區","LI":"巷口里","LIN":"1鄰","STREET":"興南路","SECT":" ","MAREA":" ","LANE":"３８巷","ALLEY":" ","HOUSE_NO":"９號之１","E_COORD97":173147.28,"N_COORD97":2564646.52,"ADDRESS":"興南路３８巷９號之１","OBJECTID":338887},"geometry":{"x":173147.28000000026,"y":2564646.5199999996}},{"attributes":{"ID":338897,"DIS_CODE":0,"TOWNNAME":"麻豆區","LI":"巷口里","LIN":"1鄰","STREET":"興南路","SECT":" ","MAREA":" ","LANE":"３８巷","ALLEY":" ","HOUSE_NO":"９號之２","E_COORD97":173147.26000000001,"N_COORD97":2564648.54,"ADDRESS":"興南路３８巷９號之２","OBJECTID":338888},"geometry":{"x":173147.25999999978,"y":2564648.5399999991}},{"attributes":{"ID":338898,"DIS_CODE":0,"TOWNNAME":"麻豆區","LI":"巷口里","LIN":"1鄰","STREET":"興南路","SECT":" ","MAREA":" ","LANE":"３８巷","ALLEY":" ","HOUSE_NO":"９號之３","E_COORD97":173147.51000000001,"N_COORD97":2564650.77,"ADDRESS":"興南路３８巷９號之３","OBJECTID":338889},"geometry":{"x":173147.50999999978,"y":2564650.7699999996}},{"attributes":{"ID":338899,"DIS_CODE":0,"TOWNNAME":"麻豆區","LI":"巷口里","LIN":"1鄰","STREET":"興南路","SECT":" ","MAREA":" ","LANE":"３８巷","ALLEY":" ","HOUSE_NO":"９號","E_COORD97":173147.26999999999,"N_COORD97":2564644.8300000001,"ADDRESS":"興南路３８巷９號","OBJECTID":338890},"geometry":{"x":173147.26999999862,"y":2564644.8300000001}},{"attributes":{"ID":338900,"DIS_CODE":0,"TOWNNAME":"歸仁區","LI":"看西里","LIN":"13鄰","STREET":"仁愛南街","SECT":" ","MAREA":" ","LANE":"２３５巷","ALLEY":" ","HOUSE_NO":"１２號","E_COORD97":178319.51000000001,"N_COORD97":2540125.1200000001,"ADDRESS":"仁愛南街２３５巷１２號","OBJECTID":338891},"geometry":{"x":178319.50999999978,"y":2540125.120000001}},{"attributes":{"ID":338901,"DIS_CODE":0,"TOWNNAME":"歸仁區","LI":"崙頂里","LIN":"21鄰","STREET":"大成路","SECT":" ","MAREA":" ","LANE":"２０６巷","ALLEY":" ","HOUSE_NO":"３３號","E_COORD97":177693.23999999999,"N_COORD97":2540072.48,"ADDRESS":"大成路２０６巷３３號","OBJECTID":338892},"geometry":{"x":177693.24000000209,"y":2540072.4800000023}},{"attributes":{"ID":338902,"DIS_CODE":0,"TOWNNAME":"歸仁區","LI":"看西里","LIN":"23鄰","STREET":"凱旋路","SECT":"一段","MAREA":" ","LANE":"２１０巷","ALLEY":" ","HOUSE_NO":"３６號","E_COORD97":178409.81,"N_COORD97":2539792.3700000001,"ADDRESS":"凱旋路一段２１０巷３６號","OBJECTID":338893},"geometry":{"x":178409.81000000052,"y":2539792.3700000029}},{"attributes":{"ID":338903,"DIS_CODE":0,"TOWNNAME":"歸仁區","LI":"看西里","LIN":"8鄰","STREET":"信義南路","SECT":" ","MAREA":" ","LANE":"１８７巷","ALLEY":" ","HOUSE_NO":"６之１號","E_COORD97":178173.66,"N_COORD97":2540224.4900000002,"ADDRESS":"信義南路１８７巷６之１號","OBJECTID":338894},"geometry":{"x":178173.66000000108,"y":2540224.4900000021}},{"attributes":{"ID":338904,"DIS_CODE":0,"TOWNNAME":"歸仁區","LI":"崙頂里","LIN":"6鄰","STREET":"信義南路","SECT":" ","MAREA":" ","LANE":"２０２巷","ALLEY":" ","HOUSE_NO":"１７號","E_COORD97":178086.25,"N_COORD97":2540055.6800000002,"ADDRESS":"信義南路２０２巷１７號","OBJECTID":338895},"geometry":{"x":178086.25000000093,"y":2540055.6799999997}},{"attributes":{"ID":338905,"DIS_CODE":0,"TOWNNAME":"歸仁區","LI":"看東里","LIN":"1鄰","STREET":"忠孝南路","SECT":" ","MAREA":" ","LANE":"６０巷","ALLEY":" ","HOUSE_NO":"１４號","E_COORD97":178456.04999999999,"N_COORD97":2540511.6699999999,"ADDRESS":"忠孝南路６０巷１４號","OBJECTID":338896},"geometry":{"x":178456.04999999981,"y":2540511.6700000018}},{"attributes":{"ID":338906,"DIS_CODE":0,"TOWNNAME":"安南區","LI":"新順里","LIN":"1鄰","STREET":"培安二街","SECT":" ","MAREA":" ","LANE":"１４巷","ALLEY":" ","HOUSE_NO":"６號","E_COORD97":169425.92999999999,"N_COORD97":2549624.0299999998,"ADDRESS":"培安二街１４巷６號","OBJECTID":338897},"geometry":{"x":169425.93000000063,"y":2549624.0299999975}},{"attributes":{"ID":338907,"DIS_CODE":0,"TOWNNAME":"歸仁區","LI":"許厝里","LIN":"4鄰","STREET":"仁愛一街","SECT":" ","MAREA":" ","LANE":"１２巷","ALLEY":" ","HOUSE_NO":"１１號","E_COORD97":178345.73999999999,"N_COORD97":2540588.73,"ADDRESS":"仁愛一街１２巷１１號","OBJECTID":338898},"geometry":{"x":178345.74000000209,"y":2540588.7300000042}},{"attributes":{"ID":338908,"DIS_CODE":0,"TOWNNAME":"東區","LI":"大同里","LIN":"8鄰","STREET":"樹林街","SECT":"一段","MAREA":" ","LANE":" ","ALLEY":" ","HOUSE_NO":"２２７號","E_COORD97":169165.29999999999,"N_COORD97":2542991.6899999999,"ADDRESS":"樹林街一段２２７號","OBJECTID":338899},"geometry":{"x":169165.29999999981,"y":2542991.6900000032}},{"attributes":{"ID":338909,"DIS_CODE":0,"TOWNNAME":"永康區","LI":"永康里","LIN":" ","STREET":"中山路","SECT":" ","MAREA":" ","LANE":" ","ALLEY":" ","HOUSE_NO":"８號","E_COORD97":173877.13,"N_COORD97":2547393.1000000001,"ADDRESS":"中山路８號","OBJECTID":338900},"geometry":{"x":173877.12999999989,"y":2547393.1000000034}},{"attributes":{"ID":338910,"DIS_CODE":0,"TOWNNAME":"東區","LI":"龍山里","LIN":"5鄰","STREET":"崇仁街","SECT":" ","MAREA":" ","LANE":"６６巷","ALLEY":" ","HOUSE_NO":"２６號十二樓","E_COORD97":170273.25,"N_COORD97":2542669.1899999999,"ADDRESS":"崇仁街６６巷２６號十二樓","OBJECTID":338901},"geometry":{"x":170273.25000000093,"y":2542669.1899999995}},{"attributes":{"ID":338911,"DIS_CODE":0,"TOWNNAME":"歸仁區","LI":"看東里","LIN":"13鄰","STREET":"忠孝南路","SECT":" ","MAREA":" ","LANE":"２５巷","ALLEY":" ","HOUSE_NO":"６５號","E_COORD97":178582.89999999999,"N_COORD97":2540465.48,"ADDRESS":"忠孝南路２５巷６５號","OBJECTID":338902},"geometry":{"x":178582.9000000013,"y":2540465.4800000023}},{"attributes":{"ID":338912,"DIS_CODE":0,"TOWNNAME":"安南區","LI":"公親里","LIN":"1鄰","STREET":"公學路","SECT":"一段","MAREA":" ","LANE":"２２６巷","ALLEY":" ","HOUSE_NO":"２７號","E_COORD97":168086.04000000001,"N_COORD97":2553141.5899999999,"ADDRESS":"公學路一段２２６巷２７號","OBJECTID":338903},"geometry":{"x":168086.0400000019,"y":2553141.5900000017}},{"attributes":{"ID":338913,"DIS_CODE":0,"TOWNNAME":"安南區","LI":"公親里","LIN":"1鄰","STREET":"公學路","SECT":"一段","MAREA":" ","LANE":"２２６巷","ALLEY":" ","HOUSE_NO":"３１號","E_COORD97":168099.66,"N_COORD97":2553152.6000000001,"ADDRESS":"公學路一段２２６巷３１號","OBJECTID":338904},"geometry":{"x":168099.66000000015,"y":2553152.5999999996}},{"attributes":{"ID":338914,"DIS_CODE":0,"TOWNNAME":"安南區","LI":"公親里","LIN":"1鄰","STREET":"公學路","SECT":"一段","MAREA":" ","LANE":"２２６巷","ALLEY":" ","HOUSE_NO":"３號","E_COORD97":168015.88,"N_COORD97":2553102.7799999998,"ADDRESS":"公學路一段２２６巷３號","OBJECTID":338905},"geometry":{"x":168015.88000000082,"y":2553102.7799999993}},{"attributes":{"ID":338915,"DIS_CODE":0,"TOWNNAME":"安南區","LI":"公親里","LIN":"1鄰","STREET":"公學路","SECT":"一段","MAREA":" ","LANE":"２２６巷","ALLEY":" ","HOUSE_NO":"５號","E_COORD97":168028.37,"N_COORD97":2553103.1800000002,"ADDRESS":"公學路一段２２６巷５號","OBJECTID":338906},"geometry":{"x":168028.37000000104,"y":2553103.1800000016}},{"attributes":{"ID":338916,"DIS_CODE":0,"TOWNNAME":"佳里區","LI":"六安里","LIN":"1鄰","STREET":"忠孝東路","SECT":" ","MAREA":" ","LANE":"５５巷","ALLEY":" ","HOUSE_NO":"１號","E_COORD97":165982.94,"N_COORD97":2562737.3599999999,"ADDRESS":"忠孝東路５５巷１號","OBJECTID":338907},"geometry":{"x":165982.94000000041,"y":2562737.3600000013}},{"attributes":{"ID":338917,"DIS_CODE":0,"TOWNNAME":"佳里區","LI":"六安里","LIN":"1鄰","STREET":"忠孝東路","SECT":" ","MAREA":" ","LANE":"５５巷","ALLEY":" ","HOUSE_NO":"３號","E_COORD97":165982.97,"N_COORD97":2562733.2999999998,"ADDRESS":"忠孝東路５５巷３號","OBJECTID":338908},"geometry":{"x":165982.97000000067,"y":2562733.3000000007}},{"attributes":{"ID":338918,"DIS_CODE":0,"TOWNNAME":"佳里區","LI":"六安里","LIN":"1鄰","STREET":"忠孝東路","SECT":" ","MAREA":" ","LANE":"５５巷","ALLEY":" ","HOUSE_NO":"５號","E_COORD97":165983.03,"N_COORD97":2562729.2999999998,"ADDRESS":"忠孝東路５５巷５號","OBJECTID":338909},"geometry":{"x":165983.03000000119,"y":2562729.3000000026}},{"attributes":{"ID":338919,"DIS_CODE":0,"TOWNNAME":"歸仁區","LI":"看東里","LIN":"1鄰","STREET":"忠孝南路","SECT":" ","MAREA":" ","LANE":"６０巷","ALLEY":" ","HOUSE_NO":"２號","E_COORD97":178478.72,"N_COORD97":2540498.1000000001,"ADDRESS":"忠孝南路６０巷２號","OBJECTID":338910},"geometry":{"x":178478.71999999974,"y":2540498.1000000015}},{"attributes":{"ID":338920,"DIS_CODE":0,"TOWNNAME":"新市區","LI":"港墘里","LIN":"1鄰","STREET":"民族路","SECT":" ","MAREA":" ","LANE":"１６巷","ALLEY":" ","HOUSE_NO":"６號","E_COORD97":178606.13,"N_COORD97":2553940.29,"ADDRESS":"民族路１６巷６號","OBJECTID":338911},"geometry":{"x":178606.13000000082,"y":2553940.2899999991}},{"attributes":{"ID":338921,"DIS_CODE":0,"TOWNNAME":"永康區","LI":"復國里","LIN":"1鄰","STREET":"復國二路","SECT":" ","MAREA":" ","LANE":"１４巷","ALLEY":" ","HOUSE_NO":"１３號","E_COORD97":172871.81,"N_COORD97":2544783.2599999998,"ADDRESS":"復國二路１４巷１３號","OBJECTID":338912},"geometry":{"x":172871.80999999959,"y":2544783.2600000016}},{"attributes":{"ID":338922,"DIS_CODE":0,"TOWNNAME":"東區","LI":"成大里","LIN":"1鄰","STREET":"東寧路","SECT":"西段","MAREA":" ","LANE":"１８巷","ALLEY":" ","HOUSE_NO":"１０號","E_COORD97":169682.82999999999,"N_COORD97":2543699.9500000002,"ADDRESS":"東寧路西段１８巷１０號","OBJECTID":338913},"geometry":{"x":169682.83000000101,"y":2543699.9500000011}},{"attributes":{"ID":338923,"DIS_CODE":0,"TOWNNAME":"東區","LI":"成大里","LIN":"1鄰","STREET":"東寧路","SECT":"西段","MAREA":" ","LANE":"１８巷","ALLEY":" ","HOUSE_NO":"１２號","E_COORD97":169678.75,"N_COORD97":2543698.8900000001,"ADDRESS":"東寧路西段１８巷１２號","OBJECTID":338914},"geometry":{"x":169678.75000000093,"y":2543698.8900000006}},{"attributes":{"ID":338924,"DIS_CODE":0,"TOWNNAME":"東區","LI":"成大里","LIN":"1鄰","STREET":"東寧路","SECT":"西段","MAREA":" ","LANE":"１８巷","ALLEY":" ","HOUSE_NO":"１４號","E_COORD97":169674.81,"N_COORD97":2543700.1000000001,"ADDRESS":"東寧路西段１８巷１４號","OBJECTID":338915},"geometry":{"x":169674.80999999959,"y":2543700.0999999996}},{"attributes":{"ID":338925,"DIS_CODE":0,"TOWNNAME":"東區","LI":"成大里","LIN":"1鄰","STREET":"東寧路","SECT":"西段","MAREA":" ","LANE":"１８巷","ALLEY":" ","HOUSE_NO":"１６號","E_COORD97":169669.82000000001,"N_COORD97":2543701.0099999998,"ADDRESS":"東寧路西段１８巷１６號","OBJECTID":338916},"geometry":{"x":169669.82000000123,"y":2543701.0099999998}},{"attributes":{"ID":338926,"DIS_CODE":0,"TOWNNAME":"東區","LI":"成大里","LIN":"1鄰","STREET":"東寧路","SECT":"西段","MAREA":" ","LANE":"１８巷","ALLEY":" ","HOUSE_NO":"２號","E_COORD97":169704.17000000001,"N_COORD97":2543691.9399999999,"ADDRESS":"東寧路西段１８巷２號","OBJECTID":338917},"geometry":{"x":169704.17000000086,"y":2543691.9400000032}},{"attributes":{"ID":338927,"DIS_CODE":0,"TOWNNAME":"東區","LI":"成大里","LIN":"1鄰","STREET":"東寧路","SECT":"西段","MAREA":" ","LANE":"１８巷","ALLEY":" ","HOUSE_NO":"４號","E_COORD97":169697.82000000001,"N_COORD97":2543693.2999999998,"ADDRESS":"東寧路西段１８巷４號","OBJECTID":338918},"geometry":{"x":169697.8200000003,"y":2543693.3000000007}},{"attributes":{"ID":338928,"DIS_CODE":0,"TOWNNAME":"玉井區","LI":"玉井里","LIN":"1鄰","STREET":"中正路","SECT":" ","MAREA":" ","LANE":"２１巷","ALLEY":" ","HOUSE_NO":"５號","E_COORD97":194641.76999999999,"N_COORD97":2558009.1600000001,"ADDRESS":"中正路２１巷５號","OBJECTID":338919},"geometry":{"x":194641.76999999955,"y":2558009.160000002}},{"attributes":{"ID":338929,"DIS_CODE":0,"TOWNNAME":"東區","LI":"成大里","LIN":"1鄰","STREET":"東寧路","SECT":"西段","MAREA":" ","LANE":"１８巷","ALLEY":" ","HOUSE_NO":"６號","E_COORD97":169694.48999999999,"N_COORD97":2543695.5699999998,"ADDRESS":"東寧路西段１８巷６號","OBJECTID":338920},"geometry":{"x":169694.49000000022,"y":2543695.5700000022}},{"attributes":{"ID":338930,"DIS_CODE":0,"TOWNNAME":"東區","LI":"成大里","LIN":"1鄰","STREET":"東寧路","SECT":"西段","MAREA":" ","LANE":"１８巷","ALLEY":" ","HOUSE_NO":"８號","E_COORD97":169690.39999999999,"N_COORD97":2543696.9300000002,"ADDRESS":"東寧路西段１８巷８號","OBJECTID":338921},"geometry":{"x":169690.40000000037,"y":2543696.9300000016}},{"attributes":{"ID":338931,"DIS_CODE":0,"TOWNNAME":"永康區","LI":"永康里","LIN":"1鄰","STREET":"中山北路","SECT":" ","MAREA":" ","LANE":"７９巷","ALLEY":" ","HOUSE_NO":"１９號","E_COORD97":173963.92999999999,"N_COORD97":2547465.25,"ADDRESS":"中山北路７９巷１９號","OBJECTID":338922},"geometry":{"x":173963.93000000063,"y":2547465.2500000019}},{"attributes":{"ID":338932,"DIS_CODE":0,"TOWNNAME":"安南區","LI":"安東里","LIN":"1鄰","STREET":"安和路","SECT":"一段","MAREA":" ","LANE":"３４０巷","ALLEY":" ","HOUSE_NO":"２３號","E_COORD97":169359.69,"N_COORD97":2548186.2400000002,"ADDRESS":"安和路一段３４０巷２３號","OBJECTID":338923},"geometry":{"x":169359.69000000041,"y":2548186.2400000039}},{"attributes":{"ID":338933,"DIS_CODE":0,"TOWNNAME":"安南區","LI":"安東里","LIN":"1鄰","STREET":"安和路","SECT":"一段","MAREA":" ","LANE":"３４０巷","ALLEY":" ","HOUSE_NO":"１５號","E_COORD97":169343.06,"N_COORD97":2548171.9300000002,"ADDRESS":"安和路一段３４０巷１５號","OBJECTID":338924},"geometry":{"x":169343.05999999866,"y":2548171.9300000016}},{"attributes":{"ID":338934,"DIS_CODE":0,"TOWNNAME":"安南區","LI":"安東里","LIN":"1鄰","STREET":"安和路","SECT":"一段","MAREA":" ","LANE":"３４０巷","ALLEY":" ","HOUSE_NO":"１７號","E_COORD97":169341.67000000001,"N_COORD97":2548189.8700000001,"ADDRESS":"安和路一段３４０巷１７號","OBJECTID":338925},"geometry":{"x":169341.67000000086,"y":2548189.8700000048}},{"attributes":{"ID":338935,"DIS_CODE":0,"TOWNNAME":"安南區","LI":"安東里","LIN":"1鄰","STREET":"安和路","SECT":"一段","MAREA":" ","LANE":"３４０巷","ALLEY":" ","HOUSE_NO":"２１號","E_COORD97":169353.12,"N_COORD97":2548211.79,"ADDRESS":"安和路一段３４０巷２１號","OBJECTID":338926},"geometry":{"x":169353.12000000011,"y":2548211.7900000028}},{"attributes":{"ID":338936,"DIS_CODE":0,"TOWNNAME":"安南區","LI":"安東里","LIN":"1鄰","STREET":"安和路","SECT":"一段","MAREA":" ","LANE":"３４０巷","ALLEY":" ","HOUSE_NO":"７號","E_COORD97":169321.67999999999,"N_COORD97":2548173.6699999999,"ADDRESS":"安和路一段３４０巷７號","OBJECTID":338927},"geometry":{"x":169321.6799999997,"y":2548173.6700000018}},{"attributes":{"ID":338937,"DIS_CODE":0,"TOWNNAME":"安南區","LI":"州南里","LIN":"1鄰","STREET":"安和路","SECT":"四段","MAREA":" ","LANE":"３４６巷","ALLEY":" ","HOUSE_NO":"４０號","E_COORD97":169999.85999999999,"N_COORD97":2550885.5899999999,"ADDRESS":"安和路四段３４６巷４０號","OBJECTID":338928},"geometry":{"x":169999.86000000127,"y":2550885.5900000036}},{"attributes":{"ID":338938,"DIS_CODE":0,"TOWNNAME":"永康區","LI":"南灣里","LIN":"8鄰","STREET":"大灣東路","SECT":" ","MAREA":" ","LANE":" ","ALLEY":" ","HOUSE_NO":"８０號","E_COORD97":174368.01000000001,"N_COORD97":2544311.4900000002,"ADDRESS":"大灣東路８０號","OBJECTID":338929},"geometry":{"x":174368.00999999978,"y":2544311.4900000002}},{"attributes":{"ID":338939,"DIS_CODE":0,"TOWNNAME":"永康區","LI":"西勢里","LIN":"8鄰","STREET":"富強路","SECT":"一段","MAREA":" ","LANE":" ","ALLEY":" ","HOUSE_NO":"３１９號","E_COORD97":175710,"N_COORD97":2546686.2999999998,"ADDRESS":"富強路一段３１９號","OBJECTID":338930},"geometry":{"x":175710.00000000093,"y":2546686.3000000007}},{"attributes":{"ID":338940,"DIS_CODE":0,"TOWNNAME":"東區","LI":"龍山里","LIN":"5鄰","STREET":"崇善路","SECT":" ","MAREA":" ","LANE":"２５巷","ALLEY":" ","HOUSE_NO":"９０號七樓","E_COORD97":170247.44,"N_COORD97":2542673.6299999999,"ADDRESS":"崇善路２５巷９０號七樓","OBJECTID":338931},"geometry":{"x":170247.44000000134,"y":2542673.6300000008}},{"attributes":{"ID":338941,"DIS_CODE":0,"TOWNNAME":"安南區","LI":"州南里","LIN":"1鄰","STREET":"安和路","SECT":"四段","MAREA":" ","LANE":"３４６巷","ALLEY":" ","HOUSE_NO":"４２號","E_COORD97":169997.95999999999,"N_COORD97":2550878.1600000001,"ADDRESS":"安和路四段３４６巷４２號","OBJECTID":338932},"geometry":{"x":169997.95999999996,"y":2550878.1600000001}},{"attributes":{"ID":338942,"DIS_CODE":0,"TOWNNAME":"安南區","LI":"州南里","LIN":"1鄰","STREET":"安和路","SECT":"四段","MAREA":" ","LANE":"３４６巷","ALLEY":" ","HOUSE_NO":"４４號","E_COORD97":169998.98999999999,"N_COORD97":2550873.3300000001,"ADDRESS":"安和路四段３４６巷４４號","OBJECTID":338933},"geometry":{"x":169998.99000000115,"y":2550873.3300000001}},{"attributes":{"ID":338943,"DIS_CODE":0,"TOWNNAME":"安南區","LI":"州南里","LIN":"1鄰","STREET":"安和路","SECT":"四段","MAREA":" ","LANE":"３４６巷","ALLEY":" ","HOUSE_NO":"２８號","E_COORD97":170002.63,"N_COORD97":2550909.1499999999,"ADDRESS":"安和路四段３４６巷２８號","OBJECTID":338934},"geometry":{"x":170002.63000000082,"y":2550909.1500000004}},{"attributes":{"ID":338944,"DIS_CODE":0,"TOWNNAME":"安南區","LI":"州南里","LIN":"1鄰","STREET":"安和路","SECT":"四段","MAREA":" ","LANE":"３４６巷","ALLEY":" ","HOUSE_NO":"３０號","E_COORD97":170010.41,"N_COORD97":2550908.98,"ADDRESS":"安和路四段３４６巷３０號","OBJECTID":338935},"geometry":{"x":170010.41000000015,"y":2550908.9800000023}},{"attributes":{"ID":338945,"DIS_CODE":0,"TOWNNAME":"安南區","LI":"州南里","LIN":"1鄰","STREET":"安和路","SECT":"四段","MAREA":" ","LANE":"３４６巷","ALLEY":" ","HOUSE_NO":"３２號","E_COORD97":170009.54000000001,"N_COORD97":2550903.1099999999,"ADDRESS":"安和路四段３４６巷３２號","OBJECTID":338936},"geometry":{"x":170009.54000000004,"y":2550903.1100000013}},{"attributes":{"ID":338946,"DIS_CODE":0,"TOWNNAME":"安南區","LI":"州南里","LIN":"1鄰","STREET":"安和路","SECT":"四段","MAREA":" ","LANE":"３４６巷","ALLEY":" ","HOUSE_NO":"３４號","E_COORD97":170008.67999999999,"N_COORD97":2550893.9500000002,"ADDRESS":"安和路四段３４６巷３４號","OBJECTID":338937},"geometry":{"x":170008.68000000156,"y":2550893.9500000011}},{"attributes":{"ID":338947,"DIS_CODE":0,"TOWNNAME":"安南區","LI":"安西里","LIN":"1鄰","STREET":"安和路","SECT":"一段","MAREA":" ","LANE":"１８５巷","ALLEY":" ","HOUSE_NO":"３７號","E_COORD97":169251.89999999999,"N_COORD97":2547862.7000000002,"ADDRESS":"安和路一段１８５巷３７號","OBJECTID":338938},"geometry":{"x":169251.90000000224,"y":2547862.6999999993}},{"attributes":{"ID":338948,"DIS_CODE":0,"TOWNNAME":"安南區","LI":"安順里","LIN":"1鄰","STREET":"總安街","SECT":"一段","MAREA":" ","LANE":"１９巷","ALLEY":" ","HOUSE_NO":"２２號","E_COORD97":169881.34,"N_COORD97":2550047.6699999999,"ADDRESS":"總安街一段１９巷２２號","OBJECTID":338939},"geometry":{"x":169881.34000000078,"y":2550047.6700000037}},{"attributes":{"ID":338949,"DIS_CODE":0,"TOWNNAME":"安南區","LI":"安西里","LIN":"1鄰","STREET":"安和路","SECT":"一段","MAREA":" ","LANE":"１８５巷","ALLEY":" ","HOUSE_NO":"４３號","E_COORD97":169255.82000000001,"N_COORD97":2547900.7000000002,"ADDRESS":"安和路一段１８５巷４３號","OBJECTID":338940},"geometry":{"x":169255.82000000216,"y":2547900.700000003}},{"attributes":{"ID":338950,"DIS_CODE":0,"TOWNNAME":"安南區","LI":"州北里","LIN":"1鄰","STREET":"安和路","SECT":"五段","MAREA":" ","LANE":"８１巷","ALLEY":" ","HOUSE_NO":"５２號","E_COORD97":169783.26999999999,"N_COORD97":2551652.7799999998,"ADDRESS":"安和路五段８１巷５２號","OBJECTID":338941},"geometry":{"x":169783.27000000048,"y":2551652.7799999993}},{"attributes":{"ID":338951,"DIS_CODE":0,"TOWNNAME":"安南區","LI":"安東里","LIN":"1鄰","STREET":"安和路","SECT":"一段","MAREA":" ","LANE":"３４０巷","ALLEY":" ","HOUSE_NO":"３號","E_COORD97":169313.01999999999,"N_COORD97":2548170.1800000002,"ADDRESS":"安和路一段３４０巷３號","OBJECTID":338942},"geometry":{"x":169313.02000000048,"y":2548170.1800000016}},{"attributes":{"ID":338952,"DIS_CODE":0,"TOWNNAME":"安南區","LI":"州北里","LIN":"1鄰","STREET":"安和路","SECT":"五段","MAREA":" ","LANE":"８１巷","ALLEY":" ","HOUSE_NO":"４２號","E_COORD97":169803.25,"N_COORD97":2551656.3399999999,"ADDRESS":"安和路五段８１巷４２號","OBJECTID":338943},"geometry":{"x":169803.25,"y":2551656.3399999999}},{"attributes":{"ID":338953,"DIS_CODE":0,"TOWNNAME":"安南區","LI":"州北里","LIN":"1鄰","STREET":"安和路","SECT":"五段","MAREA":" ","LANE":"８１巷","ALLEY":" ","HOUSE_NO":"４４號","E_COORD97":169795.14000000001,"N_COORD97":2551652.7799999998,"ADDRESS":"安和路五段８１巷４４號","OBJECTID":338944},"geometry":{"x":169795.13999999966,"y":2551652.7799999993}},{"attributes":{"ID":338954,"DIS_CODE":0,"TOWNNAME":"安南區","LI":"溪北里","LIN":"1鄰","STREET":"安和路","SECT":"一段","MAREA":" ","LANE":"１０１巷","ALLEY":" ","HOUSE_NO":"４２號","E_COORD97":169370.66,"N_COORD97":2547579.8900000001,"ADDRESS":"安和路一段１０１巷４２號","OBJECTID":338945},"geometry":{"x":169370.66000000108,"y":2547579.8900000025}},{"attributes":{"ID":338955,"DIS_CODE":0,"TOWNNAME":"安南區","LI":"溪北里","LIN":"1鄰","STREET":"安和路","SECT":"一段","MAREA":" ","LANE":"１０１巷","ALLEY":" ","HOUSE_NO":"４６號","E_COORD97":169364.48000000001,"N_COORD97":2547577.3599999999,"ADDRESS":"安和路一段１０１巷４６號","OBJECTID":338946},"geometry":{"x":169364.48000000045,"y":2547577.3599999994}},{"attributes":{"ID":338956,"DIS_CODE":0,"TOWNNAME":"安南區","LI":"溪北里","LIN":"1鄰","STREET":"安和路","SECT":"一段","MAREA":" ","LANE":"１０１巷","ALLEY":" ","HOUSE_NO":"４８號","E_COORD97":169357.29000000001,"N_COORD97":2547574.6200000001,"ADDRESS":"安和路一段１０１巷４８號","OBJECTID":338947},"geometry":{"x":169357.2900000019,"y":2547574.6200000029}},{"attributes":{"ID":338957,"DIS_CODE":0,"TOWNNAME":"安南區","LI":"溪北里","LIN":"1鄰","STREET":"安和路","SECT":"一段","MAREA":" ","LANE":"１０１巷","ALLEY":" ","HOUSE_NO":"５２號","E_COORD97":169350.88,"N_COORD97":2547571.7400000002,"ADDRESS":"安和路一段１０１巷５２號","OBJECTID":338948},"geometry":{"x":169350.87999999989,"y":2547571.7400000002}},{"attributes":{"ID":338958,"DIS_CODE":0,"TOWNNAME":"安南區","LI":"溪北里","LIN":"1鄰","STREET":"安和路","SECT":"一段","MAREA":" ","LANE":"１０１巷","ALLEY":" ","HOUSE_NO":"５４號","E_COORD97":169346.42999999999,"N_COORD97":2547570.4399999999,"ADDRESS":"安和路一段１０１巷５４號","OBJECTID":338949},"geometry":{"x":169346.43000000063,"y":2547570.4400000032}},{"attributes":{"ID":338959,"DIS_CODE":0,"TOWNNAME":"安南區","LI":"溪北里","LIN":"1鄰","STREET":"安和路","SECT":"一段","MAREA":" ","LANE":"１０１巷","ALLEY":" ","HOUSE_NO":"５６號","E_COORD97":169333.23000000001,"N_COORD97":2547559.52,"ADDRESS":"安和路一段１０１巷５６號","OBJECTID":338950},"geometry":{"x":169333.23000000138,"y":2547559.5199999996}},{"attributes":{"ID":338960,"DIS_CODE":0,"TOWNNAME":"安南區","LI":"溪北里","LIN":"1鄰","STREET":"安和路","SECT":"一段","MAREA":" ","LANE":"１０１巷","ALLEY":" ","HOUSE_NO":"５８號","E_COORD97":169312.69,"N_COORD97":2547551.8999999999,"ADDRESS":"安和路一段１０１巷５８號","OBJECTID":338951},"geometry":{"x":169312.69000000227,"y":2547551.9000000022}},{"attributes":{"ID":338961,"DIS_CODE":0,"TOWNNAME":"安南區","LI":"溪北里","LIN":"1鄰","STREET":"安和路","SECT":"一段","MAREA":" ","LANE":"１２３巷","ALLEY":" ","HOUSE_NO":"１３號","E_COORD97":169417.97,"N_COORD97":2547625.2000000002,"ADDRESS":"安和路一段１２３巷１３號","OBJECTID":338952},"geometry":{"x":169417.96999999974,"y":2547625.1999999993}},{"attributes":{"ID":338962,"DIS_CODE":0,"TOWNNAME":"安南區","LI":"溪北里","LIN":"1鄰","STREET":"安和路","SECT":"一段","MAREA":" ","LANE":"１２３巷","ALLEY":" ","HOUSE_NO":"１５號","E_COORD97":169414.81,"N_COORD97":2547624.2599999998,"ADDRESS":"安和路一段１２３巷１５號","OBJECTID":338953},"geometry":{"x":169414.81000000052,"y":2547624.2600000016}},{"attributes":{"ID":338963,"DIS_CODE":0,"TOWNNAME":"安南區","LI":"溪北里","LIN":"1鄰","STREET":"安和路","SECT":"一段","MAREA":" ","LANE":"１２３巷","ALLEY":" ","HOUSE_NO":"２５號","E_COORD97":169385.58381700001,"N_COORD97":2547628.7288000002,"ADDRESS":"安和路一段１２３巷２５號","OBJECTID":338954},"geometry":{"x":169385.5838170005,"y":2547628.7287990041}},{"attributes":{"ID":338964,"DIS_CODE":0,"TOWNNAME":"安南區","LI":"溪北里","LIN":"1鄰","STREET":"安和路","SECT":"一段","MAREA":" ","LANE":"１２３巷","ALLEY":" ","HOUSE_NO":"４３號","E_COORD97":169341.98000000001,"N_COORD97":2547588.8300000001,"ADDRESS":"安和路一段１２３巷４３號","OBJECTID":338955},"geometry":{"x":169341.98000000138,"y":2547588.8300000038}},{"attributes":{"ID":338965,"DIS_CODE":0,"TOWNNAME":"安南區","LI":"溪北里","LIN":"1鄰","STREET":"安和路","SECT":"一段","MAREA":" ","LANE":"１２３巷","ALLEY":" ","HOUSE_NO":"４５號","E_COORD97":169337.09,"N_COORD97":2547586.3599999999,"ADDRESS":"安和路一段１２３巷４５號","OBJECTID":338956},"geometry":{"x":169337.09000000078,"y":2547586.3599999994}},{"attributes":{"ID":338966,"DIS_CODE":0,"TOWNNAME":"安南區","LI":"溪北里","LIN":"1鄰","STREET":"安和路","SECT":"一段","MAREA":" ","LANE":"１２３巷","ALLEY":" ","HOUSE_NO":"４７號","E_COORD97":169332.42000000001,"N_COORD97":2547585.1499999999,"ADDRESS":"安和路一段１２３巷４７號","OBJECTID":338957},"geometry":{"x":169332.41999999993,"y":2547585.1500000022}},{"attributes":{"ID":338967,"DIS_CODE":0,"TOWNNAME":"安南區","LI":"海佃里","LIN":"1鄰","STREET":"海佃路","SECT":"一段","MAREA":" ","LANE":"１５７巷","ALLEY":" ","HOUSE_NO":"１號之３","E_COORD97":167111.79999999999,"N_COORD97":2547093.77,"ADDRESS":"海佃路一段１５７巷１號之３","OBJECTID":338958},"geometry":{"x":167111.79999999981,"y":2547093.7700000033}},{"attributes":{"ID":338968,"DIS_CODE":0,"TOWNNAME":"北區","LI":"國姓里","LIN":"1鄰","STREET":"公園路","SECT":" ","MAREA":" ","LANE":"３７７巷","ALLEY":" ","HOUSE_NO":"１５號","E_COORD97":168980.51000000001,"N_COORD97":2545204.4399999999,"ADDRESS":"公園路３７７巷１５號","OBJECTID":338959},"geometry":{"x":168980.50999999978,"y":2545204.4400000013}},{"attributes":{"ID":338969,"DIS_CODE":0,"TOWNNAME":"永康區","LI":"南灣里","LIN":"8鄰","STREET":"南興路","SECT":" ","MAREA":" ","LANE":" ","ALLEY":" ","HOUSE_NO":"６２號","E_COORD97":174258.39000000001,"N_COORD97":2544214.3999999999,"ADDRESS":"南興路６２號","OBJECTID":338960},"geometry":{"x":174258.38999999966,"y":2544214.4000000004}},{"attributes":{"ID":338970,"DIS_CODE":0,"TOWNNAME":"北區","LI":"國姓里","LIN":"1鄰","STREET":"公園路","SECT":" ","MAREA":" ","LANE":"３７７巷","ALLEY":" ","HOUSE_NO":"１７號","E_COORD97":168974.57000000001,"N_COORD97":2545205.0099999998,"ADDRESS":"公園路３７７巷１７號","OBJECTID":338961},"geometry":{"x":168974.57000000123,"y":2545205.0100000016}},{"attributes":{"ID":338971,"DIS_CODE":0,"TOWNNAME":"北區","LI":"國姓里","LIN":"1鄰","STREET":"公園路","SECT":" ","MAREA":" ","LANE":"３７７巷","ALLEY":" ","HOUSE_NO":"１８號","E_COORD97":168938.66,"N_COORD97":2545233.25,"ADDRESS":"公園路３７７巷１８號","OBJECTID":338962},"geometry":{"x":168938.66000000108,"y":2545233.2500000019}},{"attributes":{"ID":338972,"DIS_CODE":0,"TOWNNAME":"北區","LI":"國姓里","LIN":"1鄰","STREET":"公園路","SECT":" ","MAREA":" ","LANE":"３７７巷","ALLEY":" ","HOUSE_NO":"１９號","E_COORD97":168968.63,"N_COORD97":2545207.2599999998,"ADDRESS":"公園路３７７巷１９號","OBJECTID":338963},"geometry":{"x":168968.63000000082,"y":2545207.2599999998}},{"attributes":{"ID":338973,"DIS_CODE":0,"TOWNNAME":"北區","LI":"國姓里","LIN":"1鄰","STREET":"公園路","SECT":" ","MAREA":" ","LANE":"３７７巷","ALLEY":" ","HOUSE_NO":"１９號之１","E_COORD97":168965.23999999999,"N_COORD97":2545207.2599999998,"ADDRESS":"公園路３７７巷１９號之１","OBJECTID":338964},"geometry":{"x":168965.24000000115,"y":2545207.2599999998}},{"attributes":{"ID":338974,"DIS_CODE":0,"TOWNNAME":"北區","LI":"國姓里","LIN":"1鄰","STREET":"公園路","SECT":" ","MAREA":" ","LANE":"３７７巷","ALLEY":" ","HOUSE_NO":"２０號","E_COORD97":168932.72,"N_COORD97":2545236.3599999999,"ADDRESS":"公園路３７７巷２０號","OBJECTID":338965},"geometry":{"x":168932.72000000067,"y":2545236.3600000013}},{"attributes":{"ID":338975,"DIS_CODE":0,"TOWNNAME":"北區","LI":"國姓里","LIN":"1鄰","STREET":"公園路","SECT":" ","MAREA":" ","LANE":"３７７巷","ALLEY":" ","HOUSE_NO":"２１號","E_COORD97":168961.28,"N_COORD97":2545208.1099999999,"ADDRESS":"公園路３７７巷２１號","OBJECTID":338966},"geometry":{"x":168961.28000000119,"y":2545208.1099999994}},{"attributes":{"ID":338976,"DIS_CODE":0,"TOWNNAME":"北區","LI":"國姓里","LIN":"1鄰","STREET":"公園路","SECT":" ","MAREA":" ","LANE":"３７７巷","ALLEY":" ","HOUSE_NO":"２３號","E_COORD97":168955.62,"N_COORD97":2545209.8100000001,"ADDRESS":"公園路３７７巷２３號","OBJECTID":338967},"geometry":{"x":168955.62000000104,"y":2545209.8100000024}},{"attributes":{"ID":338977,"DIS_CODE":0,"TOWNNAME":"北區","LI":"國姓里","LIN":"1鄰","STREET":"公園路","SECT":" ","MAREA":" ","LANE":"３７７巷","ALLEY":" ","HOUSE_NO":"２５號","E_COORD97":168951.67000000001,"N_COORD97":2545210.6499999999,"ADDRESS":"公園路３７７巷２５號","OBJECTID":338968},"geometry":{"x":168951.67000000086,"y":2545210.6500000022}},{"attributes":{"ID":338978,"DIS_CODE":0,"TOWNNAME":"北區","LI":"國姓里","LIN":"1鄰","STREET":"公園路","SECT":" ","MAREA":" ","LANE":"３７７巷","ALLEY":" ","HOUSE_NO":"２７號","E_COORD97":168945.73000000001,"N_COORD97":2545210.9399999999,"ADDRESS":"公園路３７７巷２７號","OBJECTID":338969},"geometry":{"x":168945.73000000045,"y":2545210.9400000032}},{"attributes":{"ID":338979,"DIS_CODE":0,"TOWNNAME":"北區","LI":"國姓里","LIN":"1鄰","STREET":"公園路","SECT":" ","MAREA":" ","LANE":"３７７巷","ALLEY":" ","HOUSE_NO":"２９號","E_COORD97":168941.20000000001,"N_COORD97":2545211.5,"ADDRESS":"公園路３７７巷２９號","OBJECTID":338970},"geometry":{"x":168941.20000000205,"y":2545211.5000000019}},{"attributes":{"ID":338980,"DIS_CODE":0,"TOWNNAME":"北區","LI":"國姓里","LIN":"1鄰","STREET":"公園路","SECT":" ","MAREA":" ","LANE":"３７７巷","ALLEY":" ","HOUSE_NO":"２號","E_COORD97":169006.53,"N_COORD97":2545223.0800000001,"ADDRESS":"公園路３７７巷２號","OBJECTID":338971},"geometry":{"x":169006.53000000026,"y":2545223.0800000001}},{"attributes":{"ID":338981,"DIS_CODE":0,"TOWNNAME":"北區","LI":"國姓里","LIN":"1鄰","STREET":"公園路","SECT":" ","MAREA":" ","LANE":"３７７巷","ALLEY":" ","HOUSE_NO":"２號之１","E_COORD97":169002.57000000001,"N_COORD97":2545221.6699999999,"ADDRESS":"公園路３７７巷２號之１","OBJECTID":338972},"geometry":{"x":169002.5700000003,"y":2545221.6699999999}},{"attributes":{"ID":338982,"DIS_CODE":0,"TOWNNAME":"北區","LI":"國姓里","LIN":"1鄰","STREET":"公園路","SECT":" ","MAREA":" ","LANE":"３７７巷","ALLEY":" ","HOUSE_NO":"２號之２","E_COORD97":168997.48000000001,"N_COORD97":2545220.8199999998,"ADDRESS":"公園路３７７巷２號之２","OBJECTID":338973},"geometry":{"x":168997.48000000138,"y":2545220.8200000022}},{"attributes":{"ID":338983,"DIS_CODE":0,"TOWNNAME":"北區","LI":"國姓里","LIN":"1鄰","STREET":"公園路","SECT":" ","MAREA":" ","LANE":"３７７巷","ALLEY":" ","HOUSE_NO":"２號之３","E_COORD97":168993.51999999999,"N_COORD97":2545221.6699999999,"ADDRESS":"公園路３７７巷２號之３","OBJECTID":338974},"geometry":{"x":168993.51999999955,"y":2545221.6699999999}},{"attributes":{"ID":338984,"DIS_CODE":0,"TOWNNAME":"新營區","LI":"好平里","LIN":"1鄰","STREET":"武侯街","SECT":" ","MAREA":" ","LANE":"９巷","ALLEY":" ","HOUSE_NO":"３４號","E_COORD97":179560.03,"N_COORD97":2577696.6000000001,"ADDRESS":"武侯街９巷３４號","OBJECTID":338975},"geometry":{"x":179560.03000000119,"y":2577696.6000000034}},{"attributes":{"ID":338985,"DIS_CODE":0,"TOWNNAME":"安平區","LI":"文平里","LIN":"1鄰","STREET":"建平七街","SECT":" ","MAREA":" ","LANE":"２６巷","ALLEY":" ","HOUSE_NO":"１號","E_COORD97":166433.14999999999,"N_COORD97":2543238.9100000001,"ADDRESS":"建平七街２６巷１號","OBJECTID":338976},"geometry":{"x":166433.1500000013,"y":2543238.910000002}},{"attributes":{"ID":338986,"DIS_CODE":0,"TOWNNAME":"安平區","LI":"文平里","LIN":"1鄰","STREET":"建平七街","SECT":" ","MAREA":" ","LANE":"２６巷","ALLEY":" ","HOUSE_NO":"３號","E_COORD97":166434.20999999999,"N_COORD97":2543245.1499999999,"ADDRESS":"建平七街２６巷３號","OBJECTID":338977},"geometry":{"x":166434.21000000089,"y":2543245.1500000022}},{"attributes":{"ID":338987,"DIS_CODE":0,"TOWNNAME":"安平區","LI":"文平里","LIN":"1鄰","STREET":"建平七街","SECT":" ","MAREA":" ","LANE":"２６巷","ALLEY":" ","HOUSE_NO":"５號","E_COORD97":166435.75,"N_COORD97":2543249.1499999999,"ADDRESS":"建平七街２６巷５號","OBJECTID":338978},"geometry":{"x":166435.75000000093,"y":2543249.1500000004}},{"attributes":{"ID":338988,"DIS_CODE":0,"TOWNNAME":"安平區","LI":"國平里","LIN":"1鄰","STREET":"建平七街","SECT":" ","MAREA":" ","LANE":"３７０巷","ALLEY":" ","HOUSE_NO":"１２７號","E_COORD97":165685.73999999999,"N_COORD97":2543323.6099999999,"ADDRESS":"建平七街３７０巷１２７號","OBJECTID":338979},"geometry":{"x":165685.74000000022,"y":2543323.6099999994}},{"attributes":{"ID":338989,"DIS_CODE":0,"TOWNNAME":"安平區","LI":"國平里","LIN":"1鄰","STREET":"建平七街","SECT":" ","MAREA":" ","LANE":"３７０巷","ALLEY":" ","HOUSE_NO":"１２７號之１０","E_COORD97":165636.29000000001,"N_COORD97":2543329.1699999999,"ADDRESS":"建平七街３７０巷１２７號之１０","OBJECTID":338980},"geometry":{"x":165636.28999999911,"y":2543329.1700000018}},{"attributes":{"ID":338990,"DIS_CODE":0,"TOWNNAME":"安平區","LI":"國平里","LIN":"1鄰","STREET":"建平七街","SECT":" ","MAREA":" ","LANE":"３７０巷","ALLEY":" ","HOUSE_NO":"１２７號之１１","E_COORD97":165631.41,"N_COORD97":2543329.8700000001,"ADDRESS":"建平七街３７０巷１２７號之１１","OBJECTID":338981},"geometry":{"x":165631.41000000108,"y":2543329.870000001}},{"attributes":{"ID":338991,"DIS_CODE":0,"TOWNNAME":"安平區","LI":"國平里","LIN":"1鄰","STREET":"建平七街","SECT":" ","MAREA":" ","LANE":"３７０巷","ALLEY":" ","HOUSE_NO":"１２７號之１２","E_COORD97":165626.32999999999,"N_COORD97":2543330.4100000001,"ADDRESS":"建平七街３７０巷１２７號之１２","OBJECTID":338982},"geometry":{"x":165626.33000000101,"y":2543330.410000002}},{"attributes":{"ID":338992,"DIS_CODE":0,"TOWNNAME":"安平區","LI":"國平里","LIN":"1鄰","STREET":"建平七街","SECT":" ","MAREA":" ","LANE":"３７０巷","ALLEY":" ","HOUSE_NO":"１２７號之２","E_COORD97":165677.20999999999,"N_COORD97":2543324.48,"ADDRESS":"建平七街３７０巷１２７號之２","OBJECTID":338983},"geometry":{"x":165677.20999999996,"y":2543324.4800000023}},{"attributes":{"ID":338993,"DIS_CODE":0,"TOWNNAME":"安平區","LI":"國平里","LIN":"1鄰","STREET":"建平七街","SECT":" ","MAREA":" ","LANE":"３７０巷","ALLEY":" ","HOUSE_NO":"１２７號之３","E_COORD97":165671.29000000001,"N_COORD97":2543325,"ADDRESS":"建平七街３７０巷１２７號之３","OBJECTID":338984},"geometry":{"x":165671.29000000004,"y":2543325}},{"attributes":{"ID":338994,"DIS_CODE":0,"TOWNNAME":"安平區","LI":"國平里","LIN":"1鄰","STREET":"建平七街","SECT":" ","MAREA":" ","LANE":"３７０巷","ALLEY":" ","HOUSE_NO":"１２７號之５","E_COORD97":165666.94,"N_COORD97":2543325.8700000001,"ADDRESS":"建平七街３７０巷１２７號之５","OBJECTID":338985},"geometry":{"x":165666.94000000134,"y":2543325.8700000029}},{"attributes":{"ID":338995,"DIS_CODE":0,"TOWNNAME":"安平區","LI":"國平里","LIN":"1鄰","STREET":"建平七街","SECT":" ","MAREA":" ","LANE":"３７０巷","ALLEY":" ","HOUSE_NO":"１２７號之６","E_COORD97":165660.84,"N_COORD97":2543326.5600000001,"ADDRESS":"建平七街３７０巷１２７號之６","OBJECTID":338986},"geometry":{"x":165660.83999999985,"y":2543326.5600000024}},{"attributes":{"ID":338996,"DIS_CODE":0,"TOWNNAME":"安平區","LI":"國平里","LIN":"1鄰","STREET":"建平七街","SECT":" ","MAREA":" ","LANE":"３７０巷","ALLEY":" ","HOUSE_NO":"１２７號之７","E_COORD97":165655.26999999999,"N_COORD97":2543326.9100000001,"ADDRESS":"建平七街３７０巷１２７號之７","OBJECTID":338987},"geometry":{"x":165655.27000000048,"y":2543326.910000002}},{"attributes":{"ID":338997,"DIS_CODE":0,"TOWNNAME":"安平區","LI":"國平里","LIN":"1鄰","STREET":"建平七街","SECT":" ","MAREA":" ","LANE":"３７０巷","ALLEY":" ","HOUSE_NO":"１２７號之８","E_COORD97":165649.35000000001,"N_COORD97":2543327.4300000002,"ADDRESS":"建平七街３７０巷１２７號之８","OBJECTID":338988},"geometry":{"x":165649.35000000056,"y":2543327.4300000016}},{"attributes":{"ID":338998,"DIS_CODE":0,"TOWNNAME":"安平區","LI":"國平里","LIN":"1鄰","STREET":"建平七街","SECT":" ","MAREA":" ","LANE":"３７０巷","ALLEY":" ","HOUSE_NO":"１２７號之９","E_COORD97":165643.60000000001,"N_COORD97":2543327.7799999998,"ADDRESS":"建平七街３７０巷１２７號之９","OBJECTID":338989},"geometry":{"x":165643.59999999963,"y":2543327.7800000012}},{"attributes":{"ID":338999,"DIS_CODE":0,"TOWNNAME":"安平區","LI":"國平里","LIN":"1鄰","STREET":"建平七街","SECT":" ","MAREA":" ","LANE":"３７０巷","ALLEY":" ","HOUSE_NO":"１２９號","E_COORD97":165687.48999999999,"N_COORD97":2543334.2200000002,"ADDRESS":"建平七街３７０巷１２９號","OBJECTID":338990},"geometry":{"x":165687.49000000022,"y":2543334.2200000007}},{"attributes":{"ID":339000,"DIS_CODE":0,"TOWNNAME":"安平區","LI":"國平里","LIN":"1鄰","STREET":"建平七街","SECT":" ","MAREA":" ","LANE":"３７０巷","ALLEY":" ","HOUSE_NO":"１２９號之１０","E_COORD97":165638.38,"N_COORD97":2543341.1699999999,"ADDRESS":"建平七街３７０巷１２９號之１０","OBJECTID":338991},"geometry":{"x":165638.37999999989,"y":2543341.1699999999}},{"attributes":{"ID":339001,"DIS_CODE":0,"TOWNNAME":"安平區","LI":"國平里","LIN":"1鄰","STREET":"建平七街","SECT":" ","MAREA":" ","LANE":"３７０巷","ALLEY":" ","HOUSE_NO":"１２９號之１１","E_COORD97":165633.32999999999,"N_COORD97":2543342.04,"ADDRESS":"建平七街３７０巷１２９號之１１","OBJECTID":338992},"geometry":{"x":165633.33000000101,"y":2543342.040000001}},{"attributes":{"ID":339002,"DIS_CODE":0,"TOWNNAME":"安平區","LI":"國平里","LIN":"1鄰","STREET":"建平七街","SECT":" ","MAREA":" ","LANE":"４５４巷","ALLEY":" ","HOUSE_NO":"１５號","E_COORD97":165460.95999999999,"N_COORD97":2543388.6000000001,"ADDRESS":"建平七街４５４巷１５號","OBJECTID":338993},"geometry":{"x":165460.96000000089,"y":2543388.5999999996}},{"attributes":{"ID":339003,"DIS_CODE":0,"TOWNNAME":"安平區","LI":"國平里","LIN":"1鄰","STREET":"建平七街","SECT":" ","MAREA":" ","LANE":"４５４巷","ALLEY":" ","HOUSE_NO":"５號","E_COORD97":165457.54000000001,"N_COORD97":2543367.9900000002,"ADDRESS":"建平七街４５４巷５號","OBJECTID":338994},"geometry":{"x":165457.54000000097,"y":2543367.9900000021}},{"attributes":{"ID":339004,"DIS_CODE":0,"TOWNNAME":"安平區","LI":"國平里","LIN":"1鄰","STREET":"建平七街","SECT":" ","MAREA":" ","LANE":"４５４巷","ALLEY":" ","HOUSE_NO":"７號","E_COORD97":165458.17000000001,"N_COORD97":2543371.2400000002,"ADDRESS":"建平七街４５４巷７號","OBJECTID":338995},"geometry":{"x":165458.17000000086,"y":2543371.2400000002}},{"attributes":{"ID":339005,"DIS_CODE":0,"TOWNNAME":"安平區","LI":"國平里","LIN":"1鄰","STREET":"建平七街","SECT":" ","MAREA":" ","LANE":"４５４巷","ALLEY":" ","HOUSE_NO":"９號","E_COORD97":165458.94,"N_COORD97":2543376.0499999998,"ADDRESS":"建平七街４５４巷９號","OBJECTID":338996},"geometry":{"x":165458.94000000041,"y":2543376.0500000007}},{"attributes":{"ID":339006,"DIS_CODE":0,"TOWNNAME":"安平區","LI":"文平里","LIN":"1鄰","STREET":"建平七街","SECT":" ","MAREA":" ","LANE":"２６巷","ALLEY":" ","HOUSE_NO":"６１號","E_COORD97":166569.04000000001,"N_COORD97":2543251.9199999999,"ADDRESS":"建平七街２６巷６１號","OBJECTID":338997},"geometry":{"x":166569.04000000097,"y":2543251.9200000037}},{"attributes":{"ID":339007,"DIS_CODE":0,"TOWNNAME":"安平區","LI":"文平里","LIN":"1鄰","STREET":"建平七街","SECT":" ","MAREA":" ","LANE":"２６巷","ALLEY":" ","HOUSE_NO":"７號","E_COORD97":166462.19,"N_COORD97":2543268.02,"ADDRESS":"建平七街２６巷７號","OBJECTID":338998},"geometry":{"x":166462.19000000041,"y":2543268.0200000014}},{"attributes":{"ID":339008,"DIS_CODE":0,"TOWNNAME":"安平區","LI":"文平里","LIN":"1鄰","STREET":"建平七街","SECT":" ","MAREA":" ","LANE":"２６巷","ALLEY":" ","HOUSE_NO":"９號","E_COORD97":166466.79000000001,"N_COORD97":2543266.6099999999,"ADDRESS":"建平七街２６巷９號","OBJECTID":338999},"geometry":{"x":166466.79000000004,"y":2543266.6099999975}},{"attributes":{"ID":339009,"DIS_CODE":0,"TOWNNAME":"安平區","LI":"國平里","LIN":"1鄰","STREET":"建平七街","SECT":" ","MAREA":" ","LANE":"４１６巷","ALLEY":" ","HOUSE_NO":"３號","E_COORD97":165549.97,"N_COORD97":2543360.0899999999,"ADDRESS":"建平七街４１６巷３號","OBJECTID":339000},"geometry":{"x":165549.96999999881,"y":2543360.0900000017}}]}