{"displayFieldName":"TOWNNAME","fieldAliases":{"ID":"ID","DIS_CODE":"DIS_CODE","TOWNNAME":"TOWNNAME","LI":"LI","LIN":"LIN","STREET":"STREET","SECT":"SECT","MAREA":"MAREA","LANE":"LANE","ALLEY":"ALLEY","HOUSE_NO":"HOUSE_NO","E_COORD97":"E_COORD97","N_COORD97":"N_COORD97","ADDRESS":"ADDRESS","OBJECTID":"OBJECTID"},"geometryType":"esriGeometryPoint","spatialReference":{"wkid":102443,"latestWkid":3826},"fields":[{"name":"ID","type":"esriFieldTypeDouble","alias":"ID"},{"name":"DIS_CODE","type":"esriFieldTypeInteger","alias":"DIS_CODE"},{"name":"TOWNNAME","type":"esriFieldTypeString","alias":"TOWNNAME","length":8},{"name":"LI","type":"esriFieldTypeString","alias":"LI","length":8},{"name":"LIN","type":"esriFieldTypeString","alias":"LIN","length":12},{"name":"STREET","type":"esriFieldTypeString","alias":"STREET","length":20},{"name":"SECT","type":"esriFieldTypeString","alias":"SECT","length":8},{"name":"MAREA","type":"esriFieldTypeString","alias":"MAREA","length":12},{"name":"LANE","type":"esriFieldTypeString","alias":"LANE","length":10},{"name":"ALLEY","type":"esriFieldTypeString","alias":"ALLEY","length":10},{"name":"HOUSE_NO","type":"esriFieldTypeString","alias":"HOUSE_NO","length":20},{"name":"E_COORD97","type":"esriFieldTypeDouble","alias":"E_COORD97"},{"name":"N_COORD97","type":"esriFieldTypeDouble","alias":"N_COORD97"},{"name":"ADDRESS","type":"esriFieldTypeString","alias":"ADDRESS","length":50},{"name":"OBJECTID","type":"esriFieldTypeOID","alias":"OBJECTID"}],"features":[{"attributes":{"ID":417825,"DIS_CODE":0,"TOWNNAME":"北區","LI":"大仁里","LIN":"2鄰","STREET":"北門路","SECT":"二段","MAREA":" ","LANE":"２８４巷","ALLEY":" ","HOUSE_NO":"８號","E_COORD97":169548.92000000001,"N_COORD97":2545288.0099999998,"ADDRESS":"北門路二段２８４巷８號","OBJECTID":417801},"geometry":{"x":169548.91999999993,"y":2545288.0099999998}},{"attributes":{"ID":417826,"DIS_CODE":0,"TOWNNAME":"北區","LI":"大仁里","LIN":"2鄰","STREET":"北門路","SECT":"二段","MAREA":" ","LANE":"２８４巷","ALLEY":" ","HOUSE_NO":"９號","E_COORD97":169564.42000000001,"N_COORD97":2545289.0899999999,"ADDRESS":"北門路二段２８４巷９號","OBJECTID":417802},"geometry":{"x":169564.41999999993,"y":2545289.0900000017}},{"attributes":{"ID":417827,"DIS_CODE":0,"TOWNNAME":"北區","LI":"大仁里","LIN":"2鄰","STREET":"北門路","SECT":"二段","MAREA":" ","LANE":"３１６巷","ALLEY":" ","HOUSE_NO":"１０號","E_COORD97":169566.62,"N_COORD97":2545299.7400000002,"ADDRESS":"北門路二段３１６巷１０號","OBJECTID":417803},"geometry":{"x":169566.62000000011,"y":2545299.7400000002}},{"attributes":{"ID":417828,"DIS_CODE":0,"TOWNNAME":"北區","LI":"大仁里","LIN":"2鄰","STREET":"北門路","SECT":"二段","MAREA":" ","LANE":"３１６巷","ALLEY":" ","HOUSE_NO":"１２號","E_COORD97":169565.19,"N_COORD97":2545297.29,"ADDRESS":"北門路二段３１６巷１２號","OBJECTID":417804},"geometry":{"x":169565.19000000227,"y":2545297.290000001}},{"attributes":{"ID":417829,"DIS_CODE":0,"TOWNNAME":"北區","LI":"大仁里","LIN":"2鄰","STREET":"北門路","SECT":"二段","MAREA":" ","LANE":"３１６巷","ALLEY":" ","HOUSE_NO":"１４號","E_COORD97":169563.54000000001,"N_COORD97":2545294.6299999999,"ADDRESS":"北門路二段３１６巷１４號","OBJECTID":417805},"geometry":{"x":169563.54000000004,"y":2545294.6300000008}},{"attributes":{"ID":417830,"DIS_CODE":0,"TOWNNAME":"北區","LI":"大仁里","LIN":"2鄰","STREET":"北門路","SECT":"二段","MAREA":" ","LANE":"３１６巷","ALLEY":" ","HOUSE_NO":"６號","E_COORD97":169571.35000000001,"N_COORD97":2545307.7200000002,"ADDRESS":"北門路二段３１６巷６號","OBJECTID":417806},"geometry":{"x":169571.34999999963,"y":2545307.7200000007}},{"attributes":{"ID":417831,"DIS_CODE":0,"TOWNNAME":"北區","LI":"大仁里","LIN":"2鄰","STREET":"北門路","SECT":"二段","MAREA":" ","LANE":"３１６巷","ALLEY":" ","HOUSE_NO":"８號","E_COORD97":169567.98000000001,"N_COORD97":2545302.2200000002,"ADDRESS":"北門路二段３１６巷８號","OBJECTID":417807},"geometry":{"x":169567.98000000045,"y":2545302.2200000025}},{"attributes":{"ID":417832,"DIS_CODE":0,"TOWNNAME":"北區","LI":"大仁里","LIN":"2鄰","STREET":"北門路","SECT":"二段","MAREA":" ","LANE":"３４４巷","ALLEY":" ","HOUSE_NO":"１７號","E_COORD97":169601.34,"N_COORD97":2545357.25,"ADDRESS":"北門路二段３４４巷１７號","OBJECTID":417808},"geometry":{"x":169601.34000000078,"y":2545357.25}},{"attributes":{"ID":417833,"DIS_CODE":0,"TOWNNAME":"北區","LI":"大仁里","LIN":"2鄰","STREET":"北門路","SECT":"二段","MAREA":" ","LANE":"３４４巷","ALLEY":" ","HOUSE_NO":"２１號","E_COORD97":169595.42000000001,"N_COORD97":2545346.4500000002,"ADDRESS":"北門路二段３４４巷２１號","OBJECTID":417809},"geometry":{"x":169595.42000000179,"y":2545346.4500000011}},{"attributes":{"ID":417834,"DIS_CODE":0,"TOWNNAME":"北區","LI":"大仁里","LIN":"2鄰","STREET":"北門路","SECT":"二段","MAREA":" ","LANE":"３４４巷","ALLEY":" ","HOUSE_NO":"２５號","E_COORD97":169590.26000000001,"N_COORD97":2545339.23,"ADDRESS":"北門路二段３４４巷２５號","OBJECTID":417810},"geometry":{"x":169590.26000000071,"y":2545339.2300000023}},{"attributes":{"ID":417835,"DIS_CODE":0,"TOWNNAME":"北區","LI":"大和里","LIN":"2鄰","STREET":"大興街","SECT":" ","MAREA":" ","LANE":"４０巷","ALLEY":" ","HOUSE_NO":"１０４號","E_COORD97":167249.59,"N_COORD97":2546089.02,"ADDRESS":"大興街４０巷１０４號","OBJECTID":417811},"geometry":{"x":167249.58999999892,"y":2546089.0200000014}},{"attributes":{"ID":417836,"DIS_CODE":0,"TOWNNAME":"北區","LI":"大和里","LIN":"2鄰","STREET":"大興街","SECT":" ","MAREA":" ","LANE":"４０巷","ALLEY":" ","HOUSE_NO":"１４號","E_COORD97":167266.85999999999,"N_COORD97":2545876.4700000002,"ADDRESS":"大興街４０巷１４號","OBJECTID":417812},"geometry":{"x":167266.8599999994,"y":2545876.4700000044}},{"attributes":{"ID":417837,"DIS_CODE":0,"TOWNNAME":"北區","LI":"大和里","LIN":"2鄰","STREET":"大興街","SECT":" ","MAREA":" ","LANE":"４０巷","ALLEY":" ","HOUSE_NO":"１４號之２","E_COORD97":167263.73000000001,"N_COORD97":2545885.6600000001,"ADDRESS":"大興街４０巷１４號之２","OBJECTID":417813},"geometry":{"x":167263.73000000138,"y":2545885.660000002}},{"attributes":{"ID":417838,"DIS_CODE":0,"TOWNNAME":"歸仁區","LI":"新厝里","LIN":"2鄰","STREET":"中正一街","SECT":" ","MAREA":" ","LANE":"１６巷","ALLEY":" ","HOUSE_NO":"３號","E_COORD97":177677.14999999999,"N_COORD97":2540680.25,"ADDRESS":"中正一街１６巷３號","OBJECTID":417814},"geometry":{"x":177677.1500000013,"y":2540680.2500000019}},{"attributes":{"ID":417839,"DIS_CODE":0,"TOWNNAME":"北區","LI":"大和里","LIN":"2鄰","STREET":"大興街","SECT":" ","MAREA":" ","LANE":"４０巷","ALLEY":" ","HOUSE_NO":"１４號之３","E_COORD97":167263.57000000001,"N_COORD97":2545889.9500000002,"ADDRESS":"大興街４０巷１４號之３","OBJECTID":417815},"geometry":{"x":167263.5700000003,"y":2545889.9500000011}},{"attributes":{"ID":417840,"DIS_CODE":0,"TOWNNAME":"北區","LI":"大和里","LIN":"2鄰","STREET":"大興街","SECT":" ","MAREA":" ","LANE":"４０巷","ALLEY":" ","HOUSE_NO":"２６號","E_COORD97":167265.32999999999,"N_COORD97":2545905.9399999999,"ADDRESS":"大興街４０巷２６號","OBJECTID":417816},"geometry":{"x":167265.33000000194,"y":2545905.9400000032}},{"attributes":{"ID":417841,"DIS_CODE":0,"TOWNNAME":"北區","LI":"大和里","LIN":"2鄰","STREET":"大興街","SECT":" ","MAREA":" ","LANE":"４０巷","ALLEY":" ","HOUSE_NO":"２８號","E_COORD97":167264.84,"N_COORD97":2545910.1499999999,"ADDRESS":"大興街４０巷２８號","OBJECTID":417817},"geometry":{"x":167264.83999999892,"y":2545910.1500000022}},{"attributes":{"ID":417842,"DIS_CODE":0,"TOWNNAME":"北區","LI":"大和里","LIN":"2鄰","STREET":"大興街","SECT":" ","MAREA":" ","LANE":"４０巷","ALLEY":" ","HOUSE_NO":"２號","E_COORD97":167268.62,"N_COORD97":2545846.9900000002,"ADDRESS":"大興街４０巷２號","OBJECTID":417818},"geometry":{"x":167268.62000000104,"y":2545846.9900000002}},{"attributes":{"ID":417843,"DIS_CODE":0,"TOWNNAME":"北區","LI":"大和里","LIN":"2鄰","STREET":"大興街","SECT":" ","MAREA":" ","LANE":"４０巷","ALLEY":" ","HOUSE_NO":"３０號","E_COORD97":167264.35000000001,"N_COORD97":2545915.4199999999,"ADDRESS":"大興街４０巷３０號","OBJECTID":417819},"geometry":{"x":167264.34999999963,"y":2545915.4199999999}},{"attributes":{"ID":417844,"DIS_CODE":0,"TOWNNAME":"北區","LI":"大和里","LIN":"2鄰","STREET":"大興街","SECT":" ","MAREA":" ","LANE":"４０巷","ALLEY":" ","HOUSE_NO":"３２號","E_COORD97":167263.92999999999,"N_COORD97":2545920.0499999998,"ADDRESS":"大興街４０巷３２號","OBJECTID":417820},"geometry":{"x":167263.9299999997,"y":2545920.0500000045}},{"attributes":{"ID":417845,"DIS_CODE":0,"TOWNNAME":"北區","LI":"大和里","LIN":"2鄰","STREET":"大興街","SECT":" ","MAREA":" ","LANE":"４０巷","ALLEY":" ","HOUSE_NO":"３４號","E_COORD97":167264.35000000001,"N_COORD97":2545925.8900000001,"ADDRESS":"大興街４０巷３４號","OBJECTID":417821},"geometry":{"x":167264.34999999963,"y":2545925.8900000025}},{"attributes":{"ID":417846,"DIS_CODE":0,"TOWNNAME":"北區","LI":"大和里","LIN":"2鄰","STREET":"大興街","SECT":" ","MAREA":" ","LANE":"４０巷","ALLEY":" ","HOUSE_NO":"３６號","E_COORD97":167264.35000000001,"N_COORD97":2545929.1099999999,"ADDRESS":"大興街４０巷３６號","OBJECTID":417822},"geometry":{"x":167264.34999999963,"y":2545929.1100000013}},{"attributes":{"ID":417847,"DIS_CODE":0,"TOWNNAME":"北區","LI":"大和里","LIN":"2鄰","STREET":"大興街","SECT":" ","MAREA":" ","LANE":"４０巷","ALLEY":" ","HOUSE_NO":"３８號","E_COORD97":167263.70999999999,"N_COORD97":2545934.4700000002,"ADDRESS":"大興街４０巷３８號","OBJECTID":417823},"geometry":{"x":167263.70999999996,"y":2545934.4700000025}},{"attributes":{"ID":417848,"DIS_CODE":0,"TOWNNAME":"北區","LI":"大和里","LIN":"2鄰","STREET":"大興街","SECT":" ","MAREA":" ","LANE":"４０巷","ALLEY":" ","HOUSE_NO":"４６號","E_COORD97":167261.81,"N_COORD97":2545947.8199999998,"ADDRESS":"大興街４０巷４６號","OBJECTID":417824},"geometry":{"x":167261.81000000052,"y":2545947.8200000003}},{"attributes":{"ID":417849,"DIS_CODE":0,"TOWNNAME":"北區","LI":"大和里","LIN":"2鄰","STREET":"大興街","SECT":" ","MAREA":" ","LANE":"４０巷","ALLEY":" ","HOUSE_NO":"４６號之１","E_COORD97":167261.67000000001,"N_COORD97":2545951.3999999999,"ADDRESS":"大興街４０巷４６號之１","OBJECTID":417825},"geometry":{"x":167261.67000000086,"y":2545951.4000000022}},{"attributes":{"ID":417850,"DIS_CODE":0,"TOWNNAME":"學甲區","LI":"慈福里","LIN":"13鄰","STREET":"民族路","SECT":" ","MAREA":" ","LANE":" ","ALLEY":" ","HOUSE_NO":"５３號之２","E_COORD97":166607.35999999999,"N_COORD97":2570318.25,"ADDRESS":"民族路５３號之２","OBJECTID":417826},"geometry":{"x":166607.36000000034,"y":2570318.2500000037}},{"attributes":{"ID":417851,"DIS_CODE":0,"TOWNNAME":"北區","LI":"大和里","LIN":"2鄰","STREET":"大興街","SECT":" ","MAREA":" ","LANE":"４０巷","ALLEY":" ","HOUSE_NO":"４６號之２","E_COORD97":167261.45999999999,"N_COORD97":2545956.46,"ADDRESS":"大興街４０巷４６號之２","OBJECTID":417827},"geometry":{"x":167261.46000000089,"y":2545956.4600000009}},{"attributes":{"ID":417852,"DIS_CODE":0,"TOWNNAME":"北區","LI":"大和里","LIN":"2鄰","STREET":"大興街","SECT":" ","MAREA":" ","LANE":"４０巷","ALLEY":" ","HOUSE_NO":"４８號","E_COORD97":167261.32000000001,"N_COORD97":2545961.1600000001,"ADDRESS":"大興街４０巷４８號","OBJECTID":417828},"geometry":{"x":167261.3200000003,"y":2545961.1600000001}},{"attributes":{"ID":417853,"DIS_CODE":0,"TOWNNAME":"北區","LI":"大和里","LIN":"2鄰","STREET":"大興街","SECT":" ","MAREA":" ","LANE":"４０巷","ALLEY":" ","HOUSE_NO":"５０號","E_COORD97":167261.04000000001,"N_COORD97":2545966.5099999998,"ADDRESS":"大興街４０巷５０號","OBJECTID":417829},"geometry":{"x":167261.04000000097,"y":2545966.5100000035}},{"attributes":{"ID":417854,"DIS_CODE":0,"TOWNNAME":"北區","LI":"大和里","LIN":"2鄰","STREET":"大興街","SECT":" ","MAREA":" ","LANE":"４０巷","ALLEY":" ","HOUSE_NO":"５２號","E_COORD97":167260.97,"N_COORD97":2545970.1000000001,"ADDRESS":"大興街４０巷５２號","OBJECTID":417830},"geometry":{"x":167260.97000000067,"y":2545970.1000000015}},{"attributes":{"ID":417855,"DIS_CODE":0,"TOWNNAME":"北區","LI":"大和里","LIN":"2鄰","STREET":"大興街","SECT":" ","MAREA":" ","LANE":"４０巷","ALLEY":" ","HOUSE_NO":"５８號","E_COORD97":167258.94,"N_COORD97":2545983.8700000001,"ADDRESS":"大興街４０巷５８號","OBJECTID":417831},"geometry":{"x":167258.94000000041,"y":2545983.8700000029}},{"attributes":{"ID":417856,"DIS_CODE":0,"TOWNNAME":"北區","LI":"大和里","LIN":"2鄰","STREET":"大興街","SECT":" ","MAREA":" ","LANE":"４０巷","ALLEY":" ","HOUSE_NO":"６０號","E_COORD97":167258.45000000001,"N_COORD97":2545988.1499999999,"ADDRESS":"大興街４０巷６０號","OBJECTID":417832},"geometry":{"x":167258.45000000112,"y":2545988.1500000022}},{"attributes":{"ID":417857,"DIS_CODE":0,"TOWNNAME":"北區","LI":"大和里","LIN":"2鄰","STREET":"大興街","SECT":" ","MAREA":" ","LANE":"４０巷","ALLEY":" ","HOUSE_NO":"６２號","E_COORD97":167257.95000000001,"N_COORD97":2545992.5299999998,"ADDRESS":"大興街４０巷６２號","OBJECTID":417833},"geometry":{"x":167257.95000000112,"y":2545992.5299999993}},{"attributes":{"ID":417858,"DIS_CODE":0,"TOWNNAME":"北區","LI":"大和里","LIN":"2鄰","STREET":"大興街","SECT":" ","MAREA":" ","LANE":"４０巷","ALLEY":" ","HOUSE_NO":"６４號","E_COORD97":167257.39000000001,"N_COORD97":2545997.6499999999,"ADDRESS":"大興街４０巷６４號","OBJECTID":417834},"geometry":{"x":167257.38999999966,"y":2545997.6500000022}},{"attributes":{"ID":417859,"DIS_CODE":0,"TOWNNAME":"北區","LI":"大和里","LIN":"2鄰","STREET":"大興街","SECT":" ","MAREA":" ","LANE":"４０巷","ALLEY":" ","HOUSE_NO":"６６號","E_COORD97":167257.04000000001,"N_COORD97":2546002.0699999998,"ADDRESS":"大興街４０巷６６號","OBJECTID":417835},"geometry":{"x":167257.0400000019,"y":2546002.0700000022}},{"attributes":{"ID":417860,"DIS_CODE":0,"TOWNNAME":"北區","LI":"大和里","LIN":"2鄰","STREET":"大興街","SECT":" ","MAREA":" ","LANE":"４０巷","ALLEY":" ","HOUSE_NO":"６８號","E_COORD97":167256.62,"N_COORD97":2546005.9300000002,"ADDRESS":"大興街４０巷６８號","OBJECTID":417836},"geometry":{"x":167256.62000000197,"y":2546005.9300000016}},{"attributes":{"ID":417861,"DIS_CODE":0,"TOWNNAME":"北區","LI":"大和里","LIN":"2鄰","STREET":"大興街","SECT":" ","MAREA":" ","LANE":"４０巷","ALLEY":" ","HOUSE_NO":"６號","E_COORD97":167267.29000000001,"N_COORD97":2545856.6000000001,"ADDRESS":"大興街４０巷６號","OBJECTID":417837},"geometry":{"x":167267.2900000019,"y":2545856.5999999996}},{"attributes":{"ID":417862,"DIS_CODE":0,"TOWNNAME":"北區","LI":"大和里","LIN":"2鄰","STREET":"大興街","SECT":" ","MAREA":" ","LANE":"４０巷","ALLEY":" ","HOUSE_NO":"７０號","E_COORD97":167255.70999999999,"N_COORD97":2546010.5,"ADDRESS":"大興街４０巷７０號","OBJECTID":417838},"geometry":{"x":167255.71000000183,"y":2546010.5}},{"attributes":{"ID":417863,"DIS_CODE":0,"TOWNNAME":"北區","LI":"大和里","LIN":"2鄰","STREET":"大興街","SECT":" ","MAREA":" ","LANE":"４０巷","ALLEY":" ","HOUSE_NO":"７２號","E_COORD97":167255.5,"N_COORD97":2546015.0099999998,"ADDRESS":"大興街４０巷７２號","OBJECTID":417839},"geometry":{"x":167255.50000000186,"y":2546015.0100000016}},{"attributes":{"ID":417864,"DIS_CODE":0,"TOWNNAME":"北區","LI":"大和里","LIN":"2鄰","STREET":"大興街","SECT":" ","MAREA":" ","LANE":"４０巷","ALLEY":" ","HOUSE_NO":"７４號","E_COORD97":167255.70999999999,"N_COORD97":2546020,"ADDRESS":"大興街４０巷７４號","OBJECTID":417840},"geometry":{"x":167255.71000000183,"y":2546020}},{"attributes":{"ID":417865,"DIS_CODE":0,"TOWNNAME":"北區","LI":"大和里","LIN":"2鄰","STREET":"大興街","SECT":" ","MAREA":" ","LANE":"４０巷","ALLEY":" ","HOUSE_NO":"７６號","E_COORD97":167255.29000000001,"N_COORD97":2546024.4900000002,"ADDRESS":"大興街４０巷７６號","OBJECTID":417841},"geometry":{"x":167255.2900000019,"y":2546024.4900000002}},{"attributes":{"ID":417866,"DIS_CODE":0,"TOWNNAME":"北區","LI":"大和里","LIN":"2鄰","STREET":"大興街","SECT":" ","MAREA":" ","LANE":"４０巷","ALLEY":" ","HOUSE_NO":"７８號","E_COORD97":167254.94,"N_COORD97":2546029.75,"ADDRESS":"大興街４０巷７８號","OBJECTID":417842},"geometry":{"x":167254.94000000134,"y":2546029.7500000037}},{"attributes":{"ID":417867,"DIS_CODE":0,"TOWNNAME":"北區","LI":"大和里","LIN":"2鄰","STREET":"大興街","SECT":" ","MAREA":" ","LANE":"４０巷","ALLEY":" ","HOUSE_NO":"８號","E_COORD97":167267.29000000001,"N_COORD97":2545860.9500000002,"ADDRESS":"大興街４０巷８號","OBJECTID":417843},"geometry":{"x":167267.2900000019,"y":2545860.9499999993}},{"attributes":{"ID":417868,"DIS_CODE":0,"TOWNNAME":"北區","LI":"大和里","LIN":"2鄰","STREET":"大興街","SECT":" ","MAREA":" ","LANE":"４０巷","ALLEY":" ","HOUSE_NO":"９４號","E_COORD97":167251,"N_COORD97":2546063.5899999999,"ADDRESS":"大興街４０巷９４號","OBJECTID":417844},"geometry":{"x":167251.00000000093,"y":2546063.5899999999}},{"attributes":{"ID":417869,"DIS_CODE":0,"TOWNNAME":"歸仁區","LI":"南興里","LIN":"2鄰","STREET":"文化十二街","SECT":" ","MAREA":" ","LANE":"８２巷","ALLEY":" ","HOUSE_NO":"１號","E_COORD97":176473.29000000001,"N_COORD97":2541357.3300000001,"ADDRESS":"文化十二街８２巷１號","OBJECTID":417845},"geometry":{"x":176473.29000000004,"y":2541357.3300000038}},{"attributes":{"ID":417870,"DIS_CODE":0,"TOWNNAME":"歸仁區","LI":"媽廟里","LIN":"2鄰","STREET":"媽廟一街","SECT":" ","MAREA":" ","LANE":"３８巷","ALLEY":" ","HOUSE_NO":"２０號","E_COORD97":177412.98000000001,"N_COORD97":2543590.7200000002,"ADDRESS":"媽廟一街３８巷２０號","OBJECTID":417846},"geometry":{"x":177412.98000000045,"y":2543590.7200000025}},{"attributes":{"ID":417871,"DIS_CODE":0,"TOWNNAME":"歸仁區","LI":"歸南里","LIN":"2鄰","STREET":"民權南路","SECT":" ","MAREA":" ","LANE":"２３４巷","ALLEY":" ","HOUSE_NO":"８號","E_COORD97":176915.51000000001,"N_COORD97":2540267.5,"ADDRESS":"民權南路２３４巷８號","OBJECTID":417847},"geometry":{"x":176915.50999999978,"y":2540267.4999999981}},{"attributes":{"ID":417872,"DIS_CODE":0,"TOWNNAME":"歸仁區","LI":"歸仁里","LIN":"2鄰","STREET":"文化街","SECT":"一段","MAREA":" ","LANE":"１７５巷","ALLEY":" ","HOUSE_NO":"１５號","E_COORD97":177774.94,"N_COORD97":2541055.0499999998,"ADDRESS":"文化街一段１７５巷１５號","OBJECTID":417848},"geometry":{"x":177774.93999999948,"y":2541055.0500000026}},{"attributes":{"ID":417873,"DIS_CODE":0,"TOWNNAME":"歸仁區","LI":"歸南里","LIN":"2鄰","STREET":"民權南路","SECT":" ","MAREA":" ","LANE":"２３４巷","ALLEY":" ","HOUSE_NO":"６號","E_COORD97":176919.60999999999,"N_COORD97":2540267.5,"ADDRESS":"民權南路２３４巷６號","OBJECTID":417849},"geometry":{"x":176919.61000000127,"y":2540267.4999999981}},{"attributes":{"ID":417874,"DIS_CODE":0,"TOWNNAME":"歸仁區","LI":"歸南里","LIN":"2鄰","STREET":"民權南路","SECT":" ","MAREA":" ","LANE":"２３４巷","ALLEY":" ","HOUSE_NO":"１０號","E_COORD97":176911.66,"N_COORD97":2540267.5,"ADDRESS":"民權南路２３４巷１０號","OBJECTID":417850},"geometry":{"x":176911.66000000015,"y":2540267.4999999981}},{"attributes":{"ID":417875,"DIS_CODE":0,"TOWNNAME":"歸仁區","LI":"辜厝里","LIN":"2鄰","STREET":"中山路","SECT":"二段","MAREA":" ","LANE":"３５巷","ALLEY":" ","HOUSE_NO":"６號","E_COORD97":177505.20999999999,"N_COORD97":2540748.1200000001,"ADDRESS":"中山路二段３５巷６號","OBJECTID":417851},"geometry":{"x":177505.21000000089,"y":2540748.120000001}},{"attributes":{"ID":417876,"DIS_CODE":0,"TOWNNAME":"歸仁區","LI":"新厝里","LIN":"2鄰","STREET":"中正一街","SECT":" ","MAREA":" ","LANE":"１６巷","ALLEY":" ","HOUSE_NO":"７號","E_COORD97":177677.14999999999,"N_COORD97":2540672.25,"ADDRESS":"中正一街１６巷７號","OBJECTID":417852},"geometry":{"x":177677.1500000013,"y":2540672.25}},{"attributes":{"ID":417877,"DIS_CODE":0,"TOWNNAME":"歸仁區","LI":"新厝里","LIN":"2鄰","STREET":"中正一街","SECT":" ","MAREA":" ","LANE":"１６巷","ALLEY":" ","HOUSE_NO":"２號","E_COORD97":177667.95000000001,"N_COORD97":2540683.2400000002,"ADDRESS":"中正一街１６巷２號","OBJECTID":417853},"geometry":{"x":177667.95000000205,"y":2540683.2400000039}},{"attributes":{"ID":417878,"DIS_CODE":0,"TOWNNAME":"歸仁區","LI":"辜厝里","LIN":"2鄰","STREET":"中山路","SECT":"二段","MAREA":" ","LANE":"３５巷","ALLEY":" ","HOUSE_NO":"８號","E_COORD97":177505.20999999999,"N_COORD97":2540744.1200000001,"ADDRESS":"中山路二段３５巷８號","OBJECTID":417854},"geometry":{"x":177505.21000000089,"y":2540744.1200000029}},{"attributes":{"ID":417879,"DIS_CODE":0,"TOWNNAME":"歸仁區","LI":"歸南里","LIN":"2鄰","STREET":"民權南路","SECT":" ","MAREA":" ","LANE":"２１２巷","ALLEY":" ","HOUSE_NO":"１號","E_COORD97":176926.91,"N_COORD97":2540304.5,"ADDRESS":"民權南路２１２巷１號","OBJECTID":417855},"geometry":{"x":176926.91000000015,"y":2540304.5}},{"attributes":{"ID":417880,"DIS_CODE":0,"TOWNNAME":"歸仁區","LI":"歸南里","LIN":"2鄰","STREET":"民權南路","SECT":" ","MAREA":" ","LANE":"２３４巷","ALLEY":" ","HOUSE_NO":"２號","E_COORD97":176923.70999999999,"N_COORD97":2540267.5,"ADDRESS":"民權南路２３４巷２號","OBJECTID":417856},"geometry":{"x":176923.71000000089,"y":2540267.4999999981}},{"attributes":{"ID":417881,"DIS_CODE":0,"TOWNNAME":"歸仁區","LI":"歸仁里","LIN":"2鄰","STREET":"文化街","SECT":"一段","MAREA":" ","LANE":"１７５巷","ALLEY":" ","HOUSE_NO":"１７號","E_COORD97":177766.64000000001,"N_COORD97":2541041.0499999998,"ADDRESS":"文化街一段１７５巷１７號","OBJECTID":417857},"geometry":{"x":177766.6400000006,"y":2541041.0500000045}},{"attributes":{"ID":417882,"DIS_CODE":0,"TOWNNAME":"歸仁區","LI":"歸南里","LIN":"2鄰","STREET":"民權南路","SECT":" ","MAREA":" ","LANE":"２１２巷","ALLEY":" ","HOUSE_NO":"１０號","E_COORD97":176914.95999999999,"N_COORD97":2540319.5,"ADDRESS":"民權南路２１２巷１０號","OBJECTID":417858},"geometry":{"x":176914.96000000183,"y":2540319.5000000019}},{"attributes":{"ID":417883,"DIS_CODE":0,"TOWNNAME":"歸仁區","LI":"新厝里","LIN":"2鄰","STREET":"中正一街","SECT":" ","MAREA":" ","LANE":"１６巷","ALLEY":" ","HOUSE_NO":"１０號","E_COORD97":177668.10000000001,"N_COORD97":2540672.25,"ADDRESS":"中正一街１６巷１０號","OBJECTID":417859},"geometry":{"x":177668.10000000149,"y":2540672.25}},{"attributes":{"ID":417884,"DIS_CODE":0,"TOWNNAME":"歸仁區","LI":"歸南里","LIN":"2鄰","STREET":"民權南路","SECT":" ","MAREA":" ","LANE":"２１２巷","ALLEY":" ","HOUSE_NO":"３號","E_COORD97":176922.81,"N_COORD97":2540304.5,"ADDRESS":"民權南路２１２巷３號","OBJECTID":417860},"geometry":{"x":176922.81000000052,"y":2540304.5}},{"attributes":{"ID":417885,"DIS_CODE":0,"TOWNNAME":"鹽水區","LI":"岸內里","LIN":"24鄰","STREET":"北門路","SECT":" ","MAREA":" ","LANE":"９巷","ALLEY":" ","HOUSE_NO":"３５號","E_COORD97":175412.67000000001,"N_COORD97":2580409.29,"ADDRESS":"北門路９巷３５號","OBJECTID":417861},"geometry":{"x":175412.66999999993,"y":2580409.2899999991}},{"attributes":{"ID":417886,"DIS_CODE":0,"TOWNNAME":"歸仁區","LI":"歸南里","LIN":"2鄰","STREET":"民權南路","SECT":" ","MAREA":" ","LANE":"２１２巷","ALLEY":" ","HOUSE_NO":"８號","E_COORD97":176918.81,"N_COORD97":2540319.5,"ADDRESS":"民權南路２１２巷８號","OBJECTID":417862},"geometry":{"x":176918.80999999959,"y":2540319.5000000019}},{"attributes":{"ID":417887,"DIS_CODE":0,"TOWNNAME":"歸仁區","LI":"大廟里","LIN":"2鄰","STREET":"大廟二街","SECT":" ","MAREA":" ","LANE":"９３巷","ALLEY":" ","HOUSE_NO":"９號","E_COORD97":176060.01000000001,"N_COORD97":2543925.1699999999,"ADDRESS":"大廟二街９３巷９號","OBJECTID":417863},"geometry":{"x":176060.01000000164,"y":2543925.1700000018}},{"attributes":{"ID":417888,"DIS_CODE":0,"TOWNNAME":"歸仁區","LI":"歸南里","LIN":"2鄰","STREET":"民權南路","SECT":" ","MAREA":" ","LANE":"２１２巷","ALLEY":" ","HOUSE_NO":"７號","E_COORD97":176914.60999999999,"N_COORD97":2540304.5,"ADDRESS":"民權南路２１２巷７號","OBJECTID":417864},"geometry":{"x":176914.61000000127,"y":2540304.5}},{"attributes":{"ID":417889,"DIS_CODE":0,"TOWNNAME":"歸仁區","LI":"歸南里","LIN":"2鄰","STREET":"民權南路","SECT":" ","MAREA":" ","LANE":"２１２巷","ALLEY":" ","HOUSE_NO":"６號","E_COORD97":176922.91,"N_COORD97":2540319.5,"ADDRESS":"民權南路２１２巷６號","OBJECTID":417865},"geometry":{"x":176922.91000000108,"y":2540319.5000000019}},{"attributes":{"ID":417890,"DIS_CODE":0,"TOWNNAME":"歸仁區","LI":"歸仁里","LIN":"2鄰","STREET":"文化街","SECT":"一段","MAREA":" ","LANE":"１７５巷","ALLEY":" ","HOUSE_NO":"２１號","E_COORD97":177769.64000000001,"N_COORD97":2541031.0499999998,"ADDRESS":"文化街一段１７５巷２１號","OBJECTID":417866},"geometry":{"x":177769.6400000006,"y":2541031.0500000045}},{"attributes":{"ID":417891,"DIS_CODE":0,"TOWNNAME":"歸仁區","LI":"崙頂里","LIN":"2鄰","STREET":"成功路","SECT":"一段","MAREA":" ","LANE":"３３９巷","ALLEY":" ","HOUSE_NO":"３１號","E_COORD97":178281.01000000001,"N_COORD97":2539887.3700000001,"ADDRESS":"成功路一段３３９巷３１號","OBJECTID":417867},"geometry":{"x":178281.01000000071,"y":2539887.3700000029}},{"attributes":{"ID":417892,"DIS_CODE":0,"TOWNNAME":"歸仁區","LI":"看東里","LIN":"2鄰","STREET":"成功六街","SECT":" ","MAREA":" ","LANE":"１１６巷","ALLEY":" ","HOUSE_NO":"３５號","E_COORD97":178468.31,"N_COORD97":2540352.2000000002,"ADDRESS":"成功六街１１６巷３５號","OBJECTID":417868},"geometry":{"x":178468.31000000145,"y":2540352.1999999993}},{"attributes":{"ID":417893,"DIS_CODE":0,"TOWNNAME":"歸仁區","LI":"看東里","LIN":"2鄰","STREET":"成功六街","SECT":" ","MAREA":" ","LANE":"１１６巷","ALLEY":" ","HOUSE_NO":"４９號","E_COORD97":178467.20999999999,"N_COORD97":2540329.2000000002,"ADDRESS":"成功六街１１６巷４９號","OBJECTID":417869},"geometry":{"x":178467.20999999996,"y":2540329.1999999993}},{"attributes":{"ID":417894,"DIS_CODE":0,"TOWNNAME":"歸仁區","LI":"看東里","LIN":"2鄰","STREET":"成功六街","SECT":" ","MAREA":" ","LANE":"１１６巷","ALLEY":" ","HOUSE_NO":"５５號","E_COORD97":178470.82999999999,"N_COORD97":2540316.8300000001,"ADDRESS":"成功六街１１６巷５５號","OBJECTID":417870},"geometry":{"x":178470.83000000101,"y":2540316.8300000019}},{"attributes":{"ID":417895,"DIS_CODE":0,"TOWNNAME":"歸仁區","LI":"南興里","LIN":"2鄰","STREET":"文化十二街","SECT":" ","MAREA":" ","LANE":"８２巷","ALLEY":" ","HOUSE_NO":"２９號","E_COORD97":176522.73999999999,"N_COORD97":2541361.3300000001,"ADDRESS":"文化十二街８２巷２９號","OBJECTID":417871},"geometry":{"x":176522.74000000022,"y":2541361.3300000019}},{"attributes":{"ID":417896,"DIS_CODE":0,"TOWNNAME":"歸仁區","LI":"南興里","LIN":"2鄰","STREET":"文化十二街","SECT":" ","MAREA":" ","LANE":"７６巷","ALLEY":" ","HOUSE_NO":"１５號","E_COORD97":176523.64000000001,"N_COORD97":2541347.3300000001,"ADDRESS":"文化十二街７６巷１５號","OBJECTID":417872},"geometry":{"x":176523.64000000153,"y":2541347.3300000038}},{"attributes":{"ID":417897,"DIS_CODE":0,"TOWNNAME":"歸仁區","LI":"南興里","LIN":"2鄰","STREET":"文化十二街","SECT":" ","MAREA":" ","LANE":"８２巷","ALLEY":" ","HOUSE_NO":"２７號","E_COORD97":176517.64000000001,"N_COORD97":2541361.3300000001,"ADDRESS":"文化十二街８２巷２７號","OBJECTID":417873},"geometry":{"x":176517.63999999966,"y":2541361.3300000019}},{"attributes":{"ID":417898,"DIS_CODE":0,"TOWNNAME":"歸仁區","LI":"南興里","LIN":"2鄰","STREET":"文化十二街","SECT":" ","MAREA":" ","LANE":"８２巷","ALLEY":" ","HOUSE_NO":"３１號","E_COORD97":176526.84,"N_COORD97":2541362.3300000001,"ADDRESS":"文化十二街８２巷３１號","OBJECTID":417874},"geometry":{"x":176526.83999999985,"y":2541362.3300000019}},{"attributes":{"ID":417899,"DIS_CODE":0,"TOWNNAME":"歸仁區","LI":"南興里","LIN":"2鄰","STREET":"文化十二街","SECT":" ","MAREA":" ","LANE":"８２巷","ALLEY":" ","HOUSE_NO":"２５號","E_COORD97":176512.44,"N_COORD97":2541360.3300000001,"ADDRESS":"文化十二街８２巷２５號","OBJECTID":417875},"geometry":{"x":176512.44000000134,"y":2541360.3300000001}},{"attributes":{"ID":417900,"DIS_CODE":0,"TOWNNAME":"歸仁區","LI":"南興里","LIN":"2鄰","STREET":"文化十二街","SECT":" ","MAREA":" ","LANE":"７６巷","ALLEY":" ","HOUSE_NO":"５號","E_COORD97":176494.69,"N_COORD97":2541340.3300000001,"ADDRESS":"文化十二街７６巷５號","OBJECTID":417876},"geometry":{"x":176494.69000000041,"y":2541340.3300000038}},{"attributes":{"ID":417901,"DIS_CODE":0,"TOWNNAME":"歸仁區","LI":"西埔里","LIN":"2鄰","STREET":"西埔三街","SECT":" ","MAREA":" ","LANE":"５１巷","ALLEY":" ","HOUSE_NO":"２５號","E_COORD97":176919.89000000001,"N_COORD97":2544000.25,"ADDRESS":"西埔三街５１巷２５號","OBJECTID":417877},"geometry":{"x":176919.88999999966,"y":2544000.2500000019}},{"attributes":{"ID":417902,"DIS_CODE":0,"TOWNNAME":"歸仁區","LI":"七甲里","LIN":"2鄰","STREET":"中正北路","SECT":"二段","MAREA":" ","LANE":"４１７巷","ALLEY":" ","HOUSE_NO":"１８６號","E_COORD97":177036.01999999999,"N_COORD97":2543071.2599999998,"ADDRESS":"中正北路二段４１７巷１８６號","OBJECTID":417878},"geometry":{"x":177036.01999999862,"y":2543071.2599999998}},{"attributes":{"ID":417903,"DIS_CODE":0,"TOWNNAME":"歸仁區","LI":"大廟里","LIN":"2鄰","STREET":"大廟三街","SECT":" ","MAREA":" ","LANE":"２０巷","ALLEY":" ","HOUSE_NO":"３５號","E_COORD97":176070.39999999999,"N_COORD97":2543966.1699999999,"ADDRESS":"大廟三街２０巷３５號","OBJECTID":417879},"geometry":{"x":176070.4000000013,"y":2543966.1700000018}},{"attributes":{"ID":417904,"DIS_CODE":0,"TOWNNAME":"新營區","LI":"南紙里","LIN":"2鄰","STREET":"太子路","SECT":" ","MAREA":" ","LANE":"１３９巷","ALLEY":" ","HOUSE_NO":"６８號","E_COORD97":178000.98000000001,"N_COORD97":2577688.5899999999,"ADDRESS":"太子路１３９巷６８號","OBJECTID":417880},"geometry":{"x":178000.98000000138,"y":2577688.5899999999}},{"attributes":{"ID":417905,"DIS_CODE":0,"TOWNNAME":"新營區","LI":"南紙里","LIN":"2鄰","STREET":"太子路","SECT":" ","MAREA":" ","LANE":"１３９巷","ALLEY":" ","HOUSE_NO":"６４號","E_COORD97":178002.04999999999,"N_COORD97":2577699.6499999999,"ADDRESS":"太子路１３９巷６４號","OBJECTID":417881},"geometry":{"x":178002.04999999981,"y":2577699.6500000004}},{"attributes":{"ID":417906,"DIS_CODE":0,"TOWNNAME":"新營區","LI":"忠政里","LIN":"2鄰","STREET":"中正路","SECT":" ","MAREA":" ","LANE":"３１巷","ALLEY":" ","HOUSE_NO":"５號","E_COORD97":180070.26000000001,"N_COORD97":2579017.5699999998,"ADDRESS":"中正路３１巷５號","OBJECTID":417882},"geometry":{"x":180070.25999999978,"y":2579017.5700000022}},{"attributes":{"ID":417907,"DIS_CODE":0,"TOWNNAME":"新營區","LI":"南紙里","LIN":"2鄰","STREET":"太子路","SECT":" ","MAREA":" ","LANE":"１３９巷","ALLEY":" ","HOUSE_NO":"６２號","E_COORD97":178003.09,"N_COORD97":2577702.9700000002,"ADDRESS":"太子路１３９巷６２號","OBJECTID":417883},"geometry":{"x":178003.09000000078,"y":2577702.9700000025}},{"attributes":{"ID":417908,"DIS_CODE":0,"TOWNNAME":"歸仁區","LI":"歸南里","LIN":"2鄰","STREET":"民權南路","SECT":" ","MAREA":" ","LANE":"２１２巷","ALLEY":" ","HOUSE_NO":"５號","E_COORD97":176919.29999999999,"N_COORD97":2540305.1299999999,"ADDRESS":"民權南路２１２巷５號","OBJECTID":417884},"geometry":{"x":176919.30000000168,"y":2540305.129999999}},{"attributes":{"ID":417909,"DIS_CODE":0,"TOWNNAME":"麻豆區","LI":"中民里","LIN":"2鄰","STREET":" ","SECT":" ","MAREA":"謝厝寮","LANE":" ","ALLEY":" ","HOUSE_NO":"８７號之１２","E_COORD97":172146.14535899999,"N_COORD97":2560736.6701000002,"ADDRESS":"謝厝寮８７號之１２","OBJECTID":417885},"geometry":{"x":172146.14535900019,"y":2560736.6700960007}},{"attributes":{"ID":417910,"DIS_CODE":0,"TOWNNAME":"關廟區","LI":"東勢里","LIN":"2鄰","STREET":"和平路","SECT":" ","MAREA":" ","LANE":"１４５巷","ALLEY":" ","HOUSE_NO":"５３號","E_COORD97":181574.48999999999,"N_COORD97":2539647.25,"ADDRESS":"和平路１４５巷５３號","OBJECTID":417886},"geometry":{"x":181574.49000000022,"y":2539647.2500000019}},{"attributes":{"ID":417911,"DIS_CODE":0,"TOWNNAME":"關廟區","LI":"五甲里","LIN":"2鄰","STREET":"旺萊路","SECT":" ","MAREA":" ","LANE":"１０１巷","ALLEY":" ","HOUSE_NO":"２０號","E_COORD97":181640.09,"N_COORD97":2539312.25,"ADDRESS":"旺萊路１０１巷２０號","OBJECTID":417887},"geometry":{"x":181640.09000000171,"y":2539312.25}},{"attributes":{"ID":417912,"DIS_CODE":0,"TOWNNAME":"關廟區","LI":"北勢里","LIN":"2鄰","STREET":"仁愛路","SECT":" ","MAREA":" ","LANE":"１０７巷","ALLEY":" ","HOUSE_NO":"１號","E_COORD97":181318.25337699999,"N_COORD97":2540300.7202099999,"ADDRESS":"仁愛路１０７巷１號","OBJECTID":417888},"geometry":{"x":181318.25337699894,"y":2540300.7202080023}},{"attributes":{"ID":417913,"DIS_CODE":0,"TOWNNAME":"關廟區","LI":"五甲里","LIN":"2鄰","STREET":"旺萊路","SECT":" ","MAREA":" ","LANE":"７１巷","ALLEY":" ","HOUSE_NO":"２０號","E_COORD97":181574.04000000001,"N_COORD97":2539274.25,"ADDRESS":"旺萊路７１巷２０號","OBJECTID":417889},"geometry":{"x":181574.04000000004,"y":2539274.2500000019}},{"attributes":{"ID":417914,"DIS_CODE":0,"TOWNNAME":"關廟區","LI":"北勢里","LIN":"2鄰","STREET":"仁愛路","SECT":" ","MAREA":" ","LANE":"１０７巷","ALLEY":" ","HOUSE_NO":"８號","E_COORD97":181313.39000000001,"N_COORD97":2540313.2799999998,"ADDRESS":"仁愛路１０７巷８號","OBJECTID":417890},"geometry":{"x":181313.38999999966,"y":2540313.2800000012}},{"attributes":{"ID":417915,"DIS_CODE":0,"TOWNNAME":"關廟區","LI":"五甲里","LIN":"2鄰","STREET":"東安街","SECT":" ","MAREA":" ","LANE":"２６８巷","ALLEY":" ","HOUSE_NO":"２號","E_COORD97":181608.57000000001,"N_COORD97":2539299.3199999998,"ADDRESS":"東安街２６８巷２號","OBJECTID":417891},"geometry":{"x":181608.57000000216,"y":2539299.3200000003}},{"attributes":{"ID":417916,"DIS_CODE":0,"TOWNNAME":"關廟區","LI":"東勢里","LIN":"2鄰","STREET":"東興路","SECT":" ","MAREA":" ","LANE":"１３５巷","ALLEY":" ","HOUSE_NO":"６號","E_COORD97":181536.47,"N_COORD97":2539593.25,"ADDRESS":"東興路１３５巷６號","OBJECTID":417892},"geometry":{"x":181536.47000000067,"y":2539593.25}},{"attributes":{"ID":417917,"DIS_CODE":0,"TOWNNAME":"關廟區","LI":"田中里","LIN":"2鄰","STREET":"田大路","SECT":" ","MAREA":" ","LANE":"１２２巷","ALLEY":" ","HOUSE_NO":"８號","E_COORD97":184286.59,"N_COORD97":2533723.25,"ADDRESS":"田大路１２２巷８號","OBJECTID":417893},"geometry":{"x":184286.59000000078,"y":2533723.2500000019}},{"attributes":{"ID":417918,"DIS_CODE":0,"TOWNNAME":"關廟區","LI":"五甲里","LIN":"2鄰","STREET":"旺萊路","SECT":" ","MAREA":" ","LANE":"７１巷","ALLEY":" ","HOUSE_NO":"３７號","E_COORD97":181560.14000000001,"N_COORD97":2539313.25,"ADDRESS":"旺萊路７１巷３７號","OBJECTID":417894},"geometry":{"x":181560.1400000006,"y":2539313.2500000037}},{"attributes":{"ID":417919,"DIS_CODE":0,"TOWNNAME":"學甲區","LI":"慈福里","LIN":"13鄰","STREET":"民族路","SECT":" ","MAREA":" ","LANE":" ","ALLEY":" ","HOUSE_NO":"５３號","E_COORD97":166604.26999999999,"N_COORD97":2570328.8100000001,"ADDRESS":"民族路５３號","OBJECTID":417895},"geometry":{"x":166604.27000000048,"y":2570328.8100000042}},{"attributes":{"ID":417920,"DIS_CODE":0,"TOWNNAME":"關廟區","LI":"東勢里","LIN":"2鄰","STREET":"和平路","SECT":" ","MAREA":" ","LANE":"１４５巷","ALLEY":" ","HOUSE_NO":"５８號","E_COORD97":181566.79000000001,"N_COORD97":2539669.25,"ADDRESS":"和平路１４５巷５８號","OBJECTID":417896},"geometry":{"x":181566.79000000097,"y":2539669.2500000037}},{"attributes":{"ID":417921,"DIS_CODE":0,"TOWNNAME":"關廟區","LI":"五甲里","LIN":"2鄰","STREET":"旺萊路","SECT":" ","MAREA":" ","LANE":"７１巷","ALLEY":" ","HOUSE_NO":"３１號","E_COORD97":181560.14000000001,"N_COORD97":2539299.25,"ADDRESS":"旺萊路７１巷３１號","OBJECTID":417897},"geometry":{"x":181560.1400000006,"y":2539299.25}},{"attributes":{"ID":417922,"DIS_CODE":0,"TOWNNAME":"關廟區","LI":"五甲里","LIN":"2鄰","STREET":"光復街","SECT":" ","MAREA":" ","LANE":"９２巷","ALLEY":" ","HOUSE_NO":"５號","E_COORD97":181551.98999999999,"N_COORD97":2539331.2799999998,"ADDRESS":"光復街９２巷５號","OBJECTID":417898},"geometry":{"x":181551.99000000115,"y":2539331.2799999993}},{"attributes":{"ID":417923,"DIS_CODE":0,"TOWNNAME":"關廟區","LI":"東勢里","LIN":"2鄰","STREET":"東興路","SECT":" ","MAREA":" ","LANE":"１４５巷","ALLEY":" ","HOUSE_NO":"１０號","E_COORD97":181560.72,"N_COORD97":2539602.25,"ADDRESS":"東興路１４５巷１０號","OBJECTID":417899},"geometry":{"x":181560.71999999974,"y":2539602.2500000019}},{"attributes":{"ID":417924,"DIS_CODE":0,"TOWNNAME":"關廟區","LI":"東勢里","LIN":"2鄰","STREET":"和平路","SECT":" ","MAREA":" ","LANE":"１４５巷","ALLEY":" ","HOUSE_NO":"５７號","E_COORD97":181555.69,"N_COORD97":2539648.25,"ADDRESS":"和平路１４５巷５７號","OBJECTID":417900},"geometry":{"x":181555.69000000134,"y":2539648.25}},{"attributes":{"ID":417925,"DIS_CODE":0,"TOWNNAME":"關廟區","LI":"龜洞里","LIN":"2鄰","STREET":"南雄南路","SECT":" ","MAREA":" ","LANE":"６０８巷","ALLEY":" ","HOUSE_NO":"９號","E_COORD97":183382.14000000001,"N_COORD97":2533758.2999999998,"ADDRESS":"南雄南路６０８巷９號","OBJECTID":417901},"geometry":{"x":183382.13999999873,"y":2533758.3000000026}},{"attributes":{"ID":417926,"DIS_CODE":0,"TOWNNAME":"關廟區","LI":"東勢里","LIN":"2鄰","STREET":"東興路","SECT":" ","MAREA":" ","LANE":"１４５巷","ALLEY":" ","HOUSE_NO":"２８號","E_COORD97":181588.72,"N_COORD97":2539619.25,"ADDRESS":"東興路１４５巷２８號","OBJECTID":417902},"geometry":{"x":181588.72000000067,"y":2539619.2500000019}},{"attributes":{"ID":417927,"DIS_CODE":0,"TOWNNAME":"關廟區","LI":"山西里","LIN":"2鄰","STREET":"中正路","SECT":" ","MAREA":" ","LANE":"９８６巷","ALLEY":" ","HOUSE_NO":"２號","E_COORD97":181106.89999999999,"N_COORD97":2540340.7400000002,"ADDRESS":"中正路９８６巷２號","OBJECTID":417903},"geometry":{"x":181106.9000000013,"y":2540340.7399999984}},{"attributes":{"ID":417928,"DIS_CODE":0,"TOWNNAME":"關廟區","LI":"深坑里","LIN":"2鄰","STREET":"深坑一街","SECT":" ","MAREA":" ","LANE":"１３巷","ALLEY":" ","HOUSE_NO":"３號","E_COORD97":181840.07000000001,"N_COORD97":2537562.2799999998,"ADDRESS":"深坑一街１３巷３號","OBJECTID":417904},"geometry":{"x":181840.0700000003,"y":2537562.2799999993}},{"attributes":{"ID":417929,"DIS_CODE":0,"TOWNNAME":"關廟區","LI":"深坑里","LIN":"2鄰","STREET":"深坑一街","SECT":" ","MAREA":" ","LANE":"１３巷","ALLEY":" ","HOUSE_NO":"９號","E_COORD97":181840.17000000001,"N_COORD97":2537575.2999999998,"ADDRESS":"深坑一街１３巷９號","OBJECTID":417905},"geometry":{"x":181840.17000000086,"y":2537575.3000000026}},{"attributes":{"ID":417930,"DIS_CODE":0,"TOWNNAME":"關廟區","LI":"深坑里","LIN":"2鄰","STREET":"南雄路","SECT":"一段","MAREA":" ","LANE":"３２６巷","ALLEY":" ","HOUSE_NO":"１７號","E_COORD97":181882.67000000001,"N_COORD97":2537521.2799999998,"ADDRESS":"南雄路一段３２６巷１７號","OBJECTID":417906},"geometry":{"x":181882.67000000086,"y":2537521.2799999993}},{"attributes":{"ID":417931,"DIS_CODE":0,"TOWNNAME":"關廟區","LI":"北花里","LIN":"2鄰","STREET":"中正路","SECT":" ","MAREA":" ","LANE":"６０８巷","ALLEY":" ","HOUSE_NO":"６號","E_COORD97":181936.64000000001,"N_COORD97":2540430.6099999999,"ADDRESS":"中正路６０８巷６號","OBJECTID":417907},"geometry":{"x":181936.6400000006,"y":2540430.6100000013}},{"attributes":{"ID":417932,"DIS_CODE":0,"TOWNNAME":"關廟區","LI":"南花里","LIN":"2鄰","STREET":"四維街","SECT":" ","MAREA":" ","LANE":"２８８巷","ALLEY":" ","HOUSE_NO":"１２號","E_COORD97":181912.20999999999,"N_COORD97":2540074.25,"ADDRESS":"四維街２８８巷１２號","OBJECTID":417908},"geometry":{"x":181912.20999999996,"y":2540074.2500000019}},{"attributes":{"ID":417933,"DIS_CODE":0,"TOWNNAME":"關廟區","LI":"關廟里","LIN":"2鄰","STREET":"武聖路","SECT":" ","MAREA":" ","LANE":"１９巷","ALLEY":" ","HOUSE_NO":"９號","E_COORD97":180943.59,"N_COORD97":2540149.25,"ADDRESS":"武聖路１９巷９號","OBJECTID":417909},"geometry":{"x":180943.59000000078,"y":2540149.25}},{"attributes":{"ID":417934,"DIS_CODE":0,"TOWNNAME":"關廟區","LI":"埤頭里","LIN":"2鄰","STREET":"保東路","SECT":" ","MAREA":" ","LANE":"８５巷","ALLEY":" ","HOUSE_NO":"１００號","E_COORD97":178993.97,"N_COORD97":2543850.2999999998,"ADDRESS":"保東路８５巷１００號","OBJECTID":417910},"geometry":{"x":178993.96999999974,"y":2543850.3000000045}},{"attributes":{"ID":417935,"DIS_CODE":0,"TOWNNAME":"關廟區","LI":"埤頭里","LIN":"2鄰","STREET":"保東路","SECT":" ","MAREA":" ","LANE":"３巷","ALLEY":" ","HOUSE_NO":"８０號","E_COORD97":179045.67000000001,"N_COORD97":2543865.25,"ADDRESS":"保東路３巷８０號","OBJECTID":417911},"geometry":{"x":179045.66999999993,"y":2543865.25}},{"attributes":{"ID":417936,"DIS_CODE":0,"TOWNNAME":"關廟區","LI":"松腳里","LIN":"2鄰","STREET":"松平街","SECT":" ","MAREA":" ","LANE":"５８巷","ALLEY":" ","HOUSE_NO":"１２號","E_COORD97":181981.26999999999,"N_COORD97":2539740.25,"ADDRESS":"松平街５８巷１２號","OBJECTID":417912},"geometry":{"x":181981.27000000048,"y":2539740.2499999981}},{"attributes":{"ID":417937,"DIS_CODE":0,"TOWNNAME":"關廟區","LI":"南花里","LIN":"2鄰","STREET":"中山路","SECT":"一段","MAREA":" ","LANE":"２００巷","ALLEY":" ","HOUSE_NO":"５號","E_COORD97":181945.528965,"N_COORD97":2539982.6110700001,"ADDRESS":"中山路一段２００巷５號","OBJECTID":417913},"geometry":{"x":181945.52896500099,"y":2539982.6110700015}},{"attributes":{"ID":417938,"DIS_CODE":0,"TOWNNAME":"關廟區","LI":"松腳里","LIN":"2鄰","STREET":"松平街","SECT":" ","MAREA":" ","LANE":"５８巷","ALLEY":" ","HOUSE_NO":"６號","E_COORD97":181998.42000000001,"N_COORD97":2539738.25,"ADDRESS":"松平街５８巷６號","OBJECTID":417914},"geometry":{"x":181998.41999999993,"y":2539738.2500000019}},{"attributes":{"ID":417939,"DIS_CODE":0,"TOWNNAME":"關廟區","LI":"松腳里","LIN":"2鄰","STREET":"松平街","SECT":" ","MAREA":" ","LANE":"５８巷","ALLEY":" ","HOUSE_NO":"５號","E_COORD97":181985.82000000001,"N_COORD97":2539728.25,"ADDRESS":"松平街５８巷５號","OBJECTID":417915},"geometry":{"x":181985.8200000003,"y":2539728.2500000019}},{"attributes":{"ID":417940,"DIS_CODE":0,"TOWNNAME":"關廟區","LI":"埤頭里","LIN":"2鄰","STREET":"保東路","SECT":" ","MAREA":" ","LANE":"１１５巷","ALLEY":" ","HOUSE_NO":"３００號","E_COORD97":178945.26999999999,"N_COORD97":2543737.2999999998,"ADDRESS":"保東路１１５巷３００號","OBJECTID":417916},"geometry":{"x":178945.27000000048,"y":2543737.3000000007}},{"attributes":{"ID":417941,"DIS_CODE":0,"TOWNNAME":"關廟區","LI":"香洋里","LIN":"2鄰","STREET":"中正路","SECT":" ","MAREA":" ","LANE":"９６８巷","ALLEY":" ","HOUSE_NO":"１７號","E_COORD97":181140.45000000001,"N_COORD97":2540386.7400000002,"ADDRESS":"中正路９６８巷１７號","OBJECTID":417917},"geometry":{"x":181140.45000000112,"y":2540386.7400000002}},{"attributes":{"ID":417942,"DIS_CODE":0,"TOWNNAME":"關廟區","LI":"南花里","LIN":"2鄰","STREET":"中山路","SECT":"一段","MAREA":" ","LANE":"２００巷","ALLEY":" ","HOUSE_NO":"３號","E_COORD97":181941.29014900001,"N_COORD97":2539981.8702400001,"ADDRESS":"中山路一段２００巷３號","OBJECTID":417918},"geometry":{"x":181941.29014900047,"y":2539981.8702379987}},{"attributes":{"ID":417943,"DIS_CODE":0,"TOWNNAME":"關廟區","LI":"埤頭里","LIN":"2鄰","STREET":"關新路","SECT":"一段","MAREA":" ","LANE":"８１３巷","ALLEY":" ","HOUSE_NO":"３２號","E_COORD97":179009.76999999999,"N_COORD97":2543832.2999999998,"ADDRESS":"關新路一段８１３巷３２號","OBJECTID":417919},"geometry":{"x":179009.77000000048,"y":2543832.3000000007}},{"attributes":{"ID":417944,"DIS_CODE":0,"TOWNNAME":"麻豆區","LI":"埤頭里","LIN":"15鄰","STREET":" ","SECT":" ","MAREA":"埤頭","LANE":" ","ALLEY":" ","HOUSE_NO":"１３３號之１","E_COORD97":170502.71107399999,"N_COORD97":2566813.9930599998,"ADDRESS":"埤頭１３３號之１","OBJECTID":417920},"geometry":{"x":170502.71107400022,"y":2566813.993059}},{"attributes":{"ID":417945,"DIS_CODE":0,"TOWNNAME":"關廟區","LI":"松腳里","LIN":"2鄰","STREET":"松平街","SECT":" ","MAREA":" ","LANE":"５８巷","ALLEY":" ","HOUSE_NO":"９號","E_COORD97":181974.72,"N_COORD97":2539730.25,"ADDRESS":"松平街５８巷９號","OBJECTID":417921},"geometry":{"x":181974.7200000016,"y":2539730.2500000037}},{"attributes":{"ID":417946,"DIS_CODE":0,"TOWNNAME":"關廟區","LI":"深坑里","LIN":"2鄰","STREET":"深坑一街","SECT":" ","MAREA":" ","LANE":"１３巷","ALLEY":" ","HOUSE_NO":"７號","E_COORD97":181840.57000000001,"N_COORD97":2537571.2999999998,"ADDRESS":"深坑一街１３巷７號","OBJECTID":417922},"geometry":{"x":181840.5700000003,"y":2537571.3000000045}},{"attributes":{"ID":417947,"DIS_CODE":0,"TOWNNAME":"關廟區","LI":"南花里","LIN":"2鄰","STREET":"中山路","SECT":"一段","MAREA":" ","LANE":"２００巷","ALLEY":" ","HOUSE_NO":"９號","E_COORD97":181955.70212500001,"N_COORD97":2539985.1510700001,"ADDRESS":"中山路一段２００巷９號","OBJECTID":417923},"geometry":{"x":181955.70212499984,"y":2539985.1510690004}},{"attributes":{"ID":417948,"DIS_CODE":0,"TOWNNAME":"關廟區","LI":"埤頭里","LIN":"2鄰","STREET":"關新路","SECT":"一段","MAREA":" ","LANE":"８１３巷","ALLEY":" ","HOUSE_NO":"５２號","E_COORD97":179021.07000000001,"N_COORD97":2543791.25,"ADDRESS":"關新路一段８１３巷５２號","OBJECTID":417924},"geometry":{"x":179021.0700000003,"y":2543791.25}},{"attributes":{"ID":417949,"DIS_CODE":0,"TOWNNAME":"關廟區","LI":"龜洞里","LIN":"2鄰","STREET":"南雄南路","SECT":" ","MAREA":" ","LANE":"６０８巷","ALLEY":" ","HOUSE_NO":"５號","E_COORD97":183384.04000000001,"N_COORD97":2533749.2999999998,"ADDRESS":"南雄南路６０８巷５號","OBJECTID":417925},"geometry":{"x":183384.04000000097,"y":2533749.3000000007}},{"attributes":{"ID":417950,"DIS_CODE":0,"TOWNNAME":"關廟區","LI":"松腳里","LIN":"2鄰","STREET":"松平街","SECT":" ","MAREA":" ","LANE":"５８巷","ALLEY":" ","HOUSE_NO":"１１號","E_COORD97":181966.67000000001,"N_COORD97":2539727.25,"ADDRESS":"松平街５８巷１１號","OBJECTID":417926},"geometry":{"x":181966.66999999993,"y":2539727.2500000019}},{"attributes":{"ID":417951,"DIS_CODE":0,"TOWNNAME":"關廟區","LI":"埤頭里","LIN":"2鄰","STREET":"保東路","SECT":" ","MAREA":" ","LANE":"１１５巷","ALLEY":" ","HOUSE_NO":"３１５號","E_COORD97":178997.07000000001,"N_COORD97":2543786.2999999998,"ADDRESS":"保東路１１５巷３１５號","OBJECTID":417927},"geometry":{"x":178997.07000000123,"y":2543786.3000000026}},{"attributes":{"ID":417952,"DIS_CODE":0,"TOWNNAME":"關廟區","LI":"新埔里","LIN":"2鄰","STREET":"忠孝街","SECT":" ","MAREA":" ","LANE":"２５８巷","ALLEY":" ","HOUSE_NO":"１７號","E_COORD97":181257.09,"N_COORD97":2540867.25,"ADDRESS":"忠孝街２５８巷１７號","OBJECTID":417928},"geometry":{"x":181257.09000000171,"y":2540867.2500000019}},{"attributes":{"ID":417953,"DIS_CODE":0,"TOWNNAME":"關廟區","LI":"南花里","LIN":"2鄰","STREET":"中山路","SECT":"一段","MAREA":" ","LANE":"２００巷","ALLEY":" ","HOUSE_NO":"７號","E_COORD97":181950.82748599999,"N_COORD97":2539984.19857,"ADDRESS":"中山路一段２００巷７號","OBJECTID":417929},"geometry":{"x":181950.82748600002,"y":2539984.1985700019}},{"attributes":{"ID":417954,"DIS_CODE":0,"TOWNNAME":"關廟區","LI":"香洋里","LIN":"2鄰","STREET":"中正路","SECT":" ","MAREA":" ","LANE":"９６８巷","ALLEY":" ","HOUSE_NO":"１９號","E_COORD97":181135.75,"N_COORD97":2540388.7400000002,"ADDRESS":"中正路９６８巷１９號","OBJECTID":417930},"geometry":{"x":181135.75000000186,"y":2540388.7400000021}},{"attributes":{"ID":417955,"DIS_CODE":0,"TOWNNAME":"關廟區","LI":"埤頭里","LIN":"2鄰","STREET":"保東路","SECT":" ","MAREA":" ","LANE":"８５巷","ALLEY":" ","HOUSE_NO":"６５號","E_COORD97":178974.76999999999,"N_COORD97":2543865.2999999998,"ADDRESS":"保東路８５巷６５號","OBJECTID":417931},"geometry":{"x":178974.76999999955,"y":2543865.3000000026}},{"attributes":{"ID":417956,"DIS_CODE":0,"TOWNNAME":"關廟區","LI":"新埔里","LIN":"2鄰","STREET":"忠孝街","SECT":" ","MAREA":" ","LANE":"２５８巷","ALLEY":" ","HOUSE_NO":"１３號","E_COORD97":181247.79000000001,"N_COORD97":2540867.25,"ADDRESS":"忠孝街２５８巷１３號","OBJECTID":417932},"geometry":{"x":181247.79000000097,"y":2540867.2500000019}},{"attributes":{"ID":417957,"DIS_CODE":0,"TOWNNAME":"關廟區","LI":"埤頭里","LIN":"2鄰","STREET":"保東路","SECT":" ","MAREA":" ","LANE":"８５巷","ALLEY":" ","HOUSE_NO":"６７號","E_COORD97":178984.57000000001,"N_COORD97":2543871.25,"ADDRESS":"保東路８５巷６７號","OBJECTID":417933},"geometry":{"x":178984.57000000123,"y":2543871.2500000019}},{"attributes":{"ID":417958,"DIS_CODE":0,"TOWNNAME":"關廟區","LI":"南花里","LIN":"2鄰","STREET":"中山路","SECT":"一段","MAREA":" ","LANE":"２００巷","ALLEY":" ","HOUSE_NO":"１３號","E_COORD97":181976.91,"N_COORD97":2540011.2799999998,"ADDRESS":"中山路一段２００巷１３號","OBJECTID":417934},"geometry":{"x":181976.91000000015,"y":2540011.2800000012}},{"attributes":{"ID":417959,"DIS_CODE":0,"TOWNNAME":"關廟區","LI":"南花里","LIN":"2鄰","STREET":"中山路","SECT":"一段","MAREA":" ","LANE":"２００巷","ALLEY":" ","HOUSE_NO":"１號","E_COORD97":181937.47521400001,"N_COORD97":2539980.7060699998,"ADDRESS":"中山路一段２００巷１號","OBJECTID":417935},"geometry":{"x":181937.47521399986,"y":2539980.7060710005}},{"attributes":{"ID":417960,"DIS_CODE":0,"TOWNNAME":"關廟區","LI":"香洋里","LIN":"2鄰","STREET":"中正路","SECT":" ","MAREA":" ","LANE":"９６８巷","ALLEY":" ","HOUSE_NO":"９號","E_COORD97":181131.10000000001,"N_COORD97":2540364.7400000002,"ADDRESS":"中正路９６８巷９號","OBJECTID":417936},"geometry":{"x":181131.09999999963,"y":2540364.7400000039}},{"attributes":{"ID":417961,"DIS_CODE":0,"TOWNNAME":"關廟區","LI":"南花里","LIN":"2鄰","STREET":"中山路","SECT":"一段","MAREA":" ","LANE":"２１６巷","ALLEY":" ","HOUSE_NO":"６號","E_COORD97":181920.76000000001,"N_COORD97":2539996.2799999998,"ADDRESS":"中山路一段２１６巷６號","OBJECTID":417937},"geometry":{"x":181920.76000000071,"y":2539996.2799999993}},{"attributes":{"ID":417962,"DIS_CODE":0,"TOWNNAME":"關廟區","LI":"新埔里","LIN":"2鄰","STREET":"忠孝街","SECT":" ","MAREA":" ","LANE":"２５８巷","ALLEY":" ","HOUSE_NO":"２３號","E_COORD97":181271.59,"N_COORD97":2540866.25,"ADDRESS":"忠孝街２５８巷２３號","OBJECTID":417938},"geometry":{"x":181271.58999999985,"y":2540866.2500000037}},{"attributes":{"ID":417963,"DIS_CODE":0,"TOWNNAME":"關廟區","LI":"新埔里","LIN":"2鄰","STREET":"忠孝街","SECT":" ","MAREA":" ","LANE":"２８６巷","ALLEY":" ","HOUSE_NO":"１６號","E_COORD97":181263.98999999999,"N_COORD97":2540917.25,"ADDRESS":"忠孝街２８６巷１６號","OBJECTID":417939},"geometry":{"x":181263.99000000115,"y":2540917.2500000019}},{"attributes":{"ID":417964,"DIS_CODE":0,"TOWNNAME":"關廟區","LI":"南花里","LIN":"2鄰","STREET":"中山路","SECT":"一段","MAREA":" ","LANE":"２００巷","ALLEY":" ","HOUSE_NO":"１５號","E_COORD97":181995.70999999999,"N_COORD97":2540000.2799999998,"ADDRESS":"中山路一段２００巷１５號","OBJECTID":417940},"geometry":{"x":181995.71000000089,"y":2540000.2799999993}},{"attributes":{"ID":417965,"DIS_CODE":0,"TOWNNAME":"關廟區","LI":"南花里","LIN":"2鄰","STREET":"中山路","SECT":"一段","MAREA":" ","LANE":"２０２巷","ALLEY":" ","HOUSE_NO":"８號","E_COORD97":181946.45999999999,"N_COORD97":2540010.2799999998,"ADDRESS":"中山路一段２０２巷８號","OBJECTID":417941},"geometry":{"x":181946.46000000089,"y":2540010.2799999993}},{"attributes":{"ID":417966,"DIS_CODE":0,"TOWNNAME":"關廟區","LI":"南花里","LIN":"2鄰","STREET":"中山路","SECT":"一段","MAREA":" ","LANE":"２１６巷","ALLEY":" ","HOUSE_NO":"２號","E_COORD97":181920.35999999999,"N_COORD97":2539989.2799999998,"ADDRESS":"中山路一段２１６巷２號","OBJECTID":417942},"geometry":{"x":181920.36000000127,"y":2539989.2799999993}},{"attributes":{"ID":417967,"DIS_CODE":0,"TOWNNAME":"關廟區","LI":"北花里","LIN":"2鄰","STREET":"中正路","SECT":" ","MAREA":" ","LANE":"６４６巷","ALLEY":" ","HOUSE_NO":"１２號","E_COORD97":181853.81,"N_COORD97":2540440.25,"ADDRESS":"中正路６４６巷１２號","OBJECTID":417943},"geometry":{"x":181853.81000000052,"y":2540440.2500000019}},{"attributes":{"ID":417968,"DIS_CODE":0,"TOWNNAME":"關廟區","LI":"深坑里","LIN":"2鄰","STREET":"南雄路","SECT":"一段","MAREA":" ","LANE":"２６６巷","ALLEY":" ","HOUSE_NO":"５８號","E_COORD97":181872.07000000001,"N_COORD97":2537485.2999999998,"ADDRESS":"南雄路一段２６６巷５８號","OBJECTID":417944},"geometry":{"x":181872.07000000123,"y":2537485.3000000007}},{"attributes":{"ID":417969,"DIS_CODE":0,"TOWNNAME":"新化區","LI":"協興里","LIN":"2鄰","STREET":"忠孝路","SECT":" ","MAREA":" ","LANE":"１８０巷","ALLEY":" ","HOUSE_NO":"９號","E_COORD97":178435.82000000001,"N_COORD97":2548627.25,"ADDRESS":"忠孝路１８０巷９號","OBJECTID":417945},"geometry":{"x":178435.82000000123,"y":2548627.2500000019}},{"attributes":{"ID":417970,"DIS_CODE":0,"TOWNNAME":"北區","LI":"新勝里","LIN":"2鄰","STREET":"開元路","SECT":" ","MAREA":" ","LANE":"３３３巷","ALLEY":" ","HOUSE_NO":"２號之１５","E_COORD97":170233.73999999999,"N_COORD97":2545480.1800000002,"ADDRESS":"開元路３３３巷２號之１５","OBJECTID":417946},"geometry":{"x":170233.74000000022,"y":2545480.1799999997}},{"attributes":{"ID":417971,"DIS_CODE":0,"TOWNNAME":"北區","LI":"新勝里","LIN":"2鄰","STREET":"開元路","SECT":" ","MAREA":" ","LANE":"３３３巷","ALLEY":" ","HOUSE_NO":"２號之１６","E_COORD97":170238.07999999999,"N_COORD97":2545486.3300000001,"ADDRESS":"開元路３３３巷２號之１６","OBJECTID":417947},"geometry":{"x":170238.08000000007,"y":2545486.3300000001}},{"attributes":{"ID":417972,"DIS_CODE":0,"TOWNNAME":"北區","LI":"新勝里","LIN":"2鄰","STREET":"開元路","SECT":" ","MAREA":" ","LANE":"３３３巷","ALLEY":" ","HOUSE_NO":"２號之１７","E_COORD97":170243.38,"N_COORD97":2545493.4399999999,"ADDRESS":"開元路３３３巷２號之１７","OBJECTID":417948},"geometry":{"x":170243.38000000082,"y":2545493.4400000013}},{"attributes":{"ID":417973,"DIS_CODE":0,"TOWNNAME":"北區","LI":"新勝里","LIN":"2鄰","STREET":"開元路","SECT":" ","MAREA":" ","LANE":"３３３巷","ALLEY":" ","HOUSE_NO":"２號之１８","E_COORD97":170248.12,"N_COORD97":2545499.29,"ADDRESS":"開元路３３３巷２號之１８","OBJECTID":417949},"geometry":{"x":170248.12000000011,"y":2545499.2899999972}},{"attributes":{"ID":417974,"DIS_CODE":0,"TOWNNAME":"北區","LI":"新勝里","LIN":"2鄰","STREET":"開元路","SECT":" ","MAREA":" ","LANE":"３３３巷","ALLEY":" ","HOUSE_NO":"２號之２","E_COORD97":170208.60000000001,"N_COORD97":2545451.7999999998,"ADDRESS":"開元路３３３巷２號之２","OBJECTID":417950},"geometry":{"x":170208.59999999963,"y":2545451.8000000026}},{"attributes":{"ID":417975,"DIS_CODE":0,"TOWNNAME":"北區","LI":"新勝里","LIN":"2鄰","STREET":"開元路","SECT":" ","MAREA":" ","LANE":"３３３巷","ALLEY":" ","HOUSE_NO":"２號之１２","E_COORD97":170217.53,"N_COORD97":2545461.7400000002,"ADDRESS":"開元路３３３巷２號之１２","OBJECTID":417951},"geometry":{"x":170217.53000000119,"y":2545461.7400000021}},{"attributes":{"ID":417976,"DIS_CODE":0,"TOWNNAME":"北區","LI":"新勝里","LIN":"2鄰","STREET":"開元路","SECT":" ","MAREA":" ","LANE":"３３３巷","ALLEY":" ","HOUSE_NO":"２號之１３","E_COORD97":170222.89999999999,"N_COORD97":2545467.4199999999,"ADDRESS":"開元路３３３巷２號之１３","OBJECTID":417952},"geometry":{"x":170222.90000000037,"y":2545467.4199999999}},{"attributes":{"ID":417977,"DIS_CODE":0,"TOWNNAME":"北區","LI":"新勝里","LIN":"2鄰","STREET":"開元路","SECT":" ","MAREA":" ","LANE":"３３３巷","ALLEY":" ","HOUSE_NO":"２號之１４","E_COORD97":170228.20000000001,"N_COORD97":2545473.7599999998,"ADDRESS":"開元路３３３巷２號之１４","OBJECTID":417953},"geometry":{"x":170228.20000000112,"y":2545473.7600000016}},{"attributes":{"ID":417978,"DIS_CODE":0,"TOWNNAME":"南區","LI":"大忠里","LIN":"2鄰","STREET":"中華南路","SECT":"一段","MAREA":" ","LANE":"１９巷","ALLEY":" ","HOUSE_NO":"１６號","E_COORD97":169433.09,"N_COORD97":2541360.4300000002,"ADDRESS":"中華南路一段１９巷１６號","OBJECTID":417954},"geometry":{"x":169433.09000000171,"y":2541360.4300000016}},{"attributes":{"ID":417979,"DIS_CODE":0,"TOWNNAME":"北區","LI":"勝安里","LIN":"2鄰","STREET":"開元路","SECT":" ","MAREA":" ","LANE":"６３巷","ALLEY":" ","HOUSE_NO":"２之１號","E_COORD97":169685.84,"N_COORD97":2545221.3500000001,"ADDRESS":"開元路６３巷２之１號","OBJECTID":417955},"geometry":{"x":169685.84000000078,"y":2545221.3499999996}},{"attributes":{"ID":417980,"DIS_CODE":0,"TOWNNAME":"南區","LI":"同安里","LIN":"2鄰","STREET":"灣裡路","SECT":" ","MAREA":" ","LANE":"４００巷","ALLEY":" ","HOUSE_NO":"２１號之１","E_COORD97":166089.94,"N_COORD97":2536140.98,"ADDRESS":"灣裡路４００巷２１號之１","OBJECTID":417956},"geometry":{"x":166089.93999999948,"y":2536140.9800000004}},{"attributes":{"ID":417981,"DIS_CODE":0,"TOWNNAME":"南區","LI":"明亮里","LIN":"2鄰","STREET":"金華路","SECT":"一段","MAREA":" ","LANE":"２４２巷","ALLEY":" ","HOUSE_NO":"３０號","E_COORD97":167064.88,"N_COORD97":2541006.4500000002,"ADDRESS":"金華路一段２４２巷３０號","OBJECTID":417957},"geometry":{"x":167064.88000000082,"y":2541006.450000003}},{"attributes":{"ID":417982,"DIS_CODE":0,"TOWNNAME":"南區","LI":"明亮里","LIN":"2鄰","STREET":"金華路","SECT":"一段","MAREA":" ","LANE":"２４２巷","ALLEY":" ","HOUSE_NO":"３６號","E_COORD97":167082.42999999999,"N_COORD97":2541010.98,"ADDRESS":"金華路一段２４２巷３６號","OBJECTID":417958},"geometry":{"x":167082.4299999997,"y":2541010.9800000042}},{"attributes":{"ID":417983,"DIS_CODE":0,"TOWNNAME":"南區","LI":"明亮里","LIN":"2鄰","STREET":"金華路","SECT":"一段","MAREA":" ","LANE":"２４２巷","ALLEY":" ","HOUSE_NO":"３８號","E_COORD97":167086.79000000001,"N_COORD97":2541011.27,"ADDRESS":"金華路一段２４２巷３８號","OBJECTID":417959},"geometry":{"x":167086.79000000004,"y":2541011.2700000033}},{"attributes":{"ID":417984,"DIS_CODE":0,"TOWNNAME":"南區","LI":"明亮里","LIN":"2鄰","STREET":"金華路","SECT":"一段","MAREA":" ","LANE":"２４２巷","ALLEY":" ","HOUSE_NO":"４０號","E_COORD97":167091.14999999999,"N_COORD97":2541010.1099999999,"ADDRESS":"金華路一段２４２巷４０號","OBJECTID":417960},"geometry":{"x":167091.1500000013,"y":2541010.1100000013}},{"attributes":{"ID":417985,"DIS_CODE":0,"TOWNNAME":"南區","LI":"明亮里","LIN":"2鄰","STREET":"金華路","SECT":"一段","MAREA":" ","LANE":"２４２巷","ALLEY":" ","HOUSE_NO":"４２號","E_COORD97":167095.22,"N_COORD97":2541009.2400000002,"ADDRESS":"金華路一段２４２巷４２號","OBJECTID":417961},"geometry":{"x":167095.22000000067,"y":2541009.2400000021}},{"attributes":{"ID":417986,"DIS_CODE":0,"TOWNNAME":"南區","LI":"明亮里","LIN":"2鄰","STREET":"金華路","SECT":"一段","MAREA":" ","LANE":"２４２巷","ALLEY":" ","HOUSE_NO":"３２號","E_COORD97":167071.01999999999,"N_COORD97":2541008.8999999999,"ADDRESS":"金華路一段２４２巷３２號","OBJECTID":417962},"geometry":{"x":167071.01999999955,"y":2541008.9000000022}},{"attributes":{"ID":417987,"DIS_CODE":0,"TOWNNAME":"南區","LI":"明亮里","LIN":"2鄰","STREET":"金華路","SECT":"一段","MAREA":" ","LANE":"２４２巷","ALLEY":" ","HOUSE_NO":"３４號","E_COORD97":167077.26000000001,"N_COORD97":2541010.6000000001,"ADDRESS":"金華路一段２４２巷３４號","OBJECTID":417963},"geometry":{"x":167077.26000000164,"y":2541010.6000000015}},{"attributes":{"ID":417988,"DIS_CODE":0,"TOWNNAME":"南區","LI":"同安里","LIN":"2鄰","STREET":"灣裡路","SECT":" ","MAREA":" ","LANE":"４００巷","ALLEY":" ","HOUSE_NO":"２１號","E_COORD97":166097.54999999999,"N_COORD97":2536140.1400000001,"ADDRESS":"灣裡路４００巷２１號","OBJECTID":417964},"geometry":{"x":166097.55000000075,"y":2536140.1400000006}},{"attributes":{"ID":417989,"DIS_CODE":0,"TOWNNAME":"南區","LI":"明亮里","LIN":"2鄰","STREET":"金華路","SECT":"一段","MAREA":" ","LANE":"２４２巷","ALLEY":" ","HOUSE_NO":"１號","E_COORD97":166998.04000000001,"N_COORD97":2540915.5299999998,"ADDRESS":"金華路一段２４２巷１號","OBJECTID":417965},"geometry":{"x":166998.04000000097,"y":2540915.5300000012}},{"attributes":{"ID":417990,"DIS_CODE":0,"TOWNNAME":"新化區","LI":"太平里","LIN":"2鄰","STREET":"太平街","SECT":" ","MAREA":" ","LANE":"１巷","ALLEY":" ","HOUSE_NO":"９號","E_COORD97":179118.12,"N_COORD97":2548801.25,"ADDRESS":"太平街１巷９號","OBJECTID":417966},"geometry":{"x":179118.12000000104,"y":2548801.2500000019}},{"attributes":{"ID":417991,"DIS_CODE":0,"TOWNNAME":"北區","LI":"大港里","LIN":"2鄰","STREET":"大興街","SECT":" ","MAREA":" ","LANE":"１６４巷","ALLEY":" ","HOUSE_NO":"３２號","E_COORD97":166926.75,"N_COORD97":2545812.7999999998,"ADDRESS":"大興街１６４巷３２號","OBJECTID":417967},"geometry":{"x":166926.75000000186,"y":2545812.8000000007}},{"attributes":{"ID":417992,"DIS_CODE":0,"TOWNNAME":"北區","LI":"大港里","LIN":"2鄰","STREET":"大興街","SECT":" ","MAREA":" ","LANE":"１６４巷","ALLEY":" ","HOUSE_NO":"３４號","E_COORD97":166926.57000000001,"N_COORD97":2545816.5299999998,"ADDRESS":"大興街１６４巷３４號","OBJECTID":417968},"geometry":{"x":166926.57000000216,"y":2545816.5299999993}},{"attributes":{"ID":417993,"DIS_CODE":0,"TOWNNAME":"北區","LI":"大港里","LIN":"2鄰","STREET":"大興街","SECT":" ","MAREA":" ","LANE":"１６４巷","ALLEY":" ","HOUSE_NO":"３６號","E_COORD97":166926.03,"N_COORD97":2545820.9700000002,"ADDRESS":"大興街１６４巷３６號","OBJECTID":417969},"geometry":{"x":166926.03000000026,"y":2545820.9700000007}},{"attributes":{"ID":417994,"DIS_CODE":0,"TOWNNAME":"北區","LI":"大港里","LIN":"2鄰","STREET":"大興街","SECT":" ","MAREA":" ","LANE":"１６４巷","ALLEY":" ","HOUSE_NO":"３８號","E_COORD97":166925.85999999999,"N_COORD97":2545825.23,"ADDRESS":"大興街１６４巷３８號","OBJECTID":417970},"geometry":{"x":166925.86000000034,"y":2545825.2300000004}},{"attributes":{"ID":417995,"DIS_CODE":0,"TOWNNAME":"北區","LI":"大港里","LIN":"2鄰","STREET":"大興街","SECT":" ","MAREA":" ","LANE":"１６４巷","ALLEY":" ","HOUSE_NO":"４０號","E_COORD97":166925.32000000001,"N_COORD97":2545829.1400000001,"ADDRESS":"大興街１６４巷４０號","OBJECTID":417971},"geometry":{"x":166925.32000000123,"y":2545829.1400000025}},{"attributes":{"ID":417996,"DIS_CODE":0,"TOWNNAME":"北區","LI":"大港里","LIN":"2鄰","STREET":"大興街","SECT":" ","MAREA":" ","LANE":"１６４巷","ALLEY":" ","HOUSE_NO":"４２號","E_COORD97":166925.14999999999,"N_COORD97":2545833.7599999998,"ADDRESS":"大興街１６４巷４２號","OBJECTID":417972},"geometry":{"x":166925.1500000013,"y":2545833.7600000016}},{"attributes":{"ID":417997,"DIS_CODE":0,"TOWNNAME":"北區","LI":"大港里","LIN":"2鄰","STREET":"大興街","SECT":" ","MAREA":" ","LANE":"１６４巷","ALLEY":" ","HOUSE_NO":"４４號","E_COORD97":166924.26000000001,"N_COORD97":2545838.5499999998,"ADDRESS":"大興街１６４巷４４號","OBJECTID":417973},"geometry":{"x":166924.25999999978,"y":2545838.5500000045}},{"attributes":{"ID":417998,"DIS_CODE":0,"TOWNNAME":"北區","LI":"大港里","LIN":"2鄰","STREET":"大興街","SECT":" ","MAREA":" ","LANE":"１６４巷","ALLEY":" ","HOUSE_NO":"４６號","E_COORD97":166923.72,"N_COORD97":2545845.2999999998,"ADDRESS":"大興街１６４巷４６號","OBJECTID":417974},"geometry":{"x":166923.72000000067,"y":2545845.3000000026}},{"attributes":{"ID":417999,"DIS_CODE":0,"TOWNNAME":"北區","LI":"大港里","LIN":"2鄰","STREET":"大興街","SECT":" ","MAREA":" ","LANE":"１６４巷","ALLEY":" ","HOUSE_NO":"４８號","E_COORD97":166923.19,"N_COORD97":2545850.4500000002,"ADDRESS":"大興街１６４巷４８號","OBJECTID":417975},"geometry":{"x":166923.19000000134,"y":2545850.4499999993}},{"attributes":{"ID":418000,"DIS_CODE":0,"TOWNNAME":"北區","LI":"大港里","LIN":"2鄰","STREET":"大興街","SECT":" ","MAREA":" ","LANE":"１６４巷","ALLEY":" ","HOUSE_NO":"５０號","E_COORD97":166922.82999999999,"N_COORD97":2545855.0699999998,"ADDRESS":"大興街１６４巷５０號","OBJECTID":417976},"geometry":{"x":166922.83000000194,"y":2545855.070000004}},{"attributes":{"ID":418001,"DIS_CODE":0,"TOWNNAME":"北區","LI":"大港里","LIN":"2鄰","STREET":"大興街","SECT":" ","MAREA":" ","LANE":"１６４巷","ALLEY":" ","HOUSE_NO":"５２號","E_COORD97":166922.29999999999,"N_COORD97":2545867.4900000002,"ADDRESS":"大興街１６４巷５２號","OBJECTID":417977},"geometry":{"x":166922.29999999981,"y":2545867.4900000002}},{"attributes":{"ID":418002,"DIS_CODE":0,"TOWNNAME":"北區","LI":"大港里","LIN":"2鄰","STREET":"大興街","SECT":" ","MAREA":" ","LANE":"１６４巷","ALLEY":" ","HOUSE_NO":"５４號","E_COORD97":166921.59,"N_COORD97":2545871.9300000002,"ADDRESS":"大興街１６４巷５４號","OBJECTID":417978},"geometry":{"x":166921.59000000078,"y":2545871.9299999978}},{"attributes":{"ID":418003,"DIS_CODE":0,"TOWNNAME":"北區","LI":"大港里","LIN":"2鄰","STREET":"大興街","SECT":" ","MAREA":" ","LANE":"１６４巷","ALLEY":" ","HOUSE_NO":"５６號","E_COORD97":166920.88,"N_COORD97":2545877.9700000002,"ADDRESS":"大興街１６４巷５６號","OBJECTID":417979},"geometry":{"x":166920.88000000082,"y":2545877.9700000025}},{"attributes":{"ID":418004,"DIS_CODE":0,"TOWNNAME":"北區","LI":"大港里","LIN":"2鄰","STREET":"大興街","SECT":" ","MAREA":" ","LANE":"１６４巷","ALLEY":" ","HOUSE_NO":"５８號","E_COORD97":166920.34,"N_COORD97":2545882.9399999999,"ADDRESS":"大興街１６４巷５８號","OBJECTID":417980},"geometry":{"x":166920.33999999985,"y":2545882.9400000013}},{"attributes":{"ID":418005,"DIS_CODE":0,"TOWNNAME":"北區","LI":"大港里","LIN":"2鄰","STREET":"大興街","SECT":" ","MAREA":" ","LANE":"１６４巷","ALLEY":" ","HOUSE_NO":"６０號","E_COORD97":166919.81,"N_COORD97":2545888.6200000001,"ADDRESS":"大興街１６４巷６０號","OBJECTID":417981},"geometry":{"x":166919.81000000052,"y":2545888.620000001}},{"attributes":{"ID":418006,"DIS_CODE":0,"TOWNNAME":"北區","LI":"大港里","LIN":"2鄰","STREET":"大興街","SECT":" ","MAREA":" ","LANE":"１６４巷","ALLEY":" ","HOUSE_NO":"６２號","E_COORD97":166919.10000000001,"N_COORD97":2545894.71,"ADDRESS":"大興街１６４巷６２號","OBJECTID":417982},"geometry":{"x":166919.10000000056,"y":2545894.7100000009}},{"attributes":{"ID":418007,"DIS_CODE":0,"TOWNNAME":"北區","LI":"大港里","LIN":"2鄰","STREET":"大興街","SECT":" ","MAREA":" ","LANE":"１６４巷","ALLEY":" ","HOUSE_NO":"６４號","E_COORD97":166918.39000000001,"N_COORD97":2545901.1099999999,"ADDRESS":"大興街１６４巷６４號","OBJECTID":417983},"geometry":{"x":166918.38999999966,"y":2545901.1100000031}},{"attributes":{"ID":418008,"DIS_CODE":0,"TOWNNAME":"北區","LI":"大港里","LIN":"2鄰","STREET":"大興街","SECT":" ","MAREA":" ","LANE":"１６４巷","ALLEY":" ","HOUSE_NO":"６６號","E_COORD97":166918.20999999999,"N_COORD97":2545908.75,"ADDRESS":"大興街１６４巷６６號","OBJECTID":417984},"geometry":{"x":166918.20999999996,"y":2545908.7500000019}},{"attributes":{"ID":418009,"DIS_CODE":0,"TOWNNAME":"北區","LI":"大港里","LIN":"2鄰","STREET":"大興街","SECT":" ","MAREA":" ","LANE":"１６４巷","ALLEY":" ","HOUSE_NO":"６８號","E_COORD97":166914.47,"N_COORD97":2545939.9900000002,"ADDRESS":"大興街１６４巷６８號","OBJECTID":417985},"geometry":{"x":166914.46999999974,"y":2545939.9900000039}},{"attributes":{"ID":418010,"DIS_CODE":0,"TOWNNAME":"北區","LI":"大港里","LIN":"2鄰","STREET":"大興街","SECT":" ","MAREA":" ","LANE":"１６４巷","ALLEY":" ","HOUSE_NO":"６號","E_COORD97":166934.75,"N_COORD97":2545754.0499999998,"ADDRESS":"大興街１６４巷６號","OBJECTID":417986},"geometry":{"x":166934.75,"y":2545754.0500000045}},{"attributes":{"ID":418011,"DIS_CODE":0,"TOWNNAME":"北區","LI":"大港里","LIN":"2鄰","STREET":"大興街","SECT":" ","MAREA":" ","LANE":"１６４巷","ALLEY":" ","HOUSE_NO":"７０號","E_COORD97":166913.75,"N_COORD97":2545943.5499999998,"ADDRESS":"大興街１６４巷７０號","OBJECTID":417987},"geometry":{"x":166913.75000000093,"y":2545943.5500000045}},{"attributes":{"ID":418012,"DIS_CODE":0,"TOWNNAME":"北區","LI":"大港里","LIN":"2鄰","STREET":"大興街","SECT":" ","MAREA":" ","LANE":"１６４巷","ALLEY":" ","HOUSE_NO":"７２號","E_COORD97":166913.75,"N_COORD97":2545948.1699999999,"ADDRESS":"大興街１６４巷７２號","OBJECTID":417988},"geometry":{"x":166913.75000000093,"y":2545948.1699999999}},{"attributes":{"ID":418013,"DIS_CODE":0,"TOWNNAME":"北區","LI":"大港里","LIN":"2鄰","STREET":"大興街","SECT":" ","MAREA":" ","LANE":"１６４巷","ALLEY":" ","HOUSE_NO":"７４號","E_COORD97":166913.22,"N_COORD97":2545951.7200000002,"ADDRESS":"大興街１６４巷７４號","OBJECTID":417989},"geometry":{"x":166913.22000000067,"y":2545951.7200000007}},{"attributes":{"ID":418014,"DIS_CODE":0,"TOWNNAME":"北區","LI":"大港里","LIN":"2鄰","STREET":"大興街","SECT":" ","MAREA":" ","LANE":"１６４巷","ALLEY":" ","HOUSE_NO":"７６號","E_COORD97":166913.04000000001,"N_COORD97":2545955.9900000002,"ADDRESS":"大興街１６４巷７６號","OBJECTID":417990},"geometry":{"x":166913.04000000097,"y":2545955.9900000002}},{"attributes":{"ID":418015,"DIS_CODE":0,"TOWNNAME":"北區","LI":"大港里","LIN":"2鄰","STREET":"大興街","SECT":" ","MAREA":" ","LANE":"１６４巷","ALLEY":" ","HOUSE_NO":"７８號","E_COORD97":166912.69,"N_COORD97":2545960.4300000002,"ADDRESS":"大興街１６４巷７８號","OBJECTID":417991},"geometry":{"x":166912.69000000134,"y":2545960.4300000034}},{"attributes":{"ID":418016,"DIS_CODE":0,"TOWNNAME":"北區","LI":"大港里","LIN":"2鄰","STREET":"大興街","SECT":" ","MAREA":" ","LANE":"１６４巷","ALLEY":" ","HOUSE_NO":"８０號","E_COORD97":166912.69,"N_COORD97":2545965.4100000001,"ADDRESS":"大興街１６４巷８０號","OBJECTID":417992},"geometry":{"x":166912.69000000134,"y":2545965.410000002}},{"attributes":{"ID":418017,"DIS_CODE":0,"TOWNNAME":"北區","LI":"大港里","LIN":"2鄰","STREET":"大興街","SECT":" ","MAREA":" ","LANE":"１６４巷","ALLEY":" ","HOUSE_NO":"８０號之１","E_COORD97":166914.64000000001,"N_COORD97":2545970.21,"ADDRESS":"大興街１６４巷８０號之１","OBJECTID":417993},"geometry":{"x":166914.63999999966,"y":2545970.2100000028}},{"attributes":{"ID":418018,"DIS_CODE":0,"TOWNNAME":"北區","LI":"大港里","LIN":"2鄰","STREET":"大興街","SECT":" ","MAREA":" ","LANE":"１６４巷","ALLEY":" ","HOUSE_NO":"８號","E_COORD97":166930.66,"N_COORD97":2545760.7999999998,"ADDRESS":"大興街１６４巷８號","OBJECTID":417994},"geometry":{"x":166930.66000000015,"y":2545760.8000000007}},{"attributes":{"ID":418019,"DIS_CODE":0,"TOWNNAME":"北區","LI":"大港里","LIN":"2鄰","STREET":"大興街","SECT":" ","MAREA":" ","LANE":"１６４巷","ALLEY":" ","HOUSE_NO":"１１號","E_COORD97":166916.29999999999,"N_COORD97":2545763.0800000001,"ADDRESS":"大興街１６４巷１１號","OBJECTID":417995},"geometry":{"x":166916.30000000075,"y":2545763.0800000038}},{"attributes":{"ID":418020,"DIS_CODE":0,"TOWNNAME":"北區","LI":"大港里","LIN":"2鄰","STREET":"大興街","SECT":" ","MAREA":" ","LANE":"１６４巷","ALLEY":" ","HOUSE_NO":"１３號","E_COORD97":166915.35999999999,"N_COORD97":2545768.5,"ADDRESS":"大興街１６４巷１３號","OBJECTID":417996},"geometry":{"x":166915.36000000034,"y":2545768.5000000019}},{"attributes":{"ID":418021,"DIS_CODE":0,"TOWNNAME":"北區","LI":"大港里","LIN":"2鄰","STREET":"大興街","SECT":" ","MAREA":" ","LANE":"１６４巷","ALLEY":" ","HOUSE_NO":"１５號","E_COORD97":166915.60000000001,"N_COORD97":2545772.7400000002,"ADDRESS":"大興街１６４巷１５號","OBJECTID":417997},"geometry":{"x":166915.60000000056,"y":2545772.7400000021}},{"attributes":{"ID":418022,"DIS_CODE":0,"TOWNNAME":"北區","LI":"大港里","LIN":"2鄰","STREET":"大興街","SECT":" ","MAREA":" ","LANE":"１６４巷","ALLEY":" ","HOUSE_NO":"１７號","E_COORD97":166915.13,"N_COORD97":2545776.98,"ADDRESS":"大興街１６４巷１７號","OBJECTID":417998},"geometry":{"x":166915.12999999989,"y":2545776.9800000004}},{"attributes":{"ID":418023,"DIS_CODE":0,"TOWNNAME":"北區","LI":"大港里","LIN":"2鄰","STREET":"大興街","SECT":" ","MAREA":" ","LANE":"１６４巷","ALLEY":" ","HOUSE_NO":"１９號","E_COORD97":166914.64999999999,"N_COORD97":2545781.9199999999,"ADDRESS":"大興街１６４巷１９號","OBJECTID":417999},"geometry":{"x":166914.6500000013,"y":2545781.9200000018}},{"attributes":{"ID":418024,"DIS_CODE":0,"TOWNNAME":"北區","LI":"大港里","LIN":"2鄰","STREET":"大興街","SECT":" ","MAREA":" ","LANE":"１６４巷","ALLEY":" ","HOUSE_NO":"１號","E_COORD97":166918.66,"N_COORD97":2545719.6099999999,"ADDRESS":"大興街１６４巷１號","OBJECTID":418000},"geometry":{"x":166918.66000000015,"y":2545719.6100000013}}]}