{"displayFieldName":"TOWNNAME","fieldAliases":{"ID":"ID","DIS_CODE":"DIS_CODE","TOWNNAME":"TOWNNAME","LI":"LI","LIN":"LIN","STREET":"STREET","SECT":"SECT","MAREA":"MAREA","LANE":"LANE","ALLEY":"ALLEY","HOUSE_NO":"HOUSE_NO","E_COORD97":"E_COORD97","N_COORD97":"N_COORD97","ADDRESS":"ADDRESS","OBJECTID":"OBJECTID"},"geometryType":"esriGeometryPoint","spatialReference":{"wkid":102443,"latestWkid":3826},"fields":[{"name":"ID","type":"esriFieldTypeDouble","alias":"ID"},{"name":"DIS_CODE","type":"esriFieldTypeInteger","alias":"DIS_CODE"},{"name":"TOWNNAME","type":"esriFieldTypeString","alias":"TOWNNAME","length":8},{"name":"LI","type":"esriFieldTypeString","alias":"LI","length":8},{"name":"LIN","type":"esriFieldTypeString","alias":"LIN","length":12},{"name":"STREET","type":"esriFieldTypeString","alias":"STREET","length":20},{"name":"SECT","type":"esriFieldTypeString","alias":"SECT","length":8},{"name":"MAREA","type":"esriFieldTypeString","alias":"MAREA","length":12},{"name":"LANE","type":"esriFieldTypeString","alias":"LANE","length":10},{"name":"ALLEY","type":"esriFieldTypeString","alias":"ALLEY","length":10},{"name":"HOUSE_NO","type":"esriFieldTypeString","alias":"HOUSE_NO","length":20},{"name":"E_COORD97","type":"esriFieldTypeDouble","alias":"E_COORD97"},{"name":"N_COORD97","type":"esriFieldTypeDouble","alias":"N_COORD97"},{"name":"ADDRESS","type":"esriFieldTypeString","alias":"ADDRESS","length":50},{"name":"OBJECTID","type":"esriFieldTypeOID","alias":"OBJECTID"}],"features":[{"attributes":{"ID":15401,"DIS_CODE":0,"TOWNNAME":"新化區","LI":"全興里","LIN":"14鄰","STREET":" ","SECT":" ","MAREA":"竹子\u25A0","LANE":" ","ALLEY":" ","HOUSE_NO":"２４７號之３５１六樓","E_COORD97":178291.62,"N_COORD97":2546701.2599999998,"ADDRESS":"竹子\u25A0２４７號之３５１六樓之１","OBJECTID":15401},"geometry":{"x":178291.62000000011,"y":2546701.2600000016}},{"attributes":{"ID":15402,"DIS_CODE":0,"TOWNNAME":"永康區","LI":"西勢里","LIN":"24鄰","STREET":"廣興街","SECT":" ","MAREA":" ","LANE":"３８巷","ALLEY":"４７弄","HOUSE_NO":"１８號","E_COORD97":176091.42999999999,"N_COORD97":2546491.2400000002,"ADDRESS":"廣興街３８巷４７弄１８號","OBJECTID":15402},"geometry":{"x":176091.43000000063,"y":2546491.2400000039}},{"attributes":{"ID":15403,"DIS_CODE":0,"TOWNNAME":"新化區","LI":"全興里","LIN":"14鄰","STREET":" ","SECT":" ","MAREA":"竹子\u25A0","LANE":" ","ALLEY":" ","HOUSE_NO":"２４７號之３５１六樓","E_COORD97":178291.64000000001,"N_COORD97":2546701.2599999998,"ADDRESS":"竹子\u25A0２４７號之３５１六樓之３","OBJECTID":15403},"geometry":{"x":178291.64000000153,"y":2546701.2600000016}},{"attributes":{"ID":15404,"DIS_CODE":0,"TOWNNAME":"新化區","LI":"全興里","LIN":"14鄰","STREET":" ","SECT":" ","MAREA":"竹子\u25A0","LANE":" ","ALLEY":" ","HOUSE_NO":"２４７號之３５１四樓","E_COORD97":178291.64999999999,"N_COORD97":2546701.2599999998,"ADDRESS":"竹子\u25A0２４７號之３５１四樓之２","OBJECTID":15404},"geometry":{"x":178291.65000000037,"y":2546701.2600000016}},{"attributes":{"ID":15405,"DIS_CODE":0,"TOWNNAME":"新化區","LI":"全興里","LIN":"14鄰","STREET":" ","SECT":" ","MAREA":"竹子\u25A0","LANE":" ","ALLEY":" ","HOUSE_NO":"２４７號之３５１二樓","E_COORD97":178291.64999999999,"N_COORD97":2546701.2599999998,"ADDRESS":"竹子\u25A0２４７號之３５１二樓之２","OBJECTID":15405},"geometry":{"x":178291.65000000037,"y":2546701.2600000016}},{"attributes":{"ID":15406,"DIS_CODE":0,"TOWNNAME":"北門區","LI":"三光里","LIN":"14鄰","STREET":" ","SECT":" ","MAREA":"蘆竹溝","LANE":" ","ALLEY":" ","HOUSE_NO":"３００號","E_COORD97":157702.45000000001,"N_COORD97":2570390.1000000001,"ADDRESS":"蘆竹溝３００號","OBJECTID":15406},"geometry":{"x":157702.45000000112,"y":2570390.1000000034}},{"attributes":{"ID":15407,"DIS_CODE":0,"TOWNNAME":"北門區","LI":"三光里","LIN":"14鄰","STREET":" ","SECT":" ","MAREA":"蘆竹溝","LANE":" ","ALLEY":" ","HOUSE_NO":"３０２號","E_COORD97":157695.78,"N_COORD97":2570431.6899999999,"ADDRESS":"蘆竹溝３０２號","OBJECTID":15407},"geometry":{"x":157695.78000000026,"y":2570431.6900000013}},{"attributes":{"ID":15408,"DIS_CODE":0,"TOWNNAME":"東區","LI":"大同里","LIN":"24鄰","STREET":"大同路","SECT":"一段","MAREA":" ","LANE":"２４１巷","ALLEY":"６弄","HOUSE_NO":"１８號","E_COORD97":169215.12,"N_COORD97":2542602.3999999999,"ADDRESS":"大同路一段２４１巷６弄１８號","OBJECTID":15408},"geometry":{"x":169215.12000000104,"y":2542602.4000000022}},{"attributes":{"ID":15409,"DIS_CODE":0,"TOWNNAME":"北門區","LI":"三光里","LIN":"14鄰","STREET":" ","SECT":" ","MAREA":"蘆竹溝","LANE":" ","ALLEY":" ","HOUSE_NO":"３０３號","E_COORD97":157676.91,"N_COORD97":2570423.79,"ADDRESS":"蘆竹溝３０３號","OBJECTID":15409},"geometry":{"x":157676.91000000201,"y":2570423.790000001}},{"attributes":{"ID":15410,"DIS_CODE":0,"TOWNNAME":"楠西區","LI":"鹿田里","LIN":"13鄰","STREET":" ","SECT":" ","MAREA":"油車","LANE":" ","ALLEY":" ","HOUSE_NO":"６７號之９","E_COORD97":197820.66,"N_COORD97":2562850.2999999998,"ADDRESS":"油車６７號之９","OBJECTID":15410},"geometry":{"x":197820.66000000201,"y":2562850.3000000026}},{"attributes":{"ID":15411,"DIS_CODE":0,"TOWNNAME":"楠西區","LI":"照興里","LIN":"13鄰","STREET":" ","SECT":" ","MAREA":"興南","LANE":" ","ALLEY":" ","HOUSE_NO":"３８號","E_COORD97":195764.07000000001,"N_COORD97":2562996.25,"ADDRESS":"興南３８號","OBJECTID":15411},"geometry":{"x":195764.07000000123,"y":2562996.2500000019}},{"attributes":{"ID":15412,"DIS_CODE":0,"TOWNNAME":"北門區","LI":"三光里","LIN":"14鄰","STREET":" ","SECT":" ","MAREA":"蘆竹溝","LANE":" ","ALLEY":" ","HOUSE_NO":"３０４號","E_COORD97":157672.67000000001,"N_COORD97":2570428.9900000002,"ADDRESS":"蘆竹溝３０４號","OBJECTID":15412},"geometry":{"x":157672.66999999993,"y":2570428.9900000039}},{"attributes":{"ID":15413,"DIS_CODE":0,"TOWNNAME":"北門區","LI":"三光里","LIN":"14鄰","STREET":" ","SECT":" ","MAREA":"蘆竹溝","LANE":" ","ALLEY":" ","HOUSE_NO":"３０５號","E_COORD97":157669.5,"N_COORD97":2570435.3500000001,"ADDRESS":"蘆竹溝３０５號","OBJECTID":15413},"geometry":{"x":157669.50000000093,"y":2570435.3499999996}},{"attributes":{"ID":15414,"DIS_CODE":0,"TOWNNAME":"北門區","LI":"三光里","LIN":"14鄰","STREET":" ","SECT":" ","MAREA":"蘆竹溝","LANE":" ","ALLEY":" ","HOUSE_NO":"３０６號","E_COORD97":157673.64000000001,"N_COORD97":2570447.79,"ADDRESS":"蘆竹溝３０６號","OBJECTID":15414},"geometry":{"x":157673.6400000006,"y":2570447.7899999991}},{"attributes":{"ID":15415,"DIS_CODE":0,"TOWNNAME":"東區","LI":"大同里","LIN":"24鄰","STREET":"大同路","SECT":"一段","MAREA":" ","LANE":"２４１巷","ALLEY":"６弄","HOUSE_NO":"２５號","E_COORD97":169220.51999999999,"N_COORD97":2542619.5899999999,"ADDRESS":"大同路一段２４１巷６弄２５號","OBJECTID":15415},"geometry":{"x":169220.51999999955,"y":2542619.589999998}},{"attributes":{"ID":15416,"DIS_CODE":0,"TOWNNAME":"北門區","LI":"三光里","LIN":"14鄰","STREET":" ","SECT":" ","MAREA":"蘆竹溝","LANE":" ","ALLEY":" ","HOUSE_NO":"３０８號","E_COORD97":157652.38,"N_COORD97":2570469.23,"ADDRESS":"蘆竹溝３０８號","OBJECTID":15416},"geometry":{"x":157652.37999999989,"y":2570469.2300000023}},{"attributes":{"ID":15417,"DIS_CODE":0,"TOWNNAME":"北門區","LI":"三光里","LIN":"14鄰","STREET":" ","SECT":" ","MAREA":"蘆竹溝","LANE":" ","ALLEY":" ","HOUSE_NO":"３０９號","E_COORD97":157636.01000000001,"N_COORD97":2570458.4300000002,"ADDRESS":"蘆竹溝３０９號","OBJECTID":15417},"geometry":{"x":157636.00999999978,"y":2570458.4299999997}},{"attributes":{"ID":15418,"DIS_CODE":0,"TOWNNAME":"安南區","LI":"海東里","LIN":"24鄰","STREET":"同安路","SECT":" ","MAREA":" ","LANE":"１６７巷","ALLEY":"２６弄","HOUSE_NO":"１號","E_COORD97":167022.63,"N_COORD97":2549188.1699999999,"ADDRESS":"同安路１６７巷２６弄１號","OBJECTID":15418},"geometry":{"x":167022.63000000082,"y":2549188.1700000018}},{"attributes":{"ID":15419,"DIS_CODE":0,"TOWNNAME":"北門區","LI":"三光里","LIN":"14鄰","STREET":" ","SECT":" ","MAREA":"蘆竹溝","LANE":" ","ALLEY":" ","HOUSE_NO":"３１０號","E_COORD97":157639.10000000001,"N_COORD97":2570451.46,"ADDRESS":"蘆竹溝３１０號","OBJECTID":15419},"geometry":{"x":157639.09999999963,"y":2570451.4600000028}},{"attributes":{"ID":15420,"DIS_CODE":0,"TOWNNAME":"北門區","LI":"玉港里","LIN":"14鄰","STREET":" ","SECT":" ","MAREA":"西埔內","LANE":" ","ALLEY":" ","HOUSE_NO":"１１號","E_COORD97":162130.97,"N_COORD97":2573730.6000000001,"ADDRESS":"西埔內１１號","OBJECTID":15420},"geometry":{"x":162130.9700000016,"y":2573730.6000000015}},{"attributes":{"ID":15421,"DIS_CODE":0,"TOWNNAME":"安南區","LI":"海東里","LIN":"24鄰","STREET":"同安路","SECT":" ","MAREA":" ","LANE":"１６７巷","ALLEY":"２６弄","HOUSE_NO":"３號","E_COORD97":167027.32999999999,"N_COORD97":2549191.8999999999,"ADDRESS":"同安路１６７巷２６弄３號","OBJECTID":15421},"geometry":{"x":167027.33000000007,"y":2549191.9000000004}},{"attributes":{"ID":15422,"DIS_CODE":0,"TOWNNAME":"新營區","LI":"南紙里","LIN":"1鄰","STREET":"建業路","SECT":" ","MAREA":" ","LANE":"１９３巷","ALLEY":"２２弄","HOUSE_NO":"８號","E_COORD97":178174.19,"N_COORD97":2577369.8900000001,"ADDRESS":"建業路１９３巷２２弄８號","OBJECTID":15422},"geometry":{"x":178174.19000000134,"y":2577369.8900000043}},{"attributes":{"ID":15423,"DIS_CODE":0,"TOWNNAME":"北門區","LI":"三光里","LIN":"14鄰","STREET":" ","SECT":" ","MAREA":"蘆竹溝","LANE":" ","ALLEY":" ","HOUSE_NO":"３１２號","E_COORD97":157653.25,"N_COORD97":2570423.6899999999,"ADDRESS":"蘆竹溝３１２號","OBJECTID":15423},"geometry":{"x":157653.25,"y":2570423.6900000013}},{"attributes":{"ID":15424,"DIS_CODE":0,"TOWNNAME":"安南區","LI":"海東里","LIN":"24鄰","STREET":"同安路","SECT":" ","MAREA":" ","LANE":"１６７巷","ALLEY":"２弄","HOUSE_NO":"３號","E_COORD97":167085.87,"N_COORD97":2549120.0299999998,"ADDRESS":"同安路１６７巷２弄３號","OBJECTID":15424},"geometry":{"x":167085.87000000104,"y":2549120.0300000012}},{"attributes":{"ID":15425,"DIS_CODE":0,"TOWNNAME":"安南區","LI":"海東里","LIN":"24鄰","STREET":"同安路","SECT":" ","MAREA":" ","LANE":"１６７巷","ALLEY":"２弄","HOUSE_NO":"４號","E_COORD97":167089.42000000001,"N_COORD97":2549122.6299999999,"ADDRESS":"同安路１６７巷２弄４號","OBJECTID":15425},"geometry":{"x":167089.41999999993,"y":2549122.6300000008}},{"attributes":{"ID":15426,"DIS_CODE":0,"TOWNNAME":"安南區","LI":"海東里","LIN":"24鄰","STREET":"同安路","SECT":" ","MAREA":" ","LANE":"１６７巷","ALLEY":"２弄","HOUSE_NO":"５號","E_COORD97":167091.19,"N_COORD97":2549127.1400000001,"ADDRESS":"同安路１６７巷２弄５號","OBJECTID":15426},"geometry":{"x":167091.19000000041,"y":2549127.1400000025}},{"attributes":{"ID":15427,"DIS_CODE":0,"TOWNNAME":"安南區","LI":"海東里","LIN":"24鄰","STREET":"同安路","SECT":" ","MAREA":" ","LANE":"１６７巷","ALLEY":"２弄","HOUSE_NO":"６號","E_COORD97":167095.10999999999,"N_COORD97":2549130.1800000002,"ADDRESS":"同安路１６７巷２弄６號","OBJECTID":15427},"geometry":{"x":167095.11000000034,"y":2549130.1800000016}},{"attributes":{"ID":15428,"DIS_CODE":0,"TOWNNAME":"安南區","LI":"海東里","LIN":"24鄰","STREET":"同安路","SECT":" ","MAREA":" ","LANE":"１６７巷","ALLEY":"２弄","HOUSE_NO":"７號","E_COORD97":167098.10999999999,"N_COORD97":2549133.02,"ADDRESS":"同安路１６７巷２弄７號","OBJECTID":15428},"geometry":{"x":167098.11000000127,"y":2549133.0200000033}},{"attributes":{"ID":15429,"DIS_CODE":0,"TOWNNAME":"北門區","LI":"三光里","LIN":"14鄰","STREET":" ","SECT":" ","MAREA":"蘆竹溝","LANE":" ","ALLEY":" ","HOUSE_NO":"３１４號","E_COORD97":157647.72,"N_COORD97":2570380.0299999998,"ADDRESS":"蘆竹溝３１４號","OBJECTID":15429},"geometry":{"x":157647.72000000067,"y":2570380.0300000031}},{"attributes":{"ID":15430,"DIS_CODE":0,"TOWNNAME":"東區","LI":"忠孝里","LIN":"24鄰","STREET":"崇明五街","SECT":" ","MAREA":" ","LANE":" ","ALLEY":" ","HOUSE_NO":"７號","E_COORD97":169590.23999999999,"N_COORD97":2542245.1200000001,"ADDRESS":"崇明五街７號","OBJECTID":15430},"geometry":{"x":169590.24000000115,"y":2542245.1200000029}},{"attributes":{"ID":15431,"DIS_CODE":0,"TOWNNAME":"北門區","LI":"三光里","LIN":"14鄰","STREET":" ","SECT":" ","MAREA":"蘆竹溝","LANE":" ","ALLEY":" ","HOUSE_NO":"３１８號","E_COORD97":157619.42000000001,"N_COORD97":2570439.1600000001,"ADDRESS":"蘆竹溝３１８號","OBJECTID":15431},"geometry":{"x":157619.42000000086,"y":2570439.160000002}},{"attributes":{"ID":15432,"DIS_CODE":0,"TOWNNAME":"北門區","LI":"三光里","LIN":"14鄰","STREET":" ","SECT":" ","MAREA":"蘆竹溝","LANE":" ","ALLEY":" ","HOUSE_NO":"３２０號","E_COORD97":157634.44,"N_COORD97":2570402.1299999999,"ADDRESS":"蘆竹溝３２０號","OBJECTID":15432},"geometry":{"x":157634.44000000227,"y":2570402.129999999}},{"attributes":{"ID":15433,"DIS_CODE":0,"TOWNNAME":"北門區","LI":"慈安里","LIN":"14鄰","STREET":" ","SECT":" ","MAREA":"三寮灣","LANE":" ","ALLEY":" ","HOUSE_NO":"５７２號","E_COORD97":159196.63,"N_COORD97":2571031.1499999999,"ADDRESS":"三寮灣５７２號","OBJECTID":15433},"geometry":{"x":159196.62999999989,"y":2571031.1499999985}},{"attributes":{"ID":15434,"DIS_CODE":0,"TOWNNAME":"北門區","LI":"慈安里","LIN":"14鄰","STREET":" ","SECT":" ","MAREA":"三寮灣","LANE":" ","ALLEY":" ","HOUSE_NO":"５７４號","E_COORD97":159215.51999999999,"N_COORD97":2571025.6299999999,"ADDRESS":"三寮灣５７４號","OBJECTID":15434},"geometry":{"x":159215.51999999955,"y":2571025.629999999}},{"attributes":{"ID":15435,"DIS_CODE":0,"TOWNNAME":"北門區","LI":"慈安里","LIN":"14鄰","STREET":" ","SECT":" ","MAREA":"三寮灣","LANE":" ","ALLEY":" ","HOUSE_NO":"５７５之１號","E_COORD97":159242.32999999999,"N_COORD97":2571059.9399999999,"ADDRESS":"三寮灣５７５之１號","OBJECTID":15435},"geometry":{"x":159242.33000000101,"y":2571059.9400000013}},{"attributes":{"ID":15436,"DIS_CODE":0,"TOWNNAME":"北門區","LI":"慈安里","LIN":"14鄰","STREET":" ","SECT":" ","MAREA":"三寮灣","LANE":" ","ALLEY":" ","HOUSE_NO":"５７５之２號","E_COORD97":159246.73999999999,"N_COORD97":2571056.9500000002,"ADDRESS":"三寮灣５７５之２號","OBJECTID":15436},"geometry":{"x":159246.74000000115,"y":2571056.9500000011}},{"attributes":{"ID":15437,"DIS_CODE":0,"TOWNNAME":"北門區","LI":"慈安里","LIN":"14鄰","STREET":" ","SECT":" ","MAREA":"三寮灣","LANE":" ","ALLEY":" ","HOUSE_NO":"５７５號之３","E_COORD97":159250.13,"N_COORD97":2571053.7000000002,"ADDRESS":"三寮灣５７５號之３","OBJECTID":15437},"geometry":{"x":159250.13000000082,"y":2571053.700000003}},{"attributes":{"ID":15438,"DIS_CODE":0,"TOWNNAME":"安南區","LI":"海東里","LIN":"24鄰","STREET":"同安路","SECT":" ","MAREA":" ","LANE":"１６７巷","ALLEY":"２弄","HOUSE_NO":"８號","E_COORD97":167100.89999999999,"N_COORD97":2549135.4399999999,"ADDRESS":"同安路１６７巷２弄８號","OBJECTID":15438},"geometry":{"x":167100.9000000013,"y":2549135.4399999995}},{"attributes":{"ID":15439,"DIS_CODE":0,"TOWNNAME":"安南區","LI":"海東里","LIN":"24鄰","STREET":"同安路","SECT":" ","MAREA":" ","LANE":"１６７巷","ALLEY":"２弄","HOUSE_NO":"９號","E_COORD97":167102.89999999999,"N_COORD97":2549138.8700000001,"ADDRESS":"同安路１６７巷２弄９號","OBJECTID":15439},"geometry":{"x":167102.9000000013,"y":2549138.8700000048}},{"attributes":{"ID":15440,"DIS_CODE":0,"TOWNNAME":"安南區","LI":"海東里","LIN":"24鄰","STREET":"同安路","SECT":" ","MAREA":" ","LANE":"１９５巷","ALLEY":"２弄","HOUSE_NO":"１號","E_COORD97":167134.34,"N_COORD97":2549171.46,"ADDRESS":"同安路１９５巷２弄１號","OBJECTID":15440},"geometry":{"x":167134.34000000171,"y":2549171.4600000009}},{"attributes":{"ID":15441,"DIS_CODE":0,"TOWNNAME":"學甲區","LI":"慈福里","LIN":"13鄰","STREET":"民族路","SECT":" ","MAREA":" ","LANE":" ","ALLEY":" ","HOUSE_NO":"６２號","E_COORD97":166636.14999999999,"N_COORD97":2570327.9300000002,"ADDRESS":"民族路６２號","OBJECTID":15441},"geometry":{"x":166636.15000000224,"y":2570327.9300000016}},{"attributes":{"ID":15442,"DIS_CODE":0,"TOWNNAME":"學甲區","LI":"慈福里","LIN":"13鄰","STREET":"民族路","SECT":" ","MAREA":" ","LANE":" ","ALLEY":" ","HOUSE_NO":"６５號","E_COORD97":166625.73000000001,"N_COORD97":2570407.0499999998,"ADDRESS":"民族路６５號","OBJECTID":15442},"geometry":{"x":166625.73000000138,"y":2570407.0500000007}},{"attributes":{"ID":15443,"DIS_CODE":0,"TOWNNAME":"學甲區","LI":"慈福里","LIN":"13鄰","STREET":"民族路","SECT":" ","MAREA":" ","LANE":" ","ALLEY":" ","HOUSE_NO":"６６號之１００","E_COORD97":166734.60999999999,"N_COORD97":2570322.1800000002,"ADDRESS":"民族路６６號之１００","OBJECTID":15443},"geometry":{"x":166734.6099999994,"y":2570322.1800000016}},{"attributes":{"ID":15444,"DIS_CODE":0,"TOWNNAME":"楠西區","LI":"東勢里","LIN":"13鄰","STREET":"水庫路","SECT":" ","MAREA":" ","LANE":" ","ALLEY":" ","HOUSE_NO":"１０７號","E_COORD97":197760.17000000001,"N_COORD97":2563862.25,"ADDRESS":"水庫路１０７號","OBJECTID":15444},"geometry":{"x":197760.16999999993,"y":2563862.25}},{"attributes":{"ID":15445,"DIS_CODE":0,"TOWNNAME":"北門區","LI":"慈安里","LIN":"14鄰","STREET":" ","SECT":" ","MAREA":"三寮灣","LANE":" ","ALLEY":" ","HOUSE_NO":"５７５之４號","E_COORD97":159254.56,"N_COORD97":2571050.96,"ADDRESS":"三寮灣５７５之４號","OBJECTID":15445},"geometry":{"x":159254.55999999959,"y":2571050.9600000028}},{"attributes":{"ID":15446,"DIS_CODE":0,"TOWNNAME":"安南區","LI":"海東里","LIN":"24鄰","STREET":"同安路","SECT":" ","MAREA":" ","LANE":"１９５巷","ALLEY":"２弄","HOUSE_NO":"３號","E_COORD97":167140.38,"N_COORD97":2549176.6200000001,"ADDRESS":"同安路１９５巷２弄３號","OBJECTID":15446},"geometry":{"x":167140.37999999989,"y":2549176.620000001}},{"attributes":{"ID":15447,"DIS_CODE":0,"TOWNNAME":"新營區","LI":"民榮里","LIN":"38鄰","STREET":"太子路","SECT":" ","MAREA":" ","LANE":"５３巷","ALLEY":"６弄","HOUSE_NO":"２５號之５","E_COORD97":178259.22,"N_COORD97":2577932.1400000001,"ADDRESS":"太子路５３巷６弄２５號之５","OBJECTID":15447},"geometry":{"x":178259.22000000067,"y":2577932.1400000025}},{"attributes":{"ID":15448,"DIS_CODE":0,"TOWNNAME":"安南區","LI":"海東里","LIN":"24鄰","STREET":"同安路","SECT":" ","MAREA":" ","LANE":"１９５巷","ALLEY":"２弄","HOUSE_NO":"４號","E_COORD97":167142.66,"N_COORD97":2549179.77,"ADDRESS":"同安路１９５巷２弄４號","OBJECTID":15448},"geometry":{"x":167142.66000000201,"y":2549179.7700000014}},{"attributes":{"ID":15449,"DIS_CODE":0,"TOWNNAME":"東區","LI":"後甲里","LIN":"24鄰","STREET":"裕農路","SECT":" ","MAREA":" ","LANE":"６２１巷","ALLEY":"４５弄","HOUSE_NO":"１３號","E_COORD97":171572.20000000001,"N_COORD97":2543453.6600000001,"ADDRESS":"裕農路６２１巷４５弄１３號","OBJECTID":15449},"geometry":{"x":171572.20000000112,"y":2543453.6600000039}},{"attributes":{"ID":15450,"DIS_CODE":0,"TOWNNAME":"東區","LI":"後甲里","LIN":"24鄰","STREET":"裕農路","SECT":" ","MAREA":" ","LANE":"６２１巷","ALLEY":"４５弄","HOUSE_NO":"１７號","E_COORD97":171564.23999999999,"N_COORD97":2543453.6600000001,"ADDRESS":"裕農路６２１巷４５弄１７號","OBJECTID":15450},"geometry":{"x":171564.24000000022,"y":2543453.6600000039}},{"attributes":{"ID":15451,"DIS_CODE":0,"TOWNNAME":"東區","LI":"後甲里","LIN":"24鄰","STREET":"裕農路","SECT":" ","MAREA":" ","LANE":"６２１巷","ALLEY":"４５弄","HOUSE_NO":"１５號","E_COORD97":171568.10000000001,"N_COORD97":2543453.6600000001,"ADDRESS":"裕農路６２１巷４５弄１５號","OBJECTID":15451},"geometry":{"x":171568.09999999963,"y":2543453.6600000039}},{"attributes":{"ID":15452,"DIS_CODE":0,"TOWNNAME":"東區","LI":"後甲里","LIN":"24鄰","STREET":"裕農路","SECT":" ","MAREA":" ","LANE":"６２１巷","ALLEY":"４５弄","HOUSE_NO":"１６號","E_COORD97":171568.57999999999,"N_COORD97":2543488.8399999999,"ADDRESS":"裕農路６２１巷４５弄１６號","OBJECTID":15452},"geometry":{"x":171568.58000000007,"y":2543488.8399999999}},{"attributes":{"ID":15453,"DIS_CODE":0,"TOWNNAME":"東區","LI":"小東里","LIN":"24鄰","STREET":"光明街","SECT":" ","MAREA":" ","LANE":"２０１巷","ALLEY":"４弄","HOUSE_NO":"１５號","E_COORD97":170991.37,"N_COORD97":2544030.8999999999,"ADDRESS":"光明街２０１巷４弄１５號","OBJECTID":15453},"geometry":{"x":170991.37000000104,"y":2544030.9000000004}},{"attributes":{"ID":15454,"DIS_CODE":0,"TOWNNAME":"北門區","LI":"慈安里","LIN":"14鄰","STREET":" ","SECT":" ","MAREA":"三寮灣","LANE":" ","ALLEY":" ","HOUSE_NO":"５７５號之５","E_COORD97":159258.54999999999,"N_COORD97":2571047.7799999998,"ADDRESS":"三寮灣５７５號之５","OBJECTID":15454},"geometry":{"x":159258.54999999981,"y":2571047.7800000012}},{"attributes":{"ID":15455,"DIS_CODE":0,"TOWNNAME":"東區","LI":"小東里","LIN":"24鄰","STREET":"光明街","SECT":" ","MAREA":" ","LANE":"２０１巷","ALLEY":"４弄","HOUSE_NO":"１７號","E_COORD97":170995.76999999999,"N_COORD97":2544030.1299999999,"ADDRESS":"光明街２０１巷４弄１７號","OBJECTID":15455},"geometry":{"x":170995.76999999955,"y":2544030.1300000008}},{"attributes":{"ID":15456,"DIS_CODE":0,"TOWNNAME":"東區","LI":"小東里","LIN":"24鄰","STREET":"光明街","SECT":" ","MAREA":" ","LANE":"２０１巷","ALLEY":"４弄","HOUSE_NO":"１８號","E_COORD97":170996.29000000001,"N_COORD97":2544019.27,"ADDRESS":"光明街２０１巷４弄１８號","OBJECTID":15456},"geometry":{"x":170996.29000000004,"y":2544019.2700000014}},{"attributes":{"ID":15457,"DIS_CODE":0,"TOWNNAME":"東區","LI":"小東里","LIN":"24鄰","STREET":"光明街","SECT":" ","MAREA":" ","LANE":"２０１巷","ALLEY":"４弄","HOUSE_NO":"１９號","E_COORD97":170999.14000000001,"N_COORD97":2544029.3500000001,"ADDRESS":"光明街２０１巷４弄１９號","OBJECTID":15457},"geometry":{"x":170999.1400000006,"y":2544029.3500000015}},{"attributes":{"ID":15458,"DIS_CODE":0,"TOWNNAME":"東區","LI":"小東里","LIN":"24鄰","STREET":"光明街","SECT":" ","MAREA":" ","LANE":"２０１巷","ALLEY":"４弄","HOUSE_NO":"２０號","E_COORD97":171004.06,"N_COORD97":2544016.6800000002,"ADDRESS":"光明街２０１巷４弄２０號","OBJECTID":15458},"geometry":{"x":171004.05999999959,"y":2544016.6800000016}},{"attributes":{"ID":15459,"DIS_CODE":0,"TOWNNAME":"安南區","LI":"溪頂里","LIN":"24鄰","STREET":"郡安路","SECT":"四段","MAREA":" ","LANE":"８９巷","ALLEY":"３３弄","HOUSE_NO":"１１號","E_COORD97":169066.89000000001,"N_COORD97":2547514.7999999998,"ADDRESS":"郡安路四段８９巷３３弄１１號","OBJECTID":15459},"geometry":{"x":169066.8900000006,"y":2547514.8000000007}},{"attributes":{"ID":15460,"DIS_CODE":0,"TOWNNAME":"安南區","LI":"溪頂里","LIN":"24鄰","STREET":"郡安路","SECT":"四段","MAREA":" ","LANE":"８９巷","ALLEY":"３３弄","HOUSE_NO":"１號","E_COORD97":169038.70999999999,"N_COORD97":2547514.8599999999,"ADDRESS":"郡安路四段８９巷３３弄１號","OBJECTID":15460},"geometry":{"x":169038.70999999996,"y":2547514.8600000013}},{"attributes":{"ID":15461,"DIS_CODE":0,"TOWNNAME":"南區","LI":"佛壇里","LIN":"13鄰","STREET":"灣裡路","SECT":" ","MAREA":" ","LANE":" ","ALLEY":" ","HOUSE_NO":"５８２號","E_COORD97":166213.88,"N_COORD97":2535678.9500000002,"ADDRESS":"灣裡路５８２號","OBJECTID":15461},"geometry":{"x":166213.88000000082,"y":2535678.9499999993}},{"attributes":{"ID":15462,"DIS_CODE":0,"TOWNNAME":"北門區","LI":"慈安里","LIN":"14鄰","STREET":" ","SECT":" ","MAREA":"三寮灣","LANE":" ","ALLEY":" ","HOUSE_NO":"５７５號之６","E_COORD97":159262.56,"N_COORD97":2571044.8799999999,"ADDRESS":"三寮灣５７５號之６","OBJECTID":15462},"geometry":{"x":159262.56000000052,"y":2571044.879999999}},{"attributes":{"ID":15463,"DIS_CODE":0,"TOWNNAME":"七股區","LI":"樹林里","LIN":"8鄰","STREET":" ","SECT":" ","MAREA":"樹林","LANE":" ","ALLEY":" ","HOUSE_NO":"７３號","E_COORD97":163799.67000000001,"N_COORD97":2557080.71,"ADDRESS":"樹林７３號","OBJECTID":15463},"geometry":{"x":163799.67000000086,"y":2557080.7100000028}},{"attributes":{"ID":15464,"DIS_CODE":0,"TOWNNAME":"北門區","LI":"慈安里","LIN":"14鄰","STREET":" ","SECT":" ","MAREA":"三寮灣","LANE":" ","ALLEY":" ","HOUSE_NO":"５７５號","E_COORD97":159235.48999999999,"N_COORD97":2571023.23,"ADDRESS":"三寮灣５７５號","OBJECTID":15464},"geometry":{"x":159235.49000000022,"y":2571023.2300000004}},{"attributes":{"ID":15465,"DIS_CODE":0,"TOWNNAME":"北門區","LI":"慈安里","LIN":"14鄰","STREET":" ","SECT":" ","MAREA":"三寮灣","LANE":" ","ALLEY":" ","HOUSE_NO":"５７６號","E_COORD97":159245.76000000001,"N_COORD97":2571021.1299999999,"ADDRESS":"三寮灣５７６號","OBJECTID":15465},"geometry":{"x":159245.76000000071,"y":2571021.1300000008}},{"attributes":{"ID":15466,"DIS_CODE":0,"TOWNNAME":"北門區","LI":"慈安里","LIN":"14鄰","STREET":" ","SECT":" ","MAREA":"三寮灣","LANE":" ","ALLEY":" ","HOUSE_NO":"５７７號","E_COORD97":159250.35999999999,"N_COORD97":2571020.1899999999,"ADDRESS":"三寮灣５７７號","OBJECTID":15466},"geometry":{"x":159250.3599999994,"y":2571020.1900000032}},{"attributes":{"ID":15467,"DIS_CODE":0,"TOWNNAME":"北門區","LI":"慈安里","LIN":"14鄰","STREET":" ","SECT":" ","MAREA":"三寮灣","LANE":" ","ALLEY":" ","HOUSE_NO":"５７８號","E_COORD97":159286.85000000001,"N_COORD97":2571013.4500000002,"ADDRESS":"三寮灣５７８號","OBJECTID":15467},"geometry":{"x":159286.84999999963,"y":2571013.4499999993}},{"attributes":{"ID":15468,"DIS_CODE":0,"TOWNNAME":"北門區","LI":"慈安里","LIN":"14鄰","STREET":" ","SECT":" ","MAREA":"三寮灣","LANE":" ","ALLEY":" ","HOUSE_NO":"５８０號","E_COORD97":159299.39999999999,"N_COORD97":2571007.1499999999,"ADDRESS":"三寮灣５８０號","OBJECTID":15468},"geometry":{"x":159299.40000000224,"y":2571007.1500000004}},{"attributes":{"ID":15469,"DIS_CODE":0,"TOWNNAME":"北門區","LI":"慈安里","LIN":"14鄰","STREET":" ","SECT":" ","MAREA":"三寮灣","LANE":" ","ALLEY":" ","HOUSE_NO":"５８２之３號","E_COORD97":159315.87,"N_COORD97":2571066.5800000001,"ADDRESS":"三寮灣５８２之３號","OBJECTID":15469},"geometry":{"x":159315.87000000011,"y":2571066.5800000019}},{"attributes":{"ID":15470,"DIS_CODE":0,"TOWNNAME":"北門區","LI":"慈安里","LIN":"14鄰","STREET":" ","SECT":" ","MAREA":"三寮灣","LANE":" ","ALLEY":" ","HOUSE_NO":"５８３之１號","E_COORD97":159321.48000000001,"N_COORD97":2571014.5699999998,"ADDRESS":"三寮灣５８３之１號","OBJECTID":15470},"geometry":{"x":159321.48000000138,"y":2571014.5700000003}},{"attributes":{"ID":15471,"DIS_CODE":0,"TOWNNAME":"北門區","LI":"慈安里","LIN":"14鄰","STREET":" ","SECT":" ","MAREA":"三寮灣","LANE":" ","ALLEY":" ","HOUSE_NO":"５８３號","E_COORD97":159341.14000000001,"N_COORD97":2571020.6000000001,"ADDRESS":"三寮灣５８３號","OBJECTID":15471},"geometry":{"x":159341.14000000153,"y":2571020.5999999978}},{"attributes":{"ID":15472,"DIS_CODE":0,"TOWNNAME":"北門區","LI":"慈安里","LIN":"14鄰","STREET":" ","SECT":" ","MAREA":"三寮灣","LANE":" ","ALLEY":" ","HOUSE_NO":"５８４之５號","E_COORD97":159321.39999999999,"N_COORD97":2571024.5499999998,"ADDRESS":"三寮灣５８４之５號","OBJECTID":15472},"geometry":{"x":159321.40000000224,"y":2571024.5500000007}},{"attributes":{"ID":15473,"DIS_CODE":0,"TOWNNAME":"北門區","LI":"慈安里","LIN":"14鄰","STREET":" ","SECT":" ","MAREA":"三寮灣","LANE":" ","ALLEY":" ","HOUSE_NO":"５８４之７號","E_COORD97":159307.26000000001,"N_COORD97":2571007.3500000001,"ADDRESS":"三寮灣５８４之７號","OBJECTID":15473},"geometry":{"x":159307.26000000071,"y":2571007.3499999996}},{"attributes":{"ID":15474,"DIS_CODE":0,"TOWNNAME":"南區","LI":"文南里","LIN":"13鄰","STREET":"育南街","SECT":" ","MAREA":" ","LANE":" ","ALLEY":" ","HOUSE_NO":"６號","E_COORD97":166870.10000000001,"N_COORD97":2542570.3799999999,"ADDRESS":"育南街６號","OBJECTID":15474},"geometry":{"x":166870.10000000056,"y":2542570.3800000008}},{"attributes":{"ID":15475,"DIS_CODE":0,"TOWNNAME":"北區","LI":"三德里","LIN":"13鄰","STREET":"裕民街","SECT":" ","MAREA":" ","LANE":" ","ALLEY":" ","HOUSE_NO":"３３號","E_COORD97":168445.91,"N_COORD97":2544446.73,"ADDRESS":"裕民街３３號","OBJECTID":15475},"geometry":{"x":168445.91000000015,"y":2544446.7299999986}},{"attributes":{"ID":15476,"DIS_CODE":0,"TOWNNAME":"北區","LI":"五福里","LIN":"13鄰","STREET":"成功路","SECT":" ","MAREA":" ","LANE":" ","ALLEY":" ","HOUSE_NO":"２７６號之２","E_COORD97":168193.13,"N_COORD97":2544457.75,"ADDRESS":"成功路２７６號之２","OBJECTID":15476},"geometry":{"x":168193.12999999989,"y":2544457.7500000019}},{"attributes":{"ID":15477,"DIS_CODE":0,"TOWNNAME":"北區","LI":"五福里","LIN":"13鄰","STREET":"成功路","SECT":" ","MAREA":" ","LANE":" ","ALLEY":" ","HOUSE_NO":"２７８號","E_COORD97":168184.54999999999,"N_COORD97":2544460.8799999999,"ADDRESS":"成功路２７８號","OBJECTID":15477},"geometry":{"x":168184.55000000075,"y":2544460.879999999}},{"attributes":{"ID":15478,"DIS_CODE":0,"TOWNNAME":"新營區","LI":"南紙里","LIN":"1鄰","STREET":"建業路","SECT":" ","MAREA":" ","LANE":"１９３巷","ALLEY":"２２弄","HOUSE_NO":"２８號","E_COORD97":178128.39999999999,"N_COORD97":2577373.4399999999,"ADDRESS":"建業路１９３巷２２弄２８號","OBJECTID":15478},"geometry":{"x":178128.4000000013,"y":2577373.4400000013}},{"attributes":{"ID":15479,"DIS_CODE":0,"TOWNNAME":"佳里區","LI":"嘉福里","LIN":"7鄰","STREET":" ","SECT":" ","MAREA":"下營","LANE":" ","ALLEY":" ","HOUSE_NO":"６０號","E_COORD97":163227.17999999999,"N_COORD97":2563450.0299999998,"ADDRESS":"下營６０號","OBJECTID":15479},"geometry":{"x":163227.1799999997,"y":2563450.0299999975}},{"attributes":{"ID":15480,"DIS_CODE":0,"TOWNNAME":"佳里區","LI":"嘉福里","LIN":"7鄰","STREET":" ","SECT":" ","MAREA":"下營","LANE":" ","ALLEY":" ","HOUSE_NO":"６１號","E_COORD97":163255.67999999999,"N_COORD97":2563445.3300000001,"ADDRESS":"下營６１號","OBJECTID":15480},"geometry":{"x":163255.68000000063,"y":2563445.3299999982}},{"attributes":{"ID":15481,"DIS_CODE":0,"TOWNNAME":"佳里區","LI":"嘉福里","LIN":"7鄰","STREET":" ","SECT":" ","MAREA":"下營","LANE":" ","ALLEY":" ","HOUSE_NO":"６３號","E_COORD97":163305.03,"N_COORD97":2563437.3700000001,"ADDRESS":"下營６３號","OBJECTID":15481},"geometry":{"x":163305.03000000026,"y":2563437.3700000029}},{"attributes":{"ID":15482,"DIS_CODE":0,"TOWNNAME":"佳里區","LI":"嘉福里","LIN":"7鄰","STREET":" ","SECT":" ","MAREA":"下營","LANE":" ","ALLEY":" ","HOUSE_NO":"６６號","E_COORD97":163272.20000000001,"N_COORD97":2563461.2599999998,"ADDRESS":"下營６６號","OBJECTID":15482},"geometry":{"x":163272.20000000019,"y":2563461.2599999998}},{"attributes":{"ID":15483,"DIS_CODE":0,"TOWNNAME":"佳里區","LI":"嘉福里","LIN":"7鄰","STREET":" ","SECT":" ","MAREA":"下營","LANE":" ","ALLEY":" ","HOUSE_NO":"６７號","E_COORD97":163235.41,"N_COORD97":2563474.7000000002,"ADDRESS":"下營６７號","OBJECTID":15483},"geometry":{"x":163235.41000000201,"y":2563474.6999999993}},{"attributes":{"ID":15484,"DIS_CODE":0,"TOWNNAME":"佳里區","LI":"嘉福里","LIN":"7鄰","STREET":" ","SECT":" ","MAREA":"下營","LANE":" ","ALLEY":" ","HOUSE_NO":"６８號","E_COORD97":163267.79000000001,"N_COORD97":2563477.3999999999,"ADDRESS":"下營６８號","OBJECTID":15484},"geometry":{"x":163267.79000000004,"y":2563477.4000000022}},{"attributes":{"ID":15485,"DIS_CODE":0,"TOWNNAME":"佳里區","LI":"嘉福里","LIN":"7鄰","STREET":" ","SECT":" ","MAREA":"下營","LANE":" ","ALLEY":" ","HOUSE_NO":"７１號","E_COORD97":163306.29000000001,"N_COORD97":2563483.8999999999,"ADDRESS":"下營７１號","OBJECTID":15485},"geometry":{"x":163306.29000000097,"y":2563483.9000000022}},{"attributes":{"ID":15486,"DIS_CODE":0,"TOWNNAME":"佳里區","LI":"嘉福里","LIN":"7鄰","STREET":" ","SECT":" ","MAREA":"下營","LANE":" ","ALLEY":" ","HOUSE_NO":"７３號","E_COORD97":163248.14999999999,"N_COORD97":2563492.8100000001,"ADDRESS":"下營７３號","OBJECTID":15486},"geometry":{"x":163248.1500000013,"y":2563492.8100000005}},{"attributes":{"ID":15487,"DIS_CODE":0,"TOWNNAME":"鹽水區","LI":"岸內里","LIN":"7鄰","STREET":" ","SECT":" ","MAREA":"松子腳","LANE":" ","ALLEY":" ","HOUSE_NO":"１３號","E_COORD97":174865.95999999999,"N_COORD97":2580719.5899999999,"ADDRESS":"松子腳１３號","OBJECTID":15487},"geometry":{"x":174865.96000000089,"y":2580719.5899999999}},{"attributes":{"ID":15488,"DIS_CODE":0,"TOWNNAME":"鹽水區","LI":"岸內里","LIN":"7鄰","STREET":" ","SECT":" ","MAREA":"松子腳","LANE":" ","ALLEY":" ","HOUSE_NO":"１４之１０號","E_COORD97":174918.29000000001,"N_COORD97":2580522.46,"ADDRESS":"松子腳１４之１０號","OBJECTID":15488},"geometry":{"x":174918.29000000097,"y":2580522.4600000009}},{"attributes":{"ID":15489,"DIS_CODE":0,"TOWNNAME":"鹽水區","LI":"岸內里","LIN":"7鄰","STREET":" ","SECT":" ","MAREA":"松子腳","LANE":" ","ALLEY":" ","HOUSE_NO":"１４號之１１","E_COORD97":174917.29999999999,"N_COORD97":2580526.7599999998,"ADDRESS":"松子腳１４號之１１","OBJECTID":15489},"geometry":{"x":174917.30000000168,"y":2580526.7600000016}},{"attributes":{"ID":15490,"DIS_CODE":0,"TOWNNAME":"後壁區","LI":"頂安里","LIN":"7鄰","STREET":" ","SECT":" ","MAREA":"頂寮","LANE":" ","ALLEY":" ","HOUSE_NO":"８３號之１","E_COORD97":183717.56,"N_COORD97":2581386.0099999998,"ADDRESS":"頂寮８３號之１","OBJECTID":15490},"geometry":{"x":183717.55999999959,"y":2581386.0100000035}},{"attributes":{"ID":15491,"DIS_CODE":0,"TOWNNAME":"安南區","LI":"溪頂里","LIN":"24鄰","STREET":"郡安路","SECT":"四段","MAREA":" ","LANE":"８９巷","ALLEY":"３３弄","HOUSE_NO":"３號","E_COORD97":169044.48000000001,"N_COORD97":2547515.2799999998,"ADDRESS":"郡安路四段８９巷３３弄３號","OBJECTID":15491},"geometry":{"x":169044.47999999952,"y":2547515.2800000012}},{"attributes":{"ID":15492,"DIS_CODE":0,"TOWNNAME":"安南區","LI":"溪頂里","LIN":"24鄰","STREET":"郡安路","SECT":"四段","MAREA":" ","LANE":"８９巷","ALLEY":"３３弄","HOUSE_NO":"５號","E_COORD97":169049.04000000001,"N_COORD97":2547514.9399999999,"ADDRESS":"郡安路四段８９巷３３弄５號","OBJECTID":15492},"geometry":{"x":169049.04000000097,"y":2547514.9399999995}},{"attributes":{"ID":15493,"DIS_CODE":0,"TOWNNAME":"安南區","LI":"溪頂里","LIN":"24鄰","STREET":"郡安路","SECT":"四段","MAREA":" ","LANE":"８９巷","ALLEY":"３３弄","HOUSE_NO":"７號","E_COORD97":169054.85000000001,"N_COORD97":2547515.0099999998,"ADDRESS":"郡安路四段８９巷３３弄７號","OBJECTID":15493},"geometry":{"x":169054.85000000149,"y":2547515.0099999998}},{"attributes":{"ID":15494,"DIS_CODE":0,"TOWNNAME":"安南區","LI":"溪頂里","LIN":"24鄰","STREET":"郡安路","SECT":"四段","MAREA":" ","LANE":"８９巷","ALLEY":"３３弄","HOUSE_NO":"９號","E_COORD97":169061.28,"N_COORD97":2547514.7999999998,"ADDRESS":"郡安路四段８９巷３３弄９號","OBJECTID":15494},"geometry":{"x":169061.28000000119,"y":2547514.8000000007}},{"attributes":{"ID":15495,"DIS_CODE":0,"TOWNNAME":"仁德區","LI":"上崙里","LIN":"24鄰","STREET":"中正路","SECT":"一段","MAREA":" ","LANE":"７７４巷","ALLEY":"６弄","HOUSE_NO":"１３號","E_COORD97":173009.23999999999,"N_COORD97":2537863.02,"ADDRESS":"中正路一段７７４巷６弄１３號","OBJECTID":15495},"geometry":{"x":173009.24000000209,"y":2537863.0199999996}},{"attributes":{"ID":15496,"DIS_CODE":0,"TOWNNAME":"仁德區","LI":"上崙里","LIN":"24鄰","STREET":"中正路","SECT":"一段","MAREA":" ","LANE":"７７４巷","ALLEY":"６弄","HOUSE_NO":"３號","E_COORD97":173002.95000000001,"N_COORD97":2537885.52,"ADDRESS":"中正路一段７７４巷６弄３號","OBJECTID":15496},"geometry":{"x":173002.95000000112,"y":2537885.5199999996}},{"attributes":{"ID":15497,"DIS_CODE":0,"TOWNNAME":"仁德區","LI":"大甲里","LIN":"24鄰","STREET":"中正西路","SECT":" ","MAREA":" ","LANE":"３６０巷","ALLEY":"２０弄","HOUSE_NO":"４２號","E_COORD97":169613.20999999999,"N_COORD97":2535489.2400000002,"ADDRESS":"中正西路３６０巷２０弄４２號","OBJECTID":15497},"geometry":{"x":169613.20999999996,"y":2535489.2400000039}},{"attributes":{"ID":15498,"DIS_CODE":0,"TOWNNAME":"東區","LI":"小東里","LIN":"24鄰","STREET":"光明街","SECT":" ","MAREA":" ","LANE":"２０１巷","ALLEY":"４弄","HOUSE_NO":"６號","E_COORD97":170965.48000000001,"N_COORD97":2544024.1800000002,"ADDRESS":"光明街２０１巷４弄６號","OBJECTID":15498},"geometry":{"x":170965.48000000138,"y":2544024.1800000016}},{"attributes":{"ID":15499,"DIS_CODE":0,"TOWNNAME":"仁德區","LI":"上崙里","LIN":"24鄰","STREET":"中正路","SECT":"一段","MAREA":" ","LANE":"７６６巷","ALLEY":"２５弄","HOUSE_NO":"３１號","E_COORD97":173093.01999999999,"N_COORD97":2537832.5299999998,"ADDRESS":"中正路一段７６６巷２５弄３１號","OBJECTID":15499},"geometry":{"x":173093.01999999862,"y":2537832.5300000031}},{"attributes":{"ID":15500,"DIS_CODE":0,"TOWNNAME":"仁德區","LI":"上崙里","LIN":"24鄰","STREET":"中正路","SECT":"一段","MAREA":" ","LANE":"７７４巷","ALLEY":"６弄","HOUSE_NO":"５號","E_COORD97":173003.29000000001,"N_COORD97":2537881.27,"ADDRESS":"中正路一段７７４巷６弄５號","OBJECTID":15500},"geometry":{"x":173003.29000000004,"y":2537881.2699999996}},{"attributes":{"ID":15501,"DIS_CODE":0,"TOWNNAME":"仁德區","LI":"上崙里","LIN":"24鄰","STREET":"中正路","SECT":"一段","MAREA":" ","LANE":"７７４巷","ALLEY":"６弄","HOUSE_NO":"７號","E_COORD97":173004.29000000001,"N_COORD97":2537877.02,"ADDRESS":"中正路一段７７４巷６弄７號","OBJECTID":15501},"geometry":{"x":173004.29000000097,"y":2537877.0200000033}},{"attributes":{"ID":15502,"DIS_CODE":0,"TOWNNAME":"安南區","LI":"總頭里","LIN":"1鄰","STREET":"長溪路","SECT":"二段","MAREA":" ","LANE":"４１０巷","ALLEY":"１６弄","HOUSE_NO":"７號","E_COORD97":168441.231165,"N_COORD97":2550065.1032400001,"ADDRESS":"長溪路二段４１０巷１６弄７號","OBJECTID":15502},"geometry":{"x":168441.23116500024,"y":2550065.1032420024}},{"attributes":{"ID":15503,"DIS_CODE":0,"TOWNNAME":"東區","LI":"小東里","LIN":"24鄰","STREET":"光明街","SECT":" ","MAREA":" ","LANE":"２０１巷","ALLEY":"４弄","HOUSE_NO":"２３號","E_COORD97":171007.67999999999,"N_COORD97":2544027.54,"ADDRESS":"光明街２０１巷４弄２３號","OBJECTID":15503},"geometry":{"x":171007.68000000063,"y":2544027.540000001}},{"attributes":{"ID":15504,"DIS_CODE":0,"TOWNNAME":"東區","LI":"小東里","LIN":"24鄰","STREET":"光明街","SECT":" ","MAREA":" ","LANE":"２０１巷","ALLEY":"４弄","HOUSE_NO":"２４號","E_COORD97":171012.09,"N_COORD97":2544015.8999999999,"ADDRESS":"光明街２０１巷４弄２４號","OBJECTID":15504},"geometry":{"x":171012.09000000078,"y":2544015.9000000022}},{"attributes":{"ID":15505,"DIS_CODE":0,"TOWNNAME":"東區","LI":"小東里","LIN":"24鄰","STREET":"光明街","SECT":" ","MAREA":" ","LANE":"２０１巷","ALLEY":"４弄","HOUSE_NO":"３２號","E_COORD97":171021.14999999999,"N_COORD97":2544035.04,"ADDRESS":"光明街２０１巷４弄３２號","OBJECTID":15505},"geometry":{"x":171021.15000000037,"y":2544035.0399999991}},{"attributes":{"ID":15506,"DIS_CODE":0,"TOWNNAME":"東區","LI":"小東里","LIN":"24鄰","STREET":"光明街","SECT":" ","MAREA":" ","LANE":"２０１巷","ALLEY":"４弄","HOUSE_NO":"３４號","E_COORD97":171021.14999999999,"N_COORD97":2544039.9500000002,"ADDRESS":"光明街２０１巷４弄３４號","OBJECTID":15506},"geometry":{"x":171021.15000000037,"y":2544039.9499999993}},{"attributes":{"ID":15507,"DIS_CODE":0,"TOWNNAME":"東區","LI":"後甲里","LIN":"24鄰","STREET":"裕農路","SECT":" ","MAREA":" ","LANE":"６２１巷","ALLEY":"４１弄","HOUSE_NO":"１６號","E_COORD97":171565.20999999999,"N_COORD97":2543440.8900000001,"ADDRESS":"裕農路６２１巷４１弄１６號","OBJECTID":15507},"geometry":{"x":171565.21000000089,"y":2543440.8900000006}},{"attributes":{"ID":15508,"DIS_CODE":0,"TOWNNAME":"東區","LI":"後甲里","LIN":"24鄰","STREET":"裕農路","SECT":" ","MAREA":" ","LANE":"６２１巷","ALLEY":"４１弄","HOUSE_NO":"１８號","E_COORD97":171561.35000000001,"N_COORD97":2543440.8900000001,"ADDRESS":"裕農路６２１巷４１弄１８號","OBJECTID":15508},"geometry":{"x":171561.34999999963,"y":2543440.8900000006}},{"attributes":{"ID":15509,"DIS_CODE":0,"TOWNNAME":"東區","LI":"後甲里","LIN":"24鄰","STREET":"裕農路","SECT":" ","MAREA":" ","LANE":"６２１巷","ALLEY":"４１弄","HOUSE_NO":"２０號","E_COORD97":171555.32000000001,"N_COORD97":2543440.1699999999,"ADDRESS":"裕農路６２１巷４１弄２０號","OBJECTID":15509},"geometry":{"x":171555.3200000003,"y":2543440.1700000018}},{"attributes":{"ID":15510,"DIS_CODE":0,"TOWNNAME":"東區","LI":"小東里","LIN":"24鄰","STREET":"光明街","SECT":" ","MAREA":" ","LANE":"２０１巷","ALLEY":"４弄","HOUSE_NO":"１１號","E_COORD97":170980.5,"N_COORD97":2544031.4199999999,"ADDRESS":"光明街２０１巷４弄１１號","OBJECTID":15510},"geometry":{"x":170980.50000000093,"y":2544031.4200000037}},{"attributes":{"ID":15511,"DIS_CODE":0,"TOWNNAME":"後壁區","LI":"後部里","LIN":"7鄰","STREET":" ","SECT":" ","MAREA":"後部","LANE":" ","ALLEY":" ","HOUSE_NO":"６７號之１","E_COORD97":182231.16,"N_COORD97":2586994.46,"ADDRESS":"後部６７號之１","OBJECTID":15511},"geometry":{"x":182231.16000000015,"y":2586994.4600000009}},{"attributes":{"ID":15512,"DIS_CODE":0,"TOWNNAME":"後壁區","LI":"後部里","LIN":"7鄰","STREET":" ","SECT":" ","MAREA":"後部","LANE":" ","ALLEY":" ","HOUSE_NO":"６７號之２","E_COORD97":182228.73000000001,"N_COORD97":2587000.4199999999,"ADDRESS":"後部６７號之２","OBJECTID":15512},"geometry":{"x":182228.73000000138,"y":2587000.4199999999}},{"attributes":{"ID":15513,"DIS_CODE":0,"TOWNNAME":"後壁區","LI":"後部里","LIN":"7鄰","STREET":" ","SECT":" ","MAREA":"後部","LANE":" ","ALLEY":" ","HOUSE_NO":"６８號之１０","E_COORD97":182199.54000000001,"N_COORD97":2587121.8799999999,"ADDRESS":"後部６８號之１０","OBJECTID":15513},"geometry":{"x":182199.54000000004,"y":2587121.879999999}},{"attributes":{"ID":15514,"DIS_CODE":0,"TOWNNAME":"後壁區","LI":"後部里","LIN":"7鄰","STREET":" ","SECT":" ","MAREA":"後部","LANE":" ","ALLEY":" ","HOUSE_NO":"６８號","E_COORD97":182207.66,"N_COORD97":2587073.6400000001,"ADDRESS":"後部６８號","OBJECTID":15514},"geometry":{"x":182207.66000000015,"y":2587073.6400000006}},{"attributes":{"ID":15515,"DIS_CODE":0,"TOWNNAME":"後壁區","LI":"後部里","LIN":"7鄰","STREET":" ","SECT":" ","MAREA":"後部","LANE":" ","ALLEY":" ","HOUSE_NO":"７２號","E_COORD97":182221.72,"N_COORD97":2586980.54,"ADDRESS":"後部７２號","OBJECTID":15515},"geometry":{"x":182221.71999999974,"y":2586980.540000001}},{"attributes":{"ID":15516,"DIS_CODE":0,"TOWNNAME":"後壁區","LI":"烏樹里","LIN":"7鄰","STREET":" ","SECT":" ","MAREA":"烏樹林","LANE":" ","ALLEY":" ","HOUSE_NO":"８２之３號","E_COORD97":186213.16,"N_COORD97":2581407.6800000002,"ADDRESS":"烏樹林８２之３號","OBJECTID":15516},"geometry":{"x":186213.16000000015,"y":2581407.6799999997}},{"attributes":{"ID":15517,"DIS_CODE":0,"TOWNNAME":"北門區","LI":"慈安里","LIN":"14鄰","STREET":" ","SECT":" ","MAREA":"三寮灣","LANE":" ","ALLEY":" ","HOUSE_NO":"５８４號","E_COORD97":159347.38,"N_COORD97":2571037.3700000001,"ADDRESS":"三寮灣５８４號","OBJECTID":15517},"geometry":{"x":159347.37999999989,"y":2571037.3700000048}},{"attributes":{"ID":15518,"DIS_CODE":0,"TOWNNAME":"北門區","LI":"慈安里","LIN":"14鄰","STREET":" ","SECT":" ","MAREA":"三寮灣","LANE":" ","ALLEY":" ","HOUSE_NO":"５８５號","E_COORD97":159358.41,"N_COORD97":2571031.2999999998,"ADDRESS":"三寮灣５８５號","OBJECTID":15518},"geometry":{"x":159358.41000000201,"y":2571031.3000000026}},{"attributes":{"ID":15519,"DIS_CODE":0,"TOWNNAME":"北門區","LI":"慈安里","LIN":"14鄰","STREET":" ","SECT":" ","MAREA":"三寮灣","LANE":" ","ALLEY":" ","HOUSE_NO":"５８６號","E_COORD97":159375.82000000001,"N_COORD97":2571026.9300000002,"ADDRESS":"三寮灣５８６號","OBJECTID":15519},"geometry":{"x":159375.8200000003,"y":2571026.9300000016}},{"attributes":{"ID":15520,"DIS_CODE":0,"TOWNNAME":"北門區","LI":"慈安里","LIN":"14鄰","STREET":" ","SECT":" ","MAREA":"三寮灣","LANE":" ","ALLEY":" ","HOUSE_NO":"５８７號","E_COORD97":159395.32999999999,"N_COORD97":2571030.3199999998,"ADDRESS":"三寮灣５８７號","OBJECTID":15520},"geometry":{"x":159395.33000000007,"y":2571030.320000004}},{"attributes":{"ID":15521,"DIS_CODE":0,"TOWNNAME":"永康區","LI":"復華里","LIN":"31鄰","STREET":"復華八街","SECT":" ","MAREA":" ","LANE":"５１巷","ALLEY":"６１弄","HOUSE_NO":"３號","E_COORD97":172620.97221499999,"N_COORD97":2546428.1472700001,"ADDRESS":"復華八街５１巷６１弄３號","OBJECTID":15521},"geometry":{"x":172620.97221499961,"y":2546428.1472750027}},{"attributes":{"ID":15522,"DIS_CODE":0,"TOWNNAME":"北門區","LI":"慈安里","LIN":"14鄰","STREET":" ","SECT":" ","MAREA":"三寮灣","LANE":" ","ALLEY":" ","HOUSE_NO":"５８８之１號","E_COORD97":159493.29000000001,"N_COORD97":2571205.6800000002,"ADDRESS":"三寮灣５８８之１號","OBJECTID":15522},"geometry":{"x":159493.29000000097,"y":2571205.6799999997}},{"attributes":{"ID":15523,"DIS_CODE":0,"TOWNNAME":"東區","LI":"小東里","LIN":"24鄰","STREET":"光明街","SECT":" ","MAREA":" ","LANE":"２０１巷","ALLEY":"４弄","HOUSE_NO":"１２號","E_COORD97":170979.20000000001,"N_COORD97":2544022.3700000001,"ADDRESS":"光明街２０１巷４弄１２號","OBJECTID":15523},"geometry":{"x":170979.20000000112,"y":2544022.370000001}},{"attributes":{"ID":15524,"DIS_CODE":0,"TOWNNAME":"東區","LI":"小東里","LIN":"24鄰","STREET":"光明街","SECT":" ","MAREA":" ","LANE":"２０１巷","ALLEY":"４弄","HOUSE_NO":"１３號","E_COORD97":170987.23000000001,"N_COORD97":2544030.3799999999,"ADDRESS":"光明街２０１巷４弄１３號","OBJECTID":15524},"geometry":{"x":170987.23000000231,"y":2544030.379999999}},{"attributes":{"ID":15525,"DIS_CODE":0,"TOWNNAME":"東區","LI":"小東里","LIN":"24鄰","STREET":"光明街","SECT":" ","MAREA":" ","LANE":"２０１巷","ALLEY":"４弄","HOUSE_NO":"１４號","E_COORD97":170984.64000000001,"N_COORD97":2544021.0800000001,"ADDRESS":"光明街２０１巷４弄１４號","OBJECTID":15525},"geometry":{"x":170984.63999999966,"y":2544021.0800000019}},{"attributes":{"ID":15526,"DIS_CODE":0,"TOWNNAME":"北門區","LI":"慈安里","LIN":"14鄰","STREET":" ","SECT":" ","MAREA":"三寮灣","LANE":" ","ALLEY":" ","HOUSE_NO":"５８８號","E_COORD97":159471.82000000001,"N_COORD97":2571094.21,"ADDRESS":"三寮灣５８８號","OBJECTID":15526},"geometry":{"x":159471.82000000123,"y":2571094.2100000028}},{"attributes":{"ID":15527,"DIS_CODE":0,"TOWNNAME":"東區","LI":"小東里","LIN":"24鄰","STREET":"光明街","SECT":" ","MAREA":" ","LANE":"２０１巷","ALLEY":"４弄","HOUSE_NO":"１號","E_COORD97":170957.20000000001,"N_COORD97":2544034,"ADDRESS":"光明街２０１巷４弄１號","OBJECTID":15527},"geometry":{"x":170957.20000000112,"y":2544034}},{"attributes":{"ID":15528,"DIS_CODE":0,"TOWNNAME":"北門區","LI":"慈安里","LIN":"14鄰","STREET":" ","SECT":" ","MAREA":"三寮灣","LANE":" ","ALLEY":" ","HOUSE_NO":"５９０之１５號","E_COORD97":159649.25,"N_COORD97":2571094.4199999999,"ADDRESS":"三寮灣５９０之１５號","OBJECTID":15528},"geometry":{"x":159649.25000000186,"y":2571094.4200000018}},{"attributes":{"ID":15529,"DIS_CODE":0,"TOWNNAME":"北門區","LI":"慈安里","LIN":"14鄰","STREET":" ","SECT":" ","MAREA":"三寮灣","LANE":" ","ALLEY":" ","HOUSE_NO":"５９０號","E_COORD97":159560.23999999999,"N_COORD97":2571063.3500000001,"ADDRESS":"三寮灣５９０號","OBJECTID":15529},"geometry":{"x":159560.24000000115,"y":2571063.3500000034}},{"attributes":{"ID":15530,"DIS_CODE":0,"TOWNNAME":"東區","LI":"小東里","LIN":"24鄰","STREET":"光明街","SECT":" ","MAREA":" ","LANE":"２０１巷","ALLEY":"４弄","HOUSE_NO":"３號","E_COORD97":170962.89000000001,"N_COORD97":2544033.75,"ADDRESS":"光明街２０１巷４弄３號","OBJECTID":15530},"geometry":{"x":170962.88999999966,"y":2544033.7500000019}},{"attributes":{"ID":15531,"DIS_CODE":0,"TOWNNAME":"東區","LI":"小東里","LIN":"24鄰","STREET":"光明街","SECT":" ","MAREA":" ","LANE":"２０１巷","ALLEY":"４弄","HOUSE_NO":"４號","E_COORD97":170960.82000000001,"N_COORD97":2544024.1800000002,"ADDRESS":"光明街２０１巷４弄４號","OBJECTID":15531},"geometry":{"x":170960.8200000003,"y":2544024.1800000016}},{"attributes":{"ID":15532,"DIS_CODE":0,"TOWNNAME":"東區","LI":"小東里","LIN":"24鄰","STREET":"光明街","SECT":" ","MAREA":" ","LANE":"２０１巷","ALLEY":"４弄","HOUSE_NO":"５號","E_COORD97":170966.78,"N_COORD97":2544032.9700000002,"ADDRESS":"光明街２０１巷４弄５號","OBJECTID":15532},"geometry":{"x":170966.78000000119,"y":2544032.9700000025}},{"attributes":{"ID":15533,"DIS_CODE":0,"TOWNNAME":"東區","LI":"小東里","LIN":"24鄰","STREET":"光明街","SECT":" ","MAREA":" ","LANE":"２０１巷","ALLEY":"４弄","HOUSE_NO":"９號","E_COORD97":170976.35999999999,"N_COORD97":2544031.9399999999,"ADDRESS":"光明街２０１巷４弄９號","OBJECTID":15533},"geometry":{"x":170976.36000000127,"y":2544031.9400000013}},{"attributes":{"ID":15534,"DIS_CODE":0,"TOWNNAME":"北門區","LI":"慈安里","LIN":"14鄰","STREET":" ","SECT":" ","MAREA":"三寮灣","LANE":" ","ALLEY":" ","HOUSE_NO":"５９１號之１","E_COORD97":159674.39000000001,"N_COORD97":2571093.5,"ADDRESS":"三寮灣５９１號之１","OBJECTID":15534},"geometry":{"x":159674.38999999966,"y":2571093.5000000019}},{"attributes":{"ID":15535,"DIS_CODE":0,"TOWNNAME":"永康區","LI":"西灣里","LIN":"40鄰","STREET":"永華路","SECT":" ","MAREA":" ","LANE":" ","ALLEY":" ","HOUSE_NO":"８６號","E_COORD97":174107.69,"N_COORD97":2545352.8399999999,"ADDRESS":"永華路８６號","OBJECTID":15535},"geometry":{"x":174107.69000000041,"y":2545352.8399999999}},{"attributes":{"ID":15536,"DIS_CODE":0,"TOWNNAME":"北門區","LI":"慈安里","LIN":"14鄰","STREET":" ","SECT":" ","MAREA":"三寮灣","LANE":" ","ALLEY":" ","HOUSE_NO":"５９１號之２","E_COORD97":159686.45999999999,"N_COORD97":2571092.9300000002,"ADDRESS":"三寮灣５９１號之２","OBJECTID":15536},"geometry":{"x":159686.45999999996,"y":2571092.9299999978}},{"attributes":{"ID":15537,"DIS_CODE":0,"TOWNNAME":"北門區","LI":"慈安里","LIN":"14鄰","STREET":" ","SECT":" ","MAREA":"三寮灣","LANE":" ","ALLEY":" ","HOUSE_NO":"５９１號","E_COORD97":159661.07999999999,"N_COORD97":2571088.5499999998,"ADDRESS":"三寮灣５９１號","OBJECTID":15537},"geometry":{"x":159661.08000000101,"y":2571088.5500000007}},{"attributes":{"ID":15538,"DIS_CODE":0,"TOWNNAME":"永康區","LI":"西灣里","LIN":"40鄰","STREET":"永華路","SECT":" ","MAREA":" ","LANE":" ","ALLEY":" ","HOUSE_NO":"８８號","E_COORD97":174108.29000000001,"N_COORD97":2545357.3999999999,"ADDRESS":"永華路８８號","OBJECTID":15538},"geometry":{"x":174108.29000000004,"y":2545357.4000000004}},{"attributes":{"ID":15539,"DIS_CODE":0,"TOWNNAME":"永康區","LI":"龍潭里","LIN":"40鄰","STREET":"永明街","SECT":" ","MAREA":" ","LANE":" ","ALLEY":" ","HOUSE_NO":"２６２號","E_COORD97":174436.62,"N_COORD97":2547183.8399999999,"ADDRESS":"永明街２６２號","OBJECTID":15539},"geometry":{"x":174436.62000000011,"y":2547183.8399999999}},{"attributes":{"ID":15540,"DIS_CODE":0,"TOWNNAME":"北門區","LI":"慈安里","LIN":"14鄰","STREET":" ","SECT":" ","MAREA":"三寮灣","LANE":" ","ALLEY":" ","HOUSE_NO":"５９３號","E_COORD97":160233.66,"N_COORD97":2571429.4300000002,"ADDRESS":"三寮灣５９３號","OBJECTID":15540},"geometry":{"x":160233.66000000108,"y":2571429.4300000016}},{"attributes":{"ID":15541,"DIS_CODE":0,"TOWNNAME":"北門區","LI":"慈安里","LIN":"14鄰","STREET":" ","SECT":" ","MAREA":"三寮灣","LANE":" ","ALLEY":" ","HOUSE_NO":"５９５之１號","E_COORD97":160291.82999999999,"N_COORD97":2571601.1499999999,"ADDRESS":"三寮灣５９５之１號","OBJECTID":15541},"geometry":{"x":160291.83000000101,"y":2571601.1500000041}},{"attributes":{"ID":15542,"DIS_CODE":0,"TOWNNAME":"北門區","LI":"慈安里","LIN":"14鄰","STREET":" ","SECT":" ","MAREA":"三寮灣","LANE":" ","ALLEY":" ","HOUSE_NO":"５９５之６號","E_COORD97":160248.22,"N_COORD97":2572016.5899999999,"ADDRESS":"三寮灣５９５之６號","OBJECTID":15542},"geometry":{"x":160248.22000000067,"y":2572016.5899999999}},{"attributes":{"ID":15543,"DIS_CODE":0,"TOWNNAME":"北門區","LI":"慈安里","LIN":"14鄰","STREET":" ","SECT":" ","MAREA":"三寮灣","LANE":" ","ALLEY":" ","HOUSE_NO":"５９５號之６","E_COORD97":160248.22,"N_COORD97":2572016.5899999999,"ADDRESS":"三寮灣５９５號之６","OBJECTID":15543},"geometry":{"x":160248.22000000067,"y":2572016.5899999999}},{"attributes":{"ID":15544,"DIS_CODE":0,"TOWNNAME":"北門區","LI":"慈安里","LIN":"14鄰","STREET":" ","SECT":" ","MAREA":"三寮灣","LANE":" ","ALLEY":" ","HOUSE_NO":"５９５號","E_COORD97":160210.54000000001,"N_COORD97":2571521.6299999999,"ADDRESS":"三寮灣５９５號","OBJECTID":15544},"geometry":{"x":160210.54000000097,"y":2571521.6300000027}},{"attributes":{"ID":15545,"DIS_CODE":0,"TOWNNAME":"永康區","LI":"崑山里","LIN":"40鄰","STREET":"國光五街","SECT":" ","MAREA":" ","LANE":" ","ALLEY":" ","HOUSE_NO":"１７號","E_COORD97":174140.31,"N_COORD97":2545075.5,"ADDRESS":"國光五街１７號","OBJECTID":15545},"geometry":{"x":174140.30999999959,"y":2545075.5000000037}},{"attributes":{"ID":15546,"DIS_CODE":0,"TOWNNAME":"永康區","LI":"\u25A0洲里","LIN":"40鄰","STREET":"洲工街","SECT":" ","MAREA":" ","LANE":" ","ALLEY":" ","HOUSE_NO":"１６０號","E_COORD97":170735.79999999999,"N_COORD97":2548650.3199999998,"ADDRESS":"洲工街１６０號","OBJECTID":15546},"geometry":{"x":170735.80000000075,"y":2548650.320000004}},{"attributes":{"ID":15547,"DIS_CODE":0,"TOWNNAME":"永康區","LI":"\u25A0行里","LIN":"40鄰","STREET":"永安一街","SECT":" ","MAREA":" ","LANE":" ","ALLEY":" ","HOUSE_NO":"７號","E_COORD97":172649.35999999999,"N_COORD97":2549386.0600000001,"ADDRESS":"永安一街７號","OBJECTID":15547},"geometry":{"x":172649.36000000127,"y":2549386.0600000024}},{"attributes":{"ID":15548,"DIS_CODE":0,"TOWNNAME":"永康區","LI":"\u25A0行里","LIN":"40鄰","STREET":"永安路","SECT":" ","MAREA":" ","LANE":" ","ALLEY":" ","HOUSE_NO":"１２３號","E_COORD97":172641.20999999999,"N_COORD97":2549422.3300000001,"ADDRESS":"永安路１２３號","OBJECTID":15548},"geometry":{"x":172641.20999999996,"y":2549422.3300000001}},{"attributes":{"ID":15549,"DIS_CODE":0,"TOWNNAME":"永康區","LI":"\u25A0洲里","LIN":"40鄰","STREET":"國聖街","SECT":" ","MAREA":" ","LANE":" ","ALLEY":" ","HOUSE_NO":"３０５號","E_COORD97":171046.04999999999,"N_COORD97":2548652.7400000002,"ADDRESS":"國聖街３０５號","OBJECTID":15549},"geometry":{"x":171046.05000000075,"y":2548652.7400000002}},{"attributes":{"ID":15550,"DIS_CODE":0,"TOWNNAME":"永康區","LI":"勝利里","LIN":"40鄰","STREET":"中華一路","SECT":" ","MAREA":" ","LANE":" ","ALLEY":" ","HOUSE_NO":"１８６號","E_COORD97":171494.63,"N_COORD97":2544979.75,"ADDRESS":"中華一路１８６號","OBJECTID":15550},"geometry":{"x":171494.63000000082,"y":2544979.7500000019}},{"attributes":{"ID":15551,"DIS_CODE":0,"TOWNNAME":"永康區","LI":"勝利里","LIN":"40鄰","STREET":"中華一路","SECT":" ","MAREA":" ","LANE":" ","ALLEY":" ","HOUSE_NO":"１９６號","E_COORD97":171475.14999999999,"N_COORD97":2544981.25,"ADDRESS":"中華一路１９６號","OBJECTID":15551},"geometry":{"x":171475.15000000037,"y":2544981.25}},{"attributes":{"ID":15552,"DIS_CODE":0,"TOWNNAME":"永康區","LI":"勝利里","LIN":"40鄰","STREET":"中華一路","SECT":" ","MAREA":" ","LANE":" ","ALLEY":" ","HOUSE_NO":"１７０號","E_COORD97":171532.67000000001,"N_COORD97":2544976.25,"ADDRESS":"中華一路１７０號","OBJECTID":15552},"geometry":{"x":171532.66999999993,"y":2544976.2500000019}},{"attributes":{"ID":15553,"DIS_CODE":0,"TOWNNAME":"北門區","LI":"慈安里","LIN":"14鄰","STREET":" ","SECT":" ","MAREA":"三寮灣","LANE":" ","ALLEY":" ","HOUSE_NO":"５９７號","E_COORD97":159931.60999999999,"N_COORD97":2571481.0099999998,"ADDRESS":"三寮灣５９７號","OBJECTID":15553},"geometry":{"x":159931.61000000034,"y":2571481.0099999998}},{"attributes":{"ID":15554,"DIS_CODE":0,"TOWNNAME":"北門區","LI":"玉港里","LIN":"14鄰","STREET":" ","SECT":" ","MAREA":"西埔內","LANE":" ","ALLEY":" ","HOUSE_NO":"１１之１號","E_COORD97":162146.51999999999,"N_COORD97":2573712.3399999999,"ADDRESS":"西埔內１１之１號","OBJECTID":15554},"geometry":{"x":162146.51999999955,"y":2573712.3400000017}},{"attributes":{"ID":15555,"DIS_CODE":0,"TOWNNAME":"東區","LI":"小東里","LIN":"24鄰","STREET":"光明街","SECT":" ","MAREA":" ","LANE":"２０１巷","ALLEY":"４弄","HOUSE_NO":"７號","E_COORD97":170972.47,"N_COORD97":2544032.4500000002,"ADDRESS":"光明街２０１巷４弄７號","OBJECTID":15555},"geometry":{"x":170972.46999999974,"y":2544032.4499999993}},{"attributes":{"ID":15556,"DIS_CODE":0,"TOWNNAME":"北門區","LI":"玉港里","LIN":"14鄰","STREET":" ","SECT":" ","MAREA":"西埔內","LANE":" ","ALLEY":" ","HOUSE_NO":"１２號","E_COORD97":162120.42000000001,"N_COORD97":2573705.9700000002,"ADDRESS":"西埔內１２號","OBJECTID":15556},"geometry":{"x":162120.41999999993,"y":2573705.9700000025}},{"attributes":{"ID":15557,"DIS_CODE":0,"TOWNNAME":"北門區","LI":"玉港里","LIN":"14鄰","STREET":" ","SECT":" ","MAREA":"西埔內","LANE":" ","ALLEY":" ","HOUSE_NO":"１之１０號","E_COORD97":162517.26000000001,"N_COORD97":2573871.3900000001,"ADDRESS":"西埔內１之１０號","OBJECTID":15557},"geometry":{"x":162517.26000000164,"y":2573871.3900000043}},{"attributes":{"ID":15558,"DIS_CODE":0,"TOWNNAME":"北門區","LI":"玉港里","LIN":"14鄰","STREET":" ","SECT":" ","MAREA":"西埔內","LANE":" ","ALLEY":" ","HOUSE_NO":"１號之１１","E_COORD97":162542.47,"N_COORD97":2573767.2999999998,"ADDRESS":"西埔內１號之１１","OBJECTID":15558},"geometry":{"x":162542.46999999974,"y":2573767.3000000026}},{"attributes":{"ID":15559,"DIS_CODE":0,"TOWNNAME":"東區","LI":"小東里","LIN":"24鄰","STREET":"光明街","SECT":" ","MAREA":" ","LANE":"２０１巷","ALLEY":"４弄","HOUSE_NO":"２號","E_COORD97":170956.16,"N_COORD97":2544024.7000000002,"ADDRESS":"光明街２０１巷４弄２號","OBJECTID":15559},"geometry":{"x":170956.16000000015,"y":2544024.6999999993}},{"attributes":{"ID":15560,"DIS_CODE":0,"TOWNNAME":"東區","LI":"小東里","LIN":"24鄰","STREET":"光明街","SECT":" ","MAREA":" ","LANE":"２０１巷","ALLEY":"４弄","HOUSE_NO":"１０號","E_COORD97":170974.79999999999,"N_COORD97":2544023.3999999999,"ADDRESS":"光明街２０１巷４弄１０號","OBJECTID":15560},"geometry":{"x":170974.80000000075,"y":2544023.4000000022}},{"attributes":{"ID":15561,"DIS_CODE":0,"TOWNNAME":"北門區","LI":"玉港里","LIN":"14鄰","STREET":" ","SECT":" ","MAREA":"西埔內","LANE":" ","ALLEY":" ","HOUSE_NO":"１之３號","E_COORD97":162451.14999999999,"N_COORD97":2573752.5099999998,"ADDRESS":"西埔內１之３號","OBJECTID":15561},"geometry":{"x":162451.1500000013,"y":2573752.5099999998}},{"attributes":{"ID":15562,"DIS_CODE":0,"TOWNNAME":"北門區","LI":"玉港里","LIN":"14鄰","STREET":" ","SECT":" ","MAREA":"西埔內","LANE":" ","ALLEY":" ","HOUSE_NO":"１號之４","E_COORD97":162954.42000000001,"N_COORD97":2573699.8199999998,"ADDRESS":"西埔內１號之４","OBJECTID":15562},"geometry":{"x":162954.42000000086,"y":2573699.8200000022}},{"attributes":{"ID":15563,"DIS_CODE":0,"TOWNNAME":"北門區","LI":"玉港里","LIN":"14鄰","STREET":" ","SECT":" ","MAREA":"西埔內","LANE":" ","ALLEY":" ","HOUSE_NO":"１號之５","E_COORD97":162861.03,"N_COORD97":2573533.6499999999,"ADDRESS":"西埔內１號之５","OBJECTID":15563},"geometry":{"x":162861.03000000026,"y":2573533.6500000041}},{"attributes":{"ID":15564,"DIS_CODE":0,"TOWNNAME":"北門區","LI":"玉港里","LIN":"14鄰","STREET":" ","SECT":" ","MAREA":"西埔內","LANE":" ","ALLEY":" ","HOUSE_NO":"１之８８號","E_COORD97":162844.53,"N_COORD97":2574142.3100000001,"ADDRESS":"西埔內１之８８號","OBJECTID":15564},"geometry":{"x":162844.53000000026,"y":2574142.3100000005}},{"attributes":{"ID":15565,"DIS_CODE":0,"TOWNNAME":"東區","LI":"小東里","LIN":"24鄰","STREET":"光明街","SECT":" ","MAREA":" ","LANE":"２０１巷","ALLEY":"４弄","HOUSE_NO":"１６號","E_COORD97":170992.92999999999,"N_COORD97":2544019.7799999998,"ADDRESS":"光明街２０１巷４弄１６號","OBJECTID":15565},"geometry":{"x":170992.9299999997,"y":2544019.7800000012}},{"attributes":{"ID":15566,"DIS_CODE":0,"TOWNNAME":"東區","LI":"崇善里","LIN":"24鄰","STREET":"崇善十二街","SECT":" ","MAREA":" ","LANE":"６巷","ALLEY":"１５弄","HOUSE_NO":"２９號","E_COORD97":171290.82999999999,"N_COORD97":2541081.2599999998,"ADDRESS":"崇善十二街６巷１５弄２９號","OBJECTID":15566},"geometry":{"x":171290.83000000007,"y":2541081.2599999998}},{"attributes":{"ID":15567,"DIS_CODE":0,"TOWNNAME":"北門區","LI":"玉港里","LIN":"14鄰","STREET":" ","SECT":" ","MAREA":"西埔內","LANE":" ","ALLEY":" ","HOUSE_NO":"１之９０號","E_COORD97":162905.34,"N_COORD97":2574133.9199999999,"ADDRESS":"西埔內１之９０號","OBJECTID":15567},"geometry":{"x":162905.34000000078,"y":2574133.9199999999}},{"attributes":{"ID":15568,"DIS_CODE":0,"TOWNNAME":"北門區","LI":"玉港里","LIN":"14鄰","STREET":" ","SECT":" ","MAREA":"西埔內","LANE":" ","ALLEY":" ","HOUSE_NO":"１之９１號","E_COORD97":162938.56,"N_COORD97":2574162.6600000001,"ADDRESS":"西埔內１之９１號","OBJECTID":15568},"geometry":{"x":162938.55999999959,"y":2574162.6600000001}},{"attributes":{"ID":15569,"DIS_CODE":0,"TOWNNAME":"東區","LI":"崇善里","LIN":"24鄰","STREET":"崇善十二街","SECT":" ","MAREA":" ","LANE":"６巷","ALLEY":"１５弄","HOUSE_NO":"３０號","E_COORD97":171307.29000000001,"N_COORD97":2541065.9100000001,"ADDRESS":"崇善十二街６巷１５弄３０號","OBJECTID":15569},"geometry":{"x":171307.29000000097,"y":2541065.910000002}},{"attributes":{"ID":15570,"DIS_CODE":0,"TOWNNAME":"東區","LI":"崇善里","LIN":"24鄰","STREET":"崇善十二街","SECT":" ","MAREA":" ","LANE":"６巷","ALLEY":"１５弄","HOUSE_NO":"３２號","E_COORD97":171311.04999999999,"N_COORD97":2541068.6299999999,"ADDRESS":"崇善十二街６巷１５弄３２號","OBJECTID":15570},"geometry":{"x":171311.04999999981,"y":2541068.629999999}},{"attributes":{"ID":15571,"DIS_CODE":0,"TOWNNAME":"東區","LI":"崇善里","LIN":"24鄰","STREET":"崇善十二街","SECT":" ","MAREA":" ","LANE":"６巷","ALLEY":"１５弄","HOUSE_NO":"３４號","E_COORD97":171313.78,"N_COORD97":2541071.1899999999,"ADDRESS":"崇善十二街６巷１５弄３４號","OBJECTID":15571},"geometry":{"x":171313.77999999933,"y":2541071.1899999995}},{"attributes":{"ID":15572,"DIS_CODE":0,"TOWNNAME":"東區","LI":"崇善里","LIN":"24鄰","STREET":"崇善十二街","SECT":" ","MAREA":" ","LANE":"６巷","ALLEY":"１５弄","HOUSE_NO":"３８號","E_COORD97":171320.60000000001,"N_COORD97":2541074.77,"ADDRESS":"崇善十二街６巷１５弄３８號","OBJECTID":15572},"geometry":{"x":171320.59999999963,"y":2541074.7699999996}},{"attributes":{"ID":15573,"DIS_CODE":0,"TOWNNAME":"北門區","LI":"玉港里","LIN":"14鄰","STREET":" ","SECT":" ","MAREA":"西埔內","LANE":" ","ALLEY":" ","HOUSE_NO":"６之１號","E_COORD97":162210.89999999999,"N_COORD97":2573855.6400000001,"ADDRESS":"西埔內６之１號","OBJECTID":15573},"geometry":{"x":162210.90000000037,"y":2573855.6399999987}},{"attributes":{"ID":15574,"DIS_CODE":0,"TOWNNAME":"北門區","LI":"玉港里","LIN":"14鄰","STREET":" ","SECT":" ","MAREA":"西埔內","LANE":" ","ALLEY":" ","HOUSE_NO":"７號","E_COORD97":162164.73000000001,"N_COORD97":2573808.02,"ADDRESS":"西埔內７號","OBJECTID":15574},"geometry":{"x":162164.73000000045,"y":2573808.0200000033}},{"attributes":{"ID":15575,"DIS_CODE":0,"TOWNNAME":"北門區","LI":"玉港里","LIN":"14鄰","STREET":" ","SECT":" ","MAREA":"西埔內","LANE":" ","ALLEY":" ","HOUSE_NO":"８號","E_COORD97":162158.73000000001,"N_COORD97":2573794.1699999999,"ADDRESS":"西埔內８號","OBJECTID":15575},"geometry":{"x":162158.73000000231,"y":2573794.1700000037}},{"attributes":{"ID":15576,"DIS_CODE":0,"TOWNNAME":"北門區","LI":"玉港里","LIN":"14鄰","STREET":" ","SECT":" ","MAREA":"西埔內","LANE":" ","ALLEY":" ","HOUSE_NO":"９號","E_COORD97":162149.70999999999,"N_COORD97":2573773.6600000001,"ADDRESS":"西埔內９號","OBJECTID":15576},"geometry":{"x":162149.70999999903,"y":2573773.6599999983}},{"attributes":{"ID":15577,"DIS_CODE":0,"TOWNNAME":"北門區","LI":"保吉里","LIN":"14鄰","STREET":" ","SECT":" ","MAREA":"蚵寮","LANE":" ","ALLEY":" ","HOUSE_NO":"３４３號","E_COORD97":161472.32999999999,"N_COORD97":2576233.71,"ADDRESS":"蚵寮３４３號","OBJECTID":15577},"geometry":{"x":161472.33000000007,"y":2576233.7100000028}},{"attributes":{"ID":15578,"DIS_CODE":0,"TOWNNAME":"北門區","LI":"保吉里","LIN":"14鄰","STREET":" ","SECT":" ","MAREA":"蚵寮","LANE":" ","ALLEY":" ","HOUSE_NO":"３４５號","E_COORD97":161463.67999999999,"N_COORD97":2576243.3300000001,"ADDRESS":"蚵寮３４５號","OBJECTID":15578},"geometry":{"x":161463.68000000063,"y":2576243.3300000001}},{"attributes":{"ID":15579,"DIS_CODE":0,"TOWNNAME":"北門區","LI":"保吉里","LIN":"14鄰","STREET":" ","SECT":" ","MAREA":"蚵寮","LANE":" ","ALLEY":" ","HOUSE_NO":"３４９號","E_COORD97":161430.98000000001,"N_COORD97":2576239.9100000001,"ADDRESS":"蚵寮３４９號","OBJECTID":15579},"geometry":{"x":161430.98000000045,"y":2576239.9100000001}},{"attributes":{"ID":15580,"DIS_CODE":0,"TOWNNAME":"北門區","LI":"保吉里","LIN":"14鄰","STREET":" ","SECT":" ","MAREA":"蚵寮","LANE":" ","ALLEY":" ","HOUSE_NO":"３５０號","E_COORD97":161429.29999999999,"N_COORD97":2576243.98,"ADDRESS":"蚵寮３５０號","OBJECTID":15580},"geometry":{"x":161429.30000000075,"y":2576243.9800000023}},{"attributes":{"ID":15581,"DIS_CODE":0,"TOWNNAME":"北門區","LI":"保吉里","LIN":"14鄰","STREET":" ","SECT":" ","MAREA":"蚵寮","LANE":" ","ALLEY":" ","HOUSE_NO":"３５１號","E_COORD97":161427.19,"N_COORD97":2576248.0899999999,"ADDRESS":"蚵寮３５１號","OBJECTID":15581},"geometry":{"x":161427.19000000134,"y":2576248.0899999999}},{"attributes":{"ID":15582,"DIS_CODE":0,"TOWNNAME":"北門區","LI":"保吉里","LIN":"14鄰","STREET":" ","SECT":" ","MAREA":"蚵寮","LANE":" ","ALLEY":" ","HOUSE_NO":"３５２號","E_COORD97":161425.87,"N_COORD97":2576252.6000000001,"ADDRESS":"蚵寮３５２號","OBJECTID":15582},"geometry":{"x":161425.87000000104,"y":2576252.6000000015}},{"attributes":{"ID":15583,"DIS_CODE":0,"TOWNNAME":"北門區","LI":"保吉里","LIN":"14鄰","STREET":" ","SECT":" ","MAREA":"蚵寮","LANE":" ","ALLEY":" ","HOUSE_NO":"３５３號","E_COORD97":161424.26999999999,"N_COORD97":2576256.5,"ADDRESS":"蚵寮３５３號","OBJECTID":15583},"geometry":{"x":161424.27000000048,"y":2576256.5000000037}},{"attributes":{"ID":15584,"DIS_CODE":0,"TOWNNAME":"北門區","LI":"保吉里","LIN":"14鄰","STREET":" ","SECT":" ","MAREA":"蚵寮","LANE":" ","ALLEY":" ","HOUSE_NO":"３５４號","E_COORD97":161422.64000000001,"N_COORD97":2576261.2200000002,"ADDRESS":"蚵寮３５４號","OBJECTID":15584},"geometry":{"x":161422.63999999873,"y":2576261.2200000007}},{"attributes":{"ID":15585,"DIS_CODE":0,"TOWNNAME":"北門區","LI":"保吉里","LIN":"14鄰","STREET":" ","SECT":" ","MAREA":"蚵寮","LANE":" ","ALLEY":" ","HOUSE_NO":"３５５號","E_COORD97":161418.85000000001,"N_COORD97":2576272.8399999999,"ADDRESS":"蚵寮３５５號","OBJECTID":15585},"geometry":{"x":161418.84999999963,"y":2576272.8399999999}},{"attributes":{"ID":15586,"DIS_CODE":0,"TOWNNAME":"北門區","LI":"保吉里","LIN":"14鄰","STREET":" ","SECT":" ","MAREA":"蚵寮","LANE":" ","ALLEY":" ","HOUSE_NO":"３５６號","E_COORD97":161417.44,"N_COORD97":2576276.6499999999,"ADDRESS":"蚵寮３５６號","OBJECTID":15586},"geometry":{"x":161417.44000000041,"y":2576276.6500000022}},{"attributes":{"ID":15587,"DIS_CODE":0,"TOWNNAME":"北門區","LI":"保吉里","LIN":"14鄰","STREET":" ","SECT":" ","MAREA":"蚵寮","LANE":" ","ALLEY":" ","HOUSE_NO":"３５７號","E_COORD97":161416.51999999999,"N_COORD97":2576281.0600000001,"ADDRESS":"蚵寮３５７號","OBJECTID":15587},"geometry":{"x":161416.51999999955,"y":2576281.0600000024}},{"attributes":{"ID":15588,"DIS_CODE":0,"TOWNNAME":"北門區","LI":"保吉里","LIN":"14鄰","STREET":" ","SECT":" ","MAREA":"蚵寮","LANE":" ","ALLEY":" ","HOUSE_NO":"３５８號","E_COORD97":161415.39999999999,"N_COORD97":2576285.3900000001,"ADDRESS":"蚵寮３５８號","OBJECTID":15588},"geometry":{"x":161415.4000000013,"y":2576285.3900000025}},{"attributes":{"ID":15589,"DIS_CODE":0,"TOWNNAME":"北門區","LI":"保吉里","LIN":"14鄰","STREET":" ","SECT":" ","MAREA":"蚵寮","LANE":" ","ALLEY":" ","HOUSE_NO":"３５９號","E_COORD97":161414.29999999999,"N_COORD97":2576289.9199999999,"ADDRESS":"蚵寮３５９號","OBJECTID":15589},"geometry":{"x":161414.29999999981,"y":2576289.9199999999}},{"attributes":{"ID":15590,"DIS_CODE":0,"TOWNNAME":"東區","LI":"崇善里","LIN":"24鄰","STREET":"崇善十二街","SECT":" ","MAREA":" ","LANE":"６巷","ALLEY":"１５弄","HOUSE_NO":"４２號","E_COORD97":171326.91,"N_COORD97":2541079.3700000001,"ADDRESS":"崇善十二街６巷１５弄４２號","OBJECTID":15590},"geometry":{"x":171326.91000000108,"y":2541079.370000001}},{"attributes":{"ID":15591,"DIS_CODE":0,"TOWNNAME":"北門區","LI":"保吉里","LIN":"14鄰","STREET":" ","SECT":" ","MAREA":"蚵寮","LANE":" ","ALLEY":" ","HOUSE_NO":"３６０號","E_COORD97":161413.13,"N_COORD97":2576294.4199999999,"ADDRESS":"蚵寮３６０號","OBJECTID":15591},"geometry":{"x":161413.13000000082,"y":2576294.4200000037}},{"attributes":{"ID":15592,"DIS_CODE":0,"TOWNNAME":"北門區","LI":"保吉里","LIN":"14鄰","STREET":" ","SECT":" ","MAREA":"蚵寮","LANE":" ","ALLEY":" ","HOUSE_NO":"３６１號","E_COORD97":161411.85999999999,"N_COORD97":2576298.6699999999,"ADDRESS":"蚵寮３６１號","OBJECTID":15592},"geometry":{"x":161411.8600000022,"y":2576298.6699999999}},{"attributes":{"ID":15593,"DIS_CODE":0,"TOWNNAME":"北門區","LI":"保吉里","LIN":"14鄰","STREET":" ","SECT":" ","MAREA":"蚵寮","LANE":" ","ALLEY":" ","HOUSE_NO":"３６２號","E_COORD97":161410.78,"N_COORD97":2576302.8399999999,"ADDRESS":"蚵寮３６２號","OBJECTID":15593},"geometry":{"x":161410.78000000119,"y":2576302.8400000017}},{"attributes":{"ID":15594,"DIS_CODE":0,"TOWNNAME":"北門區","LI":"保吉里","LIN":"14鄰","STREET":" ","SECT":" ","MAREA":"蚵寮","LANE":" ","ALLEY":" ","HOUSE_NO":"３６３號","E_COORD97":161409.48999999999,"N_COORD97":2576307.4300000002,"ADDRESS":"蚵寮３６３號","OBJECTID":15594},"geometry":{"x":161409.49000000115,"y":2576307.4299999978}},{"attributes":{"ID":15595,"DIS_CODE":0,"TOWNNAME":"北門區","LI":"保吉里","LIN":"14鄰","STREET":" ","SECT":" ","MAREA":"蚵寮","LANE":" ","ALLEY":" ","HOUSE_NO":"３６４之１００號","E_COORD97":160896.5,"N_COORD97":2576719.6899999999,"ADDRESS":"蚵寮３６４之１００號","OBJECTID":15595},"geometry":{"x":160896.5,"y":2576719.6900000013}},{"attributes":{"ID":15596,"DIS_CODE":0,"TOWNNAME":"東區","LI":"崇善里","LIN":"24鄰","STREET":"崇善十二街","SECT":" ","MAREA":" ","LANE":"６巷","ALLEY":"１５弄","HOUSE_NO":"２８號","E_COORD97":171303.37,"N_COORD97":2541064.8799999999,"ADDRESS":"崇善十二街６巷１５弄２８號","OBJECTID":15596},"geometry":{"x":171303.37000000104,"y":2541064.8800000008}},{"attributes":{"ID":15597,"DIS_CODE":0,"TOWNNAME":"北門區","LI":"保吉里","LIN":"14鄰","STREET":" ","SECT":" ","MAREA":"蚵寮","LANE":" ","ALLEY":" ","HOUSE_NO":"３６４之１０１號","E_COORD97":160928.54999999999,"N_COORD97":2576703.4500000002,"ADDRESS":"蚵寮３６４之１０１號","OBJECTID":15597},"geometry":{"x":160928.55000000168,"y":2576703.4499999974}},{"attributes":{"ID":15598,"DIS_CODE":0,"TOWNNAME":"北門區","LI":"保吉里","LIN":"14鄰","STREET":" ","SECT":" ","MAREA":"蚵寮","LANE":" ","ALLEY":" ","HOUSE_NO":"３６４之１０５號","E_COORD97":159181.48000000001,"N_COORD97":2576818.7599999998,"ADDRESS":"蚵寮３６４之１０５號","OBJECTID":15598},"geometry":{"x":159181.48000000045,"y":2576818.7600000016}},{"attributes":{"ID":15599,"DIS_CODE":0,"TOWNNAME":"北門區","LI":"保吉里","LIN":"14鄰","STREET":" ","SECT":" ","MAREA":"蚵寮","LANE":" ","ALLEY":" ","HOUSE_NO":"３６４號之１０","E_COORD97":161391.91,"N_COORD97":2576350.54,"ADDRESS":"蚵寮３６４號之１０","OBJECTID":15599},"geometry":{"x":161391.91000000015,"y":2576350.5400000028}},{"attributes":{"ID":15600,"DIS_CODE":0,"TOWNNAME":"七股區","LI":"樹林里","LIN":"8鄰","STREET":" ","SECT":" ","MAREA":"樹林","LANE":" ","ALLEY":" ","HOUSE_NO":"７８號","E_COORD97":163815.32999999999,"N_COORD97":2557020.21,"ADDRESS":"樹林７８號","OBJECTID":15600},"geometry":{"x":163815.33000000007,"y":2557020.2100000028}}]}