{"displayFieldName":"TOWNNAME","fieldAliases":{"ID":"ID","DIS_CODE":"DIS_CODE","TOWNNAME":"TOWNNAME","LI":"LI","LIN":"LIN","STREET":"STREET","SECT":"SECT","MAREA":"MAREA","LANE":"LANE","ALLEY":"ALLEY","HOUSE_NO":"HOUSE_NO","E_COORD97":"E_COORD97","N_COORD97":"N_COORD97","ADDRESS":"ADDRESS","OBJECTID":"OBJECTID"},"geometryType":"esriGeometryPoint","spatialReference":{"wkid":102443,"latestWkid":3826},"fields":[{"name":"ID","type":"esriFieldTypeDouble","alias":"ID"},{"name":"DIS_CODE","type":"esriFieldTypeInteger","alias":"DIS_CODE"},{"name":"TOWNNAME","type":"esriFieldTypeString","alias":"TOWNNAME","length":8},{"name":"LI","type":"esriFieldTypeString","alias":"LI","length":8},{"name":"LIN","type":"esriFieldTypeString","alias":"LIN","length":12},{"name":"STREET","type":"esriFieldTypeString","alias":"STREET","length":20},{"name":"SECT","type":"esriFieldTypeString","alias":"SECT","length":8},{"name":"MAREA","type":"esriFieldTypeString","alias":"MAREA","length":12},{"name":"LANE","type":"esriFieldTypeString","alias":"LANE","length":10},{"name":"ALLEY","type":"esriFieldTypeString","alias":"ALLEY","length":10},{"name":"HOUSE_NO","type":"esriFieldTypeString","alias":"HOUSE_NO","length":20},{"name":"E_COORD97","type":"esriFieldTypeDouble","alias":"E_COORD97"},{"name":"N_COORD97","type":"esriFieldTypeDouble","alias":"N_COORD97"},{"name":"ADDRESS","type":"esriFieldTypeString","alias":"ADDRESS","length":50},{"name":"OBJECTID","type":"esriFieldTypeOID","alias":"OBJECTID"}],"features":[{"attributes":{"ID":323410,"DIS_CODE":0,"TOWNNAME":"仁德區","LI":"仁義里","LIN":"46鄰","STREET":"仁義路","SECT":" ","MAREA":" ","LANE":"９８巷","ALLEY":" ","HOUSE_NO":"３５號","E_COORD97":173627.84,"N_COORD97":2540851.77,"ADDRESS":"仁義路９８巷３５號","OBJECTID":323401},"geometry":{"x":173627.83999999985,"y":2540851.7699999977}},{"attributes":{"ID":323411,"DIS_CODE":0,"TOWNNAME":"仁德區","LI":"保安里","LIN":"18鄰","STREET":"中正路","SECT":"一段","MAREA":" ","LANE":"３３巷","ALLEY":" ","HOUSE_NO":"４號","E_COORD97":170786.20000000001,"N_COORD97":2535568.7799999998,"ADDRESS":"中正路一段３３巷４號","OBJECTID":323402},"geometry":{"x":170786.20000000112,"y":2535568.7799999993}},{"attributes":{"ID":323412,"DIS_CODE":0,"TOWNNAME":"仁德區","LI":"後壁里","LIN":"25鄰","STREET":"德洋一街","SECT":" ","MAREA":" ","LANE":"２１巷","ALLEY":" ","HOUSE_NO":"１７號","E_COORD97":173035.07000000001,"N_COORD97":2539163.77,"ADDRESS":"德洋一街２１巷１７號","OBJECTID":323403},"geometry":{"x":173035.07000000123,"y":2539163.7700000033}},{"attributes":{"ID":323413,"DIS_CODE":0,"TOWNNAME":"下營區","LI":"新興里","LIN":"15鄰","STREET":"寮前一街","SECT":" ","MAREA":" ","LANE":"６６巷","ALLEY":" ","HOUSE_NO":"２１號","E_COORD97":175339,"N_COORD97":2570542,"ADDRESS":"寮前一街６６巷２１號","OBJECTID":323404},"geometry":{"x":175339.00000000093,"y":2570542.0000000019}},{"attributes":{"ID":323414,"DIS_CODE":0,"TOWNNAME":"下營區","LI":"新興里","LIN":"15鄰","STREET":"寮前一街","SECT":" ","MAREA":" ","LANE":"６６巷","ALLEY":" ","HOUSE_NO":"２３號","E_COORD97":175338.26000000001,"N_COORD97":2570547.4900000002,"ADDRESS":"寮前一街６６巷２３號","OBJECTID":323405},"geometry":{"x":175338.26000000071,"y":2570547.4900000039}},{"attributes":{"ID":323415,"DIS_CODE":0,"TOWNNAME":"柳營區","LI":"光福里","LIN":"17鄰","STREET":"光福五街","SECT":" ","MAREA":" ","LANE":" ","ALLEY":" ","HOUSE_NO":"４３號","E_COORD97":179757.48000000001,"N_COORD97":2575641.23,"ADDRESS":"光福五街４３號","OBJECTID":323406},"geometry":{"x":179757.48000000045,"y":2575641.2300000004}},{"attributes":{"ID":323416,"DIS_CODE":0,"TOWNNAME":"柳營區","LI":"光福里","LIN":"17鄰","STREET":"光福五街","SECT":" ","MAREA":" ","LANE":" ","ALLEY":" ","HOUSE_NO":"４５號","E_COORD97":179757.54000000001,"N_COORD97":2575645.8799999999,"ADDRESS":"光福五街４５號","OBJECTID":323407},"geometry":{"x":179757.54000000097,"y":2575645.8799999971}},{"attributes":{"ID":323417,"DIS_CODE":0,"TOWNNAME":"柳營區","LI":"光福里","LIN":"17鄰","STREET":"光福五街","SECT":" ","MAREA":" ","LANE":" ","ALLEY":" ","HOUSE_NO":"４７號","E_COORD97":179757.60000000001,"N_COORD97":2575650.52,"ADDRESS":"光福五街４７號","OBJECTID":323408},"geometry":{"x":179757.59999999963,"y":2575650.5200000014}},{"attributes":{"ID":323418,"DIS_CODE":0,"TOWNNAME":"柳營區","LI":"光福里","LIN":"17鄰","STREET":"光福七街","SECT":" ","MAREA":" ","LANE":" ","ALLEY":" ","HOUSE_NO":"６０號","E_COORD97":179720.70000000001,"N_COORD97":2575608.7400000002,"ADDRESS":"光福七街６０號","OBJECTID":323409},"geometry":{"x":179720.69999999925,"y":2575608.7400000021}},{"attributes":{"ID":323419,"DIS_CODE":0,"TOWNNAME":"柳營區","LI":"光福里","LIN":"17鄰","STREET":"光福七街","SECT":" ","MAREA":" ","LANE":" ","ALLEY":" ","HOUSE_NO":"７０號","E_COORD97":179722.17999999999,"N_COORD97":2575635.6800000002,"ADDRESS":"光福七街７０號","OBJECTID":323410},"geometry":{"x":179722.18000000156,"y":2575635.6800000016}},{"attributes":{"ID":323420,"DIS_CODE":0,"TOWNNAME":"柳營區","LI":"光福里","LIN":"17鄰","STREET":"光福七街","SECT":" ","MAREA":" ","LANE":" ","ALLEY":" ","HOUSE_NO":"７２號","E_COORD97":179721.92000000001,"N_COORD97":2575643.1400000001,"ADDRESS":"光福七街７２號","OBJECTID":323411},"geometry":{"x":179721.91999999993,"y":2575643.1400000025}},{"attributes":{"ID":323421,"DIS_CODE":0,"TOWNNAME":"柳營區","LI":"光福里","LIN":"17鄰","STREET":"光福五街","SECT":" ","MAREA":" ","LANE":" ","ALLEY":" ","HOUSE_NO":"１０號","E_COORD97":179774.13,"N_COORD97":2575563.0600000001,"ADDRESS":"光福五街１０號","OBJECTID":323412},"geometry":{"x":179774.13000000082,"y":2575563.0600000024}},{"attributes":{"ID":323422,"DIS_CODE":0,"TOWNNAME":"柳營區","LI":"光福里","LIN":"17鄰","STREET":"光福五街","SECT":" ","MAREA":" ","LANE":" ","ALLEY":" ","HOUSE_NO":"１１號","E_COORD97":179755.53,"N_COORD97":2575555.1299999999,"ADDRESS":"光福五街１１號","OBJECTID":323413},"geometry":{"x":179755.53000000026,"y":2575555.129999999}},{"attributes":{"ID":323423,"DIS_CODE":0,"TOWNNAME":"仁德區","LI":"中洲里","LIN":"4鄰","STREET":" ","SECT":" ","MAREA":"中洲","LANE":" ","ALLEY":" ","HOUSE_NO":"２９之２５號","E_COORD97":173178.95999999999,"N_COORD97":2534770.79,"ADDRESS":"中洲２９之２５號","OBJECTID":323414},"geometry":{"x":173178.96000000089,"y":2534770.7899999991}},{"attributes":{"ID":323424,"DIS_CODE":0,"TOWNNAME":"仁德區","LI":"大甲里","LIN":"4鄰","STREET":"行大街","SECT":" ","MAREA":" ","LANE":"２７１巷","ALLEY":" ","HOUSE_NO":"１８號","E_COORD97":169753.38,"N_COORD97":2535052.25,"ADDRESS":"行大街２７１巷１８號","OBJECTID":323415},"geometry":{"x":169753.38000000082,"y":2535052.2500000019}},{"attributes":{"ID":323425,"DIS_CODE":0,"TOWNNAME":"仁德區","LI":"大甲里","LIN":"4鄰","STREET":"行大街","SECT":" ","MAREA":" ","LANE":"２８５巷","ALLEY":" ","HOUSE_NO":"１５號","E_COORD97":169738.07000000001,"N_COORD97":2535075.2400000002,"ADDRESS":"行大街２８５巷１５號","OBJECTID":323416},"geometry":{"x":169738.0700000003,"y":2535075.2400000002}},{"attributes":{"ID":323426,"DIS_CODE":0,"TOWNNAME":"仁德區","LI":"仁和里","LIN":"26鄰","STREET":" ","SECT":" ","MAREA":"仁和","LANE":" ","ALLEY":" ","HOUSE_NO":"５２８號","E_COORD97":170446.61066599999,"N_COORD97":2539772.25,"ADDRESS":"仁和５２８號","OBJECTID":323417},"geometry":{"x":170446.61066600122,"y":2539772.2500000019}},{"attributes":{"ID":323427,"DIS_CODE":0,"TOWNNAME":"仁德區","LI":"一甲里","LIN":"18鄰","STREET":"忠義路","SECT":" ","MAREA":" ","LANE":"２５１巷","ALLEY":" ","HOUSE_NO":"１號","E_COORD97":173845.29999999999,"N_COORD97":2541822.0099999998,"ADDRESS":"忠義路２５１巷１號","OBJECTID":323418},"geometry":{"x":173845.29999999981,"y":2541822.0099999998}},{"attributes":{"ID":323428,"DIS_CODE":0,"TOWNNAME":"仁德區","LI":"三甲里","LIN":"5鄰","STREET":" ","SECT":" ","MAREA":"三甲子","LANE":" ","ALLEY":" ","HOUSE_NO":"４７號之１１","E_COORD97":171886.17000000001,"N_COORD97":2536696.5499999998,"ADDRESS":"三甲子４７號之１１","OBJECTID":323419},"geometry":{"x":171886.17000000086,"y":2536696.5500000007}},{"attributes":{"ID":323429,"DIS_CODE":0,"TOWNNAME":"仁德區","LI":"一甲里","LIN":"14鄰","STREET":"忠義路","SECT":" ","MAREA":" ","LANE":"２４１巷","ALLEY":" ","HOUSE_NO":"３６號","E_COORD97":173912.04000000001,"N_COORD97":2541762.52,"ADDRESS":"忠義路２４１巷３６號","OBJECTID":323420},"geometry":{"x":173912.04000000004,"y":2541762.5200000033}},{"attributes":{"ID":323430,"DIS_CODE":0,"TOWNNAME":"仁德區","LI":"中生里","LIN":"4鄰","STREET":" ","SECT":" ","MAREA":"中洲","LANE":" ","ALLEY":" ","HOUSE_NO":"１０８號","E_COORD97":173016.23000000001,"N_COORD97":2534254.7400000002,"ADDRESS":"中洲１０８號","OBJECTID":323421},"geometry":{"x":173016.23000000045,"y":2534254.7400000002}},{"attributes":{"ID":323431,"DIS_CODE":0,"TOWNNAME":"仁德區","LI":"中生里","LIN":"5鄰","STREET":" ","SECT":" ","MAREA":"中洲","LANE":" ","ALLEY":" ","HOUSE_NO":"１２２號之１","E_COORD97":172995.23000000001,"N_COORD97":2534324.5499999998,"ADDRESS":"中洲１２２號之１","OBJECTID":323422},"geometry":{"x":172995.23000000045,"y":2534324.5499999989}},{"attributes":{"ID":323432,"DIS_CODE":0,"TOWNNAME":"下營區","LI":"新興里","LIN":"15鄰","STREET":"寮前一街","SECT":" ","MAREA":" ","LANE":"６６巷","ALLEY":" ","HOUSE_NO":"２５號","E_COORD97":175337.73999999999,"N_COORD97":2570553.6899999999,"ADDRESS":"寮前一街６６巷２５號","OBJECTID":323423},"geometry":{"x":175337.74000000022,"y":2570553.6900000013}},{"attributes":{"ID":323433,"DIS_CODE":0,"TOWNNAME":"下營區","LI":"新興里","LIN":"15鄰","STREET":"寮前一街","SECT":" ","MAREA":" ","LANE":"６６巷","ALLEY":" ","HOUSE_NO":"２７號","E_COORD97":175337.04000000001,"N_COORD97":2570559.73,"ADDRESS":"寮前一街６６巷２７號","OBJECTID":323424},"geometry":{"x":175337.04000000097,"y":2570559.7300000042}},{"attributes":{"ID":323434,"DIS_CODE":0,"TOWNNAME":"下營區","LI":"新興里","LIN":"15鄰","STREET":"寮前一街","SECT":" ","MAREA":" ","LANE":"６６巷","ALLEY":" ","HOUSE_NO":"２８號","E_COORD97":175354.95000000001,"N_COORD97":2570523.9500000002,"ADDRESS":"寮前一街６６巷２８號","OBJECTID":323425},"geometry":{"x":175354.95000000019,"y":2570523.9500000011}},{"attributes":{"ID":323435,"DIS_CODE":0,"TOWNNAME":"下營區","LI":"新興里","LIN":"15鄰","STREET":"寮前一街","SECT":" ","MAREA":" ","LANE":"６６巷","ALLEY":" ","HOUSE_NO":"２９號","E_COORD97":175336.84,"N_COORD97":2570564.8900000001,"ADDRESS":"寮前一街６６巷２９號","OBJECTID":323426},"geometry":{"x":175336.83999999985,"y":2570564.8900000006}},{"attributes":{"ID":323436,"DIS_CODE":0,"TOWNNAME":"下營區","LI":"新興里","LIN":"15鄰","STREET":"寮前一街","SECT":" ","MAREA":" ","LANE":"６６巷","ALLEY":" ","HOUSE_NO":"３０號","E_COORD97":175354.17000000001,"N_COORD97":2570533.5499999998,"ADDRESS":"寮前一街６６巷３０號","OBJECTID":323427},"geometry":{"x":175354.17000000086,"y":2570533.5500000007}},{"attributes":{"ID":323437,"DIS_CODE":0,"TOWNNAME":"下營區","LI":"新興里","LIN":"15鄰","STREET":"寮前一街","SECT":" ","MAREA":" ","LANE":"６６巷","ALLEY":" ","HOUSE_NO":"３１號","E_COORD97":175336.10999999999,"N_COORD97":2570569.2599999998,"ADDRESS":"寮前一街６６巷３１號","OBJECTID":323428},"geometry":{"x":175336.1100000022,"y":2570569.2600000016}},{"attributes":{"ID":323438,"DIS_CODE":0,"TOWNNAME":"下營區","LI":"新興里","LIN":"15鄰","STREET":"寮前一街","SECT":" ","MAREA":" ","LANE":"６６巷","ALLEY":" ","HOUSE_NO":"３２號","E_COORD97":175353.09,"N_COORD97":2570543.02,"ADDRESS":"寮前一街６６巷３２號","OBJECTID":323429},"geometry":{"x":175353.09000000078,"y":2570543.0199999977}},{"attributes":{"ID":323439,"DIS_CODE":0,"TOWNNAME":"下營區","LI":"新興里","LIN":"15鄰","STREET":"寮前一街","SECT":" ","MAREA":" ","LANE":"６６巷","ALLEY":" ","HOUSE_NO":"３３號","E_COORD97":175335.54999999999,"N_COORD97":2570573.2400000002,"ADDRESS":"寮前一街６６巷３３號","OBJECTID":323430},"geometry":{"x":175335.54999999981,"y":2570573.2400000021}},{"attributes":{"ID":323440,"DIS_CODE":0,"TOWNNAME":"柳營區","LI":"光福里","LIN":"17鄰","STREET":"光福五街","SECT":" ","MAREA":" ","LANE":" ","ALLEY":" ","HOUSE_NO":"１２號","E_COORD97":179775.06,"N_COORD97":2575573.8700000001,"ADDRESS":"光福五街１２號","OBJECTID":323431},"geometry":{"x":179775.05999999959,"y":2575573.8700000048}},{"attributes":{"ID":323441,"DIS_CODE":0,"TOWNNAME":"柳營區","LI":"光福里","LIN":"17鄰","STREET":"光福五街","SECT":" ","MAREA":" ","LANE":" ","ALLEY":" ","HOUSE_NO":"１８號","E_COORD97":179776.14000000001,"N_COORD97":2575595.3599999999,"ADDRESS":"光福五街１８號","OBJECTID":323432},"geometry":{"x":179776.13999999966,"y":2575595.3599999994}},{"attributes":{"ID":323442,"DIS_CODE":0,"TOWNNAME":"柳營區","LI":"光福里","LIN":"17鄰","STREET":"光福五街","SECT":" ","MAREA":" ","LANE":" ","ALLEY":" ","HOUSE_NO":"１９號","E_COORD97":179756.73999999999,"N_COORD97":2575577.1600000001,"ADDRESS":"光福五街１９號","OBJECTID":323433},"geometry":{"x":179756.74000000115,"y":2575577.1600000001}},{"attributes":{"ID":323443,"DIS_CODE":0,"TOWNNAME":"柳營區","LI":"光福里","LIN":"17鄰","STREET":"光福五街","SECT":" ","MAREA":" ","LANE":" ","ALLEY":" ","HOUSE_NO":"２０號","E_COORD97":179777.48999999999,"N_COORD97":2575603.3500000001,"ADDRESS":"光福五街２０號","OBJECTID":323434},"geometry":{"x":179777.49000000022,"y":2575603.3500000015}},{"attributes":{"ID":323444,"DIS_CODE":0,"TOWNNAME":"柳營區","LI":"光福里","LIN":"17鄰","STREET":"光福五街","SECT":" ","MAREA":" ","LANE":" ","ALLEY":" ","HOUSE_NO":"２１號","E_COORD97":179757.04000000001,"N_COORD97":2575582.6600000001,"ADDRESS":"光福五街２１號","OBJECTID":323435},"geometry":{"x":179757.04000000004,"y":2575582.6600000001}},{"attributes":{"ID":323445,"DIS_CODE":0,"TOWNNAME":"柳營區","LI":"光福里","LIN":"17鄰","STREET":"光福五街","SECT":" ","MAREA":" ","LANE":" ","ALLEY":" ","HOUSE_NO":"２３號","E_COORD97":179757.19,"N_COORD97":2575587.7999999998,"ADDRESS":"光福五街２３號","OBJECTID":323436},"geometry":{"x":179757.19000000134,"y":2575587.8000000026}},{"attributes":{"ID":323446,"DIS_CODE":0,"TOWNNAME":"南區","LI":"彰南里","LIN":"17鄰","STREET":"新和路","SECT":" ","MAREA":" ","LANE":" ","ALLEY":" ","HOUSE_NO":"８號","E_COORD97":166046.17000000001,"N_COORD97":2540965.4900000002,"ADDRESS":"新和路８號","OBJECTID":323437},"geometry":{"x":166046.17000000086,"y":2540965.4900000002}},{"attributes":{"ID":323447,"DIS_CODE":0,"TOWNNAME":"仁德區","LI":"一甲里","LIN":"5鄰","STREET":"忠義三街","SECT":" ","MAREA":" ","LANE":"８巷","ALLEY":" ","HOUSE_NO":"２１號","E_COORD97":173664.20000000001,"N_COORD97":2541658.02,"ADDRESS":"忠義三街８巷２１號","OBJECTID":323438},"geometry":{"x":173664.20000000112,"y":2541658.0200000014}},{"attributes":{"ID":323448,"DIS_CODE":0,"TOWNNAME":"仁德區","LI":"仁義里","LIN":"43鄰","STREET":"中正路","SECT":"二段","MAREA":" ","LANE":"９９４巷","ALLEY":" ","HOUSE_NO":"２９號","E_COORD97":173500.14000000001,"N_COORD97":2540819.0299999998,"ADDRESS":"中正路二段９９４巷２９號","OBJECTID":323439},"geometry":{"x":173500.1400000006,"y":2540819.0299999993}},{"attributes":{"ID":323449,"DIS_CODE":0,"TOWNNAME":"仁德區","LI":"仁義里","LIN":"41鄰","STREET":"中正路","SECT":"二段","MAREA":" ","LANE":"９１４巷","ALLEY":" ","HOUSE_NO":"３９號","E_COORD97":173538.32999999999,"N_COORD97":2540628.5299999998,"ADDRESS":"中正路二段９１４巷３９號","OBJECTID":323440},"geometry":{"x":173538.33000000007,"y":2540628.5299999993}},{"attributes":{"ID":323450,"DIS_CODE":0,"TOWNNAME":"下營區","LI":"新興里","LIN":"15鄰","STREET":"寮前一街","SECT":" ","MAREA":" ","LANE":"６６巷","ALLEY":" ","HOUSE_NO":"３５號","E_COORD97":175335.34,"N_COORD97":2570577.9100000001,"ADDRESS":"寮前一街６６巷３５號","OBJECTID":323441},"geometry":{"x":175335.33999999985,"y":2570577.9100000001}},{"attributes":{"ID":323451,"DIS_CODE":0,"TOWNNAME":"下營區","LI":"新興里","LIN":"15鄰","STREET":"寮前一街","SECT":" ","MAREA":" ","LANE":"６６巷","ALLEY":" ","HOUSE_NO":"３６號","E_COORD97":175352.51000000001,"N_COORD97":2570549.6099999999,"ADDRESS":"寮前一街６６巷３６號","OBJECTID":323442},"geometry":{"x":175352.50999999978,"y":2570549.6100000013}},{"attributes":{"ID":323452,"DIS_CODE":0,"TOWNNAME":"下營區","LI":"新興里","LIN":"15鄰","STREET":"寮前一街","SECT":" ","MAREA":" ","LANE":"６６巷","ALLEY":" ","HOUSE_NO":"３７號","E_COORD97":175333.23999999999,"N_COORD97":2570585.1800000002,"ADDRESS":"寮前一街６６巷３７號","OBJECTID":323443},"geometry":{"x":175333.24000000022,"y":2570585.1799999997}},{"attributes":{"ID":323453,"DIS_CODE":0,"TOWNNAME":"下營區","LI":"新興里","LIN":"15鄰","STREET":"寮前一街","SECT":" ","MAREA":" ","LANE":"６６巷","ALLEY":" ","HOUSE_NO":"３８號","E_COORD97":175351.89000000001,"N_COORD97":2570556.2400000002,"ADDRESS":"寮前一街６６巷３８號","OBJECTID":323444},"geometry":{"x":175351.88999999966,"y":2570556.2400000021}},{"attributes":{"ID":323454,"DIS_CODE":0,"TOWNNAME":"下營區","LI":"新興里","LIN":"15鄰","STREET":"寮前一街","SECT":" ","MAREA":" ","LANE":"６６巷","ALLEY":" ","HOUSE_NO":"３９號","E_COORD97":175330.48999999999,"N_COORD97":2570591.52,"ADDRESS":"寮前一街６６巷３９號","OBJECTID":323445},"geometry":{"x":175330.49000000115,"y":2570591.5200000014}},{"attributes":{"ID":323455,"DIS_CODE":0,"TOWNNAME":"下營區","LI":"新興里","LIN":"15鄰","STREET":"寮前一街","SECT":" ","MAREA":" ","LANE":"６６巷","ALLEY":" ","HOUSE_NO":"４０號","E_COORD97":175351.26999999999,"N_COORD97":2570561.7799999998,"ADDRESS":"寮前一街６６巷４０號","OBJECTID":323446},"geometry":{"x":175351.27000000142,"y":2570561.7800000031}},{"attributes":{"ID":323456,"DIS_CODE":0,"TOWNNAME":"歸仁區","LI":"武東里","LIN":"5鄰","STREET":"武東一街","SECT":" ","MAREA":" ","LANE":"２８巷","ALLEY":" ","HOUSE_NO":"１２號","E_COORD97":175546.74447500001,"N_COORD97":2535435.6155400001,"ADDRESS":"武東一街２８巷１２號","OBJECTID":323447},"geometry":{"x":175546.74447499961,"y":2535435.6155410018}},{"attributes":{"ID":323457,"DIS_CODE":0,"TOWNNAME":"下營區","LI":"新興里","LIN":"15鄰","STREET":"寮前一街","SECT":" ","MAREA":" ","LANE":"６６巷","ALLEY":" ","HOUSE_NO":"４２號","E_COORD97":175351.45999999999,"N_COORD97":2570566.9900000002,"ADDRESS":"寮前一街６６巷４２號","OBJECTID":323448},"geometry":{"x":175351.45999999996,"y":2570566.9900000002}},{"attributes":{"ID":323458,"DIS_CODE":0,"TOWNNAME":"下營區","LI":"新興里","LIN":"15鄰","STREET":"寮前一街","SECT":" ","MAREA":" ","LANE":"６６巷","ALLEY":" ","HOUSE_NO":"４６號","E_COORD97":175350.51999999999,"N_COORD97":2570571.4500000002,"ADDRESS":"寮前一街６６巷４６號","OBJECTID":323449},"geometry":{"x":175350.51999999955,"y":2570571.4500000011}},{"attributes":{"ID":323459,"DIS_CODE":0,"TOWNNAME":"下營區","LI":"新興里","LIN":"15鄰","STREET":"寮前一街","SECT":" ","MAREA":" ","LANE":"６６巷","ALLEY":" ","HOUSE_NO":"４８號","E_COORD97":175350.32999999999,"N_COORD97":2570576.1200000001,"ADDRESS":"寮前一街６６巷４８號","OBJECTID":323450},"geometry":{"x":175350.33000000101,"y":2570576.1200000029}},{"attributes":{"ID":323460,"DIS_CODE":0,"TOWNNAME":"下營區","LI":"新興里","LIN":"15鄰","STREET":"寮前一街","SECT":" ","MAREA":" ","LANE":"６６巷","ALLEY":" ","HOUSE_NO":"５０號","E_COORD97":175349.64999999999,"N_COORD97":2570579.9300000002,"ADDRESS":"寮前一街６６巷５０號","OBJECTID":323451},"geometry":{"x":175349.6500000013,"y":2570579.9299999997}},{"attributes":{"ID":323461,"DIS_CODE":0,"TOWNNAME":"下營區","LI":"新興里","LIN":"15鄰","STREET":"寮前一街","SECT":" ","MAREA":" ","LANE":"６６巷","ALLEY":" ","HOUSE_NO":"５２號","E_COORD97":175349.75,"N_COORD97":2570586.6099999999,"ADDRESS":"寮前一街６６巷５２號","OBJECTID":323452},"geometry":{"x":175349.75,"y":2570586.6100000031}},{"attributes":{"ID":323462,"DIS_CODE":0,"TOWNNAME":"下營區","LI":"新興里","LIN":"15鄰","STREET":"寮前一街","SECT":" ","MAREA":" ","LANE":"６６巷","ALLEY":" ","HOUSE_NO":"５６號","E_COORD97":175349.53,"N_COORD97":2570593.77,"ADDRESS":"寮前一街６６巷５６號","OBJECTID":323453},"geometry":{"x":175349.53000000026,"y":2570593.7700000014}},{"attributes":{"ID":323463,"DIS_CODE":0,"TOWNNAME":"下營區","LI":"新興里","LIN":"15鄰","STREET":"寮前二街","SECT":" ","MAREA":" ","LANE":"２１巷","ALLEY":" ","HOUSE_NO":"１０號","E_COORD97":175170.20999999999,"N_COORD97":2570366.1200000001,"ADDRESS":"寮前二街２１巷１０號","OBJECTID":323454},"geometry":{"x":175170.20999999996,"y":2570366.120000001}},{"attributes":{"ID":323464,"DIS_CODE":0,"TOWNNAME":"南區","LI":"明興里","LIN":"17鄰","STREET":"中華南路","SECT":"二段","MAREA":" ","LANE":" ","ALLEY":" ","HOUSE_NO":"１３０號","E_COORD97":167143.64999999999,"N_COORD97":2540283.7000000002,"ADDRESS":"中華南路二段１３０號","OBJECTID":323455},"geometry":{"x":167143.6500000013,"y":2540283.7000000011}},{"attributes":{"ID":323465,"DIS_CODE":0,"TOWNNAME":"南區","LI":"明興里","LIN":"17鄰","STREET":"中華南路","SECT":"二段","MAREA":" ","LANE":" ","ALLEY":" ","HOUSE_NO":"１６８號","E_COORD97":167063.95000000001,"N_COORD97":2540267.6400000001,"ADDRESS":"中華南路二段１６８號","OBJECTID":323456},"geometry":{"x":167063.95000000019,"y":2540267.6400000043}},{"attributes":{"ID":323466,"DIS_CODE":0,"TOWNNAME":"歸仁區","LI":"南保里","LIN":"17鄰","STREET":"文化十街","SECT":" ","MAREA":" ","LANE":" ","ALLEY":" ","HOUSE_NO":"４６號","E_COORD97":176582.62,"N_COORD97":2541364.2599999998,"ADDRESS":"文化十街４６號","OBJECTID":323457},"geometry":{"x":176582.62000000011,"y":2541364.2600000035}},{"attributes":{"ID":323467,"DIS_CODE":0,"TOWNNAME":"南區","LI":"彰南里","LIN":"17鄰","STREET":"新和路","SECT":" ","MAREA":" ","LANE":" ","ALLEY":" ","HOUSE_NO":"２２號之１","E_COORD97":165819.62,"N_COORD97":2540977.98,"ADDRESS":"新和路２２號之１","OBJECTID":323458},"geometry":{"x":165819.62000000104,"y":2540977.9800000023}},{"attributes":{"ID":323468,"DIS_CODE":0,"TOWNNAME":"仁德區","LI":"仁德里","LIN":"18鄰","STREET":"文華路","SECT":"三段","MAREA":" ","LANE":"１８９巷","ALLEY":" ","HOUSE_NO":"６３號","E_COORD97":172093.82000000001,"N_COORD97":2540444.7599999998,"ADDRESS":"文華路三段１８９巷６３號","OBJECTID":323459},"geometry":{"x":172093.82000000123,"y":2540444.7599999998}},{"attributes":{"ID":323469,"DIS_CODE":0,"TOWNNAME":"仁德區","LI":"太子里","LIN":"43鄰","STREET":"太子路","SECT":" ","MAREA":" ","LANE":"１０１巷","ALLEY":" ","HOUSE_NO":"４９號","E_COORD97":174931.92999999999,"N_COORD97":2543463.75,"ADDRESS":"太子路１０１巷４９號","OBJECTID":323460},"geometry":{"x":174931.93000000063,"y":2543463.7500000019}},{"attributes":{"ID":323470,"DIS_CODE":0,"TOWNNAME":"仁德區","LI":"後壁里","LIN":"40鄰","STREET":"德善二街","SECT":" ","MAREA":" ","LANE":"１７巷","ALLEY":" ","HOUSE_NO":"２６號","E_COORD97":173512.10000000001,"N_COORD97":2538959.77,"ADDRESS":"德善二街１７巷２６號","OBJECTID":323461},"geometry":{"x":173512.10000000056,"y":2538959.7699999996}},{"attributes":{"ID":323471,"DIS_CODE":0,"TOWNNAME":"仁德區","LI":"仁義里","LIN":"42鄰","STREET":"中正路","SECT":"二段","MAREA":" ","LANE":"９９４巷","ALLEY":" ","HOUSE_NO":"６８號","E_COORD97":173583.72,"N_COORD97":2540768.3999999999,"ADDRESS":"中正路二段９９４巷６８號","OBJECTID":323462},"geometry":{"x":173583.7200000016,"y":2540768.4000000022}},{"attributes":{"ID":323472,"DIS_CODE":0,"TOWNNAME":"仁德區","LI":"後壁里","LIN":"25鄰","STREET":"德洋一街","SECT":" ","MAREA":" ","LANE":"６巷","ALLEY":" ","HOUSE_NO":"１５號","E_COORD97":173100.89999999999,"N_COORD97":2539074.52,"ADDRESS":"德洋一街６巷１５號","OBJECTID":323463},"geometry":{"x":173100.90000000037,"y":2539074.5200000014}},{"attributes":{"ID":323473,"DIS_CODE":0,"TOWNNAME":"仁德區","LI":"中洲里","LIN":"4鄰","STREET":" ","SECT":" ","MAREA":"中洲","LANE":" ","ALLEY":" ","HOUSE_NO":"４４號之１","E_COORD97":173171.78,"N_COORD97":2534316.2999999998,"ADDRESS":"中洲４４號之１","OBJECTID":323464},"geometry":{"x":173171.78000000212,"y":2534316.3000000045}},{"attributes":{"ID":323474,"DIS_CODE":0,"TOWNNAME":"仁德區","LI":"成功里","LIN":"36鄰","STREET":"保華路","SECT":" ","MAREA":" ","LANE":"４６巷","ALLEY":" ","HOUSE_NO":"７號","E_COORD97":170652.89999999999,"N_COORD97":2540022,"ADDRESS":"保華路４６巷７號","OBJECTID":323465},"geometry":{"x":170652.9000000013,"y":2540022}},{"attributes":{"ID":323475,"DIS_CODE":0,"TOWNNAME":"仁德區","LI":"三甲里","LIN":"4鄰","STREET":" ","SECT":" ","MAREA":"三甲子","LANE":" ","ALLEY":" ","HOUSE_NO":"３７號之２","E_COORD97":171779.09,"N_COORD97":2536800.0499999998,"ADDRESS":"三甲子３７號之２","OBJECTID":323466},"geometry":{"x":171779.08999999892,"y":2536800.0500000045}},{"attributes":{"ID":323476,"DIS_CODE":0,"TOWNNAME":"麻豆區","LI":"小埤里","LIN":"5鄰","STREET":" ","SECT":" ","MAREA":"小埤頭","LANE":" ","ALLEY":" ","HOUSE_NO":"２３號之６","E_COORD97":171485.76999999999,"N_COORD97":2566136.3999999999,"ADDRESS":"小埤頭２３號之６","OBJECTID":323467},"geometry":{"x":171485.76999999955,"y":2566136.4000000004}},{"attributes":{"ID":323477,"DIS_CODE":0,"TOWNNAME":"仁德區","LI":"後壁里","LIN":"18鄰","STREET":"德南路","SECT":" ","MAREA":" ","LANE":"７０巷","ALLEY":" ","HOUSE_NO":"３９號","E_COORD97":173370.92999999999,"N_COORD97":2538613.7599999998,"ADDRESS":"德南路７０巷３９號","OBJECTID":323468},"geometry":{"x":173370.93000000063,"y":2538613.7599999998}},{"attributes":{"ID":323478,"DIS_CODE":0,"TOWNNAME":"仁德區","LI":"仁德里","LIN":"20鄰","STREET":"中山路","SECT":" ","MAREA":" ","LANE":" ","ALLEY":" ","HOUSE_NO":"８８７號","E_COORD97":172394.67000000001,"N_COORD97":2541590.7400000002,"ADDRESS":"中山路８８７號","OBJECTID":323469},"geometry":{"x":172394.67000000086,"y":2541590.7400000002}},{"attributes":{"ID":323479,"DIS_CODE":0,"TOWNNAME":"仁德區","LI":"成功里","LIN":"20鄰","STREET":"保生路","SECT":" ","MAREA":" ","LANE":" ","ALLEY":" ","HOUSE_NO":"７１號","E_COORD97":170699.66,"N_COORD97":2539793.8300000001,"ADDRESS":"保生路７１號","OBJECTID":323470},"geometry":{"x":170699.66000000108,"y":2539793.8300000001}},{"attributes":{"ID":323480,"DIS_CODE":0,"TOWNNAME":"仁德區","LI":"仁義里","LIN":"4鄰","STREET":"仁義二街","SECT":" ","MAREA":" ","LANE":" ","ALLEY":" ","HOUSE_NO":"４６號","E_COORD97":173827.67000000001,"N_COORD97":2541169.27,"ADDRESS":"仁義二街４６號","OBJECTID":323471},"geometry":{"x":173827.66999999993,"y":2541169.2699999996}},{"attributes":{"ID":323481,"DIS_CODE":0,"TOWNNAME":"仁德區","LI":"土庫里","LIN":"18鄰","STREET":"土庫一街","SECT":" ","MAREA":" ","LANE":" ","ALLEY":" ","HOUSE_NO":"６７號","E_COORD97":174589.48000000001,"N_COORD97":2543134,"ADDRESS":"土庫一街６７號","OBJECTID":323472},"geometry":{"x":174589.48000000231,"y":2543134.0000000019}},{"attributes":{"ID":323482,"DIS_CODE":0,"TOWNNAME":"仁德區","LI":"後壁里","LIN":"20鄰","STREET":"中正路","SECT":"二段","MAREA":" ","LANE":" ","ALLEY":" ","HOUSE_NO":"１４８號","E_COORD97":173215.73000000001,"N_COORD97":2538591.77,"ADDRESS":"中正路二段１４８號","OBJECTID":323473},"geometry":{"x":173215.73000000045,"y":2538591.7700000014}},{"attributes":{"ID":323483,"DIS_CODE":0,"TOWNNAME":"仁德區","LI":"後壁里","LIN":"26鄰","STREET":"中正路","SECT":"二段","MAREA":" ","LANE":" ","ALLEY":" ","HOUSE_NO":"３５５號","E_COORD97":173254.64000000001,"N_COORD97":2539214.77,"ADDRESS":"中正路二段３５５號","OBJECTID":323474},"geometry":{"x":173254.63999999966,"y":2539214.7700000014}},{"attributes":{"ID":323484,"DIS_CODE":0,"TOWNNAME":"仁德區","LI":"後壁里","LIN":"25鄰","STREET":"德洋路","SECT":" ","MAREA":" ","LANE":" ","ALLEY":" ","HOUSE_NO":"５４號","E_COORD97":173063.73000000001,"N_COORD97":2539086.27,"ADDRESS":"德洋路５４號","OBJECTID":323475},"geometry":{"x":173063.72999999952,"y":2539086.2700000014}},{"attributes":{"ID":323485,"DIS_CODE":0,"TOWNNAME":"仁德區","LI":"新田里","LIN":"4鄰","STREET":"勝利路","SECT":" ","MAREA":" ","LANE":" ","ALLEY":" ","HOUSE_NO":"１１７號","E_COORD97":174082.51999999999,"N_COORD97":2539713.7599999998,"ADDRESS":"勝利路１１７號","OBJECTID":323476},"geometry":{"x":174082.51999999955,"y":2539713.7600000016}},{"attributes":{"ID":323486,"DIS_CODE":0,"TOWNNAME":"仁德區","LI":"仁義里","LIN":"4鄰","STREET":"仁義四街","SECT":" ","MAREA":" ","LANE":" ","ALLEY":" ","HOUSE_NO":"４５號","E_COORD97":173810.53,"N_COORD97":2541061.77,"ADDRESS":"仁義四街４５號","OBJECTID":323477},"geometry":{"x":173810.53000000026,"y":2541061.7699999996}},{"attributes":{"ID":323487,"DIS_CODE":0,"TOWNNAME":"安南區","LI":"佃東里","LIN":"14鄰","STREET":"安吉路","SECT":"三段","MAREA":" ","LANE":" ","ALLEY":" ","HOUSE_NO":"５１號","E_COORD97":167111.41684799999,"N_COORD97":2552368.9153,"ADDRESS":"安吉路三段５１號","OBJECTID":323478},"geometry":{"x":167111.41684800107,"y":2552368.915295003}},{"attributes":{"ID":323488,"DIS_CODE":0,"TOWNNAME":"仁德區","LI":"後壁里","LIN":"25鄰","STREET":"德糖路","SECT":" ","MAREA":" ","LANE":" ","ALLEY":" ","HOUSE_NO":"５３８號","E_COORD97":173160.45000000001,"N_COORD97":2539059.27,"ADDRESS":"德糖路５３８號","OBJECTID":323479},"geometry":{"x":173160.45000000205,"y":2539059.2700000014}},{"attributes":{"ID":323489,"DIS_CODE":0,"TOWNNAME":"仁德區","LI":"仁義里","LIN":"4鄰","STREET":"仁義三街","SECT":" ","MAREA":" ","LANE":"２２０巷","ALLEY":" ","HOUSE_NO":"２號","E_COORD97":173875.97,"N_COORD97":2541098.2599999998,"ADDRESS":"仁義三街２２０巷２號","OBJECTID":323480},"geometry":{"x":173875.97000000067,"y":2541098.2599999998}},{"attributes":{"ID":323490,"DIS_CODE":0,"TOWNNAME":"仁德區","LI":"仁德里","LIN":"5鄰","STREET":"仁德四街","SECT":" ","MAREA":" ","LANE":"１２巷","ALLEY":" ","HOUSE_NO":"６號","E_COORD97":173261.81,"N_COORD97":2540874.3799999999,"ADDRESS":"仁德四街１２巷６號","OBJECTID":323481},"geometry":{"x":173261.80999999959,"y":2540874.3800000027}},{"attributes":{"ID":323491,"DIS_CODE":0,"TOWNNAME":"仁德區","LI":"仁德里","LIN":"18鄰","STREET":"文華路","SECT":"三段","MAREA":" ","LANE":"１８９巷","ALLEY":" ","HOUSE_NO":"５５號","E_COORD97":172098.28,"N_COORD97":2540464.8999999999,"ADDRESS":"文華路三段１８９巷５５號","OBJECTID":323482},"geometry":{"x":172098.28000000026,"y":2540464.9000000004}},{"attributes":{"ID":323492,"DIS_CODE":0,"TOWNNAME":"仁德區","LI":"仁義里","LIN":"18鄰","STREET":"中山路","SECT":" ","MAREA":" ","LANE":"３２８巷","ALLEY":" ","HOUSE_NO":"２０之１號","E_COORD97":173977.91,"N_COORD97":2541347.5499999998,"ADDRESS":"中山路３２８巷２０之１號","OBJECTID":323483},"geometry":{"x":173977.91000000108,"y":2541347.5500000026}},{"attributes":{"ID":323493,"DIS_CODE":0,"TOWNNAME":"仁德區","LI":"太子里","LIN":"24鄰","STREET":"長興五街","SECT":" ","MAREA":" ","LANE":"３６巷","ALLEY":" ","HOUSE_NO":"２６號","E_COORD97":173657,"N_COORD97":2543668.25,"ADDRESS":"長興五街３６巷２６號","OBJECTID":323484},"geometry":{"x":173657.00000000093,"y":2543668.2500000019}},{"attributes":{"ID":323494,"DIS_CODE":0,"TOWNNAME":"仁德區","LI":"太子里","LIN":"41鄰","STREET":"太子路","SECT":" ","MAREA":" ","LANE":"４２巷","ALLEY":" ","HOUSE_NO":"１０號","E_COORD97":175295.48999999999,"N_COORD97":2543612.0099999998,"ADDRESS":"太子路４２巷１０號","OBJECTID":323485},"geometry":{"x":175295.49000000022,"y":2543612.0100000016}},{"attributes":{"ID":323495,"DIS_CODE":0,"TOWNNAME":"仁德區","LI":"三甲里","LIN":"5鄰","STREET":" ","SECT":" ","MAREA":"三甲子","LANE":" ","ALLEY":" ","HOUSE_NO":"５０號之１６","E_COORD97":171890.47,"N_COORD97":2536342.79,"ADDRESS":"三甲子５０號之１６","OBJECTID":323486},"geometry":{"x":171890.47000000067,"y":2536342.790000001}},{"attributes":{"ID":323496,"DIS_CODE":0,"TOWNNAME":"仁德區","LI":"保安里","LIN":"20鄰","STREET":"文賢路","SECT":"一段","MAREA":" ","LANE":" ","ALLEY":" ","HOUSE_NO":"５６６號","E_COORD97":171117.89999999999,"N_COORD97":2536875.5800000001,"ADDRESS":"文賢路一段５６６號","OBJECTID":323487},"geometry":{"x":171117.90000000037,"y":2536875.5800000001}},{"attributes":{"ID":323497,"DIS_CODE":0,"TOWNNAME":"仁德區","LI":"仁義里","LIN":"4鄰","STREET":"仁義三街","SECT":" ","MAREA":" ","LANE":" ","ALLEY":" ","HOUSE_NO":"１８１號","E_COORD97":173817.89000000001,"N_COORD97":2541129.77,"ADDRESS":"仁義三街１８１號","OBJECTID":323488},"geometry":{"x":173817.88999999873,"y":2541129.7699999977}},{"attributes":{"ID":323498,"DIS_CODE":0,"TOWNNAME":"仁德區","LI":"仁愛里","LIN":"20鄰","STREET":" ","SECT":" ","MAREA":"仁愛","LANE":" ","ALLEY":" ","HOUSE_NO":"４１４號","E_COORD97":170120.6329,"N_COORD97":2540156.8799999999,"ADDRESS":"仁愛４１４號","OBJECTID":323489},"geometry":{"x":170120.63289999962,"y":2540156.8800000008}},{"attributes":{"ID":323499,"DIS_CODE":0,"TOWNNAME":"仁德區","LI":"三甲里","LIN":"5鄰","STREET":" ","SECT":" ","MAREA":"三甲子","LANE":" ","ALLEY":" ","HOUSE_NO":"４５之３號","E_COORD97":171890.84,"N_COORD97":2536756.79,"ADDRESS":"三甲子４５之３號","OBJECTID":323490},"geometry":{"x":171890.83999999985,"y":2536756.790000001}},{"attributes":{"ID":323500,"DIS_CODE":0,"TOWNNAME":"仁德區","LI":"中生里","LIN":"5鄰","STREET":" ","SECT":" ","MAREA":"中洲","LANE":" ","ALLEY":" ","HOUSE_NO":"１２７號","E_COORD97":172834.81,"N_COORD97":2534222.75,"ADDRESS":"中洲１２７號","OBJECTID":323491},"geometry":{"x":172834.80999999959,"y":2534222.75}},{"attributes":{"ID":323501,"DIS_CODE":0,"TOWNNAME":"仁德區","LI":"上崙里","LIN":"26鄰","STREET":"中正路","SECT":"一段","MAREA":" ","LANE":" ","ALLEY":" ","HOUSE_NO":"６８８號","E_COORD97":172889.07000000001,"N_COORD97":2537628.0299999998,"ADDRESS":"中正路一段６８８號","OBJECTID":323492},"geometry":{"x":172889.07000000123,"y":2537628.0299999993}},{"attributes":{"ID":323502,"DIS_CODE":0,"TOWNNAME":"仁德區","LI":"後壁里","LIN":"24鄰","STREET":"中正路","SECT":"二段","MAREA":" ","LANE":" ","ALLEY":" ","HOUSE_NO":"２８１號","E_COORD97":173228.17999999999,"N_COORD97":2539033.27,"ADDRESS":"中正路二段２８１號","OBJECTID":323493},"geometry":{"x":173228.18000000063,"y":2539033.2699999996}},{"attributes":{"ID":323503,"DIS_CODE":0,"TOWNNAME":"仁德區","LI":"仁義里","LIN":"24鄰","STREET":"中清路","SECT":" ","MAREA":" ","LANE":" ","ALLEY":" ","HOUSE_NO":"１５７號","E_COORD97":173718.01000000001,"N_COORD97":2541504.79,"ADDRESS":"中清路１５７號","OBJECTID":323494},"geometry":{"x":173718.01000000071,"y":2541504.7899999991}},{"attributes":{"ID":323504,"DIS_CODE":0,"TOWNNAME":"仁德區","LI":"仁義里","LIN":"17鄰","STREET":"義林二街","SECT":" ","MAREA":" ","LANE":" ","ALLEY":" ","HOUSE_NO":"１４２號","E_COORD97":174159.23000000001,"N_COORD97":2541330.52,"ADDRESS":"義林二街１４２號","OBJECTID":323495},"geometry":{"x":174159.23000000138,"y":2541330.5199999996}},{"attributes":{"ID":323505,"DIS_CODE":0,"TOWNNAME":"仁德區","LI":"仁德里","LIN":"38鄰","STREET":"文宏路","SECT":" ","MAREA":" ","LANE":" ","ALLEY":" ","HOUSE_NO":"８２號","E_COORD97":172411.63,"N_COORD97":2541723.3199999998,"ADDRESS":"文宏路８２號","OBJECTID":323496},"geometry":{"x":172411.63000000082,"y":2541723.3200000003}},{"attributes":{"ID":323506,"DIS_CODE":0,"TOWNNAME":"仁德區","LI":"仁義里","LIN":"38鄰","STREET":"中正路","SECT":"二段","MAREA":" ","LANE":" ","ALLEY":" ","HOUSE_NO":"８２２號","E_COORD97":173470.17000000001,"N_COORD97":2540397.0299999998,"ADDRESS":"中正路二段８２２號","OBJECTID":323497},"geometry":{"x":173470.16999999993,"y":2540397.0300000012}},{"attributes":{"ID":323507,"DIS_CODE":0,"TOWNNAME":"仁德區","LI":"保安里","LIN":"12鄰","STREET":"開發四路","SECT":" ","MAREA":" ","LANE":" ","ALLEY":" ","HOUSE_NO":"１號","E_COORD97":172604.85000000001,"N_COORD97":2535705.0099999998,"ADDRESS":"開發四路１號","OBJECTID":323498},"geometry":{"x":172604.85000000056,"y":2535705.0100000016}},{"attributes":{"ID":323508,"DIS_CODE":0,"TOWNNAME":"仁德區","LI":"三甲里","LIN":"4鄰","STREET":" ","SECT":" ","MAREA":"三甲子","LANE":" ","ALLEY":" ","HOUSE_NO":"３２號","E_COORD97":171779.87,"N_COORD97":2536815.5,"ADDRESS":"三甲子３２號","OBJECTID":323499},"geometry":{"x":171779.87000000104,"y":2536815.5}},{"attributes":{"ID":323509,"DIS_CODE":0,"TOWNNAME":"仁德區","LI":"三甲里","LIN":"4鄰","STREET":" ","SECT":" ","MAREA":"三甲子","LANE":" ","ALLEY":" ","HOUSE_NO":"３７號之７","E_COORD97":171753.47,"N_COORD97":2536835.29,"ADDRESS":"三甲子３７號之７","OBJECTID":323500},"geometry":{"x":171753.47000000067,"y":2536835.290000001}},{"attributes":{"ID":323510,"DIS_CODE":0,"TOWNNAME":"仁德區","LI":"仁愛里","LIN":"3鄰","STREET":" ","SECT":" ","MAREA":"仁愛","LANE":" ","ALLEY":" ","HOUSE_NO":"４１號","E_COORD97":170345.06849999999,"N_COORD97":2540074.0295099998,"ADDRESS":"仁愛４１號","OBJECTID":323501},"geometry":{"x":170345.06850000005,"y":2540074.0295129996}},{"attributes":{"ID":323511,"DIS_CODE":0,"TOWNNAME":"仁德區","LI":"仁和里","LIN":"25鄰","STREET":" ","SECT":" ","MAREA":"仁和","LANE":" ","ALLEY":" ","HOUSE_NO":"５０９號","E_COORD97":170416.04774899999,"N_COORD97":2539772.25,"ADDRESS":"仁和５０９號","OBJECTID":323502},"geometry":{"x":170416.04774899967,"y":2539772.2500000019}},{"attributes":{"ID":323512,"DIS_CODE":0,"TOWNNAME":"仁德區","LI":"三甲里","LIN":"4鄰","STREET":" ","SECT":" ","MAREA":"三甲子","LANE":" ","ALLEY":" ","HOUSE_NO":"３３號之４","E_COORD97":171820.67000000001,"N_COORD97":2536816.2999999998,"ADDRESS":"三甲子３３號之４","OBJECTID":323503},"geometry":{"x":171820.66999999993,"y":2536816.3000000026}},{"attributes":{"ID":323513,"DIS_CODE":0,"TOWNNAME":"仁德區","LI":"仁愛里","LIN":"20鄰","STREET":" ","SECT":" ","MAREA":"仁愛","LANE":" ","ALLEY":" ","HOUSE_NO":"４１０號","E_COORD97":170105.06011300001,"N_COORD97":2540156.8799999999,"ADDRESS":"仁愛４１０號","OBJECTID":323504},"geometry":{"x":170105.06011299975,"y":2540156.8800000008}},{"attributes":{"ID":323514,"DIS_CODE":0,"TOWNNAME":"仁德區","LI":"仁義里","LIN":"39鄰","STREET":"仁義五街","SECT":" ","MAREA":" ","LANE":"４４巷","ALLEY":" ","HOUSE_NO":"１０號","E_COORD97":173593.04999999999,"N_COORD97":2540406.9300000002,"ADDRESS":"仁義五街４４巷１０號","OBJECTID":323505},"geometry":{"x":173593.04999999981,"y":2540406.9300000034}},{"attributes":{"ID":323515,"DIS_CODE":0,"TOWNNAME":"仁德區","LI":"後壁里","LIN":"36鄰","STREET":"民安路","SECT":"一段","MAREA":" ","LANE":"３１０巷","ALLEY":" ","HOUSE_NO":"１７號","E_COORD97":172837.35000000001,"N_COORD97":2539496.2999999998,"ADDRESS":"民安路一段３１０巷１７號","OBJECTID":323506},"geometry":{"x":172837.35000000056,"y":2539496.3000000007}},{"attributes":{"ID":323516,"DIS_CODE":0,"TOWNNAME":"仁德區","LI":"仁義里","LIN":"18鄰","STREET":"正義路","SECT":" ","MAREA":" ","LANE":"１９１巷","ALLEY":" ","HOUSE_NO":"１號","E_COORD97":173882.57000000001,"N_COORD97":2541407.2599999998,"ADDRESS":"正義路１９１巷１號","OBJECTID":323507},"geometry":{"x":173882.57000000123,"y":2541407.2599999998}},{"attributes":{"ID":323517,"DIS_CODE":0,"TOWNNAME":"下營區","LI":"新興里","LIN":"15鄰","STREET":"寮前二街","SECT":" ","MAREA":" ","LANE":"２１巷","ALLEY":" ","HOUSE_NO":"１８號","E_COORD97":175153.84,"N_COORD97":2570373.5299999998,"ADDRESS":"寮前二街２１巷１８號","OBJECTID":323508},"geometry":{"x":175153.83999999985,"y":2570373.5300000031}},{"attributes":{"ID":323518,"DIS_CODE":0,"TOWNNAME":"歸仁區","LI":"媽廟里","LIN":"1鄰","STREET":"媽廟一街","SECT":" ","MAREA":" ","LANE":" ","ALLEY":" ","HOUSE_NO":"２９號","E_COORD97":177444.80674599999,"N_COORD97":2543493.5941599999,"ADDRESS":"媽廟一街２９號","OBJECTID":323509},"geometry":{"x":177444.80674600136,"y":2543493.5941580031}},{"attributes":{"ID":323519,"DIS_CODE":0,"TOWNNAME":"下營區","LI":"新興里","LIN":"15鄰","STREET":"寮前二街","SECT":" ","MAREA":" ","LANE":"２１巷","ALLEY":" ","HOUSE_NO":"２６號","E_COORD97":175122.35999999999,"N_COORD97":2570347.3900000001,"ADDRESS":"寮前二街２１巷２６號","OBJECTID":323510},"geometry":{"x":175122.36000000034,"y":2570347.3900000006}},{"attributes":{"ID":323520,"DIS_CODE":0,"TOWNNAME":"下營區","LI":"新興里","LIN":"15鄰","STREET":"寮前二街","SECT":" ","MAREA":" ","LANE":"２１巷","ALLEY":" ","HOUSE_NO":"２號","E_COORD97":175198.14999999999,"N_COORD97":2570375.5600000001,"ADDRESS":"寮前二街２１巷２號","OBJECTID":323511},"geometry":{"x":175198.15000000037,"y":2570375.5600000024}},{"attributes":{"ID":323521,"DIS_CODE":0,"TOWNNAME":"下營區","LI":"新興里","LIN":"15鄰","STREET":"寮前二街","SECT":" ","MAREA":" ","LANE":"２１巷","ALLEY":" ","HOUSE_NO":"６號","E_COORD97":175193.63,"N_COORD97":2570374.5600000001,"ADDRESS":"寮前二街２１巷６號","OBJECTID":323512},"geometry":{"x":175193.63000000082,"y":2570374.5600000042}},{"attributes":{"ID":323522,"DIS_CODE":0,"TOWNNAME":"下營區","LI":"新興里","LIN":"15鄰","STREET":"寮前二街","SECT":" ","MAREA":" ","LANE":"２８巷","ALLEY":" ","HOUSE_NO":"４３號","E_COORD97":175280.04999999999,"N_COORD97":2570347.0699999998,"ADDRESS":"寮前二街２８巷４３號","OBJECTID":323513},"geometry":{"x":175280.05000000168,"y":2570347.070000004}},{"attributes":{"ID":323523,"DIS_CODE":0,"TOWNNAME":"下營區","LI":"新興里","LIN":"15鄰","STREET":"寮前二街","SECT":" ","MAREA":" ","LANE":"３９巷","ALLEY":" ","HOUSE_NO":"１１號","E_COORD97":175204.25,"N_COORD97":2570458.4700000002,"ADDRESS":"寮前二街３９巷１１號","OBJECTID":323514},"geometry":{"x":175204.25000000186,"y":2570458.4700000007}},{"attributes":{"ID":323524,"DIS_CODE":0,"TOWNNAME":"下營區","LI":"新興里","LIN":"15鄰","STREET":"寮前二街","SECT":" ","MAREA":" ","LANE":"３９巷","ALLEY":" ","HOUSE_NO":"１３號","E_COORD97":175202.95000000001,"N_COORD97":2570473.7200000002,"ADDRESS":"寮前二街３９巷１３號","OBJECTID":323515},"geometry":{"x":175202.95000000019,"y":2570473.7200000007}},{"attributes":{"ID":323525,"DIS_CODE":0,"TOWNNAME":"下營區","LI":"新興里","LIN":"15鄰","STREET":"寮前二街","SECT":" ","MAREA":" ","LANE":"３９巷","ALLEY":" ","HOUSE_NO":"２號","E_COORD97":175219.82000000001,"N_COORD97":2570457.8900000001,"ADDRESS":"寮前二街３９巷２號","OBJECTID":323516},"geometry":{"x":175219.82000000123,"y":2570457.8900000025}},{"attributes":{"ID":323526,"DIS_CODE":0,"TOWNNAME":"下營區","LI":"新興里","LIN":"15鄰","STREET":"寮前二街","SECT":" ","MAREA":" ","LANE":"３９巷","ALLEY":" ","HOUSE_NO":"９號","E_COORD97":175205.31,"N_COORD97":2570452.98,"ADDRESS":"寮前二街３９巷９號","OBJECTID":323517},"geometry":{"x":175205.31000000052,"y":2570452.9800000042}},{"attributes":{"ID":323527,"DIS_CODE":0,"TOWNNAME":"新化區","LI":"協興里","LIN":"15鄰","STREET":"大新路","SECT":" ","MAREA":" ","LANE":"１１１巷","ALLEY":" ","HOUSE_NO":"２６號","E_COORD97":177972.48000000001,"N_COORD97":2548682.25,"ADDRESS":"大新路１１１巷２６號","OBJECTID":323518},"geometry":{"x":177972.48000000045,"y":2548682.2500000019}},{"attributes":{"ID":323528,"DIS_CODE":0,"TOWNNAME":"南區","LI":"彰南里","LIN":"17鄰","STREET":"新和路","SECT":" ","MAREA":" ","LANE":" ","ALLEY":" ","HOUSE_NO":"２８號","E_COORD97":165728.82999999999,"N_COORD97":2540963.7400000002,"ADDRESS":"新和路２８號","OBJECTID":323519},"geometry":{"x":165728.83000000007,"y":2540963.7400000002}},{"attributes":{"ID":323529,"DIS_CODE":0,"TOWNNAME":"南區","LI":"彰南里","LIN":"17鄰","STREET":"新和路","SECT":" ","MAREA":" ","LANE":" ","ALLEY":" ","HOUSE_NO":"２號","E_COORD97":166143.07999999999,"N_COORD97":2540984.3999999999,"ADDRESS":"新和路２號","OBJECTID":323520},"geometry":{"x":166143.08000000194,"y":2540984.4000000041}},{"attributes":{"ID":323530,"DIS_CODE":0,"TOWNNAME":"南區","LI":"彰南里","LIN":"17鄰","STREET":"新和路","SECT":" ","MAREA":" ","LANE":" ","ALLEY":" ","HOUSE_NO":"３２號之１","E_COORD97":165662.45999999999,"N_COORD97":2540963.7400000002,"ADDRESS":"新和路３２號之１","OBJECTID":323521},"geometry":{"x":165662.46000000089,"y":2540963.7400000002}},{"attributes":{"ID":323531,"DIS_CODE":0,"TOWNNAME":"仁德區","LI":"仁義里","LIN":"46鄰","STREET":"仁義路","SECT":" ","MAREA":" ","LANE":"９８巷","ALLEY":" ","HOUSE_NO":"３號","E_COORD97":173628.95000000001,"N_COORD97":2540938.02,"ADDRESS":"仁義路９８巷３號","OBJECTID":323522},"geometry":{"x":173628.95000000112,"y":2540938.0199999996}},{"attributes":{"ID":323532,"DIS_CODE":0,"TOWNNAME":"仁德區","LI":"中洲里","LIN":"15鄰","STREET":" ","SECT":" ","MAREA":"中洲","LANE":" ","ALLEY":" ","HOUSE_NO":"３８５號之８","E_COORD97":173389.94,"N_COORD97":2534282.54,"ADDRESS":"中洲３８５號之８","OBJECTID":323523},"geometry":{"x":173389.94000000134,"y":2534282.5400000028}},{"attributes":{"ID":323533,"DIS_CODE":0,"TOWNNAME":"仁德區","LI":"中生里","LIN":"1鄰","STREET":" ","SECT":" ","MAREA":"中洲","LANE":" ","ALLEY":" ","HOUSE_NO":"７５號之５","E_COORD97":173080.01999999999,"N_COORD97":2534387.29,"ADDRESS":"中洲７５號之５","OBJECTID":323524},"geometry":{"x":173080.02000000048,"y":2534387.290000001}},{"attributes":{"ID":323534,"DIS_CODE":0,"TOWNNAME":"仁德區","LI":"保安里","LIN":"4鄰","STREET":"文賢路","SECT":"一段","MAREA":" ","LANE":"８６４巷","ALLEY":" ","HOUSE_NO":"７號","E_COORD97":171539.67000000001,"N_COORD97":2536020.8199999998,"ADDRESS":"文賢路一段８６４巷７號","OBJECTID":323525},"geometry":{"x":171539.67000000179,"y":2536020.8200000003}},{"attributes":{"ID":323535,"DIS_CODE":0,"TOWNNAME":"仁德區","LI":"仁義里","LIN":"18鄰","STREET":"正義三街","SECT":" ","MAREA":" ","LANE":"２８６巷","ALLEY":" ","HOUSE_NO":"８號","E_COORD97":174006.73999999999,"N_COORD97":2541527.8300000001,"ADDRESS":"正義三街２８６巷８號","OBJECTID":323526},"geometry":{"x":174006.74000000115,"y":2541527.8300000019}},{"attributes":{"ID":323536,"DIS_CODE":0,"TOWNNAME":"佳里區","LI":"龍安里","LIN":"1鄰","STREET":" ","SECT":" ","MAREA":"塭子內","LANE":" ","ALLEY":" ","HOUSE_NO":"１０號之２","E_COORD97":164432.5,"N_COORD97":2558512.96,"ADDRESS":"塭子內１０號之２","OBJECTID":323527},"geometry":{"x":164432.5,"y":2558512.9600000028}},{"attributes":{"ID":323537,"DIS_CODE":0,"TOWNNAME":"新化區","LI":"協興里","LIN":"15鄰","STREET":"大新路","SECT":" ","MAREA":" ","LANE":"１１１巷","ALLEY":" ","HOUSE_NO":"４６號","E_COORD97":178000.88,"N_COORD97":2548647.25,"ADDRESS":"大新路１１１巷４６號","OBJECTID":323528},"geometry":{"x":178000.88000000082,"y":2548647.2500000037}},{"attributes":{"ID":323538,"DIS_CODE":0,"TOWNNAME":"新化區","LI":"協興里","LIN":"15鄰","STREET":"大新路","SECT":" ","MAREA":" ","LANE":"１１１巷","ALLEY":" ","HOUSE_NO":"８號","E_COORD97":177987.73000000001,"N_COORD97":2548698.25,"ADDRESS":"大新路１１１巷８號","OBJECTID":323529},"geometry":{"x":177987.73000000045,"y":2548698.2500000019}},{"attributes":{"ID":323539,"DIS_CODE":0,"TOWNNAME":"歸仁區","LI":"南興里","LIN":"15鄰","STREET":"文化街","SECT":"三段","MAREA":" ","LANE":"５５０巷","ALLEY":" ","HOUSE_NO":"１６號","E_COORD97":175748.57000000001,"N_COORD97":2541254.2599999998,"ADDRESS":"文化街三段５５０巷１６號","OBJECTID":323530},"geometry":{"x":175748.57000000123,"y":2541254.2599999998}},{"attributes":{"ID":323540,"DIS_CODE":0,"TOWNNAME":"歸仁區","LI":"南保里","LIN":"15鄰","STREET":"文化十街","SECT":" ","MAREA":" ","LANE":"１０巷","ALLEY":" ","HOUSE_NO":"２１號","E_COORD97":176706.97,"N_COORD97":2541275.2599999998,"ADDRESS":"文化十街１０巷２１號","OBJECTID":323531},"geometry":{"x":176706.97000000067,"y":2541275.2599999998}},{"attributes":{"ID":323541,"DIS_CODE":0,"TOWNNAME":"歸仁區","LI":"許厝里","LIN":"15鄰","STREET":"中山路","SECT":"一段","MAREA":" ","LANE":"３８２巷","ALLEY":" ","HOUSE_NO":"７號","E_COORD97":178180.54999999999,"N_COORD97":2540738.27,"ADDRESS":"中山路一段３８２巷７號","OBJECTID":323532},"geometry":{"x":178180.55000000168,"y":2540738.2700000014}},{"attributes":{"ID":323542,"DIS_CODE":0,"TOWNNAME":"佳里區","LI":"龍安里","LIN":"12鄰","STREET":" ","SECT":" ","MAREA":"塭子內","LANE":" ","ALLEY":" ","HOUSE_NO":"１０５號之１","E_COORD97":164462.73000000001,"N_COORD97":2558155.0800000001,"ADDRESS":"塭子內１０５號之１","OBJECTID":323533},"geometry":{"x":164462.73000000138,"y":2558155.0800000038}},{"attributes":{"ID":323543,"DIS_CODE":0,"TOWNNAME":"佳里區","LI":"龍安里","LIN":"12鄰","STREET":" ","SECT":" ","MAREA":"塭子內","LANE":" ","ALLEY":" ","HOUSE_NO":"１０５號之２","E_COORD97":164454.60999999999,"N_COORD97":2558155.4300000002,"ADDRESS":"塭子內１０５號之２","OBJECTID":323534},"geometry":{"x":164454.6100000022,"y":2558155.4300000034}},{"attributes":{"ID":323544,"DIS_CODE":0,"TOWNNAME":"南區","LI":"彰南里","LIN":"17鄰","STREET":"新和路","SECT":" ","MAREA":" ","LANE":" ","ALLEY":" ","HOUSE_NO":"３４號","E_COORD97":165648.62,"N_COORD97":2540954.79,"ADDRESS":"新和路３４號","OBJECTID":323535},"geometry":{"x":165648.62000000104,"y":2540954.7899999991}},{"attributes":{"ID":323545,"DIS_CODE":0,"TOWNNAME":"南區","LI":"彰南里","LIN":"17鄰","STREET":"新和路","SECT":" ","MAREA":" ","LANE":" ","ALLEY":" ","HOUSE_NO":"３４號之１","E_COORD97":165630.29999999999,"N_COORD97":2540950.73,"ADDRESS":"新和路３４號之１","OBJECTID":323536},"geometry":{"x":165630.29999999981,"y":2540950.7300000004}},{"attributes":{"ID":323546,"DIS_CODE":0,"TOWNNAME":"南區","LI":"彰南里","LIN":"17鄰","STREET":"新和路","SECT":" ","MAREA":" ","LANE":" ","ALLEY":" ","HOUSE_NO":"４６號","E_COORD97":165474.75,"N_COORD97":2540944.9300000002,"ADDRESS":"新和路４６號","OBJECTID":323537},"geometry":{"x":165474.75,"y":2540944.9299999997}},{"attributes":{"ID":323547,"DIS_CODE":0,"TOWNNAME":"佳里區","LI":"龍安里","LIN":"8鄰","STREET":" ","SECT":" ","MAREA":"塭子內","LANE":" ","ALLEY":" ","HOUSE_NO":"８３號之１","E_COORD97":164423.01999999999,"N_COORD97":2558296.4300000002,"ADDRESS":"塭子內８３號之１","OBJECTID":323538},"geometry":{"x":164423.02000000048,"y":2558296.4299999997}},{"attributes":{"ID":323548,"DIS_CODE":0,"TOWNNAME":"佳里區","LI":"龍安里","LIN":"7鄰","STREET":" ","SECT":" ","MAREA":"塭子內","LANE":" ","ALLEY":" ","HOUSE_NO":"７４號","E_COORD97":164553.09,"N_COORD97":2558287.8900000001,"ADDRESS":"塭子內７４號","OBJECTID":323539},"geometry":{"x":164553.09000000078,"y":2558287.8900000006}},{"attributes":{"ID":323549,"DIS_CODE":0,"TOWNNAME":"佳里區","LI":"龍安里","LIN":"7鄰","STREET":" ","SECT":" ","MAREA":"塭子內","LANE":" ","ALLEY":" ","HOUSE_NO":"７５號","E_COORD97":164578.51000000001,"N_COORD97":2558251.52,"ADDRESS":"塭子內７５號","OBJECTID":323540},"geometry":{"x":164578.51000000164,"y":2558251.5199999996}},{"attributes":{"ID":323550,"DIS_CODE":0,"TOWNNAME":"佳里區","LI":"龍安里","LIN":"7鄰","STREET":" ","SECT":" ","MAREA":"塭子內","LANE":" ","ALLEY":" ","HOUSE_NO":"７６號","E_COORD97":164569.32000000001,"N_COORD97":2558263.1699999999,"ADDRESS":"塭子內７６號","OBJECTID":323541},"geometry":{"x":164569.32000000123,"y":2558263.1700000018}},{"attributes":{"ID":323551,"DIS_CODE":0,"TOWNNAME":"佳里區","LI":"龍安里","LIN":"7鄰","STREET":" ","SECT":" ","MAREA":"塭子內","LANE":" ","ALLEY":" ","HOUSE_NO":"７７號之１","E_COORD97":164541.01999999999,"N_COORD97":2558285.1600000001,"ADDRESS":"塭子內７７號之１","OBJECTID":323542},"geometry":{"x":164541.02000000142,"y":2558285.1600000001}},{"attributes":{"ID":323552,"DIS_CODE":0,"TOWNNAME":"佳里區","LI":"龍安里","LIN":"7鄰","STREET":" ","SECT":" ","MAREA":"塭子內","LANE":" ","ALLEY":" ","HOUSE_NO":"７７號","E_COORD97":164531.64999999999,"N_COORD97":2558282.3700000001,"ADDRESS":"塭子內７７號","OBJECTID":323543},"geometry":{"x":164531.65000000037,"y":2558282.370000001}},{"attributes":{"ID":323553,"DIS_CODE":0,"TOWNNAME":"佳里區","LI":"龍安里","LIN":"1鄰","STREET":" ","SECT":" ","MAREA":"塭子內","LANE":" ","ALLEY":" ","HOUSE_NO":"６號之１","E_COORD97":164446.01000000001,"N_COORD97":2558548.52,"ADDRESS":"塭子內６號之１","OBJECTID":323544},"geometry":{"x":164446.00999999978,"y":2558548.5200000014}},{"attributes":{"ID":323554,"DIS_CODE":0,"TOWNNAME":"佳里區","LI":"龍安里","LIN":"1鄰","STREET":" ","SECT":" ","MAREA":"塭子內","LANE":" ","ALLEY":" ","HOUSE_NO":"６號","E_COORD97":164439.87,"N_COORD97":2558553.46,"ADDRESS":"塭子內６號","OBJECTID":323545},"geometry":{"x":164439.87000000104,"y":2558553.4600000046}},{"attributes":{"ID":323555,"DIS_CODE":0,"TOWNNAME":"佳里區","LI":"龍安里","LIN":"6鄰","STREET":" ","SECT":" ","MAREA":"塭子內","LANE":" ","ALLEY":" ","HOUSE_NO":"６２號","E_COORD97":164555.23999999999,"N_COORD97":2558341.3500000001,"ADDRESS":"塭子內６２號","OBJECTID":323546},"geometry":{"x":164555.24000000022,"y":2558341.3499999996}},{"attributes":{"ID":323556,"DIS_CODE":0,"TOWNNAME":"佳里區","LI":"龍安里","LIN":"6鄰","STREET":" ","SECT":" ","MAREA":"塭子內","LANE":" ","ALLEY":" ","HOUSE_NO":"６３號","E_COORD97":164532.17999999999,"N_COORD97":2558343.75,"ADDRESS":"塭子內６３號","OBJECTID":323547},"geometry":{"x":164532.18000000063,"y":2558343.7500000037}},{"attributes":{"ID":323557,"DIS_CODE":0,"TOWNNAME":"佳里區","LI":"龍安里","LIN":"6鄰","STREET":" ","SECT":" ","MAREA":"塭子內","LANE":" ","ALLEY":" ","HOUSE_NO":"６４號","E_COORD97":164513.22,"N_COORD97":2558337.8199999998,"ADDRESS":"塭子內６４號","OBJECTID":323548},"geometry":{"x":164513.22000000067,"y":2558337.8200000022}},{"attributes":{"ID":323558,"DIS_CODE":0,"TOWNNAME":"佳里區","LI":"龍安里","LIN":"6鄰","STREET":" ","SECT":" ","MAREA":"塭子內","LANE":" ","ALLEY":" ","HOUSE_NO":"６５號","E_COORD97":164470.5,"N_COORD97":2558329.54,"ADDRESS":"塭子內６５號","OBJECTID":323549},"geometry":{"x":164470.50000000093,"y":2558329.5399999991}},{"attributes":{"ID":323559,"DIS_CODE":0,"TOWNNAME":"佳里區","LI":"龍安里","LIN":"8鄰","STREET":" ","SECT":" ","MAREA":"塭子內","LANE":" ","ALLEY":" ","HOUSE_NO":"８３號之２","E_COORD97":164422.82999999999,"N_COORD97":2558293.0600000001,"ADDRESS":"塭子內８３號之２","OBJECTID":323550},"geometry":{"x":164422.83000000101,"y":2558293.0600000005}},{"attributes":{"ID":323560,"DIS_CODE":0,"TOWNNAME":"佳里區","LI":"龍安里","LIN":"8鄰","STREET":" ","SECT":" ","MAREA":"塭子內","LANE":" ","ALLEY":" ","HOUSE_NO":"８３號之３","E_COORD97":164422.03,"N_COORD97":2558289,"ADDRESS":"塭子內８３號之３","OBJECTID":323551},"geometry":{"x":164422.03000000119,"y":2558289.0000000019}},{"attributes":{"ID":323561,"DIS_CODE":0,"TOWNNAME":"佳里區","LI":"龍安里","LIN":"8鄰","STREET":" ","SECT":" ","MAREA":"塭子內","LANE":" ","ALLEY":" ","HOUSE_NO":"８３號之４","E_COORD97":164421.89000000001,"N_COORD97":2558285.4700000002,"ADDRESS":"塭子內８３號之４","OBJECTID":323552},"geometry":{"x":164421.8900000006,"y":2558285.4700000025}},{"attributes":{"ID":323562,"DIS_CODE":0,"TOWNNAME":"佳里區","LI":"龍安里","LIN":"8鄰","STREET":" ","SECT":" ","MAREA":"塭子內","LANE":" ","ALLEY":" ","HOUSE_NO":"８３號","E_COORD97":164423.63,"N_COORD97":2558299.75,"ADDRESS":"塭子內８３號","OBJECTID":323553},"geometry":{"x":164423.63000000175,"y":2558299.7500000019}},{"attributes":{"ID":323563,"DIS_CODE":0,"TOWNNAME":"佳里區","LI":"龍安里","LIN":"8鄰","STREET":" ","SECT":" ","MAREA":"塭子內","LANE":" ","ALLEY":" ","HOUSE_NO":"８４號","E_COORD97":164434.63,"N_COORD97":2558264.8999999999,"ADDRESS":"塭子內８４號","OBJECTID":323554},"geometry":{"x":164434.62999999989,"y":2558264.9000000041}},{"attributes":{"ID":323564,"DIS_CODE":0,"TOWNNAME":"佳里區","LI":"龍安里","LIN":"8鄰","STREET":" ","SECT":" ","MAREA":"塭子內","LANE":" ","ALLEY":" ","HOUSE_NO":"８５號","E_COORD97":164413.98999999999,"N_COORD97":2558256.7000000002,"ADDRESS":"塭子內８５號","OBJECTID":323555},"geometry":{"x":164413.99000000022,"y":2558256.6999999993}},{"attributes":{"ID":323565,"DIS_CODE":0,"TOWNNAME":"佳里區","LI":"龍安里","LIN":"9鄰","STREET":" ","SECT":" ","MAREA":"塭子內","LANE":" ","ALLEY":" ","HOUSE_NO":"８６號之１","E_COORD97":164406.69,"N_COORD97":2558250.04,"ADDRESS":"塭子內８６號之１","OBJECTID":323556},"geometry":{"x":164406.69000000227,"y":2558250.040000001}},{"attributes":{"ID":323566,"DIS_CODE":0,"TOWNNAME":"佳里區","LI":"溪州里","LIN":"4鄰","STREET":" ","SECT":" ","MAREA":"溪州","LANE":" ","ALLEY":" ","HOUSE_NO":"２９號","E_COORD97":166378.79999999999,"N_COORD97":2567392.9700000002,"ADDRESS":"溪州２９號","OBJECTID":323557},"geometry":{"x":166378.80000000075,"y":2567392.9700000025}},{"attributes":{"ID":323567,"DIS_CODE":0,"TOWNNAME":"歸仁區","LI":"媽廟里","LIN":"15鄰","STREET":"媽廟二街","SECT":" ","MAREA":" ","LANE":"１５巷","ALLEY":" ","HOUSE_NO":"２２號","E_COORD97":177666.07999999999,"N_COORD97":2543787.7200000002,"ADDRESS":"媽廟二街１５巷２２號","OBJECTID":323558},"geometry":{"x":177666.08000000007,"y":2543787.7200000025}},{"attributes":{"ID":323568,"DIS_CODE":0,"TOWNNAME":"南區","LI":"彰南里","LIN":"17鄰","STREET":"新義南路","SECT":" ","MAREA":" ","LANE":" ","ALLEY":" ","HOUSE_NO":"１５號","E_COORD97":165998.75,"N_COORD97":2541013.8199999998,"ADDRESS":"新義南路１５號","OBJECTID":323559},"geometry":{"x":165998.75,"y":2541013.8200000003}},{"attributes":{"ID":323569,"DIS_CODE":0,"TOWNNAME":"佳里區","LI":"溪州里","LIN":"4鄰","STREET":" ","SECT":" ","MAREA":"溪州","LANE":" ","ALLEY":" ","HOUSE_NO":"３０號","E_COORD97":166373.57000000001,"N_COORD97":2567379.9500000002,"ADDRESS":"溪州３０號","OBJECTID":323560},"geometry":{"x":166373.5700000003,"y":2567379.9499999974}},{"attributes":{"ID":323570,"DIS_CODE":0,"TOWNNAME":"佳里區","LI":"溪州里","LIN":"4鄰","STREET":" ","SECT":" ","MAREA":"溪州","LANE":" ","ALLEY":" ","HOUSE_NO":"３１號之１","E_COORD97":166404.14999999999,"N_COORD97":2567381.5099999998,"ADDRESS":"溪州３１號之１","OBJECTID":323561},"geometry":{"x":166404.1500000013,"y":2567381.5100000016}},{"attributes":{"ID":323571,"DIS_CODE":0,"TOWNNAME":"佳里區","LI":"溪州里","LIN":"4鄰","STREET":" ","SECT":" ","MAREA":"溪州","LANE":" ","ALLEY":" ","HOUSE_NO":"３１號","E_COORD97":166390.39999999999,"N_COORD97":2567377.1000000001,"ADDRESS":"溪州３１號","OBJECTID":323562},"geometry":{"x":166390.40000000224,"y":2567377.1000000015}},{"attributes":{"ID":323572,"DIS_CODE":0,"TOWNNAME":"佳里區","LI":"溪州里","LIN":"4鄰","STREET":" ","SECT":" ","MAREA":"溪州","LANE":" ","ALLEY":" ","HOUSE_NO":"３２號","E_COORD97":166382.01999999999,"N_COORD97":2567368.3399999999,"ADDRESS":"溪州３２號","OBJECTID":323563},"geometry":{"x":166382.02000000142,"y":2567368.3400000017}},{"attributes":{"ID":323573,"DIS_CODE":0,"TOWNNAME":"佳里區","LI":"溪州里","LIN":"4鄰","STREET":" ","SECT":" ","MAREA":"溪州","LANE":" ","ALLEY":" ","HOUSE_NO":"３３號","E_COORD97":166359.76000000001,"N_COORD97":2567352.7200000002,"ADDRESS":"溪州３３號","OBJECTID":323564},"geometry":{"x":166359.75999999978,"y":2567352.7200000044}},{"attributes":{"ID":323574,"DIS_CODE":0,"TOWNNAME":"佳里區","LI":"溪州里","LIN":"4鄰","STREET":" ","SECT":" ","MAREA":"溪州","LANE":" ","ALLEY":" ","HOUSE_NO":"３４號","E_COORD97":166339.028189,"N_COORD97":2567303.4083699998,"ADDRESS":"溪州３４號","OBJECTID":323565},"geometry":{"x":166339.02818899974,"y":2567303.4083740003}},{"attributes":{"ID":323575,"DIS_CODE":0,"TOWNNAME":"佳里區","LI":"溪州里","LIN":"4鄰","STREET":" ","SECT":" ","MAREA":"溪州","LANE":" ","ALLEY":" ","HOUSE_NO":"３５號","E_COORD97":166351.64000000001,"N_COORD97":2567312.8799999999,"ADDRESS":"溪州３５號","OBJECTID":323566},"geometry":{"x":166351.63999999966,"y":2567312.8800000008}},{"attributes":{"ID":323576,"DIS_CODE":0,"TOWNNAME":"佳里區","LI":"溪州里","LIN":"4鄰","STREET":" ","SECT":" ","MAREA":"溪州","LANE":" ","ALLEY":" ","HOUSE_NO":"３７號之１","E_COORD97":166379.76000000001,"N_COORD97":2567295.6200000001,"ADDRESS":"溪州３７號之１","OBJECTID":323567},"geometry":{"x":166379.75999999978,"y":2567295.620000001}},{"attributes":{"ID":323577,"DIS_CODE":0,"TOWNNAME":"佳里區","LI":"溪州里","LIN":"4鄰","STREET":" ","SECT":" ","MAREA":"溪州","LANE":" ","ALLEY":" ","HOUSE_NO":"３７號之２","E_COORD97":166375.95999999999,"N_COORD97":2567295.8999999999,"ADDRESS":"溪州３７號之２","OBJECTID":323568},"geometry":{"x":166375.96000000183,"y":2567295.9000000004}},{"attributes":{"ID":323578,"DIS_CODE":0,"TOWNNAME":"佳里區","LI":"溪州里","LIN":"4鄰","STREET":" ","SECT":" ","MAREA":"溪州","LANE":" ","ALLEY":" ","HOUSE_NO":"３７號之３","E_COORD97":166371.42000000001,"N_COORD97":2567296.3799999999,"ADDRESS":"溪州３７號之３","OBJECTID":323569},"geometry":{"x":166371.42000000086,"y":2567296.3800000008}},{"attributes":{"ID":323579,"DIS_CODE":0,"TOWNNAME":"佳里區","LI":"溪州里","LIN":"4鄰","STREET":" ","SECT":" ","MAREA":"溪州","LANE":" ","ALLEY":" ","HOUSE_NO":"３７號之４","E_COORD97":166367.28,"N_COORD97":2567296.6699999999,"ADDRESS":"溪州３７號之４","OBJECTID":323570},"geometry":{"x":166367.28000000212,"y":2567296.6699999999}},{"attributes":{"ID":323580,"DIS_CODE":0,"TOWNNAME":"佳里區","LI":"溪州里","LIN":"4鄰","STREET":" ","SECT":" ","MAREA":"溪州","LANE":" ","ALLEY":" ","HOUSE_NO":"３７號之５","E_COORD97":166363.10000000001,"N_COORD97":2567297.46,"ADDRESS":"溪州３７號之５","OBJECTID":323571},"geometry":{"x":166363.10000000056,"y":2567297.4600000028}},{"attributes":{"ID":323581,"DIS_CODE":0,"TOWNNAME":"佳里區","LI":"溪州里","LIN":"4鄰","STREET":" ","SECT":" ","MAREA":"溪州","LANE":" ","ALLEY":" ","HOUSE_NO":"３７號之６","E_COORD97":166359.64999999999,"N_COORD97":2567297.98,"ADDRESS":"溪州３７號之６","OBJECTID":323572},"geometry":{"x":166359.65000000037,"y":2567297.9800000023}},{"attributes":{"ID":323582,"DIS_CODE":0,"TOWNNAME":"佳里區","LI":"溪州里","LIN":"1鄰","STREET":" ","SECT":" ","MAREA":"溪州","LANE":" ","ALLEY":" ","HOUSE_NO":"１號","E_COORD97":166465.12,"N_COORD97":2567288.6400000001,"ADDRESS":"溪州１號","OBJECTID":323573},"geometry":{"x":166465.12000000104,"y":2567288.6400000043}},{"attributes":{"ID":323583,"DIS_CODE":0,"TOWNNAME":"佳里區","LI":"溪州里","LIN":"1鄰","STREET":" ","SECT":" ","MAREA":"溪州","LANE":" ","ALLEY":" ","HOUSE_NO":"２號之１１","E_COORD97":166609.10000000001,"N_COORD97":2567047.8399999999,"ADDRESS":"溪州２號之１１","OBJECTID":323574},"geometry":{"x":166609.10000000056,"y":2567047.8399999999}},{"attributes":{"ID":323584,"DIS_CODE":0,"TOWNNAME":"佳里區","LI":"溪州里","LIN":"1鄰","STREET":" ","SECT":" ","MAREA":"溪州","LANE":" ","ALLEY":" ","HOUSE_NO":"２號之１","E_COORD97":166472.41,"N_COORD97":2567220.6400000001,"ADDRESS":"溪州２號之１","OBJECTID":323575},"geometry":{"x":166472.41000000015,"y":2567220.6399999987}},{"attributes":{"ID":323585,"DIS_CODE":0,"TOWNNAME":"歸仁區","LI":"許厝里","LIN":"15鄰","STREET":"中山路","SECT":"一段","MAREA":" ","LANE":"３８２巷","ALLEY":" ","HOUSE_NO":"９號","E_COORD97":178165.14999999999,"N_COORD97":2540740.27,"ADDRESS":"中山路一段３８２巷９號","OBJECTID":323576},"geometry":{"x":178165.15000000224,"y":2540740.2700000033}},{"attributes":{"ID":323586,"DIS_CODE":0,"TOWNNAME":"歸仁區","LI":"許厝里","LIN":"15鄰","STREET":"中山路","SECT":"一段","MAREA":" ","LANE":"３８２巷","ALLEY":" ","HOUSE_NO":"６號","E_COORD97":178220.70999999999,"N_COORD97":2540746.5600000001,"ADDRESS":"中山路一段３８２巷６號","OBJECTID":323577},"geometry":{"x":178220.71000000089,"y":2540746.5600000024}},{"attributes":{"ID":323587,"DIS_CODE":0,"TOWNNAME":"歸仁區","LI":"許厝里","LIN":"15鄰","STREET":"中山路","SECT":"一段","MAREA":" ","LANE":"３８２巷","ALLEY":" ","HOUSE_NO":"１號","E_COORD97":178209.31,"N_COORD97":2540733.5600000001,"ADDRESS":"中山路一段３８２巷１號","OBJECTID":323578},"geometry":{"x":178209.31000000052,"y":2540733.5600000024}},{"attributes":{"ID":323588,"DIS_CODE":0,"TOWNNAME":"歸仁區","LI":"許厝里","LIN":"15鄰","STREET":"中山路","SECT":"一段","MAREA":" ","LANE":"３８２巷","ALLEY":" ","HOUSE_NO":"１１號","E_COORD97":178164.5,"N_COORD97":2540753.27,"ADDRESS":"中山路一段３８２巷１１號","OBJECTID":323579},"geometry":{"x":178164.50000000093,"y":2540753.2699999996}},{"attributes":{"ID":323589,"DIS_CODE":0,"TOWNNAME":"歸仁區","LI":"看西里","LIN":"15鄰","STREET":"成功路","SECT":"一段","MAREA":" ","LANE":"２５０巷","ALLEY":" ","HOUSE_NO":"１５號","E_COORD97":178371.85999999999,"N_COORD97":2540103.1200000001,"ADDRESS":"成功路一段２５０巷１５號","OBJECTID":323580},"geometry":{"x":178371.86000000034,"y":2540103.1200000029}},{"attributes":{"ID":323590,"DIS_CODE":0,"TOWNNAME":"歸仁區","LI":"新厝里","LIN":"15鄰","STREET":"中正南路","SECT":"一段","MAREA":" ","LANE":"１３１巷","ALLEY":" ","HOUSE_NO":"５號","E_COORD97":177521.10999999999,"N_COORD97":2540430.7400000002,"ADDRESS":"中正南路一段１３１巷５號","OBJECTID":323581},"geometry":{"x":177521.1099999994,"y":2540430.7400000021}},{"attributes":{"ID":323591,"DIS_CODE":0,"TOWNNAME":"佳里區","LI":"忠仁里","LIN":"4鄰","STREET":"興中街","SECT":" ","MAREA":" ","LANE":"７１巷","ALLEY":" ","HOUSE_NO":"１５號","E_COORD97":165845.19,"N_COORD97":2562156.1299999999,"ADDRESS":"興中街７１巷１５號","OBJECTID":323582},"geometry":{"x":165845.19000000041,"y":2562156.129999999}},{"attributes":{"ID":323592,"DIS_CODE":0,"TOWNNAME":"歸仁區","LI":"媽廟里","LIN":"15鄰","STREET":"媽廟二街","SECT":" ","MAREA":" ","LANE":" ","ALLEY":" ","HOUSE_NO":"２３號","E_COORD97":177689.08988099999,"N_COORD97":2543737.3281899998,"ADDRESS":"媽廟二街２３號","OBJECTID":323583},"geometry":{"x":177689.08988100104,"y":2543737.3281930014}},{"attributes":{"ID":323593,"DIS_CODE":0,"TOWNNAME":"歸仁區","LI":"歸南里","LIN":"15鄰","STREET":"民生十一街","SECT":" ","MAREA":" ","LANE":"３１巷","ALLEY":" ","HOUSE_NO":"１５號","E_COORD97":176167.70999999999,"N_COORD97":2539773.25,"ADDRESS":"民生十一街３１巷１５號","OBJECTID":323584},"geometry":{"x":176167.71000000089,"y":2539773.25}},{"attributes":{"ID":323594,"DIS_CODE":0,"TOWNNAME":"歸仁區","LI":"許厝里","LIN":"15鄰","STREET":"中山路","SECT":"一段","MAREA":" ","LANE":"３８２巷","ALLEY":" ","HOUSE_NO":"３號","E_COORD97":178197.10999999999,"N_COORD97":2540742.5600000001,"ADDRESS":"中山路一段３８２巷３號","OBJECTID":323585},"geometry":{"x":178197.11000000034,"y":2540742.5600000042}},{"attributes":{"ID":323595,"DIS_CODE":0,"TOWNNAME":"歸仁區","LI":"歸仁里","LIN":"15鄰","STREET":"信義北路","SECT":" ","MAREA":" ","LANE":"９６巷","ALLEY":" ","HOUSE_NO":"２２號","E_COORD97":178034.92000000001,"N_COORD97":2541026.1099999999,"ADDRESS":"信義北路９６巷２２號","OBJECTID":323586},"geometry":{"x":178034.91999999993,"y":2541026.1100000013}},{"attributes":{"ID":323596,"DIS_CODE":0,"TOWNNAME":"歸仁區","LI":"看西里","LIN":"15鄰","STREET":"成功六街","SECT":" ","MAREA":" ","LANE":"１３巷","ALLEY":" ","HOUSE_NO":"１１號","E_COORD97":178369.45999999999,"N_COORD97":2540121.1099999999,"ADDRESS":"成功六街１３巷１１號","OBJECTID":323587},"geometry":{"x":178369.46000000183,"y":2540121.1100000013}},{"attributes":{"ID":323597,"DIS_CODE":0,"TOWNNAME":"北區","LI":"賢北里","LIN":"15鄰","STREET":"大興街","SECT":" ","MAREA":" ","LANE":"５３３巷","ALLEY":" ","HOUSE_NO":"１０號","E_COORD97":166086.32000000001,"N_COORD97":2545446.2599999998,"ADDRESS":"大興街５３３巷１０號","OBJECTID":323588},"geometry":{"x":166086.32000000123,"y":2545446.2600000035}},{"attributes":{"ID":323598,"DIS_CODE":0,"TOWNNAME":"南區","LI":"彰南里","LIN":"17鄰","STREET":"新義南路","SECT":" ","MAREA":" ","LANE":" ","ALLEY":" ","HOUSE_NO":"３３號","E_COORD97":165760.17999999999,"N_COORD97":2541025.98,"ADDRESS":"新義南路３３號","OBJECTID":323589},"geometry":{"x":165760.1799999997,"y":2541025.9800000023}},{"attributes":{"ID":323599,"DIS_CODE":0,"TOWNNAME":"北區","LI":"賢北里","LIN":"15鄰","STREET":"大興街","SECT":" ","MAREA":" ","LANE":"５３３巷","ALLEY":" ","HOUSE_NO":"１１號","E_COORD97":166082.29999999999,"N_COORD97":2545443.48,"ADDRESS":"大興街５３３巷１１號","OBJECTID":323590},"geometry":{"x":166082.30000000075,"y":2545443.4800000023}},{"attributes":{"ID":323600,"DIS_CODE":0,"TOWNNAME":"北區","LI":"賢北里","LIN":"15鄰","STREET":"大興街","SECT":" ","MAREA":" ","LANE":"５３３巷","ALLEY":" ","HOUSE_NO":"１２號","E_COORD97":166078.28,"N_COORD97":2545441.9300000002,"ADDRESS":"大興街５３３巷１２號","OBJECTID":323591},"geometry":{"x":166078.28000000119,"y":2545441.9300000016}},{"attributes":{"ID":323601,"DIS_CODE":0,"TOWNNAME":"北區","LI":"賢北里","LIN":"15鄰","STREET":"大興街","SECT":" ","MAREA":" ","LANE":"５３３巷","ALLEY":" ","HOUSE_NO":"１３號","E_COORD97":166074.26000000001,"N_COORD97":2545439.77,"ADDRESS":"大興街５３３巷１３號","OBJECTID":323592},"geometry":{"x":166074.26000000071,"y":2545439.7700000014}},{"attributes":{"ID":323602,"DIS_CODE":0,"TOWNNAME":"佳里區","LI":"營頂里","LIN":"1鄰","STREET":" ","SECT":" ","MAREA":"營頂","LANE":" ","ALLEY":" ","HOUSE_NO":"１號","E_COORD97":166945.26000000001,"N_COORD97":2566350.27,"ADDRESS":"營頂１號","OBJECTID":323593},"geometry":{"x":166945.26000000071,"y":2566350.2699999996}},{"attributes":{"ID":323603,"DIS_CODE":0,"TOWNNAME":"佳里區","LI":"營頂里","LIN":"4鄰","STREET":" ","SECT":" ","MAREA":"營頂","LANE":" ","ALLEY":" ","HOUSE_NO":"３７號之１","E_COORD97":166917.76999999999,"N_COORD97":2566685.6699999999,"ADDRESS":"營頂３７號之１","OBJECTID":323594},"geometry":{"x":166917.77000000048,"y":2566685.6700000018}},{"attributes":{"ID":323604,"DIS_CODE":0,"TOWNNAME":"佳里區","LI":"營頂里","LIN":"4鄰","STREET":" ","SECT":" ","MAREA":"營頂","LANE":" ","ALLEY":" ","HOUSE_NO":"３７號","E_COORD97":166919.12,"N_COORD97":2566696.3100000001,"ADDRESS":"營頂３７號","OBJECTID":323595},"geometry":{"x":166919.12000000197,"y":2566696.3100000005}},{"attributes":{"ID":323605,"DIS_CODE":0,"TOWNNAME":"佳里區","LI":"營頂里","LIN":"4鄰","STREET":" ","SECT":" ","MAREA":"營頂","LANE":" ","ALLEY":" ","HOUSE_NO":"３８號之１","E_COORD97":166899.03,"N_COORD97":2566724.3199999998,"ADDRESS":"營頂３８號之１","OBJECTID":323596},"geometry":{"x":166899.03000000026,"y":2566724.320000004}},{"attributes":{"ID":323606,"DIS_CODE":0,"TOWNNAME":"北區","LI":"賢北里","LIN":"15鄰","STREET":"大興街","SECT":" ","MAREA":" ","LANE":"５３３巷","ALLEY":" ","HOUSE_NO":"１４號","E_COORD97":166069.29999999999,"N_COORD97":2545438.5299999998,"ADDRESS":"大興街５３３巷１４號","OBJECTID":323597},"geometry":{"x":166069.29999999981,"y":2545438.5300000012}},{"attributes":{"ID":323607,"DIS_CODE":0,"TOWNNAME":"佳里區","LI":"營頂里","LIN":"4鄰","STREET":" ","SECT":" ","MAREA":"營頂","LANE":" ","ALLEY":" ","HOUSE_NO":"３８號之２０","E_COORD97":166698.56,"N_COORD97":2566889.1800000002,"ADDRESS":"營頂３８號之２０","OBJECTID":323598},"geometry":{"x":166698.55999999866,"y":2566889.1799999997}},{"attributes":{"ID":323608,"DIS_CODE":0,"TOWNNAME":"南區","LI":"彰南里","LIN":"17鄰","STREET":"新義南路","SECT":" ","MAREA":" ","LANE":" ","ALLEY":" ","HOUSE_NO":"１７號","E_COORD97":165974.57000000001,"N_COORD97":2541024.2400000002,"ADDRESS":"新義南路１７號","OBJECTID":323599},"geometry":{"x":165974.57000000123,"y":2541024.2400000002}},{"attributes":{"ID":323609,"DIS_CODE":0,"TOWNNAME":"佳里區","LI":"營頂里","LIN":"4鄰","STREET":" ","SECT":" ","MAREA":"營頂","LANE":" ","ALLEY":" ","HOUSE_NO":"３８號之２","E_COORD97":166915.88,"N_COORD97":2566667.9700000002,"ADDRESS":"營頂３８號之２","OBJECTID":323600},"geometry":{"x":166915.88000000082,"y":2566667.9700000007}}]}