{"displayFieldName":"TOWNNAME","fieldAliases":{"ID":"ID","DIS_CODE":"DIS_CODE","TOWNNAME":"TOWNNAME","LI":"LI","LIN":"LIN","STREET":"STREET","SECT":"SECT","MAREA":"MAREA","LANE":"LANE","ALLEY":"ALLEY","HOUSE_NO":"HOUSE_NO","E_COORD97":"E_COORD97","N_COORD97":"N_COORD97","ADDRESS":"ADDRESS","OBJECTID":"OBJECTID"},"geometryType":"esriGeometryPoint","spatialReference":{"wkid":102443,"latestWkid":3826},"fields":[{"name":"ID","type":"esriFieldTypeDouble","alias":"ID"},{"name":"DIS_CODE","type":"esriFieldTypeInteger","alias":"DIS_CODE"},{"name":"TOWNNAME","type":"esriFieldTypeString","alias":"TOWNNAME","length":8},{"name":"LI","type":"esriFieldTypeString","alias":"LI","length":8},{"name":"LIN","type":"esriFieldTypeString","alias":"LIN","length":12},{"name":"STREET","type":"esriFieldTypeString","alias":"STREET","length":20},{"name":"SECT","type":"esriFieldTypeString","alias":"SECT","length":8},{"name":"MAREA","type":"esriFieldTypeString","alias":"MAREA","length":12},{"name":"LANE","type":"esriFieldTypeString","alias":"LANE","length":10},{"name":"ALLEY","type":"esriFieldTypeString","alias":"ALLEY","length":10},{"name":"HOUSE_NO","type":"esriFieldTypeString","alias":"HOUSE_NO","length":20},{"name":"E_COORD97","type":"esriFieldTypeDouble","alias":"E_COORD97"},{"name":"N_COORD97","type":"esriFieldTypeDouble","alias":"N_COORD97"},{"name":"ADDRESS","type":"esriFieldTypeString","alias":"ADDRESS","length":50},{"name":"OBJECTID","type":"esriFieldTypeOID","alias":"OBJECTID"}],"features":[{"attributes":{"ID":494628,"DIS_CODE":0,"TOWNNAME":"北區","LI":"裕民里","LIN":"8鄰","STREET":"臨安路","SECT":"二段","MAREA":" ","LANE":" ","ALLEY":" ","HOUSE_NO":"３０號","E_COORD97":167577.66,"N_COORD97":2544767.54,"ADDRESS":"臨安路二段３０號","OBJECTID":494601},"geometry":{"x":167577.66000000015,"y":2544767.5399999991}},{"attributes":{"ID":494629,"DIS_CODE":0,"TOWNNAME":"北區","LI":"裕民里","LIN":"8鄰","STREET":"臨安路","SECT":"二段","MAREA":" ","LANE":" ","ALLEY":" ","HOUSE_NO":"３８號","E_COORD97":167590.67999999999,"N_COORD97":2544774.6400000001,"ADDRESS":"臨安路二段３８號","OBJECTID":494602},"geometry":{"x":167590.6799999997,"y":2544774.6400000025}},{"attributes":{"ID":494630,"DIS_CODE":0,"TOWNNAME":"北區","LI":"公園里","LIN":"8鄰","STREET":"富北街","SECT":" ","MAREA":" ","LANE":" ","ALLEY":" ","HOUSE_NO":"７１號","E_COORD97":169169.29000000001,"N_COORD97":2544446.23,"ADDRESS":"富北街７１號","OBJECTID":494603},"geometry":{"x":169169.2900000019,"y":2544446.2300000004}},{"attributes":{"ID":494631,"DIS_CODE":0,"TOWNNAME":"鹽水區","LI":"橋南里","LIN":"8鄰","STREET":"忠孝路","SECT":" ","MAREA":" ","LANE":" ","ALLEY":" ","HOUSE_NO":"１４０號","E_COORD97":175368,"N_COORD97":2578958.21,"ADDRESS":"忠孝路１４０號","OBJECTID":494604},"geometry":{"x":175368,"y":2578958.2100000046}},{"attributes":{"ID":494632,"DIS_CODE":0,"TOWNNAME":"鹽水區","LI":"橋南里","LIN":"8鄰","STREET":"忠孝路","SECT":" ","MAREA":" ","LANE":" ","ALLEY":" ","HOUSE_NO":"１４２號","E_COORD97":175364.31,"N_COORD97":2578957.75,"ADDRESS":"忠孝路１４２號","OBJECTID":494605},"geometry":{"x":175364.30999999959,"y":2578957.7500000019}},{"attributes":{"ID":494633,"DIS_CODE":0,"TOWNNAME":"鹽水區","LI":"橋南里","LIN":"8鄰","STREET":"忠孝路","SECT":" ","MAREA":" ","LANE":" ","ALLEY":" ","HOUSE_NO":"１４６號","E_COORD97":175355.72,"N_COORD97":2578955.75,"ADDRESS":"忠孝路１４６號","OBJECTID":494606},"geometry":{"x":175355.72000000067,"y":2578955.75}},{"attributes":{"ID":494634,"DIS_CODE":0,"TOWNNAME":"鹽水區","LI":"橋南里","LIN":"8鄰","STREET":"忠孝路","SECT":" ","MAREA":" ","LANE":" ","ALLEY":" ","HOUSE_NO":"１６６號","E_COORD97":175287.45999999999,"N_COORD97":2578967.6000000001,"ADDRESS":"忠孝路１６６號","OBJECTID":494607},"geometry":{"x":175287.45999999903,"y":2578967.5999999978}},{"attributes":{"ID":494635,"DIS_CODE":0,"TOWNNAME":"鹽水區","LI":"橋南里","LIN":"8鄰","STREET":"忠孝路","SECT":" ","MAREA":" ","LANE":" ","ALLEY":" ","HOUSE_NO":"２０３號","E_COORD97":175367.53,"N_COORD97":2578919.02,"ADDRESS":"忠孝路２０３號","OBJECTID":494608},"geometry":{"x":175367.53000000119,"y":2578919.0200000014}},{"attributes":{"ID":494636,"DIS_CODE":0,"TOWNNAME":"鹽水區","LI":"橋南里","LIN":"8鄰","STREET":"忠孝路","SECT":" ","MAREA":" ","LANE":" ","ALLEY":" ","HOUSE_NO":"２１２號","E_COORD97":174968.45999999999,"N_COORD97":2579009.6400000001,"ADDRESS":"忠孝路２１２號","OBJECTID":494609},"geometry":{"x":174968.45999999996,"y":2579009.6400000025}},{"attributes":{"ID":494637,"DIS_CODE":0,"TOWNNAME":"鹽水區","LI":"橋南里","LIN":"8鄰","STREET":"忠孝路","SECT":" ","MAREA":" ","LANE":" ","ALLEY":" ","HOUSE_NO":"２１５號","E_COORD97":175336.04999999999,"N_COORD97":2578912.73,"ADDRESS":"忠孝路２１５號","OBJECTID":494610},"geometry":{"x":175336.05000000168,"y":2578912.7300000004}},{"attributes":{"ID":494638,"DIS_CODE":0,"TOWNNAME":"鹽水區","LI":"橋南里","LIN":"8鄰","STREET":"忠孝路","SECT":" ","MAREA":" ","LANE":" ","ALLEY":" ","HOUSE_NO":"２１７號","E_COORD97":175330.70000000001,"N_COORD97":2578911.2400000002,"ADDRESS":"忠孝路２１７號","OBJECTID":494611},"geometry":{"x":175330.70000000112,"y":2578911.2400000021}},{"attributes":{"ID":494639,"DIS_CODE":0,"TOWNNAME":"鹽水區","LI":"橋南里","LIN":"8鄰","STREET":"忠孝路","SECT":" ","MAREA":" ","LANE":" ","ALLEY":" ","HOUSE_NO":"２１９號","E_COORD97":175325.97,"N_COORD97":2578910.3599999999,"ADDRESS":"忠孝路２１９號","OBJECTID":494612},"geometry":{"x":175325.96999999974,"y":2578910.3599999994}},{"attributes":{"ID":494640,"DIS_CODE":0,"TOWNNAME":"鹽水區","LI":"橋南里","LIN":"8鄰","STREET":"忠孝路","SECT":" ","MAREA":" ","LANE":" ","ALLEY":" ","HOUSE_NO":"２２１號","E_COORD97":175320.23999999999,"N_COORD97":2578909.2400000002,"ADDRESS":"忠孝路２２１號","OBJECTID":494613},"geometry":{"x":175320.24000000115,"y":2578909.2400000002}},{"attributes":{"ID":494641,"DIS_CODE":0,"TOWNNAME":"鹽水區","LI":"橋南里","LIN":"8鄰","STREET":"忠孝路","SECT":" ","MAREA":" ","LANE":" ","ALLEY":" ","HOUSE_NO":"３２１號","E_COORD97":175140.14000000001,"N_COORD97":2578900.3399999999,"ADDRESS":"忠孝路３２１號","OBJECTID":494614},"geometry":{"x":175140.13999999873,"y":2578900.3399999999}},{"attributes":{"ID":494642,"DIS_CODE":0,"TOWNNAME":"鹽水區","LI":"武廟里","LIN":"8鄰","STREET":"武廟路","SECT":" ","MAREA":" ","LANE":" ","ALLEY":" ","HOUSE_NO":"４３號","E_COORD97":174896.14000000001,"N_COORD97":2580131.79,"ADDRESS":"武廟路４３號","OBJECTID":494615},"geometry":{"x":174896.14000000153,"y":2580131.7899999991}},{"attributes":{"ID":494643,"DIS_CODE":0,"TOWNNAME":"鹽水區","LI":"三生里","LIN":"8鄰","STREET":"忠義路","SECT":" ","MAREA":" ","LANE":" ","ALLEY":" ","HOUSE_NO":"２號之１１","E_COORD97":175190.98999999999,"N_COORD97":2580117.3799999999,"ADDRESS":"忠義路２號之１１","OBJECTID":494616},"geometry":{"x":175190.99000000209,"y":2580117.379999999}},{"attributes":{"ID":494644,"DIS_CODE":0,"TOWNNAME":"鹽水區","LI":"三生里","LIN":"8鄰","STREET":"忠義路","SECT":" ","MAREA":" ","LANE":" ","ALLEY":" ","HOUSE_NO":"２號之１２","E_COORD97":175186.62,"N_COORD97":2580116.71,"ADDRESS":"忠義路２號之１２","OBJECTID":494617},"geometry":{"x":175186.62000000197,"y":2580116.7100000009}},{"attributes":{"ID":494645,"DIS_CODE":0,"TOWNNAME":"鹽水區","LI":"三生里","LIN":"8鄰","STREET":"忠義路","SECT":" ","MAREA":" ","LANE":" ","ALLEY":" ","HOUSE_NO":"２號之１３","E_COORD97":175182.17999999999,"N_COORD97":2580115.8100000001,"ADDRESS":"忠義路２號之１３","OBJECTID":494618},"geometry":{"x":175182.1799999997,"y":2580115.8100000005}},{"attributes":{"ID":494646,"DIS_CODE":0,"TOWNNAME":"鹽水區","LI":"三生里","LIN":"8鄰","STREET":"忠義路","SECT":" ","MAREA":" ","LANE":" ","ALLEY":" ","HOUSE_NO":"２號之１４","E_COORD97":175177.67999999999,"N_COORD97":2580115.1000000001,"ADDRESS":"忠義路２號之１４","OBJECTID":494619},"geometry":{"x":175177.68000000063,"y":2580115.1000000015}},{"attributes":{"ID":494647,"DIS_CODE":0,"TOWNNAME":"鹽水區","LI":"三生里","LIN":"8鄰","STREET":"忠義路","SECT":" ","MAREA":" ","LANE":" ","ALLEY":" ","HOUSE_NO":"２號之１５","E_COORD97":175173.06,"N_COORD97":2580114.2000000002,"ADDRESS":"忠義路２號之１５","OBJECTID":494620},"geometry":{"x":175173.06000000052,"y":2580114.2000000011}},{"attributes":{"ID":494648,"DIS_CODE":0,"TOWNNAME":"鹽水區","LI":"三生里","LIN":"8鄰","STREET":"忠義路","SECT":" ","MAREA":" ","LANE":" ","ALLEY":" ","HOUSE_NO":"２號之１６","E_COORD97":175168.41,"N_COORD97":2580113.46,"ADDRESS":"忠義路２號之１６","OBJECTID":494621},"geometry":{"x":175168.41000000108,"y":2580113.4600000028}},{"attributes":{"ID":494649,"DIS_CODE":0,"TOWNNAME":"鹽水區","LI":"三生里","LIN":"8鄰","STREET":"忠義路","SECT":" ","MAREA":" ","LANE":" ","ALLEY":" ","HOUSE_NO":"２號之１７","E_COORD97":175163.91,"N_COORD97":2580112.6600000001,"ADDRESS":"忠義路２號之１７","OBJECTID":494622},"geometry":{"x":175163.91000000015,"y":2580112.6600000001}},{"attributes":{"ID":494650,"DIS_CODE":0,"TOWNNAME":"鹽水區","LI":"三生里","LIN":"8鄰","STREET":"忠義路","SECT":" ","MAREA":" ","LANE":" ","ALLEY":" ","HOUSE_NO":"２之１８號","E_COORD97":175158.75,"N_COORD97":2580112.0699999998,"ADDRESS":"忠義路２之１８號","OBJECTID":494623},"geometry":{"x":175158.75000000093,"y":2580112.0700000022}},{"attributes":{"ID":494651,"DIS_CODE":0,"TOWNNAME":"鹽水區","LI":"三生里","LIN":"8鄰","STREET":"忠義路","SECT":" ","MAREA":" ","LANE":" ","ALLEY":" ","HOUSE_NO":"２號之１８","E_COORD97":175158.75,"N_COORD97":2580112.0699999998,"ADDRESS":"忠義路２號之１８","OBJECTID":494624},"geometry":{"x":175158.75000000093,"y":2580112.0700000022}},{"attributes":{"ID":494652,"DIS_CODE":0,"TOWNNAME":"鹽水區","LI":"三生里","LIN":"8鄰","STREET":"忠義路","SECT":" ","MAREA":" ","LANE":" ","ALLEY":" ","HOUSE_NO":"３號","E_COORD97":175179.29000000001,"N_COORD97":2580159.1499999999,"ADDRESS":"忠義路３號","OBJECTID":494625},"geometry":{"x":175179.29000000097,"y":2580159.1500000022}},{"attributes":{"ID":494653,"DIS_CODE":0,"TOWNNAME":"鹽水區","LI":"武廟里","LIN":"8鄰","STREET":"武廟路","SECT":" ","MAREA":" ","LANE":" ","ALLEY":" ","HOUSE_NO":"４５號","E_COORD97":174896.32000000001,"N_COORD97":2580137.1600000001,"ADDRESS":"武廟路４５號","OBJECTID":494626},"geometry":{"x":174896.32000000123,"y":2580137.1600000001}},{"attributes":{"ID":494654,"DIS_CODE":0,"TOWNNAME":"安平區","LI":"石門里","LIN":"8鄰","STREET":"安北路","SECT":" ","MAREA":" ","LANE":" ","ALLEY":" ","HOUSE_NO":"４２號","E_COORD97":164581.98999999999,"N_COORD97":2544604.52,"ADDRESS":"安北路４２號","OBJECTID":494627},"geometry":{"x":164581.99000000022,"y":2544604.5200000014}},{"attributes":{"ID":494655,"DIS_CODE":0,"TOWNNAME":"安平區","LI":"石門里","LIN":"8鄰","STREET":"安北路","SECT":" ","MAREA":" ","LANE":" ","ALLEY":" ","HOUSE_NO":"１０６號","E_COORD97":164420.20999999999,"N_COORD97":2544749.8700000001,"ADDRESS":"安北路１０６號","OBJECTID":494628},"geometry":{"x":164420.21000000089,"y":2544749.8700000029}},{"attributes":{"ID":494656,"DIS_CODE":0,"TOWNNAME":"安平區","LI":"石門里","LIN":"8鄰","STREET":"安北路","SECT":" ","MAREA":" ","LANE":" ","ALLEY":" ","HOUSE_NO":"１１６號","E_COORD97":164356.98999999999,"N_COORD97":2544792.9700000002,"ADDRESS":"安北路１１６號","OBJECTID":494629},"geometry":{"x":164356.99000000209,"y":2544792.9700000025}},{"attributes":{"ID":494657,"DIS_CODE":0,"TOWNNAME":"安平區","LI":"石門里","LIN":"8鄰","STREET":"安北路","SECT":" ","MAREA":" ","LANE":" ","ALLEY":" ","HOUSE_NO":"３６號之９","E_COORD97":164640.85999999999,"N_COORD97":2544547.7599999998,"ADDRESS":"安北路３６號之９","OBJECTID":494630},"geometry":{"x":164640.86000000034,"y":2544547.7600000035}},{"attributes":{"ID":494658,"DIS_CODE":0,"TOWNNAME":"安南區","LI":"總頭里","LIN":"6鄰","STREET":"長溪路","SECT":"二段","MAREA":" ","LANE":"５７０巷","ALLEY":"８１弄","HOUSE_NO":"３６０號之２","E_COORD97":168854.00179000001,"N_COORD97":2550582.3637600001,"ADDRESS":"長溪路二段５７０巷８１弄３６０號之２","OBJECTID":494631},"geometry":{"x":168854.00179000013,"y":2550582.363756001}},{"attributes":{"ID":494659,"DIS_CODE":0,"TOWNNAME":"永康區","LI":"\u25A0洲里","LIN":"6鄰","STREET":"三村二街","SECT":" ","MAREA":" ","LANE":"１２巷","ALLEY":"１弄","HOUSE_NO":"３號","E_COORD97":171980.29000000001,"N_COORD97":2549443,"ADDRESS":"三村二街１２巷１弄３號","OBJECTID":494632},"geometry":{"x":171980.29000000097,"y":2549443.0000000019}},{"attributes":{"ID":494660,"DIS_CODE":0,"TOWNNAME":"北區","LI":"大和里","LIN":"8鄰","STREET":"文賢路","SECT":" ","MAREA":" ","LANE":" ","ALLEY":" ","HOUSE_NO":"７５１號","E_COORD97":167327.87,"N_COORD97":2546203.0499999998,"ADDRESS":"文賢路７５１號","OBJECTID":494633},"geometry":{"x":167327.87000000104,"y":2546203.0500000007}},{"attributes":{"ID":494661,"DIS_CODE":0,"TOWNNAME":"北區","LI":"大和里","LIN":"8鄰","STREET":"文賢路","SECT":" ","MAREA":" ","LANE":" ","ALLEY":" ","HOUSE_NO":"７５３號","E_COORD97":167327.09,"N_COORD97":2546206.7000000002,"ADDRESS":"文賢路７５３號","OBJECTID":494634},"geometry":{"x":167327.08999999985,"y":2546206.7000000011}},{"attributes":{"ID":494662,"DIS_CODE":0,"TOWNNAME":"北區","LI":"大和里","LIN":"8鄰","STREET":"文賢路","SECT":" ","MAREA":" ","LANE":" ","ALLEY":" ","HOUSE_NO":"７５５號","E_COORD97":167326.32000000001,"N_COORD97":2546209.79,"ADDRESS":"文賢路７５５號","OBJECTID":494635},"geometry":{"x":167326.3200000003,"y":2546209.790000001}},{"attributes":{"ID":494663,"DIS_CODE":0,"TOWNNAME":"北區","LI":"大和里","LIN":"8鄰","STREET":"文賢路","SECT":" ","MAREA":" ","LANE":" ","ALLEY":" ","HOUSE_NO":"７５７號","E_COORD97":167325.89999999999,"N_COORD97":2546214.23,"ADDRESS":"文賢路７５７號","OBJECTID":494636},"geometry":{"x":167325.90000000037,"y":2546214.2300000023}},{"attributes":{"ID":494664,"DIS_CODE":0,"TOWNNAME":"北區","LI":"大和里","LIN":"8鄰","STREET":"文賢路","SECT":" ","MAREA":" ","LANE":" ","ALLEY":" ","HOUSE_NO":"７６１號","E_COORD97":167324.05418000001,"N_COORD97":2546219.4907399998,"ADDRESS":"文賢路７６１號","OBJECTID":494637},"geometry":{"x":167324.05418000091,"y":2546219.4907410014}},{"attributes":{"ID":494665,"DIS_CODE":0,"TOWNNAME":"北區","LI":"大和里","LIN":"8鄰","STREET":"文賢路","SECT":" ","MAREA":" ","LANE":" ","ALLEY":" ","HOUSE_NO":"７６３號","E_COORD97":167323.63059300001,"N_COORD97":2546224.99407,"ADDRESS":"文賢路７６３號","OBJECTID":494638},"geometry":{"x":167323.63059299998,"y":2546224.9940709993}},{"attributes":{"ID":494666,"DIS_CODE":0,"TOWNNAME":"北區","LI":"大和里","LIN":"8鄰","STREET":"文賢路","SECT":" ","MAREA":" ","LANE":" ","ALLEY":" ","HOUSE_NO":"７６５號","E_COORD97":167322.35983299999,"N_COORD97":2546230.0740700001,"ADDRESS":"文賢路７６５號","OBJECTID":494639},"geometry":{"x":167322.35983300023,"y":2546230.0740680024}},{"attributes":{"ID":494667,"DIS_CODE":0,"TOWNNAME":"北區","LI":"大和里","LIN":"8鄰","STREET":"文賢路","SECT":" ","MAREA":" ","LANE":" ","ALLEY":" ","HOUSE_NO":"７６９號","E_COORD97":167320.07000000001,"N_COORD97":2546237.8599999999,"ADDRESS":"文賢路７６９號","OBJECTID":494640},"geometry":{"x":167320.07000000123,"y":2546237.8599999994}},{"attributes":{"ID":494668,"DIS_CODE":0,"TOWNNAME":"北區","LI":"大和里","LIN":"8鄰","STREET":"文賢路","SECT":" ","MAREA":" ","LANE":" ","ALLEY":" ","HOUSE_NO":"７８９號","E_COORD97":167314.099892,"N_COORD97":2546283.8373699998,"ADDRESS":"文賢路７８９號","OBJECTID":494641},"geometry":{"x":167314.09989199974,"y":2546283.8373720013}},{"attributes":{"ID":494669,"DIS_CODE":0,"TOWNNAME":"北區","LI":"大和里","LIN":"8鄰","STREET":"文賢路","SECT":" ","MAREA":" ","LANE":" ","ALLEY":" ","HOUSE_NO":"７９１號","E_COORD97":167313.46451200001,"N_COORD97":2546286.8007,"ADDRESS":"文賢路７９１號","OBJECTID":494642},"geometry":{"x":167313.46451199986,"y":2546286.8007039987}},{"attributes":{"ID":494670,"DIS_CODE":0,"TOWNNAME":"北區","LI":"大和里","LIN":"8鄰","STREET":"文賢路","SECT":" ","MAREA":" ","LANE":" ","ALLEY":" ","HOUSE_NO":"７９３號","E_COORD97":167313.888098,"N_COORD97":2546289.5523700002,"ADDRESS":"文賢路７９３號","OBJECTID":494643},"geometry":{"x":167313.88809799962,"y":2546289.5523690004}},{"attributes":{"ID":494671,"DIS_CODE":0,"TOWNNAME":"關廟區","LI":"五甲里","LIN":"8鄰","STREET":"五慧街","SECT":" ","MAREA":" ","LANE":" ","ALLEY":" ","HOUSE_NO":"６１號","E_COORD97":181141.12,"N_COORD97":2539246.25,"ADDRESS":"五慧街６１號","OBJECTID":494644},"geometry":{"x":181141.12000000011,"y":2539246.2500000019}},{"attributes":{"ID":494672,"DIS_CODE":0,"TOWNNAME":"關廟區","LI":"關廟里","LIN":"8鄰","STREET":"民生街","SECT":" ","MAREA":" ","LANE":" ","ALLEY":" ","HOUSE_NO":"１０６號","E_COORD97":180908.59,"N_COORD97":2539703.29,"ADDRESS":"民生街１０６號","OBJECTID":494645},"geometry":{"x":180908.59000000078,"y":2539703.290000001}},{"attributes":{"ID":494673,"DIS_CODE":0,"TOWNNAME":"關廟區","LI":"五甲里","LIN":"8鄰","STREET":"五慧街","SECT":" ","MAREA":" ","LANE":" ","ALLEY":" ","HOUSE_NO":"５０號","E_COORD97":181153.42000000001,"N_COORD97":2539260.25,"ADDRESS":"五慧街５０號","OBJECTID":494646},"geometry":{"x":181153.42000000086,"y":2539260.2500000019}},{"attributes":{"ID":494674,"DIS_CODE":0,"TOWNNAME":"關廟區","LI":"松腳里","LIN":"8鄰","STREET":"四維街","SECT":" ","MAREA":" ","LANE":" ","ALLEY":" ","HOUSE_NO":"１５９號","E_COORD97":181861.56,"N_COORD97":2539830.25,"ADDRESS":"四維街１５９號","OBJECTID":494647},"geometry":{"x":181861.55999999959,"y":2539830.2500000019}},{"attributes":{"ID":494675,"DIS_CODE":0,"TOWNNAME":"關廟區","LI":"松腳里","LIN":"8鄰","STREET":"四維街","SECT":" ","MAREA":" ","LANE":" ","ALLEY":" ","HOUSE_NO":"１２３號","E_COORD97":181863.95999999999,"N_COORD97":2539754.25,"ADDRESS":"四維街１２３號","OBJECTID":494648},"geometry":{"x":181863.96000000089,"y":2539754.2500000037}},{"attributes":{"ID":494676,"DIS_CODE":0,"TOWNNAME":"關廟區","LI":"五甲里","LIN":"8鄰","STREET":"五慧街","SECT":" ","MAREA":" ","LANE":" ","ALLEY":" ","HOUSE_NO":"６３號","E_COORD97":181136.92000000001,"N_COORD97":2539246.25,"ADDRESS":"五慧街６３號","OBJECTID":494649},"geometry":{"x":181136.92000000086,"y":2539246.2500000019}},{"attributes":{"ID":494677,"DIS_CODE":0,"TOWNNAME":"關廟區","LI":"松腳里","LIN":"8鄰","STREET":"四維街","SECT":" ","MAREA":" ","LANE":" ","ALLEY":" ","HOUSE_NO":"１６０號","E_COORD97":181880.45999999999,"N_COORD97":2539772.25,"ADDRESS":"四維街１６０號","OBJECTID":494650},"geometry":{"x":181880.46000000089,"y":2539772.2500000019}},{"attributes":{"ID":494678,"DIS_CODE":0,"TOWNNAME":"關廟區","LI":"五甲里","LIN":"8鄰","STREET":"五慧街","SECT":" ","MAREA":" ","LANE":" ","ALLEY":" ","HOUSE_NO":"７７號","E_COORD97":181099.72,"N_COORD97":2539216.25,"ADDRESS":"五慧街７７號","OBJECTID":494651},"geometry":{"x":181099.71999999974,"y":2539216.2500000019}},{"attributes":{"ID":494679,"DIS_CODE":0,"TOWNNAME":"關廟區","LI":"松腳里","LIN":"8鄰","STREET":"四維街","SECT":" ","MAREA":" ","LANE":" ","ALLEY":" ","HOUSE_NO":"１６８號","E_COORD97":181879.66,"N_COORD97":2539779.25,"ADDRESS":"四維街１６８號","OBJECTID":494652},"geometry":{"x":181879.66000000108,"y":2539779.2500000019}},{"attributes":{"ID":494680,"DIS_CODE":0,"TOWNNAME":"關廟區","LI":"新埔里","LIN":"8鄰","STREET":"新埔三街","SECT":" ","MAREA":" ","LANE":" ","ALLEY":" ","HOUSE_NO":"１０６號","E_COORD97":181190.82000000001,"N_COORD97":2541094.25,"ADDRESS":"新埔三街１０６號","OBJECTID":494653},"geometry":{"x":181190.8200000003,"y":2541094.2500000019}},{"attributes":{"ID":494681,"DIS_CODE":0,"TOWNNAME":"關廟區","LI":"關廟里","LIN":"8鄰","STREET":"民生街","SECT":" ","MAREA":" ","LANE":" ","ALLEY":" ","HOUSE_NO":"１１２號","E_COORD97":180903.59,"N_COORD97":2539715.29,"ADDRESS":"民生街１１２號","OBJECTID":494654},"geometry":{"x":180903.58999999985,"y":2539715.2899999972}},{"attributes":{"ID":494682,"DIS_CODE":0,"TOWNNAME":"關廟區","LI":"五甲里","LIN":"8鄰","STREET":"五慧街","SECT":" ","MAREA":" ","LANE":" ","ALLEY":" ","HOUSE_NO":"５５號","E_COORD97":181152.62,"N_COORD97":2539243.25,"ADDRESS":"五慧街５５號","OBJECTID":494655},"geometry":{"x":181152.62000000104,"y":2539243.2500000019}},{"attributes":{"ID":494683,"DIS_CODE":0,"TOWNNAME":"關廟區","LI":"新光里","LIN":"8鄰","STREET":"北寮街","SECT":" ","MAREA":" ","LANE":" ","ALLEY":" ","HOUSE_NO":"１２６號","E_COORD97":184293.17000000001,"N_COORD97":2541913.25,"ADDRESS":"北寮街１２６號","OBJECTID":494656},"geometry":{"x":184293.17000000086,"y":2541913.25}},{"attributes":{"ID":494684,"DIS_CODE":0,"TOWNNAME":"關廟區","LI":"關廟里","LIN":"8鄰","STREET":"大仁街","SECT":" ","MAREA":" ","LANE":" ","ALLEY":" ","HOUSE_NO":"３６７號","E_COORD97":180897.07000000001,"N_COORD97":2539759.25,"ADDRESS":"大仁街３６７號","OBJECTID":494657},"geometry":{"x":180897.07000000123,"y":2539759.25}},{"attributes":{"ID":494685,"DIS_CODE":0,"TOWNNAME":"關廟區","LI":"新光里","LIN":"8鄰","STREET":"北寮街","SECT":" ","MAREA":" ","LANE":" ","ALLEY":" ","HOUSE_NO":"１２０號","E_COORD97":184281.67000000001,"N_COORD97":2541927.25,"ADDRESS":"北寮街１２０號","OBJECTID":494658},"geometry":{"x":184281.66999999993,"y":2541927.2500000037}},{"attributes":{"ID":494686,"DIS_CODE":0,"TOWNNAME":"關廟區","LI":"松腳里","LIN":"8鄰","STREET":"四維街","SECT":" ","MAREA":" ","LANE":" ","ALLEY":" ","HOUSE_NO":"１５２號","E_COORD97":181878.45999999999,"N_COORD97":2539755.25,"ADDRESS":"四維街１５２號","OBJECTID":494659},"geometry":{"x":181878.46000000183,"y":2539755.2500000019}},{"attributes":{"ID":494687,"DIS_CODE":0,"TOWNNAME":"下營區","LI":"仁里里","LIN":"8鄰","STREET":"蚵寮街","SECT":" ","MAREA":" ","LANE":" ","ALLEY":" ","HOUSE_NO":"９號","E_COORD97":174170.41,"N_COORD97":2570306.8599999999,"ADDRESS":"蚵寮街９號","OBJECTID":494660},"geometry":{"x":174170.41000000015,"y":2570306.8600000031}},{"attributes":{"ID":494688,"DIS_CODE":0,"TOWNNAME":"關廟區","LI":"新埔里","LIN":"8鄰","STREET":"新埔三街","SECT":" ","MAREA":" ","LANE":" ","ALLEY":" ","HOUSE_NO":"１１３號","E_COORD97":181194.72,"N_COORD97":2541107.25,"ADDRESS":"新埔三街１１３號","OBJECTID":494661},"geometry":{"x":181194.71999999974,"y":2541107.2500000019}},{"attributes":{"ID":494689,"DIS_CODE":0,"TOWNNAME":"關廟區","LI":"關廟里","LIN":"8鄰","STREET":"民生街","SECT":" ","MAREA":" ","LANE":" ","ALLEY":" ","HOUSE_NO":"１３２號","E_COORD97":180865.59,"N_COORD97":2539767.29,"ADDRESS":"民生街１３２號","OBJECTID":494662},"geometry":{"x":180865.59000000078,"y":2539767.290000001}},{"attributes":{"ID":494690,"DIS_CODE":0,"TOWNNAME":"關廟區","LI":"關廟里","LIN":"8鄰","STREET":"民生街","SECT":" ","MAREA":" ","LANE":" ","ALLEY":" ","HOUSE_NO":"１１０號","E_COORD97":180905.48999999999,"N_COORD97":2539711.29,"ADDRESS":"民生街１１０號","OBJECTID":494663},"geometry":{"x":180905.49000000209,"y":2539711.2899999991}},{"attributes":{"ID":494691,"DIS_CODE":0,"TOWNNAME":"關廟區","LI":"關廟里","LIN":"8鄰","STREET":"民生街","SECT":" ","MAREA":" ","LANE":" ","ALLEY":" ","HOUSE_NO":"１０８號","E_COORD97":180906.98999999999,"N_COORD97":2539707.29,"ADDRESS":"民生街１０８號","OBJECTID":494664},"geometry":{"x":180906.99000000022,"y":2539707.2899999991}},{"attributes":{"ID":494692,"DIS_CODE":0,"TOWNNAME":"關廟區","LI":"關廟里","LIN":"8鄰","STREET":"大仁街","SECT":" ","MAREA":" ","LANE":" ","ALLEY":" ","HOUSE_NO":"３８６號","E_COORD97":180925.47,"N_COORD97":2539759.25,"ADDRESS":"大仁街３８６號","OBJECTID":494665},"geometry":{"x":180925.4700000016,"y":2539759.25}},{"attributes":{"ID":494693,"DIS_CODE":0,"TOWNNAME":"關廟區","LI":"關廟里","LIN":"8鄰","STREET":"大仁街","SECT":" ","MAREA":" ","LANE":" ","ALLEY":" ","HOUSE_NO":"３８８號","E_COORD97":180928.97,"N_COORD97":2539760.25,"ADDRESS":"大仁街３８８號","OBJECTID":494666},"geometry":{"x":180928.9700000016,"y":2539760.25}},{"attributes":{"ID":494694,"DIS_CODE":0,"TOWNNAME":"關廟區","LI":"關廟里","LIN":"8鄰","STREET":"大仁街","SECT":" ","MAREA":" ","LANE":" ","ALLEY":" ","HOUSE_NO":"３６９號","E_COORD97":180900.57000000001,"N_COORD97":2539761.25,"ADDRESS":"大仁街３６９號","OBJECTID":494667},"geometry":{"x":180900.57000000123,"y":2539761.2500000019}},{"attributes":{"ID":494695,"DIS_CODE":0,"TOWNNAME":"關廟區","LI":"松腳里","LIN":"8鄰","STREET":"四維街","SECT":" ","MAREA":" ","LANE":" ","ALLEY":" ","HOUSE_NO":"１４１號","E_COORD97":181863.56,"N_COORD97":2539791.25,"ADDRESS":"四維街１４１號","OBJECTID":494668},"geometry":{"x":181863.55999999959,"y":2539791.2500000037}},{"attributes":{"ID":494696,"DIS_CODE":0,"TOWNNAME":"關廟區","LI":"松腳里","LIN":"8鄰","STREET":"四維街","SECT":" ","MAREA":" ","LANE":" ","ALLEY":" ","HOUSE_NO":"１５７號","E_COORD97":181861.56,"N_COORD97":2539826.25,"ADDRESS":"四維街１５７號","OBJECTID":494669},"geometry":{"x":181861.55999999959,"y":2539826.2500000019}},{"attributes":{"ID":494697,"DIS_CODE":0,"TOWNNAME":"關廟區","LI":"松腳里","LIN":"8鄰","STREET":"四維街","SECT":" ","MAREA":" ","LANE":" ","ALLEY":" ","HOUSE_NO":"１２１號","E_COORD97":181864.26000000001,"N_COORD97":2539748.25,"ADDRESS":"四維街１２１號","OBJECTID":494670},"geometry":{"x":181864.25999999885,"y":2539748.2500000019}},{"attributes":{"ID":494698,"DIS_CODE":0,"TOWNNAME":"關廟區","LI":"埤頭里","LIN":"8鄰","STREET":"保東路","SECT":" ","MAREA":" ","LANE":" ","ALLEY":" ","HOUSE_NO":"６８號","E_COORD97":178919.57000000001,"N_COORD97":2544033.2999999998,"ADDRESS":"保東路６８號","OBJECTID":494671},"geometry":{"x":178919.5700000003,"y":2544033.3000000045}},{"attributes":{"ID":494699,"DIS_CODE":0,"TOWNNAME":"關廟區","LI":"埤頭里","LIN":"8鄰","STREET":"保東路","SECT":" ","MAREA":" ","LANE":" ","ALLEY":" ","HOUSE_NO":"７０號","E_COORD97":178913.76999999999,"N_COORD97":2544032.2999999998,"ADDRESS":"保東路７０號","OBJECTID":494672},"geometry":{"x":178913.76999999955,"y":2544032.3000000007}},{"attributes":{"ID":494700,"DIS_CODE":0,"TOWNNAME":"關廟區","LI":"埤頭里","LIN":"8鄰","STREET":"保東路","SECT":" ","MAREA":" ","LANE":" ","ALLEY":" ","HOUSE_NO":"８６號","E_COORD97":178885.76999999999,"N_COORD97":2544032.2999999998,"ADDRESS":"保東路８６號","OBJECTID":494673},"geometry":{"x":178885.77000000048,"y":2544032.3000000007}},{"attributes":{"ID":494701,"DIS_CODE":0,"TOWNNAME":"關廟區","LI":"南花里","LIN":"8鄰","STREET":"園中街","SECT":" ","MAREA":" ","LANE":" ","ALLEY":" ","HOUSE_NO":"２０號","E_COORD97":181778.20999999999,"N_COORD97":2540263.1699999999,"ADDRESS":"園中街２０號","OBJECTID":494674},"geometry":{"x":181778.20999999996,"y":2540263.1700000037}},{"attributes":{"ID":494702,"DIS_CODE":0,"TOWNNAME":"關廟區","LI":"龜洞里","LIN":"8鄰","STREET":"官崙街","SECT":" ","MAREA":" ","LANE":" ","ALLEY":" ","HOUSE_NO":"１００號","E_COORD97":183566.37,"N_COORD97":2533085.6600000001,"ADDRESS":"官崙街１００號","OBJECTID":494675},"geometry":{"x":183566.37000000104,"y":2533085.6600000001}},{"attributes":{"ID":494703,"DIS_CODE":0,"TOWNNAME":"新營區","LI":"民權里","LIN":"8鄰","STREET":"民有街","SECT":" ","MAREA":" ","LANE":" ","ALLEY":" ","HOUSE_NO":"２０號","E_COORD97":179887.12,"N_COORD97":2578082.6499999999,"ADDRESS":"民有街２０號","OBJECTID":494676},"geometry":{"x":179887.12000000011,"y":2578082.6500000004}},{"attributes":{"ID":494704,"DIS_CODE":0,"TOWNNAME":"新營區","LI":"好平里","LIN":"8鄰","STREET":"長春街","SECT":" ","MAREA":" ","LANE":" ","ALLEY":" ","HOUSE_NO":"１５４號","E_COORD97":179529.07999999999,"N_COORD97":2577828.5299999998,"ADDRESS":"長春街１５４號","OBJECTID":494677},"geometry":{"x":179529.08000000007,"y":2577828.5299999975}},{"attributes":{"ID":494705,"DIS_CODE":0,"TOWNNAME":"新營區","LI":"民權里","LIN":"8鄰","STREET":"博愛街","SECT":" ","MAREA":" ","LANE":" ","ALLEY":" ","HOUSE_NO":"８９號","E_COORD97":179803.47,"N_COORD97":2578131.77,"ADDRESS":"博愛街８９號","OBJECTID":494678},"geometry":{"x":179803.47000000067,"y":2578131.7699999996}},{"attributes":{"ID":494706,"DIS_CODE":0,"TOWNNAME":"新營區","LI":"民權里","LIN":"8鄰","STREET":"博愛街","SECT":" ","MAREA":" ","LANE":" ","ALLEY":" ","HOUSE_NO":"８３號","E_COORD97":179816.79000000001,"N_COORD97":2578133.9300000002,"ADDRESS":"博愛街８３號","OBJECTID":494679},"geometry":{"x":179816.79000000097,"y":2578133.9299999997}},{"attributes":{"ID":494707,"DIS_CODE":0,"TOWNNAME":"新營區","LI":"民權里","LIN":"8鄰","STREET":"博愛街","SECT":" ","MAREA":" ","LANE":" ","ALLEY":" ","HOUSE_NO":"８５號","E_COORD97":179812.69,"N_COORD97":2578132.8399999999,"ADDRESS":"博愛街８５號","OBJECTID":494680},"geometry":{"x":179812.69000000227,"y":2578132.8400000017}},{"attributes":{"ID":494708,"DIS_CODE":0,"TOWNNAME":"新營區","LI":"民生里","LIN":"8鄰","STREET":"民生路","SECT":" ","MAREA":" ","LANE":" ","ALLEY":" ","HOUSE_NO":"５號","E_COORD97":179381.60999999999,"N_COORD97":2578097.2200000002,"ADDRESS":"民生路５號","OBJECTID":494681},"geometry":{"x":179381.61000000127,"y":2578097.2200000025}},{"attributes":{"ID":494709,"DIS_CODE":0,"TOWNNAME":"新營區","LI":"三仙里","LIN":"8鄰","STREET":"博愛街","SECT":" ","MAREA":" ","LANE":" ","ALLEY":" ","HOUSE_NO":"８８號","E_COORD97":179687.91,"N_COORD97":2578134.54,"ADDRESS":"博愛街８８號","OBJECTID":494682},"geometry":{"x":179687.91000000108,"y":2578134.540000001}},{"attributes":{"ID":494710,"DIS_CODE":0,"TOWNNAME":"新營區","LI":"民權里","LIN":"8鄰","STREET":"博愛街","SECT":" ","MAREA":" ","LANE":" ","ALLEY":" ","HOUSE_NO":"８１號","E_COORD97":179821.89999999999,"N_COORD97":2578133.8999999999,"ADDRESS":"博愛街８１號","OBJECTID":494683},"geometry":{"x":179821.9000000013,"y":2578133.9000000022}},{"attributes":{"ID":494711,"DIS_CODE":0,"TOWNNAME":"新營區","LI":"大宏里","LIN":"8鄰","STREET":"民族路","SECT":" ","MAREA":" ","LANE":" ","ALLEY":" ","HOUSE_NO":"２之７號","E_COORD97":180309.09,"N_COORD97":2578367.54,"ADDRESS":"民族路２之７號","OBJECTID":494684},"geometry":{"x":180309.08999999985,"y":2578367.5400000028}},{"attributes":{"ID":494712,"DIS_CODE":0,"TOWNNAME":"新營區","LI":"民權里","LIN":"8鄰","STREET":"博愛街","SECT":" ","MAREA":" ","LANE":" ","ALLEY":" ","HOUSE_NO":"７７號","E_COORD97":179832.07999999999,"N_COORD97":2578131.6400000001,"ADDRESS":"博愛街７７號","OBJECTID":494685},"geometry":{"x":179832.08000000101,"y":2578131.6400000025}},{"attributes":{"ID":494713,"DIS_CODE":0,"TOWNNAME":"新營區","LI":"民權里","LIN":"8鄰","STREET":"博愛街","SECT":" ","MAREA":" ","LANE":" ","ALLEY":" ","HOUSE_NO":"７９號","E_COORD97":179825.95000000001,"N_COORD97":2578134.9900000002,"ADDRESS":"博愛街７９號","OBJECTID":494686},"geometry":{"x":179825.95000000205,"y":2578134.9899999984}},{"attributes":{"ID":494714,"DIS_CODE":0,"TOWNNAME":"南區","LI":"佛壇里","LIN":"8鄰","STREET":"明興路","SECT":" ","MAREA":" ","LANE":" ","ALLEY":" ","HOUSE_NO":"１３５２號","E_COORD97":166359.62,"N_COORD97":2535944.46,"ADDRESS":"明興路１３５２號","OBJECTID":494687},"geometry":{"x":166359.62000000011,"y":2535944.4600000028}},{"attributes":{"ID":494715,"DIS_CODE":0,"TOWNNAME":"南區","LI":"佛壇里","LIN":"8鄰","STREET":"明興路","SECT":" ","MAREA":" ","LANE":" ","ALLEY":" ","HOUSE_NO":"１３５４號","E_COORD97":166360.04999999999,"N_COORD97":2535941.6899999999,"ADDRESS":"明興路１３５４號","OBJECTID":494688},"geometry":{"x":166360.05000000168,"y":2535941.6899999995}},{"attributes":{"ID":494716,"DIS_CODE":0,"TOWNNAME":"歸仁區","LI":"歸仁里","LIN":"8鄰","STREET":"和平北街","SECT":" ","MAREA":" ","LANE":" ","ALLEY":" ","HOUSE_NO":"５６號","E_COORD97":177857.25,"N_COORD97":2540974.1200000001,"ADDRESS":"和平北街５６號","OBJECTID":494689},"geometry":{"x":177857.25000000186,"y":2540974.1200000029}},{"attributes":{"ID":494717,"DIS_CODE":0,"TOWNNAME":"南區","LI":"新昌里","LIN":"8鄰","STREET":"五妃街","SECT":" ","MAREA":" ","LANE":" ","ALLEY":" ","HOUSE_NO":"４０４號","E_COORD97":167544.03,"N_COORD97":2542603.25,"ADDRESS":"五妃街４０４號","OBJECTID":494690},"geometry":{"x":167544.03000000119,"y":2542603.2500000019}},{"attributes":{"ID":494718,"DIS_CODE":0,"TOWNNAME":"南區","LI":"新昌里","LIN":"8鄰","STREET":"五妃街","SECT":" ","MAREA":" ","LANE":" ","ALLEY":" ","HOUSE_NO":"４０６號","E_COORD97":167539.81,"N_COORD97":2542602.7599999998,"ADDRESS":"五妃街４０６號","OBJECTID":494691},"geometry":{"x":167539.81000000052,"y":2542602.7600000016}},{"attributes":{"ID":494719,"DIS_CODE":0,"TOWNNAME":"南區","LI":"新昌里","LIN":"8鄰","STREET":"五妃街","SECT":" ","MAREA":" ","LANE":" ","ALLEY":" ","HOUSE_NO":"４０８號","E_COORD97":167536.39999999999,"N_COORD97":2542602.6000000001,"ADDRESS":"五妃街４０８號","OBJECTID":494692},"geometry":{"x":167536.40000000224,"y":2542602.6000000034}},{"attributes":{"ID":494720,"DIS_CODE":0,"TOWNNAME":"南區","LI":"新昌里","LIN":"8鄰","STREET":"五妃街","SECT":" ","MAREA":" ","LANE":" ","ALLEY":" ","HOUSE_NO":"３８８號","E_COORD97":167582.48999999999,"N_COORD97":2542602.4399999999,"ADDRESS":"五妃街３８８號","OBJECTID":494693},"geometry":{"x":167582.49000000022,"y":2542602.4399999995}},{"attributes":{"ID":494721,"DIS_CODE":0,"TOWNNAME":"南區","LI":"建南里","LIN":"8鄰","STREET":"德興路","SECT":" ","MAREA":" ","LANE":" ","ALLEY":" ","HOUSE_NO":"２００號","E_COORD97":167199.20999999999,"N_COORD97":2540186.5299999998,"ADDRESS":"德興路２００號","OBJECTID":494694},"geometry":{"x":167199.20999999996,"y":2540186.5300000012}},{"attributes":{"ID":494722,"DIS_CODE":0,"TOWNNAME":"南區","LI":"建南里","LIN":"8鄰","STREET":"德興路","SECT":" ","MAREA":" ","LANE":" ","ALLEY":" ","HOUSE_NO":"２０２號","E_COORD97":167199.67999999999,"N_COORD97":2540182.54,"ADDRESS":"德興路２０２號","OBJECTID":494695},"geometry":{"x":167199.68000000156,"y":2540182.540000001}},{"attributes":{"ID":494723,"DIS_CODE":0,"TOWNNAME":"安平區","LI":"國平里","LIN":"8鄰","STREET":"建平三街","SECT":" ","MAREA":" ","LANE":" ","ALLEY":" ","HOUSE_NO":"２０５號","E_COORD97":165434.72,"N_COORD97":2542952.79,"ADDRESS":"建平三街２０５號","OBJECTID":494696},"geometry":{"x":165434.71999999881,"y":2542952.7899999991}},{"attributes":{"ID":494724,"DIS_CODE":0,"TOWNNAME":"安平區","LI":"國平里","LIN":"8鄰","STREET":"建平三街","SECT":" ","MAREA":" ","LANE":" ","ALLEY":" ","HOUSE_NO":"２０３號","E_COORD97":165439.32999999999,"N_COORD97":2542952.48,"ADDRESS":"建平三街２０３號","OBJECTID":494697},"geometry":{"x":165439.33000000007,"y":2542952.4800000004}},{"attributes":{"ID":494725,"DIS_CODE":0,"TOWNNAME":"安平區","LI":"國平里","LIN":"8鄰","STREET":"建平三街","SECT":" ","MAREA":" ","LANE":" ","ALLEY":" ","HOUSE_NO":"２０１號","E_COORD97":165443.92999999999,"N_COORD97":2542951.8399999999,"ADDRESS":"建平三街２０１號","OBJECTID":494698},"geometry":{"x":165443.93000000063,"y":2542951.8400000017}},{"attributes":{"ID":494726,"DIS_CODE":0,"TOWNNAME":"仁德區","LI":"新田里","LIN":"4鄰","STREET":"勝利路","SECT":" ","MAREA":" ","LANE":"１５０巷","ALLEY":"３弄","HOUSE_NO":"６號","E_COORD97":174409.17999999999,"N_COORD97":2539510.27,"ADDRESS":"勝利路１５０巷３弄６號","OBJECTID":494699},"geometry":{"x":174409.1799999997,"y":2539510.2700000014}},{"attributes":{"ID":494727,"DIS_CODE":0,"TOWNNAME":"南區","LI":"松安里","LIN":"8鄰","STREET":"灣裡路","SECT":" ","MAREA":" ","LANE":" ","ALLEY":" ","HOUSE_NO":"２８８號","E_COORD97":166109.60999999999,"N_COORD97":2536394.1099999999,"ADDRESS":"灣裡路２８８號","OBJECTID":494700},"geometry":{"x":166109.61000000127,"y":2536394.1099999994}},{"attributes":{"ID":494728,"DIS_CODE":0,"TOWNNAME":"南區","LI":"松安里","LIN":"8鄰","STREET":"灣裡路","SECT":" ","MAREA":" ","LANE":" ","ALLEY":" ","HOUSE_NO":"２９０號","E_COORD97":166110.57000000001,"N_COORD97":2536390.4399999999,"ADDRESS":"灣裡路２９０號","OBJECTID":494701},"geometry":{"x":166110.5700000003,"y":2536390.4400000013}},{"attributes":{"ID":494729,"DIS_CODE":0,"TOWNNAME":"南區","LI":"松安里","LIN":"8鄰","STREET":"灣裡路","SECT":" ","MAREA":" ","LANE":" ","ALLEY":" ","HOUSE_NO":"２９２號","E_COORD97":166110.09,"N_COORD97":2536386.9300000002,"ADDRESS":"灣裡路２９２號","OBJECTID":494702},"geometry":{"x":166110.08999999985,"y":2536386.9300000016}},{"attributes":{"ID":494730,"DIS_CODE":0,"TOWNNAME":"南區","LI":"松安里","LIN":"8鄰","STREET":"灣裡路","SECT":" ","MAREA":" ","LANE":" ","ALLEY":" ","HOUSE_NO":"２９４號","E_COORD97":166110.09,"N_COORD97":2536383.2599999998,"ADDRESS":"灣裡路２９４號","OBJECTID":494703},"geometry":{"x":166110.08999999985,"y":2536383.2599999998}},{"attributes":{"ID":494731,"DIS_CODE":0,"TOWNNAME":"南區","LI":"松安里","LIN":"8鄰","STREET":"灣裡路","SECT":" ","MAREA":" ","LANE":" ","ALLEY":" ","HOUSE_NO":"３００號","E_COORD97":166107.69,"N_COORD97":2536371.29,"ADDRESS":"灣裡路３００號","OBJECTID":494704},"geometry":{"x":166107.69000000134,"y":2536371.2899999991}},{"attributes":{"ID":494732,"DIS_CODE":0,"TOWNNAME":"南區","LI":"松安里","LIN":"8鄰","STREET":"灣裡路","SECT":" ","MAREA":" ","LANE":" ","ALLEY":" ","HOUSE_NO":"３０２號","E_COORD97":166101.31,"N_COORD97":2536360.1200000001,"ADDRESS":"灣裡路３０２號","OBJECTID":494705},"geometry":{"x":166101.30999999959,"y":2536360.1200000029}},{"attributes":{"ID":494733,"DIS_CODE":0,"TOWNNAME":"南區","LI":"松安里","LIN":"8鄰","STREET":"灣裡路","SECT":" ","MAREA":" ","LANE":" ","ALLEY":" ","HOUSE_NO":"３０４號","E_COORD97":166110.41,"N_COORD97":2536362.8300000001,"ADDRESS":"灣裡路３０４號","OBJECTID":494706},"geometry":{"x":166110.41000000201,"y":2536362.8300000001}},{"attributes":{"ID":494734,"DIS_CODE":0,"TOWNNAME":"南區","LI":"松安里","LIN":"8鄰","STREET":"灣裡路","SECT":" ","MAREA":" ","LANE":" ","ALLEY":" ","HOUSE_NO":"３０４號之１","E_COORD97":166111.20999999999,"N_COORD97":2536359.3199999998,"ADDRESS":"灣裡路３０４號之１","OBJECTID":494707},"geometry":{"x":166111.20999999996,"y":2536359.3200000003}},{"attributes":{"ID":494735,"DIS_CODE":0,"TOWNNAME":"南區","LI":"松安里","LIN":"8鄰","STREET":"灣裡路","SECT":" ","MAREA":" ","LANE":" ","ALLEY":" ","HOUSE_NO":"３０４號之２","E_COORD97":166111.37,"N_COORD97":2536355.3300000001,"ADDRESS":"灣裡路３０４號之２","OBJECTID":494708},"geometry":{"x":166111.37000000104,"y":2536355.3300000001}},{"attributes":{"ID":494736,"DIS_CODE":0,"TOWNNAME":"南區","LI":"松安里","LIN":"8鄰","STREET":"灣裡路","SECT":" ","MAREA":" ","LANE":" ","ALLEY":" ","HOUSE_NO":"３０６號","E_COORD97":166110.57000000001,"N_COORD97":2536349.75,"ADDRESS":"灣裡路３０６號","OBJECTID":494709},"geometry":{"x":166110.5700000003,"y":2536349.75}},{"attributes":{"ID":494737,"DIS_CODE":0,"TOWNNAME":"鹽水區","LI":"水秀里","LIN":"8鄰","STREET":"朝琴路","SECT":" ","MAREA":" ","LANE":" ","ALLEY":" ","HOUSE_NO":"１０２號","E_COORD97":175380.82999999999,"N_COORD97":2580107.4500000002,"ADDRESS":"朝琴路１０２號","OBJECTID":494710},"geometry":{"x":175380.83000000101,"y":2580107.4499999974}},{"attributes":{"ID":494738,"DIS_CODE":0,"TOWNNAME":"鹽水區","LI":"水秀里","LIN":"8鄰","STREET":"朝琴路","SECT":" ","MAREA":" ","LANE":" ","ALLEY":" ","HOUSE_NO":"１０４號","E_COORD97":175384.73999999999,"N_COORD97":2580109.7400000002,"ADDRESS":"朝琴路１０４號","OBJECTID":494711},"geometry":{"x":175384.74000000115,"y":2580109.7400000002}},{"attributes":{"ID":494739,"DIS_CODE":0,"TOWNNAME":"鹽水區","LI":"水秀里","LIN":"8鄰","STREET":"朝琴路","SECT":" ","MAREA":" ","LANE":" ","ALLEY":" ","HOUSE_NO":"１０８之１０號","E_COORD97":175406.38,"N_COORD97":2580090.4900000002,"ADDRESS":"朝琴路１０８之１０號","OBJECTID":494712},"geometry":{"x":175406.37999999989,"y":2580090.4900000002}},{"attributes":{"ID":494740,"DIS_CODE":0,"TOWNNAME":"鹽水區","LI":"水秀里","LIN":"8鄰","STREET":"朝琴路","SECT":" ","MAREA":" ","LANE":" ","ALLEY":" ","HOUSE_NO":"１０８號之６","E_COORD97":175410.47,"N_COORD97":2580083.7999999998,"ADDRESS":"朝琴路１０８號之６","OBJECTID":494713},"geometry":{"x":175410.46999999974,"y":2580083.8000000026}},{"attributes":{"ID":494741,"DIS_CODE":0,"TOWNNAME":"鹽水區","LI":"水秀里","LIN":"8鄰","STREET":"朝琴路","SECT":" ","MAREA":" ","LANE":" ","ALLEY":" ","HOUSE_NO":"１１０號之１","E_COORD97":175412.94,"N_COORD97":2580114.21,"ADDRESS":"朝琴路１１０號之１","OBJECTID":494714},"geometry":{"x":175412.94000000041,"y":2580114.209999999}},{"attributes":{"ID":494742,"DIS_CODE":0,"TOWNNAME":"鹽水區","LI":"水秀里","LIN":"8鄰","STREET":"朝琴路","SECT":" ","MAREA":" ","LANE":" ","ALLEY":" ","HOUSE_NO":"１１０之３號","E_COORD97":175438.14999999999,"N_COORD97":2580079.9300000002,"ADDRESS":"朝琴路１１０之３號","OBJECTID":494715},"geometry":{"x":175438.1500000013,"y":2580079.9299999997}},{"attributes":{"ID":494743,"DIS_CODE":0,"TOWNNAME":"鹽水區","LI":"水秀里","LIN":"8鄰","STREET":"朝琴路","SECT":" ","MAREA":" ","LANE":" ","ALLEY":" ","HOUSE_NO":"１１０之４號","E_COORD97":175423.91,"N_COORD97":2580101.3199999998,"ADDRESS":"朝琴路１１０之４號","OBJECTID":494716},"geometry":{"x":175423.91000000108,"y":2580101.3200000003}},{"attributes":{"ID":494744,"DIS_CODE":0,"TOWNNAME":"鹽水區","LI":"水秀里","LIN":"8鄰","STREET":"朝琴路","SECT":" ","MAREA":" ","LANE":" ","ALLEY":" ","HOUSE_NO":"１１０號","E_COORD97":175407.44,"N_COORD97":2580125.5299999998,"ADDRESS":"朝琴路１１０號","OBJECTID":494717},"geometry":{"x":175407.44000000134,"y":2580125.5300000012}},{"attributes":{"ID":494745,"DIS_CODE":0,"TOWNNAME":"鹽水區","LI":"水秀里","LIN":"8鄰","STREET":"朝琴路","SECT":" ","MAREA":" ","LANE":" ","ALLEY":" ","HOUSE_NO":"１１２號","E_COORD97":175411.03,"N_COORD97":2580128.3300000001,"ADDRESS":"朝琴路１１２號","OBJECTID":494718},"geometry":{"x":175411.02999999933,"y":2580128.3300000001}},{"attributes":{"ID":494746,"DIS_CODE":0,"TOWNNAME":"鹽水區","LI":"水秀里","LIN":"8鄰","STREET":"朝琴路","SECT":" ","MAREA":" ","LANE":" ","ALLEY":" ","HOUSE_NO":"１１４號","E_COORD97":175414.29999999999,"N_COORD97":2580130.5699999998,"ADDRESS":"朝琴路１１４號","OBJECTID":494719},"geometry":{"x":175414.30000000075,"y":2580130.5700000003}},{"attributes":{"ID":494747,"DIS_CODE":0,"TOWNNAME":"鹽水區","LI":"水秀里","LIN":"8鄰","STREET":"朝琴路","SECT":" ","MAREA":" ","LANE":" ","ALLEY":" ","HOUSE_NO":"１１６號","E_COORD97":175417.51999999999,"N_COORD97":2580133.3999999999,"ADDRESS":"朝琴路１１６號","OBJECTID":494720},"geometry":{"x":175417.52000000048,"y":2580133.4000000022}},{"attributes":{"ID":494748,"DIS_CODE":0,"TOWNNAME":"鹽水區","LI":"水秀里","LIN":"8鄰","STREET":"朝琴路","SECT":" ","MAREA":" ","LANE":" ","ALLEY":" ","HOUSE_NO":"１１８號","E_COORD97":175420.73999999999,"N_COORD97":2580136.23,"ADDRESS":"朝琴路１１８號","OBJECTID":494721},"geometry":{"x":175420.74000000022,"y":2580136.2300000004}},{"attributes":{"ID":494749,"DIS_CODE":0,"TOWNNAME":"鹽水區","LI":"水秀里","LIN":"8鄰","STREET":"朝琴路","SECT":" ","MAREA":" ","LANE":" ","ALLEY":" ","HOUSE_NO":"１２０號","E_COORD97":175423.95999999999,"N_COORD97":2580139.0699999998,"ADDRESS":"朝琴路１２０號","OBJECTID":494722},"geometry":{"x":175423.96000000089,"y":2580139.0700000022}},{"attributes":{"ID":494750,"DIS_CODE":0,"TOWNNAME":"鹽水區","LI":"水秀里","LIN":"8鄰","STREET":"朝琴路","SECT":" ","MAREA":" ","LANE":" ","ALLEY":" ","HOUSE_NO":"１２２號","E_COORD97":175427.17999999999,"N_COORD97":2580141.8999999999,"ADDRESS":"朝琴路１２２號","OBJECTID":494723},"geometry":{"x":175427.18000000063,"y":2580141.9000000004}},{"attributes":{"ID":494751,"DIS_CODE":0,"TOWNNAME":"鹽水區","LI":"水秀里","LIN":"8鄰","STREET":"朝琴路","SECT":" ","MAREA":" ","LANE":" ","ALLEY":" ","HOUSE_NO":"１２４號","E_COORD97":175430.39999999999,"N_COORD97":2580144.7400000002,"ADDRESS":"朝琴路１２４號","OBJECTID":494724},"geometry":{"x":175430.40000000037,"y":2580144.7400000021}},{"attributes":{"ID":494752,"DIS_CODE":0,"TOWNNAME":"鹽水區","LI":"水秀里","LIN":"8鄰","STREET":"朝琴路","SECT":" ","MAREA":" ","LANE":" ","ALLEY":" ","HOUSE_NO":"１２６之２號","E_COORD97":175441.92999999999,"N_COORD97":2580154.2599999998,"ADDRESS":"朝琴路１２６之２號","OBJECTID":494725},"geometry":{"x":175441.93000000063,"y":2580154.2600000016}},{"attributes":{"ID":494753,"DIS_CODE":0,"TOWNNAME":"鹽水區","LI":"水秀里","LIN":"8鄰","STREET":"朝琴路","SECT":" ","MAREA":" ","LANE":" ","ALLEY":" ","HOUSE_NO":"１２６之３號","E_COORD97":175445.48000000001,"N_COORD97":2580158.04,"ADDRESS":"朝琴路１２６之３號","OBJECTID":494726},"geometry":{"x":175445.47999999952,"y":2580158.040000001}},{"attributes":{"ID":494754,"DIS_CODE":0,"TOWNNAME":"鹽水區","LI":"水秀里","LIN":"8鄰","STREET":"朝琴路","SECT":" ","MAREA":" ","LANE":" ","ALLEY":" ","HOUSE_NO":"１２６號","E_COORD97":175433.62,"N_COORD97":2580147.5699999998,"ADDRESS":"朝琴路１２６號","OBJECTID":494727},"geometry":{"x":175433.62000000011,"y":2580147.5700000003}},{"attributes":{"ID":494755,"DIS_CODE":0,"TOWNNAME":"鹽水區","LI":"水秀里","LIN":"8鄰","STREET":"朝琴路","SECT":" ","MAREA":" ","LANE":" ","ALLEY":" ","HOUSE_NO":"１２８號","E_COORD97":175452.19,"N_COORD97":2580160.5899999999,"ADDRESS":"朝琴路１２８號","OBJECTID":494728},"geometry":{"x":175452.19000000041,"y":2580160.5899999999}},{"attributes":{"ID":494756,"DIS_CODE":0,"TOWNNAME":"鹽水區","LI":"橋南里","LIN":"8鄰","STREET":"新太路","SECT":" ","MAREA":" ","LANE":" ","ALLEY":" ","HOUSE_NO":"１０之１號","E_COORD97":175505.07999999999,"N_COORD97":2578667.3599999999,"ADDRESS":"新太路１０之１號","OBJECTID":494729},"geometry":{"x":175505.08000000007,"y":2578667.3600000031}},{"attributes":{"ID":494757,"DIS_CODE":0,"TOWNNAME":"鹽水區","LI":"橋南里","LIN":"8鄰","STREET":"新太路","SECT":" ","MAREA":" ","LANE":" ","ALLEY":" ","HOUSE_NO":"１０號","E_COORD97":175504.35000000001,"N_COORD97":2578671.5899999999,"ADDRESS":"新太路１０號","OBJECTID":494730},"geometry":{"x":175504.34999999963,"y":2578671.5899999999}},{"attributes":{"ID":494758,"DIS_CODE":0,"TOWNNAME":"鹽水區","LI":"橋南里","LIN":"8鄰","STREET":"新太路","SECT":" ","MAREA":" ","LANE":" ","ALLEY":" ","HOUSE_NO":"１１２號","E_COORD97":175572.95000000001,"N_COORD97":2578305.1200000001,"ADDRESS":"新太路１１２號","OBJECTID":494731},"geometry":{"x":175572.95000000112,"y":2578305.1200000029}},{"attributes":{"ID":494759,"DIS_CODE":0,"TOWNNAME":"鹽水區","LI":"橋南里","LIN":"8鄰","STREET":"新太路","SECT":" ","MAREA":" ","LANE":" ","ALLEY":" ","HOUSE_NO":"１６號","E_COORD97":175510.53,"N_COORD97":2578655.8599999999,"ADDRESS":"新太路１６號","OBJECTID":494732},"geometry":{"x":175510.53000000026,"y":2578655.8599999994}},{"attributes":{"ID":494760,"DIS_CODE":0,"TOWNNAME":"鹽水區","LI":"橋南里","LIN":"8鄰","STREET":"新太路","SECT":" ","MAREA":" ","LANE":" ","ALLEY":" ","HOUSE_NO":"１８號","E_COORD97":175511.47,"N_COORD97":2578651.4199999999,"ADDRESS":"新太路１８號","OBJECTID":494733},"geometry":{"x":175511.47000000067,"y":2578651.4200000018}},{"attributes":{"ID":494761,"DIS_CODE":0,"TOWNNAME":"鹽水區","LI":"橋南里","LIN":"8鄰","STREET":"新太路","SECT":" ","MAREA":" ","LANE":" ","ALLEY":" ","HOUSE_NO":"２６號","E_COORD97":175495.5,"N_COORD97":2578609.1499999999,"ADDRESS":"新太路２６號","OBJECTID":494734},"geometry":{"x":175495.5,"y":2578609.1500000041}},{"attributes":{"ID":494762,"DIS_CODE":0,"TOWNNAME":"鹽水區","LI":"橋南里","LIN":"8鄰","STREET":"新太路","SECT":" ","MAREA":" ","LANE":" ","ALLEY":" ","HOUSE_NO":"２號","E_COORD97":175502.14000000001,"N_COORD97":2578684.27,"ADDRESS":"新太路２號","OBJECTID":494735},"geometry":{"x":175502.1400000006,"y":2578684.2699999996}},{"attributes":{"ID":494763,"DIS_CODE":0,"TOWNNAME":"鹽水區","LI":"橋南里","LIN":"8鄰","STREET":"新太路","SECT":" ","MAREA":" ","LANE":" ","ALLEY":" ","HOUSE_NO":"６號","E_COORD97":175502.88,"N_COORD97":2578680.04,"ADDRESS":"新太路６號","OBJECTID":494736},"geometry":{"x":175502.87999999989,"y":2578680.040000001}},{"attributes":{"ID":494764,"DIS_CODE":0,"TOWNNAME":"鹽水區","LI":"橋南里","LIN":"8鄰","STREET":"新太路","SECT":" ","MAREA":" ","LANE":" ","ALLEY":" ","HOUSE_NO":"８號","E_COORD97":175503.60999999999,"N_COORD97":2578675.8199999998,"ADDRESS":"新太路８號","OBJECTID":494737},"geometry":{"x":175503.61000000034,"y":2578675.8200000022}},{"attributes":{"ID":494765,"DIS_CODE":0,"TOWNNAME":"永康區","LI":"埔園里","LIN":"15鄰","STREET":"中山路","SECT":" ","MAREA":" ","LANE":" ","ALLEY":" ","HOUSE_NO":"３４５號","E_COORD97":173585.29000000001,"N_COORD97":2548438.2400000002,"ADDRESS":"中山路３４５號","OBJECTID":494738},"geometry":{"x":173585.29000000097,"y":2548438.2400000021}},{"attributes":{"ID":494766,"DIS_CODE":0,"TOWNNAME":"安平區","LI":"金城里","LIN":"8鄰","STREET":"世平五街","SECT":" ","MAREA":" ","LANE":" ","ALLEY":" ","HOUSE_NO":"５號","E_COORD97":162969.89999999999,"N_COORD97":2544225.6699999999,"ADDRESS":"世平五街５號","OBJECTID":494739},"geometry":{"x":162969.9000000013,"y":2544225.6699999999}},{"attributes":{"ID":494767,"DIS_CODE":0,"TOWNNAME":"安平區","LI":"石門里","LIN":"8鄰","STREET":"安北路","SECT":" ","MAREA":" ","LANE":" ","ALLEY":" ","HOUSE_NO":"１１０之１號","E_COORD97":164399.70000000001,"N_COORD97":2544767.8500000001,"ADDRESS":"安北路１１０之１號","OBJECTID":494740},"geometry":{"x":164399.70000000205,"y":2544767.8500000015}},{"attributes":{"ID":494768,"DIS_CODE":0,"TOWNNAME":"安平區","LI":"國平里","LIN":"8鄰","STREET":"建平三街","SECT":" ","MAREA":" ","LANE":" ","ALLEY":" ","HOUSE_NO":"２０９號","E_COORD97":165425.23000000001,"N_COORD97":2542954.4300000002,"ADDRESS":"建平三街２０９號","OBJECTID":494741},"geometry":{"x":165425.22999999952,"y":2542954.4300000016}},{"attributes":{"ID":494769,"DIS_CODE":0,"TOWNNAME":"安平區","LI":"建平里","LIN":"8鄰","STREET":"中華西路","SECT":"二段","MAREA":" ","LANE":" ","ALLEY":" ","HOUSE_NO":"３９１號","E_COORD97":166565.42000000001,"N_COORD97":2543881.0600000001,"ADDRESS":"中華西路二段３９１號","OBJECTID":494742},"geometry":{"x":166565.41999999993,"y":2543881.0600000005}},{"attributes":{"ID":494770,"DIS_CODE":0,"TOWNNAME":"安平區","LI":"建平里","LIN":"8鄰","STREET":"中華西路","SECT":"二段","MAREA":" ","LANE":" ","ALLEY":" ","HOUSE_NO":"４２１號","E_COORD97":166567.94,"N_COORD97":2543908.1699999999,"ADDRESS":"中華西路二段４２１號","OBJECTID":494743},"geometry":{"x":166567.94000000041,"y":2543908.1700000018}},{"attributes":{"ID":494771,"DIS_CODE":0,"TOWNNAME":"安平區","LI":"建平里","LIN":"8鄰","STREET":"中華西路","SECT":"二段","MAREA":" ","LANE":" ","ALLEY":" ","HOUSE_NO":"４２３號","E_COORD97":166565.57999999999,"N_COORD97":2543930.79,"ADDRESS":"中華西路二段４２３號","OBJECTID":494744},"geometry":{"x":166565.58000000101,"y":2543930.790000001}},{"attributes":{"ID":494772,"DIS_CODE":0,"TOWNNAME":"安平區","LI":"建平里","LIN":"8鄰","STREET":"中華西路","SECT":"二段","MAREA":" ","LANE":" ","ALLEY":" ","HOUSE_NO":"４２５號","E_COORD97":166564.85999999999,"N_COORD97":2543936.4500000002,"ADDRESS":"中華西路二段４２５號","OBJECTID":494745},"geometry":{"x":166564.86000000034,"y":2543936.4500000011}},{"attributes":{"ID":494773,"DIS_CODE":0,"TOWNNAME":"安平區","LI":"建平里","LIN":"8鄰","STREET":"中華西路","SECT":"二段","MAREA":" ","LANE":" ","ALLEY":" ","HOUSE_NO":"４３５號","E_COORD97":166562.28,"N_COORD97":2543992.6899999999,"ADDRESS":"中華西路二段４３５號","OBJECTID":494746},"geometry":{"x":166562.28000000212,"y":2543992.6900000013}},{"attributes":{"ID":494774,"DIS_CODE":0,"TOWNNAME":"安平區","LI":"建平里","LIN":"8鄰","STREET":"中華西路","SECT":"二段","MAREA":" ","LANE":" ","ALLEY":" ","HOUSE_NO":"４９１號","E_COORD97":166564.95000000001,"N_COORD97":2544046.7999999998,"ADDRESS":"中華西路二段４９１號","OBJECTID":494747},"geometry":{"x":166564.95000000112,"y":2544046.8000000045}},{"attributes":{"ID":494775,"DIS_CODE":0,"TOWNNAME":"安平區","LI":"建平里","LIN":"8鄰","STREET":"中華西路","SECT":"二段","MAREA":" ","LANE":" ","ALLEY":" ","HOUSE_NO":"４９３號","E_COORD97":166558.66,"N_COORD97":2544066.5899999999,"ADDRESS":"中華西路二段４９３號","OBJECTID":494748},"geometry":{"x":166558.66000000108,"y":2544066.5899999999}},{"attributes":{"ID":494776,"DIS_CODE":0,"TOWNNAME":"安平區","LI":"建平里","LIN":"8鄰","STREET":"中華西路","SECT":"二段","MAREA":" ","LANE":" ","ALLEY":" ","HOUSE_NO":"４９５號","E_COORD97":166559.60000000001,"N_COORD97":2544085.6000000001,"ADDRESS":"中華西路二段４９５號","OBJECTID":494749},"geometry":{"x":166559.60000000056,"y":2544085.6000000015}},{"attributes":{"ID":494777,"DIS_CODE":0,"TOWNNAME":"安平區","LI":"建平里","LIN":"8鄰","STREET":"府前三街","SECT":" ","MAREA":" ","LANE":" ","ALLEY":" ","HOUSE_NO":"１２５號","E_COORD97":166501.32000000001,"N_COORD97":2543973.21,"ADDRESS":"府前三街１２５號","OBJECTID":494750},"geometry":{"x":166501.32000000123,"y":2543973.2100000028}},{"attributes":{"ID":494778,"DIS_CODE":0,"TOWNNAME":"安平區","LI":"建平里","LIN":"8鄰","STREET":"府前三街","SECT":" ","MAREA":" ","LANE":" ","ALLEY":" ","HOUSE_NO":"１２７號","E_COORD97":166501.70999999999,"N_COORD97":2543977.6200000001,"ADDRESS":"府前三街１２７號","OBJECTID":494751},"geometry":{"x":166501.71000000089,"y":2543977.6200000029}},{"attributes":{"ID":494779,"DIS_CODE":0,"TOWNNAME":"安平區","LI":"建平里","LIN":"8鄰","STREET":"中華西路","SECT":"二段","MAREA":" ","LANE":" ","ALLEY":" ","HOUSE_NO":"３１７號地下層","E_COORD97":166613.22,"N_COORD97":2543730.5299999998,"ADDRESS":"中華西路二段３１７號地下層","OBJECTID":494752},"geometry":{"x":166613.22000000067,"y":2543730.5299999993}},{"attributes":{"ID":494780,"DIS_CODE":0,"TOWNNAME":"安平區","LI":"華平里","LIN":"8鄰","STREET":"建平十一街","SECT":" ","MAREA":" ","LANE":" ","ALLEY":" ","HOUSE_NO":"３７９號","E_COORD97":165392.60999999999,"N_COORD97":2544011,"ADDRESS":"建平十一街３７９號","OBJECTID":494753},"geometry":{"x":165392.61000000127,"y":2544011.0000000019}},{"attributes":{"ID":494781,"DIS_CODE":0,"TOWNNAME":"安平區","LI":"建平里","LIN":"8鄰","STREET":"府前路","SECT":"二段","MAREA":" ","LANE":" ","ALLEY":" ","HOUSE_NO":"５４６號","E_COORD97":166505.01000000001,"N_COORD97":2543751.3300000001,"ADDRESS":"府前路二段５４６號","OBJECTID":494754},"geometry":{"x":166505.01000000071,"y":2543751.3300000019}},{"attributes":{"ID":494782,"DIS_CODE":0,"TOWNNAME":"安平區","LI":"金城里","LIN":"8鄰","STREET":"世平五街","SECT":" ","MAREA":" ","LANE":" ","ALLEY":" ","HOUSE_NO":"４５號","E_COORD97":162897.89999999999,"N_COORD97":2544188.7000000002,"ADDRESS":"世平五街４５號","OBJECTID":494755},"geometry":{"x":162897.90000000037,"y":2544188.7000000011}},{"attributes":{"ID":494783,"DIS_CODE":0,"TOWNNAME":"安平區","LI":"金城里","LIN":"8鄰","STREET":"世平五街","SECT":" ","MAREA":" ","LANE":" ","ALLEY":" ","HOUSE_NO":"１號","E_COORD97":162978.85000000001,"N_COORD97":2544228.7000000002,"ADDRESS":"世平五街１號","OBJECTID":494756},"geometry":{"x":162978.84999999963,"y":2544228.6999999974}},{"attributes":{"ID":494784,"DIS_CODE":0,"TOWNNAME":"安平區","LI":"金城里","LIN":"8鄰","STREET":"世平五街","SECT":" ","MAREA":" ","LANE":" ","ALLEY":" ","HOUSE_NO":"３號","E_COORD97":162974.44,"N_COORD97":2544227.3199999998,"ADDRESS":"世平五街３號","OBJECTID":494757},"geometry":{"x":162974.44000000227,"y":2544227.3200000022}},{"attributes":{"ID":494785,"DIS_CODE":0,"TOWNNAME":"安平區","LI":"金城里","LIN":"8鄰","STREET":"世平五街","SECT":" ","MAREA":" ","LANE":" ","ALLEY":" ","HOUSE_NO":"７號","E_COORD97":162967.14000000001,"N_COORD97":2544221.1299999999,"ADDRESS":"世平五街７號","OBJECTID":494758},"geometry":{"x":162967.14000000153,"y":2544221.129999999}},{"attributes":{"ID":494786,"DIS_CODE":0,"TOWNNAME":"安平區","LI":"金城里","LIN":"8鄰","STREET":"世平五街","SECT":" ","MAREA":" ","LANE":" ","ALLEY":" ","HOUSE_NO":"９號","E_COORD97":162963.14999999999,"N_COORD97":2544218.8799999999,"ADDRESS":"世平五街９號","OBJECTID":494759},"geometry":{"x":162963.1500000013,"y":2544218.8800000008}},{"attributes":{"ID":494787,"DIS_CODE":0,"TOWNNAME":"安平區","LI":"金城里","LIN":"8鄰","STREET":"世平五街","SECT":" ","MAREA":" ","LANE":" ","ALLEY":" ","HOUSE_NO":"１３號","E_COORD97":162955.78,"N_COORD97":2544215.7200000002,"ADDRESS":"世平五街１３號","OBJECTID":494760},"geometry":{"x":162955.78000000026,"y":2544215.7200000007}},{"attributes":{"ID":494788,"DIS_CODE":0,"TOWNNAME":"安平區","LI":"金城里","LIN":"8鄰","STREET":"世平五街","SECT":" ","MAREA":" ","LANE":" ","ALLEY":" ","HOUSE_NO":"１５號","E_COORD97":162952.20000000001,"N_COORD97":2544214.2000000002,"ADDRESS":"世平五街１５號","OBJECTID":494761},"geometry":{"x":162952.20000000112,"y":2544214.1999999993}},{"attributes":{"ID":494789,"DIS_CODE":0,"TOWNNAME":"安平區","LI":"金城里","LIN":"8鄰","STREET":"世平五街","SECT":" ","MAREA":" ","LANE":" ","ALLEY":" ","HOUSE_NO":"１７號","E_COORD97":162949.29999999999,"N_COORD97":2544212.2799999998,"ADDRESS":"世平五街１７號","OBJECTID":494762},"geometry":{"x":162949.30000000168,"y":2544212.2800000012}},{"attributes":{"ID":494790,"DIS_CODE":0,"TOWNNAME":"安平區","LI":"金城里","LIN":"8鄰","STREET":"世平五街","SECT":" ","MAREA":" ","LANE":" ","ALLEY":" ","HOUSE_NO":"１９號","E_COORD97":162945.03,"N_COORD97":2544210.8999999999,"ADDRESS":"世平五街１９號","OBJECTID":494763},"geometry":{"x":162945.03000000119,"y":2544210.9000000004}},{"attributes":{"ID":494791,"DIS_CODE":0,"TOWNNAME":"安平區","LI":"金城里","LIN":"8鄰","STREET":"世平五街","SECT":" ","MAREA":" ","LANE":" ","ALLEY":" ","HOUSE_NO":"２１號","E_COORD97":162941.59,"N_COORD97":2544209.1099999999,"ADDRESS":"世平五街２１號","OBJECTID":494764},"geometry":{"x":162941.58999999985,"y":2544209.1099999975}},{"attributes":{"ID":494792,"DIS_CODE":0,"TOWNNAME":"安平區","LI":"金城里","LIN":"8鄰","STREET":"世平五街","SECT":" ","MAREA":" ","LANE":" ","ALLEY":" ","HOUSE_NO":"２３號","E_COORD97":162938.14999999999,"N_COORD97":2544207.46,"ADDRESS":"世平五街２３號","OBJECTID":494765},"geometry":{"x":162938.15000000037,"y":2544207.4600000009}},{"attributes":{"ID":494793,"DIS_CODE":0,"TOWNNAME":"安平區","LI":"金城里","LIN":"8鄰","STREET":"世平五街","SECT":" ","MAREA":" ","LANE":" ","ALLEY":" ","HOUSE_NO":"２５號","E_COORD97":162934.29000000001,"N_COORD97":2544205.8100000001,"ADDRESS":"世平五街２５號","OBJECTID":494766},"geometry":{"x":162934.2900000019,"y":2544205.8100000042}},{"attributes":{"ID":494794,"DIS_CODE":0,"TOWNNAME":"安平區","LI":"金城里","LIN":"8鄰","STREET":"世平五街","SECT":" ","MAREA":" ","LANE":" ","ALLEY":" ","HOUSE_NO":"２７號","E_COORD97":162930.98000000001,"N_COORD97":2544203.4700000002,"ADDRESS":"世平五街２７號","OBJECTID":494767},"geometry":{"x":162930.98000000045,"y":2544203.4700000007}},{"attributes":{"ID":494795,"DIS_CODE":0,"TOWNNAME":"安平區","LI":"金城里","LIN":"8鄰","STREET":"世平五街","SECT":" ","MAREA":" ","LANE":" ","ALLEY":" ","HOUSE_NO":"２９號","E_COORD97":162927.26999999999,"N_COORD97":2544202.1000000001,"ADDRESS":"世平五街２９號","OBJECTID":494768},"geometry":{"x":162927.27000000048,"y":2544202.0999999996}},{"attributes":{"ID":494796,"DIS_CODE":0,"TOWNNAME":"安平區","LI":"金城里","LIN":"8鄰","STREET":"世平五街","SECT":" ","MAREA":" ","LANE":" ","ALLEY":" ","HOUSE_NO":"３１號","E_COORD97":162923.41,"N_COORD97":2544200.0299999998,"ADDRESS":"世平五街３１號","OBJECTID":494769},"geometry":{"x":162923.41000000201,"y":2544200.0300000012}},{"attributes":{"ID":494797,"DIS_CODE":0,"TOWNNAME":"安平區","LI":"金城里","LIN":"8鄰","STREET":"世平五街","SECT":" ","MAREA":" ","LANE":" ","ALLEY":" ","HOUSE_NO":"３３號","E_COORD97":162919.82999999999,"N_COORD97":2544198.79,"ADDRESS":"世平五街３３號","OBJECTID":494770},"geometry":{"x":162919.83000000007,"y":2544198.790000001}},{"attributes":{"ID":494798,"DIS_CODE":0,"TOWNNAME":"安平區","LI":"金城里","LIN":"8鄰","STREET":"世平五街","SECT":" ","MAREA":" ","LANE":" ","ALLEY":" ","HOUSE_NO":"３５號","E_COORD97":162916.10999999999,"N_COORD97":2544197,"ADDRESS":"世平五街３５號","OBJECTID":494771},"geometry":{"x":162916.11000000127,"y":2544196.9999999981}},{"attributes":{"ID":494799,"DIS_CODE":0,"TOWNNAME":"安平區","LI":"金城里","LIN":"8鄰","STREET":"世平五街","SECT":" ","MAREA":" ","LANE":" ","ALLEY":" ","HOUSE_NO":"３７號","E_COORD97":162912.23000000001,"N_COORD97":2544195.1699999999,"ADDRESS":"世平五街３７號","OBJECTID":494772},"geometry":{"x":162912.23000000045,"y":2544195.1699999999}},{"attributes":{"ID":494800,"DIS_CODE":0,"TOWNNAME":"安平區","LI":"金城里","LIN":"8鄰","STREET":"世平五街","SECT":" ","MAREA":" ","LANE":" ","ALLEY":" ","HOUSE_NO":"４１號","E_COORD97":162905.62,"N_COORD97":2544191.5899999999,"ADDRESS":"世平五街４１號","OBJECTID":494773},"geometry":{"x":162905.62000000104,"y":2544191.5899999999}},{"attributes":{"ID":494801,"DIS_CODE":0,"TOWNNAME":"安平區","LI":"金城里","LIN":"8鄰","STREET":"世平五街","SECT":" ","MAREA":" ","LANE":" ","ALLEY":" ","HOUSE_NO":"４３號","E_COORD97":162901.89999999999,"N_COORD97":2544189.9399999999,"ADDRESS":"世平五街４３號","OBJECTID":494774},"geometry":{"x":162901.9000000013,"y":2544189.9399999995}},{"attributes":{"ID":494802,"DIS_CODE":0,"TOWNNAME":"南區","LI":"大忠里","LIN":"8鄰","STREET":"中華南路","SECT":"一段","MAREA":" ","LANE":" ","ALLEY":" ","HOUSE_NO":"７１號","E_COORD97":169318.07999999999,"N_COORD97":2541351.1800000002,"ADDRESS":"中華南路一段７１號","OBJECTID":494775},"geometry":{"x":169318.08000000194,"y":2541351.1800000034}},{"attributes":{"ID":494803,"DIS_CODE":0,"TOWNNAME":"南區","LI":"大忠里","LIN":"8鄰","STREET":"中華南路","SECT":"一段","MAREA":" ","LANE":" ","ALLEY":" ","HOUSE_NO":"７６號","E_COORD97":169301.41,"N_COORD97":2541388.1299999999,"ADDRESS":"中華南路一段７６號","OBJECTID":494776},"geometry":{"x":169301.41000000108,"y":2541388.1300000027}},{"attributes":{"ID":494804,"DIS_CODE":0,"TOWNNAME":"南區","LI":"大忠里","LIN":"8鄰","STREET":"中華南路","SECT":"一段","MAREA":" ","LANE":" ","ALLEY":" ","HOUSE_NO":"７８號","E_COORD97":169293.73999999999,"N_COORD97":2541386.6499999999,"ADDRESS":"中華南路一段７８號","OBJECTID":494777},"geometry":{"x":169293.74000000115,"y":2541386.6500000022}},{"attributes":{"ID":494805,"DIS_CODE":0,"TOWNNAME":"南區","LI":"大忠里","LIN":"8鄰","STREET":"中華南路","SECT":"一段","MAREA":" ","LANE":" ","ALLEY":" ","HOUSE_NO":"８０號","E_COORD97":169289.78,"N_COORD97":2541382.46,"ADDRESS":"中華南路一段８０號","OBJECTID":494778},"geometry":{"x":169289.78000000212,"y":2541382.4600000028}},{"attributes":{"ID":494806,"DIS_CODE":0,"TOWNNAME":"南區","LI":"大忠里","LIN":"8鄰","STREET":"中華南路","SECT":"一段","MAREA":" ","LANE":" ","ALLEY":" ","HOUSE_NO":"８２號","E_COORD97":169286.57000000001,"N_COORD97":2541376.79,"ADDRESS":"中華南路一段８２號","OBJECTID":494779},"geometry":{"x":169286.57000000123,"y":2541376.7900000028}},{"attributes":{"ID":494807,"DIS_CODE":0,"TOWNNAME":"南區","LI":"大忠里","LIN":"8鄰","STREET":"中華南路","SECT":"一段","MAREA":" ","LANE":" ","ALLEY":" ","HOUSE_NO":"８６號","E_COORD97":169274.69,"N_COORD97":2541386.6499999999,"ADDRESS":"中華南路一段８６號","OBJECTID":494780},"geometry":{"x":169274.69000000041,"y":2541386.6500000022}},{"attributes":{"ID":494808,"DIS_CODE":0,"TOWNNAME":"南區","LI":"大忠里","LIN":"8鄰","STREET":"中華南路","SECT":"一段","MAREA":" ","LANE":" ","ALLEY":" ","HOUSE_NO":"８８號","E_COORD97":169270.48000000001,"N_COORD97":2541376.54,"ADDRESS":"中華南路一段８８號","OBJECTID":494781},"geometry":{"x":169270.48000000138,"y":2541376.540000001}},{"attributes":{"ID":494809,"DIS_CODE":0,"TOWNNAME":"南區","LI":"大忠里","LIN":"8鄰","STREET":"中華南路","SECT":"一段","MAREA":" ","LANE":" ","ALLEY":" ","HOUSE_NO":"９０號","E_COORD97":169280.13,"N_COORD97":2541366.4300000002,"ADDRESS":"中華南路一段９０號","OBJECTID":494782},"geometry":{"x":169280.12999999989,"y":2541366.4300000034}},{"attributes":{"ID":494810,"DIS_CODE":0,"TOWNNAME":"南區","LI":"大忠里","LIN":"8鄰","STREET":"中華南路","SECT":"一段","MAREA":" ","LANE":" ","ALLEY":" ","HOUSE_NO":"９２號","E_COORD97":169274.44,"N_COORD97":2541362.48,"ADDRESS":"中華南路一段９２號","OBJECTID":494783},"geometry":{"x":169274.44000000134,"y":2541362.4800000004}},{"attributes":{"ID":494811,"DIS_CODE":0,"TOWNNAME":"南區","LI":"大忠里","LIN":"8鄰","STREET":"中華南路","SECT":"一段","MAREA":" ","LANE":" ","ALLEY":" ","HOUSE_NO":"９４號","E_COORD97":169270.48000000001,"N_COORD97":2541359.52,"ADDRESS":"中華南路一段９４號","OBJECTID":494784},"geometry":{"x":169270.48000000138,"y":2541359.5200000014}},{"attributes":{"ID":494812,"DIS_CODE":0,"TOWNNAME":"南區","LI":"大忠里","LIN":"8鄰","STREET":"中華南路","SECT":"一段","MAREA":" ","LANE":" ","ALLEY":" ","HOUSE_NO":"９６號","E_COORD97":169266.76999999999,"N_COORD97":2541356.5600000001,"ADDRESS":"中華南路一段９６號","OBJECTID":494785},"geometry":{"x":169266.76999999955,"y":2541356.5600000024}},{"attributes":{"ID":494813,"DIS_CODE":0,"TOWNNAME":"歸仁區","LI":"辜厝里","LIN":"8鄰","STREET":"大順二街","SECT":" ","MAREA":" ","LANE":" ","ALLEY":" ","HOUSE_NO":"３６號","E_COORD97":177520.32999999999,"N_COORD97":2540610.25,"ADDRESS":"大順二街３６號","OBJECTID":494786},"geometry":{"x":177520.33000000007,"y":2540610.25}},{"attributes":{"ID":494814,"DIS_CODE":0,"TOWNNAME":"歸仁區","LI":"辜厝里","LIN":"8鄰","STREET":"中正南路","SECT":"一段","MAREA":" ","LANE":" ","ALLEY":" ","HOUSE_NO":"５６號","E_COORD97":177594.45999999999,"N_COORD97":2540607.1200000001,"ADDRESS":"中正南路一段５６號","OBJECTID":494787},"geometry":{"x":177594.45999999996,"y":2540607.1200000048}},{"attributes":{"ID":494815,"DIS_CODE":0,"TOWNNAME":"歸仁區","LI":"看東里","LIN":"8鄰","STREET":"成功一街","SECT":" ","MAREA":" ","LANE":" ","ALLEY":" ","HOUSE_NO":"８１號","E_COORD97":178581.25,"N_COORD97":2540043.4500000002,"ADDRESS":"成功一街８１號","OBJECTID":494788},"geometry":{"x":178581.25000000093,"y":2540043.450000003}},{"attributes":{"ID":494816,"DIS_CODE":0,"TOWNNAME":"歸仁區","LI":"辜厝里","LIN":"8鄰","STREET":"中正南路","SECT":"一段","MAREA":" ","LANE":" ","ALLEY":" ","HOUSE_NO":"７２號","E_COORD97":177579.39999999999,"N_COORD97":2540574.5899999999,"ADDRESS":"中正南路一段７２號","OBJECTID":494789},"geometry":{"x":177579.4000000013,"y":2540574.5899999999}},{"attributes":{"ID":494817,"DIS_CODE":0,"TOWNNAME":"歸仁區","LI":"看西里","LIN":"8鄰","STREET":"大成路","SECT":" ","MAREA":" ","LANE":" ","ALLEY":" ","HOUSE_NO":"３７７號","E_COORD97":178135.53,"N_COORD97":2540158.25,"ADDRESS":"大成路３７７號","OBJECTID":494790},"geometry":{"x":178135.53000000119,"y":2540158.2500000019}},{"attributes":{"ID":494818,"DIS_CODE":0,"TOWNNAME":"歸仁區","LI":"看東里","LIN":"8鄰","STREET":"成功三街","SECT":" ","MAREA":" ","LANE":" ","ALLEY":" ","HOUSE_NO":"１３５號","E_COORD97":178606.20999999999,"N_COORD97":2539894.3599999999,"ADDRESS":"成功三街１３５號","OBJECTID":494791},"geometry":{"x":178606.20999999996,"y":2539894.3599999994}},{"attributes":{"ID":494819,"DIS_CODE":0,"TOWNNAME":"歸仁區","LI":"看西里","LIN":"8鄰","STREET":"信義南路","SECT":" ","MAREA":" ","LANE":" ","ALLEY":" ","HOUSE_NO":"１９５號","E_COORD97":178129.56,"N_COORD97":2540219.4900000002,"ADDRESS":"信義南路１９５號","OBJECTID":494792},"geometry":{"x":178129.56000000052,"y":2540219.4900000002}},{"attributes":{"ID":494820,"DIS_CODE":0,"TOWNNAME":"歸仁區","LI":"辜厝里","LIN":"8鄰","STREET":"中正南路","SECT":"一段","MAREA":" ","LANE":" ","ALLEY":" ","HOUSE_NO":"６０號","E_COORD97":177593.45999999999,"N_COORD97":2540599.1200000001,"ADDRESS":"中正南路一段６０號","OBJECTID":494793},"geometry":{"x":177593.46000000089,"y":2540599.120000001}},{"attributes":{"ID":494821,"DIS_CODE":0,"TOWNNAME":"歸仁區","LI":"辜厝里","LIN":"8鄰","STREET":"中正南路","SECT":"一段","MAREA":" ","LANE":" ","ALLEY":" ","HOUSE_NO":"４８號","E_COORD97":177597.66,"N_COORD97":2540625.1200000001,"ADDRESS":"中正南路一段４８號","OBJECTID":494794},"geometry":{"x":177597.66000000108,"y":2540625.1200000029}},{"attributes":{"ID":494822,"DIS_CODE":0,"TOWNNAME":"歸仁區","LI":"辜厝里","LIN":"8鄰","STREET":"中正六街","SECT":" ","MAREA":" ","LANE":" ","ALLEY":" ","HOUSE_NO":"１１號","E_COORD97":177562.45999999999,"N_COORD97":2540655.1000000001,"ADDRESS":"中正六街１１號","OBJECTID":494795},"geometry":{"x":177562.46000000183,"y":2540655.0999999996}},{"attributes":{"ID":494823,"DIS_CODE":0,"TOWNNAME":"歸仁區","LI":"辜厝里","LIN":"8鄰","STREET":"中正南路","SECT":"一段","MAREA":" ","LANE":" ","ALLEY":" ","HOUSE_NO":"６２號","E_COORD97":177591.35999999999,"N_COORD97":2540595.1200000001,"ADDRESS":"中正南路一段６２號","OBJECTID":494796},"geometry":{"x":177591.36000000127,"y":2540595.1200000029}},{"attributes":{"ID":494824,"DIS_CODE":0,"TOWNNAME":"歸仁區","LI":"辜厝里","LIN":"8鄰","STREET":"中正南路","SECT":"一段","MAREA":" ","LANE":" ","ALLEY":" ","HOUSE_NO":"６６號","E_COORD97":177589.13,"N_COORD97":2540587.02,"ADDRESS":"中正南路一段６６號","OBJECTID":494797},"geometry":{"x":177589.13000000082,"y":2540587.0200000014}},{"attributes":{"ID":494825,"DIS_CODE":0,"TOWNNAME":"歸仁區","LI":"後市里","LIN":"8鄰","STREET":"中山五街","SECT":" ","MAREA":" ","LANE":" ","ALLEY":" ","HOUSE_NO":"５１號","E_COORD97":177100.59,"N_COORD97":2540686.25,"ADDRESS":"中山五街５１號","OBJECTID":494798},"geometry":{"x":177100.59000000078,"y":2540686.2499999981}},{"attributes":{"ID":494826,"DIS_CODE":0,"TOWNNAME":"歸仁區","LI":"後市里","LIN":"8鄰","STREET":"中山五街","SECT":" ","MAREA":" ","LANE":" ","ALLEY":" ","HOUSE_NO":"５５號","E_COORD97":177101.48999999999,"N_COORD97":2540676.25,"ADDRESS":"中山五街５５號","OBJECTID":494799},"geometry":{"x":177101.49000000209,"y":2540676.2500000037}},{"attributes":{"ID":494827,"DIS_CODE":0,"TOWNNAME":"歸仁區","LI":"後市里","LIN":"8鄰","STREET":"中山五街","SECT":" ","MAREA":" ","LANE":" ","ALLEY":" ","HOUSE_NO":"６５號","E_COORD97":177098.29000000001,"N_COORD97":2540645.25,"ADDRESS":"中山五街６５號","OBJECTID":494800},"geometry":{"x":177098.29000000097,"y":2540645.25}}]}