{"displayFieldName":"TOWNNAME","fieldAliases":{"ID":"ID","DIS_CODE":"DIS_CODE","TOWNNAME":"TOWNNAME","LI":"LI","LIN":"LIN","STREET":"STREET","SECT":"SECT","MAREA":"MAREA","LANE":"LANE","ALLEY":"ALLEY","HOUSE_NO":"HOUSE_NO","E_COORD97":"E_COORD97","N_COORD97":"N_COORD97","ADDRESS":"ADDRESS","OBJECTID":"OBJECTID"},"geometryType":"esriGeometryPoint","spatialReference":{"wkid":102443,"latestWkid":3826},"fields":[{"name":"ID","type":"esriFieldTypeDouble","alias":"ID"},{"name":"DIS_CODE","type":"esriFieldTypeInteger","alias":"DIS_CODE"},{"name":"TOWNNAME","type":"esriFieldTypeString","alias":"TOWNNAME","length":8},{"name":"LI","type":"esriFieldTypeString","alias":"LI","length":8},{"name":"LIN","type":"esriFieldTypeString","alias":"LIN","length":12},{"name":"STREET","type":"esriFieldTypeString","alias":"STREET","length":20},{"name":"SECT","type":"esriFieldTypeString","alias":"SECT","length":8},{"name":"MAREA","type":"esriFieldTypeString","alias":"MAREA","length":12},{"name":"LANE","type":"esriFieldTypeString","alias":"LANE","length":10},{"name":"ALLEY","type":"esriFieldTypeString","alias":"ALLEY","length":10},{"name":"HOUSE_NO","type":"esriFieldTypeString","alias":"HOUSE_NO","length":20},{"name":"E_COORD97","type":"esriFieldTypeDouble","alias":"E_COORD97"},{"name":"N_COORD97","type":"esriFieldTypeDouble","alias":"N_COORD97"},{"name":"ADDRESS","type":"esriFieldTypeString","alias":"ADDRESS","length":50},{"name":"OBJECTID","type":"esriFieldTypeOID","alias":"OBJECTID"}],"features":[{"attributes":{"ID":312809,"DIS_CODE":0,"TOWNNAME":"歸仁區","LI":"沙崙里","LIN":"1鄰","STREET":" ","SECT":" ","MAREA":"二甲","LANE":" ","ALLEY":" ","HOUSE_NO":"１５９號","E_COORD97":178593.12876399999,"N_COORD97":2539585.0101800002,"ADDRESS":"二甲１５９號","OBJECTID":312801},"geometry":{"x":178593.12876400165,"y":2539585.0101830028}},{"attributes":{"ID":312810,"DIS_CODE":0,"TOWNNAME":"歸仁區","LI":"歸南里","LIN":"1鄰","STREET":"民權南路","SECT":" ","MAREA":" ","LANE":"１９６巷","ALLEY":" ","HOUSE_NO":"５２號","E_COORD97":176887.16,"N_COORD97":2540306.5,"ADDRESS":"民權南路１９６巷５２號","OBJECTID":312802},"geometry":{"x":176887.16000000108,"y":2540306.5000000019}},{"attributes":{"ID":312811,"DIS_CODE":0,"TOWNNAME":"北區","LI":"國姓里","LIN":"7鄰","STREET":"小北路","SECT":" ","MAREA":" ","LANE":"２７巷","ALLEY":" ","HOUSE_NO":"５號","E_COORD97":168750.35999999999,"N_COORD97":2545267,"ADDRESS":"小北路２７巷５號","OBJECTID":312803},"geometry":{"x":168750.3600000022,"y":2545267}},{"attributes":{"ID":312812,"DIS_CODE":0,"TOWNNAME":"北區","LI":"國姓里","LIN":"7鄰","STREET":"小北路","SECT":" ","MAREA":" ","LANE":"２７巷","ALLEY":" ","HOUSE_NO":"７號","E_COORD97":168756.10999999999,"N_COORD97":2545268.3700000001,"ADDRESS":"小北路２７巷７號","OBJECTID":312804},"geometry":{"x":168756.11000000127,"y":2545268.3700000029}},{"attributes":{"ID":312813,"DIS_CODE":0,"TOWNNAME":"柳營區","LI":"神農里","LIN":"4鄰","STREET":" ","SECT":" ","MAREA":"果毅後","LANE":" ","ALLEY":" ","HOUSE_NO":"２６５號之８","E_COORD97":184719.45000000001,"N_COORD97":2572388.5,"ADDRESS":"果毅後２６５號之８","OBJECTID":312805},"geometry":{"x":184719.45000000019,"y":2572388.5000000019}},{"attributes":{"ID":312814,"DIS_CODE":0,"TOWNNAME":"北區","LI":"國姓里","LIN":"7鄰","STREET":"小北路","SECT":" ","MAREA":" ","LANE":"２７巷","ALLEY":" ","HOUSE_NO":"９號","E_COORD97":168757.48000000001,"N_COORD97":2545273.5699999998,"ADDRESS":"小北路２７巷９號","OBJECTID":312806},"geometry":{"x":168757.48000000045,"y":2545273.5700000003}},{"attributes":{"ID":312815,"DIS_CODE":0,"TOWNNAME":"中西區","LI":"公正里","LIN":"17鄰","STREET":"衛民街","SECT":" ","MAREA":" ","LANE":" ","ALLEY":" ","HOUSE_NO":"１３６號","E_COORD97":168788.64000000001,"N_COORD97":2543775.6200000001,"ADDRESS":"衛民街１３６號","OBJECTID":312807},"geometry":{"x":168788.6400000006,"y":2543775.620000001}},{"attributes":{"ID":312816,"DIS_CODE":0,"TOWNNAME":"柳營區","LI":"神農里","LIN":"4鄰","STREET":" ","SECT":" ","MAREA":"果毅後","LANE":" ","ALLEY":" ","HOUSE_NO":"２６５號之９","E_COORD97":184521.13,"N_COORD97":2572103.2799999998,"ADDRESS":"果毅後２６５號之９","OBJECTID":312808},"geometry":{"x":184521.12999999989,"y":2572103.2799999993}},{"attributes":{"ID":312817,"DIS_CODE":0,"TOWNNAME":"柳營區","LI":"神農里","LIN":"4鄰","STREET":" ","SECT":" ","MAREA":"果毅後","LANE":" ","ALLEY":" ","HOUSE_NO":"２７４號之１","E_COORD97":185245.39999999999,"N_COORD97":2572897.6899999999,"ADDRESS":"果毅後２７４號之１","OBJECTID":312809},"geometry":{"x":185245.40000000037,"y":2572897.6899999995}},{"attributes":{"ID":312818,"DIS_CODE":0,"TOWNNAME":"柳營區","LI":"神農里","LIN":"4鄰","STREET":" ","SECT":" ","MAREA":"果毅後","LANE":" ","ALLEY":" ","HOUSE_NO":"２７４號","E_COORD97":185253.29000000001,"N_COORD97":2572895.0600000001,"ADDRESS":"果毅後２７４號","OBJECTID":312810},"geometry":{"x":185253.29000000097,"y":2572895.0600000024}},{"attributes":{"ID":312819,"DIS_CODE":0,"TOWNNAME":"歸仁區","LI":"八甲里","LIN":"18鄰","STREET":"忠孝北路","SECT":" ","MAREA":" ","LANE":" ","ALLEY":" ","HOUSE_NO":"２７６號","E_COORD97":177955.32999999999,"N_COORD97":2541443.25,"ADDRESS":"忠孝北路２７６號","OBJECTID":312811},"geometry":{"x":177955.33000000101,"y":2541443.2500000019}},{"attributes":{"ID":312820,"DIS_CODE":0,"TOWNNAME":"中西區","LI":"公正里","LIN":"17鄰","STREET":"衛民街","SECT":" ","MAREA":" ","LANE":" ","ALLEY":" ","HOUSE_NO":"１３８號","E_COORD97":168781.20999999999,"N_COORD97":2543776.5800000001,"ADDRESS":"衛民街１３８號","OBJECTID":312812},"geometry":{"x":168781.20999999996,"y":2543776.5800000019}},{"attributes":{"ID":312821,"DIS_CODE":0,"TOWNNAME":"中西區","LI":"公正里","LIN":"17鄰","STREET":"衛民街","SECT":" ","MAREA":" ","LANE":" ","ALLEY":" ","HOUSE_NO":"１４０號","E_COORD97":168777.01000000001,"N_COORD97":2543778.52,"ADDRESS":"衛民街１４０號","OBJECTID":312813},"geometry":{"x":168777.00999999978,"y":2543778.5199999996}},{"attributes":{"ID":312822,"DIS_CODE":0,"TOWNNAME":"南區","LI":"彰南里","LIN":"17鄰","STREET":"新和路","SECT":" ","MAREA":" ","LANE":" ","ALLEY":" ","HOUSE_NO":"６號","E_COORD97":166080.78,"N_COORD97":2540972.6000000001,"ADDRESS":"新和路６號","OBJECTID":312814},"geometry":{"x":166080.78000000212,"y":2540972.6000000015}},{"attributes":{"ID":312823,"DIS_CODE":0,"TOWNNAME":"新營區","LI":"新東里","LIN":"27鄰","STREET":"東光街","SECT":" ","MAREA":" ","LANE":" ","ALLEY":" ","HOUSE_NO":"７０號","E_COORD97":180620.72800800001,"N_COORD97":2579609.8393799998,"ADDRESS":"東光街７０號","OBJECTID":312815},"geometry":{"x":180620.72800800111,"y":2579609.8393790014}},{"attributes":{"ID":312824,"DIS_CODE":0,"TOWNNAME":"南區","LI":"建南里","LIN":"7鄰","STREET":"德興路","SECT":" ","MAREA":" ","LANE":"１９０巷","ALLEY":" ","HOUSE_NO":"１３號","E_COORD97":167154.07999999999,"N_COORD97":2540197.4500000002,"ADDRESS":"德興路１９０巷１３號","OBJECTID":312816},"geometry":{"x":167154.08000000101,"y":2540197.4500000011}},{"attributes":{"ID":312825,"DIS_CODE":0,"TOWNNAME":"南區","LI":"建南里","LIN":"7鄰","STREET":"德興路","SECT":" ","MAREA":" ","LANE":"１９０巷","ALLEY":" ","HOUSE_NO":"１５號","E_COORD97":167148.64000000001,"N_COORD97":2540196.0600000001,"ADDRESS":"德興路１９０巷１５號","OBJECTID":312817},"geometry":{"x":167148.63999999966,"y":2540196.0600000005}},{"attributes":{"ID":312826,"DIS_CODE":0,"TOWNNAME":"南區","LI":"建南里","LIN":"7鄰","STREET":"德興路","SECT":" ","MAREA":" ","LANE":"１９０巷","ALLEY":" ","HOUSE_NO":"１７號","E_COORD97":167144.44,"N_COORD97":2540194.9700000002,"ADDRESS":"德興路１９０巷１７號","OBJECTID":312818},"geometry":{"x":167144.44000000227,"y":2540194.9700000025}},{"attributes":{"ID":312827,"DIS_CODE":0,"TOWNNAME":"南區","LI":"喜東里","LIN":"7鄰","STREET":"喜樹路","SECT":" ","MAREA":" ","LANE":"１５１巷","ALLEY":" ","HOUSE_NO":"１７號之１","E_COORD97":165864.45000000001,"N_COORD97":2538016.0899999999,"ADDRESS":"喜樹路１５１巷１７號之１","OBJECTID":312819},"geometry":{"x":165864.45000000112,"y":2538016.0900000017}},{"attributes":{"ID":312828,"DIS_CODE":0,"TOWNNAME":"南區","LI":"喜東里","LIN":"7鄰","STREET":"喜樹路","SECT":" ","MAREA":" ","LANE":"１５１巷","ALLEY":" ","HOUSE_NO":"１７號之２","E_COORD97":165863.51999999999,"N_COORD97":2538021.23,"ADDRESS":"喜樹路１５１巷１７號之２","OBJECTID":312820},"geometry":{"x":165863.52000000048,"y":2538021.2300000004}},{"attributes":{"ID":312829,"DIS_CODE":0,"TOWNNAME":"南區","LI":"喜東里","LIN":"7鄰","STREET":"喜樹路","SECT":" ","MAREA":" ","LANE":"１５１巷","ALLEY":" ","HOUSE_NO":"５０號","E_COORD97":165929.87,"N_COORD97":2537958.3300000001,"ADDRESS":"喜樹路１５１巷５０號","OBJECTID":312821},"geometry":{"x":165929.87000000104,"y":2537958.3300000019}},{"attributes":{"ID":312830,"DIS_CODE":0,"TOWNNAME":"南區","LI":"明德里","LIN":"7鄰","STREET":"大成路","SECT":"一段","MAREA":" ","LANE":"１９３巷","ALLEY":" ","HOUSE_NO":"２０８號","E_COORD97":168002.22,"N_COORD97":2541572.6200000001,"ADDRESS":"大成路一段１９３巷２０８號","OBJECTID":312822},"geometry":{"x":168002.21999999974,"y":2541572.620000001}},{"attributes":{"ID":312831,"DIS_CODE":0,"TOWNNAME":"歸仁區","LI":"新厝里","LIN":"7鄰","STREET":"中正三街","SECT":" ","MAREA":" ","LANE":"４３巷","ALLEY":" ","HOUSE_NO":"１２號","E_COORD97":177711.63,"N_COORD97":2540588.9300000002,"ADDRESS":"中正三街４３巷１２號","OBJECTID":312823},"geometry":{"x":177711.62999999989,"y":2540588.9299999997}},{"attributes":{"ID":312832,"DIS_CODE":0,"TOWNNAME":"歸仁區","LI":"許厝里","LIN":"7鄰","STREET":"仁愛八街","SECT":" ","MAREA":" ","LANE":"３３巷","ALLEY":" ","HOUSE_NO":"５號","E_COORD97":178176.95999999999,"N_COORD97":2540609.4199999999,"ADDRESS":"仁愛八街３３巷５號","OBJECTID":312824},"geometry":{"x":178176.96000000089,"y":2540609.4199999999}},{"attributes":{"ID":312833,"DIS_CODE":0,"TOWNNAME":"歸仁區","LI":"許厝里","LIN":"7鄰","STREET":"仁愛八街","SECT":" ","MAREA":" ","LANE":"３３巷","ALLEY":" ","HOUSE_NO":"１０號","E_COORD97":178165.91,"N_COORD97":2540611.4199999999,"ADDRESS":"仁愛八街３３巷１０號","OBJECTID":312825},"geometry":{"x":178165.91000000015,"y":2540611.4200000018}},{"attributes":{"ID":312834,"DIS_CODE":0,"TOWNNAME":"歸仁區","LI":"看東里","LIN":"7鄰","STREET":"成功路","SECT":"一段","MAREA":" ","LANE":"１５５巷","ALLEY":" ","HOUSE_NO":"１３號","E_COORD97":178583.20000000001,"N_COORD97":2540179.4500000002,"ADDRESS":"成功路一段１５５巷１３號","OBJECTID":312826},"geometry":{"x":178583.19999999925,"y":2540179.4500000011}},{"attributes":{"ID":312835,"DIS_CODE":0,"TOWNNAME":"歸仁區","LI":"看西里","LIN":"7鄰","STREET":"信義南路","SECT":" ","MAREA":" ","LANE":"１８７巷","ALLEY":" ","HOUSE_NO":"３號","E_COORD97":178163.06,"N_COORD97":2540248.4900000002,"ADDRESS":"信義南路１８７巷３號","OBJECTID":312827},"geometry":{"x":178163.05999999959,"y":2540248.4900000021}},{"attributes":{"ID":312836,"DIS_CODE":0,"TOWNNAME":"歸仁區","LI":"許厝里","LIN":"7鄰","STREET":"仁愛八街","SECT":" ","MAREA":" ","LANE":"３３巷","ALLEY":" ","HOUSE_NO":"１號","E_COORD97":178178.06,"N_COORD97":2540618.4199999999,"ADDRESS":"仁愛八街３３巷１號","OBJECTID":312828},"geometry":{"x":178178.05999999959,"y":2540618.4200000018}},{"attributes":{"ID":312837,"DIS_CODE":0,"TOWNNAME":"歸仁區","LI":"看東里","LIN":"7鄰","STREET":"成功路","SECT":"一段","MAREA":" ","LANE":"１５９巷","ALLEY":" ","HOUSE_NO":"３號","E_COORD97":178544.85000000001,"N_COORD97":2540143.4500000002,"ADDRESS":"成功路一段１５９巷３號","OBJECTID":312829},"geometry":{"x":178544.85000000056,"y":2540143.4500000011}},{"attributes":{"ID":312838,"DIS_CODE":0,"TOWNNAME":"中西區","LI":"公正里","LIN":"17鄰","STREET":"衛民街","SECT":" ","MAREA":" ","LANE":" ","ALLEY":" ","HOUSE_NO":"１４２號","E_COORD97":168768.60999999999,"N_COORD97":2543779.4900000002,"ADDRESS":"衛民街１４２號","OBJECTID":312830},"geometry":{"x":168768.61000000034,"y":2543779.4900000002}},{"attributes":{"ID":312839,"DIS_CODE":0,"TOWNNAME":"新營區","LI":"新東里","LIN":"27鄰","STREET":"東光街","SECT":" ","MAREA":" ","LANE":" ","ALLEY":" ","HOUSE_NO":"７２號","E_COORD97":180620.30424299999,"N_COORD97":2579616.1893799999,"ADDRESS":"東光街７２號","OBJECTID":312831},"geometry":{"x":180620.30424300022,"y":2579616.1893760003}},{"attributes":{"ID":312840,"DIS_CODE":0,"TOWNNAME":"新營區","LI":"新東里","LIN":"27鄰","STREET":"東光街","SECT":" ","MAREA":" ","LANE":" ","ALLEY":" ","HOUSE_NO":"７６號","E_COORD97":180619.66859700001,"N_COORD97":2579621.48104,"ADDRESS":"東光街７６號","OBJECTID":312832},"geometry":{"x":180619.66859699972,"y":2579621.4810400009}},{"attributes":{"ID":312841,"DIS_CODE":0,"TOWNNAME":"南區","LI":"建南里","LIN":"7鄰","STREET":"德興路","SECT":" ","MAREA":" ","LANE":"１９０巷","ALLEY":" ","HOUSE_NO":"６號","E_COORD97":167170.19,"N_COORD97":2540219.7200000002,"ADDRESS":"德興路１９０巷６號","OBJECTID":312833},"geometry":{"x":167170.19000000134,"y":2540219.7200000044}},{"attributes":{"ID":312842,"DIS_CODE":0,"TOWNNAME":"南區","LI":"建南里","LIN":"7鄰","STREET":"德興路","SECT":" ","MAREA":" ","LANE":"１９０巷","ALLEY":" ","HOUSE_NO":"８號","E_COORD97":167165.92999999999,"N_COORD97":2540218.5600000001,"ADDRESS":"德興路１９０巷８號","OBJECTID":312834},"geometry":{"x":167165.93000000156,"y":2540218.5600000024}},{"attributes":{"ID":312843,"DIS_CODE":0,"TOWNNAME":"南區","LI":"郡南里","LIN":"19鄰","STREET":"德興路","SECT":" ","MAREA":" ","LANE":"１７７巷","ALLEY":" ","HOUSE_NO":"６０號","E_COORD97":167310.63,"N_COORD97":2540345.3900000001,"ADDRESS":"德興路１７７巷６０號","OBJECTID":312835},"geometry":{"x":167310.63000000082,"y":2540345.3900000006}},{"attributes":{"ID":312844,"DIS_CODE":0,"TOWNNAME":"南區","LI":"郡南里","LIN":"19鄰","STREET":"德興路","SECT":" ","MAREA":" ","LANE":"１７７巷","ALLEY":" ","HOUSE_NO":"６２號","E_COORD97":167306.23999999999,"N_COORD97":2540343.1899999999,"ADDRESS":"德興路１７７巷６２號","OBJECTID":312836},"geometry":{"x":167306.24000000022,"y":2540343.1899999995}},{"attributes":{"ID":312845,"DIS_CODE":0,"TOWNNAME":"南區","LI":"郡南里","LIN":"19鄰","STREET":"德興路","SECT":" ","MAREA":" ","LANE":"１７７巷","ALLEY":" ","HOUSE_NO":"６４號","E_COORD97":167302.28,"N_COORD97":2540343.1899999999,"ADDRESS":"德興路１７７巷６４號","OBJECTID":312837},"geometry":{"x":167302.28000000026,"y":2540343.1899999995}},{"attributes":{"ID":312846,"DIS_CODE":0,"TOWNNAME":"南區","LI":"郡南里","LIN":"19鄰","STREET":"德興路","SECT":" ","MAREA":" ","LANE":"１７７巷","ALLEY":" ","HOUSE_NO":"６６號","E_COORD97":167298.54000000001,"N_COORD97":2540341.8799999999,"ADDRESS":"德興路１７７巷６６號","OBJECTID":312838},"geometry":{"x":167298.54000000004,"y":2540341.8800000027}},{"attributes":{"ID":312847,"DIS_CODE":0,"TOWNNAME":"南區","LI":"明興里","LIN":"4鄰","STREET":"德興路","SECT":" ","MAREA":" ","LANE":"２０巷","ALLEY":" ","HOUSE_NO":"８號","E_COORD97":167129.64000000001,"N_COORD97":2540833.6200000001,"ADDRESS":"德興路２０巷８號","OBJECTID":312839},"geometry":{"x":167129.63999999966,"y":2540833.620000001}},{"attributes":{"ID":312848,"DIS_CODE":0,"TOWNNAME":"歸仁區","LI":"許厝里","LIN":"7鄰","STREET":"仁愛八街","SECT":" ","MAREA":" ","LANE":"１７巷","ALLEY":" ","HOUSE_NO":"６號","E_COORD97":178204.66,"N_COORD97":2540608.4199999999,"ADDRESS":"仁愛八街１７巷６號","OBJECTID":312840},"geometry":{"x":178204.66000000108,"y":2540608.4200000018}},{"attributes":{"ID":312849,"DIS_CODE":0,"TOWNNAME":"歸仁區","LI":"南保里","LIN":"7鄰","STREET":"文化街","SECT":"三段","MAREA":" ","LANE":"１８巷","ALLEY":" ","HOUSE_NO":"８號","E_COORD97":176973.39000000001,"N_COORD97":2541306.3300000001,"ADDRESS":"文化街三段１８巷８號","OBJECTID":312841},"geometry":{"x":176973.3900000006,"y":2541306.3300000038}},{"attributes":{"ID":312850,"DIS_CODE":0,"TOWNNAME":"安南區","LI":"海東里","LIN":"17鄰","STREET":"安中路","SECT":"一段","MAREA":" ","LANE":" ","ALLEY":" ","HOUSE_NO":"８３３號","E_COORD97":167257.54999999999,"N_COORD97":2549447.9399999999,"ADDRESS":"安中路一段８３３號","OBJECTID":312842},"geometry":{"x":167257.54999999981,"y":2549447.9399999995}},{"attributes":{"ID":312851,"DIS_CODE":0,"TOWNNAME":"安南區","LI":"海南里","LIN":"17鄰","STREET":"國安街","SECT":" ","MAREA":" ","LANE":" ","ALLEY":" ","HOUSE_NO":"２２５號","E_COORD97":166570.73000000001,"N_COORD97":2546917.9199999999,"ADDRESS":"國安街２２５號","OBJECTID":312843},"geometry":{"x":166570.73000000045,"y":2546917.9200000018}},{"attributes":{"ID":312852,"DIS_CODE":0,"TOWNNAME":"安南區","LI":"海南里","LIN":"17鄰","STREET":"國安街","SECT":" ","MAREA":" ","LANE":" ","ALLEY":" ","HOUSE_NO":"２３１號","E_COORD97":166557.14999999999,"N_COORD97":2546916.3199999998,"ADDRESS":"國安街２３１號","OBJECTID":312844},"geometry":{"x":166557.1500000013,"y":2546916.3200000003}},{"attributes":{"ID":312853,"DIS_CODE":0,"TOWNNAME":"安南區","LI":"梅花里","LIN":"17鄰","STREET":"安中路","SECT":"一段","MAREA":" ","LANE":" ","ALLEY":" ","HOUSE_NO":"７１３號","E_COORD97":167520.42000000001,"N_COORD97":2549276.6499999999,"ADDRESS":"安中路一段７１３號","OBJECTID":312845},"geometry":{"x":167520.42000000179,"y":2549276.6500000022}},{"attributes":{"ID":312854,"DIS_CODE":0,"TOWNNAME":"安南區","LI":"梅花里","LIN":"17鄰","STREET":"安中路","SECT":"一段","MAREA":" ","LANE":" ","ALLEY":" ","HOUSE_NO":"７１５號","E_COORD97":167517.01000000001,"N_COORD97":2549279.6200000001,"ADDRESS":"安中路一段７１５號","OBJECTID":312846},"geometry":{"x":167517.01000000071,"y":2549279.6200000048}},{"attributes":{"ID":312855,"DIS_CODE":0,"TOWNNAME":"安南區","LI":"梅花里","LIN":"17鄰","STREET":"安中路","SECT":"一段","MAREA":" ","LANE":" ","ALLEY":" ","HOUSE_NO":"７３３號","E_COORD97":167483.39999999999,"N_COORD97":2549301.9500000002,"ADDRESS":"安中路一段７３３號","OBJECTID":312847},"geometry":{"x":167483.40000000037,"y":2549301.9499999993}},{"attributes":{"ID":312856,"DIS_CODE":0,"TOWNNAME":"安南區","LI":"梅花里","LIN":"17鄰","STREET":"安中路","SECT":"一段","MAREA":" ","LANE":" ","ALLEY":" ","HOUSE_NO":"７４３號","E_COORD97":167464.67999999999,"N_COORD97":2549313.6400000001,"ADDRESS":"安中路一段７４３號","OBJECTID":312848},"geometry":{"x":167464.68000000063,"y":2549313.6400000025}},{"attributes":{"ID":312857,"DIS_CODE":0,"TOWNNAME":"安南區","LI":"梅花里","LIN":"17鄰","STREET":"安中路","SECT":"一段","MAREA":" ","LANE":" ","ALLEY":" ","HOUSE_NO":"７４５號","E_COORD97":167459.79000000001,"N_COORD97":2549315.3399999999,"ADDRESS":"安中路一段７４５號","OBJECTID":312849},"geometry":{"x":167459.79000000004,"y":2549315.3400000017}},{"attributes":{"ID":312858,"DIS_CODE":0,"TOWNNAME":"南區","LI":"明亮里","LIN":"20鄰","STREET":"金華路","SECT":"一段","MAREA":" ","LANE":"３３６巷","ALLEY":" ","HOUSE_NO":"６２號","E_COORD97":167097.39999999999,"N_COORD97":2541024.5,"ADDRESS":"金華路一段３３６巷６２號","OBJECTID":312850},"geometry":{"x":167097.4000000013,"y":2541024.5000000019}},{"attributes":{"ID":312859,"DIS_CODE":0,"TOWNNAME":"南區","LI":"明亮里","LIN":"20鄰","STREET":"金華路","SECT":"一段","MAREA":" ","LANE":"３３６巷","ALLEY":" ","HOUSE_NO":"６４號","E_COORD97":167111.56,"N_COORD97":2541045.3300000001,"ADDRESS":"金華路一段３３６巷６４號","OBJECTID":312851},"geometry":{"x":167111.55999999959,"y":2541045.3300000038}},{"attributes":{"ID":312860,"DIS_CODE":0,"TOWNNAME":"南區","LI":"明亮里","LIN":"20鄰","STREET":"金華路","SECT":"一段","MAREA":" ","LANE":"３３６巷","ALLEY":" ","HOUSE_NO":"６６號","E_COORD97":167113.62,"N_COORD97":2541053.3100000001,"ADDRESS":"金華路一段３３６巷６６號","OBJECTID":312852},"geometry":{"x":167113.62000000011,"y":2541053.3100000024}},{"attributes":{"ID":312861,"DIS_CODE":0,"TOWNNAME":"歸仁區","LI":"南保里","LIN":"7鄰","STREET":"文化街","SECT":"三段","MAREA":" ","LANE":"１８巷","ALLEY":" ","HOUSE_NO":"１０號","E_COORD97":176978.73999999999,"N_COORD97":2541306.3300000001,"ADDRESS":"文化街三段１８巷１０號","OBJECTID":312853},"geometry":{"x":176978.74000000022,"y":2541306.3300000038}},{"attributes":{"ID":312862,"DIS_CODE":0,"TOWNNAME":"歸仁區","LI":"武東里","LIN":"7鄰","STREET":"長榮路","SECT":"二段","MAREA":" ","LANE":"７５巷","ALLEY":" ","HOUSE_NO":"３９０號","E_COORD97":176504.32000000001,"N_COORD97":2535221.2799999998,"ADDRESS":"長榮路二段７５巷３９０號","OBJECTID":312854},"geometry":{"x":176504.32000000216,"y":2535221.2800000012}},{"attributes":{"ID":312863,"DIS_CODE":0,"TOWNNAME":"歸仁區","LI":"武東里","LIN":"7鄰","STREET":"長榮路","SECT":"二段","MAREA":" ","LANE":"７５巷","ALLEY":" ","HOUSE_NO":"３５１號","E_COORD97":176537.42000000001,"N_COORD97":2535061.2799999998,"ADDRESS":"長榮路二段７５巷３５１號","OBJECTID":312855},"geometry":{"x":176537.42000000086,"y":2535061.2800000012}},{"attributes":{"ID":312864,"DIS_CODE":0,"TOWNNAME":"歸仁區","LI":"歸仁里","LIN":"14鄰","STREET":"信義北路","SECT":" ","MAREA":" ","LANE":"９６巷","ALLEY":" ","HOUSE_NO":"１５號","E_COORD97":178030.92000000001,"N_COORD97":2541054.1099999999,"ADDRESS":"信義北路９６巷１５號","OBJECTID":312856},"geometry":{"x":178030.92000000086,"y":2541054.1100000013}},{"attributes":{"ID":312865,"DIS_CODE":0,"TOWNNAME":"歸仁區","LI":"南保里","LIN":"7鄰","STREET":"文化街","SECT":"三段","MAREA":" ","LANE":"１８巷","ALLEY":" ","HOUSE_NO":"２０號","E_COORD97":176989.14000000001,"N_COORD97":2541328.3300000001,"ADDRESS":"文化街三段１８巷２０號","OBJECTID":312857},"geometry":{"x":176989.13999999966,"y":2541328.3300000019}},{"attributes":{"ID":312866,"DIS_CODE":0,"TOWNNAME":"歸仁區","LI":"歸南里","LIN":"7鄰","STREET":"中正十六街","SECT":" ","MAREA":" ","LANE":"２巷","ALLEY":" ","HOUSE_NO":"２６號","E_COORD97":176568.66,"N_COORD97":2539876.9500000002,"ADDRESS":"中正十六街２巷２６號","OBJECTID":312858},"geometry":{"x":176568.66000000108,"y":2539876.9499999993}},{"attributes":{"ID":312867,"DIS_CODE":0,"TOWNNAME":"南區","LI":"文南里","LIN":"7鄰","STREET":"健康路","SECT":"二段","MAREA":" ","LANE":"２３４巷","ALLEY":" ","HOUSE_NO":"１號","E_COORD97":167046.66,"N_COORD97":2542514.1000000001,"ADDRESS":"健康路二段２３４巷１號","OBJECTID":312859},"geometry":{"x":167046.66000000108,"y":2542514.0999999996}},{"attributes":{"ID":312868,"DIS_CODE":0,"TOWNNAME":"南區","LI":"文南里","LIN":"7鄰","STREET":"健康路","SECT":"二段","MAREA":" ","LANE":"２３４巷","ALLEY":" ","HOUSE_NO":"３號","E_COORD97":167046.73999999999,"N_COORD97":2542518.3700000001,"ADDRESS":"健康路二段２３４巷３號","OBJECTID":312860},"geometry":{"x":167046.74000000022,"y":2542518.3700000029}},{"attributes":{"ID":312869,"DIS_CODE":0,"TOWNNAME":"南區","LI":"文南里","LIN":"7鄰","STREET":"健康路","SECT":"二段","MAREA":" ","LANE":"２３４巷","ALLEY":" ","HOUSE_NO":"５號","E_COORD97":167046.84,"N_COORD97":2542523,"ADDRESS":"健康路二段２３４巷５號","OBJECTID":312861},"geometry":{"x":167046.84000000078,"y":2542523.0000000019}},{"attributes":{"ID":312870,"DIS_CODE":0,"TOWNNAME":"南區","LI":"文南里","LIN":"7鄰","STREET":"健康路","SECT":"二段","MAREA":" ","LANE":"２３４巷","ALLEY":" ","HOUSE_NO":"７號","E_COORD97":167047.10000000001,"N_COORD97":2542527.27,"ADDRESS":"健康路二段２３４巷７號","OBJECTID":312862},"geometry":{"x":167047.09999999963,"y":2542527.2700000014}},{"attributes":{"ID":312871,"DIS_CODE":0,"TOWNNAME":"安南區","LI":"梅花里","LIN":"17鄰","STREET":"安中路","SECT":"一段","MAREA":" ","LANE":" ","ALLEY":" ","HOUSE_NO":"７４７號","E_COORD97":167455.95999999999,"N_COORD97":2549317.04,"ADDRESS":"安中路一段７４７號","OBJECTID":312863},"geometry":{"x":167455.96000000089,"y":2549317.040000001}},{"attributes":{"ID":312872,"DIS_CODE":0,"TOWNNAME":"安南區","LI":"梅花里","LIN":"17鄰","STREET":"安中路","SECT":"一段","MAREA":" ","LANE":" ","ALLEY":" ","HOUSE_NO":"７４９號","E_COORD97":167451.91,"N_COORD97":2549319.1699999999,"ADDRESS":"安中路一段７４９號","OBJECTID":312864},"geometry":{"x":167451.91000000108,"y":2549319.1700000018}},{"attributes":{"ID":312873,"DIS_CODE":0,"TOWNNAME":"安南區","LI":"梅花里","LIN":"17鄰","STREET":"安中路","SECT":"一段","MAREA":" ","LANE":" ","ALLEY":" ","HOUSE_NO":"７５１號","E_COORD97":167446.81,"N_COORD97":2549319.5899999999,"ADDRESS":"安中路一段７５１號","OBJECTID":312865},"geometry":{"x":167446.81000000052,"y":2549319.5900000017}},{"attributes":{"ID":312874,"DIS_CODE":0,"TOWNNAME":"南區","LI":"文南里","LIN":"4鄰","STREET":"金華路","SECT":"二段","MAREA":" ","LANE":"２８９巷","ALLEY":" ","HOUSE_NO":"１１號","E_COORD97":167062.01000000001,"N_COORD97":2542778.7400000002,"ADDRESS":"金華路二段２８９巷１１號","OBJECTID":312866},"geometry":{"x":167062.01000000164,"y":2542778.7400000039}},{"attributes":{"ID":312875,"DIS_CODE":0,"TOWNNAME":"南區","LI":"文南里","LIN":"4鄰","STREET":"金華路","SECT":"二段","MAREA":" ","LANE":"２８９巷","ALLEY":" ","HOUSE_NO":"１３號","E_COORD97":167057.69,"N_COORD97":2542778.7400000002,"ADDRESS":"金華路二段２８９巷１３號","OBJECTID":312867},"geometry":{"x":167057.69000000041,"y":2542778.7400000039}},{"attributes":{"ID":312876,"DIS_CODE":0,"TOWNNAME":"南區","LI":"文南里","LIN":"4鄰","STREET":"金華路","SECT":"二段","MAREA":" ","LANE":"２８９巷","ALLEY":" ","HOUSE_NO":"１５號","E_COORD97":167052.67000000001,"N_COORD97":2542778.7400000002,"ADDRESS":"金華路二段２８９巷１５號","OBJECTID":312868},"geometry":{"x":167052.67000000179,"y":2542778.7400000039}},{"attributes":{"ID":312877,"DIS_CODE":0,"TOWNNAME":"玉井區","LI":"三埔里","LIN":"13鄰","STREET":" ","SECT":" ","MAREA":"三埔","LANE":" ","ALLEY":" ","HOUSE_NO":"１之１７號","E_COORD97":196762.04000000001,"N_COORD97":2555955.2999999998,"ADDRESS":"三埔１之１７號","OBJECTID":312869},"geometry":{"x":196762.04000000097,"y":2555955.3000000026}},{"attributes":{"ID":312878,"DIS_CODE":0,"TOWNNAME":"南區","LI":"文南里","LIN":"4鄰","STREET":"金華路","SECT":"二段","MAREA":" ","LANE":"２８９巷","ALLEY":" ","HOUSE_NO":"１７號","E_COORD97":167048.48000000001,"N_COORD97":2542779.1600000001,"ADDRESS":"金華路二段２８９巷１７號","OBJECTID":312870},"geometry":{"x":167048.48000000045,"y":2542779.1600000039}},{"attributes":{"ID":312879,"DIS_CODE":0,"TOWNNAME":"南區","LI":"文南里","LIN":"4鄰","STREET":"金華路","SECT":"二段","MAREA":" ","LANE":"２８９巷","ALLEY":" ","HOUSE_NO":"１９號","E_COORD97":167044.29000000001,"N_COORD97":2542779.8599999999,"ADDRESS":"金華路二段２８９巷１９號","OBJECTID":312871},"geometry":{"x":167044.29000000004,"y":2542779.8599999994}},{"attributes":{"ID":312880,"DIS_CODE":0,"TOWNNAME":"南區","LI":"文南里","LIN":"4鄰","STREET":"金華路","SECT":"二段","MAREA":" ","LANE":"２８９巷","ALLEY":" ","HOUSE_NO":"２１號","E_COORD97":167039.82999999999,"N_COORD97":2542779.7200000002,"ADDRESS":"金華路二段２８９巷２１號","OBJECTID":312872},"geometry":{"x":167039.83000000194,"y":2542779.7200000025}},{"attributes":{"ID":312881,"DIS_CODE":0,"TOWNNAME":"南區","LI":"文華里","LIN":"17鄰","STREET":"南樂街","SECT":" ","MAREA":" ","LANE":" ","ALLEY":" ","HOUSE_NO":"１３號","E_COORD97":166836.76999999999,"N_COORD97":2543166.2400000002,"ADDRESS":"南樂街１３號","OBJECTID":312873},"geometry":{"x":166836.77000000048,"y":2543166.2400000021}},{"attributes":{"ID":312882,"DIS_CODE":0,"TOWNNAME":"南區","LI":"文華里","LIN":"17鄰","STREET":"南樂街","SECT":" ","MAREA":" ","LANE":" ","ALLEY":" ","HOUSE_NO":"１５號","E_COORD97":166846.47,"N_COORD97":2543161.21,"ADDRESS":"南樂街１５號","OBJECTID":312874},"geometry":{"x":166846.46999999974,"y":2543161.2100000009}},{"attributes":{"ID":312883,"DIS_CODE":0,"TOWNNAME":"南區","LI":"文華里","LIN":"27鄰","STREET":"中華西路","SECT":"一段","MAREA":" ","LANE":" ","ALLEY":" ","HOUSE_NO":"４３８號","E_COORD97":166610.26999999999,"N_COORD97":2542893.3599999999,"ADDRESS":"中華西路一段４３８號","OBJECTID":312875},"geometry":{"x":166610.26999999955,"y":2542893.3600000013}},{"attributes":{"ID":312884,"DIS_CODE":0,"TOWNNAME":"南區","LI":"彰南里","LIN":"13鄰","STREET":"新仁路","SECT":" ","MAREA":" ","LANE":" ","ALLEY":" ","HOUSE_NO":"１７號","E_COORD97":165987.35000000001,"N_COORD97":2541840.1600000001,"ADDRESS":"新仁路１７號","OBJECTID":312876},"geometry":{"x":165987.34999999963,"y":2541840.1600000039}},{"attributes":{"ID":312885,"DIS_CODE":0,"TOWNNAME":"南區","LI":"彰南里","LIN":"17鄰","STREET":"新義路","SECT":" ","MAREA":" ","LANE":" ","ALLEY":" ","HOUSE_NO":"１號","E_COORD97":166241.54000000001,"N_COORD97":2541193.75,"ADDRESS":"新義路１號","OBJECTID":312877},"geometry":{"x":166241.5400000019,"y":2541193.75}},{"attributes":{"ID":312886,"DIS_CODE":0,"TOWNNAME":"南區","LI":"彰南里","LIN":"17鄰","STREET":"新義路","SECT":" ","MAREA":" ","LANE":" ","ALLEY":" ","HOUSE_NO":"５號","E_COORD97":166177.51000000001,"N_COORD97":2541193.2200000002,"ADDRESS":"新義路５號","OBJECTID":312878},"geometry":{"x":166177.51000000071,"y":2541193.2200000025}},{"attributes":{"ID":312887,"DIS_CODE":0,"TOWNNAME":"南區","LI":"彰南里","LIN":"19鄰","STREET":"新港路","SECT":" ","MAREA":" ","LANE":" ","ALLEY":" ","HOUSE_NO":"２５號","E_COORD97":165571.62,"N_COORD97":2542149.9199999999,"ADDRESS":"新港路２５號","OBJECTID":312879},"geometry":{"x":165571.62000000197,"y":2542149.9200000037}},{"attributes":{"ID":312888,"DIS_CODE":0,"TOWNNAME":"南區","LI":"彰南里","LIN":"19鄰","STREET":"新樂路","SECT":" ","MAREA":" ","LANE":" ","ALLEY":" ","HOUSE_NO":"１０號","E_COORD97":165681.14000000001,"N_COORD97":2542157.5800000001,"ADDRESS":"新樂路１０號","OBJECTID":312880},"geometry":{"x":165681.14000000153,"y":2542157.5800000001}},{"attributes":{"ID":312889,"DIS_CODE":0,"TOWNNAME":"南區","LI":"彰南里","LIN":"19鄰","STREET":"新樂路","SECT":" ","MAREA":" ","LANE":" ","ALLEY":" ","HOUSE_NO":"１２號","E_COORD97":165667.95000000001,"N_COORD97":2542131.8399999999,"ADDRESS":"新樂路１２號","OBJECTID":312881},"geometry":{"x":165667.95000000112,"y":2542131.8399999999}},{"attributes":{"ID":312890,"DIS_CODE":0,"TOWNNAME":"南區","LI":"文南里","LIN":"9鄰","STREET":"長南街","SECT":" ","MAREA":" ","LANE":"３６巷","ALLEY":" ","HOUSE_NO":"１１號","E_COORD97":166973.82000000001,"N_COORD97":2542672.3599999999,"ADDRESS":"長南街３６巷１１號","OBJECTID":312882},"geometry":{"x":166973.8200000003,"y":2542672.3600000013}},{"attributes":{"ID":312891,"DIS_CODE":0,"TOWNNAME":"南區","LI":"文南里","LIN":"9鄰","STREET":"長南街","SECT":" ","MAREA":" ","LANE":"３６巷","ALLEY":" ","HOUSE_NO":"２５號","E_COORD97":166975.78,"N_COORD97":2542704.71,"ADDRESS":"長南街３６巷２５號","OBJECTID":312883},"geometry":{"x":166975.77999999933,"y":2542704.709999999}},{"attributes":{"ID":312892,"DIS_CODE":0,"TOWNNAME":"南區","LI":"文南里","LIN":"9鄰","STREET":"長南街","SECT":" ","MAREA":" ","LANE":"３６巷","ALLEY":" ","HOUSE_NO":"２７號","E_COORD97":166976.47,"N_COORD97":2542709.73,"ADDRESS":"長南街３６巷２７號","OBJECTID":312884},"geometry":{"x":166976.47000000067,"y":2542709.7300000004}},{"attributes":{"ID":312893,"DIS_CODE":0,"TOWNNAME":"南區","LI":"文華里","LIN":"14鄰","STREET":"金華路","SECT":"二段","MAREA":" ","LANE":"３９９巷","ALLEY":" ","HOUSE_NO":"１８號","E_COORD97":167081.37,"N_COORD97":2543059.52,"ADDRESS":"金華路二段３９９巷１８號","OBJECTID":312885},"geometry":{"x":167081.37000000011,"y":2543059.5199999996}},{"attributes":{"ID":312894,"DIS_CODE":0,"TOWNNAME":"南區","LI":"文南里","LIN":"7鄰","STREET":"健康路","SECT":"二段","MAREA":" ","LANE":"２３４巷","ALLEY":" ","HOUSE_NO":"９號","E_COORD97":167047.01000000001,"N_COORD97":2542531.7999999998,"ADDRESS":"健康路二段２３４巷９號","OBJECTID":312886},"geometry":{"x":167047.01000000071,"y":2542531.8000000026}},{"attributes":{"ID":312895,"DIS_CODE":0,"TOWNNAME":"南區","LI":"文南里","LIN":"7鄰","STREET":"健康路","SECT":"二段","MAREA":" ","LANE":"２３４巷","ALLEY":" ","HOUSE_NO":"１１號","E_COORD97":167047.73000000001,"N_COORD97":2542536.3700000001,"ADDRESS":"健康路二段２３４巷１１號","OBJECTID":312887},"geometry":{"x":167047.73000000231,"y":2542536.370000001}},{"attributes":{"ID":312896,"DIS_CODE":0,"TOWNNAME":"南區","LI":"文南里","LIN":"7鄰","STREET":"健康路","SECT":"二段","MAREA":" ","LANE":"２３４巷","ALLEY":" ","HOUSE_NO":"１３號","E_COORD97":167047.82000000001,"N_COORD97":2542541.1699999999,"ADDRESS":"健康路二段２３４巷１３號","OBJECTID":312888},"geometry":{"x":167047.8200000003,"y":2542541.1699999981}},{"attributes":{"ID":312897,"DIS_CODE":0,"TOWNNAME":"南區","LI":"文南里","LIN":"7鄰","STREET":"健康路","SECT":"二段","MAREA":" ","LANE":"２３４巷","ALLEY":" ","HOUSE_NO":"１５號","E_COORD97":167048.09,"N_COORD97":2542545.7000000002,"ADDRESS":"健康路二段２３４巷１５號","OBJECTID":312889},"geometry":{"x":167048.09000000078,"y":2542545.6999999993}},{"attributes":{"ID":312898,"DIS_CODE":0,"TOWNNAME":"南區","LI":"文南里","LIN":"7鄰","STREET":"健康路","SECT":"二段","MAREA":" ","LANE":"２３４巷","ALLEY":" ","HOUSE_NO":"１９號","E_COORD97":167049.41,"N_COORD97":2542554.77,"ADDRESS":"健康路二段２３４巷１９號","OBJECTID":312890},"geometry":{"x":167049.41000000201,"y":2542554.7700000014}},{"attributes":{"ID":312899,"DIS_CODE":0,"TOWNNAME":"南區","LI":"文南里","LIN":"7鄰","STREET":"健康路","SECT":"二段","MAREA":" ","LANE":"２３４巷","ALLEY":" ","HOUSE_NO":"２１號","E_COORD97":167049.32999999999,"N_COORD97":2542559.9300000002,"ADDRESS":"健康路二段２３４巷２１號","OBJECTID":312891},"geometry":{"x":167049.33000000007,"y":2542559.9300000034}},{"attributes":{"ID":312900,"DIS_CODE":0,"TOWNNAME":"安南區","LI":"梅花里","LIN":"17鄰","STREET":"安中路","SECT":"一段","MAREA":" ","LANE":" ","ALLEY":" ","HOUSE_NO":"７５３號","E_COORD97":167443.82999999999,"N_COORD97":2549322.7799999998,"ADDRESS":"安中路一段７５３號","OBJECTID":312892},"geometry":{"x":167443.83000000101,"y":2549322.7799999993}},{"attributes":{"ID":312901,"DIS_CODE":0,"TOWNNAME":"安南區","LI":"梅花里","LIN":"17鄰","STREET":"安中路","SECT":"一段","MAREA":" ","LANE":" ","ALLEY":" ","HOUSE_NO":"７９７號","E_COORD97":167342.06,"N_COORD97":2549387.71,"ADDRESS":"安中路一段７９７號","OBJECTID":312893},"geometry":{"x":167342.05999999959,"y":2549387.7100000028}},{"attributes":{"ID":312902,"DIS_CODE":0,"TOWNNAME":"安南區","LI":"淵中里","LIN":"17鄰","STREET":"海中街","SECT":" ","MAREA":" ","LANE":" ","ALLEY":" ","HOUSE_NO":"７１７號","E_COORD97":165820.17999999999,"N_COORD97":2549721.8799999999,"ADDRESS":"海中街７１７號","OBJECTID":312894},"geometry":{"x":165820.18000000063,"y":2549721.879999999}},{"attributes":{"ID":312903,"DIS_CODE":0,"TOWNNAME":"南區","LI":"文南里","LIN":"9鄰","STREET":"長南街","SECT":" ","MAREA":" ","LANE":" ","ALLEY":" ","HOUSE_NO":"３３號","E_COORD97":166962.78,"N_COORD97":2542610.21,"ADDRESS":"長南街３３號","OBJECTID":312895},"geometry":{"x":166962.78000000119,"y":2542610.2100000046}},{"attributes":{"ID":312904,"DIS_CODE":0,"TOWNNAME":"南區","LI":"建南里","LIN":"13鄰","STREET":"德興路","SECT":" ","MAREA":" ","LANE":"２７４巷","ALLEY":" ","HOUSE_NO":"７６號","E_COORD97":167016.92000000001,"N_COORD97":2540029.1299999999,"ADDRESS":"德興路２７４巷７６號","OBJECTID":312896},"geometry":{"x":167016.92000000179,"y":2540029.1300000008}},{"attributes":{"ID":312905,"DIS_CODE":0,"TOWNNAME":"南區","LI":"明德里","LIN":"4鄰","STREET":"大成路","SECT":"一段","MAREA":" ","LANE":"１９３巷","ALLEY":" ","HOUSE_NO":"２００號之１","E_COORD97":167936.39000000001,"N_COORD97":2541533.46,"ADDRESS":"大成路一段１９３巷２００號之１","OBJECTID":312897},"geometry":{"x":167936.3900000006,"y":2541533.4600000046}},{"attributes":{"ID":312906,"DIS_CODE":0,"TOWNNAME":"南區","LI":"白雪里","LIN":"20鄰","STREET":"鹽埕路","SECT":" ","MAREA":" ","LANE":"１６０巷","ALLEY":" ","HOUSE_NO":"１３號","E_COORD97":166895.03,"N_COORD97":2541039.3599999999,"ADDRESS":"鹽埕路１６０巷１３號","OBJECTID":312898},"geometry":{"x":166895.03000000119,"y":2541039.3599999994}},{"attributes":{"ID":312907,"DIS_CODE":0,"TOWNNAME":"南區","LI":"文南里","LIN":"7鄰","STREET":"健康路","SECT":"二段","MAREA":" ","LANE":"２３４巷","ALLEY":" ","HOUSE_NO":"２３號","E_COORD97":167049.87,"N_COORD97":2542564.6099999999,"ADDRESS":"健康路二段２３４巷２３號","OBJECTID":312899},"geometry":{"x":167049.87000000104,"y":2542564.6099999994}},{"attributes":{"ID":312908,"DIS_CODE":0,"TOWNNAME":"南區","LI":"文南里","LIN":"7鄰","STREET":"健康路","SECT":"二段","MAREA":" ","LANE":"２３４巷","ALLEY":" ","HOUSE_NO":"２５號","E_COORD97":167050.04000000001,"N_COORD97":2542569.0600000001,"ADDRESS":"健康路二段２３４巷２５號","OBJECTID":312900},"geometry":{"x":167050.03999999911,"y":2542569.0600000005}},{"attributes":{"ID":312909,"DIS_CODE":0,"TOWNNAME":"南區","LI":"文南里","LIN":"7鄰","STREET":"健康路","SECT":"二段","MAREA":" ","LANE":"２３４巷","ALLEY":" ","HOUSE_NO":"２７號","E_COORD97":167050.04000000001,"N_COORD97":2542573.3199999998,"ADDRESS":"健康路二段２３４巷２７號","OBJECTID":312901},"geometry":{"x":167050.03999999911,"y":2542573.3200000003}},{"attributes":{"ID":312910,"DIS_CODE":0,"TOWNNAME":"南區","LI":"文南里","LIN":"7鄰","STREET":"健康路","SECT":"二段","MAREA":" ","LANE":"２３４巷","ALLEY":" ","HOUSE_NO":"２９號","E_COORD97":167050.39999999999,"N_COORD97":2542578.2200000002,"ADDRESS":"健康路二段２３４巷２９號","OBJECTID":312902},"geometry":{"x":167050.4000000013,"y":2542578.2200000007}},{"attributes":{"ID":312911,"DIS_CODE":0,"TOWNNAME":"南區","LI":"文南里","LIN":"7鄰","STREET":"健康路","SECT":"二段","MAREA":" ","LANE":"２３４巷","ALLEY":" ","HOUSE_NO":"３１號","E_COORD97":167050.76000000001,"N_COORD97":2542582.8399999999,"ADDRESS":"健康路二段２３４巷３１號","OBJECTID":312903},"geometry":{"x":167050.76000000071,"y":2542582.8399999999}},{"attributes":{"ID":312912,"DIS_CODE":0,"TOWNNAME":"南區","LI":"文南里","LIN":"7鄰","STREET":"健康路","SECT":"二段","MAREA":" ","LANE":"２５２巷","ALLEY":" ","HOUSE_NO":"６號","E_COORD97":167022.12,"N_COORD97":2542524.9700000002,"ADDRESS":"健康路二段２５２巷６號","OBJECTID":312904},"geometry":{"x":167022.12000000011,"y":2542524.9700000007}},{"attributes":{"ID":312913,"DIS_CODE":0,"TOWNNAME":"南區","LI":"文南里","LIN":"7鄰","STREET":"健康路","SECT":"二段","MAREA":" ","LANE":"２５２巷","ALLEY":" ","HOUSE_NO":"８號","E_COORD97":167022.38,"N_COORD97":2542528.9700000002,"ADDRESS":"健康路二段２５２巷８號","OBJECTID":312905},"geometry":{"x":167022.38000000175,"y":2542528.9700000007}},{"attributes":{"ID":312914,"DIS_CODE":0,"TOWNNAME":"南區","LI":"文南里","LIN":"7鄰","STREET":"健康路","SECT":"二段","MAREA":" ","LANE":"２５２巷","ALLEY":" ","HOUSE_NO":"１０號","E_COORD97":167022.48000000001,"N_COORD97":2542533.6800000002,"ADDRESS":"健康路二段２５２巷１０號","OBJECTID":312906},"geometry":{"x":167022.48000000138,"y":2542533.6799999997}},{"attributes":{"ID":312915,"DIS_CODE":0,"TOWNNAME":"南區","LI":"文南里","LIN":"7鄰","STREET":"健康路","SECT":"二段","MAREA":" ","LANE":"２５２巷","ALLEY":" ","HOUSE_NO":"１４號","E_COORD97":167023.26999999999,"N_COORD97":2542542.79,"ADDRESS":"健康路二段２５２巷１４號","OBJECTID":312907},"geometry":{"x":167023.27000000048,"y":2542542.7899999991}},{"attributes":{"ID":312916,"DIS_CODE":0,"TOWNNAME":"南區","LI":"文南里","LIN":"7鄰","STREET":"健康路","SECT":"二段","MAREA":" ","LANE":"２５２巷","ALLEY":" ","HOUSE_NO":"２２號","E_COORD97":167024.23000000001,"N_COORD97":2542562.21,"ADDRESS":"健康路二段２５２巷２２號","OBJECTID":312908},"geometry":{"x":167024.23000000138,"y":2542562.2100000009}},{"attributes":{"ID":312917,"DIS_CODE":0,"TOWNNAME":"南區","LI":"文南里","LIN":"7鄰","STREET":"健康路","SECT":"二段","MAREA":" ","LANE":"２５２巷","ALLEY":" ","HOUSE_NO":"２４號","E_COORD97":167024.59,"N_COORD97":2542566.48,"ADDRESS":"健康路二段２５２巷２４號","OBJECTID":312909},"geometry":{"x":167024.59000000078,"y":2542566.4800000004}},{"attributes":{"ID":312918,"DIS_CODE":0,"TOWNNAME":"麻豆區","LI":"\u25A0江里","LIN":"7鄰","STREET":"民權路","SECT":" ","MAREA":" ","LANE":"３０巷","ALLEY":" ","HOUSE_NO":"１號之２","E_COORD97":173334.20000000001,"N_COORD97":2564454.7599999998,"ADDRESS":"民權路３０巷１號之２","OBJECTID":312910},"geometry":{"x":173334.20000000019,"y":2564454.7599999998}},{"attributes":{"ID":312919,"DIS_CODE":0,"TOWNNAME":"安南區","LI":"新順里","LIN":"17鄰","STREET":"慶安路","SECT":" ","MAREA":" ","LANE":" ","ALLEY":" ","HOUSE_NO":"１５８號","E_COORD97":169464.64999999999,"N_COORD97":2549291.0600000001,"ADDRESS":"慶安路１５８號","OBJECTID":312911},"geometry":{"x":169464.65000000037,"y":2549291.0600000024}},{"attributes":{"ID":312920,"DIS_CODE":0,"TOWNNAME":"安南區","LI":"溪頂里","LIN":"17鄰","STREET":"德安街","SECT":" ","MAREA":" ","LANE":" ","ALLEY":" ","HOUSE_NO":"６４號","E_COORD97":168577.09,"N_COORD97":2547374.4500000002,"ADDRESS":"德安街６４號","OBJECTID":312912},"geometry":{"x":168577.09000000171,"y":2547374.4500000011}},{"attributes":{"ID":312921,"DIS_CODE":0,"TOWNNAME":"永康區","LI":"勝利里","LIN":"17鄰","STREET":"中華一路","SECT":" ","MAREA":" ","LANE":" ","ALLEY":" ","HOUSE_NO":"２９８號","E_COORD97":171268.66,"N_COORD97":2544997.5,"ADDRESS":"中華一路２９８號","OBJECTID":312913},"geometry":{"x":171268.66000000015,"y":2544997.5000000037}},{"attributes":{"ID":312922,"DIS_CODE":0,"TOWNNAME":"南區","LI":"廣州里","LIN":"4鄰","STREET":"夏林路","SECT":" ","MAREA":" ","LANE":" ","ALLEY":" ","HOUSE_NO":"１號之４","E_COORD97":167476.88,"N_COORD97":2543079.9100000001,"ADDRESS":"夏林路１號之４","OBJECTID":312914},"geometry":{"x":167476.88000000082,"y":2543079.910000002}},{"attributes":{"ID":312923,"DIS_CODE":0,"TOWNNAME":"歸仁區","LI":"看東里","LIN":"5鄰","STREET":"成功五街","SECT":" ","MAREA":" ","LANE":"９５巷","ALLEY":" ","HOUSE_NO":"２號","E_COORD97":178425.06,"N_COORD97":2539927.3599999999,"ADDRESS":"成功五街９５巷２號","OBJECTID":312915},"geometry":{"x":178425.06000000052,"y":2539927.3599999994}},{"attributes":{"ID":312924,"DIS_CODE":0,"TOWNNAME":"麻豆區","LI":"\u25A0江里","LIN":"7鄰","STREET":"民權路","SECT":" ","MAREA":" ","LANE":"３０巷","ALLEY":" ","HOUSE_NO":"１號","E_COORD97":173352.94,"N_COORD97":2564451.6499999999,"ADDRESS":"民權路３０巷１號","OBJECTID":312916},"geometry":{"x":173352.94000000134,"y":2564451.6500000022}},{"attributes":{"ID":312925,"DIS_CODE":0,"TOWNNAME":"麻豆區","LI":"\u25A0江里","LIN":"7鄰","STREET":"民權路","SECT":" ","MAREA":" ","LANE":"３０巷","ALLEY":" ","HOUSE_NO":"３號之１","E_COORD97":173324.88,"N_COORD97":2564453.04,"ADDRESS":"民權路３０巷３號之１","OBJECTID":312917},"geometry":{"x":173324.87999999896,"y":2564453.0399999991}},{"attributes":{"ID":312926,"DIS_CODE":0,"TOWNNAME":"北區","LI":"正風里","LIN":"7鄰","STREET":"公園路","SECT":" ","MAREA":" ","LANE":"９５２巷","ALLEY":" ","HOUSE_NO":"１７號","E_COORD97":169498.54999999999,"N_COORD97":2546245.0099999998,"ADDRESS":"公園路９５２巷１７號","OBJECTID":312918},"geometry":{"x":169498.55000000075,"y":2546245.0100000016}},{"attributes":{"ID":312927,"DIS_CODE":0,"TOWNNAME":"北區","LI":"正風里","LIN":"7鄰","STREET":"公園路","SECT":" ","MAREA":" ","LANE":"９５２巷","ALLEY":" ","HOUSE_NO":"２１號","E_COORD97":169521.06,"N_COORD97":2546237.9100000001,"ADDRESS":"公園路９５２巷２１號","OBJECTID":312919},"geometry":{"x":169521.05999999866,"y":2546237.9100000001}},{"attributes":{"ID":312928,"DIS_CODE":0,"TOWNNAME":"北區","LI":"正風里","LIN":"7鄰","STREET":"公園路","SECT":" ","MAREA":" ","LANE":"９５２巷","ALLEY":" ","HOUSE_NO":"２７號","E_COORD97":169527.31,"N_COORD97":2546253.6499999999,"ADDRESS":"公園路９５２巷２７號","OBJECTID":312920},"geometry":{"x":169527.30999999959,"y":2546253.6500000004}},{"attributes":{"ID":312929,"DIS_CODE":0,"TOWNNAME":"北區","LI":"正風里","LIN":"7鄰","STREET":"公園路","SECT":" ","MAREA":" ","LANE":"９５２巷","ALLEY":" ","HOUSE_NO":"３３號","E_COORD97":169531.35999999999,"N_COORD97":2546263.8599999999,"ADDRESS":"公園路９５２巷３３號","OBJECTID":312921},"geometry":{"x":169531.36000000034,"y":2546263.8600000013}},{"attributes":{"ID":312930,"DIS_CODE":0,"TOWNNAME":"北區","LI":"正風里","LIN":"7鄰","STREET":"公園路","SECT":" ","MAREA":" ","LANE":"９５２巷","ALLEY":" ","HOUSE_NO":"３５號","E_COORD97":169537.60999999999,"N_COORD97":2546268.0899999999,"ADDRESS":"公園路９５２巷３５號","OBJECTID":312922},"geometry":{"x":169537.61000000127,"y":2546268.0900000036}},{"attributes":{"ID":312931,"DIS_CODE":0,"TOWNNAME":"北區","LI":"正風里","LIN":"7鄰","STREET":"公園路","SECT":" ","MAREA":" ","LANE":"９５２巷","ALLEY":" ","HOUSE_NO":"３７號","E_COORD97":169539.07000000001,"N_COORD97":2546271.8999999999,"ADDRESS":"公園路９５２巷３７號","OBJECTID":312923},"geometry":{"x":169539.07000000123,"y":2546271.9000000004}},{"attributes":{"ID":312932,"DIS_CODE":0,"TOWNNAME":"北區","LI":"正風里","LIN":"7鄰","STREET":"公園路","SECT":" ","MAREA":" ","LANE":"９５２巷","ALLEY":" ","HOUSE_NO":"３９號","E_COORD97":169540.85999999999,"N_COORD97":2546276.3799999999,"ADDRESS":"公園路９５２巷３９號","OBJECTID":312924},"geometry":{"x":169540.86000000127,"y":2546276.3800000008}},{"attributes":{"ID":312933,"DIS_CODE":0,"TOWNNAME":"北區","LI":"正風里","LIN":"7鄰","STREET":"公園路","SECT":" ","MAREA":" ","LANE":"９５２巷","ALLEY":" ","HOUSE_NO":"４１號","E_COORD97":169542.72,"N_COORD97":2546279.2999999998,"ADDRESS":"公園路９５２巷４１號","OBJECTID":312925},"geometry":{"x":169542.72000000067,"y":2546279.3000000007}},{"attributes":{"ID":312934,"DIS_CODE":0,"TOWNNAME":"北區","LI":"正風里","LIN":"7鄰","STREET":"公園路","SECT":" ","MAREA":" ","LANE":"９５２巷","ALLEY":" ","HOUSE_NO":"４３號","E_COORD97":169543.54000000001,"N_COORD97":2546283.5099999998,"ADDRESS":"公園路９５２巷４３號","OBJECTID":312926},"geometry":{"x":169543.54000000004,"y":2546283.5100000016}},{"attributes":{"ID":312935,"DIS_CODE":0,"TOWNNAME":"永康區","LI":"勝利里","LIN":"17鄰","STREET":"中華一路","SECT":" ","MAREA":" ","LANE":" ","ALLEY":" ","HOUSE_NO":"２８９號","E_COORD97":171234.89999999999,"N_COORD97":2544979,"ADDRESS":"中華一路２８９號","OBJECTID":312927},"geometry":{"x":171234.90000000037,"y":2544979}},{"attributes":{"ID":312936,"DIS_CODE":0,"TOWNNAME":"歸仁區","LI":"許厝里","LIN":"25鄰","STREET":"中山路","SECT":"一段","MAREA":" ","LANE":"４３４巷","ALLEY":" ","HOUSE_NO":"２３號","E_COORD97":178073.39999999999,"N_COORD97":2540802.9300000002,"ADDRESS":"中山路一段４３４巷２３號","OBJECTID":312928},"geometry":{"x":178073.40000000037,"y":2540802.9299999997}},{"attributes":{"ID":312937,"DIS_CODE":0,"TOWNNAME":"北區","LI":"正風里","LIN":"7鄰","STREET":"公園路","SECT":" ","MAREA":" ","LANE":"９５２巷","ALLEY":" ","HOUSE_NO":"４５號","E_COORD97":169546.29000000001,"N_COORD97":2546286.3500000001,"ADDRESS":"公園路９５２巷４５號","OBJECTID":312929},"geometry":{"x":169546.29000000097,"y":2546286.3500000034}},{"attributes":{"ID":312938,"DIS_CODE":0,"TOWNNAME":"北區","LI":"正風里","LIN":"7鄰","STREET":"公園路","SECT":" ","MAREA":" ","LANE":"９５２巷","ALLEY":" ","HOUSE_NO":"４７號","E_COORD97":169551.51000000001,"N_COORD97":2546287.9399999999,"ADDRESS":"公園路９５２巷４７號","OBJECTID":312930},"geometry":{"x":169551.50999999978,"y":2546287.9399999995}},{"attributes":{"ID":312939,"DIS_CODE":0,"TOWNNAME":"北區","LI":"正風里","LIN":"7鄰","STREET":"公園路","SECT":" ","MAREA":" ","LANE":"９５２巷","ALLEY":" ","HOUSE_NO":"４９號","E_COORD97":169552.92999999999,"N_COORD97":2546291.0499999998,"ADDRESS":"公園路９５２巷４９號","OBJECTID":312931},"geometry":{"x":169552.93000000063,"y":2546291.0500000026}},{"attributes":{"ID":312940,"DIS_CODE":0,"TOWNNAME":"北區","LI":"正風里","LIN":"7鄰","STREET":"公園路","SECT":" ","MAREA":" ","LANE":"９５２巷","ALLEY":" ","HOUSE_NO":"５１號","E_COORD97":169554.38,"N_COORD97":2546293.9900000002,"ADDRESS":"公園路９５２巷５１號","OBJECTID":312932},"geometry":{"x":169554.37999999989,"y":2546293.9900000021}},{"attributes":{"ID":312941,"DIS_CODE":0,"TOWNNAME":"北區","LI":"正風里","LIN":"7鄰","STREET":"公園路","SECT":" ","MAREA":" ","LANE":"９５２巷","ALLEY":" ","HOUSE_NO":"５３號","E_COORD97":169555.78,"N_COORD97":2546297.4399999999,"ADDRESS":"公園路９５２巷５３號","OBJECTID":312933},"geometry":{"x":169555.78000000026,"y":2546297.4399999995}},{"attributes":{"ID":312942,"DIS_CODE":0,"TOWNNAME":"北區","LI":"正風里","LIN":"7鄰","STREET":"公園路","SECT":" ","MAREA":" ","LANE":"９５２巷","ALLEY":" ","HOUSE_NO":"５５號","E_COORD97":169558.95000000001,"N_COORD97":2546302.1099999999,"ADDRESS":"公園路９５２巷５５號","OBJECTID":312934},"geometry":{"x":169558.95000000112,"y":2546302.1100000013}},{"attributes":{"ID":312943,"DIS_CODE":0,"TOWNNAME":"北區","LI":"正風里","LIN":"7鄰","STREET":"公園路","SECT":" ","MAREA":" ","LANE":"９５２巷","ALLEY":" ","HOUSE_NO":"５７號","E_COORD97":169561.14999999999,"N_COORD97":2546306.4500000002,"ADDRESS":"公園路９５２巷５７號","OBJECTID":312935},"geometry":{"x":169561.1500000013,"y":2546306.4500000011}},{"attributes":{"ID":312944,"DIS_CODE":0,"TOWNNAME":"永康區","LI":"\u25A0行里","LIN":"17鄰","STREET":"中正南路","SECT":" ","MAREA":" ","LANE":" ","ALLEY":" ","HOUSE_NO":"７０２號","E_COORD97":171667.26999999999,"N_COORD97":2548897.5,"ADDRESS":"中正南路７０２號","OBJECTID":312936},"geometry":{"x":171667.26999999955,"y":2548897.5000000019}},{"attributes":{"ID":312945,"DIS_CODE":0,"TOWNNAME":"歸仁區","LI":"南保里","LIN":"26鄰","STREET":"民權六街","SECT":" ","MAREA":" ","LANE":"１８１巷","ALLEY":" ","HOUSE_NO":"１７號","E_COORD97":176644.70999999999,"N_COORD97":2541069.25,"ADDRESS":"民權六街１８１巷１７號","OBJECTID":312937},"geometry":{"x":176644.70999999996,"y":2541069.25}},{"attributes":{"ID":312946,"DIS_CODE":0,"TOWNNAME":"歸仁區","LI":"許厝里","LIN":"34鄰","STREET":"和平南街","SECT":" ","MAREA":" ","LANE":"５５巷","ALLEY":" ","HOUSE_NO":"１號","E_COORD97":177839.82999999999,"N_COORD97":2540576.8199999998,"ADDRESS":"和平南街５５巷１號","OBJECTID":312938},"geometry":{"x":177839.83000000194,"y":2540576.8200000003}},{"attributes":{"ID":312947,"DIS_CODE":0,"TOWNNAME":"歸仁區","LI":"許厝里","LIN":"25鄰","STREET":"信義北路","SECT":" ","MAREA":" ","LANE":"３０巷","ALLEY":" ","HOUSE_NO":"７號","E_COORD97":178034.03,"N_COORD97":2540814.23,"ADDRESS":"信義北路３０巷７號","OBJECTID":312939},"geometry":{"x":178034.03000000119,"y":2540814.2300000004}},{"attributes":{"ID":312948,"DIS_CODE":0,"TOWNNAME":"六甲區","LI":"二甲里","LIN":"7鄰","STREET":"民權街","SECT":" ","MAREA":" ","LANE":"３２０巷","ALLEY":" ","HOUSE_NO":"２號","E_COORD97":182879.84,"N_COORD97":2569820.25,"ADDRESS":"民權街３２０巷２號","OBJECTID":312940},"geometry":{"x":182879.84000000078,"y":2569820.2500000019}},{"attributes":{"ID":312949,"DIS_CODE":0,"TOWNNAME":"北區","LI":"正風里","LIN":"7鄰","STREET":"公園路","SECT":" ","MAREA":" ","LANE":"９５２巷","ALLEY":" ","HOUSE_NO":"５９號","E_COORD97":169562.85999999999,"N_COORD97":2546310.5899999999,"ADDRESS":"公園路９５２巷５９號","OBJECTID":312941},"geometry":{"x":169562.86000000127,"y":2546310.5899999999}},{"attributes":{"ID":312950,"DIS_CODE":0,"TOWNNAME":"北區","LI":"正風里","LIN":"7鄰","STREET":"公園路","SECT":" ","MAREA":" ","LANE":"９５２巷","ALLEY":" ","HOUSE_NO":"５號","E_COORD97":169476.07999999999,"N_COORD97":2546254.7200000002,"ADDRESS":"公園路９５２巷５號","OBJECTID":312942},"geometry":{"x":169476.08000000101,"y":2546254.7200000025}},{"attributes":{"ID":312951,"DIS_CODE":0,"TOWNNAME":"北區","LI":"正風里","LIN":"7鄰","STREET":"公園路","SECT":" ","MAREA":" ","LANE":"９５２巷","ALLEY":" ","HOUSE_NO":"６１號","E_COORD97":169564.23999999999,"N_COORD97":2546314.1499999999,"ADDRESS":"公園路９５２巷６１號","OBJECTID":312943},"geometry":{"x":169564.24000000022,"y":2546314.1500000004}},{"attributes":{"ID":312952,"DIS_CODE":0,"TOWNNAME":"北區","LI":"正風里","LIN":"7鄰","STREET":"公園路","SECT":" ","MAREA":" ","LANE":"９５２巷","ALLEY":" ","HOUSE_NO":"６３號","E_COORD97":169565.94,"N_COORD97":2546317.3900000001,"ADDRESS":"公園路９５２巷６３號","OBJECTID":312944},"geometry":{"x":169565.94000000134,"y":2546317.3900000043}},{"attributes":{"ID":312953,"DIS_CODE":0,"TOWNNAME":"北區","LI":"正風里","LIN":"7鄰","STREET":"公園路","SECT":" ","MAREA":" ","LANE":"９５２巷","ALLEY":" ","HOUSE_NO":"６５號","E_COORD97":169567.32000000001,"N_COORD97":2546320.23,"ADDRESS":"公園路９５２巷６５號","OBJECTID":312945},"geometry":{"x":169567.3200000003,"y":2546320.2300000004}},{"attributes":{"ID":312954,"DIS_CODE":0,"TOWNNAME":"北區","LI":"正風里","LIN":"7鄰","STREET":"公園路","SECT":" ","MAREA":" ","LANE":"９５２巷","ALLEY":" ","HOUSE_NO":"６７號","E_COORD97":169568.37,"N_COORD97":2546323.1499999999,"ADDRESS":"公園路９５２巷６７號","OBJECTID":312946},"geometry":{"x":169568.37000000011,"y":2546323.1500000022}},{"attributes":{"ID":312955,"DIS_CODE":0,"TOWNNAME":"北區","LI":"正風里","LIN":"7鄰","STREET":"公園路","SECT":" ","MAREA":" ","LANE":"９９４巷","ALLEY":" ","HOUSE_NO":"２號","E_COORD97":169533.78,"N_COORD97":2546334.6699999999,"ADDRESS":"公園路９９４巷２號","OBJECTID":312947},"geometry":{"x":169533.78000000026,"y":2546334.6699999999}},{"attributes":{"ID":312956,"DIS_CODE":0,"TOWNNAME":"北區","LI":"正風里","LIN":"7鄰","STREET":"公園路","SECT":" ","MAREA":" ","LANE":"９５２巷","ALLEY":" ","HOUSE_NO":"５４號","E_COORD97":169566.51999999999,"N_COORD97":2546281.52,"ADDRESS":"公園路９５２巷５４號","OBJECTID":312948},"geometry":{"x":169566.51999999955,"y":2546281.5200000033}},{"attributes":{"ID":312957,"DIS_CODE":0,"TOWNNAME":"永康區","LI":"復國里","LIN":"17鄰","STREET":"國華街","SECT":" ","MAREA":" ","LANE":" ","ALLEY":" ","HOUSE_NO":"３８號","E_COORD97":172848.32999999999,"N_COORD97":2545660.5499999998,"ADDRESS":"國華街３８號","OBJECTID":312949},"geometry":{"x":172848.33000000101,"y":2545660.5500000026}},{"attributes":{"ID":312958,"DIS_CODE":0,"TOWNNAME":"永康區","LI":"勝利里","LIN":"17鄰","STREET":"中華一路","SECT":" ","MAREA":" ","LANE":" ","ALLEY":" ","HOUSE_NO":"３２６號","E_COORD97":171210.39999999999,"N_COORD97":2545002.75,"ADDRESS":"中華一路３２６號","OBJECTID":312950},"geometry":{"x":171210.4000000013,"y":2545002.7500000019}},{"attributes":{"ID":312959,"DIS_CODE":0,"TOWNNAME":"永康區","LI":"勝利里","LIN":"17鄰","STREET":"中華一路","SECT":" ","MAREA":" ","LANE":" ","ALLEY":" ","HOUSE_NO":"３１１號","E_COORD97":171189.62,"N_COORD97":2544982,"ADDRESS":"中華一路３１１號","OBJECTID":312951},"geometry":{"x":171189.62000000104,"y":2544982.0000000019}},{"attributes":{"ID":312960,"DIS_CODE":0,"TOWNNAME":"歸仁區","LI":"武東里","LIN":"13鄰","STREET":" ","SECT":" ","MAREA":"明德新村","LANE":" ","ALLEY":" ","HOUSE_NO":"６３號","E_COORD97":175058.39000000001,"N_COORD97":2536176.27,"ADDRESS":"明德新村６３號","OBJECTID":312952},"geometry":{"x":175058.38999999966,"y":2536176.2699999996}},{"attributes":{"ID":312961,"DIS_CODE":0,"TOWNNAME":"歸仁區","LI":"南保里","LIN":"32鄰","STREET":"民權八街","SECT":" ","MAREA":" ","LANE":"３０巷","ALLEY":" ","HOUSE_NO":"１０號","E_COORD97":176900.14000000001,"N_COORD97":2541004.29,"ADDRESS":"民權八街３０巷１０號","OBJECTID":312953},"geometry":{"x":176900.1400000006,"y":2541004.290000001}},{"attributes":{"ID":312962,"DIS_CODE":0,"TOWNNAME":"歸仁區","LI":"六甲里","LIN":"20鄰","STREET":"中正南路","SECT":"一段","MAREA":" ","LANE":"７３８巷","ALLEY":" ","HOUSE_NO":"２２號","E_COORD97":176403.79572699999,"N_COORD97":2539712.1161699998,"ADDRESS":"中正南路一段７３８巷２２號","OBJECTID":312954},"geometry":{"x":176403.79572700057,"y":2539712.1161739994}},{"attributes":{"ID":312963,"DIS_CODE":0,"TOWNNAME":"北區","LI":"正風里","LIN":"7鄰","STREET":"公園路","SECT":" ","MAREA":" ","LANE":"９５２巷","ALLEY":" ","HOUSE_NO":"５６號","E_COORD97":169566.72,"N_COORD97":2546286.8399999999,"ADDRESS":"公園路９５２巷５６號","OBJECTID":312955},"geometry":{"x":169566.72000000067,"y":2546286.8400000017}},{"attributes":{"ID":312964,"DIS_CODE":0,"TOWNNAME":"北區","LI":"正風里","LIN":"7鄰","STREET":"公園路","SECT":" ","MAREA":" ","LANE":"９５２巷","ALLEY":" ","HOUSE_NO":"５８號","E_COORD97":169569.06,"N_COORD97":2546291.4700000002,"ADDRESS":"公園路９５２巷５８號","OBJECTID":312956},"geometry":{"x":169569.06000000052,"y":2546291.4700000025}},{"attributes":{"ID":312965,"DIS_CODE":0,"TOWNNAME":"北區","LI":"正風里","LIN":"7鄰","STREET":"公園路","SECT":" ","MAREA":" ","LANE":"９５２巷","ALLEY":" ","HOUSE_NO":"６０號","E_COORD97":169571.31,"N_COORD97":2546294.3399999999,"ADDRESS":"公園路９５２巷６０號","OBJECTID":312957},"geometry":{"x":169571.30999999959,"y":2546294.3400000017}},{"attributes":{"ID":312966,"DIS_CODE":0,"TOWNNAME":"北區","LI":"正風里","LIN":"7鄰","STREET":"公園路","SECT":" ","MAREA":" ","LANE":"９５２巷","ALLEY":" ","HOUSE_NO":"６２號","E_COORD97":169573.01000000001,"N_COORD97":2546298.8799999999,"ADDRESS":"公園路９５２巷６２號","OBJECTID":312958},"geometry":{"x":169573.01000000071,"y":2546298.8800000027}},{"attributes":{"ID":312967,"DIS_CODE":0,"TOWNNAME":"北區","LI":"正風里","LIN":"7鄰","STREET":"公園路","SECT":" ","MAREA":" ","LANE":"９５２巷","ALLEY":" ","HOUSE_NO":"６４號","E_COORD97":169576.17999999999,"N_COORD97":2546302.79,"ADDRESS":"公園路９５２巷６４號","OBJECTID":312959},"geometry":{"x":169576.1799999997,"y":2546302.7899999972}},{"attributes":{"ID":312968,"DIS_CODE":0,"TOWNNAME":"北區","LI":"正覺里","LIN":"7鄰","STREET":"西門路","SECT":"四段","MAREA":" ","LANE":"４３０巷","ALLEY":" ","HOUSE_NO":"１１號","E_COORD97":169120.20999999999,"N_COORD97":2546212.54,"ADDRESS":"西門路四段４３０巷１１號","OBJECTID":312960},"geometry":{"x":169120.20999999996,"y":2546212.5399999991}},{"attributes":{"ID":312969,"DIS_CODE":0,"TOWNNAME":"北區","LI":"正覺里","LIN":"7鄰","STREET":"西門路","SECT":"四段","MAREA":" ","LANE":"４３０巷","ALLEY":" ","HOUSE_NO":"１３號","E_COORD97":169123.82000000001,"N_COORD97":2546209.8599999999,"ADDRESS":"西門路四段４３０巷１３號","OBJECTID":312961},"geometry":{"x":169123.82000000123,"y":2546209.8599999994}},{"attributes":{"ID":312970,"DIS_CODE":0,"TOWNNAME":"北區","LI":"正覺里","LIN":"7鄰","STREET":"西門路","SECT":"四段","MAREA":" ","LANE":"４３０巷","ALLEY":" ","HOUSE_NO":"１５號","E_COORD97":169126.13,"N_COORD97":2546202.02,"ADDRESS":"西門路四段４３０巷１５號","OBJECTID":312962},"geometry":{"x":169126.13000000175,"y":2546202.0199999996}},{"attributes":{"ID":312971,"DIS_CODE":0,"TOWNNAME":"北區","LI":"正覺里","LIN":"7鄰","STREET":"西門路","SECT":"四段","MAREA":" ","LANE":"４３０巷","ALLEY":" ","HOUSE_NO":"９號","E_COORD97":169117.72,"N_COORD97":2546215.0299999998,"ADDRESS":"西門路四段４３０巷９號","OBJECTID":312963},"geometry":{"x":169117.71999999974,"y":2546215.0300000012}},{"attributes":{"ID":312972,"DIS_CODE":0,"TOWNNAME":"六甲區","LI":"二甲里","LIN":"7鄰","STREET":"民權街","SECT":" ","MAREA":" ","LANE":"３０４巷","ALLEY":" ","HOUSE_NO":"３１號","E_COORD97":182897.67999999999,"N_COORD97":2569855.29,"ADDRESS":"民權街３０４巷３１號","OBJECTID":312964},"geometry":{"x":182897.68000000063,"y":2569855.2899999991}},{"attributes":{"ID":312973,"DIS_CODE":0,"TOWNNAME":"六甲區","LI":"二甲里","LIN":"7鄰","STREET":"民權街","SECT":" ","MAREA":" ","LANE":"３０４巷","ALLEY":" ","HOUSE_NO":"３５號","E_COORD97":182909.31,"N_COORD97":2569867.5499999998,"ADDRESS":"民權街３０４巷３５號","OBJECTID":312965},"geometry":{"x":182909.30999999959,"y":2569867.5500000026}},{"attributes":{"ID":312974,"DIS_CODE":0,"TOWNNAME":"永康區","LI":"勝利里","LIN":"17鄰","STREET":"中華一路","SECT":" ","MAREA":" ","LANE":" ","ALLEY":" ","HOUSE_NO":"３１３號","E_COORD97":171185.79999999999,"N_COORD97":2544982.5,"ADDRESS":"中華一路３１３號","OBJECTID":312966},"geometry":{"x":171185.79999999981,"y":2544982.5}},{"attributes":{"ID":312975,"DIS_CODE":0,"TOWNNAME":"永康區","LI":"六合里","LIN":"17鄰","STREET":"中華路","SECT":" ","MAREA":" ","LANE":" ","ALLEY":" ","HOUSE_NO":"４９３號","E_COORD97":171235.14999999999,"N_COORD97":2545796.9700000002,"ADDRESS":"中華路４９３號","OBJECTID":312967},"geometry":{"x":171235.15000000224,"y":2545796.9700000007}},{"attributes":{"ID":312976,"DIS_CODE":0,"TOWNNAME":"新營區","LI":"護鎮里","LIN":"9鄰","STREET":"長榮路","SECT":" ","MAREA":" ","LANE":"４６８巷","ALLEY":" ","HOUSE_NO":"３１３號","E_COORD97":178293.16993900001,"N_COORD97":2579698.9012799999,"ADDRESS":"長榮路４６８巷３１３號","OBJECTID":312968},"geometry":{"x":178293.16993900202,"y":2579698.9012749996}},{"attributes":{"ID":312977,"DIS_CODE":0,"TOWNNAME":"歸仁區","LI":"六甲里","LIN":"25鄰","STREET":"中正南路","SECT":"一段","MAREA":" ","LANE":"９３０巷","ALLEY":" ","HOUSE_NO":"１６號","E_COORD97":176195.66,"N_COORD97":2539433.48,"ADDRESS":"中正南路一段９３０巷１６號","OBJECTID":312969},"geometry":{"x":176195.66000000108,"y":2539433.4800000004}},{"attributes":{"ID":312978,"DIS_CODE":0,"TOWNNAME":"歸仁區","LI":"南保里","LIN":"32鄰","STREET":"民權八街","SECT":" ","MAREA":" ","LANE":"４０巷","ALLEY":" ","HOUSE_NO":"１４號","E_COORD97":176868.44,"N_COORD97":2541018.29,"ADDRESS":"民權八街４０巷１４號","OBJECTID":312970},"geometry":{"x":176868.44000000134,"y":2541018.290000001}},{"attributes":{"ID":312979,"DIS_CODE":0,"TOWNNAME":"歸仁區","LI":"南興里","LIN":"4鄰","STREET":"文化十二街","SECT":" ","MAREA":" ","LANE":"３３巷","ALLEY":" ","HOUSE_NO":"８號","E_COORD97":176432.98999999999,"N_COORD97":2541303.3300000001,"ADDRESS":"文化十二街３３巷８號","OBJECTID":312971},"geometry":{"x":176432.99000000022,"y":2541303.3300000019}},{"attributes":{"ID":312980,"DIS_CODE":0,"TOWNNAME":"六甲區","LI":"二甲里","LIN":"7鄰","STREET":"民權街","SECT":" ","MAREA":" ","LANE":"３０４巷","ALLEY":" ","HOUSE_NO":"４３號","E_COORD97":182913.10999999999,"N_COORD97":2569881.7000000002,"ADDRESS":"民權街３０４巷４３號","OBJECTID":312972},"geometry":{"x":182913.11000000034,"y":2569881.7000000011}},{"attributes":{"ID":312981,"DIS_CODE":0,"TOWNNAME":"六甲區","LI":"二甲里","LIN":"7鄰","STREET":"民權街","SECT":" ","MAREA":" ","LANE":"３０４巷","ALLEY":" ","HOUSE_NO":"４７號","E_COORD97":182925.16,"N_COORD97":2569911.9300000002,"ADDRESS":"民權街３０４巷４７號","OBJECTID":312973},"geometry":{"x":182925.16000000108,"y":2569911.9299999997}},{"attributes":{"ID":312982,"DIS_CODE":0,"TOWNNAME":"六甲區","LI":"二甲里","LIN":"7鄰","STREET":"民權街","SECT":" ","MAREA":" ","LANE":"３０４巷","ALLEY":" ","HOUSE_NO":"５１號","E_COORD97":182926.66,"N_COORD97":2569923.3100000001,"ADDRESS":"民權街３０４巷５１號","OBJECTID":312974},"geometry":{"x":182926.66000000201,"y":2569923.3100000024}},{"attributes":{"ID":312983,"DIS_CODE":0,"TOWNNAME":"六甲區","LI":"二甲里","LIN":"7鄰","STREET":"民權街","SECT":" ","MAREA":" ","LANE":"３０４巷","ALLEY":" ","HOUSE_NO":"５７號","E_COORD97":182938.97,"N_COORD97":2569945.1499999999,"ADDRESS":"民權街３０４巷５７號","OBJECTID":312975},"geometry":{"x":182938.96999999974,"y":2569945.1500000004}},{"attributes":{"ID":312984,"DIS_CODE":0,"TOWNNAME":"六甲區","LI":"二甲里","LIN":"7鄰","STREET":"民權街","SECT":" ","MAREA":" ","LANE":"３０４巷","ALLEY":" ","HOUSE_NO":"９號","E_COORD97":182901.60000000001,"N_COORD97":2569844.3799999999,"ADDRESS":"民權街３０４巷９號","OBJECTID":312976},"geometry":{"x":182901.60000000056,"y":2569844.379999999}},{"attributes":{"ID":312985,"DIS_CODE":0,"TOWNNAME":"六甲區","LI":"二甲里","LIN":"7鄰","STREET":"民權街","SECT":" ","MAREA":" ","LANE":"３２０巷","ALLEY":" ","HOUSE_NO":"１２號","E_COORD97":182890.85999999999,"N_COORD97":2569872.6600000001,"ADDRESS":"民權街３２０巷１２號","OBJECTID":312977},"geometry":{"x":182890.86000000034,"y":2569872.660000002}},{"attributes":{"ID":312986,"DIS_CODE":0,"TOWNNAME":"六甲區","LI":"二甲里","LIN":"7鄰","STREET":"民權街","SECT":" ","MAREA":" ","LANE":"３２０巷","ALLEY":" ","HOUSE_NO":"１８號","E_COORD97":182902.72,"N_COORD97":2569899.8199999998,"ADDRESS":"民權街３２０巷１８號","OBJECTID":312978},"geometry":{"x":182902.72000000067,"y":2569899.8200000003}},{"attributes":{"ID":312987,"DIS_CODE":0,"TOWNNAME":"六甲區","LI":"二甲里","LIN":"7鄰","STREET":"民權街","SECT":" ","MAREA":" ","LANE":"３２０巷","ALLEY":" ","HOUSE_NO":"２０號","E_COORD97":182900.14000000001,"N_COORD97":2569910.5299999998,"ADDRESS":"民權街３２０巷２０號","OBJECTID":312979},"geometry":{"x":182900.13999999966,"y":2569910.5300000012}},{"attributes":{"ID":312988,"DIS_CODE":0,"TOWNNAME":"六甲區","LI":"二甲里","LIN":"7鄰","STREET":"民權街","SECT":" ","MAREA":" ","LANE":"３２０巷","ALLEY":" ","HOUSE_NO":"２１號","E_COORD97":182896.35000000001,"N_COORD97":2569949.3799999999,"ADDRESS":"民權街３２０巷２１號","OBJECTID":312980},"geometry":{"x":182896.35000000056,"y":2569949.379999999}},{"attributes":{"ID":312989,"DIS_CODE":0,"TOWNNAME":"西港區","LI":"新復里","LIN":"4鄰","STREET":" ","SECT":" ","MAREA":"新港","LANE":" ","ALLEY":" ","HOUSE_NO":"２８號","E_COORD97":166410.16,"N_COORD97":2556434.2599999998,"ADDRESS":"新港２８號","OBJECTID":312981},"geometry":{"x":166410.16000000015,"y":2556434.2599999979}},{"attributes":{"ID":312990,"DIS_CODE":0,"TOWNNAME":"六甲區","LI":"二甲里","LIN":"7鄰","STREET":"民權街","SECT":" ","MAREA":" ","LANE":"３２０巷","ALLEY":" ","HOUSE_NO":"２２號","E_COORD97":182902.20999999999,"N_COORD97":2569914.5,"ADDRESS":"民權街３２０巷２２號","OBJECTID":312982},"geometry":{"x":182902.20999999996,"y":2569914.5000000019}},{"attributes":{"ID":312991,"DIS_CODE":0,"TOWNNAME":"永康區","LI":"勝利里","LIN":"17鄰","STREET":"中華一路","SECT":" ","MAREA":" ","LANE":" ","ALLEY":" ","HOUSE_NO":"３１７號","E_COORD97":171177.17000000001,"N_COORD97":2544983.25,"ADDRESS":"中華一路３１７號","OBJECTID":312983},"geometry":{"x":171177.17000000086,"y":2544983.2500000019}},{"attributes":{"ID":312992,"DIS_CODE":0,"TOWNNAME":"永康區","LI":"勝利里","LIN":"17鄰","STREET":"中華一路","SECT":" ","MAREA":" ","LANE":" ","ALLEY":" ","HOUSE_NO":"３２０號","E_COORD97":171223.10000000001,"N_COORD97":2544998.75,"ADDRESS":"中華一路３２０號","OBJECTID":312984},"geometry":{"x":171223.10000000056,"y":2544998.7499999981}},{"attributes":{"ID":312993,"DIS_CODE":0,"TOWNNAME":"永康區","LI":"勝利里","LIN":"17鄰","STREET":"中華一路","SECT":" ","MAREA":" ","LANE":" ","ALLEY":" ","HOUSE_NO":"２８８號","E_COORD97":171288.37,"N_COORD97":2544993.75,"ADDRESS":"中華一路２８８號","OBJECTID":312985},"geometry":{"x":171288.37000000104,"y":2544993.7500000019}},{"attributes":{"ID":312994,"DIS_CODE":0,"TOWNNAME":"歸仁區","LI":"武東里","LIN":"13鄰","STREET":" ","SECT":" ","MAREA":"明德新村","LANE":" ","ALLEY":" ","HOUSE_NO":"１５６號","E_COORD97":175077.84,"N_COORD97":2536130.27,"ADDRESS":"明德新村１５６號","OBJECTID":312986},"geometry":{"x":175077.83999999985,"y":2536130.2700000014}},{"attributes":{"ID":312995,"DIS_CODE":0,"TOWNNAME":"歸仁區","LI":"武東里","LIN":"13鄰","STREET":" ","SECT":" ","MAREA":"明德新村","LANE":" ","ALLEY":" ","HOUSE_NO":"１４８號","E_COORD97":175133.23999999999,"N_COORD97":2536125.27,"ADDRESS":"明德新村１４８號","OBJECTID":312987},"geometry":{"x":175133.23999999929,"y":2536125.2699999996}},{"attributes":{"ID":312996,"DIS_CODE":0,"TOWNNAME":"歸仁區","LI":"辜厝里","LIN":"32鄰","STREET":"中正南路","SECT":"一段","MAREA":" ","LANE":"２１６巷","ALLEY":" ","HOUSE_NO":"２１號","E_COORD97":177347.41,"N_COORD97":2540441.9500000002,"ADDRESS":"中正南路一段２１６巷２１號","OBJECTID":312988},"geometry":{"x":177347.41000000015,"y":2540441.9499999993}},{"attributes":{"ID":312997,"DIS_CODE":0,"TOWNNAME":"歸仁區","LI":"南保里","LIN":"41鄰","STREET":"保興二街","SECT":" ","MAREA":" ","LANE":"１５巷","ALLEY":" ","HOUSE_NO":"１號","E_COORD97":176561.67000000001,"N_COORD97":2541021.25,"ADDRESS":"保興二街１５巷１號","OBJECTID":312989},"geometry":{"x":176561.67000000086,"y":2541021.25}},{"attributes":{"ID":312998,"DIS_CODE":0,"TOWNNAME":"歸仁區","LI":"大潭里","LIN":"20鄰","STREET":"長榮路","SECT":"二段","MAREA":" ","LANE":"７５巷","ALLEY":" ","HOUSE_NO":"４０號","E_COORD97":176935.97,"N_COORD97":2534582.2799999998,"ADDRESS":"長榮路二段７５巷４０號","OBJECTID":312990},"geometry":{"x":176935.96999999974,"y":2534582.2799999993}},{"attributes":{"ID":312999,"DIS_CODE":0,"TOWNNAME":"六甲區","LI":"二甲里","LIN":"7鄰","STREET":"民權街","SECT":" ","MAREA":" ","LANE":"３２０巷","ALLEY":" ","HOUSE_NO":"２４號","E_COORD97":182904.5,"N_COORD97":2569918.5099999998,"ADDRESS":"民權街３２０巷２４號","OBJECTID":312991},"geometry":{"x":182904.50000000093,"y":2569918.5099999998}},{"attributes":{"ID":313000,"DIS_CODE":0,"TOWNNAME":"六甲區","LI":"二甲里","LIN":"7鄰","STREET":"民權街","SECT":" ","MAREA":" ","LANE":"３２０巷","ALLEY":" ","HOUSE_NO":"２６號","E_COORD97":182906.39999999999,"N_COORD97":2569922.0600000001,"ADDRESS":"民權街３２０巷２６號","OBJECTID":312992},"geometry":{"x":182906.40000000037,"y":2569922.0600000005}},{"attributes":{"ID":313001,"DIS_CODE":0,"TOWNNAME":"六甲區","LI":"二甲里","LIN":"7鄰","STREET":"民權街","SECT":" ","MAREA":" ","LANE":"３２０巷","ALLEY":" ","HOUSE_NO":"２８號","E_COORD97":182909.07000000001,"N_COORD97":2569927.7400000002,"ADDRESS":"民權街３２０巷２８號","OBJECTID":312993},"geometry":{"x":182909.07000000123,"y":2569927.7400000002}},{"attributes":{"ID":313002,"DIS_CODE":0,"TOWNNAME":"六甲區","LI":"二甲里","LIN":"7鄰","STREET":"民權街","SECT":" ","MAREA":" ","LANE":"３２０巷","ALLEY":" ","HOUSE_NO":"２之１號","E_COORD97":182880.28,"N_COORD97":2569824.52,"ADDRESS":"民權街３２０巷２之１號","OBJECTID":312994},"geometry":{"x":182880.28000000212,"y":2569824.5200000033}},{"attributes":{"ID":313003,"DIS_CODE":0,"TOWNNAME":"六甲區","LI":"二甲里","LIN":"7鄰","STREET":"民權街","SECT":" ","MAREA":" ","LANE":"３２０巷","ALLEY":" ","HOUSE_NO":"３０號","E_COORD97":182912.23000000001,"N_COORD97":2569933.1400000001,"ADDRESS":"民權街３２０巷３０號","OBJECTID":312995},"geometry":{"x":182912.23000000045,"y":2569933.1400000043}},{"attributes":{"ID":313004,"DIS_CODE":0,"TOWNNAME":"六甲區","LI":"二甲里","LIN":"7鄰","STREET":"民權街","SECT":" ","MAREA":" ","LANE":"３２０巷","ALLEY":" ","HOUSE_NO":"５號","E_COORD97":182868.67999999999,"N_COORD97":2569867.75,"ADDRESS":"民權街３２０巷５號","OBJECTID":312996},"geometry":{"x":182868.68000000063,"y":2569867.7500000019}},{"attributes":{"ID":313005,"DIS_CODE":0,"TOWNNAME":"六甲區","LI":"二甲里","LIN":"7鄰","STREET":"民權街","SECT":" ","MAREA":" ","LANE":"３２０巷","ALLEY":" ","HOUSE_NO":"６號","E_COORD97":182888.35000000001,"N_COORD97":2569838.1600000001,"ADDRESS":"民權街３２０巷６號","OBJECTID":312997},"geometry":{"x":182888.34999999963,"y":2569838.160000002}},{"attributes":{"ID":313006,"DIS_CODE":0,"TOWNNAME":"六甲區","LI":"甲南里","LIN":"7鄰","STREET":"忠孝街","SECT":" ","MAREA":" ","LANE":"５３巷","ALLEY":" ","HOUSE_NO":"１０號","E_COORD97":183808.62,"N_COORD97":2569634.96,"ADDRESS":"忠孝街５３巷１０號","OBJECTID":312998},"geometry":{"x":183808.62000000104,"y":2569634.9600000009}},{"attributes":{"ID":313007,"DIS_CODE":0,"TOWNNAME":"六甲區","LI":"甲南里","LIN":"7鄰","STREET":"忠孝街","SECT":" ","MAREA":" ","LANE":"５３巷","ALLEY":" ","HOUSE_NO":"１號","E_COORD97":183823.19,"N_COORD97":2569597.8199999998,"ADDRESS":"忠孝街５３巷１號","OBJECTID":312999},"geometry":{"x":183823.19000000041,"y":2569597.8200000003}},{"attributes":{"ID":313008,"DIS_CODE":0,"TOWNNAME":"永康區","LI":"勝利里","LIN":"17鄰","STREET":"中華一路","SECT":" ","MAREA":" ","LANE":" ","ALLEY":" ","HOUSE_NO":"３３８號","E_COORD97":171185.03,"N_COORD97":2545003,"ADDRESS":"中華一路３３８號","OBJECTID":313000},"geometry":{"x":171185.03000000212,"y":2545003}}]}