{"displayFieldName":"TOWNNAME","fieldAliases":{"ID":"ID","DIS_CODE":"DIS_CODE","TOWNNAME":"TOWNNAME","LI":"LI","LIN":"LIN","STREET":"STREET","SECT":"SECT","MAREA":"MAREA","LANE":"LANE","ALLEY":"ALLEY","HOUSE_NO":"HOUSE_NO","E_COORD97":"E_COORD97","N_COORD97":"N_COORD97","ADDRESS":"ADDRESS","OBJECTID":"OBJECTID"},"geometryType":"esriGeometryPoint","spatialReference":{"wkid":102443,"latestWkid":3826},"fields":[{"name":"ID","type":"esriFieldTypeDouble","alias":"ID"},{"name":"DIS_CODE","type":"esriFieldTypeInteger","alias":"DIS_CODE"},{"name":"TOWNNAME","type":"esriFieldTypeString","alias":"TOWNNAME","length":8},{"name":"LI","type":"esriFieldTypeString","alias":"LI","length":8},{"name":"LIN","type":"esriFieldTypeString","alias":"LIN","length":12},{"name":"STREET","type":"esriFieldTypeString","alias":"STREET","length":20},{"name":"SECT","type":"esriFieldTypeString","alias":"SECT","length":8},{"name":"MAREA","type":"esriFieldTypeString","alias":"MAREA","length":12},{"name":"LANE","type":"esriFieldTypeString","alias":"LANE","length":10},{"name":"ALLEY","type":"esriFieldTypeString","alias":"ALLEY","length":10},{"name":"HOUSE_NO","type":"esriFieldTypeString","alias":"HOUSE_NO","length":20},{"name":"E_COORD97","type":"esriFieldTypeDouble","alias":"E_COORD97"},{"name":"N_COORD97","type":"esriFieldTypeDouble","alias":"N_COORD97"},{"name":"ADDRESS","type":"esriFieldTypeString","alias":"ADDRESS","length":50},{"name":"OBJECTID","type":"esriFieldTypeOID","alias":"OBJECTID"}],"features":[{"attributes":{"ID":48801,"DIS_CODE":0,"TOWNNAME":"北區","LI":"文元里","LIN":"15鄰","STREET":"文賢一路","SECT":" ","MAREA":" ","LANE":"１８２巷","ALLEY":"２０弄","HOUSE_NO":"５號","E_COORD97":167623.22,"N_COORD97":2545703.5099999998,"ADDRESS":"文賢一路１８２巷２０弄５號","OBJECTID":48801},"geometry":{"x":167623.21999999881,"y":2545703.5100000016}},{"attributes":{"ID":48802,"DIS_CODE":0,"TOWNNAME":"歸仁區","LI":"八甲里","LIN":"17鄰","STREET":"大仁八街","SECT":" ","MAREA":" ","LANE":" ","ALLEY":" ","HOUSE_NO":"７號","E_COORD97":178009.73999999999,"N_COORD97":2541571.25,"ADDRESS":"大仁八街７號","OBJECTID":48802},"geometry":{"x":178009.74000000022,"y":2541571.2500000037}},{"attributes":{"ID":48803,"DIS_CODE":0,"TOWNNAME":"歸仁區","LI":"八甲里","LIN":"17鄰","STREET":"大仁八街","SECT":" ","MAREA":" ","LANE":" ","ALLEY":" ","HOUSE_NO":"１號","E_COORD97":178011.84,"N_COORD97":2541581.25,"ADDRESS":"大仁八街１號","OBJECTID":48803},"geometry":{"x":178011.83999999985,"y":2541581.2499999981}},{"attributes":{"ID":48804,"DIS_CODE":0,"TOWNNAME":"歸仁區","LI":"八甲里","LIN":"17鄰","STREET":"大仁九街","SECT":" ","MAREA":" ","LANE":" ","ALLEY":" ","HOUSE_NO":"２１號","E_COORD97":178028.19,"N_COORD97":2541517.25,"ADDRESS":"大仁九街２１號","OBJECTID":48804},"geometry":{"x":178028.19000000134,"y":2541517.2500000037}},{"attributes":{"ID":48805,"DIS_CODE":0,"TOWNNAME":"歸仁區","LI":"七甲里","LIN":"17鄰","STREET":"南潭二街","SECT":" ","MAREA":" ","LANE":" ","ALLEY":" ","HOUSE_NO":"１４３號","E_COORD97":176462.76999999999,"N_COORD97":2543019.3900000001,"ADDRESS":"南潭二街１４３號","OBJECTID":48805},"geometry":{"x":176462.76999999955,"y":2543019.3900000025}},{"attributes":{"ID":48806,"DIS_CODE":0,"TOWNNAME":"歸仁區","LI":"八甲里","LIN":"17鄰","STREET":"大仁八街","SECT":" ","MAREA":" ","LANE":" ","ALLEY":" ","HOUSE_NO":"１１號","E_COORD97":178008.98999999999,"N_COORD97":2541562.25,"ADDRESS":"大仁八街１１號","OBJECTID":48806},"geometry":{"x":178008.99000000115,"y":2541562.2500000019}},{"attributes":{"ID":48807,"DIS_CODE":0,"TOWNNAME":"歸仁區","LI":"七甲里","LIN":"17鄰","STREET":"南潭二街","SECT":" ","MAREA":" ","LANE":" ","ALLEY":" ","HOUSE_NO":"１４７號","E_COORD97":176470.97,"N_COORD97":2543020.3900000001,"ADDRESS":"南潭二街１４７號","OBJECTID":48807},"geometry":{"x":176470.97000000067,"y":2543020.3900000006}},{"attributes":{"ID":48808,"DIS_CODE":0,"TOWNNAME":"歸仁區","LI":"七甲里","LIN":"17鄰","STREET":"南潭二街","SECT":" ","MAREA":" ","LANE":" ","ALLEY":" ","HOUSE_NO":"１３７號","E_COORD97":176449.47,"N_COORD97":2543019.3900000001,"ADDRESS":"南潭二街１３７號","OBJECTID":48808},"geometry":{"x":176449.46999999974,"y":2543019.3900000025}},{"attributes":{"ID":48809,"DIS_CODE":0,"TOWNNAME":"歸仁區","LI":"八甲里","LIN":"17鄰","STREET":"大仁八街","SECT":" ","MAREA":" ","LANE":" ","ALLEY":" ","HOUSE_NO":"９號","E_COORD97":178009.73999999999,"N_COORD97":2541567.25,"ADDRESS":"大仁八街９號","OBJECTID":48809},"geometry":{"x":178009.74000000022,"y":2541567.25}},{"attributes":{"ID":48810,"DIS_CODE":0,"TOWNNAME":"柳營區","LI":"東昇里","LIN":"17鄰","STREET":" ","SECT":" ","MAREA":"柳營","LANE":" ","ALLEY":" ","HOUSE_NO":"５４０之５１號","E_COORD97":180927.17999999999,"N_COORD97":2574862.1699999999,"ADDRESS":"柳營５４０之５１號","OBJECTID":48810},"geometry":{"x":180927.1799999997,"y":2574862.1700000037}},{"attributes":{"ID":48811,"DIS_CODE":0,"TOWNNAME":"柳營區","LI":"東昇里","LIN":"17鄰","STREET":" ","SECT":" ","MAREA":"柳營","LANE":" ","ALLEY":" ","HOUSE_NO":"５４０之５號","E_COORD97":180815.57999999999,"N_COORD97":2575009.0099999998,"ADDRESS":"柳營５４０之５號","OBJECTID":48811},"geometry":{"x":180815.58000000101,"y":2575009.0100000016}},{"attributes":{"ID":48812,"DIS_CODE":0,"TOWNNAME":"柳營區","LI":"東昇里","LIN":"17鄰","STREET":" ","SECT":" ","MAREA":"柳營","LANE":" ","ALLEY":" ","HOUSE_NO":"５４０號之６","E_COORD97":180829.97,"N_COORD97":2574943.6000000001,"ADDRESS":"柳營５４０號之６","OBJECTID":48812},"geometry":{"x":180829.96999999974,"y":2574943.6000000034}},{"attributes":{"ID":48813,"DIS_CODE":0,"TOWNNAME":"柳營區","LI":"東昇里","LIN":"17鄰","STREET":" ","SECT":" ","MAREA":"柳營","LANE":" ","ALLEY":" ","HOUSE_NO":"５４０號之７","E_COORD97":180875.82999999999,"N_COORD97":2574995.98,"ADDRESS":"柳營５４０號之７","OBJECTID":48813},"geometry":{"x":180875.82999999914,"y":2574995.9800000042}},{"attributes":{"ID":48814,"DIS_CODE":0,"TOWNNAME":"北區","LI":"文元里","LIN":"15鄰","STREET":"文賢一路","SECT":" ","MAREA":" ","LANE":"１８２巷","ALLEY":"２０弄","HOUSE_NO":"７號","E_COORD97":167624.48999999999,"N_COORD97":2545700.3300000001,"ADDRESS":"文賢一路１８２巷２０弄７號","OBJECTID":48814},"geometry":{"x":167624.49000000115,"y":2545700.3300000038}},{"attributes":{"ID":48815,"DIS_CODE":0,"TOWNNAME":"南區","LI":"郡南里","LIN":"15鄰","STREET":"德興路","SECT":" ","MAREA":" ","LANE":"１３９巷","ALLEY":"４４弄","HOUSE_NO":"３８號","E_COORD97":167355.82999999999,"N_COORD97":2540361.5499999998,"ADDRESS":"德興路１３９巷４４弄３８號","OBJECTID":48815},"geometry":{"x":167355.83000000101,"y":2540361.5500000007}},{"attributes":{"ID":48816,"DIS_CODE":0,"TOWNNAME":"南區","LI":"郡南里","LIN":"15鄰","STREET":"德興路","SECT":" ","MAREA":" ","LANE":"１３９巷","ALLEY":"４４弄","HOUSE_NO":"１０號","E_COORD97":167360.12,"N_COORD97":2540433.29,"ADDRESS":"德興路１３９巷４４弄１０號","OBJECTID":48816},"geometry":{"x":167360.12000000104,"y":2540433.2899999991}},{"attributes":{"ID":48817,"DIS_CODE":0,"TOWNNAME":"柳營區","LI":"東昇里","LIN":"17鄰","STREET":" ","SECT":" ","MAREA":"柳營","LANE":" ","ALLEY":" ","HOUSE_NO":"５２４號之１１","E_COORD97":180740.03,"N_COORD97":2575173.4100000001,"ADDRESS":"柳營５２４號之１１","OBJECTID":48817},"geometry":{"x":180740.03000000026,"y":2575173.410000002}},{"attributes":{"ID":48818,"DIS_CODE":0,"TOWNNAME":"南區","LI":"郡南里","LIN":"15鄰","STREET":"德興路","SECT":" ","MAREA":" ","LANE":"１３９巷","ALLEY":"４４弄","HOUSE_NO":"２２號","E_COORD97":167362.76000000001,"N_COORD97":2540407.3300000001,"ADDRESS":"德興路１３９巷４４弄２２號","OBJECTID":48818},"geometry":{"x":167362.76000000071,"y":2540407.3300000001}},{"attributes":{"ID":48819,"DIS_CODE":0,"TOWNNAME":"仁德區","LI":"仁義里","LIN":" ","STREET":"正義路","SECT":" ","MAREA":" ","LANE":" ","ALLEY":" ","HOUSE_NO":"１９３號","E_COORD97":173890.56,"N_COORD97":2541418.5099999998,"ADDRESS":"正義路１９３號","OBJECTID":48819},"geometry":{"x":173890.55999999959,"y":2541418.5099999998}},{"attributes":{"ID":48820,"DIS_CODE":0,"TOWNNAME":"仁德區","LI":"後壁里","LIN":" ","STREET":"德洋路","SECT":" ","MAREA":" ","LANE":" ","ALLEY":" ","HOUSE_NO":"９號","E_COORD97":173191.41,"N_COORD97":2538982.2799999998,"ADDRESS":"德洋路９號","OBJECTID":48820},"geometry":{"x":173191.41000000108,"y":2538982.2799999993}},{"attributes":{"ID":48821,"DIS_CODE":0,"TOWNNAME":"南區","LI":"郡南里","LIN":"15鄰","STREET":"德興路","SECT":" ","MAREA":" ","LANE":"１３９巷","ALLEY":"４４弄","HOUSE_NO":"２４號","E_COORD97":167359.70999999999,"N_COORD97":2540402.0600000001,"ADDRESS":"德興路１３９巷４４弄２４號","OBJECTID":48821},"geometry":{"x":167359.71000000089,"y":2540402.0600000005}},{"attributes":{"ID":48822,"DIS_CODE":0,"TOWNNAME":"麻豆區","LI":"港尾里","LIN":"15鄰","STREET":" ","SECT":" ","MAREA":"客子寮","LANE":" ","ALLEY":" ","HOUSE_NO":"３５７號","E_COORD97":170034.14000000001,"N_COORD97":2569283.3199999998,"ADDRESS":"客子寮３５７號","OBJECTID":48822},"geometry":{"x":170034.13999999966,"y":2569283.3200000003}},{"attributes":{"ID":48823,"DIS_CODE":0,"TOWNNAME":"麻豆區","LI":"港尾里","LIN":"15鄰","STREET":" ","SECT":" ","MAREA":"客子寮","LANE":" ","ALLEY":" ","HOUSE_NO":"３５８號","E_COORD97":170064.57000000001,"N_COORD97":2569302.9900000002,"ADDRESS":"客子寮３５８號","OBJECTID":48823},"geometry":{"x":170064.57000000123,"y":2569302.9899999984}},{"attributes":{"ID":48824,"DIS_CODE":0,"TOWNNAME":"麻豆區","LI":"港尾里","LIN":"15鄰","STREET":" ","SECT":" ","MAREA":"客子寮","LANE":" ","ALLEY":" ","HOUSE_NO":"３５９號","E_COORD97":170028.10000000001,"N_COORD97":2569285.8500000001,"ADDRESS":"客子寮３５９號","OBJECTID":48824},"geometry":{"x":170028.10000000056,"y":2569285.8499999996}},{"attributes":{"ID":48825,"DIS_CODE":0,"TOWNNAME":"麻豆區","LI":"港尾里","LIN":"15鄰","STREET":" ","SECT":" ","MAREA":"客子寮","LANE":" ","ALLEY":" ","HOUSE_NO":"３６０號","E_COORD97":170058.5,"N_COORD97":2569305.8700000001,"ADDRESS":"客子寮３６０號","OBJECTID":48825},"geometry":{"x":170058.50000000093,"y":2569305.8700000029}},{"attributes":{"ID":48826,"DIS_CODE":0,"TOWNNAME":"北區","LI":"賢北里","LIN":"7鄰","STREET":"和緯路","SECT":"五段","MAREA":" ","LANE":"２３４巷","ALLEY":"４弄","HOUSE_NO":"１０號","E_COORD97":166108.94,"N_COORD97":2545136.6600000001,"ADDRESS":"和緯路五段２３４巷４弄１０號","OBJECTID":48826},"geometry":{"x":166108.94000000134,"y":2545136.660000002}},{"attributes":{"ID":48827,"DIS_CODE":0,"TOWNNAME":"麻豆區","LI":"港尾里","LIN":"15鄰","STREET":" ","SECT":" ","MAREA":"客子寮","LANE":" ","ALLEY":" ","HOUSE_NO":"３６１號","E_COORD97":170016.48000000001,"N_COORD97":2569292.0800000001,"ADDRESS":"客子寮３６１號","OBJECTID":48827},"geometry":{"x":170016.48000000138,"y":2569292.0799999982}},{"attributes":{"ID":48828,"DIS_CODE":0,"TOWNNAME":"麻豆區","LI":"港尾里","LIN":"15鄰","STREET":" ","SECT":" ","MAREA":"客子寮","LANE":" ","ALLEY":" ","HOUSE_NO":"３６６號","E_COORD97":170041.5,"N_COORD97":2569313.1099999999,"ADDRESS":"客子寮３６６號","OBJECTID":48828},"geometry":{"x":170041.50000000093,"y":2569313.1100000013}},{"attributes":{"ID":48829,"DIS_CODE":0,"TOWNNAME":"麻豆區","LI":"港尾里","LIN":"15鄰","STREET":" ","SECT":" ","MAREA":"客子寮","LANE":" ","ALLEY":" ","HOUSE_NO":"３６７號","E_COORD97":170144.64000000001,"N_COORD97":2569282.1499999999,"ADDRESS":"客子寮３６７號","OBJECTID":48829},"geometry":{"x":170144.64000000153,"y":2569282.1500000041}},{"attributes":{"ID":48830,"DIS_CODE":0,"TOWNNAME":"北區","LI":"賢北里","LIN":"7鄰","STREET":"和緯路","SECT":"五段","MAREA":" ","LANE":"２３４巷","ALLEY":"４弄","HOUSE_NO":"１２號","E_COORD97":166110.84,"N_COORD97":2545130.6299999999,"ADDRESS":"和緯路五段２３４巷４弄１２號","OBJECTID":48830},"geometry":{"x":166110.84000000078,"y":2545130.629999999}},{"attributes":{"ID":48831,"DIS_CODE":0,"TOWNNAME":"北區","LI":"賢北里","LIN":"7鄰","STREET":"和緯路","SECT":"五段","MAREA":" ","LANE":"２３４巷","ALLEY":"４弄","HOUSE_NO":"１６號","E_COORD97":166112.42999999999,"N_COORD97":2545126.8199999998,"ADDRESS":"和緯路五段２３４巷４弄１６號","OBJECTID":48831},"geometry":{"x":166112.4299999997,"y":2545126.8200000003}},{"attributes":{"ID":48832,"DIS_CODE":0,"TOWNNAME":"北區","LI":"成功里","LIN":"23鄰","STREET":"北安路","SECT":"一段","MAREA":" ","LANE":"１７６巷","ALLEY":"５７弄","HOUSE_NO":"２之１號","E_COORD97":168945.54000000001,"N_COORD97":2546612.4100000001,"ADDRESS":"北安路一段１７６巷５７弄２之１號","OBJECTID":48832},"geometry":{"x":168945.54000000097,"y":2546612.410000002}},{"attributes":{"ID":48833,"DIS_CODE":0,"TOWNNAME":"北區","LI":"賢北里","LIN":"7鄰","STREET":"和緯路","SECT":"五段","MAREA":" ","LANE":"２３４巷","ALLEY":"４弄","HOUSE_NO":"１８號","E_COORD97":166114.48999999999,"N_COORD97":2545122.3799999999,"ADDRESS":"和緯路五段２３４巷４弄１８號","OBJECTID":48833},"geometry":{"x":166114.49000000022,"y":2545122.3800000027}},{"attributes":{"ID":48834,"DIS_CODE":0,"TOWNNAME":"北區","LI":"賢北里","LIN":"7鄰","STREET":"和緯路","SECT":"五段","MAREA":" ","LANE":"２３４巷","ALLEY":"４弄","HOUSE_NO":"２０號","E_COORD97":166116.39999999999,"N_COORD97":2545117.1400000001,"ADDRESS":"和緯路五段２３４巷４弄２０號","OBJECTID":48834},"geometry":{"x":166116.4000000013,"y":2545117.1400000025}},{"attributes":{"ID":48835,"DIS_CODE":0,"TOWNNAME":"永康區","LI":"神洲里","LIN":"15鄰","STREET":"忠孝路","SECT":" ","MAREA":" ","LANE":"７６巷","ALLEY":"６３弄","HOUSE_NO":"３９號三樓","E_COORD97":172179.14999999999,"N_COORD97":2545000.7400000002,"ADDRESS":"忠孝路７６巷６３弄３９號三樓","OBJECTID":48835},"geometry":{"x":172179.15000000037,"y":2545000.7400000021}},{"attributes":{"ID":48836,"DIS_CODE":0,"TOWNNAME":"永康區","LI":"神洲里","LIN":"15鄰","STREET":"忠孝路","SECT":" ","MAREA":" ","LANE":"７６巷","ALLEY":"６３弄","HOUSE_NO":"３７號二樓","E_COORD97":172164.10999999999,"N_COORD97":2545001.4900000002,"ADDRESS":"忠孝路７６巷６３弄３７號二樓","OBJECTID":48836},"geometry":{"x":172164.11000000034,"y":2545001.4900000021}},{"attributes":{"ID":48837,"DIS_CODE":0,"TOWNNAME":"永康區","LI":"神洲里","LIN":"15鄰","STREET":"忠孝路","SECT":" ","MAREA":" ","LANE":"７６巷","ALLEY":"６３弄","HOUSE_NO":"３５號三樓","E_COORD97":172163.95000000001,"N_COORD97":2545019.29,"ADDRESS":"忠孝路７６巷６３弄３５號三樓","OBJECTID":48837},"geometry":{"x":172163.95000000112,"y":2545019.290000001}},{"attributes":{"ID":48838,"DIS_CODE":0,"TOWNNAME":"永康區","LI":"神洲里","LIN":"15鄰","STREET":"忠孝路","SECT":" ","MAREA":" ","LANE":"７６巷","ALLEY":"４９弄","HOUSE_NO":"８號四樓","E_COORD97":172161.95000000001,"N_COORD97":2544986.4900000002,"ADDRESS":"忠孝路７６巷４９弄８號四樓","OBJECTID":48838},"geometry":{"x":172161.95000000205,"y":2544986.4900000002}},{"attributes":{"ID":48839,"DIS_CODE":0,"TOWNNAME":"永康區","LI":"神洲里","LIN":"15鄰","STREET":"忠孝路","SECT":" ","MAREA":" ","LANE":"７６巷","ALLEY":"４９弄","HOUSE_NO":"６號二樓","E_COORD97":172177.64000000001,"N_COORD97":2544985.2400000002,"ADDRESS":"忠孝路７６巷４９弄６號二樓","OBJECTID":48839},"geometry":{"x":172177.6400000006,"y":2544985.2400000002}},{"attributes":{"ID":48840,"DIS_CODE":0,"TOWNNAME":"永康區","LI":"神洲里","LIN":"15鄰","STREET":"忠孝路","SECT":" ","MAREA":" ","LANE":"７６巷","ALLEY":"４９弄","HOUSE_NO":"６號五樓","E_COORD97":172177.64000000001,"N_COORD97":2544985.2400000002,"ADDRESS":"忠孝路７６巷４９弄６號五樓","OBJECTID":48840},"geometry":{"x":172177.6400000006,"y":2544985.2400000002}},{"attributes":{"ID":48841,"DIS_CODE":0,"TOWNNAME":"永康區","LI":"神洲里","LIN":"15鄰","STREET":"忠孝路","SECT":" ","MAREA":" ","LANE":"７６巷","ALLEY":"６３弄","HOUSE_NO":"３１號三樓","E_COORD97":172162.28,"N_COORD97":2545030.29,"ADDRESS":"忠孝路７６巷６３弄３１號三樓","OBJECTID":48841},"geometry":{"x":172162.28000000119,"y":2545030.2899999991}},{"attributes":{"ID":48842,"DIS_CODE":0,"TOWNNAME":"永康區","LI":"神洲里","LIN":"15鄰","STREET":"忠孝路","SECT":" ","MAREA":" ","LANE":"７６巷","ALLEY":"４９弄","HOUSE_NO":"８號五樓","E_COORD97":172161.95000000001,"N_COORD97":2544986.4900000002,"ADDRESS":"忠孝路７６巷４９弄８號五樓","OBJECTID":48842},"geometry":{"x":172161.95000000205,"y":2544986.4900000002}},{"attributes":{"ID":48843,"DIS_CODE":0,"TOWNNAME":"歸仁區","LI":"大廟里","LIN":"17鄰","STREET":"大廟五街","SECT":" ","MAREA":" ","LANE":" ","ALLEY":" ","HOUSE_NO":"６７號","E_COORD97":175995.88,"N_COORD97":2544326.0899999999,"ADDRESS":"大廟五街６７號","OBJECTID":48843},"geometry":{"x":175995.87999999989,"y":2544326.0900000017}},{"attributes":{"ID":48844,"DIS_CODE":0,"TOWNNAME":"歸仁區","LI":"文化里","LIN":"17鄰","STREET":"文化北街","SECT":" ","MAREA":" ","LANE":" ","ALLEY":" ","HOUSE_NO":"１６０號","E_COORD97":177093.41,"N_COORD97":2541422.3399999999,"ADDRESS":"文化北街１６０號","OBJECTID":48844},"geometry":{"x":177093.41000000201,"y":2541422.3400000017}},{"attributes":{"ID":48845,"DIS_CODE":0,"TOWNNAME":"歸仁區","LI":"文化里","LIN":"17鄰","STREET":"文化北街","SECT":" ","MAREA":" ","LANE":" ","ALLEY":" ","HOUSE_NO":"１１８號","E_COORD97":177176.51000000001,"N_COORD97":2541416.3399999999,"ADDRESS":"文化北街１１８號","OBJECTID":48845},"geometry":{"x":177176.50999999978,"y":2541416.3399999999}},{"attributes":{"ID":48846,"DIS_CODE":0,"TOWNNAME":"歸仁區","LI":"文化里","LIN":"17鄰","STREET":"文化北街","SECT":" ","MAREA":" ","LANE":" ","ALLEY":" ","HOUSE_NO":"１０４號","E_COORD97":177205.20999999999,"N_COORD97":2541415.3399999999,"ADDRESS":"文化北街１０４號","OBJECTID":48846},"geometry":{"x":177205.21000000089,"y":2541415.3400000017}},{"attributes":{"ID":48847,"DIS_CODE":0,"TOWNNAME":"歸仁區","LI":"文化里","LIN":"17鄰","STREET":"文化北街","SECT":" ","MAREA":" ","LANE":" ","ALLEY":" ","HOUSE_NO":"１００號","E_COORD97":177215.41,"N_COORD97":2541414.3399999999,"ADDRESS":"文化北街１００號","OBJECTID":48847},"geometry":{"x":177215.40999999922,"y":2541414.339999998}},{"attributes":{"ID":48848,"DIS_CODE":0,"TOWNNAME":"歸仁區","LI":"文化里","LIN":"17鄰","STREET":"文化北街","SECT":" ","MAREA":" ","LANE":" ","ALLEY":" ","HOUSE_NO":"１３４號","E_COORD97":177145.70999999999,"N_COORD97":2541418.3399999999,"ADDRESS":"文化北街１３４號","OBJECTID":48848},"geometry":{"x":177145.71000000089,"y":2541418.3400000017}},{"attributes":{"ID":48849,"DIS_CODE":0,"TOWNNAME":"歸仁區","LI":"文化里","LIN":"17鄰","STREET":"文化北街","SECT":" ","MAREA":" ","LANE":" ","ALLEY":" ","HOUSE_NO":"１２４號","E_COORD97":177165.20999999999,"N_COORD97":2541417.3399999999,"ADDRESS":"文化北街１２４號","OBJECTID":48849},"geometry":{"x":177165.20999999996,"y":2541417.3399999999}},{"attributes":{"ID":48850,"DIS_CODE":0,"TOWNNAME":"歸仁區","LI":"六甲里","LIN":"17鄰","STREET":"中正二十街","SECT":" ","MAREA":" ","LANE":" ","ALLEY":" ","HOUSE_NO":"９４號","E_COORD97":175714.85539300001,"N_COORD97":2539126.5140499999,"ADDRESS":"中正二十街９４號","OBJECTID":48850},"geometry":{"x":175714.85539300088,"y":2539126.5140479989}},{"attributes":{"ID":48851,"DIS_CODE":0,"TOWNNAME":"永康區","LI":"神洲里","LIN":"15鄰","STREET":"忠孝路","SECT":" ","MAREA":" ","LANE":"７６巷","ALLEY":"６３弄","HOUSE_NO":"２９號四樓","E_COORD97":172177.07999999999,"N_COORD97":2545028.79,"ADDRESS":"忠孝路７６巷６３弄２９號四樓","OBJECTID":48851},"geometry":{"x":172177.08000000007,"y":2545028.790000001}},{"attributes":{"ID":48852,"DIS_CODE":0,"TOWNNAME":"永康區","LI":"神洲里","LIN":"15鄰","STREET":"忠孝路","SECT":" ","MAREA":" ","LANE":"７６巷","ALLEY":"４９弄","HOUSE_NO":"８號二樓","E_COORD97":172161.95000000001,"N_COORD97":2544986.4900000002,"ADDRESS":"忠孝路７６巷４９弄８號二樓","OBJECTID":48852},"geometry":{"x":172161.95000000205,"y":2544986.4900000002}},{"attributes":{"ID":48853,"DIS_CODE":0,"TOWNNAME":"永康區","LI":"神洲里","LIN":"15鄰","STREET":"忠孝路","SECT":" ","MAREA":" ","LANE":"７６巷","ALLEY":"６３弄","HOUSE_NO":"２９號五樓","E_COORD97":172177.07999999999,"N_COORD97":2545028.79,"ADDRESS":"忠孝路７６巷６３弄２９號五樓","OBJECTID":48853},"geometry":{"x":172177.08000000007,"y":2545028.790000001}},{"attributes":{"ID":48854,"DIS_CODE":0,"TOWNNAME":"永康區","LI":"神洲里","LIN":"15鄰","STREET":"忠孝路","SECT":" ","MAREA":" ","LANE":"７６巷","ALLEY":"６３弄","HOUSE_NO":"３１號二樓","E_COORD97":172162.28,"N_COORD97":2545030.29,"ADDRESS":"忠孝路７６巷６３弄３１號二樓","OBJECTID":48854},"geometry":{"x":172162.28000000119,"y":2545030.2899999991}},{"attributes":{"ID":48855,"DIS_CODE":0,"TOWNNAME":"東山區","LI":"三榮里","LIN":"17鄰","STREET":" ","SECT":" ","MAREA":"下寮子","LANE":" ","ALLEY":" ","HOUSE_NO":"３６號","E_COORD97":187619.03,"N_COORD97":2581196.6099999999,"ADDRESS":"下寮子３６號","OBJECTID":48855},"geometry":{"x":187619.03000000119,"y":2581196.6100000013}},{"attributes":{"ID":48856,"DIS_CODE":0,"TOWNNAME":"東山區","LI":"三榮里","LIN":"17鄰","STREET":" ","SECT":" ","MAREA":"下寮子","LANE":" ","ALLEY":" ","HOUSE_NO":"３７號","E_COORD97":187618.66,"N_COORD97":2581157.29,"ADDRESS":"下寮子３７號","OBJECTID":48856},"geometry":{"x":187618.66000000015,"y":2581157.290000001}},{"attributes":{"ID":48857,"DIS_CODE":0,"TOWNNAME":"東山區","LI":"三榮里","LIN":"17鄰","STREET":" ","SECT":" ","MAREA":"下寮子","LANE":" ","ALLEY":" ","HOUSE_NO":"４１號","E_COORD97":187661.35000000001,"N_COORD97":2581037.98,"ADDRESS":"下寮子４１號","OBJECTID":48857},"geometry":{"x":187661.35000000056,"y":2581037.9800000023}},{"attributes":{"ID":48858,"DIS_CODE":0,"TOWNNAME":"東山區","LI":"三榮里","LIN":"17鄰","STREET":" ","SECT":" ","MAREA":"下寮子","LANE":" ","ALLEY":" ","HOUSE_NO":"４２號","E_COORD97":187659.92999999999,"N_COORD97":2580997.8599999999,"ADDRESS":"下寮子４２號","OBJECTID":48858},"geometry":{"x":187659.9299999997,"y":2580997.8600000013}},{"attributes":{"ID":48859,"DIS_CODE":0,"TOWNNAME":"東山區","LI":"三榮里","LIN":"17鄰","STREET":" ","SECT":" ","MAREA":"下寮子","LANE":" ","ALLEY":" ","HOUSE_NO":"４３號","E_COORD97":187623.29000000001,"N_COORD97":2580990.4300000002,"ADDRESS":"下寮子４３號","OBJECTID":48859},"geometry":{"x":187623.29000000097,"y":2580990.4300000016}},{"attributes":{"ID":48860,"DIS_CODE":0,"TOWNNAME":"永康區","LI":"神洲里","LIN":"15鄰","STREET":"忠孝路","SECT":" ","MAREA":" ","LANE":"７６巷","ALLEY":"６３弄","HOUSE_NO":"３５號四樓","E_COORD97":172163.95000000001,"N_COORD97":2545019.29,"ADDRESS":"忠孝路７６巷６３弄３５號四樓","OBJECTID":48860},"geometry":{"x":172163.95000000112,"y":2545019.290000001}},{"attributes":{"ID":48861,"DIS_CODE":0,"TOWNNAME":"六甲區","LI":"中社里","LIN":"1鄰","STREET":" ","SECT":" ","MAREA":"中社","LANE":" ","ALLEY":" ","HOUSE_NO":"２３號","E_COORD97":181264.79000000001,"N_COORD97":2570919.27,"ADDRESS":"中社２３號","OBJECTID":48861},"geometry":{"x":181264.79000000097,"y":2570919.2700000014}},{"attributes":{"ID":48862,"DIS_CODE":0,"TOWNNAME":"東山區","LI":"三榮里","LIN":"17鄰","STREET":" ","SECT":" ","MAREA":"下寮子","LANE":" ","ALLEY":" ","HOUSE_NO":"４５號","E_COORD97":187685.09,"N_COORD97":2580822.7200000002,"ADDRESS":"下寮子４５號","OBJECTID":48862},"geometry":{"x":187685.08999999892,"y":2580822.7200000044}},{"attributes":{"ID":48863,"DIS_CODE":0,"TOWNNAME":"東山區","LI":"三榮里","LIN":"17鄰","STREET":" ","SECT":" ","MAREA":"下寮子","LANE":" ","ALLEY":" ","HOUSE_NO":"４６號","E_COORD97":187678.12,"N_COORD97":2581044.9900000002,"ADDRESS":"下寮子４６號","OBJECTID":48863},"geometry":{"x":187678.12000000011,"y":2581044.9900000021}},{"attributes":{"ID":48864,"DIS_CODE":0,"TOWNNAME":"麻豆區","LI":"港尾里","LIN":"15鄰","STREET":" ","SECT":" ","MAREA":"客子寮","LANE":" ","ALLEY":" ","HOUSE_NO":"３６８號","E_COORD97":170028.85000000001,"N_COORD97":2569318.7000000002,"ADDRESS":"客子寮３６８號","OBJECTID":48864},"geometry":{"x":170028.84999999963,"y":2569318.7000000011}},{"attributes":{"ID":48865,"DIS_CODE":0,"TOWNNAME":"麻豆區","LI":"港尾里","LIN":"15鄰","STREET":" ","SECT":" ","MAREA":"客子寮","LANE":" ","ALLEY":" ","HOUSE_NO":"３６９號","E_COORD97":170138.28,"N_COORD97":2569284.7400000002,"ADDRESS":"客子寮３６９號","OBJECTID":48865},"geometry":{"x":170138.28000000026,"y":2569284.7400000039}},{"attributes":{"ID":48866,"DIS_CODE":0,"TOWNNAME":"麻豆區","LI":"港尾里","LIN":"15鄰","STREET":" ","SECT":" ","MAREA":"客子寮","LANE":" ","ALLEY":" ","HOUSE_NO":"３６號之１２","E_COORD97":170021.13,"N_COORD97":2569421.1299999999,"ADDRESS":"客子寮３６號之１２","OBJECTID":48866},"geometry":{"x":170021.13000000175,"y":2569421.1300000008}},{"attributes":{"ID":48867,"DIS_CODE":0,"TOWNNAME":"麻豆區","LI":"港尾里","LIN":"15鄰","STREET":" ","SECT":" ","MAREA":"客子寮","LANE":" ","ALLEY":" ","HOUSE_NO":"３６號之１６","E_COORD97":170234.73000000001,"N_COORD97":2568860.5699999998,"ADDRESS":"客子寮３６號之１６","OBJECTID":48867},"geometry":{"x":170234.73000000138,"y":2568860.5700000003}},{"attributes":{"ID":48868,"DIS_CODE":0,"TOWNNAME":"麻豆區","LI":"港尾里","LIN":"15鄰","STREET":" ","SECT":" ","MAREA":"客子寮","LANE":" ","ALLEY":" ","HOUSE_NO":"３６號之１","E_COORD97":170587.95000000001,"N_COORD97":2568186.1099999999,"ADDRESS":"客子寮３６號之１","OBJECTID":48868},"geometry":{"x":170587.95000000112,"y":2568186.1100000031}},{"attributes":{"ID":48869,"DIS_CODE":0,"TOWNNAME":"麻豆區","LI":"港尾里","LIN":"15鄰","STREET":" ","SECT":" ","MAREA":"客子寮","LANE":" ","ALLEY":" ","HOUSE_NO":"３６號之２５","E_COORD97":169769.23000000001,"N_COORD97":2568500.04,"ADDRESS":"客子寮３６號之２５","OBJECTID":48869},"geometry":{"x":169769.23000000138,"y":2568500.0399999991}},{"attributes":{"ID":48870,"DIS_CODE":0,"TOWNNAME":"麻豆區","LI":"港尾里","LIN":"15鄰","STREET":" ","SECT":" ","MAREA":"客子寮","LANE":" ","ALLEY":" ","HOUSE_NO":"３６號之２９","E_COORD97":170240.98999999999,"N_COORD97":2568926.0499999998,"ADDRESS":"客子寮３６號之２９","OBJECTID":48870},"geometry":{"x":170240.99000000209,"y":2568926.0500000007}},{"attributes":{"ID":48871,"DIS_CODE":0,"TOWNNAME":"麻豆區","LI":"港尾里","LIN":"15鄰","STREET":" ","SECT":" ","MAREA":"客子寮","LANE":" ","ALLEY":" ","HOUSE_NO":"３６號之３２","E_COORD97":170287.48999999999,"N_COORD97":2568890.3399999999,"ADDRESS":"客子寮３６號之３２","OBJECTID":48871},"geometry":{"x":170287.49000000115,"y":2568890.3400000036}},{"attributes":{"ID":48872,"DIS_CODE":0,"TOWNNAME":"永康區","LI":"神洲里","LIN":"15鄰","STREET":"忠孝路","SECT":" ","MAREA":" ","LANE":"７６巷","ALLEY":"６３弄","HOUSE_NO":"３７號四樓","E_COORD97":172164.10999999999,"N_COORD97":2545001.4900000002,"ADDRESS":"忠孝路７６巷６３弄３７號四樓","OBJECTID":48872},"geometry":{"x":172164.11000000034,"y":2545001.4900000021}},{"attributes":{"ID":48873,"DIS_CODE":0,"TOWNNAME":"歸仁區","LI":"六甲里","LIN":"17鄰","STREET":"中正二十街","SECT":" ","MAREA":" ","LANE":" ","ALLEY":" ","HOUSE_NO":"１１６之１號","E_COORD97":175656.37998500001,"N_COORD97":2539121.4340499998,"ADDRESS":"中正二十街１１６之１號","OBJECTID":48873},"geometry":{"x":175656.37998500001,"y":2539121.4340509996}},{"attributes":{"ID":48874,"DIS_CODE":0,"TOWNNAME":"歸仁區","LI":"六甲里","LIN":"17鄰","STREET":"中正二十街","SECT":" ","MAREA":" ","LANE":" ","ALLEY":" ","HOUSE_NO":"９２號","E_COORD97":175723.41,"N_COORD97":2539127.25,"ADDRESS":"中正二十街９２號","OBJECTID":48874},"geometry":{"x":175723.41000000015,"y":2539127.2500000019}},{"attributes":{"ID":48875,"DIS_CODE":0,"TOWNNAME":"麻豆區","LI":"港尾里","LIN":"15鄰","STREET":" ","SECT":" ","MAREA":"客子寮","LANE":" ","ALLEY":" ","HOUSE_NO":"３６號之６","E_COORD97":169931.42999999999,"N_COORD97":2568621.5099999998,"ADDRESS":"客子寮３６號之６","OBJECTID":48875},"geometry":{"x":169931.43000000063,"y":2568621.5100000016}},{"attributes":{"ID":48876,"DIS_CODE":0,"TOWNNAME":"麻豆區","LI":"港尾里","LIN":"15鄰","STREET":" ","SECT":" ","MAREA":"客子寮","LANE":" ","ALLEY":" ","HOUSE_NO":"３６號之８","E_COORD97":170256.35000000001,"N_COORD97":2568566.4399999999,"ADDRESS":"客子寮３６號之８","OBJECTID":48876},"geometry":{"x":170256.34999999963,"y":2568566.4399999995}},{"attributes":{"ID":48877,"DIS_CODE":0,"TOWNNAME":"歸仁區","LI":"六甲里","LIN":"17鄰","STREET":"中正二十街","SECT":" ","MAREA":" ","LANE":" ","ALLEY":" ","HOUSE_NO":"９６號","E_COORD97":175711.04178,"N_COORD97":2539126.19655,"ADDRESS":"中正二十街９６號","OBJECTID":48877},"geometry":{"x":175711.04178000055,"y":2539126.1965480018}},{"attributes":{"ID":48878,"DIS_CODE":0,"TOWNNAME":"南區","LI":"金華里","LIN":"17鄰","STREET":"惠南街","SECT":" ","MAREA":" ","LANE":" ","ALLEY":" ","HOUSE_NO":"７３號","E_COORD97":166753.23000000001,"N_COORD97":2542224.25,"ADDRESS":"惠南街７３號","OBJECTID":48878},"geometry":{"x":166753.23000000138,"y":2542224.25}},{"attributes":{"ID":48879,"DIS_CODE":0,"TOWNNAME":"仁德區","LI":"太子里","LIN":" ","STREET":"太子路","SECT":" ","MAREA":" ","LANE":" ","ALLEY":" ","HOUSE_NO":"３１２號","E_COORD97":173976.39999999999,"N_COORD97":2543524.0099999998,"ADDRESS":"太子路３１２號","OBJECTID":48879},"geometry":{"x":173976.40000000224,"y":2543524.0099999998}},{"attributes":{"ID":48880,"DIS_CODE":0,"TOWNNAME":"仁德區","LI":"仁德里","LIN":" ","STREET":"中正路","SECT":"二段","MAREA":" ","LANE":" ","ALLEY":" ","HOUSE_NO":"１０８５號","E_COORD97":173380.41,"N_COORD97":2540872.77,"ADDRESS":"中正路二段１０８５號","OBJECTID":48880},"geometry":{"x":173380.41000000015,"y":2540872.7700000014}},{"attributes":{"ID":48881,"DIS_CODE":0,"TOWNNAME":"仁德區","LI":"仁德里","LIN":"15鄰","STREET":"仁德一街","SECT":" ","MAREA":" ","LANE":" ","ALLEY":" ","HOUSE_NO":"４２之１號","E_COORD97":173175.70999999999,"N_COORD97":2541257.77,"ADDRESS":"仁德一街４２之１號","OBJECTID":48881},"geometry":{"x":173175.71000000089,"y":2541257.7699999996}},{"attributes":{"ID":48882,"DIS_CODE":0,"TOWNNAME":"麻豆區","LI":"港尾里","LIN":"15鄰","STREET":" ","SECT":" ","MAREA":"客子寮","LANE":" ","ALLEY":" ","HOUSE_NO":"３７０號","E_COORD97":170023.14999999999,"N_COORD97":2569321.3999999999,"ADDRESS":"客子寮３７０號","OBJECTID":48882},"geometry":{"x":170023.15000000224,"y":2569321.4000000022}},{"attributes":{"ID":48883,"DIS_CODE":0,"TOWNNAME":"麻豆區","LI":"港尾里","LIN":"15鄰","STREET":" ","SECT":" ","MAREA":"客子寮","LANE":" ","ALLEY":" ","HOUSE_NO":"３７１號","E_COORD97":170124.41,"N_COORD97":2569291.1499999999,"ADDRESS":"客子寮３７１號","OBJECTID":48883},"geometry":{"x":170124.41000000015,"y":2569291.1500000004}},{"attributes":{"ID":48884,"DIS_CODE":0,"TOWNNAME":"麻豆區","LI":"港尾里","LIN":"15鄰","STREET":" ","SECT":" ","MAREA":"客子寮","LANE":" ","ALLEY":" ","HOUSE_NO":"３７２號","E_COORD97":170168.19,"N_COORD97":2569307.8399999999,"ADDRESS":"客子寮３７２號","OBJECTID":48884},"geometry":{"x":170168.19000000041,"y":2569307.8400000017}},{"attributes":{"ID":48885,"DIS_CODE":0,"TOWNNAME":"麻豆區","LI":"港尾里","LIN":"15鄰","STREET":" ","SECT":" ","MAREA":"客子寮","LANE":" ","ALLEY":" ","HOUSE_NO":"３７３號","E_COORD97":170118.07000000001,"N_COORD97":2569293.7200000002,"ADDRESS":"客子寮３７３號","OBJECTID":48885},"geometry":{"x":170118.0700000003,"y":2569293.7200000007}},{"attributes":{"ID":48886,"DIS_CODE":0,"TOWNNAME":"麻豆區","LI":"港尾里","LIN":"15鄰","STREET":" ","SECT":" ","MAREA":"客子寮","LANE":" ","ALLEY":" ","HOUSE_NO":"３７５號","E_COORD97":170107.66,"N_COORD97":2569298.0600000001,"ADDRESS":"客子寮３７５號","OBJECTID":48886},"geometry":{"x":170107.66000000201,"y":2569298.0600000005}},{"attributes":{"ID":48887,"DIS_CODE":0,"TOWNNAME":"永康區","LI":"神洲里","LIN":"15鄰","STREET":"忠孝路","SECT":" ","MAREA":" ","LANE":"７６巷","ALLEY":"６３弄","HOUSE_NO":"３７號三樓","E_COORD97":172164.10999999999,"N_COORD97":2545001.4900000002,"ADDRESS":"忠孝路７６巷６３弄３７號三樓","OBJECTID":48887},"geometry":{"x":172164.11000000034,"y":2545001.4900000021}},{"attributes":{"ID":48888,"DIS_CODE":0,"TOWNNAME":"永康區","LI":"神洲里","LIN":"15鄰","STREET":"忠孝路","SECT":" ","MAREA":" ","LANE":"７６巷","ALLEY":"６３弄","HOUSE_NO":"３９號五樓","E_COORD97":172179.14999999999,"N_COORD97":2545000.7400000002,"ADDRESS":"忠孝路７６巷６３弄３９號五樓","OBJECTID":48888},"geometry":{"x":172179.15000000037,"y":2545000.7400000021}},{"attributes":{"ID":48889,"DIS_CODE":0,"TOWNNAME":"永康區","LI":"神洲里","LIN":"15鄰","STREET":"忠孝路","SECT":" ","MAREA":" ","LANE":"７６巷","ALLEY":"６３弄","HOUSE_NO":"３５號二樓","E_COORD97":172163.95000000001,"N_COORD97":2545019.29,"ADDRESS":"忠孝路７６巷６３弄３５號二樓","OBJECTID":48889},"geometry":{"x":172163.95000000112,"y":2545019.290000001}},{"attributes":{"ID":48890,"DIS_CODE":0,"TOWNNAME":"永康區","LI":"神洲里","LIN":"15鄰","STREET":"忠孝路","SECT":" ","MAREA":" ","LANE":"７６巷","ALLEY":"６３弄","HOUSE_NO":"３３號二樓","E_COORD97":172175.01000000001,"N_COORD97":2545018.79,"ADDRESS":"忠孝路７６巷６３弄３３號二樓","OBJECTID":48890},"geometry":{"x":172175.01000000071,"y":2545018.790000001}},{"attributes":{"ID":48891,"DIS_CODE":0,"TOWNNAME":"永康區","LI":"神洲里","LIN":"15鄰","STREET":"忠孝路","SECT":" ","MAREA":" ","LANE":"７６巷","ALLEY":"６３弄","HOUSE_NO":"３７號五樓","E_COORD97":172164.10999999999,"N_COORD97":2545001.4900000002,"ADDRESS":"忠孝路７６巷６３弄３７號五樓","OBJECTID":48891},"geometry":{"x":172164.11000000034,"y":2545001.4900000021}},{"attributes":{"ID":48892,"DIS_CODE":0,"TOWNNAME":"永康區","LI":"神洲里","LIN":"15鄰","STREET":"忠孝路","SECT":" ","MAREA":" ","LANE":"７６巷","ALLEY":"６３弄","HOUSE_NO":"３３號四樓","E_COORD97":172175.01000000001,"N_COORD97":2545018.79,"ADDRESS":"忠孝路７６巷６３弄３３號四樓","OBJECTID":48892},"geometry":{"x":172175.01000000071,"y":2545018.790000001}},{"attributes":{"ID":48893,"DIS_CODE":0,"TOWNNAME":"永康區","LI":"神洲里","LIN":"15鄰","STREET":"忠孝路","SECT":" ","MAREA":" ","LANE":"７６巷","ALLEY":"６３弄","HOUSE_NO":"３９號四樓","E_COORD97":172179.14999999999,"N_COORD97":2545000.7400000002,"ADDRESS":"忠孝路７６巷６３弄３９號四樓","OBJECTID":48893},"geometry":{"x":172179.15000000037,"y":2545000.7400000021}},{"attributes":{"ID":48894,"DIS_CODE":0,"TOWNNAME":"永康區","LI":"神洲里","LIN":"15鄰","STREET":"忠孝路","SECT":" ","MAREA":" ","LANE":"７６巷","ALLEY":"６３弄","HOUSE_NO":"３９號二樓","E_COORD97":172179.14999999999,"N_COORD97":2545000.7400000002,"ADDRESS":"忠孝路７６巷６３弄３９號二樓","OBJECTID":48894},"geometry":{"x":172179.15000000037,"y":2545000.7400000021}},{"attributes":{"ID":48895,"DIS_CODE":0,"TOWNNAME":"永康區","LI":"神洲里","LIN":"15鄰","STREET":"忠孝路","SECT":" ","MAREA":" ","LANE":"７６巷","ALLEY":"６３弄","HOUSE_NO":"３１號四樓","E_COORD97":172162.28,"N_COORD97":2545030.29,"ADDRESS":"忠孝路７６巷６３弄３１號四樓","OBJECTID":48895},"geometry":{"x":172162.28000000119,"y":2545030.2899999991}},{"attributes":{"ID":48896,"DIS_CODE":0,"TOWNNAME":"永康區","LI":"神洲里","LIN":"15鄰","STREET":"忠孝路","SECT":" ","MAREA":" ","LANE":"７６巷","ALLEY":"６３弄","HOUSE_NO":"３３號三樓","E_COORD97":172175.01000000001,"N_COORD97":2545018.79,"ADDRESS":"忠孝路７６巷６３弄３３號三樓","OBJECTID":48896},"geometry":{"x":172175.01000000071,"y":2545018.790000001}},{"attributes":{"ID":48897,"DIS_CODE":0,"TOWNNAME":"南區","LI":"興農里","LIN":"12鄰","STREET":"明興路","SECT":" ","MAREA":" ","LANE":"１０８７巷","ALLEY":"７弄","HOUSE_NO":"３號","E_COORD97":166508.39999999999,"N_COORD97":2536695.23,"ADDRESS":"明興路１０８７巷７弄３號","OBJECTID":48897},"geometry":{"x":166508.40000000037,"y":2536695.2300000004}},{"attributes":{"ID":48898,"DIS_CODE":0,"TOWNNAME":"永康區","LI":"神洲里","LIN":"15鄰","STREET":"忠孝路","SECT":" ","MAREA":" ","LANE":"７６巷","ALLEY":"６３弄","HOUSE_NO":"２９號三樓","E_COORD97":172177.07999999999,"N_COORD97":2545028.79,"ADDRESS":"忠孝路７６巷６３弄２９號三樓","OBJECTID":48898},"geometry":{"x":172177.08000000007,"y":2545028.790000001}},{"attributes":{"ID":48899,"DIS_CODE":0,"TOWNNAME":"永康區","LI":"神洲里","LIN":"15鄰","STREET":"忠孝路","SECT":" ","MAREA":" ","LANE":"７６巷","ALLEY":"６３弄","HOUSE_NO":"３３號五樓","E_COORD97":172175.01000000001,"N_COORD97":2545018.79,"ADDRESS":"忠孝路７６巷６３弄３３號五樓","OBJECTID":48899},"geometry":{"x":172175.01000000071,"y":2545018.790000001}},{"attributes":{"ID":48900,"DIS_CODE":0,"TOWNNAME":"永康區","LI":"神洲里","LIN":"15鄰","STREET":"忠孝路","SECT":" ","MAREA":" ","LANE":"７６巷","ALLEY":"６３弄","HOUSE_NO":"３５號五樓","E_COORD97":172163.95000000001,"N_COORD97":2545019.29,"ADDRESS":"忠孝路７６巷６３弄３５號五樓","OBJECTID":48900},"geometry":{"x":172163.95000000112,"y":2545019.290000001}},{"attributes":{"ID":48901,"DIS_CODE":0,"TOWNNAME":"永康區","LI":"神洲里","LIN":"15鄰","STREET":"忠孝路","SECT":" ","MAREA":" ","LANE":"７６巷","ALLEY":"４９弄","HOUSE_NO":"８號三樓","E_COORD97":172161.95000000001,"N_COORD97":2544986.4900000002,"ADDRESS":"忠孝路７６巷４９弄８號三樓","OBJECTID":48901},"geometry":{"x":172161.95000000205,"y":2544986.4900000002}},{"attributes":{"ID":48902,"DIS_CODE":0,"TOWNNAME":"安平區","LI":"國平里","LIN":"15鄰","STREET":"華平路","SECT":" ","MAREA":" ","LANE":"２１巷","ALLEY":"１８弄","HOUSE_NO":"４９號二樓之１","E_COORD97":165279.95000000001,"N_COORD97":2542933.71,"ADDRESS":"華平路２１巷１８弄４９號二樓之１","OBJECTID":48902},"geometry":{"x":165279.95000000112,"y":2542933.7100000028}},{"attributes":{"ID":48903,"DIS_CODE":0,"TOWNNAME":"安平區","LI":"國平里","LIN":"15鄰","STREET":"華平路","SECT":" ","MAREA":" ","LANE":"２１巷","ALLEY":"１８弄","HOUSE_NO":"４９號二樓之２","E_COORD97":165279.95000000001,"N_COORD97":2542933.71,"ADDRESS":"華平路２１巷１８弄４９號二樓之２","OBJECTID":48903},"geometry":{"x":165279.95000000112,"y":2542933.7100000028}},{"attributes":{"ID":48904,"DIS_CODE":0,"TOWNNAME":"南區","LI":"金華里","LIN":"17鄰","STREET":"惠南街","SECT":" ","MAREA":" ","LANE":" ","ALLEY":" ","HOUSE_NO":"７５號","E_COORD97":166753.88,"N_COORD97":2542228.4199999999,"ADDRESS":"惠南街７５號","OBJECTID":48904},"geometry":{"x":166753.87999999989,"y":2542228.4200000018}},{"attributes":{"ID":48905,"DIS_CODE":0,"TOWNNAME":"南區","LI":"金華里","LIN":"17鄰","STREET":"惠南街","SECT":" ","MAREA":" ","LANE":" ","ALLEY":" ","HOUSE_NO":"７７號","E_COORD97":166753.82999999999,"N_COORD97":2542233.2000000002,"ADDRESS":"惠南街７７號","OBJECTID":48905},"geometry":{"x":166753.83000000101,"y":2542233.2000000011}},{"attributes":{"ID":48906,"DIS_CODE":0,"TOWNNAME":"南區","LI":"金華里","LIN":"17鄰","STREET":"聖南街","SECT":" ","MAREA":" ","LANE":" ","ALLEY":" ","HOUSE_NO":"１３１號","E_COORD97":166743.42000000001,"N_COORD97":2542229.7599999998,"ADDRESS":"聖南街１３１號","OBJECTID":48906},"geometry":{"x":166743.41999999993,"y":2542229.7600000016}},{"attributes":{"ID":48907,"DIS_CODE":0,"TOWNNAME":"南區","LI":"金華里","LIN":"17鄰","STREET":"聖南街","SECT":" ","MAREA":" ","LANE":" ","ALLEY":" ","HOUSE_NO":"１３３號","E_COORD97":166738.16,"N_COORD97":2542228.5499999998,"ADDRESS":"聖南街１３３號","OBJECTID":48907},"geometry":{"x":166738.16000000108,"y":2542228.5500000026}},{"attributes":{"ID":48908,"DIS_CODE":0,"TOWNNAME":"六甲區","LI":"甲東里","LIN":"17鄰","STREET":"裕農街","SECT":" ","MAREA":" ","LANE":" ","ALLEY":" ","HOUSE_NO":"５號","E_COORD97":183957.89999999999,"N_COORD97":2569657.96,"ADDRESS":"裕農街５號","OBJECTID":48908},"geometry":{"x":183957.9000000013,"y":2569657.9600000028}},{"attributes":{"ID":48909,"DIS_CODE":0,"TOWNNAME":"關廟區","LI":"五甲里","LIN":"17鄰","STREET":"大富街","SECT":" ","MAREA":" ","LANE":" ","ALLEY":" ","HOUSE_NO":"７２號","E_COORD97":181083.22,"N_COORD97":2539108.25,"ADDRESS":"大富街７２號","OBJECTID":48909},"geometry":{"x":181083.2200000016,"y":2539108.25}},{"attributes":{"ID":48910,"DIS_CODE":0,"TOWNNAME":"安平區","LI":"國平里","LIN":"15鄰","STREET":"華平路","SECT":" ","MAREA":" ","LANE":"２１巷","ALLEY":"１８弄","HOUSE_NO":"４９號二樓之３","E_COORD97":165279.95000000001,"N_COORD97":2542933.71,"ADDRESS":"華平路２１巷１８弄４９號二樓之３","OBJECTID":48910},"geometry":{"x":165279.95000000112,"y":2542933.7100000028}},{"attributes":{"ID":48911,"DIS_CODE":0,"TOWNNAME":"安平區","LI":"國平里","LIN":"15鄰","STREET":"華平路","SECT":" ","MAREA":" ","LANE":"２１巷","ALLEY":"１８弄","HOUSE_NO":"４９號三樓之１","E_COORD97":165279.95000000001,"N_COORD97":2542933.71,"ADDRESS":"華平路２１巷１８弄４９號三樓之１","OBJECTID":48911},"geometry":{"x":165279.95000000112,"y":2542933.7100000028}},{"attributes":{"ID":48912,"DIS_CODE":0,"TOWNNAME":"安平區","LI":"國平里","LIN":"15鄰","STREET":"華平路","SECT":" ","MAREA":" ","LANE":"２１巷","ALLEY":"１８弄","HOUSE_NO":"４９號三樓之２","E_COORD97":165279.95000000001,"N_COORD97":2542933.71,"ADDRESS":"華平路２１巷１８弄４９號三樓之２","OBJECTID":48912},"geometry":{"x":165279.95000000112,"y":2542933.7100000028}},{"attributes":{"ID":48913,"DIS_CODE":0,"TOWNNAME":"安平區","LI":"國平里","LIN":"15鄰","STREET":"華平路","SECT":" ","MAREA":" ","LANE":"２１巷","ALLEY":"１８弄","HOUSE_NO":"４９號三樓之３","E_COORD97":165279.95000000001,"N_COORD97":2542933.71,"ADDRESS":"華平路２１巷１８弄４９號三樓之３","OBJECTID":48913},"geometry":{"x":165279.95000000112,"y":2542933.7100000028}},{"attributes":{"ID":48914,"DIS_CODE":0,"TOWNNAME":"安平區","LI":"國平里","LIN":"15鄰","STREET":"華平路","SECT":" ","MAREA":" ","LANE":"２１巷","ALLEY":"１８弄","HOUSE_NO":"４９號五樓之１","E_COORD97":165279.95000000001,"N_COORD97":2542933.71,"ADDRESS":"華平路２１巷１８弄４９號五樓之１","OBJECTID":48914},"geometry":{"x":165279.95000000112,"y":2542933.7100000028}},{"attributes":{"ID":48915,"DIS_CODE":0,"TOWNNAME":"安平區","LI":"國平里","LIN":"15鄰","STREET":"華平路","SECT":" ","MAREA":" ","LANE":"２１巷","ALLEY":"１８弄","HOUSE_NO":"４９號五樓之２","E_COORD97":165279.95000000001,"N_COORD97":2542933.71,"ADDRESS":"華平路２１巷１８弄４９號五樓之２","OBJECTID":48915},"geometry":{"x":165279.95000000112,"y":2542933.7100000028}},{"attributes":{"ID":48916,"DIS_CODE":0,"TOWNNAME":"安平區","LI":"國平里","LIN":"15鄰","STREET":"華平路","SECT":" ","MAREA":" ","LANE":"２１巷","ALLEY":"１８弄","HOUSE_NO":"４９號五樓之３","E_COORD97":165279.95000000001,"N_COORD97":2542933.71,"ADDRESS":"華平路２１巷１８弄４９號五樓之３","OBJECTID":48916},"geometry":{"x":165279.95000000112,"y":2542933.7100000028}},{"attributes":{"ID":48917,"DIS_CODE":0,"TOWNNAME":"安平區","LI":"國平里","LIN":"15鄰","STREET":"華平路","SECT":" ","MAREA":" ","LANE":"２１巷","ALLEY":"１８弄","HOUSE_NO":"４９號六樓之１","E_COORD97":165279.95000000001,"N_COORD97":2542933.71,"ADDRESS":"華平路２１巷１８弄４９號六樓之１","OBJECTID":48917},"geometry":{"x":165279.95000000112,"y":2542933.7100000028}},{"attributes":{"ID":48918,"DIS_CODE":0,"TOWNNAME":"安平區","LI":"國平里","LIN":"15鄰","STREET":"華平路","SECT":" ","MAREA":" ","LANE":"２１巷","ALLEY":"１８弄","HOUSE_NO":"４９號六樓之２","E_COORD97":165279.95000000001,"N_COORD97":2542933.71,"ADDRESS":"華平路２１巷１８弄４９號六樓之２","OBJECTID":48918},"geometry":{"x":165279.95000000112,"y":2542933.7100000028}},{"attributes":{"ID":48919,"DIS_CODE":0,"TOWNNAME":"安平區","LI":"國平里","LIN":"15鄰","STREET":"華平路","SECT":" ","MAREA":" ","LANE":"２１巷","ALLEY":"１８弄","HOUSE_NO":"４９號六樓之３","E_COORD97":165279.95000000001,"N_COORD97":2542933.71,"ADDRESS":"華平路２１巷１８弄４９號六樓之３","OBJECTID":48919},"geometry":{"x":165279.95000000112,"y":2542933.7100000028}},{"attributes":{"ID":48920,"DIS_CODE":0,"TOWNNAME":"安平區","LI":"國平里","LIN":"15鄰","STREET":"華平路","SECT":" ","MAREA":" ","LANE":"２１巷","ALLEY":"１８弄","HOUSE_NO":"４９號四樓之１","E_COORD97":165279.95000000001,"N_COORD97":2542933.71,"ADDRESS":"華平路２１巷１８弄４９號四樓之１","OBJECTID":48920},"geometry":{"x":165279.95000000112,"y":2542933.7100000028}},{"attributes":{"ID":48921,"DIS_CODE":0,"TOWNNAME":"關廟區","LI":"松腳里","LIN":"17鄰","STREET":"民族街","SECT":" ","MAREA":" ","LANE":"１９巷","ALLEY":" ","HOUSE_NO":"７號","E_COORD97":181576.54000000001,"N_COORD97":2539764.29,"ADDRESS":"民族街１９巷７號","OBJECTID":48921},"geometry":{"x":181576.54000000097,"y":2539764.290000001}},{"attributes":{"ID":48922,"DIS_CODE":0,"TOWNNAME":"麻豆區","LI":"港尾里","LIN":"15鄰","STREET":" ","SECT":" ","MAREA":"客子寮","LANE":" ","ALLEY":" ","HOUSE_NO":"３７６號","E_COORD97":170157.72,"N_COORD97":2569312.4199999999,"ADDRESS":"客子寮３７６號","OBJECTID":48922},"geometry":{"x":170157.7200000016,"y":2569312.4199999999}},{"attributes":{"ID":48923,"DIS_CODE":0,"TOWNNAME":"麻豆區","LI":"港尾里","LIN":"15鄰","STREET":" ","SECT":" ","MAREA":"客子寮","LANE":" ","ALLEY":" ","HOUSE_NO":"３７７號","E_COORD97":170087.66,"N_COORD97":2569307.1099999999,"ADDRESS":"客子寮３７７號","OBJECTID":48923},"geometry":{"x":170087.66000000108,"y":2569307.1099999994}},{"attributes":{"ID":48924,"DIS_CODE":0,"TOWNNAME":"六甲區","LI":"甲東里","LIN":"17鄰","STREET":"裕農街","SECT":" ","MAREA":" ","LANE":" ","ALLEY":" ","HOUSE_NO":"９號之１","E_COORD97":183977.64999999999,"N_COORD97":2569695.2999999998,"ADDRESS":"裕農街９號之１","OBJECTID":48924},"geometry":{"x":183977.65000000037,"y":2569695.3000000026}},{"attributes":{"ID":48925,"DIS_CODE":0,"TOWNNAME":"麻豆區","LI":"港尾里","LIN":"15鄰","STREET":" ","SECT":" ","MAREA":"客子寮","LANE":" ","ALLEY":" ","HOUSE_NO":"３７８號","E_COORD97":170151.94,"N_COORD97":2569315.1200000001,"ADDRESS":"客子寮３７８號","OBJECTID":48925},"geometry":{"x":170151.94000000134,"y":2569315.120000001}},{"attributes":{"ID":48926,"DIS_CODE":0,"TOWNNAME":"麻豆區","LI":"港尾里","LIN":"15鄰","STREET":" ","SECT":" ","MAREA":"客子寮","LANE":" ","ALLEY":" ","HOUSE_NO":"３７９號","E_COORD97":170081.85999999999,"N_COORD97":2569309.0800000001,"ADDRESS":"客子寮３７９號","OBJECTID":48926},"geometry":{"x":170081.86000000034,"y":2569309.0799999982}},{"attributes":{"ID":48927,"DIS_CODE":0,"TOWNNAME":"六甲區","LI":"甲東里","LIN":"17鄰","STREET":"裕農街","SECT":" ","MAREA":" ","LANE":" ","ALLEY":" ","HOUSE_NO":"９號","E_COORD97":183973.57999999999,"N_COORD97":2569694.77,"ADDRESS":"裕農街９號","OBJECTID":48927},"geometry":{"x":183973.58000000101,"y":2569694.7700000014}},{"attributes":{"ID":48928,"DIS_CODE":0,"TOWNNAME":"關廟區","LI":"五甲里","LIN":"17鄰","STREET":"大富街","SECT":" ","MAREA":" ","LANE":" ","ALLEY":" ","HOUSE_NO":"６０號","E_COORD97":181060.51999999999,"N_COORD97":2539086.25,"ADDRESS":"大富街６０號","OBJECTID":48928},"geometry":{"x":181060.52000000142,"y":2539086.2500000037}},{"attributes":{"ID":48929,"DIS_CODE":0,"TOWNNAME":"麻豆區","LI":"港尾里","LIN":"15鄰","STREET":" ","SECT":" ","MAREA":"客子寮","LANE":" ","ALLEY":" ","HOUSE_NO":"３７號之１","E_COORD97":170091.84,"N_COORD97":2568405.5299999998,"ADDRESS":"客子寮３７號之１","OBJECTID":48929},"geometry":{"x":170091.83999999985,"y":2568405.5299999993}},{"attributes":{"ID":48930,"DIS_CODE":0,"TOWNNAME":"麻豆區","LI":"港尾里","LIN":"15鄰","STREET":" ","SECT":" ","MAREA":"客子寮","LANE":" ","ALLEY":" ","HOUSE_NO":"３７號","E_COORD97":170119.16,"N_COORD97":2568402.6200000001,"ADDRESS":"客子寮３７號","OBJECTID":48930},"geometry":{"x":170119.16000000015,"y":2568402.6200000029}},{"attributes":{"ID":48931,"DIS_CODE":0,"TOWNNAME":"麻豆區","LI":"港尾里","LIN":"15鄰","STREET":" ","SECT":" ","MAREA":"客子寮","LANE":" ","ALLEY":" ","HOUSE_NO":"３８０號","E_COORD97":170137.59,"N_COORD97":2569321.1000000001,"ADDRESS":"客子寮３８０號","OBJECTID":48931},"geometry":{"x":170137.58999999985,"y":2569321.0999999996}},{"attributes":{"ID":48932,"DIS_CODE":0,"TOWNNAME":"關廟區","LI":"東勢里","LIN":"17鄰","STREET":"東仁街","SECT":" ","MAREA":" ","LANE":" ","ALLEY":" ","HOUSE_NO":"１５號","E_COORD97":181889.22,"N_COORD97":2539313.25,"ADDRESS":"東仁街１５號","OBJECTID":48932},"geometry":{"x":181889.21999999974,"y":2539313.2500000037}},{"attributes":{"ID":48933,"DIS_CODE":0,"TOWNNAME":"麻豆區","LI":"港尾里","LIN":"15鄰","STREET":" ","SECT":" ","MAREA":"客子寮","LANE":" ","ALLEY":" ","HOUSE_NO":"３８１號","E_COORD97":170069.79999999999,"N_COORD97":2569315.0699999998,"ADDRESS":"客子寮３８１號","OBJECTID":48933},"geometry":{"x":170069.80000000075,"y":2569315.0700000003}},{"attributes":{"ID":48934,"DIS_CODE":0,"TOWNNAME":"麻豆區","LI":"港尾里","LIN":"15鄰","STREET":" ","SECT":" ","MAREA":"客子寮","LANE":" ","ALLEY":" ","HOUSE_NO":"３８２號","E_COORD97":170131.45000000001,"N_COORD97":2569323.6899999999,"ADDRESS":"客子寮３８２號","OBJECTID":48934},"geometry":{"x":170131.45000000112,"y":2569323.6899999995}},{"attributes":{"ID":48935,"DIS_CODE":0,"TOWNNAME":"麻豆區","LI":"港尾里","LIN":"15鄰","STREET":" ","SECT":" ","MAREA":"客子寮","LANE":" ","ALLEY":" ","HOUSE_NO":"４０６號","E_COORD97":170048.12,"N_COORD97":2569361.1200000001,"ADDRESS":"客子寮４０６號","OBJECTID":48935},"geometry":{"x":170048.12000000011,"y":2569361.1200000029}},{"attributes":{"ID":48936,"DIS_CODE":0,"TOWNNAME":"關廟區","LI":"北勢里","LIN":"17鄰","STREET":"成功路","SECT":" ","MAREA":" ","LANE":" ","ALLEY":" ","HOUSE_NO":"３４３號","E_COORD97":181288.67000000001,"N_COORD97":2540496.27,"ADDRESS":"成功路３４３號","OBJECTID":48936},"geometry":{"x":181288.66999999899,"y":2540496.2700000014}},{"attributes":{"ID":48937,"DIS_CODE":0,"TOWNNAME":"麻豆區","LI":"港尾里","LIN":"15鄰","STREET":" ","SECT":" ","MAREA":"客子寮","LANE":" ","ALLEY":" ","HOUSE_NO":"４０８號","E_COORD97":170042.48000000001,"N_COORD97":2569364.3799999999,"ADDRESS":"客子寮４０８號","OBJECTID":48937},"geometry":{"x":170042.48000000045,"y":2569364.3800000008}},{"attributes":{"ID":48938,"DIS_CODE":0,"TOWNNAME":"關廟區","LI":"東勢里","LIN":"17鄰","STREET":"東仁街","SECT":" ","MAREA":" ","LANE":" ","ALLEY":" ","HOUSE_NO":"７號","E_COORD97":181901.07000000001,"N_COORD97":2539322.25,"ADDRESS":"東仁街７號","OBJECTID":48938},"geometry":{"x":181901.0700000003,"y":2539322.25}},{"attributes":{"ID":48939,"DIS_CODE":0,"TOWNNAME":"關廟區","LI":"香洋里","LIN":"17鄰","STREET":"中央路","SECT":" ","MAREA":" ","LANE":" ","ALLEY":" ","HOUSE_NO":"３６號","E_COORD97":181576.31,"N_COORD97":2539992.3199999998,"ADDRESS":"中央路３６號","OBJECTID":48939},"geometry":{"x":181576.31000000052,"y":2539992.3200000022}},{"attributes":{"ID":48940,"DIS_CODE":0,"TOWNNAME":"關廟區","LI":"五甲里","LIN":"17鄰","STREET":"大富街","SECT":" ","MAREA":" ","LANE":" ","ALLEY":" ","HOUSE_NO":"３６號","E_COORD97":181025.62,"N_COORD97":2539061.25,"ADDRESS":"大富街３６號","OBJECTID":48940},"geometry":{"x":181025.62000000104,"y":2539061.25}},{"attributes":{"ID":48941,"DIS_CODE":0,"TOWNNAME":"關廟區","LI":"香洋里","LIN":"17鄰","STREET":"中央路","SECT":" ","MAREA":" ","LANE":" ","ALLEY":" ","HOUSE_NO":"２８號","E_COORD97":181591.70999999999,"N_COORD97":2539987.3199999998,"ADDRESS":"中央路２８號","OBJECTID":48941},"geometry":{"x":181591.70999999996,"y":2539987.3200000003}},{"attributes":{"ID":48942,"DIS_CODE":0,"TOWNNAME":"關廟區","LI":"松腳里","LIN":"17鄰","STREET":"光復街","SECT":" ","MAREA":" ","LANE":" ","ALLEY":" ","HOUSE_NO":"２３６號","E_COORD97":181508.54000000001,"N_COORD97":2539768.2799999998,"ADDRESS":"光復街２３６號","OBJECTID":48942},"geometry":{"x":181508.5400000019,"y":2539768.2800000012}},{"attributes":{"ID":48943,"DIS_CODE":0,"TOWNNAME":"麻豆區","LI":"港尾里","LIN":"15鄰","STREET":" ","SECT":" ","MAREA":"客子寮","LANE":" ","ALLEY":" ","HOUSE_NO":"４０號","E_COORD97":170377.14000000001,"N_COORD97":2568871.4399999999,"ADDRESS":"客子寮４０號","OBJECTID":48943},"geometry":{"x":170377.1400000006,"y":2568871.4399999995}},{"attributes":{"ID":48944,"DIS_CODE":0,"TOWNNAME":"安南區","LI":"長安里","LIN":"15鄰","STREET":"公學路","SECT":"二段","MAREA":" ","LANE":"６３巷","ALLEY":"３４弄","HOUSE_NO":"２號","E_COORD97":167845.73999999999,"N_COORD97":2552358.96,"ADDRESS":"公學路二段６３巷３４弄２號","OBJECTID":48944},"geometry":{"x":167845.74000000209,"y":2552358.9600000046}},{"attributes":{"ID":48945,"DIS_CODE":0,"TOWNNAME":"安平區","LI":"國平里","LIN":"15鄰","STREET":"華平路","SECT":" ","MAREA":" ","LANE":"２１巷","ALLEY":"１８弄","HOUSE_NO":"４９號四樓之２","E_COORD97":165279.95000000001,"N_COORD97":2542933.71,"ADDRESS":"華平路２１巷１８弄４９號四樓之２","OBJECTID":48945},"geometry":{"x":165279.95000000112,"y":2542933.7100000028}},{"attributes":{"ID":48946,"DIS_CODE":0,"TOWNNAME":"麻豆區","LI":"港尾里","LIN":"15鄰","STREET":" ","SECT":" ","MAREA":"客子寮","LANE":" ","ALLEY":" ","HOUSE_NO":"４１０號","E_COORD97":170186.70000000001,"N_COORD97":2569347.9199999999,"ADDRESS":"客子寮４１０號","OBJECTID":48946},"geometry":{"x":170186.70000000019,"y":2569347.9200000018}},{"attributes":{"ID":48947,"DIS_CODE":0,"TOWNNAME":"麻豆區","LI":"港尾里","LIN":"15鄰","STREET":" ","SECT":" ","MAREA":"客子寮","LANE":" ","ALLEY":" ","HOUSE_NO":"４１２號","E_COORD97":170176.37,"N_COORD97":2569354.3500000001,"ADDRESS":"客子寮４１２號","OBJECTID":48947},"geometry":{"x":170176.37000000104,"y":2569354.3500000034}},{"attributes":{"ID":48948,"DIS_CODE":0,"TOWNNAME":"麻豆區","LI":"港尾里","LIN":"15鄰","STREET":" ","SECT":" ","MAREA":"客子寮","LANE":" ","ALLEY":" ","HOUSE_NO":"４１６號","E_COORD97":170170.42999999999,"N_COORD97":2569356.8199999998,"ADDRESS":"客子寮４１６號","OBJECTID":48948},"geometry":{"x":170170.43000000063,"y":2569356.8200000022}},{"attributes":{"ID":48949,"DIS_CODE":0,"TOWNNAME":"麻豆區","LI":"港尾里","LIN":"15鄰","STREET":" ","SECT":" ","MAREA":"客子寮","LANE":" ","ALLEY":" ","HOUSE_NO":"４１８號","E_COORD97":170156.13,"N_COORD97":2569362.6499999999,"ADDRESS":"客子寮４１８號","OBJECTID":48949},"geometry":{"x":170156.12999999989,"y":2569362.6500000004}},{"attributes":{"ID":48950,"DIS_CODE":0,"TOWNNAME":"麻豆區","LI":"港尾里","LIN":"15鄰","STREET":" ","SECT":" ","MAREA":"客子寮","LANE":" ","ALLEY":" ","HOUSE_NO":"４２號","E_COORD97":170368.92999999999,"N_COORD97":2568878.6200000001,"ADDRESS":"客子寮４２號","OBJECTID":48950},"geometry":{"x":170368.9299999997,"y":2568878.620000001}},{"attributes":{"ID":48951,"DIS_CODE":0,"TOWNNAME":"麻豆區","LI":"港尾里","LIN":"15鄰","STREET":" ","SECT":" ","MAREA":"客子寮","LANE":" ","ALLEY":" ","HOUSE_NO":"４３號","E_COORD97":170364.06,"N_COORD97":2568882.2200000002,"ADDRESS":"客子寮４３號","OBJECTID":48951},"geometry":{"x":170364.06000000052,"y":2568882.2200000025}},{"attributes":{"ID":48952,"DIS_CODE":0,"TOWNNAME":"麻豆區","LI":"港尾里","LIN":"15鄰","STREET":" ","SECT":" ","MAREA":"客子寮","LANE":" ","ALLEY":" ","HOUSE_NO":"４６號","E_COORD97":170360.26999999999,"N_COORD97":2568886.48,"ADDRESS":"客子寮４６號","OBJECTID":48952},"geometry":{"x":170360.26999999955,"y":2568886.4800000042}},{"attributes":{"ID":48953,"DIS_CODE":0,"TOWNNAME":"麻豆區","LI":"港尾里","LIN":"15鄰","STREET":" ","SECT":" ","MAREA":"客子寮","LANE":" ","ALLEY":" ","HOUSE_NO":"５００號","E_COORD97":170348.60000000001,"N_COORD97":2569207.98,"ADDRESS":"客子寮５００號","OBJECTID":48953},"geometry":{"x":170348.60000000056,"y":2569207.9800000004}},{"attributes":{"ID":48954,"DIS_CODE":0,"TOWNNAME":"麻豆區","LI":"港尾里","LIN":"15鄰","STREET":" ","SECT":" ","MAREA":"客子寮","LANE":" ","ALLEY":" ","HOUSE_NO":"５０１號","E_COORD97":170337.53,"N_COORD97":2569214.5699999998,"ADDRESS":"客子寮５０１號","OBJECTID":48954},"geometry":{"x":170337.53000000212,"y":2569214.570000004}},{"attributes":{"ID":48955,"DIS_CODE":0,"TOWNNAME":"安平區","LI":"國平里","LIN":"15鄰","STREET":"華平路","SECT":" ","MAREA":" ","LANE":"２１巷","ALLEY":"１８弄","HOUSE_NO":"４９號四樓之３","E_COORD97":165279.95000000001,"N_COORD97":2542933.71,"ADDRESS":"華平路２１巷１８弄４９號四樓之３","OBJECTID":48955},"geometry":{"x":165279.95000000112,"y":2542933.7100000028}},{"attributes":{"ID":48956,"DIS_CODE":0,"TOWNNAME":"南區","LI":"同安里","LIN":"13鄰","STREET":"明興路","SECT":" ","MAREA":" ","LANE":"１２８５巷","ALLEY":"３０弄","HOUSE_NO":"４５號","E_COORD97":166474.73000000001,"N_COORD97":2535909.75,"ADDRESS":"明興路１２８５巷３０弄４５號","OBJECTID":48956},"geometry":{"x":166474.73000000231,"y":2535909.7500000019}},{"attributes":{"ID":48957,"DIS_CODE":0,"TOWNNAME":"南區","LI":"南都里","LIN":"15鄰","STREET":"中華南路","SECT":"二段","MAREA":" ","LANE":"３１５巷","ALLEY":"５弄","HOUSE_NO":"１１號二樓","E_COORD97":166523.85999999999,"N_COORD97":2540161.04,"ADDRESS":"中華南路二段３１５巷５弄１１號二樓","OBJECTID":48957},"geometry":{"x":166523.86000000034,"y":2540161.0399999991}},{"attributes":{"ID":48958,"DIS_CODE":0,"TOWNNAME":"南區","LI":"大林里","LIN":"4鄰","STREET":"大同路","SECT":"二段","MAREA":" ","LANE":"４０６巷","ALLEY":"１２弄","HOUSE_NO":"１０號","E_COORD97":169322.62,"N_COORD97":2541721.6200000001,"ADDRESS":"大同路二段４０６巷１２弄１０號","OBJECTID":48958},"geometry":{"x":169322.62000000011,"y":2541721.620000001}},{"attributes":{"ID":48959,"DIS_CODE":0,"TOWNNAME":"南區","LI":"喜北里","LIN":"14鄰","STREET":"喜樹路","SECT":" ","MAREA":" ","LANE":"２２２巷","ALLEY":"６弄","HOUSE_NO":"２０號之１","E_COORD97":165596.31,"N_COORD97":2538090.9700000002,"ADDRESS":"喜樹路２２２巷６弄２０號之１","OBJECTID":48959},"geometry":{"x":165596.30999999959,"y":2538090.9700000007}},{"attributes":{"ID":48960,"DIS_CODE":0,"TOWNNAME":"南區","LI":"南都里","LIN":"15鄰","STREET":"中華南路","SECT":"二段","MAREA":" ","LANE":"３１５巷","ALLEY":"５弄","HOUSE_NO":"１１號三樓","E_COORD97":166523.85999999999,"N_COORD97":2540161.04,"ADDRESS":"中華南路二段３１５巷５弄１１號三樓","OBJECTID":48960},"geometry":{"x":166523.86000000034,"y":2540161.0399999991}},{"attributes":{"ID":48961,"DIS_CODE":0,"TOWNNAME":"麻豆區","LI":"港尾里","LIN":"15鄰","STREET":" ","SECT":" ","MAREA":"客子寮","LANE":" ","ALLEY":" ","HOUSE_NO":"５０２號","E_COORD97":170320.10999999999,"N_COORD97":2569224.27,"ADDRESS":"客子寮５０２號","OBJECTID":48961},"geometry":{"x":170320.1100000022,"y":2569224.2700000014}},{"attributes":{"ID":48962,"DIS_CODE":0,"TOWNNAME":"南區","LI":"南都里","LIN":"15鄰","STREET":"中華南路","SECT":"二段","MAREA":" ","LANE":"３１５巷","ALLEY":"５弄","HOUSE_NO":"１１號五樓","E_COORD97":166523.85999999999,"N_COORD97":2540161.04,"ADDRESS":"中華南路二段３１５巷５弄１１號五樓","OBJECTID":48962},"geometry":{"x":166523.86000000034,"y":2540161.0399999991}},{"attributes":{"ID":48963,"DIS_CODE":0,"TOWNNAME":"麻豆區","LI":"港尾里","LIN":"15鄰","STREET":" ","SECT":" ","MAREA":"客子寮","LANE":" ","ALLEY":" ","HOUSE_NO":"５０３號","E_COORD97":170315.84,"N_COORD97":2569227.8999999999,"ADDRESS":"客子寮５０３號","OBJECTID":48963},"geometry":{"x":170315.83999999985,"y":2569227.9000000004}},{"attributes":{"ID":48964,"DIS_CODE":0,"TOWNNAME":"關廟區","LI":"五甲里","LIN":"17鄰","STREET":"五義街","SECT":" ","MAREA":" ","LANE":" ","ALLEY":" ","HOUSE_NO":"６０號","E_COORD97":181079.72,"N_COORD97":2539059.27,"ADDRESS":"五義街６０號","OBJECTID":48964},"geometry":{"x":181079.7200000016,"y":2539059.2700000014}},{"attributes":{"ID":48965,"DIS_CODE":0,"TOWNNAME":"關廟區","LI":"五甲里","LIN":"17鄰","STREET":"大富街","SECT":" ","MAREA":" ","LANE":" ","ALLEY":" ","HOUSE_NO":"３２號","E_COORD97":181021.42000000001,"N_COORD97":2539060.25,"ADDRESS":"大富街３２號","OBJECTID":48965},"geometry":{"x":181021.42000000086,"y":2539060.2500000019}},{"attributes":{"ID":48966,"DIS_CODE":0,"TOWNNAME":"關廟區","LI":"東勢里","LIN":"17鄰","STREET":"旺萊路","SECT":" ","MAREA":" ","LANE":" ","ALLEY":" ","HOUSE_NO":"２５８號","E_COORD97":181917.73999999999,"N_COORD97":2539390.25,"ADDRESS":"旺萊路２５８號","OBJECTID":48966},"geometry":{"x":181917.74000000115,"y":2539390.25}},{"attributes":{"ID":48967,"DIS_CODE":0,"TOWNNAME":"關廟區","LI":"東勢里","LIN":"17鄰","STREET":"東仁街","SECT":" ","MAREA":" ","LANE":" ","ALLEY":" ","HOUSE_NO":"２５號","E_COORD97":181872.01999999999,"N_COORD97":2539300.25,"ADDRESS":"東仁街２５號","OBJECTID":48967},"geometry":{"x":181872.01999999955,"y":2539300.2500000019}},{"attributes":{"ID":48968,"DIS_CODE":0,"TOWNNAME":"麻豆區","LI":"港尾里","LIN":"15鄰","STREET":" ","SECT":" ","MAREA":"客子寮","LANE":" ","ALLEY":" ","HOUSE_NO":"５０５號","E_COORD97":170302.41,"N_COORD97":2569242.2799999998,"ADDRESS":"客子寮５０５號","OBJECTID":48968},"geometry":{"x":170302.40999999922,"y":2569242.2799999993}},{"attributes":{"ID":48969,"DIS_CODE":0,"TOWNNAME":"麻豆區","LI":"港尾里","LIN":"15鄰","STREET":" ","SECT":" ","MAREA":"客子寮","LANE":" ","ALLEY":" ","HOUSE_NO":"５０６號","E_COORD97":170295.14999999999,"N_COORD97":2569247.02,"ADDRESS":"客子寮５０６號","OBJECTID":48969},"geometry":{"x":170295.1500000013,"y":2569247.0199999996}},{"attributes":{"ID":48970,"DIS_CODE":0,"TOWNNAME":"新營區","LI":"鐵線里","LIN":"12鄰","STREET":" ","SECT":" ","MAREA":"鐵線橋","LANE":" ","ALLEY":" ","HOUSE_NO":"１４１號","E_COORD97":175649.79999999999,"N_COORD97":2573872.8300000001,"ADDRESS":"鐵線橋１４１號","OBJECTID":48970},"geometry":{"x":175649.80000000075,"y":2573872.8300000001}},{"attributes":{"ID":48971,"DIS_CODE":0,"TOWNNAME":"關廟區","LI":"五甲里","LIN":"17鄰","STREET":"五甲路","SECT":" ","MAREA":" ","LANE":" ","ALLEY":" ","HOUSE_NO":"１５６號","E_COORD97":181101.37,"N_COORD97":2538989.25,"ADDRESS":"五甲路１５６號","OBJECTID":48971},"geometry":{"x":181101.37000000104,"y":2538989.2500000019}},{"attributes":{"ID":48972,"DIS_CODE":0,"TOWNNAME":"關廟區","LI":"五甲里","LIN":"17鄰","STREET":"大順路","SECT":" ","MAREA":" ","LANE":" ","ALLEY":" ","HOUSE_NO":"１３號","E_COORD97":181028.32000000001,"N_COORD97":2539009.25,"ADDRESS":"大順路１３號","OBJECTID":48972},"geometry":{"x":181028.3200000003,"y":2539009.2500000019}},{"attributes":{"ID":48973,"DIS_CODE":0,"TOWNNAME":"關廟區","LI":"五甲里","LIN":"17鄰","STREET":"大富街","SECT":" ","MAREA":" ","LANE":" ","ALLEY":" ","HOUSE_NO":"４０號","E_COORD97":181032.12,"N_COORD97":2539066.25,"ADDRESS":"大富街４０號","OBJECTID":48973},"geometry":{"x":181032.12000000104,"y":2539066.2500000019}},{"attributes":{"ID":48974,"DIS_CODE":0,"TOWNNAME":"關廟區","LI":"五甲里","LIN":"17鄰","STREET":"五甲路","SECT":" ","MAREA":" ","LANE":" ","ALLEY":" ","HOUSE_NO":"１６８號","E_COORD97":181070.57000000001,"N_COORD97":2538974.25,"ADDRESS":"五甲路１６８號","OBJECTID":48974},"geometry":{"x":181070.5700000003,"y":2538974.2500000037}},{"attributes":{"ID":48975,"DIS_CODE":0,"TOWNNAME":"關廟區","LI":"五甲里","LIN":"17鄰","STREET":"大順路","SECT":" ","MAREA":" ","LANE":" ","ALLEY":" ","HOUSE_NO":"１５號","E_COORD97":181029.82000000001,"N_COORD97":2539005.25,"ADDRESS":"大順路１５號","OBJECTID":48975},"geometry":{"x":181029.8200000003,"y":2539005.2500000019}},{"attributes":{"ID":48976,"DIS_CODE":0,"TOWNNAME":"關廟區","LI":"五甲里","LIN":"17鄰","STREET":"大順路","SECT":" ","MAREA":" ","LANE":" ","ALLEY":" ","HOUSE_NO":"９號","E_COORD97":181017.07000000001,"N_COORD97":2539030.25,"ADDRESS":"大順路９號","OBJECTID":48976},"geometry":{"x":181017.07000000123,"y":2539030.25}},{"attributes":{"ID":48977,"DIS_CODE":0,"TOWNNAME":"麻豆區","LI":"港尾里","LIN":"15鄰","STREET":" ","SECT":" ","MAREA":"客子寮","LANE":" ","ALLEY":" ","HOUSE_NO":"５０７號","E_COORD97":170278.04999999999,"N_COORD97":2569258.1000000001,"ADDRESS":"客子寮５０７號","OBJECTID":48977},"geometry":{"x":170278.05000000075,"y":2569258.1000000015}},{"attributes":{"ID":48978,"DIS_CODE":0,"TOWNNAME":"南區","LI":"南都里","LIN":"15鄰","STREET":"中華南路","SECT":"二段","MAREA":" ","LANE":"３１５巷","ALLEY":"５弄","HOUSE_NO":"１１號四樓","E_COORD97":166523.85999999999,"N_COORD97":2540161.04,"ADDRESS":"中華南路二段３１５巷５弄１１號四樓","OBJECTID":48978},"geometry":{"x":166523.86000000034,"y":2540161.0399999991}},{"attributes":{"ID":48979,"DIS_CODE":0,"TOWNNAME":"南區","LI":"南都里","LIN":"15鄰","STREET":"中華南路","SECT":"二段","MAREA":" ","LANE":"３１５巷","ALLEY":"５弄","HOUSE_NO":"１３號二樓","E_COORD97":166543.73000000001,"N_COORD97":2540151.2999999998,"ADDRESS":"中華南路二段３１５巷５弄１３號二樓","OBJECTID":48979},"geometry":{"x":166543.73000000045,"y":2540151.3000000045}},{"attributes":{"ID":48980,"DIS_CODE":0,"TOWNNAME":"南區","LI":"南都里","LIN":"15鄰","STREET":"中華南路","SECT":"二段","MAREA":" ","LANE":"３１５巷","ALLEY":"５弄","HOUSE_NO":"１３號三樓","E_COORD97":166543.73000000001,"N_COORD97":2540151.2999999998,"ADDRESS":"中華南路二段３１５巷５弄１３號三樓","OBJECTID":48980},"geometry":{"x":166543.73000000045,"y":2540151.3000000045}},{"attributes":{"ID":48981,"DIS_CODE":0,"TOWNNAME":"南區","LI":"南都里","LIN":"15鄰","STREET":"中華南路","SECT":"二段","MAREA":" ","LANE":"３１５巷","ALLEY":"５弄","HOUSE_NO":"１３號五樓","E_COORD97":166543.73000000001,"N_COORD97":2540151.2999999998,"ADDRESS":"中華南路二段３１５巷５弄１３號五樓","OBJECTID":48981},"geometry":{"x":166543.73000000045,"y":2540151.3000000045}},{"attributes":{"ID":48982,"DIS_CODE":0,"TOWNNAME":"南區","LI":"南都里","LIN":"15鄰","STREET":"中華南路","SECT":"二段","MAREA":" ","LANE":"３１５巷","ALLEY":"５弄","HOUSE_NO":"１３號四樓","E_COORD97":166543.73000000001,"N_COORD97":2540151.2999999998,"ADDRESS":"中華南路二段３１５巷５弄１３號四樓","OBJECTID":48982},"geometry":{"x":166543.73000000045,"y":2540151.3000000045}},{"attributes":{"ID":48983,"DIS_CODE":0,"TOWNNAME":"南區","LI":"南都里","LIN":"15鄰","STREET":"中華南路","SECT":"二段","MAREA":" ","LANE":"３１５巷","ALLEY":"５弄","HOUSE_NO":"１５號二樓","E_COORD97":166555.92000000001,"N_COORD97":2540151.6499999999,"ADDRESS":"中華南路二段３１５巷５弄１５號二樓","OBJECTID":48983},"geometry":{"x":166555.92000000179,"y":2540151.6499999985}},{"attributes":{"ID":48984,"DIS_CODE":0,"TOWNNAME":"南區","LI":"南都里","LIN":"15鄰","STREET":"中華南路","SECT":"二段","MAREA":" ","LANE":"３１５巷","ALLEY":"５弄","HOUSE_NO":"１５號三樓","E_COORD97":166555.92000000001,"N_COORD97":2540151.6499999999,"ADDRESS":"中華南路二段３１５巷５弄１５號三樓","OBJECTID":48984},"geometry":{"x":166555.92000000179,"y":2540151.6499999985}},{"attributes":{"ID":48985,"DIS_CODE":0,"TOWNNAME":"南區","LI":"南都里","LIN":"15鄰","STREET":"中華南路","SECT":"二段","MAREA":" ","LANE":"３１５巷","ALLEY":"５弄","HOUSE_NO":"１５號五樓","E_COORD97":166555.92000000001,"N_COORD97":2540151.6499999999,"ADDRESS":"中華南路二段３１５巷５弄１５號五樓","OBJECTID":48985},"geometry":{"x":166555.92000000179,"y":2540151.6499999985}},{"attributes":{"ID":48986,"DIS_CODE":0,"TOWNNAME":"南區","LI":"南都里","LIN":"15鄰","STREET":"中華南路","SECT":"二段","MAREA":" ","LANE":"３１５巷","ALLEY":"５弄","HOUSE_NO":"１５號四樓","E_COORD97":166555.92000000001,"N_COORD97":2540151.6499999999,"ADDRESS":"中華南路二段３１５巷５弄１５號四樓","OBJECTID":48986},"geometry":{"x":166555.92000000179,"y":2540151.6499999985}},{"attributes":{"ID":48987,"DIS_CODE":0,"TOWNNAME":"南區","LI":"南都里","LIN":"15鄰","STREET":"中華南路","SECT":"二段","MAREA":" ","LANE":"３１５巷","ALLEY":"５弄","HOUSE_NO":"１７號二樓","E_COORD97":166556.26999999999,"N_COORD97":2540158.6099999999,"ADDRESS":"中華南路二段３１５巷５弄１７號二樓","OBJECTID":48987},"geometry":{"x":166556.26999999955,"y":2540158.6100000013}},{"attributes":{"ID":48988,"DIS_CODE":0,"TOWNNAME":"南區","LI":"南都里","LIN":"15鄰","STREET":"中華南路","SECT":"二段","MAREA":" ","LANE":"３１５巷","ALLEY":"５弄","HOUSE_NO":"１７號三樓","E_COORD97":166556.26999999999,"N_COORD97":2540158.6099999999,"ADDRESS":"中華南路二段３１５巷５弄１７號三樓","OBJECTID":48988},"geometry":{"x":166556.26999999955,"y":2540158.6100000013}},{"attributes":{"ID":48989,"DIS_CODE":0,"TOWNNAME":"南區","LI":"南都里","LIN":"15鄰","STREET":"中華南路","SECT":"二段","MAREA":" ","LANE":"３１５巷","ALLEY":"５弄","HOUSE_NO":"１７號五樓","E_COORD97":166556.26999999999,"N_COORD97":2540158.6099999999,"ADDRESS":"中華南路二段３１５巷５弄１７號五樓","OBJECTID":48989},"geometry":{"x":166556.26999999955,"y":2540158.6100000013}},{"attributes":{"ID":48990,"DIS_CODE":0,"TOWNNAME":"南區","LI":"南都里","LIN":"15鄰","STREET":"中華南路","SECT":"二段","MAREA":" ","LANE":"３１５巷","ALLEY":"５弄","HOUSE_NO":"１７號四樓","E_COORD97":166556.26999999999,"N_COORD97":2540158.6099999999,"ADDRESS":"中華南路二段３１５巷５弄１７號四樓","OBJECTID":48990},"geometry":{"x":166556.26999999955,"y":2540158.6100000013}},{"attributes":{"ID":48991,"DIS_CODE":0,"TOWNNAME":"南區","LI":"南都里","LIN":"15鄰","STREET":"中華南路","SECT":"二段","MAREA":" ","LANE":"３１５巷","ALLEY":"５弄","HOUSE_NO":"１９號二樓","E_COORD97":166543.73000000001,"N_COORD97":2540158.9500000002,"ADDRESS":"中華南路二段３１５巷５弄１９號二樓","OBJECTID":48991},"geometry":{"x":166543.73000000045,"y":2540158.950000003}},{"attributes":{"ID":48992,"DIS_CODE":0,"TOWNNAME":"南區","LI":"南都里","LIN":"15鄰","STREET":"中華南路","SECT":"二段","MAREA":" ","LANE":"３１５巷","ALLEY":"５弄","HOUSE_NO":"１９號三樓","E_COORD97":166543.73000000001,"N_COORD97":2540158.9500000002,"ADDRESS":"中華南路二段３１５巷５弄１９號三樓","OBJECTID":48992},"geometry":{"x":166543.73000000045,"y":2540158.950000003}},{"attributes":{"ID":48993,"DIS_CODE":0,"TOWNNAME":"南區","LI":"南都里","LIN":"15鄰","STREET":"中華南路","SECT":"二段","MAREA":" ","LANE":"３１５巷","ALLEY":"５弄","HOUSE_NO":"１９號五樓","E_COORD97":166543.73000000001,"N_COORD97":2540158.9500000002,"ADDRESS":"中華南路二段３１５巷５弄１９號五樓","OBJECTID":48993},"geometry":{"x":166543.73000000045,"y":2540158.950000003}},{"attributes":{"ID":48994,"DIS_CODE":0,"TOWNNAME":"南區","LI":"南都里","LIN":"15鄰","STREET":"中華南路","SECT":"二段","MAREA":" ","LANE":"３１５巷","ALLEY":"５弄","HOUSE_NO":"１９號四樓","E_COORD97":166543.73000000001,"N_COORD97":2540158.9500000002,"ADDRESS":"中華南路二段３１５巷５弄１９號四樓","OBJECTID":48994},"geometry":{"x":166543.73000000045,"y":2540158.950000003}},{"attributes":{"ID":48995,"DIS_CODE":0,"TOWNNAME":"南區","LI":"南都里","LIN":"15鄰","STREET":"中華南路","SECT":"二段","MAREA":" ","LANE":"３１５巷","ALLEY":"５弄","HOUSE_NO":"１號二樓","E_COORD97":166483.09,"N_COORD97":2540160.7000000002,"ADDRESS":"中華南路二段３１５巷５弄１號二樓","OBJECTID":48995},"geometry":{"x":166483.08999999985,"y":2540160.700000003}},{"attributes":{"ID":48996,"DIS_CODE":0,"TOWNNAME":"南區","LI":"南都里","LIN":"15鄰","STREET":"中華南路","SECT":"二段","MAREA":" ","LANE":"３１５巷","ALLEY":"５弄","HOUSE_NO":"１號三樓","E_COORD97":166483.09,"N_COORD97":2540160.7000000002,"ADDRESS":"中華南路二段３１５巷５弄１號三樓","OBJECTID":48996},"geometry":{"x":166483.08999999985,"y":2540160.700000003}},{"attributes":{"ID":48997,"DIS_CODE":0,"TOWNNAME":"南區","LI":"南都里","LIN":"15鄰","STREET":"中華南路","SECT":"二段","MAREA":" ","LANE":"３１５巷","ALLEY":"５弄","HOUSE_NO":"１號五樓","E_COORD97":166483.09,"N_COORD97":2540160.7000000002,"ADDRESS":"中華南路二段３１５巷５弄１號五樓","OBJECTID":48997},"geometry":{"x":166483.08999999985,"y":2540160.700000003}},{"attributes":{"ID":48998,"DIS_CODE":0,"TOWNNAME":"北區","LI":"開元里","LIN":"17鄰","STREET":"北園街","SECT":" ","MAREA":" ","LANE":"８７巷","ALLEY":" ","HOUSE_NO":"１３５號","E_COORD97":170154.78,"N_COORD97":2545886.98,"ADDRESS":"北園街８７巷１３５號","OBJECTID":48998},"geometry":{"x":170154.78000000119,"y":2545886.9800000023}},{"attributes":{"ID":48999,"DIS_CODE":0,"TOWNNAME":"北區","LI":"開元里","LIN":"17鄰","STREET":"長榮路","SECT":"五段","MAREA":" ","LANE":" ","ALLEY":" ","HOUSE_NO":"１２８號","E_COORD97":170072.48000000001,"N_COORD97":2545889.71,"ADDRESS":"長榮路五段１２８號","OBJECTID":48999},"geometry":{"x":170072.48000000138,"y":2545889.7100000028}},{"attributes":{"ID":49000,"DIS_CODE":0,"TOWNNAME":"玉井區","LI":"中正里","LIN":"8鄰","STREET":"健康街","SECT":" ","MAREA":" ","LANE":" ","ALLEY":" ","HOUSE_NO":"５１號","E_COORD97":195578.23999999999,"N_COORD97":2558820.29,"ADDRESS":"健康街５１號","OBJECTID":49000},"geometry":{"x":195578.24000000022,"y":2558820.2900000028}}]}