{"displayFieldName":"TOWNNAME","fieldAliases":{"ID":"ID","DIS_CODE":"DIS_CODE","TOWNNAME":"TOWNNAME","LI":"LI","LIN":"LIN","STREET":"STREET","SECT":"SECT","MAREA":"MAREA","LANE":"LANE","ALLEY":"ALLEY","HOUSE_NO":"HOUSE_NO","E_COORD97":"E_COORD97","N_COORD97":"N_COORD97","ADDRESS":"ADDRESS","OBJECTID":"OBJECTID"},"geometryType":"esriGeometryPoint","spatialReference":{"wkid":102443,"latestWkid":3826},"fields":[{"name":"ID","type":"esriFieldTypeDouble","alias":"ID"},{"name":"DIS_CODE","type":"esriFieldTypeInteger","alias":"DIS_CODE"},{"name":"TOWNNAME","type":"esriFieldTypeString","alias":"TOWNNAME","length":8},{"name":"LI","type":"esriFieldTypeString","alias":"LI","length":8},{"name":"LIN","type":"esriFieldTypeString","alias":"LIN","length":12},{"name":"STREET","type":"esriFieldTypeString","alias":"STREET","length":20},{"name":"SECT","type":"esriFieldTypeString","alias":"SECT","length":8},{"name":"MAREA","type":"esriFieldTypeString","alias":"MAREA","length":12},{"name":"LANE","type":"esriFieldTypeString","alias":"LANE","length":10},{"name":"ALLEY","type":"esriFieldTypeString","alias":"ALLEY","length":10},{"name":"HOUSE_NO","type":"esriFieldTypeString","alias":"HOUSE_NO","length":20},{"name":"E_COORD97","type":"esriFieldTypeDouble","alias":"E_COORD97"},{"name":"N_COORD97","type":"esriFieldTypeDouble","alias":"N_COORD97"},{"name":"ADDRESS","type":"esriFieldTypeString","alias":"ADDRESS","length":50},{"name":"OBJECTID","type":"esriFieldTypeOID","alias":"OBJECTID"}],"features":[{"attributes":{"ID":10201,"DIS_CODE":0,"TOWNNAME":"將軍區","LI":"忠興里","LIN":"13鄰","STREET":" ","SECT":" ","MAREA":"忠興","LANE":" ","ALLEY":" ","HOUSE_NO":"１３１之１號","E_COORD97":163832.66,"N_COORD97":2567042.71,"ADDRESS":"忠興１３１之１號","OBJECTID":10201},"geometry":{"x":163832.66000000108,"y":2567042.7100000028}},{"attributes":{"ID":10202,"DIS_CODE":0,"TOWNNAME":"南區","LI":"同安里","LIN":"13鄰","STREET":"明興路","SECT":" ","MAREA":" ","LANE":"１２８５巷","ALLEY":"３０弄","HOUSE_NO":"３５號","E_COORD97":166455.17000000001,"N_COORD97":2535926.52,"ADDRESS":"明興路１２８５巷３０弄３５號","OBJECTID":10202},"geometry":{"x":166455.16999999993,"y":2535926.5199999996}},{"attributes":{"ID":10203,"DIS_CODE":0,"TOWNNAME":"將軍區","LI":"忠興里","LIN":"13鄰","STREET":" ","SECT":" ","MAREA":"忠興","LANE":" ","ALLEY":" ","HOUSE_NO":"１３１之２號","E_COORD97":163828.17999999999,"N_COORD97":2567033.0499999998,"ADDRESS":"忠興１３１之２號","OBJECTID":10203},"geometry":{"x":163828.18000000063,"y":2567033.0500000026}},{"attributes":{"ID":10204,"DIS_CODE":0,"TOWNNAME":"將軍區","LI":"忠興里","LIN":"13鄰","STREET":" ","SECT":" ","MAREA":"忠興","LANE":" ","ALLEY":" ","HOUSE_NO":"１３１之３號","E_COORD97":163833.17999999999,"N_COORD97":2567047.5800000001,"ADDRESS":"忠興１３１之３號","OBJECTID":10204},"geometry":{"x":163833.18000000156,"y":2567047.5799999982}},{"attributes":{"ID":10205,"DIS_CODE":0,"TOWNNAME":"南區","LI":"同安里","LIN":"13鄰","STREET":"明興路","SECT":" ","MAREA":" ","LANE":"１２８５巷","ALLEY":"３０弄","HOUSE_NO":"３號","E_COORD97":166467.45999999999,"N_COORD97":2535961.2999999998,"ADDRESS":"明興路１２８５巷３０弄３號","OBJECTID":10205},"geometry":{"x":166467.46000000183,"y":2535961.3000000026}},{"attributes":{"ID":10206,"DIS_CODE":0,"TOWNNAME":"南區","LI":"同安里","LIN":"13鄰","STREET":"明興路","SECT":" ","MAREA":" ","LANE":"１２８５巷","ALLEY":"３０弄","HOUSE_NO":"４３號","E_COORD97":166469.10000000001,"N_COORD97":2535912.6099999999,"ADDRESS":"明興路１２８５巷３０弄４３號","OBJECTID":10206},"geometry":{"x":166469.09999999963,"y":2535912.6099999994}},{"attributes":{"ID":10207,"DIS_CODE":0,"TOWNNAME":"南區","LI":"同安里","LIN":"13鄰","STREET":"明興路","SECT":" ","MAREA":" ","LANE":"１２８５巷","ALLEY":"３０弄","HOUSE_NO":"４６號","E_COORD97":166441.07999999999,"N_COORD97":2535941.0699999998,"ADDRESS":"明興路１２８５巷３０弄４６號","OBJECTID":10207},"geometry":{"x":166441.08000000007,"y":2535941.0700000003}},{"attributes":{"ID":10208,"DIS_CODE":0,"TOWNNAME":"南區","LI":"同安里","LIN":"13鄰","STREET":"明興路","SECT":" ","MAREA":" ","LANE":"１２８５巷","ALLEY":"３０弄","HOUSE_NO":"４７號","E_COORD97":166479.14000000001,"N_COORD97":2535905,"ADDRESS":"明興路１２８５巷３０弄４７號","OBJECTID":10208},"geometry":{"x":166479.13999999966,"y":2535905.0000000019}},{"attributes":{"ID":10209,"DIS_CODE":0,"TOWNNAME":"南區","LI":"同安里","LIN":"13鄰","STREET":"明興路","SECT":" ","MAREA":" ","LANE":"１２８５巷","ALLEY":"３０弄","HOUSE_NO":"４號","E_COORD97":166449.19,"N_COORD97":2535982.8599999999,"ADDRESS":"明興路１２８５巷３０弄４號","OBJECTID":10209},"geometry":{"x":166449.19000000041,"y":2535982.8600000031}},{"attributes":{"ID":10210,"DIS_CODE":0,"TOWNNAME":"南區","LI":"大恩里","LIN":" ","STREET":"大同路","SECT":"二段","MAREA":" ","LANE":" ","ALLEY":" ","HOUSE_NO":"６７４號","E_COORD97":169568.95999999999,"N_COORD97":2540959.02,"ADDRESS":"大同路二段６７４號","OBJECTID":10210},"geometry":{"x":169568.95999999996,"y":2540959.0200000014}},{"attributes":{"ID":10211,"DIS_CODE":0,"TOWNNAME":"東山區","LI":"青山里","LIN":"16鄰","STREET":" ","SECT":" ","MAREA":"青山","LANE":" ","ALLEY":" ","HOUSE_NO":"４０號","E_COORD97":195685.98000000001,"N_COORD97":2575311.9399999999,"ADDRESS":"青山４０號","OBJECTID":10211},"geometry":{"x":195685.98000000045,"y":2575311.9400000013}},{"attributes":{"ID":10212,"DIS_CODE":0,"TOWNNAME":"將軍區","LI":"嘉昌里","LIN":"13鄰","STREET":" ","SECT":" ","MAREA":"昌平","LANE":" ","ALLEY":" ","HOUSE_NO":"５之１３號","E_COORD97":163203.56,"N_COORD97":2567321.4199999999,"ADDRESS":"昌平５之１３號","OBJECTID":10212},"geometry":{"x":163203.56000000052,"y":2567321.4200000018}},{"attributes":{"ID":10213,"DIS_CODE":0,"TOWNNAME":"將軍區","LI":"嘉昌里","LIN":"13鄰","STREET":" ","SECT":" ","MAREA":"昌平","LANE":" ","ALLEY":" ","HOUSE_NO":"５之１４號","E_COORD97":163202.29000000001,"N_COORD97":2567325.7999999998,"ADDRESS":"昌平５之１４號","OBJECTID":10213},"geometry":{"x":163202.29000000097,"y":2567325.8000000026}},{"attributes":{"ID":10214,"DIS_CODE":0,"TOWNNAME":"將軍區","LI":"嘉昌里","LIN":"13鄰","STREET":" ","SECT":" ","MAREA":"昌平","LANE":" ","ALLEY":" ","HOUSE_NO":"５之１５號","E_COORD97":163199.88,"N_COORD97":2567329.52,"ADDRESS":"昌平５之１５號","OBJECTID":10214},"geometry":{"x":163199.88000000082,"y":2567329.5200000014}},{"attributes":{"ID":10215,"DIS_CODE":0,"TOWNNAME":"將軍區","LI":"嘉昌里","LIN":"13鄰","STREET":" ","SECT":" ","MAREA":"昌平","LANE":" ","ALLEY":" ","HOUSE_NO":"５之１６號","E_COORD97":163197.47,"N_COORD97":2567333.71,"ADDRESS":"昌平５之１６號","OBJECTID":10215},"geometry":{"x":163197.47000000067,"y":2567333.7100000028}},{"attributes":{"ID":10216,"DIS_CODE":0,"TOWNNAME":"將軍區","LI":"嘉昌里","LIN":"13鄰","STREET":" ","SECT":" ","MAREA":"昌平","LANE":" ","ALLEY":" ","HOUSE_NO":"５之１７號","E_COORD97":163194.34,"N_COORD97":2567337.8799999999,"ADDRESS":"昌平５之１７號","OBJECTID":10216},"geometry":{"x":163194.33999999985,"y":2567337.8800000008}},{"attributes":{"ID":10217,"DIS_CODE":0,"TOWNNAME":"將軍區","LI":"嘉昌里","LIN":"13鄰","STREET":" ","SECT":" ","MAREA":"昌平","LANE":" ","ALLEY":" ","HOUSE_NO":"５之１８號","E_COORD97":163192.32000000001,"N_COORD97":2567341.6899999999,"ADDRESS":"昌平５之１８號","OBJECTID":10217},"geometry":{"x":163192.32000000123,"y":2567341.6900000032}},{"attributes":{"ID":10218,"DIS_CODE":0,"TOWNNAME":"將軍區","LI":"嘉昌里","LIN":"13鄰","STREET":" ","SECT":" ","MAREA":"昌平","LANE":" ","ALLEY":" ","HOUSE_NO":"５之１９號","E_COORD97":163189.47,"N_COORD97":2567345.7200000002,"ADDRESS":"昌平５之１９號","OBJECTID":10218},"geometry":{"x":163189.47000000067,"y":2567345.7199999988}},{"attributes":{"ID":10219,"DIS_CODE":0,"TOWNNAME":"將軍區","LI":"嘉昌里","LIN":"13鄰","STREET":" ","SECT":" ","MAREA":"昌平","LANE":" ","ALLEY":" ","HOUSE_NO":"５之１號","E_COORD97":163250,"N_COORD97":2567306.0699999998,"ADDRESS":"昌平５之１號","OBJECTID":10219},"geometry":{"x":163250.00000000093,"y":2567306.070000004}},{"attributes":{"ID":10220,"DIS_CODE":0,"TOWNNAME":"將軍區","LI":"嘉昌里","LIN":"13鄰","STREET":" ","SECT":" ","MAREA":"昌平","LANE":" ","ALLEY":" ","HOUSE_NO":"５之２０號","E_COORD97":163187.10000000001,"N_COORD97":2567349.6800000002,"ADDRESS":"昌平５之２０號","OBJECTID":10220},"geometry":{"x":163187.09999999963,"y":2567349.6800000016}},{"attributes":{"ID":10221,"DIS_CODE":0,"TOWNNAME":"將軍區","LI":"嘉昌里","LIN":"13鄰","STREET":" ","SECT":" ","MAREA":"昌平","LANE":" ","ALLEY":" ","HOUSE_NO":"５之２１號","E_COORD97":163184.35000000001,"N_COORD97":2567353.6200000001,"ADDRESS":"昌平５之２１號","OBJECTID":10221},"geometry":{"x":163184.35000000149,"y":2567353.6200000048}},{"attributes":{"ID":10222,"DIS_CODE":0,"TOWNNAME":"將軍區","LI":"嘉昌里","LIN":"13鄰","STREET":" ","SECT":" ","MAREA":"昌平","LANE":" ","ALLEY":" ","HOUSE_NO":"５之２號","E_COORD97":163245.14000000001,"N_COORD97":2567306.4900000002,"ADDRESS":"昌平５之２號","OBJECTID":10222},"geometry":{"x":163245.14000000153,"y":2567306.4900000039}},{"attributes":{"ID":10223,"DIS_CODE":0,"TOWNNAME":"將軍區","LI":"嘉昌里","LIN":"13鄰","STREET":" ","SECT":" ","MAREA":"昌平","LANE":" ","ALLEY":" ","HOUSE_NO":"５之３１號","E_COORD97":163210.94,"N_COORD97":2567366.1499999999,"ADDRESS":"昌平５之３１號","OBJECTID":10223},"geometry":{"x":163210.94000000041,"y":2567366.1499999985}},{"attributes":{"ID":10224,"DIS_CODE":0,"TOWNNAME":"將軍區","LI":"嘉昌里","LIN":"13鄰","STREET":" ","SECT":" ","MAREA":"昌平","LANE":" ","ALLEY":" ","HOUSE_NO":"５之３２號","E_COORD97":163216.89999999999,"N_COORD97":2567365.6000000001,"ADDRESS":"昌平５之３２號","OBJECTID":10224},"geometry":{"x":163216.90000000224,"y":2567365.5999999996}},{"attributes":{"ID":10225,"DIS_CODE":0,"TOWNNAME":"將軍區","LI":"嘉昌里","LIN":"13鄰","STREET":" ","SECT":" ","MAREA":"昌平","LANE":" ","ALLEY":" ","HOUSE_NO":"５之３３號","E_COORD97":163222.73000000001,"N_COORD97":2567364.9700000002,"ADDRESS":"昌平５之３３號","OBJECTID":10225},"geometry":{"x":163222.73000000045,"y":2567364.9700000025}},{"attributes":{"ID":10226,"DIS_CODE":0,"TOWNNAME":"將軍區","LI":"嘉昌里","LIN":"13鄰","STREET":" ","SECT":" ","MAREA":"昌平","LANE":" ","ALLEY":" ","HOUSE_NO":"５之３４號","E_COORD97":163230.64999999999,"N_COORD97":2567365.6400000001,"ADDRESS":"昌平５之３４號","OBJECTID":10226},"geometry":{"x":163230.65000000224,"y":2567365.6400000006}},{"attributes":{"ID":10227,"DIS_CODE":0,"TOWNNAME":"將軍區","LI":"嘉昌里","LIN":"13鄰","STREET":" ","SECT":" ","MAREA":"昌平","LANE":" ","ALLEY":" ","HOUSE_NO":"５之３５號","E_COORD97":163223.76000000001,"N_COORD97":2567357.6200000001,"ADDRESS":"昌平５之３５號","OBJECTID":10227},"geometry":{"x":163223.75999999978,"y":2567357.6200000029}},{"attributes":{"ID":10228,"DIS_CODE":0,"TOWNNAME":"將軍區","LI":"長沙里","LIN":"13鄰","STREET":" ","SECT":" ","MAREA":"長沙","LANE":" ","ALLEY":" ","HOUSE_NO":"１１１號","E_COORD97":157166.45999999999,"N_COORD97":2568670.9500000002,"ADDRESS":"長沙１１１號","OBJECTID":10228},"geometry":{"x":157166.46000000089,"y":2568670.9499999993}},{"attributes":{"ID":10229,"DIS_CODE":0,"TOWNNAME":"大內區","LI":"石城里","LIN":"13鄰","STREET":" ","SECT":" ","MAREA":"石子瀨","LANE":" ","ALLEY":" ","HOUSE_NO":"１１４號之２０","E_COORD97":183914.20000000001,"N_COORD97":2557896.2999999998,"ADDRESS":"石子瀨１１４號之２０","OBJECTID":10229},"geometry":{"x":183914.20000000019,"y":2557896.3000000045}},{"attributes":{"ID":10230,"DIS_CODE":0,"TOWNNAME":"大內區","LI":"石城里","LIN":"13鄰","STREET":" ","SECT":" ","MAREA":"石子瀨","LANE":" ","ALLEY":" ","HOUSE_NO":"１１４號之１７","E_COORD97":183923.32999999999,"N_COORD97":2557941.2999999998,"ADDRESS":"石子瀨１１４號之１７","OBJECTID":10230},"geometry":{"x":183923.33000000007,"y":2557941.3000000026}},{"attributes":{"ID":10231,"DIS_CODE":0,"TOWNNAME":"大內區","LI":"石城里","LIN":"13鄰","STREET":" ","SECT":" ","MAREA":"石子瀨","LANE":" ","ALLEY":" ","HOUSE_NO":"１１４號之１３","E_COORD97":183940.54999999999,"N_COORD97":2557916.2999999998,"ADDRESS":"石子瀨１１４號之１３","OBJECTID":10231},"geometry":{"x":183940.54999999981,"y":2557916.3000000007}},{"attributes":{"ID":10232,"DIS_CODE":0,"TOWNNAME":"大內區","LI":"石城里","LIN":"13鄰","STREET":" ","SECT":" ","MAREA":"石子瀨","LANE":" ","ALLEY":" ","HOUSE_NO":"１１４號之３４","E_COORD97":183983.67999999999,"N_COORD97":2557937.2999999998,"ADDRESS":"石子瀨１１４號之３４","OBJECTID":10232},"geometry":{"x":183983.67999999877,"y":2557937.3000000045}},{"attributes":{"ID":10233,"DIS_CODE":0,"TOWNNAME":"大內區","LI":"石城里","LIN":"13鄰","STREET":" ","SECT":" ","MAREA":"石子瀨","LANE":" ","ALLEY":" ","HOUSE_NO":"１１９號","E_COORD97":183956.26930399999,"N_COORD97":2558037.48006,"ADDRESS":"石子瀨１１９號","OBJECTID":10233},"geometry":{"x":183956.26930400077,"y":2558037.4800560009}},{"attributes":{"ID":10234,"DIS_CODE":0,"TOWNNAME":"大內區","LI":"石湖里","LIN":"13鄰","STREET":" ","SECT":" ","MAREA":"新厝子","LANE":" ","ALLEY":" ","HOUSE_NO":"１０號之３","E_COORD97":184683.95000000001,"N_COORD97":2561089.2999999998,"ADDRESS":"新厝子１０號之３","OBJECTID":10234},"geometry":{"x":184683.95000000019,"y":2561089.3000000007}},{"attributes":{"ID":10235,"DIS_CODE":0,"TOWNNAME":"南區","LI":"同安里","LIN":"13鄰","STREET":"明興路","SECT":" ","MAREA":" ","LANE":"１２８５巷","ALLEY":"３０弄","HOUSE_NO":"５號","E_COORD97":166471.44,"N_COORD97":2535957.8399999999,"ADDRESS":"明興路１２８５巷３０弄５號","OBJECTID":10235},"geometry":{"x":166471.44000000227,"y":2535957.8399999999}},{"attributes":{"ID":10236,"DIS_CODE":0,"TOWNNAME":"南區","LI":"同安里","LIN":"13鄰","STREET":"明興路","SECT":" ","MAREA":" ","LANE":"１２８５巷","ALLEY":"３０弄","HOUSE_NO":"６號","E_COORD97":166449.19,"N_COORD97":2535977.9300000002,"ADDRESS":"明興路１２８５巷３０弄６號","OBJECTID":10236},"geometry":{"x":166449.19000000041,"y":2535977.9299999997}},{"attributes":{"ID":10237,"DIS_CODE":0,"TOWNNAME":"南區","LI":"同安里","LIN":"13鄰","STREET":"明興路","SECT":" ","MAREA":" ","LANE":"１２８５巷","ALLEY":"３０弄","HOUSE_NO":"７號","E_COORD97":166476.37,"N_COORD97":2535960.4399999999,"ADDRESS":"明興路１２８５巷３０弄７號","OBJECTID":10237},"geometry":{"x":166476.37000000011,"y":2535960.4399999995}},{"attributes":{"ID":10238,"DIS_CODE":0,"TOWNNAME":"北區","LI":"大港里","LIN":"13鄰","STREET":"大興街","SECT":" ","MAREA":" ","LANE":"２８０巷","ALLEY":"３５弄","HOUSE_NO":"１０號","E_COORD97":166563.13,"N_COORD97":2545771.6000000001,"ADDRESS":"大興街２８０巷３５弄１０號","OBJECTID":10238},"geometry":{"x":166563.13000000082,"y":2545771.5999999996}},{"attributes":{"ID":10239,"DIS_CODE":0,"TOWNNAME":"北區","LI":"大港里","LIN":"13鄰","STREET":"大興街","SECT":" ","MAREA":" ","LANE":"２８０巷","ALLEY":"３５弄","HOUSE_NO":"１２號","E_COORD97":166559.31,"N_COORD97":2545771.2999999998,"ADDRESS":"大興街２８０巷３５弄１２號","OBJECTID":10239},"geometry":{"x":166559.30999999959,"y":2545771.3000000007}},{"attributes":{"ID":10240,"DIS_CODE":0,"TOWNNAME":"北區","LI":"大港里","LIN":"13鄰","STREET":"大興街","SECT":" ","MAREA":" ","LANE":"２８０巷","ALLEY":"３５弄","HOUSE_NO":"２號","E_COORD97":166583.76000000001,"N_COORD97":2545775.5699999998,"ADDRESS":"大興街２８０巷３５弄２號","OBJECTID":10240},"geometry":{"x":166583.75999999978,"y":2545775.5700000003}},{"attributes":{"ID":10241,"DIS_CODE":0,"TOWNNAME":"北區","LI":"大港里","LIN":"13鄰","STREET":"大興街","SECT":" ","MAREA":" ","LANE":"２８０巷","ALLEY":"３５弄","HOUSE_NO":"４號","E_COORD97":166579.01999999999,"N_COORD97":2545773.8900000001,"ADDRESS":"大興街２８０巷３５弄４號","OBJECTID":10241},"geometry":{"x":166579.02000000048,"y":2545773.8900000006}},{"attributes":{"ID":10242,"DIS_CODE":0,"TOWNNAME":"北區","LI":"大港里","LIN":"13鄰","STREET":"大興街","SECT":" ","MAREA":" ","LANE":"２８０巷","ALLEY":"３５弄","HOUSE_NO":"６號","E_COORD97":166575.51000000001,"N_COORD97":2545772.98,"ADDRESS":"大興街２８０巷３５弄６號","OBJECTID":10242},"geometry":{"x":166575.51000000164,"y":2545772.9800000004}},{"attributes":{"ID":10243,"DIS_CODE":0,"TOWNNAME":"北區","LI":"大港里","LIN":"13鄰","STREET":"大興街","SECT":" ","MAREA":" ","LANE":"３００巷","ALLEY":"３１弄","HOUSE_NO":"２號","E_COORD97":166504.07999999999,"N_COORD97":2545769.5099999998,"ADDRESS":"大興街３００巷３１弄２號","OBJECTID":10243},"geometry":{"x":166504.08000000194,"y":2545769.5099999998}},{"attributes":{"ID":10244,"DIS_CODE":0,"TOWNNAME":"北區","LI":"大港里","LIN":"13鄰","STREET":"大興街","SECT":" ","MAREA":" ","LANE":"３００巷","ALLEY":"３１弄","HOUSE_NO":"４號","E_COORD97":166499.34,"N_COORD97":2545768.8999999999,"ADDRESS":"大興街３００巷３１弄４號","OBJECTID":10244},"geometry":{"x":166499.34000000078,"y":2545768.9000000022}},{"attributes":{"ID":10245,"DIS_CODE":0,"TOWNNAME":"北區","LI":"大港里","LIN":"13鄰","STREET":"大興街","SECT":" ","MAREA":" ","LANE":"３００巷","ALLEY":"３１弄","HOUSE_NO":"６號","E_COORD97":166494.45000000001,"N_COORD97":2545768.6000000001,"ADDRESS":"大興街３００巷３１弄６號","OBJECTID":10245},"geometry":{"x":166494.45000000019,"y":2545768.5999999996}},{"attributes":{"ID":10246,"DIS_CODE":0,"TOWNNAME":"北區","LI":"大港里","LIN":"13鄰","STREET":"大興街","SECT":" ","MAREA":" ","LANE":"３００巷","ALLEY":"３１弄","HOUSE_NO":"８號","E_COORD97":166490.01999999999,"N_COORD97":2545768.6000000001,"ADDRESS":"大興街３００巷３１弄８號","OBJECTID":10246},"geometry":{"x":166490.01999999955,"y":2545768.5999999996}},{"attributes":{"ID":10247,"DIS_CODE":0,"TOWNNAME":"南區","LI":"新生里","LIN":"18鄰","STREET":"大同路","SECT":"二段","MAREA":" ","LANE":"１００巷","ALLEY":"２１弄","HOUSE_NO":"２號","E_COORD97":169187.54999999999,"N_COORD97":2542320.2799999998,"ADDRESS":"大同路二段１００巷２１弄２號","OBJECTID":10247},"geometry":{"x":169187.55000000168,"y":2542320.2800000012}},{"attributes":{"ID":10248,"DIS_CODE":0,"TOWNNAME":"東區","LI":"崇明里","LIN":"13鄰","STREET":"大同路","SECT":"二段","MAREA":" ","LANE":" ","ALLEY":" ","HOUSE_NO":"６８５號","E_COORD97":169666.62,"N_COORD97":2540843.54,"ADDRESS":"大同路二段６８５號","OBJECTID":10248},"geometry":{"x":169666.62000000011,"y":2540843.540000001}},{"attributes":{"ID":10249,"DIS_CODE":0,"TOWNNAME":"東區","LI":"崇明里","LIN":"13鄰","STREET":"大同路","SECT":"二段","MAREA":" ","LANE":" ","ALLEY":" ","HOUSE_NO":"６８７號","E_COORD97":169669.57999999999,"N_COORD97":2540821.7799999998,"ADDRESS":"大同路二段６８７號","OBJECTID":10249},"geometry":{"x":169669.58000000101,"y":2540821.7800000012}},{"attributes":{"ID":10250,"DIS_CODE":0,"TOWNNAME":"東區","LI":"崇明里","LIN":"13鄰","STREET":"大同路","SECT":"二段","MAREA":" ","LANE":" ","ALLEY":" ","HOUSE_NO":"６８９號","E_COORD97":169662.28,"N_COORD97":2540819.5600000001,"ADDRESS":"大同路二段６８９號","OBJECTID":10250},"geometry":{"x":169662.28000000026,"y":2540819.5600000005}},{"attributes":{"ID":10251,"DIS_CODE":0,"TOWNNAME":"大內區","LI":"石城里","LIN":"13鄰","STREET":" ","SECT":" ","MAREA":"石子瀨","LANE":" ","ALLEY":" ","HOUSE_NO":"１１４號之３７","E_COORD97":183963.82999999999,"N_COORD97":2557938.2999999998,"ADDRESS":"石子瀨１１４號之３７","OBJECTID":10251},"geometry":{"x":183963.83000000007,"y":2557938.3000000026}},{"attributes":{"ID":10252,"DIS_CODE":0,"TOWNNAME":"大內區","LI":"石城里","LIN":"13鄰","STREET":" ","SECT":" ","MAREA":"石子瀨","LANE":" ","ALLEY":" ","HOUSE_NO":"１１４號之２５","E_COORD97":183903.10999999999,"N_COORD97":2557913.2999999998,"ADDRESS":"石子瀨１１４號之２５","OBJECTID":10252},"geometry":{"x":183903.11000000034,"y":2557913.3000000045}},{"attributes":{"ID":10253,"DIS_CODE":0,"TOWNNAME":"大內區","LI":"石城里","LIN":"13鄰","STREET":" ","SECT":" ","MAREA":"石子瀨","LANE":" ","ALLEY":" ","HOUSE_NO":"１１４號之１６","E_COORD97":183932.26000000001,"N_COORD97":2557927.2999999998,"ADDRESS":"石子瀨１１４號之１６","OBJECTID":10253},"geometry":{"x":183932.25999999978,"y":2557927.3000000026}},{"attributes":{"ID":10254,"DIS_CODE":0,"TOWNNAME":"大內區","LI":"石湖里","LIN":"13鄰","STREET":" ","SECT":" ","MAREA":"新厝子","LANE":" ","ALLEY":" ","HOUSE_NO":"８號","E_COORD97":184882.37,"N_COORD97":2561100.25,"ADDRESS":"新厝子８號","OBJECTID":10254},"geometry":{"x":184882.37000000011,"y":2561100.2500000019}},{"attributes":{"ID":10255,"DIS_CODE":0,"TOWNNAME":"大內區","LI":"石城里","LIN":"13鄰","STREET":" ","SECT":" ","MAREA":"石子瀨","LANE":" ","ALLEY":" ","HOUSE_NO":"１１４號之３８","E_COORD97":183961.10000000001,"N_COORD97":2557941.2999999998,"ADDRESS":"石子瀨１１４號之３８","OBJECTID":10255},"geometry":{"x":183961.10000000056,"y":2557941.3000000026}},{"attributes":{"ID":10256,"DIS_CODE":0,"TOWNNAME":"大內區","LI":"大內里","LIN":"13鄰","STREET":" ","SECT":" ","MAREA":"內庄","LANE":" ","ALLEY":" ","HOUSE_NO":"１４４號","E_COORD97":184789.17999999999,"N_COORD97":2557435.2400000002,"ADDRESS":"內庄１４４號","OBJECTID":10256},"geometry":{"x":184789.18000000063,"y":2557435.2400000039}},{"attributes":{"ID":10257,"DIS_CODE":0,"TOWNNAME":"大內區","LI":"二溪里","LIN":"13鄰","STREET":" ","SECT":" ","MAREA":"其子瓦","LANE":" ","ALLEY":" ","HOUSE_NO":"２９號","E_COORD97":190537.01999999999,"N_COORD97":2557924.25,"ADDRESS":"其子瓦２９號","OBJECTID":10257},"geometry":{"x":190537.02000000048,"y":2557924.2500000019}},{"attributes":{"ID":10258,"DIS_CODE":0,"TOWNNAME":"大內區","LI":"內江里","LIN":"13鄰","STREET":" ","SECT":" ","MAREA":"蒙正","LANE":" ","ALLEY":" ","HOUSE_NO":"１９號","E_COORD97":185769.04000000001,"N_COORD97":2556279.25,"ADDRESS":"蒙正１９號","OBJECTID":10258},"geometry":{"x":185769.04000000097,"y":2556279.2500000019}},{"attributes":{"ID":10259,"DIS_CODE":0,"TOWNNAME":"東區","LI":"崇明里","LIN":"13鄰","STREET":"大同路","SECT":"二段","MAREA":" ","LANE":" ","ALLEY":" ","HOUSE_NO":"６９１號","E_COORD97":169654.54999999999,"N_COORD97":2540818.71,"ADDRESS":"大同路二段６９１號","OBJECTID":10259},"geometry":{"x":169654.54999999981,"y":2540818.7100000009}},{"attributes":{"ID":10260,"DIS_CODE":0,"TOWNNAME":"南區","LI":"新生里","LIN":"18鄰","STREET":"大同路","SECT":"二段","MAREA":" ","LANE":"１００巷","ALLEY":"２１弄","HOUSE_NO":"２之１號","E_COORD97":169179.84,"N_COORD97":2542317.3900000001,"ADDRESS":"大同路二段１００巷２１弄２之１號","OBJECTID":10260},"geometry":{"x":169179.83999999985,"y":2542317.3900000025}},{"attributes":{"ID":10261,"DIS_CODE":0,"TOWNNAME":"南區","LI":"新生里","LIN":"18鄰","STREET":"大同路","SECT":"二段","MAREA":" ","LANE":"１００巷","ALLEY":"２１弄","HOUSE_NO":"６號","E_COORD97":169189.79000000001,"N_COORD97":2542314.8700000001,"ADDRESS":"大同路二段１００巷２１弄６號","OBJECTID":10261},"geometry":{"x":169189.79000000097,"y":2542314.8700000029}},{"attributes":{"ID":10262,"DIS_CODE":0,"TOWNNAME":"南區","LI":"新生里","LIN":"18鄰","STREET":"大同路","SECT":"二段","MAREA":" ","LANE":"１００巷","ALLEY":"２１弄","HOUSE_NO":"８號","E_COORD97":169191.89000000001,"N_COORD97":2542310.6699999999,"ADDRESS":"大同路二段１００巷２１弄８號","OBJECTID":10262},"geometry":{"x":169191.89000000153,"y":2542310.6699999981}},{"attributes":{"ID":10263,"DIS_CODE":0,"TOWNNAME":"南區","LI":"新生里","LIN":"18鄰","STREET":"大同路","SECT":"二段","MAREA":" ","LANE":"１００巷","ALLEY":"２１弄","HOUSE_NO":"１０號","E_COORD97":169193.87,"N_COORD97":2542304.3700000001,"ADDRESS":"大同路二段１００巷２１弄１０號","OBJECTID":10263},"geometry":{"x":169193.87000000011,"y":2542304.3700000029}},{"attributes":{"ID":10264,"DIS_CODE":0,"TOWNNAME":"北區","LI":"大港里","LIN":"13鄰","STREET":"大興街","SECT":" ","MAREA":" ","LANE":"３００巷","ALLEY":"３４弄","HOUSE_NO":"１１號","E_COORD97":166537.70000000001,"N_COORD97":2545769.6600000001,"ADDRESS":"大興街３００巷３４弄１１號","OBJECTID":10264},"geometry":{"x":166537.70000000112,"y":2545769.660000002}},{"attributes":{"ID":10265,"DIS_CODE":0,"TOWNNAME":"北區","LI":"大港里","LIN":"13鄰","STREET":"大興街","SECT":" ","MAREA":" ","LANE":"３００巷","ALLEY":"３４弄","HOUSE_NO":"１號","E_COORD97":166516.14999999999,"N_COORD97":2545769.3599999999,"ADDRESS":"大興街３００巷３４弄１號","OBJECTID":10265},"geometry":{"x":166516.1500000013,"y":2545769.3599999994}},{"attributes":{"ID":10266,"DIS_CODE":0,"TOWNNAME":"北區","LI":"大港里","LIN":"13鄰","STREET":"大興街","SECT":" ","MAREA":" ","LANE":"３００巷","ALLEY":"３４弄","HOUSE_NO":"３號","E_COORD97":166520.28,"N_COORD97":2545769.3599999999,"ADDRESS":"大興街３００巷３４弄３號","OBJECTID":10266},"geometry":{"x":166520.28000000119,"y":2545769.3599999994}},{"attributes":{"ID":10267,"DIS_CODE":0,"TOWNNAME":"北區","LI":"大港里","LIN":"13鄰","STREET":"大興街","SECT":" ","MAREA":" ","LANE":"３００巷","ALLEY":"３４弄","HOUSE_NO":"５號","E_COORD97":166524.25,"N_COORD97":2545769.3599999999,"ADDRESS":"大興街３００巷３４弄５號","OBJECTID":10267},"geometry":{"x":166524.25,"y":2545769.3599999994}},{"attributes":{"ID":10268,"DIS_CODE":0,"TOWNNAME":"北區","LI":"大港里","LIN":"13鄰","STREET":"大興街","SECT":" ","MAREA":" ","LANE":"３００巷","ALLEY":"３４弄","HOUSE_NO":"７號","E_COORD97":166528.37,"N_COORD97":2545769.8199999998,"ADDRESS":"大興街３００巷３４弄７號","OBJECTID":10268},"geometry":{"x":166528.37000000104,"y":2545769.8200000022}},{"attributes":{"ID":10269,"DIS_CODE":0,"TOWNNAME":"北區","LI":"大港里","LIN":"13鄰","STREET":"大興街","SECT":" ","MAREA":" ","LANE":"３００巷","ALLEY":"３４弄","HOUSE_NO":"９號","E_COORD97":166532.95999999999,"N_COORD97":2545769.6600000001,"ADDRESS":"大興街３００巷３４弄９號","OBJECTID":10269},"geometry":{"x":166532.95999999996,"y":2545769.660000002}},{"attributes":{"ID":10270,"DIS_CODE":0,"TOWNNAME":"北區","LI":"大港里","LIN":"13鄰","STREET":"大興街","SECT":" ","MAREA":" ","LANE":"３００巷","ALLEY":"３６弄","HOUSE_NO":"１號","E_COORD97":166531.79999999999,"N_COORD97":2545791.8100000001,"ADDRESS":"大興街３００巷３６弄１號","OBJECTID":10270},"geometry":{"x":166531.80000000075,"y":2545791.8100000005}},{"attributes":{"ID":10271,"DIS_CODE":0,"TOWNNAME":"北區","LI":"大港里","LIN":"13鄰","STREET":"大興街","SECT":" ","MAREA":" ","LANE":"３００巷","ALLEY":"３６弄","HOUSE_NO":"３號","E_COORD97":166536.54000000001,"N_COORD97":2545792.4199999999,"ADDRESS":"大興街３００巷３６弄３號","OBJECTID":10271},"geometry":{"x":166536.5400000019,"y":2545792.4200000018}},{"attributes":{"ID":10272,"DIS_CODE":0,"TOWNNAME":"北區","LI":"大港里","LIN":"13鄰","STREET":"大興街","SECT":" ","MAREA":" ","LANE":"３００巷","ALLEY":"３６弄","HOUSE_NO":"５號","E_COORD97":166540.20000000001,"N_COORD97":2545792.7200000002,"ADDRESS":"大興街３００巷３６弄５號","OBJECTID":10272},"geometry":{"x":166540.20000000019,"y":2545792.7200000007}},{"attributes":{"ID":10273,"DIS_CODE":0,"TOWNNAME":"北區","LI":"大港里","LIN":"13鄰","STREET":"大興街","SECT":" ","MAREA":" ","LANE":"３００巷","ALLEY":"３６弄","HOUSE_NO":"６號","E_COORD97":166544.72,"N_COORD97":2545774.5499999998,"ADDRESS":"大興街３００巷３６弄６號","OBJECTID":10273},"geometry":{"x":166544.71999999974,"y":2545774.5500000026}},{"attributes":{"ID":10274,"DIS_CODE":0,"TOWNNAME":"南區","LI":"新生里","LIN":"17鄰","STREET":"大同路","SECT":"二段","MAREA":" ","LANE":"１００巷","ALLEY":"２１弄","HOUSE_NO":"１２號","E_COORD97":169198.44,"N_COORD97":2542292.6299999999,"ADDRESS":"大同路二段１００巷２１弄１２號","OBJECTID":10274},"geometry":{"x":169198.44000000041,"y":2542292.629999999}},{"attributes":{"ID":10275,"DIS_CODE":0,"TOWNNAME":"白河區","LI":"玉豐里","LIN":"13鄰","STREET":" ","SECT":" ","MAREA":"海豐厝","LANE":" ","ALLEY":" ","HOUSE_NO":"１３２之１號","E_COORD97":190304.72,"N_COORD97":2586094.4100000001,"ADDRESS":"海豐厝１３２之１號","OBJECTID":10275},"geometry":{"x":190304.71999999974,"y":2586094.410000002}},{"attributes":{"ID":10276,"DIS_CODE":0,"TOWNNAME":"白河區","LI":"玉豐里","LIN":"13鄰","STREET":" ","SECT":" ","MAREA":"海豐厝","LANE":" ","ALLEY":" ","HOUSE_NO":"１３２之２號","E_COORD97":190310.45000000001,"N_COORD97":2586088.46,"ADDRESS":"海豐厝１３２之２號","OBJECTID":10276},"geometry":{"x":190310.45000000019,"y":2586088.4600000009}},{"attributes":{"ID":10277,"DIS_CODE":0,"TOWNNAME":"白河區","LI":"玉豐里","LIN":"13鄰","STREET":" ","SECT":" ","MAREA":"海豐厝","LANE":" ","ALLEY":" ","HOUSE_NO":"１３２之６號","E_COORD97":190330.45999999999,"N_COORD97":2586123.1899999999,"ADDRESS":"海豐厝１３２之６號","OBJECTID":10277},"geometry":{"x":190330.45999999996,"y":2586123.1899999995}},{"attributes":{"ID":10278,"DIS_CODE":0,"TOWNNAME":"白河區","LI":"玉豐里","LIN":"13鄰","STREET":" ","SECT":" ","MAREA":"海豐厝","LANE":" ","ALLEY":" ","HOUSE_NO":"１３２號","E_COORD97":190324.16,"N_COORD97":2586074.48,"ADDRESS":"海豐厝１３２號","OBJECTID":10278},"geometry":{"x":190324.16000000015,"y":2586074.4800000004}},{"attributes":{"ID":10279,"DIS_CODE":0,"TOWNNAME":"白河區","LI":"玉豐里","LIN":"13鄰","STREET":" ","SECT":" ","MAREA":"海豐厝","LANE":" ","ALLEY":" ","HOUSE_NO":"１３３號","E_COORD97":190266.16,"N_COORD97":2586126.2000000002,"ADDRESS":"海豐厝１３３號","OBJECTID":10279},"geometry":{"x":190266.16000000015,"y":2586126.1999999993}},{"attributes":{"ID":10280,"DIS_CODE":0,"TOWNNAME":"白河區","LI":"玉豐里","LIN":"13鄰","STREET":" ","SECT":" ","MAREA":"海豐厝","LANE":" ","ALLEY":" ","HOUSE_NO":"１３５之１號","E_COORD97":190281.04999999999,"N_COORD97":2586149,"ADDRESS":"海豐厝１３５之１號","OBJECTID":10280},"geometry":{"x":190281.05000000075,"y":2586149}},{"attributes":{"ID":10281,"DIS_CODE":0,"TOWNNAME":"白河區","LI":"玉豐里","LIN":"13鄰","STREET":" ","SECT":" ","MAREA":"海豐厝","LANE":" ","ALLEY":" ","HOUSE_NO":"１３５號","E_COORD97":190299.04999999999,"N_COORD97":2586153.5,"ADDRESS":"海豐厝１３５號","OBJECTID":10281},"geometry":{"x":190299.04999999981,"y":2586153.5000000019}},{"attributes":{"ID":10282,"DIS_CODE":0,"TOWNNAME":"白河區","LI":"玉豐里","LIN":"13鄰","STREET":" ","SECT":" ","MAREA":"海豐厝","LANE":" ","ALLEY":" ","HOUSE_NO":"１３６之１號","E_COORD97":190288.39000000001,"N_COORD97":2586173.0499999998,"ADDRESS":"海豐厝１３６之１號","OBJECTID":10282},"geometry":{"x":190288.39000000153,"y":2586173.0500000007}},{"attributes":{"ID":10283,"DIS_CODE":0,"TOWNNAME":"白河區","LI":"玉豐里","LIN":"13鄰","STREET":" ","SECT":" ","MAREA":"海豐厝","LANE":" ","ALLEY":" ","HOUSE_NO":"１３６之２號","E_COORD97":190301.57999999999,"N_COORD97":2586204.7200000002,"ADDRESS":"海豐厝１３６之２號","OBJECTID":10283},"geometry":{"x":190301.58000000101,"y":2586204.7200000025}},{"attributes":{"ID":10284,"DIS_CODE":0,"TOWNNAME":"南區","LI":"新生里","LIN":"17鄰","STREET":"大同路","SECT":"二段","MAREA":" ","LANE":"１００巷","ALLEY":"２１弄","HOUSE_NO":"１４號","E_COORD97":169200.54999999999,"N_COORD97":2542286.0899999999,"ADDRESS":"大同路二段１００巷２１弄１４號","OBJECTID":10284},"geometry":{"x":169200.54999999981,"y":2542286.0899999999}},{"attributes":{"ID":10285,"DIS_CODE":0,"TOWNNAME":"白河區","LI":"竹門里","LIN":"13鄰","STREET":" ","SECT":" ","MAREA":"番子園","LANE":" ","ALLEY":" ","HOUSE_NO":"３０號","E_COORD97":191798.95999999999,"N_COORD97":2586354.8799999999,"ADDRESS":"番子園３０號","OBJECTID":10285},"geometry":{"x":191798.96000000089,"y":2586354.879999999}},{"attributes":{"ID":10286,"DIS_CODE":0,"TOWNNAME":"白河區","LI":"竹門里","LIN":"13鄰","STREET":" ","SECT":" ","MAREA":"番子園","LANE":" ","ALLEY":" ","HOUSE_NO":"３號","E_COORD97":192387.04999999999,"N_COORD97":2586439.1800000002,"ADDRESS":"番子園３號","OBJECTID":10286},"geometry":{"x":192387.04999999981,"y":2586439.1799999997}},{"attributes":{"ID":10287,"DIS_CODE":0,"TOWNNAME":"安南區","LI":"新順里","LIN":"13鄰","STREET":"開安路","SECT":" ","MAREA":" ","LANE":" ","ALLEY":" ","HOUSE_NO":"２２號","E_COORD97":170325.64000000001,"N_COORD97":2549564.3100000001,"ADDRESS":"開安路２２號","OBJECTID":10287},"geometry":{"x":170325.63999999966,"y":2549564.3100000005}},{"attributes":{"ID":10288,"DIS_CODE":0,"TOWNNAME":"白河區","LI":"竹門里","LIN":"13鄰","STREET":" ","SECT":" ","MAREA":"番子園","LANE":" ","ALLEY":" ","HOUSE_NO":"５０號","E_COORD97":191384.35000000001,"N_COORD97":2586024.8300000001,"ADDRESS":"番子園５０號","OBJECTID":10288},"geometry":{"x":191384.35000000056,"y":2586024.8300000001}},{"attributes":{"ID":10289,"DIS_CODE":0,"TOWNNAME":"白河區","LI":"竹門里","LIN":"13鄰","STREET":" ","SECT":" ","MAREA":"番子園","LANE":" ","ALLEY":" ","HOUSE_NO":"５２之６號","E_COORD97":191279.85000000001,"N_COORD97":2586045.1000000001,"ADDRESS":"番子園５２之６號","OBJECTID":10289},"geometry":{"x":191279.84999999963,"y":2586045.1000000015}},{"attributes":{"ID":10290,"DIS_CODE":0,"TOWNNAME":"白河區","LI":"竹門里","LIN":"13鄰","STREET":" ","SECT":" ","MAREA":"番子園","LANE":" ","ALLEY":" ","HOUSE_NO":"５２號","E_COORD97":191375.26000000001,"N_COORD97":2586025.1699999999,"ADDRESS":"番子園５２號","OBJECTID":10290},"geometry":{"x":191375.25999999978,"y":2586025.1699999999}},{"attributes":{"ID":10291,"DIS_CODE":0,"TOWNNAME":"安南區","LI":"溪心里","LIN":"13鄰","STREET":"樂安一街","SECT":" ","MAREA":" ","LANE":" ","ALLEY":" ","HOUSE_NO":"９８號","E_COORD97":165965.51999999999,"N_COORD97":2549779.8399999999,"ADDRESS":"樂安一街９８號","OBJECTID":10291},"geometry":{"x":165965.52000000048,"y":2549779.8400000017}},{"attributes":{"ID":10292,"DIS_CODE":0,"TOWNNAME":"佳里區","LI":"忠仁里","LIN":"13鄰","STREET":" ","SECT":" ","MAREA":"忠仁","LANE":" ","ALLEY":" ","HOUSE_NO":"１００號之１","E_COORD97":166096.92999999999,"N_COORD97":2562202.1699999999,"ADDRESS":"忠仁１００號之１","OBJECTID":10292},"geometry":{"x":166096.93000000063,"y":2562202.1700000037}},{"attributes":{"ID":10293,"DIS_CODE":0,"TOWNNAME":"佳里區","LI":"忠仁里","LIN":"13鄰","STREET":" ","SECT":" ","MAREA":"忠仁","LANE":" ","ALLEY":" ","HOUSE_NO":"１００號","E_COORD97":166089.89999999999,"N_COORD97":2562220.7400000002,"ADDRESS":"忠仁１００號","OBJECTID":10293},"geometry":{"x":166089.90000000037,"y":2562220.7400000002}},{"attributes":{"ID":10294,"DIS_CODE":0,"TOWNNAME":"麻豆區","LI":"油車里","LIN":"13鄰","STREET":" ","SECT":" ","MAREA":"油車","LANE":" ","ALLEY":" ","HOUSE_NO":"１００號","E_COORD97":172256.29000000001,"N_COORD97":2565719.7200000002,"ADDRESS":"油車１００號","OBJECTID":10294},"geometry":{"x":172256.29000000097,"y":2565719.7200000025}},{"attributes":{"ID":10295,"DIS_CODE":0,"TOWNNAME":"麻豆區","LI":"油車里","LIN":"13鄰","STREET":" ","SECT":" ","MAREA":"油車","LANE":" ","ALLEY":" ","HOUSE_NO":"９１號之１","E_COORD97":172278.32999999999,"N_COORD97":2565984.9199999999,"ADDRESS":"油車９１號之１","OBJECTID":10295},"geometry":{"x":172278.33000000101,"y":2565984.9200000018}},{"attributes":{"ID":10296,"DIS_CODE":0,"TOWNNAME":"麻豆區","LI":"油車里","LIN":"13鄰","STREET":" ","SECT":" ","MAREA":"油車","LANE":" ","ALLEY":" ","HOUSE_NO":"９１號之２","E_COORD97":172272.60999999999,"N_COORD97":2566012.23,"ADDRESS":"油車９１號之２","OBJECTID":10296},"geometry":{"x":172272.61000000034,"y":2566012.2300000004}},{"attributes":{"ID":10297,"DIS_CODE":0,"TOWNNAME":"麻豆區","LI":"油車里","LIN":"13鄰","STREET":" ","SECT":" ","MAREA":"油車","LANE":" ","ALLEY":" ","HOUSE_NO":"９２號之５","E_COORD97":172349.59,"N_COORD97":2566001.1899999999,"ADDRESS":"油車９２號之５","OBJECTID":10297},"geometry":{"x":172349.59000000078,"y":2566001.1899999995}},{"attributes":{"ID":10298,"DIS_CODE":0,"TOWNNAME":"麻豆區","LI":"油車里","LIN":"13鄰","STREET":" ","SECT":" ","MAREA":"油車","LANE":" ","ALLEY":" ","HOUSE_NO":"９２號","E_COORD97":172341.56,"N_COORD97":2565949.1400000001,"ADDRESS":"油車９２號","OBJECTID":10298},"geometry":{"x":172341.55999999959,"y":2565949.1400000006}},{"attributes":{"ID":10299,"DIS_CODE":0,"TOWNNAME":"麻豆區","LI":"油車里","LIN":"13鄰","STREET":" ","SECT":" ","MAREA":"油車","LANE":" ","ALLEY":" ","HOUSE_NO":"９３號","E_COORD97":172144.10999999999,"N_COORD97":2565720.9700000002,"ADDRESS":"油車９３號","OBJECTID":10299},"geometry":{"x":172144.1100000022,"y":2565720.9700000025}},{"attributes":{"ID":10300,"DIS_CODE":0,"TOWNNAME":"麻豆區","LI":"油車里","LIN":"13鄰","STREET":" ","SECT":" ","MAREA":"油車","LANE":" ","ALLEY":" ","HOUSE_NO":"９４號之１","E_COORD97":172145.38,"N_COORD97":2565646.7999999998,"ADDRESS":"油車９４號之１","OBJECTID":10300},"geometry":{"x":172145.38000000082,"y":2565646.8000000045}},{"attributes":{"ID":10301,"DIS_CODE":0,"TOWNNAME":"麻豆區","LI":"油車里","LIN":"13鄰","STREET":" ","SECT":" ","MAREA":"油車","LANE":" ","ALLEY":" ","HOUSE_NO":"９４號之３","E_COORD97":172155.59,"N_COORD97":2565644.6200000001,"ADDRESS":"油車９４號之３","OBJECTID":10301},"geometry":{"x":172155.59000000171,"y":2565644.620000001}},{"attributes":{"ID":10302,"DIS_CODE":0,"TOWNNAME":"麻豆區","LI":"油車里","LIN":"13鄰","STREET":" ","SECT":" ","MAREA":"油車","LANE":" ","ALLEY":" ","HOUSE_NO":"９４號","E_COORD97":172152.92999999999,"N_COORD97":2565686.73,"ADDRESS":"油車９４號","OBJECTID":10302},"geometry":{"x":172152.9299999997,"y":2565686.7300000004}},{"attributes":{"ID":10303,"DIS_CODE":0,"TOWNNAME":"麻豆區","LI":"油車里","LIN":"13鄰","STREET":" ","SECT":" ","MAREA":"油車","LANE":" ","ALLEY":" ","HOUSE_NO":"９５號之１","E_COORD97":172229.41,"N_COORD97":2565640.5299999998,"ADDRESS":"油車９５號之１","OBJECTID":10303},"geometry":{"x":172229.41000000015,"y":2565640.5300000031}},{"attributes":{"ID":10304,"DIS_CODE":0,"TOWNNAME":"麻豆區","LI":"油車里","LIN":"13鄰","STREET":" ","SECT":" ","MAREA":"油車","LANE":" ","ALLEY":" ","HOUSE_NO":"９６號之１","E_COORD97":172201.29000000001,"N_COORD97":2565614.2000000002,"ADDRESS":"油車９６號之１","OBJECTID":10304},"geometry":{"x":172201.29000000004,"y":2565614.1999999993}},{"attributes":{"ID":10305,"DIS_CODE":0,"TOWNNAME":"麻豆區","LI":"油車里","LIN":"13鄰","STREET":" ","SECT":" ","MAREA":"油車","LANE":" ","ALLEY":" ","HOUSE_NO":"９６號之２","E_COORD97":172177.31,"N_COORD97":2565621.3500000001,"ADDRESS":"油車９６號之２","OBJECTID":10305},"geometry":{"x":172177.30999999959,"y":2565621.3499999978}},{"attributes":{"ID":10306,"DIS_CODE":0,"TOWNNAME":"南區","LI":"新生里","LIN":"17鄰","STREET":"大同路","SECT":"二段","MAREA":" ","LANE":"１００巷","ALLEY":"２１弄","HOUSE_NO":"１６號","E_COORD97":169202.14999999999,"N_COORD97":2542280.2799999998,"ADDRESS":"大同路二段１００巷２１弄１６號","OBJECTID":10306},"geometry":{"x":169202.15000000037,"y":2542280.2800000012}},{"attributes":{"ID":10307,"DIS_CODE":0,"TOWNNAME":"北區","LI":"成功里","LIN":"13鄰","STREET":"北成路","SECT":" ","MAREA":" ","LANE":"８０巷","ALLEY":"２２弄","HOUSE_NO":"１０號","E_COORD97":169026.82999999999,"N_COORD97":2546653.0600000001,"ADDRESS":"北成路８０巷２２弄１０號","OBJECTID":10307},"geometry":{"x":169026.83000000101,"y":2546653.0600000024}},{"attributes":{"ID":10308,"DIS_CODE":0,"TOWNNAME":"關廟區","LI":"埤頭里","LIN":"13鄰","STREET":"關新路","SECT":"二段","MAREA":" ","LANE":"４６２巷","ALLEY":"１８弄","HOUSE_NO":"３５號","E_COORD97":179269.72,"N_COORD97":2545010.2999999998,"ADDRESS":"關新路二段４６２巷１８弄３５號","OBJECTID":10308},"geometry":{"x":179269.72000000067,"y":2545010.3000000026}},{"attributes":{"ID":10309,"DIS_CODE":0,"TOWNNAME":"北區","LI":"成功里","LIN":"13鄰","STREET":"北成路","SECT":" ","MAREA":" ","LANE":"８０巷","ALLEY":"２２弄","HOUSE_NO":"８號","E_COORD97":169031.47,"N_COORD97":2546664.4900000002,"ADDRESS":"北成路８０巷２２弄８號","OBJECTID":10309},"geometry":{"x":169031.46999999974,"y":2546664.4900000002}},{"attributes":{"ID":10310,"DIS_CODE":0,"TOWNNAME":"新營區","LI":"新北里","LIN":"13鄰","STREET":"周武街","SECT":" ","MAREA":" ","LANE":"７９巷","ALLEY":"２１弄","HOUSE_NO":"３２號","E_COORD97":179253.45000000001,"N_COORD97":2579043.6099999999,"ADDRESS":"周武街７９巷２１弄３２號","OBJECTID":10310},"geometry":{"x":179253.45000000112,"y":2579043.6100000013}},{"attributes":{"ID":10311,"DIS_CODE":0,"TOWNNAME":"新營區","LI":"南紙里","LIN":"13鄰","STREET":"太子路","SECT":" ","MAREA":" ","LANE":"２００巷","ALLEY":"７９弄","HOUSE_NO":"２３號","E_COORD97":177793.87,"N_COORD97":2577997.4700000002,"ADDRESS":"太子路２００巷７９弄２３號","OBJECTID":10311},"geometry":{"x":177793.87000000197,"y":2577997.4700000025}},{"attributes":{"ID":10312,"DIS_CODE":0,"TOWNNAME":"新營區","LI":"南紙里","LIN":"13鄰","STREET":"太子路","SECT":" ","MAREA":" ","LANE":"２００巷","ALLEY":"７９弄","HOUSE_NO":"２１號","E_COORD97":177800.01000000001,"N_COORD97":2577999.6499999999,"ADDRESS":"太子路２００巷７９弄２１號","OBJECTID":10312},"geometry":{"x":177800.01000000071,"y":2577999.6500000022}},{"attributes":{"ID":10313,"DIS_CODE":0,"TOWNNAME":"新營區","LI":"新北里","LIN":"13鄰","STREET":"周武街","SECT":" ","MAREA":" ","LANE":"７９巷","ALLEY":"２１弄","HOUSE_NO":"２８號","E_COORD97":179265.73999999999,"N_COORD97":2579052.4100000001,"ADDRESS":"周武街７９巷２１弄２８號","OBJECTID":10313},"geometry":{"x":179265.74000000022,"y":2579052.410000002}},{"attributes":{"ID":10314,"DIS_CODE":0,"TOWNNAME":"麻豆區","LI":"油車里","LIN":"13鄰","STREET":" ","SECT":" ","MAREA":"油車","LANE":" ","ALLEY":" ","HOUSE_NO":"９６號之３","E_COORD97":172180.32000000001,"N_COORD97":2565637.8999999999,"ADDRESS":"油車９６號之３","OBJECTID":10314},"geometry":{"x":172180.32000000123,"y":2565637.9000000004}},{"attributes":{"ID":10315,"DIS_CODE":0,"TOWNNAME":"南區","LI":"南都里","LIN":"13鄰","STREET":"中華南路","SECT":"二段","MAREA":" ","LANE":"２４９巷","ALLEY":"３２弄","HOUSE_NO":"６６號","E_COORD97":166537.17000000001,"N_COORD97":2540080.4399999999,"ADDRESS":"中華南路二段２４９巷３２弄６６號","OBJECTID":10315},"geometry":{"x":166537.17000000179,"y":2540080.4399999995}},{"attributes":{"ID":10316,"DIS_CODE":0,"TOWNNAME":"麻豆區","LI":"南勢里","LIN":"13鄰","STREET":" ","SECT":" ","MAREA":"南勢","LANE":" ","ALLEY":" ","HOUSE_NO":"２１號之５","E_COORD97":174375.89999999999,"N_COORD97":2565118.0800000001,"ADDRESS":"南勢２１號之５","OBJECTID":10316},"geometry":{"x":174375.90000000037,"y":2565118.0800000001}},{"attributes":{"ID":10317,"DIS_CODE":0,"TOWNNAME":"南區","LI":"南都里","LIN":"13鄰","STREET":"中華南路","SECT":"二段","MAREA":" ","LANE":"２４９巷","ALLEY":"３２弄","HOUSE_NO":"６２號","E_COORD97":166539.70999999999,"N_COORD97":2540081.5499999998,"ADDRESS":"中華南路二段２４９巷３２弄６２號","OBJECTID":10317},"geometry":{"x":166539.70999999996,"y":2540081.5500000045}},{"attributes":{"ID":10318,"DIS_CODE":0,"TOWNNAME":"南區","LI":"南都里","LIN":"13鄰","STREET":"中華南路","SECT":"二段","MAREA":" ","LANE":"２４９巷","ALLEY":"３２弄","HOUSE_NO":"５８號","E_COORD97":166542.25,"N_COORD97":2540082.98,"ADDRESS":"中華南路二段２４９巷３２弄５８號","OBJECTID":10318},"geometry":{"x":166542.25000000093,"y":2540082.9800000023}},{"attributes":{"ID":10319,"DIS_CODE":0,"TOWNNAME":"南區","LI":"南都里","LIN":"13鄰","STREET":"中華南路","SECT":"二段","MAREA":" ","LANE":"２４９巷","ALLEY":"３２弄","HOUSE_NO":"２８號","E_COORD97":166587.5,"N_COORD97":2540147.4300000002,"ADDRESS":"中華南路二段２４９巷３２弄２８號","OBJECTID":10319},"geometry":{"x":166587.49999999907,"y":2540147.4300000016}},{"attributes":{"ID":10320,"DIS_CODE":0,"TOWNNAME":"南區","LI":"南都里","LIN":"13鄰","STREET":"中華南路","SECT":"二段","MAREA":" ","LANE":"２４９巷","ALLEY":"３２弄","HOUSE_NO":"３８號","E_COORD97":166590.35999999999,"N_COORD97":2540118.2200000002,"ADDRESS":"中華南路二段２４９巷３２弄３８號","OBJECTID":10320},"geometry":{"x":166590.36000000034,"y":2540118.2200000025}},{"attributes":{"ID":10321,"DIS_CODE":0,"TOWNNAME":"南區","LI":"南都里","LIN":"13鄰","STREET":"中華南路","SECT":"二段","MAREA":" ","LANE":"２４９巷","ALLEY":"３２弄","HOUSE_NO":"４８號","E_COORD97":166570.98999999999,"N_COORD97":2540105.52,"ADDRESS":"中華南路二段２４９巷３２弄４８號","OBJECTID":10321},"geometry":{"x":166570.99000000209,"y":2540105.5200000014}},{"attributes":{"ID":10322,"DIS_CODE":0,"TOWNNAME":"南區","LI":"南都里","LIN":"13鄰","STREET":"中華南路","SECT":"二段","MAREA":" ","LANE":"２４９巷","ALLEY":"３２弄","HOUSE_NO":"４６號","E_COORD97":166575.26999999999,"N_COORD97":2540108.0600000001,"ADDRESS":"中華南路二段２４９巷３２弄４６號","OBJECTID":10322},"geometry":{"x":166575.27000000142,"y":2540108.0600000005}},{"attributes":{"ID":10323,"DIS_CODE":0,"TOWNNAME":"南區","LI":"南都里","LIN":"13鄰","STREET":"中華南路","SECT":"二段","MAREA":" ","LANE":"２４９巷","ALLEY":"３２弄","HOUSE_NO":"４２號","E_COORD97":166580.04000000001,"N_COORD97":2540111.8700000001,"ADDRESS":"中華南路二段２４９巷３２弄４２號","OBJECTID":10323},"geometry":{"x":166580.04000000004,"y":2540111.8700000029}},{"attributes":{"ID":10324,"DIS_CODE":0,"TOWNNAME":"安平區","LI":"文平里","LIN":"13鄰","STREET":"建平五街","SECT":" ","MAREA":" ","LANE":"２２巷","ALLEY":"３６弄","HOUSE_NO":"５７號","E_COORD97":165981.47,"N_COORD97":2543214.3500000001,"ADDRESS":"建平五街２２巷３６弄５７號","OBJECTID":10324},"geometry":{"x":165981.47000000067,"y":2543214.3499999978}},{"attributes":{"ID":10325,"DIS_CODE":0,"TOWNNAME":"安平區","LI":"文平里","LIN":"13鄰","STREET":"建平五街","SECT":" ","MAREA":" ","LANE":"２２巷","ALLEY":"３６弄","HOUSE_NO":"３號","E_COORD97":166086.60000000001,"N_COORD97":2543199.8399999999,"ADDRESS":"建平五街２２巷３６弄３號","OBJECTID":10325},"geometry":{"x":166086.60000000149,"y":2543199.8399999999}},{"attributes":{"ID":10326,"DIS_CODE":0,"TOWNNAME":"安平區","LI":"文平里","LIN":"13鄰","STREET":"建平五街","SECT":" ","MAREA":" ","LANE":"２２巷","ALLEY":"３６弄","HOUSE_NO":"５號","E_COORD97":166082.31,"N_COORD97":2543200.4700000002,"ADDRESS":"建平五街２２巷３６弄５號","OBJECTID":10326},"geometry":{"x":166082.31000000052,"y":2543200.4700000007}},{"attributes":{"ID":10327,"DIS_CODE":0,"TOWNNAME":"安平區","LI":"文平里","LIN":"13鄰","STREET":"建平五街","SECT":" ","MAREA":" ","LANE":"２２巷","ALLEY":"３６弄","HOUSE_NO":"７號","E_COORD97":166078.19,"N_COORD97":2543201.1099999999,"ADDRESS":"建平五街２２巷３６弄７號","OBJECTID":10327},"geometry":{"x":166078.19000000227,"y":2543201.1099999994}},{"attributes":{"ID":10328,"DIS_CODE":0,"TOWNNAME":"安平區","LI":"文平里","LIN":"13鄰","STREET":"建平五街","SECT":" ","MAREA":" ","LANE":"２２巷","ALLEY":"３６弄","HOUSE_NO":"９號","E_COORD97":166072.31,"N_COORD97":2543202.0600000001,"ADDRESS":"建平五街２２巷３６弄９號","OBJECTID":10328},"geometry":{"x":166072.30999999959,"y":2543202.0600000024}},{"attributes":{"ID":10329,"DIS_CODE":0,"TOWNNAME":"安平區","LI":"文平里","LIN":"13鄰","STREET":"建平五街","SECT":" ","MAREA":" ","LANE":"２２巷","ALLEY":"３６弄","HOUSE_NO":"１１號","E_COORD97":166068.5,"N_COORD97":2543202.3799999999,"ADDRESS":"建平五街２２巷３６弄１１號","OBJECTID":10329},"geometry":{"x":166068.5,"y":2543202.379999999}},{"attributes":{"ID":10330,"DIS_CODE":0,"TOWNNAME":"安平區","LI":"文平里","LIN":"13鄰","STREET":"建平五街","SECT":" ","MAREA":" ","LANE":"２２巷","ALLEY":"３６弄","HOUSE_NO":"１３號","E_COORD97":166063.89999999999,"N_COORD97":2543203.3300000001,"ADDRESS":"建平五街２２巷３６弄１３號","OBJECTID":10330},"geometry":{"x":166063.9000000013,"y":2543203.3300000001}},{"attributes":{"ID":10331,"DIS_CODE":0,"TOWNNAME":"安平區","LI":"文平里","LIN":"13鄰","STREET":"建平五街","SECT":" ","MAREA":" ","LANE":"２２巷","ALLEY":"３６弄","HOUSE_NO":"１５號","E_COORD97":166059.92999999999,"N_COORD97":2543204.2799999998,"ADDRESS":"建平五街２２巷３６弄１５號","OBJECTID":10331},"geometry":{"x":166059.9299999997,"y":2543204.2799999993}},{"attributes":{"ID":10332,"DIS_CODE":0,"TOWNNAME":"安定區","LI":"安定里","LIN":"13鄰","STREET":" ","SECT":" ","MAREA":"安定","LANE":" ","ALLEY":" ","HOUSE_NO":"１１４號","E_COORD97":171931.62,"N_COORD97":2557790.3199999998,"ADDRESS":"安定１１４號","OBJECTID":10332},"geometry":{"x":171931.62000000011,"y":2557790.3200000003}},{"attributes":{"ID":10333,"DIS_CODE":0,"TOWNNAME":"麻豆區","LI":"油車里","LIN":"13鄰","STREET":" ","SECT":" ","MAREA":"油車","LANE":" ","ALLEY":" ","HOUSE_NO":"９６號之５","E_COORD97":172003.45999999999,"N_COORD97":2565626.77,"ADDRESS":"油車９６號之５","OBJECTID":10333},"geometry":{"x":172003.45999999996,"y":2565626.7700000014}},{"attributes":{"ID":10334,"DIS_CODE":0,"TOWNNAME":"麻豆區","LI":"油車里","LIN":"13鄰","STREET":" ","SECT":" ","MAREA":"油車","LANE":" ","ALLEY":" ","HOUSE_NO":"９６號之６","E_COORD97":172033.26000000001,"N_COORD97":2565619.04,"ADDRESS":"油車９６號之６","OBJECTID":10334},"geometry":{"x":172033.25999999978,"y":2565619.0399999991}},{"attributes":{"ID":10335,"DIS_CODE":0,"TOWNNAME":"麻豆區","LI":"油車里","LIN":"13鄰","STREET":" ","SECT":" ","MAREA":"油車","LANE":" ","ALLEY":" ","HOUSE_NO":"９６號之７","E_COORD97":172210.87,"N_COORD97":2565657.5600000001,"ADDRESS":"油車９６號之７","OBJECTID":10335},"geometry":{"x":172210.87000000011,"y":2565657.5600000005}},{"attributes":{"ID":10336,"DIS_CODE":0,"TOWNNAME":"麻豆區","LI":"油車里","LIN":"13鄰","STREET":" ","SECT":" ","MAREA":"油車","LANE":" ","ALLEY":" ","HOUSE_NO":"９７號","E_COORD97":172255.59,"N_COORD97":2565620.7400000002,"ADDRESS":"油車９７號","OBJECTID":10336},"geometry":{"x":172255.59000000171,"y":2565620.7400000021}},{"attributes":{"ID":10337,"DIS_CODE":0,"TOWNNAME":"麻豆區","LI":"油車里","LIN":"13鄰","STREET":" ","SECT":" ","MAREA":"油車","LANE":" ","ALLEY":" ","HOUSE_NO":"９８號","E_COORD97":172261.82000000001,"N_COORD97":2565649.21,"ADDRESS":"油車９８號","OBJECTID":10337},"geometry":{"x":172261.82000000123,"y":2565649.2100000028}},{"attributes":{"ID":10338,"DIS_CODE":0,"TOWNNAME":"麻豆區","LI":"油車里","LIN":"13鄰","STREET":" ","SECT":" ","MAREA":"油車","LANE":" ","ALLEY":" ","HOUSE_NO":"９９號之２","E_COORD97":172268,"N_COORD97":2565682.6600000001,"ADDRESS":"油車９９號之２","OBJECTID":10338},"geometry":{"x":172268,"y":2565682.660000002}},{"attributes":{"ID":10339,"DIS_CODE":0,"TOWNNAME":"麻豆區","LI":"油車里","LIN":"13鄰","STREET":" ","SECT":" ","MAREA":"油車","LANE":" ","ALLEY":" ","HOUSE_NO":"９９號","E_COORD97":172263.56,"N_COORD97":2565693.0699999998,"ADDRESS":"油車９９號","OBJECTID":10339},"geometry":{"x":172263.55999999959,"y":2565693.0700000022}},{"attributes":{"ID":10340,"DIS_CODE":0,"TOWNNAME":"麻豆區","LI":"南勢里","LIN":"13鄰","STREET":" ","SECT":" ","MAREA":"南勢","LANE":" ","ALLEY":" ","HOUSE_NO":"１７號之４","E_COORD97":174237.89999999999,"N_COORD97":2565044.2599999998,"ADDRESS":"南勢１７號之４","OBJECTID":10340},"geometry":{"x":174237.9000000013,"y":2565044.2600000016}},{"attributes":{"ID":10341,"DIS_CODE":0,"TOWNNAME":"麻豆區","LI":"南勢里","LIN":"13鄰","STREET":" ","SECT":" ","MAREA":"南勢","LANE":" ","ALLEY":" ","HOUSE_NO":"１７號","E_COORD97":174242.20000000001,"N_COORD97":2565066.3900000001,"ADDRESS":"南勢１７號","OBJECTID":10341},"geometry":{"x":174242.20000000112,"y":2565066.3900000043}},{"attributes":{"ID":10342,"DIS_CODE":0,"TOWNNAME":"麻豆區","LI":"南勢里","LIN":"13鄰","STREET":" ","SECT":" ","MAREA":"南勢","LANE":" ","ALLEY":" ","HOUSE_NO":"１８號之１","E_COORD97":174292.32999999999,"N_COORD97":2565055.8999999999,"ADDRESS":"南勢１８號之１","OBJECTID":10342},"geometry":{"x":174292.33000000101,"y":2565055.9000000041}},{"attributes":{"ID":10343,"DIS_CODE":0,"TOWNNAME":"麻豆區","LI":"南勢里","LIN":"13鄰","STREET":" ","SECT":" ","MAREA":"南勢","LANE":" ","ALLEY":" ","HOUSE_NO":"１８號之２","E_COORD97":174292.63,"N_COORD97":2565081.9300000002,"ADDRESS":"南勢１８號之２","OBJECTID":10343},"geometry":{"x":174292.62999999989,"y":2565081.9300000034}},{"attributes":{"ID":10344,"DIS_CODE":0,"TOWNNAME":"麻豆區","LI":"南勢里","LIN":"13鄰","STREET":" ","SECT":" ","MAREA":"南勢","LANE":" ","ALLEY":" ","HOUSE_NO":"１８號","E_COORD97":174273.09,"N_COORD97":2565118.25,"ADDRESS":"南勢１８號","OBJECTID":10344},"geometry":{"x":174273.09000000078,"y":2565118.2500000019}},{"attributes":{"ID":10345,"DIS_CODE":0,"TOWNNAME":"麻豆區","LI":"南勢里","LIN":"13鄰","STREET":" ","SECT":" ","MAREA":"南勢","LANE":" ","ALLEY":" ","HOUSE_NO":"２０號","E_COORD97":174316.67000000001,"N_COORD97":2565078.98,"ADDRESS":"南勢２０號","OBJECTID":10345},"geometry":{"x":174316.67000000086,"y":2565078.9800000042}},{"attributes":{"ID":10346,"DIS_CODE":0,"TOWNNAME":"麻豆區","LI":"南勢里","LIN":"13鄰","STREET":" ","SECT":" ","MAREA":"南勢","LANE":" ","ALLEY":" ","HOUSE_NO":"２１號之１","E_COORD97":174362.88,"N_COORD97":2565106.2599999998,"ADDRESS":"南勢２１號之１","OBJECTID":10346},"geometry":{"x":174362.88000000082,"y":2565106.2599999998}},{"attributes":{"ID":10347,"DIS_CODE":0,"TOWNNAME":"麻豆區","LI":"南勢里","LIN":"13鄰","STREET":" ","SECT":" ","MAREA":"南勢","LANE":" ","ALLEY":" ","HOUSE_NO":"２１號之３","E_COORD97":174369.72,"N_COORD97":2565110.3500000001,"ADDRESS":"南勢２１號之３","OBJECTID":10347},"geometry":{"x":174369.71999999974,"y":2565110.3500000015}},{"attributes":{"ID":10348,"DIS_CODE":0,"TOWNNAME":"麻豆區","LI":"南勢里","LIN":"13鄰","STREET":" ","SECT":" ","MAREA":"南勢","LANE":" ","ALLEY":" ","HOUSE_NO":"２１號之４","E_COORD97":174373.79999999999,"N_COORD97":2565112.7799999998,"ADDRESS":"南勢２１號之４","OBJECTID":10348},"geometry":{"x":174373.80000000075,"y":2565112.7799999993}},{"attributes":{"ID":10349,"DIS_CODE":0,"TOWNNAME":"官田區","LI":"二鎮里","LIN":"14鄰","STREET":" ","SECT":" ","MAREA":"程泰","LANE":" ","ALLEY":" ","HOUSE_NO":"３號之６","E_COORD97":181602.41,"N_COORD97":2566199.5099999998,"ADDRESS":"程泰３號之６","OBJECTID":10349},"geometry":{"x":181602.41000000015,"y":2566199.5099999998}},{"attributes":{"ID":10350,"DIS_CODE":0,"TOWNNAME":"麻豆區","LI":"南勢里","LIN":"13鄰","STREET":" ","SECT":" ","MAREA":"南勢","LANE":" ","ALLEY":" ","HOUSE_NO":"２１號之６","E_COORD97":174381.70999999999,"N_COORD97":2565117.5600000001,"ADDRESS":"南勢２１號之６","OBJECTID":10350},"geometry":{"x":174381.70999999996,"y":2565117.5600000024}},{"attributes":{"ID":10351,"DIS_CODE":0,"TOWNNAME":"麻豆區","LI":"南勢里","LIN":"13鄰","STREET":" ","SECT":" ","MAREA":"南勢","LANE":" ","ALLEY":" ","HOUSE_NO":"２１號","E_COORD97":174354.67000000001,"N_COORD97":2565096.0800000001,"ADDRESS":"南勢２１號","OBJECTID":10351},"geometry":{"x":174354.66999999993,"y":2565096.0800000019}},{"attributes":{"ID":10352,"DIS_CODE":0,"TOWNNAME":"麻豆區","LI":"南勢里","LIN":"13鄰","STREET":" ","SECT":" ","MAREA":"南勢","LANE":" ","ALLEY":" ","HOUSE_NO":"２３號之１","E_COORD97":174373.92000000001,"N_COORD97":2565130.6299999999,"ADDRESS":"南勢２３號之１","OBJECTID":10352},"geometry":{"x":174373.91999999993,"y":2565130.6300000027}},{"attributes":{"ID":10353,"DIS_CODE":0,"TOWNNAME":"麻豆區","LI":"南勢里","LIN":"13鄰","STREET":" ","SECT":" ","MAREA":"南勢","LANE":" ","ALLEY":" ","HOUSE_NO":"２３號之３","E_COORD97":174370.60000000001,"N_COORD97":2565136.1800000002,"ADDRESS":"南勢２３號之３","OBJECTID":10353},"geometry":{"x":174370.59999999963,"y":2565136.1800000016}},{"attributes":{"ID":10354,"DIS_CODE":0,"TOWNNAME":"麻豆區","LI":"南勢里","LIN":"13鄰","STREET":" ","SECT":" ","MAREA":"南勢","LANE":" ","ALLEY":" ","HOUSE_NO":"２４號之１１","E_COORD97":174380.57000000001,"N_COORD97":2565169.4900000002,"ADDRESS":"南勢２４號之１１","OBJECTID":10354},"geometry":{"x":174380.57000000123,"y":2565169.4900000002}},{"attributes":{"ID":10355,"DIS_CODE":0,"TOWNNAME":"麻豆區","LI":"南勢里","LIN":"13鄰","STREET":" ","SECT":" ","MAREA":"南勢","LANE":" ","ALLEY":" ","HOUSE_NO":"２４號之１２","E_COORD97":174379.29999999999,"N_COORD97":2565173.2799999998,"ADDRESS":"南勢２４號之１２","OBJECTID":10355},"geometry":{"x":174379.29999999981,"y":2565173.2799999993}},{"attributes":{"ID":10356,"DIS_CODE":0,"TOWNNAME":"麻豆區","LI":"南勢里","LIN":"13鄰","STREET":" ","SECT":" ","MAREA":"南勢","LANE":" ","ALLEY":" ","HOUSE_NO":"２４號之１","E_COORD97":174356.10000000001,"N_COORD97":2565249.6200000001,"ADDRESS":"南勢２４號之１","OBJECTID":10356},"geometry":{"x":174356.10000000056,"y":2565249.6200000029}},{"attributes":{"ID":10357,"DIS_CODE":0,"TOWNNAME":"麻豆區","LI":"南勢里","LIN":"13鄰","STREET":" ","SECT":" ","MAREA":"南勢","LANE":" ","ALLEY":" ","HOUSE_NO":"２４號之２","E_COORD97":174403,"N_COORD97":2565132.54,"ADDRESS":"南勢２４號之２","OBJECTID":10357},"geometry":{"x":174403.00000000093,"y":2565132.540000001}},{"attributes":{"ID":10358,"DIS_CODE":0,"TOWNNAME":"麻豆區","LI":"南勢里","LIN":"13鄰","STREET":" ","SECT":" ","MAREA":"南勢","LANE":" ","ALLEY":" ","HOUSE_NO":"２４號之３","E_COORD97":174422.66,"N_COORD97":2565146.8300000001,"ADDRESS":"南勢２４號之３","OBJECTID":10358},"geometry":{"x":174422.66000000108,"y":2565146.8300000001}},{"attributes":{"ID":10359,"DIS_CODE":0,"TOWNNAME":"麻豆區","LI":"南勢里","LIN":"13鄰","STREET":" ","SECT":" ","MAREA":"南勢","LANE":" ","ALLEY":" ","HOUSE_NO":"２４號之４","E_COORD97":174371.45999999999,"N_COORD97":2565185.4700000002,"ADDRESS":"南勢２４號之４","OBJECTID":10359},"geometry":{"x":174371.45999999996,"y":2565185.4700000025}},{"attributes":{"ID":10360,"DIS_CODE":0,"TOWNNAME":"麻豆區","LI":"南勢里","LIN":"13鄰","STREET":" ","SECT":" ","MAREA":"南勢","LANE":" ","ALLEY":" ","HOUSE_NO":"２４號之５","E_COORD97":174388.63,"N_COORD97":2565148.7799999998,"ADDRESS":"南勢２４號之５","OBJECTID":10360},"geometry":{"x":174388.63000000082,"y":2565148.7800000012}},{"attributes":{"ID":10361,"DIS_CODE":0,"TOWNNAME":"安平區","LI":"文平里","LIN":"13鄰","STREET":"建平五街","SECT":" ","MAREA":" ","LANE":"２２巷","ALLEY":"３６弄","HOUSE_NO":"１７號","E_COORD97":166054.69,"N_COORD97":2543205.3900000001,"ADDRESS":"建平五街２２巷３６弄１７號","OBJECTID":10361},"geometry":{"x":166054.69000000134,"y":2543205.3900000043}},{"attributes":{"ID":10362,"DIS_CODE":0,"TOWNNAME":"安平區","LI":"文平里","LIN":"13鄰","STREET":"建平五街","SECT":" ","MAREA":" ","LANE":"２２巷","ALLEY":"３６弄","HOUSE_NO":"１９號","E_COORD97":166050.39999999999,"N_COORD97":2543205.8700000001,"ADDRESS":"建平五街２２巷３６弄１９號","OBJECTID":10362},"geometry":{"x":166050.4000000013,"y":2543205.8700000048}},{"attributes":{"ID":10363,"DIS_CODE":0,"TOWNNAME":"安平區","LI":"文平里","LIN":"13鄰","STREET":"建平五街","SECT":" ","MAREA":" ","LANE":"２２巷","ALLEY":"３６弄","HOUSE_NO":"２１號","E_COORD97":166045.64000000001,"N_COORD97":2543206.1899999999,"ADDRESS":"建平五街２２巷３６弄２１號","OBJECTID":10363},"geometry":{"x":166045.64000000153,"y":2543206.1900000013}},{"attributes":{"ID":10364,"DIS_CODE":0,"TOWNNAME":"安平區","LI":"文平里","LIN":"13鄰","STREET":"建平五街","SECT":" ","MAREA":" ","LANE":"２２巷","ALLEY":"３６弄","HOUSE_NO":"２３號","E_COORD97":166040.09,"N_COORD97":2543207.1400000001,"ADDRESS":"建平五街２２巷３６弄２３號","OBJECTID":10364},"geometry":{"x":166040.09000000078,"y":2543207.1400000025}},{"attributes":{"ID":10365,"DIS_CODE":0,"TOWNNAME":"麻豆區","LI":"南勢里","LIN":"13鄰","STREET":" ","SECT":" ","MAREA":"南勢","LANE":" ","ALLEY":" ","HOUSE_NO":"２４號之７","E_COORD97":174427.01000000001,"N_COORD97":2565149.4399999999,"ADDRESS":"南勢２４號之７","OBJECTID":10365},"geometry":{"x":174427.00999999978,"y":2565149.4400000032}},{"attributes":{"ID":10366,"DIS_CODE":0,"TOWNNAME":"麻豆區","LI":"南勢里","LIN":"13鄰","STREET":" ","SECT":" ","MAREA":"南勢","LANE":" ","ALLEY":" ","HOUSE_NO":"２４號之８","E_COORD97":174386.56,"N_COORD97":2565157.1499999999,"ADDRESS":"南勢２４號之８","OBJECTID":10366},"geometry":{"x":174386.56000000052,"y":2565157.1500000022}},{"attributes":{"ID":10367,"DIS_CODE":0,"TOWNNAME":"安平區","LI":"文平里","LIN":"13鄰","STREET":"建平五街","SECT":" ","MAREA":" ","LANE":"２２巷","ALLEY":"３６弄","HOUSE_NO":"２５號","E_COORD97":166035.79999999999,"N_COORD97":2543207.9300000002,"ADDRESS":"建平五街２２巷３６弄２５號","OBJECTID":10367},"geometry":{"x":166035.79999999981,"y":2543207.9300000016}},{"attributes":{"ID":10368,"DIS_CODE":0,"TOWNNAME":"安平區","LI":"文平里","LIN":"13鄰","STREET":"建平五街","SECT":" ","MAREA":" ","LANE":"２２巷","ALLEY":"３６弄","HOUSE_NO":"２７號","E_COORD97":166031.04000000001,"N_COORD97":2543208.25,"ADDRESS":"建平五街２２巷３６弄２７號","OBJECTID":10368},"geometry":{"x":166031.04000000004,"y":2543208.25}},{"attributes":{"ID":10369,"DIS_CODE":0,"TOWNNAME":"南區","LI":"新生里","LIN":"4鄰","STREET":"大同路","SECT":"二段","MAREA":" ","LANE":"１８６巷","ALLEY":"５弄","HOUSE_NO":"２號","E_COORD97":169296.07999999999,"N_COORD97":2541923.71,"ADDRESS":"大同路二段１８６巷５弄２號","OBJECTID":10369},"geometry":{"x":169296.08000000194,"y":2541923.7100000009}},{"attributes":{"ID":10370,"DIS_CODE":0,"TOWNNAME":"歸仁區","LI":"崙頂里","LIN":"13鄰","STREET":"成功路","SECT":"二段","MAREA":" ","LANE":"１６８巷","ALLEY":"１３弄","HOUSE_NO":"６號","E_COORD97":177924.89000000001,"N_COORD97":2539763.25,"ADDRESS":"成功路二段１６８巷１３弄６號","OBJECTID":10370},"geometry":{"x":177924.88999999966,"y":2539763.25}},{"attributes":{"ID":10371,"DIS_CODE":0,"TOWNNAME":"歸仁區","LI":"崙頂里","LIN":"13鄰","STREET":"成功路","SECT":"二段","MAREA":" ","LANE":"１６８巷","ALLEY":"１３弄","HOUSE_NO":"８號","E_COORD97":177918.69,"N_COORD97":2539764.25,"ADDRESS":"成功路二段１６８巷１３弄８號","OBJECTID":10371},"geometry":{"x":177918.69000000041,"y":2539764.2500000037}},{"attributes":{"ID":10372,"DIS_CODE":0,"TOWNNAME":"歸仁區","LI":"南保里","LIN":"13鄰","STREET":"文化十街","SECT":" ","MAREA":" ","LANE":"１０巷","ALLEY":"３弄","HOUSE_NO":"１６號","E_COORD97":176612.37,"N_COORD97":2541317.2599999998,"ADDRESS":"文化十街１０巷３弄１６號","OBJECTID":10372},"geometry":{"x":176612.37000000197,"y":2541317.2600000016}},{"attributes":{"ID":10373,"DIS_CODE":0,"TOWNNAME":"官田區","LI":"二鎮里","LIN":"14鄰","STREET":" ","SECT":" ","MAREA":"程泰","LANE":" ","ALLEY":" ","HOUSE_NO":"１５號","E_COORD97":181628.95999999999,"N_COORD97":2566341.0699999998,"ADDRESS":"程泰１５號","OBJECTID":10373},"geometry":{"x":181628.95999999996,"y":2566341.0700000022}},{"attributes":{"ID":10374,"DIS_CODE":0,"TOWNNAME":"歸仁區","LI":"崙頂里","LIN":"13鄰","STREET":"成功路","SECT":"二段","MAREA":" ","LANE":"１６８巷","ALLEY":"１３弄","HOUSE_NO":"２號","E_COORD97":177931.98999999999,"N_COORD97":2539763.25,"ADDRESS":"成功路二段１６８巷１３弄２號","OBJECTID":10374},"geometry":{"x":177931.99000000022,"y":2539763.25}},{"attributes":{"ID":10375,"DIS_CODE":0,"TOWNNAME":"歸仁區","LI":"南保里","LIN":"13鄰","STREET":"文化十街","SECT":" ","MAREA":" ","LANE":"１０巷","ALLEY":"３弄","HOUSE_NO":"７號","E_COORD97":176595.62,"N_COORD97":2541296.2599999998,"ADDRESS":"文化十街１０巷３弄７號","OBJECTID":10375},"geometry":{"x":176595.62000000104,"y":2541296.2600000035}},{"attributes":{"ID":10376,"DIS_CODE":0,"TOWNNAME":"麻豆區","LI":"南勢里","LIN":"13鄰","STREET":" ","SECT":" ","MAREA":"南勢","LANE":" ","ALLEY":" ","HOUSE_NO":"２４號之９","E_COORD97":174383.42000000001,"N_COORD97":2565161.75,"ADDRESS":"南勢２４號之９","OBJECTID":10376},"geometry":{"x":174383.41999999993,"y":2565161.7500000037}},{"attributes":{"ID":10377,"DIS_CODE":0,"TOWNNAME":"麻豆區","LI":"南勢里","LIN":"13鄰","STREET":" ","SECT":" ","MAREA":"南勢","LANE":" ","ALLEY":" ","HOUSE_NO":"２５號之１０","E_COORD97":174462.5,"N_COORD97":2565129.9700000002,"ADDRESS":"南勢２５號之１０","OBJECTID":10377},"geometry":{"x":174462.50000000093,"y":2565129.9700000007}},{"attributes":{"ID":10378,"DIS_CODE":0,"TOWNNAME":"麻豆區","LI":"南勢里","LIN":"13鄰","STREET":" ","SECT":" ","MAREA":"南勢","LANE":" ","ALLEY":" ","HOUSE_NO":"２５號之１１","E_COORD97":174491.37,"N_COORD97":2565140.3900000001,"ADDRESS":"南勢２５號之１１","OBJECTID":10378},"geometry":{"x":174491.37000000011,"y":2565140.3900000006}},{"attributes":{"ID":10379,"DIS_CODE":0,"TOWNNAME":"麻豆區","LI":"南勢里","LIN":"13鄰","STREET":" ","SECT":" ","MAREA":"南勢","LANE":" ","ALLEY":" ","HOUSE_NO":"２５號之１２","E_COORD97":174495.84,"N_COORD97":2565142,"ADDRESS":"南勢２５號之１２","OBJECTID":10379},"geometry":{"x":174495.83999999985,"y":2565142}},{"attributes":{"ID":10380,"DIS_CODE":0,"TOWNNAME":"歸仁區","LI":"南保里","LIN":"13鄰","STREET":"文化十街","SECT":" ","MAREA":" ","LANE":"１０巷","ALLEY":"３弄","HOUSE_NO":"１８號","E_COORD97":176613.37,"N_COORD97":2541322.2599999998,"ADDRESS":"文化十街１０巷３弄１８號","OBJECTID":10380},"geometry":{"x":176613.37000000011,"y":2541322.2599999998}},{"attributes":{"ID":10381,"DIS_CODE":0,"TOWNNAME":"歸仁區","LI":"崙頂里","LIN":"13鄰","STREET":"成功路","SECT":"二段","MAREA":" ","LANE":"１６８巷","ALLEY":"１９弄","HOUSE_NO":"６號","E_COORD97":177922.89000000001,"N_COORD97":2539781.25,"ADDRESS":"成功路二段１６８巷１９弄６號","OBJECTID":10381},"geometry":{"x":177922.8900000006,"y":2539781.2500000037}},{"attributes":{"ID":10382,"DIS_CODE":0,"TOWNNAME":"歸仁區","LI":"南保里","LIN":"13鄰","STREET":"文化十街","SECT":" ","MAREA":" ","LANE":"１０巷","ALLEY":"３弄","HOUSE_NO":"１０號","E_COORD97":176612.26999999999,"N_COORD97":2541296.2599999998,"ADDRESS":"文化十街１０巷３弄１０號","OBJECTID":10382},"geometry":{"x":176612.26999999862,"y":2541296.2600000035}},{"attributes":{"ID":10383,"DIS_CODE":0,"TOWNNAME":"歸仁區","LI":"南保里","LIN":"13鄰","STREET":"文化十街","SECT":" ","MAREA":" ","LANE":"１０巷","ALLEY":"３弄","HOUSE_NO":"５號","E_COORD97":176595.51999999999,"N_COORD97":2541293.2599999998,"ADDRESS":"文化十街１０巷３弄５號","OBJECTID":10383},"geometry":{"x":176595.52000000142,"y":2541293.2600000035}},{"attributes":{"ID":10384,"DIS_CODE":0,"TOWNNAME":"歸仁區","LI":"看東里","LIN":"13鄰","STREET":"忠孝南路","SECT":" ","MAREA":" ","LANE":"２５巷","ALLEY":"５９弄","HOUSE_NO":"１號","E_COORD97":178602,"N_COORD97":2540484.4700000002,"ADDRESS":"忠孝南路２５巷５９弄１號","OBJECTID":10384},"geometry":{"x":178602.00000000093,"y":2540484.4700000007}},{"attributes":{"ID":10385,"DIS_CODE":0,"TOWNNAME":"歸仁區","LI":"南保里","LIN":"13鄰","STREET":"文化十街","SECT":" ","MAREA":" ","LANE":"１０巷","ALLEY":"３弄","HOUSE_NO":"６號","E_COORD97":176610.92000000001,"N_COORD97":2541284.2599999998,"ADDRESS":"文化十街１０巷３弄６號","OBJECTID":10385},"geometry":{"x":176610.91999999993,"y":2541284.2600000016}},{"attributes":{"ID":10386,"DIS_CODE":0,"TOWNNAME":"安南區","LI":"州南里","LIN":"13鄰","STREET":"安和路","SECT":"五段","MAREA":" ","LANE":" ","ALLEY":" ","HOUSE_NO":"６６號","E_COORD97":169947.94,"N_COORD97":2551643.2999999998,"ADDRESS":"安和路五段６６號","OBJECTID":10386},"geometry":{"x":169947.94000000041,"y":2551643.3000000007}},{"attributes":{"ID":10387,"DIS_CODE":0,"TOWNNAME":"安南區","LI":"州南里","LIN":"13鄰","STREET":"安和路","SECT":"五段","MAREA":" ","LANE":" ","ALLEY":" ","HOUSE_NO":"６８號","E_COORD97":169946.03,"N_COORD97":2551647.8900000001,"ADDRESS":"安和路五段６８號","OBJECTID":10387},"geometry":{"x":169946.03000000119,"y":2551647.8900000025}},{"attributes":{"ID":10388,"DIS_CODE":0,"TOWNNAME":"安南區","LI":"海西里","LIN":"13鄰","STREET":"海環街","SECT":" ","MAREA":" ","LANE":" ","ALLEY":" ","HOUSE_NO":"３５５號","E_COORD97":166070.88,"N_COORD97":2548869.1800000002,"ADDRESS":"海環街３５５號","OBJECTID":10388},"geometry":{"x":166070.87999999989,"y":2548869.1800000016}},{"attributes":{"ID":10389,"DIS_CODE":0,"TOWNNAME":"安南區","LI":"海西里","LIN":"13鄰","STREET":"海環街","SECT":" ","MAREA":" ","LANE":" ","ALLEY":" ","HOUSE_NO":"３５７號","E_COORD97":166069.19,"N_COORD97":2548873.1099999999,"ADDRESS":"海環街３５７號","OBJECTID":10389},"geometry":{"x":166069.19000000041,"y":2548873.1099999994}},{"attributes":{"ID":10390,"DIS_CODE":0,"TOWNNAME":"安南區","LI":"海西里","LIN":"13鄰","STREET":"海環街","SECT":" ","MAREA":" ","LANE":" ","ALLEY":" ","HOUSE_NO":"３５９號","E_COORD97":166067.5,"N_COORD97":2548877.6200000001,"ADDRESS":"海環街３５９號","OBJECTID":10390},"geometry":{"x":166067.50000000093,"y":2548877.6200000029}},{"attributes":{"ID":10391,"DIS_CODE":0,"TOWNNAME":"麻豆區","LI":"南勢里","LIN":"13鄰","STREET":" ","SECT":" ","MAREA":"南勢","LANE":" ","ALLEY":" ","HOUSE_NO":"２５號之１３","E_COORD97":174602.60000000001,"N_COORD97":2565087.3599999999,"ADDRESS":"南勢２５號之１３","OBJECTID":10391},"geometry":{"x":174602.59999999963,"y":2565087.3599999994}},{"attributes":{"ID":10392,"DIS_CODE":0,"TOWNNAME":"東區","LI":"關聖里","LIN":"20鄰","STREET":"裕信路","SECT":" ","MAREA":" ","LANE":" ","ALLEY":" ","HOUSE_NO":"２３８之７號","E_COORD97":172562.25,"N_COORD97":2542857.6200000001,"ADDRESS":"裕信路２３８之７號","OBJECTID":10392},"geometry":{"x":172562.25000000093,"y":2542857.620000001}},{"attributes":{"ID":10393,"DIS_CODE":0,"TOWNNAME":"東區","LI":"關聖里","LIN":"20鄰","STREET":"裕信路","SECT":" ","MAREA":" ","LANE":" ","ALLEY":" ","HOUSE_NO":"２３８之８號","E_COORD97":172557.07999999999,"N_COORD97":2542857.6200000001,"ADDRESS":"裕信路２３８之８號","OBJECTID":10393},"geometry":{"x":172557.08000000007,"y":2542857.620000001}},{"attributes":{"ID":10394,"DIS_CODE":0,"TOWNNAME":"東區","LI":"關聖里","LIN":"20鄰","STREET":"裕信路","SECT":" ","MAREA":" ","LANE":" ","ALLEY":" ","HOUSE_NO":"２３８之９號","E_COORD97":172550.88,"N_COORD97":2542857.48,"ADDRESS":"裕信路２３８之９號","OBJECTID":10394},"geometry":{"x":172550.88000000082,"y":2542857.4800000004}},{"attributes":{"ID":10395,"DIS_CODE":0,"TOWNNAME":"東區","LI":"關聖里","LIN":"20鄰","STREET":"裕信路","SECT":" ","MAREA":" ","LANE":" ","ALLEY":" ","HOUSE_NO":"２３８號","E_COORD97":172589.56,"N_COORD97":2542857.0299999998,"ADDRESS":"裕信路２３８號","OBJECTID":10395},"geometry":{"x":172589.56000000145,"y":2542857.0300000031}},{"attributes":{"ID":10396,"DIS_CODE":0,"TOWNNAME":"善化區","LI":"東關里","LIN":"20鄰","STREET":"保安街","SECT":" ","MAREA":" ","LANE":" ","ALLEY":" ","HOUSE_NO":"１２號","E_COORD97":177546.20999999999,"N_COORD97":2559063.02,"ADDRESS":"保安街１２號","OBJECTID":10396},"geometry":{"x":177546.21000000089,"y":2559063.0199999996}},{"attributes":{"ID":10397,"DIS_CODE":0,"TOWNNAME":"善化區","LI":"光文里","LIN":"20鄰","STREET":"民生路","SECT":" ","MAREA":" ","LANE":" ","ALLEY":" ","HOUSE_NO":"３４８號","E_COORD97":178058.56,"N_COORD97":2558907.7599999998,"ADDRESS":"民生路３４８號","OBJECTID":10397},"geometry":{"x":178058.56000000052,"y":2558907.7599999998}},{"attributes":{"ID":10398,"DIS_CODE":0,"TOWNNAME":"善化區","LI":"光文里","LIN":"20鄰","STREET":"和平路","SECT":" ","MAREA":" ","LANE":" ","ALLEY":" ","HOUSE_NO":"１１３號","E_COORD97":178119.60999999999,"N_COORD97":2558863.5,"ADDRESS":"和平路１１３號","OBJECTID":10398},"geometry":{"x":178119.6100000022,"y":2558863.5}},{"attributes":{"ID":10399,"DIS_CODE":0,"TOWNNAME":"善化區","LI":"光文里","LIN":"20鄰","STREET":"和平路","SECT":" ","MAREA":" ","LANE":" ","ALLEY":" ","HOUSE_NO":"１２５號","E_COORD97":178115.87,"N_COORD97":2558926.25,"ADDRESS":"和平路１２５號","OBJECTID":10399},"geometry":{"x":178115.87000000197,"y":2558926.25}},{"attributes":{"ID":10400,"DIS_CODE":0,"TOWNNAME":"善化區","LI":"光文里","LIN":"20鄰","STREET":"大成路","SECT":" ","MAREA":" ","LANE":" ","ALLEY":" ","HOUSE_NO":"３１２號","E_COORD97":178107.57000000001,"N_COORD97":2558838,"ADDRESS":"大成路３１２號","OBJECTID":10400},"geometry":{"x":178107.5700000003,"y":2558838.0000000019}}]}