{"displayFieldName":"TOWNNAME","fieldAliases":{"ID":"ID","DIS_CODE":"DIS_CODE","TOWNNAME":"TOWNNAME","LI":"LI","LIN":"LIN","STREET":"STREET","SECT":"SECT","MAREA":"MAREA","LANE":"LANE","ALLEY":"ALLEY","HOUSE_NO":"HOUSE_NO","E_COORD97":"E_COORD97","N_COORD97":"N_COORD97","ADDRESS":"ADDRESS","OBJECTID":"OBJECTID"},"geometryType":"esriGeometryPoint","spatialReference":{"wkid":102443,"latestWkid":3826},"fields":[{"name":"ID","type":"esriFieldTypeDouble","alias":"ID"},{"name":"DIS_CODE","type":"esriFieldTypeInteger","alias":"DIS_CODE"},{"name":"TOWNNAME","type":"esriFieldTypeString","alias":"TOWNNAME","length":8},{"name":"LI","type":"esriFieldTypeString","alias":"LI","length":8},{"name":"LIN","type":"esriFieldTypeString","alias":"LIN","length":12},{"name":"STREET","type":"esriFieldTypeString","alias":"STREET","length":20},{"name":"SECT","type":"esriFieldTypeString","alias":"SECT","length":8},{"name":"MAREA","type":"esriFieldTypeString","alias":"MAREA","length":12},{"name":"LANE","type":"esriFieldTypeString","alias":"LANE","length":10},{"name":"ALLEY","type":"esriFieldTypeString","alias":"ALLEY","length":10},{"name":"HOUSE_NO","type":"esriFieldTypeString","alias":"HOUSE_NO","length":20},{"name":"E_COORD97","type":"esriFieldTypeDouble","alias":"E_COORD97"},{"name":"N_COORD97","type":"esriFieldTypeDouble","alias":"N_COORD97"},{"name":"ADDRESS","type":"esriFieldTypeString","alias":"ADDRESS","length":50},{"name":"OBJECTID","type":"esriFieldTypeOID","alias":"OBJECTID"}],"features":[{"attributes":{"ID":382011,"DIS_CODE":0,"TOWNNAME":"永康區","LI":"龍潭里","LIN":"27鄰","STREET":"中山北路","SECT":" ","MAREA":" ","LANE":"４６１巷","ALLEY":" ","HOUSE_NO":"１９號","E_COORD97":175101.53,"N_COORD97":2547838.73,"ADDRESS":"中山北路４６１巷１９號","OBJECTID":382001},"geometry":{"x":175101.53000000119,"y":2547838.7300000023}},{"attributes":{"ID":382012,"DIS_CODE":0,"TOWNNAME":"永康區","LI":"\u25A0洲里","LIN":"40鄰","STREET":"正南六街","SECT":" ","MAREA":" ","LANE":"１０５巷","ALLEY":" ","HOUSE_NO":"２號","E_COORD97":170801.64999999999,"N_COORD97":2548647.7400000002,"ADDRESS":"正南六街１０５巷２號","OBJECTID":382002},"geometry":{"x":170801.6500000013,"y":2548647.7400000021}},{"attributes":{"ID":382013,"DIS_CODE":0,"TOWNNAME":"永康區","LI":"龍潭里","LIN":"14鄰","STREET":"龍橋街","SECT":" ","MAREA":" ","LANE":"９３巷","ALLEY":" ","HOUSE_NO":"９號","E_COORD97":174686.75,"N_COORD97":2548422.5600000001,"ADDRESS":"龍橋街９３巷９號","OBJECTID":382003},"geometry":{"x":174686.75,"y":2548422.5600000024}},{"attributes":{"ID":382014,"DIS_CODE":0,"TOWNNAME":"東區","LI":"龍山里","LIN":"9鄰","STREET":"東門路","SECT":"二段","MAREA":" ","LANE":"１５８巷","ALLEY":" ","HOUSE_NO":"２２號","E_COORD97":170111.98000000001,"N_COORD97":2542837.3300000001,"ADDRESS":"東門路二段１５８巷２２號","OBJECTID":382004},"geometry":{"x":170111.98000000045,"y":2542837.3300000001}},{"attributes":{"ID":382015,"DIS_CODE":0,"TOWNNAME":"東區","LI":"龍山里","LIN":"9鄰","STREET":"東門路","SECT":"二段","MAREA":" ","LANE":"１５８巷","ALLEY":" ","HOUSE_NO":"２６號","E_COORD97":170077.67000000001,"N_COORD97":2542853.75,"ADDRESS":"東門路二段１５８巷２６號","OBJECTID":382005},"geometry":{"x":170077.66999999993,"y":2542853.7500000019}},{"attributes":{"ID":382016,"DIS_CODE":0,"TOWNNAME":"東區","LI":"龍山里","LIN":"9鄰","STREET":"東門路","SECT":"二段","MAREA":" ","LANE":"１５８巷","ALLEY":" ","HOUSE_NO":"２８號","E_COORD97":170082,"N_COORD97":2542850.8700000001,"ADDRESS":"東門路二段１５８巷２８號","OBJECTID":382006},"geometry":{"x":170082.00000000093,"y":2542850.8700000029}},{"attributes":{"ID":382017,"DIS_CODE":0,"TOWNNAME":"東區","LI":"龍山里","LIN":"9鄰","STREET":"東門路","SECT":"二段","MAREA":" ","LANE":"１５８巷","ALLEY":" ","HOUSE_NO":"３０號","E_COORD97":170064.12,"N_COORD97":2542828.3999999999,"ADDRESS":"東門路二段１５８巷３０號","OBJECTID":382007},"geometry":{"x":170064.12000000104,"y":2542828.4000000041}},{"attributes":{"ID":382018,"DIS_CODE":0,"TOWNNAME":"東區","LI":"龍山里","LIN":"9鄰","STREET":"東門路","SECT":"二段","MAREA":" ","LANE":"１５８巷","ALLEY":" ","HOUSE_NO":"３２號","E_COORD97":170071.19,"N_COORD97":2542828.54,"ADDRESS":"東門路二段１５８巷３２號","OBJECTID":382008},"geometry":{"x":170071.19000000134,"y":2542828.5399999991}},{"attributes":{"ID":382019,"DIS_CODE":0,"TOWNNAME":"東區","LI":"龍山里","LIN":"9鄰","STREET":"東門路","SECT":"二段","MAREA":" ","LANE":"１５８巷","ALLEY":" ","HOUSE_NO":"３６號","E_COORD97":170068.16,"N_COORD97":2542822.21,"ADDRESS":"東門路二段１５８巷３６號","OBJECTID":382009},"geometry":{"x":170068.16000000015,"y":2542822.2100000009}},{"attributes":{"ID":382020,"DIS_CODE":0,"TOWNNAME":"東區","LI":"龍山里","LIN":"9鄰","STREET":"東門路","SECT":"二段","MAREA":" ","LANE":"１５８巷","ALLEY":" ","HOUSE_NO":"３８號","E_COORD97":170095.26000000001,"N_COORD97":2542813.4199999999,"ADDRESS":"東門路二段１５８巷３８號","OBJECTID":382010},"geometry":{"x":170095.26000000071,"y":2542813.4199999999}},{"attributes":{"ID":382021,"DIS_CODE":0,"TOWNNAME":"東區","LI":"龍山里","LIN":"9鄰","STREET":"東門路","SECT":"二段","MAREA":" ","LANE":"１５８巷","ALLEY":" ","HOUSE_NO":"４０號","E_COORD97":170084.29999999999,"N_COORD97":2542813.1299999999,"ADDRESS":"東門路二段１５８巷４０號","OBJECTID":382011},"geometry":{"x":170084.30000000168,"y":2542813.1300000008}},{"attributes":{"ID":382022,"DIS_CODE":0,"TOWNNAME":"永康區","LI":"六合里","LIN":"9鄰","STREET":"六合路","SECT":" ","MAREA":" ","LANE":"８６巷","ALLEY":" ","HOUSE_NO":"１號","E_COORD97":171162.04000000001,"N_COORD97":2545799.25,"ADDRESS":"六合路８６巷１號","OBJECTID":382012},"geometry":{"x":171162.04000000004,"y":2545799.2500000037}},{"attributes":{"ID":382023,"DIS_CODE":0,"TOWNNAME":"永康區","LI":"六合里","LIN":"9鄰","STREET":"六合路","SECT":" ","MAREA":" ","LANE":"８６巷","ALLEY":" ","HOUSE_NO":"３號","E_COORD97":171165.98999999999,"N_COORD97":2545801.75,"ADDRESS":"六合路８６巷３號","OBJECTID":382013},"geometry":{"x":171165.99000000022,"y":2545801.75}},{"attributes":{"ID":382024,"DIS_CODE":0,"TOWNNAME":"永康區","LI":"\u25A0行里","LIN":"6鄰","STREET":"新行街","SECT":" ","MAREA":" ","LANE":"３３巷","ALLEY":" ","HOUSE_NO":"４號","E_COORD97":172235.34,"N_COORD97":2548830.6699999999,"ADDRESS":"新行街３３巷４號","OBJECTID":382014},"geometry":{"x":172235.34000000171,"y":2548830.6700000037}},{"attributes":{"ID":382025,"DIS_CODE":0,"TOWNNAME":"永康區","LI":"\u25A0行里","LIN":"6鄰","STREET":"新行街","SECT":" ","MAREA":" ","LANE":"３３巷","ALLEY":" ","HOUSE_NO":"２３號","E_COORD97":172195.25,"N_COORD97":2548852.77,"ADDRESS":"新行街３３巷２３號","OBJECTID":382015},"geometry":{"x":172195.25000000186,"y":2548852.7699999996}},{"attributes":{"ID":382026,"DIS_CODE":0,"TOWNNAME":"永康區","LI":"\u25A0行里","LIN":"38鄰","STREET":"仁愛街","SECT":" ","MAREA":" ","LANE":"１３６巷","ALLEY":" ","HOUSE_NO":"２１號","E_COORD97":172222.41,"N_COORD97":2549608.02,"ADDRESS":"仁愛街１３６巷２１號","OBJECTID":382016},"geometry":{"x":172222.41000000015,"y":2549608.0200000014}},{"attributes":{"ID":382027,"DIS_CODE":0,"TOWNNAME":"永康區","LI":"\u25A0行里","LIN":"35鄰","STREET":"中正北路","SECT":" ","MAREA":" ","LANE":"１７７巷","ALLEY":" ","HOUSE_NO":"２８號","E_COORD97":172367.70999999999,"N_COORD97":2549213.2200000002,"ADDRESS":"中正北路１７７巷２８號","OBJECTID":382017},"geometry":{"x":172367.70999999996,"y":2549213.2200000007}},{"attributes":{"ID":382028,"DIS_CODE":0,"TOWNNAME":"永康區","LI":"\u25A0行里","LIN":"33鄰","STREET":"中正北路","SECT":" ","MAREA":" ","LANE":"１９巷","ALLEY":" ","HOUSE_NO":"１４號","E_COORD97":171992.54999999999,"N_COORD97":2549187.9900000002,"ADDRESS":"中正北路１９巷１４號","OBJECTID":382018},"geometry":{"x":171992.54999999981,"y":2549187.9900000039}},{"attributes":{"ID":382029,"DIS_CODE":0,"TOWNNAME":"永康區","LI":"龍潭里","LIN":"43鄰","STREET":"國民路","SECT":" ","MAREA":" ","LANE":"２３１巷","ALLEY":" ","HOUSE_NO":"５１號","E_COORD97":174610.70999999999,"N_COORD97":2547011.0699999998,"ADDRESS":"國民路２３１巷５１號","OBJECTID":382019},"geometry":{"x":174610.70999999996,"y":2547011.070000004}},{"attributes":{"ID":382030,"DIS_CODE":0,"TOWNNAME":"永康區","LI":"\u25A0行里","LIN":"43鄰","STREET":"\u25A0和街","SECT":" ","MAREA":" ","LANE":"２６３巷","ALLEY":" ","HOUSE_NO":"２５號","E_COORD97":171393.31,"N_COORD97":2548345.0800000001,"ADDRESS":"\u25A0和街２６３巷２５號","OBJECTID":382020},"geometry":{"x":171393.31000000052,"y":2548345.0800000001}},{"attributes":{"ID":382031,"DIS_CODE":0,"TOWNNAME":"永康區","LI":"\u25A0行里","LIN":"41鄰","STREET":"永安路","SECT":" ","MAREA":" ","LANE":"１６５巷","ALLEY":" ","HOUSE_NO":"１３８號","E_COORD97":172421.64000000001,"N_COORD97":2549450.0699999998,"ADDRESS":"永安路１６５巷１３８號","OBJECTID":382021},"geometry":{"x":172421.6400000006,"y":2549450.0700000022}},{"attributes":{"ID":382032,"DIS_CODE":0,"TOWNNAME":"永康區","LI":"\u25A0洲里","LIN":"24鄰","STREET":"正南二街","SECT":" ","MAREA":" ","LANE":"８６巷","ALLEY":" ","HOUSE_NO":"３６號","E_COORD97":170821.47,"N_COORD97":2548535.9900000002,"ADDRESS":"正南二街８６巷３６號","OBJECTID":382022},"geometry":{"x":170821.46999999974,"y":2548535.9900000002}},{"attributes":{"ID":382033,"DIS_CODE":0,"TOWNNAME":"永康區","LI":"\u25A0行里","LIN":"24鄰","STREET":"中正南路","SECT":" ","MAREA":" ","LANE":"５９２巷","ALLEY":" ","HOUSE_NO":"１３號","E_COORD97":171509.95000000001,"N_COORD97":2548667.4500000002,"ADDRESS":"中正南路５９２巷１３號","OBJECTID":382023},"geometry":{"x":171509.95000000112,"y":2548667.4499999993}},{"attributes":{"ID":382034,"DIS_CODE":0,"TOWNNAME":"永康區","LI":"\u25A0行里","LIN":"33鄰","STREET":"中正北路","SECT":" ","MAREA":" ","LANE":"１９巷","ALLEY":" ","HOUSE_NO":"５號","E_COORD97":171968.07000000001,"N_COORD97":2549156.2400000002,"ADDRESS":"中正北路１９巷５號","OBJECTID":382024},"geometry":{"x":171968.07000000216,"y":2549156.2400000021}},{"attributes":{"ID":382035,"DIS_CODE":0,"TOWNNAME":"永康區","LI":"\u25A0行里","LIN":"30鄰","STREET":"竹林街","SECT":" ","MAREA":" ","LANE":"１４巷","ALLEY":" ","HOUSE_NO":"７號","E_COORD97":172698.42999999999,"N_COORD97":2548993.75,"ADDRESS":"竹林街１４巷７號","OBJECTID":382025},"geometry":{"x":172698.4299999997,"y":2548993.7500000019}},{"attributes":{"ID":382036,"DIS_CODE":0,"TOWNNAME":"新化區","LI":"太平里","LIN":"9鄰","STREET":"中正路","SECT":" ","MAREA":" ","LANE":"６８６巷","ALLEY":" ","HOUSE_NO":"１８號","E_COORD97":178637.26000000001,"N_COORD97":2549573.25,"ADDRESS":"中正路６８６巷１８號","OBJECTID":382026},"geometry":{"x":178637.26000000071,"y":2549573.2500000019}},{"attributes":{"ID":382037,"DIS_CODE":0,"TOWNNAME":"新化區","LI":"太平里","LIN":"9鄰","STREET":"中正路","SECT":" ","MAREA":" ","LANE":"６８６巷","ALLEY":" ","HOUSE_NO":"２５號","E_COORD97":178667.35999999999,"N_COORD97":2549580.25,"ADDRESS":"中正路６８６巷２５號","OBJECTID":382027},"geometry":{"x":178667.36000000127,"y":2549580.2500000019}},{"attributes":{"ID":382038,"DIS_CODE":0,"TOWNNAME":"永康區","LI":"\u25A0行里","LIN":"38鄰","STREET":"仁愛街","SECT":" ","MAREA":" ","LANE":"１３６巷","ALLEY":" ","HOUSE_NO":"１５號","E_COORD97":172208.34,"N_COORD97":2549607.6099999999,"ADDRESS":"仁愛街１３６巷１５號","OBJECTID":382028},"geometry":{"x":172208.34000000078,"y":2549607.6100000013}},{"attributes":{"ID":382039,"DIS_CODE":0,"TOWNNAME":"永康區","LI":"\u25A0行里","LIN":"20鄰","STREET":"正南五街","SECT":" ","MAREA":" ","LANE":"２８９巷","ALLEY":" ","HOUSE_NO":"１００號","E_COORD97":171819.92999999999,"N_COORD97":2548318.6099999999,"ADDRESS":"正南五街２８９巷１００號","OBJECTID":382029},"geometry":{"x":171819.93000000063,"y":2548318.6100000031}},{"attributes":{"ID":382040,"DIS_CODE":0,"TOWNNAME":"永康區","LI":"\u25A0行里","LIN":"25鄰","STREET":"\u25A0和街","SECT":" ","MAREA":" ","LANE":"２５６巷","ALLEY":" ","HOUSE_NO":"６號","E_COORD97":171655.79999999999,"N_COORD97":2548378.0499999998,"ADDRESS":"\u25A0和街２５６巷６號","OBJECTID":382030},"geometry":{"x":171655.80000000168,"y":2548378.0500000045}},{"attributes":{"ID":382041,"DIS_CODE":0,"TOWNNAME":"永康區","LI":"\u25A0行里","LIN":"47鄰","STREET":"新行街","SECT":" ","MAREA":" ","LANE":"４巷","ALLEY":" ","HOUSE_NO":"４１號","E_COORD97":172313.97,"N_COORD97":2548824.79,"ADDRESS":"新行街４巷４１號","OBJECTID":382031},"geometry":{"x":172313.9700000016,"y":2548824.7899999991}},{"attributes":{"ID":382042,"DIS_CODE":0,"TOWNNAME":"永康區","LI":"甲頂里","LIN":" ","STREET":"大武街","SECT":" ","MAREA":" ","LANE":"５９７巷","ALLEY":" ","HOUSE_NO":"５２號","E_COORD97":170247.16,"N_COORD97":2546596.7400000002,"ADDRESS":"大武街５９７巷５２號","OBJECTID":382032},"geometry":{"x":170247.16000000108,"y":2546596.7400000021}},{"attributes":{"ID":382043,"DIS_CODE":0,"TOWNNAME":"永康區","LI":"\u25A0行里","LIN":"41鄰","STREET":"永安路","SECT":" ","MAREA":" ","LANE":"１６５巷","ALLEY":" ","HOUSE_NO":"１４１號","E_COORD97":172442.07999999999,"N_COORD97":2549430.8199999998,"ADDRESS":"永安路１６５巷１４１號","OBJECTID":382033},"geometry":{"x":172442.08000000007,"y":2549430.8200000022}},{"attributes":{"ID":382044,"DIS_CODE":0,"TOWNNAME":"永康區","LI":"\u25A0行里","LIN":"24鄰","STREET":"中正南路","SECT":" ","MAREA":" ","LANE":"５９２巷","ALLEY":" ","HOUSE_NO":"１５號","E_COORD97":171517.48999999999,"N_COORD97":2548660.2000000002,"ADDRESS":"中正南路５９２巷１５號","OBJECTID":382034},"geometry":{"x":171517.49000000209,"y":2548660.200000003}},{"attributes":{"ID":382045,"DIS_CODE":0,"TOWNNAME":"永康區","LI":"\u25A0行里","LIN":"9鄰","STREET":"中正路","SECT":" ","MAREA":" ","LANE":"３３７巷","ALLEY":" ","HOUSE_NO":"６號","E_COORD97":172502.70999999999,"N_COORD97":2548320.52,"ADDRESS":"中正路３３７巷６號","OBJECTID":382035},"geometry":{"x":172502.71000000089,"y":2548320.5200000014}},{"attributes":{"ID":382046,"DIS_CODE":0,"TOWNNAME":"永康區","LI":"龍潭里","LIN":"43鄰","STREET":"國民路","SECT":" ","MAREA":" ","LANE":"２３１巷","ALLEY":" ","HOUSE_NO":"３３號","E_COORD97":174585.63,"N_COORD97":2547030.3799999999,"ADDRESS":"國民路２３１巷３３號","OBJECTID":382036},"geometry":{"x":174585.62999999989,"y":2547030.379999999}},{"attributes":{"ID":382047,"DIS_CODE":0,"TOWNNAME":"永康區","LI":"龍潭里","LIN":"44鄰","STREET":"永平街","SECT":" ","MAREA":" ","LANE":"２９８巷","ALLEY":" ","HOUSE_NO":"３之１２號","E_COORD97":174661.41,"N_COORD97":2547120.04,"ADDRESS":"永平街２９８巷３之１２號","OBJECTID":382037},"geometry":{"x":174661.41000000108,"y":2547120.040000001}},{"attributes":{"ID":382048,"DIS_CODE":0,"TOWNNAME":"永康區","LI":"龍潭里","LIN":"44鄰","STREET":"中山北路","SECT":" ","MAREA":" ","LANE":"２６４巷","ALLEY":" ","HOUSE_NO":"２４２號","E_COORD97":174709.37,"N_COORD97":2547035.3399999999,"ADDRESS":"中山北路２６４巷２４２號","OBJECTID":382038},"geometry":{"x":174709.37000000104,"y":2547035.3399999999}},{"attributes":{"ID":382049,"DIS_CODE":0,"TOWNNAME":"東區","LI":"路東里","LIN":"9鄰","STREET":"林森路","SECT":"一段","MAREA":" ","LANE":"５８巷","ALLEY":" ","HOUSE_NO":"２６號","E_COORD97":169364.85000000001,"N_COORD97":2542329.6800000002,"ADDRESS":"林森路一段５８巷２６號","OBJECTID":382039},"geometry":{"x":169364.8499999987,"y":2542329.6799999997}},{"attributes":{"ID":382050,"DIS_CODE":0,"TOWNNAME":"東區","LI":"路東里","LIN":"9鄰","STREET":"林森路","SECT":"一段","MAREA":" ","LANE":"５８巷","ALLEY":" ","HOUSE_NO":"２７號","E_COORD97":169390.95999999999,"N_COORD97":2542339.9300000002,"ADDRESS":"林森路一段５８巷２７號","OBJECTID":382040},"geometry":{"x":169390.95999999996,"y":2542339.9300000016}},{"attributes":{"ID":382051,"DIS_CODE":0,"TOWNNAME":"東區","LI":"路東里","LIN":"9鄰","STREET":"林森路","SECT":"一段","MAREA":" ","LANE":"５８巷","ALLEY":" ","HOUSE_NO":"３６號","E_COORD97":169391.31,"N_COORD97":2542327.1400000001,"ADDRESS":"林森路一段５８巷３６號","OBJECTID":382041},"geometry":{"x":169391.31000000052,"y":2542327.1400000006}},{"attributes":{"ID":382052,"DIS_CODE":0,"TOWNNAME":"東區","LI":"路東里","LIN":"9鄰","STREET":"林森路","SECT":"一段","MAREA":" ","LANE":"５８巷","ALLEY":" ","HOUSE_NO":"４０號","E_COORD97":169400.41,"N_COORD97":2542328.4100000001,"ADDRESS":"林森路一段５８巷４０號","OBJECTID":382042},"geometry":{"x":169400.41000000015,"y":2542328.4100000001}},{"attributes":{"ID":382053,"DIS_CODE":0,"TOWNNAME":"東區","LI":"路東里","LIN":"9鄰","STREET":"林森路","SECT":"一段","MAREA":" ","LANE":"５８巷","ALLEY":" ","HOUSE_NO":"５號","E_COORD97":169325.03,"N_COORD97":2542348.8399999999,"ADDRESS":"林森路一段５８巷５號","OBJECTID":382043},"geometry":{"x":169325.03000000026,"y":2542348.8399999999}},{"attributes":{"ID":382054,"DIS_CODE":0,"TOWNNAME":"永康區","LI":"龍潭里","LIN":"22鄰","STREET":"龍橋街","SECT":" ","MAREA":" ","LANE":"６６巷","ALLEY":" ","HOUSE_NO":"３號","E_COORD97":174742.22,"N_COORD97":2548499.46,"ADDRESS":"龍橋街６６巷３號","OBJECTID":382044},"geometry":{"x":174742.22000000067,"y":2548499.4600000009}},{"attributes":{"ID":382055,"DIS_CODE":0,"TOWNNAME":"東區","LI":"路東里","LIN":"9鄰","STREET":"林森路","SECT":"一段","MAREA":" ","LANE":"５８巷","ALLEY":" ","HOUSE_NO":"１０號","E_COORD97":169325.70000000001,"N_COORD97":2542336.0299999998,"ADDRESS":"林森路一段５８巷１０號","OBJECTID":382045},"geometry":{"x":169325.70000000019,"y":2542336.0300000012}},{"attributes":{"ID":382056,"DIS_CODE":0,"TOWNNAME":"東區","LI":"路東里","LIN":"9鄰","STREET":"林森路","SECT":"一段","MAREA":" ","LANE":"５８巷","ALLEY":" ","HOUSE_NO":"１１號","E_COORD97":169344.09,"N_COORD97":2542344.9199999999,"ADDRESS":"林森路一段５８巷１１號","OBJECTID":382046},"geometry":{"x":169344.08999999985,"y":2542344.9199999999}},{"attributes":{"ID":382057,"DIS_CODE":0,"TOWNNAME":"東區","LI":"路東里","LIN":"9鄰","STREET":"林森路","SECT":"一段","MAREA":" ","LANE":"５８巷","ALLEY":" ","HOUSE_NO":"１２號","E_COORD97":169336.42999999999,"N_COORD97":2542331.04,"ADDRESS":"林森路一段５８巷１２號","OBJECTID":382047},"geometry":{"x":169336.43000000063,"y":2542331.0399999972}},{"attributes":{"ID":382058,"DIS_CODE":0,"TOWNNAME":"東區","LI":"路東里","LIN":"9鄰","STREET":"林森路","SECT":"一段","MAREA":" ","LANE":"５８巷","ALLEY":" ","HOUSE_NO":"１５號","E_COORD97":169354.95999999999,"N_COORD97":2542344.0299999998,"ADDRESS":"林森路一段５８巷１５號","OBJECTID":382048},"geometry":{"x":169354.96000000089,"y":2542344.0299999993}},{"attributes":{"ID":382059,"DIS_CODE":0,"TOWNNAME":"東區","LI":"路東里","LIN":"9鄰","STREET":"林森路","SECT":"一段","MAREA":" ","LANE":"５８巷","ALLEY":" ","HOUSE_NO":"１６號","E_COORD97":169334.54999999999,"N_COORD97":2542321.2400000002,"ADDRESS":"林森路一段５８巷１６號","OBJECTID":382049},"geometry":{"x":169334.54999999981,"y":2542321.2400000021}},{"attributes":{"ID":382060,"DIS_CODE":0,"TOWNNAME":"東區","LI":"路東里","LIN":"9鄰","STREET":"林森路","SECT":"一段","MAREA":" ","LANE":"５８巷","ALLEY":" ","HOUSE_NO":"１７號","E_COORD97":169361.01999999999,"N_COORD97":2542342.96,"ADDRESS":"林森路一段５８巷１７號","OBJECTID":382050},"geometry":{"x":169361.02000000048,"y":2542342.9600000009}},{"attributes":{"ID":382061,"DIS_CODE":0,"TOWNNAME":"學甲區","LI":"新達里","LIN":"9鄰","STREET":"中學路","SECT":" ","MAREA":" ","LANE":"３２巷","ALLEY":" ","HOUSE_NO":"２４號","E_COORD97":166660.66,"N_COORD97":2570764.4399999999,"ADDRESS":"中學路３２巷２４號","OBJECTID":382051},"geometry":{"x":166660.66000000015,"y":2570764.4400000013}},{"attributes":{"ID":382062,"DIS_CODE":0,"TOWNNAME":"學甲區","LI":"新達里","LIN":"9鄰","STREET":"中學路","SECT":" ","MAREA":" ","LANE":"３２巷","ALLEY":" ","HOUSE_NO":"２５號","E_COORD97":166648.72,"N_COORD97":2570770.8300000001,"ADDRESS":"中學路３２巷２５號","OBJECTID":382052},"geometry":{"x":166648.72000000067,"y":2570770.8300000001}},{"attributes":{"ID":382063,"DIS_CODE":0,"TOWNNAME":"學甲區","LI":"新達里","LIN":"9鄰","STREET":"中學路","SECT":" ","MAREA":" ","LANE":"３２巷","ALLEY":" ","HOUSE_NO":"２６號","E_COORD97":166662.59,"N_COORD97":2570768.79,"ADDRESS":"中學路３２巷２６號","OBJECTID":382053},"geometry":{"x":166662.58999999985,"y":2570768.790000001}},{"attributes":{"ID":382064,"DIS_CODE":0,"TOWNNAME":"學甲區","LI":"新達里","LIN":"9鄰","STREET":"中學路","SECT":" ","MAREA":" ","LANE":"３２巷","ALLEY":" ","HOUSE_NO":"２７號","E_COORD97":166650.60000000001,"N_COORD97":2570774.8900000001,"ADDRESS":"中學路３２巷２７號","OBJECTID":382054},"geometry":{"x":166650.59999999963,"y":2570774.8900000006}},{"attributes":{"ID":382065,"DIS_CODE":0,"TOWNNAME":"學甲區","LI":"新達里","LIN":"9鄰","STREET":"中學路","SECT":" ","MAREA":" ","LANE":"３２巷","ALLEY":" ","HOUSE_NO":"２８號","E_COORD97":166664.57999999999,"N_COORD97":2570772.9199999999,"ADDRESS":"中學路３２巷２８號","OBJECTID":382055},"geometry":{"x":166664.58000000007,"y":2570772.9200000018}},{"attributes":{"ID":382066,"DIS_CODE":0,"TOWNNAME":"學甲區","LI":"新達里","LIN":"9鄰","STREET":"中學路","SECT":" ","MAREA":" ","LANE":"３２巷","ALLEY":" ","HOUSE_NO":"２９號","E_COORD97":166652.56,"N_COORD97":2570779.29,"ADDRESS":"中學路３２巷２９號","OBJECTID":382056},"geometry":{"x":166652.55999999959,"y":2570779.290000001}},{"attributes":{"ID":382067,"DIS_CODE":0,"TOWNNAME":"學甲區","LI":"新達里","LIN":"9鄰","STREET":"中學路","SECT":" ","MAREA":" ","LANE":"３２巷","ALLEY":" ","HOUSE_NO":"２號","E_COORD97":166639.28,"N_COORD97":2570716.1499999999,"ADDRESS":"中學路３２巷２號","OBJECTID":382057},"geometry":{"x":166639.28000000119,"y":2570716.1500000041}},{"attributes":{"ID":382068,"DIS_CODE":0,"TOWNNAME":"學甲區","LI":"新達里","LIN":"9鄰","STREET":"中學路","SECT":" ","MAREA":" ","LANE":"３２巷","ALLEY":" ","HOUSE_NO":"３０號","E_COORD97":166666.22,"N_COORD97":2570777.2799999998,"ADDRESS":"中學路３２巷３０號","OBJECTID":382058},"geometry":{"x":166666.22000000067,"y":2570777.2799999993}},{"attributes":{"ID":382069,"DIS_CODE":0,"TOWNNAME":"學甲區","LI":"新達里","LIN":"9鄰","STREET":"中學路","SECT":" ","MAREA":" ","LANE":"３２巷","ALLEY":" ","HOUSE_NO":"３１號","E_COORD97":166654.51999999999,"N_COORD97":2570783.6800000002,"ADDRESS":"中學路３２巷３１號","OBJECTID":382059},"geometry":{"x":166654.51999999955,"y":2570783.6800000016}},{"attributes":{"ID":382070,"DIS_CODE":0,"TOWNNAME":"學甲區","LI":"新達里","LIN":"9鄰","STREET":"中學路","SECT":" ","MAREA":" ","LANE":"３２巷","ALLEY":" ","HOUSE_NO":"３２號","E_COORD97":166668.20999999999,"N_COORD97":2570781.6699999999,"ADDRESS":"中學路３２巷３２號","OBJECTID":382060},"geometry":{"x":166668.21000000089,"y":2570781.6699999999}},{"attributes":{"ID":382071,"DIS_CODE":0,"TOWNNAME":"學甲區","LI":"新達里","LIN":"9鄰","STREET":"中學路","SECT":" ","MAREA":" ","LANE":"３２巷","ALLEY":" ","HOUSE_NO":"３３號","E_COORD97":166656.57999999999,"N_COORD97":2570788.0600000001,"ADDRESS":"中學路３２巷３３號","OBJECTID":382061},"geometry":{"x":166656.57999999914,"y":2570788.0600000042}},{"attributes":{"ID":382072,"DIS_CODE":0,"TOWNNAME":"學甲區","LI":"新達里","LIN":"9鄰","STREET":"中學路","SECT":" ","MAREA":" ","LANE":"３２巷","ALLEY":" ","HOUSE_NO":"３４號","E_COORD97":166670.20000000001,"N_COORD97":2570786.0600000001,"ADDRESS":"中學路３２巷３４號","OBJECTID":382062},"geometry":{"x":166670.20000000112,"y":2570786.0600000024}},{"attributes":{"ID":382073,"DIS_CODE":0,"TOWNNAME":"學甲區","LI":"新達里","LIN":"9鄰","STREET":"中學路","SECT":" ","MAREA":" ","LANE":"３２巷","ALLEY":" ","HOUSE_NO":"３５號","E_COORD97":166658.53,"N_COORD97":2570792.4500000002,"ADDRESS":"中學路３２巷３５號","OBJECTID":382063},"geometry":{"x":166658.53000000026,"y":2570792.4500000011}},{"attributes":{"ID":382074,"DIS_CODE":0,"TOWNNAME":"學甲區","LI":"新達里","LIN":"9鄰","STREET":"中學路","SECT":" ","MAREA":" ","LANE":"３２巷","ALLEY":" ","HOUSE_NO":"３６號","E_COORD97":166672.19,"N_COORD97":2570790.4500000002,"ADDRESS":"中學路３２巷３６號","OBJECTID":382064},"geometry":{"x":166672.19000000134,"y":2570790.4499999993}},{"attributes":{"ID":382075,"DIS_CODE":0,"TOWNNAME":"學甲區","LI":"新達里","LIN":"9鄰","STREET":"中學路","SECT":" ","MAREA":" ","LANE":"３２巷","ALLEY":" ","HOUSE_NO":"３７號","E_COORD97":166660.48999999999,"N_COORD97":2570796.8300000001,"ADDRESS":"中學路３２巷３７號","OBJECTID":382065},"geometry":{"x":166660.49000000022,"y":2570796.8300000019}},{"attributes":{"ID":382076,"DIS_CODE":0,"TOWNNAME":"學甲區","LI":"新達里","LIN":"9鄰","STREET":"中學路","SECT":" ","MAREA":" ","LANE":"３２巷","ALLEY":" ","HOUSE_NO":"３８號","E_COORD97":166674.17999999999,"N_COORD97":2570794.8399999999,"ADDRESS":"中學路３２巷３８號","OBJECTID":382066},"geometry":{"x":166674.18000000156,"y":2570794.8399999999}},{"attributes":{"ID":382077,"DIS_CODE":0,"TOWNNAME":"學甲區","LI":"新達里","LIN":"9鄰","STREET":"中學路","SECT":" ","MAREA":" ","LANE":"３２巷","ALLEY":" ","HOUSE_NO":"３９號","E_COORD97":166662.45000000001,"N_COORD97":2570801.2400000002,"ADDRESS":"中學路３２巷３９號","OBJECTID":382067},"geometry":{"x":166662.45000000019,"y":2570801.2400000021}},{"attributes":{"ID":382078,"DIS_CODE":0,"TOWNNAME":"學甲區","LI":"新達里","LIN":"9鄰","STREET":"中學路","SECT":" ","MAREA":" ","LANE":"３２巷","ALLEY":" ","HOUSE_NO":"４０號","E_COORD97":166676.17000000001,"N_COORD97":2570799.23,"ADDRESS":"中學路３２巷４０號","OBJECTID":382068},"geometry":{"x":166676.17000000179,"y":2570799.2300000004}},{"attributes":{"ID":382079,"DIS_CODE":0,"TOWNNAME":"學甲區","LI":"新達里","LIN":"9鄰","STREET":"中學路","SECT":" ","MAREA":" ","LANE":"３２巷","ALLEY":" ","HOUSE_NO":"４１號","E_COORD97":166664.78,"N_COORD97":2570805.5499999998,"ADDRESS":"中學路３２巷４１號","OBJECTID":382069},"geometry":{"x":166664.78000000119,"y":2570805.5500000045}},{"attributes":{"ID":382080,"DIS_CODE":0,"TOWNNAME":"學甲區","LI":"新達里","LIN":"9鄰","STREET":"中學路","SECT":" ","MAREA":" ","LANE":"３２巷","ALLEY":" ","HOUSE_NO":"４２號","E_COORD97":166678.16,"N_COORD97":2570803.6200000001,"ADDRESS":"中學路３２巷４２號","OBJECTID":382070},"geometry":{"x":166678.15999999922,"y":2570803.620000001}},{"attributes":{"ID":382081,"DIS_CODE":0,"TOWNNAME":"學甲區","LI":"新達里","LIN":"9鄰","STREET":"中學路","SECT":" ","MAREA":" ","LANE":"３２巷","ALLEY":" ","HOUSE_NO":"４３號","E_COORD97":166666.73999999999,"N_COORD97":2570809.9500000002,"ADDRESS":"中學路３２巷４３號","OBJECTID":382071},"geometry":{"x":166666.74000000115,"y":2570809.9499999993}},{"attributes":{"ID":382082,"DIS_CODE":0,"TOWNNAME":"學甲區","LI":"新達里","LIN":"9鄰","STREET":"中學路","SECT":" ","MAREA":" ","LANE":"３２巷","ALLEY":" ","HOUSE_NO":"４４號","E_COORD97":166680.14999999999,"N_COORD97":2570808.0099999998,"ADDRESS":"中學路３２巷４４號","OBJECTID":382072},"geometry":{"x":166680.14999999944,"y":2570808.0100000035}},{"attributes":{"ID":382083,"DIS_CODE":0,"TOWNNAME":"學甲區","LI":"新達里","LIN":"9鄰","STREET":"中學路","SECT":" ","MAREA":" ","LANE":"３２巷","ALLEY":" ","HOUSE_NO":"４６號","E_COORD97":166682.14000000001,"N_COORD97":2570812.3999999999,"ADDRESS":"中學路３２巷４６號","OBJECTID":382073},"geometry":{"x":166682.13999999966,"y":2570812.4000000004}},{"attributes":{"ID":382084,"DIS_CODE":0,"TOWNNAME":"學甲區","LI":"新達里","LIN":"9鄰","STREET":"中學路","SECT":" ","MAREA":" ","LANE":"３２巷","ALLEY":" ","HOUSE_NO":"４８號","E_COORD97":166684.13,"N_COORD97":2570816.79,"ADDRESS":"中學路３２巷４８號","OBJECTID":382074},"geometry":{"x":166684.12999999989,"y":2570816.790000001}},{"attributes":{"ID":382085,"DIS_CODE":0,"TOWNNAME":"學甲區","LI":"新達里","LIN":"9鄰","STREET":"中學路","SECT":" ","MAREA":" ","LANE":"３２巷","ALLEY":" ","HOUSE_NO":"４號","E_COORD97":166641.23999999999,"N_COORD97":2570720.6200000001,"ADDRESS":"中學路３２巷４號","OBJECTID":382075},"geometry":{"x":166641.24000000115,"y":2570720.6200000048}},{"attributes":{"ID":382086,"DIS_CODE":0,"TOWNNAME":"學甲區","LI":"新達里","LIN":"9鄰","STREET":"中學路","SECT":" ","MAREA":" ","LANE":"３２巷","ALLEY":" ","HOUSE_NO":"５號","E_COORD97":166628.89999999999,"N_COORD97":2570726.7599999998,"ADDRESS":"中學路３２巷５號","OBJECTID":382076},"geometry":{"x":166628.90000000037,"y":2570726.7599999998}},{"attributes":{"ID":382087,"DIS_CODE":0,"TOWNNAME":"學甲區","LI":"新達里","LIN":"9鄰","STREET":"中學路","SECT":" ","MAREA":" ","LANE":"３２巷","ALLEY":" ","HOUSE_NO":"６號","E_COORD97":166643.20000000001,"N_COORD97":2570725.0899999999,"ADDRESS":"中學路３２巷６號","OBJECTID":382077},"geometry":{"x":166643.20000000112,"y":2570725.0899999999}},{"attributes":{"ID":382088,"DIS_CODE":0,"TOWNNAME":"學甲區","LI":"新達里","LIN":"9鄰","STREET":"中學路","SECT":" ","MAREA":" ","LANE":"３２巷","ALLEY":" ","HOUSE_NO":"７號","E_COORD97":166630.97,"N_COORD97":2570731.2599999998,"ADDRESS":"中學路３２巷７號","OBJECTID":382078},"geometry":{"x":166630.96999999974,"y":2570731.2599999998}},{"attributes":{"ID":382089,"DIS_CODE":0,"TOWNNAME":"學甲區","LI":"新達里","LIN":"9鄰","STREET":"中學路","SECT":" ","MAREA":" ","LANE":"３３巷","ALLEY":" ","HOUSE_NO":"１１號","E_COORD97":166599.20999999999,"N_COORD97":2570651.2200000002,"ADDRESS":"中學路３３巷１１號","OBJECTID":382079},"geometry":{"x":166599.20999999996,"y":2570651.2200000007}},{"attributes":{"ID":382090,"DIS_CODE":0,"TOWNNAME":"學甲區","LI":"新達里","LIN":"9鄰","STREET":"中學路","SECT":" ","MAREA":" ","LANE":"３３巷","ALLEY":" ","HOUSE_NO":"１２號","E_COORD97":166617.20999999999,"N_COORD97":2570648.1499999999,"ADDRESS":"中學路３３巷１２號","OBJECTID":382080},"geometry":{"x":166617.21000000089,"y":2570648.1500000041}},{"attributes":{"ID":382091,"DIS_CODE":0,"TOWNNAME":"學甲區","LI":"新達里","LIN":"9鄰","STREET":"中學路","SECT":" ","MAREA":" ","LANE":"３３巷","ALLEY":" ","HOUSE_NO":"１３號","E_COORD97":166598.54999999999,"N_COORD97":2570646.9500000002,"ADDRESS":"中學路３３巷１３號","OBJECTID":382081},"geometry":{"x":166598.54999999981,"y":2570646.9499999993}},{"attributes":{"ID":382092,"DIS_CODE":0,"TOWNNAME":"學甲區","LI":"新達里","LIN":"9鄰","STREET":"中學路","SECT":" ","MAREA":" ","LANE":"３３巷","ALLEY":" ","HOUSE_NO":"１４號","E_COORD97":166616.48999999999,"N_COORD97":2570643.9100000001,"ADDRESS":"中學路３３巷１４號","OBJECTID":382082},"geometry":{"x":166616.49000000022,"y":2570643.910000002}},{"attributes":{"ID":382093,"DIS_CODE":0,"TOWNNAME":"學甲區","LI":"新達里","LIN":"9鄰","STREET":"中學路","SECT":" ","MAREA":" ","LANE":"３３巷","ALLEY":" ","HOUSE_NO":"１５號","E_COORD97":166597.89000000001,"N_COORD97":2570642.6899999999,"ADDRESS":"中學路３３巷１５號","OBJECTID":382083},"geometry":{"x":166597.88999999966,"y":2570642.6899999995}},{"attributes":{"ID":382094,"DIS_CODE":0,"TOWNNAME":"學甲區","LI":"新達里","LIN":"9鄰","STREET":"中學路","SECT":" ","MAREA":" ","LANE":"３３巷","ALLEY":" ","HOUSE_NO":"１６號","E_COORD97":166615.78,"N_COORD97":2570639.6600000001,"ADDRESS":"中學路３３巷１６號","OBJECTID":382084},"geometry":{"x":166615.78000000026,"y":2570639.6600000001}},{"attributes":{"ID":382095,"DIS_CODE":0,"TOWNNAME":"學甲區","LI":"新達里","LIN":"9鄰","STREET":"中學路","SECT":" ","MAREA":" ","LANE":"３３巷","ALLEY":" ","HOUSE_NO":"１７號","E_COORD97":166597.23000000001,"N_COORD97":2570638.4300000002,"ADDRESS":"中學路３３巷１７號","OBJECTID":382085},"geometry":{"x":166597.23000000138,"y":2570638.4299999997}},{"attributes":{"ID":382096,"DIS_CODE":0,"TOWNNAME":"學甲區","LI":"新達里","LIN":"9鄰","STREET":"中學路","SECT":" ","MAREA":" ","LANE":"３３巷","ALLEY":" ","HOUSE_NO":"１８號","E_COORD97":166615.06,"N_COORD97":2570635.4199999999,"ADDRESS":"中學路３３巷１８號","OBJECTID":382086},"geometry":{"x":166615.05999999959,"y":2570635.4199999999}},{"attributes":{"ID":382097,"DIS_CODE":0,"TOWNNAME":"學甲區","LI":"新達里","LIN":"9鄰","STREET":"中學路","SECT":" ","MAREA":" ","LANE":"３３巷","ALLEY":" ","HOUSE_NO":"１９號","E_COORD97":166596.57999999999,"N_COORD97":2570634.1600000001,"ADDRESS":"中學路３３巷１９號","OBJECTID":382087},"geometry":{"x":166596.58000000007,"y":2570634.1599999983}},{"attributes":{"ID":382098,"DIS_CODE":0,"TOWNNAME":"學甲區","LI":"新達里","LIN":"9鄰","STREET":"中學路","SECT":" ","MAREA":" ","LANE":"３３巷","ALLEY":" ","HOUSE_NO":"１號","E_COORD97":166602.48999999999,"N_COORD97":2570672.54,"ADDRESS":"中學路３３巷１號","OBJECTID":382088},"geometry":{"x":166602.49000000022,"y":2570672.540000001}},{"attributes":{"ID":382099,"DIS_CODE":0,"TOWNNAME":"學甲區","LI":"新達里","LIN":"9鄰","STREET":"中學路","SECT":" ","MAREA":" ","LANE":"３３巷","ALLEY":" ","HOUSE_NO":"２０號","E_COORD97":166614.34,"N_COORD97":2570631.1699999999,"ADDRESS":"中學路３３巷２０號","OBJECTID":382089},"geometry":{"x":166614.34000000078,"y":2570631.1700000018}},{"attributes":{"ID":382100,"DIS_CODE":0,"TOWNNAME":"學甲區","LI":"新達里","LIN":"9鄰","STREET":"中學路","SECT":" ","MAREA":" ","LANE":"３３巷","ALLEY":" ","HOUSE_NO":"２號","E_COORD97":166620.79000000001,"N_COORD97":2570669.3799999999,"ADDRESS":"中學路３３巷２號","OBJECTID":382090},"geometry":{"x":166620.79000000004,"y":2570669.3800000008}},{"attributes":{"ID":382101,"DIS_CODE":0,"TOWNNAME":"永康區","LI":"龍潭里","LIN":"38鄰","STREET":"中山北路","SECT":" ","MAREA":" ","LANE":"１６４巷","ALLEY":" ","HOUSE_NO":"８６號","E_COORD97":174463.10999999999,"N_COORD97":2547392.6400000001,"ADDRESS":"中山北路１６４巷８６號","OBJECTID":382091},"geometry":{"x":174463.1100000022,"y":2547392.6400000006}},{"attributes":{"ID":382102,"DIS_CODE":0,"TOWNNAME":"永康區","LI":"蔦松里","LIN":"1鄰","STREET":"蔦松二街","SECT":" ","MAREA":" ","LANE":"３９巷","ALLEY":" ","HOUSE_NO":"２號","E_COORD97":173657.89000000001,"N_COORD97":2549235,"ADDRESS":"蔦松二街３９巷２號","OBJECTID":382092},"geometry":{"x":173657.88999999966,"y":2549234.9999999981}},{"attributes":{"ID":382103,"DIS_CODE":0,"TOWNNAME":"學甲區","LI":"新達里","LIN":"9鄰","STREET":"中學路","SECT":" ","MAREA":" ","LANE":"３３巷","ALLEY":" ","HOUSE_NO":"３號","E_COORD97":166601.84,"N_COORD97":2570668.27,"ADDRESS":"中學路３３巷３號","OBJECTID":382093},"geometry":{"x":166601.83999999985,"y":2570668.2700000014}},{"attributes":{"ID":382104,"DIS_CODE":0,"TOWNNAME":"學甲區","LI":"新達里","LIN":"9鄰","STREET":"中學路","SECT":" ","MAREA":" ","LANE":"３３巷","ALLEY":" ","HOUSE_NO":"５號","E_COORD97":166601.17999999999,"N_COORD97":2570664.0099999998,"ADDRESS":"中學路３３巷５號","OBJECTID":382094},"geometry":{"x":166601.1799999997,"y":2570664.0099999998}},{"attributes":{"ID":382105,"DIS_CODE":0,"TOWNNAME":"學甲區","LI":"新達里","LIN":"9鄰","STREET":"中學路","SECT":" ","MAREA":" ","LANE":"３３巷","ALLEY":" ","HOUSE_NO":"６號","E_COORD97":166619.35999999999,"N_COORD97":2570660.8900000001,"ADDRESS":"中學路３３巷６號","OBJECTID":382095},"geometry":{"x":166619.3599999994,"y":2570660.8900000025}},{"attributes":{"ID":382106,"DIS_CODE":0,"TOWNNAME":"學甲區","LI":"新達里","LIN":"9鄰","STREET":"中學路","SECT":" ","MAREA":" ","LANE":"３３巷","ALLEY":" ","HOUSE_NO":"７號","E_COORD97":166600.51999999999,"N_COORD97":2570659.7400000002,"ADDRESS":"中學路３３巷７號","OBJECTID":382096},"geometry":{"x":166600.52000000142,"y":2570659.7400000002}},{"attributes":{"ID":382107,"DIS_CODE":0,"TOWNNAME":"學甲區","LI":"新達里","LIN":"9鄰","STREET":"中學路","SECT":" ","MAREA":" ","LANE":"３３巷","ALLEY":" ","HOUSE_NO":"８號","E_COORD97":166618.64000000001,"N_COORD97":2570656.6499999999,"ADDRESS":"中學路３３巷８號","OBJECTID":382097},"geometry":{"x":166618.64000000153,"y":2570656.6500000022}},{"attributes":{"ID":382108,"DIS_CODE":0,"TOWNNAME":"學甲區","LI":"新達里","LIN":"9鄰","STREET":"中學路","SECT":" ","MAREA":" ","LANE":"３３巷","ALLEY":" ","HOUSE_NO":"９號","E_COORD97":166599.85999999999,"N_COORD97":2570655.48,"ADDRESS":"中學路３３巷９號","OBJECTID":382098},"geometry":{"x":166599.86000000127,"y":2570655.4800000004}},{"attributes":{"ID":382109,"DIS_CODE":0,"TOWNNAME":"永康區","LI":"龍潭里","LIN":"2鄰","STREET":"龍潭街","SECT":" ","MAREA":" ","LANE":"８９巷","ALLEY":" ","HOUSE_NO":"３號","E_COORD97":174801.70999999999,"N_COORD97":2548081.8100000001,"ADDRESS":"龍潭街８９巷３號","OBJECTID":382099},"geometry":{"x":174801.71000000089,"y":2548081.8100000024}},{"attributes":{"ID":382110,"DIS_CODE":0,"TOWNNAME":"永康區","LI":"網寮里","LIN":"15鄰","STREET":"永勝街","SECT":" ","MAREA":" ","LANE":"２４８巷","ALLEY":" ","HOUSE_NO":"７號","E_COORD97":173407.42000000001,"N_COORD97":2546640.0099999998,"ADDRESS":"永勝街２４８巷７號","OBJECTID":382100},"geometry":{"x":173407.41999999993,"y":2546640.0099999998}},{"attributes":{"ID":382111,"DIS_CODE":0,"TOWNNAME":"永康區","LI":"新樹里","LIN":"4鄰","STREET":"富強路","SECT":"二段","MAREA":" ","LANE":"３９８巷","ALLEY":" ","HOUSE_NO":"４８號","E_COORD97":175671.20999999999,"N_COORD97":2547633.1400000001,"ADDRESS":"富強路二段３９８巷４８號","OBJECTID":382101},"geometry":{"x":175671.21000000089,"y":2547633.1400000006}},{"attributes":{"ID":382112,"DIS_CODE":0,"TOWNNAME":"永康區","LI":"龍潭里","LIN":"39鄰","STREET":"永明街","SECT":" ","MAREA":" ","LANE":"２７３巷","ALLEY":" ","HOUSE_NO":"６號","E_COORD97":174672.48999999999,"N_COORD97":2547232.4700000002,"ADDRESS":"永明街２７３巷６號","OBJECTID":382102},"geometry":{"x":174672.49000000115,"y":2547232.4700000044}},{"attributes":{"ID":382113,"DIS_CODE":0,"TOWNNAME":"永康區","LI":"龍潭里","LIN":"44鄰","STREET":"永平街","SECT":" ","MAREA":" ","LANE":"２９８巷","ALLEY":" ","HOUSE_NO":"１１之１８號","E_COORD97":174654.87,"N_COORD97":2547150.1899999999,"ADDRESS":"永平街２９８巷１１之１８號","OBJECTID":382103},"geometry":{"x":174654.87000000104,"y":2547150.1899999995}},{"attributes":{"ID":382114,"DIS_CODE":0,"TOWNNAME":"永康區","LI":"網寮里","LIN":"12鄰","STREET":"永二街","SECT":" ","MAREA":" ","LANE":"２４４巷","ALLEY":" ","HOUSE_NO":"４９號","E_COORD97":173264.59,"N_COORD97":2546576.96,"ADDRESS":"永二街２４４巷４９號","OBJECTID":382104},"geometry":{"x":173264.59000000078,"y":2546576.9600000009}},{"attributes":{"ID":382115,"DIS_CODE":0,"TOWNNAME":"永康區","LI":"網寮里","LIN":"12鄰","STREET":"永二街","SECT":" ","MAREA":" ","LANE":"２４４巷","ALLEY":" ","HOUSE_NO":"２７號","E_COORD97":173268.73000000001,"N_COORD97":2546520.9700000002,"ADDRESS":"永二街２４４巷２７號","OBJECTID":382105},"geometry":{"x":173268.73000000045,"y":2546520.9700000025}},{"attributes":{"ID":382116,"DIS_CODE":0,"TOWNNAME":"學甲區","LI":"新達里","LIN":"9鄰","STREET":"中學路","SECT":" ","MAREA":" ","LANE":"１６巷","ALLEY":" ","HOUSE_NO":"１０號","E_COORD97":166684.57999999999,"N_COORD97":2570724.25,"ADDRESS":"中學路１６巷１０號","OBJECTID":382106},"geometry":{"x":166684.58000000101,"y":2570724.25}},{"attributes":{"ID":382117,"DIS_CODE":0,"TOWNNAME":"學甲區","LI":"新達里","LIN":"9鄰","STREET":"中學路","SECT":" ","MAREA":" ","LANE":"１６巷","ALLEY":" ","HOUSE_NO":"１１號","E_COORD97":166664.87,"N_COORD97":2570730.9500000002,"ADDRESS":"中學路１６巷１１號","OBJECTID":382107},"geometry":{"x":166664.87000000197,"y":2570730.9500000011}},{"attributes":{"ID":382118,"DIS_CODE":0,"TOWNNAME":"學甲區","LI":"新達里","LIN":"9鄰","STREET":"中學路","SECT":" ","MAREA":" ","LANE":"１６巷","ALLEY":" ","HOUSE_NO":"１２號","E_COORD97":166686.17000000001,"N_COORD97":2570727.9100000001,"ADDRESS":"中學路１６巷１２號","OBJECTID":382108},"geometry":{"x":166686.16999999993,"y":2570727.9100000039}},{"attributes":{"ID":382119,"DIS_CODE":0,"TOWNNAME":"學甲區","LI":"新達里","LIN":"9鄰","STREET":"中學路","SECT":" ","MAREA":" ","LANE":"１６巷","ALLEY":" ","HOUSE_NO":"１３號","E_COORD97":166666.42000000001,"N_COORD97":2570734.5600000001,"ADDRESS":"中學路１６巷１３號","OBJECTID":382109},"geometry":{"x":166666.42000000086,"y":2570734.5600000024}},{"attributes":{"ID":382120,"DIS_CODE":0,"TOWNNAME":"學甲區","LI":"新達里","LIN":"9鄰","STREET":"中學路","SECT":" ","MAREA":" ","LANE":"１６巷","ALLEY":" ","HOUSE_NO":"１４號","E_COORD97":166687.76000000001,"N_COORD97":2570731.5600000001,"ADDRESS":"中學路１６巷１４號","OBJECTID":382110},"geometry":{"x":166687.76000000071,"y":2570731.5600000024}},{"attributes":{"ID":382121,"DIS_CODE":0,"TOWNNAME":"學甲區","LI":"新達里","LIN":"9鄰","STREET":"中學路","SECT":" ","MAREA":" ","LANE":"１６巷","ALLEY":" ","HOUSE_NO":"１５號","E_COORD97":166667.97,"N_COORD97":2570738.1800000002,"ADDRESS":"中學路１６巷１５號","OBJECTID":382111},"geometry":{"x":166667.97000000067,"y":2570738.1799999997}},{"attributes":{"ID":382122,"DIS_CODE":0,"TOWNNAME":"學甲區","LI":"新達里","LIN":"9鄰","STREET":"中學路","SECT":" ","MAREA":" ","LANE":"１６巷","ALLEY":" ","HOUSE_NO":"１６號","E_COORD97":166689.35000000001,"N_COORD97":2570735.2200000002,"ADDRESS":"中學路１６巷１６號","OBJECTID":382112},"geometry":{"x":166689.34999999963,"y":2570735.2200000007}},{"attributes":{"ID":382123,"DIS_CODE":0,"TOWNNAME":"學甲區","LI":"新達里","LIN":"9鄰","STREET":"中學路","SECT":" ","MAREA":" ","LANE":"１６巷","ALLEY":" ","HOUSE_NO":"１７號","E_COORD97":166669.51999999999,"N_COORD97":2570741.79,"ADDRESS":"中學路１６巷１７號","OBJECTID":382113},"geometry":{"x":166669.51999999955,"y":2570741.790000001}},{"attributes":{"ID":382124,"DIS_CODE":0,"TOWNNAME":"學甲區","LI":"新達里","LIN":"9鄰","STREET":"中學路","SECT":" ","MAREA":" ","LANE":"１６巷","ALLEY":" ","HOUSE_NO":"１８號","E_COORD97":166690.94,"N_COORD97":2570738.8799999999,"ADDRESS":"中學路１６巷１８號","OBJECTID":382114},"geometry":{"x":166690.94000000134,"y":2570738.879999999}},{"attributes":{"ID":382125,"DIS_CODE":0,"TOWNNAME":"學甲區","LI":"新達里","LIN":"9鄰","STREET":"中學路","SECT":" ","MAREA":" ","LANE":"１６巷","ALLEY":" ","HOUSE_NO":"１９號","E_COORD97":166671.07000000001,"N_COORD97":2570745.4100000001,"ADDRESS":"中學路１６巷１９號","OBJECTID":382115},"geometry":{"x":166671.07000000123,"y":2570745.410000002}},{"attributes":{"ID":382126,"DIS_CODE":0,"TOWNNAME":"學甲區","LI":"新達里","LIN":"9鄰","STREET":"中學路","SECT":" ","MAREA":" ","LANE":"１６巷","ALLEY":" ","HOUSE_NO":"１號","E_COORD97":166657.10999999999,"N_COORD97":2570712.8700000001,"ADDRESS":"中學路１６巷１號","OBJECTID":382116},"geometry":{"x":166657.11000000127,"y":2570712.8700000029}},{"attributes":{"ID":382127,"DIS_CODE":0,"TOWNNAME":"學甲區","LI":"新達里","LIN":"9鄰","STREET":"中學路","SECT":" ","MAREA":" ","LANE":"１６巷","ALLEY":" ","HOUSE_NO":"２０號","E_COORD97":166692.54000000001,"N_COORD97":2570742.54,"ADDRESS":"中學路１６巷２０號","OBJECTID":382117},"geometry":{"x":166692.5400000019,"y":2570742.5400000028}},{"attributes":{"ID":382128,"DIS_CODE":0,"TOWNNAME":"學甲區","LI":"新達里","LIN":"9鄰","STREET":"中學路","SECT":" ","MAREA":" ","LANE":"１６巷","ALLEY":" ","HOUSE_NO":"２１號","E_COORD97":166672.62,"N_COORD97":2570749.02,"ADDRESS":"中學路１６巷２１號","OBJECTID":382118},"geometry":{"x":166672.62000000011,"y":2570749.0199999996}},{"attributes":{"ID":382129,"DIS_CODE":0,"TOWNNAME":"學甲區","LI":"新達里","LIN":"9鄰","STREET":"中學路","SECT":" ","MAREA":" ","LANE":"１６巷","ALLEY":" ","HOUSE_NO":"２２號","E_COORD97":166695.01999999999,"N_COORD97":2570746.8300000001,"ADDRESS":"中學路１６巷２２號","OBJECTID":382119},"geometry":{"x":166695.01999999955,"y":2570746.8300000001}},{"attributes":{"ID":382130,"DIS_CODE":0,"TOWNNAME":"學甲區","LI":"新達里","LIN":"9鄰","STREET":"中學路","SECT":" ","MAREA":" ","LANE":"１６巷","ALLEY":" ","HOUSE_NO":"２３號","E_COORD97":166674.78,"N_COORD97":2570753.3999999999,"ADDRESS":"中學路１６巷２３號","OBJECTID":382120},"geometry":{"x":166674.78000000119,"y":2570753.4000000004}},{"attributes":{"ID":382131,"DIS_CODE":0,"TOWNNAME":"學甲區","LI":"新達里","LIN":"9鄰","STREET":"中學路","SECT":" ","MAREA":" ","LANE":"１６巷","ALLEY":" ","HOUSE_NO":"２４號","E_COORD97":166697.34,"N_COORD97":2570751.9300000002,"ADDRESS":"中學路１６巷２４號","OBJECTID":382121},"geometry":{"x":166697.34000000078,"y":2570751.9300000016}},{"attributes":{"ID":382132,"DIS_CODE":0,"TOWNNAME":"學甲區","LI":"新達里","LIN":"9鄰","STREET":"中學路","SECT":" ","MAREA":" ","LANE":"１６巷","ALLEY":" ","HOUSE_NO":"２５號","E_COORD97":166677.31,"N_COORD97":2570759.4500000002,"ADDRESS":"中學路１６巷２５號","OBJECTID":382122},"geometry":{"x":166677.31000000052,"y":2570759.4499999993}},{"attributes":{"ID":382133,"DIS_CODE":0,"TOWNNAME":"學甲區","LI":"新達里","LIN":"9鄰","STREET":"中學路","SECT":" ","MAREA":" ","LANE":"１６巷","ALLEY":" ","HOUSE_NO":"２６號","E_COORD97":166699.67000000001,"N_COORD97":2570757.02,"ADDRESS":"中學路１６巷２６號","OBJECTID":382123},"geometry":{"x":166699.66999999993,"y":2570757.0200000033}},{"attributes":{"ID":382134,"DIS_CODE":0,"TOWNNAME":"永康區","LI":"復興里","LIN":"28鄰","STREET":"興國街","SECT":" ","MAREA":" ","LANE":"１８５巷","ALLEY":" ","HOUSE_NO":"６７號","E_COORD97":172356.85000000001,"N_COORD97":2544748.5899999999,"ADDRESS":"興國街１８５巷６７號","OBJECTID":382124},"geometry":{"x":172356.8499999987,"y":2544748.5899999999}},{"attributes":{"ID":382135,"DIS_CODE":0,"TOWNNAME":"永康區","LI":"龍潭里","LIN":"19鄰","STREET":"龍潭街","SECT":" ","MAREA":" ","LANE":"２４３巷","ALLEY":" ","HOUSE_NO":"４號","E_COORD97":174890.79999999999,"N_COORD97":2548452.73,"ADDRESS":"龍潭街２４３巷４號","OBJECTID":382125},"geometry":{"x":174890.80000000075,"y":2548452.7300000004}},{"attributes":{"ID":382136,"DIS_CODE":0,"TOWNNAME":"永康區","LI":"龍潭里","LIN":"44鄰","STREET":"永平街","SECT":" ","MAREA":" ","LANE":"２９８巷","ALLEY":" ","HOUSE_NO":"１１之５號","E_COORD97":174653.62,"N_COORD97":2547150.1899999999,"ADDRESS":"永平街２９８巷１１之５號","OBJECTID":382126},"geometry":{"x":174653.62000000011,"y":2547150.1899999995}},{"attributes":{"ID":382137,"DIS_CODE":0,"TOWNNAME":"永康區","LI":"蔦松里","LIN":"9鄰","STREET":"正北三路","SECT":" ","MAREA":" ","LANE":"１５０巷","ALLEY":" ","HOUSE_NO":"８號","E_COORD97":174394.32000000001,"N_COORD97":2550111.6899999999,"ADDRESS":"正北三路１５０巷８號","OBJECTID":382127},"geometry":{"x":174394.32000000123,"y":2550111.6900000032}},{"attributes":{"ID":382138,"DIS_CODE":0,"TOWNNAME":"學甲區","LI":"新達里","LIN":"9鄰","STREET":"中學路","SECT":" ","MAREA":" ","LANE":"１６巷","ALLEY":" ","HOUSE_NO":"２７號","E_COORD97":166679.47,"N_COORD97":2570764.6299999999,"ADDRESS":"中學路１６巷２７號","OBJECTID":382128},"geometry":{"x":166679.47000000067,"y":2570764.629999999}},{"attributes":{"ID":382139,"DIS_CODE":0,"TOWNNAME":"學甲區","LI":"新達里","LIN":"9鄰","STREET":"中學路","SECT":" ","MAREA":" ","LANE":"１６巷","ALLEY":" ","HOUSE_NO":"２８號","E_COORD97":166701.98999999999,"N_COORD97":2570762.1200000001,"ADDRESS":"中學路１６巷２８號","OBJECTID":382129},"geometry":{"x":166701.99000000115,"y":2570762.1200000029}},{"attributes":{"ID":382140,"DIS_CODE":0,"TOWNNAME":"學甲區","LI":"新達里","LIN":"9鄰","STREET":"中學路","SECT":" ","MAREA":" ","LANE":"１６巷","ALLEY":" ","HOUSE_NO":"２９號","E_COORD97":166681.63,"N_COORD97":2570769.8100000001,"ADDRESS":"中學路１６巷２９號","OBJECTID":382130},"geometry":{"x":166681.63000000175,"y":2570769.8100000024}},{"attributes":{"ID":382141,"DIS_CODE":0,"TOWNNAME":"學甲區","LI":"新達里","LIN":"9鄰","STREET":"中學路","SECT":" ","MAREA":" ","LANE":"１６巷","ALLEY":" ","HOUSE_NO":"２號","E_COORD97":166678.20999999999,"N_COORD97":2570709.6099999999,"ADDRESS":"中學路１６巷２號","OBJECTID":382131},"geometry":{"x":166678.21000000089,"y":2570709.6100000013}},{"attributes":{"ID":382142,"DIS_CODE":0,"TOWNNAME":"學甲區","LI":"新達里","LIN":"9鄰","STREET":"中學路","SECT":" ","MAREA":" ","LANE":"１６巷","ALLEY":" ","HOUSE_NO":"３０號","E_COORD97":166704.32000000001,"N_COORD97":2570767.2200000002,"ADDRESS":"中學路１６巷３０號","OBJECTID":382132},"geometry":{"x":166704.31999999937,"y":2570767.2200000025}},{"attributes":{"ID":382143,"DIS_CODE":0,"TOWNNAME":"學甲區","LI":"新達里","LIN":"9鄰","STREET":"中學路","SECT":" ","MAREA":" ","LANE":"１６巷","ALLEY":" ","HOUSE_NO":"３１號","E_COORD97":166683.79000000001,"N_COORD97":2570774.9900000002,"ADDRESS":"中學路１６巷３１號","OBJECTID":382133},"geometry":{"x":166683.79000000004,"y":2570774.9900000021}},{"attributes":{"ID":382144,"DIS_CODE":0,"TOWNNAME":"學甲區","LI":"新達里","LIN":"9鄰","STREET":"中學路","SECT":" ","MAREA":" ","LANE":"１６巷","ALLEY":" ","HOUSE_NO":"３２號","E_COORD97":166706.64000000001,"N_COORD97":2570772.3100000001,"ADDRESS":"中學路１６巷３２號","OBJECTID":382134},"geometry":{"x":166706.64000000153,"y":2570772.3100000005}},{"attributes":{"ID":382145,"DIS_CODE":0,"TOWNNAME":"學甲區","LI":"新達里","LIN":"9鄰","STREET":"中學路","SECT":" ","MAREA":" ","LANE":"１６巷","ALLEY":" ","HOUSE_NO":"３３號","E_COORD97":166685.94,"N_COORD97":2570780.1699999999,"ADDRESS":"中學路１６巷３３號","OBJECTID":382135},"geometry":{"x":166685.94000000041,"y":2570780.1700000018}},{"attributes":{"ID":382146,"DIS_CODE":0,"TOWNNAME":"學甲區","LI":"新達里","LIN":"9鄰","STREET":"中學路","SECT":" ","MAREA":" ","LANE":"１６巷","ALLEY":" ","HOUSE_NO":"３５號","E_COORD97":166688.10000000001,"N_COORD97":2570785.3500000001,"ADDRESS":"中學路１６巷３５號","OBJECTID":382136},"geometry":{"x":166688.09999999963,"y":2570785.3500000034}},{"attributes":{"ID":382147,"DIS_CODE":0,"TOWNNAME":"學甲區","LI":"新達里","LIN":"9鄰","STREET":"中學路","SECT":" ","MAREA":" ","LANE":"１６巷","ALLEY":" ","HOUSE_NO":"３７號","E_COORD97":166690.26000000001,"N_COORD97":2570790.5299999998,"ADDRESS":"中學路１６巷３７號","OBJECTID":382137},"geometry":{"x":166690.25999999978,"y":2570790.5300000031}},{"attributes":{"ID":382148,"DIS_CODE":0,"TOWNNAME":"學甲區","LI":"新達里","LIN":"9鄰","STREET":"中學路","SECT":" ","MAREA":" ","LANE":"１６巷","ALLEY":" ","HOUSE_NO":"３號","E_COORD97":166658.67000000001,"N_COORD97":2570716.48,"ADDRESS":"中學路１６巷３號","OBJECTID":382138},"geometry":{"x":166658.66999999993,"y":2570716.4800000004}},{"attributes":{"ID":382149,"DIS_CODE":0,"TOWNNAME":"學甲區","LI":"新達里","LIN":"9鄰","STREET":"中學路","SECT":" ","MAREA":" ","LANE":"１６巷","ALLEY":" ","HOUSE_NO":"４號","E_COORD97":166679.79999999999,"N_COORD97":2570713.27,"ADDRESS":"中學路１６巷４號","OBJECTID":382139},"geometry":{"x":166679.79999999981,"y":2570713.2699999996}},{"attributes":{"ID":382150,"DIS_CODE":0,"TOWNNAME":"學甲區","LI":"新達里","LIN":"9鄰","STREET":"中學路","SECT":" ","MAREA":" ","LANE":"１６巷","ALLEY":" ","HOUSE_NO":"５號","E_COORD97":166660.22,"N_COORD97":2570720.1000000001,"ADDRESS":"中學路１６巷５號","OBJECTID":382140},"geometry":{"x":166660.21999999974,"y":2570720.1000000015}},{"attributes":{"ID":382151,"DIS_CODE":0,"TOWNNAME":"學甲區","LI":"新達里","LIN":"9鄰","STREET":"中學路","SECT":" ","MAREA":" ","LANE":"１６巷","ALLEY":" ","HOUSE_NO":"６號","E_COORD97":166681.39000000001,"N_COORD97":2570716.9300000002,"ADDRESS":"中學路１６巷６號","OBJECTID":382141},"geometry":{"x":166681.3900000006,"y":2570716.9300000034}},{"attributes":{"ID":382152,"DIS_CODE":0,"TOWNNAME":"學甲區","LI":"新達里","LIN":"9鄰","STREET":"中學路","SECT":" ","MAREA":" ","LANE":"１６巷","ALLEY":" ","HOUSE_NO":"７號","E_COORD97":166661.76999999999,"N_COORD97":2570723.7200000002,"ADDRESS":"中學路１６巷７號","OBJECTID":382142},"geometry":{"x":166661.77000000048,"y":2570723.7200000025}},{"attributes":{"ID":382153,"DIS_CODE":0,"TOWNNAME":"學甲區","LI":"新達里","LIN":"9鄰","STREET":"中學路","SECT":" ","MAREA":" ","LANE":"１６巷","ALLEY":" ","HOUSE_NO":"８號","E_COORD97":166682.98000000001,"N_COORD97":2570720.5899999999,"ADDRESS":"中學路１６巷８號","OBJECTID":382143},"geometry":{"x":166682.98000000045,"y":2570720.5900000017}},{"attributes":{"ID":382154,"DIS_CODE":0,"TOWNNAME":"學甲區","LI":"新達里","LIN":"9鄰","STREET":"中學路","SECT":" ","MAREA":" ","LANE":"１６巷","ALLEY":" ","HOUSE_NO":"９號","E_COORD97":166663.32000000001,"N_COORD97":2570727.3300000001,"ADDRESS":"中學路１６巷９號","OBJECTID":382144},"geometry":{"x":166663.3200000003,"y":2570727.3300000001}},{"attributes":{"ID":382155,"DIS_CODE":0,"TOWNNAME":"學甲區","LI":"新達里","LIN":"9鄰","STREET":"中學路","SECT":" ","MAREA":" ","LANE":"１７巷","ALLEY":" ","HOUSE_NO":"１０號","E_COORD97":166630.20000000001,"N_COORD97":2570628.73,"ADDRESS":"中學路１７巷１０號","OBJECTID":382145},"geometry":{"x":166630.20000000019,"y":2570628.7300000023}},{"attributes":{"ID":382156,"DIS_CODE":0,"TOWNNAME":"學甲區","LI":"新達里","LIN":"9鄰","STREET":"中學路","SECT":" ","MAREA":" ","LANE":"１７巷","ALLEY":" ","HOUSE_NO":"１號","E_COORD97":166637.10999999999,"N_COORD97":2570666.9500000002,"ADDRESS":"中學路１７巷１號","OBJECTID":382146},"geometry":{"x":166637.11000000127,"y":2570666.9500000011}},{"attributes":{"ID":382157,"DIS_CODE":0,"TOWNNAME":"學甲區","LI":"新達里","LIN":"9鄰","STREET":"中學路","SECT":" ","MAREA":" ","LANE":"１７巷","ALLEY":" ","HOUSE_NO":"２號","E_COORD97":166636.31,"N_COORD97":2570662.6600000001,"ADDRESS":"中學路１７巷２號","OBJECTID":382147},"geometry":{"x":166636.31000000052,"y":2570662.660000002}},{"attributes":{"ID":382158,"DIS_CODE":0,"TOWNNAME":"學甲區","LI":"新達里","LIN":"9鄰","STREET":"中學路","SECT":" ","MAREA":" ","LANE":"１７巷","ALLEY":" ","HOUSE_NO":"３號","E_COORD97":166635.51999999999,"N_COORD97":2570658.3799999999,"ADDRESS":"中學路１７巷３號","OBJECTID":382148},"geometry":{"x":166635.51999999955,"y":2570658.379999999}},{"attributes":{"ID":382159,"DIS_CODE":0,"TOWNNAME":"學甲區","LI":"新達里","LIN":"9鄰","STREET":"中學路","SECT":" ","MAREA":" ","LANE":"１７巷","ALLEY":" ","HOUSE_NO":"４號","E_COORD97":166634.72,"N_COORD97":2570654.1000000001,"ADDRESS":"中學路１７巷４號","OBJECTID":382149},"geometry":{"x":166634.71999999974,"y":2570654.0999999996}},{"attributes":{"ID":382160,"DIS_CODE":0,"TOWNNAME":"學甲區","LI":"新達里","LIN":"9鄰","STREET":"中學路","SECT":" ","MAREA":" ","LANE":"１７巷","ALLEY":" ","HOUSE_NO":"５號","E_COORD97":166633.92000000001,"N_COORD97":2570649.8199999998,"ADDRESS":"中學路１７巷５號","OBJECTID":382150},"geometry":{"x":166633.92000000179,"y":2570649.8200000003}},{"attributes":{"ID":382161,"DIS_CODE":0,"TOWNNAME":"學甲區","LI":"新達里","LIN":"9鄰","STREET":"中學路","SECT":" ","MAREA":" ","LANE":"１７巷","ALLEY":" ","HOUSE_NO":"６號","E_COORD97":166633.13,"N_COORD97":2570645.5299999998,"ADDRESS":"中學路１７巷６號","OBJECTID":382151},"geometry":{"x":166633.13000000082,"y":2570645.5300000012}},{"attributes":{"ID":382162,"DIS_CODE":0,"TOWNNAME":"學甲區","LI":"新達里","LIN":"9鄰","STREET":"中學路","SECT":" ","MAREA":" ","LANE":"１７巷","ALLEY":" ","HOUSE_NO":"７號","E_COORD97":166632.32999999999,"N_COORD97":2570641.25,"ADDRESS":"中學路１７巷７號","OBJECTID":382152},"geometry":{"x":166632.33000000007,"y":2570641.2500000019}},{"attributes":{"ID":382163,"DIS_CODE":0,"TOWNNAME":"學甲區","LI":"新達里","LIN":"9鄰","STREET":"中學路","SECT":" ","MAREA":" ","LANE":"１７巷","ALLEY":" ","HOUSE_NO":"８號","E_COORD97":166631.54000000001,"N_COORD97":2570636.9700000002,"ADDRESS":"中學路１７巷８號","OBJECTID":382153},"geometry":{"x":166631.5400000019,"y":2570636.9700000025}},{"attributes":{"ID":382164,"DIS_CODE":0,"TOWNNAME":"永康區","LI":"龍潭里","LIN":"22鄰","STREET":"龍橋街","SECT":" ","MAREA":" ","LANE":"１３０巷","ALLEY":" ","HOUSE_NO":"２７號","E_COORD97":174719.81,"N_COORD97":2548683.25,"ADDRESS":"龍橋街１３０巷２７號","OBJECTID":382154},"geometry":{"x":174719.80999999959,"y":2548683.25}},{"attributes":{"ID":382165,"DIS_CODE":0,"TOWNNAME":"永康區","LI":"復興里","LIN":"14鄰","STREET":"復興路","SECT":" ","MAREA":" ","LANE":"２８２巷","ALLEY":" ","HOUSE_NO":"１９號","E_COORD97":172353.85000000001,"N_COORD97":2544375.6800000002,"ADDRESS":"復興路２８２巷１９號","OBJECTID":382155},"geometry":{"x":172353.85000000056,"y":2544375.6800000016}},{"attributes":{"ID":382166,"DIS_CODE":0,"TOWNNAME":"永康區","LI":"蔦松里","LIN":"1鄰","STREET":"蔦松二街","SECT":" ","MAREA":" ","LANE":"１２４巷","ALLEY":" ","HOUSE_NO":"２２號","E_COORD97":173842.20999999999,"N_COORD97":2549328.5,"ADDRESS":"蔦松二街１２４巷２２號","OBJECTID":382156},"geometry":{"x":173842.21000000089,"y":2549328.5}},{"attributes":{"ID":382167,"DIS_CODE":0,"TOWNNAME":"永康區","LI":"網寮里","LIN":"19鄰","STREET":"永二街","SECT":" ","MAREA":" ","LANE":"２２９巷","ALLEY":" ","HOUSE_NO":"１７號","E_COORD97":173445.91,"N_COORD97":2546225.1200000001,"ADDRESS":"永二街２２９巷１７號","OBJECTID":382157},"geometry":{"x":173445.91000000108,"y":2546225.1200000048}},{"attributes":{"ID":382168,"DIS_CODE":0,"TOWNNAME":"永康區","LI":"龍潭里","LIN":"44鄰","STREET":"永平街","SECT":" ","MAREA":" ","LANE":"２９８巷","ALLEY":" ","HOUSE_NO":"１之９號","E_COORD97":174660.16,"N_COORD97":2547120.04,"ADDRESS":"永平街２９８巷１之９號","OBJECTID":382158},"geometry":{"x":174660.16000000015,"y":2547120.040000001}},{"attributes":{"ID":382169,"DIS_CODE":0,"TOWNNAME":"學甲區","LI":"新達里","LIN":"9鄰","STREET":"中學路","SECT":" ","MAREA":" ","LANE":"３２巷","ALLEY":" ","HOUSE_NO":"１０號","E_COORD97":166647.12,"N_COORD97":2570734.02,"ADDRESS":"中學路３２巷１０號","OBJECTID":382159},"geometry":{"x":166647.12000000011,"y":2570734.0200000014}},{"attributes":{"ID":382170,"DIS_CODE":0,"TOWNNAME":"學甲區","LI":"新達里","LIN":"9鄰","STREET":"中學路","SECT":" ","MAREA":" ","LANE":"３２巷","ALLEY":" ","HOUSE_NO":"１１號","E_COORD97":166635.13,"N_COORD97":2570740.2400000002,"ADDRESS":"中學路３２巷１１號","OBJECTID":382160},"geometry":{"x":166635.12999999989,"y":2570740.2400000021}},{"attributes":{"ID":382171,"DIS_CODE":0,"TOWNNAME":"學甲區","LI":"新達里","LIN":"9鄰","STREET":"中學路","SECT":" ","MAREA":" ","LANE":"３２巷","ALLEY":" ","HOUSE_NO":"１２號","E_COORD97":166649.09,"N_COORD97":2570738.48,"ADDRESS":"中學路３２巷１２號","OBJECTID":382161},"geometry":{"x":166649.08999999985,"y":2570738.4800000023}},{"attributes":{"ID":382172,"DIS_CODE":0,"TOWNNAME":"學甲區","LI":"新達里","LIN":"9鄰","STREET":"中學路","SECT":" ","MAREA":" ","LANE":"３２巷","ALLEY":" ","HOUSE_NO":"１３號","E_COORD97":166636.92000000001,"N_COORD97":2570744.0800000001,"ADDRESS":"中學路３２巷１３號","OBJECTID":382162},"geometry":{"x":166636.91999999993,"y":2570744.0800000019}},{"attributes":{"ID":382173,"DIS_CODE":0,"TOWNNAME":"學甲區","LI":"新達里","LIN":"9鄰","STREET":"中學路","SECT":" ","MAREA":" ","LANE":"３２巷","ALLEY":" ","HOUSE_NO":"１４號","E_COORD97":166650.98999999999,"N_COORD97":2570742.71,"ADDRESS":"中學路３２巷１４號","OBJECTID":382163},"geometry":{"x":166650.99000000115,"y":2570742.7100000009}},{"attributes":{"ID":382174,"DIS_CODE":0,"TOWNNAME":"學甲區","LI":"新達里","LIN":"9鄰","STREET":"中學路","SECT":" ","MAREA":" ","LANE":"３２巷","ALLEY":" ","HOUSE_NO":"１５號","E_COORD97":166639.37,"N_COORD97":2570748.9399999999,"ADDRESS":"中學路３２巷１５號","OBJECTID":382164},"geometry":{"x":166639.36999999918,"y":2570748.9399999995}},{"attributes":{"ID":382175,"DIS_CODE":0,"TOWNNAME":"學甲區","LI":"新達里","LIN":"9鄰","STREET":"中學路","SECT":" ","MAREA":" ","LANE":"３２巷","ALLEY":" ","HOUSE_NO":"１６號","E_COORD97":166652.92999999999,"N_COORD97":2570747.0499999998,"ADDRESS":"中學路３２巷１６號","OBJECTID":382165},"geometry":{"x":166652.93000000063,"y":2570747.0500000007}},{"attributes":{"ID":382176,"DIS_CODE":0,"TOWNNAME":"學甲區","LI":"新達里","LIN":"9鄰","STREET":"中學路","SECT":" ","MAREA":" ","LANE":"３２巷","ALLEY":" ","HOUSE_NO":"１７號","E_COORD97":166640.76000000001,"N_COORD97":2570752.5600000001,"ADDRESS":"中學路３２巷１７號","OBJECTID":382166},"geometry":{"x":166640.75999999978,"y":2570752.5600000005}},{"attributes":{"ID":382177,"DIS_CODE":0,"TOWNNAME":"學甲區","LI":"新達里","LIN":"9鄰","STREET":"中學路","SECT":" ","MAREA":" ","LANE":"３２巷","ALLEY":" ","HOUSE_NO":"１８號","E_COORD97":166654.85999999999,"N_COORD97":2570751.3999999999,"ADDRESS":"中學路３２巷１８號","OBJECTID":382167},"geometry":{"x":166654.86000000034,"y":2570751.4000000004}},{"attributes":{"ID":382178,"DIS_CODE":0,"TOWNNAME":"學甲區","LI":"新達里","LIN":"9鄰","STREET":"中學路","SECT":" ","MAREA":" ","LANE":"３２巷","ALLEY":" ","HOUSE_NO":"１９號","E_COORD97":166642.72,"N_COORD97":2570756.9500000002,"ADDRESS":"中學路３２巷１９號","OBJECTID":382168},"geometry":{"x":166642.71999999974,"y":2570756.950000003}},{"attributes":{"ID":382179,"DIS_CODE":0,"TOWNNAME":"學甲區","LI":"新達里","LIN":"9鄰","STREET":"中學路","SECT":" ","MAREA":" ","LANE":"３２巷","ALLEY":" ","HOUSE_NO":"２０號","E_COORD97":166656.79000000001,"N_COORD97":2570755.75,"ADDRESS":"中學路３２巷２０號","OBJECTID":382169},"geometry":{"x":166656.78999999911,"y":2570755.7500000037}},{"attributes":{"ID":382180,"DIS_CODE":0,"TOWNNAME":"學甲區","LI":"新達里","LIN":"9鄰","STREET":"中學路","SECT":" ","MAREA":" ","LANE":"３２巷","ALLEY":" ","HOUSE_NO":"２１號","E_COORD97":166644.39000000001,"N_COORD97":2570761.2999999998,"ADDRESS":"中學路３２巷２１號","OBJECTID":382170},"geometry":{"x":166644.3900000006,"y":2570761.3000000007}},{"attributes":{"ID":382181,"DIS_CODE":0,"TOWNNAME":"學甲區","LI":"新達里","LIN":"9鄰","STREET":"中學路","SECT":" ","MAREA":" ","LANE":"３２巷","ALLEY":" ","HOUSE_NO":"２２號","E_COORD97":166658.73000000001,"N_COORD97":2570760.0899999999,"ADDRESS":"中學路３２巷２２號","OBJECTID":382171},"geometry":{"x":166658.73000000045,"y":2570760.0900000036}},{"attributes":{"ID":382182,"DIS_CODE":0,"TOWNNAME":"學甲區","LI":"新達里","LIN":"9鄰","STREET":"中學路","SECT":" ","MAREA":" ","LANE":"３２巷","ALLEY":" ","HOUSE_NO":"２３號","E_COORD97":166646.35000000001,"N_COORD97":2570765.7000000002,"ADDRESS":"中學路３２巷２３號","OBJECTID":382172},"geometry":{"x":166646.35000000056,"y":2570765.7000000011}},{"attributes":{"ID":382183,"DIS_CODE":0,"TOWNNAME":"永康區","LI":"網寮里","LIN":"20鄰","STREET":"永二街","SECT":" ","MAREA":" ","LANE":"２４５巷","ALLEY":" ","HOUSE_NO":"４２號","E_COORD97":173276.23999999999,"N_COORD97":2546041.5899999999,"ADDRESS":"永二街２４５巷４２號","OBJECTID":382173},"geometry":{"x":173276.24000000115,"y":2546041.5900000017}},{"attributes":{"ID":382184,"DIS_CODE":0,"TOWNNAME":"歸仁區","LI":"許厝里","LIN":"9鄰","STREET":"仁愛南街","SECT":" ","MAREA":" ","LANE":"５６巷","ALLEY":" ","HOUSE_NO":"５１號","E_COORD97":178193.78,"N_COORD97":2540485.1099999999,"ADDRESS":"仁愛南街５６巷５１號","OBJECTID":382174},"geometry":{"x":178193.78000000119,"y":2540485.1099999994}},{"attributes":{"ID":382185,"DIS_CODE":0,"TOWNNAME":"歸仁區","LI":"歸南里","LIN":"9鄰","STREET":"民生九街","SECT":" ","MAREA":" ","LANE":"６９巷","ALLEY":" ","HOUSE_NO":"１２號","E_COORD97":176249.26000000001,"N_COORD97":2540145.25,"ADDRESS":"民生九街６９巷１２號","OBJECTID":382175},"geometry":{"x":176249.25999999978,"y":2540145.2500000019}},{"attributes":{"ID":382186,"DIS_CODE":0,"TOWNNAME":"北區","LI":"小康里","LIN":"9鄰","STREET":"實踐街","SECT":" ","MAREA":" ","LANE":"３巷","ALLEY":" ","HOUSE_NO":"３號之１","E_COORD97":169686.12,"N_COORD97":2546166.0499999998,"ADDRESS":"實踐街３巷３號之１","OBJECTID":382176},"geometry":{"x":169686.12000000104,"y":2546166.0500000007}},{"attributes":{"ID":382187,"DIS_CODE":0,"TOWNNAME":"歸仁區","LI":"許厝里","LIN":"9鄰","STREET":"仁愛南街","SECT":" ","MAREA":" ","LANE":"５６巷","ALLEY":" ","HOUSE_NO":"４１號","E_COORD97":178212.28,"N_COORD97":2540502.1099999999,"ADDRESS":"仁愛南街５６巷４１號","OBJECTID":382177},"geometry":{"x":178212.28000000119,"y":2540502.1099999994}},{"attributes":{"ID":382188,"DIS_CODE":0,"TOWNNAME":"歸仁區","LI":"許厝里","LIN":"9鄰","STREET":"仁愛南街","SECT":" ","MAREA":" ","LANE":"５６巷","ALLEY":" ","HOUSE_NO":"３１號","E_COORD97":178201.88,"N_COORD97":2540465.1099999999,"ADDRESS":"仁愛南街５６巷３１號","OBJECTID":382178},"geometry":{"x":178201.87999999989,"y":2540465.1099999994}},{"attributes":{"ID":382189,"DIS_CODE":0,"TOWNNAME":"歸仁區","LI":"許厝里","LIN":"9鄰","STREET":"仁愛南街","SECT":" ","MAREA":" ","LANE":"５６巷","ALLEY":" ","HOUSE_NO":"２７號","E_COORD97":178214.17999999999,"N_COORD97":2540477.1099999999,"ADDRESS":"仁愛南街５６巷２７號","OBJECTID":382179},"geometry":{"x":178214.18000000063,"y":2540477.1100000013}},{"attributes":{"ID":382190,"DIS_CODE":0,"TOWNNAME":"歸仁區","LI":"看東里","LIN":"9鄰","STREET":"成功一街","SECT":" ","MAREA":" ","LANE":"１３巷","ALLEY":" ","HOUSE_NO":"１１號","E_COORD97":178669.34,"N_COORD97":2540176.25,"ADDRESS":"成功一街１３巷１１號","OBJECTID":382180},"geometry":{"x":178669.33999999985,"y":2540176.25}},{"attributes":{"ID":382191,"DIS_CODE":0,"TOWNNAME":"歸仁區","LI":"看東里","LIN":"9鄰","STREET":"成功一街","SECT":" ","MAREA":" ","LANE":"１３巷","ALLEY":" ","HOUSE_NO":"９號","E_COORD97":178664.98999999999,"N_COORD97":2540176.25,"ADDRESS":"成功一街１３巷９號","OBJECTID":382181},"geometry":{"x":178664.99000000115,"y":2540176.25}},{"attributes":{"ID":382192,"DIS_CODE":0,"TOWNNAME":"歸仁區","LI":"看東里","LIN":"9鄰","STREET":"成功路","SECT":"一段","MAREA":" ","LANE":"２７巷","ALLEY":" ","HOUSE_NO":"２６號","E_COORD97":179005.82999999999,"N_COORD97":2540314.25,"ADDRESS":"成功路一段２７巷２６號","OBJECTID":382182},"geometry":{"x":179005.83000000007,"y":2540314.2500000019}},{"attributes":{"ID":382193,"DIS_CODE":0,"TOWNNAME":"歸仁區","LI":"許厝里","LIN":"9鄰","STREET":"仁愛南街","SECT":" ","MAREA":" ","LANE":"５６巷","ALLEY":" ","HOUSE_NO":"４７號","E_COORD97":178199.98000000001,"N_COORD97":2540498.1099999999,"ADDRESS":"仁愛南街５６巷４７號","OBJECTID":382183},"geometry":{"x":178199.98000000045,"y":2540498.1100000013}},{"attributes":{"ID":382194,"DIS_CODE":0,"TOWNNAME":"歸仁區","LI":"許厝里","LIN":"9鄰","STREET":"仁愛南街","SECT":" ","MAREA":" ","LANE":"５６巷","ALLEY":" ","HOUSE_NO":"３５號","E_COORD97":178204.98000000001,"N_COORD97":2540477.1099999999,"ADDRESS":"仁愛南街５６巷３５號","OBJECTID":382184},"geometry":{"x":178204.98000000045,"y":2540477.1100000013}},{"attributes":{"ID":382195,"DIS_CODE":0,"TOWNNAME":"永康區","LI":"龍潭里","LIN":"35鄰","STREET":"自強路","SECT":" ","MAREA":" ","LANE":"７５０巷","ALLEY":" ","HOUSE_NO":"５９號","E_COORD97":174537.97,"N_COORD97":2548481.75,"ADDRESS":"自強路７５０巷５９號","OBJECTID":382185},"geometry":{"x":174537.9700000016,"y":2548481.7500000019}},{"attributes":{"ID":382196,"DIS_CODE":0,"TOWNNAME":"北區","LI":"小康里","LIN":"9鄰","STREET":"實踐街","SECT":" ","MAREA":" ","LANE":"３巷","ALLEY":" ","HOUSE_NO":"２號","E_COORD97":169682.70999999999,"N_COORD97":2546153.5600000001,"ADDRESS":"實踐街３巷２號","OBJECTID":382186},"geometry":{"x":169682.70999999996,"y":2546153.5600000042}},{"attributes":{"ID":382197,"DIS_CODE":0,"TOWNNAME":"北區","LI":"小康里","LIN":"9鄰","STREET":"實踐街","SECT":" ","MAREA":" ","LANE":"３巷","ALLEY":" ","HOUSE_NO":"３號","E_COORD97":169683.85000000001,"N_COORD97":2546159.2400000002,"ADDRESS":"實踐街３巷３號","OBJECTID":382187},"geometry":{"x":169683.85000000056,"y":2546159.2400000021}},{"attributes":{"ID":382198,"DIS_CODE":0,"TOWNNAME":"北區","LI":"小康里","LIN":"9鄰","STREET":"實踐街","SECT":" ","MAREA":" ","LANE":"７巷","ALLEY":" ","HOUSE_NO":"１號","E_COORD97":169695.20999999999,"N_COORD97":2546143.3399999999,"ADDRESS":"實踐街７巷１號","OBJECTID":382188},"geometry":{"x":169695.21000000183,"y":2546143.3399999999}},{"attributes":{"ID":382199,"DIS_CODE":0,"TOWNNAME":"北區","LI":"小康里","LIN":"9鄰","STREET":"實踐街","SECT":" ","MAREA":" ","LANE":"７巷","ALLEY":" ","HOUSE_NO":"２號","E_COORD97":169696.72,"N_COORD97":2546149.7799999998,"ADDRESS":"實踐街７巷２號","OBJECTID":382189},"geometry":{"x":169696.72000000067,"y":2546149.7799999993}},{"attributes":{"ID":382200,"DIS_CODE":0,"TOWNNAME":"北區","LI":"小康里","LIN":"9鄰","STREET":"實踐街","SECT":" ","MAREA":" ","LANE":"７巷","ALLEY":" ","HOUSE_NO":"３號","E_COORD97":169697.67000000001,"N_COORD97":2546155.0800000001,"ADDRESS":"實踐街７巷３號","OBJECTID":382190},"geometry":{"x":169697.67000000086,"y":2546155.0800000001}},{"attributes":{"ID":382201,"DIS_CODE":0,"TOWNNAME":"北區","LI":"小康里","LIN":"9鄰","STREET":"實踐街","SECT":" ","MAREA":" ","LANE":"７巷","ALLEY":" ","HOUSE_NO":"３號之１","E_COORD97":169697.67000000001,"N_COORD97":2546162.0800000001,"ADDRESS":"實踐街７巷３號之１","OBJECTID":382191},"geometry":{"x":169697.67000000086,"y":2546162.0800000001}},{"attributes":{"ID":382202,"DIS_CODE":0,"TOWNNAME":"永康區","LI":"龍潭里","LIN":"42鄰","STREET":"永平街","SECT":" ","MAREA":" ","LANE":"７５９巷","ALLEY":" ","HOUSE_NO":"３８號","E_COORD97":174593.12,"N_COORD97":2547058.5800000001,"ADDRESS":"永平街７５９巷３８號","OBJECTID":382192},"geometry":{"x":174593.12000000011,"y":2547058.5800000019}},{"attributes":{"ID":382203,"DIS_CODE":0,"TOWNNAME":"永康區","LI":"龍潭里","LIN":"44鄰","STREET":"永平街","SECT":" ","MAREA":" ","LANE":"２９８巷","ALLEY":" ","HOUSE_NO":"９之１５號","E_COORD97":174664.01000000001,"N_COORD97":2547194.6000000001,"ADDRESS":"永平街２９８巷９之１５號","OBJECTID":382193},"geometry":{"x":174664.01000000071,"y":2547194.6000000015}},{"attributes":{"ID":382204,"DIS_CODE":0,"TOWNNAME":"北區","LI":"小康里","LIN":"9鄰","STREET":"公園路","SECT":" ","MAREA":" ","LANE":"９９４巷","ALLEY":" ","HOUSE_NO":"４０號","E_COORD97":169703.75,"N_COORD97":2546288.8500000001,"ADDRESS":"公園路９９４巷４０號","OBJECTID":382194},"geometry":{"x":169703.75000000093,"y":2546288.8499999996}},{"attributes":{"ID":382205,"DIS_CODE":0,"TOWNNAME":"北區","LI":"小康里","LIN":"9鄰","STREET":"公園路","SECT":" ","MAREA":" ","LANE":"９９４巷","ALLEY":" ","HOUSE_NO":"４６號","E_COORD97":169731.89000000001,"N_COORD97":2546287.29,"ADDRESS":"公園路９９４巷４６號","OBJECTID":382195},"geometry":{"x":169731.88999999966,"y":2546287.290000001}},{"attributes":{"ID":382206,"DIS_CODE":0,"TOWNNAME":"北區","LI":"永祥里","LIN":"9鄰","STREET":"實踐街","SECT":" ","MAREA":" ","LANE":"７１巷","ALLEY":" ","HOUSE_NO":"１２２號","E_COORD97":170004.59,"N_COORD97":2546333.7000000002,"ADDRESS":"實踐街７１巷１２２號","OBJECTID":382196},"geometry":{"x":170004.59000000078,"y":2546333.6999999993}},{"attributes":{"ID":382207,"DIS_CODE":0,"TOWNNAME":"安平區","LI":"文平里","LIN":"9鄰","STREET":"建平七街","SECT":" ","MAREA":" ","LANE":"１８２巷","ALLEY":" ","HOUSE_NO":"４８號","E_COORD97":166037.64000000001,"N_COORD97":2543327.04,"ADDRESS":"建平七街１８２巷４８號","OBJECTID":382197},"geometry":{"x":166037.6400000006,"y":2543327.0399999991}},{"attributes":{"ID":382208,"DIS_CODE":0,"TOWNNAME":"安平區","LI":"文平里","LIN":"9鄰","STREET":"建平七街","SECT":" ","MAREA":" ","LANE":"１８２巷","ALLEY":" ","HOUSE_NO":"６８號","E_COORD97":166001.47,"N_COORD97":2543331.3300000001,"ADDRESS":"建平七街１８２巷６８號","OBJECTID":382198},"geometry":{"x":166001.47000000067,"y":2543331.3300000019}},{"attributes":{"ID":382209,"DIS_CODE":0,"TOWNNAME":"新營區","LI":"民榮里","LIN":"9鄰","STREET":"和平路","SECT":" ","MAREA":" ","LANE":"３２巷","ALLEY":" ","HOUSE_NO":"３之１號","E_COORD97":179377.64999999999,"N_COORD97":2577802.73,"ADDRESS":"和平路３２巷３之１號","OBJECTID":382199},"geometry":{"x":179377.6500000013,"y":2577802.7300000023}},{"attributes":{"ID":382210,"DIS_CODE":0,"TOWNNAME":"新營區","LI":"南興里","LIN":"9鄰","STREET":"和平路","SECT":" ","MAREA":" ","LANE":"１０２巷","ALLEY":" ","HOUSE_NO":"３６之２號","E_COORD97":179307.44,"N_COORD97":2577617.0099999998,"ADDRESS":"和平路１０２巷３６之２號","OBJECTID":382200},"geometry":{"x":179307.44000000227,"y":2577617.0100000016}}]}