{"displayFieldName":"TOWNNAME","fieldAliases":{"ID":"ID","DIS_CODE":"DIS_CODE","TOWNNAME":"TOWNNAME","LI":"LI","LIN":"LIN","STREET":"STREET","SECT":"SECT","MAREA":"MAREA","LANE":"LANE","ALLEY":"ALLEY","HOUSE_NO":"HOUSE_NO","E_COORD97":"E_COORD97","N_COORD97":"N_COORD97","ADDRESS":"ADDRESS","OBJECTID":"OBJECTID"},"geometryType":"esriGeometryPoint","spatialReference":{"wkid":102443,"latestWkid":3826},"fields":[{"name":"ID","type":"esriFieldTypeDouble","alias":"ID"},{"name":"DIS_CODE","type":"esriFieldTypeInteger","alias":"DIS_CODE"},{"name":"TOWNNAME","type":"esriFieldTypeString","alias":"TOWNNAME","length":8},{"name":"LI","type":"esriFieldTypeString","alias":"LI","length":8},{"name":"LIN","type":"esriFieldTypeString","alias":"LIN","length":12},{"name":"STREET","type":"esriFieldTypeString","alias":"STREET","length":20},{"name":"SECT","type":"esriFieldTypeString","alias":"SECT","length":8},{"name":"MAREA","type":"esriFieldTypeString","alias":"MAREA","length":12},{"name":"LANE","type":"esriFieldTypeString","alias":"LANE","length":10},{"name":"ALLEY","type":"esriFieldTypeString","alias":"ALLEY","length":10},{"name":"HOUSE_NO","type":"esriFieldTypeString","alias":"HOUSE_NO","length":20},{"name":"E_COORD97","type":"esriFieldTypeDouble","alias":"E_COORD97"},{"name":"N_COORD97","type":"esriFieldTypeDouble","alias":"N_COORD97"},{"name":"ADDRESS","type":"esriFieldTypeString","alias":"ADDRESS","length":50},{"name":"OBJECTID","type":"esriFieldTypeOID","alias":"OBJECTID"}],"features":[{"attributes":{"ID":593628,"DIS_CODE":0,"TOWNNAME":"東區","LI":"德高里","LIN":"11鄰","STREET":"德高街","SECT":" ","MAREA":" ","LANE":" ","ALLEY":" ","HOUSE_NO":"８４號七樓","E_COORD97":171482.39999999999,"N_COORD97":2540795.1800000002,"ADDRESS":"德高街８４號七樓","OBJECTID":593601},"geometry":{"x":171482.40000000037,"y":2540795.1800000034}},{"attributes":{"ID":593629,"DIS_CODE":0,"TOWNNAME":"東區","LI":"德高里","LIN":"11鄰","STREET":"德高街","SECT":" ","MAREA":" ","LANE":" ","ALLEY":" ","HOUSE_NO":"８４號三樓","E_COORD97":171482.39999999999,"N_COORD97":2540795.1800000002,"ADDRESS":"德高街８４號三樓","OBJECTID":593602},"geometry":{"x":171482.40000000037,"y":2540795.1800000034}},{"attributes":{"ID":593630,"DIS_CODE":0,"TOWNNAME":"東區","LI":"德高里","LIN":"11鄰","STREET":"德高街","SECT":" ","MAREA":" ","LANE":" ","ALLEY":" ","HOUSE_NO":"８４號五樓","E_COORD97":171482.39999999999,"N_COORD97":2540795.1800000002,"ADDRESS":"德高街８４號五樓","OBJECTID":593603},"geometry":{"x":171482.40000000037,"y":2540795.1800000034}},{"attributes":{"ID":593631,"DIS_CODE":0,"TOWNNAME":"東區","LI":"德高里","LIN":"11鄰","STREET":"德高街","SECT":" ","MAREA":" ","LANE":" ","ALLEY":" ","HOUSE_NO":"８４號六樓","E_COORD97":171482.39999999999,"N_COORD97":2540795.1800000002,"ADDRESS":"德高街８４號六樓","OBJECTID":593604},"geometry":{"x":171482.40000000037,"y":2540795.1800000034}},{"attributes":{"ID":593632,"DIS_CODE":0,"TOWNNAME":"東區","LI":"德高里","LIN":"11鄰","STREET":"德高街","SECT":" ","MAREA":" ","LANE":" ","ALLEY":" ","HOUSE_NO":"８４號四樓","E_COORD97":171482.39999999999,"N_COORD97":2540795.1800000002,"ADDRESS":"德高街８４號四樓","OBJECTID":593605},"geometry":{"x":171482.40000000037,"y":2540795.1800000034}},{"attributes":{"ID":593633,"DIS_CODE":0,"TOWNNAME":"東區","LI":"德高里","LIN":"11鄰","STREET":"德高街","SECT":" ","MAREA":" ","LANE":" ","ALLEY":" ","HOUSE_NO":"８６號七樓","E_COORD97":171477.82000000001,"N_COORD97":2540787.1800000002,"ADDRESS":"德高街８６號七樓","OBJECTID":593606},"geometry":{"x":171477.8200000003,"y":2540787.1799999997}},{"attributes":{"ID":593634,"DIS_CODE":0,"TOWNNAME":"東區","LI":"德高里","LIN":"11鄰","STREET":"德高街","SECT":" ","MAREA":" ","LANE":" ","ALLEY":" ","HOUSE_NO":"８６號三樓","E_COORD97":171477.82000000001,"N_COORD97":2540787.1800000002,"ADDRESS":"德高街８６號三樓","OBJECTID":593607},"geometry":{"x":171477.8200000003,"y":2540787.1799999997}},{"attributes":{"ID":593635,"DIS_CODE":0,"TOWNNAME":"東區","LI":"德高里","LIN":"11鄰","STREET":"德高街","SECT":" ","MAREA":" ","LANE":" ","ALLEY":" ","HOUSE_NO":"８６號五樓","E_COORD97":171477.82000000001,"N_COORD97":2540787.1800000002,"ADDRESS":"德高街８６號五樓","OBJECTID":593608},"geometry":{"x":171477.8200000003,"y":2540787.1799999997}},{"attributes":{"ID":593636,"DIS_CODE":0,"TOWNNAME":"東區","LI":"德高里","LIN":"11鄰","STREET":"德高街","SECT":" ","MAREA":" ","LANE":" ","ALLEY":" ","HOUSE_NO":"８６號六樓","E_COORD97":171477.82000000001,"N_COORD97":2540787.1800000002,"ADDRESS":"德高街８６號六樓","OBJECTID":593609},"geometry":{"x":171477.8200000003,"y":2540787.1799999997}},{"attributes":{"ID":593637,"DIS_CODE":0,"TOWNNAME":"東區","LI":"德高里","LIN":"11鄰","STREET":"德高街","SECT":" ","MAREA":" ","LANE":" ","ALLEY":" ","HOUSE_NO":"８６號四樓","E_COORD97":171477.82000000001,"N_COORD97":2540787.1800000002,"ADDRESS":"德高街８６號四樓","OBJECTID":593610},"geometry":{"x":171477.8200000003,"y":2540787.1799999997}},{"attributes":{"ID":593638,"DIS_CODE":0,"TOWNNAME":"東區","LI":"德高里","LIN":"11鄰","STREET":"德高街","SECT":" ","MAREA":" ","LANE":" ","ALLEY":" ","HOUSE_NO":"８８號七樓","E_COORD97":171474.85000000001,"N_COORD97":2540783.3500000001,"ADDRESS":"德高街８８號七樓","OBJECTID":593611},"geometry":{"x":171474.84999999963,"y":2540783.3499999996}},{"attributes":{"ID":593639,"DIS_CODE":0,"TOWNNAME":"東區","LI":"德高里","LIN":"11鄰","STREET":"德高街","SECT":" ","MAREA":" ","LANE":" ","ALLEY":" ","HOUSE_NO":"８８號三樓","E_COORD97":171474.85000000001,"N_COORD97":2540783.3500000001,"ADDRESS":"德高街８８號三樓","OBJECTID":593612},"geometry":{"x":171474.84999999963,"y":2540783.3499999996}},{"attributes":{"ID":593640,"DIS_CODE":0,"TOWNNAME":"東區","LI":"德高里","LIN":"11鄰","STREET":"德高街","SECT":" ","MAREA":" ","LANE":" ","ALLEY":" ","HOUSE_NO":"８８號五樓","E_COORD97":171474.85000000001,"N_COORD97":2540783.3500000001,"ADDRESS":"德高街８８號五樓","OBJECTID":593613},"geometry":{"x":171474.84999999963,"y":2540783.3499999996}},{"attributes":{"ID":593641,"DIS_CODE":0,"TOWNNAME":"東區","LI":"德高里","LIN":"11鄰","STREET":"德高街","SECT":" ","MAREA":" ","LANE":" ","ALLEY":" ","HOUSE_NO":"８８號六樓","E_COORD97":171474.85000000001,"N_COORD97":2540783.3500000001,"ADDRESS":"德高街８８號六樓","OBJECTID":593614},"geometry":{"x":171474.84999999963,"y":2540783.3499999996}},{"attributes":{"ID":593642,"DIS_CODE":0,"TOWNNAME":"東區","LI":"德高里","LIN":"11鄰","STREET":"德高街","SECT":" ","MAREA":" ","LANE":" ","ALLEY":" ","HOUSE_NO":"８８號四樓","E_COORD97":171474.85000000001,"N_COORD97":2540783.3500000001,"ADDRESS":"德高街８８號四樓","OBJECTID":593615},"geometry":{"x":171474.84999999963,"y":2540783.3499999996}},{"attributes":{"ID":593643,"DIS_CODE":0,"TOWNNAME":"中西區","LI":"水仙里","LIN":"11鄰","STREET":"宮後街","SECT":" ","MAREA":" ","LANE":" ","ALLEY":" ","HOUSE_NO":"１６號二樓之１","E_COORD97":167870.12,"N_COORD97":2544125.25,"ADDRESS":"宮後街１６號二樓之１","OBJECTID":593616},"geometry":{"x":167870.12000000197,"y":2544125.2500000019}},{"attributes":{"ID":593644,"DIS_CODE":0,"TOWNNAME":"中西區","LI":"水仙里","LIN":"11鄰","STREET":"宮後街","SECT":" ","MAREA":" ","LANE":" ","ALLEY":" ","HOUSE_NO":"１６號二樓之２","E_COORD97":167870.12,"N_COORD97":2544125.25,"ADDRESS":"宮後街１６號二樓之２","OBJECTID":593617},"geometry":{"x":167870.12000000197,"y":2544125.2500000019}},{"attributes":{"ID":593645,"DIS_CODE":0,"TOWNNAME":"中西區","LI":"水仙里","LIN":"11鄰","STREET":"宮後街","SECT":" ","MAREA":" ","LANE":" ","ALLEY":" ","HOUSE_NO":"１６號二樓之３","E_COORD97":167870.12,"N_COORD97":2544125.25,"ADDRESS":"宮後街１６號二樓之３","OBJECTID":593618},"geometry":{"x":167870.12000000197,"y":2544125.2500000019}},{"attributes":{"ID":593646,"DIS_CODE":0,"TOWNNAME":"中西區","LI":"水仙里","LIN":"11鄰","STREET":"宮後街","SECT":" ","MAREA":" ","LANE":" ","ALLEY":" ","HOUSE_NO":"１６號二樓之４","E_COORD97":167870.12,"N_COORD97":2544125.25,"ADDRESS":"宮後街１６號二樓之４","OBJECTID":593619},"geometry":{"x":167870.12000000197,"y":2544125.2500000019}},{"attributes":{"ID":593647,"DIS_CODE":0,"TOWNNAME":"中西區","LI":"水仙里","LIN":"11鄰","STREET":"宮後街","SECT":" ","MAREA":" ","LANE":" ","ALLEY":" ","HOUSE_NO":"１６號二樓之５","E_COORD97":167870.12,"N_COORD97":2544125.25,"ADDRESS":"宮後街１６號二樓之５","OBJECTID":593620},"geometry":{"x":167870.12000000197,"y":2544125.2500000019}},{"attributes":{"ID":593648,"DIS_CODE":0,"TOWNNAME":"中西區","LI":"水仙里","LIN":"11鄰","STREET":"宮後街","SECT":" ","MAREA":" ","LANE":" ","ALLEY":" ","HOUSE_NO":"１６號二樓之６","E_COORD97":167870.12,"N_COORD97":2544125.25,"ADDRESS":"宮後街１６號二樓之６","OBJECTID":593621},"geometry":{"x":167870.12000000197,"y":2544125.2500000019}},{"attributes":{"ID":593649,"DIS_CODE":0,"TOWNNAME":"中西區","LI":"水仙里","LIN":"11鄰","STREET":"宮後街","SECT":" ","MAREA":" ","LANE":" ","ALLEY":" ","HOUSE_NO":"１６號二樓之７","E_COORD97":167870.12,"N_COORD97":2544125.25,"ADDRESS":"宮後街１６號二樓之７","OBJECTID":593622},"geometry":{"x":167870.12000000197,"y":2544125.2500000019}},{"attributes":{"ID":593650,"DIS_CODE":0,"TOWNNAME":"中西區","LI":"水仙里","LIN":"11鄰","STREET":"宮後街","SECT":" ","MAREA":" ","LANE":" ","ALLEY":" ","HOUSE_NO":"１６號三樓之１","E_COORD97":167870.12,"N_COORD97":2544125.25,"ADDRESS":"宮後街１６號三樓之１","OBJECTID":593623},"geometry":{"x":167870.12000000197,"y":2544125.2500000019}},{"attributes":{"ID":593651,"DIS_CODE":0,"TOWNNAME":"東區","LI":"和平里","LIN":"11鄰","STREET":"仁和路","SECT":" ","MAREA":" ","LANE":" ","ALLEY":" ","HOUSE_NO":"９５號之２","E_COORD97":171333.01000000001,"N_COORD97":2541410.7200000002,"ADDRESS":"仁和路９５號之２","OBJECTID":593624},"geometry":{"x":171333.00999999978,"y":2541410.7200000025}},{"attributes":{"ID":593652,"DIS_CODE":0,"TOWNNAME":"中西區","LI":"水仙里","LIN":"11鄰","STREET":"宮後街","SECT":" ","MAREA":" ","LANE":" ","ALLEY":" ","HOUSE_NO":"１６號三樓之２","E_COORD97":167870.12,"N_COORD97":2544125.25,"ADDRESS":"宮後街１６號三樓之２","OBJECTID":593625},"geometry":{"x":167870.12000000197,"y":2544125.2500000019}},{"attributes":{"ID":593653,"DIS_CODE":0,"TOWNNAME":"中西區","LI":"水仙里","LIN":"11鄰","STREET":"宮後街","SECT":" ","MAREA":" ","LANE":" ","ALLEY":" ","HOUSE_NO":"１６號三樓之３","E_COORD97":167870.12,"N_COORD97":2544125.25,"ADDRESS":"宮後街１６號三樓之３","OBJECTID":593626},"geometry":{"x":167870.12000000197,"y":2544125.2500000019}},{"attributes":{"ID":593654,"DIS_CODE":0,"TOWNNAME":"中西區","LI":"水仙里","LIN":"11鄰","STREET":"宮後街","SECT":" ","MAREA":" ","LANE":" ","ALLEY":" ","HOUSE_NO":"１６號三樓之４","E_COORD97":167870.12,"N_COORD97":2544125.25,"ADDRESS":"宮後街１６號三樓之４","OBJECTID":593627},"geometry":{"x":167870.12000000197,"y":2544125.2500000019}},{"attributes":{"ID":593655,"DIS_CODE":0,"TOWNNAME":"中西區","LI":"水仙里","LIN":"11鄰","STREET":"宮後街","SECT":" ","MAREA":" ","LANE":" ","ALLEY":" ","HOUSE_NO":"１６號三樓之５","E_COORD97":167870.12,"N_COORD97":2544125.25,"ADDRESS":"宮後街１６號三樓之５","OBJECTID":593628},"geometry":{"x":167870.12000000197,"y":2544125.2500000019}},{"attributes":{"ID":593656,"DIS_CODE":0,"TOWNNAME":"中西區","LI":"水仙里","LIN":"11鄰","STREET":"宮後街","SECT":" ","MAREA":" ","LANE":" ","ALLEY":" ","HOUSE_NO":"１６號三樓之６","E_COORD97":167870.12,"N_COORD97":2544125.25,"ADDRESS":"宮後街１６號三樓之６","OBJECTID":593629},"geometry":{"x":167870.12000000197,"y":2544125.2500000019}},{"attributes":{"ID":593657,"DIS_CODE":0,"TOWNNAME":"中西區","LI":"水仙里","LIN":"11鄰","STREET":"宮後街","SECT":" ","MAREA":" ","LANE":" ","ALLEY":" ","HOUSE_NO":"１６號三樓之７","E_COORD97":167870.12,"N_COORD97":2544125.25,"ADDRESS":"宮後街１６號三樓之７","OBJECTID":593630},"geometry":{"x":167870.12000000197,"y":2544125.2500000019}},{"attributes":{"ID":593658,"DIS_CODE":0,"TOWNNAME":"中西區","LI":"水仙里","LIN":"11鄰","STREET":"宮後街","SECT":" ","MAREA":" ","LANE":" ","ALLEY":" ","HOUSE_NO":"１６號五樓之１","E_COORD97":167870.12,"N_COORD97":2544125.25,"ADDRESS":"宮後街１６號五樓之１","OBJECTID":593631},"geometry":{"x":167870.12000000197,"y":2544125.2500000019}},{"attributes":{"ID":593659,"DIS_CODE":0,"TOWNNAME":"中西區","LI":"水仙里","LIN":"11鄰","STREET":"宮後街","SECT":" ","MAREA":" ","LANE":" ","ALLEY":" ","HOUSE_NO":"１６號五樓之２","E_COORD97":167870.12,"N_COORD97":2544125.25,"ADDRESS":"宮後街１６號五樓之２","OBJECTID":593632},"geometry":{"x":167870.12000000197,"y":2544125.2500000019}},{"attributes":{"ID":593660,"DIS_CODE":0,"TOWNNAME":"中西區","LI":"水仙里","LIN":"11鄰","STREET":"宮後街","SECT":" ","MAREA":" ","LANE":" ","ALLEY":" ","HOUSE_NO":"１６號五樓之３","E_COORD97":167870.12,"N_COORD97":2544125.25,"ADDRESS":"宮後街１６號五樓之３","OBJECTID":593633},"geometry":{"x":167870.12000000197,"y":2544125.2500000019}},{"attributes":{"ID":593661,"DIS_CODE":0,"TOWNNAME":"中西區","LI":"水仙里","LIN":"11鄰","STREET":"宮後街","SECT":" ","MAREA":" ","LANE":" ","ALLEY":" ","HOUSE_NO":"１６號五樓之４","E_COORD97":167870.12,"N_COORD97":2544125.25,"ADDRESS":"宮後街１６號五樓之４","OBJECTID":593634},"geometry":{"x":167870.12000000197,"y":2544125.2500000019}},{"attributes":{"ID":593662,"DIS_CODE":0,"TOWNNAME":"中西區","LI":"水仙里","LIN":"11鄰","STREET":"宮後街","SECT":" ","MAREA":" ","LANE":" ","ALLEY":" ","HOUSE_NO":"１６號五樓之５","E_COORD97":167870.12,"N_COORD97":2544125.25,"ADDRESS":"宮後街１６號五樓之５","OBJECTID":593635},"geometry":{"x":167870.12000000197,"y":2544125.2500000019}},{"attributes":{"ID":593663,"DIS_CODE":0,"TOWNNAME":"中西區","LI":"水仙里","LIN":"11鄰","STREET":"宮後街","SECT":" ","MAREA":" ","LANE":" ","ALLEY":" ","HOUSE_NO":"１６號五樓之６","E_COORD97":167870.12,"N_COORD97":2544125.25,"ADDRESS":"宮後街１６號五樓之６","OBJECTID":593636},"geometry":{"x":167870.12000000197,"y":2544125.2500000019}},{"attributes":{"ID":593664,"DIS_CODE":0,"TOWNNAME":"中西區","LI":"水仙里","LIN":"11鄰","STREET":"宮後街","SECT":" ","MAREA":" ","LANE":" ","ALLEY":" ","HOUSE_NO":"１６號五樓之７","E_COORD97":167870.12,"N_COORD97":2544125.25,"ADDRESS":"宮後街１６號五樓之７","OBJECTID":593637},"geometry":{"x":167870.12000000197,"y":2544125.2500000019}},{"attributes":{"ID":593665,"DIS_CODE":0,"TOWNNAME":"中西區","LI":"水仙里","LIN":"11鄰","STREET":"宮後街","SECT":" ","MAREA":" ","LANE":" ","ALLEY":" ","HOUSE_NO":"１６號四樓之１","E_COORD97":167870.12,"N_COORD97":2544125.25,"ADDRESS":"宮後街１６號四樓之１","OBJECTID":593638},"geometry":{"x":167870.12000000197,"y":2544125.2500000019}},{"attributes":{"ID":593666,"DIS_CODE":0,"TOWNNAME":"中西區","LI":"水仙里","LIN":"11鄰","STREET":"宮後街","SECT":" ","MAREA":" ","LANE":" ","ALLEY":" ","HOUSE_NO":"１６號四樓之２","E_COORD97":167870.12,"N_COORD97":2544125.25,"ADDRESS":"宮後街１６號四樓之２","OBJECTID":593639},"geometry":{"x":167870.12000000197,"y":2544125.2500000019}},{"attributes":{"ID":593667,"DIS_CODE":0,"TOWNNAME":"中西區","LI":"水仙里","LIN":"11鄰","STREET":"宮後街","SECT":" ","MAREA":" ","LANE":" ","ALLEY":" ","HOUSE_NO":"１６號四樓之３","E_COORD97":167870.12,"N_COORD97":2544125.25,"ADDRESS":"宮後街１６號四樓之３","OBJECTID":593640},"geometry":{"x":167870.12000000197,"y":2544125.2500000019}},{"attributes":{"ID":593668,"DIS_CODE":0,"TOWNNAME":"中西區","LI":"水仙里","LIN":"11鄰","STREET":"宮後街","SECT":" ","MAREA":" ","LANE":" ","ALLEY":" ","HOUSE_NO":"１６號四樓之４","E_COORD97":167870.12,"N_COORD97":2544125.25,"ADDRESS":"宮後街１６號四樓之４","OBJECTID":593641},"geometry":{"x":167870.12000000197,"y":2544125.2500000019}},{"attributes":{"ID":593669,"DIS_CODE":0,"TOWNNAME":"中西區","LI":"水仙里","LIN":"11鄰","STREET":"宮後街","SECT":" ","MAREA":" ","LANE":" ","ALLEY":" ","HOUSE_NO":"１６號四樓之５","E_COORD97":167870.12,"N_COORD97":2544125.25,"ADDRESS":"宮後街１６號四樓之５","OBJECTID":593642},"geometry":{"x":167870.12000000197,"y":2544125.2500000019}},{"attributes":{"ID":593670,"DIS_CODE":0,"TOWNNAME":"中西區","LI":"水仙里","LIN":"11鄰","STREET":"宮後街","SECT":" ","MAREA":" ","LANE":" ","ALLEY":" ","HOUSE_NO":"１６號四樓之６","E_COORD97":167870.12,"N_COORD97":2544125.25,"ADDRESS":"宮後街１６號四樓之６","OBJECTID":593643},"geometry":{"x":167870.12000000197,"y":2544125.2500000019}},{"attributes":{"ID":593671,"DIS_CODE":0,"TOWNNAME":"中西區","LI":"水仙里","LIN":"11鄰","STREET":"宮後街","SECT":" ","MAREA":" ","LANE":" ","ALLEY":" ","HOUSE_NO":"１６號四樓之７","E_COORD97":167870.12,"N_COORD97":2544125.25,"ADDRESS":"宮後街１６號四樓之７","OBJECTID":593644},"geometry":{"x":167870.12000000197,"y":2544125.2500000019}},{"attributes":{"ID":593672,"DIS_CODE":0,"TOWNNAME":"中西區","LI":"水仙里","LIN":"11鄰","STREET":"宮後街","SECT":" ","MAREA":" ","LANE":" ","ALLEY":" ","HOUSE_NO":"５號二樓之１","E_COORD97":167917.57999999999,"N_COORD97":2544115.23,"ADDRESS":"宮後街５號二樓之１","OBJECTID":593645},"geometry":{"x":167917.58000000007,"y":2544115.2300000023}},{"attributes":{"ID":593673,"DIS_CODE":0,"TOWNNAME":"中西區","LI":"水仙里","LIN":"11鄰","STREET":"宮後街","SECT":" ","MAREA":" ","LANE":" ","ALLEY":" ","HOUSE_NO":"５號二樓之２","E_COORD97":167917.57999999999,"N_COORD97":2544115.23,"ADDRESS":"宮後街５號二樓之２","OBJECTID":593646},"geometry":{"x":167917.58000000007,"y":2544115.2300000023}},{"attributes":{"ID":593674,"DIS_CODE":0,"TOWNNAME":"中西區","LI":"水仙里","LIN":"11鄰","STREET":"宮後街","SECT":" ","MAREA":" ","LANE":" ","ALLEY":" ","HOUSE_NO":"５號三樓之１","E_COORD97":167917.57999999999,"N_COORD97":2544115.23,"ADDRESS":"宮後街５號三樓之１","OBJECTID":593647},"geometry":{"x":167917.58000000007,"y":2544115.2300000023}},{"attributes":{"ID":593675,"DIS_CODE":0,"TOWNNAME":"中西區","LI":"水仙里","LIN":"11鄰","STREET":"宮後街","SECT":" ","MAREA":" ","LANE":" ","ALLEY":" ","HOUSE_NO":"５號三樓之２","E_COORD97":167917.57999999999,"N_COORD97":2544115.23,"ADDRESS":"宮後街５號三樓之２","OBJECTID":593648},"geometry":{"x":167917.58000000007,"y":2544115.2300000023}},{"attributes":{"ID":593676,"DIS_CODE":0,"TOWNNAME":"中西區","LI":"水仙里","LIN":"11鄰","STREET":"宮後街","SECT":" ","MAREA":" ","LANE":" ","ALLEY":" ","HOUSE_NO":"５號五樓之１","E_COORD97":167917.57999999999,"N_COORD97":2544115.23,"ADDRESS":"宮後街５號五樓之１","OBJECTID":593649},"geometry":{"x":167917.58000000007,"y":2544115.2300000023}},{"attributes":{"ID":593677,"DIS_CODE":0,"TOWNNAME":"中西區","LI":"水仙里","LIN":"11鄰","STREET":"宮後街","SECT":" ","MAREA":" ","LANE":" ","ALLEY":" ","HOUSE_NO":"５號五樓之２","E_COORD97":167917.57999999999,"N_COORD97":2544115.23,"ADDRESS":"宮後街５號五樓之２","OBJECTID":593650},"geometry":{"x":167917.58000000007,"y":2544115.2300000023}},{"attributes":{"ID":593678,"DIS_CODE":0,"TOWNNAME":"中西區","LI":"水仙里","LIN":"11鄰","STREET":"宮後街","SECT":" ","MAREA":" ","LANE":" ","ALLEY":" ","HOUSE_NO":"５號四樓之１","E_COORD97":167917.57999999999,"N_COORD97":2544115.23,"ADDRESS":"宮後街５號四樓之１","OBJECTID":593651},"geometry":{"x":167917.58000000007,"y":2544115.2300000023}},{"attributes":{"ID":593679,"DIS_CODE":0,"TOWNNAME":"中西區","LI":"水仙里","LIN":"11鄰","STREET":"宮後街","SECT":" ","MAREA":" ","LANE":" ","ALLEY":" ","HOUSE_NO":"５號四樓之２","E_COORD97":167917.57999999999,"N_COORD97":2544115.23,"ADDRESS":"宮後街５號四樓之２","OBJECTID":593652},"geometry":{"x":167917.58000000007,"y":2544115.2300000023}},{"attributes":{"ID":593680,"DIS_CODE":0,"TOWNNAME":"中西區","LI":"永福里","LIN":"11鄰","STREET":"永福路","SECT":"二段","MAREA":" ","LANE":" ","ALLEY":" ","HOUSE_NO":"１５０號一樓","E_COORD97":168150.04999999999,"N_COORD97":2543895.3799999999,"ADDRESS":"永福路二段１５０號一樓","OBJECTID":593653},"geometry":{"x":168150.05000000168,"y":2543895.3800000027}},{"attributes":{"ID":593681,"DIS_CODE":0,"TOWNNAME":"中西區","LI":"永福里","LIN":"11鄰","STREET":"永福路","SECT":"二段","MAREA":" ","LANE":" ","ALLEY":" ","HOUSE_NO":"１５０號七樓","E_COORD97":168150.04999999999,"N_COORD97":2543895.3799999999,"ADDRESS":"永福路二段１５０號七樓","OBJECTID":593654},"geometry":{"x":168150.05000000168,"y":2543895.3800000027}},{"attributes":{"ID":593682,"DIS_CODE":0,"TOWNNAME":"中西區","LI":"永福里","LIN":"11鄰","STREET":"永福路","SECT":"二段","MAREA":" ","LANE":" ","ALLEY":" ","HOUSE_NO":"１５０號二樓","E_COORD97":168150.04999999999,"N_COORD97":2543895.3799999999,"ADDRESS":"永福路二段１５０號二樓","OBJECTID":593655},"geometry":{"x":168150.05000000168,"y":2543895.3800000027}},{"attributes":{"ID":593683,"DIS_CODE":0,"TOWNNAME":"中西區","LI":"永福里","LIN":"11鄰","STREET":"永福路","SECT":"二段","MAREA":" ","LANE":" ","ALLEY":" ","HOUSE_NO":"１５０號三樓","E_COORD97":168150.04999999999,"N_COORD97":2543895.3799999999,"ADDRESS":"永福路二段１５０號三樓","OBJECTID":593656},"geometry":{"x":168150.05000000168,"y":2543895.3800000027}},{"attributes":{"ID":593684,"DIS_CODE":0,"TOWNNAME":"東區","LI":"崇善里","LIN":"10鄰","STREET":"崇善八街","SECT":" ","MAREA":" ","LANE":" ","ALLEY":" ","HOUSE_NO":"３７號","E_COORD97":171153.26999999999,"N_COORD97":2541420.7999999998,"ADDRESS":"崇善八街３７號","OBJECTID":593657},"geometry":{"x":171153.26999999955,"y":2541420.8000000026}},{"attributes":{"ID":593685,"DIS_CODE":0,"TOWNNAME":"中西區","LI":"永福里","LIN":"11鄰","STREET":"永福路","SECT":"二段","MAREA":" ","LANE":" ","ALLEY":" ","HOUSE_NO":"１５０號五樓","E_COORD97":168150.04999999999,"N_COORD97":2543895.3799999999,"ADDRESS":"永福路二段１５０號五樓","OBJECTID":593658},"geometry":{"x":168150.05000000168,"y":2543895.3800000027}},{"attributes":{"ID":593686,"DIS_CODE":0,"TOWNNAME":"中西區","LI":"永福里","LIN":"11鄰","STREET":"永福路","SECT":"二段","MAREA":" ","LANE":" ","ALLEY":" ","HOUSE_NO":"１５０號六樓","E_COORD97":168150.04999999999,"N_COORD97":2543895.3799999999,"ADDRESS":"永福路二段１５０號六樓","OBJECTID":593659},"geometry":{"x":168150.05000000168,"y":2543895.3800000027}},{"attributes":{"ID":593687,"DIS_CODE":0,"TOWNNAME":"中西區","LI":"永福里","LIN":"11鄰","STREET":"永福路","SECT":"二段","MAREA":" ","LANE":" ","ALLEY":" ","HOUSE_NO":"１５０號四樓","E_COORD97":168150.04999999999,"N_COORD97":2543895.3799999999,"ADDRESS":"永福路二段１５０號四樓","OBJECTID":593660},"geometry":{"x":168150.05000000168,"y":2543895.3800000027}},{"attributes":{"ID":593688,"DIS_CODE":0,"TOWNNAME":"中西區","LI":"永福里","LIN":"11鄰","STREET":"民生路","SECT":"一段","MAREA":" ","LANE":" ","ALLEY":" ","HOUSE_NO":"８０號一樓之１","E_COORD97":168207.91,"N_COORD97":2543803.8500000001,"ADDRESS":"民生路一段８０號一樓之１","OBJECTID":593661},"geometry":{"x":168207.91000000108,"y":2543803.8499999996}},{"attributes":{"ID":593689,"DIS_CODE":0,"TOWNNAME":"中西區","LI":"永福里","LIN":"11鄰","STREET":"民生路","SECT":"一段","MAREA":" ","LANE":" ","ALLEY":" ","HOUSE_NO":"８０號一樓之２","E_COORD97":168207.91,"N_COORD97":2543803.8500000001,"ADDRESS":"民生路一段８０號一樓之２","OBJECTID":593662},"geometry":{"x":168207.91000000108,"y":2543803.8499999996}},{"attributes":{"ID":593690,"DIS_CODE":0,"TOWNNAME":"中西區","LI":"永福里","LIN":"11鄰","STREET":"民生路","SECT":"一段","MAREA":" ","LANE":" ","ALLEY":" ","HOUSE_NO":"８０號二樓之１","E_COORD97":168207.91,"N_COORD97":2543803.8500000001,"ADDRESS":"民生路一段８０號二樓之１","OBJECTID":593663},"geometry":{"x":168207.91000000108,"y":2543803.8499999996}},{"attributes":{"ID":593691,"DIS_CODE":0,"TOWNNAME":"中西區","LI":"永福里","LIN":"11鄰","STREET":"民生路","SECT":"一段","MAREA":" ","LANE":" ","ALLEY":" ","HOUSE_NO":"８０號二樓之２","E_COORD97":168207.91,"N_COORD97":2543803.8500000001,"ADDRESS":"民生路一段８０號二樓之２","OBJECTID":593664},"geometry":{"x":168207.91000000108,"y":2543803.8499999996}},{"attributes":{"ID":593692,"DIS_CODE":0,"TOWNNAME":"中西區","LI":"永福里","LIN":"11鄰","STREET":"民生路","SECT":"一段","MAREA":" ","LANE":" ","ALLEY":" ","HOUSE_NO":"８０號三樓之１","E_COORD97":168207.91,"N_COORD97":2543803.8500000001,"ADDRESS":"民生路一段８０號三樓之１","OBJECTID":593665},"geometry":{"x":168207.91000000108,"y":2543803.8499999996}},{"attributes":{"ID":593693,"DIS_CODE":0,"TOWNNAME":"中西區","LI":"永福里","LIN":"11鄰","STREET":"民生路","SECT":"一段","MAREA":" ","LANE":" ","ALLEY":" ","HOUSE_NO":"８０號三樓之２","E_COORD97":168207.91,"N_COORD97":2543803.8500000001,"ADDRESS":"民生路一段８０號三樓之２","OBJECTID":593666},"geometry":{"x":168207.91000000108,"y":2543803.8499999996}},{"attributes":{"ID":593694,"DIS_CODE":0,"TOWNNAME":"中西區","LI":"永福里","LIN":"11鄰","STREET":"民生路","SECT":"一段","MAREA":" ","LANE":" ","ALLEY":" ","HOUSE_NO":"８０號五樓之１","E_COORD97":168207.91,"N_COORD97":2543803.8500000001,"ADDRESS":"民生路一段８０號五樓之１","OBJECTID":593667},"geometry":{"x":168207.91000000108,"y":2543803.8499999996}},{"attributes":{"ID":593695,"DIS_CODE":0,"TOWNNAME":"中西區","LI":"永福里","LIN":"11鄰","STREET":"民生路","SECT":"一段","MAREA":" ","LANE":" ","ALLEY":" ","HOUSE_NO":"８０號五樓之２","E_COORD97":168207.91,"N_COORD97":2543803.8500000001,"ADDRESS":"民生路一段８０號五樓之２","OBJECTID":593668},"geometry":{"x":168207.91000000108,"y":2543803.8499999996}},{"attributes":{"ID":593696,"DIS_CODE":0,"TOWNNAME":"中西區","LI":"永福里","LIN":"11鄰","STREET":"民生路","SECT":"一段","MAREA":" ","LANE":" ","ALLEY":" ","HOUSE_NO":"８０號六樓之１","E_COORD97":168207.91,"N_COORD97":2543803.8500000001,"ADDRESS":"民生路一段８０號六樓之１","OBJECTID":593669},"geometry":{"x":168207.91000000108,"y":2543803.8499999996}},{"attributes":{"ID":593697,"DIS_CODE":0,"TOWNNAME":"中西區","LI":"永福里","LIN":"11鄰","STREET":"民生路","SECT":"一段","MAREA":" ","LANE":" ","ALLEY":" ","HOUSE_NO":"８０號六樓之２","E_COORD97":168207.91,"N_COORD97":2543803.8500000001,"ADDRESS":"民生路一段８０號六樓之２","OBJECTID":593670},"geometry":{"x":168207.91000000108,"y":2543803.8499999996}},{"attributes":{"ID":593698,"DIS_CODE":0,"TOWNNAME":"中西區","LI":"永福里","LIN":"11鄰","STREET":"民生路","SECT":"一段","MAREA":" ","LANE":" ","ALLEY":" ","HOUSE_NO":"８０號四樓之１","E_COORD97":168207.91,"N_COORD97":2543803.8500000001,"ADDRESS":"民生路一段８０號四樓之１","OBJECTID":593671},"geometry":{"x":168207.91000000108,"y":2543803.8499999996}},{"attributes":{"ID":593699,"DIS_CODE":0,"TOWNNAME":"中西區","LI":"永福里","LIN":"11鄰","STREET":"民生路","SECT":"一段","MAREA":" ","LANE":" ","ALLEY":" ","HOUSE_NO":"８０號四樓之２","E_COORD97":168207.91,"N_COORD97":2543803.8500000001,"ADDRESS":"民生路一段８０號四樓之２","OBJECTID":593672},"geometry":{"x":168207.91000000108,"y":2543803.8499999996}},{"attributes":{"ID":593700,"DIS_CODE":0,"TOWNNAME":"東區","LI":"崇善里","LIN":"6鄰","STREET":"崇善六街","SECT":" ","MAREA":" ","LANE":" ","ALLEY":" ","HOUSE_NO":"３６號","E_COORD97":171114.47,"N_COORD97":2541520.6800000002,"ADDRESS":"崇善六街３６號","OBJECTID":593673},"geometry":{"x":171114.47000000067,"y":2541520.6800000034}},{"attributes":{"ID":593701,"DIS_CODE":0,"TOWNNAME":"東區","LI":"忠孝里","LIN":"11鄰","STREET":"榮譽街","SECT":" ","MAREA":" ","LANE":" ","ALLEY":" ","HOUSE_NO":"１１０號七樓之２","E_COORD97":169835.78,"N_COORD97":2541728.2999999998,"ADDRESS":"榮譽街１１０號七樓之２","OBJECTID":593674},"geometry":{"x":169835.78000000212,"y":2541728.3000000026}},{"attributes":{"ID":593702,"DIS_CODE":0,"TOWNNAME":"東區","LI":"忠孝里","LIN":"11鄰","STREET":"榮譽街","SECT":" ","MAREA":" ","LANE":" ","ALLEY":" ","HOUSE_NO":"１０６號四樓","E_COORD97":169827.19,"N_COORD97":2541723.4399999999,"ADDRESS":"榮譽街１０６號四樓","OBJECTID":593675},"geometry":{"x":169827.19000000041,"y":2541723.4400000013}},{"attributes":{"ID":593703,"DIS_CODE":0,"TOWNNAME":"東區","LI":"忠孝里","LIN":"11鄰","STREET":"榮譽街","SECT":" ","MAREA":" ","LANE":" ","ALLEY":" ","HOUSE_NO":"１０６號四樓之１","E_COORD97":169827.19,"N_COORD97":2541723.4399999999,"ADDRESS":"榮譽街１０６號四樓之１","OBJECTID":593676},"geometry":{"x":169827.19000000041,"y":2541723.4400000013}},{"attributes":{"ID":593704,"DIS_CODE":0,"TOWNNAME":"東區","LI":"忠孝里","LIN":"11鄰","STREET":"榮譽街","SECT":" ","MAREA":" ","LANE":" ","ALLEY":" ","HOUSE_NO":"１０６號四樓之２","E_COORD97":169827.19,"N_COORD97":2541723.4399999999,"ADDRESS":"榮譽街１０６號四樓之２","OBJECTID":593677},"geometry":{"x":169827.19000000041,"y":2541723.4400000013}},{"attributes":{"ID":593705,"DIS_CODE":0,"TOWNNAME":"東區","LI":"忠孝里","LIN":"11鄰","STREET":"榮譽街","SECT":" ","MAREA":" ","LANE":" ","ALLEY":" ","HOUSE_NO":"１０８號二樓","E_COORD97":169830.75,"N_COORD97":2541725.54,"ADDRESS":"榮譽街１０８號二樓","OBJECTID":593678},"geometry":{"x":169830.75000000093,"y":2541725.540000001}},{"attributes":{"ID":593706,"DIS_CODE":0,"TOWNNAME":"東區","LI":"忠孝里","LIN":"11鄰","STREET":"榮譽街","SECT":" ","MAREA":" ","LANE":" ","ALLEY":" ","HOUSE_NO":"１１０號七樓","E_COORD97":169835.78,"N_COORD97":2541728.2999999998,"ADDRESS":"榮譽街１１０號七樓","OBJECTID":593679},"geometry":{"x":169835.78000000212,"y":2541728.3000000026}},{"attributes":{"ID":593707,"DIS_CODE":0,"TOWNNAME":"東區","LI":"忠孝里","LIN":"11鄰","STREET":"榮譽街","SECT":" ","MAREA":" ","LANE":" ","ALLEY":" ","HOUSE_NO":"１１０號七樓之１","E_COORD97":169835.78,"N_COORD97":2541728.2999999998,"ADDRESS":"榮譽街１１０號七樓之１","OBJECTID":593680},"geometry":{"x":169835.78000000212,"y":2541728.3000000026}},{"attributes":{"ID":593708,"DIS_CODE":0,"TOWNNAME":"東區","LI":"忠孝里","LIN":"11鄰","STREET":"榮譽街","SECT":" ","MAREA":" ","LANE":" ","ALLEY":" ","HOUSE_NO":"１１０號二樓","E_COORD97":169835.78,"N_COORD97":2541728.2999999998,"ADDRESS":"榮譽街１１０號二樓","OBJECTID":593681},"geometry":{"x":169835.78000000212,"y":2541728.3000000026}},{"attributes":{"ID":593709,"DIS_CODE":0,"TOWNNAME":"東區","LI":"忠孝里","LIN":"11鄰","STREET":"榮譽街","SECT":" ","MAREA":" ","LANE":" ","ALLEY":" ","HOUSE_NO":"１１０號二樓之１","E_COORD97":169835.78,"N_COORD97":2541728.2999999998,"ADDRESS":"榮譽街１１０號二樓之１","OBJECTID":593682},"geometry":{"x":169835.78000000212,"y":2541728.3000000026}},{"attributes":{"ID":593710,"DIS_CODE":0,"TOWNNAME":"東區","LI":"忠孝里","LIN":"11鄰","STREET":"榮譽街","SECT":" ","MAREA":" ","LANE":" ","ALLEY":" ","HOUSE_NO":"１１０號二樓之２","E_COORD97":169835.78,"N_COORD97":2541728.2999999998,"ADDRESS":"榮譽街１１０號二樓之２","OBJECTID":593683},"geometry":{"x":169835.78000000212,"y":2541728.3000000026}},{"attributes":{"ID":593711,"DIS_CODE":0,"TOWNNAME":"東區","LI":"忠孝里","LIN":"11鄰","STREET":"榮譽街","SECT":" ","MAREA":" ","LANE":" ","ALLEY":" ","HOUSE_NO":"１１０號三樓","E_COORD97":169835.78,"N_COORD97":2541728.2999999998,"ADDRESS":"榮譽街１１０號三樓","OBJECTID":593684},"geometry":{"x":169835.78000000212,"y":2541728.3000000026}},{"attributes":{"ID":593712,"DIS_CODE":0,"TOWNNAME":"東區","LI":"忠孝里","LIN":"11鄰","STREET":"榮譽街","SECT":" ","MAREA":" ","LANE":" ","ALLEY":" ","HOUSE_NO":"１１０號三樓之１","E_COORD97":169835.78,"N_COORD97":2541728.2999999998,"ADDRESS":"榮譽街１１０號三樓之１","OBJECTID":593685},"geometry":{"x":169835.78000000212,"y":2541728.3000000026}},{"attributes":{"ID":593713,"DIS_CODE":0,"TOWNNAME":"東區","LI":"忠孝里","LIN":"11鄰","STREET":"榮譽街","SECT":" ","MAREA":" ","LANE":" ","ALLEY":" ","HOUSE_NO":"１１０號三樓之２","E_COORD97":169835.78,"N_COORD97":2541728.2999999998,"ADDRESS":"榮譽街１１０號三樓之２","OBJECTID":593686},"geometry":{"x":169835.78000000212,"y":2541728.3000000026}},{"attributes":{"ID":593714,"DIS_CODE":0,"TOWNNAME":"東區","LI":"忠孝里","LIN":"11鄰","STREET":"榮譽街","SECT":" ","MAREA":" ","LANE":" ","ALLEY":" ","HOUSE_NO":"１１０號五樓","E_COORD97":169835.78,"N_COORD97":2541728.2999999998,"ADDRESS":"榮譽街１１０號五樓","OBJECTID":593687},"geometry":{"x":169835.78000000212,"y":2541728.3000000026}},{"attributes":{"ID":593715,"DIS_CODE":0,"TOWNNAME":"東區","LI":"忠孝里","LIN":"11鄰","STREET":"榮譽街","SECT":" ","MAREA":" ","LANE":" ","ALLEY":" ","HOUSE_NO":"１１０號五樓之１","E_COORD97":169835.78,"N_COORD97":2541728.2999999998,"ADDRESS":"榮譽街１１０號五樓之１","OBJECTID":593688},"geometry":{"x":169835.78000000212,"y":2541728.3000000026}},{"attributes":{"ID":593716,"DIS_CODE":0,"TOWNNAME":"東區","LI":"忠孝里","LIN":"11鄰","STREET":"榮譽街","SECT":" ","MAREA":" ","LANE":" ","ALLEY":" ","HOUSE_NO":"１１０號五樓之２","E_COORD97":169835.78,"N_COORD97":2541728.2999999998,"ADDRESS":"榮譽街１１０號五樓之２","OBJECTID":593689},"geometry":{"x":169835.78000000212,"y":2541728.3000000026}},{"attributes":{"ID":593717,"DIS_CODE":0,"TOWNNAME":"東區","LI":"忠孝里","LIN":"11鄰","STREET":"榮譽街","SECT":" ","MAREA":" ","LANE":" ","ALLEY":" ","HOUSE_NO":"１１０號六樓","E_COORD97":169835.78,"N_COORD97":2541728.2999999998,"ADDRESS":"榮譽街１１０號六樓","OBJECTID":593690},"geometry":{"x":169835.78000000212,"y":2541728.3000000026}},{"attributes":{"ID":593718,"DIS_CODE":0,"TOWNNAME":"東區","LI":"忠孝里","LIN":"11鄰","STREET":"榮譽街","SECT":" ","MAREA":" ","LANE":" ","ALLEY":" ","HOUSE_NO":"１１０號六樓之１","E_COORD97":169835.78,"N_COORD97":2541728.2999999998,"ADDRESS":"榮譽街１１０號六樓之１","OBJECTID":593691},"geometry":{"x":169835.78000000212,"y":2541728.3000000026}},{"attributes":{"ID":593719,"DIS_CODE":0,"TOWNNAME":"東區","LI":"忠孝里","LIN":"11鄰","STREET":"榮譽街","SECT":" ","MAREA":" ","LANE":" ","ALLEY":" ","HOUSE_NO":"１１０號六樓之２","E_COORD97":169835.78,"N_COORD97":2541728.2999999998,"ADDRESS":"榮譽街１１０號六樓之２","OBJECTID":593692},"geometry":{"x":169835.78000000212,"y":2541728.3000000026}},{"attributes":{"ID":593720,"DIS_CODE":0,"TOWNNAME":"東區","LI":"忠孝里","LIN":"11鄰","STREET":"榮譽街","SECT":" ","MAREA":" ","LANE":" ","ALLEY":" ","HOUSE_NO":"１１０號四樓","E_COORD97":169835.78,"N_COORD97":2541728.2999999998,"ADDRESS":"榮譽街１１０號四樓","OBJECTID":593693},"geometry":{"x":169835.78000000212,"y":2541728.3000000026}},{"attributes":{"ID":593721,"DIS_CODE":0,"TOWNNAME":"東區","LI":"忠孝里","LIN":"11鄰","STREET":"榮譽街","SECT":" ","MAREA":" ","LANE":" ","ALLEY":" ","HOUSE_NO":"１１０號四樓之１","E_COORD97":169835.78,"N_COORD97":2541728.2999999998,"ADDRESS":"榮譽街１１０號四樓之１","OBJECTID":593694},"geometry":{"x":169835.78000000212,"y":2541728.3000000026}},{"attributes":{"ID":593722,"DIS_CODE":0,"TOWNNAME":"東區","LI":"忠孝里","LIN":"11鄰","STREET":"榮譽街","SECT":" ","MAREA":" ","LANE":" ","ALLEY":" ","HOUSE_NO":"１１０號四樓之２","E_COORD97":169835.78,"N_COORD97":2541728.2999999998,"ADDRESS":"榮譽街１１０號四樓之２","OBJECTID":593695},"geometry":{"x":169835.78000000212,"y":2541728.3000000026}},{"attributes":{"ID":593723,"DIS_CODE":0,"TOWNNAME":"東區","LI":"忠孝里","LIN":"11鄰","STREET":"榮譽街","SECT":" ","MAREA":" ","LANE":" ","ALLEY":" ","HOUSE_NO":"１１２號七樓","E_COORD97":169841.13,"N_COORD97":2541731.0499999998,"ADDRESS":"榮譽街１１２號七樓","OBJECTID":593696},"geometry":{"x":169841.12999999989,"y":2541731.0500000026}},{"attributes":{"ID":593724,"DIS_CODE":0,"TOWNNAME":"東區","LI":"崇善里","LIN":"26鄰","STREET":"崇善十三街","SECT":" ","MAREA":" ","LANE":" ","ALLEY":" ","HOUSE_NO":"４６號","E_COORD97":171326.19,"N_COORD97":2541023.4900000002,"ADDRESS":"崇善十三街４６號","OBJECTID":593697},"geometry":{"x":171326.19000000041,"y":2541023.4900000002}},{"attributes":{"ID":593725,"DIS_CODE":0,"TOWNNAME":"東區","LI":"忠孝里","LIN":"11鄰","STREET":"榮譽街","SECT":" ","MAREA":" ","LANE":" ","ALLEY":" ","HOUSE_NO":"１１２號七樓之１","E_COORD97":169841.13,"N_COORD97":2541731.0499999998,"ADDRESS":"榮譽街１１２號七樓之１","OBJECTID":593698},"geometry":{"x":169841.12999999989,"y":2541731.0500000026}},{"attributes":{"ID":593726,"DIS_CODE":0,"TOWNNAME":"東區","LI":"忠孝里","LIN":"11鄰","STREET":"榮譽街","SECT":" ","MAREA":" ","LANE":" ","ALLEY":" ","HOUSE_NO":"１１２號七樓之２","E_COORD97":169841.13,"N_COORD97":2541731.0499999998,"ADDRESS":"榮譽街１１２號七樓之２","OBJECTID":593699},"geometry":{"x":169841.12999999989,"y":2541731.0500000026}},{"attributes":{"ID":593727,"DIS_CODE":0,"TOWNNAME":"東區","LI":"忠孝里","LIN":"11鄰","STREET":"榮譽街","SECT":" ","MAREA":" ","LANE":" ","ALLEY":" ","HOUSE_NO":"１１２號二樓","E_COORD97":169841.13,"N_COORD97":2541731.0499999998,"ADDRESS":"榮譽街１１２號二樓","OBJECTID":593700},"geometry":{"x":169841.12999999989,"y":2541731.0500000026}},{"attributes":{"ID":593728,"DIS_CODE":0,"TOWNNAME":"東區","LI":"忠孝里","LIN":"11鄰","STREET":"榮譽街","SECT":" ","MAREA":" ","LANE":" ","ALLEY":" ","HOUSE_NO":"１１２號二樓之１","E_COORD97":169841.13,"N_COORD97":2541731.0499999998,"ADDRESS":"榮譽街１１２號二樓之１","OBJECTID":593701},"geometry":{"x":169841.12999999989,"y":2541731.0500000026}},{"attributes":{"ID":593729,"DIS_CODE":0,"TOWNNAME":"東區","LI":"忠孝里","LIN":"11鄰","STREET":"榮譽街","SECT":" ","MAREA":" ","LANE":" ","ALLEY":" ","HOUSE_NO":"１１２號二樓之２","E_COORD97":169841.13,"N_COORD97":2541731.0499999998,"ADDRESS":"榮譽街１１２號二樓之２","OBJECTID":593702},"geometry":{"x":169841.12999999989,"y":2541731.0500000026}},{"attributes":{"ID":593730,"DIS_CODE":0,"TOWNNAME":"東區","LI":"忠孝里","LIN":"11鄰","STREET":"榮譽街","SECT":" ","MAREA":" ","LANE":" ","ALLEY":" ","HOUSE_NO":"１１２號三樓","E_COORD97":169841.13,"N_COORD97":2541731.0499999998,"ADDRESS":"榮譽街１１２號三樓","OBJECTID":593703},"geometry":{"x":169841.12999999989,"y":2541731.0500000026}},{"attributes":{"ID":593731,"DIS_CODE":0,"TOWNNAME":"東區","LI":"忠孝里","LIN":"11鄰","STREET":"榮譽街","SECT":" ","MAREA":" ","LANE":" ","ALLEY":" ","HOUSE_NO":"１１２號三樓之１","E_COORD97":169841.13,"N_COORD97":2541731.0499999998,"ADDRESS":"榮譽街１１２號三樓之１","OBJECTID":593704},"geometry":{"x":169841.12999999989,"y":2541731.0500000026}},{"attributes":{"ID":593732,"DIS_CODE":0,"TOWNNAME":"東區","LI":"忠孝里","LIN":"11鄰","STREET":"榮譽街","SECT":" ","MAREA":" ","LANE":" ","ALLEY":" ","HOUSE_NO":"１１２號三樓之２","E_COORD97":169841.13,"N_COORD97":2541731.0499999998,"ADDRESS":"榮譽街１１２號三樓之２","OBJECTID":593705},"geometry":{"x":169841.12999999989,"y":2541731.0500000026}},{"attributes":{"ID":593733,"DIS_CODE":0,"TOWNNAME":"東區","LI":"忠孝里","LIN":"11鄰","STREET":"榮譽街","SECT":" ","MAREA":" ","LANE":" ","ALLEY":" ","HOUSE_NO":"１１２號五樓","E_COORD97":169841.13,"N_COORD97":2541731.0499999998,"ADDRESS":"榮譽街１１２號五樓","OBJECTID":593706},"geometry":{"x":169841.12999999989,"y":2541731.0500000026}},{"attributes":{"ID":593734,"DIS_CODE":0,"TOWNNAME":"東區","LI":"忠孝里","LIN":"11鄰","STREET":"榮譽街","SECT":" ","MAREA":" ","LANE":" ","ALLEY":" ","HOUSE_NO":"１１２號五樓之１","E_COORD97":169841.13,"N_COORD97":2541731.0499999998,"ADDRESS":"榮譽街１１２號五樓之１","OBJECTID":593707},"geometry":{"x":169841.12999999989,"y":2541731.0500000026}},{"attributes":{"ID":593735,"DIS_CODE":0,"TOWNNAME":"東區","LI":"忠孝里","LIN":"11鄰","STREET":"榮譽街","SECT":" ","MAREA":" ","LANE":" ","ALLEY":" ","HOUSE_NO":"１１２號五樓之２","E_COORD97":169841.13,"N_COORD97":2541731.0499999998,"ADDRESS":"榮譽街１１２號五樓之２","OBJECTID":593708},"geometry":{"x":169841.12999999989,"y":2541731.0500000026}},{"attributes":{"ID":593736,"DIS_CODE":0,"TOWNNAME":"東區","LI":"忠孝里","LIN":"11鄰","STREET":"榮譽街","SECT":" ","MAREA":" ","LANE":" ","ALLEY":" ","HOUSE_NO":"１１２號六樓","E_COORD97":169841.13,"N_COORD97":2541731.0499999998,"ADDRESS":"榮譽街１１２號六樓","OBJECTID":593709},"geometry":{"x":169841.12999999989,"y":2541731.0500000026}},{"attributes":{"ID":593737,"DIS_CODE":0,"TOWNNAME":"東區","LI":"忠孝里","LIN":"11鄰","STREET":"榮譽街","SECT":" ","MAREA":" ","LANE":" ","ALLEY":" ","HOUSE_NO":"１１２號六樓之１","E_COORD97":169841.13,"N_COORD97":2541731.0499999998,"ADDRESS":"榮譽街１１２號六樓之１","OBJECTID":593710},"geometry":{"x":169841.12999999989,"y":2541731.0500000026}},{"attributes":{"ID":593738,"DIS_CODE":0,"TOWNNAME":"東區","LI":"忠孝里","LIN":"11鄰","STREET":"榮譽街","SECT":" ","MAREA":" ","LANE":" ","ALLEY":" ","HOUSE_NO":"１１２號六樓之２","E_COORD97":169841.13,"N_COORD97":2541731.0499999998,"ADDRESS":"榮譽街１１２號六樓之２","OBJECTID":593711},"geometry":{"x":169841.12999999989,"y":2541731.0500000026}},{"attributes":{"ID":593739,"DIS_CODE":0,"TOWNNAME":"東區","LI":"忠孝里","LIN":"11鄰","STREET":"榮譽街","SECT":" ","MAREA":" ","LANE":" ","ALLEY":" ","HOUSE_NO":"１１２號四樓","E_COORD97":169841.13,"N_COORD97":2541731.0499999998,"ADDRESS":"榮譽街１１２號四樓","OBJECTID":593712},"geometry":{"x":169841.12999999989,"y":2541731.0500000026}},{"attributes":{"ID":593740,"DIS_CODE":0,"TOWNNAME":"東區","LI":"忠孝里","LIN":"11鄰","STREET":"榮譽街","SECT":" ","MAREA":" ","LANE":" ","ALLEY":" ","HOUSE_NO":"１１２號四樓之１","E_COORD97":169841.13,"N_COORD97":2541731.0499999998,"ADDRESS":"榮譽街１１２號四樓之１","OBJECTID":593713},"geometry":{"x":169841.12999999989,"y":2541731.0500000026}},{"attributes":{"ID":593741,"DIS_CODE":0,"TOWNNAME":"東區","LI":"忠孝里","LIN":"11鄰","STREET":"榮譽街","SECT":" ","MAREA":" ","LANE":" ","ALLEY":" ","HOUSE_NO":"１１２號四樓之２","E_COORD97":169841.13,"N_COORD97":2541731.0499999998,"ADDRESS":"榮譽街１１２號四樓之２","OBJECTID":593714},"geometry":{"x":169841.12999999989,"y":2541731.0500000026}},{"attributes":{"ID":593742,"DIS_CODE":0,"TOWNNAME":"東區","LI":"忠孝里","LIN":"11鄰","STREET":"榮譽街","SECT":" ","MAREA":" ","LANE":" ","ALLEY":" ","HOUSE_NO":"１１４號七樓","E_COORD97":169847.45000000001,"N_COORD97":2541734.77,"ADDRESS":"榮譽街１１４號七樓","OBJECTID":593715},"geometry":{"x":169847.45000000019,"y":2541734.7700000014}},{"attributes":{"ID":593743,"DIS_CODE":0,"TOWNNAME":"東區","LI":"忠孝里","LIN":"11鄰","STREET":"榮譽街","SECT":" ","MAREA":" ","LANE":" ","ALLEY":" ","HOUSE_NO":"１１４號七樓之１","E_COORD97":169847.45000000001,"N_COORD97":2541734.77,"ADDRESS":"榮譽街１１４號七樓之１","OBJECTID":593716},"geometry":{"x":169847.45000000019,"y":2541734.7700000014}},{"attributes":{"ID":593744,"DIS_CODE":0,"TOWNNAME":"東區","LI":"忠孝里","LIN":"11鄰","STREET":"榮譽街","SECT":" ","MAREA":" ","LANE":" ","ALLEY":" ","HOUSE_NO":"１１４號七樓之２","E_COORD97":169847.45000000001,"N_COORD97":2541734.77,"ADDRESS":"榮譽街１１４號七樓之２","OBJECTID":593717},"geometry":{"x":169847.45000000019,"y":2541734.7700000014}},{"attributes":{"ID":593745,"DIS_CODE":0,"TOWNNAME":"東區","LI":"忠孝里","LIN":"11鄰","STREET":"榮譽街","SECT":" ","MAREA":" ","LANE":" ","ALLEY":" ","HOUSE_NO":"１１４號二樓","E_COORD97":169847.45000000001,"N_COORD97":2541734.77,"ADDRESS":"榮譽街１１４號二樓","OBJECTID":593718},"geometry":{"x":169847.45000000019,"y":2541734.7700000014}},{"attributes":{"ID":593746,"DIS_CODE":0,"TOWNNAME":"東區","LI":"忠孝里","LIN":"11鄰","STREET":"榮譽街","SECT":" ","MAREA":" ","LANE":" ","ALLEY":" ","HOUSE_NO":"１１４號二樓之１","E_COORD97":169847.45000000001,"N_COORD97":2541734.77,"ADDRESS":"榮譽街１１４號二樓之１","OBJECTID":593719},"geometry":{"x":169847.45000000019,"y":2541734.7700000014}},{"attributes":{"ID":593747,"DIS_CODE":0,"TOWNNAME":"東區","LI":"忠孝里","LIN":"11鄰","STREET":"榮譽街","SECT":" ","MAREA":" ","LANE":" ","ALLEY":" ","HOUSE_NO":"１１４號二樓之２","E_COORD97":169847.45000000001,"N_COORD97":2541734.77,"ADDRESS":"榮譽街１１４號二樓之２","OBJECTID":593720},"geometry":{"x":169847.45000000019,"y":2541734.7700000014}},{"attributes":{"ID":593748,"DIS_CODE":0,"TOWNNAME":"東區","LI":"忠孝里","LIN":"11鄰","STREET":"榮譽街","SECT":" ","MAREA":" ","LANE":" ","ALLEY":" ","HOUSE_NO":"１１４號三樓","E_COORD97":169847.45000000001,"N_COORD97":2541734.77,"ADDRESS":"榮譽街１１４號三樓","OBJECTID":593721},"geometry":{"x":169847.45000000019,"y":2541734.7700000014}},{"attributes":{"ID":593749,"DIS_CODE":0,"TOWNNAME":"東區","LI":"忠孝里","LIN":"11鄰","STREET":"榮譽街","SECT":" ","MAREA":" ","LANE":" ","ALLEY":" ","HOUSE_NO":"１１４號三樓之１","E_COORD97":169847.45000000001,"N_COORD97":2541734.77,"ADDRESS":"榮譽街１１４號三樓之１","OBJECTID":593722},"geometry":{"x":169847.45000000019,"y":2541734.7700000014}},{"attributes":{"ID":593750,"DIS_CODE":0,"TOWNNAME":"東區","LI":"忠孝里","LIN":"11鄰","STREET":"榮譽街","SECT":" ","MAREA":" ","LANE":" ","ALLEY":" ","HOUSE_NO":"１１４號三樓之２","E_COORD97":169847.45000000001,"N_COORD97":2541734.77,"ADDRESS":"榮譽街１１４號三樓之２","OBJECTID":593723},"geometry":{"x":169847.45000000019,"y":2541734.7700000014}},{"attributes":{"ID":593751,"DIS_CODE":0,"TOWNNAME":"東區","LI":"忠孝里","LIN":"11鄰","STREET":"榮譽街","SECT":" ","MAREA":" ","LANE":" ","ALLEY":" ","HOUSE_NO":"１１４號五樓","E_COORD97":169847.45000000001,"N_COORD97":2541734.77,"ADDRESS":"榮譽街１１４號五樓","OBJECTID":593724},"geometry":{"x":169847.45000000019,"y":2541734.7700000014}},{"attributes":{"ID":593752,"DIS_CODE":0,"TOWNNAME":"東區","LI":"忠孝里","LIN":"11鄰","STREET":"榮譽街","SECT":" ","MAREA":" ","LANE":" ","ALLEY":" ","HOUSE_NO":"１１４號五樓之１","E_COORD97":169847.45000000001,"N_COORD97":2541734.77,"ADDRESS":"榮譽街１１４號五樓之１","OBJECTID":593725},"geometry":{"x":169847.45000000019,"y":2541734.7700000014}},{"attributes":{"ID":593753,"DIS_CODE":0,"TOWNNAME":"東區","LI":"忠孝里","LIN":"11鄰","STREET":"榮譽街","SECT":" ","MAREA":" ","LANE":" ","ALLEY":" ","HOUSE_NO":"１１４號五樓之２","E_COORD97":169847.45000000001,"N_COORD97":2541734.77,"ADDRESS":"榮譽街１１４號五樓之２","OBJECTID":593726},"geometry":{"x":169847.45000000019,"y":2541734.7700000014}},{"attributes":{"ID":593754,"DIS_CODE":0,"TOWNNAME":"東區","LI":"忠孝里","LIN":"11鄰","STREET":"榮譽街","SECT":" ","MAREA":" ","LANE":" ","ALLEY":" ","HOUSE_NO":"１１４號六樓","E_COORD97":169847.45000000001,"N_COORD97":2541734.77,"ADDRESS":"榮譽街１１４號六樓","OBJECTID":593727},"geometry":{"x":169847.45000000019,"y":2541734.7700000014}},{"attributes":{"ID":593755,"DIS_CODE":0,"TOWNNAME":"東區","LI":"忠孝里","LIN":"11鄰","STREET":"榮譽街","SECT":" ","MAREA":" ","LANE":" ","ALLEY":" ","HOUSE_NO":"１１４號六樓之１","E_COORD97":169847.45000000001,"N_COORD97":2541734.77,"ADDRESS":"榮譽街１１４號六樓之１","OBJECTID":593728},"geometry":{"x":169847.45000000019,"y":2541734.7700000014}},{"attributes":{"ID":593756,"DIS_CODE":0,"TOWNNAME":"東區","LI":"忠孝里","LIN":"11鄰","STREET":"榮譽街","SECT":" ","MAREA":" ","LANE":" ","ALLEY":" ","HOUSE_NO":"１１４號六樓之２","E_COORD97":169847.45000000001,"N_COORD97":2541734.77,"ADDRESS":"榮譽街１１４號六樓之２","OBJECTID":593729},"geometry":{"x":169847.45000000019,"y":2541734.7700000014}},{"attributes":{"ID":593757,"DIS_CODE":0,"TOWNNAME":"東區","LI":"忠孝里","LIN":"11鄰","STREET":"榮譽街","SECT":" ","MAREA":" ","LANE":" ","ALLEY":" ","HOUSE_NO":"１１４號四樓","E_COORD97":169847.45000000001,"N_COORD97":2541734.77,"ADDRESS":"榮譽街１１４號四樓","OBJECTID":593730},"geometry":{"x":169847.45000000019,"y":2541734.7700000014}},{"attributes":{"ID":593758,"DIS_CODE":0,"TOWNNAME":"東區","LI":"忠孝里","LIN":"11鄰","STREET":"榮譽街","SECT":" ","MAREA":" ","LANE":" ","ALLEY":" ","HOUSE_NO":"１１４號四樓之１","E_COORD97":169847.45000000001,"N_COORD97":2541734.77,"ADDRESS":"榮譽街１１４號四樓之１","OBJECTID":593731},"geometry":{"x":169847.45000000019,"y":2541734.7700000014}},{"attributes":{"ID":593759,"DIS_CODE":0,"TOWNNAME":"東區","LI":"忠孝里","LIN":"11鄰","STREET":"榮譽街","SECT":" ","MAREA":" ","LANE":" ","ALLEY":" ","HOUSE_NO":"１１４號四樓之２","E_COORD97":169847.45000000001,"N_COORD97":2541734.77,"ADDRESS":"榮譽街１１４號四樓之２","OBJECTID":593732},"geometry":{"x":169847.45000000019,"y":2541734.7700000014}},{"attributes":{"ID":593760,"DIS_CODE":0,"TOWNNAME":"東區","LI":"忠孝里","LIN":"11鄰","STREET":"榮譽街","SECT":" ","MAREA":" ","LANE":" ","ALLEY":" ","HOUSE_NO":"１１６號七樓","E_COORD97":169851.66,"N_COORD97":2541737.52,"ADDRESS":"榮譽街１１６號七樓","OBJECTID":593733},"geometry":{"x":169851.66000000201,"y":2541737.5199999996}},{"attributes":{"ID":593761,"DIS_CODE":0,"TOWNNAME":"東區","LI":"忠孝里","LIN":"11鄰","STREET":"榮譽街","SECT":" ","MAREA":" ","LANE":" ","ALLEY":" ","HOUSE_NO":"１１６號七樓之１","E_COORD97":169851.66,"N_COORD97":2541737.52,"ADDRESS":"榮譽街１１６號七樓之１","OBJECTID":593734},"geometry":{"x":169851.66000000201,"y":2541737.5199999996}},{"attributes":{"ID":593762,"DIS_CODE":0,"TOWNNAME":"東區","LI":"忠孝里","LIN":"11鄰","STREET":"榮譽街","SECT":" ","MAREA":" ","LANE":" ","ALLEY":" ","HOUSE_NO":"１１６號七樓之２","E_COORD97":169851.66,"N_COORD97":2541737.52,"ADDRESS":"榮譽街１１６號七樓之２","OBJECTID":593735},"geometry":{"x":169851.66000000201,"y":2541737.5199999996}},{"attributes":{"ID":593763,"DIS_CODE":0,"TOWNNAME":"東區","LI":"忠孝里","LIN":"11鄰","STREET":"榮譽街","SECT":" ","MAREA":" ","LANE":" ","ALLEY":" ","HOUSE_NO":"１１６號二樓","E_COORD97":169851.66,"N_COORD97":2541737.52,"ADDRESS":"榮譽街１１６號二樓","OBJECTID":593736},"geometry":{"x":169851.66000000201,"y":2541737.5199999996}},{"attributes":{"ID":593764,"DIS_CODE":0,"TOWNNAME":"東區","LI":"忠孝里","LIN":"11鄰","STREET":"榮譽街","SECT":" ","MAREA":" ","LANE":" ","ALLEY":" ","HOUSE_NO":"１１６號二樓之１","E_COORD97":169851.66,"N_COORD97":2541737.52,"ADDRESS":"榮譽街１１６號二樓之１","OBJECTID":593737},"geometry":{"x":169851.66000000201,"y":2541737.5199999996}},{"attributes":{"ID":593765,"DIS_CODE":0,"TOWNNAME":"東區","LI":"忠孝里","LIN":"11鄰","STREET":"榮譽街","SECT":" ","MAREA":" ","LANE":" ","ALLEY":" ","HOUSE_NO":"１１６號二樓之２","E_COORD97":169851.66,"N_COORD97":2541737.52,"ADDRESS":"榮譽街１１６號二樓之２","OBJECTID":593738},"geometry":{"x":169851.66000000201,"y":2541737.5199999996}},{"attributes":{"ID":593766,"DIS_CODE":0,"TOWNNAME":"東區","LI":"忠孝里","LIN":"11鄰","STREET":"榮譽街","SECT":" ","MAREA":" ","LANE":" ","ALLEY":" ","HOUSE_NO":"１１６號三樓","E_COORD97":169851.66,"N_COORD97":2541737.52,"ADDRESS":"榮譽街１１６號三樓","OBJECTID":593739},"geometry":{"x":169851.66000000201,"y":2541737.5199999996}},{"attributes":{"ID":593767,"DIS_CODE":0,"TOWNNAME":"東區","LI":"忠孝里","LIN":"11鄰","STREET":"榮譽街","SECT":" ","MAREA":" ","LANE":" ","ALLEY":" ","HOUSE_NO":"１１６號三樓之１","E_COORD97":169851.66,"N_COORD97":2541737.52,"ADDRESS":"榮譽街１１６號三樓之１","OBJECTID":593740},"geometry":{"x":169851.66000000201,"y":2541737.5199999996}},{"attributes":{"ID":593768,"DIS_CODE":0,"TOWNNAME":"東區","LI":"忠孝里","LIN":"11鄰","STREET":"榮譽街","SECT":" ","MAREA":" ","LANE":" ","ALLEY":" ","HOUSE_NO":"１１６號三樓之２","E_COORD97":169851.66,"N_COORD97":2541737.52,"ADDRESS":"榮譽街１１６號三樓之２","OBJECTID":593741},"geometry":{"x":169851.66000000201,"y":2541737.5199999996}},{"attributes":{"ID":593769,"DIS_CODE":0,"TOWNNAME":"東區","LI":"忠孝里","LIN":"11鄰","STREET":"榮譽街","SECT":" ","MAREA":" ","LANE":" ","ALLEY":" ","HOUSE_NO":"１１６號五樓","E_COORD97":169851.66,"N_COORD97":2541737.52,"ADDRESS":"榮譽街１１６號五樓","OBJECTID":593742},"geometry":{"x":169851.66000000201,"y":2541737.5199999996}},{"attributes":{"ID":593770,"DIS_CODE":0,"TOWNNAME":"東區","LI":"忠孝里","LIN":"11鄰","STREET":"榮譽街","SECT":" ","MAREA":" ","LANE":" ","ALLEY":" ","HOUSE_NO":"１１６號五樓之１","E_COORD97":169851.66,"N_COORD97":2541737.52,"ADDRESS":"榮譽街１１６號五樓之１","OBJECTID":593743},"geometry":{"x":169851.66000000201,"y":2541737.5199999996}},{"attributes":{"ID":593771,"DIS_CODE":0,"TOWNNAME":"東區","LI":"忠孝里","LIN":"11鄰","STREET":"榮譽街","SECT":" ","MAREA":" ","LANE":" ","ALLEY":" ","HOUSE_NO":"１１６號五樓之２","E_COORD97":169851.66,"N_COORD97":2541737.52,"ADDRESS":"榮譽街１１６號五樓之２","OBJECTID":593744},"geometry":{"x":169851.66000000201,"y":2541737.5199999996}},{"attributes":{"ID":593772,"DIS_CODE":0,"TOWNNAME":"東區","LI":"忠孝里","LIN":"11鄰","STREET":"榮譽街","SECT":" ","MAREA":" ","LANE":" ","ALLEY":" ","HOUSE_NO":"１１６號六樓","E_COORD97":169851.66,"N_COORD97":2541737.52,"ADDRESS":"榮譽街１１６號六樓","OBJECTID":593745},"geometry":{"x":169851.66000000201,"y":2541737.5199999996}},{"attributes":{"ID":593773,"DIS_CODE":0,"TOWNNAME":"東區","LI":"忠孝里","LIN":"11鄰","STREET":"榮譽街","SECT":" ","MAREA":" ","LANE":" ","ALLEY":" ","HOUSE_NO":"１１６號六樓之１","E_COORD97":169851.66,"N_COORD97":2541737.52,"ADDRESS":"榮譽街１１６號六樓之１","OBJECTID":593746},"geometry":{"x":169851.66000000201,"y":2541737.5199999996}},{"attributes":{"ID":593774,"DIS_CODE":0,"TOWNNAME":"東區","LI":"忠孝里","LIN":"11鄰","STREET":"榮譽街","SECT":" ","MAREA":" ","LANE":" ","ALLEY":" ","HOUSE_NO":"１１６號六樓之２","E_COORD97":169851.66,"N_COORD97":2541737.52,"ADDRESS":"榮譽街１１６號六樓之２","OBJECTID":593747},"geometry":{"x":169851.66000000201,"y":2541737.5199999996}},{"attributes":{"ID":593775,"DIS_CODE":0,"TOWNNAME":"東區","LI":"忠孝里","LIN":"11鄰","STREET":"榮譽街","SECT":" ","MAREA":" ","LANE":" ","ALLEY":" ","HOUSE_NO":"１１６號四樓","E_COORD97":169851.66,"N_COORD97":2541737.52,"ADDRESS":"榮譽街１１６號四樓","OBJECTID":593748},"geometry":{"x":169851.66000000201,"y":2541737.5199999996}},{"attributes":{"ID":593776,"DIS_CODE":0,"TOWNNAME":"東區","LI":"忠孝里","LIN":"11鄰","STREET":"榮譽街","SECT":" ","MAREA":" ","LANE":" ","ALLEY":" ","HOUSE_NO":"１１６號四樓之１","E_COORD97":169851.66,"N_COORD97":2541737.52,"ADDRESS":"榮譽街１１６號四樓之１","OBJECTID":593749},"geometry":{"x":169851.66000000201,"y":2541737.5199999996}},{"attributes":{"ID":593777,"DIS_CODE":0,"TOWNNAME":"東區","LI":"忠孝里","LIN":"11鄰","STREET":"榮譽街","SECT":" ","MAREA":" ","LANE":" ","ALLEY":" ","HOUSE_NO":"１１６號四樓之２","E_COORD97":169851.66,"N_COORD97":2541737.52,"ADDRESS":"榮譽街１１６號四樓之２","OBJECTID":593750},"geometry":{"x":169851.66000000201,"y":2541737.5199999996}},{"attributes":{"ID":593778,"DIS_CODE":0,"TOWNNAME":"東區","LI":"忠孝里","LIN":"11鄰","STREET":"榮譽街","SECT":" ","MAREA":" ","LANE":" ","ALLEY":" ","HOUSE_NO":"１１８號七樓","E_COORD97":169856.85000000001,"N_COORD97":2541740.1099999999,"ADDRESS":"榮譽街１１８號七樓","OBJECTID":593751},"geometry":{"x":169856.85000000056,"y":2541740.1099999994}},{"attributes":{"ID":593779,"DIS_CODE":0,"TOWNNAME":"東區","LI":"忠孝里","LIN":"11鄰","STREET":"榮譽街","SECT":" ","MAREA":" ","LANE":" ","ALLEY":" ","HOUSE_NO":"１１８號七樓之１","E_COORD97":169856.85000000001,"N_COORD97":2541740.1099999999,"ADDRESS":"榮譽街１１８號七樓之１","OBJECTID":593752},"geometry":{"x":169856.85000000056,"y":2541740.1099999994}},{"attributes":{"ID":593780,"DIS_CODE":0,"TOWNNAME":"東區","LI":"忠孝里","LIN":"11鄰","STREET":"榮譽街","SECT":" ","MAREA":" ","LANE":" ","ALLEY":" ","HOUSE_NO":"１１８號七樓之２","E_COORD97":169856.85000000001,"N_COORD97":2541740.1099999999,"ADDRESS":"榮譽街１１８號七樓之２","OBJECTID":593753},"geometry":{"x":169856.85000000056,"y":2541740.1099999994}},{"attributes":{"ID":593781,"DIS_CODE":0,"TOWNNAME":"東區","LI":"忠孝里","LIN":"11鄰","STREET":"榮譽街","SECT":" ","MAREA":" ","LANE":" ","ALLEY":" ","HOUSE_NO":"１１８號二樓","E_COORD97":169856.85000000001,"N_COORD97":2541740.1099999999,"ADDRESS":"榮譽街１１８號二樓","OBJECTID":593754},"geometry":{"x":169856.85000000056,"y":2541740.1099999994}},{"attributes":{"ID":593782,"DIS_CODE":0,"TOWNNAME":"東區","LI":"忠孝里","LIN":"11鄰","STREET":"榮譽街","SECT":" ","MAREA":" ","LANE":" ","ALLEY":" ","HOUSE_NO":"１１８號二樓之１","E_COORD97":169856.85000000001,"N_COORD97":2541740.1099999999,"ADDRESS":"榮譽街１１８號二樓之１","OBJECTID":593755},"geometry":{"x":169856.85000000056,"y":2541740.1099999994}},{"attributes":{"ID":593783,"DIS_CODE":0,"TOWNNAME":"東區","LI":"忠孝里","LIN":"11鄰","STREET":"榮譽街","SECT":" ","MAREA":" ","LANE":" ","ALLEY":" ","HOUSE_NO":"１１８號二樓之２","E_COORD97":169856.85000000001,"N_COORD97":2541740.1099999999,"ADDRESS":"榮譽街１１８號二樓之２","OBJECTID":593756},"geometry":{"x":169856.85000000056,"y":2541740.1099999994}},{"attributes":{"ID":593784,"DIS_CODE":0,"TOWNNAME":"東區","LI":"忠孝里","LIN":"11鄰","STREET":"榮譽街","SECT":" ","MAREA":" ","LANE":" ","ALLEY":" ","HOUSE_NO":"１１８號三樓","E_COORD97":169856.85000000001,"N_COORD97":2541740.1099999999,"ADDRESS":"榮譽街１１８號三樓","OBJECTID":593757},"geometry":{"x":169856.85000000056,"y":2541740.1099999994}},{"attributes":{"ID":593785,"DIS_CODE":0,"TOWNNAME":"東區","LI":"忠孝里","LIN":"11鄰","STREET":"榮譽街","SECT":" ","MAREA":" ","LANE":" ","ALLEY":" ","HOUSE_NO":"１１８號三樓之１","E_COORD97":169856.85000000001,"N_COORD97":2541740.1099999999,"ADDRESS":"榮譽街１１８號三樓之１","OBJECTID":593758},"geometry":{"x":169856.85000000056,"y":2541740.1099999994}},{"attributes":{"ID":593786,"DIS_CODE":0,"TOWNNAME":"東區","LI":"忠孝里","LIN":"11鄰","STREET":"榮譽街","SECT":" ","MAREA":" ","LANE":" ","ALLEY":" ","HOUSE_NO":"１１８號三樓之２","E_COORD97":169856.85000000001,"N_COORD97":2541740.1099999999,"ADDRESS":"榮譽街１１８號三樓之２","OBJECTID":593759},"geometry":{"x":169856.85000000056,"y":2541740.1099999994}},{"attributes":{"ID":593787,"DIS_CODE":0,"TOWNNAME":"東區","LI":"忠孝里","LIN":"11鄰","STREET":"榮譽街","SECT":" ","MAREA":" ","LANE":" ","ALLEY":" ","HOUSE_NO":"１１８號五樓","E_COORD97":169856.85000000001,"N_COORD97":2541740.1099999999,"ADDRESS":"榮譽街１１８號五樓","OBJECTID":593760},"geometry":{"x":169856.85000000056,"y":2541740.1099999994}},{"attributes":{"ID":593788,"DIS_CODE":0,"TOWNNAME":"東區","LI":"忠孝里","LIN":"11鄰","STREET":"榮譽街","SECT":" ","MAREA":" ","LANE":" ","ALLEY":" ","HOUSE_NO":"１１８號五樓之１","E_COORD97":169856.85000000001,"N_COORD97":2541740.1099999999,"ADDRESS":"榮譽街１１８號五樓之１","OBJECTID":593761},"geometry":{"x":169856.85000000056,"y":2541740.1099999994}},{"attributes":{"ID":593789,"DIS_CODE":0,"TOWNNAME":"東區","LI":"忠孝里","LIN":"11鄰","STREET":"榮譽街","SECT":" ","MAREA":" ","LANE":" ","ALLEY":" ","HOUSE_NO":"１１８號五樓之２","E_COORD97":169856.85000000001,"N_COORD97":2541740.1099999999,"ADDRESS":"榮譽街１１８號五樓之２","OBJECTID":593762},"geometry":{"x":169856.85000000056,"y":2541740.1099999994}},{"attributes":{"ID":593790,"DIS_CODE":0,"TOWNNAME":"東區","LI":"忠孝里","LIN":"11鄰","STREET":"榮譽街","SECT":" ","MAREA":" ","LANE":" ","ALLEY":" ","HOUSE_NO":"１１８號六樓","E_COORD97":169856.85000000001,"N_COORD97":2541740.1099999999,"ADDRESS":"榮譽街１１８號六樓","OBJECTID":593763},"geometry":{"x":169856.85000000056,"y":2541740.1099999994}},{"attributes":{"ID":593791,"DIS_CODE":0,"TOWNNAME":"東區","LI":"忠孝里","LIN":"11鄰","STREET":"榮譽街","SECT":" ","MAREA":" ","LANE":" ","ALLEY":" ","HOUSE_NO":"１１８號六樓之１","E_COORD97":169856.85000000001,"N_COORD97":2541740.1099999999,"ADDRESS":"榮譽街１１８號六樓之１","OBJECTID":593764},"geometry":{"x":169856.85000000056,"y":2541740.1099999994}},{"attributes":{"ID":593792,"DIS_CODE":0,"TOWNNAME":"東區","LI":"忠孝里","LIN":"11鄰","STREET":"榮譽街","SECT":" ","MAREA":" ","LANE":" ","ALLEY":" ","HOUSE_NO":"１１８號六樓之２","E_COORD97":169856.85000000001,"N_COORD97":2541740.1099999999,"ADDRESS":"榮譽街１１８號六樓之２","OBJECTID":593765},"geometry":{"x":169856.85000000056,"y":2541740.1099999994}},{"attributes":{"ID":593793,"DIS_CODE":0,"TOWNNAME":"東區","LI":"忠孝里","LIN":"11鄰","STREET":"榮譽街","SECT":" ","MAREA":" ","LANE":" ","ALLEY":" ","HOUSE_NO":"１１８號四樓","E_COORD97":169856.85000000001,"N_COORD97":2541740.1099999999,"ADDRESS":"榮譽街１１８號四樓","OBJECTID":593766},"geometry":{"x":169856.85000000056,"y":2541740.1099999994}},{"attributes":{"ID":593794,"DIS_CODE":0,"TOWNNAME":"東區","LI":"忠孝里","LIN":"11鄰","STREET":"榮譽街","SECT":" ","MAREA":" ","LANE":" ","ALLEY":" ","HOUSE_NO":"１１８號四樓之１","E_COORD97":169856.85000000001,"N_COORD97":2541740.1099999999,"ADDRESS":"榮譽街１１８號四樓之１","OBJECTID":593767},"geometry":{"x":169856.85000000056,"y":2541740.1099999994}},{"attributes":{"ID":593795,"DIS_CODE":0,"TOWNNAME":"東區","LI":"忠孝里","LIN":"11鄰","STREET":"榮譽街","SECT":" ","MAREA":" ","LANE":" ","ALLEY":" ","HOUSE_NO":"１１８號四樓之２","E_COORD97":169856.85000000001,"N_COORD97":2541740.1099999999,"ADDRESS":"榮譽街１１８號四樓之２","OBJECTID":593768},"geometry":{"x":169856.85000000056,"y":2541740.1099999994}},{"attributes":{"ID":593796,"DIS_CODE":0,"TOWNNAME":"東區","LI":"忠孝里","LIN":"11鄰","STREET":"榮譽街","SECT":" ","MAREA":" ","LANE":" ","ALLEY":" ","HOUSE_NO":"１２０號七樓","E_COORD97":169860.73999999999,"N_COORD97":2541741.73,"ADDRESS":"榮譽街１２０號七樓","OBJECTID":593769},"geometry":{"x":169860.74000000022,"y":2541741.7300000023}},{"attributes":{"ID":593797,"DIS_CODE":0,"TOWNNAME":"東區","LI":"忠孝里","LIN":"11鄰","STREET":"榮譽街","SECT":" ","MAREA":" ","LANE":" ","ALLEY":" ","HOUSE_NO":"１２０號七樓之１","E_COORD97":169860.73999999999,"N_COORD97":2541741.73,"ADDRESS":"榮譽街１２０號七樓之１","OBJECTID":593770},"geometry":{"x":169860.74000000022,"y":2541741.7300000023}},{"attributes":{"ID":593798,"DIS_CODE":0,"TOWNNAME":"東區","LI":"忠孝里","LIN":"11鄰","STREET":"榮譽街","SECT":" ","MAREA":" ","LANE":" ","ALLEY":" ","HOUSE_NO":"１２０號七樓之２","E_COORD97":169860.73999999999,"N_COORD97":2541741.73,"ADDRESS":"榮譽街１２０號七樓之２","OBJECTID":593771},"geometry":{"x":169860.74000000022,"y":2541741.7300000023}},{"attributes":{"ID":593799,"DIS_CODE":0,"TOWNNAME":"東區","LI":"忠孝里","LIN":"11鄰","STREET":"榮譽街","SECT":" ","MAREA":" ","LANE":" ","ALLEY":" ","HOUSE_NO":"１２０號二樓","E_COORD97":169860.73999999999,"N_COORD97":2541741.73,"ADDRESS":"榮譽街１２０號二樓","OBJECTID":593772},"geometry":{"x":169860.74000000022,"y":2541741.7300000023}},{"attributes":{"ID":593800,"DIS_CODE":0,"TOWNNAME":"東區","LI":"忠孝里","LIN":"11鄰","STREET":"榮譽街","SECT":" ","MAREA":" ","LANE":" ","ALLEY":" ","HOUSE_NO":"１２０號二樓之１","E_COORD97":169860.73999999999,"N_COORD97":2541741.73,"ADDRESS":"榮譽街１２０號二樓之１","OBJECTID":593773},"geometry":{"x":169860.74000000022,"y":2541741.7300000023}},{"attributes":{"ID":593801,"DIS_CODE":0,"TOWNNAME":"東區","LI":"忠孝里","LIN":"11鄰","STREET":"榮譽街","SECT":" ","MAREA":" ","LANE":" ","ALLEY":" ","HOUSE_NO":"１２０號二樓之２","E_COORD97":169860.73999999999,"N_COORD97":2541741.73,"ADDRESS":"榮譽街１２０號二樓之２","OBJECTID":593774},"geometry":{"x":169860.74000000022,"y":2541741.7300000023}},{"attributes":{"ID":593802,"DIS_CODE":0,"TOWNNAME":"東區","LI":"忠孝里","LIN":"11鄰","STREET":"榮譽街","SECT":" ","MAREA":" ","LANE":" ","ALLEY":" ","HOUSE_NO":"１２０號三樓","E_COORD97":169860.73999999999,"N_COORD97":2541741.73,"ADDRESS":"榮譽街１２０號三樓","OBJECTID":593775},"geometry":{"x":169860.74000000022,"y":2541741.7300000023}},{"attributes":{"ID":593803,"DIS_CODE":0,"TOWNNAME":"東區","LI":"忠孝里","LIN":"11鄰","STREET":"榮譽街","SECT":" ","MAREA":" ","LANE":" ","ALLEY":" ","HOUSE_NO":"１２０號三樓之１","E_COORD97":169860.73999999999,"N_COORD97":2541741.73,"ADDRESS":"榮譽街１２０號三樓之１","OBJECTID":593776},"geometry":{"x":169860.74000000022,"y":2541741.7300000023}},{"attributes":{"ID":593804,"DIS_CODE":0,"TOWNNAME":"東區","LI":"忠孝里","LIN":"11鄰","STREET":"榮譽街","SECT":" ","MAREA":" ","LANE":" ","ALLEY":" ","HOUSE_NO":"１２０號三樓之２","E_COORD97":169860.73999999999,"N_COORD97":2541741.73,"ADDRESS":"榮譽街１２０號三樓之２","OBJECTID":593777},"geometry":{"x":169860.74000000022,"y":2541741.7300000023}},{"attributes":{"ID":593805,"DIS_CODE":0,"TOWNNAME":"仁德區","LI":"新田里","LIN":"11鄰","STREET":"北保一街","SECT":" ","MAREA":" ","LANE":" ","ALLEY":" ","HOUSE_NO":"９７號三樓","E_COORD97":173103.92000000001,"N_COORD97":2539574.0099999998,"ADDRESS":"北保一街９７號三樓","OBJECTID":593778},"geometry":{"x":173103.91999999993,"y":2539574.0100000016}},{"attributes":{"ID":593806,"DIS_CODE":0,"TOWNNAME":"仁德區","LI":"新田里","LIN":"11鄰","STREET":"北保一街","SECT":" ","MAREA":" ","LANE":" ","ALLEY":" ","HOUSE_NO":"８１號一樓","E_COORD97":173087.39000000001,"N_COORD97":2539545.75,"ADDRESS":"北保一街８１號一樓","OBJECTID":593779},"geometry":{"x":173087.39000000153,"y":2539545.75}},{"attributes":{"ID":593807,"DIS_CODE":0,"TOWNNAME":"仁德區","LI":"新田里","LIN":"11鄰","STREET":"北保一街","SECT":" ","MAREA":" ","LANE":" ","ALLEY":" ","HOUSE_NO":"７９號七樓","E_COORD97":173091.34,"N_COORD97":2539542.5,"ADDRESS":"北保一街７９號七樓","OBJECTID":593780},"geometry":{"x":173091.34000000171,"y":2539542.5000000019}},{"attributes":{"ID":593808,"DIS_CODE":0,"TOWNNAME":"仁德區","LI":"新田里","LIN":"11鄰","STREET":"北保一街","SECT":" ","MAREA":" ","LANE":" ","ALLEY":" ","HOUSE_NO":"９１號五樓","E_COORD97":173094.59,"N_COORD97":2539562.25,"ADDRESS":"北保一街９１號五樓","OBJECTID":593781},"geometry":{"x":173094.58999999892,"y":2539562.2500000019}},{"attributes":{"ID":593809,"DIS_CODE":0,"TOWNNAME":"仁德區","LI":"新田里","LIN":"11鄰","STREET":"北保一街","SECT":" ","MAREA":" ","LANE":" ","ALLEY":" ","HOUSE_NO":"７７號一樓","E_COORD97":173096.10999999999,"N_COORD97":2539540.25,"ADDRESS":"北保一街７７號一樓","OBJECTID":593782},"geometry":{"x":173096.11000000034,"y":2539540.2499999981}},{"attributes":{"ID":593810,"DIS_CODE":0,"TOWNNAME":"仁德區","LI":"新田里","LIN":"11鄰","STREET":"北保一街","SECT":" ","MAREA":" ","LANE":" ","ALLEY":" ","HOUSE_NO":"８１號五樓","E_COORD97":173087.39000000001,"N_COORD97":2539545.75,"ADDRESS":"北保一街８１號五樓","OBJECTID":593783},"geometry":{"x":173087.39000000153,"y":2539545.75}},{"attributes":{"ID":593811,"DIS_CODE":0,"TOWNNAME":"仁德區","LI":"新田里","LIN":"11鄰","STREET":"北保一街","SECT":" ","MAREA":" ","LANE":" ","ALLEY":" ","HOUSE_NO":"７１號一樓","E_COORD97":173108.06,"N_COORD97":2539530.75,"ADDRESS":"北保一街７１號一樓","OBJECTID":593784},"geometry":{"x":173108.05999999866,"y":2539530.7500000019}},{"attributes":{"ID":593812,"DIS_CODE":0,"TOWNNAME":"仁德區","LI":"新田里","LIN":"11鄰","STREET":"北保一街","SECT":" ","MAREA":" ","LANE":" ","ALLEY":" ","HOUSE_NO":"６５號七樓","E_COORD97":173115.95000000001,"N_COORD97":2539518.5,"ADDRESS":"北保一街６５號七樓","OBJECTID":593785},"geometry":{"x":173115.95000000019,"y":2539518.5000000037}},{"attributes":{"ID":593813,"DIS_CODE":0,"TOWNNAME":"仁德區","LI":"新田里","LIN":"11鄰","STREET":"北保一街","SECT":" ","MAREA":" ","LANE":" ","ALLEY":" ","HOUSE_NO":"８７號七樓","E_COORD97":173087.98999999999,"N_COORD97":2539554.5,"ADDRESS":"北保一街８７號七樓","OBJECTID":593786},"geometry":{"x":173087.99000000115,"y":2539554.5}},{"attributes":{"ID":593814,"DIS_CODE":0,"TOWNNAME":"仁德區","LI":"新田里","LIN":"11鄰","STREET":"北保一街","SECT":" ","MAREA":" ","LANE":" ","ALLEY":" ","HOUSE_NO":"９３號五樓","E_COORD97":173097.85999999999,"N_COORD97":2539566.5,"ADDRESS":"北保一街９３號五樓","OBJECTID":593787},"geometry":{"x":173097.86000000034,"y":2539566.5000000019}},{"attributes":{"ID":593815,"DIS_CODE":0,"TOWNNAME":"仁德區","LI":"新田里","LIN":"11鄰","STREET":"北保一街","SECT":" ","MAREA":" ","LANE":" ","ALLEY":" ","HOUSE_NO":"９３號七樓","E_COORD97":173097.85999999999,"N_COORD97":2539566.5,"ADDRESS":"北保一街９３號七樓","OBJECTID":593788},"geometry":{"x":173097.86000000034,"y":2539566.5000000019}},{"attributes":{"ID":593816,"DIS_CODE":0,"TOWNNAME":"仁德區","LI":"新田里","LIN":"11鄰","STREET":"北保一街","SECT":" ","MAREA":" ","LANE":" ","ALLEY":" ","HOUSE_NO":"７９號一樓","E_COORD97":173091.34,"N_COORD97":2539542.5,"ADDRESS":"北保一街７９號一樓","OBJECTID":593789},"geometry":{"x":173091.34000000171,"y":2539542.5000000019}},{"attributes":{"ID":593817,"DIS_CODE":0,"TOWNNAME":"仁德區","LI":"新田里","LIN":"11鄰","STREET":"北保一街","SECT":" ","MAREA":" ","LANE":" ","ALLEY":" ","HOUSE_NO":"９３號三樓","E_COORD97":173097.85999999999,"N_COORD97":2539566.5,"ADDRESS":"北保一街９３號三樓","OBJECTID":593790},"geometry":{"x":173097.86000000034,"y":2539566.5000000019}},{"attributes":{"ID":593818,"DIS_CODE":0,"TOWNNAME":"仁德區","LI":"新田里","LIN":"11鄰","STREET":"北保一街","SECT":" ","MAREA":" ","LANE":" ","ALLEY":" ","HOUSE_NO":"８７號五樓","E_COORD97":173087.98999999999,"N_COORD97":2539554.5,"ADDRESS":"北保一街８７號五樓","OBJECTID":593791},"geometry":{"x":173087.99000000115,"y":2539554.5}},{"attributes":{"ID":593819,"DIS_CODE":0,"TOWNNAME":"仁德區","LI":"新田里","LIN":"11鄰","STREET":"北保一街","SECT":" ","MAREA":" ","LANE":" ","ALLEY":" ","HOUSE_NO":"８５號五樓","E_COORD97":173080.64999999999,"N_COORD97":2539554.25,"ADDRESS":"北保一街８５號五樓","OBJECTID":593792},"geometry":{"x":173080.65000000037,"y":2539554.2500000037}},{"attributes":{"ID":593820,"DIS_CODE":0,"TOWNNAME":"仁德區","LI":"新田里","LIN":"11鄰","STREET":"北保一街","SECT":" ","MAREA":" ","LANE":" ","ALLEY":" ","HOUSE_NO":"７９號五樓","E_COORD97":173091.34,"N_COORD97":2539542.5,"ADDRESS":"北保一街７９號五樓","OBJECTID":593793},"geometry":{"x":173091.34000000171,"y":2539542.5000000019}},{"attributes":{"ID":593821,"DIS_CODE":0,"TOWNNAME":"仁德區","LI":"新田里","LIN":"11鄰","STREET":"北保一街","SECT":" ","MAREA":" ","LANE":" ","ALLEY":" ","HOUSE_NO":"７７號七樓","E_COORD97":173096.10999999999,"N_COORD97":2539540.25,"ADDRESS":"北保一街７７號七樓","OBJECTID":593794},"geometry":{"x":173096.11000000034,"y":2539540.2499999981}},{"attributes":{"ID":593822,"DIS_CODE":0,"TOWNNAME":"仁德區","LI":"新田里","LIN":"11鄰","STREET":"北保一街","SECT":" ","MAREA":" ","LANE":" ","ALLEY":" ","HOUSE_NO":"７７號三樓","E_COORD97":173096.10999999999,"N_COORD97":2539540.25,"ADDRESS":"北保一街７７號三樓","OBJECTID":593795},"geometry":{"x":173096.11000000034,"y":2539540.2499999981}},{"attributes":{"ID":593823,"DIS_CODE":0,"TOWNNAME":"仁德區","LI":"新田里","LIN":"11鄰","STREET":"北保一街","SECT":" ","MAREA":" ","LANE":" ","ALLEY":" ","HOUSE_NO":"６７號五樓","E_COORD97":173112.42999999999,"N_COORD97":2539513.7599999998,"ADDRESS":"北保一街６７號五樓","OBJECTID":593796},"geometry":{"x":173112.42999999877,"y":2539513.7600000016}},{"attributes":{"ID":593824,"DIS_CODE":0,"TOWNNAME":"仁德區","LI":"新田里","LIN":"11鄰","STREET":"北保一街","SECT":" ","MAREA":" ","LANE":" ","ALLEY":" ","HOUSE_NO":"６７號三樓","E_COORD97":173112.42999999999,"N_COORD97":2539513.7599999998,"ADDRESS":"北保一街６７號三樓","OBJECTID":593797},"geometry":{"x":173112.42999999877,"y":2539513.7600000016}},{"attributes":{"ID":593825,"DIS_CODE":0,"TOWNNAME":"仁德區","LI":"新田里","LIN":"11鄰","STREET":"北保一街","SECT":" ","MAREA":" ","LANE":" ","ALLEY":" ","HOUSE_NO":"９３號一樓","E_COORD97":173097.85999999999,"N_COORD97":2539566.5,"ADDRESS":"北保一街９３號一樓","OBJECTID":593798},"geometry":{"x":173097.86000000034,"y":2539566.5000000019}},{"attributes":{"ID":593826,"DIS_CODE":0,"TOWNNAME":"仁德區","LI":"新田里","LIN":"11鄰","STREET":"北保一街","SECT":" ","MAREA":" ","LANE":" ","ALLEY":" ","HOUSE_NO":"８３號五樓","E_COORD97":173083.23000000001,"N_COORD97":2539548.75,"ADDRESS":"北保一街８３號五樓","OBJECTID":593799},"geometry":{"x":173083.23000000138,"y":2539548.7500000019}},{"attributes":{"ID":593827,"DIS_CODE":0,"TOWNNAME":"仁德區","LI":"新田里","LIN":"11鄰","STREET":"北保一街","SECT":" ","MAREA":" ","LANE":" ","ALLEY":" ","HOUSE_NO":"９１號七樓","E_COORD97":173094.59,"N_COORD97":2539562.25,"ADDRESS":"北保一街９１號七樓","OBJECTID":593800},"geometry":{"x":173094.58999999892,"y":2539562.2500000019}}]}