{"displayFieldName":"TOWNNAME","fieldAliases":{"ID":"ID","DIS_CODE":"DIS_CODE","TOWNNAME":"TOWNNAME","LI":"LI","LIN":"LIN","STREET":"STREET","SECT":"SECT","MAREA":"MAREA","LANE":"LANE","ALLEY":"ALLEY","HOUSE_NO":"HOUSE_NO","E_COORD97":"E_COORD97","N_COORD97":"N_COORD97","ADDRESS":"ADDRESS","OBJECTID":"OBJECTID"},"geometryType":"esriGeometryPoint","spatialReference":{"wkid":102443,"latestWkid":3826},"fields":[{"name":"ID","type":"esriFieldTypeDouble","alias":"ID"},{"name":"DIS_CODE","type":"esriFieldTypeInteger","alias":"DIS_CODE"},{"name":"TOWNNAME","type":"esriFieldTypeString","alias":"TOWNNAME","length":8},{"name":"LI","type":"esriFieldTypeString","alias":"LI","length":8},{"name":"LIN","type":"esriFieldTypeString","alias":"LIN","length":12},{"name":"STREET","type":"esriFieldTypeString","alias":"STREET","length":20},{"name":"SECT","type":"esriFieldTypeString","alias":"SECT","length":8},{"name":"MAREA","type":"esriFieldTypeString","alias":"MAREA","length":12},{"name":"LANE","type":"esriFieldTypeString","alias":"LANE","length":10},{"name":"ALLEY","type":"esriFieldTypeString","alias":"ALLEY","length":10},{"name":"HOUSE_NO","type":"esriFieldTypeString","alias":"HOUSE_NO","length":20},{"name":"E_COORD97","type":"esriFieldTypeDouble","alias":"E_COORD97"},{"name":"N_COORD97","type":"esriFieldTypeDouble","alias":"N_COORD97"},{"name":"ADDRESS","type":"esriFieldTypeString","alias":"ADDRESS","length":50},{"name":"OBJECTID","type":"esriFieldTypeOID","alias":"OBJECTID"}],"features":[{"attributes":{"ID":296409,"DIS_CODE":0,"TOWNNAME":"東區","LI":"路東里","LIN":"17鄰","STREET":"大同路","SECT":"二段","MAREA":" ","LANE":"６１巷","ALLEY":" ","HOUSE_NO":"１８４號","E_COORD97":169498.89000000001,"N_COORD97":2542335.2200000002,"ADDRESS":"大同路二段６１巷１８４號","OBJECTID":296401},"geometry":{"x":169498.8900000006,"y":2542335.2200000044}},{"attributes":{"ID":296410,"DIS_CODE":0,"TOWNNAME":"南區","LI":"光明里","LIN":"17鄰","STREET":"新建路","SECT":" ","MAREA":" ","LANE":"１７巷","ALLEY":" ","HOUSE_NO":"７號","E_COORD97":166504.26999999999,"N_COORD97":2541515.75,"ADDRESS":"新建路１７巷７號","OBJECTID":296402},"geometry":{"x":166504.27000000048,"y":2541515.75}},{"attributes":{"ID":296411,"DIS_CODE":0,"TOWNNAME":"東區","LI":"路東里","LIN":"17鄰","STREET":"大同路","SECT":"二段","MAREA":" ","LANE":"６１巷","ALLEY":" ","HOUSE_NO":"１８６號","E_COORD97":169490.26999999999,"N_COORD97":2542333.6200000001,"ADDRESS":"大同路二段６１巷１８６號","OBJECTID":296403},"geometry":{"x":169490.26999999955,"y":2542333.6200000029}},{"attributes":{"ID":296412,"DIS_CODE":0,"TOWNNAME":"東區","LI":"路東里","LIN":"17鄰","STREET":"大同路","SECT":"二段","MAREA":" ","LANE":"６１巷","ALLEY":" ","HOUSE_NO":"１８８號","E_COORD97":169484.51999999999,"N_COORD97":2542331.71,"ADDRESS":"大同路二段６１巷１８８號","OBJECTID":296404},"geometry":{"x":169484.52000000048,"y":2542331.709999999}},{"attributes":{"ID":296413,"DIS_CODE":0,"TOWNNAME":"東區","LI":"路東里","LIN":"17鄰","STREET":"大同路","SECT":"二段","MAREA":" ","LANE":"６１巷","ALLEY":" ","HOUSE_NO":"１９０號","E_COORD97":169479.41,"N_COORD97":2542330.4300000002,"ADDRESS":"大同路二段６１巷１９０號","OBJECTID":296405},"geometry":{"x":169479.41000000108,"y":2542330.4300000016}},{"attributes":{"ID":296414,"DIS_CODE":0,"TOWNNAME":"東區","LI":"路東里","LIN":"17鄰","STREET":"大同路","SECT":"二段","MAREA":" ","LANE":"６１巷","ALLEY":" ","HOUSE_NO":"１４２號","E_COORD97":169448.54000000001,"N_COORD97":2542305.7799999998,"ADDRESS":"大同路二段６１巷１４２號","OBJECTID":296406},"geometry":{"x":169448.54000000004,"y":2542305.7799999993}},{"attributes":{"ID":296415,"DIS_CODE":0,"TOWNNAME":"東區","LI":"路東里","LIN":"17鄰","STREET":"大同路","SECT":"二段","MAREA":" ","LANE":"６１巷","ALLEY":" ","HOUSE_NO":"１４４號","E_COORD97":169453.70000000001,"N_COORD97":2542304.9700000002,"ADDRESS":"大同路二段６１巷１４４號","OBJECTID":296407},"geometry":{"x":169453.70000000112,"y":2542304.9700000007}},{"attributes":{"ID":296416,"DIS_CODE":0,"TOWNNAME":"東區","LI":"路東里","LIN":"17鄰","STREET":"大同路","SECT":"二段","MAREA":" ","LANE":"６１巷","ALLEY":" ","HOUSE_NO":"１４６號","E_COORD97":169460.22,"N_COORD97":2542309.5800000001,"ADDRESS":"大同路二段６１巷１４６號","OBJECTID":296408},"geometry":{"x":169460.21999999974,"y":2542309.5800000019}},{"attributes":{"ID":296417,"DIS_CODE":0,"TOWNNAME":"東區","LI":"龍山里","LIN":"14鄰","STREET":"德光街","SECT":" ","MAREA":" ","LANE":" ","ALLEY":" ","HOUSE_NO":"２５號","E_COORD97":170491.57999999999,"N_COORD97":2542608.8700000001,"ADDRESS":"德光街２５號","OBJECTID":296409},"geometry":{"x":170491.58000000101,"y":2542608.8699999992}},{"attributes":{"ID":296418,"DIS_CODE":0,"TOWNNAME":"東區","LI":"龍山里","LIN":"14鄰","STREET":"德光街","SECT":" ","MAREA":" ","LANE":" ","ALLEY":" ","HOUSE_NO":"２７號","E_COORD97":170488.29999999999,"N_COORD97":2542605.75,"ADDRESS":"德光街２７號","OBJECTID":296410},"geometry":{"x":170488.30000000075,"y":2542605.7500000019}},{"attributes":{"ID":296419,"DIS_CODE":0,"TOWNNAME":"東區","LI":"龍山里","LIN":"14鄰","STREET":"德光街","SECT":" ","MAREA":" ","LANE":" ","ALLEY":" ","HOUSE_NO":"２９號","E_COORD97":170485.81,"N_COORD97":2542602.02,"ADDRESS":"德光街２９號","OBJECTID":296411},"geometry":{"x":170485.81000000145,"y":2542602.0199999996}},{"attributes":{"ID":296420,"DIS_CODE":0,"TOWNNAME":"東區","LI":"龍山里","LIN":"14鄰","STREET":"德光街","SECT":" ","MAREA":" ","LANE":" ","ALLEY":" ","HOUSE_NO":"３１號","E_COORD97":170482.38,"N_COORD97":2542597.1899999999,"ADDRESS":"德光街３１號","OBJECTID":296412},"geometry":{"x":170482.38000000082,"y":2542597.1899999995}},{"attributes":{"ID":296421,"DIS_CODE":0,"TOWNNAME":"東區","LI":"龍山里","LIN":"14鄰","STREET":"德光街","SECT":" ","MAREA":" ","LANE":" ","ALLEY":" ","HOUSE_NO":"３３之１號","E_COORD97":170476.76999999999,"N_COORD97":2542589.71,"ADDRESS":"德光街３３之１號","OBJECTID":296413},"geometry":{"x":170476.76999999955,"y":2542589.7100000046}},{"attributes":{"ID":296422,"DIS_CODE":0,"TOWNNAME":"東區","LI":"龍山里","LIN":"14鄰","STREET":"德光街","SECT":" ","MAREA":" ","LANE":" ","ALLEY":" ","HOUSE_NO":"３３之２號","E_COORD97":170473.34,"N_COORD97":2542586.1200000001,"ADDRESS":"德光街３３之２號","OBJECTID":296414},"geometry":{"x":170473.33999999985,"y":2542586.120000001}},{"attributes":{"ID":296423,"DIS_CODE":0,"TOWNNAME":"東區","LI":"龍山里","LIN":"14鄰","STREET":"德光街","SECT":" ","MAREA":" ","LANE":" ","ALLEY":" ","HOUSE_NO":"３３號","E_COORD97":170479.57000000001,"N_COORD97":2542593.7599999998,"ADDRESS":"德光街３３號","OBJECTID":296415},"geometry":{"x":170479.57000000216,"y":2542593.7599999998}},{"attributes":{"ID":296424,"DIS_CODE":0,"TOWNNAME":"東區","LI":"路東里","LIN":"17鄰","STREET":"大同路","SECT":"二段","MAREA":" ","LANE":"６１巷","ALLEY":" ","HOUSE_NO":"１４８號","E_COORD97":169464.29999999999,"N_COORD97":2542310.6699999999,"ADDRESS":"大同路二段６１巷１４８號","OBJECTID":296416},"geometry":{"x":169464.30000000075,"y":2542310.6699999981}},{"attributes":{"ID":296425,"DIS_CODE":0,"TOWNNAME":"東區","LI":"路東里","LIN":"17鄰","STREET":"大同路","SECT":"二段","MAREA":" ","LANE":"６１巷","ALLEY":" ","HOUSE_NO":"１５０號","E_COORD97":169468.37,"N_COORD97":2542311.75,"ADDRESS":"大同路二段６１巷１５０號","OBJECTID":296417},"geometry":{"x":169468.37000000011,"y":2542311.7500000019}},{"attributes":{"ID":296426,"DIS_CODE":0,"TOWNNAME":"東區","LI":"路東里","LIN":"17鄰","STREET":"大同路","SECT":"二段","MAREA":" ","LANE":"６１巷","ALLEY":" ","HOUSE_NO":"１５２號","E_COORD97":169472.17999999999,"N_COORD97":2542312.29,"ADDRESS":"大同路二段６１巷１５２號","OBJECTID":296418},"geometry":{"x":169472.1799999997,"y":2542312.2899999991}},{"attributes":{"ID":296427,"DIS_CODE":0,"TOWNNAME":"東區","LI":"路東里","LIN":"17鄰","STREET":"大同路","SECT":"二段","MAREA":" ","LANE":"６１巷","ALLEY":" ","HOUSE_NO":"１５４號","E_COORD97":169475.70999999999,"N_COORD97":2542313.1099999999,"ADDRESS":"大同路二段６１巷１５４號","OBJECTID":296419},"geometry":{"x":169475.70999999996,"y":2542313.1099999994}},{"attributes":{"ID":296428,"DIS_CODE":0,"TOWNNAME":"東區","LI":"路東里","LIN":"17鄰","STREET":"大同路","SECT":"二段","MAREA":" ","LANE":"６１巷","ALLEY":" ","HOUSE_NO":"１５６號","E_COORD97":169479.79000000001,"N_COORD97":2542315.5499999998,"ADDRESS":"大同路二段６１巷１５６號","OBJECTID":296420},"geometry":{"x":169479.79000000097,"y":2542315.5500000007}},{"attributes":{"ID":296429,"DIS_CODE":0,"TOWNNAME":"東區","LI":"路東里","LIN":"17鄰","STREET":"大同路","SECT":"二段","MAREA":" ","LANE":"６１巷","ALLEY":" ","HOUSE_NO":"１５８號","E_COORD97":169482.51000000001,"N_COORD97":2542316.0899999999,"ADDRESS":"大同路二段６１巷１５８號","OBJECTID":296421},"geometry":{"x":169482.50999999978,"y":2542316.0900000017}},{"attributes":{"ID":296430,"DIS_CODE":0,"TOWNNAME":"東區","LI":"路東里","LIN":"17鄰","STREET":"大同路","SECT":"二段","MAREA":" ","LANE":"６１巷","ALLEY":" ","HOUSE_NO":"１６０號","E_COORD97":169487.94,"N_COORD97":2542317.4500000002,"ADDRESS":"大同路二段６１巷１６０號","OBJECTID":296422},"geometry":{"x":169487.94000000134,"y":2542317.4499999993}},{"attributes":{"ID":296431,"DIS_CODE":0,"TOWNNAME":"東區","LI":"路東里","LIN":"17鄰","STREET":"大同路","SECT":"二段","MAREA":" ","LANE":"６１巷","ALLEY":" ","HOUSE_NO":"１６２號","E_COORD97":169494.73000000001,"N_COORD97":2542317.7200000002,"ADDRESS":"大同路二段６１巷１６２號","OBJECTID":296423},"geometry":{"x":169494.73000000045,"y":2542317.7200000007}},{"attributes":{"ID":296432,"DIS_CODE":0,"TOWNNAME":"東區","LI":"路東里","LIN":"17鄰","STREET":"大同路","SECT":"二段","MAREA":" ","LANE":"６１巷","ALLEY":" ","HOUSE_NO":"１６６號","E_COORD97":169507.51000000001,"N_COORD97":2542321.52,"ADDRESS":"大同路二段６１巷１６６號","OBJECTID":296424},"geometry":{"x":169507.50999999978,"y":2542321.5199999977}},{"attributes":{"ID":296433,"DIS_CODE":0,"TOWNNAME":"鹽水區","LI":"義稠里","LIN":"8鄰","STREET":" ","SECT":" ","MAREA":"義稠","LANE":" ","ALLEY":" ","HOUSE_NO":"１１０之２５號八樓","E_COORD97":173774.23000000001,"N_COORD97":2580580.6200000001,"ADDRESS":"義稠１１０之２５號八樓","OBJECTID":296425},"geometry":{"x":173774.23000000231,"y":2580580.6200000029}},{"attributes":{"ID":296434,"DIS_CODE":0,"TOWNNAME":"東區","LI":"德光里","LIN":"17鄰","STREET":"德光街","SECT":" ","MAREA":" ","LANE":"５８巷","ALLEY":" ","HOUSE_NO":"１７號","E_COORD97":170218.89999999999,"N_COORD97":2542416.1600000001,"ADDRESS":"德光街５８巷１７號","OBJECTID":296426},"geometry":{"x":170218.9000000013,"y":2542416.1600000039}},{"attributes":{"ID":296435,"DIS_CODE":0,"TOWNNAME":"東區","LI":"德光里","LIN":"17鄰","STREET":"德光街","SECT":" ","MAREA":" ","LANE":"５８巷","ALLEY":" ","HOUSE_NO":"１９號","E_COORD97":170215.47,"N_COORD97":2542418.3100000001,"ADDRESS":"德光街５８巷１９號","OBJECTID":296427},"geometry":{"x":170215.47000000067,"y":2542418.3100000005}},{"attributes":{"ID":296436,"DIS_CODE":0,"TOWNNAME":"東區","LI":"德光里","LIN":"17鄰","STREET":"德光街","SECT":" ","MAREA":" ","LANE":"５８巷","ALLEY":" ","HOUSE_NO":"１號","E_COORD97":170244.67999999999,"N_COORD97":2542395.8399999999,"ADDRESS":"德光街５８巷１號","OBJECTID":296428},"geometry":{"x":170244.68000000063,"y":2542395.8400000017}},{"attributes":{"ID":296437,"DIS_CODE":0,"TOWNNAME":"東區","LI":"德光里","LIN":"17鄰","STREET":"德光街","SECT":" ","MAREA":" ","LANE":"５８巷","ALLEY":" ","HOUSE_NO":"２１號","E_COORD97":170210.73999999999,"N_COORD97":2542421.96,"ADDRESS":"德光街５８巷２１號","OBJECTID":296429},"geometry":{"x":170210.74000000115,"y":2542421.9600000046}},{"attributes":{"ID":296438,"DIS_CODE":0,"TOWNNAME":"鹽水區","LI":"義稠里","LIN":"8鄰","STREET":" ","SECT":" ","MAREA":"義稠","LANE":" ","ALLEY":" ","HOUSE_NO":"１１０之２５號五樓","E_COORD97":173774.23000000001,"N_COORD97":2580580.6200000001,"ADDRESS":"義稠１１０之２５號五樓","OBJECTID":296430},"geometry":{"x":173774.23000000231,"y":2580580.6200000029}},{"attributes":{"ID":296439,"DIS_CODE":0,"TOWNNAME":"鹽水區","LI":"義稠里","LIN":"8鄰","STREET":" ","SECT":" ","MAREA":"義稠","LANE":" ","ALLEY":" ","HOUSE_NO":"１１０之２５號六樓","E_COORD97":173774.23000000001,"N_COORD97":2580580.6200000001,"ADDRESS":"義稠１１０之２５號六樓","OBJECTID":296431},"geometry":{"x":173774.23000000231,"y":2580580.6200000029}},{"attributes":{"ID":296440,"DIS_CODE":0,"TOWNNAME":"東區","LI":"德光里","LIN":"17鄰","STREET":"德光街","SECT":" ","MAREA":" ","LANE":"５８巷","ALLEY":" ","HOUSE_NO":"２３號","E_COORD97":170206.23999999999,"N_COORD97":2542424.96,"ADDRESS":"德光街５８巷２３號","OBJECTID":296432},"geometry":{"x":170206.24000000115,"y":2542424.959999999}},{"attributes":{"ID":296441,"DIS_CODE":0,"TOWNNAME":"東區","LI":"德光里","LIN":"17鄰","STREET":"德光街","SECT":" ","MAREA":" ","LANE":"５８巷","ALLEY":" ","HOUSE_NO":"２５號","E_COORD97":170202.16,"N_COORD97":2542428.3900000001,"ADDRESS":"德光街５８巷２５號","OBJECTID":296433},"geometry":{"x":170202.16000000015,"y":2542428.3900000006}},{"attributes":{"ID":296442,"DIS_CODE":0,"TOWNNAME":"東區","LI":"德光里","LIN":"17鄰","STREET":"德光街","SECT":" ","MAREA":" ","LANE":"５８巷","ALLEY":" ","HOUSE_NO":"２７號","E_COORD97":170197.87,"N_COORD97":2542431.1699999999,"ADDRESS":"德光街５８巷２７號","OBJECTID":296434},"geometry":{"x":170197.87000000104,"y":2542431.1700000018}},{"attributes":{"ID":296443,"DIS_CODE":0,"TOWNNAME":"東區","LI":"德光里","LIN":"17鄰","STREET":"德光街","SECT":" ","MAREA":" ","LANE":"５８巷","ALLEY":" ","HOUSE_NO":"２９號","E_COORD97":170194.22,"N_COORD97":2542434.1699999999,"ADDRESS":"德光街５８巷２９號","OBJECTID":296435},"geometry":{"x":170194.21999999974,"y":2542434.1700000018}},{"attributes":{"ID":296444,"DIS_CODE":0,"TOWNNAME":"東區","LI":"德光里","LIN":"17鄰","STREET":"德光街","SECT":" ","MAREA":" ","LANE":"５８巷","ALLEY":" ","HOUSE_NO":"３１號","E_COORD97":170190.14999999999,"N_COORD97":2542436.7400000002,"ADDRESS":"德光街５８巷３１號","OBJECTID":296436},"geometry":{"x":170190.15000000037,"y":2542436.7400000021}},{"attributes":{"ID":296445,"DIS_CODE":0,"TOWNNAME":"中西區","LI":"中正里","LIN":"8鄰","STREET":"國華街","SECT":"三段","MAREA":" ","LANE":"９巷","ALLEY":" ","HOUSE_NO":"６號","E_COORD97":167716.47,"N_COORD97":2543807.8100000001,"ADDRESS":"國華街三段９巷６號","OBJECTID":296437},"geometry":{"x":167716.46999999881,"y":2543807.8100000005}},{"attributes":{"ID":296446,"DIS_CODE":0,"TOWNNAME":"東區","LI":"德光里","LIN":"17鄰","STREET":"德光街","SECT":" ","MAREA":" ","LANE":"５８巷","ALLEY":" ","HOUSE_NO":"３３號","E_COORD97":170186.07000000001,"N_COORD97":2542439.96,"ADDRESS":"德光街５８巷３３號","OBJECTID":296438},"geometry":{"x":170186.0700000003,"y":2542439.9600000028}},{"attributes":{"ID":296447,"DIS_CODE":0,"TOWNNAME":"東區","LI":"德光里","LIN":"17鄰","STREET":"德光街","SECT":" ","MAREA":" ","LANE":"５８巷","ALLEY":" ","HOUSE_NO":"３５號","E_COORD97":170180.48999999999,"N_COORD97":2542443.3900000001,"ADDRESS":"德光街５８巷３５號","OBJECTID":296439},"geometry":{"x":170180.49000000115,"y":2542443.3900000025}},{"attributes":{"ID":296448,"DIS_CODE":0,"TOWNNAME":"東區","LI":"德光里","LIN":"17鄰","STREET":"德光街","SECT":" ","MAREA":" ","LANE":"５８巷","ALLEY":" ","HOUSE_NO":"３號","E_COORD97":170241.56,"N_COORD97":2542398.8300000001,"ADDRESS":"德光街５８巷３號","OBJECTID":296440},"geometry":{"x":170241.56000000145,"y":2542398.8300000019}},{"attributes":{"ID":296449,"DIS_CODE":0,"TOWNNAME":"東區","LI":"德光里","LIN":"17鄰","STREET":"德光街","SECT":" ","MAREA":" ","LANE":"５８巷","ALLEY":" ","HOUSE_NO":"５號","E_COORD97":170238.57000000001,"N_COORD97":2542400.5699999998,"ADDRESS":"德光街５８巷５號","OBJECTID":296441},"geometry":{"x":170238.5700000003,"y":2542400.5700000022}},{"attributes":{"ID":296450,"DIS_CODE":0,"TOWNNAME":"東區","LI":"德光里","LIN":"17鄰","STREET":"德光街","SECT":" ","MAREA":" ","LANE":"５８巷","ALLEY":" ","HOUSE_NO":"７號","E_COORD97":170234.70000000001,"N_COORD97":2542403.4300000002,"ADDRESS":"德光街５８巷７號","OBJECTID":296442},"geometry":{"x":170234.70000000112,"y":2542403.4299999997}},{"attributes":{"ID":296451,"DIS_CODE":0,"TOWNNAME":"東區","LI":"德光里","LIN":"17鄰","STREET":"德光街","SECT":" ","MAREA":" ","LANE":"５８巷","ALLEY":" ","HOUSE_NO":"９號","E_COORD97":170231.57999999999,"N_COORD97":2542406.2999999998,"ADDRESS":"德光街５８巷９號","OBJECTID":296443},"geometry":{"x":170231.58000000007,"y":2542406.3000000026}},{"attributes":{"ID":296452,"DIS_CODE":0,"TOWNNAME":"南區","LI":"田寮里","LIN":"17鄰","STREET":"西門路","SECT":"一段","MAREA":" ","LANE":"３０９巷","ALLEY":" ","HOUSE_NO":"２號","E_COORD97":167708.34,"N_COORD97":2541993.7599999998,"ADDRESS":"西門路一段３０９巷２號","OBJECTID":296444},"geometry":{"x":167708.33999999985,"y":2541993.7599999998}},{"attributes":{"ID":296453,"DIS_CODE":0,"TOWNNAME":"南區","LI":"田寮里","LIN":"17鄰","STREET":"西門路","SECT":"一段","MAREA":" ","LANE":"３０９巷","ALLEY":" ","HOUSE_NO":"４號","E_COORD97":167704.41,"N_COORD97":2541993.7000000002,"ADDRESS":"西門路一段３０９巷４號","OBJECTID":296445},"geometry":{"x":167704.41000000108,"y":2541993.6999999993}},{"attributes":{"ID":296454,"DIS_CODE":0,"TOWNNAME":"南區","LI":"田寮里","LIN":"17鄰","STREET":"西門路","SECT":"一段","MAREA":" ","LANE":"３０９巷","ALLEY":" ","HOUSE_NO":"６號","E_COORD97":167699.56,"N_COORD97":2541993.7599999998,"ADDRESS":"西門路一段３０９巷６號","OBJECTID":296446},"geometry":{"x":167699.56000000052,"y":2541993.7599999998}},{"attributes":{"ID":296455,"DIS_CODE":0,"TOWNNAME":"南區","LI":"田寮里","LIN":"17鄰","STREET":"西門路","SECT":"一段","MAREA":" ","LANE":"３０９巷","ALLEY":" ","HOUSE_NO":"８號","E_COORD97":167695.85999999999,"N_COORD97":2541993.6400000001,"ADDRESS":"西門路一段３０９巷８號","OBJECTID":296447},"geometry":{"x":167695.8600000022,"y":2541993.6400000025}},{"attributes":{"ID":296456,"DIS_CODE":0,"TOWNNAME":"南區","LI":"田寮里","LIN":"17鄰","STREET":"西門路","SECT":"一段","MAREA":" ","LANE":"３０９巷","ALLEY":" ","HOUSE_NO":"１０號","E_COORD97":167691.70999999999,"N_COORD97":2541993.7599999998,"ADDRESS":"西門路一段３０９巷１０號","OBJECTID":296448},"geometry":{"x":167691.71000000089,"y":2541993.7599999998}},{"attributes":{"ID":296457,"DIS_CODE":0,"TOWNNAME":"新營區","LI":"南興里","LIN":"20鄰","STREET":"建業路","SECT":" ","MAREA":" ","LANE":"７８巷","ALLEY":" ","HOUSE_NO":"１０號四樓之１","E_COORD97":179349.98999999999,"N_COORD97":2577529.3300000001,"ADDRESS":"建業路７８巷１０號四樓之１","OBJECTID":296449},"geometry":{"x":179349.99000000115,"y":2577529.3300000038}},{"attributes":{"ID":296458,"DIS_CODE":0,"TOWNNAME":"新營區","LI":"民權里","LIN":"24鄰","STREET":"民治路","SECT":" ","MAREA":" ","LANE":"５３巷","ALLEY":" ","HOUSE_NO":"５號三樓","E_COORD97":179688.97,"N_COORD97":2578753.6099999999,"ADDRESS":"民治路５３巷５號三樓","OBJECTID":296450},"geometry":{"x":179688.96999999974,"y":2578753.6099999994}},{"attributes":{"ID":296459,"DIS_CODE":0,"TOWNNAME":"新營區","LI":"忠政里","LIN":"4鄰","STREET":"中正路","SECT":" ","MAREA":" ","LANE":"３７巷","ALLEY":" ","HOUSE_NO":"２號四樓","E_COORD97":180068.31,"N_COORD97":2579147.1800000002,"ADDRESS":"中正路３７巷２號四樓","OBJECTID":296451},"geometry":{"x":180068.30999999959,"y":2579147.1800000034}},{"attributes":{"ID":296460,"DIS_CODE":0,"TOWNNAME":"南區","LI":"田寮里","LIN":"17鄰","STREET":"西門路","SECT":"一段","MAREA":" ","LANE":"３０９巷","ALLEY":" ","HOUSE_NO":"１２號","E_COORD97":167687.60999999999,"N_COORD97":2541993.5800000001,"ADDRESS":"西門路一段３０９巷１２號","OBJECTID":296452},"geometry":{"x":167687.61000000127,"y":2541993.5800000019}},{"attributes":{"ID":296461,"DIS_CODE":0,"TOWNNAME":"南區","LI":"田寮里","LIN":"17鄰","STREET":"西門路","SECT":"一段","MAREA":" ","LANE":"３０９巷","ALLEY":" ","HOUSE_NO":"１４號","E_COORD97":167683.28,"N_COORD97":2541993.6400000001,"ADDRESS":"西門路一段３０９巷１４號","OBJECTID":296453},"geometry":{"x":167683.28000000119,"y":2541993.6400000025}},{"attributes":{"ID":296462,"DIS_CODE":0,"TOWNNAME":"南區","LI":"田寮里","LIN":"17鄰","STREET":"西門路","SECT":"一段","MAREA":" ","LANE":"３０９巷","ALLEY":" ","HOUSE_NO":"１號","E_COORD97":167708.57000000001,"N_COORD97":2541980.8900000001,"ADDRESS":"西門路一段３０９巷１號","OBJECTID":296454},"geometry":{"x":167708.57000000123,"y":2541980.8900000006}},{"attributes":{"ID":296463,"DIS_CODE":0,"TOWNNAME":"南區","LI":"田寮里","LIN":"17鄰","STREET":"西門路","SECT":"一段","MAREA":" ","LANE":"３０９巷","ALLEY":" ","HOUSE_NO":"３號","E_COORD97":167704.17000000001,"N_COORD97":2541980.9399999999,"ADDRESS":"西門路一段３０９巷３號","OBJECTID":296455},"geometry":{"x":167704.17000000086,"y":2541980.9400000013}},{"attributes":{"ID":296464,"DIS_CODE":0,"TOWNNAME":"南區","LI":"田寮里","LIN":"17鄰","STREET":"西門路","SECT":"一段","MAREA":" ","LANE":"３０９巷","ALLEY":" ","HOUSE_NO":"５號","E_COORD97":167700.19,"N_COORD97":2541980.8300000001,"ADDRESS":"西門路一段３０９巷５號","OBJECTID":296456},"geometry":{"x":167700.19000000041,"y":2541980.8299999982}},{"attributes":{"ID":296465,"DIS_CODE":0,"TOWNNAME":"南區","LI":"田寮里","LIN":"17鄰","STREET":"西門路","SECT":"一段","MAREA":" ","LANE":"３０９巷","ALLEY":" ","HOUSE_NO":"７號","E_COORD97":167695.79999999999,"N_COORD97":2541980.9399999999,"ADDRESS":"西門路一段３０９巷７號","OBJECTID":296457},"geometry":{"x":167695.80000000168,"y":2541980.9400000013}},{"attributes":{"ID":296466,"DIS_CODE":0,"TOWNNAME":"歸仁區","LI":"大廟里","LIN":"12鄰","STREET":"大廟六街","SECT":" ","MAREA":" ","LANE":"６８巷","ALLEY":" ","HOUSE_NO":"７號","E_COORD97":176105.57000000001,"N_COORD97":2544198.25,"ADDRESS":"大廟六街６８巷７號","OBJECTID":296458},"geometry":{"x":176105.5700000003,"y":2544198.25}},{"attributes":{"ID":296467,"DIS_CODE":0,"TOWNNAME":"楠西區","LI":"密枝里","LIN":"7鄰","STREET":" ","SECT":" ","MAREA":"密枝","LANE":" ","ALLEY":" ","HOUSE_NO":"７１號八樓之１７","E_COORD97":198801.63,"N_COORD97":2568901.2999999998,"ADDRESS":"密枝７１號八樓之１７","OBJECTID":296459},"geometry":{"x":198801.62999999989,"y":2568901.3000000007}},{"attributes":{"ID":296468,"DIS_CODE":0,"TOWNNAME":"南區","LI":"田寮里","LIN":"17鄰","STREET":"西門路","SECT":"一段","MAREA":" ","LANE":"３０９巷","ALLEY":" ","HOUSE_NO":"９號","E_COORD97":167691.70000000001,"N_COORD97":2541980.77,"ADDRESS":"西門路一段３０９巷９號","OBJECTID":296460},"geometry":{"x":167691.70000000205,"y":2541980.7699999977}},{"attributes":{"ID":296469,"DIS_CODE":0,"TOWNNAME":"南區","LI":"田寮里","LIN":"17鄰","STREET":"西門路","SECT":"一段","MAREA":" ","LANE":"３０９巷","ALLEY":" ","HOUSE_NO":"１１號","E_COORD97":167687.82999999999,"N_COORD97":2541981.0600000001,"ADDRESS":"西門路一段３０９巷１１號","OBJECTID":296461},"geometry":{"x":167687.83000000101,"y":2541981.0600000024}},{"attributes":{"ID":296470,"DIS_CODE":0,"TOWNNAME":"楠西區","LI":"密枝里","LIN":"7鄰","STREET":" ","SECT":" ","MAREA":"密枝","LANE":" ","ALLEY":" ","HOUSE_NO":"７１號八樓之２","E_COORD97":198800.44,"N_COORD97":2568901.2999999998,"ADDRESS":"密枝７１號八樓之２","OBJECTID":296462},"geometry":{"x":198800.44000000227,"y":2568901.3000000007}},{"attributes":{"ID":296471,"DIS_CODE":0,"TOWNNAME":"南區","LI":"田寮里","LIN":"17鄰","STREET":"西門路","SECT":"一段","MAREA":" ","LANE":"３０９巷","ALLEY":" ","HOUSE_NO":"１３號","E_COORD97":167683.14999999999,"N_COORD97":2541980.6600000001,"ADDRESS":"西門路一段３０９巷１３號","OBJECTID":296463},"geometry":{"x":167683.15000000037,"y":2541980.6600000001}},{"attributes":{"ID":296472,"DIS_CODE":0,"TOWNNAME":"東山區","LI":"東正里","LIN":"25鄰","STREET":" ","SECT":" ","MAREA":"東勢","LANE":" ","ALLEY":" ","HOUSE_NO":"１８３號二樓","E_COORD97":189255.92999999999,"N_COORD97":2580627.6600000001,"ADDRESS":"東勢１８３號二樓","OBJECTID":296464},"geometry":{"x":189255.93000000156,"y":2580627.6600000001}},{"attributes":{"ID":296473,"DIS_CODE":0,"TOWNNAME":"南區","LI":"田寮里","LIN":"17鄰","STREET":"西門路","SECT":"一段","MAREA":" ","LANE":"３０９巷","ALLEY":" ","HOUSE_NO":"１５號","E_COORD97":167679.23000000001,"N_COORD97":2541980.6600000001,"ADDRESS":"西門路一段３０９巷１５號","OBJECTID":296465},"geometry":{"x":167679.23000000045,"y":2541980.6600000001}},{"attributes":{"ID":296474,"DIS_CODE":0,"TOWNNAME":"南區","LI":"光明里","LIN":"17鄰","STREET":"新建路","SECT":" ","MAREA":" ","LANE":"１７巷","ALLEY":" ","HOUSE_NO":"５號","E_COORD97":166496.76000000001,"N_COORD97":2541515.5800000001,"ADDRESS":"新建路１７巷５號","OBJECTID":296466},"geometry":{"x":166496.75999999978,"y":2541515.5800000019}},{"attributes":{"ID":296475,"DIS_CODE":0,"TOWNNAME":"南區","LI":"田寮里","LIN":"17鄰","STREET":"西門路","SECT":"一段","MAREA":" ","LANE":"３０９巷","ALLEY":" ","HOUSE_NO":"１７號","E_COORD97":167674.89999999999,"N_COORD97":2541980.48,"ADDRESS":"西門路一段３０９巷１７號","OBJECTID":296467},"geometry":{"x":167674.90000000037,"y":2541980.4800000042}},{"attributes":{"ID":296476,"DIS_CODE":0,"TOWNNAME":"南區","LI":"田寮里","LIN":"17鄰","STREET":"西門路","SECT":"一段","MAREA":" ","LANE":"３０９巷","ALLEY":" ","HOUSE_NO":"１９號","E_COORD97":167670.85000000001,"N_COORD97":2541980.2599999998,"ADDRESS":"西門路一段３０９巷１９號","OBJECTID":296468},"geometry":{"x":167670.84999999963,"y":2541980.2599999998}},{"attributes":{"ID":296477,"DIS_CODE":0,"TOWNNAME":"中西區","LI":"民生里","LIN":"14鄰","STREET":"金華路","SECT":"三段","MAREA":" ","LANE":" ","ALLEY":" ","HOUSE_NO":"７７號之４","E_COORD97":167162.26999999999,"N_COORD97":2543432.0800000001,"ADDRESS":"金華路三段７７號之４","OBJECTID":296469},"geometry":{"x":167162.27000000048,"y":2543432.0800000019}},{"attributes":{"ID":296478,"DIS_CODE":0,"TOWNNAME":"中西區","LI":"民生里","LIN":"14鄰","STREET":"金華路","SECT":"三段","MAREA":" ","LANE":" ","ALLEY":" ","HOUSE_NO":"７９號","E_COORD97":167190.98999999999,"N_COORD97":2543424.7999999998,"ADDRESS":"金華路三段７９號","OBJECTID":296470},"geometry":{"x":167190.99000000022,"y":2543424.8000000007}},{"attributes":{"ID":296479,"DIS_CODE":0,"TOWNNAME":"中西區","LI":"民生里","LIN":"14鄰","STREET":"金華路","SECT":"三段","MAREA":" ","LANE":" ","ALLEY":" ","HOUSE_NO":"８１號","E_COORD97":167191.89999999999,"N_COORD97":2543427.7599999998,"ADDRESS":"金華路三段８１號","OBJECTID":296471},"geometry":{"x":167191.90000000037,"y":2543427.7599999998}},{"attributes":{"ID":296480,"DIS_CODE":0,"TOWNNAME":"中西區","LI":"民生里","LIN":"14鄰","STREET":"金華路","SECT":"三段","MAREA":" ","LANE":" ","ALLEY":" ","HOUSE_NO":"８３號","E_COORD97":167192.81,"N_COORD97":2543431.8500000001,"ADDRESS":"金華路三段８３號","OBJECTID":296472},"geometry":{"x":167192.80999999959,"y":2543431.8500000015}},{"attributes":{"ID":296481,"DIS_CODE":0,"TOWNNAME":"南區","LI":"田寮里","LIN":"17鄰","STREET":"西門路","SECT":"一段","MAREA":" ","LANE":"３０９巷","ALLEY":" ","HOUSE_NO":"２１號","E_COORD97":167666.14000000001,"N_COORD97":2541991.3100000001,"ADDRESS":"西門路一段３０９巷２１號","OBJECTID":296473},"geometry":{"x":167666.14000000153,"y":2541991.3100000005}},{"attributes":{"ID":296482,"DIS_CODE":0,"TOWNNAME":"南區","LI":"田寮里","LIN":"17鄰","STREET":"西門路","SECT":"一段","MAREA":" ","LANE":"３０９巷","ALLEY":" ","HOUSE_NO":"３１號","E_COORD97":167665.32999999999,"N_COORD97":2542013.46,"ADDRESS":"西門路一段３０９巷３１號","OBJECTID":296474},"geometry":{"x":167665.33000000194,"y":2542013.4600000009}},{"attributes":{"ID":296483,"DIS_CODE":0,"TOWNNAME":"新化區","LI":"\u25A0拔里","LIN":"10鄰","STREET":" ","SECT":" ","MAREA":"牧場","LANE":" ","ALLEY":" ","HOUSE_NO":"７０號之５二樓","E_COORD97":182149.82999999999,"N_COORD97":2551324.25,"ADDRESS":"牧場７０號之５二樓","OBJECTID":296475},"geometry":{"x":182149.83000000101,"y":2551324.25}},{"attributes":{"ID":296484,"DIS_CODE":0,"TOWNNAME":"新化區","LI":"全興里","LIN":"14鄰","STREET":" ","SECT":" ","MAREA":"竹子\u25A0","LANE":" ","ALLEY":" ","HOUSE_NO":"２４７號之３５１四樓","E_COORD97":178291.62,"N_COORD97":2546701.2599999998,"ADDRESS":"竹子\u25A0２４７號之３５１四樓之１","OBJECTID":296476},"geometry":{"x":178291.62000000011,"y":2546701.2600000016}},{"attributes":{"ID":296485,"DIS_CODE":0,"TOWNNAME":"南區","LI":"田寮里","LIN":"17鄰","STREET":"西門路","SECT":"一段","MAREA":" ","LANE":"３０９巷","ALLEY":" ","HOUSE_NO":"３３號","E_COORD97":167664.75,"N_COORD97":2542017.9399999999,"ADDRESS":"西門路一段３０９巷３３號","OBJECTID":296477},"geometry":{"x":167664.75000000093,"y":2542017.9400000013}},{"attributes":{"ID":296486,"DIS_CODE":0,"TOWNNAME":"南區","LI":"田寮里","LIN":"17鄰","STREET":"西門路","SECT":"一段","MAREA":" ","LANE":"３０９巷","ALLEY":" ","HOUSE_NO":"３５號","E_COORD97":167664.51999999999,"N_COORD97":2542023.3399999999,"ADDRESS":"西門路一段３０９巷３５號","OBJECTID":296478},"geometry":{"x":167664.51999999955,"y":2542023.3399999999}},{"attributes":{"ID":296487,"DIS_CODE":0,"TOWNNAME":"中西區","LI":"民生里","LIN":"14鄰","STREET":"金華路","SECT":"三段","MAREA":" ","LANE":" ","ALLEY":" ","HOUSE_NO":"８５號","E_COORD97":167193.48999999999,"N_COORD97":2543435.4900000002,"ADDRESS":"金華路三段８５號","OBJECTID":296479},"geometry":{"x":167193.49000000115,"y":2543435.4900000021}},{"attributes":{"ID":296488,"DIS_CODE":0,"TOWNNAME":"南區","LI":"田寮里","LIN":"17鄰","STREET":"西門路","SECT":"一段","MAREA":" ","LANE":"３０９巷","ALLEY":" ","HOUSE_NO":"１６號","E_COORD97":167682.82000000001,"N_COORD97":2542010.0099999998,"ADDRESS":"西門路一段３０９巷１６號","OBJECTID":296480},"geometry":{"x":167682.82000000123,"y":2542010.0100000035}},{"attributes":{"ID":296489,"DIS_CODE":0,"TOWNNAME":"南區","LI":"田寮里","LIN":"17鄰","STREET":"西門路","SECT":"一段","MAREA":" ","LANE":"３０９巷","ALLEY":" ","HOUSE_NO":"１８號","E_COORD97":167686.87,"N_COORD97":2542010.0099999998,"ADDRESS":"西門路一段３０９巷１８號","OBJECTID":296481},"geometry":{"x":167686.87000000011,"y":2542010.0100000035}},{"attributes":{"ID":296490,"DIS_CODE":0,"TOWNNAME":"南區","LI":"田寮里","LIN":"17鄰","STREET":"西門路","SECT":"一段","MAREA":" ","LANE":"３０９巷","ALLEY":" ","HOUSE_NO":"２０號","E_COORD97":167691.48000000001,"N_COORD97":2542010.0099999998,"ADDRESS":"西門路一段３０９巷２０號","OBJECTID":296482},"geometry":{"x":167691.48000000045,"y":2542010.0100000035}},{"attributes":{"ID":296491,"DIS_CODE":0,"TOWNNAME":"南區","LI":"田寮里","LIN":"17鄰","STREET":"西門路","SECT":"一段","MAREA":" ","LANE":"３０９巷","ALLEY":" ","HOUSE_NO":"２２號","E_COORD97":167695.53,"N_COORD97":2542010.7400000002,"ADDRESS":"西門路一段３０９巷２２號","OBJECTID":296483},"geometry":{"x":167695.53000000026,"y":2542010.7400000002}},{"attributes":{"ID":296492,"DIS_CODE":0,"TOWNNAME":"仁德區","LI":"仁愛里","LIN":"24鄰","STREET":"保仁路","SECT":" ","MAREA":" ","LANE":" ","ALLEY":" ","HOUSE_NO":"２５２號一樓之１","E_COORD97":169989.05330999999,"N_COORD97":2540084.3561900002,"ADDRESS":"保仁路２５２號一樓之１","OBJECTID":296484},"geometry":{"x":169989.05331000034,"y":2540084.3561899997}},{"attributes":{"ID":296493,"DIS_CODE":0,"TOWNNAME":"仁德區","LI":"仁愛里","LIN":"24鄰","STREET":"保仁路","SECT":" ","MAREA":" ","LANE":" ","ALLEY":" ","HOUSE_NO":"２５６號二樓之２","E_COORD97":169970.37372599999,"N_COORD97":2540102.9586900002,"ADDRESS":"保仁路２５６號二樓之２","OBJECTID":296485},"geometry":{"x":169970.37372600008,"y":2540102.9586890023}},{"attributes":{"ID":296494,"DIS_CODE":0,"TOWNNAME":"仁德區","LI":"仁愛里","LIN":"24鄰","STREET":"保仁路","SECT":" ","MAREA":" ","LANE":" ","ALLEY":" ","HOUSE_NO":"２５８號二樓之１","E_COORD97":169971.37372,"N_COORD97":2540089.35286,"ADDRESS":"保仁路２５８號二樓之１","OBJECTID":296486},"geometry":{"x":169971.37372000143,"y":2540089.3528600018}},{"attributes":{"ID":296495,"DIS_CODE":0,"TOWNNAME":"仁德區","LI":"仁愛里","LIN":"24鄰","STREET":"保仁路","SECT":" ","MAREA":" ","LANE":" ","ALLEY":" ","HOUSE_NO":"２５２號二樓之１","E_COORD97":169989.05330999999,"N_COORD97":2540084.3561900002,"ADDRESS":"保仁路２５２號二樓之１","OBJECTID":296487},"geometry":{"x":169989.05331000034,"y":2540084.3561899997}},{"attributes":{"ID":296496,"DIS_CODE":0,"TOWNNAME":"南區","LI":"田寮里","LIN":"17鄰","STREET":"西門路","SECT":"一段","MAREA":" ","LANE":"３０９巷","ALLEY":" ","HOUSE_NO":"２４號","E_COORD97":167699.95000000001,"N_COORD97":2542010.1899999999,"ADDRESS":"西門路一段３０９巷２４號","OBJECTID":296488},"geometry":{"x":167699.95000000019,"y":2542010.1900000013}},{"attributes":{"ID":296497,"DIS_CODE":0,"TOWNNAME":"南區","LI":"田寮里","LIN":"17鄰","STREET":"西門路","SECT":"一段","MAREA":" ","LANE":"３０９巷","ALLEY":" ","HOUSE_NO":"２６號","E_COORD97":167703.82000000001,"N_COORD97":2542010.5600000001,"ADDRESS":"西門路一段３０９巷２６號","OBJECTID":296489},"geometry":{"x":167703.8200000003,"y":2542010.5600000042}},{"attributes":{"ID":296498,"DIS_CODE":0,"TOWNNAME":"南區","LI":"田寮里","LIN":"17鄰","STREET":"西門路","SECT":"一段","MAREA":" ","LANE":"３０９巷","ALLEY":" ","HOUSE_NO":"２８號","E_COORD97":167707.87,"N_COORD97":2542010.9199999999,"ADDRESS":"西門路一段３０９巷２８號","OBJECTID":296490},"geometry":{"x":167707.87000000104,"y":2542010.9200000037}},{"attributes":{"ID":296499,"DIS_CODE":0,"TOWNNAME":"南區","LI":"田寮里","LIN":"17鄰","STREET":"西門路","SECT":"一段","MAREA":" ","LANE":"３０９巷","ALLEY":" ","HOUSE_NO":"３７號","E_COORD97":167680.23999999999,"N_COORD97":2542032.3100000001,"ADDRESS":"西門路一段３０９巷３７號","OBJECTID":296491},"geometry":{"x":167680.24000000115,"y":2542032.3099999987}},{"attributes":{"ID":296500,"DIS_CODE":0,"TOWNNAME":"南區","LI":"田寮里","LIN":"17鄰","STREET":"西門路","SECT":"一段","MAREA":" ","LANE":"３０９巷","ALLEY":" ","HOUSE_NO":"４１號","E_COORD97":167685.76999999999,"N_COORD97":2542032.6699999999,"ADDRESS":"西門路一段３０９巷４１號","OBJECTID":296492},"geometry":{"x":167685.77000000048,"y":2542032.6699999981}},{"attributes":{"ID":296501,"DIS_CODE":0,"TOWNNAME":"南區","LI":"田寮里","LIN":"17鄰","STREET":"西門路","SECT":"一段","MAREA":" ","LANE":"３０９巷","ALLEY":" ","HOUSE_NO":"４３號","E_COORD97":167690.01000000001,"N_COORD97":2542032.6699999999,"ADDRESS":"西門路一段３０９巷４３號","OBJECTID":296493},"geometry":{"x":167690.01000000071,"y":2542032.6699999981}},{"attributes":{"ID":296502,"DIS_CODE":0,"TOWNNAME":"南區","LI":"田寮里","LIN":"17鄰","STREET":"西門路","SECT":"一段","MAREA":" ","LANE":"３０９巷","ALLEY":" ","HOUSE_NO":"４５號","E_COORD97":167694.06,"N_COORD97":2542032.6699999999,"ADDRESS":"西門路一段３０９巷４５號","OBJECTID":296494},"geometry":{"x":167694.06000000052,"y":2542032.6699999981}},{"attributes":{"ID":296503,"DIS_CODE":0,"TOWNNAME":"仁德區","LI":"仁義里","LIN":"1鄰","STREET":"中山路","SECT":" ","MAREA":" ","LANE":" ","ALLEY":" ","HOUSE_NO":"３號","E_COORD97":175283.479482,"N_COORD97":2541056.31176,"ADDRESS":"中山路３號","OBJECTID":296495},"geometry":{"x":175283.47948200069,"y":2541056.3117570002}},{"attributes":{"ID":296504,"DIS_CODE":0,"TOWNNAME":"南區","LI":"光明里","LIN":"17鄰","STREET":"新建路","SECT":" ","MAREA":" ","LANE":"１７巷","ALLEY":" ","HOUSE_NO":"９號","E_COORD97":166515.38,"N_COORD97":2541515.75,"ADDRESS":"新建路１７巷９號","OBJECTID":296496},"geometry":{"x":166515.38000000175,"y":2541515.75}},{"attributes":{"ID":296505,"DIS_CODE":0,"TOWNNAME":"南區","LI":"田寮里","LIN":"17鄰","STREET":"西門路","SECT":"一段","MAREA":" ","LANE":"３０９巷","ALLEY":" ","HOUSE_NO":"４７號","E_COORD97":167697.37,"N_COORD97":2542030.1000000001,"ADDRESS":"西門路一段３０９巷４７號","OBJECTID":296497},"geometry":{"x":167697.37000000197,"y":2542030.1000000015}},{"attributes":{"ID":296506,"DIS_CODE":0,"TOWNNAME":"東區","LI":"龍山里","LIN":"17鄰","STREET":"崇學路","SECT":" ","MAREA":" ","LANE":"２２１巷","ALLEY":" ","HOUSE_NO":"１０號","E_COORD97":170443.75,"N_COORD97":2542430.75,"ADDRESS":"崇學路２２１巷１０號","OBJECTID":296498},"geometry":{"x":170443.75,"y":2542430.7500000019}},{"attributes":{"ID":296507,"DIS_CODE":0,"TOWNNAME":"東區","LI":"龍山里","LIN":"17鄰","STREET":"崇學路","SECT":" ","MAREA":" ","LANE":"２２１巷","ALLEY":" ","HOUSE_NO":"１２號","E_COORD97":170439.92999999999,"N_COORD97":2542432.7400000002,"ADDRESS":"崇學路２２１巷１２號","OBJECTID":296499},"geometry":{"x":170439.93000000063,"y":2542432.7400000039}},{"attributes":{"ID":296508,"DIS_CODE":0,"TOWNNAME":"東區","LI":"龍山里","LIN":"17鄰","STREET":"崇學路","SECT":" ","MAREA":" ","LANE":"２２１巷","ALLEY":" ","HOUSE_NO":"１４號","E_COORD97":170436.60999999999,"N_COORD97":2542435.48,"ADDRESS":"崇學路２２１巷１４號","OBJECTID":296500},"geometry":{"x":170436.61000000034,"y":2542435.4800000023}},{"attributes":{"ID":296509,"DIS_CODE":0,"TOWNNAME":"東區","LI":"龍山里","LIN":"17鄰","STREET":"崇學路","SECT":" ","MAREA":" ","LANE":"２２１巷","ALLEY":" ","HOUSE_NO":"１６號","E_COORD97":170432.29000000001,"N_COORD97":2542438.0499999998,"ADDRESS":"崇學路２２１巷１６號","OBJECTID":296501},"geometry":{"x":170432.29000000097,"y":2542438.0500000045}},{"attributes":{"ID":296510,"DIS_CODE":0,"TOWNNAME":"東區","LI":"龍山里","LIN":"17鄰","STREET":"崇學路","SECT":" ","MAREA":" ","LANE":"２２１巷","ALLEY":" ","HOUSE_NO":"１８號","E_COORD97":170427.06,"N_COORD97":2542439.1600000001,"ADDRESS":"崇學路２２１巷１８號","OBJECTID":296502},"geometry":{"x":170427.06000000052,"y":2542439.1600000001}},{"attributes":{"ID":296511,"DIS_CODE":0,"TOWNNAME":"中西區","LI":"民生里","LIN":"14鄰","STREET":"金華路","SECT":"三段","MAREA":" ","LANE":" ","ALLEY":" ","HOUSE_NO":"８７號","E_COORD97":167193.95000000001,"N_COORD97":2543439.5899999999,"ADDRESS":"金華路三段８７號","OBJECTID":296503},"geometry":{"x":167193.95000000112,"y":2543439.5899999999}},{"attributes":{"ID":296512,"DIS_CODE":0,"TOWNNAME":"中西區","LI":"民生里","LIN":"14鄰","STREET":"金華路","SECT":"三段","MAREA":" ","LANE":" ","ALLEY":" ","HOUSE_NO":"８９號","E_COORD97":167194.85999999999,"N_COORD97":2543443.46,"ADDRESS":"金華路三段８９號","OBJECTID":296504},"geometry":{"x":167194.86000000127,"y":2543443.4600000028}},{"attributes":{"ID":296513,"DIS_CODE":0,"TOWNNAME":"永康區","LI":"甲頂里","LIN":"14鄰","STREET":"大武街","SECT":" ","MAREA":" ","LANE":" ","ALLEY":" ","HOUSE_NO":"３６號","E_COORD97":170330.23999999999,"N_COORD97":2546718.6099999999,"ADDRESS":"大武街３６號","OBJECTID":296505},"geometry":{"x":170330.24000000022,"y":2546718.6100000013}},{"attributes":{"ID":296514,"DIS_CODE":0,"TOWNNAME":"永康區","LI":"西勢里","LIN":"14鄰","STREET":"西勢路","SECT":" ","MAREA":" ","LANE":" ","ALLEY":" ","HOUSE_NO":"３７號","E_COORD97":176217.32000000001,"N_COORD97":2546744.04,"ADDRESS":"西勢路３７號","OBJECTID":296506},"geometry":{"x":176217.3200000003,"y":2546744.0399999991}},{"attributes":{"ID":296515,"DIS_CODE":0,"TOWNNAME":"東區","LI":"龍山里","LIN":"17鄰","STREET":"崇學路","SECT":" ","MAREA":" ","LANE":"２２１巷","ALLEY":" ","HOUSE_NO":"２０號","E_COORD97":170424.69,"N_COORD97":2542443.6400000001,"ADDRESS":"崇學路２２１巷２０號","OBJECTID":296507},"geometry":{"x":170424.69000000227,"y":2542443.6400000006}},{"attributes":{"ID":296516,"DIS_CODE":0,"TOWNNAME":"東區","LI":"龍山里","LIN":"17鄰","STREET":"崇學路","SECT":" ","MAREA":" ","LANE":"２２１巷","ALLEY":" ","HOUSE_NO":"２２號","E_COORD97":170420.73000000001,"N_COORD97":2542445.2200000002,"ADDRESS":"崇學路２２１巷２２號","OBJECTID":296508},"geometry":{"x":170420.73000000045,"y":2542445.2200000025}},{"attributes":{"ID":296517,"DIS_CODE":0,"TOWNNAME":"東區","LI":"龍山里","LIN":"17鄰","STREET":"崇學路","SECT":" ","MAREA":" ","LANE":"２２１巷","ALLEY":" ","HOUSE_NO":"２４號","E_COORD97":170417.57000000001,"N_COORD97":2542448.6400000001,"ADDRESS":"崇學路２２１巷２４號","OBJECTID":296509},"geometry":{"x":170417.57000000123,"y":2542448.6400000025}},{"attributes":{"ID":296518,"DIS_CODE":0,"TOWNNAME":"東區","LI":"龍山里","LIN":"17鄰","STREET":"崇學路","SECT":" ","MAREA":" ","LANE":"２２１巷","ALLEY":" ","HOUSE_NO":"２６號","E_COORD97":170413.88,"N_COORD97":2542451.02,"ADDRESS":"崇學路２２１巷２６號","OBJECTID":296510},"geometry":{"x":170413.87999999989,"y":2542451.0200000014}},{"attributes":{"ID":296519,"DIS_CODE":0,"TOWNNAME":"東區","LI":"龍山里","LIN":"17鄰","STREET":"崇學路","SECT":" ","MAREA":" ","LANE":"２２１巷","ALLEY":" ","HOUSE_NO":"２８號","E_COORD97":170410.17999999999,"N_COORD97":2542454.1800000002,"ADDRESS":"崇學路２２１巷２８號","OBJECTID":296511},"geometry":{"x":170410.1799999997,"y":2542454.1800000016}},{"attributes":{"ID":296520,"DIS_CODE":0,"TOWNNAME":"東區","LI":"龍山里","LIN":"17鄰","STREET":"崇學路","SECT":" ","MAREA":" ","LANE":"２２１巷","ALLEY":" ","HOUSE_NO":"２號","E_COORD97":170457.85999999999,"N_COORD97":2542418.0600000001,"ADDRESS":"崇學路２２１巷２號","OBJECTID":296512},"geometry":{"x":170457.86000000127,"y":2542418.0600000024}},{"attributes":{"ID":296521,"DIS_CODE":0,"TOWNNAME":"東區","LI":"龍山里","LIN":"17鄰","STREET":"崇學路","SECT":" ","MAREA":" ","LANE":"２２１巷","ALLEY":" ","HOUSE_NO":"３０號","E_COORD97":170406.76000000001,"N_COORD97":2542457.8700000001,"ADDRESS":"崇學路２２１巷３０號","OBJECTID":296513},"geometry":{"x":170406.76000000071,"y":2542457.8700000029}},{"attributes":{"ID":296522,"DIS_CODE":0,"TOWNNAME":"東區","LI":"龍山里","LIN":"17鄰","STREET":"崇學路","SECT":" ","MAREA":" ","LANE":"２２１巷","ALLEY":" ","HOUSE_NO":"３２號","E_COORD97":170403.32999999999,"N_COORD97":2542460.2400000002,"ADDRESS":"崇學路２２１巷３２號","OBJECTID":296514},"geometry":{"x":170403.33000000101,"y":2542460.2400000021}},{"attributes":{"ID":296523,"DIS_CODE":0,"TOWNNAME":"東區","LI":"龍山里","LIN":"17鄰","STREET":"崇學路","SECT":" ","MAREA":" ","LANE":"２２１巷","ALLEY":" ","HOUSE_NO":"３４號","E_COORD97":170399.10999999999,"N_COORD97":2542462.8700000001,"ADDRESS":"崇學路２２１巷３４號","OBJECTID":296515},"geometry":{"x":170399.11000000034,"y":2542462.870000001}},{"attributes":{"ID":296524,"DIS_CODE":0,"TOWNNAME":"東區","LI":"龍山里","LIN":"17鄰","STREET":"崇學路","SECT":" ","MAREA":" ","LANE":"２２１巷","ALLEY":" ","HOUSE_NO":"３６號","E_COORD97":170394.89000000001,"N_COORD97":2542465.2400000002,"ADDRESS":"崇學路２２１巷３６號","OBJECTID":296516},"geometry":{"x":170394.88999999966,"y":2542465.2400000002}},{"attributes":{"ID":296525,"DIS_CODE":0,"TOWNNAME":"東區","LI":"龍山里","LIN":"17鄰","STREET":"崇學路","SECT":" ","MAREA":" ","LANE":"２２１巷","ALLEY":" ","HOUSE_NO":"３８號","E_COORD97":170392.78,"N_COORD97":2542468.1400000001,"ADDRESS":"崇學路２２１巷３８號","OBJECTID":296517},"geometry":{"x":170392.78000000026,"y":2542468.1400000025}},{"attributes":{"ID":296526,"DIS_CODE":0,"TOWNNAME":"東區","LI":"龍山里","LIN":"17鄰","STREET":"崇學路","SECT":" ","MAREA":" ","LANE":"２２１巷","ALLEY":" ","HOUSE_NO":"４０號","E_COORD97":170389.09,"N_COORD97":2542471.5699999998,"ADDRESS":"崇學路２２１巷４０號","OBJECTID":296518},"geometry":{"x":170389.08999999892,"y":2542471.5700000022}},{"attributes":{"ID":296527,"DIS_CODE":0,"TOWNNAME":"東區","LI":"龍山里","LIN":"17鄰","STREET":"崇學路","SECT":" ","MAREA":" ","LANE":"２２１巷","ALLEY":" ","HOUSE_NO":"４２號","E_COORD97":170383.82000000001,"N_COORD97":2542475.2599999998,"ADDRESS":"崇學路２２１巷４２號","OBJECTID":296519},"geometry":{"x":170383.82000000123,"y":2542475.2599999998}},{"attributes":{"ID":296528,"DIS_CODE":0,"TOWNNAME":"東區","LI":"龍山里","LIN":"17鄰","STREET":"崇學路","SECT":" ","MAREA":" ","LANE":"２２１巷","ALLEY":" ","HOUSE_NO":"４號","E_COORD97":170454.04000000001,"N_COORD97":2542420.2200000002,"ADDRESS":"崇學路２２１巷４號","OBJECTID":296520},"geometry":{"x":170454.03999999911,"y":2542420.2200000025}},{"attributes":{"ID":296529,"DIS_CODE":0,"TOWNNAME":"東區","LI":"龍山里","LIN":"17鄰","STREET":"崇學路","SECT":" ","MAREA":" ","LANE":"２２１巷","ALLEY":" ","HOUSE_NO":"６號","E_COORD97":170451.38,"N_COORD97":2542424.6099999999,"ADDRESS":"崇學路２２１巷６號","OBJECTID":296521},"geometry":{"x":170451.37999999989,"y":2542424.6099999994}},{"attributes":{"ID":296530,"DIS_CODE":0,"TOWNNAME":"東區","LI":"龍山里","LIN":"17鄰","STREET":"崇學路","SECT":" ","MAREA":" ","LANE":"２２１巷","ALLEY":" ","HOUSE_NO":"８號","E_COORD97":170447.07000000001,"N_COORD97":2542427.6800000002,"ADDRESS":"崇學路２２１巷８號","OBJECTID":296522},"geometry":{"x":170447.0700000003,"y":2542427.6799999997}},{"attributes":{"ID":296531,"DIS_CODE":0,"TOWNNAME":"南區","LI":"文南里","LIN":"21鄰","STREET":"健康路","SECT":"二段","MAREA":" ","LANE":"４８９巷","ALLEY":" ","HOUSE_NO":"５號五樓","E_COORD97":166358.45999999999,"N_COORD97":2542511.6000000001,"ADDRESS":"健康路二段４８９巷５號五樓","OBJECTID":296523},"geometry":{"x":166358.45999999996,"y":2542511.6000000015}},{"attributes":{"ID":296532,"DIS_CODE":0,"TOWNNAME":"南區","LI":"日新里","LIN":" ","STREET":"金華路","SECT":"一段","MAREA":" ","LANE":"４７５巷","ALLEY":" ","HOUSE_NO":"２０號二樓之３","E_COORD97":166953.07000000001,"N_COORD97":2541620.7599999998,"ADDRESS":"金華路一段４７５巷２０號二樓之３","OBJECTID":296524},"geometry":{"x":166953.0700000003,"y":2541620.7599999998}},{"attributes":{"ID":296533,"DIS_CODE":0,"TOWNNAME":"南區","LI":"日新里","LIN":" ","STREET":"新興路","SECT":" ","MAREA":" ","LANE":"４６１巷","ALLEY":" ","HOUSE_NO":"２６號三樓","E_COORD97":166825.44,"N_COORD97":2541570.7799999998,"ADDRESS":"新興路４６１巷２６號三樓","OBJECTID":296525},"geometry":{"x":166825.44000000041,"y":2541570.7800000012}},{"attributes":{"ID":296534,"DIS_CODE":0,"TOWNNAME":"佳里區","LI":"六安里","LIN":"29鄰","STREET":"進學路","SECT":" ","MAREA":" ","LANE":"２３６巷","ALLEY":" ","HOUSE_NO":"４號一樓","E_COORD97":165658.14999999999,"N_COORD97":2562732.0499999998,"ADDRESS":"進學路２３６巷４號一樓","OBJECTID":296526},"geometry":{"x":165658.15000000224,"y":2562732.0500000007}},{"attributes":{"ID":296535,"DIS_CODE":0,"TOWNNAME":"東區","LI":"龍山里","LIN":"17鄰","STREET":"崇學路","SECT":" ","MAREA":" ","LANE":"２３９巷","ALLEY":" ","HOUSE_NO":"１１號","E_COORD97":170452.79000000001,"N_COORD97":2542447.2200000002,"ADDRESS":"崇學路２３９巷１１號","OBJECTID":296527},"geometry":{"x":170452.79000000097,"y":2542447.2200000025}},{"attributes":{"ID":296536,"DIS_CODE":0,"TOWNNAME":"東區","LI":"龍山里","LIN":"17鄰","STREET":"崇學路","SECT":" ","MAREA":" ","LANE":"２３９巷","ALLEY":" ","HOUSE_NO":"１３號","E_COORD97":170448.06,"N_COORD97":2542449.9500000002,"ADDRESS":"崇學路２３９巷１３號","OBJECTID":296528},"geometry":{"x":170448.05999999959,"y":2542449.9499999993}},{"attributes":{"ID":296537,"DIS_CODE":0,"TOWNNAME":"東區","LI":"龍山里","LIN":"17鄰","STREET":"崇學路","SECT":" ","MAREA":" ","LANE":"２３９巷","ALLEY":" ","HOUSE_NO":"１５號","E_COORD97":170444.23999999999,"N_COORD97":2542452.1899999999,"ADDRESS":"崇學路２３９巷１５號","OBJECTID":296529},"geometry":{"x":170444.24000000022,"y":2542452.1899999995}},{"attributes":{"ID":296538,"DIS_CODE":0,"TOWNNAME":"東區","LI":"龍山里","LIN":"17鄰","STREET":"崇學路","SECT":" ","MAREA":" ","LANE":"２３９巷","ALLEY":" ","HOUSE_NO":"１７號","E_COORD97":170440.67999999999,"N_COORD97":2542454.6000000001,"ADDRESS":"崇學路２３９巷１７號","OBJECTID":296530},"geometry":{"x":170440.6799999997,"y":2542454.6000000015}},{"attributes":{"ID":296539,"DIS_CODE":0,"TOWNNAME":"東區","LI":"龍山里","LIN":"17鄰","STREET":"崇學路","SECT":" ","MAREA":" ","LANE":"２３９巷","ALLEY":" ","HOUSE_NO":"１９號","E_COORD97":170437.85000000001,"N_COORD97":2542458.0800000001,"ADDRESS":"崇學路２３９巷１９號","OBJECTID":296531},"geometry":{"x":170437.84999999963,"y":2542458.0800000019}},{"attributes":{"ID":296540,"DIS_CODE":0,"TOWNNAME":"東區","LI":"龍山里","LIN":"17鄰","STREET":"崇學路","SECT":" ","MAREA":" ","LANE":"２３９巷","ALLEY":" ","HOUSE_NO":"２１號","E_COORD97":170433.20999999999,"N_COORD97":2542461.1499999999,"ADDRESS":"崇學路２３９巷２１號","OBJECTID":296532},"geometry":{"x":170433.21000000089,"y":2542461.1500000022}},{"attributes":{"ID":296541,"DIS_CODE":0,"TOWNNAME":"東區","LI":"龍山里","LIN":"17鄰","STREET":"崇學路","SECT":" ","MAREA":" ","LANE":"２３９巷","ALLEY":" ","HOUSE_NO":"２３號","E_COORD97":170429.47,"N_COORD97":2542465.1299999999,"ADDRESS":"崇學路２３９巷２３號","OBJECTID":296533},"geometry":{"x":170429.47000000067,"y":2542465.129999999}},{"attributes":{"ID":296542,"DIS_CODE":0,"TOWNNAME":"東區","LI":"龍山里","LIN":"17鄰","STREET":"崇學路","SECT":" ","MAREA":" ","LANE":"２３９巷","ALLEY":" ","HOUSE_NO":"２５號","E_COORD97":170422.57999999999,"N_COORD97":2542467.3500000001,"ADDRESS":"崇學路２３９巷２５號","OBJECTID":296534},"geometry":{"x":170422.58000000007,"y":2542467.3499999996}},{"attributes":{"ID":296543,"DIS_CODE":0,"TOWNNAME":"東區","LI":"龍山里","LIN":"17鄰","STREET":"崇學路","SECT":" ","MAREA":" ","LANE":"２３９巷","ALLEY":" ","HOUSE_NO":"２７號","E_COORD97":170418.09,"N_COORD97":2542472.6200000001,"ADDRESS":"崇學路２３９巷２７號","OBJECTID":296535},"geometry":{"x":170418.09000000171,"y":2542472.6200000029}},{"attributes":{"ID":296544,"DIS_CODE":0,"TOWNNAME":"東區","LI":"龍山里","LIN":"17鄰","STREET":"崇學路","SECT":" ","MAREA":" ","LANE":"２３９巷","ALLEY":" ","HOUSE_NO":"２９號","E_COORD97":170412.82000000001,"N_COORD97":2542474.9900000002,"ADDRESS":"崇學路２３９巷２９號","OBJECTID":296536},"geometry":{"x":170412.8200000003,"y":2542474.9899999984}},{"attributes":{"ID":296545,"DIS_CODE":0,"TOWNNAME":"東區","LI":"龍山里","LIN":"17鄰","STREET":"崇學路","SECT":" ","MAREA":" ","LANE":"２３９巷","ALLEY":" ","HOUSE_NO":"３１號","E_COORD97":170409.13,"N_COORD97":2542479.7400000002,"ADDRESS":"崇學路２３９巷３１號","OBJECTID":296537},"geometry":{"x":170409.12999999989,"y":2542479.7400000002}},{"attributes":{"ID":296546,"DIS_CODE":0,"TOWNNAME":"東區","LI":"龍山里","LIN":"17鄰","STREET":"崇學路","SECT":" ","MAREA":" ","LANE":"２３９巷","ALLEY":" ","HOUSE_NO":"３３號","E_COORD97":170402.01000000001,"N_COORD97":2542482.8999999999,"ADDRESS":"崇學路２３９巷３３號","OBJECTID":296538},"geometry":{"x":170402.01000000071,"y":2542482.9000000041}},{"attributes":{"ID":296547,"DIS_CODE":0,"TOWNNAME":"東區","LI":"龍山里","LIN":"17鄰","STREET":"崇學路","SECT":" ","MAREA":" ","LANE":"２３９巷","ALLEY":" ","HOUSE_NO":"３５號","E_COORD97":170398.32000000001,"N_COORD97":2542486.0600000001,"ADDRESS":"崇學路２３９巷３５號","OBJECTID":296539},"geometry":{"x":170398.32000000216,"y":2542486.0600000024}},{"attributes":{"ID":296548,"DIS_CODE":0,"TOWNNAME":"安平區","LI":"億載里","LIN":"17鄰","STREET":"光州一街","SECT":" ","MAREA":" ","LANE":" ","ALLEY":" ","HOUSE_NO":"４６號","E_COORD97":164238.85999999999,"N_COORD97":2542932.4199999999,"ADDRESS":"光州一街４６號","OBJECTID":296540},"geometry":{"x":164238.86000000034,"y":2542932.4199999999}},{"attributes":{"ID":296549,"DIS_CODE":0,"TOWNNAME":"安平區","LI":"怡平里","LIN":"18鄰","STREET":"永華六街","SECT":" ","MAREA":" ","LANE":" ","ALLEY":" ","HOUSE_NO":"１４６號","E_COORD97":165636.23000000001,"N_COORD97":2543857.98,"ADDRESS":"永華六街１４６號","OBJECTID":296541},"geometry":{"x":165636.23000000138,"y":2543857.9800000004}},{"attributes":{"ID":296550,"DIS_CODE":0,"TOWNNAME":"安平區","LI":"億載里","LIN":"17鄰","STREET":"光州二街","SECT":" ","MAREA":" ","LANE":" ","ALLEY":" ","HOUSE_NO":"１０３號","E_COORD97":164287.76000000001,"N_COORD97":2543058.73,"ADDRESS":"光州二街１０３號","OBJECTID":296542},"geometry":{"x":164287.76000000071,"y":2543058.7300000004}},{"attributes":{"ID":296551,"DIS_CODE":0,"TOWNNAME":"安平區","LI":"億載里","LIN":"17鄰","STREET":"光州二街","SECT":" ","MAREA":" ","LANE":" ","ALLEY":" ","HOUSE_NO":"１０５號","E_COORD97":164292.04999999999,"N_COORD97":2543059.5800000001,"ADDRESS":"光州二街１０５號","OBJECTID":296543},"geometry":{"x":164292.05000000075,"y":2543059.5800000001}},{"attributes":{"ID":296552,"DIS_CODE":0,"TOWNNAME":"安平區","LI":"怡平里","LIN":"15鄰","STREET":"建平十一街","SECT":" ","MAREA":" ","LANE":" ","ALLEY":" ","HOUSE_NO":"２６６號","E_COORD97":165704.89000000001,"N_COORD97":2543987.7999999998,"ADDRESS":"建平十一街２６６號","OBJECTID":296544},"geometry":{"x":165704.89000000153,"y":2543987.8000000007}},{"attributes":{"ID":296553,"DIS_CODE":0,"TOWNNAME":"東區","LI":"東門里","LIN":"1鄰","STREET":"東門路","SECT":"一段","MAREA":" ","LANE":" ","ALLEY":" ","HOUSE_NO":"７號","E_COORD97":169184.38,"N_COORD97":2543327.5499999998,"ADDRESS":"東門路一段７號","OBJECTID":296545},"geometry":{"x":169184.38000000082,"y":2543327.5500000026}},{"attributes":{"ID":296554,"DIS_CODE":0,"TOWNNAME":"永康區","LI":"永康里","LIN":"41鄰","STREET":"永福街","SECT":" ","MAREA":" ","LANE":"９７巷","ALLEY":" ","HOUSE_NO":"１０號九樓之１","E_COORD97":174257.70999999999,"N_COORD97":2546628.23,"ADDRESS":"永福街９７巷１０號九樓之１","OBJECTID":296546},"geometry":{"x":174257.71000000089,"y":2546628.2300000023}},{"attributes":{"ID":296555,"DIS_CODE":0,"TOWNNAME":"永康區","LI":"永康里","LIN":"41鄰","STREET":"永福街","SECT":" ","MAREA":" ","LANE":"９７巷","ALLEY":" ","HOUSE_NO":"１０號七樓之６","E_COORD97":174257.81,"N_COORD97":2546628.23,"ADDRESS":"永福街９７巷１０號七樓之６","OBJECTID":296547},"geometry":{"x":174257.81000000052,"y":2546628.2300000023}},{"attributes":{"ID":296556,"DIS_CODE":0,"TOWNNAME":"永康區","LI":"永康里","LIN":"41鄰","STREET":"永福街","SECT":" ","MAREA":" ","LANE":"９７巷","ALLEY":" ","HOUSE_NO":"１０號六樓之４","E_COORD97":174257.73999999999,"N_COORD97":2546628.23,"ADDRESS":"永福街９７巷１０號六樓之４","OBJECTID":296548},"geometry":{"x":174257.74000000115,"y":2546628.2300000023}},{"attributes":{"ID":296557,"DIS_CODE":0,"TOWNNAME":"永康區","LI":"安康里","LIN":"1鄰","STREET":"中華路","SECT":" ","MAREA":" ","LANE":"７２７巷","ALLEY":" ","HOUSE_NO":"１６號八樓之９","E_COORD97":170790.73999999999,"N_COORD97":2546399.8300000001,"ADDRESS":"中華路７２７巷１６號八樓之９","OBJECTID":296549},"geometry":{"x":170790.74000000115,"y":2546399.8300000019}},{"attributes":{"ID":296558,"DIS_CODE":0,"TOWNNAME":"東區","LI":"龍山里","LIN":"17鄰","STREET":"崇學路","SECT":" ","MAREA":" ","LANE":"２３９巷","ALLEY":" ","HOUSE_NO":"３７號","E_COORD97":170393.84,"N_COORD97":2542490.7999999998,"ADDRESS":"崇學路２３９巷３７號","OBJECTID":296550},"geometry":{"x":170393.83999999985,"y":2542490.8000000045}},{"attributes":{"ID":296559,"DIS_CODE":0,"TOWNNAME":"安平區","LI":"怡平里","LIN":"15鄰","STREET":"建平十一街","SECT":" ","MAREA":" ","LANE":" ","ALLEY":" ","HOUSE_NO":"２６８號","E_COORD97":165700.51000000001,"N_COORD97":2543988.3900000001,"ADDRESS":"建平十一街２６８號","OBJECTID":296551},"geometry":{"x":165700.50999999978,"y":2543988.3900000043}},{"attributes":{"ID":296560,"DIS_CODE":0,"TOWNNAME":"新化區","LI":"太平里","LIN":"14鄰","STREET":"太平街","SECT":" ","MAREA":" ","LANE":" ","ALLEY":" ","HOUSE_NO":"８２號","E_COORD97":178651.97,"N_COORD97":2548757.25,"ADDRESS":"太平街８２號","OBJECTID":296552},"geometry":{"x":178651.96999999974,"y":2548757.25}},{"attributes":{"ID":296561,"DIS_CODE":0,"TOWNNAME":"新化區","LI":"太平里","LIN":"14鄰","STREET":"民權街","SECT":" ","MAREA":" ","LANE":" ","ALLEY":" ","HOUSE_NO":"１２７號","E_COORD97":178709.60999999999,"N_COORD97":2548821.25,"ADDRESS":"民權街１２７號","OBJECTID":296553},"geometry":{"x":178709.6100000022,"y":2548821.2500000019}},{"attributes":{"ID":296562,"DIS_CODE":0,"TOWNNAME":"新化區","LI":"太平里","LIN":"14鄰","STREET":"太平街","SECT":" ","MAREA":" ","LANE":" ","ALLEY":" ","HOUSE_NO":"８０號","E_COORD97":178656.87,"N_COORD97":2548758.25,"ADDRESS":"太平街８０號","OBJECTID":296554},"geometry":{"x":178656.87000000104,"y":2548758.25}},{"attributes":{"ID":296563,"DIS_CODE":0,"TOWNNAME":"新化區","LI":"太平里","LIN":"14鄰","STREET":"民權街","SECT":" ","MAREA":" ","LANE":" ","ALLEY":" ","HOUSE_NO":"１４７號","E_COORD97":178703.81,"N_COORD97":2548858.25,"ADDRESS":"民權街１４７號","OBJECTID":296555},"geometry":{"x":178703.80999999959,"y":2548858.2500000019}},{"attributes":{"ID":296564,"DIS_CODE":0,"TOWNNAME":"永康區","LI":"永康里","LIN":"41鄰","STREET":"永福街","SECT":" ","MAREA":" ","LANE":"９７巷","ALLEY":" ","HOUSE_NO":"１０號五樓之６","E_COORD97":174257.81,"N_COORD97":2546628.23,"ADDRESS":"永福街９７巷１０號五樓之６","OBJECTID":296556},"geometry":{"x":174257.81000000052,"y":2546628.2300000023}},{"attributes":{"ID":296565,"DIS_CODE":0,"TOWNNAME":"永康區","LI":"永康里","LIN":"42鄰","STREET":"永信路","SECT":" ","MAREA":" ","LANE":"５８巷","ALLEY":" ","HOUSE_NO":"１２號五樓","E_COORD97":174186.45999999999,"N_COORD97":2546499,"ADDRESS":"永信路５８巷１２號五樓","OBJECTID":296557},"geometry":{"x":174186.46000000089,"y":2546498.9999999981}},{"attributes":{"ID":296566,"DIS_CODE":0,"TOWNNAME":"新化區","LI":"太平里","LIN":"14鄰","STREET":"民權街","SECT":" ","MAREA":" ","LANE":" ","ALLEY":" ","HOUSE_NO":"１４５號","E_COORD97":178703.01000000001,"N_COORD97":2548853.25,"ADDRESS":"民權街１４５號","OBJECTID":296558},"geometry":{"x":178703.01000000071,"y":2548853.25}},{"attributes":{"ID":296567,"DIS_CODE":0,"TOWNNAME":"安平區","LI":"育平里","LIN":"10鄰","STREET":"健康三街","SECT":" ","MAREA":" ","LANE":" ","ALLEY":" ","HOUSE_NO":"２２９號","E_COORD97":164778.35000000001,"N_COORD97":2543477.98,"ADDRESS":"健康三街２２９號","OBJECTID":296559},"geometry":{"x":164778.35000000056,"y":2543477.9800000004}},{"attributes":{"ID":296568,"DIS_CODE":0,"TOWNNAME":"安平區","LI":"育平里","LIN":"10鄰","STREET":"健康三街","SECT":" ","MAREA":" ","LANE":" ","ALLEY":" ","HOUSE_NO":"２３１號","E_COORD97":164778.89000000001,"N_COORD97":2543482.6099999999,"ADDRESS":"健康三街２３１號","OBJECTID":296560},"geometry":{"x":164778.88999999966,"y":2543482.6099999994}},{"attributes":{"ID":296569,"DIS_CODE":0,"TOWNNAME":"中西區","LI":"元安里","LIN":"4鄰","STREET":"西門路","SECT":"一段","MAREA":" ","LANE":"７１５巷","ALLEY":" ","HOUSE_NO":"２３號二樓","E_COORD97":167675.67000000001,"N_COORD97":2543260.02,"ADDRESS":"西門路一段７１５巷２３號二樓","OBJECTID":296561},"geometry":{"x":167675.66999999993,"y":2543260.0199999996}},{"attributes":{"ID":296570,"DIS_CODE":0,"TOWNNAME":"中西區","LI":"元安里","LIN":"4鄰","STREET":"西門路","SECT":"一段","MAREA":" ","LANE":"７１５巷","ALLEY":" ","HOUSE_NO":"２３號三樓之１","E_COORD97":167677.79999999999,"N_COORD97":2543259.8100000001,"ADDRESS":"西門路一段７１５巷２３號三樓之１","OBJECTID":296562},"geometry":{"x":167677.80000000075,"y":2543259.8100000042}},{"attributes":{"ID":296571,"DIS_CODE":0,"TOWNNAME":"中西區","LI":"元安里","LIN":"4鄰","STREET":"西門路","SECT":"一段","MAREA":" ","LANE":"７１５巷","ALLEY":" ","HOUSE_NO":"２３號三樓之２","E_COORD97":167677.79999999999,"N_COORD97":2543259.8100000001,"ADDRESS":"西門路一段７１５巷２３號三樓之２","OBJECTID":296563},"geometry":{"x":167677.80000000075,"y":2543259.8100000042}},{"attributes":{"ID":296572,"DIS_CODE":0,"TOWNNAME":"中西區","LI":"元安里","LIN":"4鄰","STREET":"西門路","SECT":"一段","MAREA":" ","LANE":"７１５巷","ALLEY":" ","HOUSE_NO":"２３號五樓之１","E_COORD97":167677.79999999999,"N_COORD97":2543259.8100000001,"ADDRESS":"西門路一段７１５巷２３號五樓之１","OBJECTID":296564},"geometry":{"x":167677.80000000075,"y":2543259.8100000042}},{"attributes":{"ID":296573,"DIS_CODE":0,"TOWNNAME":"中西區","LI":"元安里","LIN":"4鄰","STREET":"西門路","SECT":"一段","MAREA":" ","LANE":"７１５巷","ALLEY":" ","HOUSE_NO":"２３號五樓之２","E_COORD97":167677.79999999999,"N_COORD97":2543259.8100000001,"ADDRESS":"西門路一段７１５巷２３號五樓之２","OBJECTID":296565},"geometry":{"x":167677.80000000075,"y":2543259.8100000042}},{"attributes":{"ID":296574,"DIS_CODE":0,"TOWNNAME":"中西區","LI":"元安里","LIN":"4鄰","STREET":"西門路","SECT":"一段","MAREA":" ","LANE":"７１５巷","ALLEY":" ","HOUSE_NO":"２３號四樓之１","E_COORD97":167677.79999999999,"N_COORD97":2543259.8100000001,"ADDRESS":"西門路一段７１５巷２３號四樓之１","OBJECTID":296566},"geometry":{"x":167677.80000000075,"y":2543259.8100000042}},{"attributes":{"ID":296575,"DIS_CODE":0,"TOWNNAME":"中西區","LI":"元安里","LIN":" ","STREET":"西門路","SECT":"一段","MAREA":" ","LANE":"７０３巷","ALLEY":" ","HOUSE_NO":"１６號七樓之６","E_COORD97":167623.60999999999,"N_COORD97":2543250.75,"ADDRESS":"西門路一段７０３巷１６號七樓之６","OBJECTID":296567},"geometry":{"x":167623.61000000127,"y":2543250.7500000019}},{"attributes":{"ID":296576,"DIS_CODE":0,"TOWNNAME":"東區","LI":"龍山里","LIN":"17鄰","STREET":"崇學路","SECT":" ","MAREA":" ","LANE":"２３９巷","ALLEY":" ","HOUSE_NO":"３號","E_COORD97":170466.57000000001,"N_COORD97":2542435.6499999999,"ADDRESS":"崇學路２３９巷３號","OBJECTID":296568},"geometry":{"x":170466.57000000123,"y":2542435.6500000004}},{"attributes":{"ID":296577,"DIS_CODE":0,"TOWNNAME":"東區","LI":"龍山里","LIN":"17鄰","STREET":"崇學路","SECT":" ","MAREA":" ","LANE":"２３９巷","ALLEY":" ","HOUSE_NO":"５號","E_COORD97":170463.67000000001,"N_COORD97":2542438.2599999998,"ADDRESS":"崇學路２３９巷５號","OBJECTID":296569},"geometry":{"x":170463.67000000086,"y":2542438.2599999998}},{"attributes":{"ID":296578,"DIS_CODE":0,"TOWNNAME":"東區","LI":"龍山里","LIN":"17鄰","STREET":"崇學路","SECT":" ","MAREA":" ","LANE":"２３９巷","ALLEY":" ","HOUSE_NO":"７號","E_COORD97":170458.92999999999,"N_COORD97":2542440.5800000001,"ADDRESS":"崇學路２３９巷７號","OBJECTID":296570},"geometry":{"x":170458.9299999997,"y":2542440.5800000038}},{"attributes":{"ID":296579,"DIS_CODE":0,"TOWNNAME":"東區","LI":"龍山里","LIN":"17鄰","STREET":"崇學路","SECT":" ","MAREA":" ","LANE":"２３９巷","ALLEY":" ","HOUSE_NO":"９號","E_COORD97":170455.12,"N_COORD97":2542443.73,"ADDRESS":"崇學路２３９巷９號","OBJECTID":296571},"geometry":{"x":170455.12000000011,"y":2542443.7300000023}},{"attributes":{"ID":296580,"DIS_CODE":0,"TOWNNAME":"歸仁區","LI":"六甲里","LIN":"26鄰","STREET":"六甲路","SECT":" ","MAREA":" ","LANE":"２２６巷","ALLEY":" ","HOUSE_NO":"１８號","E_COORD97":175970.82000000001,"N_COORD97":2539263.25,"ADDRESS":"六甲路２２６巷１８號","OBJECTID":296572},"geometry":{"x":175970.82000000123,"y":2539263.2500000019}},{"attributes":{"ID":296581,"DIS_CODE":0,"TOWNNAME":"永康區","LI":"安康里","LIN":"17鄰","STREET":"中華路","SECT":" ","MAREA":" ","LANE":"６６１巷","ALLEY":" ","HOUSE_NO":"１號","E_COORD97":170977.73000000001,"N_COORD97":2546210.75,"ADDRESS":"中華路６６１巷１號","OBJECTID":296573},"geometry":{"x":170977.73000000138,"y":2546210.7500000019}},{"attributes":{"ID":296582,"DIS_CODE":0,"TOWNNAME":"永康區","LI":"正強里","LIN":"17鄰","STREET":"自強路","SECT":" ","MAREA":" ","LANE":"１８８巷","ALLEY":" ","HOUSE_NO":"２８號之９","E_COORD97":173208.44,"N_COORD97":2547386.0499999998,"ADDRESS":"自強路１８８巷２８號之９","OBJECTID":296574},"geometry":{"x":173208.44000000134,"y":2547386.0500000026}},{"attributes":{"ID":296583,"DIS_CODE":0,"TOWNNAME":"永康區","LI":"安康里","LIN":"17鄰","STREET":"中華路","SECT":" ","MAREA":" ","LANE":"６１９巷","ALLEY":" ","HOUSE_NO":"１６號","E_COORD97":171017.60000000001,"N_COORD97":2546092.9900000002,"ADDRESS":"中華路６１９巷１６號","OBJECTID":296575},"geometry":{"x":171017.59999999963,"y":2546092.9900000021}},{"attributes":{"ID":296584,"DIS_CODE":0,"TOWNNAME":"安南區","LI":"安順里","LIN":"14鄰","STREET":"總安街","SECT":"一段","MAREA":" ","LANE":" ","ALLEY":" ","HOUSE_NO":"１３４號","E_COORD97":169630.42999999999,"N_COORD97":2550196.2400000002,"ADDRESS":"總安街一段１３４號","OBJECTID":296576},"geometry":{"x":169630.4299999997,"y":2550196.2400000002}},{"attributes":{"ID":296585,"DIS_CODE":0,"TOWNNAME":"安南區","LI":"安順里","LIN":"14鄰","STREET":"總安街","SECT":"一段","MAREA":" ","LANE":" ","ALLEY":" ","HOUSE_NO":"１３６號","E_COORD97":169627.84,"N_COORD97":2550199.9399999999,"ADDRESS":"總安街一段１３６號","OBJECTID":296577},"geometry":{"x":169627.83999999985,"y":2550199.9399999995}},{"attributes":{"ID":296586,"DIS_CODE":0,"TOWNNAME":"安南區","LI":"安順里","LIN":"14鄰","STREET":"總安街","SECT":"一段","MAREA":" ","LANE":" ","ALLEY":" ","HOUSE_NO":"１３８號","E_COORD97":169623.76000000001,"N_COORD97":2550202.0299999998,"ADDRESS":"總安街一段１３８號","OBJECTID":296578},"geometry":{"x":169623.76000000071,"y":2550202.0300000012}},{"attributes":{"ID":296587,"DIS_CODE":0,"TOWNNAME":"安南區","LI":"安順里","LIN":"14鄰","STREET":"總安街","SECT":"一段","MAREA":" ","LANE":" ","ALLEY":" ","HOUSE_NO":"１４０號","E_COORD97":169619.04999999999,"N_COORD97":2550203.71,"ADDRESS":"總安街一段１４０號","OBJECTID":296579},"geometry":{"x":169619.04999999981,"y":2550203.7100000009}},{"attributes":{"ID":296588,"DIS_CODE":0,"TOWNNAME":"安南區","LI":"新順里","LIN":"14鄰","STREET":"永安二街","SECT":" ","MAREA":" ","LANE":" ","ALLEY":" ","HOUSE_NO":"２３號","E_COORD97":169924.04000000001,"N_COORD97":2549501.79,"ADDRESS":"永安二街２３號","OBJECTID":296580},"geometry":{"x":169924.04000000097,"y":2549501.790000001}},{"attributes":{"ID":296589,"DIS_CODE":0,"TOWNNAME":"安南區","LI":"新順里","LIN":"14鄰","STREET":"永安二街","SECT":" ","MAREA":" ","LANE":" ","ALLEY":" ","HOUSE_NO":"２７號","E_COORD97":169935.45000000001,"N_COORD97":2549478.1899999999,"ADDRESS":"永安二街２７號","OBJECTID":296581},"geometry":{"x":169935.45000000019,"y":2549478.1900000013}},{"attributes":{"ID":296590,"DIS_CODE":0,"TOWNNAME":"安南區","LI":"新順里","LIN":"14鄰","STREET":"永安二街","SECT":" ","MAREA":" ","LANE":" ","ALLEY":" ","HOUSE_NO":"５５號","E_COORD97":169935.47,"N_COORD97":2549368.79,"ADDRESS":"永安二街５５號","OBJECTID":296582},"geometry":{"x":169935.46999999881,"y":2549368.790000001}},{"attributes":{"ID":296591,"DIS_CODE":0,"TOWNNAME":"安南區","LI":"新順里","LIN":"14鄰","STREET":"永安路","SECT":" ","MAREA":" ","LANE":" ","ALLEY":" ","HOUSE_NO":"１３８號","E_COORD97":170499.57000000001,"N_COORD97":2549274.1200000001,"ADDRESS":"永安路１３８號","OBJECTID":296583},"geometry":{"x":170499.5700000003,"y":2549274.1200000029}},{"attributes":{"ID":296592,"DIS_CODE":0,"TOWNNAME":"安南區","LI":"新順里","LIN":"14鄰","STREET":"永安路","SECT":" ","MAREA":" ","LANE":" ","ALLEY":" ","HOUSE_NO":"２４號","E_COORD97":169977.26999999999,"N_COORD97":2549541.5899999999,"ADDRESS":"永安路２４號","OBJECTID":296584},"geometry":{"x":169977.26999999862,"y":2549541.5899999999}},{"attributes":{"ID":296593,"DIS_CODE":0,"TOWNNAME":"東區","LI":"虎尾里","LIN":"24鄰","STREET":"東成街","SECT":" ","MAREA":" ","LANE":"２２２巷","ALLEY":" ","HOUSE_NO":"１９號","E_COORD97":171916.26999999999,"N_COORD97":2542249.0099999998,"ADDRESS":"東成街２２２巷１９號","OBJECTID":296585},"geometry":{"x":171916.26999999955,"y":2542249.0100000016}},{"attributes":{"ID":296594,"DIS_CODE":0,"TOWNNAME":"南區","LI":"竹溪里","LIN":"6鄰","STREET":"體育路","SECT":" ","MAREA":" ","LANE":"２１巷","ALLEY":" ","HOUSE_NO":"２０號二樓","E_COORD97":168795.03,"N_COORD97":2542331.3199999998,"ADDRESS":"體育路２１巷２０號二樓","OBJECTID":296586},"geometry":{"x":168795.03000000119,"y":2542331.3200000022}},{"attributes":{"ID":296595,"DIS_CODE":0,"TOWNNAME":"南區","LI":"竹溪里","LIN":"6鄰","STREET":"體育路","SECT":" ","MAREA":" ","LANE":"２１巷","ALLEY":" ","HOUSE_NO":"２０號三樓","E_COORD97":168795.03,"N_COORD97":2542331.3199999998,"ADDRESS":"體育路２１巷２０號三樓","OBJECTID":296587},"geometry":{"x":168795.03000000119,"y":2542331.3200000022}},{"attributes":{"ID":296596,"DIS_CODE":0,"TOWNNAME":"南區","LI":"竹溪里","LIN":"6鄰","STREET":"體育路","SECT":" ","MAREA":" ","LANE":"２１巷","ALLEY":" ","HOUSE_NO":"２０號四樓","E_COORD97":168795.03,"N_COORD97":2542331.3199999998,"ADDRESS":"體育路２１巷２０號四樓","OBJECTID":296588},"geometry":{"x":168795.03000000119,"y":2542331.3200000022}},{"attributes":{"ID":296597,"DIS_CODE":0,"TOWNNAME":"南區","LI":"竹溪里","LIN":"4鄰","STREET":"健康路","SECT":"一段","MAREA":" ","LANE":"１３３巷","ALLEY":" ","HOUSE_NO":"５６號二樓","E_COORD97":168866.42999999999,"N_COORD97":2542221.9100000001,"ADDRESS":"健康路一段１３３巷５６號二樓","OBJECTID":296589},"geometry":{"x":168866.43000000063,"y":2542221.910000002}},{"attributes":{"ID":296598,"DIS_CODE":0,"TOWNNAME":"南區","LI":"竹溪里","LIN":"4鄰","STREET":"健康路","SECT":"一段","MAREA":" ","LANE":"１３３巷","ALLEY":" ","HOUSE_NO":"５６號三樓","E_COORD97":168866.42999999999,"N_COORD97":2542221.9100000001,"ADDRESS":"健康路一段１３３巷５６號三樓","OBJECTID":296590},"geometry":{"x":168866.43000000063,"y":2542221.910000002}},{"attributes":{"ID":296599,"DIS_CODE":0,"TOWNNAME":"南區","LI":"竹溪里","LIN":"4鄰","STREET":"健康路","SECT":"一段","MAREA":" ","LANE":"１３３巷","ALLEY":" ","HOUSE_NO":"５６號四樓","E_COORD97":168866.42999999999,"N_COORD97":2542221.9100000001,"ADDRESS":"健康路一段１３３巷５６號四樓","OBJECTID":296591},"geometry":{"x":168866.43000000063,"y":2542221.910000002}},{"attributes":{"ID":296600,"DIS_CODE":0,"TOWNNAME":"南區","LI":"竹溪里","LIN":"4鄰","STREET":"健康路","SECT":"一段","MAREA":" ","LANE":"１３３巷","ALLEY":" ","HOUSE_NO":"５６號五樓","E_COORD97":168866.42999999999,"N_COORD97":2542221.9100000001,"ADDRESS":"健康路一段１３３巷５６號五樓","OBJECTID":296592},"geometry":{"x":168866.43000000063,"y":2542221.910000002}},{"attributes":{"ID":296601,"DIS_CODE":0,"TOWNNAME":"南區","LI":"竹溪里","LIN":"4鄰","STREET":"健康路","SECT":"一段","MAREA":" ","LANE":"１３３巷","ALLEY":" ","HOUSE_NO":"５８號二樓","E_COORD97":168868.04999999999,"N_COORD97":2542225.6899999999,"ADDRESS":"健康路一段１３３巷５８號二樓","OBJECTID":296593},"geometry":{"x":168868.04999999981,"y":2542225.6900000032}},{"attributes":{"ID":296602,"DIS_CODE":0,"TOWNNAME":"南區","LI":"竹溪里","LIN":"4鄰","STREET":"健康路","SECT":"一段","MAREA":" ","LANE":"１３３巷","ALLEY":" ","HOUSE_NO":"５８號三樓","E_COORD97":168868.04999999999,"N_COORD97":2542225.6899999999,"ADDRESS":"健康路一段１３３巷５８號三樓","OBJECTID":296594},"geometry":{"x":168868.04999999981,"y":2542225.6900000032}},{"attributes":{"ID":296603,"DIS_CODE":0,"TOWNNAME":"南區","LI":"竹溪里","LIN":"4鄰","STREET":"健康路","SECT":"一段","MAREA":" ","LANE":"１３３巷","ALLEY":" ","HOUSE_NO":"５８號四樓","E_COORD97":168868.04999999999,"N_COORD97":2542225.6899999999,"ADDRESS":"健康路一段１３３巷５８號四樓","OBJECTID":296595},"geometry":{"x":168868.04999999981,"y":2542225.6900000032}},{"attributes":{"ID":296604,"DIS_CODE":0,"TOWNNAME":"中西區","LI":"民生里","LIN":"17鄰","STREET":"保安路","SECT":" ","MAREA":" ","LANE":"１７９巷","ALLEY":" ","HOUSE_NO":"１號","E_COORD97":167196.23000000001,"N_COORD97":2543519.3900000001,"ADDRESS":"保安路１７９巷１號","OBJECTID":296596},"geometry":{"x":167196.23000000045,"y":2543519.3900000006}},{"attributes":{"ID":296605,"DIS_CODE":0,"TOWNNAME":"歸仁區","LI":"南興里","LIN":"3鄰","STREET":"文化十二街","SECT":" ","MAREA":" ","LANE":"７１巷","ALLEY":" ","HOUSE_NO":"２０號","E_COORD97":176434.44,"N_COORD97":2541347.3300000001,"ADDRESS":"文化十二街７１巷２０號","OBJECTID":296597},"geometry":{"x":176434.44000000134,"y":2541347.3300000038}},{"attributes":{"ID":296606,"DIS_CODE":0,"TOWNNAME":"安南區","LI":"新順里","LIN":"14鄰","STREET":"永安路","SECT":" ","MAREA":" ","LANE":" ","ALLEY":" ","HOUSE_NO":"２６號","E_COORD97":169984.63,"N_COORD97":2549518.54,"ADDRESS":"永安路２６號","OBJECTID":296598},"geometry":{"x":169984.62999999989,"y":2549518.5399999991}},{"attributes":{"ID":296607,"DIS_CODE":0,"TOWNNAME":"安南區","LI":"新順里","LIN":"14鄰","STREET":"永安路","SECT":" ","MAREA":" ","LANE":" ","ALLEY":" ","HOUSE_NO":"４２號","E_COORD97":170015.45000000001,"N_COORD97":2549516.98,"ADDRESS":"永安路４２號","OBJECTID":296599},"geometry":{"x":170015.45000000019,"y":2549516.9800000004}},{"attributes":{"ID":296608,"DIS_CODE":0,"TOWNNAME":"新化區","LI":"太平里","LIN":"14鄰","STREET":"太平街","SECT":" ","MAREA":" ","LANE":" ","ALLEY":" ","HOUSE_NO":"５０號","E_COORD97":178812.47,"N_COORD97":2548814.25,"ADDRESS":"太平街５０號","OBJECTID":296600},"geometry":{"x":178812.46999999974,"y":2548814.2500000019}}]}