{"displayFieldName":"TOWNNAME","fieldAliases":{"ID":"ID","DIS_CODE":"DIS_CODE","TOWNNAME":"TOWNNAME","LI":"LI","LIN":"LIN","STREET":"STREET","SECT":"SECT","MAREA":"MAREA","LANE":"LANE","ALLEY":"ALLEY","HOUSE_NO":"HOUSE_NO","E_COORD97":"E_COORD97","N_COORD97":"N_COORD97","ADDRESS":"ADDRESS","OBJECTID":"OBJECTID"},"geometryType":"esriGeometryPoint","spatialReference":{"wkid":102443,"latestWkid":3826},"fields":[{"name":"ID","type":"esriFieldTypeDouble","alias":"ID"},{"name":"DIS_CODE","type":"esriFieldTypeInteger","alias":"DIS_CODE"},{"name":"TOWNNAME","type":"esriFieldTypeString","alias":"TOWNNAME","length":8},{"name":"LI","type":"esriFieldTypeString","alias":"LI","length":8},{"name":"LIN","type":"esriFieldTypeString","alias":"LIN","length":12},{"name":"STREET","type":"esriFieldTypeString","alias":"STREET","length":20},{"name":"SECT","type":"esriFieldTypeString","alias":"SECT","length":8},{"name":"MAREA","type":"esriFieldTypeString","alias":"MAREA","length":12},{"name":"LANE","type":"esriFieldTypeString","alias":"LANE","length":10},{"name":"ALLEY","type":"esriFieldTypeString","alias":"ALLEY","length":10},{"name":"HOUSE_NO","type":"esriFieldTypeString","alias":"HOUSE_NO","length":20},{"name":"E_COORD97","type":"esriFieldTypeDouble","alias":"E_COORD97"},{"name":"N_COORD97","type":"esriFieldTypeDouble","alias":"N_COORD97"},{"name":"ADDRESS","type":"esriFieldTypeString","alias":"ADDRESS","length":50},{"name":"OBJECTID","type":"esriFieldTypeOID","alias":"OBJECTID"}],"features":[{"attributes":{"ID":292609,"DIS_CODE":0,"TOWNNAME":"安平區","LI":"育平里","LIN":"8鄰","STREET":"育平五街","SECT":" ","MAREA":" ","LANE":" ","ALLEY":" ","HOUSE_NO":"７０號二十二樓之５","E_COORD97":164650.70000000001,"N_COORD97":2543539.8100000001,"ADDRESS":"育平五街７０號二十二樓之５","OBJECTID":292601},"geometry":{"x":164650.70000000112,"y":2543539.8100000005}},{"attributes":{"ID":292610,"DIS_CODE":0,"TOWNNAME":"安平區","LI":"育平里","LIN":"8鄰","STREET":"育平五街","SECT":" ","MAREA":" ","LANE":" ","ALLEY":" ","HOUSE_NO":"７０號二十二樓之６","E_COORD97":164650.70000000001,"N_COORD97":2543539.8100000001,"ADDRESS":"育平五街７０號二十二樓之６","OBJECTID":292602},"geometry":{"x":164650.70000000112,"y":2543539.8100000005}},{"attributes":{"ID":292611,"DIS_CODE":0,"TOWNNAME":"安平區","LI":"育平里","LIN":"8鄰","STREET":"育平五街","SECT":" ","MAREA":" ","LANE":" ","ALLEY":" ","HOUSE_NO":"７０號二十三樓之４","E_COORD97":164650.70000000001,"N_COORD97":2543539.8100000001,"ADDRESS":"育平五街７０號二十三樓之４","OBJECTID":292603},"geometry":{"x":164650.70000000112,"y":2543539.8100000005}},{"attributes":{"ID":292612,"DIS_CODE":0,"TOWNNAME":"安平區","LI":"育平里","LIN":"8鄰","STREET":"育平五街","SECT":" ","MAREA":" ","LANE":" ","ALLEY":" ","HOUSE_NO":"７０號二十三樓之５","E_COORD97":164650.70000000001,"N_COORD97":2543539.8100000001,"ADDRESS":"育平五街７０號二十三樓之５","OBJECTID":292604},"geometry":{"x":164650.70000000112,"y":2543539.8100000005}},{"attributes":{"ID":292613,"DIS_CODE":0,"TOWNNAME":"安平區","LI":"育平里","LIN":"8鄰","STREET":"育平五街","SECT":" ","MAREA":" ","LANE":" ","ALLEY":" ","HOUSE_NO":"７０號二十三樓之６","E_COORD97":164650.70000000001,"N_COORD97":2543539.8100000001,"ADDRESS":"育平五街７０號二十三樓之６","OBJECTID":292605},"geometry":{"x":164650.70000000112,"y":2543539.8100000005}},{"attributes":{"ID":292614,"DIS_CODE":0,"TOWNNAME":"安平區","LI":"育平里","LIN":"8鄰","STREET":"育平五街","SECT":" ","MAREA":" ","LANE":" ","ALLEY":" ","HOUSE_NO":"７０號二十五樓之４","E_COORD97":164650.70000000001,"N_COORD97":2543539.8100000001,"ADDRESS":"育平五街７０號二十五樓之４","OBJECTID":292606},"geometry":{"x":164650.70000000112,"y":2543539.8100000005}},{"attributes":{"ID":292615,"DIS_CODE":0,"TOWNNAME":"安平區","LI":"育平里","LIN":"8鄰","STREET":"育平五街","SECT":" ","MAREA":" ","LANE":" ","ALLEY":" ","HOUSE_NO":"７０號二十五樓之５","E_COORD97":164650.70000000001,"N_COORD97":2543539.8100000001,"ADDRESS":"育平五街７０號二十五樓之５","OBJECTID":292607},"geometry":{"x":164650.70000000112,"y":2543539.8100000005}},{"attributes":{"ID":292616,"DIS_CODE":0,"TOWNNAME":"安平區","LI":"育平里","LIN":"8鄰","STREET":"育平五街","SECT":" ","MAREA":" ","LANE":" ","ALLEY":" ","HOUSE_NO":"７０號二十五樓之６","E_COORD97":164650.70000000001,"N_COORD97":2543539.8100000001,"ADDRESS":"育平五街７０號二十五樓之６","OBJECTID":292608},"geometry":{"x":164650.70000000112,"y":2543539.8100000005}},{"attributes":{"ID":292617,"DIS_CODE":0,"TOWNNAME":"安平區","LI":"育平里","LIN":"8鄰","STREET":"育平五街","SECT":" ","MAREA":" ","LANE":" ","ALLEY":" ","HOUSE_NO":"７０號二十六樓之４","E_COORD97":164650.70000000001,"N_COORD97":2543539.8100000001,"ADDRESS":"育平五街７０號二十六樓之４","OBJECTID":292609},"geometry":{"x":164650.70000000112,"y":2543539.8100000005}},{"attributes":{"ID":292618,"DIS_CODE":0,"TOWNNAME":"東區","LI":"東明里","LIN":"6鄰","STREET":"怡東路","SECT":" ","MAREA":" ","LANE":"７２巷","ALLEY":" ","HOUSE_NO":"１５號","E_COORD97":170926.88,"N_COORD97":2543646.73,"ADDRESS":"怡東路７２巷１５號","OBJECTID":292610},"geometry":{"x":170926.88000000082,"y":2543646.7300000042}},{"attributes":{"ID":292619,"DIS_CODE":0,"TOWNNAME":"麻豆區","LI":"小埤里","LIN":"4鄰","STREET":" ","SECT":" ","MAREA":"小埤頭","LANE":" ","ALLEY":" ","HOUSE_NO":"１０號之２","E_COORD97":171275.67000000001,"N_COORD97":2566072.6800000002,"ADDRESS":"小埤頭１０號之２","OBJECTID":292611},"geometry":{"x":171275.67000000086,"y":2566072.6799999997}},{"attributes":{"ID":292620,"DIS_CODE":0,"TOWNNAME":"麻豆區","LI":"小埤里","LIN":"4鄰","STREET":" ","SECT":" ","MAREA":"小埤頭","LANE":" ","ALLEY":" ","HOUSE_NO":"１０號之３","E_COORD97":171274.57999999999,"N_COORD97":2566077.0099999998,"ADDRESS":"小埤頭１０號之３","OBJECTID":292612},"geometry":{"x":171274.58000000101,"y":2566077.0099999998}},{"attributes":{"ID":292621,"DIS_CODE":0,"TOWNNAME":"東區","LI":"崇德里","LIN":"20鄰","STREET":"崇明十四街","SECT":" ","MAREA":" ","LANE":"６０巷","ALLEY":" ","HOUSE_NO":"１號","E_COORD97":170674.45999999999,"N_COORD97":2541633.6400000001,"ADDRESS":"崇明十四街６０巷１號","OBJECTID":292613},"geometry":{"x":170674.45999999996,"y":2541633.6400000043}},{"attributes":{"ID":292622,"DIS_CODE":0,"TOWNNAME":"東區","LI":"崇德里","LIN":"20鄰","STREET":"崇明十四街","SECT":" ","MAREA":" ","LANE":"６０巷","ALLEY":" ","HOUSE_NO":"４５號","E_COORD97":170745.07999999999,"N_COORD97":2541624.8199999998,"ADDRESS":"崇明十四街６０巷４５號","OBJECTID":292614},"geometry":{"x":170745.08000000007,"y":2541624.8200000003}},{"attributes":{"ID":292623,"DIS_CODE":0,"TOWNNAME":"東區","LI":"崇德里","LIN":"17鄰","STREET":"崇明十三街","SECT":" ","MAREA":" ","LANE":"１０巷","ALLEY":" ","HOUSE_NO":"１０號","E_COORD97":170500,"N_COORD97":2541552.6299999999,"ADDRESS":"崇明十三街１０巷１０號","OBJECTID":292615},"geometry":{"x":170499.99999999907,"y":2541552.629999999}},{"attributes":{"ID":292624,"DIS_CODE":0,"TOWNNAME":"東區","LI":"崇德里","LIN":"17鄰","STREET":"崇明十三街","SECT":" ","MAREA":" ","LANE":"１０巷","ALLEY":" ","HOUSE_NO":"１２號","E_COORD97":170503.10000000001,"N_COORD97":2541549.9900000002,"ADDRESS":"崇明十三街１０巷１２號","OBJECTID":292616},"geometry":{"x":170503.10000000056,"y":2541549.9900000021}},{"attributes":{"ID":292625,"DIS_CODE":0,"TOWNNAME":"新營區","LI":"新東里","LIN":"17鄰","STREET":"東興四街","SECT":" ","MAREA":" ","LANE":"３２巷","ALLEY":" ","HOUSE_NO":"２１號","E_COORD97":180904.57000000001,"N_COORD97":2579110.0099999998,"ADDRESS":"東興四街３２巷２１號","OBJECTID":292617},"geometry":{"x":180904.5700000003,"y":2579110.0099999998}},{"attributes":{"ID":292626,"DIS_CODE":0,"TOWNNAME":"安平區","LI":"育平里","LIN":"8鄰","STREET":"育平五街","SECT":" ","MAREA":" ","LANE":" ","ALLEY":" ","HOUSE_NO":"７０號二十六樓之５","E_COORD97":164650.70000000001,"N_COORD97":2543539.8100000001,"ADDRESS":"育平五街７０號二十六樓之５","OBJECTID":292618},"geometry":{"x":164650.70000000112,"y":2543539.8100000005}},{"attributes":{"ID":292627,"DIS_CODE":0,"TOWNNAME":"安平區","LI":"育平里","LIN":"8鄰","STREET":"育平五街","SECT":" ","MAREA":" ","LANE":" ","ALLEY":" ","HOUSE_NO":"７０號二十六樓之６","E_COORD97":164650.70000000001,"N_COORD97":2543539.8100000001,"ADDRESS":"育平五街７０號二十六樓之６","OBJECTID":292619},"geometry":{"x":164650.70000000112,"y":2543539.8100000005}},{"attributes":{"ID":292628,"DIS_CODE":0,"TOWNNAME":"安平區","LI":"育平里","LIN":"8鄰","STREET":"育平五街","SECT":" ","MAREA":" ","LANE":" ","ALLEY":" ","HOUSE_NO":"７０號二十四樓之４","E_COORD97":164650.70000000001,"N_COORD97":2543539.8100000001,"ADDRESS":"育平五街７０號二十四樓之４","OBJECTID":292620},"geometry":{"x":164650.70000000112,"y":2543539.8100000005}},{"attributes":{"ID":292629,"DIS_CODE":0,"TOWNNAME":"安平區","LI":"育平里","LIN":"8鄰","STREET":"育平五街","SECT":" ","MAREA":" ","LANE":" ","ALLEY":" ","HOUSE_NO":"７０號二十四樓之５","E_COORD97":164650.70000000001,"N_COORD97":2543539.8100000001,"ADDRESS":"育平五街７０號二十四樓之５","OBJECTID":292621},"geometry":{"x":164650.70000000112,"y":2543539.8100000005}},{"attributes":{"ID":292630,"DIS_CODE":0,"TOWNNAME":"麻豆區","LI":"小埤里","LIN":"4鄰","STREET":" ","SECT":" ","MAREA":"小埤頭","LANE":" ","ALLEY":" ","HOUSE_NO":"１０號之４","E_COORD97":171283.03,"N_COORD97":2566061.3999999999,"ADDRESS":"小埤頭１０號之４","OBJECTID":292622},"geometry":{"x":171283.03000000026,"y":2566061.4000000004}},{"attributes":{"ID":292631,"DIS_CODE":0,"TOWNNAME":"麻豆區","LI":"小埤里","LIN":"4鄰","STREET":" ","SECT":" ","MAREA":"小埤頭","LANE":" ","ALLEY":" ","HOUSE_NO":"１０號之５","E_COORD97":171281.66,"N_COORD97":2566067.1699999999,"ADDRESS":"小埤頭１０號之５","OBJECTID":292623},"geometry":{"x":171281.66000000015,"y":2566067.1700000037}},{"attributes":{"ID":292632,"DIS_CODE":0,"TOWNNAME":"麻豆區","LI":"小埤里","LIN":"4鄰","STREET":" ","SECT":" ","MAREA":"小埤頭","LANE":" ","ALLEY":" ","HOUSE_NO":"１０號","E_COORD97":171352.94,"N_COORD97":2566000.79,"ADDRESS":"小埤頭１０號","OBJECTID":292624},"geometry":{"x":171352.94000000041,"y":2566000.7899999991}},{"attributes":{"ID":292633,"DIS_CODE":0,"TOWNNAME":"麻豆區","LI":"小埤里","LIN":"4鄰","STREET":" ","SECT":" ","MAREA":"小埤頭","LANE":" ","ALLEY":" ","HOUSE_NO":"１５號之１１","E_COORD97":171363.20999999999,"N_COORD97":2566026.0499999998,"ADDRESS":"小埤頭１５號之１１","OBJECTID":292625},"geometry":{"x":171363.21000000183,"y":2566026.0500000026}},{"attributes":{"ID":292634,"DIS_CODE":0,"TOWNNAME":"麻豆區","LI":"小埤里","LIN":"4鄰","STREET":" ","SECT":" ","MAREA":"小埤頭","LANE":" ","ALLEY":" ","HOUSE_NO":"１５號之２","E_COORD97":171315.92999999999,"N_COORD97":2566030.0600000001,"ADDRESS":"小埤頭１５號之２","OBJECTID":292626},"geometry":{"x":171315.93000000063,"y":2566030.0600000005}},{"attributes":{"ID":292635,"DIS_CODE":0,"TOWNNAME":"麻豆區","LI":"大埕里","LIN":"9鄰","STREET":" ","SECT":" ","MAREA":"大埕","LANE":" ","ALLEY":" ","HOUSE_NO":"８４號之１","E_COORD97":173160.63,"N_COORD97":2565404.96,"ADDRESS":"大埕８４號之１","OBJECTID":292627},"geometry":{"x":173160.63000000175,"y":2565404.959999999}},{"attributes":{"ID":292636,"DIS_CODE":0,"TOWNNAME":"麻豆區","LI":"小埤里","LIN":"3鄰","STREET":" ","SECT":" ","MAREA":"小埤頭","LANE":" ","ALLEY":" ","HOUSE_NO":"２號之１０","E_COORD97":171339.23000000001,"N_COORD97":2565820.0699999998,"ADDRESS":"小埤頭２號之１０","OBJECTID":292628},"geometry":{"x":171339.23000000045,"y":2565820.0700000003}},{"attributes":{"ID":292637,"DIS_CODE":0,"TOWNNAME":"麻豆區","LI":"小埤里","LIN":"3鄰","STREET":" ","SECT":" ","MAREA":"小埤頭","LANE":" ","ALLEY":" ","HOUSE_NO":"２號之１１","E_COORD97":171334.82000000001,"N_COORD97":2565819.6299999999,"ADDRESS":"小埤頭２號之１１","OBJECTID":292629},"geometry":{"x":171334.82000000123,"y":2565819.6300000008}},{"attributes":{"ID":292638,"DIS_CODE":0,"TOWNNAME":"麻豆區","LI":"小埤里","LIN":"3鄰","STREET":" ","SECT":" ","MAREA":"小埤頭","LANE":" ","ALLEY":" ","HOUSE_NO":"２號之１２","E_COORD97":171330.42000000001,"N_COORD97":2565819.2000000002,"ADDRESS":"小埤頭２號之１２","OBJECTID":292630},"geometry":{"x":171330.41999999993,"y":2565819.2000000011}},{"attributes":{"ID":292639,"DIS_CODE":0,"TOWNNAME":"麻豆區","LI":"小埤里","LIN":"3鄰","STREET":" ","SECT":" ","MAREA":"小埤頭","LANE":" ","ALLEY":" ","HOUSE_NO":"２號之１３","E_COORD97":171326.01000000001,"N_COORD97":2565818.7599999998,"ADDRESS":"小埤頭２號之１３","OBJECTID":292631},"geometry":{"x":171326.01000000071,"y":2565818.7599999979}},{"attributes":{"ID":292640,"DIS_CODE":0,"TOWNNAME":"麻豆區","LI":"小埤里","LIN":"3鄰","STREET":" ","SECT":" ","MAREA":"小埤頭","LANE":" ","ALLEY":" ","HOUSE_NO":"２號之１４","E_COORD97":171321.60999999999,"N_COORD97":2565818.3199999998,"ADDRESS":"小埤頭２號之１４","OBJECTID":292632},"geometry":{"x":171321.61000000034,"y":2565818.3200000003}},{"attributes":{"ID":292641,"DIS_CODE":0,"TOWNNAME":"麻豆區","LI":"小埤里","LIN":"3鄰","STREET":" ","SECT":" ","MAREA":"小埤頭","LANE":" ","ALLEY":" ","HOUSE_NO":"２號之１５","E_COORD97":171342.35999999999,"N_COORD97":2565796.8999999999,"ADDRESS":"小埤頭２號之１５","OBJECTID":292633},"geometry":{"x":171342.3600000022,"y":2565796.9000000004}},{"attributes":{"ID":292642,"DIS_CODE":0,"TOWNNAME":"麻豆區","LI":"小埤里","LIN":"3鄰","STREET":" ","SECT":" ","MAREA":"小埤頭","LANE":" ","ALLEY":" ","HOUSE_NO":"２號之１６","E_COORD97":171338.07000000001,"N_COORD97":2565796.4700000002,"ADDRESS":"小埤頭２號之１６","OBJECTID":292634},"geometry":{"x":171338.07000000123,"y":2565796.4700000025}},{"attributes":{"ID":292643,"DIS_CODE":0,"TOWNNAME":"麻豆區","LI":"小埤里","LIN":"3鄰","STREET":" ","SECT":" ","MAREA":"小埤頭","LANE":" ","ALLEY":" ","HOUSE_NO":"２號之１７","E_COORD97":171333.76999999999,"N_COORD97":2565796.0499999998,"ADDRESS":"小埤頭２號之１７","OBJECTID":292635},"geometry":{"x":171333.77000000048,"y":2565796.0500000007}},{"attributes":{"ID":292644,"DIS_CODE":0,"TOWNNAME":"麻豆區","LI":"小埤里","LIN":"3鄰","STREET":" ","SECT":" ","MAREA":"小埤頭","LANE":" ","ALLEY":" ","HOUSE_NO":"２號之１８","E_COORD97":171329.48000000001,"N_COORD97":2565795.6299999999,"ADDRESS":"小埤頭２號之１８","OBJECTID":292636},"geometry":{"x":171329.48000000045,"y":2565795.6300000008}},{"attributes":{"ID":292645,"DIS_CODE":0,"TOWNNAME":"麻豆區","LI":"小埤里","LIN":"3鄰","STREET":" ","SECT":" ","MAREA":"小埤頭","LANE":" ","ALLEY":" ","HOUSE_NO":"２號之１９","E_COORD97":171325.19,"N_COORD97":2565795.21,"ADDRESS":"小埤頭２號之１９","OBJECTID":292637},"geometry":{"x":171325.19000000134,"y":2565795.2100000009}},{"attributes":{"ID":292646,"DIS_CODE":0,"TOWNNAME":"麻豆區","LI":"中興里","LIN":"3鄰","STREET":"中華街","SECT":" ","MAREA":" ","LANE":"３４巷","ALLEY":" ","HOUSE_NO":"１０號","E_COORD97":172889.72,"N_COORD97":2564655.8700000001,"ADDRESS":"中華街３４巷１０號","OBJECTID":292638},"geometry":{"x":172889.71999999974,"y":2564655.870000001}},{"attributes":{"ID":292647,"DIS_CODE":0,"TOWNNAME":"新營區","LI":"南紙里","LIN":"17鄰","STREET":"南紙街","SECT":" ","MAREA":" ","LANE":"１６２巷","ALLEY":" ","HOUSE_NO":"３９號","E_COORD97":177832.39999999999,"N_COORD97":2577292.9399999999,"ADDRESS":"南紙街１６２巷３９號","OBJECTID":292639},"geometry":{"x":177832.40000000037,"y":2577292.9399999995}},{"attributes":{"ID":292648,"DIS_CODE":0,"TOWNNAME":"新營區","LI":"延平里","LIN":"17鄰","STREET":"長春街","SECT":" ","MAREA":" ","LANE":"１３４巷","ALLEY":" ","HOUSE_NO":"３４之１號","E_COORD97":179522.54000000001,"N_COORD97":2577892.8599999999,"ADDRESS":"長春街１３４巷３４之１號","OBJECTID":292640},"geometry":{"x":179522.54000000004,"y":2577892.8599999994}},{"attributes":{"ID":292649,"DIS_CODE":0,"TOWNNAME":"新營區","LI":"民榮里","LIN":"17鄰","STREET":"裕民路","SECT":" ","MAREA":" ","LANE":"５８巷","ALLEY":" ","HOUSE_NO":"１７號","E_COORD97":179083.66,"N_COORD97":2577779.7000000002,"ADDRESS":"裕民路５８巷１７號","OBJECTID":292641},"geometry":{"x":179083.66000000201,"y":2577779.6999999993}},{"attributes":{"ID":292650,"DIS_CODE":0,"TOWNNAME":"新營區","LI":"南興里","LIN":"17鄰","STREET":"興農街","SECT":" ","MAREA":" ","LANE":"１４０巷","ALLEY":" ","HOUSE_NO":"２１之４號","E_COORD97":179168.89999999999,"N_COORD97":2577526.8599999999,"ADDRESS":"興農街１４０巷２１之４號","OBJECTID":292642},"geometry":{"x":179168.9000000013,"y":2577526.8599999994}},{"attributes":{"ID":292651,"DIS_CODE":0,"TOWNNAME":"新營區","LI":"南紙里","LIN":"17鄰","STREET":"南紙街","SECT":" ","MAREA":" ","LANE":"１６２巷","ALLEY":" ","HOUSE_NO":"１７號","E_COORD97":177787.25,"N_COORD97":2577283.1899999999,"ADDRESS":"南紙街１６２巷１７號","OBJECTID":292643},"geometry":{"x":177787.25,"y":2577283.1900000013}},{"attributes":{"ID":292652,"DIS_CODE":0,"TOWNNAME":"新營區","LI":"南紙里","LIN":"17鄰","STREET":"南紙街","SECT":" ","MAREA":" ","LANE":"１６２巷","ALLEY":" ","HOUSE_NO":"３３號","E_COORD97":177819.07999999999,"N_COORD97":2577289.6800000002,"ADDRESS":"南紙街１６２巷３３號","OBJECTID":292644},"geometry":{"x":177819.08000000007,"y":2577289.6800000016}},{"attributes":{"ID":292653,"DIS_CODE":0,"TOWNNAME":"新營區","LI":"忠政里","LIN":"17鄰","STREET":"府西路","SECT":" ","MAREA":" ","LANE":"２５８巷","ALLEY":" ","HOUSE_NO":"２０號","E_COORD97":179877.51000000001,"N_COORD97":2579725.04,"ADDRESS":"府西路２５８巷２０號","OBJECTID":292645},"geometry":{"x":179877.50999999885,"y":2579725.040000001}},{"attributes":{"ID":292654,"DIS_CODE":0,"TOWNNAME":"新營區","LI":"延平里","LIN":"17鄰","STREET":"長春街","SECT":" ","MAREA":" ","LANE":"１３４巷","ALLEY":" ","HOUSE_NO":"２０號","E_COORD97":179532.80664299999,"N_COORD97":2577857.2102800002,"ADDRESS":"長春街１３４巷２０號","OBJECTID":292646},"geometry":{"x":179532.80664299894,"y":2577857.210275}},{"attributes":{"ID":292655,"DIS_CODE":0,"TOWNNAME":"北區","LI":"小康里","LIN":"17鄰","STREET":"大武街","SECT":" ","MAREA":" ","LANE":"４０１巷","ALLEY":" ","HOUSE_NO":"２號","E_COORD97":169766.91,"N_COORD97":2546497.29,"ADDRESS":"大武街４０１巷２號","OBJECTID":292647},"geometry":{"x":169766.91000000201,"y":2546497.290000001}},{"attributes":{"ID":292656,"DIS_CODE":0,"TOWNNAME":"北區","LI":"小康里","LIN":"17鄰","STREET":"公園路","SECT":" ","MAREA":" ","LANE":"１０７４巷","ALLEY":" ","HOUSE_NO":"１９號","E_COORD97":169715.01999999999,"N_COORD97":2546541.6899999999,"ADDRESS":"公園路１０７４巷１９號","OBJECTID":292648},"geometry":{"x":169715.02000000048,"y":2546541.6900000032}},{"attributes":{"ID":292657,"DIS_CODE":0,"TOWNNAME":"北區","LI":"小康里","LIN":"17鄰","STREET":"公園路","SECT":" ","MAREA":" ","LANE":"１０７４巷","ALLEY":" ","HOUSE_NO":"２１號","E_COORD97":169725.81,"N_COORD97":2546544.1000000001,"ADDRESS":"公園路１０７４巷２１號","OBJECTID":292649},"geometry":{"x":169725.80999999959,"y":2546544.0999999996}},{"attributes":{"ID":292658,"DIS_CODE":0,"TOWNNAME":"安平區","LI":"育平里","LIN":"8鄰","STREET":"育平五街","SECT":" ","MAREA":" ","LANE":" ","ALLEY":" ","HOUSE_NO":"７０號二十四樓之６","E_COORD97":164650.70000000001,"N_COORD97":2543539.8100000001,"ADDRESS":"育平五街７０號二十四樓之６","OBJECTID":292650},"geometry":{"x":164650.70000000112,"y":2543539.8100000005}},{"attributes":{"ID":292659,"DIS_CODE":0,"TOWNNAME":"下營區","LI":"茅港里","LIN":"11鄰","STREET":" ","SECT":" ","MAREA":"中營","LANE":" ","ALLEY":" ","HOUSE_NO":"６７９號","E_COORD97":176284.93628699999,"N_COORD97":2568436.5018000002,"ADDRESS":"中營６７９號","OBJECTID":292651},"geometry":{"x":176284.93628700078,"y":2568436.5017980002}},{"attributes":{"ID":292660,"DIS_CODE":0,"TOWNNAME":"北區","LI":"小康里","LIN":"17鄰","STREET":"公園路","SECT":" ","MAREA":" ","LANE":"１０７４巷","ALLEY":" ","HOUSE_NO":"２２號","E_COORD97":169707.34,"N_COORD97":2546525.4399999999,"ADDRESS":"公園路１０７４巷２２號","OBJECTID":292652},"geometry":{"x":169707.33999999985,"y":2546525.4399999995}},{"attributes":{"ID":292661,"DIS_CODE":0,"TOWNNAME":"麻豆區","LI":"安正里","LIN":"4鄰","STREET":" ","SECT":" ","MAREA":"方厝寮","LANE":" ","ALLEY":" ","HOUSE_NO":"１號之１７","E_COORD97":172070.98000000001,"N_COORD97":2562005.5600000001,"ADDRESS":"方厝寮１號之１７","OBJECTID":292653},"geometry":{"x":172070.98000000138,"y":2562005.5600000005}},{"attributes":{"ID":292662,"DIS_CODE":0,"TOWNNAME":"麻豆區","LI":"安正里","LIN":"4鄰","STREET":" ","SECT":" ","MAREA":"方厝寮","LANE":" ","ALLEY":" ","HOUSE_NO":"１號之１","E_COORD97":171876.73999999999,"N_COORD97":2561926.1200000001,"ADDRESS":"方厝寮１號之１","OBJECTID":292654},"geometry":{"x":171876.74000000022,"y":2561926.1200000029}},{"attributes":{"ID":292663,"DIS_CODE":0,"TOWNNAME":"麻豆區","LI":"安正里","LIN":"4鄰","STREET":" ","SECT":" ","MAREA":"方厝寮","LANE":" ","ALLEY":" ","HOUSE_NO":"１號之２４","E_COORD97":172116.44,"N_COORD97":2562019,"ADDRESS":"方厝寮１號之２４","OBJECTID":292655},"geometry":{"x":172116.44000000227,"y":2562019}},{"attributes":{"ID":292664,"DIS_CODE":0,"TOWNNAME":"麻豆區","LI":"安正里","LIN":"4鄰","STREET":" ","SECT":" ","MAREA":"方厝寮","LANE":" ","ALLEY":" ","HOUSE_NO":"１號之２５","E_COORD97":172122.51000000001,"N_COORD97":2562020.9300000002,"ADDRESS":"方厝寮１號之２５","OBJECTID":292656},"geometry":{"x":172122.51000000071,"y":2562020.9300000016}},{"attributes":{"ID":292665,"DIS_CODE":0,"TOWNNAME":"麻豆區","LI":"安正里","LIN":"4鄰","STREET":" ","SECT":" ","MAREA":"方厝寮","LANE":" ","ALLEY":" ","HOUSE_NO":"１號之２","E_COORD97":171872.51000000001,"N_COORD97":2561925.75,"ADDRESS":"方厝寮１號之２","OBJECTID":292657},"geometry":{"x":171872.50999999978,"y":2561925.75}},{"attributes":{"ID":292666,"DIS_CODE":0,"TOWNNAME":"麻豆區","LI":"安正里","LIN":"4鄰","STREET":" ","SECT":" ","MAREA":"方厝寮","LANE":" ","ALLEY":" ","HOUSE_NO":"１號之３","E_COORD97":171868.5,"N_COORD97":2561925.25,"ADDRESS":"方厝寮１號之３","OBJECTID":292658},"geometry":{"x":171868.50000000093,"y":2561925.2500000019}},{"attributes":{"ID":292667,"DIS_CODE":0,"TOWNNAME":"麻豆區","LI":"安正里","LIN":"4鄰","STREET":" ","SECT":" ","MAREA":"方厝寮","LANE":" ","ALLEY":" ","HOUSE_NO":"１號之４","E_COORD97":171864.57999999999,"N_COORD97":2561925.04,"ADDRESS":"方厝寮１號之４","OBJECTID":292659},"geometry":{"x":171864.58000000101,"y":2561925.040000001}},{"attributes":{"ID":292668,"DIS_CODE":0,"TOWNNAME":"麻豆區","LI":"安正里","LIN":"4鄰","STREET":" ","SECT":" ","MAREA":"方厝寮","LANE":" ","ALLEY":" ","HOUSE_NO":"１號之５","E_COORD97":171860.67999999999,"N_COORD97":2561924.6600000001,"ADDRESS":"方厝寮１號之５","OBJECTID":292660},"geometry":{"x":171860.6799999997,"y":2561924.6600000039}},{"attributes":{"ID":292669,"DIS_CODE":0,"TOWNNAME":"麻豆區","LI":"安正里","LIN":"4鄰","STREET":" ","SECT":" ","MAREA":"方厝寮","LANE":" ","ALLEY":" ","HOUSE_NO":"１號之６","E_COORD97":171856.67999999999,"N_COORD97":2561924.4199999999,"ADDRESS":"方厝寮１號之６","OBJECTID":292661},"geometry":{"x":171856.68000000063,"y":2561924.4199999999}},{"attributes":{"ID":292670,"DIS_CODE":0,"TOWNNAME":"麻豆區","LI":"安正里","LIN":"4鄰","STREET":" ","SECT":" ","MAREA":"方厝寮","LANE":" ","ALLEY":" ","HOUSE_NO":"１號之７","E_COORD97":171852.75,"N_COORD97":2561924.1000000001,"ADDRESS":"方厝寮１號之７","OBJECTID":292662},"geometry":{"x":171852.74999999907,"y":2561924.0999999996}},{"attributes":{"ID":292671,"DIS_CODE":0,"TOWNNAME":"麻豆區","LI":"安正里","LIN":"4鄰","STREET":" ","SECT":" ","MAREA":"方厝寮","LANE":" ","ALLEY":" ","HOUSE_NO":"１號之８","E_COORD97":171848.66,"N_COORD97":2561923.73,"ADDRESS":"方厝寮１號之８","OBJECTID":292663},"geometry":{"x":171848.66000000201,"y":2561923.7300000004}},{"attributes":{"ID":292672,"DIS_CODE":0,"TOWNNAME":"麻豆區","LI":"安正里","LIN":"4鄰","STREET":" ","SECT":" ","MAREA":"方厝寮","LANE":" ","ALLEY":" ","HOUSE_NO":"１號之９","E_COORD97":171844.29000000001,"N_COORD97":2561923.21,"ADDRESS":"方厝寮１號之９","OBJECTID":292664},"geometry":{"x":171844.2900000019,"y":2561923.2100000028}},{"attributes":{"ID":292673,"DIS_CODE":0,"TOWNNAME":"北區","LI":"小康里","LIN":"17鄰","STREET":"公園路","SECT":" ","MAREA":" ","LANE":"１０７４巷","ALLEY":" ","HOUSE_NO":"２３號","E_COORD97":169730.17999999999,"N_COORD97":2546542.3700000001,"ADDRESS":"公園路１０７４巷２３號","OBJECTID":292665},"geometry":{"x":169730.1799999997,"y":2546542.3700000029}},{"attributes":{"ID":292674,"DIS_CODE":0,"TOWNNAME":"北區","LI":"小康里","LIN":"17鄰","STREET":"公園路","SECT":" ","MAREA":" ","LANE":"１０７４巷","ALLEY":" ","HOUSE_NO":"２４號","E_COORD97":169712.64000000001,"N_COORD97":2546523.9300000002,"ADDRESS":"公園路１０７４巷２４號","OBJECTID":292666},"geometry":{"x":169712.6400000006,"y":2546523.9300000016}},{"attributes":{"ID":292675,"DIS_CODE":0,"TOWNNAME":"北區","LI":"小康里","LIN":"17鄰","STREET":"公園路","SECT":" ","MAREA":" ","LANE":"１０７４巷","ALLEY":" ","HOUSE_NO":"２５號","E_COORD97":169734.19,"N_COORD97":2546540.77,"ADDRESS":"公園路１０７４巷２５號","OBJECTID":292667},"geometry":{"x":169734.19000000041,"y":2546540.7699999977}},{"attributes":{"ID":292676,"DIS_CODE":0,"TOWNNAME":"麻豆區","LI":"安正里","LIN":"4鄰","STREET":" ","SECT":" ","MAREA":"方厝寮","LANE":" ","ALLEY":" ","HOUSE_NO":"１號","E_COORD97":171895.53,"N_COORD97":2561919.6699999999,"ADDRESS":"方厝寮１號","OBJECTID":292668},"geometry":{"x":171895.53000000119,"y":2561919.6699999999}},{"attributes":{"ID":292677,"DIS_CODE":0,"TOWNNAME":"麻豆區","LI":"安正里","LIN":"4鄰","STREET":" ","SECT":" ","MAREA":"方厝寮","LANE":" ","ALLEY":" ","HOUSE_NO":"２號之１０","E_COORD97":171762.57000000001,"N_COORD97":2561877.5299999998,"ADDRESS":"方厝寮２號之１０","OBJECTID":292669},"geometry":{"x":171762.5700000003,"y":2561877.5300000012}},{"attributes":{"ID":292678,"DIS_CODE":0,"TOWNNAME":"麻豆區","LI":"安正里","LIN":"4鄰","STREET":" ","SECT":" ","MAREA":"方厝寮","LANE":" ","ALLEY":" ","HOUSE_NO":"２號之５","E_COORD97":171708.22,"N_COORD97":2561907.7400000002,"ADDRESS":"方厝寮２號之５","OBJECTID":292670},"geometry":{"x":171708.21999999974,"y":2561907.7400000021}},{"attributes":{"ID":292679,"DIS_CODE":0,"TOWNNAME":"麻豆區","LI":"安正里","LIN":"4鄰","STREET":" ","SECT":" ","MAREA":"方厝寮","LANE":" ","ALLEY":" ","HOUSE_NO":"２號之６","E_COORD97":171566.44,"N_COORD97":2561887.4399999999,"ADDRESS":"方厝寮２號之６","OBJECTID":292671},"geometry":{"x":171566.44000000041,"y":2561887.4399999995}},{"attributes":{"ID":292680,"DIS_CODE":0,"TOWNNAME":"麻豆區","LI":"安正里","LIN":"4鄰","STREET":" ","SECT":" ","MAREA":"方厝寮","LANE":" ","ALLEY":" ","HOUSE_NO":"２號","E_COORD97":171840.25,"N_COORD97":2561923.04,"ADDRESS":"方厝寮２號","OBJECTID":292672},"geometry":{"x":171840.25,"y":2561923.0399999991}},{"attributes":{"ID":292681,"DIS_CODE":0,"TOWNNAME":"麻豆區","LI":"安正里","LIN":"6鄰","STREET":" ","SECT":" ","MAREA":"方厝寮","LANE":" ","ALLEY":" ","HOUSE_NO":"２５號５之１","E_COORD97":171401.47,"N_COORD97":2561718.7799999998,"ADDRESS":"方厝寮２５號５之１","OBJECTID":292673},"geometry":{"x":171401.46999999974,"y":2561718.7799999993}},{"attributes":{"ID":292682,"DIS_CODE":0,"TOWNNAME":"麻豆區","LI":"安正里","LIN":"6鄰","STREET":" ","SECT":" ","MAREA":"方厝寮","LANE":" ","ALLEY":" ","HOUSE_NO":"２２號","E_COORD97":171433.26999999999,"N_COORD97":2561738.9199999999,"ADDRESS":"方厝寮２２號","OBJECTID":292674},"geometry":{"x":171433.26999999955,"y":2561738.9199999999}},{"attributes":{"ID":292683,"DIS_CODE":0,"TOWNNAME":"麻豆區","LI":"安正里","LIN":"4鄰","STREET":" ","SECT":" ","MAREA":"方厝寮","LANE":" ","ALLEY":" ","HOUSE_NO":"３８號之３９","E_COORD97":171045.97,"N_COORD97":2562015.9399999999,"ADDRESS":"方厝寮３８號之３９","OBJECTID":292675},"geometry":{"x":171045.9700000016,"y":2562015.9399999995}},{"attributes":{"ID":292684,"DIS_CODE":0,"TOWNNAME":"麻豆區","LI":"安正里","LIN":"4鄰","STREET":" ","SECT":" ","MAREA":"方厝寮","LANE":" ","ALLEY":" ","HOUSE_NO":"３８號之３","E_COORD97":170966.64000000001,"N_COORD97":2562021.79,"ADDRESS":"方厝寮３８號之３","OBJECTID":292676},"geometry":{"x":170966.64000000153,"y":2562021.790000001}},{"attributes":{"ID":292685,"DIS_CODE":0,"TOWNNAME":"北區","LI":"小康里","LIN":"17鄰","STREET":"公園路","SECT":" ","MAREA":" ","LANE":"１０７４巷","ALLEY":" ","HOUSE_NO":"２７號","E_COORD97":169738.44,"N_COORD97":2546539.2799999998,"ADDRESS":"公園路１０７４巷２７號","OBJECTID":292677},"geometry":{"x":169738.44000000134,"y":2546539.2799999993}},{"attributes":{"ID":292686,"DIS_CODE":0,"TOWNNAME":"關廟區","LI":"新光里","LIN":"10鄰","STREET":"新光街","SECT":" ","MAREA":" ","LANE":" ","ALLEY":" ","HOUSE_NO":"２６２號","E_COORD97":184349.56510800001,"N_COORD97":2541879.5477,"ADDRESS":"新光街２６２號","OBJECTID":292678},"geometry":{"x":184349.56510800123,"y":2541879.5477020014}},{"attributes":{"ID":292687,"DIS_CODE":0,"TOWNNAME":"新市區","LI":"大營里","LIN":"20鄰","STREET":" ","SECT":" ","MAREA":"豐榮","LANE":" ","ALLEY":" ","HOUSE_NO":"４９之３號","E_COORD97":178663.29000000001,"N_COORD97":2554202.0499999998,"ADDRESS":"豐榮４９之３號","OBJECTID":292679},"geometry":{"x":178663.29000000004,"y":2554202.0500000007}},{"attributes":{"ID":292688,"DIS_CODE":0,"TOWNNAME":"新市區","LI":"新和里","LIN":"18鄰","STREET":"銘傳街","SECT":" ","MAREA":" ","LANE":"３０巷","ALLEY":" ","HOUSE_NO":"２號","E_COORD97":177504.45000000001,"N_COORD97":2552682.25,"ADDRESS":"銘傳街３０巷２號","OBJECTID":292680},"geometry":{"x":177504.45000000019,"y":2552682.2500000019}},{"attributes":{"ID":292689,"DIS_CODE":0,"TOWNNAME":"新市區","LI":"新和里","LIN":"18鄰","STREET":"銘傳街","SECT":" ","MAREA":" ","LANE":"３０巷","ALLEY":" ","HOUSE_NO":"７號","E_COORD97":177498.89999999999,"N_COORD97":2552705.75,"ADDRESS":"銘傳街３０巷７號","OBJECTID":292681},"geometry":{"x":177498.90000000224,"y":2552705.7500000019}},{"attributes":{"ID":292690,"DIS_CODE":0,"TOWNNAME":"新市區","LI":"大營里","LIN":"20鄰","STREET":" ","SECT":" ","MAREA":"豐榮","LANE":" ","ALLEY":" ","HOUSE_NO":"４８之１號","E_COORD97":178659.79000000001,"N_COORD97":2554257.5499999998,"ADDRESS":"豐榮４８之１號","OBJECTID":292682},"geometry":{"x":178659.79000000004,"y":2554257.5500000026}},{"attributes":{"ID":292691,"DIS_CODE":0,"TOWNNAME":"新市區","LI":"大營里","LIN":"24鄰","STREET":" ","SECT":" ","MAREA":"大營","LANE":" ","ALLEY":" ","HOUSE_NO":"１３１之５２號","E_COORD97":179211.85000000001,"N_COORD97":2554747.2999999998,"ADDRESS":"大營１３１之５２號","OBJECTID":292683},"geometry":{"x":179211.84999999963,"y":2554747.3000000026}},{"attributes":{"ID":292692,"DIS_CODE":0,"TOWNNAME":"新市區","LI":"大洲里","LIN":"7鄰","STREET":" ","SECT":" ","MAREA":"大洲","LANE":" ","ALLEY":" ","HOUSE_NO":"６４之１號","E_COORD97":174015.42000000001,"N_COORD97":2552193.0499999998,"ADDRESS":"大洲６４之１號","OBJECTID":292684},"geometry":{"x":174015.42000000086,"y":2552193.0500000026}},{"attributes":{"ID":292693,"DIS_CODE":0,"TOWNNAME":"新市區","LI":"大營里","LIN":"5鄰","STREET":" ","SECT":" ","MAREA":"大營","LANE":" ","ALLEY":" ","HOUSE_NO":"７３號","E_COORD97":179544.98000000001,"N_COORD97":2555527,"ADDRESS":"大營７３號","OBJECTID":292685},"geometry":{"x":179544.98000000138,"y":2555527}},{"attributes":{"ID":292694,"DIS_CODE":0,"TOWNNAME":"北區","LI":"小康里","LIN":"17鄰","STREET":"公園路","SECT":" ","MAREA":" ","LANE":"１０７４巷","ALLEY":" ","HOUSE_NO":"２９號","E_COORD97":169743.60999999999,"N_COORD97":2546538.02,"ADDRESS":"公園路１０７４巷２９號","OBJECTID":292686},"geometry":{"x":169743.6100000022,"y":2546538.0199999996}},{"attributes":{"ID":292695,"DIS_CODE":0,"TOWNNAME":"新市區","LI":"大社里","LIN":"14鄰","STREET":" ","SECT":" ","MAREA":"大社","LANE":" ","ALLEY":" ","HOUSE_NO":"５３０號之６","E_COORD97":179852.28,"N_COORD97":2554754.7999999998,"ADDRESS":"大社５３０號之６","OBJECTID":292687},"geometry":{"x":179852.28000000026,"y":2554754.8000000026}},{"attributes":{"ID":292696,"DIS_CODE":0,"TOWNNAME":"新市區","LI":"社內里","LIN":"4鄰","STREET":" ","SECT":" ","MAREA":"社內","LANE":" ","ALLEY":" ","HOUSE_NO":"５０之６０號","E_COORD97":176718.92000000001,"N_COORD97":2552030.7999999998,"ADDRESS":"社內５０之６０號","OBJECTID":292688},"geometry":{"x":176718.92000000086,"y":2552030.8000000007}},{"attributes":{"ID":292697,"DIS_CODE":0,"TOWNNAME":"新市區","LI":"社內里","LIN":"4鄰","STREET":" ","SECT":" ","MAREA":"社內","LANE":" ","ALLEY":" ","HOUSE_NO":"５０之１２６號","E_COORD97":176360.29000000001,"N_COORD97":2551663.5499999998,"ADDRESS":"社內５０之１２６號","OBJECTID":292689},"geometry":{"x":176360.29000000097,"y":2551663.5500000026}},{"attributes":{"ID":292698,"DIS_CODE":0,"TOWNNAME":"北區","LI":"小康里","LIN":"17鄰","STREET":"公園路","SECT":" ","MAREA":" ","LANE":"１０７４巷","ALLEY":" ","HOUSE_NO":"３１號","E_COORD97":169752.67000000001,"N_COORD97":2546536.29,"ADDRESS":"公園路１０７４巷３１號","OBJECTID":292690},"geometry":{"x":169752.66999999993,"y":2546536.2899999991}},{"attributes":{"ID":292699,"DIS_CODE":0,"TOWNNAME":"新市區","LI":"社內里","LIN":"20鄰","STREET":" ","SECT":" ","MAREA":"社內","LANE":" ","ALLEY":" ","HOUSE_NO":"２０７之８號","E_COORD97":175825.01000000001,"N_COORD97":2552992.7999999998,"ADDRESS":"社內２０７之８號","OBJECTID":292691},"geometry":{"x":175825.01000000071,"y":2552992.8000000007}},{"attributes":{"ID":292700,"DIS_CODE":0,"TOWNNAME":"新市區","LI":"社內里","LIN":"1鄰","STREET":" ","SECT":" ","MAREA":"社內","LANE":" ","ALLEY":" ","HOUSE_NO":"８號","E_COORD97":176899.64000000001,"N_COORD97":2553039.75,"ADDRESS":"社內８號","OBJECTID":292692},"geometry":{"x":176899.63999999966,"y":2553039.75}},{"attributes":{"ID":292701,"DIS_CODE":0,"TOWNNAME":"新市區","LI":"大營里","LIN":"20鄰","STREET":" ","SECT":" ","MAREA":"豐榮","LANE":" ","ALLEY":" ","HOUSE_NO":"５１號","E_COORD97":178716.45000000001,"N_COORD97":2554217.5,"ADDRESS":"豐榮５１號","OBJECTID":292693},"geometry":{"x":178716.45000000019,"y":2554217.5}},{"attributes":{"ID":292702,"DIS_CODE":0,"TOWNNAME":"安平區","LI":"育平里","LIN":"8鄰","STREET":"育平五街","SECT":" ","MAREA":" ","LANE":" ","ALLEY":" ","HOUSE_NO":"７０號二十樓之４","E_COORD97":164650.70000000001,"N_COORD97":2543539.8100000001,"ADDRESS":"育平五街７０號二十樓之４","OBJECTID":292694},"geometry":{"x":164650.70000000112,"y":2543539.8100000005}},{"attributes":{"ID":292703,"DIS_CODE":0,"TOWNNAME":"安平區","LI":"育平里","LIN":"8鄰","STREET":"育平五街","SECT":" ","MAREA":" ","LANE":" ","ALLEY":" ","HOUSE_NO":"７０號二十樓之５","E_COORD97":164650.70000000001,"N_COORD97":2543539.8100000001,"ADDRESS":"育平五街７０號二十樓之５","OBJECTID":292695},"geometry":{"x":164650.70000000112,"y":2543539.8100000005}},{"attributes":{"ID":292704,"DIS_CODE":0,"TOWNNAME":"新市區","LI":"港墘里","LIN":"4鄰","STREET":"三民街","SECT":" ","MAREA":" ","LANE":"１１２巷","ALLEY":" ","HOUSE_NO":"８號","E_COORD97":178347.79000000001,"N_COORD97":2553521.29,"ADDRESS":"三民街１１２巷８號","OBJECTID":292696},"geometry":{"x":178347.79000000004,"y":2553521.2900000028}},{"attributes":{"ID":292705,"DIS_CODE":0,"TOWNNAME":"安定區","LI":"新吉里","LIN":"18鄰","STREET":" ","SECT":" ","MAREA":"新吉","LANE":" ","ALLEY":" ","HOUSE_NO":"２４９之８號","E_COORD97":169003.72,"N_COORD97":2554066.2999999998,"ADDRESS":"新吉２４９之８號","OBJECTID":292697},"geometry":{"x":169003.72000000067,"y":2554066.3000000026}},{"attributes":{"ID":292706,"DIS_CODE":0,"TOWNNAME":"安定區","LI":"港口里","LIN":"13鄰","STREET":" ","SECT":" ","MAREA":"港口","LANE":" ","ALLEY":" ","HOUSE_NO":"３４５之２５號","E_COORD97":171146.84,"N_COORD97":2554684.2999999998,"ADDRESS":"港口３４５之２５號","OBJECTID":292698},"geometry":{"x":171146.84000000171,"y":2554684.3000000007}},{"attributes":{"ID":292707,"DIS_CODE":0,"TOWNNAME":"安定區","LI":"海寮里","LIN":"14鄰","STREET":" ","SECT":" ","MAREA":"海寮","LANE":" ","ALLEY":" ","HOUSE_NO":"１３２之４８號","E_COORD97":169018.29000000001,"N_COORD97":2555420.2999999998,"ADDRESS":"海寮１３２之４８號","OBJECTID":292699},"geometry":{"x":169018.2900000019,"y":2555420.3000000007}},{"attributes":{"ID":292708,"DIS_CODE":0,"TOWNNAME":"安定區","LI":"蘇林里","LIN":"14鄰","STREET":" ","SECT":" ","MAREA":"蘇厝","LANE":" ","ALLEY":" ","HOUSE_NO":"１５５號","E_COORD97":173498.32000000001,"N_COORD97":2558816.25,"ADDRESS":"蘇厝１５５號","OBJECTID":292700},"geometry":{"x":173498.3200000003,"y":2558816.2500000019}},{"attributes":{"ID":292709,"DIS_CODE":0,"TOWNNAME":"新市區","LI":"永就里","LIN":"5鄰","STREET":" ","SECT":" ","MAREA":"永就","LANE":" ","ALLEY":" ","HOUSE_NO":"５７號","E_COORD97":178026.12,"N_COORD97":2551305,"ADDRESS":"永就５７號","OBJECTID":292701},"geometry":{"x":178026.12000000197,"y":2551305.0000000019}},{"attributes":{"ID":292710,"DIS_CODE":0,"TOWNNAME":"新市區","LI":"大社里","LIN":"26鄰","STREET":" ","SECT":" ","MAREA":"大社","LANE":" ","ALLEY":" ","HOUSE_NO":"６７７號","E_COORD97":179915.32000000001,"N_COORD97":2554262.25,"ADDRESS":"大社６７７號","OBJECTID":292702},"geometry":{"x":179915.32000000123,"y":2554262.2500000019}},{"attributes":{"ID":292711,"DIS_CODE":0,"TOWNNAME":"新市區","LI":"新市里","LIN":"25鄰","STREET":"復興路","SECT":" ","MAREA":" ","LANE":"６巷","ALLEY":" ","HOUSE_NO":"２號","E_COORD97":177835.95999999999,"N_COORD97":2553324.5299999998,"ADDRESS":"復興路６巷２號","OBJECTID":292703},"geometry":{"x":177835.96000000089,"y":2553324.5300000012}},{"attributes":{"ID":292712,"DIS_CODE":0,"TOWNNAME":"新市區","LI":"大營里","LIN":"20鄰","STREET":" ","SECT":" ","MAREA":"豐榮","LANE":" ","ALLEY":" ","HOUSE_NO":"５２之２號","E_COORD97":178781.67999999999,"N_COORD97":2554206.2999999998,"ADDRESS":"豐榮５２之２號","OBJECTID":292704},"geometry":{"x":178781.68000000063,"y":2554206.3000000007}},{"attributes":{"ID":292713,"DIS_CODE":0,"TOWNNAME":"新市區","LI":"新和里","LIN":"42鄰","STREET":"勝利街","SECT":" ","MAREA":" ","LANE":"１２巷","ALLEY":" ","HOUSE_NO":"５號","E_COORD97":177367.06,"N_COORD97":2552980.2599999998,"ADDRESS":"勝利街１２巷５號","OBJECTID":292705},"geometry":{"x":177367.06000000052,"y":2552980.2600000016}},{"attributes":{"ID":292714,"DIS_CODE":0,"TOWNNAME":"新市區","LI":"豐華里","LIN":"4鄰","STREET":" ","SECT":" ","MAREA":"豐華","LANE":" ","ALLEY":" ","HOUSE_NO":"２６之２號","E_COORD97":173781.23999999999,"N_COORD97":2554141.2999999998,"ADDRESS":"豐華２６之２號","OBJECTID":292706},"geometry":{"x":173781.24000000115,"y":2554141.3000000026}},{"attributes":{"ID":292715,"DIS_CODE":0,"TOWNNAME":"新市區","LI":"豐華里","LIN":"4鄰","STREET":" ","SECT":" ","MAREA":"豐華","LANE":" ","ALLEY":" ","HOUSE_NO":"２７之１號","E_COORD97":173773.38,"N_COORD97":2554093.27,"ADDRESS":"豐華２７之１號","OBJECTID":292707},"geometry":{"x":173773.37999999989,"y":2554093.2699999996}},{"attributes":{"ID":292716,"DIS_CODE":0,"TOWNNAME":"新市區","LI":"大營里","LIN":"18鄰","STREET":" ","SECT":" ","MAREA":"豐榮","LANE":" ","ALLEY":" ","HOUSE_NO":"１６之３號","E_COORD97":178943.98999999999,"N_COORD97":2554464.0499999998,"ADDRESS":"豐榮１６之３號","OBJECTID":292708},"geometry":{"x":178943.99000000022,"y":2554464.0500000026}},{"attributes":{"ID":292717,"DIS_CODE":0,"TOWNNAME":"北區","LI":"小康里","LIN":"17鄰","STREET":"公園路","SECT":" ","MAREA":" ","LANE":"１０７４巷","ALLEY":" ","HOUSE_NO":"３２號","E_COORD97":169742.04999999999,"N_COORD97":2546518.25,"ADDRESS":"公園路１０７４巷３２號","OBJECTID":292709},"geometry":{"x":169742.05000000075,"y":2546518.2500000019}},{"attributes":{"ID":292718,"DIS_CODE":0,"TOWNNAME":"北區","LI":"小康里","LIN":"17鄰","STREET":"公園路","SECT":" ","MAREA":" ","LANE":"１０７４巷","ALLEY":" ","HOUSE_NO":"３４號","E_COORD97":169747.35000000001,"N_COORD97":2546516.6200000001,"ADDRESS":"公園路１０７４巷３４號","OBJECTID":292710},"geometry":{"x":169747.34999999963,"y":2546516.6200000048}},{"attributes":{"ID":292719,"DIS_CODE":0,"TOWNNAME":"南區","LI":"新興里","LIN":"17鄰","STREET":"三官路","SECT":" ","MAREA":" ","LANE":"１０７巷","ALLEY":" ","HOUSE_NO":"１０號","E_COORD97":167379.14999999999,"N_COORD97":2542139.6699999999,"ADDRESS":"三官路１０７巷１０號","OBJECTID":292711},"geometry":{"x":167379.1500000013,"y":2542139.6699999999}},{"attributes":{"ID":292720,"DIS_CODE":0,"TOWNNAME":"南區","LI":"新興里","LIN":"17鄰","STREET":"三官路","SECT":" ","MAREA":" ","LANE":"１０７巷","ALLEY":" ","HOUSE_NO":"１號","E_COORD97":167371.14000000001,"N_COORD97":2542164.0600000001,"ADDRESS":"三官路１０７巷１號","OBJECTID":292712},"geometry":{"x":167371.14000000153,"y":2542164.0600000024}},{"attributes":{"ID":292721,"DIS_CODE":0,"TOWNNAME":"南區","LI":"新興里","LIN":"17鄰","STREET":"三官路","SECT":" ","MAREA":" ","LANE":"１０７巷","ALLEY":" ","HOUSE_NO":"２號","E_COORD97":167365.34,"N_COORD97":2542148.4700000002,"ADDRESS":"三官路１０７巷２號","OBJECTID":292713},"geometry":{"x":167365.34000000078,"y":2542148.4700000025}},{"attributes":{"ID":292722,"DIS_CODE":0,"TOWNNAME":"安平區","LI":"育平里","LIN":"8鄰","STREET":"育平五街","SECT":" ","MAREA":" ","LANE":" ","ALLEY":" ","HOUSE_NO":"７０號二十樓之６","E_COORD97":164650.70000000001,"N_COORD97":2543539.8100000001,"ADDRESS":"育平五街７０號二十樓之６","OBJECTID":292714},"geometry":{"x":164650.70000000112,"y":2543539.8100000005}},{"attributes":{"ID":292723,"DIS_CODE":0,"TOWNNAME":"安平區","LI":"育平里","LIN":"8鄰","STREET":"育平五街","SECT":" ","MAREA":" ","LANE":" ","ALLEY":" ","HOUSE_NO":"７０號八樓之４","E_COORD97":164650.70000000001,"N_COORD97":2543539.8100000001,"ADDRESS":"育平五街７０號八樓之４","OBJECTID":292715},"geometry":{"x":164650.70000000112,"y":2543539.8100000005}},{"attributes":{"ID":292724,"DIS_CODE":0,"TOWNNAME":"安平區","LI":"育平里","LIN":"8鄰","STREET":"育平五街","SECT":" ","MAREA":" ","LANE":" ","ALLEY":" ","HOUSE_NO":"７０號八樓之５","E_COORD97":164650.70000000001,"N_COORD97":2543539.8100000001,"ADDRESS":"育平五街７０號八樓之５","OBJECTID":292716},"geometry":{"x":164650.70000000112,"y":2543539.8100000005}},{"attributes":{"ID":292725,"DIS_CODE":0,"TOWNNAME":"南區","LI":"新興里","LIN":"17鄰","STREET":"三官路","SECT":" ","MAREA":" ","LANE":"１０７巷","ALLEY":" ","HOUSE_NO":"３號","E_COORD97":167376.54000000001,"N_COORD97":2542162.2599999998,"ADDRESS":"三官路１０７巷３號","OBJECTID":292717},"geometry":{"x":167376.54000000004,"y":2542162.2600000016}},{"attributes":{"ID":292726,"DIS_CODE":0,"TOWNNAME":"南區","LI":"新興里","LIN":"17鄰","STREET":"三官路","SECT":" ","MAREA":" ","LANE":"１０７巷","ALLEY":" ","HOUSE_NO":"４號","E_COORD97":167368.73999999999,"N_COORD97":2542147.6699999999,"ADDRESS":"三官路１０７巷４號","OBJECTID":292718},"geometry":{"x":167368.74000000022,"y":2542147.6699999999}},{"attributes":{"ID":292727,"DIS_CODE":0,"TOWNNAME":"南區","LI":"新興里","LIN":"17鄰","STREET":"三官路","SECT":" ","MAREA":" ","LANE":"１０７巷","ALLEY":" ","HOUSE_NO":"５號","E_COORD97":167383.14999999999,"N_COORD97":2542159.0600000001,"ADDRESS":"三官路１０７巷５號","OBJECTID":292719},"geometry":{"x":167383.15000000037,"y":2542159.0600000005}},{"attributes":{"ID":292728,"DIS_CODE":0,"TOWNNAME":"南區","LI":"新興里","LIN":"17鄰","STREET":"三官路","SECT":" ","MAREA":" ","LANE":"１０７巷","ALLEY":" ","HOUSE_NO":"６號","E_COORD97":167372.54000000001,"N_COORD97":2542146.0699999998,"ADDRESS":"三官路１０７巷６號","OBJECTID":292720},"geometry":{"x":167372.54000000097,"y":2542146.070000004}},{"attributes":{"ID":292729,"DIS_CODE":0,"TOWNNAME":"南區","LI":"新興里","LIN":"17鄰","STREET":"三官路","SECT":" ","MAREA":" ","LANE":"１０７巷","ALLEY":" ","HOUSE_NO":"８號","E_COORD97":167376.34,"N_COORD97":2542143.8700000001,"ADDRESS":"三官路１０７巷８號","OBJECTID":292721},"geometry":{"x":167376.33999999985,"y":2542143.870000001}},{"attributes":{"ID":292730,"DIS_CODE":0,"TOWNNAME":"北區","LI":"東興里","LIN":"17鄰","STREET":"小東路","SECT":" ","MAREA":" ","LANE":"２９９巷","ALLEY":" ","HOUSE_NO":"１７號","E_COORD97":171100.76999999999,"N_COORD97":2544475,"ADDRESS":"小東路２９９巷１７號","OBJECTID":292722},"geometry":{"x":171100.76999999955,"y":2544474.9999999981}},{"attributes":{"ID":292731,"DIS_CODE":0,"TOWNNAME":"北區","LI":"大和里","LIN":"17鄰","STREET":"中華北路","SECT":"一段","MAREA":" ","LANE":"６３２巷","ALLEY":" ","HOUSE_NO":"２５號","E_COORD97":167266.56,"N_COORD97":2546404.1299999999,"ADDRESS":"中華北路一段６３２巷２５號","OBJECTID":292723},"geometry":{"x":167266.56000000145,"y":2546404.129999999}},{"attributes":{"ID":292732,"DIS_CODE":0,"TOWNNAME":"北區","LI":"大和里","LIN":"17鄰","STREET":"中華北路","SECT":"一段","MAREA":" ","LANE":"６３２巷","ALLEY":" ","HOUSE_NO":"２６號","E_COORD97":167253.73000000001,"N_COORD97":2546415.5600000001,"ADDRESS":"中華北路一段６３２巷２６號","OBJECTID":292724},"geometry":{"x":167253.73000000045,"y":2546415.5600000024}},{"attributes":{"ID":292733,"DIS_CODE":0,"TOWNNAME":"北區","LI":"大和里","LIN":"17鄰","STREET":"中華北路","SECT":"一段","MAREA":" ","LANE":"６３２巷","ALLEY":" ","HOUSE_NO":"２８號","E_COORD97":167255.76000000001,"N_COORD97":2546411.4900000002,"ADDRESS":"中華北路一段６３２巷２８號","OBJECTID":292725},"geometry":{"x":167255.76000000071,"y":2546411.4900000039}},{"attributes":{"ID":292734,"DIS_CODE":0,"TOWNNAME":"北區","LI":"大和里","LIN":"17鄰","STREET":"中華北路","SECT":"一段","MAREA":" ","LANE":"６３２巷","ALLEY":" ","HOUSE_NO":"３號","E_COORD97":167256.01999999999,"N_COORD97":2546450.9900000002,"ADDRESS":"中華北路一段６３２巷３號","OBJECTID":292726},"geometry":{"x":167256.01999999955,"y":2546450.9900000002}},{"attributes":{"ID":292735,"DIS_CODE":0,"TOWNNAME":"北區","LI":"大和里","LIN":"17鄰","STREET":"中華北路","SECT":"一段","MAREA":" ","LANE":"６３２巷","ALLEY":" ","HOUSE_NO":"３０號","E_COORD97":167257.03,"N_COORD97":2546407.4300000002,"ADDRESS":"中華北路一段６３２巷３０號","OBJECTID":292727},"geometry":{"x":167257.03000000026,"y":2546407.4299999997}},{"attributes":{"ID":292736,"DIS_CODE":0,"TOWNNAME":"北區","LI":"大和里","LIN":"17鄰","STREET":"中華北路","SECT":"一段","MAREA":" ","LANE":"６３２巷","ALLEY":" ","HOUSE_NO":"３２號","E_COORD97":167258.29999999999,"N_COORD97":2546402.73,"ADDRESS":"中華北路一段６３２巷３２號","OBJECTID":292728},"geometry":{"x":167258.29999999888,"y":2546402.7300000004}},{"attributes":{"ID":292737,"DIS_CODE":0,"TOWNNAME":"北區","LI":"大和里","LIN":"17鄰","STREET":"中華北路","SECT":"一段","MAREA":" ","LANE":"６３２巷","ALLEY":" ","HOUSE_NO":"５號","E_COORD97":167256.91,"N_COORD97":2546446.1600000001,"ADDRESS":"中華北路一段６３２巷５號","OBJECTID":292729},"geometry":{"x":167256.91000000108,"y":2546446.1600000001}},{"attributes":{"ID":292738,"DIS_CODE":0,"TOWNNAME":"北區","LI":"大和里","LIN":"17鄰","STREET":"中華北路","SECT":"一段","MAREA":" ","LANE":"６３２巷","ALLEY":" ","HOUSE_NO":"６號","E_COORD97":167245.60000000001,"N_COORD97":2546450.1000000001,"ADDRESS":"中華北路一段６３２巷６號","OBJECTID":292730},"geometry":{"x":167245.59999999963,"y":2546450.0999999996}},{"attributes":{"ID":292739,"DIS_CODE":0,"TOWNNAME":"北區","LI":"大和里","LIN":"17鄰","STREET":"中華北路","SECT":"一段","MAREA":" ","LANE":"６３２巷","ALLEY":" ","HOUSE_NO":"７號","E_COORD97":167257.67000000001,"N_COORD97":2546442.73,"ADDRESS":"中華北路一段６３２巷７號","OBJECTID":292731},"geometry":{"x":167257.67000000179,"y":2546442.7300000004}},{"attributes":{"ID":292740,"DIS_CODE":0,"TOWNNAME":"北區","LI":"大和里","LIN":"17鄰","STREET":"中華北路","SECT":"一段","MAREA":" ","LANE":"６３２巷","ALLEY":" ","HOUSE_NO":"８號","E_COORD97":167247,"N_COORD97":2546445.27,"ADDRESS":"中華北路一段６３２巷８號","OBJECTID":292732},"geometry":{"x":167247.00000000186,"y":2546445.2699999996}},{"attributes":{"ID":292741,"DIS_CODE":0,"TOWNNAME":"仁德區","LI":"成功里","LIN":"39鄰","STREET":"文華路","SECT":"二段","MAREA":" ","LANE":" ","ALLEY":" ","HOUSE_NO":"６６號","E_COORD97":170654.92658999999,"N_COORD97":2537229.5523899999,"ADDRESS":"文華路二段６６號","OBJECTID":292733},"geometry":{"x":170654.92658999935,"y":2537229.5523860026}},{"attributes":{"ID":292742,"DIS_CODE":0,"TOWNNAME":"中西區","LI":"青年里","LIN":"4鄰","STREET":"武德街","SECT":" ","MAREA":" ","LANE":"２６巷","ALLEY":" ","HOUSE_NO":"１０號","E_COORD97":169017.35999999999,"N_COORD97":2543665.98,"ADDRESS":"武德街２６巷１０號","OBJECTID":292734},"geometry":{"x":169017.36000000034,"y":2543665.9800000023}},{"attributes":{"ID":292743,"DIS_CODE":0,"TOWNNAME":"中西區","LI":"青年里","LIN":"4鄰","STREET":"武德街","SECT":" ","MAREA":" ","LANE":"２６巷","ALLEY":" ","HOUSE_NO":"１２號","E_COORD97":169031.17999999999,"N_COORD97":2543672.29,"ADDRESS":"武德街２６巷１２號","OBJECTID":292735},"geometry":{"x":169031.18000000063,"y":2543672.2900000028}},{"attributes":{"ID":292744,"DIS_CODE":0,"TOWNNAME":"仁德區","LI":"成功里","LIN":"4鄰","STREET":"成功三街","SECT":" ","MAREA":" ","LANE":"９３巷","ALLEY":" ","HOUSE_NO":"９號","E_COORD97":171219.39999999999,"N_COORD97":2539805.77,"ADDRESS":"成功三街９３巷９號","OBJECTID":292736},"geometry":{"x":171219.40000000037,"y":2539805.7700000014}},{"attributes":{"ID":292745,"DIS_CODE":0,"TOWNNAME":"北區","LI":"大和里","LIN":"17鄰","STREET":"中華北路","SECT":"一段","MAREA":" ","LANE":"６３２巷","ALLEY":" ","HOUSE_NO":"９號","E_COORD97":167257.79999999999,"N_COORD97":2546439.8100000001,"ADDRESS":"中華北路一段６３２巷９號","OBJECTID":292737},"geometry":{"x":167257.79999999981,"y":2546439.8099999987}},{"attributes":{"ID":292746,"DIS_CODE":0,"TOWNNAME":"學甲區","LI":"仁得里","LIN":"17鄰","STREET":"自立街","SECT":" ","MAREA":" ","LANE":"９７巷","ALLEY":" ","HOUSE_NO":"３號","E_COORD97":165831.01999999999,"N_COORD97":2569964.7599999998,"ADDRESS":"自立街９７巷３號","OBJECTID":292738},"geometry":{"x":165831.02000000142,"y":2569964.7599999998}},{"attributes":{"ID":292747,"DIS_CODE":0,"TOWNNAME":"學甲區","LI":"仁得里","LIN":"17鄰","STREET":"自立街","SECT":" ","MAREA":" ","LANE":"９７巷","ALLEY":" ","HOUSE_NO":"５號","E_COORD97":165829.45999999999,"N_COORD97":2569960.79,"ADDRESS":"自立街９７巷５號","OBJECTID":292739},"geometry":{"x":165829.45999999996,"y":2569960.7899999991}},{"attributes":{"ID":292748,"DIS_CODE":0,"TOWNNAME":"學甲區","LI":"仁得里","LIN":"17鄰","STREET":"信義路","SECT":" ","MAREA":" ","LANE":"１７巷","ALLEY":" ","HOUSE_NO":"１３號","E_COORD97":165487.88,"N_COORD97":2570031.3900000001,"ADDRESS":"信義路１７巷１３號","OBJECTID":292740},"geometry":{"x":165487.87999999989,"y":2570031.3900000025}},{"attributes":{"ID":292749,"DIS_CODE":0,"TOWNNAME":"學甲區","LI":"仁得里","LIN":"17鄰","STREET":"信義路","SECT":" ","MAREA":" ","LANE":"１７巷","ALLEY":" ","HOUSE_NO":"１號","E_COORD97":165597.81,"N_COORD97":2569996.27,"ADDRESS":"信義路１７巷１號","OBJECTID":292741},"geometry":{"x":165597.80999999959,"y":2569996.2700000014}},{"attributes":{"ID":292750,"DIS_CODE":0,"TOWNNAME":"學甲區","LI":"仁得里","LIN":"17鄰","STREET":"信義路","SECT":" ","MAREA":" ","LANE":"１７巷","ALLEY":" ","HOUSE_NO":"２號","E_COORD97":165525.82000000001,"N_COORD97":2569993.7400000002,"ADDRESS":"信義路１７巷２號","OBJECTID":292742},"geometry":{"x":165525.8200000003,"y":2569993.7400000021}},{"attributes":{"ID":292751,"DIS_CODE":0,"TOWNNAME":"安平區","LI":"育平里","LIN":"8鄰","STREET":"育平五街","SECT":" ","MAREA":" ","LANE":" ","ALLEY":" ","HOUSE_NO":"７０號八樓之６","E_COORD97":164650.70000000001,"N_COORD97":2543539.8100000001,"ADDRESS":"育平五街７０號八樓之６","OBJECTID":292743},"geometry":{"x":164650.70000000112,"y":2543539.8100000005}},{"attributes":{"ID":292752,"DIS_CODE":0,"TOWNNAME":"安平區","LI":"育平里","LIN":"8鄰","STREET":"育平五街","SECT":" ","MAREA":" ","LANE":" ","ALLEY":" ","HOUSE_NO":"７０號十一樓之４","E_COORD97":164650.70000000001,"N_COORD97":2543539.8100000001,"ADDRESS":"育平五街７０號十一樓之４","OBJECTID":292744},"geometry":{"x":164650.70000000112,"y":2543539.8100000005}},{"attributes":{"ID":292753,"DIS_CODE":0,"TOWNNAME":"安平區","LI":"育平里","LIN":"8鄰","STREET":"育平五街","SECT":" ","MAREA":" ","LANE":" ","ALLEY":" ","HOUSE_NO":"７０號十一樓之５","E_COORD97":164650.70000000001,"N_COORD97":2543539.8100000001,"ADDRESS":"育平五街７０號十一樓之５","OBJECTID":292745},"geometry":{"x":164650.70000000112,"y":2543539.8100000005}},{"attributes":{"ID":292754,"DIS_CODE":0,"TOWNNAME":"仁德區","LI":"保安里","LIN":"20鄰","STREET":"保安路","SECT":"一段","MAREA":" ","LANE":"１０５巷","ALLEY":" ","HOUSE_NO":"７號","E_COORD97":171061.79000000001,"N_COORD97":2536853.8100000001,"ADDRESS":"保安路一段１０５巷７號","OBJECTID":292746},"geometry":{"x":171061.79000000097,"y":2536853.8100000005}},{"attributes":{"ID":292755,"DIS_CODE":0,"TOWNNAME":"仁德區","LI":"成功里","LIN":"25鄰","STREET":"成功一街","SECT":" ","MAREA":" ","LANE":"７０巷","ALLEY":" ","HOUSE_NO":"５號","E_COORD97":170507.51000000001,"N_COORD97":2539896.52,"ADDRESS":"成功一街７０巷５號","OBJECTID":292747},"geometry":{"x":170507.50999999978,"y":2539896.5199999996}},{"attributes":{"ID":292756,"DIS_CODE":0,"TOWNNAME":"仁德區","LI":"田厝里","LIN":"5鄰","STREET":"田厝三街","SECT":" ","MAREA":" ","LANE":"３５巷","ALLEY":" ","HOUSE_NO":"５號","E_COORD97":172442.04999999999,"N_COORD97":2537448.9900000002,"ADDRESS":"田厝三街３５巷５號","OBJECTID":292748},"geometry":{"x":172442.04999999981,"y":2537448.9900000002}},{"attributes":{"ID":292757,"DIS_CODE":0,"TOWNNAME":"仁德區","LI":"太子里","LIN":"25鄰","STREET":"長興五街","SECT":" ","MAREA":" ","LANE":"１４巷","ALLEY":" ","HOUSE_NO":"２１號","E_COORD97":173646.78,"N_COORD97":2543607.7599999998,"ADDRESS":"長興五街１４巷２１號","OBJECTID":292749},"geometry":{"x":173646.78000000119,"y":2543607.7599999998}},{"attributes":{"ID":292758,"DIS_CODE":0,"TOWNNAME":"仁德區","LI":"保安里","LIN":"15鄰","STREET":"中正路","SECT":"一段","MAREA":" ","LANE":"２１０巷","ALLEY":" ","HOUSE_NO":"１６號","E_COORD97":171656.79000000001,"N_COORD97":2535740.7799999998,"ADDRESS":"中正路一段２１０巷１６號","OBJECTID":292750},"geometry":{"x":171656.79000000097,"y":2535740.7799999993}},{"attributes":{"ID":292759,"DIS_CODE":0,"TOWNNAME":"學甲區","LI":"仁得里","LIN":"17鄰","STREET":"信義路","SECT":" ","MAREA":" ","LANE":"１７巷","ALLEY":" ","HOUSE_NO":"３號","E_COORD97":165520.47,"N_COORD97":2569983.3100000001,"ADDRESS":"信義路１７巷３號","OBJECTID":292751},"geometry":{"x":165520.46999999974,"y":2569983.3100000024}},{"attributes":{"ID":292760,"DIS_CODE":0,"TOWNNAME":"學甲區","LI":"仁得里","LIN":"17鄰","STREET":"信義路","SECT":" ","MAREA":" ","LANE":"１７巷","ALLEY":" ","HOUSE_NO":"５號之１","E_COORD97":165486.01999999999,"N_COORD97":2570194.4399999999,"ADDRESS":"信義路１７巷５號之１","OBJECTID":292752},"geometry":{"x":165486.01999999955,"y":2570194.4400000032}},{"attributes":{"ID":292761,"DIS_CODE":0,"TOWNNAME":"學甲區","LI":"仁得里","LIN":"17鄰","STREET":"信義路","SECT":" ","MAREA":" ","LANE":"１７巷","ALLEY":" ","HOUSE_NO":"５號之２","E_COORD97":165413.63,"N_COORD97":2570060.29,"ADDRESS":"信義路１７巷５號之２","OBJECTID":292753},"geometry":{"x":165413.63000000175,"y":2570060.290000001}},{"attributes":{"ID":292762,"DIS_CODE":0,"TOWNNAME":"學甲區","LI":"仁得里","LIN":"17鄰","STREET":"信義路","SECT":" ","MAREA":" ","LANE":"１７巷","ALLEY":" ","HOUSE_NO":"５號之３","E_COORD97":165351.16,"N_COORD97":2569913.5699999998,"ADDRESS":"信義路１７巷５號之３","OBJECTID":292754},"geometry":{"x":165351.16000000108,"y":2569913.5700000022}},{"attributes":{"ID":292763,"DIS_CODE":0,"TOWNNAME":"學甲區","LI":"仁得里","LIN":"17鄰","STREET":"信義路","SECT":" ","MAREA":" ","LANE":"１７巷","ALLEY":" ","HOUSE_NO":"５號之４","E_COORD97":165387.44,"N_COORD97":2570053.4300000002,"ADDRESS":"信義路１７巷５號之４","OBJECTID":292755},"geometry":{"x":165387.44000000041,"y":2570053.4300000016}},{"attributes":{"ID":292764,"DIS_CODE":0,"TOWNNAME":"學甲區","LI":"仁得里","LIN":"17鄰","STREET":"信義路","SECT":" ","MAREA":" ","LANE":"１７巷","ALLEY":" ","HOUSE_NO":"７號","E_COORD97":165550.09,"N_COORD97":2570054.8300000001,"ADDRESS":"信義路１７巷７號","OBJECTID":292756},"geometry":{"x":165550.09000000078,"y":2570054.8300000019}},{"attributes":{"ID":292765,"DIS_CODE":0,"TOWNNAME":"歸仁區","LI":"大廟里","LIN":"13鄰","STREET":"大廟六街","SECT":" ","MAREA":" ","LANE":"１１０巷","ALLEY":" ","HOUSE_NO":"２號","E_COORD97":176187.01999999999,"N_COORD97":2544247.25,"ADDRESS":"大廟六街１１０巷２號","OBJECTID":292757},"geometry":{"x":176187.02000000048,"y":2544247.2500000019}},{"attributes":{"ID":292766,"DIS_CODE":0,"TOWNNAME":"安平區","LI":"育平里","LIN":"8鄰","STREET":"育平五街","SECT":" ","MAREA":" ","LANE":" ","ALLEY":" ","HOUSE_NO":"７０號十一樓之６","E_COORD97":164650.70000000001,"N_COORD97":2543539.8100000001,"ADDRESS":"育平五街７０號十一樓之６","OBJECTID":292758},"geometry":{"x":164650.70000000112,"y":2543539.8100000005}},{"attributes":{"ID":292767,"DIS_CODE":0,"TOWNNAME":"安平區","LI":"育平里","LIN":"8鄰","STREET":"育平五街","SECT":" ","MAREA":" ","LANE":" ","ALLEY":" ","HOUSE_NO":"７０號十七樓之４","E_COORD97":164650.70000000001,"N_COORD97":2543539.8100000001,"ADDRESS":"育平五街７０號十七樓之４","OBJECTID":292759},"geometry":{"x":164650.70000000112,"y":2543539.8100000005}},{"attributes":{"ID":292768,"DIS_CODE":0,"TOWNNAME":"安平區","LI":"育平里","LIN":"8鄰","STREET":"育平五街","SECT":" ","MAREA":" ","LANE":" ","ALLEY":" ","HOUSE_NO":"７０號十七樓之５","E_COORD97":164650.70000000001,"N_COORD97":2543539.8100000001,"ADDRESS":"育平五街７０號十七樓之５","OBJECTID":292760},"geometry":{"x":164650.70000000112,"y":2543539.8100000005}},{"attributes":{"ID":292769,"DIS_CODE":0,"TOWNNAME":"安平區","LI":"育平里","LIN":"8鄰","STREET":"育平五街","SECT":" ","MAREA":" ","LANE":" ","ALLEY":" ","HOUSE_NO":"７０號十七樓之６","E_COORD97":164650.70000000001,"N_COORD97":2543539.8100000001,"ADDRESS":"育平五街７０號十七樓之６","OBJECTID":292761},"geometry":{"x":164650.70000000112,"y":2543539.8100000005}},{"attributes":{"ID":292770,"DIS_CODE":0,"TOWNNAME":"仁德區","LI":"仁德里","LIN":"5鄰","STREET":"仁德四街","SECT":" ","MAREA":" ","LANE":" ","ALLEY":" ","HOUSE_NO":"１號","E_COORD97":173357.42000000001,"N_COORD97":2540847.52,"ADDRESS":"仁德四街１號","OBJECTID":292762},"geometry":{"x":173357.42000000086,"y":2540847.5200000014}},{"attributes":{"ID":292771,"DIS_CODE":0,"TOWNNAME":"仁德區","LI":"仁德里","LIN":"25鄰","STREET":"淨修街","SECT":" ","MAREA":" ","LANE":"１４３巷","ALLEY":" ","HOUSE_NO":"１０號","E_COORD97":171925.82000000001,"N_COORD97":2541349,"ADDRESS":"淨修街１４３巷１０號","OBJECTID":292763},"geometry":{"x":171925.82000000123,"y":2541348.9999999981}},{"attributes":{"ID":292772,"DIS_CODE":0,"TOWNNAME":"仁德區","LI":"成功里","LIN":"32鄰","STREET":"成功一街","SECT":" ","MAREA":" ","LANE":"２９巷","ALLEY":" ","HOUSE_NO":"１號","E_COORD97":170551.44,"N_COORD97":2540149.5099999998,"ADDRESS":"成功一街２９巷１號","OBJECTID":292764},"geometry":{"x":170551.44000000041,"y":2540149.5100000016}},{"attributes":{"ID":292773,"DIS_CODE":0,"TOWNNAME":"仁德區","LI":"保安里","LIN":"13鄰","STREET":"二仁路","SECT":"一段","MAREA":" ","LANE":"１２２巷","ALLEY":" ","HOUSE_NO":"８號","E_COORD97":170466.64000000001,"N_COORD97":2535935.77,"ADDRESS":"二仁路一段１２２巷８號","OBJECTID":292765},"geometry":{"x":170466.64000000153,"y":2535935.7700000033}},{"attributes":{"ID":292774,"DIS_CODE":0,"TOWNNAME":"仁德區","LI":"田厝里","LIN":"4鄰","STREET":"田厝三街","SECT":" ","MAREA":" ","LANE":"９３巷","ALLEY":" ","HOUSE_NO":"７號","E_COORD97":172562.20000000001,"N_COORD97":2537470.4900000002,"ADDRESS":"田厝三街９３巷７號","OBJECTID":292766},"geometry":{"x":172562.20000000112,"y":2537470.4900000002}},{"attributes":{"ID":292775,"DIS_CODE":0,"TOWNNAME":"仁德區","LI":"成功里","LIN":"4鄰","STREET":"成功三街","SECT":" ","MAREA":" ","LANE":"９３巷","ALLEY":" ","HOUSE_NO":"１３號","E_COORD97":171234.66,"N_COORD97":2539818.77,"ADDRESS":"成功三街９３巷１３號","OBJECTID":292767},"geometry":{"x":171234.66000000015,"y":2539818.7700000014}},{"attributes":{"ID":292776,"DIS_CODE":0,"TOWNNAME":"仁德區","LI":"保安里","LIN":"20鄰","STREET":"保安路","SECT":"一段","MAREA":" ","LANE":"１０５巷","ALLEY":" ","HOUSE_NO":"１１號","E_COORD97":171063.97,"N_COORD97":2536863.0600000001,"ADDRESS":"保安路一段１０５巷１１號","OBJECTID":292768},"geometry":{"x":171063.96999999974,"y":2536863.0600000005}},{"attributes":{"ID":292777,"DIS_CODE":0,"TOWNNAME":"歸仁區","LI":"大潭里","LIN":"17鄰","STREET":"大潭二街","SECT":" ","MAREA":" ","LANE":"３０巷","ALLEY":" ","HOUSE_NO":"５５號","E_COORD97":175036.60999999999,"N_COORD97":2534755.25,"ADDRESS":"大潭二街３０巷５５號","OBJECTID":292769},"geometry":{"x":175036.61000000127,"y":2534755.25}},{"attributes":{"ID":292778,"DIS_CODE":0,"TOWNNAME":"歸仁區","LI":"大潭里","LIN":"17鄰","STREET":"大潭二街","SECT":" ","MAREA":" ","LANE":"３０巷","ALLEY":" ","HOUSE_NO":"５７號","E_COORD97":175032.51000000001,"N_COORD97":2534748.25,"ADDRESS":"大潭二街３０巷５７號","OBJECTID":292770},"geometry":{"x":175032.50999999978,"y":2534748.25}},{"attributes":{"ID":292779,"DIS_CODE":0,"TOWNNAME":"歸仁區","LI":"大廟里","LIN":"17鄰","STREET":"大廟五街","SECT":" ","MAREA":" ","LANE":"１８９巷","ALLEY":" ","HOUSE_NO":"５７號","E_COORD97":176120.97,"N_COORD97":2544949.25,"ADDRESS":"大廟五街１８９巷５７號","OBJECTID":292771},"geometry":{"x":176120.96999999974,"y":2544949.2500000019}},{"attributes":{"ID":292780,"DIS_CODE":0,"TOWNNAME":"歸仁區","LI":"大廟里","LIN":"17鄰","STREET":"大廟五街","SECT":" ","MAREA":" ","LANE":"７３巷","ALLEY":" ","HOUSE_NO":"１４號","E_COORD97":175981.23000000001,"N_COORD97":2544348.0899999999,"ADDRESS":"大廟五街７３巷１４號","OBJECTID":292772},"geometry":{"x":175981.23000000231,"y":2544348.0899999999}},{"attributes":{"ID":292781,"DIS_CODE":0,"TOWNNAME":"歸仁區","LI":"大廟里","LIN":"17鄰","STREET":"大廟五街","SECT":" ","MAREA":" ","LANE":"１７９巷","ALLEY":" ","HOUSE_NO":"５６號","E_COORD97":175992.17000000001,"N_COORD97":2544823.25,"ADDRESS":"大廟五街１７９巷５６號","OBJECTID":292773},"geometry":{"x":175992.16999999993,"y":2544823.2500000019}},{"attributes":{"ID":292782,"DIS_CODE":0,"TOWNNAME":"歸仁區","LI":"大廟里","LIN":"17鄰","STREET":"大廟五街","SECT":" ","MAREA":" ","LANE":"１３１巷","ALLEY":" ","HOUSE_NO":"５７號","E_COORD97":175924.79999999999,"N_COORD97":2544531.0899999999,"ADDRESS":"大廟五街１３１巷５７號","OBJECTID":292774},"geometry":{"x":175924.80000000075,"y":2544531.0899999999}},{"attributes":{"ID":292783,"DIS_CODE":0,"TOWNNAME":"安平區","LI":"育平里","LIN":"8鄰","STREET":"育平五街","SECT":" ","MAREA":" ","LANE":" ","ALLEY":" ","HOUSE_NO":"７０號十九樓之４","E_COORD97":164650.70000000001,"N_COORD97":2543539.8100000001,"ADDRESS":"育平五街７０號十九樓之４","OBJECTID":292775},"geometry":{"x":164650.70000000112,"y":2543539.8100000005}},{"attributes":{"ID":292784,"DIS_CODE":0,"TOWNNAME":"安平區","LI":"育平里","LIN":"8鄰","STREET":"育平五街","SECT":" ","MAREA":" ","LANE":" ","ALLEY":" ","HOUSE_NO":"７０號十九樓之５","E_COORD97":164650.70000000001,"N_COORD97":2543539.8100000001,"ADDRESS":"育平五街７０號十九樓之５","OBJECTID":292776},"geometry":{"x":164650.70000000112,"y":2543539.8100000005}},{"attributes":{"ID":292785,"DIS_CODE":0,"TOWNNAME":"安平區","LI":"育平里","LIN":"8鄰","STREET":"育平五街","SECT":" ","MAREA":" ","LANE":" ","ALLEY":" ","HOUSE_NO":"７０號十九樓之６","E_COORD97":164650.70000000001,"N_COORD97":2543539.8100000001,"ADDRESS":"育平五街７０號十九樓之６","OBJECTID":292777},"geometry":{"x":164650.70000000112,"y":2543539.8100000005}},{"attributes":{"ID":292786,"DIS_CODE":0,"TOWNNAME":"安平區","LI":"育平里","LIN":"8鄰","STREET":"育平五街","SECT":" ","MAREA":" ","LANE":" ","ALLEY":" ","HOUSE_NO":"７０號十二樓之４","E_COORD97":164650.70000000001,"N_COORD97":2543539.8100000001,"ADDRESS":"育平五街７０號十二樓之４","OBJECTID":292778},"geometry":{"x":164650.70000000112,"y":2543539.8100000005}},{"attributes":{"ID":292787,"DIS_CODE":0,"TOWNNAME":"安平區","LI":"育平里","LIN":"8鄰","STREET":"育平五街","SECT":" ","MAREA":" ","LANE":" ","ALLEY":" ","HOUSE_NO":"７０號十二樓之５","E_COORD97":164650.70000000001,"N_COORD97":2543539.8100000001,"ADDRESS":"育平五街７０號十二樓之５","OBJECTID":292779},"geometry":{"x":164650.70000000112,"y":2543539.8100000005}},{"attributes":{"ID":292788,"DIS_CODE":0,"TOWNNAME":"安平區","LI":"育平里","LIN":"8鄰","STREET":"育平五街","SECT":" ","MAREA":" ","LANE":" ","ALLEY":" ","HOUSE_NO":"７０號十二樓之６","E_COORD97":164650.70000000001,"N_COORD97":2543539.8100000001,"ADDRESS":"育平五街７０號十二樓之６","OBJECTID":292780},"geometry":{"x":164650.70000000112,"y":2543539.8100000005}},{"attributes":{"ID":292789,"DIS_CODE":0,"TOWNNAME":"仁德區","LI":"保安里","LIN":"20鄰","STREET":"保安路","SECT":"一段","MAREA":" ","LANE":"１０５巷","ALLEY":" ","HOUSE_NO":"１２號","E_COORD97":171071.64000000001,"N_COORD97":2536872.3100000001,"ADDRESS":"保安路一段１０５巷１２號","OBJECTID":292781},"geometry":{"x":171071.63999999966,"y":2536872.3100000042}},{"attributes":{"ID":292790,"DIS_CODE":0,"TOWNNAME":"仁德區","LI":"保安里","LIN":"20鄰","STREET":"保安路","SECT":"一段","MAREA":" ","LANE":"１９巷","ALLEY":" ","HOUSE_NO":"７號","E_COORD97":170447.91,"N_COORD97":2536230.0600000001,"ADDRESS":"保安路一段１９巷７號","OBJECTID":292782},"geometry":{"x":170447.91000000015,"y":2536230.0600000042}},{"attributes":{"ID":292791,"DIS_CODE":0,"TOWNNAME":"仁德區","LI":"太子里","LIN":"39鄰","STREET":"長興一街","SECT":" ","MAREA":" ","LANE":"６巷","ALLEY":" ","HOUSE_NO":"２號","E_COORD97":174715.95000000001,"N_COORD97":2543720.0099999998,"ADDRESS":"長興一街６巷２號","OBJECTID":292783},"geometry":{"x":174715.95000000019,"y":2543720.0100000016}},{"attributes":{"ID":292792,"DIS_CODE":0,"TOWNNAME":"歸仁區","LI":"大廟里","LIN":"17鄰","STREET":"大廟五街","SECT":" ","MAREA":" ","LANE":"１３１巷","ALLEY":" ","HOUSE_NO":"１２號","E_COORD97":176047.70000000001,"N_COORD97":2544506.0899999999,"ADDRESS":"大廟五街１３１巷１２號","OBJECTID":292784},"geometry":{"x":176047.70000000112,"y":2544506.0900000017}},{"attributes":{"ID":292793,"DIS_CODE":0,"TOWNNAME":"歸仁區","LI":"大廟里","LIN":"17鄰","STREET":"大廟五街","SECT":" ","MAREA":" ","LANE":"１８９巷","ALLEY":" ","HOUSE_NO":"７０號","E_COORD97":176155.17000000001,"N_COORD97":2545013.25,"ADDRESS":"大廟五街１８９巷７０號","OBJECTID":292785},"geometry":{"x":176155.16999999993,"y":2545013.2500000019}},{"attributes":{"ID":292794,"DIS_CODE":0,"TOWNNAME":"歸仁區","LI":"大廟里","LIN":"17鄰","STREET":"大廟五街","SECT":" ","MAREA":" ","LANE":"７３巷","ALLEY":" ","HOUSE_NO":"２４號","E_COORD97":175955.73000000001,"N_COORD97":2544358.0899999999,"ADDRESS":"大廟五街７３巷２４號","OBJECTID":292786},"geometry":{"x":175955.72999999952,"y":2544358.0899999999}},{"attributes":{"ID":292795,"DIS_CODE":0,"TOWNNAME":"歸仁區","LI":"大廟里","LIN":"17鄰","STREET":"大廟五街","SECT":" ","MAREA":" ","LANE":"１３１巷","ALLEY":" ","HOUSE_NO":"８１號","E_COORD97":175823.17000000001,"N_COORD97":2544626.25,"ADDRESS":"大廟五街１３１巷８１號","OBJECTID":292787},"geometry":{"x":175823.16999999993,"y":2544626.2500000037}},{"attributes":{"ID":292796,"DIS_CODE":0,"TOWNNAME":"南區","LI":"鯤鯓里","LIN":"17鄰","STREET":"鯤鯓路","SECT":" ","MAREA":" ","LANE":"１９４巷","ALLEY":" ","HOUSE_NO":"１１號","E_COORD97":164909.89999999999,"N_COORD97":2540306.8999999999,"ADDRESS":"鯤鯓路１９４巷１１號","OBJECTID":292788},"geometry":{"x":164909.90000000037,"y":2540306.9000000022}},{"attributes":{"ID":292797,"DIS_CODE":0,"TOWNNAME":"下營區","LI":"茅港里","LIN":"12鄰","STREET":" ","SECT":" ","MAREA":"中營","LANE":" ","ALLEY":" ","HOUSE_NO":"７１４號","E_COORD97":176258.87599900001,"N_COORD97":2568616.5241999999,"ADDRESS":"中營７１４號","OBJECTID":292789},"geometry":{"x":176258.87599899992,"y":2568616.5242010001}},{"attributes":{"ID":292798,"DIS_CODE":0,"TOWNNAME":"南區","LI":"鯤鯓里","LIN":"17鄰","STREET":"鯤鯓路","SECT":" ","MAREA":" ","LANE":"１９４巷","ALLEY":" ","HOUSE_NO":"１３號","E_COORD97":164919.32000000001,"N_COORD97":2540311.1200000001,"ADDRESS":"鯤鯓路１９４巷１３號","OBJECTID":292790},"geometry":{"x":164919.31999999937,"y":2540311.120000001}},{"attributes":{"ID":292799,"DIS_CODE":0,"TOWNNAME":"南區","LI":"鯤鯓里","LIN":"17鄰","STREET":"鯤鯓路","SECT":" ","MAREA":" ","LANE":"１９４巷","ALLEY":" ","HOUSE_NO":"１７號","E_COORD97":164928.14000000001,"N_COORD97":2540314.23,"ADDRESS":"鯤鯓路１９４巷１７號","OBJECTID":292791},"geometry":{"x":164928.13999999966,"y":2540314.2300000042}},{"attributes":{"ID":292800,"DIS_CODE":0,"TOWNNAME":"南區","LI":"鯤鯓里","LIN":"17鄰","STREET":"鯤鯓路","SECT":" ","MAREA":" ","LANE":"１９４巷","ALLEY":" ","HOUSE_NO":"１９號","E_COORD97":164933.92999999999,"N_COORD97":2540314.96,"ADDRESS":"鯤鯓路１９４巷１９號","OBJECTID":292792},"geometry":{"x":164933.93000000063,"y":2540314.9600000009}},{"attributes":{"ID":292801,"DIS_CODE":0,"TOWNNAME":"南區","LI":"鯤鯓里","LIN":"17鄰","STREET":"鯤鯓路","SECT":" ","MAREA":" ","LANE":"１９４巷","ALLEY":" ","HOUSE_NO":"１９號之１","E_COORD97":164941.91,"N_COORD97":2540316.9900000002,"ADDRESS":"鯤鯓路１９４巷１９號之１","OBJECTID":292793},"geometry":{"x":164941.91000000015,"y":2540316.9900000021}},{"attributes":{"ID":292802,"DIS_CODE":0,"TOWNNAME":"安平區","LI":"育平里","LIN":"8鄰","STREET":"育平五街","SECT":" ","MAREA":" ","LANE":" ","ALLEY":" ","HOUSE_NO":"７０號十八樓之４","E_COORD97":164650.70000000001,"N_COORD97":2543539.8100000001,"ADDRESS":"育平五街７０號十八樓之４","OBJECTID":292794},"geometry":{"x":164650.70000000112,"y":2543539.8100000005}},{"attributes":{"ID":292803,"DIS_CODE":0,"TOWNNAME":"安平區","LI":"育平里","LIN":"8鄰","STREET":"育平五街","SECT":" ","MAREA":" ","LANE":" ","ALLEY":" ","HOUSE_NO":"７０號十八樓之５","E_COORD97":164650.70000000001,"N_COORD97":2543539.8100000001,"ADDRESS":"育平五街７０號十八樓之５","OBJECTID":292795},"geometry":{"x":164650.70000000112,"y":2543539.8100000005}},{"attributes":{"ID":292804,"DIS_CODE":0,"TOWNNAME":"東區","LI":"崇文里","LIN":"8鄰","STREET":"崇善路","SECT":" ","MAREA":" ","LANE":" ","ALLEY":" ","HOUSE_NO":"６３６號","E_COORD97":171139.13,"N_COORD97":2541041.8700000001,"ADDRESS":"崇善路６３６號","OBJECTID":292796},"geometry":{"x":171139.12999999989,"y":2541041.870000001}},{"attributes":{"ID":292805,"DIS_CODE":0,"TOWNNAME":"仁德區","LI":"成功里","LIN":"26鄰","STREET":"成功一街","SECT":" ","MAREA":" ","LANE":"３０巷","ALLEY":" ","HOUSE_NO":"８號","E_COORD97":170509.39999999999,"N_COORD97":2540083.0099999998,"ADDRESS":"成功一街３０巷８號","OBJECTID":292797},"geometry":{"x":170509.40000000037,"y":2540083.0099999998}},{"attributes":{"ID":292806,"DIS_CODE":0,"TOWNNAME":"仁德區","LI":"成功里","LIN":"32鄰","STREET":"成功一街","SECT":" ","MAREA":" ","LANE":"２９巷","ALLEY":" ","HOUSE_NO":"４號","E_COORD97":170562.35000000001,"N_COORD97":2540136.77,"ADDRESS":"成功一街２９巷４號","OBJECTID":292798},"geometry":{"x":170562.35000000056,"y":2540136.7700000033}},{"attributes":{"ID":292807,"DIS_CODE":0,"TOWNNAME":"仁德區","LI":"田厝里","LIN":"4鄰","STREET":"田厝三街","SECT":" ","MAREA":" ","LANE":"９３巷","ALLEY":" ","HOUSE_NO":"３７號","E_COORD97":172496.88,"N_COORD97":2537492.2400000002,"ADDRESS":"田厝三街９３巷３７號","OBJECTID":292799},"geometry":{"x":172496.88000000082,"y":2537492.2400000002}},{"attributes":{"ID":292808,"DIS_CODE":0,"TOWNNAME":"仁德區","LI":"太子里","LIN":"36鄰","STREET":"長興一街","SECT":" ","MAREA":" ","LANE":"８６巷","ALLEY":" ","HOUSE_NO":"１５號","E_COORD97":174410.14999999999,"N_COORD97":2543928.0099999998,"ADDRESS":"長興一街８６巷１５號","OBJECTID":292800},"geometry":{"x":174410.15000000037,"y":2543928.0099999998}}]}