{"displayFieldName":"TOWNNAME","fieldAliases":{"ID":"ID","DIS_CODE":"DIS_CODE","TOWNNAME":"TOWNNAME","LI":"LI","LIN":"LIN","STREET":"STREET","SECT":"SECT","MAREA":"MAREA","LANE":"LANE","ALLEY":"ALLEY","HOUSE_NO":"HOUSE_NO","E_COORD97":"E_COORD97","N_COORD97":"N_COORD97","ADDRESS":"ADDRESS","OBJECTID":"OBJECTID"},"geometryType":"esriGeometryPoint","spatialReference":{"wkid":102443,"latestWkid":3826},"fields":[{"name":"ID","type":"esriFieldTypeDouble","alias":"ID"},{"name":"DIS_CODE","type":"esriFieldTypeInteger","alias":"DIS_CODE"},{"name":"TOWNNAME","type":"esriFieldTypeString","alias":"TOWNNAME","length":8},{"name":"LI","type":"esriFieldTypeString","alias":"LI","length":8},{"name":"LIN","type":"esriFieldTypeString","alias":"LIN","length":12},{"name":"STREET","type":"esriFieldTypeString","alias":"STREET","length":20},{"name":"SECT","type":"esriFieldTypeString","alias":"SECT","length":8},{"name":"MAREA","type":"esriFieldTypeString","alias":"MAREA","length":12},{"name":"LANE","type":"esriFieldTypeString","alias":"LANE","length":10},{"name":"ALLEY","type":"esriFieldTypeString","alias":"ALLEY","length":10},{"name":"HOUSE_NO","type":"esriFieldTypeString","alias":"HOUSE_NO","length":20},{"name":"E_COORD97","type":"esriFieldTypeDouble","alias":"E_COORD97"},{"name":"N_COORD97","type":"esriFieldTypeDouble","alias":"N_COORD97"},{"name":"ADDRESS","type":"esriFieldTypeString","alias":"ADDRESS","length":50},{"name":"OBJECTID","type":"esriFieldTypeOID","alias":"OBJECTID"}],"features":[{"attributes":{"ID":631628,"DIS_CODE":0,"TOWNNAME":"歸仁區","LI":"新厝里","LIN":"26鄰","STREET":"中正南路","SECT":"一段","MAREA":" ","LANE":" ","ALLEY":" ","HOUSE_NO":"３８５號","E_COORD97":177100.45999999999,"N_COORD97":2540150.25,"ADDRESS":"中正南路一段３８５號","OBJECTID":631601},"geometry":{"x":177100.46000000089,"y":2540150.25}},{"attributes":{"ID":631629,"DIS_CODE":0,"TOWNNAME":"歸仁區","LI":"後市里","LIN":"42鄰","STREET":"民權北路","SECT":" ","MAREA":" ","LANE":" ","ALLEY":" ","HOUSE_NO":"２２號","E_COORD97":176994.23000000001,"N_COORD97":2540911.75,"ADDRESS":"民權北路２２號","OBJECTID":631602},"geometry":{"x":176994.23000000045,"y":2540911.7500000019}},{"attributes":{"ID":631630,"DIS_CODE":0,"TOWNNAME":"歸仁區","LI":"辜厝里","LIN":"41鄰","STREET":"大吉街","SECT":" ","MAREA":" ","LANE":" ","ALLEY":" ","HOUSE_NO":"１１６號","E_COORD97":177197.73999999999,"N_COORD97":2540556.6800000002,"ADDRESS":"大吉街１１６號","OBJECTID":631603},"geometry":{"x":177197.74000000022,"y":2540556.6799999997}},{"attributes":{"ID":631631,"DIS_CODE":0,"TOWNNAME":"歸仁區","LI":"辜厝里","LIN":"41鄰","STREET":"大吉街","SECT":" ","MAREA":" ","LANE":" ","ALLEY":" ","HOUSE_NO":"１２２號","E_COORD97":177196.64000000001,"N_COORD97":2540533.6800000002,"ADDRESS":"大吉街１２２號","OBJECTID":631604},"geometry":{"x":177196.6400000006,"y":2540533.6799999997}},{"attributes":{"ID":631632,"DIS_CODE":0,"TOWNNAME":"歸仁區","LI":"崙頂里","LIN":"4鄰","STREET":"大成路","SECT":" ","MAREA":" ","LANE":" ","ALLEY":" ","HOUSE_NO":"３３３號","E_COORD97":178036.92999999999,"N_COORD97":2540136.25,"ADDRESS":"大成路３３３號","OBJECTID":631605},"geometry":{"x":178036.9299999997,"y":2540136.25}},{"attributes":{"ID":631633,"DIS_CODE":0,"TOWNNAME":"歸仁區","LI":"崙頂里","LIN":"5鄰","STREET":"大成路","SECT":" ","MAREA":" ","LANE":" ","ALLEY":" ","HOUSE_NO":"４１０號","E_COORD97":178069.14999999999,"N_COORD97":2540116.6800000002,"ADDRESS":"大成路４１０號","OBJECTID":631606},"geometry":{"x":178069.1500000013,"y":2540116.6799999997}},{"attributes":{"ID":631634,"DIS_CODE":0,"TOWNNAME":"歸仁區","LI":"歸仁里","LIN":"20鄰","STREET":"忠孝北路","SECT":" ","MAREA":" ","LANE":" ","ALLEY":" ","HOUSE_NO":"１７７號","E_COORD97":178145.29000000001,"N_COORD97":2541148.1099999999,"ADDRESS":"忠孝北路１７７號","OBJECTID":631607},"geometry":{"x":178145.2900000019,"y":2541148.1100000013}},{"attributes":{"ID":631635,"DIS_CODE":0,"TOWNNAME":"歸仁區","LI":"歸仁里","LIN":"26鄰","STREET":"文化一街","SECT":" ","MAREA":" ","LANE":" ","ALLEY":" ","HOUSE_NO":"１９號","E_COORD97":178252.87,"N_COORD97":2541200.1299999999,"ADDRESS":"文化一街１９號","OBJECTID":631608},"geometry":{"x":178252.87000000011,"y":2541200.129999999}},{"attributes":{"ID":631636,"DIS_CODE":0,"TOWNNAME":"歸仁區","LI":"許厝里","LIN":"32鄰","STREET":"復興路","SECT":" ","MAREA":" ","LANE":" ","ALLEY":" ","HOUSE_NO":"５９號","E_COORD97":177869.29999999999,"N_COORD97":2540605.54,"ADDRESS":"復興路５９號","OBJECTID":631609},"geometry":{"x":177869.30000000075,"y":2540605.5400000028}},{"attributes":{"ID":631637,"DIS_CODE":0,"TOWNNAME":"歸仁區","LI":"許厝里","LIN":"13鄰","STREET":"中山路","SECT":"一段","MAREA":" ","LANE":" ","ALLEY":" ","HOUSE_NO":"４７１號","E_COORD97":178066.81,"N_COORD97":2540704.25,"ADDRESS":"中山路一段４７１號","OBJECTID":631610},"geometry":{"x":178066.81000000052,"y":2540704.2500000019}},{"attributes":{"ID":631638,"DIS_CODE":0,"TOWNNAME":"歸仁區","LI":"崙頂里","LIN":"5鄰","STREET":"大成路","SECT":" ","MAREA":" ","LANE":" ","ALLEY":" ","HOUSE_NO":"３５８號","E_COORD97":177984.57000000001,"N_COORD97":2540098.6800000002,"ADDRESS":"大成路３５８號","OBJECTID":631611},"geometry":{"x":177984.57000000123,"y":2540098.6799999997}},{"attributes":{"ID":631639,"DIS_CODE":0,"TOWNNAME":"歸仁區","LI":"許厝里","LIN":"38鄰","STREET":"公園路","SECT":" ","MAREA":" ","LANE":" ","ALLEY":" ","HOUSE_NO":"５２號","E_COORD97":178063.34,"N_COORD97":2540547.2799999998,"ADDRESS":"公園路５２號","OBJECTID":631612},"geometry":{"x":178063.34000000171,"y":2540547.2800000012}},{"attributes":{"ID":631640,"DIS_CODE":0,"TOWNNAME":"歸仁區","LI":"許厝里","LIN":"26鄰","STREET":"中山路","SECT":"一段","MAREA":" ","LANE":" ","ALLEY":" ","HOUSE_NO":"４３６號","E_COORD97":178090.23999999999,"N_COORD97":2540732.6499999999,"ADDRESS":"中山路一段４３６號","OBJECTID":631613},"geometry":{"x":178090.24000000115,"y":2540732.6500000022}},{"attributes":{"ID":631641,"DIS_CODE":0,"TOWNNAME":"歸仁區","LI":"許厝里","LIN":"32鄰","STREET":"復興路","SECT":" ","MAREA":" ","LANE":" ","ALLEY":" ","HOUSE_NO":"４５號","E_COORD97":177899,"N_COORD97":2540602.54,"ADDRESS":"復興路４５號","OBJECTID":631614},"geometry":{"x":177899,"y":2540602.540000001}},{"attributes":{"ID":631642,"DIS_CODE":0,"TOWNNAME":"歸仁區","LI":"看西里","LIN":"5鄰","STREET":"信義南路","SECT":" ","MAREA":" ","LANE":" ","ALLEY":" ","HOUSE_NO":"１５３號","E_COORD97":178138.5,"N_COORD97":2540319.4900000002,"ADDRESS":"信義南路１５３號","OBJECTID":631615},"geometry":{"x":178138.49999999907,"y":2540319.4900000021}},{"attributes":{"ID":631643,"DIS_CODE":0,"TOWNNAME":"歸仁區","LI":"看西里","LIN":"20鄰","STREET":"成功路","SECT":"二段","MAREA":" ","LANE":" ","ALLEY":" ","HOUSE_NO":"３３號","E_COORD97":178164.10000000001,"N_COORD97":2539851.8900000001,"ADDRESS":"成功路二段３３號","OBJECTID":631616},"geometry":{"x":178164.09999999963,"y":2539851.8899999987}},{"attributes":{"ID":631644,"DIS_CODE":0,"TOWNNAME":"歸仁區","LI":"許厝里","LIN":"26鄰","STREET":"信義北路","SECT":" ","MAREA":" ","LANE":" ","ALLEY":" ","HOUSE_NO":"８號","E_COORD97":178002.04999999999,"N_COORD97":2540756.9300000002,"ADDRESS":"信義北路８號","OBJECTID":631617},"geometry":{"x":178002.04999999981,"y":2540756.9300000016}},{"attributes":{"ID":631645,"DIS_CODE":0,"TOWNNAME":"歸仁區","LI":"許厝里","LIN":"32鄰","STREET":"復興路","SECT":" ","MAREA":" ","LANE":" ","ALLEY":" ","HOUSE_NO":"３７號","E_COORD97":177915.39999999999,"N_COORD97":2540600.54,"ADDRESS":"復興路３７號","OBJECTID":631618},"geometry":{"x":177915.40000000037,"y":2540600.5399999991}},{"attributes":{"ID":631646,"DIS_CODE":0,"TOWNNAME":"北區","LI":"中樓里","LIN":"6鄰","STREET":"東豐路","SECT":" ","MAREA":" ","LANE":" ","ALLEY":" ","HOUSE_NO":"７７號","E_COORD97":169630.29000000001,"N_COORD97":2544942.3399999999,"ADDRESS":"東豐路７７號","OBJECTID":631619},"geometry":{"x":169630.2900000019,"y":2544942.3399999999}},{"attributes":{"ID":631647,"DIS_CODE":0,"TOWNNAME":"北區","LI":"永祥里","LIN":"19鄰","STREET":"大武街","SECT":" ","MAREA":" ","LANE":" ","ALLEY":" ","HOUSE_NO":"４９４號","E_COORD97":170112.64000000001,"N_COORD97":2546416.7400000002,"ADDRESS":"大武街４９４號","OBJECTID":631620},"geometry":{"x":170112.6400000006,"y":2546416.7400000021}},{"attributes":{"ID":631648,"DIS_CODE":0,"TOWNNAME":"北區","LI":"永祥里","LIN":"19鄰","STREET":"大武街","SECT":" ","MAREA":" ","LANE":" ","ALLEY":" ","HOUSE_NO":"４９６號","E_COORD97":170118.81,"N_COORD97":2546416.0099999998,"ADDRESS":"大武街４９６號","OBJECTID":631621},"geometry":{"x":170118.80999999959,"y":2546416.0099999998}},{"attributes":{"ID":631649,"DIS_CODE":0,"TOWNNAME":"北區","LI":"永祥里","LIN":"19鄰","STREET":"大武街","SECT":" ","MAREA":" ","LANE":" ","ALLEY":" ","HOUSE_NO":"４９８號","E_COORD97":170122.89999999999,"N_COORD97":2546414.9700000002,"ADDRESS":"大武街４９８號","OBJECTID":631622},"geometry":{"x":170122.90000000037,"y":2546414.9700000007}},{"attributes":{"ID":631650,"DIS_CODE":0,"TOWNNAME":"北區","LI":"永祥里","LIN":"19鄰","STREET":"大武街","SECT":" ","MAREA":" ","LANE":" ","ALLEY":" ","HOUSE_NO":"５００號","E_COORD97":170127.10999999999,"N_COORD97":2546414.54,"ADDRESS":"大武街５００號","OBJECTID":631623},"geometry":{"x":170127.11000000127,"y":2546414.540000001}},{"attributes":{"ID":631651,"DIS_CODE":0,"TOWNNAME":"北區","LI":"永祥里","LIN":"19鄰","STREET":"大武街","SECT":" ","MAREA":" ","LANE":" ","ALLEY":" ","HOUSE_NO":"５０４號","E_COORD97":170137.31,"N_COORD97":2546413.3799999999,"ADDRESS":"大武街５０４號","OBJECTID":631624},"geometry":{"x":170137.31000000052,"y":2546413.379999999}},{"attributes":{"ID":631652,"DIS_CODE":0,"TOWNNAME":"北區","LI":"永祥里","LIN":"19鄰","STREET":"大武街","SECT":" ","MAREA":" ","LANE":" ","ALLEY":" ","HOUSE_NO":"５０６號","E_COORD97":170141.03,"N_COORD97":2546415.8199999998,"ADDRESS":"大武街５０６號","OBJECTID":631625},"geometry":{"x":170141.03000000119,"y":2546415.8199999984}},{"attributes":{"ID":631653,"DIS_CODE":0,"TOWNNAME":"北區","LI":"永祥里","LIN":"19鄰","STREET":"大武街","SECT":" ","MAREA":" ","LANE":" ","ALLEY":" ","HOUSE_NO":"５０８號","E_COORD97":170145.37,"N_COORD97":2546415.7599999998,"ADDRESS":"大武街５０８號","OBJECTID":631626},"geometry":{"x":170145.37000000104,"y":2546415.7600000035}},{"attributes":{"ID":631654,"DIS_CODE":0,"TOWNNAME":"北區","LI":"永祥里","LIN":"19鄰","STREET":"大武街","SECT":" ","MAREA":" ","LANE":" ","ALLEY":" ","HOUSE_NO":"５１０號","E_COORD97":170149.85000000001,"N_COORD97":2546415.5299999998,"ADDRESS":"大武街５１０號","OBJECTID":631627},"geometry":{"x":170149.85000000149,"y":2546415.5299999993}},{"attributes":{"ID":631655,"DIS_CODE":0,"TOWNNAME":"北區","LI":"永祥里","LIN":"19鄰","STREET":"大武街","SECT":" ","MAREA":" ","LANE":" ","ALLEY":" ","HOUSE_NO":"５１２號","E_COORD97":170153.82000000001,"N_COORD97":2546415.4700000002,"ADDRESS":"大武街５１２號","OBJECTID":631628},"geometry":{"x":170153.8200000003,"y":2546415.4700000044}},{"attributes":{"ID":631656,"DIS_CODE":0,"TOWNNAME":"北區","LI":"永祥里","LIN":"19鄰","STREET":"大武街","SECT":" ","MAREA":" ","LANE":" ","ALLEY":" ","HOUSE_NO":"５１４號","E_COORD97":170157.54000000001,"N_COORD97":2546415.5899999999,"ADDRESS":"大武街５１４號","OBJECTID":631629},"geometry":{"x":170157.5400000019,"y":2546415.5899999999}},{"attributes":{"ID":631657,"DIS_CODE":0,"TOWNNAME":"北區","LI":"永祥里","LIN":"19鄰","STREET":"大武街","SECT":" ","MAREA":" ","LANE":" ","ALLEY":" ","HOUSE_NO":"５１６號","E_COORD97":170162.01000000001,"N_COORD97":2546415.6499999999,"ADDRESS":"大武街５１６號","OBJECTID":631630},"geometry":{"x":170162.00999999978,"y":2546415.6500000004}},{"attributes":{"ID":631658,"DIS_CODE":0,"TOWNNAME":"北區","LI":"永祥里","LIN":"19鄰","STREET":"大武街","SECT":" ","MAREA":" ","LANE":" ","ALLEY":" ","HOUSE_NO":"５１８號","E_COORD97":170165.54999999999,"N_COORD97":2546414.6200000001,"ADDRESS":"大武街５１８號","OBJECTID":631631},"geometry":{"x":170165.54999999888,"y":2546414.6200000048}},{"attributes":{"ID":631659,"DIS_CODE":0,"TOWNNAME":"北區","LI":"永祥里","LIN":"19鄰","STREET":"大武街","SECT":" ","MAREA":" ","LANE":" ","ALLEY":" ","HOUSE_NO":"５２０號","E_COORD97":170169.57999999999,"N_COORD97":2546415.77,"ADDRESS":"大武街５２０號","OBJECTID":631632},"geometry":{"x":170169.58000000101,"y":2546415.7700000033}},{"attributes":{"ID":631660,"DIS_CODE":0,"TOWNNAME":"北區","LI":"永祥里","LIN":"19鄰","STREET":"大武街","SECT":" ","MAREA":" ","LANE":" ","ALLEY":" ","HOUSE_NO":"５２２號","E_COORD97":170174.04000000001,"N_COORD97":2546415.1600000001,"ADDRESS":"大武街５２２號","OBJECTID":631633},"geometry":{"x":170174.04000000004,"y":2546415.160000002}},{"attributes":{"ID":631661,"DIS_CODE":0,"TOWNNAME":"北區","LI":"永祥里","LIN":"19鄰","STREET":"大武街","SECT":" ","MAREA":" ","LANE":" ","ALLEY":" ","HOUSE_NO":"５２４號","E_COORD97":170178.07000000001,"N_COORD97":2546414.9199999999,"ADDRESS":"大武街５２４號","OBJECTID":631634},"geometry":{"x":170178.07000000123,"y":2546414.9200000037}},{"attributes":{"ID":631662,"DIS_CODE":0,"TOWNNAME":"北區","LI":"永祥里","LIN":"19鄰","STREET":"大武街","SECT":" ","MAREA":" ","LANE":" ","ALLEY":" ","HOUSE_NO":"５２６號","E_COORD97":170182.60000000001,"N_COORD97":2546415.5800000001,"ADDRESS":"大武街５２６號","OBJECTID":631635},"geometry":{"x":170182.60000000056,"y":2546415.5800000019}},{"attributes":{"ID":631663,"DIS_CODE":0,"TOWNNAME":"北區","LI":"中樓里","LIN":"5鄰","STREET":"東豐路","SECT":" ","MAREA":" ","LANE":" ","ALLEY":" ","HOUSE_NO":"３６號","E_COORD97":169497.29999999999,"N_COORD97":2544905.1499999999,"ADDRESS":"東豐路３６號","OBJECTID":631636},"geometry":{"x":169497.29999999981,"y":2544905.1500000041}},{"attributes":{"ID":631664,"DIS_CODE":0,"TOWNNAME":"北區","LI":"小康里","LIN":"16鄰","STREET":"大武街","SECT":" ","MAREA":" ","LANE":" ","ALLEY":" ","HOUSE_NO":"４５９號","E_COORD97":169913.07000000001,"N_COORD97":2546474.77,"ADDRESS":"大武街４５９號","OBJECTID":631637},"geometry":{"x":169913.0700000003,"y":2546474.7700000014}},{"attributes":{"ID":631665,"DIS_CODE":0,"TOWNNAME":"北區","LI":"永祥里","LIN":"2鄰","STREET":"大武街","SECT":" ","MAREA":" ","LANE":" ","ALLEY":" ","HOUSE_NO":"４９９號","E_COORD97":169997.14000000001,"N_COORD97":2546447.3300000001,"ADDRESS":"大武街４９９號","OBJECTID":631638},"geometry":{"x":169997.14000000153,"y":2546447.3300000019}},{"attributes":{"ID":631666,"DIS_CODE":0,"TOWNNAME":"新營區","LI":"三仙里","LIN":"26鄰","STREET":"育德街","SECT":" ","MAREA":" ","LANE":" ","ALLEY":" ","HOUSE_NO":"５５號","E_COORD97":179591.98000000001,"N_COORD97":2579053.0699999998,"ADDRESS":"育德街５５號","OBJECTID":631639},"geometry":{"x":179591.98000000231,"y":2579053.0700000003}},{"attributes":{"ID":631667,"DIS_CODE":0,"TOWNNAME":"新營區","LI":"民生里","LIN":" ","STREET":"三興街","SECT":" ","MAREA":" ","LANE":" ","ALLEY":" ","HOUSE_NO":"７之５號","E_COORD97":179475.70999999999,"N_COORD97":2578213.1299999999,"ADDRESS":"三興街７之５號","OBJECTID":631640},"geometry":{"x":179475.70999999996,"y":2578213.129999999}},{"attributes":{"ID":631668,"DIS_CODE":0,"TOWNNAME":"安平區","LI":"文平里","LIN":"24鄰","STREET":"建平三街","SECT":" ","MAREA":" ","LANE":" ","ALLEY":" ","HOUSE_NO":"３號","E_COORD97":166283.22,"N_COORD97":2542853.8599999999,"ADDRESS":"建平三街３號","OBJECTID":631641},"geometry":{"x":166283.22000000067,"y":2542853.8599999994}},{"attributes":{"ID":631669,"DIS_CODE":0,"TOWNNAME":"新營區","LI":"三仙里","LIN":"4鄰","STREET":"正義街","SECT":" ","MAREA":" ","LANE":" ","ALLEY":" ","HOUSE_NO":"１１號","E_COORD97":179657.81,"N_COORD97":2578059.3700000001,"ADDRESS":"正義街１１號","OBJECTID":631642},"geometry":{"x":179657.80999999959,"y":2578059.3700000029}},{"attributes":{"ID":631670,"DIS_CODE":0,"TOWNNAME":"安平區","LI":"億載里","LIN":"4鄰","STREET":"安億路","SECT":" ","MAREA":" ","LANE":" ","ALLEY":" ","HOUSE_NO":"２８０號","E_COORD97":163862.29999999999,"N_COORD97":2543854.8199999998,"ADDRESS":"安億路２８０號","OBJECTID":631643},"geometry":{"x":163862.29999999981,"y":2543854.8200000003}},{"attributes":{"ID":631671,"DIS_CODE":0,"TOWNNAME":"安平區","LI":"平安里","LIN":"4鄰","STREET":"安平路","SECT":" ","MAREA":" ","LANE":" ","ALLEY":" ","HOUSE_NO":"２２８之１號","E_COORD97":165931.57999999999,"N_COORD97":2544359.71,"ADDRESS":"安平路２２８之１號","OBJECTID":631644},"geometry":{"x":165931.58000000101,"y":2544359.7100000028}},{"attributes":{"ID":631672,"DIS_CODE":0,"TOWNNAME":"安平區","LI":"平安里","LIN":"4鄰","STREET":"安平路","SECT":" ","MAREA":" ","LANE":" ","ALLEY":" ","HOUSE_NO":"２２８之２號","E_COORD97":165926.5,"N_COORD97":2544359.8700000001,"ADDRESS":"安平路２２８之２號","OBJECTID":631645},"geometry":{"x":165926.50000000186,"y":2544359.8700000029}},{"attributes":{"ID":631673,"DIS_CODE":0,"TOWNNAME":"安平區","LI":"平安里","LIN":"4鄰","STREET":"安平路","SECT":" ","MAREA":" ","LANE":" ","ALLEY":" ","HOUSE_NO":"２２８之３號","E_COORD97":165920.47,"N_COORD97":2544359.0699999998,"ADDRESS":"安平路２２８之３號","OBJECTID":631646},"geometry":{"x":165920.47000000067,"y":2544359.0700000003}},{"attributes":{"ID":631674,"DIS_CODE":0,"TOWNNAME":"安平區","LI":"華平里","LIN":"19鄰","STREET":"永華八街","SECT":" ","MAREA":" ","LANE":" ","ALLEY":" ","HOUSE_NO":"５號","E_COORD97":165091.78,"N_COORD97":2543287.5099999998,"ADDRESS":"永華八街５號","OBJECTID":631647},"geometry":{"x":165091.78000000026,"y":2543287.5099999998}},{"attributes":{"ID":631675,"DIS_CODE":0,"TOWNNAME":"安平區","LI":"平通里","LIN":"32鄰","STREET":"永華十街","SECT":" ","MAREA":" ","LANE":" ","ALLEY":" ","HOUSE_NO":"３５號","E_COORD97":164537.25,"N_COORD97":2543684.4300000002,"ADDRESS":"永華十街３５號","OBJECTID":631648},"geometry":{"x":164537.25000000093,"y":2543684.4299999997}},{"attributes":{"ID":631676,"DIS_CODE":0,"TOWNNAME":"安平區","LI":"育平里","LIN":"32鄰","STREET":"健康三街","SECT":" ","MAREA":" ","LANE":" ","ALLEY":" ","HOUSE_NO":"８１號","E_COORD97":164721.16,"N_COORD97":2543108.6400000001,"ADDRESS":"健康三街８１號","OBJECTID":631649},"geometry":{"x":164721.16000000015,"y":2543108.6400000043}},{"attributes":{"ID":631677,"DIS_CODE":0,"TOWNNAME":"安平區","LI":"怡平里","LIN":"24鄰","STREET":"平通路","SECT":" ","MAREA":" ","LANE":" ","ALLEY":" ","HOUSE_NO":"３２１號","E_COORD97":165764.37,"N_COORD97":2543703,"ADDRESS":"平通路３２１號","OBJECTID":631650},"geometry":{"x":165764.37000000011,"y":2543703.0000000019}},{"attributes":{"ID":631678,"DIS_CODE":0,"TOWNNAME":"安平區","LI":"國平里","LIN":"4鄰","STREET":"文平路","SECT":" ","MAREA":" ","LANE":" ","ALLEY":" ","HOUSE_NO":"２６９號","E_COORD97":165724.37,"N_COORD97":2543271.7999999998,"ADDRESS":"文平路２６９號","OBJECTID":631651},"geometry":{"x":165724.37000000104,"y":2543271.8000000026}},{"attributes":{"ID":631679,"DIS_CODE":0,"TOWNNAME":"安平區","LI":"國平里","LIN":"4鄰","STREET":"文平路","SECT":" ","MAREA":" ","LANE":" ","ALLEY":" ","HOUSE_NO":"２７１號","E_COORD97":165724.63,"N_COORD97":2543278.9399999999,"ADDRESS":"文平路２７１號","OBJECTID":631652},"geometry":{"x":165724.62999999989,"y":2543278.9400000013}},{"attributes":{"ID":631680,"DIS_CODE":0,"TOWNNAME":"安平區","LI":"國平里","LIN":"4鄰","STREET":"文平路","SECT":" ","MAREA":" ","LANE":" ","ALLEY":" ","HOUSE_NO":"２７３號","E_COORD97":165725.03,"N_COORD97":2543285.1600000001,"ADDRESS":"文平路２７３號","OBJECTID":631653},"geometry":{"x":165725.03000000119,"y":2543285.160000002}},{"attributes":{"ID":631681,"DIS_CODE":0,"TOWNNAME":"安平區","LI":"國平里","LIN":"4鄰","STREET":"文平路","SECT":" ","MAREA":" ","LANE":" ","ALLEY":" ","HOUSE_NO":"２７５號","E_COORD97":165726.35000000001,"N_COORD97":2543292.4399999999,"ADDRESS":"文平路２７５號","OBJECTID":631654},"geometry":{"x":165726.34999999963,"y":2543292.4400000013}},{"attributes":{"ID":631682,"DIS_CODE":0,"TOWNNAME":"安平區","LI":"國平里","LIN":"13鄰","STREET":"建平一街","SECT":" ","MAREA":" ","LANE":" ","ALLEY":" ","HOUSE_NO":"２０５號","E_COORD97":165584.489046,"N_COORD97":2542778.6096999999,"ADDRESS":"建平一街２０５號","OBJECTID":631655},"geometry":{"x":165584.48904599994,"y":2542778.6096999999}},{"attributes":{"ID":631683,"DIS_CODE":0,"TOWNNAME":"安平區","LI":"國平里","LIN":"13鄰","STREET":"建平一街","SECT":" ","MAREA":" ","LANE":" ","ALLEY":" ","HOUSE_NO":"２０７號","E_COORD97":165577.496098,"N_COORD97":2542780.09137,"ADDRESS":"建平一街２０７號","OBJECTID":631656},"geometry":{"x":165577.49609799962,"y":2542780.0913660023}},{"attributes":{"ID":631684,"DIS_CODE":0,"TOWNNAME":"新營區","LI":"嘉芳里","LIN":" ","STREET":"復興路","SECT":" ","MAREA":" ","LANE":" ","ALLEY":" ","HOUSE_NO":"９６７號","E_COORD97":176846.12,"N_COORD97":2578690.96,"ADDRESS":"復興路９６７號","OBJECTID":631657},"geometry":{"x":176846.11999999918,"y":2578690.9600000009}},{"attributes":{"ID":631685,"DIS_CODE":0,"TOWNNAME":"安平區","LI":"港仔里","LIN":"20鄰","STREET":"延平街","SECT":" ","MAREA":" ","LANE":" ","ALLEY":" ","HOUSE_NO":"９９號之１","E_COORD97":164115.03,"N_COORD97":2544604.4900000002,"ADDRESS":"延平街９９號之１","OBJECTID":631658},"geometry":{"x":164115.03000000119,"y":2544604.4900000039}},{"attributes":{"ID":631686,"DIS_CODE":0,"TOWNNAME":"安平區","LI":"港仔里","LIN":"20鄰","STREET":"安平路","SECT":" ","MAREA":" ","LANE":" ","ALLEY":" ","HOUSE_NO":"７７４號","E_COORD97":164098.69,"N_COORD97":2544557.4700000002,"ADDRESS":"安平路７７４號","OBJECTID":631659},"geometry":{"x":164098.69000000134,"y":2544557.4700000044}},{"attributes":{"ID":631687,"DIS_CODE":0,"TOWNNAME":"安平區","LI":"華平里","LIN":"14鄰","STREET":"育平九街","SECT":" ","MAREA":" ","LANE":" ","ALLEY":" ","HOUSE_NO":"１９５號","E_COORD97":165095.57999999999,"N_COORD97":2543976.2599999998,"ADDRESS":"育平九街１９５號","OBJECTID":631660},"geometry":{"x":165095.58000000101,"y":2543976.2600000016}},{"attributes":{"ID":631688,"DIS_CODE":0,"TOWNNAME":"安平區","LI":"華平里","LIN":"8鄰","STREET":"健康二街","SECT":" ","MAREA":" ","LANE":" ","ALLEY":" ","HOUSE_NO":"４９７號","E_COORD97":165354.78,"N_COORD97":2543988.8399999999,"ADDRESS":"健康二街４９７號","OBJECTID":631661},"geometry":{"x":165354.78000000026,"y":2543988.8400000017}},{"attributes":{"ID":631689,"DIS_CODE":0,"TOWNNAME":"安平區","LI":"華平里","LIN":"8鄰","STREET":"健康二街","SECT":" ","MAREA":" ","LANE":" ","ALLEY":" ","HOUSE_NO":"４９９號","E_COORD97":165355.10000000001,"N_COORD97":2543983.9199999999,"ADDRESS":"健康二街４９９號","OBJECTID":631662},"geometry":{"x":165355.09999999963,"y":2543983.9200000037}},{"attributes":{"ID":631690,"DIS_CODE":0,"TOWNNAME":"安平區","LI":"億載里","LIN":"8鄰","STREET":"光州六街","SECT":" ","MAREA":" ","LANE":" ","ALLEY":" ","HOUSE_NO":"２２２號","E_COORD97":163939.89000000001,"N_COORD97":2543541.1899999999,"ADDRESS":"光州六街２２２號","OBJECTID":631663},"geometry":{"x":163939.88999999966,"y":2543541.1900000032}},{"attributes":{"ID":631691,"DIS_CODE":0,"TOWNNAME":"安平區","LI":"平安里","LIN":"6鄰","STREET":"華平路","SECT":" ","MAREA":" ","LANE":" ","ALLEY":" ","HOUSE_NO":"７４２號","E_COORD97":165532.04999999999,"N_COORD97":2544416.04,"ADDRESS":"華平路７４２號","OBJECTID":631664},"geometry":{"x":165532.04999999981,"y":2544416.0399999991}},{"attributes":{"ID":631692,"DIS_CODE":0,"TOWNNAME":"安平區","LI":"平安里","LIN":"4鄰","STREET":"民權路","SECT":"四段","MAREA":" ","LANE":" ","ALLEY":" ","HOUSE_NO":"１９１號","E_COORD97":166024.28,"N_COORD97":2544408.1200000001,"ADDRESS":"民權路四段１９１號","OBJECTID":631665},"geometry":{"x":166024.28000000026,"y":2544408.1200000029}},{"attributes":{"ID":631693,"DIS_CODE":0,"TOWNNAME":"安平區","LI":" ","LIN":" ","STREET":"永華八街","SECT":" ","MAREA":" ","LANE":" ","ALLEY":" ","HOUSE_NO":"６號","E_COORD97":165125.64000000001,"N_COORD97":2543313.3500000001,"ADDRESS":"永華八街６號","OBJECTID":631666},"geometry":{"x":165125.6400000006,"y":2543313.3500000015}},{"attributes":{"ID":631694,"DIS_CODE":0,"TOWNNAME":"新營區","LI":"興業里","LIN":"10鄰","STREET":"公誠街","SECT":" ","MAREA":" ","LANE":" ","ALLEY":" ","HOUSE_NO":"２號之９","E_COORD97":180179.13,"N_COORD97":2578137.8100000001,"ADDRESS":"公誠街２號之９","OBJECTID":631667},"geometry":{"x":180179.13000000082,"y":2578137.8100000024}},{"attributes":{"ID":631695,"DIS_CODE":0,"TOWNNAME":"安平區","LI":"育平里","LIN":"38鄰","STREET":"育平一街","SECT":" ","MAREA":" ","LANE":" ","ALLEY":" ","HOUSE_NO":"２號","E_COORD97":164473.85000000001,"N_COORD97":2542977.6800000002,"ADDRESS":"育平一街２號","OBJECTID":631668},"geometry":{"x":164473.84999999963,"y":2542977.6799999997}},{"attributes":{"ID":631696,"DIS_CODE":0,"TOWNNAME":"新營區","LI":"新東里","LIN":" ","STREET":"民族路","SECT":" ","MAREA":" ","LANE":" ","ALLEY":" ","HOUSE_NO":"１８６號","E_COORD97":180386.5,"N_COORD97":2579399.27,"ADDRESS":"民族路１８６號","OBJECTID":631669},"geometry":{"x":180386.50000000186,"y":2579399.2699999996}},{"attributes":{"ID":631697,"DIS_CODE":0,"TOWNNAME":"安平區","LI":"港仔里","LIN":"20鄰","STREET":"安平路","SECT":" ","MAREA":" ","LANE":" ","ALLEY":" ","HOUSE_NO":"７７６號","E_COORD97":164095.35000000001,"N_COORD97":2544557.9500000002,"ADDRESS":"安平路７７６號","OBJECTID":631670},"geometry":{"x":164095.35000000056,"y":2544557.9499999993}},{"attributes":{"ID":631698,"DIS_CODE":0,"TOWNNAME":"安平區","LI":"怡平里","LIN":"13鄰","STREET":"永華六街","SECT":" ","MAREA":" ","LANE":" ","ALLEY":" ","HOUSE_NO":"２６５號","E_COORD97":165647.48999999999,"N_COORD97":2544084.0899999999,"ADDRESS":"永華六街２６５號","OBJECTID":631671},"geometry":{"x":165647.49000000115,"y":2544084.0899999999}},{"attributes":{"ID":631699,"DIS_CODE":0,"TOWNNAME":"安平區","LI":"怡平里","LIN":"13鄰","STREET":"永華六街","SECT":" ","MAREA":" ","LANE":" ","ALLEY":" ","HOUSE_NO":"２６７號","E_COORD97":165648.51000000001,"N_COORD97":2544088.02,"ADDRESS":"永華六街２６７號","OBJECTID":631672},"geometry":{"x":165648.51000000071,"y":2544088.0200000033}},{"attributes":{"ID":631700,"DIS_CODE":0,"TOWNNAME":"安平區","LI":"平安里","LIN":"17鄰","STREET":"安平路","SECT":" ","MAREA":" ","LANE":" ","ALLEY":" ","HOUSE_NO":"６０２之１號","E_COORD97":164847.64000000001,"N_COORD97":2544396.4100000001,"ADDRESS":"安平路６０２之１號","OBJECTID":631673},"geometry":{"x":164847.6400000006,"y":2544396.4100000001}},{"attributes":{"ID":631701,"DIS_CODE":0,"TOWNNAME":"安平區","LI":"平安里","LIN":"17鄰","STREET":"安平路","SECT":" ","MAREA":" ","LANE":" ","ALLEY":" ","HOUSE_NO":"６０２之２號","E_COORD97":164843.95999999999,"N_COORD97":2544396.79,"ADDRESS":"安平路６０２之２號","OBJECTID":631674},"geometry":{"x":164843.96000000089,"y":2544396.7899999991}},{"attributes":{"ID":631702,"DIS_CODE":0,"TOWNNAME":"安平區","LI":"平安里","LIN":"17鄰","STREET":"安平路","SECT":" ","MAREA":" ","LANE":" ","ALLEY":" ","HOUSE_NO":"６０２號","E_COORD97":164852.47,"N_COORD97":2544396.0299999998,"ADDRESS":"安平路６０２號","OBJECTID":631675},"geometry":{"x":164852.47000000067,"y":2544396.0299999975}},{"attributes":{"ID":631703,"DIS_CODE":0,"TOWNNAME":"安平區","LI":"建平里","LIN":"17鄰","STREET":"文平路","SECT":" ","MAREA":" ","LANE":" ","ALLEY":" ","HOUSE_NO":"５０２號","E_COORD97":165846.25,"N_COORD97":2543990.1099999999,"ADDRESS":"文平路５０２號","OBJECTID":631676},"geometry":{"x":165846.25,"y":2543990.1100000013}},{"attributes":{"ID":631704,"DIS_CODE":0,"TOWNNAME":"安平區","LI":"億載里","LIN":"17鄰","STREET":"府平路","SECT":" ","MAREA":" ","LANE":" ","ALLEY":" ","HOUSE_NO":"５３５號","E_COORD97":164181.35999999999,"N_COORD97":2543088.2200000002,"ADDRESS":"府平路５３５號","OBJECTID":631677},"geometry":{"x":164181.36000000034,"y":2543088.2200000025}},{"attributes":{"ID":631705,"DIS_CODE":0,"TOWNNAME":"安平區","LI":"文平里","LIN":" ","STREET":"建平三街","SECT":" ","MAREA":" ","LANE":" ","ALLEY":" ","HOUSE_NO":"１２０－１號","E_COORD97":165812.29999999999,"N_COORD97":2543162.2999999998,"ADDRESS":"建平三街１２０－１號","OBJECTID":631678},"geometry":{"x":165812.29999999888,"y":2543162.3000000026}},{"attributes":{"ID":631706,"DIS_CODE":0,"TOWNNAME":"安平區","LI":"文平里","LIN":" ","STREET":"建平三街","SECT":" ","MAREA":" ","LANE":" ","ALLEY":" ","HOUSE_NO":"１２０－９號","E_COORD97":165775.66,"N_COORD97":2543165.7400000002,"ADDRESS":"建平三街１２０－９號","OBJECTID":631679},"geometry":{"x":165775.66000000015,"y":2543165.7400000021}},{"attributes":{"ID":631707,"DIS_CODE":0,"TOWNNAME":"安平區","LI":"石門里","LIN":"18鄰","STREET":"\u25A0忠街","SECT":" ","MAREA":" ","LANE":" ","ALLEY":" ","HOUSE_NO":"１１號","E_COORD97":164367.67999999999,"N_COORD97":2544600.6200000001,"ADDRESS":"\u25A0忠街１１號","OBJECTID":631680},"geometry":{"x":164367.68000000063,"y":2544600.620000001}},{"attributes":{"ID":631708,"DIS_CODE":0,"TOWNNAME":"安平區","LI":"億載里","LIN":"17鄰","STREET":"健康四街","SECT":" ","MAREA":" ","LANE":" ","ALLEY":" ","HOUSE_NO":"５１號","E_COORD97":164184.39999999999,"N_COORD97":2543063.0800000001,"ADDRESS":"健康四街５１號","OBJECTID":631681},"geometry":{"x":164184.40000000037,"y":2543063.0800000001}},{"attributes":{"ID":631709,"DIS_CODE":0,"TOWNNAME":"安平區","LI":"平通里","LIN":" ","STREET":"育平九街","SECT":" ","MAREA":" ","LANE":" ","ALLEY":" ","HOUSE_NO":"２４８－２號","E_COORD97":164880.26000000001,"N_COORD97":2544029.2000000002,"ADDRESS":"育平九街２４８－２號","OBJECTID":631682},"geometry":{"x":164880.26000000164,"y":2544029.2000000011}},{"attributes":{"ID":631710,"DIS_CODE":0,"TOWNNAME":"安平區","LI":"怡平里","LIN":" ","STREET":"永華六街","SECT":" ","MAREA":" ","LANE":" ","ALLEY":" ","HOUSE_NO":"１５２之６號","E_COORD97":165647.38,"N_COORD97":2543931.6200000001,"ADDRESS":"永華六街１５２之６號","OBJECTID":631683},"geometry":{"x":165647.37999999896,"y":2543931.620000001}},{"attributes":{"ID":631711,"DIS_CODE":0,"TOWNNAME":"安平區","LI":"怡平里","LIN":"18鄰","STREET":"永華六街","SECT":" ","MAREA":" ","LANE":" ","ALLEY":" ","HOUSE_NO":"１５０號","E_COORD97":165643.81,"N_COORD97":2543901.46,"ADDRESS":"永華六街１５０號","OBJECTID":631684},"geometry":{"x":165643.80999999959,"y":2543901.4600000028}},{"attributes":{"ID":631712,"DIS_CODE":0,"TOWNNAME":"安平區","LI":"華平里","LIN":"4鄰","STREET":"光州六街","SECT":" ","MAREA":" ","LANE":" ","ALLEY":" ","HOUSE_NO":"２８號","E_COORD97":164338.95000000001,"N_COORD97":2543551.0899999999,"ADDRESS":"光州六街２８號","OBJECTID":631685},"geometry":{"x":164338.95000000112,"y":2543551.0899999999}},{"attributes":{"ID":631713,"DIS_CODE":0,"TOWNNAME":"安平區","LI":"國平里","LIN":"4鄰","STREET":"文平路","SECT":" ","MAREA":" ","LANE":" ","ALLEY":" ","HOUSE_NO":"２４９號","E_COORD97":165724.23999999999,"N_COORD97":2543232.3300000001,"ADDRESS":"文平路２４９號","OBJECTID":631686},"geometry":{"x":165724.24000000022,"y":2543232.3300000038}},{"attributes":{"ID":631714,"DIS_CODE":0,"TOWNNAME":"安平區","LI":"怡平里","LIN":"25鄰","STREET":"華平路","SECT":" ","MAREA":" ","LANE":" ","ALLEY":" ","HOUSE_NO":"４５８號","E_COORD97":165453.85999999999,"N_COORD97":2543644.1699999999,"ADDRESS":"華平路４５８號","OBJECTID":631687},"geometry":{"x":165453.86000000127,"y":2543644.1700000018}},{"attributes":{"ID":631715,"DIS_CODE":0,"TOWNNAME":"安平區","LI":"文平里","LIN":"12鄰","STREET":"永華四街","SECT":" ","MAREA":" ","LANE":" ","ALLEY":" ","HOUSE_NO":"３５號","E_COORD97":165827.20999999999,"N_COORD97":2543235.25,"ADDRESS":"永華四街３５號","OBJECTID":631688},"geometry":{"x":165827.21000000089,"y":2543235.25}},{"attributes":{"ID":631716,"DIS_CODE":0,"TOWNNAME":"安平區","LI":"文平里","LIN":"6鄰","STREET":"永華二街","SECT":" ","MAREA":" ","LANE":" ","ALLEY":" ","HOUSE_NO":"９８號","E_COORD97":166373.69,"N_COORD97":2543006.8799999999,"ADDRESS":"永華二街９８號","OBJECTID":631689},"geometry":{"x":166373.69000000134,"y":2543006.8800000027}},{"attributes":{"ID":631717,"DIS_CODE":0,"TOWNNAME":"安平區","LI":"建平里","LIN":"5鄰","STREET":"慶平路","SECT":" ","MAREA":" ","LANE":" ","ALLEY":" ","HOUSE_NO":"９２號","E_COORD97":166105.01000000001,"N_COORD97":2544200.0899999999,"ADDRESS":"慶平路９２號","OBJECTID":631690},"geometry":{"x":166105.01000000071,"y":2544200.0900000017}},{"attributes":{"ID":631718,"DIS_CODE":0,"TOWNNAME":"安平區","LI":"億載里","LIN":"13鄰","STREET":"光州五街","SECT":" ","MAREA":" ","LANE":" ","ALLEY":" ","HOUSE_NO":"９６號","E_COORD97":164180.79000000001,"N_COORD97":2543300.5499999998,"ADDRESS":"光州五街９６號","OBJECTID":631691},"geometry":{"x":164180.79000000097,"y":2543300.5500000026}},{"attributes":{"ID":631719,"DIS_CODE":0,"TOWNNAME":"安平區","LI":"億載里","LIN":"13鄰","STREET":"光州五街","SECT":" ","MAREA":" ","LANE":" ","ALLEY":" ","HOUSE_NO":"９８號","E_COORD97":164186.34,"N_COORD97":2543299.23,"ADDRESS":"光州五街９８號","OBJECTID":631692},"geometry":{"x":164186.33999999892,"y":2543299.2300000023}},{"attributes":{"ID":631720,"DIS_CODE":0,"TOWNNAME":"安平區","LI":"億載里","LIN":"13鄰","STREET":"光州五街","SECT":" ","MAREA":" ","LANE":" ","ALLEY":" ","HOUSE_NO":"１００號","E_COORD97":164189.51999999999,"N_COORD97":2543302.5299999998,"ADDRESS":"光州五街１００號","OBJECTID":631693},"geometry":{"x":164189.51999999955,"y":2543302.5300000012}},{"attributes":{"ID":631721,"DIS_CODE":0,"TOWNNAME":"安平區","LI":"億載里","LIN":"13鄰","STREET":"光州五街","SECT":" ","MAREA":" ","LANE":" ","ALLEY":" ","HOUSE_NO":"１０２號","E_COORD97":164194.54999999999,"N_COORD97":2543301.7400000002,"ADDRESS":"光州五街１０２號","OBJECTID":631694},"geometry":{"x":164194.54999999981,"y":2543301.7400000021}},{"attributes":{"ID":631722,"DIS_CODE":0,"TOWNNAME":"安平區","LI":"億載里","LIN":"4鄰","STREET":"安億路","SECT":" ","MAREA":" ","LANE":" ","ALLEY":" ","HOUSE_NO":"１３０號","E_COORD97":163592.73000000001,"N_COORD97":2543647.9100000001,"ADDRESS":"安億路１３０號","OBJECTID":631695},"geometry":{"x":163592.72999999952,"y":2543647.9100000001}},{"attributes":{"ID":631723,"DIS_CODE":0,"TOWNNAME":"安平區","LI":"建平里","LIN":"19鄰","STREET":"文平路","SECT":" ","MAREA":" ","LANE":" ","ALLEY":" ","HOUSE_NO":"４６２號","E_COORD97":165830.34,"N_COORD97":2543852.8599999999,"ADDRESS":"文平路４６２號","OBJECTID":631696},"geometry":{"x":165830.33999999985,"y":2543852.8600000013}},{"attributes":{"ID":631724,"DIS_CODE":0,"TOWNNAME":"安平區","LI":"建平里","LIN":"5鄰","STREET":"慶平路","SECT":" ","MAREA":" ","LANE":" ","ALLEY":" ","HOUSE_NO":"１０６號","E_COORD97":166055.51000000001,"N_COORD97":2544204.04,"ADDRESS":"慶平路１０６號","OBJECTID":631697},"geometry":{"x":166055.51000000071,"y":2544204.040000001}},{"attributes":{"ID":631725,"DIS_CODE":0,"TOWNNAME":"安平區","LI":"建平里","LIN":"5鄰","STREET":"慶平路","SECT":" ","MAREA":" ","LANE":" ","ALLEY":" ","HOUSE_NO":"１０８號","E_COORD97":166053,"N_COORD97":2544202.0499999998,"ADDRESS":"慶平路１０８號","OBJECTID":631698},"geometry":{"x":166053,"y":2544202.0500000026}},{"attributes":{"ID":631726,"DIS_CODE":0,"TOWNNAME":"安平區","LI":"建平里","LIN":"5鄰","STREET":"慶平路","SECT":" ","MAREA":" ","LANE":" ","ALLEY":" ","HOUSE_NO":"１１０號","E_COORD97":166050.60999999999,"N_COORD97":2544203.8999999999,"ADDRESS":"慶平路１１０號","OBJECTID":631699},"geometry":{"x":166050.61000000127,"y":2544203.9000000004}},{"attributes":{"ID":631727,"DIS_CODE":0,"TOWNNAME":"安平區","LI":"華平里","LIN":"8鄰","STREET":"育平九街","SECT":" ","MAREA":" ","LANE":" ","ALLEY":" ","HOUSE_NO":"２３號","E_COORD97":165401.76999999999,"N_COORD97":2543941.3399999999,"ADDRESS":"育平九街２３號","OBJECTID":631700},"geometry":{"x":165401.76999999955,"y":2543941.3400000017}},{"attributes":{"ID":631728,"DIS_CODE":0,"TOWNNAME":"安平區","LI":"華平里","LIN":"12鄰","STREET":"健康二街","SECT":" ","MAREA":" ","LANE":" ","ALLEY":" ","HOUSE_NO":"３９８－１號","E_COORD97":165325.56,"N_COORD97":2543649.8799999999,"ADDRESS":"健康二街３９８－１號","OBJECTID":631701},"geometry":{"x":165325.56000000145,"y":2543649.879999999}},{"attributes":{"ID":631729,"DIS_CODE":0,"TOWNNAME":"安平區","LI":"華平里","LIN":"12鄰","STREET":"健康二街","SECT":" ","MAREA":" ","LANE":" ","ALLEY":" ","HOUSE_NO":"４００號","E_COORD97":165325.56,"N_COORD97":2543657.29,"ADDRESS":"健康二街４００號","OBJECTID":631702},"geometry":{"x":165325.56000000145,"y":2543657.2899999991}},{"attributes":{"ID":631730,"DIS_CODE":0,"TOWNNAME":"安平區","LI":"華平里","LIN":"12鄰","STREET":"健康二街","SECT":" ","MAREA":" ","LANE":" ","ALLEY":" ","HOUSE_NO":"４０２號","E_COORD97":165326.35000000001,"N_COORD97":2543663.1099999999,"ADDRESS":"健康二街４０２號","OBJECTID":631703},"geometry":{"x":165326.34999999963,"y":2543663.1099999994}},{"attributes":{"ID":631731,"DIS_CODE":0,"TOWNNAME":"安平區","LI":"億載里","LIN":"2鄰","STREET":"永華十一街","SECT":" ","MAREA":" ","LANE":" ","ALLEY":" ","HOUSE_NO":"３５號","E_COORD97":163972.70999999999,"N_COORD97":2543821.8799999999,"ADDRESS":"永華十一街３５號","OBJECTID":631704},"geometry":{"x":163972.71000000089,"y":2543821.8800000008}},{"attributes":{"ID":631732,"DIS_CODE":0,"TOWNNAME":"安平區","LI":"億載里","LIN":"2鄰","STREET":"永華十一街","SECT":" ","MAREA":" ","LANE":" ","ALLEY":" ","HOUSE_NO":"３７號","E_COORD97":163967.63,"N_COORD97":2543821.0899999999,"ADDRESS":"永華十一街３７號","OBJECTID":631705},"geometry":{"x":163967.63000000175,"y":2543821.0900000017}},{"attributes":{"ID":631733,"DIS_CODE":0,"TOWNNAME":"安平區","LI":"億載里","LIN":"17鄰","STREET":"光州二街","SECT":" ","MAREA":" ","LANE":" ","ALLEY":" ","HOUSE_NO":"８０號","E_COORD97":164250.286945,"N_COORD97":2543041.77293,"ADDRESS":"光州二街８０號","OBJECTID":631706},"geometry":{"x":164250.28694500122,"y":2543041.7729330026}},{"attributes":{"ID":631734,"DIS_CODE":0,"TOWNNAME":"安平區","LI":"文平里","LIN":"17鄰","STREET":"建平三街","SECT":" ","MAREA":" ","LANE":" ","ALLEY":" ","HOUSE_NO":"７５號","E_COORD97":165724.32999999999,"N_COORD97":2542920.73,"ADDRESS":"建平三街７５號","OBJECTID":631707},"geometry":{"x":165724.33000000194,"y":2542920.7300000004}},{"attributes":{"ID":631735,"DIS_CODE":0,"TOWNNAME":"安平區","LI":"億載里","LIN":"14鄰","STREET":"光州四街","SECT":" ","MAREA":" ","LANE":" ","ALLEY":" ","HOUSE_NO":"９７號","E_COORD97":164214.51999999999,"N_COORD97":2543213.9199999999,"ADDRESS":"光州四街９７號","OBJECTID":631708},"geometry":{"x":164214.52000000048,"y":2543213.9199999999}},{"attributes":{"ID":631736,"DIS_CODE":0,"TOWNNAME":"安平區","LI":"億載里","LIN":"14鄰","STREET":"光州四街","SECT":" ","MAREA":" ","LANE":" ","ALLEY":" ","HOUSE_NO":"９９號","E_COORD97":164220.70999999999,"N_COORD97":2543214.23,"ADDRESS":"光州四街９９號","OBJECTID":631709},"geometry":{"x":164220.70999999996,"y":2543214.2300000023}},{"attributes":{"ID":631737,"DIS_CODE":0,"TOWNNAME":"安平區","LI":"石門里","LIN":"14鄰","STREET":"安北路","SECT":" ","MAREA":" ","LANE":" ","ALLEY":" ","HOUSE_NO":"２９號","E_COORD97":164641.42000000001,"N_COORD97":2544667.77,"ADDRESS":"安北路２９號","OBJECTID":631710},"geometry":{"x":164641.41999999993,"y":2544667.7700000014}},{"attributes":{"ID":631738,"DIS_CODE":0,"TOWNNAME":"安平區","LI":"石門里","LIN":"7鄰","STREET":"安北路","SECT":" ","MAREA":" ","LANE":" ","ALLEY":" ","HOUSE_NO":"３１號","E_COORD97":164637.29000000001,"N_COORD97":2544671.1099999999,"ADDRESS":"安北路３１號","OBJECTID":631711},"geometry":{"x":164637.29000000004,"y":2544671.1100000013}},{"attributes":{"ID":631739,"DIS_CODE":0,"TOWNNAME":"安平區","LI":"石門里","LIN":"7鄰","STREET":"安北路","SECT":" ","MAREA":" ","LANE":" ","ALLEY":" ","HOUSE_NO":"３５號","E_COORD97":164628.72,"N_COORD97":2544679.6800000002,"ADDRESS":"安北路３５號","OBJECTID":631712},"geometry":{"x":164628.72000000067,"y":2544679.6799999997}},{"attributes":{"ID":631740,"DIS_CODE":0,"TOWNNAME":"安平區","LI":"建平里","LIN":"11鄰","STREET":"建平路","SECT":" ","MAREA":" ","LANE":" ","ALLEY":" ","HOUSE_NO":"７２７號","E_COORD97":166346.48999999999,"N_COORD97":2544129.21,"ADDRESS":"建平路７２７號","OBJECTID":631713},"geometry":{"x":166346.49000000022,"y":2544129.2100000028}},{"attributes":{"ID":631741,"DIS_CODE":0,"TOWNNAME":"安平區","LI":"育平里","LIN":"33鄰","STREET":"育平路","SECT":" ","MAREA":" ","LANE":" ","ALLEY":" ","HOUSE_NO":"２０５號","E_COORD97":164595.48000000001,"N_COORD97":2543476.4199999999,"ADDRESS":"育平路２０５號","OBJECTID":631714},"geometry":{"x":164595.48000000138,"y":2543476.4200000018}},{"attributes":{"ID":631742,"DIS_CODE":0,"TOWNNAME":"安平區","LI":"育平里","LIN":"33鄰","STREET":"育平路","SECT":" ","MAREA":" ","LANE":" ","ALLEY":" ","HOUSE_NO":"２０７號","E_COORD97":164595.79999999999,"N_COORD97":2543483.5600000001,"ADDRESS":"育平路２０７號","OBJECTID":631715},"geometry":{"x":164595.80000000075,"y":2543483.5600000024}},{"attributes":{"ID":631743,"DIS_CODE":0,"TOWNNAME":"安平區","LI":"石門里","LIN":"10鄰","STREET":"安北路","SECT":" ","MAREA":" ","LANE":" ","ALLEY":" ","HOUSE_NO":"２５號","E_COORD97":164648.25,"N_COORD97":2544662.0600000001,"ADDRESS":"安北路２５號","OBJECTID":631716},"geometry":{"x":164648.24999999907,"y":2544662.0600000024}},{"attributes":{"ID":631744,"DIS_CODE":0,"TOWNNAME":"安平區","LI":"石門里","LIN":"10鄰","STREET":"安北路","SECT":" ","MAREA":" ","LANE":" ","ALLEY":" ","HOUSE_NO":"２７號","E_COORD97":164644.75,"N_COORD97":2544665.23,"ADDRESS":"安北路２７號","OBJECTID":631717},"geometry":{"x":164644.75,"y":2544665.2300000023}},{"attributes":{"ID":631745,"DIS_CODE":0,"TOWNNAME":"安平區","LI":"石門里","LIN":"10鄰","STREET":"安北路","SECT":" ","MAREA":" ","LANE":" ","ALLEY":" ","HOUSE_NO":"３７號","E_COORD97":164654.60000000001,"N_COORD97":2544672.2200000002,"ADDRESS":"安北路３７號","OBJECTID":631718},"geometry":{"x":164654.60000000056,"y":2544672.2200000025}},{"attributes":{"ID":631746,"DIS_CODE":0,"TOWNNAME":"安平區","LI":"石門里","LIN":"10鄰","STREET":"安北路","SECT":" ","MAREA":" ","LANE":" ","ALLEY":" ","HOUSE_NO":"３９號","E_COORD97":164647.13,"N_COORD97":2544676.3399999999,"ADDRESS":"安北路３９號","OBJECTID":631719},"geometry":{"x":164647.12999999989,"y":2544676.3400000036}},{"attributes":{"ID":631747,"DIS_CODE":0,"TOWNNAME":"安平區","LI":"育平里","LIN":"38鄰","STREET":"育平一街","SECT":" ","MAREA":" ","LANE":" ","ALLEY":" ","HOUSE_NO":"２號","E_COORD97":164492.26999999999,"N_COORD97":2542949.7400000002,"ADDRESS":"育平一街２號","OBJECTID":631720},"geometry":{"x":164492.27000000048,"y":2542949.7400000021}},{"attributes":{"ID":631748,"DIS_CODE":0,"TOWNNAME":"安平區","LI":"金城里","LIN":"12鄰","STREET":"世平一街","SECT":" ","MAREA":" ","LANE":" ","ALLEY":" ","HOUSE_NO":"５６號","E_COORD97":162873.72,"N_COORD97":2543977.71,"ADDRESS":"世平一街５６號","OBJECTID":631721},"geometry":{"x":162873.72000000067,"y":2543977.7100000028}},{"attributes":{"ID":631749,"DIS_CODE":0,"TOWNNAME":"安平區","LI":"華平里","LIN":"28鄰","STREET":"平通路","SECT":" ","MAREA":" ","LANE":" ","ALLEY":" ","HOUSE_NO":"４２１－１號","E_COORD97":165358.28,"N_COORD97":2543750.6600000001,"ADDRESS":"平通路４２１－１號","OBJECTID":631722},"geometry":{"x":165358.28000000026,"y":2543750.6600000001}},{"attributes":{"ID":631750,"DIS_CODE":0,"TOWNNAME":"安平區","LI":"億載里","LIN":"4鄰","STREET":"永華路","SECT":"二段","MAREA":" ","LANE":" ","ALLEY":" ","HOUSE_NO":"１３５６號","E_COORD97":163636.13,"N_COORD97":2543560.5899999999,"ADDRESS":"永華路二段１３５６號","OBJECTID":631723},"geometry":{"x":163636.13000000082,"y":2543560.5900000017}},{"attributes":{"ID":631751,"DIS_CODE":0,"TOWNNAME":"安平區","LI":"平安里","LIN":"4鄰","STREET":"民權路","SECT":"四段","MAREA":" ","LANE":" ","ALLEY":" ","HOUSE_NO":"１８５號","E_COORD97":166063.20999999999,"N_COORD97":2544405.21,"ADDRESS":"民權路四段１８５號","OBJECTID":631724},"geometry":{"x":166063.20999999996,"y":2544405.2100000009}},{"attributes":{"ID":631752,"DIS_CODE":0,"TOWNNAME":"安平區","LI":"國平里","LIN":"32鄰","STREET":"健康三街","SECT":" ","MAREA":" ","LANE":" ","ALLEY":" ","HOUSE_NO":"３４２號","E_COORD97":164811.45000000001,"N_COORD97":2542832.52,"ADDRESS":"健康三街３４２號","OBJECTID":631725},"geometry":{"x":164811.45000000019,"y":2542832.5199999996}},{"attributes":{"ID":631753,"DIS_CODE":0,"TOWNNAME":"安平區","LI":"國平里","LIN":"32鄰","STREET":"健康路","SECT":"三段","MAREA":" ","LANE":" ","ALLEY":" ","HOUSE_NO":"３３２號","E_COORD97":164845.85000000001,"N_COORD97":2542828.2799999998,"ADDRESS":"健康路三段３３２號","OBJECTID":631726},"geometry":{"x":164845.85000000056,"y":2542828.2800000031}},{"attributes":{"ID":631754,"DIS_CODE":0,"TOWNNAME":"安平區","LI":"國平里","LIN":"32鄰","STREET":"健康路","SECT":"三段","MAREA":" ","LANE":" ","ALLEY":" ","HOUSE_NO":"３３６號","E_COORD97":164837.91,"N_COORD97":2542828.8100000001,"ADDRESS":"健康路三段３３６號","OBJECTID":631727},"geometry":{"x":164837.91000000108,"y":2542828.8100000005}},{"attributes":{"ID":631755,"DIS_CODE":0,"TOWNNAME":"安平區","LI":"國平里","LIN":"32鄰","STREET":"健康路","SECT":"三段","MAREA":" ","LANE":" ","ALLEY":" ","HOUSE_NO":"３３８號","E_COORD97":164828.91,"N_COORD97":2542830.9300000002,"ADDRESS":"健康路三段３３８號","OBJECTID":631728},"geometry":{"x":164828.91000000201,"y":2542830.9300000034}},{"attributes":{"ID":631756,"DIS_CODE":0,"TOWNNAME":"安平區","LI":"建平里","LIN":"24鄰","STREET":"永華五街","SECT":" ","MAREA":" ","LANE":" ","ALLEY":" ","HOUSE_NO":"５８號","E_COORD97":165916.69,"N_COORD97":2543673.4100000001,"ADDRESS":"永華五街５８號","OBJECTID":631729},"geometry":{"x":165916.69000000041,"y":2543673.410000002}},{"attributes":{"ID":631757,"DIS_CODE":0,"TOWNNAME":"新營區","LI":"大宏里","LIN":" ","STREET":"大同路","SECT":" ","MAREA":" ","LANE":" ","ALLEY":" ","HOUSE_NO":"３３之１號","E_COORD97":180701.70000000001,"N_COORD97":2578715.6600000001,"ADDRESS":"大同路３３之１號","OBJECTID":631730},"geometry":{"x":180701.70000000019,"y":2578715.6600000001}},{"attributes":{"ID":631758,"DIS_CODE":0,"TOWNNAME":"新營區","LI":"嘉芳里","LIN":"13鄰","STREET":"復興路","SECT":" ","MAREA":" ","LANE":" ","ALLEY":" ","HOUSE_NO":"１００１號","E_COORD97":176702.29999999999,"N_COORD97":2578719.3599999999,"ADDRESS":"復興路１００１號","OBJECTID":631731},"geometry":{"x":176702.30000000168,"y":2578719.3600000013}},{"attributes":{"ID":631759,"DIS_CODE":0,"TOWNNAME":"新營區","LI":"嘉芳里","LIN":"14鄰","STREET":"新工路","SECT":" ","MAREA":" ","LANE":" ","ALLEY":" ","HOUSE_NO":"７號","E_COORD97":176579.42999999999,"N_COORD97":2578618.0699999998,"ADDRESS":"新工路７號","OBJECTID":631732},"geometry":{"x":176579.43000000063,"y":2578618.0700000003}},{"attributes":{"ID":631760,"DIS_CODE":0,"TOWNNAME":"新營區","LI":"大宏里","LIN":"4鄰","STREET":"民族路","SECT":" ","MAREA":" ","LANE":" ","ALLEY":" ","HOUSE_NO":"１９號","E_COORD97":180281.29999999999,"N_COORD97":2578610.1400000001,"ADDRESS":"民族路１９號","OBJECTID":631733},"geometry":{"x":180281.30000000075,"y":2578610.1400000025}},{"attributes":{"ID":631761,"DIS_CODE":0,"TOWNNAME":"新營區","LI":"延平里","LIN":" ","STREET":"復興路","SECT":" ","MAREA":" ","LANE":" ","ALLEY":" ","HOUSE_NO":"１之９４號","E_COORD97":179713.92999999999,"N_COORD97":2577935.1299999999,"ADDRESS":"復興路１之９４號","OBJECTID":631734},"geometry":{"x":179713.93000000063,"y":2577935.129999999}},{"attributes":{"ID":631762,"DIS_CODE":0,"TOWNNAME":"新營區","LI":"新南里","LIN":"4鄰","STREET":"新北三街","SECT":" ","MAREA":" ","LANE":" ","ALLEY":" ","HOUSE_NO":"３０之６號","E_COORD97":178577.89999999999,"N_COORD97":2578849.79,"ADDRESS":"新北三街３０之６號","OBJECTID":631735},"geometry":{"x":178577.9000000013,"y":2578849.7899999991}},{"attributes":{"ID":631763,"DIS_CODE":0,"TOWNNAME":"新營區","LI":"新東里","LIN":"18鄰","STREET":"東興四街","SECT":" ","MAREA":" ","LANE":" ","ALLEY":" ","HOUSE_NO":"１８號","E_COORD97":180852.60999999999,"N_COORD97":2579168.9500000002,"ADDRESS":"東興四街１８號","OBJECTID":631736},"geometry":{"x":180852.61000000127,"y":2579168.9500000011}},{"attributes":{"ID":631764,"DIS_CODE":0,"TOWNNAME":"新營區","LI":"民榮里","LIN":"32鄰","STREET":"太子路","SECT":" ","MAREA":" ","LANE":" ","ALLEY":" ","HOUSE_NO":"６９號","E_COORD97":178271.76999999999,"N_COORD97":2578051.6200000001,"ADDRESS":"太子路６９號","OBJECTID":631737},"geometry":{"x":178271.76999999955,"y":2578051.6200000029}},{"attributes":{"ID":631765,"DIS_CODE":0,"TOWNNAME":"新營區","LI":"埤寮里","LIN":"13鄰","STREET":"中正路","SECT":" ","MAREA":" ","LANE":" ","ALLEY":" ","HOUSE_NO":"４３７號","E_COORD97":180046.20999999999,"N_COORD97":2580312.3100000001,"ADDRESS":"中正路４３７號","OBJECTID":631738},"geometry":{"x":180046.21000000089,"y":2580312.3100000005}},{"attributes":{"ID":631766,"DIS_CODE":0,"TOWNNAME":"新營區","LI":"延平里","LIN":" ","STREET":"長春街","SECT":" ","MAREA":" ","LANE":" ","ALLEY":" ","HOUSE_NO":"８８之１號","E_COORD97":179633.81,"N_COORD97":2577849.1200000001,"ADDRESS":"長春街８８之１號","OBJECTID":631739},"geometry":{"x":179633.80999999959,"y":2577849.120000001}},{"attributes":{"ID":631767,"DIS_CODE":0,"TOWNNAME":"新營區","LI":"大宏里","LIN":" ","STREET":"三民路","SECT":" ","MAREA":" ","LANE":" ","ALLEY":" ","HOUSE_NO":"４１之４號","E_COORD97":180378.20000000001,"N_COORD97":2578440.3199999998,"ADDRESS":"三民路４１之４號","OBJECTID":631740},"geometry":{"x":180378.20000000019,"y":2578440.3200000003}},{"attributes":{"ID":631768,"DIS_CODE":0,"TOWNNAME":"新營區","LI":"王公里","LIN":"20鄰","STREET":"樂仁街","SECT":" ","MAREA":" ","LANE":" ","ALLEY":" ","HOUSE_NO":"８６號","E_COORD97":180528.89000000001,"N_COORD97":2579262.3900000001,"ADDRESS":"樂仁街８６號","OBJECTID":631741},"geometry":{"x":180528.88999999966,"y":2579262.3900000025}},{"attributes":{"ID":631769,"DIS_CODE":0,"TOWNNAME":"新營區","LI":"大宏里","LIN":"26鄰","STREET":"民族路","SECT":" ","MAREA":" ","LANE":" ","ALLEY":" ","HOUSE_NO":"７號之１５","E_COORD97":180290.85999999999,"N_COORD97":2578408.6000000001,"ADDRESS":"民族路７號之１５","OBJECTID":631742},"geometry":{"x":180290.86000000034,"y":2578408.6000000034}},{"attributes":{"ID":631770,"DIS_CODE":0,"TOWNNAME":"新營區","LI":"三仙里","LIN":"25鄰","STREET":"育德一街","SECT":" ","MAREA":" ","LANE":" ","ALLEY":" ","HOUSE_NO":"４０號","E_COORD97":179511.73999999999,"N_COORD97":2578944.9199999999,"ADDRESS":"育德一街４０號","OBJECTID":631743},"geometry":{"x":179511.74000000022,"y":2578944.9199999999}},{"attributes":{"ID":631771,"DIS_CODE":0,"TOWNNAME":"新營區","LI":"三仙里","LIN":"25鄰","STREET":"育德一街","SECT":" ","MAREA":" ","LANE":" ","ALLEY":" ","HOUSE_NO":"１４號","E_COORD97":179568.92000000001,"N_COORD97":2578941.3300000001,"ADDRESS":"育德一街１４號","OBJECTID":631744},"geometry":{"x":179568.92000000086,"y":2578941.3300000001}},{"attributes":{"ID":631772,"DIS_CODE":0,"TOWNNAME":"新營區","LI":"民權里","LIN":"18鄰","STREET":"民權路","SECT":" ","MAREA":" ","LANE":" ","ALLEY":" ","HOUSE_NO":"３８號之３","E_COORD97":179739.37,"N_COORD97":2578158.7200000002,"ADDRESS":"民權路３８號之３","OBJECTID":631745},"geometry":{"x":179739.37000000011,"y":2578158.7200000025}},{"attributes":{"ID":631773,"DIS_CODE":0,"TOWNNAME":"新營區","LI":"三仙里","LIN":"13鄰","STREET":"正義街","SECT":" ","MAREA":" ","LANE":" ","ALLEY":" ","HOUSE_NO":"６７號","E_COORD97":179625.07999999999,"N_COORD97":2578271.0499999998,"ADDRESS":"正義街６７號","OBJECTID":631746},"geometry":{"x":179625.08000000101,"y":2578271.0500000045}},{"attributes":{"ID":631774,"DIS_CODE":0,"TOWNNAME":"新營區","LI":"南紙里","LIN":"4鄰","STREET":"南紙街","SECT":" ","MAREA":" ","LANE":" ","ALLEY":" ","HOUSE_NO":"９號","E_COORD97":177831.39000000001,"N_COORD97":2577787.96,"ADDRESS":"南紙街９號","OBJECTID":631747},"geometry":{"x":177831.38999999966,"y":2577787.9600000028}},{"attributes":{"ID":631775,"DIS_CODE":0,"TOWNNAME":"新營區","LI":"延平里","LIN":"15鄰","STREET":"中原街","SECT":" ","MAREA":" ","LANE":" ","ALLEY":" ","HOUSE_NO":"５號之４","E_COORD97":179533.87,"N_COORD97":2577972.52,"ADDRESS":"中原街５號之４","OBJECTID":631748},"geometry":{"x":179533.87000000104,"y":2577972.5200000014}},{"attributes":{"ID":631776,"DIS_CODE":0,"TOWNNAME":"新營區","LI":"埤寮里","LIN":" ","STREET":"中正路","SECT":" ","MAREA":" ","LANE":" ","ALLEY":" ","HOUSE_NO":"５０４號","E_COORD97":180086.39000000001,"N_COORD97":2580820.4500000002,"ADDRESS":"中正路５０４號","OBJECTID":631749},"geometry":{"x":180086.38999999966,"y":2580820.4500000011}},{"attributes":{"ID":631777,"DIS_CODE":0,"TOWNNAME":"新營區","LI":"南興里","LIN":" ","STREET":"新進路","SECT":"二段","MAREA":" ","LANE":" ","ALLEY":" ","HOUSE_NO":"２１５之８號","E_COORD97":179060.60000000001,"N_COORD97":2577722.2999999998,"ADDRESS":"新進路二段２１５之８號","OBJECTID":631750},"geometry":{"x":179060.59999999963,"y":2577722.3000000007}},{"attributes":{"ID":631778,"DIS_CODE":0,"TOWNNAME":"新營區","LI":"王公里","LIN":"20鄰","STREET":"樂利街","SECT":" ","MAREA":" ","LANE":" ","ALLEY":" ","HOUSE_NO":"１０號","E_COORD97":180381.51000000001,"N_COORD97":2579257.54,"ADDRESS":"樂利街１０號","OBJECTID":631751},"geometry":{"x":180381.51000000071,"y":2579257.540000001}},{"attributes":{"ID":631779,"DIS_CODE":0,"TOWNNAME":"新營區","LI":"南興里","LIN":"26鄰","STREET":"建業路","SECT":" ","MAREA":" ","LANE":" ","ALLEY":" ","HOUSE_NO":"７２號","E_COORD97":179360.63,"N_COORD97":2577510.3799999999,"ADDRESS":"建業路７２號","OBJECTID":631752},"geometry":{"x":179360.63000000082,"y":2577510.379999999}},{"attributes":{"ID":631780,"DIS_CODE":0,"TOWNNAME":"新營區","LI":"大宏里","LIN":"24鄰","STREET":"民治路","SECT":" ","MAREA":" ","LANE":" ","ALLEY":" ","HOUSE_NO":"７號","E_COORD97":180518.54000000001,"N_COORD97":2578858.21,"ADDRESS":"民治路７號","OBJECTID":631753},"geometry":{"x":180518.5400000019,"y":2578858.2100000028}},{"attributes":{"ID":631781,"DIS_CODE":0,"TOWNNAME":"新營區","LI":"埤寮里","LIN":"14鄰","STREET":"中正路","SECT":" ","MAREA":" ","LANE":" ","ALLEY":" ","HOUSE_NO":"３８０號","E_COORD97":180072.81,"N_COORD97":2580311.0800000001,"ADDRESS":"中正路３８０號","OBJECTID":631754},"geometry":{"x":180072.81000000052,"y":2580311.0800000038}},{"attributes":{"ID":631782,"DIS_CODE":0,"TOWNNAME":"新營區","LI":"中營里","LIN":" ","STREET":"中山路","SECT":" ","MAREA":" ","LANE":" ","ALLEY":" ","HOUSE_NO":"６３號","E_COORD97":180590.07999999999,"N_COORD97":2578365.0600000001,"ADDRESS":"中山路６３號","OBJECTID":631755},"geometry":{"x":180590.08000000101,"y":2578365.0600000005}},{"attributes":{"ID":631783,"DIS_CODE":0,"TOWNNAME":"新營區","LI":"永生里","LIN":"18鄰","STREET":"新進路","SECT":" ","MAREA":" ","LANE":" ","ALLEY":" ","HOUSE_NO":"３３４號","E_COORD97":179909.57000000001,"N_COORD97":2577803.4700000002,"ADDRESS":"新進路３３４號","OBJECTID":631756},"geometry":{"x":179909.5700000003,"y":2577803.4700000044}},{"attributes":{"ID":631784,"DIS_CODE":0,"TOWNNAME":"新營區","LI":"王公里","LIN":"25鄰","STREET":"公正街","SECT":" ","MAREA":" ","LANE":" ","ALLEY":" ","HOUSE_NO":"１１２之１號","E_COORD97":180161.5,"N_COORD97":2579524.4300000002,"ADDRESS":"公正街１１２之１號","OBJECTID":631757},"geometry":{"x":180161.50000000093,"y":2579524.4299999997}},{"attributes":{"ID":631785,"DIS_CODE":0,"TOWNNAME":"新營區","LI":"大宏里","LIN":"13鄰","STREET":"中正路","SECT":" ","MAREA":" ","LANE":" ","ALLEY":" ","HOUSE_NO":"４之６號","E_COORD97":180204.79000000001,"N_COORD97":2578370.25,"ADDRESS":"中正路４之６號","OBJECTID":631758},"geometry":{"x":180204.7900000019,"y":2578370.2499999981}},{"attributes":{"ID":631786,"DIS_CODE":0,"TOWNNAME":"新營區","LI":"民生里","LIN":" ","STREET":"進修街","SECT":" ","MAREA":" ","LANE":" ","ALLEY":" ","HOUSE_NO":"２５之６９號","E_COORD97":178990.10999999999,"N_COORD97":2578594.2000000002,"ADDRESS":"進修街２５之６９號","OBJECTID":631759},"geometry":{"x":178990.11000000034,"y":2578594.2000000011}},{"attributes":{"ID":631787,"DIS_CODE":0,"TOWNNAME":"新營區","LI":"民生里","LIN":" ","STREET":"民生路","SECT":" ","MAREA":" ","LANE":" ","ALLEY":" ","HOUSE_NO":"５之２號","E_COORD97":179382.10000000001,"N_COORD97":2578106.1499999999,"ADDRESS":"民生路５之２號","OBJECTID":631760},"geometry":{"x":179382.10000000056,"y":2578106.1500000004}},{"attributes":{"ID":631788,"DIS_CODE":0,"TOWNNAME":"新營區","LI":"忠政里","LIN":"18鄰","STREET":"中正路","SECT":" ","MAREA":" ","LANE":" ","ALLEY":" ","HOUSE_NO":"２１５之３號","E_COORD97":180068.64999999999,"N_COORD97":2579774.0499999998,"ADDRESS":"中正路２１５之３號","OBJECTID":631761},"geometry":{"x":180068.65000000037,"y":2579774.0500000026}},{"attributes":{"ID":631789,"DIS_CODE":0,"TOWNNAME":"新營區","LI":"新南里","LIN":"20鄰","STREET":"民治路","SECT":" ","MAREA":" ","LANE":" ","ALLEY":" ","HOUSE_NO":"３７０號","E_COORD97":178705.79999999999,"N_COORD97":2578267.7000000002,"ADDRESS":"民治路３７０號","OBJECTID":631762},"geometry":{"x":178705.79999999981,"y":2578267.6999999993}},{"attributes":{"ID":631790,"DIS_CODE":0,"TOWNNAME":"新營區","LI":"新南里","LIN":"20鄰","STREET":"復興路","SECT":" ","MAREA":" ","LANE":" ","ALLEY":" ","HOUSE_NO":"３９８號","E_COORD97":178478.42000000001,"N_COORD97":2578205.6800000002,"ADDRESS":"復興路３９８號","OBJECTID":631763},"geometry":{"x":178478.42000000086,"y":2578205.6800000016}},{"attributes":{"ID":631791,"DIS_CODE":0,"TOWNNAME":"新營區","LI":"民榮里","LIN":"24鄰","STREET":"裕民路","SECT":" ","MAREA":" ","LANE":" ","ALLEY":" ","HOUSE_NO":"１４之４號","E_COORD97":179133.89999999999,"N_COORD97":2577923.5,"ADDRESS":"裕民路１４之４號","OBJECTID":631764},"geometry":{"x":179133.9000000013,"y":2577923.5}},{"attributes":{"ID":631792,"DIS_CODE":0,"TOWNNAME":"新營區","LI":"民權里","LIN":" ","STREET":"信義街","SECT":" ","MAREA":" ","LANE":" ","ALLEY":" ","HOUSE_NO":"８５之３號","E_COORD97":179728.32000000001,"N_COORD97":2578797.77,"ADDRESS":"信義街８５之３號","OBJECTID":631765},"geometry":{"x":179728.3200000003,"y":2578797.7700000014}},{"attributes":{"ID":631793,"DIS_CODE":0,"TOWNNAME":"新營區","LI":"民榮里","LIN":" ","STREET":"裕民路","SECT":" ","MAREA":" ","LANE":" ","ALLEY":" ","HOUSE_NO":"２５之６號","E_COORD97":179192.60000000001,"N_COORD97":2577779.25,"ADDRESS":"裕民路２５之６號","OBJECTID":631766},"geometry":{"x":179192.60000000056,"y":2577779.25}},{"attributes":{"ID":631794,"DIS_CODE":0,"TOWNNAME":"新營區","LI":"民榮里","LIN":" ","STREET":"裕民路","SECT":" ","MAREA":" ","LANE":" ","ALLEY":" ","HOUSE_NO":"２１之１號","E_COORD97":179221.45999999999,"N_COORD97":2577823.4100000001,"ADDRESS":"裕民路２１之１號","OBJECTID":631767},"geometry":{"x":179221.45999999996,"y":2577823.4100000001}},{"attributes":{"ID":631795,"DIS_CODE":0,"TOWNNAME":"新營區","LI":"新南里","LIN":"20鄰","STREET":"復興路","SECT":" ","MAREA":" ","LANE":" ","ALLEY":" ","HOUSE_NO":"３５６號","E_COORD97":178587.70999999999,"N_COORD97":2578173.0299999998,"ADDRESS":"復興路３５６號","OBJECTID":631768},"geometry":{"x":178587.70999999996,"y":2578173.0299999993}},{"attributes":{"ID":631796,"DIS_CODE":0,"TOWNNAME":"新營區","LI":"三仙里","LIN":"25鄰","STREET":"育德一街","SECT":" ","MAREA":" ","LANE":" ","ALLEY":" ","HOUSE_NO":"３４號","E_COORD97":179514.76000000001,"N_COORD97":2578931.6200000001,"ADDRESS":"育德一街３４號","OBJECTID":631769},"geometry":{"x":179514.76000000164,"y":2578931.6199999992}},{"attributes":{"ID":631797,"DIS_CODE":0,"TOWNNAME":"新營區","LI":"延平里","LIN":"13鄰","STREET":"中原街","SECT":" ","MAREA":" ","LANE":" ","ALLEY":" ","HOUSE_NO":"１３號","E_COORD97":179541.96066800001,"N_COORD97":2577960.8623299999,"ADDRESS":"中原街１３號","OBJECTID":631770},"geometry":{"x":179541.96066800132,"y":2577960.8623249996}},{"attributes":{"ID":631798,"DIS_CODE":0,"TOWNNAME":"新營區","LI":"三仙里","LIN":"4鄰","STREET":"正義街","SECT":" ","MAREA":" ","LANE":" ","ALLEY":" ","HOUSE_NO":"１５之２號","E_COORD97":179648.10000000001,"N_COORD97":2578073.8700000001,"ADDRESS":"正義街１５之２號","OBJECTID":631771},"geometry":{"x":179648.10000000149,"y":2578073.8700000029}},{"attributes":{"ID":631799,"DIS_CODE":0,"TOWNNAME":"新營區","LI":"三仙里","LIN":" ","STREET":"民權路","SECT":" ","MAREA":" ","LANE":" ","ALLEY":" ","HOUSE_NO":"１１號","E_COORD97":179739.04000000001,"N_COORD97":2578062.5299999998,"ADDRESS":"民權路１１號","OBJECTID":631772},"geometry":{"x":179739.04000000097,"y":2578062.5299999975}},{"attributes":{"ID":631800,"DIS_CODE":0,"TOWNNAME":"新營區","LI":"三仙里","LIN":"20鄰","STREET":"三民路","SECT":" ","MAREA":" ","LANE":" ","ALLEY":" ","HOUSE_NO":"１４０號之７","E_COORD97":179531.14999999999,"N_COORD97":2578443.2200000002,"ADDRESS":"三民路１４０號之７","OBJECTID":631773},"geometry":{"x":179531.15000000037,"y":2578443.2200000025}},{"attributes":{"ID":631801,"DIS_CODE":0,"TOWNNAME":"新營區","LI":"民榮里","LIN":"32鄰","STREET":"太子路","SECT":" ","MAREA":" ","LANE":" ","ALLEY":" ","HOUSE_NO":"８７號","E_COORD97":178235.92999999999,"N_COORD97":2578031.8599999999,"ADDRESS":"太子路８７號","OBJECTID":631774},"geometry":{"x":178235.93000000063,"y":2578031.8599999994}},{"attributes":{"ID":631802,"DIS_CODE":0,"TOWNNAME":"新營區","LI":"民榮里","LIN":"24鄰","STREET":"復興路","SECT":" ","MAREA":" ","LANE":" ","ALLEY":" ","HOUSE_NO":"１５７之９號","E_COORD97":179098.67999999999,"N_COORD97":2577997.8799999999,"ADDRESS":"復興路１５７之９號","OBJECTID":631775},"geometry":{"x":179098.68000000063,"y":2577997.879999999}},{"attributes":{"ID":631803,"DIS_CODE":0,"TOWNNAME":"新營區","LI":"三仙里","LIN":"14鄰","STREET":"中華路","SECT":" ","MAREA":" ","LANE":" ","ALLEY":" ","HOUSE_NO":"６４號","E_COORD97":179543.92000000001,"N_COORD97":2578199.4500000002,"ADDRESS":"中華路６４號","OBJECTID":631776},"geometry":{"x":179543.91999999993,"y":2578199.4500000011}},{"attributes":{"ID":631804,"DIS_CODE":0,"TOWNNAME":"新營區","LI":"民榮里","LIN":" ","STREET":"復興路","SECT":" ","MAREA":" ","LANE":" ","ALLEY":" ","HOUSE_NO":"２５３號","E_COORD97":178799.01000000001,"N_COORD97":2578085.6299999999,"ADDRESS":"復興路２５３號","OBJECTID":631777},"geometry":{"x":178799.00999999978,"y":2578085.6300000027}},{"attributes":{"ID":631805,"DIS_CODE":0,"TOWNNAME":"新營區","LI":"三仙里","LIN":" ","STREET":"民治路","SECT":" ","MAREA":" ","LANE":" ","ALLEY":" ","HOUSE_NO":"７８之２３號","E_COORD97":179529.51999999999,"N_COORD97":2578895.0699999998,"ADDRESS":"民治路７８之２３號","OBJECTID":631778},"geometry":{"x":179529.51999999955,"y":2578895.0700000022}},{"attributes":{"ID":631806,"DIS_CODE":0,"TOWNNAME":"新營區","LI":"新南里","LIN":"20鄰","STREET":"復興路","SECT":" ","MAREA":" ","LANE":" ","ALLEY":" ","HOUSE_NO":"５３２號","E_COORD97":178182.17999999999,"N_COORD97":2578301.23,"ADDRESS":"復興路５３２號","OBJECTID":631779},"geometry":{"x":178182.1799999997,"y":2578301.2300000023}},{"attributes":{"ID":631807,"DIS_CODE":0,"TOWNNAME":"新營區","LI":"三仙里","LIN":"25鄰","STREET":"育德一街","SECT":" ","MAREA":" ","LANE":" ","ALLEY":" ","HOUSE_NO":"３８號","E_COORD97":179512.76000000001,"N_COORD97":2578940.4900000002,"ADDRESS":"育德一街３８號","OBJECTID":631780},"geometry":{"x":179512.75999999978,"y":2578940.4900000002}},{"attributes":{"ID":631808,"DIS_CODE":0,"TOWNNAME":"新營區","LI":"三仙里","LIN":"4鄰","STREET":"正義街","SECT":" ","MAREA":" ","LANE":" ","ALLEY":" ","HOUSE_NO":"１３號之４","E_COORD97":179613.95999999999,"N_COORD97":2578064.0699999998,"ADDRESS":"正義街１３號之４","OBJECTID":631781},"geometry":{"x":179613.96000000089,"y":2578064.0700000022}},{"attributes":{"ID":631809,"DIS_CODE":0,"TOWNNAME":"新營區","LI":"民榮里","LIN":" ","STREET":"復興路","SECT":" ","MAREA":" ","LANE":" ","ALLEY":" ","HOUSE_NO":"１５３之４號","E_COORD97":179205.10000000001,"N_COORD97":2578006.23,"ADDRESS":"復興路１５３之４號","OBJECTID":631782},"geometry":{"x":179205.09999999963,"y":2578006.2300000023}},{"attributes":{"ID":631810,"DIS_CODE":0,"TOWNNAME":"新營區","LI":"民榮里","LIN":" ","STREET":"裕民路","SECT":" ","MAREA":" ","LANE":" ","ALLEY":" ","HOUSE_NO":"１５之８號","E_COORD97":179172.20000000001,"N_COORD97":2577805.9300000002,"ADDRESS":"裕民路１５之８號","OBJECTID":631783},"geometry":{"x":179172.20000000112,"y":2577805.9299999978}},{"attributes":{"ID":631811,"DIS_CODE":0,"TOWNNAME":"新營區","LI":"新北里","LIN":"25鄰","STREET":"民治路","SECT":" ","MAREA":" ","LANE":" ","ALLEY":" ","HOUSE_NO":"１９０號","E_COORD97":178969.44,"N_COORD97":2578658.4700000002,"ADDRESS":"民治路１９０號","OBJECTID":631784},"geometry":{"x":178969.44000000041,"y":2578658.4700000025}},{"attributes":{"ID":631812,"DIS_CODE":0,"TOWNNAME":"新營區","LI":"延平里","LIN":"4鄰","STREET":"成功街","SECT":" ","MAREA":" ","LANE":" ","ALLEY":" ","HOUSE_NO":"３４號","E_COORD97":179697.93624400001,"N_COORD97":2577851.70695,"ADDRESS":"成功街３４號","OBJECTID":631785},"geometry":{"x":179697.93624400161,"y":2577851.7069450021}},{"attributes":{"ID":631813,"DIS_CODE":0,"TOWNNAME":"新營區","LI":"忠政里","LIN":"18鄰","STREET":"中正路","SECT":" ","MAREA":" ","LANE":" ","ALLEY":" ","HOUSE_NO":"２２５號之４","E_COORD97":180023.53,"N_COORD97":2579820.77,"ADDRESS":"中正路２２５號之４","OBJECTID":631786},"geometry":{"x":180023.53000000026,"y":2579820.7699999977}},{"attributes":{"ID":631814,"DIS_CODE":0,"TOWNNAME":"新營區","LI":"王公里","LIN":"25鄰","STREET":"中正路","SECT":" ","MAREA":" ","LANE":" ","ALLEY":" ","HOUSE_NO":"１３０之７號","E_COORD97":180100.23999999999,"N_COORD97":2579546.8599999999,"ADDRESS":"中正路１３０之７號","OBJECTID":631787},"geometry":{"x":180100.24000000209,"y":2579546.8600000013}},{"attributes":{"ID":631815,"DIS_CODE":0,"TOWNNAME":"新營區","LI":"嘉芳里","LIN":" ","STREET":"復興路","SECT":" ","MAREA":" ","LANE":" ","ALLEY":" ","HOUSE_NO":"１１０７之２號","E_COORD97":176416.59,"N_COORD97":2578766.25,"ADDRESS":"復興路１１０７之２號","OBJECTID":631788},"geometry":{"x":176416.58999999985,"y":2578766.25}},{"attributes":{"ID":631816,"DIS_CODE":0,"TOWNNAME":"新營區","LI":"延平里","LIN":"10鄰","STREET":"成功街","SECT":" ","MAREA":" ","LANE":" ","ALLEY":" ","HOUSE_NO":"４２號之１","E_COORD97":179624.07999999999,"N_COORD97":2577951.0600000001,"ADDRESS":"成功街４２號之１","OBJECTID":631789},"geometry":{"x":179624.08000000007,"y":2577951.0600000005}},{"attributes":{"ID":631817,"DIS_CODE":0,"TOWNNAME":"新營區","LI":"新東里","LIN":"20鄰","STREET":"東明街","SECT":" ","MAREA":" ","LANE":" ","ALLEY":" ","HOUSE_NO":"８號","E_COORD97":180815.45999999999,"N_COORD97":2579567.7999999998,"ADDRESS":"東明街８號","OBJECTID":631790},"geometry":{"x":180815.45999999903,"y":2579567.8000000045}},{"attributes":{"ID":631818,"DIS_CODE":0,"TOWNNAME":"新營區","LI":"南紙里","LIN":"14鄰","STREET":"南紙街","SECT":" ","MAREA":" ","LANE":" ","ALLEY":" ","HOUSE_NO":"１２８號","E_COORD97":177793.26999999999,"N_COORD97":2577421.5899999999,"ADDRESS":"南紙街１２８號","OBJECTID":631791},"geometry":{"x":177793.26999999955,"y":2577421.5899999999}},{"attributes":{"ID":631819,"DIS_CODE":0,"TOWNNAME":"新營區","LI":"新南里","LIN":"4鄰","STREET":"新北三街","SECT":" ","MAREA":" ","LANE":" ","ALLEY":" ","HOUSE_NO":"１２之２號","E_COORD97":178614.66,"N_COORD97":2578854.04,"ADDRESS":"新北三街１２之２號","OBJECTID":631792},"geometry":{"x":178614.66000000108,"y":2578854.040000001}},{"attributes":{"ID":631820,"DIS_CODE":0,"TOWNNAME":"新營區","LI":"中營里","LIN":" ","STREET":"東山路","SECT":" ","MAREA":" ","LANE":" ","ALLEY":" ","HOUSE_NO":"１４８號","E_COORD97":181746.67000000001,"N_COORD97":2578701.8900000001,"ADDRESS":"東山路１４８號","OBJECTID":631793},"geometry":{"x":181746.67000000086,"y":2578701.8900000006}},{"attributes":{"ID":631821,"DIS_CODE":0,"TOWNNAME":"新營區","LI":"民榮里","LIN":"25鄰","STREET":"新進路","SECT":"二段","MAREA":" ","LANE":" ","ALLEY":" ","HOUSE_NO":"１７３號","E_COORD97":179301.45999999999,"N_COORD97":2577717.77,"ADDRESS":"新進路二段１７３號","OBJECTID":631794},"geometry":{"x":179301.45999999996,"y":2577717.7699999996}},{"attributes":{"ID":631822,"DIS_CODE":0,"TOWNNAME":"新營區","LI":"新北里","LIN":"4鄰","STREET":"周武街","SECT":" ","MAREA":" ","LANE":" ","ALLEY":" ","HOUSE_NO":"１２６號","E_COORD97":179331.62,"N_COORD97":2579107.4700000002,"ADDRESS":"周武街１２６號","OBJECTID":631795},"geometry":{"x":179331.62000000104,"y":2579107.4700000007}},{"attributes":{"ID":631823,"DIS_CODE":0,"TOWNNAME":"新營區","LI":"嘉芳里","LIN":" ","STREET":"復興路","SECT":" ","MAREA":" ","LANE":" ","ALLEY":" ","HOUSE_NO":"９５６之３號","E_COORD97":176545.32000000001,"N_COORD97":2578787.75,"ADDRESS":"復興路９５６之３號","OBJECTID":631796},"geometry":{"x":176545.32000000123,"y":2578787.7500000037}},{"attributes":{"ID":631824,"DIS_CODE":0,"TOWNNAME":"新營區","LI":"民榮里","LIN":" ","STREET":"復興路","SECT":" ","MAREA":" ","LANE":" ","ALLEY":" ","HOUSE_NO":"１６９之１４號","E_COORD97":178869.5,"N_COORD97":2577939.1800000002,"ADDRESS":"復興路１６９之１４號","OBJECTID":631797},"geometry":{"x":178869.50000000093,"y":2577939.1799999997}},{"attributes":{"ID":631825,"DIS_CODE":0,"TOWNNAME":"新營區","LI":"民生里","LIN":" ","STREET":"復興路","SECT":" ","MAREA":" ","LANE":" ","ALLEY":" ","HOUSE_NO":"１３４之２號","E_COORD97":179348.53,"N_COORD97":2578053.1600000001,"ADDRESS":"復興路１３４之２號","OBJECTID":631798},"geometry":{"x":179348.53000000026,"y":2578053.160000002}},{"attributes":{"ID":631826,"DIS_CODE":0,"TOWNNAME":"新營區","LI":"新東里","LIN":"18鄰","STREET":"東興四街","SECT":" ","MAREA":" ","LANE":" ","ALLEY":" ","HOUSE_NO":"２０號","E_COORD97":180857.79000000001,"N_COORD97":2579167.8199999998,"ADDRESS":"東興四街２０號","OBJECTID":631799},"geometry":{"x":180857.79000000097,"y":2579167.8200000022}},{"attributes":{"ID":631827,"DIS_CODE":0,"TOWNNAME":"新營區","LI":"土庫里","LIN":"18鄰","STREET":"開元路","SECT":" ","MAREA":" ","LANE":" ","ALLEY":" ","HOUSE_NO":"１５０號","E_COORD97":181937.63,"N_COORD97":2579746.4399999999,"ADDRESS":"開元路１５０號","OBJECTID":631800},"geometry":{"x":181937.62999999989,"y":2579746.4400000013}}]}