{"displayFieldName":"TOWNNAME","fieldAliases":{"ID":"ID","DIS_CODE":"DIS_CODE","TOWNNAME":"TOWNNAME","LI":"LI","LIN":"LIN","STREET":"STREET","SECT":"SECT","MAREA":"MAREA","LANE":"LANE","ALLEY":"ALLEY","HOUSE_NO":"HOUSE_NO","E_COORD97":"E_COORD97","N_COORD97":"N_COORD97","ADDRESS":"ADDRESS","OBJECTID":"OBJECTID"},"geometryType":"esriGeometryPoint","spatialReference":{"wkid":102443,"latestWkid":3826},"fields":[{"name":"ID","type":"esriFieldTypeDouble","alias":"ID"},{"name":"DIS_CODE","type":"esriFieldTypeInteger","alias":"DIS_CODE"},{"name":"TOWNNAME","type":"esriFieldTypeString","alias":"TOWNNAME","length":8},{"name":"LI","type":"esriFieldTypeString","alias":"LI","length":8},{"name":"LIN","type":"esriFieldTypeString","alias":"LIN","length":12},{"name":"STREET","type":"esriFieldTypeString","alias":"STREET","length":20},{"name":"SECT","type":"esriFieldTypeString","alias":"SECT","length":8},{"name":"MAREA","type":"esriFieldTypeString","alias":"MAREA","length":12},{"name":"LANE","type":"esriFieldTypeString","alias":"LANE","length":10},{"name":"ALLEY","type":"esriFieldTypeString","alias":"ALLEY","length":10},{"name":"HOUSE_NO","type":"esriFieldTypeString","alias":"HOUSE_NO","length":20},{"name":"E_COORD97","type":"esriFieldTypeDouble","alias":"E_COORD97"},{"name":"N_COORD97","type":"esriFieldTypeDouble","alias":"N_COORD97"},{"name":"ADDRESS","type":"esriFieldTypeString","alias":"ADDRESS","length":50},{"name":"OBJECTID","type":"esriFieldTypeOID","alias":"OBJECTID"}],"features":[{"attributes":{"ID":62201,"DIS_CODE":0,"TOWNNAME":"東區","LI":"泉南里","LIN":"31鄰","STREET":"府連路","SECT":" ","MAREA":" ","LANE":"３４４巷","ALLEY":"１弄","HOUSE_NO":"２８號","E_COORD97":169632.82999999999,"N_COORD97":2542708.8599999999,"ADDRESS":"府連路３４４巷１弄２８號","OBJECTID":62201},"geometry":{"x":169632.83000000007,"y":2542708.8599999975}},{"attributes":{"ID":62202,"DIS_CODE":0,"TOWNNAME":"東區","LI":"泉南里","LIN":"31鄰","STREET":"府連路","SECT":" ","MAREA":" ","LANE":"３４４巷","ALLEY":"１弄","HOUSE_NO":"３０號","E_COORD97":169632.82999999999,"N_COORD97":2542703.7000000002,"ADDRESS":"府連路３４４巷１弄３０號","OBJECTID":62202},"geometry":{"x":169632.83000000007,"y":2542703.7000000011}},{"attributes":{"ID":62203,"DIS_CODE":0,"TOWNNAME":"東區","LI":"泉南里","LIN":"31鄰","STREET":"府連路","SECT":" ","MAREA":" ","LANE":"３４４巷","ALLEY":"１弄","HOUSE_NO":"３２號","E_COORD97":169632.82999999999,"N_COORD97":2542700.02,"ADDRESS":"府連路３４４巷１弄３２號","OBJECTID":62203},"geometry":{"x":169632.83000000007,"y":2542700.0199999996}},{"attributes":{"ID":62204,"DIS_CODE":0,"TOWNNAME":"新營區","LI":"嘉芳里","LIN":"8鄰","STREET":" ","SECT":" ","MAREA":"茄苳腳","LANE":" ","ALLEY":" ","HOUSE_NO":"７３號","E_COORD97":176734.57999999999,"N_COORD97":2578506.5499999998,"ADDRESS":"茄苳腳７３號","OBJECTID":62204},"geometry":{"x":176734.58000000194,"y":2578506.5500000007}},{"attributes":{"ID":62205,"DIS_CODE":0,"TOWNNAME":"麻豆區","LI":"埤頭里","LIN":"8鄰","STREET":" ","SECT":" ","MAREA":"埤頭","LANE":" ","ALLEY":" ","HOUSE_NO":"５９號之２","E_COORD97":170927.72,"N_COORD97":2566111.96,"ADDRESS":"埤頭５９號之２","OBJECTID":62205},"geometry":{"x":170927.72000000067,"y":2566111.9600000028}},{"attributes":{"ID":62206,"DIS_CODE":0,"TOWNNAME":"東區","LI":"泉南里","LIN":"31鄰","STREET":"府連路","SECT":" ","MAREA":" ","LANE":"３４４巷","ALLEY":"１弄","HOUSE_NO":"３４號","E_COORD97":169632.28,"N_COORD97":2542695.9700000002,"ADDRESS":"府連路３４４巷１弄３４號","OBJECTID":62206},"geometry":{"x":169632.28000000212,"y":2542695.9699999988}},{"attributes":{"ID":62207,"DIS_CODE":0,"TOWNNAME":"新營區","LI":"嘉芳里","LIN":"8鄰","STREET":" ","SECT":" ","MAREA":"茄苳腳","LANE":" ","ALLEY":" ","HOUSE_NO":"７８之９號","E_COORD97":176834.29999999999,"N_COORD97":2578518.3100000001,"ADDRESS":"茄苳腳７８之９號","OBJECTID":62207},"geometry":{"x":176834.29999999981,"y":2578518.3100000005}},{"attributes":{"ID":62208,"DIS_CODE":0,"TOWNNAME":"新營區","LI":"嘉芳里","LIN":"8鄰","STREET":" ","SECT":" ","MAREA":"茄苳腳","LANE":" ","ALLEY":" ","HOUSE_NO":"７８之１６號","E_COORD97":176845.95000000001,"N_COORD97":2578550.3799999999,"ADDRESS":"茄苳腳７８之１６號","OBJECTID":62208},"geometry":{"x":176845.95000000112,"y":2578550.379999999}},{"attributes":{"ID":62209,"DIS_CODE":0,"TOWNNAME":"佳里區","LI":"溪州里","LIN":"1鄰","STREET":" ","SECT":" ","MAREA":"溪州","LANE":" ","ALLEY":" ","HOUSE_NO":"１號之３","E_COORD97":166716.82000000001,"N_COORD97":2567278.8700000001,"ADDRESS":"溪州１號之３","OBJECTID":62209},"geometry":{"x":166716.82000000123,"y":2567278.8700000029}},{"attributes":{"ID":62210,"DIS_CODE":0,"TOWNNAME":"東區","LI":"泉南里","LIN":"31鄰","STREET":"府連路","SECT":" ","MAREA":" ","LANE":"３４４巷","ALLEY":"１弄","HOUSE_NO":"３６號","E_COORD97":169631.91,"N_COORD97":2542691.9100000001,"ADDRESS":"府連路３４４巷１弄３６號","OBJECTID":62210},"geometry":{"x":169631.91000000108,"y":2542691.9100000001}},{"attributes":{"ID":62211,"DIS_CODE":0,"TOWNNAME":"佳里區","LI":"溪州里","LIN":"1鄰","STREET":" ","SECT":" ","MAREA":"溪州","LANE":" ","ALLEY":" ","HOUSE_NO":"１號之７","E_COORD97":166754.12,"N_COORD97":2567200.73,"ADDRESS":"溪州１號之７","OBJECTID":62211},"geometry":{"x":166754.12000000011,"y":2567200.7300000023}},{"attributes":{"ID":62212,"DIS_CODE":0,"TOWNNAME":"佳里區","LI":"溪州里","LIN":"1鄰","STREET":" ","SECT":" ","MAREA":"溪州","LANE":" ","ALLEY":" ","HOUSE_NO":"５號之１","E_COORD97":166330.79000000001,"N_COORD97":2567258.79,"ADDRESS":"溪州５號之１","OBJECTID":62212},"geometry":{"x":166330.79000000004,"y":2567258.7899999972}},{"attributes":{"ID":62213,"DIS_CODE":0,"TOWNNAME":"東山區","LI":"東中里","LIN":"8鄰","STREET":"公園路","SECT":" ","MAREA":" ","LANE":" ","ALLEY":" ","HOUSE_NO":"７０號","E_COORD97":189051.45999999999,"N_COORD97":2579764.4900000002,"ADDRESS":"公園路７０號","OBJECTID":62213},"geometry":{"x":189051.46000000089,"y":2579764.4900000002}},{"attributes":{"ID":62214,"DIS_CODE":0,"TOWNNAME":"佳里區","LI":"溪州里","LIN":"1鄰","STREET":" ","SECT":" ","MAREA":"溪州","LANE":" ","ALLEY":" ","HOUSE_NO":"５號之２","E_COORD97":166334.89999999999,"N_COORD97":2567281.3799999999,"ADDRESS":"溪州５號之２","OBJECTID":62214},"geometry":{"x":166334.9000000013,"y":2567281.379999999}},{"attributes":{"ID":62215,"DIS_CODE":0,"TOWNNAME":"佳里區","LI":"溪州里","LIN":"1鄰","STREET":" ","SECT":" ","MAREA":"溪州","LANE":" ","ALLEY":" ","HOUSE_NO":"９號","E_COORD97":166271.31,"N_COORD97":2567274.1899999999,"ADDRESS":"溪州９號","OBJECTID":62215},"geometry":{"x":166271.30999999959,"y":2567274.1900000013}},{"attributes":{"ID":62216,"DIS_CODE":0,"TOWNNAME":"東山區","LI":"東正里","LIN":"25鄰","STREET":" ","SECT":" ","MAREA":"東勢","LANE":" ","ALLEY":" ","HOUSE_NO":"１７８號之６","E_COORD97":189210.42999999999,"N_COORD97":2580561.8999999999,"ADDRESS":"東勢１７８號之６","OBJECTID":62216},"geometry":{"x":189210.43000000063,"y":2580561.9000000004}},{"attributes":{"ID":62217,"DIS_CODE":0,"TOWNNAME":"西港區","LI":"慶安里","LIN":"1鄰","STREET":" ","SECT":" ","MAREA":"中州","LANE":" ","ALLEY":" ","HOUSE_NO":"８號","E_COORD97":166960.42000000001,"N_COORD97":2559723.7599999998,"ADDRESS":"中州８號","OBJECTID":62217},"geometry":{"x":166960.41999999993,"y":2559723.7600000016}},{"attributes":{"ID":62218,"DIS_CODE":0,"TOWNNAME":"東區","LI":"泉南里","LIN":"31鄰","STREET":"府連路","SECT":" ","MAREA":" ","LANE":"３４４巷","ALLEY":"１弄","HOUSE_NO":"３８號","E_COORD97":169632.82999999999,"N_COORD97":2542686.21,"ADDRESS":"府連路３４４巷１弄３８號","OBJECTID":62218},"geometry":{"x":169632.83000000007,"y":2542686.2100000028}},{"attributes":{"ID":62219,"DIS_CODE":0,"TOWNNAME":"仁德區","LI":"仁德里","LIN":"31鄰","STREET":"淨修街","SECT":" ","MAREA":" ","LANE":"１７５巷","ALLEY":"４７弄","HOUSE_NO":"４號","E_COORD97":172029.66,"N_COORD97":2541242.4399999999,"ADDRESS":"淨修街１７５巷４７弄４號","OBJECTID":62219},"geometry":{"x":172029.66000000015,"y":2541242.4399999995}},{"attributes":{"ID":62220,"DIS_CODE":0,"TOWNNAME":"仁德區","LI":"仁德里","LIN":"31鄰","STREET":"淨修街","SECT":" ","MAREA":" ","LANE":"１７５巷","ALLEY":"４７弄","HOUSE_NO":"１號","E_COORD97":172024.19,"N_COORD97":2541260.4399999999,"ADDRESS":"淨修街１７５巷４７弄１號","OBJECTID":62220},"geometry":{"x":172024.19000000041,"y":2541260.4399999995}},{"attributes":{"ID":62221,"DIS_CODE":0,"TOWNNAME":"仁德區","LI":"仁德里","LIN":"31鄰","STREET":"淨修街","SECT":" ","MAREA":" ","LANE":"１７５巷","ALLEY":"４７弄","HOUSE_NO":"１５號","E_COORD97":172054.39000000001,"N_COORD97":2541262.6899999999,"ADDRESS":"淨修街１７５巷４７弄１５號","OBJECTID":62221},"geometry":{"x":172054.38999999966,"y":2541262.6900000032}},{"attributes":{"ID":62222,"DIS_CODE":0,"TOWNNAME":"仁德區","LI":"仁德里","LIN":"31鄰","STREET":"淨修街","SECT":" ","MAREA":" ","LANE":"１７５巷","ALLEY":"４７弄","HOUSE_NO":"９號","E_COORD97":172041.03,"N_COORD97":2541261.6899999999,"ADDRESS":"淨修街１７５巷４７弄９號","OBJECTID":62222},"geometry":{"x":172041.02999999933,"y":2541261.6899999995}},{"attributes":{"ID":62223,"DIS_CODE":0,"TOWNNAME":"新營區","LI":"嘉芳里","LIN":"8鄰","STREET":" ","SECT":" ","MAREA":"茄苳腳","LANE":" ","ALLEY":" ","HOUSE_NO":"７８之７號","E_COORD97":176826.10999999999,"N_COORD97":2578516.1400000001,"ADDRESS":"茄苳腳７８之７號","OBJECTID":62223},"geometry":{"x":176826.1100000022,"y":2578516.1400000006}},{"attributes":{"ID":62224,"DIS_CODE":0,"TOWNNAME":"仁德區","LI":"仁德里","LIN":"31鄰","STREET":"淨修街","SECT":" ","MAREA":" ","LANE":"１７５巷","ALLEY":"４７弄","HOUSE_NO":"８號","E_COORD97":172037.51999999999,"N_COORD97":2541242.6899999999,"ADDRESS":"淨修街１７５巷４７弄８號","OBJECTID":62224},"geometry":{"x":172037.52000000048,"y":2541242.6900000013}},{"attributes":{"ID":62225,"DIS_CODE":0,"TOWNNAME":"仁德區","LI":"仁德里","LIN":"31鄰","STREET":"淨修街","SECT":" ","MAREA":" ","LANE":"１７５巷","ALLEY":"４７弄","HOUSE_NO":"３號","E_COORD97":172028.59,"N_COORD97":2541260.6899999999,"ADDRESS":"淨修街１７５巷４７弄３號","OBJECTID":62225},"geometry":{"x":172028.59000000078,"y":2541260.6900000013}},{"attributes":{"ID":62226,"DIS_CODE":0,"TOWNNAME":"仁德區","LI":"仁德里","LIN":"31鄰","STREET":"淨修街","SECT":" ","MAREA":" ","LANE":"１７５巷","ALLEY":"４７弄","HOUSE_NO":"５號","E_COORD97":172032.82999999999,"N_COORD97":2541261.1899999999,"ADDRESS":"淨修街１７５巷４７弄５號","OBJECTID":62226},"geometry":{"x":172032.83000000101,"y":2541261.1899999995}},{"attributes":{"ID":62227,"DIS_CODE":0,"TOWNNAME":"仁德區","LI":"仁德里","LIN":"31鄰","STREET":"淨修街","SECT":" ","MAREA":" ","LANE":"１７５巷","ALLEY":"４７弄","HOUSE_NO":"１６號","E_COORD97":172055.60999999999,"N_COORD97":2541244.6899999999,"ADDRESS":"淨修街１７５巷４７弄１６號","OBJECTID":62227},"geometry":{"x":172055.61000000034,"y":2541244.6899999995}},{"attributes":{"ID":62228,"DIS_CODE":0,"TOWNNAME":"仁德區","LI":"仁德里","LIN":"31鄰","STREET":"淨修街","SECT":" ","MAREA":" ","LANE":"１７５巷","ALLEY":"４７弄","HOUSE_NO":"２０號","E_COORD97":172063.82999999999,"N_COORD97":2541244.4399999999,"ADDRESS":"淨修街１７５巷４７弄２０號","OBJECTID":62228},"geometry":{"x":172063.83000000007,"y":2541244.4400000013}},{"attributes":{"ID":62229,"DIS_CODE":0,"TOWNNAME":"仁德區","LI":"仁德里","LIN":"31鄰","STREET":"淨修街","SECT":" ","MAREA":" ","LANE":"１７５巷","ALLEY":"４７弄","HOUSE_NO":"１３號","E_COORD97":172050.32999999999,"N_COORD97":2541262.1899999999,"ADDRESS":"淨修街１７５巷４７弄１３號","OBJECTID":62229},"geometry":{"x":172050.33000000007,"y":2541262.1899999995}},{"attributes":{"ID":62230,"DIS_CODE":0,"TOWNNAME":"仁德區","LI":"仁德里","LIN":"31鄰","STREET":"淨修街","SECT":" ","MAREA":" ","LANE":"１７５巷","ALLEY":"４７弄","HOUSE_NO":"１９號","E_COORD97":172062.89000000001,"N_COORD97":2541262.9399999999,"ADDRESS":"淨修街１７５巷４７弄１９號","OBJECTID":62230},"geometry":{"x":172062.88999999966,"y":2541262.9399999995}},{"attributes":{"ID":62231,"DIS_CODE":0,"TOWNNAME":"新營區","LI":"護鎮里","LIN":"8鄰","STREET":" ","SECT":" ","MAREA":"後鎮","LANE":" ","ALLEY":" ","HOUSE_NO":"９３號","E_COORD97":179127.60999999999,"N_COORD97":2580983.3599999999,"ADDRESS":"後鎮９３號","OBJECTID":62231},"geometry":{"x":179127.61000000034,"y":2580983.3600000013}},{"attributes":{"ID":62232,"DIS_CODE":0,"TOWNNAME":"仁德區","LI":"仁德里","LIN":"31鄰","STREET":"淨修街","SECT":" ","MAREA":" ","LANE":"１７５巷","ALLEY":"４７弄","HOUSE_NO":"１７號","E_COORD97":172058.53,"N_COORD97":2541262.9399999999,"ADDRESS":"淨修街１７５巷４７弄１７號","OBJECTID":62232},"geometry":{"x":172058.53000000119,"y":2541262.9399999995}},{"attributes":{"ID":62233,"DIS_CODE":0,"TOWNNAME":"新營區","LI":"嘉芳里","LIN":"8鄰","STREET":" ","SECT":" ","MAREA":"茄苳腳","LANE":" ","ALLEY":" ","HOUSE_NO":"８１號","E_COORD97":176745.01000000001,"N_COORD97":2578538.6200000001,"ADDRESS":"茄苳腳８１號","OBJECTID":62233},"geometry":{"x":176745.01000000164,"y":2578538.6200000048}},{"attributes":{"ID":62234,"DIS_CODE":0,"TOWNNAME":"新營區","LI":"嘉芳里","LIN":"8鄰","STREET":" ","SECT":" ","MAREA":"茄苳腳","LANE":" ","ALLEY":" ","HOUSE_NO":"７４號","E_COORD97":176745.81,"N_COORD97":2578503.1800000002,"ADDRESS":"茄苳腳７４號","OBJECTID":62234},"geometry":{"x":176745.80999999959,"y":2578503.1800000016}},{"attributes":{"ID":62235,"DIS_CODE":0,"TOWNNAME":"仁德區","LI":"仁德里","LIN":"31鄰","STREET":"淨修街","SECT":" ","MAREA":" ","LANE":"１７５巷","ALLEY":"４７弄","HOUSE_NO":"１２號","E_COORD97":172047.41,"N_COORD97":2541243.1899999999,"ADDRESS":"淨修街１７５巷４７弄１２號","OBJECTID":62235},"geometry":{"x":172047.41000000108,"y":2541243.1900000013}},{"attributes":{"ID":62236,"DIS_CODE":0,"TOWNNAME":"東山區","LI":"聖賢里","LIN":"8鄰","STREET":" ","SECT":" ","MAREA":"北勢寮","LANE":" ","ALLEY":" ","HOUSE_NO":"７３號之６","E_COORD97":184966.78,"N_COORD97":2579425.9100000001,"ADDRESS":"北勢寮７３號之６","OBJECTID":62236},"geometry":{"x":184966.78000000026,"y":2579425.9100000001}},{"attributes":{"ID":62237,"DIS_CODE":0,"TOWNNAME":"東山區","LI":"聖賢里","LIN":"8鄰","STREET":" ","SECT":" ","MAREA":"北勢寮","LANE":" ","ALLEY":" ","HOUSE_NO":"７３號之８","E_COORD97":184983.37,"N_COORD97":2579381.5699999998,"ADDRESS":"北勢寮７３號之８","OBJECTID":62237},"geometry":{"x":184983.37000000104,"y":2579381.5700000003}},{"attributes":{"ID":62238,"DIS_CODE":0,"TOWNNAME":"東山區","LI":"東原里","LIN":"8鄰","STREET":" ","SECT":" ","MAREA":"前大埔","LANE":" ","ALLEY":" ","HOUSE_NO":"１０２號","E_COORD97":193808.84,"N_COORD97":2573550.4199999999,"ADDRESS":"前大埔１０２號","OBJECTID":62238},"geometry":{"x":193808.84000000078,"y":2573550.4199999999}},{"attributes":{"ID":62239,"DIS_CODE":0,"TOWNNAME":"東山區","LI":"東原里","LIN":"8鄰","STREET":" ","SECT":" ","MAREA":"前大埔","LANE":" ","ALLEY":" ","HOUSE_NO":"１０３號之１","E_COORD97":193821.57000000001,"N_COORD97":2573563.8399999999,"ADDRESS":"前大埔１０３號之１","OBJECTID":62239},"geometry":{"x":193821.5700000003,"y":2573563.8400000017}},{"attributes":{"ID":62240,"DIS_CODE":0,"TOWNNAME":"鹽水區","LI":"大莊里","LIN":"8鄰","STREET":" ","SECT":" ","MAREA":"大莊","LANE":" ","ALLEY":" ","HOUSE_NO":"１７號","E_COORD97":172777.5,"N_COORD97":2576938.27,"ADDRESS":"大莊１７號","OBJECTID":62240},"geometry":{"x":172777.50000000093,"y":2576938.2699999996}},{"attributes":{"ID":62241,"DIS_CODE":0,"TOWNNAME":"鹽水區","LI":"大莊里","LIN":"8鄰","STREET":" ","SECT":" ","MAREA":"大莊","LANE":" ","ALLEY":" ","HOUSE_NO":"１９號之１","E_COORD97":172751.54999999999,"N_COORD97":2576909.6400000001,"ADDRESS":"大莊１９號之１","OBJECTID":62241},"geometry":{"x":172751.55000000075,"y":2576909.6400000006}},{"attributes":{"ID":62242,"DIS_CODE":0,"TOWNNAME":"鹽水區","LI":"大莊里","LIN":"8鄰","STREET":" ","SECT":" ","MAREA":"大莊","LANE":" ","ALLEY":" ","HOUSE_NO":"１９之２號","E_COORD97":172749.95999999999,"N_COORD97":2576893.0499999998,"ADDRESS":"大莊１９之２號","OBJECTID":62242},"geometry":{"x":172749.96000000183,"y":2576893.0500000007}},{"attributes":{"ID":62243,"DIS_CODE":0,"TOWNNAME":"鹽水區","LI":"大莊里","LIN":"8鄰","STREET":" ","SECT":" ","MAREA":"大莊","LANE":" ","ALLEY":" ","HOUSE_NO":"１９號","E_COORD97":172763.13,"N_COORD97":2576914.3399999999,"ADDRESS":"大莊１９號","OBJECTID":62243},"geometry":{"x":172763.12999999989,"y":2576914.3399999999}},{"attributes":{"ID":62244,"DIS_CODE":0,"TOWNNAME":"鹽水區","LI":"大莊里","LIN":"8鄰","STREET":" ","SECT":" ","MAREA":"大莊","LANE":" ","ALLEY":" ","HOUSE_NO":"５之５號","E_COORD97":172721.60999999999,"N_COORD97":2576953.6299999999,"ADDRESS":"大莊５之５號","OBJECTID":62244},"geometry":{"x":172721.61000000034,"y":2576953.6300000008}},{"attributes":{"ID":62245,"DIS_CODE":0,"TOWNNAME":"鹽水區","LI":"大莊里","LIN":"8鄰","STREET":" ","SECT":" ","MAREA":"大莊","LANE":" ","ALLEY":" ","HOUSE_NO":"５號","E_COORD97":172711.44,"N_COORD97":2576941.3999999999,"ADDRESS":"大莊５號","OBJECTID":62245},"geometry":{"x":172711.44000000227,"y":2576941.4000000004}},{"attributes":{"ID":62246,"DIS_CODE":0,"TOWNNAME":"西港區","LI":"西港里","LIN":"1鄰","STREET":" ","SECT":" ","MAREA":"中州","LANE":" ","ALLEY":" ","HOUSE_NO":"２４號之６","E_COORD97":167581.5,"N_COORD97":2559966.2400000002,"ADDRESS":"中州２４號之６","OBJECTID":62246},"geometry":{"x":167581.50000000093,"y":2559966.2400000002}},{"attributes":{"ID":62247,"DIS_CODE":0,"TOWNNAME":"西港區","LI":"西港里","LIN":"1鄰","STREET":" ","SECT":" ","MAREA":"中州","LANE":" ","ALLEY":" ","HOUSE_NO":"２４號之７","E_COORD97":167598.17000000001,"N_COORD97":2559935.1299999999,"ADDRESS":"中州２４號之７","OBJECTID":62247},"geometry":{"x":167598.16999999993,"y":2559935.129999999}},{"attributes":{"ID":62248,"DIS_CODE":0,"TOWNNAME":"西港區","LI":"西港里","LIN":"1鄰","STREET":" ","SECT":" ","MAREA":"中州","LANE":" ","ALLEY":" ","HOUSE_NO":"２４號之８","E_COORD97":167569.25,"N_COORD97":2559978.29,"ADDRESS":"中州２４號之８","OBJECTID":62248},"geometry":{"x":167569.25000000186,"y":2559978.2899999991}},{"attributes":{"ID":62249,"DIS_CODE":0,"TOWNNAME":"西港區","LI":"西港里","LIN":"1鄰","STREET":" ","SECT":" ","MAREA":"中州","LANE":" ","ALLEY":" ","HOUSE_NO":"２４號","E_COORD97":167765.04000000001,"N_COORD97":2559774.3999999999,"ADDRESS":"中州２４號","OBJECTID":62249},"geometry":{"x":167765.04000000004,"y":2559774.4000000022}},{"attributes":{"ID":62250,"DIS_CODE":0,"TOWNNAME":"西港區","LI":"西港里","LIN":"1鄰","STREET":" ","SECT":" ","MAREA":"中州","LANE":" ","ALLEY":" ","HOUSE_NO":"２５號之１０","E_COORD97":167845.14999999999,"N_COORD97":2559592.8300000001,"ADDRESS":"中州２５號之１０","OBJECTID":62250},"geometry":{"x":167845.1500000013,"y":2559592.8300000001}},{"attributes":{"ID":62251,"DIS_CODE":0,"TOWNNAME":"西港區","LI":"西港里","LIN":"1鄰","STREET":" ","SECT":" ","MAREA":"中州","LANE":" ","ALLEY":" ","HOUSE_NO":"２５號之１１","E_COORD97":167847.95999999999,"N_COORD97":2559589.1800000002,"ADDRESS":"中州２５號之１１","OBJECTID":62251},"geometry":{"x":167847.96000000089,"y":2559589.1800000016}},{"attributes":{"ID":62252,"DIS_CODE":0,"TOWNNAME":"西港區","LI":"西港里","LIN":"1鄰","STREET":" ","SECT":" ","MAREA":"中州","LANE":" ","ALLEY":" ","HOUSE_NO":"２５號之１２","E_COORD97":167850.51999999999,"N_COORD97":2559584.9199999999,"ADDRESS":"中州２５號之１２","OBJECTID":62252},"geometry":{"x":167850.52000000048,"y":2559584.9199999999}},{"attributes":{"ID":62253,"DIS_CODE":0,"TOWNNAME":"西港區","LI":"西港里","LIN":"1鄰","STREET":" ","SECT":" ","MAREA":"中州","LANE":" ","ALLEY":" ","HOUSE_NO":"２５號之１３","E_COORD97":167856.32000000001,"N_COORD97":2559571.9199999999,"ADDRESS":"中州２５號之１３","OBJECTID":62253},"geometry":{"x":167856.3200000003,"y":2559571.9199999999}},{"attributes":{"ID":62254,"DIS_CODE":0,"TOWNNAME":"西港區","LI":"西港里","LIN":"1鄰","STREET":" ","SECT":" ","MAREA":"中州","LANE":" ","ALLEY":" ","HOUSE_NO":"２５號之１４","E_COORD97":167858.87,"N_COORD97":2559568.1299999999,"ADDRESS":"中州２５號之１４","OBJECTID":62254},"geometry":{"x":167858.87000000104,"y":2559568.1300000008}},{"attributes":{"ID":62255,"DIS_CODE":0,"TOWNNAME":"西港區","LI":"西港里","LIN":"1鄰","STREET":" ","SECT":" ","MAREA":"中州","LANE":" ","ALLEY":" ","HOUSE_NO":"２５號之１５","E_COORD97":167861.41,"N_COORD97":2559564.3300000001,"ADDRESS":"中州２５號之１５","OBJECTID":62255},"geometry":{"x":167861.41000000201,"y":2559564.3300000019}},{"attributes":{"ID":62256,"DIS_CODE":0,"TOWNNAME":"西港區","LI":"西港里","LIN":"1鄰","STREET":" ","SECT":" ","MAREA":"中州","LANE":" ","ALLEY":" ","HOUSE_NO":"２５號之１６","E_COORD97":167863.95000000001,"N_COORD97":2559560.54,"ADDRESS":"中州２５號之１６","OBJECTID":62256},"geometry":{"x":167863.95000000019,"y":2559560.5399999991}},{"attributes":{"ID":62257,"DIS_CODE":0,"TOWNNAME":"西港區","LI":"西港里","LIN":"1鄰","STREET":" ","SECT":" ","MAREA":"中州","LANE":" ","ALLEY":" ","HOUSE_NO":"２５號之１７","E_COORD97":167866.48999999999,"N_COORD97":2559556.75,"ADDRESS":"中州２５號之１７","OBJECTID":62257},"geometry":{"x":167866.49000000115,"y":2559556.75}},{"attributes":{"ID":62258,"DIS_CODE":0,"TOWNNAME":"仁德區","LI":"上崙里","LIN":"10鄰","STREET":"德善路","SECT":" ","MAREA":" ","LANE":"３０５巷","ALLEY":"１３弄","HOUSE_NO":"１５７號","E_COORD97":174114.82000000001,"N_COORD97":2538313.46,"ADDRESS":"德善路３０５巷１３弄１５７號","OBJECTID":62258},"geometry":{"x":174114.82000000123,"y":2538313.4600000028}},{"attributes":{"ID":62259,"DIS_CODE":0,"TOWNNAME":"西港區","LI":"西港里","LIN":"1鄰","STREET":" ","SECT":" ","MAREA":"中州","LANE":" ","ALLEY":" ","HOUSE_NO":"２５號之１８","E_COORD97":167869.03,"N_COORD97":2559552.96,"ADDRESS":"中州２５號之１８","OBJECTID":62259},"geometry":{"x":167869.03000000026,"y":2559552.9600000009}},{"attributes":{"ID":62260,"DIS_CODE":0,"TOWNNAME":"仁德區","LI":"上崙里","LIN":"10鄰","STREET":"德善路","SECT":" ","MAREA":" ","LANE":"３０５巷","ALLEY":"１３弄","HOUSE_NO":"１４７號","E_COORD97":174089.45999999999,"N_COORD97":2538305.96,"ADDRESS":"德善路３０５巷１３弄１４７號","OBJECTID":62260},"geometry":{"x":174089.46000000089,"y":2538305.9600000046}},{"attributes":{"ID":62261,"DIS_CODE":0,"TOWNNAME":"仁德區","LI":"上崙里","LIN":"10鄰","STREET":"德善路","SECT":" ","MAREA":" ","LANE":"３０５巷","ALLEY":"１３弄","HOUSE_NO":"１４２號","E_COORD97":174059.64999999999,"N_COORD97":2538298.0699999998,"ADDRESS":"德善路３０５巷１３弄１４２號","OBJECTID":62261},"geometry":{"x":174059.6500000013,"y":2538298.0700000022}},{"attributes":{"ID":62262,"DIS_CODE":0,"TOWNNAME":"仁德區","LI":"後壁里","LIN":"10鄰","STREET":"民安路","SECT":"二段","MAREA":" ","LANE":"１８２巷","ALLEY":"１８弄","HOUSE_NO":"２５號","E_COORD97":173701.87,"N_COORD97":2538908.3100000001,"ADDRESS":"民安路二段１８２巷１８弄２５號","OBJECTID":62262},"geometry":{"x":173701.87000000104,"y":2538908.3100000024}},{"attributes":{"ID":62263,"DIS_CODE":0,"TOWNNAME":"西港區","LI":"西港里","LIN":"1鄰","STREET":" ","SECT":" ","MAREA":"中州","LANE":" ","ALLEY":" ","HOUSE_NO":"２５號之１９","E_COORD97":167871.57000000001,"N_COORD97":2559549.1699999999,"ADDRESS":"中州２５號之１９","OBJECTID":62263},"geometry":{"x":167871.5700000003,"y":2559549.1700000018}},{"attributes":{"ID":62264,"DIS_CODE":0,"TOWNNAME":"仁德區","LI":"上崙里","LIN":"10鄰","STREET":"德善路","SECT":" ","MAREA":" ","LANE":"３０５巷","ALLEY":"１３弄","HOUSE_NO":"１５２號","E_COORD97":174063.62,"N_COORD97":2538287.5699999998,"ADDRESS":"德善路３０５巷１３弄１５２號","OBJECTID":62264},"geometry":{"x":174063.62000000011,"y":2538287.570000004}},{"attributes":{"ID":62265,"DIS_CODE":0,"TOWNNAME":"西港區","LI":"西港里","LIN":"1鄰","STREET":" ","SECT":" ","MAREA":"中州","LANE":" ","ALLEY":" ","HOUSE_NO":"２５號之２０","E_COORD97":167873.87,"N_COORD97":2559545.6299999999,"ADDRESS":"中州２５號之２０","OBJECTID":62265},"geometry":{"x":167873.87000000104,"y":2559545.629999999}},{"attributes":{"ID":62266,"DIS_CODE":0,"TOWNNAME":"仁德區","LI":"上崙里","LIN":"10鄰","STREET":"德善路","SECT":" ","MAREA":" ","LANE":"３０５巷","ALLEY":"１３弄","HOUSE_NO":"１６２號","E_COORD97":174078.04000000001,"N_COORD97":2538274.8199999998,"ADDRESS":"德善路３０５巷１３弄１６２號","OBJECTID":62266},"geometry":{"x":174078.04000000004,"y":2538274.8200000003}},{"attributes":{"ID":62267,"DIS_CODE":0,"TOWNNAME":"西港區","LI":"西港里","LIN":"1鄰","STREET":" ","SECT":" ","MAREA":"中州","LANE":" ","ALLEY":" ","HOUSE_NO":"２５號之２１","E_COORD97":167882.16,"N_COORD97":2559565.4300000002,"ADDRESS":"中州２５號之２１","OBJECTID":62267},"geometry":{"x":167882.16000000108,"y":2559565.4299999997}},{"attributes":{"ID":62268,"DIS_CODE":0,"TOWNNAME":"鹽水區","LI":"中境里","LIN":"8鄰","STREET":"中山路","SECT":" ","MAREA":" ","LANE":" ","ALLEY":" ","HOUSE_NO":"２２號","E_COORD97":174977.63,"N_COORD97":2579931.0499999998,"ADDRESS":"中山路２２號","OBJECTID":62268},"geometry":{"x":174977.62999999989,"y":2579931.0500000007}},{"attributes":{"ID":62269,"DIS_CODE":0,"TOWNNAME":"西港區","LI":"西港里","LIN":"1鄰","STREET":" ","SECT":" ","MAREA":"中州","LANE":" ","ALLEY":" ","HOUSE_NO":"２５號之２２","E_COORD97":167886.06,"N_COORD97":2559567.9300000002,"ADDRESS":"中州２５號之２２","OBJECTID":62269},"geometry":{"x":167886.06000000052,"y":2559567.9299999997}},{"attributes":{"ID":62270,"DIS_CODE":0,"TOWNNAME":"仁德區","LI":"仁德里","LIN":"31鄰","STREET":"淨修街","SECT":" ","MAREA":" ","LANE":"１７５巷","ALLEY":"４７弄","HOUSE_NO":"１４號","E_COORD97":172051.48999999999,"N_COORD97":2541243.6899999999,"ADDRESS":"淨修街１７５巷４７弄１４號","OBJECTID":62270},"geometry":{"x":172051.49000000209,"y":2541243.6900000013}},{"attributes":{"ID":62271,"DIS_CODE":0,"TOWNNAME":"西港區","LI":"西港里","LIN":"1鄰","STREET":" ","SECT":" ","MAREA":"中州","LANE":" ","ALLEY":" ","HOUSE_NO":"２５號之２３","E_COORD97":167889.97,"N_COORD97":2559570.4300000002,"ADDRESS":"中州２５號之２３","OBJECTID":62271},"geometry":{"x":167889.97000000067,"y":2559570.4300000016}},{"attributes":{"ID":62272,"DIS_CODE":0,"TOWNNAME":"西港區","LI":"西港里","LIN":"1鄰","STREET":" ","SECT":" ","MAREA":"中州","LANE":" ","ALLEY":" ","HOUSE_NO":"２５號之２４","E_COORD97":167893.87,"N_COORD97":2559572.9300000002,"ADDRESS":"中州２５號之２４","OBJECTID":62272},"geometry":{"x":167893.87000000197,"y":2559572.9300000034}},{"attributes":{"ID":62273,"DIS_CODE":0,"TOWNNAME":"永康區","LI":"永康里","LIN":"31鄰","STREET":"聖龍街","SECT":" ","MAREA":" ","LANE":"１８６巷","ALLEY":"３弄","HOUSE_NO":"１２號","E_COORD97":174264.73999999999,"N_COORD97":2547797.8999999999,"ADDRESS":"聖龍街１８６巷３弄１２號","OBJECTID":62273},"geometry":{"x":174264.74000000022,"y":2547797.9000000004}},{"attributes":{"ID":62274,"DIS_CODE":0,"TOWNNAME":"西港區","LI":"西港里","LIN":"1鄰","STREET":" ","SECT":" ","MAREA":"中州","LANE":" ","ALLEY":" ","HOUSE_NO":"２５號之２５","E_COORD97":167897.76999999999,"N_COORD97":2559575.4199999999,"ADDRESS":"中州２５號之２５","OBJECTID":62274},"geometry":{"x":167897.77000000048,"y":2559575.4199999999}},{"attributes":{"ID":62275,"DIS_CODE":0,"TOWNNAME":"永康區","LI":"埔園里","LIN":"31鄰","STREET":"八德街","SECT":" ","MAREA":" ","LANE":"２３０巷","ALLEY":"５８弄","HOUSE_NO":"１號","E_COORD97":173824.63,"N_COORD97":2548683.1899999999,"ADDRESS":"八德街２３０巷５８弄１號","OBJECTID":62275},"geometry":{"x":173824.62999999989,"y":2548683.1899999995}},{"attributes":{"ID":62276,"DIS_CODE":0,"TOWNNAME":"西港區","LI":"西港里","LIN":"1鄰","STREET":" ","SECT":" ","MAREA":"中州","LANE":" ","ALLEY":" ","HOUSE_NO":"２５號之２６","E_COORD97":167901.67000000001,"N_COORD97":2559577.9199999999,"ADDRESS":"中州２５號之２６","OBJECTID":62276},"geometry":{"x":167901.66999999993,"y":2559577.9200000018}},{"attributes":{"ID":62277,"DIS_CODE":0,"TOWNNAME":"永康區","LI":"埔園里","LIN":"31鄰","STREET":"八德街","SECT":" ","MAREA":" ","LANE":"２３０巷","ALLEY":"５８弄","HOUSE_NO":"３號","E_COORD97":173828.62,"N_COORD97":2548680.5,"ADDRESS":"八德街２３０巷５８弄３號","OBJECTID":62277},"geometry":{"x":173828.62000000011,"y":2548680.5000000019}},{"attributes":{"ID":62278,"DIS_CODE":0,"TOWNNAME":"永康區","LI":"埔園里","LIN":"31鄰","STREET":"八德街","SECT":" ","MAREA":" ","LANE":"２３０巷","ALLEY":"５８弄","HOUSE_NO":"５號","E_COORD97":173832.87,"N_COORD97":2548679.9900000002,"ADDRESS":"八德街２３０巷５８弄５號","OBJECTID":62278},"geometry":{"x":173832.87000000104,"y":2548679.9900000021}},{"attributes":{"ID":62279,"DIS_CODE":0,"TOWNNAME":"西港區","LI":"西港里","LIN":"1鄰","STREET":" ","SECT":" ","MAREA":"中州","LANE":" ","ALLEY":" ","HOUSE_NO":"２５號之２７","E_COORD97":167905.57000000001,"N_COORD97":2559580.4199999999,"ADDRESS":"中州２５號之２７","OBJECTID":62279},"geometry":{"x":167905.5700000003,"y":2559580.4200000018}},{"attributes":{"ID":62280,"DIS_CODE":0,"TOWNNAME":"永康區","LI":"埔園里","LIN":"31鄰","STREET":"八德街","SECT":" ","MAREA":" ","LANE":"２３０巷","ALLEY":"５８弄","HOUSE_NO":"７號","E_COORD97":173837.13,"N_COORD97":2548679.4700000002,"ADDRESS":"八德街２３０巷５８弄７號","OBJECTID":62280},"geometry":{"x":173837.13000000082,"y":2548679.4700000007}},{"attributes":{"ID":62281,"DIS_CODE":0,"TOWNNAME":"西港區","LI":"慶安里","LIN":"1鄰","STREET":" ","SECT":" ","MAREA":"中州","LANE":" ","ALLEY":" ","HOUSE_NO":"１０號","E_COORD97":167000.73000000001,"N_COORD97":2559714.54,"ADDRESS":"中州１０號","OBJECTID":62281},"geometry":{"x":167000.73000000138,"y":2559714.540000001}},{"attributes":{"ID":62282,"DIS_CODE":0,"TOWNNAME":"西港區","LI":"慶安里","LIN":"1鄰","STREET":" ","SECT":" ","MAREA":"中州","LANE":" ","ALLEY":" ","HOUSE_NO":"１２號","E_COORD97":167865.92000000001,"N_COORD97":2558194.3300000001,"ADDRESS":"中州１２號","OBJECTID":62282},"geometry":{"x":167865.91999999993,"y":2558194.3300000019}},{"attributes":{"ID":62283,"DIS_CODE":0,"TOWNNAME":"西港區","LI":"慶安里","LIN":"1鄰","STREET":" ","SECT":" ","MAREA":"中州","LANE":" ","ALLEY":" ","HOUSE_NO":"１３號","E_COORD97":167022,"N_COORD97":2559784.3900000001,"ADDRESS":"中州１３號","OBJECTID":62283},"geometry":{"x":167022.00000000093,"y":2559784.3900000025}},{"attributes":{"ID":62284,"DIS_CODE":0,"TOWNNAME":"西港區","LI":"慶安里","LIN":"1鄰","STREET":" ","SECT":" ","MAREA":"中州","LANE":" ","ALLEY":" ","HOUSE_NO":"１號之１０","E_COORD97":166744.39999999999,"N_COORD97":2559709.5499999998,"ADDRESS":"中州１號之１０","OBJECTID":62284},"geometry":{"x":166744.40000000037,"y":2559709.5500000026}},{"attributes":{"ID":62285,"DIS_CODE":0,"TOWNNAME":"永康區","LI":"埔園里","LIN":"31鄰","STREET":"八德街","SECT":" ","MAREA":" ","LANE":"２３０巷","ALLEY":"５８弄","HOUSE_NO":"９號","E_COORD97":173841.38,"N_COORD97":2548678.9500000002,"ADDRESS":"八德街２３０巷５８弄９號","OBJECTID":62285},"geometry":{"x":173841.37999999989,"y":2548678.950000003}},{"attributes":{"ID":62286,"DIS_CODE":0,"TOWNNAME":"永康區","LI":"埔園里","LIN":"31鄰","STREET":"八德街","SECT":" ","MAREA":" ","LANE":"２３０巷","ALLEY":"５８弄","HOUSE_NO":"１１號","E_COORD97":173846.66,"N_COORD97":2548679.3700000001,"ADDRESS":"八德街２３０巷５８弄１１號","OBJECTID":62286},"geometry":{"x":173846.66000000015,"y":2548679.3700000029}},{"attributes":{"ID":62287,"DIS_CODE":0,"TOWNNAME":"永康區","LI":"埔園里","LIN":"31鄰","STREET":"八德街","SECT":" ","MAREA":" ","LANE":"２３０巷","ALLEY":"５８弄","HOUSE_NO":"１３號","E_COORD97":173855.57000000001,"N_COORD97":2548670.5600000001,"ADDRESS":"八德街２３０巷５８弄１３號","OBJECTID":62287},"geometry":{"x":173855.57000000123,"y":2548670.5600000024}},{"attributes":{"ID":62288,"DIS_CODE":0,"TOWNNAME":"西港區","LI":"慶安里","LIN":"1鄰","STREET":" ","SECT":" ","MAREA":"中州","LANE":" ","ALLEY":" ","HOUSE_NO":"１號之１１","E_COORD97":166744.82000000001,"N_COORD97":2559705.2000000002,"ADDRESS":"中州１號之１１","OBJECTID":62288},"geometry":{"x":166744.8200000003,"y":2559705.1999999993}},{"attributes":{"ID":62289,"DIS_CODE":0,"TOWNNAME":"西港區","LI":"慶安里","LIN":"1鄰","STREET":" ","SECT":" ","MAREA":"中州","LANE":" ","ALLEY":" ","HOUSE_NO":"１號之１２","E_COORD97":166745.25,"N_COORD97":2559700.8599999999,"ADDRESS":"中州１號之１２","OBJECTID":62289},"geometry":{"x":166745.25000000186,"y":2559700.8599999994}},{"attributes":{"ID":62290,"DIS_CODE":0,"TOWNNAME":"西港區","LI":"慶安里","LIN":"1鄰","STREET":" ","SECT":" ","MAREA":"中州","LANE":" ","ALLEY":" ","HOUSE_NO":"１號之１３","E_COORD97":166745.67000000001,"N_COORD97":2559696.5099999998,"ADDRESS":"中州１號之１３","OBJECTID":62290},"geometry":{"x":166745.67000000179,"y":2559696.5099999998}},{"attributes":{"ID":62291,"DIS_CODE":0,"TOWNNAME":"西港區","LI":"慶安里","LIN":"1鄰","STREET":" ","SECT":" ","MAREA":"中州","LANE":" ","ALLEY":" ","HOUSE_NO":"１號之１４","E_COORD97":166746.10000000001,"N_COORD97":2559692.1699999999,"ADDRESS":"中州１號之１４","OBJECTID":62291},"geometry":{"x":166746.10000000056,"y":2559692.1699999999}},{"attributes":{"ID":62292,"DIS_CODE":0,"TOWNNAME":"西港區","LI":"慶安里","LIN":"1鄰","STREET":" ","SECT":" ","MAREA":"中州","LANE":" ","ALLEY":" ","HOUSE_NO":"１號之１５","E_COORD97":166746.51999999999,"N_COORD97":2559687.8199999998,"ADDRESS":"中州１號之１５","OBJECTID":62292},"geometry":{"x":166746.52000000048,"y":2559687.8200000003}},{"attributes":{"ID":62293,"DIS_CODE":0,"TOWNNAME":"西港區","LI":"慶安里","LIN":"1鄰","STREET":" ","SECT":" ","MAREA":"中州","LANE":" ","ALLEY":" ","HOUSE_NO":"１號之１６","E_COORD97":166746.95000000001,"N_COORD97":2559683.48,"ADDRESS":"中州１號之１６","OBJECTID":62293},"geometry":{"x":166746.95000000019,"y":2559683.4800000004}},{"attributes":{"ID":62294,"DIS_CODE":0,"TOWNNAME":"西港區","LI":"慶安里","LIN":"1鄰","STREET":" ","SECT":" ","MAREA":"中州","LANE":" ","ALLEY":" ","HOUSE_NO":"１號之１７","E_COORD97":166747.69,"N_COORD97":2559677.3900000001,"ADDRESS":"中州１號之１７","OBJECTID":62294},"geometry":{"x":166747.68999999948,"y":2559677.3900000006}},{"attributes":{"ID":62295,"DIS_CODE":0,"TOWNNAME":"永康區","LI":"埔園里","LIN":"31鄰","STREET":"八德街","SECT":" ","MAREA":" ","LANE":"２３０巷","ALLEY":"５８弄","HOUSE_NO":"１５號","E_COORD97":173853.10999999999,"N_COORD97":2548676.5600000001,"ADDRESS":"八德街２３０巷５８弄１５號","OBJECTID":62295},"geometry":{"x":173853.11000000127,"y":2548676.5600000024}},{"attributes":{"ID":62296,"DIS_CODE":0,"TOWNNAME":"西港區","LI":"慶安里","LIN":"1鄰","STREET":" ","SECT":" ","MAREA":"中州","LANE":" ","ALLEY":" ","HOUSE_NO":"１號之１８","E_COORD97":166749.22,"N_COORD97":2559670.5299999998,"ADDRESS":"中州１號之１８","OBJECTID":62296},"geometry":{"x":166749.22000000067,"y":2559670.5300000012}},{"attributes":{"ID":62297,"DIS_CODE":0,"TOWNNAME":"永康區","LI":"埔園里","LIN":"31鄰","STREET":"八德街","SECT":" ","MAREA":" ","LANE":"２３０巷","ALLEY":"５８弄","HOUSE_NO":"１７號","E_COORD97":173853.78,"N_COORD97":2548681.6400000001,"ADDRESS":"八德街２３０巷５８弄１７號","OBJECTID":62297},"geometry":{"x":173853.78000000119,"y":2548681.6400000006}},{"attributes":{"ID":62298,"DIS_CODE":0,"TOWNNAME":"西港區","LI":"慶安里","LIN":"1鄰","STREET":" ","SECT":" ","MAREA":"中州","LANE":" ","ALLEY":" ","HOUSE_NO":"１號之１９","E_COORD97":166749.57999999999,"N_COORD97":2559666.3399999999,"ADDRESS":"中州１號之１９","OBJECTID":62298},"geometry":{"x":166749.58000000007,"y":2559666.3400000017}},{"attributes":{"ID":62299,"DIS_CODE":0,"TOWNNAME":"永康區","LI":"埔園里","LIN":"31鄰","STREET":"八德街","SECT":" ","MAREA":" ","LANE":"２３０巷","ALLEY":"５８弄","HOUSE_NO":"１９號","E_COORD97":173857.85999999999,"N_COORD97":2548687.8199999998,"ADDRESS":"八德街２３０巷５８弄１９號","OBJECTID":62299},"geometry":{"x":173857.8600000022,"y":2548687.820000004}},{"attributes":{"ID":62300,"DIS_CODE":0,"TOWNNAME":"永康區","LI":"埔園里","LIN":"31鄰","STREET":"八德街","SECT":" ","MAREA":" ","LANE":"２３０巷","ALLEY":"５８弄","HOUSE_NO":"２１號","E_COORD97":173875.45000000001,"N_COORD97":2548685.27,"ADDRESS":"八德街２３０巷５８弄２１號","OBJECTID":62300},"geometry":{"x":173875.45000000019,"y":2548685.2700000014}},{"attributes":{"ID":62301,"DIS_CODE":0,"TOWNNAME":"西港區","LI":"慶安里","LIN":"1鄰","STREET":" ","SECT":" ","MAREA":"中州","LANE":" ","ALLEY":" ","HOUSE_NO":"１號之１","E_COORD97":166724.04999999999,"N_COORD97":2559723.4300000002,"ADDRESS":"中州１號之１","OBJECTID":62301},"geometry":{"x":166724.04999999981,"y":2559723.4300000016}},{"attributes":{"ID":62302,"DIS_CODE":0,"TOWNNAME":"關廟區","LI":"五甲里","LIN":"8鄰","STREET":"大富街","SECT":" ","MAREA":" ","LANE":" ","ALLEY":" ","HOUSE_NO":"１５５號","E_COORD97":181060.97,"N_COORD97":2539288.25,"ADDRESS":"大富街１５５號","OBJECTID":62302},"geometry":{"x":181060.96999999881,"y":2539288.25}},{"attributes":{"ID":62303,"DIS_CODE":0,"TOWNNAME":"西港區","LI":"慶安里","LIN":"1鄰","STREET":" ","SECT":" ","MAREA":"中州","LANE":" ","ALLEY":" ","HOUSE_NO":"１號之２０","E_COORD97":166749.84,"N_COORD97":2559661.8799999999,"ADDRESS":"中州１號之２０","OBJECTID":62303},"geometry":{"x":166749.84000000078,"y":2559661.8800000008}},{"attributes":{"ID":62304,"DIS_CODE":0,"TOWNNAME":"永康區","LI":"埔園里","LIN":"31鄰","STREET":"八德街","SECT":" ","MAREA":" ","LANE":"２３０巷","ALLEY":"５８弄","HOUSE_NO":"２３號","E_COORD97":173874.60999999999,"N_COORD97":2548679.1099999999,"ADDRESS":"八德街２３０巷５８弄２３號","OBJECTID":62304},"geometry":{"x":173874.61000000034,"y":2548679.1100000013}},{"attributes":{"ID":62305,"DIS_CODE":0,"TOWNNAME":"永康區","LI":"埔園里","LIN":"31鄰","STREET":"八德街","SECT":" ","MAREA":" ","LANE":"２３０巷","ALLEY":"５８弄","HOUSE_NO":"２５號","E_COORD97":173873.91,"N_COORD97":2548674.04,"ADDRESS":"八德街２３０巷５８弄２５號","OBJECTID":62305},"geometry":{"x":173873.91000000015,"y":2548674.0399999991}},{"attributes":{"ID":62306,"DIS_CODE":0,"TOWNNAME":"西港區","LI":"慶安里","LIN":"1鄰","STREET":" ","SECT":" ","MAREA":"中州","LANE":" ","ALLEY":" ","HOUSE_NO":"１號之２１","E_COORD97":166771.76000000001,"N_COORD97":2559698.4700000002,"ADDRESS":"中州１號之２１","OBJECTID":62306},"geometry":{"x":166771.75999999978,"y":2559698.4700000007}},{"attributes":{"ID":62307,"DIS_CODE":0,"TOWNNAME":"西港區","LI":"慶安里","LIN":"1鄰","STREET":" ","SECT":" ","MAREA":"中州","LANE":" ","ALLEY":" ","HOUSE_NO":"１號之２２","E_COORD97":166771.39000000001,"N_COORD97":2559702.8500000001,"ADDRESS":"中州１號之２２","OBJECTID":62307},"geometry":{"x":166771.3900000006,"y":2559702.8500000015}},{"attributes":{"ID":62308,"DIS_CODE":0,"TOWNNAME":"西港區","LI":"慶安里","LIN":"1鄰","STREET":" ","SECT":" ","MAREA":"中州","LANE":" ","ALLEY":" ","HOUSE_NO":"１號之２３","E_COORD97":166771.01000000001,"N_COORD97":2559707.2400000002,"ADDRESS":"中州１號之２３","OBJECTID":62308},"geometry":{"x":166771.01000000071,"y":2559707.2400000021}},{"attributes":{"ID":62309,"DIS_CODE":0,"TOWNNAME":"西港區","LI":"慶安里","LIN":"1鄰","STREET":" ","SECT":" ","MAREA":"中州","LANE":" ","ALLEY":" ","HOUSE_NO":"１號之２４","E_COORD97":166770.64000000001,"N_COORD97":2559711.6200000001,"ADDRESS":"中州１號之２４","OBJECTID":62309},"geometry":{"x":166770.63999999966,"y":2559711.6199999992}},{"attributes":{"ID":62310,"DIS_CODE":0,"TOWNNAME":"西港區","LI":"慶安里","LIN":"1鄰","STREET":" ","SECT":" ","MAREA":"中州","LANE":" ","ALLEY":" ","HOUSE_NO":"１號之２５","E_COORD97":166770.26999999999,"N_COORD97":2559716,"ADDRESS":"中州１號之２５","OBJECTID":62310},"geometry":{"x":166770.27000000048,"y":2559716.0000000019}},{"attributes":{"ID":62311,"DIS_CODE":0,"TOWNNAME":"西港區","LI":"慶安里","LIN":"1鄰","STREET":" ","SECT":" ","MAREA":"中州","LANE":" ","ALLEY":" ","HOUSE_NO":"１號之２６","E_COORD97":166769.89999999999,"N_COORD97":2559720.3799999999,"ADDRESS":"中州１號之２６","OBJECTID":62311},"geometry":{"x":166769.90000000037,"y":2559720.379999999}},{"attributes":{"ID":62312,"DIS_CODE":0,"TOWNNAME":"西港區","LI":"慶安里","LIN":"1鄰","STREET":" ","SECT":" ","MAREA":"中州","LANE":" ","ALLEY":" ","HOUSE_NO":"１號之２７","E_COORD97":166765.73000000001,"N_COORD97":2559735.3700000001,"ADDRESS":"中州１號之２７","OBJECTID":62312},"geometry":{"x":166765.73000000045,"y":2559735.3700000029}},{"attributes":{"ID":62313,"DIS_CODE":0,"TOWNNAME":"永康區","LI":"埔園里","LIN":"31鄰","STREET":"八德街","SECT":" ","MAREA":" ","LANE":"２３０巷","ALLEY":"５８弄","HOUSE_NO":"２７號","E_COORD97":173873.19,"N_COORD97":2548668.79,"ADDRESS":"八德街２３０巷５８弄２７號","OBJECTID":62313},"geometry":{"x":173873.19000000134,"y":2548668.7899999991}},{"attributes":{"ID":62314,"DIS_CODE":0,"TOWNNAME":"西港區","LI":"慶安里","LIN":"1鄰","STREET":" ","SECT":" ","MAREA":"中州","LANE":" ","ALLEY":" ","HOUSE_NO":"１號之２８","E_COORD97":166770.88,"N_COORD97":2559735.7400000002,"ADDRESS":"中州１號之２８","OBJECTID":62314},"geometry":{"x":166770.87999999989,"y":2559735.7400000002}},{"attributes":{"ID":62315,"DIS_CODE":0,"TOWNNAME":"永康區","LI":"埔園里","LIN":"31鄰","STREET":"永大路","SECT":"三段","MAREA":" ","LANE":"４６９巷","ALLEY":"１０７弄","HOUSE_NO":"１０號","E_COORD97":173679.16,"N_COORD97":2548767.1299999999,"ADDRESS":"永大路三段４６９巷１０７弄１０號","OBJECTID":62315},"geometry":{"x":173679.16000000015,"y":2548767.129999999}},{"attributes":{"ID":62316,"DIS_CODE":0,"TOWNNAME":"西港區","LI":"慶安里","LIN":"1鄰","STREET":" ","SECT":" ","MAREA":"中州","LANE":" ","ALLEY":" ","HOUSE_NO":"１號之２９","E_COORD97":166776.04000000001,"N_COORD97":2559736.1200000001,"ADDRESS":"中州１號之２９","OBJECTID":62316},"geometry":{"x":166776.04000000097,"y":2559736.1200000029}},{"attributes":{"ID":62317,"DIS_CODE":0,"TOWNNAME":"永康區","LI":"埔園里","LIN":"31鄰","STREET":"永大路","SECT":"三段","MAREA":" ","LANE":"４６９巷","ALLEY":"１０７弄","HOUSE_NO":"１２號","E_COORD97":173674.04000000001,"N_COORD97":2548769.04,"ADDRESS":"永大路三段４６９巷１０７弄１２號","OBJECTID":62317},"geometry":{"x":173674.04000000097,"y":2548769.0399999991}},{"attributes":{"ID":62318,"DIS_CODE":0,"TOWNNAME":"西港區","LI":"慶安里","LIN":"1鄰","STREET":" ","SECT":" ","MAREA":"中州","LANE":" ","ALLEY":" ","HOUSE_NO":"１號之３０","E_COORD97":166781.19,"N_COORD97":2559736.4900000002,"ADDRESS":"中州１號之３０","OBJECTID":62318},"geometry":{"x":166781.19000000041,"y":2559736.4900000021}},{"attributes":{"ID":62319,"DIS_CODE":0,"TOWNNAME":"西港區","LI":"慶安里","LIN":"1鄰","STREET":" ","SECT":" ","MAREA":"中州","LANE":" ","ALLEY":" ","HOUSE_NO":"１之３１號","E_COORD97":166725.16,"N_COORD97":2559646.4199999999,"ADDRESS":"中州１之３１號","OBJECTID":62319},"geometry":{"x":166725.16000000015,"y":2559646.4199999999}},{"attributes":{"ID":62320,"DIS_CODE":0,"TOWNNAME":"西港區","LI":"慶安里","LIN":"1鄰","STREET":" ","SECT":" ","MAREA":"中州","LANE":" ","ALLEY":" ","HOUSE_NO":"１之３５號","E_COORD97":166594.39999999999,"N_COORD97":2559689.8300000001,"ADDRESS":"中州１之３５號","OBJECTID":62320},"geometry":{"x":166594.4000000013,"y":2559689.8300000019}},{"attributes":{"ID":62321,"DIS_CODE":0,"TOWNNAME":"永康區","LI":"埔園里","LIN":"31鄰","STREET":"永大路","SECT":"三段","MAREA":" ","LANE":"４６９巷","ALLEY":"１０７弄","HOUSE_NO":"１６號","E_COORD97":173669.87,"N_COORD97":2548768.3799999999,"ADDRESS":"永大路三段４６９巷１０７弄１６號","OBJECTID":62321},"geometry":{"x":173669.87000000104,"y":2548768.3800000008}},{"attributes":{"ID":62322,"DIS_CODE":0,"TOWNNAME":"西港區","LI":"慶安里","LIN":"1鄰","STREET":" ","SECT":" ","MAREA":"中州","LANE":" ","ALLEY":" ","HOUSE_NO":"１之３６號","E_COORD97":166678.92000000001,"N_COORD97":2559567.1400000001,"ADDRESS":"中州１之３６號","OBJECTID":62322},"geometry":{"x":166678.91999999993,"y":2559567.1400000006}},{"attributes":{"ID":62323,"DIS_CODE":0,"TOWNNAME":"永康區","LI":"埔園里","LIN":"31鄰","STREET":"永大路","SECT":"三段","MAREA":" ","LANE":"４６９巷","ALLEY":"１０７弄","HOUSE_NO":"１８號","E_COORD97":173665.66,"N_COORD97":2548770.1699999999,"ADDRESS":"永大路三段４６９巷１０７弄１８號","OBJECTID":62323},"geometry":{"x":173665.66000000015,"y":2548770.1700000018}},{"attributes":{"ID":62324,"DIS_CODE":0,"TOWNNAME":"永康區","LI":"埔園里","LIN":"31鄰","STREET":"永大路","SECT":"三段","MAREA":" ","LANE":"４６９巷","ALLEY":"１０７弄","HOUSE_NO":"２０號","E_COORD97":173661.19,"N_COORD97":2548769.5600000001,"ADDRESS":"永大路三段４６９巷１０７弄２０號","OBJECTID":62324},"geometry":{"x":173661.19000000134,"y":2548769.5600000005}},{"attributes":{"ID":62325,"DIS_CODE":0,"TOWNNAME":"西港區","LI":"慶安里","LIN":"1鄰","STREET":" ","SECT":" ","MAREA":"中州","LANE":" ","ALLEY":" ","HOUSE_NO":"１號之５","E_COORD97":166744.62,"N_COORD97":2559732.1499999999,"ADDRESS":"中州１號之５","OBJECTID":62325},"geometry":{"x":166744.62000000197,"y":2559732.1500000022}},{"attributes":{"ID":62326,"DIS_CODE":0,"TOWNNAME":"西港區","LI":"慶安里","LIN":"1鄰","STREET":" ","SECT":" ","MAREA":"中州","LANE":" ","ALLEY":" ","HOUSE_NO":"１號之６","E_COORD97":166750.09,"N_COORD97":2559732.6299999999,"ADDRESS":"中州１號之６","OBJECTID":62326},"geometry":{"x":166750.09000000078,"y":2559732.629999999}},{"attributes":{"ID":62327,"DIS_CODE":0,"TOWNNAME":"西港區","LI":"慶安里","LIN":"1鄰","STREET":" ","SECT":" ","MAREA":"中州","LANE":" ","ALLEY":" ","HOUSE_NO":"１號之７","E_COORD97":166755.56,"N_COORD97":2559733.1099999999,"ADDRESS":"中州１號之７","OBJECTID":62327},"geometry":{"x":166755.55999999959,"y":2559733.1099999994}},{"attributes":{"ID":62328,"DIS_CODE":0,"TOWNNAME":"西港區","LI":"慶安里","LIN":"1鄰","STREET":" ","SECT":" ","MAREA":"中州","LANE":" ","ALLEY":" ","HOUSE_NO":"１號之８","E_COORD97":166742.91,"N_COORD97":2559718.25,"ADDRESS":"中州１號之８","OBJECTID":62328},"geometry":{"x":166742.91000000108,"y":2559718.2500000019}},{"attributes":{"ID":62329,"DIS_CODE":0,"TOWNNAME":"關廟區","LI":"香洋里","LIN":"8鄰","STREET":"南雄路","SECT":"二段","MAREA":" ","LANE":" ","ALLEY":" ","HOUSE_NO":"１５號","E_COORD97":181081.73999999999,"N_COORD97":2540054.2799999998,"ADDRESS":"南雄路二段１５號","OBJECTID":62329},"geometry":{"x":181081.74000000209,"y":2540054.2799999993}},{"attributes":{"ID":62330,"DIS_CODE":0,"TOWNNAME":"西港區","LI":"慶安里","LIN":"1鄰","STREET":" ","SECT":" ","MAREA":"中州","LANE":" ","ALLEY":" ","HOUSE_NO":"１號之９","E_COORD97":166743.48999999999,"N_COORD97":2559714.29,"ADDRESS":"中州１號之９","OBJECTID":62330},"geometry":{"x":166743.49000000022,"y":2559714.2899999991}},{"attributes":{"ID":62331,"DIS_CODE":0,"TOWNNAME":"西港區","LI":"慶安里","LIN":"1鄰","STREET":" ","SECT":" ","MAREA":"中州","LANE":" ","ALLEY":" ","HOUSE_NO":"２１號之１５","E_COORD97":167033.97,"N_COORD97":2558939.6899999999,"ADDRESS":"中州２１號之１５","OBJECTID":62331},"geometry":{"x":167033.97000000067,"y":2558939.6899999995}},{"attributes":{"ID":62332,"DIS_CODE":0,"TOWNNAME":"關廟區","LI":"松腳里","LIN":"8鄰","STREET":"勝利街","SECT":" ","MAREA":" ","LANE":" ","ALLEY":" ","HOUSE_NO":"２６號","E_COORD97":181808.62,"N_COORD97":2539747.2599999998,"ADDRESS":"勝利街２６號","OBJECTID":62332},"geometry":{"x":181808.62000000104,"y":2539747.2600000016}},{"attributes":{"ID":62333,"DIS_CODE":0,"TOWNNAME":"關廟區","LI":"深坑里","LIN":"8鄰","STREET":"深坑三街","SECT":" ","MAREA":" ","LANE":" ","ALLEY":" ","HOUSE_NO":"８號","E_COORD97":181724.82000000001,"N_COORD97":2537837.2999999998,"ADDRESS":"深坑三街８號","OBJECTID":62333},"geometry":{"x":181724.8200000003,"y":2537837.3000000007}},{"attributes":{"ID":62334,"DIS_CODE":0,"TOWNNAME":"西港區","LI":"慶安里","LIN":"1鄰","STREET":" ","SECT":" ","MAREA":"中州","LANE":" ","ALLEY":" ","HOUSE_NO":"２１號之１８","E_COORD97":166953.10999999999,"N_COORD97":2559164.7599999998,"ADDRESS":"中州２１號之１８","OBJECTID":62334},"geometry":{"x":166953.11000000034,"y":2559164.7600000016}},{"attributes":{"ID":62335,"DIS_CODE":0,"TOWNNAME":"西港區","LI":"西港里","LIN":"1鄰","STREET":" ","SECT":" ","MAREA":"中州","LANE":" ","ALLEY":" ","HOUSE_NO":"２２號之１","E_COORD97":167775.28,"N_COORD97":2559740.0600000001,"ADDRESS":"中州２２號之１","OBJECTID":62335},"geometry":{"x":167775.28000000026,"y":2559740.0600000024}},{"attributes":{"ID":62336,"DIS_CODE":0,"TOWNNAME":"西港區","LI":"西港里","LIN":"1鄰","STREET":" ","SECT":" ","MAREA":"中州","LANE":" ","ALLEY":" ","HOUSE_NO":"２２號之２","E_COORD97":167743.91,"N_COORD97":2559728.3300000001,"ADDRESS":"中州２２號之２","OBJECTID":62336},"geometry":{"x":167743.91000000015,"y":2559728.3300000001}},{"attributes":{"ID":62337,"DIS_CODE":0,"TOWNNAME":"楠西區","LI":"東勢里","LIN":" ","STREET":"中興路","SECT":" ","MAREA":" ","LANE":" ","ALLEY":" ","HOUSE_NO":"２０２號","E_COORD97":197365.26000000001,"N_COORD97":2564491.25,"ADDRESS":"中興路２０２號","OBJECTID":62337},"geometry":{"x":197365.26000000164,"y":2564491.2500000019}},{"attributes":{"ID":62338,"DIS_CODE":0,"TOWNNAME":"新營區","LI":"嘉芳里","LIN":"4鄰","STREET":" ","SECT":" ","MAREA":"茄苳腳","LANE":" ","ALLEY":" ","HOUSE_NO":"３２之３號","E_COORD97":177004.48000000001,"N_COORD97":2578374.6099999999,"ADDRESS":"茄苳腳３２之３號","OBJECTID":62338},"geometry":{"x":177004.48000000045,"y":2578374.6100000013}},{"attributes":{"ID":62339,"DIS_CODE":0,"TOWNNAME":"西港區","LI":"西港里","LIN":"1鄰","STREET":" ","SECT":" ","MAREA":"中州","LANE":" ","ALLEY":" ","HOUSE_NO":"２２號之３","E_COORD97":167741.76000000001,"N_COORD97":2559731.8700000001,"ADDRESS":"中州２２號之３","OBJECTID":62339},"geometry":{"x":167741.76000000164,"y":2559731.8700000029}},{"attributes":{"ID":62340,"DIS_CODE":0,"TOWNNAME":"西港區","LI":"西港里","LIN":"1鄰","STREET":" ","SECT":" ","MAREA":"中州","LANE":" ","ALLEY":" ","HOUSE_NO":"２２號之４","E_COORD97":167739.29999999999,"N_COORD97":2559735.5099999998,"ADDRESS":"中州２２號之４","OBJECTID":62340},"geometry":{"x":167739.29999999981,"y":2559735.5100000016}},{"attributes":{"ID":62341,"DIS_CODE":0,"TOWNNAME":"永康區","LI":"埔園里","LIN":"31鄰","STREET":"永大路","SECT":"三段","MAREA":" ","LANE":"４６９巷","ALLEY":"１０７弄","HOUSE_NO":"２８號","E_COORD97":173656.39999999999,"N_COORD97":2548742.1899999999,"ADDRESS":"永大路三段４６９巷１０７弄２８號","OBJECTID":62341},"geometry":{"x":173656.4000000013,"y":2548742.1900000013}},{"attributes":{"ID":62342,"DIS_CODE":0,"TOWNNAME":"永康區","LI":"埔園里","LIN":"31鄰","STREET":"永大路","SECT":"三段","MAREA":" ","LANE":"４６９巷","ALLEY":"１０７弄","HOUSE_NO":"３０號","E_COORD97":173660.73000000001,"N_COORD97":2548741.6299999999,"ADDRESS":"永大路三段４６９巷１０７弄３０號","OBJECTID":62342},"geometry":{"x":173660.73000000138,"y":2548741.6300000027}},{"attributes":{"ID":62343,"DIS_CODE":0,"TOWNNAME":"永康區","LI":"埔園里","LIN":"31鄰","STREET":"永大路","SECT":"三段","MAREA":" ","LANE":"４６９巷","ALLEY":"１０７弄","HOUSE_NO":"３２號","E_COORD97":173665.06,"N_COORD97":2548741.0699999998,"ADDRESS":"永大路三段４６９巷１０７弄３２號","OBJECTID":62343},"geometry":{"x":173665.05999999959,"y":2548741.0700000022}},{"attributes":{"ID":62344,"DIS_CODE":0,"TOWNNAME":"永康區","LI":"埔園里","LIN":"31鄰","STREET":"永大路","SECT":"三段","MAREA":" ","LANE":"４６９巷","ALLEY":"１０７弄","HOUSE_NO":"３６號","E_COORD97":173669.92000000001,"N_COORD97":2548739.23,"ADDRESS":"永大路三段４６９巷１０７弄３６號","OBJECTID":62344},"geometry":{"x":173669.91999999993,"y":2548739.2300000042}},{"attributes":{"ID":62345,"DIS_CODE":0,"TOWNNAME":"永康區","LI":"埔園里","LIN":"31鄰","STREET":"永大路","SECT":"三段","MAREA":" ","LANE":"４６９巷","ALLEY":"１０７弄","HOUSE_NO":"３８號","E_COORD97":173675.60999999999,"N_COORD97":2548740.8199999998,"ADDRESS":"永大路三段４６９巷１０７弄３８號","OBJECTID":62345},"geometry":{"x":173675.61000000127,"y":2548740.8200000003}},{"attributes":{"ID":62346,"DIS_CODE":0,"TOWNNAME":"永康區","LI":"埔園里","LIN":"31鄰","STREET":"八德街","SECT":" ","MAREA":" ","LANE":"１７０巷","ALLEY":"５弄","HOUSE_NO":"１號","E_COORD97":173917.66,"N_COORD97":2548597.2400000002,"ADDRESS":"八德街１７０巷５弄１號","OBJECTID":62346},"geometry":{"x":173917.66000000015,"y":2548597.2400000021}},{"attributes":{"ID":62347,"DIS_CODE":0,"TOWNNAME":"永康區","LI":"埔園里","LIN":"31鄰","STREET":"八德街","SECT":" ","MAREA":" ","LANE":"１７０巷","ALLEY":"５弄","HOUSE_NO":"３號","E_COORD97":173912.01000000001,"N_COORD97":2548595.1499999999,"ADDRESS":"八德街１７０巷５弄３號","OBJECTID":62347},"geometry":{"x":173912.00999999978,"y":2548595.1500000022}},{"attributes":{"ID":62348,"DIS_CODE":0,"TOWNNAME":"永康區","LI":"埔園里","LIN":"31鄰","STREET":"八德街","SECT":" ","MAREA":" ","LANE":"１７０巷","ALLEY":"５弄","HOUSE_NO":"５號","E_COORD97":173907.39999999999,"N_COORD97":2548595.6800000002,"ADDRESS":"八德街１７０巷５弄５號","OBJECTID":62348},"geometry":{"x":173907.4000000013,"y":2548595.6799999997}},{"attributes":{"ID":62349,"DIS_CODE":0,"TOWNNAME":"永康區","LI":"埔園里","LIN":"31鄰","STREET":"八德街","SECT":" ","MAREA":" ","LANE":"１７０巷","ALLEY":"５弄","HOUSE_NO":"７號","E_COORD97":173902.76999999999,"N_COORD97":2548596.21,"ADDRESS":"八德街１７０巷５弄７號","OBJECTID":62349},"geometry":{"x":173902.76999999955,"y":2548596.2100000009}},{"attributes":{"ID":62350,"DIS_CODE":0,"TOWNNAME":"永康區","LI":"埔園里","LIN":"31鄰","STREET":"八德街","SECT":" ","MAREA":" ","LANE":"１７０巷","ALLEY":"５弄","HOUSE_NO":"９號","E_COORD97":173897.20999999999,"N_COORD97":2548589.29,"ADDRESS":"八德街１７０巷５弄９號","OBJECTID":62350},"geometry":{"x":173897.20999999996,"y":2548589.290000001}},{"attributes":{"ID":62351,"DIS_CODE":0,"TOWNNAME":"永康區","LI":"埔園里","LIN":"31鄰","STREET":"八德街","SECT":" ","MAREA":" ","LANE":"１７０巷","ALLEY":"５弄","HOUSE_NO":"１１號","E_COORD97":173891.87,"N_COORD97":2548590.5699999998,"ADDRESS":"八德街１７０巷５弄１１號","OBJECTID":62351},"geometry":{"x":173891.87000000104,"y":2548590.5700000003}},{"attributes":{"ID":62352,"DIS_CODE":0,"TOWNNAME":"永康區","LI":"埔園里","LIN":"31鄰","STREET":"八德街","SECT":" ","MAREA":" ","LANE":"１７０巷","ALLEY":"５弄","HOUSE_NO":"２號","E_COORD97":173920.45999999999,"N_COORD97":2548614.3300000001,"ADDRESS":"八德街１７０巷５弄２號","OBJECTID":62352},"geometry":{"x":173920.45999999996,"y":2548614.3300000019}},{"attributes":{"ID":62353,"DIS_CODE":0,"TOWNNAME":"永康區","LI":"埔園里","LIN":"31鄰","STREET":"八德街","SECT":" ","MAREA":" ","LANE":"１７０巷","ALLEY":"５弄","HOUSE_NO":"６號","E_COORD97":173914.98999999999,"N_COORD97":2548615.9500000002,"ADDRESS":"八德街１７０巷５弄６號","OBJECTID":62353},"geometry":{"x":173914.99000000115,"y":2548615.9500000011}},{"attributes":{"ID":62354,"DIS_CODE":0,"TOWNNAME":"永康區","LI":"埔園里","LIN":"31鄰","STREET":"八德街","SECT":" ","MAREA":" ","LANE":"１７０巷","ALLEY":"５弄","HOUSE_NO":"８號","E_COORD97":173910.04000000001,"N_COORD97":2548621.23,"ADDRESS":"八德街１７０巷５弄８號","OBJECTID":62354},"geometry":{"x":173910.04000000004,"y":2548621.2300000023}},{"attributes":{"ID":62355,"DIS_CODE":0,"TOWNNAME":"永康區","LI":"埔園里","LIN":"31鄰","STREET":"八德街","SECT":" ","MAREA":" ","LANE":"１７０巷","ALLEY":"５弄","HOUSE_NO":"１２號","E_COORD97":173902.53,"N_COORD97":2548624.6800000002,"ADDRESS":"八德街１７０巷５弄１２號","OBJECTID":62355},"geometry":{"x":173902.53000000212,"y":2548624.6800000016}},{"attributes":{"ID":62356,"DIS_CODE":0,"TOWNNAME":"關廟區","LI":"五甲里","LIN":"8鄰","STREET":"五慧街","SECT":" ","MAREA":" ","LANE":" ","ALLEY":" ","HOUSE_NO":"６８號","E_COORD97":181113.92000000001,"N_COORD97":2539255.25,"ADDRESS":"五慧街６８號","OBJECTID":62356},"geometry":{"x":181113.91999999993,"y":2539255.25}},{"attributes":{"ID":62357,"DIS_CODE":0,"TOWNNAME":"西港區","LI":"西港里","LIN":"1鄰","STREET":" ","SECT":" ","MAREA":"中州","LANE":" ","ALLEY":" ","HOUSE_NO":"２２號之５","E_COORD97":167736.63,"N_COORD97":2559739.8100000001,"ADDRESS":"中州２２號之５","OBJECTID":62357},"geometry":{"x":167736.63000000082,"y":2559739.8100000005}},{"attributes":{"ID":62358,"DIS_CODE":0,"TOWNNAME":"西港區","LI":"西港里","LIN":"1鄰","STREET":" ","SECT":" ","MAREA":"中州","LANE":" ","ALLEY":" ","HOUSE_NO":"２２號之６","E_COORD97":167732.79000000001,"N_COORD97":2559748.25,"ADDRESS":"中州２２號之６","OBJECTID":62358},"geometry":{"x":167732.79000000004,"y":2559748.2500000019}},{"attributes":{"ID":62359,"DIS_CODE":0,"TOWNNAME":"西港區","LI":"西港里","LIN":"1鄰","STREET":" ","SECT":" ","MAREA":"中州","LANE":" ","ALLEY":" ","HOUSE_NO":"２２號之７","E_COORD97":167734.42999999999,"N_COORD97":2559744.3100000001,"ADDRESS":"中州２２號之７","OBJECTID":62359},"geometry":{"x":167734.43000000063,"y":2559744.3100000024}},{"attributes":{"ID":62360,"DIS_CODE":0,"TOWNNAME":"西港區","LI":"西港里","LIN":"1鄰","STREET":" ","SECT":" ","MAREA":"中州","LANE":" ","ALLEY":" ","HOUSE_NO":"２５號之２８","E_COORD97":167921.26000000001,"N_COORD97":2559579.3799999999,"ADDRESS":"中州２５號之２８","OBJECTID":62360},"geometry":{"x":167921.25999999978,"y":2559579.3800000008}},{"attributes":{"ID":62361,"DIS_CODE":0,"TOWNNAME":"關廟區","LI":"東勢里","LIN":"8鄰","STREET":"旺萊路","SECT":" ","MAREA":" ","LANE":" ","ALLEY":" ","HOUSE_NO":"２２５號","E_COORD97":182012.14000000001,"N_COORD97":2539494.25,"ADDRESS":"旺萊路２２５號","OBJECTID":62361},"geometry":{"x":182012.13999999966,"y":2539494.2500000019}},{"attributes":{"ID":62362,"DIS_CODE":0,"TOWNNAME":"關廟區","LI":"東勢里","LIN":"8鄰","STREET":"四維街","SECT":" ","MAREA":" ","LANE":" ","ALLEY":" ","HOUSE_NO":"４８號","E_COORD97":181930.20999999999,"N_COORD97":2539534.25,"ADDRESS":"四維街４８號","OBJECTID":62362},"geometry":{"x":181930.20999999996,"y":2539534.2500000019}},{"attributes":{"ID":62363,"DIS_CODE":0,"TOWNNAME":"北區","LI":"成功里","LIN":"8鄰","STREET":"北成路","SECT":" ","MAREA":" ","LANE":" ","ALLEY":" ","HOUSE_NO":"１４７號","E_COORD97":168810.01999999999,"N_COORD97":2546714.8700000001,"ADDRESS":"北成路１４７號","OBJECTID":62363},"geometry":{"x":168810.02000000048,"y":2546714.8700000048}},{"attributes":{"ID":62364,"DIS_CODE":0,"TOWNNAME":"北區","LI":"成功里","LIN":"8鄰","STREET":"北成路","SECT":" ","MAREA":" ","LANE":" ","ALLEY":" ","HOUSE_NO":"１４９號","E_COORD97":168805.45000000001,"N_COORD97":2546717.6600000001,"ADDRESS":"北成路１４９號","OBJECTID":62364},"geometry":{"x":168805.45000000205,"y":2546717.6600000001}},{"attributes":{"ID":62365,"DIS_CODE":0,"TOWNNAME":"北區","LI":"成功里","LIN":"8鄰","STREET":"北成路","SECT":" ","MAREA":" ","LANE":" ","ALLEY":" ","HOUSE_NO":"１５１號","E_COORD97":168801.64999999999,"N_COORD97":2546719.6899999999,"ADDRESS":"北成路１５１號","OBJECTID":62365},"geometry":{"x":168801.6500000013,"y":2546719.6899999995}},{"attributes":{"ID":62366,"DIS_CODE":0,"TOWNNAME":"北區","LI":"成功里","LIN":"8鄰","STREET":"北成路","SECT":" ","MAREA":" ","LANE":" ","ALLEY":" ","HOUSE_NO":"１５３號","E_COORD97":168797.32999999999,"N_COORD97":2546721.46,"ADDRESS":"北成路１５３號","OBJECTID":62366},"geometry":{"x":168797.33000000007,"y":2546721.4600000028}},{"attributes":{"ID":62367,"DIS_CODE":0,"TOWNNAME":"北區","LI":"成功里","LIN":"8鄰","STREET":"北成路","SECT":" ","MAREA":" ","LANE":" ","ALLEY":" ","HOUSE_NO":"１５５號","E_COORD97":168793.26999999999,"N_COORD97":2546724.25,"ADDRESS":"北成路１５５號","OBJECTID":62367},"geometry":{"x":168793.27000000048,"y":2546724.25}},{"attributes":{"ID":62368,"DIS_CODE":0,"TOWNNAME":"西港區","LI":"西港里","LIN":"1鄰","STREET":" ","SECT":" ","MAREA":"中州","LANE":" ","ALLEY":" ","HOUSE_NO":"２５號之２９","E_COORD97":167918.34,"N_COORD97":2559583.4300000002,"ADDRESS":"中州２５號之２９","OBJECTID":62368},"geometry":{"x":167918.34000000078,"y":2559583.4300000016}},{"attributes":{"ID":62369,"DIS_CODE":0,"TOWNNAME":"永康區","LI":"埔園里","LIN":"31鄰","STREET":"八德街","SECT":" ","MAREA":" ","LANE":"１７０巷","ALLEY":"５弄","HOUSE_NO":"１６號","E_COORD97":173896.25,"N_COORD97":2548622.5499999998,"ADDRESS":"八德街１７０巷５弄１６號","OBJECTID":62369},"geometry":{"x":173896.25000000093,"y":2548622.5500000026}},{"attributes":{"ID":62370,"DIS_CODE":0,"TOWNNAME":"楠西區","LI":"楠西里","LIN":" ","STREET":"中正路","SECT":" ","MAREA":" ","LANE":" ","ALLEY":" ","HOUSE_NO":"２２４號","E_COORD97":197373.16,"N_COORD97":2563714.25,"ADDRESS":"中正路２２４號","OBJECTID":62370},"geometry":{"x":197373.16000000108,"y":2563714.2500000019}},{"attributes":{"ID":62371,"DIS_CODE":0,"TOWNNAME":"楠西區","LI":"東勢里","LIN":" ","STREET":"水庫路","SECT":" ","MAREA":" ","LANE":" ","ALLEY":" ","HOUSE_NO":"５７號","E_COORD97":197914.22,"N_COORD97":2564452.25,"ADDRESS":"水庫路５７號","OBJECTID":62371},"geometry":{"x":197914.21999999974,"y":2564452.25}},{"attributes":{"ID":62372,"DIS_CODE":0,"TOWNNAME":"永康區","LI":"埔園里","LIN":"31鄰","STREET":"八德街","SECT":" ","MAREA":" ","LANE":"１７０巷","ALLEY":"１１弄","HOUSE_NO":"１號","E_COORD97":173925.07000000001,"N_COORD97":2548647.21,"ADDRESS":"八德街１７０巷１１弄１號","OBJECTID":62372},"geometry":{"x":173925.07000000123,"y":2548647.2100000009}},{"attributes":{"ID":62373,"DIS_CODE":0,"TOWNNAME":"永康區","LI":"埔園里","LIN":"31鄰","STREET":"八德街","SECT":" ","MAREA":" ","LANE":"１７０巷","ALLEY":"１１弄","HOUSE_NO":"３號","E_COORD97":173917.56,"N_COORD97":2548642.8399999999,"ADDRESS":"八德街１７０巷１１弄３號","OBJECTID":62373},"geometry":{"x":173917.56000000052,"y":2548642.8400000036}},{"attributes":{"ID":62374,"DIS_CODE":0,"TOWNNAME":"永康區","LI":"埔園里","LIN":"31鄰","STREET":"八德街","SECT":" ","MAREA":" ","LANE":"１７０巷","ALLEY":"１１弄","HOUSE_NO":"５號","E_COORD97":173912.97,"N_COORD97":2548643.3999999999,"ADDRESS":"八德街１７０巷１１弄５號","OBJECTID":62374},"geometry":{"x":173912.97000000067,"y":2548643.4000000022}},{"attributes":{"ID":62375,"DIS_CODE":0,"TOWNNAME":"永康區","LI":"埔園里","LIN":"31鄰","STREET":"八德街","SECT":" ","MAREA":" ","LANE":"１７０巷","ALLEY":"１１弄","HOUSE_NO":"７號","E_COORD97":173908.39000000001,"N_COORD97":2548643.96,"ADDRESS":"八德街１７０巷１１弄７號","OBJECTID":62375},"geometry":{"x":173908.3900000006,"y":2548643.9600000028}},{"attributes":{"ID":62376,"DIS_CODE":0,"TOWNNAME":"永康區","LI":"埔園里","LIN":"31鄰","STREET":"八德街","SECT":" ","MAREA":" ","LANE":"１７０巷","ALLEY":"１１弄","HOUSE_NO":"９號","E_COORD97":173904.81,"N_COORD97":2548641.8199999998,"ADDRESS":"八德街１７０巷１１弄９號","OBJECTID":62376},"geometry":{"x":173904.80999999866,"y":2548641.8200000003}},{"attributes":{"ID":62377,"DIS_CODE":0,"TOWNNAME":"永康區","LI":"埔園里","LIN":"31鄰","STREET":"八德街","SECT":" ","MAREA":" ","LANE":"１７０巷","ALLEY":"１１弄","HOUSE_NO":"１１號","E_COORD97":173899.06,"N_COORD97":2548643.1800000002,"ADDRESS":"八德街１７０巷１１弄１１號","OBJECTID":62377},"geometry":{"x":173899.05999999959,"y":2548643.1799999997}},{"attributes":{"ID":62378,"DIS_CODE":0,"TOWNNAME":"永康區","LI":"西勢里","LIN":"31鄰","STREET":"富強路","SECT":"一段","MAREA":" ","LANE":"９３巷","ALLEY":"１０弄","HOUSE_NO":"１９號","E_COORD97":175447.26000000001,"N_COORD97":2546283.9399999999,"ADDRESS":"富強路一段９３巷１０弄１９號","OBJECTID":62378},"geometry":{"x":175447.25999999978,"y":2546283.9399999995}},{"attributes":{"ID":62379,"DIS_CODE":0,"TOWNNAME":"永康區","LI":"西灣里","LIN":"31鄰","STREET":"公園路","SECT":" ","MAREA":" ","LANE":"９３巷","ALLEY":"１２弄","HOUSE_NO":"１８號","E_COORD97":174194.39999999999,"N_COORD97":2545866.27,"ADDRESS":"公園路９３巷１２弄１８號","OBJECTID":62379},"geometry":{"x":174194.40000000037,"y":2545866.2700000033}},{"attributes":{"ID":62380,"DIS_CODE":0,"TOWNNAME":"永康區","LI":"西勢里","LIN":"31鄰","STREET":"富強路","SECT":"一段","MAREA":" ","LANE":"９３巷","ALLEY":"１０弄","HOUSE_NO":"８號","E_COORD97":175448.39999999999,"N_COORD97":2546248.77,"ADDRESS":"富強路一段９３巷１０弄８號","OBJECTID":62380},"geometry":{"x":175448.4000000013,"y":2546248.7699999996}},{"attributes":{"ID":62381,"DIS_CODE":0,"TOWNNAME":"永康區","LI":"正強里","LIN":"31鄰","STREET":"自強路","SECT":" ","MAREA":" ","LANE":"２５５巷","ALLEY":"４２弄","HOUSE_NO":"１號之８","E_COORD97":173119.85999999999,"N_COORD97":2547625.29,"ADDRESS":"自強路２５５巷４２弄１號之８","OBJECTID":62381},"geometry":{"x":173119.86000000034,"y":2547625.2900000028}},{"attributes":{"ID":62382,"DIS_CODE":0,"TOWNNAME":"永康區","LI":"西灣里","LIN":"31鄰","STREET":"公園路","SECT":" ","MAREA":" ","LANE":"９３巷","ALLEY":"６弄","HOUSE_NO":"６號","E_COORD97":174233.54999999999,"N_COORD97":2545925.3999999999,"ADDRESS":"公園路９３巷６弄６號","OBJECTID":62382},"geometry":{"x":174233.54999999981,"y":2545925.4000000022}},{"attributes":{"ID":62383,"DIS_CODE":0,"TOWNNAME":"新營區","LI":"延平里","LIN":" ","STREET":"復興路","SECT":" ","MAREA":" ","LANE":" ","ALLEY":" ","HOUSE_NO":"１之１１２號","E_COORD97":179715.17999999999,"N_COORD97":2577935.1299999999,"ADDRESS":"復興路１之１１２號","OBJECTID":62383},"geometry":{"x":179715.1799999997,"y":2577935.129999999}},{"attributes":{"ID":62384,"DIS_CODE":0,"TOWNNAME":"新營區","LI":"民榮里","LIN":"34鄰","STREET":"復興路","SECT":" ","MAREA":" ","LANE":" ","ALLEY":" ","HOUSE_NO":"３０１號","E_COORD97":178603.89999999999,"N_COORD97":2578135.2999999998,"ADDRESS":"復興路３０１號","OBJECTID":62384},"geometry":{"x":178603.90000000037,"y":2578135.3000000007}},{"attributes":{"ID":62385,"DIS_CODE":0,"TOWNNAME":"新營區","LI":"中營里","LIN":"14鄰","STREET":"東山路","SECT":" ","MAREA":" ","LANE":" ","ALLEY":" ","HOUSE_NO":"１９５號","E_COORD97":181915.64999999999,"N_COORD97":2578747.6299999999,"ADDRESS":"東山路１９５號","OBJECTID":62385},"geometry":{"x":181915.6500000013,"y":2578747.6300000008}},{"attributes":{"ID":62386,"DIS_CODE":0,"TOWNNAME":"楠西區","LI":"東勢里","LIN":" ","STREET":"茄拔路","SECT":" ","MAREA":" ","LANE":" ","ALLEY":" ","HOUSE_NO":"２２８號","E_COORD97":197565.04000000001,"N_COORD97":2563726.2799999998,"ADDRESS":"茄拔路２２８號","OBJECTID":62386},"geometry":{"x":197565.04000000004,"y":2563726.2799999975}},{"attributes":{"ID":62387,"DIS_CODE":0,"TOWNNAME":"楠西區","LI":"楠西里","LIN":" ","STREET":"中正路","SECT":" ","MAREA":" ","LANE":" ","ALLEY":" ","HOUSE_NO":"８６號","E_COORD97":197237.81,"N_COORD97":2564001.25,"ADDRESS":"中正路８６號","OBJECTID":62387},"geometry":{"x":197237.81000000052,"y":2564001.25}},{"attributes":{"ID":62388,"DIS_CODE":0,"TOWNNAME":"楠西區","LI":"東勢里","LIN":" ","STREET":"水庫路","SECT":" ","MAREA":" ","LANE":" ","ALLEY":" ","HOUSE_NO":"５９８號","E_COORD97":197597.37,"N_COORD97":2563314.25,"ADDRESS":"水庫路５９８號","OBJECTID":62388},"geometry":{"x":197597.37000000104,"y":2563314.2500000019}},{"attributes":{"ID":62389,"DIS_CODE":0,"TOWNNAME":"楠西區","LI":"東勢里","LIN":" ","STREET":"中正路","SECT":" ","MAREA":" ","LANE":" ","ALLEY":" ","HOUSE_NO":"２１１號","E_COORD97":197395.45999999999,"N_COORD97":2563773.25,"ADDRESS":"中正路２１１號","OBJECTID":62389},"geometry":{"x":197395.45999999996,"y":2563773.25}},{"attributes":{"ID":62390,"DIS_CODE":0,"TOWNNAME":"麻豆區","LI":"麻口里","LIN":"8鄰","STREET":" ","SECT":" ","MAREA":"麻豆口","LANE":" ","ALLEY":" ","HOUSE_NO":"７２號之１","E_COORD97":169885.54999999999,"N_COORD97":2564485.7999999998,"ADDRESS":"麻豆口７２號之１","OBJECTID":62390},"geometry":{"x":169885.54999999981,"y":2564485.8000000007}},{"attributes":{"ID":62391,"DIS_CODE":0,"TOWNNAME":"麻豆區","LI":"麻口里","LIN":"8鄰","STREET":" ","SECT":" ","MAREA":"麻豆口","LANE":" ","ALLEY":" ","HOUSE_NO":"７２號之２","E_COORD97":169885.66,"N_COORD97":2564461.8199999998,"ADDRESS":"麻豆口７２號之２","OBJECTID":62391},"geometry":{"x":169885.66000000201,"y":2564461.8200000003}},{"attributes":{"ID":62392,"DIS_CODE":0,"TOWNNAME":"新營區","LI":"民榮里","LIN":"17鄰","STREET":"富強街","SECT":" ","MAREA":" ","LANE":" ","ALLEY":" ","HOUSE_NO":"５３號","E_COORD97":178918.26000000001,"N_COORD97":2577842.52,"ADDRESS":"富強街５３號","OBJECTID":62392},"geometry":{"x":178918.26000000071,"y":2577842.5199999977}},{"attributes":{"ID":62393,"DIS_CODE":0,"TOWNNAME":"麻豆區","LI":"麻口里","LIN":"8鄰","STREET":" ","SECT":" ","MAREA":"麻豆口","LANE":" ","ALLEY":" ","HOUSE_NO":"７２號之３","E_COORD97":169885.57000000001,"N_COORD97":2564446.6200000001,"ADDRESS":"麻豆口７２號之３","OBJECTID":62393},"geometry":{"x":169885.5700000003,"y":2564446.620000001}},{"attributes":{"ID":62394,"DIS_CODE":0,"TOWNNAME":"麻豆區","LI":"麻口里","LIN":"8鄰","STREET":" ","SECT":" ","MAREA":"麻豆口","LANE":" ","ALLEY":" ","HOUSE_NO":"７２號之４","E_COORD97":169886.54000000001,"N_COORD97":2564440.2400000002,"ADDRESS":"麻豆口７２號之４","OBJECTID":62394},"geometry":{"x":169886.54000000097,"y":2564440.2400000021}},{"attributes":{"ID":62395,"DIS_CODE":0,"TOWNNAME":"永康區","LI":"西灣里","LIN":"31鄰","STREET":"公園路","SECT":" ","MAREA":" ","LANE":"９３巷","ALLEY":"６弄","HOUSE_NO":"１７號","E_COORD97":174213.67999999999,"N_COORD97":2545905.3199999998,"ADDRESS":"公園路９３巷６弄１７號","OBJECTID":62395},"geometry":{"x":174213.6799999997,"y":2545905.3200000022}},{"attributes":{"ID":62396,"DIS_CODE":0,"TOWNNAME":"麻豆區","LI":"麻口里","LIN":"8鄰","STREET":" ","SECT":" ","MAREA":"麻豆口","LANE":" ","ALLEY":" ","HOUSE_NO":"７３號","E_COORD97":169870.53,"N_COORD97":2564422.0699999998,"ADDRESS":"麻豆口７３號","OBJECTID":62396},"geometry":{"x":169870.53000000026,"y":2564422.0700000022}},{"attributes":{"ID":62397,"DIS_CODE":0,"TOWNNAME":"麻豆區","LI":"麻口里","LIN":"8鄰","STREET":" ","SECT":" ","MAREA":"麻豆口","LANE":" ","ALLEY":" ","HOUSE_NO":"７４號之１","E_COORD97":169841.35999999999,"N_COORD97":2564336.5099999998,"ADDRESS":"麻豆口７４號之１","OBJECTID":62397},"geometry":{"x":169841.36000000034,"y":2564336.5100000016}},{"attributes":{"ID":62398,"DIS_CODE":0,"TOWNNAME":"永康區","LI":"正強里","LIN":"31鄰","STREET":"自強路","SECT":" ","MAREA":" ","LANE":"２５５巷","ALLEY":"４２弄","HOUSE_NO":"１號之１９","E_COORD97":173121.04999999999,"N_COORD97":2547625.29,"ADDRESS":"自強路２５５巷４２弄１號之１９","OBJECTID":62398},"geometry":{"x":173121.05000000075,"y":2547625.2900000028}},{"attributes":{"ID":62399,"DIS_CODE":0,"TOWNNAME":"東區","LI":"大同里","LIN":"31鄰","STREET":"大同路","SECT":"一段","MAREA":" ","LANE":"１７５巷","ALLEY":"１５８弄","HOUSE_NO":"１０號","E_COORD97":169371.72,"N_COORD97":2542581.5499999998,"ADDRESS":"大同路一段１７５巷１５８弄１０號","OBJECTID":62399},"geometry":{"x":169371.72000000067,"y":2542581.5500000026}},{"attributes":{"ID":62400,"DIS_CODE":0,"TOWNNAME":"東區","LI":"大同里","LIN":"31鄰","STREET":"大同路","SECT":"一段","MAREA":" ","LANE":"１７５巷","ALLEY":"１５８弄","HOUSE_NO":"１１號","E_COORD97":169373.62,"N_COORD97":2542578.6400000001,"ADDRESS":"大同路一段１７５巷１５８弄１１號","OBJECTID":62400},"geometry":{"x":169373.62000000011,"y":2542578.6400000006}}]}