{"displayFieldName":"TOWNNAME","fieldAliases":{"ID":"ID","DIS_CODE":"DIS_CODE","TOWNNAME":"TOWNNAME","LI":"LI","LIN":"LIN","STREET":"STREET","SECT":"SECT","MAREA":"MAREA","LANE":"LANE","ALLEY":"ALLEY","HOUSE_NO":"HOUSE_NO","E_COORD97":"E_COORD97","N_COORD97":"N_COORD97","ADDRESS":"ADDRESS","OBJECTID":"OBJECTID"},"geometryType":"esriGeometryPoint","spatialReference":{"wkid":102443,"latestWkid":3826},"fields":[{"name":"ID","type":"esriFieldTypeDouble","alias":"ID"},{"name":"DIS_CODE","type":"esriFieldTypeInteger","alias":"DIS_CODE"},{"name":"TOWNNAME","type":"esriFieldTypeString","alias":"TOWNNAME","length":8},{"name":"LI","type":"esriFieldTypeString","alias":"LI","length":8},{"name":"LIN","type":"esriFieldTypeString","alias":"LIN","length":12},{"name":"STREET","type":"esriFieldTypeString","alias":"STREET","length":20},{"name":"SECT","type":"esriFieldTypeString","alias":"SECT","length":8},{"name":"MAREA","type":"esriFieldTypeString","alias":"MAREA","length":12},{"name":"LANE","type":"esriFieldTypeString","alias":"LANE","length":10},{"name":"ALLEY","type":"esriFieldTypeString","alias":"ALLEY","length":10},{"name":"HOUSE_NO","type":"esriFieldTypeString","alias":"HOUSE_NO","length":20},{"name":"E_COORD97","type":"esriFieldTypeDouble","alias":"E_COORD97"},{"name":"N_COORD97","type":"esriFieldTypeDouble","alias":"N_COORD97"},{"name":"ADDRESS","type":"esriFieldTypeString","alias":"ADDRESS","length":50},{"name":"OBJECTID","type":"esriFieldTypeOID","alias":"OBJECTID"}],"features":[{"attributes":{"ID":307809,"DIS_CODE":0,"TOWNNAME":"永康區","LI":"西橋里","LIN":"8鄰","STREET":"中山南路","SECT":" ","MAREA":" ","LANE":"４３巷","ALLEY":" ","HOUSE_NO":"６２號","E_COORD97":170665.19,"N_COORD97":2546012.5,"ADDRESS":"中山南路４３巷６２號","OBJECTID":307801},"geometry":{"x":170665.19000000041,"y":2546012.5000000019}},{"attributes":{"ID":307810,"DIS_CODE":0,"TOWNNAME":"永康區","LI":"西灣里","LIN":"8鄰","STREET":"大灣五街","SECT":" ","MAREA":" ","LANE":"９３巷","ALLEY":" ","HOUSE_NO":"１０１號","E_COORD97":174500.29999999999,"N_COORD97":2545204.6800000002,"ADDRESS":"大灣五街９３巷１０１號","OBJECTID":307802},"geometry":{"x":174500.30000000168,"y":2545204.6799999997}},{"attributes":{"ID":307811,"DIS_CODE":0,"TOWNNAME":"永康區","LI":"西橋里","LIN":"8鄰","STREET":"中山南路","SECT":" ","MAREA":" ","LANE":"４３巷","ALLEY":" ","HOUSE_NO":"７８號","E_COORD97":170646.34,"N_COORD97":2546045.7400000002,"ADDRESS":"中山南路４３巷７８號","OBJECTID":307803},"geometry":{"x":170646.33999999985,"y":2546045.7400000002}},{"attributes":{"ID":307812,"DIS_CODE":0,"TOWNNAME":"永康區","LI":"西灣里","LIN":"8鄰","STREET":"大灣五街","SECT":" ","MAREA":" ","LANE":"９３巷","ALLEY":" ","HOUSE_NO":"８０號","E_COORD97":174533.03,"N_COORD97":2545207.1699999999,"ADDRESS":"大灣五街９３巷８０號","OBJECTID":307804},"geometry":{"x":174533.03000000212,"y":2545207.1700000018}},{"attributes":{"ID":307813,"DIS_CODE":0,"TOWNNAME":"永康區","LI":"西橋里","LIN":"8鄰","STREET":"中山南路","SECT":" ","MAREA":" ","LANE":"４３巷","ALLEY":" ","HOUSE_NO":"７４號","E_COORD97":170650.54000000001,"N_COORD97":2546037.5,"ADDRESS":"中山南路４３巷７４號","OBJECTID":307805},"geometry":{"x":170650.54000000004,"y":2546037.5}},{"attributes":{"ID":307814,"DIS_CODE":0,"TOWNNAME":"永康區","LI":"西橋里","LIN":"8鄰","STREET":"中山南路","SECT":" ","MAREA":" ","LANE":"４３巷","ALLEY":" ","HOUSE_NO":"６６號","E_COORD97":170660,"N_COORD97":2546021.75,"ADDRESS":"中山南路４３巷６６號","OBJECTID":307806},"geometry":{"x":170660.00000000093,"y":2546021.75}},{"attributes":{"ID":307815,"DIS_CODE":0,"TOWNNAME":"永康區","LI":"西勢里","LIN":"8鄰","STREET":"富強路","SECT":"一段","MAREA":" ","LANE":"３２０巷","ALLEY":" ","HOUSE_NO":"４號","E_COORD97":175751.60999999999,"N_COORD97":2546685.9199999999,"ADDRESS":"富強路一段３２０巷４號","OBJECTID":307807},"geometry":{"x":175751.61000000127,"y":2546685.9199999981}},{"attributes":{"ID":307816,"DIS_CODE":0,"TOWNNAME":"永康區","LI":"西橋里","LIN":"8鄰","STREET":"中華西街","SECT":" ","MAREA":" ","LANE":"６３巷","ALLEY":" ","HOUSE_NO":"２號","E_COORD97":170741.06,"N_COORD97":2546053.9900000002,"ADDRESS":"中華西街６３巷２號","OBJECTID":307808},"geometry":{"x":170741.05999999959,"y":2546053.9900000002}},{"attributes":{"ID":307817,"DIS_CODE":0,"TOWNNAME":"永康區","LI":"西橋里","LIN":"8鄰","STREET":"中山南路","SECT":" ","MAREA":" ","LANE":"４３巷","ALLEY":" ","HOUSE_NO":"６４號","E_COORD97":170662.39999999999,"N_COORD97":2546017.25,"ADDRESS":"中山南路４３巷６４號","OBJECTID":307809},"geometry":{"x":170662.4000000013,"y":2546017.2500000019}},{"attributes":{"ID":307818,"DIS_CODE":0,"TOWNNAME":"永康區","LI":"西勢里","LIN":"8鄰","STREET":"富強路","SECT":"一段","MAREA":" ","LANE":"３２０巷","ALLEY":" ","HOUSE_NO":"１０號","E_COORD97":175770.37,"N_COORD97":2546688.77,"ADDRESS":"富強路一段３２０巷１０號","OBJECTID":307810},"geometry":{"x":175770.37000000104,"y":2546688.7699999996}},{"attributes":{"ID":307819,"DIS_CODE":0,"TOWNNAME":"永康區","LI":"西勢里","LIN":"8鄰","STREET":"富強路","SECT":"一段","MAREA":" ","LANE":"３０６巷","ALLEY":" ","HOUSE_NO":"１６號","E_COORD97":175782.37,"N_COORD97":2546645.5299999998,"ADDRESS":"富強路一段３０６巷１６號","OBJECTID":307811},"geometry":{"x":175782.37000000104,"y":2546645.5300000012}},{"attributes":{"ID":307820,"DIS_CODE":0,"TOWNNAME":"安南區","LI":"溪心里","LIN":"17鄰","STREET":"功安四街","SECT":" ","MAREA":" ","LANE":" ","ALLEY":" ","HOUSE_NO":"１１９號","E_COORD97":166135.63,"N_COORD97":2550218.1699999999,"ADDRESS":"功安四街１１９號","OBJECTID":307812},"geometry":{"x":166135.63000000175,"y":2550218.1700000018}},{"attributes":{"ID":307821,"DIS_CODE":0,"TOWNNAME":"安南區","LI":"溪心里","LIN":"17鄰","STREET":"功安四街","SECT":" ","MAREA":" ","LANE":" ","ALLEY":" ","HOUSE_NO":"１１７號","E_COORD97":166137.85000000001,"N_COORD97":2550215.6299999999,"ADDRESS":"功安四街１１７號","OBJECTID":307813},"geometry":{"x":166137.85000000056,"y":2550215.629999999}},{"attributes":{"ID":307822,"DIS_CODE":0,"TOWNNAME":"安南區","LI":"溪心里","LIN":"17鄰","STREET":"功安四街","SECT":" ","MAREA":" ","LANE":" ","ALLEY":" ","HOUSE_NO":"１１５號","E_COORD97":166140.87,"N_COORD97":2550211.8199999998,"ADDRESS":"功安四街１１５號","OBJECTID":307814},"geometry":{"x":166140.87000000011,"y":2550211.8200000003}},{"attributes":{"ID":307823,"DIS_CODE":0,"TOWNNAME":"安南區","LI":"溪心里","LIN":"17鄰","STREET":"功安四街","SECT":" ","MAREA":" ","LANE":" ","ALLEY":" ","HOUSE_NO":"１１３號","E_COORD97":166142.45000000001,"N_COORD97":2550208.9700000002,"ADDRESS":"功安四街１１３號","OBJECTID":307815},"geometry":{"x":166142.45000000205,"y":2550208.9699999988}},{"attributes":{"ID":307824,"DIS_CODE":0,"TOWNNAME":"永康區","LI":"復華里","LIN":"18鄰","STREET":"國華街","SECT":" ","MAREA":" ","LANE":"１０２巷","ALLEY":" ","HOUSE_NO":"５５號六樓之２","E_COORD97":172858.23000000001,"N_COORD97":2546097.77,"ADDRESS":"國華街１０２巷５５號六樓之２","OBJECTID":307816},"geometry":{"x":172858.23000000045,"y":2546097.7700000014}},{"attributes":{"ID":307825,"DIS_CODE":0,"TOWNNAME":"永康區","LI":"復華里","LIN":"18鄰","STREET":"國華街","SECT":" ","MAREA":" ","LANE":"１０２巷","ALLEY":" ","HOUSE_NO":"５５號二樓之１","E_COORD97":172858.10000000001,"N_COORD97":2546097.77,"ADDRESS":"國華街１０２巷５５號二樓之１","OBJECTID":307817},"geometry":{"x":172858.09999999963,"y":2546097.7700000014}},{"attributes":{"ID":307826,"DIS_CODE":0,"TOWNNAME":"永康區","LI":"勝利里","LIN":"20鄰","STREET":"勝學路","SECT":" ","MAREA":" ","LANE":"２６９巷","ALLEY":" ","HOUSE_NO":"２號五樓之７","E_COORD97":171173.35999999999,"N_COORD97":2545316.0499999998,"ADDRESS":"勝學路２６９巷２號五樓之７","OBJECTID":307818},"geometry":{"x":171173.36000000127,"y":2545316.0500000007}},{"attributes":{"ID":307827,"DIS_CODE":0,"TOWNNAME":"永康區","LI":"西勢里","LIN":"8鄰","STREET":"富強路","SECT":"一段","MAREA":" ","LANE":"３２０巷","ALLEY":" ","HOUSE_NO":"１２號","E_COORD97":175809,"N_COORD97":2546693.77,"ADDRESS":"富強路一段３２０巷１２號","OBJECTID":307819},"geometry":{"x":175809,"y":2546693.7700000033}},{"attributes":{"ID":307828,"DIS_CODE":0,"TOWNNAME":"永康區","LI":"西勢里","LIN":"8鄰","STREET":"富強路","SECT":"一段","MAREA":" ","LANE":"３０６巷","ALLEY":" ","HOUSE_NO":"１２號","E_COORD97":175761.20000000001,"N_COORD97":2546647.7799999998,"ADDRESS":"富強路一段３０６巷１２號","OBJECTID":307820},"geometry":{"x":175761.20000000112,"y":2546647.7799999993}},{"attributes":{"ID":307829,"DIS_CODE":0,"TOWNNAME":"永康區","LI":"西灣里","LIN":"8鄰","STREET":"大灣五街","SECT":" ","MAREA":" ","LANE":"９３巷","ALLEY":" ","HOUSE_NO":"１０３號","E_COORD97":174488.16,"N_COORD97":2545206.75,"ADDRESS":"大灣五街９３巷１０３號","OBJECTID":307821},"geometry":{"x":174488.16000000108,"y":2545206.7500000019}},{"attributes":{"ID":307830,"DIS_CODE":0,"TOWNNAME":"永康區","LI":"西橋里","LIN":"8鄰","STREET":"中華西街","SECT":" ","MAREA":" ","LANE":"６３巷","ALLEY":" ","HOUSE_NO":"６號之１","E_COORD97":170716.38,"N_COORD97":2546038.6800000002,"ADDRESS":"中華西街６３巷６號之１","OBJECTID":307822},"geometry":{"x":170716.38000000082,"y":2546038.6799999997}},{"attributes":{"ID":307831,"DIS_CODE":0,"TOWNNAME":"永康區","LI":"\u25A0行里","LIN":"8鄰","STREET":"中正路","SECT":" ","MAREA":" ","LANE":"５４２巷","ALLEY":" ","HOUSE_NO":"２號","E_COORD97":172670.23999999999,"N_COORD97":2548387,"ADDRESS":"中正路５４２巷２號","OBJECTID":307823},"geometry":{"x":172670.24000000209,"y":2548387}},{"attributes":{"ID":307832,"DIS_CODE":0,"TOWNNAME":"中西區","LI":"萬昌里","LIN":"8鄰","STREET":"府前路","SECT":"一段","MAREA":" ","LANE":"１２２巷","ALLEY":" ","HOUSE_NO":"２號","E_COORD97":168811.51000000001,"N_COORD97":2543299.4399999999,"ADDRESS":"府前路一段１２２巷２號","OBJECTID":307824},"geometry":{"x":168811.51000000164,"y":2543299.4400000013}},{"attributes":{"ID":307833,"DIS_CODE":0,"TOWNNAME":"中西區","LI":"萬昌里","LIN":"8鄰","STREET":"府前路","SECT":"一段","MAREA":" ","LANE":"１２２巷","ALLEY":" ","HOUSE_NO":"６號","E_COORD97":168812,"N_COORD97":2543305.96,"ADDRESS":"府前路一段１２２巷６號","OBJECTID":307825},"geometry":{"x":168812.00000000093,"y":2543305.9600000009}},{"attributes":{"ID":307834,"DIS_CODE":0,"TOWNNAME":"中西區","LI":"萬昌里","LIN":"8鄰","STREET":"府前路","SECT":"一段","MAREA":" ","LANE":"１２２巷","ALLEY":" ","HOUSE_NO":"６號之１","E_COORD97":168820.31,"N_COORD97":2543304.1899999999,"ADDRESS":"府前路一段１２２巷６號之１","OBJECTID":307826},"geometry":{"x":168820.30999999959,"y":2543304.1900000013}},{"attributes":{"ID":307835,"DIS_CODE":0,"TOWNNAME":"中西區","LI":"萬昌里","LIN":"8鄰","STREET":"府前路","SECT":"一段","MAREA":" ","LANE":"１２２巷","ALLEY":" ","HOUSE_NO":"８號","E_COORD97":168825.41,"N_COORD97":2543303.79,"ADDRESS":"府前路一段１２２巷８號","OBJECTID":307827},"geometry":{"x":168825.41000000015,"y":2543303.790000001}},{"attributes":{"ID":307836,"DIS_CODE":0,"TOWNNAME":"中西區","LI":"萬昌里","LIN":"8鄰","STREET":"府前路","SECT":"一段","MAREA":" ","LANE":"１２２巷","ALLEY":" ","HOUSE_NO":"８號之１","E_COORD97":168831.89000000001,"N_COORD97":2543302.7400000002,"ADDRESS":"府前路一段１２２巷８號之１","OBJECTID":307828},"geometry":{"x":168831.88999999966,"y":2543302.7400000002}},{"attributes":{"ID":307837,"DIS_CODE":0,"TOWNNAME":"中西區","LI":"萬昌里","LIN":"8鄰","STREET":"府前路","SECT":"一段","MAREA":" ","LANE":"１２２巷","ALLEY":" ","HOUSE_NO":"８號之２","E_COORD97":168838.78,"N_COORD97":2543301.1200000001,"ADDRESS":"府前路一段１２２巷８號之２","OBJECTID":307829},"geometry":{"x":168838.77999999933,"y":2543301.120000001}},{"attributes":{"ID":307838,"DIS_CODE":0,"TOWNNAME":"中西區","LI":"三民里","LIN":"8鄰","STREET":"民權路","SECT":"二段","MAREA":" ","LANE":"９５巷","ALLEY":" ","HOUSE_NO":"１０號","E_COORD97":168417.89000000001,"N_COORD97":2543863.7599999998,"ADDRESS":"民權路二段９５巷１０號","OBJECTID":307830},"geometry":{"x":168417.8900000006,"y":2543863.7600000016}},{"attributes":{"ID":307839,"DIS_CODE":0,"TOWNNAME":"歸仁區","LI":"看東里","LIN":"11鄰","STREET":"中山一街","SECT":" ","MAREA":" ","LANE":" ","ALLEY":" ","HOUSE_NO":"１１６之３號","E_COORD97":178639.73705699999,"N_COORD97":2540347.8264199998,"ADDRESS":"中山一街１１６之３號","OBJECTID":307831},"geometry":{"x":178639.7370570004,"y":2540347.8264190014}},{"attributes":{"ID":307840,"DIS_CODE":0,"TOWNNAME":"中西區","LI":"三民里","LIN":"8鄰","STREET":"民權路","SECT":"二段","MAREA":" ","LANE":"９５巷","ALLEY":" ","HOUSE_NO":"１２號","E_COORD97":168410.75,"N_COORD97":2543865.5499999998,"ADDRESS":"民權路二段９５巷１２號","OBJECTID":307832},"geometry":{"x":168410.75000000093,"y":2543865.5500000045}},{"attributes":{"ID":307841,"DIS_CODE":0,"TOWNNAME":"中西區","LI":"三民里","LIN":"8鄰","STREET":"民權路","SECT":"二段","MAREA":" ","LANE":"９５巷","ALLEY":" ","HOUSE_NO":"１６號","E_COORD97":168402.01999999999,"N_COORD97":2543870.2999999998,"ADDRESS":"民權路二段９５巷１６號","OBJECTID":307833},"geometry":{"x":168402.01999999955,"y":2543870.3000000045}},{"attributes":{"ID":307842,"DIS_CODE":0,"TOWNNAME":"中西區","LI":"三民里","LIN":"8鄰","STREET":"民權路","SECT":"二段","MAREA":" ","LANE":"９５巷","ALLEY":" ","HOUSE_NO":"１６號之１","E_COORD97":168392.89000000001,"N_COORD97":2543874.27,"ADDRESS":"民權路二段９５巷１６號之１","OBJECTID":307834},"geometry":{"x":168392.88999999966,"y":2543874.2700000014}},{"attributes":{"ID":307843,"DIS_CODE":0,"TOWNNAME":"中西區","LI":"三民里","LIN":"8鄰","STREET":"民權路","SECT":"二段","MAREA":" ","LANE":"９５巷","ALLEY":" ","HOUSE_NO":"１６號之２","E_COORD97":168382.97,"N_COORD97":2543873.8700000001,"ADDRESS":"民權路二段９５巷１６號之２","OBJECTID":307835},"geometry":{"x":168382.97000000067,"y":2543873.8700000048}},{"attributes":{"ID":307844,"DIS_CODE":0,"TOWNNAME":"中西區","LI":"三民里","LIN":"8鄰","STREET":"民權路","SECT":"二段","MAREA":" ","LANE":"９５巷","ALLEY":" ","HOUSE_NO":"１６號之３","E_COORD97":168365.89999999999,"N_COORD97":2543877.6400000001,"ADDRESS":"民權路二段９５巷１６號之３","OBJECTID":307836},"geometry":{"x":168365.9000000013,"y":2543877.6400000006}},{"attributes":{"ID":307845,"DIS_CODE":0,"TOWNNAME":"中西區","LI":"三民里","LIN":"8鄰","STREET":"民權路","SECT":"二段","MAREA":" ","LANE":"９５巷","ALLEY":" ","HOUSE_NO":"１６號之４","E_COORD97":168359.35000000001,"N_COORD97":2543881.3999999999,"ADDRESS":"民權路二段９５巷１６號之４","OBJECTID":307837},"geometry":{"x":168359.34999999963,"y":2543881.4000000004}},{"attributes":{"ID":307846,"DIS_CODE":0,"TOWNNAME":"中西區","LI":"萬昌里","LIN":"8鄰","STREET":"府前路","SECT":"一段","MAREA":" ","LANE":"１２２巷","ALLEY":" ","HOUSE_NO":"６４號","E_COORD97":168802.57999999999,"N_COORD97":2543425.79,"ADDRESS":"府前路一段１２２巷６４號","OBJECTID":307838},"geometry":{"x":168802.58000000007,"y":2543425.790000001}},{"attributes":{"ID":307847,"DIS_CODE":0,"TOWNNAME":"中西區","LI":"萬昌里","LIN":"8鄰","STREET":"府前路","SECT":"一段","MAREA":" ","LANE":"１２２巷","ALLEY":" ","HOUSE_NO":"６６號","E_COORD97":168801.84,"N_COORD97":2543430.0800000001,"ADDRESS":"府前路一段１２２巷６６號","OBJECTID":307839},"geometry":{"x":168801.83999999985,"y":2543430.0800000001}},{"attributes":{"ID":307848,"DIS_CODE":0,"TOWNNAME":"中西區","LI":"萬昌里","LIN":"8鄰","STREET":"城隍街","SECT":" ","MAREA":" ","LANE":"６６巷","ALLEY":" ","HOUSE_NO":"８號","E_COORD97":168852.28,"N_COORD97":2543372.3199999998,"ADDRESS":"城隍街６６巷８號","OBJECTID":307840},"geometry":{"x":168852.28000000026,"y":2543372.3200000022}},{"attributes":{"ID":307849,"DIS_CODE":0,"TOWNNAME":"中西區","LI":"萬昌里","LIN":"8鄰","STREET":"府前路","SECT":"一段","MAREA":" ","LANE":"１２２巷","ALLEY":" ","HOUSE_NO":"１０號","E_COORD97":168813.07999999999,"N_COORD97":2543311.1499999999,"ADDRESS":"府前路一段１２２巷１０號","OBJECTID":307841},"geometry":{"x":168813.08000000101,"y":2543311.1500000004}},{"attributes":{"ID":307850,"DIS_CODE":0,"TOWNNAME":"安南區","LI":"溪心里","LIN":"17鄰","STREET":"功安四街","SECT":" ","MAREA":" ","LANE":" ","ALLEY":" ","HOUSE_NO":"１３９號","E_COORD97":166109.42999999999,"N_COORD97":2550256.1200000001,"ADDRESS":"功安四街１３９號","OBJECTID":307842},"geometry":{"x":166109.4299999997,"y":2550256.1200000048}},{"attributes":{"ID":307851,"DIS_CODE":0,"TOWNNAME":"安南區","LI":"溪心里","LIN":"17鄰","STREET":"功安四街","SECT":" ","MAREA":" ","LANE":" ","ALLEY":" ","HOUSE_NO":"１３７號","E_COORD97":166113.39999999999,"N_COORD97":2550249.9199999999,"ADDRESS":"功安四街１３７號","OBJECTID":307843},"geometry":{"x":166113.40000000037,"y":2550249.9200000018}},{"attributes":{"ID":307852,"DIS_CODE":0,"TOWNNAME":"安南區","LI":"溪心里","LIN":"17鄰","STREET":"海佃路","SECT":"三段","MAREA":" ","LANE":" ","ALLEY":" ","HOUSE_NO":"２１４號","E_COORD97":166024.63,"N_COORD97":2550199.79,"ADDRESS":"海佃路三段２１４號","OBJECTID":307844},"geometry":{"x":166024.63000000082,"y":2550199.790000001}},{"attributes":{"ID":307853,"DIS_CODE":0,"TOWNNAME":"永康區","LI":"三合里","LIN":"24鄰","STREET":"南工街","SECT":" ","MAREA":" ","LANE":"３１１巷","ALLEY":" ","HOUSE_NO":"７９號六樓之１","E_COORD97":171800.12,"N_COORD97":2545806.7999999998,"ADDRESS":"南工街３１１巷７９號六樓之１","OBJECTID":307845},"geometry":{"x":171800.12000000104,"y":2545806.8000000026}},{"attributes":{"ID":307854,"DIS_CODE":0,"TOWNNAME":"永康區","LI":"二王里","LIN":"41鄰","STREET":"中山南路","SECT":" ","MAREA":" ","LANE":"３１６巷","ALLEY":" ","HOUSE_NO":"２４號七樓之１","E_COORD97":172007.72,"N_COORD97":2546155.2799999998,"ADDRESS":"中山南路３１６巷２４號七樓之１","OBJECTID":307846},"geometry":{"x":172007.72000000067,"y":2546155.2800000012}},{"attributes":{"ID":307855,"DIS_CODE":0,"TOWNNAME":"中西區","LI":"萬昌里","LIN":"8鄰","STREET":"府前路","SECT":"一段","MAREA":" ","LANE":"１２２巷","ALLEY":" ","HOUSE_NO":"１２號","E_COORD97":168814.23999999999,"N_COORD97":2543315.77,"ADDRESS":"府前路一段１２２巷１２號","OBJECTID":307847},"geometry":{"x":168814.24000000115,"y":2543315.7699999996}},{"attributes":{"ID":307856,"DIS_CODE":0,"TOWNNAME":"中西區","LI":"萬昌里","LIN":"8鄰","STREET":"府前路","SECT":"一段","MAREA":" ","LANE":"１２２巷","ALLEY":" ","HOUSE_NO":"１２號之１","E_COORD97":168831,"N_COORD97":2543311.0699999998,"ADDRESS":"府前路一段１２２巷１２號之１","OBJECTID":307848},"geometry":{"x":168831.00000000093,"y":2543311.0700000003}},{"attributes":{"ID":307857,"DIS_CODE":0,"TOWNNAME":"中西區","LI":"萬昌里","LIN":"8鄰","STREET":"府前路","SECT":"一段","MAREA":" ","LANE":"１２２巷","ALLEY":" ","HOUSE_NO":"１２號之２","E_COORD97":168834.97,"N_COORD97":2543310.02,"ADDRESS":"府前路一段１２２巷１２號之２","OBJECTID":307849},"geometry":{"x":168834.96999999974,"y":2543310.0199999996}},{"attributes":{"ID":307858,"DIS_CODE":0,"TOWNNAME":"中西區","LI":"萬昌里","LIN":"8鄰","STREET":"府前路","SECT":"一段","MAREA":" ","LANE":"１２２巷","ALLEY":" ","HOUSE_NO":"１２號之３","E_COORD97":168839.98999999999,"N_COORD97":2543308.9700000002,"ADDRESS":"府前路一段１２２巷１２號之３","OBJECTID":307850},"geometry":{"x":168839.99000000022,"y":2543308.9700000007}},{"attributes":{"ID":307859,"DIS_CODE":0,"TOWNNAME":"安南區","LI":"淵東里","LIN":"17鄰","STREET":"智安二街","SECT":" ","MAREA":" ","LANE":" ","ALLEY":" ","HOUSE_NO":"２號","E_COORD97":165768.87,"N_COORD97":2550102.0499999998,"ADDRESS":"智安二街２號","OBJECTID":307851},"geometry":{"x":165768.87000000104,"y":2550102.0500000007}},{"attributes":{"ID":307860,"DIS_CODE":0,"TOWNNAME":"安南區","LI":"淵東里","LIN":"17鄰","STREET":"智安二街","SECT":" ","MAREA":" ","LANE":" ","ALLEY":" ","HOUSE_NO":"６號","E_COORD97":165766.84,"N_COORD97":2550108.7799999998,"ADDRESS":"智安二街６號","OBJECTID":307852},"geometry":{"x":165766.84000000078,"y":2550108.7800000012}},{"attributes":{"ID":307861,"DIS_CODE":0,"TOWNNAME":"安南區","LI":"淵東里","LIN":"17鄰","STREET":"智安二街","SECT":" ","MAREA":" ","LANE":" ","ALLEY":" ","HOUSE_NO":"８號","E_COORD97":165765.82999999999,"N_COORD97":2550113.1000000001,"ADDRESS":"智安二街８號","OBJECTID":307853},"geometry":{"x":165765.83000000101,"y":2550113.1000000015}},{"attributes":{"ID":307862,"DIS_CODE":0,"TOWNNAME":"安南區","LI":"淵東里","LIN":"17鄰","STREET":"智安二街","SECT":" ","MAREA":" ","LANE":" ","ALLEY":" ","HOUSE_NO":"１０號","E_COORD97":165764.56,"N_COORD97":2550116.7799999998,"ADDRESS":"智安二街１０號","OBJECTID":307854},"geometry":{"x":165764.56000000145,"y":2550116.7799999993}},{"attributes":{"ID":307863,"DIS_CODE":0,"TOWNNAME":"中西區","LI":"萬昌里","LIN":"8鄰","STREET":"府前路","SECT":"一段","MAREA":" ","LANE":"１２２巷","ALLEY":" ","HOUSE_NO":"１２號之４","E_COORD97":168845.91,"N_COORD97":2543320.46,"ADDRESS":"府前路一段１２２巷１２號之４","OBJECTID":307855},"geometry":{"x":168845.91000000015,"y":2543320.4600000046}},{"attributes":{"ID":307864,"DIS_CODE":0,"TOWNNAME":"中西區","LI":"萬昌里","LIN":"8鄰","STREET":"府前路","SECT":"一段","MAREA":" ","LANE":"１２２巷","ALLEY":" ","HOUSE_NO":"１２號之５","E_COORD97":168841.29000000001,"N_COORD97":2543321.0299999998,"ADDRESS":"府前路一段１２２巷１２號之５","OBJECTID":307856},"geometry":{"x":168841.29000000004,"y":2543321.0299999993}},{"attributes":{"ID":307865,"DIS_CODE":0,"TOWNNAME":"中西區","LI":"萬昌里","LIN":"8鄰","STREET":"府前路","SECT":"一段","MAREA":" ","LANE":"１２２巷","ALLEY":" ","HOUSE_NO":"１２號之６","E_COORD97":168836.59,"N_COORD97":2543321.27,"ADDRESS":"府前路一段１２２巷１２號之６","OBJECTID":307857},"geometry":{"x":168836.59000000078,"y":2543321.2700000014}},{"attributes":{"ID":307866,"DIS_CODE":0,"TOWNNAME":"中西區","LI":"萬昌里","LIN":"8鄰","STREET":"府前路","SECT":"一段","MAREA":" ","LANE":"１２２巷","ALLEY":" ","HOUSE_NO":"１２號之７","E_COORD97":168832.87,"N_COORD97":2543321.9199999999,"ADDRESS":"府前路一段１２２巷１２號之７","OBJECTID":307858},"geometry":{"x":168832.87000000011,"y":2543321.9199999999}},{"attributes":{"ID":307867,"DIS_CODE":0,"TOWNNAME":"中西區","LI":"萬昌里","LIN":"8鄰","STREET":"府前路","SECT":"一段","MAREA":" ","LANE":"１２２巷","ALLEY":" ","HOUSE_NO":"１２號之８","E_COORD97":168826.54999999999,"N_COORD97":2543322.8100000001,"ADDRESS":"府前路一段１２２巷１２號之８","OBJECTID":307859},"geometry":{"x":168826.55000000168,"y":2543322.8100000005}},{"attributes":{"ID":307868,"DIS_CODE":0,"TOWNNAME":"中西區","LI":"萬昌里","LIN":"8鄰","STREET":"府前路","SECT":"一段","MAREA":" ","LANE":"１２２巷","ALLEY":" ","HOUSE_NO":"１２號之９","E_COORD97":168814.64999999999,"N_COORD97":2543326.5899999999,"ADDRESS":"府前路一段１２２巷１２號之９","OBJECTID":307860},"geometry":{"x":168814.6500000013,"y":2543326.5900000017}},{"attributes":{"ID":307869,"DIS_CODE":0,"TOWNNAME":"中西區","LI":"萬昌里","LIN":"8鄰","STREET":"府前路","SECT":"一段","MAREA":" ","LANE":"１２２巷","ALLEY":" ","HOUSE_NO":"１４號","E_COORD97":168815.14999999999,"N_COORD97":2543333.2000000002,"ADDRESS":"府前路一段１２２巷１４號","OBJECTID":307861},"geometry":{"x":168815.1500000013,"y":2543333.1999999993}},{"attributes":{"ID":307870,"DIS_CODE":0,"TOWNNAME":"中西區","LI":"萬昌里","LIN":"8鄰","STREET":"府前路","SECT":"一段","MAREA":" ","LANE":"１２２巷","ALLEY":" ","HOUSE_NO":"１６號","E_COORD97":168814.64999999999,"N_COORD97":2543338.98,"ADDRESS":"府前路一段１２２巷１６號","OBJECTID":307862},"geometry":{"x":168814.6500000013,"y":2543338.9800000004}},{"attributes":{"ID":307871,"DIS_CODE":0,"TOWNNAME":"中西區","LI":"萬昌里","LIN":"8鄰","STREET":"府前路","SECT":"一段","MAREA":" ","LANE":"１２２巷","ALLEY":" ","HOUSE_NO":"１８號","E_COORD97":168817.38,"N_COORD97":2543352,"ADDRESS":"府前路一段１２２巷１８號","OBJECTID":307863},"geometry":{"x":168817.37999999896,"y":2543352}},{"attributes":{"ID":307872,"DIS_CODE":0,"TOWNNAME":"中西區","LI":"萬昌里","LIN":"8鄰","STREET":"府前路","SECT":"一段","MAREA":" ","LANE":"１２２巷","ALLEY":" ","HOUSE_NO":"２０號","E_COORD97":168848.81,"N_COORD97":2543355.0099999998,"ADDRESS":"府前路一段１２２巷２０號","OBJECTID":307864},"geometry":{"x":168848.81000000052,"y":2543355.0099999998}},{"attributes":{"ID":307873,"DIS_CODE":0,"TOWNNAME":"中西區","LI":"萬昌里","LIN":"8鄰","STREET":"府前路","SECT":"一段","MAREA":" ","LANE":"１２２巷","ALLEY":" ","HOUSE_NO":"２２號","E_COORD97":168850.20000000001,"N_COORD97":2543351.7799999998,"ADDRESS":"府前路一段１２２巷２２號","OBJECTID":307865},"geometry":{"x":168850.20000000112,"y":2543351.7800000012}},{"attributes":{"ID":307874,"DIS_CODE":0,"TOWNNAME":"新化區","LI":"清水里","LIN":"8鄰","STREET":"民權街","SECT":" ","MAREA":" ","LANE":"６１巷","ALLEY":" ","HOUSE_NO":"５號之３","E_COORD97":178728.10999999999,"N_COORD97":2548549.2599999998,"ADDRESS":"民權街６１巷５號之３","OBJECTID":307866},"geometry":{"x":178728.1100000022,"y":2548549.2600000016}},{"attributes":{"ID":307875,"DIS_CODE":0,"TOWNNAME":"新化區","LI":"清水里","LIN":"8鄰","STREET":"民權街","SECT":" ","MAREA":" ","LANE":"６１巷","ALLEY":" ","HOUSE_NO":"７號","E_COORD97":178738.95999999999,"N_COORD97":2548546.25,"ADDRESS":"民權街６１巷７號","OBJECTID":307867},"geometry":{"x":178738.96000000183,"y":2548546.2500000019}},{"attributes":{"ID":307876,"DIS_CODE":0,"TOWNNAME":"新化區","LI":"護國里","LIN":"8鄰","STREET":"信義路","SECT":" ","MAREA":" ","LANE":"１４巷","ALLEY":" ","HOUSE_NO":"１０號","E_COORD97":181193.32999999999,"N_COORD97":2548898.25,"ADDRESS":"信義路１４巷１０號","OBJECTID":307868},"geometry":{"x":181193.33000000101,"y":2548898.2500000019}},{"attributes":{"ID":307877,"DIS_CODE":0,"TOWNNAME":"新化區","LI":"清水里","LIN":"8鄰","STREET":"民權街","SECT":" ","MAREA":" ","LANE":"６１巷","ALLEY":" ","HOUSE_NO":"１９號","E_COORD97":178698.01000000001,"N_COORD97":2548550.25,"ADDRESS":"民權街６１巷１９號","OBJECTID":307869},"geometry":{"x":178698.01000000071,"y":2548550.2500000019}},{"attributes":{"ID":307878,"DIS_CODE":0,"TOWNNAME":"新化區","LI":"清水里","LIN":"8鄰","STREET":"民權街","SECT":" ","MAREA":" ","LANE":"６１巷","ALLEY":" ","HOUSE_NO":"５號之１","E_COORD97":178725.19,"N_COORD97":2548558.2599999998,"ADDRESS":"民權街６１巷５號之１","OBJECTID":307870},"geometry":{"x":178725.19000000041,"y":2548558.2599999998}},{"attributes":{"ID":307879,"DIS_CODE":0,"TOWNNAME":"新化區","LI":"太平里","LIN":"8鄰","STREET":"中正路","SECT":" ","MAREA":" ","LANE":"６６２巷","ALLEY":" ","HOUSE_NO":"５０號","E_COORD97":178740.45999999999,"N_COORD97":2549429.5899999999,"ADDRESS":"中正路６６２巷５０號","OBJECTID":307871},"geometry":{"x":178740.45999999996,"y":2549429.5899999999}},{"attributes":{"ID":307880,"DIS_CODE":0,"TOWNNAME":"新化區","LI":"太平里","LIN":"8鄰","STREET":"中正路","SECT":" ","MAREA":" ","LANE":"６６２巷","ALLEY":" ","HOUSE_NO":"５２號","E_COORD97":178740.69,"N_COORD97":2549433.8799999999,"ADDRESS":"中正路６６２巷５２號","OBJECTID":307872},"geometry":{"x":178740.69000000041,"y":2549433.879999999}},{"attributes":{"ID":307881,"DIS_CODE":0,"TOWNNAME":"新化區","LI":"護國里","LIN":"8鄰","STREET":"信義路","SECT":" ","MAREA":" ","LANE":"１４巷","ALLEY":" ","HOUSE_NO":"５０號之３","E_COORD97":181367.57999999999,"N_COORD97":2549180.1899999999,"ADDRESS":"信義路１４巷５０號之３","OBJECTID":307873},"geometry":{"x":181367.58000000194,"y":2549180.1900000013}},{"attributes":{"ID":307882,"DIS_CODE":0,"TOWNNAME":"安南區","LI":"城北里","LIN":"8鄰","STREET":"安中路","SECT":"六段","MAREA":" ","LANE":"１巷","ALLEY":" ","HOUSE_NO":"２１６號","E_COORD97":161423.23000000001,"N_COORD97":2550677.27,"ADDRESS":"安中路六段１巷２１６號","OBJECTID":307874},"geometry":{"x":161423.23000000138,"y":2550677.2700000033}},{"attributes":{"ID":307883,"DIS_CODE":0,"TOWNNAME":"安南區","LI":"城北里","LIN":"8鄰","STREET":"安中路","SECT":"六段","MAREA":" ","LANE":"１巷","ALLEY":" ","HOUSE_NO":"２４０號","E_COORD97":161410.42999999999,"N_COORD97":2550655.5299999998,"ADDRESS":"安中路六段１巷２４０號","OBJECTID":307875},"geometry":{"x":161410.4299999997,"y":2550655.5300000012}},{"attributes":{"ID":307884,"DIS_CODE":0,"TOWNNAME":"安南區","LI":"城北里","LIN":"8鄰","STREET":"安中路","SECT":"六段","MAREA":" ","LANE":"１巷","ALLEY":" ","HOUSE_NO":"２４６號","E_COORD97":161378.01999999999,"N_COORD97":2550664.7799999998,"ADDRESS":"安中路六段１巷２４６號","OBJECTID":307876},"geometry":{"x":161378.02000000048,"y":2550664.7800000012}},{"attributes":{"ID":307885,"DIS_CODE":0,"TOWNNAME":"安南區","LI":"城北里","LIN":"8鄰","STREET":"安中路","SECT":"六段","MAREA":" ","LANE":"１巷","ALLEY":" ","HOUSE_NO":"２５６號","E_COORD97":161305.81,"N_COORD97":2550631.73,"ADDRESS":"安中路六段１巷２５６號","OBJECTID":307877},"geometry":{"x":161305.80999999959,"y":2550631.7300000023}},{"attributes":{"ID":307886,"DIS_CODE":0,"TOWNNAME":"安南區","LI":"城北里","LIN":"8鄰","STREET":"安中路","SECT":"六段","MAREA":" ","LANE":"１巷","ALLEY":" ","HOUSE_NO":"８號","E_COORD97":161888.32000000001,"N_COORD97":2551201.1400000001,"ADDRESS":"安中路六段１巷８號","OBJECTID":307878},"geometry":{"x":161888.31999999937,"y":2551201.1399999987}},{"attributes":{"ID":307887,"DIS_CODE":0,"TOWNNAME":"安南區","LI":"城北里","LIN":"8鄰","STREET":"安中路","SECT":"六段","MAREA":" ","LANE":"３５１巷","ALLEY":" ","HOUSE_NO":"１１號","E_COORD97":161225.51999999999,"N_COORD97":2551264.5099999998,"ADDRESS":"安中路六段３５１巷１１號","OBJECTID":307879},"geometry":{"x":161225.52000000048,"y":2551264.5099999998}},{"attributes":{"ID":307888,"DIS_CODE":0,"TOWNNAME":"安南區","LI":"城北里","LIN":"8鄰","STREET":"安中路","SECT":"六段","MAREA":" ","LANE":"３５１巷","ALLEY":" ","HOUSE_NO":"１３號","E_COORD97":161224.39000000001,"N_COORD97":2551257.77,"ADDRESS":"安中路六段３５１巷１３號","OBJECTID":307880},"geometry":{"x":161224.39000000153,"y":2551257.7700000014}},{"attributes":{"ID":307889,"DIS_CODE":0,"TOWNNAME":"佳里區","LI":"東寧里","LIN":"1鄰","STREET":"中山路","SECT":" ","MAREA":" ","LANE":" ","ALLEY":" ","HOUSE_NO":"２７２號","E_COORD97":165725.39000000001,"N_COORD97":2562302.79,"ADDRESS":"中山路２７２號","OBJECTID":307881},"geometry":{"x":165725.3900000006,"y":2562302.790000001}},{"attributes":{"ID":307890,"DIS_CODE":0,"TOWNNAME":"安南區","LI":"城北里","LIN":"8鄰","STREET":"安中路","SECT":"六段","MAREA":" ","LANE":"３５１巷","ALLEY":" ","HOUSE_NO":"１５號","E_COORD97":161224.39000000001,"N_COORD97":2551252.3799999999,"ADDRESS":"安中路六段３５１巷１５號","OBJECTID":307882},"geometry":{"x":161224.39000000153,"y":2551252.3800000027}},{"attributes":{"ID":307891,"DIS_CODE":0,"TOWNNAME":"安南區","LI":"城北里","LIN":"8鄰","STREET":"安中路","SECT":"六段","MAREA":" ","LANE":"３５１巷","ALLEY":" ","HOUSE_NO":"１７號","E_COORD97":161222.59,"N_COORD97":2551245.4100000001,"ADDRESS":"安中路六段３５１巷１７號","OBJECTID":307883},"geometry":{"x":161222.58999999985,"y":2551245.4100000001}},{"attributes":{"ID":307892,"DIS_CODE":0,"TOWNNAME":"安南區","LI":"城北里","LIN":"8鄰","STREET":"安中路","SECT":"六段","MAREA":" ","LANE":"３５１巷","ALLEY":" ","HOUSE_NO":"１９號","E_COORD97":161221.92000000001,"N_COORD97":2551240.02,"ADDRESS":"安中路六段３５１巷１９號","OBJECTID":307884},"geometry":{"x":161221.92000000086,"y":2551240.0200000014}},{"attributes":{"ID":307893,"DIS_CODE":0,"TOWNNAME":"安南區","LI":"城北里","LIN":"8鄰","STREET":"安中路","SECT":"六段","MAREA":" ","LANE":"３５１巷","ALLEY":" ","HOUSE_NO":"２０號","E_COORD97":161197.79999999999,"N_COORD97":2551245.8300000001,"ADDRESS":"安中路六段３５１巷２０號","OBJECTID":307885},"geometry":{"x":161197.79999999981,"y":2551245.8300000001}},{"attributes":{"ID":307894,"DIS_CODE":0,"TOWNNAME":"安南區","LI":"城北里","LIN":"8鄰","STREET":"安中路","SECT":"六段","MAREA":" ","LANE":"３５１巷","ALLEY":" ","HOUSE_NO":"２１號","E_COORD97":161220.22,"N_COORD97":2551233.8199999998,"ADDRESS":"安中路六段３５１巷２１號","OBJECTID":307886},"geometry":{"x":161220.21999999974,"y":2551233.820000004}},{"attributes":{"ID":307895,"DIS_CODE":0,"TOWNNAME":"安南區","LI":"城北里","LIN":"8鄰","STREET":"安中路","SECT":"六段","MAREA":" ","LANE":"３５１巷","ALLEY":" ","HOUSE_NO":"２２號","E_COORD97":161196,"N_COORD97":2551239.54,"ADDRESS":"安中路六段３５１巷２２號","OBJECTID":307887},"geometry":{"x":161196.00000000093,"y":2551239.5399999991}},{"attributes":{"ID":307896,"DIS_CODE":0,"TOWNNAME":"安南區","LI":"城北里","LIN":"8鄰","STREET":"安中路","SECT":"六段","MAREA":" ","LANE":"３５１巷","ALLEY":" ","HOUSE_NO":"２４號","E_COORD97":161193.97,"N_COORD97":2551234.3700000001,"ADDRESS":"安中路六段３５１巷２４號","OBJECTID":307888},"geometry":{"x":161193.97000000067,"y":2551234.3700000048}},{"attributes":{"ID":307897,"DIS_CODE":0,"TOWNNAME":"安南區","LI":"城北里","LIN":"8鄰","STREET":"安中路","SECT":"六段","MAREA":" ","LANE":"３５１巷","ALLEY":" ","HOUSE_NO":"２６號","E_COORD97":161193.29999999999,"N_COORD97":2551228.9700000002,"ADDRESS":"安中路六段３５１巷２６號","OBJECTID":307889},"geometry":{"x":161193.30000000075,"y":2551228.9700000007}},{"attributes":{"ID":307898,"DIS_CODE":0,"TOWNNAME":"安南區","LI":"城北里","LIN":"8鄰","STREET":"安中路","SECT":"六段","MAREA":" ","LANE":"３５１巷","ALLEY":" ","HOUSE_NO":"２７號","E_COORD97":161216.73999999999,"N_COORD97":2551217.0099999998,"ADDRESS":"安中路六段３５１巷２７號","OBJECTID":307890},"geometry":{"x":161216.74000000022,"y":2551217.0099999998}},{"attributes":{"ID":307899,"DIS_CODE":0,"TOWNNAME":"安南區","LI":"城北里","LIN":"8鄰","STREET":"安中路","SECT":"六段","MAREA":" ","LANE":"３５１巷","ALLEY":" ","HOUSE_NO":"２８號","E_COORD97":161194.23000000001,"N_COORD97":2551222.1499999999,"ADDRESS":"安中路六段３５１巷２８號","OBJECTID":307891},"geometry":{"x":161194.23000000231,"y":2551222.1500000022}},{"attributes":{"ID":307900,"DIS_CODE":0,"TOWNNAME":"永康區","LI":"五王里","LIN":"41鄰","STREET":"中山南路","SECT":" ","MAREA":" ","LANE":"２６２巷","ALLEY":" ","HOUSE_NO":"２號十樓之１５","E_COORD97":171550.60000000001,"N_COORD97":2546054.6200000001,"ADDRESS":"中山南路２６２巷２號十樓之１５","OBJECTID":307892},"geometry":{"x":171550.60000000056,"y":2546054.620000001}},{"attributes":{"ID":307901,"DIS_CODE":0,"TOWNNAME":"永康區","LI":"五王里","LIN":"41鄰","STREET":"中山南路","SECT":" ","MAREA":" ","LANE":"２６２巷","ALLEY":" ","HOUSE_NO":"２號十三樓之１１","E_COORD97":171551.70000000001,"N_COORD97":2546054.6200000001,"ADDRESS":"中山南路２６２巷２號十三樓之１１","OBJECTID":307893},"geometry":{"x":171551.70000000205,"y":2546054.620000001}},{"attributes":{"ID":307902,"DIS_CODE":0,"TOWNNAME":"歸仁區","LI":"七甲里","LIN":"9鄰","STREET":"七甲一街","SECT":" ","MAREA":" ","LANE":" ","ALLEY":" ","HOUSE_NO":"３８號","E_COORD97":177608.328267,"N_COORD97":2542431.7205400001,"ADDRESS":"七甲一街３８號","OBJECTID":307894},"geometry":{"x":177608.32826700062,"y":2542431.7205430008}},{"attributes":{"ID":307903,"DIS_CODE":0,"TOWNNAME":"永康區","LI":"五王里","LIN":"32鄰","STREET":"中華路","SECT":" ","MAREA":" ","LANE":"５７８巷","ALLEY":" ","HOUSE_NO":"２號三樓之３","E_COORD97":171284.98000000001,"N_COORD97":2545927.0499999998,"ADDRESS":"中華路５７８巷２號三樓之３","OBJECTID":307895},"geometry":{"x":171284.98000000045,"y":2545927.0500000026}},{"attributes":{"ID":307904,"DIS_CODE":0,"TOWNNAME":"永康區","LI":"五王里","LIN":"32鄰","STREET":"中華路","SECT":" ","MAREA":" ","LANE":"５７８巷","ALLEY":" ","HOUSE_NO":"２號七樓之１","E_COORD97":171284.88,"N_COORD97":2545927.0499999998,"ADDRESS":"中華路５７８巷２號七樓之１","OBJECTID":307896},"geometry":{"x":171284.87999999989,"y":2545927.0500000026}},{"attributes":{"ID":307905,"DIS_CODE":0,"TOWNNAME":"永康區","LI":"五王里","LIN":"32鄰","STREET":"中華路","SECT":" ","MAREA":" ","LANE":"５７８巷","ALLEY":" ","HOUSE_NO":"２號之１三樓之１","E_COORD97":171237.89999999999,"N_COORD97":2545914.2999999998,"ADDRESS":"中華路５７８巷２號之１三樓之１","OBJECTID":307897},"geometry":{"x":171237.90000000037,"y":2545914.3000000007}},{"attributes":{"ID":307906,"DIS_CODE":0,"TOWNNAME":"永康區","LI":"中興里","LIN":"25鄰","STREET":"中華路","SECT":" ","MAREA":" ","LANE":"２１６巷","ALLEY":" ","HOUSE_NO":"３號之２五樓","E_COORD97":171724.41,"N_COORD97":2545150.79,"ADDRESS":"中華路２１６巷３號之２五樓","OBJECTID":307898},"geometry":{"x":171724.41000000015,"y":2545150.790000001}},{"attributes":{"ID":307907,"DIS_CODE":0,"TOWNNAME":"北區","LI":"安民里","LIN":"11鄰","STREET":"國華街","SECT":"四段","MAREA":" ","LANE":"１３巷","ALLEY":" ","HOUSE_NO":"３號","E_COORD97":167992.95999999999,"N_COORD97":2544603.3900000001,"ADDRESS":"國華街四段１３巷３號","OBJECTID":307899},"geometry":{"x":167992.95999999996,"y":2544603.3900000025}},{"attributes":{"ID":307908,"DIS_CODE":0,"TOWNNAME":"安南區","LI":"城北里","LIN":"8鄰","STREET":"安中路","SECT":"六段","MAREA":" ","LANE":"３５１巷","ALLEY":" ","HOUSE_NO":"２９號","E_COORD97":161214.70999999999,"N_COORD97":2551210.9399999999,"ADDRESS":"安中路六段３５１巷２９號","OBJECTID":307900},"geometry":{"x":161214.71000000089,"y":2551210.9399999995}},{"attributes":{"ID":307909,"DIS_CODE":0,"TOWNNAME":"安南區","LI":"城北里","LIN":"8鄰","STREET":"安中路","SECT":"六段","MAREA":" ","LANE":"３５１巷","ALLEY":" ","HOUSE_NO":"３０號","E_COORD97":161190.37,"N_COORD97":2551216.8300000001,"ADDRESS":"安中路六段３５１巷３０號","OBJECTID":307901},"geometry":{"x":161190.37000000011,"y":2551216.8300000019}},{"attributes":{"ID":307910,"DIS_CODE":0,"TOWNNAME":"安南區","LI":"淵東里","LIN":"17鄰","STREET":"功安一街","SECT":" ","MAREA":" ","LANE":" ","ALLEY":" ","HOUSE_NO":"２６８號","E_COORD97":165754.14000000001,"N_COORD97":2550096.21,"ADDRESS":"功安一街２６８號","OBJECTID":307902},"geometry":{"x":165754.1400000006,"y":2550096.2100000028}},{"attributes":{"ID":307911,"DIS_CODE":0,"TOWNNAME":"新營區","LI":"民權里","LIN":" ","STREET":"博愛街","SECT":" ","MAREA":" ","LANE":" ","ALLEY":" ","HOUSE_NO":"５６號","E_COORD97":179783.17000000001,"N_COORD97":2578172.8399999999,"ADDRESS":"博愛街５６號","OBJECTID":307903},"geometry":{"x":179783.16999999993,"y":2578172.839999998}},{"attributes":{"ID":307912,"DIS_CODE":0,"TOWNNAME":"新營區","LI":"延平里","LIN":" ","STREET":"復興路","SECT":" ","MAREA":" ","LANE":" ","ALLEY":" ","HOUSE_NO":"１之５０號","E_COORD97":179713.92999999999,"N_COORD97":2577935.1299999999,"ADDRESS":"復興路１之５０號","OBJECTID":307904},"geometry":{"x":179713.93000000063,"y":2577935.129999999}},{"attributes":{"ID":307913,"DIS_CODE":0,"TOWNNAME":"安南區","LI":"淵東里","LIN":"17鄰","STREET":"功安一街","SECT":" ","MAREA":" ","LANE":" ","ALLEY":" ","HOUSE_NO":"２７０號","E_COORD97":165749.06,"N_COORD97":2550095.8300000001,"ADDRESS":"功安一街２７０號","OBJECTID":307905},"geometry":{"x":165749.05999999959,"y":2550095.8300000019}},{"attributes":{"ID":307914,"DIS_CODE":0,"TOWNNAME":"安南區","LI":"淵東里","LIN":"17鄰","STREET":"功安一街","SECT":" ","MAREA":" ","LANE":" ","ALLEY":" ","HOUSE_NO":"２７２號","E_COORD97":165744.87,"N_COORD97":2550095.5699999998,"ADDRESS":"功安一街２７２號","OBJECTID":307906},"geometry":{"x":165744.87000000104,"y":2550095.5700000003}},{"attributes":{"ID":307915,"DIS_CODE":0,"TOWNNAME":"安南區","LI":"淵東里","LIN":"17鄰","STREET":"功安一街","SECT":" ","MAREA":" ","LANE":" ","ALLEY":" ","HOUSE_NO":"２７６號","E_COORD97":165740.81,"N_COORD97":2550094.9399999999,"ADDRESS":"功安一街２７６號","OBJECTID":307907},"geometry":{"x":165740.81000000145,"y":2550094.9399999995}},{"attributes":{"ID":307916,"DIS_CODE":0,"TOWNNAME":"安南區","LI":"淵東里","LIN":"17鄰","STREET":"智安二街","SECT":" ","MAREA":" ","LANE":" ","ALLEY":" ","HOUSE_NO":"１號","E_COORD97":165755.28,"N_COORD97":2550100.5299999998,"ADDRESS":"智安二街１號","OBJECTID":307908},"geometry":{"x":165755.27999999933,"y":2550100.5300000012}},{"attributes":{"ID":307917,"DIS_CODE":0,"TOWNNAME":"安南區","LI":"淵東里","LIN":"17鄰","STREET":"智安二街","SECT":" ","MAREA":" ","LANE":" ","ALLEY":" ","HOUSE_NO":"３號","E_COORD97":165754.26999999999,"N_COORD97":2550104.5899999999,"ADDRESS":"智安二街３號","OBJECTID":307909},"geometry":{"x":165754.26999999955,"y":2550104.5899999999}},{"attributes":{"ID":307918,"DIS_CODE":0,"TOWNNAME":"安南區","LI":"淵東里","LIN":"17鄰","STREET":"智安二街","SECT":" ","MAREA":" ","LANE":" ","ALLEY":" ","HOUSE_NO":"５號","E_COORD97":165753.63,"N_COORD97":2550107,"ADDRESS":"智安二街５號","OBJECTID":307910},"geometry":{"x":165753.62999999989,"y":2550107.0000000019}},{"attributes":{"ID":307919,"DIS_CODE":0,"TOWNNAME":"安南區","LI":"城北里","LIN":"8鄰","STREET":"安中路","SECT":"六段","MAREA":" ","LANE":"３５１巷","ALLEY":" ","HOUSE_NO":"３１號","E_COORD97":161213.14000000001,"N_COORD97":2551205.9900000002,"ADDRESS":"安中路六段３５１巷３１號","OBJECTID":307911},"geometry":{"x":161213.1400000006,"y":2551205.9900000021}},{"attributes":{"ID":307920,"DIS_CODE":0,"TOWNNAME":"安南區","LI":"城中里","LIN":"8鄰","STREET":"城西街","SECT":"一段","MAREA":" ","LANE":"６１巷","ALLEY":" ","HOUSE_NO":"７號","E_COORD97":160730.29000000001,"N_COORD97":2551393.5899999999,"ADDRESS":"城西街一段６１巷７號","OBJECTID":307912},"geometry":{"x":160730.29000000004,"y":2551393.5899999999}},{"attributes":{"ID":307921,"DIS_CODE":0,"TOWNNAME":"安南區","LI":"城南里","LIN":"8鄰","STREET":"城西街","SECT":"一段","MAREA":" ","LANE":"１８１巷","ALLEY":" ","HOUSE_NO":"５８號","E_COORD97":160462.01999999999,"N_COORD97":2551164.6800000002,"ADDRESS":"城西街一段１８１巷５８號","OBJECTID":307913},"geometry":{"x":160462.01999999955,"y":2551164.6799999997}},{"attributes":{"ID":307922,"DIS_CODE":0,"TOWNNAME":"安南區","LI":"城南里","LIN":"8鄰","STREET":"城西街","SECT":"一段","MAREA":" ","LANE":"１８１巷","ALLEY":" ","HOUSE_NO":"６８號","E_COORD97":160450.34,"N_COORD97":2551156.98,"ADDRESS":"城西街一段１８１巷６８號","OBJECTID":307914},"geometry":{"x":160450.34000000171,"y":2551156.9800000004}},{"attributes":{"ID":307923,"DIS_CODE":0,"TOWNNAME":"安南區","LI":"城南里","LIN":"8鄰","STREET":"城西街","SECT":"一段","MAREA":" ","LANE":"１８１巷","ALLEY":" ","HOUSE_NO":"７０號","E_COORD97":160447.35000000001,"N_COORD97":2551164.9199999999,"ADDRESS":"城西街一段１８１巷７０號","OBJECTID":307915},"geometry":{"x":160447.35000000056,"y":2551164.9200000037}},{"attributes":{"ID":307924,"DIS_CODE":0,"TOWNNAME":"安南區","LI":"城南里","LIN":"8鄰","STREET":"城西街","SECT":"一段","MAREA":" ","LANE":"１８１巷","ALLEY":" ","HOUSE_NO":"８７號","E_COORD97":160413.98000000001,"N_COORD97":2551163.9300000002,"ADDRESS":"城西街一段１８１巷８７號","OBJECTID":307916},"geometry":{"x":160413.98000000045,"y":2551163.9299999997}},{"attributes":{"ID":307925,"DIS_CODE":0,"TOWNNAME":"安南區","LI":"城南里","LIN":"8鄰","STREET":"城西街","SECT":"一段","MAREA":" ","LANE":"１８１巷","ALLEY":" ","HOUSE_NO":"９１號","E_COORD97":160412.72,"N_COORD97":2551173.1000000001,"ADDRESS":"城西街一段１８１巷９１號","OBJECTID":307917},"geometry":{"x":160412.72000000067,"y":2551173.0999999996}},{"attributes":{"ID":307926,"DIS_CODE":0,"TOWNNAME":"安南區","LI":"城南里","LIN":"8鄰","STREET":"城西街","SECT":"一段","MAREA":" ","LANE":"２４９巷","ALLEY":" ","HOUSE_NO":"１１號","E_COORD97":160394.82999999999,"N_COORD97":2551166.9100000001,"ADDRESS":"城西街一段２４９巷１１號","OBJECTID":307918},"geometry":{"x":160394.83000000101,"y":2551166.9100000001}},{"attributes":{"ID":307927,"DIS_CODE":0,"TOWNNAME":"安南區","LI":"砂崙里","LIN":"8鄰","STREET":"青砂街","SECT":"一段","MAREA":" ","LANE":"５７２巷","ALLEY":" ","HOUSE_NO":"７５號","E_COORD97":160097.88,"N_COORD97":2552779.8700000001,"ADDRESS":"青砂街一段５７２巷７５號","OBJECTID":307919},"geometry":{"x":160097.88000000082,"y":2552779.870000001}},{"attributes":{"ID":307928,"DIS_CODE":0,"TOWNNAME":"安南區","LI":"砂崙里","LIN":"8鄰","STREET":"青砂街","SECT":"一段","MAREA":" ","LANE":"５７２巷","ALLEY":" ","HOUSE_NO":"９１號","E_COORD97":160128.79000000001,"N_COORD97":2552821.6899999999,"ADDRESS":"青砂街一段５７２巷９１號","OBJECTID":307920},"geometry":{"x":160128.7900000019,"y":2552821.6900000013}},{"attributes":{"ID":307929,"DIS_CODE":0,"TOWNNAME":"安南區","LI":"砂崙里","LIN":"8鄰","STREET":"青砂街","SECT":"一段","MAREA":" ","LANE":"６７０巷","ALLEY":" ","HOUSE_NO":"２１號","E_COORD97":160032.01999999999,"N_COORD97":2552852.54,"ADDRESS":"青砂街一段６７０巷２１號","OBJECTID":307921},"geometry":{"x":160032.02000000048,"y":2552852.540000001}},{"attributes":{"ID":307930,"DIS_CODE":0,"TOWNNAME":"安南區","LI":"淵中里","LIN":"8鄰","STREET":"安中路","SECT":"四段","MAREA":" ","LANE":"４巷","ALLEY":" ","HOUSE_NO":"７８號","E_COORD97":165136.20000000001,"N_COORD97":2550245.21,"ADDRESS":"安中路四段４巷７８號","OBJECTID":307922},"geometry":{"x":165136.20000000112,"y":2550245.2100000046}},{"attributes":{"ID":307931,"DIS_CODE":0,"TOWNNAME":"安南區","LI":"新順里","LIN":"8鄰","STREET":"總安街","SECT":"一段","MAREA":" ","LANE":"３６２巷","ALLEY":" ","HOUSE_NO":"３４號","E_COORD97":169217.76000000001,"N_COORD97":2550496.2000000002,"ADDRESS":"總安街一段３６２巷３４號","OBJECTID":307923},"geometry":{"x":169217.75999999978,"y":2550496.1999999993}},{"attributes":{"ID":307932,"DIS_CODE":0,"TOWNNAME":"安南區","LI":"新順里","LIN":"8鄰","STREET":"總安街","SECT":"一段","MAREA":" ","LANE":"３６２巷","ALLEY":" ","HOUSE_NO":"３６號","E_COORD97":169218.34,"N_COORD97":2550501.4399999999,"ADDRESS":"總安街一段３６２巷３６號","OBJECTID":307924},"geometry":{"x":169218.34000000078,"y":2550501.4399999995}},{"attributes":{"ID":307933,"DIS_CODE":0,"TOWNNAME":"東區","LI":"大學里","LIN":"15鄰","STREET":"長榮路","SECT":"三段","MAREA":" ","LANE":"２４巷","ALLEY":" ","HOUSE_NO":"２５號二樓","E_COORD97":170283.41,"N_COORD97":2543669.4399999999,"ADDRESS":"長榮路三段２４巷２５號二樓","OBJECTID":307925},"geometry":{"x":170283.41000000015,"y":2543669.4400000013}},{"attributes":{"ID":307934,"DIS_CODE":0,"TOWNNAME":"東區","LI":"大學里","LIN":"15鄰","STREET":"長榮路","SECT":"三段","MAREA":" ","LANE":"２４巷","ALLEY":" ","HOUSE_NO":"２５號三樓","E_COORD97":170283.41,"N_COORD97":2543669.4399999999,"ADDRESS":"長榮路三段２４巷２５號三樓","OBJECTID":307926},"geometry":{"x":170283.41000000015,"y":2543669.4400000013}},{"attributes":{"ID":307935,"DIS_CODE":0,"TOWNNAME":"東區","LI":"大學里","LIN":"15鄰","STREET":"長榮路","SECT":"三段","MAREA":" ","LANE":"２４巷","ALLEY":" ","HOUSE_NO":"２１號二樓","E_COORD97":170271.85999999999,"N_COORD97":2543672.6400000001,"ADDRESS":"長榮路三段２４巷２１號二樓","OBJECTID":307927},"geometry":{"x":170271.86000000034,"y":2543672.6400000025}},{"attributes":{"ID":307936,"DIS_CODE":0,"TOWNNAME":"東區","LI":"大學里","LIN":"15鄰","STREET":"長榮路","SECT":"三段","MAREA":" ","LANE":"２４巷","ALLEY":" ","HOUSE_NO":"２１號三樓","E_COORD97":170271.85999999999,"N_COORD97":2543672.6400000001,"ADDRESS":"長榮路三段２４巷２１號三樓","OBJECTID":307928},"geometry":{"x":170271.86000000034,"y":2543672.6400000025}},{"attributes":{"ID":307937,"DIS_CODE":0,"TOWNNAME":"安南區","LI":"新順里","LIN":"8鄰","STREET":"總安街","SECT":"一段","MAREA":" ","LANE":"３６２巷","ALLEY":" ","HOUSE_NO":"３８號","E_COORD97":169218.92999999999,"N_COORD97":2550505.7000000002,"ADDRESS":"總安街一段３６２巷３８號","OBJECTID":307929},"geometry":{"x":169218.93000000063,"y":2550505.7000000011}},{"attributes":{"ID":307938,"DIS_CODE":0,"TOWNNAME":"安南區","LI":"新順里","LIN":"8鄰","STREET":"總安街","SECT":"一段","MAREA":" ","LANE":"３６２巷","ALLEY":" ","HOUSE_NO":"４０號","E_COORD97":169218.92999999999,"N_COORD97":2550509.9700000002,"ADDRESS":"總安街一段３６２巷４０號","OBJECTID":307930},"geometry":{"x":169218.93000000063,"y":2550509.9700000007}},{"attributes":{"ID":307939,"DIS_CODE":0,"TOWNNAME":"安南區","LI":"安順里","LIN":"8鄰","STREET":"安和路","SECT":"四段","MAREA":" ","LANE":"７５巷","ALLEY":" ","HOUSE_NO":"６號","E_COORD97":169906.44,"N_COORD97":2550275.0600000001,"ADDRESS":"安和路四段７５巷６號","OBJECTID":307931},"geometry":{"x":169906.44000000134,"y":2550275.0600000005}},{"attributes":{"ID":307940,"DIS_CODE":0,"TOWNNAME":"安南區","LI":"安順里","LIN":"8鄰","STREET":"安和路","SECT":"四段","MAREA":" ","LANE":"７５巷","ALLEY":" ","HOUSE_NO":"８號","E_COORD97":169905.98000000001,"N_COORD97":2550270.21,"ADDRESS":"安和路四段７５巷８號","OBJECTID":307932},"geometry":{"x":169905.98000000138,"y":2550270.2100000028}},{"attributes":{"ID":307941,"DIS_CODE":0,"TOWNNAME":"安南區","LI":"海西里","LIN":"8鄰","STREET":"海中街","SECT":" ","MAREA":" ","LANE":"１０１巷","ALLEY":" ","HOUSE_NO":"１１１號","E_COORD97":166185.82999999999,"N_COORD97":2548846.27,"ADDRESS":"海中街１０１巷１１１號","OBJECTID":307933},"geometry":{"x":166185.83000000101,"y":2548846.2699999977}},{"attributes":{"ID":307942,"DIS_CODE":0,"TOWNNAME":"安南區","LI":"海西里","LIN":"8鄰","STREET":"海中街","SECT":" ","MAREA":" ","LANE":"１０１巷","ALLEY":" ","HOUSE_NO":"１１３號","E_COORD97":166182.73000000001,"N_COORD97":2548843.7400000002,"ADDRESS":"海中街１０１巷１１３號","OBJECTID":307934},"geometry":{"x":166182.73000000045,"y":2548843.7399999984}},{"attributes":{"ID":307943,"DIS_CODE":0,"TOWNNAME":"安南區","LI":"海西里","LIN":"8鄰","STREET":"海中街","SECT":" ","MAREA":" ","LANE":"１０１巷","ALLEY":" ","HOUSE_NO":"１１５號","E_COORD97":166179.35000000001,"N_COORD97":2548840.3599999999,"ADDRESS":"海中街１０１巷１１５號","OBJECTID":307935},"geometry":{"x":166179.34999999963,"y":2548840.3600000013}},{"attributes":{"ID":307944,"DIS_CODE":0,"TOWNNAME":"安南區","LI":"海西里","LIN":"8鄰","STREET":"海中街","SECT":" ","MAREA":" ","LANE":"１０１巷","ALLEY":" ","HOUSE_NO":"１１７號","E_COORD97":166175.97,"N_COORD97":2548838.3799999999,"ADDRESS":"海中街１０１巷１１７號","OBJECTID":307936},"geometry":{"x":166175.97000000067,"y":2548838.3800000027}},{"attributes":{"ID":307945,"DIS_CODE":0,"TOWNNAME":"安南區","LI":"海西里","LIN":"8鄰","STREET":"海中街","SECT":" ","MAREA":" ","LANE":"７７巷","ALLEY":" ","HOUSE_NO":"１００號","E_COORD97":166209.5,"N_COORD97":2548811.3799999999,"ADDRESS":"海中街７７巷１００號","OBJECTID":307937},"geometry":{"x":166209.49999999907,"y":2548811.3800000027}},{"attributes":{"ID":307946,"DIS_CODE":0,"TOWNNAME":"安南區","LI":"海西里","LIN":"8鄰","STREET":"海中街","SECT":" ","MAREA":" ","LANE":"７７巷","ALLEY":" ","HOUSE_NO":"１０２號","E_COORD97":166206.67999999999,"N_COORD97":2548808,"ADDRESS":"海中街７７巷１０２號","OBJECTID":307938},"geometry":{"x":166206.68000000063,"y":2548808.0000000037}},{"attributes":{"ID":307947,"DIS_CODE":0,"TOWNNAME":"安南區","LI":"海西里","LIN":"8鄰","STREET":"海中街","SECT":" ","MAREA":" ","LANE":"７７巷","ALLEY":" ","HOUSE_NO":"１０４號","E_COORD97":166203.57999999999,"N_COORD97":2548804.6200000001,"ADDRESS":"海中街７７巷１０４號","OBJECTID":307939},"geometry":{"x":166203.58000000007,"y":2548804.620000001}},{"attributes":{"ID":307948,"DIS_CODE":0,"TOWNNAME":"安南區","LI":"海西里","LIN":"8鄰","STREET":"海中街","SECT":" ","MAREA":" ","LANE":"７７巷","ALLEY":" ","HOUSE_NO":"１０６號","E_COORD97":166201.32999999999,"N_COORD97":2548801.5299999998,"ADDRESS":"海中街７７巷１０６號","OBJECTID":307940},"geometry":{"x":166201.33000000101,"y":2548801.5300000012}},{"attributes":{"ID":307949,"DIS_CODE":0,"TOWNNAME":"安南區","LI":"海西里","LIN":"8鄰","STREET":"海中街","SECT":" ","MAREA":" ","LANE":"７７巷","ALLEY":" ","HOUSE_NO":"１０８號","E_COORD97":166196.54000000001,"N_COORD97":2548799.8399999999,"ADDRESS":"海中街７７巷１０８號","OBJECTID":307941},"geometry":{"x":166196.54000000097,"y":2548799.8400000017}},{"attributes":{"ID":307950,"DIS_CODE":0,"TOWNNAME":"安南區","LI":"幸福里","LIN":"8鄰","STREET":"府安路","SECT":"六段","MAREA":" ","LANE":"１０３巷","ALLEY":" ","HOUSE_NO":"８２號","E_COORD97":166693,"N_COORD97":2546716.1099999999,"ADDRESS":"府安路六段１０３巷８２號","OBJECTID":307942},"geometry":{"x":166693.00000000093,"y":2546716.1100000013}},{"attributes":{"ID":307951,"DIS_CODE":0,"TOWNNAME":"安南區","LI":"幸福里","LIN":"8鄰","STREET":"府安路","SECT":"六段","MAREA":" ","LANE":"１０３巷","ALLEY":" ","HOUSE_NO":"８４號","E_COORD97":166691.72,"N_COORD97":2546720.6899999999,"ADDRESS":"府安路六段１０３巷８４號","OBJECTID":307943},"geometry":{"x":166691.72000000067,"y":2546720.6899999995}},{"attributes":{"ID":307952,"DIS_CODE":0,"TOWNNAME":"安南區","LI":"幸福里","LIN":"8鄰","STREET":"府安路","SECT":"六段","MAREA":" ","LANE":"１０３巷","ALLEY":" ","HOUSE_NO":"９０號","E_COORD97":166689.51999999999,"N_COORD97":2546735.1499999999,"ADDRESS":"府安路六段１０３巷９０號","OBJECTID":307944},"geometry":{"x":166689.52000000048,"y":2546735.1500000004}},{"attributes":{"ID":307953,"DIS_CODE":0,"TOWNNAME":"安南區","LI":"淵東里","LIN":"17鄰","STREET":"智安二街","SECT":" ","MAREA":" ","LANE":" ","ALLEY":" ","HOUSE_NO":"７號","E_COORD97":165752.73999999999,"N_COORD97":2550109.29,"ADDRESS":"智安二街７號","OBJECTID":307945},"geometry":{"x":165752.74000000115,"y":2550109.2899999991}},{"attributes":{"ID":307954,"DIS_CODE":0,"TOWNNAME":"安南區","LI":"淵東里","LIN":"17鄰","STREET":"智安三街","SECT":" ","MAREA":" ","LANE":" ","ALLEY":" ","HOUSE_NO":"３３號","E_COORD97":165889.39999999999,"N_COORD97":2550121.23,"ADDRESS":"智安三街３３號","OBJECTID":307946},"geometry":{"x":165889.4000000013,"y":2550121.2300000004}},{"attributes":{"ID":307955,"DIS_CODE":0,"TOWNNAME":"安南區","LI":"淵東里","LIN":"17鄰","STREET":"智安三街","SECT":" ","MAREA":" ","LANE":" ","ALLEY":" ","HOUSE_NO":"２９號","E_COORD97":165891.81,"N_COORD97":2550114.3700000001,"ADDRESS":"智安三街２９號","OBJECTID":307947},"geometry":{"x":165891.81000000145,"y":2550114.370000001}},{"attributes":{"ID":307956,"DIS_CODE":0,"TOWNNAME":"安南區","LI":"淵東里","LIN":"17鄰","STREET":"智安三街","SECT":" ","MAREA":" ","LANE":" ","ALLEY":" ","HOUSE_NO":"２７號","E_COORD97":165892.82999999999,"N_COORD97":2550111.5699999998,"ADDRESS":"智安三街２７號","OBJECTID":307948},"geometry":{"x":165892.83000000101,"y":2550111.5700000003}},{"attributes":{"ID":307957,"DIS_CODE":0,"TOWNNAME":"安南區","LI":"淵東里","LIN":"17鄰","STREET":"智安三街","SECT":" ","MAREA":" ","LANE":" ","ALLEY":" ","HOUSE_NO":"２５號","E_COORD97":165894.22,"N_COORD97":2550108.5299999998,"ADDRESS":"智安三街２５號","OBJECTID":307949},"geometry":{"x":165894.2200000016,"y":2550108.5299999993}},{"attributes":{"ID":307958,"DIS_CODE":0,"TOWNNAME":"東區","LI":"虎尾里","LIN":"29鄰","STREET":"東成街","SECT":" ","MAREA":" ","LANE":"２００巷","ALLEY":" ","HOUSE_NO":"５４號三樓","E_COORD97":171871.98000000001,"N_COORD97":2542145.6000000001,"ADDRESS":"東成街２００巷５４號三樓","OBJECTID":307950},"geometry":{"x":171871.98000000045,"y":2542145.6000000015}},{"attributes":{"ID":307959,"DIS_CODE":0,"TOWNNAME":"東區","LI":"虎尾里","LIN":"29鄰","STREET":"東成街","SECT":" ","MAREA":" ","LANE":"２００巷","ALLEY":" ","HOUSE_NO":"５４號五樓","E_COORD97":171871.98000000001,"N_COORD97":2542145.6000000001,"ADDRESS":"東成街２００巷５４號五樓","OBJECTID":307951},"geometry":{"x":171871.98000000045,"y":2542145.6000000015}},{"attributes":{"ID":307960,"DIS_CODE":0,"TOWNNAME":"東區","LI":"虎尾里","LIN":"29鄰","STREET":"東成街","SECT":" ","MAREA":" ","LANE":"２００巷","ALLEY":" ","HOUSE_NO":"５４號六樓","E_COORD97":171871.98000000001,"N_COORD97":2542145.6000000001,"ADDRESS":"東成街２００巷５４號六樓","OBJECTID":307952},"geometry":{"x":171871.98000000045,"y":2542145.6000000015}},{"attributes":{"ID":307961,"DIS_CODE":0,"TOWNNAME":"東區","LI":"虎尾里","LIN":"29鄰","STREET":"東成街","SECT":" ","MAREA":" ","LANE":"２００巷","ALLEY":" ","HOUSE_NO":"５６號七樓","E_COORD97":171868.17000000001,"N_COORD97":2542139.04,"ADDRESS":"東成街２００巷５６號七樓","OBJECTID":307953},"geometry":{"x":171868.16999999993,"y":2542139.040000001}},{"attributes":{"ID":307962,"DIS_CODE":0,"TOWNNAME":"安南區","LI":"頂安里","LIN":"8鄰","STREET":"怡安路","SECT":"一段","MAREA":" ","LANE":"４４６巷","ALLEY":" ","HOUSE_NO":"１５號","E_COORD97":168629.67999999999,"N_COORD97":2549229.4700000002,"ADDRESS":"怡安路一段４４６巷１５號","OBJECTID":307954},"geometry":{"x":168629.6799999997,"y":2549229.4700000044}},{"attributes":{"ID":307963,"DIS_CODE":0,"TOWNNAME":"安南區","LI":"頂安里","LIN":"8鄰","STREET":"怡安路","SECT":"一段","MAREA":" ","LANE":"４４６巷","ALLEY":" ","HOUSE_NO":"１號","E_COORD97":168594.54000000001,"N_COORD97":2549220.6000000001,"ADDRESS":"怡安路一段４４６巷１號","OBJECTID":307955},"geometry":{"x":168594.5400000019,"y":2549220.6000000034}},{"attributes":{"ID":307964,"DIS_CODE":0,"TOWNNAME":"安南區","LI":"頂安里","LIN":"8鄰","STREET":"怡安路","SECT":"一段","MAREA":" ","LANE":"４４６巷","ALLEY":" ","HOUSE_NO":"２１號","E_COORD97":168638.29000000001,"N_COORD97":2549229.2000000002,"ADDRESS":"怡安路一段４４６巷２１號","OBJECTID":307956},"geometry":{"x":168638.29000000004,"y":2549229.1999999993}},{"attributes":{"ID":307965,"DIS_CODE":0,"TOWNNAME":"安南區","LI":"頂安里","LIN":"8鄰","STREET":"怡安路","SECT":"一段","MAREA":" ","LANE":"４４６巷","ALLEY":" ","HOUSE_NO":"２３號","E_COORD97":168640.72,"N_COORD97":2549247.5,"ADDRESS":"怡安路一段４４６巷２３號","OBJECTID":307957},"geometry":{"x":168640.72000000067,"y":2549247.5}},{"attributes":{"ID":307966,"DIS_CODE":0,"TOWNNAME":"安南區","LI":"頂安里","LIN":"8鄰","STREET":"怡安路","SECT":"一段","MAREA":" ","LANE":"４４６巷","ALLEY":" ","HOUSE_NO":"２５號","E_COORD97":168646.10000000001,"N_COORD97":2549248.3100000001,"ADDRESS":"怡安路一段４４６巷２５號","OBJECTID":307958},"geometry":{"x":168646.0999999987,"y":2549248.3100000024}},{"attributes":{"ID":307967,"DIS_CODE":0,"TOWNNAME":"安南區","LI":"頂安里","LIN":"8鄰","STREET":"怡安路","SECT":"一段","MAREA":" ","LANE":"４４６巷","ALLEY":" ","HOUSE_NO":"２９號","E_COORD97":168660.92000000001,"N_COORD97":2549246.6899999999,"ADDRESS":"怡安路一段４４６巷２９號","OBJECTID":307959},"geometry":{"x":168660.91999999993,"y":2549246.6899999995}},{"attributes":{"ID":307968,"DIS_CODE":0,"TOWNNAME":"安南區","LI":"海南里","LIN":"8鄰","STREET":"府安路","SECT":"六段","MAREA":" ","LANE":"１２６巷","ALLEY":" ","HOUSE_NO":"１５號","E_COORD97":166590.03,"N_COORD97":2546423.23,"ADDRESS":"府安路六段１２６巷１５號","OBJECTID":307960},"geometry":{"x":166590.03000000119,"y":2546423.2300000004}},{"attributes":{"ID":307969,"DIS_CODE":0,"TOWNNAME":"安南區","LI":"淵東里","LIN":"17鄰","STREET":"智安三街","SECT":" ","MAREA":" ","LANE":" ","ALLEY":" ","HOUSE_NO":"２３號","E_COORD97":165896,"N_COORD97":2550104.46,"ADDRESS":"智安三街２３號","OBJECTID":307961},"geometry":{"x":165896.00000000186,"y":2550104.4600000046}},{"attributes":{"ID":307970,"DIS_CODE":0,"TOWNNAME":"安南區","LI":"淵東里","LIN":"17鄰","STREET":"仁安路","SECT":" ","MAREA":" ","LANE":" ","ALLEY":" ","HOUSE_NO":"１３０號","E_COORD97":165656.22,"N_COORD97":2550124.9100000001,"ADDRESS":"仁安路１３０號","OBJECTID":307962},"geometry":{"x":165656.21999999974,"y":2550124.910000002}},{"attributes":{"ID":307971,"DIS_CODE":0,"TOWNNAME":"安南區","LI":"淵東里","LIN":"17鄰","STREET":"仁安路","SECT":" ","MAREA":" ","LANE":" ","ALLEY":" ","HOUSE_NO":"１３２號","E_COORD97":165659.53,"N_COORD97":2550127.4500000002,"ADDRESS":"仁安路１３２號","OBJECTID":307963},"geometry":{"x":165659.53000000119,"y":2550127.4500000011}},{"attributes":{"ID":307972,"DIS_CODE":0,"TOWNNAME":"安南區","LI":"州北里","LIN":"17鄰","STREET":"安和路","SECT":"六段","MAREA":" ","LANE":" ","ALLEY":" ","HOUSE_NO":"２６之９號","E_COORD97":169623.97,"N_COORD97":2552356.1200000001,"ADDRESS":"安和路六段２６之９號","OBJECTID":307964},"geometry":{"x":169623.97000000067,"y":2552356.1200000029}},{"attributes":{"ID":307973,"DIS_CODE":0,"TOWNNAME":"安南區","LI":"州北里","LIN":"17鄰","STREET":"安和路","SECT":"六段","MAREA":" ","LANE":" ","ALLEY":" ","HOUSE_NO":"４０之２號","E_COORD97":169595.57999999999,"N_COORD97":2552419.8900000001,"ADDRESS":"安和路六段４０之２號","OBJECTID":307965},"geometry":{"x":169595.58000000007,"y":2552419.8900000006}},{"attributes":{"ID":307974,"DIS_CODE":0,"TOWNNAME":"永康區","LI":"五王里","LIN":"32鄰","STREET":"中華路","SECT":" ","MAREA":" ","LANE":"５７８巷","ALLEY":" ","HOUSE_NO":"２號四樓之８","E_COORD97":171285.03,"N_COORD97":2545927.0499999998,"ADDRESS":"中華路５７８巷２號四樓之８","OBJECTID":307966},"geometry":{"x":171285.03000000212,"y":2545927.0500000026}},{"attributes":{"ID":307975,"DIS_CODE":0,"TOWNNAME":"安南區","LI":"海南里","LIN":"8鄰","STREET":"府安路","SECT":"六段","MAREA":" ","LANE":"１４６巷","ALLEY":" ","HOUSE_NO":"２６號","E_COORD97":166534.73999999999,"N_COORD97":2546414.5099999998,"ADDRESS":"府安路六段１４６巷２６號","OBJECTID":307967},"geometry":{"x":166534.74000000022,"y":2546414.5100000016}},{"attributes":{"ID":307976,"DIS_CODE":0,"TOWNNAME":"安南區","LI":"州北里","LIN":"17鄰","STREET":"安和路","SECT":"六段","MAREA":" ","LANE":" ","ALLEY":" ","HOUSE_NO":"６１之１３號","E_COORD97":169508.87,"N_COORD97":2552500.6499999999,"ADDRESS":"安和路六段６１之１３號","OBJECTID":307968},"geometry":{"x":169508.87000000011,"y":2552500.6500000022}},{"attributes":{"ID":307977,"DIS_CODE":0,"TOWNNAME":"大內區","LI":"環湖里","LIN":"3鄰","STREET":" ","SECT":" ","MAREA":"環湖","LANE":" ","ALLEY":" ","HOUSE_NO":"３０號之１","E_COORD97":190516.93605700001,"N_COORD97":2560653.3505099998,"ADDRESS":"環湖３０號之１","OBJECTID":307969},"geometry":{"x":190516.93605700042,"y":2560653.3505050037}},{"attributes":{"ID":307978,"DIS_CODE":0,"TOWNNAME":"仁德區","LI":"仁愛里","LIN":"24鄰","STREET":"保仁路","SECT":" ","MAREA":" ","LANE":" ","ALLEY":" ","HOUSE_NO":"２５８號三樓之２","E_COORD97":169971.43338,"N_COORD97":2540083.8028600002,"ADDRESS":"保仁路２５８號三樓之２","OBJECTID":307970},"geometry":{"x":169971.43338000029,"y":2540083.8028599992}},{"attributes":{"ID":307979,"DIS_CODE":0,"TOWNNAME":"仁德區","LI":"仁愛里","LIN":"24鄰","STREET":"保仁路","SECT":" ","MAREA":" ","LANE":" ","ALLEY":" ","HOUSE_NO":"２５０號五樓之１","E_COORD97":169990.08523999999,"N_COORD97":2540066.0099999998,"ADDRESS":"保仁路２５０號五樓之１","OBJECTID":307971},"geometry":{"x":169990.08524000179,"y":2540066.0099999998}},{"attributes":{"ID":307980,"DIS_CODE":0,"TOWNNAME":"永康區","LI":"勝利里","LIN":"20鄰","STREET":"勝學路","SECT":" ","MAREA":" ","LANE":"２６９巷","ALLEY":" ","HOUSE_NO":"２號六樓之２","E_COORD97":171173.42000000001,"N_COORD97":2545316.0499999998,"ADDRESS":"勝學路２６９巷２號六樓之２","OBJECTID":307972},"geometry":{"x":171173.41999999993,"y":2545316.0500000007}},{"attributes":{"ID":307981,"DIS_CODE":0,"TOWNNAME":"永康區","LI":"勝利里","LIN":"20鄰","STREET":"勝學路","SECT":" ","MAREA":" ","LANE":"２６９巷","ALLEY":" ","HOUSE_NO":"２號七樓之５","E_COORD97":171173.44,"N_COORD97":2545316.0499999998,"ADDRESS":"勝學路２６９巷２號七樓之５","OBJECTID":307973},"geometry":{"x":171173.44000000041,"y":2545316.0500000007}},{"attributes":{"ID":307982,"DIS_CODE":0,"TOWNNAME":"善化區","LI":"南關里","LIN":"8鄰","STREET":"光復路","SECT":" ","MAREA":" ","LANE":"５３６巷","ALLEY":" ","HOUSE_NO":"８號","E_COORD97":176845.51000000001,"N_COORD97":2558914.7599999998,"ADDRESS":"光復路５３６巷８號","OBJECTID":307974},"geometry":{"x":176845.51000000071,"y":2558914.7599999998}},{"attributes":{"ID":307983,"DIS_CODE":0,"TOWNNAME":"安南區","LI":"溪北里","LIN":"8鄰","STREET":"府安路","SECT":"四段","MAREA":" ","LANE":"２４巷","ALLEY":" ","HOUSE_NO":"１０號","E_COORD97":169425.78,"N_COORD97":2547359.3399999999,"ADDRESS":"府安路四段２４巷１０號","OBJECTID":307975},"geometry":{"x":169425.78000000119,"y":2547359.3400000017}},{"attributes":{"ID":307984,"DIS_CODE":0,"TOWNNAME":"安南區","LI":"溪北里","LIN":"8鄰","STREET":"府安路","SECT":"四段","MAREA":" ","LANE":"２４巷","ALLEY":" ","HOUSE_NO":"１２號","E_COORD97":169424.48999999999,"N_COORD97":2547363.2000000002,"ADDRESS":"府安路四段２４巷１２號","OBJECTID":307976},"geometry":{"x":169424.49000000115,"y":2547363.2000000011}},{"attributes":{"ID":307985,"DIS_CODE":0,"TOWNNAME":"安南區","LI":"溪北里","LIN":"8鄰","STREET":"府安路","SECT":"四段","MAREA":" ","LANE":"２４巷","ALLEY":" ","HOUSE_NO":"１６號","E_COORD97":169420.54000000001,"N_COORD97":2547371.1000000001,"ADDRESS":"府安路四段２４巷１６號","OBJECTID":307977},"geometry":{"x":169420.54000000097,"y":2547371.1000000015}},{"attributes":{"ID":307986,"DIS_CODE":0,"TOWNNAME":"安南區","LI":"溪北里","LIN":"8鄰","STREET":"府安路","SECT":"四段","MAREA":" ","LANE":"２４巷","ALLEY":" ","HOUSE_NO":"１８號","E_COORD97":169418.35999999999,"N_COORD97":2547376.23,"ADDRESS":"府安路四段２４巷１８號","OBJECTID":307978},"geometry":{"x":169418.36000000127,"y":2547376.2300000042}},{"attributes":{"ID":307987,"DIS_CODE":0,"TOWNNAME":"安南區","LI":"溪北里","LIN":"8鄰","STREET":"府安路","SECT":"四段","MAREA":" ","LANE":"２４巷","ALLEY":" ","HOUSE_NO":"２４號","E_COORD97":169412.60999999999,"N_COORD97":2547387.7400000002,"ADDRESS":"府安路四段２４巷２４號","OBJECTID":307979},"geometry":{"x":169412.61000000034,"y":2547387.7400000021}},{"attributes":{"ID":307988,"DIS_CODE":0,"TOWNNAME":"安南區","LI":"溪北里","LIN":"8鄰","STREET":"府安路","SECT":"四段","MAREA":" ","LANE":"２４巷","ALLEY":" ","HOUSE_NO":"２８號","E_COORD97":169409.29999999999,"N_COORD97":2547396.8599999999,"ADDRESS":"府安路四段２４巷２８號","OBJECTID":307980},"geometry":{"x":169409.29999999981,"y":2547396.8599999994}},{"attributes":{"ID":307989,"DIS_CODE":0,"TOWNNAME":"安南區","LI":"溪北里","LIN":"8鄰","STREET":"府安路","SECT":"四段","MAREA":" ","LANE":"２４巷","ALLEY":" ","HOUSE_NO":"２號","E_COORD97":169436.29999999999,"N_COORD97":2547337.54,"ADDRESS":"府安路四段２４巷２號","OBJECTID":307981},"geometry":{"x":169436.29999999981,"y":2547337.5399999991}},{"attributes":{"ID":307990,"DIS_CODE":0,"TOWNNAME":"安南區","LI":"溪北里","LIN":"8鄰","STREET":"府安路","SECT":"四段","MAREA":" ","LANE":"２４巷","ALLEY":" ","HOUSE_NO":"３０號","E_COORD97":169407.45999999999,"N_COORD97":2547400.8100000001,"ADDRESS":"府安路四段２４巷３０號","OBJECTID":307982},"geometry":{"x":169407.46000000089,"y":2547400.8100000024}},{"attributes":{"ID":307991,"DIS_CODE":0,"TOWNNAME":"安南區","LI":"溪北里","LIN":"8鄰","STREET":"府安路","SECT":"四段","MAREA":" ","LANE":"２４巷","ALLEY":" ","HOUSE_NO":"３２號","E_COORD97":169406.26999999999,"N_COORD97":2547404.6600000001,"ADDRESS":"府安路四段２４巷３２號","OBJECTID":307983},"geometry":{"x":169406.27000000048,"y":2547404.660000002}},{"attributes":{"ID":307992,"DIS_CODE":0,"TOWNNAME":"安南區","LI":"溪北里","LIN":"8鄰","STREET":"府安路","SECT":"四段","MAREA":" ","LANE":"２４巷","ALLEY":" ","HOUSE_NO":"３６號","E_COORD97":169402.09,"N_COORD97":2547412.4300000002,"ADDRESS":"府安路四段２４巷３６號","OBJECTID":307984},"geometry":{"x":169402.08999999985,"y":2547412.4300000016}},{"attributes":{"ID":307993,"DIS_CODE":0,"TOWNNAME":"安南區","LI":"溪北里","LIN":"8鄰","STREET":"府安路","SECT":"四段","MAREA":" ","LANE":"２４巷","ALLEY":" ","HOUSE_NO":"３８號","E_COORD97":169400.89999999999,"N_COORD97":2547417.1899999999,"ADDRESS":"府安路四段２４巷３８號","OBJECTID":307985},"geometry":{"x":169400.89999999944,"y":2547417.1900000013}},{"attributes":{"ID":307994,"DIS_CODE":0,"TOWNNAME":"安南區","LI":"溪北里","LIN":"8鄰","STREET":"府安路","SECT":"四段","MAREA":" ","LANE":"２４巷","ALLEY":" ","HOUSE_NO":"４０號","E_COORD97":169398.85999999999,"N_COORD97":2547420.6699999999,"ADDRESS":"府安路四段２４巷４０號","OBJECTID":307986},"geometry":{"x":169398.86000000034,"y":2547420.6700000018}},{"attributes":{"ID":307995,"DIS_CODE":0,"TOWNNAME":"安南區","LI":"州北里","LIN":"17鄰","STREET":"北安路","SECT":"四段","MAREA":" ","LANE":" ","ALLEY":" ","HOUSE_NO":"６０９號","E_COORD97":169529.78,"N_COORD97":2552074.3399999999,"ADDRESS":"北安路四段６０９號","OBJECTID":307987},"geometry":{"x":169529.78000000026,"y":2552074.3400000017}},{"attributes":{"ID":307996,"DIS_CODE":0,"TOWNNAME":"安南區","LI":"州北里","LIN":"17鄰","STREET":"北安路","SECT":"四段","MAREA":" ","LANE":" ","ALLEY":" ","HOUSE_NO":"６１１號","E_COORD97":169529.59,"N_COORD97":2552081.8199999998,"ADDRESS":"北安路四段６１１號","OBJECTID":307988},"geometry":{"x":169529.58999999892,"y":2552081.8200000022}},{"attributes":{"ID":307997,"DIS_CODE":0,"TOWNNAME":"安南區","LI":"理想里","LIN":"17鄰","STREET":"大安街","SECT":" ","MAREA":" ","LANE":" ","ALLEY":" ","HOUSE_NO":"２２３號","E_COORD97":167422.01000000001,"N_COORD97":2548362.3900000001,"ADDRESS":"大安街２２３號","OBJECTID":307989},"geometry":{"x":167422.01000000071,"y":2548362.3900000025}},{"attributes":{"ID":307998,"DIS_CODE":0,"TOWNNAME":"安南區","LI":"理想里","LIN":"17鄰","STREET":"大安街","SECT":" ","MAREA":" ","LANE":" ","ALLEY":" ","HOUSE_NO":"２２５號","E_COORD97":167423.53,"N_COORD97":2548366.3799999999,"ADDRESS":"大安街２２５號","OBJECTID":307990},"geometry":{"x":167423.53000000212,"y":2548366.379999999}},{"attributes":{"ID":307999,"DIS_CODE":0,"TOWNNAME":"新營區","LI":"中營里","LIN":"5鄰","STREET":"開元路","SECT":" ","MAREA":" ","LANE":" ","ALLEY":" ","HOUSE_NO":"１０號","E_COORD97":180819.07999999999,"N_COORD97":2578557.79,"ADDRESS":"開元路１０號","OBJECTID":307991},"geometry":{"x":180819.08000000101,"y":2578557.7899999991}},{"attributes":{"ID":308000,"DIS_CODE":0,"TOWNNAME":"仁德區","LI":"仁愛里","LIN":"24鄰","STREET":"保仁路","SECT":" ","MAREA":" ","LANE":" ","ALLEY":" ","HOUSE_NO":"２５６號三樓之１","E_COORD97":169970.42371999999,"N_COORD97":2540108.2011799999,"ADDRESS":"保仁路２５６號三樓之１","OBJECTID":307992},"geometry":{"x":169970.42372000124,"y":2540108.2011799999}},{"attributes":{"ID":308001,"DIS_CODE":0,"TOWNNAME":"安南區","LI":"溪北里","LIN":"8鄰","STREET":"府安路","SECT":"四段","MAREA":" ","LANE":"２４巷","ALLEY":" ","HOUSE_NO":"４６號","E_COORD97":169393.39999999999,"N_COORD97":2547433.0800000001,"ADDRESS":"府安路四段２４巷４６號","OBJECTID":307993},"geometry":{"x":169393.40000000037,"y":2547433.0800000001}},{"attributes":{"ID":308002,"DIS_CODE":0,"TOWNNAME":"安南區","LI":"溪北里","LIN":"8鄰","STREET":"府安路","SECT":"四段","MAREA":" ","LANE":"２４巷","ALLEY":" ","HOUSE_NO":"４號","E_COORD97":169434.26000000001,"N_COORD97":2547341.6200000001,"ADDRESS":"府安路四段２４巷４號","OBJECTID":307994},"geometry":{"x":169434.26000000071,"y":2547341.6200000029}},{"attributes":{"ID":308003,"DIS_CODE":0,"TOWNNAME":"安南區","LI":"溪北里","LIN":"8鄰","STREET":"府安路","SECT":"四段","MAREA":" ","LANE":"２４巷","ALLEY":" ","HOUSE_NO":"８號","E_COORD97":169427.57000000001,"N_COORD97":2547355.1499999999,"ADDRESS":"府安路四段２４巷８號","OBJECTID":307995},"geometry":{"x":169427.57000000123,"y":2547355.1500000004}},{"attributes":{"ID":308004,"DIS_CODE":0,"TOWNNAME":"善化區","LI":"坐駕里","LIN":"8鄰","STREET":"大成路","SECT":" ","MAREA":" ","LANE":"３６７巷","ALLEY":" ","HOUSE_NO":"７號","E_COORD97":177956.01999999999,"N_COORD97":2558758,"ADDRESS":"大成路３６７巷７號","OBJECTID":307996},"geometry":{"x":177956.01999999955,"y":2558758}},{"attributes":{"ID":308005,"DIS_CODE":0,"TOWNNAME":"善化區","LI":"文昌里","LIN":"8鄰","STREET":"大同路","SECT":" ","MAREA":" ","LANE":"２１３巷","ALLEY":" ","HOUSE_NO":"１０號之１","E_COORD97":177396.26999999999,"N_COORD97":2558710.27,"ADDRESS":"大同路２１３巷１０號之１","OBJECTID":307997},"geometry":{"x":177396.27000000048,"y":2558710.2700000014}},{"attributes":{"ID":308006,"DIS_CODE":0,"TOWNNAME":"善化區","LI":"坐駕里","LIN":"8鄰","STREET":"大成路","SECT":" ","MAREA":" ","LANE":"３６７巷","ALLEY":" ","HOUSE_NO":"１０號","E_COORD97":177963.37,"N_COORD97":2558751.75,"ADDRESS":"大成路３６７巷１０號","OBJECTID":307998},"geometry":{"x":177963.37000000197,"y":2558751.7500000019}},{"attributes":{"ID":308007,"DIS_CODE":0,"TOWNNAME":"善化區","LI":"文昌里","LIN":"8鄰","STREET":"大同路","SECT":" ","MAREA":" ","LANE":"２１３巷","ALLEY":" ","HOUSE_NO":"３號","E_COORD97":177414.70999999999,"N_COORD97":2558687.25,"ADDRESS":"大同路２１３巷３號","OBJECTID":307999},"geometry":{"x":177414.70999999996,"y":2558687.2500000019}},{"attributes":{"ID":308008,"DIS_CODE":0,"TOWNNAME":"善化區","LI":"文昌里","LIN":"8鄰","STREET":"大同路","SECT":" ","MAREA":" ","LANE":"２１３巷","ALLEY":" ","HOUSE_NO":"６號","E_COORD97":177409.87,"N_COORD97":2558701.25,"ADDRESS":"大同路２１３巷６號","OBJECTID":308000},"geometry":{"x":177409.87000000011,"y":2558701.25}}]}