{"displayFieldName":"TOWNNAME","fieldAliases":{"ID":"ID","DIS_CODE":"DIS_CODE","TOWNNAME":"TOWNNAME","LI":"LI","LIN":"LIN","STREET":"STREET","SECT":"SECT","MAREA":"MAREA","LANE":"LANE","ALLEY":"ALLEY","HOUSE_NO":"HOUSE_NO","E_COORD97":"E_COORD97","N_COORD97":"N_COORD97","ADDRESS":"ADDRESS","OBJECTID":"OBJECTID"},"geometryType":"esriGeometryPoint","spatialReference":{"wkid":102443,"latestWkid":3826},"fields":[{"name":"ID","type":"esriFieldTypeDouble","alias":"ID"},{"name":"DIS_CODE","type":"esriFieldTypeInteger","alias":"DIS_CODE"},{"name":"TOWNNAME","type":"esriFieldTypeString","alias":"TOWNNAME","length":8},{"name":"LI","type":"esriFieldTypeString","alias":"LI","length":8},{"name":"LIN","type":"esriFieldTypeString","alias":"LIN","length":12},{"name":"STREET","type":"esriFieldTypeString","alias":"STREET","length":20},{"name":"SECT","type":"esriFieldTypeString","alias":"SECT","length":8},{"name":"MAREA","type":"esriFieldTypeString","alias":"MAREA","length":12},{"name":"LANE","type":"esriFieldTypeString","alias":"LANE","length":10},{"name":"ALLEY","type":"esriFieldTypeString","alias":"ALLEY","length":10},{"name":"HOUSE_NO","type":"esriFieldTypeString","alias":"HOUSE_NO","length":20},{"name":"E_COORD97","type":"esriFieldTypeDouble","alias":"E_COORD97"},{"name":"N_COORD97","type":"esriFieldTypeDouble","alias":"N_COORD97"},{"name":"ADDRESS","type":"esriFieldTypeString","alias":"ADDRESS","length":50},{"name":"OBJECTID","type":"esriFieldTypeOID","alias":"OBJECTID"}],"features":[{"attributes":{"ID":661028,"DIS_CODE":0,"TOWNNAME":"新營區","LI":"延平里","LIN":"16鄰","STREET":"長春街","SECT":" ","MAREA":" ","LANE":"９０巷","ALLEY":" ","HOUSE_NO":"６號","E_COORD97":179600.410187,"N_COORD97":2577879.1590399998,"ADDRESS":"長春街９０巷６號","OBJECTID":661001},"geometry":{"x":179600.41018700227,"y":2577879.1590360031}},{"attributes":{"ID":661029,"DIS_CODE":0,"TOWNNAME":"新營區","LI":"延平里","LIN":"16鄰","STREET":"長春街","SECT":" ","MAREA":" ","LANE":"９０巷","ALLEY":" ","HOUSE_NO":"８號","E_COORD97":179608.46327400001,"N_COORD97":2577881.6990299998,"ADDRESS":"長春街９０巷８號","OBJECTID":661002},"geometry":{"x":179608.46327400114,"y":2577881.6990340017}},{"attributes":{"ID":661030,"DIS_CODE":0,"TOWNNAME":"新營區","LI":"延平里","LIN":"16鄰","STREET":"長春街","SECT":" ","MAREA":" ","LANE":"９０巷","ALLEY":" ","HOUSE_NO":"１４號","E_COORD97":179596.17172000001,"N_COORD97":2577893.34069,"ADDRESS":"長春街９０巷１４號","OBJECTID":661003},"geometry":{"x":179596.17172000092,"y":2577893.3406950012}},{"attributes":{"ID":661031,"DIS_CODE":0,"TOWNNAME":"新營區","LI":"延平里","LIN":"16鄰","STREET":"長春街","SECT":" ","MAREA":" ","LANE":"９０巷","ALLEY":" ","HOUSE_NO":"１６號","E_COORD97":179586.211324,"N_COORD97":2577888.2607,"ADDRESS":"長春街９０巷１６號","OBJECTID":661004},"geometry":{"x":179586.2113239998,"y":2577888.2606970035}},{"attributes":{"ID":661032,"DIS_CODE":0,"TOWNNAME":"新營區","LI":"延平里","LIN":"16鄰","STREET":"長春街","SECT":" ","MAREA":" ","LANE":"９０巷","ALLEY":" ","HOUSE_NO":"１５號","E_COORD97":179578.79400699999,"N_COORD97":2577884.0273699998,"ADDRESS":"長春街９０巷１５號","OBJECTID":661005},"geometry":{"x":179578.79400700051,"y":2577884.0273660012}},{"attributes":{"ID":661033,"DIS_CODE":0,"TOWNNAME":"善化區","LI":"嘉北里","LIN":"12鄰","STREET":" ","SECT":" ","MAREA":"茄拔","LANE":" ","ALLEY":" ","HOUSE_NO":"２２８號之１７","E_COORD97":180927.29741999999,"N_COORD97":2559924.4389599999,"ADDRESS":"茄拔２２８號之１７","OBJECTID":661006},"geometry":{"x":180927.29742000066,"y":2559924.4389600009}},{"attributes":{"ID":661034,"DIS_CODE":0,"TOWNNAME":"麻豆區","LI":"油車里","LIN":"12鄰","STREET":" ","SECT":" ","MAREA":"油車","LANE":" ","ALLEY":" ","HOUSE_NO":"７９號之３５","E_COORD97":172565.22644999999,"N_COORD97":2566072.1257799999,"ADDRESS":"油車７９號之３５","OBJECTID":661007},"geometry":{"x":172565.22644999996,"y":2566072.1257789992}},{"attributes":{"ID":661035,"DIS_CODE":0,"TOWNNAME":"善化區","LI":"嘉南里","LIN":"7鄰","STREET":" ","SECT":" ","MAREA":"茄拔","LANE":" ","ALLEY":" ","HOUSE_NO":"１１１號","E_COORD97":181020.61811800001,"N_COORD97":2559552.5916800001,"ADDRESS":"茄拔１１１號","OBJECTID":661008},"geometry":{"x":181020.61811800115,"y":2559552.5916820019}},{"attributes":{"ID":661036,"DIS_CODE":0,"TOWNNAME":"麻豆區","LI":"油車里","LIN":"12鄰","STREET":" ","SECT":" ","MAREA":"油車","LANE":" ","ALLEY":" ","HOUSE_NO":"７９號之４５","E_COORD97":172551.02791199999,"N_COORD97":2566091.5991000002,"ADDRESS":"油車７９號之４５","OBJECTID":661009},"geometry":{"x":172551.02791200019,"y":2566091.5991019998}},{"attributes":{"ID":661037,"DIS_CODE":0,"TOWNNAME":"善化區","LI":"嘉北里","LIN":"8鄰","STREET":" ","SECT":" ","MAREA":"茄拔","LANE":" ","ALLEY":" ","HOUSE_NO":"１８４號之７","E_COORD97":181082.29415,"N_COORD97":2560035.9872300001,"ADDRESS":"茄拔１８４號之７","OBJECTID":661010},"geometry":{"x":181082.2941500023,"y":2560035.987230001}},{"attributes":{"ID":661038,"DIS_CODE":0,"TOWNNAME":"永康區","LI":"復華里","LIN":"9鄰","STREET":"復國二路","SECT":" ","MAREA":" ","LANE":"２１５巷","ALLEY":" ","HOUSE_NO":"３４號","E_COORD97":172910.685379,"N_COORD97":2546064.7540500001,"ADDRESS":"復國二路２１５巷３４號","OBJECTID":661011},"geometry":{"x":172910.68537900224,"y":2546064.7540530004}},{"attributes":{"ID":661039,"DIS_CODE":0,"TOWNNAME":"永康區","LI":"復華里","LIN":"10鄰","STREET":"復國二路","SECT":" ","MAREA":" ","LANE":"２１５巷","ALLEY":" ","HOUSE_NO":"４６號","E_COORD97":172899.66391100001,"N_COORD97":2546070.6807200001,"ADDRESS":"復國二路２１５巷４６號","OBJECTID":661012},"geometry":{"x":172899.66391100176,"y":2546070.6807160024}},{"attributes":{"ID":661040,"DIS_CODE":0,"TOWNNAME":"永康區","LI":"六合里","LIN":"9鄰","STREET":"新興街","SECT":" ","MAREA":" ","LANE":" ","ALLEY":" ","HOUSE_NO":"７８號","E_COORD97":171152.973295,"N_COORD97":2545829.6983500002,"ADDRESS":"新興街７８號","OBJECTID":661013},"geometry":{"x":171152.97329500131,"y":2545829.6983460002}},{"attributes":{"ID":661041,"DIS_CODE":0,"TOWNNAME":"善化區","LI":"嘉北里","LIN":"12鄰","STREET":" ","SECT":" ","MAREA":"茄拔","LANE":" ","ALLEY":" ","HOUSE_NO":"２７０號之９","E_COORD97":180880.07847000001,"N_COORD97":2559932.21771,"ADDRESS":"茄拔２７０號之９","OBJECTID":661014},"geometry":{"x":180880.07847000007,"y":2559932.2177099995}},{"attributes":{"ID":661042,"DIS_CODE":0,"TOWNNAME":"善化區","LI":"嘉南里","LIN":"9鄰","STREET":" ","SECT":" ","MAREA":"茄拔","LANE":" ","ALLEY":" ","HOUSE_NO":"１３３號","E_COORD97":181054.067404,"N_COORD97":2559597.4979500002,"ADDRESS":"茄拔１３３號","OBJECTID":661015},"geometry":{"x":181054.06740399916,"y":2559597.4979480002}},{"attributes":{"ID":661043,"DIS_CODE":0,"TOWNNAME":"善化區","LI":"嘉北里","LIN":"8鄰","STREET":" ","SECT":" ","MAREA":"茄拔","LANE":" ","ALLEY":" ","HOUSE_NO":"１８４號之６","E_COORD97":181074.05033,"N_COORD97":2560069.0743399998,"ADDRESS":"茄拔１８４號之６","OBJECTID":661016},"geometry":{"x":181074.05033000093,"y":2560069.0743400026}},{"attributes":{"ID":661044,"DIS_CODE":0,"TOWNNAME":"善化區","LI":"嘉北里","LIN":"8鄰","STREET":" ","SECT":" ","MAREA":"茄拔","LANE":" ","ALLEY":" ","HOUSE_NO":"１８４號之５","E_COORD97":181068.54498999999,"N_COORD97":2560035.4193600002,"ADDRESS":"茄拔１８４號之５","OBJECTID":661017},"geometry":{"x":181068.54499000032,"y":2560035.4193600025}},{"attributes":{"ID":661045,"DIS_CODE":0,"TOWNNAME":"永康區","LI":"安康里","LIN":"6鄰","STREET":"大橋一街","SECT":" ","MAREA":" ","LANE":" ","ALLEY":" ","HOUSE_NO":"４７之１號","E_COORD97":170691.55532799999,"N_COORD97":2546299.59809,"ADDRESS":"大橋一街４７之１號","OBJECTID":661018},"geometry":{"x":170691.55532800127,"y":2546299.5980920009}},{"attributes":{"ID":661046,"DIS_CODE":0,"TOWNNAME":"永康區","LI":"安康里","LIN":"6鄰","STREET":"大橋一街","SECT":" ","MAREA":" ","LANE":" ","ALLEY":" ","HOUSE_NO":"４７之２號","E_COORD97":170688.79996100001,"N_COORD97":2546303.40809,"ADDRESS":"大橋一街４７之２號","OBJECTID":661019},"geometry":{"x":170688.79996100068,"y":2546303.408090001}},{"attributes":{"ID":661047,"DIS_CODE":0,"TOWNNAME":"永康區","LI":"安康里","LIN":"6鄰","STREET":"大橋一街","SECT":" ","MAREA":" ","LANE":" ","ALLEY":" ","HOUSE_NO":"４７之３號","E_COORD97":170690.28362,"N_COORD97":2546306.5830899999,"ADDRESS":"大橋一街４７之３號","OBJECTID":661020},"geometry":{"x":170690.28361999989,"y":2546306.5830889996}},{"attributes":{"ID":661048,"DIS_CODE":0,"TOWNNAME":"關廟區","LI":"香洋里","LIN":"5鄰","STREET":"中正路","SECT":" ","MAREA":" ","LANE":" ","ALLEY":" ","HOUSE_NO":"９８３號","E_COORD97":181073.99174600001,"N_COORD97":2540296.1838699998,"ADDRESS":"中正路９８３號","OBJECTID":661021},"geometry":{"x":181073.99174600095,"y":2540296.1838680021}},{"attributes":{"ID":661049,"DIS_CODE":0,"TOWNNAME":"永康區","LI":"安康里","LIN":"6鄰","STREET":"大橋一街","SECT":" ","MAREA":" ","LANE":" ","ALLEY":" ","HOUSE_NO":"４７之５號","E_COORD97":170693.886792,"N_COORD97":2546307.6414200002,"ADDRESS":"大橋一街４７之５號","OBJECTID":661022},"geometry":{"x":170693.88679200038,"y":2546307.6414209995}},{"attributes":{"ID":661050,"DIS_CODE":0,"TOWNNAME":"永康區","LI":"安康里","LIN":"6鄰","STREET":"大橋一街","SECT":" ","MAREA":" ","LANE":" ","ALLEY":" ","HOUSE_NO":"４７之６號","E_COORD97":170696.64215900001,"N_COORD97":2546304.46642,"ADDRESS":"大橋一街４７之６號","OBJECTID":661023},"geometry":{"x":170696.64215900097,"y":2546304.466423003}},{"attributes":{"ID":661051,"DIS_CODE":0,"TOWNNAME":"永康區","LI":"安康里","LIN":"6鄰","STREET":"大橋一街","SECT":" ","MAREA":" ","LANE":" ","ALLEY":" ","HOUSE_NO":"４７之７號","E_COORD97":170696.430207,"N_COORD97":2546301.7147599999,"ADDRESS":"大橋一街４７之７號","OBJECTID":661024},"geometry":{"x":170696.43020700105,"y":2546301.7147580031}},{"attributes":{"ID":661052,"DIS_CODE":0,"TOWNNAME":"善化區","LI":"嘉北里","LIN":"7鄰","STREET":" ","SECT":" ","MAREA":"茄拔","LANE":" ","ALLEY":" ","HOUSE_NO":"１７３號之２","E_COORD97":181089.08416999999,"N_COORD97":2559939.1639899998,"ADDRESS":"茄拔１７３號之２","OBJECTID":661025},"geometry":{"x":181089.08417000156,"y":2559939.1639900003}},{"attributes":{"ID":661053,"DIS_CODE":0,"TOWNNAME":"新營區","LI":"延平里","LIN":"17鄰","STREET":"長春街","SECT":" ","MAREA":" ","LANE":"１３４巷","ALLEY":"１６弄","HOUSE_NO":"２號","E_COORD97":179555.48243999999,"N_COORD97":2577865.7827699999,"ADDRESS":"長春街１３４巷１６弄２號","OBJECTID":661026},"geometry":{"x":179555.4824400004,"y":2577865.7827710006}},{"attributes":{"ID":661054,"DIS_CODE":0,"TOWNNAME":"新營區","LI":"延平里","LIN":"17鄰","STREET":"長春街","SECT":" ","MAREA":" ","LANE":"１３４巷","ALLEY":"１６弄","HOUSE_NO":"４號","E_COORD97":179571.37669,"N_COORD97":2577881.34026,"ADDRESS":"長春街１３４巷１６弄４號","OBJECTID":661027},"geometry":{"x":179571.37669000123,"y":2577881.3402619995}},{"attributes":{"ID":661055,"DIS_CODE":0,"TOWNNAME":"永康區","LI":"安康里","LIN":"2鄰","STREET":"中華西街","SECT":" ","MAREA":" ","LANE":"１９６巷","ALLEY":" ","HOUSE_NO":"３０號","E_COORD97":170711.05484699999,"N_COORD97":2546386.2755499999,"ADDRESS":"中華西街１９６巷３０號","OBJECTID":661028},"geometry":{"x":170711.05484700017,"y":2546386.2755460013}},{"attributes":{"ID":661056,"DIS_CODE":0,"TOWNNAME":"新營區","LI":"延平里","LIN":"17鄰","STREET":"長春街","SECT":" ","MAREA":" ","LANE":"１３４巷","ALLEY":"１６弄","HOUSE_NO":"８號","E_COORD97":179565.866683,"N_COORD97":2577883.88026,"ADDRESS":"長春街１３４巷１６弄８號","OBJECTID":661029},"geometry":{"x":179565.8666830007,"y":2577883.8802610002}},{"attributes":{"ID":661057,"DIS_CODE":0,"TOWNNAME":"永康區","LI":"安康里","LIN":"2鄰","STREET":"中華西街","SECT":" ","MAREA":" ","LANE":"１９６巷","ALLEY":" ","HOUSE_NO":"３２號","E_COORD97":170705.33216200001,"N_COORD97":2546383.9472099999,"ADDRESS":"中華西街１９６巷３２號","OBJECTID":661030},"geometry":{"x":170705.33216200024,"y":2546383.9472139999}},{"attributes":{"ID":661058,"DIS_CODE":0,"TOWNNAME":"永康區","LI":"安康里","LIN":"2鄰","STREET":"中華西街","SECT":" ","MAREA":" ","LANE":"１９６巷","ALLEY":" ","HOUSE_NO":"３６號","E_COORD97":170705.968016,"N_COORD97":2546379.9255499998,"ADDRESS":"中華西街１９６巷３６號","OBJECTID":661031},"geometry":{"x":170705.96801600046,"y":2546379.9255490024}},{"attributes":{"ID":661059,"DIS_CODE":0,"TOWNNAME":"永康區","LI":"安康里","LIN":"2鄰","STREET":"中華西街","SECT":" ","MAREA":" ","LANE":"１９６巷","ALLEY":" ","HOUSE_NO":"３８號","E_COORD97":170709.35923599999,"N_COORD97":2546378.6555499998,"ADDRESS":"中華西街１９６巷３８號","OBJECTID":661032},"geometry":{"x":170709.35923600104,"y":2546378.6555499993}},{"attributes":{"ID":661060,"DIS_CODE":0,"TOWNNAME":"新營區","LI":"延平里","LIN":"17鄰","STREET":"長春街","SECT":" ","MAREA":" ","LANE":"１３４巷","ALLEY":"１６弄","HOUSE_NO":"７號","E_COORD97":179545.09819600001,"N_COORD97":2577875.7311,"ADDRESS":"長春街１３４巷１６弄７號","OBJECTID":661033},"geometry":{"x":179545.09819600079,"y":2577875.7310990021}},{"attributes":{"ID":661061,"DIS_CODE":0,"TOWNNAME":"新營區","LI":"延平里","LIN":"17鄰","STREET":"長春街","SECT":" ","MAREA":" ","LANE":"１３４巷","ALLEY":"１６弄","HOUSE_NO":"９號","E_COORD97":179547.00550599999,"N_COORD97":2577880.3877599998,"ADDRESS":"長春街１３４巷１６弄９號","OBJECTID":661034},"geometry":{"x":179547.00550599955,"y":2577880.3877630029}},{"attributes":{"ID":661062,"DIS_CODE":0,"TOWNNAME":"永康區","LI":"安康里","LIN":"2鄰","STREET":"中華西街","SECT":" ","MAREA":" ","LANE":"１９６巷","ALLEY":" ","HOUSE_NO":"４０號","E_COORD97":170712.96240799999,"N_COORD97":2546379.29055,"ADDRESS":"中華西街１９６巷４０號","OBJECTID":661035},"geometry":{"x":170712.96240799967,"y":2546379.2905489989}},{"attributes":{"ID":661063,"DIS_CODE":0,"TOWNNAME":"新營區","LI":"延平里","LIN":"17鄰","STREET":"長春街","SECT":" ","MAREA":" ","LANE":"１３４巷","ALLEY":"１６弄","HOUSE_NO":"１３號","E_COORD97":179551.243973,"N_COORD97":2577888.8544299998,"ADDRESS":"長春街１３４巷１６弄１３號","OBJECTID":661036},"geometry":{"x":179551.24397300091,"y":2577888.8544250019}},{"attributes":{"ID":661064,"DIS_CODE":0,"TOWNNAME":"永康區","LI":"安康里","LIN":"2鄰","STREET":"中華西街","SECT":" ","MAREA":" ","LANE":"１９６巷","ALLEY":" ","HOUSE_NO":"４２號","E_COORD97":170715.50582399999,"N_COORD97":2546383.1005500001,"ADDRESS":"中華西街１９６巷４２號","OBJECTID":661037},"geometry":{"x":170715.50582399964,"y":2546383.1005470026}},{"attributes":{"ID":661065,"DIS_CODE":0,"TOWNNAME":"永康區","LI":"安康里","LIN":"2鄰","STREET":"中華西街","SECT":" ","MAREA":" ","LANE":"１９６巷","ALLEY":" ","HOUSE_NO":"４６號","E_COORD97":170711.90265199999,"N_COORD97":2546385.42888,"ADDRESS":"中華西街１９６巷４６號","OBJECTID":661038},"geometry":{"x":170711.90265200101,"y":2546385.4288790002}},{"attributes":{"ID":661066,"DIS_CODE":0,"TOWNNAME":"永康區","LI":"安康里","LIN":"3鄰","STREET":"中華路","SECT":" ","MAREA":" ","LANE":"７２７巷","ALLEY":" ","HOUSE_NO":"９６號","E_COORD97":170652.13238699999,"N_COORD97":2546332.6180799999,"ADDRESS":"中華路７２７巷９６號","OBJECTID":661039},"geometry":{"x":170652.13238700107,"y":2546332.6180750001}},{"attributes":{"ID":661067,"DIS_CODE":0,"TOWNNAME":"永康區","LI":"安康里","LIN":"3鄰","STREET":"中華路","SECT":" ","MAREA":" ","LANE":"７２７巷","ALLEY":" ","HOUSE_NO":"９２號","E_COORD97":170659.550682,"N_COORD97":2546355.4780600001,"ADDRESS":"中華路７２７巷９２號","OBJECTID":661040},"geometry":{"x":170659.55068200082,"y":2546355.4780620001}},{"attributes":{"ID":661068,"DIS_CODE":0,"TOWNNAME":"永康區","LI":"安康里","LIN":"3鄰","STREET":"中華路","SECT":" ","MAREA":" ","LANE":"１９６巷","ALLEY":" ","HOUSE_NO":"９０號","E_COORD97":170671.631906,"N_COORD97":2546365.21472,"ADDRESS":"中華路１９６巷９０號","OBJECTID":661041},"geometry":{"x":170671.6319060009,"y":2546365.2147240005}},{"attributes":{"ID":661069,"DIS_CODE":0,"TOWNNAME":"新營區","LI":"延平里","LIN":"17鄰","STREET":"長春街","SECT":" ","MAREA":" ","LANE":"１３４巷","ALLEY":" ","HOUSE_NO":"２２號","E_COORD97":179528.35625300001,"N_COORD97":2577858.3744399999,"ADDRESS":"長春街１３４巷２２號","OBJECTID":661042},"geometry":{"x":179528.35625299998,"y":2577858.3744409997}},{"attributes":{"ID":661070,"DIS_CODE":0,"TOWNNAME":"新營區","LI":"延平里","LIN":"17鄰","STREET":"長春街","SECT":" ","MAREA":" ","LANE":"１３４巷","ALLEY":" ","HOUSE_NO":"２２號之１","E_COORD97":179524.11778599999,"N_COORD97":2577860.7027699999,"ADDRESS":"長春街１３４巷２２號之１","OBJECTID":661043},"geometry":{"x":179524.11778600048,"y":2577860.702773001}},{"attributes":{"ID":661071,"DIS_CODE":0,"TOWNNAME":"永康區","LI":"安康里","LIN":"3鄰","STREET":"中華路","SECT":" ","MAREA":" ","LANE":"１９６巷","ALLEY":" ","HOUSE_NO":"９０號","E_COORD97":170671.631906,"N_COORD97":2546365.21472,"ADDRESS":"中華路１９６巷９０號","OBJECTID":661044},"geometry":{"x":170671.6319060009,"y":2546365.2147240005}},{"attributes":{"ID":661072,"DIS_CODE":0,"TOWNNAME":"永康區","LI":"安康里","LIN":"1鄰","STREET":"中華路","SECT":" ","MAREA":" ","LANE":"７２７巷","ALLEY":" ","HOUSE_NO":"２號","E_COORD97":170811.73171200001,"N_COORD97":2546419.93053,"ADDRESS":"中華路７２７巷２號","OBJECTID":661045},"geometry":{"x":170811.73171200044,"y":2546419.9305270016}},{"attributes":{"ID":661073,"DIS_CODE":0,"TOWNNAME":"永康區","LI":"安康里","LIN":"3鄰","STREET":"中華路","SECT":" ","MAREA":" ","LANE":"７２７巷","ALLEY":" ","HOUSE_NO":"８８號","E_COORD97":170680.53386,"N_COORD97":2546352.7264,"ADDRESS":"中華路７２７巷８８號","OBJECTID":661046},"geometry":{"x":170680.53386000078,"y":2546352.7263970003}},{"attributes":{"ID":661074,"DIS_CODE":0,"TOWNNAME":"善化區","LI":"嘉北里","LIN":"8鄰","STREET":" ","SECT":" ","MAREA":"茄拔","LANE":" ","ALLEY":" ","HOUSE_NO":"１７９號之１","E_COORD97":181096.50943000001,"N_COORD97":2560033.7260199999,"ADDRESS":"茄拔１７９號之１","OBJECTID":661047},"geometry":{"x":181096.50943000149,"y":2560033.7260200009}},{"attributes":{"ID":661075,"DIS_CODE":0,"TOWNNAME":"善化區","LI":"嘉北里","LIN":"8鄰","STREET":" ","SECT":" ","MAREA":"茄拔","LANE":" ","ALLEY":" ","HOUSE_NO":"１７９號之２","E_COORD97":181097.88576,"N_COORD97":2560057.75018,"ADDRESS":"茄拔１７９號之２","OBJECTID":661048},"geometry":{"x":181097.88576000091,"y":2560057.7501800004}},{"attributes":{"ID":661076,"DIS_CODE":0,"TOWNNAME":"永康區","LI":"復華里","LIN":"8鄰","STREET":"復國二路","SECT":" ","MAREA":" ","LANE":" ","ALLEY":" ","HOUSE_NO":"２１９號","E_COORD97":173001.82443499999,"N_COORD97":2546059.3565500001,"ADDRESS":"復國二路２１９號","OBJECTID":661049},"geometry":{"x":173001.82443500031,"y":2546059.3565549999}},{"attributes":{"ID":661077,"DIS_CODE":0,"TOWNNAME":"永康區","LI":"復華里","LIN":"8鄰","STREET":"復國二路","SECT":" ","MAREA":" ","LANE":" ","ALLEY":" ","HOUSE_NO":"２２１號","E_COORD97":173003.30809400001,"N_COORD97":2546062.53155,"ADDRESS":"復國二路２２１號","OBJECTID":661050},"geometry":{"x":173003.30809400044,"y":2546062.5315539986}},{"attributes":{"ID":661078,"DIS_CODE":0,"TOWNNAME":"永康區","LI":"復華里","LIN":"8鄰","STREET":"復國二路","SECT":" ","MAREA":" ","LANE":" ","ALLEY":" ","HOUSE_NO":"２２３號","E_COORD97":173003.52004599999,"N_COORD97":2546064.6482199999,"ADDRESS":"復國二路２２３號","OBJECTID":661051},"geometry":{"x":173003.52004600037,"y":2546064.6482190005}},{"attributes":{"ID":661079,"DIS_CODE":0,"TOWNNAME":"永康區","LI":"復華里","LIN":"8鄰","STREET":"復國二路","SECT":" ","MAREA":" ","LANE":" ","ALLEY":" ","HOUSE_NO":"２２５號","E_COORD97":173001.82443499999,"N_COORD97":2546066.7648900002,"ADDRESS":"復國二路２２５號","OBJECTID":661052},"geometry":{"x":173001.82443500031,"y":2546066.7648850009}},{"attributes":{"ID":661080,"DIS_CODE":0,"TOWNNAME":"永康區","LI":"復華里","LIN":"8鄰","STREET":"復國二路","SECT":" ","MAREA":" ","LANE":" ","ALLEY":" ","HOUSE_NO":"２２７號","E_COORD97":173003.731997,"N_COORD97":2546071.20988,"ADDRESS":"復國二路２２７號","OBJECTID":661053},"geometry":{"x":173003.73199700098,"y":2546071.2098820023}},{"attributes":{"ID":661081,"DIS_CODE":0,"TOWNNAME":"永康區","LI":"復華里","LIN":"8鄰","STREET":"復國二路","SECT":" ","MAREA":" ","LANE":" ","ALLEY":" ","HOUSE_NO":"２２７號","E_COORD97":173003.731997,"N_COORD97":2546071.20988,"ADDRESS":"復國二路２２７號","OBJECTID":661054},"geometry":{"x":173003.73199700098,"y":2546071.2098820023}},{"attributes":{"ID":661082,"DIS_CODE":0,"TOWNNAME":"永康區","LI":"復華里","LIN":"8鄰","STREET":"復國二路","SECT":" ","MAREA":" ","LANE":" ","ALLEY":" ","HOUSE_NO":"２２５號","E_COORD97":172997.37345799999,"N_COORD97":2546068.2465499998,"ADDRESS":"復國二路２２５號","OBJECTID":661055},"geometry":{"x":172997.37345799897,"y":2546068.2465509977}},{"attributes":{"ID":661083,"DIS_CODE":0,"TOWNNAME":"永康區","LI":"復華里","LIN":"8鄰","STREET":"復國二路","SECT":" ","MAREA":" ","LANE":" ","ALLEY":" ","HOUSE_NO":"２２９號","E_COORD97":172994.61809100001,"N_COORD97":2546069.93988,"ADDRESS":"復國二路２２９號","OBJECTID":661056},"geometry":{"x":172994.61809100118,"y":2546069.9398830011}},{"attributes":{"ID":661084,"DIS_CODE":0,"TOWNNAME":"善化區","LI":"嘉北里","LIN":"12鄰","STREET":" ","SECT":" ","MAREA":"茄拔","LANE":" ","ALLEY":" ","HOUSE_NO":"２２６號之３","E_COORD97":181001.01280999999,"N_COORD97":2559953.1339799999,"ADDRESS":"茄拔２２６號之３","OBJECTID":661057},"geometry":{"x":181001.01281000115,"y":2559953.1339799985}},{"attributes":{"ID":661085,"DIS_CODE":0,"TOWNNAME":"永康區","LI":"復華里","LIN":"8鄰","STREET":"復國二路","SECT":" ","MAREA":" ","LANE":" ","ALLEY":" ","HOUSE_NO":"２３１號","E_COORD97":172995.67784799999,"N_COORD97":2546072.0565499999,"ADDRESS":"復國二路２３１號","OBJECTID":661058},"geometry":{"x":172995.67784800101,"y":2546072.0565490015}},{"attributes":{"ID":661086,"DIS_CODE":0,"TOWNNAME":"永康區","LI":"復華里","LIN":"8鄰","STREET":"復國二路","SECT":" ","MAREA":" ","LANE":" ","ALLEY":" ","HOUSE_NO":"２３３號","E_COORD97":172999.06906800001,"N_COORD97":2546071.8448800002,"ADDRESS":"復國二路２３３號","OBJECTID":661059},"geometry":{"x":172999.06906799972,"y":2546071.8448820002}},{"attributes":{"ID":661087,"DIS_CODE":0,"TOWNNAME":"山上區","LI":"山上里","LIN":"6鄰","STREET":" ","SECT":" ","MAREA":"山上","LANE":" ","ALLEY":" ","HOUSE_NO":"１２６號","E_COORD97":184295.10748400001,"N_COORD97":2555777.5071399999,"ADDRESS":"山上１２６號","OBJECTID":661060},"geometry":{"x":184295.1074839998,"y":2555777.5071389992}},{"attributes":{"ID":661088,"DIS_CODE":0,"TOWNNAME":"山上區","LI":"山上里","LIN":"7鄰","STREET":" ","SECT":" ","MAREA":"山上","LANE":" ","ALLEY":" ","HOUSE_NO":"１２４號","E_COORD97":184264.17753700001,"N_COORD97":2555795.4988000002,"ADDRESS":"山上１２４號","OBJECTID":661061},"geometry":{"x":184264.17753699981,"y":2555795.4987960029}},{"attributes":{"ID":661089,"DIS_CODE":0,"TOWNNAME":"山上區","LI":"山上里","LIN":"8鄰","STREET":" ","SECT":" ","MAREA":"山上","LANE":" ","ALLEY":" ","HOUSE_NO":"１４８號","E_COORD97":184115.883271,"N_COORD97":2555735.068,"ADDRESS":"山上１４８號","OBJECTID":661062},"geometry":{"x":184115.88327100128,"y":2555735.0679950044}},{"attributes":{"ID":661090,"DIS_CODE":0,"TOWNNAME":"山上區","LI":"山上里","LIN":"8鄰","STREET":" ","SECT":" ","MAREA":"山上","LANE":" ","ALLEY":" ","HOUSE_NO":"１４２號","E_COORD97":184143.635484,"N_COORD97":2555734.8563299999,"ADDRESS":"山上１４２號","OBJECTID":661063},"geometry":{"x":184143.63548400067,"y":2555734.8563290015}},{"attributes":{"ID":661091,"DIS_CODE":0,"TOWNNAME":"山上區","LI":"山上里","LIN":"14鄰","STREET":" ","SECT":" ","MAREA":"山上","LANE":" ","ALLEY":" ","HOUSE_NO":"２０７號","E_COORD97":184211.85084599999,"N_COORD97":2555616.53473,"ADDRESS":"山上２０７號","OBJECTID":661064},"geometry":{"x":184211.85084600188,"y":2555616.5347260032}},{"attributes":{"ID":661092,"DIS_CODE":0,"TOWNNAME":"山上區","LI":"山上里","LIN":"15鄰","STREET":" ","SECT":" ","MAREA":"山上","LANE":" ","ALLEY":" ","HOUSE_NO":"１４６之１號","E_COORD97":184125.62832300001,"N_COORD97":2555778.1421400001,"ADDRESS":"山上１４６之１號","OBJECTID":661065},"geometry":{"x":184125.62832299992,"y":2555778.142138999}},{"attributes":{"ID":661093,"DIS_CODE":0,"TOWNNAME":"山上區","LI":"玉\u25A0里","LIN":"8鄰","STREET":" ","SECT":" ","MAREA":"埔\u25A0坑","LANE":" ","ALLEY":" ","HOUSE_NO":"１７號","E_COORD97":187792.541364,"N_COORD97":2553432.19025,"ADDRESS":"埔\u25A0坑１７號","OBJECTID":661066},"geometry":{"x":187792.54136400018,"y":2553432.1902520005}},{"attributes":{"ID":661094,"DIS_CODE":0,"TOWNNAME":"山上區","LI":"玉\u25A0里","LIN":"8鄰","STREET":" ","SECT":" ","MAREA":"埔\u25A0坑","LANE":" ","ALLEY":" ","HOUSE_NO":"１６之１號","E_COORD97":187949.94513499999,"N_COORD97":2553384.3536100001,"ADDRESS":"埔\u25A0坑１６之１號","OBJECTID":661067},"geometry":{"x":187949.94513500109,"y":2553384.3536110017}},{"attributes":{"ID":661095,"DIS_CODE":0,"TOWNNAME":"山上區","LI":"新莊里","LIN":"1鄰","STREET":" ","SECT":" ","MAREA":"新庄","LANE":" ","ALLEY":" ","HOUSE_NO":"７之３號","E_COORD97":184954.48414700001,"N_COORD97":2553972.5621699998,"ADDRESS":"新庄７之３號","OBJECTID":661068},"geometry":{"x":184954.48414700013,"y":2553972.5621730015}},{"attributes":{"ID":661096,"DIS_CODE":0,"TOWNNAME":"山上區","LI":"新莊里","LIN":"7鄰","STREET":" ","SECT":" ","MAREA":"大庄","LANE":" ","ALLEY":" ","HOUSE_NO":"１４之６號","E_COORD97":184108.994981,"N_COORD97":2554626.0826500002,"ADDRESS":"大庄１４之６號","OBJECTID":661069},"geometry":{"x":184108.99498100206,"y":2554626.0826530028}},{"attributes":{"ID":661097,"DIS_CODE":0,"TOWNNAME":"山上區","LI":"豐德里","LIN":"2鄰","STREET":" ","SECT":" ","MAREA":"隙子口","LANE":" ","ALLEY":" ","HOUSE_NO":"３８號","E_COORD97":184868.50851099999,"N_COORD97":2553265.2745500002,"ADDRESS":"隙子口３８號","OBJECTID":661070},"geometry":{"x":184868.50851100124,"y":2553265.2745509986}},{"attributes":{"ID":661098,"DIS_CODE":0,"TOWNNAME":"山上區","LI":"新莊里","LIN":"9鄰","STREET":" ","SECT":" ","MAREA":"大庄","LANE":" ","ALLEY":" ","HOUSE_NO":"５５之９號","E_COORD97":183197.939571,"N_COORD97":2554544.2549999999,"ADDRESS":"大庄５５之９號","OBJECTID":661071},"geometry":{"x":183197.9395709997,"y":2554544.2550010011}},{"attributes":{"ID":661099,"DIS_CODE":0,"TOWNNAME":"山上區","LI":"新莊里","LIN":"6鄰","STREET":" ","SECT":" ","MAREA":"大庄","LANE":" ","ALLEY":" ","HOUSE_NO":"１之１６８號（農業設","E_COORD97":183703.90140800001,"N_COORD97":2554233.84564,"ADDRESS":"大庄１之１６８號（農業設施資材室）","OBJECTID":661072},"geometry":{"x":183703.90140800085,"y":2554233.8456390016}},{"attributes":{"ID":661100,"DIS_CODE":0,"TOWNNAME":"善化區","LI":"文昌里","LIN":"16鄰","STREET":"中正","SECT":" ","MAREA":" ","LANE":" ","ALLEY":" ","HOUSE_NO":"３９１號","E_COORD97":177686.57975800001,"N_COORD97":2558645.03682,"ADDRESS":"中正３９１號","OBJECTID":661073},"geometry":{"x":177686.57975800056,"y":2558645.0368150007}},{"attributes":{"ID":661101,"DIS_CODE":0,"TOWNNAME":"善化區","LI":"文昌里","LIN":"20鄰","STREET":"中正","SECT":" ","MAREA":" ","LANE":" ","ALLEY":" ","HOUSE_NO":"２１０號","E_COORD97":177727.26501100001,"N_COORD97":2558288.0611700001,"ADDRESS":"中正２１０號","OBJECTID":661074},"geometry":{"x":177727.26501100138,"y":2558288.0611740015}},{"attributes":{"ID":661102,"DIS_CODE":0,"TOWNNAME":"善化區","LI":"文昌里","LIN":"7鄰","STREET":"文昌路","SECT":" ","MAREA":" ","LANE":"１０７巷","ALLEY":" ","HOUSE_NO":"２６１號","E_COORD97":177124.45577299999,"N_COORD97":2557442.9824600001,"ADDRESS":"文昌路１０７巷２６１號","OBJECTID":661075},"geometry":{"x":177124.45577300061,"y":2557442.9824640024}},{"attributes":{"ID":661103,"DIS_CODE":0,"TOWNNAME":"善化區","LI":"文昌里","LIN":"17鄰","STREET":" ","SECT":" ","MAREA":"益民寮","LANE":" ","ALLEY":" ","HOUSE_NO":"２００號","E_COORD97":177762.493778,"N_COORD97":2556673.57455,"ADDRESS":"益民寮２００號","OBJECTID":661076},"geometry":{"x":177762.49377800059,"y":2556673.574546}},{"attributes":{"ID":661104,"DIS_CODE":0,"TOWNNAME":"善化區","LI":"文昌里","LIN":"1鄰","STREET":"中興路","SECT":" ","MAREA":" ","LANE":" ","ALLEY":" ","HOUSE_NO":"１５３號","E_COORD97":177298.74546400001,"N_COORD97":2559030.9049399998,"ADDRESS":"中興路１５３號","OBJECTID":661077},"geometry":{"x":177298.74546400085,"y":2559030.9049399998}},{"attributes":{"ID":661105,"DIS_CODE":0,"TOWNNAME":"善化區","LI":"文昌里","LIN":"4鄰","STREET":"自由路","SECT":" ","MAREA":" ","LANE":"９０巷","ALLEY":" ","HOUSE_NO":"８號","E_COORD97":177182.47758999999,"N_COORD97":2558888.1223200001,"ADDRESS":"自由路９０巷８號","OBJECTID":661078},"geometry":{"x":177182.47759000119,"y":2558888.1223189998}},{"attributes":{"ID":661106,"DIS_CODE":0,"TOWNNAME":"善化區","LI":"文昌里","LIN":"6鄰","STREET":"永福路","SECT":" ","MAREA":" ","LANE":"１６２巷","ALLEY":" ","HOUSE_NO":"１０號之１","E_COORD97":177206.52850799999,"N_COORD97":2558827.58568,"ADDRESS":"永福路１６２巷１０號之１","OBJECTID":661079},"geometry":{"x":177206.52850800008,"y":2558827.5856849998}},{"attributes":{"ID":661107,"DIS_CODE":0,"TOWNNAME":"善化區","LI":"文昌里","LIN":"7鄰","STREET":"永福路","SECT":" ","MAREA":" ","LANE":"１１４巷","ALLEY":" ","HOUSE_NO":"９號之１","E_COORD97":177296.163206,"N_COORD97":2558840.4973499998,"ADDRESS":"永福路１１４巷９號之１","OBJECTID":661080},"geometry":{"x":177296.16320599988,"y":2558840.4973450024}},{"attributes":{"ID":661108,"DIS_CODE":0,"TOWNNAME":"善化區","LI":"文昌里","LIN":"7鄰","STREET":"永福路","SECT":" ","MAREA":" ","LANE":" ","ALLEY":" ","HOUSE_NO":"１３３號","E_COORD97":177281.43599200001,"N_COORD97":2558783.7707099998,"ADDRESS":"永福路１３３號","OBJECTID":661081},"geometry":{"x":177281.43599200062,"y":2558783.7707090024}},{"attributes":{"ID":661109,"DIS_CODE":0,"TOWNNAME":"善化區","LI":"文昌里","LIN":"14鄰","STREET":"大信路","SECT":" ","MAREA":" ","LANE":" ","ALLEY":" ","HOUSE_NO":"３１號","E_COORD97":177542.60565000001,"N_COORD97":2558936.5939600002,"ADDRESS":"大信路３１號","OBJECTID":661082},"geometry":{"x":177542.60565000121,"y":2558936.5939600021}},{"attributes":{"ID":661110,"DIS_CODE":0,"TOWNNAME":"善化區","LI":"文昌里","LIN":"15鄰","STREET":"文昌路","SECT":" ","MAREA":" ","LANE":" ","ALLEY":" ","HOUSE_NO":"４號之２","E_COORD97":177649.828244,"N_COORD97":2558868.4373300001,"ADDRESS":"文昌路４號之２","OBJECTID":661083},"geometry":{"x":177649.82824399974,"y":2558868.437330002}},{"attributes":{"ID":661111,"DIS_CODE":0,"TOWNNAME":"善化區","LI":"文昌里","LIN":"15鄰","STREET":"文昌路","SECT":" ","MAREA":" ","LANE":" ","ALLEY":" ","HOUSE_NO":"４號之５","E_COORD97":177639.021224,"N_COORD97":2558863.5690000001,"ADDRESS":"文昌路４號之５","OBJECTID":661084},"geometry":{"x":177639.02122399956,"y":2558863.5689990018}},{"attributes":{"ID":661112,"DIS_CODE":0,"TOWNNAME":"善化區","LI":"文昌里","LIN":"15鄰","STREET":"文昌路","SECT":" ","MAREA":" ","LANE":" ","ALLEY":" ","HOUSE_NO":"４號之６","E_COORD97":177636.160542,"N_COORD97":2558862.8281700001,"ADDRESS":"文昌路４號之６","OBJECTID":661085},"geometry":{"x":177636.16054200102,"y":2558862.8281660005}},{"attributes":{"ID":661113,"DIS_CODE":0,"TOWNNAME":"善化區","LI":"光文里","LIN":"6鄰","STREET":" ","SECT":" ","MAREA":"北子店","LANE":" ","ALLEY":" ","HOUSE_NO":"３１８號","E_COORD97":179148.12464299999,"N_COORD97":2559480.5069400002,"ADDRESS":"北子店３１８號","OBJECTID":661086},"geometry":{"x":179148.12464300077,"y":2559480.5069350023}},{"attributes":{"ID":661114,"DIS_CODE":0,"TOWNNAME":"善化區","LI":"光文里","LIN":"6鄰","STREET":" ","SECT":" ","MAREA":"北子店","LANE":" ","ALLEY":" ","HOUSE_NO":"３２４號","E_COORD97":179093.672842,"N_COORD97":2559470.2411099998,"ADDRESS":"北子店３２４號","OBJECTID":661087},"geometry":{"x":179093.67284200061,"y":2559470.2411080021}},{"attributes":{"ID":661115,"DIS_CODE":0,"TOWNNAME":"善化區","LI":"光文里","LIN":"22鄰","STREET":"中山路","SECT":" ","MAREA":" ","LANE":" ","ALLEY":" ","HOUSE_NO":"１１８號","E_COORD97":178552.54482499999,"N_COORD97":2559192.0054299999,"ADDRESS":"中山路１１８號","OBJECTID":661088},"geometry":{"x":178552.54482500162,"y":2559192.0054249987}},{"attributes":{"ID":661116,"DIS_CODE":0,"TOWNNAME":"善化區","LI":"光文里","LIN":"22鄰","STREET":" ","SECT":" ","MAREA":"北子店","LANE":"１２４巷","ALLEY":" ","HOUSE_NO":"２號","E_COORD97":179500.68416599999,"N_COORD97":2559630.57852,"ADDRESS":"北子店１２４巷２號","OBJECTID":661089},"geometry":{"x":179500.68416600022,"y":2559630.5785210002}},{"attributes":{"ID":661117,"DIS_CODE":0,"TOWNNAME":"善化區","LI":"光文里","LIN":"16鄰","STREET":"民權路","SECT":" ","MAREA":" ","LANE":" ","ALLEY":" ","HOUSE_NO":"１８６號之１","E_COORD97":178218.13745000001,"N_COORD97":2559018.4046700001,"ADDRESS":"民權路１８６號之１","OBJECTID":661090},"geometry":{"x":178218.1374500012,"y":2559018.4046700038}},{"attributes":{"ID":661118,"DIS_CODE":0,"TOWNNAME":"善化區","LI":"光文里","LIN":"28鄰","STREET":"和平路","SECT":" ","MAREA":" ","LANE":" ","ALLEY":" ","HOUSE_NO":"２３３號之４","E_COORD97":178076.53474,"N_COORD97":2559321.5460199998,"ADDRESS":"和平路２３３號之４","OBJECTID":661091},"geometry":{"x":178076.53474000003,"y":2559321.5460180007}},{"attributes":{"ID":661119,"DIS_CODE":0,"TOWNNAME":"善化區","LI":"光文里","LIN":"29鄰","STREET":"中正路","SECT":" ","MAREA":" ","LANE":" ","ALLEY":" ","HOUSE_NO":"８７０號之１","E_COORD97":178111.28086,"N_COORD97":2560500.6693799999,"ADDRESS":"中正路８７０號之１","OBJECTID":661092},"geometry":{"x":178111.28086000029,"y":2560500.6693799999}},{"attributes":{"ID":661120,"DIS_CODE":0,"TOWNNAME":"山上區","LI":"南洲里","LIN":"2鄰","STREET":" ","SECT":" ","MAREA":"南洲","LANE":" ","ALLEY":" ","HOUSE_NO":"１１１號","E_COORD97":183923.95123800001,"N_COORD97":2555788.2207800001,"ADDRESS":"南洲１１１號","OBJECTID":661093},"geometry":{"x":183923.95123799983,"y":2555788.2207820024}},{"attributes":{"ID":661121,"DIS_CODE":0,"TOWNNAME":"山上區","LI":"南洲里","LIN":"11鄰","STREET":" ","SECT":" ","MAREA":"南洲","LANE":" ","ALLEY":" ","HOUSE_NO":"３５５號","E_COORD97":183504.444166,"N_COORD97":2555368.3801799999,"ADDRESS":"南洲３５５號","OBJECTID":661094},"geometry":{"x":183504.444166,"y":2555368.3801750019}},{"attributes":{"ID":661122,"DIS_CODE":0,"TOWNNAME":"善化區","LI":"光文里","LIN":"7鄰","STREET":"建業路","SECT":" ","MAREA":" ","LANE":"１９０巷","ALLEY":" ","HOUSE_NO":"２０號之７","E_COORD97":178730.97953000001,"N_COORD97":2560145.9830499999,"ADDRESS":"建業路１９０巷２０號之７","OBJECTID":661095},"geometry":{"x":178730.97953000199,"y":2560145.9830500018}},{"attributes":{"ID":661123,"DIS_CODE":0,"TOWNNAME":"善化區","LI":"光文里","LIN":"13鄰","STREET":"民權路","SECT":" ","MAREA":" ","LANE":" ","ALLEY":" ","HOUSE_NO":"１２６號之１","E_COORD97":178420.37119999999,"N_COORD97":2559050.8202999998,"ADDRESS":"民權路１２６號之１","OBJECTID":661096},"geometry":{"x":178420.3712000018,"y":2559050.8203000017}},{"attributes":{"ID":661124,"DIS_CODE":0,"TOWNNAME":"善化區","LI":"嘉北里","LIN":"1鄰","STREET":" ","SECT":" ","MAREA":"茄拔","LANE":" ","ALLEY":" ","HOUSE_NO":"６號之１９","E_COORD97":182100.06448,"N_COORD97":2560216.48979,"ADDRESS":"茄拔６號之１９","OBJECTID":661097},"geometry":{"x":182100.06448000111,"y":2560216.4897900019}},{"attributes":{"ID":661125,"DIS_CODE":0,"TOWNNAME":"善化區","LI":"嘉北里","LIN":"1鄰","STREET":" ","SECT":" ","MAREA":"茄拔","LANE":" ","ALLEY":" ","HOUSE_NO":"６號之２０","E_COORD97":182319.00794000001,"N_COORD97":2560270.2530999999,"ADDRESS":"茄拔６號之２０","OBJECTID":661098},"geometry":{"x":182319.00793999992,"y":2560270.2531000003}},{"attributes":{"ID":661126,"DIS_CODE":0,"TOWNNAME":"善化區","LI":"東昌里","LIN":"1鄰","STREET":" ","SECT":" ","MAREA":"東勢寮","LANE":" ","ALLEY":" ","HOUSE_NO":"１０號","E_COORD97":181047.61074199999,"N_COORD97":2561893.9330199999,"ADDRESS":"東勢寮１０號","OBJECTID":661099},"geometry":{"x":181047.61074200086,"y":2561893.933019001}},{"attributes":{"ID":661127,"DIS_CODE":0,"TOWNNAME":"善化區","LI":"東昌里","LIN":"1鄰","STREET":" ","SECT":" ","MAREA":"東勢寮","LANE":" ","ALLEY":" ","HOUSE_NO":"１１號之１","E_COORD97":181042.52888,"N_COORD97":2561816.1984700002,"ADDRESS":"東勢寮１１號之１","OBJECTID":661100},"geometry":{"x":181042.52888000105,"y":2561816.198470002}},{"attributes":{"ID":661128,"DIS_CODE":0,"TOWNNAME":"善化區","LI":"東昌里","LIN":"1鄰","STREET":" ","SECT":" ","MAREA":"東勢寮","LANE":" ","ALLEY":" ","HOUSE_NO":"１１號之２","E_COORD97":181059.57428,"N_COORD97":2561820.4317999999,"ADDRESS":"東勢寮１１號之２","OBJECTID":661101},"geometry":{"x":181059.57428000029,"y":2561820.4318000004}},{"attributes":{"ID":661129,"DIS_CODE":0,"TOWNNAME":"善化區","LI":"東昌里","LIN":"5鄰","STREET":" ","SECT":" ","MAREA":"東勢寮","LANE":" ","ALLEY":" ","HOUSE_NO":"５２號","E_COORD97":180588.655276,"N_COORD97":2561894.8325999998,"ADDRESS":"東勢寮５２號","OBJECTID":661102},"geometry":{"x":180588.6552760005,"y":2561894.8326020017}},{"attributes":{"ID":661130,"DIS_CODE":0,"TOWNNAME":"善化區","LI":"東昌里","LIN":"7鄰","STREET":" ","SECT":" ","MAREA":"東勢寮","LANE":" ","ALLEY":" ","HOUSE_NO":"７５號","E_COORD97":180427.51796999999,"N_COORD97":2561884.40802,"ADDRESS":"東勢寮７５號","OBJECTID":661103},"geometry":{"x":180427.51797000039,"y":2561884.4080250021}},{"attributes":{"ID":661131,"DIS_CODE":0,"TOWNNAME":"善化區","LI":"東昌里","LIN":"11鄰","STREET":" ","SECT":" ","MAREA":"東勢寮","LANE":" ","ALLEY":" ","HOUSE_NO":"１０６號","E_COORD97":180162.20253899999,"N_COORD97":2561851.33513,"ADDRESS":"東勢寮１０６號","OBJECTID":661104},"geometry":{"x":180162.20253900066,"y":2561851.3351260014}},{"attributes":{"ID":661132,"DIS_CODE":0,"TOWNNAME":"善化區","LI":"東昌里","LIN":"4鄰","STREET":" ","SECT":" ","MAREA":"東勢寮","LANE":" ","ALLEY":" ","HOUSE_NO":"４７之２號","E_COORD97":180685.471384,"N_COORD97":2561795.1959000002,"ADDRESS":"東勢寮４７之２號","OBJECTID":661105},"geometry":{"x":180685.47138400096,"y":2561795.1959030014}},{"attributes":{"ID":661133,"DIS_CODE":0,"TOWNNAME":"善化區","LI":"東昌里","LIN":"8鄰","STREET":" ","SECT":" ","MAREA":"東勢寮","LANE":" ","ALLEY":" ","HOUSE_NO":"８１號之２","E_COORD97":180420.15594999999,"N_COORD97":2561926.48208,"ADDRESS":"東勢寮８１號之２","OBJECTID":661106},"geometry":{"x":180420.15594999865,"y":2561926.4820799995}},{"attributes":{"ID":661134,"DIS_CODE":0,"TOWNNAME":"善化區","LI":"東昌里","LIN":"8鄰","STREET":" ","SECT":" ","MAREA":"東勢寮","LANE":" ","ALLEY":" ","HOUSE_NO":"１２７號","E_COORD97":180368.27863300001,"N_COORD97":2561915.4225099999,"ADDRESS":"東勢寮１２７號","OBJECTID":661107},"geometry":{"x":180368.27863300033,"y":2561915.4225050006}},{"attributes":{"ID":661135,"DIS_CODE":0,"TOWNNAME":"善化區","LI":"東隆里","LIN":"2鄰","STREET":" ","SECT":" ","MAREA":"東勢寮","LANE":" ","ALLEY":" ","HOUSE_NO":"１５５號","E_COORD97":180188.71958599999,"N_COORD97":2561937.9120800002,"ADDRESS":"東勢寮１５５號","OBJECTID":661108},"geometry":{"x":180188.71958599892,"y":2561937.9120760001}},{"attributes":{"ID":661136,"DIS_CODE":0,"TOWNNAME":"善化區","LI":"東隆里","LIN":"5鄰","STREET":" ","SECT":" ","MAREA":"東勢寮","LANE":" ","ALLEY":" ","HOUSE_NO":"１７２號","E_COORD97":180047.59210400001,"N_COORD97":2561925.7941700001,"ADDRESS":"東勢寮１７２號","OBJECTID":661109},"geometry":{"x":180047.59210400004,"y":2561925.7941660006}},{"attributes":{"ID":661137,"DIS_CODE":0,"TOWNNAME":"善化區","LI":"東隆里","LIN":"8鄰","STREET":" ","SECT":" ","MAREA":"東勢寮","LANE":" ","ALLEY":" ","HOUSE_NO":"２０４號","E_COORD97":179746.703653,"N_COORD97":2561786.9409099999,"ADDRESS":"東勢寮２０４號","OBJECTID":661110},"geometry":{"x":179746.70365300123,"y":2561786.9409070034}},{"attributes":{"ID":661138,"DIS_CODE":0,"TOWNNAME":"善化區","LI":"東隆里","LIN":"8鄰","STREET":" ","SECT":" ","MAREA":"東勢寮","LANE":" ","ALLEY":" ","HOUSE_NO":"２０２號之５","E_COORD97":179539.30024000001,"N_COORD97":2561682.6951299999,"ADDRESS":"東勢寮２０２號之５","OBJECTID":661111},"geometry":{"x":179539.30024000164,"y":2561682.6951300018}},{"attributes":{"ID":661139,"DIS_CODE":0,"TOWNNAME":"善化區","LI":"東隆里","LIN":"10鄰","STREET":" ","SECT":" ","MAREA":"東勢寮","LANE":" ","ALLEY":" ","HOUSE_NO":"２２６號之１","E_COORD97":179840.29457,"N_COORD97":2561485.3160700002,"ADDRESS":"東勢寮２２６號之１","OBJECTID":661112},"geometry":{"x":179840.29456999991,"y":2561485.3160699997}},{"attributes":{"ID":661140,"DIS_CODE":0,"TOWNNAME":"善化區","LI":"東隆里","LIN":"6鄰","STREET":" ","SECT":" ","MAREA":"東勢寮","LANE":" ","ALLEY":" ","HOUSE_NO":"１８４號之１","E_COORD97":180022.18280000001,"N_COORD97":2561804.1388099999,"ADDRESS":"東勢寮１８４號之１","OBJECTID":661113},"geometry":{"x":180022.18280000053,"y":2561804.1388100013}},{"attributes":{"ID":661141,"DIS_CODE":0,"TOWNNAME":"善化區","LI":"胡家里","LIN":"4鄰","STREET":" ","SECT":" ","MAREA":"胡厝寮","LANE":" ","ALLEY":" ","HOUSE_NO":"３９９號之９","E_COORD97":175667.50722999999,"N_COORD97":2560090.9594999999,"ADDRESS":"胡厝寮３９９號之９","OBJECTID":661114},"geometry":{"x":175667.50722999964,"y":2560090.9594999999}},{"attributes":{"ID":661142,"DIS_CODE":0,"TOWNNAME":"善化區","LI":"胡家里","LIN":"4鄰","STREET":" ","SECT":" ","MAREA":"胡厝寮","LANE":" ","ALLEY":" ","HOUSE_NO":"３３號之１","E_COORD97":175391.89074999999,"N_COORD97":2560432.0073799998,"ADDRESS":"胡厝寮３３號之１","OBJECTID":661115},"geometry":{"x":175391.89075000025,"y":2560432.0073799994}},{"attributes":{"ID":661143,"DIS_CODE":0,"TOWNNAME":"安南區","LI":"淵西里","LIN":"10鄰","STREET":"安中路","SECT":"四段","MAREA":" ","LANE":"３２０巷","ALLEY":"１５弄","HOUSE_NO":"１５１號","E_COORD97":164042.09784,"N_COORD97":2550600.5952300001,"ADDRESS":"安中路四段３２０巷１５弄１５１號","OBJECTID":661116},"geometry":{"x":164042.09783999994,"y":2550600.5952260029}},{"attributes":{"ID":661144,"DIS_CODE":0,"TOWNNAME":"善化區","LI":"胡家里","LIN":"4鄰","STREET":" ","SECT":" ","MAREA":"胡厝寮","LANE":" ","ALLEY":" ","HOUSE_NO":"３２８號之１","E_COORD97":175441.69454999999,"N_COORD97":2560378.9849100001,"ADDRESS":"胡厝寮３２８號之１","OBJECTID":661117},"geometry":{"x":175441.69455000013,"y":2560378.9849100001}},{"attributes":{"ID":661145,"DIS_CODE":0,"TOWNNAME":"安南區","LI":"淵西里","LIN":"7鄰","STREET":"安中路","SECT":"四段","MAREA":" ","LANE":"３２０巷","ALLEY":" ","HOUSE_NO":"１４６號","E_COORD97":164744.31923299999,"N_COORD97":2550347.3361999998,"ADDRESS":"安中路四段３２０巷１４６號","OBJECTID":661118},"geometry":{"x":164744.31923300028,"y":2550347.3361960016}},{"attributes":{"ID":661146,"DIS_CODE":0,"TOWNNAME":"安南區","LI":"淵西里","LIN":"7鄰","STREET":"安中路","SECT":"四段","MAREA":" ","LANE":"３２０巷","ALLEY":" ","HOUSE_NO":"１４５號","E_COORD97":164758.30433000001,"N_COORD97":2550367.2328499998,"ADDRESS":"安中路四段３２０巷１４５號","OBJECTID":661119},"geometry":{"x":164758.30433000065,"y":2550367.2328519989}},{"attributes":{"ID":661147,"DIS_CODE":0,"TOWNNAME":"善化區","LI":"胡家里","LIN":"11鄰","STREET":" ","SECT":" ","MAREA":"胡厝寮","LANE":" ","ALLEY":" ","HOUSE_NO":"８３號","E_COORD97":175356.92212999999,"N_COORD97":2560659.9722600002,"ADDRESS":"胡厝寮８３號","OBJECTID":661120},"geometry":{"x":175356.92212999891,"y":2560659.9722620007}},{"attributes":{"ID":661148,"DIS_CODE":0,"TOWNNAME":"善化區","LI":"胡家里","LIN":"8鄰","STREET":" ","SECT":" ","MAREA":"胡厝寮","LANE":" ","ALLEY":" ","HOUSE_NO":"６３號之１","E_COORD97":175403.33502999999,"N_COORD97":2560743.0513800001,"ADDRESS":"胡厝寮６３號之１","OBJECTID":661121},"geometry":{"x":175403.33503000159,"y":2560743.0513800029}},{"attributes":{"ID":661149,"DIS_CODE":0,"TOWNNAME":"善化區","LI":"胡家里","LIN":"4鄰","STREET":" ","SECT":" ","MAREA":"胡厝寮","LANE":" ","ALLEY":" ","HOUSE_NO":"３０７號","E_COORD97":175504.426141,"N_COORD97":2560428.8323900001,"ADDRESS":"胡厝寮３０７號","OBJECTID":661122},"geometry":{"x":175504.42614100128,"y":2560428.8323870003}},{"attributes":{"ID":661150,"DIS_CODE":0,"TOWNNAME":"善化區","LI":"胡厝里","LIN":"9鄰","STREET":" ","SECT":" ","MAREA":"胡","LANE":" ","ALLEY":" ","HOUSE_NO":"２１９號之３","E_COORD97":175087.61698799999,"N_COORD97":2560464.7415800001,"ADDRESS":"胡２１９號之３","OBJECTID":661123},"geometry":{"x":175087.61698800046,"y":2560464.7415770013}},{"attributes":{"ID":661151,"DIS_CODE":0,"TOWNNAME":"善化區","LI":"胡厝里","LIN":"9鄰","STREET":" ","SECT":" ","MAREA":"胡厝寮","LANE":" ","ALLEY":" ","HOUSE_NO":"２１３號之１","E_COORD97":175210.30845400001,"N_COORD97":2560357.6383000002,"ADDRESS":"胡厝寮２１３號之１","OBJECTID":661124},"geometry":{"x":175210.30845400039,"y":2560357.638302004}},{"attributes":{"ID":661152,"DIS_CODE":0,"TOWNNAME":"善化區","LI":"胡厝里","LIN":"7鄰","STREET":" ","SECT":" ","MAREA":"胡厝寮","LANE":" ","ALLEY":" ","HOUSE_NO":"２０１號","E_COORD97":175251.29831700001,"N_COORD97":2560430.59712,"ADDRESS":"胡厝寮２０１號","OBJECTID":661125},"geometry":{"x":175251.29831700027,"y":2560430.5971160047}},{"attributes":{"ID":661153,"DIS_CODE":0,"TOWNNAME":"善化區","LI":"胡厝里","LIN":"13鄰","STREET":" ","SECT":" ","MAREA":"胡厝寮","LANE":" ","ALLEY":" ","HOUSE_NO":"２２２號之２","E_COORD97":175065.459948,"N_COORD97":2560254.2788800001,"ADDRESS":"胡厝寮２２２號之２","OBJECTID":661126},"geometry":{"x":175065.45994799957,"y":2560254.2788779996}},{"attributes":{"ID":661154,"DIS_CODE":0,"TOWNNAME":"善化區","LI":"胡厝里","LIN":"13鄰","STREET":" ","SECT":" ","MAREA":"胡厝寮","LANE":" ","ALLEY":" ","HOUSE_NO":"２２０號之１２","E_COORD97":175089.34713000001,"N_COORD97":2560292.9028099999,"ADDRESS":"胡厝寮２２０號之１２","OBJECTID":661127},"geometry":{"x":175089.34712999873,"y":2560292.9028090034}},{"attributes":{"ID":661155,"DIS_CODE":0,"TOWNNAME":"善化區","LI":"胡厝里","LIN":"10鄰","STREET":" ","SECT":" ","MAREA":"百二甲","LANE":" ","ALLEY":" ","HOUSE_NO":"２號","E_COORD97":175379.55775400001,"N_COORD97":2559992.3363000001,"ADDRESS":"百二甲２號","OBJECTID":661128},"geometry":{"x":175379.55775399972,"y":2559992.3363039996}},{"attributes":{"ID":661156,"DIS_CODE":0,"TOWNNAME":"善化區","LI":"胡厝里","LIN":"10鄰","STREET":" ","SECT":" ","MAREA":"百二甲","LANE":" ","ALLEY":" ","HOUSE_NO":"７號","E_COORD97":175312.09279299999,"N_COORD97":2559935.7154999999,"ADDRESS":"百二甲７號","OBJECTID":661129},"geometry":{"x":175312.09279300086,"y":2559935.7155009992}},{"attributes":{"ID":661157,"DIS_CODE":0,"TOWNNAME":"善化區","LI":"胡厝里","LIN":"11鄰","STREET":" ","SECT":" ","MAREA":"百二甲","LANE":" ","ALLEY":" ","HOUSE_NO":"２９號","E_COORD97":175307.80004999999,"N_COORD97":2559791.35891,"ADDRESS":"百二甲２９號","OBJECTID":661130},"geometry":{"x":175307.80004999973,"y":2559791.3589130044}},{"attributes":{"ID":661158,"DIS_CODE":0,"TOWNNAME":"善化區","LI":"胡厝里","LIN":"10鄰","STREET":" ","SECT":" ","MAREA":"百二甲","LANE":" ","ALLEY":" ","HOUSE_NO":"４號之８６","E_COORD97":175107.36605099999,"N_COORD97":2560138.28039,"ADDRESS":"百二甲４號之８６","OBJECTID":661131},"geometry":{"x":175107.36605100054,"y":2560138.2803920005}},{"attributes":{"ID":661159,"DIS_CODE":0,"TOWNNAME":"善化區","LI":"胡厝里","LIN":"11鄰","STREET":" ","SECT":" ","MAREA":"百二甲","LANE":" ","ALLEY":" ","HOUSE_NO":"１８號之１","E_COORD97":175290.25810000001,"N_COORD97":2559838.8780499999,"ADDRESS":"百二甲１８號之１","OBJECTID":661132},"geometry":{"x":175290.25810000114,"y":2559838.8780539986}},{"attributes":{"ID":661160,"DIS_CODE":0,"TOWNNAME":"善化區","LI":"胡厝里","LIN":"11鄰","STREET":" ","SECT":" ","MAREA":"百二甲","LANE":" ","ALLEY":" ","HOUSE_NO":"１３號","E_COORD97":175324.81203100001,"N_COORD97":2559869.8872000002,"ADDRESS":"百二甲１３號","OBJECTID":661133},"geometry":{"x":175324.81203100085,"y":2559869.887203997}},{"attributes":{"ID":661161,"DIS_CODE":0,"TOWNNAME":"善化區","LI":"胡厝里","LIN":"12鄰","STREET":" ","SECT":" ","MAREA":"百二甲","LANE":" ","ALLEY":" ","HOUSE_NO":"２５號之５","E_COORD97":175115.05059100001,"N_COORD97":2559839.1955499998,"ADDRESS":"百二甲２５號之５","OBJECTID":661134},"geometry":{"x":175115.05059100129,"y":2559839.1955540013}},{"attributes":{"ID":661162,"DIS_CODE":0,"TOWNNAME":"善化區","LI":"胡厝里","LIN":"20鄰","STREET":" ","SECT":" ","MAREA":"西衛","LANE":" ","ALLEY":" ","HOUSE_NO":"３２號之２","E_COORD97":174165.71843099999,"N_COORD97":2559328.6558300001,"ADDRESS":"西衛３２號之２","OBJECTID":661135},"geometry":{"x":174165.7184310006,"y":2559328.6558289994}},{"attributes":{"ID":661163,"DIS_CODE":0,"TOWNNAME":"善化區","LI":"胡厝里","LIN":"20鄰","STREET":" ","SECT":" ","MAREA":"西衛","LANE":" ","ALLEY":" ","HOUSE_NO":"２８號","E_COORD97":174214.952483,"N_COORD97":2559314.2625000002,"ADDRESS":"西衛２８號","OBJECTID":661136},"geometry":{"x":174214.95248300023,"y":2559314.2625040021}},{"attributes":{"ID":661164,"DIS_CODE":0,"TOWNNAME":"善化區","LI":"胡厝里","LIN":"20鄰","STREET":" ","SECT":" ","MAREA":"西衛","LANE":" ","ALLEY":" ","HOUSE_NO":"３９號","E_COORD97":174098.46545700001,"N_COORD97":2559263.3566999999,"ADDRESS":"西衛３９號","OBJECTID":661137},"geometry":{"x":174098.46545700077,"y":2559263.3566980008}},{"attributes":{"ID":661165,"DIS_CODE":0,"TOWNNAME":"善化區","LI":"胡厝里","LIN":"20鄰","STREET":" ","SECT":" ","MAREA":"西衛","LANE":" ","ALLEY":" ","HOUSE_NO":"３７號之８","E_COORD97":174036.45916999999,"N_COORD97":2559201.1267300001,"ADDRESS":"西衛３７號之８","OBJECTID":661138},"geometry":{"x":174036.45917000063,"y":2559201.1267310046}},{"attributes":{"ID":661166,"DIS_CODE":0,"TOWNNAME":"善化區","LI":"胡厝里","LIN":"18鄰","STREET":" ","SECT":" ","MAREA":"西衛","LANE":" ","ALLEY":" ","HOUSE_NO":"１１號之６","E_COORD97":174496.577621,"N_COORD97":2559320.9300000002,"ADDRESS":"西衛１１號之６","OBJECTID":661139},"geometry":{"x":174496.57762100082,"y":2559320.9299999997}},{"attributes":{"ID":661167,"DIS_CODE":0,"TOWNNAME":"善化區","LI":"胡厝里","LIN":"17鄰","STREET":" ","SECT":" ","MAREA":"西衛","LANE":" ","ALLEY":" ","HOUSE_NO":"１號之４９","E_COORD97":174642.636876,"N_COORD97":2559077.0901299999,"ADDRESS":"西衛１號之４９","OBJECTID":661140},"geometry":{"x":174642.63687600009,"y":2559077.0901319999}},{"attributes":{"ID":661168,"DIS_CODE":0,"TOWNNAME":"善化區","LI":"胡厝里","LIN":"17鄰","STREET":" ","SECT":" ","MAREA":"西衛","LANE":" ","ALLEY":" ","HOUSE_NO":"１號之９","E_COORD97":174540.56498699999,"N_COORD97":2559484.3365799999,"ADDRESS":"西衛１號之９","OBJECTID":661141},"geometry":{"x":174540.56498700101,"y":2559484.3365780003}},{"attributes":{"ID":661169,"DIS_CODE":0,"TOWNNAME":"善化區","LI":"胡厝里","LIN":"21鄰","STREET":"興農路","SECT":" ","MAREA":" ","LANE":"５８７巷","ALLEY":" ","HOUSE_NO":"４５號","E_COORD97":174718.422338,"N_COORD97":2558690.3753399998,"ADDRESS":"興農路５８７巷４５號","OBJECTID":661142},"geometry":{"x":174718.42233799957,"y":2558690.3753410038}},{"attributes":{"ID":661170,"DIS_CODE":0,"TOWNNAME":"善化區","LI":"胡厝里","LIN":"21鄰","STREET":"興農路","SECT":" ","MAREA":" ","LANE":"６３１巷","ALLEY":" ","HOUSE_NO":"３２號","E_COORD97":174598.96749000001,"N_COORD97":2558666.24535,"ADDRESS":"興農路６３１巷３２號","OBJECTID":661143},"geometry":{"x":174598.96748999972,"y":2558666.2453540023}},{"attributes":{"ID":661171,"DIS_CODE":0,"TOWNNAME":"善化區","LI":"胡厝里","LIN":"21鄰","STREET":" ","SECT":" ","MAREA":"百二甲","LANE":" ","ALLEY":" ","HOUSE_NO":"３７號之６０","E_COORD97":175239.383371,"N_COORD97":2559701.0778100002,"ADDRESS":"百二甲３７號之６０","OBJECTID":661144},"geometry":{"x":175239.38337100018,"y":2559701.0778130013}},{"attributes":{"ID":661172,"DIS_CODE":0,"TOWNNAME":"善化區","LI":"東隆里","LIN":"8鄰","STREET":" ","SECT":" ","MAREA":"東勢寮","LANE":" ","ALLEY":" ","HOUSE_NO":"２０８號之１","E_COORD97":179584.7844,"N_COORD97":2561835.39329,"ADDRESS":"東勢寮２０８號之１","OBJECTID":661145},"geometry":{"x":179584.78440000024,"y":2561835.39329}},{"attributes":{"ID":661173,"DIS_CODE":0,"TOWNNAME":"善化區","LI":"東隆里","LIN":"10鄰","STREET":" ","SECT":" ","MAREA":"東勢寮","LANE":" ","ALLEY":" ","HOUSE_NO":"２２６號","E_COORD97":179858.31307,"N_COORD97":2561446.7735000001,"ADDRESS":"東勢寮２２６號","OBJECTID":661146},"geometry":{"x":179858.31307000108,"y":2561446.7735050004}},{"attributes":{"ID":661174,"DIS_CODE":0,"TOWNNAME":"善化區","LI":"嘉北里","LIN":"5鄰","STREET":" ","SECT":" ","MAREA":"茄拔","LANE":" ","ALLEY":" ","HOUSE_NO":"１５１號之３","E_COORD97":181068.74627,"N_COORD97":2559713.22444,"ADDRESS":"茄拔１５１號之３","OBJECTID":661147},"geometry":{"x":181068.74627,"y":2559713.2244399991}},{"attributes":{"ID":661175,"DIS_CODE":0,"TOWNNAME":"善化區","LI":"嘉北里","LIN":"6鄰","STREET":" ","SECT":" ","MAREA":"茄拔","LANE":" ","ALLEY":" ","HOUSE_NO":"１６３號","E_COORD97":180996.39148300001,"N_COORD97":2559810.27355,"ADDRESS":"茄拔１６３號","OBJECTID":661148},"geometry":{"x":180996.39148299955,"y":2559810.2735549994}},{"attributes":{"ID":661176,"DIS_CODE":0,"TOWNNAME":"善化區","LI":"嘉北里","LIN":"7鄰","STREET":" ","SECT":" ","MAREA":"茄拔","LANE":" ","ALLEY":" ","HOUSE_NO":"１６９號之１","E_COORD97":181030.18530000001,"N_COORD97":2559906.58183,"ADDRESS":"茄拔１６９號之１","OBJECTID":661149},"geometry":{"x":181030.18530000187,"y":2559906.5818300005}},{"attributes":{"ID":661177,"DIS_CODE":0,"TOWNNAME":"善化區","LI":"嘉北里","LIN":"8鄰","STREET":" ","SECT":" ","MAREA":"茄拔","LANE":" ","ALLEY":" ","HOUSE_NO":"１８１號之１０","E_COORD97":181092.89984999999,"N_COORD97":2560093.2717300002,"ADDRESS":"茄拔１８１號之１０","OBJECTID":661150},"geometry":{"x":181092.89985000063,"y":2560093.2717299983}},{"attributes":{"ID":661178,"DIS_CODE":0,"TOWNNAME":"善化區","LI":"嘉北里","LIN":"12鄰","STREET":" ","SECT":" ","MAREA":"茄拔","LANE":" ","ALLEY":" ","HOUSE_NO":"２６５號","E_COORD97":180927.00291700001,"N_COORD97":2559891.34185,"ADDRESS":"茄拔２６５號","OBJECTID":661151},"geometry":{"x":180927.00291700102,"y":2559891.341845002}},{"attributes":{"ID":661179,"DIS_CODE":0,"TOWNNAME":"善化區","LI":"嘉北里","LIN":"7鄰","STREET":" ","SECT":" ","MAREA":"茄拔","LANE":" ","ALLEY":" ","HOUSE_NO":"１７１號","E_COORD97":181085.69615599999,"N_COORD97":2559884.9918499999,"ADDRESS":"茄拔１７１號","OBJECTID":661152},"geometry":{"x":181085.69615599979,"y":2559884.9918479994}},{"attributes":{"ID":661180,"DIS_CODE":0,"TOWNNAME":"山上區","LI":"新莊里","LIN":"1鄰","STREET":" ","SECT":" ","MAREA":"新庄","LANE":" ","ALLEY":" ","HOUSE_NO":"１之４６號","E_COORD97":184824.75708700001,"N_COORD97":2554984.3861400001,"ADDRESS":"新庄１之４６號","OBJECTID":661153},"geometry":{"x":184824.75708700158,"y":2554984.3861370012}},{"attributes":{"ID":661181,"DIS_CODE":0,"TOWNNAME":"善化區","LI":"嘉北里","LIN":"9鄰","STREET":" ","SECT":" ","MAREA":"茄拔","LANE":" ","ALLEY":" ","HOUSE_NO":"１９５號","E_COORD97":180939.82126299999,"N_COORD97":2560027.1259400002,"ADDRESS":"茄拔１９５號","OBJECTID":661154},"geometry":{"x":180939.82126300037,"y":2560027.125938002}},{"attributes":{"ID":661182,"DIS_CODE":0,"TOWNNAME":"山上區","LI":"山上里","LIN":"15鄰","STREET":" ","SECT":" ","MAREA":"山上","LANE":" ","ALLEY":" ","HOUSE_NO":"２１７號之５","E_COORD97":184073.132121,"N_COORD97":2555615.37225,"ADDRESS":"山上２１７號之５","OBJECTID":661155},"geometry":{"x":184073.1321210023,"y":2555615.3722510021}},{"attributes":{"ID":661183,"DIS_CODE":0,"TOWNNAME":"善化區","LI":"牛庄里","LIN":"3鄰","STREET":" ","SECT":" ","MAREA":"牛庄","LANE":" ","ALLEY":" ","HOUSE_NO":"２９號之７","E_COORD97":180521.10165,"N_COORD97":2560020.2626399999,"ADDRESS":"牛庄２９號之７","OBJECTID":661156},"geometry":{"x":180521.10165000055,"y":2560020.2626400013}},{"attributes":{"ID":661184,"DIS_CODE":0,"TOWNNAME":"善化區","LI":"牛庄里","LIN":"6鄰","STREET":" ","SECT":" ","MAREA":"牛庄","LANE":" ","ALLEY":" ","HOUSE_NO":"６３號之１","E_COORD97":180162.93817000001,"N_COORD97":2559988.7243300001,"ADDRESS":"牛庄６３號之１","OBJECTID":661157},"geometry":{"x":180162.93817000091,"y":2559988.7243300043}},{"attributes":{"ID":661185,"DIS_CODE":0,"TOWNNAME":"善化區","LI":"牛庄里","LIN":"1鄰","STREET":" ","SECT":" ","MAREA":"牛庄","LANE":" ","ALLEY":" ","HOUSE_NO":"１１號之３","E_COORD97":180251.94922000001,"N_COORD97":2559735.6769599998,"ADDRESS":"牛庄１１號之３","OBJECTID":661158},"geometry":{"x":180251.9492200017,"y":2559735.6769599989}},{"attributes":{"ID":661186,"DIS_CODE":0,"TOWNNAME":"善化區","LI":"牛庄里","LIN":"15鄰","STREET":" ","SECT":" ","MAREA":"牛庄","LANE":" ","ALLEY":" ","HOUSE_NO":"３５１號之６","E_COORD97":179674.01324,"N_COORD97":2560054.3409600002,"ADDRESS":"牛庄３５１號之６","OBJECTID":661159},"geometry":{"x":179674.01324000023,"y":2560054.3409599997}},{"attributes":{"ID":661187,"DIS_CODE":0,"TOWNNAME":"善化區","LI":"牛庄里","LIN":"2鄰","STREET":" ","SECT":" ","MAREA":"牛庄","LANE":" ","ALLEY":" ","HOUSE_NO":"２７號之３５","E_COORD97":180587.22414000001,"N_COORD97":2559812.1944200001,"ADDRESS":"牛庄２７號之３５","OBJECTID":661160},"geometry":{"x":180587.2241399996,"y":2559812.1944200005}},{"attributes":{"ID":661188,"DIS_CODE":0,"TOWNNAME":"善化區","LI":"牛庄里","LIN":"6鄰","STREET":" ","SECT":" ","MAREA":"牛庄","LANE":" ","ALLEY":" ","HOUSE_NO":"６９號之７","E_COORD97":180143.49343,"N_COORD97":2560160.3332099998,"ADDRESS":"牛庄６９號之７","OBJECTID":661161},"geometry":{"x":180143.49343000166,"y":2560160.3332100026}},{"attributes":{"ID":661189,"DIS_CODE":0,"TOWNNAME":"善化區","LI":"牛庄里","LIN":"8鄰","STREET":" ","SECT":" ","MAREA":"牛庄","LANE":" ","ALLEY":" ","HOUSE_NO":"１２９號之２１","E_COORD97":179910.58119999999,"N_COORD97":2560658.5962700001,"ADDRESS":"牛庄１２９號之２１","OBJECTID":661162},"geometry":{"x":179910.58120000176,"y":2560658.5962700006}},{"attributes":{"ID":661190,"DIS_CODE":0,"TOWNNAME":"善化區","LI":"牛庄里","LIN":"1鄰","STREET":" ","SECT":" ","MAREA":"牛庄","LANE":" ","ALLEY":" ","HOUSE_NO":"１７號之７","E_COORD97":180295.02413000001,"N_COORD97":2559798.3834099998,"ADDRESS":"牛庄１７號之７","OBJECTID":661163},"geometry":{"x":180295.0241299998,"y":2559798.383410003}},{"attributes":{"ID":661191,"DIS_CODE":0,"TOWNNAME":"善化區","LI":"胡家里","LIN":"10鄰","STREET":" ","SECT":" ","MAREA":"胡厝寮","LANE":" ","ALLEY":" ","HOUSE_NO":"８６號","E_COORD97":175369.63799300001,"N_COORD97":2560612.2944499999,"ADDRESS":"胡厝寮８６號","OBJECTID":661164},"geometry":{"x":175369.63799300045,"y":2560612.294445999}},{"attributes":{"ID":661192,"DIS_CODE":0,"TOWNNAME":"善化區","LI":"胡家里","LIN":"7鄰","STREET":" ","SECT":" ","MAREA":"胡厝寮","LANE":" ","ALLEY":" ","HOUSE_NO":"５８號","E_COORD97":175424.316204,"N_COORD97":2560702.1469000001,"ADDRESS":"胡厝寮５８號","OBJECTID":661165},"geometry":{"x":175424.31620400026,"y":2560702.1468979996}},{"attributes":{"ID":661193,"DIS_CODE":0,"TOWNNAME":"善化區","LI":"胡家里","LIN":"17鄰","STREET":" ","SECT":" ","MAREA":"胡厝寮","LANE":" ","ALLEY":" ","HOUSE_NO":"１１７號","E_COORD97":175209.41811900001,"N_COORD97":2560613.3527799998,"ADDRESS":"胡厝寮１１７號","OBJECTID":661166},"geometry":{"x":175209.41811900213,"y":2560613.3527790029}},{"attributes":{"ID":661194,"DIS_CODE":0,"TOWNNAME":"善化區","LI":"光文里","LIN":"10鄰","STREET":"民族路","SECT":" ","MAREA":" ","LANE":" ","ALLEY":" ","HOUSE_NO":"６６號","E_COORD97":178575.869813,"N_COORD97":2559129.0825100001,"ADDRESS":"民族路６６號","OBJECTID":661167},"geometry":{"x":178575.86981300078,"y":2559129.0825099982}},{"attributes":{"ID":661195,"DIS_CODE":0,"TOWNNAME":"新營區","LI":"延平里","LIN":"17鄰","STREET":"長春街","SECT":" ","MAREA":" ","LANE":"１３４巷","ALLEY":" ","HOUSE_NO":"２４號","E_COORD97":179510.76661600001,"N_COORD97":2577865.46527,"ADDRESS":"長春街１３４巷２４號","OBJECTID":661168},"geometry":{"x":179510.76661600079,"y":2577865.4652710035}},{"attributes":{"ID":661196,"DIS_CODE":0,"TOWNNAME":"新營區","LI":"延平里","LIN":"17鄰","STREET":"長春街","SECT":" ","MAREA":" ","LANE":"１３４巷","ALLEY":" ","HOUSE_NO":"２６之１號","E_COORD97":179508.647383,"N_COORD97":2577872.5561000002,"ADDRESS":"長春街１３４巷２６之１號","OBJECTID":661169},"geometry":{"x":179508.64738299977,"y":2577872.5561000034}},{"attributes":{"ID":661197,"DIS_CODE":0,"TOWNNAME":"新營區","LI":"延平里","LIN":"17鄰","STREET":"長春街","SECT":" ","MAREA":" ","LANE":"１３４巷","ALLEY":" ","HOUSE_NO":"３２之１號","E_COORD97":179526.23701899999,"N_COORD97":2577883.5627600001,"ADDRESS":"長春街１３４巷３２之１號","OBJECTID":661170},"geometry":{"x":179526.23701899964,"y":2577883.5627610013}},{"attributes":{"ID":661198,"DIS_CODE":0,"TOWNNAME":"新營區","LI":"延平里","LIN":"17鄰","STREET":"長春街","SECT":" ","MAREA":" ","LANE":"１３４巷","ALLEY":" ","HOUSE_NO":"３４號","E_COORD97":179507.58776600001,"N_COORD97":2577895.9452499999,"ADDRESS":"長春街１３４巷３４號","OBJECTID":661171},"geometry":{"x":179507.58776600007,"y":2577895.9452540018}},{"attributes":{"ID":661199,"DIS_CODE":0,"TOWNNAME":"新營區","LI":"延平里","LIN":"17鄰","STREET":"長春街","SECT":" ","MAREA":" ","LANE":"１３４巷","ALLEY":" ","HOUSE_NO":"３４之２號","E_COORD97":179527.29663600001,"N_COORD97":2577890.01859,"ADDRESS":"長春街１３４巷３４之２號","OBJECTID":661172},"geometry":{"x":179527.29663600121,"y":2577890.0185910016}},{"attributes":{"ID":661200,"DIS_CODE":0,"TOWNNAME":"新營區","LI":"延平里","LIN":"17鄰","STREET":"長春街","SECT":" ","MAREA":" ","LANE":"１３４巷","ALLEY":" ","HOUSE_NO":"３４之４號","E_COORD97":179532.80664299999,"N_COORD97":2577887.5844299998,"ADDRESS":"長春街１３４巷３４之４號","OBJECTID":661173},"geometry":{"x":179532.80664299894,"y":2577887.5844260026}},{"attributes":{"ID":661201,"DIS_CODE":0,"TOWNNAME":"新營區","LI":"延平里","LIN":"17鄰","STREET":"長春街","SECT":" ","MAREA":" ","LANE":"１３４巷","ALLEY":" ","HOUSE_NO":"３６號","E_COORD97":179508.223536,"N_COORD97":2577898.4852499999,"ADDRESS":"長春街１３４巷３６號","OBJECTID":661174},"geometry":{"x":179508.22353599966,"y":2577898.4852530025}},{"attributes":{"ID":661202,"DIS_CODE":0,"TOWNNAME":"新營區","LI":"延平里","LIN":"17鄰","STREET":"長春街","SECT":" ","MAREA":" ","LANE":"１３４巷","ALLEY":" ","HOUSE_NO":"３６之２號","E_COORD97":179512.46200299999,"N_COORD97":2577903.4594200002,"ADDRESS":"長春街１３４巷３６之２號","OBJECTID":661175},"geometry":{"x":179512.46200300101,"y":2577903.4594170004}},{"attributes":{"ID":661203,"DIS_CODE":0,"TOWNNAME":"善化區","LI":"什乃里","LIN":"10鄰","STREET":" ","SECT":" ","MAREA":"什乃","LANE":" ","ALLEY":" ","HOUSE_NO":"９３號之５","E_COORD97":176216.29792000001,"N_COORD97":2560223.6544900001,"ADDRESS":"什乃９３號之５","OBJECTID":661176},"geometry":{"x":176216.29791999981,"y":2560223.6544900034}},{"attributes":{"ID":661204,"DIS_CODE":0,"TOWNNAME":"新營區","LI":"延平里","LIN":"18鄰","STREET":"長春街","SECT":" ","MAREA":" ","LANE":"９０巷","ALLEY":" ","HOUSE_NO":"１號","E_COORD97":179615.456744,"N_COORD97":2577857.31611,"ADDRESS":"長春街９０巷１號","OBJECTID":661177},"geometry":{"x":179615.45674400125,"y":2577857.3161089998}},{"attributes":{"ID":661205,"DIS_CODE":0,"TOWNNAME":"新營區","LI":"延平里","LIN":"18鄰","STREET":"長春街","SECT":" ","MAREA":" ","LANE":"９０巷","ALLEY":" ","HOUSE_NO":"３號","E_COORD97":179608.25135000001,"N_COORD97":2577862.18444,"ADDRESS":"長春街９０巷３號","OBJECTID":661178},"geometry":{"x":179608.25134999957,"y":2577862.1844390035}},{"attributes":{"ID":661206,"DIS_CODE":0,"TOWNNAME":"新營區","LI":"延平里","LIN":"18鄰","STREET":"長春街","SECT":" ","MAREA":" ","LANE":" ","ALLEY":" ","HOUSE_NO":"９６號","E_COORD97":179620.966751,"N_COORD97":2577843.6636199998,"ADDRESS":"長春街９６號","OBJECTID":661179},"geometry":{"x":179620.96675100178,"y":2577843.6636159997}},{"attributes":{"ID":661207,"DIS_CODE":0,"TOWNNAME":"新營區","LI":"延平里","LIN":"18鄰","STREET":"長春街","SECT":" ","MAREA":" ","LANE":" ","ALLEY":" ","HOUSE_NO":"１０２號","E_COORD97":179607.40365699999,"N_COORD97":2577841.97028,"ADDRESS":"長春街１０２號","OBJECTID":661180},"geometry":{"x":179607.40365699958,"y":2577841.9702840019}},{"attributes":{"ID":661208,"DIS_CODE":0,"TOWNNAME":"新營區","LI":"延平里","LIN":"18鄰","STREET":"長春街","SECT":" ","MAREA":" ","LANE":" ","ALLEY":" ","HOUSE_NO":"１０４號","E_COORD97":179602.953267,"N_COORD97":2577840.9119500001,"ADDRESS":"長春街１０４號","OBJECTID":661181},"geometry":{"x":179602.95326700062,"y":2577840.9119509999}},{"attributes":{"ID":661209,"DIS_CODE":0,"TOWNNAME":"新營區","LI":"延平里","LIN":"18鄰","STREET":"長春街","SECT":" ","MAREA":" ","LANE":" ","ALLEY":" ","HOUSE_NO":"１１０之１號","E_COORD97":179580.06554700001,"N_COORD97":2577837.9486199999,"ADDRESS":"長春街１１０之１號","OBJECTID":661182},"geometry":{"x":179580.06554699969,"y":2577837.9486190006}},{"attributes":{"ID":661210,"DIS_CODE":0,"TOWNNAME":"新營區","LI":"延平里","LIN":"18鄰","STREET":"長春街","SECT":" ","MAREA":" ","LANE":" ","ALLEY":" ","HOUSE_NO":"１３２號之３","E_COORD97":179581.802256,"N_COORD97":2577853.4002800002,"ADDRESS":"長春街１３２號之３","OBJECTID":661183},"geometry":{"x":179581.80225600116,"y":2577853.4002769999}},{"attributes":{"ID":661211,"DIS_CODE":0,"TOWNNAME":"善化區","LI":"田寮里","LIN":"6鄰","STREET":" ","SECT":" ","MAREA":"六分寮","LANE":" ","ALLEY":" ","HOUSE_NO":"６７號","E_COORD97":178476.598654,"N_COORD97":2561271.5236900002,"ADDRESS":"六分寮６７號","OBJECTID":661184},"geometry":{"x":178476.59865400102,"y":2561271.5236890037}},{"attributes":{"ID":661212,"DIS_CODE":0,"TOWNNAME":"善化區","LI":"田寮里","LIN":"6鄰","STREET":" ","SECT":" ","MAREA":"六分寮","LANE":" ","ALLEY":" ","HOUSE_NO":"７１號","E_COORD97":178470.876999,"N_COORD97":2561302.6386699998,"ADDRESS":"六分寮７１號","OBJECTID":661185},"geometry":{"x":178470.87699900195,"y":2561302.6386720017}},{"attributes":{"ID":661213,"DIS_CODE":0,"TOWNNAME":"善化區","LI":"田寮里","LIN":"15鄰","STREET":" ","SECT":" ","MAREA":"六分寮","LANE":" ","ALLEY":" ","HOUSE_NO":"１６０號","E_COORD97":178719.874973,"N_COORD97":2561553.88687,"ADDRESS":"六分寮１６０號","OBJECTID":661186},"geometry":{"x":178719.87497300189,"y":2561553.8868700024}},{"attributes":{"ID":661214,"DIS_CODE":0,"TOWNNAME":"善化區","LI":"田寮里","LIN":"15鄰","STREET":" ","SECT":" ","MAREA":"六分寮","LANE":" ","ALLEY":" ","HOUSE_NO":"１６１號","E_COORD97":178705.88870400001,"N_COORD97":2561524.25355,"ADDRESS":"六分寮１６１號","OBJECTID":661187},"geometry":{"x":178705.88870400097,"y":2561524.2535530012}},{"attributes":{"ID":661215,"DIS_CODE":0,"TOWNNAME":"善化區","LI":"田寮里","LIN":"14鄰","STREET":" ","SECT":" ","MAREA":"六分寮","LANE":" ","ALLEY":" ","HOUSE_NO":"１５３號","E_COORD97":178656.93676099999,"N_COORD97":2561507.95523,"ADDRESS":"六分寮１５３號","OBJECTID":661188},"geometry":{"x":178656.93676100019,"y":2561507.9552280009}},{"attributes":{"ID":661216,"DIS_CODE":0,"TOWNNAME":"善化區","LI":"田寮里","LIN":"14鄰","STREET":" ","SECT":" ","MAREA":"六分寮","LANE":" ","ALLEY":" ","HOUSE_NO":"１４７之１號","E_COORD97":178720.086886,"N_COORD97":2561415.0336099998,"ADDRESS":"六分寮１４７之１號","OBJECTID":661189},"geometry":{"x":178720.08688599989,"y":2561415.0336120017}},{"attributes":{"ID":661217,"DIS_CODE":0,"TOWNNAME":"善化區","LI":"田寮里","LIN":"13鄰","STREET":" ","SECT":" ","MAREA":"六分寮","LANE":" ","ALLEY":" ","HOUSE_NO":"１４５號","E_COORD97":178731.954023,"N_COORD97":2561391.7502899999,"ADDRESS":"六分寮１４５號","OBJECTID":661190},"geometry":{"x":178731.95402300078,"y":2561391.7502910029}},{"attributes":{"ID":661218,"DIS_CODE":0,"TOWNNAME":"善化區","LI":"田寮里","LIN":"13鄰","STREET":" ","SECT":" ","MAREA":"六分寮","LANE":" ","ALLEY":" ","HOUSE_NO":"１４５號之１","E_COORD97":178728.98723,"N_COORD97":2561391.3269500001,"ADDRESS":"六分寮１４５號之１","OBJECTID":661191},"geometry":{"x":178728.98723000102,"y":2561391.3269500006}},{"attributes":{"ID":661219,"DIS_CODE":0,"TOWNNAME":"善化區","LI":"田寮里","LIN":"13鄰","STREET":" ","SECT":" ","MAREA":"六分寮","LANE":" ","ALLEY":" ","HOUSE_NO":"１４５號之７","E_COORD97":178719.02731999999,"N_COORD97":2561380.7436299999,"ADDRESS":"六分寮１４５號之７","OBJECTID":661192},"geometry":{"x":178719.02732000127,"y":2561380.7436300032}},{"attributes":{"ID":661220,"DIS_CODE":0,"TOWNNAME":"善化區","LI":"田寮里","LIN":"13鄰","STREET":" ","SECT":" ","MAREA":"六分寮","LANE":" ","ALLEY":" ","HOUSE_NO":"１４５號之３","E_COORD97":178721.78219,"N_COORD97":2561390.2686200002,"ADDRESS":"六分寮１４５號之３","OBJECTID":661193},"geometry":{"x":178721.78218999971,"y":2561390.2686199993}},{"attributes":{"ID":661221,"DIS_CODE":0,"TOWNNAME":"善化區","LI":"田寮里","LIN":"13鄰","STREET":" ","SECT":" ","MAREA":"六分寮","LANE":" ","ALLEY":" ","HOUSE_NO":"１４５號之４","E_COORD97":178717.54392,"N_COORD97":2561389.63362,"ADDRESS":"六分寮１４５號之４","OBJECTID":661194},"geometry":{"x":178717.54392000008,"y":2561389.6336199995}},{"attributes":{"ID":661222,"DIS_CODE":0,"TOWNNAME":"大內區","LI":"二溪里","LIN":"3鄰","STREET":" ","SECT":" ","MAREA":"二重溪","LANE":" ","ALLEY":" ","HOUSE_NO":"１５４之１１５號","E_COORD97":189262.324754,"N_COORD97":2557517.4467500001,"ADDRESS":"二重溪１５４之１１５號","OBJECTID":661195},"geometry":{"x":189262.32475399971,"y":2557517.4467509985}},{"attributes":{"ID":661223,"DIS_CODE":0,"TOWNNAME":"新營區","LI":"延平里","LIN":"18鄰","STREET":"長春街","SECT":" ","MAREA":" ","LANE":"１３４巷","ALLEY":" ","HOUSE_NO":"６號","E_COORD97":179564.38321999999,"N_COORD97":2577843.76945,"ADDRESS":"長春街１３４巷６號","OBJECTID":661196},"geometry":{"x":179564.38322000112,"y":2577843.7694490012}},{"attributes":{"ID":661224,"DIS_CODE":0,"TOWNNAME":"新營區","LI":"延平里","LIN":"18鄰","STREET":"長春街","SECT":" ","MAREA":" ","LANE":"１３４巷","ALLEY":" ","HOUSE_NO":"８號","E_COORD97":179560.78052299999,"N_COORD97":2577844.8277799999,"ADDRESS":"長春街１３４巷８號","OBJECTID":661197},"geometry":{"x":179560.78052300122,"y":2577844.8277819995}},{"attributes":{"ID":661225,"DIS_CODE":0,"TOWNNAME":"善化區","LI":"嘉南里","LIN":"2鄰","STREET":" ","SECT":" ","MAREA":"茄拔","LANE":" ","ALLEY":" ","HOUSE_NO":"５１０號之１","E_COORD97":181329.34260999999,"N_COORD97":2556529.00599,"ADDRESS":"茄拔５１０號之１","OBJECTID":661198},"geometry":{"x":181329.3426099997,"y":2556529.0059900023}},{"attributes":{"ID":661226,"DIS_CODE":0,"TOWNNAME":"善化區","LI":"嘉南里","LIN":"12鄰","STREET":" ","SECT":" ","MAREA":"茄拔","LANE":" ","ALLEY":" ","HOUSE_NO":"３１０號之７","E_COORD97":180837.28023,"N_COORD97":2559615.5276600001,"ADDRESS":"茄拔３１０號之７","OBJECTID":661199},"geometry":{"x":180837.28023000155,"y":2559615.5276600029}},{"attributes":{"ID":661227,"DIS_CODE":0,"TOWNNAME":"新營區","LI":"永生里","LIN":"19鄰","STREET":"中山路","SECT":" ","MAREA":" ","LANE":" ","ALLEY":" ","HOUSE_NO":"２５１號","E_COORD97":179829.94708899999,"N_COORD97":2577938.5532499999,"ADDRESS":"中山路２５１號","OBJECTID":661200},"geometry":{"x":179829.94708899967,"y":2577938.5532490034}}]}