{"displayFieldName":"TOWNNAME","fieldAliases":{"ID":"ID","DIS_CODE":"DIS_CODE","TOWNNAME":"TOWNNAME","LI":"LI","LIN":"LIN","STREET":"STREET","SECT":"SECT","MAREA":"MAREA","LANE":"LANE","ALLEY":"ALLEY","HOUSE_NO":"HOUSE_NO","E_COORD97":"E_COORD97","N_COORD97":"N_COORD97","ADDRESS":"ADDRESS","OBJECTID":"OBJECTID"},"geometryType":"esriGeometryPoint","spatialReference":{"wkid":102443,"latestWkid":3826},"fields":[{"name":"ID","type":"esriFieldTypeDouble","alias":"ID"},{"name":"DIS_CODE","type":"esriFieldTypeInteger","alias":"DIS_CODE"},{"name":"TOWNNAME","type":"esriFieldTypeString","alias":"TOWNNAME","length":8},{"name":"LI","type":"esriFieldTypeString","alias":"LI","length":8},{"name":"LIN","type":"esriFieldTypeString","alias":"LIN","length":12},{"name":"STREET","type":"esriFieldTypeString","alias":"STREET","length":20},{"name":"SECT","type":"esriFieldTypeString","alias":"SECT","length":8},{"name":"MAREA","type":"esriFieldTypeString","alias":"MAREA","length":12},{"name":"LANE","type":"esriFieldTypeString","alias":"LANE","length":10},{"name":"ALLEY","type":"esriFieldTypeString","alias":"ALLEY","length":10},{"name":"HOUSE_NO","type":"esriFieldTypeString","alias":"HOUSE_NO","length":20},{"name":"E_COORD97","type":"esriFieldTypeDouble","alias":"E_COORD97"},{"name":"N_COORD97","type":"esriFieldTypeDouble","alias":"N_COORD97"},{"name":"ADDRESS","type":"esriFieldTypeString","alias":"ADDRESS","length":50},{"name":"OBJECTID","type":"esriFieldTypeOID","alias":"OBJECTID"}],"features":[{"attributes":{"ID":289407,"DIS_CODE":0,"TOWNNAME":"南區","LI":"南華里","LIN":"21鄰","STREET":"中華南路","SECT":"二段","MAREA":" ","LANE":"３００巷","ALLEY":" ","HOUSE_NO":"１５號","E_COORD97":166705.34,"N_COORD97":2540360.5299999998,"ADDRESS":"中華南路二段３００巷１５號","OBJECTID":289401},"geometry":{"x":166705.33999999985,"y":2540360.5299999993}},{"attributes":{"ID":289408,"DIS_CODE":0,"TOWNNAME":"北區","LI":"大豐里","LIN":"21鄰","STREET":"大興街","SECT":" ","MAREA":" ","LANE":"２８５巷","ALLEY":" ","HOUSE_NO":"１８號","E_COORD97":166688.53,"N_COORD97":2545634.0699999998,"ADDRESS":"大興街２８５巷１８號","OBJECTID":289402},"geometry":{"x":166688.53000000119,"y":2545634.0700000003}},{"attributes":{"ID":289409,"DIS_CODE":0,"TOWNNAME":"新營區","LI":"王公里","LIN":"21鄰","STREET":"民族路","SECT":" ","MAREA":" ","LANE":"１５０巷","ALLEY":" ","HOUSE_NO":"２７號","E_COORD97":180514,"N_COORD97":2579358.7999999998,"ADDRESS":"民族路１５０巷２７號","OBJECTID":289403},"geometry":{"x":180514.00000000093,"y":2579358.8000000026}},{"attributes":{"ID":289410,"DIS_CODE":0,"TOWNNAME":"新營區","LI":"王公里","LIN":"21鄰","STREET":"民族路","SECT":" ","MAREA":" ","LANE":"１５０巷","ALLEY":" ","HOUSE_NO":"８號","E_COORD97":180489.12,"N_COORD97":2579335.6499999999,"ADDRESS":"民族路１５０巷８號","OBJECTID":289404},"geometry":{"x":180489.12000000197,"y":2579335.6500000022}},{"attributes":{"ID":289411,"DIS_CODE":0,"TOWNNAME":"新營區","LI":"新北里","LIN":"21鄰","STREET":"民生路","SECT":" ","MAREA":" ","LANE":"３３６巷","ALLEY":" ","HOUSE_NO":"７１號","E_COORD97":179040.53,"N_COORD97":2579234,"ADDRESS":"民生路３３６巷７１號","OBJECTID":289405},"geometry":{"x":179040.53000000212,"y":2579234.0000000019}},{"attributes":{"ID":289412,"DIS_CODE":0,"TOWNNAME":"新營區","LI":"新南里","LIN":"21鄰","STREET":"復興路","SECT":" ","MAREA":" ","LANE":"３７８巷","ALLEY":" ","HOUSE_NO":"３５號","E_COORD97":178551.37,"N_COORD97":2578321.6000000001,"ADDRESS":"復興路３７８巷３５號","OBJECTID":289406},"geometry":{"x":178551.37000000011,"y":2578321.6000000015}},{"attributes":{"ID":289413,"DIS_CODE":0,"TOWNNAME":"新營區","LI":"民生里","LIN":"21鄰","STREET":"民生路","SECT":" ","MAREA":" ","LANE":"１６３巷","ALLEY":" ","HOUSE_NO":"１０８之３號","E_COORD97":179085.76999999999,"N_COORD97":2578507.3599999999,"ADDRESS":"民生路１６３巷１０８之３號","OBJECTID":289407},"geometry":{"x":179085.77000000142,"y":2578507.3599999994}},{"attributes":{"ID":289414,"DIS_CODE":0,"TOWNNAME":"新營區","LI":"民生里","LIN":"21鄰","STREET":"民生路","SECT":" ","MAREA":" ","LANE":"１６３巷","ALLEY":" ","HOUSE_NO":"１０８之７號","E_COORD97":179115.47,"N_COORD97":2578513.8700000001,"ADDRESS":"民生路１６３巷１０８之７號","OBJECTID":289408},"geometry":{"x":179115.47000000067,"y":2578513.8700000029}},{"attributes":{"ID":289415,"DIS_CODE":0,"TOWNNAME":"後壁區","LI":"仕安里","LIN":"7鄰","STREET":" ","SECT":" ","MAREA":"下長","LANE":" ","ALLEY":" ","HOUSE_NO":"４８號","E_COORD97":180647.41,"N_COORD97":2583683.5299999998,"ADDRESS":"下長４８號","OBJECTID":289409},"geometry":{"x":180647.41000000108,"y":2583683.5299999993}},{"attributes":{"ID":289416,"DIS_CODE":0,"TOWNNAME":"新營區","LI":"新北里","LIN":"21鄰","STREET":"民生路","SECT":" ","MAREA":" ","LANE":"３３６巷","ALLEY":" ","HOUSE_NO":"３３之１號","E_COORD97":179004.26999999999,"N_COORD97":2579244.21,"ADDRESS":"民生路３３６巷３３之１號","OBJECTID":289410},"geometry":{"x":179004.27000000142,"y":2579244.2100000028}},{"attributes":{"ID":289417,"DIS_CODE":0,"TOWNNAME":"新市區","LI":"新和里","LIN":"48鄰","STREET":"和平街","SECT":" ","MAREA":" ","LANE":" ","ALLEY":" ","HOUSE_NO":"９２號","E_COORD97":177573.64999999999,"N_COORD97":2553402.25,"ADDRESS":"和平街９２號","OBJECTID":289411},"geometry":{"x":177573.65000000224,"y":2553402.25}},{"attributes":{"ID":289418,"DIS_CODE":0,"TOWNNAME":"新營區","LI":"民生里","LIN":"21鄰","STREET":"民生路","SECT":" ","MAREA":" ","LANE":"１６３巷","ALLEY":" ","HOUSE_NO":"１０２號","E_COORD97":179106.91,"N_COORD97":2578531.5699999998,"ADDRESS":"民生路１６３巷１０２號","OBJECTID":289412},"geometry":{"x":179106.91000000015,"y":2578531.570000004}},{"attributes":{"ID":289419,"DIS_CODE":0,"TOWNNAME":"新營區","LI":"新東里","LIN":"21鄰","STREET":"東明街","SECT":" ","MAREA":" ","LANE":"５６巷","ALLEY":" ","HOUSE_NO":"１３號","E_COORD97":180836.70000000001,"N_COORD97":2579705.02,"ADDRESS":"東明街５６巷１３號","OBJECTID":289413},"geometry":{"x":180836.70000000112,"y":2579705.0200000014}},{"attributes":{"ID":289420,"DIS_CODE":0,"TOWNNAME":"北區","LI":"大豐里","LIN":"21鄰","STREET":"大興街","SECT":" ","MAREA":" ","LANE":"２８５巷","ALLEY":" ","HOUSE_NO":"５９號","E_COORD97":166712.20000000001,"N_COORD97":2545539.9300000002,"ADDRESS":"大興街２８５巷５９號","OBJECTID":289414},"geometry":{"x":166712.20000000112,"y":2545539.9300000034}},{"attributes":{"ID":289421,"DIS_CODE":0,"TOWNNAME":"北區","LI":"大豐里","LIN":"21鄰","STREET":"大興街","SECT":" ","MAREA":" ","LANE":"２８５巷","ALLEY":" ","HOUSE_NO":"６１號","E_COORD97":166717.92000000001,"N_COORD97":2545541.04,"ADDRESS":"大興街２８５巷６１號","OBJECTID":289415},"geometry":{"x":166717.91999999993,"y":2545541.0399999991}},{"attributes":{"ID":289422,"DIS_CODE":0,"TOWNNAME":"新營區","LI":"新北里","LIN":"21鄰","STREET":"民生路","SECT":" ","MAREA":" ","LANE":"３３６巷","ALLEY":" ","HOUSE_NO":"１９號","E_COORD97":178990.47,"N_COORD97":2579251.96,"ADDRESS":"民生路３３６巷１９號","OBJECTID":289416},"geometry":{"x":178990.46999999974,"y":2579251.9600000028}},{"attributes":{"ID":289423,"DIS_CODE":0,"TOWNNAME":"新營區","LI":"忠政里","LIN":"21鄰","STREET":"府西路","SECT":" ","MAREA":" ","LANE":"２３１巷","ALLEY":" ","HOUSE_NO":"２７號","E_COORD97":179715.31,"N_COORD97":2579598.46,"ADDRESS":"府西路２３１巷２７號","OBJECTID":289417},"geometry":{"x":179715.30999999959,"y":2579598.4600000028}},{"attributes":{"ID":289424,"DIS_CODE":0,"TOWNNAME":"北區","LI":"成功里","LIN":"21鄰","STREET":"中華北路","SECT":"二段","MAREA":" ","LANE":"２５２巷","ALLEY":" ","HOUSE_NO":"１０號","E_COORD97":168699.60999999999,"N_COORD97":2546886.5499999998,"ADDRESS":"中華北路二段２５２巷１０號","OBJECTID":289418},"geometry":{"x":168699.61000000127,"y":2546886.5500000026}},{"attributes":{"ID":289425,"DIS_CODE":0,"TOWNNAME":"北區","LI":"成功里","LIN":"21鄰","STREET":"中華北路","SECT":"二段","MAREA":" ","LANE":"２５２巷","ALLEY":" ","HOUSE_NO":"１４號","E_COORD97":168695.81,"N_COORD97":2546871.0899999999,"ADDRESS":"中華北路二段２５２巷１４號","OBJECTID":289419},"geometry":{"x":168695.81000000052,"y":2546871.0899999999}},{"attributes":{"ID":289426,"DIS_CODE":0,"TOWNNAME":"北區","LI":"成功里","LIN":"21鄰","STREET":"中華北路","SECT":"二段","MAREA":" ","LANE":"２５２巷","ALLEY":" ","HOUSE_NO":"２號","E_COORD97":168693.01999999999,"N_COORD97":2546907.3300000001,"ADDRESS":"中華北路二段２５２巷２號","OBJECTID":289420},"geometry":{"x":168693.02000000048,"y":2546907.3300000038}},{"attributes":{"ID":289427,"DIS_CODE":0,"TOWNNAME":"關廟區","LI":"東勢里","LIN":"21鄰","STREET":"東德街","SECT":" ","MAREA":" ","LANE":"８１巷","ALLEY":" ","HOUSE_NO":"３號","E_COORD97":181915.22,"N_COORD97":2539227.27,"ADDRESS":"東德街８１巷３號","OBJECTID":289421},"geometry":{"x":181915.21999999974,"y":2539227.2699999996}},{"attributes":{"ID":289428,"DIS_CODE":0,"TOWNNAME":"北區","LI":"大豐里","LIN":"21鄰","STREET":"大興街","SECT":" ","MAREA":" ","LANE":"２８５巷","ALLEY":" ","HOUSE_NO":"１２號","E_COORD97":166691.70999999999,"N_COORD97":2545649.3100000001,"ADDRESS":"大興街２８５巷１２號","OBJECTID":289422},"geometry":{"x":166691.71000000089,"y":2545649.3100000005}},{"attributes":{"ID":289429,"DIS_CODE":0,"TOWNNAME":"北區","LI":"大豐里","LIN":"21鄰","STREET":"大興街","SECT":" ","MAREA":" ","LANE":"２８５巷","ALLEY":" ","HOUSE_NO":"１６號","E_COORD97":166691.70999999999,"N_COORD97":2545645.25,"ADDRESS":"大興街２８５巷１６號","OBJECTID":289423},"geometry":{"x":166691.71000000089,"y":2545645.25}},{"attributes":{"ID":289430,"DIS_CODE":0,"TOWNNAME":"鹽水區","LI":"橋南里","LIN":"21鄰","STREET":"新中路","SECT":" ","MAREA":" ","LANE":"８２巷","ALLEY":" ","HOUSE_NO":"７０號","E_COORD97":175851.14000000001,"N_COORD97":2578677.5499999998,"ADDRESS":"新中路８２巷７０號","OBJECTID":289424},"geometry":{"x":175851.1400000006,"y":2578677.5499999989}},{"attributes":{"ID":289431,"DIS_CODE":0,"TOWNNAME":"鹽水區","LI":"橋南里","LIN":"21鄰","STREET":"新中路","SECT":" ","MAREA":" ","LANE":"８２巷","ALLEY":" ","HOUSE_NO":"７２號","E_COORD97":175846.79000000001,"N_COORD97":2578677.4399999999,"ADDRESS":"新中路８２巷７２號","OBJECTID":289425},"geometry":{"x":175846.79000000097,"y":2578677.4400000013}},{"attributes":{"ID":289432,"DIS_CODE":0,"TOWNNAME":"鹽水區","LI":"橋南里","LIN":"21鄰","STREET":"新中路","SECT":" ","MAREA":" ","LANE":"８２巷","ALLEY":" ","HOUSE_NO":"７４號","E_COORD97":175843.19,"N_COORD97":2578677.52,"ADDRESS":"新中路８２巷７４號","OBJECTID":289426},"geometry":{"x":175843.19000000134,"y":2578677.5200000014}},{"attributes":{"ID":289433,"DIS_CODE":0,"TOWNNAME":"鹽水區","LI":"橋南里","LIN":"21鄰","STREET":"新中路","SECT":" ","MAREA":" ","LANE":"８２巷","ALLEY":" ","HOUSE_NO":"７６號","E_COORD97":175838.48000000001,"N_COORD97":2578677.8500000001,"ADDRESS":"新中路８２巷７６號","OBJECTID":289427},"geometry":{"x":175838.48000000045,"y":2578677.8500000034}},{"attributes":{"ID":289434,"DIS_CODE":0,"TOWNNAME":"東區","LI":"德高里","LIN":"21鄰","STREET":"崇善路","SECT":" ","MAREA":" ","LANE":"８３５巷","ALLEY":" ","HOUSE_NO":"６號","E_COORD97":171334.45000000001,"N_COORD97":2540836.7999999998,"ADDRESS":"崇善路８３５巷６號","OBJECTID":289428},"geometry":{"x":171334.45000000019,"y":2540836.8000000026}},{"attributes":{"ID":289435,"DIS_CODE":0,"TOWNNAME":"東區","LI":"德高里","LIN":"21鄰","STREET":"崇善路","SECT":" ","MAREA":" ","LANE":"８３５巷","ALLEY":" ","HOUSE_NO":"８號","E_COORD97":171342.42999999999,"N_COORD97":2540826.9500000002,"ADDRESS":"崇善路８３５巷８號","OBJECTID":289429},"geometry":{"x":171342.4299999997,"y":2540826.9500000011}},{"attributes":{"ID":289436,"DIS_CODE":0,"TOWNNAME":"永康區","LI":"甲頂里","LIN":"21鄰","STREET":"中正南路","SECT":" ","MAREA":" ","LANE":"５２巷","ALLEY":" ","HOUSE_NO":"５號","E_COORD97":169688.03,"N_COORD97":2546750.3500000001,"ADDRESS":"中正南路５２巷５號","OBJECTID":289430},"geometry":{"x":169688.03000000026,"y":2546750.3499999996}},{"attributes":{"ID":289437,"DIS_CODE":0,"TOWNNAME":"東區","LI":"德光里","LIN":"21鄰","STREET":"崇明路","SECT":" ","MAREA":" ","LANE":"１８７巷","ALLEY":" ","HOUSE_NO":"３號","E_COORD97":169977.32999999999,"N_COORD97":2542141.6299999999,"ADDRESS":"崇明路１８７巷３號","OBJECTID":289431},"geometry":{"x":169977.33000000007,"y":2542141.6300000008}},{"attributes":{"ID":289438,"DIS_CODE":0,"TOWNNAME":"東區","LI":"德光里","LIN":"21鄰","STREET":"崇明路","SECT":" ","MAREA":" ","LANE":"１８７巷","ALLEY":" ","HOUSE_NO":"５號","E_COORD97":169981.26999999999,"N_COORD97":2542144.4399999999,"ADDRESS":"崇明路１８７巷５號","OBJECTID":289432},"geometry":{"x":169981.27000000048,"y":2542144.4399999995}},{"attributes":{"ID":289439,"DIS_CODE":0,"TOWNNAME":"東區","LI":"德光里","LIN":"21鄰","STREET":"崇明路","SECT":" ","MAREA":" ","LANE":"１８７巷","ALLEY":" ","HOUSE_NO":"７號","E_COORD97":169984.37,"N_COORD97":2542147.25,"ADDRESS":"崇明路１８７巷７號","OBJECTID":289433},"geometry":{"x":169984.37000000104,"y":2542147.25}},{"attributes":{"ID":289440,"DIS_CODE":0,"TOWNNAME":"東區","LI":"德光里","LIN":"21鄰","STREET":"崇明路","SECT":" ","MAREA":" ","LANE":"１８７巷","ALLEY":" ","HOUSE_NO":"９號","E_COORD97":169988.31,"N_COORD97":2542150.3500000001,"ADDRESS":"崇明路１８７巷９號","OBJECTID":289434},"geometry":{"x":169988.30999999959,"y":2542150.3500000015}},{"attributes":{"ID":289441,"DIS_CODE":0,"TOWNNAME":"仁德區","LI":"太子里","LIN":"21鄰","STREET":"長興路","SECT":" ","MAREA":" ","LANE":"８７巷","ALLEY":" ","HOUSE_NO":"７３號","E_COORD97":173863.03,"N_COORD97":2543725.5099999998,"ADDRESS":"長興路８７巷７３號","OBJECTID":289435},"geometry":{"x":173863.03000000026,"y":2543725.5100000035}},{"attributes":{"ID":289442,"DIS_CODE":0,"TOWNNAME":"新市區","LI":"港墘里","LIN":"21鄰","STREET":"華美街","SECT":" ","MAREA":" ","LANE":"７巷","ALLEY":" ","HOUSE_NO":"７號","E_COORD97":178063.89999999999,"N_COORD97":2552784.7999999998,"ADDRESS":"華美街７巷７號","OBJECTID":289436},"geometry":{"x":178063.9000000013,"y":2552784.8000000026}},{"attributes":{"ID":289443,"DIS_CODE":0,"TOWNNAME":"東區","LI":"關聖里","LIN":"7鄰","STREET":"裕農路","SECT":" ","MAREA":" ","LANE":"６６８巷","ALLEY":" ","HOUSE_NO":"４７號之７","E_COORD97":171760.92000000001,"N_COORD97":2543004.48,"ADDRESS":"裕農路６６８巷４７號之７","OBJECTID":289437},"geometry":{"x":171760.92000000086,"y":2543004.4800000042}},{"attributes":{"ID":289444,"DIS_CODE":0,"TOWNNAME":"東區","LI":"關聖里","LIN":"7鄰","STREET":"裕農路","SECT":" ","MAREA":" ","LANE":"６６８巷","ALLEY":" ","HOUSE_NO":"４７號之２","E_COORD97":171757.51000000001,"N_COORD97":2543026.3199999998,"ADDRESS":"裕農路６６８巷４７號之２","OBJECTID":289438},"geometry":{"x":171757.50999999885,"y":2543026.3200000022}},{"attributes":{"ID":289445,"DIS_CODE":0,"TOWNNAME":"東區","LI":"關聖里","LIN":"7鄰","STREET":"裕農路","SECT":" ","MAREA":" ","LANE":"６６８巷","ALLEY":" ","HOUSE_NO":"４７號之３","E_COORD97":171758.14999999999,"N_COORD97":2543021.9100000001,"ADDRESS":"裕農路６６８巷４７號之３","OBJECTID":289439},"geometry":{"x":171758.1500000013,"y":2543021.910000002}},{"attributes":{"ID":289446,"DIS_CODE":0,"TOWNNAME":"東區","LI":"關聖里","LIN":"7鄰","STREET":"裕農路","SECT":" ","MAREA":" ","LANE":"６６８巷","ALLEY":" ","HOUSE_NO":"４７號之４","E_COORD97":171758.78,"N_COORD97":2543017.4900000002,"ADDRESS":"裕農路６６８巷４７號之４","OBJECTID":289440},"geometry":{"x":171758.78000000119,"y":2543017.4900000039}},{"attributes":{"ID":289447,"DIS_CODE":0,"TOWNNAME":"東區","LI":"大同里","LIN":"21鄰","STREET":"大同路","SECT":"一段","MAREA":" ","LANE":"１７５巷","ALLEY":" ","HOUSE_NO":"１１之１號","E_COORD97":169174.10999999999,"N_COORD97":2542776.8599999999,"ADDRESS":"大同路一段１７５巷１１之１號","OBJECTID":289441},"geometry":{"x":169174.1100000022,"y":2542776.8600000031}},{"attributes":{"ID":289448,"DIS_CODE":0,"TOWNNAME":"東區","LI":"大同里","LIN":"21鄰","STREET":"大同路","SECT":"一段","MAREA":" ","LANE":"１７５巷","ALLEY":" ","HOUSE_NO":"１１之２號","E_COORD97":169178.45000000001,"N_COORD97":2542775.6299999999,"ADDRESS":"大同路一段１７５巷１１之２號","OBJECTID":289442},"geometry":{"x":169178.45000000205,"y":2542775.6300000008}},{"attributes":{"ID":289449,"DIS_CODE":0,"TOWNNAME":"永康區","LI":"東灣里","LIN":"21鄰","STREET":"大灣三街","SECT":" ","MAREA":" ","LANE":"７３巷","ALLEY":" ","HOUSE_NO":"７１號","E_COORD97":174848.37,"N_COORD97":2544841.9900000002,"ADDRESS":"大灣三街７３巷７１號","OBJECTID":289443},"geometry":{"x":174848.37000000104,"y":2544841.9900000021}},{"attributes":{"ID":289450,"DIS_CODE":0,"TOWNNAME":"永康區","LI":"西勢里","LIN":"21鄰","STREET":"富強路","SECT":"一段","MAREA":" ","LANE":"１４３巷","ALLEY":" ","HOUSE_NO":"３３號","E_COORD97":175458.25,"N_COORD97":2546362.27,"ADDRESS":"富強路一段１４３巷３３號","OBJECTID":289444},"geometry":{"x":175458.25,"y":2546362.2700000014}},{"attributes":{"ID":289451,"DIS_CODE":0,"TOWNNAME":"新市區","LI":"新和里","LIN":"48鄰","STREET":"和平街","SECT":" ","MAREA":" ","LANE":" ","ALLEY":" ","HOUSE_NO":"１３６號","E_COORD97":177520.81,"N_COORD97":2553353.75,"ADDRESS":"和平街１３６號","OBJECTID":289445},"geometry":{"x":177520.81000000145,"y":2553353.7500000019}},{"attributes":{"ID":289452,"DIS_CODE":0,"TOWNNAME":"仁德區","LI":"成功里","LIN":"39鄰","STREET":"文賢路","SECT":"一段","MAREA":" ","LANE":" ","ALLEY":" ","HOUSE_NO":"１１號","E_COORD97":170111.98000000001,"N_COORD97":2538283.8199999998,"ADDRESS":"文賢路一段１１號","OBJECTID":289446},"geometry":{"x":170111.98000000045,"y":2538283.8200000022}},{"attributes":{"ID":289453,"DIS_CODE":0,"TOWNNAME":"永康區","LI":"崑山里","LIN":"48鄰","STREET":"永華路","SECT":" ","MAREA":" ","LANE":" ","ALLEY":" ","HOUSE_NO":"５６號","E_COORD97":174093.19,"N_COORD97":2545283.0800000001,"ADDRESS":"永華路５６號","OBJECTID":289447},"geometry":{"x":174093.19000000227,"y":2545283.0800000019}},{"attributes":{"ID":289454,"DIS_CODE":0,"TOWNNAME":"永康區","LI":"西勢里","LIN":"21鄰","STREET":"富強路","SECT":"一段","MAREA":" ","LANE":"１４９巷","ALLEY":" ","HOUSE_NO":"４６號","E_COORD97":175478.87,"N_COORD97":2546410.4100000001,"ADDRESS":"富強路一段１４９巷４６號","OBJECTID":289448},"geometry":{"x":175478.87000000104,"y":2546410.4100000001}},{"attributes":{"ID":289455,"DIS_CODE":0,"TOWNNAME":"永康區","LI":"西勢里","LIN":"21鄰","STREET":"富強路","SECT":"一段","MAREA":" ","LANE":"９８巷","ALLEY":" ","HOUSE_NO":"４８號","E_COORD97":175587.29999999999,"N_COORD97":2546071.1400000001,"ADDRESS":"富強路一段９８巷４８號","OBJECTID":289449},"geometry":{"x":175587.30000000075,"y":2546071.1400000006}},{"attributes":{"ID":289456,"DIS_CODE":0,"TOWNNAME":"永康區","LI":"西勢里","LIN":"21鄰","STREET":"富強路","SECT":"一段","MAREA":" ","LANE":"１５５巷","ALLEY":" ","HOUSE_NO":"２６號","E_COORD97":175526.67000000001,"N_COORD97":2546412.5499999998,"ADDRESS":"富強路一段１５５巷２６號","OBJECTID":289450},"geometry":{"x":175526.66999999993,"y":2546412.5500000026}},{"attributes":{"ID":289457,"DIS_CODE":0,"TOWNNAME":"永康區","LI":"西勢里","LIN":"21鄰","STREET":"富強路","SECT":"一段","MAREA":" ","LANE":"１５５巷","ALLEY":" ","HOUSE_NO":"３０號","E_COORD97":175519.42000000001,"N_COORD97":2546419.0499999998,"ADDRESS":"富強路一段１５５巷３０號","OBJECTID":289451},"geometry":{"x":175519.41999999993,"y":2546419.0500000026}},{"attributes":{"ID":289458,"DIS_CODE":0,"TOWNNAME":"永康區","LI":"西勢里","LIN":"21鄰","STREET":"富強路","SECT":"一段","MAREA":" ","LANE":"９８巷","ALLEY":" ","HOUSE_NO":"２２號","E_COORD97":175527.54000000001,"N_COORD97":2546125.5299999998,"ADDRESS":"富強路一段９８巷２２號","OBJECTID":289452},"geometry":{"x":175527.54000000004,"y":2546125.5300000031}},{"attributes":{"ID":289459,"DIS_CODE":0,"TOWNNAME":"中西區","LI":"福安里","LIN":"21鄰","STREET":"西門路","SECT":"二段","MAREA":" ","LANE":"７４巷","ALLEY":" ","HOUSE_NO":"１７號","E_COORD97":167885.22,"N_COORD97":2543631.4199999999,"ADDRESS":"西門路二段７４巷１７號","OBJECTID":289453},"geometry":{"x":167885.21999999974,"y":2543631.4200000037}},{"attributes":{"ID":289460,"DIS_CODE":0,"TOWNNAME":"中西區","LI":"福安里","LIN":"21鄰","STREET":"西門路","SECT":"二段","MAREA":" ","LANE":"７４巷","ALLEY":" ","HOUSE_NO":"１９號","E_COORD97":167888.28,"N_COORD97":2543630.4900000002,"ADDRESS":"西門路二段７４巷１９號","OBJECTID":289454},"geometry":{"x":167888.28000000119,"y":2543630.4900000002}},{"attributes":{"ID":289461,"DIS_CODE":0,"TOWNNAME":"中西區","LI":"福安里","LIN":"21鄰","STREET":"西門路","SECT":"二段","MAREA":" ","LANE":"７４巷","ALLEY":" ","HOUSE_NO":"１號","E_COORD97":167854.13,"N_COORD97":2543625.4900000002,"ADDRESS":"西門路二段７４巷１號","OBJECTID":289455},"geometry":{"x":167854.12999999989,"y":2543625.4900000021}},{"attributes":{"ID":289462,"DIS_CODE":0,"TOWNNAME":"中西區","LI":"福安里","LIN":"21鄰","STREET":"西門路","SECT":"二段","MAREA":" ","LANE":"７４巷","ALLEY":" ","HOUSE_NO":"２１號","E_COORD97":167891.73999999999,"N_COORD97":2543629.1699999999,"ADDRESS":"西門路二段７４巷２１號","OBJECTID":289456},"geometry":{"x":167891.74000000115,"y":2543629.1699999999}},{"attributes":{"ID":289463,"DIS_CODE":0,"TOWNNAME":"中西區","LI":"福安里","LIN":"21鄰","STREET":"西門路","SECT":"二段","MAREA":" ","LANE":"７４巷","ALLEY":" ","HOUSE_NO":"２５號","E_COORD97":167899.94,"N_COORD97":2543629.7999999998,"ADDRESS":"西門路二段７４巷２５號","OBJECTID":289457},"geometry":{"x":167899.94000000041,"y":2543629.8000000045}},{"attributes":{"ID":289464,"DIS_CODE":0,"TOWNNAME":"中西區","LI":"福安里","LIN":"21鄰","STREET":"西門路","SECT":"二段","MAREA":" ","LANE":"７４巷","ALLEY":" ","HOUSE_NO":"３號","E_COORD97":167858.64999999999,"N_COORD97":2543624.9500000002,"ADDRESS":"西門路二段７４巷３號","OBJECTID":289458},"geometry":{"x":167858.6500000013,"y":2543624.9500000011}},{"attributes":{"ID":289465,"DIS_CODE":0,"TOWNNAME":"麻豆區","LI":"磚井里","LIN":"9鄰","STREET":" ","SECT":" ","MAREA":"磚子井","LANE":" ","ALLEY":" ","HOUSE_NO":"８５號","E_COORD97":173474.32999999999,"N_COORD97":2563170.1200000001,"ADDRESS":"磚子井８５號","OBJECTID":289459},"geometry":{"x":173474.33000000007,"y":2563170.1200000048}},{"attributes":{"ID":289466,"DIS_CODE":0,"TOWNNAME":"中西區","LI":"福安里","LIN":"21鄰","STREET":"西門路","SECT":"二段","MAREA":" ","LANE":"７４巷","ALLEY":" ","HOUSE_NO":"５號","E_COORD97":167863.84,"N_COORD97":2543624.5600000001,"ADDRESS":"西門路二段７４巷５號","OBJECTID":289460},"geometry":{"x":167863.84000000078,"y":2543624.5600000042}},{"attributes":{"ID":289467,"DIS_CODE":0,"TOWNNAME":"中西區","LI":"福安里","LIN":"21鄰","STREET":"西門路","SECT":"二段","MAREA":" ","LANE":"７４巷","ALLEY":" ","HOUSE_NO":"７號","E_COORD97":167878.17999999999,"N_COORD97":2543652.1400000001,"ADDRESS":"西門路二段７４巷７號","OBJECTID":289461},"geometry":{"x":167878.18000000063,"y":2543652.1400000025}},{"attributes":{"ID":289468,"DIS_CODE":0,"TOWNNAME":"中西區","LI":"福安里","LIN":"21鄰","STREET":"西門路","SECT":"二段","MAREA":" ","LANE":"７４巷","ALLEY":" ","HOUSE_NO":"９號","E_COORD97":167878.44,"N_COORD97":2543656.1299999999,"ADDRESS":"西門路二段７４巷９號","OBJECTID":289462},"geometry":{"x":167878.44000000227,"y":2543656.1300000027}},{"attributes":{"ID":289469,"DIS_CODE":0,"TOWNNAME":"東區","LI":"虎尾里","LIN":"21鄰","STREET":"東門路","SECT":"三段","MAREA":" ","LANE":"２７３巷","ALLEY":" ","HOUSE_NO":"４號","E_COORD97":171747.51999999999,"N_COORD97":2541874,"ADDRESS":"東門路三段２７３巷４號","OBJECTID":289463},"geometry":{"x":171747.52000000048,"y":2541874}},{"attributes":{"ID":289470,"DIS_CODE":0,"TOWNNAME":"東區","LI":"虎尾里","LIN":"21鄰","STREET":"東門路","SECT":"三段","MAREA":" ","LANE":"２７３巷","ALLEY":" ","HOUSE_NO":"６號","E_COORD97":171747.34,"N_COORD97":2541878.2200000002,"ADDRESS":"東門路三段２７３巷６號","OBJECTID":289464},"geometry":{"x":171747.34000000078,"y":2541878.2200000025}},{"attributes":{"ID":289471,"DIS_CODE":0,"TOWNNAME":"東區","LI":"虎尾里","LIN":"21鄰","STREET":"東門路","SECT":"三段","MAREA":" ","LANE":"２７３巷","ALLEY":" ","HOUSE_NO":"８號","E_COORD97":171746.98999999999,"N_COORD97":2541882.9700000002,"ADDRESS":"東門路三段２７３巷８號","OBJECTID":289465},"geometry":{"x":171746.99000000115,"y":2541882.9700000025}},{"attributes":{"ID":289472,"DIS_CODE":0,"TOWNNAME":"關廟區","LI":"龜洞里","LIN":"8鄰","STREET":"官崙街","SECT":" ","MAREA":" ","LANE":" ","ALLEY":" ","HOUSE_NO":"５２號","E_COORD97":183471.724586,"N_COORD97":2533390.1626200001,"ADDRESS":"官崙街５２號","OBJECTID":289466},"geometry":{"x":183471.72458599973,"y":2533390.1626239996}},{"attributes":{"ID":289473,"DIS_CODE":0,"TOWNNAME":"東區","LI":"富強里","LIN":"21鄰","STREET":"東門路","SECT":"二段","MAREA":" ","LANE":"３０１巷","ALLEY":" ","HOUSE_NO":"１８號","E_COORD97":170795.67000000001,"N_COORD97":2542679.8900000001,"ADDRESS":"東門路二段３０１巷１８號","OBJECTID":289467},"geometry":{"x":170795.67000000179,"y":2542679.8900000043}},{"attributes":{"ID":289474,"DIS_CODE":0,"TOWNNAME":"東區","LI":"富強里","LIN":"21鄰","STREET":"東門路","SECT":"二段","MAREA":" ","LANE":"３０１巷","ALLEY":" ","HOUSE_NO":"２４號","E_COORD97":170809.59,"N_COORD97":2542682.3999999999,"ADDRESS":"東門路二段３０１巷２４號","OBJECTID":289468},"geometry":{"x":170809.59000000171,"y":2542682.4000000004}},{"attributes":{"ID":289475,"DIS_CODE":0,"TOWNNAME":"東區","LI":"東光里","LIN":"21鄰","STREET":"東安路","SECT":" ","MAREA":" ","LANE":"１３４巷","ALLEY":" ","HOUSE_NO":"３４號","E_COORD97":170801.04999999999,"N_COORD97":2543813.7599999998,"ADDRESS":"東安路１３４巷３４號","OBJECTID":289469},"geometry":{"x":170801.04999999981,"y":2543813.7599999998}},{"attributes":{"ID":289476,"DIS_CODE":0,"TOWNNAME":"東區","LI":"東光里","LIN":"21鄰","STREET":"東安路","SECT":" ","MAREA":" ","LANE":"１３４巷","ALLEY":" ","HOUSE_NO":"３６號","E_COORD97":170804.35000000001,"N_COORD97":2543811.6000000001,"ADDRESS":"東安路１３４巷３６號","OBJECTID":289470},"geometry":{"x":170804.35000000056,"y":2543811.5999999996}},{"attributes":{"ID":289477,"DIS_CODE":0,"TOWNNAME":"東區","LI":"東光里","LIN":"21鄰","STREET":"東安路","SECT":" ","MAREA":" ","LANE":"１３４巷","ALLEY":" ","HOUSE_NO":"３８號","E_COORD97":170808.37,"N_COORD97":2543809.1299999999,"ADDRESS":"東安路１３４巷３８號","OBJECTID":289471},"geometry":{"x":170808.37000000104,"y":2543809.1300000008}},{"attributes":{"ID":289478,"DIS_CODE":0,"TOWNNAME":"永康區","LI":"網寮里","LIN":"21鄰","STREET":"文化路","SECT":" ","MAREA":" ","LANE":"２４２巷","ALLEY":" ","HOUSE_NO":"２８之１２號","E_COORD97":173613.32999999999,"N_COORD97":2546182.3300000001,"ADDRESS":"文化路２４２巷２８之１２號","OBJECTID":289472},"geometry":{"x":173613.33000000007,"y":2546182.3300000019}},{"attributes":{"ID":289479,"DIS_CODE":0,"TOWNNAME":"永康區","LI":"網寮里","LIN":"21鄰","STREET":"文化路","SECT":" ","MAREA":" ","LANE":"２４２巷","ALLEY":" ","HOUSE_NO":"２６之１２號","E_COORD97":173600.17000000001,"N_COORD97":2546181.0699999998,"ADDRESS":"文化路２４２巷２６之１２號","OBJECTID":289473},"geometry":{"x":173600.17000000086,"y":2546181.0700000022}},{"attributes":{"ID":289480,"DIS_CODE":0,"TOWNNAME":"仁德區","LI":"仁義里","LIN":"34鄰","STREET":"正義二街","SECT":" ","MAREA":" ","LANE":" ","ALLEY":" ","HOUSE_NO":"１４９號七樓","E_COORD97":173780.62,"N_COORD97":2541595.0099999998,"ADDRESS":"正義二街１４９號七樓","OBJECTID":289474},"geometry":{"x":173780.62000000011,"y":2541595.0099999998}},{"attributes":{"ID":289481,"DIS_CODE":0,"TOWNNAME":"大內區","LI":"曲溪里","LIN":"1鄰","STREET":" ","SECT":" ","MAREA":"二重溪","LANE":" ","ALLEY":" ","HOUSE_NO":"１號之１７","E_COORD97":187561.39000000001,"N_COORD97":2557725.3100000001,"ADDRESS":"二重溪１號之１７","OBJECTID":289475},"geometry":{"x":187561.3900000006,"y":2557725.3100000005}},{"attributes":{"ID":289482,"DIS_CODE":0,"TOWNNAME":"新營區","LI":"太北里","LIN":"1鄰","STREET":" ","SECT":" ","MAREA":"太子宮","LANE":" ","ALLEY":" ","HOUSE_NO":"１號之３","E_COORD97":176370.03,"N_COORD97":2577150.6699999999,"ADDRESS":"太子宮１號之３","OBJECTID":289476},"geometry":{"x":176370.03000000026,"y":2577150.6700000037}},{"attributes":{"ID":289483,"DIS_CODE":0,"TOWNNAME":"新營區","LI":"太北里","LIN":"1鄰","STREET":" ","SECT":" ","MAREA":"太子宮","LANE":" ","ALLEY":" ","HOUSE_NO":"１號之１","E_COORD97":176329.41,"N_COORD97":2577210.6800000002,"ADDRESS":"太子宮１號之１","OBJECTID":289477},"geometry":{"x":176329.41000000108,"y":2577210.6799999997}},{"attributes":{"ID":289484,"DIS_CODE":0,"TOWNNAME":"新營區","LI":"太北里","LIN":"1鄰","STREET":" ","SECT":" ","MAREA":"太子宮","LANE":" ","ALLEY":" ","HOUSE_NO":"１號之７","E_COORD97":176480.79999999999,"N_COORD97":2577209.9300000002,"ADDRESS":"太子宮１號之７","OBJECTID":289478},"geometry":{"x":176480.80000000075,"y":2577209.9300000016}},{"attributes":{"ID":289485,"DIS_CODE":0,"TOWNNAME":"新營區","LI":"太北里","LIN":"1鄰","STREET":" ","SECT":" ","MAREA":"太子宮","LANE":" ","ALLEY":" ","HOUSE_NO":"１號之８","E_COORD97":176484.89999999999,"N_COORD97":2577211.02,"ADDRESS":"太子宮１號之８","OBJECTID":289479},"geometry":{"x":176484.90000000037,"y":2577211.0199999996}},{"attributes":{"ID":289486,"DIS_CODE":0,"TOWNNAME":"新營區","LI":"太北里","LIN":"1鄰","STREET":" ","SECT":" ","MAREA":"太子宮","LANE":" ","ALLEY":" ","HOUSE_NO":"１號之１２","E_COORD97":176476.14000000001,"N_COORD97":2577255.3599999999,"ADDRESS":"太子宮１號之１２","OBJECTID":289480},"geometry":{"x":176476.14000000153,"y":2577255.3600000013}},{"attributes":{"ID":289487,"DIS_CODE":0,"TOWNNAME":"永康區","LI":"二王里","LIN":"1鄰","STREET":"中山南路","SECT":" ","MAREA":" ","LANE":" ","ALLEY":" ","HOUSE_NO":"８９８號","E_COORD97":173013.34,"N_COORD97":2546873.2999999998,"ADDRESS":"中山南路８９８號","OBJECTID":289481},"geometry":{"x":173013.34000000171,"y":2546873.3000000007}},{"attributes":{"ID":289488,"DIS_CODE":0,"TOWNNAME":"仁德區","LI":"仁義里","LIN":"21鄰","STREET":"正義路","SECT":" ","MAREA":" ","LANE":"１５７巷","ALLEY":" ","HOUSE_NO":"１６號","E_COORD97":173805.85000000001,"N_COORD97":2541438.27,"ADDRESS":"正義路１５７巷１６號","OBJECTID":289482},"geometry":{"x":173805.84999999963,"y":2541438.2699999977}},{"attributes":{"ID":289489,"DIS_CODE":0,"TOWNNAME":"仁德區","LI":"仁德里","LIN":"21鄰","STREET":"文華路","SECT":"三段","MAREA":" ","LANE":"４６７巷","ALLEY":" ","HOUSE_NO":"６號","E_COORD97":172392.67000000001,"N_COORD97":2541314.3199999998,"ADDRESS":"文華路三段４６７巷６號","OBJECTID":289483},"geometry":{"x":172392.67000000086,"y":2541314.3200000022}},{"attributes":{"ID":289490,"DIS_CODE":0,"TOWNNAME":"仁德區","LI":"仁德里","LIN":"21鄰","STREET":"文華路","SECT":"三段","MAREA":" ","LANE":"４６７巷","ALLEY":" ","HOUSE_NO":"２號","E_COORD97":172400.73999999999,"N_COORD97":2541312.5699999998,"ADDRESS":"文華路三段４６７巷２號","OBJECTID":289484},"geometry":{"x":172400.74000000209,"y":2541312.5700000022}},{"attributes":{"ID":289491,"DIS_CODE":0,"TOWNNAME":"仁德區","LI":"仁德里","LIN":"21鄰","STREET":"文華路","SECT":"三段","MAREA":" ","LANE":"４６７巷","ALLEY":" ","HOUSE_NO":"１２號","E_COORD97":172381.70999999999,"N_COORD97":2541317.3199999998,"ADDRESS":"文華路三段４６７巷１２號","OBJECTID":289485},"geometry":{"x":172381.70999999996,"y":2541317.3200000022}},{"attributes":{"ID":289492,"DIS_CODE":0,"TOWNNAME":"永康區","LI":"崑山里","LIN":"48鄰","STREET":"永華路","SECT":" ","MAREA":" ","LANE":"５２巷","ALLEY":" ","HOUSE_NO":"１０號","E_COORD97":174111.39000000001,"N_COORD97":2545238.4199999999,"ADDRESS":"永華路５２巷１０號","OBJECTID":289486},"geometry":{"x":174111.39000000153,"y":2545238.4200000037}},{"attributes":{"ID":289493,"DIS_CODE":0,"TOWNNAME":"仁德區","LI":"仁義里","LIN":"34鄰","STREET":"正義二街","SECT":" ","MAREA":" ","LANE":" ","ALLEY":" ","HOUSE_NO":"１５１號三樓","E_COORD97":173794.29999999999,"N_COORD97":2541595.0099999998,"ADDRESS":"正義二街１５１號三樓","OBJECTID":289487},"geometry":{"x":173794.29999999981,"y":2541595.0099999998}},{"attributes":{"ID":289494,"DIS_CODE":0,"TOWNNAME":"新營區","LI":"太北里","LIN":"1鄰","STREET":" ","SECT":" ","MAREA":"太子宮","LANE":" ","ALLEY":" ","HOUSE_NO":"１號之２１","E_COORD97":176298.89000000001,"N_COORD97":2577198.6600000001,"ADDRESS":"太子宮１號之２１","OBJECTID":289488},"geometry":{"x":176298.8900000006,"y":2577198.660000002}},{"attributes":{"ID":289495,"DIS_CODE":0,"TOWNNAME":"新營區","LI":"太北里","LIN":"1鄰","STREET":" ","SECT":" ","MAREA":"太子宮","LANE":" ","ALLEY":" ","HOUSE_NO":"１號之２３","E_COORD97":176307.07999999999,"N_COORD97":2577199.73,"ADDRESS":"太子宮１號之２３","OBJECTID":289489},"geometry":{"x":176307.08000000007,"y":2577199.7300000004}},{"attributes":{"ID":289496,"DIS_CODE":0,"TOWNNAME":"新營區","LI":"太北里","LIN":"1鄰","STREET":" ","SECT":" ","MAREA":"太子宮","LANE":" ","ALLEY":" ","HOUSE_NO":"２號之１","E_COORD97":176363.95000000001,"N_COORD97":2577146.27,"ADDRESS":"太子宮２號之１","OBJECTID":289490},"geometry":{"x":176363.95000000019,"y":2577146.2700000014}},{"attributes":{"ID":289497,"DIS_CODE":0,"TOWNNAME":"新營區","LI":"太北里","LIN":"1鄰","STREET":" ","SECT":" ","MAREA":"太子宮","LANE":" ","ALLEY":" ","HOUSE_NO":"２號之２","E_COORD97":176358.82000000001,"N_COORD97":2577145.1899999999,"ADDRESS":"太子宮２號之２","OBJECTID":289491},"geometry":{"x":176358.82000000123,"y":2577145.1899999995}},{"attributes":{"ID":289498,"DIS_CODE":0,"TOWNNAME":"新營區","LI":"太北里","LIN":"1鄰","STREET":" ","SECT":" ","MAREA":"太子宮","LANE":" ","ALLEY":" ","HOUSE_NO":"５號之２","E_COORD97":176353.16,"N_COORD97":2577250.4300000002,"ADDRESS":"太子宮５號之２","OBJECTID":289492},"geometry":{"x":176353.16000000108,"y":2577250.4300000016}},{"attributes":{"ID":289499,"DIS_CODE":0,"TOWNNAME":"安南區","LI":"安富里","LIN":"21鄰","STREET":"郡安路","SECT":"五段","MAREA":" ","LANE":"１７８巷","ALLEY":" ","HOUSE_NO":"８８號","E_COORD97":167548.19,"N_COORD97":2547523.6600000001,"ADDRESS":"郡安路五段１７８巷８８號","OBJECTID":289493},"geometry":{"x":167548.19000000134,"y":2547523.660000002}},{"attributes":{"ID":289500,"DIS_CODE":0,"TOWNNAME":"東區","LI":"東光里","LIN":"21鄰","STREET":"東安路","SECT":" ","MAREA":" ","LANE":"１３４巷","ALLEY":" ","HOUSE_NO":"２號","E_COORD97":170753.51000000001,"N_COORD97":2543822.7799999998,"ADDRESS":"東安路１３４巷２號","OBJECTID":289494},"geometry":{"x":170753.50999999978,"y":2543822.7800000012}},{"attributes":{"ID":289501,"DIS_CODE":0,"TOWNNAME":"東區","LI":"東光里","LIN":"21鄰","STREET":"東安路","SECT":" ","MAREA":" ","LANE":"１３４巷","ALLEY":" ","HOUSE_NO":"６號","E_COORD97":170761.67000000001,"N_COORD97":2543822.96,"ADDRESS":"東安路１３４巷６號","OBJECTID":289495},"geometry":{"x":170761.67000000179,"y":2543822.9600000028}},{"attributes":{"ID":289502,"DIS_CODE":0,"TOWNNAME":"東區","LI":"東光里","LIN":"21鄰","STREET":"東安路","SECT":" ","MAREA":" ","LANE":"１３４巷","ALLEY":" ","HOUSE_NO":"８號","E_COORD97":170765.64999999999,"N_COORD97":2543819.4100000001,"ADDRESS":"東安路１３４巷８號","OBJECTID":289496},"geometry":{"x":170765.65000000224,"y":2543819.410000002}},{"attributes":{"ID":289503,"DIS_CODE":0,"TOWNNAME":"中西區","LI":"西湖里","LIN":"38鄰","STREET":"中華西路","SECT":"二段","MAREA":" ","LANE":" ","ALLEY":" ","HOUSE_NO":"８５５號","E_COORD97":166542.72,"N_COORD97":2545210.5499999998,"ADDRESS":"中華西路二段８５５號","OBJECTID":289497},"geometry":{"x":166542.71999999974,"y":2545210.5500000007}},{"attributes":{"ID":289504,"DIS_CODE":0,"TOWNNAME":"新營區","LI":"太北里","LIN":"1鄰","STREET":" ","SECT":" ","MAREA":"太子宮","LANE":" ","ALLEY":" ","HOUSE_NO":"５號之３","E_COORD97":176354.14999999999,"N_COORD97":2577244.8900000001,"ADDRESS":"太子宮５號之３","OBJECTID":289498},"geometry":{"x":176354.15000000037,"y":2577244.8900000025}},{"attributes":{"ID":289505,"DIS_CODE":0,"TOWNNAME":"新營區","LI":"太北里","LIN":"1鄰","STREET":" ","SECT":" ","MAREA":"太子宮","LANE":" ","ALLEY":" ","HOUSE_NO":"５號之４","E_COORD97":176357.19,"N_COORD97":2577238.23,"ADDRESS":"太子宮５號之４","OBJECTID":289499},"geometry":{"x":176357.19000000041,"y":2577238.2300000004}},{"attributes":{"ID":289506,"DIS_CODE":0,"TOWNNAME":"新營區","LI":"太北里","LIN":"1鄰","STREET":" ","SECT":" ","MAREA":"太子宮","LANE":" ","ALLEY":" ","HOUSE_NO":"５號之１５","E_COORD97":176381.54999999999,"N_COORD97":2577153.9399999999,"ADDRESS":"太子宮５號之１５","OBJECTID":289500},"geometry":{"x":176381.54999999981,"y":2577153.9399999995}},{"attributes":{"ID":289507,"DIS_CODE":0,"TOWNNAME":"新營區","LI":"太北里","LIN":"1鄰","STREET":" ","SECT":" ","MAREA":"太子宮","LANE":" ","ALLEY":" ","HOUSE_NO":"１號之１０","E_COORD97":176505.63,"N_COORD97":2577218.6699999999,"ADDRESS":"太子宮１號之１０","OBJECTID":289501},"geometry":{"x":176505.63000000082,"y":2577218.6700000018}},{"attributes":{"ID":289508,"DIS_CODE":0,"TOWNNAME":"新營區","LI":"太北里","LIN":"1鄰","STREET":" ","SECT":" ","MAREA":"太子宮","LANE":" ","ALLEY":" ","HOUSE_NO":"１號之２０","E_COORD97":176295.81,"N_COORD97":2577197.5699999998,"ADDRESS":"太子宮１號之２０","OBJECTID":289502},"geometry":{"x":176295.81000000052,"y":2577197.5700000003}},{"attributes":{"ID":289509,"DIS_CODE":0,"TOWNNAME":"新營區","LI":"太北里","LIN":"1鄰","STREET":" ","SECT":" ","MAREA":"太子宮","LANE":" ","ALLEY":" ","HOUSE_NO":"１號之１１","E_COORD97":176540.38,"N_COORD97":2577212.96,"ADDRESS":"太子宮１號之１１","OBJECTID":289503},"geometry":{"x":176540.37999999989,"y":2577212.9600000009}},{"attributes":{"ID":289510,"DIS_CODE":0,"TOWNNAME":"鹽水區","LI":"南港里","LIN":"2鄰","STREET":" ","SECT":" ","MAREA":"?頭港","LANE":" ","ALLEY":" ","HOUSE_NO":"１２６號","E_COORD97":172810.06,"N_COORD97":2572512.6299999999,"ADDRESS":"?頭港１２６號","OBJECTID":289504},"geometry":{"x":172810.06000000052,"y":2572512.6300000008}},{"attributes":{"ID":289511,"DIS_CODE":0,"TOWNNAME":"東區","LI":"東光里","LIN":"21鄰","STREET":"東安路","SECT":" ","MAREA":" ","LANE":"１３４巷","ALLEY":" ","HOUSE_NO":"１０號","E_COORD97":170772.60000000001,"N_COORD97":2543824.71,"ADDRESS":"東安路１３４巷１０號","OBJECTID":289505},"geometry":{"x":170772.60000000056,"y":2543824.7100000028}},{"attributes":{"ID":289512,"DIS_CODE":0,"TOWNNAME":"安南區","LI":"長安里","LIN":"21鄰","STREET":"長溪路","SECT":"三段","MAREA":" ","LANE":"３８０巷","ALLEY":" ","HOUSE_NO":"１２７號","E_COORD97":167980.92000000001,"N_COORD97":2552249.3999999999,"ADDRESS":"長溪路三段３８０巷１２７號","OBJECTID":289506},"geometry":{"x":167980.91999999993,"y":2552249.4000000004}},{"attributes":{"ID":289513,"DIS_CODE":0,"TOWNNAME":"安南區","LI":"長安里","LIN":"21鄰","STREET":"長溪路","SECT":"三段","MAREA":" ","LANE":"３８０巷","ALLEY":" ","HOUSE_NO":"１２９號","E_COORD97":167984.16,"N_COORD97":2552252.5499999998,"ADDRESS":"長溪路三段３８０巷１２９號","OBJECTID":289507},"geometry":{"x":167984.16000000108,"y":2552252.5500000007}},{"attributes":{"ID":289514,"DIS_CODE":0,"TOWNNAME":"關廟區","LI":"龜洞里","LIN":"8鄰","STREET":"官崙街","SECT":" ","MAREA":" ","LANE":" ","ALLEY":" ","HOUSE_NO":"６８號","E_COORD97":183461.76659000001,"N_COORD97":2533345.9243200002,"ADDRESS":"官崙街６８號","OBJECTID":289508},"geometry":{"x":183461.76659000106,"y":2533345.9243150037}},{"attributes":{"ID":289515,"DIS_CODE":0,"TOWNNAME":"安南區","LI":"長安里","LIN":"21鄰","STREET":"長溪路","SECT":"三段","MAREA":" ","LANE":"３８０巷","ALLEY":" ","HOUSE_NO":"１３１號","E_COORD97":167987.5,"N_COORD97":2552255.52,"ADDRESS":"長溪路三段３８０巷１３１號","OBJECTID":289509},"geometry":{"x":167987.5,"y":2552255.5200000033}},{"attributes":{"ID":289516,"DIS_CODE":0,"TOWNNAME":"安南區","LI":"長安里","LIN":"21鄰","STREET":"長溪路","SECT":"三段","MAREA":" ","LANE":"３８０巷","ALLEY":" ","HOUSE_NO":"１３３號","E_COORD97":167991.29000000001,"N_COORD97":2552258.1099999999,"ADDRESS":"長溪路三段３８０巷１３３號","OBJECTID":289510},"geometry":{"x":167991.29000000097,"y":2552258.1100000031}},{"attributes":{"ID":289517,"DIS_CODE":0,"TOWNNAME":"安南區","LI":"長安里","LIN":"21鄰","STREET":"長溪路","SECT":"三段","MAREA":" ","LANE":"３８０巷","ALLEY":" ","HOUSE_NO":"１３５號","E_COORD97":167992.82000000001,"N_COORD97":2552265.48,"ADDRESS":"長溪路三段３８０巷１３５號","OBJECTID":289511},"geometry":{"x":167992.82000000216,"y":2552265.4800000004}},{"attributes":{"ID":289518,"DIS_CODE":0,"TOWNNAME":"鹽水區","LI":"竹埔里","LIN":"2鄰","STREET":" ","SECT":" ","MAREA":"竹子腳","LANE":" ","ALLEY":" ","HOUSE_NO":"２１號","E_COORD97":172999.35000000001,"N_COORD97":2574326.2400000002,"ADDRESS":"竹子腳２１號","OBJECTID":289512},"geometry":{"x":172999.3499999987,"y":2574326.2400000039}},{"attributes":{"ID":289519,"DIS_CODE":0,"TOWNNAME":"鹽水區","LI":"竹埔里","LIN":"2鄰","STREET":" ","SECT":" ","MAREA":"竹子腳","LANE":" ","ALLEY":" ","HOUSE_NO":"９之１號","E_COORD97":173006.97,"N_COORD97":2574443.3199999998,"ADDRESS":"竹子腳９之１號","OBJECTID":289513},"geometry":{"x":173006.96999999974,"y":2574443.3200000003}},{"attributes":{"ID":289520,"DIS_CODE":0,"TOWNNAME":"鹽水區","LI":"竹埔里","LIN":"2鄰","STREET":" ","SECT":" ","MAREA":"竹子腳","LANE":" ","ALLEY":" ","HOUSE_NO":"９號之２","E_COORD97":173004.62,"N_COORD97":2574438.2400000002,"ADDRESS":"竹子腳９號之２","OBJECTID":289514},"geometry":{"x":173004.62000000011,"y":2574438.2400000021}},{"attributes":{"ID":289521,"DIS_CODE":0,"TOWNNAME":"鹽水區","LI":"下中里","LIN":"2鄰","STREET":" ","SECT":" ","MAREA":"樹子腳","LANE":" ","ALLEY":" ","HOUSE_NO":"１號","E_COORD97":172796.01999999999,"N_COORD97":2579963.0800000001,"ADDRESS":"樹子腳１號","OBJECTID":289515},"geometry":{"x":172796.01999999955,"y":2579963.0800000019}},{"attributes":{"ID":289522,"DIS_CODE":0,"TOWNNAME":"鹽水區","LI":"下中里","LIN":"2鄰","STREET":" ","SECT":" ","MAREA":"樹子腳","LANE":" ","ALLEY":" ","HOUSE_NO":"６之４號","E_COORD97":172722.79000000001,"N_COORD97":2580016.4399999999,"ADDRESS":"樹子腳６之４號","OBJECTID":289516},"geometry":{"x":172722.79000000097,"y":2580016.4400000032}},{"attributes":{"ID":289523,"DIS_CODE":0,"TOWNNAME":"鹽水區","LI":"下中里","LIN":"2鄰","STREET":" ","SECT":" ","MAREA":"樹子腳","LANE":" ","ALLEY":" ","HOUSE_NO":"６之５號","E_COORD97":172724.64000000001,"N_COORD97":2580021.27,"ADDRESS":"樹子腳６之５號","OBJECTID":289517},"geometry":{"x":172724.64000000153,"y":2580021.2700000014}},{"attributes":{"ID":289524,"DIS_CODE":0,"TOWNNAME":"鹽水區","LI":"下中里","LIN":"2鄰","STREET":" ","SECT":" ","MAREA":"樹子腳","LANE":" ","ALLEY":" ","HOUSE_NO":"６號之５","E_COORD97":172724.64000000001,"N_COORD97":2580021.27,"ADDRESS":"樹子腳６號之５","OBJECTID":289518},"geometry":{"x":172724.64000000153,"y":2580021.2700000014}},{"attributes":{"ID":289525,"DIS_CODE":0,"TOWNNAME":"鹽水區","LI":"下中里","LIN":"2鄰","STREET":" ","SECT":" ","MAREA":"樹子腳","LANE":" ","ALLEY":" ","HOUSE_NO":"６之６號","E_COORD97":172727.19,"N_COORD97":2580024.04,"ADDRESS":"樹子腳６之６號","OBJECTID":289519},"geometry":{"x":172727.19000000134,"y":2580024.0399999991}},{"attributes":{"ID":289526,"DIS_CODE":0,"TOWNNAME":"鹽水區","LI":"下中里","LIN":"2鄰","STREET":" ","SECT":" ","MAREA":"樹子腳","LANE":" ","ALLEY":" ","HOUSE_NO":"６號之６","E_COORD97":172727.19,"N_COORD97":2580024.04,"ADDRESS":"樹子腳６號之６","OBJECTID":289520},"geometry":{"x":172727.19000000134,"y":2580024.0399999991}},{"attributes":{"ID":289527,"DIS_CODE":0,"TOWNNAME":"鹽水區","LI":"下中里","LIN":"2鄰","STREET":" ","SECT":" ","MAREA":"樹子腳","LANE":" ","ALLEY":" ","HOUSE_NO":"６號","E_COORD97":172726.60000000001,"N_COORD97":2579995.96,"ADDRESS":"樹子腳６號","OBJECTID":289521},"geometry":{"x":172726.60000000149,"y":2579995.9600000009}},{"attributes":{"ID":289528,"DIS_CODE":0,"TOWNNAME":"後壁區","LI":"墨林里","LIN":"2鄰","STREET":" ","SECT":" ","MAREA":"菁寮","LANE":" ","ALLEY":" ","HOUSE_NO":"１６０之１附１號","E_COORD97":182181.79999999999,"N_COORD97":2586669.8999999999,"ADDRESS":"菁寮１６０之１附１號","OBJECTID":289522},"geometry":{"x":182181.80000000075,"y":2586669.9000000022}},{"attributes":{"ID":289529,"DIS_CODE":0,"TOWNNAME":"七股區","LI":"?榔里","LIN":"2鄰","STREET":" ","SECT":" ","MAREA":"?榔","LANE":" ","ALLEY":" ","HOUSE_NO":"１４號之１","E_COORD97":162445.35000000001,"N_COORD97":2555401.9100000001,"ADDRESS":"?榔１４號之１","OBJECTID":289523},"geometry":{"x":162445.35000000056,"y":2555401.9100000001}},{"attributes":{"ID":289530,"DIS_CODE":0,"TOWNNAME":"七股區","LI":"?榔里","LIN":"2鄰","STREET":" ","SECT":" ","MAREA":"?榔","LANE":" ","ALLEY":" ","HOUSE_NO":"１４號之２","E_COORD97":162449.22,"N_COORD97":2555423.5,"ADDRESS":"?榔１４號之２","OBJECTID":289524},"geometry":{"x":162449.21999999974,"y":2555423.5000000019}},{"attributes":{"ID":289531,"DIS_CODE":0,"TOWNNAME":"七股區","LI":"?榔里","LIN":"2鄰","STREET":" ","SECT":" ","MAREA":"?榔","LANE":" ","ALLEY":" ","HOUSE_NO":"１４號","E_COORD97":162444.45999999999,"N_COORD97":2555381,"ADDRESS":"?榔１４號","OBJECTID":289525},"geometry":{"x":162444.45999999996,"y":2555381}},{"attributes":{"ID":289532,"DIS_CODE":0,"TOWNNAME":"七股區","LI":"?榔里","LIN":"2鄰","STREET":" ","SECT":" ","MAREA":"?榔","LANE":" ","ALLEY":" ","HOUSE_NO":"１５號之１","E_COORD97":162471.14999999999,"N_COORD97":2555398.1499999999,"ADDRESS":"?榔１５號之１","OBJECTID":289526},"geometry":{"x":162471.15000000224,"y":2555398.1499999985}},{"attributes":{"ID":289533,"DIS_CODE":0,"TOWNNAME":"七股區","LI":"?榔里","LIN":"2鄰","STREET":" ","SECT":" ","MAREA":"?榔","LANE":" ","ALLEY":" ","HOUSE_NO":"１６號之１","E_COORD97":162470.29999999999,"N_COORD97":2555445.6400000001,"ADDRESS":"?榔１６號之１","OBJECTID":289527},"geometry":{"x":162470.30000000075,"y":2555445.6400000006}},{"attributes":{"ID":289534,"DIS_CODE":0,"TOWNNAME":"七股區","LI":"?榔里","LIN":"2鄰","STREET":" ","SECT":" ","MAREA":"?榔","LANE":" ","ALLEY":" ","HOUSE_NO":"１６號之６","E_COORD97":162445.37,"N_COORD97":2555447.1099999999,"ADDRESS":"?榔１６號之６","OBJECTID":289528},"geometry":{"x":162445.37000000011,"y":2555447.1099999994}},{"attributes":{"ID":289535,"DIS_CODE":0,"TOWNNAME":"北門區","LI":"北門里","LIN":"21鄰","STREET":" ","SECT":" ","MAREA":"舊埕","LANE":" ","ALLEY":" ","HOUSE_NO":"１４７號","E_COORD97":160459.35000000001,"N_COORD97":2574383.9100000001,"ADDRESS":"舊埕１４７號","OBJECTID":289529},"geometry":{"x":160459.34999999963,"y":2574383.910000002}},{"attributes":{"ID":289536,"DIS_CODE":0,"TOWNNAME":"七股區","LI":"?榔里","LIN":"2鄰","STREET":" ","SECT":" ","MAREA":"?榔","LANE":" ","ALLEY":" ","HOUSE_NO":"１６號","E_COORD97":162470.26000000001,"N_COORD97":2555422.3900000001,"ADDRESS":"?榔１６號","OBJECTID":289530},"geometry":{"x":162470.26000000071,"y":2555422.3900000006}},{"attributes":{"ID":289537,"DIS_CODE":0,"TOWNNAME":"七股區","LI":"?榔里","LIN":"2鄰","STREET":" ","SECT":" ","MAREA":"?榔","LANE":" ","ALLEY":" ","HOUSE_NO":"１７號之１","E_COORD97":162450.98999999999,"N_COORD97":2555463.5800000001,"ADDRESS":"?榔１７號之１","OBJECTID":289531},"geometry":{"x":162450.99000000022,"y":2555463.5800000019}},{"attributes":{"ID":289538,"DIS_CODE":0,"TOWNNAME":"七股區","LI":"?榔里","LIN":"2鄰","STREET":" ","SECT":" ","MAREA":"?榔","LANE":" ","ALLEY":" ","HOUSE_NO":"１７號","E_COORD97":162469.57000000001,"N_COORD97":2555477.2999999998,"ADDRESS":"?榔１７號","OBJECTID":289532},"geometry":{"x":162469.5700000003,"y":2555477.3000000026}},{"attributes":{"ID":289539,"DIS_CODE":0,"TOWNNAME":"七股區","LI":"?榔里","LIN":"2鄰","STREET":" ","SECT":" ","MAREA":"?榔","LANE":" ","ALLEY":" ","HOUSE_NO":"１８號","E_COORD97":162491.88,"N_COORD97":2555421.7799999998,"ADDRESS":"?榔１８號","OBJECTID":289533},"geometry":{"x":162491.88000000082,"y":2555421.7800000012}},{"attributes":{"ID":289540,"DIS_CODE":0,"TOWNNAME":"七股區","LI":"?榔里","LIN":"2鄰","STREET":" ","SECT":" ","MAREA":"?榔","LANE":" ","ALLEY":" ","HOUSE_NO":"１９號","E_COORD97":162489.22,"N_COORD97":2555395.5499999998,"ADDRESS":"?榔１９號","OBJECTID":289534},"geometry":{"x":162489.22000000067,"y":2555395.5500000007}},{"attributes":{"ID":289541,"DIS_CODE":0,"TOWNNAME":"將軍區","LI":"廣山里","LIN":"5鄰","STREET":" ","SECT":" ","MAREA":"廣山","LANE":" ","ALLEY":" ","HOUSE_NO":"４６號","E_COORD97":159763.952582,"N_COORD97":2568830.6364000002,"ADDRESS":"廣山４６號","OBJECTID":289535},"geometry":{"x":159763.95258199982,"y":2568830.6363970004}},{"attributes":{"ID":289542,"DIS_CODE":0,"TOWNNAME":"北門區","LI":"錦湖里","LIN":"10鄰","STREET":" ","SECT":" ","MAREA":"渡子頭","LANE":" ","ALLEY":" ","HOUSE_NO":"９８號","E_COORD97":164960.01000000001,"N_COORD97":2577596.1899999999,"ADDRESS":"渡子頭９８號","OBJECTID":289536},"geometry":{"x":164960.01000000164,"y":2577596.1899999995}},{"attributes":{"ID":289543,"DIS_CODE":0,"TOWNNAME":"北門區","LI":"北門里","LIN":"21鄰","STREET":" ","SECT":" ","MAREA":"舊埕","LANE":" ","ALLEY":" ","HOUSE_NO":"１４８號","E_COORD97":160484.5,"N_COORD97":2574389.4100000001,"ADDRESS":"舊埕１４８號","OBJECTID":289537},"geometry":{"x":160484.5,"y":2574389.4100000039}},{"attributes":{"ID":289544,"DIS_CODE":0,"TOWNNAME":"七股區","LI":"?榔里","LIN":"2鄰","STREET":" ","SECT":" ","MAREA":"?榔","LANE":" ","ALLEY":" ","HOUSE_NO":"２１號之１","E_COORD97":162425.64000000001,"N_COORD97":2555350.8500000001,"ADDRESS":"?榔２１號之１","OBJECTID":289538},"geometry":{"x":162425.63999999966,"y":2555350.8499999996}},{"attributes":{"ID":289545,"DIS_CODE":0,"TOWNNAME":"七股區","LI":"?榔里","LIN":"2鄰","STREET":" ","SECT":" ","MAREA":"?榔","LANE":" ","ALLEY":" ","HOUSE_NO":"２１號","E_COORD97":162447.09,"N_COORD97":2555359.1400000001,"ADDRESS":"?榔２１號","OBJECTID":289539},"geometry":{"x":162447.08999999892,"y":2555359.1400000025}},{"attributes":{"ID":289546,"DIS_CODE":0,"TOWNNAME":"七股區","LI":"?埕里","LIN":"2鄰","STREET":" ","SECT":" ","MAREA":"?埕","LANE":" ","ALLEY":" ","HOUSE_NO":"２８號","E_COORD97":158385.73999999999,"N_COORD97":2561535.6699999999,"ADDRESS":"?埕２８號","OBJECTID":289540},"geometry":{"x":158385.74000000115,"y":2561535.6700000018}},{"attributes":{"ID":289547,"DIS_CODE":0,"TOWNNAME":"西港區","LI":"永樂里","LIN":"2鄰","STREET":" ","SECT":" ","MAREA":"大塭寮","LANE":" ","ALLEY":" ","HOUSE_NO":"１５號","E_COORD97":165644.07000000001,"N_COORD97":2556375.27,"ADDRESS":"大塭寮１５號","OBJECTID":289541},"geometry":{"x":165644.07000000123,"y":2556375.2699999996}},{"attributes":{"ID":289548,"DIS_CODE":0,"TOWNNAME":"西港區","LI":"永樂里","LIN":"2鄰","STREET":" ","SECT":" ","MAREA":"大塭寮","LANE":" ","ALLEY":" ","HOUSE_NO":"１６號之１","E_COORD97":165620.97,"N_COORD97":2556394.4300000002,"ADDRESS":"大塭寮１６號之１","OBJECTID":289542},"geometry":{"x":165620.96999999974,"y":2556394.4299999997}},{"attributes":{"ID":289549,"DIS_CODE":0,"TOWNNAME":"柳營區","LI":"重溪里","LIN":"2鄰","STREET":" ","SECT":" ","MAREA":"小腳腿","LANE":" ","ALLEY":" ","HOUSE_NO":"１４號之２","E_COORD97":185186.31,"N_COORD97":2576433.7799999998,"ADDRESS":"小腳腿１４號之２","OBJECTID":289543},"geometry":{"x":185186.30999999866,"y":2576433.7800000031}},{"attributes":{"ID":289550,"DIS_CODE":0,"TOWNNAME":"柳營區","LI":"重溪里","LIN":"2鄰","STREET":" ","SECT":" ","MAREA":"小腳腿","LANE":" ","ALLEY":" ","HOUSE_NO":"１４號之３","E_COORD97":185210.25,"N_COORD97":2576446.9100000001,"ADDRESS":"小腳腿１４號之３","OBJECTID":289544},"geometry":{"x":185210.25,"y":2576446.9100000001}},{"attributes":{"ID":289551,"DIS_CODE":0,"TOWNNAME":"柳營區","LI":"重溪里","LIN":"2鄰","STREET":" ","SECT":" ","MAREA":"小腳腿","LANE":" ","ALLEY":" ","HOUSE_NO":"１４號之４","E_COORD97":185210.69,"N_COORD97":2576450.8799999999,"ADDRESS":"小腳腿１４號之４","OBJECTID":289545},"geometry":{"x":185210.69000000134,"y":2576450.8800000008}},{"attributes":{"ID":289552,"DIS_CODE":0,"TOWNNAME":"將軍區","LI":"廣山里","LIN":"5鄰","STREET":" ","SECT":" ","MAREA":"廣山","LANE":" ","ALLEY":" ","HOUSE_NO":"４７號","E_COORD97":159754.84174199999,"N_COORD97":2568831.48306,"ADDRESS":"廣山４７號","OBJECTID":289546},"geometry":{"x":159754.84174200054,"y":2568831.4830629975}},{"attributes":{"ID":289553,"DIS_CODE":0,"TOWNNAME":"西港區","LI":"港東里","LIN":"2鄰","STREET":" ","SECT":" ","MAREA":"\u25A0張\u25A0","LANE":" ","ALLEY":" ","HOUSE_NO":"１３號之４","E_COORD97":169355.67999999999,"N_COORD97":2557864.9900000002,"ADDRESS":"\u25A0張\u25A0１３號之４","OBJECTID":289547},"geometry":{"x":169355.6799999997,"y":2557864.9900000021}},{"attributes":{"ID":289554,"DIS_CODE":0,"TOWNNAME":"佳里區","LI":"建南里","LIN":"3鄰","STREET":"中和街","SECT":" ","MAREA":" ","LANE":"６０巷","ALLEY":" ","HOUSE_NO":"１號","E_COORD97":165615.18303799999,"N_COORD97":2562300.33611,"ADDRESS":"中和街６０巷１號","OBJECTID":289548},"geometry":{"x":165615.18303800095,"y":2562300.3361050002}},{"attributes":{"ID":289555,"DIS_CODE":0,"TOWNNAME":"西港區","LI":"港東里","LIN":"2鄰","STREET":" ","SECT":" ","MAREA":"\u25A0張\u25A0","LANE":" ","ALLEY":" ","HOUSE_NO":"１３號之５","E_COORD97":169359.94,"N_COORD97":2557865.04,"ADDRESS":"\u25A0張\u25A0１３號之５","OBJECTID":289549},"geometry":{"x":169359.94000000041,"y":2557865.0399999991}},{"attributes":{"ID":289556,"DIS_CODE":0,"TOWNNAME":"西港區","LI":"港東里","LIN":"2鄰","STREET":" ","SECT":" ","MAREA":"\u25A0張\u25A0","LANE":" ","ALLEY":" ","HOUSE_NO":"１３號之６","E_COORD97":169364.38,"N_COORD97":2557865.5299999998,"ADDRESS":"\u25A0張\u25A0１３號之６","OBJECTID":289550},"geometry":{"x":169364.37999999989,"y":2557865.5299999993}},{"attributes":{"ID":289557,"DIS_CODE":0,"TOWNNAME":"西港區","LI":"港東里","LIN":"2鄰","STREET":" ","SECT":" ","MAREA":"\u25A0張\u25A0","LANE":" ","ALLEY":" ","HOUSE_NO":"１３號之７","E_COORD97":169368.35000000001,"N_COORD97":2557866.0099999998,"ADDRESS":"\u25A0張\u25A0１３號之７","OBJECTID":289551},"geometry":{"x":169368.35000000149,"y":2557866.0099999998}},{"attributes":{"ID":289558,"DIS_CODE":0,"TOWNNAME":"西港區","LI":"港東里","LIN":"2鄰","STREET":" ","SECT":" ","MAREA":"\u25A0張\u25A0","LANE":" ","ALLEY":" ","HOUSE_NO":"１３號之８","E_COORD97":169372.48999999999,"N_COORD97":2557866.3100000001,"ADDRESS":"\u25A0張\u25A0１３號之８","OBJECTID":289552},"geometry":{"x":169372.49000000022,"y":2557866.3100000024}},{"attributes":{"ID":289559,"DIS_CODE":0,"TOWNNAME":"西港區","LI":"港東里","LIN":"2鄰","STREET":" ","SECT":" ","MAREA":"\u25A0張\u25A0","LANE":" ","ALLEY":" ","HOUSE_NO":"１３號之９","E_COORD97":169377.04000000001,"N_COORD97":2557866.5499999998,"ADDRESS":"\u25A0張\u25A0１３號之９","OBJECTID":289553},"geometry":{"x":169377.04000000004,"y":2557866.5500000007}},{"attributes":{"ID":289560,"DIS_CODE":0,"TOWNNAME":"西港區","LI":"港東里","LIN":"2鄰","STREET":" ","SECT":" ","MAREA":"\u25A0張\u25A0","LANE":" ","ALLEY":" ","HOUSE_NO":"１６號之１８","E_COORD97":169397.20000000001,"N_COORD97":2557888.5899999999,"ADDRESS":"\u25A0張\u25A0１６號之１８","OBJECTID":289554},"geometry":{"x":169397.20000000205,"y":2557888.5899999999}},{"attributes":{"ID":289561,"DIS_CODE":0,"TOWNNAME":"西港區","LI":"港東里","LIN":"2鄰","STREET":" ","SECT":" ","MAREA":"\u25A0張\u25A0","LANE":" ","ALLEY":" ","HOUSE_NO":"１６號之１９","E_COORD97":169396.5,"N_COORD97":2557893.1099999999,"ADDRESS":"\u25A0張\u25A0１６號之１９","OBJECTID":289555},"geometry":{"x":169396.50000000186,"y":2557893.1100000031}},{"attributes":{"ID":289562,"DIS_CODE":0,"TOWNNAME":"西港區","LI":"港東里","LIN":"2鄰","STREET":" ","SECT":" ","MAREA":"\u25A0張\u25A0","LANE":" ","ALLEY":" ","HOUSE_NO":"１６號之２０","E_COORD97":169396.17000000001,"N_COORD97":2557897.0899999999,"ADDRESS":"\u25A0張\u25A0１６號之２０","OBJECTID":289556},"geometry":{"x":169396.16999999993,"y":2557897.0900000036}},{"attributes":{"ID":289563,"DIS_CODE":0,"TOWNNAME":"西港區","LI":"港東里","LIN":"2鄰","STREET":" ","SECT":" ","MAREA":"\u25A0張\u25A0","LANE":" ","ALLEY":" ","HOUSE_NO":"１６號之２１","E_COORD97":169395.66,"N_COORD97":2557902.1499999999,"ADDRESS":"\u25A0張\u25A0１６號之２１","OBJECTID":289557},"geometry":{"x":169395.66000000201,"y":2557902.1500000004}},{"attributes":{"ID":289564,"DIS_CODE":0,"TOWNNAME":"西港區","LI":"港東里","LIN":"2鄰","STREET":" ","SECT":" ","MAREA":"\u25A0張\u25A0","LANE":" ","ALLEY":" ","HOUSE_NO":"１６號之２２","E_COORD97":169395.35000000001,"N_COORD97":2557906.4199999999,"ADDRESS":"\u25A0張\u25A0１６號之２２","OBJECTID":289558},"geometry":{"x":169395.3499999987,"y":2557906.4200000018}},{"attributes":{"ID":289565,"DIS_CODE":0,"TOWNNAME":"西港區","LI":"港東里","LIN":"2鄰","STREET":" ","SECT":" ","MAREA":"\u25A0張\u25A0","LANE":" ","ALLEY":" ","HOUSE_NO":"１６號之２","E_COORD97":169440.70000000001,"N_COORD97":2557791.04,"ADDRESS":"\u25A0張\u25A0１６號之２","OBJECTID":289559},"geometry":{"x":169440.70000000019,"y":2557791.0399999991}},{"attributes":{"ID":289566,"DIS_CODE":0,"TOWNNAME":"西港區","LI":"港東里","LIN":"2鄰","STREET":" ","SECT":" ","MAREA":"\u25A0張\u25A0","LANE":" ","ALLEY":" ","HOUSE_NO":"１６號之３","E_COORD97":169403.28,"N_COORD97":2557807.9300000002,"ADDRESS":"\u25A0張\u25A0１６號之３","OBJECTID":289560},"geometry":{"x":169403.27999999933,"y":2557807.9300000016}},{"attributes":{"ID":289567,"DIS_CODE":0,"TOWNNAME":"西港區","LI":"港東里","LIN":"2鄰","STREET":" ","SECT":" ","MAREA":"\u25A0張\u25A0","LANE":" ","ALLEY":" ","HOUSE_NO":"１６號之５","E_COORD97":169398.5,"N_COORD97":2557824.3700000001,"ADDRESS":"\u25A0張\u25A0１６號之５","OBJECTID":289561},"geometry":{"x":169398.50000000093,"y":2557824.370000001}},{"attributes":{"ID":289568,"DIS_CODE":0,"TOWNNAME":"西港區","LI":"港東里","LIN":"2鄰","STREET":" ","SECT":" ","MAREA":"\u25A0張\u25A0","LANE":" ","ALLEY":" ","HOUSE_NO":"１６號之６","E_COORD97":169397.81,"N_COORD97":2557828.8999999999,"ADDRESS":"\u25A0張\u25A0１６號之６","OBJECTID":289562},"geometry":{"x":169397.81000000052,"y":2557828.9000000022}},{"attributes":{"ID":289569,"DIS_CODE":0,"TOWNNAME":"西港區","LI":"港東里","LIN":"2鄰","STREET":" ","SECT":" ","MAREA":"\u25A0張\u25A0","LANE":" ","ALLEY":" ","HOUSE_NO":"１６號之７","E_COORD97":169397.64999999999,"N_COORD97":2557833.1299999999,"ADDRESS":"\u25A0張\u25A0１６號之７","OBJECTID":289563},"geometry":{"x":169397.65000000224,"y":2557833.129999999}},{"attributes":{"ID":289570,"DIS_CODE":0,"TOWNNAME":"西港區","LI":"港東里","LIN":"2鄰","STREET":" ","SECT":" ","MAREA":"\u25A0張\u25A0","LANE":" ","ALLEY":" ","HOUSE_NO":"１６號之８","E_COORD97":169397.28,"N_COORD97":2557837.6099999999,"ADDRESS":"\u25A0張\u25A0１６號之８","OBJECTID":289564},"geometry":{"x":169397.28000000119,"y":2557837.6099999994}},{"attributes":{"ID":289571,"DIS_CODE":0,"TOWNNAME":"西港區","LI":"港東里","LIN":"2鄰","STREET":" ","SECT":" ","MAREA":"\u25A0張\u25A0","LANE":" ","ALLEY":" ","HOUSE_NO":"１６號之９","E_COORD97":169396.57999999999,"N_COORD97":2557841.5,"ADDRESS":"\u25A0張\u25A0１６號之９","OBJECTID":289565},"geometry":{"x":169396.58000000101,"y":2557841.5000000019}},{"attributes":{"ID":289572,"DIS_CODE":0,"TOWNNAME":"安南區","LI":"長安里","LIN":"21鄰","STREET":"長溪路","SECT":"三段","MAREA":" ","LANE":"３８０巷","ALLEY":" ","HOUSE_NO":"１３６號","E_COORD97":168056.17000000001,"N_COORD97":2552290.5,"ADDRESS":"長溪路三段３８０巷１３６號","OBJECTID":289566},"geometry":{"x":168056.17000000179,"y":2552290.5000000019}},{"attributes":{"ID":289573,"DIS_CODE":0,"TOWNNAME":"安南區","LI":"長安里","LIN":"21鄰","STREET":"長溪路","SECT":"三段","MAREA":" ","LANE":"３８０巷","ALLEY":" ","HOUSE_NO":"１３７號","E_COORD97":167997.16,"N_COORD97":2552268.1499999999,"ADDRESS":"長溪路三段３８０巷１３７號","OBJECTID":289567},"geometry":{"x":167997.16000000201,"y":2552268.1500000004}},{"attributes":{"ID":289574,"DIS_CODE":0,"TOWNNAME":"安南區","LI":"長安里","LIN":"21鄰","STREET":"長溪路","SECT":"三段","MAREA":" ","LANE":"３８０巷","ALLEY":" ","HOUSE_NO":"１４３號","E_COORD97":168016.29999999999,"N_COORD97":2552291.0099999998,"ADDRESS":"長溪路三段３８０巷１４３號","OBJECTID":289568},"geometry":{"x":168016.30000000075,"y":2552291.0100000016}},{"attributes":{"ID":289575,"DIS_CODE":0,"TOWNNAME":"安南區","LI":"長安里","LIN":"21鄰","STREET":"長溪路","SECT":"三段","MAREA":" ","LANE":"３８０巷","ALLEY":" ","HOUSE_NO":"１４５號","E_COORD97":168019.22,"N_COORD97":2552294.9199999999,"ADDRESS":"長溪路三段３８０巷１４５號","OBJECTID":289569},"geometry":{"x":168019.21999999974,"y":2552294.9200000018}},{"attributes":{"ID":289576,"DIS_CODE":0,"TOWNNAME":"安南區","LI":"顯宮里","LIN":"5鄰","STREET":"媽祖宮二街","SECT":" ","MAREA":" ","LANE":" ","ALLEY":" ","HOUSE_NO":"７０號","E_COORD97":160671.65343499999,"N_COORD97":2548938.0817100001,"ADDRESS":"媽祖宮二街７０號","OBJECTID":289570},"geometry":{"x":160671.65343500022,"y":2548938.0817110036}},{"attributes":{"ID":289577,"DIS_CODE":0,"TOWNNAME":"安南區","LI":"長安里","LIN":"21鄰","STREET":"長溪路","SECT":"三段","MAREA":" ","LANE":"３８０巷","ALLEY":" ","HOUSE_NO":"１４７號","E_COORD97":168015.14999999999,"N_COORD97":2552343.0600000001,"ADDRESS":"長溪路三段３８０巷１４７號","OBJECTID":289571},"geometry":{"x":168015.1500000013,"y":2552343.0600000005}},{"attributes":{"ID":289578,"DIS_CODE":0,"TOWNNAME":"安南區","LI":"長安里","LIN":"21鄰","STREET":"長溪路","SECT":"三段","MAREA":" ","LANE":"３８０巷","ALLEY":" ","HOUSE_NO":"１４９號","E_COORD97":167999.82999999999,"N_COORD97":2552335.77,"ADDRESS":"長溪路三段３８０巷１４９號","OBJECTID":289572},"geometry":{"x":167999.83000000101,"y":2552335.7700000014}},{"attributes":{"ID":289579,"DIS_CODE":0,"TOWNNAME":"安南區","LI":"長安里","LIN":"21鄰","STREET":"長溪路","SECT":"三段","MAREA":" ","LANE":"３８０巷","ALLEY":" ","HOUSE_NO":"１５７號","E_COORD97":167980.53,"N_COORD97":2552369.46,"ADDRESS":"長溪路三段３８０巷１５７號","OBJECTID":289573},"geometry":{"x":167980.53000000026,"y":2552369.4600000028}},{"attributes":{"ID":289580,"DIS_CODE":0,"TOWNNAME":"安南區","LI":"長安里","LIN":"21鄰","STREET":"長溪路","SECT":"三段","MAREA":" ","LANE":"３８０巷","ALLEY":" ","HOUSE_NO":"１６４號","E_COORD97":167962.48999999999,"N_COORD97":2552395.6400000001,"ADDRESS":"長溪路三段３８０巷１６４號","OBJECTID":289574},"geometry":{"x":167962.49000000022,"y":2552395.6400000025}},{"attributes":{"ID":289581,"DIS_CODE":0,"TOWNNAME":"永康區","LI":"網寮里","LIN":"21鄰","STREET":"文化路","SECT":" ","MAREA":" ","LANE":"２４２巷","ALLEY":" ","HOUSE_NO":"３０之１號","E_COORD97":173571.28,"N_COORD97":2546192.0299999998,"ADDRESS":"文化路２４２巷３０之１號","OBJECTID":289575},"geometry":{"x":173571.28000000026,"y":2546192.0299999993}},{"attributes":{"ID":289582,"DIS_CODE":0,"TOWNNAME":"永康區","LI":"網寮里","LIN":"21鄰","STREET":"文化路","SECT":" ","MAREA":" ","LANE":"２４２巷","ALLEY":" ","HOUSE_NO":"２８之１６號","E_COORD97":173613.32999999999,"N_COORD97":2546182.3300000001,"ADDRESS":"文化路２４２巷２８之１６號","OBJECTID":289576},"geometry":{"x":173613.33000000007,"y":2546182.3300000019}},{"attributes":{"ID":289583,"DIS_CODE":0,"TOWNNAME":"北門區","LI":"鯤江里","LIN":"10鄰","STREET":" ","SECT":" ","MAREA":"新圍","LANE":" ","ALLEY":" ","HOUSE_NO":"１５號","E_COORD97":163144.35999999999,"N_COORD97":2576977.5,"ADDRESS":"新圍１５號","OBJECTID":289577},"geometry":{"x":163144.3600000022,"y":2576977.5}},{"attributes":{"ID":289584,"DIS_CODE":0,"TOWNNAME":"永康區","LI":"網寮里","LIN":"21鄰","STREET":"文化路","SECT":" ","MAREA":" ","LANE":"２４２巷","ALLEY":" ","HOUSE_NO":"３０之６號","E_COORD97":173571.28,"N_COORD97":2546192.0299999998,"ADDRESS":"文化路２４２巷３０之６號","OBJECTID":289578},"geometry":{"x":173571.28000000026,"y":2546192.0299999993}},{"attributes":{"ID":289585,"DIS_CODE":0,"TOWNNAME":"永康區","LI":"網寮里","LIN":"21鄰","STREET":"文化路","SECT":" ","MAREA":" ","LANE":"２６１巷","ALLEY":" ","HOUSE_NO":"２７號","E_COORD97":173645.45999999999,"N_COORD97":2546108.7000000002,"ADDRESS":"文化路２６１巷２７號","OBJECTID":289579},"geometry":{"x":173645.46000000089,"y":2546108.7000000011}},{"attributes":{"ID":289586,"DIS_CODE":0,"TOWNNAME":"永康區","LI":"網寮里","LIN":"21鄰","STREET":"文化路","SECT":" ","MAREA":" ","LANE":"２７９巷","ALLEY":" ","HOUSE_NO":"６號","E_COORD97":173519.81,"N_COORD97":2546098.0800000001,"ADDRESS":"文化路２７９巷６號","OBJECTID":289580},"geometry":{"x":173519.80999999959,"y":2546098.0800000001}},{"attributes":{"ID":289587,"DIS_CODE":0,"TOWNNAME":"永康區","LI":"網寮里","LIN":"21鄰","STREET":"文化路","SECT":" ","MAREA":" ","LANE":"２４２巷","ALLEY":" ","HOUSE_NO":"３２之１５號","E_COORD97":173563.42999999999,"N_COORD97":2546197.79,"ADDRESS":"文化路２４２巷３２之１５號","OBJECTID":289581},"geometry":{"x":173563.43000000156,"y":2546197.7899999972}},{"attributes":{"ID":289588,"DIS_CODE":0,"TOWNNAME":"永康區","LI":"網寮里","LIN":"21鄰","STREET":"文化路","SECT":" ","MAREA":" ","LANE":"２４２巷","ALLEY":" ","HOUSE_NO":"２８之１５號","E_COORD97":173613.32999999999,"N_COORD97":2546182.3300000001,"ADDRESS":"文化路２４２巷２８之１５號","OBJECTID":289582},"geometry":{"x":173613.33000000007,"y":2546182.3300000019}},{"attributes":{"ID":289589,"DIS_CODE":0,"TOWNNAME":"永康區","LI":"網寮里","LIN":"21鄰","STREET":"文化路","SECT":" ","MAREA":" ","LANE":"２４２巷","ALLEY":" ","HOUSE_NO":"３０之１０號","E_COORD97":173572.53,"N_COORD97":2546192.0299999998,"ADDRESS":"文化路２４２巷３０之１０號","OBJECTID":289583},"geometry":{"x":173572.53000000119,"y":2546192.0299999993}},{"attributes":{"ID":289590,"DIS_CODE":0,"TOWNNAME":"善化區","LI":"胡厝里","LIN":"21鄰","STREET":"興農路","SECT":" ","MAREA":" ","LANE":"３７０巷","ALLEY":" ","HOUSE_NO":"３號","E_COORD97":175439.88,"N_COORD97":2559058.5099999998,"ADDRESS":"興農路３７０巷３號","OBJECTID":289584},"geometry":{"x":175439.87999999989,"y":2559058.5100000016}},{"attributes":{"ID":289591,"DIS_CODE":0,"TOWNNAME":"永康區","LI":"二王里","LIN":"21鄰","STREET":"中山南路","SECT":" ","MAREA":" ","LANE":"５４４巷","ALLEY":" ","HOUSE_NO":"４５號","E_COORD97":172302.54999999999,"N_COORD97":2546515.8300000001,"ADDRESS":"中山南路５４４巷４５號","OBJECTID":289585},"geometry":{"x":172302.54999999981,"y":2546515.8300000001}},{"attributes":{"ID":289592,"DIS_CODE":0,"TOWNNAME":"永康區","LI":"復國里","LIN":"21鄰","STREET":"復國一路","SECT":" ","MAREA":" ","LANE":"３４７巷","ALLEY":" ","HOUSE_NO":"１２號","E_COORD97":172724.95000000001,"N_COORD97":2545809.7799999998,"ADDRESS":"復國一路３４７巷１２號","OBJECTID":289586},"geometry":{"x":172724.95000000112,"y":2545809.7800000012}},{"attributes":{"ID":289593,"DIS_CODE":0,"TOWNNAME":"新市區","LI":"港墘里","LIN":"21鄰","STREET":"華美街","SECT":" ","MAREA":" ","LANE":"７巷","ALLEY":" ","HOUSE_NO":"２７號","E_COORD97":178020.60000000001,"N_COORD97":2552780.0499999998,"ADDRESS":"華美街７巷２７號","OBJECTID":289587},"geometry":{"x":178020.60000000149,"y":2552780.0500000026}},{"attributes":{"ID":289594,"DIS_CODE":0,"TOWNNAME":"新市區","LI":"港墘里","LIN":"21鄰","STREET":"南昌街","SECT":" ","MAREA":" ","LANE":"１１巷","ALLEY":" ","HOUSE_NO":"１５號","E_COORD97":177956.88,"N_COORD97":2552775,"ADDRESS":"南昌街１１巷１５號","OBJECTID":289588},"geometry":{"x":177956.88000000082,"y":2552775.0000000037}},{"attributes":{"ID":289595,"DIS_CODE":0,"TOWNNAME":"仁德區","LI":"仁義里","LIN":"34鄰","STREET":"正義二街","SECT":" ","MAREA":" ","LANE":" ","ALLEY":" ","HOUSE_NO":"１５３號一樓","E_COORD97":173807.57999999999,"N_COORD97":2541602.5099999998,"ADDRESS":"正義二街１５３號一樓","OBJECTID":289589},"geometry":{"x":173807.58000000101,"y":2541602.5099999998}},{"attributes":{"ID":289596,"DIS_CODE":0,"TOWNNAME":"北門區","LI":"玉港里","LIN":"2鄰","STREET":" ","SECT":" ","MAREA":"灰\u25A0港","LANE":" ","ALLEY":" ","HOUSE_NO":"１６號","E_COORD97":161838.73999999999,"N_COORD97":2573755.5699999998,"ADDRESS":"灰\u25A0港１６號","OBJECTID":289590},"geometry":{"x":161838.74000000115,"y":2573755.5700000022}},{"attributes":{"ID":289597,"DIS_CODE":0,"TOWNNAME":"北門區","LI":"玉港里","LIN":"2鄰","STREET":" ","SECT":" ","MAREA":"灰\u25A0港","LANE":" ","ALLEY":" ","HOUSE_NO":"１７號","E_COORD97":161832.76999999999,"N_COORD97":2573726.98,"ADDRESS":"灰\u25A0港１７號","OBJECTID":289591},"geometry":{"x":161832.77000000048,"y":2573726.9800000004}},{"attributes":{"ID":289598,"DIS_CODE":0,"TOWNNAME":"北門區","LI":"玉港里","LIN":"2鄰","STREET":" ","SECT":" ","MAREA":"灰\u25A0港","LANE":" ","ALLEY":" ","HOUSE_NO":"２０號","E_COORD97":161869.85000000001,"N_COORD97":2573730.6699999999,"ADDRESS":"灰\u25A0港２０號","OBJECTID":289592},"geometry":{"x":161869.84999999963,"y":2573730.6700000018}},{"attributes":{"ID":289599,"DIS_CODE":0,"TOWNNAME":"後壁區","LI":"後部里","LIN":"2鄰","STREET":" ","SECT":" ","MAREA":"後部","LANE":" ","ALLEY":" ","HOUSE_NO":"１１號","E_COORD97":182218.91,"N_COORD97":2586813.2200000002,"ADDRESS":"後部１１號","OBJECTID":289593},"geometry":{"x":182218.91000000015,"y":2586813.2199999988}},{"attributes":{"ID":289600,"DIS_CODE":0,"TOWNNAME":"後壁區","LI":"後部里","LIN":"2鄰","STREET":" ","SECT":" ","MAREA":"後部","LANE":" ","ALLEY":" ","HOUSE_NO":"１２號","E_COORD97":182205.51999999999,"N_COORD97":2586835.02,"ADDRESS":"後部１２號","OBJECTID":289594},"geometry":{"x":182205.52000000048,"y":2586835.0200000014}},{"attributes":{"ID":289601,"DIS_CODE":0,"TOWNNAME":"後壁區","LI":"後部里","LIN":"2鄰","STREET":" ","SECT":" ","MAREA":"後部","LANE":" ","ALLEY":" ","HOUSE_NO":"１３號","E_COORD97":182219.98000000001,"N_COORD97":2586848.54,"ADDRESS":"後部１３號","OBJECTID":289595},"geometry":{"x":182219.98000000138,"y":2586848.540000001}},{"attributes":{"ID":289602,"DIS_CODE":0,"TOWNNAME":"後壁區","LI":"後部里","LIN":"2鄰","STREET":" ","SECT":" ","MAREA":"後部","LANE":" ","ALLEY":" ","HOUSE_NO":"１４號","E_COORD97":182206.78,"N_COORD97":2586876.5,"ADDRESS":"後部１４號","OBJECTID":289596},"geometry":{"x":182206.78000000026,"y":2586876.5000000019}},{"attributes":{"ID":289603,"DIS_CODE":0,"TOWNNAME":"後壁區","LI":"後部里","LIN":"2鄰","STREET":" ","SECT":" ","MAREA":"後部","LANE":" ","ALLEY":" ","HOUSE_NO":"１５號","E_COORD97":182166.28,"N_COORD97":2586848.52,"ADDRESS":"後部１５號","OBJECTID":289597},"geometry":{"x":182166.28000000026,"y":2586848.5200000014}},{"attributes":{"ID":289604,"DIS_CODE":0,"TOWNNAME":"後壁區","LI":"後部里","LIN":"2鄰","STREET":" ","SECT":" ","MAREA":"後部","LANE":" ","ALLEY":" ","HOUSE_NO":"１６號","E_COORD97":182152.10999999999,"N_COORD97":2586840.4300000002,"ADDRESS":"後部１６號","OBJECTID":289598},"geometry":{"x":182152.11000000034,"y":2586840.4299999997}},{"attributes":{"ID":289605,"DIS_CODE":0,"TOWNNAME":"後壁區","LI":"後部里","LIN":"2鄰","STREET":" ","SECT":" ","MAREA":"後部","LANE":" ","ALLEY":" ","HOUSE_NO":"１７號","E_COORD97":182146.67999999999,"N_COORD97":2586867.6699999999,"ADDRESS":"後部１７號","OBJECTID":289599},"geometry":{"x":182146.68000000063,"y":2586867.6700000018}},{"attributes":{"ID":289606,"DIS_CODE":0,"TOWNNAME":"後壁區","LI":"後部里","LIN":"2鄰","STREET":" ","SECT":" ","MAREA":"後部","LANE":" ","ALLEY":" ","HOUSE_NO":"１８號","E_COORD97":182171.22,"N_COORD97":2586892.6400000001,"ADDRESS":"後部１８號","OBJECTID":289600},"geometry":{"x":182171.21999999974,"y":2586892.6400000025}}]}