{"displayFieldName":"TOWNNAME","fieldAliases":{"ID":"ID","DIS_CODE":"DIS_CODE","TOWNNAME":"TOWNNAME","LI":"LI","LIN":"LIN","STREET":"STREET","SECT":"SECT","MAREA":"MAREA","LANE":"LANE","ALLEY":"ALLEY","HOUSE_NO":"HOUSE_NO","E_COORD97":"E_COORD97","N_COORD97":"N_COORD97","ADDRESS":"ADDRESS","OBJECTID":"OBJECTID"},"geometryType":"esriGeometryPoint","spatialReference":{"wkid":102443,"latestWkid":3826},"fields":[{"name":"ID","type":"esriFieldTypeDouble","alias":"ID"},{"name":"DIS_CODE","type":"esriFieldTypeInteger","alias":"DIS_CODE"},{"name":"TOWNNAME","type":"esriFieldTypeString","alias":"TOWNNAME","length":8},{"name":"LI","type":"esriFieldTypeString","alias":"LI","length":8},{"name":"LIN","type":"esriFieldTypeString","alias":"LIN","length":12},{"name":"STREET","type":"esriFieldTypeString","alias":"STREET","length":20},{"name":"SECT","type":"esriFieldTypeString","alias":"SECT","length":8},{"name":"MAREA","type":"esriFieldTypeString","alias":"MAREA","length":12},{"name":"LANE","type":"esriFieldTypeString","alias":"LANE","length":10},{"name":"ALLEY","type":"esriFieldTypeString","alias":"ALLEY","length":10},{"name":"HOUSE_NO","type":"esriFieldTypeString","alias":"HOUSE_NO","length":20},{"name":"E_COORD97","type":"esriFieldTypeDouble","alias":"E_COORD97"},{"name":"N_COORD97","type":"esriFieldTypeDouble","alias":"N_COORD97"},{"name":"ADDRESS","type":"esriFieldTypeString","alias":"ADDRESS","length":50},{"name":"OBJECTID","type":"esriFieldTypeOID","alias":"OBJECTID"}],"features":[{"attributes":{"ID":517228,"DIS_CODE":0,"TOWNNAME":"新化區","LI":"太平里","LIN":"1鄰","STREET":"中正路","SECT":" ","MAREA":" ","LANE":" ","ALLEY":" ","HOUSE_NO":"５０６號之７","E_COORD97":179007.54999999999,"N_COORD97":2548743.2599999998,"ADDRESS":"中正路５０６號之７","OBJECTID":517201},"geometry":{"x":179007.54999999981,"y":2548743.2600000016}},{"attributes":{"ID":517229,"DIS_CODE":0,"TOWNNAME":"新化區","LI":"觀音里","LIN":"1鄰","STREET":"中正路","SECT":" ","MAREA":" ","LANE":" ","ALLEY":" ","HOUSE_NO":"４５７號","E_COORD97":179064.91,"N_COORD97":2548477.25,"ADDRESS":"中正路４５７號","OBJECTID":517202},"geometry":{"x":179064.91000000201,"y":2548477.2499999981}},{"attributes":{"ID":517230,"DIS_CODE":0,"TOWNNAME":"新化區","LI":"協興里","LIN":"1鄰","STREET":"正新路","SECT":" ","MAREA":" ","LANE":" ","ALLEY":" ","HOUSE_NO":"２５６號","E_COORD97":178585.32000000001,"N_COORD97":2548567.25,"ADDRESS":"正新路２５６號","OBJECTID":517203},"geometry":{"x":178585.3200000003,"y":2548567.2500000019}},{"attributes":{"ID":517231,"DIS_CODE":0,"TOWNNAME":"新化區","LI":"協興里","LIN":"1鄰","STREET":"正新路","SECT":" ","MAREA":" ","LANE":" ","ALLEY":" ","HOUSE_NO":"２６８號","E_COORD97":178579.22,"N_COORD97":2548591.25,"ADDRESS":"正新路２６８號","OBJECTID":517204},"geometry":{"x":178579.21999999881,"y":2548591.25}},{"attributes":{"ID":517232,"DIS_CODE":0,"TOWNNAME":"新化區","LI":"太平里","LIN":"1鄰","STREET":"中正路","SECT":" ","MAREA":" ","LANE":" ","ALLEY":" ","HOUSE_NO":"５０６號之６","E_COORD97":179007.56,"N_COORD97":2548743.2599999998,"ADDRESS":"中正路５０６號之６","OBJECTID":517205},"geometry":{"x":179007.56000000145,"y":2548743.2600000016}},{"attributes":{"ID":517233,"DIS_CODE":0,"TOWNNAME":"新化區","LI":"中央里","LIN":"1鄰","STREET":"信義路","SECT":" ","MAREA":" ","LANE":" ","ALLEY":" ","HOUSE_NO":"２５６號","E_COORD97":179049.42999999999,"N_COORD97":2548314.25,"ADDRESS":"信義路２５６號","OBJECTID":517206},"geometry":{"x":179049.43000000063,"y":2548314.25}},{"attributes":{"ID":517234,"DIS_CODE":0,"TOWNNAME":"新化區","LI":"東榮里","LIN":"1鄰","STREET":"中興路","SECT":" ","MAREA":" ","LANE":" ","ALLEY":" ","HOUSE_NO":"１２６號","E_COORD97":181707.20999999999,"N_COORD97":2547328.25,"ADDRESS":"中興路１２６號","OBJECTID":517207},"geometry":{"x":181707.21000000183,"y":2547328.2500000037}},{"attributes":{"ID":517235,"DIS_CODE":0,"TOWNNAME":"新化區","LI":"協興里","LIN":"1鄰","STREET":"正新路","SECT":" ","MAREA":" ","LANE":" ","ALLEY":" ","HOUSE_NO":"２６６號","E_COORD97":178578.42000000001,"N_COORD97":2548586.25,"ADDRESS":"正新路２６６號","OBJECTID":517208},"geometry":{"x":178578.42000000086,"y":2548586.2500000037}},{"attributes":{"ID":517236,"DIS_CODE":0,"TOWNNAME":"新化區","LI":"協興里","LIN":"1鄰","STREET":"正新路","SECT":" ","MAREA":" ","LANE":" ","ALLEY":" ","HOUSE_NO":"２８９號","E_COORD97":178547.42000000001,"N_COORD97":2548685.25,"ADDRESS":"正新路２８９號","OBJECTID":517209},"geometry":{"x":178547.41999999993,"y":2548685.2500000019}},{"attributes":{"ID":517237,"DIS_CODE":0,"TOWNNAME":"新化區","LI":"太平里","LIN":"1鄰","STREET":"中正路","SECT":" ","MAREA":" ","LANE":" ","ALLEY":" ","HOUSE_NO":"５１６號之１","E_COORD97":179014.54000000001,"N_COORD97":2548768.2599999998,"ADDRESS":"中正路５１６號之１","OBJECTID":517210},"geometry":{"x":179014.54000000004,"y":2548768.2599999998}},{"attributes":{"ID":517238,"DIS_CODE":0,"TOWNNAME":"新化區","LI":"協興里","LIN":"1鄰","STREET":"正新路","SECT":" ","MAREA":" ","LANE":" ","ALLEY":" ","HOUSE_NO":"２６２號","E_COORD97":178572.82000000001,"N_COORD97":2548579.25,"ADDRESS":"正新路２６２號","OBJECTID":517211},"geometry":{"x":178572.82000000123,"y":2548579.2500000037}},{"attributes":{"ID":517239,"DIS_CODE":0,"TOWNNAME":"新化區","LI":"觀音里","LIN":"1鄰","STREET":"中正路","SECT":" ","MAREA":" ","LANE":" ","ALLEY":" ","HOUSE_NO":"４４５號","E_COORD97":179073.51000000001,"N_COORD97":2548445.25,"ADDRESS":"中正路４４５號","OBJECTID":517212},"geometry":{"x":179073.50999999978,"y":2548445.2500000019}},{"attributes":{"ID":517240,"DIS_CODE":0,"TOWNNAME":"新化區","LI":"竹林里","LIN":"1鄰","STREET":"民權街","SECT":" ","MAREA":" ","LANE":" ","ALLEY":" ","HOUSE_NO":"７６號","E_COORD97":178752.56,"N_COORD97":2548623.25,"ADDRESS":"民權街７６號","OBJECTID":517213},"geometry":{"x":178752.55999999959,"y":2548623.2500000037}},{"attributes":{"ID":517241,"DIS_CODE":0,"TOWNNAME":"新化區","LI":"竹林里","LIN":"1鄰","STREET":"民權街","SECT":" ","MAREA":" ","LANE":" ","ALLEY":" ","HOUSE_NO":"７８號","E_COORD97":178752.56,"N_COORD97":2548627.25,"ADDRESS":"民權街７８號","OBJECTID":517214},"geometry":{"x":178752.55999999959,"y":2548627.2500000019}},{"attributes":{"ID":517242,"DIS_CODE":0,"TOWNNAME":"東區","LI":"東智里","LIN":"1鄰","STREET":"東智街","SECT":" ","MAREA":" ","LANE":" ","ALLEY":" ","HOUSE_NO":"３２號","E_COORD97":170930.64999999999,"N_COORD97":2540393.9300000002,"ADDRESS":"東智街３２號","OBJECTID":517215},"geometry":{"x":170930.6500000013,"y":2540393.9300000016}},{"attributes":{"ID":517243,"DIS_CODE":0,"TOWNNAME":"新化區","LI":"中央里","LIN":"1鄰","STREET":"信義路","SECT":" ","MAREA":" ","LANE":" ","ALLEY":" ","HOUSE_NO":"２５２號","E_COORD97":179053.13,"N_COORD97":2548314.25,"ADDRESS":"信義路２５２號","OBJECTID":517216},"geometry":{"x":179053.13000000175,"y":2548314.25}},{"attributes":{"ID":517244,"DIS_CODE":0,"TOWNNAME":"新化區","LI":"中央里","LIN":"1鄰","STREET":"信義路","SECT":" ","MAREA":" ","LANE":" ","ALLEY":" ","HOUSE_NO":"２５０號","E_COORD97":179054.92999999999,"N_COORD97":2548314.25,"ADDRESS":"信義路２５０號","OBJECTID":517217},"geometry":{"x":179054.93000000063,"y":2548314.25}},{"attributes":{"ID":517245,"DIS_CODE":0,"TOWNNAME":"新化區","LI":"竹林里","LIN":"1鄰","STREET":"民權街","SECT":" ","MAREA":" ","LANE":" ","ALLEY":" ","HOUSE_NO":"６０號之１","E_COORD97":178756.69,"N_COORD97":2548579.2599999998,"ADDRESS":"民權街６０號之１","OBJECTID":517218},"geometry":{"x":178756.69000000134,"y":2548579.2600000016}},{"attributes":{"ID":517246,"DIS_CODE":0,"TOWNNAME":"新化區","LI":"竹林里","LIN":"1鄰","STREET":"民權街","SECT":" ","MAREA":" ","LANE":" ","ALLEY":" ","HOUSE_NO":"６２號","E_COORD97":178752.26000000001,"N_COORD97":2548585.25,"ADDRESS":"民權街６２號","OBJECTID":517219},"geometry":{"x":178752.26000000071,"y":2548585.25}},{"attributes":{"ID":517247,"DIS_CODE":0,"TOWNNAME":"新化區","LI":"東榮里","LIN":"1鄰","STREET":"中興路","SECT":" ","MAREA":" ","LANE":" ","ALLEY":" ","HOUSE_NO":"２１６號","E_COORD97":181488.01000000001,"N_COORD97":2547317.25,"ADDRESS":"中興路２１６號","OBJECTID":517220},"geometry":{"x":181488.01000000164,"y":2547317.25}},{"attributes":{"ID":517248,"DIS_CODE":0,"TOWNNAME":"新化區","LI":"觀音里","LIN":"1鄰","STREET":"中正路","SECT":" ","MAREA":" ","LANE":" ","ALLEY":" ","HOUSE_NO":"４５１號","E_COORD97":179068.10999999999,"N_COORD97":2548463.25,"ADDRESS":"中正路４５１號","OBJECTID":517221},"geometry":{"x":179068.11000000034,"y":2548463.25}},{"attributes":{"ID":517249,"DIS_CODE":0,"TOWNNAME":"新化區","LI":"護國里","LIN":"1鄰","STREET":"中正路","SECT":" ","MAREA":" ","LANE":" ","ALLEY":" ","HOUSE_NO":"４０２號","E_COORD97":179082.91,"N_COORD97":2548448.25,"ADDRESS":"中正路４０２號","OBJECTID":517222},"geometry":{"x":179082.91000000015,"y":2548448.2500000019}},{"attributes":{"ID":517250,"DIS_CODE":0,"TOWNNAME":"新化區","LI":"竹林里","LIN":"1鄰","STREET":"竹林路","SECT":" ","MAREA":" ","LANE":" ","ALLEY":" ","HOUSE_NO":"８５號","E_COORD97":178816.48000000001,"N_COORD97":2548627.25,"ADDRESS":"竹林路８５號","OBJECTID":517223},"geometry":{"x":178816.48000000045,"y":2548627.2500000019}},{"attributes":{"ID":517251,"DIS_CODE":0,"TOWNNAME":"善化區","LI":"南關里","LIN":"1鄰","STREET":"平等路","SECT":" ","MAREA":" ","LANE":" ","ALLEY":" ","HOUSE_NO":"７６號","E_COORD97":177133.12,"N_COORD97":2558975.75,"ADDRESS":"平等路７６號","OBJECTID":517224},"geometry":{"x":177133.12000000104,"y":2558975.7500000019}},{"attributes":{"ID":517252,"DIS_CODE":0,"TOWNNAME":"新化區","LI":"竹林里","LIN":"1鄰","STREET":"竹林路","SECT":" ","MAREA":" ","LANE":" ","ALLEY":" ","HOUSE_NO":"７９號","E_COORD97":178818.38,"N_COORD97":2548613.25,"ADDRESS":"竹林路７９號","OBJECTID":517225},"geometry":{"x":178818.37999999989,"y":2548613.2500000037}},{"attributes":{"ID":517253,"DIS_CODE":0,"TOWNNAME":"新化區","LI":"協興里","LIN":"1鄰","STREET":"正新路","SECT":" ","MAREA":" ","LANE":" ","ALLEY":" ","HOUSE_NO":"２８２號","E_COORD97":178569.12,"N_COORD97":2548674.25,"ADDRESS":"正新路２８２號","OBJECTID":517226},"geometry":{"x":178569.12000000104,"y":2548674.2500000037}},{"attributes":{"ID":517254,"DIS_CODE":0,"TOWNNAME":"新化區","LI":"唪口里","LIN":"1鄰","STREET":"大德路","SECT":" ","MAREA":" ","LANE":" ","ALLEY":" ","HOUSE_NO":"５３號","E_COORD97":178340.48000000001,"N_COORD97":2549362.25,"ADDRESS":"大德路５３號","OBJECTID":517227},"geometry":{"x":178340.48000000045,"y":2549362.2499999981}},{"attributes":{"ID":517255,"DIS_CODE":0,"TOWNNAME":"新化區","LI":"竹林里","LIN":"1鄰","STREET":"竹林路","SECT":" ","MAREA":" ","LANE":" ","ALLEY":" ","HOUSE_NO":"６７號","E_COORD97":178822.78,"N_COORD97":2548585.25,"ADDRESS":"竹林路６７號","OBJECTID":517228},"geometry":{"x":178822.78000000026,"y":2548585.25}},{"attributes":{"ID":517256,"DIS_CODE":0,"TOWNNAME":"新化區","LI":"竹林里","LIN":"1鄰","STREET":"竹林路","SECT":" ","MAREA":" ","LANE":" ","ALLEY":" ","HOUSE_NO":"８１號","E_COORD97":178817.98000000001,"N_COORD97":2548618.25,"ADDRESS":"竹林路８１號","OBJECTID":517229},"geometry":{"x":178817.98000000138,"y":2548618.25}},{"attributes":{"ID":517257,"DIS_CODE":0,"TOWNNAME":"新化區","LI":"清水里","LIN":"1鄰","STREET":"和平街","SECT":" ","MAREA":" ","LANE":" ","ALLEY":" ","HOUSE_NO":"１９９號","E_COORD97":178883.92000000001,"N_COORD97":2548369.25,"ADDRESS":"和平街１９９號","OBJECTID":517230},"geometry":{"x":178883.92000000086,"y":2548369.2500000037}},{"attributes":{"ID":517258,"DIS_CODE":0,"TOWNNAME":"新化區","LI":"豐榮里","LIN":"1鄰","STREET":"大智路","SECT":" ","MAREA":" ","LANE":" ","ALLEY":" ","HOUSE_NO":"３３號","E_COORD97":178340.79000000001,"N_COORD97":2548375.2400000002,"ADDRESS":"大智路３３號","OBJECTID":517231},"geometry":{"x":178340.79000000097,"y":2548375.2400000002}},{"attributes":{"ID":517259,"DIS_CODE":0,"TOWNNAME":"新化區","LI":"豐榮里","LIN":"1鄰","STREET":"大智路","SECT":" ","MAREA":" ","LANE":" ","ALLEY":" ","HOUSE_NO":"１２號","E_COORD97":178322.57000000001,"N_COORD97":2548421.3199999998,"ADDRESS":"大智路１２號","OBJECTID":517232},"geometry":{"x":178322.5700000003,"y":2548421.3200000022}},{"attributes":{"ID":517260,"DIS_CODE":0,"TOWNNAME":"新化區","LI":"豐榮里","LIN":"1鄰","STREET":"中山路","SECT":" ","MAREA":" ","LANE":" ","ALLEY":" ","HOUSE_NO":"６１５號","E_COORD97":178238.75,"N_COORD97":2548474.6400000001,"ADDRESS":"中山路６１５號","OBJECTID":517233},"geometry":{"x":178238.75000000186,"y":2548474.6400000006}},{"attributes":{"ID":517261,"DIS_CODE":0,"TOWNNAME":"東區","LI":"東智里","LIN":"1鄰","STREET":"東智街","SECT":" ","MAREA":" ","LANE":" ","ALLEY":" ","HOUSE_NO":"３０號","E_COORD97":170935.31,"N_COORD97":2540393.7200000002,"ADDRESS":"東智街３０號","OBJECTID":517234},"geometry":{"x":170935.31000000052,"y":2540393.7200000025}},{"attributes":{"ID":517262,"DIS_CODE":0,"TOWNNAME":"東區","LI":"東智里","LIN":"1鄰","STREET":"東智街","SECT":" ","MAREA":" ","LANE":" ","ALLEY":" ","HOUSE_NO":"３２號","E_COORD97":170886.14999999999,"N_COORD97":2540384.4100000001,"ADDRESS":"東智街３２號","OBJECTID":517235},"geometry":{"x":170886.1500000013,"y":2540384.410000002}},{"attributes":{"ID":517263,"DIS_CODE":0,"TOWNNAME":"北區","LI":"新勝里","LIN":"1鄰","STREET":"開元路","SECT":" ","MAREA":" ","LANE":" ","ALLEY":" ","HOUSE_NO":"３５５之６號","E_COORD97":170312.31,"N_COORD97":2545492.5699999998,"ADDRESS":"開元路３５５之６號","OBJECTID":517236},"geometry":{"x":170312.30999999959,"y":2545492.5700000022}},{"attributes":{"ID":517264,"DIS_CODE":0,"TOWNNAME":"北區","LI":"振興里","LIN":"1鄰","STREET":"開元路","SECT":" ","MAREA":" ","LANE":" ","ALLEY":" ","HOUSE_NO":"１３０號","E_COORD97":169955,"N_COORD97":2545238.25,"ADDRESS":"開元路１３０號","OBJECTID":517237},"geometry":{"x":169955.00000000093,"y":2545238.25}},{"attributes":{"ID":517265,"DIS_CODE":0,"TOWNNAME":"北區","LI":"振興里","LIN":"1鄰","STREET":"開元路","SECT":" ","MAREA":" ","LANE":" ","ALLEY":" ","HOUSE_NO":"１３４號","E_COORD97":169963.57000000001,"N_COORD97":2545241.48,"ADDRESS":"開元路１３４號","OBJECTID":517238},"geometry":{"x":169963.5700000003,"y":2545241.4800000004}},{"attributes":{"ID":517266,"DIS_CODE":0,"TOWNNAME":"北區","LI":"振興里","LIN":"1鄰","STREET":"開元路","SECT":" ","MAREA":" ","LANE":" ","ALLEY":" ","HOUSE_NO":"１２８號","E_COORD97":169949.97,"N_COORD97":2545236.3799999999,"ADDRESS":"開元路１２８號","OBJECTID":517239},"geometry":{"x":169949.96999999974,"y":2545236.379999999}},{"attributes":{"ID":517267,"DIS_CODE":0,"TOWNNAME":"北區","LI":"華興里","LIN":"1鄰","STREET":"開元路","SECT":" ","MAREA":" ","LANE":" ","ALLEY":" ","HOUSE_NO":"２８６號","E_COORD97":170315.42999999999,"N_COORD97":2545433.75,"ADDRESS":"開元路２８６號","OBJECTID":517240},"geometry":{"x":170315.43000000156,"y":2545433.7500000019}},{"attributes":{"ID":517268,"DIS_CODE":0,"TOWNNAME":"玉井區","LI":"中正里","LIN":"1鄰","STREET":"中正路","SECT":" ","MAREA":" ","LANE":" ","ALLEY":" ","HOUSE_NO":"３２１號","E_COORD97":195246.73999999999,"N_COORD97":2558427.25,"ADDRESS":"中正路３２１號","OBJECTID":517241},"geometry":{"x":195246.74000000209,"y":2558427.25}},{"attributes":{"ID":517269,"DIS_CODE":0,"TOWNNAME":"安平區","LI":"平安里","LIN":"1鄰","STREET":"安平路","SECT":" ","MAREA":" ","LANE":" ","ALLEY":" ","HOUSE_NO":"２號","E_COORD97":166574.57999999999,"N_COORD97":2544321.8399999999,"ADDRESS":"安平路２號","OBJECTID":517242},"geometry":{"x":166574.58000000007,"y":2544321.8399999999}},{"attributes":{"ID":517270,"DIS_CODE":0,"TOWNNAME":"安平區","LI":"國平里","LIN":"1鄰","STREET":"建平七街","SECT":" ","MAREA":" ","LANE":" ","ALLEY":" ","HOUSE_NO":"３９０號","E_COORD97":165584.32999999999,"N_COORD97":2543340.5099999998,"ADDRESS":"建平七街３９０號","OBJECTID":517243},"geometry":{"x":165584.33000000101,"y":2543340.5100000016}},{"attributes":{"ID":517271,"DIS_CODE":0,"TOWNNAME":"永康區","LI":"\u25A0洲里","LIN":"1鄰","STREET":"仁愛街","SECT":" ","MAREA":" ","LANE":" ","ALLEY":" ","HOUSE_NO":"３７號","E_COORD97":171963.32999999999,"N_COORD97":2549296.6200000001,"ADDRESS":"仁愛街３７號","OBJECTID":517244},"geometry":{"x":171963.33000000101,"y":2549296.6200000048}},{"attributes":{"ID":517272,"DIS_CODE":0,"TOWNNAME":"永康區","LI":"\u25A0洲里","LIN":"1鄰","STREET":"三村一街","SECT":" ","MAREA":" ","LANE":" ","ALLEY":" ","HOUSE_NO":"１７２號","E_COORD97":171919.89999999999,"N_COORD97":2549296.25,"ADDRESS":"三村一街１７２號","OBJECTID":517245},"geometry":{"x":171919.90000000037,"y":2549296.2500000019}},{"attributes":{"ID":517273,"DIS_CODE":0,"TOWNNAME":"永康區","LI":"\u25A0洲里","LIN":"1鄰","STREET":"三村一街","SECT":" ","MAREA":" ","LANE":" ","ALLEY":" ","HOUSE_NO":"１７６號","E_COORD97":171914.70000000001,"N_COORD97":2549298.3799999999,"ADDRESS":"三村一街１７６號","OBJECTID":517246},"geometry":{"x":171914.70000000112,"y":2549298.379999999}},{"attributes":{"ID":517274,"DIS_CODE":0,"TOWNNAME":"永康區","LI":"大灣里","LIN":"1鄰","STREET":"大同街","SECT":" ","MAREA":" ","LANE":" ","ALLEY":" ","HOUSE_NO":"２１９號","E_COORD97":174773.98000000001,"N_COORD97":2545782.2000000002,"ADDRESS":"大同街２１９號","OBJECTID":517247},"geometry":{"x":174773.98000000045,"y":2545782.2000000011}},{"attributes":{"ID":517275,"DIS_CODE":0,"TOWNNAME":"永康區","LI":"\u25A0洲里","LIN":"1鄰","STREET":"仁愛街","SECT":" ","MAREA":" ","LANE":" ","ALLEY":" ","HOUSE_NO":"３１號","E_COORD97":171960.98000000001,"N_COORD97":2549274.5699999998,"ADDRESS":"仁愛街３１號","OBJECTID":517248},"geometry":{"x":171960.98000000138,"y":2549274.5700000003}},{"attributes":{"ID":517276,"DIS_CODE":0,"TOWNNAME":"永康區","LI":"\u25A0洲里","LIN":"1鄰","STREET":"仁愛街","SECT":" ","MAREA":" ","LANE":" ","ALLEY":" ","HOUSE_NO":"３９號","E_COORD97":171971.97,"N_COORD97":2549299.9700000002,"ADDRESS":"仁愛街３９號","OBJECTID":517249},"geometry":{"x":171971.97000000067,"y":2549299.9700000007}},{"attributes":{"ID":517277,"DIS_CODE":0,"TOWNNAME":"永康區","LI":"\u25A0洲里","LIN":"1鄰","STREET":"三村一街","SECT":" ","MAREA":" ","LANE":" ","ALLEY":" ","HOUSE_NO":"１６８號","E_COORD97":171930.92999999999,"N_COORD97":2549291.7200000002,"ADDRESS":"三村一街１６８號","OBJECTID":517250},"geometry":{"x":171930.92999999877,"y":2549291.7200000007}},{"attributes":{"ID":517278,"DIS_CODE":0,"TOWNNAME":"永康區","LI":"\u25A0洲里","LIN":"1鄰","STREET":"仁愛街","SECT":" ","MAREA":" ","LANE":" ","ALLEY":" ","HOUSE_NO":"３３號","E_COORD97":171958.47,"N_COORD97":2549284.9900000002,"ADDRESS":"仁愛街３３號","OBJECTID":517251},"geometry":{"x":171958.47000000067,"y":2549284.9900000002}},{"attributes":{"ID":517279,"DIS_CODE":0,"TOWNNAME":"永康區","LI":"\u25A0洲里","LIN":"1鄰","STREET":"三村一街","SECT":" ","MAREA":" ","LANE":" ","ALLEY":" ","HOUSE_NO":"１８０號","E_COORD97":171901.66,"N_COORD97":2549300.73,"ADDRESS":"三村一街１８０號","OBJECTID":517252},"geometry":{"x":171901.66000000108,"y":2549300.7300000004}},{"attributes":{"ID":517280,"DIS_CODE":0,"TOWNNAME":"永康區","LI":"五王里","LIN":"1鄰","STREET":"中華二路","SECT":" ","MAREA":" ","LANE":" ","ALLEY":" ","HOUSE_NO":"２０８號","E_COORD97":171585.20000000001,"N_COORD97":2545449.52,"ADDRESS":"中華二路２０８號","OBJECTID":517253},"geometry":{"x":171585.20000000019,"y":2545449.5199999996}},{"attributes":{"ID":517281,"DIS_CODE":0,"TOWNNAME":"永康區","LI":"\u25A0洲里","LIN":"1鄰","STREET":"仁愛街","SECT":" ","MAREA":" ","LANE":" ","ALLEY":" ","HOUSE_NO":"３５號","E_COORD97":171961.70999999999,"N_COORD97":2549292.7400000002,"ADDRESS":"仁愛街３５號","OBJECTID":517254},"geometry":{"x":171961.71000000183,"y":2549292.7400000021}},{"attributes":{"ID":517282,"DIS_CODE":0,"TOWNNAME":"永康區","LI":"\u25A0洲里","LIN":"1鄰","STREET":"三村一街","SECT":" ","MAREA":" ","LANE":" ","ALLEY":" ","HOUSE_NO":"１７０號","E_COORD97":171925.69,"N_COORD97":2549295.0699999998,"ADDRESS":"三村一街１７０號","OBJECTID":517255},"geometry":{"x":171925.69000000134,"y":2549295.0700000003}},{"attributes":{"ID":517283,"DIS_CODE":0,"TOWNNAME":"永康區","LI":"\u25A0行里","LIN":"1鄰","STREET":"中正北路","SECT":" ","MAREA":" ","LANE":" ","ALLEY":" ","HOUSE_NO":"５６號","E_COORD97":172044.91,"N_COORD97":2549030.4199999999,"ADDRESS":"中正北路５６號","OBJECTID":517256},"geometry":{"x":172044.91000000015,"y":2549030.4200000018}},{"attributes":{"ID":517284,"DIS_CODE":0,"TOWNNAME":"永康區","LI":"神洲里","LIN":"1鄰","STREET":"忠孝路","SECT":" ","MAREA":" ","LANE":" ","ALLEY":" ","HOUSE_NO":"２之１號","E_COORD97":172093.70999999999,"N_COORD97":2544570.54,"ADDRESS":"忠孝路２之１號","OBJECTID":517257},"geometry":{"x":172093.70999999903,"y":2544570.540000001}},{"attributes":{"ID":517285,"DIS_CODE":0,"TOWNNAME":"東區","LI":"東智里","LIN":"1鄰","STREET":"東智街","SECT":" ","MAREA":" ","LANE":" ","ALLEY":" ","HOUSE_NO":"２２號","E_COORD97":170947.60000000001,"N_COORD97":2540394.3500000001,"ADDRESS":"東智街２２號","OBJECTID":517258},"geometry":{"x":170947.59999999963,"y":2540394.3500000015}},{"attributes":{"ID":517286,"DIS_CODE":0,"TOWNNAME":"東區","LI":"東智里","LIN":"1鄰","STREET":"東智街","SECT":" ","MAREA":" ","LANE":" ","ALLEY":" ","HOUSE_NO":"２８號","E_COORD97":170940.19,"N_COORD97":2540394.1400000001,"ADDRESS":"東智街２８號","OBJECTID":517259},"geometry":{"x":170940.19000000134,"y":2540394.1400000025}},{"attributes":{"ID":517287,"DIS_CODE":0,"TOWNNAME":"東區","LI":"東智里","LIN":"1鄰","STREET":"東智街","SECT":" ","MAREA":" ","LANE":" ","ALLEY":" ","HOUSE_NO":"３８號","E_COORD97":170921.32999999999,"N_COORD97":2540393.2999999998,"ADDRESS":"東智街３８號","OBJECTID":517260},"geometry":{"x":170921.33000000007,"y":2540393.3000000026}},{"attributes":{"ID":517288,"DIS_CODE":0,"TOWNNAME":"安平區","LI":"海頭里","LIN":"1鄰","STREET":"延平街","SECT":" ","MAREA":" ","LANE":" ","ALLEY":" ","HOUSE_NO":"８８號","E_COORD97":164184.32999999999,"N_COORD97":2544606.7599999998,"ADDRESS":"延平街８８號","OBJECTID":517261},"geometry":{"x":164184.33000000007,"y":2544606.7600000016}},{"attributes":{"ID":517289,"DIS_CODE":0,"TOWNNAME":"新營區","LI":"延平里","LIN":"1鄰","STREET":"延平路","SECT":" ","MAREA":" ","LANE":" ","ALLEY":" ","HOUSE_NO":"４６之１５號","E_COORD97":179728.92999999999,"N_COORD97":2577806.27,"ADDRESS":"延平路４６之１５號","OBJECTID":517262},"geometry":{"x":179728.93000000156,"y":2577806.2699999996}},{"attributes":{"ID":517290,"DIS_CODE":0,"TOWNNAME":"官田區","LI":"二鎮里","LIN":"1鄰","STREET":"工業路","SECT":" ","MAREA":" ","LANE":" ","ALLEY":" ","HOUSE_NO":"４５號","E_COORD97":180773.98000000001,"N_COORD97":2568478.0499999998,"ADDRESS":"工業路４５號","OBJECTID":517263},"geometry":{"x":180773.98000000138,"y":2568478.0500000007}},{"attributes":{"ID":517291,"DIS_CODE":0,"TOWNNAME":"官田區","LI":"二鎮里","LIN":"1鄰","STREET":"建業路","SECT":" ","MAREA":" ","LANE":" ","ALLEY":" ","HOUSE_NO":"５１號","E_COORD97":180589.45999999999,"N_COORD97":2567663.7000000002,"ADDRESS":"建業路５１號","OBJECTID":517264},"geometry":{"x":180589.45999999996,"y":2567663.7000000011}},{"attributes":{"ID":517292,"DIS_CODE":0,"TOWNNAME":"官田區","LI":"二鎮里","LIN":"1鄰","STREET":"實踐街","SECT":" ","MAREA":" ","LANE":" ","ALLEY":" ","HOUSE_NO":"６號","E_COORD97":180880.78,"N_COORD97":2566987.1499999999,"ADDRESS":"實踐街６號","OBJECTID":517265},"geometry":{"x":180880.78000000026,"y":2566987.1500000022}},{"attributes":{"ID":517293,"DIS_CODE":0,"TOWNNAME":"官田區","LI":"二鎮里","LIN":"1鄰","STREET":"實踐街","SECT":" ","MAREA":" ","LANE":" ","ALLEY":" ","HOUSE_NO":"９號","E_COORD97":180961.17999999999,"N_COORD97":2567089.2400000002,"ADDRESS":"實踐街９號","OBJECTID":517266},"geometry":{"x":180961.17999999877,"y":2567089.2400000021}},{"attributes":{"ID":517294,"DIS_CODE":0,"TOWNNAME":"官田區","LI":"二鎮里","LIN":"1鄰","STREET":"鎮中路","SECT":" ","MAREA":" ","LANE":" ","ALLEY":" ","HOUSE_NO":"２號","E_COORD97":180963.16,"N_COORD97":2567749.6600000001,"ADDRESS":"鎮中路２號","OBJECTID":517267},"geometry":{"x":180963.16000000015,"y":2567749.660000002}},{"attributes":{"ID":517295,"DIS_CODE":0,"TOWNNAME":"東區","LI":"德光里","LIN":"1鄰","STREET":"林森路","SECT":"一段","MAREA":" ","LANE":" ","ALLEY":" ","HOUSE_NO":"２１４號","E_COORD97":169720.60999999999,"N_COORD97":2542534.3799999999,"ADDRESS":"林森路一段２１４號","OBJECTID":517268},"geometry":{"x":169720.61000000127,"y":2542534.379999999}},{"attributes":{"ID":517296,"DIS_CODE":0,"TOWNNAME":"東區","LI":"德光里","LIN":"1鄰","STREET":"林森路","SECT":"一段","MAREA":" ","LANE":" ","ALLEY":" ","HOUSE_NO":"２１６號","E_COORD97":169725.29000000001,"N_COORD97":2542535.5899999999,"ADDRESS":"林森路一段２１６號","OBJECTID":517269},"geometry":{"x":169725.2900000019,"y":2542535.5900000017}},{"attributes":{"ID":517297,"DIS_CODE":0,"TOWNNAME":"東區","LI":"德光里","LIN":"1鄰","STREET":"林森路","SECT":"一段","MAREA":" ","LANE":" ","ALLEY":" ","HOUSE_NO":"２１８號","E_COORD97":169728.82999999999,"N_COORD97":2542537.9100000001,"ADDRESS":"林森路一段２１８號","OBJECTID":517270},"geometry":{"x":169728.83000000101,"y":2542537.910000002}},{"attributes":{"ID":517298,"DIS_CODE":0,"TOWNNAME":"東區","LI":"德光里","LIN":"1鄰","STREET":"林森路","SECT":"一段","MAREA":" ","LANE":" ","ALLEY":" ","HOUSE_NO":"２２０號","E_COORD97":169732.45000000001,"N_COORD97":2542538.6600000001,"ADDRESS":"林森路一段２２０號","OBJECTID":517271},"geometry":{"x":169732.45000000019,"y":2542538.660000002}},{"attributes":{"ID":517299,"DIS_CODE":0,"TOWNNAME":"東區","LI":"德光里","LIN":"1鄰","STREET":"林森路","SECT":"一段","MAREA":" ","LANE":" ","ALLEY":" ","HOUSE_NO":"２２２號","E_COORD97":169736.38,"N_COORD97":2542540.6299999999,"ADDRESS":"林森路一段２２２號","OBJECTID":517272},"geometry":{"x":169736.38000000175,"y":2542540.6300000027}},{"attributes":{"ID":517300,"DIS_CODE":0,"TOWNNAME":"東區","LI":"德光里","LIN":"1鄰","STREET":"林森路","SECT":"一段","MAREA":" ","LANE":" ","ALLEY":" ","HOUSE_NO":"２２４號","E_COORD97":169745.70999999999,"N_COORD97":2542543.77,"ADDRESS":"林森路一段２２４號","OBJECTID":517273},"geometry":{"x":169745.70999999996,"y":2542543.7700000033}},{"attributes":{"ID":517301,"DIS_CODE":0,"TOWNNAME":"東區","LI":"德光里","LIN":"1鄰","STREET":"崇明一街","SECT":" ","MAREA":" ","LANE":" ","ALLEY":" ","HOUSE_NO":"５７號","E_COORD97":169690.45999999999,"N_COORD97":2542494.25,"ADDRESS":"崇明一街５７號","OBJECTID":517274},"geometry":{"x":169690.46000000089,"y":2542494.2500000019}},{"attributes":{"ID":517302,"DIS_CODE":0,"TOWNNAME":"東區","LI":"德光里","LIN":"1鄰","STREET":"崇明一街","SECT":" ","MAREA":" ","LANE":" ","ALLEY":" ","HOUSE_NO":"５９號","E_COORD97":169694.69,"N_COORD97":2542495.6099999999,"ADDRESS":"崇明一街５９號","OBJECTID":517275},"geometry":{"x":169694.69000000134,"y":2542495.6099999994}},{"attributes":{"ID":517303,"DIS_CODE":0,"TOWNNAME":"東區","LI":"德光里","LIN":"1鄰","STREET":"崇明一街","SECT":" ","MAREA":" ","LANE":" ","ALLEY":" ","HOUSE_NO":"６１號","E_COORD97":169699.07000000001,"N_COORD97":2542496.8100000001,"ADDRESS":"崇明一街６１號","OBJECTID":517276},"geometry":{"x":169699.0700000003,"y":2542496.8099999987}},{"attributes":{"ID":517304,"DIS_CODE":0,"TOWNNAME":"東區","LI":"德光里","LIN":"1鄰","STREET":"崇明一街","SECT":" ","MAREA":" ","LANE":" ","ALLEY":" ","HOUSE_NO":"６３號","E_COORD97":169702.69,"N_COORD97":2542498.4700000002,"ADDRESS":"崇明一街６３號","OBJECTID":517277},"geometry":{"x":169702.69000000134,"y":2542498.4700000007}},{"attributes":{"ID":517305,"DIS_CODE":0,"TOWNNAME":"東區","LI":"德光里","LIN":"1鄰","STREET":"崇明一街","SECT":" ","MAREA":" ","LANE":" ","ALLEY":" ","HOUSE_NO":"６５號","E_COORD97":169706.01000000001,"N_COORD97":2542499.3799999999,"ADDRESS":"崇明一街６５號","OBJECTID":517278},"geometry":{"x":169706.00999999978,"y":2542499.3800000008}},{"attributes":{"ID":517306,"DIS_CODE":0,"TOWNNAME":"東區","LI":"德光里","LIN":"1鄰","STREET":"崇明一街","SECT":" ","MAREA":" ","LANE":" ","ALLEY":" ","HOUSE_NO":"６７號","E_COORD97":169709.94,"N_COORD97":2542500.7400000002,"ADDRESS":"崇明一街６７號","OBJECTID":517279},"geometry":{"x":169709.94000000134,"y":2542500.7400000039}},{"attributes":{"ID":517307,"DIS_CODE":0,"TOWNNAME":"東區","LI":"德光里","LIN":"1鄰","STREET":"崇明一街","SECT":" ","MAREA":" ","LANE":" ","ALLEY":" ","HOUSE_NO":"６９號","E_COORD97":169714.01999999999,"N_COORD97":2542502.2400000002,"ADDRESS":"崇明一街６９號","OBJECTID":517280},"geometry":{"x":169714.01999999955,"y":2542502.2400000021}},{"attributes":{"ID":517308,"DIS_CODE":0,"TOWNNAME":"東區","LI":"德光里","LIN":"1鄰","STREET":"崇明一街","SECT":" ","MAREA":" ","LANE":" ","ALLEY":" ","HOUSE_NO":"７１號","E_COORD97":169717.94,"N_COORD97":2542503.6000000001,"ADDRESS":"崇明一街７１號","OBJECTID":517281},"geometry":{"x":169717.94000000134,"y":2542503.5999999996}},{"attributes":{"ID":517309,"DIS_CODE":0,"TOWNNAME":"東區","LI":"德光里","LIN":"1鄰","STREET":"崇明一街","SECT":" ","MAREA":" ","LANE":" ","ALLEY":" ","HOUSE_NO":"７３號","E_COORD97":169721.42000000001,"N_COORD97":2542505.2599999998,"ADDRESS":"崇明一街７３號","OBJECTID":517282},"geometry":{"x":169721.42000000086,"y":2542505.2599999998}},{"attributes":{"ID":517310,"DIS_CODE":0,"TOWNNAME":"東區","LI":"德光里","LIN":"1鄰","STREET":"崇明一街","SECT":" ","MAREA":" ","LANE":" ","ALLEY":" ","HOUSE_NO":"７５號","E_COORD97":169726.10000000001,"N_COORD97":2542506.4700000002,"ADDRESS":"崇明一街７５號","OBJECTID":517283},"geometry":{"x":169726.10000000149,"y":2542506.4700000044}},{"attributes":{"ID":517311,"DIS_CODE":0,"TOWNNAME":"東區","LI":"德光里","LIN":"1鄰","STREET":"崇明一街","SECT":" ","MAREA":" ","LANE":" ","ALLEY":" ","HOUSE_NO":"７７號","E_COORD97":169729.57000000001,"N_COORD97":2542507.8199999998,"ADDRESS":"崇明一街７７號","OBJECTID":517284},"geometry":{"x":169729.5700000003,"y":2542507.8200000022}},{"attributes":{"ID":517312,"DIS_CODE":0,"TOWNNAME":"東區","LI":"德光里","LIN":"1鄰","STREET":"崇明一街","SECT":" ","MAREA":" ","LANE":" ","ALLEY":" ","HOUSE_NO":"７９號","E_COORD97":169733.19,"N_COORD97":2542509.1800000002,"ADDRESS":"崇明一街７９號","OBJECTID":517285},"geometry":{"x":169733.19000000134,"y":2542509.1799999997}},{"attributes":{"ID":517313,"DIS_CODE":0,"TOWNNAME":"東區","LI":"德光里","LIN":"1鄰","STREET":"崇明一街","SECT":" ","MAREA":" ","LANE":" ","ALLEY":" ","HOUSE_NO":"８１號","E_COORD97":169737.12,"N_COORD97":2542510.54,"ADDRESS":"崇明一街８１號","OBJECTID":517286},"geometry":{"x":169737.12000000104,"y":2542510.5399999991}},{"attributes":{"ID":517314,"DIS_CODE":0,"TOWNNAME":"東區","LI":"德光里","LIN":"1鄰","STREET":"崇明一街","SECT":" ","MAREA":" ","LANE":" ","ALLEY":" ","HOUSE_NO":"８３號","E_COORD97":169740.75,"N_COORD97":2542512.0499999998,"ADDRESS":"崇明一街８３號","OBJECTID":517287},"geometry":{"x":169740.75000000186,"y":2542512.0500000007}},{"attributes":{"ID":517315,"DIS_CODE":0,"TOWNNAME":"東區","LI":"德光里","LIN":"1鄰","STREET":"崇明路","SECT":" ","MAREA":" ","LANE":" ","ALLEY":" ","HOUSE_NO":"１１號","E_COORD97":169653.03,"N_COORD97":2542480.1299999999,"ADDRESS":"崇明路１１號","OBJECTID":517288},"geometry":{"x":169653.03000000119,"y":2542480.1300000008}},{"attributes":{"ID":517316,"DIS_CODE":0,"TOWNNAME":"東區","LI":"德光里","LIN":"1鄰","STREET":"崇明路","SECT":" ","MAREA":" ","LANE":" ","ALLEY":" ","HOUSE_NO":"１３號","E_COORD97":169656.70999999999,"N_COORD97":2542476.9500000002,"ADDRESS":"崇明路１３號","OBJECTID":517289},"geometry":{"x":169656.71000000089,"y":2542476.9499999993}},{"attributes":{"ID":517317,"DIS_CODE":0,"TOWNNAME":"東區","LI":"德光里","LIN":"1鄰","STREET":"崇明路","SECT":" ","MAREA":" ","LANE":" ","ALLEY":" ","HOUSE_NO":"１號","E_COORD97":169640.87,"N_COORD97":2542499.1099999999,"ADDRESS":"崇明路１號","OBJECTID":517290},"geometry":{"x":169640.87000000011,"y":2542499.1099999994}},{"attributes":{"ID":517318,"DIS_CODE":0,"TOWNNAME":"東區","LI":"德光里","LIN":"1鄰","STREET":"崇明路","SECT":" ","MAREA":" ","LANE":" ","ALLEY":" ","HOUSE_NO":"３號","E_COORD97":169644.44,"N_COORD97":2542494.1000000001,"ADDRESS":"崇明路３號","OBJECTID":517291},"geometry":{"x":169644.44000000041,"y":2542494.1000000034}},{"attributes":{"ID":517319,"DIS_CODE":0,"TOWNNAME":"東區","LI":"德光里","LIN":"1鄰","STREET":"崇明路","SECT":" ","MAREA":" ","LANE":" ","ALLEY":" ","HOUSE_NO":"５號","E_COORD97":169646.89999999999,"N_COORD97":2542490.6699999999,"ADDRESS":"崇明路５號","OBJECTID":517292},"geometry":{"x":169646.90000000224,"y":2542490.6700000037}},{"attributes":{"ID":517320,"DIS_CODE":0,"TOWNNAME":"東區","LI":"德光里","LIN":"1鄰","STREET":"崇明路","SECT":" ","MAREA":" ","LANE":" ","ALLEY":" ","HOUSE_NO":"７號","E_COORD97":169648.37,"N_COORD97":2542487.73,"ADDRESS":"崇明路７號","OBJECTID":517293},"geometry":{"x":169648.37000000197,"y":2542487.7300000023}},{"attributes":{"ID":517321,"DIS_CODE":0,"TOWNNAME":"東區","LI":"德光里","LIN":"1鄰","STREET":"崇明路","SECT":" ","MAREA":" ","LANE":" ","ALLEY":" ","HOUSE_NO":"９號","E_COORD97":169650.82000000001,"N_COORD97":2542483.8100000001,"ADDRESS":"崇明路９號","OBJECTID":517294},"geometry":{"x":169650.82000000123,"y":2542483.8100000024}},{"attributes":{"ID":517322,"DIS_CODE":0,"TOWNNAME":"東區","LI":"德光里","LIN":"1鄰","STREET":"崇德路","SECT":" ","MAREA":" ","LANE":" ","ALLEY":" ","HOUSE_NO":"１０號","E_COORD97":169751.22,"N_COORD97":2542517.0099999998,"ADDRESS":"崇德路１０號","OBJECTID":517295},"geometry":{"x":169751.22000000067,"y":2542517.0099999998}},{"attributes":{"ID":517323,"DIS_CODE":0,"TOWNNAME":"東區","LI":"德光里","LIN":"1鄰","STREET":"崇德路","SECT":" ","MAREA":" ","LANE":" ","ALLEY":" ","HOUSE_NO":"１２號","E_COORD97":169753.31,"N_COORD97":2542512.8300000001,"ADDRESS":"崇德路１２號","OBJECTID":517296},"geometry":{"x":169753.30999999866,"y":2542512.8300000001}},{"attributes":{"ID":517324,"DIS_CODE":0,"TOWNNAME":"東山區","LI":"東中里","LIN":"24鄰","STREET":"東仁街","SECT":" ","MAREA":" ","LANE":" ","ALLEY":" ","HOUSE_NO":"６７號","E_COORD97":188746.39999999999,"N_COORD97":2579848.48,"ADDRESS":"東仁街６７號","OBJECTID":517297},"geometry":{"x":188746.39999999944,"y":2579848.4800000023}},{"attributes":{"ID":517325,"DIS_CODE":0,"TOWNNAME":"學甲區","LI":"仁得里","LIN":"1鄰","STREET":"八德街","SECT":" ","MAREA":" ","LANE":" ","ALLEY":" ","HOUSE_NO":"１６號","E_COORD97":166334.73999999999,"N_COORD97":2569708.29,"ADDRESS":"八德街１６號","OBJECTID":517298},"geometry":{"x":166334.74000000022,"y":2569708.290000001}},{"attributes":{"ID":517326,"DIS_CODE":0,"TOWNNAME":"南區","LI":"文華里","LIN":"1鄰","STREET":"永華路","SECT":"一段","MAREA":" ","LANE":" ","ALLEY":" ","HOUSE_NO":"２５５號","E_COORD97":167023.42000000001,"N_COORD97":2543217.9700000002,"ADDRESS":"永華路一段２５５號","OBJECTID":517299},"geometry":{"x":167023.41999999993,"y":2543217.9700000007}},{"attributes":{"ID":517327,"DIS_CODE":0,"TOWNNAME":"南區","LI":"文華里","LIN":"1鄰","STREET":"永華路","SECT":"一段","MAREA":" ","LANE":" ","ALLEY":" ","HOUSE_NO":"２６３號","E_COORD97":167004.60999999999,"N_COORD97":2543222.23,"ADDRESS":"永華路一段２６３號","OBJECTID":517300},"geometry":{"x":167004.61000000127,"y":2543222.2300000004}},{"attributes":{"ID":517328,"DIS_CODE":0,"TOWNNAME":"南區","LI":"文華里","LIN":"1鄰","STREET":"永華路","SECT":"一段","MAREA":" ","LANE":" ","ALLEY":" ","HOUSE_NO":"２６７號","E_COORD97":166994.64999999999,"N_COORD97":2543224.2000000002,"ADDRESS":"永華路一段２６７號","OBJECTID":517301},"geometry":{"x":166994.6500000013,"y":2543224.1999999993}},{"attributes":{"ID":517329,"DIS_CODE":0,"TOWNNAME":"南區","LI":"日新里","LIN":"1鄰","STREET":"金華路","SECT":"一段","MAREA":" ","LANE":" ","ALLEY":" ","HOUSE_NO":"３９７號","E_COORD97":166979.87,"N_COORD97":2541207.8199999998,"ADDRESS":"金華路一段３９７號","OBJECTID":517302},"geometry":{"x":166979.87000000011,"y":2541207.8200000003}},{"attributes":{"ID":517330,"DIS_CODE":0,"TOWNNAME":"南區","LI":"日新里","LIN":"1鄰","STREET":"金華路","SECT":"一段","MAREA":" ","LANE":" ","ALLEY":" ","HOUSE_NO":"３９９號","E_COORD97":166982.17999999999,"N_COORD97":2541214.5800000001,"ADDRESS":"金華路一段３９９號","OBJECTID":517303},"geometry":{"x":166982.1799999997,"y":2541214.5800000019}},{"attributes":{"ID":517331,"DIS_CODE":0,"TOWNNAME":"南區","LI":"日新里","LIN":"1鄰","STREET":"金華路","SECT":"一段","MAREA":" ","LANE":" ","ALLEY":" ","HOUSE_NO":"４０１號","E_COORD97":166982.44,"N_COORD97":2541219.54,"ADDRESS":"金華路一段４０１號","OBJECTID":517304},"geometry":{"x":166982.44000000134,"y":2541219.540000001}},{"attributes":{"ID":517332,"DIS_CODE":0,"TOWNNAME":"南區","LI":"日新里","LIN":"1鄰","STREET":"金華路","SECT":"一段","MAREA":" ","LANE":" ","ALLEY":" ","HOUSE_NO":"４０３號","E_COORD97":166982.87,"N_COORD97":2541223.48,"ADDRESS":"金華路一段４０３號","OBJECTID":517305},"geometry":{"x":166982.87000000011,"y":2541223.4800000004}},{"attributes":{"ID":517333,"DIS_CODE":0,"TOWNNAME":"南區","LI":"日新里","LIN":"1鄰","STREET":"金華路","SECT":"一段","MAREA":" ","LANE":" ","ALLEY":" ","HOUSE_NO":"４０５號","E_COORD97":166972.41,"N_COORD97":2541233.8900000001,"ADDRESS":"金華路一段４０５號","OBJECTID":517306},"geometry":{"x":166972.41000000015,"y":2541233.8900000006}},{"attributes":{"ID":517334,"DIS_CODE":0,"TOWNNAME":"南區","LI":"日新里","LIN":"1鄰","STREET":"金華路","SECT":"一段","MAREA":" ","LANE":" ","ALLEY":" ","HOUSE_NO":"４０７號","E_COORD97":166970.44,"N_COORD97":2541248.1899999999,"ADDRESS":"金華路一段４０７號","OBJECTID":517307},"geometry":{"x":166970.44000000134,"y":2541248.1899999995}},{"attributes":{"ID":517335,"DIS_CODE":0,"TOWNNAME":"南區","LI":"日新里","LIN":"1鄰","STREET":"金華路","SECT":"一段","MAREA":" ","LANE":" ","ALLEY":" ","HOUSE_NO":"４０９號","E_COORD97":166964.35999999999,"N_COORD97":2541240.7400000002,"ADDRESS":"金華路一段４０９號","OBJECTID":517308},"geometry":{"x":166964.36000000127,"y":2541240.7400000021}},{"attributes":{"ID":517336,"DIS_CODE":0,"TOWNNAME":"南區","LI":"日新里","LIN":"1鄰","STREET":"金華路","SECT":"一段","MAREA":" ","LANE":" ","ALLEY":" ","HOUSE_NO":"４１１號","E_COORD97":166983.98000000001,"N_COORD97":2541241.3399999999,"ADDRESS":"金華路一段４１１號","OBJECTID":517309},"geometry":{"x":166983.98000000138,"y":2541241.3399999999}},{"attributes":{"ID":517337,"DIS_CODE":0,"TOWNNAME":"南區","LI":"日新里","LIN":"1鄰","STREET":"金華路","SECT":"一段","MAREA":" ","LANE":" ","ALLEY":" ","HOUSE_NO":"４１３號","E_COORD97":166985.53,"N_COORD97":2541245.75,"ADDRESS":"金華路一段４１３號","OBJECTID":517310},"geometry":{"x":166985.53000000026,"y":2541245.7500000037}},{"attributes":{"ID":517338,"DIS_CODE":0,"TOWNNAME":"南區","LI":"日新里","LIN":"1鄰","STREET":"金華路","SECT":"一段","MAREA":" ","LANE":" ","ALLEY":" ","HOUSE_NO":"４１５號","E_COORD97":166985.87,"N_COORD97":2541250.1200000001,"ADDRESS":"金華路一段４１５號","OBJECTID":517311},"geometry":{"x":166985.87000000104,"y":2541250.120000001}},{"attributes":{"ID":517339,"DIS_CODE":0,"TOWNNAME":"南區","LI":"日新里","LIN":"1鄰","STREET":"金華路","SECT":"一段","MAREA":" ","LANE":" ","ALLEY":" ","HOUSE_NO":"４１７號","E_COORD97":166986.22,"N_COORD97":2541254.3100000001,"ADDRESS":"金華路一段４１７號","OBJECTID":517312},"geometry":{"x":166986.22000000067,"y":2541254.3100000024}},{"attributes":{"ID":517340,"DIS_CODE":0,"TOWNNAME":"南區","LI":"日新里","LIN":"1鄰","STREET":"金華路","SECT":"一段","MAREA":" ","LANE":" ","ALLEY":" ","HOUSE_NO":"４１９號","E_COORD97":166986.29999999999,"N_COORD97":2541257.8199999998,"ADDRESS":"金華路一段４１９號","OBJECTID":517313},"geometry":{"x":166986.29999999981,"y":2541257.8200000003}},{"attributes":{"ID":517341,"DIS_CODE":0,"TOWNNAME":"南區","LI":"田寮里","LIN":"1鄰","STREET":"大成路","SECT":"二段","MAREA":" ","LANE":" ","ALLEY":" ","HOUSE_NO":"１７４號","E_COORD97":167239.87,"N_COORD97":2541748.5499999998,"ADDRESS":"大成路二段１７４號","OBJECTID":517314},"geometry":{"x":167239.87000000104,"y":2541748.5500000007}},{"attributes":{"ID":517342,"DIS_CODE":0,"TOWNNAME":"南區","LI":"田寮里","LIN":"1鄰","STREET":"大成路","SECT":"二段","MAREA":" ","LANE":" ","ALLEY":" ","HOUSE_NO":"１７６號","E_COORD97":167235.22,"N_COORD97":2541749.7200000002,"ADDRESS":"大成路二段１７６號","OBJECTID":517315},"geometry":{"x":167235.2200000016,"y":2541749.7200000025}},{"attributes":{"ID":517343,"DIS_CODE":0,"TOWNNAME":"南區","LI":"田寮里","LIN":"1鄰","STREET":"大成路","SECT":"二段","MAREA":" ","LANE":" ","ALLEY":" ","HOUSE_NO":"１７８號","E_COORD97":167231.73000000001,"N_COORD97":2541749.25,"ADDRESS":"大成路二段１７８號","OBJECTID":517316},"geometry":{"x":167231.73000000045,"y":2541749.2500000019}},{"attributes":{"ID":517344,"DIS_CODE":0,"TOWNNAME":"南區","LI":"田寮里","LIN":"1鄰","STREET":"大成路","SECT":"二段","MAREA":" ","LANE":" ","ALLEY":" ","HOUSE_NO":"１９０號","E_COORD97":167203.39999999999,"N_COORD97":2541752.3100000001,"ADDRESS":"大成路二段１９０號","OBJECTID":517317},"geometry":{"x":167203.40000000037,"y":2541752.3100000024}},{"attributes":{"ID":517345,"DIS_CODE":0,"TOWNNAME":"南區","LI":"田寮里","LIN":"1鄰","STREET":"大成路","SECT":"二段","MAREA":" ","LANE":" ","ALLEY":" ","HOUSE_NO":"１９２號","E_COORD97":167199.31,"N_COORD97":2541751.8999999999,"ADDRESS":"大成路二段１９２號","OBJECTID":517318},"geometry":{"x":167199.31000000052,"y":2541751.9000000022}},{"attributes":{"ID":517346,"DIS_CODE":0,"TOWNNAME":"南區","LI":"田寮里","LIN":"1鄰","STREET":"大成路","SECT":"二段","MAREA":" ","LANE":" ","ALLEY":" ","HOUSE_NO":"１９４號","E_COORD97":167194.79999999999,"N_COORD97":2541751.8999999999,"ADDRESS":"大成路二段１９４號","OBJECTID":517319},"geometry":{"x":167194.80000000075,"y":2541751.9000000022}},{"attributes":{"ID":517347,"DIS_CODE":0,"TOWNNAME":"南區","LI":"田寮里","LIN":"1鄰","STREET":"新興路","SECT":" ","MAREA":" ","LANE":" ","ALLEY":" ","HOUSE_NO":"３１１號","E_COORD97":167138.09,"N_COORD97":2541827.48,"ADDRESS":"新興路３１１號","OBJECTID":517320},"geometry":{"x":167138.09000000078,"y":2541827.4800000004}},{"attributes":{"ID":517348,"DIS_CODE":0,"TOWNNAME":"南區","LI":"田寮里","LIN":"1鄰","STREET":"新興路","SECT":" ","MAREA":" ","LANE":" ","ALLEY":" ","HOUSE_NO":"３０９號","E_COORD97":167142.39000000001,"N_COORD97":2541830.5499999998,"ADDRESS":"新興路３０９號","OBJECTID":517321},"geometry":{"x":167142.39000000153,"y":2541830.5500000007}},{"attributes":{"ID":517349,"DIS_CODE":0,"TOWNNAME":"南區","LI":"田寮里","LIN":"1鄰","STREET":"新興路","SECT":" ","MAREA":" ","LANE":" ","ALLEY":" ","HOUSE_NO":"３０７號","E_COORD97":167147.10000000001,"N_COORD97":2541834.02,"ADDRESS":"新興路３０７號","OBJECTID":517322},"geometry":{"x":167147.09999999963,"y":2541834.0200000014}},{"attributes":{"ID":517350,"DIS_CODE":0,"TOWNNAME":"南區","LI":"田寮里","LIN":"1鄰","STREET":"新興路","SECT":" ","MAREA":" ","LANE":" ","ALLEY":" ","HOUSE_NO":"３０３號","E_COORD97":167156.10999999999,"N_COORD97":2541839.6699999999,"ADDRESS":"新興路３０３號","OBJECTID":517323},"geometry":{"x":167156.11000000034,"y":2541839.6700000037}},{"attributes":{"ID":517351,"DIS_CODE":0,"TOWNNAME":"佳里區","LI":"六安里","LIN":"1鄰","STREET":"進學路","SECT":" ","MAREA":" ","LANE":" ","ALLEY":" ","HOUSE_NO":"１２４號","E_COORD97":166074.98000000001,"N_COORD97":2562683.1699999999,"ADDRESS":"進學路１２４號","OBJECTID":517324},"geometry":{"x":166074.98000000138,"y":2562683.1699999999}},{"attributes":{"ID":517352,"DIS_CODE":0,"TOWNNAME":"佳里區","LI":"六安里","LIN":"1鄰","STREET":"進學路","SECT":" ","MAREA":" ","LANE":" ","ALLEY":" ","HOUSE_NO":"１２６號","E_COORD97":166070.64000000001,"N_COORD97":2562683.02,"ADDRESS":"進學路１２６號","OBJECTID":517325},"geometry":{"x":166070.63999999966,"y":2562683.0199999996}},{"attributes":{"ID":517353,"DIS_CODE":0,"TOWNNAME":"佳里區","LI":"六安里","LIN":"1鄰","STREET":"進學路","SECT":" ","MAREA":" ","LANE":" ","ALLEY":" ","HOUSE_NO":"１２８號","E_COORD97":166066.45999999999,"N_COORD97":2562683.1099999999,"ADDRESS":"進學路１２８號","OBJECTID":517326},"geometry":{"x":166066.46000000089,"y":2562683.1099999994}},{"attributes":{"ID":517354,"DIS_CODE":0,"TOWNNAME":"佳里區","LI":"六安里","LIN":"1鄰","STREET":"進學路","SECT":" ","MAREA":" ","LANE":" ","ALLEY":" ","HOUSE_NO":"１３０號","E_COORD97":166062,"N_COORD97":2562683.2000000002,"ADDRESS":"進學路１３０號","OBJECTID":517327},"geometry":{"x":166061.99999999907,"y":2562683.2000000011}},{"attributes":{"ID":517355,"DIS_CODE":0,"TOWNNAME":"佳里區","LI":"六安里","LIN":"1鄰","STREET":"進學路","SECT":" ","MAREA":" ","LANE":" ","ALLEY":" ","HOUSE_NO":"１３２號","E_COORD97":166057.57999999999,"N_COORD97":2562683.1899999999,"ADDRESS":"進學路１３２號","OBJECTID":517328},"geometry":{"x":166057.58000000007,"y":2562683.1900000032}},{"attributes":{"ID":517356,"DIS_CODE":0,"TOWNNAME":"佳里區","LI":"六安里","LIN":"1鄰","STREET":"進學路","SECT":" ","MAREA":" ","LANE":" ","ALLEY":" ","HOUSE_NO":"１３４號","E_COORD97":166053.10000000001,"N_COORD97":2562683.1200000001,"ADDRESS":"進學路１３４號","OBJECTID":517329},"geometry":{"x":166053.10000000056,"y":2562683.1200000029}},{"attributes":{"ID":517357,"DIS_CODE":0,"TOWNNAME":"佳里區","LI":"六安里","LIN":"1鄰","STREET":"進學路","SECT":" ","MAREA":" ","LANE":" ","ALLEY":" ","HOUSE_NO":"１４０號","E_COORD97":166039.88,"N_COORD97":2562683.5600000001,"ADDRESS":"進學路１４０號","OBJECTID":517330},"geometry":{"x":166039.88000000082,"y":2562683.5600000005}},{"attributes":{"ID":517358,"DIS_CODE":0,"TOWNNAME":"佳里區","LI":"六安里","LIN":"1鄰","STREET":"進學路","SECT":" ","MAREA":" ","LANE":" ","ALLEY":" ","HOUSE_NO":"１４２號","E_COORD97":166035.54999999999,"N_COORD97":2562683.4500000002,"ADDRESS":"進學路１４２號","OBJECTID":517331},"geometry":{"x":166035.54999999981,"y":2562683.4499999993}},{"attributes":{"ID":517359,"DIS_CODE":0,"TOWNNAME":"佳里區","LI":"六安里","LIN":"1鄰","STREET":"進學路","SECT":" ","MAREA":" ","LANE":" ","ALLEY":" ","HOUSE_NO":"１４４號","E_COORD97":166031.37,"N_COORD97":2562683.3700000001,"ADDRESS":"進學路１４４號","OBJECTID":517332},"geometry":{"x":166031.37000000104,"y":2562683.3700000048}},{"attributes":{"ID":517360,"DIS_CODE":0,"TOWNNAME":"佳里區","LI":"六安里","LIN":"1鄰","STREET":"進學路","SECT":" ","MAREA":" ","LANE":" ","ALLEY":" ","HOUSE_NO":"１４６號","E_COORD97":166026.92999999999,"N_COORD97":2562683.1600000001,"ADDRESS":"進學路１４６號","OBJECTID":517333},"geometry":{"x":166026.93000000063,"y":2562683.1600000001}},{"attributes":{"ID":517361,"DIS_CODE":0,"TOWNNAME":"學甲區","LI":"仁得里","LIN":"17鄰","STREET":"八德街","SECT":" ","MAREA":" ","LANE":" ","ALLEY":" ","HOUSE_NO":"２１２號之６","E_COORD97":165762.14000000001,"N_COORD97":2569802.77,"ADDRESS":"八德街２１２號之６","OBJECTID":517334},"geometry":{"x":165762.13999999966,"y":2569802.7700000014}},{"attributes":{"ID":517362,"DIS_CODE":0,"TOWNNAME":"學甲區","LI":"仁得里","LIN":"17鄰","STREET":"八德街","SECT":" ","MAREA":" ","LANE":" ","ALLEY":" ","HOUSE_NO":"２１２號","E_COORD97":165786.62,"N_COORD97":2569800.96,"ADDRESS":"八德街２１２號","OBJECTID":517335},"geometry":{"x":165786.62000000011,"y":2569800.9600000009}},{"attributes":{"ID":517363,"DIS_CODE":0,"TOWNNAME":"學甲區","LI":"仁得里","LIN":"17鄰","STREET":"八德街","SECT":" ","MAREA":" ","LANE":" ","ALLEY":" ","HOUSE_NO":"２１４號","E_COORD97":165702.06,"N_COORD97":2569819.2200000002,"ADDRESS":"八德街２１４號","OBJECTID":517336},"geometry":{"x":165702.06000000052,"y":2569819.2200000007}},{"attributes":{"ID":517364,"DIS_CODE":0,"TOWNNAME":"學甲區","LI":"仁得里","LIN":"17鄰","STREET":"八德街","SECT":" ","MAREA":" ","LANE":" ","ALLEY":" ","HOUSE_NO":"２１５號","E_COORD97":165716.04999999999,"N_COORD97":2569795.3300000001,"ADDRESS":"八德街２１５號","OBJECTID":517337},"geometry":{"x":165716.05000000075,"y":2569795.3300000001}},{"attributes":{"ID":517365,"DIS_CODE":0,"TOWNNAME":"學甲區","LI":"仁得里","LIN":"17鄰","STREET":"八德街","SECT":" ","MAREA":" ","LANE":" ","ALLEY":" ","HOUSE_NO":"２１６號","E_COORD97":165697.54999999999,"N_COORD97":2569821.0499999998,"ADDRESS":"八德街２１６號","OBJECTID":517338},"geometry":{"x":165697.55000000075,"y":2569821.0500000007}},{"attributes":{"ID":517366,"DIS_CODE":0,"TOWNNAME":"學甲區","LI":"仁得里","LIN":"17鄰","STREET":"八德街","SECT":" ","MAREA":" ","LANE":" ","ALLEY":" ","HOUSE_NO":"２１７號","E_COORD97":165708.88,"N_COORD97":2569798.3999999999,"ADDRESS":"八德街２１７號","OBJECTID":517339},"geometry":{"x":165708.88000000082,"y":2569798.4000000004}},{"attributes":{"ID":517367,"DIS_CODE":0,"TOWNNAME":"學甲區","LI":"仁得里","LIN":"17鄰","STREET":"八德街","SECT":" ","MAREA":" ","LANE":" ","ALLEY":" ","HOUSE_NO":"２１８號","E_COORD97":165693.07000000001,"N_COORD97":2569822.52,"ADDRESS":"八德街２１８號","OBJECTID":517340},"geometry":{"x":165693.07000000123,"y":2569822.5200000014}},{"attributes":{"ID":517368,"DIS_CODE":0,"TOWNNAME":"中西區","LI":"三合里","LIN":"1鄰","STREET":"康樂街","SECT":" ","MAREA":" ","LANE":" ","ALLEY":" ","HOUSE_NO":"２６４號","E_COORD97":167650.26999999999,"N_COORD97":2544398.9100000001,"ADDRESS":"康樂街２６４號","OBJECTID":517341},"geometry":{"x":167650.27000000048,"y":2544398.910000002}},{"attributes":{"ID":517369,"DIS_CODE":0,"TOWNNAME":"中西區","LI":"三合里","LIN":"1鄰","STREET":"民族路","SECT":"三段","MAREA":" ","LANE":" ","ALLEY":" ","HOUSE_NO":"１２６號","E_COORD97":167646.64999999999,"N_COORD97":2544368.3100000001,"ADDRESS":"民族路三段１２６號","OBJECTID":517342},"geometry":{"x":167646.6500000013,"y":2544368.3099999987}},{"attributes":{"ID":517370,"DIS_CODE":0,"TOWNNAME":"中西區","LI":"三合里","LIN":"1鄰","STREET":"民族路","SECT":"三段","MAREA":" ","LANE":" ","ALLEY":" ","HOUSE_NO":"１２８號","E_COORD97":167642.14999999999,"N_COORD97":2544370.2599999998,"ADDRESS":"民族路三段１２８號","OBJECTID":517343},"geometry":{"x":167642.1500000013,"y":2544370.2599999998}},{"attributes":{"ID":517371,"DIS_CODE":0,"TOWNNAME":"中西區","LI":"三合里","LIN":"1鄰","STREET":"民族路","SECT":"三段","MAREA":" ","LANE":" ","ALLEY":" ","HOUSE_NO":"１３０號","E_COORD97":167638.34,"N_COORD97":2544372.5899999999,"ADDRESS":"民族路三段１３０號","OBJECTID":517344},"geometry":{"x":167638.34000000078,"y":2544372.5900000036}},{"attributes":{"ID":517372,"DIS_CODE":0,"TOWNNAME":"中西區","LI":"三合里","LIN":"1鄰","STREET":"民族路","SECT":"三段","MAREA":" ","LANE":" ","ALLEY":" ","HOUSE_NO":"１３４號","E_COORD97":167625.60999999999,"N_COORD97":2544378.9500000002,"ADDRESS":"民族路三段１３４號","OBJECTID":517345},"geometry":{"x":167625.61000000034,"y":2544378.9499999993}},{"attributes":{"ID":517373,"DIS_CODE":0,"TOWNNAME":"中西區","LI":"三合里","LIN":"1鄰","STREET":"康樂街","SECT":" ","MAREA":" ","LANE":" ","ALLEY":" ","HOUSE_NO":"２５４號","E_COORD97":167640.62,"N_COORD97":2544380.54,"ADDRESS":"康樂街２５４號","OBJECTID":517346},"geometry":{"x":167640.62000000011,"y":2544380.540000001}},{"attributes":{"ID":517374,"DIS_CODE":0,"TOWNNAME":"中西區","LI":"三合里","LIN":"1鄰","STREET":"康樂街","SECT":" ","MAREA":" ","LANE":" ","ALLEY":" ","HOUSE_NO":"２５６號","E_COORD97":167642.82000000001,"N_COORD97":2544384.9300000002,"ADDRESS":"康樂街２５６號","OBJECTID":517347},"geometry":{"x":167642.8200000003,"y":2544384.9300000016}},{"attributes":{"ID":517375,"DIS_CODE":0,"TOWNNAME":"中西區","LI":"三合里","LIN":"1鄰","STREET":"康樂街","SECT":" ","MAREA":" ","LANE":" ","ALLEY":" ","HOUSE_NO":"２５８號","E_COORD97":167645.17000000001,"N_COORD97":2544388.3399999999,"ADDRESS":"康樂街２５８號","OBJECTID":517348},"geometry":{"x":167645.16999999993,"y":2544388.3400000017}},{"attributes":{"ID":517376,"DIS_CODE":0,"TOWNNAME":"中西區","LI":"三合里","LIN":"1鄰","STREET":"康樂街","SECT":" ","MAREA":" ","LANE":" ","ALLEY":" ","HOUSE_NO":"２６０號","E_COORD97":167647.48999999999,"N_COORD97":2544392.1499999999,"ADDRESS":"康樂街２６０號","OBJECTID":517349},"geometry":{"x":167647.49000000209,"y":2544392.1500000004}},{"attributes":{"ID":517377,"DIS_CODE":0,"TOWNNAME":"中西區","LI":"三合里","LIN":"1鄰","STREET":"康樂街","SECT":" ","MAREA":" ","LANE":" ","ALLEY":" ","HOUSE_NO":"２６２號","E_COORD97":167649.29000000001,"N_COORD97":2544395.6099999999,"ADDRESS":"康樂街２６２號","OBJECTID":517350},"geometry":{"x":167649.29000000097,"y":2544395.6099999975}},{"attributes":{"ID":517378,"DIS_CODE":0,"TOWNNAME":"中西區","LI":"三合里","LIN":"1鄰","STREET":"康樂街","SECT":" ","MAREA":" ","LANE":" ","ALLEY":" ","HOUSE_NO":"３３７號","E_COORD97":167627.42999999999,"N_COORD97":2544382.21,"ADDRESS":"康樂街３３７號","OBJECTID":517351},"geometry":{"x":167627.43000000063,"y":2544382.2100000009}},{"attributes":{"ID":517379,"DIS_CODE":0,"TOWNNAME":"中西區","LI":"三合里","LIN":"1鄰","STREET":"康樂街","SECT":" ","MAREA":" ","LANE":" ","ALLEY":" ","HOUSE_NO":"３３９號","E_COORD97":167629.17000000001,"N_COORD97":2544386.2999999998,"ADDRESS":"康樂街３３９號","OBJECTID":517352},"geometry":{"x":167629.17000000086,"y":2544386.3000000026}},{"attributes":{"ID":517380,"DIS_CODE":0,"TOWNNAME":"中西區","LI":"三合里","LIN":"1鄰","STREET":"康樂街","SECT":" ","MAREA":" ","LANE":" ","ALLEY":" ","HOUSE_NO":"３４１號","E_COORD97":167631.22,"N_COORD97":2544390.3100000001,"ADDRESS":"康樂街３４１號","OBJECTID":517353},"geometry":{"x":167631.21999999974,"y":2544390.3100000024}},{"attributes":{"ID":517381,"DIS_CODE":0,"TOWNNAME":"中西區","LI":"三合里","LIN":"1鄰","STREET":"康樂街","SECT":" ","MAREA":" ","LANE":" ","ALLEY":" ","HOUSE_NO":"３４３號","E_COORD97":167633.66,"N_COORD97":2544394.5899999999,"ADDRESS":"康樂街３４３號","OBJECTID":517354},"geometry":{"x":167633.66000000015,"y":2544394.5900000017}},{"attributes":{"ID":517382,"DIS_CODE":0,"TOWNNAME":"中西區","LI":"三合里","LIN":"1鄰","STREET":"康樂街","SECT":" ","MAREA":" ","LANE":" ","ALLEY":" ","HOUSE_NO":"３４５號","E_COORD97":167634.91,"N_COORD97":2544398.0099999998,"ADDRESS":"康樂街３４５號","OBJECTID":517355},"geometry":{"x":167634.91000000108,"y":2544398.0100000016}},{"attributes":{"ID":517383,"DIS_CODE":0,"TOWNNAME":"中西區","LI":"三合里","LIN":"1鄰","STREET":"民族路","SECT":"三段","MAREA":" ","LANE":" ","ALLEY":" ","HOUSE_NO":"１００號","E_COORD97":167707.92000000001,"N_COORD97":2544344.23,"ADDRESS":"民族路三段１００號","OBJECTID":517356},"geometry":{"x":167707.91999999993,"y":2544344.2300000004}},{"attributes":{"ID":517384,"DIS_CODE":0,"TOWNNAME":"學甲區","LI":"仁得里","LIN":"1鄰","STREET":"八德街","SECT":" ","MAREA":" ","LANE":" ","ALLEY":" ","HOUSE_NO":"２９號","E_COORD97":166257.64999999999,"N_COORD97":2569680.3399999999,"ADDRESS":"八德街２９號","OBJECTID":517357},"geometry":{"x":166257.65000000037,"y":2569680.3400000036}},{"attributes":{"ID":517385,"DIS_CODE":0,"TOWNNAME":"中西區","LI":"三合里","LIN":"1鄰","STREET":"民族路","SECT":"三段","MAREA":" ","LANE":" ","ALLEY":" ","HOUSE_NO":"１０２號","E_COORD97":167702.25,"N_COORD97":2544345.0099999998,"ADDRESS":"民族路三段１０２號","OBJECTID":517358},"geometry":{"x":167702.25,"y":2544345.0099999998}},{"attributes":{"ID":517386,"DIS_CODE":0,"TOWNNAME":"中西區","LI":"三合里","LIN":"1鄰","STREET":"民族路","SECT":"三段","MAREA":" ","LANE":" ","ALLEY":" ","HOUSE_NO":"９２號","E_COORD97":167736.09,"N_COORD97":2544331.9199999999,"ADDRESS":"民族路三段９２號","OBJECTID":517359},"geometry":{"x":167736.08999999892,"y":2544331.9199999999}},{"attributes":{"ID":517387,"DIS_CODE":0,"TOWNNAME":"中西區","LI":"三合里","LIN":"1鄰","STREET":"民族路","SECT":"三段","MAREA":" ","LANE":" ","ALLEY":" ","HOUSE_NO":"９４號","E_COORD97":167728.07000000001,"N_COORD97":2544337.9700000002,"ADDRESS":"民族路三段９４號","OBJECTID":517360},"geometry":{"x":167728.0700000003,"y":2544337.9700000025}},{"attributes":{"ID":517388,"DIS_CODE":0,"TOWNNAME":"中西區","LI":"三合里","LIN":"1鄰","STREET":"民族路","SECT":"三段","MAREA":" ","LANE":" ","ALLEY":" ","HOUSE_NO":"９６號","E_COORD97":167716.92000000001,"N_COORD97":2544342.0800000001,"ADDRESS":"民族路三段９６號","OBJECTID":517361},"geometry":{"x":167716.91999999993,"y":2544342.0800000001}},{"attributes":{"ID":517389,"DIS_CODE":0,"TOWNNAME":"中西區","LI":"三合里","LIN":"1鄰","STREET":"民族路","SECT":"三段","MAREA":" ","LANE":" ","ALLEY":" ","HOUSE_NO":"９８之１號","E_COORD97":167712.23000000001,"N_COORD97":2544342.6600000001,"ADDRESS":"民族路三段９８之１號","OBJECTID":517362},"geometry":{"x":167712.23000000231,"y":2544342.660000002}},{"attributes":{"ID":517390,"DIS_CODE":0,"TOWNNAME":"中西區","LI":"中正里","LIN":"1鄰","STREET":"中正路","SECT":" ","MAREA":" ","LANE":" ","ALLEY":" ","HOUSE_NO":"１７０號","E_COORD97":167824,"N_COORD97":2543723.2200000002,"ADDRESS":"中正路１７０號","OBJECTID":517363},"geometry":{"x":167824.00000000093,"y":2543723.2200000025}},{"attributes":{"ID":517391,"DIS_CODE":0,"TOWNNAME":"中西區","LI":"中正里","LIN":"1鄰","STREET":"中正路","SECT":" ","MAREA":" ","LANE":" ","ALLEY":" ","HOUSE_NO":"１７２號","E_COORD97":167819.72,"N_COORD97":2543726.9700000002,"ADDRESS":"中正路１７２號","OBJECTID":517364},"geometry":{"x":167819.71999999974,"y":2543726.9700000044}},{"attributes":{"ID":517392,"DIS_CODE":0,"TOWNNAME":"中西區","LI":"中正里","LIN":"1鄰","STREET":"中正路","SECT":" ","MAREA":" ","LANE":" ","ALLEY":" ","HOUSE_NO":"１７４號","E_COORD97":167814.23000000001,"N_COORD97":2543728.02,"ADDRESS":"中正路１７４號","OBJECTID":517365},"geometry":{"x":167814.23000000138,"y":2543728.0199999996}},{"attributes":{"ID":517393,"DIS_CODE":0,"TOWNNAME":"中西區","LI":"中正里","LIN":"1鄰","STREET":"中正路","SECT":" ","MAREA":" ","LANE":" ","ALLEY":" ","HOUSE_NO":"１７６號","E_COORD97":167810.64999999999,"N_COORD97":2543729.0600000001,"ADDRESS":"中正路１７６號","OBJECTID":517366},"geometry":{"x":167810.65000000037,"y":2543729.0600000005}},{"attributes":{"ID":517394,"DIS_CODE":0,"TOWNNAME":"中西區","LI":"中正里","LIN":"1鄰","STREET":"中正路","SECT":" ","MAREA":" ","LANE":" ","ALLEY":" ","HOUSE_NO":"１７８號","E_COORD97":167806.28,"N_COORD97":2543730.02,"ADDRESS":"中正路１７８號","OBJECTID":517367},"geometry":{"x":167806.28000000026,"y":2543730.0200000014}},{"attributes":{"ID":517395,"DIS_CODE":0,"TOWNNAME":"中西區","LI":"中正里","LIN":"1鄰","STREET":"中正路","SECT":" ","MAREA":" ","LANE":" ","ALLEY":" ","HOUSE_NO":"１８０號","E_COORD97":167798.53,"N_COORD97":2543727.8799999999,"ADDRESS":"中正路１８０號","OBJECTID":517368},"geometry":{"x":167798.53000000119,"y":2543727.879999999}},{"attributes":{"ID":517396,"DIS_CODE":0,"TOWNNAME":"中西區","LI":"中正里","LIN":"1鄰","STREET":"中正路","SECT":" ","MAREA":" ","LANE":" ","ALLEY":" ","HOUSE_NO":"１８２號","E_COORD97":167792.76999999999,"N_COORD97":2543728.9300000002,"ADDRESS":"中正路１８２號","OBJECTID":517369},"geometry":{"x":167792.77000000048,"y":2543728.9299999997}},{"attributes":{"ID":517397,"DIS_CODE":0,"TOWNNAME":"中西區","LI":"中正里","LIN":"1鄰","STREET":"中正路","SECT":" ","MAREA":" ","LANE":" ","ALLEY":" ","HOUSE_NO":"１８４號","E_COORD97":167787.62,"N_COORD97":2543730.7599999998,"ADDRESS":"中正路１８４號","OBJECTID":517370},"geometry":{"x":167787.62000000104,"y":2543730.7600000035}},{"attributes":{"ID":517398,"DIS_CODE":0,"TOWNNAME":"中西區","LI":"中正里","LIN":"1鄰","STREET":"中正路","SECT":" ","MAREA":" ","LANE":" ","ALLEY":" ","HOUSE_NO":"１８６號","E_COORD97":167781.54000000001,"N_COORD97":2543732.1800000002,"ADDRESS":"中正路１８６號","OBJECTID":517371},"geometry":{"x":167781.54000000097,"y":2543732.1800000016}},{"attributes":{"ID":517399,"DIS_CODE":0,"TOWNNAME":"中西區","LI":"中正里","LIN":"1鄰","STREET":"中正路","SECT":" ","MAREA":" ","LANE":" ","ALLEY":" ","HOUSE_NO":"１９０號","E_COORD97":167776.20999999999,"N_COORD97":2543732.9700000002,"ADDRESS":"中正路１９０號","OBJECTID":517372},"geometry":{"x":167776.21000000183,"y":2543732.9700000007}},{"attributes":{"ID":517400,"DIS_CODE":0,"TOWNNAME":"中西區","LI":"中正里","LIN":"1鄰","STREET":"中正路","SECT":" ","MAREA":" ","LANE":" ","ALLEY":" ","HOUSE_NO":"１９２號","E_COORD97":167772.14000000001,"N_COORD97":2543734.02,"ADDRESS":"中正路１９２號","OBJECTID":517373},"geometry":{"x":167772.13999999966,"y":2543734.0199999996}},{"attributes":{"ID":517401,"DIS_CODE":0,"TOWNNAME":"中西區","LI":"中正里","LIN":"1鄰","STREET":"中正路","SECT":" ","MAREA":" ","LANE":" ","ALLEY":" ","HOUSE_NO":"１９４號","E_COORD97":167766.89999999999,"N_COORD97":2543735.5800000001,"ADDRESS":"中正路１９４號","OBJECTID":517374},"geometry":{"x":167766.90000000224,"y":2543735.5800000038}},{"attributes":{"ID":517402,"DIS_CODE":0,"TOWNNAME":"中西區","LI":"中正里","LIN":"1鄰","STREET":"中正路","SECT":" ","MAREA":" ","LANE":" ","ALLEY":" ","HOUSE_NO":"１９６號","E_COORD97":167762.19,"N_COORD97":2543736.46,"ADDRESS":"中正路１９６號","OBJECTID":517375},"geometry":{"x":167762.19000000134,"y":2543736.4600000009}},{"attributes":{"ID":517403,"DIS_CODE":0,"TOWNNAME":"中西區","LI":"中正里","LIN":"1鄰","STREET":"中正路","SECT":" ","MAREA":" ","LANE":" ","ALLEY":" ","HOUSE_NO":"１９８號","E_COORD97":167758.51999999999,"N_COORD97":2543737.1499999999,"ADDRESS":"中正路１９８號","OBJECTID":517376},"geometry":{"x":167758.52000000142,"y":2543737.1500000004}},{"attributes":{"ID":517404,"DIS_CODE":0,"TOWNNAME":"中西區","LI":"中正里","LIN":"1鄰","STREET":"中正路","SECT":" ","MAREA":" ","LANE":" ","ALLEY":" ","HOUSE_NO":"２００號","E_COORD97":167754.76999999999,"N_COORD97":2543737.9399999999,"ADDRESS":"中正路２００號","OBJECTID":517377},"geometry":{"x":167754.76999999955,"y":2543737.9399999995}},{"attributes":{"ID":517405,"DIS_CODE":0,"TOWNNAME":"中西區","LI":"中正里","LIN":"1鄰","STREET":"中正路","SECT":" ","MAREA":" ","LANE":" ","ALLEY":" ","HOUSE_NO":"２０６號","E_COORD97":167743.94,"N_COORD97":2543740.4700000002,"ADDRESS":"中正路２０６號","OBJECTID":517378},"geometry":{"x":167743.94000000041,"y":2543740.4700000044}},{"attributes":{"ID":517406,"DIS_CODE":0,"TOWNNAME":"中西區","LI":"中正里","LIN":"1鄰","STREET":"中正路","SECT":" ","MAREA":" ","LANE":" ","ALLEY":" ","HOUSE_NO":"２０８號","E_COORD97":167740.97,"N_COORD97":2543741.5099999998,"ADDRESS":"中正路２０８號","OBJECTID":517379},"geometry":{"x":167740.97000000067,"y":2543741.5099999998}},{"attributes":{"ID":517407,"DIS_CODE":0,"TOWNNAME":"中西區","LI":"中正里","LIN":"1鄰","STREET":"中正路","SECT":" ","MAREA":" ","LANE":" ","ALLEY":" ","HOUSE_NO":"２１０號","E_COORD97":167739.39999999999,"N_COORD97":2543741.8599999999,"ADDRESS":"中正路２１０號","OBJECTID":517380},"geometry":{"x":167739.40000000037,"y":2543741.8599999994}},{"attributes":{"ID":517408,"DIS_CODE":0,"TOWNNAME":"中西區","LI":"中正里","LIN":"1鄰","STREET":"中正路","SECT":" ","MAREA":" ","LANE":" ","ALLEY":" ","HOUSE_NO":"２１２號","E_COORD97":167736.07999999999,"N_COORD97":2543743.2200000002,"ADDRESS":"中正路２１２號","OBJECTID":517381},"geometry":{"x":167736.08000000007,"y":2543743.2200000025}},{"attributes":{"ID":517409,"DIS_CODE":0,"TOWNNAME":"中西區","LI":"中正里","LIN":"1鄰","STREET":"中正路","SECT":" ","MAREA":" ","LANE":" ","ALLEY":" ","HOUSE_NO":"２１４號","E_COORD97":167732.95000000001,"N_COORD97":2543744.0699999998,"ADDRESS":"中正路２１４號","OBJECTID":517382},"geometry":{"x":167732.95000000112,"y":2543744.0700000022}},{"attributes":{"ID":517410,"DIS_CODE":0,"TOWNNAME":"中西區","LI":"中正里","LIN":"1鄰","STREET":"中正路","SECT":" ","MAREA":" ","LANE":" ","ALLEY":" ","HOUSE_NO":"２１６號","E_COORD97":167730.66,"N_COORD97":2543744.7200000002,"ADDRESS":"中正路２１６號","OBJECTID":517383},"geometry":{"x":167730.66000000015,"y":2543744.7200000007}},{"attributes":{"ID":517411,"DIS_CODE":0,"TOWNNAME":"中西區","LI":"中正里","LIN":"1鄰","STREET":"中正路","SECT":" ","MAREA":" ","LANE":" ","ALLEY":" ","HOUSE_NO":"２１８號","E_COORD97":167727.82999999999,"N_COORD97":2543745.8999999999,"ADDRESS":"中正路２１８號","OBJECTID":517384},"geometry":{"x":167727.83000000007,"y":2543745.9000000004}},{"attributes":{"ID":517412,"DIS_CODE":0,"TOWNNAME":"中西區","LI":"中正里","LIN":"1鄰","STREET":"西門路","SECT":"二段","MAREA":" ","LANE":" ","ALLEY":" ","HOUSE_NO":"１２５號","E_COORD97":167828.48999999999,"N_COORD97":2543722.7999999998,"ADDRESS":"西門路二段１２５號","OBJECTID":517385},"geometry":{"x":167828.49000000022,"y":2543722.8000000026}},{"attributes":{"ID":517413,"DIS_CODE":0,"TOWNNAME":"中西區","LI":"中正里","LIN":"1鄰","STREET":"西門路","SECT":"二段","MAREA":" ","LANE":" ","ALLEY":" ","HOUSE_NO":"１２９號","E_COORD97":167833.01999999999,"N_COORD97":2543732.5299999998,"ADDRESS":"西門路二段１２９號","OBJECTID":517386},"geometry":{"x":167833.02000000142,"y":2543732.5300000012}},{"attributes":{"ID":517414,"DIS_CODE":0,"TOWNNAME":"中西區","LI":"中正里","LIN":"1鄰","STREET":"西門路","SECT":"二段","MAREA":" ","LANE":" ","ALLEY":" ","HOUSE_NO":"１３１號","E_COORD97":167833.84,"N_COORD97":2543734.2400000002,"ADDRESS":"西門路二段１３１號","OBJECTID":517387},"geometry":{"x":167833.83999999985,"y":2543734.2400000002}},{"attributes":{"ID":517415,"DIS_CODE":0,"TOWNNAME":"學甲區","LI":"仁得里","LIN":"17鄰","STREET":"八德街","SECT":" ","MAREA":" ","LANE":" ","ALLEY":" ","HOUSE_NO":"２５０號","E_COORD97":165678.04999999999,"N_COORD97":2569838.6600000001,"ADDRESS":"八德街２５０號","OBJECTID":517388},"geometry":{"x":165678.04999999981,"y":2569838.660000002}},{"attributes":{"ID":517416,"DIS_CODE":0,"TOWNNAME":"學甲區","LI":"仁得里","LIN":"17鄰","STREET":"八德街","SECT":" ","MAREA":" ","LANE":" ","ALLEY":" ","HOUSE_NO":"２５２號","E_COORD97":165673.09,"N_COORD97":2569840.2999999998,"ADDRESS":"八德街２５２號","OBJECTID":517389},"geometry":{"x":165673.09000000171,"y":2569840.3000000007}},{"attributes":{"ID":517417,"DIS_CODE":0,"TOWNNAME":"學甲區","LI":"仁得里","LIN":"1鄰","STREET":"八德街","SECT":" ","MAREA":" ","LANE":" ","ALLEY":" ","HOUSE_NO":"２３號","E_COORD97":166271.56,"N_COORD97":2569680.1400000001,"ADDRESS":"八德街２３號","OBJECTID":517390},"geometry":{"x":166271.56000000145,"y":2569680.1400000025}},{"attributes":{"ID":517418,"DIS_CODE":0,"TOWNNAME":"學甲區","LI":"仁得里","LIN":"1鄰","STREET":"八德街","SECT":" ","MAREA":" ","LANE":" ","ALLEY":" ","HOUSE_NO":"２５號","E_COORD97":166266.92000000001,"N_COORD97":2569680.2000000002,"ADDRESS":"八德街２５號","OBJECTID":517391},"geometry":{"x":166266.91999999993,"y":2569680.1999999993}},{"attributes":{"ID":517419,"DIS_CODE":0,"TOWNNAME":"學甲區","LI":"仁得里","LIN":"1鄰","STREET":"八德街","SECT":" ","MAREA":" ","LANE":" ","ALLEY":" ","HOUSE_NO":"２７號","E_COORD97":166262.28,"N_COORD97":2569680.27,"ADDRESS":"八德街２７號","OBJECTID":517392},"geometry":{"x":166262.28000000212,"y":2569680.2700000033}},{"attributes":{"ID":517420,"DIS_CODE":0,"TOWNNAME":"學甲區","LI":"仁得里","LIN":"1鄰","STREET":"八德街","SECT":" ","MAREA":" ","LANE":" ","ALLEY":" ","HOUSE_NO":"３１號","E_COORD97":166253.01000000001,"N_COORD97":2569680.4100000001,"ADDRESS":"八德街３１號","OBJECTID":517393},"geometry":{"x":166253.00999999978,"y":2569680.410000002}},{"attributes":{"ID":517421,"DIS_CODE":0,"TOWNNAME":"學甲區","LI":"仁得里","LIN":"1鄰","STREET":"八德街","SECT":" ","MAREA":" ","LANE":" ","ALLEY":" ","HOUSE_NO":"３３號","E_COORD97":166248.72,"N_COORD97":2569681.2200000002,"ADDRESS":"八德街３３號","OBJECTID":517394},"geometry":{"x":166248.72000000067,"y":2569681.2200000007}},{"attributes":{"ID":517422,"DIS_CODE":0,"TOWNNAME":"學甲區","LI":"仁得里","LIN":"1鄰","STREET":"八德街","SECT":" ","MAREA":" ","LANE":" ","ALLEY":" ","HOUSE_NO":"３４號","E_COORD97":166297.53,"N_COORD97":2569701.0600000001,"ADDRESS":"八德街３４號","OBJECTID":517395},"geometry":{"x":166297.53000000026,"y":2569701.0600000024}},{"attributes":{"ID":517423,"DIS_CODE":0,"TOWNNAME":"學甲區","LI":"仁得里","LIN":"1鄰","STREET":"八德街","SECT":" ","MAREA":" ","LANE":" ","ALLEY":" ","HOUSE_NO":"３５號之１","E_COORD97":166234.76000000001,"N_COORD97":2569670.8799999999,"ADDRESS":"八德街３５號之１","OBJECTID":517396},"geometry":{"x":166234.76000000164,"y":2569670.879999999}},{"attributes":{"ID":517424,"DIS_CODE":0,"TOWNNAME":"學甲區","LI":"仁得里","LIN":"1鄰","STREET":"八德街","SECT":" ","MAREA":" ","LANE":" ","ALLEY":" ","HOUSE_NO":"３５號之２","E_COORD97":166233.84,"N_COORD97":2569666.1499999999,"ADDRESS":"八德街３５號之２","OBJECTID":517397},"geometry":{"x":166233.83999999985,"y":2569666.1500000022}},{"attributes":{"ID":517425,"DIS_CODE":0,"TOWNNAME":"學甲區","LI":"仁得里","LIN":"1鄰","STREET":"八德街","SECT":" ","MAREA":" ","LANE":" ","ALLEY":" ","HOUSE_NO":"３５號之３","E_COORD97":166233.84,"N_COORD97":2569661.1699999999,"ADDRESS":"八德街３５號之３","OBJECTID":517398},"geometry":{"x":166233.83999999985,"y":2569661.1700000037}},{"attributes":{"ID":517426,"DIS_CODE":0,"TOWNNAME":"學甲區","LI":"仁得里","LIN":"1鄰","STREET":"八德街","SECT":" ","MAREA":" ","LANE":" ","ALLEY":" ","HOUSE_NO":"３５號之４","E_COORD97":166233.97,"N_COORD97":2569656.46,"ADDRESS":"八德街３５號之４","OBJECTID":517399},"geometry":{"x":166233.97000000067,"y":2569656.459999999}},{"attributes":{"ID":517427,"DIS_CODE":0,"TOWNNAME":"學甲區","LI":"仁得里","LIN":"1鄰","STREET":"八德街","SECT":" ","MAREA":" ","LANE":" ","ALLEY":" ","HOUSE_NO":"３５號","E_COORD97":166244.98999999999,"N_COORD97":2569681.0600000001,"ADDRESS":"八德街３５號","OBJECTID":517400},"geometry":{"x":166244.99000000022,"y":2569681.0600000024}}]}