{"displayFieldName":"TOWNNAME","fieldAliases":{"ID":"ID","DIS_CODE":"DIS_CODE","TOWNNAME":"TOWNNAME","LI":"LI","LIN":"LIN","STREET":"STREET","SECT":"SECT","MAREA":"MAREA","LANE":"LANE","ALLEY":"ALLEY","HOUSE_NO":"HOUSE_NO","E_COORD97":"E_COORD97","N_COORD97":"N_COORD97","ADDRESS":"ADDRESS","OBJECTID":"OBJECTID"},"geometryType":"esriGeometryPoint","spatialReference":{"wkid":102443,"latestWkid":3826},"fields":[{"name":"ID","type":"esriFieldTypeDouble","alias":"ID"},{"name":"DIS_CODE","type":"esriFieldTypeInteger","alias":"DIS_CODE"},{"name":"TOWNNAME","type":"esriFieldTypeString","alias":"TOWNNAME","length":8},{"name":"LI","type":"esriFieldTypeString","alias":"LI","length":8},{"name":"LIN","type":"esriFieldTypeString","alias":"LIN","length":12},{"name":"STREET","type":"esriFieldTypeString","alias":"STREET","length":20},{"name":"SECT","type":"esriFieldTypeString","alias":"SECT","length":8},{"name":"MAREA","type":"esriFieldTypeString","alias":"MAREA","length":12},{"name":"LANE","type":"esriFieldTypeString","alias":"LANE","length":10},{"name":"ALLEY","type":"esriFieldTypeString","alias":"ALLEY","length":10},{"name":"HOUSE_NO","type":"esriFieldTypeString","alias":"HOUSE_NO","length":20},{"name":"E_COORD97","type":"esriFieldTypeDouble","alias":"E_COORD97"},{"name":"N_COORD97","type":"esriFieldTypeDouble","alias":"N_COORD97"},{"name":"ADDRESS","type":"esriFieldTypeString","alias":"ADDRESS","length":50},{"name":"OBJECTID","type":"esriFieldTypeOID","alias":"OBJECTID"}],"features":[{"attributes":{"ID":91401,"DIS_CODE":0,"TOWNNAME":"北區","LI":"賢北里","LIN":"10鄰","STREET":"賢北街","SECT":" ","MAREA":" ","LANE":"１９巷","ALLEY":"８８弄","HOUSE_NO":"８號","E_COORD97":166121.35999999999,"N_COORD97":2545263.3199999998,"ADDRESS":"賢北街１９巷８８弄８號","OBJECTID":91401},"geometry":{"x":166121.36000000127,"y":2545263.320000004}},{"attributes":{"ID":91402,"DIS_CODE":0,"TOWNNAME":"北區","LI":"賢北里","LIN":"10鄰","STREET":"賢北街","SECT":" ","MAREA":" ","LANE":"１９巷","ALLEY":"８８弄","HOUSE_NO":"９號","E_COORD97":166135.54999999999,"N_COORD97":2545243.3700000001,"ADDRESS":"賢北街１９巷８８弄９號","OBJECTID":91402},"geometry":{"x":166135.54999999981,"y":2545243.3700000048}},{"attributes":{"ID":91403,"DIS_CODE":0,"TOWNNAME":"關廟區","LI":"新埔里","LIN":"10鄰","STREET":"新埔二街","SECT":" ","MAREA":" ","LANE":"５３巷","ALLEY":"７弄","HOUSE_NO":"３號","E_COORD97":181428.76999999999,"N_COORD97":2540964.25,"ADDRESS":"新埔二街５３巷７弄３號","OBJECTID":91403},"geometry":{"x":181428.77000000048,"y":2540964.2499999981}},{"attributes":{"ID":91404,"DIS_CODE":0,"TOWNNAME":"新化區","LI":"全興里","LIN":"12鄰","STREET":" ","SECT":" ","MAREA":"竹子\u25A0","LANE":" ","ALLEY":" ","HOUSE_NO":"２４７號之１２８","E_COORD97":178227.98999999999,"N_COORD97":2546804.2599999998,"ADDRESS":"竹子\u25A0２４７號之１２８","OBJECTID":91404},"geometry":{"x":178227.99000000022,"y":2546804.2599999998}},{"attributes":{"ID":91405,"DIS_CODE":0,"TOWNNAME":"新化區","LI":"全興里","LIN":"12鄰","STREET":" ","SECT":" ","MAREA":"竹子\u25A0","LANE":" ","ALLEY":" ","HOUSE_NO":"２４７號之１１８","E_COORD97":178251.09,"N_COORD97":2546803.2599999998,"ADDRESS":"竹子\u25A0２４７號之１１８","OBJECTID":91405},"geometry":{"x":178251.08999999985,"y":2546803.2600000016}},{"attributes":{"ID":91406,"DIS_CODE":0,"TOWNNAME":"佳里區","LI":"龍安里","LIN":"12鄰","STREET":" ","SECT":" ","MAREA":"塭子內","LANE":" ","ALLEY":" ","HOUSE_NO":"１１０號之１","E_COORD97":164387.47,"N_COORD97":2558207.7999999998,"ADDRESS":"塭子內１１０號之１","OBJECTID":91406},"geometry":{"x":164387.47000000067,"y":2558207.8000000007}},{"attributes":{"ID":91407,"DIS_CODE":0,"TOWNNAME":"佳里區","LI":"龍安里","LIN":"12鄰","STREET":" ","SECT":" ","MAREA":"塭子內","LANE":" ","ALLEY":" ","HOUSE_NO":"１１０號之２","E_COORD97":164384.67999999999,"N_COORD97":2558203.3999999999,"ADDRESS":"塭子內１１０號之２","OBJECTID":91407},"geometry":{"x":164384.68000000063,"y":2558203.4000000004}},{"attributes":{"ID":91408,"DIS_CODE":0,"TOWNNAME":"佳里區","LI":"龍安里","LIN":"12鄰","STREET":" ","SECT":" ","MAREA":"塭子內","LANE":" ","ALLEY":" ","HOUSE_NO":"１１０號之３","E_COORD97":164382.92999999999,"N_COORD97":2558199.4300000002,"ADDRESS":"塭子內１１０號之３","OBJECTID":91408},"geometry":{"x":164382.93000000063,"y":2558199.4299999978}},{"attributes":{"ID":91409,"DIS_CODE":0,"TOWNNAME":"佳里區","LI":"龍安里","LIN":"12鄰","STREET":" ","SECT":" ","MAREA":"塭子內","LANE":" ","ALLEY":" ","HOUSE_NO":"１１０號之４","E_COORD97":164381.10999999999,"N_COORD97":2558195.9100000001,"ADDRESS":"塭子內１１０號之４","OBJECTID":91409},"geometry":{"x":164381.11000000034,"y":2558195.9100000001}},{"attributes":{"ID":91410,"DIS_CODE":0,"TOWNNAME":"佳里區","LI":"龍安里","LIN":"12鄰","STREET":" ","SECT":" ","MAREA":"塭子內","LANE":" ","ALLEY":" ","HOUSE_NO":"１１０號之５","E_COORD97":164379.72,"N_COORD97":2558192.7000000002,"ADDRESS":"塭子內１１０號之５","OBJECTID":91410},"geometry":{"x":164379.71999999974,"y":2558192.6999999993}},{"attributes":{"ID":91411,"DIS_CODE":0,"TOWNNAME":"佳里區","LI":"龍安里","LIN":"12鄰","STREET":" ","SECT":" ","MAREA":"塭子內","LANE":" ","ALLEY":" ","HOUSE_NO":"１１０號之６","E_COORD97":164377.42999999999,"N_COORD97":2558189.3799999999,"ADDRESS":"塭子內１１０號之６","OBJECTID":91411},"geometry":{"x":164377.43000000063,"y":2558189.3800000008}},{"attributes":{"ID":91412,"DIS_CODE":0,"TOWNNAME":"佳里區","LI":"龍安里","LIN":"12鄰","STREET":" ","SECT":" ","MAREA":"塭子內","LANE":" ","ALLEY":" ","HOUSE_NO":"１１０號之７","E_COORD97":164376.17000000001,"N_COORD97":2558185.6400000001,"ADDRESS":"塭子內１１０號之７","OBJECTID":91412},"geometry":{"x":164376.17000000086,"y":2558185.6400000043}},{"attributes":{"ID":91413,"DIS_CODE":0,"TOWNNAME":"佳里區","LI":"龍安里","LIN":"12鄰","STREET":" ","SECT":" ","MAREA":"塭子內","LANE":" ","ALLEY":" ","HOUSE_NO":"１１０號之９","E_COORD97":164377.41,"N_COORD97":2558167,"ADDRESS":"塭子內１１０號之９","OBJECTID":91413},"geometry":{"x":164377.41000000015,"y":2558167.0000000019}},{"attributes":{"ID":91414,"DIS_CODE":0,"TOWNNAME":"佳里區","LI":"龍安里","LIN":"12鄰","STREET":" ","SECT":" ","MAREA":"塭子內","LANE":" ","ALLEY":" ","HOUSE_NO":"１１０號","E_COORD97":164400.13,"N_COORD97":2558174.8900000001,"ADDRESS":"塭子內１１０號","OBJECTID":91414},"geometry":{"x":164400.13000000082,"y":2558174.8900000025}},{"attributes":{"ID":91415,"DIS_CODE":0,"TOWNNAME":"佳里區","LI":"龍安里","LIN":"12鄰","STREET":" ","SECT":" ","MAREA":"塭子內","LANE":" ","ALLEY":" ","HOUSE_NO":"１１１號之１","E_COORD97":164401.69,"N_COORD97":2558141.2799999998,"ADDRESS":"塭子內１１１號之１","OBJECTID":91415},"geometry":{"x":164401.69000000227,"y":2558141.2799999993}},{"attributes":{"ID":91416,"DIS_CODE":0,"TOWNNAME":"佳里區","LI":"龍安里","LIN":"12鄰","STREET":" ","SECT":" ","MAREA":"塭子內","LANE":" ","ALLEY":" ","HOUSE_NO":"１１１號之２０","E_COORD97":164325.82999999999,"N_COORD97":2558061.3199999998,"ADDRESS":"塭子內１１１號之２０","OBJECTID":91416},"geometry":{"x":164325.83000000194,"y":2558061.3200000003}},{"attributes":{"ID":91417,"DIS_CODE":0,"TOWNNAME":"佳里區","LI":"佳化里","LIN":"15鄰","STREET":" ","SECT":" ","MAREA":"佳里興","LANE":" ","ALLEY":" ","HOUSE_NO":"１４４號","E_COORD97":167363.57000000001,"N_COORD97":2565071.1600000001,"ADDRESS":"佳里興１４４號","OBJECTID":91417},"geometry":{"x":167363.5700000003,"y":2565071.160000002}},{"attributes":{"ID":91418,"DIS_CODE":0,"TOWNNAME":"佳里區","LI":"佳化里","LIN":"15鄰","STREET":" ","SECT":" ","MAREA":"佳里興","LANE":" ","ALLEY":" ","HOUSE_NO":"１４５號","E_COORD97":167344.26000000001,"N_COORD97":2565086.8700000001,"ADDRESS":"佳里興１４５號","OBJECTID":91418},"geometry":{"x":167344.25999999978,"y":2565086.870000001}},{"attributes":{"ID":91419,"DIS_CODE":0,"TOWNNAME":"佳里區","LI":"佳化里","LIN":"15鄰","STREET":" ","SECT":" ","MAREA":"佳里興","LANE":" ","ALLEY":" ","HOUSE_NO":"１４７號之１","E_COORD97":167296.07999999999,"N_COORD97":2565056.96,"ADDRESS":"佳里興１４７號之１","OBJECTID":91419},"geometry":{"x":167296.08000000101,"y":2565056.9600000028}},{"attributes":{"ID":91420,"DIS_CODE":0,"TOWNNAME":"佳里區","LI":"興化里","LIN":"15鄰","STREET":" ","SECT":" ","MAREA":"佳里興","LANE":" ","ALLEY":" ","HOUSE_NO":"５５４號之２","E_COORD97":166580.75,"N_COORD97":2565273.1800000002,"ADDRESS":"佳里興５５４號之２","OBJECTID":91420},"geometry":{"x":166580.74999999907,"y":2565273.1799999997}},{"attributes":{"ID":91421,"DIS_CODE":0,"TOWNNAME":"佳里區","LI":"興化里","LIN":"15鄰","STREET":" ","SECT":" ","MAREA":"佳里興","LANE":" ","ALLEY":" ","HOUSE_NO":"５５４號之３","E_COORD97":166576.23000000001,"N_COORD97":2565273.8199999998,"ADDRESS":"佳里興５５４號之３","OBJECTID":91421},"geometry":{"x":166576.22999999952,"y":2565273.8200000022}},{"attributes":{"ID":91422,"DIS_CODE":0,"TOWNNAME":"七股區","LI":"看坪里","LIN":"9鄰","STREET":" ","SECT":" ","MAREA":"看坪","LANE":" ","ALLEY":" ","HOUSE_NO":"６５號","E_COORD97":161818.10999999999,"N_COORD97":2558127.02,"ADDRESS":"看坪６５號","OBJECTID":91422},"geometry":{"x":161818.11000000034,"y":2558127.0199999996}},{"attributes":{"ID":91423,"DIS_CODE":0,"TOWNNAME":"佳里區","LI":"興化里","LIN":"15鄰","STREET":" ","SECT":" ","MAREA":"佳里興","LANE":" ","ALLEY":" ","HOUSE_NO":"５５４號之４","E_COORD97":166571.62,"N_COORD97":2565274.6099999999,"ADDRESS":"佳里興５５４號之４","OBJECTID":91423},"geometry":{"x":166571.62000000197,"y":2565274.6100000013}},{"attributes":{"ID":91424,"DIS_CODE":0,"TOWNNAME":"佳里區","LI":"興化里","LIN":"15鄰","STREET":" ","SECT":" ","MAREA":"佳里興","LANE":" ","ALLEY":" ","HOUSE_NO":"５５４號","E_COORD97":166600.41,"N_COORD97":2565270.4500000002,"ADDRESS":"佳里興５５４號","OBJECTID":91424},"geometry":{"x":166600.41000000108,"y":2565270.4499999993}},{"attributes":{"ID":91425,"DIS_CODE":0,"TOWNNAME":"佳里區","LI":"興化里","LIN":"15鄰","STREET":" ","SECT":" ","MAREA":"佳里興","LANE":" ","ALLEY":" ","HOUSE_NO":"５５５號","E_COORD97":166580.81,"N_COORD97":2565313.8100000001,"ADDRESS":"佳里興５５５號","OBJECTID":91425},"geometry":{"x":166580.81000000052,"y":2565313.8100000005}},{"attributes":{"ID":91426,"DIS_CODE":0,"TOWNNAME":"佳里區","LI":"興化里","LIN":"15鄰","STREET":" ","SECT":" ","MAREA":"佳里興","LANE":" ","ALLEY":" ","HOUSE_NO":"５５７號","E_COORD97":166581.73000000001,"N_COORD97":2565339.54,"ADDRESS":"佳里興５５７號","OBJECTID":91426},"geometry":{"x":166581.73000000138,"y":2565339.540000001}},{"attributes":{"ID":91427,"DIS_CODE":0,"TOWNNAME":"佳里區","LI":"興化里","LIN":"15鄰","STREET":" ","SECT":" ","MAREA":"佳里興","LANE":" ","ALLEY":" ","HOUSE_NO":"５５８號","E_COORD97":166578.34,"N_COORD97":2565354.27,"ADDRESS":"佳里興５５８號","OBJECTID":91427},"geometry":{"x":166578.34000000171,"y":2565354.2700000033}},{"attributes":{"ID":91428,"DIS_CODE":0,"TOWNNAME":"佳里區","LI":"興化里","LIN":"15鄰","STREET":" ","SECT":" ","MAREA":"佳里興","LANE":" ","ALLEY":" ","HOUSE_NO":"５５９號","E_COORD97":166574.81,"N_COORD97":2565373.6600000001,"ADDRESS":"佳里興５５９號","OBJECTID":91428},"geometry":{"x":166574.80999999866,"y":2565373.660000002}},{"attributes":{"ID":91429,"DIS_CODE":0,"TOWNNAME":"佳里區","LI":"龍安里","LIN":"12鄰","STREET":" ","SECT":" ","MAREA":"塭子內","LANE":" ","ALLEY":" ","HOUSE_NO":"１１１號之２１","E_COORD97":164261.04000000001,"N_COORD97":2557950.4100000001,"ADDRESS":"塭子內１１１號之２１","OBJECTID":91429},"geometry":{"x":164261.04000000004,"y":2557950.410000002}},{"attributes":{"ID":91430,"DIS_CODE":0,"TOWNNAME":"佳里區","LI":"龍安里","LIN":"12鄰","STREET":" ","SECT":" ","MAREA":"塭子內","LANE":" ","ALLEY":" ","HOUSE_NO":"１１１號之９","E_COORD97":164346.60000000001,"N_COORD97":2558126.75,"ADDRESS":"塭子內１１１號之９","OBJECTID":91430},"geometry":{"x":164346.59999999963,"y":2558126.7500000037}},{"attributes":{"ID":91431,"DIS_CODE":0,"TOWNNAME":"佳里區","LI":"龍安里","LIN":"12鄰","STREET":" ","SECT":" ","MAREA":"塭子內","LANE":" ","ALLEY":" ","HOUSE_NO":"１１１號","E_COORD97":164381,"N_COORD97":2558116.4300000002,"ADDRESS":"塭子內１１１號","OBJECTID":91431},"geometry":{"x":164381.00000000093,"y":2558116.4300000016}},{"attributes":{"ID":91432,"DIS_CODE":0,"TOWNNAME":"佳里區","LI":"民安里","LIN":"12鄰","STREET":" ","SECT":" ","MAREA":"新宅","LANE":" ","ALLEY":" ","HOUSE_NO":"１５號之１９","E_COORD97":167515.82999999999,"N_COORD97":2564531.5899999999,"ADDRESS":"新宅１５號之１９","OBJECTID":91432},"geometry":{"x":167515.83000000007,"y":2564531.5899999999}},{"attributes":{"ID":91433,"DIS_CODE":0,"TOWNNAME":"佳里區","LI":"民安里","LIN":"12鄰","STREET":" ","SECT":" ","MAREA":"新宅","LANE":" ","ALLEY":" ","HOUSE_NO":"１５號之１","E_COORD97":167560.84,"N_COORD97":2564534.3100000001,"ADDRESS":"新宅１５號之１","OBJECTID":91433},"geometry":{"x":167560.83999999985,"y":2564534.3099999987}},{"attributes":{"ID":91434,"DIS_CODE":0,"TOWNNAME":"關廟區","LI":"新埔里","LIN":"10鄰","STREET":"新埔二街","SECT":" ","MAREA":" ","LANE":"５３巷","ALLEY":"７弄","HOUSE_NO":"８號","E_COORD97":181419.17000000001,"N_COORD97":2540947.25,"ADDRESS":"新埔二街５３巷７弄８號","OBJECTID":91434},"geometry":{"x":181419.16999999899,"y":2540947.2499999981}},{"attributes":{"ID":91435,"DIS_CODE":0,"TOWNNAME":"關廟區","LI":"新埔里","LIN":"10鄰","STREET":"新埔二街","SECT":" ","MAREA":" ","LANE":"５３巷","ALLEY":"７弄","HOUSE_NO":"１６號","E_COORD97":181438.01999999999,"N_COORD97":2540948.25,"ADDRESS":"新埔二街５３巷７弄１６號","OBJECTID":91435},"geometry":{"x":181438.01999999955,"y":2540948.2500000019}},{"attributes":{"ID":91436,"DIS_CODE":0,"TOWNNAME":"關廟區","LI":"埤頭里","LIN":"10鄰","STREET":"關新路","SECT":"二段","MAREA":" ","LANE":"５１巷","ALLEY":"５５弄","HOUSE_NO":"９號","E_COORD97":178887.67000000001,"N_COORD97":2544129.2999999998,"ADDRESS":"關新路二段５１巷５５弄９號","OBJECTID":91436},"geometry":{"x":178887.66999999993,"y":2544129.3000000026}},{"attributes":{"ID":91437,"DIS_CODE":0,"TOWNNAME":"關廟區","LI":"埤頭里","LIN":"10鄰","STREET":"關新路","SECT":"二段","MAREA":" ","LANE":"５１巷","ALLEY":"６８弄","HOUSE_NO":"６號","E_COORD97":178903.97,"N_COORD97":2544175.25,"ADDRESS":"關新路二段５１巷６８弄６號","OBJECTID":91437},"geometry":{"x":178903.96999999974,"y":2544175.2500000037}},{"attributes":{"ID":91438,"DIS_CODE":0,"TOWNNAME":"關廟區","LI":"關廟里","LIN":"10鄰","STREET":"大仁街","SECT":" ","MAREA":" ","LANE":"３４６巷","ALLEY":"４５弄","HOUSE_NO":"１號","E_COORD97":180849.62,"N_COORD97":2539604.25,"ADDRESS":"大仁街３４６巷４５弄１號","OBJECTID":91438},"geometry":{"x":180849.62000000011,"y":2539604.25}},{"attributes":{"ID":91439,"DIS_CODE":0,"TOWNNAME":"仁德區","LI":"上崙里","LIN":"10鄰","STREET":"德善路","SECT":" ","MAREA":" ","LANE":"３０５巷","ALLEY":"１３弄","HOUSE_NO":"１５５號","E_COORD97":174109.70999999999,"N_COORD97":2538311.96,"ADDRESS":"德善路３０５巷１３弄１５５號","OBJECTID":91439},"geometry":{"x":174109.71000000089,"y":2538311.9600000009}},{"attributes":{"ID":91440,"DIS_CODE":0,"TOWNNAME":"關廟區","LI":"新埔里","LIN":"10鄰","STREET":"新埔二街","SECT":" ","MAREA":" ","LANE":"５３巷","ALLEY":"７弄","HOUSE_NO":"５號","E_COORD97":181434.87,"N_COORD97":2540964.25,"ADDRESS":"新埔二街５３巷７弄５號","OBJECTID":91440},"geometry":{"x":181434.87000000011,"y":2540964.2499999981}},{"attributes":{"ID":91441,"DIS_CODE":0,"TOWNNAME":"北區","LI":"公園里","LIN":"10鄰","STREET":"成功路","SECT":" ","MAREA":" ","LANE":"２２巷","ALLEY":"１８弄","HOUSE_NO":"１２０號","E_COORD97":168999.54000000001,"N_COORD97":2544360.0899999999,"ADDRESS":"成功路２２巷１８弄１２０號","OBJECTID":91441},"geometry":{"x":168999.53999999911,"y":2544360.0900000017}},{"attributes":{"ID":91442,"DIS_CODE":0,"TOWNNAME":"佳里區","LI":"民安里","LIN":"12鄰","STREET":" ","SECT":" ","MAREA":"新宅","LANE":" ","ALLEY":" ","HOUSE_NO":"１５號之２０","E_COORD97":167509.32999999999,"N_COORD97":2564548.9300000002,"ADDRESS":"新宅１５號之２０","OBJECTID":91442},"geometry":{"x":167509.33000000194,"y":2564548.9299999997}},{"attributes":{"ID":91443,"DIS_CODE":0,"TOWNNAME":"佳里區","LI":"民安里","LIN":"12鄰","STREET":" ","SECT":" ","MAREA":"新宅","LANE":" ","ALLEY":" ","HOUSE_NO":"１５號之２１","E_COORD97":167510.42999999999,"N_COORD97":2564531.4700000002,"ADDRESS":"新宅１５號之２１","OBJECTID":91443},"geometry":{"x":167510.43000000063,"y":2564531.4700000025}},{"attributes":{"ID":91444,"DIS_CODE":0,"TOWNNAME":"佳里區","LI":"民安里","LIN":"12鄰","STREET":" ","SECT":" ","MAREA":"新宅","LANE":" ","ALLEY":" ","HOUSE_NO":"１５號之２２","E_COORD97":167504.79000000001,"N_COORD97":2564548.5299999998,"ADDRESS":"新宅１５號之２２","OBJECTID":91444},"geometry":{"x":167504.79000000097,"y":2564548.5299999975}},{"attributes":{"ID":91445,"DIS_CODE":0,"TOWNNAME":"佳里區","LI":"民安里","LIN":"12鄰","STREET":" ","SECT":" ","MAREA":"新宅","LANE":" ","ALLEY":" ","HOUSE_NO":"１５號之２３","E_COORD97":167505.92999999999,"N_COORD97":2564531.23,"ADDRESS":"新宅１５號之２３","OBJECTID":91445},"geometry":{"x":167505.9299999997,"y":2564531.2300000004}},{"attributes":{"ID":91446,"DIS_CODE":0,"TOWNNAME":"佳里區","LI":"民安里","LIN":"12鄰","STREET":" ","SECT":" ","MAREA":"新宅","LANE":" ","ALLEY":" ","HOUSE_NO":"１５號之２","E_COORD97":167554.67999999999,"N_COORD97":2564551.1800000002,"ADDRESS":"新宅１５號之２","OBJECTID":91446},"geometry":{"x":167554.68000000063,"y":2564551.1799999997}},{"attributes":{"ID":91447,"DIS_CODE":0,"TOWNNAME":"佳里區","LI":"民安里","LIN":"12鄰","STREET":" ","SECT":" ","MAREA":"新宅","LANE":" ","ALLEY":" ","HOUSE_NO":"１５號之３","E_COORD97":167555.59,"N_COORD97":2564533.7400000002,"ADDRESS":"新宅１５號之３","OBJECTID":91447},"geometry":{"x":167555.59000000078,"y":2564533.7400000002}},{"attributes":{"ID":91448,"DIS_CODE":0,"TOWNNAME":"北區","LI":"公園里","LIN":"10鄰","STREET":"成功路","SECT":" ","MAREA":" ","LANE":"２２巷","ALLEY":"１８弄","HOUSE_NO":"１２２號","E_COORD97":169000.10999999999,"N_COORD97":2544364.9300000002,"ADDRESS":"成功路２２巷１８弄１２２號","OBJECTID":91448},"geometry":{"x":169000.11000000127,"y":2544364.9300000016}},{"attributes":{"ID":91449,"DIS_CODE":0,"TOWNNAME":"北區","LI":"公園里","LIN":"10鄰","STREET":"成功路","SECT":" ","MAREA":" ","LANE":"２２巷","ALLEY":"１８弄","HOUSE_NO":"１２４號","E_COORD97":169001.67999999999,"N_COORD97":2544368.7799999998,"ADDRESS":"成功路２２巷１８弄１２４號","OBJECTID":91449},"geometry":{"x":169001.68000000156,"y":2544368.7800000012}},{"attributes":{"ID":91450,"DIS_CODE":0,"TOWNNAME":"北區","LI":"公園里","LIN":"10鄰","STREET":"成功路","SECT":" ","MAREA":" ","LANE":"２２巷","ALLEY":"４２弄","HOUSE_NO":"１６號","E_COORD97":168900.5,"N_COORD97":2544405.6299999999,"ADDRESS":"成功路２２巷４２弄１６號","OBJECTID":91450},"geometry":{"x":168900.50000000093,"y":2544405.6300000027}},{"attributes":{"ID":91451,"DIS_CODE":0,"TOWNNAME":"北區","LI":"公園里","LIN":"10鄰","STREET":"成功路","SECT":" ","MAREA":" ","LANE":"２２巷","ALLEY":"１８弄","HOUSE_NO":"１００號","E_COORD97":168979.03,"N_COORD97":2544348.6000000001,"ADDRESS":"成功路２２巷１８弄１００號","OBJECTID":91451},"geometry":{"x":168979.03000000026,"y":2544348.6000000034}},{"attributes":{"ID":91452,"DIS_CODE":0,"TOWNNAME":"北區","LI":"公園里","LIN":"10鄰","STREET":"成功路","SECT":" ","MAREA":" ","LANE":"２２巷","ALLEY":"１８弄","HOUSE_NO":"１０２號","E_COORD97":168975.04000000001,"N_COORD97":2544346.8900000001,"ADDRESS":"成功路２２巷１８弄１０２號","OBJECTID":91452},"geometry":{"x":168975.04000000097,"y":2544346.8900000006}},{"attributes":{"ID":91453,"DIS_CODE":0,"TOWNNAME":"北區","LI":"公園里","LIN":"10鄰","STREET":"成功路","SECT":" ","MAREA":" ","LANE":"２２巷","ALLEY":"１８弄","HOUSE_NO":"１０４號","E_COORD97":168971.04000000001,"N_COORD97":2544345.6099999999,"ADDRESS":"成功路２２巷１８弄１０４號","OBJECTID":91453},"geometry":{"x":168971.04000000097,"y":2544345.6100000013}},{"attributes":{"ID":91454,"DIS_CODE":0,"TOWNNAME":"北區","LI":"公園里","LIN":"10鄰","STREET":"成功路","SECT":" ","MAREA":" ","LANE":"２２巷","ALLEY":"１８弄","HOUSE_NO":"１０６號","E_COORD97":168966.76000000001,"N_COORD97":2544344.3300000001,"ADDRESS":"成功路２２巷１８弄１０６號","OBJECTID":91454},"geometry":{"x":168966.75999999978,"y":2544344.3300000038}},{"attributes":{"ID":91455,"DIS_CODE":0,"TOWNNAME":"西港區","LI":"南海里","LIN":"12鄰","STREET":" ","SECT":" ","MAREA":"南海埔","LANE":" ","ALLEY":" ","HOUSE_NO":"１０５號","E_COORD97":167701.60000000001,"N_COORD97":2557437.9900000002,"ADDRESS":"南海埔１０５號","OBJECTID":91455},"geometry":{"x":167701.59999999963,"y":2557437.9900000021}},{"attributes":{"ID":91456,"DIS_CODE":0,"TOWNNAME":"北區","LI":"公園里","LIN":"10鄰","STREET":"成功路","SECT":" ","MAREA":" ","LANE":"２２巷","ALLEY":"１８弄","HOUSE_NO":"１０８號","E_COORD97":168962.48999999999,"N_COORD97":2544343.0499999998,"ADDRESS":"成功路２２巷１８弄１０８號","OBJECTID":91456},"geometry":{"x":168962.49000000022,"y":2544343.0500000007}},{"attributes":{"ID":91457,"DIS_CODE":0,"TOWNNAME":"北區","LI":"公園里","LIN":"10鄰","STREET":"成功路","SECT":" ","MAREA":" ","LANE":"２２巷","ALLEY":"１８弄","HOUSE_NO":"１１０號","E_COORD97":168957.92000000001,"N_COORD97":2544341.7599999998,"ADDRESS":"成功路２２巷１８弄１１０號","OBJECTID":91457},"geometry":{"x":168957.92000000179,"y":2544341.7600000016}},{"attributes":{"ID":91458,"DIS_CODE":0,"TOWNNAME":"北區","LI":"公園里","LIN":"10鄰","STREET":"成功路","SECT":" ","MAREA":" ","LANE":"２２巷","ALLEY":"１８弄","HOUSE_NO":"３０號","E_COORD97":168950.22,"N_COORD97":2544346.4100000001,"ADDRESS":"成功路２２巷１８弄３０號","OBJECTID":91458},"geometry":{"x":168950.21999999974,"y":2544346.4100000001}},{"attributes":{"ID":91459,"DIS_CODE":0,"TOWNNAME":"北區","LI":"公園里","LIN":"10鄰","STREET":"成功路","SECT":" ","MAREA":" ","LANE":"２２巷","ALLEY":"１８弄","HOUSE_NO":"３２號","E_COORD97":168951.35999999999,"N_COORD97":2544342,"ADDRESS":"成功路２２巷１８弄３２號","OBJECTID":91459},"geometry":{"x":168951.36000000034,"y":2544342}},{"attributes":{"ID":91460,"DIS_CODE":0,"TOWNNAME":"北區","LI":"公園里","LIN":"10鄰","STREET":"成功路","SECT":" ","MAREA":" ","LANE":"２２巷","ALLEY":"１８弄","HOUSE_NO":"３４號","E_COORD97":168952.51000000001,"N_COORD97":2544338.71,"ADDRESS":"成功路２２巷１８弄３４號","OBJECTID":91460},"geometry":{"x":168952.51000000071,"y":2544338.7100000009}},{"attributes":{"ID":91461,"DIS_CODE":0,"TOWNNAME":"北區","LI":"公園里","LIN":"10鄰","STREET":"成功路","SECT":" ","MAREA":" ","LANE":"２２巷","ALLEY":"１８弄","HOUSE_NO":"３６號","E_COORD97":168953.35000000001,"N_COORD97":2544334.1600000001,"ADDRESS":"成功路２２巷１８弄３６號","OBJECTID":91461},"geometry":{"x":168953.35000000056,"y":2544334.1600000001}},{"attributes":{"ID":91462,"DIS_CODE":0,"TOWNNAME":"佳里區","LI":"民安里","LIN":"12鄰","STREET":" ","SECT":" ","MAREA":"新宅","LANE":" ","ALLEY":" ","HOUSE_NO":"１５號之４","E_COORD97":167550.07000000001,"N_COORD97":2564551.3900000001,"ADDRESS":"新宅１５號之４","OBJECTID":91462},"geometry":{"x":167550.0700000003,"y":2564551.3900000025}},{"attributes":{"ID":91463,"DIS_CODE":0,"TOWNNAME":"佳里區","LI":"民安里","LIN":"12鄰","STREET":" ","SECT":" ","MAREA":"新宅","LANE":" ","ALLEY":" ","HOUSE_NO":"１５號之５","E_COORD97":167550.45999999999,"N_COORD97":2564533.6299999999,"ADDRESS":"新宅１５號之５","OBJECTID":91463},"geometry":{"x":167550.45999999996,"y":2564533.629999999}},{"attributes":{"ID":91464,"DIS_CODE":0,"TOWNNAME":"佳里區","LI":"民安里","LIN":"12鄰","STREET":" ","SECT":" ","MAREA":"新宅","LANE":" ","ALLEY":" ","HOUSE_NO":"１５號之６","E_COORD97":167544.67000000001,"N_COORD97":2564551.0499999998,"ADDRESS":"新宅１５號之６","OBJECTID":91464},"geometry":{"x":167544.67000000086,"y":2564551.0500000026}},{"attributes":{"ID":91465,"DIS_CODE":0,"TOWNNAME":"佳里區","LI":"民安里","LIN":"12鄰","STREET":" ","SECT":" ","MAREA":"新宅","LANE":" ","ALLEY":" ","HOUSE_NO":"１５號之７","E_COORD97":167545.5,"N_COORD97":2564532.8399999999,"ADDRESS":"新宅１５號之７","OBJECTID":91465},"geometry":{"x":167545.50000000186,"y":2564532.8399999999}},{"attributes":{"ID":91466,"DIS_CODE":0,"TOWNNAME":"佳里區","LI":"民安里","LIN":"12鄰","STREET":" ","SECT":" ","MAREA":"新宅","LANE":" ","ALLEY":" ","HOUSE_NO":"１５號之８","E_COORD97":167539.56,"N_COORD97":2564550.3599999999,"ADDRESS":"新宅１５號之８","OBJECTID":91466},"geometry":{"x":167539.56000000145,"y":2564550.3600000013}},{"attributes":{"ID":91467,"DIS_CODE":0,"TOWNNAME":"佳里區","LI":"民安里","LIN":"12鄰","STREET":" ","SECT":" ","MAREA":"新宅","LANE":" ","ALLEY":" ","HOUSE_NO":"１５號之９","E_COORD97":167540.06,"N_COORD97":2564532.8900000001,"ADDRESS":"新宅１５號之９","OBJECTID":91467},"geometry":{"x":167540.06000000052,"y":2564532.8900000006}},{"attributes":{"ID":91468,"DIS_CODE":0,"TOWNNAME":"佳里區","LI":"民安里","LIN":"12鄰","STREET":" ","SECT":" ","MAREA":"新宅","LANE":" ","ALLEY":" ","HOUSE_NO":"１５號","E_COORD97":167559.59,"N_COORD97":2564551.98,"ADDRESS":"新宅１５號","OBJECTID":91468},"geometry":{"x":167559.58999999985,"y":2564551.9800000004}},{"attributes":{"ID":91469,"DIS_CODE":0,"TOWNNAME":"佳里區","LI":"民安里","LIN":"12鄰","STREET":" ","SECT":" ","MAREA":"新宅","LANE":" ","ALLEY":" ","HOUSE_NO":"１７號之１","E_COORD97":167621.76000000001,"N_COORD97":2564538.73,"ADDRESS":"新宅１７號之１","OBJECTID":91469},"geometry":{"x":167621.76000000071,"y":2564538.7300000023}},{"attributes":{"ID":91470,"DIS_CODE":0,"TOWNNAME":"佳里區","LI":"民安里","LIN":"12鄰","STREET":" ","SECT":" ","MAREA":"新宅","LANE":" ","ALLEY":" ","HOUSE_NO":"１７號之２","E_COORD97":167662.97,"N_COORD97":2564572.27,"ADDRESS":"新宅１７號之２","OBJECTID":91470},"geometry":{"x":167662.97000000067,"y":2564572.2700000014}},{"attributes":{"ID":91471,"DIS_CODE":0,"TOWNNAME":"佳里區","LI":"民安里","LIN":"12鄰","STREET":" ","SECT":" ","MAREA":"新宅","LANE":" ","ALLEY":" ","HOUSE_NO":"１７號之３","E_COORD97":167612.53,"N_COORD97":2564541.75,"ADDRESS":"新宅１７號之３","OBJECTID":91471},"geometry":{"x":167612.53000000026,"y":2564541.7500000019}},{"attributes":{"ID":91472,"DIS_CODE":0,"TOWNNAME":"佳里區","LI":"民安里","LIN":"12鄰","STREET":" ","SECT":" ","MAREA":"新宅","LANE":" ","ALLEY":" ","HOUSE_NO":"１７號之６","E_COORD97":167650.98000000001,"N_COORD97":2564600.04,"ADDRESS":"新宅１７號之６","OBJECTID":91472},"geometry":{"x":167650.97999999952,"y":2564600.040000001}},{"attributes":{"ID":91473,"DIS_CODE":0,"TOWNNAME":"佳里區","LI":"民安里","LIN":"12鄰","STREET":" ","SECT":" ","MAREA":"新宅","LANE":" ","ALLEY":" ","HOUSE_NO":"１７號之７","E_COORD97":167600.04000000001,"N_COORD97":2564541.6499999999,"ADDRESS":"新宅１７號之７","OBJECTID":91473},"geometry":{"x":167600.04000000097,"y":2564541.6500000004}},{"attributes":{"ID":91474,"DIS_CODE":0,"TOWNNAME":"佳里區","LI":"民安里","LIN":"12鄰","STREET":" ","SECT":" ","MAREA":"新宅","LANE":" ","ALLEY":" ","HOUSE_NO":"１９號之１","E_COORD97":167549.39999999999,"N_COORD97":2564565.8500000001,"ADDRESS":"新宅１９號之１","OBJECTID":91474},"geometry":{"x":167549.40000000037,"y":2564565.8499999996}},{"attributes":{"ID":91475,"DIS_CODE":0,"TOWNNAME":"佳里區","LI":"民安里","LIN":"12鄰","STREET":" ","SECT":" ","MAREA":"新宅","LANE":" ","ALLEY":" ","HOUSE_NO":"１９號","E_COORD97":167580.56,"N_COORD97":2564552.6600000001,"ADDRESS":"新宅１９號","OBJECTID":91475},"geometry":{"x":167580.56000000052,"y":2564552.660000002}},{"attributes":{"ID":91476,"DIS_CODE":0,"TOWNNAME":"佳里區","LI":"民安里","LIN":"12鄰","STREET":" ","SECT":" ","MAREA":"新宅","LANE":" ","ALLEY":" ","HOUSE_NO":"２１號","E_COORD97":167577.51000000001,"N_COORD97":2564582.8199999998,"ADDRESS":"新宅２１號","OBJECTID":91476},"geometry":{"x":167577.51000000071,"y":2564582.8200000022}},{"attributes":{"ID":91477,"DIS_CODE":0,"TOWNNAME":"西港區","LI":"西港里","LIN":"12鄰","STREET":" ","SECT":" ","MAREA":"西港","LANE":" ","ALLEY":" ","HOUSE_NO":"２６號之３４","E_COORD97":168554.51000000001,"N_COORD97":2558059.52,"ADDRESS":"西港２６號之３４","OBJECTID":91477},"geometry":{"x":168554.51000000071,"y":2558059.5199999996}},{"attributes":{"ID":91478,"DIS_CODE":0,"TOWNNAME":"西港區","LI":"西港里","LIN":"12鄰","STREET":" ","SECT":" ","MAREA":"西港","LANE":" ","ALLEY":" ","HOUSE_NO":"２６號之３５","E_COORD97":168550.28,"N_COORD97":2558058.6299999999,"ADDRESS":"西港２６號之３５","OBJECTID":91478},"geometry":{"x":168550.28000000026,"y":2558058.6300000027}},{"attributes":{"ID":91479,"DIS_CODE":0,"TOWNNAME":"西港區","LI":"西港里","LIN":"12鄰","STREET":" ","SECT":" ","MAREA":"西港","LANE":" ","ALLEY":" ","HOUSE_NO":"２７號之１０","E_COORD97":168585.62,"N_COORD97":2558009.96,"ADDRESS":"西港２７號之１０","OBJECTID":91479},"geometry":{"x":168585.62000000197,"y":2558009.9600000009}},{"attributes":{"ID":91480,"DIS_CODE":0,"TOWNNAME":"西港區","LI":"西港里","LIN":"12鄰","STREET":" ","SECT":" ","MAREA":"西港","LANE":" ","ALLEY":" ","HOUSE_NO":"２７號之１１","E_COORD97":168575.42999999999,"N_COORD97":2558043.1400000001,"ADDRESS":"西港２７號之１１","OBJECTID":91480},"geometry":{"x":168575.4299999997,"y":2558043.1400000043}},{"attributes":{"ID":91481,"DIS_CODE":0,"TOWNNAME":"西港區","LI":"西港里","LIN":"12鄰","STREET":" ","SECT":" ","MAREA":"西港","LANE":" ","ALLEY":" ","HOUSE_NO":"２７號之１２","E_COORD97":168589.64999999999,"N_COORD97":2558043.2000000002,"ADDRESS":"西港２７號之１２","OBJECTID":91481},"geometry":{"x":168589.6500000013,"y":2558043.1999999993}},{"attributes":{"ID":91482,"DIS_CODE":0,"TOWNNAME":"西港區","LI":"西港里","LIN":"12鄰","STREET":" ","SECT":" ","MAREA":"西港","LANE":" ","ALLEY":" ","HOUSE_NO":"２７號之２","E_COORD97":168552.82000000001,"N_COORD97":2557999.04,"ADDRESS":"西港２７號之２","OBJECTID":91482},"geometry":{"x":168552.82000000123,"y":2557999.040000001}},{"attributes":{"ID":91483,"DIS_CODE":0,"TOWNNAME":"北區","LI":"公園里","LIN":"10鄰","STREET":"成功路","SECT":" ","MAREA":" ","LANE":"２２巷","ALLEY":"１８弄","HOUSE_NO":"３８號","E_COORD97":168954.78,"N_COORD97":2544330.8900000001,"ADDRESS":"成功路２２巷１８弄３８號","OBJECTID":91483},"geometry":{"x":168954.78000000119,"y":2544330.8900000043}},{"attributes":{"ID":91484,"DIS_CODE":0,"TOWNNAME":"西港區","LI":"西港里","LIN":"12鄰","STREET":" ","SECT":" ","MAREA":"西港","LANE":" ","ALLEY":" ","HOUSE_NO":"２７號之３","E_COORD97":168556.54000000001,"N_COORD97":2558000.2000000002,"ADDRESS":"西港２７號之３","OBJECTID":91484},"geometry":{"x":168556.54000000004,"y":2558000.1999999993}},{"attributes":{"ID":91485,"DIS_CODE":0,"TOWNNAME":"西港區","LI":"西港里","LIN":"12鄰","STREET":" ","SECT":" ","MAREA":"西港","LANE":" ","ALLEY":" ","HOUSE_NO":"２７號之４","E_COORD97":168561.63,"N_COORD97":2558002.3799999999,"ADDRESS":"西港２７號之４","OBJECTID":91485},"geometry":{"x":168561.63000000175,"y":2558002.3800000027}},{"attributes":{"ID":91486,"DIS_CODE":0,"TOWNNAME":"西港區","LI":"西港里","LIN":"12鄰","STREET":" ","SECT":" ","MAREA":"西港","LANE":" ","ALLEY":" ","HOUSE_NO":"２７號之５","E_COORD97":168565.67999999999,"N_COORD97":2558004.1899999999,"ADDRESS":"西港２７號之５","OBJECTID":91486},"geometry":{"x":168565.6799999997,"y":2558004.1899999976}},{"attributes":{"ID":91487,"DIS_CODE":0,"TOWNNAME":"西港區","LI":"西港里","LIN":"12鄰","STREET":" ","SECT":" ","MAREA":"西港","LANE":" ","ALLEY":" ","HOUSE_NO":"２７號之６","E_COORD97":168569.41,"N_COORD97":2558005.23,"ADDRESS":"西港２７號之６","OBJECTID":91487},"geometry":{"x":168569.41000000015,"y":2558005.2300000042}},{"attributes":{"ID":91488,"DIS_CODE":0,"TOWNNAME":"西港區","LI":"西港里","LIN":"12鄰","STREET":" ","SECT":" ","MAREA":"西港","LANE":" ","ALLEY":" ","HOUSE_NO":"２７號之７","E_COORD97":168573.57999999999,"N_COORD97":2558006.8100000001,"ADDRESS":"西港２７號之７","OBJECTID":91488},"geometry":{"x":168573.58000000007,"y":2558006.8100000005}},{"attributes":{"ID":91489,"DIS_CODE":0,"TOWNNAME":"西港區","LI":"西港里","LIN":"12鄰","STREET":" ","SECT":" ","MAREA":"西港","LANE":" ","ALLEY":" ","HOUSE_NO":"２７號之８","E_COORD97":168577.85000000001,"N_COORD97":2558007.75,"ADDRESS":"西港２７號之８","OBJECTID":91489},"geometry":{"x":168577.84999999963,"y":2558007.7500000037}},{"attributes":{"ID":91490,"DIS_CODE":0,"TOWNNAME":"西港區","LI":"西港里","LIN":"12鄰","STREET":" ","SECT":" ","MAREA":"西港","LANE":" ","ALLEY":" ","HOUSE_NO":"２７號之９","E_COORD97":168582.32999999999,"N_COORD97":2558008.6800000002,"ADDRESS":"西港２７號之９","OBJECTID":91490},"geometry":{"x":168582.33000000194,"y":2558008.6800000016}},{"attributes":{"ID":91491,"DIS_CODE":0,"TOWNNAME":"西港區","LI":"南海里","LIN":"12鄰","STREET":" ","SECT":" ","MAREA":"南海埔","LANE":" ","ALLEY":" ","HOUSE_NO":"１０１號之１","E_COORD97":167711.98999999999,"N_COORD97":2557429.5899999999,"ADDRESS":"南海埔１０１號之１","OBJECTID":91491},"geometry":{"x":167711.99000000115,"y":2557429.5900000017}},{"attributes":{"ID":91492,"DIS_CODE":0,"TOWNNAME":"西港區","LI":"南海里","LIN":"12鄰","STREET":" ","SECT":" ","MAREA":"南海埔","LANE":" ","ALLEY":" ","HOUSE_NO":"１０６號","E_COORD97":167715.95999999999,"N_COORD97":2557453.8700000001,"ADDRESS":"南海埔１０６號","OBJECTID":91492},"geometry":{"x":167715.96000000089,"y":2557453.870000001}},{"attributes":{"ID":91493,"DIS_CODE":0,"TOWNNAME":"西港區","LI":"南海里","LIN":"12鄰","STREET":" ","SECT":" ","MAREA":"南海埔","LANE":" ","ALLEY":" ","HOUSE_NO":"１０９號","E_COORD97":167756.16,"N_COORD97":2557466.9100000001,"ADDRESS":"南海埔１０９號","OBJECTID":91493},"geometry":{"x":167756.16000000015,"y":2557466.9100000001}},{"attributes":{"ID":91494,"DIS_CODE":0,"TOWNNAME":"北區","LI":"公園里","LIN":"10鄰","STREET":"成功路","SECT":" ","MAREA":" ","LANE":"２２巷","ALLEY":"１８弄","HOUSE_NO":"４０號","E_COORD97":168954.92000000001,"N_COORD97":2544327.04,"ADDRESS":"成功路２２巷１８弄４０號","OBJECTID":91494},"geometry":{"x":168954.92000000086,"y":2544327.0399999991}},{"attributes":{"ID":91495,"DIS_CODE":0,"TOWNNAME":"北區","LI":"公園里","LIN":"10鄰","STREET":"成功路","SECT":" ","MAREA":" ","LANE":"２２巷","ALLEY":"１８弄","HOUSE_NO":"４２號","E_COORD97":168955.35000000001,"N_COORD97":2544322.48,"ADDRESS":"成功路２２巷１８弄４２號","OBJECTID":91495},"geometry":{"x":168955.35000000056,"y":2544322.4800000004}},{"attributes":{"ID":91496,"DIS_CODE":0,"TOWNNAME":"北區","LI":"公園里","LIN":"10鄰","STREET":"成功路","SECT":" ","MAREA":" ","LANE":"２２巷","ALLEY":"１８弄","HOUSE_NO":"４２號之１","E_COORD97":168956.63,"N_COORD97":2544318.3500000001,"ADDRESS":"成功路２２巷１８弄４２號之１","OBJECTID":91496},"geometry":{"x":168956.63000000082,"y":2544318.3499999996}},{"attributes":{"ID":91497,"DIS_CODE":0,"TOWNNAME":"北區","LI":"公園里","LIN":"10鄰","STREET":"成功路","SECT":" ","MAREA":" ","LANE":"２２巷","ALLEY":"１８弄","HOUSE_NO":"４６號","E_COORD97":168958.76999999999,"N_COORD97":2544312.6600000001,"ADDRESS":"成功路２２巷１８弄４６號","OBJECTID":91497},"geometry":{"x":168958.77000000048,"y":2544312.660000002}},{"attributes":{"ID":91498,"DIS_CODE":0,"TOWNNAME":"北區","LI":"公園里","LIN":"10鄰","STREET":"成功路","SECT":" ","MAREA":" ","LANE":"２２巷","ALLEY":"１８弄","HOUSE_NO":"４８號","E_COORD97":168965.76000000001,"N_COORD97":2544315.2200000002,"ADDRESS":"成功路２２巷１８弄４８號","OBJECTID":91498},"geometry":{"x":168965.76000000164,"y":2544315.2200000044}},{"attributes":{"ID":91499,"DIS_CODE":0,"TOWNNAME":"北區","LI":"公園里","LIN":"10鄰","STREET":"成功路","SECT":" ","MAREA":" ","LANE":"２２巷","ALLEY":"１８弄","HOUSE_NO":"５０號","E_COORD97":168969.60999999999,"N_COORD97":2544316.3599999999,"ADDRESS":"成功路２２巷１８弄５０號","OBJECTID":91499},"geometry":{"x":168969.61000000127,"y":2544316.3600000031}},{"attributes":{"ID":91500,"DIS_CODE":0,"TOWNNAME":"北區","LI":"公園里","LIN":"10鄰","STREET":"成功路","SECT":" ","MAREA":" ","LANE":"２２巷","ALLEY":"１８弄","HOUSE_NO":"５２號","E_COORD97":168974.89000000001,"N_COORD97":2544317.3599999999,"ADDRESS":"成功路２２巷１８弄５２號","OBJECTID":91500},"geometry":{"x":168974.89000000153,"y":2544317.3600000013}},{"attributes":{"ID":91501,"DIS_CODE":0,"TOWNNAME":"北區","LI":"公園里","LIN":"10鄰","STREET":"成功路","SECT":" ","MAREA":" ","LANE":"２２巷","ALLEY":"１８弄","HOUSE_NO":"５４號","E_COORD97":168978.73999999999,"N_COORD97":2544318.6400000001,"ADDRESS":"成功路２２巷１８弄５４號","OBJECTID":91501},"geometry":{"x":168978.74000000115,"y":2544318.6399999987}},{"attributes":{"ID":91502,"DIS_CODE":0,"TOWNNAME":"北區","LI":"公園里","LIN":"10鄰","STREET":"成功路","SECT":" ","MAREA":" ","LANE":"２２巷","ALLEY":"１８弄","HOUSE_NO":"５６號","E_COORD97":168981.59,"N_COORD97":2544319.6400000001,"ADDRESS":"成功路２２巷１８弄５６號","OBJECTID":91502},"geometry":{"x":168981.58999999985,"y":2544319.6400000025}},{"attributes":{"ID":91503,"DIS_CODE":0,"TOWNNAME":"北區","LI":"公園里","LIN":"10鄰","STREET":"成功路","SECT":" ","MAREA":" ","LANE":"２２巷","ALLEY":"１８弄","HOUSE_NO":"５８號","E_COORD97":168993.01000000001,"N_COORD97":2544330.3700000001,"ADDRESS":"成功路２２巷１８弄５８號","OBJECTID":91503},"geometry":{"x":168993.01000000071,"y":2544330.370000001}},{"attributes":{"ID":91504,"DIS_CODE":0,"TOWNNAME":"北區","LI":"公園里","LIN":"10鄰","STREET":"成功路","SECT":" ","MAREA":" ","LANE":"２２巷","ALLEY":"１８弄","HOUSE_NO":"６０號","E_COORD97":168988.87,"N_COORD97":2544326.2400000002,"ADDRESS":"成功路２２巷１８弄６０號","OBJECTID":91504},"geometry":{"x":168988.86999999918,"y":2544326.2400000021}},{"attributes":{"ID":91505,"DIS_CODE":0,"TOWNNAME":"北區","LI":"公園里","LIN":"10鄰","STREET":"成功路","SECT":" ","MAREA":" ","LANE":"２２巷","ALLEY":"１８弄","HOUSE_NO":"６２號","E_COORD97":168985.01999999999,"N_COORD97":2544325.3799999999,"ADDRESS":"成功路２２巷１８弄６２號","OBJECTID":91505},"geometry":{"x":168985.01999999955,"y":2544325.379999999}},{"attributes":{"ID":91506,"DIS_CODE":0,"TOWNNAME":"北區","LI":"公園里","LIN":"10鄰","STREET":"成功路","SECT":" ","MAREA":" ","LANE":"２２巷","ALLEY":"１８弄","HOUSE_NO":"６４號","E_COORD97":168980.88,"N_COORD97":2544324.25,"ADDRESS":"成功路２２巷１８弄６４號","OBJECTID":91506},"geometry":{"x":168980.88000000082,"y":2544324.2500000037}},{"attributes":{"ID":91507,"DIS_CODE":0,"TOWNNAME":"北區","LI":"公園里","LIN":"10鄰","STREET":"成功路","SECT":" ","MAREA":" ","LANE":"２２巷","ALLEY":"１８弄","HOUSE_NO":"６６號","E_COORD97":168977.03,"N_COORD97":2544323.25,"ADDRESS":"成功路２２巷１８弄６６號","OBJECTID":91507},"geometry":{"x":168977.03000000119,"y":2544323.25}},{"attributes":{"ID":91508,"DIS_CODE":0,"TOWNNAME":"北區","LI":"公園里","LIN":"10鄰","STREET":"成功路","SECT":" ","MAREA":" ","LANE":"２２巷","ALLEY":"１８弄","HOUSE_NO":"６８號","E_COORD97":168972.60999999999,"N_COORD97":2544322.25,"ADDRESS":"成功路２２巷１８弄６８號","OBJECTID":91508},"geometry":{"x":168972.61000000127,"y":2544322.2500000019}},{"attributes":{"ID":91509,"DIS_CODE":0,"TOWNNAME":"北區","LI":"公園里","LIN":"10鄰","STREET":"成功路","SECT":" ","MAREA":" ","LANE":"２２巷","ALLEY":"１８弄","HOUSE_NO":"７０號","E_COORD97":168968.62,"N_COORD97":2544321.1099999999,"ADDRESS":"成功路２２巷１８弄７０號","OBJECTID":91509},"geometry":{"x":168968.62000000197,"y":2544321.1100000031}},{"attributes":{"ID":91510,"DIS_CODE":0,"TOWNNAME":"北區","LI":"公園里","LIN":"10鄰","STREET":"成功路","SECT":" ","MAREA":" ","LANE":"２２巷","ALLEY":"１８弄","HOUSE_NO":"７２號","E_COORD97":168963.91,"N_COORD97":2544319.9700000002,"ADDRESS":"成功路２２巷１８弄７２號","OBJECTID":91510},"geometry":{"x":168963.91000000108,"y":2544319.9699999988}},{"attributes":{"ID":91511,"DIS_CODE":0,"TOWNNAME":"北區","LI":"公園里","LIN":"10鄰","STREET":"成功路","SECT":" ","MAREA":" ","LANE":"２２巷","ALLEY":"１８弄","HOUSE_NO":"７６號","E_COORD97":168963.06,"N_COORD97":2544339.2000000002,"ADDRESS":"成功路２２巷１８弄７６號","OBJECTID":91511},"geometry":{"x":168963.05999999959,"y":2544339.1999999993}},{"attributes":{"ID":91512,"DIS_CODE":0,"TOWNNAME":"將軍區","LI":"仁和里","LIN":"15鄰","STREET":" ","SECT":" ","MAREA":"和巷","LANE":" ","ALLEY":" ","HOUSE_NO":"２４之１號","E_COORD97":163798,"N_COORD97":2569380.4300000002,"ADDRESS":"和巷２４之１號","OBJECTID":91512},"geometry":{"x":163798.00000000093,"y":2569380.4299999997}},{"attributes":{"ID":91513,"DIS_CODE":0,"TOWNNAME":"北區","LI":"公園里","LIN":"10鄰","STREET":"成功路","SECT":" ","MAREA":" ","LANE":"２２巷","ALLEY":"１８弄","HOUSE_NO":"７８號","E_COORD97":168967.76000000001,"N_COORD97":2544340.48,"ADDRESS":"成功路２２巷１８弄７８號","OBJECTID":91513},"geometry":{"x":168967.76000000071,"y":2544340.4800000023}},{"attributes":{"ID":91514,"DIS_CODE":0,"TOWNNAME":"北區","LI":"公園里","LIN":"10鄰","STREET":"成功路","SECT":" ","MAREA":" ","LANE":"２２巷","ALLEY":"１８弄","HOUSE_NO":"８０號","E_COORD97":168971.32999999999,"N_COORD97":2544341.9100000001,"ADDRESS":"成功路２２巷１８弄８０號","OBJECTID":91514},"geometry":{"x":168971.33000000101,"y":2544341.910000002}},{"attributes":{"ID":91515,"DIS_CODE":0,"TOWNNAME":"仁德區","LI":"上崙里","LIN":"10鄰","STREET":"德善路","SECT":" ","MAREA":" ","LANE":"３０５巷","ALLEY":"１３弄","HOUSE_NO":"２１４號","E_COORD97":174077,"N_COORD97":2538218.3799999999,"ADDRESS":"德善路３０５巷１３弄２１４號","OBJECTID":91515},"geometry":{"x":174077.00000000186,"y":2538218.379999999}},{"attributes":{"ID":91516,"DIS_CODE":0,"TOWNNAME":"南區","LI":"喜北里","LIN":"10鄰","STREET":"喜樹路","SECT":" ","MAREA":" ","LANE":"１６８巷","ALLEY":"２弄","HOUSE_NO":"１０號","E_COORD97":165791.57000000001,"N_COORD97":2538259.5699999998,"ADDRESS":"喜樹路１６８巷２弄１０號","OBJECTID":91516},"geometry":{"x":165791.5700000003,"y":2538259.5700000003}},{"attributes":{"ID":91517,"DIS_CODE":0,"TOWNNAME":"南區","LI":"喜北里","LIN":"10鄰","STREET":"喜樹路","SECT":" ","MAREA":" ","LANE":"１６８巷","ALLEY":"２弄","HOUSE_NO":"１１號","E_COORD97":165787.34,"N_COORD97":2538259.8700000001,"ADDRESS":"喜樹路１６８巷２弄１１號","OBJECTID":91517},"geometry":{"x":165787.34000000078,"y":2538259.8700000029}},{"attributes":{"ID":91518,"DIS_CODE":0,"TOWNNAME":"南區","LI":"喜北里","LIN":"10鄰","STREET":"喜樹路","SECT":" ","MAREA":" ","LANE":"１６８巷","ALLEY":"２弄","HOUSE_NO":"１號","E_COORD97":165850.75,"N_COORD97":2538252.02,"ADDRESS":"喜樹路１６８巷２弄１號","OBJECTID":91518},"geometry":{"x":165850.75000000093,"y":2538252.0199999996}},{"attributes":{"ID":91519,"DIS_CODE":0,"TOWNNAME":"下營區","LI":"賀建里","LIN":"15鄰","STREET":" ","SECT":" ","MAREA":"洲子","LANE":" ","ALLEY":" ","HOUSE_NO":"３３號","E_COORD97":177312.70999999999,"N_COORD97":2571990.3500000001,"ADDRESS":"洲子３３號","OBJECTID":91519},"geometry":{"x":177312.70999999996,"y":2571990.3500000015}},{"attributes":{"ID":91520,"DIS_CODE":0,"TOWNNAME":"下營區","LI":"賀建里","LIN":"15鄰","STREET":" ","SECT":" ","MAREA":"洲子","LANE":" ","ALLEY":" ","HOUSE_NO":"３４號之２","E_COORD97":177281.48999999999,"N_COORD97":2571957.9700000002,"ADDRESS":"洲子３４號之２","OBJECTID":91520},"geometry":{"x":177281.49000000115,"y":2571957.9700000007}},{"attributes":{"ID":91521,"DIS_CODE":0,"TOWNNAME":"下營區","LI":"賀建里","LIN":"15鄰","STREET":" ","SECT":" ","MAREA":"洲子","LANE":" ","ALLEY":" ","HOUSE_NO":"３４號之３","E_COORD97":177286.26000000001,"N_COORD97":2571921.3100000001,"ADDRESS":"洲子３４號之３","OBJECTID":91521},"geometry":{"x":177286.26000000071,"y":2571921.3100000005}},{"attributes":{"ID":91522,"DIS_CODE":0,"TOWNNAME":"下營區","LI":"賀建里","LIN":"15鄰","STREET":" ","SECT":" ","MAREA":"洲子","LANE":" ","ALLEY":" ","HOUSE_NO":"３４號之６","E_COORD97":177243.26000000001,"N_COORD97":2571952.8599999999,"ADDRESS":"洲子３４號之６","OBJECTID":91522},"geometry":{"x":177243.26000000164,"y":2571952.8599999994}},{"attributes":{"ID":91523,"DIS_CODE":0,"TOWNNAME":"下營區","LI":"賀建里","LIN":"15鄰","STREET":" ","SECT":" ","MAREA":"洲子","LANE":" ","ALLEY":" ","HOUSE_NO":"３５號","E_COORD97":177324.63,"N_COORD97":2571963.52,"ADDRESS":"洲子３５號","OBJECTID":91523},"geometry":{"x":177324.63000000082,"y":2571963.5199999977}},{"attributes":{"ID":91524,"DIS_CODE":0,"TOWNNAME":"下營區","LI":"賀建里","LIN":"15鄰","STREET":" ","SECT":" ","MAREA":"洲子","LANE":" ","ALLEY":" ","HOUSE_NO":"３８號之２","E_COORD97":177374.35000000001,"N_COORD97":2571889.73,"ADDRESS":"洲子３８號之２","OBJECTID":91524},"geometry":{"x":177374.34999999963,"y":2571889.7300000023}},{"attributes":{"ID":91525,"DIS_CODE":0,"TOWNNAME":"下營區","LI":"賀建里","LIN":"15鄰","STREET":" ","SECT":" ","MAREA":"洲子","LANE":" ","ALLEY":" ","HOUSE_NO":"３８號","E_COORD97":177344.20999999999,"N_COORD97":2571894.3999999999,"ADDRESS":"洲子３８號","OBJECTID":91525},"geometry":{"x":177344.21000000089,"y":2571894.4000000041}},{"attributes":{"ID":91526,"DIS_CODE":0,"TOWNNAME":"下營區","LI":"賀建里","LIN":"15鄰","STREET":" ","SECT":" ","MAREA":"洲子","LANE":" ","ALLEY":" ","HOUSE_NO":"３９號","E_COORD97":177347.92999999999,"N_COORD97":2571932.79,"ADDRESS":"洲子３９號","OBJECTID":91526},"geometry":{"x":177347.93000000063,"y":2571932.7899999991}},{"attributes":{"ID":91527,"DIS_CODE":0,"TOWNNAME":"下營區","LI":"賀建里","LIN":"15鄰","STREET":" ","SECT":" ","MAREA":"洲子","LANE":" ","ALLEY":" ","HOUSE_NO":"４０號","E_COORD97":177358.98999999999,"N_COORD97":2571965.79,"ADDRESS":"洲子４０號","OBJECTID":91527},"geometry":{"x":177358.99000000022,"y":2571965.790000001}},{"attributes":{"ID":91528,"DIS_CODE":0,"TOWNNAME":"下營區","LI":"賀建里","LIN":"15鄰","STREET":" ","SECT":" ","MAREA":"洲子","LANE":" ","ALLEY":" ","HOUSE_NO":"４１號之１","E_COORD97":177340.32000000001,"N_COORD97":2571980.52,"ADDRESS":"洲子４１號之１","OBJECTID":91528},"geometry":{"x":177340.32000000123,"y":2571980.5199999977}},{"attributes":{"ID":91529,"DIS_CODE":0,"TOWNNAME":"下營區","LI":"賀建里","LIN":"15鄰","STREET":" ","SECT":" ","MAREA":"洲子","LANE":" ","ALLEY":" ","HOUSE_NO":"４１號","E_COORD97":177363.17000000001,"N_COORD97":2571993.7400000002,"ADDRESS":"洲子４１號","OBJECTID":91529},"geometry":{"x":177363.17000000086,"y":2571993.7400000039}},{"attributes":{"ID":91530,"DIS_CODE":0,"TOWNNAME":"下營區","LI":"賀建里","LIN":"15鄰","STREET":" ","SECT":" ","MAREA":"洲子","LANE":" ","ALLEY":" ","HOUSE_NO":"４２號之１０","E_COORD97":177667.10999999999,"N_COORD97":2571782.1699999999,"ADDRESS":"洲子４２號之１０","OBJECTID":91530},"geometry":{"x":177667.1100000022,"y":2571782.1699999999}},{"attributes":{"ID":91531,"DIS_CODE":0,"TOWNNAME":"西港區","LI":"南海里","LIN":"12鄰","STREET":" ","SECT":" ","MAREA":"南海埔","LANE":" ","ALLEY":" ","HOUSE_NO":"１１０號","E_COORD97":167741.82000000001,"N_COORD97":2557446.8399999999,"ADDRESS":"南海埔１１０號","OBJECTID":91531},"geometry":{"x":167741.82000000216,"y":2557446.8399999999}},{"attributes":{"ID":91532,"DIS_CODE":0,"TOWNNAME":"西港區","LI":"南海里","LIN":"12鄰","STREET":" ","SECT":" ","MAREA":"南海埔","LANE":" ","ALLEY":" ","HOUSE_NO":"１１２號","E_COORD97":167769.95999999999,"N_COORD97":2557414.5499999998,"ADDRESS":"南海埔１１２號","OBJECTID":91532},"geometry":{"x":167769.96000000089,"y":2557414.5500000026}},{"attributes":{"ID":91533,"DIS_CODE":0,"TOWNNAME":"西港區","LI":"後營里","LIN":"12鄰","STREET":" ","SECT":" ","MAREA":"後營","LANE":" ","ALLEY":" ","HOUSE_NO":"２６１號","E_COORD97":169855.04999999999,"N_COORD97":2560175.8399999999,"ADDRESS":"後營２６１號","OBJECTID":91533},"geometry":{"x":169855.04999999981,"y":2560175.8399999999}},{"attributes":{"ID":91534,"DIS_CODE":0,"TOWNNAME":"西港區","LI":"後營里","LIN":"12鄰","STREET":" ","SECT":" ","MAREA":"後營","LANE":" ","ALLEY":" ","HOUSE_NO":"２６２號","E_COORD97":169863.06,"N_COORD97":2560159.48,"ADDRESS":"後營２６２號","OBJECTID":91534},"geometry":{"x":169863.05999999959,"y":2560159.4799999986}},{"attributes":{"ID":91535,"DIS_CODE":0,"TOWNNAME":"西港區","LI":"後營里","LIN":"12鄰","STREET":" ","SECT":" ","MAREA":"後營","LANE":" ","ALLEY":" ","HOUSE_NO":"２６３之１號","E_COORD97":169850.12,"N_COORD97":2560127.8799999999,"ADDRESS":"後營２６３之１號","OBJECTID":91535},"geometry":{"x":169850.12000000197,"y":2560127.879999999}},{"attributes":{"ID":91536,"DIS_CODE":0,"TOWNNAME":"西港區","LI":"後營里","LIN":"12鄰","STREET":" ","SECT":" ","MAREA":"後營","LANE":" ","ALLEY":" ","HOUSE_NO":"２６３之２號","E_COORD97":169846.23000000001,"N_COORD97":2560128.8799999999,"ADDRESS":"後營２６３之２號","OBJECTID":91536},"geometry":{"x":169846.23000000045,"y":2560128.8800000008}},{"attributes":{"ID":91537,"DIS_CODE":0,"TOWNNAME":"南區","LI":"喜北里","LIN":"10鄰","STREET":"喜樹路","SECT":" ","MAREA":" ","LANE":"１６８巷","ALLEY":"２弄","HOUSE_NO":"２號","E_COORD97":165844.17999999999,"N_COORD97":2538252.8500000001,"ADDRESS":"喜樹路１６８巷２弄２號","OBJECTID":91537},"geometry":{"x":165844.18000000063,"y":2538252.8499999996}},{"attributes":{"ID":91538,"DIS_CODE":0,"TOWNNAME":"南區","LI":"喜北里","LIN":"10鄰","STREET":"喜樹路","SECT":" ","MAREA":" ","LANE":"１６８巷","ALLEY":"２弄","HOUSE_NO":"３號","E_COORD97":165837.57999999999,"N_COORD97":2538253.4500000002,"ADDRESS":"喜樹路１６８巷２弄３號","OBJECTID":91538},"geometry":{"x":165837.58000000007,"y":2538253.450000003}},{"attributes":{"ID":91539,"DIS_CODE":0,"TOWNNAME":"南區","LI":"喜北里","LIN":"10鄰","STREET":"喜樹路","SECT":" ","MAREA":" ","LANE":"１６８巷","ALLEY":"２弄","HOUSE_NO":"４號","E_COORD97":165833.04000000001,"N_COORD97":2538254.1299999999,"ADDRESS":"喜樹路１６８巷２弄４號","OBJECTID":91539},"geometry":{"x":165833.0400000019,"y":2538254.129999999}},{"attributes":{"ID":91540,"DIS_CODE":0,"TOWNNAME":"南區","LI":"喜北里","LIN":"10鄰","STREET":"喜樹路","SECT":" ","MAREA":" ","LANE":"１６８巷","ALLEY":"２弄","HOUSE_NO":"５號","E_COORD97":165827.14999999999,"N_COORD97":2538255.5600000001,"ADDRESS":"喜樹路１６８巷２弄５號","OBJECTID":91540},"geometry":{"x":165827.15000000037,"y":2538255.5600000024}},{"attributes":{"ID":91541,"DIS_CODE":0,"TOWNNAME":"南區","LI":"喜北里","LIN":"10鄰","STREET":"喜樹路","SECT":" ","MAREA":" ","LANE":"１６８巷","ALLEY":"２弄","HOUSE_NO":"６號","E_COORD97":165819.37,"N_COORD97":2538256.0899999999,"ADDRESS":"喜樹路１６８巷２弄６號","OBJECTID":91541},"geometry":{"x":165819.37000000104,"y":2538256.0899999999}},{"attributes":{"ID":91542,"DIS_CODE":0,"TOWNNAME":"南區","LI":"喜北里","LIN":"10鄰","STREET":"喜樹路","SECT":" ","MAREA":" ","LANE":"１６８巷","ALLEY":"２弄","HOUSE_NO":"７號","E_COORD97":165812.72,"N_COORD97":2538256.6200000001,"ADDRESS":"喜樹路１６８巷２弄７號","OBJECTID":91542},"geometry":{"x":165812.71999999881,"y":2538256.620000001}},{"attributes":{"ID":91543,"DIS_CODE":0,"TOWNNAME":"南區","LI":"喜北里","LIN":"10鄰","STREET":"喜樹路","SECT":" ","MAREA":" ","LANE":"１６８巷","ALLEY":"２弄","HOUSE_NO":"９號","E_COORD97":165797.54000000001,"N_COORD97":2538258.96,"ADDRESS":"喜樹路１６８巷２弄９號","OBJECTID":91543},"geometry":{"x":165797.5400000019,"y":2538258.9600000028}},{"attributes":{"ID":91544,"DIS_CODE":0,"TOWNNAME":"南區","LI":"喜東里","LIN":"10鄰","STREET":"明興路","SECT":" ","MAREA":" ","LANE":"６１９巷","ALLEY":"３６３弄","HOUSE_NO":"３０號","E_COORD97":166845.26999999999,"N_COORD97":2538484.9199999999,"ADDRESS":"明興路６１９巷３６３弄３０號","OBJECTID":91544},"geometry":{"x":166845.27000000048,"y":2538484.9200000037}},{"attributes":{"ID":91545,"DIS_CODE":0,"TOWNNAME":"下營區","LI":"紅厝里","LIN":"15鄰","STREET":" ","SECT":" ","MAREA":"紅毛厝","LANE":" ","ALLEY":" ","HOUSE_NO":"１０６號","E_COORD97":175015.66,"N_COORD97":2571563.71,"ADDRESS":"紅毛厝１０６號","OBJECTID":91545},"geometry":{"x":175015.66000000108,"y":2571563.7100000046}},{"attributes":{"ID":91546,"DIS_CODE":0,"TOWNNAME":"南區","LI":"喜東里","LIN":"10鄰","STREET":"明興路","SECT":" ","MAREA":" ","LANE":"６１９巷","ALLEY":"４９９弄","HOUSE_NO":"５０號","E_COORD97":167316.35999999999,"N_COORD97":2538502.5,"ADDRESS":"明興路６１９巷４９９弄５０號","OBJECTID":91546},"geometry":{"x":167316.36000000127,"y":2538502.5000000019}},{"attributes":{"ID":91547,"DIS_CODE":0,"TOWNNAME":"將軍區","LI":"苓和里","LIN":"15鄰","STREET":" ","SECT":" ","MAREA":"忠寮","LANE":" ","ALLEY":" ","HOUSE_NO":"２１號","E_COORD97":164153.12,"N_COORD97":2569151.0800000001,"ADDRESS":"忠寮２１號","OBJECTID":91547},"geometry":{"x":164153.12000000104,"y":2569151.0800000019}},{"attributes":{"ID":91548,"DIS_CODE":0,"TOWNNAME":"將軍區","LI":"苓和里","LIN":"15鄰","STREET":" ","SECT":" ","MAREA":"忠寮","LANE":" ","ALLEY":" ","HOUSE_NO":"２２號","E_COORD97":164164.51000000001,"N_COORD97":2569153.52,"ADDRESS":"忠寮２２號","OBJECTID":91548},"geometry":{"x":164164.50999999978,"y":2569153.5200000014}},{"attributes":{"ID":91549,"DIS_CODE":0,"TOWNNAME":"將軍區","LI":"苓和里","LIN":"15鄰","STREET":" ","SECT":" ","MAREA":"忠寮","LANE":" ","ALLEY":" ","HOUSE_NO":"２３號","E_COORD97":164182.92000000001,"N_COORD97":2569155.8300000001,"ADDRESS":"忠寮２３號","OBJECTID":91549},"geometry":{"x":164182.92000000086,"y":2569155.8300000019}},{"attributes":{"ID":91550,"DIS_CODE":0,"TOWNNAME":"南區","LI":"大忠里","LIN":"10鄰","STREET":"中華南路","SECT":"一段","MAREA":" ","LANE":"１２５巷","ALLEY":"１５弄","HOUSE_NO":"１０號","E_COORD97":169231.64000000001,"N_COORD97":2541196.1000000001,"ADDRESS":"中華南路一段１２５巷１５弄１０號","OBJECTID":91550},"geometry":{"x":169231.6400000006,"y":2541196.1000000015}},{"attributes":{"ID":91551,"DIS_CODE":0,"TOWNNAME":"南區","LI":"大忠里","LIN":"10鄰","STREET":"中華南路","SECT":"一段","MAREA":" ","LANE":"１２５巷","ALLEY":"１５弄","HOUSE_NO":"１１號","E_COORD97":169234.54999999999,"N_COORD97":2541215.6000000001,"ADDRESS":"中華南路一段１２５巷１５弄１１號","OBJECTID":91551},"geometry":{"x":169234.54999999981,"y":2541215.5999999996}},{"attributes":{"ID":91552,"DIS_CODE":0,"TOWNNAME":"南區","LI":"大忠里","LIN":"10鄰","STREET":"中華南路","SECT":"一段","MAREA":" ","LANE":"１２５巷","ALLEY":"１５弄","HOUSE_NO":"１２號","E_COORD97":169236.66,"N_COORD97":2541196.6299999999,"ADDRESS":"中華南路一段１２５巷１５弄１２號","OBJECTID":91552},"geometry":{"x":169236.66000000108,"y":2541196.629999999}},{"attributes":{"ID":91553,"DIS_CODE":0,"TOWNNAME":"將軍區","LI":"苓和里","LIN":"15鄰","STREET":" ","SECT":" ","MAREA":"忠寮","LANE":" ","ALLEY":" ","HOUSE_NO":"２４之１號","E_COORD97":164152.23000000001,"N_COORD97":2569127.1000000001,"ADDRESS":"忠寮２４之１號","OBJECTID":91553},"geometry":{"x":164152.23000000231,"y":2569127.1000000015}},{"attributes":{"ID":91554,"DIS_CODE":0,"TOWNNAME":"南區","LI":"大忠里","LIN":"10鄰","STREET":"中華南路","SECT":"一段","MAREA":" ","LANE":"１２５巷","ALLEY":"１５弄","HOUSE_NO":"１號","E_COORD97":169208.89999999999,"N_COORD97":2541212.71,"ADDRESS":"中華南路一段１２５巷１５弄１號","OBJECTID":91554},"geometry":{"x":169208.90000000037,"y":2541212.7100000009}},{"attributes":{"ID":91555,"DIS_CODE":0,"TOWNNAME":"南區","LI":"大忠里","LIN":"10鄰","STREET":"中華南路","SECT":"一段","MAREA":" ","LANE":"１２５巷","ALLEY":"１５弄","HOUSE_NO":"２號","E_COORD97":169211.45000000001,"N_COORD97":2541192.6000000001,"ADDRESS":"中華南路一段１２５巷１５弄２號","OBJECTID":91555},"geometry":{"x":169211.45000000112,"y":2541192.6000000015}},{"attributes":{"ID":91556,"DIS_CODE":0,"TOWNNAME":"南區","LI":"大忠里","LIN":"10鄰","STREET":"中華南路","SECT":"一段","MAREA":" ","LANE":"１２５巷","ALLEY":"１５弄","HOUSE_NO":"３號","E_COORD97":169213.89999999999,"N_COORD97":2541213.0299999998,"ADDRESS":"中華南路一段１２５巷１５弄３號","OBJECTID":91556},"geometry":{"x":169213.90000000037,"y":2541213.0300000012}},{"attributes":{"ID":91557,"DIS_CODE":0,"TOWNNAME":"龍崎區","LI":"土崎里","LIN":"9鄰","STREET":" ","SECT":" ","MAREA":"尖\u25A0","LANE":" ","ALLEY":" ","HOUSE_NO":"１號","E_COORD97":188899.91,"N_COORD97":2543098.29,"ADDRESS":"尖\u25A0１號","OBJECTID":91557},"geometry":{"x":188899.91000000015,"y":2543098.2899999991}},{"attributes":{"ID":91558,"DIS_CODE":0,"TOWNNAME":"南區","LI":"大忠里","LIN":"10鄰","STREET":"中華南路","SECT":"一段","MAREA":" ","LANE":"１２５巷","ALLEY":"１５弄","HOUSE_NO":"４號","E_COORD97":169216.45999999999,"N_COORD97":2541193.54,"ADDRESS":"中華南路一段１２５巷１５弄４號","OBJECTID":91558},"geometry":{"x":169216.45999999996,"y":2541193.540000001}},{"attributes":{"ID":91559,"DIS_CODE":0,"TOWNNAME":"南區","LI":"大忠里","LIN":"10鄰","STREET":"中華南路","SECT":"一段","MAREA":" ","LANE":"１２５巷","ALLEY":"１５弄","HOUSE_NO":"５號","E_COORD97":169219.20000000001,"N_COORD97":2541213.3399999999,"ADDRESS":"中華南路一段１２５巷１５弄５號","OBJECTID":91559},"geometry":{"x":169219.20000000205,"y":2541213.3399999999}},{"attributes":{"ID":91560,"DIS_CODE":0,"TOWNNAME":"南區","LI":"大忠里","LIN":"10鄰","STREET":"中華南路","SECT":"一段","MAREA":" ","LANE":"１２５巷","ALLEY":"１５弄","HOUSE_NO":"６號","E_COORD97":169221.47,"N_COORD97":2541194.1600000001,"ADDRESS":"中華南路一段１２５巷１５弄６號","OBJECTID":91560},"geometry":{"x":169221.46999999974,"y":2541194.1600000001}},{"attributes":{"ID":91561,"DIS_CODE":0,"TOWNNAME":"南區","LI":"大忠里","LIN":"10鄰","STREET":"中華南路","SECT":"一段","MAREA":" ","LANE":"１２５巷","ALLEY":"１５弄","HOUSE_NO":"７號","E_COORD97":169223.57000000001,"N_COORD97":2541213.96,"ADDRESS":"中華南路一段１２５巷１５弄７號","OBJECTID":91561},"geometry":{"x":169223.57000000216,"y":2541213.9600000009}},{"attributes":{"ID":91562,"DIS_CODE":0,"TOWNNAME":"永康區","LI":"正強里","LIN":"15鄰","STREET":"正強街","SECT":" ","MAREA":" ","LANE":" ","ALLEY":" ","HOUSE_NO":"４３號","E_COORD97":173344.92999999999,"N_COORD97":2547246.5,"ADDRESS":"正強街４３號","OBJECTID":91562},"geometry":{"x":173344.93000000156,"y":2547246.5000000019}},{"attributes":{"ID":91563,"DIS_CODE":0,"TOWNNAME":"永康區","LI":"正強里","LIN":"15鄰","STREET":"正強街","SECT":" ","MAREA":" ","LANE":" ","ALLEY":" ","HOUSE_NO":"４１號","E_COORD97":173345.48000000001,"N_COORD97":2547240.5,"ADDRESS":"正強街４１號","OBJECTID":91563},"geometry":{"x":173345.48000000138,"y":2547240.5}},{"attributes":{"ID":91564,"DIS_CODE":0,"TOWNNAME":"永康區","LI":"中華里","LIN":"15鄰","STREET":"華興街","SECT":" ","MAREA":" ","LANE":" ","ALLEY":" ","HOUSE_NO":"９７號底二層之２１","E_COORD97":171792.85000000001,"N_COORD97":2544563.1299999999,"ADDRESS":"華興街９７號底二層之２１","OBJECTID":91564},"geometry":{"x":171792.85000000056,"y":2544563.129999999}},{"attributes":{"ID":91565,"DIS_CODE":0,"TOWNNAME":"將軍區","LI":"苓和里","LIN":"15鄰","STREET":" ","SECT":" ","MAREA":"忠寮","LANE":" ","ALLEY":" ","HOUSE_NO":"２４號","E_COORD97":164170.54999999999,"N_COORD97":2569131.4500000002,"ADDRESS":"忠寮２４號","OBJECTID":91565},"geometry":{"x":164170.55000000075,"y":2569131.4499999993}},{"attributes":{"ID":91566,"DIS_CODE":0,"TOWNNAME":"將軍區","LI":"苓和里","LIN":"15鄰","STREET":" ","SECT":" ","MAREA":"忠寮","LANE":" ","ALLEY":" ","HOUSE_NO":"２５號","E_COORD97":164197.07999999999,"N_COORD97":2569139.6400000001,"ADDRESS":"忠寮２５號","OBJECTID":91566},"geometry":{"x":164197.08000000101,"y":2569139.6399999987}},{"attributes":{"ID":91567,"DIS_CODE":0,"TOWNNAME":"永康區","LI":"中華里","LIN":"15鄰","STREET":"華興街","SECT":" ","MAREA":" ","LANE":" ","ALLEY":" ","HOUSE_NO":"９７號底二層之１２","E_COORD97":171792.98000000001,"N_COORD97":2544563.1299999999,"ADDRESS":"華興街９７號底二層之１２","OBJECTID":91567},"geometry":{"x":171792.98000000138,"y":2544563.129999999}},{"attributes":{"ID":91568,"DIS_CODE":0,"TOWNNAME":"永康區","LI":"網寮里","LIN":"15鄰","STREET":"永勝街","SECT":" ","MAREA":" ","LANE":" ","ALLEY":" ","HOUSE_NO":"２０１號","E_COORD97":173347.95000000001,"N_COORD97":2546608.75,"ADDRESS":"永勝街２０１號","OBJECTID":91568},"geometry":{"x":173347.95000000019,"y":2546608.75}},{"attributes":{"ID":91569,"DIS_CODE":0,"TOWNNAME":"將軍區","LI":"仁和里","LIN":"15鄰","STREET":" ","SECT":" ","MAREA":"和巷","LANE":" ","ALLEY":" ","HOUSE_NO":"３１之１號","E_COORD97":163892.82999999999,"N_COORD97":2569426.96,"ADDRESS":"和巷３１之１號","OBJECTID":91569},"geometry":{"x":163892.83000000007,"y":2569426.9600000028}},{"attributes":{"ID":91570,"DIS_CODE":0,"TOWNNAME":"將軍區","LI":"仁和里","LIN":"15鄰","STREET":" ","SECT":" ","MAREA":"和巷","LANE":" ","ALLEY":" ","HOUSE_NO":"３１號","E_COORD97":163893.09,"N_COORD97":2569412.6899999999,"ADDRESS":"和巷３１號","OBJECTID":91570},"geometry":{"x":163893.08999999892,"y":2569412.6899999976}},{"attributes":{"ID":91571,"DIS_CODE":0,"TOWNNAME":"南區","LI":"大忠里","LIN":"10鄰","STREET":"中華南路","SECT":"一段","MAREA":" ","LANE":"１２５巷","ALLEY":"１５弄","HOUSE_NO":"８號","E_COORD97":169226.48999999999,"N_COORD97":2541195.4100000001,"ADDRESS":"中華南路一段１２５巷１５弄８號","OBJECTID":91571},"geometry":{"x":169226.49000000022,"y":2541195.410000002}},{"attributes":{"ID":91572,"DIS_CODE":0,"TOWNNAME":"將軍區","LI":"忠興里","LIN":"15鄰","STREET":" ","SECT":" ","MAREA":"忠興","LANE":" ","ALLEY":" ","HOUSE_NO":"１５１之２號","E_COORD97":163669.17000000001,"N_COORD97":2567166.96,"ADDRESS":"忠興１５１之２號","OBJECTID":91572},"geometry":{"x":163669.17000000086,"y":2567166.9600000009}},{"attributes":{"ID":91573,"DIS_CODE":0,"TOWNNAME":"將軍區","LI":"忠興里","LIN":"15鄰","STREET":" ","SECT":" ","MAREA":"忠興","LANE":" ","ALLEY":" ","HOUSE_NO":"１５５號","E_COORD97":163651.23000000001,"N_COORD97":2567268.1899999999,"ADDRESS":"忠興１５５號","OBJECTID":91573},"geometry":{"x":163651.23000000138,"y":2567268.1900000013}},{"attributes":{"ID":91574,"DIS_CODE":0,"TOWNNAME":"將軍區","LI":"嘉昌里","LIN":"15鄰","STREET":" ","SECT":" ","MAREA":"昌平","LANE":" ","ALLEY":" ","HOUSE_NO":"２４號","E_COORD97":163340.73000000001,"N_COORD97":2567358.98,"ADDRESS":"昌平２４號","OBJECTID":91574},"geometry":{"x":163340.73000000138,"y":2567358.9800000023}},{"attributes":{"ID":91575,"DIS_CODE":0,"TOWNNAME":"將軍區","LI":"嘉昌里","LIN":"15鄰","STREET":" ","SECT":" ","MAREA":"昌平","LANE":" ","ALLEY":" ","HOUSE_NO":"２５號","E_COORD97":163346.23000000001,"N_COORD97":2567331.48,"ADDRESS":"昌平２５號","OBJECTID":91575},"geometry":{"x":163346.23000000045,"y":2567331.4800000023}},{"attributes":{"ID":91576,"DIS_CODE":0,"TOWNNAME":"將軍區","LI":"嘉昌里","LIN":"15鄰","STREET":" ","SECT":" ","MAREA":"昌平","LANE":" ","ALLEY":" ","HOUSE_NO":"２６號","E_COORD97":163350.54000000001,"N_COORD97":2567312.8900000001,"ADDRESS":"昌平２６號","OBJECTID":91576},"geometry":{"x":163350.54000000004,"y":2567312.8900000006}},{"attributes":{"ID":91577,"DIS_CODE":0,"TOWNNAME":"將軍區","LI":"嘉昌里","LIN":"15鄰","STREET":" ","SECT":" ","MAREA":"昌平","LANE":" ","ALLEY":" ","HOUSE_NO":"２８號","E_COORD97":163362.92999999999,"N_COORD97":2567337.0499999998,"ADDRESS":"昌平２８號","OBJECTID":91577},"geometry":{"x":163362.9299999997,"y":2567337.0500000045}},{"attributes":{"ID":91578,"DIS_CODE":0,"TOWNNAME":"將軍區","LI":"嘉昌里","LIN":"15鄰","STREET":" ","SECT":" ","MAREA":"昌平","LANE":" ","ALLEY":" ","HOUSE_NO":"３０號","E_COORD97":163357.67000000001,"N_COORD97":2567381.0299999998,"ADDRESS":"昌平３０號","OBJECTID":91578},"geometry":{"x":163357.67000000086,"y":2567381.0300000012}},{"attributes":{"ID":91579,"DIS_CODE":0,"TOWNNAME":"西港區","LI":"後營里","LIN":"12鄰","STREET":" ","SECT":" ","MAREA":"後營","LANE":" ","ALLEY":" ","HOUSE_NO":"２６３號","E_COORD97":169859.25,"N_COORD97":2560125.23,"ADDRESS":"後營２６３號","OBJECTID":91579},"geometry":{"x":169859.24999999907,"y":2560125.2300000023}},{"attributes":{"ID":91580,"DIS_CODE":0,"TOWNNAME":"西港區","LI":"後營里","LIN":"12鄰","STREET":" ","SECT":" ","MAREA":"後營","LANE":" ","ALLEY":" ","HOUSE_NO":"２６４號","E_COORD97":169870.76000000001,"N_COORD97":2560142.3700000001,"ADDRESS":"後營２６４號","OBJECTID":91580},"geometry":{"x":169870.75999999885,"y":2560142.3700000029}},{"attributes":{"ID":91581,"DIS_CODE":0,"TOWNNAME":"西港區","LI":"後營里","LIN":"12鄰","STREET":" ","SECT":" ","MAREA":"後營","LANE":" ","ALLEY":" ","HOUSE_NO":"２６５號之１","E_COORD97":169874.44,"N_COORD97":2560119.7200000002,"ADDRESS":"後營２６５號之１","OBJECTID":91581},"geometry":{"x":169874.44000000134,"y":2560119.7200000007}},{"attributes":{"ID":91582,"DIS_CODE":0,"TOWNNAME":"西港區","LI":"後營里","LIN":"12鄰","STREET":" ","SECT":" ","MAREA":"後營","LANE":" ","ALLEY":" ","HOUSE_NO":"２６５號之２","E_COORD97":169880.42000000001,"N_COORD97":2560117.6899999999,"ADDRESS":"後營２６５號之２","OBJECTID":91582},"geometry":{"x":169880.42000000086,"y":2560117.6900000013}},{"attributes":{"ID":91583,"DIS_CODE":0,"TOWNNAME":"西港區","LI":"後營里","LIN":"12鄰","STREET":" ","SECT":" ","MAREA":"後營","LANE":" ","ALLEY":" ","HOUSE_NO":"２６５號之３","E_COORD97":169885.16,"N_COORD97":2560115.9500000002,"ADDRESS":"後營２６５號之３","OBJECTID":91583},"geometry":{"x":169885.16000000015,"y":2560115.9500000011}},{"attributes":{"ID":91584,"DIS_CODE":0,"TOWNNAME":"西港區","LI":"後營里","LIN":"12鄰","STREET":" ","SECT":" ","MAREA":"後營","LANE":" ","ALLEY":" ","HOUSE_NO":"２６５號","E_COORD97":169893.59,"N_COORD97":2560115.25,"ADDRESS":"後營２６５號","OBJECTID":91584},"geometry":{"x":169893.58999999985,"y":2560115.25}},{"attributes":{"ID":91585,"DIS_CODE":0,"TOWNNAME":"西港區","LI":"後營里","LIN":"12鄰","STREET":" ","SECT":" ","MAREA":"後營","LANE":" ","ALLEY":" ","HOUSE_NO":"２６６號之１０","E_COORD97":169882.56,"N_COORD97":2560084.7400000002,"ADDRESS":"後營２６６號之１０","OBJECTID":91585},"geometry":{"x":169882.56000000052,"y":2560084.7400000021}},{"attributes":{"ID":91586,"DIS_CODE":0,"TOWNNAME":"西港區","LI":"後營里","LIN":"12鄰","STREET":" ","SECT":" ","MAREA":"後營","LANE":" ","ALLEY":" ","HOUSE_NO":"２６６號之１１","E_COORD97":169882.70000000001,"N_COORD97":2560080.46,"ADDRESS":"後營２６６號之１１","OBJECTID":91586},"geometry":{"x":169882.70000000112,"y":2560080.4600000028}},{"attributes":{"ID":91587,"DIS_CODE":0,"TOWNNAME":"西港區","LI":"後營里","LIN":"12鄰","STREET":" ","SECT":" ","MAREA":"後營","LANE":" ","ALLEY":" ","HOUSE_NO":"２６６號之１","E_COORD97":169858.17000000001,"N_COORD97":2560102.3599999999,"ADDRESS":"後營２６６號之１","OBJECTID":91587},"geometry":{"x":169858.17000000179,"y":2560102.3600000013}},{"attributes":{"ID":91588,"DIS_CODE":0,"TOWNNAME":"西港區","LI":"後營里","LIN":"12鄰","STREET":" ","SECT":" ","MAREA":"後營","LANE":" ","ALLEY":" ","HOUSE_NO":"２６６號之２","E_COORD97":169862.5,"N_COORD97":2560101.04,"ADDRESS":"後營２６６號之２","OBJECTID":91588},"geometry":{"x":169862.5,"y":2560101.040000001}},{"attributes":{"ID":91589,"DIS_CODE":0,"TOWNNAME":"西港區","LI":"後營里","LIN":"12鄰","STREET":" ","SECT":" ","MAREA":"後營","LANE":" ","ALLEY":" ","HOUSE_NO":"２６６號之３","E_COORD97":169866.82999999999,"N_COORD97":2560099.71,"ADDRESS":"後營２６６號之３","OBJECTID":91589},"geometry":{"x":169866.83000000007,"y":2560099.7100000009}},{"attributes":{"ID":91590,"DIS_CODE":0,"TOWNNAME":"西港區","LI":"後營里","LIN":"12鄰","STREET":" ","SECT":" ","MAREA":"後營","LANE":" ","ALLEY":" ","HOUSE_NO":"２６６號之４","E_COORD97":169871.16,"N_COORD97":2560098.3900000001,"ADDRESS":"後營２６６號之４","OBJECTID":91590},"geometry":{"x":169871.16000000015,"y":2560098.3900000006}},{"attributes":{"ID":91591,"DIS_CODE":0,"TOWNNAME":"西港區","LI":"後營里","LIN":"12鄰","STREET":" ","SECT":" ","MAREA":"後營","LANE":" ","ALLEY":" ","HOUSE_NO":"２６６號之５","E_COORD97":169875.48999999999,"N_COORD97":2560097.0600000001,"ADDRESS":"後營２６６號之５","OBJECTID":91591},"geometry":{"x":169875.49000000115,"y":2560097.0600000005}},{"attributes":{"ID":91592,"DIS_CODE":0,"TOWNNAME":"西港區","LI":"後營里","LIN":"12鄰","STREET":" ","SECT":" ","MAREA":"後營","LANE":" ","ALLEY":" ","HOUSE_NO":"２６６號之６","E_COORD97":169879.82000000001,"N_COORD97":2560095.73,"ADDRESS":"後營２６６號之６","OBJECTID":91592},"geometry":{"x":169879.82000000123,"y":2560095.7300000004}},{"attributes":{"ID":91593,"DIS_CODE":0,"TOWNNAME":"西港區","LI":"後營里","LIN":"12鄰","STREET":" ","SECT":" ","MAREA":"後營","LANE":" ","ALLEY":" ","HOUSE_NO":"２６６號之７","E_COORD97":169884.14999999999,"N_COORD97":2560094.4100000001,"ADDRESS":"後營２６６號之７","OBJECTID":91593},"geometry":{"x":169884.15000000224,"y":2560094.4100000001}},{"attributes":{"ID":91594,"DIS_CODE":0,"TOWNNAME":"西港區","LI":"後營里","LIN":"12鄰","STREET":" ","SECT":" ","MAREA":"後營","LANE":" ","ALLEY":" ","HOUSE_NO":"２６６號之８","E_COORD97":169888.48000000001,"N_COORD97":2560093.0800000001,"ADDRESS":"後營２６６號之８","OBJECTID":91594},"geometry":{"x":169888.48000000045,"y":2560093.0800000001}},{"attributes":{"ID":91595,"DIS_CODE":0,"TOWNNAME":"西港區","LI":"後營里","LIN":"12鄰","STREET":" ","SECT":" ","MAREA":"後營","LANE":" ","ALLEY":" ","HOUSE_NO":"２６６號之９","E_COORD97":169892.81,"N_COORD97":2560091.7599999998,"ADDRESS":"後營２６６號之９","OBJECTID":91595},"geometry":{"x":169892.81000000052,"y":2560091.7599999998}},{"attributes":{"ID":91596,"DIS_CODE":0,"TOWNNAME":"西港區","LI":"後營里","LIN":"12鄰","STREET":" ","SECT":" ","MAREA":"後營","LANE":" ","ALLEY":" ","HOUSE_NO":"２６６號","E_COORD97":169860.5,"N_COORD97":2560091.1899999999,"ADDRESS":"後營２６６號","OBJECTID":91596},"geometry":{"x":169860.5,"y":2560091.1899999995}},{"attributes":{"ID":91597,"DIS_CODE":0,"TOWNNAME":"新市區","LI":"大社里","LIN":"12鄰","STREET":" ","SECT":" ","MAREA":"大社","LANE":" ","ALLEY":" ","HOUSE_NO":"３０２號","E_COORD97":180197.92999999999,"N_COORD97":2554619.25,"ADDRESS":"大社３０２號","OBJECTID":91597},"geometry":{"x":180197.9299999997,"y":2554619.25}},{"attributes":{"ID":91598,"DIS_CODE":0,"TOWNNAME":"新市區","LI":"大社里","LIN":"12鄰","STREET":" ","SECT":" ","MAREA":"大社","LANE":" ","ALLEY":" ","HOUSE_NO":"３０２之２號","E_COORD97":180217.09,"N_COORD97":2554621.5499999998,"ADDRESS":"大社３０２之２號","OBJECTID":91598},"geometry":{"x":180217.08999999985,"y":2554621.5500000007}},{"attributes":{"ID":91599,"DIS_CODE":0,"TOWNNAME":"新市區","LI":"大社里","LIN":"12鄰","STREET":" ","SECT":" ","MAREA":"大社","LANE":" ","ALLEY":" ","HOUSE_NO":"３１４之２號","E_COORD97":180089.12,"N_COORD97":2554573.7999999998,"ADDRESS":"大社３１４之２號","OBJECTID":91599},"geometry":{"x":180089.12000000197,"y":2554573.8000000045}},{"attributes":{"ID":91600,"DIS_CODE":0,"TOWNNAME":"新市區","LI":"大社里","LIN":"12鄰","STREET":" ","SECT":" ","MAREA":"大社","LANE":" ","ALLEY":" ","HOUSE_NO":"３０３號","E_COORD97":180232.79000000001,"N_COORD97":2554589.75,"ADDRESS":"大社３０３號","OBJECTID":91600},"geometry":{"x":180232.79000000097,"y":2554589.75}}]}