{"displayFieldName":"TOWNNAME","fieldAliases":{"ID":"ID","DIS_CODE":"DIS_CODE","TOWNNAME":"TOWNNAME","LI":"LI","LIN":"LIN","STREET":"STREET","SECT":"SECT","MAREA":"MAREA","LANE":"LANE","ALLEY":"ALLEY","HOUSE_NO":"HOUSE_NO","E_COORD97":"E_COORD97","N_COORD97":"N_COORD97","ADDRESS":"ADDRESS","OBJECTID":"OBJECTID"},"geometryType":"esriGeometryPoint","spatialReference":{"wkid":102443,"latestWkid":3826},"fields":[{"name":"ID","type":"esriFieldTypeDouble","alias":"ID"},{"name":"DIS_CODE","type":"esriFieldTypeInteger","alias":"DIS_CODE"},{"name":"TOWNNAME","type":"esriFieldTypeString","alias":"TOWNNAME","length":8},{"name":"LI","type":"esriFieldTypeString","alias":"LI","length":8},{"name":"LIN","type":"esriFieldTypeString","alias":"LIN","length":12},{"name":"STREET","type":"esriFieldTypeString","alias":"STREET","length":20},{"name":"SECT","type":"esriFieldTypeString","alias":"SECT","length":8},{"name":"MAREA","type":"esriFieldTypeString","alias":"MAREA","length":12},{"name":"LANE","type":"esriFieldTypeString","alias":"LANE","length":10},{"name":"ALLEY","type":"esriFieldTypeString","alias":"ALLEY","length":10},{"name":"HOUSE_NO","type":"esriFieldTypeString","alias":"HOUSE_NO","length":20},{"name":"E_COORD97","type":"esriFieldTypeDouble","alias":"E_COORD97"},{"name":"N_COORD97","type":"esriFieldTypeDouble","alias":"N_COORD97"},{"name":"ADDRESS","type":"esriFieldTypeString","alias":"ADDRESS","length":50},{"name":"OBJECTID","type":"esriFieldTypeOID","alias":"OBJECTID"}],"features":[{"attributes":{"ID":107601,"DIS_CODE":0,"TOWNNAME":"安南區","LI":"幸福里","LIN":"1鄰","STREET":"國安街","SECT":" ","MAREA":" ","LANE":" ","ALLEY":" ","HOUSE_NO":"３號","E_COORD97":167135.17000000001,"N_COORD97":2547012.0800000001,"ADDRESS":"國安街３號","OBJECTID":107601},"geometry":{"x":167135.16999999993,"y":2547012.0800000019}},{"attributes":{"ID":107602,"DIS_CODE":0,"TOWNNAME":"安南區","LI":"淵中里","LIN":"6鄰","STREET":"本田路","SECT":"三段","MAREA":" ","LANE":" ","ALLEY":" ","HOUSE_NO":"１５１之２５號","E_COORD97":164140.69,"N_COORD97":2549299.8199999998,"ADDRESS":"本田路三段１５１之２５號","OBJECTID":107602},"geometry":{"x":164140.69000000227,"y":2549299.8200000003}},{"attributes":{"ID":107603,"DIS_CODE":0,"TOWNNAME":"北區","LI":"國興里","LIN":"9鄰","STREET":"開元路","SECT":" ","MAREA":" ","LANE":"４４２巷","ALLEY":"５１弄","HOUSE_NO":"７號","E_COORD97":170827.35999999999,"N_COORD97":2545589.0499999998,"ADDRESS":"開元路４４２巷５１弄７號","OBJECTID":107603},"geometry":{"x":170827.36000000127,"y":2545589.0500000026}},{"attributes":{"ID":107604,"DIS_CODE":0,"TOWNNAME":"北區","LI":"國興里","LIN":"9鄰","STREET":"開元路","SECT":" ","MAREA":" ","LANE":"４４２巷","ALLEY":"５１弄","HOUSE_NO":"９號","E_COORD97":170831.32000000001,"N_COORD97":2545587.54,"ADDRESS":"開元路４４２巷５１弄９號","OBJECTID":107604},"geometry":{"x":170831.32000000123,"y":2545587.540000001}},{"attributes":{"ID":107605,"DIS_CODE":0,"TOWNNAME":"北區","LI":"勝安里","LIN":"9鄰","STREET":"開元路","SECT":" ","MAREA":" ","LANE":"７３巷","ALLEY":"７４弄","HOUSE_NO":"１１號","E_COORD97":169915.64999999999,"N_COORD97":2545414.8399999999,"ADDRESS":"開元路７３巷７４弄１１號","OBJECTID":107605},"geometry":{"x":169915.65000000037,"y":2545414.8399999999}},{"attributes":{"ID":107606,"DIS_CODE":0,"TOWNNAME":"北區","LI":"勝安里","LIN":"9鄰","STREET":"開元路","SECT":" ","MAREA":" ","LANE":"７３巷","ALLEY":"７４弄","HOUSE_NO":"１３號","E_COORD97":169920.22,"N_COORD97":2545415.6299999999,"ADDRESS":"開元路７３巷７４弄１３號","OBJECTID":107606},"geometry":{"x":169920.2200000016,"y":2545415.6300000027}},{"attributes":{"ID":107607,"DIS_CODE":0,"TOWNNAME":"北區","LI":"勝安里","LIN":"9鄰","STREET":"開元路","SECT":" ","MAREA":" ","LANE":"７３巷","ALLEY":"７４弄","HOUSE_NO":"１５號","E_COORD97":169924.95000000001,"N_COORD97":2545415.79,"ADDRESS":"開元路７３巷７４弄１５號","OBJECTID":107607},"geometry":{"x":169924.95000000112,"y":2545415.790000001}},{"attributes":{"ID":107608,"DIS_CODE":0,"TOWNNAME":"北區","LI":"勝安里","LIN":"9鄰","STREET":"開元路","SECT":" ","MAREA":" ","LANE":"７３巷","ALLEY":"７４弄","HOUSE_NO":"１７號","E_COORD97":169929.37,"N_COORD97":2545416.2599999998,"ADDRESS":"開元路７３巷７４弄１７號","OBJECTID":107608},"geometry":{"x":169929.37000000011,"y":2545416.2600000016}},{"attributes":{"ID":107609,"DIS_CODE":0,"TOWNNAME":"北區","LI":"勝安里","LIN":"9鄰","STREET":"開元路","SECT":" ","MAREA":" ","LANE":"７３巷","ALLEY":"７４弄","HOUSE_NO":"１９號","E_COORD97":169934.26000000001,"N_COORD97":2545416.73,"ADDRESS":"開元路７３巷７４弄１９號","OBJECTID":107609},"geometry":{"x":169934.26000000071,"y":2545416.7300000042}},{"attributes":{"ID":107610,"DIS_CODE":0,"TOWNNAME":"北區","LI":"勝安里","LIN":"9鄰","STREET":"開元路","SECT":" ","MAREA":" ","LANE":"７３巷","ALLEY":"７４弄","HOUSE_NO":"１號","E_COORD97":169893.07999999999,"N_COORD97":2545412.6400000001,"ADDRESS":"開元路７３巷７４弄１號","OBJECTID":107610},"geometry":{"x":169893.08000000101,"y":2545412.6400000006}},{"attributes":{"ID":107611,"DIS_CODE":0,"TOWNNAME":"北區","LI":"勝安里","LIN":"9鄰","STREET":"開元路","SECT":" ","MAREA":" ","LANE":"７３巷","ALLEY":"７４弄","HOUSE_NO":"２１號","E_COORD97":169938.51999999999,"N_COORD97":2545417.3599999999,"ADDRESS":"開元路７３巷７４弄２１號","OBJECTID":107611},"geometry":{"x":169938.52000000142,"y":2545417.3599999994}},{"attributes":{"ID":107612,"DIS_CODE":0,"TOWNNAME":"北區","LI":"勝安里","LIN":"9鄰","STREET":"開元路","SECT":" ","MAREA":" ","LANE":"７３巷","ALLEY":"７４弄","HOUSE_NO":"３號","E_COORD97":169897.5,"N_COORD97":2545413.1099999999,"ADDRESS":"開元路７３巷７４弄３號","OBJECTID":107612},"geometry":{"x":169897.5,"y":2545413.1100000031}},{"attributes":{"ID":107613,"DIS_CODE":0,"TOWNNAME":"北區","LI":"勝安里","LIN":"9鄰","STREET":"開元路","SECT":" ","MAREA":" ","LANE":"７３巷","ALLEY":"７４弄","HOUSE_NO":"５號","E_COORD97":169901.92000000001,"N_COORD97":2545413.4199999999,"ADDRESS":"開元路７３巷７４弄５號","OBJECTID":107613},"geometry":{"x":169901.91999999993,"y":2545413.4199999999}},{"attributes":{"ID":107614,"DIS_CODE":0,"TOWNNAME":"北區","LI":"勝安里","LIN":"9鄰","STREET":"開元路","SECT":" ","MAREA":" ","LANE":"７３巷","ALLEY":"７４弄","HOUSE_NO":"７號","E_COORD97":169906.64999999999,"N_COORD97":2545413.8999999999,"ADDRESS":"開元路７３巷７４弄７號","OBJECTID":107614},"geometry":{"x":169906.6500000013,"y":2545413.9000000004}},{"attributes":{"ID":107615,"DIS_CODE":0,"TOWNNAME":"北區","LI":"勝安里","LIN":"9鄰","STREET":"開元路","SECT":" ","MAREA":" ","LANE":"７３巷","ALLEY":"７４弄","HOUSE_NO":"９號","E_COORD97":169911.23000000001,"N_COORD97":2545414.5299999998,"ADDRESS":"開元路７３巷７４弄９號","OBJECTID":107615},"geometry":{"x":169911.23000000138,"y":2545414.5300000012}},{"attributes":{"ID":107616,"DIS_CODE":0,"TOWNNAME":"北區","LI":"勝安里","LIN":"9鄰","STREET":"開元路","SECT":" ","MAREA":" ","LANE":"７３巷","ALLEY":"８４弄","HOUSE_NO":"１０號","E_COORD97":169909.81,"N_COORD97":2545427.21,"ADDRESS":"開元路７３巷８４弄１０號","OBJECTID":107616},"geometry":{"x":169909.81000000052,"y":2545427.209999999}},{"attributes":{"ID":107617,"DIS_CODE":0,"TOWNNAME":"安南區","LI":"淵中里","LIN":"6鄰","STREET":"本田路","SECT":"三段","MAREA":" ","LANE":" ","ALLEY":" ","HOUSE_NO":"１５１號","E_COORD97":163987.71929099999,"N_COORD97":2549191.0361000001,"ADDRESS":"本田路三段１５１號","OBJECTID":107617},"geometry":{"x":163987.71929100063,"y":2549191.0361030009}},{"attributes":{"ID":107618,"DIS_CODE":0,"TOWNNAME":"新營區","LI":"嘉芳里","LIN":"1鄰","STREET":" ","SECT":" ","MAREA":"茄苳腳","LANE":" ","ALLEY":" ","HOUSE_NO":"１３之８號五樓之２","E_COORD97":177099.85000000001,"N_COORD97":2578304.3900000001,"ADDRESS":"茄苳腳１３之８號五樓之２","OBJECTID":107618},"geometry":{"x":177099.84999999963,"y":2578304.3900000006}},{"attributes":{"ID":107619,"DIS_CODE":0,"TOWNNAME":"新營區","LI":"嘉芳里","LIN":"1鄰","STREET":" ","SECT":" ","MAREA":"茄苳腳","LANE":" ","ALLEY":" ","HOUSE_NO":"１３之８號四樓之１","E_COORD97":177099.72,"N_COORD97":2578304.3900000001,"ADDRESS":"茄苳腳１３之８號四樓之１","OBJECTID":107619},"geometry":{"x":177099.72000000067,"y":2578304.3900000006}},{"attributes":{"ID":107620,"DIS_CODE":0,"TOWNNAME":"新營區","LI":"嘉芳里","LIN":"1鄰","STREET":" ","SECT":" ","MAREA":"茄苳腳","LANE":" ","ALLEY":" ","HOUSE_NO":"１３之６號一樓","E_COORD97":177097.57999999999,"N_COORD97":2578304.3900000001,"ADDRESS":"茄苳腳１３之６號一樓","OBJECTID":107620},"geometry":{"x":177097.58000000101,"y":2578304.3900000006}},{"attributes":{"ID":107621,"DIS_CODE":0,"TOWNNAME":"新營區","LI":"嘉芳里","LIN":"1鄰","STREET":" ","SECT":" ","MAREA":"茄苳腳","LANE":" ","ALLEY":" ","HOUSE_NO":"１３之７號五樓之１","E_COORD97":177099.72,"N_COORD97":2578304.3900000001,"ADDRESS":"茄苳腳１３之７號五樓之１","OBJECTID":107621},"geometry":{"x":177099.72000000067,"y":2578304.3900000006}},{"attributes":{"ID":107622,"DIS_CODE":0,"TOWNNAME":"新營區","LI":"嘉芳里","LIN":"1鄰","STREET":" ","SECT":" ","MAREA":"茄苳腳","LANE":" ","ALLEY":" ","HOUSE_NO":"１３之８號一樓之２","E_COORD97":177099.85000000001,"N_COORD97":2578304.3900000001,"ADDRESS":"茄苳腳１３之８號一樓之２","OBJECTID":107622},"geometry":{"x":177099.84999999963,"y":2578304.3900000006}},{"attributes":{"ID":107623,"DIS_CODE":0,"TOWNNAME":"北區","LI":"勝安里","LIN":"9鄰","STREET":"開元路","SECT":" ","MAREA":" ","LANE":"７３巷","ALLEY":"８４弄","HOUSE_NO":"１２號","E_COORD97":169914.23000000001,"N_COORD97":2545427.8399999999,"ADDRESS":"開元路７３巷８４弄１２號","OBJECTID":107623},"geometry":{"x":169914.23000000231,"y":2545427.8399999999}},{"attributes":{"ID":107624,"DIS_CODE":0,"TOWNNAME":"北區","LI":"勝安里","LIN":"9鄰","STREET":"開元路","SECT":" ","MAREA":" ","LANE":"７３巷","ALLEY":"８４弄","HOUSE_NO":"１４號","E_COORD97":169918.79999999999,"N_COORD97":2545428.3199999998,"ADDRESS":"開元路７３巷８４弄１４號","OBJECTID":107624},"geometry":{"x":169918.80000000075,"y":2545428.3200000003}},{"attributes":{"ID":107625,"DIS_CODE":0,"TOWNNAME":"北區","LI":"勝安里","LIN":"9鄰","STREET":"開元路","SECT":" ","MAREA":" ","LANE":"７３巷","ALLEY":"８４弄","HOUSE_NO":"１６號","E_COORD97":169923.22,"N_COORD97":2545428.79,"ADDRESS":"開元路７３巷８４弄１６號","OBJECTID":107625},"geometry":{"x":169923.21999999974,"y":2545428.790000001}},{"attributes":{"ID":107626,"DIS_CODE":0,"TOWNNAME":"北區","LI":"勝安里","LIN":"9鄰","STREET":"開元路","SECT":" ","MAREA":" ","LANE":"７３巷","ALLEY":"８４弄","HOUSE_NO":"１８號","E_COORD97":169927.64000000001,"N_COORD97":2545429.2599999998,"ADDRESS":"開元路７３巷８４弄１８號","OBJECTID":107626},"geometry":{"x":169927.64000000153,"y":2545429.2600000035}},{"attributes":{"ID":107627,"DIS_CODE":0,"TOWNNAME":"北區","LI":"勝安里","LIN":"9鄰","STREET":"開元路","SECT":" ","MAREA":" ","LANE":"７３巷","ALLEY":"８４弄","HOUSE_NO":"２０號","E_COORD97":169932.20999999999,"N_COORD97":2545429.5800000001,"ADDRESS":"開元路７３巷８４弄２０號","OBJECTID":107627},"geometry":{"x":169932.20999999996,"y":2545429.5800000001}},{"attributes":{"ID":107628,"DIS_CODE":0,"TOWNNAME":"北區","LI":"勝安里","LIN":"9鄰","STREET":"開元路","SECT":" ","MAREA":" ","LANE":"７３巷","ALLEY":"８４弄","HOUSE_NO":"２２號","E_COORD97":169937.26000000001,"N_COORD97":2545430.0499999998,"ADDRESS":"開元路７３巷８４弄２２號","OBJECTID":107628},"geometry":{"x":169937.26000000071,"y":2545430.0500000007}},{"attributes":{"ID":107629,"DIS_CODE":0,"TOWNNAME":"北區","LI":"勝安里","LIN":"9鄰","STREET":"開元路","SECT":" ","MAREA":" ","LANE":"７３巷","ALLEY":"８４弄","HOUSE_NO":"２４號","E_COORD97":169942.94,"N_COORD97":2545429.8900000001,"ADDRESS":"開元路７３巷８４弄２４號","OBJECTID":107629},"geometry":{"x":169942.94000000041,"y":2545429.8900000025}},{"attributes":{"ID":107630,"DIS_CODE":0,"TOWNNAME":"安定區","LI":"安加里","LIN":"9鄰","STREET":" ","SECT":" ","MAREA":"安定","LANE":" ","ALLEY":" ","HOUSE_NO":"２５６之６３號","E_COORD97":171875.10999999999,"N_COORD97":2557282.9399999999,"ADDRESS":"安定２５６之６３號","OBJECTID":107630},"geometry":{"x":171875.11000000127,"y":2557282.9399999995}},{"attributes":{"ID":107631,"DIS_CODE":0,"TOWNNAME":"安定區","LI":"安加里","LIN":"9鄰","STREET":" ","SECT":" ","MAREA":"安定","LANE":" ","ALLEY":" ","HOUSE_NO":"２５６之６５號","E_COORD97":171874.19,"N_COORD97":2557288.04,"ADDRESS":"安定２５６之６５號","OBJECTID":107631},"geometry":{"x":171874.19000000227,"y":2557288.0399999991}},{"attributes":{"ID":107632,"DIS_CODE":0,"TOWNNAME":"新市區","LI":"港墘里","LIN":"9鄰","STREET":" ","SECT":" ","MAREA":"崙頂","LANE":" ","ALLEY":" ","HOUSE_NO":"８４之１號","E_COORD97":178700.20999999999,"N_COORD97":2552613.5499999998,"ADDRESS":"崙頂８４之１號","OBJECTID":107632},"geometry":{"x":178700.21000000089,"y":2552613.5500000026}},{"attributes":{"ID":107633,"DIS_CODE":0,"TOWNNAME":"新市區","LI":"港墘里","LIN":"9鄰","STREET":" ","SECT":" ","MAREA":"崙頂","LANE":" ","ALLEY":" ","HOUSE_NO":"９０號","E_COORD97":178616.42999999999,"N_COORD97":2552767,"ADDRESS":"崙頂９０號","OBJECTID":107633},"geometry":{"x":178616.4299999997,"y":2552767}},{"attributes":{"ID":107634,"DIS_CODE":0,"TOWNNAME":"北區","LI":"勝安里","LIN":"9鄰","STREET":"開元路","SECT":" ","MAREA":" ","LANE":"７３巷","ALLEY":"８４弄","HOUSE_NO":"２６號","E_COORD97":169944.51999999999,"N_COORD97":2545423.1200000001,"ADDRESS":"開元路７３巷８４弄２６號","OBJECTID":107634},"geometry":{"x":169944.51999999955,"y":2545423.120000001}},{"attributes":{"ID":107635,"DIS_CODE":0,"TOWNNAME":"北區","LI":"勝安里","LIN":"9鄰","STREET":"開元路","SECT":" ","MAREA":" ","LANE":"７３巷","ALLEY":"８４弄","HOUSE_NO":"２號","E_COORD97":169891.98000000001,"N_COORD97":2545424.2999999998,"ADDRESS":"開元路７３巷８４弄２號","OBJECTID":107635},"geometry":{"x":169891.98000000045,"y":2545424.3000000026}},{"attributes":{"ID":107636,"DIS_CODE":0,"TOWNNAME":"北區","LI":"勝安里","LIN":"9鄰","STREET":"開元路","SECT":" ","MAREA":" ","LANE":"７３巷","ALLEY":"８４弄","HOUSE_NO":"４號","E_COORD97":169896.39999999999,"N_COORD97":2545425.2400000002,"ADDRESS":"開元路７３巷８４弄４號","OBJECTID":107636},"geometry":{"x":169896.4000000013,"y":2545425.2400000002}},{"attributes":{"ID":107637,"DIS_CODE":0,"TOWNNAME":"北區","LI":"勝安里","LIN":"9鄰","STREET":"開元路","SECT":" ","MAREA":" ","LANE":"７３巷","ALLEY":"８４弄","HOUSE_NO":"６號","E_COORD97":169900.66,"N_COORD97":2545425.9500000002,"ADDRESS":"開元路７３巷８４弄６號","OBJECTID":107637},"geometry":{"x":169900.65999999922,"y":2545425.9499999993}},{"attributes":{"ID":107638,"DIS_CODE":0,"TOWNNAME":"北區","LI":"勝安里","LIN":"9鄰","STREET":"開元路","SECT":" ","MAREA":" ","LANE":"７３巷","ALLEY":"８４弄","HOUSE_NO":"８號","E_COORD97":169905.23000000001,"N_COORD97":2545426.5800000001,"ADDRESS":"開元路７３巷８４弄８號","OBJECTID":107638},"geometry":{"x":169905.23000000045,"y":2545426.5800000001}},{"attributes":{"ID":107639,"DIS_CODE":0,"TOWNNAME":"北區","LI":"勝安里","LIN":"9鄰","STREET":"開元路","SECT":" ","MAREA":" ","LANE":"７３巷","ALLEY":"８４弄","HOUSE_NO":"１１號","E_COORD97":169912.64999999999,"N_COORD97":2545439.0299999998,"ADDRESS":"開元路７３巷８４弄１１號","OBJECTID":107639},"geometry":{"x":169912.65000000037,"y":2545439.0299999993}},{"attributes":{"ID":107640,"DIS_CODE":0,"TOWNNAME":"北區","LI":"勝安里","LIN":"9鄰","STREET":"開元路","SECT":" ","MAREA":" ","LANE":"７３巷","ALLEY":"８４弄","HOUSE_NO":"１３號","E_COORD97":169916.28,"N_COORD97":2545439.6600000001,"ADDRESS":"開元路７３巷８４弄１３號","OBJECTID":107640},"geometry":{"x":169916.28000000026,"y":2545439.6600000001}},{"attributes":{"ID":107641,"DIS_CODE":0,"TOWNNAME":"北區","LI":"勝安里","LIN":"9鄰","STREET":"開元路","SECT":" ","MAREA":" ","LANE":"７３巷","ALLEY":"８４弄","HOUSE_NO":"１５號","E_COORD97":169919.75,"N_COORD97":2545440.4500000002,"ADDRESS":"開元路７３巷８４弄１５號","OBJECTID":107641},"geometry":{"x":169919.75,"y":2545440.4499999993}},{"attributes":{"ID":107642,"DIS_CODE":0,"TOWNNAME":"安南區","LI":"原佃里","LIN":"7鄰","STREET":"安中路","SECT":"二段","MAREA":" ","LANE":"２巷","ALLEY":"１２３弄","HOUSE_NO":"９號","E_COORD97":167305.23000000001,"N_COORD97":2549904.5800000001,"ADDRESS":"安中路二段２巷１２３弄９號","OBJECTID":107642},"geometry":{"x":167305.23000000231,"y":2549904.5800000001}},{"attributes":{"ID":107643,"DIS_CODE":0,"TOWNNAME":"安南區","LI":"安富里","LIN":"35鄰","STREET":"海佃路","SECT":"一段","MAREA":" ","LANE":"１５８巷","ALLEY":"１２２弄","HOUSE_NO":"６６號","E_COORD97":167644.60000000001,"N_COORD97":2547156.8100000001,"ADDRESS":"海佃路一段１５８巷１２２弄６６號","OBJECTID":107643},"geometry":{"x":167644.60000000056,"y":2547156.8100000024}},{"attributes":{"ID":107644,"DIS_CODE":0,"TOWNNAME":"北區","LI":"勝安里","LIN":"9鄰","STREET":"開元路","SECT":" ","MAREA":" ","LANE":"７３巷","ALLEY":"８４弄","HOUSE_NO":"１７號","E_COORD97":169923.38,"N_COORD97":2545441.0800000001,"ADDRESS":"開元路７３巷８４弄１７號","OBJECTID":107644},"geometry":{"x":169923.38000000082,"y":2545441.0800000038}},{"attributes":{"ID":107645,"DIS_CODE":0,"TOWNNAME":"北區","LI":"勝安里","LIN":"9鄰","STREET":"開元路","SECT":" ","MAREA":" ","LANE":"７３巷","ALLEY":"８４弄","HOUSE_NO":"１９號","E_COORD97":169927.16,"N_COORD97":2545441.71,"ADDRESS":"開元路７３巷８４弄１９號","OBJECTID":107645},"geometry":{"x":169927.16000000015,"y":2545441.7100000028}},{"attributes":{"ID":107646,"DIS_CODE":0,"TOWNNAME":"北區","LI":"勝安里","LIN":"9鄰","STREET":"開元路","SECT":" ","MAREA":" ","LANE":"７３巷","ALLEY":"８４弄","HOUSE_NO":"１號","E_COORD97":169890.14999999999,"N_COORD97":2545435.4100000001,"ADDRESS":"開元路７３巷８４弄１號","OBJECTID":107646},"geometry":{"x":169890.15000000037,"y":2545435.4100000039}},{"attributes":{"ID":107647,"DIS_CODE":0,"TOWNNAME":"北區","LI":"勝安里","LIN":"9鄰","STREET":"開元路","SECT":" ","MAREA":" ","LANE":"７３巷","ALLEY":"８４弄","HOUSE_NO":"２１號","E_COORD97":169930.48000000001,"N_COORD97":2545442.3399999999,"ADDRESS":"開元路７３巷８４弄２１號","OBJECTID":107647},"geometry":{"x":169930.48000000045,"y":2545442.3400000036}},{"attributes":{"ID":107648,"DIS_CODE":0,"TOWNNAME":"北區","LI":"勝安里","LIN":"9鄰","STREET":"開元路","SECT":" ","MAREA":" ","LANE":"７３巷","ALLEY":"８４弄","HOUSE_NO":"２３號","E_COORD97":169937.57999999999,"N_COORD97":2545440.1400000001,"ADDRESS":"開元路７３巷８４弄２３號","OBJECTID":107648},"geometry":{"x":169937.58000000101,"y":2545440.1400000006}},{"attributes":{"ID":107649,"DIS_CODE":0,"TOWNNAME":"北區","LI":"勝安里","LIN":"9鄰","STREET":"開元路","SECT":" ","MAREA":" ","LANE":"７３巷","ALLEY":"８４弄","HOUSE_NO":"２５號","E_COORD97":169936.47,"N_COORD97":2545444.2400000002,"ADDRESS":"開元路７３巷８４弄２５號","OBJECTID":107649},"geometry":{"x":169936.46999999974,"y":2545444.2400000021}},{"attributes":{"ID":107650,"DIS_CODE":0,"TOWNNAME":"北區","LI":"勝安里","LIN":"9鄰","STREET":"開元路","SECT":" ","MAREA":" ","LANE":"７３巷","ALLEY":"８４弄","HOUSE_NO":"２７號","E_COORD97":169935.04999999999,"N_COORD97":2545450.2200000002,"ADDRESS":"開元路７３巷８４弄２７號","OBJECTID":107650},"geometry":{"x":169935.05000000168,"y":2545450.2200000007}},{"attributes":{"ID":107651,"DIS_CODE":0,"TOWNNAME":"北區","LI":"勝安里","LIN":"9鄰","STREET":"開元路","SECT":" ","MAREA":" ","LANE":"７３巷","ALLEY":"８４弄","HOUSE_NO":"３號","E_COORD97":169892.29999999999,"N_COORD97":2545436.5099999998,"ADDRESS":"開元路７３巷８４弄３號","OBJECTID":107651},"geometry":{"x":169892.29999999981,"y":2545436.5099999998}},{"attributes":{"ID":107652,"DIS_CODE":0,"TOWNNAME":"北區","LI":"勝安里","LIN":"9鄰","STREET":"開元路","SECT":" ","MAREA":" ","LANE":"７３巷","ALLEY":"８４弄","HOUSE_NO":"５號","E_COORD97":169898.29000000001,"N_COORD97":2545437.77,"ADDRESS":"開元路７３巷８４弄５號","OBJECTID":107652},"geometry":{"x":169898.29000000097,"y":2545437.7699999996}},{"attributes":{"ID":107653,"DIS_CODE":0,"TOWNNAME":"北區","LI":"勝安里","LIN":"9鄰","STREET":"開元路","SECT":" ","MAREA":" ","LANE":"７３巷","ALLEY":"８４弄","HOUSE_NO":"７號","E_COORD97":169904.35000000001,"N_COORD97":2545439.4300000002,"ADDRESS":"開元路７３巷８４弄７號","OBJECTID":107653},"geometry":{"x":169904.35000000056,"y":2545439.4300000016}},{"attributes":{"ID":107654,"DIS_CODE":0,"TOWNNAME":"北區","LI":"勝安里","LIN":"9鄰","STREET":"開元路","SECT":" ","MAREA":" ","LANE":"７３巷","ALLEY":"８４弄","HOUSE_NO":"９號","E_COORD97":169909.01999999999,"N_COORD97":2545438.3999999999,"ADDRESS":"開元路７３巷８４弄９號","OBJECTID":107654},"geometry":{"x":169909.01999999955,"y":2545438.4000000004}},{"attributes":{"ID":107655,"DIS_CODE":0,"TOWNNAME":"北區","LI":"勝安里","LIN":"9鄰","STREET":"開元路","SECT":" ","MAREA":" ","LANE":"７３巷","ALLEY":"９４弄","HOUSE_NO":"１０號","E_COORD97":169907.28,"N_COORD97":2545454.79,"ADDRESS":"開元路７３巷９４弄１０號","OBJECTID":107655},"geometry":{"x":169907.28000000119,"y":2545454.7899999991}},{"attributes":{"ID":107656,"DIS_CODE":0,"TOWNNAME":"北區","LI":"勝安里","LIN":"9鄰","STREET":"開元路","SECT":" ","MAREA":" ","LANE":"７３巷","ALLEY":"９４弄","HOUSE_NO":"１２號","E_COORD97":169910.76000000001,"N_COORD97":2545455.7400000002,"ADDRESS":"開元路７３巷９４弄１２號","OBJECTID":107656},"geometry":{"x":169910.75999999978,"y":2545455.7400000002}},{"attributes":{"ID":107657,"DIS_CODE":0,"TOWNNAME":"北區","LI":"勝安里","LIN":"9鄰","STREET":"開元路","SECT":" ","MAREA":" ","LANE":"７３巷","ALLEY":"９４弄","HOUSE_NO":"１４號","E_COORD97":169914.38,"N_COORD97":2545456.3700000001,"ADDRESS":"開元路７３巷９４弄１４號","OBJECTID":107657},"geometry":{"x":169914.38000000175,"y":2545456.370000001}},{"attributes":{"ID":107658,"DIS_CODE":0,"TOWNNAME":"北區","LI":"勝安里","LIN":"9鄰","STREET":"開元路","SECT":" ","MAREA":" ","LANE":"７３巷","ALLEY":"９４弄","HOUSE_NO":"１６號","E_COORD97":169918.17000000001,"N_COORD97":2545457,"ADDRESS":"開元路７３巷９４弄１６號","OBJECTID":107658},"geometry":{"x":169918.17000000086,"y":2545457}},{"attributes":{"ID":107659,"DIS_CODE":0,"TOWNNAME":"北區","LI":"勝安里","LIN":"9鄰","STREET":"開元路","SECT":" ","MAREA":" ","LANE":"７３巷","ALLEY":"９４弄","HOUSE_NO":"１８號","E_COORD97":169921.48000000001,"N_COORD97":2545457.71,"ADDRESS":"開元路７３巷９４弄１８號","OBJECTID":107659},"geometry":{"x":169921.48000000138,"y":2545457.709999999}},{"attributes":{"ID":107660,"DIS_CODE":0,"TOWNNAME":"北區","LI":"勝安里","LIN":"9鄰","STREET":"開元路","SECT":" ","MAREA":" ","LANE":"７３巷","ALLEY":"９４弄","HOUSE_NO":"２０號","E_COORD97":169925.10999999999,"N_COORD97":2545458.5,"ADDRESS":"開元路７３巷９４弄２０號","OBJECTID":107660},"geometry":{"x":169925.1100000022,"y":2545458.5000000037}},{"attributes":{"ID":107661,"DIS_CODE":0,"TOWNNAME":"玉井區","LI":"層林里","LIN":"9鄰","STREET":" ","SECT":" ","MAREA":"層林","LANE":" ","ALLEY":" ","HOUSE_NO":"９８號","E_COORD97":191503.37,"N_COORD97":2552799.2400000002,"ADDRESS":"層林９８號","OBJECTID":107661},"geometry":{"x":191503.37000000104,"y":2552799.2400000002}},{"attributes":{"ID":107662,"DIS_CODE":0,"TOWNNAME":"北區","LI":"勝安里","LIN":"9鄰","STREET":"開元路","SECT":" ","MAREA":" ","LANE":"７３巷","ALLEY":"９４弄","HOUSE_NO":"２２號","E_COORD97":169929.06,"N_COORD97":2545459.1299999999,"ADDRESS":"開元路７３巷９４弄２２號","OBJECTID":107662},"geometry":{"x":169929.05999999959,"y":2545459.129999999}},{"attributes":{"ID":107663,"DIS_CODE":0,"TOWNNAME":"北區","LI":"勝安里","LIN":"9鄰","STREET":"開元路","SECT":" ","MAREA":" ","LANE":"７３巷","ALLEY":"９４弄","HOUSE_NO":"２４號","E_COORD97":169933.63,"N_COORD97":2545457.5499999998,"ADDRESS":"開元路７３巷９４弄２４號","OBJECTID":107663},"geometry":{"x":169933.63000000082,"y":2545457.5500000007}},{"attributes":{"ID":107664,"DIS_CODE":0,"TOWNNAME":"北區","LI":"勝安里","LIN":"9鄰","STREET":"開元路","SECT":" ","MAREA":" ","LANE":"７３巷","ALLEY":"９４弄","HOUSE_NO":"６號","E_COORD97":169896.39999999999,"N_COORD97":2545452.1200000001,"ADDRESS":"開元路７３巷９４弄６號","OBJECTID":107664},"geometry":{"x":169896.4000000013,"y":2545452.1200000048}},{"attributes":{"ID":107665,"DIS_CODE":0,"TOWNNAME":"北區","LI":"勝安里","LIN":"9鄰","STREET":"開元路","SECT":" ","MAREA":" ","LANE":"７３巷","ALLEY":"９４弄","HOUSE_NO":"８號","E_COORD97":169902.54999999999,"N_COORD97":2545453.3799999999,"ADDRESS":"開元路７３巷９４弄８號","OBJECTID":107665},"geometry":{"x":169902.54999999981,"y":2545453.379999999}},{"attributes":{"ID":107666,"DIS_CODE":0,"TOWNNAME":"關廟區","LI":"關廟里","LIN":"9鄰","STREET":"大富街","SECT":" ","MAREA":" ","LANE":"３０１巷","ALLEY":"２７弄","HOUSE_NO":"４０號","E_COORD97":180972.04000000001,"N_COORD97":2539623.1499999999,"ADDRESS":"大富街３０１巷２７弄４０號","OBJECTID":107666},"geometry":{"x":180972.04000000004,"y":2539623.1500000041}},{"attributes":{"ID":107667,"DIS_CODE":0,"TOWNNAME":"關廟區","LI":"關廟里","LIN":"9鄰","STREET":"大仁街","SECT":" ","MAREA":" ","LANE":"３４６巷","ALLEY":"２１弄","HOUSE_NO":"３號","E_COORD97":180881.12,"N_COORD97":2539650.25,"ADDRESS":"大仁街３４６巷２１弄３號","OBJECTID":107667},"geometry":{"x":180881.12000000104,"y":2539650.2500000019}},{"attributes":{"ID":107668,"DIS_CODE":0,"TOWNNAME":"關廟區","LI":"埤頭里","LIN":"9鄰","STREET":"關新路","SECT":"二段","MAREA":" ","LANE":"５１巷","ALLEY":"１１弄","HOUSE_NO":"２２號","E_COORD97":179038.62,"N_COORD97":2544118.2999999998,"ADDRESS":"關新路二段５１巷１１弄２２號","OBJECTID":107668},"geometry":{"x":179038.62000000104,"y":2544118.3000000026}},{"attributes":{"ID":107669,"DIS_CODE":0,"TOWNNAME":"關廟區","LI":"埤頭里","LIN":"9鄰","STREET":"關新路","SECT":"二段","MAREA":" ","LANE":"５１巷","ALLEY":"１１弄","HOUSE_NO":"１９號","E_COORD97":179049.72,"N_COORD97":2544115.2999999998,"ADDRESS":"關新路二段５１巷１１弄１９號","OBJECTID":107669},"geometry":{"x":179049.72000000067,"y":2544115.3000000026}},{"attributes":{"ID":107670,"DIS_CODE":0,"TOWNNAME":"北區","LI":"開元里","LIN":"9鄰","STREET":"北園街","SECT":" ","MAREA":" ","LANE":"１２４巷","ALLEY":"１５弄","HOUSE_NO":"１０號","E_COORD97":170333.39999999999,"N_COORD97":2546071.5099999998,"ADDRESS":"北園街１２４巷１５弄１０號","OBJECTID":107670},"geometry":{"x":170333.40000000224,"y":2546071.5099999979}},{"attributes":{"ID":107671,"DIS_CODE":0,"TOWNNAME":"北區","LI":"開元里","LIN":"9鄰","STREET":"北園街","SECT":" ","MAREA":" ","LANE":"１２４巷","ALLEY":"１５弄","HOUSE_NO":"１１號","E_COORD97":170346.67000000001,"N_COORD97":2546061.27,"ADDRESS":"北園街１２４巷１５弄１１號","OBJECTID":107671},"geometry":{"x":170346.67000000086,"y":2546061.2699999996}},{"attributes":{"ID":107672,"DIS_CODE":0,"TOWNNAME":"北區","LI":"開元里","LIN":"9鄰","STREET":"北園街","SECT":" ","MAREA":" ","LANE":"１２４巷","ALLEY":"１５弄","HOUSE_NO":"１１號之１","E_COORD97":170341.32999999999,"N_COORD97":2546061.2000000002,"ADDRESS":"北園街１２４巷１５弄１１號之１","OBJECTID":107672},"geometry":{"x":170341.33000000007,"y":2546061.2000000011}},{"attributes":{"ID":107673,"DIS_CODE":0,"TOWNNAME":"北區","LI":"開元里","LIN":"9鄰","STREET":"北園街","SECT":" ","MAREA":" ","LANE":"１２４巷","ALLEY":"１５弄","HOUSE_NO":"１２之５號","E_COORD97":170328.85000000001,"N_COORD97":2546071.0800000001,"ADDRESS":"北園街１２４巷１５弄１２之５號","OBJECTID":107673},"geometry":{"x":170328.84999999963,"y":2546071.0800000001}},{"attributes":{"ID":107674,"DIS_CODE":0,"TOWNNAME":"北區","LI":"開元里","LIN":"9鄰","STREET":"北園街","SECT":" ","MAREA":" ","LANE":"１２４巷","ALLEY":"１５弄","HOUSE_NO":"１號","E_COORD97":170371.85000000001,"N_COORD97":2546061.5800000001,"ADDRESS":"北園街１２４巷１５弄１號","OBJECTID":107674},"geometry":{"x":170371.85000000149,"y":2546061.5800000038}},{"attributes":{"ID":107675,"DIS_CODE":0,"TOWNNAME":"北區","LI":"開元里","LIN":"9鄰","STREET":"北園街","SECT":" ","MAREA":" ","LANE":"１２４巷","ALLEY":"１５弄","HOUSE_NO":"２０號","E_COORD97":170294.12,"N_COORD97":2546071.27,"ADDRESS":"北園街１２４巷１５弄２０號","OBJECTID":107675},"geometry":{"x":170294.12000000011,"y":2546071.2700000014}},{"attributes":{"ID":107676,"DIS_CODE":0,"TOWNNAME":"北區","LI":"開元里","LIN":"9鄰","STREET":"北園街","SECT":" ","MAREA":" ","LANE":"１２４巷","ALLEY":"１５弄","HOUSE_NO":"２１號","E_COORD97":170316.25,"N_COORD97":2546061.7599999998,"ADDRESS":"北園街１２４巷１５弄２１號","OBJECTID":107676},"geometry":{"x":170316.25,"y":2546061.7599999998}},{"attributes":{"ID":107677,"DIS_CODE":0,"TOWNNAME":"北區","LI":"開元里","LIN":"9鄰","STREET":"北園街","SECT":" ","MAREA":" ","LANE":"１２４巷","ALLEY":"１５弄","HOUSE_NO":"２２號","E_COORD97":170290.79000000001,"N_COORD97":2546070.3399999999,"ADDRESS":"北園街１２４巷１５弄２２號","OBJECTID":107677},"geometry":{"x":170290.79000000004,"y":2546070.3400000017}},{"attributes":{"ID":107678,"DIS_CODE":0,"TOWNNAME":"新市區","LI":"港墘里","LIN":"9鄰","STREET":" ","SECT":" ","MAREA":"崙頂","LANE":" ","ALLEY":" ","HOUSE_NO":"６６號","E_COORD97":178887.17999999999,"N_COORD97":2552741.75,"ADDRESS":"崙頂６６號","OBJECTID":107678},"geometry":{"x":178887.18000000063,"y":2552741.75}},{"attributes":{"ID":107679,"DIS_CODE":0,"TOWNNAME":"新市區","LI":"港墘里","LIN":"9鄰","STREET":" ","SECT":" ","MAREA":"崙頂","LANE":" ","ALLEY":" ","HOUSE_NO":"７０號","E_COORD97":178840.76999999999,"N_COORD97":2552688.5,"ADDRESS":"崙頂７０號","OBJECTID":107679},"geometry":{"x":178840.76999999955,"y":2552688.5}},{"attributes":{"ID":107680,"DIS_CODE":0,"TOWNNAME":"新市區","LI":"社內里","LIN":"9鄰","STREET":" ","SECT":" ","MAREA":"社內","LANE":" ","ALLEY":" ","HOUSE_NO":"９９之５２號","E_COORD97":176314.19,"N_COORD97":2552984.2999999998,"ADDRESS":"社內９９之５２號","OBJECTID":107680},"geometry":{"x":176314.19000000134,"y":2552984.3000000026}},{"attributes":{"ID":107681,"DIS_CODE":0,"TOWNNAME":"新市區","LI":"大社里","LIN":"9鄰","STREET":" ","SECT":" ","MAREA":"大社","LANE":" ","ALLEY":" ","HOUSE_NO":"２９１之１號","E_COORD97":180351.67000000001,"N_COORD97":2554556.5499999998,"ADDRESS":"大社２９１之１號","OBJECTID":107681},"geometry":{"x":180351.67000000086,"y":2554556.5500000026}},{"attributes":{"ID":107682,"DIS_CODE":0,"TOWNNAME":"新市區","LI":"社內里","LIN":"9鄰","STREET":" ","SECT":" ","MAREA":"社內","LANE":" ","ALLEY":" ","HOUSE_NO":"８８號","E_COORD97":176437.84,"N_COORD97":2552995.75,"ADDRESS":"社內８８號","OBJECTID":107682},"geometry":{"x":176437.84000000078,"y":2552995.75}},{"attributes":{"ID":107683,"DIS_CODE":0,"TOWNNAME":"新市區","LI":"大社里","LIN":"9鄰","STREET":" ","SECT":" ","MAREA":"大社","LANE":" ","ALLEY":" ","HOUSE_NO":"２９７之６號","E_COORD97":180291.26000000001,"N_COORD97":2554550.5499999998,"ADDRESS":"大社２９７之６號","OBJECTID":107683},"geometry":{"x":180291.26000000164,"y":2554550.5500000007}},{"attributes":{"ID":107684,"DIS_CODE":0,"TOWNNAME":"新市區","LI":"大社里","LIN":"9鄰","STREET":" ","SECT":" ","MAREA":"大社","LANE":" ","ALLEY":" ","HOUSE_NO":"２８８號","E_COORD97":180491.39999999999,"N_COORD97":2554596.75,"ADDRESS":"大社２８８號","OBJECTID":107684},"geometry":{"x":180491.4000000013,"y":2554596.75}},{"attributes":{"ID":107685,"DIS_CODE":0,"TOWNNAME":"將軍區","LI":"長沙里","LIN":"9鄰","STREET":" ","SECT":" ","MAREA":"長沙","LANE":" ","ALLEY":" ","HOUSE_NO":"８２之１號","E_COORD97":157240.32000000001,"N_COORD97":2568718.4700000002,"ADDRESS":"長沙８２之１號","OBJECTID":107685},"geometry":{"x":157240.32000000123,"y":2568718.4700000025}},{"attributes":{"ID":107686,"DIS_CODE":0,"TOWNNAME":"將軍區","LI":"長沙里","LIN":"9鄰","STREET":" ","SECT":" ","MAREA":"長沙","LANE":" ","ALLEY":" ","HOUSE_NO":"８２號","E_COORD97":157238.70000000001,"N_COORD97":2568707.9300000002,"ADDRESS":"長沙８２號","OBJECTID":107686},"geometry":{"x":157238.70000000019,"y":2568707.9300000016}},{"attributes":{"ID":107687,"DIS_CODE":0,"TOWNNAME":"將軍區","LI":"長榮里","LIN":"9鄰","STREET":" ","SECT":" ","MAREA":"長榮","LANE":" ","ALLEY":" ","HOUSE_NO":"８０號","E_COORD97":163933.60999999999,"N_COORD97":2566313.8700000001,"ADDRESS":"長榮８０號","OBJECTID":107687},"geometry":{"x":163933.61000000034,"y":2566313.870000001}},{"attributes":{"ID":107688,"DIS_CODE":0,"TOWNNAME":"新營區","LI":"嘉芳里","LIN":"1鄰","STREET":" ","SECT":" ","MAREA":"茄苳腳","LANE":" ","ALLEY":" ","HOUSE_NO":"１３之６號二樓之１","E_COORD97":177099.72,"N_COORD97":2578304.3900000001,"ADDRESS":"茄苳腳１３之６號二樓之１","OBJECTID":107688},"geometry":{"x":177099.72000000067,"y":2578304.3900000006}},{"attributes":{"ID":107689,"DIS_CODE":0,"TOWNNAME":"新營區","LI":"嘉芳里","LIN":"1鄰","STREET":" ","SECT":" ","MAREA":"茄苳腳","LANE":" ","ALLEY":" ","HOUSE_NO":"１３之５號五樓之２","E_COORD97":177117.31,"N_COORD97":2578319.8100000001,"ADDRESS":"茄苳腳１３之５號五樓之２","OBJECTID":107689},"geometry":{"x":177117.31000000145,"y":2578319.8100000042}},{"attributes":{"ID":107690,"DIS_CODE":0,"TOWNNAME":"新營區","LI":"嘉芳里","LIN":"1鄰","STREET":" ","SECT":" ","MAREA":"茄苳腳","LANE":" ","ALLEY":" ","HOUSE_NO":"１３之４號五樓之３","E_COORD97":177117.26999999999,"N_COORD97":2578319.8100000001,"ADDRESS":"茄苳腳１３之４號五樓之３","OBJECTID":107690},"geometry":{"x":177117.26999999955,"y":2578319.8100000042}},{"attributes":{"ID":107691,"DIS_CODE":0,"TOWNNAME":"新營區","LI":"嘉芳里","LIN":"1鄰","STREET":" ","SECT":" ","MAREA":"茄苳腳","LANE":" ","ALLEY":" ","HOUSE_NO":"１３之４號一樓之３","E_COORD97":177117.26999999999,"N_COORD97":2578319.8100000001,"ADDRESS":"茄苳腳１３之４號一樓之３","OBJECTID":107691},"geometry":{"x":177117.26999999955,"y":2578319.8100000042}},{"attributes":{"ID":107692,"DIS_CODE":0,"TOWNNAME":"新營區","LI":"嘉芳里","LIN":"1鄰","STREET":" ","SECT":" ","MAREA":"茄苳腳","LANE":" ","ALLEY":" ","HOUSE_NO":"１３之４號四樓之１","E_COORD97":177117.17999999999,"N_COORD97":2578319.8100000001,"ADDRESS":"茄苳腳１３之４號四樓之１","OBJECTID":107692},"geometry":{"x":177117.18000000063,"y":2578319.8100000042}},{"attributes":{"ID":107693,"DIS_CODE":0,"TOWNNAME":"新營區","LI":"嘉芳里","LIN":"1鄰","STREET":" ","SECT":" ","MAREA":"茄苳腳","LANE":" ","ALLEY":" ","HOUSE_NO":"１３之４號一樓之２","E_COORD97":177117.31,"N_COORD97":2578319.8100000001,"ADDRESS":"茄苳腳１３之４號一樓之２","OBJECTID":107693},"geometry":{"x":177117.31000000145,"y":2578319.8100000042}},{"attributes":{"ID":107694,"DIS_CODE":0,"TOWNNAME":"新營區","LI":"嘉芳里","LIN":"1鄰","STREET":" ","SECT":" ","MAREA":"茄苳腳","LANE":" ","ALLEY":" ","HOUSE_NO":"１３之８號五樓之１","E_COORD97":177099.72,"N_COORD97":2578304.3900000001,"ADDRESS":"茄苳腳１３之８號五樓之１","OBJECTID":107694},"geometry":{"x":177099.72000000067,"y":2578304.3900000006}},{"attributes":{"ID":107695,"DIS_CODE":0,"TOWNNAME":"新營區","LI":"嘉芳里","LIN":"1鄰","STREET":" ","SECT":" ","MAREA":"茄苳腳","LANE":" ","ALLEY":" ","HOUSE_NO":"１３之８號一樓之１","E_COORD97":177099.72,"N_COORD97":2578304.3900000001,"ADDRESS":"茄苳腳１３之８號一樓之１","OBJECTID":107695},"geometry":{"x":177099.72000000067,"y":2578304.3900000006}},{"attributes":{"ID":107696,"DIS_CODE":0,"TOWNNAME":"新營區","LI":"嘉芳里","LIN":"1鄰","STREET":" ","SECT":" ","MAREA":"茄苳腳","LANE":" ","ALLEY":" ","HOUSE_NO":"１３之４號二樓之１","E_COORD97":177117.17999999999,"N_COORD97":2578319.8100000001,"ADDRESS":"茄苳腳１３之４號二樓之１","OBJECTID":107696},"geometry":{"x":177117.18000000063,"y":2578319.8100000042}},{"attributes":{"ID":107697,"DIS_CODE":0,"TOWNNAME":"新營區","LI":"嘉芳里","LIN":"1鄰","STREET":" ","SECT":" ","MAREA":"茄苳腳","LANE":" ","ALLEY":" ","HOUSE_NO":"１３之４號四樓之２","E_COORD97":177117.31,"N_COORD97":2578319.8100000001,"ADDRESS":"茄苳腳１３之４號四樓之２","OBJECTID":107697},"geometry":{"x":177117.31000000145,"y":2578319.8100000042}},{"attributes":{"ID":107698,"DIS_CODE":0,"TOWNNAME":"新營區","LI":"嘉芳里","LIN":"1鄰","STREET":" ","SECT":" ","MAREA":"茄苳腳","LANE":" ","ALLEY":" ","HOUSE_NO":"１３之４號二樓之３","E_COORD97":177117.26999999999,"N_COORD97":2578319.8100000001,"ADDRESS":"茄苳腳１３之４號二樓之３","OBJECTID":107698},"geometry":{"x":177117.26999999955,"y":2578319.8100000042}},{"attributes":{"ID":107699,"DIS_CODE":0,"TOWNNAME":"新營區","LI":"嘉芳里","LIN":"1鄰","STREET":" ","SECT":" ","MAREA":"茄苳腳","LANE":" ","ALLEY":" ","HOUSE_NO":"１３之５號二樓之２","E_COORD97":177117.31,"N_COORD97":2578319.8100000001,"ADDRESS":"茄苳腳１３之５號二樓之２","OBJECTID":107699},"geometry":{"x":177117.31000000145,"y":2578319.8100000042}},{"attributes":{"ID":107700,"DIS_CODE":0,"TOWNNAME":"新營區","LI":"嘉芳里","LIN":"1鄰","STREET":" ","SECT":" ","MAREA":"茄苳腳","LANE":" ","ALLEY":" ","HOUSE_NO":"１３之６號三樓之２","E_COORD97":177099.85000000001,"N_COORD97":2578304.3900000001,"ADDRESS":"茄苳腳１３之６號三樓之２","OBJECTID":107700},"geometry":{"x":177099.84999999963,"y":2578304.3900000006}},{"attributes":{"ID":107701,"DIS_CODE":0,"TOWNNAME":"六甲區","LI":"中社里","LIN":"9鄰","STREET":" ","SECT":" ","MAREA":"中社","LANE":" ","ALLEY":" ","HOUSE_NO":"３２３號","E_COORD97":180992.29000000001,"N_COORD97":2570798.1699999999,"ADDRESS":"中社３２３號","OBJECTID":107701},"geometry":{"x":180992.29000000004,"y":2570798.1700000018}},{"attributes":{"ID":107702,"DIS_CODE":0,"TOWNNAME":"六甲區","LI":"中社里","LIN":"9鄰","STREET":" ","SECT":" ","MAREA":"中社","LANE":" ","ALLEY":" ","HOUSE_NO":"３２５號","E_COORD97":180993.70999999999,"N_COORD97":2570794.1600000001,"ADDRESS":"中社３２５號","OBJECTID":107702},"geometry":{"x":180993.71000000089,"y":2570794.160000002}},{"attributes":{"ID":107703,"DIS_CODE":0,"TOWNNAME":"新營區","LI":"埤寮里","LIN":"9鄰","STREET":" ","SECT":" ","MAREA":"埤寮","LANE":" ","ALLEY":" ","HOUSE_NO":"６３之１號","E_COORD97":180485.87,"N_COORD97":2580908.3199999998,"ADDRESS":"埤寮６３之１號","OBJECTID":107703},"geometry":{"x":180485.87000000197,"y":2580908.3200000003}},{"attributes":{"ID":107704,"DIS_CODE":0,"TOWNNAME":"新營區","LI":"護鎮里","LIN":"9鄰","STREET":" ","SECT":" ","MAREA":"後鎮","LANE":" ","ALLEY":" ","HOUSE_NO":"９９號","E_COORD97":179077.51000000001,"N_COORD97":2580988.0299999998,"ADDRESS":"後鎮９９號","OBJECTID":107704},"geometry":{"x":179077.51000000164,"y":2580988.0299999993}},{"attributes":{"ID":107705,"DIS_CODE":0,"TOWNNAME":"新營區","LI":"埤寮里","LIN":"9鄰","STREET":" ","SECT":" ","MAREA":"埤寮","LANE":" ","ALLEY":" ","HOUSE_NO":"５９之２號","E_COORD97":180532.76999999999,"N_COORD97":2580874.8700000001,"ADDRESS":"埤寮５９之２號","OBJECTID":107705},"geometry":{"x":180532.76999999955,"y":2580874.870000001}},{"attributes":{"ID":107706,"DIS_CODE":0,"TOWNNAME":"新營區","LI":"太南里","LIN":"9鄰","STREET":" ","SECT":" ","MAREA":"太子宮","LANE":" ","ALLEY":" ","HOUSE_NO":"２３４號","E_COORD97":176041.44,"N_COORD97":2576887.5800000001,"ADDRESS":"太子宮２３４號","OBJECTID":107706},"geometry":{"x":176041.44000000134,"y":2576887.5800000019}},{"attributes":{"ID":107707,"DIS_CODE":0,"TOWNNAME":"新營區","LI":"太北里","LIN":"1鄰","STREET":" ","SECT":" ","MAREA":"太子宮","LANE":" ","ALLEY":" ","HOUSE_NO":"１之１６號三樓","E_COORD97":176386.39000000001,"N_COORD97":2577218.1699999999,"ADDRESS":"太子宮１之１６號三樓","OBJECTID":107707},"geometry":{"x":176386.3900000006,"y":2577218.1700000037}},{"attributes":{"ID":107708,"DIS_CODE":0,"TOWNNAME":"新營區","LI":"太南里","LIN":"9鄰","STREET":" ","SECT":" ","MAREA":"太子宮","LANE":" ","ALLEY":" ","HOUSE_NO":"２３９之１２號","E_COORD97":175998.14999999999,"N_COORD97":2576891.1899999999,"ADDRESS":"太子宮２３９之１２號","OBJECTID":107708},"geometry":{"x":175998.15000000037,"y":2576891.1899999995}},{"attributes":{"ID":107709,"DIS_CODE":0,"TOWNNAME":"新營區","LI":"太南里","LIN":"9鄰","STREET":" ","SECT":" ","MAREA":"太子宮","LANE":" ","ALLEY":" ","HOUSE_NO":"２３９之１０號","E_COORD97":175998.20000000001,"N_COORD97":2576901.1499999999,"ADDRESS":"太子宮２３９之１０號","OBJECTID":107709},"geometry":{"x":175998.20000000205,"y":2576901.1500000022}},{"attributes":{"ID":107710,"DIS_CODE":0,"TOWNNAME":"新營區","LI":"埤寮里","LIN":"9鄰","STREET":" ","SECT":" ","MAREA":"埤寮","LANE":" ","ALLEY":" ","HOUSE_NO":"５９之９號","E_COORD97":180668.57000000001,"N_COORD97":2580826.6200000001,"ADDRESS":"埤寮５９之９號","OBJECTID":107710},"geometry":{"x":180668.5700000003,"y":2580826.620000001}},{"attributes":{"ID":107711,"DIS_CODE":0,"TOWNNAME":"六甲區","LI":"中社里","LIN":"9鄰","STREET":" ","SECT":" ","MAREA":"中社","LANE":" ","ALLEY":" ","HOUSE_NO":"３３５號","E_COORD97":181000.28,"N_COORD97":2570774.8799999999,"ADDRESS":"中社３３５號","OBJECTID":107711},"geometry":{"x":181000.28000000212,"y":2570774.8800000008}},{"attributes":{"ID":107712,"DIS_CODE":0,"TOWNNAME":"新營區","LI":"埤寮里","LIN":"9鄰","STREET":" ","SECT":" ","MAREA":"埤寮","LANE":" ","ALLEY":" ","HOUSE_NO":"５９之３號","E_COORD97":180539.92999999999,"N_COORD97":2580874.8399999999,"ADDRESS":"埤寮５９之３號","OBJECTID":107712},"geometry":{"x":180539.93000000063,"y":2580874.8399999999}},{"attributes":{"ID":107713,"DIS_CODE":0,"TOWNNAME":"六甲區","LI":"中社里","LIN":"9鄰","STREET":" ","SECT":" ","MAREA":"中社","LANE":" ","ALLEY":" ","HOUSE_NO":"３５１之１號","E_COORD97":181024.78,"N_COORD97":2570701.5699999998,"ADDRESS":"中社３５１之１號","OBJECTID":107713},"geometry":{"x":181024.78000000026,"y":2570701.5700000003}},{"attributes":{"ID":107714,"DIS_CODE":0,"TOWNNAME":"六甲區","LI":"中社里","LIN":"9鄰","STREET":" ","SECT":" ","MAREA":"中社","LANE":" ","ALLEY":" ","HOUSE_NO":"３５３號","E_COORD97":180986.76000000001,"N_COORD97":2570769.1400000001,"ADDRESS":"中社３５３號","OBJECTID":107714},"geometry":{"x":180986.76000000071,"y":2570769.1400000006}},{"attributes":{"ID":107715,"DIS_CODE":0,"TOWNNAME":"六甲區","LI":"中社里","LIN":"9鄰","STREET":" ","SECT":" ","MAREA":"中社","LANE":" ","ALLEY":" ","HOUSE_NO":"３５７號","E_COORD97":180980.06,"N_COORD97":2570738.3599999999,"ADDRESS":"中社３５７號","OBJECTID":107715},"geometry":{"x":180980.05999999959,"y":2570738.3600000013}},{"attributes":{"ID":107716,"DIS_CODE":0,"TOWNNAME":"六甲區","LI":"中社里","LIN":"9鄰","STREET":" ","SECT":" ","MAREA":"中社","LANE":" ","ALLEY":" ","HOUSE_NO":"３５９號","E_COORD97":180965.42000000001,"N_COORD97":2570755.0600000001,"ADDRESS":"中社３５９號","OBJECTID":107716},"geometry":{"x":180965.42000000086,"y":2570755.0600000024}},{"attributes":{"ID":107717,"DIS_CODE":0,"TOWNNAME":"六甲區","LI":"中社里","LIN":"9鄰","STREET":" ","SECT":" ","MAREA":"中社","LANE":" ","ALLEY":" ","HOUSE_NO":"３６１號","E_COORD97":180985.48000000001,"N_COORD97":2570796.46,"ADDRESS":"中社３６１號","OBJECTID":107717},"geometry":{"x":180985.48000000231,"y":2570796.4600000028}},{"attributes":{"ID":107718,"DIS_CODE":0,"TOWNNAME":"六甲區","LI":"中社里","LIN":"9鄰","STREET":" ","SECT":" ","MAREA":"中社","LANE":" ","ALLEY":" ","HOUSE_NO":"３６３號","E_COORD97":180986.42000000001,"N_COORD97":2570808.5299999998,"ADDRESS":"中社３６３號","OBJECTID":107718},"geometry":{"x":180986.41999999993,"y":2570808.5300000012}},{"attributes":{"ID":107719,"DIS_CODE":0,"TOWNNAME":"六甲區","LI":"中社里","LIN":"9鄰","STREET":" ","SECT":" ","MAREA":"中社","LANE":" ","ALLEY":" ","HOUSE_NO":"３６５號","E_COORD97":180976.14999999999,"N_COORD97":2570809.6299999999,"ADDRESS":"中社３６５號","OBJECTID":107719},"geometry":{"x":180976.1500000013,"y":2570809.6300000027}},{"attributes":{"ID":107720,"DIS_CODE":0,"TOWNNAME":"六甲區","LI":"中社里","LIN":"9鄰","STREET":" ","SECT":" ","MAREA":"中社","LANE":" ","ALLEY":" ","HOUSE_NO":"３６７號","E_COORD97":180962.07999999999,"N_COORD97":2570811.5299999998,"ADDRESS":"中社３６７號","OBJECTID":107720},"geometry":{"x":180962.08000000007,"y":2570811.5300000012}},{"attributes":{"ID":107721,"DIS_CODE":0,"TOWNNAME":"北區","LI":"玉皇里","LIN":"1鄰","STREET":"公園南路","SECT":" ","MAREA":" ","LANE":" ","ALLEY":" ","HOUSE_NO":"１６１號九樓","E_COORD97":168662.31,"N_COORD97":2544667.3199999998,"ADDRESS":"公園南路１６１號九樓","OBJECTID":107721},"geometry":{"x":168662.31000000052,"y":2544667.3200000022}},{"attributes":{"ID":107722,"DIS_CODE":0,"TOWNNAME":"六甲區","LI":"中社里","LIN":"9鄰","STREET":" ","SECT":" ","MAREA":"中社","LANE":" ","ALLEY":" ","HOUSE_NO":"３７１號","E_COORD97":180951.95000000001,"N_COORD97":2570822.71,"ADDRESS":"中社３７１號","OBJECTID":107722},"geometry":{"x":180951.95000000112,"y":2570822.7100000028}},{"attributes":{"ID":107723,"DIS_CODE":0,"TOWNNAME":"北區","LI":"玉皇里","LIN":"1鄰","STREET":"公園南路","SECT":" ","MAREA":" ","LANE":" ","ALLEY":" ","HOUSE_NO":"１６１號二樓","E_COORD97":168662.31,"N_COORD97":2544667.3199999998,"ADDRESS":"公園南路１６１號二樓","OBJECTID":107723},"geometry":{"x":168662.31000000052,"y":2544667.3200000022}},{"attributes":{"ID":107724,"DIS_CODE":0,"TOWNNAME":"北區","LI":"玉皇里","LIN":"1鄰","STREET":"公園南路","SECT":" ","MAREA":" ","LANE":" ","ALLEY":" ","HOUSE_NO":"１６１號八樓","E_COORD97":168662.31,"N_COORD97":2544667.3199999998,"ADDRESS":"公園南路１６１號八樓","OBJECTID":107724},"geometry":{"x":168662.31000000052,"y":2544667.3200000022}},{"attributes":{"ID":107725,"DIS_CODE":0,"TOWNNAME":"北區","LI":"開元里","LIN":"9鄰","STREET":"北園街","SECT":" ","MAREA":" ","LANE":"１２４巷","ALLEY":"１５弄","HOUSE_NO":"２３號","E_COORD97":170306.67000000001,"N_COORD97":2546060.96,"ADDRESS":"北園街１２４巷１５弄２３號","OBJECTID":107725},"geometry":{"x":170306.66999999993,"y":2546060.9600000028}},{"attributes":{"ID":107726,"DIS_CODE":0,"TOWNNAME":"北區","LI":"開元里","LIN":"9鄰","STREET":"北園街","SECT":" ","MAREA":" ","LANE":"１２４巷","ALLEY":"１５弄","HOUSE_NO":"２４號","E_COORD97":170287.31,"N_COORD97":2546070.96,"ADDRESS":"北園街１２４巷１５弄２４號","OBJECTID":107726},"geometry":{"x":170287.31000000145,"y":2546070.9600000028}},{"attributes":{"ID":107727,"DIS_CODE":0,"TOWNNAME":"六甲區","LI":"中社里","LIN":"9鄰","STREET":" ","SECT":" ","MAREA":"中社","LANE":" ","ALLEY":" ","HOUSE_NO":"３７５號","E_COORD97":180942.37,"N_COORD97":2570822.7799999998,"ADDRESS":"中社３７５號","OBJECTID":107727},"geometry":{"x":180942.37000000104,"y":2570822.7800000031}},{"attributes":{"ID":107728,"DIS_CODE":0,"TOWNNAME":"北區","LI":"開元里","LIN":"9鄰","STREET":"北園街","SECT":" ","MAREA":" ","LANE":"１２４巷","ALLEY":"１５弄","HOUSE_NO":"２６號","E_COORD97":170283.67000000001,"N_COORD97":2546069.7999999998,"ADDRESS":"北園街１２４巷１５弄２６號","OBJECTID":107728},"geometry":{"x":170283.67000000179,"y":2546069.8000000007}},{"attributes":{"ID":107729,"DIS_CODE":0,"TOWNNAME":"北區","LI":"開元里","LIN":"9鄰","STREET":"北園街","SECT":" ","MAREA":" ","LANE":"１２４巷","ALLEY":"１５弄","HOUSE_NO":"２８號","E_COORD97":170280.19,"N_COORD97":2546070.73,"ADDRESS":"北園街１２４巷１５弄２８號","OBJECTID":107729},"geometry":{"x":170280.19000000041,"y":2546070.7299999986}},{"attributes":{"ID":107730,"DIS_CODE":0,"TOWNNAME":"六甲區","LI":"中社里","LIN":"9鄰","STREET":" ","SECT":" ","MAREA":"中社","LANE":" ","ALLEY":" ","HOUSE_NO":"３７７號","E_COORD97":180937.70999999999,"N_COORD97":2570822.8900000001,"ADDRESS":"中社３７７號","OBJECTID":107730},"geometry":{"x":180937.71000000183,"y":2570822.8900000006}},{"attributes":{"ID":107731,"DIS_CODE":0,"TOWNNAME":"六甲區","LI":"中社里","LIN":"9鄰","STREET":" ","SECT":" ","MAREA":"中社","LANE":" ","ALLEY":" ","HOUSE_NO":"３７９號","E_COORD97":180932.98000000001,"N_COORD97":2570823.0600000001,"ADDRESS":"中社３７９號","OBJECTID":107731},"geometry":{"x":180932.98000000231,"y":2570823.0600000024}},{"attributes":{"ID":107732,"DIS_CODE":0,"TOWNNAME":"北區","LI":"開元里","LIN":"9鄰","STREET":"北園街","SECT":" ","MAREA":" ","LANE":"１２４巷","ALLEY":"１５弄","HOUSE_NO":"２號","E_COORD97":170371.85999999999,"N_COORD97":2546072.29,"ADDRESS":"北園街１２４巷１５弄２號","OBJECTID":107732},"geometry":{"x":170371.86000000034,"y":2546072.2899999972}},{"attributes":{"ID":107733,"DIS_CODE":0,"TOWNNAME":"六甲區","LI":"中社里","LIN":"9鄰","STREET":" ","SECT":" ","MAREA":"中社","LANE":" ","ALLEY":" ","HOUSE_NO":"３８１號","E_COORD97":180938.67000000001,"N_COORD97":2570791.1800000002,"ADDRESS":"中社３８１號","OBJECTID":107733},"geometry":{"x":180938.67000000086,"y":2570791.1800000016}},{"attributes":{"ID":107734,"DIS_CODE":0,"TOWNNAME":"六甲區","LI":"中社里","LIN":"9鄰","STREET":" ","SECT":" ","MAREA":"中社","LANE":" ","ALLEY":" ","HOUSE_NO":"３８３號","E_COORD97":180909.54999999999,"N_COORD97":2570770.2200000002,"ADDRESS":"中社３８３號","OBJECTID":107734},"geometry":{"x":180909.54999999981,"y":2570770.2200000044}},{"attributes":{"ID":107735,"DIS_CODE":0,"TOWNNAME":"六甲區","LI":"中社里","LIN":"9鄰","STREET":" ","SECT":" ","MAREA":"中社","LANE":" ","ALLEY":" ","HOUSE_NO":"３８５號","E_COORD97":180908.56,"N_COORD97":2570764.7000000002,"ADDRESS":"中社３８５號","OBJECTID":107735},"geometry":{"x":180908.56000000052,"y":2570764.6999999993}},{"attributes":{"ID":107736,"DIS_CODE":0,"TOWNNAME":"六甲區","LI":"中社里","LIN":"9鄰","STREET":" ","SECT":" ","MAREA":"中社","LANE":" ","ALLEY":" ","HOUSE_NO":"３８７號","E_COORD97":180907.89000000001,"N_COORD97":2570759.5499999998,"ADDRESS":"中社３８７號","OBJECTID":107736},"geometry":{"x":180907.8900000006,"y":2570759.5500000007}},{"attributes":{"ID":107737,"DIS_CODE":0,"TOWNNAME":"六甲區","LI":"中社里","LIN":"9鄰","STREET":" ","SECT":" ","MAREA":"中社","LANE":" ","ALLEY":" ","HOUSE_NO":"３８９號","E_COORD97":180906.79999999999,"N_COORD97":2570754.1000000001,"ADDRESS":"中社３８９號","OBJECTID":107737},"geometry":{"x":180906.80000000075,"y":2570754.1000000015}},{"attributes":{"ID":107738,"DIS_CODE":0,"TOWNNAME":"六甲區","LI":"中社里","LIN":"9鄰","STREET":" ","SECT":" ","MAREA":"中社","LANE":" ","ALLEY":" ","HOUSE_NO":"３９１號","E_COORD97":180906.32999999999,"N_COORD97":2570749.25,"ADDRESS":"中社３９１號","OBJECTID":107738},"geometry":{"x":180906.32999999914,"y":2570749.2500000019}},{"attributes":{"ID":107739,"DIS_CODE":0,"TOWNNAME":"六甲區","LI":"中社里","LIN":"9鄰","STREET":" ","SECT":" ","MAREA":"中社","LANE":" ","ALLEY":" ","HOUSE_NO":"３９３號","E_COORD97":180905.39999999999,"N_COORD97":2570743.8700000001,"ADDRESS":"中社３９３號","OBJECTID":107739},"geometry":{"x":180905.4000000013,"y":2570743.8700000029}},{"attributes":{"ID":107740,"DIS_CODE":0,"TOWNNAME":"六甲區","LI":"中社里","LIN":"9鄰","STREET":" ","SECT":" ","MAREA":"中社","LANE":" ","ALLEY":" ","HOUSE_NO":"３９５號","E_COORD97":180904.60999999999,"N_COORD97":2570738.2799999998,"ADDRESS":"中社３９５號","OBJECTID":107740},"geometry":{"x":180904.61000000034,"y":2570738.2800000012}},{"attributes":{"ID":107741,"DIS_CODE":0,"TOWNNAME":"六甲區","LI":"中社里","LIN":"9鄰","STREET":" ","SECT":" ","MAREA":"中社","LANE":" ","ALLEY":" ","HOUSE_NO":"３９７號","E_COORD97":180903.85999999999,"N_COORD97":2570733.1699999999,"ADDRESS":"中社３９７號","OBJECTID":107741},"geometry":{"x":180903.86000000127,"y":2570733.1700000018}},{"attributes":{"ID":107742,"DIS_CODE":0,"TOWNNAME":"六甲區","LI":"中社里","LIN":"9鄰","STREET":" ","SECT":" ","MAREA":"中社","LANE":" ","ALLEY":" ","HOUSE_NO":"３９９號","E_COORD97":180886.45999999999,"N_COORD97":2570746,"ADDRESS":"中社３９９號","OBJECTID":107742},"geometry":{"x":180886.45999999996,"y":2570746}},{"attributes":{"ID":107743,"DIS_CODE":0,"TOWNNAME":"六甲區","LI":"中社里","LIN":"9鄰","STREET":" ","SECT":" ","MAREA":"中社","LANE":" ","ALLEY":" ","HOUSE_NO":"４０１號","E_COORD97":180887.51000000001,"N_COORD97":2570751.5499999998,"ADDRESS":"中社４０１號","OBJECTID":107743},"geometry":{"x":180887.50999999978,"y":2570751.5500000026}},{"attributes":{"ID":107744,"DIS_CODE":0,"TOWNNAME":"六甲區","LI":"中社里","LIN":"9鄰","STREET":" ","SECT":" ","MAREA":"中社","LANE":" ","ALLEY":" ","HOUSE_NO":"４０３號","E_COORD97":180888.29000000001,"N_COORD97":2570756.2999999998,"ADDRESS":"中社４０３號","OBJECTID":107744},"geometry":{"x":180888.29000000097,"y":2570756.3000000045}},{"attributes":{"ID":107745,"DIS_CODE":0,"TOWNNAME":"六甲區","LI":"中社里","LIN":"9鄰","STREET":" ","SECT":" ","MAREA":"中社","LANE":" ","ALLEY":" ","HOUSE_NO":"４０５號","E_COORD97":180889.16,"N_COORD97":2570761.8300000001,"ADDRESS":"中社４０５號","OBJECTID":107745},"geometry":{"x":180889.16000000108,"y":2570761.8299999982}},{"attributes":{"ID":107746,"DIS_CODE":0,"TOWNNAME":"北區","LI":"開元里","LIN":"9鄰","STREET":"北園街","SECT":" ","MAREA":" ","LANE":"１２４巷","ALLEY":"１５弄","HOUSE_NO":"３號","E_COORD97":170366.97,"N_COORD97":2546061.6600000001,"ADDRESS":"北園街１２４巷１５弄３號","OBJECTID":107746},"geometry":{"x":170366.96999999974,"y":2546061.660000002}},{"attributes":{"ID":107747,"DIS_CODE":0,"TOWNNAME":"北區","LI":"開元里","LIN":"9鄰","STREET":"北園街","SECT":" ","MAREA":" ","LANE":"１２４巷","ALLEY":"１５弄","HOUSE_NO":"４號","E_COORD97":170365.01999999999,"N_COORD97":2546079.02,"ADDRESS":"北園街１２４巷１５弄４號","OBJECTID":107747},"geometry":{"x":170365.01999999955,"y":2546079.0200000014}},{"attributes":{"ID":107748,"DIS_CODE":0,"TOWNNAME":"北區","LI":"開元里","LIN":"9鄰","STREET":"北園街","SECT":" ","MAREA":" ","LANE":"１２４巷","ALLEY":"１５弄","HOUSE_NO":"１２之６號","E_COORD97":170323.94,"N_COORD97":2546071.0800000001,"ADDRESS":"北園街１２４巷１５弄１２之６號","OBJECTID":107748},"geometry":{"x":170323.94000000041,"y":2546071.0800000001}},{"attributes":{"ID":107749,"DIS_CODE":0,"TOWNNAME":"北區","LI":"開元里","LIN":"9鄰","STREET":"北園街","SECT":" ","MAREA":" ","LANE":"１２４巷","ALLEY":"１５弄","HOUSE_NO":"１２號","E_COORD97":170352.14000000001,"N_COORD97":2546069.73,"ADDRESS":"北園街１２４巷１５弄１２號","OBJECTID":107749},"geometry":{"x":170352.1400000006,"y":2546069.7300000004}},{"attributes":{"ID":107750,"DIS_CODE":0,"TOWNNAME":"六甲區","LI":"中社里","LIN":"9鄰","STREET":" ","SECT":" ","MAREA":"中社","LANE":" ","ALLEY":" ","HOUSE_NO":"４０７號","E_COORD97":180889.91,"N_COORD97":2570767.6000000001,"ADDRESS":"中社４０７號","OBJECTID":107750},"geometry":{"x":180889.91000000015,"y":2570767.6000000015}},{"attributes":{"ID":107751,"DIS_CODE":0,"TOWNNAME":"六甲區","LI":"中社里","LIN":"9鄰","STREET":" ","SECT":" ","MAREA":"中社","LANE":" ","ALLEY":" ","HOUSE_NO":"４０９號","E_COORD97":180890.85999999999,"N_COORD97":2570772.1899999999,"ADDRESS":"中社４０９號","OBJECTID":107751},"geometry":{"x":180890.86000000034,"y":2570772.1899999995}},{"attributes":{"ID":107752,"DIS_CODE":0,"TOWNNAME":"六甲區","LI":"中社里","LIN":"9鄰","STREET":" ","SECT":" ","MAREA":"中社","LANE":" ","ALLEY":" ","HOUSE_NO":"４１１號","E_COORD97":180902.45999999999,"N_COORD97":2570796.7000000002,"ADDRESS":"中社４１１號","OBJECTID":107752},"geometry":{"x":180902.46000000089,"y":2570796.7000000011}},{"attributes":{"ID":107753,"DIS_CODE":0,"TOWNNAME":"北區","LI":"開元里","LIN":"9鄰","STREET":"北園街","SECT":" ","MAREA":" ","LANE":"１２４巷","ALLEY":"１５弄","HOUSE_NO":"１２號之２","E_COORD97":170344.16,"N_COORD97":2546071.8900000001,"ADDRESS":"北園街１２４巷１５弄１２號之２","OBJECTID":107753},"geometry":{"x":170344.16000000015,"y":2546071.8900000006}},{"attributes":{"ID":107754,"DIS_CODE":0,"TOWNNAME":"北區","LI":"開元里","LIN":"9鄰","STREET":"北園街","SECT":" ","MAREA":" ","LANE":"１２４巷","ALLEY":"１５弄","HOUSE_NO":"１３號","E_COORD97":170331.73000000001,"N_COORD97":2546061.8199999998,"ADDRESS":"北園街１２４巷１５弄１３號","OBJECTID":107754},"geometry":{"x":170331.73000000138,"y":2546061.8200000003}},{"attributes":{"ID":107755,"DIS_CODE":0,"TOWNNAME":"北區","LI":"開元里","LIN":"9鄰","STREET":"北園街","SECT":" ","MAREA":" ","LANE":"１２４巷","ALLEY":"１５弄","HOUSE_NO":"１４號","E_COORD97":170319.04000000001,"N_COORD97":2546070.7000000002,"ADDRESS":"北園街１２４巷１５弄１４號","OBJECTID":107755},"geometry":{"x":170319.04000000097,"y":2546070.7000000011}},{"attributes":{"ID":107756,"DIS_CODE":0,"TOWNNAME":"北區","LI":"開元里","LIN":"9鄰","STREET":"北園街","SECT":" ","MAREA":" ","LANE":"１２４巷","ALLEY":"１５弄","HOUSE_NO":"１５號","E_COORD97":170325.67000000001,"N_COORD97":2546060.7000000002,"ADDRESS":"北園街１２４巷１５弄１５號","OBJECTID":107756},"geometry":{"x":170325.66999999993,"y":2546060.7000000011}},{"attributes":{"ID":107757,"DIS_CODE":0,"TOWNNAME":"北區","LI":"開元里","LIN":"9鄰","STREET":"北園街","SECT":" ","MAREA":" ","LANE":"１２４巷","ALLEY":"１５弄","HOUSE_NO":"１６號","E_COORD97":170307.75,"N_COORD97":2546068.5600000001,"ADDRESS":"北園街１２４巷１５弄１６號","OBJECTID":107757},"geometry":{"x":170307.75,"y":2546068.5599999987}},{"attributes":{"ID":107758,"DIS_CODE":0,"TOWNNAME":"北區","LI":"開元里","LIN":"9鄰","STREET":"北園街","SECT":" ","MAREA":" ","LANE":"１２４巷","ALLEY":"１５弄","HOUSE_NO":"１７號","E_COORD97":170322.78,"N_COORD97":2546061.8599999999,"ADDRESS":"北園街１２４巷１５弄１７號","OBJECTID":107758},"geometry":{"x":170322.78000000119,"y":2546061.8599999994}},{"attributes":{"ID":107759,"DIS_CODE":0,"TOWNNAME":"北區","LI":"開元里","LIN":"9鄰","STREET":"北園街","SECT":" ","MAREA":" ","LANE":"１２４巷","ALLEY":"１５弄","HOUSE_NO":"１８號","E_COORD97":170297.67999999999,"N_COORD97":2546070.96,"ADDRESS":"北園街１２４巷１５弄１８號","OBJECTID":107759},"geometry":{"x":170297.68000000063,"y":2546070.9600000028}},{"attributes":{"ID":107760,"DIS_CODE":0,"TOWNNAME":"玉井區","LI":"望明里","LIN":"9鄰","STREET":" ","SECT":" ","MAREA":"劉陳","LANE":" ","ALLEY":" ","HOUSE_NO":"７８號","E_COORD97":193472.39999999999,"N_COORD97":2556144.25,"ADDRESS":"劉陳７８號","OBJECTID":107760},"geometry":{"x":193472.40000000037,"y":2556144.2500000019}},{"attributes":{"ID":107761,"DIS_CODE":0,"TOWNNAME":"北區","LI":"開元里","LIN":"9鄰","STREET":"北園街","SECT":" ","MAREA":" ","LANE":"１２４巷","ALLEY":"１５弄","HOUSE_NO":"１９號","E_COORD97":170319.79999999999,"N_COORD97":2546060.7999999998,"ADDRESS":"北園街１２４巷１５弄１９號","OBJECTID":107761},"geometry":{"x":170319.79999999888,"y":2546060.8000000045}},{"attributes":{"ID":107762,"DIS_CODE":0,"TOWNNAME":"北區","LI":"開元里","LIN":"9鄰","STREET":"北園街","SECT":" ","MAREA":" ","LANE":"１２４巷","ALLEY":"１５弄","HOUSE_NO":"５號","E_COORD97":170362.09,"N_COORD97":2546061.7400000002,"ADDRESS":"北園街１２４巷１５弄５號","OBJECTID":107762},"geometry":{"x":170362.09000000171,"y":2546061.7400000021}},{"attributes":{"ID":107763,"DIS_CODE":0,"TOWNNAME":"北區","LI":"開元里","LIN":"9鄰","STREET":"北園街","SECT":" ","MAREA":" ","LANE":"１２４巷","ALLEY":"１５弄","HOUSE_NO":"６號","E_COORD97":170359.28,"N_COORD97":2546072,"ADDRESS":"北園街１２４巷１５弄６號","OBJECTID":107763},"geometry":{"x":170359.28000000026,"y":2546072.0000000037}},{"attributes":{"ID":107764,"DIS_CODE":0,"TOWNNAME":"安南區","LI":"總頭里","LIN":"1鄰","STREET":"長溪路","SECT":"二段","MAREA":" ","LANE":"４８６巷","ALLEY":" ","HOUSE_NO":"１２號","E_COORD97":168311.31,"N_COORD97":2550403.9199999999,"ADDRESS":"長溪路二段４８６巷１２號","OBJECTID":107764},"geometry":{"x":168311.31000000052,"y":2550403.9199999999}},{"attributes":{"ID":107765,"DIS_CODE":0,"TOWNNAME":"安平區","LI":"石門里","LIN":"8鄰","STREET":"安北路","SECT":" ","MAREA":" ","LANE":" ","ALLEY":" ","HOUSE_NO":"３６號之４","E_COORD97":164654.26999999999,"N_COORD97":2544530.7599999998,"ADDRESS":"安北路３６號之４","OBJECTID":107765},"geometry":{"x":164654.26999999955,"y":2544530.7600000035}},{"attributes":{"ID":107766,"DIS_CODE":0,"TOWNNAME":"安平區","LI":"石門里","LIN":"8鄰","STREET":"安北路","SECT":" ","MAREA":" ","LANE":" ","ALLEY":" ","HOUSE_NO":"３６號之５","E_COORD97":164651.42999999999,"N_COORD97":2544534.1099999999,"ADDRESS":"安北路３６號之５","OBJECTID":107766},"geometry":{"x":164651.4299999997,"y":2544534.1099999994}},{"attributes":{"ID":107767,"DIS_CODE":0,"TOWNNAME":"安平區","LI":"石門里","LIN":"8鄰","STREET":"安北路","SECT":" ","MAREA":" ","LANE":" ","ALLEY":" ","HOUSE_NO":"３６號之６","E_COORD97":164648.34,"N_COORD97":2544536.9399999999,"ADDRESS":"安北路３６號之６","OBJECTID":107767},"geometry":{"x":164648.34000000078,"y":2544536.9400000013}},{"attributes":{"ID":107768,"DIS_CODE":0,"TOWNNAME":"安平區","LI":"石門里","LIN":"8鄰","STREET":"安北路","SECT":" ","MAREA":" ","LANE":" ","ALLEY":" ","HOUSE_NO":"３６號之７","E_COORD97":164646.53,"N_COORD97":2544541.8300000001,"ADDRESS":"安北路３６號之７","OBJECTID":107768},"geometry":{"x":164646.53000000026,"y":2544541.8300000019}},{"attributes":{"ID":107769,"DIS_CODE":0,"TOWNNAME":"安平區","LI":"石門里","LIN":"8鄰","STREET":"安北路","SECT":" ","MAREA":" ","LANE":" ","ALLEY":" ","HOUSE_NO":"３６號之８","E_COORD97":164641.37,"N_COORD97":2544543.1200000001,"ADDRESS":"安北路３６號之８","OBJECTID":107769},"geometry":{"x":164641.37000000104,"y":2544543.1199999992}},{"attributes":{"ID":107770,"DIS_CODE":0,"TOWNNAME":"安平區","LI":"石門里","LIN":"8鄰","STREET":"安北路","SECT":" ","MAREA":" ","LANE":" ","ALLEY":" ","HOUSE_NO":"４２號之１","E_COORD97":164590.5,"N_COORD97":2544603.23,"ADDRESS":"安北路４２號之１","OBJECTID":107770},"geometry":{"x":164590.5,"y":2544603.2300000023}},{"attributes":{"ID":107771,"DIS_CODE":0,"TOWNNAME":"安平區","LI":"石門里","LIN":"8鄰","STREET":"安北路","SECT":" ","MAREA":" ","LANE":" ","ALLEY":" ","HOUSE_NO":"５０號","E_COORD97":164566.76999999999,"N_COORD97":2544618.6899999999,"ADDRESS":"安北路５０號","OBJECTID":107771},"geometry":{"x":164566.77000000048,"y":2544618.6899999995}},{"attributes":{"ID":107772,"DIS_CODE":0,"TOWNNAME":"北區","LI":"開元里","LIN":"9鄰","STREET":"北園街","SECT":" ","MAREA":" ","LANE":"１２４巷","ALLEY":"１５弄","HOUSE_NO":"７號","E_COORD97":170356.75,"N_COORD97":2546061.1200000001,"ADDRESS":"北園街１２４巷１５弄７號","OBJECTID":107772},"geometry":{"x":170356.75000000093,"y":2546061.120000001}},{"attributes":{"ID":107773,"DIS_CODE":0,"TOWNNAME":"北區","LI":"開元里","LIN":"9鄰","STREET":"北園街","SECT":" ","MAREA":" ","LANE":"１２４巷","ALLEY":"１５弄","HOUSE_NO":"９號","E_COORD97":170351.70999999999,"N_COORD97":2546061.3500000001,"ADDRESS":"北園街１２４巷１５弄９號","OBJECTID":107773},"geometry":{"x":170351.71000000089,"y":2546061.3499999996}},{"attributes":{"ID":107774,"DIS_CODE":0,"TOWNNAME":"安南區","LI":"長安里","LIN":"1鄰","STREET":"長溪路","SECT":"三段","MAREA":" ","LANE":" ","ALLEY":" ","HOUSE_NO":"３７５號","E_COORD97":167677.20000000001,"N_COORD97":2552005.6899999999,"ADDRESS":"長溪路三段３７５號","OBJECTID":107774},"geometry":{"x":167677.20000000112,"y":2552005.6899999995}},{"attributes":{"ID":107775,"DIS_CODE":0,"TOWNNAME":"北區","LI":"開元里","LIN":"9鄰","STREET":"北園街","SECT":" ","MAREA":" ","LANE":"１２８巷","ALLEY":"２２弄","HOUSE_NO":"１０號","E_COORD97":170324.10999999999,"N_COORD97":2546107.79,"ADDRESS":"北園街１２８巷２２弄１０號","OBJECTID":107775},"geometry":{"x":170324.11000000127,"y":2546107.790000001}},{"attributes":{"ID":107776,"DIS_CODE":0,"TOWNNAME":"北區","LI":"開元里","LIN":"9鄰","STREET":"北園街","SECT":" ","MAREA":" ","LANE":"１２８巷","ALLEY":"２２弄","HOUSE_NO":"１１號","E_COORD97":170307.04999999999,"N_COORD97":2546109.3199999998,"ADDRESS":"北園街１２８巷２２弄１１號","OBJECTID":107776},"geometry":{"x":170307.05000000075,"y":2546109.3200000003}},{"attributes":{"ID":107777,"DIS_CODE":0,"TOWNNAME":"北區","LI":"開元里","LIN":"9鄰","STREET":"北園街","SECT":" ","MAREA":" ","LANE":"１２８巷","ALLEY":"２２弄","HOUSE_NO":"１２號","E_COORD97":170324.26999999999,"N_COORD97":2546111.6600000001,"ADDRESS":"北園街１２８巷２２弄１２號","OBJECTID":107777},"geometry":{"x":170324.26999999955,"y":2546111.6600000039}},{"attributes":{"ID":107778,"DIS_CODE":0,"TOWNNAME":"北區","LI":"開元里","LIN":"9鄰","STREET":"北園街","SECT":" ","MAREA":" ","LANE":"１２８巷","ALLEY":"２２弄","HOUSE_NO":"１３號","E_COORD97":170310.92000000001,"N_COORD97":2546109.3199999998,"ADDRESS":"北園街１２８巷２２弄１３號","OBJECTID":107778},"geometry":{"x":170310.92000000086,"y":2546109.3200000003}},{"attributes":{"ID":107779,"DIS_CODE":0,"TOWNNAME":"北區","LI":"開元里","LIN":"9鄰","STREET":"北園街","SECT":" ","MAREA":" ","LANE":"１２８巷","ALLEY":"２２弄","HOUSE_NO":"１４號","E_COORD97":170325.42999999999,"N_COORD97":2546116.3799999999,"ADDRESS":"北園街１２８巷２２弄１４號","OBJECTID":107779},"geometry":{"x":170325.4299999997,"y":2546116.3800000008}},{"attributes":{"ID":107780,"DIS_CODE":0,"TOWNNAME":"下營區","LI":"仁里里","LIN":"1鄰","STREET":"仁義街","SECT":" ","MAREA":" ","LANE":" ","ALLEY":" ","HOUSE_NO":"３號","E_COORD97":174584.35999999999,"N_COORD97":2569699.8999999999,"ADDRESS":"仁義街３號","OBJECTID":107780},"geometry":{"x":174584.36000000034,"y":2569699.9000000004}},{"attributes":{"ID":107781,"DIS_CODE":0,"TOWNNAME":"安南區","LI":"梅花里","LIN":"1鄰","STREET":"北安路","SECT":"二段","MAREA":" ","LANE":" ","ALLEY":" ","HOUSE_NO":"３６３號","E_COORD97":168323.64168900001,"N_COORD97":2548459.4882999999,"ADDRESS":"北安路二段３６３號","OBJECTID":107781},"geometry":{"x":168323.64168900065,"y":2548459.4883000031}},{"attributes":{"ID":107782,"DIS_CODE":0,"TOWNNAME":"安南區","LI":"海西里","LIN":"1鄰","STREET":"海中街","SECT":" ","MAREA":" ","LANE":" ","ALLEY":" ","HOUSE_NO":"１９９號","E_COORD97":166296.85999999999,"N_COORD97":2549176.5,"ADDRESS":"海中街１９９號","OBJECTID":107782},"geometry":{"x":166296.86000000034,"y":2549176.5}},{"attributes":{"ID":107783,"DIS_CODE":0,"TOWNNAME":"安南區","LI":"淵中里","LIN":"6鄰","STREET":"本田路","SECT":"三段","MAREA":" ","LANE":" ","ALLEY":" ","HOUSE_NO":"３８７號","E_COORD97":164565.20999999999,"N_COORD97":2549604.1600000001,"ADDRESS":"本田路三段３８７號","OBJECTID":107783},"geometry":{"x":164565.20999999996,"y":2549604.160000002}},{"attributes":{"ID":107784,"DIS_CODE":0,"TOWNNAME":"安南區","LI":"淵中里","LIN":"6鄰","STREET":"本田路","SECT":"三段","MAREA":" ","LANE":" ","ALLEY":" ","HOUSE_NO":"７０１號","E_COORD97":165014.23999999999,"N_COORD97":2549928.6600000001,"ADDRESS":"本田路三段７０１號","OBJECTID":107784},"geometry":{"x":165014.24000000022,"y":2549928.6600000001}},{"attributes":{"ID":107785,"DIS_CODE":0,"TOWNNAME":"南區","LI":"白雪里","LIN":" ","STREET":"鹽埕路","SECT":" ","MAREA":" ","LANE":" ","ALLEY":" ","HOUSE_NO":"７４號","E_COORD97":166819.01999999999,"N_COORD97":2540891.7200000002,"ADDRESS":"鹽埕路７４號","OBJECTID":107785},"geometry":{"x":166819.01999999955,"y":2540891.7200000025}},{"attributes":{"ID":107786,"DIS_CODE":0,"TOWNNAME":"南區","LI":"白雪里","LIN":" ","STREET":"鹽埕路","SECT":" ","MAREA":" ","LANE":" ","ALLEY":" ","HOUSE_NO":"２號","E_COORD97":166912.20000000001,"N_COORD97":2540704.6899999999,"ADDRESS":"鹽埕路２號","OBJECTID":107786},"geometry":{"x":166912.20000000112,"y":2540704.6900000013}},{"attributes":{"ID":107787,"DIS_CODE":0,"TOWNNAME":"南區","LI":"白雪里","LIN":" ","STREET":"鹽埕路","SECT":" ","MAREA":" ","LANE":" ","ALLEY":" ","HOUSE_NO":"６號","E_COORD97":166913.14999999999,"N_COORD97":2540708.5099999998,"ADDRESS":"鹽埕路６號","OBJECTID":107787},"geometry":{"x":166913.1500000013,"y":2540708.5100000016}},{"attributes":{"ID":107788,"DIS_CODE":0,"TOWNNAME":"北區","LI":"開元里","LIN":"9鄰","STREET":"北園街","SECT":" ","MAREA":" ","LANE":"１２８巷","ALLEY":"２２弄","HOUSE_NO":"１５號","E_COORD97":170314.64000000001,"N_COORD97":2546109.3900000001,"ADDRESS":"北園街１２８巷２２弄１５號","OBJECTID":107788},"geometry":{"x":170314.6400000006,"y":2546109.3900000006}},{"attributes":{"ID":107789,"DIS_CODE":0,"TOWNNAME":"北區","LI":"開元里","LIN":"9鄰","STREET":"北園街","SECT":" ","MAREA":" ","LANE":"１２８巷","ALLEY":"２２弄","HOUSE_NO":"１６號","E_COORD97":170326.20000000001,"N_COORD97":2546121.3999999999,"ADDRESS":"北園街１２８巷２２弄１６號","OBJECTID":107789},"geometry":{"x":170326.20000000112,"y":2546121.4000000022}},{"attributes":{"ID":107790,"DIS_CODE":0,"TOWNNAME":"北區","LI":"開元里","LIN":"9鄰","STREET":"北園街","SECT":" ","MAREA":" ","LANE":"１２８巷","ALLEY":"２２弄","HOUSE_NO":"１號","E_COORD97":170283.75,"N_COORD97":2546107,"ADDRESS":"北園街１２８巷２２弄１號","OBJECTID":107790},"geometry":{"x":170283.75000000093,"y":2546107.0000000019}},{"attributes":{"ID":107791,"DIS_CODE":0,"TOWNNAME":"北區","LI":"開元里","LIN":"9鄰","STREET":"北園街","SECT":" ","MAREA":" ","LANE":"１２８巷","ALLEY":"２２弄","HOUSE_NO":"２號","E_COORD97":170301.87,"N_COORD97":2546098.6899999999,"ADDRESS":"北園街１２８巷２２弄２號","OBJECTID":107791},"geometry":{"x":170301.87000000104,"y":2546098.6900000013}},{"attributes":{"ID":107792,"DIS_CODE":0,"TOWNNAME":"北區","LI":"開元里","LIN":"9鄰","STREET":"北園街","SECT":" ","MAREA":" ","LANE":"１２８巷","ALLEY":"２２弄","HOUSE_NO":"３號","E_COORD97":170290.10000000001,"N_COORD97":2546107.2999999998,"ADDRESS":"北園街１２８巷２２弄３號","OBJECTID":107792},"geometry":{"x":170290.09999999963,"y":2546107.3000000007}},{"attributes":{"ID":107793,"DIS_CODE":0,"TOWNNAME":"北區","LI":"開元里","LIN":"9鄰","STREET":"北園街","SECT":" ","MAREA":" ","LANE":"１２８巷","ALLEY":"２２弄","HOUSE_NO":"４號","E_COORD97":170311.09,"N_COORD97":2546098.9199999999,"ADDRESS":"北園街１２８巷２２弄４號","OBJECTID":107793},"geometry":{"x":170311.08999999892,"y":2546098.9199999999}},{"attributes":{"ID":107794,"DIS_CODE":0,"TOWNNAME":"北區","LI":"開元里","LIN":"9鄰","STREET":"北園街","SECT":" ","MAREA":" ","LANE":"１２８巷","ALLEY":"２２弄","HOUSE_NO":"５號","E_COORD97":170294.28,"N_COORD97":2546107.77,"ADDRESS":"北園街１２８巷２２弄５號","OBJECTID":107794},"geometry":{"x":170294.28000000026,"y":2546107.7700000014}},{"attributes":{"ID":107795,"DIS_CODE":0,"TOWNNAME":"北區","LI":"開元里","LIN":"9鄰","STREET":"北園街","SECT":" ","MAREA":" ","LANE":"１２８巷","ALLEY":"２２弄","HOUSE_NO":"６號","E_COORD97":170324.5,"N_COORD97":2546100.5800000001,"ADDRESS":"北園街１２８巷２２弄６號","OBJECTID":107795},"geometry":{"x":170324.50000000093,"y":2546100.5800000001}},{"attributes":{"ID":107796,"DIS_CODE":0,"TOWNNAME":"北區","LI":"開元里","LIN":"9鄰","STREET":"北園街","SECT":" ","MAREA":" ","LANE":"１２８巷","ALLEY":"２２弄","HOUSE_NO":"７號","E_COORD97":170298.54000000001,"N_COORD97":2546108.3900000001,"ADDRESS":"北園街１２８巷２２弄７號","OBJECTID":107796},"geometry":{"x":170298.54000000097,"y":2546108.3900000025}},{"attributes":{"ID":107797,"DIS_CODE":0,"TOWNNAME":"南區","LI":"白雪里","LIN":" ","STREET":"鹽埕路","SECT":" ","MAREA":" ","LANE":" ","ALLEY":" ","HOUSE_NO":"８號","E_COORD97":166910.53,"N_COORD97":2540712.1800000002,"ADDRESS":"鹽埕路８號","OBJECTID":107797},"geometry":{"x":166910.53000000119,"y":2540712.1799999997}},{"attributes":{"ID":107798,"DIS_CODE":0,"TOWNNAME":"南區","LI":"白雪里","LIN":" ","STREET":"鹽埕路","SECT":" ","MAREA":" ","LANE":" ","ALLEY":" ","HOUSE_NO":"１０號","E_COORD97":166912.47,"N_COORD97":2540717.46,"ADDRESS":"鹽埕路１０號","OBJECTID":107798},"geometry":{"x":166912.46999999974,"y":2540717.4600000028}},{"attributes":{"ID":107799,"DIS_CODE":0,"TOWNNAME":"南區","LI":"白雪里","LIN":" ","STREET":"鹽埕路","SECT":" ","MAREA":" ","LANE":" ","ALLEY":" ","HOUSE_NO":"１２號","E_COORD97":166910.53,"N_COORD97":2540721.0699999998,"ADDRESS":"鹽埕路１２號","OBJECTID":107799},"geometry":{"x":166910.53000000119,"y":2540721.0700000003}},{"attributes":{"ID":107800,"DIS_CODE":0,"TOWNNAME":"南區","LI":"白雪里","LIN":" ","STREET":"鹽埕路","SECT":" ","MAREA":" ","LANE":" ","ALLEY":" ","HOUSE_NO":"１８號","E_COORD97":166905.53,"N_COORD97":2540733.0099999998,"ADDRESS":"鹽埕路１８號","OBJECTID":107800},"geometry":{"x":166905.53000000119,"y":2540733.0100000016}}]}