{"displayFieldName":"TOWNNAME","fieldAliases":{"ID":"ID","DIS_CODE":"DIS_CODE","TOWNNAME":"TOWNNAME","LI":"LI","LIN":"LIN","STREET":"STREET","SECT":"SECT","MAREA":"MAREA","LANE":"LANE","ALLEY":"ALLEY","HOUSE_NO":"HOUSE_NO","E_COORD97":"E_COORD97","N_COORD97":"N_COORD97","ADDRESS":"ADDRESS","OBJECTID":"OBJECTID"},"geometryType":"esriGeometryPoint","spatialReference":{"wkid":102443,"latestWkid":3826},"fields":[{"name":"ID","type":"esriFieldTypeDouble","alias":"ID"},{"name":"DIS_CODE","type":"esriFieldTypeInteger","alias":"DIS_CODE"},{"name":"TOWNNAME","type":"esriFieldTypeString","alias":"TOWNNAME","length":8},{"name":"LI","type":"esriFieldTypeString","alias":"LI","length":8},{"name":"LIN","type":"esriFieldTypeString","alias":"LIN","length":12},{"name":"STREET","type":"esriFieldTypeString","alias":"STREET","length":20},{"name":"SECT","type":"esriFieldTypeString","alias":"SECT","length":8},{"name":"MAREA","type":"esriFieldTypeString","alias":"MAREA","length":12},{"name":"LANE","type":"esriFieldTypeString","alias":"LANE","length":10},{"name":"ALLEY","type":"esriFieldTypeString","alias":"ALLEY","length":10},{"name":"HOUSE_NO","type":"esriFieldTypeString","alias":"HOUSE_NO","length":20},{"name":"E_COORD97","type":"esriFieldTypeDouble","alias":"E_COORD97"},{"name":"N_COORD97","type":"esriFieldTypeDouble","alias":"N_COORD97"},{"name":"ADDRESS","type":"esriFieldTypeString","alias":"ADDRESS","length":50},{"name":"OBJECTID","type":"esriFieldTypeOID","alias":"OBJECTID"}],"features":[{"attributes":{"ID":654828,"DIS_CODE":0,"TOWNNAME":"東山區","LI":"林安里","LIN":"7鄰","STREET":" ","SECT":" ","MAREA":"林安","LANE":" ","ALLEY":" ","HOUSE_NO":"５５號之１０","E_COORD97":191863.40786000001,"N_COORD97":2575866.9471999998,"ADDRESS":"林安５５號之１０","OBJECTID":654801},"geometry":{"x":191863.40786000062,"y":2575866.9472000003}},{"attributes":{"ID":654829,"DIS_CODE":0,"TOWNNAME":"東山區","LI":"林安里","LIN":"7鄰","STREET":" ","SECT":" ","MAREA":"林安","LANE":" ","ALLEY":" ","HOUSE_NO":"５９號","E_COORD97":191472.079753,"N_COORD97":2575146.8576000002,"ADDRESS":"林安５９號","OBJECTID":654802},"geometry":{"x":191472.07975300122,"y":2575146.8575979993}},{"attributes":{"ID":654830,"DIS_CODE":0,"TOWNNAME":"東山區","LI":"林安里","LIN":"8鄰","STREET":" ","SECT":" ","MAREA":"林安","LANE":" ","ALLEY":" ","HOUSE_NO":"５９號","E_COORD97":191472.079753,"N_COORD97":2575146.8576000002,"ADDRESS":"林安５９號","OBJECTID":654803},"geometry":{"x":191472.07975300122,"y":2575146.8575979993}},{"attributes":{"ID":654831,"DIS_CODE":0,"TOWNNAME":"東山區","LI":"林安里","LIN":"8鄰","STREET":" ","SECT":" ","MAREA":"林安","LANE":" ","ALLEY":" ","HOUSE_NO":"６１號之１","E_COORD97":191453.86366,"N_COORD97":2575132.0409300001,"ADDRESS":"林安６１號之１","OBJECTID":654804},"geometry":{"x":191453.86366000213,"y":2575132.0409300029}},{"attributes":{"ID":654832,"DIS_CODE":0,"TOWNNAME":"東山區","LI":"林安里","LIN":"8鄰","STREET":" ","SECT":" ","MAREA":"林安","LANE":" ","ALLEY":" ","HOUSE_NO":"６９號","E_COORD97":191026.10338099999,"N_COORD97":2576069.0887699998,"ADDRESS":"林安６９號","OBJECTID":654805},"geometry":{"x":191026.10338099953,"y":2576069.0887660012}},{"attributes":{"ID":654833,"DIS_CODE":0,"TOWNNAME":"楠西區","LI":"密枝里","LIN":"14鄰","STREET":" ","SECT":" ","MAREA":"密枝","LANE":" ","ALLEY":" ","HOUSE_NO":"６０號之６","E_COORD97":201724.496327,"N_COORD97":2568213.1236399999,"ADDRESS":"密枝６０號之６","OBJECTID":654806},"geometry":{"x":201724.49632700067,"y":2568213.1236400027}},{"attributes":{"ID":654834,"DIS_CODE":0,"TOWNNAME":"楠西區","LI":"密枝里","LIN":"14鄰","STREET":" ","SECT":" ","MAREA":"密枝","LANE":" ","ALLEY":" ","HOUSE_NO":"６１號","E_COORD97":201648.85793100001,"N_COORD97":2568215.4519699998,"ADDRESS":"密枝６１號","OBJECTID":654807},"geometry":{"x":201648.85793100018,"y":2568215.4519720003}},{"attributes":{"ID":654835,"DIS_CODE":0,"TOWNNAME":"楠西區","LI":"密枝里","LIN":"14鄰","STREET":" ","SECT":" ","MAREA":"密枝","LANE":" ","ALLEY":" ","HOUSE_NO":"６２號","E_COORD97":201731.48811100001,"N_COORD97":2568234.50196,"ADDRESS":"密枝６２號","OBJECTID":654808},"geometry":{"x":201731.48811099958,"y":2568234.5019620005}},{"attributes":{"ID":654836,"DIS_CODE":0,"TOWNNAME":"楠西區","LI":"密枝里","LIN":"14鄰","STREET":" ","SECT":" ","MAREA":"密枝","LANE":" ","ALLEY":" ","HOUSE_NO":"６２號之２","E_COORD97":201733.81870599999,"N_COORD97":2568227.09363,"ADDRESS":"密枝６２號之２","OBJECTID":654809},"geometry":{"x":201733.81870600116,"y":2568227.0936329998}},{"attributes":{"ID":654837,"DIS_CODE":0,"TOWNNAME":"楠西區","LI":"密枝里","LIN":"14鄰","STREET":" ","SECT":" ","MAREA":"密枝","LANE":" ","ALLEY":" ","HOUSE_NO":"６２號之４","E_COORD97":201727.25066600001,"N_COORD97":2568202.9636499998,"ADDRESS":"密枝６２號之４","OBJECTID":654810},"geometry":{"x":201727.25066599995,"y":2568202.963646004}},{"attributes":{"ID":654838,"DIS_CODE":0,"TOWNNAME":"楠西區","LI":"密枝里","LIN":"14鄰","STREET":" ","SECT":" ","MAREA":"密枝","LANE":" ","ALLEY":" ","HOUSE_NO":"６２號之３","E_COORD97":201742.71734100001,"N_COORD97":2568219.2619699999,"ADDRESS":"密枝６２號之３","OBJECTID":654811},"geometry":{"x":201742.71734100208,"y":2568219.2619700003}},{"attributes":{"ID":654839,"DIS_CODE":0,"TOWNNAME":"楠西區","LI":"密枝里","LIN":"14鄰","STREET":" ","SECT":" ","MAREA":"密枝","LANE":" ","ALLEY":" ","HOUSE_NO":"６２號之１","E_COORD97":201704.36846200001,"N_COORD97":2568224.1302999998,"ADDRESS":"密枝６２號之１","OBJECTID":654812},"geometry":{"x":201704.36846200097,"y":2568224.1303010024}},{"attributes":{"ID":654840,"DIS_CODE":0,"TOWNNAME":"楠西區","LI":"密枝里","LIN":"14鄰","STREET":" ","SECT":" ","MAREA":"密枝","LANE":" ","ALLEY":" ","HOUSE_NO":"６２號之８","E_COORD97":201728.310027,"N_COORD97":2568180.7386599998,"ADDRESS":"密枝６２號之８","OBJECTID":654813},"geometry":{"x":201728.31002699956,"y":2568180.7386580035}},{"attributes":{"ID":654841,"DIS_CODE":0,"TOWNNAME":"楠西區","LI":"密枝里","LIN":"14鄰","STREET":" ","SECT":" ","MAREA":"密枝","LANE":" ","ALLEY":" ","HOUSE_NO":"６２號之１０","E_COORD97":201724.920071,"N_COORD97":2568166.3453299999,"ADDRESS":"密枝６２號之１０","OBJECTID":654814},"geometry":{"x":201724.92007100023,"y":2568166.3453320023}},{"attributes":{"ID":654842,"DIS_CODE":0,"TOWNNAME":"東山區","LI":"林安里","LIN":"8鄰","STREET":" ","SECT":" ","MAREA":"林安","LANE":" ","ALLEY":" ","HOUSE_NO":"７０號之１０","E_COORD97":191182.74053000001,"N_COORD97":2576436.33023,"ADDRESS":"林安７０號之１０","OBJECTID":654815},"geometry":{"x":191182.74053000193,"y":2576436.3302300014}},{"attributes":{"ID":654843,"DIS_CODE":0,"TOWNNAME":"仁德區","LI":"仁德里","LIN":"12鄰","STREET":"中山路","SECT":" ","MAREA":" ","LANE":"６０６巷","ALLEY":"１弄","HOUSE_NO":"１２號","E_COORD97":173210.88878499999,"N_COORD97":2541433.9992800001,"ADDRESS":"中山路６０６巷１弄１２號","OBJECTID":654816},"geometry":{"x":173210.88878499996,"y":2541433.9992830008}},{"attributes":{"ID":654844,"DIS_CODE":0,"TOWNNAME":"仁德區","LI":"仁德里","LIN":"12鄰","STREET":"四維街","SECT":" ","MAREA":" ","LANE":" ","ALLEY":" ","HOUSE_NO":"３６號一樓之２","E_COORD97":173258.70999999999,"N_COORD97":2541553.6099999999,"ADDRESS":"四維街３６號一樓之２","OBJECTID":654817},"geometry":{"x":173258.71000000089,"y":2541553.6099999994}},{"attributes":{"ID":654845,"DIS_CODE":0,"TOWNNAME":"仁德區","LI":"仁德里","LIN":"12鄰","STREET":"四維街","SECT":" ","MAREA":" ","LANE":" ","ALLEY":" ","HOUSE_NO":"３６號一樓之３","E_COORD97":173258.70999999999,"N_COORD97":2541553.6099999999,"ADDRESS":"四維街３６號一樓之３","OBJECTID":654818},"geometry":{"x":173258.71000000089,"y":2541553.6099999994}},{"attributes":{"ID":654846,"DIS_CODE":0,"TOWNNAME":"仁德區","LI":"仁德里","LIN":"12鄰","STREET":"四維街","SECT":" ","MAREA":" ","LANE":" ","ALLEY":" ","HOUSE_NO":"３６號一樓之４","E_COORD97":173258.70999999999,"N_COORD97":2541553.6099999999,"ADDRESS":"四維街３６號一樓之４","OBJECTID":654819},"geometry":{"x":173258.71000000089,"y":2541553.6099999994}},{"attributes":{"ID":654847,"DIS_CODE":0,"TOWNNAME":"仁德區","LI":"仁德里","LIN":"12鄰","STREET":"四維街","SECT":" ","MAREA":" ","LANE":" ","ALLEY":" ","HOUSE_NO":"３６號一樓之５","E_COORD97":173258.70999999999,"N_COORD97":2541553.6099999999,"ADDRESS":"四維街３６號一樓之５","OBJECTID":654820},"geometry":{"x":173258.71000000089,"y":2541553.6099999994}},{"attributes":{"ID":654848,"DIS_CODE":0,"TOWNNAME":"仁德區","LI":"仁德里","LIN":"12鄰","STREET":"四維街","SECT":" ","MAREA":" ","LANE":" ","ALLEY":" ","HOUSE_NO":"３６號一樓之６","E_COORD97":173258.70999999999,"N_COORD97":2541553.6099999999,"ADDRESS":"四維街３６號一樓之６","OBJECTID":654821},"geometry":{"x":173258.71000000089,"y":2541553.6099999994}},{"attributes":{"ID":654849,"DIS_CODE":0,"TOWNNAME":"仁德區","LI":"仁德里","LIN":"12鄰","STREET":"四維街","SECT":" ","MAREA":" ","LANE":" ","ALLEY":" ","HOUSE_NO":"３６號二樓之１","E_COORD97":173258.70999999999,"N_COORD97":2541553.6099999999,"ADDRESS":"四維街３６號二樓之１","OBJECTID":654822},"geometry":{"x":173258.71000000089,"y":2541553.6099999994}},{"attributes":{"ID":654850,"DIS_CODE":0,"TOWNNAME":"仁德區","LI":"仁德里","LIN":"12鄰","STREET":"四維街","SECT":" ","MAREA":" ","LANE":" ","ALLEY":" ","HOUSE_NO":"３６號二樓之２","E_COORD97":173258.70999999999,"N_COORD97":2541553.6099999999,"ADDRESS":"四維街３６號二樓之２","OBJECTID":654823},"geometry":{"x":173258.71000000089,"y":2541553.6099999994}},{"attributes":{"ID":654851,"DIS_CODE":0,"TOWNNAME":"仁德區","LI":"仁德里","LIN":"12鄰","STREET":"四維街","SECT":" ","MAREA":" ","LANE":" ","ALLEY":" ","HOUSE_NO":"３６號二樓之３","E_COORD97":173258.70999999999,"N_COORD97":2541553.6099999999,"ADDRESS":"四維街３６號二樓之３","OBJECTID":654824},"geometry":{"x":173258.71000000089,"y":2541553.6099999994}},{"attributes":{"ID":654852,"DIS_CODE":0,"TOWNNAME":"仁德區","LI":"仁德里","LIN":"12鄰","STREET":"四維街","SECT":" ","MAREA":" ","LANE":" ","ALLEY":" ","HOUSE_NO":"３６號二樓之４","E_COORD97":173258.70999999999,"N_COORD97":2541553.6099999999,"ADDRESS":"四維街３６號二樓之４","OBJECTID":654825},"geometry":{"x":173258.71000000089,"y":2541553.6099999994}},{"attributes":{"ID":654853,"DIS_CODE":0,"TOWNNAME":"仁德區","LI":"仁德里","LIN":"12鄰","STREET":"四維街","SECT":" ","MAREA":" ","LANE":" ","ALLEY":" ","HOUSE_NO":"３６號二樓之５","E_COORD97":173258.70999999999,"N_COORD97":2541553.6099999999,"ADDRESS":"四維街３６號二樓之５","OBJECTID":654826},"geometry":{"x":173258.71000000089,"y":2541553.6099999994}},{"attributes":{"ID":654854,"DIS_CODE":0,"TOWNNAME":"仁德區","LI":"仁德里","LIN":"12鄰","STREET":"四維街","SECT":" ","MAREA":" ","LANE":" ","ALLEY":" ","HOUSE_NO":"３６號二樓之６","E_COORD97":173258.70999999999,"N_COORD97":2541553.6099999999,"ADDRESS":"四維街３６號二樓之６","OBJECTID":654827},"geometry":{"x":173258.71000000089,"y":2541553.6099999994}},{"attributes":{"ID":654855,"DIS_CODE":0,"TOWNNAME":"仁德區","LI":"仁德里","LIN":"12鄰","STREET":"四維街","SECT":" ","MAREA":" ","LANE":" ","ALLEY":" ","HOUSE_NO":"３６號二樓之７","E_COORD97":173258.70999999999,"N_COORD97":2541553.6099999999,"ADDRESS":"四維街３６號二樓之７","OBJECTID":654828},"geometry":{"x":173258.71000000089,"y":2541553.6099999994}},{"attributes":{"ID":654856,"DIS_CODE":0,"TOWNNAME":"仁德區","LI":"仁德里","LIN":"12鄰","STREET":"四維街","SECT":" ","MAREA":" ","LANE":" ","ALLEY":" ","HOUSE_NO":"３６號二樓之８","E_COORD97":173258.70999999999,"N_COORD97":2541553.6099999999,"ADDRESS":"四維街３６號二樓之８","OBJECTID":654829},"geometry":{"x":173258.71000000089,"y":2541553.6099999994}},{"attributes":{"ID":654857,"DIS_CODE":0,"TOWNNAME":"仁德區","LI":"仁德里","LIN":"12鄰","STREET":"四維街","SECT":" ","MAREA":" ","LANE":" ","ALLEY":" ","HOUSE_NO":"３６號二樓之９","E_COORD97":173258.70999999999,"N_COORD97":2541553.6099999999,"ADDRESS":"四維街３６號二樓之９","OBJECTID":654830},"geometry":{"x":173258.71000000089,"y":2541553.6099999994}},{"attributes":{"ID":654858,"DIS_CODE":0,"TOWNNAME":"仁德區","LI":"仁德里","LIN":"12鄰","STREET":"四維街","SECT":" ","MAREA":" ","LANE":" ","ALLEY":" ","HOUSE_NO":"３６號三樓之１","E_COORD97":173258.70999999999,"N_COORD97":2541553.6099999999,"ADDRESS":"四維街３６號三樓之１","OBJECTID":654831},"geometry":{"x":173258.71000000089,"y":2541553.6099999994}},{"attributes":{"ID":654859,"DIS_CODE":0,"TOWNNAME":"仁德區","LI":"仁德里","LIN":"12鄰","STREET":"四維街","SECT":" ","MAREA":" ","LANE":" ","ALLEY":" ","HOUSE_NO":"３６號三樓之２","E_COORD97":173258.70999999999,"N_COORD97":2541553.6099999999,"ADDRESS":"四維街３６號三樓之２","OBJECTID":654832},"geometry":{"x":173258.71000000089,"y":2541553.6099999994}},{"attributes":{"ID":654860,"DIS_CODE":0,"TOWNNAME":"仁德區","LI":"仁德里","LIN":"12鄰","STREET":"四維街","SECT":" ","MAREA":" ","LANE":" ","ALLEY":" ","HOUSE_NO":"３６號三樓之３","E_COORD97":173258.70999999999,"N_COORD97":2541553.6099999999,"ADDRESS":"四維街３６號三樓之３","OBJECTID":654833},"geometry":{"x":173258.71000000089,"y":2541553.6099999994}},{"attributes":{"ID":654861,"DIS_CODE":0,"TOWNNAME":"仁德區","LI":"仁德里","LIN":"12鄰","STREET":"四維街","SECT":" ","MAREA":" ","LANE":" ","ALLEY":" ","HOUSE_NO":"３６號三樓之４","E_COORD97":173258.70999999999,"N_COORD97":2541553.6099999999,"ADDRESS":"四維街３６號三樓之４","OBJECTID":654834},"geometry":{"x":173258.71000000089,"y":2541553.6099999994}},{"attributes":{"ID":654862,"DIS_CODE":0,"TOWNNAME":"安南區","LI":"海西里","LIN":"12鄰","STREET":"海環街","SECT":" ","MAREA":" ","LANE":" ","ALLEY":" ","HOUSE_NO":"２５２號","E_COORD97":166178.77198200001,"N_COORD97":2548685.8440399999,"ADDRESS":"海環街２５２號","OBJECTID":654835},"geometry":{"x":166178.77198200021,"y":2548685.8440399989}},{"attributes":{"ID":654863,"DIS_CODE":0,"TOWNNAME":"山上區","LI":"南洲里","LIN":"4鄰","STREET":" ","SECT":" ","MAREA":"南洲","LANE":" ","ALLEY":" ","HOUSE_NO":"８之２１號","E_COORD97":184022.07090699999,"N_COORD97":2555324.3909900002,"ADDRESS":"南洲８之２１號","OBJECTID":654836},"geometry":{"x":184022.07090700138,"y":2555324.3909930009}},{"attributes":{"ID":654864,"DIS_CODE":0,"TOWNNAME":"山上區","LI":"南洲里","LIN":"4鄰","STREET":" ","SECT":" ","MAREA":"南洲","LANE":" ","ALLEY":" ","HOUSE_NO":"１６之３號","E_COORD97":183929.270858,"N_COORD97":2555446.4167599999,"ADDRESS":"南洲１６之３號","OBJECTID":654837},"geometry":{"x":183929.27085800003,"y":2555446.4167599995}},{"attributes":{"ID":654865,"DIS_CODE":0,"TOWNNAME":"山上區","LI":"南洲里","LIN":"14鄰","STREET":" ","SECT":" ","MAREA":"南洲","LANE":" ","ALLEY":" ","HOUSE_NO":"２４０之２號","E_COORD97":183724.53381699999,"N_COORD97":2555726.3083199998,"ADDRESS":"南洲２４０之２號","OBJECTID":654838},"geometry":{"x":183724.53381699976,"y":2555726.3083150014}},{"attributes":{"ID":654866,"DIS_CODE":0,"TOWNNAME":"山上區","LI":"南洲里","LIN":"14鄰","STREET":" ","SECT":" ","MAREA":"南洲","LANE":" ","ALLEY":" ","HOUSE_NO":"２４０之１號","E_COORD97":183732.16121799999,"N_COORD97":2555720.9108199999,"ADDRESS":"南洲２４０之１號","OBJECTID":654839},"geometry":{"x":183732.16121800151,"y":2555720.9108179994}},{"attributes":{"ID":654867,"DIS_CODE":0,"TOWNNAME":"山上區","LI":"南洲里","LIN":"4鄰","STREET":" ","SECT":" ","MAREA":"南洲","LANE":" ","ALLEY":" ","HOUSE_NO":"６之２號","E_COORD97":183991.32661600001,"N_COORD97":2555515.3370099999,"ADDRESS":"南洲６之２號","OBJECTID":654840},"geometry":{"x":183991.32661600132,"y":2555515.3370140009}},{"attributes":{"ID":654868,"DIS_CODE":0,"TOWNNAME":"安南區","LI":"溪墘里","LIN":"22鄰","STREET":"安寧街","SECT":" ","MAREA":" ","LANE":"６５巷","ALLEY":" ","HOUSE_NO":"４２號","E_COORD97":167275.319938,"N_COORD97":2547023.06806,"ADDRESS":"安寧街６５巷４２號","OBJECTID":654841},"geometry":{"x":167275.31993800029,"y":2547023.0680630002}},{"attributes":{"ID":654869,"DIS_CODE":0,"TOWNNAME":"安南區","LI":"溪墘里","LIN":"22鄰","STREET":"安寧街","SECT":" ","MAREA":" ","LANE":"６５巷","ALLEY":" ","HOUSE_NO":"４２之１號","E_COORD97":167270.023071,"N_COORD97":2547022.6447299998,"ADDRESS":"安寧街６５巷４２之１號","OBJECTID":654842},"geometry":{"x":167270.02307100035,"y":2547022.6447290014}},{"attributes":{"ID":654870,"DIS_CODE":0,"TOWNNAME":"安南區","LI":"安西里","LIN":"5鄰","STREET":"慈安路","SECT":" ","MAREA":" ","LANE":" ","ALLEY":" ","HOUSE_NO":"１０５號","E_COORD97":168720.49947099999,"N_COORD97":2548109.0156200002,"ADDRESS":"慈安路１０５號","OBJECTID":654843},"geometry":{"x":168720.49947100133,"y":2548109.0156190023}},{"attributes":{"ID":654871,"DIS_CODE":0,"TOWNNAME":"安南區","LI":"安西里","LIN":"5鄰","STREET":"慈安路","SECT":" ","MAREA":" ","LANE":" ","ALLEY":" ","HOUSE_NO":"１０７號","E_COORD97":168714.361301,"N_COORD97":2548108.2801100002,"ADDRESS":"慈安路１０７號","OBJECTID":654844},"geometry":{"x":168714.36130100023,"y":2548108.2801119983}},{"attributes":{"ID":654872,"DIS_CODE":0,"TOWNNAME":"安南區","LI":"安西里","LIN":"5鄰","STREET":"慈安路","SECT":" ","MAREA":" ","LANE":"１０９巷","ALLEY":" ","HOUSE_NO":"１０號","E_COORD97":168703.92641099999,"N_COORD97":2548066.8465100001,"ADDRESS":"慈安路１０９巷１０號","OBJECTID":654845},"geometry":{"x":168703.92641100101,"y":2548066.8465110008}},{"attributes":{"ID":654873,"DIS_CODE":0,"TOWNNAME":"安南區","LI":"安西里","LIN":"5鄰","STREET":"慈安路","SECT":" ","MAREA":" ","LANE":" ","ALLEY":" ","HOUSE_NO":"１１１號","E_COORD97":168696.56060600001,"N_COORD97":2548104.6025700001,"ADDRESS":"慈安路１１１號","OBJECTID":654846},"geometry":{"x":168696.56060600001,"y":2548104.6025730018}},{"attributes":{"ID":654874,"DIS_CODE":0,"TOWNNAME":"安南區","LI":"安西里","LIN":"5鄰","STREET":"慈安路","SECT":" ","MAREA":" ","LANE":" ","ALLEY":" ","HOUSE_NO":"１１３號","E_COORD97":168689.68585499999,"N_COORD97":2548104.1122300001,"ADDRESS":"慈安路１１３號","OBJECTID":654847},"geometry":{"x":168689.68585500028,"y":2548104.1122350004}},{"attributes":{"ID":654875,"DIS_CODE":0,"TOWNNAME":"安南區","LI":"安西里","LIN":"5鄰","STREET":"慈安路","SECT":" ","MAREA":" ","LANE":"１０９巷","ALLEY":" ","HOUSE_NO":"１號","E_COORD97":168713.501957,"N_COORD97":2548101.9057100001,"ADDRESS":"慈安路１０９巷１號","OBJECTID":654848},"geometry":{"x":168713.50195700023,"y":2548101.9057120029}},{"attributes":{"ID":654876,"DIS_CODE":0,"TOWNNAME":"安南區","LI":"安西里","LIN":"5鄰","STREET":"慈安路","SECT":" ","MAREA":" ","LANE":"１０９巷","ALLEY":" ","HOUSE_NO":"３號","E_COORD97":168713.01090299999,"N_COORD97":2548097.00233,"ADDRESS":"慈安路１０９巷３號","OBJECTID":654849},"geometry":{"x":168713.01090300083,"y":2548097.0023270007}},{"attributes":{"ID":654877,"DIS_CODE":0,"TOWNNAME":"安南區","LI":"安西里","LIN":"5鄰","STREET":"安通路","SECT":"四段","MAREA":" ","LANE":"１１９巷","ALLEY":" ","HOUSE_NO":"５３號","E_COORD97":168722.70921299999,"N_COORD97":2547896.45389,"ADDRESS":"安通路四段１１９巷５３號","OBJECTID":654850},"geometry":{"x":168722.70921300165,"y":2547896.4538939986}},{"attributes":{"ID":654878,"DIS_CODE":0,"TOWNNAME":"安南區","LI":"安西里","LIN":"5鄰","STREET":"慈安路","SECT":" ","MAREA":" ","LANE":"１０９巷","ALLEY":" ","HOUSE_NO":"５號","E_COORD97":168712.66729799999,"N_COORD97":2548093.1053300002,"ADDRESS":"慈安路１０９巷５號","OBJECTID":654851},"geometry":{"x":168712.66729800031,"y":2548093.1053289995}},{"attributes":{"ID":654879,"DIS_CODE":0,"TOWNNAME":"安南區","LI":"安西里","LIN":"5鄰","STREET":"慈安路","SECT":" ","MAREA":" ","LANE":"１０９巷","ALLEY":" ","HOUSE_NO":"６號","E_COORD97":168696.76915199999,"N_COORD97":2548095.8569899998,"ADDRESS":"慈安路１０９巷６號","OBJECTID":654852},"geometry":{"x":168696.76915200055,"y":2548095.8569940012}},{"attributes":{"ID":654880,"DIS_CODE":0,"TOWNNAME":"安南區","LI":"安西里","LIN":"5鄰","STREET":"慈安路","SECT":" ","MAREA":" ","LANE":"１０９巷","ALLEY":" ","HOUSE_NO":"７號","E_COORD97":168712.879273,"N_COORD97":2548089.9303299999,"ADDRESS":"慈安路１０９巷７號","OBJECTID":654853},"geometry":{"x":168712.87927300017,"y":2548089.9303310011}},{"attributes":{"ID":654881,"DIS_CODE":0,"TOWNNAME":"安南區","LI":"安西里","LIN":"5鄰","STREET":"慈安路","SECT":" ","MAREA":" ","LANE":"１０９巷","ALLEY":" ","HOUSE_NO":"８號","E_COORD97":168696.55717700001,"N_COORD97":2548093.1053300002,"ADDRESS":"慈安路１０９巷８號","OBJECTID":654854},"geometry":{"x":168696.55717700068,"y":2548093.1053289995}},{"attributes":{"ID":654882,"DIS_CODE":0,"TOWNNAME":"安南區","LI":"安西里","LIN":"14鄰","STREET":"安和路","SECT":"一段","MAREA":" ","LANE":"１５９巷","ALLEY":"１２１弄","HOUSE_NO":"２之１號","E_COORD97":169157.815378,"N_COORD97":2547991.5442900001,"ADDRESS":"安和路一段１５９巷１２１弄２之１號","OBJECTID":654855},"geometry":{"x":169157.81537800096,"y":2547991.5442929976}},{"attributes":{"ID":654883,"DIS_CODE":0,"TOWNNAME":"安南區","LI":"安西里","LIN":"7鄰","STREET":"安和路","SECT":"一段","MAREA":" ","LANE":"２８５巷","ALLEY":" ","HOUSE_NO":"８６之３號","E_COORD97":169077.91706400001,"N_COORD97":2548139.60971,"ADDRESS":"安和路一段２８５巷８６之３號","OBJECTID":654856},"geometry":{"x":169077.91706400085,"y":2548139.6097150017}},{"attributes":{"ID":654884,"DIS_CODE":0,"TOWNNAME":"安南區","LI":"安西里","LIN":"11鄰","STREET":"安中路","SECT":"一段","MAREA":" ","LANE":" ","ALLEY":" ","HOUSE_NO":"１７號之１０","E_COORD97":169191.88718200001,"N_COORD97":2548214.6299999999,"ADDRESS":"安中路一段１７號之１０","OBJECTID":654857},"geometry":{"x":169191.88718200102,"y":2548214.629997002}},{"attributes":{"ID":654885,"DIS_CODE":0,"TOWNNAME":"仁德區","LI":"後壁里","LIN":"14鄰","STREET":"德善路","SECT":" ","MAREA":" ","LANE":"１６０巷","ALLEY":" ","HOUSE_NO":"２號","E_COORD97":173579.65549100001,"N_COORD97":2538758.2226100001,"ADDRESS":"德善路１６０巷２號","OBJECTID":654858},"geometry":{"x":173579.65549100097,"y":2538758.2226130012}},{"attributes":{"ID":654886,"DIS_CODE":0,"TOWNNAME":"仁德區","LI":"後壁里","LIN":"14鄰","STREET":"德善路","SECT":" ","MAREA":" ","LANE":"１８２巷","ALLEY":" ","HOUSE_NO":"６號","E_COORD97":173655.78069399999,"N_COORD97":2538762.6676099999,"ADDRESS":"德善路１８２巷６號","OBJECTID":654859},"geometry":{"x":173655.78069400229,"y":2538762.6676110011}},{"attributes":{"ID":654887,"DIS_CODE":0,"TOWNNAME":"仁德區","LI":"後壁里","LIN":"15鄰","STREET":"德南路","SECT":" ","MAREA":" ","LANE":" ","ALLEY":" ","HOUSE_NO":"４５之１號","E_COORD97":173386.98011100001,"N_COORD97":2538757.7237,"ADDRESS":"德南路４５之１號","OBJECTID":654860},"geometry":{"x":173386.9801109992,"y":2538757.7236989997}},{"attributes":{"ID":654888,"DIS_CODE":0,"TOWNNAME":"仁德區","LI":"後壁里","LIN":"15鄰","STREET":"德善路","SECT":" ","MAREA":" ","LANE":"１０８巷","ALLEY":" ","HOUSE_NO":"２號","E_COORD97":173436.687645,"N_COORD97":2538820.3218700001,"ADDRESS":"德善路１０８巷２號","OBJECTID":654861},"geometry":{"x":173436.68764500041,"y":2538820.3218730018}},{"attributes":{"ID":654889,"DIS_CODE":0,"TOWNNAME":"仁德區","LI":"後壁里","LIN":"15鄰","STREET":"德善路","SECT":" ","MAREA":" ","LANE":"１０８巷","ALLEY":"１２弄","HOUSE_NO":"１號","E_COORD97":173461.49725099999,"N_COORD97":2538778.2002300001,"ADDRESS":"德善路１０８巷１２弄１號","OBJECTID":654862},"geometry":{"x":173461.49725100026,"y":2538778.200229004}},{"attributes":{"ID":654890,"DIS_CODE":0,"TOWNNAME":"仁德區","LI":"後壁里","LIN":"15鄰","STREET":"德善路","SECT":" ","MAREA":" ","LANE":"１０８巷","ALLEY":" ","HOUSE_NO":"２０號","E_COORD97":173481.853852,"N_COORD97":2538774.6019000001,"ADDRESS":"德善路１０８巷２０號","OBJECTID":654863},"geometry":{"x":173481.85385200009,"y":2538774.6018970013}},{"attributes":{"ID":654891,"DIS_CODE":0,"TOWNNAME":"仁德區","LI":"後壁里","LIN":"16鄰","STREET":"德善路","SECT":" ","MAREA":" ","LANE":" ","ALLEY":" ","HOUSE_NO":"８２號","E_COORD97":173381.55518600001,"N_COORD97":2538827.0951999999,"ADDRESS":"德善路８２號","OBJECTID":654864},"geometry":{"x":173381.55518599879,"y":2538827.0952019989}},{"attributes":{"ID":654892,"DIS_CODE":0,"TOWNNAME":"中西區","LI":"保安里","LIN":"11鄰","STREET":"中正路","SECT":" ","MAREA":" ","LANE":"２１７巷","ALLEY":" ","HOUSE_NO":"１號","E_COORD97":167732.576577,"N_COORD97":2543701.48489,"ADDRESS":"中正路２１７巷１號","OBJECTID":654865},"geometry":{"x":167732.57657700125,"y":2543701.4848940019}},{"attributes":{"ID":654893,"DIS_CODE":0,"TOWNNAME":"中西區","LI":"保安里","LIN":"11鄰","STREET":"中正路","SECT":" ","MAREA":" ","LANE":"１９９巷","ALLEY":" ","HOUSE_NO":"１０號","E_COORD97":167748.46178499999,"N_COORD97":2543687.0915700002,"ADDRESS":"中正路１９９巷１０號","OBJECTID":654866},"geometry":{"x":167748.46178499982,"y":2543687.0915680025}},{"attributes":{"ID":654894,"DIS_CODE":0,"TOWNNAME":"中西區","LI":"保安里","LIN":"9鄰","STREET":"中正路","SECT":" ","MAREA":" ","LANE":" ","ALLEY":" ","HOUSE_NO":"１７９號","E_COORD97":167803.954111,"N_COORD97":2543698.3099000002,"ADDRESS":"中正路１７９號","OBJECTID":654867},"geometry":{"x":167803.95411100052,"y":2543698.3098949995}},{"attributes":{"ID":654895,"DIS_CODE":0,"TOWNNAME":"中西區","LI":"保安里","LIN":"12鄰","STREET":"友愛街","SECT":" ","MAREA":" ","LANE":" ","ALLEY":" ","HOUSE_NO":"１７４號","E_COORD97":167704.40680900001,"N_COORD97":2543627.6132700001,"ADDRESS":"友愛街１７４號","OBJECTID":654868},"geometry":{"x":167704.4068090003,"y":2543627.6132670008}},{"attributes":{"ID":654896,"DIS_CODE":0,"TOWNNAME":"中西區","LI":"保安里","LIN":"14鄰","STREET":"康樂街100號","SECT":" ","MAREA":" ","LANE":" ","ALLEY":" ","HOUSE_NO":"１００號","E_COORD97":167438.594331,"N_COORD97":2543729.6365499999,"ADDRESS":"康樂街100號１００號","OBJECTID":654869},"geometry":{"x":167438.59433100186,"y":2543729.6365449987}},{"attributes":{"ID":654897,"DIS_CODE":0,"TOWNNAME":"中西區","LI":"保安里","LIN":"14鄰","STREET":"中正路","SECT":" ","MAREA":" ","LANE":" ","ALLEY":" ","HOUSE_NO":"２９７號","E_COORD97":167555.50946100001,"N_COORD97":2543749.7448700001,"ADDRESS":"中正路２９７號","OBJECTID":654870},"geometry":{"x":167555.50946099963,"y":2543749.7448679991}},{"attributes":{"ID":654898,"DIS_CODE":0,"TOWNNAME":"中西區","LI":"保安里","LIN":"14鄰","STREET":"中正路","SECT":" ","MAREA":" ","LANE":" ","ALLEY":" ","HOUSE_NO":"２９５號","E_COORD97":167557.627488,"N_COORD97":2543751.4382000002,"ADDRESS":"中正路２９５號","OBJECTID":654871},"geometry":{"x":167557.62748800125,"y":2543751.4382000025}},{"attributes":{"ID":654899,"DIS_CODE":0,"TOWNNAME":"中西區","LI":"保安里","LIN":"14鄰","STREET":"康樂街","SECT":" ","MAREA":" ","LANE":" ","ALLEY":" ","HOUSE_NO":"１０６號","E_COORD97":167443.465795,"N_COORD97":2543741.7015399998,"ADDRESS":"康樂街１０６號","OBJECTID":654872},"geometry":{"x":167443.46579500008,"y":2543741.7015390024}},{"attributes":{"ID":654900,"DIS_CODE":0,"TOWNNAME":"中西區","LI":"保安里","LIN":"5鄰","STREET":"友愛街","SECT":" ","MAREA":" ","LANE":"２０１巷","ALLEY":" ","HOUSE_NO":"６號","E_COORD97":167699.95895,"N_COORD97":2543595.43995,"ADDRESS":"友愛街２０１巷６號","OBJECTID":654873},"geometry":{"x":167699.95895000175,"y":2543595.4399509989}},{"attributes":{"ID":654901,"DIS_CODE":0,"TOWNNAME":"中西區","LI":"保安里","LIN":"5鄰","STREET":"友愛街","SECT":" ","MAREA":" ","LANE":"２０１巷","ALLEY":" ","HOUSE_NO":"８號","E_COORD97":167697.41731700001,"N_COORD97":2543595.43995,"ADDRESS":"友愛街２０１巷８號","OBJECTID":654874},"geometry":{"x":167697.41731700022,"y":2543595.4399509989}},{"attributes":{"ID":654902,"DIS_CODE":0,"TOWNNAME":"中西區","LI":"保安里","LIN":"5鄰","STREET":"友愛街","SECT":" ","MAREA":" ","LANE":" ","ALLEY":" ","HOUSE_NO":"２１３之３號","E_COORD97":167694.66388099999,"N_COORD97":2543608.1399400001,"ADDRESS":"友愛街２１３之３號","OBJECTID":654875},"geometry":{"x":167694.66388100106,"y":2543608.1399440002}},{"attributes":{"ID":654903,"DIS_CODE":0,"TOWNNAME":"中西區","LI":"保安里","LIN":"5鄰","STREET":"友愛街","SECT":" ","MAREA":" ","LANE":" ","ALLEY":" ","HOUSE_NO":"２１３之４號","E_COORD97":167694.66388099999,"N_COORD97":2543606.8699400001,"ADDRESS":"友愛街２１３之４號","OBJECTID":654876},"geometry":{"x":167694.66388100106,"y":2543606.8699450009}},{"attributes":{"ID":654904,"DIS_CODE":0,"TOWNNAME":"中西區","LI":"保安里","LIN":"5鄰","STREET":"友愛街","SECT":" ","MAREA":" ","LANE":" ","ALLEY":" ","HOUSE_NO":"２１３之５號","E_COORD97":167695.29928899999,"N_COORD97":2543605.3882800001,"ADDRESS":"友愛街２１３之５號","OBJECTID":654877},"geometry":{"x":167695.29928900115,"y":2543605.3882790003}},{"attributes":{"ID":654905,"DIS_CODE":0,"TOWNNAME":"中西區","LI":"保安里","LIN":"5鄰","STREET":"友愛街","SECT":" ","MAREA":" ","LANE":" ","ALLEY":" ","HOUSE_NO":"２２１號","E_COORD97":167682.59112299999,"N_COORD97":2543610.4682800001,"ADDRESS":"友愛街２２１號","OBJECTID":654878},"geometry":{"x":167682.59112300165,"y":2543610.4682759997}},{"attributes":{"ID":654906,"DIS_CODE":0,"TOWNNAME":"中西區","LI":"保安里","LIN":"5鄰","STREET":"國華街","SECT":"二段","MAREA":" ","LANE":"１５３巷","ALLEY":" ","HOUSE_NO":"１６號","E_COORD97":167650.608905,"N_COORD97":2543603.9066099999,"ADDRESS":"國華街二段１５３巷１６號","OBJECTID":654879},"geometry":{"x":167650.60890500061,"y":2543603.9066130035}},{"attributes":{"ID":654907,"DIS_CODE":0,"TOWNNAME":"中西區","LI":"保安里","LIN":"5鄰","STREET":"國華街","SECT":"二段","MAREA":" ","LANE":" ","ALLEY":" ","HOUSE_NO":"１５７號","E_COORD97":167675.38982899999,"N_COORD97":2543604.1182800001,"ADDRESS":"國華街二段１５７號","OBJECTID":654880},"geometry":{"x":167675.38982900046,"y":2543604.1182800047}},{"attributes":{"ID":654908,"DIS_CODE":0,"TOWNNAME":"中西區","LI":"保安里","LIN":"5鄰","STREET":"友愛街","SECT":" ","MAREA":" ","LANE":" ","ALLEY":" ","HOUSE_NO":"２８７號","E_COORD97":167571.60647100001,"N_COORD97":2543639.2549299998,"ADDRESS":"友愛街２８７號","OBJECTID":654881},"geometry":{"x":167571.60647100117,"y":2543639.254927}},{"attributes":{"ID":654909,"DIS_CODE":0,"TOWNNAME":"中西區","LI":"保安里","LIN":"6鄰","STREET":"友愛街","SECT":" ","MAREA":" ","LANE":"２８９巷","ALLEY":" ","HOUSE_NO":"１號","E_COORD97":167574.57170999999,"N_COORD97":2543619.99327,"ADDRESS":"友愛街２８９巷１號","OBJECTID":654882},"geometry":{"x":167574.57170999981,"y":2543619.9932710025}},{"attributes":{"ID":654910,"DIS_CODE":0,"TOWNNAME":"中西區","LI":"保安里","LIN":"7鄰","STREET":"友愛街","SECT":" ","MAREA":" ","LANE":"２８９巷","ALLEY":" ","HOUSE_NO":"８號","E_COORD97":167564.828783,"N_COORD97":2543603.4832799998,"ADDRESS":"友愛街２８９巷８號","OBJECTID":654883},"geometry":{"x":167564.82878299989,"y":2543603.4832799993}},{"attributes":{"ID":654911,"DIS_CODE":0,"TOWNNAME":"中西區","LI":"保安里","LIN":"7鄰","STREET":"友愛街","SECT":" ","MAREA":" ","LANE":"２８９巷","ALLEY":" ","HOUSE_NO":"１０號","E_COORD97":167563.34616300001,"N_COORD97":2543601.3666099999,"ADDRESS":"友愛街２８９巷１０號","OBJECTID":654884},"geometry":{"x":167563.34616300091,"y":2543601.366613999}},{"attributes":{"ID":654912,"DIS_CODE":0,"TOWNNAME":"中西區","LI":"保安里","LIN":"7鄰","STREET":"友愛街","SECT":" ","MAREA":" ","LANE":"２８９巷","ALLEY":" ","HOUSE_NO":"１２號","E_COORD97":167564.828783,"N_COORD97":2543600.5199500001,"ADDRESS":"友愛街２８９巷１２號","OBJECTID":654885},"geometry":{"x":167564.82878299989,"y":2543600.519948002}},{"attributes":{"ID":654913,"DIS_CODE":0,"TOWNNAME":"中西區","LI":"保安里","LIN":"6鄰","STREET":"友愛街","SECT":" ","MAREA":" ","LANE":"２５１巷","ALLEY":" ","HOUSE_NO":"１８號","E_COORD97":167626.46338900001,"N_COORD97":2543603.2716100002,"ADDRESS":"友愛街２５１巷１８號","OBJECTID":654886},"geometry":{"x":167626.46338899992,"y":2543603.2716130037}},{"attributes":{"ID":654914,"DIS_CODE":0,"TOWNNAME":"中西區","LI":"保安里","LIN":"6鄰","STREET":"友愛街","SECT":" ","MAREA":" ","LANE":"２５１巷","ALLEY":" ","HOUSE_NO":"２０號","E_COORD97":167626.03978299999,"N_COORD97":2543601.7899500001,"ADDRESS":"友愛街２５１巷２０號","OBJECTID":654887},"geometry":{"x":167626.03978300095,"y":2543601.7899480015}},{"attributes":{"ID":654915,"DIS_CODE":0,"TOWNNAME":"中西區","LI":"保安里","LIN":"6鄰","STREET":"友愛街","SECT":" ","MAREA":" ","LANE":" ","ALLEY":" ","HOUSE_NO":"２０號之１","E_COORD97":167625.192572,"N_COORD97":2543599.2499500001,"ADDRESS":"友愛街２０號之１","OBJECTID":654888},"geometry":{"x":167625.1925720023,"y":2543599.2499490026}},{"attributes":{"ID":654916,"DIS_CODE":0,"TOWNNAME":"仁德區","LI":"後壁里","LIN":"17鄰","STREET":"中正路","SECT":"二段","MAREA":" ","LANE":" ","ALLEY":" ","HOUSE_NO":"２３０號","E_COORD97":173239.052642,"N_COORD97":2538827.6133300001,"ADDRESS":"中正路二段２３０號","OBJECTID":654889},"geometry":{"x":173239.05264200084,"y":2538827.6133280024}},{"attributes":{"ID":654917,"DIS_CODE":0,"TOWNNAME":"仁德區","LI":"後壁里","LIN":"17鄰","STREET":"中正路","SECT":"二段","MAREA":" ","LANE":" ","ALLEY":" ","HOUSE_NO":"２４８號","E_COORD97":173243.49491099999,"N_COORD97":2538876.645,"ADDRESS":"中正路二段２４８號","OBJECTID":654890},"geometry":{"x":173243.49491100013,"y":2538876.6449999996}},{"attributes":{"ID":654918,"DIS_CODE":0,"TOWNNAME":"仁德區","LI":"後壁里","LIN":"17鄰","STREET":"中正路","SECT":"二段","MAREA":" ","LANE":" ","ALLEY":" ","HOUSE_NO":"２５０號","E_COORD97":173243.82176699999,"N_COORD97":2538881.2127499999,"ADDRESS":"中正路二段２５０號","OBJECTID":654891},"geometry":{"x":173243.82176699955,"y":2538881.2127530016}},{"attributes":{"ID":654919,"DIS_CODE":0,"TOWNNAME":"仁德區","LI":"後壁里","LIN":"17鄰","STREET":"中正路","SECT":"二段","MAREA":" ","LANE":" ","ALLEY":" ","HOUSE_NO":"２５２號","E_COORD97":173243.98519499999,"N_COORD97":2538885.78051,"ADDRESS":"中正路二段２５２號","OBJECTID":654892},"geometry":{"x":173243.98519499972,"y":2538885.7805070039}},{"attributes":{"ID":654920,"DIS_CODE":0,"TOWNNAME":"仁德區","LI":"後壁里","LIN":"17鄰","STREET":"中正路","SECT":"二段","MAREA":" ","LANE":" ","ALLEY":" ","HOUSE_NO":"２５６號","E_COORD97":173243.82176699999,"N_COORD97":2538889.3694600002,"ADDRESS":"中正路二段２５６號","OBJECTID":654893},"geometry":{"x":173243.82176699955,"y":2538889.3694560025}},{"attributes":{"ID":654921,"DIS_CODE":0,"TOWNNAME":"仁德區","LI":"後壁里","LIN":"17鄰","STREET":"中正路","SECT":"二段","MAREA":" ","LANE":" ","ALLEY":" ","HOUSE_NO":"２６８號","E_COORD97":173245.098447,"N_COORD97":2538921.3933999999,"ADDRESS":"中正路二段２６８號","OBJECTID":654894},"geometry":{"x":173245.09844699968,"y":2538921.3934039995}},{"attributes":{"ID":654922,"DIS_CODE":0,"TOWNNAME":"仁德區","LI":"後壁里","LIN":"17鄰","STREET":"中正路","SECT":"二段","MAREA":" ","LANE":" ","ALLEY":" ","HOUSE_NO":"２７４號","E_COORD97":173247.510492,"N_COORD97":2538933.43194,"ADDRESS":"中正路二段２７４號","OBJECTID":654895},"geometry":{"x":173247.5104919998,"y":2538933.4319390021}},{"attributes":{"ID":654923,"DIS_CODE":0,"TOWNNAME":"仁德區","LI":"後壁里","LIN":"18鄰","STREET":"德南路","SECT":" ","MAREA":" ","LANE":"５４巷","ALLEY":" ","HOUSE_NO":"２號","E_COORD97":173327.240509,"N_COORD97":2538751.82204,"ADDRESS":"德南路５４巷２號","OBJECTID":654896},"geometry":{"x":173327.24050900061,"y":2538751.8220380004}},{"attributes":{"ID":654924,"DIS_CODE":0,"TOWNNAME":"仁德區","LI":"後壁里","LIN":"18鄰","STREET":"德南路","SECT":" ","MAREA":" ","LANE":"７０巷","ALLEY":" ","HOUSE_NO":"１０號","E_COORD97":173371.134429,"N_COORD97":2538646.4120900002,"ADDRESS":"德南路７０巷１０號","OBJECTID":654897},"geometry":{"x":173371.13442900125,"y":2538646.4120940007}},{"attributes":{"ID":654925,"DIS_CODE":0,"TOWNNAME":"仁德區","LI":"後壁里","LIN":"19鄰","STREET":"德崙路","SECT":" ","MAREA":" ","LANE":"２１巷","ALLEY":" ","HOUSE_NO":"１２號","E_COORD97":173310.06462799999,"N_COORD97":2538681.54874,"ADDRESS":"德崙路２１巷１２號","OBJECTID":654898},"geometry":{"x":173310.0646280013,"y":2538681.548742}},{"attributes":{"ID":654926,"DIS_CODE":0,"TOWNNAME":"仁德區","LI":"後壁里","LIN":"20鄰","STREET":"中正路","SECT":"二段","MAREA":" ","LANE":" ","ALLEY":" ","HOUSE_NO":"１４號","E_COORD97":173118.47958700001,"N_COORD97":2538221.39775,"ADDRESS":"中正路二段１４號","OBJECTID":654899},"geometry":{"x":173118.47958699986,"y":2538221.3977550007}},{"attributes":{"ID":654927,"DIS_CODE":0,"TOWNNAME":"仁德區","LI":"後壁里","LIN":"20鄰","STREET":"中正路","SECT":"二段","MAREA":" ","LANE":" ","ALLEY":" ","HOUSE_NO":"１３２號","E_COORD97":173199.58791500001,"N_COORD97":2538545.7767500002,"ADDRESS":"中正路二段１３２號","OBJECTID":654900},"geometry":{"x":173199.58791499957,"y":2538545.7767470032}},{"attributes":{"ID":654928,"DIS_CODE":0,"TOWNNAME":"仁德區","LI":"後壁里","LIN":"20鄰","STREET":"中正路","SECT":"二段","MAREA":" ","LANE":" ","ALLEY":" ","HOUSE_NO":"３０號","E_COORD97":173125.90126399999,"N_COORD97":2538278.12439,"ADDRESS":"中正路二段３０號","OBJECTID":654901},"geometry":{"x":173125.90126400068,"y":2538278.1243910007}},{"attributes":{"ID":654929,"DIS_CODE":0,"TOWNNAME":"仁德區","LI":"後壁里","LIN":"20鄰","STREET":"中正路","SECT":"二段","MAREA":" ","LANE":" ","ALLEY":" ","HOUSE_NO":"６６號","E_COORD97":173143.66027699999,"N_COORD97":2538361.2564300001,"ADDRESS":"中正路二段６６號","OBJECTID":654902},"geometry":{"x":173143.6602769997,"y":2538361.2564300019}},{"attributes":{"ID":654930,"DIS_CODE":0,"TOWNNAME":"仁德區","LI":"後壁里","LIN":"20鄰","STREET":"中正路","SECT":"二段","MAREA":" ","LANE":" ","ALLEY":" ","HOUSE_NO":"６４號","E_COORD97":173138.571127,"N_COORD97":2538355.5414300002,"ADDRESS":"中正路二段６４號","OBJECTID":654903},"geometry":{"x":173138.5711270012,"y":2538355.5414329991}},{"attributes":{"ID":654931,"DIS_CODE":0,"TOWNNAME":"仁德區","LI":"後壁里","LIN":"20鄰","STREET":"中正路","SECT":"二段","MAREA":" ","LANE":" ","ALLEY":" ","HOUSE_NO":"７０號","E_COORD97":173222.43607900001,"N_COORD97":2538329.4006099999,"ADDRESS":"中正路二段７０號","OBJECTID":654904},"geometry":{"x":173222.43607900105,"y":2538329.4006140027}},{"attributes":{"ID":654932,"DIS_CODE":0,"TOWNNAME":"仁德區","LI":"後壁里","LIN":"20鄰","STREET":"中正路","SECT":"二段","MAREA":" ","LANE":" ","ALLEY":" ","HOUSE_NO":"８號","E_COORD97":173111.00489700001,"N_COORD97":2538191.0765200001,"ADDRESS":"中正路二段８號","OBJECTID":654905},"geometry":{"x":173111.0048970012,"y":2538191.0765220001}},{"attributes":{"ID":654933,"DIS_CODE":0,"TOWNNAME":"仁德區","LI":"新田里","LIN":"6鄰","STREET":"勝利路","SECT":" ","MAREA":" ","LANE":" ","ALLEY":" ","HOUSE_NO":"３１２號","E_COORD97":174807.78471199999,"N_COORD97":2539413.5281699998,"ADDRESS":"勝利路３１２號","OBJECTID":654906},"geometry":{"x":174807.78471199982,"y":2539413.5281740036}},{"attributes":{"ID":654934,"DIS_CODE":0,"TOWNNAME":"仁德區","LI":"新田里","LIN":"7鄰","STREET":"新田一街","SECT":" ","MAREA":" ","LANE":" ","ALLEY":" ","HOUSE_NO":"１６１號","E_COORD97":174178.40455400001,"N_COORD97":2539039.19588,"ADDRESS":"新田一街１６１號","OBJECTID":654907},"geometry":{"x":174178.40455400012,"y":2539039.1958760023}},{"attributes":{"ID":654935,"DIS_CODE":0,"TOWNNAME":"仁德區","LI":"新田里","LIN":"7鄰","STREET":"新田一街","SECT":" ","MAREA":" ","LANE":" ","ALLEY":" ","HOUSE_NO":"１５９號","E_COORD97":174159.76880200001,"N_COORD97":2539044.27587,"ADDRESS":"新田一街１５９號","OBJECTID":654908},"geometry":{"x":174159.76880200021,"y":2539044.2758730017}},{"attributes":{"ID":654936,"DIS_CODE":0,"TOWNNAME":"仁德區","LI":"新田里","LIN":"7鄰","STREET":"新田路","SECT":" ","MAREA":" ","LANE":"２巷","ALLEY":"１弄","HOUSE_NO":"４５５號","E_COORD97":174882.32771799999,"N_COORD97":2538943.4432199998,"ADDRESS":"新田路２巷１弄４５５號","OBJECTID":654909},"geometry":{"x":174882.32771799993,"y":2538943.4432190023}},{"attributes":{"ID":654937,"DIS_CODE":0,"TOWNNAME":"仁德區","LI":"新田里","LIN":"9鄰","STREET":"中正路","SECT":"二段","MAREA":" ","LANE":" ","ALLEY":" ","HOUSE_NO":"５５２號","E_COORD97":173392.63232,"N_COORD97":2539662.10408,"ADDRESS":"中正路二段５５２號","OBJECTID":654910},"geometry":{"x":173392.63232000172,"y":2539662.104081003}},{"attributes":{"ID":654938,"DIS_CODE":0,"TOWNNAME":"仁德區","LI":"新田里","LIN":"9鄰","STREET":"中正路","SECT":"二段","MAREA":" ","LANE":" ","ALLEY":" ","HOUSE_NO":"５９６號","E_COORD97":173393.90294,"N_COORD97":2539742.53737,"ADDRESS":"中正路二段５９６號","OBJECTID":654911},"geometry":{"x":173393.90294000134,"y":2539742.5373710003}},{"attributes":{"ID":654939,"DIS_CODE":0,"TOWNNAME":"仁德區","LI":"新田里","LIN":"10鄰","STREET":"中正路","SECT":"二段","MAREA":" ","LANE":" ","ALLEY":" ","HOUSE_NO":"４８３號","E_COORD97":173324.01887100001,"N_COORD97":2539564.1024699998,"ADDRESS":"中正路二段４８３號","OBJECTID":654912},"geometry":{"x":173324.01887099911,"y":2539564.1024679989}},{"attributes":{"ID":654940,"DIS_CODE":0,"TOWNNAME":"仁德區","LI":"新田里","LIN":"10鄰","STREET":"中正路","SECT":"二段","MAREA":" ","LANE":" ","ALLEY":" ","HOUSE_NO":"４８９號","E_COORD97":173339.26630399999,"N_COORD97":2539580.82412,"ADDRESS":"中正路二段４８９號","OBJECTID":654913},"geometry":{"x":173339.26630400121,"y":2539580.8241250031}},{"attributes":{"ID":654941,"DIS_CODE":0,"TOWNNAME":"仁德區","LI":"新田里","LIN":"10鄰","STREET":"中正路","SECT":"二段","MAREA":" ","LANE":" ","ALLEY":" ","HOUSE_NO":"５２１號","E_COORD97":173347.31356099999,"N_COORD97":2539677.7674099999,"ADDRESS":"中正路二段５２１號","OBJECTID":654914},"geometry":{"x":173347.31356099993,"y":2539677.7674060017}},{"attributes":{"ID":654942,"DIS_CODE":0,"TOWNNAME":"安南區","LI":"鹿耳里","LIN":"7鄰","STREET":"北汕尾二路","SECT":" ","MAREA":" ","LANE":" ","ALLEY":" ","HOUSE_NO":"５６１號","E_COORD97":160329.29107599999,"N_COORD97":2548199.8004700001,"ADDRESS":"北汕尾二路５６１號","OBJECTID":654915},"geometry":{"x":160329.29107600078,"y":2548199.8004710041}},{"attributes":{"ID":654943,"DIS_CODE":0,"TOWNNAME":"仁德區","LI":"新田里","LIN":"11鄰","STREET":"北保一街","SECT":" ","MAREA":" ","LANE":" ","ALLEY":" ","HOUSE_NO":"３３號","E_COORD97":173173.02692900001,"N_COORD97":2539488.3258400001,"ADDRESS":"北保一街３３號","OBJECTID":654916},"geometry":{"x":173173.02692900132,"y":2539488.3258420024}},{"attributes":{"ID":654944,"DIS_CODE":0,"TOWNNAME":"仁德區","LI":"新田里","LIN":"11鄰","STREET":"北保路","SECT":" ","MAREA":" ","LANE":" ","ALLEY":" ","HOUSE_NO":"７５號","E_COORD97":173218.13391900001,"N_COORD97":2539566.7483000001,"ADDRESS":"北保路７５號","OBJECTID":654917},"geometry":{"x":173218.13391900063,"y":2539566.7483000029}},{"attributes":{"ID":654945,"DIS_CODE":0,"TOWNNAME":"仁德區","LI":"新田里","LIN":"11鄰","STREET":"北保路","SECT":" ","MAREA":" ","LANE":" ","ALLEY":" ","HOUSE_NO":"７７號","E_COORD97":173219.404538,"N_COORD97":2539571.6166300001,"ADDRESS":"北保路７７號","OBJECTID":654918},"geometry":{"x":173219.40453800187,"y":2539571.616630001}},{"attributes":{"ID":654946,"DIS_CODE":0,"TOWNNAME":"仁德區","LI":"新田里","LIN":"12鄰","STREET":"北保二街","SECT":" ","MAREA":" ","LANE":" ","ALLEY":" ","HOUSE_NO":"９號","E_COORD97":173192.50975999999,"N_COORD97":2539394.9808899998,"ADDRESS":"北保二街９號","OBJECTID":654919},"geometry":{"x":173192.50975999888,"y":2539394.9808919989}},{"attributes":{"ID":654947,"DIS_CODE":0,"TOWNNAME":"仁德區","LI":"新田里","LIN":"12鄰","STREET":"北保三街","SECT":" ","MAREA":" ","LANE":" ","ALLEY":" ","HOUSE_NO":"２０號","E_COORD97":173195.79219400001,"N_COORD97":2539423.7146299998,"ADDRESS":"北保三街２０號","OBJECTID":654920},"geometry":{"x":173195.79219400045,"y":2539423.7146270014}},{"attributes":{"ID":654948,"DIS_CODE":0,"TOWNNAME":"仁德區","LI":"新田里","LIN":"12鄰","STREET":"北保三街","SECT":" ","MAREA":" ","LANE":" ","ALLEY":" ","HOUSE_NO":"７號","E_COORD97":173150.36754899999,"N_COORD97":2539403.9767200002,"ADDRESS":"北保三街７號","OBJECTID":654921},"geometry":{"x":173150.36754900217,"y":2539403.9767210037}},{"attributes":{"ID":654949,"DIS_CODE":0,"TOWNNAME":"仁德區","LI":"新田里","LIN":"12鄰","STREET":"民安硌","SECT":"一段","MAREA":" ","LANE":"２５３巷","ALLEY":" ","HOUSE_NO":"２２號","E_COORD97":173150.36754899999,"N_COORD97":2539403.9767200002,"ADDRESS":"民安硌一段２５３巷２２號","OBJECTID":654922},"geometry":{"x":173150.36754900217,"y":2539403.9767210037}},{"attributes":{"ID":654950,"DIS_CODE":0,"TOWNNAME":"仁德區","LI":"新田里","LIN":"12鄰","STREET":"民安硌","SECT":"一段","MAREA":" ","LANE":"２５３巷","ALLEY":" ","HOUSE_NO":"２２號","E_COORD97":172592.98915800001,"N_COORD97":2539826.35733,"ADDRESS":"民安硌一段２５３巷２２號","OBJECTID":654923},"geometry":{"x":172592.98915799987,"y":2539826.3573260047}},{"attributes":{"ID":654951,"DIS_CODE":0,"TOWNNAME":"中西區","LI":"保安里","LIN":"6鄰","STREET":"友愛街","SECT":" ","MAREA":" ","LANE":"２８９巷","ALLEY":" ","HOUSE_NO":"７號","E_COORD97":167576.950747,"N_COORD97":2543607.2120300001,"ADDRESS":"友愛街２８９巷７號","OBJECTID":654924},"geometry":{"x":167576.95074700098,"y":2543607.2120320015}},{"attributes":{"ID":654952,"DIS_CODE":0,"TOWNNAME":"中西區","LI":"保安里","LIN":"6鄰","STREET":"友愛街","SECT":" ","MAREA":" ","LANE":"２８９巷","ALLEY":" ","HOUSE_NO":"９號","E_COORD97":167576.10353600001,"N_COORD97":2543604.46037,"ADDRESS":"友愛街２８９巷９號","OBJECTID":654925},"geometry":{"x":167576.10353600048,"y":2543604.4603669997}},{"attributes":{"ID":654953,"DIS_CODE":0,"TOWNNAME":"中西區","LI":"保安里","LIN":"6鄰","STREET":"友愛街","SECT":" ","MAREA":" ","LANE":"２８９巷","ALLEY":" ","HOUSE_NO":"１５號","E_COORD97":167576.31533799999,"N_COORD97":2543601.7086999998,"ADDRESS":"友愛街２８９巷１５號","OBJECTID":654926},"geometry":{"x":167576.31533799972,"y":2543601.7087019999}},{"attributes":{"ID":654954,"DIS_CODE":0,"TOWNNAME":"中西區","LI":"保安里","LIN":"6鄰","STREET":"友愛街","SECT":" ","MAREA":" ","LANE":"２８９巷","ALLEY":" ","HOUSE_NO":"１７號","E_COORD97":167576.73894400001,"N_COORD97":2543599.1686999998,"ADDRESS":"友愛街２８９巷１７號","OBJECTID":654927},"geometry":{"x":167576.73894400056,"y":2543599.168703001}},{"attributes":{"ID":654955,"DIS_CODE":0,"TOWNNAME":"中西區","LI":"保安里","LIN":"6鄰","STREET":"友愛街","SECT":" ","MAREA":" ","LANE":"２８９巷","ALLEY":" ","HOUSE_NO":"１９號","E_COORD97":167577.16255000001,"N_COORD97":2543597.6870400002,"ADDRESS":"友愛街２８９巷１９號","OBJECTID":654928},"geometry":{"x":167577.16255000234,"y":2543597.6870370042}},{"attributes":{"ID":654956,"DIS_CODE":0,"TOWNNAME":"中西區","LI":"保安里","LIN":"6鄰","STREET":"友愛街","SECT":" ","MAREA":" ","LANE":"２８９巷","ALLEY":" ","HOUSE_NO":"２１號","E_COORD97":167576.950747,"N_COORD97":2543595.78204,"ADDRESS":"友愛街２８９巷２１號","OBJECTID":654929},"geometry":{"x":167576.95074700098,"y":2543595.7820379995}},{"attributes":{"ID":654957,"DIS_CODE":0,"TOWNNAME":"中西區","LI":"保安里","LIN":"6鄰","STREET":"友愛街","SECT":" ","MAREA":" ","LANE":"２８９巷","ALLEY":" ","HOUSE_NO":"２３號","E_COORD97":167579.06877499999,"N_COORD97":2543596.2053700001,"ADDRESS":"友愛街２８９巷２３號","OBJECTID":654930},"geometry":{"x":167579.06877500005,"y":2543596.2053710017}},{"attributes":{"ID":654958,"DIS_CODE":0,"TOWNNAME":"中西區","LI":"保安里","LIN":"6鄰","STREET":"友愛街","SECT":" ","MAREA":" ","LANE":"２８９巷","ALLEY":" ","HOUSE_NO":"２５號","E_COORD97":167580.55139400001,"N_COORD97":2543595.5703699999,"ADDRESS":"友愛街２８９巷２５號","OBJECTID":654931},"geometry":{"x":167580.55139399972,"y":2543595.5703720022}},{"attributes":{"ID":654959,"DIS_CODE":0,"TOWNNAME":"中西區","LI":"保安里","LIN":"7鄰","STREET":"府前路","SECT":"二段","MAREA":" ","LANE":" ","ALLEY":" ","HOUSE_NO":"８８號","E_COORD97":167548.99278100001,"N_COORD97":2543517.04208,"ADDRESS":"府前路二段８８號","OBJECTID":654932},"geometry":{"x":167548.99278100114,"y":2543517.042081004}},{"attributes":{"ID":654960,"DIS_CODE":0,"TOWNNAME":"中西區","LI":"保安里","LIN":"7鄰","STREET":"府前路","SECT":"二段","MAREA":" ","LANE":" ","ALLEY":" ","HOUSE_NO":"９０號","E_COORD97":167546.87475300001,"N_COORD97":2543516.1954100002,"ADDRESS":"府前路二段９０號","OBJECTID":654933},"geometry":{"x":167546.87475300021,"y":2543516.195414003}},{"attributes":{"ID":654961,"DIS_CODE":0,"TOWNNAME":"中西區","LI":"保安里","LIN":"7鄰","STREET":"府前路","SECT":"二段","MAREA":" ","LANE":" ","ALLEY":" ","HOUSE_NO":"９２號","E_COORD97":167546.027542,"N_COORD97":2543518.3120800001,"ADDRESS":"府前路二段９２號","OBJECTID":654934},"geometry":{"x":167546.02754200157,"y":2543518.3120799996}},{"attributes":{"ID":654962,"DIS_CODE":0,"TOWNNAME":"中西區","LI":"保安里","LIN":"7鄰","STREET":"府前路","SECT":"二段","MAREA":" ","LANE":" ","ALLEY":" ","HOUSE_NO":"９４號","E_COORD97":167544.75672599999,"N_COORD97":2543516.1954100002,"ADDRESS":"府前路二段９４號","OBJECTID":654935},"geometry":{"x":167544.75672600046,"y":2543516.195414003}},{"attributes":{"ID":654963,"DIS_CODE":0,"TOWNNAME":"中西區","LI":"保安里","LIN":"8鄰","STREET":"友愛街","SECT":" ","MAREA":" ","LANE":"２０１巷","ALLEY":" ","HOUSE_NO":"４６之１號","E_COORD97":167681.36951300001,"N_COORD97":2543535.6687400001,"ADDRESS":"友愛街２０１巷４６之１號","OBJECTID":654936},"geometry":{"x":167681.36951300036,"y":2543535.6687370017}},{"attributes":{"ID":654964,"DIS_CODE":0,"TOWNNAME":"善化區","LI":"光文里","LIN":"23鄰","STREET":"中山路","SECT":" ","MAREA":" ","LANE":" ","ALLEY":" ","HOUSE_NO":"１４８號","E_COORD97":178471.46854100001,"N_COORD97":2559175.95493,"ADDRESS":"中山路１４８號","OBJECTID":654937},"geometry":{"x":178471.46854100004,"y":2559175.9549290016}},{"attributes":{"ID":654965,"DIS_CODE":0,"TOWNNAME":"中西區","LI":"保安里","LIN":"8鄰","STREET":"友愛街","SECT":" ","MAREA":" ","LANE":"２０１巷","ALLEY":" ","HOUSE_NO":"４０號","E_COORD97":167684.75835700001,"N_COORD97":2543547.0987300002,"ADDRESS":"友愛街２０１巷４０號","OBJECTID":654938},"geometry":{"x":167684.75835700054,"y":2543547.098731}},{"attributes":{"ID":654966,"DIS_CODE":0,"TOWNNAME":"中西區","LI":"保安里","LIN":"8鄰","STREET":"府前路","SECT":"二段","MAREA":" ","LANE":"４０巷","ALLEY":" ","HOUSE_NO":"３２號","E_COORD97":167645.786647,"N_COORD97":2543556.8353900001,"ADDRESS":"府前路二段４０巷３２號","OBJECTID":654939},"geometry":{"x":167645.78664700035,"y":2543556.8353920002}},{"attributes":{"ID":654967,"DIS_CODE":0,"TOWNNAME":"中西區","LI":"保安里","LIN":"8鄰","STREET":"府前路","SECT":"二段","MAREA":" ","LANE":"４０巷","ALLEY":" ","HOUSE_NO":"４號","E_COORD97":167636.67912799999,"N_COORD97":2543504.3420899999,"ADDRESS":"府前路二段４０巷４號","OBJECTID":654940},"geometry":{"x":167636.67912800144,"y":2543504.3420870025}},{"attributes":{"ID":654968,"DIS_CODE":0,"TOWNNAME":"中西區","LI":"保安里","LIN":"8鄰","STREET":"府前路","SECT":"二段","MAREA":" ","LANE":" ","ALLEY":" ","HOUSE_NO":"２４號","E_COORD97":167676.074444,"N_COORD97":2543488.0437599998,"ADDRESS":"府前路二段２４號","OBJECTID":654941},"geometry":{"x":167676.07444400061,"y":2543488.0437630005}},{"attributes":{"ID":654969,"DIS_CODE":0,"TOWNNAME":"中西區","LI":"保安里","LIN":"8鄰","STREET":"府前路","SECT":"二段","MAREA":" ","LANE":" ","ALLEY":" ","HOUSE_NO":"２６號","E_COORD97":167673.956416,"N_COORD97":2543488.4671,"ADDRESS":"府前路二段２６號","OBJECTID":654942},"geometry":{"x":167673.95641600154,"y":2543488.4670960046}},{"attributes":{"ID":654970,"DIS_CODE":0,"TOWNNAME":"中西區","LI":"保安里","LIN":"8鄰","STREET":"府前路","SECT":"二段","MAREA":" ","LANE":" ","ALLEY":" ","HOUSE_NO":"２８號","E_COORD97":167670.77937400001,"N_COORD97":2543488.8904300001,"ADDRESS":"府前路二段２８號","OBJECTID":654943},"geometry":{"x":167670.77937400062,"y":2543488.8904290032}},{"attributes":{"ID":654971,"DIS_CODE":0,"TOWNNAME":"中西區","LI":"保安里","LIN":"8鄰","STREET":"府前路","SECT":"二段","MAREA":" ","LANE":" ","ALLEY":" ","HOUSE_NO":"３０號","E_COORD97":167667.81413499999,"N_COORD97":2543489.5254299999,"ADDRESS":"府前路二段３０號","OBJECTID":654944},"geometry":{"x":167667.81413500011,"y":2543489.5254290029}},{"attributes":{"ID":654972,"DIS_CODE":0,"TOWNNAME":"中西區","LI":"保安里","LIN":"8鄰","STREET":"府前路","SECT":"二段","MAREA":" ","LANE":" ","ALLEY":" ","HOUSE_NO":"３２號","E_COORD97":167665.48430499999,"N_COORD97":2543489.7371,"ADDRESS":"府前路二段３２號","OBJECTID":654945},"geometry":{"x":167665.48430499993,"y":2543489.7370950002}},{"attributes":{"ID":654973,"DIS_CODE":0,"TOWNNAME":"善化區","LI":"光文里","LIN":"29鄰","STREET":"建國路","SECT":" ","MAREA":" ","LANE":" ","ALLEY":" ","HOUSE_NO":"３３９號","E_COORD97":177680.32836300001,"N_COORD97":2559326.9790099999,"ADDRESS":"建國路３３９號","OBJECTID":654946},"geometry":{"x":177680.32836300042,"y":2559326.9790140018}},{"attributes":{"ID":654974,"DIS_CODE":0,"TOWNNAME":"中西區","LI":"保安里","LIN":"2鄰","STREET":"友愛街","SECT":" ","MAREA":" ","LANE":"２０１巷","ALLEY":" ","HOUSE_NO":"１９號","E_COORD97":167692.38325700001,"N_COORD97":2543539.9020699998,"ADDRESS":"友愛街２０１巷１９號","OBJECTID":654947},"geometry":{"x":167692.38325700071,"y":2543539.9020680003}},{"attributes":{"ID":654975,"DIS_CODE":0,"TOWNNAME":"中西區","LI":"保安里","LIN":"2鄰","STREET":"友愛街","SECT":" ","MAREA":" ","LANE":" ","ALLEY":" ","HOUSE_NO":"１７號","E_COORD97":167695.13669300001,"N_COORD97":2543540.7487300001,"ADDRESS":"友愛街１７號","OBJECTID":654948},"geometry":{"x":167695.13669299986,"y":2543540.7487340011}},{"attributes":{"ID":654976,"DIS_CODE":0,"TOWNNAME":"中西區","LI":"保安里","LIN":"2鄰","STREET":"友愛街","SECT":" ","MAREA":" ","LANE":"２０１巷","ALLEY":" ","HOUSE_NO":"３３號","E_COORD97":167708.69206999999,"N_COORD97":2543517.2537500001,"ADDRESS":"友愛街２０１巷３３號","OBJECTID":654949},"geometry":{"x":167708.6920700008,"y":2543517.2537470013}},{"attributes":{"ID":654977,"DIS_CODE":0,"TOWNNAME":"中西區","LI":"保安里","LIN":"2鄰","STREET":"西門路","SECT":"二段","MAREA":" ","LANE":"２５巷","ALLEY":" ","HOUSE_NO":"１號之１","E_COORD97":167732.20217800001,"N_COORD97":2543518.3120800001,"ADDRESS":"西門路二段２５巷１號之１","OBJECTID":654950},"geometry":{"x":167732.20217799954,"y":2543518.3120799996}},{"attributes":{"ID":654978,"DIS_CODE":0,"TOWNNAME":"中西區","LI":"保安里","LIN":"2鄰","STREET":"西門路","SECT":"二段","MAREA":" ","LANE":"２５巷","ALLEY":" ","HOUSE_NO":"１１號","E_COORD97":167727.54251699999,"N_COORD97":2543519.1587499999,"ADDRESS":"西門路二段２５巷１１號","OBJECTID":654951},"geometry":{"x":167727.54251699988,"y":2543519.1587460004}},{"attributes":{"ID":654979,"DIS_CODE":0,"TOWNNAME":"中西區","LI":"保安里","LIN":"2鄰","STREET":"西門路","SECT":"二段","MAREA":" ","LANE":"２５巷","ALLEY":" ","HOUSE_NO":"１５號","E_COORD97":167725.63629200001,"N_COORD97":2543519.37041,"ADDRESS":"西門路二段２５巷１５號","OBJECTID":654952},"geometry":{"x":167725.63629200123,"y":2543519.3704130016}},{"attributes":{"ID":654980,"DIS_CODE":0,"TOWNNAME":"中西區","LI":"保安里","LIN":"1鄰","STREET":"西門路","SECT":"二段","MAREA":" ","LANE":"２５巷","ALLEY":" ","HOUSE_NO":"１７號","E_COORD97":167723.09465899999,"N_COORD97":2543520.8520800001,"ADDRESS":"西門路二段２５巷１７號","OBJECTID":654953},"geometry":{"x":167723.09465900064,"y":2543520.8520790022}},{"attributes":{"ID":654981,"DIS_CODE":0,"TOWNNAME":"中西區","LI":"保安里","LIN":"1鄰","STREET":"西門路","SECT":"二段","MAREA":" ","LANE":"２５巷","ALLEY":" ","HOUSE_NO":"１９號","E_COORD97":167720.341223,"N_COORD97":2543521.4870799999,"ADDRESS":"西門路二段２５巷１９號","OBJECTID":654954},"geometry":{"x":167720.34122300055,"y":2543521.4870780036}},{"attributes":{"ID":654982,"DIS_CODE":0,"TOWNNAME":"中西區","LI":"保安里","LIN":"1鄰","STREET":"西門路","SECT":"二段","MAREA":" ","LANE":"５９巷","ALLEY":" ","HOUSE_NO":"１號","E_COORD97":167766.09062100001,"N_COORD97":2543557.4703899999,"ADDRESS":"西門路二段５９巷１號","OBJECTID":654955},"geometry":{"x":167766.09062100016,"y":2543557.4703919999}},{"attributes":{"ID":654983,"DIS_CODE":0,"TOWNNAME":"中西區","LI":"保安里","LIN":"1鄰","STREET":"西門路","SECT":"二段","MAREA":" ","LANE":"５９巷","ALLEY":" ","HOUSE_NO":"５號","E_COORD97":167761.21915700001,"N_COORD97":2543555.7770600002,"ADDRESS":"西門路二段５９巷５號","OBJECTID":654956},"geometry":{"x":167761.21915700007,"y":2543555.7770600021}},{"attributes":{"ID":654984,"DIS_CODE":0,"TOWNNAME":"中西區","LI":"保安里","LIN":"1鄰","STREET":"西門路","SECT":"二段","MAREA":" ","LANE":"５９巷","ALLEY":" ","HOUSE_NO":"５號","E_COORD97":167761.21915700001,"N_COORD97":2543555.7770600002,"ADDRESS":"西門路二段５９巷５號","OBJECTID":654957},"geometry":{"x":167761.21915700007,"y":2543555.7770600021}},{"attributes":{"ID":654985,"DIS_CODE":0,"TOWNNAME":"中西區","LI":"保安里","LIN":"1鄰","STREET":"西門路","SECT":"二段","MAREA":" ","LANE":"５９巷","ALLEY":" ","HOUSE_NO":"７號","E_COORD97":167757.19490500001,"N_COORD97":2543556.8353900001,"ADDRESS":"西門路二段５９巷７號","OBJECTID":654958},"geometry":{"x":167757.19490499981,"y":2543556.8353920002}},{"attributes":{"ID":654986,"DIS_CODE":0,"TOWNNAME":"中西區","LI":"保安里","LIN":"2鄰","STREET":"西門路","SECT":"二段","MAREA":" ","LANE":" ","ALLEY":" ","HOUSE_NO":"７號","E_COORD97":167721.82384200001,"N_COORD97":2543441.2654599999,"ADDRESS":"西門路二段７號","OBJECTID":654959},"geometry":{"x":167721.82384200022,"y":2543441.265455002}},{"attributes":{"ID":654987,"DIS_CODE":0,"TOWNNAME":"中西區","LI":"保安里","LIN":"2鄰","STREET":"西門路","SECT":"二段","MAREA":" ","LANE":" ","ALLEY":" ","HOUSE_NO":"１１號","E_COORD97":167722.035645,"N_COORD97":2543443.3821200002,"ADDRESS":"西門路二段１１號","OBJECTID":654960},"geometry":{"x":167722.03564500064,"y":2543443.3821200021}},{"attributes":{"ID":654988,"DIS_CODE":0,"TOWNNAME":"中西區","LI":"保安里","LIN":"2鄰","STREET":"西門路","SECT":"二段","MAREA":" ","LANE":" ","ALLEY":" ","HOUSE_NO":"１３號","E_COORD97":167723.306461,"N_COORD97":2543445.28712,"ADDRESS":"西門路二段１３號","OBJECTID":654961},"geometry":{"x":167723.30646100175,"y":2543445.287119003}},{"attributes":{"ID":654989,"DIS_CODE":0,"TOWNNAME":"中西區","LI":"保安里","LIN":"2鄰","STREET":"西門路","SECT":"二段","MAREA":" ","LANE":" ","ALLEY":" ","HOUSE_NO":"１５號","E_COORD97":167724.365475,"N_COORD97":2543446.9804500001,"ADDRESS":"西門路二段１５號","OBJECTID":654962},"geometry":{"x":167724.36547500081,"y":2543446.9804520011}},{"attributes":{"ID":654990,"DIS_CODE":0,"TOWNNAME":"中西區","LI":"保安里","LIN":"2鄰","STREET":"西門路","SECT":"二段","MAREA":" ","LANE":" ","ALLEY":" ","HOUSE_NO":"１７號","E_COORD97":167726.27170000001,"N_COORD97":2543449.3087800001,"ADDRESS":"西門路二段１７號","OBJECTID":654963},"geometry":{"x":167726.27170000132,"y":2543449.3087840024}},{"attributes":{"ID":654991,"DIS_CODE":0,"TOWNNAME":"中西區","LI":"保安里","LIN":"2鄰","STREET":"西門路","SECT":"二段","MAREA":" ","LANE":" ","ALLEY":" ","HOUSE_NO":"１９號","E_COORD97":167727.54251699999,"N_COORD97":2543450.15545,"ADDRESS":"西門路二段１９號","OBJECTID":654964},"geometry":{"x":167727.54251699988,"y":2543450.1554499995}},{"attributes":{"ID":654992,"DIS_CODE":0,"TOWNNAME":"中西區","LI":"保安里","LIN":"2鄰","STREET":"西門路","SECT":"二段","MAREA":" ","LANE":" ","ALLEY":" ","HOUSE_NO":"２１號","E_COORD97":167728.38972800001,"N_COORD97":2543451.2137799999,"ADDRESS":"西門路二段２１號","OBJECTID":654965},"geometry":{"x":167728.38972800039,"y":2543451.2137830034}},{"attributes":{"ID":654993,"DIS_CODE":0,"TOWNNAME":"善化區","LI":"光文里","LIN":"7鄰","STREET":"建業路","SECT":" ","MAREA":" ","LANE":"２８７巷","ALLEY":" ","HOUSE_NO":"２７號","E_COORD97":178215.49801400001,"N_COORD97":2560382.0877499999,"ADDRESS":"建業路２８７巷２７號","OBJECTID":654966},"geometry":{"x":178215.49801399931,"y":2560382.087751003}},{"attributes":{"ID":654994,"DIS_CODE":0,"TOWNNAME":"中西區","LI":"保安里","LIN":"2鄰","STREET":"西門路","SECT":"二段","MAREA":" ","LANE":" ","ALLEY":" ","HOUSE_NO":"４７號","E_COORD97":167757.40670799999,"N_COORD97":2543533.3404000001,"ADDRESS":"西門路二段４７號","OBJECTID":654967},"geometry":{"x":167757.40670800023,"y":2543533.3404050004}},{"attributes":{"ID":654995,"DIS_CODE":0,"TOWNNAME":"中西區","LI":"保安里","LIN":"2鄰","STREET":"西門路","SECT":"二段","MAREA":" ","LANE":" ","ALLEY":" ","HOUSE_NO":"５１號","E_COORD97":167759.52473500001,"N_COORD97":2543535.8804000001,"ADDRESS":"西門路二段５１號","OBJECTID":654968},"geometry":{"x":167759.52473499998,"y":2543535.8804039992}},{"attributes":{"ID":654996,"DIS_CODE":0,"TOWNNAME":"中西區","LI":"保安里","LIN":"2鄰","STREET":"西門路","SECT":"二段","MAREA":" ","LANE":" ","ALLEY":" ","HOUSE_NO":"５３號","E_COORD97":167761.43096,"N_COORD97":2543538.8437399999,"ADDRESS":"西門路二段５３號","OBJECTID":654969},"geometry":{"x":167761.43096000049,"y":2543538.843735002}},{"attributes":{"ID":654997,"DIS_CODE":0,"TOWNNAME":"善化區","LI":"小新里","LIN":"20鄰","STREET":" ","SECT":" ","MAREA":"小新營","LANE":" ","ALLEY":" ","HOUSE_NO":"３６９號","E_COORD97":180181.595619,"N_COORD97":2558236.1257799999,"ADDRESS":"小新營３６９號","OBJECTID":654970},"geometry":{"x":180181.59561899956,"y":2558236.125779001}},{"attributes":{"ID":654998,"DIS_CODE":0,"TOWNNAME":"善化區","LI":"小新里","LIN":"7鄰","STREET":"成功路","SECT":" ","MAREA":" ","LANE":" ","ALLEY":" ","HOUSE_NO":"１５２號之１","E_COORD97":179573.90457000001,"N_COORD97":2558767.8321500001,"ADDRESS":"成功路１５２號之１","OBJECTID":654971},"geometry":{"x":179573.90457000025,"y":2558767.8321500029}},{"attributes":{"ID":654999,"DIS_CODE":0,"TOWNNAME":"中西區","LI":"保安里","LIN":"2鄰","STREET":"西門路","SECT":"二段","MAREA":" ","LANE":" ","ALLEY":" ","HOUSE_NO":"２９號","E_COORD97":167748.722794,"N_COORD97":2543507.9404199999,"ADDRESS":"西門路二段２９號","OBJECTID":654972},"geometry":{"x":167748.72279400099,"y":2543507.9404189996}},{"attributes":{"ID":655000,"DIS_CODE":0,"TOWNNAME":"善化區","LI":"小新里","LIN":"9鄰","STREET":" ","SECT":" ","MAREA":"小新營","LANE":" ","ALLEY":" ","HOUSE_NO":"７３號之７","E_COORD97":179586.57581800001,"N_COORD97":2558360.9649499999,"ADDRESS":"小新營７３號之７","OBJECTID":654973},"geometry":{"x":179586.57581800129,"y":2558360.9649490025}},{"attributes":{"ID":655001,"DIS_CODE":0,"TOWNNAME":"善化區","LI":"小新里","LIN":"7鄰","STREET":"成功路","SECT":" ","MAREA":" ","LANE":" ","ALLEY":" ","HOUSE_NO":"２３２號之１","E_COORD97":179339.42775,"N_COORD97":2558813.7637999998,"ADDRESS":"成功路２３２號之１","OBJECTID":654974},"geometry":{"x":179339.4277499998,"y":2558813.7638000008}},{"attributes":{"ID":655002,"DIS_CODE":0,"TOWNNAME":"善化區","LI":"小新里","LIN":"20鄰","STREET":" ","SECT":" ","MAREA":"苗圃巷","LANE":" ","ALLEY":" ","HOUSE_NO":"３號","E_COORD97":180482.793481,"N_COORD97":2556847.1698599998,"ADDRESS":"苗圃巷３號","OBJECTID":654975},"geometry":{"x":180482.7934810007,"y":2556847.1698630024}},{"attributes":{"ID":655003,"DIS_CODE":0,"TOWNNAME":"中西區","LI":"保安里","LIN":"2鄰","STREET":"友愛街","SECT":" ","MAREA":" ","LANE":"２０１巷","ALLEY":" ","HOUSE_NO":"３５號","E_COORD97":167689.418018,"N_COORD97":2543515.77208,"ADDRESS":"友愛街２０１巷３５號","OBJECTID":654976},"geometry":{"x":167689.4180180002,"y":2543515.7720809989}},{"attributes":{"ID":655004,"DIS_CODE":0,"TOWNNAME":"善化區","LI":"小新里","LIN":"20鄰","STREET":" ","SECT":" ","MAREA":"苗圃巷","LANE":" ","ALLEY":" ","HOUSE_NO":"５號","E_COORD97":180500.58575999999,"N_COORD97":2556801.0265500001,"ADDRESS":"苗圃巷５號","OBJECTID":654977},"geometry":{"x":180500.58576000016,"y":2556801.0265540034}},{"attributes":{"ID":655005,"DIS_CODE":0,"TOWNNAME":"中西區","LI":"保安里","LIN":"2鄰","STREET":"友愛街","SECT":" ","MAREA":" ","LANE":"２０１巷","ALLEY":" ","HOUSE_NO":"４１號","E_COORD97":167688.14720100001,"N_COORD97":2543512.5970800002,"ADDRESS":"友愛街２０１巷４１號","OBJECTID":654978},"geometry":{"x":167688.14720100071,"y":2543512.5970830005}},{"attributes":{"ID":655006,"DIS_CODE":0,"TOWNNAME":"中西區","LI":"保安里","LIN":"2鄰","STREET":"友愛街","SECT":" ","MAREA":" ","LANE":"２０１巷","ALLEY":" ","HOUSE_NO":"４３號","E_COORD97":167689.84162399999,"N_COORD97":2543512.3854200002,"ADDRESS":"友愛街２０１巷４３號","OBJECTID":654979},"geometry":{"x":167689.84162400011,"y":2543512.3854160029}},{"attributes":{"ID":655007,"DIS_CODE":0,"TOWNNAME":"善化區","LI":"小新里","LIN":"9鄰","STREET":" ","SECT":" ","MAREA":"小新營","LANE":" ","ALLEY":" ","HOUSE_NO":"７３號之１１","E_COORD97":179567.76199999999,"N_COORD97":2558318.04073,"ADDRESS":"小新營７３號之１１","OBJECTID":654980},"geometry":{"x":179567.76200000104,"y":2558318.0407299995}},{"attributes":{"ID":655008,"DIS_CODE":0,"TOWNNAME":"中西區","LI":"保安里","LIN":"8鄰","STREET":"國華街","SECT":"二段","MAREA":" ","LANE":" ","ALLEY":" ","HOUSE_NO":"１２７號","E_COORD97":167662.51906600001,"N_COORD97":2543554.2953900001,"ADDRESS":"國華街二段１２７號","OBJECTID":654981},"geometry":{"x":167662.51906600036,"y":2543554.2953939997}},{"attributes":{"ID":655009,"DIS_CODE":0,"TOWNNAME":"善化區","LI":"小新里","LIN":"21鄰","STREET":" ","SECT":" ","MAREA":"小新營","LANE":" ","ALLEY":" ","HOUSE_NO":"３０８號之１","E_COORD97":180385.96563600001,"N_COORD97":2558356.4337800001,"ADDRESS":"小新營３０８號之１","OBJECTID":654982},"geometry":{"x":180385.96563600097,"y":2558356.4337799978}},{"attributes":{"ID":655010,"DIS_CODE":0,"TOWNNAME":"中西區","LI":"保安里","LIN":"8鄰","STREET":"國華街","SECT":"二段","MAREA":" ","LANE":" ","ALLEY":" ","HOUSE_NO":"１２９號","E_COORD97":167664.21348800001,"N_COORD97":2543556.8353900001,"ADDRESS":"國華街二段１２９號","OBJECTID":654983},"geometry":{"x":167664.21348799951,"y":2543556.8353920002}},{"attributes":{"ID":655011,"DIS_CODE":0,"TOWNNAME":"中西區","LI":"保安里","LIN":"8鄰","STREET":"國華街","SECT":"二段","MAREA":" ","LANE":" ","ALLEY":" ","HOUSE_NO":"１３１號","E_COORD97":167665.27250200001,"N_COORD97":2543558.95206,"ADDRESS":"國華街二段１３１號","OBJECTID":654984},"geometry":{"x":167665.27250200137,"y":2543558.9520580005}},{"attributes":{"ID":655012,"DIS_CODE":0,"TOWNNAME":"善化區","LI":"小新里","LIN":"20鄰","STREET":" ","SECT":" ","MAREA":"小新營","LANE":" ","ALLEY":" ","HOUSE_NO":"１６５號之３３","E_COORD97":180183.07879500001,"N_COORD97":2558189.1535800002,"ADDRESS":"小新營１６５號之３３","OBJECTID":654985},"geometry":{"x":180183.07879500091,"y":2558189.1535800006}},{"attributes":{"ID":655013,"DIS_CODE":0,"TOWNNAME":"仁德區","LI":"新田里","LIN":"12鄰","STREET":"民安路","SECT":"一段","MAREA":" ","LANE":" ","ALLEY":" ","HOUSE_NO":"３６９號","E_COORD97":172970.46979999999,"N_COORD97":2539561.4830900002,"ADDRESS":"民安路一段３６９號","OBJECTID":654986},"geometry":{"x":172970.46980000101,"y":2539561.4830940012}},{"attributes":{"ID":655014,"DIS_CODE":0,"TOWNNAME":"仁德區","LI":"新田里","LIN":"12鄰","STREET":"民安路","SECT":"一段","MAREA":" ","LANE":" ","ALLEY":" ","HOUSE_NO":"４２１號","E_COORD97":173110.237937,"N_COORD97":2539412.2581799999,"ADDRESS":"民安路一段４２１號","OBJECTID":654987},"geometry":{"x":173110.23793699965,"y":2539412.2581750024}},{"attributes":{"ID":655015,"DIS_CODE":0,"TOWNNAME":"仁德區","LI":"新田里","LIN":"12鄰","STREET":"民安路","SECT":"一段","MAREA":" ","LANE":" ","ALLEY":" ","HOUSE_NO":"４２３號","E_COORD97":173116.379265,"N_COORD97":2539409.9298399999,"ADDRESS":"民安路一段４２３號","OBJECTID":654988},"geometry":{"x":173116.37926500011,"y":2539409.9298430011}},{"attributes":{"ID":655016,"DIS_CODE":0,"TOWNNAME":"仁德區","LI":"新田里","LIN":"12鄰","STREET":"民安路","SECT":"一段","MAREA":" ","LANE":" ","ALLEY":" ","HOUSE_NO":"４２５號","E_COORD97":173121.67351200001,"N_COORD97":2539406.54318,"ADDRESS":"民安路一段４２５號","OBJECTID":654989},"geometry":{"x":173121.67351200059,"y":2539406.5431779996}},{"attributes":{"ID":655017,"DIS_CODE":0,"TOWNNAME":"仁德區","LI":"新田里","LIN":"13鄰","STREET":"中正路","SECT":"二段","MAREA":" ","LANE":" ","ALLEY":" ","HOUSE_NO":"３８９號","E_COORD97":173261.44164999999,"N_COORD97":2539321.3473899998,"ADDRESS":"中正路二段３８９號","OBJECTID":654990},"geometry":{"x":173261.4416500004,"y":2539321.3473899998}},{"attributes":{"ID":655018,"DIS_CODE":0,"TOWNNAME":"仁德區","LI":"新田里","LIN":"13鄰","STREET":"中正路","SECT":"二段","MAREA":" ","LANE":" ","ALLEY":" ","HOUSE_NO":"４３３號","E_COORD97":173308.66633899999,"N_COORD97":2539414.9040100002,"ADDRESS":"中正路二段４３３號","OBJECTID":654991},"geometry":{"x":173308.66633899882,"y":2539414.904006999}},{"attributes":{"ID":655019,"DIS_CODE":0,"TOWNNAME":"仁德區","LI":"新田里","LIN":"15鄰","STREET":"中正路","SECT":"二段","MAREA":" ","LANE":" ","ALLEY":" ","HOUSE_NO":"４６８號","E_COORD97":173324.97262099999,"N_COORD97":2539388.5515200002,"ADDRESS":"中正路二段４６８號","OBJECTID":654992},"geometry":{"x":173324.9726210013,"y":2539388.5515210014}},{"attributes":{"ID":655020,"DIS_CODE":0,"TOWNNAME":"仁德區","LI":"新田里","LIN":"15鄰","STREET":"中正路","SECT":"二段","MAREA":" ","LANE":" ","ALLEY":" ","HOUSE_NO":"４７０號","E_COORD97":173326.45501100001,"N_COORD97":2539391.72652,"ADDRESS":"中正路二段４７０號","OBJECTID":654993},"geometry":{"x":173326.45501100086,"y":2539391.7265190016}},{"attributes":{"ID":655021,"DIS_CODE":0,"TOWNNAME":"仁德區","LI":"新田里","LIN":"15鄰","STREET":"中正路","SECT":"二段","MAREA":" ","LANE":" ","ALLEY":" ","HOUSE_NO":"４７８號","E_COORD97":173332.38456800001,"N_COORD97":2539407.8131800001,"ADDRESS":"中正路二段４７８號","OBJECTID":654994},"geometry":{"x":173332.38456800021,"y":2539407.8131770045}},{"attributes":{"ID":655022,"DIS_CODE":0,"TOWNNAME":"仁德區","LI":"新田里","LIN":"15鄰","STREET":"民安路","SECT":"二段","MAREA":" ","LANE":" ","ALLEY":" ","HOUSE_NO":"５７號","E_COORD97":173428.60587699999,"N_COORD97":2539244.4735699999,"ADDRESS":"民安路二段５７號","OBJECTID":654995},"geometry":{"x":173428.60587699991,"y":2539244.4735650029}},{"attributes":{"ID":655023,"DIS_CODE":0,"TOWNNAME":"仁德區","LI":"新田里","LIN":"15鄰","STREET":"民安路","SECT":"二段","MAREA":" ","LANE":" ","ALLEY":" ","HOUSE_NO":"５號","E_COORD97":173319.54437600001,"N_COORD97":2539314.1118600001,"ADDRESS":"民安路二段５號","OBJECTID":654996},"geometry":{"x":173319.54437599983,"y":2539314.1118599996}},{"attributes":{"ID":655024,"DIS_CODE":0,"TOWNNAME":"仁德區","LI":"新田里","LIN":"15鄰","STREET":"民安路","SECT":"二段","MAREA":" ","LANE":" ","ALLEY":" ","HOUSE_NO":"７號","E_COORD97":173323.779774,"N_COORD97":2539313.2651900002,"ADDRESS":"民安路二段７號","OBJECTID":654997},"geometry":{"x":173323.77977400087,"y":2539313.2651940025}},{"attributes":{"ID":655025,"DIS_CODE":0,"TOWNNAME":"仁德區","LI":"新田里","LIN":"18鄰","STREET":"民安路","SECT":"二段","MAREA":" ","LANE":" ","ALLEY":" ","HOUSE_NO":"４１７號","E_COORD97":174049.749342,"N_COORD97":2538744.4948499999,"ADDRESS":"民安路二段４１７號","OBJECTID":654998},"geometry":{"x":174049.74934200011,"y":2538744.4948459994}},{"attributes":{"ID":655026,"DIS_CODE":0,"TOWNNAME":"仁德區","LI":"新田里","LIN":"18鄰","STREET":"民安路","SECT":"二段","MAREA":" ","LANE":" ","ALLEY":" ","HOUSE_NO":"５２３號","E_COORD97":174345.80366999999,"N_COORD97":2538630.8299099999,"ADDRESS":"民安路二段５２３號","OBJECTID":654999},"geometry":{"x":174345.80367000122,"y":2538630.8299070019}},{"attributes":{"ID":655027,"DIS_CODE":0,"TOWNNAME":"仁德區","LI":"田厝里","LIN":"12鄰","STREET":"文華路","SECT":"二段","MAREA":" ","LANE":"３５８巷","ALLEY":" ","HOUSE_NO":"８８號","E_COORD97":171471.40711199999,"N_COORD97":2537954.48532,"ADDRESS":"文華路二段３５８巷８８號","OBJECTID":655000},"geometry":{"x":171471.40711199958,"y":2537954.4853150006}}]}