{"displayFieldName":"TOWNNAME","fieldAliases":{"ID":"ID","DIS_CODE":"DIS_CODE","TOWNNAME":"TOWNNAME","LI":"LI","LIN":"LIN","STREET":"STREET","SECT":"SECT","MAREA":"MAREA","LANE":"LANE","ALLEY":"ALLEY","HOUSE_NO":"HOUSE_NO","E_COORD97":"E_COORD97","N_COORD97":"N_COORD97","ADDRESS":"ADDRESS","OBJECTID":"OBJECTID"},"geometryType":"esriGeometryPoint","spatialReference":{"wkid":102443,"latestWkid":3826},"fields":[{"name":"ID","type":"esriFieldTypeDouble","alias":"ID"},{"name":"DIS_CODE","type":"esriFieldTypeInteger","alias":"DIS_CODE"},{"name":"TOWNNAME","type":"esriFieldTypeString","alias":"TOWNNAME","length":8},{"name":"LI","type":"esriFieldTypeString","alias":"LI","length":8},{"name":"LIN","type":"esriFieldTypeString","alias":"LIN","length":12},{"name":"STREET","type":"esriFieldTypeString","alias":"STREET","length":20},{"name":"SECT","type":"esriFieldTypeString","alias":"SECT","length":8},{"name":"MAREA","type":"esriFieldTypeString","alias":"MAREA","length":12},{"name":"LANE","type":"esriFieldTypeString","alias":"LANE","length":10},{"name":"ALLEY","type":"esriFieldTypeString","alias":"ALLEY","length":10},{"name":"HOUSE_NO","type":"esriFieldTypeString","alias":"HOUSE_NO","length":20},{"name":"E_COORD97","type":"esriFieldTypeDouble","alias":"E_COORD97"},{"name":"N_COORD97","type":"esriFieldTypeDouble","alias":"N_COORD97"},{"name":"ADDRESS","type":"esriFieldTypeString","alias":"ADDRESS","length":50},{"name":"OBJECTID","type":"esriFieldTypeOID","alias":"OBJECTID"}],"features":[{"attributes":{"ID":405825,"DIS_CODE":0,"TOWNNAME":"佳里區","LI":"建南里","LIN":"22鄰","STREET":"成功路","SECT":" ","MAREA":" ","LANE":"８５巷","ALLEY":" ","HOUSE_NO":"１２號","E_COORD97":165509.19,"N_COORD97":2561440.7599999998,"ADDRESS":"成功路８５巷１２號","OBJECTID":405801},"geometry":{"x":165509.19000000134,"y":2561440.7599999998}},{"attributes":{"ID":405826,"DIS_CODE":0,"TOWNNAME":"佳里區","LI":"建南里","LIN":"22鄰","STREET":"成功路","SECT":" ","MAREA":" ","LANE":"８５巷","ALLEY":" ","HOUSE_NO":"１６號","E_COORD97":165514.70000000001,"N_COORD97":2561440.3300000001,"ADDRESS":"成功路８５巷１６號","OBJECTID":405802},"geometry":{"x":165514.70000000019,"y":2561440.3300000001}},{"attributes":{"ID":405827,"DIS_CODE":0,"TOWNNAME":"佳里區","LI":"建南里","LIN":"22鄰","STREET":"成功路","SECT":" ","MAREA":" ","LANE":"８５巷","ALLEY":" ","HOUSE_NO":"１８號","E_COORD97":165519.14999999999,"N_COORD97":2561439.7000000002,"ADDRESS":"成功路８５巷１８號","OBJECTID":405803},"geometry":{"x":165519.15000000224,"y":2561439.7000000011}},{"attributes":{"ID":405828,"DIS_CODE":0,"TOWNNAME":"佳里區","LI":"建南里","LIN":"22鄰","STREET":"成功路","SECT":" ","MAREA":" ","LANE":"８５巷","ALLEY":" ","HOUSE_NO":"２０號","E_COORD97":165524.87,"N_COORD97":2561438.8500000001,"ADDRESS":"成功路８５巷２０號","OBJECTID":405804},"geometry":{"x":165524.87000000104,"y":2561438.8500000015}},{"attributes":{"ID":405829,"DIS_CODE":0,"TOWNNAME":"佳里區","LI":"建南里","LIN":"22鄰","STREET":"成功路","SECT":" ","MAREA":" ","LANE":"８５巷","ALLEY":" ","HOUSE_NO":"２２號","E_COORD97":165529.73999999999,"N_COORD97":2561438,"ADDRESS":"成功路８５巷２２號","OBJECTID":405805},"geometry":{"x":165529.74000000022,"y":2561438.0000000019}},{"attributes":{"ID":405830,"DIS_CODE":0,"TOWNNAME":"佳里區","LI":"建南里","LIN":"22鄰","STREET":"成功路","SECT":" ","MAREA":" ","LANE":"８５巷","ALLEY":" ","HOUSE_NO":"２６號","E_COORD97":165534.19,"N_COORD97":2561437.5800000001,"ADDRESS":"成功路８５巷２６號","OBJECTID":405806},"geometry":{"x":165534.19000000134,"y":2561437.5800000019}},{"attributes":{"ID":405831,"DIS_CODE":0,"TOWNNAME":"佳里區","LI":"建南里","LIN":"22鄰","STREET":"成功路","SECT":" ","MAREA":" ","LANE":"８５巷","ALLEY":" ","HOUSE_NO":"２８號","E_COORD97":165538.64000000001,"N_COORD97":2561436.9500000002,"ADDRESS":"成功路８５巷２８號","OBJECTID":405807},"geometry":{"x":165538.64000000153,"y":2561436.950000003}},{"attributes":{"ID":405832,"DIS_CODE":0,"TOWNNAME":"佳里區","LI":"建南里","LIN":"22鄰","STREET":"成功路","SECT":" ","MAREA":" ","LANE":"８５巷","ALLEY":" ","HOUSE_NO":"３０號","E_COORD97":165543.29999999999,"N_COORD97":2561436.3100000001,"ADDRESS":"成功路８５巷３０號","OBJECTID":405808},"geometry":{"x":165543.30000000075,"y":2561436.3100000024}},{"attributes":{"ID":405833,"DIS_CODE":0,"TOWNNAME":"佳里區","LI":"建南里","LIN":"22鄰","STREET":"成功路","SECT":" ","MAREA":" ","LANE":"８５巷","ALLEY":" ","HOUSE_NO":"３２號","E_COORD97":165548.17000000001,"N_COORD97":2561435.25,"ADDRESS":"成功路８５巷３２號","OBJECTID":405809},"geometry":{"x":165548.16999999993,"y":2561435.25}},{"attributes":{"ID":405834,"DIS_CODE":0,"TOWNNAME":"官田區","LI":"隆田里","LIN":"22鄰","STREET":"隆西街","SECT":" ","MAREA":" ","LANE":"１３巷","ALLEY":" ","HOUSE_NO":"２號","E_COORD97":179179.81,"N_COORD97":2565769.27,"ADDRESS":"隆西街１３巷２號","OBJECTID":405810},"geometry":{"x":179179.80999999959,"y":2565769.2700000014}},{"attributes":{"ID":405835,"DIS_CODE":0,"TOWNNAME":"南區","LI":"文南里","LIN":"22鄰","STREET":"中華西路","SECT":"一段","MAREA":" ","LANE":"１３７巷","ALLEY":" ","HOUSE_NO":"１７號","E_COORD97":166423.10999999999,"N_COORD97":2542470.6299999999,"ADDRESS":"中華西路一段１３７巷１７號","OBJECTID":405811},"geometry":{"x":166423.11000000127,"y":2542470.6300000008}},{"attributes":{"ID":405836,"DIS_CODE":0,"TOWNNAME":"仁德區","LI":"上崙里","LIN":"27鄰","STREET":"上崙街","SECT":" ","MAREA":" ","LANE":"４０１巷","ALLEY":" ","HOUSE_NO":"２７號","E_COORD97":173113.89999999999,"N_COORD97":2537583.9900000002,"ADDRESS":"上崙街４０１巷２７號","OBJECTID":405812},"geometry":{"x":173113.9000000013,"y":2537583.9900000021}},{"attributes":{"ID":405837,"DIS_CODE":0,"TOWNNAME":"仁德區","LI":"上崙里","LIN":"27鄰","STREET":"上崙街","SECT":" ","MAREA":" ","LANE":"３７７巷","ALLEY":" ","HOUSE_NO":"３號","E_COORD97":173141.37,"N_COORD97":2537609.25,"ADDRESS":"上崙街３７７巷３號","OBJECTID":405813},"geometry":{"x":173141.37000000104,"y":2537609.2500000019}},{"attributes":{"ID":405838,"DIS_CODE":0,"TOWNNAME":"仁德區","LI":"上崙里","LIN":"27鄰","STREET":"上崙街","SECT":" ","MAREA":" ","LANE":"４０１巷","ALLEY":" ","HOUSE_NO":"４５號","E_COORD97":173135.35999999999,"N_COORD97":2537554.2400000002,"ADDRESS":"上崙街４０１巷４５號","OBJECTID":405814},"geometry":{"x":173135.36000000034,"y":2537554.2400000039}},{"attributes":{"ID":405839,"DIS_CODE":0,"TOWNNAME":"仁德區","LI":"上崙里","LIN":"27鄰","STREET":"上崙街","SECT":" ","MAREA":" ","LANE":"４０１巷","ALLEY":" ","HOUSE_NO":"４１號","E_COORD97":173132.48999999999,"N_COORD97":2537567.2400000002,"ADDRESS":"上崙街４０１巷４１號","OBJECTID":405815},"geometry":{"x":173132.49000000022,"y":2537567.2400000002}},{"attributes":{"ID":405840,"DIS_CODE":0,"TOWNNAME":"仁德區","LI":"上崙里","LIN":"27鄰","STREET":"上崙街","SECT":" ","MAREA":" ","LANE":"４０１巷","ALLEY":" ","HOUSE_NO":"３９號","E_COORD97":173131.60000000001,"N_COORD97":2537573.9900000002,"ADDRESS":"上崙街４０１巷３９號","OBJECTID":405816},"geometry":{"x":173131.5999999987,"y":2537573.9900000021}},{"attributes":{"ID":405841,"DIS_CODE":0,"TOWNNAME":"仁德區","LI":"上崙里","LIN":"27鄰","STREET":"上崙街","SECT":" ","MAREA":" ","LANE":"４０１巷","ALLEY":" ","HOUSE_NO":"１１號","E_COORD97":173084.45000000001,"N_COORD97":2537586.98,"ADDRESS":"上崙街４０１巷１１號","OBJECTID":405817},"geometry":{"x":173084.45000000112,"y":2537586.9800000023}},{"attributes":{"ID":405842,"DIS_CODE":0,"TOWNNAME":"仁德區","LI":"上崙里","LIN":"27鄰","STREET":"上崙街","SECT":" ","MAREA":" ","LANE":"４０１巷","ALLEY":" ","HOUSE_NO":"５７號","E_COORD97":173098.98000000001,"N_COORD97":2537537,"ADDRESS":"上崙街４０１巷５７號","OBJECTID":405818},"geometry":{"x":173098.98000000045,"y":2537537}},{"attributes":{"ID":405843,"DIS_CODE":0,"TOWNNAME":"仁德區","LI":"上崙里","LIN":"27鄰","STREET":"上崙街","SECT":" ","MAREA":" ","LANE":"４０１巷","ALLEY":" ","HOUSE_NO":"５５號","E_COORD97":173140.13,"N_COORD97":2537529.25,"ADDRESS":"上崙街４０１巷５５號","OBJECTID":405819},"geometry":{"x":173140.12999999896,"y":2537529.25}},{"attributes":{"ID":405844,"DIS_CODE":0,"TOWNNAME":"仁德區","LI":"上崙里","LIN":"27鄰","STREET":"上崙街","SECT":" ","MAREA":" ","LANE":"４０１巷","ALLEY":" ","HOUSE_NO":"５３號","E_COORD97":173139.14999999999,"N_COORD97":2537534.25,"ADDRESS":"上崙街４０１巷５３號","OBJECTID":405820},"geometry":{"x":173139.1500000013,"y":2537534.2500000019}},{"attributes":{"ID":405845,"DIS_CODE":0,"TOWNNAME":"仁德區","LI":"上崙里","LIN":"27鄰","STREET":"上崙街","SECT":" ","MAREA":" ","LANE":"４０１巷","ALLEY":" ","HOUSE_NO":"４７號","E_COORD97":173136.42999999999,"N_COORD97":2537548.7400000002,"ADDRESS":"上崙街４０１巷４７號","OBJECTID":405821},"geometry":{"x":173136.43000000063,"y":2537548.7400000021}},{"attributes":{"ID":405846,"DIS_CODE":0,"TOWNNAME":"新化區","LI":"東榮里","LIN":"27鄰","STREET":"中興路","SECT":" ","MAREA":" ","LANE":"８２５巷","ALLEY":" ","HOUSE_NO":"６號","E_COORD97":179153.41290900001,"N_COORD97":2548175.0785500002,"ADDRESS":"中興路８２５巷６號","OBJECTID":405822},"geometry":{"x":179153.41290900111,"y":2548175.0785490014}},{"attributes":{"ID":405847,"DIS_CODE":0,"TOWNNAME":"永康區","LI":"西勢里","LIN":"27鄰","STREET":"廣興街","SECT":" ","MAREA":" ","LANE":"３８巷","ALLEY":" ","HOUSE_NO":"２８號","E_COORD97":176023.17000000001,"N_COORD97":2546444.7400000002,"ADDRESS":"廣興街３８巷２８號","OBJECTID":405823},"geometry":{"x":176023.16999999993,"y":2546444.7400000021}},{"attributes":{"ID":405848,"DIS_CODE":0,"TOWNNAME":"南區","LI":"文南里","LIN":"27鄰","STREET":"健康路","SECT":"二段","MAREA":" ","LANE":"５３３巷","ALLEY":" ","HOUSE_NO":"１２號","E_COORD97":166193.82999999999,"N_COORD97":2542518.5699999998,"ADDRESS":"健康路二段５３３巷１２號","OBJECTID":405824},"geometry":{"x":166193.83000000194,"y":2542518.5699999984}},{"attributes":{"ID":405849,"DIS_CODE":0,"TOWNNAME":"南區","LI":"文南里","LIN":"27鄰","STREET":"健康路","SECT":"二段","MAREA":" ","LANE":"５３３巷","ALLEY":" ","HOUSE_NO":"２號","E_COORD97":166194.29999999999,"N_COORD97":2542557.9399999999,"ADDRESS":"健康路二段５３３巷２號","OBJECTID":405825},"geometry":{"x":166194.30000000075,"y":2542557.9399999995}},{"attributes":{"ID":405850,"DIS_CODE":0,"TOWNNAME":"南區","LI":"文南里","LIN":"27鄰","STREET":"健康路","SECT":"二段","MAREA":" ","LANE":"５３３巷","ALLEY":" ","HOUSE_NO":"６號","E_COORD97":166194.14999999999,"N_COORD97":2542549.7599999998,"ADDRESS":"健康路二段５３３巷６號","OBJECTID":405826},"geometry":{"x":166194.1500000013,"y":2542549.7599999998}},{"attributes":{"ID":405851,"DIS_CODE":0,"TOWNNAME":"永康區","LI":"尚頂里","LIN":"27鄰","STREET":"南台街","SECT":" ","MAREA":" ","LANE":"５４巷","ALLEY":" ","HOUSE_NO":"３７號","E_COORD97":170332.70000000001,"N_COORD97":2547013.7400000002,"ADDRESS":"南台街５４巷３７號","OBJECTID":405827},"geometry":{"x":170332.69999999925,"y":2547013.7400000021}},{"attributes":{"ID":405852,"DIS_CODE":0,"TOWNNAME":"永康區","LI":"西灣里","LIN":"27鄰","STREET":"公園路","SECT":" ","MAREA":" ","LANE":"６３巷","ALLEY":" ","HOUSE_NO":"４９號","E_COORD97":174371.10999999999,"N_COORD97":2545826.9199999999,"ADDRESS":"公園路６３巷４９號","OBJECTID":405828},"geometry":{"x":174371.11000000034,"y":2545826.9199999999}},{"attributes":{"ID":405853,"DIS_CODE":0,"TOWNNAME":"永康區","LI":"西灣里","LIN":"27鄰","STREET":"公園路","SECT":" ","MAREA":" ","LANE":"６３巷","ALLEY":" ","HOUSE_NO":"４１號","E_COORD97":174371.81,"N_COORD97":2545844.6600000001,"ADDRESS":"公園路６３巷４１號","OBJECTID":405829},"geometry":{"x":174371.81000000052,"y":2545844.660000002}},{"attributes":{"ID":405854,"DIS_CODE":0,"TOWNNAME":"永康區","LI":"\u25A0洲里","LIN":"27鄰","STREET":"洲尾街","SECT":" ","MAREA":" ","LANE":"１４６巷","ALLEY":" ","HOUSE_NO":"１３號","E_COORD97":170998.73999999999,"N_COORD97":2549092.2799999998,"ADDRESS":"洲尾街１４６巷１３號","OBJECTID":405830},"geometry":{"x":170998.74000000209,"y":2549092.2799999993}},{"attributes":{"ID":405855,"DIS_CODE":0,"TOWNNAME":"永康區","LI":"\u25A0洲里","LIN":"27鄰","STREET":"洲尾街","SECT":" ","MAREA":" ","LANE":"１５２巷","ALLEY":" ","HOUSE_NO":"３６號","E_COORD97":171084.75,"N_COORD97":2549047.6899999999,"ADDRESS":"洲尾街１５２巷３６號","OBJECTID":405831},"geometry":{"x":171084.75,"y":2549047.6900000013}},{"attributes":{"ID":405856,"DIS_CODE":0,"TOWNNAME":"永康區","LI":"\u25A0洲里","LIN":"27鄰","STREET":"洲尾街","SECT":" ","MAREA":" ","LANE":"１４６巷","ALLEY":" ","HOUSE_NO":"１４號","E_COORD97":170987.89999999999,"N_COORD97":2549066.8199999998,"ADDRESS":"洲尾街１４６巷１４號","OBJECTID":405832},"geometry":{"x":170987.9000000013,"y":2549066.8200000003}},{"attributes":{"ID":405857,"DIS_CODE":0,"TOWNNAME":"永康區","LI":"\u25A0洲里","LIN":"27鄰","STREET":"洲尾街","SECT":" ","MAREA":" ","LANE":"１４６巷","ALLEY":" ","HOUSE_NO":"１５號","E_COORD97":170998.82999999999,"N_COORD97":2549088.2799999998,"ADDRESS":"洲尾街１４６巷１５號","OBJECTID":405833},"geometry":{"x":170998.83000000101,"y":2549088.2800000012}},{"attributes":{"ID":405858,"DIS_CODE":0,"TOWNNAME":"永康區","LI":"\u25A0洲里","LIN":"27鄰","STREET":"洲尾街","SECT":" ","MAREA":" ","LANE":"１５２巷","ALLEY":" ","HOUSE_NO":"１０號","E_COORD97":171053.38,"N_COORD97":2549097.0499999998,"ADDRESS":"洲尾街１５２巷１０號","OBJECTID":405834},"geometry":{"x":171053.38000000175,"y":2549097.0500000026}},{"attributes":{"ID":405859,"DIS_CODE":0,"TOWNNAME":"永康區","LI":"\u25A0洲里","LIN":"27鄰","STREET":"洲尾街","SECT":" ","MAREA":" ","LANE":"１４６巷","ALLEY":" ","HOUSE_NO":"７號","E_COORD97":170997.39999999999,"N_COORD97":2549104.79,"ADDRESS":"洲尾街１４６巷７號","OBJECTID":405835},"geometry":{"x":170997.40000000037,"y":2549104.790000001}},{"attributes":{"ID":405860,"DIS_CODE":0,"TOWNNAME":"永康區","LI":"\u25A0洲里","LIN":"27鄰","STREET":"洲尾街","SECT":" ","MAREA":" ","LANE":"１４６巷","ALLEY":" ","HOUSE_NO":"４號","E_COORD97":170985.64999999999,"N_COORD97":2549103.5800000001,"ADDRESS":"洲尾街１４６巷４號","OBJECTID":405836},"geometry":{"x":170985.65000000037,"y":2549103.5800000019}},{"attributes":{"ID":405861,"DIS_CODE":0,"TOWNNAME":"永康區","LI":"\u25A0洲里","LIN":"27鄰","STREET":"洲尾街","SECT":" ","MAREA":" ","LANE":"１５２巷","ALLEY":" ","HOUSE_NO":"４２號","E_COORD97":171096.67000000001,"N_COORD97":2549053.1899999999,"ADDRESS":"洲尾街１５２巷４２號","OBJECTID":405837},"geometry":{"x":171096.66999999993,"y":2549053.1899999995}},{"attributes":{"ID":405862,"DIS_CODE":0,"TOWNNAME":"永康區","LI":"\u25A0洲里","LIN":"27鄰","STREET":"洲尾街","SECT":" ","MAREA":" ","LANE":"１５２巷","ALLEY":" ","HOUSE_NO":"３２號","E_COORD97":171065.67000000001,"N_COORD97":2549053.2999999998,"ADDRESS":"洲尾街１５２巷３２號","OBJECTID":405838},"geometry":{"x":171065.67000000086,"y":2549053.3000000007}},{"attributes":{"ID":405863,"DIS_CODE":0,"TOWNNAME":"永康區","LI":"\u25A0洲里","LIN":"27鄰","STREET":"洲尾街","SECT":" ","MAREA":" ","LANE":"１５２巷","ALLEY":" ","HOUSE_NO":"８號","E_COORD97":171051.56,"N_COORD97":2549101.3100000001,"ADDRESS":"洲尾街１５２巷８號","OBJECTID":405839},"geometry":{"x":171051.55999999959,"y":2549101.3099999987}},{"attributes":{"ID":405864,"DIS_CODE":0,"TOWNNAME":"永康區","LI":"\u25A0洲里","LIN":"27鄰","STREET":"洲尾街","SECT":" ","MAREA":" ","LANE":"１５２巷","ALLEY":" ","HOUSE_NO":"６號","E_COORD97":171051.17000000001,"N_COORD97":2549105.3100000001,"ADDRESS":"洲尾街１５２巷６號","OBJECTID":405840},"geometry":{"x":171051.16999999993,"y":2549105.3100000024}},{"attributes":{"ID":405865,"DIS_CODE":0,"TOWNNAME":"安南區","LI":"\u25A0南里","LIN":"27鄰","STREET":"環福街","SECT":" ","MAREA":" ","LANE":"２２０巷","ALLEY":" ","HOUSE_NO":"２２號","E_COORD97":170295.67999999999,"N_COORD97":2552720.8700000001,"ADDRESS":"環福街２２０巷２２號","OBJECTID":405841},"geometry":{"x":170295.68000000063,"y":2552720.870000001}},{"attributes":{"ID":405866,"DIS_CODE":0,"TOWNNAME":"佳里區","LI":"安西里","LIN":"27鄰","STREET":"安西路","SECT":" ","MAREA":" ","LANE":"３４９巷","ALLEY":" ","HOUSE_NO":"７號","E_COORD97":165237.59,"N_COORD97":2563075.2799999998,"ADDRESS":"安西路３４９巷７號","OBJECTID":405842},"geometry":{"x":165237.59000000171,"y":2563075.2799999993}},{"attributes":{"ID":405867,"DIS_CODE":0,"TOWNNAME":"安南區","LI":"\u25A0南里","LIN":"27鄰","STREET":"環福街","SECT":" ","MAREA":" ","LANE":"２２０巷","ALLEY":" ","HOUSE_NO":"１６號","E_COORD97":170286.98999999999,"N_COORD97":2552705.0800000001,"ADDRESS":"環福街２２０巷１６號","OBJECTID":405843},"geometry":{"x":170286.99000000115,"y":2552705.0800000001}},{"attributes":{"ID":405868,"DIS_CODE":0,"TOWNNAME":"永康區","LI":"龍潭里","LIN":"27鄰","STREET":"中山北路","SECT":" ","MAREA":" ","LANE":"４６１巷","ALLEY":" ","HOUSE_NO":"１６號","E_COORD97":175114.87,"N_COORD97":2547815.6000000001,"ADDRESS":"中山北路４６１巷１６號","OBJECTID":405844},"geometry":{"x":175114.87000000011,"y":2547815.5999999996}},{"attributes":{"ID":405869,"DIS_CODE":0,"TOWNNAME":"東區","LI":"莊敬里","LIN":"27鄰","STREET":"東光路","SECT":"二段","MAREA":" ","LANE":"１４巷","ALLEY":" ","HOUSE_NO":"２９號","E_COORD97":171315.51999999999,"N_COORD97":2543996.1800000002,"ADDRESS":"東光路二段１４巷２９號","OBJECTID":405845},"geometry":{"x":171315.52000000048,"y":2543996.1800000016}},{"attributes":{"ID":405870,"DIS_CODE":0,"TOWNNAME":"東區","LI":"莊敬里","LIN":"27鄰","STREET":"東光路","SECT":"二段","MAREA":" ","LANE":"１４巷","ALLEY":" ","HOUSE_NO":"３１號","E_COORD97":171321.38,"N_COORD97":2543995.3399999999,"ADDRESS":"東光路二段１４巷３１號","OBJECTID":405846},"geometry":{"x":171321.38000000175,"y":2543995.3400000017}},{"attributes":{"ID":405871,"DIS_CODE":0,"TOWNNAME":"東區","LI":"莊敬里","LIN":"27鄰","STREET":"東光路","SECT":"二段","MAREA":" ","LANE":"１４巷","ALLEY":" ","HOUSE_NO":"５號","E_COORD97":171248.31,"N_COORD97":2544014.5299999998,"ADDRESS":"東光路二段１４巷５號","OBJECTID":405847},"geometry":{"x":171248.30999999959,"y":2544014.5300000012}},{"attributes":{"ID":405872,"DIS_CODE":0,"TOWNNAME":"東區","LI":"莊敬里","LIN":"27鄰","STREET":"東光路","SECT":"二段","MAREA":" ","LANE":"１４巷","ALLEY":" ","HOUSE_NO":"７號","E_COORD97":171255.29999999999,"N_COORD97":2544014.1400000001,"ADDRESS":"東光路二段１４巷７號","OBJECTID":405848},"geometry":{"x":171255.29999999981,"y":2544014.1400000025}},{"attributes":{"ID":405873,"DIS_CODE":0,"TOWNNAME":"永康區","LI":"\u25A0洲里","LIN":"27鄰","STREET":"洲尾街","SECT":" ","MAREA":" ","LANE":"１５２巷","ALLEY":" ","HOUSE_NO":"２號","E_COORD97":171050.37,"N_COORD97":2549113.3100000001,"ADDRESS":"洲尾街１５２巷２號","OBJECTID":405849},"geometry":{"x":171050.37000000197,"y":2549113.3100000024}},{"attributes":{"ID":405874,"DIS_CODE":0,"TOWNNAME":"永康區","LI":"\u25A0洲里","LIN":"27鄰","STREET":"洲尾街","SECT":" ","MAREA":" ","LANE":"１４６巷","ALLEY":" ","HOUSE_NO":"１２號","E_COORD97":170987.89999999999,"N_COORD97":2549074.8199999998,"ADDRESS":"洲尾街１４６巷１２號","OBJECTID":405850},"geometry":{"x":170987.9000000013,"y":2549074.8200000022}},{"attributes":{"ID":405875,"DIS_CODE":0,"TOWNNAME":"永康區","LI":"\u25A0洲里","LIN":"27鄰","STREET":"洲尾街","SECT":" ","MAREA":" ","LANE":"１５２巷","ALLEY":" ","HOUSE_NO":"１２號","E_COORD97":171054.22,"N_COORD97":2549093.2999999998,"ADDRESS":"洲尾街１５２巷１２號","OBJECTID":405851},"geometry":{"x":171054.21999999974,"y":2549093.3000000026}},{"attributes":{"ID":405876,"DIS_CODE":0,"TOWNNAME":"永康區","LI":"\u25A0行里","LIN":"27鄰","STREET":"中正南路","SECT":" ","MAREA":" ","LANE":"３４４巷","ALLEY":" ","HOUSE_NO":"４號","E_COORD97":170981.09,"N_COORD97":2547964.5,"ADDRESS":"中正南路３４４巷４號","OBJECTID":405852},"geometry":{"x":170981.09000000078,"y":2547964.5000000019}},{"attributes":{"ID":405877,"DIS_CODE":0,"TOWNNAME":"永康區","LI":"\u25A0洲里","LIN":"27鄰","STREET":"洲尾街","SECT":" ","MAREA":" ","LANE":"１５２巷","ALLEY":" ","HOUSE_NO":"１６號","E_COORD97":171055.72,"N_COORD97":2549084.7999999998,"ADDRESS":"洲尾街１５２巷１６號","OBJECTID":405853},"geometry":{"x":171055.71999999974,"y":2549084.8000000045}},{"attributes":{"ID":405878,"DIS_CODE":0,"TOWNNAME":"永康區","LI":"\u25A0洲里","LIN":"27鄰","STREET":"洲尾街","SECT":" ","MAREA":" ","LANE":"１４６巷","ALLEY":" ","HOUSE_NO":"２７號","E_COORD97":170997.95000000001,"N_COORD97":2549076.9199999999,"ADDRESS":"洲尾街１４６巷２７號","OBJECTID":405854},"geometry":{"x":170997.95000000112,"y":2549076.9200000018}},{"attributes":{"ID":405879,"DIS_CODE":0,"TOWNNAME":"永康區","LI":"永康里","LIN":"27鄰","STREET":"永康街","SECT":" ","MAREA":" ","LANE":"３１０巷","ALLEY":" ","HOUSE_NO":"５號","E_COORD97":174220.63,"N_COORD97":2547002.79,"ADDRESS":"永康街３１０巷５號","OBJECTID":405855},"geometry":{"x":174220.63000000082,"y":2547002.790000001}},{"attributes":{"ID":405880,"DIS_CODE":0,"TOWNNAME":"新營區","LI":"忠政里","LIN":"27鄰","STREET":"中正路","SECT":" ","MAREA":" ","LANE":"３９巷","ALLEY":" ","HOUSE_NO":"５８號","E_COORD97":179890.67000000001,"N_COORD97":2579276.4700000002,"ADDRESS":"中正路３９巷５８號","OBJECTID":405856},"geometry":{"x":179890.67000000086,"y":2579276.4700000025}},{"attributes":{"ID":405881,"DIS_CODE":0,"TOWNNAME":"安平區","LI":"建平里","LIN":"27鄰","STREET":"建平八街","SECT":" ","MAREA":" ","LANE":"１０８巷","ALLEY":" ","HOUSE_NO":"５２號","E_COORD97":165856.85000000001,"N_COORD97":2543667.1200000001,"ADDRESS":"建平八街１０８巷５２號","OBJECTID":405857},"geometry":{"x":165856.84999999963,"y":2543667.120000001}},{"attributes":{"ID":405882,"DIS_CODE":0,"TOWNNAME":"安平區","LI":"建平里","LIN":"27鄰","STREET":"建平八街","SECT":" ","MAREA":" ","LANE":"１０８巷","ALLEY":" ","HOUSE_NO":"５４號","E_COORD97":165857.92000000001,"N_COORD97":2543671.4100000001,"ADDRESS":"建平八街１０８巷５４號","OBJECTID":405858},"geometry":{"x":165857.92000000086,"y":2543671.4100000001}},{"attributes":{"ID":405883,"DIS_CODE":0,"TOWNNAME":"新營區","LI":"南紙里","LIN":"27鄰","STREET":"太子路","SECT":" ","MAREA":" ","LANE":"２００巷","ALLEY":" ","HOUSE_NO":"９７號","E_COORD97":177841.14999999999,"N_COORD97":2578064.7799999998,"ADDRESS":"太子路２００巷９７號","OBJECTID":405859},"geometry":{"x":177841.15000000037,"y":2578064.7800000012}},{"attributes":{"ID":405884,"DIS_CODE":0,"TOWNNAME":"北區","LI":"重興里","LIN":"27鄰","STREET":"東豐路","SECT":" ","MAREA":" ","LANE":"４５１巷","ALLEY":" ","HOUSE_NO":"１２９號","E_COORD97":170801.12,"N_COORD97":2544883.9900000002,"ADDRESS":"東豐路４５１巷１２９號","OBJECTID":405860},"geometry":{"x":170801.12000000197,"y":2544883.9900000021}},{"attributes":{"ID":405885,"DIS_CODE":0,"TOWNNAME":"北區","LI":"重興里","LIN":"27鄰","STREET":"東豐路","SECT":" ","MAREA":" ","LANE":"４５１巷","ALLEY":" ","HOUSE_NO":"１３１號","E_COORD97":170806.57999999999,"N_COORD97":2544891.6299999999,"ADDRESS":"東豐路４５１巷１３１號","OBJECTID":405861},"geometry":{"x":170806.58000000194,"y":2544891.6300000008}},{"attributes":{"ID":405886,"DIS_CODE":0,"TOWNNAME":"北區","LI":"重興里","LIN":"27鄰","STREET":"東豐路","SECT":" ","MAREA":" ","LANE":"４５１巷","ALLEY":" ","HOUSE_NO":"１３３號","E_COORD97":170811.75,"N_COORD97":2544900.4700000002,"ADDRESS":"東豐路４５１巷１３３號","OBJECTID":405862},"geometry":{"x":170811.75,"y":2544900.4700000025}},{"attributes":{"ID":405887,"DIS_CODE":0,"TOWNNAME":"北區","LI":"重興里","LIN":"27鄰","STREET":"東豐路","SECT":" ","MAREA":" ","LANE":"４５１巷","ALLEY":" ","HOUSE_NO":"１３５號","E_COORD97":170817.51999999999,"N_COORD97":2544908.3599999999,"ADDRESS":"東豐路４５１巷１３５號","OBJECTID":405863},"geometry":{"x":170817.51999999955,"y":2544908.3599999994}},{"attributes":{"ID":405888,"DIS_CODE":0,"TOWNNAME":"北區","LI":"重興里","LIN":"27鄰","STREET":"東豐路","SECT":" ","MAREA":" ","LANE":"４５１巷","ALLEY":" ","HOUSE_NO":"１３７號","E_COORD97":170822.20000000001,"N_COORD97":2544917.1800000002,"ADDRESS":"東豐路４５１巷１３７號","OBJECTID":405864},"geometry":{"x":170822.20000000019,"y":2544917.1799999997}},{"attributes":{"ID":405889,"DIS_CODE":0,"TOWNNAME":"北區","LI":"重興里","LIN":"27鄰","STREET":"東豐路","SECT":" ","MAREA":" ","LANE":"４５１巷","ALLEY":" ","HOUSE_NO":"１３９號","E_COORD97":170826.87,"N_COORD97":2544924.9300000002,"ADDRESS":"東豐路４５１巷１３９號","OBJECTID":405865},"geometry":{"x":170826.87000000104,"y":2544924.9299999997}},{"attributes":{"ID":405890,"DIS_CODE":0,"TOWNNAME":"新營區","LI":"王公里","LIN":"27鄰","STREET":"民族路","SECT":" ","MAREA":" ","LANE":"３０８巷","ALLEY":" ","HOUSE_NO":"３８號","E_COORD97":180474.39999999999,"N_COORD97":2579732.8199999998,"ADDRESS":"民族路３０８巷３８號","OBJECTID":405866},"geometry":{"x":180474.4000000013,"y":2579732.8200000003}},{"attributes":{"ID":405891,"DIS_CODE":0,"TOWNNAME":"新營區","LI":"新東里","LIN":"27鄰","STREET":"東光街","SECT":" ","MAREA":" ","LANE":"４０巷","ALLEY":" ","HOUSE_NO":"３９號","E_COORD97":180704.34,"N_COORD97":2579594.8999999999,"ADDRESS":"東光街４０巷３９號","OBJECTID":405867},"geometry":{"x":180704.34000000171,"y":2579594.9000000022}},{"attributes":{"ID":405892,"DIS_CODE":0,"TOWNNAME":"新營區","LI":"新東里","LIN":"27鄰","STREET":"東光街","SECT":" ","MAREA":" ","LANE":"１巷","ALLEY":" ","HOUSE_NO":"６號","E_COORD97":180588.17000000001,"N_COORD97":2579532.3100000001,"ADDRESS":"東光街１巷６號","OBJECTID":405868},"geometry":{"x":180588.16999999993,"y":2579532.3100000005}},{"attributes":{"ID":405893,"DIS_CODE":0,"TOWNNAME":"歸仁區","LI":"後市里","LIN":"27鄰","STREET":"民族北街","SECT":" ","MAREA":" ","LANE":"１７巷","ALLEY":" ","HOUSE_NO":"１７號","E_COORD97":177377.17999999999,"N_COORD97":2540867.75,"ADDRESS":"民族北街１７巷１７號","OBJECTID":405869},"geometry":{"x":177377.1799999997,"y":2540867.7500000019}},{"attributes":{"ID":405894,"DIS_CODE":0,"TOWNNAME":"歸仁區","LI":"新厝里","LIN":"27鄰","STREET":"中正南路","SECT":"一段","MAREA":" ","LANE":"４５３巷","ALLEY":" ","HOUSE_NO":"７７號","E_COORD97":177080.81,"N_COORD97":2539966.25,"ADDRESS":"中正南路一段４５３巷７７號","OBJECTID":405870},"geometry":{"x":177080.81000000052,"y":2539966.25}},{"attributes":{"ID":405895,"DIS_CODE":0,"TOWNNAME":"安平區","LI":"怡平里","LIN":"27鄰","STREET":"永華六街","SECT":" ","MAREA":" ","LANE":"３５巷","ALLEY":" ","HOUSE_NO":"１號之４","E_COORD97":165547.70000000001,"N_COORD97":2543622.5099999998,"ADDRESS":"永華六街３５巷１號之４","OBJECTID":405871},"geometry":{"x":165547.70000000112,"y":2543622.5099999998}},{"attributes":{"ID":405896,"DIS_CODE":0,"TOWNNAME":"新營區","LI":"新北里","LIN":"27鄰","STREET":"民生路","SECT":" ","MAREA":" ","LANE":"３８５巷","ALLEY":" ","HOUSE_NO":"７號","E_COORD97":178868.06,"N_COORD97":2579148.4500000002,"ADDRESS":"民生路３８５巷７號","OBJECTID":405872},"geometry":{"x":178868.05999999959,"y":2579148.4500000011}},{"attributes":{"ID":405897,"DIS_CODE":0,"TOWNNAME":"南區","LI":"金華里","LIN":"27鄰","STREET":"健康路","SECT":"二段","MAREA":" ","LANE":"４０１巷","ALLEY":" ","HOUSE_NO":"１７號","E_COORD97":166607.29000000001,"N_COORD97":2542403.6400000001,"ADDRESS":"健康路二段４０１巷１７號","OBJECTID":405873},"geometry":{"x":166607.29000000004,"y":2542403.6400000025}},{"attributes":{"ID":405898,"DIS_CODE":0,"TOWNNAME":"南區","LI":"金華里","LIN":"27鄰","STREET":"健康路","SECT":"二段","MAREA":" ","LANE":"４０１巷","ALLEY":" ","HOUSE_NO":"１號","E_COORD97":166604.98999999999,"N_COORD97":2542495,"ADDRESS":"健康路二段４０１巷１號","OBJECTID":405874},"geometry":{"x":166604.99000000209,"y":2542494.9999999981}},{"attributes":{"ID":405899,"DIS_CODE":0,"TOWNNAME":"南區","LI":"金華里","LIN":"27鄰","STREET":"健康路","SECT":"二段","MAREA":" ","LANE":"４０１巷","ALLEY":" ","HOUSE_NO":"３號","E_COORD97":166602.75,"N_COORD97":2542486.96,"ADDRESS":"健康路二段４０１巷３號","OBJECTID":405875},"geometry":{"x":166602.74999999907,"y":2542486.9600000028}},{"attributes":{"ID":405900,"DIS_CODE":0,"TOWNNAME":"南區","LI":"金華里","LIN":"27鄰","STREET":"健康路","SECT":"二段","MAREA":" ","LANE":"４０１巷","ALLEY":" ","HOUSE_NO":"５號","E_COORD97":166601.06,"N_COORD97":2542480.7999999998,"ADDRESS":"健康路二段４０１巷５號","OBJECTID":405876},"geometry":{"x":166601.06000000052,"y":2542480.8000000026}},{"attributes":{"ID":405901,"DIS_CODE":0,"TOWNNAME":"南區","LI":"金華里","LIN":"27鄰","STREET":"健康路","SECT":"二段","MAREA":" ","LANE":"４０１巷","ALLEY":" ","HOUSE_NO":"７號","E_COORD97":166602.23999999999,"N_COORD97":2542446.98,"ADDRESS":"健康路二段４０１巷７號","OBJECTID":405877},"geometry":{"x":166602.24000000115,"y":2542446.9800000004}},{"attributes":{"ID":405902,"DIS_CODE":0,"TOWNNAME":"南區","LI":"金華里","LIN":"27鄰","STREET":"健康路","SECT":"二段","MAREA":" ","LANE":"４０１巷","ALLEY":" ","HOUSE_NO":"９號","E_COORD97":166604.10999999999,"N_COORD97":2542436.71,"ADDRESS":"健康路二段４０１巷９號","OBJECTID":405878},"geometry":{"x":166604.1100000022,"y":2542436.7100000009}},{"attributes":{"ID":405903,"DIS_CODE":0,"TOWNNAME":"新營區","LI":"忠政里","LIN":"27鄰","STREET":"中正路","SECT":" ","MAREA":" ","LANE":"３９巷","ALLEY":" ","HOUSE_NO":"１０９號","E_COORD97":179896.29999999999,"N_COORD97":2579340.6699999999,"ADDRESS":"中正路３９巷１０９號","OBJECTID":405879},"geometry":{"x":179896.30000000075,"y":2579340.6700000037}},{"attributes":{"ID":405904,"DIS_CODE":0,"TOWNNAME":"南區","LI":"喜北里","LIN":"13鄰","STREET":"喜樹路","SECT":" ","MAREA":" ","LANE":"２０６巷","ALLEY":" ","HOUSE_NO":"７號","E_COORD97":165735.78,"N_COORD97":2538121.6299999999,"ADDRESS":"喜樹路２０６巷７號","OBJECTID":405880},"geometry":{"x":165735.78000000119,"y":2538121.629999999}},{"attributes":{"ID":405905,"DIS_CODE":0,"TOWNNAME":"新營區","LI":"忠政里","LIN":"27鄰","STREET":"中正路","SECT":" ","MAREA":" ","LANE":"３９巷","ALLEY":" ","HOUSE_NO":"６６號","E_COORD97":179874.29999999999,"N_COORD97":2579275.4399999999,"ADDRESS":"中正路３９巷６６號","OBJECTID":405881},"geometry":{"x":179874.30000000075,"y":2579275.4400000013}},{"attributes":{"ID":405906,"DIS_CODE":0,"TOWNNAME":"安平區","LI":"國平里","LIN":"27鄰","STREET":"府平路","SECT":" ","MAREA":" ","LANE":"１４４巷","ALLEY":" ","HOUSE_NO":"６３之１號","E_COORD97":164786.73999999999,"N_COORD97":2543247.5600000001,"ADDRESS":"府平路１４４巷６３之１號","OBJECTID":405882},"geometry":{"x":164786.74000000115,"y":2543247.5600000005}},{"attributes":{"ID":405907,"DIS_CODE":0,"TOWNNAME":"安平區","LI":"國平里","LIN":"27鄰","STREET":"府平路","SECT":" ","MAREA":" ","LANE":"１４４巷","ALLEY":" ","HOUSE_NO":"６３號","E_COORD97":164798.85000000001,"N_COORD97":2543246.0800000001,"ADDRESS":"府平路１４４巷６３號","OBJECTID":405883},"geometry":{"x":164798.85000000056,"y":2543246.0800000001}},{"attributes":{"ID":405908,"DIS_CODE":0,"TOWNNAME":"安平區","LI":"國平里","LIN":"27鄰","STREET":"府平路","SECT":" ","MAREA":" ","LANE":"１４４巷","ALLEY":" ","HOUSE_NO":"６５之１號","E_COORD97":164787.35999999999,"N_COORD97":2543250.52,"ADDRESS":"府平路１４４巷６５之１號","OBJECTID":405884},"geometry":{"x":164787.36000000127,"y":2543250.5200000033}},{"attributes":{"ID":405909,"DIS_CODE":0,"TOWNNAME":"安平區","LI":"國平里","LIN":"27鄰","STREET":"府平路","SECT":" ","MAREA":" ","LANE":"１４４巷","ALLEY":" ","HOUSE_NO":"６５號","E_COORD97":164799.22,"N_COORD97":2543249.04,"ADDRESS":"府平路１４４巷６５號","OBJECTID":405885},"geometry":{"x":164799.2200000016,"y":2543249.0399999991}},{"attributes":{"ID":405910,"DIS_CODE":0,"TOWNNAME":"北區","LI":"大港里","LIN":"27鄰","STREET":"中華北路","SECT":"一段","MAREA":" ","LANE":"２６３巷","ALLEY":" ","HOUSE_NO":"２９號","E_COORD97":166258.03,"N_COORD97":2545797.7400000002,"ADDRESS":"中華北路一段２６３巷２９號","OBJECTID":405886},"geometry":{"x":166258.03000000026,"y":2545797.7400000002}},{"attributes":{"ID":405911,"DIS_CODE":0,"TOWNNAME":"北區","LI":"大港里","LIN":"27鄰","STREET":"中華北路","SECT":"一段","MAREA":" ","LANE":"２６３巷","ALLEY":" ","HOUSE_NO":"２７號","E_COORD97":166262.95000000001,"N_COORD97":2545800.5899999999,"ADDRESS":"中華北路一段２６３巷２７號","OBJECTID":405887},"geometry":{"x":166262.95000000112,"y":2545800.5900000017}},{"attributes":{"ID":405912,"DIS_CODE":0,"TOWNNAME":"新營區","LI":"忠政里","LIN":"27鄰","STREET":"中正路","SECT":" ","MAREA":" ","LANE":"３９巷","ALLEY":" ","HOUSE_NO":"６４號","E_COORD97":179878.39000000001,"N_COORD97":2579275.4199999999,"ADDRESS":"中正路３９巷６４號","OBJECTID":405888},"geometry":{"x":179878.39000000153,"y":2579275.4200000018}},{"attributes":{"ID":405913,"DIS_CODE":0,"TOWNNAME":"新營區","LI":"忠政里","LIN":"27鄰","STREET":"中正路","SECT":" ","MAREA":" ","LANE":"３９巷","ALLEY":" ","HOUSE_NO":"７２號","E_COORD97":179861.01999999999,"N_COORD97":2579274.3900000001,"ADDRESS":"中正路３９巷７２號","OBJECTID":405889},"geometry":{"x":179861.02000000048,"y":2579274.3900000006}},{"attributes":{"ID":405914,"DIS_CODE":0,"TOWNNAME":"新營區","LI":"忠政里","LIN":"27鄰","STREET":"中正路","SECT":" ","MAREA":" ","LANE":"３９巷","ALLEY":" ","HOUSE_NO":"５６之１號","E_COORD97":179904.48000000001,"N_COORD97":2579288.6400000001,"ADDRESS":"中正路３９巷５６之１號","OBJECTID":405890},"geometry":{"x":179904.48000000138,"y":2579288.6400000025}},{"attributes":{"ID":405915,"DIS_CODE":0,"TOWNNAME":"南區","LI":"文南里","LIN":"27鄰","STREET":"健康路","SECT":"二段","MAREA":" ","LANE":"４８９巷","ALLEY":" ","HOUSE_NO":"１６號","E_COORD97":166314.76999999999,"N_COORD97":2542528.8300000001,"ADDRESS":"健康路二段４８９巷１６號","OBJECTID":405891},"geometry":{"x":166314.77000000048,"y":2542528.8300000001}},{"attributes":{"ID":405916,"DIS_CODE":0,"TOWNNAME":"南區","LI":"文南里","LIN":"27鄰","STREET":"健康路","SECT":"二段","MAREA":" ","LANE":"４８９巷","ALLEY":" ","HOUSE_NO":"１８號","E_COORD97":166314.42000000001,"N_COORD97":2542524.5600000001,"ADDRESS":"健康路二段４８９巷１８號","OBJECTID":405892},"geometry":{"x":166314.41999999993,"y":2542524.5600000005}},{"attributes":{"ID":405917,"DIS_CODE":0,"TOWNNAME":"南區","LI":"文南里","LIN":"27鄰","STREET":"健康路","SECT":"二段","MAREA":" ","LANE":"４８９巷","ALLEY":" ","HOUSE_NO":"２０號","E_COORD97":166313.34,"N_COORD97":2542518.75,"ADDRESS":"健康路二段４８９巷２０號","OBJECTID":405893},"geometry":{"x":166313.33999999985,"y":2542518.7500000019}},{"attributes":{"ID":405918,"DIS_CODE":0,"TOWNNAME":"南區","LI":"文南里","LIN":"27鄰","STREET":"健康路","SECT":"二段","MAREA":" ","LANE":"４８９巷","ALLEY":" ","HOUSE_NO":"２２號","E_COORD97":166312.81,"N_COORD97":2542513.25,"ADDRESS":"健康路二段４８９巷２２號","OBJECTID":405894},"geometry":{"x":166312.81000000052,"y":2542513.25}},{"attributes":{"ID":405919,"DIS_CODE":0,"TOWNNAME":"南區","LI":"文南里","LIN":"27鄰","STREET":"健康路","SECT":"二段","MAREA":" ","LANE":"４８９巷","ALLEY":" ","HOUSE_NO":"２４號","E_COORD97":166312.01999999999,"N_COORD97":2542508.71,"ADDRESS":"健康路二段４８９巷２４號","OBJECTID":405895},"geometry":{"x":166312.01999999955,"y":2542508.7100000028}},{"attributes":{"ID":405920,"DIS_CODE":0,"TOWNNAME":"南區","LI":"文南里","LIN":"27鄰","STREET":"健康路","SECT":"二段","MAREA":" ","LANE":"４８９巷","ALLEY":" ","HOUSE_NO":"２６號","E_COORD97":166312.19,"N_COORD97":2542503.46,"ADDRESS":"健康路二段４８９巷２６號","OBJECTID":405896},"geometry":{"x":166312.19000000227,"y":2542503.4600000028}},{"attributes":{"ID":405921,"DIS_CODE":0,"TOWNNAME":"安平區","LI":"建平里","LIN":"27鄰","STREET":"建平八街","SECT":" ","MAREA":" ","LANE":"１０８巷","ALLEY":" ","HOUSE_NO":"１７號","E_COORD97":165836.35000000001,"N_COORD97":2543636.0099999998,"ADDRESS":"建平八街１０８巷１７號","OBJECTID":405897},"geometry":{"x":165836.35000000056,"y":2543636.0099999998}},{"attributes":{"ID":405922,"DIS_CODE":0,"TOWNNAME":"安平區","LI":"建平里","LIN":"27鄰","STREET":"建平八街","SECT":" ","MAREA":" ","LANE":"１０８巷","ALLEY":" ","HOUSE_NO":"１９號","E_COORD97":165836.54999999999,"N_COORD97":2543639.7999999998,"ADDRESS":"建平八街１０８巷１９號","OBJECTID":405898},"geometry":{"x":165836.55000000075,"y":2543639.8000000045}},{"attributes":{"ID":405923,"DIS_CODE":0,"TOWNNAME":"安平區","LI":"建平里","LIN":"27鄰","STREET":"建平八街","SECT":" ","MAREA":" ","LANE":"１０８巷","ALLEY":" ","HOUSE_NO":"２１號","E_COORD97":165837.95000000001,"N_COORD97":2543644.1800000002,"ADDRESS":"建平八街１０８巷２１號","OBJECTID":405899},"geometry":{"x":165837.95000000112,"y":2543644.1800000016}},{"attributes":{"ID":405924,"DIS_CODE":0,"TOWNNAME":"安南區","LI":"溪東里","LIN":"1鄰","STREET":"府安路","SECT":"五段","MAREA":" ","LANE":"１４４巷","ALLEY":" ","HOUSE_NO":"１０號","E_COORD97":167890.91,"N_COORD97":2547095.2400000002,"ADDRESS":"府安路五段１４４巷１０號","OBJECTID":405900},"geometry":{"x":167890.91000000108,"y":2547095.2400000021}},{"attributes":{"ID":405925,"DIS_CODE":0,"TOWNNAME":"安南區","LI":"溪東里","LIN":"1鄰","STREET":"府安路","SECT":"五段","MAREA":" ","LANE":"１４４巷","ALLEY":" ","HOUSE_NO":"１２號","E_COORD97":167889.72,"N_COORD97":2547099.71,"ADDRESS":"府安路五段１４４巷１２號","OBJECTID":405901},"geometry":{"x":167889.72000000067,"y":2547099.7100000028}},{"attributes":{"ID":405926,"DIS_CODE":0,"TOWNNAME":"安南區","LI":"溪東里","LIN":"1鄰","STREET":"府安路","SECT":"五段","MAREA":" ","LANE":"１４４巷","ALLEY":" ","HOUSE_NO":"１４號","E_COORD97":167888.67999999999,"N_COORD97":2547105.5699999998,"ADDRESS":"府安路五段１４４巷１４號","OBJECTID":405902},"geometry":{"x":167888.68000000063,"y":2547105.5700000003}},{"attributes":{"ID":405927,"DIS_CODE":0,"TOWNNAME":"安南區","LI":"溪東里","LIN":"1鄰","STREET":"府安路","SECT":"五段","MAREA":" ","LANE":"１４４巷","ALLEY":" ","HOUSE_NO":"１６號","E_COORD97":167888.07999999999,"N_COORD97":2547110.9300000002,"ADDRESS":"府安路五段１４４巷１６號","OBJECTID":405903},"geometry":{"x":167888.08000000101,"y":2547110.9300000016}},{"attributes":{"ID":405928,"DIS_CODE":0,"TOWNNAME":"安南區","LI":"溪東里","LIN":"1鄰","STREET":"府安路","SECT":"五段","MAREA":" ","LANE":"１４４巷","ALLEY":" ","HOUSE_NO":"１８號","E_COORD97":167888.07999999999,"N_COORD97":2547117.6400000001,"ADDRESS":"府安路五段１４４巷１８號","OBJECTID":405904},"geometry":{"x":167888.08000000101,"y":2547117.6400000025}},{"attributes":{"ID":405929,"DIS_CODE":0,"TOWNNAME":"安平區","LI":"建平里","LIN":"27鄰","STREET":"建平八街","SECT":" ","MAREA":" ","LANE":"１０８巷","ALLEY":" ","HOUSE_NO":"２３號","E_COORD97":165838.54999999999,"N_COORD97":2543648.3599999999,"ADDRESS":"建平八街１０８巷２３號","OBJECTID":405905},"geometry":{"x":165838.55000000075,"y":2543648.3600000031}},{"attributes":{"ID":405930,"DIS_CODE":0,"TOWNNAME":"安平區","LI":"建平里","LIN":"27鄰","STREET":"建平八街","SECT":" ","MAREA":" ","LANE":"１０８巷","ALLEY":" ","HOUSE_NO":"２５號","E_COORD97":165839.14000000001,"N_COORD97":2543651.9500000002,"ADDRESS":"建平八街１０８巷２５號","OBJECTID":405906},"geometry":{"x":165839.1400000006,"y":2543651.9500000011}},{"attributes":{"ID":405931,"DIS_CODE":0,"TOWNNAME":"安平區","LI":"建平里","LIN":"27鄰","STREET":"建平八街","SECT":" ","MAREA":" ","LANE":"１０８巷","ALLEY":" ","HOUSE_NO":"２７號","E_COORD97":165839.34,"N_COORD97":2543655.5299999998,"ADDRESS":"建平八街１０８巷２７號","OBJECTID":405907},"geometry":{"x":165839.34000000171,"y":2543655.5299999993}},{"attributes":{"ID":405932,"DIS_CODE":0,"TOWNNAME":"安平區","LI":"建平里","LIN":"27鄰","STREET":"建平八街","SECT":" ","MAREA":" ","LANE":"１０８巷","ALLEY":" ","HOUSE_NO":"３１號","E_COORD97":165839.94,"N_COORD97":2543666.0899999999,"ADDRESS":"建平八街１０８巷３１號","OBJECTID":405908},"geometry":{"x":165839.94000000134,"y":2543666.0899999999}},{"attributes":{"ID":405933,"DIS_CODE":0,"TOWNNAME":"安南區","LI":"溪東里","LIN":"5鄰","STREET":"府安路","SECT":"五段","MAREA":" ","LANE":"７６巷","ALLEY":" ","HOUSE_NO":"１０號","E_COORD97":168187.41,"N_COORD97":2547193.6699999999,"ADDRESS":"府安路五段７６巷１０號","OBJECTID":405909},"geometry":{"x":168187.41000000108,"y":2547193.6700000018}},{"attributes":{"ID":405934,"DIS_CODE":0,"TOWNNAME":"中西區","LI":"大涼里","LIN":"13鄰","STREET":"金城街","SECT":" ","MAREA":" ","LANE":" ","ALLEY":" ","HOUSE_NO":"７３號","E_COORD97":166862.56,"N_COORD97":2543696.5600000001,"ADDRESS":"金城街７３號","OBJECTID":405910},"geometry":{"x":166862.55999999959,"y":2543696.5600000024}},{"attributes":{"ID":405935,"DIS_CODE":0,"TOWNNAME":"中西區","LI":"大涼里","LIN":"13鄰","STREET":"金城街","SECT":" ","MAREA":" ","LANE":" ","ALLEY":" ","HOUSE_NO":"７５號","E_COORD97":166858.63,"N_COORD97":2543696.0899999999,"ADDRESS":"金城街７５號","OBJECTID":405911},"geometry":{"x":166858.63000000082,"y":2543696.0900000017}},{"attributes":{"ID":405936,"DIS_CODE":0,"TOWNNAME":"安南區","LI":"溪東里","LIN":"5鄰","STREET":"府安路","SECT":"五段","MAREA":" ","LANE":"７６巷","ALLEY":" ","HOUSE_NO":"１１號","E_COORD97":168148.54000000001,"N_COORD97":2547189.9300000002,"ADDRESS":"府安路五段７６巷１１號","OBJECTID":405912},"geometry":{"x":168148.53999999911,"y":2547189.9299999997}},{"attributes":{"ID":405937,"DIS_CODE":0,"TOWNNAME":"安南區","LI":"溪東里","LIN":"5鄰","STREET":"府安路","SECT":"五段","MAREA":" ","LANE":"７６巷","ALLEY":" ","HOUSE_NO":"１２號","E_COORD97":168186.67000000001,"N_COORD97":2547198.4300000002,"ADDRESS":"府安路五段７６巷１２號","OBJECTID":405913},"geometry":{"x":168186.67000000179,"y":2547198.4300000016}},{"attributes":{"ID":405938,"DIS_CODE":0,"TOWNNAME":"安南區","LI":"溪東里","LIN":"5鄰","STREET":"府安路","SECT":"五段","MAREA":" ","LANE":"７６巷","ALLEY":" ","HOUSE_NO":"１３號","E_COORD97":168148.64000000001,"N_COORD97":2547194.1000000001,"ADDRESS":"府安路五段７６巷１３號","OBJECTID":405914},"geometry":{"x":168148.63999999966,"y":2547194.1000000015}},{"attributes":{"ID":405939,"DIS_CODE":0,"TOWNNAME":"安南區","LI":"溪東里","LIN":"5鄰","STREET":"府安路","SECT":"五段","MAREA":" ","LANE":"７６巷","ALLEY":" ","HOUSE_NO":"１４號","E_COORD97":168185.76999999999,"N_COORD97":2547202.3300000001,"ADDRESS":"府安路五段７６巷１４號","OBJECTID":405915},"geometry":{"x":168185.77000000048,"y":2547202.3300000038}},{"attributes":{"ID":405940,"DIS_CODE":0,"TOWNNAME":"安南區","LI":"溪東里","LIN":"5鄰","STREET":"府安路","SECT":"五段","MAREA":" ","LANE":"７６巷","ALLEY":" ","HOUSE_NO":"１５號","E_COORD97":168147.70000000001,"N_COORD97":2547198.1000000001,"ADDRESS":"府安路五段７６巷１５號","OBJECTID":405916},"geometry":{"x":168147.70000000205,"y":2547198.1000000015}},{"attributes":{"ID":405941,"DIS_CODE":0,"TOWNNAME":"安南區","LI":"溪東里","LIN":"1鄰","STREET":"府安路","SECT":"五段","MAREA":" ","LANE":"１４４巷","ALLEY":" ","HOUSE_NO":"２８號","E_COORD97":167915.12,"N_COORD97":2547102.9399999999,"ADDRESS":"府安路五段１４４巷２８號","OBJECTID":405917},"geometry":{"x":167915.12000000011,"y":2547102.9400000013}},{"attributes":{"ID":405942,"DIS_CODE":0,"TOWNNAME":"安南區","LI":"溪東里","LIN":"1鄰","STREET":"府安路","SECT":"五段","MAREA":" ","LANE":"１４４巷","ALLEY":" ","HOUSE_NO":"２號","E_COORD97":167895.09,"N_COORD97":2547075.23,"ADDRESS":"府安路五段１４４巷２號","OBJECTID":405918},"geometry":{"x":167895.08999999985,"y":2547075.2300000023}},{"attributes":{"ID":405943,"DIS_CODE":0,"TOWNNAME":"安南區","LI":"溪東里","LIN":"1鄰","STREET":"府安路","SECT":"五段","MAREA":" ","LANE":"１４４巷","ALLEY":" ","HOUSE_NO":"６號","E_COORD97":167893.14999999999,"N_COORD97":2547084.9100000001,"ADDRESS":"府安路五段１４４巷６號","OBJECTID":405919},"geometry":{"x":167893.15000000037,"y":2547084.9100000001}},{"attributes":{"ID":405944,"DIS_CODE":0,"TOWNNAME":"安南區","LI":"溪東里","LIN":"1鄰","STREET":"府安路","SECT":"五段","MAREA":" ","LANE":"１４４巷","ALLEY":" ","HOUSE_NO":"８號","E_COORD97":167891.81,"N_COORD97":2547089.8799999999,"ADDRESS":"府安路五段１４４巷８號","OBJECTID":405920},"geometry":{"x":167891.80999999959,"y":2547089.8800000008}},{"attributes":{"ID":405945,"DIS_CODE":0,"TOWNNAME":"安平區","LI":"建平里","LIN":"27鄰","STREET":"建平八街","SECT":" ","MAREA":" ","LANE":"１０８巷","ALLEY":" ","HOUSE_NO":"３３號","E_COORD97":165840.94,"N_COORD97":2543670.27,"ADDRESS":"建平八街１０８巷３３號","OBJECTID":405921},"geometry":{"x":165840.94000000227,"y":2543670.2700000014}},{"attributes":{"ID":405946,"DIS_CODE":0,"TOWNNAME":"安平區","LI":"建平里","LIN":"27鄰","STREET":"建平八街","SECT":" ","MAREA":" ","LANE":"１０８巷","ALLEY":" ","HOUSE_NO":"３４號","E_COORD97":165847.92000000001,"N_COORD97":2543585.54,"ADDRESS":"建平八街１０８巷３４號","OBJECTID":405922},"geometry":{"x":165847.92000000086,"y":2543585.5400000028}},{"attributes":{"ID":405947,"DIS_CODE":0,"TOWNNAME":"安平區","LI":"建平里","LIN":"27鄰","STREET":"建平八街","SECT":" ","MAREA":" ","LANE":"１０８巷","ALLEY":" ","HOUSE_NO":"３５號","E_COORD97":165841.14000000001,"N_COORD97":2543674.4500000002,"ADDRESS":"建平八街１０８巷３５號","OBJECTID":405923},"geometry":{"x":165841.1400000006,"y":2543674.4499999974}},{"attributes":{"ID":405948,"DIS_CODE":0,"TOWNNAME":"安平區","LI":"建平里","LIN":"27鄰","STREET":"建平八街","SECT":" ","MAREA":" ","LANE":"１０８巷","ALLEY":" ","HOUSE_NO":"４０號","E_COORD97":165854.17000000001,"N_COORD97":2543640.3900000001,"ADDRESS":"建平八街１０８巷４０號","OBJECTID":405924},"geometry":{"x":165854.17000000179,"y":2543640.3900000025}},{"attributes":{"ID":405949,"DIS_CODE":0,"TOWNNAME":"北區","LI":"大港里","LIN":"27鄰","STREET":"中華北路","SECT":"一段","MAREA":" ","LANE":"２６３巷","ALLEY":" ","HOUSE_NO":"２７號","E_COORD97":166269.01999999999,"N_COORD97":2545795.0600000001,"ADDRESS":"中華北路一段２６３巷２７號","OBJECTID":405925},"geometry":{"x":166269.02000000048,"y":2545795.0600000024}},{"attributes":{"ID":405950,"DIS_CODE":0,"TOWNNAME":"北區","LI":"大港里","LIN":"27鄰","STREET":"中華北路","SECT":"一段","MAREA":" ","LANE":"２６３巷","ALLEY":" ","HOUSE_NO":"２８號","E_COORD97":166264.14999999999,"N_COORD97":2545791.5099999998,"ADDRESS":"中華北路一段２６３巷２８號","OBJECTID":405926},"geometry":{"x":166264.15000000037,"y":2545791.5100000016}},{"attributes":{"ID":405951,"DIS_CODE":0,"TOWNNAME":"中西區","LI":"大涼里","LIN":"27鄰","STREET":"中華西路","SECT":"二段","MAREA":" ","LANE":"２８巷","ALLEY":" ","HOUSE_NO":"５８號","E_COORD97":166772.39999999999,"N_COORD97":2543335.4500000002,"ADDRESS":"中華西路二段２８巷５８號","OBJECTID":405927},"geometry":{"x":166772.4000000013,"y":2543335.450000003}},{"attributes":{"ID":405952,"DIS_CODE":0,"TOWNNAME":"中西區","LI":"大涼里","LIN":"27鄰","STREET":"中華西路","SECT":"二段","MAREA":" ","LANE":"２８巷","ALLEY":" ","HOUSE_NO":"６０號","E_COORD97":166776.39999999999,"N_COORD97":2543332.0499999998,"ADDRESS":"中華西路二段２８巷６０號","OBJECTID":405928},"geometry":{"x":166776.40000000037,"y":2543332.0500000007}},{"attributes":{"ID":405953,"DIS_CODE":0,"TOWNNAME":"中西區","LI":"大涼里","LIN":"27鄰","STREET":"中華西路","SECT":"二段","MAREA":" ","LANE":"２８巷","ALLEY":" ","HOUSE_NO":"６２號","E_COORD97":166780.60000000001,"N_COORD97":2543332.0499999998,"ADDRESS":"中華西路二段２８巷６２號","OBJECTID":405929},"geometry":{"x":166780.60000000056,"y":2543332.0500000007}},{"attributes":{"ID":405954,"DIS_CODE":0,"TOWNNAME":"中西區","LI":"大涼里","LIN":"27鄰","STREET":"中華西路","SECT":"二段","MAREA":" ","LANE":"２８巷","ALLEY":" ","HOUSE_NO":"６４號","E_COORD97":166786.60000000001,"N_COORD97":2543332.0499999998,"ADDRESS":"中華西路二段２８巷６４號","OBJECTID":405930},"geometry":{"x":166786.60000000149,"y":2543332.0500000007}},{"attributes":{"ID":405955,"DIS_CODE":0,"TOWNNAME":"中西區","LI":"大涼里","LIN":"27鄰","STREET":"中華西路","SECT":"二段","MAREA":" ","LANE":"２８巷","ALLEY":" ","HOUSE_NO":"６６號","E_COORD97":166790.39999999999,"N_COORD97":2543330.46,"ADDRESS":"中華西路二段２８巷６６號","OBJECTID":405931},"geometry":{"x":166790.40000000224,"y":2543330.4600000046}},{"attributes":{"ID":405956,"DIS_CODE":0,"TOWNNAME":"中西區","LI":"大涼里","LIN":"27鄰","STREET":"中華西路","SECT":"二段","MAREA":" ","LANE":"２８巷","ALLEY":" ","HOUSE_NO":"６８號","E_COORD97":166796.60000000001,"N_COORD97":2543328.8599999999,"ADDRESS":"中華西路二段２８巷６８號","OBJECTID":405932},"geometry":{"x":166796.59999999963,"y":2543328.8599999994}},{"attributes":{"ID":405957,"DIS_CODE":0,"TOWNNAME":"中西區","LI":"大涼里","LIN":"27鄰","STREET":"中華西路","SECT":"二段","MAREA":" ","LANE":"２８巷","ALLEY":" ","HOUSE_NO":"７０號","E_COORD97":166803.79000000001,"N_COORD97":2543325.6600000001,"ADDRESS":"中華西路二段２８巷７０號","OBJECTID":405933},"geometry":{"x":166803.79000000004,"y":2543325.660000002}},{"attributes":{"ID":405958,"DIS_CODE":0,"TOWNNAME":"中西區","LI":"大涼里","LIN":"27鄰","STREET":"中華西路","SECT":"二段","MAREA":" ","LANE":"２８巷","ALLEY":" ","HOUSE_NO":"７４號","E_COORD97":166817.04000000001,"N_COORD97":2543323.1800000002,"ADDRESS":"中華西路二段２８巷７４號","OBJECTID":405934},"geometry":{"x":166817.04000000097,"y":2543323.1799999997}},{"attributes":{"ID":405959,"DIS_CODE":0,"TOWNNAME":"中西區","LI":"大涼里","LIN":"27鄰","STREET":"中華西路","SECT":"二段","MAREA":" ","LANE":"２８巷","ALLEY":" ","HOUSE_NO":"７６號","E_COORD97":166822.07000000001,"N_COORD97":2543321.0899999999,"ADDRESS":"中華西路二段２８巷７６號","OBJECTID":405935},"geometry":{"x":166822.07000000123,"y":2543321.0899999999}},{"attributes":{"ID":405960,"DIS_CODE":0,"TOWNNAME":"中西區","LI":"大涼里","LIN":"27鄰","STREET":"中華西路","SECT":"二段","MAREA":" ","LANE":"２８巷","ALLEY":" ","HOUSE_NO":"７８號","E_COORD97":166827.09,"N_COORD97":2543319,"ADDRESS":"中華西路二段２８巷７８號","OBJECTID":405936},"geometry":{"x":166827.08999999985,"y":2543319.0000000037}},{"attributes":{"ID":405961,"DIS_CODE":0,"TOWNNAME":"中西區","LI":"大涼里","LIN":"27鄰","STREET":"中華西路","SECT":"二段","MAREA":" ","LANE":"２８巷","ALLEY":" ","HOUSE_NO":"８０號","E_COORD97":166831.28,"N_COORD97":2543317.7400000002,"ADDRESS":"中華西路二段２８巷８０號","OBJECTID":405937},"geometry":{"x":166831.28000000026,"y":2543317.7400000039}},{"attributes":{"ID":405962,"DIS_CODE":0,"TOWNNAME":"中西區","LI":"大涼里","LIN":"27鄰","STREET":"永華一街","SECT":" ","MAREA":" ","LANE":"４４巷","ALLEY":" ","HOUSE_NO":"１０號","E_COORD97":166902.64999999999,"N_COORD97":2543344.5699999998,"ADDRESS":"永華一街４４巷１０號","OBJECTID":405938},"geometry":{"x":166902.6500000013,"y":2543344.5700000003}},{"attributes":{"ID":405963,"DIS_CODE":0,"TOWNNAME":"中西區","LI":"大涼里","LIN":"27鄰","STREET":"永華一街","SECT":" ","MAREA":" ","LANE":"４４巷","ALLEY":" ","HOUSE_NO":"１２號","E_COORD97":166887.32000000001,"N_COORD97":2543331.25,"ADDRESS":"永華一街４４巷１２號","OBJECTID":405939},"geometry":{"x":166887.3200000003,"y":2543331.2500000019}},{"attributes":{"ID":405964,"DIS_CODE":0,"TOWNNAME":"中西區","LI":"大涼里","LIN":"27鄰","STREET":"永華一街","SECT":" ","MAREA":" ","LANE":"４４巷","ALLEY":" ","HOUSE_NO":"１６號","E_COORD97":166906.42000000001,"N_COORD97":2543328,"ADDRESS":"永華一街４４巷１６號","OBJECTID":405940},"geometry":{"x":166906.41999999993,"y":2543328}},{"attributes":{"ID":405965,"DIS_CODE":0,"TOWNNAME":"中西區","LI":"大涼里","LIN":"27鄰","STREET":"永華一街","SECT":" ","MAREA":" ","LANE":"４４巷","ALLEY":" ","HOUSE_NO":"１８號","E_COORD97":166911.91,"N_COORD97":2543327.7999999998,"ADDRESS":"永華一街４４巷１８號","OBJECTID":405941},"geometry":{"x":166911.91000000015,"y":2543327.7999999989}},{"attributes":{"ID":405966,"DIS_CODE":0,"TOWNNAME":"永康區","LI":"永康里","LIN":"27鄰","STREET":"永康街","SECT":" ","MAREA":" ","LANE":"３１０巷","ALLEY":" ","HOUSE_NO":"２５號","E_COORD97":174227.26000000001,"N_COORD97":2546961.2999999998,"ADDRESS":"永康街３１０巷２５號","OBJECTID":405942},"geometry":{"x":174227.25999999978,"y":2546961.3000000007}},{"attributes":{"ID":405967,"DIS_CODE":0,"TOWNNAME":"東區","LI":"忠孝里","LIN":"27鄰","STREET":"榮譽街","SECT":" ","MAREA":" ","LANE":"８４巷","ALLEY":" ","HOUSE_NO":"１９之１號","E_COORD97":169795.63,"N_COORD97":2541669.25,"ADDRESS":"榮譽街８４巷１９之１號","OBJECTID":405943},"geometry":{"x":169795.63000000175,"y":2541669.25}},{"attributes":{"ID":405968,"DIS_CODE":0,"TOWNNAME":"永康區","LI":"東灣里","LIN":"27鄰","STREET":"民族路","SECT":" ","MAREA":" ","LANE":"１４５巷","ALLEY":" ","HOUSE_NO":"１０７號","E_COORD97":175094.56,"N_COORD97":2544664.8300000001,"ADDRESS":"民族路１４５巷１０７號","OBJECTID":405944},"geometry":{"x":175094.55999999959,"y":2544664.8300000001}},{"attributes":{"ID":405969,"DIS_CODE":0,"TOWNNAME":"永康區","LI":"五王里","LIN":"27鄰","STREET":"五福街","SECT":" ","MAREA":" ","LANE":"１１０巷","ALLEY":" ","HOUSE_NO":"１２號","E_COORD97":171530.35000000001,"N_COORD97":2545947.0800000001,"ADDRESS":"五福街１１０巷１２號","OBJECTID":405945},"geometry":{"x":171530.35000000056,"y":2545947.0800000019}},{"attributes":{"ID":405970,"DIS_CODE":0,"TOWNNAME":"永康區","LI":"大橋里","LIN":"27鄰","STREET":"大橋一街","SECT":" ","MAREA":" ","LANE":"２５３巷","ALLEY":" ","HOUSE_NO":"１２號","E_COORD97":171288.29999999999,"N_COORD97":2546746,"ADDRESS":"大橋一街２５３巷１２號","OBJECTID":405946},"geometry":{"x":171288.30000000075,"y":2546746}},{"attributes":{"ID":405971,"DIS_CODE":0,"TOWNNAME":"永康區","LI":"五王里","LIN":"27鄰","STREET":"五福街","SECT":" ","MAREA":" ","LANE":"１１０巷","ALLEY":" ","HOUSE_NO":"３３號","E_COORD97":171595.09,"N_COORD97":2545898.6000000001,"ADDRESS":"五福街１１０巷３３號","OBJECTID":405947},"geometry":{"x":171595.09000000078,"y":2545898.6000000015}},{"attributes":{"ID":405972,"DIS_CODE":0,"TOWNNAME":"永康區","LI":"\u25A0洲里","LIN":"27鄰","STREET":"洲尾街","SECT":" ","MAREA":" ","LANE":"１５２巷","ALLEY":" ","HOUSE_NO":"２８號","E_COORD97":171062.42000000001,"N_COORD97":2549062.2999999998,"ADDRESS":"洲尾街１５２巷２８號","OBJECTID":405948},"geometry":{"x":171062.42000000086,"y":2549062.3000000026}},{"attributes":{"ID":405973,"DIS_CODE":0,"TOWNNAME":"永康區","LI":"\u25A0洲里","LIN":"27鄰","STREET":"洲尾街","SECT":" ","MAREA":" ","LANE":"１４６巷","ALLEY":" ","HOUSE_NO":"３號","E_COORD97":170997.13,"N_COORD97":2549113.54,"ADDRESS":"洲尾街１４６巷３號","OBJECTID":405949},"geometry":{"x":170997.12999999989,"y":2549113.540000001}},{"attributes":{"ID":405974,"DIS_CODE":0,"TOWNNAME":"永康區","LI":"\u25A0洲里","LIN":"27鄰","STREET":"洲尾街","SECT":" ","MAREA":" ","LANE":"１５２巷","ALLEY":" ","HOUSE_NO":"４號","E_COORD97":171050.97,"N_COORD97":2549109.5600000001,"ADDRESS":"洲尾街１５２巷４號","OBJECTID":405950},"geometry":{"x":171050.9700000016,"y":2549109.5600000005}},{"attributes":{"ID":405975,"DIS_CODE":0,"TOWNNAME":"永康區","LI":"\u25A0洲里","LIN":"27鄰","STREET":"洲尾街","SECT":" ","MAREA":" ","LANE":"１４６巷","ALLEY":" ","HOUSE_NO":"５號","E_COORD97":170997.29000000001,"N_COORD97":2549109.29,"ADDRESS":"洲尾街１４６巷５號","OBJECTID":405951},"geometry":{"x":170997.29000000097,"y":2549109.2899999991}},{"attributes":{"ID":405976,"DIS_CODE":0,"TOWNNAME":"永康區","LI":"\u25A0洲里","LIN":"27鄰","STREET":"洲尾街","SECT":" ","MAREA":" ","LANE":"１５２巷","ALLEY":" ","HOUSE_NO":"４０號","E_COORD97":171093.07999999999,"N_COORD97":2549051.1899999999,"ADDRESS":"洲尾街１５２巷４０號","OBJECTID":405952},"geometry":{"x":171093.08000000194,"y":2549051.1900000013}},{"attributes":{"ID":405977,"DIS_CODE":0,"TOWNNAME":"永康區","LI":"\u25A0洲里","LIN":"27鄰","STREET":"洲尾街","SECT":" ","MAREA":" ","LANE":"１４６巷","ALLEY":" ","HOUSE_NO":"１０號","E_COORD97":170987.51000000001,"N_COORD97":2549082.5699999998,"ADDRESS":"洲尾街１４６巷１０號","OBJECTID":405953},"geometry":{"x":170987.50999999978,"y":2549082.570000004}},{"attributes":{"ID":405978,"DIS_CODE":0,"TOWNNAME":"仁德區","LI":"太子里","LIN":"27鄰","STREET":"大吉路","SECT":" ","MAREA":" ","LANE":"１９２巷","ALLEY":" ","HOUSE_NO":"１０號","E_COORD97":173382.20000000001,"N_COORD97":2543366.7400000002,"ADDRESS":"大吉路１９２巷１０號","OBJECTID":405954},"geometry":{"x":173382.20000000019,"y":2543366.7400000021}},{"attributes":{"ID":405979,"DIS_CODE":0,"TOWNNAME":"仁德區","LI":"成功里","LIN":"27鄰","STREET":"成功一街","SECT":" ","MAREA":" ","LANE":"２８巷","ALLEY":" ","HOUSE_NO":"３號","E_COORD97":170521.39000000001,"N_COORD97":2540100.52,"ADDRESS":"成功一街２８巷３號","OBJECTID":405955},"geometry":{"x":170521.3900000006,"y":2540100.5199999996}},{"attributes":{"ID":405980,"DIS_CODE":0,"TOWNNAME":"安南區","LI":"溪墘里","LIN":"27鄰","STREET":"安寧街","SECT":" ","MAREA":" ","LANE":"１２１巷","ALLEY":" ","HOUSE_NO":"４６號","E_COORD97":167236.29999999999,"N_COORD97":2547163.21,"ADDRESS":"安寧街１２１巷４６號","OBJECTID":405956},"geometry":{"x":167236.30000000168,"y":2547163.2100000046}},{"attributes":{"ID":405981,"DIS_CODE":0,"TOWNNAME":"安南區","LI":"溪墘里","LIN":"27鄰","STREET":"安寧街","SECT":" ","MAREA":" ","LANE":"１０３巷","ALLEY":" ","HOUSE_NO":"２４號","E_COORD97":167303.67999999999,"N_COORD97":2547141.5299999998,"ADDRESS":"安寧街１０３巷２４號","OBJECTID":405957},"geometry":{"x":167303.68000000063,"y":2547141.5299999993}},{"attributes":{"ID":405982,"DIS_CODE":0,"TOWNNAME":"安南區","LI":"溪墘里","LIN":"27鄰","STREET":"海佃路","SECT":"一段","MAREA":" ","LANE":"１５８巷","ALLEY":" ","HOUSE_NO":"２６號","E_COORD97":167258.16,"N_COORD97":2547193.1499999999,"ADDRESS":"海佃路一段１５８巷２６號","OBJECTID":405958},"geometry":{"x":167258.16000000108,"y":2547193.1500000004}},{"attributes":{"ID":405983,"DIS_CODE":0,"TOWNNAME":"安南區","LI":"溪墘里","LIN":"27鄰","STREET":"安寧街","SECT":" ","MAREA":" ","LANE":"１２１巷","ALLEY":" ","HOUSE_NO":"１０號","E_COORD97":167334.39000000001,"N_COORD97":2547182.7599999998,"ADDRESS":"安寧街１２１巷１０號","OBJECTID":405959},"geometry":{"x":167334.3900000006,"y":2547182.7600000016}},{"attributes":{"ID":405984,"DIS_CODE":0,"TOWNNAME":"安南區","LI":"溪墘里","LIN":"27鄰","STREET":"安寧街","SECT":" ","MAREA":" ","LANE":"１２１巷","ALLEY":" ","HOUSE_NO":"１９號","E_COORD97":167311.39999999999,"N_COORD97":2547159.3300000001,"ADDRESS":"安寧街１２１巷１９號","OBJECTID":405960},"geometry":{"x":167311.4000000013,"y":2547159.3300000019}},{"attributes":{"ID":405985,"DIS_CODE":0,"TOWNNAME":"東區","LI":"中西里","LIN":"27鄰","STREET":"東寧路","SECT":" ","MAREA":" ","LANE":"１２０巷","ALLEY":" ","HOUSE_NO":"７５號之１","E_COORD97":170260.67000000001,"N_COORD97":2543466.8300000001,"ADDRESS":"東寧路１２０巷７５號之１","OBJECTID":405961},"geometry":{"x":170260.67000000086,"y":2543466.8300000019}},{"attributes":{"ID":405986,"DIS_CODE":0,"TOWNNAME":"東區","LI":"中西里","LIN":"27鄰","STREET":"東寧路","SECT":" ","MAREA":" ","LANE":"１２０巷","ALLEY":" ","HOUSE_NO":"７５號","E_COORD97":170255.75,"N_COORD97":2543466.2400000002,"ADDRESS":"東寧路１２０巷７５號","OBJECTID":405962},"geometry":{"x":170255.75,"y":2543466.2400000002}},{"attributes":{"ID":405987,"DIS_CODE":0,"TOWNNAME":"東區","LI":"忠孝里","LIN":"27鄰","STREET":"榮譽街","SECT":" ","MAREA":" ","LANE":"８４巷","ALLEY":" ","HOUSE_NO":"１５號","E_COORD97":169818.10000000001,"N_COORD97":2541678.4199999999,"ADDRESS":"榮譽街８４巷１５號","OBJECTID":405963},"geometry":{"x":169818.10000000056,"y":2541678.4199999981}},{"attributes":{"ID":405988,"DIS_CODE":0,"TOWNNAME":"東區","LI":"忠孝里","LIN":"27鄰","STREET":"榮譽街","SECT":" ","MAREA":" ","LANE":"８４巷","ALLEY":" ","HOUSE_NO":"１５號之１","E_COORD97":169812.54000000001,"N_COORD97":2541675.48,"ADDRESS":"榮譽街８４巷１５號之１","OBJECTID":405964},"geometry":{"x":169812.54000000004,"y":2541675.4800000042}},{"attributes":{"ID":405989,"DIS_CODE":0,"TOWNNAME":"仁德區","LI":"成功里","LIN":"27鄰","STREET":"成功一街","SECT":" ","MAREA":" ","LANE":"２４巷","ALLEY":" ","HOUSE_NO":"３號","E_COORD97":170506.73999999999,"N_COORD97":2540126.52,"ADDRESS":"成功一街２４巷３號","OBJECTID":405965},"geometry":{"x":170506.74000000022,"y":2540126.5199999996}},{"attributes":{"ID":405990,"DIS_CODE":0,"TOWNNAME":"仁德區","LI":"太子里","LIN":"27鄰","STREET":"太子四街","SECT":" ","MAREA":" ","LANE":"５巷","ALLEY":" ","HOUSE_NO":"１１號","E_COORD97":173232.07000000001,"N_COORD97":2543362.5,"ADDRESS":"太子四街５巷１１號","OBJECTID":405966},"geometry":{"x":173232.0700000003,"y":2543362.5}},{"attributes":{"ID":405991,"DIS_CODE":0,"TOWNNAME":"仁德區","LI":"成功里","LIN":"27鄰","STREET":"成功一街","SECT":" ","MAREA":" ","LANE":"２４巷","ALLEY":" ","HOUSE_NO":"６號","E_COORD97":170503.04000000001,"N_COORD97":2540135.02,"ADDRESS":"成功一街２４巷６號","OBJECTID":405967},"geometry":{"x":170503.04000000004,"y":2540135.0200000033}},{"attributes":{"ID":405992,"DIS_CODE":0,"TOWNNAME":"仁德區","LI":"成功里","LIN":"27鄰","STREET":"成功一街","SECT":" ","MAREA":" ","LANE":"２８巷","ALLEY":" ","HOUSE_NO":"７號","E_COORD97":170509.60000000001,"N_COORD97":2540100.77,"ADDRESS":"成功一街２８巷７號","OBJECTID":405968},"geometry":{"x":170509.60000000056,"y":2540100.7700000014}},{"attributes":{"ID":405993,"DIS_CODE":0,"TOWNNAME":"仁德區","LI":"成功里","LIN":"27鄰","STREET":"成功一街","SECT":" ","MAREA":" ","LANE":"１８巷","ALLEY":" ","HOUSE_NO":"６號","E_COORD97":170519.26000000001,"N_COORD97":2540157.0099999998,"ADDRESS":"成功一街１８巷６號","OBJECTID":405969},"geometry":{"x":170519.26000000071,"y":2540157.0100000016}},{"attributes":{"ID":405994,"DIS_CODE":0,"TOWNNAME":"仁德區","LI":"仁德里","LIN":"27鄰","STREET":"淨修街","SECT":" ","MAREA":" ","LANE":"１７５巷","ALLEY":" ","HOUSE_NO":"３４號","E_COORD97":171985.87,"N_COORD97":2541260.4399999999,"ADDRESS":"淨修街１７５巷３４號","OBJECTID":405970},"geometry":{"x":171985.87000000011,"y":2541260.4399999995}},{"attributes":{"ID":405995,"DIS_CODE":0,"TOWNNAME":"仁德區","LI":"成功里","LIN":"27鄰","STREET":"成功一街","SECT":" ","MAREA":" ","LANE":"２４巷","ALLEY":" ","HOUSE_NO":"１號","E_COORD97":170515.35999999999,"N_COORD97":2540126.77,"ADDRESS":"成功一街２４巷１號","OBJECTID":405971},"geometry":{"x":170515.36000000127,"y":2540126.7700000014}},{"attributes":{"ID":405996,"DIS_CODE":0,"TOWNNAME":"仁德區","LI":"成功里","LIN":"27鄰","STREET":"成功一街","SECT":" ","MAREA":" ","LANE":"１８巷","ALLEY":" ","HOUSE_NO":"４號","E_COORD97":170526.37,"N_COORD97":2540157.0099999998,"ADDRESS":"成功一街１８巷４號","OBJECTID":405972},"geometry":{"x":170526.37000000011,"y":2540157.0100000016}},{"attributes":{"ID":405997,"DIS_CODE":0,"TOWNNAME":"仁德區","LI":"成功里","LIN":"27鄰","STREET":"成功一街","SECT":" ","MAREA":" ","LANE":"２８巷","ALLEY":" ","HOUSE_NO":"９號","E_COORD97":170500.12,"N_COORD97":2540102.02,"ADDRESS":"成功一街２８巷９號","OBJECTID":405973},"geometry":{"x":170500.12000000104,"y":2540102.0200000014}},{"attributes":{"ID":405998,"DIS_CODE":0,"TOWNNAME":"仁德區","LI":"後壁里","LIN":"27鄰","STREET":"中正路","SECT":"二段","MAREA":" ","LANE":"３０１巷","ALLEY":" ","HOUSE_NO":"２９號","E_COORD97":173155.92000000001,"N_COORD97":2539114.52,"ADDRESS":"中正路二段３０１巷２９號","OBJECTID":405974},"geometry":{"x":173155.92000000086,"y":2539114.5200000033}},{"attributes":{"ID":405999,"DIS_CODE":0,"TOWNNAME":"仁德區","LI":"後壁里","LIN":"27鄰","STREET":"中正路","SECT":"二段","MAREA":" ","LANE":"３０１巷","ALLEY":" ","HOUSE_NO":"１８號","E_COORD97":173214.39999999999,"N_COORD97":2539102.6400000001,"ADDRESS":"中正路二段３０１巷１８號","OBJECTID":405975},"geometry":{"x":173214.40000000037,"y":2539102.6400000025}},{"attributes":{"ID":406000,"DIS_CODE":0,"TOWNNAME":"仁德區","LI":"成功里","LIN":"27鄰","STREET":"成功一街","SECT":" ","MAREA":" ","LANE":"１８巷","ALLEY":" ","HOUSE_NO":"２號","E_COORD97":170532.82999999999,"N_COORD97":2540157.7599999998,"ADDRESS":"成功一街１８巷２號","OBJECTID":405976},"geometry":{"x":170532.83000000007,"y":2540157.7600000016}},{"attributes":{"ID":406001,"DIS_CODE":0,"TOWNNAME":"仁德區","LI":"後壁里","LIN":"27鄰","STREET":"中正路","SECT":"二段","MAREA":" ","LANE":"３０１巷","ALLEY":" ","HOUSE_NO":"３３號","E_COORD97":173148.63,"N_COORD97":2539105.27,"ADDRESS":"中正路二段３０１巷３３號","OBJECTID":405977},"geometry":{"x":173148.63000000175,"y":2539105.2699999996}},{"attributes":{"ID":406002,"DIS_CODE":0,"TOWNNAME":"仁德區","LI":"後壁里","LIN":"27鄰","STREET":"中正路","SECT":"二段","MAREA":" ","LANE":"３０１巷","ALLEY":" ","HOUSE_NO":"２２號","E_COORD97":173204.70000000001,"N_COORD97":2539114.77,"ADDRESS":"中正路二段３０１巷２２號","OBJECTID":405978},"geometry":{"x":173204.70000000112,"y":2539114.7699999996}},{"attributes":{"ID":406003,"DIS_CODE":0,"TOWNNAME":"官田區","LI":"隆本里","LIN":"27鄰","STREET":"勝利路","SECT":" ","MAREA":" ","LANE":"３８巷","ALLEY":" ","HOUSE_NO":"１０號","E_COORD97":179886.09,"N_COORD97":2565919.7200000002,"ADDRESS":"勝利路３８巷１０號","OBJECTID":405979},"geometry":{"x":179886.09000000078,"y":2565919.7200000025}},{"attributes":{"ID":406004,"DIS_CODE":0,"TOWNNAME":"官田區","LI":"隆本里","LIN":"27鄰","STREET":"勝利路","SECT":" ","MAREA":" ","LANE":"３８巷","ALLEY":" ","HOUSE_NO":"１１號","E_COORD97":179872.38,"N_COORD97":2565925.0299999998,"ADDRESS":"勝利路３８巷１１號","OBJECTID":405980},"geometry":{"x":179872.38000000082,"y":2565925.0299999975}},{"attributes":{"ID":406005,"DIS_CODE":0,"TOWNNAME":"官田區","LI":"隆本里","LIN":"27鄰","STREET":"勝利路","SECT":" ","MAREA":" ","LANE":"３８巷","ALLEY":" ","HOUSE_NO":"１２號","E_COORD97":179884.22,"N_COORD97":2565923.4100000001,"ADDRESS":"勝利路３８巷１２號","OBJECTID":405981},"geometry":{"x":179884.21999999974,"y":2565923.4100000039}},{"attributes":{"ID":406006,"DIS_CODE":0,"TOWNNAME":"官田區","LI":"隆本里","LIN":"27鄰","STREET":"勝利路","SECT":" ","MAREA":" ","LANE":"３８巷","ALLEY":" ","HOUSE_NO":"１６號","E_COORD97":179882.31,"N_COORD97":2565927.5800000001,"ADDRESS":"勝利路３８巷１６號","OBJECTID":405982},"geometry":{"x":179882.31000000052,"y":2565927.5800000001}},{"attributes":{"ID":406007,"DIS_CODE":0,"TOWNNAME":"官田區","LI":"隆本里","LIN":"27鄰","STREET":"勝利路","SECT":" ","MAREA":" ","LANE":"３８巷","ALLEY":" ","HOUSE_NO":"１號","E_COORD97":179880.98000000001,"N_COORD97":2565902.3399999999,"ADDRESS":"勝利路３８巷１號","OBJECTID":405983},"geometry":{"x":179880.98000000138,"y":2565902.3399999999}},{"attributes":{"ID":406008,"DIS_CODE":0,"TOWNNAME":"官田區","LI":"隆本里","LIN":"27鄰","STREET":"勝利路","SECT":" ","MAREA":" ","LANE":"３８巷","ALLEY":" ","HOUSE_NO":"２號","E_COORD97":179892.51000000001,"N_COORD97":2565906.8999999999,"ADDRESS":"勝利路３８巷２號","OBJECTID":405984},"geometry":{"x":179892.50999999978,"y":2565906.9000000041}},{"attributes":{"ID":406009,"DIS_CODE":0,"TOWNNAME":"官田區","LI":"隆本里","LIN":"27鄰","STREET":"勝利路","SECT":" ","MAREA":" ","LANE":"３８巷","ALLEY":" ","HOUSE_NO":"３號","E_COORD97":179879.29000000001,"N_COORD97":2565906.8999999999,"ADDRESS":"勝利路３８巷３號","OBJECTID":405985},"geometry":{"x":179879.28999999911,"y":2565906.9000000041}},{"attributes":{"ID":406010,"DIS_CODE":0,"TOWNNAME":"官田區","LI":"隆本里","LIN":"27鄰","STREET":"勝利路","SECT":" ","MAREA":" ","LANE":"３８巷","ALLEY":" ","HOUSE_NO":"５號","E_COORD97":179878.06,"N_COORD97":2565911.2000000002,"ADDRESS":"勝利路３８巷５號","OBJECTID":405986},"geometry":{"x":179878.05999999959,"y":2565911.2000000011}},{"attributes":{"ID":406011,"DIS_CODE":0,"TOWNNAME":"官田區","LI":"隆本里","LIN":"27鄰","STREET":"勝利路","SECT":" ","MAREA":" ","LANE":"３８巷","ALLEY":" ","HOUSE_NO":"６號","E_COORD97":179890.66,"N_COORD97":2565911.02,"ADDRESS":"勝利路３８巷６號","OBJECTID":405987},"geometry":{"x":179890.66000000201,"y":2565911.0199999996}},{"attributes":{"ID":406012,"DIS_CODE":0,"TOWNNAME":"官田區","LI":"隆本里","LIN":"27鄰","STREET":"勝利路","SECT":" ","MAREA":" ","LANE":"３８巷","ALLEY":" ","HOUSE_NO":"７號","E_COORD97":179876.04000000001,"N_COORD97":2565915.6600000001,"ADDRESS":"勝利路３８巷７號","OBJECTID":405988},"geometry":{"x":179876.0400000019,"y":2565915.660000002}},{"attributes":{"ID":406013,"DIS_CODE":0,"TOWNNAME":"官田區","LI":"隆本里","LIN":"27鄰","STREET":"勝利路","SECT":" ","MAREA":" ","LANE":"３８巷","ALLEY":" ","HOUSE_NO":"８號","E_COORD97":179888.64999999999,"N_COORD97":2565915.4500000002,"ADDRESS":"勝利路３８巷８號","OBJECTID":405989},"geometry":{"x":179888.65000000037,"y":2565915.450000003}},{"attributes":{"ID":406014,"DIS_CODE":0,"TOWNNAME":"官田區","LI":"隆本里","LIN":"27鄰","STREET":"勝利路","SECT":" ","MAREA":" ","LANE":"３８巷","ALLEY":" ","HOUSE_NO":"９號","E_COORD97":179874.10999999999,"N_COORD97":2565920.3399999999,"ADDRESS":"勝利路３８巷９號","OBJECTID":405990},"geometry":{"x":179874.1100000022,"y":2565920.3400000036}},{"attributes":{"ID":406015,"DIS_CODE":0,"TOWNNAME":"官田區","LI":"隆本里","LIN":"27鄰","STREET":"勝利路","SECT":" ","MAREA":" ","LANE":"４８巷","ALLEY":" ","HOUSE_NO":"９號","E_COORD97":179896.14999999999,"N_COORD97":2565946.4399999999,"ADDRESS":"勝利路４８巷９號","OBJECTID":405991},"geometry":{"x":179896.1500000013,"y":2565946.4400000032}},{"attributes":{"ID":406016,"DIS_CODE":0,"TOWNNAME":"新市區","LI":"新和里","LIN":"27鄰","STREET":"永福街","SECT":" ","MAREA":" ","LANE":"１６巷","ALLEY":" ","HOUSE_NO":"４５號","E_COORD97":177793.95000000001,"N_COORD97":2552805,"ADDRESS":"永福街１６巷４５號","OBJECTID":405992},"geometry":{"x":177793.95000000112,"y":2552805}},{"attributes":{"ID":406017,"DIS_CODE":0,"TOWNNAME":"新市區","LI":"新和里","LIN":"27鄰","STREET":"忠孝街","SECT":" ","MAREA":" ","LANE":"１９４巷","ALLEY":" ","HOUSE_NO":"２號","E_COORD97":177759.98999999999,"N_COORD97":2552855,"ADDRESS":"忠孝街１９４巷２號","OBJECTID":405993},"geometry":{"x":177759.99000000115,"y":2552855}},{"attributes":{"ID":406018,"DIS_CODE":0,"TOWNNAME":"新市區","LI":"新和里","LIN":"27鄰","STREET":"永福街","SECT":" ","MAREA":" ","LANE":"１６巷","ALLEY":" ","HOUSE_NO":"６７號","E_COORD97":177788.64999999999,"N_COORD97":2552861,"ADDRESS":"永福街１６巷６７號","OBJECTID":405994},"geometry":{"x":177788.65000000037,"y":2552861.0000000019}},{"attributes":{"ID":406019,"DIS_CODE":0,"TOWNNAME":"新市區","LI":"新市里","LIN":"27鄰","STREET":"復興路","SECT":" ","MAREA":" ","LANE":"６巷","ALLEY":" ","HOUSE_NO":"１５號","E_COORD97":177868.28,"N_COORD97":2553349.2799999998,"ADDRESS":"復興路６巷１５號","OBJECTID":405995},"geometry":{"x":177868.28000000119,"y":2553349.2800000012}},{"attributes":{"ID":406020,"DIS_CODE":0,"TOWNNAME":"新市區","LI":"新和里","LIN":"27鄰","STREET":"忠孝街","SECT":" ","MAREA":" ","LANE":"１８０巷","ALLEY":" ","HOUSE_NO":"９號","E_COORD97":177768.89999999999,"N_COORD97":2552778.5,"ADDRESS":"忠孝街１８０巷９號","OBJECTID":405996},"geometry":{"x":177768.9000000013,"y":2552778.5000000019}},{"attributes":{"ID":406021,"DIS_CODE":0,"TOWNNAME":"新市區","LI":"港墘里","LIN":"27鄰","STREET":"南昌街","SECT":" ","MAREA":" ","LANE":"３８巷","ALLEY":" ","HOUSE_NO":"３號","E_COORD97":178016.64000000001,"N_COORD97":2552951.21,"ADDRESS":"南昌街３８巷３號","OBJECTID":405997},"geometry":{"x":178016.63999999966,"y":2552951.2100000028}},{"attributes":{"ID":406022,"DIS_CODE":0,"TOWNNAME":"東區","LI":"大同里","LIN":"27鄰","STREET":"林森路","SECT":"一段","MAREA":" ","LANE":"４３巷","ALLEY":" ","HOUSE_NO":"１１號","E_COORD97":169337.22,"N_COORD97":2542495.5600000001,"ADDRESS":"林森路一段４３巷１１號","OBJECTID":405998},"geometry":{"x":169337.2200000016,"y":2542495.5600000042}},{"attributes":{"ID":406023,"DIS_CODE":0,"TOWNNAME":"東區","LI":"大同里","LIN":"27鄰","STREET":"林森路","SECT":"一段","MAREA":" ","LANE":"４３巷","ALLEY":" ","HOUSE_NO":"１號","E_COORD97":169309.29000000001,"N_COORD97":2542470.5600000001,"ADDRESS":"林森路一段４３巷１號","OBJECTID":405999},"geometry":{"x":169309.29000000004,"y":2542470.5600000005}},{"attributes":{"ID":406024,"DIS_CODE":0,"TOWNNAME":"東區","LI":"大同里","LIN":"27鄰","STREET":"林森路","SECT":"一段","MAREA":" ","LANE":"４３巷","ALLEY":" ","HOUSE_NO":"３號","E_COORD97":169311.92999999999,"N_COORD97":2542481.4500000002,"ADDRESS":"林森路一段４３巷３號","OBJECTID":406000},"geometry":{"x":169311.93000000156,"y":2542481.4500000011}}]}