{"displayFieldName":"TOWNNAME","fieldAliases":{"ID":"ID","DIS_CODE":"DIS_CODE","TOWNNAME":"TOWNNAME","LI":"LI","LIN":"LIN","STREET":"STREET","SECT":"SECT","MAREA":"MAREA","LANE":"LANE","ALLEY":"ALLEY","HOUSE_NO":"HOUSE_NO","E_COORD97":"E_COORD97","N_COORD97":"N_COORD97","ADDRESS":"ADDRESS","OBJECTID":"OBJECTID"},"geometryType":"esriGeometryPoint","spatialReference":{"wkid":102443,"latestWkid":3826},"fields":[{"name":"ID","type":"esriFieldTypeDouble","alias":"ID"},{"name":"DIS_CODE","type":"esriFieldTypeInteger","alias":"DIS_CODE"},{"name":"TOWNNAME","type":"esriFieldTypeString","alias":"TOWNNAME","length":8},{"name":"LI","type":"esriFieldTypeString","alias":"LI","length":8},{"name":"LIN","type":"esriFieldTypeString","alias":"LIN","length":12},{"name":"STREET","type":"esriFieldTypeString","alias":"STREET","length":20},{"name":"SECT","type":"esriFieldTypeString","alias":"SECT","length":8},{"name":"MAREA","type":"esriFieldTypeString","alias":"MAREA","length":12},{"name":"LANE","type":"esriFieldTypeString","alias":"LANE","length":10},{"name":"ALLEY","type":"esriFieldTypeString","alias":"ALLEY","length":10},{"name":"HOUSE_NO","type":"esriFieldTypeString","alias":"HOUSE_NO","length":20},{"name":"E_COORD97","type":"esriFieldTypeDouble","alias":"E_COORD97"},{"name":"N_COORD97","type":"esriFieldTypeDouble","alias":"N_COORD97"},{"name":"ADDRESS","type":"esriFieldTypeString","alias":"ADDRESS","length":50},{"name":"OBJECTID","type":"esriFieldTypeOID","alias":"OBJECTID"}],"features":[{"attributes":{"ID":205802,"DIS_CODE":0,"TOWNNAME":"永康區","LI":"永康里","LIN":"25鄰","STREET":"埔聖街","SECT":" ","MAREA":" ","LANE":"８７巷","ALLEY":"２３弄","HOUSE_NO":"６號","E_COORD97":174114.39000000001,"N_COORD97":2547668.6600000001,"ADDRESS":"埔聖街８７巷２３弄６號","OBJECTID":205801},"geometry":{"x":174114.38999999966,"y":2547668.660000002}},{"attributes":{"ID":205803,"DIS_CODE":0,"TOWNNAME":"永康區","LI":"永康里","LIN":"25鄰","STREET":"埔聖街","SECT":" ","MAREA":" ","LANE":"８７巷","ALLEY":"２３弄","HOUSE_NO":"８號","E_COORD97":174112.89000000001,"N_COORD97":2547672.9900000002,"ADDRESS":"埔聖街８７巷２３弄８號","OBJECTID":205802},"geometry":{"x":174112.89000000153,"y":2547672.9900000021}},{"attributes":{"ID":205804,"DIS_CODE":0,"TOWNNAME":"新營區","LI":"新北里","LIN":"25鄰","STREET":"民治路","SECT":" ","MAREA":" ","LANE":"１５６巷","ALLEY":"１５弄","HOUSE_NO":"２１號","E_COORD97":179052.47,"N_COORD97":2578728.9500000002,"ADDRESS":"民治路１５６巷１５弄２１號","OBJECTID":205803},"geometry":{"x":179052.47000000067,"y":2578728.9500000011}},{"attributes":{"ID":205805,"DIS_CODE":0,"TOWNNAME":"安平區","LI":"華平里","LIN":"25鄰","STREET":"建平八街","SECT":" ","MAREA":" ","LANE":"４１６巷","ALLEY":"１２弄","HOUSE_NO":"１０號","E_COORD97":165271.89999999999,"N_COORD97":2543671.29,"ADDRESS":"建平八街４１６巷１２弄１０號","OBJECTID":205804},"geometry":{"x":165271.9000000013,"y":2543671.2899999991}},{"attributes":{"ID":205806,"DIS_CODE":0,"TOWNNAME":"安平區","LI":"華平里","LIN":"25鄰","STREET":"建平八街","SECT":" ","MAREA":" ","LANE":"４１６巷","ALLEY":"１２弄","HOUSE_NO":"１１號","E_COORD97":165265.19,"N_COORD97":2543659.8999999999,"ADDRESS":"建平八街４１６巷１２弄１１號","OBJECTID":205805},"geometry":{"x":165265.19000000134,"y":2543659.9000000022}},{"attributes":{"ID":205807,"DIS_CODE":0,"TOWNNAME":"安平區","LI":"華平里","LIN":"25鄰","STREET":"建平八街","SECT":" ","MAREA":" ","LANE":"４１６巷","ALLEY":"１２弄","HOUSE_NO":"１２號","E_COORD97":165267.31,"N_COORD97":2543672.0699999998,"ADDRESS":"建平八街４１６巷１２弄１２號","OBJECTID":205806},"geometry":{"x":165267.30999999959,"y":2543672.0700000022}},{"attributes":{"ID":205808,"DIS_CODE":0,"TOWNNAME":"安平區","LI":"華平里","LIN":"25鄰","STREET":"建平八街","SECT":" ","MAREA":" ","LANE":"４１６巷","ALLEY":"１２弄","HOUSE_NO":"１３號","E_COORD97":165252.64999999999,"N_COORD97":2543661.7000000002,"ADDRESS":"建平八街４１６巷１２弄１３號","OBJECTID":205807},"geometry":{"x":165252.65000000037,"y":2543661.6999999993}},{"attributes":{"ID":205809,"DIS_CODE":0,"TOWNNAME":"安平區","LI":"華平里","LIN":"25鄰","STREET":"建平八街","SECT":" ","MAREA":" ","LANE":"４１６巷","ALLEY":"１２弄","HOUSE_NO":"１４號","E_COORD97":165254.54999999999,"N_COORD97":2543671.7599999998,"ADDRESS":"建平八街４１６巷１２弄１４號","OBJECTID":205808},"geometry":{"x":165254.54999999888,"y":2543671.7599999998}},{"attributes":{"ID":205810,"DIS_CODE":0,"TOWNNAME":"安平區","LI":"華平里","LIN":"25鄰","STREET":"建平八街","SECT":" ","MAREA":" ","LANE":"４１６巷","ALLEY":"１２弄","HOUSE_NO":"１５號","E_COORD97":165248.63,"N_COORD97":2543662.3700000001,"ADDRESS":"建平八街４１６巷１２弄１５號","OBJECTID":205809},"geometry":{"x":165248.62999999989,"y":2543662.370000001}},{"attributes":{"ID":205811,"DIS_CODE":0,"TOWNNAME":"安平區","LI":"華平里","LIN":"25鄰","STREET":"建平八街","SECT":" ","MAREA":" ","LANE":"４１６巷","ALLEY":"１２弄","HOUSE_NO":"１６號","E_COORD97":165249.29999999999,"N_COORD97":2543672.54,"ADDRESS":"建平八街４１６巷１２弄１６號","OBJECTID":205810},"geometry":{"x":165249.29999999981,"y":2543672.5399999991}},{"attributes":{"ID":205812,"DIS_CODE":0,"TOWNNAME":"安平區","LI":"華平里","LIN":"25鄰","STREET":"建平八街","SECT":" ","MAREA":" ","LANE":"４１６巷","ALLEY":"１２弄","HOUSE_NO":"１７號","E_COORD97":165244.04000000001,"N_COORD97":2543662.8199999998,"ADDRESS":"建平八街４１６巷１２弄１７號","OBJECTID":205811},"geometry":{"x":165244.04000000004,"y":2543662.8199999984}},{"attributes":{"ID":205813,"DIS_CODE":0,"TOWNNAME":"安平區","LI":"華平里","LIN":"25鄰","STREET":"建平八街","SECT":" ","MAREA":" ","LANE":"４１６巷","ALLEY":"１２弄","HOUSE_NO":"１８號","E_COORD97":165245.38,"N_COORD97":2543672.7599999998,"ADDRESS":"建平八街４１６巷１２弄１８號","OBJECTID":205812},"geometry":{"x":165245.37999999989,"y":2543672.7599999998}},{"attributes":{"ID":205814,"DIS_CODE":0,"TOWNNAME":"安平區","LI":"華平里","LIN":"25鄰","STREET":"建平八街","SECT":" ","MAREA":" ","LANE":"４１６巷","ALLEY":"１２弄","HOUSE_NO":"１９號","E_COORD97":165238.89000000001,"N_COORD97":2543663.6000000001,"ADDRESS":"建平八街４１６巷１２弄１９號","OBJECTID":205813},"geometry":{"x":165238.8900000006,"y":2543663.5999999978}},{"attributes":{"ID":205815,"DIS_CODE":0,"TOWNNAME":"安平區","LI":"華平里","LIN":"25鄰","STREET":"建平八街","SECT":" ","MAREA":" ","LANE":"４１６巷","ALLEY":"１２弄","HOUSE_NO":"１號","E_COORD97":165288.67999999999,"N_COORD97":2543658,"ADDRESS":"建平八街４１６巷１２弄１號","OBJECTID":205814},"geometry":{"x":165288.6799999997,"y":2543658.0000000037}},{"attributes":{"ID":205816,"DIS_CODE":0,"TOWNNAME":"安平區","LI":"華平里","LIN":"25鄰","STREET":"建平八街","SECT":" ","MAREA":" ","LANE":"４１６巷","ALLEY":"１２弄","HOUSE_NO":"２０號","E_COORD97":165239.89999999999,"N_COORD97":2543673.3199999998,"ADDRESS":"建平八街４１６巷１２弄２０號","OBJECTID":205815},"geometry":{"x":165239.9000000013,"y":2543673.320000004}},{"attributes":{"ID":205817,"DIS_CODE":0,"TOWNNAME":"安平區","LI":"華平里","LIN":"25鄰","STREET":"建平八街","SECT":" ","MAREA":" ","LANE":"４１６巷","ALLEY":"１２弄","HOUSE_NO":"２１號","E_COORD97":165234.53,"N_COORD97":2543664.0499999998,"ADDRESS":"建平八街４１６巷１２弄２１號","OBJECTID":205816},"geometry":{"x":165234.53000000026,"y":2543664.0500000007}},{"attributes":{"ID":205818,"DIS_CODE":0,"TOWNNAME":"安平區","LI":"華平里","LIN":"25鄰","STREET":"建平八街","SECT":" ","MAREA":" ","LANE":"４１６巷","ALLEY":"１２弄","HOUSE_NO":"２２號","E_COORD97":165235.87,"N_COORD97":2543673.77,"ADDRESS":"建平八街４１６巷１２弄２２號","OBJECTID":205817},"geometry":{"x":165235.87000000197,"y":2543673.7700000014}},{"attributes":{"ID":205819,"DIS_CODE":0,"TOWNNAME":"安平區","LI":"華平里","LIN":"25鄰","STREET":"建平八街","SECT":" ","MAREA":" ","LANE":"４１６巷","ALLEY":"１２弄","HOUSE_NO":"２３號","E_COORD97":165229.38,"N_COORD97":2543665.1699999999,"ADDRESS":"建平八街４１６巷１２弄２３號","OBJECTID":205818},"geometry":{"x":165229.38000000082,"y":2543665.1700000018}},{"attributes":{"ID":205820,"DIS_CODE":0,"TOWNNAME":"安平區","LI":"華平里","LIN":"25鄰","STREET":"建平八街","SECT":" ","MAREA":" ","LANE":"４１６巷","ALLEY":"１２弄","HOUSE_NO":"２４號","E_COORD97":165231.95999999999,"N_COORD97":2543673.77,"ADDRESS":"建平八街４１６巷１２弄２４號","OBJECTID":205819},"geometry":{"x":165231.96000000089,"y":2543673.7700000014}},{"attributes":{"ID":205821,"DIS_CODE":0,"TOWNNAME":"安南區","LI":"溪心里","LIN":"17鄰","STREET":"智安四街","SECT":" ","MAREA":" ","LANE":" ","ALLEY":" ","HOUSE_NO":"４７號","E_COORD97":166210.72,"N_COORD97":2550215.3799999999,"ADDRESS":"智安四街４７號","OBJECTID":205820},"geometry":{"x":166210.71999999974,"y":2550215.3800000008}},{"attributes":{"ID":205822,"DIS_CODE":0,"TOWNNAME":"安平區","LI":"華平里","LIN":"25鄰","STREET":"建平八街","SECT":" ","MAREA":" ","LANE":"４１６巷","ALLEY":"１２弄","HOUSE_NO":"２５號","E_COORD97":165224.70999999999,"N_COORD97":2543665.1400000001,"ADDRESS":"建平八街４１６巷１２弄２５號","OBJECTID":205821},"geometry":{"x":165224.70999999996,"y":2543665.1400000025}},{"attributes":{"ID":205823,"DIS_CODE":0,"TOWNNAME":"安平區","LI":"華平里","LIN":"25鄰","STREET":"建平八街","SECT":" ","MAREA":" ","LANE":"４１６巷","ALLEY":"１２弄","HOUSE_NO":"２６號","E_COORD97":165226.60999999999,"N_COORD97":2543673.4199999999,"ADDRESS":"建平八街４１６巷１２弄２６號","OBJECTID":205822},"geometry":{"x":165226.61000000127,"y":2543673.4200000018}},{"attributes":{"ID":205824,"DIS_CODE":0,"TOWNNAME":"安平區","LI":"華平里","LIN":"25鄰","STREET":"建平八街","SECT":" ","MAREA":" ","LANE":"４１６巷","ALLEY":"１２弄","HOUSE_NO":"２７號","E_COORD97":165220.91,"N_COORD97":2543665.6600000001,"ADDRESS":"建平八街４１６巷１２弄２７號","OBJECTID":205823},"geometry":{"x":165220.91000000108,"y":2543665.6600000001}},{"attributes":{"ID":205825,"DIS_CODE":0,"TOWNNAME":"東山區","LI":"東原里","LIN":"2鄰","STREET":" ","SECT":" ","MAREA":"前大埔","LANE":" ","ALLEY":" ","HOUSE_NO":"１６號","E_COORD97":193249.98000000001,"N_COORD97":2573722.9199999999,"ADDRESS":"前大埔１６號","OBJECTID":205824},"geometry":{"x":193249.98000000045,"y":2573722.9199999999}},{"attributes":{"ID":205826,"DIS_CODE":0,"TOWNNAME":"安平區","LI":"華平里","LIN":"25鄰","STREET":"建平八街","SECT":" ","MAREA":" ","LANE":"４１６巷","ALLEY":"１２弄","HOUSE_NO":"２８號","E_COORD97":165222.12,"N_COORD97":2543674.2799999998,"ADDRESS":"建平八街４１６巷１２弄２８號","OBJECTID":205825},"geometry":{"x":165222.12000000011,"y":2543674.2799999993}},{"attributes":{"ID":205827,"DIS_CODE":0,"TOWNNAME":"安平區","LI":"華平里","LIN":"25鄰","STREET":"建平八街","SECT":" ","MAREA":" ","LANE":"４１６巷","ALLEY":"１２弄","HOUSE_NO":"２９號","E_COORD97":165216.42000000001,"N_COORD97":2543666.3500000001,"ADDRESS":"建平八街４１６巷１２弄２９號","OBJECTID":205826},"geometry":{"x":165216.41999999993,"y":2543666.3500000015}},{"attributes":{"ID":205828,"DIS_CODE":0,"TOWNNAME":"安平區","LI":"華平里","LIN":"25鄰","STREET":"建平八街","SECT":" ","MAREA":" ","LANE":"４１６巷","ALLEY":"１２弄","HOUSE_NO":"２號","E_COORD97":165290.13,"N_COORD97":2543668.1600000001,"ADDRESS":"建平八街４１６巷１２弄２號","OBJECTID":205827},"geometry":{"x":165290.13000000082,"y":2543668.160000002}},{"attributes":{"ID":205829,"DIS_CODE":0,"TOWNNAME":"安平區","LI":"華平里","LIN":"25鄰","STREET":"建平八街","SECT":" ","MAREA":" ","LANE":"４１６巷","ALLEY":"１２弄","HOUSE_NO":"３０號","E_COORD97":165216.94,"N_COORD97":2543674.7999999998,"ADDRESS":"建平八街４１６巷１２弄３０號","OBJECTID":205828},"geometry":{"x":165216.93999999948,"y":2543674.8000000026}},{"attributes":{"ID":205830,"DIS_CODE":0,"TOWNNAME":"安平區","LI":"華平里","LIN":"25鄰","STREET":"建平八街","SECT":" ","MAREA":" ","LANE":"４１６巷","ALLEY":"１２弄","HOUSE_NO":"３１號","E_COORD97":165211.76000000001,"N_COORD97":2543667.3799999999,"ADDRESS":"建平八街４１６巷１２弄３１號","OBJECTID":205829},"geometry":{"x":165211.75999999978,"y":2543667.379999999}},{"attributes":{"ID":205831,"DIS_CODE":0,"TOWNNAME":"安平區","LI":"華平里","LIN":"25鄰","STREET":"建平八街","SECT":" ","MAREA":" ","LANE":"４１６巷","ALLEY":"１２弄","HOUSE_NO":"３２號","E_COORD97":165212.79000000001,"N_COORD97":2543675.6600000001,"ADDRESS":"建平八街４１６巷１２弄３２號","OBJECTID":205830},"geometry":{"x":165212.79000000097,"y":2543675.660000002}},{"attributes":{"ID":205832,"DIS_CODE":0,"TOWNNAME":"安平區","LI":"華平里","LIN":"25鄰","STREET":"建平八街","SECT":" ","MAREA":" ","LANE":"４１６巷","ALLEY":"１２弄","HOUSE_NO":"３號","E_COORD97":165283.53,"N_COORD97":2543658.1099999999,"ADDRESS":"建平八街４１６巷１２弄３號","OBJECTID":205831},"geometry":{"x":165283.53000000026,"y":2543658.1100000013}},{"attributes":{"ID":205833,"DIS_CODE":0,"TOWNNAME":"安平區","LI":"華平里","LIN":"25鄰","STREET":"建平八街","SECT":" ","MAREA":" ","LANE":"４１６巷","ALLEY":"１２弄","HOUSE_NO":"４號","E_COORD97":165284.98999999999,"N_COORD97":2543668.5,"ADDRESS":"建平八街４１６巷１２弄４號","OBJECTID":205832},"geometry":{"x":165284.99000000115,"y":2543668.5000000037}},{"attributes":{"ID":205834,"DIS_CODE":0,"TOWNNAME":"安平區","LI":"華平里","LIN":"25鄰","STREET":"建平八街","SECT":" ","MAREA":" ","LANE":"４１６巷","ALLEY":"１２弄","HOUSE_NO":"５號","E_COORD97":165279.17000000001,"N_COORD97":2543658.3300000001,"ADDRESS":"建平八街４１６巷１２弄５號","OBJECTID":205833},"geometry":{"x":165279.16999999993,"y":2543658.3300000001}},{"attributes":{"ID":205835,"DIS_CODE":0,"TOWNNAME":"安平區","LI":"華平里","LIN":"25鄰","STREET":"建平八街","SECT":" ","MAREA":" ","LANE":"４１６巷","ALLEY":"１２弄","HOUSE_NO":"６號","E_COORD97":165281.51999999999,"N_COORD97":2543670.1699999999,"ADDRESS":"建平八街４１６巷１２弄６號","OBJECTID":205834},"geometry":{"x":165281.51999999955,"y":2543670.1699999981}},{"attributes":{"ID":205836,"DIS_CODE":0,"TOWNNAME":"安平區","LI":"華平里","LIN":"25鄰","STREET":"建平八街","SECT":" ","MAREA":" ","LANE":"４１６巷","ALLEY":"１２弄","HOUSE_NO":"７號","E_COORD97":165275.14000000001,"N_COORD97":2543658.6699999999,"ADDRESS":"建平八街４１６巷１２弄７號","OBJECTID":205835},"geometry":{"x":165275.13999999966,"y":2543658.6699999999}},{"attributes":{"ID":205837,"DIS_CODE":0,"TOWNNAME":"安平區","LI":"華平里","LIN":"25鄰","STREET":"建平八街","SECT":" ","MAREA":" ","LANE":"４１６巷","ALLEY":"１２弄","HOUSE_NO":"８號","E_COORD97":165276.70999999999,"N_COORD97":2543671.1800000002,"ADDRESS":"建平八街４１６巷１２弄８號","OBJECTID":205836},"geometry":{"x":165276.70999999996,"y":2543671.1800000016}},{"attributes":{"ID":205838,"DIS_CODE":0,"TOWNNAME":"安平區","LI":"華平里","LIN":"25鄰","STREET":"建平八街","SECT":" ","MAREA":" ","LANE":"４１６巷","ALLEY":"１２弄","HOUSE_NO":"９號","E_COORD97":165269.54999999999,"N_COORD97":2543659.2200000002,"ADDRESS":"建平八街４１６巷１２弄９號","OBJECTID":205837},"geometry":{"x":165269.54999999981,"y":2543659.2200000007}},{"attributes":{"ID":205839,"DIS_CODE":0,"TOWNNAME":"安平區","LI":"華平里","LIN":"25鄰","STREET":"建平八街","SECT":" ","MAREA":" ","LANE":"４３４巷","ALLEY":"１２弄","HOUSE_NO":"１０號","E_COORD97":165182.04999999999,"N_COORD97":2543681.3100000001,"ADDRESS":"建平八街４３４巷１２弄１０號","OBJECTID":205838},"geometry":{"x":165182.05000000075,"y":2543681.3100000024}},{"attributes":{"ID":205840,"DIS_CODE":0,"TOWNNAME":"安平區","LI":"華平里","LIN":"25鄰","STREET":"建平八街","SECT":" ","MAREA":" ","LANE":"４３４巷","ALLEY":"１２弄","HOUSE_NO":"１１號","E_COORD97":165176,"N_COORD97":2543672.6800000002,"ADDRESS":"建平八街４３４巷１２弄１１號","OBJECTID":205839},"geometry":{"x":165176.00000000093,"y":2543672.6799999997}},{"attributes":{"ID":205841,"DIS_CODE":0,"TOWNNAME":"安平區","LI":"華平里","LIN":"25鄰","STREET":"建平八街","SECT":" ","MAREA":" ","LANE":"４３４巷","ALLEY":"１２弄","HOUSE_NO":"１２號","E_COORD97":165176.87,"N_COORD97":2543681.1400000001,"ADDRESS":"建平八街４３４巷１２弄１２號","OBJECTID":205840},"geometry":{"x":165176.87000000104,"y":2543681.1400000006}},{"attributes":{"ID":205842,"DIS_CODE":0,"TOWNNAME":"安平區","LI":"華平里","LIN":"25鄰","STREET":"建平八街","SECT":" ","MAREA":" ","LANE":"４３４巷","ALLEY":"１２弄","HOUSE_NO":"１號","E_COORD97":165199.14999999999,"N_COORD97":2543669.23,"ADDRESS":"建平八街４３４巷１２弄１號","OBJECTID":205841},"geometry":{"x":165199.1500000013,"y":2543669.2300000004}},{"attributes":{"ID":205843,"DIS_CODE":0,"TOWNNAME":"安平區","LI":"華平里","LIN":"25鄰","STREET":"建平八街","SECT":" ","MAREA":" ","LANE":"４３４巷","ALLEY":"１２弄","HOUSE_NO":"２號","E_COORD97":165199.67000000001,"N_COORD97":2543678.8900000001,"ADDRESS":"建平八街４３４巷１２弄２號","OBJECTID":205842},"geometry":{"x":165199.67000000179,"y":2543678.8900000006}},{"attributes":{"ID":205844,"DIS_CODE":0,"TOWNNAME":"安平區","LI":"華平里","LIN":"25鄰","STREET":"建平八街","SECT":" ","MAREA":" ","LANE":"４３４巷","ALLEY":"１２弄","HOUSE_NO":"３號","E_COORD97":165194.14000000001,"N_COORD97":2543670.1000000001,"ADDRESS":"建平八街４３４巷１２弄３號","OBJECTID":205843},"geometry":{"x":165194.13999999966,"y":2543670.0999999996}},{"attributes":{"ID":205845,"DIS_CODE":0,"TOWNNAME":"安平區","LI":"華平里","LIN":"25鄰","STREET":"建平八街","SECT":" ","MAREA":" ","LANE":"４３４巷","ALLEY":"１２弄","HOUSE_NO":"４號","E_COORD97":165194.48000000001,"N_COORD97":2543679.0699999998,"ADDRESS":"建平八街４３４巷１２弄４號","OBJECTID":205844},"geometry":{"x":165194.48000000045,"y":2543679.0700000022}},{"attributes":{"ID":205846,"DIS_CODE":0,"TOWNNAME":"安平區","LI":"華平里","LIN":"25鄰","STREET":"建平八街","SECT":" ","MAREA":" ","LANE":"４３４巷","ALLEY":"１２弄","HOUSE_NO":"５號","E_COORD97":165189.29999999999,"N_COORD97":2543670.6099999999,"ADDRESS":"建平八街４３４巷１２弄５號","OBJECTID":205845},"geometry":{"x":165189.30000000075,"y":2543670.6100000013}},{"attributes":{"ID":205847,"DIS_CODE":0,"TOWNNAME":"安平區","LI":"華平里","LIN":"25鄰","STREET":"建平八街","SECT":" ","MAREA":" ","LANE":"４３４巷","ALLEY":"１２弄","HOUSE_NO":"６號","E_COORD97":165189.98999999999,"N_COORD97":2543679.2400000002,"ADDRESS":"建平八街４３４巷１２弄６號","OBJECTID":205846},"geometry":{"x":165189.99000000115,"y":2543679.2400000002}},{"attributes":{"ID":205848,"DIS_CODE":0,"TOWNNAME":"安平區","LI":"華平里","LIN":"25鄰","STREET":"建平八街","SECT":" ","MAREA":" ","LANE":"４３４巷","ALLEY":"１２弄","HOUSE_NO":"７號","E_COORD97":165184.98000000001,"N_COORD97":2543671.2999999998,"ADDRESS":"建平八街４３４巷１２弄７號","OBJECTID":205847},"geometry":{"x":165184.98000000138,"y":2543671.3000000026}},{"attributes":{"ID":205849,"DIS_CODE":0,"TOWNNAME":"安平區","LI":"華平里","LIN":"25鄰","STREET":"建平八街","SECT":" ","MAREA":" ","LANE":"４３４巷","ALLEY":"１２弄","HOUSE_NO":"８號","E_COORD97":165185.67000000001,"N_COORD97":2543680.79,"ADDRESS":"建平八街４３４巷１２弄８號","OBJECTID":205848},"geometry":{"x":165185.66999999993,"y":2543680.7899999991}},{"attributes":{"ID":205850,"DIS_CODE":0,"TOWNNAME":"安平區","LI":"華平里","LIN":"25鄰","STREET":"建平八街","SECT":" ","MAREA":" ","LANE":"４３４巷","ALLEY":"１２弄","HOUSE_NO":"９號","E_COORD97":165180.14999999999,"N_COORD97":2543671.9900000002,"ADDRESS":"建平八街４３４巷１２弄９號","OBJECTID":205849},"geometry":{"x":165180.1500000013,"y":2543671.9900000039}},{"attributes":{"ID":205851,"DIS_CODE":0,"TOWNNAME":"新營區","LI":"新北里","LIN":"25鄰","STREET":"民治路","SECT":" ","MAREA":" ","LANE":"１５６巷","ALLEY":"１５弄","HOUSE_NO":"１７號","E_COORD97":179060.57999999999,"N_COORD97":2578730.02,"ADDRESS":"民治路１５６巷１５弄１７號","OBJECTID":205850},"geometry":{"x":179060.58000000101,"y":2578730.0199999996}},{"attributes":{"ID":205852,"DIS_CODE":0,"TOWNNAME":"北區","LI":"成功里","LIN":"25鄰","STREET":"北成路","SECT":" ","MAREA":" ","LANE":"１２８巷","ALLEY":"６７弄","HOUSE_NO":"２號","E_COORD97":168999.26999999999,"N_COORD97":2546874.9100000001,"ADDRESS":"北成路１２８巷６７弄２號","OBJECTID":205851},"geometry":{"x":168999.27000000142,"y":2546874.9100000001}},{"attributes":{"ID":205853,"DIS_CODE":0,"TOWNNAME":"北區","LI":"成功里","LIN":"25鄰","STREET":"北成路","SECT":" ","MAREA":" ","LANE":"１２８巷","ALLEY":"６７弄","HOUSE_NO":"６號","E_COORD97":168994.19,"N_COORD97":2546877.2000000002,"ADDRESS":"北成路１２８巷６７弄６號","OBJECTID":205852},"geometry":{"x":168994.19000000134,"y":2546877.2000000011}},{"attributes":{"ID":205854,"DIS_CODE":0,"TOWNNAME":"北區","LI":"成功里","LIN":"25鄰","STREET":"北成路","SECT":" ","MAREA":" ","LANE":"１２８巷","ALLEY":"６７弄","HOUSE_NO":"８號","E_COORD97":168988.98000000001,"N_COORD97":2546879.7400000002,"ADDRESS":"北成路１２８巷６７弄８號","OBJECTID":205853},"geometry":{"x":168988.98000000138,"y":2546879.7400000002}},{"attributes":{"ID":205855,"DIS_CODE":0,"TOWNNAME":"北區","LI":"成功里","LIN":"25鄰","STREET":"北成路","SECT":" ","MAREA":" ","LANE":"１２８巷","ALLEY":"６７弄","HOUSE_NO":"１０號","E_COORD97":168984.03,"N_COORD97":2546882.1499999999,"ADDRESS":"北成路１２８巷６７弄１０號","OBJECTID":205854},"geometry":{"x":168984.03000000026,"y":2546882.1500000022}},{"attributes":{"ID":205856,"DIS_CODE":0,"TOWNNAME":"北區","LI":"成功里","LIN":"25鄰","STREET":"北成路","SECT":" ","MAREA":" ","LANE":"１２８巷","ALLEY":"６７弄","HOUSE_NO":"１２號","E_COORD97":168978.95000000001,"N_COORD97":2546884.8199999998,"ADDRESS":"北成路１２８巷６７弄１２號","OBJECTID":205855},"geometry":{"x":168978.95000000112,"y":2546884.8200000022}},{"attributes":{"ID":205857,"DIS_CODE":0,"TOWNNAME":"北區","LI":"成功里","LIN":"25鄰","STREET":"北成路","SECT":" ","MAREA":" ","LANE":"１２８巷","ALLEY":"６７弄","HOUSE_NO":"１６號","E_COORD97":168973.73999999999,"N_COORD97":2546887.3599999999,"ADDRESS":"北成路１２８巷６７弄１６號","OBJECTID":205856},"geometry":{"x":168973.74000000115,"y":2546887.3600000013}},{"attributes":{"ID":205858,"DIS_CODE":0,"TOWNNAME":"北區","LI":"成功里","LIN":"25鄰","STREET":"北成路","SECT":" ","MAREA":" ","LANE":"１２８巷","ALLEY":"６７弄","HOUSE_NO":"１６之１號","E_COORD97":168968.92000000001,"N_COORD97":2546890.2799999998,"ADDRESS":"北成路１２８巷６７弄１６之１號","OBJECTID":205857},"geometry":{"x":168968.92000000086,"y":2546890.2800000012}},{"attributes":{"ID":205859,"DIS_CODE":0,"TOWNNAME":"北區","LI":"成功里","LIN":"25鄰","STREET":"北成路","SECT":" ","MAREA":" ","LANE":"１２８巷","ALLEY":"６７弄","HOUSE_NO":"１８號","E_COORD97":168951.51999999999,"N_COORD97":2546897.8999999999,"ADDRESS":"北成路１２８巷６７弄１８號","OBJECTID":205858},"geometry":{"x":168951.51999999955,"y":2546897.9000000022}},{"attributes":{"ID":205860,"DIS_CODE":0,"TOWNNAME":"北區","LI":"成功里","LIN":"25鄰","STREET":"北成路","SECT":" ","MAREA":" ","LANE":"１２８巷","ALLEY":"６７弄","HOUSE_NO":"１８之２號","E_COORD97":168938.56,"N_COORD97":2546904.3799999999,"ADDRESS":"北成路１２８巷６７弄１８之２號","OBJECTID":205859},"geometry":{"x":168938.56000000052,"y":2546904.379999999}},{"attributes":{"ID":205861,"DIS_CODE":0,"TOWNNAME":"北區","LI":"成功里","LIN":"25鄰","STREET":"北成路","SECT":" ","MAREA":" ","LANE":"１２８巷","ALLEY":"８１弄","HOUSE_NO":"１０號","E_COORD97":168999.39999999999,"N_COORD97":2546913.8999999999,"ADDRESS":"北成路１２８巷８１弄１０號","OBJECTID":205860},"geometry":{"x":168999.4000000013,"y":2546913.9000000041}},{"attributes":{"ID":205862,"DIS_CODE":0,"TOWNNAME":"北區","LI":"成功里","LIN":"25鄰","STREET":"北成路","SECT":" ","MAREA":" ","LANE":"１２８巷","ALLEY":"８１弄","HOUSE_NO":"１１號","E_COORD97":168981.87,"N_COORD97":2546907.6800000002,"ADDRESS":"北成路１２８巷８１弄１１號","OBJECTID":205861},"geometry":{"x":168981.87000000011,"y":2546907.6799999978}},{"attributes":{"ID":205863,"DIS_CODE":0,"TOWNNAME":"北區","LI":"成功里","LIN":"25鄰","STREET":"北成路","SECT":" ","MAREA":" ","LANE":"１２８巷","ALLEY":"８１弄","HOUSE_NO":"１２號","E_COORD97":168994.19,"N_COORD97":2546915.9300000002,"ADDRESS":"北成路１２８巷８１弄１２號","OBJECTID":205862},"geometry":{"x":168994.19000000134,"y":2546915.9299999997}},{"attributes":{"ID":205864,"DIS_CODE":0,"TOWNNAME":"北區","LI":"成功里","LIN":"25鄰","STREET":"北成路","SECT":" ","MAREA":" ","LANE":"１２８巷","ALLEY":"８１弄","HOUSE_NO":"１６號","E_COORD97":168987.20999999999,"N_COORD97":2546919.6200000001,"ADDRESS":"北成路１２８巷８１弄１６號","OBJECTID":205863},"geometry":{"x":168987.21000000089,"y":2546919.620000001}},{"attributes":{"ID":205865,"DIS_CODE":0,"TOWNNAME":"北區","LI":"成功里","LIN":"25鄰","STREET":"北成路","SECT":" ","MAREA":" ","LANE":"１２８巷","ALLEY":"８１弄","HOUSE_NO":"１號","E_COORD97":169009.04999999999,"N_COORD97":2546894.4700000002,"ADDRESS":"北成路１２８巷８１弄１號","OBJECTID":205864},"geometry":{"x":169009.04999999981,"y":2546894.4700000025}},{"attributes":{"ID":205866,"DIS_CODE":0,"TOWNNAME":"北區","LI":"成功里","LIN":"25鄰","STREET":"北成路","SECT":" ","MAREA":" ","LANE":"１２８巷","ALLEY":"８１弄","HOUSE_NO":"２號","E_COORD97":169015.14999999999,"N_COORD97":2546906.0299999998,"ADDRESS":"北成路１２８巷８１弄２號","OBJECTID":205865},"geometry":{"x":169015.1500000013,"y":2546906.0300000012}},{"attributes":{"ID":205867,"DIS_CODE":0,"TOWNNAME":"北區","LI":"成功里","LIN":"25鄰","STREET":"北成路","SECT":" ","MAREA":" ","LANE":"１２８巷","ALLEY":"８１弄","HOUSE_NO":"３號","E_COORD97":169003.32999999999,"N_COORD97":2546897.0099999998,"ADDRESS":"北成路１２８巷８１弄３號","OBJECTID":205866},"geometry":{"x":169003.33000000101,"y":2546897.0100000016}},{"attributes":{"ID":205868,"DIS_CODE":0,"TOWNNAME":"北區","LI":"成功里","LIN":"25鄰","STREET":"北成路","SECT":" ","MAREA":" ","LANE":"１２８巷","ALLEY":"８１弄","HOUSE_NO":"５號","E_COORD97":168998.63,"N_COORD97":2546899.6800000002,"ADDRESS":"北成路１２８巷８１弄５號","OBJECTID":205867},"geometry":{"x":168998.62999999989,"y":2546899.6799999997}},{"attributes":{"ID":205869,"DIS_CODE":0,"TOWNNAME":"北區","LI":"成功里","LIN":"25鄰","STREET":"北成路","SECT":" ","MAREA":" ","LANE":"１２８巷","ALLEY":"８１弄","HOUSE_NO":"６號","E_COORD97":169009.81,"N_COORD97":2546908.8199999998,"ADDRESS":"北成路１２８巷８１弄６號","OBJECTID":205868},"geometry":{"x":169009.81000000052,"y":2546908.8200000022}},{"attributes":{"ID":205870,"DIS_CODE":0,"TOWNNAME":"北區","LI":"大港里","LIN":"25鄰","STREET":"中華北路","SECT":"一段","MAREA":" ","LANE":"２０３巷","ALLEY":"１６弄","HOUSE_NO":"３１號","E_COORD97":166343.73999999999,"N_COORD97":2545765.3399999999,"ADDRESS":"中華北路一段２０３巷１６弄３１號","OBJECTID":205869},"geometry":{"x":166343.73999999929,"y":2545765.3400000017}},{"attributes":{"ID":205871,"DIS_CODE":0,"TOWNNAME":"北區","LI":"大港里","LIN":"25鄰","STREET":"中華北路","SECT":"一段","MAREA":" ","LANE":"２０３巷","ALLEY":"１６弄","HOUSE_NO":"３３號","E_COORD97":166341.32999999999,"N_COORD97":2545768.23,"ADDRESS":"中華北路一段２０３巷１６弄３３號","OBJECTID":205870},"geometry":{"x":166341.33000000194,"y":2545768.2300000004}},{"attributes":{"ID":205872,"DIS_CODE":0,"TOWNNAME":"北區","LI":"大港里","LIN":"25鄰","STREET":"中華北路","SECT":"一段","MAREA":" ","LANE":"２０３巷","ALLEY":"１６弄","HOUSE_NO":"３５號","E_COORD97":166338.26999999999,"N_COORD97":2545771.27,"ADDRESS":"中華北路一段２０３巷１６弄３５號","OBJECTID":205871},"geometry":{"x":166338.27000000048,"y":2545771.2700000033}},{"attributes":{"ID":205873,"DIS_CODE":0,"TOWNNAME":"北區","LI":"大港里","LIN":"25鄰","STREET":"中華北路","SECT":"一段","MAREA":" ","LANE":"２０３巷","ALLEY":"１６弄","HOUSE_NO":"３７號","E_COORD97":166334.72,"N_COORD97":2545774.3199999998,"ADDRESS":"中華北路一段２０３巷１６弄３７號","OBJECTID":205872},"geometry":{"x":166334.71999999974,"y":2545774.3200000003}},{"attributes":{"ID":205874,"DIS_CODE":0,"TOWNNAME":"北區","LI":"大港里","LIN":"25鄰","STREET":"中華北路","SECT":"一段","MAREA":" ","LANE":"２０３巷","ALLEY":"１６弄","HOUSE_NO":"３９號","E_COORD97":166331.5,"N_COORD97":2545777.21,"ADDRESS":"中華北路一段２０３巷１６弄３９號","OBJECTID":205873},"geometry":{"x":166331.5,"y":2545777.2100000028}},{"attributes":{"ID":205875,"DIS_CODE":0,"TOWNNAME":"麻豆區","LI":"埤頭里","LIN":"2鄰","STREET":" ","SECT":" ","MAREA":"埤頭","LANE":" ","ALLEY":" ","HOUSE_NO":"２３號","E_COORD97":170732.01000000001,"N_COORD97":2565735.5600000001,"ADDRESS":"埤頭２３號","OBJECTID":205874},"geometry":{"x":170732.01000000164,"y":2565735.5600000005}},{"attributes":{"ID":205876,"DIS_CODE":0,"TOWNNAME":"北區","LI":"大港里","LIN":"25鄰","STREET":"中華北路","SECT":"一段","MAREA":" ","LANE":"２０３巷","ALLEY":"１６弄","HOUSE_NO":"３號","E_COORD97":166366.26000000001,"N_COORD97":2545741.7200000002,"ADDRESS":"中華北路一段２０３巷１６弄３號","OBJECTID":205875},"geometry":{"x":166366.25999999978,"y":2545741.7200000007}},{"attributes":{"ID":205877,"DIS_CODE":0,"TOWNNAME":"北區","LI":"大港里","LIN":"25鄰","STREET":"中華北路","SECT":"一段","MAREA":" ","LANE":"２０３巷","ALLEY":"１６弄","HOUSE_NO":"５號","E_COORD97":166361.73999999999,"N_COORD97":2545745.4100000001,"ADDRESS":"中華北路一段２０３巷１６弄５號","OBJECTID":205876},"geometry":{"x":166361.74000000022,"y":2545745.410000002}},{"attributes":{"ID":205878,"DIS_CODE":0,"TOWNNAME":"北區","LI":"大港里","LIN":"25鄰","STREET":"中華北路","SECT":"一段","MAREA":" ","LANE":"２０３巷","ALLEY":"１６弄","HOUSE_NO":"７號","E_COORD97":166359.01000000001,"N_COORD97":2545748.6099999999,"ADDRESS":"中華北路一段２０３巷１６弄７號","OBJECTID":205877},"geometry":{"x":166359.01000000071,"y":2545748.6100000031}},{"attributes":{"ID":205879,"DIS_CODE":0,"TOWNNAME":"北區","LI":"大港里","LIN":"25鄰","STREET":"中華北路","SECT":"一段","MAREA":" ","LANE":"２０３巷","ALLEY":"１６弄","HOUSE_NO":"９號","E_COORD97":166356.60000000001,"N_COORD97":2545751.3399999999,"ADDRESS":"中華北路一段２０３巷１６弄９號","OBJECTID":205878},"geometry":{"x":166356.60000000056,"y":2545751.3400000017}},{"attributes":{"ID":205880,"DIS_CODE":0,"TOWNNAME":"北區","LI":"大港里","LIN":"25鄰","STREET":"中華北路","SECT":"一段","MAREA":" ","LANE":"２０３巷","ALLEY":"１６弄","HOUSE_NO":"１１號","E_COORD97":166342.98000000001,"N_COORD97":2545739.4900000002,"ADDRESS":"中華北路一段２０３巷１６弄１１號","OBJECTID":205879},"geometry":{"x":166342.98000000138,"y":2545739.4900000002}},{"attributes":{"ID":205881,"DIS_CODE":0,"TOWNNAME":"北區","LI":"大港里","LIN":"25鄰","STREET":"中華北路","SECT":"一段","MAREA":" ","LANE":"２０３巷","ALLEY":"１６弄","HOUSE_NO":"１３號","E_COORD97":166331.20000000001,"N_COORD97":2545732.2999999998,"ADDRESS":"中華北路一段２０３巷１６弄１３號","OBJECTID":205880},"geometry":{"x":166331.20000000112,"y":2545732.3000000026}},{"attributes":{"ID":205882,"DIS_CODE":0,"TOWNNAME":"北區","LI":"大港里","LIN":"25鄰","STREET":"中華北路","SECT":"一段","MAREA":" ","LANE":"２０３巷","ALLEY":"１６弄","HOUSE_NO":"１５號","E_COORD97":166280.26000000001,"N_COORD97":2545712.4700000002,"ADDRESS":"中華北路一段２０３巷１６弄１５號","OBJECTID":205881},"geometry":{"x":166280.25999999978,"y":2545712.4700000007}},{"attributes":{"ID":205883,"DIS_CODE":0,"TOWNNAME":"東山區","LI":"東原里","LIN":"2鄰","STREET":" ","SECT":" ","MAREA":"前大埔","LANE":" ","ALLEY":" ","HOUSE_NO":"１５號之１","E_COORD97":193220.92999999999,"N_COORD97":2573742.1899999999,"ADDRESS":"前大埔１５號之１","OBJECTID":205882},"geometry":{"x":193220.93000000156,"y":2573742.1899999995}},{"attributes":{"ID":205884,"DIS_CODE":0,"TOWNNAME":"東山區","LI":"東原里","LIN":"2鄰","STREET":" ","SECT":" ","MAREA":"前大埔","LANE":" ","ALLEY":" ","HOUSE_NO":"１５號之３","E_COORD97":193236.12,"N_COORD97":2573743.8799999999,"ADDRESS":"前大埔１５號之３","OBJECTID":205883},"geometry":{"x":193236.12000000104,"y":2573743.8799999971}},{"attributes":{"ID":205885,"DIS_CODE":0,"TOWNNAME":"東山區","LI":"東原里","LIN":"2鄰","STREET":" ","SECT":" ","MAREA":"前大埔","LANE":" ","ALLEY":" ","HOUSE_NO":"１７號","E_COORD97":193260.04999999999,"N_COORD97":2573689.1899999999,"ADDRESS":"前大埔１７號","OBJECTID":205884},"geometry":{"x":193260.04999999981,"y":2573689.1900000013}},{"attributes":{"ID":205886,"DIS_CODE":0,"TOWNNAME":"東山區","LI":"東原里","LIN":"2鄰","STREET":" ","SECT":" ","MAREA":"前大埔","LANE":" ","ALLEY":" ","HOUSE_NO":"１９號之１","E_COORD97":193253.78,"N_COORD97":2573671.27,"ADDRESS":"前大埔１９號之１","OBJECTID":205885},"geometry":{"x":193253.78000000119,"y":2573671.2700000014}},{"attributes":{"ID":205887,"DIS_CODE":0,"TOWNNAME":"東山區","LI":"東原里","LIN":"23鄰","STREET":" ","SECT":" ","MAREA":"前大埔","LANE":" ","ALLEY":" ","HOUSE_NO":"１之２０號","E_COORD97":193396.27286200001,"N_COORD97":2573957.3524199999,"ADDRESS":"前大埔１之２０號","OBJECTID":205886},"geometry":{"x":193396.27286200039,"y":2573957.3524180036}},{"attributes":{"ID":205888,"DIS_CODE":0,"TOWNNAME":"東山區","LI":"東原里","LIN":"2鄰","STREET":" ","SECT":" ","MAREA":"前大埔","LANE":" ","ALLEY":" ","HOUSE_NO":"２２號","E_COORD97":193205.31,"N_COORD97":2573691.8199999998,"ADDRESS":"前大埔２２號","OBJECTID":205887},"geometry":{"x":193205.31000000052,"y":2573691.820000004}},{"attributes":{"ID":205889,"DIS_CODE":0,"TOWNNAME":"東山區","LI":"東原里","LIN":"2鄰","STREET":" ","SECT":" ","MAREA":"前大埔","LANE":" ","ALLEY":" ","HOUSE_NO":"２４號","E_COORD97":193216.19,"N_COORD97":2573688.5600000001,"ADDRESS":"前大埔２４號","OBJECTID":205888},"geometry":{"x":193216.19000000041,"y":2573688.5600000005}},{"attributes":{"ID":205890,"DIS_CODE":0,"TOWNNAME":"麻豆區","LI":"埤頭里","LIN":"2鄰","STREET":" ","SECT":" ","MAREA":"埤頭","LANE":" ","ALLEY":" ","HOUSE_NO":"１４號之１","E_COORD97":170836.51999999999,"N_COORD97":2565700.9100000001,"ADDRESS":"埤頭１４號之１","OBJECTID":205889},"geometry":{"x":170836.51999999955,"y":2565700.910000002}},{"attributes":{"ID":205891,"DIS_CODE":0,"TOWNNAME":"麻豆區","LI":"埤頭里","LIN":"2鄰","STREET":" ","SECT":" ","MAREA":"埤頭","LANE":" ","ALLEY":" ","HOUSE_NO":"１４號之２０","E_COORD97":170833.26000000001,"N_COORD97":2565756.6299999999,"ADDRESS":"埤頭１４號之２０","OBJECTID":205890},"geometry":{"x":170833.25999999978,"y":2565756.629999999}},{"attributes":{"ID":205892,"DIS_CODE":0,"TOWNNAME":"麻豆區","LI":"埤頭里","LIN":"2鄰","STREET":" ","SECT":" ","MAREA":"埤頭","LANE":" ","ALLEY":" ","HOUSE_NO":"１４號之５","E_COORD97":170834.20000000001,"N_COORD97":2565683.8599999999,"ADDRESS":"埤頭１４號之５","OBJECTID":205891},"geometry":{"x":170834.20000000019,"y":2565683.8600000013}},{"attributes":{"ID":205893,"DIS_CODE":0,"TOWNNAME":"麻豆區","LI":"埤頭里","LIN":"2鄰","STREET":" ","SECT":" ","MAREA":"埤頭","LANE":" ","ALLEY":" ","HOUSE_NO":"１４號之６","E_COORD97":170830.14999999999,"N_COORD97":2565683.6000000001,"ADDRESS":"埤頭１４號之６","OBJECTID":205892},"geometry":{"x":170830.15000000224,"y":2565683.5999999996}},{"attributes":{"ID":205894,"DIS_CODE":0,"TOWNNAME":"麻豆區","LI":"埤頭里","LIN":"2鄰","STREET":" ","SECT":" ","MAREA":"埤頭","LANE":" ","ALLEY":" ","HOUSE_NO":"１４號之７","E_COORD97":170825.98999999999,"N_COORD97":2565683.3900000001,"ADDRESS":"埤頭１４號之７","OBJECTID":205893},"geometry":{"x":170825.99000000209,"y":2565683.3900000043}},{"attributes":{"ID":205895,"DIS_CODE":0,"TOWNNAME":"麻豆區","LI":"埤頭里","LIN":"2鄰","STREET":" ","SECT":" ","MAREA":"埤頭","LANE":" ","ALLEY":" ","HOUSE_NO":"１４號","E_COORD97":170826.53,"N_COORD97":2565735.8300000001,"ADDRESS":"埤頭１４號","OBJECTID":205894},"geometry":{"x":170826.53000000026,"y":2565735.8300000001}},{"attributes":{"ID":205896,"DIS_CODE":0,"TOWNNAME":"麻豆區","LI":"埤頭里","LIN":"2鄰","STREET":" ","SECT":" ","MAREA":"埤頭","LANE":" ","ALLEY":" ","HOUSE_NO":"１５號","E_COORD97":170805.72,"N_COORD97":2565718.6299999999,"ADDRESS":"埤頭１５號","OBJECTID":205895},"geometry":{"x":170805.72000000067,"y":2565718.6300000008}},{"attributes":{"ID":205897,"DIS_CODE":0,"TOWNNAME":"麻豆區","LI":"埤頭里","LIN":"2鄰","STREET":" ","SECT":" ","MAREA":"埤頭","LANE":" ","ALLEY":" ","HOUSE_NO":"１８號之１","E_COORD97":170786.32999999999,"N_COORD97":2565771.8700000001,"ADDRESS":"埤頭１８號之１","OBJECTID":205896},"geometry":{"x":170786.33000000101,"y":2565771.8699999992}},{"attributes":{"ID":205898,"DIS_CODE":0,"TOWNNAME":"麻豆區","LI":"埤頭里","LIN":"2鄰","STREET":" ","SECT":" ","MAREA":"埤頭","LANE":" ","ALLEY":" ","HOUSE_NO":"１９號之１","E_COORD97":170785.89999999999,"N_COORD97":2565696.0499999998,"ADDRESS":"埤頭１９號之１","OBJECTID":205897},"geometry":{"x":170785.89999999944,"y":2565696.0500000045}},{"attributes":{"ID":205899,"DIS_CODE":0,"TOWNNAME":"麻豆區","LI":"埤頭里","LIN":"2鄰","STREET":" ","SECT":" ","MAREA":"埤頭","LANE":" ","ALLEY":" ","HOUSE_NO":"１９號","E_COORD97":170773.82999999999,"N_COORD97":2565734.02,"ADDRESS":"埤頭１９號","OBJECTID":205898},"geometry":{"x":170773.83000000007,"y":2565734.0199999996}},{"attributes":{"ID":205900,"DIS_CODE":0,"TOWNNAME":"麻豆區","LI":"埤頭里","LIN":"2鄰","STREET":" ","SECT":" ","MAREA":"埤頭","LANE":" ","ALLEY":" ","HOUSE_NO":"２０號之１２","E_COORD97":170759.67000000001,"N_COORD97":2565422.8100000001,"ADDRESS":"埤頭２０號之１２","OBJECTID":205899},"geometry":{"x":170759.66999999993,"y":2565422.8100000042}},{"attributes":{"ID":205901,"DIS_CODE":0,"TOWNNAME":"麻豆區","LI":"埤頭里","LIN":"2鄰","STREET":" ","SECT":" ","MAREA":"埤頭","LANE":" ","ALLEY":" ","HOUSE_NO":"２０號之１５","E_COORD97":170774.85000000001,"N_COORD97":2565336.04,"ADDRESS":"埤頭２０號之１５","OBJECTID":205900},"geometry":{"x":170774.84999999963,"y":2565336.040000001}},{"attributes":{"ID":205902,"DIS_CODE":0,"TOWNNAME":"麻豆區","LI":"埤頭里","LIN":"2鄰","STREET":" ","SECT":" ","MAREA":"埤頭","LANE":" ","ALLEY":" ","HOUSE_NO":"２０號之１６","E_COORD97":170775.64999999999,"N_COORD97":2565276.23,"ADDRESS":"埤頭２０號之１６","OBJECTID":205901},"geometry":{"x":170775.65000000037,"y":2565276.2300000004}},{"attributes":{"ID":205903,"DIS_CODE":0,"TOWNNAME":"麻豆區","LI":"埤頭里","LIN":"2鄰","STREET":" ","SECT":" ","MAREA":"埤頭","LANE":" ","ALLEY":" ","HOUSE_NO":"２０號之１","E_COORD97":170766.35999999999,"N_COORD97":2565691.8199999998,"ADDRESS":"埤頭２０號之１","OBJECTID":205902},"geometry":{"x":170766.36000000127,"y":2565691.8200000022}},{"attributes":{"ID":205904,"DIS_CODE":0,"TOWNNAME":"麻豆區","LI":"埤頭里","LIN":"2鄰","STREET":" ","SECT":" ","MAREA":"埤頭","LANE":" ","ALLEY":" ","HOUSE_NO":"２０號之２","E_COORD97":170763.79999999999,"N_COORD97":2565680.8799999999,"ADDRESS":"埤頭２０號之２","OBJECTID":205903},"geometry":{"x":170763.79999999981,"y":2565680.879999999}},{"attributes":{"ID":205905,"DIS_CODE":0,"TOWNNAME":"仁德區","LI":"仁和里","LIN":"26鄰","STREET":" ","SECT":" ","MAREA":"仁和","LANE":" ","ALLEY":" ","HOUSE_NO":"５３４號","E_COORD97":170465.04376,"N_COORD97":2539772.25,"ADDRESS":"仁和５３４號","OBJECTID":205904},"geometry":{"x":170465.0437599998,"y":2539772.2500000019}},{"attributes":{"ID":205906,"DIS_CODE":0,"TOWNNAME":"麻豆區","LI":"埤頭里","LIN":"2鄰","STREET":" ","SECT":" ","MAREA":"埤頭","LANE":" ","ALLEY":" ","HOUSE_NO":"２０號之３","E_COORD97":170759.23999999999,"N_COORD97":2565682.2599999998,"ADDRESS":"埤頭２０號之３","OBJECTID":205905},"geometry":{"x":170759.24000000022,"y":2565682.2599999998}},{"attributes":{"ID":205907,"DIS_CODE":0,"TOWNNAME":"麻豆區","LI":"埤頭里","LIN":"2鄰","STREET":" ","SECT":" ","MAREA":"埤頭","LANE":" ","ALLEY":" ","HOUSE_NO":"２０號之４","E_COORD97":170755.59,"N_COORD97":2565682.0699999998,"ADDRESS":"埤頭２０號之４","OBJECTID":205906},"geometry":{"x":170755.59000000078,"y":2565682.070000004}},{"attributes":{"ID":205908,"DIS_CODE":0,"TOWNNAME":"麻豆區","LI":"埤頭里","LIN":"2鄰","STREET":" ","SECT":" ","MAREA":"埤頭","LANE":" ","ALLEY":" ","HOUSE_NO":"２０號之８","E_COORD97":170782.14999999999,"N_COORD97":2565515.3700000001,"ADDRESS":"埤頭２０號之８","OBJECTID":205907},"geometry":{"x":170782.15000000037,"y":2565515.3700000029}},{"attributes":{"ID":205909,"DIS_CODE":0,"TOWNNAME":"麻豆區","LI":"埤頭里","LIN":"2鄰","STREET":" ","SECT":" ","MAREA":"埤頭","LANE":" ","ALLEY":" ","HOUSE_NO":"２５號之１０","E_COORD97":170676.38,"N_COORD97":2565686.98,"ADDRESS":"埤頭２５號之１０","OBJECTID":205908},"geometry":{"x":170676.37999999989,"y":2565686.9800000023}},{"attributes":{"ID":205910,"DIS_CODE":0,"TOWNNAME":"麻豆區","LI":"埤頭里","LIN":"2鄰","STREET":" ","SECT":" ","MAREA":"埤頭","LANE":" ","ALLEY":" ","HOUSE_NO":"２５號之１１","E_COORD97":170676.17000000001,"N_COORD97":2565690.9399999999,"ADDRESS":"埤頭２５號之１１","OBJECTID":205909},"geometry":{"x":170676.16999999993,"y":2565690.9399999995}},{"attributes":{"ID":205911,"DIS_CODE":0,"TOWNNAME":"麻豆區","LI":"埤頭里","LIN":"2鄰","STREET":" ","SECT":" ","MAREA":"埤頭","LANE":" ","ALLEY":" ","HOUSE_NO":"２５號之１２","E_COORD97":170675.95999999999,"N_COORD97":2565694.9100000001,"ADDRESS":"埤頭２５號之１２","OBJECTID":205910},"geometry":{"x":170675.95999999996,"y":2565694.9100000001}},{"attributes":{"ID":205912,"DIS_CODE":0,"TOWNNAME":"麻豆區","LI":"埤頭里","LIN":"2鄰","STREET":" ","SECT":" ","MAREA":"埤頭","LANE":" ","ALLEY":" ","HOUSE_NO":"２５號之１３","E_COORD97":170675.75,"N_COORD97":2565698.8700000001,"ADDRESS":"埤頭２５號之１３","OBJECTID":205911},"geometry":{"x":170675.75,"y":2565698.8700000029}},{"attributes":{"ID":205913,"DIS_CODE":0,"TOWNNAME":"麻豆區","LI":"埤頭里","LIN":"2鄰","STREET":" ","SECT":" ","MAREA":"埤頭","LANE":" ","ALLEY":" ","HOUSE_NO":"２５號之１４","E_COORD97":170675.54000000001,"N_COORD97":2565702.8300000001,"ADDRESS":"埤頭２５號之１４","OBJECTID":205912},"geometry":{"x":170675.54000000004,"y":2565702.8300000001}},{"attributes":{"ID":205914,"DIS_CODE":0,"TOWNNAME":"麻豆區","LI":"埤頭里","LIN":"2鄰","STREET":" ","SECT":" ","MAREA":"埤頭","LANE":" ","ALLEY":" ","HOUSE_NO":"２５號之１５","E_COORD97":170675.34,"N_COORD97":2565706.7999999998,"ADDRESS":"埤頭２５號之１５","OBJECTID":205913},"geometry":{"x":170675.33999999985,"y":2565706.8000000007}},{"attributes":{"ID":205915,"DIS_CODE":0,"TOWNNAME":"麻豆區","LI":"埤頭里","LIN":"2鄰","STREET":" ","SECT":" ","MAREA":"埤頭","LANE":" ","ALLEY":" ","HOUSE_NO":"２５號之１６","E_COORD97":170675.13,"N_COORD97":2565710.7599999998,"ADDRESS":"埤頭２５號之１６","OBJECTID":205914},"geometry":{"x":170675.12999999989,"y":2565710.7600000035}},{"attributes":{"ID":205916,"DIS_CODE":0,"TOWNNAME":"麻豆區","LI":"埤頭里","LIN":"2鄰","STREET":" ","SECT":" ","MAREA":"埤頭","LANE":" ","ALLEY":" ","HOUSE_NO":"２５號之１７","E_COORD97":170674.92000000001,"N_COORD97":2565714.73,"ADDRESS":"埤頭２５號之１７","OBJECTID":205915},"geometry":{"x":170674.91999999993,"y":2565714.7300000042}},{"attributes":{"ID":205917,"DIS_CODE":0,"TOWNNAME":"麻豆區","LI":"埤頭里","LIN":"2鄰","STREET":" ","SECT":" ","MAREA":"埤頭","LANE":" ","ALLEY":" ","HOUSE_NO":"２５號之１","E_COORD97":170698.29000000001,"N_COORD97":2565704.5299999998,"ADDRESS":"埤頭２５號之１","OBJECTID":205916},"geometry":{"x":170698.2900000019,"y":2565704.5299999993}},{"attributes":{"ID":205918,"DIS_CODE":0,"TOWNNAME":"麻豆區","LI":"埤頭里","LIN":"2鄰","STREET":" ","SECT":" ","MAREA":"埤頭","LANE":" ","ALLEY":" ","HOUSE_NO":"２５號之２","E_COORD97":170694.20999999999,"N_COORD97":2565751.0499999998,"ADDRESS":"埤頭２５號之２","OBJECTID":205917},"geometry":{"x":170694.21000000089,"y":2565751.0500000026}},{"attributes":{"ID":205919,"DIS_CODE":0,"TOWNNAME":"麻豆區","LI":"埤頭里","LIN":"2鄰","STREET":" ","SECT":" ","MAREA":"埤頭","LANE":" ","ALLEY":" ","HOUSE_NO":"２５號之５","E_COORD97":170694.29000000001,"N_COORD97":2565682.73,"ADDRESS":"埤頭２５號之５","OBJECTID":205918},"geometry":{"x":170694.29000000004,"y":2565682.7300000004}},{"attributes":{"ID":205920,"DIS_CODE":0,"TOWNNAME":"麻豆區","LI":"埤頭里","LIN":"2鄰","STREET":" ","SECT":" ","MAREA":"埤頭","LANE":" ","ALLEY":" ","HOUSE_NO":"２５號之７","E_COORD97":170686.48000000001,"N_COORD97":2565679.77,"ADDRESS":"埤頭２５號之７","OBJECTID":205919},"geometry":{"x":170686.48000000045,"y":2565679.7700000033}},{"attributes":{"ID":205921,"DIS_CODE":0,"TOWNNAME":"麻豆區","LI":"埤頭里","LIN":"2鄰","STREET":" ","SECT":" ","MAREA":"埤頭","LANE":" ","ALLEY":" ","HOUSE_NO":"２５號之８","E_COORD97":170680.76000000001,"N_COORD97":2565679.77,"ADDRESS":"埤頭２５號之８","OBJECTID":205920},"geometry":{"x":170680.75999999978,"y":2565679.7700000033}},{"attributes":{"ID":205922,"DIS_CODE":0,"TOWNNAME":"麻豆區","LI":"埤頭里","LIN":"2鄰","STREET":" ","SECT":" ","MAREA":"埤頭","LANE":" ","ALLEY":" ","HOUSE_NO":"２５號之９","E_COORD97":170675.04000000001,"N_COORD97":2565679.77,"ADDRESS":"埤頭２５號之９","OBJECTID":205921},"geometry":{"x":170675.04000000097,"y":2565679.7700000033}},{"attributes":{"ID":205923,"DIS_CODE":0,"TOWNNAME":"北區","LI":"大港里","LIN":"25鄰","STREET":"中華北路","SECT":"一段","MAREA":" ","LANE":"２０３巷","ALLEY":"１６弄","HOUSE_NO":"１７號","E_COORD97":166296.29999999999,"N_COORD97":2545722.3900000001,"ADDRESS":"中華北路一段２０３巷１６弄１７號","OBJECTID":205922},"geometry":{"x":166296.30000000075,"y":2545722.3900000025}},{"attributes":{"ID":205924,"DIS_CODE":0,"TOWNNAME":"麻豆區","LI":"埤頭里","LIN":"2鄰","STREET":" ","SECT":" ","MAREA":"埤頭","LANE":" ","ALLEY":" ","HOUSE_NO":"２５號","E_COORD97":170691.64000000001,"N_COORD97":2565721.9300000002,"ADDRESS":"埤頭２５號","OBJECTID":205923},"geometry":{"x":170691.63999999966,"y":2565721.9299999997}},{"attributes":{"ID":205925,"DIS_CODE":0,"TOWNNAME":"麻豆區","LI":"埤頭里","LIN":"2鄰","STREET":" ","SECT":" ","MAREA":"埤頭","LANE":" ","ALLEY":" ","HOUSE_NO":"２６號之１０","E_COORD97":170673.04000000001,"N_COORD97":2565765.5899999999,"ADDRESS":"埤頭２６號之１０","OBJECTID":205924},"geometry":{"x":170673.04000000097,"y":2565765.5899999999}},{"attributes":{"ID":205926,"DIS_CODE":0,"TOWNNAME":"麻豆區","LI":"埤頭里","LIN":"2鄰","STREET":" ","SECT":" ","MAREA":"埤頭","LANE":" ","ALLEY":" ","HOUSE_NO":"２６號之２","E_COORD97":170674.59,"N_COORD97":2565728.3799999999,"ADDRESS":"埤頭２６號之２","OBJECTID":205925},"geometry":{"x":170674.59000000078,"y":2565728.379999999}},{"attributes":{"ID":205927,"DIS_CODE":0,"TOWNNAME":"麻豆區","LI":"埤頭里","LIN":"2鄰","STREET":" ","SECT":" ","MAREA":"埤頭","LANE":" ","ALLEY":" ","HOUSE_NO":"２６號之３","E_COORD97":170674.42000000001,"N_COORD97":2565733.0099999998,"ADDRESS":"埤頭２６號之３","OBJECTID":205926},"geometry":{"x":170674.41999999993,"y":2565733.0100000016}},{"attributes":{"ID":205928,"DIS_CODE":0,"TOWNNAME":"麻豆區","LI":"埤頭里","LIN":"2鄰","STREET":" ","SECT":" ","MAREA":"埤頭","LANE":" ","ALLEY":" ","HOUSE_NO":"２６號之４","E_COORD97":170674.25,"N_COORD97":2565737.6299999999,"ADDRESS":"埤頭２６號之４","OBJECTID":205927},"geometry":{"x":170674.25,"y":2565737.6300000027}},{"attributes":{"ID":205929,"DIS_CODE":0,"TOWNNAME":"麻豆區","LI":"埤頭里","LIN":"2鄰","STREET":" ","SECT":" ","MAREA":"埤頭","LANE":" ","ALLEY":" ","HOUSE_NO":"２６號之５","E_COORD97":170674.07999999999,"N_COORD97":2565742.2599999998,"ADDRESS":"埤頭２６號之５","OBJECTID":205928},"geometry":{"x":170674.08000000007,"y":2565742.2600000016}},{"attributes":{"ID":205930,"DIS_CODE":0,"TOWNNAME":"麻豆區","LI":"埤頭里","LIN":"2鄰","STREET":" ","SECT":" ","MAREA":"埤頭","LANE":" ","ALLEY":" ","HOUSE_NO":"２６號之６","E_COORD97":170673.89999999999,"N_COORD97":2565746.8799999999,"ADDRESS":"埤頭２６號之６","OBJECTID":205929},"geometry":{"x":170673.90000000037,"y":2565746.8800000008}},{"attributes":{"ID":205931,"DIS_CODE":0,"TOWNNAME":"麻豆區","LI":"埤頭里","LIN":"2鄰","STREET":" ","SECT":" ","MAREA":"埤頭","LANE":" ","ALLEY":" ","HOUSE_NO":"２６號之７","E_COORD97":170673.73000000001,"N_COORD97":2565751.5099999998,"ADDRESS":"埤頭２６號之７","OBJECTID":205930},"geometry":{"x":170673.73000000231,"y":2565751.5099999998}},{"attributes":{"ID":205932,"DIS_CODE":0,"TOWNNAME":"永康區","LI":"埔園里","LIN":"9鄰","STREET":"中山路","SECT":" ","MAREA":" ","LANE":"１０１巷","ALLEY":" ","HOUSE_NO":"２號之１四樓之３","E_COORD97":173738.32999999999,"N_COORD97":2547819.29,"ADDRESS":"中山路１０１巷２號之１四樓之３","OBJECTID":205931},"geometry":{"x":173738.33000000007,"y":2547819.290000001}},{"attributes":{"ID":205933,"DIS_CODE":0,"TOWNNAME":"麻豆區","LI":"埤頭里","LIN":"2鄰","STREET":" ","SECT":" ","MAREA":"埤頭","LANE":" ","ALLEY":" ","HOUSE_NO":"２６號之８","E_COORD97":170673.56,"N_COORD97":2565756.1400000001,"ADDRESS":"埤頭２６號之８","OBJECTID":205932},"geometry":{"x":170673.55999999959,"y":2565756.1400000043}},{"attributes":{"ID":205934,"DIS_CODE":0,"TOWNNAME":"麻豆區","LI":"埤頭里","LIN":"2鄰","STREET":" ","SECT":" ","MAREA":"埤頭","LANE":" ","ALLEY":" ","HOUSE_NO":"２６號之９","E_COORD97":170673.39000000001,"N_COORD97":2565760.7599999998,"ADDRESS":"埤頭２６號之９","OBJECTID":205933},"geometry":{"x":170673.39000000153,"y":2565760.7599999998}},{"attributes":{"ID":205935,"DIS_CODE":0,"TOWNNAME":"麻豆區","LI":"莊禮里","LIN":"2鄰","STREET":" ","SECT":" ","MAREA":"莊禮寮","LANE":" ","ALLEY":" ","HOUSE_NO":"２６號之１","E_COORD97":169292.09,"N_COORD97":2566121.7000000002,"ADDRESS":"莊禮寮２６號之１","OBJECTID":205934},"geometry":{"x":169292.08999999985,"y":2566121.7000000011}},{"attributes":{"ID":205936,"DIS_CODE":0,"TOWNNAME":"麻豆區","LI":"莊禮里","LIN":"2鄰","STREET":" ","SECT":" ","MAREA":"莊禮寮","LANE":" ","ALLEY":" ","HOUSE_NO":"２６號","E_COORD97":169298.35000000001,"N_COORD97":2566148.3999999999,"ADDRESS":"莊禮寮２６號","OBJECTID":205935},"geometry":{"x":169298.34999999963,"y":2566148.4000000022}},{"attributes":{"ID":205937,"DIS_CODE":0,"TOWNNAME":"麻豆區","LI":"莊禮里","LIN":"2鄰","STREET":" ","SECT":" ","MAREA":"莊禮寮","LANE":" ","ALLEY":" ","HOUSE_NO":"２８號","E_COORD97":169224,"N_COORD97":2566177.3700000001,"ADDRESS":"莊禮寮２８號","OBJECTID":205936},"geometry":{"x":169224.00000000093,"y":2566177.370000001}},{"attributes":{"ID":205938,"DIS_CODE":0,"TOWNNAME":"永康區","LI":"永康里","LIN":"40鄰","STREET":"永大二路","SECT":" ","MAREA":" ","LANE":" ","ALLEY":" ","HOUSE_NO":"４６號六樓之２","E_COORD97":174255.57000000001,"N_COORD97":2546582.0899999999,"ADDRESS":"永大二路４６號六樓之２","OBJECTID":205937},"geometry":{"x":174255.57000000123,"y":2546582.0899999999}},{"attributes":{"ID":205939,"DIS_CODE":0,"TOWNNAME":"麻豆區","LI":"莊禮里","LIN":"2鄰","STREET":" ","SECT":" ","MAREA":"莊禮寮","LANE":" ","ALLEY":" ","HOUSE_NO":"２９號","E_COORD97":169249.42999999999,"N_COORD97":2566124.6099999999,"ADDRESS":"莊禮寮２９號","OBJECTID":205938},"geometry":{"x":169249.43000000063,"y":2566124.6099999975}},{"attributes":{"ID":205940,"DIS_CODE":0,"TOWNNAME":"麻豆區","LI":"莊禮里","LIN":"2鄰","STREET":" ","SECT":" ","MAREA":"莊禮寮","LANE":" ","ALLEY":" ","HOUSE_NO":"３４號","E_COORD97":169213.82000000001,"N_COORD97":2566095.6600000001,"ADDRESS":"莊禮寮３４號","OBJECTID":205939},"geometry":{"x":169213.82000000123,"y":2566095.660000002}},{"attributes":{"ID":205941,"DIS_CODE":0,"TOWNNAME":"麻豆區","LI":"莊禮里","LIN":"2鄰","STREET":" ","SECT":" ","MAREA":"莊禮寮","LANE":" ","ALLEY":" ","HOUSE_NO":"３７號","E_COORD97":169287.32999999999,"N_COORD97":2566101.2000000002,"ADDRESS":"莊禮寮３７號","OBJECTID":205940},"geometry":{"x":169287.33000000007,"y":2566101.2000000011}},{"attributes":{"ID":205942,"DIS_CODE":0,"TOWNNAME":"鹽水區","LI":"下林里","LIN":"2鄰","STREET":" ","SECT":" ","MAREA":"下林","LANE":" ","ALLEY":" ","HOUSE_NO":"５５號","E_COORD97":173086.85000000001,"N_COORD97":2573444.1299999999,"ADDRESS":"下林５５號","OBJECTID":205941},"geometry":{"x":173086.84999999963,"y":2573444.1300000027}},{"attributes":{"ID":205943,"DIS_CODE":0,"TOWNNAME":"鹽水區","LI":"下林里","LIN":"2鄰","STREET":" ","SECT":" ","MAREA":"下林","LANE":" ","ALLEY":" ","HOUSE_NO":"５６號","E_COORD97":172989.72,"N_COORD97":2573433.4500000002,"ADDRESS":"下林５６號","OBJECTID":205942},"geometry":{"x":172989.71999999974,"y":2573433.4500000011}},{"attributes":{"ID":205944,"DIS_CODE":0,"TOWNNAME":"鹽水區","LI":"下林里","LIN":"2鄰","STREET":" ","SECT":" ","MAREA":"下林","LANE":" ","ALLEY":" ","HOUSE_NO":"５７號","E_COORD97":172937.60999999999,"N_COORD97":2573468.2999999998,"ADDRESS":"下林５７號","OBJECTID":205943},"geometry":{"x":172937.61000000127,"y":2573468.2999999989}},{"attributes":{"ID":205945,"DIS_CODE":0,"TOWNNAME":"鹽水區","LI":"下林里","LIN":"2鄰","STREET":" ","SECT":" ","MAREA":"下林","LANE":" ","ALLEY":" ","HOUSE_NO":"５８號","E_COORD97":172881.60999999999,"N_COORD97":2573483.8799999999,"ADDRESS":"下林５８號","OBJECTID":205944},"geometry":{"x":172881.61000000127,"y":2573483.8800000008}},{"attributes":{"ID":205946,"DIS_CODE":0,"TOWNNAME":"鹽水區","LI":"水秀里","LIN":"2鄰","STREET":" ","SECT":" ","MAREA":"土庫","LANE":" ","ALLEY":" ","HOUSE_NO":"１９號","E_COORD97":176199.14000000001,"N_COORD97":2580209.0899999999,"ADDRESS":"土庫１９號","OBJECTID":205945},"geometry":{"x":176199.13999999966,"y":2580209.0900000036}},{"attributes":{"ID":205947,"DIS_CODE":0,"TOWNNAME":"鹽水區","LI":"水秀里","LIN":"2鄰","STREET":" ","SECT":" ","MAREA":"土庫","LANE":" ","ALLEY":" ","HOUSE_NO":"２１號","E_COORD97":176178.51000000001,"N_COORD97":2580263.6400000001,"ADDRESS":"土庫２１號","OBJECTID":205946},"geometry":{"x":176178.50999999978,"y":2580263.6400000043}},{"attributes":{"ID":205948,"DIS_CODE":0,"TOWNNAME":"鹽水區","LI":"水秀里","LIN":"2鄰","STREET":" ","SECT":" ","MAREA":"土庫","LANE":" ","ALLEY":" ","HOUSE_NO":"２２號","E_COORD97":176165.47,"N_COORD97":2580283.46,"ADDRESS":"土庫２２號","OBJECTID":205947},"geometry":{"x":176165.4700000016,"y":2580283.4600000028}},{"attributes":{"ID":205949,"DIS_CODE":0,"TOWNNAME":"鹽水區","LI":"水秀里","LIN":"2鄰","STREET":" ","SECT":" ","MAREA":"土庫","LANE":" ","ALLEY":" ","HOUSE_NO":"２３之１號","E_COORD97":176154.19,"N_COORD97":2580257.3399999999,"ADDRESS":"土庫２３之１號","OBJECTID":205948},"geometry":{"x":176154.19000000041,"y":2580257.3399999999}},{"attributes":{"ID":205950,"DIS_CODE":0,"TOWNNAME":"鹽水區","LI":"水秀里","LIN":"2鄰","STREET":" ","SECT":" ","MAREA":"土庫","LANE":" ","ALLEY":" ","HOUSE_NO":"２３之２號","E_COORD97":176153.25,"N_COORD97":2580264.2000000002,"ADDRESS":"土庫２３之２號","OBJECTID":205949},"geometry":{"x":176153.25,"y":2580264.1999999993}},{"attributes":{"ID":205951,"DIS_CODE":0,"TOWNNAME":"鹽水區","LI":"水秀里","LIN":"2鄰","STREET":" ","SECT":" ","MAREA":"土庫","LANE":" ","ALLEY":" ","HOUSE_NO":"２３號之３","E_COORD97":176161.12,"N_COORD97":2580244.6099999999,"ADDRESS":"土庫２３號之３","OBJECTID":205950},"geometry":{"x":176161.12000000011,"y":2580244.6099999994}},{"attributes":{"ID":205952,"DIS_CODE":0,"TOWNNAME":"鹽水區","LI":"水秀里","LIN":"2鄰","STREET":" ","SECT":" ","MAREA":"土庫","LANE":" ","ALLEY":" ","HOUSE_NO":"２３號之５","E_COORD97":176150.13,"N_COORD97":2580271.9199999999,"ADDRESS":"土庫２３號之５","OBJECTID":205951},"geometry":{"x":176150.12999999989,"y":2580271.9200000018}},{"attributes":{"ID":205953,"DIS_CODE":0,"TOWNNAME":"鹽水區","LI":"水秀里","LIN":"2鄰","STREET":" ","SECT":" ","MAREA":"土庫","LANE":" ","ALLEY":" ","HOUSE_NO":"２３號之６","E_COORD97":176140.23000000001,"N_COORD97":2580285.0699999998,"ADDRESS":"土庫２３號之６","OBJECTID":205952},"geometry":{"x":176140.23000000045,"y":2580285.0700000022}},{"attributes":{"ID":205954,"DIS_CODE":0,"TOWNNAME":"鹽水區","LI":"水秀里","LIN":"2鄰","STREET":" ","SECT":" ","MAREA":"土庫","LANE":" ","ALLEY":" ","HOUSE_NO":"２３號之８","E_COORD97":176150.07000000001,"N_COORD97":2580292.3999999999,"ADDRESS":"土庫２３號之８","OBJECTID":205953},"geometry":{"x":176150.07000000216,"y":2580292.4000000041}},{"attributes":{"ID":205955,"DIS_CODE":0,"TOWNNAME":"鹽水區","LI":"水秀里","LIN":"2鄰","STREET":" ","SECT":" ","MAREA":"土庫","LANE":" ","ALLEY":" ","HOUSE_NO":"２６號","E_COORD97":176170.17999999999,"N_COORD97":2580212.6000000001,"ADDRESS":"土庫２６號","OBJECTID":205954},"geometry":{"x":176170.1799999997,"y":2580212.6000000015}},{"attributes":{"ID":205956,"DIS_CODE":0,"TOWNNAME":"鹽水區","LI":"水秀里","LIN":"2鄰","STREET":" ","SECT":" ","MAREA":"土庫","LANE":" ","ALLEY":" ","HOUSE_NO":"２之１２號","E_COORD97":176046.59,"N_COORD97":2580591,"ADDRESS":"土庫２之１２號","OBJECTID":205955},"geometry":{"x":176046.59000000078,"y":2580591.0000000019}},{"attributes":{"ID":205957,"DIS_CODE":0,"TOWNNAME":"鹽水區","LI":"水秀里","LIN":"2鄰","STREET":" ","SECT":" ","MAREA":"土庫","LANE":" ","ALLEY":" ","HOUSE_NO":"２之１３０號","E_COORD97":177741.82999999999,"N_COORD97":2581043.3300000001,"ADDRESS":"土庫２之１３０號","OBJECTID":205956},"geometry":{"x":177741.83000000101,"y":2581043.3300000001}},{"attributes":{"ID":205958,"DIS_CODE":0,"TOWNNAME":"鹽水區","LI":"水秀里","LIN":"2鄰","STREET":" ","SECT":" ","MAREA":"土庫","LANE":" ","ALLEY":" ","HOUSE_NO":"２號之１３","E_COORD97":176013.10999999999,"N_COORD97":2580542.77,"ADDRESS":"土庫２號之１３","OBJECTID":205957},"geometry":{"x":176013.11000000127,"y":2580542.7699999996}},{"attributes":{"ID":205959,"DIS_CODE":0,"TOWNNAME":"鹽水區","LI":"水秀里","LIN":"2鄰","STREET":" ","SECT":" ","MAREA":"土庫","LANE":" ","ALLEY":" ","HOUSE_NO":"２之１５號","E_COORD97":176176.20000000001,"N_COORD97":2580618.27,"ADDRESS":"土庫２之１５號","OBJECTID":205958},"geometry":{"x":176176.20000000205,"y":2580618.2700000014}},{"attributes":{"ID":205960,"DIS_CODE":0,"TOWNNAME":"鹽水區","LI":"水秀里","LIN":"2鄰","STREET":" ","SECT":" ","MAREA":"土庫","LANE":" ","ALLEY":" ","HOUSE_NO":"２之１６號","E_COORD97":177100.31,"N_COORD97":2580934.0499999998,"ADDRESS":"土庫２之１６號","OBJECTID":205959},"geometry":{"x":177100.31000000145,"y":2580934.0500000026}},{"attributes":{"ID":205961,"DIS_CODE":0,"TOWNNAME":"鹽水區","LI":"水秀里","LIN":"2鄰","STREET":" ","SECT":" ","MAREA":"土庫","LANE":" ","ALLEY":" ","HOUSE_NO":"２之１７號","E_COORD97":176511.63,"N_COORD97":2580724.7799999998,"ADDRESS":"土庫２之１７號","OBJECTID":205960},"geometry":{"x":176511.62999999989,"y":2580724.7799999993}},{"attributes":{"ID":205962,"DIS_CODE":0,"TOWNNAME":"鹽水區","LI":"水秀里","LIN":"2鄰","STREET":" ","SECT":" ","MAREA":"土庫","LANE":" ","ALLEY":" ","HOUSE_NO":"２之１８號","E_COORD97":177103.10999999999,"N_COORD97":2581047.0699999998,"ADDRESS":"土庫２之１８號","OBJECTID":205961},"geometry":{"x":177103.11000000127,"y":2581047.070000004}},{"attributes":{"ID":205963,"DIS_CODE":0,"TOWNNAME":"鹽水區","LI":"水秀里","LIN":"2鄰","STREET":" ","SECT":" ","MAREA":"土庫","LANE":" ","ALLEY":" ","HOUSE_NO":"２號之１９","E_COORD97":176891.51000000001,"N_COORD97":2580758.4199999999,"ADDRESS":"土庫２號之１９","OBJECTID":205962},"geometry":{"x":176891.51000000071,"y":2580758.4199999999}},{"attributes":{"ID":205964,"DIS_CODE":0,"TOWNNAME":"鹽水區","LI":"水秀里","LIN":"2鄰","STREET":" ","SECT":" ","MAREA":"土庫","LANE":" ","ALLEY":" ","HOUSE_NO":"２號之１","E_COORD97":176897.28,"N_COORD97":2580751.77,"ADDRESS":"土庫２號之１","OBJECTID":205963},"geometry":{"x":176897.28000000026,"y":2580751.7699999996}},{"attributes":{"ID":205965,"DIS_CODE":0,"TOWNNAME":"鹽水區","LI":"水秀里","LIN":"2鄰","STREET":" ","SECT":" ","MAREA":"土庫","LANE":" ","ALLEY":" ","HOUSE_NO":"２號之２２","E_COORD97":177354.38,"N_COORD97":2580922.8500000001,"ADDRESS":"土庫２號之２２","OBJECTID":205964},"geometry":{"x":177354.37999999896,"y":2580922.8500000015}},{"attributes":{"ID":205966,"DIS_CODE":0,"TOWNNAME":"鹽水區","LI":"水秀里","LIN":"2鄰","STREET":" ","SECT":" ","MAREA":"土庫","LANE":" ","ALLEY":" ","HOUSE_NO":"２之２３號","E_COORD97":176370.84,"N_COORD97":2580673.2200000002,"ADDRESS":"土庫２之２３號","OBJECTID":205965},"geometry":{"x":176370.83999999985,"y":2580673.2199999988}},{"attributes":{"ID":205967,"DIS_CODE":0,"TOWNNAME":"鹽水區","LI":"水秀里","LIN":"2鄰","STREET":" ","SECT":" ","MAREA":"土庫","LANE":" ","ALLEY":" ","HOUSE_NO":"２號之２４","E_COORD97":176284.63,"N_COORD97":2580587.25,"ADDRESS":"土庫２號之２４","OBJECTID":205966},"geometry":{"x":176284.62999999989,"y":2580587.25}},{"attributes":{"ID":205968,"DIS_CODE":0,"TOWNNAME":"鹽水區","LI":"水秀里","LIN":"2鄰","STREET":" ","SECT":" ","MAREA":"土庫","LANE":" ","ALLEY":" ","HOUSE_NO":"２號之２５","E_COORD97":176779.22,"N_COORD97":2581053.6200000001,"ADDRESS":"土庫２號之２５","OBJECTID":205967},"geometry":{"x":176779.22000000067,"y":2581053.620000001}},{"attributes":{"ID":205969,"DIS_CODE":0,"TOWNNAME":"鹽水區","LI":"水秀里","LIN":"2鄰","STREET":" ","SECT":" ","MAREA":"土庫","LANE":" ","ALLEY":" ","HOUSE_NO":"２號之２６","E_COORD97":176921.34,"N_COORD97":2580789.1000000001,"ADDRESS":"土庫２號之２６","OBJECTID":205968},"geometry":{"x":176921.34000000078,"y":2580789.1000000015}},{"attributes":{"ID":205970,"DIS_CODE":0,"TOWNNAME":"鹽水區","LI":"水秀里","LIN":"2鄰","STREET":" ","SECT":" ","MAREA":"土庫","LANE":" ","ALLEY":" ","HOUSE_NO":"２號之２７","E_COORD97":176916.35999999999,"N_COORD97":2580788.3999999999,"ADDRESS":"土庫２號之２７","OBJECTID":205969},"geometry":{"x":176916.36000000127,"y":2580788.4000000022}},{"attributes":{"ID":205971,"DIS_CODE":0,"TOWNNAME":"鹽水區","LI":"水秀里","LIN":"2鄰","STREET":" ","SECT":" ","MAREA":"土庫","LANE":" ","ALLEY":" ","HOUSE_NO":"２號之２８","E_COORD97":177028.17999999999,"N_COORD97":2580865.96,"ADDRESS":"土庫２號之２８","OBJECTID":205970},"geometry":{"x":177028.1799999997,"y":2580865.9600000028}},{"attributes":{"ID":205972,"DIS_CODE":0,"TOWNNAME":"鹽水區","LI":"水秀里","LIN":"2鄰","STREET":" ","SECT":" ","MAREA":"土庫","LANE":" ","ALLEY":" ","HOUSE_NO":"２號之２９","E_COORD97":177032.94,"N_COORD97":2580867.1499999999,"ADDRESS":"土庫２號之２９","OBJECTID":205971},"geometry":{"x":177032.94000000134,"y":2580867.1500000022}},{"attributes":{"ID":205973,"DIS_CODE":0,"TOWNNAME":"鹽水區","LI":"水秀里","LIN":"2鄰","STREET":" ","SECT":" ","MAREA":"土庫","LANE":" ","ALLEY":" ","HOUSE_NO":"２號之２","E_COORD97":176736.01999999999,"N_COORD97":2580738.1800000002,"ADDRESS":"土庫２號之２","OBJECTID":205972},"geometry":{"x":176736.01999999862,"y":2580738.1800000016}},{"attributes":{"ID":205974,"DIS_CODE":0,"TOWNNAME":"鹽水區","LI":"水秀里","LIN":"2鄰","STREET":" ","SECT":" ","MAREA":"土庫","LANE":" ","ALLEY":" ","HOUSE_NO":"２號之３０","E_COORD97":177037.69,"N_COORD97":2580868.3300000001,"ADDRESS":"土庫２號之３０","OBJECTID":205973},"geometry":{"x":177037.69000000227,"y":2580868.3300000001}},{"attributes":{"ID":205975,"DIS_CODE":0,"TOWNNAME":"鹽水區","LI":"水秀里","LIN":"2鄰","STREET":" ","SECT":" ","MAREA":"土庫","LANE":" ","ALLEY":" ","HOUSE_NO":"２號之３１","E_COORD97":177042.44,"N_COORD97":2580869.52,"ADDRESS":"土庫２號之３１","OBJECTID":205974},"geometry":{"x":177042.44000000041,"y":2580869.5199999996}},{"attributes":{"ID":205976,"DIS_CODE":0,"TOWNNAME":"鹽水區","LI":"水秀里","LIN":"2鄰","STREET":" ","SECT":" ","MAREA":"土庫","LANE":" ","ALLEY":" ","HOUSE_NO":"２號之３２","E_COORD97":177034.51000000001,"N_COORD97":2580882.8599999999,"ADDRESS":"土庫２號之３２","OBJECTID":205975},"geometry":{"x":177034.50999999978,"y":2580882.8600000013}},{"attributes":{"ID":205977,"DIS_CODE":0,"TOWNNAME":"鹽水區","LI":"水秀里","LIN":"2鄰","STREET":" ","SECT":" ","MAREA":"土庫","LANE":" ","ALLEY":" ","HOUSE_NO":"２之３３號","E_COORD97":177034.06,"N_COORD97":2580887.6000000001,"ADDRESS":"土庫２之３３號","OBJECTID":205976},"geometry":{"x":177034.05999999959,"y":2580887.6000000015}},{"attributes":{"ID":205978,"DIS_CODE":0,"TOWNNAME":"鹽水區","LI":"水秀里","LIN":"2鄰","STREET":" ","SECT":" ","MAREA":"土庫","LANE":" ","ALLEY":" ","HOUSE_NO":"２之３４號","E_COORD97":176366.48999999999,"N_COORD97":2580617.7599999998,"ADDRESS":"土庫２之３４號","OBJECTID":205977},"geometry":{"x":176366.49000000115,"y":2580617.7599999979}},{"attributes":{"ID":205979,"DIS_CODE":0,"TOWNNAME":"鹽水區","LI":"水秀里","LIN":"2鄰","STREET":" ","SECT":" ","MAREA":"土庫","LANE":" ","ALLEY":" ","HOUSE_NO":"２之３７號","E_COORD97":176742.10000000001,"N_COORD97":2580778.75,"ADDRESS":"土庫２之３７號","OBJECTID":205978},"geometry":{"x":176742.09999999963,"y":2580778.7500000019}},{"attributes":{"ID":205980,"DIS_CODE":0,"TOWNNAME":"鹽水區","LI":"水秀里","LIN":"2鄰","STREET":" ","SECT":" ","MAREA":"土庫","LANE":" ","ALLEY":" ","HOUSE_NO":"２之３８號","E_COORD97":176743.32000000001,"N_COORD97":2580792.5899999999,"ADDRESS":"土庫２之３８號","OBJECTID":205979},"geometry":{"x":176743.32000000216,"y":2580792.5900000017}},{"attributes":{"ID":205981,"DIS_CODE":0,"TOWNNAME":"鹽水區","LI":"水秀里","LIN":"2鄰","STREET":" ","SECT":" ","MAREA":"土庫","LANE":" ","ALLEY":" ","HOUSE_NO":"２之３９號","E_COORD97":176742.51000000001,"N_COORD97":2580799.6099999999,"ADDRESS":"土庫２之３９號","OBJECTID":205980},"geometry":{"x":176742.50999999978,"y":2580799.6100000013}},{"attributes":{"ID":205982,"DIS_CODE":0,"TOWNNAME":"鹽水區","LI":"水秀里","LIN":"2鄰","STREET":" ","SECT":" ","MAREA":"土庫","LANE":" ","ALLEY":" ","HOUSE_NO":"２之４０號","E_COORD97":176741.70000000001,"N_COORD97":2580806.6200000001,"ADDRESS":"土庫２之４０號","OBJECTID":205981},"geometry":{"x":176741.70000000019,"y":2580806.6200000048}},{"attributes":{"ID":205983,"DIS_CODE":0,"TOWNNAME":"鹽水區","LI":"水秀里","LIN":"2鄰","STREET":" ","SECT":" ","MAREA":"土庫","LANE":" ","ALLEY":" ","HOUSE_NO":"２之４１號","E_COORD97":176740.89000000001,"N_COORD97":2580813.6400000001,"ADDRESS":"土庫２之４１號","OBJECTID":205982},"geometry":{"x":176740.8900000006,"y":2580813.6400000025}},{"attributes":{"ID":205984,"DIS_CODE":0,"TOWNNAME":"鹽水區","LI":"水秀里","LIN":"2鄰","STREET":" ","SECT":" ","MAREA":"土庫","LANE":" ","ALLEY":" ","HOUSE_NO":"２之４２號","E_COORD97":176740.07000000001,"N_COORD97":2580820.6499999999,"ADDRESS":"土庫２之４２號","OBJECTID":205983},"geometry":{"x":176740.07000000216,"y":2580820.6500000022}},{"attributes":{"ID":205985,"DIS_CODE":0,"TOWNNAME":"鹽水區","LI":"水秀里","LIN":"2鄰","STREET":" ","SECT":" ","MAREA":"土庫","LANE":" ","ALLEY":" ","HOUSE_NO":"２之４３號","E_COORD97":176739.26000000001,"N_COORD97":2580827.6699999999,"ADDRESS":"土庫２之４３號","OBJECTID":205984},"geometry":{"x":176739.25999999978,"y":2580827.6699999999}},{"attributes":{"ID":205986,"DIS_CODE":0,"TOWNNAME":"鹽水區","LI":"水秀里","LIN":"2鄰","STREET":" ","SECT":" ","MAREA":"土庫","LANE":" ","ALLEY":" ","HOUSE_NO":"２之４５號","E_COORD97":176738.45000000001,"N_COORD97":2580834.6800000002,"ADDRESS":"土庫２之４５號","OBJECTID":205985},"geometry":{"x":176738.45000000019,"y":2580834.6799999997}},{"attributes":{"ID":205987,"DIS_CODE":0,"TOWNNAME":"鹽水區","LI":"水秀里","LIN":"2鄰","STREET":" ","SECT":" ","MAREA":"土庫","LANE":" ","ALLEY":" ","HOUSE_NO":"２之４６號","E_COORD97":176737.64000000001,"N_COORD97":2580841.6899999999,"ADDRESS":"土庫２之４６號","OBJECTID":205986},"geometry":{"x":176737.6400000006,"y":2580841.6899999976}},{"attributes":{"ID":205988,"DIS_CODE":0,"TOWNNAME":"鹽水區","LI":"水秀里","LIN":"2鄰","STREET":" ","SECT":" ","MAREA":"土庫","LANE":" ","ALLEY":" ","HOUSE_NO":"２號之４７","E_COORD97":176734.57000000001,"N_COORD97":2580850.3100000001,"ADDRESS":"土庫２號之４７","OBJECTID":205987},"geometry":{"x":176734.5700000003,"y":2580850.3100000024}},{"attributes":{"ID":205989,"DIS_CODE":0,"TOWNNAME":"鹽水區","LI":"水秀里","LIN":"2鄰","STREET":" ","SECT":" ","MAREA":"土庫","LANE":" ","ALLEY":" ","HOUSE_NO":"２之４８號","E_COORD97":176733.39000000001,"N_COORD97":2580857.27,"ADDRESS":"土庫２之４８號","OBJECTID":205988},"geometry":{"x":176733.38999999966,"y":2580857.2699999996}},{"attributes":{"ID":205990,"DIS_CODE":0,"TOWNNAME":"鹽水區","LI":"水秀里","LIN":"2鄰","STREET":" ","SECT":" ","MAREA":"土庫","LANE":" ","ALLEY":" ","HOUSE_NO":"２之４９號","E_COORD97":176732.22,"N_COORD97":2580864.2200000002,"ADDRESS":"土庫２之４９號","OBJECTID":205989},"geometry":{"x":176732.22000000067,"y":2580864.2200000025}},{"attributes":{"ID":205991,"DIS_CODE":0,"TOWNNAME":"鹽水區","LI":"水秀里","LIN":"2鄰","STREET":" ","SECT":" ","MAREA":"土庫","LANE":" ","ALLEY":" ","HOUSE_NO":"２之５０號","E_COORD97":176731.04000000001,"N_COORD97":2580871.1800000002,"ADDRESS":"土庫２之５０號","OBJECTID":205990},"geometry":{"x":176731.04000000004,"y":2580871.1799999997}},{"attributes":{"ID":205992,"DIS_CODE":0,"TOWNNAME":"鹽水區","LI":"水秀里","LIN":"2鄰","STREET":" ","SECT":" ","MAREA":"土庫","LANE":" ","ALLEY":" ","HOUSE_NO":"２之５１號","E_COORD97":176729.87,"N_COORD97":2580878.1400000001,"ADDRESS":"土庫２之５１號","OBJECTID":205991},"geometry":{"x":176729.87000000104,"y":2580878.1400000025}},{"attributes":{"ID":205993,"DIS_CODE":0,"TOWNNAME":"北區","LI":"大港里","LIN":"25鄰","STREET":"中華北路","SECT":"一段","MAREA":" ","LANE":"２０３巷","ALLEY":"１６弄","HOUSE_NO":"１９號","E_COORD97":166304.14999999999,"N_COORD97":2545726.71,"ADDRESS":"中華北路一段２０３巷１６弄１９號","OBJECTID":205992},"geometry":{"x":166304.1500000013,"y":2545726.7100000028}},{"attributes":{"ID":205994,"DIS_CODE":0,"TOWNNAME":"鹽水區","LI":"水秀里","LIN":"2鄰","STREET":" ","SECT":" ","MAREA":"土庫","LANE":" ","ALLEY":" ","HOUSE_NO":"２號之５２","E_COORD97":176728.92999999999,"N_COORD97":2580884.71,"ADDRESS":"土庫２號之５２","OBJECTID":205993},"geometry":{"x":176728.93000000063,"y":2580884.7100000028}},{"attributes":{"ID":205995,"DIS_CODE":0,"TOWNNAME":"鹽水區","LI":"水秀里","LIN":"2鄰","STREET":" ","SECT":" ","MAREA":"土庫","LANE":" ","ALLEY":" ","HOUSE_NO":"２之５３號","E_COORD97":176727.51999999999,"N_COORD97":2580892.0499999998,"ADDRESS":"土庫２之５３號","OBJECTID":205994},"geometry":{"x":176727.51999999862,"y":2580892.0500000026}},{"attributes":{"ID":205996,"DIS_CODE":0,"TOWNNAME":"鹽水區","LI":"水秀里","LIN":"2鄰","STREET":" ","SECT":" ","MAREA":"土庫","LANE":" ","ALLEY":" ","HOUSE_NO":"２號之５３","E_COORD97":176727.51999999999,"N_COORD97":2580892.0499999998,"ADDRESS":"土庫２號之５３","OBJECTID":205995},"geometry":{"x":176727.51999999862,"y":2580892.0500000026}},{"attributes":{"ID":205997,"DIS_CODE":0,"TOWNNAME":"鹽水區","LI":"水秀里","LIN":"2鄰","STREET":" ","SECT":" ","MAREA":"土庫","LANE":" ","ALLEY":" ","HOUSE_NO":"２之５４號","E_COORD97":176726.35000000001,"N_COORD97":2580899,"ADDRESS":"土庫２之５４號","OBJECTID":205996},"geometry":{"x":176726.34999999963,"y":2580899.0000000019}},{"attributes":{"ID":205998,"DIS_CODE":0,"TOWNNAME":"鹽水區","LI":"水秀里","LIN":"2鄰","STREET":" ","SECT":" ","MAREA":"土庫","LANE":" ","ALLEY":" ","HOUSE_NO":"２之５５號","E_COORD97":176753.82000000001,"N_COORD97":2580902.7999999998,"ADDRESS":"土庫２之５５號","OBJECTID":205997},"geometry":{"x":176753.82000000123,"y":2580902.8000000007}},{"attributes":{"ID":205999,"DIS_CODE":0,"TOWNNAME":"鹽水區","LI":"水秀里","LIN":"2鄰","STREET":" ","SECT":" ","MAREA":"土庫","LANE":" ","ALLEY":" ","HOUSE_NO":"２之５６號","E_COORD97":176754.60999999999,"N_COORD97":2580895.75,"ADDRESS":"土庫２之５６號","OBJECTID":205998},"geometry":{"x":176754.61000000034,"y":2580895.75}},{"attributes":{"ID":206000,"DIS_CODE":0,"TOWNNAME":"鹽水區","LI":"水秀里","LIN":"2鄰","STREET":" ","SECT":" ","MAREA":"土庫","LANE":" ","ALLEY":" ","HOUSE_NO":"２號之５７","E_COORD97":176755.39999999999,"N_COORD97":2580888.6899999999,"ADDRESS":"土庫２號之５７","OBJECTID":205999},"geometry":{"x":176755.4000000013,"y":2580888.6899999995}},{"attributes":{"ID":206001,"DIS_CODE":0,"TOWNNAME":"鹽水區","LI":"水秀里","LIN":"2鄰","STREET":" ","SECT":" ","MAREA":"土庫","LANE":" ","ALLEY":" ","HOUSE_NO":"２之５８號","E_COORD97":176756.19,"N_COORD97":2580881.6400000001,"ADDRESS":"土庫２之５８號","OBJECTID":206000},"geometry":{"x":176756.19000000227,"y":2580881.6400000025}}]}