{"displayFieldName":"TOWNNAME","fieldAliases":{"ID":"ID","DIS_CODE":"DIS_CODE","TOWNNAME":"TOWNNAME","LI":"LI","LIN":"LIN","STREET":"STREET","SECT":"SECT","MAREA":"MAREA","LANE":"LANE","ALLEY":"ALLEY","HOUSE_NO":"HOUSE_NO","E_COORD97":"E_COORD97","N_COORD97":"N_COORD97","ADDRESS":"ADDRESS","OBJECTID":"OBJECTID"},"geometryType":"esriGeometryPoint","spatialReference":{"wkid":102443,"latestWkid":3826},"fields":[{"name":"ID","type":"esriFieldTypeDouble","alias":"ID"},{"name":"DIS_CODE","type":"esriFieldTypeInteger","alias":"DIS_CODE"},{"name":"TOWNNAME","type":"esriFieldTypeString","alias":"TOWNNAME","length":8},{"name":"LI","type":"esriFieldTypeString","alias":"LI","length":8},{"name":"LIN","type":"esriFieldTypeString","alias":"LIN","length":12},{"name":"STREET","type":"esriFieldTypeString","alias":"STREET","length":20},{"name":"SECT","type":"esriFieldTypeString","alias":"SECT","length":8},{"name":"MAREA","type":"esriFieldTypeString","alias":"MAREA","length":12},{"name":"LANE","type":"esriFieldTypeString","alias":"LANE","length":10},{"name":"ALLEY","type":"esriFieldTypeString","alias":"ALLEY","length":10},{"name":"HOUSE_NO","type":"esriFieldTypeString","alias":"HOUSE_NO","length":20},{"name":"E_COORD97","type":"esriFieldTypeDouble","alias":"E_COORD97"},{"name":"N_COORD97","type":"esriFieldTypeDouble","alias":"N_COORD97"},{"name":"ADDRESS","type":"esriFieldTypeString","alias":"ADDRESS","length":50},{"name":"OBJECTID","type":"esriFieldTypeOID","alias":"OBJECTID"}],"features":[{"attributes":{"ID":368211,"DIS_CODE":0,"TOWNNAME":"南區","LI":"大林里","LIN":"12鄰","STREET":"國民路","SECT":" ","MAREA":" ","LANE":"６１９巷","ALLEY":" ","HOUSE_NO":"２號","E_COORD97":168423.95999999999,"N_COORD97":2541675.54,"ADDRESS":"國民路６１９巷２號","OBJECTID":368201},"geometry":{"x":168423.96000000089,"y":2541675.5399999991}},{"attributes":{"ID":368212,"DIS_CODE":0,"TOWNNAME":"南區","LI":"大林里","LIN":"12鄰","STREET":"國民路","SECT":" ","MAREA":" ","LANE":"６１９巷","ALLEY":" ","HOUSE_NO":"３號","E_COORD97":168427.89999999999,"N_COORD97":2541664.46,"ADDRESS":"國民路６１９巷３號","OBJECTID":368202},"geometry":{"x":168427.89999999944,"y":2541664.4600000009}},{"attributes":{"ID":368213,"DIS_CODE":0,"TOWNNAME":"南區","LI":"大林里","LIN":"12鄰","STREET":"國民路","SECT":" ","MAREA":" ","LANE":"６１９巷","ALLEY":" ","HOUSE_NO":"４號","E_COORD97":168416.82999999999,"N_COORD97":2541670.46,"ADDRESS":"國民路６１９巷４號","OBJECTID":368203},"geometry":{"x":168416.83000000101,"y":2541670.4600000028}},{"attributes":{"ID":368214,"DIS_CODE":0,"TOWNNAME":"南區","LI":"大林里","LIN":"12鄰","STREET":"國民路","SECT":" ","MAREA":" ","LANE":"６１９巷","ALLEY":" ","HOUSE_NO":"６號","E_COORD97":168412.89000000001,"N_COORD97":2541666.52,"ADDRESS":"國民路６１９巷６號","OBJECTID":368204},"geometry":{"x":168412.88999999966,"y":2541666.5199999996}},{"attributes":{"ID":368215,"DIS_CODE":0,"TOWNNAME":"南區","LI":"大林里","LIN":"12鄰","STREET":"國民路","SECT":" ","MAREA":" ","LANE":"６１９巷","ALLEY":" ","HOUSE_NO":"７號","E_COORD97":168417.39000000001,"N_COORD97":2541657.3399999999,"ADDRESS":"國民路６１９巷７號","OBJECTID":368205},"geometry":{"x":168417.3900000006,"y":2541657.3399999999}},{"attributes":{"ID":368216,"DIS_CODE":0,"TOWNNAME":"南區","LI":"大林里","LIN":"12鄰","STREET":"國民路","SECT":" ","MAREA":" ","LANE":"６１９巷","ALLEY":" ","HOUSE_NO":"８號","E_COORD97":168407.82000000001,"N_COORD97":2541662.21,"ADDRESS":"國民路６１９巷８號","OBJECTID":368206},"geometry":{"x":168407.8200000003,"y":2541662.2100000028}},{"attributes":{"ID":368217,"DIS_CODE":0,"TOWNNAME":"南區","LI":"大林里","LIN":"12鄰","STREET":"國民路","SECT":" ","MAREA":" ","LANE":"６１９巷","ALLEY":" ","HOUSE_NO":"９號","E_COORD97":168413.45000000001,"N_COORD97":2541653.7799999998,"ADDRESS":"國民路６１９巷９號","OBJECTID":368207},"geometry":{"x":168413.45000000019,"y":2541653.7799999993}},{"attributes":{"ID":368218,"DIS_CODE":0,"TOWNNAME":"南區","LI":"大林里","LIN":"12鄰","STREET":"國民路","SECT":" ","MAREA":" ","LANE":"６１９巷","ALLEY":" ","HOUSE_NO":"１０號","E_COORD97":168403.69,"N_COORD97":2541659.21,"ADDRESS":"國民路６１９巷１０號","OBJECTID":368208},"geometry":{"x":168403.69000000041,"y":2541659.2100000009}},{"attributes":{"ID":368219,"DIS_CODE":0,"TOWNNAME":"南區","LI":"大林里","LIN":"12鄰","STREET":"國民路","SECT":" ","MAREA":" ","LANE":"６１９巷","ALLEY":" ","HOUSE_NO":"１１號","E_COORD97":168408.57000000001,"N_COORD97":2541649.4700000002,"ADDRESS":"國民路６１９巷１１號","OBJECTID":368209},"geometry":{"x":168408.57000000123,"y":2541649.4700000025}},{"attributes":{"ID":368220,"DIS_CODE":0,"TOWNNAME":"南區","LI":"大林里","LIN":"12鄰","STREET":"國民路","SECT":" ","MAREA":" ","LANE":"６１９巷","ALLEY":" ","HOUSE_NO":"１２號","E_COORD97":168399.38,"N_COORD97":2541655.2799999998,"ADDRESS":"國民路６１９巷１２號","OBJECTID":368210},"geometry":{"x":168399.38000000082,"y":2541655.2800000031}},{"attributes":{"ID":368221,"DIS_CODE":0,"TOWNNAME":"南區","LI":"大林里","LIN":"12鄰","STREET":"國民路","SECT":" ","MAREA":" ","LANE":"６１９巷","ALLEY":" ","HOUSE_NO":"１３號","E_COORD97":168403.69,"N_COORD97":2541645.4900000002,"ADDRESS":"國民路６１９巷１３號","OBJECTID":368211},"geometry":{"x":168403.69000000041,"y":2541645.4900000021}},{"attributes":{"ID":368222,"DIS_CODE":0,"TOWNNAME":"南區","LI":"大林里","LIN":"12鄰","STREET":"國民路","SECT":" ","MAREA":" ","LANE":"６１９巷","ALLEY":" ","HOUSE_NO":"１５號","E_COORD97":168399.75,"N_COORD97":2541640.9900000002,"ADDRESS":"國民路６１９巷１５號","OBJECTID":368212},"geometry":{"x":168399.75000000186,"y":2541640.9900000039}},{"attributes":{"ID":368223,"DIS_CODE":0,"TOWNNAME":"南區","LI":"大林里","LIN":"12鄰","STREET":"國民路","SECT":" ","MAREA":" ","LANE":"６２９巷","ALLEY":" ","HOUSE_NO":"２號","E_COORD97":168414.01000000001,"N_COORD97":2541685.48,"ADDRESS":"國民路６２９巷２號","OBJECTID":368213},"geometry":{"x":168414.00999999978,"y":2541685.4800000042}},{"attributes":{"ID":368224,"DIS_CODE":0,"TOWNNAME":"南區","LI":"大林里","LIN":"12鄰","STREET":"國民路","SECT":" ","MAREA":" ","LANE":"６２９巷","ALLEY":" ","HOUSE_NO":"３號","E_COORD97":168402.75,"N_COORD97":2541678.54,"ADDRESS":"國民路６２９巷３號","OBJECTID":368214},"geometry":{"x":168402.75,"y":2541678.540000001}},{"attributes":{"ID":368225,"DIS_CODE":0,"TOWNNAME":"南區","LI":"大林里","LIN":"12鄰","STREET":"國民路","SECT":" ","MAREA":" ","LANE":"６２９巷","ALLEY":" ","HOUSE_NO":"４號","E_COORD97":168421.14000000001,"N_COORD97":2541679.48,"ADDRESS":"國民路６２９巷４號","OBJECTID":368215},"geometry":{"x":168421.1400000006,"y":2541679.4800000023}},{"attributes":{"ID":368226,"DIS_CODE":0,"TOWNNAME":"楠西區","LI":"東勢里","LIN":"12鄰","STREET":"信義路","SECT":" ","MAREA":" ","LANE":"１７３巷","ALLEY":" ","HOUSE_NO":"２２號","E_COORD97":197623.92000000001,"N_COORD97":2563864.27,"ADDRESS":"信義路１７３巷２２號","OBJECTID":368216},"geometry":{"x":197623.92000000086,"y":2563864.2699999996}},{"attributes":{"ID":368227,"DIS_CODE":0,"TOWNNAME":"楠西區","LI":"東勢里","LIN":"12鄰","STREET":"信義路","SECT":" ","MAREA":" ","LANE":"２０７巷","ALLEY":" ","HOUSE_NO":"１９號","E_COORD97":197631.92000000001,"N_COORD97":2563916.27,"ADDRESS":"信義路２０７巷１９號","OBJECTID":368217},"geometry":{"x":197631.91999999993,"y":2563916.2699999996}},{"attributes":{"ID":368228,"DIS_CODE":0,"TOWNNAME":"楠西區","LI":"東勢里","LIN":"12鄰","STREET":"信義路","SECT":" ","MAREA":" ","LANE":"１７３巷","ALLEY":" ","HOUSE_NO":"２６號","E_COORD97":197617.82000000001,"N_COORD97":2563847.27,"ADDRESS":"信義路１７３巷２６號","OBJECTID":368218},"geometry":{"x":197617.81999999937,"y":2563847.2699999996}},{"attributes":{"ID":368229,"DIS_CODE":0,"TOWNNAME":"楠西區","LI":"東勢里","LIN":"12鄰","STREET":"信義路","SECT":" ","MAREA":" ","LANE":"２０７巷","ALLEY":" ","HOUSE_NO":"３５號","E_COORD97":197585.32000000001,"N_COORD97":2563921.27,"ADDRESS":"信義路２０７巷３５號","OBJECTID":368219},"geometry":{"x":197585.3200000003,"y":2563921.2700000014}},{"attributes":{"ID":368230,"DIS_CODE":0,"TOWNNAME":"楠西區","LI":"東勢里","LIN":"12鄰","STREET":"信義路","SECT":" ","MAREA":" ","LANE":"２０７巷","ALLEY":" ","HOUSE_NO":"１５號","E_COORD97":197632.12,"N_COORD97":2563922.27,"ADDRESS":"信義路２０７巷１５號","OBJECTID":368220},"geometry":{"x":197632.12000000011,"y":2563922.2699999996}},{"attributes":{"ID":368231,"DIS_CODE":0,"TOWNNAME":"楠西區","LI":"楠西里","LIN":"12鄰","STREET":"中華路","SECT":" ","MAREA":" ","LANE":"１０９巷","ALLEY":" ","HOUSE_NO":"６號","E_COORD97":197111.35999999999,"N_COORD97":2564157.25,"ADDRESS":"中華路１０９巷６號","OBJECTID":368221},"geometry":{"x":197111.36000000127,"y":2564157.25}},{"attributes":{"ID":368232,"DIS_CODE":0,"TOWNNAME":"楠西區","LI":"東勢里","LIN":"12鄰","STREET":"仁愛路","SECT":" ","MAREA":" ","LANE":"６２巷","ALLEY":" ","HOUSE_NO":"１３號","E_COORD97":197554.69,"N_COORD97":2563906.2799999998,"ADDRESS":"仁愛路６２巷１３號","OBJECTID":368222},"geometry":{"x":197554.69000000134,"y":2563906.2800000031}},{"attributes":{"ID":368233,"DIS_CODE":0,"TOWNNAME":"楠西區","LI":"東勢里","LIN":"12鄰","STREET":"仁愛路","SECT":" ","MAREA":" ","LANE":"６２巷","ALLEY":" ","HOUSE_NO":"９號","E_COORD97":197549.84,"N_COORD97":2563895.2799999998,"ADDRESS":"仁愛路６２巷９號","OBJECTID":368223},"geometry":{"x":197549.84000000078,"y":2563895.2799999993}},{"attributes":{"ID":368234,"DIS_CODE":0,"TOWNNAME":"楠西區","LI":"東勢里","LIN":"12鄰","STREET":"仁愛路","SECT":" ","MAREA":" ","LANE":"６２巷","ALLEY":" ","HOUSE_NO":"１５號","E_COORD97":197557.19,"N_COORD97":2563930.2799999998,"ADDRESS":"仁愛路６２巷１５號","OBJECTID":368224},"geometry":{"x":197557.19000000041,"y":2563930.2800000012}},{"attributes":{"ID":368235,"DIS_CODE":0,"TOWNNAME":"楠西區","LI":"楠西里","LIN":"12鄰","STREET":"中華路","SECT":" ","MAREA":" ","LANE":"１０９巷","ALLEY":" ","HOUSE_NO":"８號","E_COORD97":197104.06,"N_COORD97":2564157.25,"ADDRESS":"中華路１０９巷８號","OBJECTID":368225},"geometry":{"x":197104.06000000052,"y":2564157.25}},{"attributes":{"ID":368236,"DIS_CODE":0,"TOWNNAME":"楠西區","LI":"東勢里","LIN":"12鄰","STREET":"仁愛路","SECT":" ","MAREA":" ","LANE":"６２巷","ALLEY":" ","HOUSE_NO":"１２號","E_COORD97":197558.89000000001,"N_COORD97":2563882.2799999998,"ADDRESS":"仁愛路６２巷１２號","OBJECTID":368226},"geometry":{"x":197558.88999999966,"y":2563882.2799999975}},{"attributes":{"ID":368237,"DIS_CODE":0,"TOWNNAME":"楠西區","LI":"東勢里","LIN":"12鄰","STREET":"仁愛路","SECT":" ","MAREA":" ","LANE":"６２巷","ALLEY":" ","HOUSE_NO":"１１號","E_COORD97":197552.98999999999,"N_COORD97":2563900.2799999998,"ADDRESS":"仁愛路６２巷１１號","OBJECTID":368227},"geometry":{"x":197552.99000000115,"y":2563900.2800000012}},{"attributes":{"ID":368238,"DIS_CODE":0,"TOWNNAME":"楠西區","LI":"東勢里","LIN":"12鄰","STREET":"仁愛路","SECT":" ","MAREA":" ","LANE":"６２巷","ALLEY":" ","HOUSE_NO":"７號","E_COORD97":197548.14000000001,"N_COORD97":2563889.2799999998,"ADDRESS":"仁愛路６２巷７號","OBJECTID":368228},"geometry":{"x":197548.13999999966,"y":2563889.2800000031}},{"attributes":{"ID":368239,"DIS_CODE":0,"TOWNNAME":"楠西區","LI":"楠西里","LIN":"12鄰","STREET":"中華路","SECT":" ","MAREA":" ","LANE":"１０９巷","ALLEY":" ","HOUSE_NO":"２號","E_COORD97":197117.26000000001,"N_COORD97":2564158.25,"ADDRESS":"中華路１０９巷２號","OBJECTID":368229},"geometry":{"x":197117.25999999978,"y":2564158.2500000037}},{"attributes":{"ID":368240,"DIS_CODE":0,"TOWNNAME":"新營區","LI":"南紙里","LIN":"12鄰","STREET":"太子路","SECT":" ","MAREA":" ","LANE":"１５３巷","ALLEY":" ","HOUSE_NO":"７１號","E_COORD97":177974.34,"N_COORD97":2577675.4199999999,"ADDRESS":"太子路１５３巷７１號","OBJECTID":368230},"geometry":{"x":177974.33999999985,"y":2577675.4200000018}},{"attributes":{"ID":368241,"DIS_CODE":0,"TOWNNAME":"東區","LI":"新東里","LIN":"13鄰","STREET":"裕農路","SECT":" ","MAREA":" ","LANE":" ","ALLEY":" ","HOUSE_NO":"４９號","E_COORD97":170677.73000000001,"N_COORD97":2542919.6299999999,"ADDRESS":"裕農路４９號","OBJECTID":368231},"geometry":{"x":170677.73000000138,"y":2542919.629999999}},{"attributes":{"ID":368242,"DIS_CODE":0,"TOWNNAME":"新營區","LI":"南紙里","LIN":"12鄰","STREET":"太子路","SECT":" ","MAREA":" ","LANE":"１５３巷","ALLEY":" ","HOUSE_NO":"６１號","E_COORD97":177965.32999999999,"N_COORD97":2577718.6600000001,"ADDRESS":"太子路１５３巷６１號","OBJECTID":368232},"geometry":{"x":177965.33000000194,"y":2577718.6600000001}},{"attributes":{"ID":368243,"DIS_CODE":0,"TOWNNAME":"新營區","LI":"忠政里","LIN":"12鄰","STREET":"府西路","SECT":" ","MAREA":" ","LANE":"２０２巷","ALLEY":" ","HOUSE_NO":"２９號","E_COORD97":179900.17999999999,"N_COORD97":2579544.4199999999,"ADDRESS":"府西路２０２巷２９號","OBJECTID":368233},"geometry":{"x":179900.18000000156,"y":2579544.4199999999}},{"attributes":{"ID":368244,"DIS_CODE":0,"TOWNNAME":"新營區","LI":"民生里","LIN":"12鄰","STREET":"三民路","SECT":" ","MAREA":" ","LANE":"２０８巷","ALLEY":" ","HOUSE_NO":"６號","E_COORD97":179132.10999999999,"N_COORD97":2578118.3500000001,"ADDRESS":"三民路２０８巷６號","OBJECTID":368234},"geometry":{"x":179132.11000000127,"y":2578118.3499999978}},{"attributes":{"ID":368245,"DIS_CODE":0,"TOWNNAME":"新營區","LI":"興業里","LIN":"12鄰","STREET":"中興路","SECT":" ","MAREA":" ","LANE":"１３巷","ALLEY":" ","HOUSE_NO":"１４之２號","E_COORD97":180203.01000000001,"N_COORD97":2577962.7200000002,"ADDRESS":"中興路１３巷１４之２號","OBJECTID":368235},"geometry":{"x":180203.01000000164,"y":2577962.7200000025}},{"attributes":{"ID":368246,"DIS_CODE":0,"TOWNNAME":"新營區","LI":"忠政里","LIN":"12鄰","STREET":"中正路","SECT":" ","MAREA":" ","LANE":"５９巷","ALLEY":" ","HOUSE_NO":"９號","E_COORD97":180022.60000000001,"N_COORD97":2579547.1600000001,"ADDRESS":"中正路５９巷９號","OBJECTID":368236},"geometry":{"x":180022.60000000149,"y":2579547.1600000001}},{"attributes":{"ID":368247,"DIS_CODE":0,"TOWNNAME":"新營區","LI":"民榮里","LIN":"12鄰","STREET":"興農街","SECT":" ","MAREA":" ","LANE":"４７巷","ALLEY":" ","HOUSE_NO":"８號","E_COORD97":179266.5,"N_COORD97":2577758.8900000001,"ADDRESS":"興農街４７巷８號","OBJECTID":368237},"geometry":{"x":179266.50000000093,"y":2577758.8900000006}},{"attributes":{"ID":368248,"DIS_CODE":0,"TOWNNAME":"新營區","LI":"大宏里","LIN":"12鄰","STREET":"開元路","SECT":" ","MAREA":" ","LANE":"５９巷","ALLEY":" ","HOUSE_NO":"４之３號","E_COORD97":180859.17000000001,"N_COORD97":2578754.79,"ADDRESS":"開元路５９巷４之３號","OBJECTID":368238},"geometry":{"x":180859.16999999993,"y":2578754.7899999991}},{"attributes":{"ID":368249,"DIS_CODE":0,"TOWNNAME":"新營區","LI":"忠政里","LIN":"12鄰","STREET":"中正路","SECT":" ","MAREA":" ","LANE":"５９巷","ALLEY":" ","HOUSE_NO":"３１號","E_COORD97":179912.59,"N_COORD97":2579569.8399999999,"ADDRESS":"中正路５９巷３１號","OBJECTID":368239},"geometry":{"x":179912.58999999985,"y":2579569.8400000036}},{"attributes":{"ID":368250,"DIS_CODE":0,"TOWNNAME":"新營區","LI":"大宏里","LIN":"12鄰","STREET":"開元路","SECT":" ","MAREA":" ","LANE":"５９巷","ALLEY":" ","HOUSE_NO":"８之１號","E_COORD97":180860.29000000001,"N_COORD97":2578778.04,"ADDRESS":"開元路５９巷８之１號","OBJECTID":368240},"geometry":{"x":180860.29000000004,"y":2578778.0400000028}},{"attributes":{"ID":368251,"DIS_CODE":0,"TOWNNAME":"新營區","LI":"民生里","LIN":"12鄰","STREET":"復興路","SECT":" ","MAREA":" ","LANE":"２２０巷","ALLEY":" ","HOUSE_NO":"１０號","E_COORD97":179035.03,"N_COORD97":2578092.2400000002,"ADDRESS":"復興路２２０巷１０號","OBJECTID":368241},"geometry":{"x":179035.03000000026,"y":2578092.2400000002}},{"attributes":{"ID":368252,"DIS_CODE":0,"TOWNNAME":"新營區","LI":"忠政里","LIN":"12鄰","STREET":"府西路","SECT":" ","MAREA":" ","LANE":"２０２巷","ALLEY":" ","HOUSE_NO":"３７號","E_COORD97":179922.70000000001,"N_COORD97":2579544.3100000001,"ADDRESS":"府西路２０２巷３７號","OBJECTID":368242},"geometry":{"x":179922.70000000112,"y":2579544.3100000024}},{"attributes":{"ID":368253,"DIS_CODE":0,"TOWNNAME":"新營區","LI":"興業里","LIN":"12鄰","STREET":"中興路","SECT":" ","MAREA":" ","LANE":"１３巷","ALLEY":" ","HOUSE_NO":"８之１號","E_COORD97":180173.19,"N_COORD97":2577963.96,"ADDRESS":"中興路１３巷８之１號","OBJECTID":368243},"geometry":{"x":180173.19000000041,"y":2577963.9600000028}},{"attributes":{"ID":368254,"DIS_CODE":0,"TOWNNAME":"東區","LI":"莊敬里","LIN":"13鄰","STREET":"東光路","SECT":"二段","MAREA":" ","LANE":"３６巷","ALLEY":" ","HOUSE_NO":"１３號","E_COORD97":171273.29999999999,"N_COORD97":2544062.4500000002,"ADDRESS":"東光路二段３６巷１３號","OBJECTID":368244},"geometry":{"x":171273.30000000075,"y":2544062.4500000011}},{"attributes":{"ID":368255,"DIS_CODE":0,"TOWNNAME":"東區","LI":"莊敬里","LIN":"13鄰","STREET":"東光路","SECT":"二段","MAREA":" ","LANE":"３６巷","ALLEY":" ","HOUSE_NO":"１７號","E_COORD97":171281.67999999999,"N_COORD97":2544062.71,"ADDRESS":"東光路二段３６巷１７號","OBJECTID":368245},"geometry":{"x":171281.67999999877,"y":2544062.7100000028}},{"attributes":{"ID":368256,"DIS_CODE":0,"TOWNNAME":"東區","LI":"莊敬里","LIN":"13鄰","STREET":"東光路","SECT":"二段","MAREA":" ","LANE":"３６巷","ALLEY":" ","HOUSE_NO":"１９號","E_COORD97":171286.39999999999,"N_COORD97":2544062.4500000002,"ADDRESS":"東光路二段３６巷１９號","OBJECTID":368246},"geometry":{"x":171286.4000000013,"y":2544062.4500000011}},{"attributes":{"ID":368257,"DIS_CODE":0,"TOWNNAME":"東區","LI":"莊敬里","LIN":"13鄰","STREET":"東光路","SECT":"二段","MAREA":" ","LANE":"３６巷","ALLEY":" ","HOUSE_NO":"２１號","E_COORD97":171291.38,"N_COORD97":2544062.71,"ADDRESS":"東光路二段３６巷２１號","OBJECTID":368247},"geometry":{"x":171291.38000000082,"y":2544062.7100000028}},{"attributes":{"ID":368258,"DIS_CODE":0,"TOWNNAME":"東區","LI":"莊敬里","LIN":"8鄰","STREET":"東光路","SECT":"二段","MAREA":" ","LANE":"７７巷","ALLEY":" ","HOUSE_NO":"３１號","E_COORD97":171123.19,"N_COORD97":2544141.8199999998,"ADDRESS":"東光路二段７７巷３１號","OBJECTID":368248},"geometry":{"x":171123.19000000227,"y":2544141.8200000022}},{"attributes":{"ID":368259,"DIS_CODE":0,"TOWNNAME":"安平區","LI":"國平里","LIN":"12鄰","STREET":"建平一街","SECT":" ","MAREA":" ","LANE":"１９０巷","ALLEY":" ","HOUSE_NO":"１０號","E_COORD97":165635.72,"N_COORD97":2542826.8599999999,"ADDRESS":"建平一街１９０巷１０號","OBJECTID":368249},"geometry":{"x":165635.71999999974,"y":2542826.8599999994}},{"attributes":{"ID":368260,"DIS_CODE":0,"TOWNNAME":"北區","LI":"小康里","LIN":"12鄰","STREET":"大武街","SECT":" ","MAREA":" ","LANE":"２２１巷","ALLEY":" ","HOUSE_NO":"１號","E_COORD97":169625.67999999999,"N_COORD97":2546133.8799999999,"ADDRESS":"大武街２２１巷１號","OBJECTID":368250},"geometry":{"x":169625.68000000156,"y":2546133.8800000008}},{"attributes":{"ID":368261,"DIS_CODE":0,"TOWNNAME":"安平區","LI":"國平里","LIN":"12鄰","STREET":"建平一街","SECT":" ","MAREA":" ","LANE":"１９０巷","ALLEY":" ","HOUSE_NO":"１１號","E_COORD97":165624.14000000001,"N_COORD97":2542813.75,"ADDRESS":"建平一街１９０巷１１號","OBJECTID":368251},"geometry":{"x":165624.1400000006,"y":2542813.7500000019}},{"attributes":{"ID":368262,"DIS_CODE":0,"TOWNNAME":"安平區","LI":"國平里","LIN":"12鄰","STREET":"建平一街","SECT":" ","MAREA":" ","LANE":"１９０巷","ALLEY":" ","HOUSE_NO":"１２號","E_COORD97":165636.38,"N_COORD97":2542831.0600000001,"ADDRESS":"建平一街１９０巷１２號","OBJECTID":368252},"geometry":{"x":165636.38000000082,"y":2542831.0600000042}},{"attributes":{"ID":368263,"DIS_CODE":0,"TOWNNAME":"安平區","LI":"國平里","LIN":"12鄰","STREET":"建平一街","SECT":" ","MAREA":" ","LANE":"１９０巷","ALLEY":" ","HOUSE_NO":"１３號","E_COORD97":165623.06,"N_COORD97":2542819.8999999999,"ADDRESS":"建平一街１９０巷１３號","OBJECTID":368253},"geometry":{"x":165623.06000000052,"y":2542819.9000000022}},{"attributes":{"ID":368264,"DIS_CODE":0,"TOWNNAME":"安平區","LI":"國平里","LIN":"12鄰","STREET":"建平一街","SECT":" ","MAREA":" ","LANE":"１９０巷","ALLEY":" ","HOUSE_NO":"１４號","E_COORD97":165637.04999999999,"N_COORD97":2542835.71,"ADDRESS":"建平一街１９０巷１４號","OBJECTID":368254},"geometry":{"x":165637.04999999981,"y":2542835.7100000009}},{"attributes":{"ID":368265,"DIS_CODE":0,"TOWNNAME":"安平區","LI":"國平里","LIN":"12鄰","STREET":"建平一街","SECT":" ","MAREA":" ","LANE":"１９０巷","ALLEY":" ","HOUSE_NO":"１５號","E_COORD97":165624.07999999999,"N_COORD97":2542823.48,"ADDRESS":"建平一街１９０巷１５號","OBJECTID":368255},"geometry":{"x":165624.08000000007,"y":2542823.4800000004}},{"attributes":{"ID":368266,"DIS_CODE":0,"TOWNNAME":"安平區","LI":"國平里","LIN":"12鄰","STREET":"建平一街","SECT":" ","MAREA":" ","LANE":"１９０巷","ALLEY":" ","HOUSE_NO":"１６號","E_COORD97":165637.92999999999,"N_COORD97":2542840.1299999999,"ADDRESS":"建平一街１９０巷１６號","OBJECTID":368256},"geometry":{"x":165637.9299999997,"y":2542840.1300000008}},{"attributes":{"ID":368267,"DIS_CODE":0,"TOWNNAME":"安平區","LI":"國平里","LIN":"12鄰","STREET":"建平一街","SECT":" ","MAREA":" ","LANE":"１９０巷","ALLEY":" ","HOUSE_NO":"１７號","E_COORD97":165624.85000000001,"N_COORD97":2542828.0699999998,"ADDRESS":"建平一街１９０巷１７號","OBJECTID":368257},"geometry":{"x":165624.84999999963,"y":2542828.0700000022}},{"attributes":{"ID":368268,"DIS_CODE":0,"TOWNNAME":"安平區","LI":"國平里","LIN":"12鄰","STREET":"建平一街","SECT":" ","MAREA":" ","LANE":"１９０巷","ALLEY":" ","HOUSE_NO":"１８號","E_COORD97":165638.37,"N_COORD97":2542844.5499999998,"ADDRESS":"建平一街１９０巷１８號","OBJECTID":368258},"geometry":{"x":165638.37000000104,"y":2542844.5500000007}},{"attributes":{"ID":368269,"DIS_CODE":0,"TOWNNAME":"安平區","LI":"國平里","LIN":"12鄰","STREET":"建平一街","SECT":" ","MAREA":" ","LANE":"１９０巷","ALLEY":" ","HOUSE_NO":"１９號","E_COORD97":165625.10999999999,"N_COORD97":2542832.4199999999,"ADDRESS":"建平一街１９０巷１９號","OBJECTID":368259},"geometry":{"x":165625.11000000127,"y":2542832.4200000018}},{"attributes":{"ID":368270,"DIS_CODE":0,"TOWNNAME":"安平區","LI":"國平里","LIN":"12鄰","STREET":"建平一街","SECT":" ","MAREA":" ","LANE":"１９０巷","ALLEY":" ","HOUSE_NO":"２０號","E_COORD97":165639.26000000001,"N_COORD97":2542850.5299999998,"ADDRESS":"建平一街１９０巷２０號","OBJECTID":368260},"geometry":{"x":165639.25999999978,"y":2542850.5300000031}},{"attributes":{"ID":368271,"DIS_CODE":0,"TOWNNAME":"安平區","LI":"國平里","LIN":"12鄰","STREET":"建平一街","SECT":" ","MAREA":" ","LANE":"１９０巷","ALLEY":" ","HOUSE_NO":"２１號","E_COORD97":165625.35999999999,"N_COORD97":2542836.7599999998,"ADDRESS":"建平一街１９０巷２１號","OBJECTID":368261},"geometry":{"x":165625.36000000034,"y":2542836.7600000016}},{"attributes":{"ID":368272,"DIS_CODE":0,"TOWNNAME":"安平區","LI":"國平里","LIN":"12鄰","STREET":"建平一街","SECT":" ","MAREA":" ","LANE":"１９０巷","ALLEY":" ","HOUSE_NO":"２３號","E_COORD97":165625.88,"N_COORD97":2542841.6099999999,"ADDRESS":"建平一街１９０巷２３號","OBJECTID":368262},"geometry":{"x":165625.88000000082,"y":2542841.6099999994}},{"attributes":{"ID":368273,"DIS_CODE":0,"TOWNNAME":"安平區","LI":"國平里","LIN":"12鄰","STREET":"建平一街","SECT":" ","MAREA":" ","LANE":"１９０巷","ALLEY":" ","HOUSE_NO":"２５號","E_COORD97":165626.39000000001,"N_COORD97":2542846.46,"ADDRESS":"建平一街１９０巷２５號","OBJECTID":368263},"geometry":{"x":165626.38999999966,"y":2542846.4600000028}},{"attributes":{"ID":368274,"DIS_CODE":0,"TOWNNAME":"安平區","LI":"國平里","LIN":"12鄰","STREET":"建平一街","SECT":" ","MAREA":" ","LANE":"１９０巷","ALLEY":" ","HOUSE_NO":"２７號","E_COORD97":165626.89999999999,"N_COORD97":2542850.8100000001,"ADDRESS":"建平一街１９０巷２７號","OBJECTID":368264},"geometry":{"x":165626.90000000037,"y":2542850.8100000024}},{"attributes":{"ID":368275,"DIS_CODE":0,"TOWNNAME":"東區","LI":"和平里","LIN":"1鄰","STREET":"文化一街","SECT":" ","MAREA":" ","LANE":" ","ALLEY":" ","HOUSE_NO":"２號五樓","E_COORD97":171099.45000000001,"N_COORD97":2542097.2200000002,"ADDRESS":"文化一街２號五樓","OBJECTID":368265},"geometry":{"x":171099.45000000112,"y":2542097.2200000007}},{"attributes":{"ID":368276,"DIS_CODE":0,"TOWNNAME":"安平區","LI":"國平里","LIN":"12鄰","STREET":"建平一街","SECT":" ","MAREA":" ","LANE":"１９０巷","ALLEY":" ","HOUSE_NO":"２９號","E_COORD97":165627.67000000001,"N_COORD97":2542855.1499999999,"ADDRESS":"建平一街１９０巷２９號","OBJECTID":368266},"geometry":{"x":165627.67000000086,"y":2542855.1500000022}},{"attributes":{"ID":368277,"DIS_CODE":0,"TOWNNAME":"安平區","LI":"國平里","LIN":"12鄰","STREET":"建平一街","SECT":" ","MAREA":" ","LANE":"１９０巷","ALLEY":" ","HOUSE_NO":"２號","E_COORD97":165633.28,"N_COORD97":2542808.4900000002,"ADDRESS":"建平一街１９０巷２號","OBJECTID":368267},"geometry":{"x":165633.28000000212,"y":2542808.4900000021}},{"attributes":{"ID":368278,"DIS_CODE":0,"TOWNNAME":"安平區","LI":"國平里","LIN":"12鄰","STREET":"建平一街","SECT":" ","MAREA":" ","LANE":"１９０巷","ALLEY":" ","HOUSE_NO":"２號之１","E_COORD97":165634.17000000001,"N_COORD97":2542813.3599999999,"ADDRESS":"建平一街１９０巷２號之１","OBJECTID":368268},"geometry":{"x":165634.17000000086,"y":2542813.3599999994}},{"attributes":{"ID":368279,"DIS_CODE":0,"TOWNNAME":"安平區","LI":"國平里","LIN":"12鄰","STREET":"建平一街","SECT":" ","MAREA":" ","LANE":"１９０巷","ALLEY":" ","HOUSE_NO":"３１號","E_COORD97":165628.70000000001,"N_COORD97":2542859.6200000001,"ADDRESS":"建平一街１９０巷３１號","OBJECTID":368269},"geometry":{"x":165628.70000000205,"y":2542859.6200000029}},{"attributes":{"ID":368280,"DIS_CODE":0,"TOWNNAME":"東區","LI":" ","LIN":" ","STREET":"東光路","SECT":"二段","MAREA":" ","LANE":"３６巷","ALLEY":" ","HOUSE_NO":"１５號","E_COORD97":171277.23000000001,"N_COORD97":2544062.4500000002,"ADDRESS":"東光路二段３６巷１５號","OBJECTID":368270},"geometry":{"x":171277.23000000231,"y":2544062.4500000011}},{"attributes":{"ID":368281,"DIS_CODE":0,"TOWNNAME":"東區","LI":"莊敬里","LIN":"8鄰","STREET":"東光路","SECT":"二段","MAREA":" ","LANE":"７７巷","ALLEY":" ","HOUSE_NO":"３３號","E_COORD97":171121.35999999999,"N_COORD97":2544133.96,"ADDRESS":"東光路二段７７巷３３號","OBJECTID":368271},"geometry":{"x":171121.36000000034,"y":2544133.9600000046}},{"attributes":{"ID":368282,"DIS_CODE":0,"TOWNNAME":"安平區","LI":"國平里","LIN":"12鄰","STREET":"建平一街","SECT":" ","MAREA":" ","LANE":"１９０巷","ALLEY":" ","HOUSE_NO":"３３號","E_COORD97":165628.95000000001,"N_COORD97":2542863.96,"ADDRESS":"建平一街１９０巷３３號","OBJECTID":368272},"geometry":{"x":165628.95000000112,"y":2542863.9600000028}},{"attributes":{"ID":368283,"DIS_CODE":0,"TOWNNAME":"安平區","LI":"國平里","LIN":"12鄰","STREET":"建平一街","SECT":" ","MAREA":" ","LANE":"１９０巷","ALLEY":" ","HOUSE_NO":"３５號","E_COORD97":165630.23000000001,"N_COORD97":2542868.8100000001,"ADDRESS":"建平一街１９０巷３５號","OBJECTID":368273},"geometry":{"x":165630.23000000045,"y":2542868.8100000005}},{"attributes":{"ID":368284,"DIS_CODE":0,"TOWNNAME":"安平區","LI":"國平里","LIN":"12鄰","STREET":"建平一街","SECT":" ","MAREA":" ","LANE":"１９０巷","ALLEY":" ","HOUSE_NO":"３７號","E_COORD97":165630.23000000001,"N_COORD97":2542872.8999999999,"ADDRESS":"建平一街１９０巷３７號","OBJECTID":368274},"geometry":{"x":165630.23000000045,"y":2542872.9000000022}},{"attributes":{"ID":368285,"DIS_CODE":0,"TOWNNAME":"安平區","LI":"國平里","LIN":"12鄰","STREET":"建平一街","SECT":" ","MAREA":" ","LANE":"１９０巷","ALLEY":" ","HOUSE_NO":"３９號","E_COORD97":165630.23000000001,"N_COORD97":2542878.2599999998,"ADDRESS":"建平一街１９０巷３９號","OBJECTID":368275},"geometry":{"x":165630.23000000045,"y":2542878.2599999998}},{"attributes":{"ID":368286,"DIS_CODE":0,"TOWNNAME":"安平區","LI":"國平里","LIN":"12鄰","STREET":"建平一街","SECT":" ","MAREA":" ","LANE":"１９０巷","ALLEY":" ","HOUSE_NO":"４１號","E_COORD97":165630.73999999999,"N_COORD97":2542882.1000000001,"ADDRESS":"建平一街１９０巷４１號","OBJECTID":368276},"geometry":{"x":165630.74000000115,"y":2542882.1000000015}},{"attributes":{"ID":368287,"DIS_CODE":0,"TOWNNAME":"安平區","LI":"國平里","LIN":"12鄰","STREET":"建平一街","SECT":" ","MAREA":" ","LANE":"１９０巷","ALLEY":" ","HOUSE_NO":"４３號","E_COORD97":165631.76000000001,"N_COORD97":2542887.46,"ADDRESS":"建平一街１９０巷４３號","OBJECTID":368277},"geometry":{"x":165631.76000000071,"y":2542887.4600000028}},{"attributes":{"ID":368288,"DIS_CODE":0,"TOWNNAME":"安平區","LI":"國平里","LIN":"12鄰","STREET":"建平一街","SECT":" ","MAREA":" ","LANE":"１９０巷","ALLEY":" ","HOUSE_NO":"４５號","E_COORD97":165631.76000000001,"N_COORD97":2542891.7999999998,"ADDRESS":"建平一街１９０巷４５號","OBJECTID":368278},"geometry":{"x":165631.76000000071,"y":2542891.8000000026}},{"attributes":{"ID":368289,"DIS_CODE":0,"TOWNNAME":"安平區","LI":"國平里","LIN":"12鄰","STREET":"建平一街","SECT":" ","MAREA":" ","LANE":"１９０巷","ALLEY":" ","HOUSE_NO":"４７號","E_COORD97":165633.98999999999,"N_COORD97":2542894.8399999999,"ADDRESS":"建平一街１９０巷４７號","OBJECTID":368279},"geometry":{"x":165633.99000000115,"y":2542894.8399999999}},{"attributes":{"ID":368290,"DIS_CODE":0,"TOWNNAME":"安平區","LI":"國平里","LIN":"12鄰","STREET":"建平一街","SECT":" ","MAREA":" ","LANE":"１９０巷","ALLEY":" ","HOUSE_NO":"４９號","E_COORD97":165633.98999999999,"N_COORD97":2542899.1000000001,"ADDRESS":"建平一街１９０巷４９號","OBJECTID":368280},"geometry":{"x":165633.99000000115,"y":2542899.1000000015}},{"attributes":{"ID":368291,"DIS_CODE":0,"TOWNNAME":"安平區","LI":"國平里","LIN":"12鄰","STREET":"建平一街","SECT":" ","MAREA":" ","LANE":"１９０巷","ALLEY":" ","HOUSE_NO":"５１號","E_COORD97":165635.41,"N_COORD97":2542904.5099999998,"ADDRESS":"建平一街１９０巷５１號","OBJECTID":368281},"geometry":{"x":165635.41000000015,"y":2542904.5099999998}},{"attributes":{"ID":368292,"DIS_CODE":0,"TOWNNAME":"安平區","LI":"國平里","LIN":"12鄰","STREET":"建平一街","SECT":" ","MAREA":" ","LANE":"１９０巷","ALLEY":" ","HOUSE_NO":"５３號","E_COORD97":165635.98000000001,"N_COORD97":2542908.21,"ADDRESS":"建平一街１９０巷５３號","OBJECTID":368282},"geometry":{"x":165635.98000000138,"y":2542908.2100000046}},{"attributes":{"ID":368293,"DIS_CODE":0,"TOWNNAME":"安平區","LI":"國平里","LIN":"12鄰","STREET":"建平一街","SECT":" ","MAREA":" ","LANE":"１９０巷","ALLEY":" ","HOUSE_NO":"６號","E_COORD97":165635.04999999999,"N_COORD97":2542817.3399999999,"ADDRESS":"建平一街１９０巷６號","OBJECTID":368283},"geometry":{"x":165635.05000000075,"y":2542817.3399999999}},{"attributes":{"ID":368294,"DIS_CODE":0,"TOWNNAME":"安平區","LI":"國平里","LIN":"12鄰","STREET":"建平一街","SECT":" ","MAREA":" ","LANE":"１９０巷","ALLEY":" ","HOUSE_NO":"８號","E_COORD97":165635.26999999999,"N_COORD97":2542822.21,"ADDRESS":"建平一街１９０巷８號","OBJECTID":368284},"geometry":{"x":165635.26999999955,"y":2542822.2100000009}},{"attributes":{"ID":368295,"DIS_CODE":0,"TOWNNAME":"南區","LI":"省躬里","LIN":"12鄰","STREET":"省躬一街","SECT":" ","MAREA":" ","LANE":"１２巷","ALLEY":" ","HOUSE_NO":"２１號","E_COORD97":165705.85000000001,"N_COORD97":2537055,"ADDRESS":"省躬一街１２巷２１號","OBJECTID":368285},"geometry":{"x":165705.85000000056,"y":2537055.0000000019}},{"attributes":{"ID":368296,"DIS_CODE":0,"TOWNNAME":"南區","LI":"省躬里","LIN":"12鄰","STREET":"省躬一街","SECT":" ","MAREA":" ","LANE":"１２巷","ALLEY":" ","HOUSE_NO":"２３號","E_COORD97":165701.28,"N_COORD97":2537051.4100000001,"ADDRESS":"省躬一街１２巷２３號","OBJECTID":368286},"geometry":{"x":165701.28000000119,"y":2537051.410000002}},{"attributes":{"ID":368297,"DIS_CODE":0,"TOWNNAME":"南區","LI":"省躬里","LIN":"12鄰","STREET":"省躬二街","SECT":" ","MAREA":" ","LANE":"１６巷","ALLEY":" ","HOUSE_NO":"１號","E_COORD97":165732.01000000001,"N_COORD97":2537036.7200000002,"ADDRESS":"省躬二街１６巷１號","OBJECTID":368287},"geometry":{"x":165732.01000000071,"y":2537036.7200000025}},{"attributes":{"ID":368298,"DIS_CODE":0,"TOWNNAME":"南區","LI":"省躬里","LIN":"12鄰","STREET":"省躬二街","SECT":" ","MAREA":" ","LANE":"１６巷","ALLEY":" ","HOUSE_NO":"２號","E_COORD97":165727.76000000001,"N_COORD97":2537034.4300000002,"ADDRESS":"省躬二街１６巷２號","OBJECTID":368288},"geometry":{"x":165727.75999999885,"y":2537034.4300000016}},{"attributes":{"ID":368299,"DIS_CODE":0,"TOWNNAME":"南區","LI":"省躬里","LIN":"12鄰","STREET":"省躬二街","SECT":" ","MAREA":" ","LANE":"１６巷","ALLEY":" ","HOUSE_NO":"３號","E_COORD97":165723.17999999999,"N_COORD97":2537031.8199999998,"ADDRESS":"省躬二街１６巷３號","OBJECTID":368289},"geometry":{"x":165723.18000000156,"y":2537031.8200000022}},{"attributes":{"ID":368300,"DIS_CODE":0,"TOWNNAME":"南區","LI":"省躬里","LIN":"12鄰","STREET":"省躬二街","SECT":" ","MAREA":" ","LANE":"１６巷","ALLEY":" ","HOUSE_NO":"５號","E_COORD97":165719.26000000001,"N_COORD97":2537029.21,"ADDRESS":"省躬二街１６巷５號","OBJECTID":368290},"geometry":{"x":165719.25999999885,"y":2537029.209999999}},{"attributes":{"ID":368301,"DIS_CODE":0,"TOWNNAME":"南區","LI":"省躬里","LIN":"12鄰","STREET":"省躬二街","SECT":" ","MAREA":" ","LANE":"２６巷","ALLEY":" ","HOUSE_NO":"１０號","E_COORD97":165710.76000000001,"N_COORD97":2536997.9900000002,"ADDRESS":"省躬二街２６巷１０號","OBJECTID":368291},"geometry":{"x":165710.75999999978,"y":2536997.9900000021}},{"attributes":{"ID":368302,"DIS_CODE":0,"TOWNNAME":"南區","LI":"省躬里","LIN":"12鄰","STREET":"省躬二街","SECT":" ","MAREA":" ","LANE":"２６巷","ALLEY":" ","HOUSE_NO":"１１號","E_COORD97":165726.12,"N_COORD97":2536975.46,"ADDRESS":"省躬二街２６巷１１號","OBJECTID":368292},"geometry":{"x":165726.12000000104,"y":2536975.4600000009}},{"attributes":{"ID":368303,"DIS_CODE":0,"TOWNNAME":"南區","LI":"省躬里","LIN":"12鄰","STREET":"省躬二街","SECT":" ","MAREA":" ","LANE":"２６巷","ALLEY":" ","HOUSE_NO":"１３號","E_COORD97":165721.54999999999,"N_COORD97":2536978.0699999998,"ADDRESS":"省躬二街２６巷１３號","OBJECTID":368293},"geometry":{"x":165721.55000000075,"y":2536978.0700000003}},{"attributes":{"ID":368304,"DIS_CODE":0,"TOWNNAME":"南區","LI":"省躬里","LIN":"12鄰","STREET":"省躬二街","SECT":" ","MAREA":" ","LANE":"２６巷","ALLEY":" ","HOUSE_NO":"１５號","E_COORD97":165717.95000000001,"N_COORD97":2536975.46,"ADDRESS":"省躬二街２６巷１５號","OBJECTID":368294},"geometry":{"x":165717.95000000019,"y":2536975.4600000009}},{"attributes":{"ID":368305,"DIS_CODE":0,"TOWNNAME":"南區","LI":"省躬里","LIN":"12鄰","STREET":"省躬二街","SECT":" ","MAREA":" ","LANE":"２６巷","ALLEY":" ","HOUSE_NO":"１７號","E_COORD97":165714.67999999999,"N_COORD97":2536971.54,"ADDRESS":"省躬二街２６巷１７號","OBJECTID":368295},"geometry":{"x":165714.67999999877,"y":2536971.540000001}},{"attributes":{"ID":368306,"DIS_CODE":0,"TOWNNAME":"南區","LI":"省躬里","LIN":"12鄰","STREET":"省躬二街","SECT":" ","MAREA":" ","LANE":"２６巷","ALLEY":" ","HOUSE_NO":"１９號","E_COORD97":165708.47,"N_COORD97":2536975.1299999999,"ADDRESS":"省躬二街２６巷１９號","OBJECTID":368296},"geometry":{"x":165708.47000000067,"y":2536975.1300000008}},{"attributes":{"ID":368307,"DIS_CODE":0,"TOWNNAME":"南區","LI":"省躬里","LIN":"12鄰","STREET":"省躬二街","SECT":" ","MAREA":" ","LANE":"２６巷","ALLEY":" ","HOUSE_NO":"１號","E_COORD97":165744.76000000001,"N_COORD97":2536985.5800000001,"ADDRESS":"省躬二街２６巷１號","OBJECTID":368297},"geometry":{"x":165744.76000000164,"y":2536985.5800000038}},{"attributes":{"ID":368308,"DIS_CODE":0,"TOWNNAME":"南區","LI":"省躬里","LIN":"12鄰","STREET":"省躬二街","SECT":" ","MAREA":" ","LANE":"２６巷","ALLEY":" ","HOUSE_NO":"２號","E_COORD97":165722.85999999999,"N_COORD97":2537005.5,"ADDRESS":"省躬二街２６巷２號","OBJECTID":368298},"geometry":{"x":165722.86000000127,"y":2537005.5}},{"attributes":{"ID":368309,"DIS_CODE":0,"TOWNNAME":"南區","LI":"省躬里","LIN":"12鄰","STREET":"省躬二街","SECT":" ","MAREA":" ","LANE":"２６巷","ALLEY":" ","HOUSE_NO":"３號","E_COORD97":165740.84,"N_COORD97":2536982.9700000002,"ADDRESS":"省躬二街２６巷３號","OBJECTID":368299},"geometry":{"x":165740.83999999892,"y":2536982.9700000007}},{"attributes":{"ID":368310,"DIS_CODE":0,"TOWNNAME":"南區","LI":"省躬里","LIN":"12鄰","STREET":"省躬二街","SECT":" ","MAREA":" ","LANE":"２６巷","ALLEY":" ","HOUSE_NO":"５號","E_COORD97":165735.92999999999,"N_COORD97":2536984.6000000001,"ADDRESS":"省躬二街２６巷５號","OBJECTID":368300},"geometry":{"x":165735.93000000063,"y":2536984.5999999978}},{"attributes":{"ID":368311,"DIS_CODE":0,"TOWNNAME":"南區","LI":"省躬里","LIN":"12鄰","STREET":"省躬二街","SECT":" ","MAREA":" ","LANE":"２６巷","ALLEY":" ","HOUSE_NO":"６號","E_COORD97":165719.26000000001,"N_COORD97":2537000.9300000002,"ADDRESS":"省躬二街２６巷６號","OBJECTID":368301},"geometry":{"x":165719.25999999885,"y":2537000.9300000016}},{"attributes":{"ID":368312,"DIS_CODE":0,"TOWNNAME":"南區","LI":"省躬里","LIN":"12鄰","STREET":"省躬二街","SECT":" ","MAREA":" ","LANE":"２６巷","ALLEY":" ","HOUSE_NO":"７號","E_COORD97":165734.29999999999,"N_COORD97":2536977.4199999999,"ADDRESS":"省躬二街２６巷７號","OBJECTID":368302},"geometry":{"x":165734.29999999888,"y":2536977.4200000018}},{"attributes":{"ID":368313,"DIS_CODE":0,"TOWNNAME":"南區","LI":"省躬里","LIN":"12鄰","STREET":"省躬二街","SECT":" ","MAREA":" ","LANE":"２６巷","ALLEY":" ","HOUSE_NO":"８號","E_COORD97":165714.35000000001,"N_COORD97":2537003.54,"ADDRESS":"省躬二街２６巷８號","OBJECTID":368303},"geometry":{"x":165714.35000000056,"y":2537003.5399999991}},{"attributes":{"ID":368314,"DIS_CODE":0,"TOWNNAME":"南區","LI":"省躬里","LIN":"12鄰","STREET":"省躬二街","SECT":" ","MAREA":" ","LANE":"２６巷","ALLEY":" ","HOUSE_NO":"９號","E_COORD97":165729.39000000001,"N_COORD97":2536979.71,"ADDRESS":"省躬二街２６巷９號","OBJECTID":368304},"geometry":{"x":165729.3900000006,"y":2536979.7100000028}},{"attributes":{"ID":368315,"DIS_CODE":0,"TOWNNAME":"南區","LI":"永寧里","LIN":"12鄰","STREET":"灣裡路","SECT":" ","MAREA":" ","LANE":"８８巷","ALLEY":" ","HOUSE_NO":"１５８號","E_COORD97":165806.67000000001,"N_COORD97":2536473.6400000001,"ADDRESS":"灣裡路８８巷１５８號","OBJECTID":368305},"geometry":{"x":165806.67000000179,"y":2536473.6400000043}},{"attributes":{"ID":368316,"DIS_CODE":0,"TOWNNAME":"南區","LI":"永寧里","LIN":"12鄰","STREET":"灣裡路","SECT":" ","MAREA":" ","LANE":"８８巷","ALLEY":" ","HOUSE_NO":"１６２號","E_COORD97":165846.54000000001,"N_COORD97":2536477.54,"ADDRESS":"灣裡路８８巷１６２號","OBJECTID":368306},"geometry":{"x":165846.5400000019,"y":2536477.540000001}},{"attributes":{"ID":368317,"DIS_CODE":0,"TOWNNAME":"南區","LI":"永寧里","LIN":"12鄰","STREET":"灣裡路","SECT":" ","MAREA":" ","LANE":"８８巷","ALLEY":" ","HOUSE_NO":"１６２號之１","E_COORD97":165845.39999999999,"N_COORD97":2536481.7999999998,"ADDRESS":"灣裡路８８巷１６２號之１","OBJECTID":368307},"geometry":{"x":165845.40000000037,"y":2536481.8000000007}},{"attributes":{"ID":368318,"DIS_CODE":0,"TOWNNAME":"南區","LI":"永寧里","LIN":"12鄰","STREET":"灣裡路","SECT":" ","MAREA":" ","LANE":"８８巷","ALLEY":" ","HOUSE_NO":"１６２號之２","E_COORD97":165843.5,"N_COORD97":2536485.5899999999,"ADDRESS":"灣裡路８８巷１６２號之２","OBJECTID":368308},"geometry":{"x":165843.50000000186,"y":2536485.5899999999}},{"attributes":{"ID":368319,"DIS_CODE":0,"TOWNNAME":"南區","LI":"永寧里","LIN":"12鄰","STREET":"灣裡路","SECT":" ","MAREA":" ","LANE":"８８巷","ALLEY":" ","HOUSE_NO":"１６２號之３","E_COORD97":165840.95000000001,"N_COORD97":2536490.2200000002,"ADDRESS":"灣裡路８８巷１６２號之３","OBJECTID":368309},"geometry":{"x":165840.95000000112,"y":2536490.2200000044}},{"attributes":{"ID":368320,"DIS_CODE":0,"TOWNNAME":"南區","LI":"永寧里","LIN":"12鄰","STREET":"灣裡路","SECT":" ","MAREA":" ","LANE":"８８巷","ALLEY":" ","HOUSE_NO":"１６２號之４","E_COORD97":165825.98000000001,"N_COORD97":2536488.4300000002,"ADDRESS":"灣裡路８８巷１６２號之４","OBJECTID":368310},"geometry":{"x":165825.98000000138,"y":2536488.4300000016}},{"attributes":{"ID":368321,"DIS_CODE":0,"TOWNNAME":"南區","LI":"永寧里","LIN":"12鄰","STREET":"灣裡路","SECT":" ","MAREA":" ","LANE":"８８巷","ALLEY":" ","HOUSE_NO":"１６２號之５","E_COORD97":165828.73000000001,"N_COORD97":2536478.96,"ADDRESS":"灣裡路８８巷１６２號之５","OBJECTID":368311},"geometry":{"x":165828.73000000231,"y":2536478.9600000028}},{"attributes":{"ID":368322,"DIS_CODE":0,"TOWNNAME":"南區","LI":"永寧里","LIN":"12鄰","STREET":"灣裡路","SECT":" ","MAREA":" ","LANE":"８８巷","ALLEY":" ","HOUSE_NO":"１６３號","E_COORD97":165886.88,"N_COORD97":2536459.6200000001,"ADDRESS":"灣裡路８８巷１６３號","OBJECTID":368312},"geometry":{"x":165886.88000000082,"y":2536459.620000001}},{"attributes":{"ID":368323,"DIS_CODE":0,"TOWNNAME":"南區","LI":"永寧里","LIN":"12鄰","STREET":"灣裡路","SECT":" ","MAREA":" ","LANE":"８８巷","ALLEY":" ","HOUSE_NO":"１６４號","E_COORD97":165865.19,"N_COORD97":2536467.1899999999,"ADDRESS":"灣裡路８８巷１６４號","OBJECTID":368313},"geometry":{"x":165865.19000000134,"y":2536467.1899999995}},{"attributes":{"ID":368324,"DIS_CODE":0,"TOWNNAME":"南區","LI":"永寧里","LIN":"12鄰","STREET":"灣裡路","SECT":" ","MAREA":" ","LANE":"８８巷","ALLEY":" ","HOUSE_NO":"１６５號","E_COORD97":165880.44,"N_COORD97":2536465.7200000002,"ADDRESS":"灣裡路８８巷１６５號","OBJECTID":368314},"geometry":{"x":165880.44000000134,"y":2536465.7200000007}},{"attributes":{"ID":368325,"DIS_CODE":0,"TOWNNAME":"南區","LI":"永寧里","LIN":"12鄰","STREET":"灣裡路","SECT":" ","MAREA":" ","LANE":"８８巷","ALLEY":" ","HOUSE_NO":"１６６之２號","E_COORD97":165857.28,"N_COORD97":2536440.8399999999,"ADDRESS":"灣裡路８８巷１６６之２號","OBJECTID":368315},"geometry":{"x":165857.28000000119,"y":2536440.8400000036}},{"attributes":{"ID":368326,"DIS_CODE":0,"TOWNNAME":"南區","LI":"永寧里","LIN":"12鄰","STREET":"灣裡路","SECT":" ","MAREA":" ","LANE":"８８巷","ALLEY":" ","HOUSE_NO":"１６６之８號","E_COORD97":165852.17999999999,"N_COORD97":2536449.1499999999,"ADDRESS":"灣裡路８８巷１６６之８號","OBJECTID":368316},"geometry":{"x":165852.18000000156,"y":2536449.1500000004}},{"attributes":{"ID":368327,"DIS_CODE":0,"TOWNNAME":"南區","LI":"永寧里","LIN":"12鄰","STREET":"灣裡路","SECT":" ","MAREA":" ","LANE":"８８巷","ALLEY":" ","HOUSE_NO":"１６６號","E_COORD97":165867.67000000001,"N_COORD97":2536438.02,"ADDRESS":"灣裡路８８巷１６６號","OBJECTID":368317},"geometry":{"x":165867.67000000179,"y":2536438.0199999996}},{"attributes":{"ID":368328,"DIS_CODE":0,"TOWNNAME":"南區","LI":"永寧里","LIN":"12鄰","STREET":"灣裡路","SECT":" ","MAREA":" ","LANE":"８８巷","ALLEY":" ","HOUSE_NO":"１６６號之１","E_COORD97":165861.95999999999,"N_COORD97":2536438.8500000001,"ADDRESS":"灣裡路８８巷１６６號之１","OBJECTID":368318},"geometry":{"x":165861.95999999996,"y":2536438.8500000015}},{"attributes":{"ID":368329,"DIS_CODE":0,"TOWNNAME":"南區","LI":"永寧里","LIN":"12鄰","STREET":"灣裡路","SECT":" ","MAREA":" ","LANE":"８８巷","ALLEY":" ","HOUSE_NO":"１６６號之６","E_COORD97":165862.07000000001,"N_COORD97":2536444.3399999999,"ADDRESS":"灣裡路８８巷１６６號之６","OBJECTID":368319},"geometry":{"x":165862.07000000123,"y":2536444.3400000036}},{"attributes":{"ID":368330,"DIS_CODE":0,"TOWNNAME":"南區","LI":"永寧里","LIN":"12鄰","STREET":"灣裡路","SECT":" ","MAREA":" ","LANE":"８８巷","ALLEY":" ","HOUSE_NO":"１６６號之９","E_COORD97":165863.20000000001,"N_COORD97":2536455.6400000001,"ADDRESS":"灣裡路８８巷１６６號之９","OBJECTID":368320},"geometry":{"x":165863.20000000112,"y":2536455.6400000006}},{"attributes":{"ID":368331,"DIS_CODE":0,"TOWNNAME":"南區","LI":"永寧里","LIN":"12鄰","STREET":"灣裡路","SECT":" ","MAREA":" ","LANE":"８８巷","ALLEY":" ","HOUSE_NO":"１６７號","E_COORD97":165898.79000000001,"N_COORD97":2536496.6899999999,"ADDRESS":"灣裡路８８巷１６７號","OBJECTID":368321},"geometry":{"x":165898.79000000004,"y":2536496.6900000013}},{"attributes":{"ID":368332,"DIS_CODE":0,"TOWNNAME":"南區","LI":"永寧里","LIN":"12鄰","STREET":"灣裡路","SECT":" ","MAREA":" ","LANE":"８８巷","ALLEY":" ","HOUSE_NO":"１６９號","E_COORD97":165906.22,"N_COORD97":2536468.2999999998,"ADDRESS":"灣裡路８８巷１６９號","OBJECTID":368322},"geometry":{"x":165906.22000000067,"y":2536468.3000000007}},{"attributes":{"ID":368333,"DIS_CODE":0,"TOWNNAME":"南區","LI":"永寧里","LIN":"12鄰","STREET":"灣裡路","SECT":" ","MAREA":" ","LANE":"８８巷","ALLEY":" ","HOUSE_NO":"１７１號","E_COORD97":165911.88,"N_COORD97":2536463.3300000001,"ADDRESS":"灣裡路８８巷１７１號","OBJECTID":368323},"geometry":{"x":165911.88000000175,"y":2536463.3300000001}},{"attributes":{"ID":368334,"DIS_CODE":0,"TOWNNAME":"南區","LI":"永寧里","LIN":"12鄰","STREET":"灣裡路","SECT":" ","MAREA":" ","LANE":"８８巷","ALLEY":" ","HOUSE_NO":"１７３號","E_COORD97":165917.09,"N_COORD97":2536460.8399999999,"ADDRESS":"灣裡路８８巷１７３號","OBJECTID":368324},"geometry":{"x":165917.08999999985,"y":2536460.8399999999}},{"attributes":{"ID":368335,"DIS_CODE":0,"TOWNNAME":"南區","LI":"永寧里","LIN":"12鄰","STREET":"灣裡路","SECT":" ","MAREA":" ","LANE":"８８巷","ALLEY":" ","HOUSE_NO":"１７５號","E_COORD97":165902.67999999999,"N_COORD97":2536520.25,"ADDRESS":"灣裡路８８巷１７５號","OBJECTID":368325},"geometry":{"x":165902.6799999997,"y":2536520.2500000019}},{"attributes":{"ID":368336,"DIS_CODE":0,"TOWNNAME":"南區","LI":"永寧里","LIN":"12鄰","STREET":"灣裡路","SECT":" ","MAREA":" ","LANE":"８８巷","ALLEY":" ","HOUSE_NO":"１７５號之２","E_COORD97":165900.89000000001,"N_COORD97":2536525.6200000001,"ADDRESS":"灣裡路８８巷１７５號之２","OBJECTID":368326},"geometry":{"x":165900.88999999966,"y":2536525.6200000029}},{"attributes":{"ID":368337,"DIS_CODE":0,"TOWNNAME":"南區","LI":"永寧里","LIN":"12鄰","STREET":"灣裡路","SECT":" ","MAREA":" ","LANE":"８８巷","ALLEY":" ","HOUSE_NO":"１７６號","E_COORD97":165632.88,"N_COORD97":2536422.7999999998,"ADDRESS":"灣裡路８８巷１７６號","OBJECTID":368327},"geometry":{"x":165632.88000000082,"y":2536422.8000000026}},{"attributes":{"ID":368338,"DIS_CODE":0,"TOWNNAME":"南區","LI":"永寧里","LIN":"12鄰","STREET":"灣裡路","SECT":" ","MAREA":" ","LANE":"８８巷","ALLEY":" ","HOUSE_NO":"１７６號之１","E_COORD97":165648.5,"N_COORD97":2536448.98,"ADDRESS":"灣裡路８８巷１７６號之１","OBJECTID":368328},"geometry":{"x":165648.50000000186,"y":2536448.9800000023}},{"attributes":{"ID":368339,"DIS_CODE":0,"TOWNNAME":"南區","LI":"永寧里","LIN":"12鄰","STREET":"灣裡路","SECT":" ","MAREA":" ","LANE":"８８巷","ALLEY":" ","HOUSE_NO":"１７７之１號","E_COORD97":165711.64000000001,"N_COORD97":2536522.4700000002,"ADDRESS":"灣裡路８８巷１７７之１號","OBJECTID":368329},"geometry":{"x":165711.64000000153,"y":2536522.4700000044}},{"attributes":{"ID":368340,"DIS_CODE":0,"TOWNNAME":"東區","LI":"和平里","LIN":"1鄰","STREET":"文化一街","SECT":" ","MAREA":" ","LANE":" ","ALLEY":" ","HOUSE_NO":"２號六樓","E_COORD97":171099.45000000001,"N_COORD97":2542097.2200000002,"ADDRESS":"文化一街２號六樓","OBJECTID":368330},"geometry":{"x":171099.45000000112,"y":2542097.2200000007}},{"attributes":{"ID":368341,"DIS_CODE":0,"TOWNNAME":"南區","LI":"永寧里","LIN":"12鄰","STREET":"灣裡路","SECT":" ","MAREA":" ","LANE":"８８巷","ALLEY":" ","HOUSE_NO":"１７７號","E_COORD97":165899.72,"N_COORD97":2536501.2000000002,"ADDRESS":"灣裡路８８巷１７７號","OBJECTID":368331},"geometry":{"x":165899.72000000067,"y":2536501.1999999993}},{"attributes":{"ID":368342,"DIS_CODE":0,"TOWNNAME":"南區","LI":"永寧里","LIN":"12鄰","STREET":"灣裡路","SECT":" ","MAREA":" ","LANE":"８８巷","ALLEY":" ","HOUSE_NO":"１７８號","E_COORD97":165625.07000000001,"N_COORD97":2536425.0299999998,"ADDRESS":"灣裡路８８巷１７８號","OBJECTID":368332},"geometry":{"x":165625.07000000123,"y":2536425.0299999993}},{"attributes":{"ID":368343,"DIS_CODE":0,"TOWNNAME":"南區","LI":"永寧里","LIN":"12鄰","STREET":"灣裡路","SECT":" ","MAREA":" ","LANE":"８８巷","ALLEY":" ","HOUSE_NO":"１８０號","E_COORD97":165633.98999999999,"N_COORD97":2536434.23,"ADDRESS":"灣裡路８８巷１８０號","OBJECTID":368333},"geometry":{"x":165633.99000000115,"y":2536434.2300000004}},{"attributes":{"ID":368344,"DIS_CODE":0,"TOWNNAME":"南區","LI":"永寧里","LIN":"12鄰","STREET":"灣裡路","SECT":" ","MAREA":" ","LANE":"８８巷","ALLEY":" ","HOUSE_NO":"１８２號","E_COORD97":165625.16,"N_COORD97":2536435.6899999999,"ADDRESS":"灣裡路８８巷１８２號","OBJECTID":368334},"geometry":{"x":165625.16000000015,"y":2536435.6900000013}},{"attributes":{"ID":368345,"DIS_CODE":0,"TOWNNAME":"南區","LI":"永寧里","LIN":"12鄰","STREET":"灣裡路","SECT":" ","MAREA":" ","LANE":"８８巷","ALLEY":" ","HOUSE_NO":"１８４之６號","E_COORD97":165640.97,"N_COORD97":2536462.0800000001,"ADDRESS":"灣裡路８８巷１８４之６號","OBJECTID":368335},"geometry":{"x":165640.96999999974,"y":2536462.0800000001}},{"attributes":{"ID":368346,"DIS_CODE":0,"TOWNNAME":"南區","LI":"永寧里","LIN":"12鄰","STREET":"灣裡路","SECT":" ","MAREA":" ","LANE":"８８巷","ALLEY":" ","HOUSE_NO":"１８４號","E_COORD97":165594.04000000001,"N_COORD97":2536427.79,"ADDRESS":"灣裡路８８巷１８４號","OBJECTID":368336},"geometry":{"x":165594.0400000019,"y":2536427.790000001}},{"attributes":{"ID":368347,"DIS_CODE":0,"TOWNNAME":"南區","LI":"永寧里","LIN":"12鄰","STREET":"灣裡路","SECT":" ","MAREA":" ","LANE":"８８巷","ALLEY":" ","HOUSE_NO":"１８４號之１","E_COORD97":165633.98999999999,"N_COORD97":2536462.3599999999,"ADDRESS":"灣裡路８８巷１８４號之１","OBJECTID":368337},"geometry":{"x":165633.99000000115,"y":2536462.3599999994}},{"attributes":{"ID":368348,"DIS_CODE":0,"TOWNNAME":"南區","LI":"永寧里","LIN":"12鄰","STREET":"灣裡路","SECT":" ","MAREA":" ","LANE":"８８巷","ALLEY":" ","HOUSE_NO":"１８５號","E_COORD97":165921.39999999999,"N_COORD97":2536508.5099999998,"ADDRESS":"灣裡路８８巷１８５號","OBJECTID":368338},"geometry":{"x":165921.4000000013,"y":2536508.5100000016}},{"attributes":{"ID":368349,"DIS_CODE":0,"TOWNNAME":"南區","LI":"永寧里","LIN":"12鄰","STREET":"灣裡路","SECT":" ","MAREA":" ","LANE":"８８巷","ALLEY":" ","HOUSE_NO":"１８６號","E_COORD97":165587.63,"N_COORD97":2536419.9900000002,"ADDRESS":"灣裡路８８巷１８６號","OBJECTID":368339},"geometry":{"x":165587.62999999989,"y":2536419.9900000039}},{"attributes":{"ID":368350,"DIS_CODE":0,"TOWNNAME":"南區","LI":"永寧里","LIN":"12鄰","STREET":"灣裡路","SECT":" ","MAREA":" ","LANE":"８８巷","ALLEY":" ","HOUSE_NO":"１８７號","E_COORD97":165926.76000000001,"N_COORD97":2536504.5,"ADDRESS":"灣裡路８８巷１８７號","OBJECTID":368340},"geometry":{"x":165926.76000000071,"y":2536504.5000000037}},{"attributes":{"ID":368351,"DIS_CODE":0,"TOWNNAME":"南區","LI":"永寧里","LIN":"12鄰","STREET":"灣裡路","SECT":" ","MAREA":" ","LANE":"８８巷","ALLEY":" ","HOUSE_NO":"１８８號","E_COORD97":165589.01999999999,"N_COORD97":2536408.5600000001,"ADDRESS":"灣裡路８８巷１８８號","OBJECTID":368341},"geometry":{"x":165589.02000000048,"y":2536408.5600000005}},{"attributes":{"ID":368352,"DIS_CODE":0,"TOWNNAME":"南區","LI":"永寧里","LIN":"12鄰","STREET":"灣裡路","SECT":" ","MAREA":" ","LANE":"８８巷","ALLEY":" ","HOUSE_NO":"１９０號","E_COORD97":165612.23000000001,"N_COORD97":2536421.7200000002,"ADDRESS":"灣裡路８８巷１９０號","OBJECTID":368342},"geometry":{"x":165612.23000000138,"y":2536421.7200000007}},{"attributes":{"ID":368353,"DIS_CODE":0,"TOWNNAME":"南區","LI":"永寧里","LIN":"12鄰","STREET":"灣裡路","SECT":" ","MAREA":" ","LANE":"８８巷","ALLEY":" ","HOUSE_NO":"１９２號","E_COORD97":165608.20000000001,"N_COORD97":2536404.6699999999,"ADDRESS":"灣裡路８８巷１９２號","OBJECTID":368343},"geometry":{"x":165608.19999999925,"y":2536404.6699999981}},{"attributes":{"ID":368354,"DIS_CODE":0,"TOWNNAME":"南區","LI":"永寧里","LIN":"12鄰","STREET":"灣裡路","SECT":" ","MAREA":" ","LANE":"８８巷","ALLEY":" ","HOUSE_NO":"１９４號","E_COORD97":165618.41,"N_COORD97":2536402.1800000002,"ADDRESS":"灣裡路８８巷１９４號","OBJECTID":368344},"geometry":{"x":165618.41000000015,"y":2536402.1800000016}},{"attributes":{"ID":368355,"DIS_CODE":0,"TOWNNAME":"南區","LI":"永寧里","LIN":"12鄰","STREET":"灣裡路","SECT":" ","MAREA":" ","LANE":"８８巷","ALLEY":" ","HOUSE_NO":"１９６號","E_COORD97":165618.10000000001,"N_COORD97":2536395.3599999999,"ADDRESS":"灣裡路８８巷１９６號","OBJECTID":368345},"geometry":{"x":165618.09999999963,"y":2536395.3599999994}},{"attributes":{"ID":368356,"DIS_CODE":0,"TOWNNAME":"南區","LI":"永寧里","LIN":"12鄰","STREET":"灣裡路","SECT":" ","MAREA":" ","LANE":"８８巷","ALLEY":" ","HOUSE_NO":"１９８號","E_COORD97":165617.31,"N_COORD97":2536376.8599999999,"ADDRESS":"灣裡路８８巷１９８號","OBJECTID":368346},"geometry":{"x":165617.31000000052,"y":2536376.8600000013}},{"attributes":{"ID":368357,"DIS_CODE":0,"TOWNNAME":"南區","LI":"永寧里","LIN":"12鄰","STREET":"灣裡路","SECT":" ","MAREA":" ","LANE":"８８巷","ALLEY":" ","HOUSE_NO":"２００號","E_COORD97":165608.45000000001,"N_COORD97":2536373.4900000002,"ADDRESS":"灣裡路８８巷２００號","OBJECTID":368347},"geometry":{"x":165608.45000000205,"y":2536373.4900000021}},{"attributes":{"ID":368358,"DIS_CODE":0,"TOWNNAME":"南區","LI":"永寧里","LIN":"12鄰","STREET":"灣裡路","SECT":" ","MAREA":" ","LANE":"８８巷","ALLEY":" ","HOUSE_NO":"２０２號","E_COORD97":165611.39999999999,"N_COORD97":2536367.3199999998,"ADDRESS":"灣裡路８８巷２０２號","OBJECTID":368348},"geometry":{"x":165611.4000000013,"y":2536367.3200000022}},{"attributes":{"ID":368359,"DIS_CODE":0,"TOWNNAME":"南區","LI":"永寧里","LIN":"12鄰","STREET":"灣裡路","SECT":" ","MAREA":" ","LANE":"８８巷","ALLEY":" ","HOUSE_NO":"２０４號","E_COORD97":165607.04000000001,"N_COORD97":2536365.0699999998,"ADDRESS":"灣裡路８８巷２０４號","OBJECTID":368349},"geometry":{"x":165607.04000000004,"y":2536365.0699999984}},{"attributes":{"ID":368360,"DIS_CODE":0,"TOWNNAME":"南區","LI":"永寧里","LIN":"12鄰","STREET":"灣裡路","SECT":" ","MAREA":" ","LANE":"８８巷","ALLEY":" ","HOUSE_NO":"２０６號","E_COORD97":165595.82999999999,"N_COORD97":2536352.71,"ADDRESS":"灣裡路８８巷２０６號","OBJECTID":368350},"geometry":{"x":165595.83000000101,"y":2536352.7100000028}},{"attributes":{"ID":368361,"DIS_CODE":0,"TOWNNAME":"南區","LI":"永寧里","LIN":"12鄰","STREET":"灣裡路","SECT":" ","MAREA":" ","LANE":"８８巷","ALLEY":" ","HOUSE_NO":"２０８號","E_COORD97":165597.12,"N_COORD97":2536356.5,"ADDRESS":"灣裡路８８巷２０８號","OBJECTID":368351},"geometry":{"x":165597.12000000104,"y":2536356.5000000019}},{"attributes":{"ID":368362,"DIS_CODE":0,"TOWNNAME":"南區","LI":"永寧里","LIN":"12鄰","STREET":"灣裡路","SECT":" ","MAREA":" ","LANE":"８８巷","ALLEY":" ","HOUSE_NO":"２１０號","E_COORD97":165571.31,"N_COORD97":2536332.2799999998,"ADDRESS":"灣裡路８８巷２１０號","OBJECTID":368352},"geometry":{"x":165571.31000000145,"y":2536332.2800000031}},{"attributes":{"ID":368363,"DIS_CODE":0,"TOWNNAME":"南區","LI":"永寧里","LIN":"12鄰","STREET":"灣裡路","SECT":" ","MAREA":" ","LANE":"８８巷","ALLEY":" ","HOUSE_NO":"２１０號之１","E_COORD97":165573.98999999999,"N_COORD97":2536350.8199999998,"ADDRESS":"灣裡路８８巷２１０號之１","OBJECTID":368353},"geometry":{"x":165573.99000000022,"y":2536350.8200000022}},{"attributes":{"ID":368364,"DIS_CODE":0,"TOWNNAME":"南區","LI":"永寧里","LIN":"12鄰","STREET":"灣裡路","SECT":" ","MAREA":" ","LANE":"８８巷","ALLEY":" ","HOUSE_NO":"２１０號之２","E_COORD97":165569.95999999999,"N_COORD97":2536325.8100000001,"ADDRESS":"灣裡路８８巷２１０號之２","OBJECTID":368354},"geometry":{"x":165569.95999999996,"y":2536325.8100000005}},{"attributes":{"ID":368365,"DIS_CODE":0,"TOWNNAME":"南區","LI":"永寧里","LIN":"12鄰","STREET":"灣裡路","SECT":" ","MAREA":" ","LANE":"８８巷","ALLEY":" ","HOUSE_NO":"２１２號","E_COORD97":165595.70000000001,"N_COORD97":2536346.25,"ADDRESS":"灣裡路８８巷２１２號","OBJECTID":368355},"geometry":{"x":165595.70000000019,"y":2536346.25}},{"attributes":{"ID":368366,"DIS_CODE":0,"TOWNNAME":"南區","LI":"永寧里","LIN":"12鄰","STREET":"灣裡路","SECT":" ","MAREA":" ","LANE":"８８巷","ALLEY":" ","HOUSE_NO":"２１２號之１","E_COORD97":165596.01000000001,"N_COORD97":2536343.5800000001,"ADDRESS":"灣裡路８８巷２１２號之１","OBJECTID":368356},"geometry":{"x":165596.01000000071,"y":2536343.5800000001}},{"attributes":{"ID":368367,"DIS_CODE":0,"TOWNNAME":"南區","LI":"永寧里","LIN":"12鄰","STREET":"灣裡路","SECT":" ","MAREA":" ","LANE":"８８巷","ALLEY":" ","HOUSE_NO":"２１４號","E_COORD97":165609.22,"N_COORD97":2536346.71,"ADDRESS":"灣裡路８８巷２１４號","OBJECTID":368357},"geometry":{"x":165609.21999999974,"y":2536346.7100000009}},{"attributes":{"ID":368368,"DIS_CODE":0,"TOWNNAME":"南區","LI":"永寧里","LIN":"12鄰","STREET":"灣裡路","SECT":" ","MAREA":" ","LANE":"８８巷","ALLEY":" ","HOUSE_NO":"２３２號之２","E_COORD97":165596.16,"N_COORD97":2536273.6000000001,"ADDRESS":"灣裡路８８巷２３２號之２","OBJECTID":368358},"geometry":{"x":165596.16000000015,"y":2536273.6000000015}},{"attributes":{"ID":368369,"DIS_CODE":0,"TOWNNAME":"南區","LI":"永寧里","LIN":"12鄰","STREET":"灣裡路","SECT":" ","MAREA":" ","LANE":"８８巷","ALLEY":" ","HOUSE_NO":"２３４號","E_COORD97":165573.07000000001,"N_COORD97":2536306.71,"ADDRESS":"灣裡路８８巷２３４號","OBJECTID":368359},"geometry":{"x":165573.0700000003,"y":2536306.7100000009}},{"attributes":{"ID":368370,"DIS_CODE":0,"TOWNNAME":"六甲區","LI":"七甲里","LIN":"12鄰","STREET":"七甲街","SECT":" ","MAREA":" ","LANE":"５１巷","ALLEY":" ","HOUSE_NO":"１０號","E_COORD97":183147.82999999999,"N_COORD97":2568946.1899999999,"ADDRESS":"七甲街５１巷１０號","OBJECTID":368360},"geometry":{"x":183147.83000000101,"y":2568946.1900000013}},{"attributes":{"ID":368371,"DIS_CODE":0,"TOWNNAME":"六甲區","LI":"七甲里","LIN":"12鄰","STREET":"七甲街","SECT":" ","MAREA":" ","LANE":"５１巷","ALLEY":" ","HOUSE_NO":"１１號","E_COORD97":183174.09,"N_COORD97":2568949.3300000001,"ADDRESS":"七甲街５１巷１１號","OBJECTID":368361},"geometry":{"x":183174.08999999985,"y":2568949.3300000019}},{"attributes":{"ID":368372,"DIS_CODE":0,"TOWNNAME":"六甲區","LI":"七甲里","LIN":"12鄰","STREET":"七甲街","SECT":" ","MAREA":" ","LANE":"５１巷","ALLEY":" ","HOUSE_NO":"１３號","E_COORD97":183173.42999999999,"N_COORD97":2568945.4100000001,"ADDRESS":"七甲街５１巷１３號","OBJECTID":368362},"geometry":{"x":183173.42999999877,"y":2568945.410000002}},{"attributes":{"ID":368373,"DIS_CODE":0,"TOWNNAME":"六甲區","LI":"七甲里","LIN":"12鄰","STREET":"七甲街","SECT":" ","MAREA":" ","LANE":"５１巷","ALLEY":" ","HOUSE_NO":"１４號","E_COORD97":183130.64000000001,"N_COORD97":2568935.0899999999,"ADDRESS":"七甲街５１巷１４號","OBJECTID":368363},"geometry":{"x":183130.63999999966,"y":2568935.0899999999}},{"attributes":{"ID":368374,"DIS_CODE":0,"TOWNNAME":"六甲區","LI":"七甲里","LIN":"12鄰","STREET":"七甲街","SECT":" ","MAREA":" ","LANE":"５１巷","ALLEY":" ","HOUSE_NO":"１５號","E_COORD97":183171.20000000001,"N_COORD97":2568941.29,"ADDRESS":"七甲街５１巷１５號","OBJECTID":368364},"geometry":{"x":183171.20000000112,"y":2568941.290000001}},{"attributes":{"ID":368375,"DIS_CODE":0,"TOWNNAME":"六甲區","LI":"七甲里","LIN":"12鄰","STREET":"七甲街","SECT":" ","MAREA":" ","LANE":"５１巷","ALLEY":" ","HOUSE_NO":"１６號","E_COORD97":183130.07000000001,"N_COORD97":2568930.3199999998,"ADDRESS":"七甲街５１巷１６號","OBJECTID":368365},"geometry":{"x":183130.0700000003,"y":2568930.3200000003}},{"attributes":{"ID":368376,"DIS_CODE":0,"TOWNNAME":"六甲區","LI":"七甲里","LIN":"12鄰","STREET":"七甲街","SECT":" ","MAREA":" ","LANE":"５１巷","ALLEY":" ","HOUSE_NO":"１號","E_COORD97":183180.01000000001,"N_COORD97":2568975.6000000001,"ADDRESS":"七甲街５１巷１號","OBJECTID":368366},"geometry":{"x":183180.01000000071,"y":2568975.5999999996}},{"attributes":{"ID":368377,"DIS_CODE":0,"TOWNNAME":"六甲區","LI":"七甲里","LIN":"12鄰","STREET":"七甲街","SECT":" ","MAREA":" ","LANE":"５１巷","ALLEY":" ","HOUSE_NO":"２３號","E_COORD97":183182.92000000001,"N_COORD97":2568932.25,"ADDRESS":"七甲街５１巷２３號","OBJECTID":368367},"geometry":{"x":183182.92000000086,"y":2568932.2500000019}},{"attributes":{"ID":368378,"DIS_CODE":0,"TOWNNAME":"六甲區","LI":"七甲里","LIN":"12鄰","STREET":"七甲街","SECT":" ","MAREA":" ","LANE":"５１巷","ALLEY":" ","HOUSE_NO":"２５號","E_COORD97":183174.03,"N_COORD97":2568919.9900000002,"ADDRESS":"七甲街５１巷２５號","OBJECTID":368368},"geometry":{"x":183174.03000000119,"y":2568919.9900000039}},{"attributes":{"ID":368379,"DIS_CODE":0,"TOWNNAME":"六甲區","LI":"七甲里","LIN":"12鄰","STREET":"七甲街","SECT":" ","MAREA":" ","LANE":"５１巷","ALLEY":" ","HOUSE_NO":"２８之１２號","E_COORD97":183128.17000000001,"N_COORD97":2568848.0800000001,"ADDRESS":"七甲街５１巷２８之１２號","OBJECTID":368369},"geometry":{"x":183128.17000000179,"y":2568848.0800000038}},{"attributes":{"ID":368380,"DIS_CODE":0,"TOWNNAME":"六甲區","LI":"七甲里","LIN":"12鄰","STREET":"七甲街","SECT":" ","MAREA":" ","LANE":"５１巷","ALLEY":" ","HOUSE_NO":"２８號之５","E_COORD97":183119.85999999999,"N_COORD97":2568859.8999999999,"ADDRESS":"七甲街５１巷２８號之５","OBJECTID":368370},"geometry":{"x":183119.86000000034,"y":2568859.9000000041}},{"attributes":{"ID":368381,"DIS_CODE":0,"TOWNNAME":"六甲區","LI":"七甲里","LIN":"12鄰","STREET":"七甲街","SECT":" ","MAREA":" ","LANE":"５１巷","ALLEY":" ","HOUSE_NO":"２８號之６","E_COORD97":183114.98000000001,"N_COORD97":2568860.9100000001,"ADDRESS":"七甲街５１巷２８號之６","OBJECTID":368371},"geometry":{"x":183114.98000000138,"y":2568860.910000002}},{"attributes":{"ID":368382,"DIS_CODE":0,"TOWNNAME":"六甲區","LI":"七甲里","LIN":"12鄰","STREET":"七甲街","SECT":" ","MAREA":" ","LANE":"５１巷","ALLEY":" ","HOUSE_NO":"２８號之７","E_COORD97":183110.39000000001,"N_COORD97":2568861.9100000001,"ADDRESS":"七甲街５１巷２８號之７","OBJECTID":368372},"geometry":{"x":183110.38999999966,"y":2568861.9100000001}},{"attributes":{"ID":368383,"DIS_CODE":0,"TOWNNAME":"六甲區","LI":"七甲里","LIN":"12鄰","STREET":"七甲街","SECT":" ","MAREA":" ","LANE":"５１巷","ALLEY":" ","HOUSE_NO":"２８號之８","E_COORD97":183105.79999999999,"N_COORD97":2568862.9100000001,"ADDRESS":"七甲街５１巷２８號之８","OBJECTID":368373},"geometry":{"x":183105.80000000075,"y":2568862.9100000039}},{"attributes":{"ID":368384,"DIS_CODE":0,"TOWNNAME":"六甲區","LI":"七甲里","LIN":"12鄰","STREET":"七甲街","SECT":" ","MAREA":" ","LANE":"５１巷","ALLEY":" ","HOUSE_NO":"２號","E_COORD97":183155.98000000001,"N_COORD97":2568985.48,"ADDRESS":"七甲街５１巷２號","OBJECTID":368374},"geometry":{"x":183155.98000000138,"y":2568985.4800000023}},{"attributes":{"ID":368385,"DIS_CODE":0,"TOWNNAME":"六甲區","LI":"七甲里","LIN":"12鄰","STREET":"七甲街","SECT":" ","MAREA":" ","LANE":"５１巷","ALLEY":" ","HOUSE_NO":"３０號","E_COORD97":183124.51999999999,"N_COORD97":2568841.8599999999,"ADDRESS":"七甲街５１巷３０號","OBJECTID":368375},"geometry":{"x":183124.51999999955,"y":2568841.8599999994}},{"attributes":{"ID":368386,"DIS_CODE":0,"TOWNNAME":"六甲區","LI":"七甲里","LIN":"12鄰","STREET":"七甲街","SECT":" ","MAREA":" ","LANE":"５１巷","ALLEY":" ","HOUSE_NO":"３２號","E_COORD97":183103.70999999999,"N_COORD97":2568845.54,"ADDRESS":"七甲街５１巷３２號","OBJECTID":368376},"geometry":{"x":183103.70999999996,"y":2568845.540000001}},{"attributes":{"ID":368387,"DIS_CODE":0,"TOWNNAME":"六甲區","LI":"七甲里","LIN":"12鄰","STREET":"七甲街","SECT":" ","MAREA":" ","LANE":"５１巷","ALLEY":" ","HOUSE_NO":"３５號","E_COORD97":183165.89999999999,"N_COORD97":2568894.3300000001,"ADDRESS":"七甲街５１巷３５號","OBJECTID":368377},"geometry":{"x":183165.90000000224,"y":2568894.3300000019}},{"attributes":{"ID":368388,"DIS_CODE":0,"TOWNNAME":"北區","LI":"小康里","LIN":"12鄰","STREET":"大武街","SECT":" ","MAREA":" ","LANE":"２２１巷","ALLEY":" ","HOUSE_NO":"７號","E_COORD97":169603.14999999999,"N_COORD97":2546136.9100000001,"ADDRESS":"大武街２２１巷７號","OBJECTID":368378},"geometry":{"x":169603.1500000013,"y":2546136.9100000001}},{"attributes":{"ID":368389,"DIS_CODE":0,"TOWNNAME":"六甲區","LI":"七甲里","LIN":"12鄰","STREET":"七甲街","SECT":" ","MAREA":" ","LANE":"５１巷","ALLEY":" ","HOUSE_NO":"３７號","E_COORD97":183165.39999999999,"N_COORD97":2568890.1099999999,"ADDRESS":"七甲街５１巷３７號","OBJECTID":368379},"geometry":{"x":183165.40000000037,"y":2568890.1099999994}},{"attributes":{"ID":368390,"DIS_CODE":0,"TOWNNAME":"六甲區","LI":"七甲里","LIN":"12鄰","STREET":"七甲街","SECT":" ","MAREA":" ","LANE":"５１巷","ALLEY":" ","HOUSE_NO":"３９號","E_COORD97":183164.54000000001,"N_COORD97":2568885.6299999999,"ADDRESS":"七甲街５１巷３９號","OBJECTID":368380},"geometry":{"x":183164.53999999911,"y":2568885.629999999}},{"attributes":{"ID":368391,"DIS_CODE":0,"TOWNNAME":"六甲區","LI":"七甲里","LIN":"12鄰","STREET":"七甲街","SECT":" ","MAREA":" ","LANE":"５１巷","ALLEY":" ","HOUSE_NO":"３號之１","E_COORD97":183179.29000000001,"N_COORD97":2568965.8599999999,"ADDRESS":"七甲街５１巷３號之１","OBJECTID":368381},"geometry":{"x":183179.29000000004,"y":2568965.8600000013}},{"attributes":{"ID":368392,"DIS_CODE":0,"TOWNNAME":"六甲區","LI":"七甲里","LIN":"12鄰","STREET":"七甲街","SECT":" ","MAREA":" ","LANE":"５１巷","ALLEY":" ","HOUSE_NO":"３號","E_COORD97":183179.79000000001,"N_COORD97":2568970.3999999999,"ADDRESS":"七甲街５１巷３號","OBJECTID":368382},"geometry":{"x":183179.78999999911,"y":2568970.4000000004}},{"attributes":{"ID":368393,"DIS_CODE":0,"TOWNNAME":"六甲區","LI":"七甲里","LIN":"12鄰","STREET":"七甲街","SECT":" ","MAREA":" ","LANE":"５１巷","ALLEY":" ","HOUSE_NO":"４１號","E_COORD97":183163.97,"N_COORD97":2568882.02,"ADDRESS":"七甲街５１巷４１號","OBJECTID":368383},"geometry":{"x":183163.96999999974,"y":2568882.0200000033}},{"attributes":{"ID":368394,"DIS_CODE":0,"TOWNNAME":"六甲區","LI":"七甲里","LIN":"12鄰","STREET":"七甲街","SECT":" ","MAREA":" ","LANE":"５１巷","ALLEY":" ","HOUSE_NO":"４５號","E_COORD97":183175.13,"N_COORD97":2568857.6099999999,"ADDRESS":"七甲街５１巷４５號","OBJECTID":368384},"geometry":{"x":183175.12999999989,"y":2568857.6100000031}},{"attributes":{"ID":368395,"DIS_CODE":0,"TOWNNAME":"六甲區","LI":"七甲里","LIN":"12鄰","STREET":"七甲街","SECT":" ","MAREA":" ","LANE":"５１巷","ALLEY":" ","HOUSE_NO":"４７號","E_COORD97":183156.76000000001,"N_COORD97":2568859.4199999999,"ADDRESS":"七甲街５１巷４７號","OBJECTID":368385},"geometry":{"x":183156.76000000071,"y":2568859.4200000037}},{"attributes":{"ID":368396,"DIS_CODE":0,"TOWNNAME":"六甲區","LI":"七甲里","LIN":"12鄰","STREET":"七甲街","SECT":" ","MAREA":" ","LANE":"５１巷","ALLEY":" ","HOUSE_NO":"４９之１號","E_COORD97":183169.94,"N_COORD97":2568843.5600000001,"ADDRESS":"七甲街５１巷４９之１號","OBJECTID":368386},"geometry":{"x":183169.94000000134,"y":2568843.5600000024}},{"attributes":{"ID":368397,"DIS_CODE":0,"TOWNNAME":"六甲區","LI":"七甲里","LIN":"12鄰","STREET":"七甲街","SECT":" ","MAREA":" ","LANE":"５１巷","ALLEY":" ","HOUSE_NO":"４９之７號","E_COORD97":183123.45999999999,"N_COORD97":2568663.0499999998,"ADDRESS":"七甲街５１巷４９之７號","OBJECTID":368387},"geometry":{"x":183123.46000000089,"y":2568663.0500000026}},{"attributes":{"ID":368398,"DIS_CODE":0,"TOWNNAME":"六甲區","LI":"七甲里","LIN":"12鄰","STREET":"七甲街","SECT":" ","MAREA":" ","LANE":"５１巷","ALLEY":" ","HOUSE_NO":"４９號","E_COORD97":183155.34,"N_COORD97":2568839.2200000002,"ADDRESS":"七甲街５１巷４９號","OBJECTID":368388},"geometry":{"x":183155.33999999985,"y":2568839.2200000025}},{"attributes":{"ID":368399,"DIS_CODE":0,"TOWNNAME":"六甲區","LI":"七甲里","LIN":"12鄰","STREET":"七甲街","SECT":" ","MAREA":" ","LANE":"６１巷","ALLEY":" ","HOUSE_NO":"１號","E_COORD97":183119.39000000001,"N_COORD97":2568959.7599999998,"ADDRESS":"七甲街６１巷１號","OBJECTID":368389},"geometry":{"x":183119.38999999873,"y":2568959.7600000016}},{"attributes":{"ID":368400,"DIS_CODE":0,"TOWNNAME":"南區","LI":"府南里","LIN":"12鄰","STREET":"永成路","SECT":"三段","MAREA":" ","LANE":"３９８巷","ALLEY":" ","HOUSE_NO":"２１號","E_COORD97":167587.73999999999,"N_COORD97":2541049.7200000002,"ADDRESS":"永成路三段３９８巷２１號","OBJECTID":368390},"geometry":{"x":167587.74000000022,"y":2541049.7200000007}},{"attributes":{"ID":368401,"DIS_CODE":0,"TOWNNAME":"南區","LI":"府南里","LIN":"12鄰","STREET":"永成路","SECT":"三段","MAREA":" ","LANE":"３９８巷","ALLEY":" ","HOUSE_NO":"２３號","E_COORD97":167596.10000000001,"N_COORD97":2541050.98,"ADDRESS":"永成路三段３９８巷２３號","OBJECTID":368391},"geometry":{"x":167596.09999999963,"y":2541050.9800000004}},{"attributes":{"ID":368402,"DIS_CODE":0,"TOWNNAME":"南區","LI":"府南里","LIN":"12鄰","STREET":"永成路","SECT":"三段","MAREA":" ","LANE":"３９８巷","ALLEY":" ","HOUSE_NO":"２５號","E_COORD97":167601.06,"N_COORD97":2541052.5299999998,"ADDRESS":"永成路三段３９８巷２５號","OBJECTID":368392},"geometry":{"x":167601.06000000052,"y":2541052.5299999993}},{"attributes":{"ID":368403,"DIS_CODE":0,"TOWNNAME":"南區","LI":"府南里","LIN":"12鄰","STREET":"永成路","SECT":"三段","MAREA":" ","LANE":"３９８巷","ALLEY":" ","HOUSE_NO":"２７號","E_COORD97":167606.31,"N_COORD97":2541053.3399999999,"ADDRESS":"永成路三段３９８巷２７號","OBJECTID":368393},"geometry":{"x":167606.31000000052,"y":2541053.3400000017}},{"attributes":{"ID":368404,"DIS_CODE":0,"TOWNNAME":"北區","LI":"仁愛里","LIN":"12鄰","STREET":"長榮路","SECT":"四段","MAREA":" ","LANE":"３１巷","ALLEY":" ","HOUSE_NO":"１１號","E_COORD97":170240.44570700001,"N_COORD97":2544880.0411999999,"ADDRESS":"長榮路四段３１巷１１號","OBJECTID":368394},"geometry":{"x":170240.44570699986,"y":2544880.0411970001}},{"attributes":{"ID":368405,"DIS_CODE":0,"TOWNNAME":"東區","LI":"崇德里","LIN":"8鄰","STREET":"崇德七街","SECT":" ","MAREA":" ","LANE":"３０巷","ALLEY":" ","HOUSE_NO":"３９號","E_COORD97":170892.16,"N_COORD97":2541738.3300000001,"ADDRESS":"崇德七街３０巷３９號","OBJECTID":368395},"geometry":{"x":170892.16000000015,"y":2541738.3300000019}},{"attributes":{"ID":368406,"DIS_CODE":0,"TOWNNAME":"北區","LI":"仁愛里","LIN":"12鄰","STREET":"長榮路","SECT":"四段","MAREA":" ","LANE":"３１巷","ALLEY":" ","HOUSE_NO":"１３號","E_COORD97":170223.71403100001,"N_COORD97":2544884.0628599999,"ADDRESS":"長榮路四段３１巷１３號","OBJECTID":368396},"geometry":{"x":170223.71403100155,"y":2544884.0628619995}},{"attributes":{"ID":368407,"DIS_CODE":0,"TOWNNAME":"北區","LI":"仁愛里","LIN":"12鄰","STREET":"長榮路","SECT":"四段","MAREA":" ","LANE":"３１巷","ALLEY":" ","HOUSE_NO":"１５號","E_COORD97":170213.124362,"N_COORD97":2544886.8145300001,"ADDRESS":"長榮路四段３１巷１５號","OBJECTID":368397},"geometry":{"x":170213.1243620012,"y":2544886.8145270012}},{"attributes":{"ID":368408,"DIS_CODE":0,"TOWNNAME":"北區","LI":"仁愛里","LIN":"12鄰","STREET":"長榮路","SECT":"四段","MAREA":" ","LANE":"３１巷","ALLEY":" ","HOUSE_NO":"１７號","E_COORD97":170198.29000000001,"N_COORD97":2544890.6000000001,"ADDRESS":"長榮路四段３１巷１７號","OBJECTID":368398},"geometry":{"x":170198.29000000097,"y":2544890.5999999996}},{"attributes":{"ID":368409,"DIS_CODE":0,"TOWNNAME":"北區","LI":"仁愛里","LIN":"12鄰","STREET":"長榮路","SECT":"四段","MAREA":" ","LANE":"３１巷","ALLEY":" ","HOUSE_NO":"１９號","E_COORD97":170183.68508299999,"N_COORD97":2544892.5295199999,"ADDRESS":"長榮路四段３１巷１９號","OBJECTID":368399},"geometry":{"x":170183.68508300092,"y":2544892.5295240004}},{"attributes":{"ID":368410,"DIS_CODE":0,"TOWNNAME":"北區","LI":"仁愛里","LIN":"12鄰","STREET":"長榮路","SECT":"四段","MAREA":" ","LANE":"３１巷","ALLEY":" ","HOUSE_NO":"１號","E_COORD97":170270.09677900001,"N_COORD97":2544872.4212000002,"ADDRESS":"長榮路四段３１巷１號","OBJECTID":368400},"geometry":{"x":170270.09677900095,"y":2544872.4212010019}}]}