{"displayFieldName":"TOWNNAME","fieldAliases":{"ID":"ID","DIS_CODE":"DIS_CODE","TOWNNAME":"TOWNNAME","LI":"LI","LIN":"LIN","STREET":"STREET","SECT":"SECT","MAREA":"MAREA","LANE":"LANE","ALLEY":"ALLEY","HOUSE_NO":"HOUSE_NO","E_COORD97":"E_COORD97","N_COORD97":"N_COORD97","ADDRESS":"ADDRESS","OBJECTID":"OBJECTID"},"geometryType":"esriGeometryPoint","spatialReference":{"wkid":102443,"latestWkid":3826},"fields":[{"name":"ID","type":"esriFieldTypeDouble","alias":"ID"},{"name":"DIS_CODE","type":"esriFieldTypeInteger","alias":"DIS_CODE"},{"name":"TOWNNAME","type":"esriFieldTypeString","alias":"TOWNNAME","length":8},{"name":"LI","type":"esriFieldTypeString","alias":"LI","length":8},{"name":"LIN","type":"esriFieldTypeString","alias":"LIN","length":12},{"name":"STREET","type":"esriFieldTypeString","alias":"STREET","length":20},{"name":"SECT","type":"esriFieldTypeString","alias":"SECT","length":8},{"name":"MAREA","type":"esriFieldTypeString","alias":"MAREA","length":12},{"name":"LANE","type":"esriFieldTypeString","alias":"LANE","length":10},{"name":"ALLEY","type":"esriFieldTypeString","alias":"ALLEY","length":10},{"name":"HOUSE_NO","type":"esriFieldTypeString","alias":"HOUSE_NO","length":20},{"name":"E_COORD97","type":"esriFieldTypeDouble","alias":"E_COORD97"},{"name":"N_COORD97","type":"esriFieldTypeDouble","alias":"N_COORD97"},{"name":"ADDRESS","type":"esriFieldTypeString","alias":"ADDRESS","length":50},{"name":"OBJECTID","type":"esriFieldTypeOID","alias":"OBJECTID"}],"features":[{"attributes":{"ID":45801,"DIS_CODE":0,"TOWNNAME":"歸仁區","LI":"大潭里","LIN":"17鄰","STREET":"大潭二街","SECT":" ","MAREA":" ","LANE":" ","ALLEY":" ","HOUSE_NO":"１６號","E_COORD97":175073.39000000001,"N_COORD97":2534716.6299999999,"ADDRESS":"大潭二街１６號","OBJECTID":45801},"geometry":{"x":175073.38999999966,"y":2534716.6300000008}},{"attributes":{"ID":45802,"DIS_CODE":0,"TOWNNAME":"歸仁區","LI":"大廟里","LIN":"16鄰","STREET":"大廟六街","SECT":" ","MAREA":" ","LANE":" ","ALLEY":" ","HOUSE_NO":"５３號","E_COORD97":176091.78,"N_COORD97":2544230.79,"ADDRESS":"大廟六街５３號","OBJECTID":45802},"geometry":{"x":176091.78000000026,"y":2544230.7899999991}},{"attributes":{"ID":45803,"DIS_CODE":0,"TOWNNAME":"歸仁區","LI":"八甲里","LIN":"13鄰","STREET":"大明街","SECT":" ","MAREA":" ","LANE":" ","ALLEY":" ","HOUSE_NO":"１０９號","E_COORD97":178033.01999999999,"N_COORD97":2541861.6099999999,"ADDRESS":"大明街１０９號","OBJECTID":45803},"geometry":{"x":178033.02000000142,"y":2541861.6099999994}},{"attributes":{"ID":45804,"DIS_CODE":0,"TOWNNAME":"南區","LI":"鯤鯓里","LIN":"17鄰","STREET":"鯤鯓路","SECT":" ","MAREA":" ","LANE":" ","ALLEY":" ","HOUSE_NO":"１９６號","E_COORD97":164864.60999999999,"N_COORD97":2540289.3100000001,"ADDRESS":"鯤鯓路１９６號","OBJECTID":45804},"geometry":{"x":164864.61000000034,"y":2540289.3100000005}},{"attributes":{"ID":45805,"DIS_CODE":0,"TOWNNAME":"學甲區","LI":"大灣里","LIN":"15鄰","STREET":" ","SECT":" ","MAREA":"大灣","LANE":" ","ALLEY":" ","HOUSE_NO":"１５８號之２","E_COORD97":166657.13,"N_COORD97":2567653.5,"ADDRESS":"大灣１５８號之２","OBJECTID":45805},"geometry":{"x":166657.12999999989,"y":2567653.5}},{"attributes":{"ID":45806,"DIS_CODE":0,"TOWNNAME":"學甲區","LI":"大灣里","LIN":"15鄰","STREET":" ","SECT":" ","MAREA":"大灣","LANE":" ","ALLEY":" ","HOUSE_NO":"１５８號之３","E_COORD97":166657.81,"N_COORD97":2567649.5099999998,"ADDRESS":"大灣１５８號之３","OBJECTID":45806},"geometry":{"x":166657.80999999959,"y":2567649.5100000016}},{"attributes":{"ID":45807,"DIS_CODE":0,"TOWNNAME":"學甲區","LI":"中洲里","LIN":"15鄰","STREET":" ","SECT":" ","MAREA":"中洲","LANE":" ","ALLEY":" ","HOUSE_NO":"１５９號","E_COORD97":163635.25,"N_COORD97":2570929.9399999999,"ADDRESS":"中洲１５９號","OBJECTID":45807},"geometry":{"x":163635.25000000093,"y":2570929.9399999976}},{"attributes":{"ID":45808,"DIS_CODE":0,"TOWNNAME":"學甲區","LI":"中洲里","LIN":"15鄰","STREET":" ","SECT":" ","MAREA":"中洲","LANE":" ","ALLEY":" ","HOUSE_NO":"１６０號","E_COORD97":163609.41,"N_COORD97":2570944.2200000002,"ADDRESS":"中洲１６０號","OBJECTID":45808},"geometry":{"x":163609.41000000015,"y":2570944.2200000025}},{"attributes":{"ID":45809,"DIS_CODE":0,"TOWNNAME":"學甲區","LI":"中洲里","LIN":"15鄰","STREET":" ","SECT":" ","MAREA":"中洲","LANE":" ","ALLEY":" ","HOUSE_NO":"１６１號","E_COORD97":163608.67999999999,"N_COORD97":2570928.71,"ADDRESS":"中洲１６１號","OBJECTID":45809},"geometry":{"x":163608.6799999997,"y":2570928.7100000009}},{"attributes":{"ID":45810,"DIS_CODE":0,"TOWNNAME":"學甲區","LI":"中洲里","LIN":"15鄰","STREET":" ","SECT":" ","MAREA":"中洲","LANE":" ","ALLEY":" ","HOUSE_NO":"１６２號之１１","E_COORD97":163602.98999999999,"N_COORD97":2570989.4100000001,"ADDRESS":"中洲１６２號之１１","OBJECTID":45810},"geometry":{"x":163602.99000000115,"y":2570989.410000002}},{"attributes":{"ID":45811,"DIS_CODE":0,"TOWNNAME":"學甲區","LI":"中洲里","LIN":"15鄰","STREET":" ","SECT":" ","MAREA":"中洲","LANE":" ","ALLEY":" ","HOUSE_NO":"１６２號之１６","E_COORD97":163588.73000000001,"N_COORD97":2571027.04,"ADDRESS":"中洲１６２號之１６","OBJECTID":45811},"geometry":{"x":163588.73000000045,"y":2571027.0399999991}},{"attributes":{"ID":45812,"DIS_CODE":0,"TOWNNAME":"安南區","LI":"溪心里","LIN":"15鄰","STREET":"本原街","SECT":"二段","MAREA":" ","LANE":"５１３巷","ALLEY":"２８弄","HOUSE_NO":"７號","E_COORD97":165926.23999999999,"N_COORD97":2550437.1899999999,"ADDRESS":"本原街二段５１３巷２８弄７號","OBJECTID":45812},"geometry":{"x":165926.24000000022,"y":2550437.1900000032}},{"attributes":{"ID":45813,"DIS_CODE":0,"TOWNNAME":"安南區","LI":"溪心里","LIN":"15鄰","STREET":"智安四街","SECT":" ","MAREA":" ","LANE":"１０５巷","ALLEY":"２弄","HOUSE_NO":"１４號","E_COORD97":166018.89000000001,"N_COORD97":2550426.8900000001,"ADDRESS":"智安四街１０５巷２弄１４號","OBJECTID":45813},"geometry":{"x":166018.8900000006,"y":2550426.8900000043}},{"attributes":{"ID":45814,"DIS_CODE":0,"TOWNNAME":"安南區","LI":"溪心里","LIN":"15鄰","STREET":"智安四街","SECT":" ","MAREA":" ","LANE":"１０５巷","ALLEY":"２弄","HOUSE_NO":"１號","E_COORD97":166022.89000000001,"N_COORD97":2550402.46,"ADDRESS":"智安四街１０５巷２弄１號","OBJECTID":45814},"geometry":{"x":166022.88999999966,"y":2550402.4600000009}},{"attributes":{"ID":45815,"DIS_CODE":0,"TOWNNAME":"安南區","LI":"溪心里","LIN":"15鄰","STREET":"智安四街","SECT":" ","MAREA":" ","LANE":"１０５巷","ALLEY":"２弄","HOUSE_NO":"２號","E_COORD97":166033.60000000001,"N_COORD97":2550410.6099999999,"ADDRESS":"智安四街１０５巷２弄２號","OBJECTID":45815},"geometry":{"x":166033.59999999963,"y":2550410.6100000031}},{"attributes":{"ID":45816,"DIS_CODE":0,"TOWNNAME":"安南區","LI":"溪心里","LIN":"15鄰","STREET":"智安四街","SECT":" ","MAREA":" ","LANE":"１０５巷","ALLEY":"２弄","HOUSE_NO":"６號","E_COORD97":166030.73999999999,"N_COORD97":2550413.4199999999,"ADDRESS":"智安四街１０５巷２弄６號","OBJECTID":45816},"geometry":{"x":166030.74000000115,"y":2550413.4200000018}},{"attributes":{"ID":45817,"DIS_CODE":0,"TOWNNAME":"安南區","LI":"溪心里","LIN":"15鄰","STREET":"智安四街","SECT":" ","MAREA":" ","LANE":"１０５巷","ALLEY":"２弄","HOUSE_NO":"８號","E_COORD97":166027.72,"N_COORD97":2550416.7599999998,"ADDRESS":"智安四街１０５巷２弄８號","OBJECTID":45817},"geometry":{"x":166027.71999999974,"y":2550416.7600000035}},{"attributes":{"ID":45818,"DIS_CODE":0,"TOWNNAME":"安南區","LI":"溪心里","LIN":"15鄰","STREET":"智安四街","SECT":" ","MAREA":" ","LANE":"１０５巷","ALLEY":"６弄","HOUSE_NO":"１１號","E_COORD97":165989.23999999999,"N_COORD97":2550398.1899999999,"ADDRESS":"智安四街１０５巷６弄１１號","OBJECTID":45818},"geometry":{"x":165989.24000000022,"y":2550398.1899999995}},{"attributes":{"ID":45819,"DIS_CODE":0,"TOWNNAME":"歸仁區","LI":"七甲里","LIN":"13鄰","STREET":"南潭二街","SECT":" ","MAREA":" ","LANE":" ","ALLEY":" ","HOUSE_NO":"７０號","E_COORD97":176296.98999999999,"N_COORD97":2542999.25,"ADDRESS":"南潭二街７０號","OBJECTID":45819},"geometry":{"x":176296.99000000115,"y":2542999.2500000019}},{"attributes":{"ID":45820,"DIS_CODE":0,"TOWNNAME":"學甲區","LI":"中洲里","LIN":"15鄰","STREET":" ","SECT":" ","MAREA":"中洲","LANE":" ","ALLEY":" ","HOUSE_NO":"１６２號之１","E_COORD97":163616.70999999999,"N_COORD97":2570961.8999999999,"ADDRESS":"中洲１６２號之１","OBJECTID":45820},"geometry":{"x":163616.71000000089,"y":2570961.9000000041}},{"attributes":{"ID":45821,"DIS_CODE":0,"TOWNNAME":"學甲區","LI":"中洲里","LIN":"15鄰","STREET":" ","SECT":" ","MAREA":"中洲","LANE":" ","ALLEY":" ","HOUSE_NO":"１６２號","E_COORD97":163608.06,"N_COORD97":2570958.3700000001,"ADDRESS":"中洲１６２號","OBJECTID":45821},"geometry":{"x":163608.05999999959,"y":2570958.370000001}},{"attributes":{"ID":45822,"DIS_CODE":0,"TOWNNAME":"新市區","LI":"大社里","LIN":"1鄰","STREET":" ","SECT":" ","MAREA":"大社","LANE":" ","ALLEY":" ","HOUSE_NO":"３９號","E_COORD97":180235.82000000001,"N_COORD97":2554033,"ADDRESS":"大社３９號","OBJECTID":45822},"geometry":{"x":180235.82000000123,"y":2554033.0000000019}},{"attributes":{"ID":45823,"DIS_CODE":0,"TOWNNAME":"學甲區","LI":"光華里","LIN":"15鄰","STREET":" ","SECT":" ","MAREA":"中洲","LANE":" ","ALLEY":" ","HOUSE_NO":"６０９號之１","E_COORD97":164187.26999999999,"N_COORD97":2571508.4399999999,"ADDRESS":"中洲６０９號之１","OBJECTID":45823},"geometry":{"x":164187.27000000048,"y":2571508.4399999995}},{"attributes":{"ID":45824,"DIS_CODE":0,"TOWNNAME":"學甲區","LI":"光華里","LIN":"15鄰","STREET":" ","SECT":" ","MAREA":"中洲","LANE":" ","ALLEY":" ","HOUSE_NO":"６０９號之２","E_COORD97":164192.78,"N_COORD97":2571507.02,"ADDRESS":"中洲６０９號之２","OBJECTID":45824},"geometry":{"x":164192.78000000119,"y":2571507.0200000014}},{"attributes":{"ID":45825,"DIS_CODE":0,"TOWNNAME":"學甲區","LI":"光華里","LIN":"15鄰","STREET":" ","SECT":" ","MAREA":"中洲","LANE":" ","ALLEY":" ","HOUSE_NO":"６０９號之３","E_COORD97":164197.44,"N_COORD97":2571505.73,"ADDRESS":"中洲６０９號之３","OBJECTID":45825},"geometry":{"x":164197.44000000041,"y":2571505.7300000042}},{"attributes":{"ID":45826,"DIS_CODE":0,"TOWNNAME":"學甲區","LI":"光華里","LIN":"15鄰","STREET":" ","SECT":" ","MAREA":"中洲","LANE":" ","ALLEY":" ","HOUSE_NO":"６１１號","E_COORD97":164213.45000000001,"N_COORD97":2571559.52,"ADDRESS":"中洲６１１號","OBJECTID":45826},"geometry":{"x":164213.45000000112,"y":2571559.5199999996}},{"attributes":{"ID":45827,"DIS_CODE":0,"TOWNNAME":"學甲區","LI":"光華里","LIN":"15鄰","STREET":" ","SECT":" ","MAREA":"中洲","LANE":" ","ALLEY":" ","HOUSE_NO":"６１３號","E_COORD97":164193.94,"N_COORD97":2571589.4500000002,"ADDRESS":"中洲６１３號","OBJECTID":45827},"geometry":{"x":164193.94000000134,"y":2571589.4499999993}},{"attributes":{"ID":45828,"DIS_CODE":0,"TOWNNAME":"學甲區","LI":"光華里","LIN":"15鄰","STREET":" ","SECT":" ","MAREA":"中洲","LANE":" ","ALLEY":" ","HOUSE_NO":"６１４號","E_COORD97":164228.09,"N_COORD97":2571606.77,"ADDRESS":"中洲６１４號","OBJECTID":45828},"geometry":{"x":164228.08999999985,"y":2571606.7700000014}},{"attributes":{"ID":45829,"DIS_CODE":0,"TOWNNAME":"學甲區","LI":"光華里","LIN":"15鄰","STREET":" ","SECT":" ","MAREA":"中洲","LANE":" ","ALLEY":" ","HOUSE_NO":"６１５號","E_COORD97":164231.06,"N_COORD97":2571636.3999999999,"ADDRESS":"中洲６１５號","OBJECTID":45829},"geometry":{"x":164231.06000000052,"y":2571636.3999999985}},{"attributes":{"ID":45830,"DIS_CODE":0,"TOWNNAME":"學甲區","LI":"光華里","LIN":"15鄰","STREET":" ","SECT":" ","MAREA":"中洲","LANE":" ","ALLEY":" ","HOUSE_NO":"６１７號之３","E_COORD97":164222.39000000001,"N_COORD97":2571526.25,"ADDRESS":"中洲６１７號之３","OBJECTID":45830},"geometry":{"x":164222.38999999966,"y":2571526.2500000019}},{"attributes":{"ID":45831,"DIS_CODE":0,"TOWNNAME":"學甲區","LI":"光華里","LIN":"15鄰","STREET":" ","SECT":" ","MAREA":"中洲","LANE":" ","ALLEY":" ","HOUSE_NO":"６１７號之５","E_COORD97":164223.35000000001,"N_COORD97":2571535.8900000001,"ADDRESS":"中洲６１７號之５","OBJECTID":45831},"geometry":{"x":164223.3499999987,"y":2571535.8900000025}},{"attributes":{"ID":45832,"DIS_CODE":0,"TOWNNAME":"學甲區","LI":"光華里","LIN":"15鄰","STREET":" ","SECT":" ","MAREA":"中洲","LANE":" ","ALLEY":" ","HOUSE_NO":"６１７號","E_COORD97":164230.81,"N_COORD97":2571556.7799999998,"ADDRESS":"中洲６１７號","OBJECTID":45832},"geometry":{"x":164230.81000000052,"y":2571556.7799999993}},{"attributes":{"ID":45833,"DIS_CODE":0,"TOWNNAME":"學甲區","LI":"光華里","LIN":"15鄰","STREET":" ","SECT":" ","MAREA":"中洲","LANE":" ","ALLEY":" ","HOUSE_NO":"６１９號","E_COORD97":164222.63,"N_COORD97":2571514.23,"ADDRESS":"中洲６１９號","OBJECTID":45833},"geometry":{"x":164222.63000000082,"y":2571514.2300000004}},{"attributes":{"ID":45834,"DIS_CODE":0,"TOWNNAME":"學甲區","LI":"三慶里","LIN":"15鄰","STREET":" ","SECT":" ","MAREA":"紅茄","LANE":" ","ALLEY":" ","HOUSE_NO":"１０號之３６","E_COORD97":167975.97,"N_COORD97":2575918.6899999999,"ADDRESS":"紅茄１０號之３６","OBJECTID":45834},"geometry":{"x":167975.9700000016,"y":2575918.6899999995}},{"attributes":{"ID":45835,"DIS_CODE":0,"TOWNNAME":"學甲區","LI":"三慶里","LIN":"15鄰","STREET":" ","SECT":" ","MAREA":"紅茄","LANE":" ","ALLEY":" ","HOUSE_NO":"１０號之３７","E_COORD97":167888.12,"N_COORD97":2575902.48,"ADDRESS":"紅茄１０號之３７","OBJECTID":45835},"geometry":{"x":167888.12000000011,"y":2575902.4800000023}},{"attributes":{"ID":45836,"DIS_CODE":0,"TOWNNAME":"學甲區","LI":"三慶里","LIN":"15鄰","STREET":" ","SECT":" ","MAREA":"紅茄","LANE":" ","ALLEY":" ","HOUSE_NO":"１０號","E_COORD97":167656.42999999999,"N_COORD97":2575821.0499999998,"ADDRESS":"紅茄１０號","OBJECTID":45836},"geometry":{"x":167656.43000000063,"y":2575821.0500000026}},{"attributes":{"ID":45837,"DIS_CODE":0,"TOWNNAME":"學甲區","LI":"三慶里","LIN":"15鄰","STREET":" ","SECT":" ","MAREA":"紅茄","LANE":" ","ALLEY":" ","HOUSE_NO":"１１號之１","E_COORD97":167637.44,"N_COORD97":2575789.5299999998,"ADDRESS":"紅茄１１號之１","OBJECTID":45837},"geometry":{"x":167637.44000000041,"y":2575789.5299999993}},{"attributes":{"ID":45838,"DIS_CODE":0,"TOWNNAME":"學甲區","LI":"三慶里","LIN":"15鄰","STREET":" ","SECT":" ","MAREA":"紅茄","LANE":" ","ALLEY":" ","HOUSE_NO":"１１號","E_COORD97":167663.31,"N_COORD97":2575796.8599999999,"ADDRESS":"紅茄１１號","OBJECTID":45838},"geometry":{"x":167663.31000000145,"y":2575796.8600000013}},{"attributes":{"ID":45839,"DIS_CODE":0,"TOWNNAME":"學甲區","LI":"三慶里","LIN":"15鄰","STREET":" ","SECT":" ","MAREA":"紅茄","LANE":" ","ALLEY":" ","HOUSE_NO":"１２號","E_COORD97":167621.78,"N_COORD97":2575790.1499999999,"ADDRESS":"紅茄１２號","OBJECTID":45839},"geometry":{"x":167621.78000000212,"y":2575790.1500000004}},{"attributes":{"ID":45840,"DIS_CODE":0,"TOWNNAME":"學甲區","LI":"三慶里","LIN":"15鄰","STREET":" ","SECT":" ","MAREA":"紅茄","LANE":" ","ALLEY":" ","HOUSE_NO":"２號之１","E_COORD97":167094.20000000001,"N_COORD97":2576423.8599999999,"ADDRESS":"紅茄２號之１","OBJECTID":45840},"geometry":{"x":167094.20000000019,"y":2576423.8600000013}},{"attributes":{"ID":45841,"DIS_CODE":0,"TOWNNAME":"學甲區","LI":"三慶里","LIN":"15鄰","STREET":" ","SECT":" ","MAREA":"紅茄","LANE":" ","ALLEY":" ","HOUSE_NO":"２號","E_COORD97":167701.76000000001,"N_COORD97":2575694.1099999999,"ADDRESS":"紅茄２號","OBJECTID":45841},"geometry":{"x":167701.76000000071,"y":2575694.1099999994}},{"attributes":{"ID":45842,"DIS_CODE":0,"TOWNNAME":"七股區","LI":"城內里","LIN":"1鄰","STREET":" ","SECT":" ","MAREA":"城內","LANE":" ","ALLEY":" ","HOUSE_NO":"５號","E_COORD97":162368.85999999999,"N_COORD97":2564309.7999999998,"ADDRESS":"城內５號","OBJECTID":45842},"geometry":{"x":162368.86000000034,"y":2564309.8000000007}},{"attributes":{"ID":45843,"DIS_CODE":0,"TOWNNAME":"學甲區","LI":"三慶里","LIN":"15鄰","STREET":" ","SECT":" ","MAREA":"紅茄","LANE":" ","ALLEY":" ","HOUSE_NO":"３號之１","E_COORD97":167694.23000000001,"N_COORD97":2575724.4300000002,"ADDRESS":"紅茄３號之１","OBJECTID":45843},"geometry":{"x":167694.23000000138,"y":2575724.4300000034}},{"attributes":{"ID":45844,"DIS_CODE":0,"TOWNNAME":"安南區","LI":"溪心里","LIN":"15鄰","STREET":"智安四街","SECT":" ","MAREA":" ","LANE":"１０５巷","ALLEY":"６弄","HOUSE_NO":"１號","E_COORD97":166001.78,"N_COORD97":2550383.3100000001,"ADDRESS":"智安四街１０５巷６弄１號","OBJECTID":45844},"geometry":{"x":166001.78000000119,"y":2550383.3100000042}},{"attributes":{"ID":45845,"DIS_CODE":0,"TOWNNAME":"學甲區","LI":"三慶里","LIN":"15鄰","STREET":" ","SECT":" ","MAREA":"紅茄","LANE":" ","ALLEY":" ","HOUSE_NO":"９號","E_COORD97":167682.07000000001,"N_COORD97":2575811.5899999999,"ADDRESS":"紅茄９號","OBJECTID":45845},"geometry":{"x":167682.0700000003,"y":2575811.5900000036}},{"attributes":{"ID":45846,"DIS_CODE":0,"TOWNNAME":"安南區","LI":"溪心里","LIN":"15鄰","STREET":"智安四街","SECT":" ","MAREA":" ","LANE":"１０５巷","ALLEY":"６弄","HOUSE_NO":"３號","E_COORD97":165999.06,"N_COORD97":2550386.77,"ADDRESS":"智安四街１０５巷６弄３號","OBJECTID":45846},"geometry":{"x":165999.06000000052,"y":2550386.7700000014}},{"attributes":{"ID":45847,"DIS_CODE":0,"TOWNNAME":"安南區","LI":"溪心里","LIN":"15鄰","STREET":"智安四街","SECT":" ","MAREA":" ","LANE":"１０５巷","ALLEY":"６弄","HOUSE_NO":"５號","E_COORD97":165997.01000000001,"N_COORD97":2550388.9100000001,"ADDRESS":"智安四街１０５巷６弄５號","OBJECTID":45847},"geometry":{"x":165997.00999999978,"y":2550388.9100000039}},{"attributes":{"ID":45848,"DIS_CODE":0,"TOWNNAME":"安南區","LI":"溪心里","LIN":"15鄰","STREET":"智安四街","SECT":" ","MAREA":" ","LANE":"１０５巷","ALLEY":"６弄","HOUSE_NO":"７號","E_COORD97":165995.92999999999,"N_COORD97":2550393.0800000001,"ADDRESS":"智安四街１０５巷６弄７號","OBJECTID":45848},"geometry":{"x":165995.9299999997,"y":2550393.0800000001}},{"attributes":{"ID":45849,"DIS_CODE":0,"TOWNNAME":"北區","LI":"振興里","LIN":"7鄰","STREET":"開元路","SECT":" ","MAREA":" ","LANE":"１４８巷","ALLEY":"３３弄","HOUSE_NO":"１２號之１","E_COORD97":170133.10999999999,"N_COORD97":2545138.8100000001,"ADDRESS":"開元路１４８巷３３弄１２號之１","OBJECTID":45849},"geometry":{"x":170133.11000000034,"y":2545138.8100000024}},{"attributes":{"ID":45850,"DIS_CODE":0,"TOWNNAME":"北區","LI":"振興里","LIN":"7鄰","STREET":"開元路","SECT":" ","MAREA":" ","LANE":"１４８巷","ALLEY":"３３弄","HOUSE_NO":"１２號之２","E_COORD97":170136.92000000001,"N_COORD97":2545140.1200000001,"ADDRESS":"開元路１４８巷３３弄１２號之２","OBJECTID":45850},"geometry":{"x":170136.92000000086,"y":2545140.1200000048}},{"attributes":{"ID":45851,"DIS_CODE":0,"TOWNNAME":"安南區","LI":"溪心里","LIN":"15鄰","STREET":"智安四街","SECT":" ","MAREA":" ","LANE":"１０５巷","ALLEY":"６弄","HOUSE_NO":"８號","E_COORD97":166006.98999999999,"N_COORD97":2550398.75,"ADDRESS":"智安四街１０５巷６弄８號","OBJECTID":45851},"geometry":{"x":166006.99000000115,"y":2550398.75}},{"attributes":{"ID":45852,"DIS_CODE":0,"TOWNNAME":"北區","LI":"正風里","LIN":"4鄰","STREET":"公園路","SECT":" ","MAREA":" ","LANE":"９３４巷","ALLEY":"２９弄","HOUSE_NO":"４號","E_COORD97":169480.14000000001,"N_COORD97":2546211.0800000001,"ADDRESS":"公園路９３４巷２９弄４號","OBJECTID":45852},"geometry":{"x":169480.1400000006,"y":2546211.0800000019}},{"attributes":{"ID":45853,"DIS_CODE":0,"TOWNNAME":"安南區","LI":"溪心里","LIN":"15鄰","STREET":"智安四街","SECT":" ","MAREA":" ","LANE":"１０５巷","ALLEY":"６弄","HOUSE_NO":"９號","E_COORD97":165992.57999999999,"N_COORD97":2550394.9399999999,"ADDRESS":"智安四街１０５巷６弄９號","OBJECTID":45853},"geometry":{"x":165992.58000000101,"y":2550394.9400000013}},{"attributes":{"ID":45854,"DIS_CODE":0,"TOWNNAME":"永康區","LI":"網寮里","LIN":"15鄰","STREET":"永和街","SECT":" ","MAREA":" ","LANE":"２６０巷","ALLEY":"１２弄","HOUSE_NO":"２１號","E_COORD97":173486.07000000001,"N_COORD97":2546609.4900000002,"ADDRESS":"永和街２６０巷１２弄２１號","OBJECTID":45854},"geometry":{"x":173486.0700000003,"y":2546609.4900000021}},{"attributes":{"ID":45855,"DIS_CODE":0,"TOWNNAME":"南區","LI":"大忠里","LIN":"17鄰","STREET":"大同路","SECT":"二段","MAREA":" ","LANE":" ","ALLEY":" ","HOUSE_NO":"６００號","E_COORD97":169529.22,"N_COORD97":2541140.1400000001,"ADDRESS":"大同路二段６００號","OBJECTID":45855},"geometry":{"x":169529.22000000067,"y":2541140.1400000025}},{"attributes":{"ID":45856,"DIS_CODE":0,"TOWNNAME":"學甲區","LI":"豐和里","LIN":"15鄰","STREET":" ","SECT":" ","MAREA":"美豐","LANE":" ","ALLEY":" ","HOUSE_NO":"１２０號之１","E_COORD97":167982.26999999999,"N_COORD97":2568561.2000000002,"ADDRESS":"美豐１２０號之１","OBJECTID":45856},"geometry":{"x":167982.27000000142,"y":2568561.1999999993}},{"attributes":{"ID":45857,"DIS_CODE":0,"TOWNNAME":"學甲區","LI":"豐和里","LIN":"15鄰","STREET":" ","SECT":" ","MAREA":"美豐","LANE":" ","ALLEY":" ","HOUSE_NO":"１２０號","E_COORD97":167958.20999999999,"N_COORD97":2568557.8700000001,"ADDRESS":"美豐１２０號","OBJECTID":45857},"geometry":{"x":167958.21000000089,"y":2568557.870000001}},{"attributes":{"ID":45858,"DIS_CODE":0,"TOWNNAME":"學甲區","LI":"豐和里","LIN":"15鄰","STREET":" ","SECT":" ","MAREA":"美豐","LANE":" ","ALLEY":" ","HOUSE_NO":"１２１號之１","E_COORD97":167993.01999999999,"N_COORD97":2568536.21,"ADDRESS":"美豐１２１號之１","OBJECTID":45858},"geometry":{"x":167993.02000000048,"y":2568536.2100000046}},{"attributes":{"ID":45859,"DIS_CODE":0,"TOWNNAME":"學甲區","LI":"豐和里","LIN":"15鄰","STREET":" ","SECT":" ","MAREA":"美豐","LANE":" ","ALLEY":" ","HOUSE_NO":"１２１號之２","E_COORD97":167963.79000000001,"N_COORD97":2568520.27,"ADDRESS":"美豐１２１號之２","OBJECTID":45859},"geometry":{"x":167963.78999999911,"y":2568520.2699999996}},{"attributes":{"ID":45860,"DIS_CODE":0,"TOWNNAME":"學甲區","LI":"豐和里","LIN":"15鄰","STREET":" ","SECT":" ","MAREA":"美豐","LANE":" ","ALLEY":" ","HOUSE_NO":"１２１號之３","E_COORD97":167990.64999999999,"N_COORD97":2568502.3399999999,"ADDRESS":"美豐１２１號之３","OBJECTID":45860},"geometry":{"x":167990.65000000224,"y":2568502.3399999999}},{"attributes":{"ID":45861,"DIS_CODE":0,"TOWNNAME":"學甲區","LI":"豐和里","LIN":"15鄰","STREET":" ","SECT":" ","MAREA":"美豐","LANE":" ","ALLEY":" ","HOUSE_NO":"１２１號之６","E_COORD97":168011.16,"N_COORD97":2568445.7000000002,"ADDRESS":"美豐１２１號之６","OBJECTID":45861},"geometry":{"x":168011.16000000108,"y":2568445.6999999993}},{"attributes":{"ID":45862,"DIS_CODE":0,"TOWNNAME":"學甲區","LI":"豐和里","LIN":"15鄰","STREET":" ","SECT":" ","MAREA":"美豐","LANE":" ","ALLEY":" ","HOUSE_NO":"１２１號","E_COORD97":167968.04999999999,"N_COORD97":2568520.8500000001,"ADDRESS":"美豐１２１號","OBJECTID":45862},"geometry":{"x":167968.04999999981,"y":2568520.8500000015}},{"attributes":{"ID":45863,"DIS_CODE":0,"TOWNNAME":"南區","LI":"大忠里","LIN":"17鄰","STREET":"大同路","SECT":"二段","MAREA":" ","LANE":" ","ALLEY":" ","HOUSE_NO":"６０４號","E_COORD97":169524.07999999999,"N_COORD97":2541126.6000000001,"ADDRESS":"大同路二段６０４號","OBJECTID":45863},"geometry":{"x":169524.08000000007,"y":2541126.5999999996}},{"attributes":{"ID":45864,"DIS_CODE":0,"TOWNNAME":"南區","LI":"大忠里","LIN":"17鄰","STREET":"大同路","SECT":"二段","MAREA":" ","LANE":" ","ALLEY":" ","HOUSE_NO":"６０８號","E_COORD97":169534.57999999999,"N_COORD97":2541120.46,"ADDRESS":"大同路二段６０８號","OBJECTID":45864},"geometry":{"x":169534.58000000007,"y":2541120.4600000028}},{"attributes":{"ID":45865,"DIS_CODE":0,"TOWNNAME":"南區","LI":"大忠里","LIN":"17鄰","STREET":"大同路","SECT":"二段","MAREA":" ","LANE":" ","ALLEY":" ","HOUSE_NO":"６１０號","E_COORD97":169535.60999999999,"N_COORD97":2541116.5699999998,"ADDRESS":"大同路二段６１０號","OBJECTID":45865},"geometry":{"x":169535.61000000127,"y":2541116.5700000022}},{"attributes":{"ID":45866,"DIS_CODE":0,"TOWNNAME":"學甲區","LI":"豐和里","LIN":"15鄰","STREET":" ","SECT":" ","MAREA":"美豐","LANE":" ","ALLEY":" ","HOUSE_NO":"１２２號之１","E_COORD97":167926.57000000001,"N_COORD97":2568514.0899999999,"ADDRESS":"美豐１２２號之１","OBJECTID":45866},"geometry":{"x":167926.56999999937,"y":2568514.0899999999}},{"attributes":{"ID":45867,"DIS_CODE":0,"TOWNNAME":"南區","LI":"大忠里","LIN":"17鄰","STREET":"大同路","SECT":"二段","MAREA":" ","LANE":" ","ALLEY":" ","HOUSE_NO":"６１４號","E_COORD97":169537.85999999999,"N_COORD97":2541109.0099999998,"ADDRESS":"大同路二段６１４號","OBJECTID":45867},"geometry":{"x":169537.86000000034,"y":2541109.0100000016}},{"attributes":{"ID":45868,"DIS_CODE":0,"TOWNNAME":"南區","LI":"大忠里","LIN":"17鄰","STREET":"大同路","SECT":"二段","MAREA":" ","LANE":" ","ALLEY":" ","HOUSE_NO":"６１６號","E_COORD97":169538.67999999999,"N_COORD97":2541104.9300000002,"ADDRESS":"大同路二段６１６號","OBJECTID":45868},"geometry":{"x":169538.6799999997,"y":2541104.9299999997}},{"attributes":{"ID":45869,"DIS_CODE":0,"TOWNNAME":"南區","LI":"大忠里","LIN":"17鄰","STREET":"大同路","SECT":"二段","MAREA":" ","LANE":" ","ALLEY":" ","HOUSE_NO":"６１８號","E_COORD97":169539.5,"N_COORD97":2541100.6400000001,"ADDRESS":"大同路二段６１８號","OBJECTID":45869},"geometry":{"x":169539.50000000093,"y":2541100.6400000006}},{"attributes":{"ID":45870,"DIS_CODE":0,"TOWNNAME":"歸仁區","LI":"大潭里","LIN":"18鄰","STREET":"中正南路","SECT":"三段","MAREA":" ","LANE":" ","ALLEY":" ","HOUSE_NO":"２７２號","E_COORD97":175139.89999999999,"N_COORD97":2534708.2799999998,"ADDRESS":"中正南路三段２７２號","OBJECTID":45870},"geometry":{"x":175139.9000000013,"y":2534708.2800000031}},{"attributes":{"ID":45871,"DIS_CODE":0,"TOWNNAME":"南區","LI":"大忠里","LIN":"17鄰","STREET":"大同路","SECT":"二段","MAREA":" ","LANE":" ","ALLEY":" ","HOUSE_NO":"６２２號","E_COORD97":169541.10999999999,"N_COORD97":2541087.1400000001,"ADDRESS":"大同路二段６２２號","OBJECTID":45871},"geometry":{"x":169541.11000000034,"y":2541087.1400000006}},{"attributes":{"ID":45872,"DIS_CODE":0,"TOWNNAME":"南區","LI":"大忠里","LIN":"17鄰","STREET":"大同路","SECT":"二段","MAREA":" ","LANE":" ","ALLEY":" ","HOUSE_NO":"６２４號","E_COORD97":169543.48999999999,"N_COORD97":2541079.1000000001,"ADDRESS":"大同路二段６２４號","OBJECTID":45872},"geometry":{"x":169543.49000000022,"y":2541079.0999999996}},{"attributes":{"ID":45873,"DIS_CODE":0,"TOWNNAME":"南區","LI":"大忠里","LIN":"17鄰","STREET":"大同路","SECT":"二段","MAREA":" ","LANE":" ","ALLEY":" ","HOUSE_NO":"６２８號","E_COORD97":169544.67000000001,"N_COORD97":2541070.3399999999,"ADDRESS":"大同路二段６２８號","OBJECTID":45873},"geometry":{"x":169544.67000000086,"y":2541070.3400000017}},{"attributes":{"ID":45874,"DIS_CODE":0,"TOWNNAME":"楠西區","LI":"照興里","LIN":"17鄰","STREET":" ","SECT":" ","MAREA":"興南","LANE":" ","ALLEY":" ","HOUSE_NO":"８５號之２","E_COORD97":195767.04000000001,"N_COORD97":2565883.2999999998,"ADDRESS":"興南８５號之２","OBJECTID":45874},"geometry":{"x":195767.04000000097,"y":2565883.3000000007}},{"attributes":{"ID":45875,"DIS_CODE":0,"TOWNNAME":"楠西區","LI":"照興里","LIN":"17鄰","STREET":" ","SECT":" ","MAREA":"興南","LANE":" ","ALLEY":" ","HOUSE_NO":"８６號","E_COORD97":195900.17000000001,"N_COORD97":2565560.25,"ADDRESS":"興南８６號","OBJECTID":45875},"geometry":{"x":195900.17000000086,"y":2565560.25}},{"attributes":{"ID":45876,"DIS_CODE":0,"TOWNNAME":"永康區","LI":"網寮里","LIN":"15鄰","STREET":"永和街","SECT":" ","MAREA":" ","LANE":"２６０巷","ALLEY":"１２弄","HOUSE_NO":"２９號","E_COORD97":173494.20000000001,"N_COORD97":2546625.25,"ADDRESS":"永和街２６０巷１２弄２９號","OBJECTID":45876},"geometry":{"x":173494.20000000019,"y":2546625.25}},{"attributes":{"ID":45877,"DIS_CODE":0,"TOWNNAME":"永康區","LI":"網寮里","LIN":"15鄰","STREET":"永和街","SECT":" ","MAREA":" ","LANE":"２６０巷","ALLEY":"１２弄","HOUSE_NO":"２３號","E_COORD97":173487.85999999999,"N_COORD97":2546613.25,"ADDRESS":"永和街２６０巷１２弄２３號","OBJECTID":45877},"geometry":{"x":173487.86000000034,"y":2546613.2500000019}},{"attributes":{"ID":45878,"DIS_CODE":0,"TOWNNAME":"永康區","LI":"網寮里","LIN":"15鄰","STREET":"永和街","SECT":" ","MAREA":" ","LANE":"２６０巷","ALLEY":"２６弄","HOUSE_NO":"１２號","E_COORD97":173465.37,"N_COORD97":2546635.25,"ADDRESS":"永和街２６０巷２６弄１２號","OBJECTID":45878},"geometry":{"x":173465.37000000011,"y":2546635.25}},{"attributes":{"ID":45879,"DIS_CODE":0,"TOWNNAME":"永康區","LI":"網寮里","LIN":"15鄰","STREET":"永和街","SECT":" ","MAREA":" ","LANE":"２６０巷","ALLEY":"１２弄","HOUSE_NO":"１７號","E_COORD97":173481.39000000001,"N_COORD97":2546600.7400000002,"ADDRESS":"永和街２６０巷１２弄１７號","OBJECTID":45879},"geometry":{"x":173481.3900000006,"y":2546600.7400000021}},{"attributes":{"ID":45880,"DIS_CODE":0,"TOWNNAME":"學甲區","LI":"豐和里","LIN":"15鄰","STREET":" ","SECT":" ","MAREA":"美豐","LANE":" ","ALLEY":" ","HOUSE_NO":"１２２號之２５","E_COORD97":167648.20000000001,"N_COORD97":2568481.2599999998,"ADDRESS":"美豐１２２號之２５","OBJECTID":45880},"geometry":{"x":167648.20000000112,"y":2568481.2600000016}},{"attributes":{"ID":45881,"DIS_CODE":0,"TOWNNAME":"永康區","LI":"網寮里","LIN":"15鄰","STREET":"永和街","SECT":" ","MAREA":" ","LANE":"２６０巷","ALLEY":"１２弄","HOUSE_NO":"２號","E_COORD97":173429.69,"N_COORD97":2546599.1299999999,"ADDRESS":"永和街２６０巷１２弄２號","OBJECTID":45881},"geometry":{"x":173429.69000000041,"y":2546599.1300000027}},{"attributes":{"ID":45882,"DIS_CODE":0,"TOWNNAME":"永康區","LI":"網寮里","LIN":"15鄰","STREET":"永和街","SECT":" ","MAREA":" ","LANE":"２６０巷","ALLEY":"２６弄","HOUSE_NO":"１０號","E_COORD97":173461.44,"N_COORD97":2546637.25,"ADDRESS":"永和街２６０巷２６弄１０號","OBJECTID":45882},"geometry":{"x":173461.44000000134,"y":2546637.2500000019}},{"attributes":{"ID":45883,"DIS_CODE":0,"TOWNNAME":"永康區","LI":"網寮里","LIN":"15鄰","STREET":"永和街","SECT":" ","MAREA":" ","LANE":"２６０巷","ALLEY":"２６弄","HOUSE_NO":"８號","E_COORD97":173456.38,"N_COORD97":2546639,"ADDRESS":"永和街２６０巷２６弄８號","OBJECTID":45883},"geometry":{"x":173456.37999999989,"y":2546639.0000000019}},{"attributes":{"ID":45884,"DIS_CODE":0,"TOWNNAME":"學甲區","LI":"豐和里","LIN":"15鄰","STREET":" ","SECT":" ","MAREA":"美豐","LANE":" ","ALLEY":" ","HOUSE_NO":"１２２號之２","E_COORD97":167913.42999999999,"N_COORD97":2568509.6600000001,"ADDRESS":"美豐１２２號之２","OBJECTID":45884},"geometry":{"x":167913.43000000156,"y":2568509.660000002}},{"attributes":{"ID":45885,"DIS_CODE":0,"TOWNNAME":"學甲區","LI":"豐和里","LIN":"15鄰","STREET":" ","SECT":" ","MAREA":"美豐","LANE":" ","ALLEY":" ","HOUSE_NO":"１２２號之３","E_COORD97":167899.42999999999,"N_COORD97":2568507.8900000001,"ADDRESS":"美豐１２２號之３","OBJECTID":45885},"geometry":{"x":167899.4299999997,"y":2568507.8900000025}},{"attributes":{"ID":45886,"DIS_CODE":0,"TOWNNAME":"學甲區","LI":"豐和里","LIN":"15鄰","STREET":" ","SECT":" ","MAREA":"美豐","LANE":" ","ALLEY":" ","HOUSE_NO":"１２２號之５","E_COORD97":167896.63,"N_COORD97":2568435.23,"ADDRESS":"美豐１２２號之５","OBJECTID":45886},"geometry":{"x":167896.62999999989,"y":2568435.2300000023}},{"attributes":{"ID":45887,"DIS_CODE":0,"TOWNNAME":"安南區","LI":"海佃里","LIN":"15鄰","STREET":"國安街","SECT":" ","MAREA":" ","LANE":"５６巷","ALLEY":"１４１弄","HOUSE_NO":"１００號","E_COORD97":166697.89999999999,"N_COORD97":2547446.7000000002,"ADDRESS":"國安街５６巷１４１弄１００號","OBJECTID":45887},"geometry":{"x":166697.9000000013,"y":2547446.7000000011}},{"attributes":{"ID":45888,"DIS_CODE":0,"TOWNNAME":"學甲區","LI":"豐和里","LIN":"15鄰","STREET":" ","SECT":" ","MAREA":"美豐","LANE":" ","ALLEY":" ","HOUSE_NO":"１２２號之６","E_COORD97":167864.20000000001,"N_COORD97":2568478.3500000001,"ADDRESS":"美豐１２２號之６","OBJECTID":45888},"geometry":{"x":167864.20000000019,"y":2568478.3499999996}},{"attributes":{"ID":45889,"DIS_CODE":0,"TOWNNAME":"安南區","LI":"海佃里","LIN":"15鄰","STREET":"國安街","SECT":" ","MAREA":" ","LANE":"５６巷","ALLEY":"１４１弄","HOUSE_NO":"１０２號","E_COORD97":166693.25,"N_COORD97":2547446.7000000002,"ADDRESS":"國安街５６巷１４１弄１０２號","OBJECTID":45889},"geometry":{"x":166693.25000000093,"y":2547446.7000000011}},{"attributes":{"ID":45890,"DIS_CODE":0,"TOWNNAME":"安南區","LI":"海佃里","LIN":"15鄰","STREET":"國安街","SECT":" ","MAREA":" ","LANE":"５６巷","ALLEY":"１４１弄","HOUSE_NO":"１０４號","E_COORD97":166689.26000000001,"N_COORD97":2547445.3700000001,"ADDRESS":"國安街５６巷１４１弄１０４號","OBJECTID":45890},"geometry":{"x":166689.26000000071,"y":2547445.3700000029}},{"attributes":{"ID":45891,"DIS_CODE":0,"TOWNNAME":"學甲區","LI":"豐和里","LIN":"15鄰","STREET":" ","SECT":" ","MAREA":"美豐","LANE":" ","ALLEY":" ","HOUSE_NO":"１２４號之１","E_COORD97":167896.62,"N_COORD97":2568542.6000000001,"ADDRESS":"美豐１２４號之１","OBJECTID":45891},"geometry":{"x":167896.62000000011,"y":2568542.6000000034}},{"attributes":{"ID":45892,"DIS_CODE":0,"TOWNNAME":"學甲區","LI":"豐和里","LIN":"15鄰","STREET":" ","SECT":" ","MAREA":"美豐","LANE":" ","ALLEY":" ","HOUSE_NO":"１２４號之２","E_COORD97":167875.89000000001,"N_COORD97":2568541.46,"ADDRESS":"美豐１２４號之２","OBJECTID":45892},"geometry":{"x":167875.88999999966,"y":2568541.4600000046}},{"attributes":{"ID":45893,"DIS_CODE":0,"TOWNNAME":"學甲區","LI":"豐和里","LIN":"15鄰","STREET":" ","SECT":" ","MAREA":"美豐","LANE":" ","ALLEY":" ","HOUSE_NO":"１２４號","E_COORD97":167922.85999999999,"N_COORD97":2568544.8399999999,"ADDRESS":"美豐１２４號","OBJECTID":45893},"geometry":{"x":167922.86000000034,"y":2568544.8400000017}},{"attributes":{"ID":45894,"DIS_CODE":0,"TOWNNAME":"學甲區","LI":"豐和里","LIN":"15鄰","STREET":" ","SECT":" ","MAREA":"美豐","LANE":" ","ALLEY":" ","HOUSE_NO":"１２５號之１３","E_COORD97":167698.23000000001,"N_COORD97":2568434.7000000002,"ADDRESS":"美豐１２５號之１３","OBJECTID":45894},"geometry":{"x":167698.23000000045,"y":2568434.6999999993}},{"attributes":{"ID":45895,"DIS_CODE":0,"TOWNNAME":"學甲區","LI":"豐和里","LIN":"15鄰","STREET":" ","SECT":" ","MAREA":"美豐","LANE":" ","ALLEY":" ","HOUSE_NO":"１２５號之１４","E_COORD97":167722.09,"N_COORD97":2568436.3999999999,"ADDRESS":"美豐１２５號之１４","OBJECTID":45895},"geometry":{"x":167722.08999999985,"y":2568436.4000000022}},{"attributes":{"ID":45896,"DIS_CODE":0,"TOWNNAME":"學甲區","LI":"豐和里","LIN":"15鄰","STREET":" ","SECT":" ","MAREA":"美豐","LANE":" ","ALLEY":" ","HOUSE_NO":"１２５號之１６","E_COORD97":167764.72,"N_COORD97":2568439.77,"ADDRESS":"美豐１２５號之１６","OBJECTID":45896},"geometry":{"x":167764.72000000067,"y":2568439.7700000014}},{"attributes":{"ID":45897,"DIS_CODE":0,"TOWNNAME":"學甲區","LI":"豐和里","LIN":"15鄰","STREET":" ","SECT":" ","MAREA":"美豐","LANE":" ","ALLEY":" ","HOUSE_NO":"１２５號之１７","E_COORD97":167709.28,"N_COORD97":2568436.21,"ADDRESS":"美豐１２５號之１７","OBJECTID":45897},"geometry":{"x":167709.28000000026,"y":2568436.2100000009}},{"attributes":{"ID":45898,"DIS_CODE":0,"TOWNNAME":"學甲區","LI":"豐和里","LIN":"15鄰","STREET":" ","SECT":" ","MAREA":"美豐","LANE":" ","ALLEY":" ","HOUSE_NO":"１２５號之１８","E_COORD97":167752.20999999999,"N_COORD97":2568284.29,"ADDRESS":"美豐１２５號之１８","OBJECTID":45898},"geometry":{"x":167752.20999999996,"y":2568284.290000001}},{"attributes":{"ID":45899,"DIS_CODE":0,"TOWNNAME":"學甲區","LI":"豐和里","LIN":"15鄰","STREET":" ","SECT":" ","MAREA":"美豐","LANE":" ","ALLEY":" ","HOUSE_NO":"１２５號之１９","E_COORD97":167770.07000000001,"N_COORD97":2568288.0899999999,"ADDRESS":"美豐１２５號之１９","OBJECTID":45899},"geometry":{"x":167770.0700000003,"y":2568288.0899999999}},{"attributes":{"ID":45900,"DIS_CODE":0,"TOWNNAME":"學甲區","LI":"豐和里","LIN":"15鄰","STREET":" ","SECT":" ","MAREA":"美豐","LANE":" ","ALLEY":" ","HOUSE_NO":"１２５號之２３","E_COORD97":167556.70000000001,"N_COORD97":2568380,"ADDRESS":"美豐１２５號之２３","OBJECTID":45900},"geometry":{"x":167556.70000000112,"y":2568380}},{"attributes":{"ID":45901,"DIS_CODE":0,"TOWNNAME":"學甲區","LI":"豐和里","LIN":"15鄰","STREET":" ","SECT":" ","MAREA":"美豐","LANE":" ","ALLEY":" ","HOUSE_NO":"１２５號之２４","E_COORD97":167718.41,"N_COORD97":2568173.6200000001,"ADDRESS":"美豐１２５號之２４","OBJECTID":45901},"geometry":{"x":167718.41000000015,"y":2568173.620000001}},{"attributes":{"ID":45902,"DIS_CODE":0,"TOWNNAME":"南區","LI":"大忠里","LIN":"17鄰","STREET":"大同路","SECT":"二段","MAREA":" ","LANE":" ","ALLEY":" ","HOUSE_NO":"６３４號","E_COORD97":169547.51999999999,"N_COORD97":2541058.27,"ADDRESS":"大同路二段６３４號","OBJECTID":45902},"geometry":{"x":169547.52000000048,"y":2541058.2699999996}},{"attributes":{"ID":45903,"DIS_CODE":0,"TOWNNAME":"柳營區","LI":"八翁里","LIN":"17鄰","STREET":" ","SECT":" ","MAREA":"八老爺","LANE":" ","ALLEY":" ","HOUSE_NO":"１０１號","E_COORD97":179175.98999999999,"N_COORD97":2573949.6200000001,"ADDRESS":"八老爺１０１號","OBJECTID":45903},"geometry":{"x":179175.99000000022,"y":2573949.6200000029}},{"attributes":{"ID":45904,"DIS_CODE":0,"TOWNNAME":"柳營區","LI":"八翁里","LIN":"17鄰","STREET":" ","SECT":" ","MAREA":"八老爺","LANE":" ","ALLEY":" ","HOUSE_NO":"１０３之３號","E_COORD97":178669.26999999999,"N_COORD97":2574173.7999999998,"ADDRESS":"八老爺１０３之３號","OBJECTID":45904},"geometry":{"x":178669.27000000048,"y":2574173.8000000045}},{"attributes":{"ID":45905,"DIS_CODE":0,"TOWNNAME":"安南區","LI":"海佃里","LIN":"15鄰","STREET":"國安街","SECT":" ","MAREA":" ","LANE":"５６巷","ALLEY":"１４１弄","HOUSE_NO":"１０６號","E_COORD97":166683.94,"N_COORD97":2547444.7000000002,"ADDRESS":"國安街５６巷１４１弄１０６號","OBJECTID":45905},"geometry":{"x":166683.94000000134,"y":2547444.6999999993}},{"attributes":{"ID":45906,"DIS_CODE":0,"TOWNNAME":"柳營區","LI":"八翁里","LIN":"17鄰","STREET":" ","SECT":" ","MAREA":"八老爺","LANE":" ","ALLEY":" ","HOUSE_NO":"１０３之６號（農業資","E_COORD97":178541.89000000001,"N_COORD97":2574185.5499999998,"ADDRESS":"八老爺１０３之６號（農業資材室－不得設戶籍）","OBJECTID":45906},"geometry":{"x":178541.88999999966,"y":2574185.5500000045}},{"attributes":{"ID":45907,"DIS_CODE":0,"TOWNNAME":"柳營區","LI":"八翁里","LIN":"17鄰","STREET":" ","SECT":" ","MAREA":"八老爺","LANE":" ","ALLEY":" ","HOUSE_NO":"１０５之１號","E_COORD97":178839.31,"N_COORD97":2574247.48,"ADDRESS":"八老爺１０５之１號","OBJECTID":45907},"geometry":{"x":178839.30999999959,"y":2574247.4800000023}},{"attributes":{"ID":45908,"DIS_CODE":0,"TOWNNAME":"柳營區","LI":"八翁里","LIN":"17鄰","STREET":" ","SECT":" ","MAREA":"八老爺","LANE":" ","ALLEY":" ","HOUSE_NO":"１０５號","E_COORD97":178843.20999999999,"N_COORD97":2574235.8799999999,"ADDRESS":"八老爺１０５號","OBJECTID":45908},"geometry":{"x":178843.21000000089,"y":2574235.8800000027}},{"attributes":{"ID":45909,"DIS_CODE":0,"TOWNNAME":"柳營區","LI":"八翁里","LIN":"17鄰","STREET":" ","SECT":" ","MAREA":"八老爺","LANE":" ","ALLEY":" ","HOUSE_NO":"１０６之１０號","E_COORD97":179056.31,"N_COORD97":2574304.8999999999,"ADDRESS":"八老爺１０６之１０號","OBJECTID":45909},"geometry":{"x":179056.30999999959,"y":2574304.9000000041}},{"attributes":{"ID":45910,"DIS_CODE":0,"TOWNNAME":"柳營區","LI":"八翁里","LIN":"17鄰","STREET":" ","SECT":" ","MAREA":"八老爺","LANE":" ","ALLEY":" ","HOUSE_NO":"１０６號","E_COORD97":179093.82000000001,"N_COORD97":2574161.4300000002,"ADDRESS":"八老爺１０６號","OBJECTID":45910},"geometry":{"x":179093.8200000003,"y":2574161.4300000034}},{"attributes":{"ID":45911,"DIS_CODE":0,"TOWNNAME":"柳營區","LI":"八翁里","LIN":"17鄰","STREET":" ","SECT":" ","MAREA":"八老爺","LANE":" ","ALLEY":" ","HOUSE_NO":"１０９號","E_COORD97":178769.98999999999,"N_COORD97":2574446.5899999999,"ADDRESS":"八老爺１０９號","OBJECTID":45911},"geometry":{"x":178769.99000000115,"y":2574446.5900000017}},{"attributes":{"ID":45912,"DIS_CODE":0,"TOWNNAME":"安南區","LI":"海佃里","LIN":"15鄰","STREET":"國安街","SECT":" ","MAREA":" ","LANE":"５６巷","ALLEY":"１４１弄","HOUSE_NO":"１０號","E_COORD97":166891.88,"N_COORD97":2547481.6800000002,"ADDRESS":"國安街５６巷１４１弄１０號","OBJECTID":45912},"geometry":{"x":166891.88000000175,"y":2547481.6800000016}},{"attributes":{"ID":45913,"DIS_CODE":0,"TOWNNAME":"安南區","LI":"海佃里","LIN":"15鄰","STREET":"國安街","SECT":" ","MAREA":" ","LANE":"５６巷","ALLEY":"１４１弄","HOUSE_NO":"１２號","E_COORD97":166887.72,"N_COORD97":2547481.2999999998,"ADDRESS":"國安街５６巷１４１弄１２號","OBJECTID":45913},"geometry":{"x":166887.7200000016,"y":2547481.3000000045}},{"attributes":{"ID":45914,"DIS_CODE":0,"TOWNNAME":"安南區","LI":"海佃里","LIN":"15鄰","STREET":"國安街","SECT":" ","MAREA":" ","LANE":"５６巷","ALLEY":"１４１弄","HOUSE_NO":"１４號","E_COORD97":166883.54999999999,"N_COORD97":2547480.1600000001,"ADDRESS":"國安街５６巷１４１弄１４號","OBJECTID":45914},"geometry":{"x":166883.54999999981,"y":2547480.1600000001}},{"attributes":{"ID":45915,"DIS_CODE":0,"TOWNNAME":"楠西區","LI":"楠西里","LIN":"17鄰","STREET":"中正路","SECT":" ","MAREA":" ","LANE":" ","ALLEY":" ","HOUSE_NO":"９１號","E_COORD97":197252.10999999999,"N_COORD97":2563987.25,"ADDRESS":"中正路９１號","OBJECTID":45915},"geometry":{"x":197252.11000000127,"y":2563987.25}},{"attributes":{"ID":45916,"DIS_CODE":0,"TOWNNAME":"楠西區","LI":"東勢里","LIN":"17鄰","STREET":"信義路","SECT":" ","MAREA":" ","LANE":" ","ALLEY":" ","HOUSE_NO":"１５號","E_COORD97":197557.92000000001,"N_COORD97":2563426.27,"ADDRESS":"信義路１５號","OBJECTID":45916},"geometry":{"x":197557.92000000086,"y":2563426.2700000014}},{"attributes":{"ID":45917,"DIS_CODE":0,"TOWNNAME":"楠西區","LI":"東勢里","LIN":"17鄰","STREET":"信義路","SECT":" ","MAREA":" ","LANE":" ","ALLEY":" ","HOUSE_NO":"１０５號","E_COORD97":197616.87,"N_COORD97":2563633.27,"ADDRESS":"信義路１０５號","OBJECTID":45917},"geometry":{"x":197616.87000000011,"y":2563633.2700000014}},{"attributes":{"ID":45918,"DIS_CODE":0,"TOWNNAME":"安南區","LI":"海佃里","LIN":"15鄰","STREET":"國安街","SECT":" ","MAREA":" ","LANE":"５６巷","ALLEY":"１４１弄","HOUSE_NO":"１６號","E_COORD97":166879,"N_COORD97":2547480.1600000001,"ADDRESS":"國安街５６巷１４１弄１６號","OBJECTID":45918},"geometry":{"x":166879,"y":2547480.1600000001}},{"attributes":{"ID":45919,"DIS_CODE":0,"TOWNNAME":"安南區","LI":"海佃里","LIN":"15鄰","STREET":"國安街","SECT":" ","MAREA":" ","LANE":"５６巷","ALLEY":"１４１弄","HOUSE_NO":"１８號","E_COORD97":166875.20999999999,"N_COORD97":2547479.0299999998,"ADDRESS":"國安街５６巷１４１弄１８號","OBJECTID":45919},"geometry":{"x":166875.20999999996,"y":2547479.0300000012}},{"attributes":{"ID":45920,"DIS_CODE":0,"TOWNNAME":"安南區","LI":"海佃里","LIN":"15鄰","STREET":"國安街","SECT":" ","MAREA":" ","LANE":"５６巷","ALLEY":"１４１弄","HOUSE_NO":"２０號","E_COORD97":166871.42000000001,"N_COORD97":2547477.8900000001,"ADDRESS":"國安街５６巷１４１弄２０號","OBJECTID":45920},"geometry":{"x":166871.42000000086,"y":2547477.8900000025}},{"attributes":{"ID":45921,"DIS_CODE":0,"TOWNNAME":"安南區","LI":"海佃里","LIN":"15鄰","STREET":"國安街","SECT":" ","MAREA":" ","LANE":"５６巷","ALLEY":"１４１弄","HOUSE_NO":"２２號","E_COORD97":166866.87,"N_COORD97":2547477.1400000001,"ADDRESS":"國安街５６巷１４１弄２２號","OBJECTID":45921},"geometry":{"x":166866.87000000104,"y":2547477.1400000006}},{"attributes":{"ID":45922,"DIS_CODE":0,"TOWNNAME":"新營區","LI":"土庫里","LIN":"17鄰","STREET":" ","SECT":" ","MAREA":"卯舍","LANE":" ","ALLEY":" ","HOUSE_NO":"４１號","E_COORD97":181516.57000000001,"N_COORD97":2580068.4399999999,"ADDRESS":"卯舍４１號","OBJECTID":45922},"geometry":{"x":181516.5700000003,"y":2580068.4400000013}},{"attributes":{"ID":45923,"DIS_CODE":0,"TOWNNAME":"學甲區","LI":"豐和里","LIN":"15鄰","STREET":" ","SECT":" ","MAREA":"美豐","LANE":" ","ALLEY":" ","HOUSE_NO":"１２５號之２７","E_COORD97":167619.42000000001,"N_COORD97":2568450.6699999999,"ADDRESS":"美豐１２５號之２７","OBJECTID":45923},"geometry":{"x":167619.42000000086,"y":2568450.6700000037}},{"attributes":{"ID":45924,"DIS_CODE":0,"TOWNNAME":"學甲區","LI":"豐和里","LIN":"15鄰","STREET":" ","SECT":" ","MAREA":"美豐","LANE":" ","ALLEY":" ","HOUSE_NO":"１２５號","E_COORD97":167842.88,"N_COORD97":2568531.8900000001,"ADDRESS":"美豐１２５號","OBJECTID":45924},"geometry":{"x":167842.88000000175,"y":2568531.8900000025}},{"attributes":{"ID":45925,"DIS_CODE":0,"TOWNNAME":"學甲區","LI":"豐和里","LIN":"15鄰","STREET":" ","SECT":" ","MAREA":"美豐","LANE":" ","ALLEY":" ","HOUSE_NO":"１２６號之１","E_COORD97":167807.51000000001,"N_COORD97":2568574.48,"ADDRESS":"美豐１２６號之１","OBJECTID":45925},"geometry":{"x":167807.50999999978,"y":2568574.4800000042}},{"attributes":{"ID":45926,"DIS_CODE":0,"TOWNNAME":"學甲區","LI":"豐和里","LIN":"15鄰","STREET":" ","SECT":" ","MAREA":"美豐","LANE":" ","ALLEY":" ","HOUSE_NO":"１２６號之２","E_COORD97":167819.38,"N_COORD97":2568594.54,"ADDRESS":"美豐１２６號之２","OBJECTID":45926},"geometry":{"x":167819.38000000082,"y":2568594.540000001}},{"attributes":{"ID":45927,"DIS_CODE":0,"TOWNNAME":"安南區","LI":"海佃里","LIN":"15鄰","STREET":"國安街","SECT":" ","MAREA":" ","LANE":"５６巷","ALLEY":"１４１弄","HOUSE_NO":"２４號","E_COORD97":166862.32000000001,"N_COORD97":2547477.8900000001,"ADDRESS":"國安街５６巷１４１弄２４號","OBJECTID":45927},"geometry":{"x":166862.32000000123,"y":2547477.8900000025}},{"attributes":{"ID":45928,"DIS_CODE":0,"TOWNNAME":"學甲區","LI":"豐和里","LIN":"15鄰","STREET":" ","SECT":" ","MAREA":"美豐","LANE":" ","ALLEY":" ","HOUSE_NO":"１２６號之３","E_COORD97":167853.37,"N_COORD97":2568563.7400000002,"ADDRESS":"美豐１２６號之３","OBJECTID":45928},"geometry":{"x":167853.37000000104,"y":2568563.7400000021}},{"attributes":{"ID":45929,"DIS_CODE":0,"TOWNNAME":"七股區","LI":"篤加里","LIN":"1鄰","STREET":" ","SECT":" ","MAREA":"篤加","LANE":" ","ALLEY":" ","HOUSE_NO":"１號之１","E_COORD97":161270.89999999999,"N_COORD97":2562165.9900000002,"ADDRESS":"篤加１號之１","OBJECTID":45929},"geometry":{"x":161270.90000000224,"y":2562165.9900000002}},{"attributes":{"ID":45930,"DIS_CODE":0,"TOWNNAME":"新營區","LI":"王公里","LIN":"17鄰","STREET":"大智街","SECT":" ","MAREA":" ","LANE":" ","ALLEY":" ","HOUSE_NO":"３３號","E_COORD97":180244.85999999999,"N_COORD97":2579324.6200000001,"ADDRESS":"大智街３３號","OBJECTID":45930},"geometry":{"x":180244.86000000034,"y":2579324.620000001}},{"attributes":{"ID":45931,"DIS_CODE":0,"TOWNNAME":"學甲區","LI":"豐和里","LIN":"15鄰","STREET":" ","SECT":" ","MAREA":"美豐","LANE":" ","ALLEY":" ","HOUSE_NO":"１２６號之５","E_COORD97":167775.12,"N_COORD97":2568687.7400000002,"ADDRESS":"美豐１２６號之５","OBJECTID":45931},"geometry":{"x":167775.11999999918,"y":2568687.7400000039}},{"attributes":{"ID":45932,"DIS_CODE":0,"TOWNNAME":"學甲區","LI":"豐和里","LIN":"15鄰","STREET":" ","SECT":" ","MAREA":"美豐","LANE":" ","ALLEY":" ","HOUSE_NO":"１２６號","E_COORD97":167840.85999999999,"N_COORD97":2568564.5099999998,"ADDRESS":"美豐１２６號","OBJECTID":45932},"geometry":{"x":167840.86000000034,"y":2568564.5100000016}},{"attributes":{"ID":45933,"DIS_CODE":0,"TOWNNAME":"學甲區","LI":"新達里","LIN":"15鄰","STREET":" ","SECT":" ","MAREA":"頂山寮","LANE":" ","ALLEY":" ","HOUSE_NO":"２６號","E_COORD97":167719.70999999999,"N_COORD97":2571096.6699999999,"ADDRESS":"頂山寮２６號","OBJECTID":45933},"geometry":{"x":167719.70999999996,"y":2571096.6700000018}},{"attributes":{"ID":45934,"DIS_CODE":0,"TOWNNAME":"新營區","LI":"民權里","LIN":"17鄰","STREET":"文化街","SECT":" ","MAREA":" ","LANE":" ","ALLEY":" ","HOUSE_NO":"２９號","E_COORD97":179792.07000000001,"N_COORD97":2578098.6000000001,"ADDRESS":"文化街２９號","OBJECTID":45934},"geometry":{"x":179792.07000000123,"y":2578098.5999999996}},{"attributes":{"ID":45935,"DIS_CODE":0,"TOWNNAME":"學甲區","LI":"新達里","LIN":"15鄰","STREET":" ","SECT":" ","MAREA":"頂山寮","LANE":" ","ALLEY":" ","HOUSE_NO":"２７號","E_COORD97":167687.76000000001,"N_COORD97":2570955.23,"ADDRESS":"頂山寮２７號","OBJECTID":45935},"geometry":{"x":167687.76000000071,"y":2570955.2300000004}},{"attributes":{"ID":45936,"DIS_CODE":0,"TOWNNAME":"學甲區","LI":"新達里","LIN":"15鄰","STREET":" ","SECT":" ","MAREA":"頂山寮","LANE":" ","ALLEY":" ","HOUSE_NO":"２８號","E_COORD97":167711.32999999999,"N_COORD97":2571072.4100000001,"ADDRESS":"頂山寮２８號","OBJECTID":45936},"geometry":{"x":167711.33000000101,"y":2571072.4100000001}},{"attributes":{"ID":45937,"DIS_CODE":0,"TOWNNAME":"學甲區","LI":"新達里","LIN":"15鄰","STREET":" ","SECT":" ","MAREA":"頂山寮","LANE":" ","ALLEY":" ","HOUSE_NO":"２９號","E_COORD97":167733.23000000001,"N_COORD97":2571045.77,"ADDRESS":"頂山寮２９號","OBJECTID":45937},"geometry":{"x":167733.23000000138,"y":2571045.7699999996}},{"attributes":{"ID":45938,"DIS_CODE":0,"TOWNNAME":"新營區","LI":"新北里","LIN":"17鄰","STREET":"南新街","SECT":" ","MAREA":" ","LANE":" ","ALLEY":" ","HOUSE_NO":"９３號","E_COORD97":179202.39999999999,"N_COORD97":2578874.4100000001,"ADDRESS":"南新街９３號","OBJECTID":45938},"geometry":{"x":179202.40000000037,"y":2578874.4100000001}},{"attributes":{"ID":45939,"DIS_CODE":0,"TOWNNAME":"學甲區","LI":"新達里","LIN":"15鄰","STREET":" ","SECT":" ","MAREA":"頂山寮","LANE":" ","ALLEY":" ","HOUSE_NO":"３３號","E_COORD97":167702.51999999999,"N_COORD97":2571002.5299999998,"ADDRESS":"頂山寮３３號","OBJECTID":45939},"geometry":{"x":167702.52000000142,"y":2571002.5299999993}},{"attributes":{"ID":45940,"DIS_CODE":0,"TOWNNAME":"柳營區","LI":"八翁里","LIN":"15鄰","STREET":" ","SECT":" ","MAREA":"八老爺","LANE":" ","ALLEY":" ","HOUSE_NO":"１２２之１號","E_COORD97":177791.91,"N_COORD97":2573942.6299999999,"ADDRESS":"八老爺１２２之１號","OBJECTID":45940},"geometry":{"x":177791.91000000201,"y":2573942.6300000008}},{"attributes":{"ID":45941,"DIS_CODE":0,"TOWNNAME":"柳營區","LI":"八翁里","LIN":"15鄰","STREET":" ","SECT":" ","MAREA":"八老爺","LANE":" ","ALLEY":" ","HOUSE_NO":"１２２號之１","E_COORD97":177791.91,"N_COORD97":2573942.6299999999,"ADDRESS":"八老爺１２２號之１","OBJECTID":45941},"geometry":{"x":177791.91000000201,"y":2573942.6300000008}},{"attributes":{"ID":45942,"DIS_CODE":0,"TOWNNAME":"柳營區","LI":"八翁里","LIN":"15鄰","STREET":" ","SECT":" ","MAREA":"八老爺","LANE":" ","ALLEY":" ","HOUSE_NO":"１２２之２號","E_COORD97":177809.60999999999,"N_COORD97":2573957.9700000002,"ADDRESS":"八老爺１２２之２號","OBJECTID":45942},"geometry":{"x":177809.61000000127,"y":2573957.9700000007}},{"attributes":{"ID":45943,"DIS_CODE":0,"TOWNNAME":"柳營區","LI":"八翁里","LIN":"15鄰","STREET":" ","SECT":" ","MAREA":"八老爺","LANE":" ","ALLEY":" ","HOUSE_NO":"１２２號","E_COORD97":177803.67000000001,"N_COORD97":2573958.25,"ADDRESS":"八老爺１２２號","OBJECTID":45943},"geometry":{"x":177803.67000000086,"y":2573958.25}},{"attributes":{"ID":45944,"DIS_CODE":0,"TOWNNAME":"柳營區","LI":"八翁里","LIN":"15鄰","STREET":" ","SECT":" ","MAREA":"八老爺","LANE":" ","ALLEY":" ","HOUSE_NO":"１３３號之５","E_COORD97":177534.06,"N_COORD97":2573609.6400000001,"ADDRESS":"八老爺１３３號之５","OBJECTID":45944},"geometry":{"x":177534.05999999959,"y":2573609.6400000025}},{"attributes":{"ID":45945,"DIS_CODE":0,"TOWNNAME":"柳營區","LI":"八翁里","LIN":"15鄰","STREET":" ","SECT":" ","MAREA":"八老爺","LANE":" ","ALLEY":" ","HOUSE_NO":"１３３之６號","E_COORD97":177604.04000000001,"N_COORD97":2573850.2400000002,"ADDRESS":"八老爺１３３之６號","OBJECTID":45945},"geometry":{"x":177604.04000000004,"y":2573850.2400000002}},{"attributes":{"ID":45946,"DIS_CODE":0,"TOWNNAME":"柳營區","LI":"八翁里","LIN":"15鄰","STREET":" ","SECT":" ","MAREA":"八老爺","LANE":" ","ALLEY":" ","HOUSE_NO":"１３３號之６","E_COORD97":177604.04000000001,"N_COORD97":2573850.2400000002,"ADDRESS":"八老爺１３３號之６","OBJECTID":45946},"geometry":{"x":177604.04000000004,"y":2573850.2400000002}},{"attributes":{"ID":45947,"DIS_CODE":0,"TOWNNAME":"新營區","LI":"民榮里","LIN":"17鄰","STREET":"裕民路","SECT":" ","MAREA":" ","LANE":" ","ALLEY":" ","HOUSE_NO":"６６號","E_COORD97":179132.81,"N_COORD97":2577788.3300000001,"ADDRESS":"裕民路６６號","OBJECTID":45947},"geometry":{"x":179132.81000000145,"y":2577788.3300000019}},{"attributes":{"ID":45948,"DIS_CODE":0,"TOWNNAME":"新營區","LI":"民榮里","LIN":"17鄰","STREET":"新榮四街","SECT":" ","MAREA":" ","LANE":" ","ALLEY":" ","HOUSE_NO":"１０２號","E_COORD97":178526.54999999999,"N_COORD97":2577599.6600000001,"ADDRESS":"新榮四街１０２號","OBJECTID":45948},"geometry":{"x":178526.55000000075,"y":2577599.660000002}},{"attributes":{"ID":45949,"DIS_CODE":0,"TOWNNAME":"新營區","LI":"新東里","LIN":"17鄰","STREET":"東興四街","SECT":" ","MAREA":" ","LANE":" ","ALLEY":" ","HOUSE_NO":"６４號","E_COORD97":180973.20000000001,"N_COORD97":2579144.0299999998,"ADDRESS":"東興四街６４號","OBJECTID":45949},"geometry":{"x":180973.20000000019,"y":2579144.0299999975}},{"attributes":{"ID":45950,"DIS_CODE":0,"TOWNNAME":"新營區","LI":"新東里","LIN":"17鄰","STREET":"東興四街","SECT":" ","MAREA":" ","LANE":" ","ALLEY":" ","HOUSE_NO":"４６號","E_COORD97":180944.73999999999,"N_COORD97":2579167.4100000001,"ADDRESS":"東興四街４６號","OBJECTID":45950},"geometry":{"x":180944.74000000115,"y":2579167.410000002}},{"attributes":{"ID":45951,"DIS_CODE":0,"TOWNNAME":"新營區","LI":"土庫里","LIN":"17鄰","STREET":" ","SECT":" ","MAREA":"卯舍","LANE":" ","ALLEY":" ","HOUSE_NO":"１４之５號","E_COORD97":181647.29999999999,"N_COORD97":2580170.8799999999,"ADDRESS":"卯舍１４之５號","OBJECTID":45951},"geometry":{"x":181647.30000000075,"y":2580170.879999999}},{"attributes":{"ID":45952,"DIS_CODE":0,"TOWNNAME":"七股區","LI":"城內里","LIN":"1鄰","STREET":" ","SECT":" ","MAREA":"城內","LANE":" ","ALLEY":" ","HOUSE_NO":"７號","E_COORD97":162321.79000000001,"N_COORD97":2564267.1800000002,"ADDRESS":"城內７號","OBJECTID":45952},"geometry":{"x":162321.79000000004,"y":2564267.1800000016}},{"attributes":{"ID":45953,"DIS_CODE":0,"TOWNNAME":"安南區","LI":"海佃里","LIN":"15鄰","STREET":"國安街","SECT":" ","MAREA":" ","LANE":"５６巷","ALLEY":"１４１弄","HOUSE_NO":"２６號","E_COORD97":166857.76999999999,"N_COORD97":2547476,"ADDRESS":"國安街５６巷１４１弄２６號","OBJECTID":45953},"geometry":{"x":166857.76999999955,"y":2547476.0000000019}},{"attributes":{"ID":45954,"DIS_CODE":0,"TOWNNAME":"安南區","LI":"海佃里","LIN":"15鄰","STREET":"國安街","SECT":" ","MAREA":" ","LANE":"５６巷","ALLEY":"１４１弄","HOUSE_NO":"２８號","E_COORD97":166854.35999999999,"N_COORD97":2547474.4900000002,"ADDRESS":"國安街５６巷１４１弄２８號","OBJECTID":45954},"geometry":{"x":166854.36000000034,"y":2547474.4900000002}},{"attributes":{"ID":45955,"DIS_CODE":0,"TOWNNAME":"安南區","LI":"海佃里","LIN":"15鄰","STREET":"國安街","SECT":" ","MAREA":" ","LANE":"５６巷","ALLEY":"１４１弄","HOUSE_NO":"２號","E_COORD97":166908.94,"N_COORD97":2547482.8199999998,"ADDRESS":"國安街５６巷１４１弄２號","OBJECTID":45955},"geometry":{"x":166908.94000000227,"y":2547482.8200000003}},{"attributes":{"ID":45956,"DIS_CODE":0,"TOWNNAME":"安南區","LI":"海佃里","LIN":"15鄰","STREET":"國安街","SECT":" ","MAREA":" ","LANE":"５６巷","ALLEY":"１４１弄","HOUSE_NO":"３０號","E_COORD97":166850.19,"N_COORD97":2547474.1099999999,"ADDRESS":"國安街５６巷１４１弄３０號","OBJECTID":45956},"geometry":{"x":166850.19000000134,"y":2547474.1099999975}},{"attributes":{"ID":45957,"DIS_CODE":0,"TOWNNAME":"柳營區","LI":"八翁里","LIN":"15鄰","STREET":" ","SECT":" ","MAREA":"八老爺","LANE":" ","ALLEY":" ","HOUSE_NO":"９３之９０號","E_COORD97":177710.06,"N_COORD97":2573940.2799999998,"ADDRESS":"八老爺９３之９０號","OBJECTID":45957},"geometry":{"x":177710.05999999959,"y":2573940.2799999993}},{"attributes":{"ID":45958,"DIS_CODE":0,"TOWNNAME":"安南區","LI":"海佃里","LIN":"15鄰","STREET":"國安街","SECT":" ","MAREA":" ","LANE":"５６巷","ALLEY":"１４１弄","HOUSE_NO":"３２號","E_COORD97":166846.78,"N_COORD97":2547473.73,"ADDRESS":"國安街５６巷１４１弄３２號","OBJECTID":45958},"geometry":{"x":166846.78000000026,"y":2547473.7300000004}},{"attributes":{"ID":45959,"DIS_CODE":0,"TOWNNAME":"新營區","LI":"土庫里","LIN":"17鄰","STREET":" ","SECT":" ","MAREA":"卯舍","LANE":" ","ALLEY":" ","HOUSE_NO":"２６號","E_COORD97":181446.03,"N_COORD97":2580077.6200000001,"ADDRESS":"卯舍２６號","OBJECTID":45959},"geometry":{"x":181446.03000000212,"y":2580077.6199999992}},{"attributes":{"ID":45960,"DIS_CODE":0,"TOWNNAME":"柳營區","LI":"八翁里","LIN":"15鄰","STREET":" ","SECT":" ","MAREA":"八老爺","LANE":" ","ALLEY":" ","HOUSE_NO":"１３３號","E_COORD97":177506.81,"N_COORD97":2573645.4700000002,"ADDRESS":"八老爺１３３號","OBJECTID":45960},"geometry":{"x":177506.80999999959,"y":2573645.4700000007}},{"attributes":{"ID":45961,"DIS_CODE":0,"TOWNNAME":"柳營區","LI":"八翁里","LIN":"15鄰","STREET":" ","SECT":" ","MAREA":"八老爺","LANE":" ","ALLEY":" ","HOUSE_NO":"１３５號","E_COORD97":177141.42000000001,"N_COORD97":2573691.1200000001,"ADDRESS":"八老爺１３５號","OBJECTID":45961},"geometry":{"x":177141.42000000086,"y":2573691.1200000029}},{"attributes":{"ID":45962,"DIS_CODE":0,"TOWNNAME":"柳營區","LI":"八翁里","LIN":"15鄰","STREET":" ","SECT":" ","MAREA":"八老爺","LANE":" ","ALLEY":" ","HOUSE_NO":"１４０號","E_COORD97":177352.95999999999,"N_COORD97":2574410.46,"ADDRESS":"八老爺１４０號","OBJECTID":45962},"geometry":{"x":177352.96000000089,"y":2574410.4600000028}},{"attributes":{"ID":45963,"DIS_CODE":0,"TOWNNAME":"柳營區","LI":"八翁里","LIN":"15鄰","STREET":" ","SECT":" ","MAREA":"八老爺","LANE":" ","ALLEY":" ","HOUSE_NO":"９３之１３２號","E_COORD97":177533.92999999999,"N_COORD97":2573636.4300000002,"ADDRESS":"八老爺９３之１３２號","OBJECTID":45963},"geometry":{"x":177533.93000000063,"y":2573636.4300000016}},{"attributes":{"ID":45964,"DIS_CODE":0,"TOWNNAME":"柳營區","LI":"八翁里","LIN":"15鄰","STREET":" ","SECT":" ","MAREA":"八老爺","LANE":" ","ALLEY":" ","HOUSE_NO":"９３之１３４號","E_COORD97":177561.04000000001,"N_COORD97":2573655.4700000002,"ADDRESS":"八老爺９３之１３４號","OBJECTID":45964},"geometry":{"x":177561.04000000097,"y":2573655.4700000007}},{"attributes":{"ID":45965,"DIS_CODE":0,"TOWNNAME":"柳營區","LI":"八翁里","LIN":"15鄰","STREET":" ","SECT":" ","MAREA":"八老爺","LANE":" ","ALLEY":" ","HOUSE_NO":"９３號之１３４","E_COORD97":177561.04000000001,"N_COORD97":2573655.4700000002,"ADDRESS":"八老爺９３號之１３４","OBJECTID":45965},"geometry":{"x":177561.04000000097,"y":2573655.4700000007}},{"attributes":{"ID":45966,"DIS_CODE":0,"TOWNNAME":"柳營區","LI":"八翁里","LIN":"15鄰","STREET":" ","SECT":" ","MAREA":"八老爺","LANE":" ","ALLEY":" ","HOUSE_NO":"９３之１３８號","E_COORD97":177894.92999999999,"N_COORD97":2574135.5800000001,"ADDRESS":"八老爺９３之１３８號","OBJECTID":45966},"geometry":{"x":177894.93000000063,"y":2574135.5800000001}},{"attributes":{"ID":45967,"DIS_CODE":0,"TOWNNAME":"柳營區","LI":"八翁里","LIN":"15鄰","STREET":" ","SECT":" ","MAREA":"八老爺","LANE":" ","ALLEY":" ","HOUSE_NO":"９３之１３號","E_COORD97":178058.29999999999,"N_COORD97":2574195.9500000002,"ADDRESS":"八老爺９３之１３號","OBJECTID":45967},"geometry":{"x":178058.29999999888,"y":2574195.9500000011}},{"attributes":{"ID":45968,"DIS_CODE":0,"TOWNNAME":"柳營區","LI":"八翁里","LIN":"15鄰","STREET":" ","SECT":" ","MAREA":"八老爺","LANE":" ","ALLEY":" ","HOUSE_NO":"９３之１７號","E_COORD97":177821.89000000001,"N_COORD97":2573952.0099999998,"ADDRESS":"八老爺９３之１７號","OBJECTID":45968},"geometry":{"x":177821.88999999966,"y":2573952.0100000016}},{"attributes":{"ID":45969,"DIS_CODE":0,"TOWNNAME":"柳營區","LI":"八翁里","LIN":"15鄰","STREET":" ","SECT":" ","MAREA":"八老爺","LANE":" ","ALLEY":" ","HOUSE_NO":"９３之１９號","E_COORD97":177895.39000000001,"N_COORD97":2573964.1099999999,"ADDRESS":"八老爺９３之１９號","OBJECTID":45969},"geometry":{"x":177895.3900000006,"y":2573964.1100000013}},{"attributes":{"ID":45970,"DIS_CODE":0,"TOWNNAME":"柳營區","LI":"八翁里","LIN":"15鄰","STREET":" ","SECT":" ","MAREA":"八老爺","LANE":" ","ALLEY":" ","HOUSE_NO":"９３之２５號","E_COORD97":177526.23000000001,"N_COORD97":2573691.4700000002,"ADDRESS":"八老爺９３之２５號","OBJECTID":45970},"geometry":{"x":177526.23000000138,"y":2573691.4700000025}},{"attributes":{"ID":45971,"DIS_CODE":0,"TOWNNAME":"柳營區","LI":"八翁里","LIN":"15鄰","STREET":" ","SECT":" ","MAREA":"八老爺","LANE":" ","ALLEY":" ","HOUSE_NO":"９３號之２６","E_COORD97":177630.84,"N_COORD97":2573681.9199999999,"ADDRESS":"八老爺９３號之２６","OBJECTID":45971},"geometry":{"x":177630.83999999985,"y":2573681.9200000018}},{"attributes":{"ID":45972,"DIS_CODE":0,"TOWNNAME":"安南區","LI":"海佃里","LIN":"15鄰","STREET":"國安街","SECT":" ","MAREA":" ","LANE":"５６巷","ALLEY":"１４１弄","HOUSE_NO":"３４號","E_COORD97":166841.85000000001,"N_COORD97":2547472.9700000002,"ADDRESS":"國安街５６巷１４１弄３４號","OBJECTID":45972},"geometry":{"x":166841.84999999963,"y":2547472.9699999988}},{"attributes":{"ID":45973,"DIS_CODE":0,"TOWNNAME":"安南區","LI":"海佃里","LIN":"15鄰","STREET":"國安街","SECT":" ","MAREA":" ","LANE":"５６巷","ALLEY":"１４１弄","HOUSE_NO":"３６號","E_COORD97":166836.92000000001,"N_COORD97":2547471.8399999999,"ADDRESS":"國安街５６巷１４１弄３６號","OBJECTID":45973},"geometry":{"x":166836.91999999993,"y":2547471.8399999999}},{"attributes":{"ID":45974,"DIS_CODE":0,"TOWNNAME":"新營區","LI":"民榮里","LIN":"17鄰","STREET":"富強街","SECT":" ","MAREA":" ","LANE":" ","ALLEY":" ","HOUSE_NO":"６１之８號","E_COORD97":178879.03,"N_COORD97":2577887.0600000001,"ADDRESS":"富強街６１之８號","OBJECTID":45974},"geometry":{"x":178879.03000000026,"y":2577887.0600000005}},{"attributes":{"ID":45975,"DIS_CODE":0,"TOWNNAME":"新營區","LI":"民榮里","LIN":"17鄰","STREET":"富強街","SECT":" ","MAREA":" ","LANE":" ","ALLEY":" ","HOUSE_NO":"５５號","E_COORD97":178914.19,"N_COORD97":2577845.8599999999,"ADDRESS":"富強街５５號","OBJECTID":45975},"geometry":{"x":178914.19000000227,"y":2577845.8599999994}},{"attributes":{"ID":45976,"DIS_CODE":0,"TOWNNAME":"新營區","LI":"大宏里","LIN":"17鄰","STREET":"三民路","SECT":" ","MAREA":" ","LANE":" ","ALLEY":" ","HOUSE_NO":"４６之５９號","E_COORD97":180346.14999999999,"N_COORD97":2578536.8199999998,"ADDRESS":"三民路４６之５９號","OBJECTID":45976},"geometry":{"x":180346.15000000037,"y":2578536.8200000022}},{"attributes":{"ID":45977,"DIS_CODE":0,"TOWNNAME":"新營區","LI":"民榮里","LIN":"17鄰","STREET":"富強街","SECT":" ","MAREA":" ","LANE":" ","ALLEY":" ","HOUSE_NO":"５１之２號","E_COORD97":178913.5,"N_COORD97":2577822.6699999999,"ADDRESS":"富強街５１之２號","OBJECTID":45977},"geometry":{"x":178913.50000000093,"y":2577822.6700000018}},{"attributes":{"ID":45978,"DIS_CODE":0,"TOWNNAME":"新營區","LI":"民榮里","LIN":"17鄰","STREET":"富強街","SECT":" ","MAREA":" ","LANE":" ","ALLEY":" ","HOUSE_NO":"２０號","E_COORD97":178975.48000000001,"N_COORD97":2577817.8799999999,"ADDRESS":"富強街２０號","OBJECTID":45978},"geometry":{"x":178975.48000000138,"y":2577817.879999999}},{"attributes":{"ID":45979,"DIS_CODE":0,"TOWNNAME":"新營區","LI":"南興里","LIN":"17鄰","STREET":"建業路","SECT":" ","MAREA":" ","LANE":" ","ALLEY":" ","HOUSE_NO":"１２４號","E_COORD97":179190.95000000001,"N_COORD97":2577493.48,"ADDRESS":"建業路１２４號","OBJECTID":45979},"geometry":{"x":179190.95000000112,"y":2577493.4800000004}},{"attributes":{"ID":45980,"DIS_CODE":0,"TOWNNAME":"新營區","LI":"民榮里","LIN":"17鄰","STREET":"富強街","SECT":" ","MAREA":" ","LANE":" ","ALLEY":" ","HOUSE_NO":"４７號","E_COORD97":178931.56,"N_COORD97":2577830.27,"ADDRESS":"富強街４７號","OBJECTID":45980},"geometry":{"x":178931.56000000052,"y":2577830.2699999996}},{"attributes":{"ID":45981,"DIS_CODE":0,"TOWNNAME":"新營區","LI":"民榮里","LIN":"17鄰","STREET":"裕民路","SECT":" ","MAREA":" ","LANE":" ","ALLEY":" ","HOUSE_NO":"７０號","E_COORD97":179132.78,"N_COORD97":2577779.4700000002,"ADDRESS":"裕民路７０號","OBJECTID":45981},"geometry":{"x":179132.78000000119,"y":2577779.4700000007}},{"attributes":{"ID":45982,"DIS_CODE":0,"TOWNNAME":"新營區","LI":"太北里","LIN":"17鄰","STREET":"忠孝路","SECT":" ","MAREA":" ","LANE":" ","ALLEY":" ","HOUSE_NO":"７０號","E_COORD97":175704.07999999999,"N_COORD97":2578004.48,"ADDRESS":"忠孝路７０號","OBJECTID":45982},"geometry":{"x":175704.08000000101,"y":2578004.4800000023}},{"attributes":{"ID":45983,"DIS_CODE":0,"TOWNNAME":"柳營區","LI":"八翁里","LIN":"15鄰","STREET":" ","SECT":" ","MAREA":"八老爺","LANE":" ","ALLEY":" ","HOUSE_NO":"９３之２９號","E_COORD97":177973.35000000001,"N_COORD97":2574164.7200000002,"ADDRESS":"八老爺９３之２９號","OBJECTID":45983},"geometry":{"x":177973.35000000056,"y":2574164.7200000025}},{"attributes":{"ID":45984,"DIS_CODE":0,"TOWNNAME":"柳營區","LI":"八翁里","LIN":"15鄰","STREET":" ","SECT":" ","MAREA":"八老爺","LANE":" ","ALLEY":" ","HOUSE_NO":"９３號之３０","E_COORD97":178098.42000000001,"N_COORD97":2574150.5600000001,"ADDRESS":"八老爺９３號之３０","OBJECTID":45984},"geometry":{"x":178098.42000000179,"y":2574150.5600000005}},{"attributes":{"ID":45985,"DIS_CODE":0,"TOWNNAME":"柳營區","LI":"八翁里","LIN":"15鄰","STREET":" ","SECT":" ","MAREA":"八老爺","LANE":" ","ALLEY":" ","HOUSE_NO":"９３之３１號","E_COORD97":177968.48999999999,"N_COORD97":2574163.8199999998,"ADDRESS":"八老爺９３之３１號","OBJECTID":45985},"geometry":{"x":177968.49000000115,"y":2574163.8200000022}},{"attributes":{"ID":45986,"DIS_CODE":0,"TOWNNAME":"柳營區","LI":"八翁里","LIN":"15鄰","STREET":" ","SECT":" ","MAREA":"八老爺","LANE":" ","ALLEY":" ","HOUSE_NO":"９３之４２號","E_COORD97":179040.53,"N_COORD97":2573991.8100000001,"ADDRESS":"八老爺９３之４２號","OBJECTID":45986},"geometry":{"x":179040.53000000212,"y":2573991.8100000024}},{"attributes":{"ID":45987,"DIS_CODE":0,"TOWNNAME":"柳營區","LI":"八翁里","LIN":"15鄰","STREET":" ","SECT":" ","MAREA":"八老爺","LANE":" ","ALLEY":" ","HOUSE_NO":"９３之５０號","E_COORD97":178012.79999999999,"N_COORD97":2574154.02,"ADDRESS":"八老爺９３之５０號","OBJECTID":45987},"geometry":{"x":178012.80000000075,"y":2574154.0200000033}},{"attributes":{"ID":45988,"DIS_CODE":0,"TOWNNAME":"柳營區","LI":"八翁里","LIN":"15鄰","STREET":" ","SECT":" ","MAREA":"八老爺","LANE":" ","ALLEY":" ","HOUSE_NO":"９３之６３號","E_COORD97":178196.25,"N_COORD97":2573933.3999999999,"ADDRESS":"八老爺９３之６３號","OBJECTID":45988},"geometry":{"x":178196.25000000186,"y":2573933.4000000022}},{"attributes":{"ID":45989,"DIS_CODE":0,"TOWNNAME":"柳營區","LI":"八翁里","LIN":"15鄰","STREET":" ","SECT":" ","MAREA":"八老爺","LANE":" ","ALLEY":" ","HOUSE_NO":"９３之６５號","E_COORD97":178204.45000000001,"N_COORD97":2573891.0800000001,"ADDRESS":"八老爺９３之６５號","OBJECTID":45989},"geometry":{"x":178204.45000000019,"y":2573891.0800000019}},{"attributes":{"ID":45990,"DIS_CODE":0,"TOWNNAME":"柳營區","LI":"八翁里","LIN":"15鄰","STREET":" ","SECT":" ","MAREA":"八老爺","LANE":" ","ALLEY":" ","HOUSE_NO":"９３號之６５","E_COORD97":178204.45000000001,"N_COORD97":2573891.0800000001,"ADDRESS":"八老爺９３號之６５","OBJECTID":45990},"geometry":{"x":178204.45000000019,"y":2573891.0800000019}},{"attributes":{"ID":45991,"DIS_CODE":0,"TOWNNAME":"柳營區","LI":"八翁里","LIN":"15鄰","STREET":" ","SECT":" ","MAREA":"八老爺","LANE":" ","ALLEY":" ","HOUSE_NO":"９３號之９０","E_COORD97":177710.06,"N_COORD97":2573940.2799999998,"ADDRESS":"八老爺９３號之９０","OBJECTID":45991},"geometry":{"x":177710.05999999959,"y":2573940.2799999993}},{"attributes":{"ID":45992,"DIS_CODE":0,"TOWNNAME":"柳營區","LI":"八翁里","LIN":"15鄰","STREET":" ","SECT":" ","MAREA":"八老爺","LANE":" ","ALLEY":" ","HOUSE_NO":"９３之９４號","E_COORD97":177713.73000000001,"N_COORD97":2573911.2999999998,"ADDRESS":"八老爺９３之９４號","OBJECTID":45992},"geometry":{"x":177713.73000000231,"y":2573911.3000000007}},{"attributes":{"ID":45993,"DIS_CODE":0,"TOWNNAME":"柳營區","LI":"八翁里","LIN":"15鄰","STREET":" ","SECT":" ","MAREA":"八老爺","LANE":" ","ALLEY":" ","HOUSE_NO":"９３號之９４","E_COORD97":177713.73000000001,"N_COORD97":2573911.2999999998,"ADDRESS":"八老爺９３號之９４","OBJECTID":45993},"geometry":{"x":177713.73000000231,"y":2573911.3000000007}},{"attributes":{"ID":45994,"DIS_CODE":0,"TOWNNAME":"學甲區","LI":"宅港里","LIN":"15鄰","STREET":" ","SECT":" ","MAREA":"德安寮","LANE":" ","ALLEY":" ","HOUSE_NO":"１０號之２","E_COORD97":167188.22,"N_COORD97":2572147.8399999999,"ADDRESS":"德安寮１０號之２","OBJECTID":45994},"geometry":{"x":167188.22000000067,"y":2572147.8399999999}},{"attributes":{"ID":45995,"DIS_CODE":0,"TOWNNAME":"學甲區","LI":"宅港里","LIN":"15鄰","STREET":" ","SECT":" ","MAREA":"德安寮","LANE":" ","ALLEY":" ","HOUSE_NO":"１０號之３","E_COORD97":167188.91,"N_COORD97":2572152.1800000002,"ADDRESS":"德安寮１０號之３","OBJECTID":45995},"geometry":{"x":167188.91000000108,"y":2572152.1799999997}},{"attributes":{"ID":45996,"DIS_CODE":0,"TOWNNAME":"學甲區","LI":"宅港里","LIN":"15鄰","STREET":" ","SECT":" ","MAREA":"德安寮","LANE":" ","ALLEY":" ","HOUSE_NO":"１０號","E_COORD97":167186.84,"N_COORD97":2572139.1699999999,"ADDRESS":"德安寮１０號","OBJECTID":45996},"geometry":{"x":167186.83999999892,"y":2572139.1699999981}},{"attributes":{"ID":45997,"DIS_CODE":0,"TOWNNAME":"學甲區","LI":"宅港里","LIN":"15鄰","STREET":" ","SECT":" ","MAREA":"德安寮","LANE":" ","ALLEY":" ","HOUSE_NO":"１１號之１","E_COORD97":167202.04999999999,"N_COORD97":2572145.6200000001,"ADDRESS":"德安寮１１號之１","OBJECTID":45997},"geometry":{"x":167202.04999999981,"y":2572145.6200000029}},{"attributes":{"ID":45998,"DIS_CODE":0,"TOWNNAME":"學甲區","LI":"宅港里","LIN":"15鄰","STREET":" ","SECT":" ","MAREA":"德安寮","LANE":" ","ALLEY":" ","HOUSE_NO":"１１號","E_COORD97":167224.10999999999,"N_COORD97":2572142.6400000001,"ADDRESS":"德安寮１１號","OBJECTID":45998},"geometry":{"x":167224.11000000034,"y":2572142.6400000006}},{"attributes":{"ID":45999,"DIS_CODE":0,"TOWNNAME":"學甲區","LI":"宅港里","LIN":"15鄰","STREET":" ","SECT":" ","MAREA":"德安寮","LANE":" ","ALLEY":" ","HOUSE_NO":"１２號","E_COORD97":167255.85000000001,"N_COORD97":2572140.46,"ADDRESS":"德安寮１２號","OBJECTID":45999},"geometry":{"x":167255.84999999963,"y":2572140.4600000009}},{"attributes":{"ID":46000,"DIS_CODE":0,"TOWNNAME":"學甲區","LI":"宅港里","LIN":"15鄰","STREET":" ","SECT":" ","MAREA":"德安寮","LANE":" ","ALLEY":" ","HOUSE_NO":"１３號","E_COORD97":167295.79999999999,"N_COORD97":2572131.7000000002,"ADDRESS":"德安寮１３號","OBJECTID":46000},"geometry":{"x":167295.80000000168,"y":2572131.700000003}}]}