{"displayFieldName":"TOWNNAME","fieldAliases":{"ID":"ID","DIS_CODE":"DIS_CODE","TOWNNAME":"TOWNNAME","LI":"LI","LIN":"LIN","STREET":"STREET","SECT":"SECT","MAREA":"MAREA","LANE":"LANE","ALLEY":"ALLEY","HOUSE_NO":"HOUSE_NO","E_COORD97":"E_COORD97","N_COORD97":"N_COORD97","ADDRESS":"ADDRESS","OBJECTID":"OBJECTID"},"geometryType":"esriGeometryPoint","spatialReference":{"wkid":102443,"latestWkid":3826},"fields":[{"name":"ID","type":"esriFieldTypeDouble","alias":"ID"},{"name":"DIS_CODE","type":"esriFieldTypeInteger","alias":"DIS_CODE"},{"name":"TOWNNAME","type":"esriFieldTypeString","alias":"TOWNNAME","length":8},{"name":"LI","type":"esriFieldTypeString","alias":"LI","length":8},{"name":"LIN","type":"esriFieldTypeString","alias":"LIN","length":12},{"name":"STREET","type":"esriFieldTypeString","alias":"STREET","length":20},{"name":"SECT","type":"esriFieldTypeString","alias":"SECT","length":8},{"name":"MAREA","type":"esriFieldTypeString","alias":"MAREA","length":12},{"name":"LANE","type":"esriFieldTypeString","alias":"LANE","length":10},{"name":"ALLEY","type":"esriFieldTypeString","alias":"ALLEY","length":10},{"name":"HOUSE_NO","type":"esriFieldTypeString","alias":"HOUSE_NO","length":20},{"name":"E_COORD97","type":"esriFieldTypeDouble","alias":"E_COORD97"},{"name":"N_COORD97","type":"esriFieldTypeDouble","alias":"N_COORD97"},{"name":"ADDRESS","type":"esriFieldTypeString","alias":"ADDRESS","length":50},{"name":"OBJECTID","type":"esriFieldTypeOID","alias":"OBJECTID"}],"features":[{"attributes":{"ID":332810,"DIS_CODE":0,"TOWNNAME":"歸仁區","LI":"六甲里","LIN":"11鄰","STREET":"六甲路","SECT":" ","MAREA":" ","LANE":" ","ALLEY":" ","HOUSE_NO":"２０７號","E_COORD97":176033.55695900001,"N_COORD97":2539170.8317300002,"ADDRESS":"六甲路２０７號","OBJECTID":332801},"geometry":{"x":176033.55695900228,"y":2539170.831732003}},{"attributes":{"ID":332811,"DIS_CODE":0,"TOWNNAME":"新營區","LI":"南紙里","LIN":"19鄰","STREET":"太子路","SECT":" ","MAREA":" ","LANE":" ","ALLEY":" ","HOUSE_NO":"３６０之２號","E_COORD97":177369.01756199999,"N_COORD97":2577652.3763299999,"ADDRESS":"太子路３６０之２號","OBJECTID":332802},"geometry":{"x":177369.01756200008,"y":2577652.3763290029}},{"attributes":{"ID":332812,"DIS_CODE":0,"TOWNNAME":"新營區","LI":"南紙里","LIN":"19鄰","STREET":"太子路","SECT":" ","MAREA":" ","LANE":" ","ALLEY":" ","HOUSE_NO":"３６０之２６號","E_COORD97":177476.34523800001,"N_COORD97":2578049.1452799998,"ADDRESS":"太子路３６０之２６號","OBJECTID":332803},"geometry":{"x":177476.34523799922,"y":2578049.1452810019}},{"attributes":{"ID":332813,"DIS_CODE":0,"TOWNNAME":"歸仁區","LI":"六甲里","LIN":"11鄰","STREET":"六甲路","SECT":" ","MAREA":" ","LANE":" ","ALLEY":" ","HOUSE_NO":"２２３號","E_COORD97":175997.751365,"N_COORD97":2539188.29422,"ADDRESS":"六甲路２２３號","OBJECTID":332804},"geometry":{"x":175997.75136500224,"y":2539188.2942230031}},{"attributes":{"ID":332814,"DIS_CODE":0,"TOWNNAME":"歸仁區","LI":"六甲里","LIN":"26鄰","STREET":"六甲路","SECT":" ","MAREA":" ","LANE":" ","ALLEY":" ","HOUSE_NO":"２２４號","E_COORD97":175959.40336200001,"N_COORD97":2539216.7633699998,"ADDRESS":"六甲路２２４號","OBJECTID":332805},"geometry":{"x":175959.40336200129,"y":2539216.7633740008}},{"attributes":{"ID":332815,"DIS_CODE":0,"TOWNNAME":"新營區","LI":"南紙里","LIN":"10鄰","STREET":"南紙街","SECT":" ","MAREA":" ","LANE":" ","ALLEY":" ","HOUSE_NO":"８０號","E_COORD97":177795.35872600001,"N_COORD97":2577626.1296799998,"ADDRESS":"南紙街８０號","OBJECTID":332806},"geometry":{"x":177795.35872600134,"y":2577626.1296760011}},{"attributes":{"ID":332816,"DIS_CODE":0,"TOWNNAME":"歸仁區","LI":"六甲里","LIN":"12鄰","STREET":"六甲路","SECT":" ","MAREA":" ","LANE":" ","ALLEY":" ","HOUSE_NO":"２２７號","E_COORD97":175974.657817,"N_COORD97":2539195.0675499998,"ADDRESS":"六甲路２２７號","OBJECTID":332807},"geometry":{"x":175974.65781700052,"y":2539195.0675530005}},{"attributes":{"ID":332817,"DIS_CODE":0,"TOWNNAME":"歸仁區","LI":"六甲里","LIN":"29鄰","STREET":"六甲路","SECT":" ","MAREA":" ","LANE":" ","ALLEY":" ","HOUSE_NO":"２７８號","E_COORD97":175809.40122,"N_COORD97":2539230.5216999999,"ADDRESS":"六甲路２７８號","OBJECTID":332808},"geometry":{"x":175809.40122000221,"y":2539230.5217000023}},{"attributes":{"ID":332818,"DIS_CODE":0,"TOWNNAME":"歸仁區","LI":"六甲里","LIN":"16鄰","STREET":"六甲路","SECT":" ","MAREA":" ","LANE":" ","ALLEY":" ","HOUSE_NO":"２８５號","E_COORD97":175815.545384,"N_COORD97":2539191.7867200002,"ADDRESS":"六甲路２８５號","OBJECTID":332809},"geometry":{"x":175815.54538400099,"y":2539191.7867210004}},{"attributes":{"ID":332819,"DIS_CODE":0,"TOWNNAME":"歸仁區","LI":"六甲里","LIN":"16鄰","STREET":"六甲路","SECT":" ","MAREA":" ","LANE":" ","ALLEY":" ","HOUSE_NO":"２８９號","E_COORD97":175812.791108,"N_COORD97":2539167.4450699999,"ADDRESS":"六甲路２８９號","OBJECTID":332810},"geometry":{"x":175812.79110800102,"y":2539167.4450680017}},{"attributes":{"ID":332820,"DIS_CODE":0,"TOWNNAME":"新營區","LI":"忠政里","LIN":"32鄰","STREET":"府西路","SECT":" ","MAREA":" ","LANE":"１７巷","ALLEY":" ","HOUSE_NO":"８號之１","E_COORD97":179793.79999999999,"N_COORD97":2578922.5899999999,"ADDRESS":"府西路１７巷８號之１","OBJECTID":332811},"geometry":{"x":179793.79999999981,"y":2578922.5899999999}},{"attributes":{"ID":332821,"DIS_CODE":0,"TOWNNAME":"新營區","LI":"新北里","LIN":"8鄰","STREET":"三興街","SECT":" ","MAREA":" ","LANE":"３０１巷","ALLEY":" ","HOUSE_NO":"４９號","E_COORD97":179197.29999999999,"N_COORD97":2579709.46,"ADDRESS":"三興街３０１巷４９號","OBJECTID":332812},"geometry":{"x":179197.29999999981,"y":2579709.4600000046}},{"attributes":{"ID":332822,"DIS_CODE":0,"TOWNNAME":"東區","LI":"大智里","LIN":"15鄰","STREET":"長東街","SECT":" ","MAREA":" ","LANE":"１４５巷","ALLEY":" ","HOUSE_NO":"６１號","E_COORD97":171200.76999999999,"N_COORD97":2540081.9900000002,"ADDRESS":"長東街１４５巷６１號","OBJECTID":332813},"geometry":{"x":171200.76999999955,"y":2540081.9900000021}},{"attributes":{"ID":332823,"DIS_CODE":0,"TOWNNAME":"東區","LI":"和平里","LIN":"15鄰","STREET":"文化二街","SECT":" ","MAREA":" ","LANE":"１９８巷","ALLEY":" ","HOUSE_NO":"１號","E_COORD97":171382.66,"N_COORD97":2541771.46,"ADDRESS":"文化二街１９８巷１號","OBJECTID":332814},"geometry":{"x":171382.66000000108,"y":2541771.4600000028}},{"attributes":{"ID":332824,"DIS_CODE":0,"TOWNNAME":"東區","LI":"和平里","LIN":"15鄰","STREET":"文化二街","SECT":" ","MAREA":" ","LANE":"１９８巷","ALLEY":" ","HOUSE_NO":"１０號","E_COORD97":171366.35999999999,"N_COORD97":2541778.9300000002,"ADDRESS":"文化二街１９８巷１０號","OBJECTID":332815},"geometry":{"x":171366.36000000127,"y":2541778.9299999997}},{"attributes":{"ID":332825,"DIS_CODE":0,"TOWNNAME":"東區","LI":"和平里","LIN":"15鄰","STREET":"文化二街","SECT":" ","MAREA":" ","LANE":"１９８巷","ALLEY":" ","HOUSE_NO":"１１號","E_COORD97":171355.16,"N_COORD97":2541767.7200000002,"ADDRESS":"文化二街１９８巷１１號","OBJECTID":332816},"geometry":{"x":171355.15999999922,"y":2541767.7200000007}},{"attributes":{"ID":332826,"DIS_CODE":0,"TOWNNAME":"東區","LI":"和平里","LIN":"15鄰","STREET":"文化二街","SECT":" ","MAREA":" ","LANE":"１９８巷","ALLEY":" ","HOUSE_NO":"１２號","E_COORD97":171360.25,"N_COORD97":2541777.3999999999,"ADDRESS":"文化二街１９８巷１２號","OBJECTID":332817},"geometry":{"x":171360.25000000093,"y":2541777.4000000041}},{"attributes":{"ID":332827,"DIS_CODE":0,"TOWNNAME":"東區","LI":"和平里","LIN":"15鄰","STREET":"文化二街","SECT":" ","MAREA":" ","LANE":"１９８巷","ALLEY":" ","HOUSE_NO":"１３號","E_COORD97":171349.04000000001,"N_COORD97":2541766.7000000002,"ADDRESS":"文化二街１９８巷１３號","OBJECTID":332818},"geometry":{"x":171349.03999999911,"y":2541766.6999999993}},{"attributes":{"ID":332828,"DIS_CODE":0,"TOWNNAME":"東區","LI":"和平里","LIN":"17鄰","STREET":"仁和路","SECT":" ","MAREA":" ","LANE":" ","ALLEY":" ","HOUSE_NO":"７３號之１１４","E_COORD97":171346.47,"N_COORD97":2541537.4500000002,"ADDRESS":"仁和路７３號之１１４","OBJECTID":332819},"geometry":{"x":171346.47000000067,"y":2541537.4499999993}},{"attributes":{"ID":332829,"DIS_CODE":0,"TOWNNAME":"東區","LI":"和平里","LIN":"17鄰","STREET":"仁和路","SECT":" ","MAREA":" ","LANE":" ","ALLEY":" ","HOUSE_NO":"７３號之１１６","E_COORD97":171354.42000000001,"N_COORD97":2541539.4300000002,"ADDRESS":"仁和路７３號之１１６","OBJECTID":332820},"geometry":{"x":171354.41999999993,"y":2541539.4300000034}},{"attributes":{"ID":332830,"DIS_CODE":0,"TOWNNAME":"東區","LI":"和平里","LIN":"17鄰","STREET":"仁和路","SECT":" ","MAREA":" ","LANE":" ","ALLEY":" ","HOUSE_NO":"７３號之１１７","E_COORD97":171358.79000000001,"N_COORD97":2541539.04,"ADDRESS":"仁和路７３號之１１７","OBJECTID":332821},"geometry":{"x":171358.79000000004,"y":2541539.040000001}},{"attributes":{"ID":332831,"DIS_CODE":0,"TOWNNAME":"東區","LI":"和平里","LIN":"17鄰","STREET":"仁和路","SECT":" ","MAREA":" ","LANE":" ","ALLEY":" ","HOUSE_NO":"７３號之１１８","E_COORD97":171362.57000000001,"N_COORD97":2541540.0299999998,"ADDRESS":"仁和路７３號之１１８","OBJECTID":332822},"geometry":{"x":171362.5700000003,"y":2541540.0299999993}},{"attributes":{"ID":332832,"DIS_CODE":0,"TOWNNAME":"東區","LI":"和平里","LIN":"17鄰","STREET":"仁和路","SECT":" ","MAREA":" ","LANE":" ","ALLEY":" ","HOUSE_NO":"７３號之１２０","E_COORD97":171370.51999999999,"N_COORD97":2541541.4199999999,"ADDRESS":"仁和路７３號之１２０","OBJECTID":332823},"geometry":{"x":171370.51999999955,"y":2541541.4199999999}},{"attributes":{"ID":332833,"DIS_CODE":0,"TOWNNAME":"關廟區","LI":"田中里","LIN":"9鄰","STREET":"南雄南路","SECT":" ","MAREA":" ","LANE":"６５９巷","ALLEY":" ","HOUSE_NO":"５號","E_COORD97":183460.941914,"N_COORD97":2533573.2468599998,"ADDRESS":"南雄南路６５９巷５號","OBJECTID":332824},"geometry":{"x":183460.94191399869,"y":2533573.2468570024}},{"attributes":{"ID":332834,"DIS_CODE":0,"TOWNNAME":"下營區","LI":"宅內里","LIN":"7鄰","STREET":"人和三街","SECT":" ","MAREA":" ","LANE":"７６巷","ALLEY":" ","HOUSE_NO":"２號","E_COORD97":174272.79210799999,"N_COORD97":2570756.42032,"ADDRESS":"人和三街７６巷２號","OBJECTID":332825},"geometry":{"x":174272.79210800119,"y":2570756.4203179982}},{"attributes":{"ID":332835,"DIS_CODE":0,"TOWNNAME":"關廟區","LI":"田中里","LIN":"9鄰","STREET":"南雄南路","SECT":" ","MAREA":" ","LANE":"６５９巷","ALLEY":" ","HOUSE_NO":"１６號","E_COORD97":183484.45973500001,"N_COORD97":2533502.8677300001,"ADDRESS":"南雄南路６５９巷１６號","OBJECTID":332826},"geometry":{"x":183484.45973499864,"y":2533502.8677290007}},{"attributes":{"ID":332836,"DIS_CODE":0,"TOWNNAME":"關廟區","LI":"田中里","LIN":"9鄰","STREET":"南雄南路","SECT":" ","MAREA":" ","LANE":" ","ALLEY":" ","HOUSE_NO":"６５５號","E_COORD97":183443.14464400001,"N_COORD97":2533560.12353,"ADDRESS":"南雄南路６５５號","OBJECTID":332827},"geometry":{"x":183443.14464399964,"y":2533560.1235310026}},{"attributes":{"ID":332837,"DIS_CODE":0,"TOWNNAME":"歸仁區","LI":"六甲里","LIN":"16鄰","STREET":"六甲路","SECT":" ","MAREA":" ","LANE":" ","ALLEY":" ","HOUSE_NO":"３０５號","E_COORD97":175807.28255500001,"N_COORD97":2539193.69172,"ADDRESS":"六甲路３０５號","OBJECTID":332828},"geometry":{"x":175807.28255499993,"y":2539193.6917199995}},{"attributes":{"ID":332838,"DIS_CODE":0,"TOWNNAME":"歸仁區","LI":"六甲里","LIN":"18鄰","STREET":"六甲路","SECT":" ","MAREA":" ","LANE":" ","ALLEY":" ","HOUSE_NO":"３５５號","E_COORD97":175640.11916100001,"N_COORD97":2539221.7375400001,"ADDRESS":"六甲路３５５號","OBJECTID":332829},"geometry":{"x":175640.11916100141,"y":2539221.7375380006}},{"attributes":{"ID":332839,"DIS_CODE":0,"TOWNNAME":"歸仁區","LI":"六甲里","LIN":"18鄰","STREET":"六甲路","SECT":" ","MAREA":" ","LANE":" ","ALLEY":" ","HOUSE_NO":"３５７號","E_COORD97":175636.94115,"N_COORD97":2539221.7375400001,"ADDRESS":"六甲路３５７號","OBJECTID":332830},"geometry":{"x":175636.94115000032,"y":2539221.7375380006}},{"attributes":{"ID":332840,"DIS_CODE":0,"TOWNNAME":"歸仁區","LI":"六甲里","LIN":"36鄰","STREET":"六甲路","SECT":" ","MAREA":" ","LANE":" ","ALLEY":" ","HOUSE_NO":"３７２號","E_COORD97":175472.32016500001,"N_COORD97":2539281.2158400002,"ADDRESS":"六甲路３７２號","OBJECTID":332831},"geometry":{"x":175472.32016500086,"y":2539281.2158390023}},{"attributes":{"ID":332841,"DIS_CODE":0,"TOWNNAME":"關廟區","LI":"田中里","LIN":"9鄰","STREET":"南雄南路","SECT":" ","MAREA":" ","LANE":" ","ALLEY":" ","HOUSE_NO":"６６９號","E_COORD97":183446.53460099999,"N_COORD97":2533506.46606,"ADDRESS":"南雄南路６６９號","OBJECTID":332832},"geometry":{"x":183446.53460100107,"y":2533506.4660599995}},{"attributes":{"ID":332842,"DIS_CODE":0,"TOWNNAME":"歸仁區","LI":"六甲里","LIN":"36鄰","STREET":"六甲路","SECT":" ","MAREA":" ","LANE":" ","ALLEY":" ","HOUSE_NO":"３７６號","E_COORD97":175465.96414200001,"N_COORD97":2539282.9091699999,"ADDRESS":"六甲路３７６號","OBJECTID":332833},"geometry":{"x":175465.96414200123,"y":2539282.9091720004}},{"attributes":{"ID":332843,"DIS_CODE":0,"TOWNNAME":"大內區","LI":"石城里","LIN":"3鄰","STREET":" ","SECT":" ","MAREA":"石子瀨","LANE":" ","ALLEY":" ","HOUSE_NO":"３２號之１","E_COORD97":184352.41737400001,"N_COORD97":2558112.75893,"ADDRESS":"石子瀨３２號之１","OBJECTID":332834},"geometry":{"x":184352.41737400088,"y":2558112.7589289993}},{"attributes":{"ID":332844,"DIS_CODE":0,"TOWNNAME":"下營區","LI":"開化里","LIN":"1鄰","STREET":" ","SECT":" ","MAREA":"中營","LANE":" ","ALLEY":" ","HOUSE_NO":"１１號之５","E_COORD97":175513.385125,"N_COORD97":2568410.0863000001,"ADDRESS":"中營１１號之５","OBJECTID":332835},"geometry":{"x":175513.3851249991,"y":2568410.0862970017}},{"attributes":{"ID":332845,"DIS_CODE":0,"TOWNNAME":"大內區","LI":"石城里","LIN":"16鄰","STREET":" ","SECT":" ","MAREA":"石子瀨","LANE":" ","ALLEY":" ","HOUSE_NO":"１２２號之４４","E_COORD97":183989.10021800001,"N_COORD97":2557631.05877,"ADDRESS":"石子瀨１２２號之４４","OBJECTID":332836},"geometry":{"x":183989.10021799989,"y":2557631.0587729998}},{"attributes":{"ID":332846,"DIS_CODE":0,"TOWNNAME":"歸仁區","LI":"六甲里","LIN":"36鄰","STREET":"六甲路","SECT":" ","MAREA":" ","LANE":" ","ALLEY":" ","HOUSE_NO":"３８０號","E_COORD97":175457.91318,"N_COORD97":2539281.85084,"ADDRESS":"六甲路３８０號","OBJECTID":332837},"geometry":{"x":175457.91318000108,"y":2539281.8508390021}},{"attributes":{"ID":332847,"DIS_CODE":0,"TOWNNAME":"下營區","LI":"大屯里","LIN":"5鄰","STREET":" ","SECT":" ","MAREA":"大屯寮","LANE":" ","ALLEY":" ","HOUSE_NO":"４８之３３號","E_COORD97":170880.49189500001,"N_COORD97":2570016.71808,"ADDRESS":"大屯寮４８之３３號","OBJECTID":332838},"geometry":{"x":170880.49189500045,"y":2570016.7180809993}},{"attributes":{"ID":332848,"DIS_CODE":0,"TOWNNAME":"下營區","LI":"宅內里","LIN":"3鄰","STREET":"友愛街","SECT":" ","MAREA":" ","LANE":" ","ALLEY":" ","HOUSE_NO":"１３７號","E_COORD97":174178.71212700001,"N_COORD97":2570686.3839500002,"ADDRESS":"友愛街１３７號","OBJECTID":332839},"geometry":{"x":174178.71212700102,"y":2570686.383948002}},{"attributes":{"ID":332849,"DIS_CODE":0,"TOWNNAME":"仁德區","LI":"大甲里","LIN":"1鄰","STREET":"行大街","SECT":" ","MAREA":" ","LANE":" ","ALLEY":" ","HOUSE_NO":"２０９之２號","E_COORD97":169896.469449,"N_COORD97":2535071.91928,"ADDRESS":"行大街２０９之２號","OBJECTID":332840},"geometry":{"x":169896.46944900136,"y":2535071.919277003}},{"attributes":{"ID":332850,"DIS_CODE":0,"TOWNNAME":"東區","LI":"和平里","LIN":"15鄰","STREET":"文化二街","SECT":" ","MAREA":" ","LANE":"１９８巷","ALLEY":" ","HOUSE_NO":"１５號","E_COORD97":171344.12,"N_COORD97":2541765.52,"ADDRESS":"文化二街１９８巷１５號","OBJECTID":332841},"geometry":{"x":171344.12000000104,"y":2541765.5200000033}},{"attributes":{"ID":332851,"DIS_CODE":0,"TOWNNAME":"東區","LI":"和平里","LIN":"15鄰","STREET":"文化二街","SECT":" ","MAREA":" ","LANE":"１９８巷","ALLEY":" ","HOUSE_NO":"１６號","E_COORD97":171353.97,"N_COORD97":2541776.3799999999,"ADDRESS":"文化二街１９８巷１６號","OBJECTID":332842},"geometry":{"x":171353.96999999974,"y":2541776.3800000027}},{"attributes":{"ID":332852,"DIS_CODE":0,"TOWNNAME":"仁德區","LI":"仁德里","LIN":"3鄰","STREET":"仁中七街","SECT":" ","MAREA":" ","LANE":" ","ALLEY":" ","HOUSE_NO":"６５號","E_COORD97":173197.54111699999,"N_COORD97":2540358.00269,"ADDRESS":"仁中七街６５號","OBJECTID":332843},"geometry":{"x":173197.54111700132,"y":2540358.0026949998}},{"attributes":{"ID":332853,"DIS_CODE":0,"TOWNNAME":"東區","LI":"和平里","LIN":"15鄰","STREET":"文化二街","SECT":" ","MAREA":" ","LANE":"１９８巷","ALLEY":" ","HOUSE_NO":"１８號","E_COORD97":171348.19,"N_COORD97":2541775.5299999998,"ADDRESS":"文化二街１９８巷１８號","OBJECTID":332844},"geometry":{"x":171348.19000000041,"y":2541775.5300000031}},{"attributes":{"ID":332854,"DIS_CODE":0,"TOWNNAME":"東區","LI":"和平里","LIN":"15鄰","STREET":"文化二街","SECT":" ","MAREA":" ","LANE":"１９８巷","ALLEY":" ","HOUSE_NO":"２號","E_COORD97":171382.14999999999,"N_COORD97":2541780.9700000002,"ADDRESS":"文化二街１９８巷２號","OBJECTID":332845},"geometry":{"x":171382.15000000037,"y":2541780.9700000044}},{"attributes":{"ID":332855,"DIS_CODE":0,"TOWNNAME":"東區","LI":"和平里","LIN":"15鄰","STREET":"文化二街","SECT":" ","MAREA":" ","LANE":"１９８巷","ALLEY":" ","HOUSE_NO":"２０號","E_COORD97":171342.59,"N_COORD97":2541774.1800000002,"ADDRESS":"文化二街１９８巷２０號","OBJECTID":332846},"geometry":{"x":171342.59000000078,"y":2541774.1799999997}},{"attributes":{"ID":332856,"DIS_CODE":0,"TOWNNAME":"東區","LI":"和平里","LIN":"15鄰","STREET":"文化二街","SECT":" ","MAREA":" ","LANE":"１９８巷","ALLEY":" ","HOUSE_NO":"３號","E_COORD97":171377.57000000001,"N_COORD97":2541771.46,"ADDRESS":"文化二街１９８巷３號","OBJECTID":332847},"geometry":{"x":171377.5700000003,"y":2541771.4600000028}},{"attributes":{"ID":332857,"DIS_CODE":0,"TOWNNAME":"東區","LI":"和平里","LIN":"15鄰","STREET":"文化二街","SECT":" ","MAREA":" ","LANE":"１９８巷","ALLEY":" ","HOUSE_NO":"５號","E_COORD97":171371.45999999999,"N_COORD97":2541770.7799999998,"ADDRESS":"文化二街１９８巷５號","OBJECTID":332848},"geometry":{"x":171371.45999999996,"y":2541770.7800000012}},{"attributes":{"ID":332858,"DIS_CODE":0,"TOWNNAME":"東區","LI":"和平里","LIN":"15鄰","STREET":"文化二街","SECT":" ","MAREA":" ","LANE":"１９８巷","ALLEY":" ","HOUSE_NO":"６號","E_COORD97":171377.39999999999,"N_COORD97":2541780.46,"ADDRESS":"文化二街１９８巷６號","OBJECTID":332849},"geometry":{"x":171377.40000000037,"y":2541780.4600000009}},{"attributes":{"ID":332859,"DIS_CODE":0,"TOWNNAME":"東區","LI":"和平里","LIN":"15鄰","STREET":"文化二街","SECT":" ","MAREA":" ","LANE":"１９８巷","ALLEY":" ","HOUSE_NO":"７號","E_COORD97":171366.35999999999,"N_COORD97":2541769.5899999999,"ADDRESS":"文化二街１９８巷７號","OBJECTID":332850},"geometry":{"x":171366.36000000127,"y":2541769.5900000017}},{"attributes":{"ID":332860,"DIS_CODE":0,"TOWNNAME":"白河區","LI":"關嶺里","LIN":"2鄰","STREET":" ","SECT":" ","MAREA":"關子嶺","LANE":" ","ALLEY":" ","HOUSE_NO":"２８之５號","E_COORD97":199380.11274099999,"N_COORD97":2581589.8008699999,"ADDRESS":"關子嶺２８之５號","OBJECTID":332851},"geometry":{"x":199380.11274100095,"y":2581589.8008710016}},{"attributes":{"ID":332861,"DIS_CODE":0,"TOWNNAME":"白河區","LI":"關嶺里","LIN":"2鄰","STREET":" ","SECT":" ","MAREA":"關子嶺","LANE":" ","ALLEY":" ","HOUSE_NO":"２８之２４號","E_COORD97":199337.35427099999,"N_COORD97":2581752.94948,"ADDRESS":"關子嶺２８之２４號","OBJECTID":332852},"geometry":{"x":199337.35427100211,"y":2581752.9494809993}},{"attributes":{"ID":332862,"DIS_CODE":0,"TOWNNAME":"仁德區","LI":"中生里","LIN":"15鄰","STREET":" ","SECT":" ","MAREA":"中洲","LANE":" ","ALLEY":" ","HOUSE_NO":"２４７之１號","E_COORD97":173199.38941999999,"N_COORD97":2533956.9593000002,"ADDRESS":"中洲２４７之１號","OBJECTID":332853},"geometry":{"x":173199.38942000084,"y":2533956.9592980035}},{"attributes":{"ID":332863,"DIS_CODE":0,"TOWNNAME":"柳營區","LI":"重溪里","LIN":"20鄰","STREET":" ","SECT":" ","MAREA":"五軍營","LANE":" ","ALLEY":" ","HOUSE_NO":"２８號","E_COORD97":183552.17999999999,"N_COORD97":2577320.4199999999,"ADDRESS":"五軍營２８號","OBJECTID":332854},"geometry":{"x":183552.18000000063,"y":2577320.4199999999}},{"attributes":{"ID":332864,"DIS_CODE":0,"TOWNNAME":"柳營區","LI":"重溪里","LIN":"20鄰","STREET":" ","SECT":" ","MAREA":"五軍營","LANE":" ","ALLEY":" ","HOUSE_NO":"２９號","E_COORD97":183532.39000000001,"N_COORD97":2577324.23,"ADDRESS":"五軍營２９號","OBJECTID":332855},"geometry":{"x":183532.38999999966,"y":2577324.2300000023}},{"attributes":{"ID":332865,"DIS_CODE":0,"TOWNNAME":"柳營區","LI":"重溪里","LIN":"20鄰","STREET":" ","SECT":" ","MAREA":"五軍營","LANE":" ","ALLEY":" ","HOUSE_NO":"３０號之１","E_COORD97":183467.67000000001,"N_COORD97":2577273.0600000001,"ADDRESS":"五軍營３０號之１","OBJECTID":332856},"geometry":{"x":183467.67000000086,"y":2577273.0600000005}},{"attributes":{"ID":332866,"DIS_CODE":0,"TOWNNAME":"柳營區","LI":"重溪里","LIN":"20鄰","STREET":" ","SECT":" ","MAREA":"五軍營","LANE":" ","ALLEY":" ","HOUSE_NO":"３０號之２","E_COORD97":183479.34,"N_COORD97":2577266.3300000001,"ADDRESS":"五軍營３０號之２","OBJECTID":332857},"geometry":{"x":183479.33999999892,"y":2577266.3300000019}},{"attributes":{"ID":332867,"DIS_CODE":0,"TOWNNAME":"歸仁區","LI":"六甲里","LIN":"30鄰","STREET":"民生十二街","SECT":" ","MAREA":" ","LANE":"１１５巷","ALLEY":" ","HOUSE_NO":"４８號","E_COORD97":175740.49142599999,"N_COORD97":2539364.08329,"ADDRESS":"民生十二街１１５巷４８號","OBJECTID":332858},"geometry":{"x":175740.49142600037,"y":2539364.0832949989}},{"attributes":{"ID":332868,"DIS_CODE":0,"TOWNNAME":"仁德區","LI":"大甲里","LIN":"1鄰","STREET":"行大街","SECT":" ","MAREA":" ","LANE":" ","ALLEY":" ","HOUSE_NO":"１７３號","E_COORD97":169979.98091400001,"N_COORD97":2535070.0142799998,"ADDRESS":"行大街１７３號","OBJECTID":332859},"geometry":{"x":169979.98091400042,"y":2535070.0142780021}},{"attributes":{"ID":332869,"DIS_CODE":0,"TOWNNAME":"仁德區","LI":"大甲里","LIN":"2鄰","STREET":"行大一街","SECT":" ","MAREA":" ","LANE":" ","ALLEY":" ","HOUSE_NO":"２０１號","E_COORD97":169899.614688,"N_COORD97":2534942.8231299999,"ADDRESS":"行大一街２０１號","OBJECTID":332860},"geometry":{"x":169899.61468800157,"y":2534942.8231280018}},{"attributes":{"ID":332870,"DIS_CODE":0,"TOWNNAME":"仁德區","LI":"大甲里","LIN":"2鄰","STREET":"行大一街","SECT":" ","MAREA":" ","LANE":" ","ALLEY":" ","HOUSE_NO":"２５５號","E_COORD97":169747.195144,"N_COORD97":2535018.9857100002,"ADDRESS":"行大一街２５５號","OBJECTID":332861},"geometry":{"x":169747.19514399953,"y":2535018.9857090004}},{"attributes":{"ID":332871,"DIS_CODE":0,"TOWNNAME":"仁德區","LI":"大甲里","LIN":"3鄰","STREET":"行大一街","SECT":" ","MAREA":" ","LANE":" ","ALLEY":" ","HOUSE_NO":"１５６之１號","E_COORD97":169846.76975899999,"N_COORD97":2535023.94031,"ADDRESS":"行大一街１５６之１號","OBJECTID":332862},"geometry":{"x":169846.76975900121,"y":2535023.9403099995}},{"attributes":{"ID":332872,"DIS_CODE":0,"TOWNNAME":"歸仁區","LI":"六甲里","LIN":"41鄰","STREET":"民生十二街","SECT":" ","MAREA":" ","LANE":" ","ALLEY":" ","HOUSE_NO":"３００號","E_COORD97":175598.96398999999,"N_COORD97":2539464.5190699999,"ADDRESS":"民生十二街３００號","OBJECTID":332863},"geometry":{"x":175598.96399000101,"y":2539464.5190740004}},{"attributes":{"ID":332873,"DIS_CODE":0,"TOWNNAME":"歸仁區","LI":"六甲里","LIN":"25鄰","STREET":"民生南街","SECT":"二段","MAREA":" ","LANE":" ","ALLEY":" ","HOUSE_NO":"６３３號","E_COORD97":176098.75923299999,"N_COORD97":2539306.8274900001,"ADDRESS":"民生南街二段６３３號","OBJECTID":332864},"geometry":{"x":176098.75923299976,"y":2539306.8274920043}},{"attributes":{"ID":332874,"DIS_CODE":0,"TOWNNAME":"歸仁區","LI":"六甲里","LIN":"40鄰","STREET":"民生南街","SECT":"二段","MAREA":" ","LANE":" ","ALLEY":" ","HOUSE_NO":"７００號","E_COORD97":176146.217535,"N_COORD97":2539539.0257000001,"ADDRESS":"民生南街二段７００號","OBJECTID":332865},"geometry":{"x":176146.21753500029,"y":2539539.0256999992}},{"attributes":{"ID":332875,"DIS_CODE":0,"TOWNNAME":"歸仁區","LI":"六甲里","LIN":"11鄰","STREET":"凱旋路","SECT":"三段","MAREA":" ","LANE":" ","ALLEY":" ","HOUSE_NO":"２６０號","E_COORD97":175986.257633,"N_COORD97":2538993.5080800001,"ADDRESS":"凱旋路三段２６０號","OBJECTID":332866},"geometry":{"x":175986.25763299968,"y":2538993.5080779996}},{"attributes":{"ID":332876,"DIS_CODE":0,"TOWNNAME":"關廟區","LI":"新埔里","LIN":"1鄰","STREET":"忠孝街","SECT":" ","MAREA":" ","LANE":" ","ALLEY":" ","HOUSE_NO":"２５０號","E_COORD97":181199.05241800001,"N_COORD97":2540850.68872,"ADDRESS":"忠孝街２５０號","OBJECTID":332867},"geometry":{"x":181199.052418001,"y":2540850.6887220014}},{"attributes":{"ID":332877,"DIS_CODE":0,"TOWNNAME":"東區","LI":"和平里","LIN":"15鄰","STREET":"文化二街","SECT":" ","MAREA":" ","LANE":"１９８巷","ALLEY":" ","HOUSE_NO":"９號","E_COORD97":171360.59,"N_COORD97":2541768.9100000001,"ADDRESS":"文化二街１９８巷９號","OBJECTID":332868},"geometry":{"x":171360.59000000171,"y":2541768.9100000001}},{"attributes":{"ID":332878,"DIS_CODE":0,"TOWNNAME":"東區","LI":"和平里","LIN":"15鄰","STREET":"文化二街","SECT":" ","MAREA":" ","LANE":"１９８巷","ALLEY":" ","HOUSE_NO":"８號","E_COORD97":171371.12,"N_COORD97":2541779.6099999999,"ADDRESS":"文化二街１９８巷８號","OBJECTID":332869},"geometry":{"x":171371.12000000104,"y":2541779.6100000013}},{"attributes":{"ID":332879,"DIS_CODE":0,"TOWNNAME":"東區","LI":"和平里","LIN":"15鄰","STREET":"文化二街","SECT":" ","MAREA":" ","LANE":"２０８巷","ALLEY":" ","HOUSE_NO":"１號","E_COORD97":171382.82999999999,"N_COORD97":2541736.3100000001,"ADDRESS":"文化二街２０８巷１號","OBJECTID":332870},"geometry":{"x":171382.83000000194,"y":2541736.3100000005}},{"attributes":{"ID":332880,"DIS_CODE":0,"TOWNNAME":"東區","LI":"和平里","LIN":"15鄰","STREET":"文化二街","SECT":" ","MAREA":" ","LANE":"２０８巷","ALLEY":" ","HOUSE_NO":"１０號","E_COORD97":171366.19,"N_COORD97":2541749.7200000002,"ADDRESS":"文化二街２０８巷１０號","OBJECTID":332871},"geometry":{"x":171366.19000000134,"y":2541749.7200000025}},{"attributes":{"ID":332881,"DIS_CODE":0,"TOWNNAME":"東區","LI":"和平里","LIN":"15鄰","STREET":"文化二街","SECT":" ","MAREA":" ","LANE":"２０８巷","ALLEY":" ","HOUSE_NO":"１１號","E_COORD97":171358.20999999999,"N_COORD97":2541732.5699999998,"ADDRESS":"文化二街２０８巷１１號","OBJECTID":332872},"geometry":{"x":171358.21000000183,"y":2541732.5700000022}},{"attributes":{"ID":332882,"DIS_CODE":0,"TOWNNAME":"東區","LI":"和平里","LIN":"15鄰","STREET":"文化二街","SECT":" ","MAREA":" ","LANE":"２０８巷","ALLEY":" ","HOUSE_NO":"１２號","E_COORD97":171359.91,"N_COORD97":2541748.0299999998,"ADDRESS":"文化二街２０８巷１２號","OBJECTID":332873},"geometry":{"x":171359.91000000015,"y":2541748.0299999993}},{"attributes":{"ID":332883,"DIS_CODE":0,"TOWNNAME":"東區","LI":"和平里","LIN":"15鄰","STREET":"文化二街","SECT":" ","MAREA":" ","LANE":"２０８巷","ALLEY":" ","HOUSE_NO":"８號","E_COORD97":171372.31,"N_COORD97":2541750.5699999998,"ADDRESS":"文化二街２０８巷８號","OBJECTID":332874},"geometry":{"x":171372.31000000145,"y":2541750.5700000022}},{"attributes":{"ID":332884,"DIS_CODE":0,"TOWNNAME":"東區","LI":"大智里","LIN":"15鄰","STREET":"德東街","SECT":" ","MAREA":" ","LANE":"１６２巷","ALLEY":" ","HOUSE_NO":"７８號","E_COORD97":171251.23000000001,"N_COORD97":2540097.6000000001,"ADDRESS":"德東街１６２巷７８號","OBJECTID":332875},"geometry":{"x":171251.23000000045,"y":2540097.6000000015}},{"attributes":{"ID":332885,"DIS_CODE":0,"TOWNNAME":"東區","LI":"大智里","LIN":"15鄰","STREET":"德東街","SECT":" ","MAREA":" ","LANE":"１６２巷","ALLEY":" ","HOUSE_NO":"６６號","E_COORD97":171250.51000000001,"N_COORD97":2540117.0600000001,"ADDRESS":"德東街１６２巷６６號","OBJECTID":332876},"geometry":{"x":171250.50999999978,"y":2540117.0600000005}},{"attributes":{"ID":332886,"DIS_CODE":0,"TOWNNAME":"下營區","LI":"營前里","LIN":"10鄰","STREET":"仁愛街","SECT":" ","MAREA":" ","LANE":"１９巷","ALLEY":" ","HOUSE_NO":"１８號","E_COORD97":174793.927169,"N_COORD97":2570125.47224,"ADDRESS":"仁愛街１９巷１８號","OBJECTID":332877},"geometry":{"x":174793.92716900166,"y":2570125.4722420014}},{"attributes":{"ID":332887,"DIS_CODE":0,"TOWNNAME":"關廟區","LI":"新埔里","LIN":"9鄰","STREET":"新埔二街","SECT":" ","MAREA":" ","LANE":"７２巷","ALLEY":" ","HOUSE_NO":"１１５號","E_COORD97":181844.20344499999,"N_COORD97":2541530.45585,"ADDRESS":"新埔二街７２巷１１５號","OBJECTID":332878},"geometry":{"x":181844.20344499964,"y":2541530.4558550008}},{"attributes":{"ID":332888,"DIS_CODE":0,"TOWNNAME":"關廟區","LI":"新埔里","LIN":"9鄰","STREET":"新埔二街","SECT":" ","MAREA":" ","LANE":" ","ALLEY":" ","HOUSE_NO":"１８２號","E_COORD97":181286.02598000001,"N_COORD97":2541012.1373800002,"ADDRESS":"新埔二街１８２號","OBJECTID":332879},"geometry":{"x":181286.02598000038,"y":2541012.1373840012}},{"attributes":{"ID":332889,"DIS_CODE":0,"TOWNNAME":"歸仁區","LI":"大潭里","LIN":"3鄰","STREET":"長榮路","SECT":"一段","MAREA":" ","LANE":" ","ALLEY":" ","HOUSE_NO":"３９５號","E_COORD97":175530.50208199999,"N_COORD97":2534512.1382900001,"ADDRESS":"長榮路一段３９５號","OBJECTID":332880},"geometry":{"x":175530.50208199956,"y":2534512.1382899992}},{"attributes":{"ID":332890,"DIS_CODE":0,"TOWNNAME":"麻豆區","LI":"中興里","LIN":"12鄰","STREET":"三民路","SECT":" ","MAREA":" ","LANE":" ","ALLEY":" ","HOUSE_NO":"２４號","E_COORD97":172728.51384699999,"N_COORD97":2564673.8081899998,"ADDRESS":"三民路２４號","OBJECTID":332881},"geometry":{"x":172728.51384700183,"y":2564673.8081850018}},{"attributes":{"ID":332891,"DIS_CODE":0,"TOWNNAME":"歸仁區","LI":"大潭里","LIN":"3鄰","STREET":"長榮路","SECT":"一段","MAREA":" ","LANE":" ","ALLEY":" ","HOUSE_NO":"３８９號","E_COORD97":175492.15386200001,"N_COORD97":2534516.3716199999,"ADDRESS":"長榮路一段３８９號","OBJECTID":332882},"geometry":{"x":175492.15386200137,"y":2534516.3716210015}},{"attributes":{"ID":332892,"DIS_CODE":0,"TOWNNAME":"歸仁區","LI":"大潭里","LIN":"3鄰","STREET":"長榮路","SECT":"一段","MAREA":" ","LANE":" ","ALLEY":" ","HOUSE_NO":"７１５號","E_COORD97":176241.533173,"N_COORD97":2534511.92662,"ADDRESS":"長榮路一段７１５號","OBJECTID":332883},"geometry":{"x":176241.53317300044,"y":2534511.9266230017}},{"attributes":{"ID":332893,"DIS_CODE":0,"TOWNNAME":"下營區","LI":"營前里","LIN":"18鄰","STREET":"文化街","SECT":" ","MAREA":" ","LANE":" ","ALLEY":" ","HOUSE_NO":"５３號","E_COORD97":174796.47024900001,"N_COORD97":2570340.4279499999,"ADDRESS":"文化街５３號","OBJECTID":332884},"geometry":{"x":174796.47024900001,"y":2570340.4279510025}},{"attributes":{"ID":332894,"DIS_CODE":0,"TOWNNAME":"下營區","LI":"營前里","LIN":"18鄰","STREET":"文化街","SECT":" ","MAREA":" ","LANE":" ","ALLEY":" ","HOUSE_NO":"５５號","E_COORD97":174794.139092,"N_COORD97":2570347.8362799999,"ADDRESS":"文化街５５號","OBJECTID":332885},"geometry":{"x":174794.13909200113,"y":2570347.8362800013}},{"attributes":{"ID":332895,"DIS_CODE":0,"TOWNNAME":"大內區","LI":"石湖里","LIN":"6鄰","STREET":" ","SECT":" ","MAREA":"石子瀨","LANE":" ","ALLEY":" ","HOUSE_NO":"２７４號之５","E_COORD97":184017.51637999999,"N_COORD97":2558575.42979,"ADDRESS":"石子瀨２７４號之５","OBJECTID":332886},"geometry":{"x":184017.51637999993,"y":2558575.4297900014}},{"attributes":{"ID":332896,"DIS_CODE":0,"TOWNNAME":"下營區","LI":"營前里","LIN":"18鄰","STREET":"文化街","SECT":" ","MAREA":" ","LANE":" ","ALLEY":" ","HOUSE_NO":"５７號","E_COORD97":174791.384089,"N_COORD97":2570354.8212799998,"ADDRESS":"文化街５７號","OBJECTID":332887},"geometry":{"x":174791.38408900052,"y":2570354.8212769981}},{"attributes":{"ID":332897,"DIS_CODE":0,"TOWNNAME":"歸仁區","LI":"大潭里","LIN":"21鄰","STREET":"長榮路","SECT":"二段","MAREA":" ","LANE":" ","ALLEY":" ","HOUSE_NO":"１０２號","E_COORD97":176963.58143200001,"N_COORD97":2534512.3499599998,"ADDRESS":"長榮路二段１０２號","OBJECTID":332888},"geometry":{"x":176963.5814319998,"y":2534512.3499570005}},{"attributes":{"ID":332898,"DIS_CODE":0,"TOWNNAME":"關廟區","LI":"五甲里","LIN":"9鄰","STREET":"南雄路","SECT":"一段","MAREA":" ","LANE":" ","ALLEY":" ","HOUSE_NO":"５４１號","E_COORD97":181589.478951,"N_COORD97":2538411.0684099998,"ADDRESS":"南雄路一段５４１號","OBJECTID":332889},"geometry":{"x":181589.47895100061,"y":2538411.0684090015}},{"attributes":{"ID":332899,"DIS_CODE":0,"TOWNNAME":"東區","LI":"大智里","LIN":"15鄰","STREET":"德東街","SECT":" ","MAREA":" ","LANE":"１６２巷","ALLEY":" ","HOUSE_NO":"６２號","E_COORD97":171249.97,"N_COORD97":2540121.5699999998,"ADDRESS":"德東街１６２巷６２號","OBJECTID":332890},"geometry":{"x":171249.97000000067,"y":2540121.5699999984}},{"attributes":{"ID":332900,"DIS_CODE":0,"TOWNNAME":"東區","LI":"大智里","LIN":"15鄰","STREET":"德東街","SECT":" ","MAREA":" ","LANE":"１６２巷","ALLEY":" ","HOUSE_NO":"６０號","E_COORD97":171249.79000000001,"N_COORD97":2540126.25,"ADDRESS":"德東街１６２巷６０號","OBJECTID":332891},"geometry":{"x":171249.79000000097,"y":2540126.25}},{"attributes":{"ID":332901,"DIS_CODE":0,"TOWNNAME":"新營區","LI":"民榮里","LIN":"23鄰","STREET":"裕民路","SECT":" ","MAREA":" ","LANE":"１６巷","ALLEY":" ","HOUSE_NO":"２１號","E_COORD97":179071.06,"N_COORD97":2577910.4500000002,"ADDRESS":"裕民路１６巷２１號","OBJECTID":332892},"geometry":{"x":179071.05999999959,"y":2577910.4499999974}},{"attributes":{"ID":332902,"DIS_CODE":0,"TOWNNAME":"新營區","LI":"新北里","LIN":"13鄰","STREET":"周武街","SECT":" ","MAREA":" ","LANE":"７９巷","ALLEY":" ","HOUSE_NO":"２０號","E_COORD97":179324.67999999999,"N_COORD97":2578970.1800000002,"ADDRESS":"周武街７９巷２０號","OBJECTID":332893},"geometry":{"x":179324.6799999997,"y":2578970.1799999997}},{"attributes":{"ID":332903,"DIS_CODE":0,"TOWNNAME":"新營區","LI":"忠政里","LIN":"6鄰","STREET":"府西路","SECT":" ","MAREA":" ","LANE":"２２巷","ALLEY":" ","HOUSE_NO":"６號","E_COORD97":179842,"N_COORD97":2579200.27,"ADDRESS":"府西路２２巷６號","OBJECTID":332894},"geometry":{"x":179842,"y":2579200.2699999977}},{"attributes":{"ID":332904,"DIS_CODE":0,"TOWNNAME":"東區","LI":"大智里","LIN":"15鄰","STREET":"德東街","SECT":" ","MAREA":" ","LANE":"１６２巷","ALLEY":" ","HOUSE_NO":"５８號","E_COORD97":171250.32999999999,"N_COORD97":2540131.8399999999,"ADDRESS":"德東街１６２巷５８號","OBJECTID":332895},"geometry":{"x":171250.33000000007,"y":2540131.8399999999}},{"attributes":{"ID":332905,"DIS_CODE":0,"TOWNNAME":"東區","LI":"大智里","LIN":"15鄰","STREET":"德東街","SECT":" ","MAREA":" ","LANE":"１６２巷","ALLEY":" ","HOUSE_NO":"５６號","E_COORD97":171249.60999999999,"N_COORD97":2540137.79,"ADDRESS":"德東街１６２巷５６號","OBJECTID":332896},"geometry":{"x":171249.61000000127,"y":2540137.7899999991}},{"attributes":{"ID":332906,"DIS_CODE":0,"TOWNNAME":"東區","LI":"大智里","LIN":"15鄰","STREET":"德東街","SECT":" ","MAREA":" ","LANE":"１６２巷","ALLEY":" ","HOUSE_NO":"５２號","E_COORD97":171249.42999999999,"N_COORD97":2540142.29,"ADDRESS":"德東街１６２巷５２號","OBJECTID":332897},"geometry":{"x":171249.42999999877,"y":2540142.2899999991}},{"attributes":{"ID":332907,"DIS_CODE":0,"TOWNNAME":"東區","LI":"大智里","LIN":"15鄰","STREET":"德東街","SECT":" ","MAREA":" ","LANE":"１６２巷","ALLEY":" ","HOUSE_NO":"５０號","E_COORD97":171248.89000000001,"N_COORD97":2540147.1600000001,"ADDRESS":"德東街１６２巷５０號","OBJECTID":332898},"geometry":{"x":171248.8900000006,"y":2540147.1600000001}},{"attributes":{"ID":332908,"DIS_CODE":0,"TOWNNAME":"東區","LI":"和平里","LIN":"17鄰","STREET":"仁和路","SECT":" ","MAREA":" ","LANE":" ","ALLEY":" ","HOUSE_NO":"７３號之１２１","E_COORD97":171375.09,"N_COORD97":2541541.4199999999,"ADDRESS":"仁和路７３號之１２１","OBJECTID":332899},"geometry":{"x":171375.08999999985,"y":2541541.4199999999}},{"attributes":{"ID":332909,"DIS_CODE":0,"TOWNNAME":"東區","LI":"和平里","LIN":"17鄰","STREET":"仁和路","SECT":" ","MAREA":" ","LANE":" ","ALLEY":" ","HOUSE_NO":"７３號之１２２","E_COORD97":171378.07000000001,"N_COORD97":2541541.8100000001,"ADDRESS":"仁和路７３號之１２２","OBJECTID":332900},"geometry":{"x":171378.07000000216,"y":2541541.8100000024}},{"attributes":{"ID":332910,"DIS_CODE":0,"TOWNNAME":"東區","LI":"和平里","LIN":"17鄰","STREET":"仁和路","SECT":" ","MAREA":" ","LANE":" ","ALLEY":" ","HOUSE_NO":"７３號之１２３","E_COORD97":171381.85000000001,"N_COORD97":2541542.0099999998,"ADDRESS":"仁和路７３號之１２３","OBJECTID":332901},"geometry":{"x":171381.84999999963,"y":2541542.0099999979}},{"attributes":{"ID":332911,"DIS_CODE":0,"TOWNNAME":"東區","LI":"和平里","LIN":"17鄰","STREET":"仁和路","SECT":" ","MAREA":" ","LANE":" ","ALLEY":" ","HOUSE_NO":"７３號之１２４","E_COORD97":171385.82000000001,"N_COORD97":2541543.3999999999,"ADDRESS":"仁和路７３號之１２４","OBJECTID":332902},"geometry":{"x":171385.8200000003,"y":2541543.3999999985}},{"attributes":{"ID":332912,"DIS_CODE":0,"TOWNNAME":"東區","LI":"和平里","LIN":"17鄰","STREET":"仁和路","SECT":" ","MAREA":" ","LANE":" ","ALLEY":" ","HOUSE_NO":"７３號之８２","E_COORD97":171330.94,"N_COORD97":2541582.3999999999,"ADDRESS":"仁和路７３號之８２","OBJECTID":332903},"geometry":{"x":171330.94000000041,"y":2541582.4000000022}},{"attributes":{"ID":332913,"DIS_CODE":0,"TOWNNAME":"東區","LI":"和平里","LIN":"17鄰","STREET":"仁和路","SECT":" ","MAREA":" ","LANE":" ","ALLEY":" ","HOUSE_NO":"７３號之８３","E_COORD97":171335.04999999999,"N_COORD97":2541582.5,"ADDRESS":"仁和路７３號之８３","OBJECTID":332904},"geometry":{"x":171335.04999999981,"y":2541582.5}},{"attributes":{"ID":332914,"DIS_CODE":0,"TOWNNAME":"北區","LI":"成德里","LIN":"35鄰","STREET":"育德一街","SECT":" ","MAREA":" ","LANE":" ","ALLEY":" ","HOUSE_NO":"２０６號","E_COORD97":168551.57999999999,"N_COORD97":2546201.71,"ADDRESS":"育德一街２０６號","OBJECTID":332905},"geometry":{"x":168551.58000000007,"y":2546201.7100000028}},{"attributes":{"ID":332915,"DIS_CODE":0,"TOWNNAME":"柳營區","LI":"重溪里","LIN":"20鄰","STREET":" ","SECT":" ","MAREA":"五軍營","LANE":" ","ALLEY":" ","HOUSE_NO":"３０號之３","E_COORD97":183479.79999999999,"N_COORD97":2577261.8199999998,"ADDRESS":"五軍營３０號之３","OBJECTID":332906},"geometry":{"x":183479.80000000075,"y":2577261.820000004}},{"attributes":{"ID":332916,"DIS_CODE":0,"TOWNNAME":"柳營區","LI":"重溪里","LIN":"20鄰","STREET":" ","SECT":" ","MAREA":"五軍營","LANE":" ","ALLEY":" ","HOUSE_NO":"３０號之４","E_COORD97":183480.01999999999,"N_COORD97":2577257.5499999998,"ADDRESS":"五軍營３０號之４","OBJECTID":332907},"geometry":{"x":183480.02000000048,"y":2577257.5500000026}},{"attributes":{"ID":332917,"DIS_CODE":0,"TOWNNAME":"麻豆區","LI":"中興里","LIN":"3鄰","STREET":"三民路","SECT":" ","MAREA":" ","LANE":" ","ALLEY":" ","HOUSE_NO":"２３號之４","E_COORD97":172801.82164000001,"N_COORD97":2564628.4057100001,"ADDRESS":"三民路２３號之４","OBJECTID":332908},"geometry":{"x":172801.82163999975,"y":2564628.4057100024}},{"attributes":{"ID":332918,"DIS_CODE":0,"TOWNNAME":"歸仁區","LI":"大潭里","LIN":"21鄰","STREET":"長榮路","SECT":"二段","MAREA":" ","LANE":" ","ALLEY":" ","HOUSE_NO":"１１０號","E_COORD97":176988.37006099999,"N_COORD97":2534508.7516299998,"ADDRESS":"長榮路二段１１０號","OBJECTID":332909},"geometry":{"x":176988.37006099988,"y":2534508.7516250033}},{"attributes":{"ID":332919,"DIS_CODE":0,"TOWNNAME":"下營區","LI":"營前里","LIN":"16鄰","STREET":"文明街","SECT":" ","MAREA":" ","LANE":" ","ALLEY":" ","HOUSE_NO":"１２號","E_COORD97":174742.95960100001,"N_COORD97":2570394.29709,"ADDRESS":"文明街１２號","OBJECTID":332910},"geometry":{"x":174742.95960099995,"y":2570394.2970890012}},{"attributes":{"ID":332920,"DIS_CODE":0,"TOWNNAME":"永康區","LI":"西橋里","LIN":"24鄰","STREET":"中華西街","SECT":" ","MAREA":" ","LANE":" ","ALLEY":" ","HOUSE_NO":"２７３號","E_COORD97":170694.797663,"N_COORD97":2546465.8776699998,"ADDRESS":"中華西街２７３號","OBJECTID":332911},"geometry":{"x":170694.79766300227,"y":2546465.877673002}},{"attributes":{"ID":332921,"DIS_CODE":0,"TOWNNAME":"永康區","LI":"西橋里","LIN":"24鄰","STREET":"中華西街","SECT":" ","MAREA":" ","LANE":" ","ALLEY":" ","HOUSE_NO":"２８５號","E_COORD97":170710.04513799999,"N_COORD97":2546490.5368300001,"ADDRESS":"中華西街２８５號","OBJECTID":332912},"geometry":{"x":170710.04513799958,"y":2546490.5368270017}},{"attributes":{"ID":332922,"DIS_CODE":0,"TOWNNAME":"南區","LI":"府南里","LIN":"11鄰","STREET":"永成路","SECT":"三段","MAREA":" ","LANE":" ","ALLEY":" ","HOUSE_NO":"４２２號","E_COORD97":167510.09116800001,"N_COORD97":2541079.3717299998,"ADDRESS":"永成路三段４２２號","OBJECTID":332913},"geometry":{"x":167510.09116800129,"y":2541079.3717289995}},{"attributes":{"ID":332923,"DIS_CODE":0,"TOWNNAME":"柳營區","LI":"士林里","LIN":"20鄰","STREET":"育英街","SECT":" ","MAREA":" ","LANE":"１０５巷","ALLEY":" ","HOUSE_NO":"３號","E_COORD97":179396.45000000001,"N_COORD97":2574865.1899999999,"ADDRESS":"育英街１０５巷３號","OBJECTID":332914},"geometry":{"x":179396.45000000019,"y":2574865.1900000013}},{"attributes":{"ID":332924,"DIS_CODE":0,"TOWNNAME":"柳營區","LI":"士林里","LIN":"20鄰","STREET":"育英街","SECT":" ","MAREA":" ","LANE":"１０５巷","ALLEY":" ","HOUSE_NO":"４１號","E_COORD97":179402.17000000001,"N_COORD97":2574832.8599999999,"ADDRESS":"育英街１０５巷４１號","OBJECTID":332915},"geometry":{"x":179402.17000000086,"y":2574832.8600000031}},{"attributes":{"ID":332925,"DIS_CODE":0,"TOWNNAME":"柳營區","LI":"士林里","LIN":"20鄰","STREET":"育英街","SECT":" ","MAREA":" ","LANE":"１０５巷","ALLEY":" ","HOUSE_NO":"４３號","E_COORD97":179406.76000000001,"N_COORD97":2574832.8900000001,"ADDRESS":"育英街１０５巷４３號","OBJECTID":332916},"geometry":{"x":179406.76000000071,"y":2574832.8900000006}},{"attributes":{"ID":332926,"DIS_CODE":0,"TOWNNAME":"柳營區","LI":"士林里","LIN":"20鄰","STREET":"育英街","SECT":" ","MAREA":" ","LANE":"１０５巷","ALLEY":" ","HOUSE_NO":"４５號","E_COORD97":179411.35999999999,"N_COORD97":2574832.9300000002,"ADDRESS":"育英街１０５巷４５號","OBJECTID":332917},"geometry":{"x":179411.3600000022,"y":2574832.9300000034}},{"attributes":{"ID":332927,"DIS_CODE":0,"TOWNNAME":"柳營區","LI":"士林里","LIN":"20鄰","STREET":"育英街","SECT":" ","MAREA":" ","LANE":"１０５巷","ALLEY":" ","HOUSE_NO":"４７號","E_COORD97":179415.95999999999,"N_COORD97":2574832.9700000002,"ADDRESS":"育英街１０５巷４７號","OBJECTID":332918},"geometry":{"x":179415.96000000089,"y":2574832.9700000007}},{"attributes":{"ID":332928,"DIS_CODE":0,"TOWNNAME":"東區","LI":"大智里","LIN":"15鄰","STREET":"德東街","SECT":" ","MAREA":" ","LANE":"１６２巷","ALLEY":" ","HOUSE_NO":"４６號","E_COORD97":171248.17000000001,"N_COORD97":2540152.9300000002,"ADDRESS":"德東街１６２巷４６號","OBJECTID":332919},"geometry":{"x":171248.17000000179,"y":2540152.9300000016}},{"attributes":{"ID":332929,"DIS_CODE":0,"TOWNNAME":"東區","LI":"大智里","LIN":"15鄰","STREET":"德東街","SECT":" ","MAREA":" ","LANE":"１６２巷","ALLEY":" ","HOUSE_NO":"４２號","E_COORD97":171248.17000000001,"N_COORD97":2540158.1499999999,"ADDRESS":"德東街１６２巷４２號","OBJECTID":332920},"geometry":{"x":171248.17000000179,"y":2540158.1500000004}},{"attributes":{"ID":332930,"DIS_CODE":0,"TOWNNAME":"東區","LI":"大智里","LIN":"15鄰","STREET":"德東街","SECT":" ","MAREA":" ","LANE":"１６２巷","ALLEY":" ","HOUSE_NO":"４０號","E_COORD97":171247.63,"N_COORD97":2540163.9199999999,"ADDRESS":"德東街１６２巷４０號","OBJECTID":332921},"geometry":{"x":171247.62999999989,"y":2540163.9200000018}},{"attributes":{"ID":332931,"DIS_CODE":0,"TOWNNAME":"東區","LI":"大智里","LIN":"15鄰","STREET":"德東街","SECT":" ","MAREA":" ","LANE":"１６２巷","ALLEY":" ","HOUSE_NO":"７６號","E_COORD97":171251.23000000001,"N_COORD97":2540101.5600000001,"ADDRESS":"德東街１６２巷７６號","OBJECTID":332922},"geometry":{"x":171251.23000000045,"y":2540101.5599999987}},{"attributes":{"ID":332932,"DIS_CODE":0,"TOWNNAME":"東區","LI":"大智里","LIN":"15鄰","STREET":"德東街","SECT":" ","MAREA":" ","LANE":"１６２巷","ALLEY":" ","HOUSE_NO":"７２號","E_COORD97":171250.69,"N_COORD97":2540105.5299999998,"ADDRESS":"德東街１６２巷７２號","OBJECTID":332923},"geometry":{"x":171250.69000000134,"y":2540105.5300000012}},{"attributes":{"ID":332933,"DIS_CODE":0,"TOWNNAME":"東區","LI":"大智里","LIN":"15鄰","STREET":"德東街","SECT":" ","MAREA":" ","LANE":"１６２巷","ALLEY":" ","HOUSE_NO":"７０號","E_COORD97":171249.97,"N_COORD97":2540109.6699999999,"ADDRESS":"德東街１６２巷７０號","OBJECTID":332924},"geometry":{"x":171249.97000000067,"y":2540109.6699999999}},{"attributes":{"ID":332934,"DIS_CODE":0,"TOWNNAME":"東區","LI":"大智里","LIN":"15鄰","STREET":"德東街","SECT":" ","MAREA":" ","LANE":"１６２巷","ALLEY":" ","HOUSE_NO":"３８號","E_COORD97":171247.07999999999,"N_COORD97":2540168.2400000002,"ADDRESS":"德東街１６２巷３８號","OBJECTID":332925},"geometry":{"x":171247.08000000007,"y":2540168.2400000039}},{"attributes":{"ID":332935,"DIS_CODE":0,"TOWNNAME":"東區","LI":"大智里","LIN":"15鄰","STREET":"德東街","SECT":" ","MAREA":" ","LANE":"１６２巷","ALLEY":" ","HOUSE_NO":"６８號","E_COORD97":171250.51000000001,"N_COORD97":2540113.46,"ADDRESS":"德東街１６２巷６８號","OBJECTID":332926},"geometry":{"x":171250.50999999978,"y":2540113.4600000028}},{"attributes":{"ID":332936,"DIS_CODE":0,"TOWNNAME":"東區","LI":"後甲里","LIN":"15鄰","STREET":"裕農路","SECT":" ","MAREA":" ","LANE":"６２１巷","ALLEY":" ","HOUSE_NO":"７３號之１","E_COORD97":171502.48999999999,"N_COORD97":2543484.1200000001,"ADDRESS":"裕農路６２１巷７３號之１","OBJECTID":332927},"geometry":{"x":171502.49000000115,"y":2543484.120000001}},{"attributes":{"ID":332937,"DIS_CODE":0,"TOWNNAME":"東區","LI":"和平里","LIN":"17鄰","STREET":"仁和路","SECT":" ","MAREA":" ","LANE":" ","ALLEY":" ","HOUSE_NO":"７３號之８４","E_COORD97":171338.73999999999,"N_COORD97":2541582.8199999998,"ADDRESS":"仁和路７３號之８４","OBJECTID":332928},"geometry":{"x":171338.74000000022,"y":2541582.8200000022}},{"attributes":{"ID":332938,"DIS_CODE":0,"TOWNNAME":"東區","LI":"和平里","LIN":"17鄰","STREET":"仁和路","SECT":" ","MAREA":" ","LANE":" ","ALLEY":" ","HOUSE_NO":"７３號之８５","E_COORD97":171343.70999999999,"N_COORD97":2541582.79,"ADDRESS":"仁和路７３號之８５","OBJECTID":332929},"geometry":{"x":171343.70999999996,"y":2541582.7899999991}},{"attributes":{"ID":332939,"DIS_CODE":0,"TOWNNAME":"東區","LI":"和平里","LIN":"17鄰","STREET":"仁和路","SECT":" ","MAREA":" ","LANE":" ","ALLEY":" ","HOUSE_NO":"７３號之８６","E_COORD97":171347.39999999999,"N_COORD97":2541582.8500000001,"ADDRESS":"仁和路７３號之８６","OBJECTID":332930},"geometry":{"x":171347.4000000013,"y":2541582.8499999996}},{"attributes":{"ID":332940,"DIS_CODE":0,"TOWNNAME":"東區","LI":"和平里","LIN":"17鄰","STREET":"仁和路","SECT":" ","MAREA":" ","LANE":" ","ALLEY":" ","HOUSE_NO":"７３號之８７","E_COORD97":171351.41,"N_COORD97":2541582.98,"ADDRESS":"仁和路７３號之８７","OBJECTID":332931},"geometry":{"x":171351.41000000015,"y":2541582.9800000004}},{"attributes":{"ID":332941,"DIS_CODE":0,"TOWNNAME":"東區","LI":"和平里","LIN":"17鄰","STREET":"仁和路","SECT":" ","MAREA":" ","LANE":" ","ALLEY":" ","HOUSE_NO":"７３號之８８","E_COORD97":171355.35999999999,"N_COORD97":2541583.71,"ADDRESS":"仁和路７３號之８８","OBJECTID":332932},"geometry":{"x":171355.36000000034,"y":2541583.7100000028}},{"attributes":{"ID":332942,"DIS_CODE":0,"TOWNNAME":"東區","LI":"和平里","LIN":"17鄰","STREET":"仁和路","SECT":" ","MAREA":" ","LANE":" ","ALLEY":" ","HOUSE_NO":"７３號之８９","E_COORD97":171359.07000000001,"N_COORD97":2541584.3999999999,"ADDRESS":"仁和路７３號之８９","OBJECTID":332933},"geometry":{"x":171359.0700000003,"y":2541584.4000000041}},{"attributes":{"ID":332943,"DIS_CODE":0,"TOWNNAME":"東區","LI":"和平里","LIN":"17鄰","STREET":"仁和路","SECT":" ","MAREA":" ","LANE":" ","ALLEY":" ","HOUSE_NO":"７３號之９０","E_COORD97":171362.64999999999,"N_COORD97":2541584.71,"ADDRESS":"仁和路７３號之９０","OBJECTID":332934},"geometry":{"x":171362.6500000013,"y":2541584.7100000009}},{"attributes":{"ID":332944,"DIS_CODE":0,"TOWNNAME":"關廟區","LI":"新光里","LIN":"1鄰","STREET":"新湖街","SECT":" ","MAREA":" ","LANE":" ","ALLEY":" ","HOUSE_NO":"３４０號","E_COORD97":182951.93349699999,"N_COORD97":2542972.08819,"ADDRESS":"新湖街３４０號","OBJECTID":332935},"geometry":{"x":182951.93349699955,"y":2542972.0881890003}},{"attributes":{"ID":332945,"DIS_CODE":0,"TOWNNAME":"東區","LI":"和平里","LIN":"17鄰","STREET":"仁和路","SECT":" ","MAREA":" ","LANE":" ","ALLEY":" ","HOUSE_NO":"７３號之９１","E_COORD97":171366.87,"N_COORD97":2541584.8199999998,"ADDRESS":"仁和路７３號之９１","OBJECTID":332936},"geometry":{"x":171366.87000000011,"y":2541584.820000004}},{"attributes":{"ID":332946,"DIS_CODE":0,"TOWNNAME":"東區","LI":"和平里","LIN":"17鄰","STREET":"仁和路","SECT":" ","MAREA":" ","LANE":" ","ALLEY":" ","HOUSE_NO":"７３號之９２","E_COORD97":171371.07999999999,"N_COORD97":2541585.3500000001,"ADDRESS":"仁和路７３號之９２","OBJECTID":332937},"geometry":{"x":171371.08000000194,"y":2541585.3500000015}},{"attributes":{"ID":332947,"DIS_CODE":0,"TOWNNAME":"下營區","LI":"開化里","LIN":"4鄰","STREET":" ","SECT":" ","MAREA":"中營","LANE":" ","ALLEY":" ","HOUSE_NO":"２９０號之９","E_COORD97":175778.398617,"N_COORD97":2567695.38729,"ADDRESS":"中營２９０號之９","OBJECTID":332938},"geometry":{"x":175778.39861700032,"y":2567695.3872870021}},{"attributes":{"ID":332948,"DIS_CODE":0,"TOWNNAME":"官田區","LI":"嘉南里","LIN":"3鄰","STREET":" ","SECT":" ","MAREA":"嘉南","LANE":" ","ALLEY":" ","HOUSE_NO":"２２號之１６","E_COORD97":184840.27196499999,"N_COORD97":2568087.9961399999,"ADDRESS":"嘉南２２號之１６","OBJECTID":332939},"geometry":{"x":184840.27196499985,"y":2568087.9961350001}},{"attributes":{"ID":332949,"DIS_CODE":0,"TOWNNAME":"下營區","LI":"大屯里","LIN":"5鄰","STREET":" ","SECT":" ","MAREA":"大屯寮","LANE":" ","ALLEY":" ","HOUSE_NO":"４８號之１１","E_COORD97":170822.217244,"N_COORD97":2570358.1904899999,"ADDRESS":"大屯寮４８號之１１","OBJECTID":332940},"geometry":{"x":170822.21724400017,"y":2570358.1904850025}},{"attributes":{"ID":332950,"DIS_CODE":0,"TOWNNAME":"下營區","LI":"大屯里","LIN":"5鄰","STREET":" ","SECT":" ","MAREA":"大屯寮","LANE":" ","ALLEY":" ","HOUSE_NO":"４８號之３２","E_COORD97":170970.83442500001,"N_COORD97":2570117.73728,"ADDRESS":"大屯寮４８號之３２","OBJECTID":332941},"geometry":{"x":170970.83442500047,"y":2570117.7372819986}},{"attributes":{"ID":332951,"DIS_CODE":0,"TOWNNAME":"官田區","LI":"嘉南里","LIN":"6鄰","STREET":" ","SECT":" ","MAREA":"嘉南","LANE":" ","ALLEY":" ","HOUSE_NO":"６９號之２","E_COORD97":185506.53691900001,"N_COORD97":2566242.3696300001,"ADDRESS":"嘉南６９號之２","OBJECTID":332942},"geometry":{"x":185506.53691899963,"y":2566242.369632002}},{"attributes":{"ID":332952,"DIS_CODE":0,"TOWNNAME":"關廟區","LI":"五甲里","LIN":"10鄰","STREET":"五甲路","SECT":" ","MAREA":" ","LANE":" ","ALLEY":" ","HOUSE_NO":"６００號","E_COORD97":181069.65995199999,"N_COORD97":2537884.89995,"ADDRESS":"五甲路６００號","OBJECTID":332943},"geometry":{"x":181069.65995199978,"y":2537884.8999540005}},{"attributes":{"ID":332953,"DIS_CODE":0,"TOWNNAME":"東區","LI":"後甲里","LIN":"15鄰","STREET":"裕農路","SECT":" ","MAREA":" ","LANE":"６２１巷","ALLEY":" ","HOUSE_NO":"６５號之１","E_COORD97":171509.95999999999,"N_COORD97":2543440.4300000002,"ADDRESS":"裕農路６２１巷６５號之１","OBJECTID":332944},"geometry":{"x":171509.95999999996,"y":2543440.4299999997}},{"attributes":{"ID":332954,"DIS_CODE":0,"TOWNNAME":"東區","LI":"後甲里","LIN":"15鄰","STREET":"裕農路","SECT":" ","MAREA":" ","LANE":"６２１巷","ALLEY":" ","HOUSE_NO":"６５號之２","E_COORD97":171511.41,"N_COORD97":2543436.0899999999,"ADDRESS":"裕農路６２１巷６５號之２","OBJECTID":332945},"geometry":{"x":171511.41000000108,"y":2543436.0899999999}},{"attributes":{"ID":332955,"DIS_CODE":0,"TOWNNAME":"東區","LI":"後甲里","LIN":"15鄰","STREET":"裕農路","SECT":" ","MAREA":" ","LANE":"６２１巷","ALLEY":" ","HOUSE_NO":"６９號之４","E_COORD97":171479.57000000001,"N_COORD97":2543468.2200000002,"ADDRESS":"裕農路６２１巷６９號之４","OBJECTID":332946},"geometry":{"x":171479.5700000003,"y":2543468.2200000025}},{"attributes":{"ID":332956,"DIS_CODE":0,"TOWNNAME":"新營區","LI":"南興里","LIN":"25鄰","STREET":"和平路","SECT":" ","MAREA":" ","LANE":"９７巷","ALLEY":" ","HOUSE_NO":"３９號","E_COORD97":179551.23999999999,"N_COORD97":2577569.27,"ADDRESS":"和平路９７巷３９號","OBJECTID":332947},"geometry":{"x":179551.24000000115,"y":2577569.2699999996}},{"attributes":{"ID":332957,"DIS_CODE":0,"TOWNNAME":"新營區","LI":"民權里","LIN":"24鄰","STREET":"民治路","SECT":" ","MAREA":" ","LANE":"５３巷","ALLEY":" ","HOUSE_NO":"９之１號","E_COORD97":179680.53,"N_COORD97":2578708.2799999998,"ADDRESS":"民治路５３巷９之１號","OBJECTID":332948},"geometry":{"x":179680.53000000026,"y":2578708.2799999993}},{"attributes":{"ID":332958,"DIS_CODE":0,"TOWNNAME":"東區","LI":"大德里","LIN":"15鄰","STREET":"立德十一路","SECT":" ","MAREA":" ","LANE":"２９巷","ALLEY":" ","HOUSE_NO":"５８號","E_COORD97":169456.48000000001,"N_COORD97":2542205.5,"ADDRESS":"立德十一路２９巷５８號","OBJECTID":332949},"geometry":{"x":169456.48000000231,"y":2542205.5}},{"attributes":{"ID":332959,"DIS_CODE":0,"TOWNNAME":"東區","LI":"大德里","LIN":"15鄰","STREET":"立德十一路","SECT":" ","MAREA":" ","LANE":"２９巷","ALLEY":" ","HOUSE_NO":"６２號","E_COORD97":169475.14999999999,"N_COORD97":2542208.98,"ADDRESS":"立德十一路２９巷６２號","OBJECTID":332950},"geometry":{"x":169475.15000000037,"y":2542208.9800000023}},{"attributes":{"ID":332960,"DIS_CODE":0,"TOWNNAME":"東區","LI":"大德里","LIN":"15鄰","STREET":"立德十一路","SECT":" ","MAREA":" ","LANE":"２９巷","ALLEY":" ","HOUSE_NO":"７號","E_COORD97":169434.01999999999,"N_COORD97":2542136.0600000001,"ADDRESS":"立德十一路２９巷７號","OBJECTID":332951},"geometry":{"x":169434.02000000048,"y":2542136.0600000042}},{"attributes":{"ID":332961,"DIS_CODE":0,"TOWNNAME":"東區","LI":"大德里","LIN":"15鄰","STREET":"立德十一路","SECT":" ","MAREA":" ","LANE":"２９巷","ALLEY":" ","HOUSE_NO":"９號","E_COORD97":169435.44,"N_COORD97":2542147.0499999998,"ADDRESS":"立德十一路２９巷９號","OBJECTID":332952},"geometry":{"x":169435.44000000134,"y":2542147.0500000026}},{"attributes":{"ID":332962,"DIS_CODE":0,"TOWNNAME":"東區","LI":"大德里","LIN":"15鄰","STREET":"立德十一路","SECT":" ","MAREA":" ","LANE":"２９巷","ALLEY":" ","HOUSE_NO":"１０號","E_COORD97":169476.63,"N_COORD97":2542120.52,"ADDRESS":"立德十一路２９巷１０號","OBJECTID":332953},"geometry":{"x":169476.62999999989,"y":2542120.5199999996}},{"attributes":{"ID":332963,"DIS_CODE":0,"TOWNNAME":"東區","LI":"大德里","LIN":"15鄰","STREET":"立德十一路","SECT":" ","MAREA":" ","LANE":"２９巷","ALLEY":" ","HOUSE_NO":"１２號","E_COORD97":169484.79000000001,"N_COORD97":2542122.6400000001,"ADDRESS":"立德十一路２９巷１２號","OBJECTID":332954},"geometry":{"x":169484.79000000097,"y":2542122.6400000025}},{"attributes":{"ID":332964,"DIS_CODE":0,"TOWNNAME":"東區","LI":"大德里","LIN":"15鄰","STREET":"立德十一路","SECT":" ","MAREA":" ","LANE":"２９巷","ALLEY":" ","HOUSE_NO":"１３號","E_COORD97":169435.07999999999,"N_COORD97":2542174.71,"ADDRESS":"立德十一路２９巷１３號","OBJECTID":332955},"geometry":{"x":169435.08000000194,"y":2542174.7100000009}},{"attributes":{"ID":332965,"DIS_CODE":0,"TOWNNAME":"東區","LI":"東光里","LIN":"15鄰","STREET":"莊敬路","SECT":" ","MAREA":" ","LANE":"５７巷","ALLEY":" ","HOUSE_NO":"２號","E_COORD97":171315.97,"N_COORD97":2543830.4700000002,"ADDRESS":"莊敬路５７巷２號","OBJECTID":332956},"geometry":{"x":171315.97000000067,"y":2543830.4700000007}},{"attributes":{"ID":332966,"DIS_CODE":0,"TOWNNAME":"南區","LI":"彰南里","LIN":"20鄰","STREET":"新平路","SECT":" ","MAREA":" ","LANE":" ","ALLEY":" ","HOUSE_NO":"７號","E_COORD97":165891.89000000001,"N_COORD97":2540529.8900000001,"ADDRESS":"新平路７號","OBJECTID":332957},"geometry":{"x":165891.8900000006,"y":2540529.8899999987}},{"attributes":{"ID":332967,"DIS_CODE":0,"TOWNNAME":"南區","LI":"府南里","LIN":"11鄰","STREET":"永成路","SECT":"三段","MAREA":" ","LANE":"４３２巷","ALLEY":" ","HOUSE_NO":"２２號","E_COORD97":167573.19571599999,"N_COORD97":2541104.0285200002,"ADDRESS":"永成路三段４３２巷２２號","OBJECTID":332958},"geometry":{"x":167573.19571600109,"y":2541104.0285200011}},{"attributes":{"ID":332968,"DIS_CODE":0,"TOWNNAME":"南區","LI":"府南里","LIN":"11鄰","STREET":"永成路","SECT":"三段","MAREA":" ","LANE":"４３２巷","ALLEY":" ","HOUSE_NO":"２６號","E_COORD97":167577.74940299999,"N_COORD97":2541105.1926899999,"ADDRESS":"永成路三段４３２巷２６號","OBJECTID":332959},"geometry":{"x":167577.74940299988,"y":2541105.1926860008}},{"attributes":{"ID":332969,"DIS_CODE":0,"TOWNNAME":"南區","LI":"府南里","LIN":"11鄰","STREET":"永成路","SECT":"三段","MAREA":" ","LANE":"４３２巷","ALLEY":" ","HOUSE_NO":"２８號","E_COORD97":167581.98538999999,"N_COORD97":2541105.7218499999,"ADDRESS":"永成路三段４３２巷２８號","OBJECTID":332960},"geometry":{"x":167581.98539000098,"y":2541105.7218529992}},{"attributes":{"ID":332970,"DIS_CODE":0,"TOWNNAME":"南區","LI":"府南里","LIN":"11鄰","STREET":"永成路","SECT":"三段","MAREA":" ","LANE":"４３２巷","ALLEY":" ","HOUSE_NO":"３０號","E_COORD97":167587.38627399999,"N_COORD97":2541107.8385200002,"ADDRESS":"永成路三段４３２巷３０號","OBJECTID":332961},"geometry":{"x":167587.3862739997,"y":2541107.8385180011}},{"attributes":{"ID":332971,"DIS_CODE":0,"TOWNNAME":"關廟區","LI":"五甲里","LIN":"19鄰","STREET":"南雄路","SECT":"一段","MAREA":" ","LANE":" ","ALLEY":" ","HOUSE_NO":"１００１號","E_COORD97":181155.63608299999,"N_COORD97":2539574.2819500002,"ADDRESS":"南雄路一段１００１號","OBJECTID":332962},"geometry":{"x":181155.63608300034,"y":2539574.281947}},{"attributes":{"ID":332972,"DIS_CODE":0,"TOWNNAME":"南區","LI":"府南里","LIN":"11鄰","STREET":"永成路","SECT":"三段","MAREA":" ","LANE":" ","ALLEY":" ","HOUSE_NO":"４３６號","E_COORD97":167510.609001,"N_COORD97":2541102.6526899999,"ADDRESS":"永成路三段４３６號","OBJECTID":332963},"geometry":{"x":167510.60900100041,"y":2541102.6526880004}},{"attributes":{"ID":332973,"DIS_CODE":0,"TOWNNAME":"南區","LI":"府南里","LIN":"12鄰","STREET":"永成路","SECT":"三段","MAREA":" ","LANE":" ","ALLEY":" ","HOUSE_NO":"４１２號","E_COORD97":167510.71489999999,"N_COORD97":2541057.35604,"ADDRESS":"永成路三段４１２號","OBJECTID":332964},"geometry":{"x":167510.71490000002,"y":2541057.3560450021}},{"attributes":{"ID":332974,"DIS_CODE":0,"TOWNNAME":"南區","LI":"府南里","LIN":"12鄰","STREET":"永成路","SECT":"三段","MAREA":" ","LANE":" ","ALLEY":" ","HOUSE_NO":"４１０號","E_COORD97":167510.92670000001,"N_COORD97":2541052.80522,"ADDRESS":"永成路三段４１０號","OBJECTID":332965},"geometry":{"x":167510.92670000065,"y":2541052.805215003}},{"attributes":{"ID":332975,"DIS_CODE":0,"TOWNNAME":"南區","LI":"府南里","LIN":"12鄰","STREET":"永成路","SECT":"三段","MAREA":" ","LANE":" ","ALLEY":" ","HOUSE_NO":"４０８號","E_COORD97":167510.92670000001,"N_COORD97":2541049.20688,"ADDRESS":"永成路三段４０８號","OBJECTID":332966},"geometry":{"x":167510.92670000065,"y":2541049.2068830002}},{"attributes":{"ID":332976,"DIS_CODE":0,"TOWNNAME":"大內區","LI":"曲溪里","LIN":"5鄰","STREET":" ","SECT":" ","MAREA":"二重溪","LANE":" ","ALLEY":" ","HOUSE_NO":"４９之２５號","E_COORD97":187498.744377,"N_COORD97":2557189.8329500002,"ADDRESS":"二重溪４９之２５號","OBJECTID":332967},"geometry":{"x":187498.74437700119,"y":2557189.8329499997}},{"attributes":{"ID":332977,"DIS_CODE":0,"TOWNNAME":"關廟區","LI":"五甲里","LIN":"5鄰","STREET":"五甲路","SECT":" ","MAREA":" ","LANE":" ","ALLEY":" ","HOUSE_NO":"５６號","E_COORD97":181283.22445899999,"N_COORD97":2538868.4798300001,"ADDRESS":"五甲路５６號","OBJECTID":332968},"geometry":{"x":181283.22445900086,"y":2538868.4798280019}},{"attributes":{"ID":332978,"DIS_CODE":0,"TOWNNAME":"關廟區","LI":"五甲里","LIN":"2鄰","STREET":"光復街","SECT":" ","MAREA":" ","LANE":" ","ALLEY":" ","HOUSE_NO":"９８號","E_COORD97":181520.174302,"N_COORD97":2539353.5137299998,"ADDRESS":"光復街９８號","OBJECTID":332969},"geometry":{"x":181520.17430199962,"y":2539353.5137329996}},{"attributes":{"ID":332979,"DIS_CODE":0,"TOWNNAME":"六甲區","LI":"二甲里","LIN":"21鄰","STREET":"中山路","SECT":" ","MAREA":" ","LANE":" ","ALLEY":" ","HOUSE_NO":"２３１號","E_COORD97":183116.88018199999,"N_COORD97":2570101.5489699999,"ADDRESS":"中山路２３１號","OBJECTID":332970},"geometry":{"x":183116.88018199988,"y":2570101.5489680022}},{"attributes":{"ID":332980,"DIS_CODE":0,"TOWNNAME":"佳里區","LI":"六安里","LIN":"11鄰","STREET":"佳北路","SECT":" ","MAREA":" ","LANE":" ","ALLEY":" ","HOUSE_NO":"１０２號","E_COORD97":166096.04999999999,"N_COORD97":2563434.73,"ADDRESS":"佳北路１０２號","OBJECTID":332971},"geometry":{"x":166096.05000000075,"y":2563434.7300000023}},{"attributes":{"ID":332981,"DIS_CODE":0,"TOWNNAME":"關廟區","LI":"五甲里","LIN":"10鄰","STREET":"五甲路","SECT":" ","MAREA":" ","LANE":" ","ALLEY":" ","HOUSE_NO":"５７５號","E_COORD97":181061.83558899999,"N_COORD97":2538012.26346,"ADDRESS":"五甲路５７５號","OBJECTID":332972},"geometry":{"x":181061.83558900002,"y":2538012.263460001}},{"attributes":{"ID":332982,"DIS_CODE":0,"TOWNNAME":"關廟區","LI":"五甲里","LIN":"10鄰","STREET":"五甲路","SECT":" ","MAREA":" ","LANE":" ","ALLEY":" ","HOUSE_NO":"５７７號","E_COORD97":181070.737104,"N_COORD97":2537999.77513,"ADDRESS":"五甲路５７７號","OBJECTID":332973},"geometry":{"x":181070.73710400052,"y":2537999.7751339991}},{"attributes":{"ID":332983,"DIS_CODE":0,"TOWNNAME":"關廟區","LI":"五甲里","LIN":"12鄰","STREET":"東興路","SECT":" ","MAREA":" ","LANE":" ","ALLEY":" ","HOUSE_NO":"１６號","E_COORD97":181282.677929,"N_COORD97":2539530.6534699998,"ADDRESS":"東興路１６號","OBJECTID":332974},"geometry":{"x":181282.677929,"y":2539530.6534739994}},{"attributes":{"ID":332984,"DIS_CODE":0,"TOWNNAME":"關廟區","LI":"五甲里","LIN":"5鄰","STREET":"五甲路","SECT":" ","MAREA":" ","LANE":" ","ALLEY":" ","HOUSE_NO":"４１號","E_COORD97":181101.468524,"N_COORD97":2538948.2529500001,"ADDRESS":"五甲路４１號","OBJECTID":332975},"geometry":{"x":181101.46852399968,"y":2538948.2529550027}},{"attributes":{"ID":332985,"DIS_CODE":0,"TOWNNAME":"東區","LI":"東光里","LIN":"15鄰","STREET":"莊敬路","SECT":" ","MAREA":" ","LANE":"５７巷","ALLEY":" ","HOUSE_NO":"４號","E_COORD97":171311.91,"N_COORD97":2543833.21,"ADDRESS":"莊敬路５７巷４號","OBJECTID":332976},"geometry":{"x":171311.91000000108,"y":2543833.2100000009}},{"attributes":{"ID":332986,"DIS_CODE":0,"TOWNNAME":"東區","LI":"東光里","LIN":"15鄰","STREET":"莊敬路","SECT":" ","MAREA":" ","LANE":"５７巷","ALLEY":" ","HOUSE_NO":"６號","E_COORD97":171306.63,"N_COORD97":2543831.48,"ADDRESS":"莊敬路５７巷６號","OBJECTID":332977},"geometry":{"x":171306.63000000082,"y":2543831.4800000042}},{"attributes":{"ID":332987,"DIS_CODE":0,"TOWNNAME":"東區","LI":"東光里","LIN":"15鄰","STREET":"莊敬路","SECT":" ","MAREA":" ","LANE":"５７巷","ALLEY":" ","HOUSE_NO":"８號","E_COORD97":171302.35999999999,"N_COORD97":2543834.2200000002,"ADDRESS":"莊敬路５７巷８號","OBJECTID":332978},"geometry":{"x":171302.36000000127,"y":2543834.2200000025}},{"attributes":{"ID":332988,"DIS_CODE":0,"TOWNNAME":"東區","LI":"東光里","LIN":"15鄰","STREET":"莊敬路","SECT":" ","MAREA":" ","LANE":"５７巷","ALLEY":" ","HOUSE_NO":"１０號","E_COORD97":171297.79999999999,"N_COORD97":2543832.7000000002,"ADDRESS":"莊敬路５７巷１０號","OBJECTID":332979},"geometry":{"x":171297.79999999981,"y":2543832.7000000011}},{"attributes":{"ID":332989,"DIS_CODE":0,"TOWNNAME":"東區","LI":"東光里","LIN":"15鄰","STREET":"莊敬路","SECT":" ","MAREA":" ","LANE":"５７巷","ALLEY":" ","HOUSE_NO":"１２號","E_COORD97":171293.23000000001,"N_COORD97":2543835.2400000002,"ADDRESS":"莊敬路５７巷１２號","OBJECTID":332980},"geometry":{"x":171293.23000000045,"y":2543835.2400000002}},{"attributes":{"ID":332990,"DIS_CODE":0,"TOWNNAME":"東區","LI":"東光里","LIN":"15鄰","STREET":"莊敬路","SECT":" ","MAREA":" ","LANE":"５７巷","ALLEY":" ","HOUSE_NO":"１４號","E_COORD97":171288.14999999999,"N_COORD97":2543833.5099999998,"ADDRESS":"莊敬路５７巷１４號","OBJECTID":332981},"geometry":{"x":171288.1500000013,"y":2543833.5099999998}},{"attributes":{"ID":332991,"DIS_CODE":0,"TOWNNAME":"東區","LI":"東光里","LIN":"15鄰","STREET":"莊敬路","SECT":" ","MAREA":" ","LANE":"５７巷","ALLEY":" ","HOUSE_NO":"１６號","E_COORD97":171283.57999999999,"N_COORD97":2543835.4399999999,"ADDRESS":"莊敬路５７巷１６號","OBJECTID":332982},"geometry":{"x":171283.58000000101,"y":2543835.4400000013}},{"attributes":{"ID":332992,"DIS_CODE":0,"TOWNNAME":"東區","LI":"東光里","LIN":"15鄰","STREET":"莊敬路","SECT":" ","MAREA":" ","LANE":"５７巷","ALLEY":" ","HOUSE_NO":"１８號","E_COORD97":171278.70999999999,"N_COORD97":2543837.5699999998,"ADDRESS":"莊敬路５７巷１８號","OBJECTID":332983},"geometry":{"x":171278.71000000089,"y":2543837.570000004}},{"attributes":{"ID":332993,"DIS_CODE":0,"TOWNNAME":"東區","LI":"東光里","LIN":"15鄰","STREET":"莊敬路","SECT":" ","MAREA":" ","LANE":"５７巷","ALLEY":" ","HOUSE_NO":"２０號","E_COORD97":171274.35000000001,"N_COORD97":2543834.4300000002,"ADDRESS":"莊敬路５７巷２０號","OBJECTID":332984},"geometry":{"x":171274.35000000056,"y":2543834.4300000034}},{"attributes":{"ID":332994,"DIS_CODE":0,"TOWNNAME":"新營區","LI":"三仙里","LIN":"13鄰","STREET":"中華路","SECT":" ","MAREA":" ","LANE":"５２巷","ALLEY":" ","HOUSE_NO":"４號之１","E_COORD97":179604.44,"N_COORD97":2578249.04,"ADDRESS":"中華路５２巷４號之１","OBJECTID":332985},"geometry":{"x":179604.44000000134,"y":2578249.0400000028}},{"attributes":{"ID":332995,"DIS_CODE":0,"TOWNNAME":"新營區","LI":"永生里","LIN":"7鄰","STREET":"中興路","SECT":" ","MAREA":" ","LANE":"３０巷","ALLEY":" ","HOUSE_NO":"１號","E_COORD97":180089.75,"N_COORD97":2577949.8999999999,"ADDRESS":"中興路３０巷１號","OBJECTID":332986},"geometry":{"x":180089.75000000186,"y":2577949.9000000022}},{"attributes":{"ID":332996,"DIS_CODE":0,"TOWNNAME":"東區","LI":"東光里","LIN":"15鄰","STREET":"莊敬路","SECT":" ","MAREA":" ","LANE":"８１巷","ALLEY":" ","HOUSE_NO":"１５號","E_COORD97":171286.82999999999,"N_COORD97":2543867.3900000001,"ADDRESS":"莊敬路８１巷１５號","OBJECTID":332987},"geometry":{"x":171286.83000000101,"y":2543867.3900000025}},{"attributes":{"ID":332997,"DIS_CODE":0,"TOWNNAME":"東區","LI":"東光里","LIN":"15鄰","STREET":"莊敬路","SECT":" ","MAREA":" ","LANE":"８１巷","ALLEY":" ","HOUSE_NO":"１７號","E_COORD97":171278.70999999999,"N_COORD97":2543867.6899999999,"ADDRESS":"莊敬路８１巷１７號","OBJECTID":332988},"geometry":{"x":171278.71000000089,"y":2543867.6900000013}},{"attributes":{"ID":332998,"DIS_CODE":0,"TOWNNAME":"東區","LI":"衛國里","LIN":"15鄰","STREET":"衛國街","SECT":" ","MAREA":" ","LANE":"１１４巷","ALLEY":" ","HOUSE_NO":"１１號之１","E_COORD97":170480.97,"N_COORD97":2543161.7200000002,"ADDRESS":"衛國街１１４巷１１號之１","OBJECTID":332989},"geometry":{"x":170480.96999999974,"y":2543161.7200000007}},{"attributes":{"ID":332999,"DIS_CODE":0,"TOWNNAME":"東區","LI":"衛國里","LIN":"15鄰","STREET":"衛國街","SECT":" ","MAREA":" ","LANE":"１１４巷","ALLEY":" ","HOUSE_NO":"１３號","E_COORD97":170490.56,"N_COORD97":2543163.0600000001,"ADDRESS":"衛國街１１４巷１３號","OBJECTID":332990},"geometry":{"x":170490.55999999959,"y":2543163.0599999987}},{"attributes":{"ID":333000,"DIS_CODE":0,"TOWNNAME":"東區","LI":"衛國里","LIN":"15鄰","STREET":"衛國街","SECT":" ","MAREA":" ","LANE":"１１４巷","ALLEY":" ","HOUSE_NO":"１５號","E_COORD97":170499.20000000001,"N_COORD97":2543163.8300000001,"ADDRESS":"衛國街１１４巷１５號","OBJECTID":332991},"geometry":{"x":170499.20000000112,"y":2543163.8300000001}},{"attributes":{"ID":333001,"DIS_CODE":0,"TOWNNAME":"東區","LI":"衛國里","LIN":"15鄰","STREET":"衛國街","SECT":" ","MAREA":" ","LANE":"１１４巷","ALLEY":" ","HOUSE_NO":"１７號","E_COORD97":170507.25,"N_COORD97":2543165.3599999999,"ADDRESS":"衛國街１１４巷１７號","OBJECTID":332992},"geometry":{"x":170507.25000000093,"y":2543165.3599999994}},{"attributes":{"ID":333002,"DIS_CODE":0,"TOWNNAME":"東區","LI":"衛國里","LIN":"15鄰","STREET":"衛國街","SECT":" ","MAREA":" ","LANE":"１１４巷","ALLEY":" ","HOUSE_NO":"１９號","E_COORD97":170515.12,"N_COORD97":2543166.7000000002,"ADDRESS":"衛國街１１４巷１９號","OBJECTID":332993},"geometry":{"x":170515.12000000104,"y":2543166.6999999993}},{"attributes":{"ID":333003,"DIS_CODE":0,"TOWNNAME":"關廟區","LI":"五甲里","LIN":"10鄰","STREET":"五甲路","SECT":" ","MAREA":" ","LANE":"２８０巷","ALLEY":" ","HOUSE_NO":"５３號","E_COORD97":180790.339393,"N_COORD97":2538757.3297299999,"ADDRESS":"五甲路２８０巷５３號","OBJECTID":332994},"geometry":{"x":180790.33939300105,"y":2538757.329725001}},{"attributes":{"ID":333004,"DIS_CODE":0,"TOWNNAME":"仁德區","LI":"後壁里","LIN":"2鄰","STREET":"德糖路","SECT":" ","MAREA":" ","LANE":" ","ALLEY":" ","HOUSE_NO":"４７０號","E_COORD97":173273.29396800001,"N_COORD97":2539095.9016200001,"ADDRESS":"德糖路４７０號","OBJECTID":332995},"geometry":{"x":173273.29396800231,"y":2539095.9016220048}},{"attributes":{"ID":333005,"DIS_CODE":0,"TOWNNAME":"仁德區","LI":"後壁里","LIN":"2鄰","STREET":"德糖路","SECT":" ","MAREA":" ","LANE":" ","ALLEY":" ","HOUSE_NO":"４６８號","E_COORD97":173275.94231099999,"N_COORD97":2539097.0657899999,"ADDRESS":"德糖路４６８號","OBJECTID":332996},"geometry":{"x":173275.94231100101,"y":2539097.0657880027}},{"attributes":{"ID":333006,"DIS_CODE":0,"TOWNNAME":"歸仁區","LI":"大潭里","LIN":"20鄰","STREET":"長榮路","SECT":"二段","MAREA":" ","LANE":"７５巷","ALLEY":" ","HOUSE_NO":"６６號","E_COORD97":176961.234612,"N_COORD97":2534639.6230600001,"ADDRESS":"長榮路二段７５巷６６號","OBJECTID":332997},"geometry":{"x":176961.23461200017,"y":2534639.623064002}},{"attributes":{"ID":333007,"DIS_CODE":0,"TOWNNAME":"仁德區","LI":"後壁里","LIN":"2鄰","STREET":"德糖路","SECT":" ","MAREA":" ","LANE":" ","ALLEY":" ","HOUSE_NO":"４６６號","E_COORD97":173284.94667599999,"N_COORD97":2539099.2882900001,"ADDRESS":"德糖路４６６號","OBJECTID":332998},"geometry":{"x":173284.94667600002,"y":2539099.2882870007}},{"attributes":{"ID":333008,"DIS_CODE":0,"TOWNNAME":"關廟區","LI":"五甲里","LIN":"19鄰","STREET":"大富街","SECT":" ","MAREA":" ","LANE":"１９６巷","ALLEY":" ","HOUSE_NO":"２５號","E_COORD97":181128.596949,"N_COORD97":2539473.7151700002,"ADDRESS":"大富街１９６巷２５號","OBJECTID":332999},"geometry":{"x":181128.59694900084,"y":2539473.7151710019}},{"attributes":{"ID":333009,"DIS_CODE":0,"TOWNNAME":"關廟區","LI":"關廟里","LIN":"9鄰","STREET":"民生街","SECT":" ","MAREA":" ","LANE":"８７巷","ALLEY":" ","HOUSE_NO":"１號","E_COORD97":180895.90727600001,"N_COORD97":2539677.5460700002,"ADDRESS":"民生街８７巷１號","OBJECTID":333000},"geometry":{"x":180895.90727600083,"y":2539677.5460740011}}]}