{"displayFieldName":"TOWNNAME","fieldAliases":{"ID":"ID","DIS_CODE":"DIS_CODE","TOWNNAME":"TOWNNAME","LI":"LI","LIN":"LIN","STREET":"STREET","SECT":"SECT","MAREA":"MAREA","LANE":"LANE","ALLEY":"ALLEY","HOUSE_NO":"HOUSE_NO","E_COORD97":"E_COORD97","N_COORD97":"N_COORD97","ADDRESS":"ADDRESS","OBJECTID":"OBJECTID"},"geometryType":"esriGeometryPoint","spatialReference":{"wkid":102443,"latestWkid":3826},"fields":[{"name":"ID","type":"esriFieldTypeDouble","alias":"ID"},{"name":"DIS_CODE","type":"esriFieldTypeInteger","alias":"DIS_CODE"},{"name":"TOWNNAME","type":"esriFieldTypeString","alias":"TOWNNAME","length":8},{"name":"LI","type":"esriFieldTypeString","alias":"LI","length":8},{"name":"LIN","type":"esriFieldTypeString","alias":"LIN","length":12},{"name":"STREET","type":"esriFieldTypeString","alias":"STREET","length":20},{"name":"SECT","type":"esriFieldTypeString","alias":"SECT","length":8},{"name":"MAREA","type":"esriFieldTypeString","alias":"MAREA","length":12},{"name":"LANE","type":"esriFieldTypeString","alias":"LANE","length":10},{"name":"ALLEY","type":"esriFieldTypeString","alias":"ALLEY","length":10},{"name":"HOUSE_NO","type":"esriFieldTypeString","alias":"HOUSE_NO","length":20},{"name":"E_COORD97","type":"esriFieldTypeDouble","alias":"E_COORD97"},{"name":"N_COORD97","type":"esriFieldTypeDouble","alias":"N_COORD97"},{"name":"ADDRESS","type":"esriFieldTypeString","alias":"ADDRESS","length":50},{"name":"OBJECTID","type":"esriFieldTypeOID","alias":"OBJECTID"}],"features":[{"attributes":{"ID":572628,"DIS_CODE":0,"TOWNNAME":"東區","LI":"大智里","LIN":"29鄰","STREET":"德東街","SECT":" ","MAREA":" ","LANE":" ","ALLEY":" ","HOUSE_NO":"２６６號二樓","E_COORD97":171488.34,"N_COORD97":2540217.3100000001,"ADDRESS":"德東街２６６號二樓","OBJECTID":572601},"geometry":{"x":171488.34000000078,"y":2540217.3100000005}},{"attributes":{"ID":572629,"DIS_CODE":0,"TOWNNAME":"東區","LI":"大智里","LIN":"29鄰","STREET":"德東街","SECT":" ","MAREA":" ","LANE":" ","ALLEY":" ","HOUSE_NO":"２６６號三樓","E_COORD97":171488.34,"N_COORD97":2540217.3100000001,"ADDRESS":"德東街２６６號三樓","OBJECTID":572602},"geometry":{"x":171488.34000000078,"y":2540217.3100000005}},{"attributes":{"ID":572630,"DIS_CODE":0,"TOWNNAME":"東區","LI":"大智里","LIN":"29鄰","STREET":"德東街","SECT":" ","MAREA":" ","LANE":" ","ALLEY":" ","HOUSE_NO":"２６６號六樓","E_COORD97":171488.34,"N_COORD97":2540217.3100000001,"ADDRESS":"德東街２６６號六樓","OBJECTID":572603},"geometry":{"x":171488.34000000078,"y":2540217.3100000005}},{"attributes":{"ID":572631,"DIS_CODE":0,"TOWNNAME":"東區","LI":"大智里","LIN":"29鄰","STREET":"德東街","SECT":" ","MAREA":" ","LANE":" ","ALLEY":" ","HOUSE_NO":"２６６號四樓","E_COORD97":171488.34,"N_COORD97":2540217.3100000001,"ADDRESS":"德東街２６６號四樓","OBJECTID":572604},"geometry":{"x":171488.34000000078,"y":2540217.3100000005}},{"attributes":{"ID":572632,"DIS_CODE":0,"TOWNNAME":"東區","LI":"大智里","LIN":"29鄰","STREET":"德東街","SECT":" ","MAREA":" ","LANE":" ","ALLEY":" ","HOUSE_NO":"２６８號二樓","E_COORD97":171488.45999999999,"N_COORD97":2540225.5800000001,"ADDRESS":"德東街２６８號二樓","OBJECTID":572605},"geometry":{"x":171488.45999999996,"y":2540225.5800000001}},{"attributes":{"ID":572633,"DIS_CODE":0,"TOWNNAME":"東區","LI":"大智里","LIN":"29鄰","STREET":"德東街","SECT":" ","MAREA":" ","LANE":" ","ALLEY":" ","HOUSE_NO":"２６８號三樓","E_COORD97":171488.45999999999,"N_COORD97":2540225.5800000001,"ADDRESS":"德東街２６８號三樓","OBJECTID":572606},"geometry":{"x":171488.45999999996,"y":2540225.5800000001}},{"attributes":{"ID":572634,"DIS_CODE":0,"TOWNNAME":"東區","LI":"大智里","LIN":"29鄰","STREET":"德東街","SECT":" ","MAREA":" ","LANE":" ","ALLEY":" ","HOUSE_NO":"２６８號六樓","E_COORD97":171488.45999999999,"N_COORD97":2540225.5800000001,"ADDRESS":"德東街２６８號六樓","OBJECTID":572607},"geometry":{"x":171488.45999999996,"y":2540225.5800000001}},{"attributes":{"ID":572635,"DIS_CODE":0,"TOWNNAME":"東區","LI":"大智里","LIN":"29鄰","STREET":"德東街","SECT":" ","MAREA":" ","LANE":" ","ALLEY":" ","HOUSE_NO":"２６８號四樓","E_COORD97":171488.45999999999,"N_COORD97":2540225.5800000001,"ADDRESS":"德東街２６８號四樓","OBJECTID":572608},"geometry":{"x":171488.45999999996,"y":2540225.5800000001}},{"attributes":{"ID":572636,"DIS_CODE":0,"TOWNNAME":"東區","LI":"大智里","LIN":"29鄰","STREET":"德東街","SECT":" ","MAREA":" ","LANE":" ","ALLEY":" ","HOUSE_NO":"２７０號七樓","E_COORD97":171495.31,"N_COORD97":2540225.71,"ADDRESS":"德東街２７０號七樓","OBJECTID":572609},"geometry":{"x":171495.30999999959,"y":2540225.7100000009}},{"attributes":{"ID":572637,"DIS_CODE":0,"TOWNNAME":"東區","LI":"大智里","LIN":"29鄰","STREET":"德東街","SECT":" ","MAREA":" ","LANE":" ","ALLEY":" ","HOUSE_NO":"２７０號二樓","E_COORD97":171495.31,"N_COORD97":2540225.71,"ADDRESS":"德東街２７０號二樓","OBJECTID":572610},"geometry":{"x":171495.30999999959,"y":2540225.7100000009}},{"attributes":{"ID":572638,"DIS_CODE":0,"TOWNNAME":"東區","LI":"大智里","LIN":"29鄰","STREET":"德東街","SECT":" ","MAREA":" ","LANE":" ","ALLEY":" ","HOUSE_NO":"２７０號四樓","E_COORD97":171495.31,"N_COORD97":2540225.71,"ADDRESS":"德東街２７０號四樓","OBJECTID":572611},"geometry":{"x":171495.30999999959,"y":2540225.7100000009}},{"attributes":{"ID":572639,"DIS_CODE":0,"TOWNNAME":"東區","LI":"大智里","LIN":"29鄰","STREET":"德東街","SECT":" ","MAREA":" ","LANE":" ","ALLEY":" ","HOUSE_NO":"２５２號六樓","E_COORD97":171463.54000000001,"N_COORD97":2540245.54,"ADDRESS":"德東街２５２號六樓","OBJECTID":572612},"geometry":{"x":171463.54000000097,"y":2540245.5399999991}},{"attributes":{"ID":572640,"DIS_CODE":0,"TOWNNAME":"東區","LI":"大智里","LIN":"29鄰","STREET":"德東街","SECT":" ","MAREA":" ","LANE":" ","ALLEY":" ","HOUSE_NO":"２５２號四樓之４","E_COORD97":171463.54000000001,"N_COORD97":2540245.54,"ADDRESS":"德東街２５２號四樓之４","OBJECTID":572613},"geometry":{"x":171463.54000000097,"y":2540245.5399999991}},{"attributes":{"ID":572641,"DIS_CODE":0,"TOWNNAME":"東區","LI":"大智里","LIN":"29鄰","STREET":"德東街","SECT":" ","MAREA":" ","LANE":" ","ALLEY":" ","HOUSE_NO":"２５２號四樓之２","E_COORD97":171463.54000000001,"N_COORD97":2540245.54,"ADDRESS":"德東街２５２號四樓之２","OBJECTID":572614},"geometry":{"x":171463.54000000097,"y":2540245.5399999991}},{"attributes":{"ID":572642,"DIS_CODE":0,"TOWNNAME":"東區","LI":"大智里","LIN":"29鄰","STREET":"德東街","SECT":" ","MAREA":" ","LANE":" ","ALLEY":" ","HOUSE_NO":"２５２號四樓之３","E_COORD97":171463.54000000001,"N_COORD97":2540245.54,"ADDRESS":"德東街２５２號四樓之３","OBJECTID":572615},"geometry":{"x":171463.54000000097,"y":2540245.5399999991}},{"attributes":{"ID":572643,"DIS_CODE":0,"TOWNNAME":"東區","LI":"大智里","LIN":"29鄰","STREET":"德東街","SECT":" ","MAREA":" ","LANE":" ","ALLEY":" ","HOUSE_NO":"２５２號六樓之３","E_COORD97":171463.54000000001,"N_COORD97":2540245.54,"ADDRESS":"德東街２５２號六樓之３","OBJECTID":572616},"geometry":{"x":171463.54000000097,"y":2540245.5399999991}},{"attributes":{"ID":572644,"DIS_CODE":0,"TOWNNAME":"東區","LI":"大智里","LIN":"29鄰","STREET":"德東街","SECT":" ","MAREA":" ","LANE":" ","ALLEY":" ","HOUSE_NO":"２５２號六樓之８","E_COORD97":171463.54000000001,"N_COORD97":2540245.54,"ADDRESS":"德東街２５２號六樓之８","OBJECTID":572617},"geometry":{"x":171463.54000000097,"y":2540245.5399999991}},{"attributes":{"ID":572645,"DIS_CODE":0,"TOWNNAME":"東區","LI":"大智里","LIN":"29鄰","STREET":"德東街","SECT":" ","MAREA":" ","LANE":" ","ALLEY":" ","HOUSE_NO":"２６８號七樓","E_COORD97":171488.45999999999,"N_COORD97":2540225.5800000001,"ADDRESS":"德東街２６８號七樓","OBJECTID":572618},"geometry":{"x":171488.45999999996,"y":2540225.5800000001}},{"attributes":{"ID":572646,"DIS_CODE":0,"TOWNNAME":"東區","LI":"大智里","LIN":"29鄰","STREET":"德東街","SECT":" ","MAREA":" ","LANE":" ","ALLEY":" ","HOUSE_NO":"２７０號六樓","E_COORD97":171495.31,"N_COORD97":2540225.71,"ADDRESS":"德東街２７０號六樓","OBJECTID":572619},"geometry":{"x":171495.30999999959,"y":2540225.7100000009}},{"attributes":{"ID":572647,"DIS_CODE":0,"TOWNNAME":"東區","LI":"大智里","LIN":"29鄰","STREET":"德東街","SECT":" ","MAREA":" ","LANE":" ","ALLEY":" ","HOUSE_NO":"２６６號五樓","E_COORD97":171488.34,"N_COORD97":2540217.3100000001,"ADDRESS":"德東街２６６號五樓","OBJECTID":572620},"geometry":{"x":171488.34000000078,"y":2540217.3100000005}},{"attributes":{"ID":572648,"DIS_CODE":0,"TOWNNAME":"東區","LI":"大智里","LIN":"29鄰","STREET":"德東街","SECT":" ","MAREA":" ","LANE":" ","ALLEY":" ","HOUSE_NO":"２５２號七樓","E_COORD97":171463.54000000001,"N_COORD97":2540245.54,"ADDRESS":"德東街２５２號七樓","OBJECTID":572621},"geometry":{"x":171463.54000000097,"y":2540245.5399999991}},{"attributes":{"ID":572649,"DIS_CODE":0,"TOWNNAME":"東區","LI":"大智里","LIN":"29鄰","STREET":"德東街","SECT":" ","MAREA":" ","LANE":" ","ALLEY":" ","HOUSE_NO":"２５２號六樓之１","E_COORD97":171463.54000000001,"N_COORD97":2540245.54,"ADDRESS":"德東街２５２號六樓之１","OBJECTID":572622},"geometry":{"x":171463.54000000097,"y":2540245.5399999991}},{"attributes":{"ID":572650,"DIS_CODE":0,"TOWNNAME":"東區","LI":"大智里","LIN":"29鄰","STREET":"德東街","SECT":" ","MAREA":" ","LANE":" ","ALLEY":" ","HOUSE_NO":"２５２號三樓之８","E_COORD97":171463.54000000001,"N_COORD97":2540245.54,"ADDRESS":"德東街２５２號三樓之８","OBJECTID":572623},"geometry":{"x":171463.54000000097,"y":2540245.5399999991}},{"attributes":{"ID":572651,"DIS_CODE":0,"TOWNNAME":"東區","LI":"大智里","LIN":"29鄰","STREET":"德東街","SECT":" ","MAREA":" ","LANE":" ","ALLEY":" ","HOUSE_NO":"２７０號三樓","E_COORD97":171495.31,"N_COORD97":2540225.71,"ADDRESS":"德東街２７０號三樓","OBJECTID":572624},"geometry":{"x":171495.30999999959,"y":2540225.7100000009}},{"attributes":{"ID":572652,"DIS_CODE":0,"TOWNNAME":"永康區","LI":"尚頂里","LIN":"29鄰","STREET":"南台街","SECT":" ","MAREA":" ","LANE":" ","ALLEY":" ","HOUSE_NO":"９９號七樓之３","E_COORD97":170170.60000000001,"N_COORD97":2547012.1400000001,"ADDRESS":"南台街９９號七樓之３","OBJECTID":572625},"geometry":{"x":170170.60000000056,"y":2547012.1400000025}},{"attributes":{"ID":572653,"DIS_CODE":0,"TOWNNAME":"永康區","LI":"尚頂里","LIN":"29鄰","STREET":"南台街","SECT":" ","MAREA":" ","LANE":" ","ALLEY":" ","HOUSE_NO":"９９號四樓之２","E_COORD97":170170.64000000001,"N_COORD97":2547012.1400000001,"ADDRESS":"南台街９９號四樓之２","OBJECTID":572626},"geometry":{"x":170170.6400000006,"y":2547012.1400000025}},{"attributes":{"ID":572654,"DIS_CODE":0,"TOWNNAME":"永康區","LI":"尚頂里","LIN":"29鄰","STREET":"南台街","SECT":" ","MAREA":" ","LANE":" ","ALLEY":" ","HOUSE_NO":"９９號七樓之１","E_COORD97":170170.5,"N_COORD97":2547012.1400000001,"ADDRESS":"南台街９９號七樓之１","OBJECTID":572627},"geometry":{"x":170170.5,"y":2547012.1400000025}},{"attributes":{"ID":572655,"DIS_CODE":0,"TOWNNAME":"東區","LI":"忠孝里","LIN":"29鄰","STREET":"崇明九街","SECT":" ","MAREA":" ","LANE":" ","ALLEY":" ","HOUSE_NO":"１號","E_COORD97":169965.87,"N_COORD97":2541770.6099999999,"ADDRESS":"崇明九街１號","OBJECTID":572628},"geometry":{"x":169965.87000000104,"y":2541770.6099999994}},{"attributes":{"ID":572656,"DIS_CODE":0,"TOWNNAME":"東區","LI":"東明里","LIN":"5鄰","STREET":"怡東路","SECT":" ","MAREA":" ","LANE":" ","ALLEY":" ","HOUSE_NO":"７０號","E_COORD97":170860.25,"N_COORD97":2543630.0699999998,"ADDRESS":"怡東路７０號","OBJECTID":572629},"geometry":{"x":170860.25000000093,"y":2543630.0700000003}},{"attributes":{"ID":572657,"DIS_CODE":0,"TOWNNAME":"東區","LI":"忠孝里","LIN":"34鄰","STREET":"崇明三街","SECT":" ","MAREA":" ","LANE":" ","ALLEY":" ","HOUSE_NO":"４１號","E_COORD97":169629.51999999999,"N_COORD97":2542372.1400000001,"ADDRESS":"崇明三街４１號","OBJECTID":572630},"geometry":{"x":169629.51999999955,"y":2542372.1400000006}},{"attributes":{"ID":572658,"DIS_CODE":0,"TOWNNAME":"東區","LI":"東明里","LIN":"30鄰","STREET":"東安路","SECT":" ","MAREA":" ","LANE":" ","ALLEY":" ","HOUSE_NO":"６１號","E_COORD97":170671.13,"N_COORD97":2543640.6899999999,"ADDRESS":"東安路６１號","OBJECTID":572631},"geometry":{"x":170671.13000000082,"y":2543640.6900000013}},{"attributes":{"ID":572659,"DIS_CODE":0,"TOWNNAME":"東區","LI":"東明里","LIN":"5鄰","STREET":"怡東路","SECT":" ","MAREA":" ","LANE":" ","ALLEY":" ","HOUSE_NO":"６６號","E_COORD97":170856.35000000001,"N_COORD97":2543616.1499999999,"ADDRESS":"怡東路６６號","OBJECTID":572632},"geometry":{"x":170856.34999999963,"y":2543616.1500000004}},{"attributes":{"ID":572660,"DIS_CODE":0,"TOWNNAME":"東區","LI":"成大里","LIN":"29鄰","STREET":"大學路","SECT":"西段","MAREA":" ","LANE":" ","ALLEY":" ","HOUSE_NO":"５３號二樓","E_COORD97":169728.32000000001,"N_COORD97":2544088.9700000002,"ADDRESS":"大學路西段５３號二樓","OBJECTID":572633},"geometry":{"x":169728.3200000003,"y":2544088.9700000007}},{"attributes":{"ID":572661,"DIS_CODE":0,"TOWNNAME":"東區","LI":"成大里","LIN":"29鄰","STREET":"大學路","SECT":"西段","MAREA":" ","LANE":" ","ALLEY":" ","HOUSE_NO":"５３號四樓","E_COORD97":169728.32000000001,"N_COORD97":2544088.9700000002,"ADDRESS":"大學路西段５３號四樓","OBJECTID":572634},"geometry":{"x":169728.3200000003,"y":2544088.9700000007}},{"attributes":{"ID":572662,"DIS_CODE":0,"TOWNNAME":"永康區","LI":"尚頂里","LIN":"29鄰","STREET":"南台街","SECT":" ","MAREA":" ","LANE":" ","ALLEY":" ","HOUSE_NO":"９９號七樓之６","E_COORD97":170170.60999999999,"N_COORD97":2547012.1400000001,"ADDRESS":"南台街９９號七樓之６","OBJECTID":572635},"geometry":{"x":170170.61000000034,"y":2547012.1400000025}},{"attributes":{"ID":572663,"DIS_CODE":0,"TOWNNAME":"永康區","LI":"尚頂里","LIN":"29鄰","STREET":"南台街","SECT":" ","MAREA":" ","LANE":" ","ALLEY":" ","HOUSE_NO":"９９號二樓之２","E_COORD97":170170.64000000001,"N_COORD97":2547012.1400000001,"ADDRESS":"南台街９９號二樓之２","OBJECTID":572636},"geometry":{"x":170170.6400000006,"y":2547012.1400000025}},{"attributes":{"ID":572664,"DIS_CODE":0,"TOWNNAME":"永康區","LI":"尚頂里","LIN":"29鄰","STREET":"南台街","SECT":" ","MAREA":" ","LANE":" ","ALLEY":" ","HOUSE_NO":"９９號四樓之３","E_COORD97":170170.60000000001,"N_COORD97":2547012.1400000001,"ADDRESS":"南台街９９號四樓之３","OBJECTID":572637},"geometry":{"x":170170.60000000056,"y":2547012.1400000025}},{"attributes":{"ID":572665,"DIS_CODE":0,"TOWNNAME":"永康區","LI":"尚頂里","LIN":"29鄰","STREET":"南台街","SECT":" ","MAREA":" ","LANE":" ","ALLEY":" ","HOUSE_NO":"９９號三樓之９","E_COORD97":170170.59,"N_COORD97":2547012.1400000001,"ADDRESS":"南台街９９號三樓之９","OBJECTID":572638},"geometry":{"x":170170.59000000171,"y":2547012.1400000025}},{"attributes":{"ID":572666,"DIS_CODE":0,"TOWNNAME":"永康區","LI":"尚頂里","LIN":"29鄰","STREET":"南台街","SECT":" ","MAREA":" ","LANE":" ","ALLEY":" ","HOUSE_NO":"９９號二樓之３","E_COORD97":170170.60000000001,"N_COORD97":2547012.1400000001,"ADDRESS":"南台街９９號二樓之３","OBJECTID":572639},"geometry":{"x":170170.60000000056,"y":2547012.1400000025}},{"attributes":{"ID":572667,"DIS_CODE":0,"TOWNNAME":"永康區","LI":"尚頂里","LIN":"29鄰","STREET":"南台街","SECT":" ","MAREA":" ","LANE":" ","ALLEY":" ","HOUSE_NO":"９９號六樓之７","E_COORD97":170170.57999999999,"N_COORD97":2547012.1400000001,"ADDRESS":"南台街９９號六樓之７","OBJECTID":572640},"geometry":{"x":170170.58000000007,"y":2547012.1400000025}},{"attributes":{"ID":572668,"DIS_CODE":0,"TOWNNAME":"永康區","LI":"尚頂里","LIN":"29鄰","STREET":"南台街","SECT":" ","MAREA":" ","LANE":" ","ALLEY":" ","HOUSE_NO":"９９號七樓之９","E_COORD97":170170.59,"N_COORD97":2547012.1400000001,"ADDRESS":"南台街９９號七樓之９","OBJECTID":572641},"geometry":{"x":170170.59000000171,"y":2547012.1400000025}},{"attributes":{"ID":572669,"DIS_CODE":0,"TOWNNAME":"東區","LI":"東明里","LIN":"6鄰","STREET":"怡東路","SECT":" ","MAREA":" ","LANE":" ","ALLEY":" ","HOUSE_NO":"７４號","E_COORD97":170864.44,"N_COORD97":2543653.3199999998,"ADDRESS":"怡東路７４號","OBJECTID":572642},"geometry":{"x":170864.44000000134,"y":2543653.3200000022}},{"attributes":{"ID":572670,"DIS_CODE":0,"TOWNNAME":"東區","LI":"東明里","LIN":"6鄰","STREET":"怡東路","SECT":" ","MAREA":" ","LANE":" ","ALLEY":" ","HOUSE_NO":"７６號","E_COORD97":170866.64000000001,"N_COORD97":2543662,"ADDRESS":"怡東路７６號","OBJECTID":572643},"geometry":{"x":170866.64000000153,"y":2543662.0000000019}},{"attributes":{"ID":572671,"DIS_CODE":0,"TOWNNAME":"東區","LI":"崇文里","LIN":"29鄰","STREET":"崇德路","SECT":" ","MAREA":" ","LANE":" ","ALLEY":" ","HOUSE_NO":"７８５之１１號二樓","E_COORD97":170811.28,"N_COORD97":2540784.6800000002,"ADDRESS":"崇德路７８５之１１號二樓","OBJECTID":572644},"geometry":{"x":170811.28000000026,"y":2540784.6799999978}},{"attributes":{"ID":572672,"DIS_CODE":0,"TOWNNAME":"佳里區","LI":"安西里","LIN":"29鄰","STREET":"佳西路","SECT":" ","MAREA":" ","LANE":" ","ALLEY":" ","HOUSE_NO":"５８６號","E_COORD97":165087.51000000001,"N_COORD97":2563201.4100000001,"ADDRESS":"佳西路５８６號","OBJECTID":572645},"geometry":{"x":165087.51000000071,"y":2563201.410000002}},{"attributes":{"ID":572673,"DIS_CODE":0,"TOWNNAME":"永康區","LI":"尚頂里","LIN":"29鄰","STREET":"南台街","SECT":" ","MAREA":" ","LANE":" ","ALLEY":" ","HOUSE_NO":"９９號七樓之８","E_COORD97":170170.64999999999,"N_COORD97":2547012.1400000001,"ADDRESS":"南台街９９號七樓之８","OBJECTID":572646},"geometry":{"x":170170.65000000224,"y":2547012.1400000025}},{"attributes":{"ID":572674,"DIS_CODE":0,"TOWNNAME":"永康區","LI":"尚頂里","LIN":"29鄰","STREET":"南台街","SECT":" ","MAREA":" ","LANE":" ","ALLEY":" ","HOUSE_NO":"９９號六樓之８","E_COORD97":170170.64999999999,"N_COORD97":2547012.1400000001,"ADDRESS":"南台街９９號六樓之８","OBJECTID":572647},"geometry":{"x":170170.65000000224,"y":2547012.1400000025}},{"attributes":{"ID":572675,"DIS_CODE":0,"TOWNNAME":"永康區","LI":"尚頂里","LIN":"29鄰","STREET":"南台街","SECT":" ","MAREA":" ","LANE":" ","ALLEY":" ","HOUSE_NO":"９９號五樓之８","E_COORD97":170170.64999999999,"N_COORD97":2547012.1400000001,"ADDRESS":"南台街９９號五樓之８","OBJECTID":572648},"geometry":{"x":170170.65000000224,"y":2547012.1400000025}},{"attributes":{"ID":572676,"DIS_CODE":0,"TOWNNAME":"永康區","LI":"尚頂里","LIN":"29鄰","STREET":"南台街","SECT":" ","MAREA":" ","LANE":" ","ALLEY":" ","HOUSE_NO":"９９號五樓之７","E_COORD97":170170.57999999999,"N_COORD97":2547012.1400000001,"ADDRESS":"南台街９９號五樓之７","OBJECTID":572649},"geometry":{"x":170170.58000000007,"y":2547012.1400000025}},{"attributes":{"ID":572677,"DIS_CODE":0,"TOWNNAME":"永康區","LI":"尚頂里","LIN":"29鄰","STREET":"南台街","SECT":" ","MAREA":" ","LANE":" ","ALLEY":" ","HOUSE_NO":"９９號四樓之６","E_COORD97":170170.60999999999,"N_COORD97":2547012.1400000001,"ADDRESS":"南台街９９號四樓之６","OBJECTID":572650},"geometry":{"x":170170.61000000034,"y":2547012.1400000025}},{"attributes":{"ID":572678,"DIS_CODE":0,"TOWNNAME":"善化區","LI":"坐駕里","LIN":"14鄰","STREET":"和平路","SECT":" ","MAREA":" ","LANE":" ","ALLEY":" ","HOUSE_NO":"１８號","E_COORD97":178179.22,"N_COORD97":2558617.75,"ADDRESS":"和平路１８號","OBJECTID":572651},"geometry":{"x":178179.2200000016,"y":2558617.75}},{"attributes":{"ID":572679,"DIS_CODE":0,"TOWNNAME":"東區","LI":"東明里","LIN":"7鄰","STREET":"東興路","SECT":" ","MAREA":" ","LANE":" ","ALLEY":" ","HOUSE_NO":"１１３號","E_COORD97":170941.45000000001,"N_COORD97":2543673.3700000001,"ADDRESS":"東興路１１３號","OBJECTID":572652},"geometry":{"x":170941.45000000205,"y":2543673.3699999992}},{"attributes":{"ID":572680,"DIS_CODE":0,"TOWNNAME":"東區","LI":"東明里","LIN":"7鄰","STREET":"東興路","SECT":" ","MAREA":" ","LANE":" ","ALLEY":" ","HOUSE_NO":"１１５號","E_COORD97":170951.01000000001,"N_COORD97":2543650.5699999998,"ADDRESS":"東興路１１５號","OBJECTID":572653},"geometry":{"x":170951.01000000071,"y":2543650.5700000003}},{"attributes":{"ID":572681,"DIS_CODE":0,"TOWNNAME":"東區","LI":"東明里","LIN":"7鄰","STREET":"東興路","SECT":" ","MAREA":" ","LANE":" ","ALLEY":" ","HOUSE_NO":"１１９號","E_COORD97":170954.48999999999,"N_COORD97":2543658.8199999998,"ADDRESS":"東興路１１９號","OBJECTID":572654},"geometry":{"x":170954.49000000022,"y":2543658.8200000003}},{"attributes":{"ID":572682,"DIS_CODE":0,"TOWNNAME":"東區","LI":"東明里","LIN":"7鄰","STREET":"東興路","SECT":" ","MAREA":" ","LANE":" ","ALLEY":" ","HOUSE_NO":"１２３號","E_COORD97":170954.70999999999,"N_COORD97":2543666.4199999999,"ADDRESS":"東興路１２３號","OBJECTID":572655},"geometry":{"x":170954.71000000183,"y":2543666.4200000018}},{"attributes":{"ID":572683,"DIS_CODE":0,"TOWNNAME":"永康區","LI":"尚頂里","LIN":"29鄰","STREET":"南台街","SECT":" ","MAREA":" ","LANE":" ","ALLEY":" ","HOUSE_NO":"９９號三樓之５","E_COORD97":170170.66,"N_COORD97":2547012.1400000001,"ADDRESS":"南台街９９號三樓之５","OBJECTID":572656},"geometry":{"x":170170.66000000108,"y":2547012.1400000025}},{"attributes":{"ID":572684,"DIS_CODE":0,"TOWNNAME":"東區","LI":"崇文里","LIN":"29鄰","STREET":"崇德路","SECT":" ","MAREA":" ","LANE":" ","ALLEY":" ","HOUSE_NO":"７８３號","E_COORD97":170806.10000000001,"N_COORD97":2540817.5299999998,"ADDRESS":"崇德路７８３號","OBJECTID":572657},"geometry":{"x":170806.10000000056,"y":2540817.5300000012}},{"attributes":{"ID":572685,"DIS_CODE":0,"TOWNNAME":"永康區","LI":"尚頂里","LIN":"29鄰","STREET":"南台街","SECT":" ","MAREA":" ","LANE":" ","ALLEY":" ","HOUSE_NO":"９９號五樓之３","E_COORD97":170170.60000000001,"N_COORD97":2547012.1400000001,"ADDRESS":"南台街９９號五樓之３","OBJECTID":572658},"geometry":{"x":170170.60000000056,"y":2547012.1400000025}},{"attributes":{"ID":572686,"DIS_CODE":0,"TOWNNAME":"永康區","LI":"尚頂里","LIN":"29鄰","STREET":"南台街","SECT":" ","MAREA":" ","LANE":" ","ALLEY":" ","HOUSE_NO":"９９號五樓之９","E_COORD97":170170.59,"N_COORD97":2547012.1400000001,"ADDRESS":"南台街９９號五樓之９","OBJECTID":572659},"geometry":{"x":170170.59000000171,"y":2547012.1400000025}},{"attributes":{"ID":572687,"DIS_CODE":0,"TOWNNAME":"東區","LI":"裕農里","LIN":"29鄰","STREET":"東寧路","SECT":" ","MAREA":" ","LANE":" ","ALLEY":" ","HOUSE_NO":"５６０號五樓之２","E_COORD97":171243.23999999999,"N_COORD97":2543206.9300000002,"ADDRESS":"東寧路５６０號五樓之２","OBJECTID":572660},"geometry":{"x":171243.24000000115,"y":2543206.9299999997}},{"attributes":{"ID":572688,"DIS_CODE":0,"TOWNNAME":"東區","LI":"裕農里","LIN":"29鄰","STREET":"東寧路","SECT":" ","MAREA":" ","LANE":" ","ALLEY":" ","HOUSE_NO":"５６０號五樓之３","E_COORD97":171243.23999999999,"N_COORD97":2543206.9300000002,"ADDRESS":"東寧路５６０號五樓之３","OBJECTID":572661},"geometry":{"x":171243.24000000115,"y":2543206.9299999997}},{"attributes":{"ID":572689,"DIS_CODE":0,"TOWNNAME":"東區","LI":"裕農里","LIN":"29鄰","STREET":"東寧路","SECT":" ","MAREA":" ","LANE":" ","ALLEY":" ","HOUSE_NO":"５６０號六樓","E_COORD97":171243.23999999999,"N_COORD97":2543206.9300000002,"ADDRESS":"東寧路５６０號六樓","OBJECTID":572662},"geometry":{"x":171243.24000000115,"y":2543206.9299999997}},{"attributes":{"ID":572690,"DIS_CODE":0,"TOWNNAME":"東區","LI":"裕農里","LIN":"29鄰","STREET":"東寧路","SECT":" ","MAREA":" ","LANE":" ","ALLEY":" ","HOUSE_NO":"５６０號六樓之１","E_COORD97":171243.23999999999,"N_COORD97":2543206.9300000002,"ADDRESS":"東寧路５６０號六樓之１","OBJECTID":572663},"geometry":{"x":171243.24000000115,"y":2543206.9299999997}},{"attributes":{"ID":572691,"DIS_CODE":0,"TOWNNAME":"東區","LI":"裕農里","LIN":"29鄰","STREET":"東寧路","SECT":" ","MAREA":" ","LANE":" ","ALLEY":" ","HOUSE_NO":"５６０號六樓之２","E_COORD97":171243.23999999999,"N_COORD97":2543206.9300000002,"ADDRESS":"東寧路５６０號六樓之２","OBJECTID":572664},"geometry":{"x":171243.24000000115,"y":2543206.9299999997}},{"attributes":{"ID":572692,"DIS_CODE":0,"TOWNNAME":"東區","LI":"裕農里","LIN":"29鄰","STREET":"東寧路","SECT":" ","MAREA":" ","LANE":" ","ALLEY":" ","HOUSE_NO":"５６０號四樓","E_COORD97":171243.23999999999,"N_COORD97":2543206.9300000002,"ADDRESS":"東寧路５６０號四樓","OBJECTID":572665},"geometry":{"x":171243.24000000115,"y":2543206.9299999997}},{"attributes":{"ID":572693,"DIS_CODE":0,"TOWNNAME":"東區","LI":"裕農里","LIN":"29鄰","STREET":"東寧路","SECT":" ","MAREA":" ","LANE":" ","ALLEY":" ","HOUSE_NO":"５６０號四樓之１","E_COORD97":171243.23999999999,"N_COORD97":2543206.9300000002,"ADDRESS":"東寧路５６０號四樓之１","OBJECTID":572666},"geometry":{"x":171243.24000000115,"y":2543206.9299999997}},{"attributes":{"ID":572694,"DIS_CODE":0,"TOWNNAME":"東區","LI":"裕農里","LIN":"29鄰","STREET":"東寧路","SECT":" ","MAREA":" ","LANE":" ","ALLEY":" ","HOUSE_NO":"５６０號四樓之２","E_COORD97":171243.23999999999,"N_COORD97":2543206.9300000002,"ADDRESS":"東寧路５６０號四樓之２","OBJECTID":572667},"geometry":{"x":171243.24000000115,"y":2543206.9299999997}},{"attributes":{"ID":572695,"DIS_CODE":0,"TOWNNAME":"佳里區","LI":"安西里","LIN":"29鄰","STREET":"佳西路","SECT":" ","MAREA":" ","LANE":" ","ALLEY":" ","HOUSE_NO":"５８８號","E_COORD97":165093.84,"N_COORD97":2563196.9199999999,"ADDRESS":"佳西路５８８號","OBJECTID":572668},"geometry":{"x":165093.84000000078,"y":2563196.9199999999}},{"attributes":{"ID":572696,"DIS_CODE":0,"TOWNNAME":"東區","LI":"裕農里","LIN":"29鄰","STREET":"東寧路","SECT":" ","MAREA":" ","LANE":" ","ALLEY":" ","HOUSE_NO":"５６０號四樓之３","E_COORD97":171243.23999999999,"N_COORD97":2543206.9300000002,"ADDRESS":"東寧路５６０號四樓之３","OBJECTID":572669},"geometry":{"x":171243.24000000115,"y":2543206.9299999997}},{"attributes":{"ID":572697,"DIS_CODE":0,"TOWNNAME":"東區","LI":"裕農里","LIN":"29鄰","STREET":"東寧路","SECT":" ","MAREA":" ","LANE":" ","ALLEY":" ","HOUSE_NO":"５６２號七樓","E_COORD97":171275.28,"N_COORD97":2543219.7999999998,"ADDRESS":"東寧路５６２號七樓","OBJECTID":572670},"geometry":{"x":171275.28000000119,"y":2543219.8000000026}},{"attributes":{"ID":572698,"DIS_CODE":0,"TOWNNAME":"東區","LI":"裕農里","LIN":"29鄰","STREET":"東寧路","SECT":" ","MAREA":" ","LANE":" ","ALLEY":" ","HOUSE_NO":"５６２號七樓之１","E_COORD97":171275.28,"N_COORD97":2543219.7999999998,"ADDRESS":"東寧路５６２號七樓之１","OBJECTID":572671},"geometry":{"x":171275.28000000119,"y":2543219.8000000026}},{"attributes":{"ID":572699,"DIS_CODE":0,"TOWNNAME":"東區","LI":"裕農里","LIN":"29鄰","STREET":"東寧路","SECT":" ","MAREA":" ","LANE":" ","ALLEY":" ","HOUSE_NO":"５６２號九樓","E_COORD97":171275.28,"N_COORD97":2543219.7999999998,"ADDRESS":"東寧路５６２號九樓","OBJECTID":572672},"geometry":{"x":171275.28000000119,"y":2543219.8000000026}},{"attributes":{"ID":572700,"DIS_CODE":0,"TOWNNAME":"東區","LI":"裕農里","LIN":"29鄰","STREET":"東寧路","SECT":" ","MAREA":" ","LANE":" ","ALLEY":" ","HOUSE_NO":"５６２號九樓之１","E_COORD97":171275.28,"N_COORD97":2543219.7999999998,"ADDRESS":"東寧路５６２號九樓之１","OBJECTID":572673},"geometry":{"x":171275.28000000119,"y":2543219.8000000026}},{"attributes":{"ID":572701,"DIS_CODE":0,"TOWNNAME":"東區","LI":"裕農里","LIN":"29鄰","STREET":"東寧路","SECT":" ","MAREA":" ","LANE":" ","ALLEY":" ","HOUSE_NO":"５６２號二樓","E_COORD97":171275.28,"N_COORD97":2543219.7999999998,"ADDRESS":"東寧路５６２號二樓","OBJECTID":572674},"geometry":{"x":171275.28000000119,"y":2543219.8000000026}},{"attributes":{"ID":572702,"DIS_CODE":0,"TOWNNAME":"東區","LI":"裕農里","LIN":"29鄰","STREET":"東寧路","SECT":" ","MAREA":" ","LANE":" ","ALLEY":" ","HOUSE_NO":"５６２號二樓之１","E_COORD97":171275.28,"N_COORD97":2543219.7999999998,"ADDRESS":"東寧路５６２號二樓之１","OBJECTID":572675},"geometry":{"x":171275.28000000119,"y":2543219.8000000026}},{"attributes":{"ID":572703,"DIS_CODE":0,"TOWNNAME":"東區","LI":"裕農里","LIN":"29鄰","STREET":"東寧路","SECT":" ","MAREA":" ","LANE":" ","ALLEY":" ","HOUSE_NO":"５６２號八樓","E_COORD97":171275.28,"N_COORD97":2543219.7999999998,"ADDRESS":"東寧路５６２號八樓","OBJECTID":572676},"geometry":{"x":171275.28000000119,"y":2543219.8000000026}},{"attributes":{"ID":572704,"DIS_CODE":0,"TOWNNAME":"東區","LI":"裕農里","LIN":"29鄰","STREET":"東寧路","SECT":" ","MAREA":" ","LANE":" ","ALLEY":" ","HOUSE_NO":"５６２號八樓之１","E_COORD97":171275.28,"N_COORD97":2543219.7999999998,"ADDRESS":"東寧路５６２號八樓之１","OBJECTID":572677},"geometry":{"x":171275.28000000119,"y":2543219.8000000026}},{"attributes":{"ID":572705,"DIS_CODE":0,"TOWNNAME":"東區","LI":"裕農里","LIN":"29鄰","STREET":"東寧路","SECT":" ","MAREA":" ","LANE":" ","ALLEY":" ","HOUSE_NO":"５６２號十一樓","E_COORD97":171275.28,"N_COORD97":2543219.7999999998,"ADDRESS":"東寧路５６２號十一樓","OBJECTID":572678},"geometry":{"x":171275.28000000119,"y":2543219.8000000026}},{"attributes":{"ID":572706,"DIS_CODE":0,"TOWNNAME":"東區","LI":"裕農里","LIN":"29鄰","STREET":"東寧路","SECT":" ","MAREA":" ","LANE":" ","ALLEY":" ","HOUSE_NO":"５６２號十一樓之１","E_COORD97":171275.28,"N_COORD97":2543219.7999999998,"ADDRESS":"東寧路５６２號十一樓之１","OBJECTID":572679},"geometry":{"x":171275.28000000119,"y":2543219.8000000026}},{"attributes":{"ID":572707,"DIS_CODE":0,"TOWNNAME":"東區","LI":"裕農里","LIN":"29鄰","STREET":"東寧路","SECT":" ","MAREA":" ","LANE":" ","ALLEY":" ","HOUSE_NO":"５６２號十二樓","E_COORD97":171275.28,"N_COORD97":2543219.7999999998,"ADDRESS":"東寧路５６２號十二樓","OBJECTID":572680},"geometry":{"x":171275.28000000119,"y":2543219.8000000026}},{"attributes":{"ID":572708,"DIS_CODE":0,"TOWNNAME":"東區","LI":"裕農里","LIN":"29鄰","STREET":"東寧路","SECT":" ","MAREA":" ","LANE":" ","ALLEY":" ","HOUSE_NO":"５６２號十二樓之１","E_COORD97":171275.28,"N_COORD97":2543219.7999999998,"ADDRESS":"東寧路５６２號十二樓之１","OBJECTID":572681},"geometry":{"x":171275.28000000119,"y":2543219.8000000026}},{"attributes":{"ID":572709,"DIS_CODE":0,"TOWNNAME":"東區","LI":"裕農里","LIN":"29鄰","STREET":"東寧路","SECT":" ","MAREA":" ","LANE":" ","ALLEY":" ","HOUSE_NO":"５６２號十三樓","E_COORD97":171275.28,"N_COORD97":2543219.7999999998,"ADDRESS":"東寧路５６２號十三樓","OBJECTID":572682},"geometry":{"x":171275.28000000119,"y":2543219.8000000026}},{"attributes":{"ID":572710,"DIS_CODE":0,"TOWNNAME":"東區","LI":"東明里","LIN":"8鄰","STREET":"怡東路","SECT":" ","MAREA":" ","LANE":" ","ALLEY":" ","HOUSE_NO":"８０號","E_COORD97":170868.85999999999,"N_COORD97":2543678.1499999999,"ADDRESS":"怡東路８０號","OBJECTID":572683},"geometry":{"x":170868.86000000034,"y":2543678.1500000022}},{"attributes":{"ID":572711,"DIS_CODE":0,"TOWNNAME":"東區","LI":"東明里","LIN":"8鄰","STREET":"怡東路","SECT":" ","MAREA":" ","LANE":" ","ALLEY":" ","HOUSE_NO":"８２號","E_COORD97":170870.38,"N_COORD97":2543683.1400000001,"ADDRESS":"怡東路８２號","OBJECTID":572684},"geometry":{"x":170870.38000000175,"y":2543683.1400000025}},{"attributes":{"ID":572712,"DIS_CODE":0,"TOWNNAME":"東區","LI":"東明里","LIN":"8鄰","STREET":"怡東路","SECT":" ","MAREA":" ","LANE":" ","ALLEY":" ","HOUSE_NO":"８４號","E_COORD97":170870.38,"N_COORD97":2543689.6499999999,"ADDRESS":"怡東路８４號","OBJECTID":572685},"geometry":{"x":170870.38000000175,"y":2543689.6500000022}},{"attributes":{"ID":572713,"DIS_CODE":0,"TOWNNAME":"東區","LI":"東明里","LIN":"7鄰","STREET":"東興路","SECT":" ","MAREA":" ","LANE":" ","ALLEY":" ","HOUSE_NO":"１２７號","E_COORD97":170956.88,"N_COORD97":2543674.4500000002,"ADDRESS":"東興路１２７號","OBJECTID":572686},"geometry":{"x":170956.88000000175,"y":2543674.4499999974}},{"attributes":{"ID":572714,"DIS_CODE":0,"TOWNNAME":"東區","LI":"裕農里","LIN":"29鄰","STREET":"東寧路","SECT":" ","MAREA":" ","LANE":" ","ALLEY":" ","HOUSE_NO":"５６２號十樓","E_COORD97":171275.28,"N_COORD97":2543219.7999999998,"ADDRESS":"東寧路５６２號十樓","OBJECTID":572687},"geometry":{"x":171275.28000000119,"y":2543219.8000000026}},{"attributes":{"ID":572715,"DIS_CODE":0,"TOWNNAME":"東區","LI":"裕農里","LIN":"29鄰","STREET":"東寧路","SECT":" ","MAREA":" ","LANE":" ","ALLEY":" ","HOUSE_NO":"５６２號十樓之１","E_COORD97":171275.28,"N_COORD97":2543219.7999999998,"ADDRESS":"東寧路５６２號十樓之１","OBJECTID":572688},"geometry":{"x":171275.28000000119,"y":2543219.8000000026}},{"attributes":{"ID":572716,"DIS_CODE":0,"TOWNNAME":"東區","LI":"裕農里","LIN":"29鄰","STREET":"東寧路","SECT":" ","MAREA":" ","LANE":" ","ALLEY":" ","HOUSE_NO":"５６２號三樓","E_COORD97":171275.28,"N_COORD97":2543219.7999999998,"ADDRESS":"東寧路５６２號三樓","OBJECTID":572689},"geometry":{"x":171275.28000000119,"y":2543219.8000000026}},{"attributes":{"ID":572717,"DIS_CODE":0,"TOWNNAME":"東區","LI":"裕農里","LIN":"29鄰","STREET":"東寧路","SECT":" ","MAREA":" ","LANE":" ","ALLEY":" ","HOUSE_NO":"５６２號三樓之１","E_COORD97":171275.28,"N_COORD97":2543219.7999999998,"ADDRESS":"東寧路５６２號三樓之１","OBJECTID":572690},"geometry":{"x":171275.28000000119,"y":2543219.8000000026}},{"attributes":{"ID":572718,"DIS_CODE":0,"TOWNNAME":"東區","LI":"裕農里","LIN":"29鄰","STREET":"東寧路","SECT":" ","MAREA":" ","LANE":" ","ALLEY":" ","HOUSE_NO":"５６２號五樓","E_COORD97":171275.28,"N_COORD97":2543219.7999999998,"ADDRESS":"東寧路５６２號五樓","OBJECTID":572691},"geometry":{"x":171275.28000000119,"y":2543219.8000000026}},{"attributes":{"ID":572719,"DIS_CODE":0,"TOWNNAME":"東區","LI":"裕農里","LIN":"29鄰","STREET":"東寧路","SECT":" ","MAREA":" ","LANE":" ","ALLEY":" ","HOUSE_NO":"５６２號五樓之１","E_COORD97":171275.28,"N_COORD97":2543219.7999999998,"ADDRESS":"東寧路５６２號五樓之１","OBJECTID":572692},"geometry":{"x":171275.28000000119,"y":2543219.8000000026}},{"attributes":{"ID":572720,"DIS_CODE":0,"TOWNNAME":"東區","LI":"裕農里","LIN":"29鄰","STREET":"東寧路","SECT":" ","MAREA":" ","LANE":" ","ALLEY":" ","HOUSE_NO":"５６２號五樓之２","E_COORD97":171275.28,"N_COORD97":2543219.7999999998,"ADDRESS":"東寧路５６２號五樓之２","OBJECTID":572693},"geometry":{"x":171275.28000000119,"y":2543219.8000000026}},{"attributes":{"ID":572721,"DIS_CODE":0,"TOWNNAME":"東區","LI":"裕農里","LIN":"29鄰","STREET":"東寧路","SECT":" ","MAREA":" ","LANE":" ","ALLEY":" ","HOUSE_NO":"５６２號六樓","E_COORD97":171275.28,"N_COORD97":2543219.7999999998,"ADDRESS":"東寧路５６２號六樓","OBJECTID":572694},"geometry":{"x":171275.28000000119,"y":2543219.8000000026}},{"attributes":{"ID":572722,"DIS_CODE":0,"TOWNNAME":"東區","LI":"裕農里","LIN":"29鄰","STREET":"東寧路","SECT":" ","MAREA":" ","LANE":" ","ALLEY":" ","HOUSE_NO":"５６２號六樓之１","E_COORD97":171275.28,"N_COORD97":2543219.7999999998,"ADDRESS":"東寧路５６２號六樓之１","OBJECTID":572695},"geometry":{"x":171275.28000000119,"y":2543219.8000000026}},{"attributes":{"ID":572723,"DIS_CODE":0,"TOWNNAME":"東區","LI":"裕農里","LIN":"29鄰","STREET":"東寧路","SECT":" ","MAREA":" ","LANE":" ","ALLEY":" ","HOUSE_NO":"５６２號四樓","E_COORD97":171275.28,"N_COORD97":2543219.7999999998,"ADDRESS":"東寧路５６２號四樓","OBJECTID":572696},"geometry":{"x":171275.28000000119,"y":2543219.8000000026}},{"attributes":{"ID":572724,"DIS_CODE":0,"TOWNNAME":"東區","LI":"裕農里","LIN":"29鄰","STREET":"東寧路","SECT":" ","MAREA":" ","LANE":" ","ALLEY":" ","HOUSE_NO":"５６２號四樓之１","E_COORD97":171275.28,"N_COORD97":2543219.7999999998,"ADDRESS":"東寧路５６２號四樓之１","OBJECTID":572697},"geometry":{"x":171275.28000000119,"y":2543219.8000000026}},{"attributes":{"ID":572725,"DIS_CODE":0,"TOWNNAME":"東區","LI":"裕農里","LIN":"29鄰","STREET":"東寧路","SECT":" ","MAREA":" ","LANE":" ","ALLEY":" ","HOUSE_NO":"５６０號七樓","E_COORD97":171243.23999999999,"N_COORD97":2543206.9300000002,"ADDRESS":"東寧路５６０號七樓","OBJECTID":572698},"geometry":{"x":171243.24000000115,"y":2543206.9299999997}},{"attributes":{"ID":572726,"DIS_CODE":0,"TOWNNAME":"東區","LI":"裕農里","LIN":"29鄰","STREET":"東寧路","SECT":" ","MAREA":" ","LANE":" ","ALLEY":" ","HOUSE_NO":"５６０號七樓之１","E_COORD97":171243.23999999999,"N_COORD97":2543206.9300000002,"ADDRESS":"東寧路５６０號七樓之１","OBJECTID":572699},"geometry":{"x":171243.24000000115,"y":2543206.9299999997}},{"attributes":{"ID":572727,"DIS_CODE":0,"TOWNNAME":"東區","LI":"東明里","LIN":"10鄰","STREET":"東興路","SECT":" ","MAREA":" ","LANE":" ","ALLEY":" ","HOUSE_NO":"１３５號","E_COORD97":170963.54999999999,"N_COORD97":2543700.75,"ADDRESS":"東興路１３５號","OBJECTID":572700},"geometry":{"x":170963.54999999981,"y":2543700.7500000019}},{"attributes":{"ID":572728,"DIS_CODE":0,"TOWNNAME":"東區","LI":"裕農里","LIN":"29鄰","STREET":"東寧路","SECT":" ","MAREA":" ","LANE":" ","ALLEY":" ","HOUSE_NO":"５６０號七樓之２","E_COORD97":171243.23999999999,"N_COORD97":2543206.9300000002,"ADDRESS":"東寧路５６０號七樓之２","OBJECTID":572701},"geometry":{"x":171243.24000000115,"y":2543206.9299999997}},{"attributes":{"ID":572729,"DIS_CODE":0,"TOWNNAME":"東區","LI":"裕農里","LIN":"29鄰","STREET":"東寧路","SECT":" ","MAREA":" ","LANE":" ","ALLEY":" ","HOUSE_NO":"５６０號九樓","E_COORD97":171243.23999999999,"N_COORD97":2543206.9300000002,"ADDRESS":"東寧路５６０號九樓","OBJECTID":572702},"geometry":{"x":171243.24000000115,"y":2543206.9299999997}},{"attributes":{"ID":572730,"DIS_CODE":0,"TOWNNAME":"東區","LI":"裕農里","LIN":"29鄰","STREET":"東寧路","SECT":" ","MAREA":" ","LANE":" ","ALLEY":" ","HOUSE_NO":"５６０號九樓之１","E_COORD97":171243.23999999999,"N_COORD97":2543206.9300000002,"ADDRESS":"東寧路５６０號九樓之１","OBJECTID":572703},"geometry":{"x":171243.24000000115,"y":2543206.9299999997}},{"attributes":{"ID":572731,"DIS_CODE":0,"TOWNNAME":"東區","LI":"裕農里","LIN":"29鄰","STREET":"東寧路","SECT":" ","MAREA":" ","LANE":" ","ALLEY":" ","HOUSE_NO":"５６０號九樓之２","E_COORD97":171243.23999999999,"N_COORD97":2543206.9300000002,"ADDRESS":"東寧路５６０號九樓之２","OBJECTID":572704},"geometry":{"x":171243.24000000115,"y":2543206.9299999997}},{"attributes":{"ID":572732,"DIS_CODE":0,"TOWNNAME":"東區","LI":"裕農里","LIN":"29鄰","STREET":"東寧路","SECT":" ","MAREA":" ","LANE":" ","ALLEY":" ","HOUSE_NO":"５６０號九樓之３","E_COORD97":171243.23999999999,"N_COORD97":2543206.9300000002,"ADDRESS":"東寧路５６０號九樓之３","OBJECTID":572705},"geometry":{"x":171243.24000000115,"y":2543206.9299999997}},{"attributes":{"ID":572733,"DIS_CODE":0,"TOWNNAME":"東區","LI":"裕農里","LIN":"29鄰","STREET":"東寧路","SECT":" ","MAREA":" ","LANE":" ","ALLEY":" ","HOUSE_NO":"５６０號八樓","E_COORD97":171243.23999999999,"N_COORD97":2543206.9300000002,"ADDRESS":"東寧路５６０號八樓","OBJECTID":572706},"geometry":{"x":171243.24000000115,"y":2543206.9299999997}},{"attributes":{"ID":572734,"DIS_CODE":0,"TOWNNAME":"東區","LI":"裕農里","LIN":"29鄰","STREET":"東寧路","SECT":" ","MAREA":" ","LANE":" ","ALLEY":" ","HOUSE_NO":"５６０號八樓之１","E_COORD97":171243.23999999999,"N_COORD97":2543206.9300000002,"ADDRESS":"東寧路５６０號八樓之１","OBJECTID":572707},"geometry":{"x":171243.24000000115,"y":2543206.9299999997}},{"attributes":{"ID":572735,"DIS_CODE":0,"TOWNNAME":"東區","LI":"裕農里","LIN":"29鄰","STREET":"東寧路","SECT":" ","MAREA":" ","LANE":" ","ALLEY":" ","HOUSE_NO":"５６０號八樓之２","E_COORD97":171243.23999999999,"N_COORD97":2543206.9300000002,"ADDRESS":"東寧路５６０號八樓之２","OBJECTID":572708},"geometry":{"x":171243.24000000115,"y":2543206.9299999997}},{"attributes":{"ID":572736,"DIS_CODE":0,"TOWNNAME":"東區","LI":"裕農里","LIN":"29鄰","STREET":"東寧路","SECT":" ","MAREA":" ","LANE":" ","ALLEY":" ","HOUSE_NO":"５６０號八樓之３","E_COORD97":171243.23999999999,"N_COORD97":2543206.9300000002,"ADDRESS":"東寧路５６０號八樓之３","OBJECTID":572709},"geometry":{"x":171243.24000000115,"y":2543206.9299999997}},{"attributes":{"ID":572737,"DIS_CODE":0,"TOWNNAME":"東區","LI":"裕農里","LIN":"29鄰","STREET":"東寧路","SECT":" ","MAREA":" ","LANE":" ","ALLEY":" ","HOUSE_NO":"５６０號十一樓","E_COORD97":171243.23999999999,"N_COORD97":2543206.9300000002,"ADDRESS":"東寧路５６０號十一樓","OBJECTID":572710},"geometry":{"x":171243.24000000115,"y":2543206.9299999997}},{"attributes":{"ID":572738,"DIS_CODE":0,"TOWNNAME":"東區","LI":"裕農里","LIN":"29鄰","STREET":"東寧路","SECT":" ","MAREA":" ","LANE":" ","ALLEY":" ","HOUSE_NO":"５６０號十一樓之１","E_COORD97":171243.23999999999,"N_COORD97":2543206.9300000002,"ADDRESS":"東寧路５６０號十一樓之１","OBJECTID":572711},"geometry":{"x":171243.24000000115,"y":2543206.9299999997}},{"attributes":{"ID":572739,"DIS_CODE":0,"TOWNNAME":"東區","LI":"裕農里","LIN":"29鄰","STREET":"東寧路","SECT":" ","MAREA":" ","LANE":" ","ALLEY":" ","HOUSE_NO":"５６０號十一樓之２","E_COORD97":171243.23999999999,"N_COORD97":2543206.9300000002,"ADDRESS":"東寧路５６０號十一樓之２","OBJECTID":572712},"geometry":{"x":171243.24000000115,"y":2543206.9299999997}},{"attributes":{"ID":572740,"DIS_CODE":0,"TOWNNAME":"東區","LI":"裕農里","LIN":"29鄰","STREET":"東寧路","SECT":" ","MAREA":" ","LANE":" ","ALLEY":" ","HOUSE_NO":"５６０號十一樓之３","E_COORD97":171243.23999999999,"N_COORD97":2543206.9300000002,"ADDRESS":"東寧路５６０號十一樓之３","OBJECTID":572713},"geometry":{"x":171243.24000000115,"y":2543206.9299999997}},{"attributes":{"ID":572741,"DIS_CODE":0,"TOWNNAME":"東區","LI":"裕農里","LIN":"29鄰","STREET":"東寧路","SECT":" ","MAREA":" ","LANE":" ","ALLEY":" ","HOUSE_NO":"５６０號十二樓","E_COORD97":171243.23999999999,"N_COORD97":2543206.9300000002,"ADDRESS":"東寧路５６０號十二樓","OBJECTID":572714},"geometry":{"x":171243.24000000115,"y":2543206.9299999997}},{"attributes":{"ID":572742,"DIS_CODE":0,"TOWNNAME":"東區","LI":"裕農里","LIN":"29鄰","STREET":"東寧路","SECT":" ","MAREA":" ","LANE":" ","ALLEY":" ","HOUSE_NO":"５６０號十二樓之１","E_COORD97":171243.23999999999,"N_COORD97":2543206.9300000002,"ADDRESS":"東寧路５６０號十二樓之１","OBJECTID":572715},"geometry":{"x":171243.24000000115,"y":2543206.9299999997}},{"attributes":{"ID":572743,"DIS_CODE":0,"TOWNNAME":"東區","LI":"裕農里","LIN":"29鄰","STREET":"東寧路","SECT":" ","MAREA":" ","LANE":" ","ALLEY":" ","HOUSE_NO":"５６０號十二樓之２","E_COORD97":171243.23999999999,"N_COORD97":2543206.9300000002,"ADDRESS":"東寧路５６０號十二樓之２","OBJECTID":572716},"geometry":{"x":171243.24000000115,"y":2543206.9299999997}},{"attributes":{"ID":572744,"DIS_CODE":0,"TOWNNAME":"東區","LI":"裕農里","LIN":"29鄰","STREET":"東寧路","SECT":" ","MAREA":" ","LANE":" ","ALLEY":" ","HOUSE_NO":"５６０號十二樓之３","E_COORD97":171243.23999999999,"N_COORD97":2543206.9300000002,"ADDRESS":"東寧路５６０號十二樓之３","OBJECTID":572717},"geometry":{"x":171243.24000000115,"y":2543206.9299999997}},{"attributes":{"ID":572745,"DIS_CODE":0,"TOWNNAME":"東區","LI":"裕農里","LIN":"29鄰","STREET":"東寧路","SECT":" ","MAREA":" ","LANE":" ","ALLEY":" ","HOUSE_NO":"５６０號十三樓","E_COORD97":171243.23999999999,"N_COORD97":2543206.9300000002,"ADDRESS":"東寧路５６０號十三樓","OBJECTID":572718},"geometry":{"x":171243.24000000115,"y":2543206.9299999997}},{"attributes":{"ID":572746,"DIS_CODE":0,"TOWNNAME":"東區","LI":"裕農里","LIN":"29鄰","STREET":"東寧路","SECT":" ","MAREA":" ","LANE":" ","ALLEY":" ","HOUSE_NO":"５６０號十三樓之１","E_COORD97":171243.23999999999,"N_COORD97":2543206.9300000002,"ADDRESS":"東寧路５６０號十三樓之１","OBJECTID":572719},"geometry":{"x":171243.24000000115,"y":2543206.9299999997}},{"attributes":{"ID":572747,"DIS_CODE":0,"TOWNNAME":"東區","LI":"裕農里","LIN":"29鄰","STREET":"東寧路","SECT":" ","MAREA":" ","LANE":" ","ALLEY":" ","HOUSE_NO":"５６０號十三樓之２","E_COORD97":171243.23999999999,"N_COORD97":2543206.9300000002,"ADDRESS":"東寧路５６０號十三樓之２","OBJECTID":572720},"geometry":{"x":171243.24000000115,"y":2543206.9299999997}},{"attributes":{"ID":572748,"DIS_CODE":0,"TOWNNAME":"東區","LI":"裕農里","LIN":"29鄰","STREET":"東寧路","SECT":" ","MAREA":" ","LANE":" ","ALLEY":" ","HOUSE_NO":"５６２號四樓之２","E_COORD97":171275.28,"N_COORD97":2543219.7999999998,"ADDRESS":"東寧路５６２號四樓之２","OBJECTID":572721},"geometry":{"x":171275.28000000119,"y":2543219.8000000026}},{"attributes":{"ID":572749,"DIS_CODE":0,"TOWNNAME":"東區","LI":"東明里","LIN":"12鄰","STREET":"凱旋路","SECT":" ","MAREA":" ","LANE":" ","ALLEY":" ","HOUSE_NO":"１６９號","E_COORD97":170925.23000000001,"N_COORD97":2543733.3799999999,"ADDRESS":"凱旋路１６９號","OBJECTID":572722},"geometry":{"x":170925.23000000138,"y":2543733.3800000008}},{"attributes":{"ID":572750,"DIS_CODE":0,"TOWNNAME":"東區","LI":"東明里","LIN":"10鄰","STREET":"東興路","SECT":" ","MAREA":" ","LANE":" ","ALLEY":" ","HOUSE_NO":"１３３號","E_COORD97":170962.95999999999,"N_COORD97":2543697,"ADDRESS":"東興路１３３號","OBJECTID":572723},"geometry":{"x":170962.95999999996,"y":2543697.0000000019}},{"attributes":{"ID":572751,"DIS_CODE":0,"TOWNNAME":"東區","LI":"東明里","LIN":"10鄰","STREET":"東興路","SECT":" ","MAREA":" ","LANE":" ","ALLEY":" ","HOUSE_NO":"１３７號","E_COORD97":170965.20000000001,"N_COORD97":2543704.9399999999,"ADDRESS":"東興路１３７號","OBJECTID":572724},"geometry":{"x":170965.20000000205,"y":2543704.9399999995}},{"attributes":{"ID":572752,"DIS_CODE":0,"TOWNNAME":"東區","LI":"東明里","LIN":"9鄰","STREET":"怡東路","SECT":" ","MAREA":" ","LANE":" ","ALLEY":" ","HOUSE_NO":"８８號","E_COORD97":170876.17000000001,"N_COORD97":2543708.9300000002,"ADDRESS":"怡東路８８號","OBJECTID":572725},"geometry":{"x":170876.16999999993,"y":2543708.9299999978}},{"attributes":{"ID":572753,"DIS_CODE":0,"TOWNNAME":"東區","LI":"東明里","LIN":"9鄰","STREET":"怡東路","SECT":" ","MAREA":" ","LANE":" ","ALLEY":" ","HOUSE_NO":"９０號","E_COORD97":170879.10000000001,"N_COORD97":2543720.04,"ADDRESS":"怡東路９０號","OBJECTID":572726},"geometry":{"x":170879.10000000056,"y":2543720.0399999991}},{"attributes":{"ID":572754,"DIS_CODE":0,"TOWNNAME":"東區","LI":"東明里","LIN":"12鄰","STREET":"凱旋路","SECT":" ","MAREA":" ","LANE":" ","ALLEY":" ","HOUSE_NO":"１６５號","E_COORD97":170938.87,"N_COORD97":2543731.5600000001,"ADDRESS":"凱旋路１６５號","OBJECTID":572727},"geometry":{"x":170938.87000000104,"y":2543731.5600000005}},{"attributes":{"ID":572755,"DIS_CODE":0,"TOWNNAME":"東區","LI":"東明里","LIN":"12鄰","STREET":"凱旋路","SECT":" ","MAREA":" ","LANE":" ","ALLEY":" ","HOUSE_NO":"１６７號","E_COORD97":170932.81,"N_COORD97":2543732.3199999998,"ADDRESS":"凱旋路１６７號","OBJECTID":572728},"geometry":{"x":170932.80999999959,"y":2543732.3200000022}},{"attributes":{"ID":572756,"DIS_CODE":0,"TOWNNAME":"安平區","LI":"育平里","LIN":"29鄰","STREET":"育平路","SECT":" ","MAREA":" ","LANE":" ","ALLEY":" ","HOUSE_NO":"１６６號七樓之１","E_COORD97":164591.47,"N_COORD97":2543236.0899999999,"ADDRESS":"育平路１６６號七樓之１","OBJECTID":572729},"geometry":{"x":164591.46999999974,"y":2543236.0899999999}},{"attributes":{"ID":572757,"DIS_CODE":0,"TOWNNAME":"安平區","LI":"育平里","LIN":"29鄰","STREET":"育平路","SECT":" ","MAREA":" ","LANE":" ","ALLEY":" ","HOUSE_NO":"１６６號七樓之２","E_COORD97":164591.47,"N_COORD97":2543236.0899999999,"ADDRESS":"育平路１６６號七樓之２","OBJECTID":572730},"geometry":{"x":164591.46999999974,"y":2543236.0899999999}},{"attributes":{"ID":572758,"DIS_CODE":0,"TOWNNAME":"安平區","LI":"育平里","LIN":"29鄰","STREET":"育平路","SECT":" ","MAREA":" ","LANE":" ","ALLEY":" ","HOUSE_NO":"１６６號七樓之３","E_COORD97":164591.47,"N_COORD97":2543236.0899999999,"ADDRESS":"育平路１６６號七樓之３","OBJECTID":572731},"geometry":{"x":164591.46999999974,"y":2543236.0899999999}},{"attributes":{"ID":572759,"DIS_CODE":0,"TOWNNAME":"安平區","LI":"育平里","LIN":"29鄰","STREET":"育平路","SECT":" ","MAREA":" ","LANE":" ","ALLEY":" ","HOUSE_NO":"１６６號七樓之５","E_COORD97":164591.47,"N_COORD97":2543236.0899999999,"ADDRESS":"育平路１６６號七樓之５","OBJECTID":572732},"geometry":{"x":164591.46999999974,"y":2543236.0899999999}},{"attributes":{"ID":572760,"DIS_CODE":0,"TOWNNAME":"安平區","LI":"育平里","LIN":"29鄰","STREET":"育平路","SECT":" ","MAREA":" ","LANE":" ","ALLEY":" ","HOUSE_NO":"１６６號七樓之６","E_COORD97":164591.47,"N_COORD97":2543236.0899999999,"ADDRESS":"育平路１６６號七樓之６","OBJECTID":572733},"geometry":{"x":164591.46999999974,"y":2543236.0899999999}},{"attributes":{"ID":572761,"DIS_CODE":0,"TOWNNAME":"安平區","LI":"育平里","LIN":"29鄰","STREET":"育平路","SECT":" ","MAREA":" ","LANE":" ","ALLEY":" ","HOUSE_NO":"１６６號七樓之７","E_COORD97":164591.47,"N_COORD97":2543236.0899999999,"ADDRESS":"育平路１６６號七樓之７","OBJECTID":572734},"geometry":{"x":164591.46999999974,"y":2543236.0899999999}},{"attributes":{"ID":572762,"DIS_CODE":0,"TOWNNAME":"安平區","LI":"育平里","LIN":"29鄰","STREET":"育平路","SECT":" ","MAREA":" ","LANE":" ","ALLEY":" ","HOUSE_NO":"１６６號七樓之８","E_COORD97":164591.47,"N_COORD97":2543236.0899999999,"ADDRESS":"育平路１６６號七樓之８","OBJECTID":572735},"geometry":{"x":164591.46999999974,"y":2543236.0899999999}},{"attributes":{"ID":572763,"DIS_CODE":0,"TOWNNAME":"安平區","LI":"育平里","LIN":"29鄰","STREET":"育平路","SECT":" ","MAREA":" ","LANE":" ","ALLEY":" ","HOUSE_NO":"１６６號七樓之９","E_COORD97":164591.47,"N_COORD97":2543236.0899999999,"ADDRESS":"育平路１６６號七樓之９","OBJECTID":572736},"geometry":{"x":164591.46999999974,"y":2543236.0899999999}},{"attributes":{"ID":572764,"DIS_CODE":0,"TOWNNAME":"安平區","LI":"育平里","LIN":"29鄰","STREET":"育平路","SECT":" ","MAREA":" ","LANE":" ","ALLEY":" ","HOUSE_NO":"１６６號九樓之１","E_COORD97":164591.47,"N_COORD97":2543236.0899999999,"ADDRESS":"育平路１６６號九樓之１","OBJECTID":572737},"geometry":{"x":164591.46999999974,"y":2543236.0899999999}},{"attributes":{"ID":572765,"DIS_CODE":0,"TOWNNAME":"安平區","LI":"育平里","LIN":"29鄰","STREET":"育平路","SECT":" ","MAREA":" ","LANE":" ","ALLEY":" ","HOUSE_NO":"１６６號九樓之２","E_COORD97":164591.47,"N_COORD97":2543236.0899999999,"ADDRESS":"育平路１６６號九樓之２","OBJECTID":572738},"geometry":{"x":164591.46999999974,"y":2543236.0899999999}},{"attributes":{"ID":572766,"DIS_CODE":0,"TOWNNAME":"安平區","LI":"育平里","LIN":"29鄰","STREET":"育平路","SECT":" ","MAREA":" ","LANE":" ","ALLEY":" ","HOUSE_NO":"１６６號九樓之３","E_COORD97":164591.47,"N_COORD97":2543236.0899999999,"ADDRESS":"育平路１６６號九樓之３","OBJECTID":572739},"geometry":{"x":164591.46999999974,"y":2543236.0899999999}},{"attributes":{"ID":572767,"DIS_CODE":0,"TOWNNAME":"安平區","LI":"育平里","LIN":"29鄰","STREET":"育平路","SECT":" ","MAREA":" ","LANE":" ","ALLEY":" ","HOUSE_NO":"１６６號九樓之５","E_COORD97":164591.47,"N_COORD97":2543236.0899999999,"ADDRESS":"育平路１６６號九樓之５","OBJECTID":572740},"geometry":{"x":164591.46999999974,"y":2543236.0899999999}},{"attributes":{"ID":572768,"DIS_CODE":0,"TOWNNAME":"安平區","LI":"育平里","LIN":"29鄰","STREET":"育平路","SECT":" ","MAREA":" ","LANE":" ","ALLEY":" ","HOUSE_NO":"１６６號九樓之６","E_COORD97":164591.47,"N_COORD97":2543236.0899999999,"ADDRESS":"育平路１６６號九樓之６","OBJECTID":572741},"geometry":{"x":164591.46999999974,"y":2543236.0899999999}},{"attributes":{"ID":572769,"DIS_CODE":0,"TOWNNAME":"安平區","LI":"育平里","LIN":"29鄰","STREET":"育平路","SECT":" ","MAREA":" ","LANE":" ","ALLEY":" ","HOUSE_NO":"１６６號九樓之７","E_COORD97":164591.47,"N_COORD97":2543236.0899999999,"ADDRESS":"育平路１６６號九樓之７","OBJECTID":572742},"geometry":{"x":164591.46999999974,"y":2543236.0899999999}},{"attributes":{"ID":572770,"DIS_CODE":0,"TOWNNAME":"安平區","LI":"育平里","LIN":"29鄰","STREET":"育平路","SECT":" ","MAREA":" ","LANE":" ","ALLEY":" ","HOUSE_NO":"１６６號九樓之８","E_COORD97":164591.47,"N_COORD97":2543236.0899999999,"ADDRESS":"育平路１６６號九樓之８","OBJECTID":572743},"geometry":{"x":164591.46999999974,"y":2543236.0899999999}},{"attributes":{"ID":572771,"DIS_CODE":0,"TOWNNAME":"安平區","LI":"育平里","LIN":"29鄰","STREET":"育平路","SECT":" ","MAREA":" ","LANE":" ","ALLEY":" ","HOUSE_NO":"１６６號九樓之９","E_COORD97":164591.47,"N_COORD97":2543236.0899999999,"ADDRESS":"育平路１６６號九樓之９","OBJECTID":572744},"geometry":{"x":164591.46999999974,"y":2543236.0899999999}},{"attributes":{"ID":572772,"DIS_CODE":0,"TOWNNAME":"安平區","LI":"育平里","LIN":"29鄰","STREET":"育平路","SECT":" ","MAREA":" ","LANE":" ","ALLEY":" ","HOUSE_NO":"１６６號二樓之１","E_COORD97":164591.47,"N_COORD97":2543236.0899999999,"ADDRESS":"育平路１６６號二樓之１","OBJECTID":572745},"geometry":{"x":164591.46999999974,"y":2543236.0899999999}},{"attributes":{"ID":572773,"DIS_CODE":0,"TOWNNAME":"安平區","LI":"育平里","LIN":"29鄰","STREET":"育平路","SECT":" ","MAREA":" ","LANE":" ","ALLEY":" ","HOUSE_NO":"１６６號二樓之２","E_COORD97":164591.47,"N_COORD97":2543236.0899999999,"ADDRESS":"育平路１６６號二樓之２","OBJECTID":572746},"geometry":{"x":164591.46999999974,"y":2543236.0899999999}},{"attributes":{"ID":572774,"DIS_CODE":0,"TOWNNAME":"安平區","LI":"育平里","LIN":"29鄰","STREET":"育平路","SECT":" ","MAREA":" ","LANE":" ","ALLEY":" ","HOUSE_NO":"１６６號二樓之３","E_COORD97":164591.47,"N_COORD97":2543236.0899999999,"ADDRESS":"育平路１６６號二樓之３","OBJECTID":572747},"geometry":{"x":164591.46999999974,"y":2543236.0899999999}},{"attributes":{"ID":572775,"DIS_CODE":0,"TOWNNAME":"安平區","LI":"育平里","LIN":"29鄰","STREET":"育平路","SECT":" ","MAREA":" ","LANE":" ","ALLEY":" ","HOUSE_NO":"１６６號二樓之５","E_COORD97":164591.47,"N_COORD97":2543236.0899999999,"ADDRESS":"育平路１６６號二樓之５","OBJECTID":572748},"geometry":{"x":164591.46999999974,"y":2543236.0899999999}},{"attributes":{"ID":572776,"DIS_CODE":0,"TOWNNAME":"安平區","LI":"育平里","LIN":"29鄰","STREET":"育平路","SECT":" ","MAREA":" ","LANE":" ","ALLEY":" ","HOUSE_NO":"１６６號二樓之６","E_COORD97":164591.47,"N_COORD97":2543236.0899999999,"ADDRESS":"育平路１６６號二樓之６","OBJECTID":572749},"geometry":{"x":164591.46999999974,"y":2543236.0899999999}},{"attributes":{"ID":572777,"DIS_CODE":0,"TOWNNAME":"安平區","LI":"育平里","LIN":"29鄰","STREET":"育平路","SECT":" ","MAREA":" ","LANE":" ","ALLEY":" ","HOUSE_NO":"１６６號二樓之７","E_COORD97":164591.47,"N_COORD97":2543236.0899999999,"ADDRESS":"育平路１６６號二樓之７","OBJECTID":572750},"geometry":{"x":164591.46999999974,"y":2543236.0899999999}},{"attributes":{"ID":572778,"DIS_CODE":0,"TOWNNAME":"安平區","LI":"育平里","LIN":"29鄰","STREET":"育平路","SECT":" ","MAREA":" ","LANE":" ","ALLEY":" ","HOUSE_NO":"１６６號二樓之８","E_COORD97":164591.47,"N_COORD97":2543236.0899999999,"ADDRESS":"育平路１６６號二樓之８","OBJECTID":572751},"geometry":{"x":164591.46999999974,"y":2543236.0899999999}},{"attributes":{"ID":572779,"DIS_CODE":0,"TOWNNAME":"安平區","LI":"育平里","LIN":"29鄰","STREET":"育平路","SECT":" ","MAREA":" ","LANE":" ","ALLEY":" ","HOUSE_NO":"１６６號二樓之９","E_COORD97":164591.47,"N_COORD97":2543236.0899999999,"ADDRESS":"育平路１６６號二樓之９","OBJECTID":572752},"geometry":{"x":164591.46999999974,"y":2543236.0899999999}},{"attributes":{"ID":572780,"DIS_CODE":0,"TOWNNAME":"安平區","LI":"育平里","LIN":"29鄰","STREET":"育平路","SECT":" ","MAREA":" ","LANE":" ","ALLEY":" ","HOUSE_NO":"１６６號八樓之１","E_COORD97":164591.47,"N_COORD97":2543236.0899999999,"ADDRESS":"育平路１６６號八樓之１","OBJECTID":572753},"geometry":{"x":164591.46999999974,"y":2543236.0899999999}},{"attributes":{"ID":572781,"DIS_CODE":0,"TOWNNAME":"安平區","LI":"育平里","LIN":"29鄰","STREET":"育平路","SECT":" ","MAREA":" ","LANE":" ","ALLEY":" ","HOUSE_NO":"１６６號八樓之２","E_COORD97":164591.47,"N_COORD97":2543236.0899999999,"ADDRESS":"育平路１６６號八樓之２","OBJECTID":572754},"geometry":{"x":164591.46999999974,"y":2543236.0899999999}},{"attributes":{"ID":572782,"DIS_CODE":0,"TOWNNAME":"安平區","LI":"育平里","LIN":"29鄰","STREET":"育平路","SECT":" ","MAREA":" ","LANE":" ","ALLEY":" ","HOUSE_NO":"１６６號八樓之３","E_COORD97":164591.47,"N_COORD97":2543236.0899999999,"ADDRESS":"育平路１６６號八樓之３","OBJECTID":572755},"geometry":{"x":164591.46999999974,"y":2543236.0899999999}},{"attributes":{"ID":572783,"DIS_CODE":0,"TOWNNAME":"安平區","LI":"育平里","LIN":"29鄰","STREET":"育平路","SECT":" ","MAREA":" ","LANE":" ","ALLEY":" ","HOUSE_NO":"１６６號八樓之５","E_COORD97":164591.47,"N_COORD97":2543236.0899999999,"ADDRESS":"育平路１６６號八樓之５","OBJECTID":572756},"geometry":{"x":164591.46999999974,"y":2543236.0899999999}},{"attributes":{"ID":572784,"DIS_CODE":0,"TOWNNAME":"東區","LI":"東明里","LIN":"18鄰","STREET":"怡東路","SECT":" ","MAREA":" ","LANE":" ","ALLEY":" ","HOUSE_NO":"５５號","E_COORD97":170823.95000000001,"N_COORD97":2543597.8799999999,"ADDRESS":"怡東路５５號","OBJECTID":572757},"geometry":{"x":170823.95000000019,"y":2543597.8800000008}},{"attributes":{"ID":572785,"DIS_CODE":0,"TOWNNAME":"東區","LI":"東明里","LIN":"18鄰","STREET":"怡東路","SECT":" ","MAREA":" ","LANE":" ","ALLEY":" ","HOUSE_NO":"５７號","E_COORD97":170827.45999999999,"N_COORD97":2543603.2200000002,"ADDRESS":"怡東路５７號","OBJECTID":572758},"geometry":{"x":170827.46000000183,"y":2543603.2200000044}},{"attributes":{"ID":572786,"DIS_CODE":0,"TOWNNAME":"東區","LI":"東明里","LIN":"18鄰","STREET":"怡東路","SECT":" ","MAREA":" ","LANE":" ","ALLEY":" ","HOUSE_NO":"５９號","E_COORD97":170828.45000000001,"N_COORD97":2543607.71,"ADDRESS":"怡東路５９號","OBJECTID":572759},"geometry":{"x":170828.45000000112,"y":2543607.7100000028}},{"attributes":{"ID":572787,"DIS_CODE":0,"TOWNNAME":"東區","LI":"東明里","LIN":"18鄰","STREET":"怡東路","SECT":" ","MAREA":" ","LANE":" ","ALLEY":" ","HOUSE_NO":"６１號","E_COORD97":170829.57000000001,"N_COORD97":2543612.6200000001,"ADDRESS":"怡東路６１號","OBJECTID":572760},"geometry":{"x":170829.57000000123,"y":2543612.620000001}},{"attributes":{"ID":572788,"DIS_CODE":0,"TOWNNAME":"東區","LI":"東明里","LIN":"18鄰","STREET":"怡東路","SECT":" ","MAREA":" ","LANE":" ","ALLEY":" ","HOUSE_NO":"６７號","E_COORD97":170833.64999999999,"N_COORD97":2543628.0699999998,"ADDRESS":"怡東路６７號","OBJECTID":572761},"geometry":{"x":170833.6500000013,"y":2543628.0700000022}},{"attributes":{"ID":572789,"DIS_CODE":0,"TOWNNAME":"東區","LI":"東明里","LIN":"18鄰","STREET":"怡東路","SECT":" ","MAREA":" ","LANE":" ","ALLEY":" ","HOUSE_NO":"６９號","E_COORD97":170834.76999999999,"N_COORD97":2543633.6800000002,"ADDRESS":"怡東路６９號","OBJECTID":572762},"geometry":{"x":170834.76999999955,"y":2543633.6800000016}},{"attributes":{"ID":572790,"DIS_CODE":0,"TOWNNAME":"安平區","LI":"育平里","LIN":"29鄰","STREET":"育平路","SECT":" ","MAREA":" ","LANE":" ","ALLEY":" ","HOUSE_NO":"１６６號八樓之６","E_COORD97":164591.47,"N_COORD97":2543236.0899999999,"ADDRESS":"育平路１６６號八樓之６","OBJECTID":572763},"geometry":{"x":164591.46999999974,"y":2543236.0899999999}},{"attributes":{"ID":572791,"DIS_CODE":0,"TOWNNAME":"安平區","LI":"育平里","LIN":"29鄰","STREET":"育平路","SECT":" ","MAREA":" ","LANE":" ","ALLEY":" ","HOUSE_NO":"１６６號八樓之７","E_COORD97":164591.47,"N_COORD97":2543236.0899999999,"ADDRESS":"育平路１６６號八樓之７","OBJECTID":572764},"geometry":{"x":164591.46999999974,"y":2543236.0899999999}},{"attributes":{"ID":572792,"DIS_CODE":0,"TOWNNAME":"安平區","LI":"育平里","LIN":"29鄰","STREET":"育平路","SECT":" ","MAREA":" ","LANE":" ","ALLEY":" ","HOUSE_NO":"１６６號八樓之８","E_COORD97":164591.47,"N_COORD97":2543236.0899999999,"ADDRESS":"育平路１６６號八樓之８","OBJECTID":572765},"geometry":{"x":164591.46999999974,"y":2543236.0899999999}},{"attributes":{"ID":572793,"DIS_CODE":0,"TOWNNAME":"安平區","LI":"育平里","LIN":"29鄰","STREET":"育平路","SECT":" ","MAREA":" ","LANE":" ","ALLEY":" ","HOUSE_NO":"１６６號八樓之９","E_COORD97":164591.47,"N_COORD97":2543236.0899999999,"ADDRESS":"育平路１６６號八樓之９","OBJECTID":572766},"geometry":{"x":164591.46999999974,"y":2543236.0899999999}},{"attributes":{"ID":572794,"DIS_CODE":0,"TOWNNAME":"安平區","LI":"育平里","LIN":"29鄰","STREET":"育平路","SECT":" ","MAREA":" ","LANE":" ","ALLEY":" ","HOUSE_NO":"１６６號十一樓之１","E_COORD97":164591.47,"N_COORD97":2543236.0899999999,"ADDRESS":"育平路１６６號十一樓之１","OBJECTID":572767},"geometry":{"x":164591.46999999974,"y":2543236.0899999999}},{"attributes":{"ID":572795,"DIS_CODE":0,"TOWNNAME":"安平區","LI":"育平里","LIN":"29鄰","STREET":"育平路","SECT":" ","MAREA":" ","LANE":" ","ALLEY":" ","HOUSE_NO":"１６６號十一樓之２","E_COORD97":164591.47,"N_COORD97":2543236.0899999999,"ADDRESS":"育平路１６６號十一樓之２","OBJECTID":572768},"geometry":{"x":164591.46999999974,"y":2543236.0899999999}},{"attributes":{"ID":572796,"DIS_CODE":0,"TOWNNAME":"安平區","LI":"育平里","LIN":"29鄰","STREET":"育平路","SECT":" ","MAREA":" ","LANE":" ","ALLEY":" ","HOUSE_NO":"１６６號十一樓之３","E_COORD97":164591.47,"N_COORD97":2543236.0899999999,"ADDRESS":"育平路１６６號十一樓之３","OBJECTID":572769},"geometry":{"x":164591.46999999974,"y":2543236.0899999999}},{"attributes":{"ID":572797,"DIS_CODE":0,"TOWNNAME":"安平區","LI":"育平里","LIN":"29鄰","STREET":"育平路","SECT":" ","MAREA":" ","LANE":" ","ALLEY":" ","HOUSE_NO":"１６６號十一樓之５","E_COORD97":164591.47,"N_COORD97":2543236.0899999999,"ADDRESS":"育平路１６６號十一樓之５","OBJECTID":572770},"geometry":{"x":164591.46999999974,"y":2543236.0899999999}},{"attributes":{"ID":572798,"DIS_CODE":0,"TOWNNAME":"安平區","LI":"育平里","LIN":"29鄰","STREET":"育平路","SECT":" ","MAREA":" ","LANE":" ","ALLEY":" ","HOUSE_NO":"１６６號十一樓之６","E_COORD97":164591.47,"N_COORD97":2543236.0899999999,"ADDRESS":"育平路１６６號十一樓之６","OBJECTID":572771},"geometry":{"x":164591.46999999974,"y":2543236.0899999999}},{"attributes":{"ID":572799,"DIS_CODE":0,"TOWNNAME":"東區","LI":"東明里","LIN":"18鄰","STREET":"怡東路","SECT":" ","MAREA":" ","LANE":" ","ALLEY":" ","HOUSE_NO":"７１號","E_COORD97":170835.75,"N_COORD97":2543638.8799999999,"ADDRESS":"怡東路７１號","OBJECTID":572772},"geometry":{"x":170835.75000000186,"y":2543638.8800000008}},{"attributes":{"ID":572800,"DIS_CODE":0,"TOWNNAME":"東區","LI":"東明里","LIN":"18鄰","STREET":"怡東路","SECT":" ","MAREA":" ","LANE":" ","ALLEY":" ","HOUSE_NO":"７３號","E_COORD97":170836.17000000001,"N_COORD97":2543644.21,"ADDRESS":"怡東路７３號","OBJECTID":572773},"geometry":{"x":170836.17000000179,"y":2543644.2100000046}},{"attributes":{"ID":572801,"DIS_CODE":0,"TOWNNAME":"東區","LI":"東明里","LIN":"18鄰","STREET":"怡東路","SECT":" ","MAREA":" ","LANE":" ","ALLEY":" ","HOUSE_NO":"７５號","E_COORD97":170836.17000000001,"N_COORD97":2543648.71,"ADDRESS":"怡東路７５號","OBJECTID":572774},"geometry":{"x":170836.17000000179,"y":2543648.7100000028}},{"attributes":{"ID":572802,"DIS_CODE":0,"TOWNNAME":"東區","LI":"東明里","LIN":"30鄰","STREET":"東安路","SECT":" ","MAREA":" ","LANE":" ","ALLEY":" ","HOUSE_NO":"５９號","E_COORD97":170669.82000000001,"N_COORD97":2543636.9199999999,"ADDRESS":"東安路５９號","OBJECTID":572775},"geometry":{"x":170669.82000000123,"y":2543636.9199999999}},{"attributes":{"ID":572803,"DIS_CODE":0,"TOWNNAME":"東區","LI":"東明里","LIN":"28鄰","STREET":"東寧路","SECT":" ","MAREA":" ","LANE":" ","ALLEY":" ","HOUSE_NO":"２４１號","E_COORD97":170726.31,"N_COORD97":2543445.4100000001,"ADDRESS":"東寧路２４１號","OBJECTID":572776},"geometry":{"x":170726.30999999866,"y":2543445.4100000039}},{"attributes":{"ID":572804,"DIS_CODE":0,"TOWNNAME":"安平區","LI":"育平里","LIN":"29鄰","STREET":"育平路","SECT":" ","MAREA":" ","LANE":" ","ALLEY":" ","HOUSE_NO":"１６６號十一樓之７","E_COORD97":164591.47,"N_COORD97":2543236.0899999999,"ADDRESS":"育平路１６６號十一樓之７","OBJECTID":572777},"geometry":{"x":164591.46999999974,"y":2543236.0899999999}},{"attributes":{"ID":572805,"DIS_CODE":0,"TOWNNAME":"安平區","LI":"育平里","LIN":"29鄰","STREET":"育平路","SECT":" ","MAREA":" ","LANE":" ","ALLEY":" ","HOUSE_NO":"１６６號十一樓之８","E_COORD97":164591.47,"N_COORD97":2543236.0899999999,"ADDRESS":"育平路１６６號十一樓之８","OBJECTID":572778},"geometry":{"x":164591.46999999974,"y":2543236.0899999999}},{"attributes":{"ID":572806,"DIS_CODE":0,"TOWNNAME":"安平區","LI":"育平里","LIN":"29鄰","STREET":"育平路","SECT":" ","MAREA":" ","LANE":" ","ALLEY":" ","HOUSE_NO":"１６６號十一樓之９","E_COORD97":164591.47,"N_COORD97":2543236.0899999999,"ADDRESS":"育平路１６６號十一樓之９","OBJECTID":572779},"geometry":{"x":164591.46999999974,"y":2543236.0899999999}},{"attributes":{"ID":572807,"DIS_CODE":0,"TOWNNAME":"安平區","LI":"育平里","LIN":"29鄰","STREET":"育平路","SECT":" ","MAREA":" ","LANE":" ","ALLEY":" ","HOUSE_NO":"１６６號十二樓之１","E_COORD97":164591.47,"N_COORD97":2543236.0899999999,"ADDRESS":"育平路１６６號十二樓之１","OBJECTID":572780},"geometry":{"x":164591.46999999974,"y":2543236.0899999999}},{"attributes":{"ID":572808,"DIS_CODE":0,"TOWNNAME":"安平區","LI":"育平里","LIN":"29鄰","STREET":"育平路","SECT":" ","MAREA":" ","LANE":" ","ALLEY":" ","HOUSE_NO":"１６６號十二樓之２","E_COORD97":164591.47,"N_COORD97":2543236.0899999999,"ADDRESS":"育平路１６６號十二樓之２","OBJECTID":572781},"geometry":{"x":164591.46999999974,"y":2543236.0899999999}},{"attributes":{"ID":572809,"DIS_CODE":0,"TOWNNAME":"安平區","LI":"育平里","LIN":"29鄰","STREET":"育平路","SECT":" ","MAREA":" ","LANE":" ","ALLEY":" ","HOUSE_NO":"１６６號十二樓之３","E_COORD97":164591.47,"N_COORD97":2543236.0899999999,"ADDRESS":"育平路１６６號十二樓之３","OBJECTID":572782},"geometry":{"x":164591.46999999974,"y":2543236.0899999999}},{"attributes":{"ID":572810,"DIS_CODE":0,"TOWNNAME":"安平區","LI":"育平里","LIN":"29鄰","STREET":"育平路","SECT":" ","MAREA":" ","LANE":" ","ALLEY":" ","HOUSE_NO":"１６６號十二樓之５","E_COORD97":164591.47,"N_COORD97":2543236.0899999999,"ADDRESS":"育平路１６６號十二樓之５","OBJECTID":572783},"geometry":{"x":164591.46999999974,"y":2543236.0899999999}},{"attributes":{"ID":572811,"DIS_CODE":0,"TOWNNAME":"安平區","LI":"育平里","LIN":"29鄰","STREET":"育平路","SECT":" ","MAREA":" ","LANE":" ","ALLEY":" ","HOUSE_NO":"１６６號十二樓之６","E_COORD97":164591.47,"N_COORD97":2543236.0899999999,"ADDRESS":"育平路１６６號十二樓之６","OBJECTID":572784},"geometry":{"x":164591.46999999974,"y":2543236.0899999999}},{"attributes":{"ID":572812,"DIS_CODE":0,"TOWNNAME":"安平區","LI":"育平里","LIN":"29鄰","STREET":"育平路","SECT":" ","MAREA":" ","LANE":" ","ALLEY":" ","HOUSE_NO":"１６６號十二樓之７","E_COORD97":164591.47,"N_COORD97":2543236.0899999999,"ADDRESS":"育平路１６６號十二樓之７","OBJECTID":572785},"geometry":{"x":164591.46999999974,"y":2543236.0899999999}},{"attributes":{"ID":572813,"DIS_CODE":0,"TOWNNAME":"東區","LI":"東明里","LIN":"20鄰","STREET":"東安路","SECT":" ","MAREA":" ","LANE":" ","ALLEY":" ","HOUSE_NO":"５８號","E_COORD97":170697.97,"N_COORD97":2543636.1200000001,"ADDRESS":"東安路５８號","OBJECTID":572786},"geometry":{"x":170697.96999999974,"y":2543636.1200000029}},{"attributes":{"ID":572814,"DIS_CODE":0,"TOWNNAME":"東區","LI":"東明里","LIN":"20鄰","STREET":"東安路","SECT":" ","MAREA":" ","LANE":" ","ALLEY":" ","HOUSE_NO":"６０號","E_COORD97":170699.62,"N_COORD97":2543641.3199999998,"ADDRESS":"東安路６０號","OBJECTID":572787},"geometry":{"x":170699.62000000104,"y":2543641.3200000003}},{"attributes":{"ID":572815,"DIS_CODE":0,"TOWNNAME":"東區","LI":"崇德里","LIN":"25鄰","STREET":"崇道路","SECT":" ","MAREA":" ","LANE":" ","ALLEY":" ","HOUSE_NO":"５３號","E_COORD97":170722.87,"N_COORD97":2541421.9900000002,"ADDRESS":"崇道路５３號","OBJECTID":572788},"geometry":{"x":170722.87000000011,"y":2541421.9900000021}},{"attributes":{"ID":572816,"DIS_CODE":0,"TOWNNAME":"安平區","LI":"育平里","LIN":"29鄰","STREET":"育平路","SECT":" ","MAREA":" ","LANE":" ","ALLEY":" ","HOUSE_NO":"１６６號十二樓之８","E_COORD97":164591.47,"N_COORD97":2543236.0899999999,"ADDRESS":"育平路１６６號十二樓之８","OBJECTID":572789},"geometry":{"x":164591.46999999974,"y":2543236.0899999999}},{"attributes":{"ID":572817,"DIS_CODE":0,"TOWNNAME":"安平區","LI":"育平里","LIN":"29鄰","STREET":"育平路","SECT":" ","MAREA":" ","LANE":" ","ALLEY":" ","HOUSE_NO":"１６６號十二樓之９","E_COORD97":164591.47,"N_COORD97":2543236.0899999999,"ADDRESS":"育平路１６６號十二樓之９","OBJECTID":572790},"geometry":{"x":164591.46999999974,"y":2543236.0899999999}},{"attributes":{"ID":572818,"DIS_CODE":0,"TOWNNAME":"安平區","LI":"育平里","LIN":"29鄰","STREET":"育平路","SECT":" ","MAREA":" ","LANE":" ","ALLEY":" ","HOUSE_NO":"１６６號十三樓之１","E_COORD97":164591.47,"N_COORD97":2543236.0899999999,"ADDRESS":"育平路１６６號十三樓之１","OBJECTID":572791},"geometry":{"x":164591.46999999974,"y":2543236.0899999999}},{"attributes":{"ID":572819,"DIS_CODE":0,"TOWNNAME":"安平區","LI":"育平里","LIN":"29鄰","STREET":"育平路","SECT":" ","MAREA":" ","LANE":" ","ALLEY":" ","HOUSE_NO":"１６６號十三樓之２","E_COORD97":164591.47,"N_COORD97":2543236.0899999999,"ADDRESS":"育平路１６６號十三樓之２","OBJECTID":572792},"geometry":{"x":164591.46999999974,"y":2543236.0899999999}},{"attributes":{"ID":572820,"DIS_CODE":0,"TOWNNAME":"安平區","LI":"育平里","LIN":"29鄰","STREET":"育平路","SECT":" ","MAREA":" ","LANE":" ","ALLEY":" ","HOUSE_NO":"１６６號十三樓之３","E_COORD97":164591.47,"N_COORD97":2543236.0899999999,"ADDRESS":"育平路１６６號十三樓之３","OBJECTID":572793},"geometry":{"x":164591.46999999974,"y":2543236.0899999999}},{"attributes":{"ID":572821,"DIS_CODE":0,"TOWNNAME":"安平區","LI":"育平里","LIN":"29鄰","STREET":"育平路","SECT":" ","MAREA":" ","LANE":" ","ALLEY":" ","HOUSE_NO":"１６６號十三樓之５","E_COORD97":164591.47,"N_COORD97":2543236.0899999999,"ADDRESS":"育平路１６６號十三樓之５","OBJECTID":572794},"geometry":{"x":164591.46999999974,"y":2543236.0899999999}},{"attributes":{"ID":572822,"DIS_CODE":0,"TOWNNAME":"安平區","LI":"育平里","LIN":"29鄰","STREET":"育平路","SECT":" ","MAREA":" ","LANE":" ","ALLEY":" ","HOUSE_NO":"１６６號十三樓之６","E_COORD97":164591.47,"N_COORD97":2543236.0899999999,"ADDRESS":"育平路１６６號十三樓之６","OBJECTID":572795},"geometry":{"x":164591.46999999974,"y":2543236.0899999999}},{"attributes":{"ID":572823,"DIS_CODE":0,"TOWNNAME":"安平區","LI":"育平里","LIN":"29鄰","STREET":"育平路","SECT":" ","MAREA":" ","LANE":" ","ALLEY":" ","HOUSE_NO":"１６６號十三樓之７","E_COORD97":164591.47,"N_COORD97":2543236.0899999999,"ADDRESS":"育平路１６６號十三樓之７","OBJECTID":572796},"geometry":{"x":164591.46999999974,"y":2543236.0899999999}},{"attributes":{"ID":572824,"DIS_CODE":0,"TOWNNAME":"安平區","LI":"育平里","LIN":"29鄰","STREET":"育平路","SECT":" ","MAREA":" ","LANE":" ","ALLEY":" ","HOUSE_NO":"１６６號十三樓之８","E_COORD97":164591.47,"N_COORD97":2543236.0899999999,"ADDRESS":"育平路１６６號十三樓之８","OBJECTID":572797},"geometry":{"x":164591.46999999974,"y":2543236.0899999999}},{"attributes":{"ID":572825,"DIS_CODE":0,"TOWNNAME":"安平區","LI":"育平里","LIN":"29鄰","STREET":"育平路","SECT":" ","MAREA":" ","LANE":" ","ALLEY":" ","HOUSE_NO":"１６６號十三樓之９","E_COORD97":164591.47,"N_COORD97":2543236.0899999999,"ADDRESS":"育平路１６６號十三樓之９","OBJECTID":572798},"geometry":{"x":164591.46999999974,"y":2543236.0899999999}},{"attributes":{"ID":572826,"DIS_CODE":0,"TOWNNAME":"安平區","LI":"育平里","LIN":"29鄰","STREET":"育平路","SECT":" ","MAREA":" ","LANE":" ","ALLEY":" ","HOUSE_NO":"１６６號十樓之１","E_COORD97":164591.47,"N_COORD97":2543236.0899999999,"ADDRESS":"育平路１６６號十樓之１","OBJECTID":572799},"geometry":{"x":164591.46999999974,"y":2543236.0899999999}},{"attributes":{"ID":572827,"DIS_CODE":0,"TOWNNAME":"安平區","LI":"育平里","LIN":"29鄰","STREET":"育平路","SECT":" ","MAREA":" ","LANE":" ","ALLEY":" ","HOUSE_NO":"１６６號十樓之２","E_COORD97":164591.47,"N_COORD97":2543236.0899999999,"ADDRESS":"育平路１６６號十樓之２","OBJECTID":572800},"geometry":{"x":164591.46999999974,"y":2543236.0899999999}}]}