{"displayFieldName":"TOWNNAME","fieldAliases":{"ID":"ID","DIS_CODE":"DIS_CODE","TOWNNAME":"TOWNNAME","LI":"LI","LIN":"LIN","STREET":"STREET","SECT":"SECT","MAREA":"MAREA","LANE":"LANE","ALLEY":"ALLEY","HOUSE_NO":"HOUSE_NO","E_COORD97":"E_COORD97","N_COORD97":"N_COORD97","ADDRESS":"ADDRESS","OBJECTID":"OBJECTID"},"geometryType":"esriGeometryPoint","spatialReference":{"wkid":102443,"latestWkid":3826},"fields":[{"name":"ID","type":"esriFieldTypeDouble","alias":"ID"},{"name":"DIS_CODE","type":"esriFieldTypeInteger","alias":"DIS_CODE"},{"name":"TOWNNAME","type":"esriFieldTypeString","alias":"TOWNNAME","length":8},{"name":"LI","type":"esriFieldTypeString","alias":"LI","length":8},{"name":"LIN","type":"esriFieldTypeString","alias":"LIN","length":12},{"name":"STREET","type":"esriFieldTypeString","alias":"STREET","length":20},{"name":"SECT","type":"esriFieldTypeString","alias":"SECT","length":8},{"name":"MAREA","type":"esriFieldTypeString","alias":"MAREA","length":12},{"name":"LANE","type":"esriFieldTypeString","alias":"LANE","length":10},{"name":"ALLEY","type":"esriFieldTypeString","alias":"ALLEY","length":10},{"name":"HOUSE_NO","type":"esriFieldTypeString","alias":"HOUSE_NO","length":20},{"name":"E_COORD97","type":"esriFieldTypeDouble","alias":"E_COORD97"},{"name":"N_COORD97","type":"esriFieldTypeDouble","alias":"N_COORD97"},{"name":"ADDRESS","type":"esriFieldTypeString","alias":"ADDRESS","length":50},{"name":"OBJECTID","type":"esriFieldTypeOID","alias":"OBJECTID"}],"features":[{"attributes":{"ID":487826,"DIS_CODE":0,"TOWNNAME":"佳里區","LI":"安西里","LIN":"41鄰","STREET":"同心街","SECT":" ","MAREA":" ","LANE":" ","ALLEY":" ","HOUSE_NO":"１１６號","E_COORD97":164850.32999999999,"N_COORD97":2562341.75,"ADDRESS":"同心街１１６號","OBJECTID":487801},"geometry":{"x":164850.33000000101,"y":2562341.7500000019}},{"attributes":{"ID":487827,"DIS_CODE":0,"TOWNNAME":"佳里區","LI":"安西里","LIN":"41鄰","STREET":"同心街","SECT":" ","MAREA":" ","LANE":" ","ALLEY":" ","HOUSE_NO":"１１８號","E_COORD97":164845.56,"N_COORD97":2562341.7200000002,"ADDRESS":"同心街１１８號","OBJECTID":487802},"geometry":{"x":164845.55999999959,"y":2562341.7200000044}},{"attributes":{"ID":487828,"DIS_CODE":0,"TOWNNAME":"佳里區","LI":"安西里","LIN":"41鄰","STREET":"同心街","SECT":" ","MAREA":" ","LANE":" ","ALLEY":" ","HOUSE_NO":"１２０號","E_COORD97":164839.89999999999,"N_COORD97":2562341.9199999999,"ADDRESS":"同心街１２０號","OBJECTID":487803},"geometry":{"x":164839.9000000013,"y":2562341.9199999999}},{"attributes":{"ID":487829,"DIS_CODE":0,"TOWNNAME":"佳里區","LI":"安西里","LIN":"41鄰","STREET":"同心街","SECT":" ","MAREA":" ","LANE":" ","ALLEY":" ","HOUSE_NO":"１２６號","E_COORD97":164820.66,"N_COORD97":2562351.3900000001,"ADDRESS":"同心街１２６號","OBJECTID":487804},"geometry":{"x":164820.66000000108,"y":2562351.3900000025}},{"attributes":{"ID":487830,"DIS_CODE":0,"TOWNNAME":"佳里區","LI":"安西里","LIN":"41鄰","STREET":"同心街","SECT":" ","MAREA":" ","LANE":" ","ALLEY":" ","HOUSE_NO":"１２８號","E_COORD97":164801.13,"N_COORD97":2562350.4500000002,"ADDRESS":"同心街１２８號","OBJECTID":487805},"geometry":{"x":164801.12999999989,"y":2562350.4500000011}},{"attributes":{"ID":487831,"DIS_CODE":0,"TOWNNAME":"佳里區","LI":"安西里","LIN":"41鄰","STREET":"同心街","SECT":" ","MAREA":" ","LANE":" ","ALLEY":" ","HOUSE_NO":"６３號","E_COORD97":164943.48000000001,"N_COORD97":2562316.6600000001,"ADDRESS":"同心街６３號","OBJECTID":487806},"geometry":{"x":164943.48000000045,"y":2562316.6600000001}},{"attributes":{"ID":487832,"DIS_CODE":0,"TOWNNAME":"佳里區","LI":"安西里","LIN":"41鄰","STREET":"同心街","SECT":" ","MAREA":" ","LANE":" ","ALLEY":" ","HOUSE_NO":"６５號","E_COORD97":164938.29000000001,"N_COORD97":2562316.9300000002,"ADDRESS":"同心街６５號","OBJECTID":487807},"geometry":{"x":164938.29000000097,"y":2562316.9300000016}},{"attributes":{"ID":487833,"DIS_CODE":0,"TOWNNAME":"佳里區","LI":"安西里","LIN":"41鄰","STREET":"同心街","SECT":" ","MAREA":" ","LANE":" ","ALLEY":" ","HOUSE_NO":"６７號","E_COORD97":164932.47,"N_COORD97":2562317,"ADDRESS":"同心街６７號","OBJECTID":487808},"geometry":{"x":164932.46999999974,"y":2562317.0000000019}},{"attributes":{"ID":487834,"DIS_CODE":0,"TOWNNAME":"佳里區","LI":"安西里","LIN":"41鄰","STREET":"同心街","SECT":" ","MAREA":" ","LANE":" ","ALLEY":" ","HOUSE_NO":"６９號","E_COORD97":164927.13,"N_COORD97":2562317.02,"ADDRESS":"同心街６９號","OBJECTID":487809},"geometry":{"x":164927.13000000175,"y":2562317.0199999996}},{"attributes":{"ID":487835,"DIS_CODE":0,"TOWNNAME":"佳里區","LI":"安西里","LIN":"41鄰","STREET":"同心街","SECT":" ","MAREA":" ","LANE":" ","ALLEY":" ","HOUSE_NO":"７１號","E_COORD97":164922.14999999999,"N_COORD97":2562317.0899999999,"ADDRESS":"同心街７１號","OBJECTID":487810},"geometry":{"x":164922.15000000037,"y":2562317.0899999999}},{"attributes":{"ID":487836,"DIS_CODE":0,"TOWNNAME":"佳里區","LI":"安西里","LIN":"41鄰","STREET":"同心街","SECT":" ","MAREA":" ","LANE":" ","ALLEY":" ","HOUSE_NO":"７３號","E_COORD97":164916.64000000001,"N_COORD97":2562317.0899999999,"ADDRESS":"同心街７３號","OBJECTID":487811},"geometry":{"x":164916.64000000153,"y":2562317.0899999999}},{"attributes":{"ID":487837,"DIS_CODE":0,"TOWNNAME":"佳里區","LI":"安西里","LIN":"41鄰","STREET":"同心街","SECT":" ","MAREA":" ","LANE":" ","ALLEY":" ","HOUSE_NO":"７５號","E_COORD97":164910.84,"N_COORD97":2562317.2799999998,"ADDRESS":"同心街７５號","OBJECTID":487812},"geometry":{"x":164910.84000000078,"y":2562317.2800000012}},{"attributes":{"ID":487838,"DIS_CODE":0,"TOWNNAME":"佳里區","LI":"安西里","LIN":"41鄰","STREET":"同心街","SECT":" ","MAREA":" ","LANE":" ","ALLEY":" ","HOUSE_NO":"７７號","E_COORD97":164905.29000000001,"N_COORD97":2562317.5299999998,"ADDRESS":"同心街７７號","OBJECTID":487813},"geometry":{"x":164905.29000000004,"y":2562317.5299999993}},{"attributes":{"ID":487839,"DIS_CODE":0,"TOWNNAME":"佳里區","LI":"安西里","LIN":"41鄰","STREET":"同心街","SECT":" ","MAREA":" ","LANE":" ","ALLEY":" ","HOUSE_NO":"８５號","E_COORD97":164875.81,"N_COORD97":2562314.6400000001,"ADDRESS":"同心街８５號","OBJECTID":487814},"geometry":{"x":164875.80999999959,"y":2562314.6400000006}},{"attributes":{"ID":487840,"DIS_CODE":0,"TOWNNAME":"佳里區","LI":"安西里","LIN":"41鄰","STREET":"同心街","SECT":" ","MAREA":" ","LANE":" ","ALLEY":" ","HOUSE_NO":"８７號","E_COORD97":164866.5,"N_COORD97":2562319.3900000001,"ADDRESS":"同心街８７號","OBJECTID":487815},"geometry":{"x":164866.5,"y":2562319.3900000006}},{"attributes":{"ID":487841,"DIS_CODE":0,"TOWNNAME":"佳里區","LI":"安西里","LIN":"41鄰","STREET":"同心街","SECT":" ","MAREA":" ","LANE":" ","ALLEY":" ","HOUSE_NO":"９５號","E_COORD97":164846.78,"N_COORD97":2562319.7200000002,"ADDRESS":"同心街９５號","OBJECTID":487816},"geometry":{"x":164846.78000000212,"y":2562319.7200000007}},{"attributes":{"ID":487842,"DIS_CODE":0,"TOWNNAME":"佳里區","LI":"安西里","LIN":"41鄰","STREET":"同心街","SECT":" ","MAREA":" ","LANE":" ","ALLEY":" ","HOUSE_NO":"９７號","E_COORD97":164841.76999999999,"N_COORD97":2562319.96,"ADDRESS":"同心街９７號","OBJECTID":487817},"geometry":{"x":164841.77000000048,"y":2562319.9600000046}},{"attributes":{"ID":487843,"DIS_CODE":0,"TOWNNAME":"佳里區","LI":"安西里","LIN":"41鄰","STREET":"育善街","SECT":" ","MAREA":" ","LANE":" ","ALLEY":" ","HOUSE_NO":"９９號","E_COORD97":164951.19,"N_COORD97":2562271.5099999998,"ADDRESS":"育善街９９號","OBJECTID":487818},"geometry":{"x":164951.19000000134,"y":2562271.5100000016}},{"attributes":{"ID":487844,"DIS_CODE":0,"TOWNNAME":"永康區","LI":"永康里","LIN":"41鄰","STREET":"永大三路","SECT":" ","MAREA":" ","LANE":" ","ALLEY":" ","HOUSE_NO":"４１號","E_COORD97":174238.22,"N_COORD97":2546651.1200000001,"ADDRESS":"永大三路４１號","OBJECTID":487819},"geometry":{"x":174238.22000000067,"y":2546651.120000001}},{"attributes":{"ID":487845,"DIS_CODE":0,"TOWNNAME":"楠西區","LI":"楠西里","LIN":"20鄰","STREET":"民族路","SECT":" ","MAREA":" ","LANE":" ","ALLEY":" ","HOUSE_NO":"７３號之１","E_COORD97":197040.17000000001,"N_COORD97":2564032.2999999998,"ADDRESS":"民族路７３號之１","OBJECTID":487820},"geometry":{"x":197040.16999999993,"y":2564032.3000000007}},{"attributes":{"ID":487846,"DIS_CODE":0,"TOWNNAME":"楠西區","LI":"楠西里","LIN":"4鄰","STREET":"中華路","SECT":" ","MAREA":" ","LANE":" ","ALLEY":" ","HOUSE_NO":"４８號之１","E_COORD97":197283.35000000001,"N_COORD97":2564132.2999999998,"ADDRESS":"中華路４８號之１","OBJECTID":487821},"geometry":{"x":197283.35000000056,"y":2564132.3000000026}},{"attributes":{"ID":487847,"DIS_CODE":0,"TOWNNAME":"永康區","LI":"永康里","LIN":"41鄰","STREET":"永大三路","SECT":" ","MAREA":" ","LANE":" ","ALLEY":" ","HOUSE_NO":"３０號","E_COORD97":174247.89999999999,"N_COORD97":2546677.2400000002,"ADDRESS":"永大三路３０號","OBJECTID":487822},"geometry":{"x":174247.9000000013,"y":2546677.2400000002}},{"attributes":{"ID":487848,"DIS_CODE":0,"TOWNNAME":"永康區","LI":"北灣里","LIN":"41鄰","STREET":"信義二街","SECT":" ","MAREA":" ","LANE":" ","ALLEY":" ","HOUSE_NO":"７６號","E_COORD97":175044.16,"N_COORD97":2545744.7400000002,"ADDRESS":"信義二街７６號","OBJECTID":487823},"geometry":{"x":175044.16000000108,"y":2545744.7400000002}},{"attributes":{"ID":487849,"DIS_CODE":0,"TOWNNAME":"永康區","LI":"北灣里","LIN":"41鄰","STREET":"信義二街","SECT":" ","MAREA":" ","LANE":" ","ALLEY":" ","HOUSE_NO":"８２號","E_COORD97":175028.79000000001,"N_COORD97":2545745.5600000001,"ADDRESS":"信義二街８２號","OBJECTID":487824},"geometry":{"x":175028.79000000004,"y":2545745.5600000005}},{"attributes":{"ID":487850,"DIS_CODE":0,"TOWNNAME":"永康區","LI":"北灣里","LIN":"41鄰","STREET":"信義二街","SECT":" ","MAREA":" ","LANE":" ","ALLEY":" ","HOUSE_NO":"８６號","E_COORD97":175024.48000000001,"N_COORD97":2545740.5600000001,"ADDRESS":"信義二街８６號","OBJECTID":487825},"geometry":{"x":175024.48000000045,"y":2545740.5600000024}},{"attributes":{"ID":487851,"DIS_CODE":0,"TOWNNAME":"歸仁區","LI":"南興里","LIN":"41鄰","STREET":"中山十一街","SECT":" ","MAREA":" ","LANE":" ","ALLEY":" ","HOUSE_NO":"６號","E_COORD97":175799.95999999999,"N_COORD97":2540975.25,"ADDRESS":"中山十一街６號","OBJECTID":487826},"geometry":{"x":175799.96000000089,"y":2540975.2500000019}},{"attributes":{"ID":487852,"DIS_CODE":0,"TOWNNAME":"楠西區","LI":"楠西里","LIN":"23鄰","STREET":"茄拔路","SECT":" ","MAREA":" ","LANE":" ","ALLEY":" ","HOUSE_NO":"８７號","E_COORD97":197155.19,"N_COORD97":2563833.2799999998,"ADDRESS":"茄拔路８７號","OBJECTID":487827},"geometry":{"x":197155.19000000134,"y":2563833.2800000012}},{"attributes":{"ID":487853,"DIS_CODE":0,"TOWNNAME":"永康區","LI":"五王里","LIN":"41鄰","STREET":"中山南路","SECT":" ","MAREA":" ","LANE":" ","ALLEY":" ","HOUSE_NO":"２１０號","E_COORD97":171387.64999999999,"N_COORD97":2546045.7400000002,"ADDRESS":"中山南路２１０號","OBJECTID":487828},"geometry":{"x":171387.64999999944,"y":2546045.7400000002}},{"attributes":{"ID":487854,"DIS_CODE":0,"TOWNNAME":"佳里區","LI":"安西里","LIN":"41鄰","STREET":"佳西路","SECT":" ","MAREA":" ","LANE":" ","ALLEY":" ","HOUSE_NO":"８８號","E_COORD97":164785.79000000001,"N_COORD97":2562370.4399999999,"ADDRESS":"佳西路８８號","OBJECTID":487829},"geometry":{"x":164785.79000000097,"y":2562370.4400000013}},{"attributes":{"ID":487855,"DIS_CODE":0,"TOWNNAME":"楠西區","LI":"東勢里","LIN":"4鄰","STREET":"東勢路","SECT":" ","MAREA":" ","LANE":" ","ALLEY":" ","HOUSE_NO":"１４８號","E_COORD97":197422.76999999999,"N_COORD97":2564045.29,"ADDRESS":"東勢路１４８號","OBJECTID":487830},"geometry":{"x":197422.77000000048,"y":2564045.290000001}},{"attributes":{"ID":487856,"DIS_CODE":0,"TOWNNAME":"永康區","LI":"復華里","LIN":"41鄰","STREET":"復華六街","SECT":" ","MAREA":" ","LANE":" ","ALLEY":" ","HOUSE_NO":"９８號","E_COORD97":172630,"N_COORD97":2545857.5899999999,"ADDRESS":"復華六街９８號","OBJECTID":487831},"geometry":{"x":172630.00000000093,"y":2545857.5900000036}},{"attributes":{"ID":487857,"DIS_CODE":0,"TOWNNAME":"永康區","LI":"復華里","LIN":"41鄰","STREET":"復華六街","SECT":" ","MAREA":" ","LANE":" ","ALLEY":" ","HOUSE_NO":"１２０號","E_COORD97":172583.82000000001,"N_COORD97":2545860.2999999998,"ADDRESS":"復華六街１２０號","OBJECTID":487832},"geometry":{"x":172583.82000000123,"y":2545860.3000000007}},{"attributes":{"ID":487858,"DIS_CODE":0,"TOWNNAME":"永康區","LI":"復華里","LIN":"41鄰","STREET":"復華六街","SECT":" ","MAREA":" ","LANE":" ","ALLEY":" ","HOUSE_NO":"１１０號","E_COORD97":172604.89000000001,"N_COORD97":2545857.71,"ADDRESS":"復華六街１１０號","OBJECTID":487833},"geometry":{"x":172604.8900000006,"y":2545857.709999999}},{"attributes":{"ID":487859,"DIS_CODE":0,"TOWNNAME":"永康區","LI":"復華里","LIN":"41鄰","STREET":"復華六街","SECT":" ","MAREA":" ","LANE":" ","ALLEY":" ","HOUSE_NO":"１２４號","E_COORD97":172575.70999999999,"N_COORD97":2545860.7999999998,"ADDRESS":"復華六街１２４號","OBJECTID":487834},"geometry":{"x":172575.71000000089,"y":2545860.8000000045}},{"attributes":{"ID":487860,"DIS_CODE":0,"TOWNNAME":"永康區","LI":"五王里","LIN":"41鄰","STREET":"中山南路","SECT":" ","MAREA":" ","LANE":" ","ALLEY":" ","HOUSE_NO":"１８０號","E_COORD97":171328.31,"N_COORD97":2546026.5,"ADDRESS":"中山南路１８０號","OBJECTID":487835},"geometry":{"x":171328.31000000145,"y":2546026.5}},{"attributes":{"ID":487861,"DIS_CODE":0,"TOWNNAME":"永康區","LI":"五王里","LIN":"41鄰","STREET":"中山南路","SECT":" ","MAREA":" ","LANE":" ","ALLEY":" ","HOUSE_NO":"２１８號","E_COORD97":171404.82000000001,"N_COORD97":2546051.4900000002,"ADDRESS":"中山南路２１８號","OBJECTID":487836},"geometry":{"x":171404.8200000003,"y":2546051.4900000002}},{"attributes":{"ID":487862,"DIS_CODE":0,"TOWNNAME":"新市區","LI":"新和里","LIN":"41鄰","STREET":"西寧街","SECT":" ","MAREA":" ","LANE":" ","ALLEY":" ","HOUSE_NO":"５號","E_COORD97":177145.95999999999,"N_COORD97":2552900.5,"ADDRESS":"西寧街５號","OBJECTID":487837},"geometry":{"x":177145.96000000089,"y":2552900.5000000037}},{"attributes":{"ID":487863,"DIS_CODE":0,"TOWNNAME":"新市區","LI":"新和里","LIN":"41鄰","STREET":"光明街","SECT":" ","MAREA":" ","LANE":" ","ALLEY":" ","HOUSE_NO":"５９之１４號","E_COORD97":177096.09,"N_COORD97":2552813.7999999998,"ADDRESS":"光明街５９之１４號","OBJECTID":487838},"geometry":{"x":177096.09000000078,"y":2552813.8000000007}},{"attributes":{"ID":487864,"DIS_CODE":0,"TOWNNAME":"新市區","LI":"新和里","LIN":"41鄰","STREET":"光明街","SECT":" ","MAREA":" ","LANE":" ","ALLEY":" ","HOUSE_NO":"５９之２０號","E_COORD97":177096.23999999999,"N_COORD97":2552787.5499999998,"ADDRESS":"光明街５９之２０號","OBJECTID":487839},"geometry":{"x":177096.24000000022,"y":2552787.5500000007}},{"attributes":{"ID":487865,"DIS_CODE":0,"TOWNNAME":"新市區","LI":"新和里","LIN":"41鄰","STREET":"光明街","SECT":" ","MAREA":" ","LANE":" ","ALLEY":" ","HOUSE_NO":"６４號","E_COORD97":177124.09,"N_COORD97":2552933.75,"ADDRESS":"光明街６４號","OBJECTID":487840},"geometry":{"x":177124.09000000171,"y":2552933.7500000019}},{"attributes":{"ID":487866,"DIS_CODE":0,"TOWNNAME":"新市區","LI":"新和里","LIN":"41鄰","STREET":"光明街","SECT":" ","MAREA":" ","LANE":" ","ALLEY":" ","HOUSE_NO":"６號","E_COORD97":177131.45999999999,"N_COORD97":2552706,"ADDRESS":"光明街６號","OBJECTID":487841},"geometry":{"x":177131.45999999996,"y":2552706}},{"attributes":{"ID":487867,"DIS_CODE":0,"TOWNNAME":"新市區","LI":"新和里","LIN":"41鄰","STREET":"光明街","SECT":" ","MAREA":" ","LANE":" ","ALLEY":" ","HOUSE_NO":"３０號","E_COORD97":177126.89000000001,"N_COORD97":2552753.25,"ADDRESS":"光明街３０號","OBJECTID":487842},"geometry":{"x":177126.88999999873,"y":2552753.2500000019}},{"attributes":{"ID":487868,"DIS_CODE":0,"TOWNNAME":"新市區","LI":"新和里","LIN":"41鄰","STREET":"光明街","SECT":" ","MAREA":" ","LANE":" ","ALLEY":" ","HOUSE_NO":"５２號","E_COORD97":177132.67000000001,"N_COORD97":2552844.25,"ADDRESS":"光明街５２號","OBJECTID":487843},"geometry":{"x":177132.67000000086,"y":2552844.2500000037}},{"attributes":{"ID":487869,"DIS_CODE":0,"TOWNNAME":"新市區","LI":"新和里","LIN":"41鄰","STREET":"光明街","SECT":" ","MAREA":" ","LANE":" ","ALLEY":" ","HOUSE_NO":"８號","E_COORD97":177130.84,"N_COORD97":2552710.75,"ADDRESS":"光明街８號","OBJECTID":487844},"geometry":{"x":177130.83999999892,"y":2552710.75}},{"attributes":{"ID":487870,"DIS_CODE":0,"TOWNNAME":"新市區","LI":"新和里","LIN":"41鄰","STREET":"光明街","SECT":" ","MAREA":" ","LANE":" ","ALLEY":" ","HOUSE_NO":"５０號","E_COORD97":177159.20999999999,"N_COORD97":2552836,"ADDRESS":"光明街５０號","OBJECTID":487845},"geometry":{"x":177159.21000000089,"y":2552836.0000000037}},{"attributes":{"ID":487871,"DIS_CODE":0,"TOWNNAME":"新市區","LI":"新和里","LIN":"41鄰","STREET":"光明街","SECT":" ","MAREA":" ","LANE":" ","ALLEY":" ","HOUSE_NO":"５１號","E_COORD97":177109.42999999999,"N_COORD97":2552805.25,"ADDRESS":"光明街５１號","OBJECTID":487846},"geometry":{"x":177109.4299999997,"y":2552805.2500000019}},{"attributes":{"ID":487872,"DIS_CODE":0,"TOWNNAME":"新市區","LI":"新和里","LIN":"41鄰","STREET":"光明街","SECT":" ","MAREA":" ","LANE":" ","ALLEY":" ","HOUSE_NO":"３７號","E_COORD97":177109.95999999999,"N_COORD97":2552774.5,"ADDRESS":"光明街３７號","OBJECTID":487847},"geometry":{"x":177109.96000000183,"y":2552774.5}},{"attributes":{"ID":487873,"DIS_CODE":0,"TOWNNAME":"新市區","LI":"新和里","LIN":"41鄰","STREET":"光明街","SECT":" ","MAREA":" ","LANE":" ","ALLEY":" ","HOUSE_NO":"３２號","E_COORD97":177126.73000000001,"N_COORD97":2552757.5,"ADDRESS":"光明街３２號","OBJECTID":487848},"geometry":{"x":177126.73000000045,"y":2552757.5}},{"attributes":{"ID":487874,"DIS_CODE":0,"TOWNNAME":"新市區","LI":"新和里","LIN":"41鄰","STREET":"西寧街","SECT":" ","MAREA":" ","LANE":" ","ALLEY":" ","HOUSE_NO":"６號","E_COORD97":177145.64999999999,"N_COORD97":2552913.5,"ADDRESS":"西寧街６號","OBJECTID":487849},"geometry":{"x":177145.65000000037,"y":2552913.5}},{"attributes":{"ID":487875,"DIS_CODE":0,"TOWNNAME":"永康區","LI":"五王里","LIN":"41鄰","STREET":"中山南路","SECT":" ","MAREA":" ","LANE":" ","ALLEY":" ","HOUSE_NO":"２３４號","E_COORD97":171439.14000000001,"N_COORD97":2546060.4100000001,"ADDRESS":"中山南路２３４號","OBJECTID":487850},"geometry":{"x":171439.13999999966,"y":2546060.410000002}},{"attributes":{"ID":487876,"DIS_CODE":0,"TOWNNAME":"永康區","LI":"五王里","LIN":"41鄰","STREET":"中山南路","SECT":" ","MAREA":" ","LANE":" ","ALLEY":" ","HOUSE_NO":"２３８號","E_COORD97":171448.16,"N_COORD97":2546063.9100000001,"ADDRESS":"中山南路２３８號","OBJECTID":487851},"geometry":{"x":171448.16000000015,"y":2546063.910000002}},{"attributes":{"ID":487877,"DIS_CODE":0,"TOWNNAME":"永康區","LI":"五王里","LIN":"41鄰","STREET":"中山南路","SECT":" ","MAREA":" ","LANE":" ","ALLEY":" ","HOUSE_NO":"２２４號","E_COORD97":171418.12,"N_COORD97":2546055.9900000002,"ADDRESS":"中山南路２２４號","OBJECTID":487852},"geometry":{"x":171418.11999999918,"y":2546055.9900000021}},{"attributes":{"ID":487878,"DIS_CODE":0,"TOWNNAME":"永康區","LI":"崑山里","LIN":"41鄰","STREET":"國光五街","SECT":" ","MAREA":" ","LANE":" ","ALLEY":" ","HOUSE_NO":"３７號","E_COORD97":174062.09,"N_COORD97":2545102.8799999999,"ADDRESS":"國光五街３７號","OBJECTID":487853},"geometry":{"x":174062.08999999985,"y":2545102.8800000008}},{"attributes":{"ID":487879,"DIS_CODE":0,"TOWNNAME":"永康區","LI":"崑山里","LIN":"41鄰","STREET":"國光五街","SECT":" ","MAREA":" ","LANE":" ","ALLEY":" ","HOUSE_NO":"３１號","E_COORD97":174075.67999999999,"N_COORD97":2545098.1299999999,"ADDRESS":"國光五街３１號","OBJECTID":487854},"geometry":{"x":174075.68000000063,"y":2545098.1300000008}},{"attributes":{"ID":487880,"DIS_CODE":0,"TOWNNAME":"永康區","LI":"崑山里","LIN":"41鄰","STREET":"國光五街","SECT":" ","MAREA":" ","LANE":" ","ALLEY":" ","HOUSE_NO":"４１號","E_COORD97":174053.47,"N_COORD97":2545105.8799999999,"ADDRESS":"國光五街４１號","OBJECTID":487855},"geometry":{"x":174053.47000000067,"y":2545105.8800000008}},{"attributes":{"ID":487881,"DIS_CODE":0,"TOWNNAME":"仁德區","LI":"太子里","LIN":"41鄰","STREET":"太子路","SECT":" ","MAREA":" ","LANE":" ","ALLEY":" ","HOUSE_NO":"６４號","E_COORD97":175209.69,"N_COORD97":2543587,"ADDRESS":"太子路６４號","OBJECTID":487856},"geometry":{"x":175209.69000000041,"y":2543587.0000000037}},{"attributes":{"ID":487882,"DIS_CODE":0,"TOWNNAME":"永康區","LI":"五王里","LIN":"41鄰","STREET":"中山南路","SECT":" ","MAREA":" ","LANE":" ","ALLEY":" ","HOUSE_NO":"１６８號","E_COORD97":171304.20000000001,"N_COORD97":2546019,"ADDRESS":"中山南路１６８號","OBJECTID":487857},"geometry":{"x":171304.20000000205,"y":2546019.0000000019}},{"attributes":{"ID":487883,"DIS_CODE":0,"TOWNNAME":"永康區","LI":"五王里","LIN":"41鄰","STREET":"中山南路","SECT":" ","MAREA":" ","LANE":" ","ALLEY":" ","HOUSE_NO":"２２０號","E_COORD97":171410.57000000001,"N_COORD97":2546053.4900000002,"ADDRESS":"中山南路２２０號","OBJECTID":487858},"geometry":{"x":171410.57000000123,"y":2546053.4900000021}},{"attributes":{"ID":487884,"DIS_CODE":0,"TOWNNAME":"永康區","LI":"勝利里","LIN":"41鄰","STREET":"中華路","SECT":" ","MAREA":" ","LANE":" ","ALLEY":" ","HOUSE_NO":"１９３號","E_COORD97":171594.42999999999,"N_COORD97":2544992.5,"ADDRESS":"中華路１９３號","OBJECTID":487859},"geometry":{"x":171594.43000000063,"y":2544992.5}},{"attributes":{"ID":487885,"DIS_CODE":0,"TOWNNAME":"永康區","LI":"崑山里","LIN":"41鄰","STREET":"國光五街","SECT":" ","MAREA":" ","LANE":" ","ALLEY":" ","HOUSE_NO":"２３號","E_COORD97":174094.76000000001,"N_COORD97":2545089.9700000002,"ADDRESS":"國光五街２３號","OBJECTID":487860},"geometry":{"x":174094.75999999978,"y":2545089.9700000044}},{"attributes":{"ID":487886,"DIS_CODE":0,"TOWNNAME":"永康區","LI":"勝利里","LIN":"41鄰","STREET":"中華路","SECT":" ","MAREA":" ","LANE":" ","ALLEY":" ","HOUSE_NO":"１８７號","E_COORD97":171592.47,"N_COORD97":2544975.5,"ADDRESS":"中華路１８７號","OBJECTID":487861},"geometry":{"x":171592.47000000067,"y":2544975.5}},{"attributes":{"ID":487887,"DIS_CODE":0,"TOWNNAME":"永康區","LI":"崑山里","LIN":"41鄰","STREET":"國光五街","SECT":" ","MAREA":" ","LANE":" ","ALLEY":" ","HOUSE_NO":"６１號","E_COORD97":174007.29000000001,"N_COORD97":2545118.3999999999,"ADDRESS":"國光五街６１號","OBJECTID":487862},"geometry":{"x":174007.2900000019,"y":2545118.4000000022}},{"attributes":{"ID":487888,"DIS_CODE":0,"TOWNNAME":"永康區","LI":"\u25A0行里","LIN":"41鄰","STREET":"永安路","SECT":" ","MAREA":" ","LANE":" ","ALLEY":" ","HOUSE_NO":"１８９號","E_COORD97":172531.38,"N_COORD97":2549546.2799999998,"ADDRESS":"永安路１８９號","OBJECTID":487863},"geometry":{"x":172531.37999999989,"y":2549546.2799999993}},{"attributes":{"ID":487889,"DIS_CODE":0,"TOWNNAME":"永康區","LI":"復華里","LIN":"41鄰","STREET":"復華六街","SECT":" ","MAREA":" ","LANE":" ","ALLEY":" ","HOUSE_NO":"１１２號","E_COORD97":172600.76000000001,"N_COORD97":2545857.96,"ADDRESS":"復華六街１１２號","OBJECTID":487864},"geometry":{"x":172600.76000000071,"y":2545857.9600000028}},{"attributes":{"ID":487890,"DIS_CODE":0,"TOWNNAME":"永康區","LI":"勝利里","LIN":"41鄰","STREET":"中華路","SECT":" ","MAREA":" ","LANE":" ","ALLEY":" ","HOUSE_NO":"２８３號","E_COORD97":171539.25,"N_COORD97":2545259.7400000002,"ADDRESS":"中華路２８３號","OBJECTID":487865},"geometry":{"x":171539.25000000186,"y":2545259.7400000002}},{"attributes":{"ID":487891,"DIS_CODE":0,"TOWNNAME":"永康區","LI":"崑山里","LIN":"41鄰","STREET":"崑山街","SECT":" ","MAREA":" ","LANE":" ","ALLEY":" ","HOUSE_NO":"２１５號","E_COORD97":174075.73999999999,"N_COORD97":2545035.73,"ADDRESS":"崑山街２１５號","OBJECTID":487866},"geometry":{"x":174075.74000000115,"y":2545035.7300000004}},{"attributes":{"ID":487892,"DIS_CODE":0,"TOWNNAME":"永康區","LI":"勝利里","LIN":"41鄰","STREET":"中華路","SECT":" ","MAREA":" ","LANE":" ","ALLEY":" ","HOUSE_NO":"２１１號","E_COORD97":171599.72,"N_COORD97":2545037.2000000002,"ADDRESS":"中華路２１１號","OBJECTID":487867},"geometry":{"x":171599.71999999974,"y":2545037.2000000011}},{"attributes":{"ID":487893,"DIS_CODE":0,"TOWNNAME":"永康區","LI":"崑山里","LIN":"41鄰","STREET":"崑山街","SECT":" ","MAREA":" ","LANE":" ","ALLEY":" ","HOUSE_NO":"２２３號","E_COORD97":174088.85000000001,"N_COORD97":2545063.71,"ADDRESS":"崑山街２２３號","OBJECTID":487868},"geometry":{"x":174088.84999999963,"y":2545063.7100000009}},{"attributes":{"ID":487894,"DIS_CODE":0,"TOWNNAME":"永康區","LI":"勝利里","LIN":"41鄰","STREET":"中華路","SECT":" ","MAREA":" ","LANE":" ","ALLEY":" ","HOUSE_NO":"２７９號","E_COORD97":171550.39999999999,"N_COORD97":2545226.7400000002,"ADDRESS":"中華路２７９號","OBJECTID":487869},"geometry":{"x":171550.39999999944,"y":2545226.7400000021}},{"attributes":{"ID":487895,"DIS_CODE":0,"TOWNNAME":"永康區","LI":"崑山里","LIN":"41鄰","STREET":"國光五街","SECT":" ","MAREA":" ","LANE":" ","ALLEY":" ","HOUSE_NO":"５９號","E_COORD97":174015.56,"N_COORD97":2545111.8799999999,"ADDRESS":"國光五街５９號","OBJECTID":487870},"geometry":{"x":174015.56000000052,"y":2545111.879999999}},{"attributes":{"ID":487896,"DIS_CODE":0,"TOWNNAME":"永康區","LI":"勝利里","LIN":"41鄰","STREET":"中華路","SECT":" ","MAREA":" ","LANE":" ","ALLEY":" ","HOUSE_NO":"２３７號","E_COORD97":171596.89999999999,"N_COORD97":2545101.5,"ADDRESS":"中華路２３７號","OBJECTID":487871},"geometry":{"x":171596.9000000013,"y":2545101.5}},{"attributes":{"ID":487897,"DIS_CODE":0,"TOWNNAME":"永康區","LI":"勝利里","LIN":"41鄰","STREET":"中華路","SECT":" ","MAREA":" ","LANE":" ","ALLEY":" ","HOUSE_NO":"２３５號","E_COORD97":171596.12,"N_COORD97":2545096.75,"ADDRESS":"中華路２３５號","OBJECTID":487872},"geometry":{"x":171596.11999999918,"y":2545096.75}},{"attributes":{"ID":487898,"DIS_CODE":0,"TOWNNAME":"永康區","LI":"勝利里","LIN":"41鄰","STREET":"中華路","SECT":" ","MAREA":" ","LANE":" ","ALLEY":" ","HOUSE_NO":"２２９號","E_COORD97":171599,"N_COORD97":2545082.25,"ADDRESS":"中華路２２９號","OBJECTID":487873},"geometry":{"x":171599.00000000093,"y":2545082.25}},{"attributes":{"ID":487899,"DIS_CODE":0,"TOWNNAME":"永康區","LI":"崑山里","LIN":"41鄰","STREET":"國光五街","SECT":" ","MAREA":" ","LANE":" ","ALLEY":" ","HOUSE_NO":"６１之１號","E_COORD97":174013.29999999999,"N_COORD97":2545117.5499999998,"ADDRESS":"國光五街６１之１號","OBJECTID":487874},"geometry":{"x":174013.29999999981,"y":2545117.5500000026}},{"attributes":{"ID":487900,"DIS_CODE":0,"TOWNNAME":"永康區","LI":"崑山里","LIN":"41鄰","STREET":"國光五街","SECT":" ","MAREA":" ","LANE":" ","ALLEY":" ","HOUSE_NO":"６１之２號","E_COORD97":174015.95999999999,"N_COORD97":2545116.9500000002,"ADDRESS":"國光五街６１之２號","OBJECTID":487875},"geometry":{"x":174015.95999999996,"y":2545116.9500000011}},{"attributes":{"ID":487901,"DIS_CODE":0,"TOWNNAME":"歸仁區","LI":"南保里","LIN":"41鄰","STREET":"保興街","SECT":" ","MAREA":" ","LANE":" ","ALLEY":" ","HOUSE_NO":"２８號","E_COORD97":176501.78,"N_COORD97":2541030.25,"ADDRESS":"保興街２８號","OBJECTID":487876},"geometry":{"x":176501.78000000119,"y":2541030.2500000019}},{"attributes":{"ID":487902,"DIS_CODE":0,"TOWNNAME":"歸仁區","LI":"辜厝里","LIN":"41鄰","STREET":"大吉街","SECT":" ","MAREA":" ","LANE":" ","ALLEY":" ","HOUSE_NO":"１１４號","E_COORD97":177198.84,"N_COORD97":2540569.6800000002,"ADDRESS":"大吉街１１４號","OBJECTID":487877},"geometry":{"x":177198.84000000171,"y":2540569.6799999997}},{"attributes":{"ID":487903,"DIS_CODE":0,"TOWNNAME":"歸仁區","LI":"辜厝里","LIN":"41鄰","STREET":"大吉街","SECT":" ","MAREA":" ","LANE":" ","ALLEY":" ","HOUSE_NO":"１２４號","E_COORD97":177196.64000000001,"N_COORD97":2540527.6800000002,"ADDRESS":"大吉街１２４號","OBJECTID":487878},"geometry":{"x":177196.6400000006,"y":2540527.6800000016}},{"attributes":{"ID":487904,"DIS_CODE":0,"TOWNNAME":"歸仁區","LI":"後市里","LIN":"41鄰","STREET":"國光街","SECT":" ","MAREA":" ","LANE":" ","ALLEY":" ","HOUSE_NO":"７４號","E_COORD97":177175.59,"N_COORD97":2540941.7400000002,"ADDRESS":"國光街７４號","OBJECTID":487879},"geometry":{"x":177175.59000000078,"y":2540941.7400000021}},{"attributes":{"ID":487905,"DIS_CODE":0,"TOWNNAME":"歸仁區","LI":"後市里","LIN":"41鄰","STREET":"國光街","SECT":" ","MAREA":" ","LANE":" ","ALLEY":" ","HOUSE_NO":"６２號","E_COORD97":177135.59,"N_COORD97":2540936.7400000002,"ADDRESS":"國光街６２號","OBJECTID":487880},"geometry":{"x":177135.58999999985,"y":2540936.7400000002}},{"attributes":{"ID":487906,"DIS_CODE":0,"TOWNNAME":"歸仁區","LI":"辜厝里","LIN":"41鄰","STREET":"大吉街","SECT":" ","MAREA":" ","LANE":" ","ALLEY":" ","HOUSE_NO":"１２６號","E_COORD97":177195.54000000001,"N_COORD97":2540518.6800000002,"ADDRESS":"大吉街１２６號","OBJECTID":487881},"geometry":{"x":177195.54000000004,"y":2540518.6800000016}},{"attributes":{"ID":487907,"DIS_CODE":0,"TOWNNAME":"歸仁區","LI":"南興里","LIN":"41鄰","STREET":"中山十一街","SECT":" ","MAREA":" ","LANE":" ","ALLEY":" ","HOUSE_NO":"１６號","E_COORD97":175800.10999999999,"N_COORD97":2540955.25,"ADDRESS":"中山十一街１６號","OBJECTID":487882},"geometry":{"x":175800.11000000034,"y":2540955.2500000019}},{"attributes":{"ID":487908,"DIS_CODE":0,"TOWNNAME":"歸仁區","LI":"南興里","LIN":"41鄰","STREET":"中山十一街","SECT":" ","MAREA":" ","LANE":" ","ALLEY":" ","HOUSE_NO":"３３號","E_COORD97":175791.60999999999,"N_COORD97":2540882.25,"ADDRESS":"中山十一街３３號","OBJECTID":487883},"geometry":{"x":175791.61000000034,"y":2540882.25}},{"attributes":{"ID":487909,"DIS_CODE":0,"TOWNNAME":"歸仁區","LI":"南興里","LIN":"41鄰","STREET":"中山十一街","SECT":" ","MAREA":" ","LANE":" ","ALLEY":" ","HOUSE_NO":"２４號","E_COORD97":175798.01000000001,"N_COORD97":2540938.25,"ADDRESS":"中山十一街２４號","OBJECTID":487884},"geometry":{"x":175798.01000000071,"y":2540938.2500000019}},{"attributes":{"ID":487910,"DIS_CODE":0,"TOWNNAME":"玉井區","LI":"玉田里","LIN":"41鄰","STREET":"民族路","SECT":" ","MAREA":" ","LANE":" ","ALLEY":" ","HOUSE_NO":"２０５號","E_COORD97":195506.38,"N_COORD97":2558094.2799999998,"ADDRESS":"民族路２０５號","OBJECTID":487885},"geometry":{"x":195506.37999999989,"y":2558094.2799999993}},{"attributes":{"ID":487911,"DIS_CODE":0,"TOWNNAME":"玉井區","LI":"玉田里","LIN":"41鄰","STREET":"民族路","SECT":" ","MAREA":" ","LANE":" ","ALLEY":" ","HOUSE_NO":"１９５號","E_COORD97":195482.57999999999,"N_COORD97":2558094.2799999998,"ADDRESS":"民族路１９５號","OBJECTID":487886},"geometry":{"x":195482.58000000007,"y":2558094.2799999993}},{"attributes":{"ID":487912,"DIS_CODE":0,"TOWNNAME":"玉井區","LI":"玉田里","LIN":"41鄰","STREET":"民族路","SECT":" ","MAREA":" ","LANE":" ","ALLEY":" ","HOUSE_NO":"１９７號之１","E_COORD97":195494.51000000001,"N_COORD97":2558093.29,"ADDRESS":"民族路１９７號之１","OBJECTID":487887},"geometry":{"x":195494.51000000071,"y":2558093.2899999991}},{"attributes":{"ID":487913,"DIS_CODE":0,"TOWNNAME":"玉井區","LI":"玉田里","LIN":"41鄰","STREET":"仁愛街","SECT":" ","MAREA":" ","LANE":" ","ALLEY":" ","HOUSE_NO":"３０２號","E_COORD97":195385.89000000001,"N_COORD97":2558170.27,"ADDRESS":"仁愛街３０２號","OBJECTID":487888},"geometry":{"x":195385.89000000153,"y":2558170.2700000014}},{"attributes":{"ID":487914,"DIS_CODE":0,"TOWNNAME":"玉井區","LI":"玉田里","LIN":"41鄰","STREET":"仁愛街","SECT":" ","MAREA":" ","LANE":" ","ALLEY":" ","HOUSE_NO":"２８８號","E_COORD97":195386.19,"N_COORD97":2558144.2799999998,"ADDRESS":"仁愛街２８８號","OBJECTID":487889},"geometry":{"x":195386.19000000041,"y":2558144.2799999993}},{"attributes":{"ID":487915,"DIS_CODE":0,"TOWNNAME":"玉井區","LI":"玉田里","LIN":"41鄰","STREET":"仁愛街","SECT":" ","MAREA":" ","LANE":" ","ALLEY":" ","HOUSE_NO":"３００號","E_COORD97":195385.98000000001,"N_COORD97":2558166.27,"ADDRESS":"仁愛街３００號","OBJECTID":487890},"geometry":{"x":195385.97999999952,"y":2558166.2699999996}},{"attributes":{"ID":487916,"DIS_CODE":0,"TOWNNAME":"玉井區","LI":"玉田里","LIN":"41鄰","STREET":"仁愛街","SECT":" ","MAREA":" ","LANE":" ","ALLEY":" ","HOUSE_NO":"２７２號","E_COORD97":195386.10000000001,"N_COORD97":2558116.2799999998,"ADDRESS":"仁愛街２７２號","OBJECTID":487891},"geometry":{"x":195386.10000000149,"y":2558116.2800000012}},{"attributes":{"ID":487917,"DIS_CODE":0,"TOWNNAME":"玉井區","LI":"玉田里","LIN":"41鄰","STREET":"仁愛街","SECT":" ","MAREA":" ","LANE":" ","ALLEY":" ","HOUSE_NO":"２８２號","E_COORD97":195385.78,"N_COORD97":2558136.2799999998,"ADDRESS":"仁愛街２８２號","OBJECTID":487892},"geometry":{"x":195385.78000000119,"y":2558136.2800000012}},{"attributes":{"ID":487918,"DIS_CODE":0,"TOWNNAME":"玉井區","LI":"玉田里","LIN":"41鄰","STREET":"仁愛街","SECT":" ","MAREA":" ","LANE":" ","ALLEY":" ","HOUSE_NO":"２８６號","E_COORD97":195385.98000000001,"N_COORD97":2558140.2799999998,"ADDRESS":"仁愛街２８６號","OBJECTID":487893},"geometry":{"x":195385.97999999952,"y":2558140.2800000012}},{"attributes":{"ID":487919,"DIS_CODE":0,"TOWNNAME":"玉井區","LI":"玉田里","LIN":"41鄰","STREET":"仁愛街","SECT":" ","MAREA":" ","LANE":" ","ALLEY":" ","HOUSE_NO":"２９８號","E_COORD97":195385.98000000001,"N_COORD97":2558162.27,"ADDRESS":"仁愛街２９８號","OBJECTID":487894},"geometry":{"x":195385.97999999952,"y":2558162.2699999996}},{"attributes":{"ID":487920,"DIS_CODE":0,"TOWNNAME":"玉井區","LI":"玉田里","LIN":"41鄰","STREET":"民族路","SECT":" ","MAREA":" ","LANE":" ","ALLEY":" ","HOUSE_NO":"１８１號","E_COORD97":195452.39000000001,"N_COORD97":2558096.2799999998,"ADDRESS":"民族路１８１號","OBJECTID":487895},"geometry":{"x":195452.3900000006,"y":2558096.2800000012}},{"attributes":{"ID":487921,"DIS_CODE":0,"TOWNNAME":"玉井區","LI":"玉田里","LIN":"41鄰","STREET":"民族路","SECT":" ","MAREA":" ","LANE":" ","ALLEY":" ","HOUSE_NO":"１８３號","E_COORD97":195457.29000000001,"N_COORD97":2558096.2799999998,"ADDRESS":"民族路１８３號","OBJECTID":487896},"geometry":{"x":195457.29000000097,"y":2558096.2800000012}},{"attributes":{"ID":487922,"DIS_CODE":0,"TOWNNAME":"玉井區","LI":"玉田里","LIN":"41鄰","STREET":"民族路","SECT":" ","MAREA":" ","LANE":" ","ALLEY":" ","HOUSE_NO":"２０３號","E_COORD97":195501.67999999999,"N_COORD97":2558094.2799999998,"ADDRESS":"民族路２０３號","OBJECTID":487897},"geometry":{"x":195501.68000000063,"y":2558094.2799999993}},{"attributes":{"ID":487923,"DIS_CODE":0,"TOWNNAME":"玉井區","LI":"玉田里","LIN":"41鄰","STREET":"民族路","SECT":" ","MAREA":" ","LANE":" ","ALLEY":" ","HOUSE_NO":"１９３號","E_COORD97":195474.57999999999,"N_COORD97":2558095.2799999998,"ADDRESS":"民族路１９３號","OBJECTID":487898},"geometry":{"x":195474.58000000007,"y":2558095.2800000031}},{"attributes":{"ID":487924,"DIS_CODE":0,"TOWNNAME":"玉井區","LI":"玉田里","LIN":"41鄰","STREET":"民族路","SECT":" ","MAREA":" ","LANE":" ","ALLEY":" ","HOUSE_NO":"１９７號","E_COORD97":195486.88,"N_COORD97":2558094.2799999998,"ADDRESS":"民族路１９７號","OBJECTID":487899},"geometry":{"x":195486.88000000082,"y":2558094.2799999993}},{"attributes":{"ID":487925,"DIS_CODE":0,"TOWNNAME":"北區","LI":"成德里","LIN":"41鄰","STREET":"文成二路","SECT":" ","MAREA":" ","LANE":" ","ALLEY":" ","HOUSE_NO":"２２５號","E_COORD97":168242.03,"N_COORD97":2546160.9500000002,"ADDRESS":"文成二路２２５號","OBJECTID":487900},"geometry":{"x":168242.03000000026,"y":2546160.9500000011}},{"attributes":{"ID":487926,"DIS_CODE":0,"TOWNNAME":"北區","LI":"成德里","LIN":"41鄰","STREET":"文成二路","SECT":" ","MAREA":" ","LANE":" ","ALLEY":" ","HOUSE_NO":"２２９號","E_COORD97":168230.73000000001,"N_COORD97":2546160.3199999998,"ADDRESS":"文成二路２２９號","OBJECTID":487901},"geometry":{"x":168230.72999999952,"y":2546160.3200000003}},{"attributes":{"ID":487927,"DIS_CODE":0,"TOWNNAME":"佳里區","LI":"安西里","LIN":"41鄰","STREET":"佳西路","SECT":" ","MAREA":" ","LANE":" ","ALLEY":" ","HOUSE_NO":"１９９號","E_COORD97":164755.47,"N_COORD97":2562508.8399999999,"ADDRESS":"佳西路１９９號","OBJECTID":487902},"geometry":{"x":164755.47000000067,"y":2562508.8399999999}},{"attributes":{"ID":487928,"DIS_CODE":0,"TOWNNAME":"東區","LI":"泉南里","LIN":"41鄰","STREET":"慶東街","SECT":" ","MAREA":" ","LANE":" ","ALLEY":" ","HOUSE_NO":"３１號七樓之１","E_COORD97":169575.19,"N_COORD97":2542953.5800000001,"ADDRESS":"慶東街３１號七樓之１","OBJECTID":487903},"geometry":{"x":169575.19000000041,"y":2542953.5800000019}},{"attributes":{"ID":487929,"DIS_CODE":0,"TOWNNAME":"東區","LI":"泉南里","LIN":"41鄰","STREET":"慶東街","SECT":" ","MAREA":" ","LANE":" ","ALLEY":" ","HOUSE_NO":"３３號三樓之１","E_COORD97":169546.04999999999,"N_COORD97":2542972.3100000001,"ADDRESS":"慶東街３３號三樓之１","OBJECTID":487904},"geometry":{"x":169546.04999999981,"y":2542972.3100000024}},{"attributes":{"ID":487930,"DIS_CODE":0,"TOWNNAME":"東區","LI":"泉南里","LIN":"41鄰","STREET":"慶東街","SECT":" ","MAREA":" ","LANE":" ","ALLEY":" ","HOUSE_NO":"３１號六樓之２","E_COORD97":169575.19,"N_COORD97":2542953.5800000001,"ADDRESS":"慶東街３１號六樓之２","OBJECTID":487905},"geometry":{"x":169575.19000000041,"y":2542953.5800000019}},{"attributes":{"ID":487931,"DIS_CODE":0,"TOWNNAME":"東區","LI":"泉南里","LIN":"41鄰","STREET":"慶東街","SECT":" ","MAREA":" ","LANE":" ","ALLEY":" ","HOUSE_NO":"３１號二樓","E_COORD97":169575.19,"N_COORD97":2542953.5800000001,"ADDRESS":"慶東街３１號二樓","OBJECTID":487906},"geometry":{"x":169575.19000000041,"y":2542953.5800000019}},{"attributes":{"ID":487932,"DIS_CODE":0,"TOWNNAME":"東區","LI":"泉南里","LIN":"41鄰","STREET":"慶東街","SECT":" ","MAREA":" ","LANE":" ","ALLEY":" ","HOUSE_NO":"３１號二樓之１","E_COORD97":169575.19,"N_COORD97":2542953.5800000001,"ADDRESS":"慶東街３１號二樓之１","OBJECTID":487907},"geometry":{"x":169575.19000000041,"y":2542953.5800000019}},{"attributes":{"ID":487933,"DIS_CODE":0,"TOWNNAME":"東區","LI":"泉南里","LIN":"41鄰","STREET":"慶東街","SECT":" ","MAREA":" ","LANE":" ","ALLEY":" ","HOUSE_NO":"３１號三樓","E_COORD97":169575.19,"N_COORD97":2542953.5800000001,"ADDRESS":"慶東街３１號三樓","OBJECTID":487908},"geometry":{"x":169575.19000000041,"y":2542953.5800000019}},{"attributes":{"ID":487934,"DIS_CODE":0,"TOWNNAME":"東區","LI":"泉南里","LIN":"41鄰","STREET":"慶東街","SECT":" ","MAREA":" ","LANE":" ","ALLEY":" ","HOUSE_NO":"３１號三樓之１","E_COORD97":169575.19,"N_COORD97":2542953.5800000001,"ADDRESS":"慶東街３１號三樓之１","OBJECTID":487909},"geometry":{"x":169575.19000000041,"y":2542953.5800000019}},{"attributes":{"ID":487935,"DIS_CODE":0,"TOWNNAME":"東區","LI":"泉南里","LIN":"41鄰","STREET":"慶東街","SECT":" ","MAREA":" ","LANE":" ","ALLEY":" ","HOUSE_NO":"３１號三樓之２","E_COORD97":169575.19,"N_COORD97":2542953.5800000001,"ADDRESS":"慶東街３１號三樓之２","OBJECTID":487910},"geometry":{"x":169575.19000000041,"y":2542953.5800000019}},{"attributes":{"ID":487936,"DIS_CODE":0,"TOWNNAME":"東區","LI":"泉南里","LIN":"41鄰","STREET":"慶東街","SECT":" ","MAREA":" ","LANE":" ","ALLEY":" ","HOUSE_NO":"３１號四樓","E_COORD97":169575.19,"N_COORD97":2542953.5800000001,"ADDRESS":"慶東街３１號四樓","OBJECTID":487911},"geometry":{"x":169575.19000000041,"y":2542953.5800000019}},{"attributes":{"ID":487937,"DIS_CODE":0,"TOWNNAME":"東區","LI":"泉南里","LIN":"41鄰","STREET":"慶東街","SECT":" ","MAREA":" ","LANE":" ","ALLEY":" ","HOUSE_NO":"３１號四樓之１","E_COORD97":169575.19,"N_COORD97":2542953.5800000001,"ADDRESS":"慶東街３１號四樓之１","OBJECTID":487912},"geometry":{"x":169575.19000000041,"y":2542953.5800000019}},{"attributes":{"ID":487938,"DIS_CODE":0,"TOWNNAME":"東區","LI":"泉南里","LIN":"41鄰","STREET":"慶東街","SECT":" ","MAREA":" ","LANE":" ","ALLEY":" ","HOUSE_NO":"３１號四樓之２","E_COORD97":169575.19,"N_COORD97":2542953.5800000001,"ADDRESS":"慶東街３１號四樓之２","OBJECTID":487913},"geometry":{"x":169575.19000000041,"y":2542953.5800000019}},{"attributes":{"ID":487939,"DIS_CODE":0,"TOWNNAME":"東區","LI":"泉南里","LIN":"41鄰","STREET":"慶東街","SECT":" ","MAREA":" ","LANE":" ","ALLEY":" ","HOUSE_NO":"３１號五樓","E_COORD97":169575.19,"N_COORD97":2542953.5800000001,"ADDRESS":"慶東街３１號五樓","OBJECTID":487914},"geometry":{"x":169575.19000000041,"y":2542953.5800000019}},{"attributes":{"ID":487940,"DIS_CODE":0,"TOWNNAME":"東區","LI":"泉南里","LIN":"41鄰","STREET":"慶東街","SECT":" ","MAREA":" ","LANE":" ","ALLEY":" ","HOUSE_NO":"３１號五樓之１","E_COORD97":169575.19,"N_COORD97":2542953.5800000001,"ADDRESS":"慶東街３１號五樓之１","OBJECTID":487915},"geometry":{"x":169575.19000000041,"y":2542953.5800000019}},{"attributes":{"ID":487941,"DIS_CODE":0,"TOWNNAME":"東區","LI":"泉南里","LIN":"41鄰","STREET":"慶東街","SECT":" ","MAREA":" ","LANE":" ","ALLEY":" ","HOUSE_NO":"３１號五樓之２","E_COORD97":169575.19,"N_COORD97":2542953.5800000001,"ADDRESS":"慶東街３１號五樓之２","OBJECTID":487916},"geometry":{"x":169575.19000000041,"y":2542953.5800000019}},{"attributes":{"ID":487942,"DIS_CODE":0,"TOWNNAME":"東區","LI":"泉南里","LIN":"41鄰","STREET":"慶東街","SECT":" ","MAREA":" ","LANE":" ","ALLEY":" ","HOUSE_NO":"３１號六樓之１","E_COORD97":169575.19,"N_COORD97":2542953.5800000001,"ADDRESS":"慶東街３１號六樓之１","OBJECTID":487917},"geometry":{"x":169575.19000000041,"y":2542953.5800000019}},{"attributes":{"ID":487943,"DIS_CODE":0,"TOWNNAME":"東區","LI":"泉南里","LIN":"41鄰","STREET":"慶東街","SECT":" ","MAREA":" ","LANE":" ","ALLEY":" ","HOUSE_NO":"３１號七樓","E_COORD97":169575.19,"N_COORD97":2542953.5800000001,"ADDRESS":"慶東街３１號七樓","OBJECTID":487918},"geometry":{"x":169575.19000000041,"y":2542953.5800000019}},{"attributes":{"ID":487944,"DIS_CODE":0,"TOWNNAME":"東區","LI":"泉南里","LIN":"41鄰","STREET":"慶東街","SECT":" ","MAREA":" ","LANE":" ","ALLEY":" ","HOUSE_NO":"３１號七樓之２","E_COORD97":169575.19,"N_COORD97":2542953.5800000001,"ADDRESS":"慶東街３１號七樓之２","OBJECTID":487919},"geometry":{"x":169575.19000000041,"y":2542953.5800000019}},{"attributes":{"ID":487945,"DIS_CODE":0,"TOWNNAME":"東區","LI":"泉南里","LIN":"41鄰","STREET":"慶東街","SECT":" ","MAREA":" ","LANE":" ","ALLEY":" ","HOUSE_NO":"３１號八樓","E_COORD97":169575.19,"N_COORD97":2542953.5800000001,"ADDRESS":"慶東街３１號八樓","OBJECTID":487920},"geometry":{"x":169575.19000000041,"y":2542953.5800000019}},{"attributes":{"ID":487946,"DIS_CODE":0,"TOWNNAME":"東區","LI":"泉南里","LIN":"41鄰","STREET":"慶東街","SECT":" ","MAREA":" ","LANE":" ","ALLEY":" ","HOUSE_NO":"３１號八樓之１","E_COORD97":169575.19,"N_COORD97":2542953.5800000001,"ADDRESS":"慶東街３１號八樓之１","OBJECTID":487921},"geometry":{"x":169575.19000000041,"y":2542953.5800000019}},{"attributes":{"ID":487947,"DIS_CODE":0,"TOWNNAME":"東區","LI":"泉南里","LIN":"41鄰","STREET":"慶東街","SECT":" ","MAREA":" ","LANE":" ","ALLEY":" ","HOUSE_NO":"３１號八樓之２","E_COORD97":169575.19,"N_COORD97":2542953.5800000001,"ADDRESS":"慶東街３１號八樓之２","OBJECTID":487922},"geometry":{"x":169575.19000000041,"y":2542953.5800000019}},{"attributes":{"ID":487948,"DIS_CODE":0,"TOWNNAME":"東區","LI":"泉南里","LIN":"41鄰","STREET":"慶東街","SECT":" ","MAREA":" ","LANE":" ","ALLEY":" ","HOUSE_NO":"３１號九樓之１","E_COORD97":169575.19,"N_COORD97":2542953.5800000001,"ADDRESS":"慶東街３１號九樓之１","OBJECTID":487923},"geometry":{"x":169575.19000000041,"y":2542953.5800000019}},{"attributes":{"ID":487949,"DIS_CODE":0,"TOWNNAME":"東區","LI":"泉南里","LIN":"41鄰","STREET":"慶東街","SECT":" ","MAREA":" ","LANE":" ","ALLEY":" ","HOUSE_NO":"３１號九樓之２","E_COORD97":169575.19,"N_COORD97":2542953.5800000001,"ADDRESS":"慶東街３１號九樓之２","OBJECTID":487924},"geometry":{"x":169575.19000000041,"y":2542953.5800000019}},{"attributes":{"ID":487950,"DIS_CODE":0,"TOWNNAME":"東區","LI":"泉南里","LIN":"41鄰","STREET":"慶東街","SECT":" ","MAREA":" ","LANE":" ","ALLEY":" ","HOUSE_NO":"３１號十樓","E_COORD97":169575.19,"N_COORD97":2542953.5800000001,"ADDRESS":"慶東街３１號十樓","OBJECTID":487925},"geometry":{"x":169575.19000000041,"y":2542953.5800000019}},{"attributes":{"ID":487951,"DIS_CODE":0,"TOWNNAME":"東區","LI":"泉南里","LIN":"41鄰","STREET":"慶東街","SECT":" ","MAREA":" ","LANE":" ","ALLEY":" ","HOUSE_NO":"３１號十樓之１","E_COORD97":169575.19,"N_COORD97":2542953.5800000001,"ADDRESS":"慶東街３１號十樓之１","OBJECTID":487926},"geometry":{"x":169575.19000000041,"y":2542953.5800000019}},{"attributes":{"ID":487952,"DIS_CODE":0,"TOWNNAME":"東區","LI":"泉南里","LIN":"41鄰","STREET":"慶東街","SECT":" ","MAREA":" ","LANE":" ","ALLEY":" ","HOUSE_NO":"３１號十樓之２","E_COORD97":169575.19,"N_COORD97":2542953.5800000001,"ADDRESS":"慶東街３１號十樓之２","OBJECTID":487927},"geometry":{"x":169575.19000000041,"y":2542953.5800000019}},{"attributes":{"ID":487953,"DIS_CODE":0,"TOWNNAME":"東區","LI":"泉南里","LIN":"41鄰","STREET":"慶東街","SECT":" ","MAREA":" ","LANE":" ","ALLEY":" ","HOUSE_NO":"３１號十一樓","E_COORD97":169575.19,"N_COORD97":2542953.5800000001,"ADDRESS":"慶東街３１號十一樓","OBJECTID":487928},"geometry":{"x":169575.19000000041,"y":2542953.5800000019}},{"attributes":{"ID":487954,"DIS_CODE":0,"TOWNNAME":"東區","LI":"泉南里","LIN":"41鄰","STREET":"慶東街","SECT":" ","MAREA":" ","LANE":" ","ALLEY":" ","HOUSE_NO":"３１號十一樓之１","E_COORD97":169575.19,"N_COORD97":2542953.5800000001,"ADDRESS":"慶東街３１號十一樓之１","OBJECTID":487929},"geometry":{"x":169575.19000000041,"y":2542953.5800000019}},{"attributes":{"ID":487955,"DIS_CODE":0,"TOWNNAME":"東區","LI":"泉南里","LIN":"41鄰","STREET":"慶東街","SECT":" ","MAREA":" ","LANE":" ","ALLEY":" ","HOUSE_NO":"３１號十一樓之２","E_COORD97":169575.19,"N_COORD97":2542953.5800000001,"ADDRESS":"慶東街３１號十一樓之２","OBJECTID":487930},"geometry":{"x":169575.19000000041,"y":2542953.5800000019}},{"attributes":{"ID":487956,"DIS_CODE":0,"TOWNNAME":"東區","LI":"泉南里","LIN":"41鄰","STREET":"慶東街","SECT":" ","MAREA":" ","LANE":" ","ALLEY":" ","HOUSE_NO":"３１號六樓","E_COORD97":169575.19,"N_COORD97":2542953.5800000001,"ADDRESS":"慶東街３１號六樓","OBJECTID":487931},"geometry":{"x":169575.19000000041,"y":2542953.5800000019}},{"attributes":{"ID":487957,"DIS_CODE":0,"TOWNNAME":"東區","LI":"泉南里","LIN":"41鄰","STREET":"慶東街","SECT":" ","MAREA":" ","LANE":" ","ALLEY":" ","HOUSE_NO":"３３號四樓","E_COORD97":169546.04999999999,"N_COORD97":2542972.3100000001,"ADDRESS":"慶東街３３號四樓","OBJECTID":487932},"geometry":{"x":169546.04999999981,"y":2542972.3100000024}},{"attributes":{"ID":487958,"DIS_CODE":0,"TOWNNAME":"東區","LI":"泉南里","LIN":"41鄰","STREET":"慶東街","SECT":" ","MAREA":" ","LANE":" ","ALLEY":" ","HOUSE_NO":"３３號四樓之１","E_COORD97":169546.04999999999,"N_COORD97":2542972.3100000001,"ADDRESS":"慶東街３３號四樓之１","OBJECTID":487933},"geometry":{"x":169546.04999999981,"y":2542972.3100000024}},{"attributes":{"ID":487959,"DIS_CODE":0,"TOWNNAME":"東區","LI":"泉南里","LIN":"41鄰","STREET":"慶東街","SECT":" ","MAREA":" ","LANE":" ","ALLEY":" ","HOUSE_NO":"３３號五樓","E_COORD97":169546.04999999999,"N_COORD97":2542972.3100000001,"ADDRESS":"慶東街３３號五樓","OBJECTID":487934},"geometry":{"x":169546.04999999981,"y":2542972.3100000024}},{"attributes":{"ID":487960,"DIS_CODE":0,"TOWNNAME":"東區","LI":"泉南里","LIN":"41鄰","STREET":"慶東街","SECT":" ","MAREA":" ","LANE":" ","ALLEY":" ","HOUSE_NO":"３３號五樓之１","E_COORD97":169546.04999999999,"N_COORD97":2542972.3100000001,"ADDRESS":"慶東街３３號五樓之１","OBJECTID":487935},"geometry":{"x":169546.04999999981,"y":2542972.3100000024}},{"attributes":{"ID":487961,"DIS_CODE":0,"TOWNNAME":"東區","LI":"泉南里","LIN":"41鄰","STREET":"慶東街","SECT":" ","MAREA":" ","LANE":" ","ALLEY":" ","HOUSE_NO":"３３號六樓","E_COORD97":169546.04999999999,"N_COORD97":2542972.3100000001,"ADDRESS":"慶東街３３號六樓","OBJECTID":487936},"geometry":{"x":169546.04999999981,"y":2542972.3100000024}},{"attributes":{"ID":487962,"DIS_CODE":0,"TOWNNAME":"東區","LI":"泉南里","LIN":"41鄰","STREET":"慶東街","SECT":" ","MAREA":" ","LANE":" ","ALLEY":" ","HOUSE_NO":"３３號六樓之１","E_COORD97":169546.04999999999,"N_COORD97":2542972.3100000001,"ADDRESS":"慶東街３３號六樓之１","OBJECTID":487937},"geometry":{"x":169546.04999999981,"y":2542972.3100000024}},{"attributes":{"ID":487963,"DIS_CODE":0,"TOWNNAME":"東區","LI":"泉南里","LIN":"41鄰","STREET":"慶東街","SECT":" ","MAREA":" ","LANE":" ","ALLEY":" ","HOUSE_NO":"３３號七樓","E_COORD97":169546.04999999999,"N_COORD97":2542972.3100000001,"ADDRESS":"慶東街３３號七樓","OBJECTID":487938},"geometry":{"x":169546.04999999981,"y":2542972.3100000024}},{"attributes":{"ID":487964,"DIS_CODE":0,"TOWNNAME":"東區","LI":"泉南里","LIN":"41鄰","STREET":"慶東街","SECT":" ","MAREA":" ","LANE":" ","ALLEY":" ","HOUSE_NO":"３３號七樓之１","E_COORD97":169546.04999999999,"N_COORD97":2542972.3100000001,"ADDRESS":"慶東街３３號七樓之１","OBJECTID":487939},"geometry":{"x":169546.04999999981,"y":2542972.3100000024}},{"attributes":{"ID":487965,"DIS_CODE":0,"TOWNNAME":"東區","LI":"泉南里","LIN":"41鄰","STREET":"慶東街","SECT":" ","MAREA":" ","LANE":" ","ALLEY":" ","HOUSE_NO":"３３號八樓","E_COORD97":169546.04999999999,"N_COORD97":2542972.3100000001,"ADDRESS":"慶東街３３號八樓","OBJECTID":487940},"geometry":{"x":169546.04999999981,"y":2542972.3100000024}},{"attributes":{"ID":487966,"DIS_CODE":0,"TOWNNAME":"東區","LI":"泉南里","LIN":"41鄰","STREET":"慶東街","SECT":" ","MAREA":" ","LANE":" ","ALLEY":" ","HOUSE_NO":"３３號八樓之１","E_COORD97":169546.04999999999,"N_COORD97":2542972.3100000001,"ADDRESS":"慶東街３３號八樓之１","OBJECTID":487941},"geometry":{"x":169546.04999999981,"y":2542972.3100000024}},{"attributes":{"ID":487967,"DIS_CODE":0,"TOWNNAME":"東區","LI":"泉南里","LIN":"41鄰","STREET":"慶東街","SECT":" ","MAREA":" ","LANE":" ","ALLEY":" ","HOUSE_NO":"３３號九樓","E_COORD97":169546.04999999999,"N_COORD97":2542972.3100000001,"ADDRESS":"慶東街３３號九樓","OBJECTID":487942},"geometry":{"x":169546.04999999981,"y":2542972.3100000024}},{"attributes":{"ID":487968,"DIS_CODE":0,"TOWNNAME":"東區","LI":"泉南里","LIN":"41鄰","STREET":"慶東街","SECT":" ","MAREA":" ","LANE":" ","ALLEY":" ","HOUSE_NO":"３３號九樓之１","E_COORD97":169546.04999999999,"N_COORD97":2542972.3100000001,"ADDRESS":"慶東街３３號九樓之１","OBJECTID":487943},"geometry":{"x":169546.04999999981,"y":2542972.3100000024}},{"attributes":{"ID":487969,"DIS_CODE":0,"TOWNNAME":"東區","LI":"泉南里","LIN":"41鄰","STREET":"慶東街","SECT":" ","MAREA":" ","LANE":" ","ALLEY":" ","HOUSE_NO":"３３號十樓","E_COORD97":169546.04999999999,"N_COORD97":2542972.3100000001,"ADDRESS":"慶東街３３號十樓","OBJECTID":487944},"geometry":{"x":169546.04999999981,"y":2542972.3100000024}},{"attributes":{"ID":487970,"DIS_CODE":0,"TOWNNAME":"東區","LI":"泉南里","LIN":"41鄰","STREET":"慶東街","SECT":" ","MAREA":" ","LANE":" ","ALLEY":" ","HOUSE_NO":"３３號十樓之１","E_COORD97":169546.04999999999,"N_COORD97":2542972.3100000001,"ADDRESS":"慶東街３３號十樓之１","OBJECTID":487945},"geometry":{"x":169546.04999999981,"y":2542972.3100000024}},{"attributes":{"ID":487971,"DIS_CODE":0,"TOWNNAME":"東區","LI":"泉南里","LIN":"41鄰","STREET":"慶東街","SECT":" ","MAREA":" ","LANE":" ","ALLEY":" ","HOUSE_NO":"３３號十一樓","E_COORD97":169546.04999999999,"N_COORD97":2542972.3100000001,"ADDRESS":"慶東街３３號十一樓","OBJECTID":487946},"geometry":{"x":169546.04999999981,"y":2542972.3100000024}},{"attributes":{"ID":487972,"DIS_CODE":0,"TOWNNAME":"東區","LI":"泉南里","LIN":"41鄰","STREET":"慶東街","SECT":" ","MAREA":" ","LANE":" ","ALLEY":" ","HOUSE_NO":"３３號十一樓之１","E_COORD97":169546.04999999999,"N_COORD97":2542972.3100000001,"ADDRESS":"慶東街３３號十一樓之１","OBJECTID":487947},"geometry":{"x":169546.04999999981,"y":2542972.3100000024}},{"attributes":{"ID":487973,"DIS_CODE":0,"TOWNNAME":"東區","LI":"泉南里","LIN":"41鄰","STREET":"慶東街","SECT":" ","MAREA":" ","LANE":" ","ALLEY":" ","HOUSE_NO":"３５號三樓","E_COORD97":169549.56,"N_COORD97":2542987.8399999999,"ADDRESS":"慶東街３５號三樓","OBJECTID":487948},"geometry":{"x":169549.55999999959,"y":2542987.8400000036}},{"attributes":{"ID":487974,"DIS_CODE":0,"TOWNNAME":"東區","LI":"泉南里","LIN":"41鄰","STREET":"慶東街","SECT":" ","MAREA":" ","LANE":" ","ALLEY":" ","HOUSE_NO":"３５號三樓之１","E_COORD97":169549.56,"N_COORD97":2542987.8399999999,"ADDRESS":"慶東街３５號三樓之１","OBJECTID":487949},"geometry":{"x":169549.55999999959,"y":2542987.8400000036}},{"attributes":{"ID":487975,"DIS_CODE":0,"TOWNNAME":"東區","LI":"泉南里","LIN":"41鄰","STREET":"慶東街","SECT":" ","MAREA":" ","LANE":" ","ALLEY":" ","HOUSE_NO":"３５號四樓","E_COORD97":169549.56,"N_COORD97":2542987.8399999999,"ADDRESS":"慶東街３５號四樓","OBJECTID":487950},"geometry":{"x":169549.55999999959,"y":2542987.8400000036}},{"attributes":{"ID":487976,"DIS_CODE":0,"TOWNNAME":"東區","LI":"泉南里","LIN":"41鄰","STREET":"慶東街","SECT":" ","MAREA":" ","LANE":" ","ALLEY":" ","HOUSE_NO":"３５號四樓之１","E_COORD97":169549.56,"N_COORD97":2542987.8399999999,"ADDRESS":"慶東街３５號四樓之１","OBJECTID":487951},"geometry":{"x":169549.55999999959,"y":2542987.8400000036}},{"attributes":{"ID":487977,"DIS_CODE":0,"TOWNNAME":"東區","LI":"泉南里","LIN":"41鄰","STREET":"慶東街","SECT":" ","MAREA":" ","LANE":" ","ALLEY":" ","HOUSE_NO":"３５號五樓","E_COORD97":169549.56,"N_COORD97":2542987.8399999999,"ADDRESS":"慶東街３５號五樓","OBJECTID":487952},"geometry":{"x":169549.55999999959,"y":2542987.8400000036}},{"attributes":{"ID":487978,"DIS_CODE":0,"TOWNNAME":"東區","LI":"泉南里","LIN":"41鄰","STREET":"慶東街","SECT":" ","MAREA":" ","LANE":" ","ALLEY":" ","HOUSE_NO":"３５號五樓之１","E_COORD97":169549.56,"N_COORD97":2542987.8399999999,"ADDRESS":"慶東街３５號五樓之１","OBJECTID":487953},"geometry":{"x":169549.55999999959,"y":2542987.8400000036}},{"attributes":{"ID":487979,"DIS_CODE":0,"TOWNNAME":"東區","LI":"泉南里","LIN":"41鄰","STREET":"慶東街","SECT":" ","MAREA":" ","LANE":" ","ALLEY":" ","HOUSE_NO":"３５號六樓","E_COORD97":169549.56,"N_COORD97":2542987.8399999999,"ADDRESS":"慶東街３５號六樓","OBJECTID":487954},"geometry":{"x":169549.55999999959,"y":2542987.8400000036}},{"attributes":{"ID":487980,"DIS_CODE":0,"TOWNNAME":"東區","LI":"泉南里","LIN":"41鄰","STREET":"慶東街","SECT":" ","MAREA":" ","LANE":" ","ALLEY":" ","HOUSE_NO":"３５號六樓之１","E_COORD97":169549.56,"N_COORD97":2542987.8399999999,"ADDRESS":"慶東街３５號六樓之１","OBJECTID":487955},"geometry":{"x":169549.55999999959,"y":2542987.8400000036}},{"attributes":{"ID":487981,"DIS_CODE":0,"TOWNNAME":"東區","LI":"泉南里","LIN":"41鄰","STREET":"慶東街","SECT":" ","MAREA":" ","LANE":" ","ALLEY":" ","HOUSE_NO":"３５號七樓","E_COORD97":169549.56,"N_COORD97":2542987.8399999999,"ADDRESS":"慶東街３５號七樓","OBJECTID":487956},"geometry":{"x":169549.55999999959,"y":2542987.8400000036}},{"attributes":{"ID":487982,"DIS_CODE":0,"TOWNNAME":"永康區","LI":"正強里","LIN":"41鄰","STREET":"正強街","SECT":" ","MAREA":" ","LANE":" ","ALLEY":" ","HOUSE_NO":"２９２號九樓之１","E_COORD97":173302.98000000001,"N_COORD97":2547942.04,"ADDRESS":"正強街２９２號九樓之１","OBJECTID":487957},"geometry":{"x":173302.98000000231,"y":2547942.0399999972}},{"attributes":{"ID":487983,"DIS_CODE":0,"TOWNNAME":"永康區","LI":"正強里","LIN":"41鄰","STREET":"正強街","SECT":" ","MAREA":" ","LANE":" ","ALLEY":" ","HOUSE_NO":"２９２號十樓之２","E_COORD97":173303.10999999999,"N_COORD97":2547942.04,"ADDRESS":"正強街２９２號十樓之２","OBJECTID":487958},"geometry":{"x":173303.11000000034,"y":2547942.0399999972}},{"attributes":{"ID":487984,"DIS_CODE":0,"TOWNNAME":"永康區","LI":"正強里","LIN":"41鄰","STREET":"正強街","SECT":" ","MAREA":" ","LANE":" ","ALLEY":" ","HOUSE_NO":"２９８號六樓之１","E_COORD97":173292.17000000001,"N_COORD97":2547971.0499999998,"ADDRESS":"正強街２９８號六樓之１","OBJECTID":487959},"geometry":{"x":173292.16999999993,"y":2547971.0500000045}},{"attributes":{"ID":487985,"DIS_CODE":0,"TOWNNAME":"永康區","LI":"正強里","LIN":"41鄰","STREET":"正強街","SECT":" ","MAREA":" ","LANE":" ","ALLEY":" ","HOUSE_NO":"２９０號十一樓之１","E_COORD97":173304.16,"N_COORD97":2547926.29,"ADDRESS":"正強街２９０號十一樓之１","OBJECTID":487960},"geometry":{"x":173304.16000000015,"y":2547926.2899999991}},{"attributes":{"ID":487986,"DIS_CODE":0,"TOWNNAME":"永康區","LI":"正強里","LIN":"41鄰","STREET":"正強街","SECT":" ","MAREA":" ","LANE":" ","ALLEY":" ","HOUSE_NO":"２９０號十四樓之１","E_COORD97":173304.16,"N_COORD97":2547926.29,"ADDRESS":"正強街２９０號十四樓之１","OBJECTID":487961},"geometry":{"x":173304.16000000015,"y":2547926.2899999991}},{"attributes":{"ID":487987,"DIS_CODE":0,"TOWNNAME":"永康區","LI":"正強里","LIN":"41鄰","STREET":"正強街","SECT":" ","MAREA":" ","LANE":" ","ALLEY":" ","HOUSE_NO":"２９６號四樓之２","E_COORD97":173302.89000000001,"N_COORD97":2547949.29,"ADDRESS":"正強街２９６號四樓之２","OBJECTID":487962},"geometry":{"x":173302.8900000006,"y":2547949.2899999991}},{"attributes":{"ID":487988,"DIS_CODE":0,"TOWNNAME":"永康區","LI":"正強里","LIN":"41鄰","STREET":"正強街","SECT":" ","MAREA":" ","LANE":" ","ALLEY":" ","HOUSE_NO":"２９０號五樓之１","E_COORD97":173302.91,"N_COORD97":2547926.29,"ADDRESS":"正強街２９０號五樓之１","OBJECTID":487963},"geometry":{"x":173302.90999999922,"y":2547926.2899999991}},{"attributes":{"ID":487989,"DIS_CODE":0,"TOWNNAME":"永康區","LI":"正強里","LIN":"41鄰","STREET":"正強街","SECT":" ","MAREA":" ","LANE":" ","ALLEY":" ","HOUSE_NO":"２９０號七樓之２","E_COORD97":173303.04000000001,"N_COORD97":2547926.29,"ADDRESS":"正強街２９０號七樓之２","OBJECTID":487964},"geometry":{"x":173303.04000000004,"y":2547926.2899999991}},{"attributes":{"ID":487990,"DIS_CODE":0,"TOWNNAME":"永康區","LI":"正強里","LIN":"41鄰","STREET":"正強街","SECT":" ","MAREA":" ","LANE":" ","ALLEY":" ","HOUSE_NO":"２９８號十三樓之２","E_COORD97":173293.54999999999,"N_COORD97":2547971.0499999998,"ADDRESS":"正強街２９８號十三樓之２","OBJECTID":487965},"geometry":{"x":173293.55000000075,"y":2547971.0500000045}},{"attributes":{"ID":487991,"DIS_CODE":0,"TOWNNAME":"永康區","LI":"正強里","LIN":"41鄰","STREET":"正強街","SECT":" ","MAREA":" ","LANE":" ","ALLEY":" ","HOUSE_NO":"２９０號四樓之１","E_COORD97":173302.91,"N_COORD97":2547926.29,"ADDRESS":"正強街２９０號四樓之１","OBJECTID":487966},"geometry":{"x":173302.90999999922,"y":2547926.2899999991}},{"attributes":{"ID":487992,"DIS_CODE":0,"TOWNNAME":"永康區","LI":"正強里","LIN":"41鄰","STREET":"正強街","SECT":" ","MAREA":" ","LANE":" ","ALLEY":" ","HOUSE_NO":"２９６號十三樓之１","E_COORD97":173304.01000000001,"N_COORD97":2547949.29,"ADDRESS":"正強街２９６號十三樓之１","OBJECTID":487967},"geometry":{"x":173304.01000000071,"y":2547949.2899999991}},{"attributes":{"ID":487993,"DIS_CODE":0,"TOWNNAME":"佳里區","LI":"安西里","LIN":"41鄰","STREET":"佳西路","SECT":" ","MAREA":" ","LANE":" ","ALLEY":" ","HOUSE_NO":"１９７號","E_COORD97":164754.95000000001,"N_COORD97":2562504.1699999999,"ADDRESS":"佳西路１９７號","OBJECTID":487968},"geometry":{"x":164754.95000000019,"y":2562504.1700000037}},{"attributes":{"ID":487994,"DIS_CODE":0,"TOWNNAME":"永康區","LI":"正強里","LIN":"41鄰","STREET":"正強街","SECT":" ","MAREA":" ","LANE":" ","ALLEY":" ","HOUSE_NO":"２９８號十二樓之１","E_COORD97":173293.42000000001,"N_COORD97":2547971.0499999998,"ADDRESS":"正強街２９８號十二樓之１","OBJECTID":487969},"geometry":{"x":173293.41999999993,"y":2547971.0500000045}},{"attributes":{"ID":487995,"DIS_CODE":0,"TOWNNAME":"永康區","LI":"正強里","LIN":"41鄰","STREET":"正強街","SECT":" ","MAREA":" ","LANE":" ","ALLEY":" ","HOUSE_NO":"２９０號五樓之２","E_COORD97":173303.04000000001,"N_COORD97":2547926.29,"ADDRESS":"正強街２９０號五樓之２","OBJECTID":487970},"geometry":{"x":173303.04000000004,"y":2547926.2899999991}},{"attributes":{"ID":487996,"DIS_CODE":0,"TOWNNAME":"永康區","LI":"正強里","LIN":"41鄰","STREET":"正強街","SECT":" ","MAREA":" ","LANE":" ","ALLEY":" ","HOUSE_NO":"２９８號八樓之１","E_COORD97":173292.17000000001,"N_COORD97":2547971.0499999998,"ADDRESS":"正強街２９８號八樓之１","OBJECTID":487971},"geometry":{"x":173292.16999999993,"y":2547971.0500000045}},{"attributes":{"ID":487997,"DIS_CODE":0,"TOWNNAME":"永康區","LI":"正強里","LIN":"41鄰","STREET":"正強街","SECT":" ","MAREA":" ","LANE":" ","ALLEY":" ","HOUSE_NO":"２９２號十一樓之２","E_COORD97":173304.35999999999,"N_COORD97":2547942.04,"ADDRESS":"正強街２９２號十一樓之２","OBJECTID":487972},"geometry":{"x":173304.36000000127,"y":2547942.0399999972}},{"attributes":{"ID":487998,"DIS_CODE":0,"TOWNNAME":"永康區","LI":"正強里","LIN":"41鄰","STREET":"正強街","SECT":" ","MAREA":" ","LANE":" ","ALLEY":" ","HOUSE_NO":"２９８號三樓之２","E_COORD97":173292.29999999999,"N_COORD97":2547971.0499999998,"ADDRESS":"正強街２９８號三樓之２","OBJECTID":487973},"geometry":{"x":173292.30000000075,"y":2547971.0500000045}},{"attributes":{"ID":487999,"DIS_CODE":0,"TOWNNAME":"永康區","LI":"正強里","LIN":"41鄰","STREET":"正強街","SECT":" ","MAREA":" ","LANE":" ","ALLEY":" ","HOUSE_NO":"２９６號二樓之１","E_COORD97":173302.76000000001,"N_COORD97":2547949.29,"ADDRESS":"正強街２９６號二樓之１","OBJECTID":487974},"geometry":{"x":173302.76000000071,"y":2547949.2899999991}},{"attributes":{"ID":488000,"DIS_CODE":0,"TOWNNAME":"永康區","LI":"正強里","LIN":"41鄰","STREET":"正強街","SECT":" ","MAREA":" ","LANE":" ","ALLEY":" ","HOUSE_NO":"２９０號六樓之２","E_COORD97":173303.04000000001,"N_COORD97":2547926.29,"ADDRESS":"正強街２９０號六樓之２","OBJECTID":487975},"geometry":{"x":173303.04000000004,"y":2547926.2899999991}},{"attributes":{"ID":488001,"DIS_CODE":0,"TOWNNAME":"永康區","LI":"正強里","LIN":"41鄰","STREET":"正強街","SECT":" ","MAREA":" ","LANE":" ","ALLEY":" ","HOUSE_NO":"２９０號十二樓之１","E_COORD97":173304.16,"N_COORD97":2547926.29,"ADDRESS":"正強街２９０號十二樓之１","OBJECTID":487976},"geometry":{"x":173304.16000000015,"y":2547926.2899999991}},{"attributes":{"ID":488002,"DIS_CODE":0,"TOWNNAME":"永康區","LI":"正強里","LIN":"41鄰","STREET":"正強街","SECT":" ","MAREA":" ","LANE":" ","ALLEY":" ","HOUSE_NO":"２９８號八樓之２","E_COORD97":173292.29999999999,"N_COORD97":2547971.0499999998,"ADDRESS":"正強街２９８號八樓之２","OBJECTID":487977},"geometry":{"x":173292.30000000075,"y":2547971.0500000045}},{"attributes":{"ID":488003,"DIS_CODE":0,"TOWNNAME":"永康區","LI":"正強里","LIN":"41鄰","STREET":"正強街","SECT":" ","MAREA":" ","LANE":" ","ALLEY":" ","HOUSE_NO":"２９２號八樓之２","E_COORD97":173303.10999999999,"N_COORD97":2547942.04,"ADDRESS":"正強街２９２號八樓之２","OBJECTID":487978},"geometry":{"x":173303.11000000034,"y":2547942.0399999972}},{"attributes":{"ID":488004,"DIS_CODE":0,"TOWNNAME":"永康區","LI":"正強里","LIN":"41鄰","STREET":"正強街","SECT":" ","MAREA":" ","LANE":" ","ALLEY":" ","HOUSE_NO":"２９２號十三樓之２","E_COORD97":173304.35999999999,"N_COORD97":2547942.04,"ADDRESS":"正強街２９２號十三樓之２","OBJECTID":487979},"geometry":{"x":173304.36000000127,"y":2547942.0399999972}},{"attributes":{"ID":488005,"DIS_CODE":0,"TOWNNAME":"永康區","LI":"正強里","LIN":"41鄰","STREET":"正強街","SECT":" ","MAREA":" ","LANE":" ","ALLEY":" ","HOUSE_NO":"２９２號六樓之１","E_COORD97":173302.98000000001,"N_COORD97":2547942.04,"ADDRESS":"正強街２９２號六樓之１","OBJECTID":487980},"geometry":{"x":173302.98000000231,"y":2547942.0399999972}},{"attributes":{"ID":488006,"DIS_CODE":0,"TOWNNAME":"永康區","LI":"正強里","LIN":"41鄰","STREET":"正強街","SECT":" ","MAREA":" ","LANE":" ","ALLEY":" ","HOUSE_NO":"２９２號三樓之１","E_COORD97":173302.98000000001,"N_COORD97":2547942.04,"ADDRESS":"正強街２９２號三樓之１","OBJECTID":487981},"geometry":{"x":173302.98000000231,"y":2547942.0399999972}},{"attributes":{"ID":488007,"DIS_CODE":0,"TOWNNAME":"永康區","LI":"正強里","LIN":"41鄰","STREET":"正強街","SECT":" ","MAREA":" ","LANE":" ","ALLEY":" ","HOUSE_NO":"２９６號三樓之１","E_COORD97":173302.76000000001,"N_COORD97":2547949.29,"ADDRESS":"正強街２９６號三樓之１","OBJECTID":487982},"geometry":{"x":173302.76000000071,"y":2547949.2899999991}},{"attributes":{"ID":488008,"DIS_CODE":0,"TOWNNAME":"新市區","LI":"社內里","LIN":"7鄰","STREET":" ","SECT":" ","MAREA":"社內","LANE":" ","ALLEY":" ","HOUSE_NO":"７４之２０號","E_COORD97":176674.17532800001,"N_COORD97":2552856.1487599998,"ADDRESS":"社內７４之２０號","OBJECTID":487983},"geometry":{"x":176674.17532800231,"y":2552856.1487630028}},{"attributes":{"ID":488009,"DIS_CODE":0,"TOWNNAME":"永康區","LI":"正強里","LIN":"41鄰","STREET":"正強街","SECT":" ","MAREA":" ","LANE":" ","ALLEY":" ","HOUSE_NO":"２９２號十四樓之２","E_COORD97":173304.35999999999,"N_COORD97":2547942.04,"ADDRESS":"正強街２９２號十四樓之２","OBJECTID":487984},"geometry":{"x":173304.36000000127,"y":2547942.0399999972}},{"attributes":{"ID":488010,"DIS_CODE":0,"TOWNNAME":"永康區","LI":"正強里","LIN":"41鄰","STREET":"正強街","SECT":" ","MAREA":" ","LANE":" ","ALLEY":" ","HOUSE_NO":"２９８號十四樓之１","E_COORD97":173293.42000000001,"N_COORD97":2547971.0499999998,"ADDRESS":"正強街２９８號十四樓之１","OBJECTID":487985},"geometry":{"x":173293.41999999993,"y":2547971.0500000045}},{"attributes":{"ID":488011,"DIS_CODE":0,"TOWNNAME":"永康區","LI":"正強里","LIN":"41鄰","STREET":"正強街","SECT":" ","MAREA":" ","LANE":" ","ALLEY":" ","HOUSE_NO":"２９６號十四樓之２","E_COORD97":173304.14000000001,"N_COORD97":2547949.29,"ADDRESS":"正強街２９６號十四樓之２","OBJECTID":487986},"geometry":{"x":173304.13999999966,"y":2547949.2899999991}},{"attributes":{"ID":488012,"DIS_CODE":0,"TOWNNAME":"永康區","LI":"正強里","LIN":"41鄰","STREET":"正強街","SECT":" ","MAREA":" ","LANE":" ","ALLEY":" ","HOUSE_NO":"２９２號五樓之２","E_COORD97":173303.10999999999,"N_COORD97":2547942.04,"ADDRESS":"正強街２９２號五樓之２","OBJECTID":487987},"geometry":{"x":173303.11000000034,"y":2547942.0399999972}},{"attributes":{"ID":488013,"DIS_CODE":0,"TOWNNAME":"永康區","LI":"正強里","LIN":"41鄰","STREET":"正強街","SECT":" ","MAREA":" ","LANE":" ","ALLEY":" ","HOUSE_NO":"２９８號十一樓之２","E_COORD97":173293.54999999999,"N_COORD97":2547971.0499999998,"ADDRESS":"正強街２９８號十一樓之２","OBJECTID":487988},"geometry":{"x":173293.55000000075,"y":2547971.0500000045}},{"attributes":{"ID":488014,"DIS_CODE":0,"TOWNNAME":"永康區","LI":"正強里","LIN":"41鄰","STREET":"正強街","SECT":" ","MAREA":" ","LANE":" ","ALLEY":" ","HOUSE_NO":"２９６號十樓之１","E_COORD97":173302.76000000001,"N_COORD97":2547949.29,"ADDRESS":"正強街２９６號十樓之１","OBJECTID":487989},"geometry":{"x":173302.76000000071,"y":2547949.2899999991}},{"attributes":{"ID":488015,"DIS_CODE":0,"TOWNNAME":"永康區","LI":"正強里","LIN":"41鄰","STREET":"正強街","SECT":" ","MAREA":" ","LANE":" ","ALLEY":" ","HOUSE_NO":"２９６號十三樓之２","E_COORD97":173304.14000000001,"N_COORD97":2547949.29,"ADDRESS":"正強街２９６號十三樓之２","OBJECTID":487990},"geometry":{"x":173304.13999999966,"y":2547949.2899999991}},{"attributes":{"ID":488016,"DIS_CODE":0,"TOWNNAME":"永康區","LI":"正強里","LIN":"41鄰","STREET":"正強街","SECT":" ","MAREA":" ","LANE":" ","ALLEY":" ","HOUSE_NO":"２９０號七樓之１","E_COORD97":173302.91,"N_COORD97":2547926.29,"ADDRESS":"正強街２９０號七樓之１","OBJECTID":487991},"geometry":{"x":173302.90999999922,"y":2547926.2899999991}},{"attributes":{"ID":488017,"DIS_CODE":0,"TOWNNAME":"永康區","LI":"正強里","LIN":"41鄰","STREET":"正強街","SECT":" ","MAREA":" ","LANE":" ","ALLEY":" ","HOUSE_NO":"２９０號十二樓之２","E_COORD97":173304.29000000001,"N_COORD97":2547926.29,"ADDRESS":"正強街２９０號十二樓之２","OBJECTID":487992},"geometry":{"x":173304.29000000097,"y":2547926.2899999991}},{"attributes":{"ID":488018,"DIS_CODE":0,"TOWNNAME":"永康區","LI":"正強里","LIN":"41鄰","STREET":"正強街","SECT":" ","MAREA":" ","LANE":" ","ALLEY":" ","HOUSE_NO":"２９６號十二樓之１","E_COORD97":173304.01000000001,"N_COORD97":2547949.29,"ADDRESS":"正強街２９６號十二樓之１","OBJECTID":487993},"geometry":{"x":173304.01000000071,"y":2547949.2899999991}},{"attributes":{"ID":488019,"DIS_CODE":0,"TOWNNAME":"永康區","LI":"正強里","LIN":"41鄰","STREET":"正強街","SECT":" ","MAREA":" ","LANE":" ","ALLEY":" ","HOUSE_NO":"２９２號六樓之２","E_COORD97":173303.10999999999,"N_COORD97":2547942.04,"ADDRESS":"正強街２９２號六樓之２","OBJECTID":487994},"geometry":{"x":173303.11000000034,"y":2547942.0399999972}},{"attributes":{"ID":488020,"DIS_CODE":0,"TOWNNAME":"永康區","LI":"正強里","LIN":"41鄰","STREET":"正強街","SECT":" ","MAREA":" ","LANE":" ","ALLEY":" ","HOUSE_NO":"２９６號六樓之２","E_COORD97":173302.89000000001,"N_COORD97":2547949.29,"ADDRESS":"正強街２９６號六樓之２","OBJECTID":487995},"geometry":{"x":173302.8900000006,"y":2547949.2899999991}},{"attributes":{"ID":488021,"DIS_CODE":0,"TOWNNAME":"永康區","LI":"正強里","LIN":"41鄰","STREET":"正強街","SECT":" ","MAREA":" ","LANE":" ","ALLEY":" ","HOUSE_NO":"２９０號十樓之１","E_COORD97":173302.91,"N_COORD97":2547926.29,"ADDRESS":"正強街２９０號十樓之１","OBJECTID":487996},"geometry":{"x":173302.90999999922,"y":2547926.2899999991}},{"attributes":{"ID":488022,"DIS_CODE":0,"TOWNNAME":"永康區","LI":"正強里","LIN":"41鄰","STREET":"正強街","SECT":" ","MAREA":" ","LANE":" ","ALLEY":" ","HOUSE_NO":"２９０號六樓之１","E_COORD97":173302.91,"N_COORD97":2547926.29,"ADDRESS":"正強街２９０號六樓之１","OBJECTID":487997},"geometry":{"x":173302.90999999922,"y":2547926.2899999991}},{"attributes":{"ID":488023,"DIS_CODE":0,"TOWNNAME":"永康區","LI":"正強里","LIN":"41鄰","STREET":"正強街","SECT":" ","MAREA":" ","LANE":" ","ALLEY":" ","HOUSE_NO":"２９２號五樓之１","E_COORD97":173302.98000000001,"N_COORD97":2547942.04,"ADDRESS":"正強街２９２號五樓之１","OBJECTID":487998},"geometry":{"x":173302.98000000231,"y":2547942.0399999972}},{"attributes":{"ID":488024,"DIS_CODE":0,"TOWNNAME":"永康區","LI":"正強里","LIN":"41鄰","STREET":"正強街","SECT":" ","MAREA":" ","LANE":" ","ALLEY":" ","HOUSE_NO":"２９２號十四樓之１","E_COORD97":173304.23000000001,"N_COORD97":2547942.04,"ADDRESS":"正強街２９２號十四樓之１","OBJECTID":487999},"geometry":{"x":173304.23000000045,"y":2547942.0399999972}},{"attributes":{"ID":488025,"DIS_CODE":0,"TOWNNAME":"永康區","LI":"正強里","LIN":"41鄰","STREET":"正強街","SECT":" ","MAREA":" ","LANE":" ","ALLEY":" ","HOUSE_NO":"２９８號三樓之１","E_COORD97":173292.17000000001,"N_COORD97":2547971.0499999998,"ADDRESS":"正強街２９８號三樓之１","OBJECTID":488000},"geometry":{"x":173292.16999999993,"y":2547971.0500000045}}]}