{"displayFieldName":"TOWNNAME","fieldAliases":{"ID":"ID","DIS_CODE":"DIS_CODE","TOWNNAME":"TOWNNAME","LI":"LI","LIN":"LIN","STREET":"STREET","SECT":"SECT","MAREA":"MAREA","LANE":"LANE","ALLEY":"ALLEY","HOUSE_NO":"HOUSE_NO","E_COORD97":"E_COORD97","N_COORD97":"N_COORD97","ADDRESS":"ADDRESS","OBJECTID":"OBJECTID"},"geometryType":"esriGeometryPoint","spatialReference":{"wkid":102443,"latestWkid":3826},"fields":[{"name":"ID","type":"esriFieldTypeDouble","alias":"ID"},{"name":"DIS_CODE","type":"esriFieldTypeInteger","alias":"DIS_CODE"},{"name":"TOWNNAME","type":"esriFieldTypeString","alias":"TOWNNAME","length":8},{"name":"LI","type":"esriFieldTypeString","alias":"LI","length":8},{"name":"LIN","type":"esriFieldTypeString","alias":"LIN","length":12},{"name":"STREET","type":"esriFieldTypeString","alias":"STREET","length":20},{"name":"SECT","type":"esriFieldTypeString","alias":"SECT","length":8},{"name":"MAREA","type":"esriFieldTypeString","alias":"MAREA","length":12},{"name":"LANE","type":"esriFieldTypeString","alias":"LANE","length":10},{"name":"ALLEY","type":"esriFieldTypeString","alias":"ALLEY","length":10},{"name":"HOUSE_NO","type":"esriFieldTypeString","alias":"HOUSE_NO","length":20},{"name":"E_COORD97","type":"esriFieldTypeDouble","alias":"E_COORD97"},{"name":"N_COORD97","type":"esriFieldTypeDouble","alias":"N_COORD97"},{"name":"ADDRESS","type":"esriFieldTypeString","alias":"ADDRESS","length":50},{"name":"OBJECTID","type":"esriFieldTypeOID","alias":"OBJECTID"}],"features":[{"attributes":{"ID":390425,"DIS_CODE":0,"TOWNNAME":"東區","LI":"泉南里","LIN":"29鄰","STREET":"府連路","SECT":" ","MAREA":" ","LANE":"３４４巷","ALLEY":" ","HOUSE_NO":"５３號五樓之１","E_COORD97":169639.94,"N_COORD97":2542605.2599999998,"ADDRESS":"府連路３４４巷５３號五樓之１","OBJECTID":390401},"geometry":{"x":169639.94000000134,"y":2542605.2600000035}},{"attributes":{"ID":390426,"DIS_CODE":0,"TOWNNAME":"東區","LI":"泉南里","LIN":"29鄰","STREET":"府連路","SECT":" ","MAREA":" ","LANE":"３４４巷","ALLEY":" ","HOUSE_NO":"５３號五樓之２","E_COORD97":169639.94,"N_COORD97":2542605.2599999998,"ADDRESS":"府連路３４４巷５３號五樓之２","OBJECTID":390402},"geometry":{"x":169639.94000000134,"y":2542605.2600000035}},{"attributes":{"ID":390427,"DIS_CODE":0,"TOWNNAME":"東區","LI":"泉南里","LIN":"29鄰","STREET":"府連路","SECT":" ","MAREA":" ","LANE":"３４４巷","ALLEY":" ","HOUSE_NO":"５３號五樓之３","E_COORD97":169639.94,"N_COORD97":2542605.2599999998,"ADDRESS":"府連路３４４巷５３號五樓之３","OBJECTID":390403},"geometry":{"x":169639.94000000134,"y":2542605.2600000035}},{"attributes":{"ID":390428,"DIS_CODE":0,"TOWNNAME":"東區","LI":"泉南里","LIN":"29鄰","STREET":"府連路","SECT":" ","MAREA":" ","LANE":"３４４巷","ALLEY":" ","HOUSE_NO":"５３號五樓之５","E_COORD97":169639.94,"N_COORD97":2542605.2599999998,"ADDRESS":"府連路３４４巷５３號五樓之５","OBJECTID":390404},"geometry":{"x":169639.94000000134,"y":2542605.2600000035}},{"attributes":{"ID":390429,"DIS_CODE":0,"TOWNNAME":"永康區","LI":"尚頂里","LIN":"29鄰","STREET":"南台街","SECT":" ","MAREA":" ","LANE":"８９巷","ALLEY":" ","HOUSE_NO":"１７號十一樓之２","E_COORD97":170199.54000000001,"N_COORD97":2546926.7999999998,"ADDRESS":"南台街８９巷１７號十一樓之２","OBJECTID":390405},"geometry":{"x":170199.54000000004,"y":2546926.8000000026}},{"attributes":{"ID":390430,"DIS_CODE":0,"TOWNNAME":"永康區","LI":"尚頂里","LIN":"29鄰","STREET":"南台街","SECT":" ","MAREA":" ","LANE":"８９巷","ALLEY":" ","HOUSE_NO":"１３號七樓之１","E_COORD97":170214.76000000001,"N_COORD97":2546972.7999999998,"ADDRESS":"南台街８９巷１３號七樓之１","OBJECTID":390406},"geometry":{"x":170214.75999999978,"y":2546972.8000000045}},{"attributes":{"ID":390431,"DIS_CODE":0,"TOWNNAME":"永康區","LI":"尚頂里","LIN":"29鄰","STREET":"南台街","SECT":" ","MAREA":" ","LANE":"８９巷","ALLEY":" ","HOUSE_NO":"１３號之１五樓之１","E_COORD97":170218.25,"N_COORD97":2546957.0499999998,"ADDRESS":"南台街８９巷１３號之１五樓之１","OBJECTID":390407},"geometry":{"x":170218.25,"y":2546957.0500000007}},{"attributes":{"ID":390432,"DIS_CODE":0,"TOWNNAME":"永康區","LI":"尚頂里","LIN":"29鄰","STREET":"南台街","SECT":" ","MAREA":" ","LANE":"８９巷","ALLEY":" ","HOUSE_NO":"１７號十樓之２","E_COORD97":170198.29000000001,"N_COORD97":2546926.7999999998,"ADDRESS":"南台街８９巷１７號十樓之２","OBJECTID":390408},"geometry":{"x":170198.29000000097,"y":2546926.8000000026}},{"attributes":{"ID":390433,"DIS_CODE":0,"TOWNNAME":"永康區","LI":"尚頂里","LIN":"29鄰","STREET":"南台街","SECT":" ","MAREA":" ","LANE":"８９巷","ALLEY":" ","HOUSE_NO":"１９號十二樓之１","E_COORD97":170207.26000000001,"N_COORD97":2546925.7999999998,"ADDRESS":"南台街８９巷１９號十二樓之１","OBJECTID":390409},"geometry":{"x":170207.26000000071,"y":2546925.8000000026}},{"attributes":{"ID":390434,"DIS_CODE":0,"TOWNNAME":"永康區","LI":"尚頂里","LIN":"29鄰","STREET":"南台街","SECT":" ","MAREA":" ","LANE":"８９巷","ALLEY":" ","HOUSE_NO":"１５號十樓之１","E_COORD97":170213.16,"N_COORD97":2546941.0499999998,"ADDRESS":"南台街８９巷１５號十樓之１","OBJECTID":390410},"geometry":{"x":170213.16000000108,"y":2546941.0500000026}},{"attributes":{"ID":390435,"DIS_CODE":0,"TOWNNAME":"永康區","LI":"尚頂里","LIN":"29鄰","STREET":"南台街","SECT":" ","MAREA":" ","LANE":"８９巷","ALLEY":" ","HOUSE_NO":"１９號十一樓之２","E_COORD97":170207.39999999999,"N_COORD97":2546925.7999999998,"ADDRESS":"南台街８９巷１９號十一樓之２","OBJECTID":390411},"geometry":{"x":170207.40000000037,"y":2546925.8000000026}},{"attributes":{"ID":390436,"DIS_CODE":0,"TOWNNAME":"永康區","LI":"尚頂里","LIN":"29鄰","STREET":"南台街","SECT":" ","MAREA":" ","LANE":"８９巷","ALLEY":" ","HOUSE_NO":"１７號十一樓之１","E_COORD97":170199.39999999999,"N_COORD97":2546926.7999999998,"ADDRESS":"南台街８９巷１７號十一樓之１","OBJECTID":390412},"geometry":{"x":170199.40000000224,"y":2546926.8000000026}},{"attributes":{"ID":390437,"DIS_CODE":0,"TOWNNAME":"永康區","LI":"尚頂里","LIN":"29鄰","STREET":"南台街","SECT":" ","MAREA":" ","LANE":"８９巷","ALLEY":" ","HOUSE_NO":"１３號四樓之１","E_COORD97":170214.76000000001,"N_COORD97":2546972.7999999998,"ADDRESS":"南台街８９巷１３號四樓之１","OBJECTID":390413},"geometry":{"x":170214.75999999978,"y":2546972.8000000045}},{"attributes":{"ID":390438,"DIS_CODE":0,"TOWNNAME":"永康區","LI":"尚頂里","LIN":"29鄰","STREET":"南台街","SECT":" ","MAREA":" ","LANE":"８９巷","ALLEY":" ","HOUSE_NO":"１５號四樓之１","E_COORD97":170213.16,"N_COORD97":2546941.0499999998,"ADDRESS":"南台街８９巷１５號四樓之１","OBJECTID":390414},"geometry":{"x":170213.16000000108,"y":2546941.0500000026}},{"attributes":{"ID":390439,"DIS_CODE":0,"TOWNNAME":"永康區","LI":"尚頂里","LIN":"29鄰","STREET":"南台街","SECT":" ","MAREA":" ","LANE":"８９巷","ALLEY":" ","HOUSE_NO":"１７號五樓之１","E_COORD97":170198.14999999999,"N_COORD97":2546926.7999999998,"ADDRESS":"南台街８９巷１７號五樓之１","OBJECTID":390415},"geometry":{"x":170198.1500000013,"y":2546926.8000000026}},{"attributes":{"ID":390440,"DIS_CODE":0,"TOWNNAME":"永康區","LI":"尚頂里","LIN":"29鄰","STREET":"南台街","SECT":" ","MAREA":" ","LANE":"８９巷","ALLEY":" ","HOUSE_NO":"１３號之１六樓之２","E_COORD97":170218.39000000001,"N_COORD97":2546957.0499999998,"ADDRESS":"南台街８９巷１３號之１六樓之２","OBJECTID":390416},"geometry":{"x":170218.38999999966,"y":2546957.0500000007}},{"attributes":{"ID":390441,"DIS_CODE":0,"TOWNNAME":"永康區","LI":"尚頂里","LIN":"29鄰","STREET":"南台街","SECT":" ","MAREA":" ","LANE":"８９巷","ALLEY":" ","HOUSE_NO":"１３號之１七樓之２","E_COORD97":170218.39000000001,"N_COORD97":2546957.0499999998,"ADDRESS":"南台街８９巷１３號之１七樓之２","OBJECTID":390417},"geometry":{"x":170218.38999999966,"y":2546957.0500000007}},{"attributes":{"ID":390442,"DIS_CODE":0,"TOWNNAME":"永康區","LI":"尚頂里","LIN":"29鄰","STREET":"南台街","SECT":" ","MAREA":" ","LANE":"８９巷","ALLEY":" ","HOUSE_NO":"１５號二樓之２","E_COORD97":170213.29999999999,"N_COORD97":2546941.0499999998,"ADDRESS":"南台街８９巷１５號二樓之２","OBJECTID":390418},"geometry":{"x":170213.30000000075,"y":2546941.0500000026}},{"attributes":{"ID":390443,"DIS_CODE":0,"TOWNNAME":"永康區","LI":"尚頂里","LIN":"29鄰","STREET":"南台街","SECT":" ","MAREA":" ","LANE":"８９巷","ALLEY":" ","HOUSE_NO":"１之１號四樓","E_COORD97":170208.06,"N_COORD97":2546999.8900000001,"ADDRESS":"南台街８９巷１之１號四樓","OBJECTID":390419},"geometry":{"x":170208.06000000052,"y":2546999.8900000025}},{"attributes":{"ID":390444,"DIS_CODE":0,"TOWNNAME":"永康區","LI":"尚頂里","LIN":"29鄰","STREET":"南台街","SECT":" ","MAREA":" ","LANE":"８９巷","ALLEY":" ","HOUSE_NO":"１３號八樓之１","E_COORD97":170214.76000000001,"N_COORD97":2546972.7999999998,"ADDRESS":"南台街８９巷１３號八樓之１","OBJECTID":390420},"geometry":{"x":170214.75999999978,"y":2546972.8000000045}},{"attributes":{"ID":390445,"DIS_CODE":0,"TOWNNAME":"永康區","LI":"尚頂里","LIN":"29鄰","STREET":"南台街","SECT":" ","MAREA":" ","LANE":"８９巷","ALLEY":" ","HOUSE_NO":"１５號十一樓之２","E_COORD97":170214.54999999999,"N_COORD97":2546941.0499999998,"ADDRESS":"南台街８９巷１５號十一樓之２","OBJECTID":390421},"geometry":{"x":170214.54999999981,"y":2546941.0500000026}},{"attributes":{"ID":390446,"DIS_CODE":0,"TOWNNAME":"永康區","LI":"尚頂里","LIN":"29鄰","STREET":"南台街","SECT":" ","MAREA":" ","LANE":"８９巷","ALLEY":" ","HOUSE_NO":"１５號九樓之２","E_COORD97":170213.29999999999,"N_COORD97":2546941.0499999998,"ADDRESS":"南台街８９巷１５號九樓之２","OBJECTID":390422},"geometry":{"x":170213.30000000075,"y":2546941.0500000026}},{"attributes":{"ID":390447,"DIS_CODE":0,"TOWNNAME":"永康區","LI":"尚頂里","LIN":"29鄰","STREET":"南台街","SECT":" ","MAREA":" ","LANE":"８９巷","ALLEY":" ","HOUSE_NO":"１７號七樓之２","E_COORD97":170198.29000000001,"N_COORD97":2546926.7999999998,"ADDRESS":"南台街８９巷１７號七樓之２","OBJECTID":390423},"geometry":{"x":170198.29000000097,"y":2546926.8000000026}},{"attributes":{"ID":390448,"DIS_CODE":0,"TOWNNAME":"永康區","LI":"尚頂里","LIN":"29鄰","STREET":"南台街","SECT":" ","MAREA":" ","LANE":"８９巷","ALLEY":" ","HOUSE_NO":"１３號十一樓之２","E_COORD97":170216.14999999999,"N_COORD97":2546972.7999999998,"ADDRESS":"南台街８９巷１３號十一樓之２","OBJECTID":390424},"geometry":{"x":170216.15000000037,"y":2546972.8000000045}},{"attributes":{"ID":390449,"DIS_CODE":0,"TOWNNAME":"永康區","LI":"尚頂里","LIN":"29鄰","STREET":"南台街","SECT":" ","MAREA":" ","LANE":"８９巷","ALLEY":" ","HOUSE_NO":"１７號八樓之１","E_COORD97":170198.14999999999,"N_COORD97":2546926.7999999998,"ADDRESS":"南台街８９巷１７號八樓之１","OBJECTID":390425},"geometry":{"x":170198.1500000013,"y":2546926.8000000026}},{"attributes":{"ID":390450,"DIS_CODE":0,"TOWNNAME":"永康區","LI":"尚頂里","LIN":"29鄰","STREET":"南台街","SECT":" ","MAREA":" ","LANE":"８９巷","ALLEY":" ","HOUSE_NO":"１５號七樓之２","E_COORD97":170213.29999999999,"N_COORD97":2546941.0499999998,"ADDRESS":"南台街８９巷１５號七樓之２","OBJECTID":390426},"geometry":{"x":170213.30000000075,"y":2546941.0500000026}},{"attributes":{"ID":390451,"DIS_CODE":0,"TOWNNAME":"永康區","LI":"尚頂里","LIN":"29鄰","STREET":"南台街","SECT":" ","MAREA":" ","LANE":"８９巷","ALLEY":" ","HOUSE_NO":"１３號二樓之１","E_COORD97":170214.76000000001,"N_COORD97":2546972.7999999998,"ADDRESS":"南台街８９巷１３號二樓之１","OBJECTID":390427},"geometry":{"x":170214.75999999978,"y":2546972.8000000045}},{"attributes":{"ID":390452,"DIS_CODE":0,"TOWNNAME":"永康區","LI":"尚頂里","LIN":"29鄰","STREET":"南台街","SECT":" ","MAREA":" ","LANE":"８９巷","ALLEY":" ","HOUSE_NO":"１３號十一樓之１","E_COORD97":170216.01000000001,"N_COORD97":2546972.7999999998,"ADDRESS":"南台街８９巷１３號十一樓之１","OBJECTID":390428},"geometry":{"x":170216.00999999978,"y":2546972.8000000045}},{"attributes":{"ID":390453,"DIS_CODE":0,"TOWNNAME":"北區","LI":"華興里","LIN":"5鄰","STREET":"南園街","SECT":" ","MAREA":" ","LANE":"５４巷","ALLEY":" ","HOUSE_NO":"３號","E_COORD97":170503.19,"N_COORD97":2545408.77,"ADDRESS":"南園街５４巷３號","OBJECTID":390429},"geometry":{"x":170503.19000000134,"y":2545408.7700000033}},{"attributes":{"ID":390454,"DIS_CODE":0,"TOWNNAME":"永康區","LI":"尚頂里","LIN":"29鄰","STREET":"南台街","SECT":" ","MAREA":" ","LANE":"８９巷","ALLEY":" ","HOUSE_NO":"１３號九樓之２","E_COORD97":170214.89999999999,"N_COORD97":2546972.7999999998,"ADDRESS":"南台街８９巷１３號九樓之２","OBJECTID":390430},"geometry":{"x":170214.9000000013,"y":2546972.8000000045}},{"attributes":{"ID":390455,"DIS_CODE":0,"TOWNNAME":"永康區","LI":"尚頂里","LIN":"29鄰","STREET":"南台街","SECT":" ","MAREA":" ","LANE":"８９巷","ALLEY":" ","HOUSE_NO":"１７號十二樓之１","E_COORD97":170199.39999999999,"N_COORD97":2546926.7999999998,"ADDRESS":"南台街８９巷１７號十二樓之１","OBJECTID":390431},"geometry":{"x":170199.40000000224,"y":2546926.8000000026}},{"attributes":{"ID":390456,"DIS_CODE":0,"TOWNNAME":"善化區","LI":"坐駕里","LIN":"13鄰","STREET":"自強路","SECT":" ","MAREA":" ","LANE":" ","ALLEY":" ","HOUSE_NO":"３０號","E_COORD97":178218.13,"N_COORD97":2558755.5,"ADDRESS":"自強路３０號","OBJECTID":390432},"geometry":{"x":178218.13000000082,"y":2558755.5000000037}},{"attributes":{"ID":390457,"DIS_CODE":0,"TOWNNAME":"永康區","LI":"尚頂里","LIN":"29鄰","STREET":"南台街","SECT":" ","MAREA":" ","LANE":"８９巷","ALLEY":" ","HOUSE_NO":"１３號十三樓之１","E_COORD97":170216.01000000001,"N_COORD97":2546972.7999999998,"ADDRESS":"南台街８９巷１３號十三樓之１","OBJECTID":390433},"geometry":{"x":170216.00999999978,"y":2546972.8000000045}},{"attributes":{"ID":390458,"DIS_CODE":0,"TOWNNAME":"永康區","LI":"尚頂里","LIN":"29鄰","STREET":"南台街","SECT":" ","MAREA":" ","LANE":"８９巷","ALLEY":" ","HOUSE_NO":"１３號三樓之１","E_COORD97":170214.76000000001,"N_COORD97":2546972.7999999998,"ADDRESS":"南台街８９巷１３號三樓之１","OBJECTID":390434},"geometry":{"x":170214.75999999978,"y":2546972.8000000045}},{"attributes":{"ID":390459,"DIS_CODE":0,"TOWNNAME":"東區","LI":"小東里","LIN":"30鄰","STREET":"東平路","SECT":" ","MAREA":" ","LANE":"２５２巷","ALLEY":" ","HOUSE_NO":"２號","E_COORD97":170732.45000000001,"N_COORD97":2544040.54,"ADDRESS":"東平路２５２巷２號","OBJECTID":390435},"geometry":{"x":170732.45000000019,"y":2544040.540000001}},{"attributes":{"ID":390460,"DIS_CODE":0,"TOWNNAME":"永康區","LI":"尚頂里","LIN":"29鄰","STREET":"南台街","SECT":" ","MAREA":" ","LANE":"８９巷","ALLEY":" ","HOUSE_NO":"１７號九樓之１","E_COORD97":170198.14999999999,"N_COORD97":2546926.7999999998,"ADDRESS":"南台街８９巷１７號九樓之１","OBJECTID":390436},"geometry":{"x":170198.1500000013,"y":2546926.8000000026}},{"attributes":{"ID":390461,"DIS_CODE":0,"TOWNNAME":"永康區","LI":"尚頂里","LIN":"29鄰","STREET":"南台街","SECT":" ","MAREA":" ","LANE":"８９巷","ALLEY":" ","HOUSE_NO":"１３號之１三樓之３","E_COORD97":170218.35000000001,"N_COORD97":2546957.0499999998,"ADDRESS":"南台街８９巷１３號之１三樓之３","OBJECTID":390437},"geometry":{"x":170218.35000000056,"y":2546957.0500000007}},{"attributes":{"ID":390462,"DIS_CODE":0,"TOWNNAME":"永康區","LI":"尚頂里","LIN":"29鄰","STREET":"南台街","SECT":" ","MAREA":" ","LANE":"８９巷","ALLEY":" ","HOUSE_NO":"１５號九樓之１","E_COORD97":170213.16,"N_COORD97":2546941.0499999998,"ADDRESS":"南台街８９巷１５號九樓之１","OBJECTID":390438},"geometry":{"x":170213.16000000108,"y":2546941.0500000026}},{"attributes":{"ID":390463,"DIS_CODE":0,"TOWNNAME":"永康區","LI":"尚頂里","LIN":"29鄰","STREET":"南台街","SECT":" ","MAREA":" ","LANE":"８９巷","ALLEY":" ","HOUSE_NO":"１３號十樓之２","E_COORD97":170214.89999999999,"N_COORD97":2546972.7999999998,"ADDRESS":"南台街８９巷１３號十樓之２","OBJECTID":390439},"geometry":{"x":170214.9000000013,"y":2546972.8000000045}},{"attributes":{"ID":390464,"DIS_CODE":0,"TOWNNAME":"永康區","LI":"尚頂里","LIN":"29鄰","STREET":"南台街","SECT":" ","MAREA":" ","LANE":"８９巷","ALLEY":" ","HOUSE_NO":"１９號六樓之２","E_COORD97":170206.14999999999,"N_COORD97":2546925.7999999998,"ADDRESS":"南台街８９巷１９號六樓之２","OBJECTID":390440},"geometry":{"x":170206.14999999944,"y":2546925.8000000026}},{"attributes":{"ID":390465,"DIS_CODE":0,"TOWNNAME":"永康區","LI":"尚頂里","LIN":"29鄰","STREET":"南台街","SECT":" ","MAREA":" ","LANE":"８９巷","ALLEY":" ","HOUSE_NO":"１３號五樓之１","E_COORD97":170214.76000000001,"N_COORD97":2546972.7999999998,"ADDRESS":"南台街８９巷１３號五樓之１","OBJECTID":390441},"geometry":{"x":170214.75999999978,"y":2546972.8000000045}},{"attributes":{"ID":390466,"DIS_CODE":0,"TOWNNAME":"永康區","LI":"尚頂里","LIN":"29鄰","STREET":"南台街","SECT":" ","MAREA":" ","LANE":"８９巷","ALLEY":" ","HOUSE_NO":"１３號十二樓之１","E_COORD97":170216.01000000001,"N_COORD97":2546972.7999999998,"ADDRESS":"南台街８９巷１３號十二樓之１","OBJECTID":390442},"geometry":{"x":170216.00999999978,"y":2546972.8000000045}},{"attributes":{"ID":390467,"DIS_CODE":0,"TOWNNAME":"永康區","LI":"尚頂里","LIN":"29鄰","STREET":"南台街","SECT":" ","MAREA":" ","LANE":"８９巷","ALLEY":" ","HOUSE_NO":"１３號之１五樓之２","E_COORD97":170218.39000000001,"N_COORD97":2546957.0499999998,"ADDRESS":"南台街８９巷１３號之１五樓之２","OBJECTID":390443},"geometry":{"x":170218.38999999966,"y":2546957.0500000007}},{"attributes":{"ID":390468,"DIS_CODE":0,"TOWNNAME":"永康區","LI":"尚頂里","LIN":"29鄰","STREET":"南台街","SECT":" ","MAREA":" ","LANE":"８９巷","ALLEY":" ","HOUSE_NO":"１３號四樓之２","E_COORD97":170214.89999999999,"N_COORD97":2546972.7999999998,"ADDRESS":"南台街８９巷１３號四樓之２","OBJECTID":390444},"geometry":{"x":170214.9000000013,"y":2546972.8000000045}},{"attributes":{"ID":390469,"DIS_CODE":0,"TOWNNAME":"永康區","LI":"尚頂里","LIN":"29鄰","STREET":"南台街","SECT":" ","MAREA":" ","LANE":"８９巷","ALLEY":" ","HOUSE_NO":"１３號五樓之２","E_COORD97":170214.89999999999,"N_COORD97":2546972.7999999998,"ADDRESS":"南台街８９巷１３號五樓之２","OBJECTID":390445},"geometry":{"x":170214.9000000013,"y":2546972.8000000045}},{"attributes":{"ID":390470,"DIS_CODE":0,"TOWNNAME":"永康區","LI":"尚頂里","LIN":"29鄰","STREET":"南台街","SECT":" ","MAREA":" ","LANE":"８９巷","ALLEY":" ","HOUSE_NO":"１５號八樓之２","E_COORD97":170213.29999999999,"N_COORD97":2546941.0499999998,"ADDRESS":"南台街８９巷１５號八樓之２","OBJECTID":390446},"geometry":{"x":170213.30000000075,"y":2546941.0500000026}},{"attributes":{"ID":390471,"DIS_CODE":0,"TOWNNAME":"永康區","LI":"尚頂里","LIN":"29鄰","STREET":"南台街","SECT":" ","MAREA":" ","LANE":"８９巷","ALLEY":" ","HOUSE_NO":"１９號七樓之１","E_COORD97":170206.01000000001,"N_COORD97":2546925.7999999998,"ADDRESS":"南台街８９巷１９號七樓之１","OBJECTID":390447},"geometry":{"x":170206.00999999978,"y":2546925.8000000026}},{"attributes":{"ID":390472,"DIS_CODE":0,"TOWNNAME":"永康區","LI":"尚頂里","LIN":"29鄰","STREET":"南台街","SECT":" ","MAREA":" ","LANE":"８９巷","ALLEY":" ","HOUSE_NO":"１７號六樓之２","E_COORD97":170198.29000000001,"N_COORD97":2546926.7999999998,"ADDRESS":"南台街８９巷１７號六樓之２","OBJECTID":390448},"geometry":{"x":170198.29000000097,"y":2546926.8000000026}},{"attributes":{"ID":390473,"DIS_CODE":0,"TOWNNAME":"善化區","LI":"光文里","LIN":"29鄰","STREET":"建國路","SECT":" ","MAREA":" ","LANE":"３２９巷","ALLEY":" ","HOUSE_NO":"７號","E_COORD97":177730.85999999999,"N_COORD97":2559272.8599999999,"ADDRESS":"建國路３２９巷７號","OBJECTID":390449},"geometry":{"x":177730.86000000034,"y":2559272.8599999994}},{"attributes":{"ID":390474,"DIS_CODE":0,"TOWNNAME":"東區","LI":"崇誨里","LIN":"29鄰","STREET":"林森路","SECT":"二段","MAREA":" ","LANE":"１９２巷","ALLEY":" ","HOUSE_NO":"１００號二樓之１","E_COORD97":170775.85999999999,"N_COORD97":2543329.46,"ADDRESS":"林森路二段１９２巷１００號二樓之１","OBJECTID":390450},"geometry":{"x":170775.86000000034,"y":2543329.4600000009}},{"attributes":{"ID":390475,"DIS_CODE":0,"TOWNNAME":"東區","LI":"崇誨里","LIN":"29鄰","STREET":"林森路","SECT":"二段","MAREA":" ","LANE":"１９２巷","ALLEY":" ","HOUSE_NO":"１００號三樓之１","E_COORD97":170775.85999999999,"N_COORD97":2543329.46,"ADDRESS":"林森路二段１９２巷１００號三樓之１","OBJECTID":390451},"geometry":{"x":170775.86000000034,"y":2543329.4600000009}},{"attributes":{"ID":390476,"DIS_CODE":0,"TOWNNAME":"東區","LI":"崇誨里","LIN":"29鄰","STREET":"林森路","SECT":"二段","MAREA":" ","LANE":"１９２巷","ALLEY":" ","HOUSE_NO":"１００號五樓之２","E_COORD97":170769.01999999999,"N_COORD97":2543338.6200000001,"ADDRESS":"林森路二段１９２巷１００號五樓之２","OBJECTID":390452},"geometry":{"x":170769.02000000142,"y":2543338.620000001}},{"attributes":{"ID":390477,"DIS_CODE":0,"TOWNNAME":"東區","LI":"崇誨里","LIN":"29鄰","STREET":"林森路","SECT":"二段","MAREA":" ","LANE":"１９２巷","ALLEY":" ","HOUSE_NO":"１００號三樓之２","E_COORD97":170769.01999999999,"N_COORD97":2543338.6200000001,"ADDRESS":"林森路二段１９２巷１００號三樓之２","OBJECTID":390453},"geometry":{"x":170769.02000000142,"y":2543338.620000001}},{"attributes":{"ID":390478,"DIS_CODE":0,"TOWNNAME":"東區","LI":"虎尾里","LIN":"29鄰","STREET":"東成街","SECT":" ","MAREA":" ","LANE":"２００巷","ALLEY":" ","HOUSE_NO":"６８號","E_COORD97":171874.22,"N_COORD97":2542122.8300000001,"ADDRESS":"東成街２００巷６８號","OBJECTID":390454},"geometry":{"x":171874.21999999974,"y":2542122.8300000001}},{"attributes":{"ID":390479,"DIS_CODE":0,"TOWNNAME":"永康區","LI":"復華里","LIN":"29鄰","STREET":"國華街","SECT":" ","MAREA":" ","LANE":"１２３巷","ALLEY":" ","HOUSE_NO":"５號","E_COORD97":172619.81,"N_COORD97":2546254.2400000002,"ADDRESS":"國華街１２３巷５號","OBJECTID":390455},"geometry":{"x":172619.80999999959,"y":2546254.2400000021}},{"attributes":{"ID":390480,"DIS_CODE":0,"TOWNNAME":"永康區","LI":"復華里","LIN":"29鄰","STREET":"國華街","SECT":" ","MAREA":" ","LANE":"１２３巷","ALLEY":" ","HOUSE_NO":"１０號","E_COORD97":172604.22,"N_COORD97":2546257.4900000002,"ADDRESS":"國華街１２３巷１０號","OBJECTID":390456},"geometry":{"x":172604.22000000067,"y":2546257.4900000002}},{"attributes":{"ID":390481,"DIS_CODE":0,"TOWNNAME":"永康區","LI":"復華里","LIN":"29鄰","STREET":"國華街","SECT":" ","MAREA":" ","LANE":"１２３巷","ALLEY":" ","HOUSE_NO":"１５號","E_COORD97":172607.20999999999,"N_COORD97":2546233.5,"ADDRESS":"國華街１２３巷１５號","OBJECTID":390457},"geometry":{"x":172607.20999999996,"y":2546233.5}},{"attributes":{"ID":390482,"DIS_CODE":0,"TOWNNAME":"永康區","LI":"復華里","LIN":"29鄰","STREET":"國華街","SECT":" ","MAREA":" ","LANE":"１０１巷","ALLEY":" ","HOUSE_NO":"１０號","E_COORD97":172631.95000000001,"N_COORD97":2546171.4900000002,"ADDRESS":"國華街１０１巷１０號","OBJECTID":390458},"geometry":{"x":172631.95000000112,"y":2546171.4900000021}},{"attributes":{"ID":390483,"DIS_CODE":0,"TOWNNAME":"東區","LI":"小東里","LIN":"30鄰","STREET":"東平路","SECT":" ","MAREA":" ","LANE":"２５２巷","ALLEY":" ","HOUSE_NO":"１０號","E_COORD97":170735.53,"N_COORD97":2544058.1299999999,"ADDRESS":"東平路２５２巷１０號","OBJECTID":390459},"geometry":{"x":170735.53000000026,"y":2544058.129999999}},{"attributes":{"ID":390484,"DIS_CODE":0,"TOWNNAME":"東區","LI":"小東里","LIN":"30鄰","STREET":"東平路","SECT":" ","MAREA":" ","LANE":"２５２巷","ALLEY":" ","HOUSE_NO":"１２號","E_COORD97":170736.23000000001,"N_COORD97":2544063.3100000001,"ADDRESS":"東平路２５２巷１２號","OBJECTID":390460},"geometry":{"x":170736.22999999952,"y":2544063.3100000042}},{"attributes":{"ID":390485,"DIS_CODE":0,"TOWNNAME":"東區","LI":"小東里","LIN":"30鄰","STREET":"東平路","SECT":" ","MAREA":" ","LANE":"２５２巷","ALLEY":" ","HOUSE_NO":"１４號","E_COORD97":170737.17999999999,"N_COORD97":2544067.9100000001,"ADDRESS":"東平路２５２巷１４號","OBJECTID":390461},"geometry":{"x":170737.1799999997,"y":2544067.9100000001}},{"attributes":{"ID":390486,"DIS_CODE":0,"TOWNNAME":"東區","LI":"小東里","LIN":"30鄰","STREET":"東平路","SECT":" ","MAREA":" ","LANE":"２５２巷","ALLEY":" ","HOUSE_NO":"１６號","E_COORD97":170738.12,"N_COORD97":2544071.9300000002,"ADDRESS":"東平路２５２巷１６號","OBJECTID":390462},"geometry":{"x":170738.12000000011,"y":2544071.9300000034}},{"attributes":{"ID":390487,"DIS_CODE":0,"TOWNNAME":"東區","LI":"小東里","LIN":"30鄰","STREET":"東平路","SECT":" ","MAREA":" ","LANE":"２５２巷","ALLEY":" ","HOUSE_NO":"２０號","E_COORD97":170740.25,"N_COORD97":2544081.25,"ADDRESS":"東平路２５２巷２０號","OBJECTID":390463},"geometry":{"x":170740.25,"y":2544081.2500000019}},{"attributes":{"ID":390488,"DIS_CODE":0,"TOWNNAME":"東區","LI":"小東里","LIN":"30鄰","STREET":"東平路","SECT":" ","MAREA":" ","LANE":"２５２巷","ALLEY":" ","HOUSE_NO":"２２號","E_COORD97":170741.67000000001,"N_COORD97":2544085.9700000002,"ADDRESS":"東平路２５２巷２２號","OBJECTID":390464},"geometry":{"x":170741.67000000086,"y":2544085.9699999988}},{"attributes":{"ID":390489,"DIS_CODE":0,"TOWNNAME":"東區","LI":"小東里","LIN":"30鄰","STREET":"東平路","SECT":" ","MAREA":" ","LANE":"２５２巷","ALLEY":" ","HOUSE_NO":"２４號","E_COORD97":170742.26000000001,"N_COORD97":2544090.3399999999,"ADDRESS":"東平路２５２巷２４號","OBJECTID":390465},"geometry":{"x":170742.26000000164,"y":2544090.3400000017}},{"attributes":{"ID":390490,"DIS_CODE":0,"TOWNNAME":"永康區","LI":"復華里","LIN":"29鄰","STREET":"國華街","SECT":" ","MAREA":" ","LANE":"１０１巷","ALLEY":" ","HOUSE_NO":"６號","E_COORD97":172636.14999999999,"N_COORD97":2546180.4900000002,"ADDRESS":"國華街１０１巷６號","OBJECTID":390466},"geometry":{"x":172636.1500000013,"y":2546180.4900000002}},{"attributes":{"ID":390491,"DIS_CODE":0,"TOWNNAME":"永康區","LI":"復華里","LIN":"29鄰","STREET":"國華街","SECT":" ","MAREA":" ","LANE":"１０１巷","ALLEY":" ","HOUSE_NO":"５號","E_COORD97":172643.45000000001,"N_COORD97":2546166.7400000002,"ADDRESS":"國華街１０１巷５號","OBJECTID":390467},"geometry":{"x":172643.45000000205,"y":2546166.7400000021}},{"attributes":{"ID":390492,"DIS_CODE":0,"TOWNNAME":"永康區","LI":"復華里","LIN":"29鄰","STREET":"國華街","SECT":" ","MAREA":" ","LANE":"１０１巷","ALLEY":" ","HOUSE_NO":"８號","E_COORD97":172633.59,"N_COORD97":2546175.7400000002,"ADDRESS":"國華街１０１巷８號","OBJECTID":390468},"geometry":{"x":172633.59000000171,"y":2546175.7400000039}},{"attributes":{"ID":390493,"DIS_CODE":0,"TOWNNAME":"永康區","LI":"勝利里","LIN":"29鄰","STREET":"勝利街","SECT":" ","MAREA":" ","LANE":"３０巷","ALLEY":" ","HOUSE_NO":"３之２號","E_COORD97":171372.35999999999,"N_COORD97":2544561.9900000002,"ADDRESS":"勝利街３０巷３之２號","OBJECTID":390469},"geometry":{"x":171372.36000000034,"y":2544561.9900000002}},{"attributes":{"ID":390494,"DIS_CODE":0,"TOWNNAME":"永康區","LI":"勝利里","LIN":"29鄰","STREET":"勝利街","SECT":" ","MAREA":" ","LANE":"４２巷","ALLEY":" ","HOUSE_NO":"１６號","E_COORD97":171383.66,"N_COORD97":2544618.75,"ADDRESS":"勝利街４２巷１６號","OBJECTID":390470},"geometry":{"x":171383.66000000015,"y":2544618.75}},{"attributes":{"ID":390495,"DIS_CODE":0,"TOWNNAME":"善化區","LI":"光文里","LIN":"29鄰","STREET":"建國路","SECT":" ","MAREA":" ","LANE":"３１５巷","ALLEY":" ","HOUSE_NO":"２號","E_COORD97":177746.23999999999,"N_COORD97":2559293.7200000002,"ADDRESS":"建國路３１５巷２號","OBJECTID":390471},"geometry":{"x":177746.24000000115,"y":2559293.7200000044}},{"attributes":{"ID":390496,"DIS_CODE":0,"TOWNNAME":"善化區","LI":"光文里","LIN":"29鄰","STREET":"建國路","SECT":" ","MAREA":" ","LANE":"３１５巷","ALLEY":" ","HOUSE_NO":"３號","E_COORD97":177771.32999999999,"N_COORD97":2559279.0899999999,"ADDRESS":"建國路３１５巷３號","OBJECTID":390472},"geometry":{"x":177771.33000000007,"y":2559279.0899999999}},{"attributes":{"ID":390497,"DIS_CODE":0,"TOWNNAME":"善化區","LI":"光文里","LIN":"29鄰","STREET":"建國路","SECT":" ","MAREA":" ","LANE":"３１５巷","ALLEY":" ","HOUSE_NO":"５號","E_COORD97":177773.28,"N_COORD97":2559271.5499999998,"ADDRESS":"建國路３１５巷５號","OBJECTID":390473},"geometry":{"x":177773.28000000119,"y":2559271.5500000026}},{"attributes":{"ID":390498,"DIS_CODE":0,"TOWNNAME":"善化區","LI":"光文里","LIN":"29鄰","STREET":"建國路","SECT":" ","MAREA":" ","LANE":"３１５巷","ALLEY":" ","HOUSE_NO":"６號","E_COORD97":177743.23000000001,"N_COORD97":2559284.1899999999,"ADDRESS":"建國路３１５巷６號","OBJECTID":390474},"geometry":{"x":177743.23000000138,"y":2559284.1900000013}},{"attributes":{"ID":390499,"DIS_CODE":0,"TOWNNAME":"善化區","LI":"光文里","LIN":"29鄰","STREET":"建國路","SECT":" ","MAREA":" ","LANE":"３１５巷","ALLEY":" ","HOUSE_NO":"７號","E_COORD97":177771.44,"N_COORD97":2559263.3199999998,"ADDRESS":"建國路３１５巷７號","OBJECTID":390475},"geometry":{"x":177771.44000000041,"y":2559263.3200000022}},{"attributes":{"ID":390500,"DIS_CODE":0,"TOWNNAME":"善化區","LI":"光文里","LIN":"29鄰","STREET":"建國路","SECT":" ","MAREA":" ","LANE":"３１５巷","ALLEY":" ","HOUSE_NO":"８號","E_COORD97":177744.44,"N_COORD97":2559275.8900000001,"ADDRESS":"建國路３１５巷８號","OBJECTID":390476},"geometry":{"x":177744.44000000227,"y":2559275.8900000025}},{"attributes":{"ID":390501,"DIS_CODE":0,"TOWNNAME":"善化區","LI":"光文里","LIN":"29鄰","STREET":"建國路","SECT":" ","MAREA":" ","LANE":"３１５巷","ALLEY":" ","HOUSE_NO":"１０號","E_COORD97":177742.48999999999,"N_COORD97":2559265.3700000001,"ADDRESS":"建國路３１５巷１０號","OBJECTID":390477},"geometry":{"x":177742.49000000115,"y":2559265.370000001}},{"attributes":{"ID":390502,"DIS_CODE":0,"TOWNNAME":"善化區","LI":"光文里","LIN":"29鄰","STREET":"建國路","SECT":" ","MAREA":" ","LANE":"３２９巷","ALLEY":" ","HOUSE_NO":"１號","E_COORD97":177723.73999999999,"N_COORD97":2559295.9700000002,"ADDRESS":"建國路３２９巷１號","OBJECTID":390478},"geometry":{"x":177723.74000000209,"y":2559295.9700000025}},{"attributes":{"ID":390503,"DIS_CODE":0,"TOWNNAME":"善化區","LI":"光文里","LIN":"29鄰","STREET":"建國路","SECT":" ","MAREA":" ","LANE":"３２９巷","ALLEY":" ","HOUSE_NO":"２號","E_COORD97":177694.94,"N_COORD97":2559309.8199999998,"ADDRESS":"建國路３２９巷２號","OBJECTID":390479},"geometry":{"x":177694.94000000041,"y":2559309.820000004}},{"attributes":{"ID":390504,"DIS_CODE":0,"TOWNNAME":"善化區","LI":"光文里","LIN":"29鄰","STREET":"建國路","SECT":" ","MAREA":" ","LANE":"３２９巷","ALLEY":" ","HOUSE_NO":"３號","E_COORD97":177726.62,"N_COORD97":2559286.5299999998,"ADDRESS":"建國路３２９巷３號","OBJECTID":390480},"geometry":{"x":177726.62000000104,"y":2559286.5299999993}},{"attributes":{"ID":390505,"DIS_CODE":0,"TOWNNAME":"善化區","LI":"光文里","LIN":"29鄰","STREET":"建國路","SECT":" ","MAREA":" ","LANE":"３２９巷","ALLEY":" ","HOUSE_NO":"５號","E_COORD97":177730.16,"N_COORD97":2559279.4900000002,"ADDRESS":"建國路３２９巷５號","OBJECTID":390481},"geometry":{"x":177730.16000000015,"y":2559279.4900000021}},{"attributes":{"ID":390506,"DIS_CODE":0,"TOWNNAME":"善化區","LI":"光文里","LIN":"29鄰","STREET":"建國路","SECT":" ","MAREA":" ","LANE":"３２９巷","ALLEY":" ","HOUSE_NO":"８號","E_COORD97":177701.70999999999,"N_COORD97":2559290.04,"ADDRESS":"建國路３２９巷８號","OBJECTID":390482},"geometry":{"x":177701.71000000089,"y":2559290.0400000028}},{"attributes":{"ID":390507,"DIS_CODE":0,"TOWNNAME":"善化區","LI":"光文里","LIN":"29鄰","STREET":"建國路","SECT":" ","MAREA":" ","LANE":"３２９巷","ALLEY":" ","HOUSE_NO":"９號","E_COORD97":177731.09,"N_COORD97":2559263.98,"ADDRESS":"建國路３２９巷９號","OBJECTID":390483},"geometry":{"x":177731.09000000171,"y":2559263.9800000004}},{"attributes":{"ID":390508,"DIS_CODE":0,"TOWNNAME":"善化區","LI":"光文里","LIN":"29鄰","STREET":"建國路","SECT":" ","MAREA":" ","LANE":"３２９巷","ALLEY":" ","HOUSE_NO":"１０號","E_COORD97":177702.92000000001,"N_COORD97":2559282.6099999999,"ADDRESS":"建國路３２９巷１０號","OBJECTID":390484},"geometry":{"x":177702.91999999993,"y":2559282.6099999994}},{"attributes":{"ID":390509,"DIS_CODE":0,"TOWNNAME":"善化區","LI":"光文里","LIN":"29鄰","STREET":"建國路","SECT":" ","MAREA":" ","LANE":"３２９巷","ALLEY":" ","HOUSE_NO":"１１號","E_COORD97":177732.87,"N_COORD97":2559258.2599999998,"ADDRESS":"建國路３２９巷１１號","OBJECTID":390485},"geometry":{"x":177732.87000000197,"y":2559258.2599999998}},{"attributes":{"ID":390510,"DIS_CODE":0,"TOWNNAME":"善化區","LI":"光文里","LIN":"29鄰","STREET":"建國路","SECT":" ","MAREA":" ","LANE":"３２９巷","ALLEY":" ","HOUSE_NO":"１２號","E_COORD97":177704.13,"N_COORD97":2559275.1899999999,"ADDRESS":"建國路３２９巷１２號","OBJECTID":390486},"geometry":{"x":177704.13000000082,"y":2559275.1899999995}},{"attributes":{"ID":390511,"DIS_CODE":0,"TOWNNAME":"善化區","LI":"光文里","LIN":"29鄰","STREET":"建國路","SECT":" ","MAREA":" ","LANE":"３２９巷","ALLEY":" ","HOUSE_NO":"１３號","E_COORD97":177728.45999999999,"N_COORD97":2559248.29,"ADDRESS":"建國路３２９巷１３號","OBJECTID":390487},"geometry":{"x":177728.45999999996,"y":2559248.290000001}},{"attributes":{"ID":390512,"DIS_CODE":0,"TOWNNAME":"善化區","LI":"光文里","LIN":"29鄰","STREET":"建國路","SECT":" ","MAREA":" ","LANE":"３２９巷","ALLEY":" ","HOUSE_NO":"１５號","E_COORD97":177729.29999999999,"N_COORD97":2559239.3700000001,"ADDRESS":"建國路３２９巷１５號","OBJECTID":390488},"geometry":{"x":177729.29999999981,"y":2559239.3700000029}},{"attributes":{"ID":390513,"DIS_CODE":0,"TOWNNAME":"善化區","LI":"光文里","LIN":"29鄰","STREET":"建國路","SECT":" ","MAREA":" ","LANE":"３２９巷","ALLEY":" ","HOUSE_NO":"１６號","E_COORD97":177705.10000000001,"N_COORD97":2559269.25,"ADDRESS":"建國路３２９巷１６號","OBJECTID":390489},"geometry":{"x":177705.09999999963,"y":2559269.2500000037}},{"attributes":{"ID":390514,"DIS_CODE":0,"TOWNNAME":"善化區","LI":"光文里","LIN":"29鄰","STREET":"建國路","SECT":" ","MAREA":" ","LANE":"３２９巷","ALLEY":" ","HOUSE_NO":"１８號","E_COORD97":177708.14999999999,"N_COORD97":2559260.2799999998,"ADDRESS":"建國路３２９巷１８號","OBJECTID":390490},"geometry":{"x":177708.1500000013,"y":2559260.2799999993}},{"attributes":{"ID":390515,"DIS_CODE":0,"TOWNNAME":"善化區","LI":"光文里","LIN":"29鄰","STREET":"建國路","SECT":" ","MAREA":" ","LANE":"３２９巷","ALLEY":" ","HOUSE_NO":"２０號","E_COORD97":177697.45999999999,"N_COORD97":2559252.9300000002,"ADDRESS":"建國路３２９巷２０號","OBJECTID":390491},"geometry":{"x":177697.45999999996,"y":2559252.9299999997}},{"attributes":{"ID":390516,"DIS_CODE":0,"TOWNNAME":"善化區","LI":"光文里","LIN":"29鄰","STREET":"建國路","SECT":" ","MAREA":" ","LANE":"３２９巷","ALLEY":" ","HOUSE_NO":"２２號","E_COORD97":177701.73999999999,"N_COORD97":2559244.48,"ADDRESS":"建國路３２９巷２２號","OBJECTID":390492},"geometry":{"x":177701.74000000115,"y":2559244.4800000042}},{"attributes":{"ID":390517,"DIS_CODE":0,"TOWNNAME":"善化區","LI":"光文里","LIN":"29鄰","STREET":"建國路","SECT":" ","MAREA":" ","LANE":"３２９巷","ALLEY":" ","HOUSE_NO":"２６號","E_COORD97":177700.91,"N_COORD97":2559236.0499999998,"ADDRESS":"建國路３２９巷２６號","OBJECTID":390493},"geometry":{"x":177700.91000000108,"y":2559236.0500000007}},{"attributes":{"ID":390518,"DIS_CODE":0,"TOWNNAME":"善化區","LI":"光文里","LIN":"29鄰","STREET":"建國路","SECT":" ","MAREA":" ","LANE":"３２９巷","ALLEY":" ","HOUSE_NO":"２８號","E_COORD97":177702.34,"N_COORD97":2559229.6600000001,"ADDRESS":"建國路３２９巷２８號","OBJECTID":390494},"geometry":{"x":177702.34000000171,"y":2559229.660000002}},{"attributes":{"ID":390519,"DIS_CODE":0,"TOWNNAME":"善化區","LI":"光文里","LIN":"29鄰","STREET":"建國路","SECT":" ","MAREA":" ","LANE":"３２９巷","ALLEY":" ","HOUSE_NO":"３０號","E_COORD97":177704.34,"N_COORD97":2559221.1800000002,"ADDRESS":"建國路３２９巷３０號","OBJECTID":390495},"geometry":{"x":177704.34000000078,"y":2559221.1799999997}},{"attributes":{"ID":390520,"DIS_CODE":0,"TOWNNAME":"中西區","LI":"西湖里","LIN":"29鄰","STREET":"湖美街","SECT":" ","MAREA":" ","LANE":"１０４巷","ALLEY":" ","HOUSE_NO":"１０號","E_COORD97":165977.63,"N_COORD97":2544832.5899999999,"ADDRESS":"湖美街１０４巷１０號","OBJECTID":390496},"geometry":{"x":165977.62999999989,"y":2544832.5899999999}},{"attributes":{"ID":390521,"DIS_CODE":0,"TOWNNAME":"中西區","LI":"西湖里","LIN":"29鄰","STREET":"湖美街","SECT":" ","MAREA":" ","LANE":"１０４巷","ALLEY":" ","HOUSE_NO":"１２號","E_COORD97":165982.17999999999,"N_COORD97":2544832.8599999999,"ADDRESS":"湖美街１０４巷１２號","OBJECTID":390497},"geometry":{"x":165982.1799999997,"y":2544832.8600000013}},{"attributes":{"ID":390522,"DIS_CODE":0,"TOWNNAME":"中西區","LI":"西湖里","LIN":"29鄰","STREET":"湖美街","SECT":" ","MAREA":" ","LANE":"１０４巷","ALLEY":" ","HOUSE_NO":"１４號","E_COORD97":165985.92000000001,"N_COORD97":2544833.6600000001,"ADDRESS":"湖美街１０４巷１４號","OBJECTID":390498},"geometry":{"x":165985.91999999993,"y":2544833.6600000039}},{"attributes":{"ID":390523,"DIS_CODE":0,"TOWNNAME":"中西區","LI":"西湖里","LIN":"29鄰","STREET":"湖美街","SECT":" ","MAREA":" ","LANE":"１０４巷","ALLEY":" ","HOUSE_NO":"１６號","E_COORD97":165990.20000000001,"N_COORD97":2544832.5899999999,"ADDRESS":"湖美街１０４巷１６號","OBJECTID":390499},"geometry":{"x":165990.20000000112,"y":2544832.5899999999}},{"attributes":{"ID":390524,"DIS_CODE":0,"TOWNNAME":"中西區","LI":"西湖里","LIN":"29鄰","STREET":"湖美街","SECT":" ","MAREA":" ","LANE":"１０４巷","ALLEY":" ","HOUSE_NO":"１８號","E_COORD97":165993.94,"N_COORD97":2544833.9300000002,"ADDRESS":"湖美街１０４巷１８號","OBJECTID":390500},"geometry":{"x":165993.94000000134,"y":2544833.9299999997}},{"attributes":{"ID":390525,"DIS_CODE":0,"TOWNNAME":"中西區","LI":"西湖里","LIN":"29鄰","STREET":"湖美街","SECT":" ","MAREA":" ","LANE":"１０４巷","ALLEY":" ","HOUSE_NO":"２０號","E_COORD97":165998.48999999999,"N_COORD97":2544833.1200000001,"ADDRESS":"湖美街１０４巷２０號","OBJECTID":390501},"geometry":{"x":165998.49000000115,"y":2544833.1200000029}},{"attributes":{"ID":390526,"DIS_CODE":0,"TOWNNAME":"中西區","LI":"西湖里","LIN":"29鄰","STREET":"湖美街","SECT":" ","MAREA":" ","LANE":"１０４巷","ALLEY":" ","HOUSE_NO":"２２號","E_COORD97":166001.95999999999,"N_COORD97":2544834.1899999999,"ADDRESS":"湖美街１０４巷２２號","OBJECTID":390502},"geometry":{"x":166001.96000000089,"y":2544834.1900000013}},{"attributes":{"ID":390527,"DIS_CODE":0,"TOWNNAME":"中西區","LI":"西湖里","LIN":"29鄰","STREET":"湖美街","SECT":" ","MAREA":" ","LANE":"１０４巷","ALLEY":" ","HOUSE_NO":"２４號","E_COORD97":166006.23999999999,"N_COORD97":2544834.46,"ADDRESS":"湖美街１０４巷２４號","OBJECTID":390503},"geometry":{"x":166006.24000000022,"y":2544834.4600000009}},{"attributes":{"ID":390528,"DIS_CODE":0,"TOWNNAME":"中西區","LI":"西湖里","LIN":"29鄰","STREET":"湖美街","SECT":" ","MAREA":" ","LANE":"１０４巷","ALLEY":" ","HOUSE_NO":"２６號","E_COORD97":166010.25,"N_COORD97":2544835.7999999998,"ADDRESS":"湖美街１０４巷２６號","OBJECTID":390504},"geometry":{"x":166010.25000000093,"y":2544835.8000000007}},{"attributes":{"ID":390529,"DIS_CODE":0,"TOWNNAME":"中西區","LI":"西湖里","LIN":"29鄰","STREET":"湖美街","SECT":" ","MAREA":" ","LANE":"１０４巷","ALLEY":" ","HOUSE_NO":"２８號","E_COORD97":166014.26999999999,"N_COORD97":2544834.1899999999,"ADDRESS":"湖美街１０４巷２８號","OBJECTID":390505},"geometry":{"x":166014.27000000048,"y":2544834.1900000013}},{"attributes":{"ID":390530,"DIS_CODE":0,"TOWNNAME":"中西區","LI":"西湖里","LIN":"29鄰","STREET":"湖美街","SECT":" ","MAREA":" ","LANE":"１０４巷","ALLEY":" ","HOUSE_NO":"２號","E_COORD97":165961.57999999999,"N_COORD97":2544832.0600000001,"ADDRESS":"湖美街１０４巷２號","OBJECTID":390506},"geometry":{"x":165961.58000000194,"y":2544832.0600000024}},{"attributes":{"ID":390531,"DIS_CODE":0,"TOWNNAME":"中西區","LI":"西湖里","LIN":"29鄰","STREET":"湖美街","SECT":" ","MAREA":" ","LANE":"１０４巷","ALLEY":" ","HOUSE_NO":"４號","E_COORD97":165965.32999999999,"N_COORD97":2544832.8599999999,"ADDRESS":"湖美街１０４巷４號","OBJECTID":390507},"geometry":{"x":165965.33000000101,"y":2544832.8600000013}},{"attributes":{"ID":390532,"DIS_CODE":0,"TOWNNAME":"中西區","LI":"西湖里","LIN":"29鄰","STREET":"湖美街","SECT":" ","MAREA":" ","LANE":"１０４巷","ALLEY":" ","HOUSE_NO":"６號","E_COORD97":165969.60999999999,"N_COORD97":2544832.5899999999,"ADDRESS":"湖美街１０４巷６號","OBJECTID":390508},"geometry":{"x":165969.61000000034,"y":2544832.5899999999}},{"attributes":{"ID":390533,"DIS_CODE":0,"TOWNNAME":"中西區","LI":"西湖里","LIN":"29鄰","STREET":"湖美街","SECT":" ","MAREA":" ","LANE":"１０４巷","ALLEY":" ","HOUSE_NO":"８號","E_COORD97":165973.89000000001,"N_COORD97":2544833.3900000001,"ADDRESS":"湖美街１０４巷８號","OBJECTID":390509},"geometry":{"x":165973.88999999966,"y":2544833.3900000025}},{"attributes":{"ID":390534,"DIS_CODE":0,"TOWNNAME":"中西區","LI":"西湖里","LIN":"29鄰","STREET":"湖美街","SECT":" ","MAREA":" ","LANE":"８２巷","ALLEY":" ","HOUSE_NO":"１０號","E_COORD97":165979.23000000001,"N_COORD97":2544786.1200000001,"ADDRESS":"湖美街８２巷１０號","OBJECTID":390510},"geometry":{"x":165979.23000000045,"y":2544786.120000001}},{"attributes":{"ID":390535,"DIS_CODE":0,"TOWNNAME":"中西區","LI":"西湖里","LIN":"29鄰","STREET":"湖美街","SECT":" ","MAREA":" ","LANE":"８２巷","ALLEY":" ","HOUSE_NO":"１１號","E_COORD97":165982.44,"N_COORD97":2544812.29,"ADDRESS":"湖美街８２巷１１號","OBJECTID":390511},"geometry":{"x":165982.44000000041,"y":2544812.290000001}},{"attributes":{"ID":390536,"DIS_CODE":0,"TOWNNAME":"中西區","LI":"西湖里","LIN":"29鄰","STREET":"湖美街","SECT":" ","MAREA":" ","LANE":"８２巷","ALLEY":" ","HOUSE_NO":"１２號","E_COORD97":165983.51000000001,"N_COORD97":2544787.7200000002,"ADDRESS":"湖美街８２巷１２號","OBJECTID":390512},"geometry":{"x":165983.50999999978,"y":2544787.7200000025}},{"attributes":{"ID":390537,"DIS_CODE":0,"TOWNNAME":"中西區","LI":"西湖里","LIN":"29鄰","STREET":"湖美街","SECT":" ","MAREA":" ","LANE":"８２巷","ALLEY":" ","HOUSE_NO":"１３號","E_COORD97":165986.98999999999,"N_COORD97":2544811.4900000002,"ADDRESS":"湖美街８２巷１３號","OBJECTID":390513},"geometry":{"x":165986.99000000022,"y":2544811.4900000021}},{"attributes":{"ID":390538,"DIS_CODE":0,"TOWNNAME":"中西區","LI":"西湖里","LIN":"29鄰","STREET":"湖美街","SECT":" ","MAREA":" ","LANE":"８２巷","ALLEY":" ","HOUSE_NO":"１４號","E_COORD97":165987.79000000001,"N_COORD97":2544786.9199999999,"ADDRESS":"湖美街８２巷１４號","OBJECTID":390514},"geometry":{"x":165987.79000000097,"y":2544786.9199999999}},{"attributes":{"ID":390539,"DIS_CODE":0,"TOWNNAME":"中西區","LI":"西湖里","LIN":"29鄰","STREET":"湖美街","SECT":" ","MAREA":" ","LANE":"８２巷","ALLEY":" ","HOUSE_NO":"１５號","E_COORD97":165991,"N_COORD97":2544812.29,"ADDRESS":"湖美街８２巷１５號","OBJECTID":390515},"geometry":{"x":165991.00000000186,"y":2544812.290000001}},{"attributes":{"ID":390540,"DIS_CODE":0,"TOWNNAME":"中西區","LI":"西湖里","LIN":"29鄰","STREET":"湖美街","SECT":" ","MAREA":" ","LANE":"８２巷","ALLEY":" ","HOUSE_NO":"１６號","E_COORD97":165991.26999999999,"N_COORD97":2544787.9900000002,"ADDRESS":"湖美街８２巷１６號","OBJECTID":390516},"geometry":{"x":165991.26999999955,"y":2544787.9900000021}},{"attributes":{"ID":390541,"DIS_CODE":0,"TOWNNAME":"中西區","LI":"西湖里","LIN":"29鄰","STREET":"湖美街","SECT":" ","MAREA":" ","LANE":"８２巷","ALLEY":" ","HOUSE_NO":"１７號","E_COORD97":165995.01000000001,"N_COORD97":2544812.29,"ADDRESS":"湖美街８２巷１７號","OBJECTID":390517},"geometry":{"x":165995.00999999978,"y":2544812.290000001}},{"attributes":{"ID":390542,"DIS_CODE":0,"TOWNNAME":"中西區","LI":"西湖里","LIN":"29鄰","STREET":"湖美街","SECT":" ","MAREA":" ","LANE":"８２巷","ALLEY":" ","HOUSE_NO":"１８號","E_COORD97":165995.81,"N_COORD97":2544787.1899999999,"ADDRESS":"湖美街８２巷１８號","OBJECTID":390518},"geometry":{"x":165995.81000000052,"y":2544787.1899999995}},{"attributes":{"ID":390543,"DIS_CODE":0,"TOWNNAME":"中西區","LI":"西湖里","LIN":"29鄰","STREET":"湖美街","SECT":" ","MAREA":" ","LANE":"８２巷","ALLEY":" ","HOUSE_NO":"１９號","E_COORD97":165998.76000000001,"N_COORD97":2544813.6299999999,"ADDRESS":"湖美街８２巷１９號","OBJECTID":390519},"geometry":{"x":165998.75999999978,"y":2544813.6300000008}},{"attributes":{"ID":390544,"DIS_CODE":0,"TOWNNAME":"中西區","LI":"西湖里","LIN":"29鄰","STREET":"湖美街","SECT":" ","MAREA":" ","LANE":"８２巷","ALLEY":" ","HOUSE_NO":"１號","E_COORD97":165962.12,"N_COORD97":2544811.4900000002,"ADDRESS":"湖美街８２巷１號","OBJECTID":390520},"geometry":{"x":165962.12000000104,"y":2544811.4900000021}},{"attributes":{"ID":390545,"DIS_CODE":0,"TOWNNAME":"中西區","LI":"西湖里","LIN":"29鄰","STREET":"湖美街","SECT":" ","MAREA":" ","LANE":"８２巷","ALLEY":" ","HOUSE_NO":"２０號","E_COORD97":165999.29000000001,"N_COORD97":2544787.9900000002,"ADDRESS":"湖美街８２巷２０號","OBJECTID":390521},"geometry":{"x":165999.2900000019,"y":2544787.9900000021}},{"attributes":{"ID":390546,"DIS_CODE":0,"TOWNNAME":"中西區","LI":"西湖里","LIN":"29鄰","STREET":"湖美街","SECT":" ","MAREA":" ","LANE":"８２巷","ALLEY":" ","HOUSE_NO":"２１號","E_COORD97":166003.03,"N_COORD97":2544812.8300000001,"ADDRESS":"湖美街８２巷２１號","OBJECTID":390522},"geometry":{"x":166003.03000000119,"y":2544812.8300000019}},{"attributes":{"ID":390547,"DIS_CODE":0,"TOWNNAME":"中西區","LI":"西湖里","LIN":"29鄰","STREET":"湖美街","SECT":" ","MAREA":" ","LANE":"８２巷","ALLEY":" ","HOUSE_NO":"２２號","E_COORD97":166003.57000000001,"N_COORD97":2544787.1899999999,"ADDRESS":"湖美街８２巷２２號","OBJECTID":390523},"geometry":{"x":166003.5700000003,"y":2544787.1899999995}},{"attributes":{"ID":390548,"DIS_CODE":0,"TOWNNAME":"中西區","LI":"西湖里","LIN":"29鄰","STREET":"湖美街","SECT":" ","MAREA":" ","LANE":"８２巷","ALLEY":" ","HOUSE_NO":"２３號","E_COORD97":166007.31,"N_COORD97":2544813.6299999999,"ADDRESS":"湖美街８２巷２３號","OBJECTID":390524},"geometry":{"x":166007.31000000052,"y":2544813.6300000008}},{"attributes":{"ID":390549,"DIS_CODE":0,"TOWNNAME":"中西區","LI":"西湖里","LIN":"29鄰","STREET":"湖美街","SECT":" ","MAREA":" ","LANE":"８２巷","ALLEY":" ","HOUSE_NO":"２４號","E_COORD97":166007.31,"N_COORD97":2544787.9900000002,"ADDRESS":"湖美街８２巷２４號","OBJECTID":390525},"geometry":{"x":166007.31000000052,"y":2544787.9900000021}},{"attributes":{"ID":390550,"DIS_CODE":0,"TOWNNAME":"中西區","LI":"西湖里","LIN":"29鄰","STREET":"湖美街","SECT":" ","MAREA":" ","LANE":"８２巷","ALLEY":" ","HOUSE_NO":"２５號","E_COORD97":166011.32000000001,"N_COORD97":2544812.8300000001,"ADDRESS":"湖美街８２巷２５號","OBJECTID":390526},"geometry":{"x":166011.32000000123,"y":2544812.8300000019}},{"attributes":{"ID":390551,"DIS_CODE":0,"TOWNNAME":"中西區","LI":"西湖里","LIN":"29鄰","STREET":"湖美街","SECT":" ","MAREA":" ","LANE":"８２巷","ALLEY":" ","HOUSE_NO":"２６號","E_COORD97":166011.85999999999,"N_COORD97":2544789.0600000001,"ADDRESS":"湖美街８２巷２６號","OBJECTID":390527},"geometry":{"x":166011.86000000034,"y":2544789.0600000005}},{"attributes":{"ID":390552,"DIS_CODE":0,"TOWNNAME":"中西區","LI":"西湖里","LIN":"29鄰","STREET":"湖美街","SECT":" ","MAREA":" ","LANE":"８２巷","ALLEY":" ","HOUSE_NO":"２７號","E_COORD97":166014.79999999999,"N_COORD97":2544813.6299999999,"ADDRESS":"湖美街８２巷２７號","OBJECTID":390528},"geometry":{"x":166014.80000000075,"y":2544813.6300000008}},{"attributes":{"ID":390553,"DIS_CODE":0,"TOWNNAME":"中西區","LI":"西湖里","LIN":"29鄰","STREET":"湖美街","SECT":" ","MAREA":" ","LANE":"８２巷","ALLEY":" ","HOUSE_NO":"２８號","E_COORD97":166015.87,"N_COORD97":2544788.52,"ADDRESS":"湖美街８２巷２８號","OBJECTID":390529},"geometry":{"x":166015.87000000104,"y":2544788.5199999996}},{"attributes":{"ID":390554,"DIS_CODE":0,"TOWNNAME":"中西區","LI":"西湖里","LIN":"29鄰","STREET":"湖美街","SECT":" ","MAREA":" ","LANE":"８２巷","ALLEY":" ","HOUSE_NO":"２號","E_COORD97":165963.19,"N_COORD97":2544786.9199999999,"ADDRESS":"湖美街８２巷２號","OBJECTID":390530},"geometry":{"x":165963.19000000134,"y":2544786.9199999999}},{"attributes":{"ID":390555,"DIS_CODE":0,"TOWNNAME":"中西區","LI":"西湖里","LIN":"29鄰","STREET":"湖美街","SECT":" ","MAREA":" ","LANE":"８２巷","ALLEY":" ","HOUSE_NO":"３０號","E_COORD97":166020.14999999999,"N_COORD97":2544788.52,"ADDRESS":"湖美街８２巷３０號","OBJECTID":390531},"geometry":{"x":166020.15000000037,"y":2544788.5199999996}},{"attributes":{"ID":390556,"DIS_CODE":0,"TOWNNAME":"中西區","LI":"西湖里","LIN":"29鄰","STREET":"湖美街","SECT":" ","MAREA":" ","LANE":"８２巷","ALLEY":" ","HOUSE_NO":"３號","E_COORD97":165966.13,"N_COORD97":2544811.2200000002,"ADDRESS":"湖美街８２巷３號","OBJECTID":390532},"geometry":{"x":165966.13000000175,"y":2544811.2200000025}},{"attributes":{"ID":390557,"DIS_CODE":0,"TOWNNAME":"中西區","LI":"西湖里","LIN":"29鄰","STREET":"湖美街","SECT":" ","MAREA":" ","LANE":"８２巷","ALLEY":" ","HOUSE_NO":"４號","E_COORD97":165967.47,"N_COORD97":2544786.9199999999,"ADDRESS":"湖美街８２巷４號","OBJECTID":390533},"geometry":{"x":165967.47000000067,"y":2544786.9199999999}},{"attributes":{"ID":390558,"DIS_CODE":0,"TOWNNAME":"中西區","LI":"西湖里","LIN":"29鄰","STREET":"湖美街","SECT":" ","MAREA":" ","LANE":"８２巷","ALLEY":" ","HOUSE_NO":"７號","E_COORD97":165974.14999999999,"N_COORD97":2544811.4900000002,"ADDRESS":"湖美街８２巷７號","OBJECTID":390534},"geometry":{"x":165974.1500000013,"y":2544811.4900000021}},{"attributes":{"ID":390559,"DIS_CODE":0,"TOWNNAME":"中西區","LI":"西湖里","LIN":"29鄰","STREET":"湖美街","SECT":" ","MAREA":" ","LANE":"８２巷","ALLEY":" ","HOUSE_NO":"８號","E_COORD97":165975.22,"N_COORD97":2544786.9199999999,"ADDRESS":"湖美街８２巷８號","OBJECTID":390535},"geometry":{"x":165975.21999999974,"y":2544786.9199999999}},{"attributes":{"ID":390560,"DIS_CODE":0,"TOWNNAME":"中西區","LI":"西湖里","LIN":"29鄰","STREET":"湖美街","SECT":" ","MAREA":" ","LANE":"８２巷","ALLEY":" ","HOUSE_NO":"９號","E_COORD97":165978.70000000001,"N_COORD97":2544811.7599999998,"ADDRESS":"湖美街８２巷９號","OBJECTID":390536},"geometry":{"x":165978.70000000112,"y":2544811.7599999998}},{"attributes":{"ID":390561,"DIS_CODE":0,"TOWNNAME":"新市區","LI":"新市里","LIN":"29鄰","STREET":"復興路","SECT":" ","MAREA":" ","LANE":"６２巷","ALLEY":" ","HOUSE_NO":"２２號","E_COORD97":177897.89000000001,"N_COORD97":2553473.5299999998,"ADDRESS":"復興路６２巷２２號","OBJECTID":390537},"geometry":{"x":177897.88999999966,"y":2553473.5300000012}},{"attributes":{"ID":390562,"DIS_CODE":0,"TOWNNAME":"新市區","LI":"新市里","LIN":"29鄰","STREET":"復興路","SECT":" ","MAREA":" ","LANE":"６２巷","ALLEY":" ","HOUSE_NO":"２４號","E_COORD97":177902.29000000001,"N_COORD97":2553473.5299999998,"ADDRESS":"復興路６２巷２４號","OBJECTID":390538},"geometry":{"x":177902.29000000004,"y":2553473.5300000012}},{"attributes":{"ID":390563,"DIS_CODE":0,"TOWNNAME":"東區","LI":"虎尾里","LIN":"29鄰","STREET":"東成街","SECT":" ","MAREA":" ","LANE":"２００巷","ALLEY":" ","HOUSE_NO":"７２號","E_COORD97":171873.95000000001,"N_COORD97":2542114.7000000002,"ADDRESS":"東成街２００巷７２號","OBJECTID":390539},"geometry":{"x":171873.95000000112,"y":2542114.7000000011}},{"attributes":{"ID":390564,"DIS_CODE":0,"TOWNNAME":"永康區","LI":"復華里","LIN":"29鄰","STREET":"國華街","SECT":" ","MAREA":" ","LANE":"１３６巷","ALLEY":" ","HOUSE_NO":"１４號","E_COORD97":172671.39999999999,"N_COORD97":2546206.5,"ADDRESS":"國華街１３６巷１４號","OBJECTID":390540},"geometry":{"x":172671.4000000013,"y":2546206.5}},{"attributes":{"ID":390565,"DIS_CODE":0,"TOWNNAME":"永康區","LI":"復華里","LIN":"29鄰","STREET":"國華街","SECT":" ","MAREA":" ","LANE":"１３６巷","ALLEY":" ","HOUSE_NO":"１０號","E_COORD97":172666.64999999999,"N_COORD97":2546199,"ADDRESS":"國華街１３６巷１０號","OBJECTID":390541},"geometry":{"x":172666.6500000013,"y":2546199.0000000019}},{"attributes":{"ID":390566,"DIS_CODE":0,"TOWNNAME":"永康區","LI":"勝利里","LIN":"29鄰","STREET":"勝利街","SECT":" ","MAREA":" ","LANE":"４２巷","ALLEY":" ","HOUSE_NO":"８號","E_COORD97":171367.51999999999,"N_COORD97":2544620.5,"ADDRESS":"勝利街４２巷８號","OBJECTID":390542},"geometry":{"x":171367.52000000142,"y":2544620.5}},{"attributes":{"ID":390567,"DIS_CODE":0,"TOWNNAME":"永康區","LI":"復國里","LIN":"29鄰","STREET":"復華二街","SECT":" ","MAREA":" ","LANE":"２３巷","ALLEY":" ","HOUSE_NO":"５號","E_COORD97":172591.14999999999,"N_COORD97":2545322.77,"ADDRESS":"復華二街２３巷５號","OBJECTID":390543},"geometry":{"x":172591.15000000037,"y":2545322.7699999996}},{"attributes":{"ID":390568,"DIS_CODE":0,"TOWNNAME":"永康區","LI":"勝利里","LIN":"29鄰","STREET":"勝利街","SECT":" ","MAREA":" ","LANE":"３２巷","ALLEY":" ","HOUSE_NO":"３號","E_COORD97":171353.20000000001,"N_COORD97":2544604.96,"ADDRESS":"勝利街３２巷３號","OBJECTID":390544},"geometry":{"x":171353.19999999925,"y":2544604.959999999}},{"attributes":{"ID":390569,"DIS_CODE":0,"TOWNNAME":"永康區","LI":"復華里","LIN":"29鄰","STREET":"國華街","SECT":" ","MAREA":" ","LANE":"１２３巷","ALLEY":" ","HOUSE_NO":"１９號","E_COORD97":172601.72,"N_COORD97":2546224.75,"ADDRESS":"國華街１２３巷１９號","OBJECTID":390545},"geometry":{"x":172601.71999999974,"y":2546224.75}},{"attributes":{"ID":390570,"DIS_CODE":0,"TOWNNAME":"永康區","LI":"復華里","LIN":"29鄰","STREET":"國華街","SECT":" ","MAREA":" ","LANE":"１２３巷","ALLEY":" ","HOUSE_NO":"７號","E_COORD97":172617.01000000001,"N_COORD97":2546250.4900000002,"ADDRESS":"國華街１２３巷７號","OBJECTID":390546},"geometry":{"x":172617.00999999885,"y":2546250.4900000002}},{"attributes":{"ID":390571,"DIS_CODE":0,"TOWNNAME":"東區","LI":"莊敬里","LIN":"17鄰","STREET":"中華東路","SECT":"一段","MAREA":" ","LANE":"８０巷","ALLEY":" ","HOUSE_NO":"１５號","E_COORD97":171441.39999999999,"N_COORD97":2544134.5299999998,"ADDRESS":"中華東路一段８０巷１５號","OBJECTID":390547},"geometry":{"x":171441.40000000037,"y":2544134.5299999993}},{"attributes":{"ID":390572,"DIS_CODE":0,"TOWNNAME":"東區","LI":"莊敬里","LIN":"17鄰","STREET":"中華東路","SECT":"一段","MAREA":" ","LANE":"８０巷","ALLEY":" ","HOUSE_NO":"１７號","E_COORD97":171437.34,"N_COORD97":2544133.6400000001,"ADDRESS":"中華東路一段８０巷１７號","OBJECTID":390548},"geometry":{"x":171437.34000000078,"y":2544133.6400000025}},{"attributes":{"ID":390573,"DIS_CODE":0,"TOWNNAME":"東區","LI":"莊敬里","LIN":"17鄰","STREET":"中華東路","SECT":"一段","MAREA":" ","LANE":"８０巷","ALLEY":" ","HOUSE_NO":"１３號","E_COORD97":171445.73000000001,"N_COORD97":2544133.6200000001,"ADDRESS":"中華東路一段８０巷１３號","OBJECTID":390549},"geometry":{"x":171445.73000000138,"y":2544133.6200000029}},{"attributes":{"ID":390574,"DIS_CODE":0,"TOWNNAME":"東區","LI":"莊敬里","LIN":"17鄰","STREET":"莊敬路","SECT":" ","MAREA":" ","LANE":"１５８巷","ALLEY":" ","HOUSE_NO":"２１號","E_COORD97":171443.85999999999,"N_COORD97":2544090.0699999998,"ADDRESS":"莊敬路１５８巷２１號","OBJECTID":390550},"geometry":{"x":171443.8599999994,"y":2544090.0700000022}},{"attributes":{"ID":390575,"DIS_CODE":0,"TOWNNAME":"永康區","LI":"復華里","LIN":"29鄰","STREET":"國華街","SECT":" ","MAREA":" ","LANE":"１２３巷","ALLEY":" ","HOUSE_NO":"９號","E_COORD97":172614.62,"N_COORD97":2546245.75,"ADDRESS":"國華街１２３巷９號","OBJECTID":390551},"geometry":{"x":172614.62000000011,"y":2546245.75}},{"attributes":{"ID":390576,"DIS_CODE":0,"TOWNNAME":"永康區","LI":"復華里","LIN":"29鄰","STREET":"國華街","SECT":" ","MAREA":" ","LANE":"１２３巷","ALLEY":" ","HOUSE_NO":"１２號","E_COORD97":172602.35999999999,"N_COORD97":2546252.4300000002,"ADDRESS":"國華街１２３巷１２號","OBJECTID":390552},"geometry":{"x":172602.36000000127,"y":2546252.4300000016}},{"attributes":{"ID":390577,"DIS_CODE":0,"TOWNNAME":"永康區","LI":"復國里","LIN":"29鄰","STREET":"復華二街","SECT":" ","MAREA":" ","LANE":"１巷","ALLEY":" ","HOUSE_NO":"５號","E_COORD97":172685.42999999999,"N_COORD97":2545317.77,"ADDRESS":"復華二街１巷５號","OBJECTID":390553},"geometry":{"x":172685.43000000156,"y":2545317.7700000014}},{"attributes":{"ID":390578,"DIS_CODE":0,"TOWNNAME":"永康區","LI":"復華里","LIN":"29鄰","STREET":"國華街","SECT":" ","MAREA":" ","LANE":"１２３巷","ALLEY":" ","HOUSE_NO":"２０號","E_COORD97":172590.76999999999,"N_COORD97":2546235.6899999999,"ADDRESS":"國華街１２３巷２０號","OBJECTID":390554},"geometry":{"x":172590.76999999955,"y":2546235.6899999995}},{"attributes":{"ID":390579,"DIS_CODE":0,"TOWNNAME":"永康區","LI":"復華里","LIN":"29鄰","STREET":"國華街","SECT":" ","MAREA":" ","LANE":"１２３巷","ALLEY":" ","HOUSE_NO":"３號","E_COORD97":172622.42000000001,"N_COORD97":2546258.4900000002,"ADDRESS":"國華街１２３巷３號","OBJECTID":390555},"geometry":{"x":172622.41999999993,"y":2546258.4900000002}},{"attributes":{"ID":390580,"DIS_CODE":0,"TOWNNAME":"永康區","LI":"復華里","LIN":"29鄰","STREET":"國華街","SECT":" ","MAREA":" ","LANE":"１２３巷","ALLEY":" ","HOUSE_NO":"１７號","E_COORD97":172604.37,"N_COORD97":2546229,"ADDRESS":"國華街１２３巷１７號","OBJECTID":390556},"geometry":{"x":172604.37000000011,"y":2546229.0000000019}},{"attributes":{"ID":390581,"DIS_CODE":0,"TOWNNAME":"東區","LI":"虎尾里","LIN":"5鄰","STREET":"富農街","SECT":"一段","MAREA":" ","LANE":"４０巷","ALLEY":" ","HOUSE_NO":"９號","E_COORD97":171522.28,"N_COORD97":2542116.3700000001,"ADDRESS":"富農街一段４０巷９號","OBJECTID":390557},"geometry":{"x":171522.27999999933,"y":2542116.370000001}},{"attributes":{"ID":390582,"DIS_CODE":0,"TOWNNAME":"東區","LI":"富強里","LIN":"5鄰","STREET":"東門路","SECT":"二段","MAREA":" ","LANE":"３０１巷","ALLEY":" ","HOUSE_NO":"９２號","E_COORD97":170965.23000000001,"N_COORD97":2542712.1000000001,"ADDRESS":"東門路二段３０１巷９２號","OBJECTID":390558},"geometry":{"x":170965.23000000231,"y":2542712.1000000015}},{"attributes":{"ID":390583,"DIS_CODE":0,"TOWNNAME":"東區","LI":"富強里","LIN":"5鄰","STREET":"東門路","SECT":"二段","MAREA":" ","LANE":"３０１巷","ALLEY":" ","HOUSE_NO":"１０４號","E_COORD97":170991.79999999999,"N_COORD97":2542711.4199999999,"ADDRESS":"東門路二段３０１巷１０４號","OBJECTID":390559},"geometry":{"x":170991.80000000075,"y":2542711.4199999999}},{"attributes":{"ID":390584,"DIS_CODE":0,"TOWNNAME":"東區","LI":"虎尾里","LIN":"29鄰","STREET":"東成街","SECT":" ","MAREA":" ","LANE":"２００巷","ALLEY":" ","HOUSE_NO":"７６號","E_COORD97":171873.42999999999,"N_COORD97":2542106.8300000001,"ADDRESS":"東成街２００巷７６號","OBJECTID":390560},"geometry":{"x":171873.43000000156,"y":2542106.8300000019}},{"attributes":{"ID":390585,"DIS_CODE":0,"TOWNNAME":"東區","LI":"虎尾里","LIN":"29鄰","STREET":"東成街","SECT":" ","MAREA":" ","LANE":"２００巷","ALLEY":" ","HOUSE_NO":"７８號","E_COORD97":171873.56,"N_COORD97":2542103.02,"ADDRESS":"東成街２００巷７８號","OBJECTID":390561},"geometry":{"x":171873.55999999959,"y":2542103.0199999996}},{"attributes":{"ID":390586,"DIS_CODE":0,"TOWNNAME":"東區","LI":"虎尾里","LIN":"29鄰","STREET":"東成街","SECT":" ","MAREA":" ","LANE":"２００巷","ALLEY":" ","HOUSE_NO":"８０號","E_COORD97":171873.16,"N_COORD97":2542098.6899999999,"ADDRESS":"東成街２００巷８０號","OBJECTID":390562},"geometry":{"x":171873.16000000015,"y":2542098.6899999995}},{"attributes":{"ID":390587,"DIS_CODE":0,"TOWNNAME":"仁德區","LI":"太子里","LIN":"29鄰","STREET":"太子四街","SECT":" ","MAREA":" ","LANE":"３５巷","ALLEY":" ","HOUSE_NO":"７號","E_COORD97":173104.76000000001,"N_COORD97":2542995.5099999998,"ADDRESS":"太子四街３５巷７號","OBJECTID":390563},"geometry":{"x":173104.75999999978,"y":2542995.5099999998}},{"attributes":{"ID":390588,"DIS_CODE":0,"TOWNNAME":"仁德區","LI":"太子里","LIN":"29鄰","STREET":"太子四街","SECT":" ","MAREA":" ","LANE":"３５巷","ALLEY":" ","HOUSE_NO":"６號","E_COORD97":173090.76999999999,"N_COORD97":2542986.2599999998,"ADDRESS":"太子四街３５巷６號","OBJECTID":390564},"geometry":{"x":173090.76999999955,"y":2542986.2600000016}},{"attributes":{"ID":390589,"DIS_CODE":0,"TOWNNAME":"仁德區","LI":"太子里","LIN":"29鄰","STREET":"太子四街","SECT":" ","MAREA":" ","LANE":"３５巷","ALLEY":" ","HOUSE_NO":"１１號","E_COORD97":173118.20999999999,"N_COORD97":2542991.0099999998,"ADDRESS":"太子四街３５巷１１號","OBJECTID":390565},"geometry":{"x":173118.21000000089,"y":2542991.0100000016}},{"attributes":{"ID":390590,"DIS_CODE":0,"TOWNNAME":"仁德區","LI":"太子里","LIN":"29鄰","STREET":"太子四街","SECT":" ","MAREA":" ","LANE":"３５巷","ALLEY":" ","HOUSE_NO":"５號","E_COORD97":173092.10000000001,"N_COORD97":2543000.0099999998,"ADDRESS":"太子四街３５巷５號","OBJECTID":390566},"geometry":{"x":173092.09999999963,"y":2543000.0100000035}},{"attributes":{"ID":390591,"DIS_CODE":0,"TOWNNAME":"仁德區","LI":"太子里","LIN":"29鄰","STREET":"太子四街","SECT":" ","MAREA":" ","LANE":"４１巷","ALLEY":" ","HOUSE_NO":"１１號","E_COORD97":173099.06,"N_COORD97":2542942.75,"ADDRESS":"太子四街４１巷１１號","OBJECTID":390567},"geometry":{"x":173099.05999999959,"y":2542942.75}},{"attributes":{"ID":390592,"DIS_CODE":0,"TOWNNAME":"仁德區","LI":"太子里","LIN":"29鄰","STREET":"太子四街","SECT":" ","MAREA":" ","LANE":"３５巷","ALLEY":" ","HOUSE_NO":"１號","E_COORD97":173067.48000000001,"N_COORD97":2543011.0099999998,"ADDRESS":"太子四街３５巷１號","OBJECTID":390568},"geometry":{"x":173067.48000000138,"y":2543011.0100000016}},{"attributes":{"ID":390593,"DIS_CODE":0,"TOWNNAME":"仁德區","LI":"太子里","LIN":"29鄰","STREET":"太子四街","SECT":" ","MAREA":" ","LANE":"２１巷","ALLEY":" ","HOUSE_NO":"５號","E_COORD97":173123.34,"N_COORD97":2543162,"ADDRESS":"太子四街２１巷５號","OBJECTID":390569},"geometry":{"x":173123.33999999985,"y":2543162}},{"attributes":{"ID":390594,"DIS_CODE":0,"TOWNNAME":"永康區","LI":"崑山里","LIN":"29鄰","STREET":"大仁街","SECT":" ","MAREA":" ","LANE":"１０７巷","ALLEY":" ","HOUSE_NO":"１８號","E_COORD97":173786.82999999999,"N_COORD97":2544823.8700000001,"ADDRESS":"大仁街１０７巷１８號","OBJECTID":390570},"geometry":{"x":173786.83000000101,"y":2544823.8700000029}},{"attributes":{"ID":390595,"DIS_CODE":0,"TOWNNAME":"永康區","LI":"崑山里","LIN":"29鄰","STREET":"大灣路","SECT":" ","MAREA":" ","LANE":"９４２巷","ALLEY":" ","HOUSE_NO":"１４４號","E_COORD97":173763.13,"N_COORD97":2544866.8199999998,"ADDRESS":"大灣路９４２巷１４４號","OBJECTID":390571},"geometry":{"x":173763.13000000082,"y":2544866.820000004}},{"attributes":{"ID":390596,"DIS_CODE":0,"TOWNNAME":"永康區","LI":"崑山里","LIN":"29鄰","STREET":"大仁街","SECT":" ","MAREA":" ","LANE":"１０７巷","ALLEY":" ","HOUSE_NO":"１６號","E_COORD97":173790.85000000001,"N_COORD97":2544822.3700000001,"ADDRESS":"大仁街１０７巷１６號","OBJECTID":390572},"geometry":{"x":173790.84999999963,"y":2544822.370000001}},{"attributes":{"ID":390597,"DIS_CODE":0,"TOWNNAME":"安南區","LI":"安富里","LIN":"29鄰","STREET":"府安路","SECT":"五段","MAREA":" ","LANE":"２２３巷","ALLEY":" ","HOUSE_NO":"１００號","E_COORD97":167481.13,"N_COORD97":2547165.9300000002,"ADDRESS":"府安路五段２２３巷１００號","OBJECTID":390573},"geometry":{"x":167481.12999999989,"y":2547165.9299999997}},{"attributes":{"ID":390598,"DIS_CODE":0,"TOWNNAME":"安南區","LI":"安富里","LIN":"29鄰","STREET":"府安路","SECT":"五段","MAREA":" ","LANE":"２２３巷","ALLEY":" ","HOUSE_NO":"１０２號","E_COORD97":167478.57000000001,"N_COORD97":2547169.7599999998,"ADDRESS":"府安路五段２２３巷１０２號","OBJECTID":390574},"geometry":{"x":167478.5700000003,"y":2547169.7600000016}},{"attributes":{"ID":390599,"DIS_CODE":0,"TOWNNAME":"安南區","LI":"安富里","LIN":"29鄰","STREET":"府安路","SECT":"五段","MAREA":" ","LANE":"２２３巷","ALLEY":" ","HOUSE_NO":"１０４號","E_COORD97":167478.57000000001,"N_COORD97":2547173.5899999999,"ADDRESS":"府安路五段２２３巷１０４號","OBJECTID":390575},"geometry":{"x":167478.5700000003,"y":2547173.5900000017}},{"attributes":{"ID":390600,"DIS_CODE":0,"TOWNNAME":"安南區","LI":"安富里","LIN":"29鄰","STREET":"府安路","SECT":"五段","MAREA":" ","LANE":"２２３巷","ALLEY":" ","HOUSE_NO":"１０６號","E_COORD97":167478.57000000001,"N_COORD97":2547178.7000000002,"ADDRESS":"府安路五段２２３巷１０６號","OBJECTID":390576},"geometry":{"x":167478.5700000003,"y":2547178.700000003}},{"attributes":{"ID":390601,"DIS_CODE":0,"TOWNNAME":"安南區","LI":"安富里","LIN":"29鄰","STREET":"府安路","SECT":"五段","MAREA":" ","LANE":"２２３巷","ALLEY":" ","HOUSE_NO":"６１號","E_COORD97":167453.95000000001,"N_COORD97":2547148.27,"ADDRESS":"府安路五段２２３巷６１號","OBJECTID":390577},"geometry":{"x":167453.95000000019,"y":2547148.2700000014}},{"attributes":{"ID":390602,"DIS_CODE":0,"TOWNNAME":"安南區","LI":"安富里","LIN":"29鄰","STREET":"府安路","SECT":"五段","MAREA":" ","LANE":"２２３巷","ALLEY":" ","HOUSE_NO":"６２號","E_COORD97":167494.23999999999,"N_COORD97":2547087.9700000002,"ADDRESS":"府安路五段２２３巷６２號","OBJECTID":390578},"geometry":{"x":167494.24000000022,"y":2547087.9700000025}},{"attributes":{"ID":390603,"DIS_CODE":0,"TOWNNAME":"安南區","LI":"安富里","LIN":"29鄰","STREET":"府安路","SECT":"五段","MAREA":" ","LANE":"２２３巷","ALLEY":" ","HOUSE_NO":"６３號","E_COORD97":167453.63,"N_COORD97":2547152.4199999999,"ADDRESS":"府安路五段２２３巷６３號","OBJECTID":390579},"geometry":{"x":167453.63000000082,"y":2547152.4199999999}},{"attributes":{"ID":390604,"DIS_CODE":0,"TOWNNAME":"安南區","LI":"安富里","LIN":"29鄰","STREET":"府安路","SECT":"五段","MAREA":" ","LANE":"２２３巷","ALLEY":" ","HOUSE_NO":"６４號","E_COORD97":167493.92000000001,"N_COORD97":2547093.3999999999,"ADDRESS":"府安路五段２２３巷６４號","OBJECTID":390580},"geometry":{"x":167493.92000000086,"y":2547093.3999999985}},{"attributes":{"ID":390605,"DIS_CODE":0,"TOWNNAME":"安南區","LI":"安富里","LIN":"29鄰","STREET":"府安路","SECT":"五段","MAREA":" ","LANE":"２２３巷","ALLEY":" ","HOUSE_NO":"６６號","E_COORD97":167492.95999999999,"N_COORD97":2547097.5499999998,"ADDRESS":"府安路五段２２３巷６６號","OBJECTID":390581},"geometry":{"x":167492.95999999903,"y":2547097.5500000026}},{"attributes":{"ID":390606,"DIS_CODE":0,"TOWNNAME":"安南區","LI":"安富里","LIN":"29鄰","STREET":"府安路","SECT":"五段","MAREA":" ","LANE":"２２３巷","ALLEY":" ","HOUSE_NO":"６７號","E_COORD97":167452.35000000001,"N_COORD97":2547161.04,"ADDRESS":"府安路五段２２３巷６７號","OBJECTID":390582},"geometry":{"x":167452.34999999963,"y":2547161.0399999991}},{"attributes":{"ID":390607,"DIS_CODE":0,"TOWNNAME":"安南區","LI":"安富里","LIN":"29鄰","STREET":"府安路","SECT":"五段","MAREA":" ","LANE":"２２３巷","ALLEY":" ","HOUSE_NO":"６８號","E_COORD97":167492,"N_COORD97":2547101.3799999999,"ADDRESS":"府安路五段２２３巷６８號","OBJECTID":390583},"geometry":{"x":167492,"y":2547101.379999999}},{"attributes":{"ID":390608,"DIS_CODE":0,"TOWNNAME":"安南區","LI":"安富里","LIN":"29鄰","STREET":"府安路","SECT":"五段","MAREA":" ","LANE":"２２３巷","ALLEY":" ","HOUSE_NO":"６９號","E_COORD97":167451.39000000001,"N_COORD97":2547164.8700000001,"ADDRESS":"府安路五段２２３巷６９號","OBJECTID":390584},"geometry":{"x":167451.3900000006,"y":2547164.870000001}},{"attributes":{"ID":390609,"DIS_CODE":0,"TOWNNAME":"安南區","LI":"安富里","LIN":"29鄰","STREET":"府安路","SECT":"五段","MAREA":" ","LANE":"２２３巷","ALLEY":" ","HOUSE_NO":"７０號","E_COORD97":167491.04000000001,"N_COORD97":2547106.1699999999,"ADDRESS":"府安路五段２２３巷７０號","OBJECTID":390585},"geometry":{"x":167491.0400000019,"y":2547106.1700000018}},{"attributes":{"ID":390610,"DIS_CODE":0,"TOWNNAME":"安南區","LI":"安富里","LIN":"29鄰","STREET":"府安路","SECT":"五段","MAREA":" ","LANE":"２２３巷","ALLEY":" ","HOUSE_NO":"７１號","E_COORD97":167449.14999999999,"N_COORD97":2547169.3399999999,"ADDRESS":"府安路五段２２３巷７１號","OBJECTID":390586},"geometry":{"x":167449.15000000037,"y":2547169.3400000017}},{"attributes":{"ID":390611,"DIS_CODE":0,"TOWNNAME":"安南區","LI":"安富里","LIN":"29鄰","STREET":"府安路","SECT":"五段","MAREA":" ","LANE":"２２３巷","ALLEY":" ","HOUSE_NO":"７２號","E_COORD97":167490.07999999999,"N_COORD97":2547110.96,"ADDRESS":"府安路五段２２３巷７２號","OBJECTID":390587},"geometry":{"x":167490.08000000007,"y":2547110.9600000046}},{"attributes":{"ID":390612,"DIS_CODE":0,"TOWNNAME":"安南區","LI":"安富里","LIN":"29鄰","STREET":"府安路","SECT":"五段","MAREA":" ","LANE":"２２３巷","ALLEY":" ","HOUSE_NO":"７３號","E_COORD97":167448.19,"N_COORD97":2547172.8500000001,"ADDRESS":"府安路五段２２３巷７３號","OBJECTID":390588},"geometry":{"x":167448.19000000134,"y":2547172.8499999996}},{"attributes":{"ID":390613,"DIS_CODE":0,"TOWNNAME":"安南區","LI":"安富里","LIN":"29鄰","STREET":"府安路","SECT":"五段","MAREA":" ","LANE":"２２３巷","ALLEY":" ","HOUSE_NO":"７４號","E_COORD97":167489.76000000001,"N_COORD97":2547114.4700000002,"ADDRESS":"府安路五段２２３巷７４號","OBJECTID":390589},"geometry":{"x":167489.76000000071,"y":2547114.4700000025}},{"attributes":{"ID":390614,"DIS_CODE":0,"TOWNNAME":"安南區","LI":"安富里","LIN":"29鄰","STREET":"府安路","SECT":"五段","MAREA":" ","LANE":"２２３巷","ALLEY":" ","HOUSE_NO":"７６號","E_COORD97":167489.12,"N_COORD97":2547117.98,"ADDRESS":"府安路五段２２３巷７６號","OBJECTID":390590},"geometry":{"x":167489.12000000104,"y":2547117.9800000023}},{"attributes":{"ID":390615,"DIS_CODE":0,"TOWNNAME":"安南區","LI":"安富里","LIN":"29鄰","STREET":"府安路","SECT":"五段","MAREA":" ","LANE":"２２３巷","ALLEY":" ","HOUSE_NO":"８０號","E_COORD97":167488.48000000001,"N_COORD97":2547123.0899999999,"ADDRESS":"府安路五段２２３巷８０號","OBJECTID":390591},"geometry":{"x":167488.48000000231,"y":2547123.0900000017}},{"attributes":{"ID":390616,"DIS_CODE":0,"TOWNNAME":"安南區","LI":"安富里","LIN":"29鄰","STREET":"府安路","SECT":"五段","MAREA":" ","LANE":"２２３巷","ALLEY":" ","HOUSE_NO":"８２號","E_COORD97":167487.51999999999,"N_COORD97":2547126.9199999999,"ADDRESS":"府安路五段２２３巷８２號","OBJECTID":390592},"geometry":{"x":167487.52000000048,"y":2547126.9200000037}},{"attributes":{"ID":390617,"DIS_CODE":0,"TOWNNAME":"安南區","LI":"安富里","LIN":"29鄰","STREET":"府安路","SECT":"五段","MAREA":" ","LANE":"２２３巷","ALLEY":" ","HOUSE_NO":"８４號","E_COORD97":167486.88,"N_COORD97":2547131.77,"ADDRESS":"府安路五段２２３巷８４號","OBJECTID":390593},"geometry":{"x":167486.88000000175,"y":2547131.7700000014}},{"attributes":{"ID":390618,"DIS_CODE":0,"TOWNNAME":"安南區","LI":"安富里","LIN":"29鄰","STREET":"府安路","SECT":"五段","MAREA":" ","LANE":"２２３巷","ALLEY":" ","HOUSE_NO":"８６號","E_COORD97":167486.25,"N_COORD97":2547135.9199999999,"ADDRESS":"府安路五段２２３巷８６號","OBJECTID":390594},"geometry":{"x":167486.25000000093,"y":2547135.9199999999}},{"attributes":{"ID":390619,"DIS_CODE":0,"TOWNNAME":"安南區","LI":"安富里","LIN":"29鄰","STREET":"府安路","SECT":"五段","MAREA":" ","LANE":"２２３巷","ALLEY":" ","HOUSE_NO":"９４號","E_COORD97":167482.09,"N_COORD97":2547153.7999999998,"ADDRESS":"府安路五段２２３巷９４號","OBJECTID":390595},"geometry":{"x":167482.09000000078,"y":2547153.8000000026}},{"attributes":{"ID":390620,"DIS_CODE":0,"TOWNNAME":"安南區","LI":"安富里","LIN":"29鄰","STREET":"府安路","SECT":"五段","MAREA":" ","LANE":"２２３巷","ALLEY":" ","HOUSE_NO":"９６號","E_COORD97":167481.45000000001,"N_COORD97":2547157.3100000001,"ADDRESS":"府安路五段２２３巷９６號","OBJECTID":390596},"geometry":{"x":167481.45000000205,"y":2547157.3100000005}},{"attributes":{"ID":390621,"DIS_CODE":0,"TOWNNAME":"安南區","LI":"安富里","LIN":"29鄰","STREET":"府安路","SECT":"五段","MAREA":" ","LANE":"２２３巷","ALLEY":" ","HOUSE_NO":"９８號","E_COORD97":167480.81,"N_COORD97":2547161.1400000001,"ADDRESS":"府安路五段２２３巷９８號","OBJECTID":390597},"geometry":{"x":167480.81000000052,"y":2547161.1400000025}},{"attributes":{"ID":390622,"DIS_CODE":0,"TOWNNAME":"永康區","LI":"崑山里","LIN":"29鄰","STREET":"大灣路","SECT":" ","MAREA":" ","LANE":"９４２巷","ALLEY":" ","HOUSE_NO":"１２２號","E_COORD97":173741.29000000001,"N_COORD97":2544807.9900000002,"ADDRESS":"大灣路９４２巷１２２號","OBJECTID":390598},"geometry":{"x":173741.29000000097,"y":2544807.9900000039}},{"attributes":{"ID":390623,"DIS_CODE":0,"TOWNNAME":"永康區","LI":"復華里","LIN":"29鄰","STREET":"國華街","SECT":" ","MAREA":" ","LANE":"１３６巷","ALLEY":" ","HOUSE_NO":"２６號","E_COORD97":172681.70000000001,"N_COORD97":2546235.5,"ADDRESS":"國華街１３６巷２６號","OBJECTID":390599},"geometry":{"x":172681.70000000019,"y":2546235.5000000019}},{"attributes":{"ID":390624,"DIS_CODE":0,"TOWNNAME":"永康區","LI":"崑山里","LIN":"29鄰","STREET":"大仁街","SECT":" ","MAREA":" ","LANE":"１２５巷","ALLEY":" ","HOUSE_NO":"３號","E_COORD97":173829.48999999999,"N_COORD97":2544851.3500000001,"ADDRESS":"大仁街１２５巷３號","OBJECTID":390600},"geometry":{"x":173829.49000000022,"y":2544851.3499999996}}]}