{"displayFieldName":"TOWNNAME","fieldAliases":{"ID":"ID","DIS_CODE":"DIS_CODE","TOWNNAME":"TOWNNAME","LI":"LI","LIN":"LIN","STREET":"STREET","SECT":"SECT","MAREA":"MAREA","LANE":"LANE","ALLEY":"ALLEY","HOUSE_NO":"HOUSE_NO","E_COORD97":"E_COORD97","N_COORD97":"N_COORD97","ADDRESS":"ADDRESS","OBJECTID":"OBJECTID"},"geometryType":"esriGeometryPoint","spatialReference":{"wkid":102443,"latestWkid":3826},"fields":[{"name":"ID","type":"esriFieldTypeDouble","alias":"ID"},{"name":"DIS_CODE","type":"esriFieldTypeInteger","alias":"DIS_CODE"},{"name":"TOWNNAME","type":"esriFieldTypeString","alias":"TOWNNAME","length":8},{"name":"LI","type":"esriFieldTypeString","alias":"LI","length":8},{"name":"LIN","type":"esriFieldTypeString","alias":"LIN","length":12},{"name":"STREET","type":"esriFieldTypeString","alias":"STREET","length":20},{"name":"SECT","type":"esriFieldTypeString","alias":"SECT","length":8},{"name":"MAREA","type":"esriFieldTypeString","alias":"MAREA","length":12},{"name":"LANE","type":"esriFieldTypeString","alias":"LANE","length":10},{"name":"ALLEY","type":"esriFieldTypeString","alias":"ALLEY","length":10},{"name":"HOUSE_NO","type":"esriFieldTypeString","alias":"HOUSE_NO","length":20},{"name":"E_COORD97","type":"esriFieldTypeDouble","alias":"E_COORD97"},{"name":"N_COORD97","type":"esriFieldTypeDouble","alias":"N_COORD97"},{"name":"ADDRESS","type":"esriFieldTypeString","alias":"ADDRESS","length":50},{"name":"OBJECTID","type":"esriFieldTypeOID","alias":"OBJECTID"}],"features":[{"attributes":{"ID":564228,"DIS_CODE":0,"TOWNNAME":"歸仁區","LI":"後市里","LIN":"9鄰","STREET":"大順六街","SECT":" ","MAREA":" ","LANE":" ","ALLEY":" ","HOUSE_NO":"２０號","E_COORD97":177045.01000000001,"N_COORD97":2540651.25,"ADDRESS":"大順六街２０號","OBJECTID":564201},"geometry":{"x":177045.01000000164,"y":2540651.25}},{"attributes":{"ID":564229,"DIS_CODE":0,"TOWNNAME":"歸仁區","LI":"武東里","LIN":"9鄰","STREET":"武東三街","SECT":" ","MAREA":" ","LANE":" ","ALLEY":" ","HOUSE_NO":"４７號","E_COORD97":175161.44,"N_COORD97":2535230.25,"ADDRESS":"武東三街４７號","OBJECTID":564202},"geometry":{"x":175161.44000000134,"y":2535230.25}},{"attributes":{"ID":564230,"DIS_CODE":0,"TOWNNAME":"南區","LI":"金華里","LIN":"9鄰","STREET":"尊南街","SECT":" ","MAREA":" ","LANE":" ","ALLEY":" ","HOUSE_NO":"２００號","E_COORD97":166851.92999999999,"N_COORD97":2542165.3900000001,"ADDRESS":"尊南街２００號","OBJECTID":564203},"geometry":{"x":166851.9299999997,"y":2542165.3900000025}},{"attributes":{"ID":564231,"DIS_CODE":0,"TOWNNAME":"南區","LI":"金華里","LIN":"9鄰","STREET":"尊南街","SECT":" ","MAREA":" ","LANE":" ","ALLEY":" ","HOUSE_NO":"２０２號","E_COORD97":166852.45999999999,"N_COORD97":2542170.4900000002,"ADDRESS":"尊南街２０２號","OBJECTID":564204},"geometry":{"x":166852.46000000089,"y":2542170.4900000021}},{"attributes":{"ID":564232,"DIS_CODE":0,"TOWNNAME":"南區","LI":"金華里","LIN":"9鄰","STREET":"尊南街","SECT":" ","MAREA":" ","LANE":" ","ALLEY":" ","HOUSE_NO":"２０４號","E_COORD97":166852.98000000001,"N_COORD97":2542174,"ADDRESS":"尊南街２０４號","OBJECTID":564205},"geometry":{"x":166852.98000000138,"y":2542174.0000000019}},{"attributes":{"ID":564233,"DIS_CODE":0,"TOWNNAME":"南區","LI":"金華里","LIN":"9鄰","STREET":"尊南街","SECT":" ","MAREA":" ","LANE":" ","ALLEY":" ","HOUSE_NO":"２０６號","E_COORD97":166853.16,"N_COORD97":2542179.2599999998,"ADDRESS":"尊南街２０６號","OBJECTID":564206},"geometry":{"x":166853.16000000108,"y":2542179.2600000016}},{"attributes":{"ID":564234,"DIS_CODE":0,"TOWNNAME":"南區","LI":"金華里","LIN":"9鄰","STREET":"尊南街","SECT":" ","MAREA":" ","LANE":" ","ALLEY":" ","HOUSE_NO":"２０８號","E_COORD97":166853.32999999999,"N_COORD97":2542184,"ADDRESS":"尊南街２０８號","OBJECTID":564207},"geometry":{"x":166853.33000000194,"y":2542184.0000000019}},{"attributes":{"ID":564235,"DIS_CODE":0,"TOWNNAME":"南區","LI":"金華里","LIN":"9鄰","STREET":"尊南街","SECT":" ","MAREA":" ","LANE":" ","ALLEY":" ","HOUSE_NO":"２１０號","E_COORD97":166852.81,"N_COORD97":2542194.3599999999,"ADDRESS":"尊南街２１０號","OBJECTID":564208},"geometry":{"x":166852.80999999866,"y":2542194.3600000013}},{"attributes":{"ID":564236,"DIS_CODE":0,"TOWNNAME":"南區","LI":"金華里","LIN":"9鄰","STREET":"尊南街","SECT":" ","MAREA":" ","LANE":" ","ALLEY":" ","HOUSE_NO":"２１２號","E_COORD97":166854.92000000001,"N_COORD97":2542198.5699999998,"ADDRESS":"尊南街２１２號","OBJECTID":564209},"geometry":{"x":166854.92000000086,"y":2542198.5700000003}},{"attributes":{"ID":564237,"DIS_CODE":0,"TOWNNAME":"南區","LI":"金華里","LIN":"9鄰","STREET":"尊南街","SECT":" ","MAREA":" ","LANE":" ","ALLEY":" ","HOUSE_NO":"２１６號","E_COORD97":166854.20999999999,"N_COORD97":2542208.0499999998,"ADDRESS":"尊南街２１６號","OBJECTID":564210},"geometry":{"x":166854.21000000089,"y":2542208.0500000026}},{"attributes":{"ID":564238,"DIS_CODE":0,"TOWNNAME":"南區","LI":"金華里","LIN":"9鄰","STREET":"尊南街","SECT":" ","MAREA":" ","LANE":" ","ALLEY":" ","HOUSE_NO":"２２０號","E_COORD97":166855.09,"N_COORD97":2542216.6499999999,"ADDRESS":"尊南街２２０號","OBJECTID":564211},"geometry":{"x":166855.09000000078,"y":2542216.6500000041}},{"attributes":{"ID":564239,"DIS_CODE":0,"TOWNNAME":"關廟區","LI":"山西里","LIN":"9鄰","STREET":"文衡路","SECT":" ","MAREA":" ","LANE":" ","ALLEY":" ","HOUSE_NO":"２９２號","E_COORD97":180913.23999999999,"N_COORD97":2540736.3300000001,"ADDRESS":"文衡路２９２號","OBJECTID":564212},"geometry":{"x":180913.24000000022,"y":2540736.3300000001}},{"attributes":{"ID":564240,"DIS_CODE":0,"TOWNNAME":"北區","LI":"華興里","LIN":"9鄰","STREET":"開南街","SECT":" ","MAREA":" ","LANE":" ","ALLEY":" ","HOUSE_NO":"１２５號","E_COORD97":170595.32999999999,"N_COORD97":2545156.6600000001,"ADDRESS":"開南街１２５號","OBJECTID":564213},"geometry":{"x":170595.33000000101,"y":2545156.660000002}},{"attributes":{"ID":564241,"DIS_CODE":0,"TOWNNAME":"北區","LI":"華興里","LIN":"9鄰","STREET":"開南街","SECT":" ","MAREA":" ","LANE":" ","ALLEY":" ","HOUSE_NO":"１２７號","E_COORD97":170598.39999999999,"N_COORD97":2545154.77,"ADDRESS":"開南街１２７號","OBJECTID":564214},"geometry":{"x":170598.4000000013,"y":2545154.7700000014}},{"attributes":{"ID":564242,"DIS_CODE":0,"TOWNNAME":"北區","LI":"華興里","LIN":"9鄰","STREET":"開南街","SECT":" ","MAREA":" ","LANE":" ","ALLEY":" ","HOUSE_NO":"１２９號","E_COORD97":170601.72,"N_COORD97":2545152.0099999998,"ADDRESS":"開南街１２９號","OBJECTID":564215},"geometry":{"x":170601.7200000016,"y":2545152.0099999998}},{"attributes":{"ID":564243,"DIS_CODE":0,"TOWNNAME":"關廟區","LI":"北花里","LIN":"9鄰","STREET":"中正路","SECT":" ","MAREA":" ","LANE":" ","ALLEY":" ","HOUSE_NO":"７３９號","E_COORD97":181835.85999999999,"N_COORD97":2540368.25,"ADDRESS":"中正路７３９號","OBJECTID":564216},"geometry":{"x":181835.86000000127,"y":2540368.2500000019}},{"attributes":{"ID":564244,"DIS_CODE":0,"TOWNNAME":"關廟區","LI":"香洋里","LIN":"9鄰","STREET":"中山路","SECT":"二段","MAREA":" ","LANE":" ","ALLEY":" ","HOUSE_NO":"４６號","E_COORD97":180988.10999999999,"N_COORD97":2540029.2799999998,"ADDRESS":"中山路二段４６號","OBJECTID":564217},"geometry":{"x":180988.11000000127,"y":2540029.2800000012}},{"attributes":{"ID":564245,"DIS_CODE":0,"TOWNNAME":"關廟區","LI":"新埔里","LIN":"9鄰","STREET":"新埔三街","SECT":" ","MAREA":" ","LANE":" ","ALLEY":" ","HOUSE_NO":"１１８號","E_COORD97":181229.22,"N_COORD97":2541094.25,"ADDRESS":"新埔三街１１８號","OBJECTID":564218},"geometry":{"x":181229.22000000067,"y":2541094.2500000019}},{"attributes":{"ID":564246,"DIS_CODE":0,"TOWNNAME":"關廟區","LI":"南花里","LIN":"9鄰","STREET":"花園一街","SECT":" ","MAREA":" ","LANE":" ","ALLEY":" ","HOUSE_NO":"１３５號","E_COORD97":181781.59,"N_COORD97":2540180.25,"ADDRESS":"花園一街１３５號","OBJECTID":564219},"geometry":{"x":181781.59000000078,"y":2540180.25}},{"attributes":{"ID":564247,"DIS_CODE":0,"TOWNNAME":"關廟區","LI":"南花里","LIN":"9鄰","STREET":"花園一街","SECT":" ","MAREA":" ","LANE":" ","ALLEY":" ","HOUSE_NO":"１３０號","E_COORD97":181821.09,"N_COORD97":2540199.25,"ADDRESS":"花園一街１３０號","OBJECTID":564220},"geometry":{"x":181821.08999999985,"y":2540199.2500000019}},{"attributes":{"ID":564248,"DIS_CODE":0,"TOWNNAME":"關廟區","LI":"香洋里","LIN":"9鄰","STREET":"忠孝街","SECT":" ","MAREA":" ","LANE":" ","ALLEY":" ","HOUSE_NO":"１２號","E_COORD97":180954.89000000001,"N_COORD97":2540068.25,"ADDRESS":"忠孝街１２號","OBJECTID":564221},"geometry":{"x":180954.8900000006,"y":2540068.25}},{"attributes":{"ID":564249,"DIS_CODE":0,"TOWNNAME":"關廟區","LI":"新埔里","LIN":"9鄰","STREET":"新埔三街","SECT":" ","MAREA":" ","LANE":" ","ALLEY":" ","HOUSE_NO":"１１２號","E_COORD97":181220.82000000001,"N_COORD97":2541094.25,"ADDRESS":"新埔三街１１２號","OBJECTID":564222},"geometry":{"x":181220.82000000123,"y":2541094.2500000019}},{"attributes":{"ID":564250,"DIS_CODE":0,"TOWNNAME":"關廟區","LI":"新埔里","LIN":"9鄰","STREET":"新埔三街","SECT":" ","MAREA":" ","LANE":" ","ALLEY":" ","HOUSE_NO":"１０８號","E_COORD97":181210.42000000001,"N_COORD97":2541091.25,"ADDRESS":"新埔三街１０８號","OBJECTID":564223},"geometry":{"x":181210.41999999993,"y":2541091.2500000019}},{"attributes":{"ID":564251,"DIS_CODE":0,"TOWNNAME":"關廟區","LI":"布袋里","LIN":"9鄰","STREET":"長文街","SECT":" ","MAREA":" ","LANE":" ","ALLEY":" ","HOUSE_NO":"３７１號","E_COORD97":182197.94,"N_COORD97":2534824.2999999998,"ADDRESS":"長文街３７１號","OBJECTID":564224},"geometry":{"x":182197.94000000134,"y":2534824.3000000007}},{"attributes":{"ID":564252,"DIS_CODE":0,"TOWNNAME":"關廟區","LI":"新埔里","LIN":"9鄰","STREET":"新埔二街","SECT":" ","MAREA":" ","LANE":" ","ALLEY":" ","HOUSE_NO":"１２３號","E_COORD97":181244.22,"N_COORD97":2540998.25,"ADDRESS":"新埔二街１２３號","OBJECTID":564225},"geometry":{"x":181244.2200000016,"y":2540998.2500000037}},{"attributes":{"ID":564253,"DIS_CODE":0,"TOWNNAME":"關廟區","LI":"新埔里","LIN":"9鄰","STREET":"新埔二街","SECT":" ","MAREA":" ","LANE":" ","ALLEY":" ","HOUSE_NO":"１５１號","E_COORD97":181256.51999999999,"N_COORD97":2541071.25,"ADDRESS":"新埔二街１５１號","OBJECTID":564226},"geometry":{"x":181256.51999999955,"y":2541071.25}},{"attributes":{"ID":564254,"DIS_CODE":0,"TOWNNAME":"關廟區","LI":"香洋里","LIN":"9鄰","STREET":"中山路","SECT":"二段","MAREA":" ","LANE":" ","ALLEY":" ","HOUSE_NO":"８號","E_COORD97":181062.45999999999,"N_COORD97":2540014.2799999998,"ADDRESS":"中山路二段８號","OBJECTID":564227},"geometry":{"x":181062.45999999996,"y":2540014.2800000031}},{"attributes":{"ID":564255,"DIS_CODE":0,"TOWNNAME":"關廟區","LI":"新埔里","LIN":"9鄰","STREET":"北新街","SECT":" ","MAREA":" ","LANE":" ","ALLEY":" ","HOUSE_NO":"３５５號","E_COORD97":181303.19,"N_COORD97":2541067.25,"ADDRESS":"北新街３５５號","OBJECTID":564228},"geometry":{"x":181303.19000000134,"y":2541067.2500000019}},{"attributes":{"ID":564256,"DIS_CODE":0,"TOWNNAME":"關廟區","LI":"北花里","LIN":"9鄰","STREET":"園中街","SECT":" ","MAREA":" ","LANE":" ","ALLEY":" ","HOUSE_NO":"６２號","E_COORD97":181794.35999999999,"N_COORD97":2540348.25,"ADDRESS":"園中街６２號","OBJECTID":564229},"geometry":{"x":181794.36000000034,"y":2540348.2500000019}},{"attributes":{"ID":564257,"DIS_CODE":0,"TOWNNAME":"關廟區","LI":"南花里","LIN":"9鄰","STREET":"花園一街","SECT":" ","MAREA":" ","LANE":" ","ALLEY":" ","HOUSE_NO":"１２５號","E_COORD97":181800.79000000001,"N_COORD97":2540184.25,"ADDRESS":"花園一街１２５號","OBJECTID":564230},"geometry":{"x":181800.79000000097,"y":2540184.25}},{"attributes":{"ID":564258,"DIS_CODE":0,"TOWNNAME":"關廟區","LI":"香洋里","LIN":"9鄰","STREET":"中山路","SECT":"二段","MAREA":" ","LANE":" ","ALLEY":" ","HOUSE_NO":"２２號","E_COORD97":181036.81,"N_COORD97":2540020.2799999998,"ADDRESS":"中山路二段２２號","OBJECTID":564231},"geometry":{"x":181036.81000000052,"y":2540020.2799999993}},{"attributes":{"ID":564259,"DIS_CODE":0,"TOWNNAME":"關廟區","LI":"新光里","LIN":"9鄰","STREET":"北寮街","SECT":" ","MAREA":" ","LANE":" ","ALLEY":" ","HOUSE_NO":"１５１號","E_COORD97":184347.67000000001,"N_COORD97":2541946.25,"ADDRESS":"北寮街１５１號","OBJECTID":564232},"geometry":{"x":184347.67000000086,"y":2541946.25}},{"attributes":{"ID":564260,"DIS_CODE":0,"TOWNNAME":"關廟區","LI":"新埔里","LIN":"9鄰","STREET":"新埔二街","SECT":" ","MAREA":" ","LANE":" ","ALLEY":" ","HOUSE_NO":"２０２號","E_COORD97":181268.82000000001,"N_COORD97":2541072.25,"ADDRESS":"新埔二街２０２號","OBJECTID":564233},"geometry":{"x":181268.8200000003,"y":2541072.25}},{"attributes":{"ID":564261,"DIS_CODE":0,"TOWNNAME":"關廟區","LI":"北勢里","LIN":"9鄰","STREET":"成功路","SECT":" ","MAREA":" ","LANE":" ","ALLEY":" ","HOUSE_NO":"１５８號","E_COORD97":181601.87,"N_COORD97":2540455.27,"ADDRESS":"成功路１５８號","OBJECTID":564234},"geometry":{"x":181601.87000000104,"y":2540455.2700000033}},{"attributes":{"ID":564262,"DIS_CODE":0,"TOWNNAME":"關廟區","LI":"新埔里","LIN":"9鄰","STREET":"北新街","SECT":" ","MAREA":" ","LANE":" ","ALLEY":" ","HOUSE_NO":"３４７號","E_COORD97":181269.09,"N_COORD97":2541091.25,"ADDRESS":"北新街３４７號","OBJECTID":564235},"geometry":{"x":181269.09000000078,"y":2541091.2500000019}},{"attributes":{"ID":564263,"DIS_CODE":0,"TOWNNAME":"關廟區","LI":"埤頭里","LIN":"9鄰","STREET":"關新路","SECT":"二段","MAREA":" ","LANE":" ","ALLEY":" ","HOUSE_NO":"４５號","E_COORD97":179076.62,"N_COORD97":2544170.2999999998,"ADDRESS":"關新路二段４５號","OBJECTID":564236},"geometry":{"x":179076.62000000011,"y":2544170.3000000026}},{"attributes":{"ID":564264,"DIS_CODE":0,"TOWNNAME":"關廟區","LI":"山西里","LIN":"9鄰","STREET":"文衡路","SECT":" ","MAREA":" ","LANE":" ","ALLEY":" ","HOUSE_NO":"２１３號","E_COORD97":180892.84,"N_COORD97":2540744.3300000001,"ADDRESS":"文衡路２１３號","OBJECTID":564237},"geometry":{"x":180892.84000000078,"y":2540744.3300000019}},{"attributes":{"ID":564265,"DIS_CODE":0,"TOWNNAME":"關廟區","LI":"山西里","LIN":"9鄰","STREET":"文衡路","SECT":" ","MAREA":" ","LANE":" ","ALLEY":" ","HOUSE_NO":"２９０號","E_COORD97":180913.94,"N_COORD97":2540731.3300000001,"ADDRESS":"文衡路２９０號","OBJECTID":564238},"geometry":{"x":180913.94000000041,"y":2540731.3300000019}},{"attributes":{"ID":564266,"DIS_CODE":0,"TOWNNAME":"關廟區","LI":"山西里","LIN":"9鄰","STREET":"文衡路","SECT":" ","MAREA":" ","LANE":" ","ALLEY":" ","HOUSE_NO":"３０８號","E_COORD97":180915.17000000001,"N_COORD97":2540751.6600000001,"ADDRESS":"文衡路３０８號","OBJECTID":564239},"geometry":{"x":180915.16999999993,"y":2540751.6600000039}},{"attributes":{"ID":564267,"DIS_CODE":0,"TOWNNAME":"關廟區","LI":"南花里","LIN":"9鄰","STREET":"花園一街","SECT":" ","MAREA":" ","LANE":" ","ALLEY":" ","HOUSE_NO":"１１５號","E_COORD97":181822.98999999999,"N_COORD97":2540184.25,"ADDRESS":"花園一街１１５號","OBJECTID":564240},"geometry":{"x":181822.99000000115,"y":2540184.25}},{"attributes":{"ID":564268,"DIS_CODE":0,"TOWNNAME":"關廟區","LI":"新埔里","LIN":"9鄰","STREET":"新埔三街","SECT":" ","MAREA":" ","LANE":" ","ALLEY":" ","HOUSE_NO":"１２２號","E_COORD97":181237.32000000001,"N_COORD97":2541094.25,"ADDRESS":"新埔三街１２２號","OBJECTID":564241},"geometry":{"x":181237.32000000216,"y":2541094.2500000019}},{"attributes":{"ID":564269,"DIS_CODE":0,"TOWNNAME":"關廟區","LI":"山西里","LIN":"9鄰","STREET":"文衡路","SECT":" ","MAREA":" ","LANE":" ","ALLEY":" ","HOUSE_NO":"３０２號","E_COORD97":180913.23999999999,"N_COORD97":2540742.3300000001,"ADDRESS":"文衡路３０２號","OBJECTID":564242},"geometry":{"x":180913.24000000022,"y":2540742.3300000001}},{"attributes":{"ID":564270,"DIS_CODE":0,"TOWNNAME":"關廟區","LI":"山西里","LIN":"9鄰","STREET":"文衡路","SECT":" ","MAREA":" ","LANE":" ","ALLEY":" ","HOUSE_NO":"２１１號","E_COORD97":180893.64000000001,"N_COORD97":2540739.3300000001,"ADDRESS":"文衡路２１１號","OBJECTID":564243},"geometry":{"x":180893.63999999873,"y":2540739.3300000001}},{"attributes":{"ID":564271,"DIS_CODE":0,"TOWNNAME":"關廟區","LI":"香洋里","LIN":"9鄰","STREET":"巡府路","SECT":" ","MAREA":" ","LANE":" ","ALLEY":" ","HOUSE_NO":"７１號","E_COORD97":181040.92000000001,"N_COORD97":2540063.25,"ADDRESS":"巡府路７１號","OBJECTID":564244},"geometry":{"x":181040.91999999993,"y":2540063.2500000019}},{"attributes":{"ID":564272,"DIS_CODE":0,"TOWNNAME":"關廟區","LI":"關廟里","LIN":"9鄰","STREET":"民生街","SECT":" ","MAREA":" ","LANE":" ","ALLEY":" ","HOUSE_NO":"７３號","E_COORD97":180907.64000000001,"N_COORD97":2539639.29,"ADDRESS":"民生街７３號","OBJECTID":564245},"geometry":{"x":180907.6400000006,"y":2539639.2899999991}},{"attributes":{"ID":564273,"DIS_CODE":0,"TOWNNAME":"關廟區","LI":"新光里","LIN":"9鄰","STREET":"北寮街","SECT":" ","MAREA":" ","LANE":" ","ALLEY":" ","HOUSE_NO":"１５５號","E_COORD97":184363.47,"N_COORD97":2541941.25,"ADDRESS":"北寮街１５５號","OBJECTID":564246},"geometry":{"x":184363.47000000067,"y":2541941.2500000019}},{"attributes":{"ID":564274,"DIS_CODE":0,"TOWNNAME":"關廟區","LI":"五甲里","LIN":"9鄰","STREET":"南雄路","SECT":"一段","MAREA":" ","LANE":" ","ALLEY":" ","HOUSE_NO":"５９６號","E_COORD97":181590.09,"N_COORD97":2538514.2799999998,"ADDRESS":"南雄路一段５９６號","OBJECTID":564247},"geometry":{"x":181590.09000000078,"y":2538514.2799999993}},{"attributes":{"ID":564275,"DIS_CODE":0,"TOWNNAME":"關廟區","LI":"五甲里","LIN":"9鄰","STREET":"南雄路","SECT":"一段","MAREA":" ","LANE":" ","ALLEY":" ","HOUSE_NO":"５０９號","E_COORD97":181615.79000000001,"N_COORD97":2538291.2799999998,"ADDRESS":"南雄路一段５０９號","OBJECTID":564248},"geometry":{"x":181615.79000000097,"y":2538291.2799999993}},{"attributes":{"ID":564276,"DIS_CODE":0,"TOWNNAME":"關廟區","LI":"埤頭里","LIN":"9鄰","STREET":"關新路","SECT":"二段","MAREA":" ","LANE":" ","ALLEY":" ","HOUSE_NO":"２９號","E_COORD97":179068.51999999999,"N_COORD97":2544122.2999999998,"ADDRESS":"關新路二段２９號","OBJECTID":564249},"geometry":{"x":179068.51999999955,"y":2544122.3000000026}},{"attributes":{"ID":564277,"DIS_CODE":0,"TOWNNAME":"關廟區","LI":"東勢里","LIN":"9鄰","STREET":"旺萊路","SECT":" ","MAREA":" ","LANE":" ","ALLEY":" ","HOUSE_NO":"２３３號","E_COORD97":182037.84,"N_COORD97":2539498.25,"ADDRESS":"旺萊路２３３號","OBJECTID":564250},"geometry":{"x":182037.83999999985,"y":2539498.25}},{"attributes":{"ID":564278,"DIS_CODE":0,"TOWNNAME":"關廟區","LI":"山西里","LIN":"9鄰","STREET":"文衡路","SECT":" ","MAREA":" ","LANE":" ","ALLEY":" ","HOUSE_NO":"３０６號","E_COORD97":180913.64000000001,"N_COORD97":2540747.3300000001,"ADDRESS":"文衡路３０６號","OBJECTID":564251},"geometry":{"x":180913.63999999966,"y":2540747.3300000019}},{"attributes":{"ID":564279,"DIS_CODE":0,"TOWNNAME":"關廟區","LI":"五甲里","LIN":"9鄰","STREET":"南雄路","SECT":"一段","MAREA":" ","LANE":" ","ALLEY":" ","HOUSE_NO":"５１５號","E_COORD97":181611.59,"N_COORD97":2538313.2799999998,"ADDRESS":"南雄路一段５１５號","OBJECTID":564252},"geometry":{"x":181611.59000000078,"y":2538313.2800000012}},{"attributes":{"ID":564280,"DIS_CODE":0,"TOWNNAME":"關廟區","LI":"五甲里","LIN":"9鄰","STREET":"南雄路","SECT":"一段","MAREA":" ","LANE":" ","ALLEY":" ","HOUSE_NO":"５０２號","E_COORD97":181752.39000000001,"N_COORD97":2538163.2799999998,"ADDRESS":"南雄路一段５０２號","OBJECTID":564253},"geometry":{"x":181752.38999999966,"y":2538163.2800000031}},{"attributes":{"ID":564281,"DIS_CODE":0,"TOWNNAME":"關廟區","LI":"五甲里","LIN":"9鄰","STREET":"南雄路","SECT":"一段","MAREA":" ","LANE":" ","ALLEY":" ","HOUSE_NO":"５１３號","E_COORD97":181613.48999999999,"N_COORD97":2538306.2799999998,"ADDRESS":"南雄路一段５１３號","OBJECTID":564254},"geometry":{"x":181613.49000000022,"y":2538306.2800000012}},{"attributes":{"ID":564282,"DIS_CODE":0,"TOWNNAME":"關廟區","LI":"五甲里","LIN":"9鄰","STREET":"南雄路","SECT":"一段","MAREA":" ","LANE":" ","ALLEY":" ","HOUSE_NO":"５８９號","E_COORD97":181539.39000000001,"N_COORD97":2538580.2799999998,"ADDRESS":"南雄路一段５８９號","OBJECTID":564255},"geometry":{"x":181539.38999999966,"y":2538580.2800000031}},{"attributes":{"ID":564283,"DIS_CODE":0,"TOWNNAME":"關廟區","LI":"山西里","LIN":"9鄰","STREET":"文衡路","SECT":" ","MAREA":" ","LANE":" ","ALLEY":" ","HOUSE_NO":"２１７號","E_COORD97":180892.84,"N_COORD97":2540753.3300000001,"ADDRESS":"文衡路２１７號","OBJECTID":564256},"geometry":{"x":180892.84000000078,"y":2540753.3300000001}},{"attributes":{"ID":564284,"DIS_CODE":0,"TOWNNAME":"關廟區","LI":"五甲里","LIN":"9鄰","STREET":"南雄路","SECT":"一段","MAREA":" ","LANE":" ","ALLEY":" ","HOUSE_NO":"５０１號","E_COORD97":181608.09,"N_COORD97":2538234.2799999998,"ADDRESS":"南雄路一段５０１號","OBJECTID":564257},"geometry":{"x":181608.09000000078,"y":2538234.2800000031}},{"attributes":{"ID":564285,"DIS_CODE":0,"TOWNNAME":"關廟區","LI":"五甲里","LIN":"9鄰","STREET":"南雄路","SECT":"一段","MAREA":" ","LANE":" ","ALLEY":" ","HOUSE_NO":"５１９號","E_COORD97":181608.09,"N_COORD97":2538327.2799999998,"ADDRESS":"南雄路一段５１９號","OBJECTID":564258},"geometry":{"x":181608.09000000078,"y":2538327.2800000012}},{"attributes":{"ID":564286,"DIS_CODE":0,"TOWNNAME":"關廟區","LI":"五甲里","LIN":"9鄰","STREET":"南雄路","SECT":"一段","MAREA":" ","LANE":" ","ALLEY":" ","HOUSE_NO":"５７５號","E_COORD97":181555.48999999999,"N_COORD97":2538539.2799999998,"ADDRESS":"南雄路一段５７５號","OBJECTID":564259},"geometry":{"x":181555.49000000115,"y":2538539.2800000031}},{"attributes":{"ID":564287,"DIS_CODE":0,"TOWNNAME":"關廟區","LI":"五甲里","LIN":"9鄰","STREET":"南雄路","SECT":"一段","MAREA":" ","LANE":" ","ALLEY":" ","HOUSE_NO":"５１０號","E_COORD97":181682.98999999999,"N_COORD97":2538255.2799999998,"ADDRESS":"南雄路一段５１０號","OBJECTID":564260},"geometry":{"x":181682.99000000022,"y":2538255.2800000012}},{"attributes":{"ID":564288,"DIS_CODE":0,"TOWNNAME":"關廟區","LI":"五甲里","LIN":"9鄰","STREET":"南雄路","SECT":"一段","MAREA":" ","LANE":" ","ALLEY":" ","HOUSE_NO":"５３５號","E_COORD97":181596.59,"N_COORD97":2538384.2799999998,"ADDRESS":"南雄路一段５３５號","OBJECTID":564261},"geometry":{"x":181596.59000000078,"y":2538384.2800000012}},{"attributes":{"ID":564289,"DIS_CODE":0,"TOWNNAME":"關廟區","LI":"五甲里","LIN":"9鄰","STREET":"南雄路","SECT":"一段","MAREA":" ","LANE":" ","ALLEY":" ","HOUSE_NO":"５０７號","E_COORD97":181618.09,"N_COORD97":2538282.2799999998,"ADDRESS":"南雄路一段５０７號","OBJECTID":564262},"geometry":{"x":181618.09000000171,"y":2538282.2800000012}},{"attributes":{"ID":564290,"DIS_CODE":0,"TOWNNAME":"關廟區","LI":"五甲里","LIN":"9鄰","STREET":"南雄路","SECT":"一段","MAREA":" ","LANE":" ","ALLEY":" ","HOUSE_NO":"５９８號","E_COORD97":181583.89000000001,"N_COORD97":2538529.2799999998,"ADDRESS":"南雄路一段５９８號","OBJECTID":564263},"geometry":{"x":181583.8900000006,"y":2538529.2800000031}},{"attributes":{"ID":564291,"DIS_CODE":0,"TOWNNAME":"關廟區","LI":"五甲里","LIN":"9鄰","STREET":"南雄路","SECT":"一段","MAREA":" ","LANE":" ","ALLEY":" ","HOUSE_NO":"６５０號","E_COORD97":181579.69,"N_COORD97":2538648.2799999998,"ADDRESS":"南雄路一段６５０號","OBJECTID":564264},"geometry":{"x":181579.69000000134,"y":2538648.2800000012}},{"attributes":{"ID":564292,"DIS_CODE":0,"TOWNNAME":"關廟區","LI":"五甲里","LIN":"9鄰","STREET":"南雄路","SECT":"一段","MAREA":" ","LANE":" ","ALLEY":" ","HOUSE_NO":"５３３號","E_COORD97":181598.09,"N_COORD97":2538376.2799999998,"ADDRESS":"南雄路一段５３３號","OBJECTID":564265},"geometry":{"x":181598.09000000078,"y":2538376.2799999993}},{"attributes":{"ID":564293,"DIS_CODE":0,"TOWNNAME":"關廟區","LI":"五甲里","LIN":"9鄰","STREET":"南雄路","SECT":"一段","MAREA":" ","LANE":" ","ALLEY":" ","HOUSE_NO":"５１７號","E_COORD97":181609.69,"N_COORD97":2538319.2799999998,"ADDRESS":"南雄路一段５１７號","OBJECTID":564266},"geometry":{"x":181609.69000000134,"y":2538319.2800000031}},{"attributes":{"ID":564294,"DIS_CODE":0,"TOWNNAME":"關廟區","LI":"五甲里","LIN":"9鄰","STREET":"南雄路","SECT":"一段","MAREA":" ","LANE":" ","ALLEY":" ","HOUSE_NO":"５１２號","E_COORD97":181675.69,"N_COORD97":2538272.2799999998,"ADDRESS":"南雄路一段５１２號","OBJECTID":564267},"geometry":{"x":181675.69000000227,"y":2538272.2800000012}},{"attributes":{"ID":564295,"DIS_CODE":0,"TOWNNAME":"北區","LI":"小康里","LIN":"9鄰","STREET":"大武街","SECT":" ","MAREA":" ","LANE":" ","ALLEY":" ","HOUSE_NO":"２４８號","E_COORD97":169674.64000000001,"N_COORD97":2546198.5099999998,"ADDRESS":"大武街２４８號","OBJECTID":564268},"geometry":{"x":169674.63999999966,"y":2546198.5100000016}},{"attributes":{"ID":564296,"DIS_CODE":0,"TOWNNAME":"北區","LI":"興南里","LIN":"9鄰","STREET":"公園北路","SECT":" ","MAREA":" ","LANE":" ","ALLEY":" ","HOUSE_NO":"１５６之１號","E_COORD97":168798.76000000001,"N_COORD97":2545087.5,"ADDRESS":"公園北路１５６之１號","OBJECTID":564269},"geometry":{"x":168798.75999999978,"y":2545087.5}},{"attributes":{"ID":564297,"DIS_CODE":0,"TOWNNAME":"北區","LI":"興南里","LIN":"9鄰","STREET":"公園北路","SECT":" ","MAREA":" ","LANE":" ","ALLEY":" ","HOUSE_NO":"１５６之２號","E_COORD97":168789.07999999999,"N_COORD97":2545090.8399999999,"ADDRESS":"公園北路１５６之２號","OBJECTID":564270},"geometry":{"x":168789.07999999914,"y":2545090.8400000017}},{"attributes":{"ID":564298,"DIS_CODE":0,"TOWNNAME":"北區","LI":"興南里","LIN":"9鄰","STREET":"公園北路","SECT":" ","MAREA":" ","LANE":" ","ALLEY":" ","HOUSE_NO":"１５６之３號","E_COORD97":168774.63,"N_COORD97":2545093.6899999999,"ADDRESS":"公園北路１５６之３號","OBJECTID":564271},"geometry":{"x":168774.62999999989,"y":2545093.6900000032}},{"attributes":{"ID":564299,"DIS_CODE":0,"TOWNNAME":"北區","LI":"興南里","LIN":"9鄰","STREET":"公園北路","SECT":" ","MAREA":" ","LANE":" ","ALLEY":" ","HOUSE_NO":"１５６之５號","E_COORD97":168761.78,"N_COORD97":2545097.2599999998,"ADDRESS":"公園北路１５６之５號","OBJECTID":564272},"geometry":{"x":168761.78000000026,"y":2545097.2600000035}},{"attributes":{"ID":564300,"DIS_CODE":0,"TOWNNAME":"北區","LI":"興南里","LIN":"9鄰","STREET":"公園北路","SECT":" ","MAREA":" ","LANE":" ","ALLEY":" ","HOUSE_NO":"１５６之７號","E_COORD97":168740.19,"N_COORD97":2545102.6600000001,"ADDRESS":"公園北路１５６之７號","OBJECTID":564273},"geometry":{"x":168740.19000000134,"y":2545102.660000002}},{"attributes":{"ID":564301,"DIS_CODE":0,"TOWNNAME":"北區","LI":"興南里","LIN":"9鄰","STREET":"公園北路","SECT":" ","MAREA":" ","LANE":" ","ALLEY":" ","HOUSE_NO":"１５６之８號","E_COORD97":168731.14000000001,"N_COORD97":2545104.73,"ADDRESS":"公園北路１５６之８號","OBJECTID":564274},"geometry":{"x":168731.1400000006,"y":2545104.7300000042}},{"attributes":{"ID":564302,"DIS_CODE":0,"TOWNNAME":"北區","LI":"長榮里","LIN":"9鄰","STREET":"長勝路","SECT":" ","MAREA":" ","LANE":" ","ALLEY":" ","HOUSE_NO":"１號","E_COORD97":170074.45999999999,"N_COORD97":2545520.04,"ADDRESS":"長勝路１號","OBJECTID":564275},"geometry":{"x":170074.45999999996,"y":2545520.0399999991}},{"attributes":{"ID":564303,"DIS_CODE":0,"TOWNNAME":"北區","LI":"長榮里","LIN":"9鄰","STREET":"長勝路","SECT":" ","MAREA":" ","LANE":" ","ALLEY":" ","HOUSE_NO":"３號","E_COORD97":170067.79000000001,"N_COORD97":2545524.3199999998,"ADDRESS":"長勝路３號","OBJECTID":564276},"geometry":{"x":170067.79000000097,"y":2545524.320000004}},{"attributes":{"ID":564304,"DIS_CODE":0,"TOWNNAME":"北區","LI":"長榮里","LIN":"9鄰","STREET":"長勝路","SECT":" ","MAREA":" ","LANE":" ","ALLEY":" ","HOUSE_NO":"５號","E_COORD97":170063.5,"N_COORD97":2545527.1800000002,"ADDRESS":"長勝路５號","OBJECTID":564277},"geometry":{"x":170063.50000000093,"y":2545527.1799999997}},{"attributes":{"ID":564305,"DIS_CODE":0,"TOWNNAME":"南區","LI":"松安里","LIN":"9鄰","STREET":"興南街","SECT":" ","MAREA":" ","LANE":" ","ALLEY":" ","HOUSE_NO":"８８號","E_COORD97":166205.69,"N_COORD97":2536024.8999999999,"ADDRESS":"興南街８８號","OBJECTID":564278},"geometry":{"x":166205.69000000134,"y":2536024.9000000022}},{"attributes":{"ID":564306,"DIS_CODE":0,"TOWNNAME":"南區","LI":"松安里","LIN":"9鄰","STREET":"興南街","SECT":" ","MAREA":" ","LANE":" ","ALLEY":" ","HOUSE_NO":"９０號","E_COORD97":166204.32000000001,"N_COORD97":2536021.2000000002,"ADDRESS":"興南街９０號","OBJECTID":564279},"geometry":{"x":166204.32000000216,"y":2536021.2000000011}},{"attributes":{"ID":564307,"DIS_CODE":0,"TOWNNAME":"南區","LI":"松安里","LIN":"9鄰","STREET":"灣裡路","SECT":" ","MAREA":" ","LANE":" ","ALLEY":" ","HOUSE_NO":"４５０號","E_COORD97":166218.04000000001,"N_COORD97":2536047.9399999999,"ADDRESS":"灣裡路４５０號","OBJECTID":564280},"geometry":{"x":166218.04000000097,"y":2536047.9400000013}},{"attributes":{"ID":564308,"DIS_CODE":0,"TOWNNAME":"南區","LI":"松安里","LIN":"9鄰","STREET":"灣裡路","SECT":" ","MAREA":" ","LANE":" ","ALLEY":" ","HOUSE_NO":"４５２號","E_COORD97":166215.70999999999,"N_COORD97":2536043.4199999999,"ADDRESS":"灣裡路４５２號","OBJECTID":564281},"geometry":{"x":166215.71000000089,"y":2536043.4199999999}},{"attributes":{"ID":564309,"DIS_CODE":0,"TOWNNAME":"南區","LI":"松安里","LIN":"9鄰","STREET":"灣裡路","SECT":" ","MAREA":" ","LANE":" ","ALLEY":" ","HOUSE_NO":"４５４號","E_COORD97":166216.39999999999,"N_COORD97":2536039.4399999999,"ADDRESS":"灣裡路４５４號","OBJECTID":564282},"geometry":{"x":166216.4000000013,"y":2536039.4399999995}},{"attributes":{"ID":564310,"DIS_CODE":0,"TOWNNAME":"東山區","LI":"東山里","LIN":"9鄰","STREET":"中興路","SECT":" ","MAREA":" ","LANE":" ","ALLEY":" ","HOUSE_NO":"１６２號","E_COORD97":188978.53,"N_COORD97":2580389.6899999999,"ADDRESS":"中興路１６２號","OBJECTID":564283},"geometry":{"x":188978.53000000119,"y":2580389.6899999995}},{"attributes":{"ID":564311,"DIS_CODE":0,"TOWNNAME":"東山區","LI":"東山里","LIN":"9鄰","STREET":"中興路","SECT":" ","MAREA":" ","LANE":" ","ALLEY":" ","HOUSE_NO":"１６４號","E_COORD97":188979.19,"N_COORD97":2580394.3999999999,"ADDRESS":"中興路１６４號","OBJECTID":564284},"geometry":{"x":188979.19000000134,"y":2580394.4000000022}},{"attributes":{"ID":564312,"DIS_CODE":0,"TOWNNAME":"東山區","LI":"東山里","LIN":"9鄰","STREET":"中興路","SECT":" ","MAREA":" ","LANE":" ","ALLEY":" ","HOUSE_NO":"１６６號","E_COORD97":188979.60999999999,"N_COORD97":2580399.25,"ADDRESS":"中興路１６６號","OBJECTID":564285},"geometry":{"x":188979.61000000127,"y":2580399.2500000019}},{"attributes":{"ID":564313,"DIS_CODE":0,"TOWNNAME":"東山區","LI":"東山里","LIN":"9鄰","STREET":"中興路","SECT":" ","MAREA":" ","LANE":" ","ALLEY":" ","HOUSE_NO":"１７０號","E_COORD97":188983.67000000001,"N_COORD97":2580409.1600000001,"ADDRESS":"中興路１７０號","OBJECTID":564286},"geometry":{"x":188983.67000000086,"y":2580409.160000002}},{"attributes":{"ID":564314,"DIS_CODE":0,"TOWNNAME":"東山區","LI":"東山里","LIN":"9鄰","STREET":"中興路","SECT":" ","MAREA":" ","LANE":" ","ALLEY":" ","HOUSE_NO":"１７２號","E_COORD97":188983.89000000001,"N_COORD97":2580413.4300000002,"ADDRESS":"中興路１７２號","OBJECTID":564287},"geometry":{"x":188983.8900000006,"y":2580413.4300000034}},{"attributes":{"ID":564315,"DIS_CODE":0,"TOWNNAME":"東山區","LI":"東山里","LIN":"9鄰","STREET":"中興路","SECT":" ","MAREA":" ","LANE":" ","ALLEY":" ","HOUSE_NO":"１７４號","E_COORD97":188984.10999999999,"N_COORD97":2580417.6899999999,"ADDRESS":"中興路１７４號","OBJECTID":564288},"geometry":{"x":188984.1100000022,"y":2580417.6899999995}},{"attributes":{"ID":564316,"DIS_CODE":0,"TOWNNAME":"東山區","LI":"東山里","LIN":"9鄰","STREET":"中興路","SECT":" ","MAREA":" ","LANE":" ","ALLEY":" ","HOUSE_NO":"１７６號","E_COORD97":188984.34,"N_COORD97":2580421.96,"ADDRESS":"中興路１７６號","OBJECTID":564289},"geometry":{"x":188984.34000000078,"y":2580421.9600000028}},{"attributes":{"ID":564317,"DIS_CODE":0,"TOWNNAME":"東山區","LI":"東山里","LIN":"9鄰","STREET":"中興路","SECT":" ","MAREA":" ","LANE":" ","ALLEY":" ","HOUSE_NO":"１７８號","E_COORD97":188984.56,"N_COORD97":2580426.23,"ADDRESS":"中興路１７８號","OBJECTID":564290},"geometry":{"x":188984.55999999959,"y":2580426.2300000023}},{"attributes":{"ID":564318,"DIS_CODE":0,"TOWNNAME":"新營區","LI":"民生里","LIN":"9鄰","STREET":"中華路","SECT":" ","MAREA":" ","LANE":" ","ALLEY":" ","HOUSE_NO":"９１之２號","E_COORD97":179265.84,"N_COORD97":2578142.1400000001,"ADDRESS":"中華路９１之２號","OBJECTID":564291},"geometry":{"x":179265.84000000078,"y":2578142.1400000025}},{"attributes":{"ID":564319,"DIS_CODE":0,"TOWNNAME":"新營區","LI":"新南里","LIN":"9鄰","STREET":"新北五街","SECT":" ","MAREA":" ","LANE":" ","ALLEY":" ","HOUSE_NO":"１４９號","E_COORD97":178566.87,"N_COORD97":2579173.1600000001,"ADDRESS":"新北五街１４９號","OBJECTID":564292},"geometry":{"x":178566.87000000197,"y":2579173.1600000001}},{"attributes":{"ID":564320,"DIS_CODE":0,"TOWNNAME":"新營區","LI":"新南里","LIN":"9鄰","STREET":"新北五街","SECT":" ","MAREA":" ","LANE":" ","ALLEY":" ","HOUSE_NO":"１５１號","E_COORD97":178565.88,"N_COORD97":2579178.7000000002,"ADDRESS":"新北五街１５１號","OBJECTID":564293},"geometry":{"x":178565.87999999989,"y":2579178.6999999993}},{"attributes":{"ID":564321,"DIS_CODE":0,"TOWNNAME":"新營區","LI":"民生里","LIN":"9鄰","STREET":"中華路","SECT":" ","MAREA":" ","LANE":" ","ALLEY":" ","HOUSE_NO":"９１號","E_COORD97":179271.53,"N_COORD97":2578143.1600000001,"ADDRESS":"中華路９１號","OBJECTID":564294},"geometry":{"x":179271.53000000119,"y":2578143.1600000001}},{"attributes":{"ID":564322,"DIS_CODE":0,"TOWNNAME":"新營區","LI":"民榮里","LIN":"9鄰","STREET":"新進路","SECT":"二段","MAREA":" ","LANE":" ","ALLEY":" ","HOUSE_NO":"１３０號","E_COORD97":179403.85999999999,"N_COORD97":2577738.3199999998,"ADDRESS":"新進路二段１３０號","OBJECTID":564295},"geometry":{"x":179403.86000000034,"y":2577738.3200000003}},{"attributes":{"ID":564323,"DIS_CODE":0,"TOWNNAME":"新營區","LI":"嘉芳里","LIN":"9鄰","STREET":"復興路","SECT":" ","MAREA":" ","LANE":" ","ALLEY":" ","HOUSE_NO":"８９６號","E_COORD97":176741.35999999999,"N_COORD97":2578791.1499999999,"ADDRESS":"復興路８９６號","OBJECTID":564296},"geometry":{"x":176741.3600000022,"y":2578791.1500000004}},{"attributes":{"ID":564324,"DIS_CODE":0,"TOWNNAME":"新營區","LI":"三仙里","LIN":"9鄰","STREET":"博愛街","SECT":" ","MAREA":" ","LANE":" ","ALLEY":" ","HOUSE_NO":"９８號","E_COORD97":179630.48999999999,"N_COORD97":2578128.1699999999,"ADDRESS":"博愛街９８號","OBJECTID":564297},"geometry":{"x":179630.49000000022,"y":2578128.1700000018}},{"attributes":{"ID":564325,"DIS_CODE":0,"TOWNNAME":"新營區","LI":"民權里","LIN":"9鄰","STREET":"博愛街","SECT":" ","MAREA":" ","LANE":" ","ALLEY":" ","HOUSE_NO":"４０號","E_COORD97":179848.57999999999,"N_COORD97":2578149.2799999998,"ADDRESS":"博愛街４０號","OBJECTID":564298},"geometry":{"x":179848.58000000194,"y":2578149.2800000031}},{"attributes":{"ID":564326,"DIS_CODE":0,"TOWNNAME":"新營區","LI":"民榮里","LIN":"9鄰","STREET":"和平路","SECT":" ","MAREA":" ","LANE":" ","ALLEY":" ","HOUSE_NO":"４０號","E_COORD97":179406.85000000001,"N_COORD97":2577754.9100000001,"ADDRESS":"和平路４０號","OBJECTID":564299},"geometry":{"x":179406.84999999963,"y":2577754.9100000001}},{"attributes":{"ID":564327,"DIS_CODE":0,"TOWNNAME":"新營區","LI":"興安里","LIN":"9鄰","STREET":"廠前街","SECT":" ","MAREA":" ","LANE":" ","ALLEY":" ","HOUSE_NO":"３６號","E_COORD97":180010.39999999999,"N_COORD97":2577758.6899999999,"ADDRESS":"廠前街３６號","OBJECTID":564300},"geometry":{"x":180010.40000000037,"y":2577758.6899999995}},{"attributes":{"ID":564328,"DIS_CODE":0,"TOWNNAME":"新營區","LI":"民權里","LIN":"9鄰","STREET":"博愛街","SECT":" ","MAREA":" ","LANE":" ","ALLEY":" ","HOUSE_NO":"３６號","E_COORD97":179889.51999999999,"N_COORD97":2578152.4100000001,"ADDRESS":"博愛街３６號","OBJECTID":564301},"geometry":{"x":179889.52000000048,"y":2578152.4099999983}},{"attributes":{"ID":564329,"DIS_CODE":0,"TOWNNAME":"新營區","LI":"興安里","LIN":"9鄰","STREET":"廠前街","SECT":" ","MAREA":" ","LANE":" ","ALLEY":" ","HOUSE_NO":"３８號","E_COORD97":179994.98999999999,"N_COORD97":2577744.3599999999,"ADDRESS":"廠前街３８號","OBJECTID":564302},"geometry":{"x":179994.99000000022,"y":2577744.3599999994}},{"attributes":{"ID":564330,"DIS_CODE":0,"TOWNNAME":"新營區","LI":"民權里","LIN":"9鄰","STREET":"博愛街","SECT":" ","MAREA":" ","LANE":" ","ALLEY":" ","HOUSE_NO":"３６號之２","E_COORD97":179880.53,"N_COORD97":2578151.3900000001,"ADDRESS":"博愛街３６號之２","OBJECTID":564303},"geometry":{"x":179880.53000000026,"y":2578151.3900000025}},{"attributes":{"ID":564331,"DIS_CODE":0,"TOWNNAME":"新營區","LI":"民權里","LIN":"9鄰","STREET":"博愛街","SECT":" ","MAREA":" ","LANE":" ","ALLEY":" ","HOUSE_NO":"３８號之１","E_COORD97":179873.23999999999,"N_COORD97":2578150.3300000001,"ADDRESS":"博愛街３８號之１","OBJECTID":564304},"geometry":{"x":179873.24000000209,"y":2578150.3300000019}},{"attributes":{"ID":564332,"DIS_CODE":0,"TOWNNAME":"新營區","LI":"新南里","LIN":"9鄰","STREET":"新北五街","SECT":" ","MAREA":" ","LANE":" ","ALLEY":" ","HOUSE_NO":"１３３號","E_COORD97":178574.87,"N_COORD97":2579135.4700000002,"ADDRESS":"新北五街１３３號","OBJECTID":564305},"geometry":{"x":178574.87000000011,"y":2579135.4700000007}},{"attributes":{"ID":564333,"DIS_CODE":0,"TOWNNAME":"東山區","LI":"東中里","LIN":"9鄰","STREET":"英明街","SECT":" ","MAREA":" ","LANE":" ","ALLEY":" ","HOUSE_NO":"１０號","E_COORD97":188555.14000000001,"N_COORD97":2579862.8199999998,"ADDRESS":"英明街１０號","OBJECTID":564306},"geometry":{"x":188555.13999999966,"y":2579862.8200000022}},{"attributes":{"ID":564334,"DIS_CODE":0,"TOWNNAME":"東山區","LI":"東中里","LIN":"9鄰","STREET":"英明街","SECT":" ","MAREA":" ","LANE":" ","ALLEY":" ","HOUSE_NO":"１２號","E_COORD97":188549.48000000001,"N_COORD97":2579858.27,"ADDRESS":"英明街１２號","OBJECTID":564307},"geometry":{"x":188549.48000000231,"y":2579858.2700000033}},{"attributes":{"ID":564335,"DIS_CODE":0,"TOWNNAME":"東山區","LI":"東中里","LIN":"9鄰","STREET":"英明街","SECT":" ","MAREA":" ","LANE":" ","ALLEY":" ","HOUSE_NO":"１５號","E_COORD97":188598.94,"N_COORD97":2579853.7200000002,"ADDRESS":"英明街１５號","OBJECTID":564308},"geometry":{"x":188598.94000000134,"y":2579853.7200000025}},{"attributes":{"ID":564336,"DIS_CODE":0,"TOWNNAME":"東山區","LI":"東中里","LIN":"9鄰","STREET":"英明街","SECT":" ","MAREA":" ","LANE":" ","ALLEY":" ","HOUSE_NO":"１６號","E_COORD97":188548,"N_COORD97":2579853.98,"ADDRESS":"英明街１６號","OBJECTID":564309},"geometry":{"x":188548,"y":2579853.9800000004}},{"attributes":{"ID":564337,"DIS_CODE":0,"TOWNNAME":"東山區","LI":"東中里","LIN":"9鄰","STREET":"英明街","SECT":" ","MAREA":" ","LANE":" ","ALLEY":" ","HOUSE_NO":"１８號","E_COORD97":188546.63,"N_COORD97":2579849.75,"ADDRESS":"英明街１８號","OBJECTID":564310},"geometry":{"x":188546.63000000082,"y":2579849.7500000019}},{"attributes":{"ID":564338,"DIS_CODE":0,"TOWNNAME":"東山區","LI":"東中里","LIN":"9鄰","STREET":"英明街","SECT":" ","MAREA":" ","LANE":" ","ALLEY":" ","HOUSE_NO":"１號","E_COORD97":188565.72,"N_COORD97":2579911,"ADDRESS":"英明街１號","OBJECTID":564311},"geometry":{"x":188565.7200000016,"y":2579911}},{"attributes":{"ID":564339,"DIS_CODE":0,"TOWNNAME":"東山區","LI":"東中里","LIN":"9鄰","STREET":"英明街","SECT":" ","MAREA":" ","LANE":" ","ALLEY":" ","HOUSE_NO":"２０號","E_COORD97":188545.23000000001,"N_COORD97":2579845.1000000001,"ADDRESS":"英明街２０號","OBJECTID":564312},"geometry":{"x":188545.23000000045,"y":2579845.0999999996}},{"attributes":{"ID":564340,"DIS_CODE":0,"TOWNNAME":"東山區","LI":"東中里","LIN":"9鄰","STREET":"英明街","SECT":" ","MAREA":" ","LANE":" ","ALLEY":" ","HOUSE_NO":"２２號","E_COORD97":188543.94,"N_COORD97":2579840.6000000001,"ADDRESS":"英明街２２號","OBJECTID":564313},"geometry":{"x":188543.94000000041,"y":2579840.6000000015}},{"attributes":{"ID":564341,"DIS_CODE":0,"TOWNNAME":"東山區","LI":"東中里","LIN":"9鄰","STREET":"英明街","SECT":" ","MAREA":" ","LANE":" ","ALLEY":" ","HOUSE_NO":"２６號","E_COORD97":188542.16,"N_COORD97":2579835.5800000001,"ADDRESS":"英明街２６號","OBJECTID":564314},"geometry":{"x":188542.16000000015,"y":2579835.5800000001}},{"attributes":{"ID":564342,"DIS_CODE":0,"TOWNNAME":"東山區","LI":"東中里","LIN":"9鄰","STREET":"英明街","SECT":" ","MAREA":" ","LANE":" ","ALLEY":" ","HOUSE_NO":"２８號","E_COORD97":188540.39999999999,"N_COORD97":2579830.21,"ADDRESS":"英明街２８號","OBJECTID":564315},"geometry":{"x":188540.4000000013,"y":2579830.2100000028}},{"attributes":{"ID":564343,"DIS_CODE":0,"TOWNNAME":"東山區","LI":"東中里","LIN":"9鄰","STREET":"英明街","SECT":" ","MAREA":" ","LANE":" ","ALLEY":" ","HOUSE_NO":"２號","E_COORD97":188553.14000000001,"N_COORD97":2579879.2200000002,"ADDRESS":"英明街２號","OBJECTID":564316},"geometry":{"x":188553.1400000006,"y":2579879.2200000007}},{"attributes":{"ID":564344,"DIS_CODE":0,"TOWNNAME":"東山區","LI":"東中里","LIN":"9鄰","STREET":"英明街","SECT":" ","MAREA":" ","LANE":" ","ALLEY":" ","HOUSE_NO":"３０號","E_COORD97":188542.54000000001,"N_COORD97":2579823.3599999999,"ADDRESS":"英明街３０號","OBJECTID":564317},"geometry":{"x":188542.54000000097,"y":2579823.3599999975}},{"attributes":{"ID":564345,"DIS_CODE":0,"TOWNNAME":"東山區","LI":"東中里","LIN":"9鄰","STREET":"英明街","SECT":" ","MAREA":" ","LANE":" ","ALLEY":" ","HOUSE_NO":"３號","E_COORD97":188566.88,"N_COORD97":2579903.7799999998,"ADDRESS":"英明街３號","OBJECTID":564318},"geometry":{"x":188566.88000000082,"y":2579903.7799999993}},{"attributes":{"ID":564346,"DIS_CODE":0,"TOWNNAME":"東山區","LI":"東中里","LIN":"9鄰","STREET":"英明街","SECT":" ","MAREA":" ","LANE":" ","ALLEY":" ","HOUSE_NO":"５號","E_COORD97":188567.75,"N_COORD97":2579897.77,"ADDRESS":"英明街５號","OBJECTID":564319},"geometry":{"x":188567.75000000093,"y":2579897.7699999996}},{"attributes":{"ID":564347,"DIS_CODE":0,"TOWNNAME":"東山區","LI":"東中里","LIN":"9鄰","STREET":"英明街","SECT":" ","MAREA":" ","LANE":" ","ALLEY":" ","HOUSE_NO":"６號","E_COORD97":188553.91,"N_COORD97":2579874.3900000001,"ADDRESS":"英明街６號","OBJECTID":564320},"geometry":{"x":188553.91000000015,"y":2579874.3900000006}},{"attributes":{"ID":564348,"DIS_CODE":0,"TOWNNAME":"東山區","LI":"東中里","LIN":"9鄰","STREET":"英明街","SECT":" ","MAREA":" ","LANE":" ","ALLEY":" ","HOUSE_NO":"７號","E_COORD97":188568.95999999999,"N_COORD97":2579890.2000000002,"ADDRESS":"英明街７號","OBJECTID":564321},"geometry":{"x":188568.95999999996,"y":2579890.2000000011}},{"attributes":{"ID":564349,"DIS_CODE":0,"TOWNNAME":"東山區","LI":"東中里","LIN":"9鄰","STREET":"英明街","SECT":" ","MAREA":" ","LANE":" ","ALLEY":" ","HOUSE_NO":"８號","E_COORD97":188554.5,"N_COORD97":2579869.3399999999,"ADDRESS":"英明街８號","OBJECTID":564322},"geometry":{"x":188554.50000000093,"y":2579869.3400000017}},{"attributes":{"ID":564350,"DIS_CODE":0,"TOWNNAME":"北區","LI":"成德里","LIN":"9鄰","STREET":"西門路","SECT":"四段","MAREA":" ","LANE":" ","ALLEY":" ","HOUSE_NO":"１５１號","E_COORD97":168684.17000000001,"N_COORD97":2545594.02,"ADDRESS":"西門路四段１５１號","OBJECTID":564323},"geometry":{"x":168684.17000000086,"y":2545594.0200000014}},{"attributes":{"ID":564351,"DIS_CODE":0,"TOWNNAME":"北區","LI":"成德里","LIN":"9鄰","STREET":"西門路","SECT":"四段","MAREA":" ","LANE":" ","ALLEY":" ","HOUSE_NO":"１６９號","E_COORD97":168808.03,"N_COORD97":2545630.9500000002,"ADDRESS":"西門路四段１６９號","OBJECTID":564324},"geometry":{"x":168808.03000000026,"y":2545630.950000003}},{"attributes":{"ID":564352,"DIS_CODE":0,"TOWNNAME":"北區","LI":"成功里","LIN":"9鄰","STREET":"北成路","SECT":" ","MAREA":" ","LANE":" ","ALLEY":" ","HOUSE_NO":"１２號","E_COORD97":169195.35000000001,"N_COORD97":2546541.3199999998,"ADDRESS":"北成路１２號","OBJECTID":564325},"geometry":{"x":169195.3499999987,"y":2546541.320000004}},{"attributes":{"ID":564353,"DIS_CODE":0,"TOWNNAME":"北區","LI":"成功里","LIN":"9鄰","STREET":"北成路","SECT":" ","MAREA":" ","LANE":" ","ALLEY":" ","HOUSE_NO":"１４號","E_COORD97":169191.31,"N_COORD97":2546544.46,"ADDRESS":"北成路１４號","OBJECTID":564326},"geometry":{"x":169191.31000000052,"y":2546544.4600000046}},{"attributes":{"ID":564354,"DIS_CODE":0,"TOWNNAME":"北區","LI":"成功里","LIN":"9鄰","STREET":"北成路","SECT":" ","MAREA":" ","LANE":" ","ALLEY":" ","HOUSE_NO":"１６號","E_COORD97":169188.62,"N_COORD97":2546548.04,"ADDRESS":"北成路１６號","OBJECTID":564327},"geometry":{"x":169188.62000000011,"y":2546548.0399999991}},{"attributes":{"ID":564355,"DIS_CODE":0,"TOWNNAME":"北區","LI":"成功里","LIN":"9鄰","STREET":"北成路","SECT":" ","MAREA":" ","LANE":" ","ALLEY":" ","HOUSE_NO":"１８號","E_COORD97":169184.57999999999,"N_COORD97":2546552.0699999998,"ADDRESS":"北成路１８號","OBJECTID":564328},"geometry":{"x":169184.58000000101,"y":2546552.0700000003}},{"attributes":{"ID":564356,"DIS_CODE":0,"TOWNNAME":"北區","LI":"成功里","LIN":"9鄰","STREET":"北成路","SECT":" ","MAREA":" ","LANE":" ","ALLEY":" ","HOUSE_NO":"２號","E_COORD97":169220.57000000001,"N_COORD97":2546524.7000000002,"ADDRESS":"北成路２號","OBJECTID":564329},"geometry":{"x":169220.57000000123,"y":2546524.7000000011}},{"attributes":{"ID":564357,"DIS_CODE":0,"TOWNNAME":"北區","LI":"成功里","LIN":"9鄰","STREET":"北成路","SECT":" ","MAREA":" ","LANE":" ","ALLEY":" ","HOUSE_NO":"４號","E_COORD97":169214.35999999999,"N_COORD97":2546528.46,"ADDRESS":"北成路４號","OBJECTID":564330},"geometry":{"x":169214.36000000034,"y":2546528.4600000028}},{"attributes":{"ID":564358,"DIS_CODE":0,"TOWNNAME":"北區","LI":"成功里","LIN":"9鄰","STREET":"北成路","SECT":" ","MAREA":" ","LANE":" ","ALLEY":" ","HOUSE_NO":"８號","E_COORD97":169202.98000000001,"N_COORD97":2546536.8399999999,"ADDRESS":"北成路８號","OBJECTID":564331},"geometry":{"x":169202.98000000138,"y":2546536.8399999999}},{"attributes":{"ID":564359,"DIS_CODE":0,"TOWNNAME":"北區","LI":"成功里","LIN":"9鄰","STREET":"西門路","SECT":"四段","MAREA":" ","LANE":" ","ALLEY":" ","HOUSE_NO":"４５９號","E_COORD97":169229.48000000001,"N_COORD97":2546515.02,"ADDRESS":"西門路四段４５９號","OBJECTID":564332},"geometry":{"x":169229.48000000138,"y":2546515.0199999996}},{"attributes":{"ID":564360,"DIS_CODE":0,"TOWNNAME":"北區","LI":"成功里","LIN":"9鄰","STREET":"西門路","SECT":"四段","MAREA":" ","LANE":" ","ALLEY":" ","HOUSE_NO":"４６１號","E_COORD97":169234.66,"N_COORD97":2546520.6600000001,"ADDRESS":"西門路四段４６１號","OBJECTID":564333},"geometry":{"x":169234.66000000201,"y":2546520.6600000001}},{"attributes":{"ID":564361,"DIS_CODE":0,"TOWNNAME":"北區","LI":"成功里","LIN":"9鄰","STREET":"西門路","SECT":"四段","MAREA":" ","LANE":" ","ALLEY":" ","HOUSE_NO":"４６３號","E_COORD97":169239.84,"N_COORD97":2546523.02,"ADDRESS":"西門路四段４６３號","OBJECTID":564334},"geometry":{"x":169239.84000000171,"y":2546523.0200000014}},{"attributes":{"ID":564362,"DIS_CODE":0,"TOWNNAME":"北區","LI":"成功里","LIN":"9鄰","STREET":"西門路","SECT":"四段","MAREA":" ","LANE":" ","ALLEY":" ","HOUSE_NO":"４６５號","E_COORD97":169242.20000000001,"N_COORD97":2546525.8399999999,"ADDRESS":"西門路四段４６５號","OBJECTID":564335},"geometry":{"x":169242.20000000019,"y":2546525.8399999999}},{"attributes":{"ID":564363,"DIS_CODE":0,"TOWNNAME":"北區","LI":"成功里","LIN":"9鄰","STREET":"西門路","SECT":"四段","MAREA":" ","LANE":" ","ALLEY":" ","HOUSE_NO":"４６７號","E_COORD97":169246.44,"N_COORD97":2546529.1299999999,"ADDRESS":"西門路四段４６７號","OBJECTID":564336},"geometry":{"x":169246.43999999948,"y":2546529.1300000008}},{"attributes":{"ID":564364,"DIS_CODE":0,"TOWNNAME":"北區","LI":"成功里","LIN":"9鄰","STREET":"西門路","SECT":"四段","MAREA":" ","LANE":" ","ALLEY":" ","HOUSE_NO":"４６９號","E_COORD97":169249.26000000001,"N_COORD97":2546532.4199999999,"ADDRESS":"西門路四段４６９號","OBJECTID":564337},"geometry":{"x":169249.26000000071,"y":2546532.4199999999}},{"attributes":{"ID":564365,"DIS_CODE":0,"TOWNNAME":"北區","LI":"成功里","LIN":"9鄰","STREET":"西門路","SECT":"四段","MAREA":" ","LANE":" ","ALLEY":" ","HOUSE_NO":"４７１號","E_COORD97":169252.56,"N_COORD97":2546535.25,"ADDRESS":"西門路四段４７１號","OBJECTID":564338},"geometry":{"x":169252.55999999959,"y":2546535.2500000019}},{"attributes":{"ID":564366,"DIS_CODE":0,"TOWNNAME":"北區","LI":"成功里","LIN":"9鄰","STREET":"西門路","SECT":"四段","MAREA":" ","LANE":" ","ALLEY":" ","HOUSE_NO":"４７３號","E_COORD97":169255.38,"N_COORD97":2546538.54,"ADDRESS":"西門路四段４７３號","OBJECTID":564339},"geometry":{"x":169255.38000000082,"y":2546538.5399999972}},{"attributes":{"ID":564367,"DIS_CODE":0,"TOWNNAME":"北區","LI":"成功里","LIN":"9鄰","STREET":"西門路","SECT":"四段","MAREA":" ","LANE":" ","ALLEY":" ","HOUSE_NO":"４７５號","E_COORD97":169257.73999999999,"N_COORD97":2546542.2999999998,"ADDRESS":"西門路四段４７５號","OBJECTID":564340},"geometry":{"x":169257.73999999929,"y":2546542.3000000045}},{"attributes":{"ID":564368,"DIS_CODE":0,"TOWNNAME":"北區","LI":"成功里","LIN":"9鄰","STREET":"西門路","SECT":"四段","MAREA":" ","LANE":" ","ALLEY":" ","HOUSE_NO":"４７７號","E_COORD97":169260.09,"N_COORD97":2546546.54,"ADDRESS":"西門路四段４７７號","OBJECTID":564341},"geometry":{"x":169260.08999999892,"y":2546546.540000001}},{"attributes":{"ID":564369,"DIS_CODE":0,"TOWNNAME":"北區","LI":"成功里","LIN":"9鄰","STREET":"西門路","SECT":"四段","MAREA":" ","LANE":" ","ALLEY":" ","HOUSE_NO":"４７９號","E_COORD97":169261.04000000001,"N_COORD97":2546550.77,"ADDRESS":"西門路四段４７９號","OBJECTID":564342},"geometry":{"x":169261.04000000097,"y":2546550.7699999996}},{"attributes":{"ID":564370,"DIS_CODE":0,"TOWNNAME":"鹽水區","LI":"武廟里","LIN":"9鄰","STREET":"三福路","SECT":" ","MAREA":" ","LANE":" ","ALLEY":" ","HOUSE_NO":"８４號","E_COORD97":174882.20000000001,"N_COORD97":2580035.8700000001,"ADDRESS":"三福路８４號","OBJECTID":564343},"geometry":{"x":174882.20000000019,"y":2580035.8700000029}},{"attributes":{"ID":564371,"DIS_CODE":0,"TOWNNAME":"鹽水區","LI":"武廟里","LIN":"9鄰","STREET":"三福路","SECT":" ","MAREA":" ","LANE":" ","ALLEY":" ","HOUSE_NO":"８６號","E_COORD97":174868.26000000001,"N_COORD97":2580036.5,"ADDRESS":"三福路８６號","OBJECTID":564344},"geometry":{"x":174868.26000000164,"y":2580036.5}},{"attributes":{"ID":564372,"DIS_CODE":0,"TOWNNAME":"鹽水區","LI":"武廟里","LIN":"9鄰","STREET":"三福路","SECT":" ","MAREA":" ","LANE":" ","ALLEY":" ","HOUSE_NO":"８８號","E_COORD97":174877.17999999999,"N_COORD97":2580058.7400000002,"ADDRESS":"三福路８８號","OBJECTID":564345},"geometry":{"x":174877.17999999877,"y":2580058.7400000002}},{"attributes":{"ID":564373,"DIS_CODE":0,"TOWNNAME":"鹽水區","LI":"武廟里","LIN":"9鄰","STREET":"三福路","SECT":" ","MAREA":" ","LANE":" ","ALLEY":" ","HOUSE_NO":"９０號","E_COORD97":174852.03,"N_COORD97":2580034.2599999998,"ADDRESS":"三福路９０號","OBJECTID":564346},"geometry":{"x":174852.03000000119,"y":2580034.2599999998}},{"attributes":{"ID":564374,"DIS_CODE":0,"TOWNNAME":"鹽水區","LI":"武廟里","LIN":"9鄰","STREET":"三福路","SECT":" ","MAREA":" ","LANE":" ","ALLEY":" ","HOUSE_NO":"９２號","E_COORD97":174842.67999999999,"N_COORD97":2580035.1099999999,"ADDRESS":"三福路９２號","OBJECTID":564347},"geometry":{"x":174842.6799999997,"y":2580035.1099999994}},{"attributes":{"ID":564375,"DIS_CODE":0,"TOWNNAME":"鹽水區","LI":"水正里","LIN":"9鄰","STREET":"中正路","SECT":" ","MAREA":" ","LANE":" ","ALLEY":" ","HOUSE_NO":"１０１號","E_COORD97":175102.73999999999,"N_COORD97":2579727.6299999999,"ADDRESS":"中正路１０１號","OBJECTID":564348},"geometry":{"x":175102.73999999929,"y":2579727.6300000008}},{"attributes":{"ID":564376,"DIS_CODE":0,"TOWNNAME":"鹽水區","LI":"水正里","LIN":"9鄰","STREET":"中正路","SECT":" ","MAREA":" ","LANE":" ","ALLEY":" ","HOUSE_NO":"１０３號","E_COORD97":175100.70000000001,"N_COORD97":2579722.2999999998,"ADDRESS":"中正路１０３號","OBJECTID":564349},"geometry":{"x":175100.70000000019,"y":2579722.3000000007}},{"attributes":{"ID":564377,"DIS_CODE":0,"TOWNNAME":"鹽水區","LI":"水正里","LIN":"9鄰","STREET":"中正路","SECT":" ","MAREA":" ","LANE":" ","ALLEY":" ","HOUSE_NO":"１０５號","E_COORD97":175117.41,"N_COORD97":2579714.3300000001,"ADDRESS":"中正路１０５號","OBJECTID":564350},"geometry":{"x":175117.41000000108,"y":2579714.3300000001}},{"attributes":{"ID":564378,"DIS_CODE":0,"TOWNNAME":"鹽水區","LI":"水正里","LIN":"9鄰","STREET":"中正路","SECT":" ","MAREA":" ","LANE":" ","ALLEY":" ","HOUSE_NO":"１０７號","E_COORD97":175098.78,"N_COORD97":2579712.7599999998,"ADDRESS":"中正路１０７號","OBJECTID":564351},"geometry":{"x":175098.78000000026,"y":2579712.7600000035}},{"attributes":{"ID":564379,"DIS_CODE":0,"TOWNNAME":"鹽水區","LI":"水仙里","LIN":"9鄰","STREET":"中山路","SECT":" ","MAREA":" ","LANE":" ","ALLEY":" ","HOUSE_NO":"１３號","E_COORD97":175034.57000000001,"N_COORD97":2579892.3999999999,"ADDRESS":"中山路１３號","OBJECTID":564352},"geometry":{"x":175034.57000000216,"y":2579892.4000000041}},{"attributes":{"ID":564380,"DIS_CODE":0,"TOWNNAME":"鹽水區","LI":"水仙里","LIN":"9鄰","STREET":"中山路","SECT":" ","MAREA":" ","LANE":" ","ALLEY":" ","HOUSE_NO":"１５號","E_COORD97":175030.01999999999,"N_COORD97":2579892.9199999999,"ADDRESS":"中山路１５號","OBJECTID":564353},"geometry":{"x":175030.01999999955,"y":2579892.9200000018}},{"attributes":{"ID":564381,"DIS_CODE":0,"TOWNNAME":"鹽水區","LI":"水仙里","LIN":"9鄰","STREET":"中山路","SECT":" ","MAREA":" ","LANE":" ","ALLEY":" ","HOUSE_NO":"１７號","E_COORD97":175025.95000000001,"N_COORD97":2579894.1200000001,"ADDRESS":"中山路１７號","OBJECTID":564354},"geometry":{"x":175025.95000000112,"y":2579894.120000001}},{"attributes":{"ID":564382,"DIS_CODE":0,"TOWNNAME":"鹽水區","LI":"水仙里","LIN":"9鄰","STREET":"中山路","SECT":" ","MAREA":" ","LANE":" ","ALLEY":" ","HOUSE_NO":"１９號","E_COORD97":175020.94,"N_COORD97":2579895.0600000001,"ADDRESS":"中山路１９號","OBJECTID":564355},"geometry":{"x":175020.94000000134,"y":2579895.0600000024}},{"attributes":{"ID":564383,"DIS_CODE":0,"TOWNNAME":"鹽水區","LI":"水仙里","LIN":"9鄰","STREET":"中山路","SECT":" ","MAREA":" ","LANE":" ","ALLEY":" ","HOUSE_NO":"２１號","E_COORD97":175016.16,"N_COORD97":2579896.0499999998,"ADDRESS":"中山路２１號","OBJECTID":564356},"geometry":{"x":175016.16000000015,"y":2579896.0500000026}},{"attributes":{"ID":564384,"DIS_CODE":0,"TOWNNAME":"鹽水區","LI":"水仙里","LIN":"9鄰","STREET":"中山路","SECT":" ","MAREA":" ","LANE":" ","ALLEY":" ","HOUSE_NO":"２３號","E_COORD97":175011.57000000001,"N_COORD97":2579897.8199999998,"ADDRESS":"中山路２３號","OBJECTID":564357},"geometry":{"x":175011.57000000123,"y":2579897.8200000003}},{"attributes":{"ID":564385,"DIS_CODE":0,"TOWNNAME":"鹽水區","LI":"水仙里","LIN":"9鄰","STREET":"中山路","SECT":" ","MAREA":" ","LANE":" ","ALLEY":" ","HOUSE_NO":"２５號","E_COORD97":175007.17999999999,"N_COORD97":2579898.8100000001,"ADDRESS":"中山路２５號","OBJECTID":564358},"geometry":{"x":175007.1799999997,"y":2579898.8100000005}},{"attributes":{"ID":564386,"DIS_CODE":0,"TOWNNAME":"鹽水區","LI":"中境里","LIN":"9鄰","STREET":"中山路","SECT":" ","MAREA":" ","LANE":" ","ALLEY":" ","HOUSE_NO":"２８號","E_COORD97":174952.19,"N_COORD97":2579937.4199999999,"ADDRESS":"中山路２８號","OBJECTID":564359},"geometry":{"x":174952.19000000041,"y":2579937.4199999999}},{"attributes":{"ID":564387,"DIS_CODE":0,"TOWNNAME":"鹽水區","LI":"中境里","LIN":"9鄰","STREET":"中山路","SECT":" ","MAREA":" ","LANE":" ","ALLEY":" ","HOUSE_NO":"３０號","E_COORD97":174947.59,"N_COORD97":2579938.6299999999,"ADDRESS":"中山路３０號","OBJECTID":564360},"geometry":{"x":174947.59000000171,"y":2579938.629999999}},{"attributes":{"ID":564388,"DIS_CODE":0,"TOWNNAME":"鹽水區","LI":"中境里","LIN":"9鄰","STREET":"中山路","SECT":" ","MAREA":" ","LANE":" ","ALLEY":" ","HOUSE_NO":"３２號","E_COORD97":174943.39000000001,"N_COORD97":2579939.71,"ADDRESS":"中山路３２號","OBJECTID":564361},"geometry":{"x":174943.38999999966,"y":2579939.7100000028}},{"attributes":{"ID":564389,"DIS_CODE":0,"TOWNNAME":"鹽水區","LI":"中境里","LIN":"9鄰","STREET":"中山路","SECT":" ","MAREA":" ","LANE":" ","ALLEY":" ","HOUSE_NO":"３４號","E_COORD97":174937.04000000001,"N_COORD97":2579943.2000000002,"ADDRESS":"中山路３４號","OBJECTID":564362},"geometry":{"x":174937.04000000004,"y":2579943.200000003}},{"attributes":{"ID":564390,"DIS_CODE":0,"TOWNNAME":"鹽水區","LI":"中境里","LIN":"9鄰","STREET":"中山路","SECT":" ","MAREA":" ","LANE":" ","ALLEY":" ","HOUSE_NO":"３６號","E_COORD97":174928.67999999999,"N_COORD97":2579938.54,"ADDRESS":"中山路３６號","OBJECTID":564363},"geometry":{"x":174928.68000000063,"y":2579938.540000001}},{"attributes":{"ID":564391,"DIS_CODE":0,"TOWNNAME":"鹽水區","LI":"中境里","LIN":"9鄰","STREET":"中山路","SECT":" ","MAREA":" ","LANE":" ","ALLEY":" ","HOUSE_NO":"３８號","E_COORD97":174924.25,"N_COORD97":2579939.3100000001,"ADDRESS":"中山路３８號","OBJECTID":564364},"geometry":{"x":174924.25,"y":2579939.3100000005}},{"attributes":{"ID":564392,"DIS_CODE":0,"TOWNNAME":"鹽水區","LI":"中境里","LIN":"9鄰","STREET":"中山路","SECT":" ","MAREA":" ","LANE":" ","ALLEY":" ","HOUSE_NO":"４０號","E_COORD97":174920.26000000001,"N_COORD97":2579940.0699999998,"ADDRESS":"中山路４０號","OBJECTID":564365},"geometry":{"x":174920.25999999978,"y":2579940.0700000003}},{"attributes":{"ID":564393,"DIS_CODE":0,"TOWNNAME":"鹽水區","LI":"中境里","LIN":"9鄰","STREET":"中山路","SECT":" ","MAREA":" ","LANE":" ","ALLEY":" ","HOUSE_NO":"４２號","E_COORD97":174915.79999999999,"N_COORD97":2579941.1200000001,"ADDRESS":"中山路４２號","OBJECTID":564366},"geometry":{"x":174915.80000000075,"y":2579941.120000001}},{"attributes":{"ID":564394,"DIS_CODE":0,"TOWNNAME":"鹽水區","LI":"中境里","LIN":"9鄰","STREET":"中山路","SECT":" ","MAREA":" ","LANE":" ","ALLEY":" ","HOUSE_NO":"４４號","E_COORD97":174909.85999999999,"N_COORD97":2579942.5600000001,"ADDRESS":"中山路４４號","OBJECTID":564367},"geometry":{"x":174909.86000000034,"y":2579942.5600000024}},{"attributes":{"ID":564395,"DIS_CODE":0,"TOWNNAME":"鹽水區","LI":"中境里","LIN":"9鄰","STREET":"中山路","SECT":" ","MAREA":" ","LANE":" ","ALLEY":" ","HOUSE_NO":"４６號","E_COORD97":174903.07000000001,"N_COORD97":2579944.23,"ADDRESS":"中山路４６號","OBJECTID":564368},"geometry":{"x":174903.07000000123,"y":2579944.2300000042}},{"attributes":{"ID":564396,"DIS_CODE":0,"TOWNNAME":"鹽水區","LI":"水正里","LIN":"9鄰","STREET":"中正路","SECT":" ","MAREA":" ","LANE":" ","ALLEY":" ","HOUSE_NO":"９１號","E_COORD97":175104.64999999999,"N_COORD97":2579752.48,"ADDRESS":"中正路９１號","OBJECTID":564369},"geometry":{"x":175104.65000000037,"y":2579752.4799999986}},{"attributes":{"ID":564397,"DIS_CODE":0,"TOWNNAME":"鹽水區","LI":"水正里","LIN":"9鄰","STREET":"中正路","SECT":" ","MAREA":" ","LANE":" ","ALLEY":" ","HOUSE_NO":"９３號","E_COORD97":175104.91,"N_COORD97":2579746.8799999999,"ADDRESS":"中正路９３號","OBJECTID":564370},"geometry":{"x":175104.90999999922,"y":2579746.879999999}},{"attributes":{"ID":564398,"DIS_CODE":0,"TOWNNAME":"鹽水區","LI":"水正里","LIN":"9鄰","STREET":"中正路","SECT":" ","MAREA":" ","LANE":" ","ALLEY":" ","HOUSE_NO":"９５號","E_COORD97":175104.39000000001,"N_COORD97":2579740.98,"ADDRESS":"中正路９５號","OBJECTID":564371},"geometry":{"x":175104.38999999966,"y":2579740.9800000004}},{"attributes":{"ID":564399,"DIS_CODE":0,"TOWNNAME":"關廟區","LI":"五甲里","LIN":"9鄰","STREET":"南雄路","SECT":"一段","MAREA":" ","LANE":" ","ALLEY":" ","HOUSE_NO":"５２５號","E_COORD97":181607.39000000001,"N_COORD97":2538350.2799999998,"ADDRESS":"南雄路一段５２５號","OBJECTID":564372},"geometry":{"x":181607.39000000153,"y":2538350.2800000012}},{"attributes":{"ID":564400,"DIS_CODE":0,"TOWNNAME":"關廟區","LI":"香洋里","LIN":"9鄰","STREET":"中山路","SECT":"二段","MAREA":" ","LANE":" ","ALLEY":" ","HOUSE_NO":"４８號","E_COORD97":180983.81,"N_COORD97":2540030.2799999998,"ADDRESS":"中山路二段４８號","OBJECTID":564373},"geometry":{"x":180983.80999999959,"y":2540030.2799999993}},{"attributes":{"ID":564401,"DIS_CODE":0,"TOWNNAME":"白河區","LI":"永安里","LIN":"15鄰","STREET":"三民路","SECT":" ","MAREA":" ","LANE":" ","ALLEY":" ","HOUSE_NO":"３８３號","E_COORD97":190227.76000000001,"N_COORD97":2583318.5699999998,"ADDRESS":"三民路３８３號","OBJECTID":564374},"geometry":{"x":190227.75999999978,"y":2583318.570000004}},{"attributes":{"ID":564402,"DIS_CODE":0,"TOWNNAME":"白河區","LI":"永安里","LIN":"15鄰","STREET":"三民路","SECT":" ","MAREA":" ","LANE":" ","ALLEY":" ","HOUSE_NO":"３８５號","E_COORD97":190196.06,"N_COORD97":2583334.0899999999,"ADDRESS":"三民路３８５號","OBJECTID":564375},"geometry":{"x":190196.06000000052,"y":2583334.0899999999}},{"attributes":{"ID":564403,"DIS_CODE":0,"TOWNNAME":"白河區","LI":"永安里","LIN":"15鄰","STREET":"三民路","SECT":" ","MAREA":" ","LANE":" ","ALLEY":" ","HOUSE_NO":"３９７號","E_COORD97":190118.75,"N_COORD97":2583353.2200000002,"ADDRESS":"三民路３９７號","OBJECTID":564376},"geometry":{"x":190118.75000000093,"y":2583353.2200000025}},{"attributes":{"ID":564404,"DIS_CODE":0,"TOWNNAME":"白河區","LI":"永安里","LIN":"15鄰","STREET":"三民路","SECT":" ","MAREA":" ","LANE":" ","ALLEY":" ","HOUSE_NO":"３９９號","E_COORD97":190099.29000000001,"N_COORD97":2583365.7400000002,"ADDRESS":"三民路３９９號","OBJECTID":564377},"geometry":{"x":190099.29000000004,"y":2583365.7400000021}},{"attributes":{"ID":564405,"DIS_CODE":0,"TOWNNAME":"白河區","LI":"永安里","LIN":"15鄰","STREET":"三民路","SECT":" ","MAREA":" ","LANE":" ","ALLEY":" ","HOUSE_NO":"４０１號","E_COORD97":190094.59,"N_COORD97":2583367.0600000001,"ADDRESS":"三民路４０１號","OBJECTID":564378},"geometry":{"x":190094.59000000078,"y":2583367.0600000024}},{"attributes":{"ID":564406,"DIS_CODE":0,"TOWNNAME":"白河區","LI":"永安里","LIN":"15鄰","STREET":"三民路","SECT":" ","MAREA":" ","LANE":" ","ALLEY":" ","HOUSE_NO":"４０３號","E_COORD97":190090.54999999999,"N_COORD97":2583368.1699999999,"ADDRESS":"三民路４０３號","OBJECTID":564379},"geometry":{"x":190090.54999999981,"y":2583368.1699999981}},{"attributes":{"ID":564407,"DIS_CODE":0,"TOWNNAME":"白河區","LI":"永安里","LIN":"15鄰","STREET":"三民路","SECT":" ","MAREA":" ","LANE":" ","ALLEY":" ","HOUSE_NO":"４０５號","E_COORD97":190086.72,"N_COORD97":2583369.9500000002,"ADDRESS":"三民路４０５號","OBJECTID":564380},"geometry":{"x":190086.72000000067,"y":2583369.9500000011}},{"attributes":{"ID":564408,"DIS_CODE":0,"TOWNNAME":"白河區","LI":"永安里","LIN":"15鄰","STREET":"三民路","SECT":" ","MAREA":" ","LANE":" ","ALLEY":" ","HOUSE_NO":"４０７號","E_COORD97":190082.37,"N_COORD97":2583370.54,"ADDRESS":"三民路４０７號","OBJECTID":564381},"geometry":{"x":190082.37000000197,"y":2583370.5399999991}},{"attributes":{"ID":564409,"DIS_CODE":0,"TOWNNAME":"白河區","LI":"外角里","LIN":"10鄰","STREET":"三民路","SECT":" ","MAREA":" ","LANE":" ","ALLEY":" ","HOUSE_NO":"３８號","E_COORD97":191223.54999999999,"N_COORD97":2583282.9500000002,"ADDRESS":"三民路３８號","OBJECTID":564382},"geometry":{"x":191223.55000000075,"y":2583282.9499999993}},{"attributes":{"ID":564410,"DIS_CODE":0,"TOWNNAME":"關廟區","LI":"五甲里","LIN":"9鄰","STREET":"南雄路","SECT":"一段","MAREA":" ","LANE":" ","ALLEY":" ","HOUSE_NO":"５７７號","E_COORD97":181554.39000000001,"N_COORD97":2538543.2799999998,"ADDRESS":"南雄路一段５７７號","OBJECTID":564383},"geometry":{"x":181554.38999999966,"y":2538543.2800000012}},{"attributes":{"ID":564411,"DIS_CODE":0,"TOWNNAME":"關廟區","LI":"布袋里","LIN":"9鄰","STREET":"長文街","SECT":" ","MAREA":" ","LANE":" ","ALLEY":" ","HOUSE_NO":"３８７號","E_COORD97":182179.73999999999,"N_COORD97":2534747.25,"ADDRESS":"長文街３８７號","OBJECTID":564384},"geometry":{"x":182179.74000000022,"y":2534747.2500000019}},{"attributes":{"ID":564412,"DIS_CODE":0,"TOWNNAME":"關廟區","LI":"山西里","LIN":"9鄰","STREET":"文衡路","SECT":" ","MAREA":" ","LANE":" ","ALLEY":" ","HOUSE_NO":"２０５號","E_COORD97":180893.28,"N_COORD97":2540715.4500000002,"ADDRESS":"文衡路２０５號","OBJECTID":564385},"geometry":{"x":180893.27999999933,"y":2540715.4500000011}},{"attributes":{"ID":564413,"DIS_CODE":0,"TOWNNAME":"關廟區","LI":"山西里","LIN":"9鄰","STREET":"文衡路","SECT":" ","MAREA":" ","LANE":" ","ALLEY":" ","HOUSE_NO":"２１９號","E_COORD97":180892.44,"N_COORD97":2540757.3300000001,"ADDRESS":"文衡路２１９號","OBJECTID":564386},"geometry":{"x":180892.44000000227,"y":2540757.3300000038}},{"attributes":{"ID":564414,"DIS_CODE":0,"TOWNNAME":"關廟區","LI":"山西里","LIN":"9鄰","STREET":"文衡路","SECT":" ","MAREA":" ","LANE":" ","ALLEY":" ","HOUSE_NO":"２０３號","E_COORD97":180889.26000000001,"N_COORD97":2540712.3300000001,"ADDRESS":"文衡路２０３號","OBJECTID":564387},"geometry":{"x":180889.25999999978,"y":2540712.3300000001}},{"attributes":{"ID":564415,"DIS_CODE":0,"TOWNNAME":"關廟區","LI":"山西里","LIN":"9鄰","STREET":"文衡路","SECT":" ","MAREA":" ","LANE":" ","ALLEY":" ","HOUSE_NO":"２１５號","E_COORD97":180892.84,"N_COORD97":2540748.3300000001,"ADDRESS":"文衡路２１５號","OBJECTID":564388},"geometry":{"x":180892.84000000078,"y":2540748.3300000019}},{"attributes":{"ID":564416,"DIS_CODE":0,"TOWNNAME":"關廟區","LI":"山西里","LIN":"9鄰","STREET":"文衡路","SECT":" ","MAREA":" ","LANE":" ","ALLEY":" ","HOUSE_NO":"２８８號","E_COORD97":180913.94,"N_COORD97":2540727.3300000001,"ADDRESS":"文衡路２８８號","OBJECTID":564389},"geometry":{"x":180913.94000000041,"y":2540727.3300000019}},{"attributes":{"ID":564417,"DIS_CODE":0,"TOWNNAME":"關廟區","LI":"香洋里","LIN":"9鄰","STREET":"南雄路","SECT":"二段","MAREA":" ","LANE":" ","ALLEY":" ","HOUSE_NO":"７號","E_COORD97":181075.48999999999,"N_COORD97":2540038.2799999998,"ADDRESS":"南雄路二段７號","OBJECTID":564390},"geometry":{"x":181075.49000000115,"y":2540038.2800000012}},{"attributes":{"ID":564418,"DIS_CODE":0,"TOWNNAME":"關廟區","LI":"南花里","LIN":"9鄰","STREET":"花園一街","SECT":" ","MAREA":" ","LANE":" ","ALLEY":" ","HOUSE_NO":"１２７號","E_COORD97":181796.48999999999,"N_COORD97":2540183.25,"ADDRESS":"花園一街１２７號","OBJECTID":564391},"geometry":{"x":181796.49000000022,"y":2540183.25}},{"attributes":{"ID":564419,"DIS_CODE":0,"TOWNNAME":"關廟區","LI":"松腳里","LIN":"9鄰","STREET":"勝利街","SECT":" ","MAREA":" ","LANE":" ","ALLEY":" ","HOUSE_NO":"１號","E_COORD97":181848.07000000001,"N_COORD97":2539733.2599999998,"ADDRESS":"勝利街１號","OBJECTID":564392},"geometry":{"x":181848.07000000123,"y":2539733.2599999979}},{"attributes":{"ID":564420,"DIS_CODE":0,"TOWNNAME":"關廟區","LI":"北勢里","LIN":"9鄰","STREET":"北安三街","SECT":" ","MAREA":" ","LANE":" ","ALLEY":" ","HOUSE_NO":"５７號","E_COORD97":181619.89000000001,"N_COORD97":2540528.3199999998,"ADDRESS":"北安三街５７號","OBJECTID":564393},"geometry":{"x":181619.8900000006,"y":2540528.3200000022}},{"attributes":{"ID":564421,"DIS_CODE":0,"TOWNNAME":"關廟區","LI":"北花里","LIN":"9鄰","STREET":"四維街","SECT":" ","MAREA":" ","LANE":" ","ALLEY":" ","HOUSE_NO":"２９７號","E_COORD97":181869.66,"N_COORD97":2540334.25,"ADDRESS":"四維街２９７號","OBJECTID":564394},"geometry":{"x":181869.66000000108,"y":2540334.2500000019}},{"attributes":{"ID":564422,"DIS_CODE":0,"TOWNNAME":"關廟區","LI":"北花里","LIN":"9鄰","STREET":"四維街","SECT":" ","MAREA":" ","LANE":" ","ALLEY":" ","HOUSE_NO":"３０１號","E_COORD97":181870.45999999999,"N_COORD97":2540344.25,"ADDRESS":"四維街３０１號","OBJECTID":564395},"geometry":{"x":181870.46000000089,"y":2540344.2500000037}},{"attributes":{"ID":564423,"DIS_CODE":0,"TOWNNAME":"關廟區","LI":"南花里","LIN":"9鄰","STREET":"花園一街","SECT":" ","MAREA":" ","LANE":" ","ALLEY":" ","HOUSE_NO":"１３９號","E_COORD97":181771.98999999999,"N_COORD97":2540178.25,"ADDRESS":"花園一街１３９號","OBJECTID":564396},"geometry":{"x":181771.99000000115,"y":2540178.2500000019}},{"attributes":{"ID":564424,"DIS_CODE":0,"TOWNNAME":"關廟區","LI":"香洋里","LIN":"9鄰","STREET":"南雄路","SECT":"二段","MAREA":" ","LANE":" ","ALLEY":" ","HOUSE_NO":"１１號","E_COORD97":181079.44,"N_COORD97":2540044.2799999998,"ADDRESS":"南雄路二段１１號","OBJECTID":564397},"geometry":{"x":181079.44000000134,"y":2540044.2799999993}},{"attributes":{"ID":564425,"DIS_CODE":0,"TOWNNAME":"關廟區","LI":"東勢里","LIN":"9鄰","STREET":"旺萊路","SECT":" ","MAREA":" ","LANE":" ","ALLEY":" ","HOUSE_NO":"２６３號","E_COORD97":182079.73999999999,"N_COORD97":2539548.25,"ADDRESS":"旺萊路２６３號","OBJECTID":564398},"geometry":{"x":182079.74000000022,"y":2539548.2500000019}},{"attributes":{"ID":564426,"DIS_CODE":0,"TOWNNAME":"關廟區","LI":"香洋里","LIN":"9鄰","STREET":"中山路","SECT":"二段","MAREA":" ","LANE":" ","ALLEY":" ","HOUSE_NO":"１８號","E_COORD97":181046.81,"N_COORD97":2540017.2799999998,"ADDRESS":"中山路二段１８號","OBJECTID":564399},"geometry":{"x":181046.81000000145,"y":2540017.2799999993}},{"attributes":{"ID":564427,"DIS_CODE":0,"TOWNNAME":"關廟區","LI":"香洋里","LIN":"9鄰","STREET":"中山路","SECT":"二段","MAREA":" ","LANE":" ","ALLEY":" ","HOUSE_NO":"２０號","E_COORD97":181041.41,"N_COORD97":2540018.2799999998,"ADDRESS":"中山路二段２０號","OBJECTID":564400},"geometry":{"x":181041.41000000015,"y":2540018.2800000012}}]}