{"displayFieldName":"TOWNNAME","fieldAliases":{"ID":"ID","DIS_CODE":"DIS_CODE","TOWNNAME":"TOWNNAME","LI":"LI","LIN":"LIN","STREET":"STREET","SECT":"SECT","MAREA":"MAREA","LANE":"LANE","ALLEY":"ALLEY","HOUSE_NO":"HOUSE_NO","E_COORD97":"E_COORD97","N_COORD97":"N_COORD97","ADDRESS":"ADDRESS","OBJECTID":"OBJECTID"},"geometryType":"esriGeometryPoint","spatialReference":{"wkid":102443,"latestWkid":3826},"fields":[{"name":"ID","type":"esriFieldTypeDouble","alias":"ID"},{"name":"DIS_CODE","type":"esriFieldTypeInteger","alias":"DIS_CODE"},{"name":"TOWNNAME","type":"esriFieldTypeString","alias":"TOWNNAME","length":8},{"name":"LI","type":"esriFieldTypeString","alias":"LI","length":8},{"name":"LIN","type":"esriFieldTypeString","alias":"LIN","length":12},{"name":"STREET","type":"esriFieldTypeString","alias":"STREET","length":20},{"name":"SECT","type":"esriFieldTypeString","alias":"SECT","length":8},{"name":"MAREA","type":"esriFieldTypeString","alias":"MAREA","length":12},{"name":"LANE","type":"esriFieldTypeString","alias":"LANE","length":10},{"name":"ALLEY","type":"esriFieldTypeString","alias":"ALLEY","length":10},{"name":"HOUSE_NO","type":"esriFieldTypeString","alias":"HOUSE_NO","length":20},{"name":"E_COORD97","type":"esriFieldTypeDouble","alias":"E_COORD97"},{"name":"N_COORD97","type":"esriFieldTypeDouble","alias":"N_COORD97"},{"name":"ADDRESS","type":"esriFieldTypeString","alias":"ADDRESS","length":50},{"name":"OBJECTID","type":"esriFieldTypeOID","alias":"OBJECTID"}],"features":[{"attributes":{"ID":626628,"DIS_CODE":0,"TOWNNAME":"永康區","LI":"網寮里","LIN":"26鄰","STREET":"永興路","SECT":" ","MAREA":" ","LANE":" ","ALLEY":" ","HOUSE_NO":"６５號四樓之９","E_COORD97":174047.14000000001,"N_COORD97":2546517.5499999998,"ADDRESS":"永興路６５號四樓之９","OBJECTID":626601},"geometry":{"x":174047.1400000006,"y":2546517.5500000026}},{"attributes":{"ID":626629,"DIS_CODE":0,"TOWNNAME":"永康區","LI":"蔦松里","LIN":"1鄰","STREET":"蔦松二街","SECT":" ","MAREA":" ","LANE":" ","ALLEY":" ","HOUSE_NO":"１１４號七樓之１","E_COORD97":173793.79000000001,"N_COORD97":2549352.3300000001,"ADDRESS":"蔦松二街１１４號七樓之１","OBJECTID":626602},"geometry":{"x":173793.79000000097,"y":2549352.3300000019}},{"attributes":{"ID":626630,"DIS_CODE":0,"TOWNNAME":"永康區","LI":"蔦松里","LIN":"1鄰","STREET":"蔦松二街","SECT":" ","MAREA":" ","LANE":" ","ALLEY":" ","HOUSE_NO":"１１４號五樓之２","E_COORD97":173793.92000000001,"N_COORD97":2549352.3300000001,"ADDRESS":"蔦松二街１１４號五樓之２","OBJECTID":626603},"geometry":{"x":173793.91999999993,"y":2549352.3300000019}},{"attributes":{"ID":626631,"DIS_CODE":0,"TOWNNAME":"永康區","LI":"蔦松里","LIN":"1鄰","STREET":"蔦松二街","SECT":" ","MAREA":" ","LANE":" ","ALLEY":" ","HOUSE_NO":"１１２號三樓之３","E_COORD97":173778.47,"N_COORD97":2549341.8300000001,"ADDRESS":"蔦松二街１１２號三樓之３","OBJECTID":626604},"geometry":{"x":173778.4700000016,"y":2549341.8300000038}},{"attributes":{"ID":626632,"DIS_CODE":0,"TOWNNAME":"東區","LI":"德光里","LIN":"4鄰","STREET":"崇明四街","SECT":" ","MAREA":" ","LANE":" ","ALLEY":" ","HOUSE_NO":"６９號","E_COORD97":169762.12,"N_COORD97":2542357.6099999999,"ADDRESS":"崇明四街６９號","OBJECTID":626605},"geometry":{"x":169762.12000000197,"y":2542357.6099999994}},{"attributes":{"ID":626633,"DIS_CODE":0,"TOWNNAME":"永康區","LI":"蔦松里","LIN":"1鄰","STREET":"蔦松二街","SECT":" ","MAREA":" ","LANE":" ","ALLEY":" ","HOUSE_NO":"１１２號七樓之４","E_COORD97":173778.39999999999,"N_COORD97":2549341.8300000001,"ADDRESS":"蔦松二街１１２號七樓之４","OBJECTID":626606},"geometry":{"x":173778.4000000013,"y":2549341.8300000038}},{"attributes":{"ID":626634,"DIS_CODE":0,"TOWNNAME":"永康區","LI":"蔦松里","LIN":"1鄰","STREET":"蔦松二街","SECT":" ","MAREA":" ","LANE":" ","ALLEY":" ","HOUSE_NO":"１１２號六樓之３","E_COORD97":173778.47,"N_COORD97":2549341.8300000001,"ADDRESS":"蔦松二街１１２號六樓之３","OBJECTID":626607},"geometry":{"x":173778.4700000016,"y":2549341.8300000038}},{"attributes":{"ID":626635,"DIS_CODE":0,"TOWNNAME":"永康區","LI":"新樹里","LIN":"3鄰","STREET":"富強路","SECT":"二段","MAREA":" ","LANE":" ","ALLEY":" ","HOUSE_NO":"３３５號三樓","E_COORD97":175533.73000000001,"N_COORD97":2547589.4700000002,"ADDRESS":"富強路二段３３５號三樓","OBJECTID":626608},"geometry":{"x":175533.73000000231,"y":2547589.4700000025}},{"attributes":{"ID":626636,"DIS_CODE":0,"TOWNNAME":"永康區","LI":"網寮里","LIN":"20鄰","STREET":"文化路","SECT":" ","MAREA":" ","LANE":" ","ALLEY":" ","HOUSE_NO":"３０７號八樓之１","E_COORD97":173464.85000000001,"N_COORD97":2546123.7599999998,"ADDRESS":"文化路３０７號八樓之１","OBJECTID":626609},"geometry":{"x":173464.84999999963,"y":2546123.7599999998}},{"attributes":{"ID":626637,"DIS_CODE":0,"TOWNNAME":"永康區","LI":"網寮里","LIN":"20鄰","STREET":"文化路","SECT":" ","MAREA":" ","LANE":" ","ALLEY":" ","HOUSE_NO":"３１５號四樓之２","E_COORD97":173450.39000000001,"N_COORD97":2546134.21,"ADDRESS":"文化路３１５號四樓之２","OBJECTID":626610},"geometry":{"x":173450.3900000006,"y":2546134.2100000028}},{"attributes":{"ID":626638,"DIS_CODE":0,"TOWNNAME":"永康區","LI":"網寮里","LIN":"26鄰","STREET":"永興路","SECT":" ","MAREA":" ","LANE":" ","ALLEY":" ","HOUSE_NO":"６５號九樓之３","E_COORD97":174047.16,"N_COORD97":2546517.5499999998,"ADDRESS":"永興路６５號九樓之３","OBJECTID":626611},"geometry":{"x":174047.16000000201,"y":2546517.5500000026}},{"attributes":{"ID":626639,"DIS_CODE":0,"TOWNNAME":"永康區","LI":"網寮里","LIN":"26鄰","STREET":"永華路","SECT":" ","MAREA":" ","LANE":" ","ALLEY":" ","HOUSE_NO":"５７２號十樓之１","E_COORD97":173892.70000000001,"N_COORD97":2546554.5499999998,"ADDRESS":"永華路５７２號十樓之１","OBJECTID":626612},"geometry":{"x":173892.70000000205,"y":2546554.5500000026}},{"attributes":{"ID":626640,"DIS_CODE":0,"TOWNNAME":"永康區","LI":"網寮里","LIN":"26鄰","STREET":"永興路","SECT":" ","MAREA":" ","LANE":" ","ALLEY":" ","HOUSE_NO":"６５號四樓之３","E_COORD97":174047.16,"N_COORD97":2546517.5499999998,"ADDRESS":"永興路６５號四樓之３","OBJECTID":626613},"geometry":{"x":174047.16000000201,"y":2546517.5500000026}},{"attributes":{"ID":626641,"DIS_CODE":0,"TOWNNAME":"永康區","LI":"網寮里","LIN":"26鄰","STREET":"永興路","SECT":" ","MAREA":" ","LANE":" ","ALLEY":" ","HOUSE_NO":"６５號十樓之４","E_COORD97":174047.09,"N_COORD97":2546517.5499999998,"ADDRESS":"永興路６５號十樓之４","OBJECTID":626614},"geometry":{"x":174047.08999999985,"y":2546517.5500000026}},{"attributes":{"ID":626642,"DIS_CODE":0,"TOWNNAME":"永康區","LI":"網寮里","LIN":"26鄰","STREET":"永華路","SECT":" ","MAREA":" ","LANE":" ","ALLEY":" ","HOUSE_NO":"５８０號十一樓之３","E_COORD97":173898.23000000001,"N_COORD97":2546572.7999999998,"ADDRESS":"永華路５８０號十一樓之３","OBJECTID":626615},"geometry":{"x":173898.23000000138,"y":2546572.8000000045}},{"attributes":{"ID":626643,"DIS_CODE":0,"TOWNNAME":"永康區","LI":"網寮里","LIN":"26鄰","STREET":"永興路","SECT":" ","MAREA":" ","LANE":" ","ALLEY":" ","HOUSE_NO":"６５號七樓之５","E_COORD97":174047.22,"N_COORD97":2546517.5499999998,"ADDRESS":"永興路６５號七樓之５","OBJECTID":626616},"geometry":{"x":174047.22000000067,"y":2546517.5500000026}},{"attributes":{"ID":626644,"DIS_CODE":0,"TOWNNAME":"永康區","LI":"蔦松里","LIN":"1鄰","STREET":"蔦松二街","SECT":" ","MAREA":" ","LANE":" ","ALLEY":" ","HOUSE_NO":"１１４號五樓之１","E_COORD97":173793.79000000001,"N_COORD97":2549352.3300000001,"ADDRESS":"蔦松二街１１４號五樓之１","OBJECTID":626617},"geometry":{"x":173793.79000000097,"y":2549352.3300000019}},{"attributes":{"ID":626645,"DIS_CODE":0,"TOWNNAME":"永康區","LI":"蔦松里","LIN":"1鄰","STREET":"蔦松二街","SECT":" ","MAREA":" ","LANE":" ","ALLEY":" ","HOUSE_NO":"１１４號六樓之２","E_COORD97":173793.92000000001,"N_COORD97":2549352.3300000001,"ADDRESS":"蔦松二街１１４號六樓之２","OBJECTID":626618},"geometry":{"x":173793.91999999993,"y":2549352.3300000019}},{"attributes":{"ID":626646,"DIS_CODE":0,"TOWNNAME":"永康區","LI":"蔦松里","LIN":"1鄰","STREET":"蔦松二街","SECT":" ","MAREA":" ","LANE":" ","ALLEY":" ","HOUSE_NO":"１１４號七樓之２","E_COORD97":173793.92000000001,"N_COORD97":2549352.3300000001,"ADDRESS":"蔦松二街１１４號七樓之２","OBJECTID":626619},"geometry":{"x":173793.91999999993,"y":2549352.3300000019}},{"attributes":{"ID":626647,"DIS_CODE":0,"TOWNNAME":"永康區","LI":"蔦松里","LIN":"1鄰","STREET":"蔦松二街","SECT":" ","MAREA":" ","LANE":" ","ALLEY":" ","HOUSE_NO":"１１４號三樓之２","E_COORD97":173793.92000000001,"N_COORD97":2549352.3300000001,"ADDRESS":"蔦松二街１１４號三樓之２","OBJECTID":626620},"geometry":{"x":173793.91999999993,"y":2549352.3300000019}},{"attributes":{"ID":626648,"DIS_CODE":0,"TOWNNAME":"永康區","LI":"龍潭里","LIN":"22鄰","STREET":"龍安街","SECT":" ","MAREA":" ","LANE":" ","ALLEY":" ","HOUSE_NO":"２５１號六樓之１","E_COORD97":174751.17000000001,"N_COORD97":2548624.6400000001,"ADDRESS":"龍安街２５１號六樓之１","OBJECTID":626621},"geometry":{"x":174751.17000000086,"y":2548624.6400000043}},{"attributes":{"ID":626649,"DIS_CODE":0,"TOWNNAME":"永康區","LI":"龍潭里","LIN":"22鄰","STREET":"龍安街","SECT":" ","MAREA":" ","LANE":" ","ALLEY":" ","HOUSE_NO":"２５１號八樓之２","E_COORD97":174751.31,"N_COORD97":2548624.6400000001,"ADDRESS":"龍安街２５１號八樓之２","OBJECTID":626622},"geometry":{"x":174751.31000000052,"y":2548624.6400000043}},{"attributes":{"ID":626650,"DIS_CODE":0,"TOWNNAME":"永康區","LI":"蔦松里","LIN":"3鄰","STREET":"中正北路","SECT":" ","MAREA":" ","LANE":" ","ALLEY":" ","HOUSE_NO":"６１７號八樓之３","E_COORD97":174034.92000000001,"N_COORD97":2549299.29,"ADDRESS":"中正北路６１７號八樓之３","OBJECTID":626623},"geometry":{"x":174034.91999999899,"y":2549299.2899999991}},{"attributes":{"ID":626651,"DIS_CODE":0,"TOWNNAME":"永康區","LI":"蔦松里","LIN":"3鄰","STREET":"中正北路","SECT":" ","MAREA":" ","LANE":" ","ALLEY":" ","HOUSE_NO":"６１７號七樓之２","E_COORD97":174034.95000000001,"N_COORD97":2549299.29,"ADDRESS":"中正北路６１７號七樓之２","OBJECTID":626624},"geometry":{"x":174034.95000000019,"y":2549299.2899999991}},{"attributes":{"ID":626652,"DIS_CODE":0,"TOWNNAME":"永康區","LI":"龍潭里","LIN":"5鄰","STREET":"龍埔街","SECT":" ","MAREA":" ","LANE":" ","ALLEY":" ","HOUSE_NO":"８５號九樓之１５","E_COORD97":174621.10000000001,"N_COORD97":2548225.75,"ADDRESS":"龍埔街８５號九樓之１５","OBJECTID":626625},"geometry":{"x":174621.09999999963,"y":2548225.75}},{"attributes":{"ID":626653,"DIS_CODE":0,"TOWNNAME":"永康區","LI":"網寮里","LIN":"26鄰","STREET":"永華路","SECT":" ","MAREA":" ","LANE":" ","ALLEY":" ","HOUSE_NO":"５８０號六樓之１","E_COORD97":173896.89000000001,"N_COORD97":2546572.7999999998,"ADDRESS":"永華路５８０號六樓之１","OBJECTID":626626},"geometry":{"x":173896.88999999966,"y":2546572.8000000045}},{"attributes":{"ID":626654,"DIS_CODE":0,"TOWNNAME":"永康區","LI":"網寮里","LIN":"26鄰","STREET":"永興路","SECT":" ","MAREA":" ","LANE":" ","ALLEY":" ","HOUSE_NO":"６５號九樓之７","E_COORD97":174047.14000000001,"N_COORD97":2546517.5499999998,"ADDRESS":"永興路６５號九樓之７","OBJECTID":626627},"geometry":{"x":174047.1400000006,"y":2546517.5500000026}},{"attributes":{"ID":626655,"DIS_CODE":0,"TOWNNAME":"永康區","LI":"網寮里","LIN":"26鄰","STREET":"永華路","SECT":" ","MAREA":" ","LANE":" ","ALLEY":" ","HOUSE_NO":"５８０號八樓之２","E_COORD97":173897.01999999999,"N_COORD97":2546572.7999999998,"ADDRESS":"永華路５８０號八樓之２","OBJECTID":626628},"geometry":{"x":173897.02000000048,"y":2546572.8000000045}},{"attributes":{"ID":626656,"DIS_CODE":0,"TOWNNAME":"永康區","LI":"網寮里","LIN":"26鄰","STREET":"永華路","SECT":" ","MAREA":" ","LANE":" ","ALLEY":" ","HOUSE_NO":"５８０號十二樓之２","E_COORD97":173898.26999999999,"N_COORD97":2546572.7999999998,"ADDRESS":"永華路５８０號十二樓之２","OBJECTID":626629},"geometry":{"x":173898.26999999862,"y":2546572.8000000045}},{"attributes":{"ID":626657,"DIS_CODE":0,"TOWNNAME":"永康區","LI":"網寮里","LIN":"26鄰","STREET":"永華路","SECT":" ","MAREA":" ","LANE":" ","ALLEY":" ","HOUSE_NO":"５７２號九樓之１","E_COORD97":173892.70000000001,"N_COORD97":2546554.5499999998,"ADDRESS":"永華路５７２號九樓之１","OBJECTID":626630},"geometry":{"x":173892.70000000205,"y":2546554.5500000026}},{"attributes":{"ID":626658,"DIS_CODE":0,"TOWNNAME":"永康區","LI":"網寮里","LIN":"26鄰","STREET":"永華路","SECT":" ","MAREA":" ","LANE":" ","ALLEY":" ","HOUSE_NO":"５８０號十樓之２","E_COORD97":173897.01999999999,"N_COORD97":2546572.7999999998,"ADDRESS":"永華路５８０號十樓之２","OBJECTID":626631},"geometry":{"x":173897.02000000048,"y":2546572.8000000045}},{"attributes":{"ID":626659,"DIS_CODE":0,"TOWNNAME":"永康區","LI":"網寮里","LIN":"26鄰","STREET":"永華路","SECT":" ","MAREA":" ","LANE":" ","ALLEY":" ","HOUSE_NO":"５８０號八樓之３","E_COORD97":173896.98000000001,"N_COORD97":2546572.7999999998,"ADDRESS":"永華路５８０號八樓之３","OBJECTID":626632},"geometry":{"x":173896.98000000138,"y":2546572.8000000045}},{"attributes":{"ID":626660,"DIS_CODE":0,"TOWNNAME":"永康區","LI":"網寮里","LIN":"20鄰","STREET":"文化路","SECT":" ","MAREA":" ","LANE":" ","ALLEY":" ","HOUSE_NO":"３１５號六樓之１","E_COORD97":173450.25,"N_COORD97":2546134.21,"ADDRESS":"文化路３１５號六樓之１","OBJECTID":626633},"geometry":{"x":173450.25000000093,"y":2546134.2100000028}},{"attributes":{"ID":626661,"DIS_CODE":0,"TOWNNAME":"永康區","LI":"網寮里","LIN":"26鄰","STREET":"永興路","SECT":" ","MAREA":" ","LANE":" ","ALLEY":" ","HOUSE_NO":"６５號三樓之２","E_COORD97":174047.19,"N_COORD97":2546517.5499999998,"ADDRESS":"永興路６５號三樓之２","OBJECTID":626634},"geometry":{"x":174047.18999999948,"y":2546517.5500000026}},{"attributes":{"ID":626662,"DIS_CODE":0,"TOWNNAME":"永康區","LI":"網寮里","LIN":"26鄰","STREET":"永華路","SECT":" ","MAREA":" ","LANE":" ","ALLEY":" ","HOUSE_NO":"５８０號四樓之１","E_COORD97":173896.89000000001,"N_COORD97":2546572.7999999998,"ADDRESS":"永華路５８０號四樓之１","OBJECTID":626635},"geometry":{"x":173896.88999999966,"y":2546572.8000000045}},{"attributes":{"ID":626663,"DIS_CODE":0,"TOWNNAME":"永康區","LI":"網寮里","LIN":"26鄰","STREET":"永興路","SECT":" ","MAREA":" ","LANE":" ","ALLEY":" ","HOUSE_NO":"６５號十樓之２","E_COORD97":174047.19,"N_COORD97":2546517.5499999998,"ADDRESS":"永興路６５號十樓之２","OBJECTID":626636},"geometry":{"x":174047.18999999948,"y":2546517.5500000026}},{"attributes":{"ID":626664,"DIS_CODE":0,"TOWNNAME":"永康區","LI":"網寮里","LIN":"26鄰","STREET":"永華路","SECT":" ","MAREA":" ","LANE":" ","ALLEY":" ","HOUSE_NO":"５７２號四樓之２","E_COORD97":173892.82999999999,"N_COORD97":2546554.5499999998,"ADDRESS":"永華路５７２號四樓之２","OBJECTID":626637},"geometry":{"x":173892.83000000007,"y":2546554.5500000026}},{"attributes":{"ID":626665,"DIS_CODE":0,"TOWNNAME":"永康區","LI":"網寮里","LIN":"26鄰","STREET":"永華路","SECT":" ","MAREA":" ","LANE":" ","ALLEY":" ","HOUSE_NO":"５７２號九樓之２","E_COORD97":173892.82999999999,"N_COORD97":2546554.5499999998,"ADDRESS":"永華路５７２號九樓之２","OBJECTID":626638},"geometry":{"x":173892.83000000007,"y":2546554.5500000026}},{"attributes":{"ID":626666,"DIS_CODE":0,"TOWNNAME":"永康區","LI":"蔦松里","LIN":"1鄰","STREET":"蔦松二街","SECT":" ","MAREA":" ","LANE":" ","ALLEY":" ","HOUSE_NO":"１１２號七樓之２","E_COORD97":173778.51000000001,"N_COORD97":2549341.8300000001,"ADDRESS":"蔦松二街１１２號七樓之２","OBJECTID":626639},"geometry":{"x":173778.51000000071,"y":2549341.8300000038}},{"attributes":{"ID":626667,"DIS_CODE":0,"TOWNNAME":"永康區","LI":"蔦松里","LIN":"1鄰","STREET":"蔦松二街","SECT":" ","MAREA":" ","LANE":" ","ALLEY":" ","HOUSE_NO":"１１２號四樓之３","E_COORD97":173778.47,"N_COORD97":2549341.8300000001,"ADDRESS":"蔦松二街１１２號四樓之３","OBJECTID":626640},"geometry":{"x":173778.4700000016,"y":2549341.8300000038}},{"attributes":{"ID":626668,"DIS_CODE":0,"TOWNNAME":"永康區","LI":"蔦松里","LIN":"1鄰","STREET":"蔦松二街","SECT":" ","MAREA":" ","LANE":" ","ALLEY":" ","HOUSE_NO":"１１２號七樓之１","E_COORD97":173778.38,"N_COORD97":2549341.8300000001,"ADDRESS":"蔦松二街１１２號七樓之１","OBJECTID":626641},"geometry":{"x":173778.38000000082,"y":2549341.8300000038}},{"attributes":{"ID":626669,"DIS_CODE":0,"TOWNNAME":"永康區","LI":"龍潭里","LIN":"22鄰","STREET":"龍安街","SECT":" ","MAREA":" ","LANE":" ","ALLEY":" ","HOUSE_NO":"２５１號三樓之３","E_COORD97":174751.26999999999,"N_COORD97":2548624.6400000001,"ADDRESS":"龍安街２５１號三樓之３","OBJECTID":626642},"geometry":{"x":174751.27000000048,"y":2548624.6400000043}},{"attributes":{"ID":626670,"DIS_CODE":0,"TOWNNAME":"永康區","LI":"龍潭里","LIN":"22鄰","STREET":"龍安街","SECT":" ","MAREA":" ","LANE":" ","ALLEY":" ","HOUSE_NO":"２５１號四樓之４","E_COORD97":174751.20000000001,"N_COORD97":2548624.6400000001,"ADDRESS":"龍安街２５１號四樓之４","OBJECTID":626643},"geometry":{"x":174751.20000000112,"y":2548624.6400000043}},{"attributes":{"ID":626671,"DIS_CODE":0,"TOWNNAME":"永康區","LI":"蔦松里","LIN":"3鄰","STREET":"中正北路","SECT":" ","MAREA":" ","LANE":" ","ALLEY":" ","HOUSE_NO":"６１７號十一樓之３","E_COORD97":174036.17000000001,"N_COORD97":2549299.29,"ADDRESS":"中正北路６１７號十一樓之３","OBJECTID":626644},"geometry":{"x":174036.16999999993,"y":2549299.2899999991}},{"attributes":{"ID":626672,"DIS_CODE":0,"TOWNNAME":"仁德區","LI":"上崙里","LIN":"4鄰","STREET":"德崙路","SECT":" ","MAREA":" ","LANE":" ","ALLEY":" ","HOUSE_NO":"２５１號六樓之１","E_COORD97":173796.72,"N_COORD97":2538191.79,"ADDRESS":"德崙路２５１號六樓之１","OBJECTID":626645},"geometry":{"x":173796.71999999974,"y":2538191.7899999991}},{"attributes":{"ID":626673,"DIS_CODE":0,"TOWNNAME":"東區","LI":"中西里","LIN":"13鄰","STREET":"東寧路","SECT":" ","MAREA":" ","LANE":" ","ALLEY":" ","HOUSE_NO":"２８號之２四樓","E_COORD97":170033.35000000001,"N_COORD97":2543616.1099999999,"ADDRESS":"東寧路２８號之２四樓","OBJECTID":626646},"geometry":{"x":170033.35000000056,"y":2543616.1100000031}},{"attributes":{"ID":626674,"DIS_CODE":0,"TOWNNAME":"東區","LI":"中西里","LIN":"13鄰","STREET":"東寧路","SECT":" ","MAREA":" ","LANE":" ","ALLEY":" ","HOUSE_NO":"２８號之１三樓","E_COORD97":170028.95000000001,"N_COORD97":2543616.6099999999,"ADDRESS":"東寧路２８號之１三樓","OBJECTID":626647},"geometry":{"x":170028.95000000019,"y":2543616.6100000013}},{"attributes":{"ID":626675,"DIS_CODE":0,"TOWNNAME":"東區","LI":"中西里","LIN":"13鄰","STREET":"東寧路","SECT":" ","MAREA":" ","LANE":" ","ALLEY":" ","HOUSE_NO":"２８號之１四樓","E_COORD97":170028.95000000001,"N_COORD97":2543616.6099999999,"ADDRESS":"東寧路２８號之１四樓","OBJECTID":626648},"geometry":{"x":170028.95000000019,"y":2543616.6100000013}},{"attributes":{"ID":626676,"DIS_CODE":0,"TOWNNAME":"東區","LI":"中西里","LIN":"13鄰","STREET":"東寧路","SECT":" ","MAREA":" ","LANE":" ","ALLEY":" ","HOUSE_NO":"２８號之２三樓","E_COORD97":170033.35000000001,"N_COORD97":2543616.1099999999,"ADDRESS":"東寧路２８號之２三樓","OBJECTID":626649},"geometry":{"x":170033.35000000056,"y":2543616.1100000031}},{"attributes":{"ID":626677,"DIS_CODE":0,"TOWNNAME":"東區","LI":"中西里","LIN":"13鄰","STREET":"東寧路","SECT":" ","MAREA":" ","LANE":" ","ALLEY":" ","HOUSE_NO":"３０號之１三樓","E_COORD97":170048.25,"N_COORD97":2543615.1099999999,"ADDRESS":"東寧路３０號之１三樓","OBJECTID":626650},"geometry":{"x":170048.25000000093,"y":2543615.1099999994}},{"attributes":{"ID":626678,"DIS_CODE":0,"TOWNNAME":"東區","LI":"中西里","LIN":"13鄰","STREET":"東寧路","SECT":" ","MAREA":" ","LANE":" ","ALLEY":" ","HOUSE_NO":"３０號之１四樓","E_COORD97":170048.25,"N_COORD97":2543615.1099999999,"ADDRESS":"東寧路３０號之１四樓","OBJECTID":626651},"geometry":{"x":170048.25000000093,"y":2543615.1099999994}},{"attributes":{"ID":626679,"DIS_CODE":0,"TOWNNAME":"東區","LI":"中西里","LIN":"13鄰","STREET":"東寧路","SECT":" ","MAREA":" ","LANE":" ","ALLEY":" ","HOUSE_NO":"３０號之２四樓","E_COORD97":170052.45000000001,"N_COORD97":2543614.9100000001,"ADDRESS":"東寧路３０號之２四樓","OBJECTID":626652},"geometry":{"x":170052.45000000019,"y":2543614.9100000039}},{"attributes":{"ID":626680,"DIS_CODE":0,"TOWNNAME":"東區","LI":"中西里","LIN":"8鄰","STREET":"勝利路","SECT":" ","MAREA":" ","LANE":" ","ALLEY":" ","HOUSE_NO":"２０號之１０二樓","E_COORD97":169859.51999999999,"N_COORD97":2543415.0499999998,"ADDRESS":"勝利路２０號之１０二樓","OBJECTID":626653},"geometry":{"x":169859.52000000048,"y":2543415.0500000026}},{"attributes":{"ID":626681,"DIS_CODE":0,"TOWNNAME":"東區","LI":"中西里","LIN":"8鄰","STREET":"勝利路","SECT":" ","MAREA":" ","LANE":" ","ALLEY":" ","HOUSE_NO":"２０號之１０三樓","E_COORD97":169859.51999999999,"N_COORD97":2543415.0499999998,"ADDRESS":"勝利路２０號之１０三樓","OBJECTID":626654},"geometry":{"x":169859.52000000048,"y":2543415.0500000026}},{"attributes":{"ID":626682,"DIS_CODE":0,"TOWNNAME":"東區","LI":"中西里","LIN":"8鄰","STREET":"勝利路","SECT":" ","MAREA":" ","LANE":" ","ALLEY":" ","HOUSE_NO":"２０號之１０五樓","E_COORD97":169859.51999999999,"N_COORD97":2543415.0499999998,"ADDRESS":"勝利路２０號之１０五樓","OBJECTID":626655},"geometry":{"x":169859.52000000048,"y":2543415.0500000026}},{"attributes":{"ID":626683,"DIS_CODE":0,"TOWNNAME":"東區","LI":"中西里","LIN":"8鄰","STREET":"勝利路","SECT":" ","MAREA":" ","LANE":" ","ALLEY":" ","HOUSE_NO":"２０號之９三樓","E_COORD97":169853.09,"N_COORD97":2543412.8500000001,"ADDRESS":"勝利路２０號之９三樓","OBJECTID":626656},"geometry":{"x":169853.08999999985,"y":2543412.8500000015}},{"attributes":{"ID":626684,"DIS_CODE":0,"TOWNNAME":"東區","LI":"中西里","LIN":"8鄰","STREET":"勝利路","SECT":" ","MAREA":" ","LANE":" ","ALLEY":" ","HOUSE_NO":"２０號之９五樓","E_COORD97":169853.09,"N_COORD97":2543412.8500000001,"ADDRESS":"勝利路２０號之９五樓","OBJECTID":626657},"geometry":{"x":169853.08999999985,"y":2543412.8500000015}},{"attributes":{"ID":626685,"DIS_CODE":0,"TOWNNAME":"東區","LI":"中西里","LIN":"8鄰","STREET":"勝利路","SECT":" ","MAREA":" ","LANE":" ","ALLEY":" ","HOUSE_NO":"２０號之９四樓","E_COORD97":169853.09,"N_COORD97":2543412.8500000001,"ADDRESS":"勝利路２０號之９四樓","OBJECTID":626658},"geometry":{"x":169853.08999999985,"y":2543412.8500000015}},{"attributes":{"ID":626686,"DIS_CODE":0,"TOWNNAME":"東區","LI":"中西里","LIN":"13鄰","STREET":"東寧路","SECT":" ","MAREA":" ","LANE":" ","ALLEY":" ","HOUSE_NO":"４２號之１三樓","E_COORD97":170076.60999999999,"N_COORD97":2543611.9399999999,"ADDRESS":"東寧路４２號之１三樓","OBJECTID":626659},"geometry":{"x":170076.61000000127,"y":2543611.9400000013}},{"attributes":{"ID":626687,"DIS_CODE":0,"TOWNNAME":"東區","LI":"中西里","LIN":"13鄰","STREET":"東寧路","SECT":" ","MAREA":" ","LANE":" ","ALLEY":" ","HOUSE_NO":"４２號之１四樓","E_COORD97":170076.60999999999,"N_COORD97":2543611.9399999999,"ADDRESS":"東寧路４２號之１四樓","OBJECTID":626660},"geometry":{"x":170076.61000000127,"y":2543611.9400000013}},{"attributes":{"ID":626688,"DIS_CODE":0,"TOWNNAME":"東區","LI":"中西里","LIN":"13鄰","STREET":"東寧路","SECT":" ","MAREA":" ","LANE":" ","ALLEY":" ","HOUSE_NO":"４２號之２三樓","E_COORD97":170080.45999999999,"N_COORD97":2543611.6499999999,"ADDRESS":"東寧路４２號之２三樓","OBJECTID":626661},"geometry":{"x":170080.46000000089,"y":2543611.6500000022}},{"attributes":{"ID":626689,"DIS_CODE":0,"TOWNNAME":"東區","LI":"中西里","LIN":"13鄰","STREET":"東寧路","SECT":" ","MAREA":" ","LANE":" ","ALLEY":" ","HOUSE_NO":"４２號之２四樓","E_COORD97":170080.45999999999,"N_COORD97":2543611.6499999999,"ADDRESS":"東寧路４２號之２四樓","OBJECTID":626662},"geometry":{"x":170080.46000000089,"y":2543611.6500000022}},{"attributes":{"ID":626690,"DIS_CODE":0,"TOWNNAME":"東區","LI":"中西里","LIN":"17鄰","STREET":"林森路","SECT":"二段","MAREA":" ","LANE":" ","ALLEY":" ","HOUSE_NO":"７９號之２三樓","E_COORD97":170132.79999999999,"N_COORD97":2543262.7400000002,"ADDRESS":"林森路二段７９號之２三樓","OBJECTID":626663},"geometry":{"x":170132.79999999981,"y":2543262.7400000002}},{"attributes":{"ID":626691,"DIS_CODE":0,"TOWNNAME":"東區","LI":"中西里","LIN":"8鄰","STREET":"勝利路","SECT":" ","MAREA":" ","LANE":" ","ALLEY":" ","HOUSE_NO":"２０號之９二樓","E_COORD97":169853.09,"N_COORD97":2543412.8500000001,"ADDRESS":"勝利路２０號之９二樓","OBJECTID":626664},"geometry":{"x":169853.08999999985,"y":2543412.8500000015}},{"attributes":{"ID":626692,"DIS_CODE":0,"TOWNNAME":"東區","LI":"圍下里","LIN":"14鄰","STREET":"前鋒路","SECT":" ","MAREA":" ","LANE":" ","ALLEY":" ","HOUSE_NO":"８７號二樓之１","E_COORD97":169297.45000000001,"N_COORD97":2543610.73,"ADDRESS":"前鋒路８７號二樓之１","OBJECTID":626665},"geometry":{"x":169297.45000000112,"y":2543610.7300000023}},{"attributes":{"ID":626693,"DIS_CODE":0,"TOWNNAME":"東區","LI":"圍下里","LIN":"14鄰","STREET":"前鋒路","SECT":" ","MAREA":" ","LANE":" ","ALLEY":" ","HOUSE_NO":"８７號二樓之２","E_COORD97":169297.45000000001,"N_COORD97":2543610.73,"ADDRESS":"前鋒路８７號二樓之２","OBJECTID":626666},"geometry":{"x":169297.45000000112,"y":2543610.7300000023}},{"attributes":{"ID":626694,"DIS_CODE":0,"TOWNNAME":"東區","LI":"圍下里","LIN":"14鄰","STREET":"前鋒路","SECT":" ","MAREA":" ","LANE":" ","ALLEY":" ","HOUSE_NO":"８７號二樓之３","E_COORD97":169297.45000000001,"N_COORD97":2543610.73,"ADDRESS":"前鋒路８７號二樓之３","OBJECTID":626667},"geometry":{"x":169297.45000000112,"y":2543610.7300000023}},{"attributes":{"ID":626695,"DIS_CODE":0,"TOWNNAME":"東區","LI":"圍下里","LIN":"14鄰","STREET":"前鋒路","SECT":" ","MAREA":" ","LANE":" ","ALLEY":" ","HOUSE_NO":"８７號二樓之４","E_COORD97":169297.45000000001,"N_COORD97":2543610.73,"ADDRESS":"前鋒路８７號二樓之４","OBJECTID":626668},"geometry":{"x":169297.45000000112,"y":2543610.7300000023}},{"attributes":{"ID":626696,"DIS_CODE":0,"TOWNNAME":"東區","LI":"圍下里","LIN":"14鄰","STREET":"前鋒路","SECT":" ","MAREA":" ","LANE":" ","ALLEY":" ","HOUSE_NO":"８７號三樓之１","E_COORD97":169297.45000000001,"N_COORD97":2543610.73,"ADDRESS":"前鋒路８７號三樓之１","OBJECTID":626669},"geometry":{"x":169297.45000000112,"y":2543610.7300000023}},{"attributes":{"ID":626697,"DIS_CODE":0,"TOWNNAME":"東區","LI":"圍下里","LIN":"14鄰","STREET":"前鋒路","SECT":" ","MAREA":" ","LANE":" ","ALLEY":" ","HOUSE_NO":"８７號三樓之２","E_COORD97":169297.45000000001,"N_COORD97":2543610.73,"ADDRESS":"前鋒路８７號三樓之２","OBJECTID":626670},"geometry":{"x":169297.45000000112,"y":2543610.7300000023}},{"attributes":{"ID":626698,"DIS_CODE":0,"TOWNNAME":"東區","LI":"中西里","LIN":"8鄰","STREET":"勝利路","SECT":" ","MAREA":" ","LANE":" ","ALLEY":" ","HOUSE_NO":"３８號之１五樓之２","E_COORD97":169817.12,"N_COORD97":2543480.77,"ADDRESS":"勝利路３８號之１五樓之２","OBJECTID":626671},"geometry":{"x":169817.12000000011,"y":2543480.7700000014}},{"attributes":{"ID":626699,"DIS_CODE":0,"TOWNNAME":"東區","LI":"中西里","LIN":"8鄰","STREET":"勝利路","SECT":" ","MAREA":" ","LANE":" ","ALLEY":" ","HOUSE_NO":"３８號之１二樓之２","E_COORD97":169817.12,"N_COORD97":2543480.77,"ADDRESS":"勝利路３８號之１二樓之２","OBJECTID":626672},"geometry":{"x":169817.12000000011,"y":2543480.7700000014}},{"attributes":{"ID":626700,"DIS_CODE":0,"TOWNNAME":"麻豆區","LI":"穀興里","LIN":"5鄰","STREET":"振興街","SECT":" ","MAREA":" ","LANE":" ","ALLEY":" ","HOUSE_NO":"２８號之３二樓","E_COORD97":172830.01999999999,"N_COORD97":2565029.6200000001,"ADDRESS":"振興街２８號之３二樓","OBJECTID":626673},"geometry":{"x":172830.01999999955,"y":2565029.6200000029}},{"attributes":{"ID":626701,"DIS_CODE":0,"TOWNNAME":"永康區","LI":"\u25A0行里","LIN":"46鄰","STREET":"新行街","SECT":" ","MAREA":" ","LANE":" ","ALLEY":" ","HOUSE_NO":"１２５號十三樓之１","E_COORD97":172324.51000000001,"N_COORD97":2549035.2999999998,"ADDRESS":"新行街１２５號十三樓之１","OBJECTID":626674},"geometry":{"x":172324.51000000071,"y":2549035.3000000026}},{"attributes":{"ID":626702,"DIS_CODE":0,"TOWNNAME":"永康區","LI":"\u25A0行里","LIN":"46鄰","STREET":"新行街","SECT":" ","MAREA":" ","LANE":" ","ALLEY":" ","HOUSE_NO":"１２５號十三樓之５","E_COORD97":172324.67000000001,"N_COORD97":2549035.2999999998,"ADDRESS":"新行街１２５號十三樓之５","OBJECTID":626675},"geometry":{"x":172324.67000000179,"y":2549035.3000000026}},{"attributes":{"ID":626703,"DIS_CODE":0,"TOWNNAME":"永康區","LI":"\u25A0行里","LIN":"46鄰","STREET":"新行街","SECT":" ","MAREA":" ","LANE":" ","ALLEY":" ","HOUSE_NO":"１２５號十二樓之５","E_COORD97":172324.67000000001,"N_COORD97":2549035.2999999998,"ADDRESS":"新行街１２５號十二樓之５","OBJECTID":626676},"geometry":{"x":172324.67000000179,"y":2549035.3000000026}},{"attributes":{"ID":626704,"DIS_CODE":0,"TOWNNAME":"永康區","LI":"\u25A0行里","LIN":"46鄰","STREET":"新行街","SECT":" ","MAREA":" ","LANE":" ","ALLEY":" ","HOUSE_NO":"１２５號五樓之３","E_COORD97":172323.35999999999,"N_COORD97":2549035.2999999998,"ADDRESS":"新行街１２５號五樓之３","OBJECTID":626677},"geometry":{"x":172323.36000000034,"y":2549035.3000000026}},{"attributes":{"ID":626705,"DIS_CODE":0,"TOWNNAME":"永康區","LI":"\u25A0行里","LIN":"46鄰","STREET":"新行街","SECT":" ","MAREA":" ","LANE":" ","ALLEY":" ","HOUSE_NO":"１２５號七樓之２","E_COORD97":172323.39999999999,"N_COORD97":2549035.2999999998,"ADDRESS":"新行街１２５號七樓之２","OBJECTID":626678},"geometry":{"x":172323.39999999944,"y":2549035.3000000026}},{"attributes":{"ID":626706,"DIS_CODE":0,"TOWNNAME":"永康區","LI":"\u25A0行里","LIN":"46鄰","STREET":"新行街","SECT":" ","MAREA":" ","LANE":" ","ALLEY":" ","HOUSE_NO":"１２５號十四樓之１","E_COORD97":172324.51000000001,"N_COORD97":2549035.2999999998,"ADDRESS":"新行街１２５號十四樓之１","OBJECTID":626679},"geometry":{"x":172324.51000000071,"y":2549035.3000000026}},{"attributes":{"ID":626707,"DIS_CODE":0,"TOWNNAME":"永康區","LI":"\u25A0行里","LIN":"46鄰","STREET":"新行街","SECT":" ","MAREA":" ","LANE":" ","ALLEY":" ","HOUSE_NO":"１２５號十樓之２","E_COORD97":172323.39999999999,"N_COORD97":2549035.2999999998,"ADDRESS":"新行街１２５號十樓之２","OBJECTID":626680},"geometry":{"x":172323.39999999944,"y":2549035.3000000026}},{"attributes":{"ID":626708,"DIS_CODE":0,"TOWNNAME":"永康區","LI":"\u25A0行里","LIN":"46鄰","STREET":"新行街","SECT":" ","MAREA":" ","LANE":" ","ALLEY":" ","HOUSE_NO":"１２５號九樓之６","E_COORD97":172323.37,"N_COORD97":2549035.2999999998,"ADDRESS":"新行街１２５號九樓之６","OBJECTID":626681},"geometry":{"x":172323.36999999918,"y":2549035.3000000026}},{"attributes":{"ID":626709,"DIS_CODE":0,"TOWNNAME":"永康區","LI":"\u25A0行里","LIN":"31鄰","STREET":"仁愛街","SECT":" ","MAREA":" ","LANE":" ","ALLEY":" ","HOUSE_NO":"４６號之１三樓","E_COORD97":171944.47,"N_COORD97":2549189.9700000002,"ADDRESS":"仁愛街４６號之１三樓","OBJECTID":626682},"geometry":{"x":171944.4700000016,"y":2549189.9700000025}},{"attributes":{"ID":626710,"DIS_CODE":0,"TOWNNAME":"永康區","LI":"\u25A0行里","LIN":"46鄰","STREET":"新行街","SECT":" ","MAREA":" ","LANE":" ","ALLEY":" ","HOUSE_NO":"１２５號六樓之１","E_COORD97":172323.26000000001,"N_COORD97":2549035.2999999998,"ADDRESS":"新行街１２５號六樓之１","OBJECTID":626683},"geometry":{"x":172323.25999999978,"y":2549035.3000000026}},{"attributes":{"ID":626711,"DIS_CODE":0,"TOWNNAME":"東區","LI":"東明里","LIN":"4鄰","STREET":"東興路","SECT":" ","MAREA":" ","LANE":" ","ALLEY":" ","HOUSE_NO":"８９號二樓","E_COORD97":170926.98000000001,"N_COORD97":2543604.04,"ADDRESS":"東興路８９號二樓","OBJECTID":626684},"geometry":{"x":170926.98000000138,"y":2543604.040000001}},{"attributes":{"ID":626712,"DIS_CODE":0,"TOWNNAME":"永康區","LI":"\u25A0洲里","LIN":"39鄰","STREET":"\u25A0洲一街","SECT":" ","MAREA":" ","LANE":" ","ALLEY":" ","HOUSE_NO":"４７號三樓之１","E_COORD97":171597.42999999999,"N_COORD97":2549085.2999999998,"ADDRESS":"\u25A0洲一街４７號三樓之１","OBJECTID":626685},"geometry":{"x":171597.43000000063,"y":2549085.3000000026}},{"attributes":{"ID":626713,"DIS_CODE":0,"TOWNNAME":"永康區","LI":"\u25A0行里","LIN":"37鄰","STREET":"仁愛街","SECT":" ","MAREA":" ","LANE":" ","ALLEY":" ","HOUSE_NO":"９０號三樓","E_COORD97":172053.09,"N_COORD97":2549427.4100000001,"ADDRESS":"仁愛街９０號三樓","OBJECTID":626686},"geometry":{"x":172053.08999999985,"y":2549427.410000002}},{"attributes":{"ID":626714,"DIS_CODE":0,"TOWNNAME":"永康區","LI":"\u25A0洲里","LIN":"39鄰","STREET":"\u25A0洲一街","SECT":" ","MAREA":" ","LANE":" ","ALLEY":" ","HOUSE_NO":"４７號三樓之２","E_COORD97":171597.56,"N_COORD97":2549085.2999999998,"ADDRESS":"\u25A0洲一街４７號三樓之２","OBJECTID":626687},"geometry":{"x":171597.55999999959,"y":2549085.3000000026}},{"attributes":{"ID":626715,"DIS_CODE":0,"TOWNNAME":"永康區","LI":"\u25A0洲里","LIN":"39鄰","STREET":"\u25A0洲一街","SECT":" ","MAREA":" ","LANE":" ","ALLEY":" ","HOUSE_NO":"３９號四樓之１","E_COORD97":171585.41,"N_COORD97":2549070.7999999998,"ADDRESS":"\u25A0洲一街３９號四樓之１","OBJECTID":626688},"geometry":{"x":171585.41000000015,"y":2549070.8000000007}},{"attributes":{"ID":626716,"DIS_CODE":0,"TOWNNAME":"永康區","LI":"中華里","LIN":"16鄰","STREET":"小東路","SECT":" ","MAREA":" ","LANE":" ","ALLEY":" ","HOUSE_NO":"５０９號十二樓之６","E_COORD97":171650.82000000001,"N_COORD97":2544340.7999999998,"ADDRESS":"小東路５０９號十二樓之６","OBJECTID":626689},"geometry":{"x":171650.8200000003,"y":2544340.8000000007}},{"attributes":{"ID":626717,"DIS_CODE":0,"TOWNNAME":"永康區","LI":"中華里","LIN":"16鄰","STREET":"小東路","SECT":" ","MAREA":" ","LANE":" ","ALLEY":" ","HOUSE_NO":"５０９號七樓之３","E_COORD97":171649.56,"N_COORD97":2544340.7999999998,"ADDRESS":"小東路５０９號七樓之３","OBJECTID":626690},"geometry":{"x":171649.55999999959,"y":2544340.8000000007}},{"attributes":{"ID":626718,"DIS_CODE":0,"TOWNNAME":"永康區","LI":"中華里","LIN":"16鄰","STREET":"小東路","SECT":" ","MAREA":" ","LANE":" ","ALLEY":" ","HOUSE_NO":"５０９號八樓之１２","E_COORD97":171650.85000000001,"N_COORD97":2544340.7999999998,"ADDRESS":"小東路５０９號八樓之１２","OBJECTID":626691},"geometry":{"x":171650.85000000056,"y":2544340.8000000007}},{"attributes":{"ID":626719,"DIS_CODE":0,"TOWNNAME":"永康區","LI":"中華里","LIN":"16鄰","STREET":"小東路","SECT":" ","MAREA":" ","LANE":" ","ALLEY":" ","HOUSE_NO":"５０９號十三樓之８","E_COORD97":171650.85999999999,"N_COORD97":2544340.7999999998,"ADDRESS":"小東路５０９號十三樓之８","OBJECTID":626692},"geometry":{"x":171650.8600000022,"y":2544340.8000000007}},{"attributes":{"ID":626720,"DIS_CODE":0,"TOWNNAME":"永康區","LI":"中華里","LIN":"16鄰","STREET":"小東路","SECT":" ","MAREA":" ","LANE":" ","ALLEY":" ","HOUSE_NO":"５０９號十樓之６","E_COORD97":171649.57000000001,"N_COORD97":2544340.7999999998,"ADDRESS":"小東路５０９號十樓之６","OBJECTID":626693},"geometry":{"x":171649.57000000123,"y":2544340.8000000007}},{"attributes":{"ID":626721,"DIS_CODE":0,"TOWNNAME":"永康區","LI":"\u25A0行里","LIN":"46鄰","STREET":"新行街","SECT":" ","MAREA":" ","LANE":" ","ALLEY":" ","HOUSE_NO":"１２５號三樓之１","E_COORD97":172323.26000000001,"N_COORD97":2549035.2999999998,"ADDRESS":"新行街１２５號三樓之１","OBJECTID":626694},"geometry":{"x":172323.25999999978,"y":2549035.3000000026}},{"attributes":{"ID":626722,"DIS_CODE":0,"TOWNNAME":"永康區","LI":"\u25A0行里","LIN":"46鄰","STREET":"新行街","SECT":" ","MAREA":" ","LANE":" ","ALLEY":" ","HOUSE_NO":"１２５號六樓之２","E_COORD97":172323.39999999999,"N_COORD97":2549035.2999999998,"ADDRESS":"新行街１２５號六樓之２","OBJECTID":626695},"geometry":{"x":172323.39999999944,"y":2549035.3000000026}},{"attributes":{"ID":626723,"DIS_CODE":0,"TOWNNAME":"永康區","LI":"\u25A0行里","LIN":"46鄰","STREET":"新行街","SECT":" ","MAREA":" ","LANE":" ","ALLEY":" ","HOUSE_NO":"１２５號十樓之４","E_COORD97":172323.29000000001,"N_COORD97":2549035.2999999998,"ADDRESS":"新行街１２５號十樓之４","OBJECTID":626696},"geometry":{"x":172323.29000000004,"y":2549035.3000000026}},{"attributes":{"ID":626724,"DIS_CODE":0,"TOWNNAME":"永康區","LI":"\u25A0行里","LIN":"14鄰","STREET":"中正六街","SECT":" ","MAREA":" ","LANE":" ","ALLEY":" ","HOUSE_NO":"１７５號六樓之７","E_COORD97":171858.26999999999,"N_COORD97":2548861.5600000001,"ADDRESS":"中正六街１７５號六樓之７","OBJECTID":626697},"geometry":{"x":171858.26999999955,"y":2548861.5600000005}},{"attributes":{"ID":626725,"DIS_CODE":0,"TOWNNAME":"永康區","LI":"\u25A0行里","LIN":"14鄰","STREET":"中正六街","SECT":" ","MAREA":" ","LANE":" ","ALLEY":" ","HOUSE_NO":"１７５號四樓之７","E_COORD97":171858.26999999999,"N_COORD97":2548861.5600000001,"ADDRESS":"中正六街１７５號四樓之７","OBJECTID":626698},"geometry":{"x":171858.26999999955,"y":2548861.5600000005}},{"attributes":{"ID":626726,"DIS_CODE":0,"TOWNNAME":"永康區","LI":"\u25A0行里","LIN":"46鄰","STREET":"新行街","SECT":" ","MAREA":" ","LANE":" ","ALLEY":" ","HOUSE_NO":"１２５號十四樓之３","E_COORD97":172324.60999999999,"N_COORD97":2549035.2999999998,"ADDRESS":"新行街１２５號十四樓之３","OBJECTID":626699},"geometry":{"x":172324.61000000034,"y":2549035.3000000026}},{"attributes":{"ID":626727,"DIS_CODE":0,"TOWNNAME":"永康區","LI":"\u25A0行里","LIN":"31鄰","STREET":"仁愛街","SECT":" ","MAREA":" ","LANE":" ","ALLEY":" ","HOUSE_NO":"４８號之２七樓","E_COORD97":171957.32999999999,"N_COORD97":2549210.48,"ADDRESS":"仁愛街４８號之２七樓","OBJECTID":626700},"geometry":{"x":171957.33000000007,"y":2549210.4800000004}},{"attributes":{"ID":626728,"DIS_CODE":0,"TOWNNAME":"永康區","LI":"\u25A0行里","LIN":"37鄰","STREET":"仁愛街","SECT":" ","MAREA":" ","LANE":" ","ALLEY":" ","HOUSE_NO":"７６號四樓","E_COORD97":172041.20000000001,"N_COORD97":2549399.8999999999,"ADDRESS":"仁愛街７６號四樓","OBJECTID":626701},"geometry":{"x":172041.20000000019,"y":2549399.9000000022}},{"attributes":{"ID":626729,"DIS_CODE":0,"TOWNNAME":"永康區","LI":"\u25A0行里","LIN":"37鄰","STREET":"仁愛街","SECT":" ","MAREA":" ","LANE":" ","ALLEY":" ","HOUSE_NO":"９０號七樓","E_COORD97":172053.09,"N_COORD97":2549427.4100000001,"ADDRESS":"仁愛街９０號七樓","OBJECTID":626702},"geometry":{"x":172053.08999999985,"y":2549427.410000002}},{"attributes":{"ID":626730,"DIS_CODE":0,"TOWNNAME":"永康區","LI":"中華里","LIN":"16鄰","STREET":"小東路","SECT":" ","MAREA":" ","LANE":" ","ALLEY":" ","HOUSE_NO":"５０９號十一樓之７","E_COORD97":171650.79000000001,"N_COORD97":2544340.7999999998,"ADDRESS":"小東路５０９號十一樓之７","OBJECTID":626703},"geometry":{"x":171650.78999999911,"y":2544340.8000000007}},{"attributes":{"ID":626731,"DIS_CODE":0,"TOWNNAME":"永康區","LI":"\u25A0行里","LIN":"16鄰","STREET":"中正六街","SECT":" ","MAREA":" ","LANE":" ","ALLEY":" ","HOUSE_NO":"２０８號四樓","E_COORD97":171878.98999999999,"N_COORD97":2548843.1200000001,"ADDRESS":"中正六街２０８號四樓","OBJECTID":626704},"geometry":{"x":171878.99000000115,"y":2548843.1200000029}},{"attributes":{"ID":626732,"DIS_CODE":0,"TOWNNAME":"永康區","LI":"\u25A0行里","LIN":"16鄰","STREET":"中正六街","SECT":" ","MAREA":" ","LANE":" ","ALLEY":" ","HOUSE_NO":"２０８號七樓","E_COORD97":171878.98999999999,"N_COORD97":2548843.1200000001,"ADDRESS":"中正六街２０８號七樓","OBJECTID":626705},"geometry":{"x":171878.99000000115,"y":2548843.1200000029}},{"attributes":{"ID":626733,"DIS_CODE":0,"TOWNNAME":"永康區","LI":"\u25A0行里","LIN":"14鄰","STREET":"中正六街","SECT":" ","MAREA":" ","LANE":" ","ALLEY":" ","HOUSE_NO":"１７５號八樓之５","E_COORD97":171858.34,"N_COORD97":2548861.5600000001,"ADDRESS":"中正六街１７５號八樓之５","OBJECTID":626706},"geometry":{"x":171858.33999999985,"y":2548861.5600000005}},{"attributes":{"ID":626734,"DIS_CODE":0,"TOWNNAME":"永康區","LI":"\u25A0行里","LIN":"14鄰","STREET":"中正六街","SECT":" ","MAREA":" ","LANE":" ","ALLEY":" ","HOUSE_NO":"１７５號四樓之５","E_COORD97":171858.34,"N_COORD97":2548861.5600000001,"ADDRESS":"中正六街１７５號四樓之５","OBJECTID":626707},"geometry":{"x":171858.33999999985,"y":2548861.5600000005}},{"attributes":{"ID":626735,"DIS_CODE":0,"TOWNNAME":"永康區","LI":"\u25A0行里","LIN":"14鄰","STREET":"中正六街","SECT":" ","MAREA":" ","LANE":" ","ALLEY":" ","HOUSE_NO":"１７５號八樓之２","E_COORD97":171858.32000000001,"N_COORD97":2548861.5600000001,"ADDRESS":"中正六街１７５號八樓之２","OBJECTID":626708},"geometry":{"x":171858.32000000123,"y":2548861.5600000005}},{"attributes":{"ID":626736,"DIS_CODE":0,"TOWNNAME":"永康區","LI":"\u25A0行里","LIN":"14鄰","STREET":"中正六街","SECT":" ","MAREA":" ","LANE":" ","ALLEY":" ","HOUSE_NO":"１７５號四樓之６","E_COORD97":171858.29000000001,"N_COORD97":2548861.5600000001,"ADDRESS":"中正六街１７５號四樓之６","OBJECTID":626709},"geometry":{"x":171858.29000000097,"y":2548861.5600000005}},{"attributes":{"ID":626737,"DIS_CODE":0,"TOWNNAME":"永康區","LI":"中華里","LIN":"16鄰","STREET":"小東路","SECT":" ","MAREA":" ","LANE":" ","ALLEY":" ","HOUSE_NO":"５０９號七樓之１０","E_COORD97":171650.76000000001,"N_COORD97":2544340.7999999998,"ADDRESS":"小東路５０９號七樓之１０","OBJECTID":626710},"geometry":{"x":171650.75999999885,"y":2544340.8000000007}},{"attributes":{"ID":626738,"DIS_CODE":0,"TOWNNAME":"永康區","LI":"中華里","LIN":"16鄰","STREET":"小東路","SECT":" ","MAREA":" ","LANE":" ","ALLEY":" ","HOUSE_NO":"５０９號九樓之９","E_COORD97":171649.54999999999,"N_COORD97":2544340.7999999998,"ADDRESS":"小東路５０９號九樓之９","OBJECTID":626711},"geometry":{"x":171649.55000000075,"y":2544340.8000000007}},{"attributes":{"ID":626739,"DIS_CODE":0,"TOWNNAME":"永康區","LI":"中華里","LIN":"16鄰","STREET":"小東路","SECT":" ","MAREA":" ","LANE":" ","ALLEY":" ","HOUSE_NO":"５０９號十一樓之９","E_COORD97":171650.79999999999,"N_COORD97":2544340.7999999998,"ADDRESS":"小東路５０９號十一樓之９","OBJECTID":626712},"geometry":{"x":171650.80000000075,"y":2544340.8000000007}},{"attributes":{"ID":626740,"DIS_CODE":0,"TOWNNAME":"永康區","LI":"\u25A0洲里","LIN":"39鄰","STREET":"\u25A0洲一街","SECT":" ","MAREA":" ","LANE":" ","ALLEY":" ","HOUSE_NO":"４９號三樓之１","E_COORD97":171601.89000000001,"N_COORD97":2549090.5499999998,"ADDRESS":"\u25A0洲一街４９號三樓之１","OBJECTID":626713},"geometry":{"x":171601.88999999966,"y":2549090.5500000026}},{"attributes":{"ID":626741,"DIS_CODE":0,"TOWNNAME":"永康區","LI":"\u25A0洲里","LIN":"39鄰","STREET":"\u25A0洲一街","SECT":" ","MAREA":" ","LANE":" ","ALLEY":" ","HOUSE_NO":"４１號三樓之２","E_COORD97":171589.63,"N_COORD97":2549075.7999999998,"ADDRESS":"\u25A0洲一街４１號三樓之２","OBJECTID":626714},"geometry":{"x":171589.63000000082,"y":2549075.8000000026}},{"attributes":{"ID":626742,"DIS_CODE":0,"TOWNNAME":"永康區","LI":"\u25A0洲里","LIN":"39鄰","STREET":"\u25A0洲一街","SECT":" ","MAREA":" ","LANE":" ","ALLEY":" ","HOUSE_NO":"４１號二樓之１","E_COORD97":171589.5,"N_COORD97":2549075.7999999998,"ADDRESS":"\u25A0洲一街４１號二樓之１","OBJECTID":626715},"geometry":{"x":171589.5,"y":2549075.8000000026}},{"attributes":{"ID":626743,"DIS_CODE":0,"TOWNNAME":"永康區","LI":"\u25A0洲里","LIN":"39鄰","STREET":"\u25A0洲一街","SECT":" ","MAREA":" ","LANE":" ","ALLEY":" ","HOUSE_NO":"３９號二樓之１","E_COORD97":171585.41,"N_COORD97":2549070.7999999998,"ADDRESS":"\u25A0洲一街３９號二樓之１","OBJECTID":626716},"geometry":{"x":171585.41000000015,"y":2549070.8000000007}},{"attributes":{"ID":626744,"DIS_CODE":0,"TOWNNAME":"永康區","LI":"\u25A0行里","LIN":"46鄰","STREET":"新行街","SECT":" ","MAREA":" ","LANE":" ","ALLEY":" ","HOUSE_NO":"１２５號十三樓之４","E_COORD97":172324.54000000001,"N_COORD97":2549035.2999999998,"ADDRESS":"新行街１２５號十三樓之４","OBJECTID":626717},"geometry":{"x":172324.54000000097,"y":2549035.3000000026}},{"attributes":{"ID":626745,"DIS_CODE":0,"TOWNNAME":"永康區","LI":"中華里","LIN":"16鄰","STREET":"小東路","SECT":" ","MAREA":" ","LANE":" ","ALLEY":" ","HOUSE_NO":"５０９號八樓之７","E_COORD97":171649.54000000001,"N_COORD97":2544340.7999999998,"ADDRESS":"小東路５０９號八樓之７","OBJECTID":626718},"geometry":{"x":171649.54000000097,"y":2544340.8000000007}},{"attributes":{"ID":626746,"DIS_CODE":0,"TOWNNAME":"永康區","LI":"中華里","LIN":"16鄰","STREET":"小東路","SECT":" ","MAREA":" ","LANE":" ","ALLEY":" ","HOUSE_NO":"５０９號八樓之６","E_COORD97":171649.57000000001,"N_COORD97":2544340.7999999998,"ADDRESS":"小東路５０９號八樓之６","OBJECTID":626719},"geometry":{"x":171649.57000000123,"y":2544340.8000000007}},{"attributes":{"ID":626747,"DIS_CODE":0,"TOWNNAME":"永康區","LI":"中華里","LIN":"16鄰","STREET":"小東路","SECT":" ","MAREA":" ","LANE":" ","ALLEY":" ","HOUSE_NO":"５０９號十二樓之７","E_COORD97":171650.79000000001,"N_COORD97":2544340.7999999998,"ADDRESS":"小東路５０９號十二樓之７","OBJECTID":626720},"geometry":{"x":171650.78999999911,"y":2544340.8000000007}},{"attributes":{"ID":626748,"DIS_CODE":0,"TOWNNAME":"永康區","LI":"中華里","LIN":"16鄰","STREET":"小東路","SECT":" ","MAREA":" ","LANE":" ","ALLEY":" ","HOUSE_NO":"５０９號十三樓之９","E_COORD97":171650.79999999999,"N_COORD97":2544340.7999999998,"ADDRESS":"小東路５０９號十三樓之９","OBJECTID":626721},"geometry":{"x":171650.80000000075,"y":2544340.8000000007}},{"attributes":{"ID":626749,"DIS_CODE":0,"TOWNNAME":"東區","LI":"東明里","LIN":"4鄰","STREET":"東興路","SECT":" ","MAREA":" ","LANE":" ","ALLEY":" ","HOUSE_NO":"８１號七樓","E_COORD97":170940.10000000001,"N_COORD97":2543592.8999999999,"ADDRESS":"東興路８１號七樓","OBJECTID":626722},"geometry":{"x":170940.10000000056,"y":2543592.9000000022}},{"attributes":{"ID":626750,"DIS_CODE":0,"TOWNNAME":"永康區","LI":"\u25A0洲里","LIN":"39鄰","STREET":"\u25A0洲一街","SECT":" ","MAREA":" ","LANE":" ","ALLEY":" ","HOUSE_NO":"５７號三樓之２","E_COORD97":171614.26999999999,"N_COORD97":2549104.8100000001,"ADDRESS":"\u25A0洲一街５７號三樓之２","OBJECTID":626723},"geometry":{"x":171614.26999999955,"y":2549104.8100000042}},{"attributes":{"ID":626751,"DIS_CODE":0,"TOWNNAME":"永康區","LI":"中華里","LIN":"16鄰","STREET":"小東路","SECT":" ","MAREA":" ","LANE":" ","ALLEY":" ","HOUSE_NO":"５０９號十樓之３","E_COORD97":171649.56,"N_COORD97":2544340.7999999998,"ADDRESS":"小東路５０９號十樓之３","OBJECTID":626724},"geometry":{"x":171649.55999999959,"y":2544340.8000000007}},{"attributes":{"ID":626752,"DIS_CODE":0,"TOWNNAME":"永康區","LI":"中華里","LIN":"16鄰","STREET":"小東路","SECT":" ","MAREA":" ","LANE":" ","ALLEY":" ","HOUSE_NO":"５０９號十樓之２","E_COORD97":171649.60000000001,"N_COORD97":2544340.7999999998,"ADDRESS":"小東路５０９號十樓之２","OBJECTID":626725},"geometry":{"x":171649.59999999963,"y":2544340.8000000007}},{"attributes":{"ID":626753,"DIS_CODE":0,"TOWNNAME":"永康區","LI":"中華里","LIN":"16鄰","STREET":"小東路","SECT":" ","MAREA":" ","LANE":" ","ALLEY":" ","HOUSE_NO":"５０９號八樓之３","E_COORD97":171649.56,"N_COORD97":2544340.7999999998,"ADDRESS":"小東路５０９號八樓之３","OBJECTID":626726},"geometry":{"x":171649.55999999959,"y":2544340.8000000007}},{"attributes":{"ID":626754,"DIS_CODE":0,"TOWNNAME":"永康區","LI":"中華里","LIN":"16鄰","STREET":"小東路","SECT":" ","MAREA":" ","LANE":" ","ALLEY":" ","HOUSE_NO":"５０９號十三樓之１０","E_COORD97":171652.01000000001,"N_COORD97":2544340.7999999998,"ADDRESS":"小東路５０９號十三樓之１０","OBJECTID":626727},"geometry":{"x":171652.00999999978,"y":2544340.8000000007}},{"attributes":{"ID":626755,"DIS_CODE":0,"TOWNNAME":"永康區","LI":"中華里","LIN":"16鄰","STREET":"小東路","SECT":" ","MAREA":" ","LANE":" ","ALLEY":" ","HOUSE_NO":"５０９號七樓之１２","E_COORD97":171650.85000000001,"N_COORD97":2544340.7999999998,"ADDRESS":"小東路５０９號七樓之１２","OBJECTID":626728},"geometry":{"x":171650.85000000056,"y":2544340.8000000007}},{"attributes":{"ID":626756,"DIS_CODE":0,"TOWNNAME":"永康區","LI":"中華里","LIN":"16鄰","STREET":"小東路","SECT":" ","MAREA":" ","LANE":" ","ALLEY":" ","HOUSE_NO":"５０９號十三樓之７","E_COORD97":171650.79000000001,"N_COORD97":2544340.7999999998,"ADDRESS":"小東路５０９號十三樓之７","OBJECTID":626729},"geometry":{"x":171650.78999999911,"y":2544340.8000000007}},{"attributes":{"ID":626757,"DIS_CODE":0,"TOWNNAME":"永康區","LI":"中華里","LIN":"16鄰","STREET":"小東路","SECT":" ","MAREA":" ","LANE":" ","ALLEY":" ","HOUSE_NO":"５０９號十一樓之１０","E_COORD97":171652.01000000001,"N_COORD97":2544340.7999999998,"ADDRESS":"小東路５０９號十一樓之１０","OBJECTID":626730},"geometry":{"x":171652.00999999978,"y":2544340.8000000007}},{"attributes":{"ID":626758,"DIS_CODE":0,"TOWNNAME":"永康區","LI":"中華里","LIN":"16鄰","STREET":"小東路","SECT":" ","MAREA":" ","LANE":" ","ALLEY":" ","HOUSE_NO":"５０９號十二樓之９","E_COORD97":171650.79999999999,"N_COORD97":2544340.7999999998,"ADDRESS":"小東路５０９號十二樓之９","OBJECTID":626731},"geometry":{"x":171650.80000000075,"y":2544340.8000000007}},{"attributes":{"ID":626759,"DIS_CODE":0,"TOWNNAME":"永康區","LI":"\u25A0洲里","LIN":"39鄰","STREET":"\u25A0洲一街","SECT":" ","MAREA":" ","LANE":" ","ALLEY":" ","HOUSE_NO":"４９號二樓之１","E_COORD97":171601.89000000001,"N_COORD97":2549090.5499999998,"ADDRESS":"\u25A0洲一街４９號二樓之１","OBJECTID":626732},"geometry":{"x":171601.88999999966,"y":2549090.5500000026}},{"attributes":{"ID":626760,"DIS_CODE":0,"TOWNNAME":"永康區","LI":"\u25A0洲里","LIN":"39鄰","STREET":"\u25A0洲一街","SECT":" ","MAREA":" ","LANE":" ","ALLEY":" ","HOUSE_NO":"４１號二樓之２","E_COORD97":171589.63,"N_COORD97":2549075.7999999998,"ADDRESS":"\u25A0洲一街４１號二樓之２","OBJECTID":626733},"geometry":{"x":171589.63000000082,"y":2549075.8000000026}},{"attributes":{"ID":626761,"DIS_CODE":0,"TOWNNAME":"永康區","LI":"\u25A0洲里","LIN":"39鄰","STREET":"\u25A0洲一街","SECT":" ","MAREA":" ","LANE":" ","ALLEY":" ","HOUSE_NO":"５５號二樓之１","E_COORD97":171609.66,"N_COORD97":2549099.5600000001,"ADDRESS":"\u25A0洲一街５５號二樓之１","OBJECTID":626734},"geometry":{"x":171609.66000000201,"y":2549099.5599999987}},{"attributes":{"ID":626762,"DIS_CODE":0,"TOWNNAME":"永康區","LI":"\u25A0洲里","LIN":"39鄰","STREET":"\u25A0洲一街","SECT":" ","MAREA":" ","LANE":" ","ALLEY":" ","HOUSE_NO":"４９號四樓之２","E_COORD97":171602.01999999999,"N_COORD97":2549090.5499999998,"ADDRESS":"\u25A0洲一街４９號四樓之２","OBJECTID":626735},"geometry":{"x":171602.02000000048,"y":2549090.5500000026}},{"attributes":{"ID":626763,"DIS_CODE":0,"TOWNNAME":"永康區","LI":"中華里","LIN":"16鄰","STREET":"小東路","SECT":" ","MAREA":" ","LANE":" ","ALLEY":" ","HOUSE_NO":"５０９號七樓之７","E_COORD97":171649.54000000001,"N_COORD97":2544340.7999999998,"ADDRESS":"小東路５０９號七樓之７","OBJECTID":626736},"geometry":{"x":171649.54000000097,"y":2544340.8000000007}},{"attributes":{"ID":626764,"DIS_CODE":0,"TOWNNAME":"永康區","LI":"中華里","LIN":"16鄰","STREET":"小東路","SECT":" ","MAREA":" ","LANE":" ","ALLEY":" ","HOUSE_NO":"５０９號九樓之１０","E_COORD97":171650.76000000001,"N_COORD97":2544340.7999999998,"ADDRESS":"小東路５０９號九樓之１０","OBJECTID":626737},"geometry":{"x":171650.75999999885,"y":2544340.8000000007}},{"attributes":{"ID":626765,"DIS_CODE":0,"TOWNNAME":"永康區","LI":"中華里","LIN":"16鄰","STREET":"小東路","SECT":" ","MAREA":" ","LANE":" ","ALLEY":" ","HOUSE_NO":"５０９號八樓之２","E_COORD97":171649.60000000001,"N_COORD97":2544340.7999999998,"ADDRESS":"小東路５０９號八樓之２","OBJECTID":626738},"geometry":{"x":171649.59999999963,"y":2544340.8000000007}},{"attributes":{"ID":626766,"DIS_CODE":0,"TOWNNAME":"永康區","LI":"中華里","LIN":"16鄰","STREET":"小東路","SECT":" ","MAREA":" ","LANE":" ","ALLEY":" ","HOUSE_NO":"５０９號十一樓之１３","E_COORD97":171652.06,"N_COORD97":2544340.7999999998,"ADDRESS":"小東路５０９號十一樓之１３","OBJECTID":626739},"geometry":{"x":171652.06000000145,"y":2544340.8000000007}},{"attributes":{"ID":626767,"DIS_CODE":0,"TOWNNAME":"永康區","LI":"中華里","LIN":"16鄰","STREET":"小東路","SECT":" ","MAREA":" ","LANE":" ","ALLEY":" ","HOUSE_NO":"５０９號七樓之１３","E_COORD97":171650.81,"N_COORD97":2544340.7999999998,"ADDRESS":"小東路５０９號七樓之１３","OBJECTID":626740},"geometry":{"x":171650.81000000052,"y":2544340.8000000007}},{"attributes":{"ID":626768,"DIS_CODE":0,"TOWNNAME":"永康區","LI":"中華里","LIN":"16鄰","STREET":"小東路","SECT":" ","MAREA":" ","LANE":" ","ALLEY":" ","HOUSE_NO":"５０９號九樓之５","E_COORD97":171649.62,"N_COORD97":2544340.7999999998,"ADDRESS":"小東路５０９號九樓之５","OBJECTID":626741},"geometry":{"x":171649.62000000011,"y":2544340.8000000007}},{"attributes":{"ID":626769,"DIS_CODE":0,"TOWNNAME":"永康區","LI":"中華里","LIN":"16鄰","STREET":"小東路","SECT":" ","MAREA":" ","LANE":" ","ALLEY":" ","HOUSE_NO":"５０９號十二樓之１","E_COORD97":171650.70999999999,"N_COORD97":2544340.7999999998,"ADDRESS":"小東路５０９號十二樓之１","OBJECTID":626742},"geometry":{"x":171650.70999999996,"y":2544340.8000000007}},{"attributes":{"ID":626770,"DIS_CODE":0,"TOWNNAME":"永康區","LI":"中華里","LIN":"16鄰","STREET":"小東路","SECT":" ","MAREA":" ","LANE":" ","ALLEY":" ","HOUSE_NO":"５０９號十三樓之１","E_COORD97":171650.70999999999,"N_COORD97":2544340.7999999998,"ADDRESS":"小東路５０９號十三樓之１","OBJECTID":626743},"geometry":{"x":171650.70999999996,"y":2544340.8000000007}},{"attributes":{"ID":626771,"DIS_CODE":0,"TOWNNAME":"永康區","LI":"\u25A0洲里","LIN":"39鄰","STREET":"\u25A0洲一街","SECT":" ","MAREA":" ","LANE":" ","ALLEY":" ","HOUSE_NO":"５７號三樓之１","E_COORD97":171614.14000000001,"N_COORD97":2549104.8100000001,"ADDRESS":"\u25A0洲一街５７號三樓之１","OBJECTID":626744},"geometry":{"x":171614.13999999873,"y":2549104.8100000042}},{"attributes":{"ID":626772,"DIS_CODE":0,"TOWNNAME":"永康區","LI":"\u25A0洲里","LIN":"39鄰","STREET":"\u25A0洲一街","SECT":" ","MAREA":" ","LANE":" ","ALLEY":" ","HOUSE_NO":"５５號三樓之２","E_COORD97":171609.79000000001,"N_COORD97":2549099.5600000001,"ADDRESS":"\u25A0洲一街５５號三樓之２","OBJECTID":626745},"geometry":{"x":171609.79000000004,"y":2549099.5599999987}},{"attributes":{"ID":626773,"DIS_CODE":0,"TOWNNAME":"永康區","LI":"\u25A0洲里","LIN":"39鄰","STREET":"\u25A0洲一街","SECT":" ","MAREA":" ","LANE":" ","ALLEY":" ","HOUSE_NO":"４７號四樓之２","E_COORD97":171597.56,"N_COORD97":2549085.2999999998,"ADDRESS":"\u25A0洲一街４７號四樓之２","OBJECTID":626746},"geometry":{"x":171597.55999999959,"y":2549085.3000000026}},{"attributes":{"ID":626774,"DIS_CODE":0,"TOWNNAME":"永康區","LI":"\u25A0洲里","LIN":"39鄰","STREET":"\u25A0洲一街","SECT":" ","MAREA":" ","LANE":" ","ALLEY":" ","HOUSE_NO":"５７號二樓之１","E_COORD97":171614.14000000001,"N_COORD97":2549104.8100000001,"ADDRESS":"\u25A0洲一街５７號二樓之１","OBJECTID":626747},"geometry":{"x":171614.13999999873,"y":2549104.8100000042}},{"attributes":{"ID":626775,"DIS_CODE":0,"TOWNNAME":"永康區","LI":"\u25A0洲里","LIN":"39鄰","STREET":"\u25A0洲一街","SECT":" ","MAREA":" ","LANE":" ","ALLEY":" ","HOUSE_NO":"５５號四樓之１","E_COORD97":171609.66,"N_COORD97":2549099.5600000001,"ADDRESS":"\u25A0洲一街５５號四樓之１","OBJECTID":626748},"geometry":{"x":171609.66000000201,"y":2549099.5599999987}},{"attributes":{"ID":626776,"DIS_CODE":0,"TOWNNAME":"永康區","LI":"\u25A0洲里","LIN":"39鄰","STREET":"\u25A0洲一街","SECT":" ","MAREA":" ","LANE":" ","ALLEY":" ","HOUSE_NO":"５７號四樓之１","E_COORD97":171614.14000000001,"N_COORD97":2549104.8100000001,"ADDRESS":"\u25A0洲一街５７號四樓之１","OBJECTID":626749},"geometry":{"x":171614.13999999873,"y":2549104.8100000042}},{"attributes":{"ID":626777,"DIS_CODE":0,"TOWNNAME":"永康區","LI":"\u25A0洲里","LIN":"39鄰","STREET":"\u25A0洲一街","SECT":" ","MAREA":" ","LANE":" ","ALLEY":" ","HOUSE_NO":"５５號三樓之１","E_COORD97":171609.66,"N_COORD97":2549099.5600000001,"ADDRESS":"\u25A0洲一街５５號三樓之１","OBJECTID":626750},"geometry":{"x":171609.66000000201,"y":2549099.5599999987}},{"attributes":{"ID":626778,"DIS_CODE":0,"TOWNNAME":"東區","LI":"東明里","LIN":"4鄰","STREET":"東興路","SECT":" ","MAREA":" ","LANE":" ","ALLEY":" ","HOUSE_NO":"８１號三樓","E_COORD97":170940.10000000001,"N_COORD97":2543592.8999999999,"ADDRESS":"東興路８１號三樓","OBJECTID":626751},"geometry":{"x":170940.10000000056,"y":2543592.9000000022}},{"attributes":{"ID":626779,"DIS_CODE":0,"TOWNNAME":"東區","LI":"東明里","LIN":"4鄰","STREET":"東興路","SECT":" ","MAREA":" ","LANE":" ","ALLEY":" ","HOUSE_NO":"８１號六樓","E_COORD97":170940.10000000001,"N_COORD97":2543592.8999999999,"ADDRESS":"東興路８１號六樓","OBJECTID":626752},"geometry":{"x":170940.10000000056,"y":2543592.9000000022}},{"attributes":{"ID":626780,"DIS_CODE":0,"TOWNNAME":"中西區","LI":"仙草里","LIN":"20鄰","STREET":"健康路","SECT":"一段","MAREA":" ","LANE":" ","ALLEY":" ","HOUSE_NO":"３９６號四樓之６","E_COORD97":167805.69,"N_COORD97":2542490.52,"ADDRESS":"健康路一段３９６號四樓之６","OBJECTID":626753},"geometry":{"x":167805.69000000227,"y":2542490.5199999996}},{"attributes":{"ID":626781,"DIS_CODE":0,"TOWNNAME":"中西區","LI":"仙草里","LIN":"20鄰","STREET":"健康路","SECT":"一段","MAREA":" ","LANE":" ","ALLEY":" ","HOUSE_NO":"３９６號四樓之７","E_COORD97":167805.69,"N_COORD97":2542490.52,"ADDRESS":"健康路一段３９６號四樓之７","OBJECTID":626754},"geometry":{"x":167805.69000000227,"y":2542490.5199999996}},{"attributes":{"ID":626782,"DIS_CODE":0,"TOWNNAME":"中西區","LI":"仙草里","LIN":"20鄰","STREET":"健康路","SECT":"一段","MAREA":" ","LANE":" ","ALLEY":" ","HOUSE_NO":"３９６號四樓之８","E_COORD97":167805.69,"N_COORD97":2542490.52,"ADDRESS":"健康路一段３９６號四樓之８","OBJECTID":626755},"geometry":{"x":167805.69000000227,"y":2542490.5199999996}},{"attributes":{"ID":626783,"DIS_CODE":0,"TOWNNAME":"中西區","LI":"仙草里","LIN":"20鄰","STREET":"健康路","SECT":"一段","MAREA":" ","LANE":" ","ALLEY":" ","HOUSE_NO":"３９６號四樓之９","E_COORD97":167805.69,"N_COORD97":2542490.52,"ADDRESS":"健康路一段３９６號四樓之９","OBJECTID":626756},"geometry":{"x":167805.69000000227,"y":2542490.5199999996}},{"attributes":{"ID":626784,"DIS_CODE":0,"TOWNNAME":"中西區","LI":"永華里","LIN":"22鄰","STREET":"忠義路","SECT":"二段","MAREA":" ","LANE":" ","ALLEY":" ","HOUSE_NO":"３２號一樓","E_COORD97":168288.37,"N_COORD97":2543672.1000000001,"ADDRESS":"忠義路二段３２號一樓","OBJECTID":626757},"geometry":{"x":168288.37000000011,"y":2543672.1000000015}},{"attributes":{"ID":626785,"DIS_CODE":0,"TOWNNAME":"中西區","LI":"永華里","LIN":"22鄰","STREET":"忠義路","SECT":"二段","MAREA":" ","LANE":" ","ALLEY":" ","HOUSE_NO":"３２號七樓之１","E_COORD97":168288.37,"N_COORD97":2543672.1000000001,"ADDRESS":"忠義路二段３２號七樓之１","OBJECTID":626758},"geometry":{"x":168288.37000000011,"y":2543672.1000000015}},{"attributes":{"ID":626786,"DIS_CODE":0,"TOWNNAME":"中西區","LI":"永華里","LIN":"22鄰","STREET":"忠義路","SECT":"二段","MAREA":" ","LANE":" ","ALLEY":" ","HOUSE_NO":"３２號七樓之２","E_COORD97":168288.37,"N_COORD97":2543672.1000000001,"ADDRESS":"忠義路二段３２號七樓之２","OBJECTID":626759},"geometry":{"x":168288.37000000011,"y":2543672.1000000015}},{"attributes":{"ID":626787,"DIS_CODE":0,"TOWNNAME":"中西區","LI":"永華里","LIN":"22鄰","STREET":"忠義路","SECT":"二段","MAREA":" ","LANE":" ","ALLEY":" ","HOUSE_NO":"３２號七樓之３","E_COORD97":168288.37,"N_COORD97":2543672.1000000001,"ADDRESS":"忠義路二段３２號七樓之３","OBJECTID":626760},"geometry":{"x":168288.37000000011,"y":2543672.1000000015}},{"attributes":{"ID":626788,"DIS_CODE":0,"TOWNNAME":"中西區","LI":"永華里","LIN":"22鄰","STREET":"忠義路","SECT":"二段","MAREA":" ","LANE":" ","ALLEY":" ","HOUSE_NO":"３２號七樓之４","E_COORD97":168288.37,"N_COORD97":2543672.1000000001,"ADDRESS":"忠義路二段３２號七樓之４","OBJECTID":626761},"geometry":{"x":168288.37000000011,"y":2543672.1000000015}},{"attributes":{"ID":626789,"DIS_CODE":0,"TOWNNAME":"中西區","LI":"永華里","LIN":"22鄰","STREET":"忠義路","SECT":"二段","MAREA":" ","LANE":" ","ALLEY":" ","HOUSE_NO":"３２號七樓之５","E_COORD97":168288.37,"N_COORD97":2543672.1000000001,"ADDRESS":"忠義路二段３２號七樓之５","OBJECTID":626762},"geometry":{"x":168288.37000000011,"y":2543672.1000000015}},{"attributes":{"ID":626790,"DIS_CODE":0,"TOWNNAME":"中西區","LI":"永華里","LIN":"22鄰","STREET":"忠義路","SECT":"二段","MAREA":" ","LANE":" ","ALLEY":" ","HOUSE_NO":"３２號二樓之１","E_COORD97":168288.37,"N_COORD97":2543672.1000000001,"ADDRESS":"忠義路二段３２號二樓之１","OBJECTID":626763},"geometry":{"x":168288.37000000011,"y":2543672.1000000015}},{"attributes":{"ID":626791,"DIS_CODE":0,"TOWNNAME":"中西區","LI":"永華里","LIN":"22鄰","STREET":"忠義路","SECT":"二段","MAREA":" ","LANE":" ","ALLEY":" ","HOUSE_NO":"３２號二樓之２","E_COORD97":168288.37,"N_COORD97":2543672.1000000001,"ADDRESS":"忠義路二段３２號二樓之２","OBJECTID":626764},"geometry":{"x":168288.37000000011,"y":2543672.1000000015}},{"attributes":{"ID":626792,"DIS_CODE":0,"TOWNNAME":"中西區","LI":"永華里","LIN":"22鄰","STREET":"忠義路","SECT":"二段","MAREA":" ","LANE":" ","ALLEY":" ","HOUSE_NO":"３２號八樓之１","E_COORD97":168288.37,"N_COORD97":2543672.1000000001,"ADDRESS":"忠義路二段３２號八樓之１","OBJECTID":626765},"geometry":{"x":168288.37000000011,"y":2543672.1000000015}},{"attributes":{"ID":626793,"DIS_CODE":0,"TOWNNAME":"中西區","LI":"永華里","LIN":"22鄰","STREET":"忠義路","SECT":"二段","MAREA":" ","LANE":" ","ALLEY":" ","HOUSE_NO":"３２號八樓之２","E_COORD97":168288.37,"N_COORD97":2543672.1000000001,"ADDRESS":"忠義路二段３２號八樓之２","OBJECTID":626766},"geometry":{"x":168288.37000000011,"y":2543672.1000000015}},{"attributes":{"ID":626794,"DIS_CODE":0,"TOWNNAME":"中西區","LI":"永華里","LIN":"22鄰","STREET":"忠義路","SECT":"二段","MAREA":" ","LANE":" ","ALLEY":" ","HOUSE_NO":"３２號八樓之３","E_COORD97":168288.37,"N_COORD97":2543672.1000000001,"ADDRESS":"忠義路二段３２號八樓之３","OBJECTID":626767},"geometry":{"x":168288.37000000011,"y":2543672.1000000015}},{"attributes":{"ID":626795,"DIS_CODE":0,"TOWNNAME":"中西區","LI":"永華里","LIN":"22鄰","STREET":"忠義路","SECT":"二段","MAREA":" ","LANE":" ","ALLEY":" ","HOUSE_NO":"３２號八樓之４","E_COORD97":168288.37,"N_COORD97":2543672.1000000001,"ADDRESS":"忠義路二段３２號八樓之４","OBJECTID":626768},"geometry":{"x":168288.37000000011,"y":2543672.1000000015}},{"attributes":{"ID":626796,"DIS_CODE":0,"TOWNNAME":"中西區","LI":"永華里","LIN":"22鄰","STREET":"忠義路","SECT":"二段","MAREA":" ","LANE":" ","ALLEY":" ","HOUSE_NO":"３２號八樓之５","E_COORD97":168288.37,"N_COORD97":2543672.1000000001,"ADDRESS":"忠義路二段３２號八樓之５","OBJECTID":626769},"geometry":{"x":168288.37000000011,"y":2543672.1000000015}},{"attributes":{"ID":626797,"DIS_CODE":0,"TOWNNAME":"中西區","LI":"永華里","LIN":"22鄰","STREET":"忠義路","SECT":"二段","MAREA":" ","LANE":" ","ALLEY":" ","HOUSE_NO":"３２號三樓之１","E_COORD97":168288.37,"N_COORD97":2543672.1000000001,"ADDRESS":"忠義路二段３２號三樓之１","OBJECTID":626770},"geometry":{"x":168288.37000000011,"y":2543672.1000000015}},{"attributes":{"ID":626798,"DIS_CODE":0,"TOWNNAME":"中西區","LI":"永華里","LIN":"22鄰","STREET":"忠義路","SECT":"二段","MAREA":" ","LANE":" ","ALLEY":" ","HOUSE_NO":"３２號三樓之２","E_COORD97":168288.37,"N_COORD97":2543672.1000000001,"ADDRESS":"忠義路二段３２號三樓之２","OBJECTID":626771},"geometry":{"x":168288.37000000011,"y":2543672.1000000015}},{"attributes":{"ID":626799,"DIS_CODE":0,"TOWNNAME":"中西區","LI":"永華里","LIN":"22鄰","STREET":"忠義路","SECT":"二段","MAREA":" ","LANE":" ","ALLEY":" ","HOUSE_NO":"３２號五樓之１","E_COORD97":168288.37,"N_COORD97":2543672.1000000001,"ADDRESS":"忠義路二段３２號五樓之１","OBJECTID":626772},"geometry":{"x":168288.37000000011,"y":2543672.1000000015}},{"attributes":{"ID":626800,"DIS_CODE":0,"TOWNNAME":"中西區","LI":"永福里","LIN":"17鄰","STREET":"永福路","SECT":"二段","MAREA":" ","LANE":" ","ALLEY":" ","HOUSE_NO":"１８８號二樓","E_COORD97":168197.79999999999,"N_COORD97":2544055.8300000001,"ADDRESS":"永福路二段１８８號二樓","OBJECTID":626773},"geometry":{"x":168197.80000000075,"y":2544055.8299999982}},{"attributes":{"ID":626801,"DIS_CODE":0,"TOWNNAME":"中西區","LI":"永福里","LIN":"17鄰","STREET":"永福路","SECT":"二段","MAREA":" ","LANE":" ","ALLEY":" ","HOUSE_NO":"１８８號三樓","E_COORD97":168197.79999999999,"N_COORD97":2544055.8300000001,"ADDRESS":"永福路二段１８８號三樓","OBJECTID":626774},"geometry":{"x":168197.80000000075,"y":2544055.8299999982}},{"attributes":{"ID":626802,"DIS_CODE":0,"TOWNNAME":"中西區","LI":"永福里","LIN":"17鄰","STREET":"永福路","SECT":"二段","MAREA":" ","LANE":" ","ALLEY":" ","HOUSE_NO":"１８８號五樓","E_COORD97":168197.79999999999,"N_COORD97":2544055.8300000001,"ADDRESS":"永福路二段１８８號五樓","OBJECTID":626775},"geometry":{"x":168197.80000000075,"y":2544055.8299999982}},{"attributes":{"ID":626803,"DIS_CODE":0,"TOWNNAME":"東區","LI":"虎尾里","LIN":"24鄰","STREET":"東成街","SECT":" ","MAREA":" ","LANE":" ","ALLEY":" ","HOUSE_NO":"２２８號","E_COORD97":171958.04999999999,"N_COORD97":2542281.1699999999,"ADDRESS":"東成街２２８號","OBJECTID":626776},"geometry":{"x":171958.05000000075,"y":2542281.1700000018}},{"attributes":{"ID":626804,"DIS_CODE":0,"TOWNNAME":"永康區","LI":"網寮里","LIN":"26鄰","STREET":"永興路","SECT":" ","MAREA":" ","LANE":" ","ALLEY":" ","HOUSE_NO":"６５號八樓之３","E_COORD97":174047.16,"N_COORD97":2546517.5499999998,"ADDRESS":"永興路６５號八樓之３","OBJECTID":626777},"geometry":{"x":174047.16000000201,"y":2546517.5500000026}},{"attributes":{"ID":626805,"DIS_CODE":0,"TOWNNAME":"中西區","LI":"永福里","LIN":"17鄰","STREET":"永福路","SECT":"二段","MAREA":" ","LANE":" ","ALLEY":" ","HOUSE_NO":"１８８號四樓","E_COORD97":168197.79999999999,"N_COORD97":2544055.8300000001,"ADDRESS":"永福路二段１８８號四樓","OBJECTID":626778},"geometry":{"x":168197.80000000075,"y":2544055.8299999982}},{"attributes":{"ID":626806,"DIS_CODE":0,"TOWNNAME":"東區","LI":"虎尾里","LIN":"24鄰","STREET":"東成街","SECT":" ","MAREA":" ","LANE":" ","ALLEY":" ","HOUSE_NO":"２２６號","E_COORD97":171953.73999999999,"N_COORD97":2542281.73,"ADDRESS":"東成街２２６號","OBJECTID":626779},"geometry":{"x":171953.74000000115,"y":2542281.7300000023}},{"attributes":{"ID":626807,"DIS_CODE":0,"TOWNNAME":"永康區","LI":"復華里","LIN":"4鄰","STREET":"復國二路","SECT":" ","MAREA":" ","LANE":" ","ALLEY":" ","HOUSE_NO":"２４５號四樓之５","E_COORD97":173019.35000000001,"N_COORD97":2546116.2999999998,"ADDRESS":"復國二路２４５號四樓之５","OBJECTID":626780},"geometry":{"x":173019.34999999963,"y":2546116.3000000026}},{"attributes":{"ID":626808,"DIS_CODE":0,"TOWNNAME":"中西區","LI":"赤嵌里","LIN":"20鄰","STREET":"忠義路","SECT":"二段","MAREA":" ","LANE":" ","ALLEY":" ","HOUSE_NO":"１８５號九樓之１１","E_COORD97":168381.66,"N_COORD97":2544184.3199999998,"ADDRESS":"忠義路二段１８５號九樓之１１","OBJECTID":626781},"geometry":{"x":168381.66000000015,"y":2544184.3200000003}},{"attributes":{"ID":626809,"DIS_CODE":0,"TOWNNAME":"永康區","LI":"網寮里","LIN":"26鄰","STREET":"永興路","SECT":" ","MAREA":" ","LANE":" ","ALLEY":" ","HOUSE_NO":"６５號三樓之１","E_COORD97":174047.06,"N_COORD97":2546517.5499999998,"ADDRESS":"永興路６５號三樓之１","OBJECTID":626782},"geometry":{"x":174047.05999999959,"y":2546517.5500000026}},{"attributes":{"ID":626810,"DIS_CODE":0,"TOWNNAME":"永康區","LI":"網寮里","LIN":"26鄰","STREET":"永興路","SECT":" ","MAREA":" ","LANE":" ","ALLEY":" ","HOUSE_NO":"６５號二樓","E_COORD97":174044.92000000001,"N_COORD97":2546517.5099999998,"ADDRESS":"永興路６５號二樓","OBJECTID":626783},"geometry":{"x":174044.91999999993,"y":2546517.5100000016}},{"attributes":{"ID":626811,"DIS_CODE":0,"TOWNNAME":"東區","LI":"德光里","LIN":"4鄰","STREET":"崇明四街","SECT":" ","MAREA":" ","LANE":" ","ALLEY":" ","HOUSE_NO":"７１號","E_COORD97":169766.12,"N_COORD97":2542358.8700000001,"ADDRESS":"崇明四街７１號","OBJECTID":626784},"geometry":{"x":169766.12000000104,"y":2542358.8700000029}},{"attributes":{"ID":626812,"DIS_CODE":0,"TOWNNAME":"永康區","LI":"網寮里","LIN":"20鄰","STREET":"文化路","SECT":" ","MAREA":" ","LANE":" ","ALLEY":" ","HOUSE_NO":"３０７號七樓之２","E_COORD97":173464.98999999999,"N_COORD97":2546123.7599999998,"ADDRESS":"文化路３０７號七樓之２","OBJECTID":626785},"geometry":{"x":173464.99000000022,"y":2546123.7599999998}},{"attributes":{"ID":626813,"DIS_CODE":0,"TOWNNAME":"永康區","LI":"網寮里","LIN":"26鄰","STREET":"永華路","SECT":" ","MAREA":" ","LANE":" ","ALLEY":" ","HOUSE_NO":"５７２號十樓之２","E_COORD97":173892.82999999999,"N_COORD97":2546554.5499999998,"ADDRESS":"永華路５７２號十樓之２","OBJECTID":626786},"geometry":{"x":173892.83000000007,"y":2546554.5500000026}},{"attributes":{"ID":626814,"DIS_CODE":0,"TOWNNAME":"永康區","LI":"網寮里","LIN":"26鄰","STREET":"永興路","SECT":" ","MAREA":" ","LANE":" ","ALLEY":" ","HOUSE_NO":"６５號八樓之１","E_COORD97":174047.06,"N_COORD97":2546517.5499999998,"ADDRESS":"永興路６５號八樓之１","OBJECTID":626787},"geometry":{"x":174047.05999999959,"y":2546517.5500000026}},{"attributes":{"ID":626815,"DIS_CODE":0,"TOWNNAME":"永康區","LI":"網寮里","LIN":"21鄰","STREET":"文化路","SECT":" ","MAREA":" ","LANE":" ","ALLEY":" ","HOUSE_NO":"２３０號七樓之２","E_COORD97":173614.39999999999,"N_COORD97":2546146.7799999998,"ADDRESS":"文化路２３０號七樓之２","OBJECTID":626788},"geometry":{"x":173614.4000000013,"y":2546146.7799999993}},{"attributes":{"ID":626816,"DIS_CODE":0,"TOWNNAME":"永康區","LI":"網寮里","LIN":"21鄰","STREET":"文化路","SECT":" ","MAREA":" ","LANE":" ","ALLEY":" ","HOUSE_NO":"２３０號八樓之１","E_COORD97":173614.26000000001,"N_COORD97":2546146.7799999998,"ADDRESS":"文化路２３０號八樓之１","OBJECTID":626789},"geometry":{"x":173614.26000000071,"y":2546146.7799999993}},{"attributes":{"ID":626817,"DIS_CODE":0,"TOWNNAME":"永康區","LI":"網寮里","LIN":"21鄰","STREET":"文化路","SECT":" ","MAREA":" ","LANE":" ","ALLEY":" ","HOUSE_NO":"２３０號八樓之２","E_COORD97":173614.39999999999,"N_COORD97":2546146.7799999998,"ADDRESS":"文化路２３０號八樓之２","OBJECTID":626790},"geometry":{"x":173614.4000000013,"y":2546146.7799999993}},{"attributes":{"ID":626818,"DIS_CODE":0,"TOWNNAME":"永康區","LI":"龍潭里","LIN":"22鄰","STREET":"龍安街","SECT":" ","MAREA":" ","LANE":" ","ALLEY":" ","HOUSE_NO":"２５１號三樓之４","E_COORD97":174751.20000000001,"N_COORD97":2548624.6400000001,"ADDRESS":"龍安街２５１號三樓之４","OBJECTID":626791},"geometry":{"x":174751.20000000112,"y":2548624.6400000043}},{"attributes":{"ID":626819,"DIS_CODE":0,"TOWNNAME":"永康區","LI":"網寮里","LIN":"20鄰","STREET":"文化路","SECT":" ","MAREA":" ","LANE":" ","ALLEY":" ","HOUSE_NO":"３１５號三樓之１","E_COORD97":173450.25,"N_COORD97":2546134.21,"ADDRESS":"文化路３１５號三樓之１","OBJECTID":626792},"geometry":{"x":173450.25000000093,"y":2546134.2100000028}},{"attributes":{"ID":626820,"DIS_CODE":0,"TOWNNAME":"永康區","LI":"網寮里","LIN":"20鄰","STREET":"文化路","SECT":" ","MAREA":" ","LANE":" ","ALLEY":" ","HOUSE_NO":"３０７號四樓之１","E_COORD97":173464.85000000001,"N_COORD97":2546123.7599999998,"ADDRESS":"文化路３０７號四樓之１","OBJECTID":626793},"geometry":{"x":173464.84999999963,"y":2546123.7599999998}},{"attributes":{"ID":626821,"DIS_CODE":0,"TOWNNAME":"永康區","LI":"蔦松里","LIN":"1鄰","STREET":"蔦松二街","SECT":" ","MAREA":" ","LANE":" ","ALLEY":" ","HOUSE_NO":"１１２號八樓之１","E_COORD97":173778.38,"N_COORD97":2549341.8300000001,"ADDRESS":"蔦松二街１１２號八樓之１","OBJECTID":626794},"geometry":{"x":173778.38000000082,"y":2549341.8300000038}},{"attributes":{"ID":626822,"DIS_CODE":0,"TOWNNAME":"永康區","LI":"網寮里","LIN":"26鄰","STREET":"永華路","SECT":" ","MAREA":" ","LANE":" ","ALLEY":" ","HOUSE_NO":"５８０號七樓之３","E_COORD97":173896.98000000001,"N_COORD97":2546572.7999999998,"ADDRESS":"永華路５８０號七樓之３","OBJECTID":626795},"geometry":{"x":173896.98000000138,"y":2546572.8000000045}},{"attributes":{"ID":626823,"DIS_CODE":0,"TOWNNAME":"永康區","LI":"蔦松里","LIN":"3鄰","STREET":"中正北路","SECT":" ","MAREA":" ","LANE":" ","ALLEY":" ","HOUSE_NO":"６１９號十二樓之２","E_COORD97":174018.85999999999,"N_COORD97":2549303.29,"ADDRESS":"中正北路６１９號十二樓之２","OBJECTID":626796},"geometry":{"x":174018.8599999994,"y":2549303.2899999972}},{"attributes":{"ID":626824,"DIS_CODE":0,"TOWNNAME":"永康區","LI":"蔦松里","LIN":"3鄰","STREET":"中正北路","SECT":" ","MAREA":" ","LANE":" ","ALLEY":" ","HOUSE_NO":"６１９號十一樓之２","E_COORD97":174018.85999999999,"N_COORD97":2549303.29,"ADDRESS":"中正北路６１９號十一樓之２","OBJECTID":626797},"geometry":{"x":174018.8599999994,"y":2549303.2899999972}},{"attributes":{"ID":626825,"DIS_CODE":0,"TOWNNAME":"永康區","LI":"網寮里","LIN":"20鄰","STREET":"文化路","SECT":" ","MAREA":" ","LANE":" ","ALLEY":" ","HOUSE_NO":"３１５號八樓之１","E_COORD97":173450.25,"N_COORD97":2546134.21,"ADDRESS":"文化路３１５號八樓之１","OBJECTID":626798},"geometry":{"x":173450.25000000093,"y":2546134.2100000028}},{"attributes":{"ID":626826,"DIS_CODE":0,"TOWNNAME":"永康區","LI":"網寮里","LIN":"26鄰","STREET":"永興路","SECT":" ","MAREA":" ","LANE":" ","ALLEY":" ","HOUSE_NO":"６５號八樓之２","E_COORD97":174047.19,"N_COORD97":2546517.5499999998,"ADDRESS":"永興路６５號八樓之２","OBJECTID":626799},"geometry":{"x":174047.18999999948,"y":2546517.5500000026}},{"attributes":{"ID":626827,"DIS_CODE":0,"TOWNNAME":"永康區","LI":"\u25A0行里","LIN":"42鄰","STREET":"永安二街","SECT":" ","MAREA":" ","LANE":" ","ALLEY":" ","HOUSE_NO":"１號七樓之２","E_COORD97":172490.22,"N_COORD97":2549594.3300000001,"ADDRESS":"永安二街１號七樓之２","OBJECTID":626800},"geometry":{"x":172490.2200000016,"y":2549594.3300000001}}]}