{"displayFieldName":"TOWNNAME","fieldAliases":{"ID":"ID","DIS_CODE":"DIS_CODE","TOWNNAME":"TOWNNAME","LI":"LI","LIN":"LIN","STREET":"STREET","SECT":"SECT","MAREA":"MAREA","LANE":"LANE","ALLEY":"ALLEY","HOUSE_NO":"HOUSE_NO","E_COORD97":"E_COORD97","N_COORD97":"N_COORD97","ADDRESS":"ADDRESS","OBJECTID":"OBJECTID"},"geometryType":"esriGeometryPoint","spatialReference":{"wkid":102443,"latestWkid":3826},"fields":[{"name":"ID","type":"esriFieldTypeDouble","alias":"ID"},{"name":"DIS_CODE","type":"esriFieldTypeInteger","alias":"DIS_CODE"},{"name":"TOWNNAME","type":"esriFieldTypeString","alias":"TOWNNAME","length":8},{"name":"LI","type":"esriFieldTypeString","alias":"LI","length":8},{"name":"LIN","type":"esriFieldTypeString","alias":"LIN","length":12},{"name":"STREET","type":"esriFieldTypeString","alias":"STREET","length":20},{"name":"SECT","type":"esriFieldTypeString","alias":"SECT","length":8},{"name":"MAREA","type":"esriFieldTypeString","alias":"MAREA","length":12},{"name":"LANE","type":"esriFieldTypeString","alias":"LANE","length":10},{"name":"ALLEY","type":"esriFieldTypeString","alias":"ALLEY","length":10},{"name":"HOUSE_NO","type":"esriFieldTypeString","alias":"HOUSE_NO","length":20},{"name":"E_COORD97","type":"esriFieldTypeDouble","alias":"E_COORD97"},{"name":"N_COORD97","type":"esriFieldTypeDouble","alias":"N_COORD97"},{"name":"ADDRESS","type":"esriFieldTypeString","alias":"ADDRESS","length":50},{"name":"OBJECTID","type":"esriFieldTypeOID","alias":"OBJECTID"}],"features":[{"attributes":{"ID":637428,"DIS_CODE":0,"TOWNNAME":"歸仁區","LI":"文化里","LIN":"20鄰","STREET":"大德路","SECT":" ","MAREA":" ","LANE":" ","ALLEY":" ","HOUSE_NO":"２１１號四樓之５","E_COORD97":177223.63,"N_COORD97":2541515.3399999999,"ADDRESS":"大德路２１１號四樓之５","OBJECTID":637401},"geometry":{"x":177223.62999999989,"y":2541515.3399999999}},{"attributes":{"ID":637429,"DIS_CODE":0,"TOWNNAME":"歸仁區","LI":"歸仁里","LIN":"15鄰","STREET":"信義北路","SECT":" ","MAREA":" ","LANE":" ","ALLEY":" ","HOUSE_NO":"９２號六樓","E_COORD97":177999.87,"N_COORD97":2541037.1099999999,"ADDRESS":"信義北路９２號六樓","OBJECTID":637402},"geometry":{"x":177999.87000000011,"y":2541037.1100000013}},{"attributes":{"ID":637430,"DIS_CODE":0,"TOWNNAME":"歸仁區","LI":"歸仁里","LIN":"4鄰","STREET":"和平北街","SECT":" ","MAREA":" ","LANE":" ","ALLEY":" ","HOUSE_NO":"６５號四樓","E_COORD97":177842.59,"N_COORD97":2541006.04,"ADDRESS":"和平北街６５號四樓","OBJECTID":637403},"geometry":{"x":177842.58999999985,"y":2541006.040000001}},{"attributes":{"ID":637431,"DIS_CODE":0,"TOWNNAME":"歸仁區","LI":"歸仁里","LIN":"4鄰","STREET":"和平三街","SECT":" ","MAREA":" ","LANE":" ","ALLEY":" ","HOUSE_NO":"２號五樓","E_COORD97":177827.04000000001,"N_COORD97":2541007.04,"ADDRESS":"和平三街２號五樓","OBJECTID":637404},"geometry":{"x":177827.04000000097,"y":2541007.040000001}},{"attributes":{"ID":637432,"DIS_CODE":0,"TOWNNAME":"歸仁區","LI":"歸仁里","LIN":"4鄰","STREET":"和平三街","SECT":" ","MAREA":" ","LANE":" ","ALLEY":" ","HOUSE_NO":"６號七樓","E_COORD97":177823.94,"N_COORD97":2541007.04,"ADDRESS":"和平三街６號七樓","OBJECTID":637405},"geometry":{"x":177823.94000000041,"y":2541007.040000001}},{"attributes":{"ID":637433,"DIS_CODE":0,"TOWNNAME":"歸仁區","LI":"歸仁里","LIN":"4鄰","STREET":"和平三街","SECT":" ","MAREA":" ","LANE":" ","ALLEY":" ","HOUSE_NO":"２號三樓","E_COORD97":177827.04000000001,"N_COORD97":2541007.04,"ADDRESS":"和平三街２號三樓","OBJECTID":637406},"geometry":{"x":177827.04000000097,"y":2541007.040000001}},{"attributes":{"ID":637434,"DIS_CODE":0,"TOWNNAME":"歸仁區","LI":"文化里","LIN":"20鄰","STREET":"大德路","SECT":" ","MAREA":" ","LANE":" ","ALLEY":" ","HOUSE_NO":"２１１號四樓之１０","E_COORD97":177223.85999999999,"N_COORD97":2541515.3399999999,"ADDRESS":"大德路２１１號四樓之１０","OBJECTID":637407},"geometry":{"x":177223.86000000034,"y":2541515.3399999999}},{"attributes":{"ID":637435,"DIS_CODE":0,"TOWNNAME":"歸仁區","LI":"文化里","LIN":"20鄰","STREET":"大德路","SECT":" ","MAREA":" ","LANE":" ","ALLEY":" ","HOUSE_NO":"２１１號三樓之１２","E_COORD97":177223.87,"N_COORD97":2541515.3399999999,"ADDRESS":"大德路２１１號三樓之１２","OBJECTID":637408},"geometry":{"x":177223.87000000011,"y":2541515.3399999999}},{"attributes":{"ID":637436,"DIS_CODE":0,"TOWNNAME":"歸仁區","LI":"文化里","LIN":"20鄰","STREET":"大德路","SECT":" ","MAREA":" ","LANE":" ","ALLEY":" ","HOUSE_NO":"２１１號二樓之１","E_COORD97":177223.60000000001,"N_COORD97":2541515.3399999999,"ADDRESS":"大德路２１１號二樓之１","OBJECTID":637409},"geometry":{"x":177223.59999999963,"y":2541515.3399999999}},{"attributes":{"ID":637437,"DIS_CODE":0,"TOWNNAME":"歸仁區","LI":"文化里","LIN":"20鄰","STREET":"大德路","SECT":" ","MAREA":" ","LANE":" ","ALLEY":" ","HOUSE_NO":"２１１號二樓之３","E_COORD97":177223.62,"N_COORD97":2541515.3399999999,"ADDRESS":"大德路２１１號二樓之３","OBJECTID":637410},"geometry":{"x":177223.62000000011,"y":2541515.3399999999}},{"attributes":{"ID":637438,"DIS_CODE":0,"TOWNNAME":"歸仁區","LI":"歸仁里","LIN":"15鄰","STREET":"信義北路","SECT":" ","MAREA":" ","LANE":" ","ALLEY":" ","HOUSE_NO":"９４號五樓","E_COORD97":178002.97,"N_COORD97":2541042.1099999999,"ADDRESS":"信義北路９４號五樓","OBJECTID":637411},"geometry":{"x":178002.9700000016,"y":2541042.1099999994}},{"attributes":{"ID":637439,"DIS_CODE":0,"TOWNNAME":"歸仁區","LI":"歸仁里","LIN":"4鄰","STREET":"和平三街","SECT":" ","MAREA":" ","LANE":" ","ALLEY":" ","HOUSE_NO":"１０號七樓","E_COORD97":177818.09,"N_COORD97":2541023.04,"ADDRESS":"和平三街１０號七樓","OBJECTID":637412},"geometry":{"x":177818.09000000078,"y":2541023.040000001}},{"attributes":{"ID":637440,"DIS_CODE":0,"TOWNNAME":"歸仁區","LI":"歸仁里","LIN":"4鄰","STREET":"和平三街","SECT":" ","MAREA":" ","LANE":" ","ALLEY":" ","HOUSE_NO":"２號七樓","E_COORD97":177827.04000000001,"N_COORD97":2541007.04,"ADDRESS":"和平三街２號七樓","OBJECTID":637413},"geometry":{"x":177827.04000000097,"y":2541007.040000001}},{"attributes":{"ID":637441,"DIS_CODE":0,"TOWNNAME":"歸仁區","LI":"歸仁里","LIN":"4鄰","STREET":"和平三街","SECT":" ","MAREA":" ","LANE":" ","ALLEY":" ","HOUSE_NO":"１０號四樓","E_COORD97":177818.09,"N_COORD97":2541023.04,"ADDRESS":"和平三街１０號四樓","OBJECTID":637414},"geometry":{"x":177818.09000000078,"y":2541023.040000001}},{"attributes":{"ID":637442,"DIS_CODE":0,"TOWNNAME":"歸仁區","LI":"歸仁里","LIN":"4鄰","STREET":"和平三街","SECT":" ","MAREA":" ","LANE":" ","ALLEY":" ","HOUSE_NO":"１２號三樓","E_COORD97":177814.98999999999,"N_COORD97":2541008.04,"ADDRESS":"和平三街１２號三樓","OBJECTID":637415},"geometry":{"x":177814.99000000022,"y":2541008.0399999991}},{"attributes":{"ID":637443,"DIS_CODE":0,"TOWNNAME":"歸仁區","LI":"歸仁里","LIN":"4鄰","STREET":"和平三街","SECT":" ","MAREA":" ","LANE":" ","ALLEY":" ","HOUSE_NO":"１０號六樓","E_COORD97":177818.09,"N_COORD97":2541023.04,"ADDRESS":"和平三街１０號六樓","OBJECTID":637416},"geometry":{"x":177818.09000000078,"y":2541023.040000001}},{"attributes":{"ID":637444,"DIS_CODE":0,"TOWNNAME":"歸仁區","LI":"歸仁里","LIN":"4鄰","STREET":"和平三街","SECT":" ","MAREA":" ","LANE":" ","ALLEY":" ","HOUSE_NO":"１０號二樓","E_COORD97":177818.09,"N_COORD97":2541023.04,"ADDRESS":"和平三街１０號二樓","OBJECTID":637417},"geometry":{"x":177818.09000000078,"y":2541023.040000001}},{"attributes":{"ID":637445,"DIS_CODE":0,"TOWNNAME":"歸仁區","LI":"歸仁里","LIN":"4鄰","STREET":"和平三街","SECT":" ","MAREA":" ","LANE":" ","ALLEY":" ","HOUSE_NO":"２號六樓","E_COORD97":177827.04000000001,"N_COORD97":2541007.04,"ADDRESS":"和平三街２號六樓","OBJECTID":637418},"geometry":{"x":177827.04000000097,"y":2541007.040000001}},{"attributes":{"ID":637446,"DIS_CODE":0,"TOWNNAME":"歸仁區","LI":"歸仁里","LIN":"4鄰","STREET":"和平三街","SECT":" ","MAREA":" ","LANE":" ","ALLEY":" ","HOUSE_NO":"１０號三樓","E_COORD97":177818.09,"N_COORD97":2541023.04,"ADDRESS":"和平三街１０號三樓","OBJECTID":637419},"geometry":{"x":177818.09000000078,"y":2541023.040000001}},{"attributes":{"ID":637447,"DIS_CODE":0,"TOWNNAME":"歸仁區","LI":"文化里","LIN":"20鄰","STREET":"大德路","SECT":" ","MAREA":" ","LANE":" ","ALLEY":" ","HOUSE_NO":"２１１號四樓之６","E_COORD97":177223.62,"N_COORD97":2541515.3399999999,"ADDRESS":"大德路２１１號四樓之６","OBJECTID":637420},"geometry":{"x":177223.62000000011,"y":2541515.3399999999}},{"attributes":{"ID":637448,"DIS_CODE":0,"TOWNNAME":"歸仁區","LI":"文化里","LIN":"20鄰","STREET":"大德路","SECT":" ","MAREA":" ","LANE":" ","ALLEY":" ","HOUSE_NO":"２１１號四樓之１３","E_COORD97":177223.87,"N_COORD97":2541515.3399999999,"ADDRESS":"大德路２１１號四樓之１３","OBJECTID":637421},"geometry":{"x":177223.87000000011,"y":2541515.3399999999}},{"attributes":{"ID":637449,"DIS_CODE":0,"TOWNNAME":"歸仁區","LI":"文化里","LIN":"20鄰","STREET":"大德路","SECT":" ","MAREA":" ","LANE":" ","ALLEY":" ","HOUSE_NO":"２１１號二樓之５","E_COORD97":177223.63,"N_COORD97":2541515.3399999999,"ADDRESS":"大德路２１１號二樓之５","OBJECTID":637422},"geometry":{"x":177223.62999999989,"y":2541515.3399999999}},{"attributes":{"ID":637450,"DIS_CODE":0,"TOWNNAME":"歸仁區","LI":"辜厝里","LIN":"7鄰","STREET":"大順二街","SECT":" ","MAREA":" ","LANE":" ","ALLEY":" ","HOUSE_NO":"９號七樓之１","E_COORD97":177486.29999999999,"N_COORD97":2540577.6000000001,"ADDRESS":"大順二街９號七樓之１","OBJECTID":637423},"geometry":{"x":177486.30000000075,"y":2540577.5999999996}},{"attributes":{"ID":637451,"DIS_CODE":0,"TOWNNAME":"歸仁區","LI":"歸仁里","LIN":"4鄰","STREET":"和平三街","SECT":" ","MAREA":" ","LANE":" ","ALLEY":" ","HOUSE_NO":"１０號五樓","E_COORD97":177818.09,"N_COORD97":2541023.04,"ADDRESS":"和平三街１０號五樓","OBJECTID":637424},"geometry":{"x":177818.09000000078,"y":2541023.040000001}},{"attributes":{"ID":637452,"DIS_CODE":0,"TOWNNAME":"歸仁區","LI":"歸仁里","LIN":"4鄰","STREET":"和平三街","SECT":" ","MAREA":" ","LANE":" ","ALLEY":" ","HOUSE_NO":"１２號四樓","E_COORD97":177814.98999999999,"N_COORD97":2541008.04,"ADDRESS":"和平三街１２號四樓","OBJECTID":637425},"geometry":{"x":177814.99000000022,"y":2541008.0399999991}},{"attributes":{"ID":637453,"DIS_CODE":0,"TOWNNAME":"歸仁區","LI":"歸仁里","LIN":"4鄰","STREET":"和平三街","SECT":" ","MAREA":" ","LANE":" ","ALLEY":" ","HOUSE_NO":"６號五樓","E_COORD97":177823.94,"N_COORD97":2541007.04,"ADDRESS":"和平三街６號五樓","OBJECTID":637426},"geometry":{"x":177823.94000000041,"y":2541007.040000001}},{"attributes":{"ID":637454,"DIS_CODE":0,"TOWNNAME":"歸仁區","LI":"辜厝里","LIN":"7鄰","STREET":"大順二街","SECT":" ","MAREA":" ","LANE":" ","ALLEY":" ","HOUSE_NO":"９號四樓之７","E_COORD97":177486.31,"N_COORD97":2540577.6000000001,"ADDRESS":"大順二街９號四樓之７","OBJECTID":637427},"geometry":{"x":177486.30999999959,"y":2540577.5999999996}},{"attributes":{"ID":637455,"DIS_CODE":0,"TOWNNAME":"歸仁區","LI":"辜厝里","LIN":"7鄰","STREET":"大順二街","SECT":" ","MAREA":" ","LANE":" ","ALLEY":" ","HOUSE_NO":"９號六樓之５","E_COORD97":177486.32999999999,"N_COORD97":2540577.6000000001,"ADDRESS":"大順二街９號六樓之５","OBJECTID":637428},"geometry":{"x":177486.33000000101,"y":2540577.5999999996}},{"attributes":{"ID":637456,"DIS_CODE":0,"TOWNNAME":"歸仁區","LI":"歸仁里","LIN":"4鄰","STREET":"和平三街","SECT":" ","MAREA":" ","LANE":" ","ALLEY":" ","HOUSE_NO":"１２號五樓","E_COORD97":177814.98999999999,"N_COORD97":2541008.04,"ADDRESS":"和平三街１２號五樓","OBJECTID":637429},"geometry":{"x":177814.99000000022,"y":2541008.0399999991}},{"attributes":{"ID":637457,"DIS_CODE":0,"TOWNNAME":"歸仁區","LI":"歸仁里","LIN":"4鄰","STREET":"和平北街","SECT":" ","MAREA":" ","LANE":" ","ALLEY":" ","HOUSE_NO":"６５號六樓","E_COORD97":177842.59,"N_COORD97":2541006.04,"ADDRESS":"和平北街６５號六樓","OBJECTID":637430},"geometry":{"x":177842.58999999985,"y":2541006.040000001}},{"attributes":{"ID":637458,"DIS_CODE":0,"TOWNNAME":"歸仁區","LI":"歸仁里","LIN":"4鄰","STREET":"和平北街","SECT":" ","MAREA":" ","LANE":" ","ALLEY":" ","HOUSE_NO":"６９號五樓","E_COORD97":177843.69,"N_COORD97":2541017.04,"ADDRESS":"和平北街６９號五樓","OBJECTID":637431},"geometry":{"x":177843.69000000041,"y":2541017.040000001}},{"attributes":{"ID":637459,"DIS_CODE":0,"TOWNNAME":"歸仁區","LI":"許厝里","LIN":"18鄰","STREET":"仁愛北街","SECT":" ","MAREA":" ","LANE":" ","ALLEY":" ","HOUSE_NO":"６２號五樓","E_COORD97":178300.42999999999,"N_COORD97":2540875.25,"ADDRESS":"仁愛北街６２號五樓","OBJECTID":637432},"geometry":{"x":178300.43000000063,"y":2540875.25}},{"attributes":{"ID":637460,"DIS_CODE":0,"TOWNNAME":"歸仁區","LI":"許厝里","LIN":"18鄰","STREET":"仁愛北街","SECT":" ","MAREA":" ","LANE":" ","ALLEY":" ","HOUSE_NO":"５６號六樓","E_COORD97":178300.32999999999,"N_COORD97":2540855.25,"ADDRESS":"仁愛北街５６號六樓","OBJECTID":637433},"geometry":{"x":178300.33000000007,"y":2540855.25}},{"attributes":{"ID":637461,"DIS_CODE":0,"TOWNNAME":"歸仁區","LI":"文化里","LIN":"20鄰","STREET":"大德路","SECT":" ","MAREA":" ","LANE":" ","ALLEY":" ","HOUSE_NO":"２１１號四樓之９","E_COORD97":177223.60999999999,"N_COORD97":2541515.3399999999,"ADDRESS":"大德路２１１號四樓之９","OBJECTID":637434},"geometry":{"x":177223.61000000127,"y":2541515.3399999999}},{"attributes":{"ID":637462,"DIS_CODE":0,"TOWNNAME":"歸仁區","LI":"歸仁里","LIN":"4鄰","STREET":"和平北街","SECT":" ","MAREA":" ","LANE":" ","ALLEY":" ","HOUSE_NO":"６９號七樓","E_COORD97":177843.69,"N_COORD97":2541017.04,"ADDRESS":"和平北街６９號七樓","OBJECTID":637435},"geometry":{"x":177843.69000000041,"y":2541017.040000001}},{"attributes":{"ID":637463,"DIS_CODE":0,"TOWNNAME":"歸仁區","LI":"文化里","LIN":"20鄰","STREET":"大德路","SECT":" ","MAREA":" ","LANE":" ","ALLEY":" ","HOUSE_NO":"２１１號三樓之１４","E_COORD97":177223.85000000001,"N_COORD97":2541515.3399999999,"ADDRESS":"大德路２１１號三樓之１４","OBJECTID":637436},"geometry":{"x":177223.85000000149,"y":2541515.3399999999}},{"attributes":{"ID":637464,"DIS_CODE":0,"TOWNNAME":"歸仁區","LI":"文化里","LIN":"20鄰","STREET":"大德路","SECT":" ","MAREA":" ","LANE":" ","ALLEY":" ","HOUSE_NO":"２１１號三樓之１３","E_COORD97":177223.87,"N_COORD97":2541515.3399999999,"ADDRESS":"大德路２１１號三樓之１３","OBJECTID":637437},"geometry":{"x":177223.87000000011,"y":2541515.3399999999}},{"attributes":{"ID":637465,"DIS_CODE":0,"TOWNNAME":"歸仁區","LI":"歸仁里","LIN":"4鄰","STREET":"和平北街","SECT":" ","MAREA":" ","LANE":" ","ALLEY":" ","HOUSE_NO":"６９號六樓","E_COORD97":177843.69,"N_COORD97":2541017.04,"ADDRESS":"和平北街６９號六樓","OBJECTID":637438},"geometry":{"x":177843.69000000041,"y":2541017.040000001}},{"attributes":{"ID":637466,"DIS_CODE":0,"TOWNNAME":"歸仁區","LI":"歸仁里","LIN":"4鄰","STREET":"和平北街","SECT":" ","MAREA":" ","LANE":" ","ALLEY":" ","HOUSE_NO":"６９號四樓","E_COORD97":177843.69,"N_COORD97":2541017.04,"ADDRESS":"和平北街６９號四樓","OBJECTID":637439},"geometry":{"x":177843.69000000041,"y":2541017.040000001}},{"attributes":{"ID":637467,"DIS_CODE":0,"TOWNNAME":"歸仁區","LI":"辜厝里","LIN":"18鄰","STREET":"大順一街","SECT":" ","MAREA":" ","LANE":" ","ALLEY":" ","HOUSE_NO":"１號五樓之１","E_COORD97":177458.10999999999,"N_COORD97":2540505.9500000002,"ADDRESS":"大順一街１號五樓之１","OBJECTID":637440},"geometry":{"x":177458.11000000034,"y":2540505.9500000011}},{"attributes":{"ID":637468,"DIS_CODE":0,"TOWNNAME":"歸仁區","LI":"辜厝里","LIN":"18鄰","STREET":"大順一街","SECT":" ","MAREA":" ","LANE":" ","ALLEY":" ","HOUSE_NO":"１號九樓之１","E_COORD97":177458.10999999999,"N_COORD97":2540505.9500000002,"ADDRESS":"大順一街１號九樓之１","OBJECTID":637441},"geometry":{"x":177458.11000000034,"y":2540505.9500000011}},{"attributes":{"ID":637469,"DIS_CODE":0,"TOWNNAME":"歸仁區","LI":"許厝里","LIN":"26鄰","STREET":"信義北路","SECT":" ","MAREA":" ","LANE":" ","ALLEY":" ","HOUSE_NO":"４６號三樓之１","E_COORD97":178001.75,"N_COORD97":2540839.2400000002,"ADDRESS":"信義北路４６號三樓之１","OBJECTID":637442},"geometry":{"x":178001.75000000093,"y":2540839.2400000039}},{"attributes":{"ID":637470,"DIS_CODE":0,"TOWNNAME":"歸仁區","LI":"許厝里","LIN":"26鄰","STREET":"信義北路","SECT":" ","MAREA":" ","LANE":" ","ALLEY":" ","HOUSE_NO":"４６號七樓之１","E_COORD97":178001.75,"N_COORD97":2540839.2400000002,"ADDRESS":"信義北路４６號七樓之１","OBJECTID":637443},"geometry":{"x":178001.75000000093,"y":2540839.2400000039}},{"attributes":{"ID":637471,"DIS_CODE":0,"TOWNNAME":"歸仁區","LI":"辜厝里","LIN":"7鄰","STREET":"大順二街","SECT":" ","MAREA":" ","LANE":" ","ALLEY":" ","HOUSE_NO":"９號五樓之５","E_COORD97":177486.32999999999,"N_COORD97":2540577.6000000001,"ADDRESS":"大順二街９號五樓之５","OBJECTID":637444},"geometry":{"x":177486.33000000101,"y":2540577.5999999996}},{"attributes":{"ID":637472,"DIS_CODE":0,"TOWNNAME":"歸仁區","LI":"辜厝里","LIN":"7鄰","STREET":"大順二街","SECT":" ","MAREA":" ","LANE":" ","ALLEY":" ","HOUSE_NO":"９號七樓之２","E_COORD97":177486.32999999999,"N_COORD97":2540577.6000000001,"ADDRESS":"大順二街９號七樓之２","OBJECTID":637445},"geometry":{"x":177486.33000000101,"y":2540577.5999999996}},{"attributes":{"ID":637473,"DIS_CODE":0,"TOWNNAME":"歸仁區","LI":"辜厝里","LIN":"18鄰","STREET":"大順一街","SECT":" ","MAREA":" ","LANE":" ","ALLEY":" ","HOUSE_NO":"１號三樓之２","E_COORD97":177458.13,"N_COORD97":2540505.9500000002,"ADDRESS":"大順一街１號三樓之２","OBJECTID":637446},"geometry":{"x":177458.13000000082,"y":2540505.9500000011}},{"attributes":{"ID":637474,"DIS_CODE":0,"TOWNNAME":"歸仁區","LI":"許厝里","LIN":"20鄰","STREET":"仁愛北街","SECT":" ","MAREA":" ","LANE":" ","ALLEY":" ","HOUSE_NO":"７４號六樓","E_COORD97":178300.42999999999,"N_COORD97":2540875.25,"ADDRESS":"仁愛北街７４號六樓","OBJECTID":637447},"geometry":{"x":178300.43000000063,"y":2540875.25}},{"attributes":{"ID":637475,"DIS_CODE":0,"TOWNNAME":"歸仁區","LI":"許厝里","LIN":"20鄰","STREET":"忠孝北路","SECT":" ","MAREA":" ","LANE":" ","ALLEY":" ","HOUSE_NO":"９３號八樓","E_COORD97":178330.42000000001,"N_COORD97":2540884.25,"ADDRESS":"忠孝北路９３號八樓","OBJECTID":637448},"geometry":{"x":178330.41999999993,"y":2540884.2500000019}},{"attributes":{"ID":637476,"DIS_CODE":0,"TOWNNAME":"歸仁區","LI":"許厝里","LIN":"26鄰","STREET":"信義北路","SECT":" ","MAREA":" ","LANE":" ","ALLEY":" ","HOUSE_NO":"４６號四樓之１","E_COORD97":178001.75,"N_COORD97":2540839.2400000002,"ADDRESS":"信義北路４６號四樓之１","OBJECTID":637449},"geometry":{"x":178001.75000000093,"y":2540839.2400000039}},{"attributes":{"ID":637477,"DIS_CODE":0,"TOWNNAME":"歸仁區","LI":"許厝里","LIN":"26鄰","STREET":"信義北路","SECT":" ","MAREA":" ","LANE":" ","ALLEY":" ","HOUSE_NO":"４６號六樓之１","E_COORD97":178001.75,"N_COORD97":2540839.2400000002,"ADDRESS":"信義北路４６號六樓之１","OBJECTID":637450},"geometry":{"x":178001.75000000093,"y":2540839.2400000039}},{"attributes":{"ID":637478,"DIS_CODE":0,"TOWNNAME":"歸仁區","LI":"許厝里","LIN":"26鄰","STREET":"信義北路","SECT":" ","MAREA":" ","LANE":" ","ALLEY":" ","HOUSE_NO":"４６號五樓之２","E_COORD97":178001.78,"N_COORD97":2540839.2400000002,"ADDRESS":"信義北路４６號五樓之２","OBJECTID":637451},"geometry":{"x":178001.78000000119,"y":2540839.2400000039}},{"attributes":{"ID":637479,"DIS_CODE":0,"TOWNNAME":"歸仁區","LI":"後市里","LIN":"42鄰","STREET":"國光街","SECT":" ","MAREA":" ","LANE":" ","ALLEY":" ","HOUSE_NO":"８號五樓","E_COORD97":177021.73000000001,"N_COORD97":2540944.75,"ADDRESS":"國光街８號五樓","OBJECTID":637452},"geometry":{"x":177021.73000000045,"y":2540944.7500000019}},{"attributes":{"ID":637480,"DIS_CODE":0,"TOWNNAME":"歸仁區","LI":"辜厝里","LIN":"24鄰","STREET":"大順街","SECT":" ","MAREA":" ","LANE":" ","ALLEY":" ","HOUSE_NO":"４９號七樓之１","E_COORD97":177399.91,"N_COORD97":2540595.1600000001,"ADDRESS":"大順街４９號七樓之１","OBJECTID":637453},"geometry":{"x":177399.91000000015,"y":2540595.1600000001}},{"attributes":{"ID":637481,"DIS_CODE":0,"TOWNNAME":"歸仁區","LI":"許厝里","LIN":"17鄰","STREET":"忠孝北路","SECT":" ","MAREA":" ","LANE":" ","ALLEY":" ","HOUSE_NO":"１５號三樓","E_COORD97":178435.01999999999,"N_COORD97":2540716.25,"ADDRESS":"忠孝北路１５號三樓","OBJECTID":637454},"geometry":{"x":178435.02000000048,"y":2540716.25}},{"attributes":{"ID":637482,"DIS_CODE":0,"TOWNNAME":"歸仁區","LI":"許厝里","LIN":"17鄰","STREET":"忠孝北路","SECT":" ","MAREA":" ","LANE":" ","ALLEY":" ","HOUSE_NO":"２１號二樓","E_COORD97":178444.22,"N_COORD97":2540724.25,"ADDRESS":"忠孝北路２１號二樓","OBJECTID":637455},"geometry":{"x":178444.22000000067,"y":2540724.2500000019}},{"attributes":{"ID":637483,"DIS_CODE":0,"TOWNNAME":"歸仁區","LI":"辜厝里","LIN":"16鄰","STREET":"大順街","SECT":" ","MAREA":" ","LANE":" ","ALLEY":" ","HOUSE_NO":"１號三樓之２","E_COORD97":177457.88,"N_COORD97":2540505.9500000002,"ADDRESS":"大順街１號三樓之２","OBJECTID":637456},"geometry":{"x":177457.88000000175,"y":2540505.9500000011}},{"attributes":{"ID":637484,"DIS_CODE":0,"TOWNNAME":"歸仁區","LI":"辜厝里","LIN":"25鄰","STREET":"大順街","SECT":" ","MAREA":" ","LANE":" ","ALLEY":" ","HOUSE_NO":"５９號四樓之１","E_COORD97":177374.31,"N_COORD97":2540596.1600000001,"ADDRESS":"大順街５９號四樓之１","OBJECTID":637457},"geometry":{"x":177374.30999999959,"y":2540596.160000002}},{"attributes":{"ID":637485,"DIS_CODE":0,"TOWNNAME":"歸仁區","LI":"文化里","LIN":"24鄰","STREET":"大德路","SECT":" ","MAREA":" ","LANE":" ","ALLEY":" ","HOUSE_NO":"２５３號八樓之２","E_COORD97":177107.92000000001,"N_COORD97":2541521.3399999999,"ADDRESS":"大德路２５３號八樓之２","OBJECTID":637458},"geometry":{"x":177107.91999999993,"y":2541521.3400000017}},{"attributes":{"ID":637486,"DIS_CODE":0,"TOWNNAME":"歸仁區","LI":"辜厝里","LIN":"25鄰","STREET":"大順街","SECT":" ","MAREA":" ","LANE":" ","ALLEY":" ","HOUSE_NO":"５９號三樓之２","E_COORD97":177374.32999999999,"N_COORD97":2540596.1600000001,"ADDRESS":"大順街５９號三樓之２","OBJECTID":637459},"geometry":{"x":177374.33000000101,"y":2540596.160000002}},{"attributes":{"ID":637487,"DIS_CODE":0,"TOWNNAME":"歸仁區","LI":"辜厝里","LIN":"25鄰","STREET":"大順街","SECT":" ","MAREA":" ","LANE":" ","ALLEY":" ","HOUSE_NO":"５９號五樓之１","E_COORD97":177374.31,"N_COORD97":2540596.1600000001,"ADDRESS":"大順街５９號五樓之１","OBJECTID":637460},"geometry":{"x":177374.30999999959,"y":2540596.160000002}},{"attributes":{"ID":637488,"DIS_CODE":0,"TOWNNAME":"歸仁區","LI":"辜厝里","LIN":"25鄰","STREET":"大順街","SECT":" ","MAREA":" ","LANE":" ","ALLEY":" ","HOUSE_NO":"５９號七樓之１","E_COORD97":177374.31,"N_COORD97":2540596.1600000001,"ADDRESS":"大順街５９號七樓之１","OBJECTID":637461},"geometry":{"x":177374.30999999959,"y":2540596.160000002}},{"attributes":{"ID":637489,"DIS_CODE":0,"TOWNNAME":"歸仁區","LI":"辜厝里","LIN":"25鄰","STREET":"大順街","SECT":" ","MAREA":" ","LANE":" ","ALLEY":" ","HOUSE_NO":"５９號六樓之２","E_COORD97":177374.32999999999,"N_COORD97":2540596.1600000001,"ADDRESS":"大順街５９號六樓之２","OBJECTID":637462},"geometry":{"x":177374.33000000101,"y":2540596.160000002}},{"attributes":{"ID":637490,"DIS_CODE":0,"TOWNNAME":"歸仁區","LI":"辜厝里","LIN":"24鄰","STREET":"大順街","SECT":" ","MAREA":" ","LANE":" ","ALLEY":" ","HOUSE_NO":"４９號三樓之３","E_COORD97":177399.92999999999,"N_COORD97":2540595.1600000001,"ADDRESS":"大順街４９號三樓之３","OBJECTID":637463},"geometry":{"x":177399.93000000063,"y":2540595.1600000001}},{"attributes":{"ID":637491,"DIS_CODE":0,"TOWNNAME":"歸仁區","LI":"文化里","LIN":"24鄰","STREET":"大德路","SECT":" ","MAREA":" ","LANE":" ","ALLEY":" ","HOUSE_NO":"２５３號十二樓之８","E_COORD97":177108.17999999999,"N_COORD97":2541521.3399999999,"ADDRESS":"大德路２５３號十二樓之８","OBJECTID":637464},"geometry":{"x":177108.18000000156,"y":2541521.3400000017}},{"attributes":{"ID":637492,"DIS_CODE":0,"TOWNNAME":"歸仁區","LI":"許厝里","LIN":"20鄰","STREET":"忠孝北路","SECT":" ","MAREA":" ","LANE":" ","ALLEY":" ","HOUSE_NO":"９７號六樓","E_COORD97":178325.32000000001,"N_COORD97":2540891.25,"ADDRESS":"忠孝北路９７號六樓","OBJECTID":637465},"geometry":{"x":178325.32000000123,"y":2540891.2500000019}},{"attributes":{"ID":637493,"DIS_CODE":0,"TOWNNAME":"新營區","LI":"新南里","LIN":" ","STREET":"明清街","SECT":" ","MAREA":" ","LANE":" ","ALLEY":" ","HOUSE_NO":"４６號二樓之８","E_COORD97":178260.35000000001,"N_COORD97":2578706.25,"ADDRESS":"明清街４６號二樓之８","OBJECTID":637466},"geometry":{"x":178260.35000000056,"y":2578706.2500000037}},{"attributes":{"ID":637494,"DIS_CODE":0,"TOWNNAME":"新營區","LI":"民生里","LIN":" ","STREET":"進修街","SECT":" ","MAREA":" ","LANE":" ","ALLEY":" ","HOUSE_NO":"５９號五樓之５","E_COORD97":178985.82999999999,"N_COORD97":2578561.0099999998,"ADDRESS":"進修街５９號五樓之５","OBJECTID":637467},"geometry":{"x":178985.83000000194,"y":2578561.0099999998}},{"attributes":{"ID":637495,"DIS_CODE":0,"TOWNNAME":"新營區","LI":"忠政里","LIN":"4鄰","STREET":"中正路","SECT":" ","MAREA":" ","LANE":" ","ALLEY":" ","HOUSE_NO":"３７號之３三樓","E_COORD97":180090.59,"N_COORD97":2579169.2799999998,"ADDRESS":"中正路３７號之３三樓","OBJECTID":637468},"geometry":{"x":180090.58999999985,"y":2579169.2799999993}},{"attributes":{"ID":637496,"DIS_CODE":0,"TOWNNAME":"新營區","LI":"忠政里","LIN":"4鄰","STREET":"中正路","SECT":" ","MAREA":" ","LANE":" ","ALLEY":" ","HOUSE_NO":"３７之１號三樓","E_COORD97":180094.59,"N_COORD97":2579149.3300000001,"ADDRESS":"中正路３７之１號三樓","OBJECTID":637469},"geometry":{"x":180094.59000000078,"y":2579149.3300000001}},{"attributes":{"ID":637497,"DIS_CODE":0,"TOWNNAME":"新營區","LI":"忠政里","LIN":"4鄰","STREET":"中正路","SECT":" ","MAREA":" ","LANE":" ","ALLEY":" ","HOUSE_NO":"３７之２號二樓","E_COORD97":180093.60999999999,"N_COORD97":2579158.1899999999,"ADDRESS":"中正路３７之２號二樓","OBJECTID":637470},"geometry":{"x":180093.61000000127,"y":2579158.1900000013}},{"attributes":{"ID":637498,"DIS_CODE":0,"TOWNNAME":"新營區","LI":"忠政里","LIN":"4鄰","STREET":"中正路","SECT":" ","MAREA":" ","LANE":" ","ALLEY":" ","HOUSE_NO":"３７號之３四樓","E_COORD97":180090.59,"N_COORD97":2579169.2799999998,"ADDRESS":"中正路３７號之３四樓","OBJECTID":637471},"geometry":{"x":180090.58999999985,"y":2579169.2799999993}},{"attributes":{"ID":637499,"DIS_CODE":0,"TOWNNAME":"新營區","LI":"忠政里","LIN":" ","STREET":"中正路","SECT":" ","MAREA":" ","LANE":" ","ALLEY":" ","HOUSE_NO":"３７之２號３樓","E_COORD97":180093.60999999999,"N_COORD97":2579158.1899999999,"ADDRESS":"中正路３７之２號３樓","OBJECTID":637472},"geometry":{"x":180093.61000000127,"y":2579158.1900000013}},{"attributes":{"ID":637500,"DIS_CODE":0,"TOWNNAME":"新營區","LI":"忠政里","LIN":" ","STREET":"中正路","SECT":" ","MAREA":" ","LANE":" ","ALLEY":" ","HOUSE_NO":"５３之５號二樓之","E_COORD97":180049.25,"N_COORD97":2579486.21,"ADDRESS":"中正路５３之５號二樓之","OBJECTID":637473},"geometry":{"x":180049.25000000186,"y":2579486.2100000009}},{"attributes":{"ID":637501,"DIS_CODE":0,"TOWNNAME":"新營區","LI":"三仙里","LIN":"24鄰","STREET":"三興街","SECT":" ","MAREA":" ","LANE":" ","ALLEY":" ","HOUSE_NO":"５２之２號五樓之３","E_COORD97":179451.97,"N_COORD97":2578890.6899999999,"ADDRESS":"三興街５２之２號五樓之３","OBJECTID":637474},"geometry":{"x":179451.96999999974,"y":2578890.6900000013}},{"attributes":{"ID":637502,"DIS_CODE":0,"TOWNNAME":"新營區","LI":"大宏里","LIN":"27鄰","STREET":"綠川路","SECT":" ","MAREA":" ","LANE":" ","ALLEY":" ","HOUSE_NO":"８號二樓","E_COORD97":180906.67999999999,"N_COORD97":2578856.4100000001,"ADDRESS":"綠川路８號二樓","OBJECTID":637475},"geometry":{"x":180906.6799999997,"y":2578856.4100000001}},{"attributes":{"ID":637503,"DIS_CODE":0,"TOWNNAME":"仁德區","LI":"仁德里","LIN":"4鄰","STREET":"仁中二街","SECT":" ","MAREA":" ","LANE":" ","ALLEY":" ","HOUSE_NO":"１８號","E_COORD97":173320.48000000001,"N_COORD97":2540561.9900000002,"ADDRESS":"仁中二街１８號","OBJECTID":637476},"geometry":{"x":173320.48000000138,"y":2540561.9900000002}},{"attributes":{"ID":637504,"DIS_CODE":0,"TOWNNAME":"永康區","LI":"北灣里","LIN":"5鄰","STREET":"大灣路","SECT":" ","MAREA":" ","LANE":" ","ALLEY":" ","HOUSE_NO":"１０５號","E_COORD97":175153.70000000001,"N_COORD97":2545586.21,"ADDRESS":"大灣路１０５號","OBJECTID":637477},"geometry":{"x":175153.70000000019,"y":2545586.2100000009}},{"attributes":{"ID":637505,"DIS_CODE":0,"TOWNNAME":"永康區","LI":"永康里","LIN":"38鄰","STREET":"大同街","SECT":" ","MAREA":" ","LANE":" ","ALLEY":" ","HOUSE_NO":"７２３號","E_COORD97":174506.66,"N_COORD97":2546709.25,"ADDRESS":"大同街７２３號","OBJECTID":637478},"geometry":{"x":174506.66000000201,"y":2546709.2500000019}},{"attributes":{"ID":637506,"DIS_CODE":0,"TOWNNAME":"東區","LI":"崇德里","LIN":"25鄰","STREET":"崇道路","SECT":" ","MAREA":" ","LANE":" ","ALLEY":" ","HOUSE_NO":"１３號","E_COORD97":170625.73999999999,"N_COORD97":2541419.6099999999,"ADDRESS":"崇道路１３號","OBJECTID":637479},"geometry":{"x":170625.73999999929,"y":2541419.6100000013}},{"attributes":{"ID":637507,"DIS_CODE":0,"TOWNNAME":"永康區","LI":"永康里","LIN":"26鄰","STREET":"永大路","SECT":"二段","MAREA":" ","LANE":" ","ALLEY":" ","HOUSE_NO":"１１２９號五樓之７","E_COORD97":174198.51999999999,"N_COORD97":2547482.3599999999,"ADDRESS":"永大路二段１１２９號五樓之７","OBJECTID":637480},"geometry":{"x":174198.52000000142,"y":2547482.3599999994}},{"attributes":{"ID":637508,"DIS_CODE":0,"TOWNNAME":"永康區","LI":"正強里","LIN":"26鄰","STREET":"正強街","SECT":" ","MAREA":" ","LANE":" ","ALLEY":" ","HOUSE_NO":"２６５號","E_COORD97":173275.10999999999,"N_COORD97":2547862.7599999998,"ADDRESS":"正強街２６５號","OBJECTID":637481},"geometry":{"x":173275.11000000127,"y":2547862.7599999998}},{"attributes":{"ID":637509,"DIS_CODE":0,"TOWNNAME":"永康區","LI":"正強里","LIN":"39鄰","STREET":"正強街","SECT":" ","MAREA":" ","LANE":" ","ALLEY":" ","HOUSE_NO":"２７３號","E_COORD97":173263.20000000001,"N_COORD97":2547935.9900000002,"ADDRESS":"正強街２７３號","OBJECTID":637482},"geometry":{"x":173263.20000000019,"y":2547935.9900000002}},{"attributes":{"ID":637510,"DIS_CODE":0,"TOWNNAME":"永康區","LI":"正強里","LIN":"41鄰","STREET":"正強街","SECT":" ","MAREA":" ","LANE":" ","ALLEY":" ","HOUSE_NO":"２９８號九樓之１","E_COORD97":173292.17000000001,"N_COORD97":2547971.0499999998,"ADDRESS":"正強街２９８號九樓之１","OBJECTID":637483},"geometry":{"x":173292.16999999993,"y":2547971.0500000045}},{"attributes":{"ID":637511,"DIS_CODE":0,"TOWNNAME":"永康區","LI":"永康里","LIN":"24鄰","STREET":"永正路","SECT":" ","MAREA":" ","LANE":" ","ALLEY":" ","HOUSE_NO":"２９號","E_COORD97":173557.84,"N_COORD97":2547330.2400000002,"ADDRESS":"永正路２９號","OBJECTID":637484},"geometry":{"x":173557.84000000078,"y":2547330.2400000002}},{"attributes":{"ID":637512,"DIS_CODE":0,"TOWNNAME":"永康區","LI":"永康里","LIN":"39鄰","STREET":"永大一路","SECT":" ","MAREA":" ","LANE":" ","ALLEY":" ","HOUSE_NO":"４號","E_COORD97":174365.64999999999,"N_COORD97":2546507.5499999998,"ADDRESS":"永大一路４號","OBJECTID":637485},"geometry":{"x":174365.65000000037,"y":2546507.5500000026}},{"attributes":{"ID":637513,"DIS_CODE":0,"TOWNNAME":"永康區","LI":"永康里","LIN":"42鄰","STREET":"永大五路","SECT":" ","MAREA":" ","LANE":" ","ALLEY":" ","HOUSE_NO":"１３７號","E_COORD97":174093,"N_COORD97":2546633.1299999999,"ADDRESS":"永大五路１３７號","OBJECTID":637486},"geometry":{"x":174093.00000000093,"y":2546633.1300000008}},{"attributes":{"ID":637514,"DIS_CODE":0,"TOWNNAME":"永康區","LI":"正強里","LIN":"13鄰","STREET":"正強街","SECT":" ","MAREA":" ","LANE":" ","ALLEY":" ","HOUSE_NO":"１１５號","E_COORD97":173324.03,"N_COORD97":2547426.5600000001,"ADDRESS":"正強街１１５號","OBJECTID":637487},"geometry":{"x":173324.03000000026,"y":2547426.5600000024}},{"attributes":{"ID":637515,"DIS_CODE":0,"TOWNNAME":"永康區","LI":"永康里","LIN":"32鄰","STREET":"永大路","SECT":"二段","MAREA":" ","LANE":" ","ALLEY":" ","HOUSE_NO":"１５９８號","E_COORD97":174250.84,"N_COORD97":2547355.9300000002,"ADDRESS":"永大路二段１５９８號","OBJECTID":637488},"geometry":{"x":174250.84000000171,"y":2547355.9299999997}},{"attributes":{"ID":637516,"DIS_CODE":0,"TOWNNAME":"永康區","LI":"永康里","LIN":"4鄰","STREET":"中山北路","SECT":" ","MAREA":" ","LANE":" ","ALLEY":" ","HOUSE_NO":"３２號","E_COORD97":173953.25,"N_COORD97":2547357.2599999998,"ADDRESS":"中山北路３２號","OBJECTID":637489},"geometry":{"x":173953.25000000186,"y":2547357.2599999998}},{"attributes":{"ID":637517,"DIS_CODE":0,"TOWNNAME":"永康區","LI":"北灣里","LIN":"4鄰","STREET":"信義街","SECT":" ","MAREA":" ","LANE":" ","ALLEY":" ","HOUSE_NO":"１２５號","E_COORD97":175200.17000000001,"N_COORD97":2545630.4500000002,"ADDRESS":"信義街１２５號","OBJECTID":637490},"geometry":{"x":175200.17000000086,"y":2545630.4499999993}},{"attributes":{"ID":637518,"DIS_CODE":0,"TOWNNAME":"永康區","LI":"永康里","LIN":"5鄰","STREET":"中山北路","SECT":" ","MAREA":" ","LANE":" ","ALLEY":" ","HOUSE_NO":"１２號","E_COORD97":173905.07000000001,"N_COORD97":2547350.5,"ADDRESS":"中山北路１２號","OBJECTID":637491},"geometry":{"x":173905.0700000003,"y":2547350.5000000019}},{"attributes":{"ID":637519,"DIS_CODE":0,"TOWNNAME":"永康區","LI":"永康里","LIN":"24鄰","STREET":"永正路","SECT":" ","MAREA":" ","LANE":" ","ALLEY":" ","HOUSE_NO":"１５號","E_COORD97":173563.44,"N_COORD97":2547302.1499999999,"ADDRESS":"永正路１５號","OBJECTID":637492},"geometry":{"x":173563.44000000041,"y":2547302.1500000041}},{"attributes":{"ID":637520,"DIS_CODE":0,"TOWNNAME":"永康區","LI":"永康里","LIN":"4鄰","STREET":"中山北路","SECT":" ","MAREA":" ","LANE":" ","ALLEY":" ","HOUSE_NO":"３８號","E_COORD97":173967.53,"N_COORD97":2547360.0099999998,"ADDRESS":"中山北路３８號","OBJECTID":637493},"geometry":{"x":173967.53000000119,"y":2547360.0100000035}},{"attributes":{"ID":637521,"DIS_CODE":0,"TOWNNAME":"永康區","LI":"永康里","LIN":"25鄰","STREET":"永大路","SECT":"三段","MAREA":" ","LANE":" ","ALLEY":" ","HOUSE_NO":"１８號","E_COORD97":174228.29999999999,"N_COORD97":2547545.71,"ADDRESS":"永大路三段１８號","OBJECTID":637494},"geometry":{"x":174228.29999999981,"y":2547545.7100000009}},{"attributes":{"ID":637522,"DIS_CODE":0,"TOWNNAME":"永康區","LI":"永康里","LIN":"39鄰","STREET":"永大路","SECT":"二段","MAREA":" ","LANE":" ","ALLEY":" ","HOUSE_NO":"６８５號","E_COORD97":174372.42000000001,"N_COORD97":2546562.02,"ADDRESS":"永大路二段６８５號","OBJECTID":637495},"geometry":{"x":174372.42000000179,"y":2546562.0199999996}},{"attributes":{"ID":637523,"DIS_CODE":0,"TOWNNAME":"永康區","LI":"北灣里","LIN":"39鄰","STREET":"永大路","SECT":"二段","MAREA":" ","LANE":" ","ALLEY":" ","HOUSE_NO":"９６０號","E_COORD97":174480.37,"N_COORD97":2546312.3100000001,"ADDRESS":"永大路二段９６０號","OBJECTID":637496},"geometry":{"x":174480.37000000104,"y":2546312.3100000024}},{"attributes":{"ID":637524,"DIS_CODE":0,"TOWNNAME":"永康區","LI":"永康里","LIN":"32鄰","STREET":"永大路","SECT":"二段","MAREA":" ","LANE":" ","ALLEY":" ","HOUSE_NO":"１５２８號","E_COORD97":174262.09,"N_COORD97":2547261.5600000001,"ADDRESS":"永大路二段１５２８號","OBJECTID":637497},"geometry":{"x":174262.08999999985,"y":2547261.5600000005}},{"attributes":{"ID":637525,"DIS_CODE":0,"TOWNNAME":"永康區","LI":"永康里","LIN":"42鄰","STREET":"永大五路","SECT":" ","MAREA":" ","LANE":" ","ALLEY":" ","HOUSE_NO":"１７５號","E_COORD97":174076.01999999999,"N_COORD97":2546551.1200000001,"ADDRESS":"永大五路１７５號","OBJECTID":637498},"geometry":{"x":174076.01999999955,"y":2546551.1200000029}},{"attributes":{"ID":637526,"DIS_CODE":0,"TOWNNAME":"永康區","LI":"正強里","LIN":"13鄰","STREET":"正強街","SECT":" ","MAREA":" ","LANE":" ","ALLEY":" ","HOUSE_NO":"１３９號","E_COORD97":173317.44,"N_COORD97":2547486.6699999999,"ADDRESS":"正強街１３９號","OBJECTID":637499},"geometry":{"x":173317.44000000134,"y":2547486.6699999999}},{"attributes":{"ID":637527,"DIS_CODE":0,"TOWNNAME":"永康區","LI":"永康里","LIN":"4鄰","STREET":"中山北路","SECT":" ","MAREA":" ","LANE":" ","ALLEY":" ","HOUSE_NO":"４４號","E_COORD97":173983.76999999999,"N_COORD97":2547363.5,"ADDRESS":"中山北路４４號","OBJECTID":637500},"geometry":{"x":173983.77000000048,"y":2547363.4999999981}},{"attributes":{"ID":637528,"DIS_CODE":0,"TOWNNAME":"永康區","LI":"北灣里","LIN":"4鄰","STREET":"信義街","SECT":" ","MAREA":" ","LANE":" ","ALLEY":" ","HOUSE_NO":"９６號","E_COORD97":175271.66,"N_COORD97":2545655.8700000001,"ADDRESS":"信義街９６號","OBJECTID":637501},"geometry":{"x":175271.66000000108,"y":2545655.870000001}},{"attributes":{"ID":637529,"DIS_CODE":0,"TOWNNAME":"永康區","LI":"永康里","LIN":"26鄰","STREET":"永大路","SECT":"二段","MAREA":" ","LANE":" ","ALLEY":" ","HOUSE_NO":"１１２９號地下一層之","E_COORD97":174202.23999999999,"N_COORD97":2547482.3599999999,"ADDRESS":"永大路二段１１２９號地下一層之１０","OBJECTID":637502},"geometry":{"x":174202.24000000022,"y":2547482.3599999994}},{"attributes":{"ID":637530,"DIS_CODE":0,"TOWNNAME":"永康區","LI":"永康里","LIN":"42鄰","STREET":"永大五路","SECT":" ","MAREA":" ","LANE":" ","ALLEY":" ","HOUSE_NO":"１６３號","E_COORD97":174071.84,"N_COORD97":2546582.8700000001,"ADDRESS":"永大五路１６３號","OBJECTID":637503},"geometry":{"x":174071.84000000078,"y":2546582.8700000029}},{"attributes":{"ID":637531,"DIS_CODE":0,"TOWNNAME":"永康區","LI":"北灣里","LIN":"4鄰","STREET":"信義街","SECT":" ","MAREA":" ","LANE":" ","ALLEY":" ","HOUSE_NO":"１３３號","E_COORD97":175182.60000000001,"N_COORD97":2545628.4100000001,"ADDRESS":"信義街１３３號","OBJECTID":637504},"geometry":{"x":175182.59999999963,"y":2545628.4099999983}},{"attributes":{"ID":637532,"DIS_CODE":0,"TOWNNAME":"永康區","LI":"北灣里","LIN":"39鄰","STREET":"永大路","SECT":"二段","MAREA":" ","LANE":" ","ALLEY":" ","HOUSE_NO":"９５８號","E_COORD97":174487.25,"N_COORD97":2546306.5600000001,"ADDRESS":"永大路二段９５８號","OBJECTID":637505},"geometry":{"x":174487.25000000186,"y":2546306.5600000024}},{"attributes":{"ID":637533,"DIS_CODE":0,"TOWNNAME":"永康區","LI":"永康里","LIN":"32鄰","STREET":"永大路","SECT":"二段","MAREA":" ","LANE":" ","ALLEY":" ","HOUSE_NO":"１５６０號","E_COORD97":174248.73000000001,"N_COORD97":2547382.1699999999,"ADDRESS":"永大路二段１５６０號","OBJECTID":637506},"geometry":{"x":174248.73000000231,"y":2547382.1699999999}},{"attributes":{"ID":637534,"DIS_CODE":0,"TOWNNAME":"永康區","LI":"永康里","LIN":"42鄰","STREET":"永大五路","SECT":" ","MAREA":" ","LANE":" ","ALLEY":" ","HOUSE_NO":"１６１號","E_COORD97":174073.38,"N_COORD97":2546586.3700000001,"ADDRESS":"永大五路１６１號","OBJECTID":637507},"geometry":{"x":174073.38000000082,"y":2546586.3700000029}},{"attributes":{"ID":637535,"DIS_CODE":0,"TOWNNAME":"永康區","LI":"北灣里","LIN":"13鄰","STREET":"文賢街","SECT":" ","MAREA":" ","LANE":" ","ALLEY":" ","HOUSE_NO":"３１３號","E_COORD97":175116.98000000001,"N_COORD97":2545820.8999999999,"ADDRESS":"文賢街３１３號","OBJECTID":637508},"geometry":{"x":175116.98000000138,"y":2545820.9000000004}},{"attributes":{"ID":637536,"DIS_CODE":0,"TOWNNAME":"永康區","LI":"北灣里","LIN":"25鄰","STREET":"大灣路","SECT":" ","MAREA":" ","LANE":" ","ALLEY":" ","HOUSE_NO":"１４９號","E_COORD97":175070.81,"N_COORD97":2545458.8300000001,"ADDRESS":"大灣路１４９號","OBJECTID":637509},"geometry":{"x":175070.80999999959,"y":2545458.8300000001}},{"attributes":{"ID":637537,"DIS_CODE":0,"TOWNNAME":"永康區","LI":"北灣里","LIN":"4鄰","STREET":"信義街","SECT":" ","MAREA":" ","LANE":" ","ALLEY":" ","HOUSE_NO":"１０３號","E_COORD97":175237.94,"N_COORD97":2545636.5,"ADDRESS":"信義街１０３號","OBJECTID":637510},"geometry":{"x":175237.94000000134,"y":2545636.5}},{"attributes":{"ID":637538,"DIS_CODE":0,"TOWNNAME":"永康區","LI":"北灣里","LIN":"4鄰","STREET":"信義街","SECT":" ","MAREA":" ","LANE":" ","ALLEY":" ","HOUSE_NO":"１２７號","E_COORD97":175194.69,"N_COORD97":2545629.9500000002,"ADDRESS":"信義街１２７號","OBJECTID":637511},"geometry":{"x":175194.69000000041,"y":2545629.9499999993}},{"attributes":{"ID":637539,"DIS_CODE":0,"TOWNNAME":"永康區","LI":"永康里","LIN":"38鄰","STREET":"大同街","SECT":" ","MAREA":" ","LANE":" ","ALLEY":" ","HOUSE_NO":"７２１號","E_COORD97":174507.81,"N_COORD97":2546704,"ADDRESS":"大同街７２１號","OBJECTID":637512},"geometry":{"x":174507.80999999959,"y":2546704.0000000019}},{"attributes":{"ID":637540,"DIS_CODE":0,"TOWNNAME":"下營區","LI":"營前里","LIN":"25鄰","STREET":"仁愛街","SECT":" ","MAREA":" ","LANE":" ","ALLEY":" ","HOUSE_NO":"３０號","E_COORD97":174795.79999999999,"N_COORD97":2570066.71,"ADDRESS":"仁愛街３０號","OBJECTID":637513},"geometry":{"x":174795.80000000075,"y":2570066.7100000028}},{"attributes":{"ID":637541,"DIS_CODE":0,"TOWNNAME":"永康區","LI":"永康里","LIN":"4鄰","STREET":"中山北路","SECT":" ","MAREA":" ","LANE":" ","ALLEY":" ","HOUSE_NO":"２４號","E_COORD97":173932.84,"N_COORD97":2547353.5099999998,"ADDRESS":"中山北路２４號","OBJECTID":637514},"geometry":{"x":173932.84000000078,"y":2547353.5100000035}},{"attributes":{"ID":637542,"DIS_CODE":0,"TOWNNAME":"永康區","LI":"北灣里","LIN":"5鄰","STREET":"大灣路","SECT":" ","MAREA":" ","LANE":" ","ALLEY":" ","HOUSE_NO":"１０９號","E_COORD97":175160.26000000001,"N_COORD97":2545569.5099999998,"ADDRESS":"大灣路１０９號","OBJECTID":637515},"geometry":{"x":175160.26000000071,"y":2545569.5099999998}},{"attributes":{"ID":637543,"DIS_CODE":0,"TOWNNAME":"永康區","LI":"永康里","LIN":"42鄰","STREET":"永大五路","SECT":" ","MAREA":" ","LANE":" ","ALLEY":" ","HOUSE_NO":"１４７號","E_COORD97":174084.75,"N_COORD97":2546613.6299999999,"ADDRESS":"永大五路１４７號","OBJECTID":637516},"geometry":{"x":174084.75,"y":2546613.6300000008}},{"attributes":{"ID":637544,"DIS_CODE":0,"TOWNNAME":"永康區","LI":"正強里","LIN":"4鄰","STREET":"正義街","SECT":" ","MAREA":" ","LANE":" ","ALLEY":" ","HOUSE_NO":"３３號","E_COORD97":173594.17999999999,"N_COORD97":2547674.3100000001,"ADDRESS":"正義街３３號","OBJECTID":637517},"geometry":{"x":173594.18000000063,"y":2547674.3100000042}},{"attributes":{"ID":637545,"DIS_CODE":0,"TOWNNAME":"永康區","LI":"北灣里","LIN":"5鄰","STREET":"大灣路","SECT":" ","MAREA":" ","LANE":" ","ALLEY":" ","HOUSE_NO":"１０７號","E_COORD97":175150.62,"N_COORD97":2545574.3199999998,"ADDRESS":"大灣路１０７號","OBJECTID":637518},"geometry":{"x":175150.62000000011,"y":2545574.3200000003}},{"attributes":{"ID":637546,"DIS_CODE":0,"TOWNNAME":"永康區","LI":"正強里","LIN":"25鄰","STREET":"正強街","SECT":" ","MAREA":" ","LANE":" ","ALLEY":" ","HOUSE_NO":"２５６號","E_COORD97":173305.70000000001,"N_COORD97":2547788.98,"ADDRESS":"正強街２５６號","OBJECTID":637519},"geometry":{"x":173305.70000000019,"y":2547788.9800000023}},{"attributes":{"ID":637547,"DIS_CODE":0,"TOWNNAME":"永康區","LI":"正強里","LIN":"39鄰","STREET":"正強街","SECT":" ","MAREA":" ","LANE":" ","ALLEY":" ","HOUSE_NO":"２８３號","E_COORD97":173261.39999999999,"N_COORD97":2547957.7400000002,"ADDRESS":"正強街２８３號","OBJECTID":637520},"geometry":{"x":173261.4000000013,"y":2547957.7400000002}},{"attributes":{"ID":637548,"DIS_CODE":0,"TOWNNAME":"安南區","LI":"安慶里","LIN":"12鄰","STREET":"長溪路","SECT":"一段","MAREA":" ","LANE":" ","ALLEY":" ","HOUSE_NO":"９３號","E_COORD97":169130.22,"N_COORD97":2548384.0899999999,"ADDRESS":"長溪路一段９３號","OBJECTID":637521},"geometry":{"x":169130.21999999881,"y":2548384.0900000017}},{"attributes":{"ID":637549,"DIS_CODE":0,"TOWNNAME":"安南區","LI":"總頭里","LIN":"1鄰","STREET":"長溪路","SECT":"二段","MAREA":" ","LANE":" ","ALLEY":" ","HOUSE_NO":"４３８號","E_COORD97":168312.48999999999,"N_COORD97":2550280.8199999998,"ADDRESS":"長溪路二段４３８號","OBJECTID":637522},"geometry":{"x":168312.49000000115,"y":2550280.8199999984}},{"attributes":{"ID":637550,"DIS_CODE":0,"TOWNNAME":"安南區","LI":"總頭里","LIN":"12鄰","STREET":"長溪路","SECT":"二段","MAREA":" ","LANE":" ","ALLEY":" ","HOUSE_NO":"５１３號","E_COORD97":168239.70999999999,"N_COORD97":2550478.0899999999,"ADDRESS":"長溪路二段５１３號","OBJECTID":637523},"geometry":{"x":168239.71000000089,"y":2550478.0899999999}},{"attributes":{"ID":637551,"DIS_CODE":0,"TOWNNAME":"安南區","LI":"總頭里","LIN":"4鄰","STREET":"長溪路","SECT":"二段","MAREA":" ","LANE":" ","ALLEY":" ","HOUSE_NO":"５５２號","E_COORD97":168270.62,"N_COORD97":2550563.9900000002,"ADDRESS":"長溪路二段５５２號","OBJECTID":637524},"geometry":{"x":168270.62000000104,"y":2550563.9900000002}},{"attributes":{"ID":637552,"DIS_CODE":0,"TOWNNAME":"安南區","LI":"總頭里","LIN":"4鄰","STREET":"長溪路","SECT":"二段","MAREA":" ","LANE":" ","ALLEY":" ","HOUSE_NO":"５５６號","E_COORD97":168267,"N_COORD97":2550572.1099999999,"ADDRESS":"長溪路二段５５６號","OBJECTID":637525},"geometry":{"x":168267,"y":2550572.1099999994}},{"attributes":{"ID":637553,"DIS_CODE":0,"TOWNNAME":"安南區","LI":"總頭里","LIN":"4鄰","STREET":"長溪路","SECT":"二段","MAREA":" ","LANE":" ","ALLEY":" ","HOUSE_NO":"５６０號","E_COORD97":168282.54999999999,"N_COORD97":2550587.6099999999,"ADDRESS":"長溪路二段５６０號","OBJECTID":637526},"geometry":{"x":168282.55000000075,"y":2550587.6100000013}},{"attributes":{"ID":637554,"DIS_CODE":0,"TOWNNAME":"安南區","LI":"總頭里","LIN":"4鄰","STREET":"長溪路","SECT":"二段","MAREA":" ","LANE":" ","ALLEY":" ","HOUSE_NO":"５６２號","E_COORD97":168267.01000000001,"N_COORD97":2550592.8700000001,"ADDRESS":"長溪路二段５６２號","OBJECTID":637527},"geometry":{"x":168267.00999999978,"y":2550592.870000001}},{"attributes":{"ID":637555,"DIS_CODE":0,"TOWNNAME":"安南區","LI":"總頭里","LIN":"4鄰","STREET":"長溪路","SECT":"二段","MAREA":" ","LANE":" ","ALLEY":" ","HOUSE_NO":"５６４號","E_COORD97":168262.94,"N_COORD97":2550588.3599999999,"ADDRESS":"長溪路二段５６４號","OBJECTID":637528},"geometry":{"x":168262.94000000041,"y":2550588.3600000031}},{"attributes":{"ID":637556,"DIS_CODE":0,"TOWNNAME":"安南區","LI":"總頭里","LIN":"4鄰","STREET":"長溪路","SECT":"二段","MAREA":" ","LANE":" ","ALLEY":" ","HOUSE_NO":"５６６號","E_COORD97":168263.39000000001,"N_COORD97":2550598.7400000002,"ADDRESS":"長溪路二段５６６號","OBJECTID":637529},"geometry":{"x":168263.3900000006,"y":2550598.7400000002}},{"attributes":{"ID":637557,"DIS_CODE":0,"TOWNNAME":"安南區","LI":"總頭里","LIN":"4鄰","STREET":"長溪路","SECT":"二段","MAREA":" ","LANE":" ","ALLEY":" ","HOUSE_NO":"５６８號","E_COORD97":168262.03,"N_COORD97":2550603.2599999998,"ADDRESS":"長溪路二段５６８號","OBJECTID":637530},"geometry":{"x":168262.03000000026,"y":2550603.2600000016}},{"attributes":{"ID":637558,"DIS_CODE":0,"TOWNNAME":"安南區","LI":"總頭里","LIN":"4鄰","STREET":"長溪路","SECT":"二段","MAREA":" ","LANE":" ","ALLEY":" ","HOUSE_NO":"５７８號","E_COORD97":168256.60999999999,"N_COORD97":2550632.4300000002,"ADDRESS":"長溪路二段５７８號","OBJECTID":637531},"geometry":{"x":168256.61000000034,"y":2550632.4300000034}},{"attributes":{"ID":637559,"DIS_CODE":0,"TOWNNAME":"安南區","LI":"總頭里","LIN":"4鄰","STREET":"長溪路","SECT":"二段","MAREA":" ","LANE":" ","ALLEY":" ","HOUSE_NO":"５９０號","E_COORD97":168253.44,"N_COORD97":2550664.9300000002,"ADDRESS":"長溪路二段５９０號","OBJECTID":637532},"geometry":{"x":168253.44000000134,"y":2550664.9299999997}},{"attributes":{"ID":637560,"DIS_CODE":0,"TOWNNAME":"安南區","LI":"總頭里","LIN":"4鄰","STREET":"長溪路","SECT":"二段","MAREA":" ","LANE":" ","ALLEY":" ","HOUSE_NO":"５９２號","E_COORD97":168251.63,"N_COORD97":2550669.8900000001,"ADDRESS":"長溪路二段５９２號","OBJECTID":637533},"geometry":{"x":168251.63000000082,"y":2550669.8900000006}},{"attributes":{"ID":637561,"DIS_CODE":0,"TOWNNAME":"安南區","LI":"總頭里","LIN":"4鄰","STREET":"長溪路","SECT":"二段","MAREA":" ","LANE":" ","ALLEY":" ","HOUSE_NO":"５９４號","E_COORD97":168261.13,"N_COORD97":2550680.2799999998,"ADDRESS":"長溪路二段５９４號","OBJECTID":637534},"geometry":{"x":168261.12999999989,"y":2550680.2800000031}},{"attributes":{"ID":637562,"DIS_CODE":0,"TOWNNAME":"安南區","LI":"長安里","LIN":"17鄰","STREET":"長溪路","SECT":"三段","MAREA":" ","LANE":" ","ALLEY":" ","HOUSE_NO":"３３９號","E_COORD97":167715.84,"N_COORD97":2551922.4399999999,"ADDRESS":"長溪路三段３３９號","OBJECTID":637535},"geometry":{"x":167715.84000000171,"y":2551922.4399999995}},{"attributes":{"ID":637563,"DIS_CODE":0,"TOWNNAME":"安南區","LI":"長安里","LIN":"17鄰","STREET":"長溪路","SECT":"三段","MAREA":" ","LANE":" ","ALLEY":" ","HOUSE_NO":"１７３號","E_COORD97":167877.04999999999,"N_COORD97":2551542.0499999998,"ADDRESS":"長溪路三段１７３號","OBJECTID":637536},"geometry":{"x":167877.04999999888,"y":2551542.0500000026}},{"attributes":{"ID":637564,"DIS_CODE":0,"TOWNNAME":"安南區","LI":"長安里","LIN":"17鄰","STREET":"長溪路","SECT":"三段","MAREA":" ","LANE":" ","ALLEY":" ","HOUSE_NO":"１７５號","E_COORD97":167875,"N_COORD97":2551546.04,"ADDRESS":"長溪路三段１７５號","OBJECTID":637537},"geometry":{"x":167875.00000000093,"y":2551546.0399999972}},{"attributes":{"ID":637565,"DIS_CODE":0,"TOWNNAME":"安南區","LI":"長安里","LIN":"17鄰","STREET":"長溪路","SECT":"三段","MAREA":" ","LANE":" ","ALLEY":" ","HOUSE_NO":"１７７號","E_COORD97":167872.76999999999,"N_COORD97":2551550.04,"ADDRESS":"長溪路三段１７７號","OBJECTID":637538},"geometry":{"x":167872.77000000048,"y":2551550.040000001}},{"attributes":{"ID":637566,"DIS_CODE":0,"TOWNNAME":"安南區","LI":"長安里","LIN":"17鄰","STREET":"長溪路","SECT":"三段","MAREA":" ","LANE":" ","ALLEY":" ","HOUSE_NO":"１７９號","E_COORD97":167870.91,"N_COORD97":2551554.1299999999,"ADDRESS":"長溪路三段１７９號","OBJECTID":637539},"geometry":{"x":167870.91000000015,"y":2551554.129999999}},{"attributes":{"ID":637567,"DIS_CODE":0,"TOWNNAME":"安南區","LI":"長安里","LIN":"17鄰","STREET":"長溪路","SECT":"三段","MAREA":" ","LANE":" ","ALLEY":" ","HOUSE_NO":"２１３號","E_COORD97":167818.81,"N_COORD97":2551629.98,"ADDRESS":"長溪路三段２１３號","OBJECTID":637540},"geometry":{"x":167818.80999999959,"y":2551629.9800000023}},{"attributes":{"ID":637568,"DIS_CODE":0,"TOWNNAME":"安南區","LI":"長安里","LIN":"17鄰","STREET":"長溪路","SECT":"三段","MAREA":" ","LANE":" ","ALLEY":" ","HOUSE_NO":"２１５號","E_COORD97":167815.16,"N_COORD97":2551635.48,"ADDRESS":"長溪路三段２１５號","OBJECTID":637541},"geometry":{"x":167815.16000000015,"y":2551635.4800000004}},{"attributes":{"ID":637569,"DIS_CODE":0,"TOWNNAME":"安南區","LI":"長安里","LIN":"17鄰","STREET":"長溪路","SECT":"三段","MAREA":" ","LANE":" ","ALLEY":" ","HOUSE_NO":"２４７號","E_COORD97":167825.39999999999,"N_COORD97":2551673.0699999998,"ADDRESS":"長溪路三段２４７號","OBJECTID":637542},"geometry":{"x":167825.40000000037,"y":2551673.0700000022}},{"attributes":{"ID":637570,"DIS_CODE":0,"TOWNNAME":"安南區","LI":"長安里","LIN":"17鄰","STREET":"長溪路","SECT":"三段","MAREA":" ","LANE":" ","ALLEY":" ","HOUSE_NO":"２７５號","E_COORD97":167767.70999999999,"N_COORD97":2551805.5099999998,"ADDRESS":"長溪路三段２７５號","OBJECTID":637543},"geometry":{"x":167767.71000000183,"y":2551805.5100000016}},{"attributes":{"ID":637571,"DIS_CODE":0,"TOWNNAME":"安南區","LI":"長安里","LIN":"17鄰","STREET":"長溪路","SECT":"三段","MAREA":" ","LANE":" ","ALLEY":" ","HOUSE_NO":"２７７號","E_COORD97":167763.89000000001,"N_COORD97":2551809.73,"ADDRESS":"長溪路三段２７７號","OBJECTID":637544},"geometry":{"x":167763.88999999966,"y":2551809.7300000004}},{"attributes":{"ID":637572,"DIS_CODE":0,"TOWNNAME":"安南區","LI":"總頭里","LIN":"4鄰","STREET":"長溪路","SECT":"二段","MAREA":" ","LANE":" ","ALLEY":" ","HOUSE_NO":"５８６號","E_COORD97":168252.54000000001,"N_COORD97":2550659.0600000001,"ADDRESS":"長溪路二段５８６號","OBJECTID":637545},"geometry":{"x":168252.54000000097,"y":2550659.0600000005}},{"attributes":{"ID":637573,"DIS_CODE":0,"TOWNNAME":"安南區","LI":"長安里","LIN":"17鄰","STREET":"長溪路","SECT":"三段","MAREA":" ","LANE":" ","ALLEY":" ","HOUSE_NO":"３６１號","E_COORD97":167694.03,"N_COORD97":2551964.0600000001,"ADDRESS":"長溪路三段３６１號","OBJECTID":637546},"geometry":{"x":167694.03000000026,"y":2551964.0600000005}},{"attributes":{"ID":637574,"DIS_CODE":0,"TOWNNAME":"安南區","LI":"長安里","LIN":"17鄰","STREET":"長溪路","SECT":"三段","MAREA":" ","LANE":" ","ALLEY":" ","HOUSE_NO":"３４３號","E_COORD97":167712.23000000001,"N_COORD97":2551929.77,"ADDRESS":"長溪路三段３４３號","OBJECTID":637547},"geometry":{"x":167712.23000000231,"y":2551929.7700000014}},{"attributes":{"ID":637575,"DIS_CODE":0,"TOWNNAME":"安南區","LI":"總頭里","LIN":"8鄰","STREET":"長溪路","SECT":"二段","MAREA":" ","LANE":" ","ALLEY":" ","HOUSE_NO":"６０５號","E_COORD97":168208.64999999999,"N_COORD97":2550726.5899999999,"ADDRESS":"長溪路二段６０５號","OBJECTID":637548},"geometry":{"x":168208.65000000037,"y":2550726.5900000017}},{"attributes":{"ID":637576,"DIS_CODE":0,"TOWNNAME":"安南區","LI":"總頭里","LIN":"4鄰","STREET":"長溪路","SECT":"二段","MAREA":" ","LANE":" ","ALLEY":" ","HOUSE_NO":"５６０號之１","E_COORD97":168284.29999999999,"N_COORD97":2550583.48,"ADDRESS":"長溪路二段５６０號之１","OBJECTID":637549},"geometry":{"x":168284.30000000075,"y":2550583.4800000023}},{"attributes":{"ID":637577,"DIS_CODE":0,"TOWNNAME":"安南區","LI":"頂安里","LIN":"8鄰","STREET":"怡安路","SECT":"一段","MAREA":" ","LANE":" ","ALLEY":" ","HOUSE_NO":"４４５號","E_COORD97":168582.04999999999,"N_COORD97":2549164.3799999999,"ADDRESS":"怡安路一段４４５號","OBJECTID":637550},"geometry":{"x":168582.04999999981,"y":2549164.3800000008}},{"attributes":{"ID":637578,"DIS_CODE":0,"TOWNNAME":"安南區","LI":"海東里","LIN":"24鄰","STREET":"同安路","SECT":" ","MAREA":" ","LANE":" ","ALLEY":" ","HOUSE_NO":"１７１號","E_COORD97":167097.14999999999,"N_COORD97":2549106.3199999998,"ADDRESS":"同安路１７１號","OBJECTID":637551},"geometry":{"x":167097.14999999944,"y":2549106.3200000003}},{"attributes":{"ID":637579,"DIS_CODE":0,"TOWNNAME":"安南區","LI":"海東里","LIN":"24鄰","STREET":"同安路","SECT":" ","MAREA":" ","LANE":" ","ALLEY":" ","HOUSE_NO":"１８３號","E_COORD97":167116.84,"N_COORD97":2549123.0499999998,"ADDRESS":"同安路１８３號","OBJECTID":637552},"geometry":{"x":167116.83999999985,"y":2549123.0500000007}},{"attributes":{"ID":637580,"DIS_CODE":0,"TOWNNAME":"安南區","LI":"學東里","LIN":"13鄰","STREET":"公學路","SECT":"七段","MAREA":" ","LANE":" ","ALLEY":" ","HOUSE_NO":"８７號","E_COORD97":161786.25,"N_COORD97":2553380.0699999998,"ADDRESS":"公學路七段８７號","OBJECTID":637553},"geometry":{"x":161786.25,"y":2553380.0700000003}},{"attributes":{"ID":637581,"DIS_CODE":0,"TOWNNAME":"安南區","LI":"城東里","LIN":"1鄰","STREET":"安明路","SECT":"四段","MAREA":" ","LANE":" ","ALLEY":" ","HOUSE_NO":"７０５號之４","E_COORD97":161260.64999999999,"N_COORD97":2551744.3199999998,"ADDRESS":"安明路四段７０５號之４","OBJECTID":637554},"geometry":{"x":161260.65000000224,"y":2551744.3200000003}},{"attributes":{"ID":637582,"DIS_CODE":0,"TOWNNAME":"安南區","LI":"淵中里","LIN":"1鄰","STREET":"安中路","SECT":"三段","MAREA":" ","LANE":" ","ALLEY":" ","HOUSE_NO":"３３１號","E_COORD97":165634.98000000001,"N_COORD97":2549895.0699999998,"ADDRESS":"安中路三段３３１號","OBJECTID":637555},"geometry":{"x":165634.98000000045,"y":2549895.0700000003}},{"attributes":{"ID":637583,"DIS_CODE":0,"TOWNNAME":"安南區","LI":"頂安里","LIN":"1鄰","STREET":"長溪路","SECT":"一段","MAREA":" ","LANE":" ","ALLEY":" ","HOUSE_NO":"４４０號之１","E_COORD97":168532.88,"N_COORD97":2548996.29,"ADDRESS":"長溪路一段４４０號之１","OBJECTID":637556},"geometry":{"x":168532.88000000082,"y":2548996.290000001}},{"attributes":{"ID":637584,"DIS_CODE":0,"TOWNNAME":"中西區","LI":"保安里","LIN":"4鄰","STREET":"保安路","SECT":" ","MAREA":" ","LANE":" ","ALLEY":" ","HOUSE_NO":"３３號","E_COORD97":167650.29000000001,"N_COORD97":2543417.6800000002,"ADDRESS":"保安路３３號","OBJECTID":637557},"geometry":{"x":167650.2900000019,"y":2543417.6799999997}},{"attributes":{"ID":637585,"DIS_CODE":0,"TOWNNAME":"東區","LI":"東安里","LIN":"4鄰","STREET":"東門路","SECT":"二段","MAREA":" ","LANE":" ","ALLEY":" ","HOUSE_NO":"１１號","E_COORD97":169951.32999999999,"N_COORD97":2543013.8300000001,"ADDRESS":"東門路二段１１號","OBJECTID":637558},"geometry":{"x":169951.33000000007,"y":2543013.8300000001}},{"attributes":{"ID":637586,"DIS_CODE":0,"TOWNNAME":"安南區","LI":"鳳凰里","LIN":"24鄰","STREET":"安中路","SECT":"一段","MAREA":" ","LANE":" ","ALLEY":" ","HOUSE_NO":"７８８號","E_COORD97":167550.78,"N_COORD97":2549308.1200000001,"ADDRESS":"安中路一段７８８號","OBJECTID":637559},"geometry":{"x":167550.78000000119,"y":2549308.1200000029}},{"attributes":{"ID":637587,"DIS_CODE":0,"TOWNNAME":"安南區","LI":"鳳凰里","LIN":"4鄰","STREET":"安中路","SECT":"一段","MAREA":" ","LANE":" ","ALLEY":" ","HOUSE_NO":"６２４號之１１","E_COORD97":167760.82000000001,"N_COORD97":2549165.3599999999,"ADDRESS":"安中路一段６２４號之１１","OBJECTID":637560},"geometry":{"x":167760.82000000123,"y":2549165.3600000013}},{"attributes":{"ID":637588,"DIS_CODE":0,"TOWNNAME":"安南區","LI":"鳳凰里","LIN":"4鄰","STREET":"安中路","SECT":"一段","MAREA":" ","LANE":" ","ALLEY":" ","HOUSE_NO":"６２４號之１３","E_COORD97":167750.07000000001,"N_COORD97":2549172.3399999999,"ADDRESS":"安中路一段６２４號之１３","OBJECTID":637561},"geometry":{"x":167750.0700000003,"y":2549172.3400000017}},{"attributes":{"ID":637589,"DIS_CODE":0,"TOWNNAME":"安南區","LI":"鳳凰里","LIN":"4鄰","STREET":"安中路","SECT":"一段","MAREA":" ","LANE":" ","ALLEY":" ","HOUSE_NO":"６２４號之１０","E_COORD97":167765.26000000001,"N_COORD97":2549161.75,"ADDRESS":"安中路一段６２４號之１０","OBJECTID":637562},"geometry":{"x":167765.25999999978,"y":2549161.75}},{"attributes":{"ID":637590,"DIS_CODE":0,"TOWNNAME":"安南區","LI":"鳳凰里","LIN":"4鄰","STREET":"安中路","SECT":"一段","MAREA":" ","LANE":" ","ALLEY":" ","HOUSE_NO":"６２４號之１２","E_COORD97":167755.17000000001,"N_COORD97":2549169.25,"ADDRESS":"安中路一段６２４號之１２","OBJECTID":637563},"geometry":{"x":167755.17000000086,"y":2549169.2500000037}},{"attributes":{"ID":637591,"DIS_CODE":0,"TOWNNAME":"安南區","LI":"海東里","LIN":"4鄰","STREET":"海中街","SECT":" ","MAREA":" ","LANE":" ","ALLEY":" ","HOUSE_NO":"１６０號","E_COORD97":166323.87,"N_COORD97":2549190.98,"ADDRESS":"海中街１６０號","OBJECTID":637564},"geometry":{"x":166323.87000000011,"y":2549190.9800000004}},{"attributes":{"ID":637592,"DIS_CODE":0,"TOWNNAME":"安南區","LI":"海東里","LIN":"4鄰","STREET":"海中街","SECT":" ","MAREA":" ","LANE":" ","ALLEY":" ","HOUSE_NO":"１５４號","E_COORD97":166334.19,"N_COORD97":2549183.6000000001,"ADDRESS":"海中街１５４號","OBJECTID":637565},"geometry":{"x":166334.19000000227,"y":2549183.6000000034}},{"attributes":{"ID":637593,"DIS_CODE":0,"TOWNNAME":"安南區","LI":"海東里","LIN":"4鄰","STREET":"海中街","SECT":" ","MAREA":" ","LANE":" ","ALLEY":" ","HOUSE_NO":"１５６號","E_COORD97":166330.42000000001,"N_COORD97":2549185.8700000001,"ADDRESS":"海中街１５６號","OBJECTID":637566},"geometry":{"x":166330.42000000179,"y":2549185.870000001}},{"attributes":{"ID":637594,"DIS_CODE":0,"TOWNNAME":"安南區","LI":"海東里","LIN":"4鄰","STREET":"海中街","SECT":" ","MAREA":" ","LANE":" ","ALLEY":" ","HOUSE_NO":"１５８號","E_COORD97":166327.14000000001,"N_COORD97":2549188.1600000001,"ADDRESS":"海中街１５８號","OBJECTID":637567},"geometry":{"x":166327.1400000006,"y":2549188.160000002}},{"attributes":{"ID":637595,"DIS_CODE":0,"TOWNNAME":"安南區","LI":"海東里","LIN":"4鄰","STREET":"海中街","SECT":" ","MAREA":" ","LANE":" ","ALLEY":" ","HOUSE_NO":"１６６號","E_COORD97":166304.84,"N_COORD97":2549227.4100000001,"ADDRESS":"海中街１６６號","OBJECTID":637568},"geometry":{"x":166304.83999999985,"y":2549227.410000002}},{"attributes":{"ID":637596,"DIS_CODE":0,"TOWNNAME":"安南區","LI":"海東里","LIN":"4鄰","STREET":"海中街","SECT":" ","MAREA":" ","LANE":" ","ALLEY":" ","HOUSE_NO":"１６８號","E_COORD97":166306.72,"N_COORD97":2549234.25,"ADDRESS":"海中街１６８號","OBJECTID":637569},"geometry":{"x":166306.72000000067,"y":2549234.2500000019}},{"attributes":{"ID":637597,"DIS_CODE":0,"TOWNNAME":"安南區","LI":"海東里","LIN":"4鄰","STREET":"海中街","SECT":" ","MAREA":" ","LANE":" ","ALLEY":" ","HOUSE_NO":"１７０號","E_COORD97":166305.16,"N_COORD97":2549238.27,"ADDRESS":"海中街１７０號","OBJECTID":637570},"geometry":{"x":166305.15999999922,"y":2549238.2699999996}},{"attributes":{"ID":637598,"DIS_CODE":0,"TOWNNAME":"安南區","LI":"\u25A0南里","LIN":"1鄰","STREET":"環福街","SECT":" ","MAREA":" ","LANE":" ","ALLEY":" ","HOUSE_NO":"６號","E_COORD97":170129.85999999999,"N_COORD97":2552447.25,"ADDRESS":"環福街６號","OBJECTID":637571},"geometry":{"x":170129.86000000034,"y":2552447.25}},{"attributes":{"ID":637599,"DIS_CODE":0,"TOWNNAME":"安南區","LI":"安西里","LIN":"11鄰","STREET":"長溪路","SECT":"一段","MAREA":" ","LANE":" ","ALLEY":" ","HOUSE_NO":"３７號","E_COORD97":169196.06,"N_COORD97":2548288.5299999998,"ADDRESS":"長溪路一段３７號","OBJECTID":637572},"geometry":{"x":169196.06000000052,"y":2548288.5300000031}},{"attributes":{"ID":637600,"DIS_CODE":0,"TOWNNAME":"安南區","LI":"頂安里","LIN":"17鄰","STREET":"北安路","SECT":"二段","MAREA":" ","LANE":" ","ALLEY":" ","HOUSE_NO":"５３８號之２","E_COORD97":168373.91,"N_COORD97":2548560.4100000001,"ADDRESS":"北安路二段５３８號之２","OBJECTID":637573},"geometry":{"x":168373.91000000108,"y":2548560.4100000001}},{"attributes":{"ID":637601,"DIS_CODE":0,"TOWNNAME":"安南區","LI":"頂安里","LIN":"12鄰","STREET":"長溪路","SECT":"二段","MAREA":" ","LANE":" ","ALLEY":" ","HOUSE_NO":"１２２號之６","E_COORD97":168406.56,"N_COORD97":2549566.0499999998,"ADDRESS":"長溪路二段１２２號之６","OBJECTID":637574},"geometry":{"x":168406.56000000052,"y":2549566.0500000026}},{"attributes":{"ID":637602,"DIS_CODE":0,"TOWNNAME":"安南區","LI":"原佃里","LIN":"5鄰","STREET":"本原街","SECT":"一段","MAREA":" ","LANE":" ","ALLEY":" ","HOUSE_NO":"２８１號","E_COORD97":167717.34,"N_COORD97":2550431.0800000001,"ADDRESS":"本原街一段２８１號","OBJECTID":637575},"geometry":{"x":167717.33999999985,"y":2550431.0800000001}},{"attributes":{"ID":637603,"DIS_CODE":0,"TOWNNAME":"安南區","LI":"海東里","LIN":"2鄰","STREET":"海環街","SECT":" ","MAREA":" ","LANE":" ","ALLEY":" ","HOUSE_NO":"５９４號","E_COORD97":166416.88,"N_COORD97":2549264.9100000001,"ADDRESS":"海環街５９４號","OBJECTID":637576},"geometry":{"x":166416.87999999989,"y":2549264.9100000001}},{"attributes":{"ID":637604,"DIS_CODE":0,"TOWNNAME":"安南區","LI":"\u25A0南里","LIN":"4鄰","STREET":"環福街","SECT":" ","MAREA":" ","LANE":" ","ALLEY":" ","HOUSE_NO":"２９號","E_COORD97":170185.07999999999,"N_COORD97":2552467.0499999998,"ADDRESS":"環福街２９號","OBJECTID":637577},"geometry":{"x":170185.08000000101,"y":2552467.0500000026}},{"attributes":{"ID":637605,"DIS_CODE":0,"TOWNNAME":"安南區","LI":"鳳凰里","LIN":"13鄰","STREET":"安中路","SECT":"一段","MAREA":" ","LANE":" ","ALLEY":" ","HOUSE_NO":"８００號","E_COORD97":167510.22,"N_COORD97":2549322.7000000002,"ADDRESS":"安中路一段８００號","OBJECTID":637578},"geometry":{"x":167510.22000000067,"y":2549322.7000000011}},{"attributes":{"ID":637606,"DIS_CODE":0,"TOWNNAME":"安南區","LI":"新順里","LIN":"7鄰","STREET":"北安路","SECT":"三段","MAREA":" ","LANE":" ","ALLEY":" ","HOUSE_NO":"７９１號","E_COORD97":169212.95000000001,"N_COORD97":2549930.7400000002,"ADDRESS":"北安路三段７９１號","OBJECTID":637579},"geometry":{"x":169212.95000000112,"y":2549930.7400000002}},{"attributes":{"ID":637607,"DIS_CODE":0,"TOWNNAME":"安南區","LI":"州南里","LIN":"1鄰","STREET":"安和路","SECT":"四段","MAREA":" ","LANE":" ","ALLEY":" ","HOUSE_NO":"３７２號","E_COORD97":169955.38,"N_COORD97":2550966.4500000002,"ADDRESS":"安和路四段３７２號","OBJECTID":637580},"geometry":{"x":169955.38000000082,"y":2550966.4499999993}},{"attributes":{"ID":637608,"DIS_CODE":0,"TOWNNAME":"安南區","LI":"州南里","LIN":"1鄰","STREET":"安和路","SECT":"四段","MAREA":" ","LANE":" ","ALLEY":" ","HOUSE_NO":"３７４之２號","E_COORD97":169955.89999999999,"N_COORD97":2550980.52,"ADDRESS":"安和路四段３７４之２號","OBJECTID":637581},"geometry":{"x":169955.9000000013,"y":2550980.5199999977}},{"attributes":{"ID":637609,"DIS_CODE":0,"TOWNNAME":"安南區","LI":"州南里","LIN":"1鄰","STREET":"安和路","SECT":"四段","MAREA":" ","LANE":" ","ALLEY":" ","HOUSE_NO":"３７４之３號","E_COORD97":169954.69,"N_COORD97":2550985.1800000002,"ADDRESS":"安和路四段３７４之３號","OBJECTID":637582},"geometry":{"x":169954.69000000041,"y":2550985.1799999997}},{"attributes":{"ID":637610,"DIS_CODE":0,"TOWNNAME":"安南區","LI":"州南里","LIN":"1鄰","STREET":"安和路","SECT":"四段","MAREA":" ","LANE":" ","ALLEY":" ","HOUSE_NO":"３７４號","E_COORD97":169954.85999999999,"N_COORD97":2550970.9500000002,"ADDRESS":"安和路四段３７４號","OBJECTID":637583},"geometry":{"x":169954.86000000034,"y":2550970.950000003}},{"attributes":{"ID":637611,"DIS_CODE":0,"TOWNNAME":"安南區","LI":"佃東里","LIN":"3鄰","STREET":"十二佃路","SECT":" ","MAREA":" ","LANE":" ","ALLEY":" ","HOUSE_NO":"３號","E_COORD97":165717.67999999999,"N_COORD97":2552027.1499999999,"ADDRESS":"十二佃路３號","OBJECTID":637584},"geometry":{"x":165717.6799999997,"y":2552027.1500000004}},{"attributes":{"ID":637612,"DIS_CODE":0,"TOWNNAME":"安南區","LI":"州南里","LIN":"1鄰","STREET":"安和路","SECT":"四段","MAREA":" ","LANE":" ","ALLEY":" ","HOUSE_NO":"３７４號之１","E_COORD97":169955.72,"N_COORD97":2550975.8500000001,"ADDRESS":"安和路四段３７４號之１","OBJECTID":637585},"geometry":{"x":169955.71999999974,"y":2550975.8500000015}},{"attributes":{"ID":637613,"DIS_CODE":0,"TOWNNAME":"安南區","LI":"頂安里","LIN":"7鄰","STREET":"怡安路","SECT":"一段","MAREA":" ","LANE":" ","ALLEY":" ","HOUSE_NO":"４１８號","E_COORD97":168657.67999999999,"N_COORD97":2549196.3799999999,"ADDRESS":"怡安路一段４１８號","OBJECTID":637586},"geometry":{"x":168657.68000000156,"y":2549196.379999999}},{"attributes":{"ID":637614,"DIS_CODE":0,"TOWNNAME":"安南區","LI":"南興里","LIN":"4鄰","STREET":"安興街","SECT":" ","MAREA":" ","LANE":" ","ALLEY":" ","HOUSE_NO":"４０２號","E_COORD97":163651.62,"N_COORD97":2552361.7400000002,"ADDRESS":"安興街４０２號","OBJECTID":637587},"geometry":{"x":163651.62000000104,"y":2552361.7400000002}},{"attributes":{"ID":637615,"DIS_CODE":0,"TOWNNAME":"安南區","LI":"南興里","LIN":"4鄰","STREET":"安興街","SECT":" ","MAREA":" ","LANE":" ","ALLEY":" ","HOUSE_NO":"４０４號","E_COORD97":163645.82999999999,"N_COORD97":2552359.6299999999,"ADDRESS":"安興街４０４號","OBJECTID":637588},"geometry":{"x":163645.83000000007,"y":2552359.6300000008}},{"attributes":{"ID":637616,"DIS_CODE":0,"TOWNNAME":"安南區","LI":"南興里","LIN":"4鄰","STREET":"安興街","SECT":" ","MAREA":" ","LANE":" ","ALLEY":" ","HOUSE_NO":"３９２號","E_COORD97":163694.23999999999,"N_COORD97":2552360.6899999999,"ADDRESS":"安興街３９２號","OBJECTID":637589},"geometry":{"x":163694.24000000209,"y":2552360.6900000013}},{"attributes":{"ID":637617,"DIS_CODE":0,"TOWNNAME":"安南區","LI":"學東里","LIN":"13鄰","STREET":"公學路","SECT":"七段","MAREA":" ","LANE":" ","ALLEY":" ","HOUSE_NO":"８３號","E_COORD97":161797.10000000001,"N_COORD97":2553370.7200000002,"ADDRESS":"公學路七段８３號","OBJECTID":637590},"geometry":{"x":161797.09999999963,"y":2553370.7200000044}},{"attributes":{"ID":637618,"DIS_CODE":0,"TOWNNAME":"安南區","LI":"溪頂里","LIN":"7鄰","STREET":"府安路","SECT":"四段","MAREA":" ","LANE":" ","ALLEY":" ","HOUSE_NO":"１８８號","E_COORD97":168652.92000000001,"N_COORD97":2547244.2799999998,"ADDRESS":"府安路四段１８８號","OBJECTID":637591},"geometry":{"x":168652.92000000179,"y":2547244.2799999993}},{"attributes":{"ID":637619,"DIS_CODE":0,"TOWNNAME":"下營區","LI":"仁里里","LIN":"21鄰","STREET":"仁里街","SECT":" ","MAREA":" ","LANE":" ","ALLEY":" ","HOUSE_NO":"３５號","E_COORD97":174248.73000000001,"N_COORD97":2569947.6800000002,"ADDRESS":"仁里街３５號","OBJECTID":637592},"geometry":{"x":174248.73000000231,"y":2569947.6799999997}},{"attributes":{"ID":637620,"DIS_CODE":0,"TOWNNAME":"安南區","LI":"新順里","LIN":"18鄰","STREET":"育安街","SECT":" ","MAREA":" ","LANE":" ","ALLEY":" ","HOUSE_NO":"２８號","E_COORD97":169641.14000000001,"N_COORD97":2549584.8999999999,"ADDRESS":"育安街２８號","OBJECTID":637593},"geometry":{"x":169641.14000000153,"y":2549584.9000000004}},{"attributes":{"ID":637621,"DIS_CODE":0,"TOWNNAME":"安南區","LI":"州南里","LIN":"1鄰","STREET":"安和路","SECT":"四段","MAREA":" ","LANE":" ","ALLEY":" ","HOUSE_NO":"３６８號","E_COORD97":169953.448707,"N_COORD97":2550954.3369999998,"ADDRESS":"安和路四段３６８號","OBJECTID":637594},"geometry":{"x":169953.44870700035,"y":2550954.3369970005}},{"attributes":{"ID":637622,"DIS_CODE":0,"TOWNNAME":"安南區","LI":"州南里","LIN":"1鄰","STREET":"安和路","SECT":"四段","MAREA":" ","LANE":" ","ALLEY":" ","HOUSE_NO":"３７０號","E_COORD97":169953.236974,"N_COORD97":2550959.6286599999,"ADDRESS":"安和路四段３７０號","OBJECTID":637595},"geometry":{"x":169953.236974,"y":2550959.6286610011}},{"attributes":{"ID":637623,"DIS_CODE":0,"TOWNNAME":"安南區","LI":"布袋里","LIN":"8鄰","STREET":"長和路","SECT":"四段","MAREA":" ","LANE":" ","ALLEY":" ","HOUSE_NO":"１７２號","E_COORD97":168896.01000000001,"N_COORD97":2551672.75,"ADDRESS":"長和路四段１７２號","OBJECTID":637596},"geometry":{"x":168896.00999999978,"y":2551672.7500000019}},{"attributes":{"ID":637624,"DIS_CODE":0,"TOWNNAME":"安南區","LI":"公\u25A0里","LIN":"4鄰","STREET":"安興街","SECT":" ","MAREA":" ","LANE":" ","ALLEY":" ","HOUSE_NO":"９５號","E_COORD97":164239.39000000001,"N_COORD97":2552183.98,"ADDRESS":"安興街９５號","OBJECTID":637597},"geometry":{"x":164239.38999999966,"y":2552183.9800000004}},{"attributes":{"ID":637625,"DIS_CODE":0,"TOWNNAME":"中西區","LI":"保安里","LIN":"4鄰","STREET":"保安路","SECT":" ","MAREA":" ","LANE":" ","ALLEY":" ","HOUSE_NO":"４３號","E_COORD97":167629.76999999999,"N_COORD97":2543421.0699999998,"ADDRESS":"保安路４３號","OBJECTID":637598},"geometry":{"x":167629.77000000048,"y":2543421.0700000022}},{"attributes":{"ID":637626,"DIS_CODE":0,"TOWNNAME":"安南區","LI":"公\u25A0里","LIN":"4鄰","STREET":"安興街","SECT":" ","MAREA":" ","LANE":" ","ALLEY":" ","HOUSE_NO":"９３號","E_COORD97":164244.09,"N_COORD97":2552185.3900000001,"ADDRESS":"安興街９３號","OBJECTID":637599},"geometry":{"x":164244.09000000171,"y":2552185.3900000006}},{"attributes":{"ID":637627,"DIS_CODE":0,"TOWNNAME":"安南區","LI":"公\u25A0里","LIN":"4鄰","STREET":"安興街","SECT":" ","MAREA":" ","LANE":" ","ALLEY":" ","HOUSE_NO":"９７號","E_COORD97":164234.41,"N_COORD97":2552181.7999999998,"ADDRESS":"安興街９７號","OBJECTID":637600},"geometry":{"x":164234.41000000108,"y":2552181.8000000026}}]}