{"displayFieldName":"TOWNNAME","fieldAliases":{"ID":"ID","DIS_CODE":"DIS_CODE","TOWNNAME":"TOWNNAME","LI":"LI","LIN":"LIN","STREET":"STREET","SECT":"SECT","MAREA":"MAREA","LANE":"LANE","ALLEY":"ALLEY","HOUSE_NO":"HOUSE_NO","E_COORD97":"E_COORD97","N_COORD97":"N_COORD97","ADDRESS":"ADDRESS","OBJECTID":"OBJECTID"},"geometryType":"esriGeometryPoint","spatialReference":{"wkid":102443,"latestWkid":3826},"fields":[{"name":"ID","type":"esriFieldTypeDouble","alias":"ID"},{"name":"DIS_CODE","type":"esriFieldTypeInteger","alias":"DIS_CODE"},{"name":"TOWNNAME","type":"esriFieldTypeString","alias":"TOWNNAME","length":8},{"name":"LI","type":"esriFieldTypeString","alias":"LI","length":8},{"name":"LIN","type":"esriFieldTypeString","alias":"LIN","length":12},{"name":"STREET","type":"esriFieldTypeString","alias":"STREET","length":20},{"name":"SECT","type":"esriFieldTypeString","alias":"SECT","length":8},{"name":"MAREA","type":"esriFieldTypeString","alias":"MAREA","length":12},{"name":"LANE","type":"esriFieldTypeString","alias":"LANE","length":10},{"name":"ALLEY","type":"esriFieldTypeString","alias":"ALLEY","length":10},{"name":"HOUSE_NO","type":"esriFieldTypeString","alias":"HOUSE_NO","length":20},{"name":"E_COORD97","type":"esriFieldTypeDouble","alias":"E_COORD97"},{"name":"N_COORD97","type":"esriFieldTypeDouble","alias":"N_COORD97"},{"name":"ADDRESS","type":"esriFieldTypeString","alias":"ADDRESS","length":50},{"name":"OBJECTID","type":"esriFieldTypeOID","alias":"OBJECTID"}],"features":[{"attributes":{"ID":302609,"DIS_CODE":0,"TOWNNAME":"永康區","LI":"崑山里","LIN":"26鄰","STREET":"大灣路","SECT":" ","MAREA":" ","LANE":"９４２巷","ALLEY":" ","HOUSE_NO":"１１７號","E_COORD97":173682.78,"N_COORD97":2544676.8599999999,"ADDRESS":"大灣路９４２巷１１７號","OBJECTID":302601},"geometry":{"x":173682.78000000119,"y":2544676.8600000013}},{"attributes":{"ID":302610,"DIS_CODE":0,"TOWNNAME":"永康區","LI":"\u25A0行里","LIN":"25鄰","STREET":"\u25A0和街","SECT":" ","MAREA":" ","LANE":"２５６巷","ALLEY":" ","HOUSE_NO":"１０號","E_COORD97":171669.29999999999,"N_COORD97":2548390.75,"ADDRESS":"\u25A0和街２５６巷１０號","OBJECTID":302602},"geometry":{"x":171669.30000000168,"y":2548390.7500000019}},{"attributes":{"ID":302611,"DIS_CODE":0,"TOWNNAME":"歸仁區","LI":"武東里","LIN":"8鄰","STREET":"武東一街","SECT":" ","MAREA":" ","LANE":"４９巷","ALLEY":" ","HOUSE_NO":"６６號四樓之６","E_COORD97":175800.23000000001,"N_COORD97":2535538.2999999998,"ADDRESS":"武東一街４９巷６６號四樓之６","OBJECTID":302603},"geometry":{"x":175800.23000000138,"y":2535538.3000000026}},{"attributes":{"ID":302612,"DIS_CODE":0,"TOWNNAME":"歸仁區","LI":"武東里","LIN":"8鄰","STREET":"武東一街","SECT":" ","MAREA":" ","LANE":"４９巷","ALLEY":" ","HOUSE_NO":"６８號五樓之４","E_COORD97":175800.14999999999,"N_COORD97":2535538.2999999998,"ADDRESS":"武東一街４９巷６８號五樓之４","OBJECTID":302604},"geometry":{"x":175800.15000000037,"y":2535538.3000000026}},{"attributes":{"ID":302613,"DIS_CODE":0,"TOWNNAME":"歸仁區","LI":"武東里","LIN":"8鄰","STREET":"武東一街","SECT":" ","MAREA":" ","LANE":"４９巷","ALLEY":" ","HOUSE_NO":"７０號五樓之５","E_COORD97":175800.28,"N_COORD97":2535538.2999999998,"ADDRESS":"武東一街４９巷７０號五樓之５","OBJECTID":302605},"geometry":{"x":175800.28000000026,"y":2535538.3000000026}},{"attributes":{"ID":302614,"DIS_CODE":0,"TOWNNAME":"歸仁區","LI":"武東里","LIN":"8鄰","STREET":"武東一街","SECT":" ","MAREA":" ","LANE":"４９巷","ALLEY":" ","HOUSE_NO":"６６號五樓之６","E_COORD97":175800.23000000001,"N_COORD97":2535538.2999999998,"ADDRESS":"武東一街４９巷６６號五樓之６","OBJECTID":302606},"geometry":{"x":175800.23000000138,"y":2535538.3000000026}},{"attributes":{"ID":302615,"DIS_CODE":0,"TOWNNAME":"歸仁區","LI":"武東里","LIN":"8鄰","STREET":"武東一街","SECT":" ","MAREA":" ","LANE":"４９巷","ALLEY":" ","HOUSE_NO":"６８號五樓之２","E_COORD97":175800.26000000001,"N_COORD97":2535538.2999999998,"ADDRESS":"武東一街４９巷６８號五樓之２","OBJECTID":302607},"geometry":{"x":175800.25999999978,"y":2535538.3000000026}},{"attributes":{"ID":302616,"DIS_CODE":0,"TOWNNAME":"歸仁區","LI":"武東里","LIN":"8鄰","STREET":"武東一街","SECT":" ","MAREA":" ","LANE":"４９巷","ALLEY":" ","HOUSE_NO":"６６號五樓之４","E_COORD97":175800.14999999999,"N_COORD97":2535538.2999999998,"ADDRESS":"武東一街４９巷６６號五樓之４","OBJECTID":302608},"geometry":{"x":175800.15000000037,"y":2535538.3000000026}},{"attributes":{"ID":302617,"DIS_CODE":0,"TOWNNAME":"歸仁區","LI":"武東里","LIN":"8鄰","STREET":"武東一街","SECT":" ","MAREA":" ","LANE":"４９巷","ALLEY":" ","HOUSE_NO":"６６號三樓之２","E_COORD97":175800.26000000001,"N_COORD97":2535538.2999999998,"ADDRESS":"武東一街４９巷６６號三樓之２","OBJECTID":302609},"geometry":{"x":175800.25999999978,"y":2535538.3000000026}},{"attributes":{"ID":302618,"DIS_CODE":0,"TOWNNAME":"東區","LI":"崇成里","LIN":"14鄰","STREET":"崇明十六街","SECT":" ","MAREA":" ","LANE":" ","ALLEY":" ","HOUSE_NO":"４５號","E_COORD97":170703.56,"N_COORD97":2541304.27,"ADDRESS":"崇明十六街４５號","OBJECTID":302610},"geometry":{"x":170703.55999999959,"y":2541304.2700000014}},{"attributes":{"ID":302619,"DIS_CODE":0,"TOWNNAME":"東區","LI":"崇成里","LIN":"14鄰","STREET":"崇明十六街","SECT":" ","MAREA":" ","LANE":" ","ALLEY":" ","HOUSE_NO":"４６號","E_COORD97":170733.92000000001,"N_COORD97":2541280.5800000001,"ADDRESS":"崇明十六街４６號","OBJECTID":302611},"geometry":{"x":170733.91999999993,"y":2541280.5800000001}},{"attributes":{"ID":302620,"DIS_CODE":0,"TOWNNAME":"東區","LI":"崇成里","LIN":"14鄰","STREET":"崇明十六街","SECT":" ","MAREA":" ","LANE":" ","ALLEY":" ","HOUSE_NO":"４７號","E_COORD97":170709.48000000001,"N_COORD97":2541304.52,"ADDRESS":"崇明十六街４７號","OBJECTID":302612},"geometry":{"x":170709.48000000138,"y":2541304.5200000033}},{"attributes":{"ID":302621,"DIS_CODE":0,"TOWNNAME":"安平區","LI":"平通里","LIN":"18鄰","STREET":"永華路","SECT":"二段","MAREA":" ","LANE":" ","ALLEY":" ","HOUSE_NO":"７７０號","E_COORD97":164961.70999999999,"N_COORD97":2543571.5800000001,"ADDRESS":"永華路二段７７０號","OBJECTID":302613},"geometry":{"x":164961.70999999996,"y":2543571.5800000001}},{"attributes":{"ID":302622,"DIS_CODE":0,"TOWNNAME":"安平區","LI":"平通里","LIN":"18鄰","STREET":"永華路","SECT":"二段","MAREA":" ","LANE":" ","ALLEY":" ","HOUSE_NO":"８１６號","E_COORD97":164787.67000000001,"N_COORD97":2543594.7200000002,"ADDRESS":"永華路二段８１６號","OBJECTID":302614},"geometry":{"x":164787.66999999899,"y":2543594.7200000007}},{"attributes":{"ID":302623,"DIS_CODE":0,"TOWNNAME":"安平區","LI":"平通里","LIN":"18鄰","STREET":"永華路","SECT":"二段","MAREA":" ","LANE":" ","ALLEY":" ","HOUSE_NO":"８１８號","E_COORD97":164781.20000000001,"N_COORD97":2543595.8799999999,"ADDRESS":"永華路二段８１８號","OBJECTID":302615},"geometry":{"x":164781.20000000205,"y":2543595.879999999}},{"attributes":{"ID":302624,"DIS_CODE":0,"TOWNNAME":"官田區","LI":"湖山里","LIN":"1鄰","STREET":" ","SECT":" ","MAREA":"烏山頭","LANE":" ","ALLEY":" ","HOUSE_NO":"１號之２","E_COORD97":183234.97,"N_COORD97":2567305.0099999998,"ADDRESS":"烏山頭１號之２","OBJECTID":302616},"geometry":{"x":183234.97000000067,"y":2567305.0099999998}},{"attributes":{"ID":302625,"DIS_CODE":0,"TOWNNAME":"官田區","LI":"湖山里","LIN":"1鄰","STREET":" ","SECT":" ","MAREA":"烏山頭","LANE":" ","ALLEY":" ","HOUSE_NO":"１號","E_COORD97":183262.14999999999,"N_COORD97":2567394.3199999998,"ADDRESS":"烏山頭１號","OBJECTID":302617},"geometry":{"x":183262.15000000037,"y":2567394.3200000003}},{"attributes":{"ID":302626,"DIS_CODE":0,"TOWNNAME":"官田區","LI":"湖山里","LIN":"3鄰","STREET":" ","SECT":" ","MAREA":"烏山頭","LANE":" ","ALLEY":" ","HOUSE_NO":"１６號之１","E_COORD97":183356.62,"N_COORD97":2567483.3700000001,"ADDRESS":"烏山頭１６號之１","OBJECTID":302618},"geometry":{"x":183356.62000000011,"y":2567483.370000001}},{"attributes":{"ID":302627,"DIS_CODE":0,"TOWNNAME":"官田區","LI":"湖山里","LIN":"3鄰","STREET":" ","SECT":" ","MAREA":"烏山頭","LANE":" ","ALLEY":" ","HOUSE_NO":"１６號之２","E_COORD97":183347.29999999999,"N_COORD97":2567489.5699999998,"ADDRESS":"烏山頭１６號之２","OBJECTID":302619},"geometry":{"x":183347.29999999888,"y":2567489.5700000022}},{"attributes":{"ID":302628,"DIS_CODE":0,"TOWNNAME":"官田區","LI":"湖山里","LIN":"3鄰","STREET":" ","SECT":" ","MAREA":"烏山頭","LANE":" ","ALLEY":" ","HOUSE_NO":"１８號之１","E_COORD97":183367.81,"N_COORD97":2567540.4199999999,"ADDRESS":"烏山頭１８號之１","OBJECTID":302620},"geometry":{"x":183367.81000000052,"y":2567540.4200000037}},{"attributes":{"ID":302629,"DIS_CODE":0,"TOWNNAME":"官田區","LI":"湖山里","LIN":"3鄰","STREET":" ","SECT":" ","MAREA":"烏山頭","LANE":" ","ALLEY":" ","HOUSE_NO":"１８號之３","E_COORD97":183334.20999999999,"N_COORD97":2567534.4300000002,"ADDRESS":"烏山頭１８號之３","OBJECTID":302621},"geometry":{"x":183334.20999999996,"y":2567534.4300000016}},{"attributes":{"ID":302630,"DIS_CODE":0,"TOWNNAME":"官田區","LI":"湖山里","LIN":"3鄰","STREET":" ","SECT":" ","MAREA":"烏山頭","LANE":" ","ALLEY":" ","HOUSE_NO":"１８號","E_COORD97":183357.10000000001,"N_COORD97":2567536.8199999998,"ADDRESS":"烏山頭１８號","OBJECTID":302622},"geometry":{"x":183357.10000000149,"y":2567536.8200000003}},{"attributes":{"ID":302631,"DIS_CODE":0,"TOWNNAME":"官田區","LI":"湖山里","LIN":"3鄰","STREET":" ","SECT":" ","MAREA":"烏山頭","LANE":" ","ALLEY":" ","HOUSE_NO":"１９號之１","E_COORD97":183368.56,"N_COORD97":2567518.9100000001,"ADDRESS":"烏山頭１９號之１","OBJECTID":302623},"geometry":{"x":183368.55999999959,"y":2567518.9100000001}},{"attributes":{"ID":302632,"DIS_CODE":0,"TOWNNAME":"官田區","LI":"湖山里","LIN":"3鄰","STREET":" ","SECT":" ","MAREA":"烏山頭","LANE":" ","ALLEY":" ","HOUSE_NO":"１９號之２","E_COORD97":183389.67999999999,"N_COORD97":2567501.4500000002,"ADDRESS":"烏山頭１９號之２","OBJECTID":302624},"geometry":{"x":183389.6799999997,"y":2567501.4499999993}},{"attributes":{"ID":302633,"DIS_CODE":0,"TOWNNAME":"官田區","LI":"湖山里","LIN":"3鄰","STREET":" ","SECT":" ","MAREA":"烏山頭","LANE":" ","ALLEY":" ","HOUSE_NO":"１９號之３","E_COORD97":183382.39999999999,"N_COORD97":2567506.2400000002,"ADDRESS":"烏山頭１９號之３","OBJECTID":302625},"geometry":{"x":183382.40000000037,"y":2567506.2400000021}},{"attributes":{"ID":302634,"DIS_CODE":0,"TOWNNAME":"官田區","LI":"湖山里","LIN":"3鄰","STREET":" ","SECT":" ","MAREA":"烏山頭","LANE":" ","ALLEY":" ","HOUSE_NO":"１９號之４","E_COORD97":183379.94,"N_COORD97":2567500.1000000001,"ADDRESS":"烏山頭１９號之４","OBJECTID":302626},"geometry":{"x":183379.94000000134,"y":2567500.0999999996}},{"attributes":{"ID":302635,"DIS_CODE":0,"TOWNNAME":"官田區","LI":"湖山里","LIN":"1鄰","STREET":" ","SECT":" ","MAREA":"烏山頭","LANE":" ","ALLEY":" ","HOUSE_NO":"２號之１","E_COORD97":183279.22,"N_COORD97":2567417.71,"ADDRESS":"烏山頭２號之１","OBJECTID":302627},"geometry":{"x":183279.22000000067,"y":2567417.7100000028}},{"attributes":{"ID":302636,"DIS_CODE":0,"TOWNNAME":"官田區","LI":"湖山里","LIN":"1鄰","STREET":" ","SECT":" ","MAREA":"烏山頭","LANE":" ","ALLEY":" ","HOUSE_NO":"２號","E_COORD97":183268.13,"N_COORD97":2567412.8599999999,"ADDRESS":"烏山頭２號","OBJECTID":302628},"geometry":{"x":183268.12999999989,"y":2567412.8600000013}},{"attributes":{"ID":302637,"DIS_CODE":0,"TOWNNAME":"官田區","LI":"湖山里","LIN":"6鄰","STREET":" ","SECT":" ","MAREA":"烏山頭","LANE":" ","ALLEY":" ","HOUSE_NO":"２９號之２","E_COORD97":182917.54000000001,"N_COORD97":2567846.1899999999,"ADDRESS":"烏山頭２９號之２","OBJECTID":302629},"geometry":{"x":182917.54000000097,"y":2567846.1899999995}},{"attributes":{"ID":302638,"DIS_CODE":0,"TOWNNAME":"官田區","LI":"湖山里","LIN":"6鄰","STREET":" ","SECT":" ","MAREA":"烏山頭","LANE":" ","ALLEY":" ","HOUSE_NO":"２９號之３","E_COORD97":183138.75,"N_COORD97":2567644.3300000001,"ADDRESS":"烏山頭２９號之３","OBJECTID":302630},"geometry":{"x":183138.75,"y":2567644.3300000019}},{"attributes":{"ID":302639,"DIS_CODE":0,"TOWNNAME":"官田區","LI":"湖山里","LIN":"6鄰","STREET":" ","SECT":" ","MAREA":"烏山頭","LANE":" ","ALLEY":" ","HOUSE_NO":"２９號之７","E_COORD97":183111.17000000001,"N_COORD97":2567669.6600000001,"ADDRESS":"烏山頭２９號之７","OBJECTID":302631},"geometry":{"x":183111.17000000179,"y":2567669.6600000001}},{"attributes":{"ID":302640,"DIS_CODE":0,"TOWNNAME":"白河區","LI":"昇安里","LIN":"7鄰","STREET":" ","SECT":" ","MAREA":"三間厝","LANE":" ","ALLEY":" ","HOUSE_NO":"８２號","E_COORD97":192017.64999999999,"N_COORD97":2584665.71,"ADDRESS":"三間厝８２號","OBJECTID":302632},"geometry":{"x":192017.65000000037,"y":2584665.7100000028}},{"attributes":{"ID":302641,"DIS_CODE":0,"TOWNNAME":"白河區","LI":"昇安里","LIN":"7鄰","STREET":" ","SECT":" ","MAREA":"三間厝","LANE":" ","ALLEY":" ","HOUSE_NO":"８３號","E_COORD97":192033.72,"N_COORD97":2584692.6299999999,"ADDRESS":"三間厝８３號","OBJECTID":302633},"geometry":{"x":192033.71999999974,"y":2584692.629999999}},{"attributes":{"ID":302642,"DIS_CODE":0,"TOWNNAME":"白河區","LI":"昇安里","LIN":"7鄰","STREET":" ","SECT":" ","MAREA":"三間厝","LANE":" ","ALLEY":" ","HOUSE_NO":"８５號","E_COORD97":192035.04000000001,"N_COORD97":2584744.9900000002,"ADDRESS":"三間厝８５號","OBJECTID":302634},"geometry":{"x":192035.04000000004,"y":2584744.9900000002}},{"attributes":{"ID":302643,"DIS_CODE":0,"TOWNNAME":"白河區","LI":"昇安里","LIN":"7鄰","STREET":" ","SECT":" ","MAREA":"三間厝","LANE":" ","ALLEY":" ","HOUSE_NO":"８６號","E_COORD97":192063.76999999999,"N_COORD97":2584721.1699999999,"ADDRESS":"三間厝８６號","OBJECTID":302635},"geometry":{"x":192063.76999999955,"y":2584721.1700000037}},{"attributes":{"ID":302644,"DIS_CODE":0,"TOWNNAME":"白河區","LI":"昇安里","LIN":"7鄰","STREET":" ","SECT":" ","MAREA":"三間厝","LANE":" ","ALLEY":" ","HOUSE_NO":"８７號","E_COORD97":192053.67999999999,"N_COORD97":2584682.4900000002,"ADDRESS":"三間厝８７號","OBJECTID":302636},"geometry":{"x":192053.68000000063,"y":2584682.4900000021}},{"attributes":{"ID":302645,"DIS_CODE":0,"TOWNNAME":"白河區","LI":"昇安里","LIN":"7鄰","STREET":" ","SECT":" ","MAREA":"三間厝","LANE":" ","ALLEY":" ","HOUSE_NO":"８９號","E_COORD97":192083.19,"N_COORD97":2584688.8199999998,"ADDRESS":"三間厝８９號","OBJECTID":302637},"geometry":{"x":192083.19000000134,"y":2584688.8200000003}},{"attributes":{"ID":302646,"DIS_CODE":0,"TOWNNAME":"白河區","LI":"大竹里","LIN":"4鄰","STREET":" ","SECT":" ","MAREA":"大排竹","LANE":" ","ALLEY":" ","HOUSE_NO":"５２之１號","E_COORD97":189839.48999999999,"N_COORD97":2585354.9399999999,"ADDRESS":"大排竹５２之１號","OBJECTID":302638},"geometry":{"x":189839.49000000115,"y":2585354.9399999995}},{"attributes":{"ID":302647,"DIS_CODE":0,"TOWNNAME":"後壁區","LI":"福安里","LIN":"9鄰","STREET":" ","SECT":" ","MAREA":"下寮","LANE":" ","ALLEY":" ","HOUSE_NO":"９３號","E_COORD97":184190.12,"N_COORD97":2580955.3599999999,"ADDRESS":"下寮９３號","OBJECTID":302639},"geometry":{"x":184190.12000000104,"y":2580955.3599999994}},{"attributes":{"ID":302648,"DIS_CODE":0,"TOWNNAME":"歸仁區","LI":"媽廟里","LIN":"6鄰","STREET":"中正北路","SECT":"三段","MAREA":" ","LANE":" ","ALLEY":" ","HOUSE_NO":"１９７號","E_COORD97":177589.328694,"N_COORD97":2543842.5115800002,"ADDRESS":"中正北路三段１９７號","OBJECTID":302640},"geometry":{"x":177589.32869399991,"y":2543842.5115809999}},{"attributes":{"ID":302649,"DIS_CODE":0,"TOWNNAME":"安南區","LI":"安富里","LIN":"1鄰","STREET":"郡安路","SECT":"五段","MAREA":" ","LANE":"１９２巷","ALLEY":" ","HOUSE_NO":"１９號","E_COORD97":167369.5,"N_COORD97":2547724.0099999998,"ADDRESS":"郡安路五段１９２巷１９號","OBJECTID":302641},"geometry":{"x":167369.50000000093,"y":2547724.0100000016}},{"attributes":{"ID":302650,"DIS_CODE":0,"TOWNNAME":"安南區","LI":"安富里","LIN":"1鄰","STREET":"郡安路","SECT":"五段","MAREA":" ","LANE":"１９２巷","ALLEY":" ","HOUSE_NO":"１號","E_COORD97":167427.34,"N_COORD97":2547735.0099999998,"ADDRESS":"郡安路五段１９２巷１號","OBJECTID":302642},"geometry":{"x":167427.33999999985,"y":2547735.0099999998}},{"attributes":{"ID":302651,"DIS_CODE":0,"TOWNNAME":"歸仁區","LI":"武東里","LIN":"8鄰","STREET":"武東一街","SECT":" ","MAREA":" ","LANE":"４９巷","ALLEY":" ","HOUSE_NO":"６６號二樓之５","E_COORD97":175800.28,"N_COORD97":2535538.2999999998,"ADDRESS":"武東一街４９巷６６號二樓之５","OBJECTID":302643},"geometry":{"x":175800.28000000026,"y":2535538.3000000026}},{"attributes":{"ID":302652,"DIS_CODE":0,"TOWNNAME":"安平區","LI":"平通里","LIN":"18鄰","STREET":"永華路","SECT":"二段","MAREA":" ","LANE":" ","ALLEY":" ","HOUSE_NO":"８２０號","E_COORD97":164774.57000000001,"N_COORD97":2543596.5499999998,"ADDRESS":"永華路二段８２０號","OBJECTID":302644},"geometry":{"x":164774.5700000003,"y":2543596.5500000007}},{"attributes":{"ID":302653,"DIS_CODE":0,"TOWNNAME":"安平區","LI":"平通里","LIN":"18鄰","STREET":"永華路","SECT":"二段","MAREA":" ","LANE":" ","ALLEY":" ","HOUSE_NO":"８２２號","E_COORD97":164768.76000000001,"N_COORD97":2543597.71,"ADDRESS":"永華路二段８２２號","OBJECTID":302645},"geometry":{"x":164768.76000000071,"y":2543597.7100000028}},{"attributes":{"ID":302654,"DIS_CODE":0,"TOWNNAME":"歸仁區","LI":"媽廟里","LIN":"5鄰","STREET":"中正北路","SECT":"三段","MAREA":" ","LANE":" ","ALLEY":" ","HOUSE_NO":"１６５號","E_COORD97":177577.464118,"N_COORD97":2543765.67662,"ADDRESS":"中正北路三段１６５號","OBJECTID":302646},"geometry":{"x":177577.46411800105,"y":2543765.6766219996}},{"attributes":{"ID":302655,"DIS_CODE":0,"TOWNNAME":"安南區","LI":"安富里","LIN":"4鄰","STREET":"郡安路","SECT":"五段","MAREA":" ","LANE":"１８４巷","ALLEY":" ","HOUSE_NO":"４０號","E_COORD97":167478.95000000001,"N_COORD97":2547644.27,"ADDRESS":"郡安路五段１８４巷４０號","OBJECTID":302647},"geometry":{"x":167478.95000000112,"y":2547644.2700000014}},{"attributes":{"ID":302656,"DIS_CODE":0,"TOWNNAME":"安南區","LI":"安富里","LIN":"4鄰","STREET":"郡安路","SECT":"五段","MAREA":" ","LANE":"１８４巷","ALLEY":" ","HOUSE_NO":"４４號","E_COORD97":167480.25,"N_COORD97":2547636.0499999998,"ADDRESS":"郡安路五段１８４巷４４號","OBJECTID":302648},"geometry":{"x":167480.25,"y":2547636.0500000026}},{"attributes":{"ID":302657,"DIS_CODE":0,"TOWNNAME":"安南區","LI":"\u25A0南里","LIN":"32鄰","STREET":"安昌街","SECT":" ","MAREA":" ","LANE":"１７４巷","ALLEY":" ","HOUSE_NO":"４５號","E_COORD97":170119.17999999999,"N_COORD97":2552326.46,"ADDRESS":"安昌街１７４巷４５號","OBJECTID":302649},"geometry":{"x":170119.18000000063,"y":2552326.4600000028}},{"attributes":{"ID":302658,"DIS_CODE":0,"TOWNNAME":"安南區","LI":"安富里","LIN":"13鄰","STREET":"安富街","SECT":" ","MAREA":" ","LANE":"２５１巷","ALLEY":" ","HOUSE_NO":"３６號","E_COORD97":167536.19,"N_COORD97":2547348.5299999998,"ADDRESS":"安富街２５１巷３６號","OBJECTID":302650},"geometry":{"x":167536.19000000227,"y":2547348.5299999993}},{"attributes":{"ID":302659,"DIS_CODE":0,"TOWNNAME":"安南區","LI":"理想里","LIN":"4鄰","STREET":"海佃路","SECT":"二段","MAREA":" ","LANE":"３４２巷","ALLEY":" ","HOUSE_NO":"１５號","E_COORD97":166911.66,"N_COORD97":2548586.04,"ADDRESS":"海佃路二段３４２巷１５號","OBJECTID":302651},"geometry":{"x":166911.66000000015,"y":2548586.0399999991}},{"attributes":{"ID":302660,"DIS_CODE":0,"TOWNNAME":"安南區","LI":"理想里","LIN":"4鄰","STREET":"海佃路","SECT":"二段","MAREA":" ","LANE":"３４２巷","ALLEY":" ","HOUSE_NO":"１７號","E_COORD97":166916.62,"N_COORD97":2548583.5299999998,"ADDRESS":"海佃路二段３４２巷１７號","OBJECTID":302652},"geometry":{"x":166916.62000000104,"y":2548583.5300000031}},{"attributes":{"ID":302661,"DIS_CODE":0,"TOWNNAME":"安南區","LI":"海東里","LIN":"18鄰","STREET":"海佃路","SECT":"二段","MAREA":" ","LANE":"３０７巷","ALLEY":" ","HOUSE_NO":"１５號之１","E_COORD97":166736.95000000001,"N_COORD97":2548657.2999999998,"ADDRESS":"海佃路二段３０７巷１５號之１","OBJECTID":302653},"geometry":{"x":166736.95000000019,"y":2548657.3000000007}},{"attributes":{"ID":302662,"DIS_CODE":0,"TOWNNAME":"安南區","LI":"海東里","LIN":"18鄰","STREET":"海佃路","SECT":"二段","MAREA":" ","LANE":"３０７巷","ALLEY":" ","HOUSE_NO":"４９號","E_COORD97":166714.87,"N_COORD97":2548730.3900000001,"ADDRESS":"海佃路二段３０７巷４９號","OBJECTID":302654},"geometry":{"x":166714.87000000104,"y":2548730.3900000006}},{"attributes":{"ID":302663,"DIS_CODE":0,"TOWNNAME":"安南區","LI":"\u25A0南里","LIN":"32鄰","STREET":"安昌街","SECT":" ","MAREA":" ","LANE":"１７４巷","ALLEY":" ","HOUSE_NO":"５７號","E_COORD97":170120.34,"N_COORD97":2552298.27,"ADDRESS":"安昌街１７４巷５７號","OBJECTID":302655},"geometry":{"x":170120.34000000078,"y":2552298.2700000014}},{"attributes":{"ID":302664,"DIS_CODE":0,"TOWNNAME":"歸仁區","LI":"武東里","LIN":"8鄰","STREET":"武東一街","SECT":" ","MAREA":" ","LANE":"４９巷","ALLEY":" ","HOUSE_NO":"６６號四樓之２","E_COORD97":175800.26000000001,"N_COORD97":2535538.2999999998,"ADDRESS":"武東一街４９巷６６號四樓之２","OBJECTID":302656},"geometry":{"x":175800.25999999978,"y":2535538.3000000026}},{"attributes":{"ID":302665,"DIS_CODE":0,"TOWNNAME":"歸仁區","LI":"武東里","LIN":"8鄰","STREET":"武東一街","SECT":" ","MAREA":" ","LANE":"４９巷","ALLEY":" ","HOUSE_NO":"６８號二樓之６","E_COORD97":175800.23000000001,"N_COORD97":2535538.2999999998,"ADDRESS":"武東一街４９巷６８號二樓之６","OBJECTID":302657},"geometry":{"x":175800.23000000138,"y":2535538.3000000026}},{"attributes":{"ID":302666,"DIS_CODE":0,"TOWNNAME":"歸仁區","LI":"武東里","LIN":"8鄰","STREET":"武東一街","SECT":" ","MAREA":" ","LANE":"４９巷","ALLEY":" ","HOUSE_NO":"６６號三樓之４","E_COORD97":175800.14999999999,"N_COORD97":2535538.2999999998,"ADDRESS":"武東一街４９巷６６號三樓之４","OBJECTID":302658},"geometry":{"x":175800.15000000037,"y":2535538.3000000026}},{"attributes":{"ID":302667,"DIS_CODE":0,"TOWNNAME":"歸仁區","LI":"武東里","LIN":"8鄰","STREET":"武東一街","SECT":" ","MAREA":" ","LANE":"４９巷","ALLEY":" ","HOUSE_NO":"６６號四樓之５","E_COORD97":175800.28,"N_COORD97":2535538.2999999998,"ADDRESS":"武東一街４９巷６６號四樓之５","OBJECTID":302659},"geometry":{"x":175800.28000000026,"y":2535538.3000000026}},{"attributes":{"ID":302668,"DIS_CODE":0,"TOWNNAME":"歸仁區","LI":"武東里","LIN":"8鄰","STREET":"武東一街","SECT":" ","MAREA":" ","LANE":"４９巷","ALLEY":" ","HOUSE_NO":"６８號三樓之５","E_COORD97":175800.28,"N_COORD97":2535538.2999999998,"ADDRESS":"武東一街４９巷６８號三樓之５","OBJECTID":302660},"geometry":{"x":175800.28000000026,"y":2535538.3000000026}},{"attributes":{"ID":302669,"DIS_CODE":0,"TOWNNAME":"南區","LI":"金華里","LIN":"8鄰","STREET":"金華路","SECT":"二段","MAREA":" ","LANE":"５７巷","ALLEY":" ","HOUSE_NO":"６１號二樓","E_COORD97":166882.94,"N_COORD97":2542112.4100000001,"ADDRESS":"金華路二段５７巷６１號二樓","OBJECTID":302661},"geometry":{"x":166882.94000000041,"y":2542112.4100000001}},{"attributes":{"ID":302670,"DIS_CODE":0,"TOWNNAME":"北區","LI":"長榮里","LIN":"8鄰","STREET":"長榮路","SECT":"五段","MAREA":" ","LANE":"４１巷","ALLEY":" ","HOUSE_NO":"１０號二樓之１","E_COORD97":170043.01999999999,"N_COORD97":2545529.3300000001,"ADDRESS":"長榮路五段４１巷１０號二樓之１","OBJECTID":302662},"geometry":{"x":170043.01999999955,"y":2545529.3300000001}},{"attributes":{"ID":302671,"DIS_CODE":0,"TOWNNAME":"後壁區","LI":"長安里","LIN":"13鄰","STREET":" ","SECT":" ","MAREA":"中寮","LANE":" ","ALLEY":" ","HOUSE_NO":"１８６號","E_COORD97":184141.54999999999,"N_COORD97":2581449.1699999999,"ADDRESS":"中寮１８６號","OBJECTID":302663},"geometry":{"x":184141.55000000075,"y":2581449.1699999981}},{"attributes":{"ID":302672,"DIS_CODE":0,"TOWNNAME":"北區","LI":"長榮里","LIN":"8鄰","STREET":"長榮路","SECT":"五段","MAREA":" ","LANE":"４１巷","ALLEY":" ","HOUSE_NO":"１０號二樓之２","E_COORD97":170043.01999999999,"N_COORD97":2545529.3300000001,"ADDRESS":"長榮路五段４１巷１０號二樓之２","OBJECTID":302664},"geometry":{"x":170043.01999999955,"y":2545529.3300000001}},{"attributes":{"ID":302673,"DIS_CODE":0,"TOWNNAME":"北區","LI":"長榮里","LIN":"8鄰","STREET":"長榮路","SECT":"五段","MAREA":" ","LANE":"４１巷","ALLEY":" ","HOUSE_NO":"１０號三樓之１","E_COORD97":170043.01999999999,"N_COORD97":2545529.3300000001,"ADDRESS":"長榮路五段４１巷１０號三樓之１","OBJECTID":302665},"geometry":{"x":170043.01999999955,"y":2545529.3300000001}},{"attributes":{"ID":302674,"DIS_CODE":0,"TOWNNAME":"安平區","LI":"平通里","LIN":"18鄰","STREET":"永華路","SECT":"二段","MAREA":" ","LANE":" ","ALLEY":" ","HOUSE_NO":"８２４號","E_COORD97":164762.79000000001,"N_COORD97":2543598.7000000002,"ADDRESS":"永華路二段８２４號","OBJECTID":302666},"geometry":{"x":164762.79000000004,"y":2543598.7000000011}},{"attributes":{"ID":302675,"DIS_CODE":0,"TOWNNAME":"安平區","LI":"平通里","LIN":"18鄰","STREET":"永華路","SECT":"二段","MAREA":" ","LANE":" ","ALLEY":" ","HOUSE_NO":"８２６號","E_COORD97":164757.14999999999,"N_COORD97":2543599.2000000002,"ADDRESS":"永華路二段８２６號","OBJECTID":302667},"geometry":{"x":164757.15000000037,"y":2543599.2000000011}},{"attributes":{"ID":302676,"DIS_CODE":0,"TOWNNAME":"安平區","LI":"平通里","LIN":"18鄰","STREET":"永華路","SECT":"二段","MAREA":" ","LANE":" ","ALLEY":" ","HOUSE_NO":"８２８號","E_COORD97":164751.01999999999,"N_COORD97":2543600.1899999999,"ADDRESS":"永華路二段８２８號","OBJECTID":302668},"geometry":{"x":164751.01999999862,"y":2543600.1900000013}},{"attributes":{"ID":302677,"DIS_CODE":0,"TOWNNAME":"安平區","LI":"平通里","LIN":"18鄰","STREET":"永華路","SECT":"二段","MAREA":" ","LANE":" ","ALLEY":" ","HOUSE_NO":"８３０號","E_COORD97":164744.54999999999,"N_COORD97":2543601.02,"ADDRESS":"永華路二段８３０號","OBJECTID":302669},"geometry":{"x":164744.55000000075,"y":2543601.0200000014}},{"attributes":{"ID":302678,"DIS_CODE":0,"TOWNNAME":"安平區","LI":"平通里","LIN":"18鄰","STREET":"永華路","SECT":"二段","MAREA":" ","LANE":" ","ALLEY":" ","HOUSE_NO":"８３２號","E_COORD97":164738.73999999999,"N_COORD97":2543601.52,"ADDRESS":"永華路二段８３２號","OBJECTID":302670},"geometry":{"x":164738.74000000115,"y":2543601.5200000014}},{"attributes":{"ID":302679,"DIS_CODE":0,"TOWNNAME":"東區","LI":"崇成里","LIN":"14鄰","STREET":"崇明十六街","SECT":" ","MAREA":" ","LANE":" ","ALLEY":" ","HOUSE_NO":"４８號","E_COORD97":170737.79000000001,"N_COORD97":2541280.5800000001,"ADDRESS":"崇明十六街４８號","OBJECTID":302671},"geometry":{"x":170737.79000000097,"y":2541280.5800000001}},{"attributes":{"ID":302680,"DIS_CODE":0,"TOWNNAME":"東區","LI":"崇成里","LIN":"14鄰","STREET":"崇明十六街","SECT":" ","MAREA":" ","LANE":" ","ALLEY":" ","HOUSE_NO":"４９號","E_COORD97":170698.72,"N_COORD97":2541311.5099999998,"ADDRESS":"崇明十六街４９號","OBJECTID":302672},"geometry":{"x":170698.72000000067,"y":2541311.5100000035}},{"attributes":{"ID":302681,"DIS_CODE":0,"TOWNNAME":"東區","LI":"崇成里","LIN":"14鄰","STREET":"崇明十六街","SECT":" ","MAREA":" ","LANE":" ","ALLEY":" ","HOUSE_NO":"４號","E_COORD97":170642.20999999999,"N_COORD97":2541282.3300000001,"ADDRESS":"崇明十六街４號","OBJECTID":302673},"geometry":{"x":170642.20999999996,"y":2541282.3300000001}},{"attributes":{"ID":302682,"DIS_CODE":0,"TOWNNAME":"東區","LI":"崇成里","LIN":"14鄰","STREET":"崇明十六街","SECT":" ","MAREA":" ","LANE":" ","ALLEY":" ","HOUSE_NO":"５０號","E_COORD97":170741.79000000001,"N_COORD97":2541280.6000000001,"ADDRESS":"崇明十六街５０號","OBJECTID":302674},"geometry":{"x":170741.79000000004,"y":2541280.6000000034}},{"attributes":{"ID":302683,"DIS_CODE":0,"TOWNNAME":"東區","LI":"崇成里","LIN":"14鄰","STREET":"崇明十六街","SECT":" ","MAREA":" ","LANE":" ","ALLEY":" ","HOUSE_NO":"５１號","E_COORD97":170708.56,"N_COORD97":2541317.0899999999,"ADDRESS":"崇明十六街５１號","OBJECTID":302675},"geometry":{"x":170708.56000000052,"y":2541317.0899999999}},{"attributes":{"ID":302684,"DIS_CODE":0,"TOWNNAME":"歸仁區","LI":"媽廟里","LIN":"10鄰","STREET":"中正北路","SECT":"三段","MAREA":" ","LANE":" ","ALLEY":" ","HOUSE_NO":"２１５號","E_COORD97":177600.133932,"N_COORD97":2543883.1515600001,"ADDRESS":"中正北路三段２１５號","OBJECTID":302676},"geometry":{"x":177600.13393200003,"y":2543883.1515590008}},{"attributes":{"ID":302685,"DIS_CODE":0,"TOWNNAME":"新市區","LI":"港墘里","LIN":"12鄰","STREET":"中山路","SECT":" ","MAREA":" ","LANE":" ","ALLEY":" ","HOUSE_NO":"１３７號","E_COORD97":178293.17738899999,"N_COORD97":2552554.1978699998,"ADDRESS":"中山路１３７號","OBJECTID":302677},"geometry":{"x":178293.17738899961,"y":2552554.1978720017}},{"attributes":{"ID":302686,"DIS_CODE":0,"TOWNNAME":"北區","LI":"長榮里","LIN":"8鄰","STREET":"長榮路","SECT":"五段","MAREA":" ","LANE":"４１巷","ALLEY":" ","HOUSE_NO":"１０號三樓之２","E_COORD97":170043.01999999999,"N_COORD97":2545529.3300000001,"ADDRESS":"長榮路五段４１巷１０號三樓之２","OBJECTID":302678},"geometry":{"x":170043.01999999955,"y":2545529.3300000001}},{"attributes":{"ID":302687,"DIS_CODE":0,"TOWNNAME":"後壁區","LI":"嘉苳里","LIN":"4鄰","STREET":" ","SECT":" ","MAREA":"下茄苳","LANE":" ","ALLEY":" ","HOUSE_NO":"５５號","E_COORD97":185275.48999999999,"N_COORD97":2583344.0600000001,"ADDRESS":"下茄苳５５號","OBJECTID":302679},"geometry":{"x":185275.49000000022,"y":2583344.0600000024}},{"attributes":{"ID":302688,"DIS_CODE":0,"TOWNNAME":"北區","LI":"長榮里","LIN":"8鄰","STREET":"長榮路","SECT":"五段","MAREA":" ","LANE":"４１巷","ALLEY":" ","HOUSE_NO":"１０號四樓之１","E_COORD97":170043.01999999999,"N_COORD97":2545529.3300000001,"ADDRESS":"長榮路五段４１巷１０號四樓之１","OBJECTID":302680},"geometry":{"x":170043.01999999955,"y":2545529.3300000001}},{"attributes":{"ID":302689,"DIS_CODE":0,"TOWNNAME":"北區","LI":"長榮里","LIN":"8鄰","STREET":"長榮路","SECT":"五段","MAREA":" ","LANE":"４１巷","ALLEY":" ","HOUSE_NO":"１０號四樓之２","E_COORD97":170043.01999999999,"N_COORD97":2545529.3300000001,"ADDRESS":"長榮路五段４１巷１０號四樓之２","OBJECTID":302681},"geometry":{"x":170043.01999999955,"y":2545529.3300000001}},{"attributes":{"ID":302690,"DIS_CODE":0,"TOWNNAME":"北區","LI":"長榮里","LIN":"8鄰","STREET":"長榮路","SECT":"五段","MAREA":" ","LANE":"４１巷","ALLEY":" ","HOUSE_NO":"１０號四樓之３","E_COORD97":170043.01999999999,"N_COORD97":2545529.3300000001,"ADDRESS":"長榮路五段４１巷１０號四樓之３","OBJECTID":302682},"geometry":{"x":170043.01999999955,"y":2545529.3300000001}},{"attributes":{"ID":302691,"DIS_CODE":0,"TOWNNAME":"北區","LI":"長榮里","LIN":"8鄰","STREET":"長榮路","SECT":"五段","MAREA":" ","LANE":"４１巷","ALLEY":" ","HOUSE_NO":"１０號四樓之５","E_COORD97":170043.01999999999,"N_COORD97":2545529.3300000001,"ADDRESS":"長榮路五段４１巷１０號四樓之５","OBJECTID":302683},"geometry":{"x":170043.01999999955,"y":2545529.3300000001}},{"attributes":{"ID":302692,"DIS_CODE":0,"TOWNNAME":"北區","LI":"長榮里","LIN":"8鄰","STREET":"長榮路","SECT":"五段","MAREA":" ","LANE":"４１巷","ALLEY":" ","HOUSE_NO":"１０號五樓之１","E_COORD97":170043.01999999999,"N_COORD97":2545529.3300000001,"ADDRESS":"長榮路五段４１巷１０號五樓之１","OBJECTID":302684},"geometry":{"x":170043.01999999955,"y":2545529.3300000001}},{"attributes":{"ID":302693,"DIS_CODE":0,"TOWNNAME":"北區","LI":"長榮里","LIN":"8鄰","STREET":"長榮路","SECT":"五段","MAREA":" ","LANE":"４１巷","ALLEY":" ","HOUSE_NO":"１０號五樓之２","E_COORD97":170043.01999999999,"N_COORD97":2545529.3300000001,"ADDRESS":"長榮路五段４１巷１０號五樓之２","OBJECTID":302685},"geometry":{"x":170043.01999999955,"y":2545529.3300000001}},{"attributes":{"ID":302694,"DIS_CODE":0,"TOWNNAME":"北區","LI":"長榮里","LIN":"8鄰","STREET":"長榮路","SECT":"五段","MAREA":" ","LANE":"４１巷","ALLEY":" ","HOUSE_NO":"１０號五樓之３","E_COORD97":170043.01999999999,"N_COORD97":2545529.3300000001,"ADDRESS":"長榮路五段４１巷１０號五樓之３","OBJECTID":302686},"geometry":{"x":170043.01999999955,"y":2545529.3300000001}},{"attributes":{"ID":302695,"DIS_CODE":0,"TOWNNAME":"北區","LI":"長榮里","LIN":"8鄰","STREET":"長榮路","SECT":"五段","MAREA":" ","LANE":"４１巷","ALLEY":" ","HOUSE_NO":"１０號五樓之５","E_COORD97":170043.01999999999,"N_COORD97":2545529.3300000001,"ADDRESS":"長榮路五段４１巷１０號五樓之５","OBJECTID":302687},"geometry":{"x":170043.01999999955,"y":2545529.3300000001}},{"attributes":{"ID":302696,"DIS_CODE":0,"TOWNNAME":"北區","LI":"長榮里","LIN":"8鄰","STREET":"長榮路","SECT":"五段","MAREA":" ","LANE":"４１巷","ALLEY":" ","HOUSE_NO":"１０號六樓之１","E_COORD97":170043.01999999999,"N_COORD97":2545529.3300000001,"ADDRESS":"長榮路五段４１巷１０號六樓之１","OBJECTID":302688},"geometry":{"x":170043.01999999955,"y":2545529.3300000001}},{"attributes":{"ID":302697,"DIS_CODE":0,"TOWNNAME":"北區","LI":"長榮里","LIN":"8鄰","STREET":"長榮路","SECT":"五段","MAREA":" ","LANE":"４１巷","ALLEY":" ","HOUSE_NO":"１０號六樓之２","E_COORD97":170043.01999999999,"N_COORD97":2545529.3300000001,"ADDRESS":"長榮路五段４１巷１０號六樓之２","OBJECTID":302689},"geometry":{"x":170043.01999999955,"y":2545529.3300000001}},{"attributes":{"ID":302698,"DIS_CODE":0,"TOWNNAME":"北區","LI":"長榮里","LIN":"8鄰","STREET":"長榮路","SECT":"五段","MAREA":" ","LANE":"４１巷","ALLEY":" ","HOUSE_NO":"１０號六樓之３","E_COORD97":170043.01999999999,"N_COORD97":2545529.3300000001,"ADDRESS":"長榮路五段４１巷１０號六樓之３","OBJECTID":302690},"geometry":{"x":170043.01999999955,"y":2545529.3300000001}},{"attributes":{"ID":302699,"DIS_CODE":0,"TOWNNAME":"北區","LI":"長榮里","LIN":"8鄰","STREET":"長榮路","SECT":"五段","MAREA":" ","LANE":"４１巷","ALLEY":" ","HOUSE_NO":"１０號六樓之５","E_COORD97":170043.01999999999,"N_COORD97":2545529.3300000001,"ADDRESS":"長榮路五段４１巷１０號六樓之５","OBJECTID":302691},"geometry":{"x":170043.01999999955,"y":2545529.3300000001}},{"attributes":{"ID":302700,"DIS_CODE":0,"TOWNNAME":"北區","LI":"長榮里","LIN":"8鄰","STREET":"長榮路","SECT":"五段","MAREA":" ","LANE":"４１巷","ALLEY":" ","HOUSE_NO":"１０號七樓之１","E_COORD97":170043.01999999999,"N_COORD97":2545529.3300000001,"ADDRESS":"長榮路五段４１巷１０號七樓之１","OBJECTID":302692},"geometry":{"x":170043.01999999955,"y":2545529.3300000001}},{"attributes":{"ID":302701,"DIS_CODE":0,"TOWNNAME":"北區","LI":"長榮里","LIN":"8鄰","STREET":"長榮路","SECT":"五段","MAREA":" ","LANE":"４１巷","ALLEY":" ","HOUSE_NO":"１０號七樓之２","E_COORD97":170043.01999999999,"N_COORD97":2545529.3300000001,"ADDRESS":"長榮路五段４１巷１０號七樓之２","OBJECTID":302693},"geometry":{"x":170043.01999999955,"y":2545529.3300000001}},{"attributes":{"ID":302702,"DIS_CODE":0,"TOWNNAME":"東區","LI":"崇成里","LIN":"14鄰","STREET":"崇明十六街","SECT":" ","MAREA":" ","LANE":" ","ALLEY":" ","HOUSE_NO":"５２號","E_COORD97":170745.70999999999,"N_COORD97":2541280.6000000001,"ADDRESS":"崇明十六街５２號","OBJECTID":302694},"geometry":{"x":170745.70999999996,"y":2541280.6000000034}},{"attributes":{"ID":302703,"DIS_CODE":0,"TOWNNAME":"東區","LI":"崇成里","LIN":"14鄰","STREET":"崇明十六街","SECT":" ","MAREA":" ","LANE":" ","ALLEY":" ","HOUSE_NO":"５４號","E_COORD97":170750.88,"N_COORD97":2541280.6000000001,"ADDRESS":"崇明十六街５４號","OBJECTID":302695},"geometry":{"x":170750.87999999989,"y":2541280.6000000034}},{"attributes":{"ID":302704,"DIS_CODE":0,"TOWNNAME":"東區","LI":"崇成里","LIN":"14鄰","STREET":"崇明十六街","SECT":" ","MAREA":" ","LANE":" ","ALLEY":" ","HOUSE_NO":"５５之１號","E_COORD97":170732.16,"N_COORD97":2541310.7400000002,"ADDRESS":"崇明十六街５５之１號","OBJECTID":302696},"geometry":{"x":170732.16000000108,"y":2541310.7400000039}},{"attributes":{"ID":302705,"DIS_CODE":0,"TOWNNAME":"歸仁區","LI":"媽廟里","LIN":"5鄰","STREET":"和順路","SECT":"一段","MAREA":" ","LANE":" ","ALLEY":" ","HOUSE_NO":"２號","E_COORD97":177554.87390599999,"N_COORD97":2543727.0554900002,"ADDRESS":"和順路一段２號","OBJECTID":302697},"geometry":{"x":177554.87390600052,"y":2543727.055490002}},{"attributes":{"ID":302706,"DIS_CODE":0,"TOWNNAME":"安南區","LI":"鳳凰里","LIN":"4鄰","STREET":"安中路","SECT":"一段","MAREA":" ","LANE":"６９８巷","ALLEY":" ","HOUSE_NO":"２４號","E_COORD97":167754.13,"N_COORD97":2549207.2000000002,"ADDRESS":"安中路一段６９８巷２４號","OBJECTID":302698},"geometry":{"x":167754.12999999989,"y":2549207.2000000011}},{"attributes":{"ID":302707,"DIS_CODE":0,"TOWNNAME":"北區","LI":"長榮里","LIN":"8鄰","STREET":"長榮路","SECT":"五段","MAREA":" ","LANE":"４１巷","ALLEY":" ","HOUSE_NO":"１０號八樓之１","E_COORD97":170043.01999999999,"N_COORD97":2545529.3300000001,"ADDRESS":"長榮路五段４１巷１０號八樓之１","OBJECTID":302699},"geometry":{"x":170043.01999999955,"y":2545529.3300000001}},{"attributes":{"ID":302708,"DIS_CODE":0,"TOWNNAME":"北區","LI":"長榮里","LIN":"8鄰","STREET":"長榮路","SECT":"五段","MAREA":" ","LANE":"４１巷","ALLEY":" ","HOUSE_NO":"１０號八樓之２","E_COORD97":170043.01999999999,"N_COORD97":2545529.3300000001,"ADDRESS":"長榮路五段４１巷１０號八樓之２","OBJECTID":302700},"geometry":{"x":170043.01999999955,"y":2545529.3300000001}},{"attributes":{"ID":302709,"DIS_CODE":0,"TOWNNAME":"北區","LI":"長榮里","LIN":"8鄰","STREET":"長榮路","SECT":"五段","MAREA":" ","LANE":"４１巷","ALLEY":" ","HOUSE_NO":"１０號八樓之３","E_COORD97":170043.01999999999,"N_COORD97":2545529.3300000001,"ADDRESS":"長榮路五段４１巷１０號八樓之３","OBJECTID":302701},"geometry":{"x":170043.01999999955,"y":2545529.3300000001}},{"attributes":{"ID":302710,"DIS_CODE":0,"TOWNNAME":"北區","LI":"長榮里","LIN":"8鄰","STREET":"長榮路","SECT":"五段","MAREA":" ","LANE":"４１巷","ALLEY":" ","HOUSE_NO":"１０號八樓之５","E_COORD97":170043.01999999999,"N_COORD97":2545529.3300000001,"ADDRESS":"長榮路五段４１巷１０號八樓之５","OBJECTID":302702},"geometry":{"x":170043.01999999955,"y":2545529.3300000001}},{"attributes":{"ID":302711,"DIS_CODE":0,"TOWNNAME":"北區","LI":"長榮里","LIN":"8鄰","STREET":"長榮路","SECT":"五段","MAREA":" ","LANE":"４１巷","ALLEY":" ","HOUSE_NO":"１０號九樓之１","E_COORD97":170043.01999999999,"N_COORD97":2545529.3300000001,"ADDRESS":"長榮路五段４１巷１０號九樓之１","OBJECTID":302703},"geometry":{"x":170043.01999999955,"y":2545529.3300000001}},{"attributes":{"ID":302712,"DIS_CODE":0,"TOWNNAME":"北區","LI":"長榮里","LIN":"8鄰","STREET":"長榮路","SECT":"五段","MAREA":" ","LANE":"４１巷","ALLEY":" ","HOUSE_NO":"１０號九樓之２","E_COORD97":170043.01999999999,"N_COORD97":2545529.3300000001,"ADDRESS":"長榮路五段４１巷１０號九樓之２","OBJECTID":302704},"geometry":{"x":170043.01999999955,"y":2545529.3300000001}},{"attributes":{"ID":302713,"DIS_CODE":0,"TOWNNAME":"北區","LI":"長榮里","LIN":"8鄰","STREET":"長榮路","SECT":"五段","MAREA":" ","LANE":"４１巷","ALLEY":" ","HOUSE_NO":"１０號九樓之３","E_COORD97":170043.01999999999,"N_COORD97":2545529.3300000001,"ADDRESS":"長榮路五段４１巷１０號九樓之３","OBJECTID":302705},"geometry":{"x":170043.01999999955,"y":2545529.3300000001}},{"attributes":{"ID":302714,"DIS_CODE":0,"TOWNNAME":"北區","LI":"長榮里","LIN":"8鄰","STREET":"長榮路","SECT":"五段","MAREA":" ","LANE":"４１巷","ALLEY":" ","HOUSE_NO":"１０號九樓之５","E_COORD97":170043.01999999999,"N_COORD97":2545529.3300000001,"ADDRESS":"長榮路五段４１巷１０號九樓之５","OBJECTID":302706},"geometry":{"x":170043.01999999955,"y":2545529.3300000001}},{"attributes":{"ID":302715,"DIS_CODE":0,"TOWNNAME":"北區","LI":"長榮里","LIN":"8鄰","STREET":"長榮路","SECT":"五段","MAREA":" ","LANE":"４１巷","ALLEY":" ","HOUSE_NO":"１０號十樓之１","E_COORD97":170043.01999999999,"N_COORD97":2545529.3300000001,"ADDRESS":"長榮路五段４１巷１０號十樓之１","OBJECTID":302707},"geometry":{"x":170043.01999999955,"y":2545529.3300000001}},{"attributes":{"ID":302716,"DIS_CODE":0,"TOWNNAME":"北區","LI":"長榮里","LIN":"8鄰","STREET":"長榮路","SECT":"五段","MAREA":" ","LANE":"４１巷","ALLEY":" ","HOUSE_NO":"１０號十樓之２","E_COORD97":170043.01999999999,"N_COORD97":2545529.3300000001,"ADDRESS":"長榮路五段４１巷１０號十樓之２","OBJECTID":302708},"geometry":{"x":170043.01999999955,"y":2545529.3300000001}},{"attributes":{"ID":302717,"DIS_CODE":0,"TOWNNAME":"北區","LI":"長榮里","LIN":"8鄰","STREET":"長榮路","SECT":"五段","MAREA":" ","LANE":"４１巷","ALLEY":" ","HOUSE_NO":"１０號十樓之３","E_COORD97":170043.01999999999,"N_COORD97":2545529.3300000001,"ADDRESS":"長榮路五段４１巷１０號十樓之３","OBJECTID":302709},"geometry":{"x":170043.01999999955,"y":2545529.3300000001}},{"attributes":{"ID":302718,"DIS_CODE":0,"TOWNNAME":"北區","LI":"長榮里","LIN":"8鄰","STREET":"長榮路","SECT":"五段","MAREA":" ","LANE":"４１巷","ALLEY":" ","HOUSE_NO":"１０號十樓之５","E_COORD97":170043.01999999999,"N_COORD97":2545529.3300000001,"ADDRESS":"長榮路五段４１巷１０號十樓之５","OBJECTID":302710},"geometry":{"x":170043.01999999955,"y":2545529.3300000001}},{"attributes":{"ID":302719,"DIS_CODE":0,"TOWNNAME":"北區","LI":"長榮里","LIN":"8鄰","STREET":"長榮路","SECT":"五段","MAREA":" ","LANE":"４１巷","ALLEY":" ","HOUSE_NO":"１０號十一樓之１","E_COORD97":170043.01999999999,"N_COORD97":2545529.3300000001,"ADDRESS":"長榮路五段４１巷１０號十一樓之１","OBJECTID":302711},"geometry":{"x":170043.01999999955,"y":2545529.3300000001}},{"attributes":{"ID":302720,"DIS_CODE":0,"TOWNNAME":"北區","LI":"長榮里","LIN":"8鄰","STREET":"長榮路","SECT":"五段","MAREA":" ","LANE":"４１巷","ALLEY":" ","HOUSE_NO":"１０號十一樓之２","E_COORD97":170043.01999999999,"N_COORD97":2545529.3300000001,"ADDRESS":"長榮路五段４１巷１０號十一樓之２","OBJECTID":302712},"geometry":{"x":170043.01999999955,"y":2545529.3300000001}},{"attributes":{"ID":302721,"DIS_CODE":0,"TOWNNAME":"北區","LI":"長榮里","LIN":"8鄰","STREET":"長榮路","SECT":"五段","MAREA":" ","LANE":"４１巷","ALLEY":" ","HOUSE_NO":"１０號十一樓之３","E_COORD97":170043.01999999999,"N_COORD97":2545529.3300000001,"ADDRESS":"長榮路五段４１巷１０號十一樓之３","OBJECTID":302713},"geometry":{"x":170043.01999999955,"y":2545529.3300000001}},{"attributes":{"ID":302722,"DIS_CODE":0,"TOWNNAME":"北區","LI":"長榮里","LIN":"8鄰","STREET":"長榮路","SECT":"五段","MAREA":" ","LANE":"４１巷","ALLEY":" ","HOUSE_NO":"１０號十一樓之５","E_COORD97":170043.01999999999,"N_COORD97":2545529.3300000001,"ADDRESS":"長榮路五段４１巷１０號十一樓之５","OBJECTID":302714},"geometry":{"x":170043.01999999955,"y":2545529.3300000001}},{"attributes":{"ID":302723,"DIS_CODE":0,"TOWNNAME":"北區","LI":"長榮里","LIN":"8鄰","STREET":"長榮路","SECT":"五段","MAREA":" ","LANE":"４１巷","ALLEY":" ","HOUSE_NO":"１０號十二樓之１","E_COORD97":170043.01999999999,"N_COORD97":2545529.3300000001,"ADDRESS":"長榮路五段４１巷１０號十二樓之１","OBJECTID":302715},"geometry":{"x":170043.01999999955,"y":2545529.3300000001}},{"attributes":{"ID":302724,"DIS_CODE":0,"TOWNNAME":"北區","LI":"長榮里","LIN":"8鄰","STREET":"長榮路","SECT":"五段","MAREA":" ","LANE":"４１巷","ALLEY":" ","HOUSE_NO":"１０號十二樓之２","E_COORD97":170043.01999999999,"N_COORD97":2545529.3300000001,"ADDRESS":"長榮路五段４１巷１０號十二樓之２","OBJECTID":302716},"geometry":{"x":170043.01999999955,"y":2545529.3300000001}},{"attributes":{"ID":302725,"DIS_CODE":0,"TOWNNAME":"北區","LI":"長榮里","LIN":"8鄰","STREET":"長榮路","SECT":"五段","MAREA":" ","LANE":"４１巷","ALLEY":" ","HOUSE_NO":"１０號十二樓之３","E_COORD97":170043.01999999999,"N_COORD97":2545529.3300000001,"ADDRESS":"長榮路五段４１巷１０號十二樓之３","OBJECTID":302717},"geometry":{"x":170043.01999999955,"y":2545529.3300000001}},{"attributes":{"ID":302726,"DIS_CODE":0,"TOWNNAME":"北區","LI":"長榮里","LIN":"8鄰","STREET":"長榮路","SECT":"五段","MAREA":" ","LANE":"４１巷","ALLEY":" ","HOUSE_NO":"１０號十二樓之５","E_COORD97":170043.01999999999,"N_COORD97":2545529.3300000001,"ADDRESS":"長榮路五段４１巷１０號十二樓之５","OBJECTID":302718},"geometry":{"x":170043.01999999955,"y":2545529.3300000001}},{"attributes":{"ID":302727,"DIS_CODE":0,"TOWNNAME":"北區","LI":"長榮里","LIN":"8鄰","STREET":"長榮路","SECT":"五段","MAREA":" ","LANE":"４１巷","ALLEY":" ","HOUSE_NO":"１０號十三樓之１","E_COORD97":170043.01999999999,"N_COORD97":2545529.3300000001,"ADDRESS":"長榮路五段４１巷１０號十三樓之１","OBJECTID":302719},"geometry":{"x":170043.01999999955,"y":2545529.3300000001}},{"attributes":{"ID":302728,"DIS_CODE":0,"TOWNNAME":"北區","LI":"長榮里","LIN":"8鄰","STREET":"長榮路","SECT":"五段","MAREA":" ","LANE":"４１巷","ALLEY":" ","HOUSE_NO":"１０號十三樓之２","E_COORD97":170043.01999999999,"N_COORD97":2545529.3300000001,"ADDRESS":"長榮路五段４１巷１０號十三樓之２","OBJECTID":302720},"geometry":{"x":170043.01999999955,"y":2545529.3300000001}},{"attributes":{"ID":302729,"DIS_CODE":0,"TOWNNAME":"東區","LI":"崇成里","LIN":"14鄰","STREET":"崇明十六街","SECT":" ","MAREA":" ","LANE":" ","ALLEY":" ","HOUSE_NO":"５５號","E_COORD97":170724.34,"N_COORD97":2541309.9300000002,"ADDRESS":"崇明十六街５５號","OBJECTID":302721},"geometry":{"x":170724.33999999985,"y":2541309.9300000016}},{"attributes":{"ID":302730,"DIS_CODE":0,"TOWNNAME":"東區","LI":"崇成里","LIN":"14鄰","STREET":"崇明十六街","SECT":" ","MAREA":" ","LANE":" ","ALLEY":" ","HOUSE_NO":"５５號之６","E_COORD97":170745.41,"N_COORD97":2541311.1499999999,"ADDRESS":"崇明十六街５５號之６","OBJECTID":302722},"geometry":{"x":170745.41000000108,"y":2541311.1499999985}},{"attributes":{"ID":302731,"DIS_CODE":0,"TOWNNAME":"安南區","LI":"梅花里","LIN":"1鄰","STREET":"安中路","SECT":"一段","MAREA":" ","LANE":"６１９巷","ALLEY":" ","HOUSE_NO":"１６號","E_COORD97":167792.54000000001,"N_COORD97":2549064,"ADDRESS":"安中路一段６１９巷１６號","OBJECTID":302723},"geometry":{"x":167792.53999999911,"y":2549064.0000000019}},{"attributes":{"ID":302732,"DIS_CODE":0,"TOWNNAME":"安南區","LI":"梅花里","LIN":"1鄰","STREET":"安中路","SECT":"一段","MAREA":" ","LANE":"６１９巷","ALLEY":" ","HOUSE_NO":"１８號","E_COORD97":167776.09,"N_COORD97":2549068.5,"ADDRESS":"安中路一段６１９巷１８號","OBJECTID":302724},"geometry":{"x":167776.08999999985,"y":2549068.5}},{"attributes":{"ID":302733,"DIS_CODE":0,"TOWNNAME":"安南區","LI":"梅花里","LIN":"1鄰","STREET":"安中路","SECT":"一段","MAREA":" ","LANE":"６１９巷","ALLEY":" ","HOUSE_NO":"２０號","E_COORD97":167788.03,"N_COORD97":2549052.6200000001,"ADDRESS":"安中路一段６１９巷２０號","OBJECTID":302725},"geometry":{"x":167788.03000000119,"y":2549052.6200000048}},{"attributes":{"ID":302734,"DIS_CODE":0,"TOWNNAME":"安南區","LI":"梅花里","LIN":"1鄰","STREET":"安中路","SECT":"一段","MAREA":" ","LANE":"６１９巷","ALLEY":" ","HOUSE_NO":"２８號","E_COORD97":167787.04999999999,"N_COORD97":2549041.27,"ADDRESS":"安中路一段６１９巷２８號","OBJECTID":302726},"geometry":{"x":167787.04999999981,"y":2549041.2700000014}},{"attributes":{"ID":302735,"DIS_CODE":0,"TOWNNAME":"安南區","LI":"鳳凰里","LIN":"19鄰","STREET":"安中路","SECT":"一段","MAREA":" ","LANE":"７０２巷","ALLEY":" ","HOUSE_NO":"１２２號","E_COORD97":167973.88,"N_COORD97":2549294.54,"ADDRESS":"安中路一段７０２巷１２２號","OBJECTID":302727},"geometry":{"x":167973.88000000082,"y":2549294.5399999991}},{"attributes":{"ID":302736,"DIS_CODE":0,"TOWNNAME":"北區","LI":"長榮里","LIN":"8鄰","STREET":"長榮路","SECT":"五段","MAREA":" ","LANE":"４１巷","ALLEY":" ","HOUSE_NO":"１０號十三樓之３","E_COORD97":170043.01999999999,"N_COORD97":2545529.3300000001,"ADDRESS":"長榮路五段４１巷１０號十三樓之３","OBJECTID":302728},"geometry":{"x":170043.01999999955,"y":2545529.3300000001}},{"attributes":{"ID":302737,"DIS_CODE":0,"TOWNNAME":"北區","LI":"長榮里","LIN":"8鄰","STREET":"長榮路","SECT":"五段","MAREA":" ","LANE":"４１巷","ALLEY":" ","HOUSE_NO":"１０號十三樓之５","E_COORD97":170043.01999999999,"N_COORD97":2545529.3300000001,"ADDRESS":"長榮路五段４１巷１０號十三樓之５","OBJECTID":302729},"geometry":{"x":170043.01999999955,"y":2545529.3300000001}},{"attributes":{"ID":302738,"DIS_CODE":0,"TOWNNAME":"北區","LI":"長榮里","LIN":"8鄰","STREET":"長榮路","SECT":"五段","MAREA":" ","LANE":"４１巷","ALLEY":" ","HOUSE_NO":"１０號十四樓之１","E_COORD97":170043.01999999999,"N_COORD97":2545529.3300000001,"ADDRESS":"長榮路五段４１巷１０號十四樓之１","OBJECTID":302730},"geometry":{"x":170043.01999999955,"y":2545529.3300000001}},{"attributes":{"ID":302739,"DIS_CODE":0,"TOWNNAME":"北區","LI":"長榮里","LIN":"8鄰","STREET":"長榮路","SECT":"五段","MAREA":" ","LANE":"４１巷","ALLEY":" ","HOUSE_NO":"１０號十四樓之２","E_COORD97":170043.01999999999,"N_COORD97":2545529.3300000001,"ADDRESS":"長榮路五段４１巷１０號十四樓之２","OBJECTID":302731},"geometry":{"x":170043.01999999955,"y":2545529.3300000001}},{"attributes":{"ID":302740,"DIS_CODE":0,"TOWNNAME":"北區","LI":"長榮里","LIN":"8鄰","STREET":"長榮路","SECT":"五段","MAREA":" ","LANE":"４１巷","ALLEY":" ","HOUSE_NO":"１０號十四樓之３","E_COORD97":170043.01999999999,"N_COORD97":2545529.3300000001,"ADDRESS":"長榮路五段４１巷１０號十四樓之３","OBJECTID":302732},"geometry":{"x":170043.01999999955,"y":2545529.3300000001}},{"attributes":{"ID":302741,"DIS_CODE":0,"TOWNNAME":"北區","LI":"長榮里","LIN":"8鄰","STREET":"長榮路","SECT":"五段","MAREA":" ","LANE":"４１巷","ALLEY":" ","HOUSE_NO":"１０號十四樓之５","E_COORD97":170043.01999999999,"N_COORD97":2545529.3300000001,"ADDRESS":"長榮路五段４１巷１０號十四樓之５","OBJECTID":302733},"geometry":{"x":170043.01999999955,"y":2545529.3300000001}},{"attributes":{"ID":302742,"DIS_CODE":0,"TOWNNAME":"歸仁區","LI":"武東里","LIN":"8鄰","STREET":"武東一街","SECT":" ","MAREA":" ","LANE":"４９巷","ALLEY":" ","HOUSE_NO":"７０號二樓之３","E_COORD97":175800.22,"N_COORD97":2535538.2999999998,"ADDRESS":"武東一街４９巷７０號二樓之３","OBJECTID":302734},"geometry":{"x":175800.21999999974,"y":2535538.3000000026}},{"attributes":{"ID":302743,"DIS_CODE":0,"TOWNNAME":"歸仁區","LI":"武東里","LIN":"8鄰","STREET":"武東一街","SECT":" ","MAREA":" ","LANE":"４９巷","ALLEY":" ","HOUSE_NO":"７０號二樓之７","E_COORD97":175800.20000000001,"N_COORD97":2535538.2999999998,"ADDRESS":"武東一街４９巷７０號二樓之７","OBJECTID":302735},"geometry":{"x":175800.20000000112,"y":2535538.3000000026}},{"attributes":{"ID":302744,"DIS_CODE":0,"TOWNNAME":"歸仁區","LI":"武東里","LIN":"8鄰","STREET":"武東一街","SECT":" ","MAREA":" ","LANE":"４９巷","ALLEY":" ","HOUSE_NO":"７０號三樓之５","E_COORD97":175800.28,"N_COORD97":2535538.2999999998,"ADDRESS":"武東一街４９巷７０號三樓之５","OBJECTID":302736},"geometry":{"x":175800.28000000026,"y":2535538.3000000026}},{"attributes":{"ID":302745,"DIS_CODE":0,"TOWNNAME":"永康區","LI":"正強里","LIN":"8鄰","STREET":"永正路","SECT":" ","MAREA":" ","LANE":"６５巷","ALLEY":" ","HOUSE_NO":"１８號","E_COORD97":173487.37,"N_COORD97":2547443.25,"ADDRESS":"永正路６５巷１８號","OBJECTID":302737},"geometry":{"x":173487.37000000011,"y":2547443.2499999981}},{"attributes":{"ID":302746,"DIS_CODE":0,"TOWNNAME":"永康區","LI":"正強里","LIN":"8鄰","STREET":"正義街","SECT":" ","MAREA":" ","LANE":"８９巷","ALLEY":" ","HOUSE_NO":"５號","E_COORD97":173459.14999999999,"N_COORD97":2547540.7599999998,"ADDRESS":"正義街８９巷５號","OBJECTID":302738},"geometry":{"x":173459.15000000037,"y":2547540.7599999998}},{"attributes":{"ID":302747,"DIS_CODE":0,"TOWNNAME":"永康區","LI":"正強里","LIN":"8鄰","STREET":"永正路","SECT":" ","MAREA":" ","LANE":"６５巷","ALLEY":" ","HOUSE_NO":"１０號","E_COORD97":173504.79999999999,"N_COORD97":2547446,"ADDRESS":"永正路６５巷１０號","OBJECTID":302739},"geometry":{"x":173504.79999999981,"y":2547446.0000000019}},{"attributes":{"ID":302748,"DIS_CODE":0,"TOWNNAME":"永康區","LI":"正強里","LIN":"8鄰","STREET":"正義街","SECT":" ","MAREA":" ","LANE":"７９巷","ALLEY":" ","HOUSE_NO":"１９號","E_COORD97":173505.51999999999,"N_COORD97":2547519.1400000001,"ADDRESS":"正義街７９巷１９號","OBJECTID":302740},"geometry":{"x":173505.52000000048,"y":2547519.1399999987}},{"attributes":{"ID":302749,"DIS_CODE":0,"TOWNNAME":"安南區","LI":"長安里","LIN":"8鄰","STREET":"長溪路","SECT":"三段","MAREA":" ","LANE":"４１８巷","ALLEY":" ","HOUSE_NO":"１號","E_COORD97":167648.75,"N_COORD97":2552089.3199999998,"ADDRESS":"長溪路三段４１８巷１號","OBJECTID":302741},"geometry":{"x":167648.75000000186,"y":2552089.3200000022}},{"attributes":{"ID":302750,"DIS_CODE":0,"TOWNNAME":"安南區","LI":"長安里","LIN":"8鄰","STREET":"長溪路","SECT":"三段","MAREA":" ","LANE":"４５９巷","ALLEY":" ","HOUSE_NO":"１０號","E_COORD97":167534.81,"N_COORD97":2552097.6400000001,"ADDRESS":"長溪路三段４５９巷１０號","OBJECTID":302742},"geometry":{"x":167534.81000000052,"y":2552097.6400000025}},{"attributes":{"ID":302751,"DIS_CODE":0,"TOWNNAME":"安南區","LI":"長安里","LIN":"8鄰","STREET":"長溪路","SECT":"三段","MAREA":" ","LANE":"４５９巷","ALLEY":" ","HOUSE_NO":"２號","E_COORD97":167547.26000000001,"N_COORD97":2552110.48,"ADDRESS":"長溪路三段４５９巷２號","OBJECTID":302743},"geometry":{"x":167547.26000000071,"y":2552110.4800000004}},{"attributes":{"ID":302752,"DIS_CODE":0,"TOWNNAME":"安南區","LI":"長安里","LIN":"8鄰","STREET":"長溪路","SECT":"三段","MAREA":" ","LANE":"４５９巷","ALLEY":" ","HOUSE_NO":"６號","E_COORD97":167541.5,"N_COORD97":2552103.5299999998,"ADDRESS":"長溪路三段４５９巷６號","OBJECTID":302744},"geometry":{"x":167541.5,"y":2552103.5300000012}},{"attributes":{"ID":302753,"DIS_CODE":0,"TOWNNAME":"東區","LI":"崇成里","LIN":"14鄰","STREET":"崇明十六街","SECT":" ","MAREA":" ","LANE":" ","ALLEY":" ","HOUSE_NO":"５６號","E_COORD97":170756.45999999999,"N_COORD97":2541280.6000000001,"ADDRESS":"崇明十六街５６號","OBJECTID":302745},"geometry":{"x":170756.46000000089,"y":2541280.6000000034}},{"attributes":{"ID":302754,"DIS_CODE":0,"TOWNNAME":"東區","LI":"崇成里","LIN":"14鄰","STREET":"崇明十六街","SECT":" ","MAREA":" ","LANE":" ","ALLEY":" ","HOUSE_NO":"５７號","E_COORD97":170751.57999999999,"N_COORD97":2541311.1499999999,"ADDRESS":"崇明十六街５７號","OBJECTID":302746},"geometry":{"x":170751.58000000007,"y":2541311.1499999985}},{"attributes":{"ID":302755,"DIS_CODE":0,"TOWNNAME":"安平區","LI":"港仔里","LIN":"1鄰","STREET":"安平路","SECT":" ","MAREA":" ","LANE":" ","ALLEY":" ","HOUSE_NO":"２７號","E_COORD97":164670.79999999999,"N_COORD97":2544405.9199999999,"ADDRESS":"安平路２７號","OBJECTID":302747},"geometry":{"x":164670.79999999981,"y":2544405.9200000018}},{"attributes":{"ID":302756,"DIS_CODE":0,"TOWNNAME":"後壁區","LI":"嘉苳里","LIN":"4鄰","STREET":" ","SECT":" ","MAREA":"下茄苳","LANE":" ","ALLEY":" ","HOUSE_NO":"４９號","E_COORD97":185347.10999999999,"N_COORD97":2583319.5299999998,"ADDRESS":"下茄苳４９號","OBJECTID":302748},"geometry":{"x":185347.11000000034,"y":2583319.5299999993}},{"attributes":{"ID":302757,"DIS_CODE":0,"TOWNNAME":"仁德區","LI":"仁愛里","LIN":"26鄰","STREET":"大同路","SECT":"三段","MAREA":" ","LANE":" ","ALLEY":" ","HOUSE_NO":"４１０號","E_COORD97":169768.37,"N_COORD97":2539368.6605099998,"ADDRESS":"大同路三段４１０號","OBJECTID":302749},"geometry":{"x":169768.37000000011,"y":2539368.6605110019}},{"attributes":{"ID":302758,"DIS_CODE":0,"TOWNNAME":"仁德區","LI":"保安里","LIN":"20鄰","STREET":"保安路","SECT":"一段","MAREA":" ","LANE":"１０５巷","ALLEY":" ","HOUSE_NO":"１９號","E_COORD97":171058.60000000001,"N_COORD97":2536878.5699999998,"ADDRESS":"保安路一段１０５巷１９號","OBJECTID":302750},"geometry":{"x":171058.60000000056,"y":2536878.5700000022}},{"attributes":{"ID":302759,"DIS_CODE":0,"TOWNNAME":"仁德區","LI":"太子里","LIN":"46鄰","STREET":"太子一街","SECT":" ","MAREA":" ","LANE":"４３巷","ALLEY":" ","HOUSE_NO":"４號","E_COORD97":174775.85999999999,"N_COORD97":2543338.0099999998,"ADDRESS":"太子一街４３巷４號","OBJECTID":302751},"geometry":{"x":174775.86000000034,"y":2543338.0099999998}},{"attributes":{"ID":302760,"DIS_CODE":0,"TOWNNAME":"安南區","LI":"長安里","LIN":"8鄰","STREET":"長溪路","SECT":"三段","MAREA":" ","LANE":"４５９巷","ALLEY":" ","HOUSE_NO":"８號","E_COORD97":167538.22,"N_COORD97":2552100.52,"ADDRESS":"長溪路三段４５９巷８號","OBJECTID":302752},"geometry":{"x":167538.21999999974,"y":2552100.5200000014}},{"attributes":{"ID":302761,"DIS_CODE":0,"TOWNNAME":"安南區","LI":"總頭里","LIN":"8鄰","STREET":"長溪路","SECT":"二段","MAREA":" ","LANE":"６２７巷","ALLEY":" ","HOUSE_NO":"１０號","E_COORD97":168165.98999999999,"N_COORD97":2550784.6800000002,"ADDRESS":"長溪路二段６２７巷１０號","OBJECTID":302753},"geometry":{"x":168165.99000000022,"y":2550784.6800000016}},{"attributes":{"ID":302762,"DIS_CODE":0,"TOWNNAME":"學甲區","LI":"豐和里","LIN":" ","STREET":" ","SECT":" ","MAREA":"美豐","LANE":" ","ALLEY":" ","HOUSE_NO":"６４號","E_COORD97":168200.47,"N_COORD97":2568620.1200000001,"ADDRESS":"美豐６４號","OBJECTID":302754},"geometry":{"x":168200.47000000067,"y":2568620.120000001}},{"attributes":{"ID":302763,"DIS_CODE":0,"TOWNNAME":"安南區","LI":"總頭里","LIN":"8鄰","STREET":"長溪路","SECT":"二段","MAREA":" ","LANE":"６４３巷","ALLEY":" ","HOUSE_NO":"１７號","E_COORD97":168136.22,"N_COORD97":2550814.3999999999,"ADDRESS":"長溪路二段６４３巷１７號","OBJECTID":302755},"geometry":{"x":168136.21999999974,"y":2550814.4000000022}},{"attributes":{"ID":302764,"DIS_CODE":0,"TOWNNAME":"安南區","LI":"總頭里","LIN":"8鄰","STREET":"長溪路","SECT":"二段","MAREA":" ","LANE":"６４３巷","ALLEY":" ","HOUSE_NO":"１９號","E_COORD97":168138.42000000001,"N_COORD97":2550810.5499999998,"ADDRESS":"長溪路二段６４３巷１９號","OBJECTID":302756},"geometry":{"x":168138.41999999993,"y":2550810.5500000007}},{"attributes":{"ID":302765,"DIS_CODE":0,"TOWNNAME":"安南區","LI":"總頭里","LIN":"8鄰","STREET":"長溪路","SECT":"二段","MAREA":" ","LANE":"６４３巷","ALLEY":" ","HOUSE_NO":"２１號","E_COORD97":168139.51999999999,"N_COORD97":2550806.6899999999,"ADDRESS":"長溪路二段６４３巷２１號","OBJECTID":302757},"geometry":{"x":168139.51999999955,"y":2550806.6900000032}},{"attributes":{"ID":302766,"DIS_CODE":0,"TOWNNAME":"中西區","LI":"大涼里","LIN":"14鄰","STREET":"府前路","SECT":"二段","MAREA":" ","LANE":" ","ALLEY":" ","HOUSE_NO":"２６０號","E_COORD97":167010.92999999999,"N_COORD97":2543645.5699999998,"ADDRESS":"府前路二段２６０號","OBJECTID":302758},"geometry":{"x":167010.9299999997,"y":2543645.5700000022}},{"attributes":{"ID":302767,"DIS_CODE":0,"TOWNNAME":"中西區","LI":"大涼里","LIN":"14鄰","STREET":"府前路","SECT":"二段","MAREA":" ","LANE":" ","ALLEY":" ","HOUSE_NO":"２６２號","E_COORD97":167010.75,"N_COORD97":2543651.75,"ADDRESS":"府前路二段２６２號","OBJECTID":302759},"geometry":{"x":167010.75,"y":2543651.75}},{"attributes":{"ID":302768,"DIS_CODE":0,"TOWNNAME":"歸仁區","LI":"媽廟里","LIN":"7鄰","STREET":"和順路","SECT":"一段","MAREA":" ","LANE":"２０巷","ALLEY":" ","HOUSE_NO":"１７號","E_COORD97":177509.11054299999,"N_COORD97":2543788.8621200002,"ADDRESS":"和順路一段２０巷１７號","OBJECTID":302760},"geometry":{"x":177509.11054300051,"y":2543788.8621230032}},{"attributes":{"ID":302769,"DIS_CODE":0,"TOWNNAME":"歸仁區","LI":"媽廟里","LIN":"3鄰","STREET":"和順路","SECT":"一段","MAREA":" ","LANE":" ","ALLEY":" ","HOUSE_NO":"６５號","E_COORD97":177275.87,"N_COORD97":2543658.7200000002,"ADDRESS":"和順路一段６５號","OBJECTID":302761},"geometry":{"x":177275.87000000104,"y":2543658.7200000025}},{"attributes":{"ID":302770,"DIS_CODE":0,"TOWNNAME":"仁德區","LI":"仁愛里","LIN":"26鄰","STREET":"大同路","SECT":"三段","MAREA":" ","LANE":" ","ALLEY":" ","HOUSE_NO":"４４０號","E_COORD97":169778.07000000001,"N_COORD97":2539319.1499999999,"ADDRESS":"大同路三段４４０號","OBJECTID":302762},"geometry":{"x":169778.07000000123,"y":2539319.1500000022}},{"attributes":{"ID":302771,"DIS_CODE":0,"TOWNNAME":"仁德區","LI":"田厝里","LIN":"4鄰","STREET":"田厝三街","SECT":" ","MAREA":" ","LANE":"９３巷","ALLEY":" ","HOUSE_NO":"３２號","E_COORD97":172515.95999999999,"N_COORD97":2537482.2400000002,"ADDRESS":"田厝三街９３巷３２號","OBJECTID":302763},"geometry":{"x":172515.96000000183,"y":2537482.2400000002}},{"attributes":{"ID":302772,"DIS_CODE":0,"TOWNNAME":"仁德區","LI":"保安里","LIN":"20鄰","STREET":"保安路","SECT":"一段","MAREA":" ","LANE":"１９巷","ALLEY":" ","HOUSE_NO":"１號","E_COORD97":170505.76000000001,"N_COORD97":2536158.3199999998,"ADDRESS":"保安路一段１９巷１號","OBJECTID":302764},"geometry":{"x":170505.75999999978,"y":2536158.3200000022}},{"attributes":{"ID":302773,"DIS_CODE":0,"TOWNNAME":"仁德區","LI":"田厝里","LIN":"4鄰","STREET":"田厝三街","SECT":" ","MAREA":" ","LANE":"９３巷","ALLEY":" ","HOUSE_NO":"１５號","E_COORD97":172541.44,"N_COORD97":2537471.9900000002,"ADDRESS":"田厝三街９３巷１５號","OBJECTID":302765},"geometry":{"x":172541.44000000041,"y":2537471.9900000021}},{"attributes":{"ID":302774,"DIS_CODE":0,"TOWNNAME":"仁德區","LI":"成功里","LIN":"4鄰","STREET":"成功三街","SECT":" ","MAREA":" ","LANE":"９３巷","ALLEY":" ","HOUSE_NO":"４號","E_COORD97":171204.13,"N_COORD97":2539791.27,"ADDRESS":"成功三街９３巷４號","OBJECTID":302766},"geometry":{"x":171204.12999999989,"y":2539791.2700000014}},{"attributes":{"ID":302775,"DIS_CODE":0,"TOWNNAME":"安南區","LI":"總頭里","LIN":"8鄰","STREET":"長溪路","SECT":"二段","MAREA":" ","LANE":"６４３巷","ALLEY":" ","HOUSE_NO":"２３號","E_COORD97":168142.28,"N_COORD97":2550803.3900000001,"ADDRESS":"長溪路二段６４３巷２３號","OBJECTID":302767},"geometry":{"x":168142.28000000212,"y":2550803.3900000025}},{"attributes":{"ID":302776,"DIS_CODE":0,"TOWNNAME":"安南區","LI":"總頭里","LIN":"8鄰","STREET":"長溪路","SECT":"二段","MAREA":" ","LANE":"６４３巷","ALLEY":" ","HOUSE_NO":"２５號","E_COORD97":168143.94,"N_COORD97":2550798.4399999999,"ADDRESS":"長溪路二段６４３巷２５號","OBJECTID":302768},"geometry":{"x":168143.94000000041,"y":2550798.4400000013}},{"attributes":{"ID":302777,"DIS_CODE":0,"TOWNNAME":"安南區","LI":"總頭里","LIN":"8鄰","STREET":"長溪路","SECT":"二段","MAREA":" ","LANE":"６４３巷","ALLEY":" ","HOUSE_NO":"２７號","E_COORD97":168145.59,"N_COORD97":2550795.1299999999,"ADDRESS":"長溪路二段６４３巷２７號","OBJECTID":302769},"geometry":{"x":168145.58999999985,"y":2550795.129999999}},{"attributes":{"ID":302778,"DIS_CODE":0,"TOWNNAME":"中西區","LI":"大涼里","LIN":"14鄰","STREET":"府前路","SECT":"二段","MAREA":" ","LANE":" ","ALLEY":" ","HOUSE_NO":"２７２號","E_COORD97":167012.87,"N_COORD97":2543658.1200000001,"ADDRESS":"府前路二段２７２號","OBJECTID":302770},"geometry":{"x":167012.87000000104,"y":2543658.1199999992}},{"attributes":{"ID":302779,"DIS_CODE":0,"TOWNNAME":"中西區","LI":"大涼里","LIN":"14鄰","STREET":"府前路","SECT":"二段","MAREA":" ","LANE":" ","ALLEY":" ","HOUSE_NO":"２７６號","E_COORD97":166979.95000000001,"N_COORD97":2543652.8199999998,"ADDRESS":"府前路二段２７６號","OBJECTID":302771},"geometry":{"x":166979.95000000112,"y":2543652.820000004}},{"attributes":{"ID":302780,"DIS_CODE":0,"TOWNNAME":"中西區","LI":"大涼里","LIN":"14鄰","STREET":"府前路","SECT":"二段","MAREA":" ","LANE":" ","ALLEY":" ","HOUSE_NO":"２８２號","E_COORD97":166956.92999999999,"N_COORD97":2543652.46,"ADDRESS":"府前路二段２８２號","OBJECTID":302772},"geometry":{"x":166956.9299999997,"y":2543652.4600000046}},{"attributes":{"ID":302781,"DIS_CODE":0,"TOWNNAME":"中西區","LI":"大涼里","LIN":"14鄰","STREET":"府前路","SECT":"二段","MAREA":" ","LANE":" ","ALLEY":" ","HOUSE_NO":"２８４號","E_COORD97":166951.45000000001,"N_COORD97":2543653.7000000002,"ADDRESS":"府前路二段２８４號","OBJECTID":302773},"geometry":{"x":166951.45000000112,"y":2543653.7000000011}},{"attributes":{"ID":302782,"DIS_CODE":0,"TOWNNAME":"東區","LI":"崇學里","LIN":"14鄰","STREET":"崇德路","SECT":" ","MAREA":" ","LANE":" ","ALLEY":" ","HOUSE_NO":"２７４號","E_COORD97":170253.64999999999,"N_COORD97":2542005.8700000001,"ADDRESS":"崇德路２７４號","OBJECTID":302774},"geometry":{"x":170253.65000000224,"y":2542005.8700000029}},{"attributes":{"ID":302783,"DIS_CODE":0,"TOWNNAME":"東區","LI":"崇學里","LIN":"14鄰","STREET":"崇德路","SECT":" ","MAREA":" ","LANE":" ","ALLEY":" ","HOUSE_NO":"２７６號","E_COORD97":170258.29999999999,"N_COORD97":2542002.7799999998,"ADDRESS":"崇德路２７６號","OBJECTID":302775},"geometry":{"x":170258.29999999981,"y":2542002.7799999993}},{"attributes":{"ID":302784,"DIS_CODE":0,"TOWNNAME":"東區","LI":"崇學里","LIN":"14鄰","STREET":"崇德路","SECT":" ","MAREA":" ","LANE":" ","ALLEY":" ","HOUSE_NO":"２７８號","E_COORD97":170261.91,"N_COORD97":2542000.0299999998,"ADDRESS":"崇德路２７８號","OBJECTID":302776},"geometry":{"x":170261.91000000201,"y":2542000.0300000012}},{"attributes":{"ID":302785,"DIS_CODE":0,"TOWNNAME":"安南區","LI":"安東里","LIN":"15鄰","STREET":"安通路","SECT":"三段","MAREA":" ","LANE":" ","ALLEY":" ","HOUSE_NO":"１４６號","E_COORD97":169433.11467000001,"N_COORD97":2547818.4410100002,"ADDRESS":"安通路三段１４６號","OBJECTID":302777},"geometry":{"x":169433.11467000097,"y":2547818.4410079997}},{"attributes":{"ID":302786,"DIS_CODE":0,"TOWNNAME":"安南區","LI":"安東里","LIN":"15鄰","STREET":"安通路","SECT":"三段","MAREA":" ","LANE":" ","ALLEY":" ","HOUSE_NO":"１４２號","E_COORD97":169435.33024099999,"N_COORD97":2547823.9750399999,"ADDRESS":"安通路三段１４２號","OBJECTID":302778},"geometry":{"x":169435.33024100214,"y":2547823.9750410002}},{"attributes":{"ID":302787,"DIS_CODE":0,"TOWNNAME":"後壁區","LI":"福安里","LIN":"1鄰","STREET":" ","SECT":" ","MAREA":"下寮","LANE":" ","ALLEY":" ","HOUSE_NO":"４號之１","E_COORD97":184261.01999999999,"N_COORD97":2581084.52,"ADDRESS":"下寮４號之１","OBJECTID":302779},"geometry":{"x":184261.02000000142,"y":2581084.5200000014}},{"attributes":{"ID":302788,"DIS_CODE":0,"TOWNNAME":"歸仁區","LI":"媽廟里","LIN":"3鄰","STREET":"和順路","SECT":"一段","MAREA":" ","LANE":" ","ALLEY":" ","HOUSE_NO":"２３１號","E_COORD97":176802.097095,"N_COORD97":2543634.2682099999,"ADDRESS":"和順路一段２３１號","OBJECTID":302780},"geometry":{"x":176802.09709500056,"y":2543634.2682120018}},{"attributes":{"ID":302789,"DIS_CODE":0,"TOWNNAME":"仁德區","LI":"太子里","LIN":"46鄰","STREET":"太子一街","SECT":" ","MAREA":" ","LANE":"４３巷","ALLEY":" ","HOUSE_NO":"１４號","E_COORD97":174798.57999999999,"N_COORD97":2543314.0099999998,"ADDRESS":"太子一街４３巷１４號","OBJECTID":302781},"geometry":{"x":174798.57999999914,"y":2543314.0099999998}},{"attributes":{"ID":302790,"DIS_CODE":0,"TOWNNAME":"仁德區","LI":"仁德里","LIN":"43鄰","STREET":"中山路","SECT":" ","MAREA":" ","LANE":"９１０巷","ALLEY":" ","HOUSE_NO":"３３號","E_COORD97":172008.42999999999,"N_COORD97":2541816.4900000002,"ADDRESS":"中山路９１０巷３３號","OBJECTID":302782},"geometry":{"x":172008.4299999997,"y":2541816.4900000002}},{"attributes":{"ID":302791,"DIS_CODE":0,"TOWNNAME":"安南區","LI":"總頭里","LIN":"8鄰","STREET":"長溪路","SECT":"二段","MAREA":" ","LANE":"６４３巷","ALLEY":" ","HOUSE_NO":"２９號","E_COORD97":168147.23999999999,"N_COORD97":2550790.73,"ADDRESS":"長溪路二段６４３巷２９號","OBJECTID":302783},"geometry":{"x":168147.24000000022,"y":2550790.7300000023}},{"attributes":{"ID":302792,"DIS_CODE":0,"TOWNNAME":"後壁區","LI":"福安里","LIN":"1鄰","STREET":" ","SECT":" ","MAREA":"下寮","LANE":" ","ALLEY":" ","HOUSE_NO":"４號之２","E_COORD97":184256.51999999999,"N_COORD97":2581082.8700000001,"ADDRESS":"下寮４號之２","OBJECTID":302784},"geometry":{"x":184256.52000000048,"y":2581082.8699999992}},{"attributes":{"ID":302793,"DIS_CODE":0,"TOWNNAME":"安南區","LI":"公\u25A0里","LIN":"8鄰","STREET":"安興街","SECT":" ","MAREA":" ","LANE":"１８１巷","ALLEY":" ","HOUSE_NO":"８６號","E_COORD97":163883.32000000001,"N_COORD97":2551904.2599999998,"ADDRESS":"安興街１８１巷８６號","OBJECTID":302785},"geometry":{"x":163883.3200000003,"y":2551904.2599999998}},{"attributes":{"ID":302794,"DIS_CODE":0,"TOWNNAME":"東區","LI":"崇文里","LIN":"8鄰","STREET":"崇德十七街","SECT":" ","MAREA":" ","LANE":"１２６巷","ALLEY":" ","HOUSE_NO":"１２之１號","E_COORD97":171084.76000000001,"N_COORD97":2541055.8900000001,"ADDRESS":"崇德十七街１２６巷１２之１號","OBJECTID":302786},"geometry":{"x":171084.76000000164,"y":2541055.8900000043}},{"attributes":{"ID":302795,"DIS_CODE":0,"TOWNNAME":"東區","LI":"崇文里","LIN":"8鄰","STREET":"崇德十七街","SECT":" ","MAREA":" ","LANE":"１２６巷","ALLEY":" ","HOUSE_NO":"１２號","E_COORD97":171083.17000000001,"N_COORD97":2541060.5699999998,"ADDRESS":"崇德十七街１２６巷１２號","OBJECTID":302787},"geometry":{"x":171083.16999999993,"y":2541060.5700000003}},{"attributes":{"ID":302796,"DIS_CODE":0,"TOWNNAME":"東區","LI":"崇文里","LIN":"8鄰","STREET":"崇德十七街","SECT":" ","MAREA":" ","LANE":"１２６巷","ALLEY":" ","HOUSE_NO":"１３號","E_COORD97":171108.87,"N_COORD97":2541062.6499999999,"ADDRESS":"崇德十七街１２６巷１３號","OBJECTID":302788},"geometry":{"x":171108.87000000011,"y":2541062.6500000004}},{"attributes":{"ID":302797,"DIS_CODE":0,"TOWNNAME":"東區","LI":"崇文里","LIN":"8鄰","STREET":"崇德十七街","SECT":" ","MAREA":" ","LANE":"１２６巷","ALLEY":" ","HOUSE_NO":"１６號","E_COORD97":171086.14999999999,"N_COORD97":2541051.6099999999,"ADDRESS":"崇德十七街１２６巷１６號","OBJECTID":302789},"geometry":{"x":171086.15000000224,"y":2541051.6099999994}},{"attributes":{"ID":302798,"DIS_CODE":0,"TOWNNAME":"東區","LI":"崇文里","LIN":"8鄰","STREET":"崇德十七街","SECT":" ","MAREA":" ","LANE":"１２６巷","ALLEY":" ","HOUSE_NO":"１７號","E_COORD97":171111.85999999999,"N_COORD97":2541053.8900000001,"ADDRESS":"崇德十七街１２６巷１７號","OBJECTID":302790},"geometry":{"x":171111.86000000127,"y":2541053.8900000025}},{"attributes":{"ID":302799,"DIS_CODE":0,"TOWNNAME":"東區","LI":"崇文里","LIN":"8鄰","STREET":"崇德十七街","SECT":" ","MAREA":" ","LANE":"１２６巷","ALLEY":" ","HOUSE_NO":"１８號","E_COORD97":171087.64999999999,"N_COORD97":2541047.7400000002,"ADDRESS":"崇德十七街１２６巷１８號","OBJECTID":302791},"geometry":{"x":171087.64999999944,"y":2541047.7400000021}},{"attributes":{"ID":302800,"DIS_CODE":0,"TOWNNAME":"東區","LI":"崇學里","LIN":"14鄰","STREET":"崇德路","SECT":" ","MAREA":" ","LANE":" ","ALLEY":" ","HOUSE_NO":"２８０號","E_COORD97":170265.51999999999,"N_COORD97":2541996.9399999999,"ADDRESS":"崇德路２８０號","OBJECTID":302792},"geometry":{"x":170265.52000000142,"y":2541996.9400000013}},{"attributes":{"ID":302801,"DIS_CODE":0,"TOWNNAME":"東區","LI":"崇學里","LIN":"14鄰","STREET":"崇德路","SECT":" ","MAREA":" ","LANE":" ","ALLEY":" ","HOUSE_NO":"２８２號","E_COORD97":170270.16,"N_COORD97":2541994.3599999999,"ADDRESS":"崇德路２８２號","OBJECTID":302793},"geometry":{"x":170270.16000000015,"y":2541994.3600000013}},{"attributes":{"ID":302802,"DIS_CODE":0,"TOWNNAME":"東區","LI":"崇學里","LIN":"14鄰","STREET":"崇德路","SECT":" ","MAREA":" ","LANE":" ","ALLEY":" ","HOUSE_NO":"２８４號","E_COORD97":170272.92999999999,"N_COORD97":2541990.98,"ADDRESS":"崇德路２８４號","OBJECTID":302794},"geometry":{"x":170272.9299999997,"y":2541990.9800000023}},{"attributes":{"ID":302803,"DIS_CODE":0,"TOWNNAME":"仁德區","LI":"仁德里","LIN":"38鄰","STREET":"文宏路","SECT":" ","MAREA":" ","LANE":" ","ALLEY":" ","HOUSE_NO":"７６號","E_COORD97":172408.79000000001,"N_COORD97":2541711.0699999998,"ADDRESS":"文宏路７６號","OBJECTID":302795},"geometry":{"x":172408.7900000019,"y":2541711.0700000003}},{"attributes":{"ID":302804,"DIS_CODE":0,"TOWNNAME":"東區","LI":"崇文里","LIN":"8鄰","STREET":"崇德十七街","SECT":" ","MAREA":" ","LANE":"１２６巷","ALLEY":" ","HOUSE_NO":"１９號","E_COORD97":171116.64000000001,"N_COORD97":2541046.2200000002,"ADDRESS":"崇德十七街１２６巷１９號","OBJECTID":302796},"geometry":{"x":171116.6400000006,"y":2541046.2200000007}},{"attributes":{"ID":302805,"DIS_CODE":0,"TOWNNAME":"後壁區","LI":"嘉苳里","LIN":"4鄰","STREET":" ","SECT":" ","MAREA":"下茄苳","LANE":" ","ALLEY":" ","HOUSE_NO":"４７號","E_COORD97":185342.89000000001,"N_COORD97":2583345.25,"ADDRESS":"下茄苳４７號","OBJECTID":302797},"geometry":{"x":185342.88999999966,"y":2583345.2500000019}},{"attributes":{"ID":302806,"DIS_CODE":0,"TOWNNAME":"後壁區","LI":"嘉苳里","LIN":"4鄰","STREET":" ","SECT":" ","MAREA":"下茄苳","LANE":" ","ALLEY":" ","HOUSE_NO":"４８號","E_COORD97":185376.13,"N_COORD97":2583345.3900000001,"ADDRESS":"下茄苳４８號","OBJECTID":302798},"geometry":{"x":185376.13000000175,"y":2583345.3900000025}},{"attributes":{"ID":302807,"DIS_CODE":0,"TOWNNAME":"東區","LI":"東聖里","LIN":"18鄰","STREET":"中華東路","SECT":"二段","MAREA":" ","LANE":"１３３巷","ALLEY":" ","HOUSE_NO":"１９號","E_COORD97":171457.66,"N_COORD97":2542866.4100000001,"ADDRESS":"中華東路二段１３３巷１９號","OBJECTID":302799},"geometry":{"x":171457.66000000108,"y":2542866.410000002}},{"attributes":{"ID":302808,"DIS_CODE":0,"TOWNNAME":"東區","LI":"東聖里","LIN":"18鄰","STREET":"中華東路","SECT":"二段","MAREA":" ","LANE":"１３３巷","ALLEY":" ","HOUSE_NO":"２１號","E_COORD97":171461.42999999999,"N_COORD97":2542857.3900000001,"ADDRESS":"中華東路二段１３３巷２１號","OBJECTID":302800},"geometry":{"x":171461.43000000156,"y":2542857.3900000025}}]}