{"displayFieldName":"TOWNNAME","fieldAliases":{"ID":"ID","DIS_CODE":"DIS_CODE","TOWNNAME":"TOWNNAME","LI":"LI","LIN":"LIN","STREET":"STREET","SECT":"SECT","MAREA":"MAREA","LANE":"LANE","ALLEY":"ALLEY","HOUSE_NO":"HOUSE_NO","E_COORD97":"E_COORD97","N_COORD97":"N_COORD97","ADDRESS":"ADDRESS","OBJECTID":"OBJECTID"},"geometryType":"esriGeometryPoint","spatialReference":{"wkid":102443,"latestWkid":3826},"fields":[{"name":"ID","type":"esriFieldTypeDouble","alias":"ID"},{"name":"DIS_CODE","type":"esriFieldTypeInteger","alias":"DIS_CODE"},{"name":"TOWNNAME","type":"esriFieldTypeString","alias":"TOWNNAME","length":8},{"name":"LI","type":"esriFieldTypeString","alias":"LI","length":8},{"name":"LIN","type":"esriFieldTypeString","alias":"LIN","length":12},{"name":"STREET","type":"esriFieldTypeString","alias":"STREET","length":20},{"name":"SECT","type":"esriFieldTypeString","alias":"SECT","length":8},{"name":"MAREA","type":"esriFieldTypeString","alias":"MAREA","length":12},{"name":"LANE","type":"esriFieldTypeString","alias":"LANE","length":10},{"name":"ALLEY","type":"esriFieldTypeString","alias":"ALLEY","length":10},{"name":"HOUSE_NO","type":"esriFieldTypeString","alias":"HOUSE_NO","length":20},{"name":"E_COORD97","type":"esriFieldTypeDouble","alias":"E_COORD97"},{"name":"N_COORD97","type":"esriFieldTypeDouble","alias":"N_COORD97"},{"name":"ADDRESS","type":"esriFieldTypeString","alias":"ADDRESS","length":50},{"name":"OBJECTID","type":"esriFieldTypeOID","alias":"OBJECTID"}],"features":[{"attributes":{"ID":394825,"DIS_CODE":0,"TOWNNAME":"仁德區","LI":"成功里","LIN":"16鄰","STREET":"全福路","SECT":" ","MAREA":" ","LANE":"７５巷","ALLEY":" ","HOUSE_NO":"１９號","E_COORD97":171025.10999999999,"N_COORD97":2539373,"ADDRESS":"全福路７５巷１９號","OBJECTID":394801},"geometry":{"x":171025.1099999994,"y":2539373.0000000019}},{"attributes":{"ID":394826,"DIS_CODE":0,"TOWNNAME":"仁德區","LI":"保安里","LIN":"16鄰","STREET":"中正路","SECT":"一段","MAREA":" ","LANE":"１６４巷","ALLEY":" ","HOUSE_NO":"４號","E_COORD97":171546.01999999999,"N_COORD97":2535695.77,"ADDRESS":"中正路一段１６４巷４號","OBJECTID":394802},"geometry":{"x":171546.02000000048,"y":2535695.7700000014}},{"attributes":{"ID":394827,"DIS_CODE":0,"TOWNNAME":"仁德區","LI":"一甲里","LIN":"16鄰","STREET":"中清路","SECT":" ","MAREA":" ","LANE":"２５５巷","ALLEY":" ","HOUSE_NO":"１９號","E_COORD97":173681.57999999999,"N_COORD97":2541770.2999999998,"ADDRESS":"中清路２５５巷１９號","OBJECTID":394803},"geometry":{"x":173681.58000000194,"y":2541770.3000000007}},{"attributes":{"ID":394828,"DIS_CODE":0,"TOWNNAME":"仁德區","LI":"一甲里","LIN":"16鄰","STREET":"中清路","SECT":" ","MAREA":" ","LANE":"２５５巷","ALLEY":" ","HOUSE_NO":"９號","E_COORD97":173699.23000000001,"N_COORD97":2541757.5499999998,"ADDRESS":"中清路２５５巷９號","OBJECTID":394804},"geometry":{"x":173699.23000000045,"y":2541757.5500000026}},{"attributes":{"ID":394829,"DIS_CODE":0,"TOWNNAME":"仁德區","LI":"一甲里","LIN":"16鄰","STREET":"中清路","SECT":" ","MAREA":" ","LANE":"２５５巷","ALLEY":" ","HOUSE_NO":"１１號","E_COORD97":173701.10999999999,"N_COORD97":2541762.2999999998,"ADDRESS":"中清路２５５巷１１號","OBJECTID":394805},"geometry":{"x":173701.11000000034,"y":2541762.3000000026}},{"attributes":{"ID":394830,"DIS_CODE":0,"TOWNNAME":"仁德區","LI":"一甲里","LIN":"16鄰","STREET":"中清路","SECT":" ","MAREA":" ","LANE":"２５５巷","ALLEY":" ","HOUSE_NO":"５號","E_COORD97":173710.10000000001,"N_COORD97":2541760.7999999998,"ADDRESS":"中清路２５５巷５號","OBJECTID":394806},"geometry":{"x":173710.10000000056,"y":2541760.8000000007}},{"attributes":{"ID":394831,"DIS_CODE":0,"TOWNNAME":"仁德區","LI":"一甲里","LIN":"16鄰","STREET":"中清路","SECT":" ","MAREA":" ","LANE":"２５５巷","ALLEY":" ","HOUSE_NO":"１３號","E_COORD97":173701.69,"N_COORD97":2541767.0499999998,"ADDRESS":"中清路２５５巷１３號","OBJECTID":394807},"geometry":{"x":173701.69000000134,"y":2541767.0500000026}},{"attributes":{"ID":394832,"DIS_CODE":0,"TOWNNAME":"仁德區","LI":"一甲里","LIN":"16鄰","STREET":"中清路","SECT":" ","MAREA":" ","LANE":"２５５巷","ALLEY":" ","HOUSE_NO":"３號","E_COORD97":173710.79999999999,"N_COORD97":2541765.5499999998,"ADDRESS":"中清路２５５巷３號","OBJECTID":394808},"geometry":{"x":173710.80000000075,"y":2541765.5500000007}},{"attributes":{"ID":394833,"DIS_CODE":0,"TOWNNAME":"仁德區","LI":"二行里","LIN":"16鄰","STREET":"行大街","SECT":" ","MAREA":" ","LANE":"１７２巷","ALLEY":" ","HOUSE_NO":"７７號","E_COORD97":169730.48000000001,"N_COORD97":2535246.25,"ADDRESS":"行大街１７２巷７７號","OBJECTID":394809},"geometry":{"x":169730.48000000045,"y":2535246.2500000019}},{"attributes":{"ID":394834,"DIS_CODE":0,"TOWNNAME":"仁德區","LI":"一甲里","LIN":"16鄰","STREET":"中清路","SECT":" ","MAREA":" ","LANE":"２５５巷","ALLEY":" ","HOUSE_NO":"２３號","E_COORD97":173679.92999999999,"N_COORD97":2541760.0499999998,"ADDRESS":"中清路２５５巷２３號","OBJECTID":394810},"geometry":{"x":173679.9299999997,"y":2541760.0500000045}},{"attributes":{"ID":394835,"DIS_CODE":0,"TOWNNAME":"仁德區","LI":"一甲里","LIN":"16鄰","STREET":"中清路","SECT":" ","MAREA":" ","LANE":"２５５巷","ALLEY":" ","HOUSE_NO":"２１號","E_COORD97":173680.67000000001,"N_COORD97":2541765.2999999998,"ADDRESS":"中清路２５５巷２１號","OBJECTID":394811},"geometry":{"x":173680.66999999899,"y":2541765.3000000026}},{"attributes":{"ID":394836,"DIS_CODE":0,"TOWNNAME":"仁德區","LI":"一甲里","LIN":"16鄰","STREET":"中清路","SECT":" ","MAREA":" ","LANE":"２５５巷","ALLEY":" ","HOUSE_NO":"１０號","E_COORD97":173690.73000000001,"N_COORD97":2541787.2999999998,"ADDRESS":"中清路２５５巷１０號","OBJECTID":394812},"geometry":{"x":173690.73000000045,"y":2541787.3000000007}},{"attributes":{"ID":394837,"DIS_CODE":0,"TOWNNAME":"仁德區","LI":"一甲里","LIN":"16鄰","STREET":"中清路","SECT":" ","MAREA":" ","LANE":"２５５巷","ALLEY":" ","HOUSE_NO":"１號","E_COORD97":173711.67000000001,"N_COORD97":2541770.5499999998,"ADDRESS":"中清路２５５巷１號","OBJECTID":394813},"geometry":{"x":173711.67000000086,"y":2541770.5500000026}},{"attributes":{"ID":394838,"DIS_CODE":0,"TOWNNAME":"仁德區","LI":"二行里","LIN":"16鄰","STREET":"行大街","SECT":" ","MAREA":" ","LANE":"１７２巷","ALLEY":" ","HOUSE_NO":"７１號","E_COORD97":169744.04000000001,"N_COORD97":2535240.5,"ADDRESS":"行大街１７２巷７１號","OBJECTID":394814},"geometry":{"x":169744.04000000097,"y":2535240.5000000019}},{"attributes":{"ID":394839,"DIS_CODE":0,"TOWNNAME":"仁德區","LI":"二行里","LIN":"16鄰","STREET":"行大街","SECT":" ","MAREA":" ","LANE":"１７２巷","ALLEY":" ","HOUSE_NO":"７３號","E_COORD97":169740.01000000001,"N_COORD97":2535242.75,"ADDRESS":"行大街１７２巷７３號","OBJECTID":394815},"geometry":{"x":169740.00999999978,"y":2535242.7500000019}},{"attributes":{"ID":394840,"DIS_CODE":0,"TOWNNAME":"仁德區","LI":"一甲里","LIN":"16鄰","STREET":"中清路","SECT":" ","MAREA":" ","LANE":"２５５巷","ALLEY":" ","HOUSE_NO":"３１號","E_COORD97":173672.10000000001,"N_COORD97":2541776.7999999998,"ADDRESS":"中清路２５５巷３１號","OBJECTID":394816},"geometry":{"x":173672.09999999963,"y":2541776.8000000026}},{"attributes":{"ID":394841,"DIS_CODE":0,"TOWNNAME":"東區","LI":"崇文里","LIN":"13鄰","STREET":"崇德十九街","SECT":" ","MAREA":" ","LANE":" ","ALLEY":" ","HOUSE_NO":"９號","E_COORD97":170846.25,"N_COORD97":2540980.1400000001,"ADDRESS":"崇德十九街９號","OBJECTID":394817},"geometry":{"x":170846.25000000093,"y":2540980.1400000025}},{"attributes":{"ID":394842,"DIS_CODE":0,"TOWNNAME":"仁德區","LI":"一甲里","LIN":"16鄰","STREET":"中清路","SECT":" ","MAREA":" ","LANE":"２５５巷","ALLEY":" ","HOUSE_NO":"２７號","E_COORD97":173670.60000000001,"N_COORD97":2541767.0499999998,"ADDRESS":"中清路２５５巷２７號","OBJECTID":394818},"geometry":{"x":173670.59999999963,"y":2541767.0500000026}},{"attributes":{"ID":394843,"DIS_CODE":0,"TOWNNAME":"仁德區","LI":"一甲里","LIN":"16鄰","STREET":"中清路","SECT":" ","MAREA":" ","LANE":"２５５巷","ALLEY":" ","HOUSE_NO":"１７號","E_COORD97":173682.09,"N_COORD97":2541775.0499999998,"ADDRESS":"中清路２５５巷１７號","OBJECTID":394819},"geometry":{"x":173682.08999999985,"y":2541775.0500000026}},{"attributes":{"ID":394844,"DIS_CODE":0,"TOWNNAME":"新化區","LI":"協興里","LIN":"16鄰","STREET":"大新路","SECT":" ","MAREA":" ","LANE":"３７巷","ALLEY":" ","HOUSE_NO":"１８號","E_COORD97":178189.13,"N_COORD97":2548560.25,"ADDRESS":"大新路３７巷１８號","OBJECTID":394820},"geometry":{"x":178189.13000000082,"y":2548560.2500000019}},{"attributes":{"ID":394845,"DIS_CODE":0,"TOWNNAME":"安南區","LI":"理想里","LIN":"16鄰","STREET":"大安街","SECT":" ","MAREA":" ","LANE":"２０１巷","ALLEY":" ","HOUSE_NO":"１３號","E_COORD97":167344.57999999999,"N_COORD97":2548338.1899999999,"ADDRESS":"大安街２０１巷１３號","OBJECTID":394821},"geometry":{"x":167344.58000000007,"y":2548338.1899999976}},{"attributes":{"ID":394846,"DIS_CODE":0,"TOWNNAME":"安南區","LI":"理想里","LIN":"16鄰","STREET":"大安街","SECT":" ","MAREA":" ","LANE":"２０１巷","ALLEY":" ","HOUSE_NO":"１５號","E_COORD97":167340.12,"N_COORD97":2548341.4199999999,"ADDRESS":"大安街２０１巷１５號","OBJECTID":394822},"geometry":{"x":167340.12000000104,"y":2548341.4200000018}},{"attributes":{"ID":394847,"DIS_CODE":0,"TOWNNAME":"安南區","LI":"理想里","LIN":"16鄰","STREET":"大安街","SECT":" ","MAREA":" ","LANE":"２０１巷","ALLEY":" ","HOUSE_NO":"１７號","E_COORD97":167336.76999999999,"N_COORD97":2548345.5600000001,"ADDRESS":"大安街２０１巷１７號","OBJECTID":394823},"geometry":{"x":167336.77000000048,"y":2548345.5600000005}},{"attributes":{"ID":394848,"DIS_CODE":0,"TOWNNAME":"安南區","LI":"理想里","LIN":"16鄰","STREET":"大安街","SECT":" ","MAREA":" ","LANE":"２０１巷","ALLEY":" ","HOUSE_NO":"１號","E_COORD97":167370.92000000001,"N_COORD97":2548322.3199999998,"ADDRESS":"大安街２０１巷１號","OBJECTID":394824},"geometry":{"x":167370.91999999993,"y":2548322.3200000022}},{"attributes":{"ID":394849,"DIS_CODE":0,"TOWNNAME":"安南區","LI":"理想里","LIN":"16鄰","STREET":"大安街","SECT":" ","MAREA":" ","LANE":"２０１巷","ALLEY":" ","HOUSE_NO":"３號","E_COORD97":167365.48999999999,"N_COORD97":2548325.0699999998,"ADDRESS":"大安街２０１巷３號","OBJECTID":394825},"geometry":{"x":167365.49000000022,"y":2548325.0700000003}},{"attributes":{"ID":394850,"DIS_CODE":0,"TOWNNAME":"安南區","LI":"理想里","LIN":"16鄰","STREET":"大安街","SECT":" ","MAREA":" ","LANE":"２０１巷","ALLEY":" ","HOUSE_NO":"５號","E_COORD97":167362.38,"N_COORD97":2548327.9900000002,"ADDRESS":"大安街２０１巷５號","OBJECTID":394826},"geometry":{"x":167362.37999999989,"y":2548327.9900000021}},{"attributes":{"ID":394851,"DIS_CODE":0,"TOWNNAME":"安南區","LI":"理想里","LIN":"16鄰","STREET":"大安街","SECT":" ","MAREA":" ","LANE":"２０１巷","ALLEY":" ","HOUSE_NO":"７號","E_COORD97":167357.75,"N_COORD97":2548332.04,"ADDRESS":"大安街２０１巷７號","OBJECTID":394827},"geometry":{"x":167357.75000000093,"y":2548332.0399999972}},{"attributes":{"ID":394852,"DIS_CODE":0,"TOWNNAME":"安南區","LI":"理想里","LIN":"16鄰","STREET":"大安街","SECT":" ","MAREA":" ","LANE":"２０１巷","ALLEY":" ","HOUSE_NO":"９號","E_COORD97":167353.29999999999,"N_COORD97":2548333.5,"ADDRESS":"大安街２０１巷９號","OBJECTID":394828},"geometry":{"x":167353.30000000168,"y":2548333.5000000037}},{"attributes":{"ID":394853,"DIS_CODE":0,"TOWNNAME":"南區","LI":"開南里","LIN":"16鄰","STREET":"新建路","SECT":" ","MAREA":" ","LANE":"２８巷","ALLEY":" ","HOUSE_NO":"１號","E_COORD97":166439.98000000001,"N_COORD97":2541025.5800000001,"ADDRESS":"新建路２８巷１號","OBJECTID":394829},"geometry":{"x":166439.98000000045,"y":2541025.5800000001}},{"attributes":{"ID":394854,"DIS_CODE":0,"TOWNNAME":"南區","LI":"開南里","LIN":"16鄰","STREET":"新建路","SECT":" ","MAREA":" ","LANE":"２８巷","ALLEY":" ","HOUSE_NO":"２號","E_COORD97":166422.91,"N_COORD97":2541051.0499999998,"ADDRESS":"新建路２８巷２號","OBJECTID":394830},"geometry":{"x":166422.91000000108,"y":2541051.0500000007}},{"attributes":{"ID":394855,"DIS_CODE":0,"TOWNNAME":"南區","LI":"開南里","LIN":"16鄰","STREET":"新建路","SECT":" ","MAREA":" ","LANE":"２８巷","ALLEY":" ","HOUSE_NO":"３號","E_COORD97":166434.82000000001,"N_COORD97":2541025.4100000001,"ADDRESS":"新建路２８巷３號","OBJECTID":394831},"geometry":{"x":166434.81999999937,"y":2541025.410000002}},{"attributes":{"ID":394856,"DIS_CODE":0,"TOWNNAME":"南區","LI":"開南里","LIN":"16鄰","STREET":"新建路","SECT":" ","MAREA":" ","LANE":"２８巷","ALLEY":" ","HOUSE_NO":"４號","E_COORD97":166418.20999999999,"N_COORD97":2541051.1899999999,"ADDRESS":"新建路２８巷４號","OBJECTID":394832},"geometry":{"x":166418.20999999903,"y":2541051.1899999995}},{"attributes":{"ID":394857,"DIS_CODE":0,"TOWNNAME":"南區","LI":"開南里","LIN":"16鄰","STREET":"新建路","SECT":" ","MAREA":" ","LANE":"２８巷","ALLEY":" ","HOUSE_NO":"５號","E_COORD97":166422.17999999999,"N_COORD97":2541025.71,"ADDRESS":"新建路２８巷５號","OBJECTID":394833},"geometry":{"x":166422.18000000063,"y":2541025.7100000009}},{"attributes":{"ID":394858,"DIS_CODE":0,"TOWNNAME":"南區","LI":"開南里","LIN":"16鄰","STREET":"新建路","SECT":" ","MAREA":" ","LANE":"２８巷","ALLEY":" ","HOUSE_NO":"６號","E_COORD97":166405.73999999999,"N_COORD97":2541051.4900000002,"ADDRESS":"新建路２８巷６號","OBJECTID":394834},"geometry":{"x":166405.74000000022,"y":2541051.4900000021}},{"attributes":{"ID":394859,"DIS_CODE":0,"TOWNNAME":"南區","LI":"開南里","LIN":"16鄰","STREET":"新建路","SECT":" ","MAREA":" ","LANE":"２８巷","ALLEY":" ","HOUSE_NO":"７號","E_COORD97":166417.04999999999,"N_COORD97":2541025.71,"ADDRESS":"新建路２８巷７號","OBJECTID":394835},"geometry":{"x":166417.04999999981,"y":2541025.7100000009}},{"attributes":{"ID":394860,"DIS_CODE":0,"TOWNNAME":"南區","LI":"開南里","LIN":"16鄰","STREET":"新建路","SECT":" ","MAREA":" ","LANE":"２８巷","ALLEY":" ","HOUSE_NO":"８號","E_COORD97":166400.17000000001,"N_COORD97":2541051.4900000002,"ADDRESS":"新建路２８巷８號","OBJECTID":394836},"geometry":{"x":166400.17000000086,"y":2541051.4900000021}},{"attributes":{"ID":394861,"DIS_CODE":0,"TOWNNAME":"南區","LI":"新昌里","LIN":"16鄰","STREET":"國華街","SECT":"一段","MAREA":" ","LANE":"１０８巷","ALLEY":" ","HOUSE_NO":"１號","E_COORD97":167628.07000000001,"N_COORD97":2542939.5299999998,"ADDRESS":"國華街一段１０８巷１號","OBJECTID":394837},"geometry":{"x":167628.0700000003,"y":2542939.5300000012}},{"attributes":{"ID":394862,"DIS_CODE":0,"TOWNNAME":"南區","LI":"新昌里","LIN":"16鄰","STREET":"國華街","SECT":"一段","MAREA":" ","LANE":"１０８巷","ALLEY":" ","HOUSE_NO":"３號","E_COORD97":167632.57999999999,"N_COORD97":2542939.5299999998,"ADDRESS":"國華街一段１０８巷３號","OBJECTID":394838},"geometry":{"x":167632.58000000007,"y":2542939.5300000012}},{"attributes":{"ID":394863,"DIS_CODE":0,"TOWNNAME":"南區","LI":"新昌里","LIN":"16鄰","STREET":"國華街","SECT":"一段","MAREA":" ","LANE":"１０８巷","ALLEY":" ","HOUSE_NO":"５號","E_COORD97":167641.26000000001,"N_COORD97":2542939.21,"ADDRESS":"國華街一段１０８巷５號","OBJECTID":394839},"geometry":{"x":167641.25999999978,"y":2542939.2100000028}},{"attributes":{"ID":394864,"DIS_CODE":0,"TOWNNAME":"南區","LI":"新昌里","LIN":"16鄰","STREET":"國華街","SECT":"一段","MAREA":" ","LANE":"１０８巷","ALLEY":" ","HOUSE_NO":"６號","E_COORD97":167643.51000000001,"N_COORD97":2542918.9700000002,"ADDRESS":"國華街一段１０８巷６號","OBJECTID":394840},"geometry":{"x":167643.51000000164,"y":2542918.9700000007}},{"attributes":{"ID":394865,"DIS_CODE":0,"TOWNNAME":"南區","LI":"新昌里","LIN":"16鄰","STREET":"國華街","SECT":"一段","MAREA":" ","LANE":"１０８巷","ALLEY":" ","HOUSE_NO":"７號","E_COORD97":167653.81,"N_COORD97":2542939.5299999998,"ADDRESS":"國華街一段１０８巷７號","OBJECTID":394841},"geometry":{"x":167653.81000000052,"y":2542939.5300000012}},{"attributes":{"ID":394866,"DIS_CODE":0,"TOWNNAME":"南區","LI":"新昌里","LIN":"16鄰","STREET":"國華街","SECT":"一段","MAREA":" ","LANE":"１０８巷","ALLEY":" ","HOUSE_NO":"８號","E_COORD97":167653.81,"N_COORD97":2542918.9700000002,"ADDRESS":"國華街一段１０８巷８號","OBJECTID":394842},"geometry":{"x":167653.81000000052,"y":2542918.9700000007}},{"attributes":{"ID":394867,"DIS_CODE":0,"TOWNNAME":"南區","LI":"新昌里","LIN":"16鄰","STREET":"國華街","SECT":"一段","MAREA":" ","LANE":"１０８巷","ALLEY":" ","HOUSE_NO":"９號","E_COORD97":167666.35000000001,"N_COORD97":2542938.5699999998,"ADDRESS":"國華街一段１０８巷９號","OBJECTID":394843},"geometry":{"x":167666.35000000149,"y":2542938.5700000003}},{"attributes":{"ID":394868,"DIS_CODE":0,"TOWNNAME":"南區","LI":"新昌里","LIN":"16鄰","STREET":"國華街","SECT":"一段","MAREA":" ","LANE":"１０８巷","ALLEY":" ","HOUSE_NO":"１１號","E_COORD97":167676.97,"N_COORD97":2542939.8500000001,"ADDRESS":"國華街一段１０８巷１１號","OBJECTID":394844},"geometry":{"x":167676.96999999974,"y":2542939.8500000034}},{"attributes":{"ID":394869,"DIS_CODE":0,"TOWNNAME":"南區","LI":"新昌里","LIN":"16鄰","STREET":"國華街","SECT":"一段","MAREA":" ","LANE":"１０８巷","ALLEY":" ","HOUSE_NO":"１２號","E_COORD97":167671.17999999999,"N_COORD97":2542918.6499999999,"ADDRESS":"國華街一段１０８巷１２號","OBJECTID":394845},"geometry":{"x":167671.18000000063,"y":2542918.6500000022}},{"attributes":{"ID":394870,"DIS_CODE":0,"TOWNNAME":"南區","LI":"新昌里","LIN":"16鄰","STREET":"國華街","SECT":"一段","MAREA":" ","LANE":"１０８巷","ALLEY":" ","HOUSE_NO":"１４號","E_COORD97":167680.5,"N_COORD97":2542918.9700000002,"ADDRESS":"國華街一段１０８巷１４號","OBJECTID":394846},"geometry":{"x":167680.5,"y":2542918.9700000007}},{"attributes":{"ID":394871,"DIS_CODE":0,"TOWNNAME":"南區","LI":"新昌里","LIN":"16鄰","STREET":"國華街","SECT":"一段","MAREA":" ","LANE":"１０８巷","ALLEY":" ","HOUSE_NO":"２號之１","E_COORD97":167633.85999999999,"N_COORD97":2542918.9700000002,"ADDRESS":"國華街一段１０８巷２號之１","OBJECTID":394847},"geometry":{"x":167633.86000000127,"y":2542918.9700000007}},{"attributes":{"ID":394872,"DIS_CODE":0,"TOWNNAME":"南區","LI":"喜北里","LIN":"16鄰","STREET":"喜樹路","SECT":" ","MAREA":" ","LANE":"２２２巷","ALLEY":" ","HOUSE_NO":"９８之１號","E_COORD97":165494.35999999999,"N_COORD97":2538110.3300000001,"ADDRESS":"喜樹路２２２巷９８之１號","OBJECTID":394848},"geometry":{"x":165494.36000000127,"y":2538110.3300000019}},{"attributes":{"ID":394873,"DIS_CODE":0,"TOWNNAME":"安南區","LI":"大安里","LIN":"16鄰","STREET":"義安街","SECT":" ","MAREA":" ","LANE":"１１４巷","ALLEY":" ","HOUSE_NO":"１１號","E_COORD97":167539.85999999999,"N_COORD97":2548101.0499999998,"ADDRESS":"義安街１１４巷１１號","OBJECTID":394849},"geometry":{"x":167539.8600000022,"y":2548101.0500000026}},{"attributes":{"ID":394874,"DIS_CODE":0,"TOWNNAME":"安南區","LI":"大安里","LIN":"16鄰","STREET":"義安街","SECT":" ","MAREA":" ","LANE":"１１４巷","ALLEY":" ","HOUSE_NO":"１３號","E_COORD97":167547.20999999999,"N_COORD97":2548096.8500000001,"ADDRESS":"義安街１１４巷１３號","OBJECTID":394850},"geometry":{"x":167547.20999999903,"y":2548096.8500000034}},{"attributes":{"ID":394875,"DIS_CODE":0,"TOWNNAME":"安南區","LI":"大安里","LIN":"16鄰","STREET":"義安街","SECT":" ","MAREA":" ","LANE":"１１４巷","ALLEY":" ","HOUSE_NO":"１５號","E_COORD97":167552.09,"N_COORD97":2548093.4399999999,"ADDRESS":"義安街１１４巷１５號","OBJECTID":394851},"geometry":{"x":167552.09000000078,"y":2548093.4400000013}},{"attributes":{"ID":394876,"DIS_CODE":0,"TOWNNAME":"安南區","LI":"大安里","LIN":"16鄰","STREET":"義安街","SECT":" ","MAREA":" ","LANE":"１１４巷","ALLEY":" ","HOUSE_NO":"１７號","E_COORD97":167559.57000000001,"N_COORD97":2548090.0099999998,"ADDRESS":"義安街１１４巷１７號","OBJECTID":394852},"geometry":{"x":167559.57000000123,"y":2548090.0100000016}},{"attributes":{"ID":394877,"DIS_CODE":0,"TOWNNAME":"安南區","LI":"大安里","LIN":"16鄰","STREET":"義安街","SECT":" ","MAREA":" ","LANE":"１１４巷","ALLEY":" ","HOUSE_NO":"１９號","E_COORD97":167563.78,"N_COORD97":2548086.6299999999,"ADDRESS":"義安街１１４巷１９號","OBJECTID":394853},"geometry":{"x":167563.78000000026,"y":2548086.629999999}},{"attributes":{"ID":394878,"DIS_CODE":0,"TOWNNAME":"安南區","LI":"大安里","LIN":"16鄰","STREET":"義安街","SECT":" ","MAREA":" ","LANE":"１１４巷","ALLEY":" ","HOUSE_NO":"１號","E_COORD97":167510.79999999999,"N_COORD97":2548120.3100000001,"ADDRESS":"義安街１１４巷１號","OBJECTID":394854},"geometry":{"x":167510.79999999981,"y":2548120.3100000005}},{"attributes":{"ID":394879,"DIS_CODE":0,"TOWNNAME":"安南區","LI":"大安里","LIN":"16鄰","STREET":"義安街","SECT":" ","MAREA":" ","LANE":"１１４巷","ALLEY":" ","HOUSE_NO":"３號","E_COORD97":167515.85000000001,"N_COORD97":2548117.5299999998,"ADDRESS":"義安街１１４巷３號","OBJECTID":394855},"geometry":{"x":167515.85000000056,"y":2548117.5299999993}},{"attributes":{"ID":394880,"DIS_CODE":0,"TOWNNAME":"安南區","LI":"大安里","LIN":"16鄰","STREET":"義安街","SECT":" ","MAREA":" ","LANE":"１１４巷","ALLEY":" ","HOUSE_NO":"５號","E_COORD97":167522.60000000001,"N_COORD97":2548112.73,"ADDRESS":"義安街１１４巷５號","OBJECTID":394856},"geometry":{"x":167522.60000000056,"y":2548112.7300000023}},{"attributes":{"ID":394881,"DIS_CODE":0,"TOWNNAME":"安南區","LI":"大安里","LIN":"16鄰","STREET":"義安街","SECT":" ","MAREA":" ","LANE":"１１４巷","ALLEY":" ","HOUSE_NO":"７號","E_COORD97":167528.10999999999,"N_COORD97":2548110.25,"ADDRESS":"義安街１１４巷７號","OBJECTID":394857},"geometry":{"x":167528.1100000022,"y":2548110.25}},{"attributes":{"ID":394882,"DIS_CODE":0,"TOWNNAME":"安南區","LI":"大安里","LIN":"16鄰","STREET":"義安街","SECT":" ","MAREA":" ","LANE":"１２８巷","ALLEY":" ","HOUSE_NO":"１０號","E_COORD97":167542.5,"N_COORD97":2548115.04,"ADDRESS":"義安街１２８巷１０號","OBJECTID":394858},"geometry":{"x":167542.50000000093,"y":2548115.0399999972}},{"attributes":{"ID":394883,"DIS_CODE":0,"TOWNNAME":"安南區","LI":"大安里","LIN":"16鄰","STREET":"義安街","SECT":" ","MAREA":" ","LANE":"１２８巷","ALLEY":" ","HOUSE_NO":"１２號","E_COORD97":167546.01000000001,"N_COORD97":2548111.9500000002,"ADDRESS":"義安街１２８巷１２號","OBJECTID":394859},"geometry":{"x":167546.00999999978,"y":2548111.9499999993}},{"attributes":{"ID":394884,"DIS_CODE":0,"TOWNNAME":"安南區","LI":"大安里","LIN":"16鄰","STREET":"義安街","SECT":" ","MAREA":" ","LANE":"１２８巷","ALLEY":" ","HOUSE_NO":"１３號","E_COORD97":167566.45000000001,"N_COORD97":2548123.1899999999,"ADDRESS":"義安街１２８巷１３號","OBJECTID":394860},"geometry":{"x":167566.45000000112,"y":2548123.1899999995}},{"attributes":{"ID":394885,"DIS_CODE":0,"TOWNNAME":"安南區","LI":"大安里","LIN":"16鄰","STREET":"義安街","SECT":" ","MAREA":" ","LANE":"１２８巷","ALLEY":" ","HOUSE_NO":"１４號","E_COORD97":167553.63,"N_COORD97":2548108.25,"ADDRESS":"義安街１２８巷１４號","OBJECTID":394861},"geometry":{"x":167553.63000000082,"y":2548108.2500000019}},{"attributes":{"ID":394886,"DIS_CODE":0,"TOWNNAME":"安南區","LI":"大安里","LIN":"16鄰","STREET":"義安街","SECT":" ","MAREA":" ","LANE":"１２８巷","ALLEY":" ","HOUSE_NO":"１５號","E_COORD97":167574.59,"N_COORD97":2548119.1200000001,"ADDRESS":"義安街１２８巷１５號","OBJECTID":394862},"geometry":{"x":167574.58999999985,"y":2548119.120000001}},{"attributes":{"ID":394887,"DIS_CODE":0,"TOWNNAME":"安南區","LI":"大安里","LIN":"16鄰","STREET":"義安街","SECT":" ","MAREA":" ","LANE":"１２８巷","ALLEY":" ","HOUSE_NO":"１６號","E_COORD97":167558.98999999999,"N_COORD97":2548103.9199999999,"ADDRESS":"義安街１２８巷１６號","OBJECTID":394863},"geometry":{"x":167558.99000000022,"y":2548103.9200000018}},{"attributes":{"ID":394888,"DIS_CODE":0,"TOWNNAME":"安南區","LI":"大安里","LIN":"16鄰","STREET":"義安街","SECT":" ","MAREA":" ","LANE":"１２８巷","ALLEY":" ","HOUSE_NO":"１７號","E_COORD97":167579.57000000001,"N_COORD97":2548115.27,"ADDRESS":"義安街１２８巷１７號","OBJECTID":394864},"geometry":{"x":167579.57000000123,"y":2548115.2700000014}},{"attributes":{"ID":394889,"DIS_CODE":0,"TOWNNAME":"安南區","LI":"大安里","LIN":"16鄰","STREET":"義安街","SECT":" ","MAREA":" ","LANE":"１２８巷","ALLEY":" ","HOUSE_NO":"１８號","E_COORD97":167565.98999999999,"N_COORD97":2548100.2200000002,"ADDRESS":"義安街１２８巷１８號","OBJECTID":394865},"geometry":{"x":167565.99000000209,"y":2548100.2200000025}},{"attributes":{"ID":394890,"DIS_CODE":0,"TOWNNAME":"安南區","LI":"大安里","LIN":"16鄰","STREET":"義安街","SECT":" ","MAREA":" ","LANE":"１２８巷","ALLEY":" ","HOUSE_NO":"１號","E_COORD97":167527.97,"N_COORD97":2548148.9700000002,"ADDRESS":"義安街１２８巷１號","OBJECTID":394866},"geometry":{"x":167527.96999999974,"y":2548148.9700000025}},{"attributes":{"ID":394891,"DIS_CODE":0,"TOWNNAME":"安南區","LI":"大安里","LIN":"16鄰","STREET":"義安街","SECT":" ","MAREA":" ","LANE":"１２８巷","ALLEY":" ","HOUSE_NO":"２０號","E_COORD97":167570.32000000001,"N_COORD97":2548096.5099999998,"ADDRESS":"義安街１２８巷２０號","OBJECTID":394867},"geometry":{"x":167570.3200000003,"y":2548096.5100000016}},{"attributes":{"ID":394892,"DIS_CODE":0,"TOWNNAME":"安南區","LI":"大安里","LIN":"16鄰","STREET":"義安街","SECT":" ","MAREA":" ","LANE":"１２８巷","ALLEY":" ","HOUSE_NO":"３號","E_COORD97":167534.54000000001,"N_COORD97":2548145.1200000001,"ADDRESS":"義安街１２８巷３號","OBJECTID":394868},"geometry":{"x":167534.54000000004,"y":2548145.1200000029}},{"attributes":{"ID":394893,"DIS_CODE":0,"TOWNNAME":"安南區","LI":"大安里","LIN":"16鄰","STREET":"義安街","SECT":" ","MAREA":" ","LANE":"１２８巷","ALLEY":" ","HOUSE_NO":"６號","E_COORD97":167529.51999999999,"N_COORD97":2548123.6899999999,"ADDRESS":"義安街１２８巷６號","OBJECTID":394869},"geometry":{"x":167529.52000000142,"y":2548123.6899999995}},{"attributes":{"ID":394894,"DIS_CODE":0,"TOWNNAME":"安南區","LI":"大安里","LIN":"16鄰","STREET":"義安街","SECT":" ","MAREA":" ","LANE":"１２８巷","ALLEY":" ","HOUSE_NO":"７號","E_COORD97":167544.95000000001,"N_COORD97":2548136.98,"ADDRESS":"義安街１２８巷７號","OBJECTID":394870},"geometry":{"x":167544.95000000112,"y":2548136.9800000004}},{"attributes":{"ID":394895,"DIS_CODE":0,"TOWNNAME":"安南區","LI":"大安里","LIN":"16鄰","STREET":"義安街","SECT":" ","MAREA":" ","LANE":"１２８巷","ALLEY":" ","HOUSE_NO":"８號","E_COORD97":167535.5,"N_COORD97":2548120.1899999999,"ADDRESS":"義安街１２８巷８號","OBJECTID":394871},"geometry":{"x":167535.50000000093,"y":2548120.1899999995}},{"attributes":{"ID":394896,"DIS_CODE":0,"TOWNNAME":"安南區","LI":"大安里","LIN":"16鄰","STREET":"義安街","SECT":" ","MAREA":" ","LANE":"１２８巷","ALLEY":" ","HOUSE_NO":"９號","E_COORD97":167552.41,"N_COORD97":2548132.23,"ADDRESS":"義安街１２８巷９號","OBJECTID":394872},"geometry":{"x":167552.41000000015,"y":2548132.2300000042}},{"attributes":{"ID":394897,"DIS_CODE":0,"TOWNNAME":"白河區","LI":"白河里","LIN":"16鄰","STREET":"開明街","SECT":" ","MAREA":" ","LANE":"２１２巷","ALLEY":" ","HOUSE_NO":"３號","E_COORD97":190411.79000000001,"N_COORD97":2583211.98,"ADDRESS":"開明街２１２巷３號","OBJECTID":394873},"geometry":{"x":190411.79000000097,"y":2583211.9800000023}},{"attributes":{"ID":394898,"DIS_CODE":0,"TOWNNAME":"白河區","LI":"白河里","LIN":"16鄰","STREET":"開明街","SECT":" ","MAREA":" ","LANE":"２１２巷","ALLEY":" ","HOUSE_NO":"４號","E_COORD97":190422.67999999999,"N_COORD97":2583216.2400000002,"ADDRESS":"開明街２１２巷４號","OBJECTID":394874},"geometry":{"x":190422.68000000063,"y":2583216.2400000021}},{"attributes":{"ID":394899,"DIS_CODE":0,"TOWNNAME":"白河區","LI":"白河里","LIN":"16鄰","STREET":"開明街","SECT":" ","MAREA":" ","LANE":"２１２巷","ALLEY":" ","HOUSE_NO":"５號","E_COORD97":190413.04999999999,"N_COORD97":2583216.4100000001,"ADDRESS":"開明街２１２巷５號","OBJECTID":394875},"geometry":{"x":190413.05000000168,"y":2583216.4100000001}},{"attributes":{"ID":394900,"DIS_CODE":0,"TOWNNAME":"白河區","LI":"白河里","LIN":"16鄰","STREET":"開明街","SECT":" ","MAREA":" ","LANE":"２１２巷","ALLEY":" ","HOUSE_NO":"６號","E_COORD97":190424.39000000001,"N_COORD97":2583221.8399999999,"ADDRESS":"開明街２１２巷６號","OBJECTID":394876},"geometry":{"x":190424.3900000006,"y":2583221.8400000017}},{"attributes":{"ID":394901,"DIS_CODE":0,"TOWNNAME":"白河區","LI":"白河里","LIN":"16鄰","STREET":"開明街","SECT":" ","MAREA":" ","LANE":"２１２巷","ALLEY":" ","HOUSE_NO":"７號","E_COORD97":190414.54000000001,"N_COORD97":2583221.0499999998,"ADDRESS":"開明街２１２巷７號","OBJECTID":394877},"geometry":{"x":190414.54000000004,"y":2583221.0500000045}},{"attributes":{"ID":394902,"DIS_CODE":0,"TOWNNAME":"白河區","LI":"白河里","LIN":"16鄰","STREET":"開明街","SECT":" ","MAREA":" ","LANE":"２１２巷","ALLEY":" ","HOUSE_NO":"９號","E_COORD97":190415.64999999999,"N_COORD97":2583226.2000000002,"ADDRESS":"開明街２１２巷９號","OBJECTID":394878},"geometry":{"x":190415.65000000037,"y":2583226.2000000011}},{"attributes":{"ID":394903,"DIS_CODE":0,"TOWNNAME":"永康區","LI":"埔園里","LIN":"16鄰","STREET":"中山路","SECT":" ","MAREA":" ","LANE":"３８３巷","ALLEY":" ","HOUSE_NO":"６之１號","E_COORD97":173533.91,"N_COORD97":2548536.9300000002,"ADDRESS":"中山路３８３巷６之１號","OBJECTID":394879},"geometry":{"x":173533.91000000108,"y":2548536.9300000034}},{"attributes":{"ID":394904,"DIS_CODE":0,"TOWNNAME":"永康區","LI":"南灣里","LIN":"16鄰","STREET":"大灣一街","SECT":" ","MAREA":" ","LANE":"１３１巷","ALLEY":" ","HOUSE_NO":"３７號","E_COORD97":174605.81,"N_COORD97":2544756.3100000001,"ADDRESS":"大灣一街１３１巷３７號","OBJECTID":394880},"geometry":{"x":174605.81000000052,"y":2544756.3100000024}},{"attributes":{"ID":394905,"DIS_CODE":0,"TOWNNAME":"永康區","LI":"埔園里","LIN":"16鄰","STREET":"中山路","SECT":" ","MAREA":" ","LANE":"３８３巷","ALLEY":" ","HOUSE_NO":"８號","E_COORD97":173517.35000000001,"N_COORD97":2548533.6299999999,"ADDRESS":"中山路３８３巷８號","OBJECTID":394881},"geometry":{"x":173517.34999999963,"y":2548533.629999999}},{"attributes":{"ID":394906,"DIS_CODE":0,"TOWNNAME":"永康區","LI":"南灣里","LIN":"16鄰","STREET":"大灣一街","SECT":" ","MAREA":" ","LANE":"１３１巷","ALLEY":" ","HOUSE_NO":"６號","E_COORD97":174583.07999999999,"N_COORD97":2544681.0600000001,"ADDRESS":"大灣一街１３１巷６號","OBJECTID":394882},"geometry":{"x":174583.08000000007,"y":2544681.0600000005}},{"attributes":{"ID":394907,"DIS_CODE":0,"TOWNNAME":"永康區","LI":"烏竹里","LIN":"16鄰","STREET":"龍橋街","SECT":" ","MAREA":" ","LANE":"１８６巷","ALLEY":" ","HOUSE_NO":"２９號","E_COORD97":174711.87,"N_COORD97":2548779.29,"ADDRESS":"龍橋街１８６巷２９號","OBJECTID":394883},"geometry":{"x":174711.86999999918,"y":2548779.290000001}},{"attributes":{"ID":394908,"DIS_CODE":0,"TOWNNAME":"永康區","LI":"南灣里","LIN":"16鄰","STREET":"大灣一街","SECT":" ","MAREA":" ","LANE":"１３１巷","ALLEY":" ","HOUSE_NO":"３５號","E_COORD97":174600.29999999999,"N_COORD97":2544757.6499999999,"ADDRESS":"大灣一街１３１巷３５號","OBJECTID":394884},"geometry":{"x":174600.30000000168,"y":2544757.6500000004}},{"attributes":{"ID":394909,"DIS_CODE":0,"TOWNNAME":"永康區","LI":"西勢里","LIN":"16鄰","STREET":"西勢路","SECT":" ","MAREA":" ","LANE":"８２巷","ALLEY":" ","HOUSE_NO":"１６號","E_COORD97":176159.37,"N_COORD97":2546792.2799999998,"ADDRESS":"西勢路８２巷１６號","OBJECTID":394885},"geometry":{"x":176159.37000000011,"y":2546792.2800000012}},{"attributes":{"ID":394910,"DIS_CODE":0,"TOWNNAME":"永康區","LI":"西橋里","LIN":"16鄰","STREET":"大橋一街","SECT":" ","MAREA":" ","LANE":"３１巷","ALLEY":" ","HOUSE_NO":"３５號","E_COORD97":170566.66,"N_COORD97":2546348.3500000001,"ADDRESS":"大橋一街３１巷３５號","OBJECTID":394886},"geometry":{"x":170566.66000000015,"y":2546348.3500000015}},{"attributes":{"ID":394911,"DIS_CODE":0,"TOWNNAME":"永康區","LI":"光復里","LIN":"16鄰","STREET":"復興路","SECT":" ","MAREA":" ","LANE":"１２８巷","ALLEY":" ","HOUSE_NO":"５２號","E_COORD97":172650.13,"N_COORD97":2544395.27,"ADDRESS":"復興路１２８巷５２號","OBJECTID":394887},"geometry":{"x":172650.12999999989,"y":2544395.2700000014}},{"attributes":{"ID":394912,"DIS_CODE":0,"TOWNNAME":"永康區","LI":"西勢里","LIN":"16鄰","STREET":"西勢路","SECT":" ","MAREA":" ","LANE":"６６巷","ALLEY":" ","HOUSE_NO":"３４號","E_COORD97":176151.95000000001,"N_COORD97":2546832.54,"ADDRESS":"西勢路６６巷３４號","OBJECTID":394888},"geometry":{"x":176151.95000000019,"y":2546832.5399999991}},{"attributes":{"ID":394913,"DIS_CODE":0,"TOWNNAME":"永康區","LI":"西橋里","LIN":"16鄰","STREET":"大橋一街","SECT":" ","MAREA":" ","LANE":"３１巷","ALLEY":" ","HOUSE_NO":"２９號","E_COORD97":170564.01000000001,"N_COORD97":2546334.1000000001,"ADDRESS":"大橋一街３１巷２９號","OBJECTID":394889},"geometry":{"x":170564.00999999978,"y":2546334.0999999996}},{"attributes":{"ID":394914,"DIS_CODE":0,"TOWNNAME":"永康區","LI":"西橋里","LIN":"16鄰","STREET":"大橋一街","SECT":" ","MAREA":" ","LANE":"３１巷","ALLEY":" ","HOUSE_NO":"３７號","E_COORD97":170570.85000000001,"N_COORD97":2546363.1400000001,"ADDRESS":"大橋一街３１巷３７號","OBJECTID":394890},"geometry":{"x":170570.85000000056,"y":2546363.1399999987}},{"attributes":{"ID":394915,"DIS_CODE":0,"TOWNNAME":"永康區","LI":"西橋里","LIN":"16鄰","STREET":"大橋一街","SECT":" ","MAREA":" ","LANE":"３１巷","ALLEY":" ","HOUSE_NO":"２７號","E_COORD97":170561.60999999999,"N_COORD97":2546329.8500000001,"ADDRESS":"大橋一街３１巷２７號","OBJECTID":394891},"geometry":{"x":170561.61000000034,"y":2546329.8499999996}},{"attributes":{"ID":394916,"DIS_CODE":0,"TOWNNAME":"永康區","LI":"西橋里","LIN":"16鄰","STREET":"大橋一街","SECT":" ","MAREA":" ","LANE":"３１巷","ALLEY":" ","HOUSE_NO":"３３號","E_COORD97":170563.48000000001,"N_COORD97":2546345.25,"ADDRESS":"大橋一街３１巷３３號","OBJECTID":394892},"geometry":{"x":170563.48000000231,"y":2546345.2500000019}},{"attributes":{"ID":394917,"DIS_CODE":0,"TOWNNAME":"永康區","LI":"西勢里","LIN":"16鄰","STREET":"西勢路","SECT":" ","MAREA":" ","LANE":"６６巷","ALLEY":" ","HOUSE_NO":"２１號","E_COORD97":176135.04000000001,"N_COORD97":2546818.4700000002,"ADDRESS":"西勢路６６巷２１號","OBJECTID":394893},"geometry":{"x":176135.04000000097,"y":2546818.4700000007}},{"attributes":{"ID":394918,"DIS_CODE":0,"TOWNNAME":"永康區","LI":"西勢里","LIN":"16鄰","STREET":"西勢路","SECT":" ","MAREA":" ","LANE":"８２巷","ALLEY":" ","HOUSE_NO":"５１號","E_COORD97":176053.39000000001,"N_COORD97":2546910.02,"ADDRESS":"西勢路８２巷５１號","OBJECTID":394894},"geometry":{"x":176053.38999999966,"y":2546910.0200000014}},{"attributes":{"ID":394919,"DIS_CODE":0,"TOWNNAME":"永康區","LI":"西勢里","LIN":"16鄰","STREET":"西勢路","SECT":" ","MAREA":" ","LANE":"６６巷","ALLEY":" ","HOUSE_NO":"２６號","E_COORD97":176169.09,"N_COORD97":2546831.79,"ADDRESS":"西勢路６６巷２６號","OBJECTID":394895},"geometry":{"x":176169.08999999985,"y":2546831.7899999972}},{"attributes":{"ID":394920,"DIS_CODE":0,"TOWNNAME":"永康區","LI":"西勢里","LIN":"16鄰","STREET":"西勢路","SECT":" ","MAREA":" ","LANE":"６６巷","ALLEY":" ","HOUSE_NO":"２８號","E_COORD97":176164.51999999999,"N_COORD97":2546831.79,"ADDRESS":"西勢路６６巷２８號","OBJECTID":394896},"geometry":{"x":176164.51999999955,"y":2546831.7899999972}},{"attributes":{"ID":394921,"DIS_CODE":0,"TOWNNAME":"永康區","LI":"西勢里","LIN":"16鄰","STREET":"西勢路","SECT":" ","MAREA":" ","LANE":"６６巷","ALLEY":" ","HOUSE_NO":"１９號","E_COORD97":176135.41,"N_COORD97":2546813.2200000002,"ADDRESS":"西勢路６６巷１９號","OBJECTID":394897},"geometry":{"x":176135.41000000015,"y":2546813.2200000007}},{"attributes":{"ID":394922,"DIS_CODE":0,"TOWNNAME":"永康區","LI":"西勢里","LIN":"16鄰","STREET":"西勢路","SECT":" ","MAREA":" ","LANE":"６６巷","ALLEY":" ","HOUSE_NO":"１８號","E_COORD97":176152.85999999999,"N_COORD97":2546814.52,"ADDRESS":"西勢路６６巷１８號","OBJECTID":394898},"geometry":{"x":176152.86000000034,"y":2546814.5200000014}},{"attributes":{"ID":394923,"DIS_CODE":0,"TOWNNAME":"永康區","LI":"西勢里","LIN":"16鄰","STREET":"西勢路","SECT":" ","MAREA":" ","LANE":"８２巷","ALLEY":" ","HOUSE_NO":"６號","E_COORD97":176110.37,"N_COORD97":2546788.2799999998,"ADDRESS":"西勢路８２巷６號","OBJECTID":394899},"geometry":{"x":176110.36999999918,"y":2546788.2800000031}},{"attributes":{"ID":394924,"DIS_CODE":0,"TOWNNAME":"東區","LI":"富裕里","LIN":"16鄰","STREET":"裕豐街","SECT":" ","MAREA":" ","LANE":"８４巷","ALLEY":" ","HOUSE_NO":"２７號之１","E_COORD97":170815.17999999999,"N_COORD97":2542911.9700000002,"ADDRESS":"裕豐街８４巷２７號之１","OBJECTID":394900},"geometry":{"x":170815.1799999997,"y":2542911.9700000007}},{"attributes":{"ID":394925,"DIS_CODE":0,"TOWNNAME":"西港區","LI":"慶安里","LIN":"16鄰","STREET":"慶安路","SECT":" ","MAREA":" ","LANE":"１４６巷","ALLEY":" ","HOUSE_NO":"６號","E_COORD97":168017.34,"N_COORD97":2557937.7999999998,"ADDRESS":"慶安路１４６巷６號","OBJECTID":394901},"geometry":{"x":168017.33999999985,"y":2557937.8000000026}},{"attributes":{"ID":394926,"DIS_CODE":0,"TOWNNAME":"東區","LI":"虎尾里","LIN":"16鄰","STREET":"東成街","SECT":" ","MAREA":" ","LANE":"４６巷","ALLEY":" ","HOUSE_NO":"２９號","E_COORD97":171363.37,"N_COORD97":2542173.0899999999,"ADDRESS":"東成街４６巷２９號","OBJECTID":394902},"geometry":{"x":171363.37000000011,"y":2542173.0900000017}},{"attributes":{"ID":394927,"DIS_CODE":0,"TOWNNAME":"安南區","LI":"淵東里","LIN":"16鄰","STREET":"安中路","SECT":"三段","MAREA":" ","LANE":"２５６巷","ALLEY":" ","HOUSE_NO":"６９號","E_COORD97":165682.01999999999,"N_COORD97":2550023.1800000002,"ADDRESS":"安中路三段２５６巷６９號","OBJECTID":394903},"geometry":{"x":165682.02000000048,"y":2550023.1799999997}},{"attributes":{"ID":394928,"DIS_CODE":0,"TOWNNAME":"南區","LI":"建南里","LIN":"16鄰","STREET":"中華南路","SECT":"二段","MAREA":" ","LANE":"２３３巷","ALLEY":" ","HOUSE_NO":"６之１２號","E_COORD97":166835.31,"N_COORD97":2540116.4100000001,"ADDRESS":"中華南路二段２３３巷６之１２號","OBJECTID":394904},"geometry":{"x":166835.30999999959,"y":2540116.410000002}},{"attributes":{"ID":394929,"DIS_CODE":0,"TOWNNAME":"南區","LI":"建南里","LIN":"16鄰","STREET":"中華南路","SECT":"二段","MAREA":" ","LANE":"２３３巷","ALLEY":" ","HOUSE_NO":"６之１３號","E_COORD97":166832.39000000001,"N_COORD97":2540113.3399999999,"ADDRESS":"中華南路二段２３３巷６之１３號","OBJECTID":394905},"geometry":{"x":166832.3900000006,"y":2540113.3400000017}},{"attributes":{"ID":394930,"DIS_CODE":0,"TOWNNAME":"南區","LI":"建南里","LIN":"16鄰","STREET":"中華南路","SECT":"二段","MAREA":" ","LANE":"２３３巷","ALLEY":" ","HOUSE_NO":"６之１５號","E_COORD97":166829.45999999999,"N_COORD97":2540110.27,"ADDRESS":"中華南路二段２３３巷６之１５號","OBJECTID":394906},"geometry":{"x":166829.45999999996,"y":2540110.2700000014}},{"attributes":{"ID":394931,"DIS_CODE":0,"TOWNNAME":"南區","LI":"建南里","LIN":"16鄰","STREET":"中華南路","SECT":"二段","MAREA":" ","LANE":"２３３巷","ALLEY":" ","HOUSE_NO":"６之１６號","E_COORD97":166826.53,"N_COORD97":2540107.2000000002,"ADDRESS":"中華南路二段２３３巷６之１６號","OBJECTID":394907},"geometry":{"x":166826.53000000026,"y":2540107.2000000011}},{"attributes":{"ID":394932,"DIS_CODE":0,"TOWNNAME":"南區","LI":"建南里","LIN":"16鄰","STREET":"中華南路","SECT":"二段","MAREA":" ","LANE":"２３３巷","ALLEY":" ","HOUSE_NO":"６之１７號","E_COORD97":166823.60000000001,"N_COORD97":2540104.1200000001,"ADDRESS":"中華南路二段２３３巷６之１７號","OBJECTID":394908},"geometry":{"x":166823.59999999963,"y":2540104.120000001}},{"attributes":{"ID":394933,"DIS_CODE":0,"TOWNNAME":"南區","LI":"建南里","LIN":"16鄰","STREET":"中華南路","SECT":"二段","MAREA":" ","LANE":"２３３巷","ALLEY":" ","HOUSE_NO":"６之１８號","E_COORD97":166822.23000000001,"N_COORD97":2540099.2599999998,"ADDRESS":"中華南路二段２３３巷６之１８號","OBJECTID":394909},"geometry":{"x":166822.23000000231,"y":2540099.2599999998}},{"attributes":{"ID":394934,"DIS_CODE":0,"TOWNNAME":"南區","LI":"建南里","LIN":"16鄰","STREET":"中華南路","SECT":"二段","MAREA":" ","LANE":"２３３巷","ALLEY":" ","HOUSE_NO":"６之１９號","E_COORD97":166818.62,"N_COORD97":2540097.8700000001,"ADDRESS":"中華南路二段２３３巷６之１９號","OBJECTID":394910},"geometry":{"x":166818.62000000011,"y":2540097.8700000029}},{"attributes":{"ID":394935,"DIS_CODE":0,"TOWNNAME":"南區","LI":"建南里","LIN":"16鄰","STREET":"中華南路","SECT":"二段","MAREA":" ","LANE":"２３３巷","ALLEY":" ","HOUSE_NO":"６之２０號","E_COORD97":166818.14000000001,"N_COORD97":2540092.4300000002,"ADDRESS":"中華南路二段２３３巷６之２０號","OBJECTID":394911},"geometry":{"x":166818.13999999966,"y":2540092.4300000016}},{"attributes":{"ID":394936,"DIS_CODE":0,"TOWNNAME":"南區","LI":"建南里","LIN":"16鄰","STREET":"中華南路","SECT":"二段","MAREA":" ","LANE":"２３３巷","ALLEY":" ","HOUSE_NO":"６之２１號","E_COORD97":166812.20999999999,"N_COORD97":2540091.1400000001,"ADDRESS":"中華南路二段２３３巷６之２１號","OBJECTID":394912},"geometry":{"x":166812.21000000089,"y":2540091.1400000043}},{"attributes":{"ID":394937,"DIS_CODE":0,"TOWNNAME":"南區","LI":"建南里","LIN":"16鄰","STREET":"中華南路","SECT":"二段","MAREA":" ","LANE":"２３３巷","ALLEY":" ","HOUSE_NO":"６之２２號","E_COORD97":166811.01999999999,"N_COORD97":2540087.9399999999,"ADDRESS":"中華南路二段２３３巷６之２２號","OBJECTID":394913},"geometry":{"x":166811.02000000048,"y":2540087.9400000032}},{"attributes":{"ID":394938,"DIS_CODE":0,"TOWNNAME":"南區","LI":"建南里","LIN":"16鄰","STREET":"中華南路","SECT":"二段","MAREA":" ","LANE":"２３３巷","ALLEY":" ","HOUSE_NO":"６之２３號","E_COORD97":166810.16,"N_COORD97":2540082.0299999998,"ADDRESS":"中華南路二段２３３巷６之２３號","OBJECTID":394914},"geometry":{"x":166810.16000000015,"y":2540082.0299999993}},{"attributes":{"ID":394939,"DIS_CODE":0,"TOWNNAME":"南區","LI":"建南里","LIN":"16鄰","STREET":"中華南路","SECT":"二段","MAREA":" ","LANE":"２３３巷","ALLEY":" ","HOUSE_NO":"６之２５號","E_COORD97":166806.35999999999,"N_COORD97":2540080.8100000001,"ADDRESS":"中華南路二段２３３巷６之２５號","OBJECTID":394915},"geometry":{"x":166806.36000000127,"y":2540080.8100000024}},{"attributes":{"ID":394940,"DIS_CODE":0,"TOWNNAME":"東區","LI":"忠孝里","LIN":"16鄰","STREET":"榮譽街","SECT":" ","MAREA":" ","LANE":"１０７巷","ALLEY":" ","HOUSE_NO":"１０號","E_COORD97":169814.92000000001,"N_COORD97":2541788.1600000001,"ADDRESS":"榮譽街１０７巷１０號","OBJECTID":394916},"geometry":{"x":169814.91999999993,"y":2541788.1600000001}},{"attributes":{"ID":394941,"DIS_CODE":0,"TOWNNAME":"東區","LI":"忠孝里","LIN":"16鄰","STREET":"榮譽街","SECT":" ","MAREA":" ","LANE":"１０７巷","ALLEY":" ","HOUSE_NO":"１２號","E_COORD97":169806.10000000001,"N_COORD97":2541800.9700000002,"ADDRESS":"榮譽街１０７巷１２號","OBJECTID":394917},"geometry":{"x":169806.10000000056,"y":2541800.9700000044}},{"attributes":{"ID":394942,"DIS_CODE":0,"TOWNNAME":"東區","LI":"忠孝里","LIN":"16鄰","STREET":"榮譽街","SECT":" ","MAREA":" ","LANE":"１０７巷","ALLEY":" ","HOUSE_NO":"４號","E_COORD97":169833.34,"N_COORD97":2541763.2999999998,"ADDRESS":"榮譽街１０７巷４號","OBJECTID":394918},"geometry":{"x":169833.34000000078,"y":2541763.3000000026}},{"attributes":{"ID":394943,"DIS_CODE":0,"TOWNNAME":"東區","LI":"忠孝里","LIN":"16鄰","STREET":"榮譽街","SECT":" ","MAREA":" ","LANE":"１０７巷","ALLEY":" ","HOUSE_NO":"６號","E_COORD97":169837.10999999999,"N_COORD97":2541799.4399999999,"ADDRESS":"榮譽街１０７巷６號","OBJECTID":394919},"geometry":{"x":169837.11000000127,"y":2541799.4399999995}},{"attributes":{"ID":394944,"DIS_CODE":0,"TOWNNAME":"東區","LI":"忠孝里","LIN":"16鄰","STREET":"榮譽街","SECT":" ","MAREA":" ","LANE":"１０７巷","ALLEY":" ","HOUSE_NO":"８號","E_COORD97":169818.28,"N_COORD97":2541802.1800000002,"ADDRESS":"榮譽街１０７巷８號","OBJECTID":394920},"geometry":{"x":169818.28000000026,"y":2541802.1800000034}},{"attributes":{"ID":394945,"DIS_CODE":0,"TOWNNAME":"東區","LI":"小東里","LIN":"16鄰","STREET":"光明街","SECT":" ","MAREA":" ","LANE":"６６巷","ALLEY":" ","HOUSE_NO":"２１號","E_COORD97":170868.01999999999,"N_COORD97":2544161.3700000001,"ADDRESS":"光明街６６巷２１號","OBJECTID":394921},"geometry":{"x":170868.02000000048,"y":2544161.370000001}},{"attributes":{"ID":394946,"DIS_CODE":0,"TOWNNAME":"東區","LI":"小東里","LIN":"16鄰","STREET":"光明街","SECT":" ","MAREA":" ","LANE":"６６巷","ALLEY":" ","HOUSE_NO":"２１號之１","E_COORD97":170872.73000000001,"N_COORD97":2544162,"ADDRESS":"光明街６６巷２１號之１","OBJECTID":394922},"geometry":{"x":170872.73000000138,"y":2544162}},{"attributes":{"ID":394947,"DIS_CODE":0,"TOWNNAME":"東區","LI":"小東里","LIN":"16鄰","STREET":"光明街","SECT":" ","MAREA":" ","LANE":"６６巷","ALLEY":" ","HOUSE_NO":"２１號之２","E_COORD97":170876.95999999999,"N_COORD97":2544162.3100000001,"ADDRESS":"光明街６６巷２１號之２","OBJECTID":394923},"geometry":{"x":170876.96000000089,"y":2544162.3100000024}},{"attributes":{"ID":394948,"DIS_CODE":0,"TOWNNAME":"東區","LI":"小東里","LIN":"16鄰","STREET":"光明街","SECT":" ","MAREA":" ","LANE":"６６巷","ALLEY":" ","HOUSE_NO":"２１號之３","E_COORD97":170881.67000000001,"N_COORD97":2544162.4700000002,"ADDRESS":"光明街６６巷２１號之３","OBJECTID":394924},"geometry":{"x":170881.66999999993,"y":2544162.4700000007}},{"attributes":{"ID":394949,"DIS_CODE":0,"TOWNNAME":"東區","LI":"小東里","LIN":"16鄰","STREET":"光明街","SECT":" ","MAREA":" ","LANE":"６６巷","ALLEY":" ","HOUSE_NO":"１１號","E_COORD97":170872.57000000001,"N_COORD97":2544195.04,"ADDRESS":"光明街６６巷１１號","OBJECTID":394925},"geometry":{"x":170872.5700000003,"y":2544195.0399999991}},{"attributes":{"ID":394950,"DIS_CODE":0,"TOWNNAME":"東區","LI":"小東里","LIN":"16鄰","STREET":"光明街","SECT":" ","MAREA":" ","LANE":"６６巷","ALLEY":" ","HOUSE_NO":"１５號之１","E_COORD97":170874.76999999999,"N_COORD97":2544187.21,"ADDRESS":"光明街６６巷１５號之１","OBJECTID":394926},"geometry":{"x":170874.77000000048,"y":2544187.2100000028}},{"attributes":{"ID":394951,"DIS_CODE":0,"TOWNNAME":"東區","LI":"小東里","LIN":"16鄰","STREET":"光明街","SECT":" ","MAREA":" ","LANE":"６６巷","ALLEY":" ","HOUSE_NO":"１５號之２","E_COORD97":170871.47,"N_COORD97":2544187.0499999998,"ADDRESS":"光明街６６巷１５號之２","OBJECTID":394927},"geometry":{"x":170871.47000000067,"y":2544187.0500000007}},{"attributes":{"ID":394952,"DIS_CODE":0,"TOWNNAME":"東區","LI":"小東里","LIN":"16鄰","STREET":"光明街","SECT":" ","MAREA":" ","LANE":"６６巷","ALLEY":" ","HOUSE_NO":"１５號之３","E_COORD97":170868.34,"N_COORD97":2544180.0099999998,"ADDRESS":"光明街６６巷１５號之３","OBJECTID":394928},"geometry":{"x":170868.33999999985,"y":2544180.0100000035}},{"attributes":{"ID":394953,"DIS_CODE":0,"TOWNNAME":"東區","LI":"小東里","LIN":"16鄰","STREET":"光明街","SECT":" ","MAREA":" ","LANE":"６６巷","ALLEY":" ","HOUSE_NO":"１９號","E_COORD97":170873.82999999999,"N_COORD97":2544171.3900000001,"ADDRESS":"光明街６６巷１９號","OBJECTID":394929},"geometry":{"x":170873.83000000007,"y":2544171.3900000043}},{"attributes":{"ID":394954,"DIS_CODE":0,"TOWNNAME":"東區","LI":"小東里","LIN":"16鄰","STREET":"光明街","SECT":" ","MAREA":" ","LANE":"６６巷","ALLEY":" ","HOUSE_NO":"１５號","E_COORD97":170878.84,"N_COORD97":2544187.6800000002,"ADDRESS":"光明街６６巷１５號","OBJECTID":394930},"geometry":{"x":170878.83999999985,"y":2544187.6799999997}},{"attributes":{"ID":394955,"DIS_CODE":0,"TOWNNAME":"東區","LI":"小東里","LIN":"16鄰","STREET":"光明街","SECT":" ","MAREA":" ","LANE":"６６巷","ALLEY":" ","HOUSE_NO":"１５號之４","E_COORD97":170866.92999999999,"N_COORD97":2544187.21,"ADDRESS":"光明街６６巷１５號之４","OBJECTID":394931},"geometry":{"x":170866.93000000063,"y":2544187.2100000028}},{"attributes":{"ID":394956,"DIS_CODE":0,"TOWNNAME":"東區","LI":"小東里","LIN":"16鄰","STREET":"光明街","SECT":" ","MAREA":" ","LANE":"６６巷","ALLEY":" ","HOUSE_NO":"２５號之１","E_COORD97":170851.56,"N_COORD97":2544210.4399999999,"ADDRESS":"光明街６６巷２５號之１","OBJECTID":394932},"geometry":{"x":170851.55999999959,"y":2544210.4400000032}},{"attributes":{"ID":394957,"DIS_CODE":0,"TOWNNAME":"安南區","LI":"淵東里","LIN":"16鄰","STREET":"安中路","SECT":"三段","MAREA":" ","LANE":"２５６巷","ALLEY":" ","HOUSE_NO":"５１號","E_COORD97":165707.87,"N_COORD97":2550009.6800000002,"ADDRESS":"安中路三段２５６巷５１號","OBJECTID":394933},"geometry":{"x":165707.87000000104,"y":2550009.6799999997}},{"attributes":{"ID":394958,"DIS_CODE":0,"TOWNNAME":"安南區","LI":"淵東里","LIN":"16鄰","STREET":"安中路","SECT":"三段","MAREA":" ","LANE":"２５６巷","ALLEY":" ","HOUSE_NO":"５３號","E_COORD97":165703.85000000001,"N_COORD97":2550009.04,"ADDRESS":"安中路三段２５６巷５３號","OBJECTID":394934},"geometry":{"x":165703.85000000056,"y":2550009.0399999991}},{"attributes":{"ID":394959,"DIS_CODE":0,"TOWNNAME":"安南區","LI":"淵東里","LIN":"16鄰","STREET":"安中路","SECT":"三段","MAREA":" ","LANE":"２５６巷","ALLEY":" ","HOUSE_NO":"５５號","E_COORD97":165699.64999999999,"N_COORD97":2550009.04,"ADDRESS":"安中路三段２５６巷５５號","OBJECTID":394935},"geometry":{"x":165699.65000000037,"y":2550009.0399999991}},{"attributes":{"ID":394960,"DIS_CODE":0,"TOWNNAME":"安南區","LI":"淵東里","LIN":"16鄰","STREET":"安中路","SECT":"三段","MAREA":" ","LANE":"２５６巷","ALLEY":" ","HOUSE_NO":"５７號","E_COORD97":165694.98999999999,"N_COORD97":2550008.6800000002,"ADDRESS":"安中路三段２５６巷５７號","OBJECTID":394936},"geometry":{"x":165694.99000000115,"y":2550008.6799999997}},{"attributes":{"ID":394961,"DIS_CODE":0,"TOWNNAME":"安南區","LI":"淵東里","LIN":"16鄰","STREET":"安中路","SECT":"三段","MAREA":" ","LANE":"２５６巷","ALLEY":" ","HOUSE_NO":"５９號","E_COORD97":165690.79000000001,"N_COORD97":2550008.3999999999,"ADDRESS":"安中路三段２５６巷５９號","OBJECTID":394937},"geometry":{"x":165690.79000000097,"y":2550008.4000000004}},{"attributes":{"ID":394962,"DIS_CODE":0,"TOWNNAME":"安南區","LI":"淵東里","LIN":"16鄰","STREET":"安中路","SECT":"三段","MAREA":" ","LANE":"２５６巷","ALLEY":" ","HOUSE_NO":"６１號","E_COORD97":165686.39999999999,"N_COORD97":2550008.04,"ADDRESS":"安中路三段２５６巷６１號","OBJECTID":394938},"geometry":{"x":165686.40000000037,"y":2550008.040000001}},{"attributes":{"ID":394963,"DIS_CODE":0,"TOWNNAME":"安南區","LI":"淵東里","LIN":"16鄰","STREET":"安中路","SECT":"三段","MAREA":" ","LANE":"３１６巷","ALLEY":" ","HOUSE_NO":"１０號","E_COORD97":165597.39000000001,"N_COORD97":2549977.5800000001,"ADDRESS":"安中路三段３１６巷１０號","OBJECTID":394939},"geometry":{"x":165597.38999999966,"y":2549977.5800000019}},{"attributes":{"ID":394964,"DIS_CODE":0,"TOWNNAME":"安南區","LI":"淵東里","LIN":"16鄰","STREET":"安中路","SECT":"三段","MAREA":" ","LANE":"３１６巷","ALLEY":" ","HOUSE_NO":"１１號","E_COORD97":165595.60000000001,"N_COORD97":2550000.1899999999,"ADDRESS":"安中路三段３１６巷１１號","OBJECTID":394940},"geometry":{"x":165595.60000000056,"y":2550000.1900000013}},{"attributes":{"ID":394965,"DIS_CODE":0,"TOWNNAME":"安南區","LI":"淵東里","LIN":"16鄰","STREET":"安中路","SECT":"三段","MAREA":" ","LANE":"３１６巷","ALLEY":" ","HOUSE_NO":"１２號","E_COORD97":165601.26000000001,"N_COORD97":2549981.46,"ADDRESS":"安中路三段３１６巷１２號","OBJECTID":394941},"geometry":{"x":165601.26000000071,"y":2549981.4600000009}},{"attributes":{"ID":394966,"DIS_CODE":0,"TOWNNAME":"安南區","LI":"淵東里","LIN":"16鄰","STREET":"安中路","SECT":"三段","MAREA":" ","LANE":"３１６巷","ALLEY":" ","HOUSE_NO":"１號","E_COORD97":165571.78,"N_COORD97":2549981.46,"ADDRESS":"安中路三段３１６巷１號","OBJECTID":394942},"geometry":{"x":165571.78000000026,"y":2549981.4600000009}},{"attributes":{"ID":394967,"DIS_CODE":0,"TOWNNAME":"安南區","LI":"淵東里","LIN":"16鄰","STREET":"安中路","SECT":"三段","MAREA":" ","LANE":"３１６巷","ALLEY":" ","HOUSE_NO":"１６號","E_COORD97":165611.07999999999,"N_COORD97":2549989.1899999999,"ADDRESS":"安中路三段３１６巷１６號","OBJECTID":394943},"geometry":{"x":165611.08000000101,"y":2549989.1899999995}},{"attributes":{"ID":394968,"DIS_CODE":0,"TOWNNAME":"安南區","LI":"淵東里","LIN":"16鄰","STREET":"安中路","SECT":"三段","MAREA":" ","LANE":"３１６巷","ALLEY":" ","HOUSE_NO":"２０號","E_COORD97":165619.72,"N_COORD97":2549996.9199999999,"ADDRESS":"安中路三段３１６巷２０號","OBJECTID":394944},"geometry":{"x":165619.7200000016,"y":2549996.9199999999}},{"attributes":{"ID":394969,"DIS_CODE":0,"TOWNNAME":"安南區","LI":"淵東里","LIN":"16鄰","STREET":"安中路","SECT":"三段","MAREA":" ","LANE":"３１６巷","ALLEY":" ","HOUSE_NO":"２號","E_COORD97":165579.51999999999,"N_COORD97":2549962.73,"ADDRESS":"安中路三段３１６巷２號","OBJECTID":394945},"geometry":{"x":165579.51999999955,"y":2549962.7300000004}},{"attributes":{"ID":394970,"DIS_CODE":0,"TOWNNAME":"安南區","LI":"淵東里","LIN":"16鄰","STREET":"安中路","SECT":"三段","MAREA":" ","LANE":"３１６巷","ALLEY":" ","HOUSE_NO":"３號","E_COORD97":165576.54000000001,"N_COORD97":2549984.4300000002,"ADDRESS":"安中路三段３１６巷３號","OBJECTID":394946},"geometry":{"x":165576.54000000004,"y":2549984.4299999978}},{"attributes":{"ID":394971,"DIS_CODE":0,"TOWNNAME":"安南區","LI":"淵東里","LIN":"16鄰","STREET":"安中路","SECT":"三段","MAREA":" ","LANE":"３１６巷","ALLEY":" ","HOUSE_NO":"５號","E_COORD97":165581.60999999999,"N_COORD97":2549988.6000000001,"ADDRESS":"安中路三段３１６巷５號","OBJECTID":394947},"geometry":{"x":165581.61000000034,"y":2549988.5999999996}},{"attributes":{"ID":394972,"DIS_CODE":0,"TOWNNAME":"安南區","LI":"淵東里","LIN":"16鄰","STREET":"安中路","SECT":"三段","MAREA":" ","LANE":"３１６巷","ALLEY":" ","HOUSE_NO":"６號","E_COORD97":165587.85999999999,"N_COORD97":2549970.1600000001,"ADDRESS":"安中路三段３１６巷６號","OBJECTID":394948},"geometry":{"x":165587.86000000127,"y":2549970.1600000039}},{"attributes":{"ID":394973,"DIS_CODE":0,"TOWNNAME":"安南區","LI":"淵東里","LIN":"16鄰","STREET":"安中路","SECT":"三段","MAREA":" ","LANE":"３１６巷","ALLEY":" ","HOUSE_NO":"７號","E_COORD97":165586.07000000001,"N_COORD97":2549992.46,"ADDRESS":"安中路三段３１６巷７號","OBJECTID":394949},"geometry":{"x":165586.07000000123,"y":2549992.4600000046}},{"attributes":{"ID":394974,"DIS_CODE":0,"TOWNNAME":"安南區","LI":"淵東里","LIN":"16鄰","STREET":"安中路","SECT":"三段","MAREA":" ","LANE":"３１６巷","ALLEY":" ","HOUSE_NO":"８號","E_COORD97":165592.32000000001,"N_COORD97":2549974.3199999998,"ADDRESS":"安中路三段３１６巷８號","OBJECTID":394950},"geometry":{"x":165592.32000000216,"y":2549974.3200000003}},{"attributes":{"ID":394975,"DIS_CODE":0,"TOWNNAME":"安南區","LI":"淵東里","LIN":"16鄰","STREET":"智安一街","SECT":" ","MAREA":" ","LANE":"１３巷","ALLEY":" ","HOUSE_NO":"１４號","E_COORD97":165604.82999999999,"N_COORD97":2549967.4900000002,"ADDRESS":"智安一街１３巷１４號","OBJECTID":394951},"geometry":{"x":165604.83000000007,"y":2549967.4900000002}},{"attributes":{"ID":394976,"DIS_CODE":0,"TOWNNAME":"安南區","LI":"淵東里","LIN":"16鄰","STREET":"智安一街","SECT":" ","MAREA":" ","LANE":"１３巷","ALLEY":" ","HOUSE_NO":"１號","E_COORD97":165637.03,"N_COORD97":2549959.1099999999,"ADDRESS":"智安一街１３巷１號","OBJECTID":394952},"geometry":{"x":165637.03000000119,"y":2549959.1099999994}},{"attributes":{"ID":394977,"DIS_CODE":0,"TOWNNAME":"安南區","LI":"淵東里","LIN":"16鄰","STREET":"智安一街","SECT":" ","MAREA":" ","LANE":"１３巷","ALLEY":" ","HOUSE_NO":"２號","E_COORD97":165633.54000000001,"N_COORD97":2549993.23,"ADDRESS":"智安一街１３巷２號","OBJECTID":394953},"geometry":{"x":165633.54000000097,"y":2549993.2300000004}},{"attributes":{"ID":394978,"DIS_CODE":0,"TOWNNAME":"安南區","LI":"淵東里","LIN":"16鄰","STREET":"智安一街","SECT":" ","MAREA":" ","LANE":"１３巷","ALLEY":" ","HOUSE_NO":"３號","E_COORD97":165632.98999999999,"N_COORD97":2549958.5299999998,"ADDRESS":"智安一街１３巷３號","OBJECTID":394954},"geometry":{"x":165632.99000000022,"y":2549958.5299999993}},{"attributes":{"ID":394979,"DIS_CODE":0,"TOWNNAME":"東區","LI":"虎尾里","LIN":"16鄰","STREET":"東成街","SECT":" ","MAREA":" ","LANE":"４６巷","ALLEY":" ","HOUSE_NO":"３９號","E_COORD97":171365.07999999999,"N_COORD97":2542153.0600000001,"ADDRESS":"東成街４６巷３９號","OBJECTID":394955},"geometry":{"x":171365.08000000007,"y":2542153.0600000042}},{"attributes":{"ID":394980,"DIS_CODE":0,"TOWNNAME":"安南區","LI":"城南里","LIN":"16鄰","STREET":"青砂街","SECT":"一段","MAREA":" ","LANE":"３１巷","ALLEY":" ","HOUSE_NO":"１１號","E_COORD97":160648.14000000001,"N_COORD97":2551474.1000000001,"ADDRESS":"青砂街一段３１巷１１號","OBJECTID":394956},"geometry":{"x":160648.14000000153,"y":2551474.0999999996}},{"attributes":{"ID":394981,"DIS_CODE":0,"TOWNNAME":"安南區","LI":"城南里","LIN":"16鄰","STREET":"青砂街","SECT":"一段","MAREA":" ","LANE":"３１巷","ALLEY":" ","HOUSE_NO":"１３號","E_COORD97":160652.12,"N_COORD97":2551464.5499999998,"ADDRESS":"青砂街一段３１巷１３號","OBJECTID":394957},"geometry":{"x":160652.12000000197,"y":2551464.5500000026}},{"attributes":{"ID":394982,"DIS_CODE":0,"TOWNNAME":"安南區","LI":"城南里","LIN":"16鄰","STREET":"青砂街","SECT":"一段","MAREA":" ","LANE":"３１巷","ALLEY":" ","HOUSE_NO":"１４號","E_COORD97":160651.87,"N_COORD97":2551459.8300000001,"ADDRESS":"青砂街一段３１巷１４號","OBJECTID":394958},"geometry":{"x":160651.87000000011,"y":2551459.8300000001}},{"attributes":{"ID":394983,"DIS_CODE":0,"TOWNNAME":"安南區","LI":"城南里","LIN":"16鄰","STREET":"青砂街","SECT":"一段","MAREA":" ","LANE":"３１巷","ALLEY":" ","HOUSE_NO":"１號","E_COORD97":160645.64999999999,"N_COORD97":2551517.29,"ADDRESS":"青砂街一段３１巷１號","OBJECTID":394959},"geometry":{"x":160645.6500000013,"y":2551517.2899999972}},{"attributes":{"ID":394984,"DIS_CODE":0,"TOWNNAME":"安南區","LI":"城南里","LIN":"16鄰","STREET":"青砂街","SECT":"一段","MAREA":" ","LANE":"３１巷","ALLEY":" ","HOUSE_NO":"２號","E_COORD97":160646.39999999999,"N_COORD97":2551514.0600000001,"ADDRESS":"青砂街一段３１巷２號","OBJECTID":394960},"geometry":{"x":160646.40000000037,"y":2551514.0600000024}},{"attributes":{"ID":394985,"DIS_CODE":0,"TOWNNAME":"安南區","LI":"城南里","LIN":"16鄰","STREET":"青砂街","SECT":"一段","MAREA":" ","LANE":"３１巷","ALLEY":" ","HOUSE_NO":"３號","E_COORD97":160646.89999999999,"N_COORD97":2551510.3399999999,"ADDRESS":"青砂街一段３１巷３號","OBJECTID":394961},"geometry":{"x":160646.90000000037,"y":2551510.3399999999}},{"attributes":{"ID":394986,"DIS_CODE":0,"TOWNNAME":"安南區","LI":"城南里","LIN":"16鄰","STREET":"青砂街","SECT":"一段","MAREA":" ","LANE":"３１巷","ALLEY":" ","HOUSE_NO":"５號","E_COORD97":160647.39000000001,"N_COORD97":2551501.8999999999,"ADDRESS":"青砂街一段３１巷５號","OBJECTID":394962},"geometry":{"x":160647.38999999966,"y":2551501.9000000022}},{"attributes":{"ID":394987,"DIS_CODE":0,"TOWNNAME":"安南區","LI":"城南里","LIN":"16鄰","STREET":"青砂街","SECT":"一段","MAREA":" ","LANE":"３１巷","ALLEY":" ","HOUSE_NO":"７號","E_COORD97":160646.64999999999,"N_COORD97":2551492.2200000002,"ADDRESS":"青砂街一段３１巷７號","OBJECTID":394963},"geometry":{"x":160646.65000000037,"y":2551492.2199999988}},{"attributes":{"ID":394988,"DIS_CODE":0,"TOWNNAME":"安南區","LI":"城南里","LIN":"16鄰","STREET":"青砂街","SECT":"一段","MAREA":" ","LANE":"３１巷","ALLEY":" ","HOUSE_NO":"８號","E_COORD97":160648.39000000001,"N_COORD97":2551488.9900000002,"ADDRESS":"青砂街一段３１巷８號","OBJECTID":394964},"geometry":{"x":160648.3900000006,"y":2551488.9900000002}},{"attributes":{"ID":394989,"DIS_CODE":0,"TOWNNAME":"安南區","LI":"城南里","LIN":"16鄰","STREET":"青砂街","SECT":"一段","MAREA":" ","LANE":"３１巷","ALLEY":" ","HOUSE_NO":"９號","E_COORD97":160650.13,"N_COORD97":2551485.52,"ADDRESS":"青砂街一段３１巷９號","OBJECTID":394965},"geometry":{"x":160650.13000000175,"y":2551485.5199999996}},{"attributes":{"ID":394990,"DIS_CODE":0,"TOWNNAME":"東區","LI":"虎尾里","LIN":"16鄰","STREET":"東成街","SECT":" ","MAREA":" ","LANE":"４６巷","ALLEY":" ","HOUSE_NO":"５號","E_COORD97":171362.14000000001,"N_COORD97":2542224.9700000002,"ADDRESS":"東成街４６巷５號","OBJECTID":394966},"geometry":{"x":171362.1400000006,"y":2542224.9700000044}},{"attributes":{"ID":394991,"DIS_CODE":0,"TOWNNAME":"安南區","LI":"淵東里","LIN":"16鄰","STREET":"安中路","SECT":"三段","MAREA":" ","LANE":"２５６巷","ALLEY":" ","HOUSE_NO":"６７號","E_COORD97":165678.17999999999,"N_COORD97":2550022.9100000001,"ADDRESS":"安中路三段２５６巷６７號","OBJECTID":394967},"geometry":{"x":165678.18000000063,"y":2550022.910000002}},{"attributes":{"ID":394992,"DIS_CODE":0,"TOWNNAME":"安南區","LI":"淵東里","LIN":"16鄰","STREET":"安中路","SECT":"三段","MAREA":" ","LANE":"２５６巷","ALLEY":" ","HOUSE_NO":"６３號","E_COORD97":165681.64999999999,"N_COORD97":2550007.4900000002,"ADDRESS":"安中路三段２５６巷６３號","OBJECTID":394968},"geometry":{"x":165681.64999999944,"y":2550007.4900000002}},{"attributes":{"ID":394993,"DIS_CODE":0,"TOWNNAME":"安南區","LI":"淵東里","LIN":"16鄰","STREET":"安中路","SECT":"三段","MAREA":" ","LANE":"２５６巷","ALLEY":" ","HOUSE_NO":"６５號","E_COORD97":165677.32000000001,"N_COORD97":2550007.23,"ADDRESS":"安中路三段２５６巷６５號","OBJECTID":394969},"geometry":{"x":165677.32000000123,"y":2550007.2300000042}},{"attributes":{"ID":394994,"DIS_CODE":0,"TOWNNAME":"安南區","LI":"淵東里","LIN":"16鄰","STREET":"安中路","SECT":"三段","MAREA":" ","LANE":"２５６巷","ALLEY":" ","HOUSE_NO":"７１號","E_COORD97":165686.22,"N_COORD97":2550023.4500000002,"ADDRESS":"安中路三段２５６巷７１號","OBJECTID":394970},"geometry":{"x":165686.22000000067,"y":2550023.4499999993}},{"attributes":{"ID":394995,"DIS_CODE":0,"TOWNNAME":"安南區","LI":"淵東里","LIN":"16鄰","STREET":"安中路","SECT":"三段","MAREA":" ","LANE":"２５６巷","ALLEY":" ","HOUSE_NO":"７９號","E_COORD97":165703.48999999999,"N_COORD97":2550024.3700000001,"ADDRESS":"安中路三段２５６巷７９號","OBJECTID":394971},"geometry":{"x":165703.49000000115,"y":2550024.3700000029}},{"attributes":{"ID":394996,"DIS_CODE":0,"TOWNNAME":"安南區","LI":"城南里","LIN":"16鄰","STREET":"青砂街","SECT":"一段","MAREA":" ","LANE":"３１巷","ALLEY":" ","HOUSE_NO":"１０號","E_COORD97":160649.38,"N_COORD97":2551481.0499999998,"ADDRESS":"青砂街一段３１巷１０號","OBJECTID":394972},"geometry":{"x":160649.37999999989,"y":2551481.0500000026}},{"attributes":{"ID":394997,"DIS_CODE":0,"TOWNNAME":"安南區","LI":"淵東里","LIN":"16鄰","STREET":"安中路","SECT":"三段","MAREA":" ","LANE":"３１６巷","ALLEY":" ","HOUSE_NO":"２號之１","E_COORD97":165582.79999999999,"N_COORD97":2549966.5899999999,"ADDRESS":"安中路三段３１６巷２號之１","OBJECTID":394973},"geometry":{"x":165582.79999999981,"y":2549966.589999998}},{"attributes":{"ID":394998,"DIS_CODE":0,"TOWNNAME":"東區","LI":"虎尾里","LIN":"16鄰","STREET":"東成街","SECT":" ","MAREA":" ","LANE":"４６巷","ALLEY":" ","HOUSE_NO":"７號","E_COORD97":171362.39000000001,"N_COORD97":2542219.9500000002,"ADDRESS":"東成街４６巷７號","OBJECTID":394974},"geometry":{"x":171362.3900000006,"y":2542219.9499999974}},{"attributes":{"ID":394999,"DIS_CODE":0,"TOWNNAME":"安南區","LI":"城南里","LIN":"16鄰","STREET":"青砂街","SECT":"一段","MAREA":" ","LANE":"６５巷","ALLEY":" ","HOUSE_NO":"６２號之５","E_COORD97":160419.20999999999,"N_COORD97":2551600.1400000001,"ADDRESS":"青砂街一段６５巷６２號之５","OBJECTID":394975},"geometry":{"x":160419.21000000089,"y":2551600.1400000006}},{"attributes":{"ID":395000,"DIS_CODE":0,"TOWNNAME":"安南區","LI":"學東里","LIN":"16鄰","STREET":"城北路","SECT":" ","MAREA":" ","LANE":"７３６巷","ALLEY":" ","HOUSE_NO":"６３號","E_COORD97":161123.48000000001,"N_COORD97":2553041.7599999998,"ADDRESS":"城北路７３６巷６３號","OBJECTID":394976},"geometry":{"x":161123.48000000138,"y":2553041.7600000016}},{"attributes":{"ID":395001,"DIS_CODE":0,"TOWNNAME":"安南區","LI":"安和里","LIN":"16鄰","STREET":"安和路","SECT":"一段","MAREA":" ","LANE":"９６巷","ALLEY":" ","HOUSE_NO":"１號之１","E_COORD97":169530.91,"N_COORD97":2547604.1000000001,"ADDRESS":"安和路一段９６巷１號之１","OBJECTID":394977},"geometry":{"x":169530.91000000015,"y":2547604.1000000015}},{"attributes":{"ID":395002,"DIS_CODE":0,"TOWNNAME":"東區","LI":"虎尾里","LIN":"16鄰","STREET":"東成街","SECT":" ","MAREA":" ","LANE":"４６巷","ALLEY":" ","HOUSE_NO":"９號","E_COORD97":171363.25,"N_COORD97":2542215.4199999999,"ADDRESS":"東成街４６巷９號","OBJECTID":394978},"geometry":{"x":171363.25000000093,"y":2542215.4200000018}},{"attributes":{"ID":395003,"DIS_CODE":0,"TOWNNAME":"善化區","LI":"光文里","LIN":"16鄰","STREET":"信義路","SECT":" ","MAREA":" ","LANE":"１５５巷","ALLEY":" ","HOUSE_NO":"７號","E_COORD97":178191.51000000001,"N_COORD97":2559041.5,"ADDRESS":"信義路１５５巷７號","OBJECTID":394979},"geometry":{"x":178191.51000000071,"y":2559041.5000000019}},{"attributes":{"ID":395004,"DIS_CODE":0,"TOWNNAME":"善化區","LI":"光文里","LIN":"16鄰","STREET":"信義路","SECT":" ","MAREA":" ","LANE":"１５５巷","ALLEY":" ","HOUSE_NO":"９號","E_COORD97":178183.16,"N_COORD97":2559040.25,"ADDRESS":"信義路１５５巷９號","OBJECTID":394980},"geometry":{"x":178183.16000000015,"y":2559040.25}},{"attributes":{"ID":395005,"DIS_CODE":0,"TOWNNAME":"善化區","LI":"光文里","LIN":"16鄰","STREET":"信義路","SECT":" ","MAREA":" ","LANE":"１５５巷","ALLEY":" ","HOUSE_NO":"１２號","E_COORD97":178169.95999999999,"N_COORD97":2559038,"ADDRESS":"信義路１５５巷１２號","OBJECTID":394981},"geometry":{"x":178169.96000000089,"y":2559038.0000000019}},{"attributes":{"ID":395006,"DIS_CODE":0,"TOWNNAME":"安南區","LI":"安和里","LIN":"16鄰","STREET":"安和路","SECT":"一段","MAREA":" ","LANE":"９６巷","ALLEY":" ","HOUSE_NO":"１號之２","E_COORD97":169535.12,"N_COORD97":2547611.6099999999,"ADDRESS":"安和路一段９６巷１號之２","OBJECTID":394982},"geometry":{"x":169535.12000000104,"y":2547611.6099999994}},{"attributes":{"ID":395007,"DIS_CODE":0,"TOWNNAME":"安南區","LI":"海南里","LIN":"16鄰","STREET":"府安路","SECT":"七段","MAREA":" ","LANE":"９３巷","ALLEY":" ","HOUSE_NO":"２號之１","E_COORD97":165824.85000000001,"N_COORD97":2545840.5899999999,"ADDRESS":"府安路七段９３巷２號之１","OBJECTID":394983},"geometry":{"x":165824.84999999963,"y":2545840.5900000036}},{"attributes":{"ID":395008,"DIS_CODE":0,"TOWNNAME":"東區","LI":"虎尾里","LIN":"16鄰","STREET":"東成街","SECT":" ","MAREA":" ","LANE":"５６巷","ALLEY":" ","HOUSE_NO":"１２號","E_COORD97":171376.23999999999,"N_COORD97":2542220.0099999998,"ADDRESS":"東成街５６巷１２號","OBJECTID":394984},"geometry":{"x":171376.24000000022,"y":2542220.0099999979}},{"attributes":{"ID":395009,"DIS_CODE":0,"TOWNNAME":"安南區","LI":"淵東里","LIN":"16鄰","STREET":"安中路","SECT":"三段","MAREA":" ","LANE":"３１６巷","ALLEY":" ","HOUSE_NO":"１２號之１","E_COORD97":165606.32000000001,"N_COORD97":2549985.9199999999,"ADDRESS":"安中路三段３１６巷１２號之１","OBJECTID":394985},"geometry":{"x":165606.32000000123,"y":2549985.9200000018}},{"attributes":{"ID":395010,"DIS_CODE":0,"TOWNNAME":"安南區","LI":"學東里","LIN":"16鄰","STREET":"城北路","SECT":" ","MAREA":" ","LANE":"７３６巷","ALLEY":" ","HOUSE_NO":"６３號之８","E_COORD97":161147.07000000001,"N_COORD97":2553128.7000000002,"ADDRESS":"城北路７３６巷６３號之８","OBJECTID":394986},"geometry":{"x":161147.0700000003,"y":2553128.700000003}},{"attributes":{"ID":395011,"DIS_CODE":0,"TOWNNAME":"官田區","LI":"隆田里","LIN":"16鄰","STREET":"文化街","SECT":" ","MAREA":" ","LANE":"９５巷","ALLEY":" ","HOUSE_NO":"１０號","E_COORD97":180246.76999999999,"N_COORD97":2566065.25,"ADDRESS":"文化街９５巷１０號","OBJECTID":394987},"geometry":{"x":180246.76999999862,"y":2566065.25}},{"attributes":{"ID":395012,"DIS_CODE":0,"TOWNNAME":"官田區","LI":"隆田里","LIN":"16鄰","STREET":"文化街","SECT":" ","MAREA":" ","LANE":"９５巷","ALLEY":" ","HOUSE_NO":"１１號","E_COORD97":180253.54000000001,"N_COORD97":2566066.02,"ADDRESS":"文化街９５巷１１號","OBJECTID":394988},"geometry":{"x":180253.54000000004,"y":2566066.0200000014}},{"attributes":{"ID":395013,"DIS_CODE":0,"TOWNNAME":"官田區","LI":"隆田里","LIN":"16鄰","STREET":"文化街","SECT":" ","MAREA":" ","LANE":"９５巷","ALLEY":" ","HOUSE_NO":"１２號","E_COORD97":180260.48000000001,"N_COORD97":2566066.6899999999,"ADDRESS":"文化街９５巷１２號","OBJECTID":394989},"geometry":{"x":180260.48000000138,"y":2566066.6900000032}},{"attributes":{"ID":395014,"DIS_CODE":0,"TOWNNAME":"官田區","LI":"隆田里","LIN":"16鄰","STREET":"文化街","SECT":" ","MAREA":" ","LANE":"９５巷","ALLEY":" ","HOUSE_NO":"１３號","E_COORD97":180267.59,"N_COORD97":2566067.46,"ADDRESS":"文化街９５巷１３號","OBJECTID":394990},"geometry":{"x":180267.59000000078,"y":2566067.4600000028}},{"attributes":{"ID":395015,"DIS_CODE":0,"TOWNNAME":"官田區","LI":"隆田里","LIN":"16鄰","STREET":"文化街","SECT":" ","MAREA":" ","LANE":"９５巷","ALLEY":" ","HOUSE_NO":"１號","E_COORD97":180240.45999999999,"N_COORD97":2566079.9500000002,"ADDRESS":"文化街９５巷１號","OBJECTID":394991},"geometry":{"x":180240.45999999996,"y":2566079.9499999993}},{"attributes":{"ID":395016,"DIS_CODE":0,"TOWNNAME":"官田區","LI":"隆田里","LIN":"16鄰","STREET":"文化街","SECT":" ","MAREA":" ","LANE":"９５巷","ALLEY":" ","HOUSE_NO":"２號","E_COORD97":180244.20000000001,"N_COORD97":2566080.1499999999,"ADDRESS":"文化街９５巷２號","OBJECTID":394992},"geometry":{"x":180244.20000000019,"y":2566080.1500000004}},{"attributes":{"ID":395017,"DIS_CODE":0,"TOWNNAME":"官田區","LI":"隆田里","LIN":"16鄰","STREET":"文化街","SECT":" ","MAREA":" ","LANE":"９５巷","ALLEY":" ","HOUSE_NO":"３號","E_COORD97":180248.31,"N_COORD97":2566080.3700000001,"ADDRESS":"文化街９５巷３號","OBJECTID":394993},"geometry":{"x":180248.31000000145,"y":2566080.370000001}},{"attributes":{"ID":395018,"DIS_CODE":0,"TOWNNAME":"官田區","LI":"隆田里","LIN":"16鄰","STREET":"文化街","SECT":" ","MAREA":" ","LANE":"９５巷","ALLEY":" ","HOUSE_NO":"４號","E_COORD97":180252.87,"N_COORD97":2566080.7200000002,"ADDRESS":"文化街９５巷４號","OBJECTID":394994},"geometry":{"x":180252.87000000011,"y":2566080.7200000007}},{"attributes":{"ID":395019,"DIS_CODE":0,"TOWNNAME":"官田區","LI":"隆田里","LIN":"16鄰","STREET":"文化街","SECT":" ","MAREA":" ","LANE":"９５巷","ALLEY":" ","HOUSE_NO":"５號","E_COORD97":180256.59,"N_COORD97":2566080.9399999999,"ADDRESS":"文化街９５巷５號","OBJECTID":394995},"geometry":{"x":180256.58999999985,"y":2566080.9399999995}},{"attributes":{"ID":395020,"DIS_CODE":0,"TOWNNAME":"官田區","LI":"隆田里","LIN":"16鄰","STREET":"文化街","SECT":" ","MAREA":" ","LANE":"９５巷","ALLEY":" ","HOUSE_NO":"６號","E_COORD97":180261.12,"N_COORD97":2566085.98,"ADDRESS":"文化街９５巷６號","OBJECTID":394996},"geometry":{"x":180261.12000000104,"y":2566085.9800000042}},{"attributes":{"ID":395021,"DIS_CODE":0,"TOWNNAME":"官田區","LI":"隆田里","LIN":"16鄰","STREET":"文化街","SECT":" ","MAREA":" ","LANE":"９５巷","ALLEY":" ","HOUSE_NO":"７號","E_COORD97":180265.47,"N_COORD97":2566086.5899999999,"ADDRESS":"文化街９５巷７號","OBJECTID":394997},"geometry":{"x":180265.46999999974,"y":2566086.5899999999}},{"attributes":{"ID":395022,"DIS_CODE":0,"TOWNNAME":"官田區","LI":"隆田里","LIN":"16鄰","STREET":"文化街","SECT":" ","MAREA":" ","LANE":"９５巷","ALLEY":" ","HOUSE_NO":"８號","E_COORD97":180270.26999999999,"N_COORD97":2566088.6299999999,"ADDRESS":"文化街９５巷８號","OBJECTID":394998},"geometry":{"x":180270.26999999955,"y":2566088.629999999}},{"attributes":{"ID":395023,"DIS_CODE":0,"TOWNNAME":"官田區","LI":"隆田里","LIN":"16鄰","STREET":"文化街","SECT":" ","MAREA":" ","LANE":"９５巷","ALLEY":" ","HOUSE_NO":"９號","E_COORD97":180239.42999999999,"N_COORD97":2566064.3700000001,"ADDRESS":"文化街９５巷９號","OBJECTID":394999},"geometry":{"x":180239.43000000063,"y":2566064.3700000029}},{"attributes":{"ID":395024,"DIS_CODE":0,"TOWNNAME":"仁德區","LI":"二行里","LIN":"16鄰","STREET":"行大街","SECT":" ","MAREA":" ","LANE":"１７２巷","ALLEY":" ","HOUSE_NO":"８８號","E_COORD97":169771.70000000001,"N_COORD97":2535245.25,"ADDRESS":"行大街１７２巷８８號","OBJECTID":395000},"geometry":{"x":169771.70000000205,"y":2535245.2500000019}}]}