{"displayFieldName":"TOWNNAME","fieldAliases":{"ID":"ID","DIS_CODE":"DIS_CODE","TOWNNAME":"TOWNNAME","LI":"LI","LIN":"LIN","STREET":"STREET","SECT":"SECT","MAREA":"MAREA","LANE":"LANE","ALLEY":"ALLEY","HOUSE_NO":"HOUSE_NO","E_COORD97":"E_COORD97","N_COORD97":"N_COORD97","ADDRESS":"ADDRESS","OBJECTID":"OBJECTID"},"geometryType":"esriGeometryPoint","spatialReference":{"wkid":102443,"latestWkid":3826},"fields":[{"name":"ID","type":"esriFieldTypeDouble","alias":"ID"},{"name":"DIS_CODE","type":"esriFieldTypeInteger","alias":"DIS_CODE"},{"name":"TOWNNAME","type":"esriFieldTypeString","alias":"TOWNNAME","length":8},{"name":"LI","type":"esriFieldTypeString","alias":"LI","length":8},{"name":"LIN","type":"esriFieldTypeString","alias":"LIN","length":12},{"name":"STREET","type":"esriFieldTypeString","alias":"STREET","length":20},{"name":"SECT","type":"esriFieldTypeString","alias":"SECT","length":8},{"name":"MAREA","type":"esriFieldTypeString","alias":"MAREA","length":12},{"name":"LANE","type":"esriFieldTypeString","alias":"LANE","length":10},{"name":"ALLEY","type":"esriFieldTypeString","alias":"ALLEY","length":10},{"name":"HOUSE_NO","type":"esriFieldTypeString","alias":"HOUSE_NO","length":20},{"name":"E_COORD97","type":"esriFieldTypeDouble","alias":"E_COORD97"},{"name":"N_COORD97","type":"esriFieldTypeDouble","alias":"N_COORD97"},{"name":"ADDRESS","type":"esriFieldTypeString","alias":"ADDRESS","length":50},{"name":"OBJECTID","type":"esriFieldTypeOID","alias":"OBJECTID"}],"features":[{"attributes":{"ID":165202,"DIS_CODE":0,"TOWNNAME":"七股區","LI":"大埕里","LIN":"20鄰","STREET":" ","SECT":" ","MAREA":"大埕","LANE":" ","ALLEY":" ","HOUSE_NO":"２９號之３１","E_COORD97":163072.78,"N_COORD97":2561315.23,"ADDRESS":"大埕２９號之３１","OBJECTID":165201},"geometry":{"x":163072.78000000026,"y":2561315.2300000023}},{"attributes":{"ID":165203,"DIS_CODE":0,"TOWNNAME":"安南區","LI":" ","LIN":" ","STREET":"安和路","SECT":"五段","MAREA":" ","LANE":"３３６巷","ALLEY":"３３弄","HOUSE_NO":"１７號","E_COORD97":169748.29000000001,"N_COORD97":2552284.0800000001,"ADDRESS":"安和路五段３３６巷３３弄１７號","OBJECTID":165202},"geometry":{"x":169748.29000000004,"y":2552284.0800000019}},{"attributes":{"ID":165204,"DIS_CODE":0,"TOWNNAME":"七股區","LI":"大埕里","LIN":"20鄰","STREET":" ","SECT":" ","MAREA":"大埕","LANE":" ","ALLEY":" ","HOUSE_NO":"２９號之３２","E_COORD97":163073.63,"N_COORD97":2561310.1200000001,"ADDRESS":"大埕２９號之３２","OBJECTID":165203},"geometry":{"x":163073.62999999989,"y":2561310.1200000029}},{"attributes":{"ID":165205,"DIS_CODE":0,"TOWNNAME":"七股區","LI":"大埕里","LIN":"20鄰","STREET":" ","SECT":" ","MAREA":"大埕","LANE":" ","ALLEY":" ","HOUSE_NO":"２９號之３３","E_COORD97":163074.48000000001,"N_COORD97":2561305.02,"ADDRESS":"大埕２９號之３３","OBJECTID":165204},"geometry":{"x":163074.48000000138,"y":2561305.0200000014}},{"attributes":{"ID":165206,"DIS_CODE":0,"TOWNNAME":"安南區","LI":" ","LIN":" ","STREET":"安和路","SECT":"五段","MAREA":" ","LANE":"３３６巷","ALLEY":"３３弄","HOUSE_NO":"１９號","E_COORD97":169747.98999999999,"N_COORD97":2552284.3799999999,"ADDRESS":"安和路五段３３６巷３３弄１９號","OBJECTID":165205},"geometry":{"x":169747.99000000115,"y":2552284.3800000008}},{"attributes":{"ID":165207,"DIS_CODE":0,"TOWNNAME":"七股區","LI":"大埕里","LIN":"20鄰","STREET":" ","SECT":" ","MAREA":"大埕","LANE":" ","ALLEY":" ","HOUSE_NO":"２９號之３４","E_COORD97":163075.32999999999,"N_COORD97":2561299.9199999999,"ADDRESS":"大埕２９號之３４","OBJECTID":165206},"geometry":{"x":163075.33000000101,"y":2561299.9200000018}},{"attributes":{"ID":165208,"DIS_CODE":0,"TOWNNAME":"北門區","LI":"北門里","LIN":"20鄰","STREET":" ","SECT":" ","MAREA":"舊埕","LANE":" ","ALLEY":" ","HOUSE_NO":"９７號","E_COORD97":160414.95000000001,"N_COORD97":2574309.1699999999,"ADDRESS":"舊埕９７號","OBJECTID":165207},"geometry":{"x":160414.95000000112,"y":2574309.1700000037}},{"attributes":{"ID":165209,"DIS_CODE":0,"TOWNNAME":"安南區","LI":" ","LIN":" ","STREET":"安和路","SECT":"五段","MAREA":" ","LANE":"３３６巷","ALLEY":"３３弄","HOUSE_NO":"２１號","E_COORD97":169747.98999999999,"N_COORD97":2552284.0800000001,"ADDRESS":"安和路五段３３６巷３３弄２１號","OBJECTID":165208},"geometry":{"x":169747.99000000115,"y":2552284.0800000019}},{"attributes":{"ID":165210,"DIS_CODE":0,"TOWNNAME":"安南區","LI":"州北里","LIN":"24鄰","STREET":"安和路","SECT":"五段","MAREA":" ","LANE":"８４巷","ALLEY":"６４弄","HOUSE_NO":"２０號","E_COORD97":170132.92999999999,"N_COORD97":2551771.2000000002,"ADDRESS":"安和路五段８４巷６４弄２０號","OBJECTID":165209},"geometry":{"x":170132.93000000063,"y":2551771.1999999993}},{"attributes":{"ID":165211,"DIS_CODE":0,"TOWNNAME":"安南區","LI":"\u25A0南里","LIN":"32鄰","STREET":"安昌街","SECT":" ","MAREA":" ","LANE":"１７４巷","ALLEY":"３９弄","HOUSE_NO":"１９號","E_COORD97":170175.35000000001,"N_COORD97":2552355.6400000001,"ADDRESS":"安昌街１７４巷３９弄１９號","OBJECTID":165210},"geometry":{"x":170175.35000000149,"y":2552355.6400000025}},{"attributes":{"ID":165212,"DIS_CODE":0,"TOWNNAME":"安南區","LI":"理想里","LIN":"9鄰","STREET":"海佃路","SECT":"二段","MAREA":" ","LANE":"１５０巷","ALLEY":"６６弄","HOUSE_NO":"１號","E_COORD97":167115.94,"N_COORD97":2548249.4900000002,"ADDRESS":"海佃路二段１５０巷６６弄１號","OBJECTID":165211},"geometry":{"x":167115.94000000134,"y":2548249.4900000021}},{"attributes":{"ID":165213,"DIS_CODE":0,"TOWNNAME":"安南區","LI":"理想里","LIN":"9鄰","STREET":"海佃路","SECT":"二段","MAREA":" ","LANE":"１５０巷","ALLEY":"６６弄","HOUSE_NO":"９號","E_COORD97":167127.84,"N_COORD97":2548268.54,"ADDRESS":"海佃路二段１５０巷６６弄９號","OBJECTID":165212},"geometry":{"x":167127.84000000078,"y":2548268.540000001}},{"attributes":{"ID":165214,"DIS_CODE":0,"TOWNNAME":"安南區","LI":"安慶里","LIN":"5鄰","STREET":"怡安路","SECT":"一段","MAREA":" ","LANE":"２６２巷","ALLEY":"３３弄","HOUSE_NO":"６號","E_COORD97":169007.20999999999,"N_COORD97":2549192.0099999998,"ADDRESS":"怡安路一段２６２巷３３弄６號","OBJECTID":165213},"geometry":{"x":169007.21000000089,"y":2549192.0100000016}},{"attributes":{"ID":165215,"DIS_CODE":0,"TOWNNAME":"歸仁區","LI":"媽廟里","LIN":"4鄰","STREET":"和順路","SECT":"一段","MAREA":" ","LANE":"６３巷","ALLEY":"２５弄","HOUSE_NO":"２號","E_COORD97":177383.885029,"N_COORD97":2543665.7006999999,"ADDRESS":"和順路一段６３巷２５弄２號","OBJECTID":165214},"geometry":{"x":177383.88502900023,"y":2543665.700695999}},{"attributes":{"ID":165216,"DIS_CODE":0,"TOWNNAME":"安南區","LI":"理想里","LIN":"4鄰","STREET":"海佃路","SECT":"二段","MAREA":" ","LANE":"３４２巷","ALLEY":"２１弄","HOUSE_NO":"２６號","E_COORD97":167007.72,"N_COORD97":2548622.8700000001,"ADDRESS":"海佃路二段３４２巷２１弄２６號","OBJECTID":165215},"geometry":{"x":167007.71999999974,"y":2548622.870000001}},{"attributes":{"ID":165217,"DIS_CODE":0,"TOWNNAME":"安南區","LI":"佃西里","LIN":"5鄰","STREET":"公學路","SECT":"四段","MAREA":" ","LANE":"１２６巷","ALLEY":"１２８弄","HOUSE_NO":"５１號","E_COORD97":165193.30188799999,"N_COORD97":2551892.7787500001,"ADDRESS":"公學路四段１２６巷１２８弄５１號","OBJECTID":165216},"geometry":{"x":165193.30188800208,"y":2551892.7787550017}},{"attributes":{"ID":165218,"DIS_CODE":0,"TOWNNAME":"安南區","LI":"安慶里","LIN":"32鄰","STREET":"怡安路","SECT":"一段","MAREA":" ","LANE":"３１６巷","ALLEY":"２１弄","HOUSE_NO":"８號","E_COORD97":168915.23000000001,"N_COORD97":2549202.5,"ADDRESS":"怡安路一段３１６巷２１弄８號","OBJECTID":165217},"geometry":{"x":168915.23000000045,"y":2549202.5000000019}},{"attributes":{"ID":165219,"DIS_CODE":0,"TOWNNAME":"七股區","LI":"大埕里","LIN":"20鄰","STREET":" ","SECT":" ","MAREA":"大埕","LANE":" ","ALLEY":" ","HOUSE_NO":"２９號之３５","E_COORD97":163076.19,"N_COORD97":2561294.8199999998,"ADDRESS":"大埕２９號之３５","OBJECTID":165218},"geometry":{"x":163076.19000000134,"y":2561294.8200000003}},{"attributes":{"ID":165220,"DIS_CODE":0,"TOWNNAME":"安南區","LI":"安慶里","LIN":"32鄰","STREET":"怡安路","SECT":"一段","MAREA":" ","LANE":"３１６巷","ALLEY":"２１弄","HOUSE_NO":"１０號","E_COORD97":168914.89000000001,"N_COORD97":2549207.5800000001,"ADDRESS":"怡安路一段３１６巷２１弄１０號","OBJECTID":165219},"geometry":{"x":168914.88999999966,"y":2549207.5800000038}},{"attributes":{"ID":165221,"DIS_CODE":0,"TOWNNAME":"安南區","LI":"安慶里","LIN":"32鄰","STREET":"怡安路","SECT":"一段","MAREA":" ","LANE":"３１６巷","ALLEY":"２１弄","HOUSE_NO":"１２號","E_COORD97":168914.38,"N_COORD97":2549213.3399999999,"ADDRESS":"怡安路一段３１６巷２１弄１２號","OBJECTID":165220},"geometry":{"x":168914.38000000082,"y":2549213.3400000017}},{"attributes":{"ID":165222,"DIS_CODE":0,"TOWNNAME":"安南區","LI":"安慶里","LIN":"32鄰","STREET":"怡安路","SECT":"一段","MAREA":" ","LANE":"３１６巷","ALLEY":"２１弄","HOUSE_NO":"１６號","E_COORD97":168913.54000000001,"N_COORD97":2549219.0899999999,"ADDRESS":"怡安路一段３１６巷２１弄１６號","OBJECTID":165221},"geometry":{"x":168913.54000000097,"y":2549219.0900000017}},{"attributes":{"ID":165223,"DIS_CODE":0,"TOWNNAME":"安南區","LI":"安慶里","LIN":"32鄰","STREET":"怡安路","SECT":"一段","MAREA":" ","LANE":"３１６巷","ALLEY":"２１弄","HOUSE_NO":"１８號","E_COORD97":168912.69,"N_COORD97":2549224.5099999998,"ADDRESS":"怡安路一段３１６巷２１弄１８號","OBJECTID":165222},"geometry":{"x":168912.69000000227,"y":2549224.5099999998}},{"attributes":{"ID":165224,"DIS_CODE":0,"TOWNNAME":"安南區","LI":"安慶里","LIN":"32鄰","STREET":"怡安路","SECT":"一段","MAREA":" ","LANE":"３１６巷","ALLEY":"２１弄","HOUSE_NO":"２０號","E_COORD97":168912.17999999999,"N_COORD97":2549229.7599999998,"ADDRESS":"怡安路一段３１６巷２１弄２０號","OBJECTID":165223},"geometry":{"x":168912.18000000063,"y":2549229.7600000035}},{"attributes":{"ID":165225,"DIS_CODE":0,"TOWNNAME":"安南區","LI":"安慶里","LIN":"32鄰","STREET":"怡安路","SECT":"一段","MAREA":" ","LANE":"３１６巷","ALLEY":"２１弄","HOUSE_NO":"３號","E_COORD97":168899.64999999999,"N_COORD97":2549171,"ADDRESS":"怡安路一段３１６巷２１弄３號","OBJECTID":165224},"geometry":{"x":168899.6500000013,"y":2549171.0000000037}},{"attributes":{"ID":165226,"DIS_CODE":0,"TOWNNAME":"安南區","LI":"安慶里","LIN":"32鄰","STREET":"怡安路","SECT":"一段","MAREA":" ","LANE":"３１６巷","ALLEY":"２１弄","HOUSE_NO":"７號","E_COORD97":168902.87,"N_COORD97":2549195.5600000001,"ADDRESS":"怡安路一段３１６巷２１弄７號","OBJECTID":165225},"geometry":{"x":168902.87000000104,"y":2549195.5600000024}},{"attributes":{"ID":165227,"DIS_CODE":0,"TOWNNAME":"安南區","LI":"安慶里","LIN":"32鄰","STREET":"怡安路","SECT":"一段","MAREA":" ","LANE":"３１６巷","ALLEY":"２１弄","HOUSE_NO":"９號","E_COORD97":168902.19,"N_COORD97":2549200.9700000002,"ADDRESS":"怡安路一段３１６巷２１弄９號","OBJECTID":165226},"geometry":{"x":168902.19000000041,"y":2549200.9700000007}},{"attributes":{"ID":165228,"DIS_CODE":0,"TOWNNAME":"安南區","LI":"安慶里","LIN":"32鄰","STREET":"怡安路","SECT":"一段","MAREA":" ","LANE":"３１６巷","ALLEY":"２１弄","HOUSE_NO":"１１號","E_COORD97":168901.51000000001,"N_COORD97":2549206.0499999998,"ADDRESS":"怡安路一段３１６巷２１弄１１號","OBJECTID":165227},"geometry":{"x":168901.51000000071,"y":2549206.0500000026}},{"attributes":{"ID":165229,"DIS_CODE":0,"TOWNNAME":"安南區","LI":"安慶里","LIN":"32鄰","STREET":"怡安路","SECT":"一段","MAREA":" ","LANE":"３１６巷","ALLEY":"２１弄","HOUSE_NO":"１３號","E_COORD97":168901.67999999999,"N_COORD97":2549212.1499999999,"ADDRESS":"怡安路一段３１６巷２１弄１３號","OBJECTID":165228},"geometry":{"x":168901.68000000156,"y":2549212.1500000022}},{"attributes":{"ID":165230,"DIS_CODE":0,"TOWNNAME":"安南區","LI":"安慶里","LIN":"32鄰","STREET":"怡安路","SECT":"一段","MAREA":" ","LANE":"３１６巷","ALLEY":"２１弄","HOUSE_NO":"１５號","E_COORD97":168900.84,"N_COORD97":2549218.25,"ADDRESS":"怡安路一段３１６巷２１弄１５號","OBJECTID":165229},"geometry":{"x":168900.84000000171,"y":2549218.2500000019}},{"attributes":{"ID":165231,"DIS_CODE":0,"TOWNNAME":"安南區","LI":"安慶里","LIN":"32鄰","STREET":"怡安路","SECT":"一段","MAREA":" ","LANE":"３１６巷","ALLEY":"２１弄","HOUSE_NO":"１７號","E_COORD97":168899.98999999999,"N_COORD97":2549223.5,"ADDRESS":"怡安路一段３１６巷２１弄１７號","OBJECTID":165230},"geometry":{"x":168899.99000000022,"y":2549223.5}},{"attributes":{"ID":165232,"DIS_CODE":0,"TOWNNAME":"安南區","LI":"安慶里","LIN":"32鄰","STREET":"怡安路","SECT":"一段","MAREA":" ","LANE":"３１６巷","ALLEY":"２１弄","HOUSE_NO":"１９號","E_COORD97":168899.48000000001,"N_COORD97":2549229.7599999998,"ADDRESS":"怡安路一段３１６巷２１弄１９號","OBJECTID":165231},"geometry":{"x":168899.48000000138,"y":2549229.7600000035}},{"attributes":{"ID":165233,"DIS_CODE":0,"TOWNNAME":"安南區","LI":"公親里","LIN":"7鄰","STREET":"公學路","SECT":"一段","MAREA":" ","LANE":"１２１巷","ALLEY":"５１弄","HOUSE_NO":"３５號","E_COORD97":168267.64999999999,"N_COORD97":2552981.7200000002,"ADDRESS":"公學路一段１２１巷５１弄３５號","OBJECTID":165232},"geometry":{"x":168267.6500000013,"y":2552981.7200000025}},{"attributes":{"ID":165234,"DIS_CODE":0,"TOWNNAME":"安南區","LI":"佃西里","LIN":"15鄰","STREET":"海佃路","SECT":"四段","MAREA":" ","LANE":"３８８巷","ALLEY":"４３弄","HOUSE_NO":"２０號","E_COORD97":165510.47,"N_COORD97":2551681.1800000002,"ADDRESS":"海佃路四段３８８巷４３弄２０號","OBJECTID":165233},"geometry":{"x":165510.46999999974,"y":2551681.1799999997}},{"attributes":{"ID":165235,"DIS_CODE":0,"TOWNNAME":"安南區","LI":"佃西里","LIN":"1鄰","STREET":"海佃路","SECT":"四段","MAREA":" ","LANE":"３８８巷","ALLEY":"６７弄","HOUSE_NO":"３５號","E_COORD97":165457.79000000001,"N_COORD97":2551751.5600000001,"ADDRESS":"海佃路四段３８８巷６７弄３５號","OBJECTID":165234},"geometry":{"x":165457.79000000004,"y":2551751.5600000024}},{"attributes":{"ID":165236,"DIS_CODE":0,"TOWNNAME":"安南區","LI":"\u25A0南里","LIN":"32鄰","STREET":"安昌街","SECT":" ","MAREA":" ","LANE":"１７４巷","ALLEY":"３９弄","HOUSE_NO":"１９之８號","E_COORD97":170170.14999999999,"N_COORD97":2552378.6499999999,"ADDRESS":"安昌街１７４巷３９弄１９之８號","OBJECTID":165235},"geometry":{"x":170170.15000000037,"y":2552378.6500000022}},{"attributes":{"ID":165237,"DIS_CODE":0,"TOWNNAME":"永康區","LI":"北灣里","LIN":"26鄰","STREET":"文賢街","SECT":" ","MAREA":" ","LANE":"７８巷","ALLEY":"１９弄","HOUSE_NO":"４９號","E_COORD97":175412.81,"N_COORD97":2545399.3300000001,"ADDRESS":"文賢街７８巷１９弄４９號","OBJECTID":165236},"geometry":{"x":175412.80999999959,"y":2545399.3300000019}},{"attributes":{"ID":165238,"DIS_CODE":0,"TOWNNAME":"安南區","LI":"\u25A0南里","LIN":"32鄰","STREET":"安昌街","SECT":" ","MAREA":" ","LANE":"１７４巷","ALLEY":"３９弄","HOUSE_NO":"１９之７號","E_COORD97":170170.14999999999,"N_COORD97":2552375.79,"ADDRESS":"安昌街１７４巷３９弄１９之７號","OBJECTID":165237},"geometry":{"x":170170.15000000037,"y":2552375.790000001}},{"attributes":{"ID":165239,"DIS_CODE":0,"TOWNNAME":"安南區","LI":"佃東里","LIN":"20鄰","STREET":"十二佃路","SECT":" ","MAREA":" ","LANE":"１０巷","ALLEY":"５弄","HOUSE_NO":"２號","E_COORD97":165726.42000000001,"N_COORD97":2552089.6499999999,"ADDRESS":"十二佃路１０巷５弄２號","OBJECTID":165238},"geometry":{"x":165726.41999999993,"y":2552089.6500000022}},{"attributes":{"ID":165240,"DIS_CODE":0,"TOWNNAME":"安南區","LI":"淵西里","LIN":"4鄰","STREET":"安中路","SECT":"四段","MAREA":" ","LANE":"２９０巷","ALLEY":"１７９弄","HOUSE_NO":"１８之１號","E_COORD97":164871.04716099999,"N_COORD97":2550306.5105300001,"ADDRESS":"安中路四段２９０巷１７９弄１８之１號","OBJECTID":165239},"geometry":{"x":164871.04716100078,"y":2550306.5105329994}},{"attributes":{"ID":165241,"DIS_CODE":0,"TOWNNAME":"安南區","LI":"\u25A0南里","LIN":"25鄰","STREET":"長和路","SECT":"二段","MAREA":" ","LANE":"１２巷","ALLEY":"２６１弄","HOUSE_NO":"２２號之１","E_COORD97":170334.10999999999,"N_COORD97":2552173.4100000001,"ADDRESS":"長和路二段１２巷２６１弄２２號之１","OBJECTID":165240},"geometry":{"x":170334.11000000127,"y":2552173.410000002}},{"attributes":{"ID":165242,"DIS_CODE":0,"TOWNNAME":"七股區","LI":"大埕里","LIN":"20鄰","STREET":" ","SECT":" ","MAREA":"大埕","LANE":" ","ALLEY":" ","HOUSE_NO":"２９號之３６","E_COORD97":163077.04000000001,"N_COORD97":2561289.71,"ADDRESS":"大埕２９號之３６","OBJECTID":165241},"geometry":{"x":163077.04000000097,"y":2561289.7100000009}},{"attributes":{"ID":165243,"DIS_CODE":0,"TOWNNAME":"安南區","LI":"\u25A0南里","LIN":"24鄰","STREET":"長和路","SECT":"二段","MAREA":" ","LANE":"１２巷","ALLEY":"２６１弄","HOUSE_NO":"５５號","E_COORD97":170260.51000000001,"N_COORD97":2552146.1299999999,"ADDRESS":"長和路二段１２巷２６１弄５５號","OBJECTID":165242},"geometry":{"x":170260.50999999978,"y":2552146.1300000008}},{"attributes":{"ID":165244,"DIS_CODE":0,"TOWNNAME":"安南區","LI":"溪心里","LIN":"14鄰","STREET":"本原街","SECT":"二段","MAREA":" ","LANE":"５３２巷","ALLEY":"１１弄","HOUSE_NO":"１號","E_COORD97":165801.94,"N_COORD97":2550546.9700000002,"ADDRESS":"本原街二段５３２巷１１弄１號","OBJECTID":165243},"geometry":{"x":165801.94000000227,"y":2550546.9700000007}},{"attributes":{"ID":165245,"DIS_CODE":0,"TOWNNAME":"安南區","LI":"溪心里","LIN":"14鄰","STREET":"本原街","SECT":"二段","MAREA":" ","LANE":"５３２巷","ALLEY":"１１弄","HOUSE_NO":"２０號","E_COORD97":165774.70000000001,"N_COORD97":2550536.1099999999,"ADDRESS":"本原街二段５３２巷１１弄２０號","OBJECTID":165244},"geometry":{"x":165774.70000000112,"y":2550536.1100000013}},{"attributes":{"ID":165246,"DIS_CODE":0,"TOWNNAME":"安南區","LI":"溪心里","LIN":"14鄰","STREET":"本原街","SECT":"二段","MAREA":" ","LANE":"５３２巷","ALLEY":"１１弄","HOUSE_NO":"２號","E_COORD97":165796.04000000001,"N_COORD97":2550554.7799999998,"ADDRESS":"本原街二段５３２巷１１弄２號","OBJECTID":165245},"geometry":{"x":165796.04000000097,"y":2550554.7800000031}},{"attributes":{"ID":165247,"DIS_CODE":0,"TOWNNAME":"安南區","LI":"溪心里","LIN":"14鄰","STREET":"本原街","SECT":"二段","MAREA":" ","LANE":"５３２巷","ALLEY":"１１弄","HOUSE_NO":"３號","E_COORD97":165798.89000000001,"N_COORD97":2550544.2999999998,"ADDRESS":"本原街二段５３２巷１１弄３號","OBJECTID":165246},"geometry":{"x":165798.8900000006,"y":2550544.3000000026}},{"attributes":{"ID":165248,"DIS_CODE":0,"TOWNNAME":"東區","LI":"復興里","LIN":"19鄰","STREET":"自由路","SECT":"三段","MAREA":" ","LANE":"１５５巷","ALLEY":"２弄","HOUSE_NO":"１號","E_COORD97":171764.82000000001,"N_COORD97":2542434.1600000001,"ADDRESS":"自由路三段１５５巷２弄１號","OBJECTID":165247},"geometry":{"x":171764.82000000123,"y":2542434.160000002}},{"attributes":{"ID":165249,"DIS_CODE":0,"TOWNNAME":"東區","LI":"成大里","LIN":"17鄰","STREET":"育樂街","SECT":" ","MAREA":" ","LANE":"１４８巷","ALLEY":"１７弄","HOUSE_NO":"２６號","E_COORD97":169411.41,"N_COORD97":2543963.4100000001,"ADDRESS":"育樂街１４８巷１７弄２６號","OBJECTID":165248},"geometry":{"x":169411.41000000108,"y":2543963.4100000001}},{"attributes":{"ID":165250,"DIS_CODE":0,"TOWNNAME":"東區","LI":"成大里","LIN":"17鄰","STREET":"育樂街","SECT":" ","MAREA":" ","LANE":"１４８巷","ALLEY":"１７弄","HOUSE_NO":"２７號","E_COORD97":169404.34,"N_COORD97":2543964.3900000001,"ADDRESS":"育樂街１４８巷１７弄２７號","OBJECTID":165249},"geometry":{"x":169404.34000000171,"y":2543964.3899999987}},{"attributes":{"ID":165251,"DIS_CODE":0,"TOWNNAME":"白河區","LI":"永安里","LIN":"15鄰","STREET":"新興路","SECT":" ","MAREA":" ","LANE":" ","ALLEY":" ","HOUSE_NO":"５８１號","E_COORD97":190071.89000000001,"N_COORD97":2583615.1499999999,"ADDRESS":"新興路５８１號","OBJECTID":165250},"geometry":{"x":190071.8900000006,"y":2583615.1500000004}},{"attributes":{"ID":165252,"DIS_CODE":0,"TOWNNAME":"七股區","LI":"大埕里","LIN":"20鄰","STREET":" ","SECT":" ","MAREA":"大埕","LANE":" ","ALLEY":" ","HOUSE_NO":"２９號之３７","E_COORD97":163077.89000000001,"N_COORD97":2561284.6099999999,"ADDRESS":"大埕２９號之３７","OBJECTID":165251},"geometry":{"x":163077.8900000006,"y":2561284.6100000013}},{"attributes":{"ID":165253,"DIS_CODE":0,"TOWNNAME":"七股區","LI":"大埕里","LIN":"20鄰","STREET":" ","SECT":" ","MAREA":"大埕","LANE":" ","ALLEY":" ","HOUSE_NO":"２９號之３８","E_COORD97":163048.48000000001,"N_COORD97":2561338,"ADDRESS":"大埕２９號之３８","OBJECTID":165252},"geometry":{"x":163048.48000000045,"y":2561338}},{"attributes":{"ID":165254,"DIS_CODE":0,"TOWNNAME":"七股區","LI":"大埕里","LIN":"20鄰","STREET":" ","SECT":" ","MAREA":"大埕","LANE":" ","ALLEY":" ","HOUSE_NO":"２９號之３９","E_COORD97":163049.28,"N_COORD97":2561332.7999999998,"ADDRESS":"大埕２９號之３９","OBJECTID":165253},"geometry":{"x":163049.28000000026,"y":2561332.8000000007}},{"attributes":{"ID":165255,"DIS_CODE":0,"TOWNNAME":"七股區","LI":"大埕里","LIN":"20鄰","STREET":" ","SECT":" ","MAREA":"大埕","LANE":" ","ALLEY":" ","HOUSE_NO":"２９號之３","E_COORD97":163145.17999999999,"N_COORD97":2561344.0800000001,"ADDRESS":"大埕２９號之３","OBJECTID":165254},"geometry":{"x":163145.18000000063,"y":2561344.0800000001}},{"attributes":{"ID":165256,"DIS_CODE":0,"TOWNNAME":"七股區","LI":"大埕里","LIN":"20鄰","STREET":" ","SECT":" ","MAREA":"大埕","LANE":" ","ALLEY":" ","HOUSE_NO":"２９號之４０","E_COORD97":163050.07999999999,"N_COORD97":2561327.6099999999,"ADDRESS":"大埕２９號之４０","OBJECTID":165255},"geometry":{"x":163050.08000000101,"y":2561327.6100000031}},{"attributes":{"ID":165257,"DIS_CODE":0,"TOWNNAME":"七股區","LI":"大埕里","LIN":"20鄰","STREET":" ","SECT":" ","MAREA":"大埕","LANE":" ","ALLEY":" ","HOUSE_NO":"２９號之４８","E_COORD97":163056.48999999999,"N_COORD97":2561286.0499999998,"ADDRESS":"大埕２９號之４８","OBJECTID":165256},"geometry":{"x":163056.49000000022,"y":2561286.0500000026}},{"attributes":{"ID":165258,"DIS_CODE":0,"TOWNNAME":"七股區","LI":"大埕里","LIN":"20鄰","STREET":" ","SECT":" ","MAREA":"大埕","LANE":" ","ALLEY":" ","HOUSE_NO":"２９號之４９","E_COORD97":163057.29000000001,"N_COORD97":2561280.8599999999,"ADDRESS":"大埕２９號之４９","OBJECTID":165257},"geometry":{"x":163057.29000000004,"y":2561280.8599999994}},{"attributes":{"ID":165259,"DIS_CODE":0,"TOWNNAME":"七股區","LI":"大埕里","LIN":"20鄰","STREET":" ","SECT":" ","MAREA":"大埕","LANE":" ","ALLEY":" ","HOUSE_NO":"２９號之４","E_COORD97":163124.78,"N_COORD97":2561340.5899999999,"ADDRESS":"大埕２９號之４","OBJECTID":165258},"geometry":{"x":163124.78000000119,"y":2561340.5899999999}},{"attributes":{"ID":165260,"DIS_CODE":0,"TOWNNAME":"七股區","LI":"大埕里","LIN":"20鄰","STREET":" ","SECT":" ","MAREA":"大埕","LANE":" ","ALLEY":" ","HOUSE_NO":"２９號之５","E_COORD97":163123.23999999999,"N_COORD97":2561348.71,"ADDRESS":"大埕２９號之５","OBJECTID":165259},"geometry":{"x":163123.24000000115,"y":2561348.7100000046}},{"attributes":{"ID":165261,"DIS_CODE":0,"TOWNNAME":"七股區","LI":"大埕里","LIN":"20鄰","STREET":" ","SECT":" ","MAREA":"大埕","LANE":" ","ALLEY":" ","HOUSE_NO":"２９號之６","E_COORD97":163109.56,"N_COORD97":2561329.2400000002,"ADDRESS":"大埕２９號之６","OBJECTID":165260},"geometry":{"x":163109.55999999959,"y":2561329.2400000002}},{"attributes":{"ID":165262,"DIS_CODE":0,"TOWNNAME":"七股區","LI":"大埕里","LIN":"20鄰","STREET":" ","SECT":" ","MAREA":"大埕","LANE":" ","ALLEY":" ","HOUSE_NO":"２９號之７","E_COORD97":163108.66,"N_COORD97":2561335.0600000001,"ADDRESS":"大埕２９號之７","OBJECTID":165261},"geometry":{"x":163108.66000000108,"y":2561335.0600000005}},{"attributes":{"ID":165263,"DIS_CODE":0,"TOWNNAME":"七股區","LI":"大埕里","LIN":"20鄰","STREET":" ","SECT":" ","MAREA":"大埕","LANE":" ","ALLEY":" ","HOUSE_NO":"２９號之８","E_COORD97":163107.76000000001,"N_COORD97":2561340.8799999999,"ADDRESS":"大埕２９號之８","OBJECTID":165262},"geometry":{"x":163107.76000000071,"y":2561340.879999999}},{"attributes":{"ID":165264,"DIS_CODE":0,"TOWNNAME":"七股區","LI":"大埕里","LIN":"20鄰","STREET":" ","SECT":" ","MAREA":"大埕","LANE":" ","ALLEY":" ","HOUSE_NO":"２９號之９","E_COORD97":163106.87,"N_COORD97":2561346.7000000002,"ADDRESS":"大埕２９號之９","OBJECTID":165263},"geometry":{"x":163106.87000000104,"y":2561346.6999999974}},{"attributes":{"ID":165265,"DIS_CODE":0,"TOWNNAME":"東區","LI":"成大里","LIN":"17鄰","STREET":"育樂街","SECT":" ","MAREA":" ","LANE":"１４８巷","ALLEY":"１７弄","HOUSE_NO":"２８號","E_COORD97":169397.87,"N_COORD97":2543964.5899999999,"ADDRESS":"育樂街１４８巷１７弄２８號","OBJECTID":165264},"geometry":{"x":169397.87000000104,"y":2543964.5899999999}},{"attributes":{"ID":165266,"DIS_CODE":0,"TOWNNAME":"七股區","LI":"大埕里","LIN":"20鄰","STREET":" ","SECT":" ","MAREA":"大埕","LANE":" ","ALLEY":" ","HOUSE_NO":"２９號","E_COORD97":163158.91,"N_COORD97":2561353.6600000001,"ADDRESS":"大埕２９號","OBJECTID":165265},"geometry":{"x":163158.90999999922,"y":2561353.6600000001}},{"attributes":{"ID":165267,"DIS_CODE":0,"TOWNNAME":"新市區","LI":"大營里","LIN":"20鄰","STREET":" ","SECT":" ","MAREA":"豐榮","LANE":" ","ALLEY":" ","HOUSE_NO":"７０號","E_COORD97":178873.70000000001,"N_COORD97":2554245.75,"ADDRESS":"豐榮７０號","OBJECTID":165266},"geometry":{"x":178873.70000000112,"y":2554245.7500000019}},{"attributes":{"ID":165268,"DIS_CODE":0,"TOWNNAME":"東區","LI":"成大里","LIN":"17鄰","STREET":"育樂街","SECT":" ","MAREA":" ","LANE":"１４８巷","ALLEY":"１７弄","HOUSE_NO":"２９號","E_COORD97":169391.98000000001,"N_COORD97":2543964.7799999998,"ADDRESS":"育樂街１４８巷１７弄２９號","OBJECTID":165267},"geometry":{"x":169391.97999999952,"y":2543964.7800000012}},{"attributes":{"ID":165269,"DIS_CODE":0,"TOWNNAME":"學甲區","LI":"新達里","LIN":"20鄰","STREET":" ","SECT":" ","MAREA":"山寮","LANE":" ","ALLEY":" ","HOUSE_NO":"３９號","E_COORD97":167935.17999999999,"N_COORD97":2570499.9399999999,"ADDRESS":"山寮３９號","OBJECTID":165268},"geometry":{"x":167935.1799999997,"y":2570499.9400000013}},{"attributes":{"ID":165270,"DIS_CODE":0,"TOWNNAME":"東區","LI":"泉南里","LIN":"35鄰","STREET":"林森路","SECT":"一段","MAREA":" ","LANE":"１５３巷","ALLEY":"２７弄","HOUSE_NO":"１０號","E_COORD97":169516.14000000001,"N_COORD97":2542765.8300000001,"ADDRESS":"林森路一段１５３巷２７弄１０號","OBJECTID":165269},"geometry":{"x":169516.1400000006,"y":2542765.8300000019}},{"attributes":{"ID":165271,"DIS_CODE":0,"TOWNNAME":"東區","LI":"泉南里","LIN":"35鄰","STREET":"林森路","SECT":"一段","MAREA":" ","LANE":"１５３巷","ALLEY":"２７弄","HOUSE_NO":"１２號","E_COORD97":169512.06,"N_COORD97":2542764.5899999999,"ADDRESS":"林森路一段１５３巷２７弄１２號","OBJECTID":165270},"geometry":{"x":169512.05999999959,"y":2542764.5899999999}},{"attributes":{"ID":165272,"DIS_CODE":0,"TOWNNAME":"中西區","LI":"郡王里","LIN":"17鄰","STREET":"中華西路","SECT":"二段","MAREA":" ","LANE":"８５１巷","ALLEY":"１１７弄","HOUSE_NO":"７號","E_COORD97":166348.73999999999,"N_COORD97":2545029.1800000002,"ADDRESS":"中華西路二段８５１巷１１７弄７號","OBJECTID":165271},"geometry":{"x":166348.74000000022,"y":2545029.1799999997}},{"attributes":{"ID":165273,"DIS_CODE":0,"TOWNNAME":"中西區","LI":"郡王里","LIN":"17鄰","STREET":"中華西路","SECT":"二段","MAREA":" ","LANE":"８５１巷","ALLEY":"１１７弄","HOUSE_NO":"９號","E_COORD97":166347.95000000001,"N_COORD97":2545019.6499999999,"ADDRESS":"中華西路二段８５１巷１１７弄９號","OBJECTID":165272},"geometry":{"x":166347.95000000112,"y":2545019.6500000004}},{"attributes":{"ID":165274,"DIS_CODE":0,"TOWNNAME":"中西區","LI":"西湖里","LIN":"34鄰","STREET":"和緯路","SECT":"五段","MAREA":" ","LANE":"八九巷","ALLEY":"１１２弄","HOUSE_NO":"５號","E_COORD97":166374.5,"N_COORD97":2544969.5899999999,"ADDRESS":"和緯路五段八九巷１１２弄５號","OBJECTID":165273},"geometry":{"x":166374.50000000093,"y":2544969.5900000036}},{"attributes":{"ID":165275,"DIS_CODE":0,"TOWNNAME":"中西區","LI":"西湖里","LIN":"34鄰","STREET":"和緯路","SECT":"五段","MAREA":" ","LANE":"８９巷","ALLEY":"１３０弄","HOUSE_NO":"５６號","E_COORD97":166290.26000000001,"N_COORD97":2544958.3599999999,"ADDRESS":"和緯路五段８９巷１３０弄５６號","OBJECTID":165274},"geometry":{"x":166290.25999999978,"y":2544958.3600000013}},{"attributes":{"ID":165276,"DIS_CODE":0,"TOWNNAME":"中西區","LI":"西湖里","LIN":"34鄰","STREET":"和緯路","SECT":"五段","MAREA":" ","LANE":"８９巷","ALLEY":"１１２弄","HOUSE_NO":"４９號","E_COORD97":166344.69,"N_COORD97":2544963.5099999998,"ADDRESS":"和緯路五段８９巷１１２弄４９號","OBJECTID":165275},"geometry":{"x":166344.69000000134,"y":2544963.5100000016}},{"attributes":{"ID":165277,"DIS_CODE":0,"TOWNNAME":"中西區","LI":"西湖里","LIN":"34鄰","STREET":"中華西路","SECT":"二段","MAREA":" ","LANE":"８５１巷","ALLEY":"１５１弄","HOUSE_NO":"７３號","E_COORD97":166287.62,"N_COORD97":2544940.79,"ADDRESS":"中華西路二段８５１巷１５１弄７３號","OBJECTID":165276},"geometry":{"x":166287.62000000104,"y":2544940.790000001}},{"attributes":{"ID":165278,"DIS_CODE":0,"TOWNNAME":"安南區","LI":"東和里","LIN":"4鄰","STREET":"長和路","SECT":"一段","MAREA":" ","LANE":"８２３巷","ALLEY":"１５３弄","HOUSE_NO":"６號","E_COORD97":170880.620727,"N_COORD97":2550914.2210499998,"ADDRESS":"長和路一段８２３巷１５３弄６號","OBJECTID":165277},"geometry":{"x":170880.62072700076,"y":2550914.2210469991}},{"attributes":{"ID":165279,"DIS_CODE":0,"TOWNNAME":"北區","LI":"中樓里","LIN":"12鄰","STREET":"開元路","SECT":" ","MAREA":" ","LANE":"６８巷","ALLEY":" ","HOUSE_NO":"１號之１","E_COORD97":169752.19,"N_COORD97":2545149.4199999999,"ADDRESS":"開元路６８巷１號之１","OBJECTID":165278},"geometry":{"x":169752.19000000134,"y":2545149.4199999999}},{"attributes":{"ID":165280,"DIS_CODE":0,"TOWNNAME":"白河區","LI":"永安里","LIN":"15鄰","STREET":"新興路","SECT":" ","MAREA":" ","LANE":" ","ALLEY":" ","HOUSE_NO":"５８３號","E_COORD97":190068.35000000001,"N_COORD97":2583618.02,"ADDRESS":"新興路５８３號","OBJECTID":165279},"geometry":{"x":190068.35000000149,"y":2583618.0200000014}},{"attributes":{"ID":165281,"DIS_CODE":0,"TOWNNAME":"白河區","LI":"永安里","LIN":"15鄰","STREET":"新興路","SECT":" ","MAREA":" ","LANE":" ","ALLEY":" ","HOUSE_NO":"５８５號","E_COORD97":190065.29999999999,"N_COORD97":2583621.3199999998,"ADDRESS":"新興路５８５號","OBJECTID":165280},"geometry":{"x":190065.29999999981,"y":2583621.3200000003}},{"attributes":{"ID":165282,"DIS_CODE":0,"TOWNNAME":"白河區","LI":"永安里","LIN":"15鄰","STREET":"新興路","SECT":" ","MAREA":" ","LANE":" ","ALLEY":" ","HOUSE_NO":"５８７號","E_COORD97":190062.12,"N_COORD97":2583624.3300000001,"ADDRESS":"新興路５８７號","OBJECTID":165281},"geometry":{"x":190062.12000000104,"y":2583624.3300000001}},{"attributes":{"ID":165283,"DIS_CODE":0,"TOWNNAME":"白河區","LI":"永安里","LIN":"15鄰","STREET":"新興路","SECT":" ","MAREA":" ","LANE":" ","ALLEY":" ","HOUSE_NO":"５８９號","E_COORD97":190058.47,"N_COORD97":2583627.02,"ADDRESS":"新興路５８９號","OBJECTID":165282},"geometry":{"x":190058.46999999974,"y":2583627.0200000014}},{"attributes":{"ID":165284,"DIS_CODE":0,"TOWNNAME":"永康區","LI":"東灣里","LIN":"15鄰","STREET":"大灣路","SECT":" ","MAREA":" ","LANE":" ","ALLEY":" ","HOUSE_NO":"２８７號","E_COORD97":174827.41,"N_COORD97":2545042.3399999999,"ADDRESS":"大灣路２８７號","OBJECTID":165283},"geometry":{"x":174827.41000000108,"y":2545042.3400000036}},{"attributes":{"ID":165285,"DIS_CODE":0,"TOWNNAME":"永康區","LI":"埔園里","LIN":"15鄰","STREET":"中山路","SECT":" ","MAREA":" ","LANE":" ","ALLEY":" ","HOUSE_NO":"３７５號","E_COORD97":173563.10000000001,"N_COORD97":2548519.25,"ADDRESS":"中山路３７５號","OBJECTID":165284},"geometry":{"x":173563.09999999963,"y":2548519.2500000019}},{"attributes":{"ID":165286,"DIS_CODE":0,"TOWNNAME":"永康區","LI":"埔園里","LIN":"15鄰","STREET":"中山路","SECT":" ","MAREA":" ","LANE":" ","ALLEY":" ","HOUSE_NO":"３８１號","E_COORD97":173559.98000000001,"N_COORD97":2548532.9900000002,"ADDRESS":"中山路３８１號","OBJECTID":165285},"geometry":{"x":173559.98000000045,"y":2548532.9900000002}},{"attributes":{"ID":165287,"DIS_CODE":0,"TOWNNAME":"永康區","LI":"東橋里","LIN":"15鄰","STREET":"中山南路","SECT":" ","MAREA":" ","LANE":" ","ALLEY":" ","HOUSE_NO":"３３７號之１","E_COORD97":171961.16,"N_COORD97":2546422.5299999998,"ADDRESS":"中山南路３３７號之１","OBJECTID":165286},"geometry":{"x":171961.16000000108,"y":2546422.5299999993}},{"attributes":{"ID":165288,"DIS_CODE":0,"TOWNNAME":"永康區","LI":"東橋里","LIN":"15鄰","STREET":"東橋二街","SECT":" ","MAREA":" ","LANE":" ","ALLEY":" ","HOUSE_NO":"１５０號","E_COORD97":171874.69,"N_COORD97":2546564.9199999999,"ADDRESS":"東橋二街１５０號","OBJECTID":165287},"geometry":{"x":171874.69000000134,"y":2546564.9200000018}},{"attributes":{"ID":165289,"DIS_CODE":0,"TOWNNAME":"永康區","LI":"甲頂里","LIN":"15鄰","STREET":"正新街","SECT":" ","MAREA":" ","LANE":" ","ALLEY":" ","HOUSE_NO":"４５號","E_COORD97":170349.78,"N_COORD97":2546680.1000000001,"ADDRESS":"正新街４５號","OBJECTID":165288},"geometry":{"x":170349.78000000119,"y":2546680.0999999996}},{"attributes":{"ID":165290,"DIS_CODE":0,"TOWNNAME":"安南區","LI":"東和里","LIN":"7鄰","STREET":"長和路","SECT":"一段","MAREA":" ","LANE":"２１７巷","ALLEY":"２１５弄","HOUSE_NO":"２５號","E_COORD97":171188.84,"N_COORD97":2550076.0099999998,"ADDRESS":"長和路一段２１７巷２１５弄２５號","OBJECTID":165289},"geometry":{"x":171188.83999999985,"y":2550076.0100000035}},{"attributes":{"ID":165291,"DIS_CODE":0,"TOWNNAME":"安南區","LI":"安順里","LIN":"24鄰","STREET":"北安路","SECT":"三段","MAREA":" ","LANE":"７５２巷","ALLEY":"２２弄","HOUSE_NO":"７５號","E_COORD97":169519.85000000001,"N_COORD97":2550332.98,"ADDRESS":"北安路三段７５２巷２２弄７５號","OBJECTID":165290},"geometry":{"x":169519.85000000056,"y":2550332.9800000004}},{"attributes":{"ID":165292,"DIS_CODE":0,"TOWNNAME":"安南區","LI":"州南里","LIN":"25鄰","STREET":"安和路","SECT":"四段","MAREA":" ","LANE":"４０６巷","ALLEY":"９弄","HOUSE_NO":"８６號","E_COORD97":170007.59,"N_COORD97":2551172.7200000002,"ADDRESS":"安和路四段４０６巷９弄８６號","OBJECTID":165291},"geometry":{"x":170007.58999999985,"y":2551172.7200000007}},{"attributes":{"ID":165293,"DIS_CODE":0,"TOWNNAME":"安南區","LI":"長安里","LIN":"5鄰","STREET":"長溪路","SECT":"三段","MAREA":" ","LANE":"４０５巷","ALLEY":"４０弄","HOUSE_NO":"１０２號","E_COORD97":167380.03,"N_COORD97":2551950.9199999999,"ADDRESS":"長溪路三段４０５巷４０弄１０２號","OBJECTID":165292},"geometry":{"x":167380.03000000119,"y":2551950.9199999999}},{"attributes":{"ID":165294,"DIS_CODE":0,"TOWNNAME":"北區","LI":"三德里","LIN":"12鄰","STREET":"裕民街","SECT":" ","MAREA":" ","LANE":" ","ALLEY":" ","HOUSE_NO":"４７號","E_COORD97":168475.31,"N_COORD97":2544477.3799999999,"ADDRESS":"裕民街４７號","OBJECTID":165293},"geometry":{"x":168475.31000000145,"y":2544477.379999999}},{"attributes":{"ID":165295,"DIS_CODE":0,"TOWNNAME":"南區","LI":"光明里","LIN":"12鄰","STREET":"利南街","SECT":" ","MAREA":" ","LANE":" ","ALLEY":" ","HOUSE_NO":"８７號","E_COORD97":166757.01999999999,"N_COORD97":2541198.8300000001,"ADDRESS":"利南街８７號","OBJECTID":165294},"geometry":{"x":166757.02000000048,"y":2541198.8300000019}},{"attributes":{"ID":165296,"DIS_CODE":0,"TOWNNAME":"南區","LI":"光明里","LIN":"12鄰","STREET":"利南街","SECT":" ","MAREA":" ","LANE":" ","ALLEY":" ","HOUSE_NO":"８９號","E_COORD97":166755.44,"N_COORD97":2541204.9900000002,"ADDRESS":"利南街８９號","OBJECTID":165295},"geometry":{"x":166755.44000000041,"y":2541204.9900000021}},{"attributes":{"ID":165297,"DIS_CODE":0,"TOWNNAME":"南區","LI":"光明里","LIN":"12鄰","STREET":"利南街","SECT":" ","MAREA":" ","LANE":" ","ALLEY":" ","HOUSE_NO":"９１號","E_COORD97":166752.42000000001,"N_COORD97":2541210.7999999998,"ADDRESS":"利南街９１號","OBJECTID":165296},"geometry":{"x":166752.41999999899,"y":2541210.8000000007}},{"attributes":{"ID":165298,"DIS_CODE":0,"TOWNNAME":"安南區","LI":"安順里","LIN":"24鄰","STREET":"北安路","SECT":"三段","MAREA":" ","LANE":"７５２巷","ALLEY":"１８弄","HOUSE_NO":"２號","E_COORD97":169460.01000000001,"N_COORD97":2550581.5,"ADDRESS":"北安路三段７５２巷１８弄２號","OBJECTID":165297},"geometry":{"x":169460.00999999978,"y":2550581.5000000037}},{"attributes":{"ID":165299,"DIS_CODE":0,"TOWNNAME":"安南區","LI":"安順里","LIN":"24鄰","STREET":"北安路","SECT":"三段","MAREA":" ","LANE":"７５２巷","ALLEY":"１８弄","HOUSE_NO":"６號","E_COORD97":169459.69,"N_COORD97":2550577.3799999999,"ADDRESS":"北安路三段７５２巷１８弄６號","OBJECTID":165298},"geometry":{"x":169459.69000000041,"y":2550577.3799999971}},{"attributes":{"ID":165300,"DIS_CODE":0,"TOWNNAME":"學甲區","LI":"新達里","LIN":"20鄰","STREET":" ","SECT":" ","MAREA":"山寮","LANE":" ","ALLEY":" ","HOUSE_NO":"４０號","E_COORD97":167954.82000000001,"N_COORD97":2570483.04,"ADDRESS":"山寮４０號","OBJECTID":165299},"geometry":{"x":167954.8200000003,"y":2570483.040000001}},{"attributes":{"ID":165301,"DIS_CODE":0,"TOWNNAME":"安南區","LI":"安順里","LIN":"24鄰","STREET":"北安路","SECT":"三段","MAREA":" ","LANE":"７５２巷","ALLEY":"１８弄","HOUSE_NO":"８號","E_COORD97":169459.53,"N_COORD97":2550573.25,"ADDRESS":"北安路三段７５２巷１８弄８號","OBJECTID":165300},"geometry":{"x":169459.53000000119,"y":2550573.2500000019}},{"attributes":{"ID":165302,"DIS_CODE":0,"TOWNNAME":"安南區","LI":"安順里","LIN":"24鄰","STREET":"北安路","SECT":"三段","MAREA":" ","LANE":"７５２巷","ALLEY":"１８弄","HOUSE_NO":"１６號","E_COORD97":169459.53,"N_COORD97":2550560.0699999998,"ADDRESS":"北安路三段７５２巷１８弄１６號","OBJECTID":165301},"geometry":{"x":169459.53000000119,"y":2550560.0700000003}},{"attributes":{"ID":165303,"DIS_CODE":0,"TOWNNAME":"安南區","LI":"安順里","LIN":"24鄰","STREET":"北安路","SECT":"三段","MAREA":" ","LANE":"７５２巷","ALLEY":"１８弄","HOUSE_NO":"１８號","E_COORD97":169459.04999999999,"N_COORD97":2550555.9500000002,"ADDRESS":"北安路三段７５２巷１８弄１８號","OBJECTID":165302},"geometry":{"x":169459.05000000075,"y":2550555.9499999993}},{"attributes":{"ID":165304,"DIS_CODE":0,"TOWNNAME":"安南區","LI":"安順里","LIN":"24鄰","STREET":"北安路","SECT":"三段","MAREA":" ","LANE":"７５２巷","ALLEY":"１８弄","HOUSE_NO":"２０號","E_COORD97":169458.73000000001,"N_COORD97":2550551.6600000001,"ADDRESS":"北安路三段７５２巷１８弄２０號","OBJECTID":165303},"geometry":{"x":169458.73000000138,"y":2550551.6600000001}},{"attributes":{"ID":165305,"DIS_CODE":0,"TOWNNAME":"安南區","LI":"安順里","LIN":"24鄰","STREET":"北安路","SECT":"三段","MAREA":" ","LANE":"７５２巷","ALLEY":"１８弄","HOUSE_NO":"２２號","E_COORD97":169458.26000000001,"N_COORD97":2550547.5299999998,"ADDRESS":"北安路三段７５２巷１８弄２２號","OBJECTID":165304},"geometry":{"x":169458.25999999978,"y":2550547.5300000012}},{"attributes":{"ID":165306,"DIS_CODE":0,"TOWNNAME":"安南區","LI":"安順里","LIN":"24鄰","STREET":"北安路","SECT":"三段","MAREA":" ","LANE":"７５２巷","ALLEY":"１８弄","HOUSE_NO":"２６號","E_COORD97":169458.26000000001,"N_COORD97":2550543.0899999999,"ADDRESS":"北安路三段７５２巷１８弄２６號","OBJECTID":165305},"geometry":{"x":169458.25999999978,"y":2550543.0900000036}},{"attributes":{"ID":165307,"DIS_CODE":0,"TOWNNAME":"安南區","LI":"理想里","LIN":"8鄰","STREET":"海佃路","SECT":"二段","MAREA":" ","LANE":"１５０巷","ALLEY":"１１２弄","HOUSE_NO":"１之８號","E_COORD97":167235.88,"N_COORD97":2548377.04,"ADDRESS":"海佃路二段１５０巷１１２弄１之８號","OBJECTID":165306},"geometry":{"x":167235.88000000175,"y":2548377.040000001}},{"attributes":{"ID":165308,"DIS_CODE":0,"TOWNNAME":"將軍區","LI":"保源里","LIN":"13鄰","STREET":" ","SECT":" ","MAREA":"源頭","LANE":" ","ALLEY":" ","HOUSE_NO":"２１號","E_COORD97":164577.75,"N_COORD97":2567859.3399999999,"ADDRESS":"源頭２１號","OBJECTID":165307},"geometry":{"x":164577.75000000093,"y":2567859.339999998}},{"attributes":{"ID":165309,"DIS_CODE":0,"TOWNNAME":"安南區","LI":"安東里","LIN":"12鄰","STREET":"安和路","SECT":"一段","MAREA":" ","LANE":"２８８巷","ALLEY":"１５０弄","HOUSE_NO":"３０號","E_COORD97":169678.57000000001,"N_COORD97":2548127.3700000001,"ADDRESS":"安和路一段２８８巷１５０弄３０號","OBJECTID":165308},"geometry":{"x":169678.57000000123,"y":2548127.370000001}},{"attributes":{"ID":165310,"DIS_CODE":0,"TOWNNAME":"安南區","LI":"公\u25A0里","LIN":"8鄰","STREET":"安興街","SECT":" ","MAREA":" ","LANE":"１８１巷","ALLEY":"２６弄","HOUSE_NO":"６８號","E_COORD97":163977.63,"N_COORD97":2552051.9100000001,"ADDRESS":"安興街１８１巷２６弄６８號","OBJECTID":165309},"geometry":{"x":163977.62999999896,"y":2552051.9100000001}},{"attributes":{"ID":165311,"DIS_CODE":0,"TOWNNAME":"安南區","LI":"淵中里","LIN":"18鄰","STREET":"安中路","SECT":"四段","MAREA":" ","LANE":"１９７巷","ALLEY":"５弄","HOUSE_NO":"５８號","E_COORD97":164879,"N_COORD97":2550023.27,"ADDRESS":"安中路四段１９７巷５弄５８號","OBJECTID":165310},"geometry":{"x":164879.00000000186,"y":2550023.2700000014}},{"attributes":{"ID":165312,"DIS_CODE":0,"TOWNNAME":"安南區","LI":"淵中里","LIN":"18鄰","STREET":"安中路","SECT":"四段","MAREA":" ","LANE":"１９７巷","ALLEY":"５弄","HOUSE_NO":"６０號","E_COORD97":164883.13,"N_COORD97":2550021.52,"ADDRESS":"安中路四段１９７巷５弄６０號","OBJECTID":165311},"geometry":{"x":164883.13000000082,"y":2550021.5200000014}},{"attributes":{"ID":165313,"DIS_CODE":0,"TOWNNAME":"南區","LI":"文南里","LIN":"12鄰","STREET":"南明街","SECT":" ","MAREA":" ","LANE":" ","ALLEY":" ","HOUSE_NO":"１７號","E_COORD97":166836.59,"N_COORD97":2542786.8999999999,"ADDRESS":"南明街１７號","OBJECTID":165312},"geometry":{"x":166836.59000000078,"y":2542786.9000000004}},{"attributes":{"ID":165314,"DIS_CODE":0,"TOWNNAME":"新市區","LI":"大營里","LIN":"20鄰","STREET":" ","SECT":" ","MAREA":"豐榮","LANE":" ","ALLEY":" ","HOUSE_NO":"５９之２０號","E_COORD97":178836.35000000001,"N_COORD97":2554189.2999999998,"ADDRESS":"豐榮５９之２０號","OBJECTID":165313},"geometry":{"x":178836.35000000056,"y":2554189.3000000007}},{"attributes":{"ID":165315,"DIS_CODE":0,"TOWNNAME":"新市區","LI":"大營里","LIN":"20鄰","STREET":" ","SECT":" ","MAREA":"豐榮","LANE":" ","ALLEY":" ","HOUSE_NO":"５２之１７號","E_COORD97":178823.37,"N_COORD97":2554230.2999999998,"ADDRESS":"豐榮５２之１７號","OBJECTID":165314},"geometry":{"x":178823.37000000104,"y":2554230.3000000007}},{"attributes":{"ID":165316,"DIS_CODE":0,"TOWNNAME":"北門區","LI":"北門里","LIN":"20鄰","STREET":" ","SECT":" ","MAREA":"舊埕","LANE":" ","ALLEY":" ","HOUSE_NO":"１０７號","E_COORD97":160522.84,"N_COORD97":2574228.21,"ADDRESS":"舊埕１０７號","OBJECTID":165315},"geometry":{"x":160522.83999999985,"y":2574228.2100000009}},{"attributes":{"ID":165317,"DIS_CODE":0,"TOWNNAME":"北門區","LI":"北門里","LIN":"20鄰","STREET":" ","SECT":" ","MAREA":"舊埕","LANE":" ","ALLEY":" ","HOUSE_NO":"１０８號","E_COORD97":160513.54999999999,"N_COORD97":2574198.46,"ADDRESS":"舊埕１０８號","OBJECTID":165316},"geometry":{"x":160513.55000000075,"y":2574198.4600000009}},{"attributes":{"ID":165318,"DIS_CODE":0,"TOWNNAME":"安南區","LI":"\u25A0田里","LIN":"1鄰","STREET":"\u25A0田路","SECT":" ","MAREA":" ","LANE":"３２９巷","ALLEY":"１０弄","HOUSE_NO":"３６號","E_COORD97":161946.98000000001,"N_COORD97":2548034.4199999999,"ADDRESS":"\u25A0田路３２９巷１０弄３６號","OBJECTID":165317},"geometry":{"x":161946.98000000138,"y":2548034.4199999999}},{"attributes":{"ID":165319,"DIS_CODE":0,"TOWNNAME":"安南區","LI":"安東里","LIN":"4鄰","STREET":"安和路","SECT":"一段","MAREA":" ","LANE":"２８８巷","ALLEY":"１５７弄","HOUSE_NO":"４號","E_COORD97":169740.20000000001,"N_COORD97":2548246.27,"ADDRESS":"安和路一段２８８巷１５７弄４號","OBJECTID":165318},"geometry":{"x":169740.20000000112,"y":2548246.2700000033}},{"attributes":{"ID":165320,"DIS_CODE":0,"TOWNNAME":"永康區","LI":"北灣里","LIN":"24鄰","STREET":"大灣路","SECT":" ","MAREA":" ","LANE":"３７巷","ALLEY":"２０弄","HOUSE_NO":"５號","E_COORD97":175408.87,"N_COORD97":2545829.8999999999,"ADDRESS":"大灣路３７巷２０弄５號","OBJECTID":165319},"geometry":{"x":175408.87000000104,"y":2545829.9000000022}},{"attributes":{"ID":165321,"DIS_CODE":0,"TOWNNAME":"北門區","LI":"北門里","LIN":"20鄰","STREET":" ","SECT":" ","MAREA":"舊埕","LANE":" ","ALLEY":" ","HOUSE_NO":"９４號","E_COORD97":160433.51999999999,"N_COORD97":2574196.8799999999,"ADDRESS":"舊埕９４號","OBJECTID":165320},"geometry":{"x":160433.52000000142,"y":2574196.879999999}},{"attributes":{"ID":165322,"DIS_CODE":0,"TOWNNAME":"北門區","LI":"北門里","LIN":"20鄰","STREET":" ","SECT":" ","MAREA":"舊埕","LANE":" ","ALLEY":" ","HOUSE_NO":"９５號","E_COORD97":160430.03,"N_COORD97":2574201.0800000001,"ADDRESS":"舊埕９５號","OBJECTID":165321},"geometry":{"x":160430.03000000026,"y":2574201.0800000001}},{"attributes":{"ID":165323,"DIS_CODE":0,"TOWNNAME":"北門區","LI":"北門里","LIN":"20鄰","STREET":" ","SECT":" ","MAREA":"舊埕","LANE":" ","ALLEY":" ","HOUSE_NO":"９６號","E_COORD97":160429.17000000001,"N_COORD97":2574214.7599999998,"ADDRESS":"舊埕９６號","OBJECTID":165322},"geometry":{"x":160429.16999999993,"y":2574214.7600000016}},{"attributes":{"ID":165324,"DIS_CODE":0,"TOWNNAME":"永康區","LI":"正強里","LIN":"18鄰","STREET":"自強路","SECT":" ","MAREA":" ","LANE":"１８８巷","ALLEY":"６２弄","HOUSE_NO":"１１號","E_COORD97":173188.51999999999,"N_COORD97":2547265.9100000001,"ADDRESS":"自強路１８８巷６２弄１１號","OBJECTID":165323},"geometry":{"x":173188.52000000048,"y":2547265.9100000001}},{"attributes":{"ID":165325,"DIS_CODE":0,"TOWNNAME":"永康區","LI":"安康里","LIN":"13鄰","STREET":"中華路","SECT":" ","MAREA":" ","LANE":"６６１巷","ALLEY":"１０５弄","HOUSE_NO":"２４號","E_COORD97":170817.16,"N_COORD97":2546039.25,"ADDRESS":"中華路６６１巷１０５弄２４號","OBJECTID":165324},"geometry":{"x":170817.16000000015,"y":2546039.25}},{"attributes":{"ID":165326,"DIS_CODE":0,"TOWNNAME":"永康區","LI":"北灣里","LIN":"26鄰","STREET":"文賢街","SECT":" ","MAREA":" ","LANE":"７８巷","ALLEY":"１９弄","HOUSE_NO":"２５號","E_COORD97":175428.41,"N_COORD97":2545359.8199999998,"ADDRESS":"文賢街７８巷１９弄２５號","OBJECTID":165325},"geometry":{"x":175428.41000000015,"y":2545359.8200000022}},{"attributes":{"ID":165327,"DIS_CODE":0,"TOWNNAME":"永康區","LI":"北灣里","LIN":"26鄰","STREET":"文賢街","SECT":" ","MAREA":" ","LANE":"７８巷","ALLEY":"１９弄","HOUSE_NO":"１號","E_COORD97":175431.39999999999,"N_COORD97":2545348.3199999998,"ADDRESS":"文賢街７８巷１９弄１號","OBJECTID":165326},"geometry":{"x":175431.4000000013,"y":2545348.3200000022}},{"attributes":{"ID":165328,"DIS_CODE":0,"TOWNNAME":"永康區","LI":"北灣里","LIN":"26鄰","STREET":"文賢街","SECT":" ","MAREA":" ","LANE":"７８巷","ALLEY":"１９弄","HOUSE_NO":"４３號","E_COORD97":175425.42000000001,"N_COORD97":2545398.5800000001,"ADDRESS":"文賢街７８巷１９弄４３號","OBJECTID":165327},"geometry":{"x":175425.42000000086,"y":2545398.5800000019}},{"attributes":{"ID":165329,"DIS_CODE":0,"TOWNNAME":"安南區","LI":"東和里","LIN":"7鄰","STREET":"環館北路","SECT":" ","MAREA":" ","LANE":"８４９巷","ALLEY":"７弄","HOUSE_NO":"１２號","E_COORD97":171185.54894000001,"N_COORD97":2551431.1979499999,"ADDRESS":"環館北路８４９巷７弄１２號","OBJECTID":165328},"geometry":{"x":171185.54894000012,"y":2551431.1979460008}},{"attributes":{"ID":165330,"DIS_CODE":0,"TOWNNAME":"永康區","LI":"北灣里","LIN":"26鄰","STREET":"文賢街","SECT":" ","MAREA":" ","LANE":"７８巷","ALLEY":"１９弄","HOUSE_NO":"１７號","E_COORD97":175412.26000000001,"N_COORD97":2545360.0699999998,"ADDRESS":"文賢街７８巷１９弄１７號","OBJECTID":165329},"geometry":{"x":175412.25999999978,"y":2545360.070000004}},{"attributes":{"ID":165331,"DIS_CODE":0,"TOWNNAME":"永康區","LI":"北灣里","LIN":"24鄰","STREET":"大灣路","SECT":" ","MAREA":" ","LANE":"３７巷","ALLEY":"３０弄","HOUSE_NO":"５號","E_COORD97":175432.42999999999,"N_COORD97":2545847.21,"ADDRESS":"大灣路３７巷３０弄５號","OBJECTID":165330},"geometry":{"x":175432.4299999997,"y":2545847.2100000009}},{"attributes":{"ID":165332,"DIS_CODE":0,"TOWNNAME":"永康區","LI":"正強里","LIN":"18鄰","STREET":"自強路","SECT":" ","MAREA":" ","LANE":"１８８巷","ALLEY":"６２弄","HOUSE_NO":"６號","E_COORD97":173193.76000000001,"N_COORD97":2547284.9900000002,"ADDRESS":"自強路１８８巷６２弄６號","OBJECTID":165331},"geometry":{"x":173193.76000000071,"y":2547284.9900000002}},{"attributes":{"ID":165333,"DIS_CODE":0,"TOWNNAME":"永康區","LI":"北灣里","LIN":"26鄰","STREET":"文賢街","SECT":" ","MAREA":" ","LANE":"７８巷","ALLEY":"１９弄","HOUSE_NO":"４１號","E_COORD97":175428.92000000001,"N_COORD97":2545398.5800000001,"ADDRESS":"文賢街７８巷１９弄４１號","OBJECTID":165332},"geometry":{"x":175428.92000000086,"y":2545398.5800000019}},{"attributes":{"ID":165334,"DIS_CODE":0,"TOWNNAME":"永康區","LI":"正強里","LIN":"18鄰","STREET":"自強路","SECT":" ","MAREA":" ","LANE":"１８８巷","ALLEY":"６２弄","HOUSE_NO":"２號","E_COORD97":173205.82999999999,"N_COORD97":2547285.9900000002,"ADDRESS":"自強路１８８巷６２弄２號","OBJECTID":165333},"geometry":{"x":173205.83000000101,"y":2547285.9900000039}},{"attributes":{"ID":165335,"DIS_CODE":0,"TOWNNAME":"永康區","LI":"北灣里","LIN":"26鄰","STREET":"文賢街","SECT":" ","MAREA":" ","LANE":"７８巷","ALLEY":"１９弄","HOUSE_NO":"７號","E_COORD97":175419.39000000001,"N_COORD97":2545348.8199999998,"ADDRESS":"文賢街７８巷１９弄７號","OBJECTID":165334},"geometry":{"x":175419.38999999966,"y":2545348.8200000022}},{"attributes":{"ID":165336,"DIS_CODE":0,"TOWNNAME":"永康區","LI":"北灣里","LIN":"26鄰","STREET":"文賢街","SECT":" ","MAREA":" ","LANE":"７８巷","ALLEY":"１９弄","HOUSE_NO":"２１號","E_COORD97":175420.64000000001,"N_COORD97":2545359.8199999998,"ADDRESS":"文賢街７８巷１９弄２１號","OBJECTID":165335},"geometry":{"x":175420.6400000006,"y":2545359.8200000022}},{"attributes":{"ID":165337,"DIS_CODE":0,"TOWNNAME":"永康區","LI":"甲頂里","LIN":"18鄰","STREET":"中正南路","SECT":" ","MAREA":" ","LANE":"５２巷","ALLEY":"４６弄","HOUSE_NO":"５９號","E_COORD97":169887.82000000001,"N_COORD97":2546625.3399999999,"ADDRESS":"中正南路５２巷４６弄５９號","OBJECTID":165336},"geometry":{"x":169887.8200000003,"y":2546625.339999998}},{"attributes":{"ID":165338,"DIS_CODE":0,"TOWNNAME":"東區","LI":"大智里","LIN":"17鄰","STREET":"崇善十六街","SECT":" ","MAREA":" ","LANE":"１５１巷","ALLEY":" ","HOUSE_NO":"６號","E_COORD97":171237.35000000001,"N_COORD97":2540375.1600000001,"ADDRESS":"崇善十六街１５１巷６號","OBJECTID":165337},"geometry":{"x":171237.34999999963,"y":2540375.1600000039}},{"attributes":{"ID":165339,"DIS_CODE":0,"TOWNNAME":"永康區","LI":"甲頂里","LIN":"15鄰","STREET":"正新街","SECT":" ","MAREA":" ","LANE":" ","ALLEY":" ","HOUSE_NO":"６３號","E_COORD97":170277.73000000001,"N_COORD97":2546727.25,"ADDRESS":"正新街６３號","OBJECTID":165338},"geometry":{"x":170277.73000000138,"y":2546727.25}},{"attributes":{"ID":165340,"DIS_CODE":0,"TOWNNAME":"永康區","LI":"甲頂里","LIN":"15鄰","STREET":"正新街","SECT":" ","MAREA":" ","LANE":" ","ALLEY":" ","HOUSE_NO":"３號","E_COORD97":170433.89999999999,"N_COORD97":2546617.1099999999,"ADDRESS":"正新街３號","OBJECTID":165339},"geometry":{"x":170433.9000000013,"y":2546617.1100000013}},{"attributes":{"ID":165341,"DIS_CODE":0,"TOWNNAME":"永康區","LI":"西灣里","LIN":"15鄰","STREET":"大灣三街","SECT":" ","MAREA":" ","LANE":" ","ALLEY":" ","HOUSE_NO":"１９７號","E_COORD97":174456.09,"N_COORD97":2545148.4900000002,"ADDRESS":"大灣三街１９７號","OBJECTID":165340},"geometry":{"x":174456.09000000078,"y":2545148.4900000002}},{"attributes":{"ID":165342,"DIS_CODE":0,"TOWNNAME":"永康區","LI":"西橋里","LIN":"15鄰","STREET":"中華西街","SECT":" ","MAREA":" ","LANE":" ","ALLEY":" ","HOUSE_NO":"２３３號","E_COORD97":170640.17999999999,"N_COORD97":2546391.7400000002,"ADDRESS":"中華西街２３３號","OBJECTID":165341},"geometry":{"x":170640.1799999997,"y":2546391.7400000002}},{"attributes":{"ID":165343,"DIS_CODE":0,"TOWNNAME":"永康區","LI":"西灣里","LIN":"15鄰","STREET":"大灣三街","SECT":" ","MAREA":" ","LANE":" ","ALLEY":" ","HOUSE_NO":"２５２號","E_COORD97":174417.10000000001,"N_COORD97":2545201.0600000001,"ADDRESS":"大灣三街２５２號","OBJECTID":165342},"geometry":{"x":174417.10000000056,"y":2545201.0600000042}},{"attributes":{"ID":165344,"DIS_CODE":0,"TOWNNAME":"永康區","LI":"西橋里","LIN":"15鄰","STREET":"中華西街","SECT":" ","MAREA":" ","LANE":" ","ALLEY":" ","HOUSE_NO":"２４５號","E_COORD97":170658.34,"N_COORD97":2546415.5,"ADDRESS":"中華西街２４５號","OBJECTID":165343},"geometry":{"x":170658.33999999985,"y":2546415.5000000019}},{"attributes":{"ID":165345,"DIS_CODE":0,"TOWNNAME":"永康區","LI":"西橋里","LIN":"15鄰","STREET":"中華西街","SECT":" ","MAREA":" ","LANE":" ","ALLEY":" ","HOUSE_NO":"２６１號","E_COORD97":170679.04000000001,"N_COORD97":2546445,"ADDRESS":"中華西街２６１號","OBJECTID":165344},"geometry":{"x":170679.04000000004,"y":2546445.0000000037}},{"attributes":{"ID":165346,"DIS_CODE":0,"TOWNNAME":"永康區","LI":"西灣里","LIN":"15鄰","STREET":"大灣三街","SECT":" ","MAREA":" ","LANE":" ","ALLEY":" ","HOUSE_NO":"２０３號","E_COORD97":174444.06,"N_COORD97":2545162,"ADDRESS":"大灣三街２０３號","OBJECTID":165345},"geometry":{"x":174444.06000000145,"y":2545162}},{"attributes":{"ID":165347,"DIS_CODE":0,"TOWNNAME":"北門區","LI":"北門里","LIN":"20鄰","STREET":" ","SECT":" ","MAREA":"舊埕","LANE":" ","ALLEY":" ","HOUSE_NO":"９８號","E_COORD97":160414.07999999999,"N_COORD97":2574265.3900000001,"ADDRESS":"舊埕９８號","OBJECTID":165346},"geometry":{"x":160414.08000000101,"y":2574265.3900000025}},{"attributes":{"ID":165348,"DIS_CODE":0,"TOWNNAME":"七股區","LI":"大潭里","LIN":"20鄰","STREET":" ","SECT":" ","MAREA":"頂潭","LANE":" ","ALLEY":" ","HOUSE_NO":"３９號","E_COORD97":160951.67999999999,"N_COORD97":2565801.6699999999,"ADDRESS":"頂潭３９號","OBJECTID":165347},"geometry":{"x":160951.68000000063,"y":2565801.6699999999}},{"attributes":{"ID":165349,"DIS_CODE":0,"TOWNNAME":"七股區","LI":"大潭里","LIN":"20鄰","STREET":" ","SECT":" ","MAREA":"頂潭","LANE":" ","ALLEY":" ","HOUSE_NO":"４０號","E_COORD97":160923.39000000001,"N_COORD97":2565801.4199999999,"ADDRESS":"頂潭４０號","OBJECTID":165348},"geometry":{"x":160923.3900000006,"y":2565801.4200000018}},{"attributes":{"ID":165350,"DIS_CODE":0,"TOWNNAME":"七股區","LI":"大潭里","LIN":"20鄰","STREET":" ","SECT":" ","MAREA":"頂潭","LANE":" ","ALLEY":" ","HOUSE_NO":"４２號","E_COORD97":160926.70000000001,"N_COORD97":2565788.4700000002,"ADDRESS":"頂潭４２號","OBJECTID":165349},"geometry":{"x":160926.70000000112,"y":2565788.4700000025}},{"attributes":{"ID":165351,"DIS_CODE":0,"TOWNNAME":"七股區","LI":"龍山里","LIN":"20鄰","STREET":" ","SECT":" ","MAREA":"龍山","LANE":" ","ALLEY":" ","HOUSE_NO":"１９５號之１","E_COORD97":158997.95000000001,"N_COORD97":2559809.2400000002,"ADDRESS":"龍山１９５號之１","OBJECTID":165350},"geometry":{"x":158997.95000000019,"y":2559809.2400000021}},{"attributes":{"ID":165352,"DIS_CODE":0,"TOWNNAME":"七股區","LI":"龍山里","LIN":"20鄰","STREET":" ","SECT":" ","MAREA":"龍山","LANE":" ","ALLEY":" ","HOUSE_NO":"１９５號之２","E_COORD97":158988.78,"N_COORD97":2559788.8599999999,"ADDRESS":"龍山１９５號之２","OBJECTID":165351},"geometry":{"x":158988.78000000119,"y":2559788.8599999994}},{"attributes":{"ID":165353,"DIS_CODE":0,"TOWNNAME":"七股區","LI":"龍山里","LIN":"20鄰","STREET":" ","SECT":" ","MAREA":"龍山","LANE":" ","ALLEY":" ","HOUSE_NO":"１９５號之３","E_COORD97":159010.45999999999,"N_COORD97":2559791.7000000002,"ADDRESS":"龍山１９５號之３","OBJECTID":165352},"geometry":{"x":159010.46000000183,"y":2559791.7000000011}},{"attributes":{"ID":165354,"DIS_CODE":0,"TOWNNAME":"永康區","LI":"正強里","LIN":"18鄰","STREET":"自強路","SECT":" ","MAREA":" ","LANE":"１８８巷","ALLEY":"６２弄","HOUSE_NO":"４號","E_COORD97":173198.35999999999,"N_COORD97":2547285.2400000002,"ADDRESS":"自強路１８８巷６２弄４號","OBJECTID":165353},"geometry":{"x":173198.3599999994,"y":2547285.2400000021}},{"attributes":{"ID":165355,"DIS_CODE":0,"TOWNNAME":"永康區","LI":"安康里","LIN":"13鄰","STREET":"中華路","SECT":" ","MAREA":" ","LANE":"６６１巷","ALLEY":"１０５弄","HOUSE_NO":"１０號","E_COORD97":170818.70999999999,"N_COORD97":2546074.2400000002,"ADDRESS":"中華路６６１巷１０５弄１０號","OBJECTID":165354},"geometry":{"x":170818.70999999996,"y":2546074.2400000039}},{"attributes":{"ID":165356,"DIS_CODE":0,"TOWNNAME":"永康區","LI":"正強里","LIN":"18鄰","STREET":"自強路","SECT":" ","MAREA":" ","LANE":"１８８巷","ALLEY":"６２弄","HOUSE_NO":"１４號","E_COORD97":173167.5,"N_COORD97":2547280.5,"ADDRESS":"自強路１８８巷６２弄１４號","OBJECTID":165355},"geometry":{"x":173167.5,"y":2547280.5000000019}},{"attributes":{"ID":165357,"DIS_CODE":0,"TOWNNAME":"永康區","LI":"永康里","LIN":"32鄰","STREET":"永大路","SECT":"二段","MAREA":" ","LANE":"１５２６巷","ALLEY":"２弄","HOUSE_NO":"２號","E_COORD97":174278.09,"N_COORD97":2547262.96,"ADDRESS":"永大路二段１５２６巷２弄２號","OBJECTID":165356},"geometry":{"x":174278.09000000078,"y":2547262.9600000009}},{"attributes":{"ID":165358,"DIS_CODE":0,"TOWNNAME":"永康區","LI":"甲頂里","LIN":"18鄰","STREET":"中正南路","SECT":" ","MAREA":" ","LANE":"５２巷","ALLEY":"４６弄","HOUSE_NO":"６４號","E_COORD97":169882.57000000001,"N_COORD97":2546599.0800000001,"ADDRESS":"中正南路５２巷４６弄６４號","OBJECTID":165357},"geometry":{"x":169882.5700000003,"y":2546599.0800000001}},{"attributes":{"ID":165359,"DIS_CODE":0,"TOWNNAME":"永康區","LI":"安康里","LIN":"13鄰","STREET":"中華路","SECT":" ","MAREA":" ","LANE":"６６１巷","ALLEY":"１０５弄","HOUSE_NO":"２８號","E_COORD97":170831.39999999999,"N_COORD97":2546049.2400000002,"ADDRESS":"中華路６６１巷１０５弄２８號","OBJECTID":165358},"geometry":{"x":170831.40000000037,"y":2546049.2400000002}},{"attributes":{"ID":165360,"DIS_CODE":0,"TOWNNAME":"永康區","LI":"正強里","LIN":"18鄰","STREET":"自強路","SECT":" ","MAREA":" ","LANE":"１８８巷","ALLEY":"６２弄","HOUSE_NO":"９號","E_COORD97":173191.67999999999,"N_COORD97":2547266.4100000001,"ADDRESS":"自強路１８８巷６２弄９號","OBJECTID":165359},"geometry":{"x":173191.6799999997,"y":2547266.4100000039}},{"attributes":{"ID":165361,"DIS_CODE":0,"TOWNNAME":"永康區","LI":"甲頂里","LIN":"18鄰","STREET":"中正南路","SECT":" ","MAREA":" ","LANE":"５２巷","ALLEY":"４６弄","HOUSE_NO":"４８號","E_COORD97":169871.13,"N_COORD97":2546640.6400000001,"ADDRESS":"中正南路５２巷４６弄４８號","OBJECTID":165360},"geometry":{"x":169871.12999999989,"y":2546640.6400000006}},{"attributes":{"ID":165362,"DIS_CODE":0,"TOWNNAME":"永康區","LI":"安康里","LIN":"13鄰","STREET":"中華路","SECT":" ","MAREA":" ","LANE":"６６１巷","ALLEY":"１０５弄","HOUSE_NO":"２２號","E_COORD97":170811.06,"N_COORD97":2546050.4900000002,"ADDRESS":"中華路６６１巷１０５弄２２號","OBJECTID":165361},"geometry":{"x":170811.05999999866,"y":2546050.4900000002}},{"attributes":{"ID":165363,"DIS_CODE":0,"TOWNNAME":"北區","LI":"五福里","LIN":"12鄰","STREET":"成功路","SECT":" ","MAREA":" ","LANE":" ","ALLEY":" ","HOUSE_NO":"２５４號","E_COORD97":168250.14000000001,"N_COORD97":2544435.9500000002,"ADDRESS":"成功路２５４號","OBJECTID":165362},"geometry":{"x":168250.1400000006,"y":2544435.9499999993}},{"attributes":{"ID":165364,"DIS_CODE":0,"TOWNNAME":"北區","LI":"五福里","LIN":"12鄰","STREET":"成功路","SECT":" ","MAREA":" ","LANE":" ","ALLEY":" ","HOUSE_NO":"２５６號","E_COORD97":168245.64999999999,"N_COORD97":2544437.4500000002,"ADDRESS":"成功路２５６號","OBJECTID":165363},"geometry":{"x":168245.6500000013,"y":2544437.450000003}},{"attributes":{"ID":165365,"DIS_CODE":0,"TOWNNAME":"北區","LI":"五福里","LIN":"12鄰","STREET":"成功路","SECT":" ","MAREA":" ","LANE":" ","ALLEY":" ","HOUSE_NO":"２６０號","E_COORD97":168242.51000000001,"N_COORD97":2544438.6699999999,"ADDRESS":"成功路２６０號","OBJECTID":165364},"geometry":{"x":168242.51000000071,"y":2544438.6699999999}},{"attributes":{"ID":165366,"DIS_CODE":0,"TOWNNAME":"北區","LI":"五福里","LIN":"12鄰","STREET":"成功路","SECT":" ","MAREA":" ","LANE":" ","ALLEY":" ","HOUSE_NO":"２６２號","E_COORD97":168239.51000000001,"N_COORD97":2544440.04,"ADDRESS":"成功路２６２號","OBJECTID":165365},"geometry":{"x":168239.50999999978,"y":2544440.0400000028}},{"attributes":{"ID":165367,"DIS_CODE":0,"TOWNNAME":"北區","LI":"五福里","LIN":"12鄰","STREET":"成功路","SECT":" ","MAREA":" ","LANE":" ","ALLEY":" ","HOUSE_NO":"２６４號","E_COORD97":168236.23999999999,"N_COORD97":2544440.9900000002,"ADDRESS":"成功路２６４號","OBJECTID":165366},"geometry":{"x":168236.24000000115,"y":2544440.9900000002}},{"attributes":{"ID":165368,"DIS_CODE":0,"TOWNNAME":"北區","LI":"五福里","LIN":"12鄰","STREET":"成功路","SECT":" ","MAREA":" ","LANE":" ","ALLEY":" ","HOUSE_NO":"２６６號","E_COORD97":168232.69,"N_COORD97":2544442.3500000001,"ADDRESS":"成功路２６６號","OBJECTID":165367},"geometry":{"x":168232.68999999948,"y":2544442.3500000015}},{"attributes":{"ID":165369,"DIS_CODE":0,"TOWNNAME":"北區","LI":"五福里","LIN":"12鄰","STREET":"成功路","SECT":" ","MAREA":" ","LANE":" ","ALLEY":" ","HOUSE_NO":"２６８號","E_COORD97":168229.01000000001,"N_COORD97":2544443.3100000001,"ADDRESS":"成功路２６８號","OBJECTID":165368},"geometry":{"x":168229.01000000071,"y":2544443.3100000042}},{"attributes":{"ID":165370,"DIS_CODE":0,"TOWNNAME":"北區","LI":"五福里","LIN":"12鄰","STREET":"成功路","SECT":" ","MAREA":" ","LANE":" ","ALLEY":" ","HOUSE_NO":"２７０號","E_COORD97":168225.32999999999,"N_COORD97":2544445.0800000001,"ADDRESS":"成功路２７０號","OBJECTID":165369},"geometry":{"x":168225.33000000101,"y":2544445.0800000019}},{"attributes":{"ID":165371,"DIS_CODE":0,"TOWNNAME":"七股區","LI":"龍山里","LIN":"20鄰","STREET":" ","SECT":" ","MAREA":"龍山","LANE":" ","ALLEY":" ","HOUSE_NO":"１９５號之４","E_COORD97":159014.19,"N_COORD97":2559789.9700000002,"ADDRESS":"龍山１９５號之４","OBJECTID":165370},"geometry":{"x":159014.19000000041,"y":2559789.9700000007}},{"attributes":{"ID":165372,"DIS_CODE":0,"TOWNNAME":"七股區","LI":"龍山里","LIN":"20鄰","STREET":" ","SECT":" ","MAREA":"龍山","LANE":" ","ALLEY":" ","HOUSE_NO":"１９５號之５","E_COORD97":159017.82000000001,"N_COORD97":2559787.9700000002,"ADDRESS":"龍山１９５號之５","OBJECTID":165371},"geometry":{"x":159017.8200000003,"y":2559787.9700000025}},{"attributes":{"ID":165373,"DIS_CODE":0,"TOWNNAME":"七股區","LI":"龍山里","LIN":"20鄰","STREET":" ","SECT":" ","MAREA":"龍山","LANE":" ","ALLEY":" ","HOUSE_NO":"１９５號之６","E_COORD97":159020.87,"N_COORD97":2559786.4500000002,"ADDRESS":"龍山１９５號之６","OBJECTID":165372},"geometry":{"x":159020.87000000011,"y":2559786.4500000011}},{"attributes":{"ID":165374,"DIS_CODE":0,"TOWNNAME":"七股區","LI":"龍山里","LIN":"20鄰","STREET":" ","SECT":" ","MAREA":"龍山","LANE":" ","ALLEY":" ","HOUSE_NO":"１９５號之７","E_COORD97":159024.64999999999,"N_COORD97":2559784.5,"ADDRESS":"龍山１９５號之７","OBJECTID":165373},"geometry":{"x":159024.64999999944,"y":2559784.5}},{"attributes":{"ID":165375,"DIS_CODE":0,"TOWNNAME":"七股區","LI":"龍山里","LIN":"20鄰","STREET":" ","SECT":" ","MAREA":"龍山","LANE":" ","ALLEY":" ","HOUSE_NO":"１９５號之８","E_COORD97":159028.38,"N_COORD97":2559783.21,"ADDRESS":"龍山１９５號之８","OBJECTID":165374},"geometry":{"x":159028.38000000082,"y":2559783.2100000028}},{"attributes":{"ID":165376,"DIS_CODE":0,"TOWNNAME":"七股區","LI":"龍山里","LIN":"20鄰","STREET":" ","SECT":" ","MAREA":"龍山","LANE":" ","ALLEY":" ","HOUSE_NO":"１９５號之９","E_COORD97":159032.41,"N_COORD97":2559781.96,"ADDRESS":"龍山１９５號之９","OBJECTID":165375},"geometry":{"x":159032.41000000015,"y":2559781.9600000028}},{"attributes":{"ID":165377,"DIS_CODE":0,"TOWNNAME":"七股區","LI":"龍山里","LIN":"20鄰","STREET":" ","SECT":" ","MAREA":"龍山","LANE":" ","ALLEY":" ","HOUSE_NO":"１９５號","E_COORD97":159006.57000000001,"N_COORD97":2559793.8999999999,"ADDRESS":"龍山１９５號","OBJECTID":165376},"geometry":{"x":159006.57000000216,"y":2559793.9000000041}},{"attributes":{"ID":165378,"DIS_CODE":0,"TOWNNAME":"北區","LI":"重興里","LIN":"12鄰","STREET":"開南街","SECT":" ","MAREA":" ","LANE":" ","ALLEY":" ","HOUSE_NO":"２０５號","E_COORD97":170743.63,"N_COORD97":2545035.7599999998,"ADDRESS":"開南街２０５號","OBJECTID":165377},"geometry":{"x":170743.63000000082,"y":2545035.7599999979}},{"attributes":{"ID":165379,"DIS_CODE":0,"TOWNNAME":"安南區","LI":"\u25A0南里","LIN":"4鄰","STREET":"環福街","SECT":" ","MAREA":" ","LANE":" ","ALLEY":" ","HOUSE_NO":"４３號","E_COORD97":170219.95999999999,"N_COORD97":2552469,"ADDRESS":"環福街４３號","OBJECTID":165378},"geometry":{"x":170219.95999999996,"y":2552469}},{"attributes":{"ID":165380,"DIS_CODE":0,"TOWNNAME":"安南區","LI":"\u25A0南里","LIN":"4鄰","STREET":"環福街","SECT":" ","MAREA":" ","LANE":" ","ALLEY":" ","HOUSE_NO":"４５號","E_COORD97":170224.38,"N_COORD97":2552468.1099999999,"ADDRESS":"環福街４５號","OBJECTID":165379},"geometry":{"x":170224.37999999896,"y":2552468.1099999975}},{"attributes":{"ID":165381,"DIS_CODE":0,"TOWNNAME":"安南區","LI":"\u25A0南里","LIN":"4鄰","STREET":"環福街","SECT":" ","MAREA":" ","LANE":" ","ALLEY":" ","HOUSE_NO":"４７號","E_COORD97":170228.10000000001,"N_COORD97":2552465.9900000002,"ADDRESS":"環福街４７號","OBJECTID":165380},"geometry":{"x":170228.10000000056,"y":2552465.9900000002}},{"attributes":{"ID":165382,"DIS_CODE":0,"TOWNNAME":"安南區","LI":"\u25A0南里","LIN":"4鄰","STREET":"環福街","SECT":" ","MAREA":" ","LANE":" ","ALLEY":" ","HOUSE_NO":"４９號","E_COORD97":170237.59,"N_COORD97":2552468.48,"ADDRESS":"環福街４９號","OBJECTID":165381},"geometry":{"x":170237.58999999985,"y":2552468.4800000023}},{"attributes":{"ID":165383,"DIS_CODE":0,"TOWNNAME":"安南區","LI":"\u25A0南里","LIN":"4鄰","STREET":"環福街","SECT":" ","MAREA":" ","LANE":" ","ALLEY":" ","HOUSE_NO":"５７號","E_COORD97":170250.22,"N_COORD97":2552463.1600000001,"ADDRESS":"環福街５７號","OBJECTID":165382},"geometry":{"x":170250.21999999974,"y":2552463.160000002}},{"attributes":{"ID":165384,"DIS_CODE":0,"TOWNNAME":"南區","LI":"郡南里","LIN":"4鄰","STREET":"德興路","SECT":" ","MAREA":" ","LANE":" ","ALLEY":" ","HOUSE_NO":"６１號","E_COORD97":167183.98999999999,"N_COORD97":2540739.8500000001,"ADDRESS":"德興路６１號","OBJECTID":165383},"geometry":{"x":167183.99000000022,"y":2540739.8500000034}},{"attributes":{"ID":165385,"DIS_CODE":0,"TOWNNAME":"南區","LI":"郡南里","LIN":"4鄰","STREET":"德興路","SECT":" ","MAREA":" ","LANE":" ","ALLEY":" ","HOUSE_NO":"９號","E_COORD97":167193.14000000001,"N_COORD97":2540838.9300000002,"ADDRESS":"德興路９號","OBJECTID":165384},"geometry":{"x":167193.14000000153,"y":2540838.9300000016}},{"attributes":{"ID":165386,"DIS_CODE":0,"TOWNNAME":"南區","LI":"郡南里","LIN":"6鄰","STREET":"永吉街","SECT":" ","MAREA":" ","LANE":" ","ALLEY":" ","HOUSE_NO":"１號","E_COORD97":167291.78,"N_COORD97":2540538.3100000001,"ADDRESS":"永吉街１號","OBJECTID":165385},"geometry":{"x":167291.78000000119,"y":2540538.3100000024}},{"attributes":{"ID":165387,"DIS_CODE":0,"TOWNNAME":"永康區","LI":"正強里","LIN":"18鄰","STREET":"自強路","SECT":" ","MAREA":" ","LANE":"１８８巷","ALLEY":"６２弄","HOUSE_NO":"１號","E_COORD97":173209.32000000001,"N_COORD97":2547268.4100000001,"ADDRESS":"自強路１８８巷６２弄１號","OBJECTID":165386},"geometry":{"x":173209.32000000123,"y":2547268.4100000001}},{"attributes":{"ID":165388,"DIS_CODE":0,"TOWNNAME":"永康區","LI":"永康里","LIN":"25鄰","STREET":"中山北路","SECT":" ","MAREA":" ","LANE":"１２３巷","ALLEY":"１１弄","HOUSE_NO":"１９號","E_COORD97":174063.53,"N_COORD97":2547567.8500000001,"ADDRESS":"中山北路１２３巷１１弄１９號","OBJECTID":165387},"geometry":{"x":174063.53000000212,"y":2547567.8500000034}},{"attributes":{"ID":165389,"DIS_CODE":0,"TOWNNAME":"永康區","LI":"甲頂里","LIN":"18鄰","STREET":"中正南路","SECT":" ","MAREA":" ","LANE":"５２巷","ALLEY":"４６弄","HOUSE_NO":"４６號","E_COORD97":169863.01999999999,"N_COORD97":2546640.3900000001,"ADDRESS":"中正南路５２巷４６弄４６號","OBJECTID":165388},"geometry":{"x":169863.01999999955,"y":2546640.3900000025}},{"attributes":{"ID":165390,"DIS_CODE":0,"TOWNNAME":"永康區","LI":"甲頂里","LIN":"18鄰","STREET":"中正南路","SECT":" ","MAREA":" ","LANE":"５２巷","ALLEY":"４６弄","HOUSE_NO":"４０號","E_COORD97":169837.67000000001,"N_COORD97":2546655.5899999999,"ADDRESS":"中正南路５２巷４６弄４０號","OBJECTID":165389},"geometry":{"x":169837.66999999899,"y":2546655.5900000017}},{"attributes":{"ID":165391,"DIS_CODE":0,"TOWNNAME":"永康區","LI":"甲頂里","LIN":"18鄰","STREET":"中正南路","SECT":" ","MAREA":" ","LANE":"５２巷","ALLEY":"４６弄","HOUSE_NO":"４１號","E_COORD97":169838.07000000001,"N_COORD97":2546651.3399999999,"ADDRESS":"中正南路５２巷４６弄４１號","OBJECTID":165390},"geometry":{"x":169838.0700000003,"y":2546651.3399999999}},{"attributes":{"ID":165392,"DIS_CODE":0,"TOWNNAME":"永康區","LI":"甲頂里","LIN":"18鄰","STREET":"中正南路","SECT":" ","MAREA":" ","LANE":"５２巷","ALLEY":"４６弄","HOUSE_NO":"４２號","E_COORD97":169838.22,"N_COORD97":2546647.0899999999,"ADDRESS":"中正南路５２巷４６弄４２號","OBJECTID":165391},"geometry":{"x":169838.21999999974,"y":2546647.0899999999}},{"attributes":{"ID":165393,"DIS_CODE":0,"TOWNNAME":"永康區","LI":"永康里","LIN":"25鄰","STREET":"中山北路","SECT":" ","MAREA":" ","LANE":"１２３巷","ALLEY":"１１弄","HOUSE_NO":"２１號","E_COORD97":174068.07000000001,"N_COORD97":2547569.6000000001,"ADDRESS":"中山北路１２３巷１１弄２１號","OBJECTID":165392},"geometry":{"x":174068.0700000003,"y":2547569.6000000034}},{"attributes":{"ID":165394,"DIS_CODE":0,"TOWNNAME":"永康區","LI":"永康里","LIN":"26鄰","STREET":"永明街","SECT":" ","MAREA":" ","LANE":"５３巷","ALLEY":"２弄","HOUSE_NO":"１１號","E_COORD97":174148.07999999999,"N_COORD97":2547351.6699999999,"ADDRESS":"永明街５３巷２弄１１號","OBJECTID":165393},"geometry":{"x":174148.08000000101,"y":2547351.6699999999}},{"attributes":{"ID":165395,"DIS_CODE":0,"TOWNNAME":"永康區","LI":"北灣里","LIN":"26鄰","STREET":"文賢街","SECT":" ","MAREA":" ","LANE":"７８巷","ALLEY":"１９弄","HOUSE_NO":"９３號","E_COORD97":175453.48000000001,"N_COORD97":2545472.27,"ADDRESS":"文賢街７８巷１９弄９３號","OBJECTID":165394},"geometry":{"x":175453.48000000045,"y":2545472.2699999996}},{"attributes":{"ID":165396,"DIS_CODE":0,"TOWNNAME":"永康區","LI":"北灣里","LIN":"38鄰","STREET":"大灣路","SECT":" ","MAREA":" ","LANE":"４０巷","ALLEY":"１８１弄","HOUSE_NO":"２６號","E_COORD97":174812.76999999999,"N_COORD97":2546245.71,"ADDRESS":"大灣路４０巷１８１弄２６號","OBJECTID":165395},"geometry":{"x":174812.77000000048,"y":2546245.7100000028}},{"attributes":{"ID":165397,"DIS_CODE":0,"TOWNNAME":"永康區","LI":"北灣里","LIN":"26鄰","STREET":"文賢街","SECT":" ","MAREA":" ","LANE":"７８巷","ALLEY":"１９弄","HOUSE_NO":"９１號","E_COORD97":175452.91,"N_COORD97":2545467.2599999998,"ADDRESS":"文賢街７８巷１９弄９１號","OBJECTID":165396},"geometry":{"x":175452.91000000108,"y":2545467.2600000016}},{"attributes":{"ID":165398,"DIS_CODE":0,"TOWNNAME":"永康區","LI":"正強里","LIN":"25鄰","STREET":"中正路","SECT":" ","MAREA":" ","LANE":"１２７巷","ALLEY":"８弄","HOUSE_NO":"２號","E_COORD97":173353.32000000001,"N_COORD97":2547847.3199999998,"ADDRESS":"中正路１２７巷８弄２號","OBJECTID":165397},"geometry":{"x":173353.32000000123,"y":2547847.3200000022}},{"attributes":{"ID":165399,"DIS_CODE":0,"TOWNNAME":"永康區","LI":"北灣里","LIN":"38鄰","STREET":"大灣路","SECT":" ","MAREA":" ","LANE":"４０巷","ALLEY":"１８１弄","HOUSE_NO":"６號","E_COORD97":174842.85999999999,"N_COORD97":2546280.1600000001,"ADDRESS":"大灣路４０巷１８１弄６號","OBJECTID":165398},"geometry":{"x":174842.8600000022,"y":2546280.1600000001}},{"attributes":{"ID":165400,"DIS_CODE":0,"TOWNNAME":"永康區","LI":"永康里","LIN":"26鄰","STREET":"永明街","SECT":" ","MAREA":" ","LANE":"６９巷","ALLEY":"５弄","HOUSE_NO":"１０號","E_COORD97":174159.12,"N_COORD97":2547325.2400000002,"ADDRESS":"永明街６９巷５弄１０號","OBJECTID":165399},"geometry":{"x":174159.12000000011,"y":2547325.2400000039}},{"attributes":{"ID":165401,"DIS_CODE":0,"TOWNNAME":"永康區","LI":"正強里","LIN":"25鄰","STREET":"中正路","SECT":" ","MAREA":" ","LANE":"１２７巷","ALLEY":"８弄","HOUSE_NO":"８號","E_COORD97":173339.38,"N_COORD97":2547843.3199999998,"ADDRESS":"中正路１２７巷８弄８號","OBJECTID":165400},"geometry":{"x":173339.38000000082,"y":2547843.320000004}}]}