{"displayFieldName":"TOWNNAME","fieldAliases":{"ID":"ID","DIS_CODE":"DIS_CODE","TOWNNAME":"TOWNNAME","LI":"LI","LIN":"LIN","STREET":"STREET","SECT":"SECT","MAREA":"MAREA","LANE":"LANE","ALLEY":"ALLEY","HOUSE_NO":"HOUSE_NO","E_COORD97":"E_COORD97","N_COORD97":"N_COORD97","ADDRESS":"ADDRESS","OBJECTID":"OBJECTID"},"geometryType":"esriGeometryPoint","spatialReference":{"wkid":102443,"latestWkid":3826},"fields":[{"name":"ID","type":"esriFieldTypeDouble","alias":"ID"},{"name":"DIS_CODE","type":"esriFieldTypeInteger","alias":"DIS_CODE"},{"name":"TOWNNAME","type":"esriFieldTypeString","alias":"TOWNNAME","length":8},{"name":"LI","type":"esriFieldTypeString","alias":"LI","length":8},{"name":"LIN","type":"esriFieldTypeString","alias":"LIN","length":12},{"name":"STREET","type":"esriFieldTypeString","alias":"STREET","length":20},{"name":"SECT","type":"esriFieldTypeString","alias":"SECT","length":8},{"name":"MAREA","type":"esriFieldTypeString","alias":"MAREA","length":12},{"name":"LANE","type":"esriFieldTypeString","alias":"LANE","length":10},{"name":"ALLEY","type":"esriFieldTypeString","alias":"ALLEY","length":10},{"name":"HOUSE_NO","type":"esriFieldTypeString","alias":"HOUSE_NO","length":20},{"name":"E_COORD97","type":"esriFieldTypeDouble","alias":"E_COORD97"},{"name":"N_COORD97","type":"esriFieldTypeDouble","alias":"N_COORD97"},{"name":"ADDRESS","type":"esriFieldTypeString","alias":"ADDRESS","length":50},{"name":"OBJECTID","type":"esriFieldTypeOID","alias":"OBJECTID"}],"features":[{"attributes":{"ID":558028,"DIS_CODE":0,"TOWNNAME":"永康區","LI":"\u25A0洲里","LIN":"21鄰","STREET":"中正南路","SECT":" ","MAREA":" ","LANE":" ","ALLEY":" ","HOUSE_NO":"７５３號","E_COORD97":171641.60000000001,"N_COORD97":2548919.8999999999,"ADDRESS":"中正南路７５３號","OBJECTID":558001},"geometry":{"x":171641.60000000149,"y":2548919.9000000004}},{"attributes":{"ID":558029,"DIS_CODE":0,"TOWNNAME":"永康區","LI":"中華里","LIN":"21鄰","STREET":"中華路","SECT":" ","MAREA":" ","LANE":" ","ALLEY":" ","HOUSE_NO":"２８號","E_COORD97":171585.75,"N_COORD97":2544551.1800000002,"ADDRESS":"中華路２８號","OBJECTID":558002},"geometry":{"x":171585.75000000093,"y":2544551.1799999997}},{"attributes":{"ID":558030,"DIS_CODE":0,"TOWNNAME":"永康區","LI":"中華里","LIN":"21鄰","STREET":"華興街","SECT":" ","MAREA":" ","LANE":" ","ALLEY":" ","HOUSE_NO":"１４１號","E_COORD97":171615.09,"N_COORD97":2544548.4700000002,"ADDRESS":"華興街１４１號","OBJECTID":558003},"geometry":{"x":171615.09000000078,"y":2544548.4700000025}},{"attributes":{"ID":558031,"DIS_CODE":0,"TOWNNAME":"永康區","LI":"\u25A0洲里","LIN":"21鄰","STREET":"中正南路","SECT":" ","MAREA":" ","LANE":" ","ALLEY":" ","HOUSE_NO":"７６１號","E_COORD97":171651.60000000001,"N_COORD97":2548930.25,"ADDRESS":"中正南路７６１號","OBJECTID":558004},"geometry":{"x":171651.59999999963,"y":2548930.25}},{"attributes":{"ID":558032,"DIS_CODE":0,"TOWNNAME":"永康區","LI":"\u25A0洲里","LIN":"21鄰","STREET":"中正南路","SECT":" ","MAREA":" ","LANE":" ","ALLEY":" ","HOUSE_NO":"７４７號","E_COORD97":171631.75,"N_COORD97":2548910.3999999999,"ADDRESS":"中正南路７４７號","OBJECTID":558005},"geometry":{"x":171631.75,"y":2548910.4000000004}},{"attributes":{"ID":558033,"DIS_CODE":0,"TOWNNAME":"永康區","LI":"中華里","LIN":"21鄰","STREET":"中華路","SECT":" ","MAREA":" ","LANE":" ","ALLEY":" ","HOUSE_NO":"３２號","E_COORD97":171587.01999999999,"N_COORD97":2544560.1499999999,"ADDRESS":"中華路３２號","OBJECTID":558006},"geometry":{"x":171587.01999999955,"y":2544560.1500000022}},{"attributes":{"ID":558034,"DIS_CODE":0,"TOWNNAME":"永康區","LI":"中華里","LIN":"21鄰","STREET":"華興街","SECT":" ","MAREA":" ","LANE":" ","ALLEY":" ","HOUSE_NO":"１４５號","E_COORD97":171616.07999999999,"N_COORD97":2544556.3100000001,"ADDRESS":"華興街１４５號","OBJECTID":558007},"geometry":{"x":171616.08000000007,"y":2544556.3100000024}},{"attributes":{"ID":558035,"DIS_CODE":0,"TOWNNAME":"永康區","LI":"\u25A0洲里","LIN":"21鄰","STREET":"中正南路","SECT":" ","MAREA":" ","LANE":" ","ALLEY":" ","HOUSE_NO":"７６５號","E_COORD97":171658.20000000001,"N_COORD97":2548935.5,"ADDRESS":"中正南路７６５號","OBJECTID":558008},"geometry":{"x":171658.20000000019,"y":2548935.5}},{"attributes":{"ID":558036,"DIS_CODE":0,"TOWNNAME":"永康區","LI":"\u25A0洲里","LIN":"21鄰","STREET":"中正南路","SECT":" ","MAREA":" ","LANE":" ","ALLEY":" ","HOUSE_NO":"７７５號","E_COORD97":171671.39999999999,"N_COORD97":2548949.4900000002,"ADDRESS":"中正南路７７５號","OBJECTID":558009},"geometry":{"x":171671.4000000013,"y":2548949.4900000002}},{"attributes":{"ID":558037,"DIS_CODE":0,"TOWNNAME":"善化區","LI":"光文里","LIN":"21鄰","STREET":"和平路","SECT":" ","MAREA":" ","LANE":" ","ALLEY":" ","HOUSE_NO":"１５９號","E_COORD97":178101.76000000001,"N_COORD97":2559011.5,"ADDRESS":"和平路１５９號","OBJECTID":558010},"geometry":{"x":178101.76000000071,"y":2559011.5}},{"attributes":{"ID":558038,"DIS_CODE":0,"TOWNNAME":"善化區","LI":"文昌里","LIN":"21鄰","STREET":"中正路","SECT":" ","MAREA":" ","LANE":" ","ALLEY":" ","HOUSE_NO":"２０５號之１","E_COORD97":177673.64000000001,"N_COORD97":2558149.02,"ADDRESS":"中正路２０５號之１","OBJECTID":558011},"geometry":{"x":177673.6400000006,"y":2558149.0200000014}},{"attributes":{"ID":558039,"DIS_CODE":0,"TOWNNAME":"善化區","LI":"文昌里","LIN":"21鄰","STREET":"中正路","SECT":" ","MAREA":" ","LANE":" ","ALLEY":" ","HOUSE_NO":"１８２號","E_COORD97":177716.95000000001,"N_COORD97":2558187,"ADDRESS":"中正路１８２號","OBJECTID":558012},"geometry":{"x":177716.94999999925,"y":2558187.0000000019}},{"attributes":{"ID":558040,"DIS_CODE":0,"TOWNNAME":"善化區","LI":"光文里","LIN":"21鄰","STREET":"民權路","SECT":" ","MAREA":" ","LANE":" ","ALLEY":" ","HOUSE_NO":"２４０號","E_COORD97":178079.92999999999,"N_COORD97":2558996.0099999998,"ADDRESS":"民權路２４０號","OBJECTID":558013},"geometry":{"x":178079.93000000063,"y":2558996.0100000035}},{"attributes":{"ID":558041,"DIS_CODE":0,"TOWNNAME":"善化區","LI":"光文里","LIN":"21鄰","STREET":"民權路","SECT":" ","MAREA":" ","LANE":" ","ALLEY":" ","HOUSE_NO":"２５６號","E_COORD97":178037.92999999999,"N_COORD97":2558990.0099999998,"ADDRESS":"民權路２５６號","OBJECTID":558014},"geometry":{"x":178037.93000000063,"y":2558990.0100000016}},{"attributes":{"ID":558042,"DIS_CODE":0,"TOWNNAME":"善化區","LI":"光文里","LIN":"21鄰","STREET":"民族路","SECT":" ","MAREA":" ","LANE":" ","ALLEY":" ","HOUSE_NO":"１６６號","E_COORD97":178055.92999999999,"N_COORD97":2559056.2599999998,"ADDRESS":"民族路１６６號","OBJECTID":558015},"geometry":{"x":178055.93000000063,"y":2559056.2600000016}},{"attributes":{"ID":558043,"DIS_CODE":0,"TOWNNAME":"善化區","LI":"光文里","LIN":"21鄰","STREET":"民權路","SECT":" ","MAREA":" ","LANE":" ","ALLEY":" ","HOUSE_NO":"２４２號","E_COORD97":178075.51999999999,"N_COORD97":2558995.2599999998,"ADDRESS":"民權路２４２號","OBJECTID":558016},"geometry":{"x":178075.52000000048,"y":2558995.2600000016}},{"attributes":{"ID":558044,"DIS_CODE":0,"TOWNNAME":"善化區","LI":"光文里","LIN":"21鄰","STREET":"民權路","SECT":" ","MAREA":" ","LANE":" ","ALLEY":" ","HOUSE_NO":"２４８號","E_COORD97":178056.04000000001,"N_COORD97":2558992.7599999998,"ADDRESS":"民權路２４８號","OBJECTID":558017},"geometry":{"x":178056.04000000097,"y":2558992.7599999998}},{"attributes":{"ID":558045,"DIS_CODE":0,"TOWNNAME":"善化區","LI":"光文里","LIN":"21鄰","STREET":"和平路","SECT":" ","MAREA":" ","LANE":" ","ALLEY":" ","HOUSE_NO":"１６９號","E_COORD97":178097.95999999999,"N_COORD97":2559032.75,"ADDRESS":"和平路１６９號","OBJECTID":558018},"geometry":{"x":178097.95999999996,"y":2559032.7500000019}},{"attributes":{"ID":558046,"DIS_CODE":0,"TOWNNAME":"善化區","LI":"光文里","LIN":"21鄰","STREET":"民族路","SECT":" ","MAREA":" ","LANE":" ","ALLEY":" ","HOUSE_NO":"１７２號","E_COORD97":178039.14999999999,"N_COORD97":2559055.0099999998,"ADDRESS":"民族路１７２號","OBJECTID":558019},"geometry":{"x":178039.15000000037,"y":2559055.0100000016}},{"attributes":{"ID":558047,"DIS_CODE":0,"TOWNNAME":"中西區","LI":"大涼里","LIN":"21鄰","STREET":"府前二街","SECT":" ","MAREA":" ","LANE":" ","ALLEY":" ","HOUSE_NO":"７０號","E_COORD97":166682.70999999999,"N_COORD97":2543916.4700000002,"ADDRESS":"府前二街７０號","OBJECTID":558020},"geometry":{"x":166682.70999999903,"y":2543916.4699999988}},{"attributes":{"ID":558048,"DIS_CODE":0,"TOWNNAME":"善化區","LI":"光文里","LIN":"21鄰","STREET":"中山路","SECT":" ","MAREA":" ","LANE":" ","ALLEY":" ","HOUSE_NO":"２５３號之１","E_COORD97":178009.39999999999,"N_COORD97":2559079.52,"ADDRESS":"中山路２５３號之１","OBJECTID":558021},"geometry":{"x":178009.4000000013,"y":2559079.5199999996}},{"attributes":{"ID":558049,"DIS_CODE":0,"TOWNNAME":"中西區","LI":"仙草里","LIN":"21鄰","STREET":"五妃街","SECT":" ","MAREA":" ","LANE":" ","ALLEY":" ","HOUSE_NO":"３４７號","E_COORD97":167800.13,"N_COORD97":2542575.8900000001,"ADDRESS":"五妃街３４７號","OBJECTID":558022},"geometry":{"x":167800.12999999989,"y":2542575.8900000025}},{"attributes":{"ID":558050,"DIS_CODE":0,"TOWNNAME":"中西區","LI":"仙草里","LIN":"21鄰","STREET":"五妃街","SECT":" ","MAREA":" ","LANE":" ","ALLEY":" ","HOUSE_NO":"３４９號","E_COORD97":167793.79000000001,"N_COORD97":2542579.2599999998,"ADDRESS":"五妃街３４９號","OBJECTID":558023},"geometry":{"x":167793.79000000004,"y":2542579.2600000016}},{"attributes":{"ID":558051,"DIS_CODE":0,"TOWNNAME":"中西區","LI":"仙草里","LIN":"21鄰","STREET":"五妃街","SECT":" ","MAREA":" ","LANE":" ","ALLEY":" ","HOUSE_NO":"３５１號","E_COORD97":167789.42999999999,"N_COORD97":2542579.0600000001,"ADDRESS":"五妃街３５１號","OBJECTID":558024},"geometry":{"x":167789.4299999997,"y":2542579.0600000005}},{"attributes":{"ID":558052,"DIS_CODE":0,"TOWNNAME":"中西區","LI":"仙草里","LIN":"21鄰","STREET":"五妃街","SECT":" ","MAREA":" ","LANE":" ","ALLEY":" ","HOUSE_NO":"３５３號","E_COORD97":167785.66,"N_COORD97":2542578.27,"ADDRESS":"五妃街３５３號","OBJECTID":558025},"geometry":{"x":167785.66000000108,"y":2542578.2700000014}},{"attributes":{"ID":558053,"DIS_CODE":0,"TOWNNAME":"中西區","LI":"仙草里","LIN":"21鄰","STREET":"五妃街","SECT":" ","MAREA":" ","LANE":" ","ALLEY":" ","HOUSE_NO":"３５５號","E_COORD97":167781.70000000001,"N_COORD97":2542577.0800000001,"ADDRESS":"五妃街３５５號","OBJECTID":558026},"geometry":{"x":167781.70000000205,"y":2542577.0800000019}},{"attributes":{"ID":558054,"DIS_CODE":0,"TOWNNAME":"中西區","LI":"仙草里","LIN":"21鄰","STREET":"西門路","SECT":"一段","MAREA":" ","LANE":" ","ALLEY":" ","HOUSE_NO":"４０２號","E_COORD97":167750.20000000001,"N_COORD97":2542469.7999999998,"ADDRESS":"西門路一段４０２號","OBJECTID":558027},"geometry":{"x":167750.20000000112,"y":2542469.8000000007}},{"attributes":{"ID":558055,"DIS_CODE":0,"TOWNNAME":"中西區","LI":"仙草里","LIN":"21鄰","STREET":"西門路","SECT":"一段","MAREA":" ","LANE":" ","ALLEY":" ","HOUSE_NO":"４０４號","E_COORD97":167750.01000000001,"N_COORD97":2542479.2200000002,"ADDRESS":"西門路一段４０４號","OBJECTID":558028},"geometry":{"x":167750.00999999978,"y":2542479.2200000007}},{"attributes":{"ID":558056,"DIS_CODE":0,"TOWNNAME":"中西區","LI":"仙草里","LIN":"21鄰","STREET":"西門路","SECT":"一段","MAREA":" ","LANE":" ","ALLEY":" ","HOUSE_NO":"４０６號","E_COORD97":167750.39999999999,"N_COORD97":2542482.75,"ADDRESS":"西門路一段４０６號","OBJECTID":558029},"geometry":{"x":167750.4000000013,"y":2542482.75}},{"attributes":{"ID":558057,"DIS_CODE":0,"TOWNNAME":"中西區","LI":"仙草里","LIN":"21鄰","STREET":"西門路","SECT":"一段","MAREA":" ","LANE":" ","ALLEY":" ","HOUSE_NO":"４０８號","E_COORD97":167750.60000000001,"N_COORD97":2542487.0699999998,"ADDRESS":"西門路一段４０８號","OBJECTID":558030},"geometry":{"x":167750.59999999963,"y":2542487.0700000003}},{"attributes":{"ID":558058,"DIS_CODE":0,"TOWNNAME":"中西區","LI":"仙草里","LIN":"21鄰","STREET":"西門路","SECT":"一段","MAREA":" ","LANE":" ","ALLEY":" ","HOUSE_NO":"４１０號","E_COORD97":167750.60000000001,"N_COORD97":2542491.5800000001,"ADDRESS":"西門路一段４１０號","OBJECTID":558031},"geometry":{"x":167750.59999999963,"y":2542491.5800000038}},{"attributes":{"ID":558059,"DIS_CODE":0,"TOWNNAME":"中西區","LI":"仙草里","LIN":"21鄰","STREET":"西門路","SECT":"一段","MAREA":" ","LANE":" ","ALLEY":" ","HOUSE_NO":"４１２號","E_COORD97":167751.19,"N_COORD97":2542495.3100000001,"ADDRESS":"西門路一段４１２號","OBJECTID":558032},"geometry":{"x":167751.19000000041,"y":2542495.3100000024}},{"attributes":{"ID":558060,"DIS_CODE":0,"TOWNNAME":"中西區","LI":"仙草里","LIN":"21鄰","STREET":"西門路","SECT":"一段","MAREA":" ","LANE":" ","ALLEY":" ","HOUSE_NO":"４１４號","E_COORD97":167751.38,"N_COORD97":2542499.04,"ADDRESS":"西門路一段４１４號","OBJECTID":558033},"geometry":{"x":167751.38000000082,"y":2542499.040000001}},{"attributes":{"ID":558061,"DIS_CODE":0,"TOWNNAME":"中西區","LI":"仙草里","LIN":"21鄰","STREET":"西門路","SECT":"一段","MAREA":" ","LANE":" ","ALLEY":" ","HOUSE_NO":"４１６號","E_COORD97":167751.19,"N_COORD97":2542503.3599999999,"ADDRESS":"西門路一段４１６號","OBJECTID":558034},"geometry":{"x":167751.19000000041,"y":2542503.3600000013}},{"attributes":{"ID":558062,"DIS_CODE":0,"TOWNNAME":"中西區","LI":"仙草里","LIN":"21鄰","STREET":"西門路","SECT":"一段","MAREA":" ","LANE":" ","ALLEY":" ","HOUSE_NO":"４２０號","E_COORD97":167750.79000000001,"N_COORD97":2542519.1699999999,"ADDRESS":"西門路一段４２０號","OBJECTID":558035},"geometry":{"x":167750.79000000097,"y":2542519.1700000018}},{"attributes":{"ID":558063,"DIS_CODE":0,"TOWNNAME":"中西區","LI":"仙草里","LIN":"21鄰","STREET":"西門路","SECT":"一段","MAREA":" ","LANE":" ","ALLEY":" ","HOUSE_NO":"４２２號","E_COORD97":167750.60000000001,"N_COORD97":2542523.9199999999,"ADDRESS":"西門路一段４２２號","OBJECTID":558036},"geometry":{"x":167750.59999999963,"y":2542523.9200000018}},{"attributes":{"ID":558064,"DIS_CODE":0,"TOWNNAME":"中西區","LI":"仙草里","LIN":"21鄰","STREET":"西門路","SECT":"一段","MAREA":" ","LANE":" ","ALLEY":" ","HOUSE_NO":"４２４號","E_COORD97":167750,"N_COORD97":2542528.27,"ADDRESS":"西門路一段４２４號","OBJECTID":558037},"geometry":{"x":167750,"y":2542528.2700000014}},{"attributes":{"ID":558065,"DIS_CODE":0,"TOWNNAME":"中西區","LI":"仙草里","LIN":"21鄰","STREET":"西門路","SECT":"一段","MAREA":" ","LANE":" ","ALLEY":" ","HOUSE_NO":"４２６號","E_COORD97":167750.39999999999,"N_COORD97":2542531.8399999999,"ADDRESS":"西門路一段４２６號","OBJECTID":558038},"geometry":{"x":167750.4000000013,"y":2542531.8399999999}},{"attributes":{"ID":558066,"DIS_CODE":0,"TOWNNAME":"中西區","LI":"仙草里","LIN":"21鄰","STREET":"西門路","SECT":"一段","MAREA":" ","LANE":" ","ALLEY":" ","HOUSE_NO":"４２８號","E_COORD97":167750.20000000001,"N_COORD97":2542536.3900000001,"ADDRESS":"西門路一段４２８號","OBJECTID":558039},"geometry":{"x":167750.20000000112,"y":2542536.3900000006}},{"attributes":{"ID":558067,"DIS_CODE":0,"TOWNNAME":"中西區","LI":"仙草里","LIN":"21鄰","STREET":"健康路","SECT":"一段","MAREA":" ","LANE":" ","ALLEY":" ","HOUSE_NO":"４１２號","E_COORD97":167795.76999999999,"N_COORD97":2542468.9199999999,"ADDRESS":"健康路一段４１２號","OBJECTID":558040},"geometry":{"x":167795.77000000142,"y":2542468.9200000018}},{"attributes":{"ID":558068,"DIS_CODE":0,"TOWNNAME":"中西區","LI":"仙草里","LIN":"21鄰","STREET":"健康路","SECT":"一段","MAREA":" ","LANE":" ","ALLEY":" ","HOUSE_NO":"４１４號","E_COORD97":167790.26999999999,"N_COORD97":2542469.5099999998,"ADDRESS":"健康路一段４１４號","OBJECTID":558041},"geometry":{"x":167790.26999999955,"y":2542469.5099999998}},{"attributes":{"ID":558069,"DIS_CODE":0,"TOWNNAME":"中西區","LI":"仙草里","LIN":"21鄰","STREET":"健康路","SECT":"一段","MAREA":" ","LANE":" ","ALLEY":" ","HOUSE_NO":"４１６號","E_COORD97":167784.95999999999,"N_COORD97":2542470.1000000001,"ADDRESS":"健康路一段４１６號","OBJECTID":558042},"geometry":{"x":167784.96000000089,"y":2542470.0999999996}},{"attributes":{"ID":558070,"DIS_CODE":0,"TOWNNAME":"中西區","LI":"三民里","LIN":"21鄰","STREET":"忠義路","SECT":"二段","MAREA":" ","LANE":" ","ALLEY":" ","HOUSE_NO":"１５０號","E_COORD97":168394.10000000001,"N_COORD97":2544038.1800000002,"ADDRESS":"忠義路二段１５０號","OBJECTID":558043},"geometry":{"x":168394.10000000056,"y":2544038.1799999997}},{"attributes":{"ID":558071,"DIS_CODE":0,"TOWNNAME":"中西區","LI":"三民里","LIN":"21鄰","STREET":"忠義路","SECT":"二段","MAREA":" ","LANE":" ","ALLEY":" ","HOUSE_NO":"１５２號","E_COORD97":168394.81,"N_COORD97":2544042.4399999999,"ADDRESS":"忠義路二段１５２號","OBJECTID":558044},"geometry":{"x":168394.80999999959,"y":2544042.4400000013}},{"attributes":{"ID":558072,"DIS_CODE":0,"TOWNNAME":"中西區","LI":"三民里","LIN":"21鄰","STREET":"忠義路","SECT":"二段","MAREA":" ","LANE":" ","ALLEY":" ","HOUSE_NO":"１５４號","E_COORD97":168395.76000000001,"N_COORD97":2544045.9900000002,"ADDRESS":"忠義路二段１５４號","OBJECTID":558045},"geometry":{"x":168395.75999999978,"y":2544045.9900000021}},{"attributes":{"ID":558073,"DIS_CODE":0,"TOWNNAME":"中西區","LI":"三民里","LIN":"21鄰","STREET":"忠義路","SECT":"二段","MAREA":" ","LANE":" ","ALLEY":" ","HOUSE_NO":"１５６號","E_COORD97":168396.95000000001,"N_COORD97":2544050.96,"ADDRESS":"忠義路二段１５６號","OBJECTID":558046},"geometry":{"x":168396.95000000205,"y":2544050.9600000009}},{"attributes":{"ID":558074,"DIS_CODE":0,"TOWNNAME":"東區","LI":"小東里","LIN":"7鄰","STREET":"東平路","SECT":" ","MAREA":" ","LANE":" ","ALLEY":" ","HOUSE_NO":"１４６號","E_COORD97":171017.01000000001,"N_COORD97":2543990.3100000001,"ADDRESS":"東平路１４６號","OBJECTID":558047},"geometry":{"x":171017.01000000071,"y":2543990.3100000024}},{"attributes":{"ID":558075,"DIS_CODE":0,"TOWNNAME":"東區","LI":"小東里","LIN":"7鄰","STREET":"東平路","SECT":" ","MAREA":" ","LANE":" ","ALLEY":" ","HOUSE_NO":"１４８號","E_COORD97":171013.12,"N_COORD97":2543991.3399999999,"ADDRESS":"東平路１４８號","OBJECTID":558048},"geometry":{"x":171013.12000000197,"y":2543991.3400000036}},{"attributes":{"ID":558076,"DIS_CODE":0,"TOWNNAME":"東區","LI":"小東里","LIN":"7鄰","STREET":"東平路","SECT":" ","MAREA":" ","LANE":" ","ALLEY":" ","HOUSE_NO":"１５０號","E_COORD97":171008.98000000001,"N_COORD97":2543992.1200000001,"ADDRESS":"東平路１５０號","OBJECTID":558049},"geometry":{"x":171008.98000000045,"y":2543992.1200000029}},{"attributes":{"ID":558077,"DIS_CODE":0,"TOWNNAME":"東區","LI":"小東里","LIN":"7鄰","STREET":"東平路","SECT":" ","MAREA":" ","LANE":" ","ALLEY":" ","HOUSE_NO":"１６２號","E_COORD97":170981.53,"N_COORD97":2543993.9300000002,"ADDRESS":"東平路１６２號","OBJECTID":558050},"geometry":{"x":170981.52999999933,"y":2543993.9300000034}},{"attributes":{"ID":558078,"DIS_CODE":0,"TOWNNAME":"東區","LI":"小東里","LIN":"7鄰","STREET":"東平路","SECT":" ","MAREA":" ","LANE":" ","ALLEY":" ","HOUSE_NO":"１６４號","E_COORD97":170977.39000000001,"N_COORD97":2543994.7000000002,"ADDRESS":"東平路１６４號","OBJECTID":558051},"geometry":{"x":170977.3900000006,"y":2543994.6999999993}},{"attributes":{"ID":558079,"DIS_CODE":0,"TOWNNAME":"東區","LI":"小東里","LIN":"7鄰","STREET":"東平路","SECT":" ","MAREA":" ","LANE":" ","ALLEY":" ","HOUSE_NO":"１６８號","E_COORD97":170969.37,"N_COORD97":2543996.25,"ADDRESS":"東平路１６８號","OBJECTID":558052},"geometry":{"x":170969.37000000104,"y":2543996.2500000019}},{"attributes":{"ID":558080,"DIS_CODE":0,"TOWNNAME":"中西區","LI":"永福里","LIN":"21鄰","STREET":"忠義路","SECT":"二段","MAREA":" ","LANE":" ","ALLEY":" ","HOUSE_NO":"１５７號","E_COORD97":168379.54999999999,"N_COORD97":2544056.0800000001,"ADDRESS":"忠義路二段１５７號","OBJECTID":558053},"geometry":{"x":168379.55000000075,"y":2544056.0800000001}},{"attributes":{"ID":558081,"DIS_CODE":0,"TOWNNAME":"中西區","LI":"永福里","LIN":"21鄰","STREET":"忠義路","SECT":"二段","MAREA":" ","LANE":" ","ALLEY":" ","HOUSE_NO":"１５９號","E_COORD97":168381.42000000001,"N_COORD97":2544059.4399999999,"ADDRESS":"忠義路二段１５９號","OBJECTID":558054},"geometry":{"x":168381.41999999993,"y":2544059.4400000013}},{"attributes":{"ID":558082,"DIS_CODE":0,"TOWNNAME":"中西區","LI":"永福里","LIN":"21鄰","STREET":"忠義路","SECT":"二段","MAREA":" ","LANE":" ","ALLEY":" ","HOUSE_NO":"１６１號","E_COORD97":168382.79000000001,"N_COORD97":2544064.1600000001,"ADDRESS":"忠義路二段１６１號","OBJECTID":558055},"geometry":{"x":168382.79000000097,"y":2544064.1600000039}},{"attributes":{"ID":558083,"DIS_CODE":0,"TOWNNAME":"中西區","LI":"永福里","LIN":"21鄰","STREET":"忠義路","SECT":"二段","MAREA":" ","LANE":" ","ALLEY":" ","HOUSE_NO":"１６３號","E_COORD97":168383.89999999999,"N_COORD97":2544068.1099999999,"ADDRESS":"忠義路二段１６３號","OBJECTID":558056},"geometry":{"x":168383.90000000224,"y":2544068.1100000013}},{"attributes":{"ID":558084,"DIS_CODE":0,"TOWNNAME":"中西區","LI":"永福里","LIN":"21鄰","STREET":"忠義路","SECT":"二段","MAREA":" ","LANE":" ","ALLEY":" ","HOUSE_NO":"１６５號","E_COORD97":168385.39000000001,"N_COORD97":2544072.52,"ADDRESS":"忠義路二段１６５號","OBJECTID":558057},"geometry":{"x":168385.3900000006,"y":2544072.5200000014}},{"attributes":{"ID":558085,"DIS_CODE":0,"TOWNNAME":"中西區","LI":"永福里","LIN":"21鄰","STREET":"忠義路","SECT":"二段","MAREA":" ","LANE":" ","ALLEY":" ","HOUSE_NO":"１６７號","E_COORD97":168388.14999999999,"N_COORD97":2544079.29,"ADDRESS":"忠義路二段１６７號","OBJECTID":558058},"geometry":{"x":168388.15000000037,"y":2544079.290000001}},{"attributes":{"ID":558086,"DIS_CODE":0,"TOWNNAME":"中西區","LI":"赤嵌里","LIN":"21鄰","STREET":"忠義路","SECT":"二段","MAREA":" ","LANE":" ","ALLEY":" ","HOUSE_NO":"１９１號","E_COORD97":168424.67000000001,"N_COORD97":2544182.8399999999,"ADDRESS":"忠義路二段１９１號","OBJECTID":558059},"geometry":{"x":168424.67000000086,"y":2544182.8399999999}},{"attributes":{"ID":558087,"DIS_CODE":0,"TOWNNAME":"中西區","LI":"赤嵌里","LIN":"21鄰","STREET":"忠義路","SECT":"二段","MAREA":" ","LANE":" ","ALLEY":" ","HOUSE_NO":"１９３號","E_COORD97":168426.22,"N_COORD97":2544187.8999999999,"ADDRESS":"忠義路二段１９３號","OBJECTID":558060},"geometry":{"x":168426.21999999974,"y":2544187.8999999985}},{"attributes":{"ID":558088,"DIS_CODE":0,"TOWNNAME":"中西區","LI":"赤嵌里","LIN":"21鄰","STREET":"忠義路","SECT":"二段","MAREA":" ","LANE":" ","ALLEY":" ","HOUSE_NO":"１９５號","E_COORD97":168428.04000000001,"N_COORD97":2544191.77,"ADDRESS":"忠義路二段１９５號","OBJECTID":558061},"geometry":{"x":168428.04000000004,"y":2544191.7700000014}},{"attributes":{"ID":558089,"DIS_CODE":0,"TOWNNAME":"中西區","LI":"赤嵌里","LIN":"21鄰","STREET":"忠義路","SECT":"二段","MAREA":" ","LANE":" ","ALLEY":" ","HOUSE_NO":"１９７號","E_COORD97":168428.73000000001,"N_COORD97":2544196.9900000002,"ADDRESS":"忠義路二段１９７號","OBJECTID":558062},"geometry":{"x":168428.73000000045,"y":2544196.9900000002}},{"attributes":{"ID":558090,"DIS_CODE":0,"TOWNNAME":"中西區","LI":"赤嵌里","LIN":"21鄰","STREET":"忠義路","SECT":"二段","MAREA":" ","LANE":" ","ALLEY":" ","HOUSE_NO":"２０５號","E_COORD97":168434.19,"N_COORD97":2544213.1200000001,"ADDRESS":"忠義路二段２０５號","OBJECTID":558063},"geometry":{"x":168434.19000000041,"y":2544213.120000001}},{"attributes":{"ID":558091,"DIS_CODE":0,"TOWNNAME":"中西區","LI":"赤嵌里","LIN":"21鄰","STREET":"忠義路","SECT":"二段","MAREA":" ","LANE":" ","ALLEY":" ","HOUSE_NO":"２０７號","E_COORD97":168436.69,"N_COORD97":2544219.4900000002,"ADDRESS":"忠義路二段２０７號","OBJECTID":558064},"geometry":{"x":168436.69000000134,"y":2544219.4900000021}},{"attributes":{"ID":558092,"DIS_CODE":0,"TOWNNAME":"中西區","LI":"赤嵌里","LIN":"21鄰","STREET":"忠義路","SECT":"二段","MAREA":" ","LANE":" ","ALLEY":" ","HOUSE_NO":"２０９號","E_COORD97":168436.23000000001,"N_COORD97":2544224.48,"ADDRESS":"忠義路二段２０９號","OBJECTID":558065},"geometry":{"x":168436.23000000138,"y":2544224.4800000004}},{"attributes":{"ID":558093,"DIS_CODE":0,"TOWNNAME":"中西區","LI":"赤嵌里","LIN":"21鄰","STREET":"忠義路","SECT":"二段","MAREA":" ","LANE":" ","ALLEY":" ","HOUSE_NO":"２１１號","E_COORD97":168438.28,"N_COORD97":2544229.2599999998,"ADDRESS":"忠義路二段２１１號","OBJECTID":558066},"geometry":{"x":168438.28000000026,"y":2544229.2600000035}},{"attributes":{"ID":558094,"DIS_CODE":0,"TOWNNAME":"中西區","LI":"赤嵌里","LIN":"21鄰","STREET":"忠義路","SECT":"二段","MAREA":" ","LANE":" ","ALLEY":" ","HOUSE_NO":"２１７號","E_COORD97":168439.19,"N_COORD97":2544235.8399999999,"ADDRESS":"忠義路二段２１７號","OBJECTID":558067},"geometry":{"x":168439.19000000041,"y":2544235.8400000017}},{"attributes":{"ID":558095,"DIS_CODE":0,"TOWNNAME":"永康區","LI":"龍潭里","LIN":"21鄰","STREET":"龍潭街","SECT":" ","MAREA":" ","LANE":" ","ALLEY":" ","HOUSE_NO":"３１４號","E_COORD97":174859.76999999999,"N_COORD97":2548506.5,"ADDRESS":"龍潭街３１４號","OBJECTID":558068},"geometry":{"x":174859.77000000048,"y":2548506.5000000037}},{"attributes":{"ID":558096,"DIS_CODE":0,"TOWNNAME":"永康區","LI":"網寮里","LIN":"21鄰","STREET":"文化路","SECT":" ","MAREA":" ","LANE":" ","ALLEY":" ","HOUSE_NO":"２８７號","E_COORD97":173500.48000000001,"N_COORD97":2546112.3399999999,"ADDRESS":"文化路２８７號","OBJECTID":558069},"geometry":{"x":173500.48000000045,"y":2546112.3399999999}},{"attributes":{"ID":558097,"DIS_CODE":0,"TOWNNAME":"永康區","LI":"龍潭里","LIN":"21鄰","STREET":"龍潭街","SECT":" ","MAREA":" ","LANE":" ","ALLEY":" ","HOUSE_NO":"３１２號","E_COORD97":174879.14999999999,"N_COORD97":2548478.8799999999,"ADDRESS":"龍潭街３１２號","OBJECTID":558070},"geometry":{"x":174879.15000000037,"y":2548478.8800000027}},{"attributes":{"ID":558098,"DIS_CODE":0,"TOWNNAME":"永康區","LI":"龍潭里","LIN":"21鄰","STREET":"龍潭街","SECT":" ","MAREA":" ","LANE":" ","ALLEY":" ","HOUSE_NO":"３０２號","E_COORD97":174914.44,"N_COORD97":2548481.5,"ADDRESS":"龍潭街３０２號","OBJECTID":558071},"geometry":{"x":174914.44000000041,"y":2548481.5}},{"attributes":{"ID":558099,"DIS_CODE":0,"TOWNNAME":"永康區","LI":"網寮里","LIN":"21鄰","STREET":"文化路","SECT":" ","MAREA":" ","LANE":" ","ALLEY":" ","HOUSE_NO":"２８５號","E_COORD97":173505.41,"N_COORD97":2546112.8399999999,"ADDRESS":"文化路２８５號","OBJECTID":558072},"geometry":{"x":173505.41000000108,"y":2546112.8399999999}},{"attributes":{"ID":558100,"DIS_CODE":0,"TOWNNAME":"永康區","LI":"網寮里","LIN":"21鄰","STREET":"文化路","SECT":" ","MAREA":" ","LANE":" ","ALLEY":" ","HOUSE_NO":"２５６號","E_COORD97":173522.84,"N_COORD97":2546131.1299999999,"ADDRESS":"文化路２５６號","OBJECTID":558073},"geometry":{"x":173522.83999999985,"y":2546131.1300000027}},{"attributes":{"ID":558101,"DIS_CODE":0,"TOWNNAME":"永康區","LI":"網寮里","LIN":"21鄰","STREET":"文化路","SECT":" ","MAREA":" ","LANE":" ","ALLEY":" ","HOUSE_NO":"２２８號","E_COORD97":173614.32000000001,"N_COORD97":2546148.2799999998,"ADDRESS":"文化路２２８號","OBJECTID":558074},"geometry":{"x":173614.32000000123,"y":2546148.2800000012}},{"attributes":{"ID":558102,"DIS_CODE":0,"TOWNNAME":"永康區","LI":"龍潭里","LIN":"21鄰","STREET":"龍潭街","SECT":" ","MAREA":" ","LANE":" ","ALLEY":" ","HOUSE_NO":"３２０號","E_COORD97":174850.39000000001,"N_COORD97":2548483.46,"ADDRESS":"龍潭街３２０號","OBJECTID":558075},"geometry":{"x":174850.39000000153,"y":2548483.4600000009}},{"attributes":{"ID":558103,"DIS_CODE":0,"TOWNNAME":"永康區","LI":"網寮里","LIN":"21鄰","STREET":"文化路","SECT":" ","MAREA":" ","LANE":" ","ALLEY":" ","HOUSE_NO":"２３０號","E_COORD97":173609.63,"N_COORD97":2546146.7799999998,"ADDRESS":"文化路２３０號","OBJECTID":558076},"geometry":{"x":173609.62999999989,"y":2546146.7799999993}},{"attributes":{"ID":558104,"DIS_CODE":0,"TOWNNAME":"永康區","LI":"網寮里","LIN":"21鄰","STREET":"文化路","SECT":" ","MAREA":" ","LANE":" ","ALLEY":" ","HOUSE_NO":"２７１號","E_COORD97":173541.92999999999,"N_COORD97":2546114.5299999998,"ADDRESS":"文化路２７１號","OBJECTID":558077},"geometry":{"x":173541.93000000063,"y":2546114.5299999993}},{"attributes":{"ID":558105,"DIS_CODE":0,"TOWNNAME":"永康區","LI":"網寮里","LIN":"21鄰","STREET":"文化路","SECT":" ","MAREA":" ","LANE":" ","ALLEY":" ","HOUSE_NO":"２４３號","E_COORD97":173618.76999999999,"N_COORD97":2546131.21,"ADDRESS":"文化路２４３號","OBJECTID":558078},"geometry":{"x":173618.77000000142,"y":2546131.2100000009}},{"attributes":{"ID":558106,"DIS_CODE":0,"TOWNNAME":"永康區","LI":"\u25A0行里","LIN":"21鄰","STREET":"正南五街","SECT":" ","MAREA":" ","LANE":" ","ALLEY":" ","HOUSE_NO":"３６５號","E_COORD97":171706.32000000001,"N_COORD97":2548632.2400000002,"ADDRESS":"正南五街３６５號","OBJECTID":558079},"geometry":{"x":171706.3200000003,"y":2548632.2400000002}},{"attributes":{"ID":558107,"DIS_CODE":0,"TOWNNAME":"永康區","LI":"\u25A0行里","LIN":"21鄰","STREET":"正南五街","SECT":" ","MAREA":" ","LANE":" ","ALLEY":" ","HOUSE_NO":"４４８號","E_COORD97":171702.07000000001,"N_COORD97":2548676.2400000002,"ADDRESS":"正南五街４４８號","OBJECTID":558080},"geometry":{"x":171702.07000000123,"y":2548676.2400000002}},{"attributes":{"ID":558108,"DIS_CODE":0,"TOWNNAME":"永康區","LI":"\u25A0行里","LIN":"21鄰","STREET":"正南五街","SECT":" ","MAREA":" ","LANE":" ","ALLEY":" ","HOUSE_NO":"４２１號","E_COORD97":171594.47,"N_COORD97":2548738.1899999999,"ADDRESS":"正南五街４２１號","OBJECTID":558081},"geometry":{"x":171594.46999999974,"y":2548738.1899999976}},{"attributes":{"ID":558109,"DIS_CODE":0,"TOWNNAME":"永康區","LI":"\u25A0行里","LIN":"21鄰","STREET":"正南五街","SECT":" ","MAREA":" ","LANE":" ","ALLEY":" ","HOUSE_NO":"３９５號","E_COORD97":171643.64000000001,"N_COORD97":2548695.6099999999,"ADDRESS":"正南五街３９５號","OBJECTID":558082},"geometry":{"x":171643.6400000006,"y":2548695.6100000013}},{"attributes":{"ID":558110,"DIS_CODE":0,"TOWNNAME":"永康區","LI":"\u25A0行里","LIN":"21鄰","STREET":"正南五街","SECT":" ","MAREA":" ","LANE":" ","ALLEY":" ","HOUSE_NO":"４３２號","E_COORD97":171729.95000000001,"N_COORD97":2548631.9900000002,"ADDRESS":"正南五街４３２號","OBJECTID":558083},"geometry":{"x":171729.95000000112,"y":2548631.9900000039}},{"attributes":{"ID":558111,"DIS_CODE":0,"TOWNNAME":"永康區","LI":"\u25A0行里","LIN":"21鄰","STREET":"正南五街","SECT":" ","MAREA":" ","LANE":" ","ALLEY":" ","HOUSE_NO":"３９９號","E_COORD97":171638.26000000001,"N_COORD97":2548701.6299999999,"ADDRESS":"正南五街３９９號","OBJECTID":558084},"geometry":{"x":171638.25999999978,"y":2548701.6300000008}},{"attributes":{"ID":558112,"DIS_CODE":0,"TOWNNAME":"永康區","LI":"\u25A0行里","LIN":"21鄰","STREET":"正南五街","SECT":" ","MAREA":" ","LANE":" ","ALLEY":" ","HOUSE_NO":"４３６號","E_COORD97":171726.54999999999,"N_COORD97":2548635.4900000002,"ADDRESS":"正南五街４３６號","OBJECTID":558085},"geometry":{"x":171726.54999999981,"y":2548635.4900000039}},{"attributes":{"ID":558113,"DIS_CODE":0,"TOWNNAME":"東區","LI":"龍山里","LIN":"21鄰","STREET":"東門路","SECT":"二段","MAREA":" ","LANE":" ","ALLEY":" ","HOUSE_NO":"２７６號","E_COORD97":170553.85000000001,"N_COORD97":2542736.0800000001,"ADDRESS":"東門路二段２７６號","OBJECTID":558086},"geometry":{"x":170553.85000000056,"y":2542736.0800000019}},{"attributes":{"ID":558114,"DIS_CODE":0,"TOWNNAME":"東區","LI":"龍山里","LIN":"21鄰","STREET":"東門路","SECT":"二段","MAREA":" ","LANE":" ","ALLEY":" ","HOUSE_NO":"２７８號","E_COORD97":170557.70000000001,"N_COORD97":2542733.6000000001,"ADDRESS":"東門路二段２７８號","OBJECTID":558087},"geometry":{"x":170557.70000000019,"y":2542733.5999999996}},{"attributes":{"ID":558115,"DIS_CODE":0,"TOWNNAME":"下營區","LI":"仁里里","LIN":"21鄰","STREET":"仁里街","SECT":" ","MAREA":" ","LANE":" ","ALLEY":" ","HOUSE_NO":"３７號","E_COORD97":174247.91,"N_COORD97":2569943.8700000001,"ADDRESS":"仁里街３７號","OBJECTID":558088},"geometry":{"x":174247.91000000108,"y":2569943.8700000029}},{"attributes":{"ID":558116,"DIS_CODE":0,"TOWNNAME":"下營區","LI":"仁里里","LIN":"21鄰","STREET":"仁信街","SECT":" ","MAREA":" ","LANE":" ","ALLEY":" ","HOUSE_NO":"５９號","E_COORD97":174233.47,"N_COORD97":2569689.2599999998,"ADDRESS":"仁信街５９號","OBJECTID":558089},"geometry":{"x":174233.47000000067,"y":2569689.2599999998}},{"attributes":{"ID":558117,"DIS_CODE":0,"TOWNNAME":"東區","LI":"崇文里","LIN":"21鄰","STREET":"崇德二十一街","SECT":" ","MAREA":" ","LANE":" ","ALLEY":" ","HOUSE_NO":"４９號之４","E_COORD97":170920.95000000001,"N_COORD97":2540879.77,"ADDRESS":"崇德二十一街４９號之４","OBJECTID":558090},"geometry":{"x":170920.94999999925,"y":2540879.7700000014}},{"attributes":{"ID":558118,"DIS_CODE":0,"TOWNNAME":"東區","LI":"崇文里","LIN":"21鄰","STREET":"崇德二十一街","SECT":" ","MAREA":" ","LANE":" ","ALLEY":" ","HOUSE_NO":"５１號","E_COORD97":170943.14999999999,"N_COORD97":2540879.6699999999,"ADDRESS":"崇德二十一街５１號","OBJECTID":558091},"geometry":{"x":170943.15000000037,"y":2540879.6699999999}},{"attributes":{"ID":558119,"DIS_CODE":0,"TOWNNAME":"東區","LI":"崇文里","LIN":"21鄰","STREET":"崇德二十一街","SECT":" ","MAREA":" ","LANE":" ","ALLEY":" ","HOUSE_NO":"５５號","E_COORD97":170954.79999999999,"N_COORD97":2540879.9700000002,"ADDRESS":"崇德二十一街５５號","OBJECTID":558092},"geometry":{"x":170954.79999999981,"y":2540879.9700000025}},{"attributes":{"ID":558120,"DIS_CODE":0,"TOWNNAME":"東區","LI":"崇文里","LIN":"21鄰","STREET":"崇德二十一街","SECT":" ","MAREA":" ","LANE":" ","ALLEY":" ","HOUSE_NO":"５７號","E_COORD97":170959.78,"N_COORD97":2540879.9700000002,"ADDRESS":"崇德二十一街５７號","OBJECTID":558093},"geometry":{"x":170959.78000000119,"y":2540879.9700000025}},{"attributes":{"ID":558121,"DIS_CODE":0,"TOWNNAME":"東區","LI":"崇文里","LIN":"21鄰","STREET":"崇德二十一街","SECT":" ","MAREA":" ","LANE":" ","ALLEY":" ","HOUSE_NO":"５９號","E_COORD97":170965.35000000001,"N_COORD97":2540880.0699999998,"ADDRESS":"崇德二十一街５９號","OBJECTID":558094},"geometry":{"x":170965.35000000149,"y":2540880.0700000003}},{"attributes":{"ID":558122,"DIS_CODE":0,"TOWNNAME":"東區","LI":"崇文里","LIN":"21鄰","STREET":"崇德二十一街","SECT":" ","MAREA":" ","LANE":" ","ALLEY":" ","HOUSE_NO":"６１號","E_COORD97":170975.29000000001,"N_COORD97":2540871.9100000001,"ADDRESS":"崇德二十一街６１號","OBJECTID":558095},"geometry":{"x":170975.29000000097,"y":2540871.9100000039}},{"attributes":{"ID":558123,"DIS_CODE":0,"TOWNNAME":"東區","LI":"崇文里","LIN":"21鄰","STREET":"崇德二十一街","SECT":" ","MAREA":" ","LANE":" ","ALLEY":" ","HOUSE_NO":"６３號","E_COORD97":170975.29000000001,"N_COORD97":2540876.8799999999,"ADDRESS":"崇德二十一街６３號","OBJECTID":558096},"geometry":{"x":170975.29000000097,"y":2540876.879999999}},{"attributes":{"ID":558124,"DIS_CODE":0,"TOWNNAME":"東區","LI":"崇文里","LIN":"21鄰","STREET":"崇德二十一街","SECT":" ","MAREA":" ","LANE":" ","ALLEY":" ","HOUSE_NO":"６５號","E_COORD97":170975.39000000001,"N_COORD97":2540883.0499999998,"ADDRESS":"崇德二十一街６５號","OBJECTID":558097},"geometry":{"x":170975.3900000006,"y":2540883.0500000026}},{"attributes":{"ID":558125,"DIS_CODE":0,"TOWNNAME":"東區","LI":"崇文里","LIN":"21鄰","STREET":"崇德二十一街","SECT":" ","MAREA":" ","LANE":" ","ALLEY":" ","HOUSE_NO":"６７號","E_COORD97":170997.51999999999,"N_COORD97":2540873.77,"ADDRESS":"崇德二十一街６７號","OBJECTID":558098},"geometry":{"x":170997.51999999955,"y":2540873.7700000014}},{"attributes":{"ID":558126,"DIS_CODE":0,"TOWNNAME":"東區","LI":"崇文里","LIN":"21鄰","STREET":"崇德二十一街","SECT":" ","MAREA":" ","LANE":" ","ALLEY":" ","HOUSE_NO":"７１號","E_COORD97":171008.97,"N_COORD97":2540873.9700000002,"ADDRESS":"崇德二十一街７１號","OBJECTID":558099},"geometry":{"x":171008.97000000067,"y":2540873.9700000007}},{"attributes":{"ID":558127,"DIS_CODE":0,"TOWNNAME":"東區","LI":"崇文里","LIN":"21鄰","STREET":"崇德二十一街","SECT":" ","MAREA":" ","LANE":" ","ALLEY":" ","HOUSE_NO":"７３號","E_COORD97":171015.14999999999,"N_COORD97":2540880.04,"ADDRESS":"崇德二十一街７３號","OBJECTID":558100},"geometry":{"x":171015.1500000013,"y":2540880.0400000028}},{"attributes":{"ID":558128,"DIS_CODE":0,"TOWNNAME":"東區","LI":"崇文里","LIN":"21鄰","STREET":"崇德二十一街","SECT":" ","MAREA":" ","LANE":" ","ALLEY":" ","HOUSE_NO":"７５號","E_COORD97":171019.13,"N_COORD97":2540880.1400000001,"ADDRESS":"崇德二十一街７５號","OBJECTID":558101},"geometry":{"x":171019.12999999989,"y":2540880.1400000006}},{"attributes":{"ID":558129,"DIS_CODE":0,"TOWNNAME":"東區","LI":"莊敬里","LIN":"1鄰","STREET":"小東路","SECT":" ","MAREA":" ","LANE":" ","ALLEY":" ","HOUSE_NO":"２５６號之１","E_COORD97":171134.89000000001,"N_COORD97":2544342.8300000001,"ADDRESS":"小東路２５６號之１","OBJECTID":558102},"geometry":{"x":171134.8900000006,"y":2544342.8300000001}},{"attributes":{"ID":558130,"DIS_CODE":0,"TOWNNAME":"東區","LI":"崇文里","LIN":"21鄰","STREET":"崇德二十一街","SECT":" ","MAREA":" ","LANE":" ","ALLEY":" ","HOUSE_NO":"７７號","E_COORD97":171023.91,"N_COORD97":2540879.9399999999,"ADDRESS":"崇德二十一街７７號","OBJECTID":558103},"geometry":{"x":171023.91000000015,"y":2540879.9399999995}},{"attributes":{"ID":558131,"DIS_CODE":0,"TOWNNAME":"東區","LI":"崇文里","LIN":"21鄰","STREET":"崇德二十一街","SECT":" ","MAREA":" ","LANE":" ","ALLEY":" ","HOUSE_NO":"７９號","E_COORD97":171027.75,"N_COORD97":2540878.1499999999,"ADDRESS":"崇德二十一街７９號","OBJECTID":558104},"geometry":{"x":171027.75000000093,"y":2540878.1500000022}},{"attributes":{"ID":558132,"DIS_CODE":0,"TOWNNAME":"東區","LI":"崇文里","LIN":"21鄰","STREET":"崇德二十一街","SECT":" ","MAREA":" ","LANE":" ","ALLEY":" ","HOUSE_NO":"８１號","E_COORD97":171032.13,"N_COORD97":2540878.1499999999,"ADDRESS":"崇德二十一街８１號","OBJECTID":558105},"geometry":{"x":171032.13000000082,"y":2540878.1500000022}},{"attributes":{"ID":558133,"DIS_CODE":0,"TOWNNAME":"下營區","LI":"仁里里","LIN":"21鄰","STREET":"仁信街","SECT":" ","MAREA":" ","LANE":" ","ALLEY":" ","HOUSE_NO":"９號","E_COORD97":174376.10000000001,"N_COORD97":2569668.9300000002,"ADDRESS":"仁信街９號","OBJECTID":558106},"geometry":{"x":174376.10000000056,"y":2569668.9299999997}},{"attributes":{"ID":558134,"DIS_CODE":0,"TOWNNAME":"中西區","LI":"大涼里","LIN":"21鄰","STREET":"府前二街","SECT":" ","MAREA":" ","LANE":" ","ALLEY":" ","HOUSE_NO":"１８號","E_COORD97":166710.45000000001,"N_COORD97":2543783.1899999999,"ADDRESS":"府前二街１８號","OBJECTID":558107},"geometry":{"x":166710.45000000112,"y":2543783.1900000013}},{"attributes":{"ID":558135,"DIS_CODE":0,"TOWNNAME":"中西區","LI":"大涼里","LIN":"21鄰","STREET":"府前二街","SECT":" ","MAREA":" ","LANE":" ","ALLEY":" ","HOUSE_NO":"２０號","E_COORD97":166708.29999999999,"N_COORD97":2543787.7599999998,"ADDRESS":"府前二街２０號","OBJECTID":558108},"geometry":{"x":166708.29999999981,"y":2543787.7599999998}},{"attributes":{"ID":558136,"DIS_CODE":0,"TOWNNAME":"中西區","LI":"大涼里","LIN":"21鄰","STREET":"府前二街","SECT":" ","MAREA":" ","LANE":" ","ALLEY":" ","HOUSE_NO":"２２號","E_COORD97":166707.23000000001,"N_COORD97":2543791.7799999998,"ADDRESS":"府前二街２２號","OBJECTID":558109},"geometry":{"x":166707.23000000138,"y":2543791.7800000012}},{"attributes":{"ID":558137,"DIS_CODE":0,"TOWNNAME":"中西區","LI":"大涼里","LIN":"21鄰","STREET":"府前二街","SECT":" ","MAREA":" ","LANE":" ","ALLEY":" ","HOUSE_NO":"２４號","E_COORD97":166708.67999999999,"N_COORD97":2543796.8999999999,"ADDRESS":"府前二街２４號","OBJECTID":558110},"geometry":{"x":166708.68000000063,"y":2543796.9000000004}},{"attributes":{"ID":558138,"DIS_CODE":0,"TOWNNAME":"中西區","LI":"大涼里","LIN":"21鄰","STREET":"府前二街","SECT":" ","MAREA":" ","LANE":" ","ALLEY":" ","HOUSE_NO":"２６號","E_COORD97":166708.45999999999,"N_COORD97":2543801.48,"ADDRESS":"府前二街２６號","OBJECTID":558111},"geometry":{"x":166708.46000000089,"y":2543801.4800000023}},{"attributes":{"ID":558139,"DIS_CODE":0,"TOWNNAME":"中西區","LI":"大涼里","LIN":"21鄰","STREET":"府前二街","SECT":" ","MAREA":" ","LANE":" ","ALLEY":" ","HOUSE_NO":"２８號","E_COORD97":166708.97,"N_COORD97":2543805.48,"ADDRESS":"府前二街２８號","OBJECTID":558112},"geometry":{"x":166708.96999999974,"y":2543805.4800000023}},{"attributes":{"ID":558140,"DIS_CODE":0,"TOWNNAME":"中西區","LI":"大涼里","LIN":"21鄰","STREET":"府前二街","SECT":" ","MAREA":" ","LANE":" ","ALLEY":" ","HOUSE_NO":"３０號","E_COORD97":166706.85999999999,"N_COORD97":2543809.98,"ADDRESS":"府前二街３０號","OBJECTID":558113},"geometry":{"x":166706.86000000034,"y":2543809.9800000004}},{"attributes":{"ID":558141,"DIS_CODE":0,"TOWNNAME":"中西區","LI":"大涼里","LIN":"21鄰","STREET":"府前二街","SECT":" ","MAREA":" ","LANE":" ","ALLEY":" ","HOUSE_NO":"３２號","E_COORD97":166706.06,"N_COORD97":2543815.29,"ADDRESS":"府前二街３２號","OBJECTID":558114},"geometry":{"x":166706.06000000052,"y":2543815.290000001}},{"attributes":{"ID":558142,"DIS_CODE":0,"TOWNNAME":"中西區","LI":"大涼里","LIN":"21鄰","STREET":"府前二街","SECT":" ","MAREA":" ","LANE":" ","ALLEY":" ","HOUSE_NO":"３４號","E_COORD97":166705.19,"N_COORD97":2543819.5,"ADDRESS":"府前二街３４號","OBJECTID":558115},"geometry":{"x":166705.19000000041,"y":2543819.5}},{"attributes":{"ID":558143,"DIS_CODE":0,"TOWNNAME":"中西區","LI":"大涼里","LIN":"21鄰","STREET":"府前二街","SECT":" ","MAREA":" ","LANE":" ","ALLEY":" ","HOUSE_NO":"６２號","E_COORD97":166674.75,"N_COORD97":2543893.9100000001,"ADDRESS":"府前二街６２號","OBJECTID":558116},"geometry":{"x":166674.75000000093,"y":2543893.910000002}},{"attributes":{"ID":558144,"DIS_CODE":0,"TOWNNAME":"中西區","LI":"大涼里","LIN":"21鄰","STREET":"府前二街","SECT":" ","MAREA":" ","LANE":" ","ALLEY":" ","HOUSE_NO":"６４號","E_COORD97":166671.97,"N_COORD97":2543899.6400000001,"ADDRESS":"府前二街６４號","OBJECTID":558117},"geometry":{"x":166671.96999999974,"y":2543899.6400000025}},{"attributes":{"ID":558145,"DIS_CODE":0,"TOWNNAME":"中西區","LI":"大涼里","LIN":"21鄰","STREET":"府前二街","SECT":" ","MAREA":" ","LANE":" ","ALLEY":" ","HOUSE_NO":"６６號","E_COORD97":166670.48999999999,"N_COORD97":2543905.0099999998,"ADDRESS":"府前二街６６號","OBJECTID":558118},"geometry":{"x":166670.49000000022,"y":2543905.0099999979}},{"attributes":{"ID":558146,"DIS_CODE":0,"TOWNNAME":"中西區","LI":"大涼里","LIN":"21鄰","STREET":"府前二街","SECT":" ","MAREA":" ","LANE":" ","ALLEY":" ","HOUSE_NO":"６８號","E_COORD97":166668.63,"N_COORD97":2543911.6600000001,"ADDRESS":"府前二街６８號","OBJECTID":558119},"geometry":{"x":166668.63000000082,"y":2543911.6600000039}},{"attributes":{"ID":558147,"DIS_CODE":0,"TOWNNAME":"永康區","LI":"勝利里","LIN":"21鄰","STREET":"勝華街","SECT":" ","MAREA":" ","LANE":" ","ALLEY":" ","HOUSE_NO":"４９號","E_COORD97":171397.38,"N_COORD97":2545203.2599999998,"ADDRESS":"勝華街４９號","OBJECTID":558120},"geometry":{"x":171397.37999999989,"y":2545203.2600000016}},{"attributes":{"ID":558148,"DIS_CODE":0,"TOWNNAME":"中西區","LI":"赤嵌里","LIN":"9鄰","STREET":"觀亭街","SECT":" ","MAREA":" ","LANE":" ","ALLEY":" ","HOUSE_NO":"６號","E_COORD97":168545.41,"N_COORD97":2544074.5,"ADDRESS":"觀亭街６號","OBJECTID":558121},"geometry":{"x":168545.41000000108,"y":2544074.5}},{"attributes":{"ID":558149,"DIS_CODE":0,"TOWNNAME":"永康區","LI":"埔園里","LIN":"21鄰","STREET":"四維街","SECT":" ","MAREA":" ","LANE":" ","ALLEY":" ","HOUSE_NO":"１００號之９","E_COORD97":173402.28,"N_COORD97":2548194.7999999998,"ADDRESS":"四維街１００號之９","OBJECTID":558122},"geometry":{"x":173402.27999999933,"y":2548194.8000000026}},{"attributes":{"ID":558150,"DIS_CODE":0,"TOWNNAME":"永康區","LI":"埔園里","LIN":"21鄰","STREET":"埔園街","SECT":" ","MAREA":" ","LANE":" ","ALLEY":" ","HOUSE_NO":"３６６號","E_COORD97":173400.04999999999,"N_COORD97":2548175.8199999998,"ADDRESS":"埔園街３６６號","OBJECTID":558123},"geometry":{"x":173400.05000000168,"y":2548175.820000004}},{"attributes":{"ID":558151,"DIS_CODE":0,"TOWNNAME":"永康區","LI":"網寮里","LIN":"21鄰","STREET":"文化路","SECT":" ","MAREA":" ","LANE":" ","ALLEY":" ","HOUSE_NO":"２６２號","E_COORD97":173506.76999999999,"N_COORD97":2546132.1299999999,"ADDRESS":"文化路２６２號","OBJECTID":558124},"geometry":{"x":173506.77000000142,"y":2546132.1300000008}},{"attributes":{"ID":558152,"DIS_CODE":0,"TOWNNAME":"東區","LI":"莊敬里","LIN":"1鄰","STREET":"小東路","SECT":" ","MAREA":" ","LANE":" ","ALLEY":" ","HOUSE_NO":"２５０號","E_COORD97":171065.31,"N_COORD97":2544381.0800000001,"ADDRESS":"小東路２５０號","OBJECTID":558125},"geometry":{"x":171065.30999999959,"y":2544381.0800000019}},{"attributes":{"ID":558153,"DIS_CODE":0,"TOWNNAME":"永康區","LI":"勝利里","LIN":"21鄰","STREET":"勝利街","SECT":" ","MAREA":" ","LANE":" ","ALLEY":" ","HOUSE_NO":"１５２號","E_COORD97":171379.10999999999,"N_COORD97":2545055.8300000001,"ADDRESS":"勝利街１５２號","OBJECTID":558126},"geometry":{"x":171379.11000000034,"y":2545055.8300000001}},{"attributes":{"ID":558154,"DIS_CODE":0,"TOWNNAME":"東區","LI":"圍下里","LIN":"21鄰","STREET":"前鋒路","SECT":" ","MAREA":" ","LANE":" ","ALLEY":" ","HOUSE_NO":"１００號","E_COORD97":169348.03,"N_COORD97":2543732.3399999999,"ADDRESS":"前鋒路１００號","OBJECTID":558127},"geometry":{"x":169348.03000000119,"y":2543732.3399999999}},{"attributes":{"ID":558155,"DIS_CODE":0,"TOWNNAME":"東區","LI":"圍下里","LIN":"21鄰","STREET":"前鋒路","SECT":" ","MAREA":" ","LANE":" ","ALLEY":" ","HOUSE_NO":"１０４號","E_COORD97":169330.10000000001,"N_COORD97":2543775.04,"ADDRESS":"前鋒路１０４號","OBJECTID":558128},"geometry":{"x":169330.10000000056,"y":2543775.0399999991}},{"attributes":{"ID":558156,"DIS_CODE":0,"TOWNNAME":"東區","LI":"圍下里","LIN":"21鄰","STREET":"前鋒路","SECT":" ","MAREA":" ","LANE":" ","ALLEY":" ","HOUSE_NO":"１０６號","E_COORD97":169331.26000000001,"N_COORD97":2543785.23,"ADDRESS":"前鋒路１０６號","OBJECTID":558129},"geometry":{"x":169331.25999999978,"y":2543785.2300000004}},{"attributes":{"ID":558157,"DIS_CODE":0,"TOWNNAME":"東區","LI":"圍下里","LIN":"21鄰","STREET":"前鋒路","SECT":" ","MAREA":" ","LANE":" ","ALLEY":" ","HOUSE_NO":"１０８號","E_COORD97":169332.03,"N_COORD97":2543790.52,"ADDRESS":"前鋒路１０８號","OBJECTID":558130},"geometry":{"x":169332.03000000026,"y":2543790.5200000014}},{"attributes":{"ID":558158,"DIS_CODE":0,"TOWNNAME":"東區","LI":"圍下里","LIN":"21鄰","STREET":"前鋒路","SECT":" ","MAREA":" ","LANE":" ","ALLEY":" ","HOUSE_NO":"１１０號","E_COORD97":169331.45999999999,"N_COORD97":2543796.1899999999,"ADDRESS":"前鋒路１１０號","OBJECTID":558131},"geometry":{"x":169331.46000000089,"y":2543796.1900000013}},{"attributes":{"ID":558159,"DIS_CODE":0,"TOWNNAME":"東區","LI":"圍下里","LIN":"21鄰","STREET":"前鋒路","SECT":" ","MAREA":" ","LANE":" ","ALLEY":" ","HOUSE_NO":"１１２號","E_COORD97":169340.63,"N_COORD97":2543799.6600000001,"ADDRESS":"前鋒路１１２號","OBJECTID":558132},"geometry":{"x":169340.62999999989,"y":2543799.6600000039}},{"attributes":{"ID":558160,"DIS_CODE":0,"TOWNNAME":"東區","LI":"富裕里","LIN":"21鄰","STREET":"裕豐街","SECT":" ","MAREA":" ","LANE":" ","ALLEY":" ","HOUSE_NO":"３４號","E_COORD97":170713.19,"N_COORD97":2542724.9900000002,"ADDRESS":"裕豐街３４號","OBJECTID":558133},"geometry":{"x":170713.19000000134,"y":2542724.9900000002}},{"attributes":{"ID":558161,"DIS_CODE":0,"TOWNNAME":"東區","LI":"富裕里","LIN":"21鄰","STREET":"裕豐街","SECT":" ","MAREA":" ","LANE":" ","ALLEY":" ","HOUSE_NO":"３６號","E_COORD97":170713.48999999999,"N_COORD97":2542729.1800000002,"ADDRESS":"裕豐街３６號","OBJECTID":558134},"geometry":{"x":170713.49000000022,"y":2542729.1800000016}},{"attributes":{"ID":558162,"DIS_CODE":0,"TOWNNAME":"東區","LI":"富裕里","LIN":"21鄰","STREET":"裕豐街","SECT":" ","MAREA":" ","LANE":" ","ALLEY":" ","HOUSE_NO":"３８號","E_COORD97":170714.20000000001,"N_COORD97":2542733.4700000002,"ADDRESS":"裕豐街３８號","OBJECTID":558135},"geometry":{"x":170714.20000000205,"y":2542733.4700000044}},{"attributes":{"ID":558163,"DIS_CODE":0,"TOWNNAME":"東區","LI":"富裕里","LIN":"21鄰","STREET":"裕豐街","SECT":" ","MAREA":" ","LANE":" ","ALLEY":" ","HOUSE_NO":"４２之１號","E_COORD97":170715.57999999999,"N_COORD97":2542741.4700000002,"ADDRESS":"裕豐街４２之１號","OBJECTID":558136},"geometry":{"x":170715.58000000101,"y":2542741.4700000025}},{"attributes":{"ID":558164,"DIS_CODE":0,"TOWNNAME":"東區","LI":"富裕里","LIN":"21鄰","STREET":"裕豐街","SECT":" ","MAREA":" ","LANE":" ","ALLEY":" ","HOUSE_NO":"４２號","E_COORD97":170715.13,"N_COORD97":2542739.46,"ADDRESS":"裕豐街４２號","OBJECTID":558137},"geometry":{"x":170715.13000000082,"y":2542739.4600000009}},{"attributes":{"ID":558165,"DIS_CODE":0,"TOWNNAME":"東區","LI":"富裕里","LIN":"21鄰","STREET":"裕豐街","SECT":" ","MAREA":" ","LANE":" ","ALLEY":" ","HOUSE_NO":"４８號","E_COORD97":170718.09,"N_COORD97":2542753.2200000002,"ADDRESS":"裕豐街４８號","OBJECTID":558138},"geometry":{"x":170718.09000000171,"y":2542753.2200000025}},{"attributes":{"ID":558166,"DIS_CODE":0,"TOWNNAME":"東區","LI":"富裕里","LIN":"21鄰","STREET":"裕豐街","SECT":" ","MAREA":" ","LANE":" ","ALLEY":" ","HOUSE_NO":"５０號","E_COORD97":170718.69,"N_COORD97":2542757.27,"ADDRESS":"裕豐街５０號","OBJECTID":558139},"geometry":{"x":170718.69000000134,"y":2542757.2700000033}},{"attributes":{"ID":558167,"DIS_CODE":0,"TOWNNAME":"東區","LI":"富裕里","LIN":"21鄰","STREET":"裕豐街","SECT":" ","MAREA":" ","LANE":" ","ALLEY":" ","HOUSE_NO":"５２號","E_COORD97":170719.25,"N_COORD97":2542761.2200000002,"ADDRESS":"裕豐街５２號","OBJECTID":558140},"geometry":{"x":170719.25000000093,"y":2542761.2200000007}},{"attributes":{"ID":558168,"DIS_CODE":0,"TOWNNAME":"永康區","LI":"中華里","LIN":"21鄰","STREET":"華興街","SECT":" ","MAREA":" ","LANE":" ","ALLEY":" ","HOUSE_NO":"１４３號","E_COORD97":171615.66,"N_COORD97":2544552.3900000001,"ADDRESS":"華興街１４３號","OBJECTID":558141},"geometry":{"x":171615.66000000015,"y":2544552.3900000025}},{"attributes":{"ID":558169,"DIS_CODE":0,"TOWNNAME":"永康區","LI":"中華里","LIN":"21鄰","STREET":"中華路","SECT":" ","MAREA":" ","LANE":" ","ALLEY":" ","HOUSE_NO":"３４號","E_COORD97":171590.87,"N_COORD97":2544594.1699999999,"ADDRESS":"中華路３４號","OBJECTID":558142},"geometry":{"x":171590.87000000011,"y":2544594.1700000018}},{"attributes":{"ID":558170,"DIS_CODE":0,"TOWNNAME":"永康區","LI":"中華里","LIN":"21鄰","STREET":"中華路","SECT":" ","MAREA":" ","LANE":" ","ALLEY":" ","HOUSE_NO":"２４號","E_COORD97":171584.42999999999,"N_COORD97":2544534.4900000002,"ADDRESS":"中華路２４號","OBJECTID":558143},"geometry":{"x":171584.4299999997,"y":2544534.4900000021}},{"attributes":{"ID":558171,"DIS_CODE":0,"TOWNNAME":"北區","LI":"新勝里","LIN":"9鄰","STREET":"長榮路","SECT":"五段","MAREA":" ","LANE":" ","ALLEY":" ","HOUSE_NO":"３２號","E_COORD97":170114.54000000001,"N_COORD97":2545553.25,"ADDRESS":"長榮路五段３２號","OBJECTID":558144},"geometry":{"x":170114.54000000004,"y":2545553.2500000019}},{"attributes":{"ID":558172,"DIS_CODE":0,"TOWNNAME":"永康區","LI":"永康里","LIN":"21鄰","STREET":"中山南路","SECT":" ","MAREA":" ","LANE":" ","ALLEY":" ","HOUSE_NO":"９８０號","E_COORD97":173580.87,"N_COORD97":2547206.8599999999,"ADDRESS":"中山南路９８０號","OBJECTID":558145},"geometry":{"x":173580.87000000011,"y":2547206.8599999994}},{"attributes":{"ID":558173,"DIS_CODE":0,"TOWNNAME":"永康區","LI":"永康里","LIN":"21鄰","STREET":"中山南路","SECT":" ","MAREA":" ","LANE":" ","ALLEY":" ","HOUSE_NO":"１０２８號","E_COORD97":173672.10000000001,"N_COORD97":2547266.8500000001,"ADDRESS":"中山南路１０２８號","OBJECTID":558146},"geometry":{"x":173672.09999999963,"y":2547266.8500000015}},{"attributes":{"ID":558174,"DIS_CODE":0,"TOWNNAME":"中西區","LI":"大涼里","LIN":"21鄰","STREET":"府前二街","SECT":" ","MAREA":" ","LANE":" ","ALLEY":" ","HOUSE_NO":"８號","E_COORD97":166713.95000000001,"N_COORD97":2543762,"ADDRESS":"府前二街８號","OBJECTID":558147},"geometry":{"x":166713.95000000112,"y":2543762}},{"attributes":{"ID":558175,"DIS_CODE":0,"TOWNNAME":"歸仁區","LI":"後市里","LIN":"9鄰","STREET":"大順六街","SECT":" ","MAREA":" ","LANE":" ","ALLEY":" ","HOUSE_NO":"４６號","E_COORD97":177043.20999999999,"N_COORD97":2540700.25,"ADDRESS":"大順六街４６號","OBJECTID":558148},"geometry":{"x":177043.20999999996,"y":2540700.2500000037}},{"attributes":{"ID":558176,"DIS_CODE":0,"TOWNNAME":"歸仁區","LI":"後市里","LIN":"9鄰","STREET":"大順街","SECT":" ","MAREA":" ","LANE":" ","ALLEY":" ","HOUSE_NO":"１５６號","E_COORD97":177040.70999999999,"N_COORD97":2540613.25,"ADDRESS":"大順街１５６號","OBJECTID":558149},"geometry":{"x":177040.71000000089,"y":2540613.2500000019}},{"attributes":{"ID":558177,"DIS_CODE":0,"TOWNNAME":"歸仁區","LI":"新厝里","LIN":"9鄰","STREET":"公園路","SECT":" ","MAREA":" ","LANE":" ","ALLEY":" ","HOUSE_NO":"１８４號","E_COORD97":177766.17999999999,"N_COORD97":2540439.5,"ADDRESS":"公園路１８４號","OBJECTID":558150},"geometry":{"x":177766.18000000063,"y":2540439.5}},{"attributes":{"ID":558178,"DIS_CODE":0,"TOWNNAME":"安平區","LI":"文平里","LIN":"9鄰","STREET":"建平七街","SECT":" ","MAREA":" ","LANE":" ","ALLEY":" ","HOUSE_NO":"１９８號","E_COORD97":166063.22,"N_COORD97":2543274.9500000002,"ADDRESS":"建平七街１９８號","OBJECTID":558151},"geometry":{"x":166063.21999999974,"y":2543274.9500000011}},{"attributes":{"ID":558179,"DIS_CODE":0,"TOWNNAME":"北區","LI":"三德里","LIN":"9鄰","STREET":"長北街","SECT":" ","MAREA":" ","LANE":" ","ALLEY":" ","HOUSE_NO":"８４號","E_COORD97":168442.89000000001,"N_COORD97":2544695.6499999999,"ADDRESS":"長北街８４號","OBJECTID":558152},"geometry":{"x":168442.8900000006,"y":2544695.6500000022}},{"attributes":{"ID":558180,"DIS_CODE":0,"TOWNNAME":"北區","LI":"三德里","LIN":"9鄰","STREET":"長北街","SECT":" ","MAREA":" ","LANE":" ","ALLEY":" ","HOUSE_NO":"８８號","E_COORD97":168445.07999999999,"N_COORD97":2544701.9199999999,"ADDRESS":"長北街８８號","OBJECTID":558153},"geometry":{"x":168445.08000000194,"y":2544701.9199999999}},{"attributes":{"ID":558181,"DIS_CODE":0,"TOWNNAME":"北區","LI":"三德里","LIN":"9鄰","STREET":"長北街","SECT":" ","MAREA":" ","LANE":" ","ALLEY":" ","HOUSE_NO":"９２號","E_COORD97":168446.01999999999,"N_COORD97":2544705.52,"ADDRESS":"長北街９２號","OBJECTID":558154},"geometry":{"x":168446.01999999955,"y":2544705.5200000014}},{"attributes":{"ID":558182,"DIS_CODE":0,"TOWNNAME":"北區","LI":"三德里","LIN":"9鄰","STREET":"長北街","SECT":" ","MAREA":" ","LANE":" ","ALLEY":" ","HOUSE_NO":"９４號","E_COORD97":168447.28,"N_COORD97":2544708.6600000001,"ADDRESS":"長北街９４號","OBJECTID":558155},"geometry":{"x":168447.28000000212,"y":2544708.660000002}},{"attributes":{"ID":558183,"DIS_CODE":0,"TOWNNAME":"北區","LI":"三德里","LIN":"9鄰","STREET":"長北街","SECT":" ","MAREA":" ","LANE":" ","ALLEY":" ","HOUSE_NO":"９６號","E_COORD97":168449.32000000001,"N_COORD97":2544713.04,"ADDRESS":"長北街９６號","OBJECTID":558156},"geometry":{"x":168449.32000000123,"y":2544713.0399999991}},{"attributes":{"ID":558184,"DIS_CODE":0,"TOWNNAME":"安平區","LI":"華平里","LIN":"9鄰","STREET":"育平九街","SECT":" ","MAREA":" ","LANE":" ","ALLEY":" ","HOUSE_NO":"４３號","E_COORD97":165347.56,"N_COORD97":2543946.9199999999,"ADDRESS":"育平九街４３號","OBJECTID":558157},"geometry":{"x":165347.56000000145,"y":2543946.9200000037}},{"attributes":{"ID":558185,"DIS_CODE":0,"TOWNNAME":"安平區","LI":"華平里","LIN":"9鄰","STREET":"健康二街","SECT":" ","MAREA":" ","LANE":" ","ALLEY":" ","HOUSE_NO":"４５９號","E_COORD97":165336.64999999999,"N_COORD97":2543859.6699999999,"ADDRESS":"健康二街４５９號","OBJECTID":558158},"geometry":{"x":165336.6500000013,"y":2543859.6699999999}},{"attributes":{"ID":558186,"DIS_CODE":0,"TOWNNAME":"安平區","LI":"華平里","LIN":"9鄰","STREET":"健康二街","SECT":" ","MAREA":" ","LANE":" ","ALLEY":" ","HOUSE_NO":"４７１號","E_COORD97":165339.64999999999,"N_COORD97":2543888.2400000002,"ADDRESS":"健康二街４７１號","OBJECTID":558159},"geometry":{"x":165339.6500000013,"y":2543888.2400000021}},{"attributes":{"ID":558187,"DIS_CODE":0,"TOWNNAME":"安平區","LI":"金城里","LIN":"9鄰","STREET":"同平路","SECT":" ","MAREA":" ","LANE":" ","ALLEY":" ","HOUSE_NO":"１５２號","E_COORD97":163141.54999999999,"N_COORD97":2544035.3399999999,"ADDRESS":"同平路１５２號","OBJECTID":558160},"geometry":{"x":163141.55000000075,"y":2544035.3400000036}},{"attributes":{"ID":558188,"DIS_CODE":0,"TOWNNAME":"北區","LI":"中樓里","LIN":"9鄰","STREET":"前鋒路","SECT":" ","MAREA":" ","LANE":" ","ALLEY":" ","HOUSE_NO":"３４６號","E_COORD97":169626.94,"N_COORD97":2545072.5699999998,"ADDRESS":"前鋒路３４６號","OBJECTID":558161},"geometry":{"x":169626.94000000134,"y":2545072.5700000022}},{"attributes":{"ID":558189,"DIS_CODE":0,"TOWNNAME":"北區","LI":"中樓里","LIN":"9鄰","STREET":"前鋒路","SECT":" ","MAREA":" ","LANE":" ","ALLEY":" ","HOUSE_NO":"３４８號","E_COORD97":169657.70999999999,"N_COORD97":2545103.1299999999,"ADDRESS":"前鋒路３４８號","OBJECTID":558162},"geometry":{"x":169657.70999999903,"y":2545103.129999999}},{"attributes":{"ID":558190,"DIS_CODE":0,"TOWNNAME":"北區","LI":"中樓里","LIN":"9鄰","STREET":"開元路","SECT":" ","MAREA":" ","LANE":" ","ALLEY":" ","HOUSE_NO":"５８號","E_COORD97":169672.83025,"N_COORD97":2545116.70994,"ADDRESS":"開元路５８號","OBJECTID":558163},"geometry":{"x":169672.83024999965,"y":2545116.7099399995}},{"attributes":{"ID":558191,"DIS_CODE":0,"TOWNNAME":"北區","LI":"中樓里","LIN":"9鄰","STREET":"開元路","SECT":" ","MAREA":" ","LANE":" ","ALLEY":" ","HOUSE_NO":"６０號","E_COORD97":169676.85582299999,"N_COORD97":2545121.0490999999,"ADDRESS":"開元路６０號","OBJECTID":558164},"geometry":{"x":169676.85582299996,"y":2545121.0491040032}},{"attributes":{"ID":558192,"DIS_CODE":0,"TOWNNAME":"北區","LI":"中樓里","LIN":"9鄰","STREET":"開元路","SECT":" ","MAREA":" ","LANE":" ","ALLEY":" ","HOUSE_NO":"６４號","E_COORD97":169698.48000000001,"N_COORD97":2545133.4900000002,"ADDRESS":"開元路６４號","OBJECTID":558165},"geometry":{"x":169698.48000000045,"y":2545133.4900000021}},{"attributes":{"ID":558193,"DIS_CODE":0,"TOWNNAME":"北區","LI":"中樓里","LIN":"9鄰","STREET":"開元路","SECT":" ","MAREA":" ","LANE":" ","ALLEY":" ","HOUSE_NO":"６４號之１","E_COORD97":169703.92999999999,"N_COORD97":2545143.1800000002,"ADDRESS":"開元路６４號之１","OBJECTID":558166},"geometry":{"x":169703.93000000063,"y":2545143.1800000016}},{"attributes":{"ID":558194,"DIS_CODE":0,"TOWNNAME":"北區","LI":"中樓里","LIN":"9鄰","STREET":"開元路","SECT":" ","MAREA":" ","LANE":" ","ALLEY":" ","HOUSE_NO":"６４號之２","E_COORD97":169707.78,"N_COORD97":2545145.98,"ADDRESS":"開元路６４號之２","OBJECTID":558167},"geometry":{"x":169707.78000000026,"y":2545145.9800000004}},{"attributes":{"ID":558195,"DIS_CODE":0,"TOWNNAME":"北區","LI":"中樓里","LIN":"9鄰","STREET":"開元路","SECT":" ","MAREA":" ","LANE":" ","ALLEY":" ","HOUSE_NO":"６４號之３","E_COORD97":169712.01999999999,"N_COORD97":2545145.1000000001,"ADDRESS":"開元路６４號之３","OBJECTID":558168},"geometry":{"x":169712.02000000048,"y":2545145.0999999996}},{"attributes":{"ID":558196,"DIS_CODE":0,"TOWNNAME":"北區","LI":"三德里","LIN":"9鄰","STREET":"公園南路","SECT":" ","MAREA":" ","LANE":" ","ALLEY":" ","HOUSE_NO":"２４９號","E_COORD97":168479.60000000001,"N_COORD97":2544699.2599999998,"ADDRESS":"公園南路２４９號","OBJECTID":558169},"geometry":{"x":168479.59999999963,"y":2544699.2599999998}},{"attributes":{"ID":558197,"DIS_CODE":0,"TOWNNAME":"北區","LI":"三德里","LIN":"9鄰","STREET":"公園南路","SECT":" ","MAREA":" ","LANE":" ","ALLEY":" ","HOUSE_NO":"２５１號","E_COORD97":168469.41,"N_COORD97":2544695.1699999999,"ADDRESS":"公園南路２５１號","OBJECTID":558170},"geometry":{"x":168469.41000000015,"y":2544695.1700000018}},{"attributes":{"ID":558198,"DIS_CODE":0,"TOWNNAME":"北區","LI":"三德里","LIN":"9鄰","STREET":"長北街","SECT":" ","MAREA":" ","LANE":" ","ALLEY":" ","HOUSE_NO":"１００號","E_COORD97":168452.76999999999,"N_COORD97":2544726.3599999999,"ADDRESS":"長北街１００號","OBJECTID":558171},"geometry":{"x":168452.76999999955,"y":2544726.3600000031}},{"attributes":{"ID":558199,"DIS_CODE":0,"TOWNNAME":"北區","LI":"三德里","LIN":"9鄰","STREET":"長北街","SECT":" ","MAREA":" ","LANE":" ","ALLEY":" ","HOUSE_NO":"６６號","E_COORD97":168424.81,"N_COORD97":2544639.3900000001,"ADDRESS":"長北街６６號","OBJECTID":558172},"geometry":{"x":168424.81000000052,"y":2544639.3900000043}},{"attributes":{"ID":558200,"DIS_CODE":0,"TOWNNAME":"北區","LI":"三德里","LIN":"9鄰","STREET":"長北街","SECT":" ","MAREA":" ","LANE":" ","ALLEY":" ","HOUSE_NO":"６８號","E_COORD97":168430.32000000001,"N_COORD97":2544654.3700000001,"ADDRESS":"長北街６８號","OBJECTID":558173},"geometry":{"x":168430.32000000123,"y":2544654.3700000029}},{"attributes":{"ID":558201,"DIS_CODE":0,"TOWNNAME":"北區","LI":"三德里","LIN":"9鄰","STREET":"長北街","SECT":" ","MAREA":" ","LANE":" ","ALLEY":" ","HOUSE_NO":"７０號","E_COORD97":168431.20999999999,"N_COORD97":2544658.6699999999,"ADDRESS":"長北街７０號","OBJECTID":558174},"geometry":{"x":168431.21000000089,"y":2544658.6700000018}},{"attributes":{"ID":558202,"DIS_CODE":0,"TOWNNAME":"北區","LI":"三德里","LIN":"9鄰","STREET":"長北街","SECT":" ","MAREA":" ","LANE":" ","ALLEY":" ","HOUSE_NO":"７２號","E_COORD97":168433.48999999999,"N_COORD97":2544664.9900000002,"ADDRESS":"長北街７２號","OBJECTID":558175},"geometry":{"x":168433.49000000022,"y":2544664.9900000002}},{"attributes":{"ID":558203,"DIS_CODE":0,"TOWNNAME":"北區","LI":"三德里","LIN":"9鄰","STREET":"長北街","SECT":" ","MAREA":" ","LANE":" ","ALLEY":" ","HOUSE_NO":"７６號","E_COORD97":168438.67000000001,"N_COORD97":2544682.52,"ADDRESS":"長北街７６號","OBJECTID":558176},"geometry":{"x":168438.66999999993,"y":2544682.5200000014}},{"attributes":{"ID":558204,"DIS_CODE":0,"TOWNNAME":"北區","LI":"三德里","LIN":"9鄰","STREET":"北華街","SECT":" ","MAREA":" ","LANE":" ","ALLEY":" ","HOUSE_NO":"１８０號","E_COORD97":168472.23999999999,"N_COORD97":2544615.7599999998,"ADDRESS":"北華街１８０號","OBJECTID":558177},"geometry":{"x":168472.24000000022,"y":2544615.7600000035}},{"attributes":{"ID":558205,"DIS_CODE":0,"TOWNNAME":"北區","LI":"三德里","LIN":"9鄰","STREET":"北華街","SECT":" ","MAREA":" ","LANE":" ","ALLEY":" ","HOUSE_NO":"１８０號之１","E_COORD97":168466.42000000001,"N_COORD97":2544617.77,"ADDRESS":"北華街１８０號之１","OBJECTID":558178},"geometry":{"x":168466.42000000179,"y":2544617.7699999996}},{"attributes":{"ID":558206,"DIS_CODE":0,"TOWNNAME":"北區","LI":"三德里","LIN":"9鄰","STREET":"北華街","SECT":" ","MAREA":" ","LANE":" ","ALLEY":" ","HOUSE_NO":"１８０號之２","E_COORD97":168460.98999999999,"N_COORD97":2544619.77,"ADDRESS":"北華街１８０號之２","OBJECTID":558179},"geometry":{"x":168460.98999999929,"y":2544619.7700000014}},{"attributes":{"ID":558207,"DIS_CODE":0,"TOWNNAME":"北區","LI":"三德里","LIN":"9鄰","STREET":"北華街","SECT":" ","MAREA":" ","LANE":" ","ALLEY":" ","HOUSE_NO":"１８０號之３","E_COORD97":168480.72,"N_COORD97":2544634.6200000001,"ADDRESS":"北華街１８０號之３","OBJECTID":558180},"geometry":{"x":168480.71999999974,"y":2544634.6199999992}},{"attributes":{"ID":558208,"DIS_CODE":0,"TOWNNAME":"北區","LI":"三德里","LIN":"9鄰","STREET":"北華街","SECT":" ","MAREA":" ","LANE":" ","ALLEY":" ","HOUSE_NO":"１８０號之５","E_COORD97":168477.94,"N_COORD97":2544636.27,"ADDRESS":"北華街１８０號之５","OBJECTID":558181},"geometry":{"x":168477.94000000041,"y":2544636.2700000014}},{"attributes":{"ID":558209,"DIS_CODE":0,"TOWNNAME":"北區","LI":"三德里","LIN":"9鄰","STREET":"北華街","SECT":" ","MAREA":" ","LANE":" ","ALLEY":" ","HOUSE_NO":"１８０號之６","E_COORD97":168474.51999999999,"N_COORD97":2544638.1600000001,"ADDRESS":"北華街１８０號之６","OBJECTID":558182},"geometry":{"x":168474.52000000048,"y":2544638.160000002}},{"attributes":{"ID":558210,"DIS_CODE":0,"TOWNNAME":"北區","LI":"三德里","LIN":"9鄰","STREET":"北華街","SECT":" ","MAREA":" ","LANE":" ","ALLEY":" ","HOUSE_NO":"１８０號之７","E_COORD97":168470.47,"N_COORD97":2544640.1800000002,"ADDRESS":"北華街１８０號之７","OBJECTID":558183},"geometry":{"x":168470.46999999974,"y":2544640.1800000016}},{"attributes":{"ID":558211,"DIS_CODE":0,"TOWNNAME":"北區","LI":"三德里","LIN":"9鄰","STREET":"北華街","SECT":" ","MAREA":" ","LANE":" ","ALLEY":" ","HOUSE_NO":"１８４號","E_COORD97":168452.56,"N_COORD97":2544623.3900000001,"ADDRESS":"北華街１８４號","OBJECTID":558184},"geometry":{"x":168452.55999999959,"y":2544623.3900000025}},{"attributes":{"ID":558212,"DIS_CODE":0,"TOWNNAME":"北區","LI":"三德里","LIN":"9鄰","STREET":"北華街","SECT":" ","MAREA":" ","LANE":" ","ALLEY":" ","HOUSE_NO":"１８４號之１","E_COORD97":168441.51000000001,"N_COORD97":2544628.3999999999,"ADDRESS":"北華街１８４號之１","OBJECTID":558185},"geometry":{"x":168441.50999999978,"y":2544628.4000000004}},{"attributes":{"ID":558213,"DIS_CODE":0,"TOWNNAME":"北區","LI":"三德里","LIN":"9鄰","STREET":"北華街","SECT":" ","MAREA":" ","LANE":" ","ALLEY":" ","HOUSE_NO":"１８４號之１０","E_COORD97":168468.54000000001,"N_COORD97":2544656.1400000001,"ADDRESS":"北華街１８４號之１０","OBJECTID":558186},"geometry":{"x":168468.54000000004,"y":2544656.1400000025}},{"attributes":{"ID":558214,"DIS_CODE":0,"TOWNNAME":"北區","LI":"三德里","LIN":"9鄰","STREET":"北華街","SECT":" ","MAREA":" ","LANE":" ","ALLEY":" ","HOUSE_NO":"１８４號之１１","E_COORD97":168471.95999999999,"N_COORD97":2544655.5099999998,"ADDRESS":"北華街１８４號之１１","OBJECTID":558187},"geometry":{"x":168471.96000000089,"y":2544655.5100000016}},{"attributes":{"ID":558215,"DIS_CODE":0,"TOWNNAME":"北區","LI":"三德里","LIN":"9鄰","STREET":"北華街","SECT":" ","MAREA":" ","LANE":" ","ALLEY":" ","HOUSE_NO":"１８４號之１２","E_COORD97":168470.44,"N_COORD97":2544650.2000000002,"ADDRESS":"北華街１８４號之１２","OBJECTID":558188},"geometry":{"x":168470.44000000134,"y":2544650.2000000011}},{"attributes":{"ID":558216,"DIS_CODE":0,"TOWNNAME":"北區","LI":"三德里","LIN":"9鄰","STREET":"北華街","SECT":" ","MAREA":" ","LANE":" ","ALLEY":" ","HOUSE_NO":"１８４號之１３","E_COORD97":168466.01000000001,"N_COORD97":2544651.3399999999,"ADDRESS":"北華街１８４號之１３","OBJECTID":558189},"geometry":{"x":168466.01000000071,"y":2544651.3399999999}},{"attributes":{"ID":558217,"DIS_CODE":0,"TOWNNAME":"北區","LI":"三德里","LIN":"9鄰","STREET":"北華街","SECT":" ","MAREA":" ","LANE":" ","ALLEY":" ","HOUSE_NO":"１８４號之１４","E_COORD97":168461.70999999999,"N_COORD97":2544652.48,"ADDRESS":"北華街１８４號之１４","OBJECTID":558190},"geometry":{"x":168461.71000000089,"y":2544652.4800000023}},{"attributes":{"ID":558218,"DIS_CODE":0,"TOWNNAME":"北區","LI":"三德里","LIN":"9鄰","STREET":"北華街","SECT":" ","MAREA":" ","LANE":" ","ALLEY":" ","HOUSE_NO":"１８４號之１５","E_COORD97":168456.89999999999,"N_COORD97":2544653.6200000001,"ADDRESS":"北華街１８４號之１５","OBJECTID":558191},"geometry":{"x":168456.90000000224,"y":2544653.620000001}},{"attributes":{"ID":558219,"DIS_CODE":0,"TOWNNAME":"北區","LI":"三德里","LIN":"9鄰","STREET":"北華街","SECT":" ","MAREA":" ","LANE":" ","ALLEY":" ","HOUSE_NO":"１８４號之２","E_COORD97":168444.37,"N_COORD97":2544639.71,"ADDRESS":"北華街１８４號之２","OBJECTID":558192},"geometry":{"x":168444.37000000011,"y":2544639.7100000009}},{"attributes":{"ID":558220,"DIS_CODE":0,"TOWNNAME":"北區","LI":"三德里","LIN":"9鄰","STREET":"北華街","SECT":" ","MAREA":" ","LANE":" ","ALLEY":" ","HOUSE_NO":"１８４號之３","E_COORD97":168446.14000000001,"N_COORD97":2544644.3900000001,"ADDRESS":"北華街１８４號之３","OBJECTID":558193},"geometry":{"x":168446.1400000006,"y":2544644.3900000006}},{"attributes":{"ID":558221,"DIS_CODE":0,"TOWNNAME":"北區","LI":"長德里","LIN":"9鄰","STREET":"西門路","SECT":"三段","MAREA":" ","LANE":" ","ALLEY":" ","HOUSE_NO":"２５８號","E_COORD97":168493.48000000001,"N_COORD97":2544969.54,"ADDRESS":"西門路三段２５８號","OBJECTID":558194},"geometry":{"x":168493.48000000045,"y":2544969.540000001}},{"attributes":{"ID":558222,"DIS_CODE":0,"TOWNNAME":"北區","LI":"長德里","LIN":"9鄰","STREET":"西門路","SECT":"三段","MAREA":" ","LANE":" ","ALLEY":" ","HOUSE_NO":"２６０號","E_COORD97":168497.98000000001,"N_COORD97":2544973.3399999999,"ADDRESS":"西門路三段２６０號","OBJECTID":558195},"geometry":{"x":168497.98000000045,"y":2544973.3399999999}},{"attributes":{"ID":558223,"DIS_CODE":0,"TOWNNAME":"北區","LI":"新勝里","LIN":"9鄰","STREET":"長榮路","SECT":"五段","MAREA":" ","LANE":" ","ALLEY":" ","HOUSE_NO":"３４號","E_COORD97":170116.42999999999,"N_COORD97":2545569.4399999999,"ADDRESS":"長榮路五段３４號","OBJECTID":558196},"geometry":{"x":170116.4299999997,"y":2545569.4399999995}},{"attributes":{"ID":558224,"DIS_CODE":0,"TOWNNAME":"北區","LI":"長德里","LIN":"9鄰","STREET":"西門路","SECT":"三段","MAREA":" ","LANE":" ","ALLEY":" ","HOUSE_NO":"２６０號地下一層","E_COORD97":168497.98000000001,"N_COORD97":2544973.3399999999,"ADDRESS":"西門路三段２６０號地下一層","OBJECTID":558197},"geometry":{"x":168497.98000000045,"y":2544973.3399999999}},{"attributes":{"ID":558225,"DIS_CODE":0,"TOWNNAME":"北區","LI":"長德里","LIN":"9鄰","STREET":"西門路","SECT":"三段","MAREA":" ","LANE":" ","ALLEY":" ","HOUSE_NO":"２６２號","E_COORD97":168503.53,"N_COORD97":2544979.5699999998,"ADDRESS":"西門路三段２６２號","OBJECTID":558198},"geometry":{"x":168503.53000000119,"y":2544979.5700000003}},{"attributes":{"ID":558226,"DIS_CODE":0,"TOWNNAME":"北區","LI":"長德里","LIN":"9鄰","STREET":"西門路","SECT":"三段","MAREA":" ","LANE":" ","ALLEY":" ","HOUSE_NO":"２６４號","E_COORD97":168507.14999999999,"N_COORD97":2544983.29,"ADDRESS":"西門路三段２６４號","OBJECTID":558199},"geometry":{"x":168507.15000000037,"y":2544983.2899999991}},{"attributes":{"ID":558227,"DIS_CODE":0,"TOWNNAME":"北區","LI":"長德里","LIN":"9鄰","STREET":"西門路","SECT":"三段","MAREA":" ","LANE":" ","ALLEY":" ","HOUSE_NO":"２６６號","E_COORD97":168501.12,"N_COORD97":2544989.48,"ADDRESS":"西門路三段２６６號","OBJECTID":558200},"geometry":{"x":168501.12000000104,"y":2544989.4800000004}}]}