{"displayFieldName":"TOWNNAME","fieldAliases":{"ID":"ID","DIS_CODE":"DIS_CODE","TOWNNAME":"TOWNNAME","LI":"LI","LIN":"LIN","STREET":"STREET","SECT":"SECT","MAREA":"MAREA","LANE":"LANE","ALLEY":"ALLEY","HOUSE_NO":"HOUSE_NO","E_COORD97":"E_COORD97","N_COORD97":"N_COORD97","ADDRESS":"ADDRESS","OBJECTID":"OBJECTID"},"geometryType":"esriGeometryPoint","spatialReference":{"wkid":102443,"latestWkid":3826},"fields":[{"name":"ID","type":"esriFieldTypeDouble","alias":"ID"},{"name":"DIS_CODE","type":"esriFieldTypeInteger","alias":"DIS_CODE"},{"name":"TOWNNAME","type":"esriFieldTypeString","alias":"TOWNNAME","length":8},{"name":"LI","type":"esriFieldTypeString","alias":"LI","length":8},{"name":"LIN","type":"esriFieldTypeString","alias":"LIN","length":12},{"name":"STREET","type":"esriFieldTypeString","alias":"STREET","length":20},{"name":"SECT","type":"esriFieldTypeString","alias":"SECT","length":8},{"name":"MAREA","type":"esriFieldTypeString","alias":"MAREA","length":12},{"name":"LANE","type":"esriFieldTypeString","alias":"LANE","length":10},{"name":"ALLEY","type":"esriFieldTypeString","alias":"ALLEY","length":10},{"name":"HOUSE_NO","type":"esriFieldTypeString","alias":"HOUSE_NO","length":20},{"name":"E_COORD97","type":"esriFieldTypeDouble","alias":"E_COORD97"},{"name":"N_COORD97","type":"esriFieldTypeDouble","alias":"N_COORD97"},{"name":"ADDRESS","type":"esriFieldTypeString","alias":"ADDRESS","length":50},{"name":"OBJECTID","type":"esriFieldTypeOID","alias":"OBJECTID"}],"features":[{"attributes":{"ID":539028,"DIS_CODE":0,"TOWNNAME":"仁德區","LI":"成功里","LIN":"12鄰","STREET":"成功二街","SECT":" ","MAREA":" ","LANE":" ","ALLEY":" ","HOUSE_NO":"１６號","E_COORD97":170903.45000000001,"N_COORD97":2539958.0099999998,"ADDRESS":"成功二街１６號","OBJECTID":539001},"geometry":{"x":170903.45000000019,"y":2539958.0099999998}},{"attributes":{"ID":539029,"DIS_CODE":0,"TOWNNAME":"仁德區","LI":"成功里","LIN":"12鄰","STREET":"成功二街","SECT":" ","MAREA":" ","LANE":" ","ALLEY":" ","HOUSE_NO":"２２號","E_COORD97":170902.51000000001,"N_COORD97":2539944.7599999998,"ADDRESS":"成功二街２２號","OBJECTID":539002},"geometry":{"x":170902.50999999978,"y":2539944.7600000016}},{"attributes":{"ID":539030,"DIS_CODE":0,"TOWNNAME":"仁德區","LI":"成功里","LIN":"12鄰","STREET":"成功二街","SECT":" ","MAREA":" ","LANE":" ","ALLEY":" ","HOUSE_NO":"１５２號","E_COORD97":170860.64999999999,"N_COORD97":2539677.02,"ADDRESS":"成功二街１５２號","OBJECTID":539003},"geometry":{"x":170860.65000000224,"y":2539677.0199999977}},{"attributes":{"ID":539031,"DIS_CODE":0,"TOWNNAME":"仁德區","LI":"成功里","LIN":"12鄰","STREET":"成功二街","SECT":" ","MAREA":" ","LANE":" ","ALLEY":" ","HOUSE_NO":"４６號","E_COORD97":170898.95999999999,"N_COORD97":2539877.7599999998,"ADDRESS":"成功二街４６號","OBJECTID":539004},"geometry":{"x":170898.96000000089,"y":2539877.7599999998}},{"attributes":{"ID":539032,"DIS_CODE":0,"TOWNNAME":"仁德區","LI":"田厝里","LIN":"12鄰","STREET":"田厝一街","SECT":" ","MAREA":" ","LANE":" ","ALLEY":" ","HOUSE_NO":"２１８號","E_COORD97":172294.35000000001,"N_COORD97":2537761.7400000002,"ADDRESS":"田厝一街２１８號","OBJECTID":539005},"geometry":{"x":172294.35000000149,"y":2537761.7400000021}},{"attributes":{"ID":539033,"DIS_CODE":0,"TOWNNAME":"仁德區","LI":"保安里","LIN":"12鄰","STREET":"開發二路","SECT":" ","MAREA":" ","LANE":" ","ALLEY":" ","HOUSE_NO":"７號","E_COORD97":172534.87,"N_COORD97":2535907.7599999998,"ADDRESS":"開發二路７號","OBJECTID":539006},"geometry":{"x":172534.87000000011,"y":2535907.7599999998}},{"attributes":{"ID":539034,"DIS_CODE":0,"TOWNNAME":"仁德區","LI":"成功里","LIN":"12鄰","STREET":"成功二街","SECT":" ","MAREA":" ","LANE":" ","ALLEY":" ","HOUSE_NO":"１８號","E_COORD97":170903.22,"N_COORD97":2539954.2599999998,"ADDRESS":"成功二街１８號","OBJECTID":539007},"geometry":{"x":170903.21999999974,"y":2539954.2600000016}},{"attributes":{"ID":539035,"DIS_CODE":0,"TOWNNAME":"仁德區","LI":"保安里","LIN":"12鄰","STREET":"開發一路","SECT":" ","MAREA":" ","LANE":" ","ALLEY":" ","HOUSE_NO":"２６號","E_COORD97":172686.29999999999,"N_COORD97":2536152.27,"ADDRESS":"開發一路２６號","OBJECTID":539008},"geometry":{"x":172686.29999999888,"y":2536152.2699999996}},{"attributes":{"ID":539036,"DIS_CODE":0,"TOWNNAME":"仁德區","LI":"保安里","LIN":"12鄰","STREET":"開發二路","SECT":" ","MAREA":" ","LANE":" ","ALLEY":" ","HOUSE_NO":"１０號","E_COORD97":172641.82000000001,"N_COORD97":2535958.52,"ADDRESS":"開發二路１０號","OBJECTID":539009},"geometry":{"x":172641.82000000123,"y":2535958.5200000014}},{"attributes":{"ID":539037,"DIS_CODE":0,"TOWNNAME":"仁德區","LI":"保安里","LIN":"12鄰","STREET":"開發三路","SECT":" ","MAREA":" ","LANE":" ","ALLEY":" ","HOUSE_NO":"９號","E_COORD97":172660.42999999999,"N_COORD97":2535871.02,"ADDRESS":"開發三路９號","OBJECTID":539010},"geometry":{"x":172660.43000000063,"y":2535871.0200000014}},{"attributes":{"ID":539038,"DIS_CODE":0,"TOWNNAME":"仁德區","LI":"成功里","LIN":"12鄰","STREET":"成功二街","SECT":" ","MAREA":" ","LANE":" ","ALLEY":" ","HOUSE_NO":"８號","E_COORD97":170902.54000000001,"N_COORD97":2539974.7599999998,"ADDRESS":"成功二街８號","OBJECTID":539011},"geometry":{"x":170902.54000000004,"y":2539974.7600000016}},{"attributes":{"ID":539039,"DIS_CODE":0,"TOWNNAME":"仁德區","LI":"保安里","LIN":"12鄰","STREET":"開發七路","SECT":" ","MAREA":" ","LANE":" ","ALLEY":" ","HOUSE_NO":"８號","E_COORD97":173272.39999999999,"N_COORD97":2535807.5099999998,"ADDRESS":"開發七路８號","OBJECTID":539012},"geometry":{"x":173272.40000000037,"y":2535807.5099999998}},{"attributes":{"ID":539040,"DIS_CODE":0,"TOWNNAME":"仁德區","LI":"保安里","LIN":"12鄰","STREET":"開發一路","SECT":" ","MAREA":" ","LANE":" ","ALLEY":" ","HOUSE_NO":"１４號","E_COORD97":172543.42999999999,"N_COORD97":2535971.77,"ADDRESS":"開發一路１４號","OBJECTID":539013},"geometry":{"x":172543.43000000063,"y":2535971.7699999996}},{"attributes":{"ID":539041,"DIS_CODE":0,"TOWNNAME":"仁德區","LI":"成功里","LIN":"12鄰","STREET":"成功二街","SECT":" ","MAREA":" ","LANE":" ","ALLEY":" ","HOUSE_NO":"２８號","E_COORD97":170902.12,"N_COORD97":2539931.0099999998,"ADDRESS":"成功二街２８號","OBJECTID":539014},"geometry":{"x":170902.12000000011,"y":2539931.0099999998}},{"attributes":{"ID":539042,"DIS_CODE":0,"TOWNNAME":"仁德區","LI":"保安里","LIN":"12鄰","STREET":"開發二路","SECT":" ","MAREA":" ","LANE":" ","ALLEY":" ","HOUSE_NO":"２號","E_COORD97":172518.39000000001,"N_COORD97":2535805.5099999998,"ADDRESS":"開發二路２號","OBJECTID":539015},"geometry":{"x":172518.3900000006,"y":2535805.5099999979}},{"attributes":{"ID":539043,"DIS_CODE":0,"TOWNNAME":"仁德區","LI":"保安里","LIN":"12鄰","STREET":"開發五路","SECT":" ","MAREA":" ","LANE":" ","ALLEY":" ","HOUSE_NO":"２５號","E_COORD97":173136.17999999999,"N_COORD97":2535997.5099999998,"ADDRESS":"開發五路２５號","OBJECTID":539016},"geometry":{"x":173136.17999999877,"y":2535997.5099999998}},{"attributes":{"ID":539044,"DIS_CODE":0,"TOWNNAME":"仁德區","LI":"保安里","LIN":"12鄰","STREET":"開發一路","SECT":" ","MAREA":" ","LANE":" ","ALLEY":" ","HOUSE_NO":"２８號","E_COORD97":172703.84,"N_COORD97":2536165.02,"ADDRESS":"開發一路２８號","OBJECTID":539017},"geometry":{"x":172703.84000000078,"y":2536165.0200000014}},{"attributes":{"ID":539045,"DIS_CODE":0,"TOWNNAME":"官田區","LI":"隆本里","LIN":"12鄰","STREET":"復興街","SECT":" ","MAREA":" ","LANE":" ","ALLEY":" ","HOUSE_NO":"５２號","E_COORD97":179864.87,"N_COORD97":2566453.5499999998,"ADDRESS":"復興街５２號","OBJECTID":539018},"geometry":{"x":179864.87000000011,"y":2566453.5500000026}},{"attributes":{"ID":539046,"DIS_CODE":0,"TOWNNAME":"仁德區","LI":"成功里","LIN":"12鄰","STREET":"成功二街","SECT":" ","MAREA":" ","LANE":" ","ALLEY":" ","HOUSE_NO":"３８號","E_COORD97":170899.38,"N_COORD97":2539899.52,"ADDRESS":"成功二街３８號","OBJECTID":539019},"geometry":{"x":170899.38000000082,"y":2539899.5199999996}},{"attributes":{"ID":539047,"DIS_CODE":0,"TOWNNAME":"仁德區","LI":"成功里","LIN":"12鄰","STREET":"成功二街","SECT":" ","MAREA":" ","LANE":" ","ALLEY":" ","HOUSE_NO":"１２號","E_COORD97":170903.41,"N_COORD97":2539966.2599999998,"ADDRESS":"成功二街１２號","OBJECTID":539020},"geometry":{"x":170903.41000000108,"y":2539966.2599999998}},{"attributes":{"ID":539048,"DIS_CODE":0,"TOWNNAME":"仁德區","LI":"田厝里","LIN":"12鄰","STREET":"田厝一街","SECT":" ","MAREA":" ","LANE":" ","ALLEY":" ","HOUSE_NO":"２２１號","E_COORD97":172301.97,"N_COORD97":2537732.75,"ADDRESS":"田厝一街２２１號","OBJECTID":539021},"geometry":{"x":172301.9700000016,"y":2537732.75}},{"attributes":{"ID":539049,"DIS_CODE":0,"TOWNNAME":"仁德區","LI":"保安里","LIN":"12鄰","STREET":"開發五路","SECT":" ","MAREA":" ","LANE":" ","ALLEY":" ","HOUSE_NO":"２１號","E_COORD97":173095.48000000001,"N_COORD97":2535966.77,"ADDRESS":"開發五路２１號","OBJECTID":539022},"geometry":{"x":173095.48000000045,"y":2535966.7700000014}},{"attributes":{"ID":539050,"DIS_CODE":0,"TOWNNAME":"仁德區","LI":"成功里","LIN":"12鄰","STREET":"成功二街","SECT":" ","MAREA":" ","LANE":" ","ALLEY":" ","HOUSE_NO":"４２號","E_COORD97":170899.06,"N_COORD97":2539886.52,"ADDRESS":"成功二街４２號","OBJECTID":539023},"geometry":{"x":170899.05999999959,"y":2539886.5199999996}},{"attributes":{"ID":539051,"DIS_CODE":0,"TOWNNAME":"仁德區","LI":"保安里","LIN":"12鄰","STREET":"開發五路","SECT":" ","MAREA":" ","LANE":" ","ALLEY":" ","HOUSE_NO":"１０號","E_COORD97":172897.09,"N_COORD97":2535732.2599999998,"ADDRESS":"開發五路１０號","OBJECTID":539024},"geometry":{"x":172897.09000000078,"y":2535732.2599999998}},{"attributes":{"ID":539052,"DIS_CODE":0,"TOWNNAME":"仁德區","LI":"田厝里","LIN":"12鄰","STREET":"田厝一街","SECT":" ","MAREA":" ","LANE":" ","ALLEY":" ","HOUSE_NO":"２１２號","E_COORD97":172297.89999999999,"N_COORD97":2537784.4900000002,"ADDRESS":"田厝一街２１２號","OBJECTID":539025},"geometry":{"x":172297.90000000037,"y":2537784.4900000021}},{"attributes":{"ID":539053,"DIS_CODE":0,"TOWNNAME":"仁德區","LI":"保安里","LIN":"12鄰","STREET":"開發三路","SECT":" ","MAREA":" ","LANE":" ","ALLEY":" ","HOUSE_NO":"１６號","E_COORD97":172756.79000000001,"N_COORD97":2535913.5099999998,"ADDRESS":"開發三路１６號","OBJECTID":539026},"geometry":{"x":172756.79000000097,"y":2535913.5099999998}},{"attributes":{"ID":539054,"DIS_CODE":0,"TOWNNAME":"仁德區","LI":"保安里","LIN":"12鄰","STREET":"開發一路","SECT":" ","MAREA":" ","LANE":" ","ALLEY":" ","HOUSE_NO":"８號","E_COORD97":172488.67999999999,"N_COORD97":2535928.7599999998,"ADDRESS":"開發一路８號","OBJECTID":539027},"geometry":{"x":172488.68000000156,"y":2535928.7599999998}},{"attributes":{"ID":539055,"DIS_CODE":0,"TOWNNAME":"仁德區","LI":"保安里","LIN":"12鄰","STREET":"開發一路","SECT":" ","MAREA":" ","LANE":" ","ALLEY":" ","HOUSE_NO":"２４號","E_COORD97":172650.73000000001,"N_COORD97":2536115.7599999998,"ADDRESS":"開發一路２４號","OBJECTID":539028},"geometry":{"x":172650.73000000138,"y":2536115.7600000035}},{"attributes":{"ID":539056,"DIS_CODE":0,"TOWNNAME":"仁德區","LI":"成功里","LIN":"12鄰","STREET":"成功二街","SECT":" ","MAREA":" ","LANE":" ","ALLEY":" ","HOUSE_NO":"１０號","E_COORD97":170903.92999999999,"N_COORD97":2539970.2599999998,"ADDRESS":"成功二街１０號","OBJECTID":539029},"geometry":{"x":170903.93000000063,"y":2539970.2599999998}},{"attributes":{"ID":539057,"DIS_CODE":0,"TOWNNAME":"仁德區","LI":"保安里","LIN":"12鄰","STREET":"開發五路","SECT":" ","MAREA":" ","LANE":" ","ALLEY":" ","HOUSE_NO":"２８號","E_COORD97":173258.17000000001,"N_COORD97":2536067.77,"ADDRESS":"開發五路２８號","OBJECTID":539030},"geometry":{"x":173258.16999999993,"y":2536067.7699999996}},{"attributes":{"ID":539058,"DIS_CODE":0,"TOWNNAME":"仁德區","LI":"保安里","LIN":"12鄰","STREET":"開發二路","SECT":" ","MAREA":" ","LANE":" ","ALLEY":" ","HOUSE_NO":"３號","E_COORD97":172478.09,"N_COORD97":2535866.02,"ADDRESS":"開發二路３號","OBJECTID":539031},"geometry":{"x":172478.09000000078,"y":2535866.0199999996}},{"attributes":{"ID":539059,"DIS_CODE":0,"TOWNNAME":"仁德區","LI":"保安里","LIN":"12鄰","STREET":"開發二路","SECT":" ","MAREA":" ","LANE":" ","ALLEY":" ","HOUSE_NO":"２４號","E_COORD97":172798.92000000001,"N_COORD97":2536096.52,"ADDRESS":"開發二路２４號","OBJECTID":539032},"geometry":{"x":172798.91999999993,"y":2536096.5199999996}},{"attributes":{"ID":539060,"DIS_CODE":0,"TOWNNAME":"仁德區","LI":"成功里","LIN":"12鄰","STREET":"成功二街","SECT":" ","MAREA":" ","LANE":" ","ALLEY":" ","HOUSE_NO":"４４號","E_COORD97":170899.07999999999,"N_COORD97":2539882.02,"ADDRESS":"成功二街４４號","OBJECTID":539033},"geometry":{"x":170899.08000000007,"y":2539882.0200000014}},{"attributes":{"ID":539061,"DIS_CODE":0,"TOWNNAME":"仁德區","LI":"保安里","LIN":"12鄰","STREET":"開發一路","SECT":" ","MAREA":" ","LANE":" ","ALLEY":" ","HOUSE_NO":"１８號","E_COORD97":172559.23999999999,"N_COORD97":2536036.5099999998,"ADDRESS":"開發一路１８號","OBJECTID":539034},"geometry":{"x":172559.24000000022,"y":2536036.5100000016}},{"attributes":{"ID":539062,"DIS_CODE":0,"TOWNNAME":"仁德區","LI":"後壁里","LIN":"12鄰","STREET":"德南路","SECT":" ","MAREA":" ","LANE":" ","ALLEY":" ","HOUSE_NO":"１７４號","E_COORD97":173669.26999999999,"N_COORD97":2538512.5099999998,"ADDRESS":"德南路１７４號","OBJECTID":539035},"geometry":{"x":173669.26999999955,"y":2538512.5100000016}},{"attributes":{"ID":539063,"DIS_CODE":0,"TOWNNAME":"仁德區","LI":"成功里","LIN":"12鄰","STREET":"成功二街","SECT":" ","MAREA":" ","LANE":" ","ALLEY":" ","HOUSE_NO":"２６號","E_COORD97":170902.04000000001,"N_COORD97":2539936.0099999998,"ADDRESS":"成功二街２６號","OBJECTID":539036},"geometry":{"x":170902.04000000097,"y":2539936.0100000016}},{"attributes":{"ID":539064,"DIS_CODE":0,"TOWNNAME":"仁德區","LI":"成功里","LIN":"12鄰","STREET":"成功二街","SECT":" ","MAREA":" ","LANE":" ","ALLEY":" ","HOUSE_NO":"３０號","E_COORD97":170901.70000000001,"N_COORD97":2539925.02,"ADDRESS":"成功二街３０號","OBJECTID":539037},"geometry":{"x":170901.70000000019,"y":2539925.0200000014}},{"attributes":{"ID":539065,"DIS_CODE":0,"TOWNNAME":"仁德區","LI":"保安里","LIN":"12鄰","STREET":"開發三路","SECT":" ","MAREA":" ","LANE":" ","ALLEY":" ","HOUSE_NO":"５號","E_COORD97":172603.82000000001,"N_COORD97":2535822.2599999998,"ADDRESS":"開發三路５號","OBJECTID":539038},"geometry":{"x":172603.82000000216,"y":2535822.2600000016}},{"attributes":{"ID":539066,"DIS_CODE":0,"TOWNNAME":"仁德區","LI":"保安里","LIN":"12鄰","STREET":"開發二路","SECT":" ","MAREA":" ","LANE":" ","ALLEY":" ","HOUSE_NO":"４號","E_COORD97":172546.92000000001,"N_COORD97":2535868.27,"ADDRESS":"開發二路４號","OBJECTID":539039},"geometry":{"x":172546.92000000086,"y":2535868.2700000033}},{"attributes":{"ID":539067,"DIS_CODE":0,"TOWNNAME":"仁德區","LI":"田厝里","LIN":"12鄰","STREET":"田厝二街","SECT":" ","MAREA":" ","LANE":" ","ALLEY":" ","HOUSE_NO":"９５號","E_COORD97":172249.97,"N_COORD97":2537694.7400000002,"ADDRESS":"田厝二街９５號","OBJECTID":539040},"geometry":{"x":172249.97000000067,"y":2537694.7400000002}},{"attributes":{"ID":539068,"DIS_CODE":0,"TOWNNAME":"仁德區","LI":"保安里","LIN":"12鄰","STREET":"開發二路","SECT":" ","MAREA":" ","LANE":" ","ALLEY":" ","HOUSE_NO":"２１號","E_COORD97":172659.26999999999,"N_COORD97":2536027.7599999998,"ADDRESS":"開發二路２１號","OBJECTID":539041},"geometry":{"x":172659.27000000142,"y":2536027.7600000035}},{"attributes":{"ID":539069,"DIS_CODE":0,"TOWNNAME":"仁德區","LI":"保安里","LIN":"12鄰","STREET":"開發二路","SECT":" ","MAREA":" ","LANE":" ","ALLEY":" ","HOUSE_NO":"９號","E_COORD97":172553.59,"N_COORD97":2535918.2599999998,"ADDRESS":"開發二路９號","OBJECTID":539042},"geometry":{"x":172553.58999999985,"y":2535918.2599999998}},{"attributes":{"ID":539070,"DIS_CODE":0,"TOWNNAME":"仁德區","LI":"成功里","LIN":"12鄰","STREET":"成功二街","SECT":" ","MAREA":" ","LANE":" ","ALLEY":" ","HOUSE_NO":"３６號","E_COORD97":170899.51999999999,"N_COORD97":2539904.27,"ADDRESS":"成功二街３６號","OBJECTID":539043},"geometry":{"x":170899.52000000142,"y":2539904.2700000014}},{"attributes":{"ID":539071,"DIS_CODE":0,"TOWNNAME":"仁德區","LI":"後壁里","LIN":"12鄰","STREET":"德南路","SECT":" ","MAREA":" ","LANE":" ","ALLEY":" ","HOUSE_NO":"２１８號","E_COORD97":173759.17999999999,"N_COORD97":2538425.2599999998,"ADDRESS":"德南路２１８號","OBJECTID":539044},"geometry":{"x":173759.18000000063,"y":2538425.2600000016}},{"attributes":{"ID":539072,"DIS_CODE":0,"TOWNNAME":"仁德區","LI":"後壁里","LIN":"12鄰","STREET":"德南路","SECT":" ","MAREA":" ","LANE":" ","ALLEY":" ","HOUSE_NO":"１７１號","E_COORD97":173628.63,"N_COORD97":2538566.02,"ADDRESS":"德南路１７１號","OBJECTID":539045},"geometry":{"x":173628.63000000082,"y":2538566.0200000014}},{"attributes":{"ID":539073,"DIS_CODE":0,"TOWNNAME":"仁德區","LI":"後壁里","LIN":"12鄰","STREET":"德南路","SECT":" ","MAREA":" ","LANE":" ","ALLEY":" ","HOUSE_NO":"１７８號","E_COORD97":173675.72,"N_COORD97":2538507.5099999998,"ADDRESS":"德南路１７８號","OBJECTID":539046},"geometry":{"x":173675.72000000067,"y":2538507.5099999998}},{"attributes":{"ID":539074,"DIS_CODE":0,"TOWNNAME":"仁德區","LI":"後壁里","LIN":"12鄰","STREET":"德南路","SECT":" ","MAREA":" ","LANE":" ","ALLEY":" ","HOUSE_NO":"１７７號","E_COORD97":173641.56,"N_COORD97":2538555.77,"ADDRESS":"德南路１７７號","OBJECTID":539047},"geometry":{"x":173641.55999999959,"y":2538555.7699999996}},{"attributes":{"ID":539075,"DIS_CODE":0,"TOWNNAME":"仁德區","LI":"保安里","LIN":"12鄰","STREET":"開發二路","SECT":" ","MAREA":" ","LANE":" ","ALLEY":" ","HOUSE_NO":"１９號","E_COORD97":172649.85000000001,"N_COORD97":2536004.0099999998,"ADDRESS":"開發二路１９號","OBJECTID":539048},"geometry":{"x":172649.84999999963,"y":2536004.0099999998}},{"attributes":{"ID":539076,"DIS_CODE":0,"TOWNNAME":"仁德區","LI":"保安里","LIN":"12鄰","STREET":"開發三路","SECT":" ","MAREA":" ","LANE":" ","ALLEY":" ","HOUSE_NO":"１１號","E_COORD97":172679.51999999999,"N_COORD97":2535886.27,"ADDRESS":"開發三路１１號","OBJECTID":539049},"geometry":{"x":172679.52000000142,"y":2535886.2700000014}},{"attributes":{"ID":539077,"DIS_CODE":0,"TOWNNAME":"仁德區","LI":"後壁里","LIN":"12鄰","STREET":"德南路","SECT":" ","MAREA":" ","LANE":" ","ALLEY":" ","HOUSE_NO":"１８０號","E_COORD97":173679.01999999999,"N_COORD97":2538504.7599999998,"ADDRESS":"德南路１８０號","OBJECTID":539050},"geometry":{"x":173679.01999999955,"y":2538504.7599999998}},{"attributes":{"ID":539078,"DIS_CODE":0,"TOWNNAME":"仁德區","LI":"保安里","LIN":"12鄰","STREET":"開發二路","SECT":" ","MAREA":" ","LANE":" ","ALLEY":" ","HOUSE_NO":"８號","E_COORD97":172622.70999999999,"N_COORD97":2535934.5099999998,"ADDRESS":"開發二路８號","OBJECTID":539051},"geometry":{"x":172622.71000000183,"y":2535934.5100000035}},{"attributes":{"ID":539079,"DIS_CODE":0,"TOWNNAME":"永康區","LI":"三民里","LIN":"12鄰","STREET":"和平東路","SECT":" ","MAREA":" ","LANE":" ","ALLEY":" ","HOUSE_NO":"１５９號","E_COORD97":174242.66,"N_COORD97":2550537.3500000001,"ADDRESS":"和平東路１５９號","OBJECTID":539052},"geometry":{"x":174242.66000000108,"y":2550537.3499999996}},{"attributes":{"ID":539080,"DIS_CODE":0,"TOWNNAME":"永康區","LI":"三民里","LIN":"12鄰","STREET":"和平東路","SECT":" ","MAREA":" ","LANE":" ","ALLEY":" ","HOUSE_NO":"１６１號","E_COORD97":174242.66,"N_COORD97":2550537.3500000001,"ADDRESS":"和平東路１６１號","OBJECTID":539053},"geometry":{"x":174242.66000000108,"y":2550537.3499999996}},{"attributes":{"ID":539081,"DIS_CODE":0,"TOWNNAME":"仁德區","LI":"新田里","LIN":"12鄰","STREET":"民安路","SECT":"一段","MAREA":" ","LANE":" ","ALLEY":" ","HOUSE_NO":"４０３號","E_COORD97":173073.53,"N_COORD97":2539436.8100000001,"ADDRESS":"民安路一段４０３號","OBJECTID":539054},"geometry":{"x":173073.53000000212,"y":2539436.8100000024}},{"attributes":{"ID":539082,"DIS_CODE":0,"TOWNNAME":"仁德區","LI":"新田里","LIN":"12鄰","STREET":"民安路","SECT":"一段","MAREA":" ","LANE":" ","ALLEY":" ","HOUSE_NO":"４３１號","E_COORD97":173148.67999999999,"N_COORD97":2539377.5699999998,"ADDRESS":"民安路一段４３１號","OBJECTID":539055},"geometry":{"x":173148.68000000063,"y":2539377.5700000022}},{"attributes":{"ID":539083,"DIS_CODE":0,"TOWNNAME":"仁德區","LI":"新田里","LIN":"12鄰","STREET":"民安路","SECT":"一段","MAREA":" ","LANE":" ","ALLEY":" ","HOUSE_NO":"３１３號","E_COORD97":172698.23999999999,"N_COORD97":2539703.8199999998,"ADDRESS":"民安路一段３１３號","OBJECTID":539056},"geometry":{"x":172698.24000000022,"y":2539703.8200000022}},{"attributes":{"ID":539084,"DIS_CODE":0,"TOWNNAME":"仁德區","LI":"新田里","LIN":"12鄰","STREET":"北保二街","SECT":" ","MAREA":" ","LANE":" ","ALLEY":" ","HOUSE_NO":"１號","E_COORD97":173180.04999999999,"N_COORD97":2539373.25,"ADDRESS":"北保二街１號","OBJECTID":539057},"geometry":{"x":173180.05000000075,"y":2539373.25}},{"attributes":{"ID":539085,"DIS_CODE":0,"TOWNNAME":"仁德區","LI":"新田里","LIN":"12鄰","STREET":"民安路","SECT":"一段","MAREA":" ","LANE":" ","ALLEY":" ","HOUSE_NO":"４３３號","E_COORD97":173152.26999999999,"N_COORD97":2539375.3199999998,"ADDRESS":"民安路一段４３３號","OBJECTID":539058},"geometry":{"x":173152.26999999955,"y":2539375.3200000022}},{"attributes":{"ID":539086,"DIS_CODE":0,"TOWNNAME":"仁德區","LI":"後壁里","LIN":"12鄰","STREET":"德善路","SECT":" ","MAREA":" ","LANE":" ","ALLEY":" ","HOUSE_NO":"２５２號","E_COORD97":173880.97,"N_COORD97":2538628.2599999998,"ADDRESS":"德善路２５２號","OBJECTID":539059},"geometry":{"x":173880.97000000067,"y":2538628.2600000035}},{"attributes":{"ID":539087,"DIS_CODE":0,"TOWNNAME":"仁德區","LI":"後壁里","LIN":"12鄰","STREET":"德善路","SECT":" ","MAREA":" ","LANE":" ","ALLEY":" ","HOUSE_NO":"２８２號","E_COORD97":173961.67999999999,"N_COORD97":2538452.02,"ADDRESS":"德善路２８２號","OBJECTID":539060},"geometry":{"x":173961.6799999997,"y":2538452.0199999996}},{"attributes":{"ID":539088,"DIS_CODE":0,"TOWNNAME":"仁德區","LI":"新田里","LIN":"12鄰","STREET":"民安路","SECT":"一段","MAREA":" ","LANE":" ","ALLEY":" ","HOUSE_NO":"４４５號","E_COORD97":173182.82999999999,"N_COORD97":2539356.8100000001,"ADDRESS":"民安路一段４４５號","OBJECTID":539061},"geometry":{"x":173182.83000000007,"y":2539356.8100000005}},{"attributes":{"ID":539089,"DIS_CODE":0,"TOWNNAME":"白河區","LI":"外角里","LIN":"12鄰","STREET":"民智街","SECT":" ","MAREA":" ","LANE":" ","ALLEY":" ","HOUSE_NO":"１０號","E_COORD97":190855.06,"N_COORD97":2583259.3500000001,"ADDRESS":"民智街１０號","OBJECTID":539062},"geometry":{"x":190855.06000000145,"y":2583259.3500000015}},{"attributes":{"ID":539090,"DIS_CODE":0,"TOWNNAME":"白河區","LI":"外角里","LIN":"12鄰","STREET":"民智街","SECT":" ","MAREA":" ","LANE":" ","ALLEY":" ","HOUSE_NO":"２號","E_COORD97":190871.89000000001,"N_COORD97":2583259.9399999999,"ADDRESS":"民智街２號","OBJECTID":539063},"geometry":{"x":190871.8900000006,"y":2583259.9399999995}},{"attributes":{"ID":539091,"DIS_CODE":0,"TOWNNAME":"白河區","LI":"外角里","LIN":"12鄰","STREET":"民智街","SECT":" ","MAREA":" ","LANE":" ","ALLEY":" ","HOUSE_NO":"４號","E_COORD97":190868.03,"N_COORD97":2583260.0099999998,"ADDRESS":"民智街４號","OBJECTID":539064},"geometry":{"x":190868.03000000119,"y":2583260.0099999998}},{"attributes":{"ID":539092,"DIS_CODE":0,"TOWNNAME":"白河區","LI":"外角里","LIN":"12鄰","STREET":"民智街","SECT":" ","MAREA":" ","LANE":" ","ALLEY":" ","HOUSE_NO":"６號","E_COORD97":190863.64000000001,"N_COORD97":2583259.7000000002,"ADDRESS":"民智街６號","OBJECTID":539065},"geometry":{"x":190863.6400000006,"y":2583259.7000000011}},{"attributes":{"ID":539093,"DIS_CODE":0,"TOWNNAME":"白河區","LI":"外角里","LIN":"12鄰","STREET":"民智街","SECT":" ","MAREA":" ","LANE":" ","ALLEY":" ","HOUSE_NO":"８號","E_COORD97":190859.53,"N_COORD97":2583259.4300000002,"ADDRESS":"民智街８號","OBJECTID":539066},"geometry":{"x":190859.53000000212,"y":2583259.4300000016}},{"attributes":{"ID":539094,"DIS_CODE":0,"TOWNNAME":"官田區","LI":"隆本里","LIN":"12鄰","STREET":"復興街","SECT":" ","MAREA":" ","LANE":" ","ALLEY":" ","HOUSE_NO":"１號","E_COORD97":179940.69,"N_COORD97":2566446.8100000001,"ADDRESS":"復興街１號","OBJECTID":539067},"geometry":{"x":179940.69000000041,"y":2566446.8100000042}},{"attributes":{"ID":539095,"DIS_CODE":0,"TOWNNAME":"官田區","LI":"隆本里","LIN":"12鄰","STREET":"復興街","SECT":" ","MAREA":" ","LANE":" ","ALLEY":" ","HOUSE_NO":"３２號","E_COORD97":179909.16,"N_COORD97":2566455.02,"ADDRESS":"復興街３２號","OBJECTID":539068},"geometry":{"x":179909.16000000201,"y":2566455.0200000014}},{"attributes":{"ID":539096,"DIS_CODE":0,"TOWNNAME":"官田區","LI":"隆本里","LIN":"12鄰","STREET":"復興街","SECT":" ","MAREA":" ","LANE":" ","ALLEY":" ","HOUSE_NO":"３號","E_COORD97":179933.82999999999,"N_COORD97":2566446.04,"ADDRESS":"復興街３號","OBJECTID":539069},"geometry":{"x":179933.83000000101,"y":2566446.0399999991}},{"attributes":{"ID":539097,"DIS_CODE":0,"TOWNNAME":"官田區","LI":"隆本里","LIN":"12鄰","STREET":"復興街","SECT":" ","MAREA":" ","LANE":" ","ALLEY":" ","HOUSE_NO":"４６號","E_COORD97":179878.92000000001,"N_COORD97":2566455.3500000001,"ADDRESS":"復興街４６號","OBJECTID":539070},"geometry":{"x":179878.92000000086,"y":2566455.3499999978}},{"attributes":{"ID":539098,"DIS_CODE":0,"TOWNNAME":"官田區","LI":"隆本里","LIN":"12鄰","STREET":"復興街","SECT":" ","MAREA":" ","LANE":" ","ALLEY":" ","HOUSE_NO":"４８號","E_COORD97":179874.10000000001,"N_COORD97":2566454.3500000001,"ADDRESS":"復興街４８號","OBJECTID":539071},"geometry":{"x":179874.10000000056,"y":2566454.3499999996}},{"attributes":{"ID":539099,"DIS_CODE":0,"TOWNNAME":"官田區","LI":"隆本里","LIN":"12鄰","STREET":"復興街","SECT":" ","MAREA":" ","LANE":" ","ALLEY":" ","HOUSE_NO":"５０號","E_COORD97":179869.01000000001,"N_COORD97":2566453.9300000002,"ADDRESS":"復興街５０號","OBJECTID":539072},"geometry":{"x":179869.00999999885,"y":2566453.9299999997}},{"attributes":{"ID":539100,"DIS_CODE":0,"TOWNNAME":"官田區","LI":"隆本里","LIN":"12鄰","STREET":"復興街","SECT":" ","MAREA":" ","LANE":" ","ALLEY":" ","HOUSE_NO":"５６號","E_COORD97":179861.17000000001,"N_COORD97":2566452.9199999999,"ADDRESS":"復興街５６號","OBJECTID":539073},"geometry":{"x":179861.16999999993,"y":2566452.9200000018}},{"attributes":{"ID":539101,"DIS_CODE":0,"TOWNNAME":"官田區","LI":"隆本里","LIN":"12鄰","STREET":"復興街","SECT":" ","MAREA":" ","LANE":" ","ALLEY":" ","HOUSE_NO":"５８號","E_COORD97":179856.97,"N_COORD97":2566452.4500000002,"ADDRESS":"復興街５８號","OBJECTID":539074},"geometry":{"x":179856.96999999974,"y":2566452.4500000011}},{"attributes":{"ID":539102,"DIS_CODE":0,"TOWNNAME":"官田區","LI":"隆本里","LIN":"12鄰","STREET":"復興街","SECT":" ","MAREA":" ","LANE":" ","ALLEY":" ","HOUSE_NO":"６０號","E_COORD97":179852.78,"N_COORD97":2566451.9500000002,"ADDRESS":"復興街６０號","OBJECTID":539075},"geometry":{"x":179852.78000000119,"y":2566451.9500000011}},{"attributes":{"ID":539103,"DIS_CODE":0,"TOWNNAME":"新市區","LI":"新和里","LIN":"12鄰","STREET":"可口街","SECT":" ","MAREA":" ","LANE":" ","ALLEY":" ","HOUSE_NO":"２６號","E_COORD97":177592.20999999999,"N_COORD97":2552416.5,"ADDRESS":"可口街２６號","OBJECTID":539076},"geometry":{"x":177592.20999999996,"y":2552416.5000000019}},{"attributes":{"ID":539104,"DIS_CODE":0,"TOWNNAME":"南區","LI":"國宅里","LIN":"17鄰","STREET":"新孝路","SECT":" ","MAREA":" ","LANE":" ","ALLEY":" ","HOUSE_NO":"６７號","E_COORD97":166816.23000000001,"N_COORD97":2542045.4199999999,"ADDRESS":"新孝路６７號","OBJECTID":539077},"geometry":{"x":166816.23000000045,"y":2542045.4200000018}},{"attributes":{"ID":539105,"DIS_CODE":0,"TOWNNAME":"南區","LI":"國宅里","LIN":"17鄰","STREET":"新孝路","SECT":" ","MAREA":" ","LANE":" ","ALLEY":" ","HOUSE_NO":"６９號","E_COORD97":166804.82999999999,"N_COORD97":2542046.2599999998,"ADDRESS":"新孝路６９號","OBJECTID":539078},"geometry":{"x":166804.83000000101,"y":2542046.2600000016}},{"attributes":{"ID":539106,"DIS_CODE":0,"TOWNNAME":"南區","LI":"國宅里","LIN":"17鄰","STREET":"新孝路","SECT":" ","MAREA":" ","LANE":" ","ALLEY":" ","HOUSE_NO":"７１號","E_COORD97":166795.76000000001,"N_COORD97":2542046.6800000002,"ADDRESS":"新孝路７１號","OBJECTID":539079},"geometry":{"x":166795.76000000164,"y":2542046.6800000016}},{"attributes":{"ID":539107,"DIS_CODE":0,"TOWNNAME":"麻豆區","LI":"大埕里","LIN":"12鄰","STREET":"平等路","SECT":" ","MAREA":" ","LANE":" ","ALLEY":" ","HOUSE_NO":"８號之２","E_COORD97":173059.06,"N_COORD97":2565108.4500000002,"ADDRESS":"平等路８號之２","OBJECTID":539080},"geometry":{"x":173059.06000000145,"y":2565108.450000003}},{"attributes":{"ID":539108,"DIS_CODE":0,"TOWNNAME":"麻豆區","LI":"\u25A0江里","LIN":"12鄰","STREET":"民生路","SECT":" ","MAREA":" ","LANE":" ","ALLEY":" ","HOUSE_NO":"１００號","E_COORD97":173722.48999999999,"N_COORD97":2564329.6899999999,"ADDRESS":"民生路１００號","OBJECTID":539081},"geometry":{"x":173722.49000000022,"y":2564329.6899999995}},{"attributes":{"ID":539109,"DIS_CODE":0,"TOWNNAME":"中西區","LI":"民權里","LIN":"12鄰","STREET":"神農街","SECT":" ","MAREA":" ","LANE":" ","ALLEY":" ","HOUSE_NO":"１０６號","E_COORD97":167583.10999999999,"N_COORD97":2544270.77,"ADDRESS":"神農街１０６號","OBJECTID":539082},"geometry":{"x":167583.11000000127,"y":2544270.7700000014}},{"attributes":{"ID":539110,"DIS_CODE":0,"TOWNNAME":"中西區","LI":"民權里","LIN":"12鄰","STREET":"神農街","SECT":" ","MAREA":" ","LANE":" ","ALLEY":" ","HOUSE_NO":"１０８號","E_COORD97":167578.51999999999,"N_COORD97":2544272.9500000002,"ADDRESS":"神農街１０８號","OBJECTID":539083},"geometry":{"x":167578.51999999955,"y":2544272.9500000011}},{"attributes":{"ID":539111,"DIS_CODE":0,"TOWNNAME":"中西區","LI":"民權里","LIN":"12鄰","STREET":"神農街","SECT":" ","MAREA":" ","LANE":" ","ALLEY":" ","HOUSE_NO":"９０號","E_COORD97":167614.70999999999,"N_COORD97":2544263.02,"ADDRESS":"神農街９０號","OBJECTID":539084},"geometry":{"x":167614.70999999996,"y":2544263.0199999996}},{"attributes":{"ID":539112,"DIS_CODE":0,"TOWNNAME":"中西區","LI":"民權里","LIN":"12鄰","STREET":"神農街","SECT":" ","MAREA":" ","LANE":" ","ALLEY":" ","HOUSE_NO":"９２號","E_COORD97":167610.69,"N_COORD97":2544264,"ADDRESS":"神農街９２號","OBJECTID":539085},"geometry":{"x":167610.69000000227,"y":2544264}},{"attributes":{"ID":539113,"DIS_CODE":0,"TOWNNAME":"中西區","LI":"民權里","LIN":"12鄰","STREET":"神農街","SECT":" ","MAREA":" ","LANE":" ","ALLEY":" ","HOUSE_NO":"９４號","E_COORD97":167606.31,"N_COORD97":2544266.8900000001,"ADDRESS":"神農街９４號","OBJECTID":539086},"geometry":{"x":167606.31000000052,"y":2544266.8900000025}},{"attributes":{"ID":539114,"DIS_CODE":0,"TOWNNAME":"中西區","LI":"民權里","LIN":"12鄰","STREET":"神農街","SECT":" ","MAREA":" ","LANE":" ","ALLEY":" ","HOUSE_NO":"９６號","E_COORD97":167602.07999999999,"N_COORD97":2544269.3599999999,"ADDRESS":"神農街９６號","OBJECTID":539087},"geometry":{"x":167602.08000000007,"y":2544269.3600000013}},{"attributes":{"ID":539115,"DIS_CODE":0,"TOWNNAME":"中西區","LI":"民權里","LIN":"12鄰","STREET":"康樂街","SECT":" ","MAREA":" ","LANE":" ","ALLEY":" ","HOUSE_NO":"２１８號","E_COORD97":167599.67999999999,"N_COORD97":2544271.1200000001,"ADDRESS":"康樂街２１８號","OBJECTID":539088},"geometry":{"x":167599.67999999877,"y":2544271.120000001}},{"attributes":{"ID":539116,"DIS_CODE":0,"TOWNNAME":"南區","LI":"國宅里","LIN":"17鄰","STREET":"新孝路","SECT":" ","MAREA":" ","LANE":" ","ALLEY":" ","HOUSE_NO":"８１號","E_COORD97":166727.01000000001,"N_COORD97":2542052.4900000002,"ADDRESS":"新孝路８１號","OBJECTID":539089},"geometry":{"x":166727.01000000071,"y":2542052.4900000021}},{"attributes":{"ID":539117,"DIS_CODE":0,"TOWNNAME":"南區","LI":"國宅里","LIN":"17鄰","STREET":"新孝路","SECT":" ","MAREA":" ","LANE":" ","ALLEY":" ","HOUSE_NO":"８５號","E_COORD97":166704.44,"N_COORD97":2542054.29,"ADDRESS":"新孝路８５號","OBJECTID":539090},"geometry":{"x":166704.44000000134,"y":2542054.2899999991}},{"attributes":{"ID":539118,"DIS_CODE":0,"TOWNNAME":"南區","LI":"喜東里","LIN":"6鄰","STREET":"喜樹路","SECT":" ","MAREA":" ","LANE":" ","ALLEY":" ","HOUSE_NO":"８１號","E_COORD97":165902.97,"N_COORD97":2538344.8700000001,"ADDRESS":"喜樹路８１號","OBJECTID":539091},"geometry":{"x":165902.97000000067,"y":2538344.8700000029}},{"attributes":{"ID":539119,"DIS_CODE":0,"TOWNNAME":"中西區","LI":"民權里","LIN":"12鄰","STREET":"康樂街","SECT":" ","MAREA":" ","LANE":" ","ALLEY":" ","HOUSE_NO":"３１９號","E_COORD97":167593.70999999999,"N_COORD97":2544305.3100000001,"ADDRESS":"康樂街３１９號","OBJECTID":539092},"geometry":{"x":167593.71000000089,"y":2544305.3100000024}},{"attributes":{"ID":539120,"DIS_CODE":0,"TOWNNAME":"中西區","LI":"民權里","LIN":"12鄰","STREET":"金華路","SECT":"四段","MAREA":" ","LANE":" ","ALLEY":" ","HOUSE_NO":"７２號","E_COORD97":167449.04999999999,"N_COORD97":2544276.8700000001,"ADDRESS":"金華路四段７２號","OBJECTID":539093},"geometry":{"x":167449.05000000075,"y":2544276.8699999992}},{"attributes":{"ID":539121,"DIS_CODE":0,"TOWNNAME":"中西區","LI":"民權里","LIN":"12鄰","STREET":"金華路","SECT":"四段","MAREA":" ","LANE":" ","ALLEY":" ","HOUSE_NO":"７４號","E_COORD97":167455.67999999999,"N_COORD97":2544281.2200000002,"ADDRESS":"金華路四段７４號","OBJECTID":539094},"geometry":{"x":167455.68000000156,"y":2544281.2200000044}},{"attributes":{"ID":539122,"DIS_CODE":0,"TOWNNAME":"中西區","LI":"民權里","LIN":"12鄰","STREET":"金華路","SECT":"四段","MAREA":" ","LANE":" ","ALLEY":" ","HOUSE_NO":"７６號","E_COORD97":167459.98999999999,"N_COORD97":2544285.3100000001,"ADDRESS":"金華路四段７６號","OBJECTID":539095},"geometry":{"x":167459.99000000115,"y":2544285.3100000024}},{"attributes":{"ID":539123,"DIS_CODE":0,"TOWNNAME":"中西區","LI":"民權里","LIN":"12鄰","STREET":"金華路","SECT":"四段","MAREA":" ","LANE":" ","ALLEY":" ","HOUSE_NO":"７８號","E_COORD97":167463.79999999999,"N_COORD97":2544293.8599999999,"ADDRESS":"金華路四段７８號","OBJECTID":539096},"geometry":{"x":167463.80000000075,"y":2544293.8600000013}},{"attributes":{"ID":539124,"DIS_CODE":0,"TOWNNAME":"中西區","LI":"民權里","LIN":"12鄰","STREET":"金華路","SECT":"四段","MAREA":" ","LANE":" ","ALLEY":" ","HOUSE_NO":"７８號之１","E_COORD97":167461.67999999999,"N_COORD97":2544289.3999999999,"ADDRESS":"金華路四段７８號之１","OBJECTID":539097},"geometry":{"x":167461.6799999997,"y":2544289.4000000004}},{"attributes":{"ID":539125,"DIS_CODE":0,"TOWNNAME":"中西區","LI":"民權里","LIN":"12鄰","STREET":"金華路","SECT":"四段","MAREA":" ","LANE":" ","ALLEY":" ","HOUSE_NO":"８０號","E_COORD97":167465.70999999999,"N_COORD97":2544298.3799999999,"ADDRESS":"金華路四段８０號","OBJECTID":539098},"geometry":{"x":167465.70999999996,"y":2544298.3799999971}},{"attributes":{"ID":539126,"DIS_CODE":0,"TOWNNAME":"中西區","LI":"民權里","LIN":"12鄰","STREET":"金華路","SECT":"四段","MAREA":" ","LANE":" ","ALLEY":" ","HOUSE_NO":"８２號","E_COORD97":167465.70999999999,"N_COORD97":2544301.98,"ADDRESS":"金華路四段８２號","OBJECTID":539099},"geometry":{"x":167465.70999999996,"y":2544301.9800000004}},{"attributes":{"ID":539127,"DIS_CODE":0,"TOWNNAME":"中西區","LI":"民權里","LIN":"12鄰","STREET":"神農街","SECT":" ","MAREA":" ","LANE":" ","ALLEY":" ","HOUSE_NO":"１１５號","E_COORD97":167551.01000000001,"N_COORD97":2544267.0800000001,"ADDRESS":"神農街１１５號","OBJECTID":539100},"geometry":{"x":167551.01000000071,"y":2544267.0800000001}},{"attributes":{"ID":539128,"DIS_CODE":0,"TOWNNAME":"中西區","LI":"民權里","LIN":"12鄰","STREET":"神農街","SECT":" ","MAREA":" ","LANE":" ","ALLEY":" ","HOUSE_NO":"１１７號","E_COORD97":167545.89999999999,"N_COORD97":2544269.4100000001,"ADDRESS":"神農街１１７號","OBJECTID":539101},"geometry":{"x":167545.90000000037,"y":2544269.410000002}},{"attributes":{"ID":539129,"DIS_CODE":0,"TOWNNAME":"中西區","LI":"民權里","LIN":"12鄰","STREET":"神農街","SECT":" ","MAREA":" ","LANE":" ","ALLEY":" ","HOUSE_NO":"１１９號","E_COORD97":167541.45000000001,"N_COORD97":2544271.2999999998,"ADDRESS":"神農街１１９號","OBJECTID":539102},"geometry":{"x":167541.45000000112,"y":2544271.3000000026}},{"attributes":{"ID":539130,"DIS_CODE":0,"TOWNNAME":"中西區","LI":"民權里","LIN":"12鄰","STREET":"神農街","SECT":" ","MAREA":" ","LANE":" ","ALLEY":" ","HOUSE_NO":"１２１號","E_COORD97":167537.84,"N_COORD97":2544272.7799999998,"ADDRESS":"神農街１２１號","OBJECTID":539103},"geometry":{"x":167537.84000000171,"y":2544272.7800000031}},{"attributes":{"ID":539131,"DIS_CODE":0,"TOWNNAME":"中西區","LI":"民權里","LIN":"12鄰","STREET":"神農街","SECT":" ","MAREA":" ","LANE":" ","ALLEY":" ","HOUSE_NO":"１２３號","E_COORD97":167529.66,"N_COORD97":2544276.0899999999,"ADDRESS":"神農街１２３號","OBJECTID":539104},"geometry":{"x":167529.66000000108,"y":2544276.0899999999}},{"attributes":{"ID":539132,"DIS_CODE":0,"TOWNNAME":"中西區","LI":"民權里","LIN":"12鄰","STREET":"神農街","SECT":" ","MAREA":" ","LANE":" ","ALLEY":" ","HOUSE_NO":"１２５號","E_COORD97":167520.57000000001,"N_COORD97":2544270.5800000001,"ADDRESS":"神農街１２５號","OBJECTID":539105},"geometry":{"x":167520.57000000123,"y":2544270.5800000001}},{"attributes":{"ID":539133,"DIS_CODE":0,"TOWNNAME":"中西區","LI":"民權里","LIN":"12鄰","STREET":"神農街","SECT":" ","MAREA":" ","LANE":" ","ALLEY":" ","HOUSE_NO":"１２７號","E_COORD97":167517.32000000001,"N_COORD97":2544272.1299999999,"ADDRESS":"神農街１２７號","OBJECTID":539106},"geometry":{"x":167517.3200000003,"y":2544272.129999999}},{"attributes":{"ID":539134,"DIS_CODE":0,"TOWNNAME":"中西區","LI":"民權里","LIN":"12鄰","STREET":"神農街","SECT":" ","MAREA":" ","LANE":" ","ALLEY":" ","HOUSE_NO":"１２９號","E_COORD97":167515.98000000001,"N_COORD97":2544278.77,"ADDRESS":"神農街１２９號","OBJECTID":539107},"geometry":{"x":167515.98000000138,"y":2544278.7699999996}},{"attributes":{"ID":539135,"DIS_CODE":0,"TOWNNAME":"中西區","LI":"民權里","LIN":"12鄰","STREET":"神農街","SECT":" ","MAREA":" ","LANE":" ","ALLEY":" ","HOUSE_NO":"１３３號","E_COORD97":167510.34,"N_COORD97":2544281.1600000001,"ADDRESS":"神農街１３３號","OBJECTID":539108},"geometry":{"x":167510.33999999985,"y":2544281.1600000039}},{"attributes":{"ID":539136,"DIS_CODE":0,"TOWNNAME":"中西區","LI":"民權里","LIN":"12鄰","STREET":"神農街","SECT":" ","MAREA":" ","LANE":" ","ALLEY":" ","HOUSE_NO":"１３５號","E_COORD97":167503.56,"N_COORD97":2544290.1000000001,"ADDRESS":"神農街１３５號","OBJECTID":539109},"geometry":{"x":167503.55999999959,"y":2544290.0999999996}},{"attributes":{"ID":539137,"DIS_CODE":0,"TOWNNAME":"中西區","LI":"民權里","LIN":"12鄰","STREET":"神農街","SECT":" ","MAREA":" ","LANE":" ","ALLEY":" ","HOUSE_NO":"１３９號","E_COORD97":167495.85000000001,"N_COORD97":2544286.7400000002,"ADDRESS":"神農街１３９號","OBJECTID":539110},"geometry":{"x":167495.85000000056,"y":2544286.7400000002}},{"attributes":{"ID":539138,"DIS_CODE":0,"TOWNNAME":"中西區","LI":"民權里","LIN":"12鄰","STREET":"神農街","SECT":" ","MAREA":" ","LANE":" ","ALLEY":" ","HOUSE_NO":"１４３號","E_COORD97":167481.59,"N_COORD97":2544290.3399999999,"ADDRESS":"神農街１４３號","OBJECTID":539111},"geometry":{"x":167481.58999999985,"y":2544290.3400000017}},{"attributes":{"ID":539139,"DIS_CODE":0,"TOWNNAME":"中西區","LI":"民權里","LIN":"12鄰","STREET":"神農街","SECT":" ","MAREA":" ","LANE":" ","ALLEY":" ","HOUSE_NO":"１４５號","E_COORD97":167480.32000000001,"N_COORD97":2544297.25,"ADDRESS":"神農街１４５號","OBJECTID":539112},"geometry":{"x":167480.3200000003,"y":2544297.2500000037}},{"attributes":{"ID":539140,"DIS_CODE":0,"TOWNNAME":"中西區","LI":"民權里","LIN":"12鄰","STREET":"神農街","SECT":" ","MAREA":" ","LANE":" ","ALLEY":" ","HOUSE_NO":"１４７號","E_COORD97":167477.14000000001,"N_COORD97":2544298.3700000001,"ADDRESS":"神農街１４７號","OBJECTID":539113},"geometry":{"x":167477.13999999966,"y":2544298.3700000029}},{"attributes":{"ID":539141,"DIS_CODE":0,"TOWNNAME":"中西區","LI":"民權里","LIN":"12鄰","STREET":"神農街","SECT":" ","MAREA":" ","LANE":" ","ALLEY":" ","HOUSE_NO":"１０３號","E_COORD97":167574.89999999999,"N_COORD97":2544259.3399999999,"ADDRESS":"神農街１０３號","OBJECTID":539114},"geometry":{"x":167574.90000000037,"y":2544259.3400000036}},{"attributes":{"ID":539142,"DIS_CODE":0,"TOWNNAME":"中西區","LI":"民權里","LIN":"12鄰","STREET":"神農街","SECT":" ","MAREA":" ","LANE":" ","ALLEY":" ","HOUSE_NO":"１０５號","E_COORD97":167571.85999999999,"N_COORD97":2544260.6099999999,"ADDRESS":"神農街１０５號","OBJECTID":539115},"geometry":{"x":167571.86000000034,"y":2544260.6100000013}},{"attributes":{"ID":539143,"DIS_CODE":0,"TOWNNAME":"中西區","LI":"民權里","LIN":"12鄰","STREET":"神農街","SECT":" ","MAREA":" ","LANE":" ","ALLEY":" ","HOUSE_NO":"１０９號","E_COORD97":167562.76000000001,"N_COORD97":2544261.5800000001,"ADDRESS":"神農街１０９號","OBJECTID":539116},"geometry":{"x":167562.76000000071,"y":2544261.5800000019}},{"attributes":{"ID":539144,"DIS_CODE":0,"TOWNNAME":"中西區","LI":"民權里","LIN":"12鄰","STREET":"神農街","SECT":" ","MAREA":" ","LANE":" ","ALLEY":" ","HOUSE_NO":"１１１號","E_COORD97":167559.44,"N_COORD97":2544263.3399999999,"ADDRESS":"神農街１１１號","OBJECTID":539117},"geometry":{"x":167559.44000000041,"y":2544263.3400000017}},{"attributes":{"ID":539145,"DIS_CODE":0,"TOWNNAME":"中西區","LI":"民權里","LIN":"12鄰","STREET":"神農街","SECT":" ","MAREA":" ","LANE":" ","ALLEY":" ","HOUSE_NO":"１１３號","E_COORD97":167556.17000000001,"N_COORD97":2544265.3199999998,"ADDRESS":"神農街１１３號","OBJECTID":539118},"geometry":{"x":167556.17000000086,"y":2544265.3200000003}},{"attributes":{"ID":539146,"DIS_CODE":0,"TOWNNAME":"中西區","LI":"民權里","LIN":"12鄰","STREET":"神農街","SECT":" ","MAREA":" ","LANE":" ","ALLEY":" ","HOUSE_NO":"９３號","E_COORD97":167594.22,"N_COORD97":2544251.5299999998,"ADDRESS":"神農街９３號","OBJECTID":539119},"geometry":{"x":167594.21999999974,"y":2544251.5300000012}},{"attributes":{"ID":539147,"DIS_CODE":0,"TOWNNAME":"中西區","LI":"民權里","LIN":"12鄰","STREET":"神農街","SECT":" ","MAREA":" ","LANE":" ","ALLEY":" ","HOUSE_NO":"９５號","E_COORD97":167591.54000000001,"N_COORD97":2544253.9199999999,"ADDRESS":"神農街９５號","OBJECTID":539120},"geometry":{"x":167591.54000000097,"y":2544253.9199999999}},{"attributes":{"ID":539148,"DIS_CODE":0,"TOWNNAME":"中西區","LI":"民權里","LIN":"12鄰","STREET":"康樂街","SECT":" ","MAREA":" ","LANE":" ","ALLEY":" ","HOUSE_NO":"３０３號","E_COORD97":167575.32000000001,"N_COORD97":2544245.52,"ADDRESS":"康樂街３０３號","OBJECTID":539121},"geometry":{"x":167575.3200000003,"y":2544245.5200000014}},{"attributes":{"ID":539149,"DIS_CODE":0,"TOWNNAME":"中西區","LI":"民權里","LIN":"12鄰","STREET":"康樂街","SECT":" ","MAREA":" ","LANE":" ","ALLEY":" ","HOUSE_NO":"３０５號","E_COORD97":167581.04000000001,"N_COORD97":2544256.4500000002,"ADDRESS":"康樂街３０５號","OBJECTID":539122},"geometry":{"x":167581.04000000097,"y":2544256.4499999993}},{"attributes":{"ID":539150,"DIS_CODE":0,"TOWNNAME":"中西區","LI":"協和里","LIN":"12鄰","STREET":"中和街","SECT":" ","MAREA":" ","LANE":" ","ALLEY":" ","HOUSE_NO":"２１９號","E_COORD97":167319.39999999999,"N_COORD97":2544830.29,"ADDRESS":"中和街２１９號","OBJECTID":539123},"geometry":{"x":167319.40000000224,"y":2544830.2899999991}},{"attributes":{"ID":539151,"DIS_CODE":0,"TOWNNAME":"中西區","LI":"協和里","LIN":"12鄰","STREET":"中和街","SECT":" ","MAREA":" ","LANE":" ","ALLEY":" ","HOUSE_NO":"２３５號","E_COORD97":167332.98999999999,"N_COORD97":2544838.8100000001,"ADDRESS":"中和街２３５號","OBJECTID":539124},"geometry":{"x":167332.99000000022,"y":2544838.8100000005}},{"attributes":{"ID":539152,"DIS_CODE":0,"TOWNNAME":"中西區","LI":"協和里","LIN":"12鄰","STREET":"文賢路","SECT":" ","MAREA":" ","LANE":" ","ALLEY":" ","HOUSE_NO":"１８１號","E_COORD97":167344.07999999999,"N_COORD97":2544841.9399999999,"ADDRESS":"文賢路１８１號","OBJECTID":539125},"geometry":{"x":167344.08000000007,"y":2544841.9400000013}},{"attributes":{"ID":539153,"DIS_CODE":0,"TOWNNAME":"中西區","LI":"協和里","LIN":"12鄰","STREET":"文賢路","SECT":" ","MAREA":" ","LANE":" ","ALLEY":" ","HOUSE_NO":"１８５號","E_COORD97":167337.76999999999,"N_COORD97":2544851.21,"ADDRESS":"文賢路１８５號","OBJECTID":539126},"geometry":{"x":167337.76999999955,"y":2544851.2100000046}},{"attributes":{"ID":539154,"DIS_CODE":0,"TOWNNAME":"中西區","LI":"協和里","LIN":"12鄰","STREET":"文賢路","SECT":" ","MAREA":" ","LANE":" ","ALLEY":" ","HOUSE_NO":"１８７號","E_COORD97":167339.04000000001,"N_COORD97":2544858.2000000002,"ADDRESS":"文賢路１８７號","OBJECTID":539127},"geometry":{"x":167339.04000000097,"y":2544858.1999999993}},{"attributes":{"ID":539155,"DIS_CODE":0,"TOWNNAME":"中西區","LI":"協和里","LIN":"12鄰","STREET":"文賢路","SECT":" ","MAREA":" ","LANE":" ","ALLEY":" ","HOUSE_NO":"１８９號","E_COORD97":167335.48000000001,"N_COORD97":2544862.7799999998,"ADDRESS":"文賢路１８９號","OBJECTID":539128},"geometry":{"x":167335.48000000045,"y":2544862.7800000012}},{"attributes":{"ID":539156,"DIS_CODE":0,"TOWNNAME":"中西區","LI":"協和里","LIN":"12鄰","STREET":"文賢路","SECT":" ","MAREA":" ","LANE":" ","ALLEY":" ","HOUSE_NO":"１９１號","E_COORD97":167334.56,"N_COORD97":2544869.1400000001,"ADDRESS":"文賢路１９１號","OBJECTID":539129},"geometry":{"x":167334.56000000052,"y":2544869.1400000025}},{"attributes":{"ID":539157,"DIS_CODE":0,"TOWNNAME":"中西區","LI":"協和里","LIN":"12鄰","STREET":"西和路","SECT":" ","MAREA":" ","LANE":" ","ALLEY":" ","HOUSE_NO":"２９４號","E_COORD97":167275.23000000001,"N_COORD97":2544848.8700000001,"ADDRESS":"西和路２９４號","OBJECTID":539130},"geometry":{"x":167275.23000000138,"y":2544848.870000001}},{"attributes":{"ID":539158,"DIS_CODE":0,"TOWNNAME":"中西區","LI":"協和里","LIN":"12鄰","STREET":"西和路","SECT":" ","MAREA":" ","LANE":" ","ALLEY":" ","HOUSE_NO":"３０６號","E_COORD97":167311.23999999999,"N_COORD97":2544864.5800000001,"ADDRESS":"西和路３０６號","OBJECTID":539131},"geometry":{"x":167311.24000000022,"y":2544864.5800000038}},{"attributes":{"ID":539159,"DIS_CODE":0,"TOWNNAME":"中西區","LI":"協和里","LIN":"12鄰","STREET":"西和路","SECT":" ","MAREA":" ","LANE":" ","ALLEY":" ","HOUSE_NO":"３１０號","E_COORD97":167315.62,"N_COORD97":2544866.3199999998,"ADDRESS":"西和路３１０號","OBJECTID":539132},"geometry":{"x":167315.62000000011,"y":2544866.3200000003}},{"attributes":{"ID":539160,"DIS_CODE":0,"TOWNNAME":"中西區","LI":"協和里","LIN":"12鄰","STREET":"西和路","SECT":" ","MAREA":" ","LANE":" ","ALLEY":" ","HOUSE_NO":"３１２號","E_COORD97":167324.01000000001,"N_COORD97":2544867.6499999999,"ADDRESS":"西和路３１２號","OBJECTID":539133},"geometry":{"x":167324.00999999978,"y":2544867.6499999985}},{"attributes":{"ID":539161,"DIS_CODE":0,"TOWNNAME":"中西區","LI":"協進里","LIN":"11鄰","STREET":"民生路","SECT":"二段","MAREA":" ","LANE":" ","ALLEY":" ","HOUSE_NO":"４０２號","E_COORD97":166745.5,"N_COORD97":2544296.6499999999,"ADDRESS":"民生路二段４０２號","OBJECTID":539134},"geometry":{"x":166745.50000000093,"y":2544296.6500000004}},{"attributes":{"ID":539162,"DIS_CODE":0,"TOWNNAME":"永康區","LI":"永康里","LIN":"12鄰","STREET":"永中街","SECT":" ","MAREA":" ","LANE":" ","ALLEY":" ","HOUSE_NO":"１２號","E_COORD97":173868.14000000001,"N_COORD97":2547047.04,"ADDRESS":"永中街１２號","OBJECTID":539135},"geometry":{"x":173868.13999999966,"y":2547047.0399999972}},{"attributes":{"ID":539163,"DIS_CODE":0,"TOWNNAME":"永康區","LI":"永康里","LIN":"12鄰","STREET":"永中街","SECT":" ","MAREA":" ","LANE":" ","ALLEY":" ","HOUSE_NO":"１２之１號","E_COORD97":173869.87,"N_COORD97":2547051.1299999999,"ADDRESS":"永中街１２之１號","OBJECTID":539136},"geometry":{"x":173869.87000000104,"y":2547051.1300000008}},{"attributes":{"ID":539164,"DIS_CODE":0,"TOWNNAME":"佳里區","LI":"鎮山里","LIN":"12鄰","STREET":"中山路","SECT":" ","MAREA":" ","LANE":" ","ALLEY":" ","HOUSE_NO":"２號","E_COORD97":165864.62,"N_COORD97":2561587.04,"ADDRESS":"中山路２號","OBJECTID":539137},"geometry":{"x":165864.62000000011,"y":2561587.0399999991}},{"attributes":{"ID":539165,"DIS_CODE":0,"TOWNNAME":"新化區","LI":"東榮里","LIN":"12鄰","STREET":"中興路","SECT":" ","MAREA":" ","LANE":" ","ALLEY":" ","HOUSE_NO":"５４８號","E_COORD97":179938.10999999999,"N_COORD97":2547924.25,"ADDRESS":"中興路５４８號","OBJECTID":539138},"geometry":{"x":179938.11000000034,"y":2547924.25}},{"attributes":{"ID":539166,"DIS_CODE":0,"TOWNNAME":"新化區","LI":"豐榮里","LIN":"12鄰","STREET":"正新路","SECT":" ","MAREA":" ","LANE":" ","ALLEY":" ","HOUSE_NO":"８５號","E_COORD97":178586.97,"N_COORD97":2548041.25,"ADDRESS":"正新路８５號","OBJECTID":539139},"geometry":{"x":178586.96999999974,"y":2548041.2500000019}},{"attributes":{"ID":539167,"DIS_CODE":0,"TOWNNAME":"新化區","LI":"東榮里","LIN":"12鄰","STREET":"中興路","SECT":" ","MAREA":" ","LANE":" ","ALLEY":" ","HOUSE_NO":"５４４號","E_COORD97":179947.81,"N_COORD97":2547920.25,"ADDRESS":"中興路５４４號","OBJECTID":539140},"geometry":{"x":179947.80999999959,"y":2547920.25}},{"attributes":{"ID":539168,"DIS_CODE":0,"TOWNNAME":"新化區","LI":"豐榮里","LIN":"12鄰","STREET":"正新路","SECT":" ","MAREA":" ","LANE":" ","ALLEY":" ","HOUSE_NO":"５５號","E_COORD97":178615.57000000001,"N_COORD97":2547978.25,"ADDRESS":"正新路５５號","OBJECTID":539141},"geometry":{"x":178615.57000000123,"y":2547978.25}},{"attributes":{"ID":539169,"DIS_CODE":0,"TOWNNAME":"新化區","LI":"太平里","LIN":"12鄰","STREET":"中正路","SECT":" ","MAREA":" ","LANE":" ","ALLEY":" ","HOUSE_NO":"６５７號","E_COORD97":178854.91,"N_COORD97":2549007.25,"ADDRESS":"中正路６５７號","OBJECTID":539142},"geometry":{"x":178854.91000000201,"y":2549007.2500000019}},{"attributes":{"ID":539170,"DIS_CODE":0,"TOWNNAME":"新化區","LI":"豐榮里","LIN":"12鄰","STREET":"正新路","SECT":" ","MAREA":" ","LANE":" ","ALLEY":" ","HOUSE_NO":"１４９號","E_COORD97":178539.92000000001,"N_COORD97":2548176.2400000002,"ADDRESS":"正新路１４９號","OBJECTID":539143},"geometry":{"x":178539.92000000086,"y":2548176.2400000039}},{"attributes":{"ID":539171,"DIS_CODE":0,"TOWNNAME":"新化區","LI":"東榮里","LIN":"12鄰","STREET":"中興路","SECT":" ","MAREA":" ","LANE":" ","ALLEY":" ","HOUSE_NO":"５２８號","E_COORD97":179988.51000000001,"N_COORD97":2547918.25,"ADDRESS":"中興路５２８號","OBJECTID":539144},"geometry":{"x":179988.51000000071,"y":2547918.2500000037}},{"attributes":{"ID":539172,"DIS_CODE":0,"TOWNNAME":"新化區","LI":"豐榮里","LIN":"12鄰","STREET":"正新路","SECT":" ","MAREA":" ","LANE":" ","ALLEY":" ","HOUSE_NO":"９３號","E_COORD97":178581.67000000001,"N_COORD97":2548058.25,"ADDRESS":"正新路９３號","OBJECTID":539145},"geometry":{"x":178581.67000000179,"y":2548058.2500000019}},{"attributes":{"ID":539173,"DIS_CODE":0,"TOWNNAME":"新化區","LI":"豐榮里","LIN":"12鄰","STREET":"正新路","SECT":" ","MAREA":" ","LANE":" ","ALLEY":" ","HOUSE_NO":"５３號","E_COORD97":178600.07000000001,"N_COORD97":2547977.25,"ADDRESS":"正新路５３號","OBJECTID":539146},"geometry":{"x":178600.07000000123,"y":2547977.2500000019}},{"attributes":{"ID":539174,"DIS_CODE":0,"TOWNNAME":"佳里區","LI":"忠仁里","LIN":"10鄰","STREET":"興中街","SECT":" ","MAREA":" ","LANE":" ","ALLEY":" ","HOUSE_NO":"３８號","E_COORD97":165927.70999999999,"N_COORD97":2562201.4300000002,"ADDRESS":"興中街３８號","OBJECTID":539147},"geometry":{"x":165927.70999999996,"y":2562201.4300000016}},{"attributes":{"ID":539175,"DIS_CODE":0,"TOWNNAME":"永康區","LI":"三民里","LIN":"12鄰","STREET":"正北五路","SECT":" ","MAREA":" ","LANE":" ","ALLEY":" ","HOUSE_NO":"１３６號","E_COORD97":174552.57999999999,"N_COORD97":2550295.73,"ADDRESS":"正北五路１３６號","OBJECTID":539148},"geometry":{"x":174552.58000000007,"y":2550295.7300000023}},{"attributes":{"ID":539176,"DIS_CODE":0,"TOWNNAME":"永康區","LI":"復興里","LIN":"12鄰","STREET":"復興路","SECT":" ","MAREA":" ","LANE":" ","ALLEY":" ","HOUSE_NO":"３３６號","E_COORD97":172263.44,"N_COORD97":2544343.8700000001,"ADDRESS":"復興路３３６號","OBJECTID":539149},"geometry":{"x":172263.44000000041,"y":2544343.870000001}},{"attributes":{"ID":539177,"DIS_CODE":0,"TOWNNAME":"永康區","LI":"永康里","LIN":"12鄰","STREET":"永二街","SECT":" ","MAREA":" ","LANE":" ","ALLEY":" ","HOUSE_NO":"２５號","E_COORD97":173787.38,"N_COORD97":2547085.9900000002,"ADDRESS":"永二街２５號","OBJECTID":539150},"geometry":{"x":173787.37999999989,"y":2547085.9900000039}},{"attributes":{"ID":539178,"DIS_CODE":0,"TOWNNAME":"中西區","LI":"銀同里","LIN":"12鄰","STREET":"友愛東街","SECT":" ","MAREA":" ","LANE":" ","ALLEY":" ","HOUSE_NO":"１６號","E_COORD97":168683.23000000001,"N_COORD97":2543576.8999999999,"ADDRESS":"友愛東街１６號","OBJECTID":539151},"geometry":{"x":168683.23000000045,"y":2543576.9000000004}},{"attributes":{"ID":539179,"DIS_CODE":0,"TOWNNAME":"中西區","LI":"銀同里","LIN":"12鄰","STREET":"友愛東街","SECT":" ","MAREA":" ","LANE":" ","ALLEY":" ","HOUSE_NO":"１８號","E_COORD97":168675.25,"N_COORD97":2543577.3900000001,"ADDRESS":"友愛東街１８號","OBJECTID":539152},"geometry":{"x":168675.25,"y":2543577.3900000006}},{"attributes":{"ID":539180,"DIS_CODE":0,"TOWNNAME":"中西區","LI":"銀同里","LIN":"12鄰","STREET":"友愛東街","SECT":" ","MAREA":" ","LANE":" ","ALLEY":" ","HOUSE_NO":"２０號","E_COORD97":168665.79000000001,"N_COORD97":2543564.8599999999,"ADDRESS":"友愛東街２０號","OBJECTID":539153},"geometry":{"x":168665.7900000019,"y":2543564.8600000013}},{"attributes":{"ID":539181,"DIS_CODE":0,"TOWNNAME":"中西區","LI":"銀同里","LIN":"12鄰","STREET":"友愛東街","SECT":" ","MAREA":" ","LANE":" ","ALLEY":" ","HOUSE_NO":"２４號","E_COORD97":168657.32000000001,"N_COORD97":2543557.04,"ADDRESS":"友愛東街２４號","OBJECTID":539154},"geometry":{"x":168657.32000000216,"y":2543557.0399999991}},{"attributes":{"ID":539182,"DIS_CODE":0,"TOWNNAME":"仁德區","LI":"新田里","LIN":"12鄰","STREET":"民安路","SECT":"一段","MAREA":" ","LANE":" ","ALLEY":" ","HOUSE_NO":"４３９號","E_COORD97":173167.59,"N_COORD97":2539371.0699999998,"ADDRESS":"民安路一段４３９號","OBJECTID":539155},"geometry":{"x":173167.59000000171,"y":2539371.0700000003}},{"attributes":{"ID":539183,"DIS_CODE":0,"TOWNNAME":"仁德區","LI":"新田里","LIN":"12鄰","STREET":"民安路","SECT":"一段","MAREA":" ","LANE":" ","ALLEY":" ","HOUSE_NO":"４０１號","E_COORD97":173069.85000000001,"N_COORD97":2539439.5600000001,"ADDRESS":"民安路一段４０１號","OBJECTID":539156},"geometry":{"x":173069.84999999963,"y":2539439.5600000005}},{"attributes":{"ID":539184,"DIS_CODE":0,"TOWNNAME":"仁德區","LI":"後壁里","LIN":"12鄰","STREET":"德善路","SECT":" ","MAREA":" ","LANE":" ","ALLEY":" ","HOUSE_NO":"２３０號","E_COORD97":173804.87,"N_COORD97":2538655.27,"ADDRESS":"德善路２３０號","OBJECTID":539157},"geometry":{"x":173804.87000000011,"y":2538655.2700000014}},{"attributes":{"ID":539185,"DIS_CODE":0,"TOWNNAME":"仁德區","LI":"新田里","LIN":"12鄰","STREET":"民安路","SECT":"一段","MAREA":" ","LANE":" ","ALLEY":" ","HOUSE_NO":"２７１號","E_COORD97":172612.62,"N_COORD97":2539771.8100000001,"ADDRESS":"民安路一段２７１號","OBJECTID":539158},"geometry":{"x":172612.62000000011,"y":2539771.8100000024}},{"attributes":{"ID":539186,"DIS_CODE":0,"TOWNNAME":"仁德區","LI":"新田里","LIN":"12鄰","STREET":"民安路","SECT":"一段","MAREA":" ","LANE":" ","ALLEY":" ","HOUSE_NO":"３０９號","E_COORD97":172678.07999999999,"N_COORD97":2539716.0699999998,"ADDRESS":"民安路一段３０９號","OBJECTID":539159},"geometry":{"x":172678.08000000194,"y":2539716.0700000022}},{"attributes":{"ID":539187,"DIS_CODE":0,"TOWNNAME":"仁德區","LI":"後壁里","LIN":"12鄰","STREET":"德善路","SECT":" ","MAREA":" ","LANE":" ","ALLEY":" ","HOUSE_NO":"２６６號","E_COORD97":173924.85999999999,"N_COORD97":2538589.5099999998,"ADDRESS":"德善路２６６號","OBJECTID":539160},"geometry":{"x":173924.86000000034,"y":2538589.5100000016}},{"attributes":{"ID":539188,"DIS_CODE":0,"TOWNNAME":"仁德區","LI":"後壁里","LIN":"12鄰","STREET":"德善路","SECT":" ","MAREA":" ","LANE":" ","ALLEY":" ","HOUSE_NO":"２０８號","E_COORD97":173759.91,"N_COORD97":2538729.2599999998,"ADDRESS":"德善路２０８號","OBJECTID":539161},"geometry":{"x":173759.91000000015,"y":2538729.2599999998}},{"attributes":{"ID":539189,"DIS_CODE":0,"TOWNNAME":"仁德區","LI":"新田里","LIN":"12鄰","STREET":"民安路","SECT":"一段","MAREA":" ","LANE":" ","ALLEY":" ","HOUSE_NO":"３１１號","E_COORD97":172688.42999999999,"N_COORD97":2539710.3199999998,"ADDRESS":"民安路一段３１１號","OBJECTID":539162},"geometry":{"x":172688.4299999997,"y":2539710.3200000022}},{"attributes":{"ID":539190,"DIS_CODE":0,"TOWNNAME":"仁德區","LI":"後壁里","LIN":"12鄰","STREET":"德善路","SECT":" ","MAREA":" ","LANE":" ","ALLEY":" ","HOUSE_NO":"２７６號","E_COORD97":173960.5,"N_COORD97":2538463.77,"ADDRESS":"德善路２７６號","OBJECTID":539163},"geometry":{"x":173960.50000000093,"y":2538463.7699999996}},{"attributes":{"ID":539191,"DIS_CODE":0,"TOWNNAME":"仁德區","LI":"新田里","LIN":"12鄰","STREET":"民安路","SECT":"一段","MAREA":" ","LANE":" ","ALLEY":" ","HOUSE_NO":"３１３號之１","E_COORD97":172706.31,"N_COORD97":2539697.3199999998,"ADDRESS":"民安路一段３１３號之１","OBJECTID":539164},"geometry":{"x":172706.30999999866,"y":2539697.3200000022}},{"attributes":{"ID":539192,"DIS_CODE":0,"TOWNNAME":"仁德區","LI":"後壁里","LIN":"12鄰","STREET":"德善路","SECT":" ","MAREA":" ","LANE":" ","ALLEY":" ","HOUSE_NO":"２５０號","E_COORD97":173869.14999999999,"N_COORD97":2538648.52,"ADDRESS":"德善路２５０號","OBJECTID":539165},"geometry":{"x":173869.15000000037,"y":2538648.5199999996}},{"attributes":{"ID":539193,"DIS_CODE":0,"TOWNNAME":"仁德區","LI":"後壁里","LIN":"12鄰","STREET":"德善路","SECT":" ","MAREA":" ","LANE":" ","ALLEY":" ","HOUSE_NO":"２２２號","E_COORD97":173792.64999999999,"N_COORD97":2538684.27,"ADDRESS":"德善路２２２號","OBJECTID":539166},"geometry":{"x":173792.65000000037,"y":2538684.2699999996}},{"attributes":{"ID":539194,"DIS_CODE":0,"TOWNNAME":"仁德區","LI":"後壁里","LIN":"12鄰","STREET":"德善路","SECT":" ","MAREA":" ","LANE":" ","ALLEY":" ","HOUSE_NO":"２３８之１號","E_COORD97":173841.01999999999,"N_COORD97":2538670.2999999998,"ADDRESS":"德善路２３８之１號","OBJECTID":539167},"geometry":{"x":173841.02000000048,"y":2538670.3000000026}},{"attributes":{"ID":539195,"DIS_CODE":0,"TOWNNAME":"仁德區","LI":"新田里","LIN":"12鄰","STREET":"民安路","SECT":"一段","MAREA":" ","LANE":" ","ALLEY":" ","HOUSE_NO":"４０５號","E_COORD97":173075.85000000001,"N_COORD97":2539432.5600000001,"ADDRESS":"民安路一段４０５號","OBJECTID":539168},"geometry":{"x":173075.85000000149,"y":2539432.5600000005}},{"attributes":{"ID":539196,"DIS_CODE":0,"TOWNNAME":"仁德區","LI":"新田里","LIN":"12鄰","STREET":"北保三街","SECT":" ","MAREA":" ","LANE":" ","ALLEY":" ","HOUSE_NO":"４號","E_COORD97":173160.53,"N_COORD97":2539392.5600000001,"ADDRESS":"北保三街４號","OBJECTID":539169},"geometry":{"x":173160.53000000119,"y":2539392.5600000005}},{"attributes":{"ID":539197,"DIS_CODE":0,"TOWNNAME":"仁德區","LI":"新田里","LIN":"12鄰","STREET":"民安路","SECT":"一段","MAREA":" ","LANE":" ","ALLEY":" ","HOUSE_NO":"３９９號","E_COORD97":173066.79999999999,"N_COORD97":2539443.5600000001,"ADDRESS":"民安路一段３９９號","OBJECTID":539170},"geometry":{"x":173066.80000000075,"y":2539443.5600000005}},{"attributes":{"ID":539198,"DIS_CODE":0,"TOWNNAME":"仁德區","LI":"後壁里","LIN":"12鄰","STREET":"德南路","SECT":" ","MAREA":" ","LANE":" ","ALLEY":" ","HOUSE_NO":"２１７之１號","E_COORD97":173754.13,"N_COORD97":2538477.29,"ADDRESS":"德南路２１７之１號","OBJECTID":539171},"geometry":{"x":173754.13000000082,"y":2538477.2899999991}},{"attributes":{"ID":539199,"DIS_CODE":0,"TOWNNAME":"仁德區","LI":"後壁里","LIN":"12鄰","STREET":"德南路","SECT":" ","MAREA":" ","LANE":" ","ALLEY":" ","HOUSE_NO":"２１７之２號","E_COORD97":173757.03,"N_COORD97":2538481.3999999999,"ADDRESS":"德南路２１７之２號","OBJECTID":539172},"geometry":{"x":173757.03000000119,"y":2538481.4000000004}},{"attributes":{"ID":539200,"DIS_CODE":0,"TOWNNAME":"仁德區","LI":"後壁里","LIN":"12鄰","STREET":"德南路","SECT":" ","MAREA":" ","LANE":" ","ALLEY":" ","HOUSE_NO":"２１７之３號","E_COORD97":173760.45999999999,"N_COORD97":2538485.4300000002,"ADDRESS":"德南路２１７之３號","OBJECTID":539173},"geometry":{"x":173760.46000000089,"y":2538485.4300000016}},{"attributes":{"ID":539201,"DIS_CODE":0,"TOWNNAME":"仁德區","LI":"後壁里","LIN":"12鄰","STREET":"德南路","SECT":" ","MAREA":" ","LANE":" ","ALLEY":" ","HOUSE_NO":"２１７之５號","E_COORD97":173763.54999999999,"N_COORD97":2538489.4700000002,"ADDRESS":"德南路２１７之５號","OBJECTID":539174},"geometry":{"x":173763.55000000075,"y":2538489.4700000025}},{"attributes":{"ID":539202,"DIS_CODE":0,"TOWNNAME":"仁德區","LI":"後壁里","LIN":"12鄰","STREET":"德南路","SECT":" ","MAREA":" ","LANE":" ","ALLEY":" ","HOUSE_NO":"２１７之６號","E_COORD97":173766.64000000001,"N_COORD97":2538493.04,"ADDRESS":"德南路２１７之６號","OBJECTID":539175},"geometry":{"x":173766.63999999966,"y":2538493.0399999991}},{"attributes":{"ID":539203,"DIS_CODE":0,"TOWNNAME":"仁德區","LI":"後壁里","LIN":"12鄰","STREET":"德南路","SECT":" ","MAREA":" ","LANE":" ","ALLEY":" ","HOUSE_NO":"２１７之７號","E_COORD97":173770.04999999999,"N_COORD97":2538497.0299999998,"ADDRESS":"德南路２１７之７號","OBJECTID":539176},"geometry":{"x":173770.05000000075,"y":2538497.0300000031}},{"attributes":{"ID":539204,"DIS_CODE":0,"TOWNNAME":"仁德區","LI":"後壁里","LIN":"12鄰","STREET":"德南路","SECT":" ","MAREA":" ","LANE":" ","ALLEY":" ","HOUSE_NO":"２１７之８號","E_COORD97":173766.44,"N_COORD97":2538506.5099999998,"ADDRESS":"德南路２１７之８號","OBJECTID":539177},"geometry":{"x":173766.44000000134,"y":2538506.5099999998}},{"attributes":{"ID":539205,"DIS_CODE":0,"TOWNNAME":"仁德區","LI":"後壁里","LIN":"12鄰","STREET":"德南路","SECT":" ","MAREA":" ","LANE":" ","ALLEY":" ","HOUSE_NO":"２１７之９號","E_COORD97":173769.98999999999,"N_COORD97":2538510.3500000001,"ADDRESS":"德南路２１７之９號","OBJECTID":539178},"geometry":{"x":173769.99000000022,"y":2538510.3500000015}},{"attributes":{"ID":539206,"DIS_CODE":0,"TOWNNAME":"仁德區","LI":"後壁里","LIN":"12鄰","STREET":"德南路","SECT":" ","MAREA":" ","LANE":" ","ALLEY":" ","HOUSE_NO":"２１７號","E_COORD97":173748.26000000001,"N_COORD97":2538473.3700000001,"ADDRESS":"德南路２１７號","OBJECTID":539179},"geometry":{"x":173748.26000000071,"y":2538473.3700000029}},{"attributes":{"ID":539207,"DIS_CODE":0,"TOWNNAME":"仁德區","LI":"後壁里","LIN":"12鄰","STREET":"德南路","SECT":" ","MAREA":" ","LANE":" ","ALLEY":" ","HOUSE_NO":"２１９之１號","E_COORD97":173759.23000000001,"N_COORD97":2538473.3799999999,"ADDRESS":"德南路２１９之１號","OBJECTID":539180},"geometry":{"x":173759.23000000138,"y":2538473.379999999}},{"attributes":{"ID":539208,"DIS_CODE":0,"TOWNNAME":"仁德區","LI":"後壁里","LIN":"12鄰","STREET":"德南路","SECT":" ","MAREA":" ","LANE":" ","ALLEY":" ","HOUSE_NO":"２１９之２號","E_COORD97":173762.41,"N_COORD97":2538477.5499999998,"ADDRESS":"德南路２１９之２號","OBJECTID":539181},"geometry":{"x":173762.41000000201,"y":2538477.5500000007}},{"attributes":{"ID":539209,"DIS_CODE":0,"TOWNNAME":"仁德區","LI":"後壁里","LIN":"12鄰","STREET":"德南路","SECT":" ","MAREA":" ","LANE":" ","ALLEY":" ","HOUSE_NO":"２１９之３號","E_COORD97":173765.39000000001,"N_COORD97":2538481.6499999999,"ADDRESS":"德南路２１９之３號","OBJECTID":539182},"geometry":{"x":173765.39000000153,"y":2538481.6500000022}},{"attributes":{"ID":539210,"DIS_CODE":0,"TOWNNAME":"仁德區","LI":"後壁里","LIN":"12鄰","STREET":"德南路","SECT":" ","MAREA":" ","LANE":" ","ALLEY":" ","HOUSE_NO":"２１９之５號","E_COORD97":173768.57000000001,"N_COORD97":2538485.2999999998,"ADDRESS":"德南路２１９之５號","OBJECTID":539183},"geometry":{"x":173768.57000000123,"y":2538485.3000000007}},{"attributes":{"ID":539211,"DIS_CODE":0,"TOWNNAME":"仁德區","LI":"後壁里","LIN":"12鄰","STREET":"德南路","SECT":" ","MAREA":" ","LANE":" ","ALLEY":" ","HOUSE_NO":"２１９之６號","E_COORD97":173771.95999999999,"N_COORD97":2538489.48,"ADDRESS":"德南路２１９之６號","OBJECTID":539184},"geometry":{"x":173771.95999999903,"y":2538489.4800000023}},{"attributes":{"ID":539212,"DIS_CODE":0,"TOWNNAME":"仁德區","LI":"後壁里","LIN":"12鄰","STREET":"德南路","SECT":" ","MAREA":" ","LANE":" ","ALLEY":" ","HOUSE_NO":"２１９之７號","E_COORD97":173775.26000000001,"N_COORD97":2538493.1600000001,"ADDRESS":"德南路２１９之７號","OBJECTID":539185},"geometry":{"x":173775.26000000071,"y":2538493.1600000001}},{"attributes":{"ID":539213,"DIS_CODE":0,"TOWNNAME":"仁德區","LI":"後壁里","LIN":"12鄰","STREET":"德南路","SECT":" ","MAREA":" ","LANE":" ","ALLEY":" ","HOUSE_NO":"２１９之８號","E_COORD97":173785.10000000001,"N_COORD97":2538491.8700000001,"ADDRESS":"德南路２１９之８號","OBJECTID":539186},"geometry":{"x":173785.10000000056,"y":2538491.870000001}},{"attributes":{"ID":539214,"DIS_CODE":0,"TOWNNAME":"仁德區","LI":"後壁里","LIN":"12鄰","STREET":"德南路","SECT":" ","MAREA":" ","LANE":" ","ALLEY":" ","HOUSE_NO":"２１９之９號","E_COORD97":173788.38,"N_COORD97":2538495.6299999999,"ADDRESS":"德南路２１９之９號","OBJECTID":539187},"geometry":{"x":173788.38000000082,"y":2538495.629999999}},{"attributes":{"ID":539215,"DIS_CODE":0,"TOWNNAME":"仁德區","LI":"後壁里","LIN":"12鄰","STREET":"德南路","SECT":" ","MAREA":" ","LANE":" ","ALLEY":" ","HOUSE_NO":"２１９號","E_COORD97":173753.35000000001,"N_COORD97":2538469.3100000001,"ADDRESS":"德南路２１９號","OBJECTID":539188},"geometry":{"x":173753.34999999963,"y":2538469.3100000042}},{"attributes":{"ID":539216,"DIS_CODE":0,"TOWNNAME":"仁德區","LI":"上崙里","LIN":"12鄰","STREET":"德崙路","SECT":" ","MAREA":" ","LANE":" ","ALLEY":" ","HOUSE_NO":"７２５號","E_COORD97":174432.14000000001,"N_COORD97":2537607.0299999998,"ADDRESS":"德崙路７２５號","OBJECTID":539189},"geometry":{"x":174432.1400000006,"y":2537607.0300000012}},{"attributes":{"ID":539217,"DIS_CODE":0,"TOWNNAME":"仁德區","LI":"後壁里","LIN":"12鄰","STREET":"德善路","SECT":" ","MAREA":" ","LANE":" ","ALLEY":" ","HOUSE_NO":"２５６號","E_COORD97":173892.89999999999,"N_COORD97":2538633.0499999998,"ADDRESS":"德善路２５６號","OBJECTID":539190},"geometry":{"x":173892.90000000037,"y":2538633.0500000007}},{"attributes":{"ID":539218,"DIS_CODE":0,"TOWNNAME":"仁德區","LI":"後壁里","LIN":"12鄰","STREET":"德善路","SECT":" ","MAREA":" ","LANE":" ","ALLEY":" ","HOUSE_NO":"２５８號","E_COORD97":173897.42000000001,"N_COORD97":2538631.1400000001,"ADDRESS":"德善路２５８號","OBJECTID":539191},"geometry":{"x":173897.41999999993,"y":2538631.1400000025}},{"attributes":{"ID":539219,"DIS_CODE":0,"TOWNNAME":"仁德區","LI":"後壁里","LIN":"12鄰","STREET":"德善路","SECT":" ","MAREA":" ","LANE":" ","ALLEY":" ","HOUSE_NO":"２６０之１號","E_COORD97":173884.85000000001,"N_COORD97":2538614.8599999999,"ADDRESS":"德善路２６０之１號","OBJECTID":539192},"geometry":{"x":173884.85000000056,"y":2538614.8600000013}},{"attributes":{"ID":539220,"DIS_CODE":0,"TOWNNAME":"仁德區","LI":"後壁里","LIN":"12鄰","STREET":"德善路","SECT":" ","MAREA":" ","LANE":" ","ALLEY":" ","HOUSE_NO":"２６０之２號","E_COORD97":173883.01999999999,"N_COORD97":2538611.4399999999,"ADDRESS":"德善路２６０之２號","OBJECTID":539193},"geometry":{"x":173883.01999999862,"y":2538611.4399999995}},{"attributes":{"ID":539221,"DIS_CODE":0,"TOWNNAME":"仁德區","LI":"後壁里","LIN":"12鄰","STREET":"德善路","SECT":" ","MAREA":" ","LANE":" ","ALLEY":" ","HOUSE_NO":"２６０之３號","E_COORD97":173881.23000000001,"N_COORD97":2538607.8999999999,"ADDRESS":"德善路２６０之３號","OBJECTID":539194},"geometry":{"x":173881.23000000138,"y":2538607.9000000022}},{"attributes":{"ID":539222,"DIS_CODE":0,"TOWNNAME":"仁德區","LI":"後壁里","LIN":"12鄰","STREET":"德善路","SECT":" ","MAREA":" ","LANE":" ","ALLEY":" ","HOUSE_NO":"２６０之５號","E_COORD97":173879.72,"N_COORD97":2538604.5299999998,"ADDRESS":"德善路２６０之５號","OBJECTID":539195},"geometry":{"x":173879.71999999974,"y":2538604.5299999993}},{"attributes":{"ID":539223,"DIS_CODE":0,"TOWNNAME":"仁德區","LI":"後壁里","LIN":"12鄰","STREET":"德善路","SECT":" ","MAREA":" ","LANE":" ","ALLEY":" ","HOUSE_NO":"２６０之６號","E_COORD97":173878.45999999999,"N_COORD97":2538601.0499999998,"ADDRESS":"德善路２６０之６號","OBJECTID":539196},"geometry":{"x":173878.45999999996,"y":2538601.0500000026}},{"attributes":{"ID":539224,"DIS_CODE":0,"TOWNNAME":"仁德區","LI":"後壁里","LIN":"12鄰","STREET":"德善路","SECT":" ","MAREA":" ","LANE":" ","ALLEY":" ","HOUSE_NO":"２６０之７號","E_COORD97":173876.76999999999,"N_COORD97":2538597.6800000002,"ADDRESS":"德善路２６０之７號","OBJECTID":539197},"geometry":{"x":173876.77000000048,"y":2538597.6799999997}},{"attributes":{"ID":539225,"DIS_CODE":0,"TOWNNAME":"仁德區","LI":"後壁里","LIN":"12鄰","STREET":"德善路","SECT":" ","MAREA":" ","LANE":" ","ALLEY":" ","HOUSE_NO":"２６０號","E_COORD97":173902.07000000001,"N_COORD97":2538628.7799999998,"ADDRESS":"德善路２６０號","OBJECTID":539198},"geometry":{"x":173902.06999999937,"y":2538628.7800000012}},{"attributes":{"ID":539226,"DIS_CODE":0,"TOWNNAME":"仁德區","LI":"後壁里","LIN":"12鄰","STREET":"德善路","SECT":" ","MAREA":" ","LANE":" ","ALLEY":" ","HOUSE_NO":"２６２號","E_COORD97":173898.10999999999,"N_COORD97":2538593.2799999998,"ADDRESS":"德善路２６２號","OBJECTID":539199},"geometry":{"x":173898.11000000034,"y":2538593.2799999993}},{"attributes":{"ID":539227,"DIS_CODE":0,"TOWNNAME":"仁德區","LI":"成功里","LIN":"12鄰","STREET":"崇德路","SECT":" ","MAREA":" ","LANE":" ","ALLEY":" ","HOUSE_NO":"８８號","E_COORD97":170794.73999999999,"N_COORD97":2539997.5600000001,"ADDRESS":"崇德路８８號","OBJECTID":539200},"geometry":{"x":170794.74000000022,"y":2539997.5600000024}}]}