{"displayFieldName":"TOWNNAME","fieldAliases":{"ID":"ID","DIS_CODE":"DIS_CODE","TOWNNAME":"TOWNNAME","LI":"LI","LIN":"LIN","STREET":"STREET","SECT":"SECT","MAREA":"MAREA","LANE":"LANE","ALLEY":"ALLEY","HOUSE_NO":"HOUSE_NO","E_COORD97":"E_COORD97","N_COORD97":"N_COORD97","ADDRESS":"ADDRESS","OBJECTID":"OBJECTID"},"geometryType":"esriGeometryPoint","spatialReference":{"wkid":102443,"latestWkid":3826},"fields":[{"name":"ID","type":"esriFieldTypeDouble","alias":"ID"},{"name":"DIS_CODE","type":"esriFieldTypeInteger","alias":"DIS_CODE"},{"name":"TOWNNAME","type":"esriFieldTypeString","alias":"TOWNNAME","length":8},{"name":"LI","type":"esriFieldTypeString","alias":"LI","length":8},{"name":"LIN","type":"esriFieldTypeString","alias":"LIN","length":12},{"name":"STREET","type":"esriFieldTypeString","alias":"STREET","length":20},{"name":"SECT","type":"esriFieldTypeString","alias":"SECT","length":8},{"name":"MAREA","type":"esriFieldTypeString","alias":"MAREA","length":12},{"name":"LANE","type":"esriFieldTypeString","alias":"LANE","length":10},{"name":"ALLEY","type":"esriFieldTypeString","alias":"ALLEY","length":10},{"name":"HOUSE_NO","type":"esriFieldTypeString","alias":"HOUSE_NO","length":20},{"name":"E_COORD97","type":"esriFieldTypeDouble","alias":"E_COORD97"},{"name":"N_COORD97","type":"esriFieldTypeDouble","alias":"N_COORD97"},{"name":"ADDRESS","type":"esriFieldTypeString","alias":"ADDRESS","length":50},{"name":"OBJECTID","type":"esriFieldTypeOID","alias":"OBJECTID"}],"features":[{"attributes":{"ID":267406,"DIS_CODE":0,"TOWNNAME":"仁德區","LI":"土庫里","LIN":"14鄰","STREET":"土庫路","SECT":" ","MAREA":" ","LANE":"１８５巷","ALLEY":" ","HOUSE_NO":"２０號","E_COORD97":174385.04000000001,"N_COORD97":2542933.5,"ADDRESS":"土庫路１８５巷２０號","OBJECTID":267401},"geometry":{"x":174385.04000000004,"y":2542933.5000000019}},{"attributes":{"ID":267407,"DIS_CODE":0,"TOWNNAME":"仁德區","LI":"二行里","LIN":"14鄰","STREET":"中正西路","SECT":" ","MAREA":" ","LANE":"３５３巷","ALLEY":" ","HOUSE_NO":"６０號","E_COORD97":169894.16,"N_COORD97":2535323.25,"ADDRESS":"中正西路３５３巷６０號","OBJECTID":267402},"geometry":{"x":169894.16000000108,"y":2535323.2500000019}},{"attributes":{"ID":267408,"DIS_CODE":0,"TOWNNAME":"西港區","LI":"慶安里","LIN":"14鄰","STREET":"進學街","SECT":" ","MAREA":" ","LANE":"６７巷","ALLEY":" ","HOUSE_NO":"４號","E_COORD97":168065.62,"N_COORD97":2558006.5299999998,"ADDRESS":"進學街６７巷４號","OBJECTID":267403},"geometry":{"x":168065.62000000104,"y":2558006.5300000012}},{"attributes":{"ID":267409,"DIS_CODE":0,"TOWNNAME":"東區","LI":"東光里","LIN":"14鄰","STREET":"東光路","SECT":"一段","MAREA":" ","LANE":"１２６巷","ALLEY":" ","HOUSE_NO":"１號","E_COORD97":171223.06,"N_COORD97":2543894.2599999998,"ADDRESS":"東光路一段１２６巷１號","OBJECTID":267404},"geometry":{"x":171223.06000000145,"y":2543894.2600000016}},{"attributes":{"ID":267410,"DIS_CODE":0,"TOWNNAME":"東區","LI":"東光里","LIN":"14鄰","STREET":"東光路","SECT":"一段","MAREA":" ","LANE":"１２６巷","ALLEY":" ","HOUSE_NO":"３號","E_COORD97":171230.59,"N_COORD97":2543893.1200000001,"ADDRESS":"東光路一段１２６巷３號","OBJECTID":267405},"geometry":{"x":171230.59000000078,"y":2543893.1200000029}},{"attributes":{"ID":267411,"DIS_CODE":0,"TOWNNAME":"東區","LI":"東光里","LIN":"14鄰","STREET":"東光路","SECT":"一段","MAREA":" ","LANE":"１２６巷","ALLEY":" ","HOUSE_NO":"５號","E_COORD97":171239.92999999999,"N_COORD97":2543892.2999999998,"ADDRESS":"東光路一段１２６巷５號","OBJECTID":267406},"geometry":{"x":171239.93000000063,"y":2543892.3000000026}},{"attributes":{"ID":267412,"DIS_CODE":0,"TOWNNAME":"東區","LI":"東光里","LIN":"14鄰","STREET":"東光路","SECT":"一段","MAREA":" ","LANE":"１２６巷","ALLEY":" ","HOUSE_NO":"７號","E_COORD97":171250.39999999999,"N_COORD97":2543891.1499999999,"ADDRESS":"東光路一段１２６巷７號","OBJECTID":267407},"geometry":{"x":171250.40000000224,"y":2543891.1499999985}},{"attributes":{"ID":267413,"DIS_CODE":0,"TOWNNAME":"安南區","LI":"總頭里","LIN":"14鄰","STREET":"長溪路","SECT":"二段","MAREA":" ","LANE":"２８９巷","ALLEY":" ","HOUSE_NO":"２０號","E_COORD97":168269,"N_COORD97":2549874.23,"ADDRESS":"長溪路二段２８９巷２０號","OBJECTID":267408},"geometry":{"x":168269,"y":2549874.2300000004}},{"attributes":{"ID":267414,"DIS_CODE":0,"TOWNNAME":"安南區","LI":"總頭里","LIN":"14鄰","STREET":"長溪路","SECT":"二段","MAREA":" ","LANE":"２８９巷","ALLEY":" ","HOUSE_NO":"８號","E_COORD97":168302.97,"N_COORD97":2549864.3199999998,"ADDRESS":"長溪路二段２８９巷８號","OBJECTID":267409},"geometry":{"x":168302.96999999881,"y":2549864.3200000022}},{"attributes":{"ID":267415,"DIS_CODE":0,"TOWNNAME":"安南區","LI":"新順里","LIN":"14鄰","STREET":"永安路","SECT":" ","MAREA":" ","LANE":"８４巷","ALLEY":" ","HOUSE_NO":"３號","E_COORD97":170235.39000000001,"N_COORD97":2549389.96,"ADDRESS":"永安路８４巷３號","OBJECTID":267410},"geometry":{"x":170235.38999999966,"y":2549389.9600000028}},{"attributes":{"ID":267416,"DIS_CODE":0,"TOWNNAME":"南區","LI":"明興里","LIN":"14鄰","STREET":"金華路","SECT":"一段","MAREA":" ","LANE":"３０巷","ALLEY":" ","HOUSE_NO":"１０之１號","E_COORD97":166917.48000000001,"N_COORD97":2540310.79,"ADDRESS":"金華路一段３０巷１０之１號","OBJECTID":267411},"geometry":{"x":166917.48000000138,"y":2540310.7899999991}},{"attributes":{"ID":267417,"DIS_CODE":0,"TOWNNAME":"南區","LI":"佛壇里","LIN":"14鄰","STREET":"興南街","SECT":" ","MAREA":" ","LANE":"１０１巷","ALLEY":" ","HOUSE_NO":"１７之６號","E_COORD97":166190.73999999999,"N_COORD97":2535812.0699999998,"ADDRESS":"興南街１０１巷１７之６號","OBJECTID":267412},"geometry":{"x":166190.74000000022,"y":2535812.0700000003}},{"attributes":{"ID":267418,"DIS_CODE":0,"TOWNNAME":"南區","LI":"佛壇里","LIN":"14鄰","STREET":"興南街","SECT":" ","MAREA":" ","LANE":"１０１巷","ALLEY":" ","HOUSE_NO":"１７之５號","E_COORD97":166187.88,"N_COORD97":2535815.4100000001,"ADDRESS":"興南街１０１巷１７之５號","OBJECTID":267413},"geometry":{"x":166187.87999999989,"y":2535815.4100000001}},{"attributes":{"ID":267419,"DIS_CODE":0,"TOWNNAME":"南區","LI":"佛壇里","LIN":"14鄰","STREET":"興南街","SECT":" ","MAREA":" ","LANE":"１０１巷","ALLEY":" ","HOUSE_NO":"１７之３號","E_COORD97":166186.29000000001,"N_COORD97":2535819.3700000001,"ADDRESS":"興南街１０１巷１７之３號","OBJECTID":267414},"geometry":{"x":166186.29000000097,"y":2535819.3700000029}},{"attributes":{"ID":267420,"DIS_CODE":0,"TOWNNAME":"南區","LI":"佛壇里","LIN":"14鄰","STREET":"興南街","SECT":" ","MAREA":" ","LANE":"１０１巷","ALLEY":" ","HOUSE_NO":"１７之２號","E_COORD97":166184.54999999999,"N_COORD97":2535823.8199999998,"ADDRESS":"興南街１０１巷１７之２號","OBJECTID":267415},"geometry":{"x":166184.54999999981,"y":2535823.8200000003}},{"attributes":{"ID":267421,"DIS_CODE":0,"TOWNNAME":"南區","LI":"佛壇里","LIN":"14鄰","STREET":"興南街","SECT":" ","MAREA":" ","LANE":"１０１巷","ALLEY":" ","HOUSE_NO":"１７之１號","E_COORD97":166182.64000000001,"N_COORD97":2535828.5800000001,"ADDRESS":"興南街１０１巷１７之１號","OBJECTID":267416},"geometry":{"x":166182.63999999966,"y":2535828.5800000001}},{"attributes":{"ID":267422,"DIS_CODE":0,"TOWNNAME":"南區","LI":"同安里","LIN":"14鄰","STREET":"明興路","SECT":" ","MAREA":" ","LANE":"１３６５巷","ALLEY":" ","HOUSE_NO":"２７之１號","E_COORD97":166476.16,"N_COORD97":2535891.8100000001,"ADDRESS":"明興路１３６５巷２７之１號","OBJECTID":267417},"geometry":{"x":166476.16000000015,"y":2535891.8100000005}},{"attributes":{"ID":267423,"DIS_CODE":0,"TOWNNAME":"南區","LI":"大恩里","LIN":"14鄰","STREET":"國民路","SECT":" ","MAREA":" ","LANE":"２１７巷","ALLEY":" ","HOUSE_NO":"１７號","E_COORD97":169054.34,"N_COORD97":2540841.5800000001,"ADDRESS":"國民路２１７巷１７號","OBJECTID":267418},"geometry":{"x":169054.33999999985,"y":2540841.5800000019}},{"attributes":{"ID":267424,"DIS_CODE":0,"TOWNNAME":"南區","LI":"省躬里","LIN":"14鄰","STREET":"萬年路","SECT":" ","MAREA":" ","LANE":"１６０巷","ALLEY":" ","HOUSE_NO":"５１號","E_COORD97":166535.76000000001,"N_COORD97":2537159.5899999999,"ADDRESS":"萬年路１６０巷５１號","OBJECTID":267419},"geometry":{"x":166535.75999999978,"y":2537159.5900000017}},{"attributes":{"ID":267425,"DIS_CODE":0,"TOWNNAME":"南區","LI":"省躬里","LIN":"14鄰","STREET":"萬年路","SECT":" ","MAREA":" ","LANE":"１６０巷","ALLEY":" ","HOUSE_NO":"５３號","E_COORD97":166534.85999999999,"N_COORD97":2537154.6499999999,"ADDRESS":"萬年路１６０巷５３號","OBJECTID":267420},"geometry":{"x":166534.86000000127,"y":2537154.6500000041}},{"attributes":{"ID":267426,"DIS_CODE":0,"TOWNNAME":"東區","LI":"後甲里","LIN":"14鄰","STREET":"裕農路","SECT":" ","MAREA":" ","LANE":"６２１巷","ALLEY":" ","HOUSE_NO":"４３號","E_COORD97":171605.29999999999,"N_COORD97":2543442.3199999998,"ADDRESS":"裕農路６２１巷４３號","OBJECTID":267421},"geometry":{"x":171605.30000000075,"y":2543442.3200000003}},{"attributes":{"ID":267427,"DIS_CODE":0,"TOWNNAME":"東區","LI":"後甲里","LIN":"14鄰","STREET":"裕農路","SECT":" ","MAREA":" ","LANE":"６２１巷","ALLEY":" ","HOUSE_NO":"４３號之１","E_COORD97":171604.62,"N_COORD97":2543445.25,"ADDRESS":"裕農路６２１巷４３號之１","OBJECTID":267422},"geometry":{"x":171604.62000000197,"y":2543445.25}},{"attributes":{"ID":267428,"DIS_CODE":0,"TOWNNAME":"東區","LI":"後甲里","LIN":"14鄰","STREET":"裕農路","SECT":" ","MAREA":" ","LANE":"６２１巷","ALLEY":" ","HOUSE_NO":"４７號之１","E_COORD97":171602.20999999999,"N_COORD97":2543474.6499999999,"ADDRESS":"裕農路６２１巷４７號之１","OBJECTID":267423},"geometry":{"x":171602.21000000183,"y":2543474.6500000041}},{"attributes":{"ID":267429,"DIS_CODE":0,"TOWNNAME":"東區","LI":"後甲里","LIN":"14鄰","STREET":"裕農路","SECT":" ","MAREA":" ","LANE":"６２１巷","ALLEY":" ","HOUSE_NO":"４７號之２","E_COORD97":171601.48999999999,"N_COORD97":2543478.98,"ADDRESS":"裕農路６２１巷４７號之２","OBJECTID":267424},"geometry":{"x":171601.49000000022,"y":2543478.9800000042}},{"attributes":{"ID":267430,"DIS_CODE":0,"TOWNNAME":"安南區","LI":"淵東里","LIN":"14鄰","STREET":"安中路","SECT":"三段","MAREA":" ","LANE":"４００巷","ALLEY":" ","HOUSE_NO":"１８８號","E_COORD97":165592.85999999999,"N_COORD97":2550291.7999999998,"ADDRESS":"安中路三段４００巷１８８號","OBJECTID":267425},"geometry":{"x":165592.86000000127,"y":2550291.8000000045}},{"attributes":{"ID":267431,"DIS_CODE":0,"TOWNNAME":"安南區","LI":"淵東里","LIN":"14鄰","STREET":"安中路","SECT":"三段","MAREA":" ","LANE":"４００巷","ALLEY":" ","HOUSE_NO":"１９０號","E_COORD97":165591.70999999999,"N_COORD97":2550297.5600000001,"ADDRESS":"安中路三段４００巷１９０號","OBJECTID":267426},"geometry":{"x":165591.71000000089,"y":2550297.5600000024}},{"attributes":{"ID":267432,"DIS_CODE":0,"TOWNNAME":"安南區","LI":"淵東里","LIN":"14鄰","STREET":"安中路","SECT":"三段","MAREA":" ","LANE":"４００巷","ALLEY":" ","HOUSE_NO":"１９２號","E_COORD97":165591.23999999999,"N_COORD97":2550303.3300000001,"ADDRESS":"安中路三段４００巷１９２號","OBJECTID":267427},"geometry":{"x":165591.24000000209,"y":2550303.3300000001}},{"attributes":{"ID":267433,"DIS_CODE":0,"TOWNNAME":"安南區","LI":"安東里","LIN":"14鄰","STREET":"安和路","SECT":"一段","MAREA":" ","LANE":"２２０巷","ALLEY":" ","HOUSE_NO":"８號","E_COORD97":169383.32000000001,"N_COORD97":2547906.2200000002,"ADDRESS":"安和路一段２２０巷８號","OBJECTID":267428},"geometry":{"x":169383.32000000123,"y":2547906.2200000025}},{"attributes":{"ID":267434,"DIS_CODE":0,"TOWNNAME":"善化區","LI":"坐駕里","LIN":"14鄰","STREET":"大成路","SECT":" ","MAREA":" ","LANE":"３６７巷","ALLEY":" ","HOUSE_NO":"４２號","E_COORD97":178257.20999999999,"N_COORD97":2558634.75,"ADDRESS":"大成路３６７巷４２號","OBJECTID":267429},"geometry":{"x":178257.20999999996,"y":2558634.75}},{"attributes":{"ID":267435,"DIS_CODE":0,"TOWNNAME":"善化區","LI":"文正里","LIN":"14鄰","STREET":"陽明路","SECT":" ","MAREA":" ","LANE":"５７巷","ALLEY":" ","HOUSE_NO":"７３號","E_COORD97":176102.64999999999,"N_COORD97":2559232.7599999998,"ADDRESS":"陽明路５７巷７３號","OBJECTID":267430},"geometry":{"x":176102.6500000013,"y":2559232.7600000016}},{"attributes":{"ID":267436,"DIS_CODE":0,"TOWNNAME":"善化區","LI":"文正里","LIN":"14鄰","STREET":"陽明路","SECT":" ","MAREA":" ","LANE":"１４１巷","ALLEY":" ","HOUSE_NO":"１１號","E_COORD97":176273.85000000001,"N_COORD97":2559451.7599999998,"ADDRESS":"陽明路１４１巷１１號","OBJECTID":267431},"geometry":{"x":176273.84999999963,"y":2559451.7600000035}},{"attributes":{"ID":267437,"DIS_CODE":0,"TOWNNAME":"善化區","LI":"文正里","LIN":"14鄰","STREET":"陽明路","SECT":" ","MAREA":" ","LANE":"５７巷","ALLEY":" ","HOUSE_NO":"８２號","E_COORD97":176133.42000000001,"N_COORD97":2559287.2599999998,"ADDRESS":"陽明路５７巷８２號","OBJECTID":267432},"geometry":{"x":176133.41999999993,"y":2559287.2600000016}},{"attributes":{"ID":267438,"DIS_CODE":0,"TOWNNAME":"善化區","LI":"文正里","LIN":"14鄰","STREET":"陽明路","SECT":" ","MAREA":" ","LANE":"５７巷","ALLEY":" ","HOUSE_NO":"６８之１號","E_COORD97":176394.70000000001,"N_COORD97":2559312.52,"ADDRESS":"陽明路５７巷６８之１號","OBJECTID":267433},"geometry":{"x":176394.69999999925,"y":2559312.5200000014}},{"attributes":{"ID":267439,"DIS_CODE":0,"TOWNNAME":"善化區","LI":"文正里","LIN":"14鄰","STREET":"陽明路","SECT":" ","MAREA":" ","LANE":"５７巷","ALLEY":" ","HOUSE_NO":"６８號","E_COORD97":176349.10999999999,"N_COORD97":2559336.5099999998,"ADDRESS":"陽明路５７巷６８號","OBJECTID":267434},"geometry":{"x":176349.11000000034,"y":2559336.5100000016}},{"attributes":{"ID":267440,"DIS_CODE":0,"TOWNNAME":"善化區","LI":"文正里","LIN":"14鄰","STREET":"興農路","SECT":" ","MAREA":" ","LANE":"１８８巷","ALLEY":" ","HOUSE_NO":"１３６號","E_COORD97":176023.13,"N_COORD97":2559624.5099999998,"ADDRESS":"興農路１８８巷１３６號","OBJECTID":267435},"geometry":{"x":176023.12999999989,"y":2559624.5100000016}},{"attributes":{"ID":267441,"DIS_CODE":0,"TOWNNAME":"善化區","LI":"文正里","LIN":"14鄰","STREET":"陽明路","SECT":" ","MAREA":" ","LANE":"５７巷","ALLEY":" ","HOUSE_NO":"１０１號","E_COORD97":176014.39000000001,"N_COORD97":2559420.7599999998,"ADDRESS":"陽明路５７巷１０１號","OBJECTID":267436},"geometry":{"x":176014.38999999966,"y":2559420.7599999998}},{"attributes":{"ID":267442,"DIS_CODE":0,"TOWNNAME":"善化區","LI":"文正里","LIN":"14鄰","STREET":"陽明路","SECT":" ","MAREA":" ","LANE":"５７巷","ALLEY":" ","HOUSE_NO":"７０號","E_COORD97":176339.06190299999,"N_COORD97":2559308.2088100002,"ADDRESS":"陽明路５７巷７０號","OBJECTID":267437},"geometry":{"x":176339.06190299988,"y":2559308.208808003}},{"attributes":{"ID":267443,"DIS_CODE":0,"TOWNNAME":"善化區","LI":"文正里","LIN":"14鄰","STREET":"陽明路","SECT":" ","MAREA":" ","LANE":"５７巷","ALLEY":" ","HOUSE_NO":"６９號","E_COORD97":176264.62,"N_COORD97":2559265.2599999998,"ADDRESS":"陽明路５７巷６９號","OBJECTID":267438},"geometry":{"x":176264.62000000011,"y":2559265.2600000035}},{"attributes":{"ID":267444,"DIS_CODE":0,"TOWNNAME":"善化區","LI":"文正里","LIN":"14鄰","STREET":"興農路","SECT":" ","MAREA":" ","LANE":"１８８巷","ALLEY":" ","HOUSE_NO":"４７號","E_COORD97":175659.66,"N_COORD97":2559183.7599999998,"ADDRESS":"興農路１８８巷４７號","OBJECTID":267439},"geometry":{"x":175659.66000000108,"y":2559183.7599999979}},{"attributes":{"ID":267445,"DIS_CODE":0,"TOWNNAME":"善化區","LI":"文正里","LIN":"14鄰","STREET":"興農路","SECT":" ","MAREA":" ","LANE":"１８８巷","ALLEY":" ","HOUSE_NO":"３８號","E_COORD97":175795.82000000001,"N_COORD97":2559227.2599999998,"ADDRESS":"興農路１８８巷３８號","OBJECTID":267440},"geometry":{"x":175795.82000000216,"y":2559227.2599999998}},{"attributes":{"ID":267446,"DIS_CODE":0,"TOWNNAME":"安南區","LI":"新順里","LIN":"14鄰","STREET":"永安路","SECT":" ","MAREA":" ","LANE":"８４巷","ALLEY":" ","HOUSE_NO":"１號","E_COORD97":170243.20999999999,"N_COORD97":2549405.9900000002,"ADDRESS":"永安路８４巷１號","OBJECTID":267441},"geometry":{"x":170243.21000000089,"y":2549405.9900000021}},{"attributes":{"ID":267447,"DIS_CODE":0,"TOWNNAME":"仁德區","LI":"仁義里","LIN":"14鄰","STREET":"義林路","SECT":" ","MAREA":" ","LANE":"２００巷","ALLEY":" ","HOUSE_NO":"５０號","E_COORD97":174700.29999999999,"N_COORD97":2541270.02,"ADDRESS":"義林路２００巷５０號","OBJECTID":267442},"geometry":{"x":174700.30000000168,"y":2541270.0199999996}},{"attributes":{"ID":267448,"DIS_CODE":0,"TOWNNAME":"仁德區","LI":"仁義里","LIN":"14鄰","STREET":"義林路","SECT":" ","MAREA":" ","LANE":"２００巷","ALLEY":" ","HOUSE_NO":"３３號","E_COORD97":174650.88,"N_COORD97":2541272.77,"ADDRESS":"義林路２００巷３３號","OBJECTID":267443},"geometry":{"x":174650.88000000082,"y":2541272.7700000014}},{"attributes":{"ID":267449,"DIS_CODE":0,"TOWNNAME":"仁德區","LI":"仁義里","LIN":"14鄰","STREET":"義林路","SECT":" ","MAREA":" ","LANE":"２００巷","ALLEY":" ","HOUSE_NO":"１３號","E_COORD97":174604.76999999999,"N_COORD97":2541261.52,"ADDRESS":"義林路２００巷１３號","OBJECTID":267444},"geometry":{"x":174604.76999999955,"y":2541261.5200000014}},{"attributes":{"ID":267450,"DIS_CODE":0,"TOWNNAME":"仁德區","LI":"仁義里","LIN":"14鄰","STREET":"義林路","SECT":" ","MAREA":" ","LANE":"２００巷","ALLEY":" ","HOUSE_NO":"４７號","E_COORD97":174681.70000000001,"N_COORD97":2541287.1400000001,"ADDRESS":"義林路２００巷４７號","OBJECTID":267445},"geometry":{"x":174681.70000000112,"y":2541287.1400000006}},{"attributes":{"ID":267451,"DIS_CODE":0,"TOWNNAME":"仁德區","LI":"土庫里","LIN":"14鄰","STREET":"土庫路","SECT":" ","MAREA":" ","LANE":"１８５巷","ALLEY":" ","HOUSE_NO":"１８號","E_COORD97":174379.48000000001,"N_COORD97":2542922,"ADDRESS":"土庫路１８５巷１８號","OBJECTID":267446},"geometry":{"x":174379.48000000138,"y":2542922}},{"attributes":{"ID":267452,"DIS_CODE":0,"TOWNNAME":"仁德區","LI":"土庫里","LIN":"14鄰","STREET":"土庫路","SECT":" ","MAREA":" ","LANE":"１８５巷","ALLEY":" ","HOUSE_NO":"２６號","E_COORD97":174397.98000000001,"N_COORD97":2542937.9900000002,"ADDRESS":"土庫路１８５巷２６號","OBJECTID":267447},"geometry":{"x":174397.98000000231,"y":2542937.9900000002}},{"attributes":{"ID":267453,"DIS_CODE":0,"TOWNNAME":"仁德區","LI":"仁義里","LIN":"14鄰","STREET":"義林路","SECT":" ","MAREA":" ","LANE":"２００巷","ALLEY":" ","HOUSE_NO":"５５號","E_COORD97":174673.47,"N_COORD97":2541312.3900000001,"ADDRESS":"義林路２００巷５５號","OBJECTID":267448},"geometry":{"x":174673.46999999881,"y":2541312.3900000006}},{"attributes":{"ID":267454,"DIS_CODE":0,"TOWNNAME":"仁德區","LI":"土庫里","LIN":"14鄰","STREET":"土庫路","SECT":" ","MAREA":" ","LANE":"１７３巷","ALLEY":" ","HOUSE_NO":"２號","E_COORD97":174377.64999999999,"N_COORD97":2542997.5,"ADDRESS":"土庫路１７３巷２號","OBJECTID":267449},"geometry":{"x":174377.65000000037,"y":2542997.5000000019}},{"attributes":{"ID":267455,"DIS_CODE":0,"TOWNNAME":"仁德區","LI":"土庫里","LIN":"14鄰","STREET":"土庫路","SECT":" ","MAREA":" ","LANE":"１７３巷","ALLEY":" ","HOUSE_NO":"１號","E_COORD97":174389.20999999999,"N_COORD97":2543007.5,"ADDRESS":"土庫路１７３巷１號","OBJECTID":267450},"geometry":{"x":174389.21000000183,"y":2543007.5000000019}},{"attributes":{"ID":267456,"DIS_CODE":0,"TOWNNAME":"仁德區","LI":"土庫里","LIN":"14鄰","STREET":"土庫路","SECT":" ","MAREA":" ","LANE":"１８５巷","ALLEY":" ","HOUSE_NO":"３４號","E_COORD97":174433.54000000001,"N_COORD97":2542942.7400000002,"ADDRESS":"土庫路１８５巷３４號","OBJECTID":267451},"geometry":{"x":174433.54000000097,"y":2542942.7400000021}},{"attributes":{"ID":267457,"DIS_CODE":0,"TOWNNAME":"仁德區","LI":"土庫里","LIN":"14鄰","STREET":"土庫路","SECT":" ","MAREA":" ","LANE":"１８５巷","ALLEY":" ","HOUSE_NO":"２８號","E_COORD97":174402.57000000001,"N_COORD97":2542937.9900000002,"ADDRESS":"土庫路１８５巷２８號","OBJECTID":267452},"geometry":{"x":174402.57000000123,"y":2542937.9900000002}},{"attributes":{"ID":267458,"DIS_CODE":0,"TOWNNAME":"仁德區","LI":"土庫里","LIN":"14鄰","STREET":"土庫路","SECT":" ","MAREA":" ","LANE":"１８５巷","ALLEY":" ","HOUSE_NO":"４０號","E_COORD97":174454.09,"N_COORD97":2542960.2400000002,"ADDRESS":"土庫路１８５巷４０號","OBJECTID":267453},"geometry":{"x":174454.08999999892,"y":2542960.2400000002}},{"attributes":{"ID":267459,"DIS_CODE":0,"TOWNNAME":"仁德區","LI":"土庫里","LIN":"14鄰","STREET":"土庫路","SECT":" ","MAREA":" ","LANE":"１８５巷","ALLEY":" ","HOUSE_NO":"２２號","E_COORD97":174389.69,"N_COORD97":2542933.75,"ADDRESS":"土庫路１８５巷２２號","OBJECTID":267454},"geometry":{"x":174389.69000000227,"y":2542933.75}},{"attributes":{"ID":267460,"DIS_CODE":0,"TOWNNAME":"仁德區","LI":"仁義里","LIN":"14鄰","STREET":"義林路","SECT":" ","MAREA":" ","LANE":"２００巷","ALLEY":" ","HOUSE_NO":"４５號","E_COORD97":174684.07999999999,"N_COORD97":2541281.1400000001,"ADDRESS":"義林路２００巷４５號","OBJECTID":267455},"geometry":{"x":174684.08000000101,"y":2541281.1400000043}},{"attributes":{"ID":267461,"DIS_CODE":0,"TOWNNAME":"永康區","LI":"永康里","LIN":"3鄰","STREET":"中山路","SECT":" ","MAREA":" ","LANE":" ","ALLEY":" ","HOUSE_NO":"１２號七樓之１","E_COORD97":173882.42999999999,"N_COORD97":2547415.23,"ADDRESS":"中山路１２號七樓之１","OBJECTID":267456},"geometry":{"x":173882.43000000063,"y":2547415.2300000023}},{"attributes":{"ID":267462,"DIS_CODE":0,"TOWNNAME":"永康區","LI":"北灣里","LIN":"3鄰","STREET":"文賢街","SECT":" ","MAREA":" ","LANE":" ","ALLEY":" ","HOUSE_NO":"２１３號","E_COORD97":175363.14999999999,"N_COORD97":2545554.3399999999,"ADDRESS":"文賢街２１３號","OBJECTID":267457},"geometry":{"x":175363.1500000013,"y":2545554.3400000036}},{"attributes":{"ID":267463,"DIS_CODE":0,"TOWNNAME":"永康區","LI":"北灣里","LIN":"3鄰","STREET":"信義街","SECT":" ","MAREA":" ","LANE":" ","ALLEY":" ","HOUSE_NO":"７９號","E_COORD97":175327.67000000001,"N_COORD97":2545644.1400000001,"ADDRESS":"信義街７９號","OBJECTID":267458},"geometry":{"x":175327.66999999993,"y":2545644.1400000006}},{"attributes":{"ID":267464,"DIS_CODE":0,"TOWNNAME":"永康區","LI":"北灣里","LIN":"3鄰","STREET":"信義街","SECT":" ","MAREA":" ","LANE":" ","ALLEY":" ","HOUSE_NO":"７７號","E_COORD97":175331.73000000001,"N_COORD97":2545644.8900000001,"ADDRESS":"信義街７７號","OBJECTID":267459},"geometry":{"x":175331.73000000045,"y":2545644.8900000006}},{"attributes":{"ID":267465,"DIS_CODE":0,"TOWNNAME":"仁德區","LI":"仁義里","LIN":"14鄰","STREET":"義林路","SECT":" ","MAREA":" ","LANE":"２００巷","ALLEY":" ","HOUSE_NO":"５２號","E_COORD97":174701.32000000001,"N_COORD97":2541276.27,"ADDRESS":"義林路２００巷５２號","OBJECTID":267460},"geometry":{"x":174701.32000000123,"y":2541276.2700000014}},{"attributes":{"ID":267466,"DIS_CODE":0,"TOWNNAME":"仁德區","LI":"土庫里","LIN":"14鄰","STREET":"土庫路","SECT":" ","MAREA":" ","LANE":"１８５巷","ALLEY":" ","HOUSE_NO":"１６號","E_COORD97":174375.17999999999,"N_COORD97":2542920.5,"ADDRESS":"土庫路１８５巷１６號","OBJECTID":267461},"geometry":{"x":174375.1799999997,"y":2542920.5000000019}},{"attributes":{"ID":267467,"DIS_CODE":0,"TOWNNAME":"永康區","LI":"北灣里","LIN":"3鄰","STREET":"信義街","SECT":" ","MAREA":" ","LANE":" ","ALLEY":" ","HOUSE_NO":"２５號","E_COORD97":175551.70000000001,"N_COORD97":2545653.0099999998,"ADDRESS":"信義街２５號","OBJECTID":267462},"geometry":{"x":175551.70000000019,"y":2545653.0100000016}},{"attributes":{"ID":267468,"DIS_CODE":0,"TOWNNAME":"仁德區","LI":"仁義里","LIN":"14鄰","STREET":"義林路","SECT":" ","MAREA":" ","LANE":"２００巷","ALLEY":" ","HOUSE_NO":"４９號","E_COORD97":174679.92999999999,"N_COORD97":2541293.3900000001,"ADDRESS":"義林路２００巷４９號","OBJECTID":267463},"geometry":{"x":174679.9299999997,"y":2541293.3900000025}},{"attributes":{"ID":267469,"DIS_CODE":0,"TOWNNAME":"中西區","LI":"保安里","LIN":"3鄰","STREET":"保安路","SECT":" ","MAREA":" ","LANE":" ","ALLEY":" ","HOUSE_NO":"７６號","E_COORD97":167581.17000000001,"N_COORD97":2543453,"ADDRESS":"保安路７６號","OBJECTID":267464},"geometry":{"x":167581.16999999993,"y":2543453}},{"attributes":{"ID":267470,"DIS_CODE":0,"TOWNNAME":"仁德區","LI":"仁義里","LIN":"14鄰","STREET":"義林路","SECT":" ","MAREA":" ","LANE":"２００巷","ALLEY":" ","HOUSE_NO":"５１號","E_COORD97":174677.63,"N_COORD97":2541299.6400000001,"ADDRESS":"義林路２００巷５１號","OBJECTID":267465},"geometry":{"x":174677.62999999896,"y":2541299.6400000025}},{"attributes":{"ID":267471,"DIS_CODE":0,"TOWNNAME":"永康區","LI":"永康里","LIN":"3鄰","STREET":"中山北路","SECT":" ","MAREA":" ","LANE":" ","ALLEY":" ","HOUSE_NO":"１３號","E_COORD97":173915.07999999999,"N_COORD97":2547376.3599999999,"ADDRESS":"中山北路１３號","OBJECTID":267466},"geometry":{"x":173915.08000000007,"y":2547376.3599999994}},{"attributes":{"ID":267472,"DIS_CODE":0,"TOWNNAME":"仁德區","LI":"土庫里","LIN":"14鄰","STREET":"土庫路","SECT":" ","MAREA":" ","LANE":"１８５巷","ALLEY":" ","HOUSE_NO":"９號","E_COORD97":174398.73000000001,"N_COORD97":2542975.9900000002,"ADDRESS":"土庫路１８５巷９號","OBJECTID":267467},"geometry":{"x":174398.73000000138,"y":2542975.9900000002}},{"attributes":{"ID":267473,"DIS_CODE":0,"TOWNNAME":"仁德區","LI":"仁義里","LIN":"14鄰","STREET":"義林路","SECT":" ","MAREA":" ","LANE":"２００巷","ALLEY":" ","HOUSE_NO":"５７號","E_COORD97":174671.14999999999,"N_COORD97":2541318.1400000001,"ADDRESS":"義林路２００巷５７號","OBJECTID":267468},"geometry":{"x":174671.15000000037,"y":2541318.1399999987}},{"attributes":{"ID":267474,"DIS_CODE":0,"TOWNNAME":"仁德區","LI":"仁義里","LIN":"14鄰","STREET":"義林路","SECT":" ","MAREA":" ","LANE":"２００巷","ALLEY":" ","HOUSE_NO":"４８號","E_COORD97":174699.34,"N_COORD97":2541263.02,"ADDRESS":"義林路２００巷４８號","OBJECTID":267469},"geometry":{"x":174699.33999999985,"y":2541263.0199999996}},{"attributes":{"ID":267475,"DIS_CODE":0,"TOWNNAME":"永康區","LI":"北灣里","LIN":"3鄰","STREET":"文賢街","SECT":" ","MAREA":" ","LANE":" ","ALLEY":" ","HOUSE_NO":"２２９號","E_COORD97":175365.48000000001,"N_COORD97":2545623.2200000002,"ADDRESS":"文賢街２２９號","OBJECTID":267470},"geometry":{"x":175365.48000000045,"y":2545623.2200000007}},{"attributes":{"ID":267476,"DIS_CODE":0,"TOWNNAME":"永康區","LI":"北灣里","LIN":"3鄰","STREET":"文賢街","SECT":" ","MAREA":" ","LANE":" ","ALLEY":" ","HOUSE_NO":"２４１號","E_COORD97":175364.48000000001,"N_COORD97":2545648.21,"ADDRESS":"文賢街２４１號","OBJECTID":267471},"geometry":{"x":175364.48000000138,"y":2545648.2100000028}},{"attributes":{"ID":267477,"DIS_CODE":0,"TOWNNAME":"仁德區","LI":"二行里","LIN":"14鄰","STREET":"中正西路","SECT":" ","MAREA":" ","LANE":"３５３巷","ALLEY":" ","HOUSE_NO":"４７號","E_COORD97":169874.67999999999,"N_COORD97":2535345.5,"ADDRESS":"中正西路３５３巷４７號","OBJECTID":267472},"geometry":{"x":169874.68000000156,"y":2535345.5000000019}},{"attributes":{"ID":267478,"DIS_CODE":0,"TOWNNAME":"中西區","LI":"保安里","LIN":"3鄰","STREET":"保安路","SECT":" ","MAREA":" ","LANE":" ","ALLEY":" ","HOUSE_NO":"７８號","E_COORD97":167569.47,"N_COORD97":2543455.4500000002,"ADDRESS":"保安路７８號","OBJECTID":267473},"geometry":{"x":167569.47000000067,"y":2543455.4500000011}},{"attributes":{"ID":267479,"DIS_CODE":0,"TOWNNAME":"仁德區","LI":"一甲里","LIN":"14鄰","STREET":"忠義路","SECT":" ","MAREA":" ","LANE":"２４１巷","ALLEY":" ","HOUSE_NO":"２０號","E_COORD97":173879.37,"N_COORD97":2541781.02,"ADDRESS":"忠義路２４１巷２０號","OBJECTID":267474},"geometry":{"x":173879.37000000011,"y":2541781.0199999996}},{"attributes":{"ID":267480,"DIS_CODE":0,"TOWNNAME":"仁德區","LI":"一甲里","LIN":"14鄰","STREET":"忠義路","SECT":" ","MAREA":" ","LANE":"２４１巷","ALLEY":" ","HOUSE_NO":"２７號","E_COORD97":173920.07000000001,"N_COORD97":2541770.27,"ADDRESS":"忠義路２４１巷２７號","OBJECTID":267475},"geometry":{"x":173920.0700000003,"y":2541770.2699999996}},{"attributes":{"ID":267481,"DIS_CODE":0,"TOWNNAME":"中西區","LI":"開山里","LIN":"14鄰","STREET":"大同路","SECT":"一段","MAREA":" ","LANE":"４６巷","ALLEY":" ","HOUSE_NO":"１３號","E_COORD97":169075.54000000001,"N_COORD97":2543118.54,"ADDRESS":"大同路一段４６巷１３號","OBJECTID":267476},"geometry":{"x":169075.54000000004,"y":2543118.540000001}},{"attributes":{"ID":267482,"DIS_CODE":0,"TOWNNAME":"中西區","LI":"開山里","LIN":"14鄰","STREET":"大同路","SECT":"一段","MAREA":" ","LANE":"４６巷","ALLEY":" ","HOUSE_NO":"１５號","E_COORD97":169076.79999999999,"N_COORD97":2543121.9700000002,"ADDRESS":"大同路一段４６巷１５號","OBJECTID":267477},"geometry":{"x":169076.79999999981,"y":2543121.9700000007}},{"attributes":{"ID":267483,"DIS_CODE":0,"TOWNNAME":"安南區","LI":"\u25A0南里","LIN":"3鄰","STREET":"環福街","SECT":" ","MAREA":" ","LANE":" ","ALLEY":" ","HOUSE_NO":"８１號","E_COORD97":170309.32000000001,"N_COORD97":2552453.8399999999,"ADDRESS":"環福街８１號","OBJECTID":267478},"geometry":{"x":170309.3200000003,"y":2552453.8400000036}},{"attributes":{"ID":267484,"DIS_CODE":0,"TOWNNAME":"中西區","LI":"保安里","LIN":"3鄰","STREET":"保安路","SECT":" ","MAREA":" ","LANE":" ","ALLEY":" ","HOUSE_NO":"５４號","E_COORD97":167625.03,"N_COORD97":2543443.7000000002,"ADDRESS":"保安路５４號","OBJECTID":267479},"geometry":{"x":167625.02999999933,"y":2543443.7000000011}},{"attributes":{"ID":267485,"DIS_CODE":0,"TOWNNAME":"安南區","LI":"\u25A0南里","LIN":"3鄰","STREET":"環福街","SECT":" ","MAREA":" ","LANE":" ","ALLEY":" ","HOUSE_NO":"８３號","E_COORD97":170314.10999999999,"N_COORD97":2552453.7000000002,"ADDRESS":"環福街８３號","OBJECTID":267480},"geometry":{"x":170314.11000000034,"y":2552453.6999999993}},{"attributes":{"ID":267486,"DIS_CODE":0,"TOWNNAME":"安南區","LI":"頂安里","LIN":"3鄰","STREET":"怡安路","SECT":"一段","MAREA":" ","LANE":" ","ALLEY":" ","HOUSE_NO":"３４７號","E_COORD97":168775.64000000001,"N_COORD97":2549134.1899999999,"ADDRESS":"怡安路一段３４７號","OBJECTID":267481},"geometry":{"x":168775.6400000006,"y":2549134.1899999995}},{"attributes":{"ID":267487,"DIS_CODE":0,"TOWNNAME":"安南區","LI":"頂安里","LIN":"3鄰","STREET":"怡安路","SECT":"一段","MAREA":" ","LANE":" ","ALLEY":" ","HOUSE_NO":"３４５號","E_COORD97":168784.51000000001,"N_COORD97":2549131.3999999999,"ADDRESS":"怡安路一段３４５號","OBJECTID":267482},"geometry":{"x":168784.51000000071,"y":2549131.4000000041}},{"attributes":{"ID":267488,"DIS_CODE":0,"TOWNNAME":"安南區","LI":"鳳凰里","LIN":"3鄰","STREET":"安中路","SECT":"一段","MAREA":" ","LANE":" ","ALLEY":" ","HOUSE_NO":"５９０號","E_COORD97":167882.937087,"N_COORD97":2549083.4819100001,"ADDRESS":"安中路一段５９０號","OBJECTID":267483},"geometry":{"x":167882.93708700128,"y":2549083.4819069989}},{"attributes":{"ID":267489,"DIS_CODE":0,"TOWNNAME":"東區","LI":"大福里","LIN":"4鄰","STREET":"立德二路","SECT":" ","MAREA":" ","LANE":" ","ALLEY":" ","HOUSE_NO":"３４號","E_COORD97":169533.92000000001,"N_COORD97":2541725.1699999999,"ADDRESS":"立德二路３４號","OBJECTID":267484},"geometry":{"x":169533.91999999993,"y":2541725.1700000018}},{"attributes":{"ID":267490,"DIS_CODE":0,"TOWNNAME":"中西區","LI":"開山里","LIN":"14鄰","STREET":"大同路","SECT":"一段","MAREA":" ","LANE":"４６巷","ALLEY":" ","HOUSE_NO":"１７號","E_COORD97":169078.85999999999,"N_COORD97":2543124.8199999998,"ADDRESS":"大同路一段４６巷１７號","OBJECTID":267485},"geometry":{"x":169078.86000000034,"y":2543124.8200000022}},{"attributes":{"ID":267491,"DIS_CODE":0,"TOWNNAME":"中西區","LI":"開山里","LIN":"14鄰","STREET":"大同路","SECT":"一段","MAREA":" ","LANE":"４６巷","ALLEY":" ","HOUSE_NO":"１９號","E_COORD97":169081.26000000001,"N_COORD97":2543130.0800000001,"ADDRESS":"大同路一段４６巷１９號","OBJECTID":267486},"geometry":{"x":169081.26000000071,"y":2543130.0800000019}},{"attributes":{"ID":267492,"DIS_CODE":0,"TOWNNAME":"中西區","LI":"開山里","LIN":"14鄰","STREET":"大同路","SECT":"一段","MAREA":" ","LANE":"４６巷","ALLEY":" ","HOUSE_NO":"３號","E_COORD97":169091.10000000001,"N_COORD97":2543124.54,"ADDRESS":"大同路一段４６巷３號","OBJECTID":267487},"geometry":{"x":169091.10000000056,"y":2543124.5400000028}},{"attributes":{"ID":267493,"DIS_CODE":0,"TOWNNAME":"中西區","LI":"開山里","LIN":"14鄰","STREET":"大同路","SECT":"一段","MAREA":" ","LANE":"４６巷","ALLEY":" ","HOUSE_NO":"５號","E_COORD97":169088.47,"N_COORD97":2543119.8500000001,"ADDRESS":"大同路一段４６巷５號","OBJECTID":267488},"geometry":{"x":169088.47000000067,"y":2543119.8500000034}},{"attributes":{"ID":267494,"DIS_CODE":0,"TOWNNAME":"中西區","LI":"開山里","LIN":"14鄰","STREET":"大同路","SECT":"一段","MAREA":" ","LANE":"４６巷","ALLEY":" ","HOUSE_NO":"７號","E_COORD97":169085.73000000001,"N_COORD97":2543114.6000000001,"ADDRESS":"大同路一段４６巷７號","OBJECTID":267489},"geometry":{"x":169085.73000000138,"y":2543114.6000000034}},{"attributes":{"ID":267495,"DIS_CODE":0,"TOWNNAME":"中西區","LI":"開山里","LIN":"14鄰","STREET":"大同路","SECT":"一段","MAREA":" ","LANE":"４６巷","ALLEY":" ","HOUSE_NO":"９號","E_COORD97":169083.78,"N_COORD97":2543109.9100000001,"ADDRESS":"大同路一段４６巷９號","OBJECTID":267490},"geometry":{"x":169083.78000000119,"y":2543109.910000002}},{"attributes":{"ID":267496,"DIS_CODE":0,"TOWNNAME":"中西區","LI":"開山里","LIN":"14鄰","STREET":"大同路","SECT":"一段","MAREA":" ","LANE":"５６巷","ALLEY":" ","HOUSE_NO":"１０號","E_COORD97":169069.82000000001,"N_COORD97":2543092.2000000002,"ADDRESS":"大同路一段５６巷１０號","OBJECTID":267491},"geometry":{"x":169069.82000000123,"y":2543092.1999999993}},{"attributes":{"ID":267497,"DIS_CODE":0,"TOWNNAME":"中西區","LI":"開山里","LIN":"14鄰","STREET":"大同路","SECT":"一段","MAREA":" ","LANE":"５６巷","ALLEY":" ","HOUSE_NO":"６號","E_COORD97":169086.29999999999,"N_COORD97":2543096.0800000001,"ADDRESS":"大同路一段５６巷６號","OBJECTID":267492},"geometry":{"x":169086.30000000075,"y":2543096.0800000019}},{"attributes":{"ID":267498,"DIS_CODE":0,"TOWNNAME":"中西區","LI":"開山里","LIN":"14鄰","STREET":"大同路","SECT":"一段","MAREA":" ","LANE":"５６巷","ALLEY":" ","HOUSE_NO":"８號","E_COORD97":169076.34,"N_COORD97":2543099.3999999999,"ADDRESS":"大同路一段５６巷８號","OBJECTID":267493},"geometry":{"x":169076.33999999985,"y":2543099.4000000004}},{"attributes":{"ID":267499,"DIS_CODE":0,"TOWNNAME":"東區","LI":"泉南里","LIN":"14鄰","STREET":"光華街","SECT":" ","MAREA":" ","LANE":"２２９巷","ALLEY":" ","HOUSE_NO":"３２號","E_COORD97":169442.85999999999,"N_COORD97":2542929.3999999999,"ADDRESS":"光華街２２９巷３２號","OBJECTID":267494},"geometry":{"x":169442.86000000034,"y":2542929.4000000004}},{"attributes":{"ID":267500,"DIS_CODE":0,"TOWNNAME":"東區","LI":"泉南里","LIN":"14鄰","STREET":"光華街","SECT":" ","MAREA":" ","LANE":"２２９巷","ALLEY":" ","HOUSE_NO":"３６號","E_COORD97":169442.31,"N_COORD97":2542920.3100000001,"ADDRESS":"光華街２２９巷３６號","OBJECTID":267495},"geometry":{"x":169442.31000000052,"y":2542920.3100000005}},{"attributes":{"ID":267501,"DIS_CODE":0,"TOWNNAME":"東區","LI":"泉南里","LIN":"14鄰","STREET":"光華街","SECT":" ","MAREA":" ","LANE":"２２９巷","ALLEY":" ","HOUSE_NO":"３８號","E_COORD97":169441.39999999999,"N_COORD97":2542917.5800000001,"ADDRESS":"光華街２２９巷３８號","OBJECTID":267496},"geometry":{"x":169441.40000000037,"y":2542917.5800000001}},{"attributes":{"ID":267502,"DIS_CODE":0,"TOWNNAME":"東區","LI":"泉南里","LIN":"14鄰","STREET":"光華街","SECT":" ","MAREA":" ","LANE":"２２９巷","ALLEY":" ","HOUSE_NO":"３０號","E_COORD97":169443.76999999999,"N_COORD97":2542932.3100000001,"ADDRESS":"光華街２２９巷３０號","OBJECTID":267497},"geometry":{"x":169443.77000000048,"y":2542932.3100000024}},{"attributes":{"ID":267503,"DIS_CODE":0,"TOWNNAME":"東區","LI":"東光里","LIN":"14鄰","STREET":"莊敬路","SECT":" ","MAREA":" ","LANE":"８１巷","ALLEY":" ","HOUSE_NO":"４號","E_COORD97":171318.31,"N_COORD97":2543888.0699999998,"ADDRESS":"莊敬路８１巷４號","OBJECTID":267498},"geometry":{"x":171318.31000000052,"y":2543888.0700000003}},{"attributes":{"ID":267504,"DIS_CODE":0,"TOWNNAME":"永康區","LI":"甲頂里","LIN":"14鄰","STREET":"大武街","SECT":" ","MAREA":" ","LANE":"１８巷","ALLEY":" ","HOUSE_NO":"５１號","E_COORD97":170425.42999999999,"N_COORD97":2546595.2400000002,"ADDRESS":"大武街１８巷５１號","OBJECTID":267499},"geometry":{"x":170425.4299999997,"y":2546595.2400000002}},{"attributes":{"ID":267505,"DIS_CODE":0,"TOWNNAME":"中西區","LI":"五妃里","LIN":"14鄰","STREET":"南門路","SECT":" ","MAREA":" ","LANE":"２０９巷","ALLEY":" ","HOUSE_NO":"３號","E_COORD97":168440.66,"N_COORD97":2542861.73,"ADDRESS":"南門路２０９巷３號","OBJECTID":267500},"geometry":{"x":168440.66000000015,"y":2542861.7300000023}},{"attributes":{"ID":267506,"DIS_CODE":0,"TOWNNAME":"東區","LI":"小東里","LIN":"13鄰","STREET":"光明街","SECT":" ","MAREA":" ","LANE":" ","ALLEY":" ","HOUSE_NO":"６２號","E_COORD97":170889.98000000001,"N_COORD97":2544255.0099999998,"ADDRESS":"光明街６２號","OBJECTID":267501},"geometry":{"x":170889.98000000045,"y":2544255.0100000016}},{"attributes":{"ID":267507,"DIS_CODE":0,"TOWNNAME":"安南區","LI":"南興里","LIN":"3鄰","STREET":"安興街","SECT":" ","MAREA":" ","LANE":" ","ALLEY":" ","HOUSE_NO":"４３１號","E_COORD97":163568.34,"N_COORD97":2552320.5499999998,"ADDRESS":"安興街４３１號","OBJECTID":267502},"geometry":{"x":163568.34000000078,"y":2552320.5500000007}},{"attributes":{"ID":267508,"DIS_CODE":0,"TOWNNAME":"安南區","LI":"\u25A0南里","LIN":"3鄰","STREET":"環福街","SECT":" ","MAREA":" ","LANE":" ","ALLEY":" ","HOUSE_NO":"８５號","E_COORD97":170319.17000000001,"N_COORD97":2552453.4399999999,"ADDRESS":"環福街８５號","OBJECTID":267503},"geometry":{"x":170319.17000000179,"y":2552453.4400000013}},{"attributes":{"ID":267509,"DIS_CODE":0,"TOWNNAME":"安南區","LI":"溪心里","LIN":"3鄰","STREET":"安中路","SECT":"二段","MAREA":" ","LANE":" ","ALLEY":" ","HOUSE_NO":"３２０號","E_COORD97":166407.34,"N_COORD97":2549749.6299999999,"ADDRESS":"安中路二段３２０號","OBJECTID":267504},"geometry":{"x":166407.34000000078,"y":2549749.6300000008}},{"attributes":{"ID":267510,"DIS_CODE":0,"TOWNNAME":"中西區","LI":"五妃里","LIN":"14鄰","STREET":"南門路","SECT":" ","MAREA":" ","LANE":"２０９巷","ALLEY":" ","HOUSE_NO":"３號之１","E_COORD97":168441.57999999999,"N_COORD97":2542866.3999999999,"ADDRESS":"南門路２０９巷３號之１","OBJECTID":267505},"geometry":{"x":168441.57999999914,"y":2542866.4000000022}},{"attributes":{"ID":267511,"DIS_CODE":0,"TOWNNAME":"中西區","LI":"五妃里","LIN":"14鄰","STREET":"南門路","SECT":" ","MAREA":" ","LANE":"２０９巷","ALLEY":" ","HOUSE_NO":"３號之２","E_COORD97":168458.60000000001,"N_COORD97":2542867.02,"ADDRESS":"南門路２０９巷３號之２","OBJECTID":267506},"geometry":{"x":168458.60000000056,"y":2542867.0199999996}},{"attributes":{"ID":267512,"DIS_CODE":0,"TOWNNAME":"中西區","LI":"五妃里","LIN":"14鄰","STREET":"南門路","SECT":" ","MAREA":" ","LANE":"２０９巷","ALLEY":" ","HOUSE_NO":"９號","E_COORD97":168457.85999999999,"N_COORD97":2542845.9399999999,"ADDRESS":"南門路２０９巷９號","OBJECTID":267507},"geometry":{"x":168457.86000000127,"y":2542845.9400000013}},{"attributes":{"ID":267513,"DIS_CODE":0,"TOWNNAME":"永康區","LI":"龍潭里","LIN":"14鄰","STREET":"龍橋街","SECT":" ","MAREA":" ","LANE":"９３巷","ALLEY":" ","HOUSE_NO":"１６號","E_COORD97":174653.28,"N_COORD97":2548439.0099999998,"ADDRESS":"龍橋街９３巷１６號","OBJECTID":267508},"geometry":{"x":174653.27999999933,"y":2548439.0100000016}},{"attributes":{"ID":267514,"DIS_CODE":0,"TOWNNAME":"安南區","LI":"溪心里","LIN":"3鄰","STREET":"安中路","SECT":"二段","MAREA":" ","LANE":" ","ALLEY":" ","HOUSE_NO":"３２２號","E_COORD97":166402.88,"N_COORD97":2549750.2999999998,"ADDRESS":"安中路二段３２２號","OBJECTID":267509},"geometry":{"x":166402.87999999989,"y":2549750.3000000026}},{"attributes":{"ID":267515,"DIS_CODE":0,"TOWNNAME":"安南區","LI":"\u25A0南里","LIN":"3鄰","STREET":"環福街","SECT":" ","MAREA":" ","LANE":" ","ALLEY":" ","HOUSE_NO":"７１號","E_COORD97":170284.42999999999,"N_COORD97":2552455.0299999998,"ADDRESS":"環福街７１號","OBJECTID":267510},"geometry":{"x":170284.4299999997,"y":2552455.0299999975}},{"attributes":{"ID":267516,"DIS_CODE":0,"TOWNNAME":"安南區","LI":"\u25A0南里","LIN":"3鄰","STREET":"環福街","SECT":" ","MAREA":" ","LANE":" ","ALLEY":" ","HOUSE_NO":"７３號","E_COORD97":170289.89000000001,"N_COORD97":2552455.4300000002,"ADDRESS":"環福街７３號","OBJECTID":267511},"geometry":{"x":170289.88999999966,"y":2552455.4299999997}},{"attributes":{"ID":267517,"DIS_CODE":0,"TOWNNAME":"中西區","LI":"仙草里","LIN":"14鄰","STREET":"西門路","SECT":"一段","MAREA":" ","LANE":"４８２巷","ALLEY":" ","HOUSE_NO":"１５號","E_COORD97":167802.10000000001,"N_COORD97":2542683.27,"ADDRESS":"西門路一段４８２巷１５號","OBJECTID":267512},"geometry":{"x":167802.10000000149,"y":2542683.2700000014}},{"attributes":{"ID":267518,"DIS_CODE":0,"TOWNNAME":"中西區","LI":"仙草里","LIN":"14鄰","STREET":"西門路","SECT":"一段","MAREA":" ","LANE":"４８２巷","ALLEY":" ","HOUSE_NO":"１９號","E_COORD97":167811.41,"N_COORD97":2542676.9300000002,"ADDRESS":"西門路一段４８２巷１９號","OBJECTID":267513},"geometry":{"x":167811.41000000108,"y":2542676.9299999997}},{"attributes":{"ID":267519,"DIS_CODE":0,"TOWNNAME":"中西區","LI":"仙草里","LIN":"14鄰","STREET":"西門路","SECT":"一段","MAREA":" ","LANE":"４８２巷","ALLEY":" ","HOUSE_NO":"１號","E_COORD97":167765.84,"N_COORD97":2542688.4100000001,"ADDRESS":"西門路一段４８２巷１號","OBJECTID":267514},"geometry":{"x":167765.84000000078,"y":2542688.4100000001}},{"attributes":{"ID":267520,"DIS_CODE":0,"TOWNNAME":"東區","LI":"富裕里","LIN":"14鄰","STREET":"裕豐街","SECT":" ","MAREA":" ","LANE":"９８巷","ALLEY":" ","HOUSE_NO":"９號","E_COORD97":170770.26000000001,"N_COORD97":2542877.8500000001,"ADDRESS":"裕豐街９８巷９號","OBJECTID":267515},"geometry":{"x":170770.25999999978,"y":2542877.8499999996}},{"attributes":{"ID":267521,"DIS_CODE":0,"TOWNNAME":"中西區","LI":"仙草里","LIN":"14鄰","STREET":"西門路","SECT":"一段","MAREA":" ","LANE":"４８２巷","ALLEY":" ","HOUSE_NO":"２１號","E_COORD97":167815.57000000001,"N_COORD97":2542675.1499999999,"ADDRESS":"西門路一段４８２巷２１號","OBJECTID":267516},"geometry":{"x":167815.57000000123,"y":2542675.1500000022}},{"attributes":{"ID":267522,"DIS_CODE":0,"TOWNNAME":"東區","LI":"新東里","LIN":"14鄰","STREET":"裕豐街","SECT":" ","MAREA":" ","LANE":"１１５巷","ALLEY":" ","HOUSE_NO":"６號","E_COORD97":170728.95999999999,"N_COORD97":2543029.4500000002,"ADDRESS":"裕豐街１１５巷６號","OBJECTID":267517},"geometry":{"x":170728.95999999996,"y":2543029.4499999993}},{"attributes":{"ID":267523,"DIS_CODE":0,"TOWNNAME":"安南區","LI":"淵中里","LIN":"14鄰","STREET":"安中路","SECT":"四段","MAREA":" ","LANE":"１５４巷","ALLEY":" ","HOUSE_NO":"６０號","E_COORD97":165064.89999999999,"N_COORD97":2550147.2400000002,"ADDRESS":"安中路四段１５４巷６０號","OBJECTID":267518},"geometry":{"x":165064.9000000013,"y":2550147.2400000021}},{"attributes":{"ID":267524,"DIS_CODE":0,"TOWNNAME":"安南區","LI":"淵中里","LIN":"14鄰","STREET":"安中路","SECT":"四段","MAREA":" ","LANE":"１５４巷","ALLEY":" ","HOUSE_NO":"６２號","E_COORD97":165069.23000000001,"N_COORD97":2550150.48,"ADDRESS":"安中路四段１５４巷６２號","OBJECTID":267519},"geometry":{"x":165069.22999999952,"y":2550150.4800000004}},{"attributes":{"ID":267525,"DIS_CODE":0,"TOWNNAME":"安南區","LI":"淵中里","LIN":"14鄰","STREET":"安中路","SECT":"四段","MAREA":" ","LANE":"１５４巷","ALLEY":" ","HOUSE_NO":"６４號","E_COORD97":165072.20000000001,"N_COORD97":2550153.54,"ADDRESS":"安中路四段１５４巷６４號","OBJECTID":267520},"geometry":{"x":165072.20000000019,"y":2550153.540000001}},{"attributes":{"ID":267526,"DIS_CODE":0,"TOWNNAME":"安南區","LI":"淵中里","LIN":"14鄰","STREET":"安中路","SECT":"四段","MAREA":" ","LANE":"１５４巷","ALLEY":" ","HOUSE_NO":"６６號","E_COORD97":165075.72,"N_COORD97":2550156.0699999998,"ADDRESS":"安中路四段１５４巷６６號","OBJECTID":267521},"geometry":{"x":165075.72000000067,"y":2550156.0700000003}},{"attributes":{"ID":267527,"DIS_CODE":0,"TOWNNAME":"安南區","LI":"安西里","LIN":"14鄰","STREET":"安和路","SECT":"一段","MAREA":" ","LANE":"１５９巷","ALLEY":" ","HOUSE_NO":"１２６號","E_COORD97":169182.63,"N_COORD97":2547969.5800000001,"ADDRESS":"安和路一段１５９巷１２６號","OBJECTID":267522},"geometry":{"x":169182.63000000082,"y":2547969.5800000001}},{"attributes":{"ID":267528,"DIS_CODE":0,"TOWNNAME":"安南區","LI":"安西里","LIN":"14鄰","STREET":"安和路","SECT":"一段","MAREA":" ","LANE":"１５９巷","ALLEY":" ","HOUSE_NO":"１２８號","E_COORD97":169181.45999999999,"N_COORD97":2547973.8799999999,"ADDRESS":"安和路一段１５９巷１２８號","OBJECTID":267523},"geometry":{"x":169181.46000000183,"y":2547973.8800000027}},{"attributes":{"ID":267529,"DIS_CODE":0,"TOWNNAME":"安南區","LI":"城中里","LIN":"3鄰","STREET":"安中路","SECT":"六段","MAREA":" ","LANE":"５１９巷","ALLEY":" ","HOUSE_NO":"６號","E_COORD97":160891.72,"N_COORD97":2551342.21,"ADDRESS":"安中路六段５１９巷６號","OBJECTID":267524},"geometry":{"x":160891.7200000016,"y":2551342.2100000009}},{"attributes":{"ID":267530,"DIS_CODE":0,"TOWNNAME":"安南區","LI":"\u25A0南里","LIN":"3鄰","STREET":"環福街","SECT":" ","MAREA":" ","LANE":" ","ALLEY":" ","HOUSE_NO":"７５號","E_COORD97":170294.67999999999,"N_COORD97":2552454.8999999999,"ADDRESS":"環福街７５號","OBJECTID":267525},"geometry":{"x":170294.6799999997,"y":2552454.9000000022}},{"attributes":{"ID":267531,"DIS_CODE":0,"TOWNNAME":"安南區","LI":"\u25A0南里","LIN":"3鄰","STREET":"環福街","SECT":" ","MAREA":" ","LANE":" ","ALLEY":" ","HOUSE_NO":"７７號","E_COORD97":170299.60000000001,"N_COORD97":2552454.77,"ADDRESS":"環福街７７號","OBJECTID":267526},"geometry":{"x":170299.60000000056,"y":2552454.7700000014}},{"attributes":{"ID":267532,"DIS_CODE":0,"TOWNNAME":"新營區","LI":"民榮里","LIN":"17鄰","STREET":"新進路","SECT":"二段","MAREA":" ","LANE":" ","ALLEY":" ","HOUSE_NO":"２３６號","E_COORD97":179065.59341100001,"N_COORD97":2577749.3568799999,"ADDRESS":"新進路二段２３６號","OBJECTID":267527},"geometry":{"x":179065.59341100138,"y":2577749.3568830006}},{"attributes":{"ID":267533,"DIS_CODE":0,"TOWNNAME":"安南區","LI":"安西里","LIN":"14鄰","STREET":"安和路","SECT":"一段","MAREA":" ","LANE":"１５９巷","ALLEY":" ","HOUSE_NO":"１３０號","E_COORD97":169180.28,"N_COORD97":2547978.1800000002,"ADDRESS":"安和路一段１５９巷１３０號","OBJECTID":267528},"geometry":{"x":169180.28000000119,"y":2547978.1799999997}},{"attributes":{"ID":267534,"DIS_CODE":0,"TOWNNAME":"安南區","LI":"安西里","LIN":"14鄰","STREET":"安和路","SECT":"一段","MAREA":" ","LANE":"１５９巷","ALLEY":" ","HOUSE_NO":"１３６號","E_COORD97":169178.32999999999,"N_COORD97":2547993.0299999998,"ADDRESS":"安和路一段１５９巷１３６號","OBJECTID":267529},"geometry":{"x":169178.33000000007,"y":2547993.0299999993}},{"attributes":{"ID":267535,"DIS_CODE":0,"TOWNNAME":"安南區","LI":"\u25A0南里","LIN":"3鄰","STREET":"環福街","SECT":" ","MAREA":" ","LANE":" ","ALLEY":" ","HOUSE_NO":"９１號","E_COORD97":170334.48000000001,"N_COORD97":2552451.5800000001,"ADDRESS":"環福街９１號","OBJECTID":267530},"geometry":{"x":170334.47999999952,"y":2552451.5800000001}},{"attributes":{"ID":267536,"DIS_CODE":0,"TOWNNAME":"安南區","LI":"佃東里","LIN":"3鄰","STREET":"公學路","SECT":"四段","MAREA":" ","LANE":" ","ALLEY":" ","HOUSE_NO":"４９號","E_COORD97":165767.67999999999,"N_COORD97":2552014.6499999999,"ADDRESS":"公學路四段４９號","OBJECTID":267531},"geometry":{"x":165767.68000000063,"y":2552014.6500000041}},{"attributes":{"ID":267537,"DIS_CODE":0,"TOWNNAME":"安南區","LI":"佃東里","LIN":"14鄰","STREET":"公學路","SECT":"四段","MAREA":" ","LANE":"２２巷","ALLEY":" ","HOUSE_NO":"１２號","E_COORD97":165878.16,"N_COORD97":2552100.8700000001,"ADDRESS":"公學路四段２２巷１２號","OBJECTID":267532},"geometry":{"x":165878.16000000201,"y":2552100.870000001}},{"attributes":{"ID":267538,"DIS_CODE":0,"TOWNNAME":"安南區","LI":"佃西里","LIN":"14鄰","STREET":"公學路","SECT":"四段","MAREA":" ","LANE":"２３４巷","ALLEY":" ","HOUSE_NO":"２５號","E_COORD97":165441.82000000001,"N_COORD97":2551888.9100000001,"ADDRESS":"公學路四段２３４巷２５號","OBJECTID":267533},"geometry":{"x":165441.82000000123,"y":2551888.910000002}},{"attributes":{"ID":267539,"DIS_CODE":0,"TOWNNAME":"安南區","LI":"佃西里","LIN":"14鄰","STREET":"公學路","SECT":"四段","MAREA":" ","LANE":"２３４巷","ALLEY":" ","HOUSE_NO":"２９號","E_COORD97":165411.78,"N_COORD97":2551878.2000000002,"ADDRESS":"公學路四段２３４巷２９號","OBJECTID":267534},"geometry":{"x":165411.78000000119,"y":2551878.2000000011}},{"attributes":{"ID":267540,"DIS_CODE":0,"TOWNNAME":"安南區","LI":"佃西里","LIN":"14鄰","STREET":"公學路","SECT":"四段","MAREA":" ","LANE":"２３４巷","ALLEY":" ","HOUSE_NO":"３１號","E_COORD97":165412.66,"N_COORD97":2551868.21,"ADDRESS":"公學路四段２３４巷３１號","OBJECTID":267535},"geometry":{"x":165412.66000000108,"y":2551868.2100000009}},{"attributes":{"ID":267541,"DIS_CODE":0,"TOWNNAME":"安南區","LI":"海南里","LIN":"14鄰","STREET":"府安路","SECT":"七段","MAREA":" ","LANE":"６６巷","ALLEY":" ","HOUSE_NO":"２７號","E_COORD97":165843.42000000001,"N_COORD97":2545980.0299999998,"ADDRESS":"府安路七段６６巷２７號","OBJECTID":267536},"geometry":{"x":165843.41999999993,"y":2545980.0300000012}},{"attributes":{"ID":267542,"DIS_CODE":0,"TOWNNAME":"安南區","LI":"海南里","LIN":"14鄰","STREET":"府安路","SECT":"七段","MAREA":" ","LANE":"６６巷","ALLEY":" ","HOUSE_NO":"２８號","E_COORD97":165864.28,"N_COORD97":2545993.8999999999,"ADDRESS":"府安路七段６６巷２８號","OBJECTID":267537},"geometry":{"x":165864.28000000119,"y":2545993.9000000004}},{"attributes":{"ID":267543,"DIS_CODE":0,"TOWNNAME":"安南區","LI":"佃東里","LIN":"3鄰","STREET":"公學路","SECT":"四段","MAREA":" ","LANE":" ","ALLEY":" ","HOUSE_NO":"５１號","E_COORD97":165762.60999999999,"N_COORD97":2552009.29,"ADDRESS":"公學路四段５１號","OBJECTID":267538},"geometry":{"x":165762.61000000034,"y":2552009.2900000028}},{"attributes":{"ID":267544,"DIS_CODE":0,"TOWNNAME":"安南區","LI":"佃東里","LIN":"3鄰","STREET":"公學路","SECT":"四段","MAREA":" ","LANE":" ","ALLEY":" ","HOUSE_NO":"５３號","E_COORD97":165758.32999999999,"N_COORD97":2552011.8700000001,"ADDRESS":"公學路四段５３號","OBJECTID":267539},"geometry":{"x":165758.33000000194,"y":2552011.8700000029}},{"attributes":{"ID":267545,"DIS_CODE":0,"TOWNNAME":"安南區","LI":"佃東里","LIN":"3鄰","STREET":"公學路","SECT":"四段","MAREA":" ","LANE":" ","ALLEY":" ","HOUSE_NO":"５５號","E_COORD97":165754.26000000001,"N_COORD97":2552008.9900000002,"ADDRESS":"公學路四段５５號","OBJECTID":267540},"geometry":{"x":165754.25999999978,"y":2552008.9900000039}},{"attributes":{"ID":267546,"DIS_CODE":0,"TOWNNAME":"安南區","LI":"海南里","LIN":"14鄰","STREET":"府安路","SECT":"七段","MAREA":" ","LANE":"６６巷","ALLEY":" ","HOUSE_NO":"２９號","E_COORD97":165837.34,"N_COORD97":2545985.2999999998,"ADDRESS":"府安路七段６６巷２９號","OBJECTID":267541},"geometry":{"x":165837.33999999985,"y":2545985.3000000007}},{"attributes":{"ID":267547,"DIS_CODE":0,"TOWNNAME":"安南區","LI":"海南里","LIN":"14鄰","STREET":"府安路","SECT":"七段","MAREA":" ","LANE":"６６巷","ALLEY":" ","HOUSE_NO":"４號","E_COORD97":165920.28,"N_COORD97":2545911.27,"ADDRESS":"府安路七段６６巷４號","OBJECTID":267542},"geometry":{"x":165920.28000000119,"y":2545911.2700000014}},{"attributes":{"ID":267548,"DIS_CODE":0,"TOWNNAME":"安南區","LI":"海南里","LIN":"14鄰","STREET":"府安路","SECT":"七段","MAREA":" ","LANE":"６６巷","ALLEY":" ","HOUSE_NO":"５號","E_COORD97":165899.17000000001,"N_COORD97":2545904.7200000002,"ADDRESS":"府安路七段６６巷５號","OBJECTID":267543},"geometry":{"x":165899.16999999993,"y":2545904.7200000007}},{"attributes":{"ID":267549,"DIS_CODE":0,"TOWNNAME":"安南區","LI":"海南里","LIN":"14鄰","STREET":"府安路","SECT":"七段","MAREA":" ","LANE":"６６巷","ALLEY":" ","HOUSE_NO":"６號","E_COORD97":165918.82000000001,"N_COORD97":2545919.3199999998,"ADDRESS":"府安路七段６６巷６號","OBJECTID":267544},"geometry":{"x":165918.8200000003,"y":2545919.3200000003}},{"attributes":{"ID":267550,"DIS_CODE":0,"TOWNNAME":"安南區","LI":"佃東里","LIN":"3鄰","STREET":"公學路","SECT":"四段","MAREA":" ","LANE":" ","ALLEY":" ","HOUSE_NO":"５７號","E_COORD97":165749.48999999999,"N_COORD97":2552010.0800000001,"ADDRESS":"公學路四段５７號","OBJECTID":267545},"geometry":{"x":165749.49000000115,"y":2552010.0800000001}},{"attributes":{"ID":267551,"DIS_CODE":0,"TOWNNAME":"善化區","LI":"文正里","LIN":"14鄰","STREET":"興農路","SECT":" ","MAREA":" ","LANE":"１８８巷","ALLEY":" ","HOUSE_NO":"１０號","E_COORD97":176009.95999999999,"N_COORD97":2559185.5099999998,"ADDRESS":"興農路１８８巷１０號","OBJECTID":267546},"geometry":{"x":176009.96000000089,"y":2559185.5099999979}},{"attributes":{"ID":267552,"DIS_CODE":0,"TOWNNAME":"善化區","LI":"文正里","LIN":"14鄰","STREET":"興農路","SECT":" ","MAREA":" ","LANE":"１８８巷","ALLEY":" ","HOUSE_NO":"２６號","E_COORD97":175979.51999999999,"N_COORD97":2559270.7599999998,"ADDRESS":"興農路１８８巷２６號","OBJECTID":267547},"geometry":{"x":175979.51999999955,"y":2559270.7599999998}},{"attributes":{"ID":267553,"DIS_CODE":0,"TOWNNAME":"安南區","LI":"佃東里","LIN":"3鄰","STREET":"公學路","SECT":"四段","MAREA":" ","LANE":" ","ALLEY":" ","HOUSE_NO":"５９號","E_COORD97":165744.82000000001,"N_COORD97":2552007.7000000002,"ADDRESS":"公學路四段５９號","OBJECTID":267548},"geometry":{"x":165744.81999999937,"y":2552007.7000000011}},{"attributes":{"ID":267554,"DIS_CODE":0,"TOWNNAME":"善化區","LI":"文正里","LIN":"14鄰","STREET":"陽明路","SECT":" ","MAREA":" ","LANE":"５７巷","ALLEY":" ","HOUSE_NO":"８６號","E_COORD97":176071.56,"N_COORD97":2559258.5099999998,"ADDRESS":"陽明路５７巷８６號","OBJECTID":267549},"geometry":{"x":176071.56000000052,"y":2559258.5100000016}},{"attributes":{"ID":267555,"DIS_CODE":0,"TOWNNAME":"永康區","LI":"尚頂里","LIN":"14鄰","STREET":"正南一街","SECT":" ","MAREA":" ","LANE":"１８１巷","ALLEY":" ","HOUSE_NO":"２８號","E_COORD97":170617.22,"N_COORD97":2547370.2799999998,"ADDRESS":"正南一街１８１巷２８號","OBJECTID":267550},"geometry":{"x":170617.22000000067,"y":2547370.2799999993}},{"attributes":{"ID":267556,"DIS_CODE":0,"TOWNNAME":"永康區","LI":"尚頂里","LIN":"14鄰","STREET":"正南一街","SECT":" ","MAREA":" ","LANE":"１８１巷","ALLEY":" ","HOUSE_NO":"１號","E_COORD97":170676.63,"N_COORD97":2547358.27,"ADDRESS":"正南一街１８１巷１號","OBJECTID":267551},"geometry":{"x":170676.62999999989,"y":2547358.2700000033}},{"attributes":{"ID":267557,"DIS_CODE":0,"TOWNNAME":"下營區","LI":"仁里里","LIN":"3鄰","STREET":"仁里街","SECT":" ","MAREA":" ","LANE":" ","ALLEY":" ","HOUSE_NO":"３６號","E_COORD97":174290.81,"N_COORD97":2570243.1400000001,"ADDRESS":"仁里街３６號","OBJECTID":267552},"geometry":{"x":174290.80999999959,"y":2570243.1400000025}},{"attributes":{"ID":267558,"DIS_CODE":0,"TOWNNAME":"東區","LI":"小東里","LIN":"13鄰","STREET":"光明街","SECT":" ","MAREA":" ","LANE":" ","ALLEY":" ","HOUSE_NO":"６２號之１","E_COORD97":170890.60000000001,"N_COORD97":2544250.6299999999,"ADDRESS":"光明街６２號之１","OBJECTID":267553},"geometry":{"x":170890.60000000149,"y":2544250.6300000008}},{"attributes":{"ID":267559,"DIS_CODE":0,"TOWNNAME":"東區","LI":"小東里","LIN":"13鄰","STREET":"光明街","SECT":" ","MAREA":" ","LANE":" ","ALLEY":" ","HOUSE_NO":"６４號","E_COORD97":170896.56,"N_COORD97":2544220.9300000002,"ADDRESS":"光明街６４號","OBJECTID":267554},"geometry":{"x":170896.56000000052,"y":2544220.9300000034}},{"attributes":{"ID":267560,"DIS_CODE":0,"TOWNNAME":"永康區","LI":"西勢里","LIN":"14鄰","STREET":"西勢路","SECT":" ","MAREA":" ","LANE":"６５巷","ALLEY":" ","HOUSE_NO":"１號","E_COORD97":176174.54999999999,"N_COORD97":2546729.0899999999,"ADDRESS":"西勢路６５巷１號","OBJECTID":267555},"geometry":{"x":176174.54999999981,"y":2546729.0900000036}},{"attributes":{"ID":267561,"DIS_CODE":0,"TOWNNAME":"永康區","LI":"龍潭里","LIN":"14鄰","STREET":"龍橋街","SECT":" ","MAREA":" ","LANE":"９３巷","ALLEY":" ","HOUSE_NO":"２１號","E_COORD97":174683.39999999999,"N_COORD97":2548378.5,"ADDRESS":"龍橋街９３巷２１號","OBJECTID":267556},"geometry":{"x":174683.4000000013,"y":2548378.5000000019}},{"attributes":{"ID":267562,"DIS_CODE":0,"TOWNNAME":"東區","LI":"小東里","LIN":"13鄰","STREET":"光明街","SECT":" ","MAREA":" ","LANE":" ","ALLEY":" ","HOUSE_NO":"６４號之２","E_COORD97":170896.09,"N_COORD97":2544224.5299999998,"ADDRESS":"光明街６４號之２","OBJECTID":267557},"geometry":{"x":170896.09000000171,"y":2544224.5300000012}},{"attributes":{"ID":267563,"DIS_CODE":0,"TOWNNAME":"東區","LI":"小東里","LIN":"14鄰","STREET":"光明街","SECT":" ","MAREA":" ","LANE":" ","ALLEY":" ","HOUSE_NO":"１３９號","E_COORD97":170914.91,"N_COORD97":2544272.8900000001,"ADDRESS":"光明街１３９號","OBJECTID":267558},"geometry":{"x":170914.91000000108,"y":2544272.8899999987}},{"attributes":{"ID":267564,"DIS_CODE":0,"TOWNNAME":"東區","LI":"龍山里","LIN":"8鄰","STREET":"光華街","SECT":" ","MAREA":" ","LANE":" ","ALLEY":" ","HOUSE_NO":"５號","E_COORD97":169955.73000000001,"N_COORD97":2542742.1200000001,"ADDRESS":"光華街５號","OBJECTID":267559},"geometry":{"x":169955.73000000045,"y":2542742.120000001}},{"attributes":{"ID":267565,"DIS_CODE":0,"TOWNNAME":"東區","LI":"小東里","LIN":"15鄰","STREET":"光明街","SECT":" ","MAREA":" ","LANE":" ","ALLEY":" ","HOUSE_NO":"６８號","E_COORD97":170897.97,"N_COORD97":2544212.54,"ADDRESS":"光明街６８號","OBJECTID":267560},"geometry":{"x":170897.96999999974,"y":2544212.5399999991}},{"attributes":{"ID":267566,"DIS_CODE":0,"TOWNNAME":"東區","LI":"圍下里","LIN":"1鄰","STREET":"勝利路","SECT":" ","MAREA":" ","LANE":" ","ALLEY":" ","HOUSE_NO":"５３號","E_COORD97":169768.23000000001,"N_COORD97":2543409.3500000001,"ADDRESS":"勝利路５３號","OBJECTID":267561},"geometry":{"x":169768.23000000045,"y":2543409.3500000015}},{"attributes":{"ID":267567,"DIS_CODE":0,"TOWNNAME":"東區","LI":"圍下里","LIN":"1鄰","STREET":"勝利路","SECT":" ","MAREA":" ","LANE":" ","ALLEY":" ","HOUSE_NO":"５７號","E_COORD97":169786.79999999999,"N_COORD97":2543434.21,"ADDRESS":"勝利路５７號","OBJECTID":267562},"geometry":{"x":169786.79999999981,"y":2543434.2100000028}},{"attributes":{"ID":267568,"DIS_CODE":0,"TOWNNAME":"永康區","LI":"龍潭里","LIN":"14鄰","STREET":"龍埔街","SECT":" ","MAREA":" ","LANE":"１５０巷","ALLEY":" ","HOUSE_NO":"１５號","E_COORD97":174431.56,"N_COORD97":2548325.9900000002,"ADDRESS":"龍埔街１５０巷１５號","OBJECTID":267563},"geometry":{"x":174431.55999999959,"y":2548325.9900000002}},{"attributes":{"ID":267569,"DIS_CODE":0,"TOWNNAME":"永康區","LI":"龍潭里","LIN":"14鄰","STREET":"龍橋街","SECT":" ","MAREA":" ","LANE":"９３巷","ALLEY":" ","HOUSE_NO":"２２號","E_COORD97":174656.54000000001,"N_COORD97":2548417.5499999998,"ADDRESS":"龍橋街９３巷２２號","OBJECTID":267564},"geometry":{"x":174656.5400000019,"y":2548417.5500000007}},{"attributes":{"ID":267570,"DIS_CODE":0,"TOWNNAME":"永康區","LI":"龍潭里","LIN":"14鄰","STREET":"龍橋街","SECT":" ","MAREA":" ","LANE":"９３巷","ALLEY":" ","HOUSE_NO":"９號之１","E_COORD97":174679.34,"N_COORD97":2548402.8900000001,"ADDRESS":"龍橋街９３巷９號之１","OBJECTID":267565},"geometry":{"x":174679.33999999985,"y":2548402.8900000025}},{"attributes":{"ID":267571,"DIS_CODE":0,"TOWNNAME":"永康區","LI":"龍潭里","LIN":"14鄰","STREET":"龍橋街","SECT":" ","MAREA":" ","LANE":"９３巷","ALLEY":" ","HOUSE_NO":"１７號","E_COORD97":174704.67000000001,"N_COORD97":2548399.96,"ADDRESS":"龍橋街９３巷１７號","OBJECTID":267566},"geometry":{"x":174704.67000000179,"y":2548399.9600000028}},{"attributes":{"ID":267572,"DIS_CODE":0,"TOWNNAME":"永康區","LI":"龍潭里","LIN":"14鄰","STREET":"龍橋街","SECT":" ","MAREA":" ","LANE":"９３巷","ALLEY":" ","HOUSE_NO":"２７之２號","E_COORD97":174670.98000000001,"N_COORD97":2548340.4700000002,"ADDRESS":"龍橋街９３巷２７之２號","OBJECTID":267567},"geometry":{"x":174670.98000000231,"y":2548340.4700000007}},{"attributes":{"ID":267573,"DIS_CODE":0,"TOWNNAME":"永康區","LI":"龍潭里","LIN":"14鄰","STREET":"龍橋街","SECT":" ","MAREA":" ","LANE":"５３巷","ALLEY":" ","HOUSE_NO":"３８號","E_COORD97":174732.92000000001,"N_COORD97":2548312.4500000002,"ADDRESS":"龍橋街５３巷３８號","OBJECTID":267568},"geometry":{"x":174732.91999999993,"y":2548312.4499999974}},{"attributes":{"ID":267574,"DIS_CODE":0,"TOWNNAME":"永康區","LI":"龍潭里","LIN":"14鄰","STREET":"龍埔街","SECT":" ","MAREA":" ","LANE":"７８巷","ALLEY":" ","HOUSE_NO":"１號","E_COORD97":174616.25,"N_COORD97":2548266.02,"ADDRESS":"龍埔街７８巷１號","OBJECTID":267569},"geometry":{"x":174616.25000000093,"y":2548266.0200000014}},{"attributes":{"ID":267575,"DIS_CODE":0,"TOWNNAME":"永康區","LI":"龍潭里","LIN":"14鄰","STREET":"龍埔街","SECT":" ","MAREA":" ","LANE":"１５０巷","ALLEY":" ","HOUSE_NO":"１３號","E_COORD97":174432.04999999999,"N_COORD97":2548321.4900000002,"ADDRESS":"龍埔街１５０巷１３號","OBJECTID":267570},"geometry":{"x":174432.04999999981,"y":2548321.4900000021}},{"attributes":{"ID":267576,"DIS_CODE":0,"TOWNNAME":"永康區","LI":"龍潭里","LIN":"14鄰","STREET":"龍埔街","SECT":" ","MAREA":" ","LANE":"７８巷","ALLEY":" ","HOUSE_NO":"３號","E_COORD97":174617.09,"N_COORD97":2548272.0299999998,"ADDRESS":"龍埔街７８巷３號","OBJECTID":267571},"geometry":{"x":174617.09000000171,"y":2548272.0300000012}},{"attributes":{"ID":267577,"DIS_CODE":0,"TOWNNAME":"永康區","LI":"龍潭里","LIN":"14鄰","STREET":"龍橋街","SECT":" ","MAREA":" ","LANE":"６５巷","ALLEY":" ","HOUSE_NO":"１８號","E_COORD97":174734.13,"N_COORD97":2548352.2400000002,"ADDRESS":"龍橋街６５巷１８號","OBJECTID":267572},"geometry":{"x":174734.13000000082,"y":2548352.2400000039}},{"attributes":{"ID":267578,"DIS_CODE":0,"TOWNNAME":"永康區","LI":"龍潭里","LIN":"14鄰","STREET":"龍埔街","SECT":" ","MAREA":" ","LANE":"１５０巷","ALLEY":" ","HOUSE_NO":"７號","E_COORD97":174433.64999999999,"N_COORD97":2548298.5,"ADDRESS":"龍埔街１５０巷７號","OBJECTID":267573},"geometry":{"x":174433.65000000037,"y":2548298.5}},{"attributes":{"ID":267579,"DIS_CODE":0,"TOWNNAME":"永康區","LI":"龍潭里","LIN":"14鄰","STREET":"龍埔街","SECT":" ","MAREA":" ","LANE":"１５０巷","ALLEY":" ","HOUSE_NO":"９號","E_COORD97":174432.28,"N_COORD97":2548308.25,"ADDRESS":"龍埔街１５０巷９號","OBJECTID":267574},"geometry":{"x":174432.28000000026,"y":2548308.2500000037}},{"attributes":{"ID":267580,"DIS_CODE":0,"TOWNNAME":"永康區","LI":"龍潭里","LIN":"14鄰","STREET":"龍埔街","SECT":" ","MAREA":" ","LANE":"１５０巷","ALLEY":" ","HOUSE_NO":"１號","E_COORD97":174436.5,"N_COORD97":2548280.5,"ADDRESS":"龍埔街１５０巷１號","OBJECTID":267575},"geometry":{"x":174436.50000000093,"y":2548280.5000000019}},{"attributes":{"ID":267581,"DIS_CODE":0,"TOWNNAME":"永康區","LI":"龍潭里","LIN":"14鄰","STREET":"龍埔街","SECT":" ","MAREA":" ","LANE":"７８巷","ALLEY":" ","HOUSE_NO":"７號","E_COORD97":174619.04000000001,"N_COORD97":2548284.2799999998,"ADDRESS":"龍埔街７８巷７號","OBJECTID":267576},"geometry":{"x":174619.04000000004,"y":2548284.2800000012}},{"attributes":{"ID":267582,"DIS_CODE":0,"TOWNNAME":"永康區","LI":"復興里","LIN":"14鄰","STREET":"復興路","SECT":" ","MAREA":" ","LANE":"２９６巷","ALLEY":" ","HOUSE_NO":"９號","E_COORD97":172333.20999999999,"N_COORD97":2544368,"ADDRESS":"復興路２９６巷９號","OBJECTID":267577},"geometry":{"x":172333.21000000089,"y":2544368.0000000019}},{"attributes":{"ID":267583,"DIS_CODE":0,"TOWNNAME":"仁德區","LI":"一甲里","LIN":"14鄰","STREET":"忠義路","SECT":" ","MAREA":" ","LANE":"２４１巷","ALLEY":" ","HOUSE_NO":"１２號","E_COORD97":173883.82000000001,"N_COORD97":2541798.5099999998,"ADDRESS":"忠義路２４１巷１２號","OBJECTID":267578},"geometry":{"x":173883.82000000123,"y":2541798.5099999998}},{"attributes":{"ID":267584,"DIS_CODE":0,"TOWNNAME":"仁德區","LI":"一甲里","LIN":"14鄰","STREET":"忠義路","SECT":" ","MAREA":" ","LANE":"２４１巷","ALLEY":" ","HOUSE_NO":"２６號","E_COORD97":173881.98000000001,"N_COORD97":2541765.77,"ADDRESS":"忠義路２４１巷２６號","OBJECTID":267579},"geometry":{"x":173881.98000000045,"y":2541765.7699999996}},{"attributes":{"ID":267585,"DIS_CODE":0,"TOWNNAME":"仁德區","LI":"一甲里","LIN":"14鄰","STREET":"忠義路","SECT":" ","MAREA":" ","LANE":"２４１巷","ALLEY":" ","HOUSE_NO":"９號","E_COORD97":173900.84,"N_COORD97":2541802.5099999998,"ADDRESS":"忠義路２４１巷９號","OBJECTID":267580},"geometry":{"x":173900.83999999985,"y":2541802.5099999998}},{"attributes":{"ID":267586,"DIS_CODE":0,"TOWNNAME":"東區","LI":"圍下里","LIN":"9鄰","STREET":"勝利路","SECT":" ","MAREA":" ","LANE":" ","ALLEY":" ","HOUSE_NO":"７９號","E_COORD97":169793.87,"N_COORD97":2543535.5,"ADDRESS":"勝利路７９號","OBJECTID":267581},"geometry":{"x":169793.87000000011,"y":2543535.5}},{"attributes":{"ID":267587,"DIS_CODE":0,"TOWNNAME":"東區","LI":"圍下里","LIN":"9鄰","STREET":"勝利路","SECT":" ","MAREA":" ","LANE":" ","ALLEY":" ","HOUSE_NO":"８５號","E_COORD97":169794.51000000001,"N_COORD97":2543590.4900000002,"ADDRESS":"勝利路８５號","OBJECTID":267582},"geometry":{"x":169794.50999999885,"y":2543590.4900000039}},{"attributes":{"ID":267588,"DIS_CODE":0,"TOWNNAME":"東區","LI":"圍下里","LIN":"9鄰","STREET":"勝利路","SECT":" ","MAREA":" ","LANE":" ","ALLEY":" ","HOUSE_NO":"８９號","E_COORD97":169800.51000000001,"N_COORD97":2543609.3100000001,"ADDRESS":"勝利路８９號","OBJECTID":267583},"geometry":{"x":169800.51000000071,"y":2543609.3100000042}},{"attributes":{"ID":267589,"DIS_CODE":0,"TOWNNAME":"東區","LI":"大智里","LIN":"14鄰","STREET":"長東街","SECT":" ","MAREA":" ","LANE":"１４３巷","ALLEY":" ","HOUSE_NO":"２２號","E_COORD97":171077.76000000001,"N_COORD97":2540086.77,"ADDRESS":"長東街１４３巷２２號","OBJECTID":267584},"geometry":{"x":171077.75999999885,"y":2540086.7700000014}},{"attributes":{"ID":267590,"DIS_CODE":0,"TOWNNAME":"東區","LI":"大智里","LIN":"14鄰","STREET":"長東街","SECT":" ","MAREA":" ","LANE":"１４３巷","ALLEY":" ","HOUSE_NO":"２３號","E_COORD97":171091.31,"N_COORD97":2540109.1899999999,"ADDRESS":"長東街１４３巷２３號","OBJECTID":267585},"geometry":{"x":171091.31000000052,"y":2540109.1899999995}},{"attributes":{"ID":267591,"DIS_CODE":0,"TOWNNAME":"東區","LI":"大智里","LIN":"14鄰","STREET":"長東街","SECT":" ","MAREA":" ","LANE":"１４３巷","ALLEY":" ","HOUSE_NO":"２４號","E_COORD97":171081.20000000001,"N_COORD97":2540088.7599999998,"ADDRESS":"長東街１４３巷２４號","OBJECTID":267586},"geometry":{"x":171081.20000000112,"y":2540088.7599999998}},{"attributes":{"ID":267592,"DIS_CODE":0,"TOWNNAME":"東區","LI":"大智里","LIN":"14鄰","STREET":"長東街","SECT":" ","MAREA":" ","LANE":"１４３巷","ALLEY":" ","HOUSE_NO":"２５號","E_COORD97":171095.54999999999,"N_COORD97":2540110.6299999999,"ADDRESS":"長東街１４３巷２５號","OBJECTID":267587},"geometry":{"x":171095.54999999981,"y":2540110.6300000008}},{"attributes":{"ID":267593,"DIS_CODE":0,"TOWNNAME":"佳里區","LI":"佳化里","LIN":"3鄰","STREET":" ","SECT":" ","MAREA":"佳里興","LANE":" ","ALLEY":" ","HOUSE_NO":"１７號之１","E_COORD97":167685.20000000001,"N_COORD97":2565163.7799999998,"ADDRESS":"佳里興１７號之１","OBJECTID":267588},"geometry":{"x":167685.20000000112,"y":2565163.7799999975}},{"attributes":{"ID":267594,"DIS_CODE":0,"TOWNNAME":"佳里區","LI":"佳化里","LIN":"3鄰","STREET":" ","SECT":" ","MAREA":"佳里興","LANE":" ","ALLEY":" ","HOUSE_NO":"１７號之３","E_COORD97":167695.48999999999,"N_COORD97":2565148.9100000001,"ADDRESS":"佳里興１７號之３","OBJECTID":267589},"geometry":{"x":167695.49000000115,"y":2565148.9100000001}},{"attributes":{"ID":267595,"DIS_CODE":0,"TOWNNAME":"佳里區","LI":"佳化里","LIN":"3鄰","STREET":" ","SECT":" ","MAREA":"佳里興","LANE":" ","ALLEY":" ","HOUSE_NO":"１７號之４","E_COORD97":167683.19,"N_COORD97":2565206.8900000001,"ADDRESS":"佳里興１７號之４","OBJECTID":267590},"geometry":{"x":167683.19000000041,"y":2565206.8900000025}},{"attributes":{"ID":267596,"DIS_CODE":0,"TOWNNAME":"佳里區","LI":"佳化里","LIN":"3鄰","STREET":" ","SECT":" ","MAREA":"佳里興","LANE":" ","ALLEY":" ","HOUSE_NO":"１７號之５","E_COORD97":167678.66,"N_COORD97":2565206.71,"ADDRESS":"佳里興１７號之５","OBJECTID":267591},"geometry":{"x":167678.66000000108,"y":2565206.709999999}},{"attributes":{"ID":267597,"DIS_CODE":0,"TOWNNAME":"佳里區","LI":"佳化里","LIN":"3鄰","STREET":" ","SECT":" ","MAREA":"佳里興","LANE":" ","ALLEY":" ","HOUSE_NO":"１７號","E_COORD97":167708.66,"N_COORD97":2565206.6299999999,"ADDRESS":"佳里興１７號","OBJECTID":267592},"geometry":{"x":167708.66000000015,"y":2565206.6300000008}},{"attributes":{"ID":267598,"DIS_CODE":0,"TOWNNAME":"佳里區","LI":"佳化里","LIN":"3鄰","STREET":" ","SECT":" ","MAREA":"佳里興","LANE":" ","ALLEY":" ","HOUSE_NO":"１９號","E_COORD97":167730.73999999999,"N_COORD97":2565199.5299999998,"ADDRESS":"佳里興１９號","OBJECTID":267593},"geometry":{"x":167730.74000000115,"y":2565199.5300000031}},{"attributes":{"ID":267599,"DIS_CODE":0,"TOWNNAME":"佳里區","LI":"佳化里","LIN":"3鄰","STREET":" ","SECT":" ","MAREA":"佳里興","LANE":" ","ALLEY":" ","HOUSE_NO":"２０號","E_COORD97":167738.67999999999,"N_COORD97":2565248.3500000001,"ADDRESS":"佳里興２０號","OBJECTID":267594},"geometry":{"x":167738.67999999877,"y":2565248.3499999996}},{"attributes":{"ID":267600,"DIS_CODE":0,"TOWNNAME":"佳里區","LI":"佳化里","LIN":"3鄰","STREET":" ","SECT":" ","MAREA":"佳里興","LANE":" ","ALLEY":" ","HOUSE_NO":"２１號","E_COORD97":167720.01000000001,"N_COORD97":2565268.1299999999,"ADDRESS":"佳里興２１號","OBJECTID":267595},"geometry":{"x":167720.01000000071,"y":2565268.129999999}},{"attributes":{"ID":267601,"DIS_CODE":0,"TOWNNAME":"佳里區","LI":"佳化里","LIN":"3鄰","STREET":" ","SECT":" ","MAREA":"佳里興","LANE":" ","ALLEY":" ","HOUSE_NO":"２２之１號","E_COORD97":167705.39999999999,"N_COORD97":2565240.1800000002,"ADDRESS":"佳里興２２之１號","OBJECTID":267596},"geometry":{"x":167705.40000000037,"y":2565240.1800000016}},{"attributes":{"ID":267602,"DIS_CODE":0,"TOWNNAME":"佳里區","LI":"佳化里","LIN":"3鄰","STREET":" ","SECT":" ","MAREA":"佳里興","LANE":" ","ALLEY":" ","HOUSE_NO":"２２號之１","E_COORD97":167705.39999999999,"N_COORD97":2565240.1800000002,"ADDRESS":"佳里興２２號之１","OBJECTID":267597},"geometry":{"x":167705.40000000037,"y":2565240.1800000016}},{"attributes":{"ID":267603,"DIS_CODE":0,"TOWNNAME":"佳里區","LI":"佳化里","LIN":"3鄰","STREET":" ","SECT":" ","MAREA":"佳里興","LANE":" ","ALLEY":" ","HOUSE_NO":"２４號之１","E_COORD97":167710.35000000001,"N_COORD97":2565323.8100000001,"ADDRESS":"佳里興２４號之１","OBJECTID":267598},"geometry":{"x":167710.3499999987,"y":2565323.8100000005}},{"attributes":{"ID":267604,"DIS_CODE":0,"TOWNNAME":"佳里區","LI":"佳化里","LIN":"3鄰","STREET":" ","SECT":" ","MAREA":"佳里興","LANE":" ","ALLEY":" ","HOUSE_NO":"２４號之２","E_COORD97":167714.67999999999,"N_COORD97":2565323.8100000001,"ADDRESS":"佳里興２４號之２","OBJECTID":267599},"geometry":{"x":167714.6799999997,"y":2565323.8100000005}},{"attributes":{"ID":267605,"DIS_CODE":0,"TOWNNAME":"佳里區","LI":"禮化里","LIN":"3鄰","STREET":" ","SECT":" ","MAREA":"佳里興","LANE":" ","ALLEY":" ","HOUSE_NO":"２５２號之１","E_COORD97":167124.91,"N_COORD97":2565730.0299999998,"ADDRESS":"佳里興２５２號之１","OBJECTID":267600},"geometry":{"x":167124.91000000108,"y":2565730.0300000012}}]}