{"displayFieldName":"TOWNNAME","fieldAliases":{"ID":"ID","DIS_CODE":"DIS_CODE","TOWNNAME":"TOWNNAME","LI":"LI","LIN":"LIN","STREET":"STREET","SECT":"SECT","MAREA":"MAREA","LANE":"LANE","ALLEY":"ALLEY","HOUSE_NO":"HOUSE_NO","E_COORD97":"E_COORD97","N_COORD97":"N_COORD97","ADDRESS":"ADDRESS","OBJECTID":"OBJECTID"},"geometryType":"esriGeometryPoint","spatialReference":{"wkid":102443,"latestWkid":3826},"fields":[{"name":"ID","type":"esriFieldTypeDouble","alias":"ID"},{"name":"DIS_CODE","type":"esriFieldTypeInteger","alias":"DIS_CODE"},{"name":"TOWNNAME","type":"esriFieldTypeString","alias":"TOWNNAME","length":8},{"name":"LI","type":"esriFieldTypeString","alias":"LI","length":8},{"name":"LIN","type":"esriFieldTypeString","alias":"LIN","length":12},{"name":"STREET","type":"esriFieldTypeString","alias":"STREET","length":20},{"name":"SECT","type":"esriFieldTypeString","alias":"SECT","length":8},{"name":"MAREA","type":"esriFieldTypeString","alias":"MAREA","length":12},{"name":"LANE","type":"esriFieldTypeString","alias":"LANE","length":10},{"name":"ALLEY","type":"esriFieldTypeString","alias":"ALLEY","length":10},{"name":"HOUSE_NO","type":"esriFieldTypeString","alias":"HOUSE_NO","length":20},{"name":"E_COORD97","type":"esriFieldTypeDouble","alias":"E_COORD97"},{"name":"N_COORD97","type":"esriFieldTypeDouble","alias":"N_COORD97"},{"name":"ADDRESS","type":"esriFieldTypeString","alias":"ADDRESS","length":50},{"name":"OBJECTID","type":"esriFieldTypeOID","alias":"OBJECTID"}],"features":[{"attributes":{"ID":414025,"DIS_CODE":0,"TOWNNAME":"北區","LI":"光武里","LIN":"3鄰","STREET":"長榮路","SECT":"五段","MAREA":" ","LANE":"３１７巷","ALLEY":" ","HOUSE_NO":"２號","E_COORD97":169666.34,"N_COORD97":2545896.25,"ADDRESS":"長榮路五段３１７巷２號","OBJECTID":414001},"geometry":{"x":169666.33999999985,"y":2545896.25}},{"attributes":{"ID":414026,"DIS_CODE":0,"TOWNNAME":"北區","LI":"光武里","LIN":"3鄰","STREET":"長榮路","SECT":"五段","MAREA":" ","LANE":"３１７巷","ALLEY":" ","HOUSE_NO":"６之１號","E_COORD97":169663.01999999999,"N_COORD97":2545886.75,"ADDRESS":"長榮路五段３１７巷６之１號","OBJECTID":414002},"geometry":{"x":169663.01999999955,"y":2545886.75}},{"attributes":{"ID":414027,"DIS_CODE":0,"TOWNNAME":"北區","LI":"光武里","LIN":"3鄰","STREET":"長榮路","SECT":"五段","MAREA":" ","LANE":"３１７巷","ALLEY":" ","HOUSE_NO":"６號","E_COORD97":169664.92000000001,"N_COORD97":2545891.2599999998,"ADDRESS":"長榮路五段３１７巷６號","OBJECTID":414003},"geometry":{"x":169664.92000000179,"y":2545891.2600000016}},{"attributes":{"ID":414028,"DIS_CODE":0,"TOWNNAME":"中西區","LI":"協和里","LIN":"6鄰","STREET":"臨安路","SECT":"一段","MAREA":" ","LANE":"１４６巷","ALLEY":" ","HOUSE_NO":"２５號","E_COORD97":167284.79000000001,"N_COORD97":2544613.6099999999,"ADDRESS":"臨安路一段１４６巷２５號","OBJECTID":414004},"geometry":{"x":167284.79000000097,"y":2544613.6100000013}},{"attributes":{"ID":414029,"DIS_CODE":0,"TOWNNAME":"中西區","LI":"協和里","LIN":"6鄰","STREET":"臨安路","SECT":"一段","MAREA":" ","LANE":"１４６巷","ALLEY":" ","HOUSE_NO":"２７號","E_COORD97":167286.75,"N_COORD97":2544615.9199999999,"ADDRESS":"臨安路一段１４６巷２７號","OBJECTID":414005},"geometry":{"x":167286.75000000093,"y":2544615.9200000018}},{"attributes":{"ID":414030,"DIS_CODE":0,"TOWNNAME":"中西區","LI":"協和里","LIN":"6鄰","STREET":"臨安路","SECT":"一段","MAREA":" ","LANE":"１４６巷","ALLEY":" ","HOUSE_NO":"２９號","E_COORD97":167298.42999999999,"N_COORD97":2544613.9100000001,"ADDRESS":"臨安路一段１４６巷２９號","OBJECTID":414006},"geometry":{"x":167298.43000000063,"y":2544613.9100000001}},{"attributes":{"ID":414031,"DIS_CODE":0,"TOWNNAME":"北區","LI":"大仁里","LIN":"3鄰","STREET":"北門路","SECT":"二段","MAREA":" ","LANE":"３４４巷","ALLEY":" ","HOUSE_NO":"３號","E_COORD97":169613.57999999999,"N_COORD97":2545384.1699999999,"ADDRESS":"北門路二段３４４巷３號","OBJECTID":414007},"geometry":{"x":169613.58000000101,"y":2545384.1700000018}},{"attributes":{"ID":414032,"DIS_CODE":0,"TOWNNAME":"北區","LI":"大仁里","LIN":"3鄰","STREET":"北門路","SECT":"二段","MAREA":" ","LANE":"３４４巷","ALLEY":" ","HOUSE_NO":"１號","E_COORD97":169609.79000000001,"N_COORD97":2545374.3900000001,"ADDRESS":"北門路二段３４４巷１號","OBJECTID":414008},"geometry":{"x":169609.78999999911,"y":2545374.3900000006}},{"attributes":{"ID":414033,"DIS_CODE":0,"TOWNNAME":"南區","LI":"大忠里","LIN":"3鄰","STREET":"公英一街","SECT":" ","MAREA":" ","LANE":"１５巷","ALLEY":" ","HOUSE_NO":"１４號","E_COORD97":169448.14000000001,"N_COORD97":2541228.0600000001,"ADDRESS":"公英一街１５巷１４號","OBJECTID":414009},"geometry":{"x":169448.1400000006,"y":2541228.0600000024}},{"attributes":{"ID":414034,"DIS_CODE":0,"TOWNNAME":"北區","LI":"賢北里","LIN":"3鄰","STREET":"中華北路","SECT":"一段","MAREA":" ","LANE":"１０５巷","ALLEY":" ","HOUSE_NO":"８之３號","E_COORD97":166412.75,"N_COORD97":2545483.0299999998,"ADDRESS":"中華北路一段１０５巷８之３號","OBJECTID":414010},"geometry":{"x":166412.75,"y":2545483.0299999993}},{"attributes":{"ID":414035,"DIS_CODE":0,"TOWNNAME":"北區","LI":"賢北里","LIN":"3鄰","STREET":"中華北路","SECT":"一段","MAREA":" ","LANE":"１０５巷","ALLEY":" ","HOUSE_NO":"１０號","E_COORD97":166408.54999999999,"N_COORD97":2545480.2400000002,"ADDRESS":"中華北路一段１０５巷１０號","OBJECTID":414011},"geometry":{"x":166408.54999999981,"y":2545480.2400000002}},{"attributes":{"ID":414036,"DIS_CODE":0,"TOWNNAME":"北區","LI":"賢北里","LIN":"3鄰","STREET":"大興街","SECT":" ","MAREA":" ","LANE":"３７３巷","ALLEY":" ","HOUSE_NO":"２３號","E_COORD97":166451.35000000001,"N_COORD97":2545519.1699999999,"ADDRESS":"大興街３７３巷２３號","OBJECTID":414012},"geometry":{"x":166451.35000000056,"y":2545519.1700000018}},{"attributes":{"ID":414037,"DIS_CODE":0,"TOWNNAME":"北區","LI":"賢北里","LIN":"3鄰","STREET":"大興街","SECT":" ","MAREA":" ","LANE":"３７３巷","ALLEY":" ","HOUSE_NO":"２５號","E_COORD97":166453.01000000001,"N_COORD97":2545514.21,"ADDRESS":"大興街３７３巷２５號","OBJECTID":414013},"geometry":{"x":166453.00999999978,"y":2545514.2100000009}},{"attributes":{"ID":414038,"DIS_CODE":0,"TOWNNAME":"北區","LI":"賢北里","LIN":"3鄰","STREET":"大興街","SECT":" ","MAREA":" ","LANE":"３７３巷","ALLEY":" ","HOUSE_NO":"２７號","E_COORD97":166454.01999999999,"N_COORD97":2545510.3999999999,"ADDRESS":"大興街３７３巷２７號","OBJECTID":414014},"geometry":{"x":166454.01999999955,"y":2545510.4000000041}},{"attributes":{"ID":414039,"DIS_CODE":0,"TOWNNAME":"北區","LI":"賢北里","LIN":"3鄰","STREET":"大興街","SECT":" ","MAREA":" ","LANE":"３７３巷","ALLEY":" ","HOUSE_NO":"２９號","E_COORD97":166455.54999999999,"N_COORD97":2545504.0499999998,"ADDRESS":"大興街３７３巷２９號","OBJECTID":414015},"geometry":{"x":166455.55000000075,"y":2545504.0500000026}},{"attributes":{"ID":414040,"DIS_CODE":0,"TOWNNAME":"南區","LI":"再興里","LIN":"3鄰","STREET":"金華路","SECT":"二段","MAREA":" ","LANE":"２２８巷","ALLEY":" ","HOUSE_NO":"１６號","E_COORD97":167185.87,"N_COORD97":2542369.2799999998,"ADDRESS":"金華路二段２２８巷１６號","OBJECTID":414016},"geometry":{"x":167185.87000000104,"y":2542369.2799999993}},{"attributes":{"ID":414041,"DIS_CODE":0,"TOWNNAME":"南區","LI":"再興里","LIN":"3鄰","STREET":"金華路","SECT":"二段","MAREA":" ","LANE":"２２８巷","ALLEY":" ","HOUSE_NO":"１８號","E_COORD97":167188.07000000001,"N_COORD97":2542374.8500000001,"ADDRESS":"金華路二段２２８巷１８號","OBJECTID":414017},"geometry":{"x":167188.07000000123,"y":2542374.8500000015}},{"attributes":{"ID":414042,"DIS_CODE":0,"TOWNNAME":"南區","LI":"再興里","LIN":"3鄰","STREET":"金華路","SECT":"二段","MAREA":" ","LANE":"２２８巷","ALLEY":" ","HOUSE_NO":"２０號","E_COORD97":167190.57000000001,"N_COORD97":2542380.7200000002,"ADDRESS":"金華路二段２２８巷２０號","OBJECTID":414018},"geometry":{"x":167190.5700000003,"y":2542380.7200000025}},{"attributes":{"ID":414043,"DIS_CODE":0,"TOWNNAME":"南區","LI":"再興里","LIN":"3鄰","STREET":"金華路","SECT":"二段","MAREA":" ","LANE":"２２８巷","ALLEY":" ","HOUSE_NO":"２２號","E_COORD97":167192.32999999999,"N_COORD97":2542385.4199999999,"ADDRESS":"金華路二段２２８巷２２號","OBJECTID":414019},"geometry":{"x":167192.33000000194,"y":2542385.4200000018}},{"attributes":{"ID":414044,"DIS_CODE":0,"TOWNNAME":"南區","LI":"再興里","LIN":"3鄰","STREET":"金華路","SECT":"二段","MAREA":" ","LANE":"２２８巷","ALLEY":" ","HOUSE_NO":"２４號","E_COORD97":167193.64999999999,"N_COORD97":2542390.2599999998,"ADDRESS":"金華路二段２２８巷２４號","OBJECTID":414020},"geometry":{"x":167193.65000000037,"y":2542390.2599999998}},{"attributes":{"ID":414045,"DIS_CODE":0,"TOWNNAME":"南區","LI":"興農里","LIN":"3鄰","STREET":"灣裡路","SECT":" ","MAREA":" ","LANE":"２６３巷","ALLEY":" ","HOUSE_NO":"６３號之２","E_COORD97":166312.64000000001,"N_COORD97":2536428.79,"ADDRESS":"灣裡路２６３巷６３號之２","OBJECTID":414021},"geometry":{"x":166312.63999999966,"y":2536428.7899999991}},{"attributes":{"ID":414046,"DIS_CODE":0,"TOWNNAME":"南區","LI":"興農里","LIN":"3鄰","STREET":"灣裡路","SECT":" ","MAREA":" ","LANE":"２６３巷","ALLEY":" ","HOUSE_NO":"７１號","E_COORD97":166315.32000000001,"N_COORD97":2536413.7000000002,"ADDRESS":"灣裡路２６３巷７１號","OBJECTID":414022},"geometry":{"x":166315.32000000123,"y":2536413.6999999993}},{"attributes":{"ID":414047,"DIS_CODE":0,"TOWNNAME":"新營區","LI":"南紙里","LIN":"3鄰","STREET":"太子路","SECT":" ","MAREA":" ","LANE":"１５３巷","ALLEY":" ","HOUSE_NO":"５號","E_COORD97":177936.01999999999,"N_COORD97":2577836.1800000002,"ADDRESS":"太子路１５３巷５號","OBJECTID":414023},"geometry":{"x":177936.01999999955,"y":2577836.1800000016}},{"attributes":{"ID":414048,"DIS_CODE":0,"TOWNNAME":"新營區","LI":"南紙里","LIN":"3鄰","STREET":"太子路","SECT":" ","MAREA":" ","LANE":"１５３巷","ALLEY":" ","HOUSE_NO":"６號","E_COORD97":177925.75,"N_COORD97":2577829.5899999999,"ADDRESS":"太子路１５３巷６號","OBJECTID":414024},"geometry":{"x":177925.75000000093,"y":2577829.5900000017}},{"attributes":{"ID":414049,"DIS_CODE":0,"TOWNNAME":"新營區","LI":"忠政里","LIN":"3鄰","STREET":"中正路","SECT":" ","MAREA":" ","LANE":"３５巷","ALLEY":" ","HOUSE_NO":"９號","E_COORD97":180047.07000000001,"N_COORD97":2579098.5299999998,"ADDRESS":"中正路３５巷９號","OBJECTID":414025},"geometry":{"x":180047.0700000003,"y":2579098.5299999993}},{"attributes":{"ID":414050,"DIS_CODE":0,"TOWNNAME":"歸仁區","LI":"西埔里","LIN":"3鄰","STREET":"保大路","SECT":"二段","MAREA":" ","LANE":"１４５巷","ALLEY":" ","HOUSE_NO":"２９號","E_COORD97":176947.01999999999,"N_COORD97":2544008.2799999998,"ADDRESS":"保大路二段１４５巷２９號","OBJECTID":414026},"geometry":{"x":176947.02000000048,"y":2544008.2800000031}},{"attributes":{"ID":414051,"DIS_CODE":0,"TOWNNAME":"南區","LI":"新昌里","LIN":"3鄰","STREET":"大德街","SECT":" ","MAREA":" ","LANE":"１４１巷","ALLEY":" ","HOUSE_NO":"４１號","E_COORD97":167566.26999999999,"N_COORD97":2542907.5600000001,"ADDRESS":"大德街１４１巷４１號","OBJECTID":414027},"geometry":{"x":167566.26999999955,"y":2542907.5600000005}},{"attributes":{"ID":414052,"DIS_CODE":0,"TOWNNAME":"下營區","LI":"茅港里","LIN":"7鄰","STREET":" ","SECT":" ","MAREA":"茅港尾","LANE":" ","ALLEY":" ","HOUSE_NO":"２２６之１號","E_COORD97":176466.76831000001,"N_COORD97":2567612.7102399999,"ADDRESS":"茅港尾２２６之１號","OBJECTID":414028},"geometry":{"x":176466.76831000019,"y":2567612.7102400009}},{"attributes":{"ID":414053,"DIS_CODE":0,"TOWNNAME":"南區","LI":"新昌里","LIN":"3鄰","STREET":"大德街","SECT":" ","MAREA":" ","LANE":"１４１巷","ALLEY":" ","HOUSE_NO":"４１號之１","E_COORD97":167566.91,"N_COORD97":2542910.73,"ADDRESS":"大德街１４１巷４１號之１","OBJECTID":414029},"geometry":{"x":167566.91000000108,"y":2542910.7300000004}},{"attributes":{"ID":414054,"DIS_CODE":0,"TOWNNAME":"安平區","LI":"金城里","LIN":"3鄰","STREET":"運河路","SECT":" ","MAREA":" ","LANE":"４０巷","ALLEY":" ","HOUSE_NO":"９號","E_COORD97":163916.98000000001,"N_COORD97":2544394.96,"ADDRESS":"運河路４０巷９號","OBJECTID":414030},"geometry":{"x":163916.98000000138,"y":2544394.9600000046}},{"attributes":{"ID":414055,"DIS_CODE":0,"TOWNNAME":"安平區","LI":"文平里","LIN":"3鄰","STREET":"中華西路","SECT":"二段","MAREA":" ","LANE":"４９巷","ALLEY":" ","HOUSE_NO":"４６號","E_COORD97":166481.92999999999,"N_COORD97":2543154.4100000001,"ADDRESS":"中華西路二段４９巷４６號","OBJECTID":414031},"geometry":{"x":166481.9299999997,"y":2543154.410000002}},{"attributes":{"ID":414056,"DIS_CODE":0,"TOWNNAME":"南區","LI":"大忠里","LIN":"3鄰","STREET":"公英一街","SECT":" ","MAREA":" ","LANE":"１５巷","ALLEY":" ","HOUSE_NO":"２１號","E_COORD97":169481.94,"N_COORD97":2541203.6499999999,"ADDRESS":"公英一街１５巷２１號","OBJECTID":414032},"geometry":{"x":169481.94000000041,"y":2541203.6500000022}},{"attributes":{"ID":414057,"DIS_CODE":0,"TOWNNAME":"南區","LI":"大忠里","LIN":"3鄰","STREET":"公英一街","SECT":" ","MAREA":" ","LANE":"１５巷","ALLEY":" ","HOUSE_NO":"２３號","E_COORD97":169481.94,"N_COORD97":2541198.2000000002,"ADDRESS":"公英一街１５巷２３號","OBJECTID":414033},"geometry":{"x":169481.94000000041,"y":2541198.2000000011}},{"attributes":{"ID":414058,"DIS_CODE":0,"TOWNNAME":"南區","LI":"大忠里","LIN":"3鄰","STREET":"公英一街","SECT":" ","MAREA":" ","LANE":"１５巷","ALLEY":" ","HOUSE_NO":"２號","E_COORD97":169444.17999999999,"N_COORD97":2541260.1299999999,"ADDRESS":"公英一街１５巷２號","OBJECTID":414034},"geometry":{"x":169444.18000000156,"y":2541260.1300000008}},{"attributes":{"ID":414059,"DIS_CODE":0,"TOWNNAME":"南區","LI":"大忠里","LIN":"3鄰","STREET":"公英一街","SECT":" ","MAREA":" ","LANE":"１５巷","ALLEY":" ","HOUSE_NO":"４號","E_COORD97":169445.23999999999,"N_COORD97":2541255.3999999999,"ADDRESS":"公英一街１５巷４號","OBJECTID":414035},"geometry":{"x":169445.24000000022,"y":2541255.4000000041}},{"attributes":{"ID":414060,"DIS_CODE":0,"TOWNNAME":"南區","LI":"大忠里","LIN":"3鄰","STREET":"公英一街","SECT":" ","MAREA":" ","LANE":"１５巷","ALLEY":" ","HOUSE_NO":"６號","E_COORD97":169446.03,"N_COORD97":2541250.1400000001,"ADDRESS":"公英一街１５巷６號","OBJECTID":414036},"geometry":{"x":169446.03000000119,"y":2541250.1400000006}},{"attributes":{"ID":414061,"DIS_CODE":0,"TOWNNAME":"南區","LI":"大忠里","LIN":"3鄰","STREET":"公英一街","SECT":" ","MAREA":" ","LANE":"１５巷","ALLEY":" ","HOUSE_NO":"７號","E_COORD97":169475.13,"N_COORD97":2541246.0499999998,"ADDRESS":"公英一街１５巷７號","OBJECTID":414037},"geometry":{"x":169475.12999999896,"y":2541246.0500000026}},{"attributes":{"ID":414062,"DIS_CODE":0,"TOWNNAME":"南區","LI":"大忠里","LIN":"3鄰","STREET":"公英一街","SECT":" ","MAREA":" ","LANE":"１５巷","ALLEY":" ","HOUSE_NO":"８號","E_COORD97":169446.82000000001,"N_COORD97":2541245.9399999999,"ADDRESS":"公英一街１５巷８號","OBJECTID":414038},"geometry":{"x":169446.8200000003,"y":2541245.9399999995}},{"attributes":{"ID":414063,"DIS_CODE":0,"TOWNNAME":"新營區","LI":"忠政里","LIN":"3鄰","STREET":"中正路","SECT":" ","MAREA":" ","LANE":"３７巷","ALLEY":" ","HOUSE_NO":"１３號","E_COORD97":180032.10999999999,"N_COORD97":2579126.29,"ADDRESS":"中正路３７巷１３號","OBJECTID":414039},"geometry":{"x":180032.11000000127,"y":2579126.290000001}},{"attributes":{"ID":414064,"DIS_CODE":0,"TOWNNAME":"新營區","LI":"民權里","LIN":"3鄰","STREET":"博愛街","SECT":" ","MAREA":" ","LANE":"２巷","ALLEY":" ","HOUSE_NO":"６號","E_COORD97":180009.82999999999,"N_COORD97":2578206.0899999999,"ADDRESS":"博愛街２巷６號","OBJECTID":414040},"geometry":{"x":180009.83000000101,"y":2578206.0900000017}},{"attributes":{"ID":414065,"DIS_CODE":0,"TOWNNAME":"楠西區","LI":"楠西里","LIN":"3鄰","STREET":"中興路","SECT":" ","MAREA":" ","LANE":"７７巷","ALLEY":" ","HOUSE_NO":"８號","E_COORD97":197167.81,"N_COORD97":2564407.25,"ADDRESS":"中興路７７巷８號","OBJECTID":414041},"geometry":{"x":197167.80999999959,"y":2564407.25}},{"attributes":{"ID":414066,"DIS_CODE":0,"TOWNNAME":"楠西區","LI":"東勢里","LIN":"3鄰","STREET":"民生路","SECT":" ","MAREA":" ","LANE":"１０６巷","ALLEY":" ","HOUSE_NO":"１９號","E_COORD97":197349.44,"N_COORD97":2564241.29,"ADDRESS":"民生路１０６巷１９號","OBJECTID":414042},"geometry":{"x":197349.44000000227,"y":2564241.2899999972}},{"attributes":{"ID":414067,"DIS_CODE":0,"TOWNNAME":"新化區","LI":"太平里","LIN":"3鄰","STREET":"太平街","SECT":" ","MAREA":" ","LANE":"１巷","ALLEY":" ","HOUSE_NO":"１８號","E_COORD97":179041.97,"N_COORD97":2548781.25,"ADDRESS":"太平街１巷１８號","OBJECTID":414043},"geometry":{"x":179041.96999999881,"y":2548781.25}},{"attributes":{"ID":414068,"DIS_CODE":0,"TOWNNAME":"東區","LI":"大智里","LIN":"24鄰","STREET":"文東街","SECT":" ","MAREA":" ","LANE":"３０巷","ALLEY":" ","HOUSE_NO":"５號","E_COORD97":171354.26999999999,"N_COORD97":2540164.0299999998,"ADDRESS":"文東街３０巷５號","OBJECTID":414044},"geometry":{"x":171354.27000000048,"y":2540164.0299999993}},{"attributes":{"ID":414069,"DIS_CODE":0,"TOWNNAME":"新化區","LI":"護國里","LIN":"3鄰","STREET":"建國街","SECT":" ","MAREA":" ","LANE":"９巷","ALLEY":" ","HOUSE_NO":"１２號","E_COORD97":179167.28,"N_COORD97":2548570.2599999998,"ADDRESS":"建國街９巷１２號","OBJECTID":414045},"geometry":{"x":179167.28000000026,"y":2548570.2600000016}},{"attributes":{"ID":414070,"DIS_CODE":0,"TOWNNAME":"新化區","LI":"護國里","LIN":"3鄰","STREET":"建國街","SECT":" ","MAREA":" ","LANE":"９巷","ALLEY":" ","HOUSE_NO":"８號之２","E_COORD97":179174.48000000001,"N_COORD97":2548532.2599999998,"ADDRESS":"建國街９巷８號之２","OBJECTID":414046},"geometry":{"x":179174.48000000045,"y":2548532.2600000016}},{"attributes":{"ID":414071,"DIS_CODE":0,"TOWNNAME":"新化區","LI":"護國里","LIN":"3鄰","STREET":"建國街","SECT":" ","MAREA":" ","LANE":"９巷","ALLEY":" ","HOUSE_NO":"２２號","E_COORD97":179150.17999999999,"N_COORD97":2548529.2599999998,"ADDRESS":"建國街９巷２２號","OBJECTID":414047},"geometry":{"x":179150.1799999997,"y":2548529.2600000016}},{"attributes":{"ID":414072,"DIS_CODE":0,"TOWNNAME":"新化區","LI":"協興里","LIN":"3鄰","STREET":"中山路","SECT":" ","MAREA":" ","LANE":"５４８巷","ALLEY":" ","HOUSE_NO":"１４號","E_COORD97":178450.85999999999,"N_COORD97":2548537.25,"ADDRESS":"中山路５４８巷１４號","OBJECTID":414048},"geometry":{"x":178450.86000000127,"y":2548537.25}},{"attributes":{"ID":414073,"DIS_CODE":0,"TOWNNAME":"新化區","LI":"協興里","LIN":"3鄰","STREET":"正新路","SECT":" ","MAREA":" ","LANE":"２５１巷","ALLEY":" ","HOUSE_NO":"２６號","E_COORD97":178511.07000000001,"N_COORD97":2548521.25,"ADDRESS":"正新路２５１巷２６號","OBJECTID":414049},"geometry":{"x":178511.0700000003,"y":2548521.25}},{"attributes":{"ID":414074,"DIS_CODE":0,"TOWNNAME":"新化區","LI":"護國里","LIN":"3鄰","STREET":"建國街","SECT":" ","MAREA":" ","LANE":"９巷","ALLEY":" ","HOUSE_NO":"８號之１","E_COORD97":179175.35999999999,"N_COORD97":2548529.2599999998,"ADDRESS":"建國街９巷８號之１","OBJECTID":414050},"geometry":{"x":179175.36000000034,"y":2548529.2600000016}},{"attributes":{"ID":414075,"DIS_CODE":0,"TOWNNAME":"中西區","LI":"三合里","LIN":"3鄰","STREET":"康樂街","SECT":" ","MAREA":" ","LANE":"２８２巷","ALLEY":" ","HOUSE_NO":"４３號","E_COORD97":167727.10000000001,"N_COORD97":2544441.1099999999,"ADDRESS":"康樂街２８２巷４３號","OBJECTID":414051},"geometry":{"x":167727.09999999963,"y":2544441.1100000013}},{"attributes":{"ID":414076,"DIS_CODE":0,"TOWNNAME":"中西區","LI":"三合里","LIN":"3鄰","STREET":"康樂街","SECT":" ","MAREA":" ","LANE":"２８２巷","ALLEY":" ","HOUSE_NO":"４５號","E_COORD97":167729.45000000001,"N_COORD97":2544447.2400000002,"ADDRESS":"康樂街２８２巷４５號","OBJECTID":414052},"geometry":{"x":167729.45000000112,"y":2544447.2400000021}},{"attributes":{"ID":414077,"DIS_CODE":0,"TOWNNAME":"中西區","LI":"三合里","LIN":"3鄰","STREET":"康樂街","SECT":" ","MAREA":" ","LANE":"２８２巷","ALLEY":" ","HOUSE_NO":"４７號","E_COORD97":167732.67999999999,"N_COORD97":2544448.9199999999,"ADDRESS":"康樂街２８２巷４７號","OBJECTID":414053},"geometry":{"x":167732.68000000063,"y":2544448.9200000018}},{"attributes":{"ID":414078,"DIS_CODE":0,"TOWNNAME":"中西區","LI":"三合里","LIN":"3鄰","STREET":"康樂街","SECT":" ","MAREA":" ","LANE":"２８２巷","ALLEY":" ","HOUSE_NO":"４９號","E_COORD97":167735.81,"N_COORD97":2544450.48,"ADDRESS":"康樂街２８２巷４９號","OBJECTID":414054},"geometry":{"x":167735.80999999959,"y":2544450.4800000004}},{"attributes":{"ID":414079,"DIS_CODE":0,"TOWNNAME":"中西區","LI":"三合里","LIN":"3鄰","STREET":"康樂街","SECT":" ","MAREA":" ","LANE":"２８２巷","ALLEY":" ","HOUSE_NO":"５１號","E_COORD97":167734.35000000001,"N_COORD97":2544439.1099999999,"ADDRESS":"康樂街２８２巷５１號","OBJECTID":414055},"geometry":{"x":167734.35000000056,"y":2544439.1099999994}},{"attributes":{"ID":414080,"DIS_CODE":0,"TOWNNAME":"中西區","LI":"三合里","LIN":"3鄰","STREET":"康樂街","SECT":" ","MAREA":" ","LANE":"２８２巷","ALLEY":" ","HOUSE_NO":"５３號","E_COORD97":167741.45999999999,"N_COORD97":2544447.3700000001,"ADDRESS":"康樂街２８２巷５３號","OBJECTID":414056},"geometry":{"x":167741.45999999996,"y":2544447.3700000029}},{"attributes":{"ID":414081,"DIS_CODE":0,"TOWNNAME":"永康區","LI":"西勢里","LIN":"3鄰","STREET":"富強路","SECT":"一段","MAREA":" ","LANE":"３２１巷","ALLEY":" ","HOUSE_NO":"６８號","E_COORD97":175567.17000000001,"N_COORD97":2546763.1000000001,"ADDRESS":"富強路一段３２１巷６８號","OBJECTID":414057},"geometry":{"x":175567.16999999993,"y":2546763.1000000015}},{"attributes":{"ID":414082,"DIS_CODE":0,"TOWNNAME":"永康區","LI":"六合里","LIN":"3鄰","STREET":"中山南路","SECT":" ","MAREA":" ","LANE":"１１８巷","ALLEY":" ","HOUSE_NO":"９號","E_COORD97":171097.92000000001,"N_COORD97":2545908.75,"ADDRESS":"中山南路１１８巷９號","OBJECTID":414058},"geometry":{"x":171097.92000000086,"y":2545908.7500000019}},{"attributes":{"ID":414083,"DIS_CODE":0,"TOWNNAME":"中西區","LI":"元安里","LIN":"3鄰","STREET":"西門路","SECT":"一段","MAREA":" ","LANE":"７０３巷","ALLEY":" ","HOUSE_NO":"１２號之２","E_COORD97":167641.98000000001,"N_COORD97":2543250.0699999998,"ADDRESS":"西門路一段７０３巷１２號之２","OBJECTID":414059},"geometry":{"x":167641.98000000045,"y":2543250.0700000003}},{"attributes":{"ID":414084,"DIS_CODE":0,"TOWNNAME":"中西區","LI":"元安里","LIN":"3鄰","STREET":"西門路","SECT":"一段","MAREA":" ","LANE":"７０３巷","ALLEY":" ","HOUSE_NO":"１２號之３","E_COORD97":167636.23000000001,"N_COORD97":2543250.2200000002,"ADDRESS":"西門路一段７０３巷１２號之３","OBJECTID":414060},"geometry":{"x":167636.23000000138,"y":2543250.2199999988}},{"attributes":{"ID":414085,"DIS_CODE":0,"TOWNNAME":"中西區","LI":"元安里","LIN":"3鄰","STREET":"西門路","SECT":"一段","MAREA":" ","LANE":"７０３巷","ALLEY":" ","HOUSE_NO":"１３號","E_COORD97":167622.37,"N_COORD97":2543238.6400000001,"ADDRESS":"西門路一段７０３巷１３號","OBJECTID":414061},"geometry":{"x":167622.37000000011,"y":2543238.6400000025}},{"attributes":{"ID":414086,"DIS_CODE":0,"TOWNNAME":"中西區","LI":"元安里","LIN":"3鄰","STREET":"西門路","SECT":"一段","MAREA":" ","LANE":"７０３巷","ALLEY":" ","HOUSE_NO":"１４號","E_COORD97":167631.81,"N_COORD97":2543250.6600000001,"ADDRESS":"西門路一段７０３巷１４號","OBJECTID":414062},"geometry":{"x":167631.81000000052,"y":2543250.660000002}},{"attributes":{"ID":414087,"DIS_CODE":0,"TOWNNAME":"中西區","LI":"元安里","LIN":"3鄰","STREET":"西門路","SECT":"一段","MAREA":" ","LANE":"７０３巷","ALLEY":" ","HOUSE_NO":"１５號","E_COORD97":167616.67999999999,"N_COORD97":2543238.8799999999,"ADDRESS":"西門路一段７０３巷１５號","OBJECTID":414063},"geometry":{"x":167616.67999999877,"y":2543238.8800000008}},{"attributes":{"ID":414088,"DIS_CODE":0,"TOWNNAME":"中西區","LI":"元安里","LIN":"3鄰","STREET":"西門路","SECT":"一段","MAREA":" ","LANE":"７０３巷","ALLEY":" ","HOUSE_NO":"１６號","E_COORD97":167623.60999999999,"N_COORD97":2543250.75,"ADDRESS":"西門路一段７０３巷１６號","OBJECTID":414064},"geometry":{"x":167623.61000000127,"y":2543250.7500000019}},{"attributes":{"ID":414089,"DIS_CODE":0,"TOWNNAME":"中西區","LI":"元安里","LIN":"3鄰","STREET":"西門路","SECT":"一段","MAREA":" ","LANE":"７０３巷","ALLEY":" ","HOUSE_NO":"１７號","E_COORD97":167611.88,"N_COORD97":2543239.04,"ADDRESS":"西門路一段７０３巷１７號","OBJECTID":414065},"geometry":{"x":167611.87999999989,"y":2543239.0399999991}},{"attributes":{"ID":414090,"DIS_CODE":0,"TOWNNAME":"中西區","LI":"元安里","LIN":"3鄰","STREET":"西門路","SECT":"一段","MAREA":" ","LANE":"７０３巷","ALLEY":" ","HOUSE_NO":"１８號","E_COORD97":167617.23000000001,"N_COORD97":2543251,"ADDRESS":"西門路一段７０３巷１８號","OBJECTID":414066},"geometry":{"x":167617.23000000231,"y":2543250.9999999981}},{"attributes":{"ID":414091,"DIS_CODE":0,"TOWNNAME":"南區","LI":"再興里","LIN":"3鄰","STREET":"金華路","SECT":"二段","MAREA":" ","LANE":"２２８巷","ALLEY":" ","HOUSE_NO":"１３號","E_COORD97":167160.45999999999,"N_COORD97":2542386.3999999999,"ADDRESS":"金華路二段２２８巷１３號","OBJECTID":414067},"geometry":{"x":167160.45999999996,"y":2542386.4000000004}},{"attributes":{"ID":414092,"DIS_CODE":0,"TOWNNAME":"南區","LI":"再興里","LIN":"3鄰","STREET":"金華路","SECT":"二段","MAREA":" ","LANE":"２２８巷","ALLEY":" ","HOUSE_NO":"１４號","E_COORD97":167158.54999999999,"N_COORD97":2542371.4900000002,"ADDRESS":"金華路二段２２８巷１４號","OBJECTID":414068},"geometry":{"x":167158.55000000075,"y":2542371.4900000021}},{"attributes":{"ID":414093,"DIS_CODE":0,"TOWNNAME":"南區","LI":"再興里","LIN":"3鄰","STREET":"金華路","SECT":"二段","MAREA":" ","LANE":"２２８巷","ALLEY":" ","HOUSE_NO":"１５號","E_COORD97":167167.95000000001,"N_COORD97":2542398.1299999999,"ADDRESS":"金華路二段２２８巷１５號","OBJECTID":414069},"geometry":{"x":167167.95000000205,"y":2542398.1299999971}},{"attributes":{"ID":414094,"DIS_CODE":0,"TOWNNAME":"南區","LI":"再興里","LIN":"3鄰","STREET":"金華路","SECT":"二段","MAREA":" ","LANE":"２２８巷","ALLEY":" ","HOUSE_NO":"１７號","E_COORD97":167163.25,"N_COORD97":2542400.1899999999,"ADDRESS":"金華路二段２２８巷１７號","OBJECTID":414070},"geometry":{"x":167163.25,"y":2542400.1899999995}},{"attributes":{"ID":414095,"DIS_CODE":0,"TOWNNAME":"南區","LI":"竹溪里","LIN":"3鄰","STREET":"健康路","SECT":"一段","MAREA":" ","LANE":"１３３巷","ALLEY":" ","HOUSE_NO":"８１號","E_COORD97":168899.98000000001,"N_COORD97":2542223.5299999998,"ADDRESS":"健康路一段１３３巷８１號","OBJECTID":414071},"geometry":{"x":168899.98000000045,"y":2542223.5300000012}},{"attributes":{"ID":414096,"DIS_CODE":0,"TOWNNAME":"南區","LI":"竹溪里","LIN":"3鄰","STREET":"健康路","SECT":"一段","MAREA":" ","LANE":"１３３巷","ALLEY":" ","HOUSE_NO":"８３號","E_COORD97":168899.44,"N_COORD97":2542216.5,"ADDRESS":"健康路一段１３３巷８３號","OBJECTID":414072},"geometry":{"x":168899.44000000134,"y":2542216.5}},{"attributes":{"ID":414097,"DIS_CODE":0,"TOWNNAME":"南區","LI":"竹溪里","LIN":"3鄰","STREET":"健康路","SECT":"一段","MAREA":" ","LANE":"１３３巷","ALLEY":" ","HOUSE_NO":"７９號","E_COORD97":168902.69,"N_COORD97":2542235.96,"ADDRESS":"健康路一段１３３巷７９號","OBJECTID":414073},"geometry":{"x":168902.69000000134,"y":2542235.9600000028}},{"attributes":{"ID":414098,"DIS_CODE":0,"TOWNNAME":"北區","LI":"玉皇里","LIN":"13鄰","STREET":"公園路","SECT":" ","MAREA":" ","LANE":" ","ALLEY":" ","HOUSE_NO":"１９７號","E_COORD97":168751.31,"N_COORD97":2544448.3100000001,"ADDRESS":"公園路１９７號","OBJECTID":414074},"geometry":{"x":168751.30999999959,"y":2544448.3100000005}},{"attributes":{"ID":414099,"DIS_CODE":0,"TOWNNAME":"南區","LI":"佛壇里","LIN":"3鄰","STREET":"興南街","SECT":" ","MAREA":" ","LANE":"１８４巷","ALLEY":" ","HOUSE_NO":"３號","E_COORD97":166030.57999999999,"N_COORD97":2535875.2200000002,"ADDRESS":"興南街１８４巷３號","OBJECTID":414075},"geometry":{"x":166030.58000000007,"y":2535875.2200000007}},{"attributes":{"ID":414100,"DIS_CODE":0,"TOWNNAME":"仁德區","LI":"上崙里","LIN":"3鄰","STREET":"德崙路","SECT":" ","MAREA":" ","LANE":"２９１巷","ALLEY":" ","HOUSE_NO":"５７號","E_COORD97":173813.14000000001,"N_COORD97":2538236.27,"ADDRESS":"德崙路２９１巷５７號","OBJECTID":414076},"geometry":{"x":173813.1400000006,"y":2538236.2699999996}},{"attributes":{"ID":414101,"DIS_CODE":0,"TOWNNAME":"仁德區","LI":"土庫里","LIN":"3鄰","STREET":"土庫三街","SECT":" ","MAREA":" ","LANE":"６６巷","ALLEY":" ","HOUSE_NO":"４號","E_COORD97":174254.70999999999,"N_COORD97":2543043.2400000002,"ADDRESS":"土庫三街６６巷４號","OBJECTID":414077},"geometry":{"x":174254.70999999996,"y":2543043.2400000039}},{"attributes":{"ID":414102,"DIS_CODE":0,"TOWNNAME":"仁德區","LI":"二行里","LIN":"3鄰","STREET":"中正西路","SECT":" ","MAREA":" ","LANE":"１２巷","ALLEY":" ","HOUSE_NO":"１０號","E_COORD97":170459.23000000001,"N_COORD97":2535489.7400000002,"ADDRESS":"中正西路１２巷１０號","OBJECTID":414078},"geometry":{"x":170459.23000000045,"y":2535489.7400000021}},{"attributes":{"ID":414103,"DIS_CODE":0,"TOWNNAME":"佳里區","LI":"忠仁里","LIN":"3鄰","STREET":"興中街","SECT":" ","MAREA":" ","LANE":"２３巷","ALLEY":" ","HOUSE_NO":"５號之１","E_COORD97":165768.09,"N_COORD97":2562220.46,"ADDRESS":"興中街２３巷５號之１","OBJECTID":414079},"geometry":{"x":165768.09000000171,"y":2562220.4600000009}},{"attributes":{"ID":414104,"DIS_CODE":0,"TOWNNAME":"佳里區","LI":"忠仁里","LIN":"3鄰","STREET":"興中街","SECT":" ","MAREA":" ","LANE":"２３巷","ALLEY":" ","HOUSE_NO":"５號之２","E_COORD97":165757.67999999999,"N_COORD97":2562218.9300000002,"ADDRESS":"興中街２３巷５號之２","OBJECTID":414080},"geometry":{"x":165757.68000000063,"y":2562218.9299999997}},{"attributes":{"ID":414105,"DIS_CODE":0,"TOWNNAME":"佳里區","LI":"忠仁里","LIN":"3鄰","STREET":"興中街","SECT":" ","MAREA":" ","LANE":"２３巷","ALLEY":" ","HOUSE_NO":"５號之３","E_COORD97":165757.73999999999,"N_COORD97":2562220.8599999999,"ADDRESS":"興中街２３巷５號之３","OBJECTID":414081},"geometry":{"x":165757.74000000115,"y":2562220.8600000031}},{"attributes":{"ID":414106,"DIS_CODE":0,"TOWNNAME":"佳里區","LI":"忠仁里","LIN":"3鄰","STREET":"興中街","SECT":" ","MAREA":" ","LANE":"２３巷","ALLEY":" ","HOUSE_NO":"５號","E_COORD97":165768.04000000001,"N_COORD97":2562218.5099999998,"ADDRESS":"興中街２３巷５號","OBJECTID":414082},"geometry":{"x":165768.04000000004,"y":2562218.5099999998}},{"attributes":{"ID":414107,"DIS_CODE":0,"TOWNNAME":"佳里區","LI":"忠仁里","LIN":"3鄰","STREET":"興中街","SECT":" ","MAREA":" ","LANE":"２３巷","ALLEY":" ","HOUSE_NO":"７號之１","E_COORD97":165768.34,"N_COORD97":2562224.75,"ADDRESS":"興中街２３巷７號之１","OBJECTID":414083},"geometry":{"x":165768.34000000078,"y":2562224.75}},{"attributes":{"ID":414108,"DIS_CODE":0,"TOWNNAME":"佳里區","LI":"忠仁里","LIN":"3鄰","STREET":"興中街","SECT":" ","MAREA":" ","LANE":"２３巷","ALLEY":" ","HOUSE_NO":"７號之２","E_COORD97":165757.76000000001,"N_COORD97":2562223.0899999999,"ADDRESS":"興中街２３巷７號之２","OBJECTID":414084},"geometry":{"x":165757.75999999978,"y":2562223.0900000036}},{"attributes":{"ID":414109,"DIS_CODE":0,"TOWNNAME":"佳里區","LI":"忠仁里","LIN":"3鄰","STREET":"興中街","SECT":" ","MAREA":" ","LANE":"２３巷","ALLEY":" ","HOUSE_NO":"７號之３","E_COORD97":165757.95999999999,"N_COORD97":2562225.0899999999,"ADDRESS":"興中街２３巷７號之３","OBJECTID":414085},"geometry":{"x":165757.96000000089,"y":2562225.0899999999}},{"attributes":{"ID":414110,"DIS_CODE":0,"TOWNNAME":"佳里區","LI":"忠仁里","LIN":"3鄰","STREET":"興中街","SECT":" ","MAREA":" ","LANE":"２３巷","ALLEY":" ","HOUSE_NO":"７號","E_COORD97":165768.29000000001,"N_COORD97":2562222.8500000001,"ADDRESS":"興中街２３巷７號","OBJECTID":414086},"geometry":{"x":165768.29000000004,"y":2562222.8499999996}},{"attributes":{"ID":414111,"DIS_CODE":0,"TOWNNAME":"佳里區","LI":"忠仁里","LIN":"3鄰","STREET":"興中街","SECT":" ","MAREA":" ","LANE":"２３巷","ALLEY":" ","HOUSE_NO":"９號","E_COORD97":165777,"N_COORD97":2562230.02,"ADDRESS":"興中街２３巷９號","OBJECTID":414087},"geometry":{"x":165777,"y":2562230.0200000033}},{"attributes":{"ID":414112,"DIS_CODE":0,"TOWNNAME":"永康區","LI":"西勢里","LIN":"3鄰","STREET":"富強路","SECT":"一段","MAREA":" ","LANE":"３２１巷","ALLEY":" ","HOUSE_NO":"８４號","E_COORD97":175538.76999999999,"N_COORD97":2546741.2400000002,"ADDRESS":"富強路一段３２１巷８４號","OBJECTID":414088},"geometry":{"x":175538.76999999955,"y":2546741.2400000002}},{"attributes":{"ID":414113,"DIS_CODE":0,"TOWNNAME":"永康區","LI":"埔園里","LIN":"3鄰","STREET":"聖龍街","SECT":" ","MAREA":" ","LANE":"２２巷","ALLEY":" ","HOUSE_NO":"２５號","E_COORD97":173900.98999999999,"N_COORD97":2547779.75,"ADDRESS":"聖龍街２２巷２５號","OBJECTID":414089},"geometry":{"x":173900.99000000209,"y":2547779.7500000019}},{"attributes":{"ID":414114,"DIS_CODE":0,"TOWNNAME":"南區","LI":"明亮里","LIN":"3鄰","STREET":"新都路","SECT":" ","MAREA":" ","LANE":"５２０巷","ALLEY":" ","HOUSE_NO":"１１號","E_COORD97":167141.48000000001,"N_COORD97":2540943.4100000001,"ADDRESS":"新都路５２０巷１１號","OBJECTID":414090},"geometry":{"x":167141.48000000138,"y":2540943.4100000039}},{"attributes":{"ID":414115,"DIS_CODE":0,"TOWNNAME":"南區","LI":"明亮里","LIN":"3鄰","STREET":"新都路","SECT":" ","MAREA":" ","LANE":"５２０巷","ALLEY":" ","HOUSE_NO":"１３號","E_COORD97":167129.85000000001,"N_COORD97":2540944.8700000001,"ADDRESS":"新都路５２０巷１３號","OBJECTID":414091},"geometry":{"x":167129.85000000056,"y":2540944.8700000029}},{"attributes":{"ID":414116,"DIS_CODE":0,"TOWNNAME":"南區","LI":"明亮里","LIN":"3鄰","STREET":"新都路","SECT":" ","MAREA":" ","LANE":"５２０巷","ALLEY":" ","HOUSE_NO":"１５號","E_COORD97":167127.51999999999,"N_COORD97":2540932.6699999999,"ADDRESS":"新都路５２０巷１５號","OBJECTID":414092},"geometry":{"x":167127.51999999955,"y":2540932.6700000018}},{"attributes":{"ID":414117,"DIS_CODE":0,"TOWNNAME":"南區","LI":"明亮里","LIN":"3鄰","STREET":"新都路","SECT":" ","MAREA":" ","LANE":"５２０巷","ALLEY":" ","HOUSE_NO":"１７號","E_COORD97":167117.04999999999,"N_COORD97":2540947.1899999999,"ADDRESS":"新都路５２０巷１７號","OBJECTID":414093},"geometry":{"x":167117.04999999981,"y":2540947.1899999976}},{"attributes":{"ID":414118,"DIS_CODE":0,"TOWNNAME":"南區","LI":"明亮里","LIN":"3鄰","STREET":"新都路","SECT":" ","MAREA":" ","LANE":"５２０巷","ALLEY":" ","HOUSE_NO":"１９號","E_COORD97":167113.26999999999,"N_COORD97":2540936.4399999999,"ADDRESS":"新都路５２０巷１９號","OBJECTID":414094},"geometry":{"x":167113.27000000048,"y":2540936.4400000013}},{"attributes":{"ID":414119,"DIS_CODE":0,"TOWNNAME":"南區","LI":"明亮里","LIN":"3鄰","STREET":"新都路","SECT":" ","MAREA":" ","LANE":"５２０巷","ALLEY":" ","HOUSE_NO":"２１號","E_COORD97":167105.70999999999,"N_COORD97":2540949.2200000002,"ADDRESS":"新都路５２０巷２１號","OBJECTID":414095},"geometry":{"x":167105.71000000089,"y":2540949.2200000025}},{"attributes":{"ID":414120,"DIS_CODE":0,"TOWNNAME":"南區","LI":"明亮里","LIN":"3鄰","STREET":"新都路","SECT":" ","MAREA":" ","LANE":"５２０巷","ALLEY":" ","HOUSE_NO":"２３號","E_COORD97":167102.22,"N_COORD97":2540938.48,"ADDRESS":"新都路５２０巷２３號","OBJECTID":414096},"geometry":{"x":167102.21999999974,"y":2540938.4800000004}},{"attributes":{"ID":414121,"DIS_CODE":0,"TOWNNAME":"東區","LI":"莊敬里","LIN":"3鄰","STREET":"東光路","SECT":"二段","MAREA":" ","LANE":"１２１巷","ALLEY":" ","HOUSE_NO":"１４號","E_COORD97":171162.16,"N_COORD97":2544247.9199999999,"ADDRESS":"東光路二段１２１巷１４號","OBJECTID":414097},"geometry":{"x":171162.16000000108,"y":2544247.9199999999}},{"attributes":{"ID":414122,"DIS_CODE":0,"TOWNNAME":"東區","LI":"後甲里","LIN":"3鄰","STREET":"裕農路","SECT":" ","MAREA":" ","LANE":"６２１巷","ALLEY":" ","HOUSE_NO":"２之２號","E_COORD97":171638.41,"N_COORD97":2543254.9399999999,"ADDRESS":"裕農路６２１巷２之２號","OBJECTID":414098},"geometry":{"x":171638.41000000201,"y":2543254.9400000013}},{"attributes":{"ID":414123,"DIS_CODE":0,"TOWNNAME":"東區","LI":"後甲里","LIN":"3鄰","STREET":"裕農路","SECT":" ","MAREA":" ","LANE":"６２１巷","ALLEY":" ","HOUSE_NO":"２之３號","E_COORD97":171638.5,"N_COORD97":2543258.4300000002,"ADDRESS":"裕農路６２１巷２之３號","OBJECTID":414099},"geometry":{"x":171638.5,"y":2543258.4300000034}},{"attributes":{"ID":414124,"DIS_CODE":0,"TOWNNAME":"中西區","LI":"仙草里","LIN":"3鄰","STREET":"五妃街","SECT":" ","MAREA":" ","LANE":"３２２巷","ALLEY":" ","HOUSE_NO":"２０號","E_COORD97":167862.31,"N_COORD97":2542613.0099999998,"ADDRESS":"五妃街３２２巷２０號","OBJECTID":414100},"geometry":{"x":167862.31000000052,"y":2542613.0099999998}},{"attributes":{"ID":414125,"DIS_CODE":0,"TOWNNAME":"中西區","LI":"仙草里","LIN":"3鄰","STREET":"五妃街","SECT":" ","MAREA":" ","LANE":"３２２巷","ALLEY":" ","HOUSE_NO":"２２號","E_COORD97":167869.23999999999,"N_COORD97":2542613.6000000001,"ADDRESS":"五妃街３２２巷２２號","OBJECTID":414101},"geometry":{"x":167869.24000000022,"y":2542613.6000000015}},{"attributes":{"ID":414126,"DIS_CODE":0,"TOWNNAME":"中西區","LI":"仙草里","LIN":"3鄰","STREET":"五妃街","SECT":" ","MAREA":" ","LANE":"３２２巷","ALLEY":" ","HOUSE_NO":"２４號","E_COORD97":167870.23000000001,"N_COORD97":2542607.6600000001,"ADDRESS":"五妃街３２２巷２４號","OBJECTID":414102},"geometry":{"x":167870.23000000138,"y":2542607.660000002}},{"attributes":{"ID":414127,"DIS_CODE":0,"TOWNNAME":"中西區","LI":"仙草里","LIN":"3鄰","STREET":"五妃街","SECT":" ","MAREA":" ","LANE":"３２２巷","ALLEY":" ","HOUSE_NO":"２６號","E_COORD97":167876.76999999999,"N_COORD97":2542611.23,"ADDRESS":"五妃街３２２巷２６號","OBJECTID":414103},"geometry":{"x":167876.76999999955,"y":2542611.2300000004}},{"attributes":{"ID":414128,"DIS_CODE":0,"TOWNNAME":"中西區","LI":"仙草里","LIN":"3鄰","STREET":"五妃街","SECT":" ","MAREA":" ","LANE":"３２２巷","ALLEY":" ","HOUSE_NO":"３１號","E_COORD97":167862.51000000001,"N_COORD97":2542628.6499999999,"ADDRESS":"五妃街３２２巷３１號","OBJECTID":414104},"geometry":{"x":167862.51000000071,"y":2542628.6500000004}},{"attributes":{"ID":414129,"DIS_CODE":0,"TOWNNAME":"中西區","LI":"大南里","LIN":"3鄰","STREET":"南門路","SECT":" ","MAREA":" ","LANE":"６８巷","ALLEY":" ","HOUSE_NO":"２號","E_COORD97":168339.32999999999,"N_COORD97":2542524.0299999998,"ADDRESS":"南門路６８巷２號","OBJECTID":414105},"geometry":{"x":168339.33000000007,"y":2542524.0299999993}},{"attributes":{"ID":414130,"DIS_CODE":0,"TOWNNAME":"中西區","LI":"大南里","LIN":"3鄰","STREET":"南門路","SECT":" ","MAREA":" ","LANE":"６８巷","ALLEY":" ","HOUSE_NO":"４號","E_COORD97":168334.75,"N_COORD97":2542523.3199999998,"ADDRESS":"南門路６８巷４號","OBJECTID":414106},"geometry":{"x":168334.75,"y":2542523.3200000003}},{"attributes":{"ID":414131,"DIS_CODE":0,"TOWNNAME":"中西區","LI":"大南里","LIN":"3鄰","STREET":"南門路","SECT":" ","MAREA":" ","LANE":"６８巷","ALLEY":" ","HOUSE_NO":"６號","E_COORD97":168328.06,"N_COORD97":2542521.9100000001,"ADDRESS":"南門路６８巷６號","OBJECTID":414107},"geometry":{"x":168328.06000000052,"y":2542521.9100000001}},{"attributes":{"ID":414132,"DIS_CODE":0,"TOWNNAME":"中西區","LI":"大南里","LIN":"3鄰","STREET":"健康路","SECT":"一段","MAREA":" ","LANE":"２９６巷","ALLEY":" ","HOUSE_NO":"１６號","E_COORD97":168325.23999999999,"N_COORD97":2542527.8999999999,"ADDRESS":"健康路一段２９６巷１６號","OBJECTID":414108},"geometry":{"x":168325.24000000022,"y":2542527.9000000022}},{"attributes":{"ID":414133,"DIS_CODE":0,"TOWNNAME":"中西區","LI":"大南里","LIN":"3鄰","STREET":"健康路","SECT":"一段","MAREA":" ","LANE":"２９６巷","ALLEY":" ","HOUSE_NO":"１８號","E_COORD97":168326.29999999999,"N_COORD97":2542533.52,"ADDRESS":"健康路一段２９６巷１８號","OBJECTID":414109},"geometry":{"x":168326.30000000168,"y":2542533.5200000014}},{"attributes":{"ID":414134,"DIS_CODE":0,"TOWNNAME":"永康區","LI":"東橋里","LIN":"3鄰","STREET":"大橋一街","SECT":" ","MAREA":" ","LANE":"３３０巷","ALLEY":" ","HOUSE_NO":"１號","E_COORD97":171346.57000000001,"N_COORD97":2546669.0299999998,"ADDRESS":"大橋一街３３０巷１號","OBJECTID":414110},"geometry":{"x":171346.57000000123,"y":2546669.0300000012}},{"attributes":{"ID":414135,"DIS_CODE":0,"TOWNNAME":"永康區","LI":"東橋里","LIN":"3鄰","STREET":"大橋一街","SECT":" ","MAREA":" ","LANE":"３３０巷","ALLEY":" ","HOUSE_NO":"７號","E_COORD97":171357.76999999999,"N_COORD97":2546654.29,"ADDRESS":"大橋一街３３０巷７號","OBJECTID":414111},"geometry":{"x":171357.77000000048,"y":2546654.2899999991}},{"attributes":{"ID":414136,"DIS_CODE":0,"TOWNNAME":"永康區","LI":"神洲里","LIN":"3鄰","STREET":"忠孝路","SECT":" ","MAREA":" ","LANE":"３２巷","ALLEY":" ","HOUSE_NO":"１號","E_COORD97":172097.85999999999,"N_COORD97":2544647.5,"ADDRESS":"忠孝路３２巷１號","OBJECTID":414112},"geometry":{"x":172097.86000000034,"y":2544647.5}},{"attributes":{"ID":414137,"DIS_CODE":0,"TOWNNAME":"永康區","LI":"神洲里","LIN":"3鄰","STREET":"忠孝路","SECT":" ","MAREA":" ","LANE":"３２巷","ALLEY":" ","HOUSE_NO":"１１號","E_COORD97":172129.17999999999,"N_COORD97":2544648,"ADDRESS":"忠孝路３２巷１１號","OBJECTID":414113},"geometry":{"x":172129.1799999997,"y":2544648.0000000037}},{"attributes":{"ID":414138,"DIS_CODE":0,"TOWNNAME":"永康區","LI":"崑山里","LIN":"3鄰","STREET":"大灣路","SECT":" ","MAREA":" ","LANE":"８７９巷","ALLEY":" ","HOUSE_NO":"３１號","E_COORD97":173688.63,"N_COORD97":2544374.21,"ADDRESS":"大灣路８７９巷３１號","OBJECTID":414114},"geometry":{"x":173688.62999999989,"y":2544374.2100000028}},{"attributes":{"ID":414139,"DIS_CODE":0,"TOWNNAME":"新化區","LI":"護國里","LIN":"3鄰","STREET":"建國街","SECT":" ","MAREA":" ","LANE":"９巷","ALLEY":" ","HOUSE_NO":"８號之３","E_COORD97":179173.28,"N_COORD97":2548536.2599999998,"ADDRESS":"建國街９巷８號之３","OBJECTID":414115},"geometry":{"x":179173.28000000119,"y":2548536.2600000016}},{"attributes":{"ID":414140,"DIS_CODE":0,"TOWNNAME":"南區","LI":"開南里","LIN":"3鄰","STREET":"中華西路","SECT":"一段","MAREA":" ","LANE":"３８巷","ALLEY":" ","HOUSE_NO":"１號","E_COORD97":166332.76000000001,"N_COORD97":2541007.2400000002,"ADDRESS":"中華西路一段３８巷１號","OBJECTID":414116},"geometry":{"x":166332.75999999978,"y":2541007.2400000002}},{"attributes":{"ID":414141,"DIS_CODE":0,"TOWNNAME":"南區","LI":"開南里","LIN":"3鄰","STREET":"中華西路","SECT":"一段","MAREA":" ","LANE":"３８巷","ALLEY":" ","HOUSE_NO":"２號","E_COORD97":166351.10000000001,"N_COORD97":2540981.2000000002,"ADDRESS":"中華西路一段３８巷２號","OBJECTID":414117},"geometry":{"x":166351.10000000056,"y":2540981.200000003}},{"attributes":{"ID":414142,"DIS_CODE":0,"TOWNNAME":"南區","LI":"開南里","LIN":"3鄰","STREET":"中華西路","SECT":"一段","MAREA":" ","LANE":"３８巷","ALLEY":" ","HOUSE_NO":"３號","E_COORD97":166338.48000000001,"N_COORD97":2541007.3900000001,"ADDRESS":"中華西路一段３８巷３號","OBJECTID":414118},"geometry":{"x":166338.48000000045,"y":2541007.3900000006}},{"attributes":{"ID":414143,"DIS_CODE":0,"TOWNNAME":"南區","LI":"開南里","LIN":"3鄰","STREET":"中華西路","SECT":"一段","MAREA":" ","LANE":"３８巷","ALLEY":" ","HOUSE_NO":"４號","E_COORD97":166355.64999999999,"N_COORD97":2540980.8999999999,"ADDRESS":"中華西路一段３８巷４號","OBJECTID":414119},"geometry":{"x":166355.65000000037,"y":2540980.9000000041}},{"attributes":{"ID":414144,"DIS_CODE":0,"TOWNNAME":"南區","LI":"開南里","LIN":"3鄰","STREET":"中華西路","SECT":"一段","MAREA":" ","LANE":"３８巷","ALLEY":" ","HOUSE_NO":"５號","E_COORD97":166351.10000000001,"N_COORD97":2541007.0899999999,"ADDRESS":"中華西路一段３８巷５號","OBJECTID":414120},"geometry":{"x":166351.10000000056,"y":2541007.0900000017}},{"attributes":{"ID":414145,"DIS_CODE":0,"TOWNNAME":"南區","LI":"開南里","LIN":"3鄰","STREET":"中華西路","SECT":"一段","MAREA":" ","LANE":"３８巷","ALLEY":" ","HOUSE_NO":"６號","E_COORD97":166368.41,"N_COORD97":2540981.3399999999,"ADDRESS":"中華西路一段３８巷６號","OBJECTID":414121},"geometry":{"x":166368.41000000108,"y":2540981.3400000017}},{"attributes":{"ID":414146,"DIS_CODE":0,"TOWNNAME":"南區","LI":"開南里","LIN":"3鄰","STREET":"中華西路","SECT":"一段","MAREA":" ","LANE":"３８巷","ALLEY":" ","HOUSE_NO":"７號","E_COORD97":166356.67000000001,"N_COORD97":2541007.0899999999,"ADDRESS":"中華西路一段３８巷７號","OBJECTID":414122},"geometry":{"x":166356.67000000086,"y":2541007.0900000017}},{"attributes":{"ID":414147,"DIS_CODE":0,"TOWNNAME":"南區","LI":"開南里","LIN":"3鄰","STREET":"中華西路","SECT":"一段","MAREA":" ","LANE":"３８巷","ALLEY":" ","HOUSE_NO":"８號","E_COORD97":166373.39999999999,"N_COORD97":2540981.0499999998,"ADDRESS":"中華西路一段３８巷８號","OBJECTID":414123},"geometry":{"x":166373.40000000224,"y":2540981.0500000026}},{"attributes":{"ID":414148,"DIS_CODE":0,"TOWNNAME":"南區","LI":"新興里","LIN":"3鄰","STREET":"五妃街","SECT":" ","MAREA":" ","LANE":"４４３巷","ALLEY":" ","HOUSE_NO":"１號","E_COORD97":167541.60999999999,"N_COORD97":2542574.1499999999,"ADDRESS":"五妃街４４３巷１號","OBJECTID":414124},"geometry":{"x":167541.6100000022,"y":2542574.1500000022}},{"attributes":{"ID":414149,"DIS_CODE":0,"TOWNNAME":"南區","LI":"新興里","LIN":"3鄰","STREET":"五妃街","SECT":" ","MAREA":" ","LANE":"４４３巷","ALLEY":" ","HOUSE_NO":"３號","E_COORD97":167541.85999999999,"N_COORD97":2542571.1200000001,"ADDRESS":"五妃街４４３巷３號","OBJECTID":414125},"geometry":{"x":167541.86000000127,"y":2542571.1200000029}},{"attributes":{"ID":414150,"DIS_CODE":0,"TOWNNAME":"南區","LI":"新興里","LIN":"3鄰","STREET":"五妃街","SECT":" ","MAREA":" ","LANE":"４４３巷","ALLEY":" ","HOUSE_NO":"５號","E_COORD97":167541.44,"N_COORD97":2542567.3300000001,"ADDRESS":"五妃街４４３巷５號","OBJECTID":414126},"geometry":{"x":167541.44000000134,"y":2542567.3300000001}},{"attributes":{"ID":414151,"DIS_CODE":0,"TOWNNAME":"南區","LI":"新興里","LIN":"3鄰","STREET":"五妃街","SECT":" ","MAREA":" ","LANE":"４４３巷","ALLEY":" ","HOUSE_NO":"７號","E_COORD97":167541.44,"N_COORD97":2542563.71,"ADDRESS":"五妃街４４３巷７號","OBJECTID":414127},"geometry":{"x":167541.44000000134,"y":2542563.7100000028}},{"attributes":{"ID":414152,"DIS_CODE":0,"TOWNNAME":"南區","LI":"彰南里","LIN":"3鄰","STREET":"中華西路","SECT":"一段","MAREA":" ","LANE":"５４巷","ALLEY":" ","HOUSE_NO":"１０號","E_COORD97":166366.82000000001,"N_COORD97":2541233.0899999999,"ADDRESS":"中華西路一段５４巷１０號","OBJECTID":414128},"geometry":{"x":166366.8200000003,"y":2541233.0900000036}},{"attributes":{"ID":414153,"DIS_CODE":0,"TOWNNAME":"南區","LI":"彰南里","LIN":"3鄰","STREET":"中華西路","SECT":"一段","MAREA":" ","LANE":"５４巷","ALLEY":" ","HOUSE_NO":"１２號","E_COORD97":166374.70999999999,"N_COORD97":2541233.0899999999,"ADDRESS":"中華西路一段５４巷１２號","OBJECTID":414129},"geometry":{"x":166374.71000000089,"y":2541233.0900000036}},{"attributes":{"ID":414154,"DIS_CODE":0,"TOWNNAME":"南區","LI":"彰南里","LIN":"3鄰","STREET":"中華西路","SECT":"一段","MAREA":" ","LANE":"５４巷","ALLEY":" ","HOUSE_NO":"１號","E_COORD97":166333.47,"N_COORD97":2541259.5,"ADDRESS":"中華西路一段５４巷１號","OBJECTID":414130},"geometry":{"x":166333.47000000067,"y":2541259.5}},{"attributes":{"ID":414155,"DIS_CODE":0,"TOWNNAME":"南區","LI":"彰南里","LIN":"3鄰","STREET":"中華西路","SECT":"一段","MAREA":" ","LANE":"５４巷","ALLEY":" ","HOUSE_NO":"２號","E_COORD97":166331.51000000001,"N_COORD97":2541232.4700000002,"ADDRESS":"中華西路一段５４巷２號","OBJECTID":414131},"geometry":{"x":166331.51000000071,"y":2541232.4700000025}},{"attributes":{"ID":414156,"DIS_CODE":0,"TOWNNAME":"南區","LI":"彰南里","LIN":"3鄰","STREET":"中華西路","SECT":"一段","MAREA":" ","LANE":"５４巷","ALLEY":" ","HOUSE_NO":"３號","E_COORD97":166340.66,"N_COORD97":2541258.8799999999,"ADDRESS":"中華西路一段５４巷３號","OBJECTID":414132},"geometry":{"x":166340.66000000015,"y":2541258.8800000008}},{"attributes":{"ID":414157,"DIS_CODE":0,"TOWNNAME":"南區","LI":"彰南里","LIN":"3鄰","STREET":"中華西路","SECT":"一段","MAREA":" ","LANE":"５４巷","ALLEY":" ","HOUSE_NO":"４號","E_COORD97":166338.51999999999,"N_COORD97":2541233.27,"ADDRESS":"中華西路一段５４巷４號","OBJECTID":414133},"geometry":{"x":166338.52000000048,"y":2541233.2700000014}},{"attributes":{"ID":414158,"DIS_CODE":0,"TOWNNAME":"南區","LI":"彰南里","LIN":"3鄰","STREET":"中華西路","SECT":"一段","MAREA":" ","LANE":"５４巷","ALLEY":" ","HOUSE_NO":"５號","E_COORD97":166350.23999999999,"N_COORD97":2541259.23,"ADDRESS":"中華西路一段５４巷５號","OBJECTID":414134},"geometry":{"x":166350.24000000022,"y":2541259.2300000004}},{"attributes":{"ID":414159,"DIS_CODE":0,"TOWNNAME":"南區","LI":"彰南里","LIN":"3鄰","STREET":"中華西路","SECT":"一段","MAREA":" ","LANE":"５４巷","ALLEY":" ","HOUSE_NO":"６號","E_COORD97":166349.51999999999,"N_COORD97":2541233.4500000002,"ADDRESS":"中華西路一段５４巷６號","OBJECTID":414135},"geometry":{"x":166349.51999999955,"y":2541233.450000003}},{"attributes":{"ID":414160,"DIS_CODE":0,"TOWNNAME":"南區","LI":"彰南里","LIN":"3鄰","STREET":"中華西路","SECT":"一段","MAREA":" ","LANE":"５４巷","ALLEY":" ","HOUSE_NO":"７號","E_COORD97":166357.87,"N_COORD97":2541258.7000000002,"ADDRESS":"中華西路一段５４巷７號","OBJECTID":414136},"geometry":{"x":166357.87000000011,"y":2541258.6999999974}},{"attributes":{"ID":414161,"DIS_CODE":0,"TOWNNAME":"南區","LI":"彰南里","LIN":"3鄰","STREET":"中華西路","SECT":"一段","MAREA":" ","LANE":"５４巷","ALLEY":" ","HOUSE_NO":"８號","E_COORD97":166357.5,"N_COORD97":2541233.27,"ADDRESS":"中華西路一段５４巷８號","OBJECTID":414137},"geometry":{"x":166357.50000000093,"y":2541233.2700000014}},{"attributes":{"ID":414162,"DIS_CODE":0,"TOWNNAME":"南區","LI":"彰南里","LIN":"3鄰","STREET":"中華西路","SECT":"一段","MAREA":" ","LANE":"５４巷","ALLEY":" ","HOUSE_NO":"９號","E_COORD97":166367.76999999999,"N_COORD97":2541259.1400000001,"ADDRESS":"中華西路一段５４巷９號","OBJECTID":414138},"geometry":{"x":166367.76999999955,"y":2541259.1400000006}},{"attributes":{"ID":414163,"DIS_CODE":0,"TOWNNAME":"永康區","LI":"尚頂里","LIN":"3鄰","STREET":"中正二街","SECT":" ","MAREA":" ","LANE":"１８２巷","ALLEY":" ","HOUSE_NO":"２號","E_COORD97":171430.66,"N_COORD97":2547687.6099999999,"ADDRESS":"中正二街１８２巷２號","OBJECTID":414139},"geometry":{"x":171430.66000000108,"y":2547687.6099999975}},{"attributes":{"ID":414164,"DIS_CODE":0,"TOWNNAME":"永康區","LI":"尚頂里","LIN":"3鄰","STREET":"中正二街","SECT":" ","MAREA":" ","LANE":"１８２巷","ALLEY":" ","HOUSE_NO":"４８號","E_COORD97":171453.28,"N_COORD97":2547538.2200000002,"ADDRESS":"中正二街１８２巷４８號","OBJECTID":414140},"geometry":{"x":171453.28000000119,"y":2547538.2200000007}},{"attributes":{"ID":414165,"DIS_CODE":0,"TOWNNAME":"安南區","LI":"安西里","LIN":"3鄰","STREET":"安和路","SECT":"一段","MAREA":" ","LANE":"２１５巷","ALLEY":" ","HOUSE_NO":"１８號","E_COORD97":169226.07000000001,"N_COORD97":2547943.79,"ADDRESS":"安和路一段２１５巷１８號","OBJECTID":414141},"geometry":{"x":169226.0700000003,"y":2547943.7899999972}},{"attributes":{"ID":414166,"DIS_CODE":0,"TOWNNAME":"東區","LI":"龍山里","LIN":"3鄰","STREET":"富德街","SECT":" ","MAREA":" ","LANE":"２５巷","ALLEY":" ","HOUSE_NO":"２號","E_COORD97":170355.07999999999,"N_COORD97":2542812.7599999998,"ADDRESS":"富德街２５巷２號","OBJECTID":414142},"geometry":{"x":170355.08000000007,"y":2542812.7600000016}},{"attributes":{"ID":414167,"DIS_CODE":0,"TOWNNAME":"東區","LI":"龍山里","LIN":"3鄰","STREET":"富德街","SECT":" ","MAREA":" ","LANE":"２５巷","ALLEY":" ","HOUSE_NO":"３號","E_COORD97":170337.47,"N_COORD97":2542806.52,"ADDRESS":"富德街２５巷３號","OBJECTID":414143},"geometry":{"x":170337.47000000067,"y":2542806.5200000033}},{"attributes":{"ID":414168,"DIS_CODE":0,"TOWNNAME":"東區","LI":"龍山里","LIN":"3鄰","STREET":"富德街","SECT":" ","MAREA":" ","LANE":"２５巷","ALLEY":" ","HOUSE_NO":"４號","E_COORD97":170348.41,"N_COORD97":2542816.8799999999,"ADDRESS":"富德街２５巷４號","OBJECTID":414144},"geometry":{"x":170348.41000000201,"y":2542816.8800000027}},{"attributes":{"ID":414169,"DIS_CODE":0,"TOWNNAME":"東區","LI":"龍山里","LIN":"3鄰","STREET":"富德街","SECT":" ","MAREA":" ","LANE":"２５巷","ALLEY":" ","HOUSE_NO":"５號","E_COORD97":170333.17000000001,"N_COORD97":2542809.0099999998,"ADDRESS":"富德街２５巷５號","OBJECTID":414145},"geometry":{"x":170333.17000000086,"y":2542809.0099999998}},{"attributes":{"ID":414170,"DIS_CODE":0,"TOWNNAME":"東區","LI":"龍山里","LIN":"3鄰","STREET":"富德街","SECT":" ","MAREA":" ","LANE":"２５巷","ALLEY":" ","HOUSE_NO":"９號","E_COORD97":170320.72,"N_COORD97":2542807.8799999999,"ADDRESS":"富德街２５巷９號","OBJECTID":414146},"geometry":{"x":170320.72000000067,"y":2542807.8800000008}},{"attributes":{"ID":414171,"DIS_CODE":0,"TOWNNAME":"東區","LI":"裕農里","LIN":"3鄰","STREET":"裕農路","SECT":" ","MAREA":" ","LANE":"２９１巷","ALLEY":" ","HOUSE_NO":"３１號","E_COORD97":170855.67999999999,"N_COORD97":2543131.77,"ADDRESS":"裕農路２９１巷３１號","OBJECTID":414147},"geometry":{"x":170855.6799999997,"y":2543131.7700000014}},{"attributes":{"ID":414172,"DIS_CODE":0,"TOWNNAME":"東區","LI":"裕農里","LIN":"3鄰","STREET":"裕農路","SECT":" ","MAREA":" ","LANE":"２９１巷","ALLEY":" ","HOUSE_NO":"４號","E_COORD97":170894.34,"N_COORD97":2543036.3999999999,"ADDRESS":"裕農路２９１巷４號","OBJECTID":414148},"geometry":{"x":170894.34000000171,"y":2543036.4000000022}},{"attributes":{"ID":414173,"DIS_CODE":0,"TOWNNAME":"永康區","LI":"東橋里","LIN":"3鄰","STREET":"大橋一街","SECT":" ","MAREA":" ","LANE":"３２４巷","ALLEY":" ","HOUSE_NO":"３７號","E_COORD97":171370.45999999999,"N_COORD97":2546597.0299999998,"ADDRESS":"大橋一街３２４巷３７號","OBJECTID":414149},"geometry":{"x":171370.46000000089,"y":2546597.0300000012}},{"attributes":{"ID":414174,"DIS_CODE":0,"TOWNNAME":"永康區","LI":"西灣里","LIN":"3鄰","STREET":"大灣五街","SECT":" ","MAREA":" ","LANE":"６９巷","ALLEY":" ","HOUSE_NO":"５８號","E_COORD97":174647.32000000001,"N_COORD97":2545157.8799999999,"ADDRESS":"大灣五街６９巷５８號","OBJECTID":414150},"geometry":{"x":174647.3200000003,"y":2545157.8800000008}},{"attributes":{"ID":414175,"DIS_CODE":0,"TOWNNAME":"永康區","LI":"尚頂里","LIN":"3鄰","STREET":"中正二街","SECT":" ","MAREA":" ","LANE":"１８２巷","ALLEY":" ","HOUSE_NO":"１０號","E_COORD97":171434.20000000001,"N_COORD97":2547664.3599999999,"ADDRESS":"中正二街１８２巷１０號","OBJECTID":414151},"geometry":{"x":171434.20000000019,"y":2547664.3599999994}},{"attributes":{"ID":414176,"DIS_CODE":0,"TOWNNAME":"永康區","LI":"西灣里","LIN":"3鄰","STREET":"大灣五街","SECT":" ","MAREA":" ","LANE":"６９巷","ALLEY":" ","HOUSE_NO":"３６號","E_COORD97":174666.69,"N_COORD97":2545191,"ADDRESS":"大灣五街６９巷３６號","OBJECTID":414152},"geometry":{"x":174666.69000000134,"y":2545191.0000000019}},{"attributes":{"ID":414177,"DIS_CODE":0,"TOWNNAME":"永康區","LI":"西灣里","LIN":"3鄰","STREET":"大灣五街","SECT":" ","MAREA":" ","LANE":"６９巷","ALLEY":" ","HOUSE_NO":"２６號","E_COORD97":174671.09,"N_COORD97":2545209.25,"ADDRESS":"大灣五街６９巷２６號","OBJECTID":414153},"geometry":{"x":174671.08999999892,"y":2545209.2500000037}},{"attributes":{"ID":414178,"DIS_CODE":0,"TOWNNAME":"中西區","LI":"公正里","LIN":"3鄰","STREET":"北門路","SECT":"一段","MAREA":" ","LANE":"１２３巷","ALLEY":" ","HOUSE_NO":"１１號","E_COORD97":169124.82999999999,"N_COORD97":2543922.3999999999,"ADDRESS":"北門路一段１２３巷１１號","OBJECTID":414154},"geometry":{"x":169124.83000000194,"y":2543922.4000000004}},{"attributes":{"ID":414179,"DIS_CODE":0,"TOWNNAME":"中西區","LI":"公正里","LIN":"3鄰","STREET":"北門路","SECT":"一段","MAREA":" ","LANE":"１２３巷","ALLEY":" ","HOUSE_NO":"１號","E_COORD97":169162.67999999999,"N_COORD97":2543923.5099999998,"ADDRESS":"北門路一段１２３巷１號","OBJECTID":414155},"geometry":{"x":169162.67999999877,"y":2543923.5100000016}},{"attributes":{"ID":414180,"DIS_CODE":0,"TOWNNAME":"中西區","LI":"公正里","LIN":"3鄰","STREET":"北門路","SECT":"一段","MAREA":" ","LANE":"１２３巷","ALLEY":" ","HOUSE_NO":"３號","E_COORD97":169153.95000000001,"N_COORD97":2543925.8599999999,"ADDRESS":"北門路一段１２３巷３號","OBJECTID":414156},"geometry":{"x":169153.95000000019,"y":2543925.8599999994}},{"attributes":{"ID":414181,"DIS_CODE":0,"TOWNNAME":"中西區","LI":"公正里","LIN":"3鄰","STREET":"北門路","SECT":"一段","MAREA":" ","LANE":"１２３巷","ALLEY":" ","HOUSE_NO":"５號","E_COORD97":169143.88,"N_COORD97":2543925.8599999999,"ADDRESS":"北門路一段１２３巷５號","OBJECTID":414157},"geometry":{"x":169143.87999999989,"y":2543925.8599999994}},{"attributes":{"ID":414182,"DIS_CODE":0,"TOWNNAME":"中西區","LI":"公正里","LIN":"3鄰","STREET":"北門路","SECT":"一段","MAREA":" ","LANE":"１２３巷","ALLEY":" ","HOUSE_NO":"７號","E_COORD97":169137.16,"N_COORD97":2543925.52,"ADDRESS":"北門路一段１２３巷７號","OBJECTID":414158},"geometry":{"x":169137.16000000015,"y":2543925.5200000033}},{"attributes":{"ID":414183,"DIS_CODE":0,"TOWNNAME":"中西區","LI":"公正里","LIN":"3鄰","STREET":"北門路","SECT":"一段","MAREA":" ","LANE":"１２３巷","ALLEY":" ","HOUSE_NO":"９號","E_COORD97":169131.85000000001,"N_COORD97":2543920.1299999999,"ADDRESS":"北門路一段１２３巷９號","OBJECTID":414159},"geometry":{"x":169131.85000000056,"y":2543920.129999999}},{"attributes":{"ID":414184,"DIS_CODE":0,"TOWNNAME":"中西區","LI":"協進里","LIN":"1鄰","STREET":"民生路","SECT":"二段","MAREA":" ","LANE":"２３０巷","ALLEY":" ","HOUSE_NO":"１５號","E_COORD97":167214.10999999999,"N_COORD97":2544194.9900000002,"ADDRESS":"民生路二段２３０巷１５號","OBJECTID":414160},"geometry":{"x":167214.11000000034,"y":2544194.9900000021}},{"attributes":{"ID":414185,"DIS_CODE":0,"TOWNNAME":"下營區","LI":"茅港里","LIN":"7鄰","STREET":" ","SECT":" ","MAREA":"茅港尾","LANE":" ","ALLEY":" ","HOUSE_NO":"２２７號之５","E_COORD97":176634.972071,"N_COORD97":2567562.9230200001,"ADDRESS":"茅港尾２２７號之５","OBJECTID":414161},"geometry":{"x":176634.97207100131,"y":2567562.9230240025}},{"attributes":{"ID":414186,"DIS_CODE":0,"TOWNNAME":"中西區","LI":"協進里","LIN":"1鄰","STREET":"民生路","SECT":"二段","MAREA":" ","LANE":"２３０巷","ALLEY":" ","HOUSE_NO":"１７號","E_COORD97":167212.22,"N_COORD97":2544198.5600000001,"ADDRESS":"民生路二段２３０巷１７號","OBJECTID":414162},"geometry":{"x":167212.22000000067,"y":2544198.5600000024}},{"attributes":{"ID":414187,"DIS_CODE":0,"TOWNNAME":"中西區","LI":"協進里","LIN":"1鄰","STREET":"民生路","SECT":"二段","MAREA":" ","LANE":"２３０巷","ALLEY":" ","HOUSE_NO":"１９號","E_COORD97":167208.85999999999,"N_COORD97":2544204.2200000002,"ADDRESS":"民生路二段２３０巷１９號","OBJECTID":414163},"geometry":{"x":167208.86000000034,"y":2544204.2200000025}},{"attributes":{"ID":414188,"DIS_CODE":0,"TOWNNAME":"中西區","LI":"協進里","LIN":"1鄰","STREET":"民生路","SECT":"二段","MAREA":" ","LANE":"２３０巷","ALLEY":" ","HOUSE_NO":"２１號","E_COORD97":167206.76000000001,"N_COORD97":2544207,"ADDRESS":"民生路二段２３０巷２１號","OBJECTID":414164},"geometry":{"x":167206.76000000071,"y":2544207}},{"attributes":{"ID":414189,"DIS_CODE":0,"TOWNNAME":"中西區","LI":"協進里","LIN":"1鄰","STREET":"民生路","SECT":"二段","MAREA":" ","LANE":"２３０巷","ALLEY":" ","HOUSE_NO":"２３號","E_COORD97":167204.66,"N_COORD97":2544211.4100000001,"ADDRESS":"民生路二段２３０巷２３號","OBJECTID":414165},"geometry":{"x":167204.66000000015,"y":2544211.4100000039}},{"attributes":{"ID":414190,"DIS_CODE":0,"TOWNNAME":"中西區","LI":"協進里","LIN":"1鄰","STREET":"民生路","SECT":"二段","MAREA":" ","LANE":"２３０巷","ALLEY":" ","HOUSE_NO":"２５號","E_COORD97":167202.14000000001,"N_COORD97":2544215.6000000001,"ADDRESS":"民生路二段２３０巷２５號","OBJECTID":414166},"geometry":{"x":167202.1400000006,"y":2544215.5999999996}},{"attributes":{"ID":414191,"DIS_CODE":0,"TOWNNAME":"中西區","LI":"協進里","LIN":"1鄰","STREET":"民生路","SECT":"二段","MAREA":" ","LANE":"２３０巷","ALLEY":" ","HOUSE_NO":"２７號","E_COORD97":167198.78,"N_COORD97":2544220.4300000002,"ADDRESS":"民生路二段２３０巷２７號","OBJECTID":414167},"geometry":{"x":167198.78000000119,"y":2544220.4299999997}},{"attributes":{"ID":414192,"DIS_CODE":0,"TOWNNAME":"永康區","LI":"烏竹里","LIN":"3鄰","STREET":"竹園二街","SECT":" ","MAREA":" ","LANE":"２０６巷","ALLEY":" ","HOUSE_NO":"４８號","E_COORD97":174718.75,"N_COORD97":2549387.9900000002,"ADDRESS":"竹園二街２０６巷４８號","OBJECTID":414168},"geometry":{"x":174718.75,"y":2549387.9899999984}},{"attributes":{"ID":414193,"DIS_CODE":0,"TOWNNAME":"永康區","LI":"東橋里","LIN":"3鄰","STREET":"大橋一街","SECT":" ","MAREA":" ","LANE":"３２４巷","ALLEY":" ","HOUSE_NO":"５號","E_COORD97":171335.66,"N_COORD97":2546636.29,"ADDRESS":"大橋一街３２４巷５號","OBJECTID":414169},"geometry":{"x":171335.66000000108,"y":2546636.290000001}},{"attributes":{"ID":414194,"DIS_CODE":0,"TOWNNAME":"永康區","LI":"尚頂里","LIN":"3鄰","STREET":"中正二街","SECT":" ","MAREA":" ","LANE":"１６２巷","ALLEY":" ","HOUSE_NO":"３８號","E_COORD97":171369.12,"N_COORD97":2547539.2400000002,"ADDRESS":"中正二街１６２巷３８號","OBJECTID":414170},"geometry":{"x":171369.12000000197,"y":2547539.2400000021}},{"attributes":{"ID":414195,"DIS_CODE":0,"TOWNNAME":"永康區","LI":"尚頂里","LIN":"3鄰","STREET":"中正二街","SECT":" ","MAREA":" ","LANE":"１６２巷","ALLEY":" ","HOUSE_NO":"１２號","E_COORD97":171358.51999999999,"N_COORD97":2547616.2400000002,"ADDRESS":"中正二街１６２巷１２號","OBJECTID":414171},"geometry":{"x":171358.51999999955,"y":2547616.2400000002}},{"attributes":{"ID":414196,"DIS_CODE":0,"TOWNNAME":"永康區","LI":"\u25A0行里","LIN":"3鄰","STREET":"中正路","SECT":" ","MAREA":" ","LANE":"８７２巷","ALLEY":" ","HOUSE_NO":"８號","E_COORD97":172097.91,"N_COORD97":2548847.7400000002,"ADDRESS":"中正路８７２巷８號","OBJECTID":414172},"geometry":{"x":172097.91000000108,"y":2548847.7400000021}},{"attributes":{"ID":414197,"DIS_CODE":0,"TOWNNAME":"永康區","LI":"\u25A0行里","LIN":"3鄰","STREET":"中正路","SECT":" ","MAREA":" ","LANE":"９２６巷","ALLEY":" ","HOUSE_NO":"１２號","E_COORD97":172051.87,"N_COORD97":2548931,"ADDRESS":"中正路９２６巷１２號","OBJECTID":414173},"geometry":{"x":172051.87000000011,"y":2548931.0000000019}},{"attributes":{"ID":414198,"DIS_CODE":0,"TOWNNAME":"永康區","LI":"\u25A0行里","LIN":"3鄰","STREET":"中正路","SECT":" ","MAREA":" ","LANE":"８７２巷","ALLEY":" ","HOUSE_NO":"１１號","E_COORD97":172084.35999999999,"N_COORD97":2548847.0699999998,"ADDRESS":"中正路８７２巷１１號","OBJECTID":414174},"geometry":{"x":172084.36000000034,"y":2548847.0700000003}},{"attributes":{"ID":414199,"DIS_CODE":0,"TOWNNAME":"永康區","LI":"龍潭里","LIN":"3鄰","STREET":"龍國街","SECT":" ","MAREA":" ","LANE":"２９１巷","ALLEY":" ","HOUSE_NO":"２２號","E_COORD97":174645.85999999999,"N_COORD97":2548084.9399999999,"ADDRESS":"龍國街２９１巷２２號","OBJECTID":414175},"geometry":{"x":174645.86000000034,"y":2548084.9399999995}},{"attributes":{"ID":414200,"DIS_CODE":0,"TOWNNAME":"永康區","LI":"網寮里","LIN":"3鄰","STREET":"永二街","SECT":" ","MAREA":" ","LANE":"５４巷","ALLEY":" ","HOUSE_NO":"４號","E_COORD97":173595.35000000001,"N_COORD97":2546693.6200000001,"ADDRESS":"永二街５４巷４號","OBJECTID":414176},"geometry":{"x":173595.34999999963,"y":2546693.6200000029}},{"attributes":{"ID":414201,"DIS_CODE":0,"TOWNNAME":"永康區","LI":"蔦松里","LIN":"3鄰","STREET":"蔦松一街","SECT":" ","MAREA":" ","LANE":"３５巷","ALLEY":" ","HOUSE_NO":"１４號","E_COORD97":173936.51999999999,"N_COORD97":2549330.8900000001,"ADDRESS":"蔦松一街３５巷１４號","OBJECTID":414177},"geometry":{"x":173936.51999999955,"y":2549330.8900000006}},{"attributes":{"ID":414202,"DIS_CODE":0,"TOWNNAME":"東區","LI":"崇明里","LIN":"3鄰","STREET":"大同路","SECT":"二段","MAREA":" ","LANE":"４０３巷","ALLEY":" ","HOUSE_NO":"４６號","E_COORD97":169657.28,"N_COORD97":2541358.0499999998,"ADDRESS":"大同路二段４０３巷４６號","OBJECTID":414178},"geometry":{"x":169657.28000000026,"y":2541358.0500000026}},{"attributes":{"ID":414203,"DIS_CODE":0,"TOWNNAME":"東區","LI":"崇明里","LIN":"3鄰","STREET":"大同路","SECT":"二段","MAREA":" ","LANE":"４０３巷","ALLEY":" ","HOUSE_NO":"４８號","E_COORD97":169660.13,"N_COORD97":2541360.5600000001,"ADDRESS":"大同路二段４０３巷４８號","OBJECTID":414179},"geometry":{"x":169660.13000000175,"y":2541360.5600000024}},{"attributes":{"ID":414204,"DIS_CODE":0,"TOWNNAME":"東區","LI":"崇明里","LIN":"3鄰","STREET":"大同路","SECT":"二段","MAREA":" ","LANE":"４０３巷","ALLEY":" ","HOUSE_NO":"５０號","E_COORD97":169642.20999999999,"N_COORD97":2541370.0899999999,"ADDRESS":"大同路二段４０３巷５０號","OBJECTID":414180},"geometry":{"x":169642.20999999996,"y":2541370.0900000017}},{"attributes":{"ID":414205,"DIS_CODE":0,"TOWNNAME":"東區","LI":"崇明里","LIN":"3鄰","STREET":"大同路","SECT":"二段","MAREA":" ","LANE":"４０３巷","ALLEY":" ","HOUSE_NO":"５２號","E_COORD97":169650.57999999999,"N_COORD97":2541374.7799999998,"ADDRESS":"大同路二段４０３巷５２號","OBJECTID":414181},"geometry":{"x":169650.58000000101,"y":2541374.7800000012}},{"attributes":{"ID":414206,"DIS_CODE":0,"TOWNNAME":"東區","LI":"崇明里","LIN":"3鄰","STREET":"大同路","SECT":"二段","MAREA":" ","LANE":"４０３巷","ALLEY":" ","HOUSE_NO":"５４號","E_COORD97":169659.79000000001,"N_COORD97":2541378.79,"ADDRESS":"大同路二段４０３巷５４號","OBJECTID":414182},"geometry":{"x":169659.79000000097,"y":2541378.7899999991}},{"attributes":{"ID":414207,"DIS_CODE":0,"TOWNNAME":"東區","LI":"崇明里","LIN":"3鄰","STREET":"大同路","SECT":"二段","MAREA":" ","LANE":"４０３巷","ALLEY":" ","HOUSE_NO":"２６號","E_COORD97":169622.67999999999,"N_COORD97":2541344.8599999999,"ADDRESS":"大同路二段４０３巷２６號","OBJECTID":414183},"geometry":{"x":169622.68000000063,"y":2541344.8599999994}},{"attributes":{"ID":414208,"DIS_CODE":0,"TOWNNAME":"東區","LI":"大智里","LIN":"3鄰","STREET":"生產路","SECT":" ","MAREA":" ","LANE":"５５０巷","ALLEY":" ","HOUSE_NO":"２１號","E_COORD97":171142.12,"N_COORD97":2540600.75,"ADDRESS":"生產路５５０巷２１號","OBJECTID":414184},"geometry":{"x":171142.12000000104,"y":2540600.75}},{"attributes":{"ID":414209,"DIS_CODE":0,"TOWNNAME":"東區","LI":"東安里","LIN":"3鄰","STREET":"長榮路","SECT":"二段","MAREA":" ","LANE":"２４巷","ALLEY":" ","HOUSE_NO":"５８號","E_COORD97":170042.56,"N_COORD97":2543048.5099999998,"ADDRESS":"長榮路二段２４巷５８號","OBJECTID":414185},"geometry":{"x":170042.55999999959,"y":2543048.5100000016}},{"attributes":{"ID":414210,"DIS_CODE":0,"TOWNNAME":"東區","LI":"東安里","LIN":"3鄰","STREET":"長榮路","SECT":"二段","MAREA":" ","LANE":"２４巷","ALLEY":" ","HOUSE_NO":"５６號","E_COORD97":170038.29000000001,"N_COORD97":2543049.6499999999,"ADDRESS":"長榮路二段２４巷５６號","OBJECTID":414186},"geometry":{"x":170038.29000000004,"y":2543049.6500000004}},{"attributes":{"ID":414211,"DIS_CODE":0,"TOWNNAME":"永康區","LI":"復興里","LIN":"3鄰","STREET":"復興路","SECT":" ","MAREA":" ","LANE":"２７７巷","ALLEY":" ","HOUSE_NO":"２２６號","E_COORD97":172402.76999999999,"N_COORD97":2543745.7599999998,"ADDRESS":"復興路２７７巷２２６號","OBJECTID":414187},"geometry":{"x":172402.76999999955,"y":2543745.7600000016}},{"attributes":{"ID":414212,"DIS_CODE":0,"TOWNNAME":"永康區","LI":"蔦松里","LIN":"3鄰","STREET":"蔦松一街","SECT":" ","MAREA":" ","LANE":"３５巷","ALLEY":" ","HOUSE_NO":"１３號","E_COORD97":173978.97,"N_COORD97":2549331.25,"ADDRESS":"蔦松一街３５巷１３號","OBJECTID":414188},"geometry":{"x":173978.97000000067,"y":2549331.25}},{"attributes":{"ID":414213,"DIS_CODE":0,"TOWNNAME":"東區","LI":"裕農里","LIN":"3鄰","STREET":"裕農路","SECT":" ","MAREA":" ","LANE":"２９１巷","ALLEY":" ","HOUSE_NO":"２３號","E_COORD97":170863.44,"N_COORD97":2543100.1299999999,"ADDRESS":"裕農路２９１巷２３號","OBJECTID":414189},"geometry":{"x":170863.44000000041,"y":2543100.1300000027}},{"attributes":{"ID":414214,"DIS_CODE":0,"TOWNNAME":"東區","LI":"和平里","LIN":"3鄰","STREET":"東門路","SECT":"三段","MAREA":" ","LANE":"２２６巷","ALLEY":" ","HOUSE_NO":"１６號","E_COORD97":171505.48000000001,"N_COORD97":2541922.6299999999,"ADDRESS":"東門路三段２２６巷１６號","OBJECTID":414190},"geometry":{"x":171505.48000000045,"y":2541922.629999999}},{"attributes":{"ID":414215,"DIS_CODE":0,"TOWNNAME":"東區","LI":"虎尾里","LIN":"3鄰","STREET":"東門路","SECT":"三段","MAREA":" ","LANE":"１７９巷","ALLEY":" ","HOUSE_NO":"１４３號","E_COORD97":171756.42999999999,"N_COORD97":2542045.0499999998,"ADDRESS":"東門路三段１７９巷１４３號","OBJECTID":414191},"geometry":{"x":171756.43000000156,"y":2542045.0500000026}},{"attributes":{"ID":414216,"DIS_CODE":0,"TOWNNAME":"仁德區","LI":"大甲里","LIN":"3鄰","STREET":"行大一街","SECT":" ","MAREA":" ","LANE":"７０巷","ALLEY":" ","HOUSE_NO":"７０號","E_COORD97":169907.10000000001,"N_COORD97":2535051.75,"ADDRESS":"行大一街７０巷７０號","OBJECTID":414192},"geometry":{"x":169907.09999999963,"y":2535051.7500000037}},{"attributes":{"ID":414217,"DIS_CODE":0,"TOWNNAME":"東區","LI":"龍山里","LIN":"3鄰","STREET":"富德街","SECT":" ","MAREA":" ","LANE":"２５巷","ALLEY":" ","HOUSE_NO":"９號之１","E_COORD97":170317.10000000001,"N_COORD97":2542809.6899999999,"ADDRESS":"富德街２５巷９號之１","OBJECTID":414193},"geometry":{"x":170317.09999999963,"y":2542809.6900000013}},{"attributes":{"ID":414218,"DIS_CODE":0,"TOWNNAME":"永康區","LI":"復興里","LIN":"3鄰","STREET":"復興路","SECT":" ","MAREA":" ","LANE":"２７７巷","ALLEY":" ","HOUSE_NO":"２０６號之７","E_COORD97":172360.64000000001,"N_COORD97":2543786.6099999999,"ADDRESS":"復興路２７７巷２０６號之７","OBJECTID":414194},"geometry":{"x":172360.6400000006,"y":2543786.6100000013}},{"attributes":{"ID":414219,"DIS_CODE":0,"TOWNNAME":"永康區","LI":"復興里","LIN":"3鄰","STREET":"復興路","SECT":" ","MAREA":" ","LANE":"２７７巷","ALLEY":" ","HOUSE_NO":"２０６號之１","E_COORD97":172381.39000000001,"N_COORD97":2543813.54,"ADDRESS":"復興路２７７巷２０６號之１","OBJECTID":414195},"geometry":{"x":172381.38999999966,"y":2543813.540000001}},{"attributes":{"ID":414220,"DIS_CODE":0,"TOWNNAME":"東區","LI":"裕農里","LIN":"3鄰","STREET":"裕農路","SECT":" ","MAREA":" ","LANE":"２９１巷","ALLEY":" ","HOUSE_NO":"２５號","E_COORD97":170860.34,"N_COORD97":2543111.6400000001,"ADDRESS":"裕農路２９１巷２５號","OBJECTID":414196},"geometry":{"x":170860.33999999892,"y":2543111.6400000006}},{"attributes":{"ID":414221,"DIS_CODE":0,"TOWNNAME":"永康區","LI":"勝利里","LIN":"3鄰","STREET":"勝利街","SECT":" ","MAREA":" ","LANE":"２巷","ALLEY":" ","HOUSE_NO":"４８號","E_COORD97":171000.89999999999,"N_COORD97":2544712.75,"ADDRESS":"勝利街２巷４８號","OBJECTID":414197},"geometry":{"x":171000.90000000037,"y":2544712.75}},{"attributes":{"ID":414222,"DIS_CODE":0,"TOWNNAME":"永康區","LI":"復國里","LIN":"3鄰","STREET":"復國一路","SECT":" ","MAREA":" ","LANE":"４４巷","ALLEY":" ","HOUSE_NO":"２９號","E_COORD97":172787.78,"N_COORD97":2544819.8799999999,"ADDRESS":"復國一路４４巷２９號","OBJECTID":414198},"geometry":{"x":172787.78000000119,"y":2544819.879999999}},{"attributes":{"ID":414223,"DIS_CODE":0,"TOWNNAME":"永康區","LI":"復國里","LIN":"3鄰","STREET":"復國一路","SECT":" ","MAREA":" ","LANE":"４４巷","ALLEY":" ","HOUSE_NO":"３４號","E_COORD97":172808.94,"N_COORD97":2544804.5600000001,"ADDRESS":"復國一路４４巷３４號","OBJECTID":414199},"geometry":{"x":172808.94000000134,"y":2544804.5600000024}},{"attributes":{"ID":414224,"DIS_CODE":0,"TOWNNAME":"永康區","LI":"復國里","LIN":"3鄰","STREET":"復國一路","SECT":" ","MAREA":" ","LANE":"４４巷","ALLEY":" ","HOUSE_NO":"４７號","E_COORD97":172814.17000000001,"N_COORD97":2544819.52,"ADDRESS":"復國一路４４巷４７號","OBJECTID":414200},"geometry":{"x":172814.16999999993,"y":2544819.5199999996}}]}