{"displayFieldName":"TOWNNAME","fieldAliases":{"ID":"ID","DIS_CODE":"DIS_CODE","TOWNNAME":"TOWNNAME","LI":"LI","LIN":"LIN","STREET":"STREET","SECT":"SECT","MAREA":"MAREA","LANE":"LANE","ALLEY":"ALLEY","HOUSE_NO":"HOUSE_NO","E_COORD97":"E_COORD97","N_COORD97":"N_COORD97","ADDRESS":"ADDRESS","OBJECTID":"OBJECTID"},"geometryType":"esriGeometryPoint","spatialReference":{"wkid":102443,"latestWkid":3826},"fields":[{"name":"ID","type":"esriFieldTypeDouble","alias":"ID"},{"name":"DIS_CODE","type":"esriFieldTypeInteger","alias":"DIS_CODE"},{"name":"TOWNNAME","type":"esriFieldTypeString","alias":"TOWNNAME","length":8},{"name":"LI","type":"esriFieldTypeString","alias":"LI","length":8},{"name":"LIN","type":"esriFieldTypeString","alias":"LIN","length":12},{"name":"STREET","type":"esriFieldTypeString","alias":"STREET","length":20},{"name":"SECT","type":"esriFieldTypeString","alias":"SECT","length":8},{"name":"MAREA","type":"esriFieldTypeString","alias":"MAREA","length":12},{"name":"LANE","type":"esriFieldTypeString","alias":"LANE","length":10},{"name":"ALLEY","type":"esriFieldTypeString","alias":"ALLEY","length":10},{"name":"HOUSE_NO","type":"esriFieldTypeString","alias":"HOUSE_NO","length":20},{"name":"E_COORD97","type":"esriFieldTypeDouble","alias":"E_COORD97"},{"name":"N_COORD97","type":"esriFieldTypeDouble","alias":"N_COORD97"},{"name":"ADDRESS","type":"esriFieldTypeString","alias":"ADDRESS","length":50},{"name":"OBJECTID","type":"esriFieldTypeOID","alias":"OBJECTID"}],"features":[{"attributes":{"ID":173802,"DIS_CODE":0,"TOWNNAME":"安平區","LI":"億載里","LIN":"10鄰","STREET":"郡平路","SECT":" ","MAREA":" ","LANE":" ","ALLEY":" ","HOUSE_NO":"４５６號","E_COORD97":163970.57999999999,"N_COORD97":2543372.6899999999,"ADDRESS":"郡平路４５６號","OBJECTID":173801},"geometry":{"x":163970.58000000101,"y":2543372.6900000013}},{"attributes":{"ID":173803,"DIS_CODE":0,"TOWNNAME":"西港區","LI":"慶安里","LIN":"13鄰","STREET":"進學街","SECT":" ","MAREA":" ","LANE":" ","ALLEY":" ","HOUSE_NO":"５７號","E_COORD97":168134.14999999999,"N_COORD97":2558035.21,"ADDRESS":"進學街５７號","OBJECTID":173802},"geometry":{"x":168134.15000000037,"y":2558035.2100000009}},{"attributes":{"ID":173804,"DIS_CODE":0,"TOWNNAME":"新營區","LI":"民榮里","LIN":"38鄰","STREET":"太子路","SECT":" ","MAREA":" ","LANE":"５３巷","ALLEY":"６弄","HOUSE_NO":"９號之１","E_COORD97":178314.09,"N_COORD97":2577955.1200000001,"ADDRESS":"太子路５３巷６弄９號之１","OBJECTID":173803},"geometry":{"x":178314.08999999892,"y":2577955.120000001}},{"attributes":{"ID":173805,"DIS_CODE":0,"TOWNNAME":"新營區","LI":"新南里","LIN":"18鄰","STREET":"隋唐街","SECT":" ","MAREA":" ","LANE":"３１巷","ALLEY":"２８弄","HOUSE_NO":"１８號","E_COORD97":178638.60999999999,"N_COORD97":2578399.7999999998,"ADDRESS":"隋唐街３１巷２８弄１８號","OBJECTID":173804},"geometry":{"x":178638.61000000127,"y":2578399.8000000007}},{"attributes":{"ID":173806,"DIS_CODE":0,"TOWNNAME":"新營區","LI":"南紙里","LIN":"26鄰","STREET":"建業路","SECT":" ","MAREA":" ","LANE":"２２７巷","ALLEY":"２２弄","HOUSE_NO":"１８號","E_COORD97":178064.92000000001,"N_COORD97":2577377.0800000001,"ADDRESS":"建業路２２７巷２２弄１８號","OBJECTID":173805},"geometry":{"x":178064.92000000086,"y":2577377.0800000001}},{"attributes":{"ID":173807,"DIS_CODE":0,"TOWNNAME":"新營區","LI":"民榮里","LIN":"38鄰","STREET":"太子路","SECT":" ","MAREA":" ","LANE":"５３巷","ALLEY":"６弄","HOUSE_NO":"５號之５","E_COORD97":178330.67999999999,"N_COORD97":2577960.5800000001,"ADDRESS":"太子路５３巷６弄５號之５","OBJECTID":173806},"geometry":{"x":178330.68000000063,"y":2577960.5800000001}},{"attributes":{"ID":173808,"DIS_CODE":0,"TOWNNAME":"新營區","LI":"新南里","LIN":"18鄰","STREET":"隋唐街","SECT":" ","MAREA":" ","LANE":"３１巷","ALLEY":"２８弄","HOUSE_NO":"２０號","E_COORD97":178633.54000000001,"N_COORD97":2578395.3999999999,"ADDRESS":"隋唐街３１巷２８弄２０號","OBJECTID":173807},"geometry":{"x":178633.54000000097,"y":2578395.4000000004}},{"attributes":{"ID":173809,"DIS_CODE":0,"TOWNNAME":"歸仁區","LI":"媽廟里","LIN":"27鄰","STREET":"保大路","SECT":"一段","MAREA":" ","LANE":"１５２巷","ALLEY":"９０弄","HOUSE_NO":"２０號","E_COORD97":177693.27441300001,"N_COORD97":2544571.99449,"ADDRESS":"保大路一段１５２巷９０弄２０號","OBJECTID":173808},"geometry":{"x":177693.27441299986,"y":2544571.9944930002}},{"attributes":{"ID":173810,"DIS_CODE":0,"TOWNNAME":"新營區","LI":"南紙里","LIN":"26鄰","STREET":"建業路","SECT":" ","MAREA":" ","LANE":"２２７巷","ALLEY":"２２弄","HOUSE_NO":"４２號","E_COORD97":178005.70000000001,"N_COORD97":2577381.7999999998,"ADDRESS":"建業路２２７巷２２弄４２號","OBJECTID":173809},"geometry":{"x":178005.70000000112,"y":2577381.8000000026}},{"attributes":{"ID":173811,"DIS_CODE":0,"TOWNNAME":"新營區","LI":"南紙里","LIN":"26鄰","STREET":"建業路","SECT":" ","MAREA":" ","LANE":"２２７巷","ALLEY":"２４弄","HOUSE_NO":"５號","E_COORD97":178057.37,"N_COORD97":2577338.3399999999,"ADDRESS":"建業路２２７巷２４弄５號","OBJECTID":173810},"geometry":{"x":178057.37000000104,"y":2577338.3399999999}},{"attributes":{"ID":173812,"DIS_CODE":0,"TOWNNAME":"西港區","LI":"慶安里","LIN":"13鄰","STREET":"進學街","SECT":" ","MAREA":" ","LANE":" ","ALLEY":" ","HOUSE_NO":"５９號","E_COORD97":168129.85999999999,"N_COORD97":2558035.5600000001,"ADDRESS":"進學街５９號","OBJECTID":173811},"geometry":{"x":168129.8600000022,"y":2558035.5600000005}},{"attributes":{"ID":173813,"DIS_CODE":0,"TOWNNAME":"新營區","LI":"民榮里","LIN":"38鄰","STREET":"太子路","SECT":" ","MAREA":" ","LANE":"５３巷","ALLEY":"６弄","HOUSE_NO":"３號","E_COORD97":178331.57000000001,"N_COORD97":2577968.2599999998,"ADDRESS":"太子路５３巷６弄３號","OBJECTID":173812},"geometry":{"x":178331.5700000003,"y":2577968.2600000016}},{"attributes":{"ID":173814,"DIS_CODE":0,"TOWNNAME":"西港區","LI":"慶安里","LIN":"8鄰","STREET":"新興街","SECT":" ","MAREA":" ","LANE":" ","ALLEY":" ","HOUSE_NO":"１１７號","E_COORD97":168184.91,"N_COORD97":2558230.5600000001,"ADDRESS":"新興街１１７號","OBJECTID":173813},"geometry":{"x":168184.91000000015,"y":2558230.5600000024}},{"attributes":{"ID":173815,"DIS_CODE":0,"TOWNNAME":"新營區","LI":"南紙里","LIN":"26鄰","STREET":"建業路","SECT":" ","MAREA":" ","LANE":"２２７巷","ALLEY":"２２弄","HOUSE_NO":"３９號","E_COORD97":178009.70000000001,"N_COORD97":2577361.8399999999,"ADDRESS":"建業路２２７巷２２弄３９號","OBJECTID":173814},"geometry":{"x":178009.70000000019,"y":2577361.8399999999}},{"attributes":{"ID":173816,"DIS_CODE":0,"TOWNNAME":"新營區","LI":"民榮里","LIN":"38鄰","STREET":"太子路","SECT":" ","MAREA":" ","LANE":"５３巷","ALLEY":"６弄","HOUSE_NO":"３之４號","E_COORD97":178334.07000000001,"N_COORD97":2577968.3100000001,"ADDRESS":"太子路５３巷６弄３之４號","OBJECTID":173815},"geometry":{"x":178334.07000000123,"y":2577968.3100000024}},{"attributes":{"ID":173817,"DIS_CODE":0,"TOWNNAME":"新營區","LI":"南紙里","LIN":"26鄰","STREET":"建業路","SECT":" ","MAREA":" ","LANE":"２２７巷","ALLEY":"２２弄","HOUSE_NO":"４４號","E_COORD97":178000.57999999999,"N_COORD97":2577381.8199999998,"ADDRESS":"建業路２２７巷２２弄４４號","OBJECTID":173816},"geometry":{"x":178000.58000000007,"y":2577381.8200000022}},{"attributes":{"ID":173818,"DIS_CODE":0,"TOWNNAME":"新營區","LI":"南紙里","LIN":"25鄰","STREET":"建業路","SECT":" ","MAREA":" ","LANE":"２２７巷","ALLEY":"２弄","HOUSE_NO":"２０號","E_COORD97":178061.39999999999,"N_COORD97":2577480.0899999999,"ADDRESS":"建業路２２７巷２弄２０號","OBJECTID":173817},"geometry":{"x":178061.40000000037,"y":2577480.0900000017}},{"attributes":{"ID":173819,"DIS_CODE":0,"TOWNNAME":"新營區","LI":"民榮里","LIN":"38鄰","STREET":"太子路","SECT":" ","MAREA":" ","LANE":"５３巷","ALLEY":"６弄","HOUSE_NO":"３１之１號","E_COORD97":178238.98000000001,"N_COORD97":2577930.02,"ADDRESS":"太子路５３巷６弄３１之１號","OBJECTID":173818},"geometry":{"x":178238.98000000045,"y":2577930.0199999996}},{"attributes":{"ID":173820,"DIS_CODE":0,"TOWNNAME":"新營區","LI":"新南里","LIN":"18鄰","STREET":"隋唐街","SECT":" ","MAREA":" ","LANE":"３１巷","ALLEY":"１０弄","HOUSE_NO":"９號","E_COORD97":178664.04999999999,"N_COORD97":2578425.1499999999,"ADDRESS":"隋唐街３１巷１０弄９號","OBJECTID":173819},"geometry":{"x":178664.05000000075,"y":2578425.1500000004}},{"attributes":{"ID":173821,"DIS_CODE":0,"TOWNNAME":"新營區","LI":"南紙里","LIN":"26鄰","STREET":"建業路","SECT":" ","MAREA":" ","LANE":"２２７巷","ALLEY":"２２弄","HOUSE_NO":"１３號","E_COORD97":178074.04000000001,"N_COORD97":2577357.0899999999,"ADDRESS":"建業路２２７巷２２弄１３號","OBJECTID":173820},"geometry":{"x":178074.0400000019,"y":2577357.0899999999}},{"attributes":{"ID":173822,"DIS_CODE":0,"TOWNNAME":"新營區","LI":"南紙里","LIN":"26鄰","STREET":"建業路","SECT":" ","MAREA":" ","LANE":"２２７巷","ALLEY":"２４弄","HOUSE_NO":"１２號","E_COORD97":178027.92000000001,"N_COORD97":2577340.71,"ADDRESS":"建業路２２７巷２４弄１２號","OBJECTID":173821},"geometry":{"x":178027.92000000086,"y":2577340.7100000009}},{"attributes":{"ID":173823,"DIS_CODE":0,"TOWNNAME":"新營區","LI":"民榮里","LIN":"38鄰","STREET":"太子路","SECT":" ","MAREA":" ","LANE":"５３巷","ALLEY":"６弄","HOUSE_NO":"８號","E_COORD97":178317.32000000001,"N_COORD97":2577988.27,"ADDRESS":"太子路５３巷６弄８號","OBJECTID":173822},"geometry":{"x":178317.3200000003,"y":2577988.2700000014}},{"attributes":{"ID":173824,"DIS_CODE":0,"TOWNNAME":"新營區","LI":"民榮里","LIN":"38鄰","STREET":"太子路","SECT":" ","MAREA":" ","LANE":"５３巷","ALLEY":"６弄","HOUSE_NO":"３１之５號","E_COORD97":178238.98000000001,"N_COORD97":2577930.02,"ADDRESS":"太子路５３巷６弄３１之５號","OBJECTID":173823},"geometry":{"x":178238.98000000045,"y":2577930.0199999996}},{"attributes":{"ID":173825,"DIS_CODE":0,"TOWNNAME":"東區","LI":"圍下里","LIN":"24鄰","STREET":"北門路","SECT":"一段","MAREA":" ","LANE":" ","ALLEY":" ","HOUSE_NO":"１２６之２號","E_COORD97":169193.82000000001,"N_COORD97":2543675.8199999998,"ADDRESS":"北門路一段１２６之２號","OBJECTID":173824},"geometry":{"x":169193.8200000003,"y":2543675.8200000003}},{"attributes":{"ID":173826,"DIS_CODE":0,"TOWNNAME":"南化區","LI":"南化里","LIN":"10鄰","STREET":" ","SECT":" ","MAREA":"南化","LANE":" ","ALLEY":" ","HOUSE_NO":"２１５號","E_COORD97":196559.44,"N_COORD97":2549196.75,"ADDRESS":"南化２１５號","OBJECTID":173825},"geometry":{"x":196559.44000000227,"y":2549196.7500000019}},{"attributes":{"ID":173827,"DIS_CODE":0,"TOWNNAME":"西港區","LI":"新復里","LIN":"4鄰","STREET":" ","SECT":" ","MAREA":"新港","LANE":" ","ALLEY":" ","HOUSE_NO":"２４號","E_COORD97":166501.73000000001,"N_COORD97":2556441.8199999998,"ADDRESS":"新港２４號","OBJECTID":173826},"geometry":{"x":166501.73000000231,"y":2556441.8200000022}},{"attributes":{"ID":173828,"DIS_CODE":0,"TOWNNAME":"西港區","LI":"新復里","LIN":"4鄰","STREET":" ","SECT":" ","MAREA":"新港","LANE":" ","ALLEY":" ","HOUSE_NO":"２５號之１","E_COORD97":166481.25,"N_COORD97":2556440.9300000002,"ADDRESS":"新港２５號之１","OBJECTID":173827},"geometry":{"x":166481.25000000093,"y":2556440.9300000016}},{"attributes":{"ID":173829,"DIS_CODE":0,"TOWNNAME":"西港區","LI":"新復里","LIN":"4鄰","STREET":" ","SECT":" ","MAREA":"新港","LANE":" ","ALLEY":" ","HOUSE_NO":"２５號之２","E_COORD97":166477.37,"N_COORD97":2556440.3799999999,"ADDRESS":"新港２５號之２","OBJECTID":173828},"geometry":{"x":166477.37000000104,"y":2556440.3800000008}},{"attributes":{"ID":173830,"DIS_CODE":0,"TOWNNAME":"新營區","LI":"南紙里","LIN":"26鄰","STREET":"建業路","SECT":" ","MAREA":" ","LANE":"２２７巷","ALLEY":"２２弄","HOUSE_NO":"１號","E_COORD97":178102.45000000001,"N_COORD97":2577355.8399999999,"ADDRESS":"建業路２２７巷２２弄１號","OBJECTID":173829},"geometry":{"x":178102.45000000112,"y":2577355.839999998}},{"attributes":{"ID":173831,"DIS_CODE":0,"TOWNNAME":"新營區","LI":"民榮里","LIN":" ","STREET":"復興路","SECT":" ","MAREA":" ","LANE":"５１１巷","ALLEY":"６５弄","HOUSE_NO":"１１號","E_COORD97":178120.57000000001,"N_COORD97":2578094.4300000002,"ADDRESS":"復興路５１１巷６５弄１１號","OBJECTID":173830},"geometry":{"x":178120.57000000123,"y":2578094.4300000034}},{"attributes":{"ID":173832,"DIS_CODE":0,"TOWNNAME":"新營區","LI":"南紙里","LIN":"26鄰","STREET":"建業路","SECT":" ","MAREA":" ","LANE":"２２７巷","ALLEY":"２２弄","HOUSE_NO":"３６號","E_COORD97":178020.03,"N_COORD97":2577380.6200000001,"ADDRESS":"建業路２２７巷２２弄３６號","OBJECTID":173831},"geometry":{"x":178020.03000000212,"y":2577380.6200000029}},{"attributes":{"ID":173833,"DIS_CODE":0,"TOWNNAME":"新營區","LI":"南紙里","LIN":"25鄰","STREET":"建業路","SECT":" ","MAREA":" ","LANE":"２２７巷","ALLEY":"２弄","HOUSE_NO":"１０號","E_COORD97":178085.87,"N_COORD97":2577477.75,"ADDRESS":"建業路２２７巷２弄１０號","OBJECTID":173832},"geometry":{"x":178085.87000000104,"y":2577477.75}},{"attributes":{"ID":173834,"DIS_CODE":0,"TOWNNAME":"新營區","LI":"新南里","LIN":"18鄰","STREET":"隋唐街","SECT":" ","MAREA":" ","LANE":"３１巷","ALLEY":"１０弄","HOUSE_NO":"１７號","E_COORD97":178646.92000000001,"N_COORD97":2578427.4500000002,"ADDRESS":"隋唐街３１巷１０弄１７號","OBJECTID":173833},"geometry":{"x":178646.91999999993,"y":2578427.4500000011}},{"attributes":{"ID":173835,"DIS_CODE":0,"TOWNNAME":"新營區","LI":"南紙里","LIN":"26鄰","STREET":"建業路","SECT":" ","MAREA":" ","LANE":"２２７巷","ALLEY":"２４弄","HOUSE_NO":"９號","E_COORD97":178039.94,"N_COORD97":2577340.6400000001,"ADDRESS":"建業路２２７巷２４弄９號","OBJECTID":173834},"geometry":{"x":178039.94000000134,"y":2577340.6400000006}},{"attributes":{"ID":173836,"DIS_CODE":0,"TOWNNAME":"新營區","LI":"南紙里","LIN":"26鄰","STREET":"建業路","SECT":" ","MAREA":" ","LANE":"２２７巷","ALLEY":"２４弄","HOUSE_NO":"２號","E_COORD97":178079.94,"N_COORD97":2577341.5600000001,"ADDRESS":"建業路２２７巷２４弄２號","OBJECTID":173835},"geometry":{"x":178079.94000000041,"y":2577341.5600000042}},{"attributes":{"ID":173837,"DIS_CODE":0,"TOWNNAME":"新營區","LI":"民榮里","LIN":"38鄰","STREET":"太子路","SECT":" ","MAREA":" ","LANE":"５３巷","ALLEY":"６弄","HOUSE_NO":"３１之６號","E_COORD97":178238.98000000001,"N_COORD97":2577930.02,"ADDRESS":"太子路５３巷６弄３１之６號","OBJECTID":173836},"geometry":{"x":178238.98000000045,"y":2577930.0199999996}},{"attributes":{"ID":173838,"DIS_CODE":0,"TOWNNAME":"新營區","LI":"新南里","LIN":"18鄰","STREET":"隋唐街","SECT":" ","MAREA":" ","LANE":"３１巷","ALLEY":"１０弄","HOUSE_NO":"３號","E_COORD97":178677.45000000001,"N_COORD97":2578421.77,"ADDRESS":"隋唐街３１巷１０弄３號","OBJECTID":173837},"geometry":{"x":178677.45000000019,"y":2578421.7700000014}},{"attributes":{"ID":173839,"DIS_CODE":0,"TOWNNAME":"新營區","LI":"南紙里","LIN":"26鄰","STREET":"建業路","SECT":" ","MAREA":" ","LANE":"２２７巷","ALLEY":"２２弄","HOUSE_NO":"３號","E_COORD97":178097.42000000001,"N_COORD97":2577355.8700000001,"ADDRESS":"建業路２２７巷２２弄３號","OBJECTID":173838},"geometry":{"x":178097.42000000086,"y":2577355.870000001}},{"attributes":{"ID":173840,"DIS_CODE":0,"TOWNNAME":"安平區","LI":"億載里","LIN":"10鄰","STREET":"郡平路","SECT":" ","MAREA":" ","LANE":"４６０巷","ALLEY":" ","HOUSE_NO":"２號","E_COORD97":163963.35999999999,"N_COORD97":2543387.8199999998,"ADDRESS":"郡平路４６０巷２號","OBJECTID":173839},"geometry":{"x":163963.36000000127,"y":2543387.8200000003}},{"attributes":{"ID":173841,"DIS_CODE":0,"TOWNNAME":"東區","LI":"崇文里","LIN":"24鄰","STREET":"崇德二十一街","SECT":" ","MAREA":" ","LANE":" ","ALLEY":" ","HOUSE_NO":"１１２號","E_COORD97":171100.34,"N_COORD97":2540849.0299999998,"ADDRESS":"崇德二十一街１１２號","OBJECTID":173840},"geometry":{"x":171100.33999999985,"y":2540849.0299999993}},{"attributes":{"ID":173842,"DIS_CODE":0,"TOWNNAME":"東區","LI":"崇文里","LIN":"24鄰","STREET":"崇德二十一街","SECT":" ","MAREA":" ","LANE":" ","ALLEY":" ","HOUSE_NO":"１１４號","E_COORD97":171105.01999999999,"N_COORD97":2540849.23,"ADDRESS":"崇德二十一街１１４號","OBJECTID":173841},"geometry":{"x":171105.02000000048,"y":2540849.2300000004}},{"attributes":{"ID":173843,"DIS_CODE":0,"TOWNNAME":"東區","LI":"崇文里","LIN":"24鄰","STREET":"崇德二十一街","SECT":" ","MAREA":" ","LANE":" ","ALLEY":" ","HOUSE_NO":"１１６號","E_COORD97":171109.89999999999,"N_COORD97":2540849.0299999998,"ADDRESS":"崇德二十一街１１６號","OBJECTID":173842},"geometry":{"x":171109.9000000013,"y":2540849.0299999993}},{"attributes":{"ID":173844,"DIS_CODE":0,"TOWNNAME":"東區","LI":"崇文里","LIN":"24鄰","STREET":"崇德二十一街","SECT":" ","MAREA":" ","LANE":" ","ALLEY":" ","HOUSE_NO":"１１８號","E_COORD97":171114.07999999999,"N_COORD97":2540849.1299999999,"ADDRESS":"崇德二十一街１１８號","OBJECTID":173843},"geometry":{"x":171114.08000000101,"y":2540849.1300000027}},{"attributes":{"ID":173845,"DIS_CODE":0,"TOWNNAME":"北區","LI":"裕民里","LIN":"4鄰","STREET":"康樂街","SECT":" ","MAREA":" ","LANE":" ","ALLEY":" ","HOUSE_NO":"４６３號","E_COORD97":167768.25,"N_COORD97":2544733.7799999998,"ADDRESS":"康樂街４６３號","OBJECTID":173844},"geometry":{"x":167768.25000000093,"y":2544733.7800000031}},{"attributes":{"ID":173846,"DIS_CODE":0,"TOWNNAME":"東區","LI":"崇文里","LIN":"24鄰","STREET":"崇德二十一街","SECT":" ","MAREA":" ","LANE":" ","ALLEY":" ","HOUSE_NO":"１２０號","E_COORD97":171118.26000000001,"N_COORD97":2540849.1299999999,"ADDRESS":"崇德二十一街１２０號","OBJECTID":173845},"geometry":{"x":171118.25999999978,"y":2540849.1300000027}},{"attributes":{"ID":173847,"DIS_CODE":0,"TOWNNAME":"東區","LI":"崇文里","LIN":"24鄰","STREET":"崇德二十一街","SECT":" ","MAREA":" ","LANE":" ","ALLEY":" ","HOUSE_NO":"１２２號","E_COORD97":171122.94,"N_COORD97":2540849.1299999999,"ADDRESS":"崇德二十一街１２２號","OBJECTID":173846},"geometry":{"x":171122.94000000041,"y":2540849.1300000027}},{"attributes":{"ID":173848,"DIS_CODE":0,"TOWNNAME":"東區","LI":"崇文里","LIN":"24鄰","STREET":"崇德二十一街","SECT":" ","MAREA":" ","LANE":" ","ALLEY":" ","HOUSE_NO":"１２４號","E_COORD97":171127.12,"N_COORD97":2540848.9300000002,"ADDRESS":"崇德二十一街１２４號","OBJECTID":173847},"geometry":{"x":171127.12000000104,"y":2540848.9300000016}},{"attributes":{"ID":173849,"DIS_CODE":0,"TOWNNAME":"東區","LI":"崇文里","LIN":"24鄰","STREET":"崇德二十一街","SECT":" ","MAREA":" ","LANE":" ","ALLEY":" ","HOUSE_NO":"１２６號","E_COORD97":171131.60000000001,"N_COORD97":2540849.1299999999,"ADDRESS":"崇德二十一街１２６號","OBJECTID":173848},"geometry":{"x":171131.60000000056,"y":2540849.1300000027}},{"attributes":{"ID":173850,"DIS_CODE":0,"TOWNNAME":"北區","LI":"公園里","LIN":"10鄰","STREET":"成功路","SECT":" ","MAREA":" ","LANE":" ","ALLEY":" ","HOUSE_NO":"８號","E_COORD97":169011.04000000001,"N_COORD97":2544249.5299999998,"ADDRESS":"成功路８號","OBJECTID":173849},"geometry":{"x":169011.04000000004,"y":2544249.5299999993}},{"attributes":{"ID":173851,"DIS_CODE":0,"TOWNNAME":"新營區","LI":"南紙里","LIN":"26鄰","STREET":"建業路","SECT":" ","MAREA":" ","LANE":"２２７巷","ALLEY":"２４弄","HOUSE_NO":"１１號","E_COORD97":178032.01000000001,"N_COORD97":2577340.6899999999,"ADDRESS":"建業路２２７巷２４弄１１號","OBJECTID":173850},"geometry":{"x":178032.01000000071,"y":2577340.6900000013}},{"attributes":{"ID":173852,"DIS_CODE":0,"TOWNNAME":"新營區","LI":"南紙里","LIN":"26鄰","STREET":"建業路","SECT":" ","MAREA":" ","LANE":"２２７巷","ALLEY":"２２弄","HOUSE_NO":"１９號","E_COORD97":178058.69,"N_COORD97":2577358.2799999998,"ADDRESS":"建業路２２７巷２２弄１９號","OBJECTID":173851},"geometry":{"x":178058.69000000134,"y":2577358.2799999993}},{"attributes":{"ID":173853,"DIS_CODE":0,"TOWNNAME":"新營區","LI":"新北里","LIN":"13鄰","STREET":"周武街","SECT":" ","MAREA":" ","LANE":"７９巷","ALLEY":"２１弄","HOUSE_NO":"１６號","E_COORD97":179257.39999999999,"N_COORD97":2579033.6299999999,"ADDRESS":"周武街７９巷２１弄１６號","OBJECTID":173852},"geometry":{"x":179257.4000000013,"y":2579033.629999999}},{"attributes":{"ID":173854,"DIS_CODE":0,"TOWNNAME":"新營區","LI":"南紙里","LIN":"26鄰","STREET":"建業路","SECT":" ","MAREA":" ","LANE":"２２７巷","ALLEY":"２２弄","HOUSE_NO":"１５號","E_COORD97":178068.92000000001,"N_COORD97":2577358.23,"ADDRESS":"建業路２２７巷２２弄１５號","OBJECTID":173853},"geometry":{"x":178068.91999999993,"y":2577358.2300000023}},{"attributes":{"ID":173855,"DIS_CODE":0,"TOWNNAME":"新營區","LI":"新東里","LIN":"4鄰","STREET":"東大街","SECT":" ","MAREA":" ","LANE":"５２巷","ALLEY":"２弄","HOUSE_NO":"１４號","E_COORD97":181046.67000000001,"N_COORD97":2579110.4500000002,"ADDRESS":"東大街５２巷２弄１４號","OBJECTID":173854},"geometry":{"x":181046.67000000086,"y":2579110.4499999993}},{"attributes":{"ID":173856,"DIS_CODE":0,"TOWNNAME":"新營區","LI":"新北里","LIN":" ","STREET":"民生路","SECT":" ","MAREA":" ","LANE":"３８５巷","ALLEY":"１３弄","HOUSE_NO":"１之３號","E_COORD97":178861.22,"N_COORD97":2579126.3799999999,"ADDRESS":"民生路３８５巷１３弄１之３號","OBJECTID":173855},"geometry":{"x":178861.22000000067,"y":2579126.379999999}},{"attributes":{"ID":173857,"DIS_CODE":0,"TOWNNAME":"新營區","LI":"新東里","LIN":"4鄰","STREET":"東大街","SECT":" ","MAREA":" ","LANE":"５２巷","ALLEY":"２弄","HOUSE_NO":"１２號","E_COORD97":181047.73000000001,"N_COORD97":2579117.0899999999,"ADDRESS":"東大街５２巷２弄１２號","OBJECTID":173856},"geometry":{"x":181047.73000000045,"y":2579117.089999998}},{"attributes":{"ID":173858,"DIS_CODE":0,"TOWNNAME":"新營區","LI":"民榮里","LIN":"39鄰","STREET":"太子路","SECT":" ","MAREA":" ","LANE":"５３巷","ALLEY":"８弄","HOUSE_NO":"１７號","E_COORD97":178329.10000000001,"N_COORD97":2577853.1099999999,"ADDRESS":"太子路５３巷８弄１７號","OBJECTID":173857},"geometry":{"x":178329.10000000149,"y":2577853.1100000013}},{"attributes":{"ID":173859,"DIS_CODE":0,"TOWNNAME":"新營區","LI":"新東里","LIN":"4鄰","STREET":"東大街","SECT":" ","MAREA":" ","LANE":"５２巷","ALLEY":"２弄","HOUSE_NO":"１０號","E_COORD97":181046.72,"N_COORD97":2579120.4199999999,"ADDRESS":"東大街５２巷２弄１０號","OBJECTID":173858},"geometry":{"x":181046.71999999974,"y":2579120.4199999999}},{"attributes":{"ID":173860,"DIS_CODE":0,"TOWNNAME":"新營區","LI":"新北里","LIN":"10鄰","STREET":"長榮路","SECT":"二段","MAREA":" ","LANE":" ","ALLEY":" ","HOUSE_NO":"１１８號","E_COORD97":179214.35000000001,"N_COORD97":2579823.4500000002,"ADDRESS":"長榮路二段１１８號","OBJECTID":173859},"geometry":{"x":179214.35000000056,"y":2579823.4500000011}},{"attributes":{"ID":173861,"DIS_CODE":0,"TOWNNAME":"新營區","LI":"新北里","LIN":"10鄰","STREET":"長榮路","SECT":"二段","MAREA":" ","LANE":" ","ALLEY":" ","HOUSE_NO":"２６３號","E_COORD97":179263.39000000001,"N_COORD97":2579796.6400000001,"ADDRESS":"長榮路二段２６３號","OBJECTID":173860},"geometry":{"x":179263.3900000006,"y":2579796.6400000025}},{"attributes":{"ID":173862,"DIS_CODE":0,"TOWNNAME":"新營區","LI":"嘉芳里","LIN":" ","STREET":"復興路","SECT":" ","MAREA":" ","LANE":"８０３巷","ALLEY":"２４弄","HOUSE_NO":"１４號","E_COORD97":177064.87,"N_COORD97":2578493.8500000001,"ADDRESS":"復興路８０３巷２４弄１４號","OBJECTID":173861},"geometry":{"x":177064.87000000197,"y":2578493.8499999996}},{"attributes":{"ID":173863,"DIS_CODE":0,"TOWNNAME":"新營區","LI":"民權里","LIN":"10鄰","STREET":"信義街","SECT":" ","MAREA":" ","LANE":" ","ALLEY":" ","HOUSE_NO":"１９號之１","E_COORD97":179945.91,"N_COORD97":2578180.9900000002,"ADDRESS":"信義街１９號之１","OBJECTID":173862},"geometry":{"x":179945.91000000015,"y":2578180.9900000002}},{"attributes":{"ID":173864,"DIS_CODE":0,"TOWNNAME":"新營區","LI":"民權里","LIN":"10鄰","STREET":"信義街","SECT":" ","MAREA":" ","LANE":" ","ALLEY":" ","HOUSE_NO":"２３號","E_COORD97":179929.57000000001,"N_COORD97":2578189.8700000001,"ADDRESS":"信義街２３號","OBJECTID":173863},"geometry":{"x":179929.5700000003,"y":2578189.870000001}},{"attributes":{"ID":173865,"DIS_CODE":0,"TOWNNAME":"歸仁區","LI":"七甲里","LIN":"10鄰","STREET":"七甲一街","SECT":" ","MAREA":" ","LANE":" ","ALLEY":" ","HOUSE_NO":"２３號","E_COORD97":177596.29000000001,"N_COORD97":2542472.6600000001,"ADDRESS":"七甲一街２３號","OBJECTID":173864},"geometry":{"x":177596.29000000097,"y":2542472.6600000001}},{"attributes":{"ID":173866,"DIS_CODE":0,"TOWNNAME":"西港區","LI":"慶安里","LIN":"26鄰","STREET":"新興街","SECT":" ","MAREA":" ","LANE":" ","ALLEY":" ","HOUSE_NO":"１０號之７","E_COORD97":168238.39999999999,"N_COORD97":2557736.4900000002,"ADDRESS":"新興街１０號之７","OBJECTID":173865},"geometry":{"x":168238.4000000013,"y":2557736.4900000021}},{"attributes":{"ID":173867,"DIS_CODE":0,"TOWNNAME":"南區","LI":"國宅里","LIN":"10鄰","STREET":"新興路","SECT":" ","MAREA":" ","LANE":" ","ALLEY":" ","HOUSE_NO":"３７０號","E_COORD97":166883.16,"N_COORD97":2541792.79,"ADDRESS":"新興路３７０號","OBJECTID":173866},"geometry":{"x":166883.16000000015,"y":2541792.7899999991}},{"attributes":{"ID":173868,"DIS_CODE":0,"TOWNNAME":"南區","LI":"國宅里","LIN":"10鄰","STREET":"新興路","SECT":" ","MAREA":" ","LANE":" ","ALLEY":" ","HOUSE_NO":"３７８號","E_COORD97":166865.39999999999,"N_COORD97":2541794.4700000002,"ADDRESS":"新興路３７８號","OBJECTID":173867},"geometry":{"x":166865.4000000013,"y":2541794.4700000044}},{"attributes":{"ID":173869,"DIS_CODE":0,"TOWNNAME":"南區","LI":"國宅里","LIN":"10鄰","STREET":"新興路","SECT":" ","MAREA":" ","LANE":" ","ALLEY":" ","HOUSE_NO":"３６８號","E_COORD97":166888.51000000001,"N_COORD97":2541791.9500000002,"ADDRESS":"新興路３６８號","OBJECTID":173868},"geometry":{"x":166888.50999999978,"y":2541791.9499999993}},{"attributes":{"ID":173870,"DIS_CODE":0,"TOWNNAME":"新營區","LI":"忠政里","LIN":"13鄰","STREET":"中正路","SECT":" ","MAREA":" ","LANE":"１１５巷","ALLEY":"２７弄","HOUSE_NO":"１號","E_COORD97":179943.35999999999,"N_COORD97":2579653.8599999999,"ADDRESS":"中正路１１５巷２７弄１號","OBJECTID":173869},"geometry":{"x":179943.36000000034,"y":2579653.8599999975}},{"attributes":{"ID":173871,"DIS_CODE":0,"TOWNNAME":"新營區","LI":"五興里","LIN":"10鄰","STREET":" ","SECT":" ","MAREA":"五間厝","LANE":" ","ALLEY":" ","HOUSE_NO":"１１４之１號","E_COORD97":175679.26000000001,"N_COORD97":2574760.9199999999,"ADDRESS":"五間厝１１４之１號","OBJECTID":173870},"geometry":{"x":175679.26000000071,"y":2574760.9199999999}},{"attributes":{"ID":173872,"DIS_CODE":0,"TOWNNAME":"安平區","LI":"金城里","LIN":"10鄰","STREET":"世平一街","SECT":" ","MAREA":" ","LANE":" ","ALLEY":" ","HOUSE_NO":"２５號之１","E_COORD97":162962.07000000001,"N_COORD97":2544006.5699999998,"ADDRESS":"世平一街２５號之１","OBJECTID":173871},"geometry":{"x":162962.07000000123,"y":2544006.5700000003}},{"attributes":{"ID":173873,"DIS_CODE":0,"TOWNNAME":"安平區","LI":"金城里","LIN":"10鄰","STREET":"世平一街","SECT":" ","MAREA":" ","LANE":" ","ALLEY":" ","HOUSE_NO":"２５號之２","E_COORD97":162967.62,"N_COORD97":2544008.7799999998,"ADDRESS":"世平一街２５號之２","OBJECTID":173872},"geometry":{"x":162967.61999999918,"y":2544008.7800000012}},{"attributes":{"ID":173874,"DIS_CODE":0,"TOWNNAME":"安平區","LI":"金城里","LIN":"10鄰","STREET":"世平一街","SECT":" ","MAREA":" ","LANE":" ","ALLEY":" ","HOUSE_NO":"２７號","E_COORD97":162956.04999999999,"N_COORD97":2544001.6600000001,"ADDRESS":"世平一街２７號","OBJECTID":173873},"geometry":{"x":162956.05000000168,"y":2544001.6600000001}},{"attributes":{"ID":173875,"DIS_CODE":0,"TOWNNAME":"新營區","LI":"南紙里","LIN":"13鄰","STREET":"太子路","SECT":" ","MAREA":" ","LANE":"２３８巷","ALLEY":"４０弄","HOUSE_NO":"１０號","E_COORD97":177821.16,"N_COORD97":2577944.1600000001,"ADDRESS":"太子路２３８巷４０弄１０號","OBJECTID":173874},"geometry":{"x":177821.16000000108,"y":2577944.1600000039}},{"attributes":{"ID":173876,"DIS_CODE":0,"TOWNNAME":"新營區","LI":"南紙里","LIN":"13鄰","STREET":"太子路","SECT":" ","MAREA":" ","LANE":"２３８巷","ALLEY":"４０弄","HOUSE_NO":"１２號","E_COORD97":177826.28,"N_COORD97":2577945.25,"ADDRESS":"太子路２３８巷４０弄１２號","OBJECTID":173875},"geometry":{"x":177826.28000000026,"y":2577945.25}},{"attributes":{"ID":173877,"DIS_CODE":0,"TOWNNAME":"新營區","LI":"新東里","LIN":"4鄰","STREET":"東大街","SECT":" ","MAREA":" ","LANE":"５２巷","ALLEY":"２弄","HOUSE_NO":"７號","E_COORD97":181073.04999999999,"N_COORD97":2579107,"ADDRESS":"東大街５２巷２弄７號","OBJECTID":173876},"geometry":{"x":181073.05000000075,"y":2579107}},{"attributes":{"ID":173878,"DIS_CODE":0,"TOWNNAME":"新營區","LI":"民榮里","LIN":"38鄰","STREET":"太子路","SECT":" ","MAREA":" ","LANE":"５３巷","ALLEY":"６弄","HOUSE_NO":"１５號之４","E_COORD97":178294.92000000001,"N_COORD97":2577953,"ADDRESS":"太子路５３巷６弄１５號之４","OBJECTID":173877},"geometry":{"x":178294.91999999993,"y":2577953.0000000019}},{"attributes":{"ID":173879,"DIS_CODE":0,"TOWNNAME":"新營區","LI":"南紙里","LIN":"24鄰","STREET":"建業路","SECT":" ","MAREA":" ","LANE":"２６９巷","ALLEY":"２０弄","HOUSE_NO":"８號","E_COORD97":177939.17000000001,"N_COORD97":2577423.0899999999,"ADDRESS":"建業路２６９巷２０弄８號","OBJECTID":173878},"geometry":{"x":177939.17000000179,"y":2577423.0900000017}},{"attributes":{"ID":173880,"DIS_CODE":0,"TOWNNAME":"新營區","LI":"民榮里","LIN":"38鄰","STREET":"太子路","SECT":" ","MAREA":" ","LANE":"５３巷","ALLEY":"６弄","HOUSE_NO":"１７號之３","E_COORD97":178283.70999999999,"N_COORD97":2577947.52,"ADDRESS":"太子路５３巷６弄１７號之３","OBJECTID":173879},"geometry":{"x":178283.71000000089,"y":2577947.5199999977}},{"attributes":{"ID":173881,"DIS_CODE":0,"TOWNNAME":"新營區","LI":"南紙里","LIN":"26鄰","STREET":"建業路","SECT":" ","MAREA":" ","LANE":"２２７巷","ALLEY":"２２弄","HOUSE_NO":"３０號","E_COORD97":178035.35999999999,"N_COORD97":2577379.4399999999,"ADDRESS":"建業路２２７巷２２弄３０號","OBJECTID":173880},"geometry":{"x":178035.36000000127,"y":2577379.4400000013}},{"attributes":{"ID":173882,"DIS_CODE":0,"TOWNNAME":"新營區","LI":"民榮里","LIN":"38鄰","STREET":"太子路","SECT":" ","MAREA":" ","LANE":"５３巷","ALLEY":"６弄","HOUSE_NO":"１３之４號","E_COORD97":178299.35999999999,"N_COORD97":2577954.0899999999,"ADDRESS":"太子路５３巷６弄１３之４號","OBJECTID":173881},"geometry":{"x":178299.3600000022,"y":2577954.0899999999}},{"attributes":{"ID":173883,"DIS_CODE":0,"TOWNNAME":"新營區","LI":"民榮里","LIN":"38鄰","STREET":"太子路","SECT":" ","MAREA":" ","LANE":"５３巷","ALLEY":"６弄","HOUSE_NO":"１之４號","E_COORD97":178339.09,"N_COORD97":2577969.3999999999,"ADDRESS":"太子路５３巷６弄１之４號","OBJECTID":173882},"geometry":{"x":178339.08999999985,"y":2577969.4000000004}},{"attributes":{"ID":173884,"DIS_CODE":0,"TOWNNAME":"新營區","LI":"南紙里","LIN":"13鄰","STREET":"太子路","SECT":" ","MAREA":" ","LANE":"２３８巷","ALLEY":"４０弄","HOUSE_NO":"１６號","E_COORD97":177834.48000000001,"N_COORD97":2577948.54,"ADDRESS":"太子路２３８巷４０弄１６號","OBJECTID":173883},"geometry":{"x":177834.48000000138,"y":2577948.540000001}},{"attributes":{"ID":173885,"DIS_CODE":0,"TOWNNAME":"新營區","LI":"民榮里","LIN":"38鄰","STREET":"太子路","SECT":" ","MAREA":" ","LANE":"５３巷","ALLEY":"６弄","HOUSE_NO":"１２號","E_COORD97":178309.28,"N_COORD97":2577983.8799999999,"ADDRESS":"太子路５３巷６弄１２號","OBJECTID":173884},"geometry":{"x":178309.28000000026,"y":2577983.879999999}},{"attributes":{"ID":173886,"DIS_CODE":0,"TOWNNAME":"新營區","LI":"新北里","LIN":"25鄰","STREET":"民治路","SECT":" ","MAREA":" ","LANE":"１５６巷","ALLEY":"１５弄","HOUSE_NO":"３１號","E_COORD97":179032.03,"N_COORD97":2578727.9399999999,"ADDRESS":"民治路１５６巷１５弄３１號","OBJECTID":173885},"geometry":{"x":179032.03000000212,"y":2578727.9400000032}},{"attributes":{"ID":173887,"DIS_CODE":0,"TOWNNAME":"新營區","LI":"忠政里","LIN":"13鄰","STREET":"中正路","SECT":" ","MAREA":" ","LANE":"１１５巷","ALLEY":"３３弄","HOUSE_NO":"８號","E_COORD97":179894.23000000001,"N_COORD97":2579631.9300000002,"ADDRESS":"中正路１１５巷３３弄８號","OBJECTID":173886},"geometry":{"x":179894.23000000138,"y":2579631.9299999997}},{"attributes":{"ID":173888,"DIS_CODE":0,"TOWNNAME":"鹽水區","LI":"義稠里","LIN":"10鄰","STREET":" ","SECT":" ","MAREA":"義稠","LANE":" ","ALLEY":" ","HOUSE_NO":"１１４號","E_COORD97":173763.20999999999,"N_COORD97":2580686.4100000001,"ADDRESS":"義稠１１４號","OBJECTID":173887},"geometry":{"x":173763.20999999996,"y":2580686.410000002}},{"attributes":{"ID":173889,"DIS_CODE":0,"TOWNNAME":"鹽水區","LI":"舊營里","LIN":"10鄰","STREET":" ","SECT":" ","MAREA":"舊營","LANE":" ","ALLEY":" ","HOUSE_NO":"９３號","E_COORD97":174510.81,"N_COORD97":2577414.3700000001,"ADDRESS":"舊營９３號","OBJECTID":173888},"geometry":{"x":174510.81000000052,"y":2577414.370000001}},{"attributes":{"ID":173890,"DIS_CODE":0,"TOWNNAME":"新營區","LI":"民榮里","LIN":"38鄰","STREET":"太子路","SECT":" ","MAREA":" ","LANE":"５３巷","ALLEY":"６弄","HOUSE_NO":"７之１號","E_COORD97":178323.73000000001,"N_COORD97":2577959.5099999998,"ADDRESS":"太子路５３巷６弄７之１號","OBJECTID":173889},"geometry":{"x":178323.73000000045,"y":2577959.5100000016}},{"attributes":{"ID":173891,"DIS_CODE":0,"TOWNNAME":"新營區","LI":"五興里","LIN":"10鄰","STREET":" ","SECT":" ","MAREA":"五間厝","LANE":" ","ALLEY":" ","HOUSE_NO":"１０４號","E_COORD97":175584.95000000001,"N_COORD97":2574814.4900000002,"ADDRESS":"五間厝１０４號","OBJECTID":173890},"geometry":{"x":175584.95000000112,"y":2574814.4900000002}},{"attributes":{"ID":173892,"DIS_CODE":0,"TOWNNAME":"新營區","LI":"五興里","LIN":"10鄰","STREET":" ","SECT":" ","MAREA":"五間厝","LANE":" ","ALLEY":" ","HOUSE_NO":"１１２號","E_COORD97":175652.16,"N_COORD97":2574752.1200000001,"ADDRESS":"五間厝１１２號","OBJECTID":173891},"geometry":{"x":175652.16000000015,"y":2574752.1200000029}},{"attributes":{"ID":173893,"DIS_CODE":0,"TOWNNAME":"學甲區","LI":"秀昌里","LIN":"10鄰","STREET":" ","SECT":" ","MAREA":"一秀","LANE":" ","ALLEY":" ","HOUSE_NO":"１００號之２３","E_COORD97":165961.48999999999,"N_COORD97":2571038.5800000001,"ADDRESS":"一秀１００號之２３","OBJECTID":173892},"geometry":{"x":165961.49000000115,"y":2571038.5800000038}},{"attributes":{"ID":173894,"DIS_CODE":0,"TOWNNAME":"學甲區","LI":"秀昌里","LIN":"10鄰","STREET":" ","SECT":" ","MAREA":"一秀","LANE":" ","ALLEY":" ","HOUSE_NO":"１００號之６","E_COORD97":165959.72,"N_COORD97":2570988.1499999999,"ADDRESS":"一秀１００號之６","OBJECTID":173893},"geometry":{"x":165959.71999999974,"y":2570988.1500000022}},{"attributes":{"ID":173895,"DIS_CODE":0,"TOWNNAME":"新化區","LI":"護國里","LIN":"10鄰","STREET":"中山路","SECT":" ","MAREA":" ","LANE":" ","ALLEY":" ","HOUSE_NO":"８０號","E_COORD97":179715.56,"N_COORD97":2549304.25,"ADDRESS":"中山路８０號","OBJECTID":173894},"geometry":{"x":179715.55999999959,"y":2549304.25}},{"attributes":{"ID":173896,"DIS_CODE":0,"TOWNNAME":"新營區","LI":"民榮里","LIN":" ","STREET":"太子路","SECT":" ","MAREA":" ","LANE":"３３巷","ALLEY":"１弄","HOUSE_NO":"２號","E_COORD97":178360.67999999999,"N_COORD97":2578070.0099999998,"ADDRESS":"太子路３３巷１弄２號","OBJECTID":173895},"geometry":{"x":178360.6799999997,"y":2578070.0100000035}},{"attributes":{"ID":173897,"DIS_CODE":0,"TOWNNAME":"新化區","LI":"全興里","LIN":"10鄰","STREET":" ","SECT":" ","MAREA":"竹子\u25A0","LANE":" ","ALLEY":" ","HOUSE_NO":"１５９號之１９","E_COORD97":177306.42999999999,"N_COORD97":2547580.2599999998,"ADDRESS":"竹子\u25A0１５９號之１９","OBJECTID":173896},"geometry":{"x":177306.43000000156,"y":2547580.2600000016}},{"attributes":{"ID":173898,"DIS_CODE":0,"TOWNNAME":"新營區","LI":"民榮里","LIN":"32鄰","STREET":"太子路","SECT":" ","MAREA":" ","LANE":"５３巷","ALLEY":"１弄","HOUSE_NO":"１號","E_COORD97":178314.39999999999,"N_COORD97":2578031.48,"ADDRESS":"太子路５３巷１弄１號","OBJECTID":173897},"geometry":{"x":178314.40000000224,"y":2578031.4800000023}},{"attributes":{"ID":173899,"DIS_CODE":0,"TOWNNAME":"新營區","LI":"民榮里","LIN":"38鄰","STREET":"太子路","SECT":" ","MAREA":" ","LANE":"５３巷","ALLEY":"６弄","HOUSE_NO":"１９號之２","E_COORD97":178279.64999999999,"N_COORD97":2577946.4399999999,"ADDRESS":"太子路５３巷６弄１９號之２","OBJECTID":173898},"geometry":{"x":178279.65000000037,"y":2577946.4400000013}},{"attributes":{"ID":173900,"DIS_CODE":0,"TOWNNAME":"新營區","LI":"南紙里","LIN":"26鄰","STREET":"建業路","SECT":" ","MAREA":" ","LANE":"２２７巷","ALLEY":"２４弄","HOUSE_NO":"１４號","E_COORD97":178018.72,"N_COORD97":2577341.8599999999,"ADDRESS":"建業路２２７巷２４弄１４號","OBJECTID":173899},"geometry":{"x":178018.72000000067,"y":2577341.8600000031}},{"attributes":{"ID":173901,"DIS_CODE":0,"TOWNNAME":"新營區","LI":"南紙里","LIN":"13鄰","STREET":"太子路","SECT":" ","MAREA":" ","LANE":"２００巷","ALLEY":"１７弄","HOUSE_NO":"１２號","E_COORD97":177842.51999999999,"N_COORD97":2577919.71,"ADDRESS":"太子路２００巷１７弄１２號","OBJECTID":173900},"geometry":{"x":177842.51999999955,"y":2577919.7100000009}},{"attributes":{"ID":173902,"DIS_CODE":0,"TOWNNAME":"新化區","LI":"全興里","LIN":"10鄰","STREET":" ","SECT":" ","MAREA":"竹子\u25A0","LANE":" ","ALLEY":" ","HOUSE_NO":"１６１號之１","E_COORD97":177392.66,"N_COORD97":2547362.2599999998,"ADDRESS":"竹子\u25A0１６１號之１","OBJECTID":173901},"geometry":{"x":177392.66000000108,"y":2547362.2600000016}},{"attributes":{"ID":173903,"DIS_CODE":0,"TOWNNAME":"新化區","LI":"\u25A0拔里","LIN":"10鄰","STREET":" ","SECT":" ","MAREA":"牧場","LANE":" ","ALLEY":" ","HOUSE_NO":"９６號","E_COORD97":181860.32999999999,"N_COORD97":2551212.25,"ADDRESS":"牧場９６號","OBJECTID":173902},"geometry":{"x":181860.33000000007,"y":2551212.25}},{"attributes":{"ID":173904,"DIS_CODE":0,"TOWNNAME":"新營區","LI":"民榮里","LIN":"38鄰","STREET":"太子路","SECT":" ","MAREA":" ","LANE":"５３巷","ALLEY":"６弄","HOUSE_NO":"１１之４號","E_COORD97":178307.51999999999,"N_COORD97":2577950.73,"ADDRESS":"太子路５３巷６弄１１之４號","OBJECTID":173903},"geometry":{"x":178307.52000000142,"y":2577950.7300000042}},{"attributes":{"ID":173905,"DIS_CODE":0,"TOWNNAME":"新營區","LI":"民榮里","LIN":"38鄰","STREET":"太子路","SECT":" ","MAREA":" ","LANE":"５３巷","ALLEY":"６弄","HOUSE_NO":"５號之４","E_COORD97":178330.54999999999,"N_COORD97":2577960.5800000001,"ADDRESS":"太子路５３巷６弄５號之４","OBJECTID":173904},"geometry":{"x":178330.54999999981,"y":2577960.5800000001}},{"attributes":{"ID":173906,"DIS_CODE":0,"TOWNNAME":"新化區","LI":"\u25A0拔里","LIN":"10鄰","STREET":" ","SECT":" ","MAREA":"牧場","LANE":" ","ALLEY":" ","HOUSE_NO":"６３號","E_COORD97":181825.03,"N_COORD97":2551268.25,"ADDRESS":"牧場６３號","OBJECTID":173905},"geometry":{"x":181825.03000000026,"y":2551268.2500000019}},{"attributes":{"ID":173907,"DIS_CODE":0,"TOWNNAME":"新化區","LI":"唪口里","LIN":"10鄰","STREET":" ","SECT":" ","MAREA":"唪口","LANE":" ","ALLEY":" ","HOUSE_NO":"１５６號之９","E_COORD97":177496.69,"N_COORD97":2548978.2599999998,"ADDRESS":"唪口１５６號之９","OBJECTID":173906},"geometry":{"x":177496.69000000041,"y":2548978.2599999998}},{"attributes":{"ID":173908,"DIS_CODE":0,"TOWNNAME":"新化區","LI":"\u25A0拔里","LIN":"10鄰","STREET":" ","SECT":" ","MAREA":"牧場","LANE":" ","ALLEY":" ","HOUSE_NO":"６０號","E_COORD97":181778.82999999999,"N_COORD97":2551247.25,"ADDRESS":"牧場６０號","OBJECTID":173907},"geometry":{"x":181778.83000000007,"y":2551247.2499999981}},{"attributes":{"ID":173909,"DIS_CODE":0,"TOWNNAME":"新營區","LI":"南紙里","LIN":"25鄰","STREET":"建業路","SECT":" ","MAREA":" ","LANE":"２２７巷","ALLEY":"２弄","HOUSE_NO":"２２號","E_COORD97":178057.31,"N_COORD97":2577480.1099999999,"ADDRESS":"建業路２２７巷２弄２２號","OBJECTID":173908},"geometry":{"x":178057.30999999959,"y":2577480.1100000013}},{"attributes":{"ID":173910,"DIS_CODE":0,"TOWNNAME":"歸仁區","LI":"七甲里","LIN":"18鄰","STREET":"南潭三街","SECT":" ","MAREA":" ","LANE":"１６２巷","ALLEY":"１２弄","HOUSE_NO":"２號","E_COORD97":176435.13,"N_COORD97":2543117.0299999998,"ADDRESS":"南潭三街１６２巷１２弄２號","OBJECTID":173909},"geometry":{"x":176435.12999999989,"y":2543117.0299999993}},{"attributes":{"ID":173911,"DIS_CODE":0,"TOWNNAME":"新化區","LI":"礁坑里","LIN":"10鄰","STREET":" ","SECT":" ","MAREA":"蔡厝仔","LANE":" ","ALLEY":" ","HOUSE_NO":"２１號","E_COORD97":184566.37,"N_COORD97":2548687.25,"ADDRESS":"蔡厝仔２１號","OBJECTID":173910},"geometry":{"x":184566.37000000104,"y":2548687.25}},{"attributes":{"ID":173912,"DIS_CODE":0,"TOWNNAME":"新化區","LI":"全興里","LIN":"10鄰","STREET":" ","SECT":" ","MAREA":"竹子\u25A0","LANE":" ","ALLEY":" ","HOUSE_NO":"１５９號之２","E_COORD97":177417.59,"N_COORD97":2547477.2599999998,"ADDRESS":"竹子\u25A0１５９號之２","OBJECTID":173911},"geometry":{"x":177417.59000000078,"y":2547477.2600000035}},{"attributes":{"ID":173913,"DIS_CODE":0,"TOWNNAME":"歸仁區","LI":"大廟里","LIN":"18鄰","STREET":"大廟五街","SECT":" ","MAREA":" ","LANE":"２７巷","ALLEY":"６弄","HOUSE_NO":"９號","E_COORD97":175880.57999999999,"N_COORD97":2544258.0899999999,"ADDRESS":"大廟五街２７巷６弄９號","OBJECTID":173912},"geometry":{"x":175880.58000000101,"y":2544258.0900000017}},{"attributes":{"ID":173914,"DIS_CODE":0,"TOWNNAME":"歸仁區","LI":"六甲里","LIN":"41鄰","STREET":"民生十二街","SECT":" ","MAREA":" ","LANE":"２７巷","ALLEY":"１０弄","HOUSE_NO":"３號","E_COORD97":176027.81,"N_COORD97":2539382.77,"ADDRESS":"民生十二街２７巷１０弄３號","OBJECTID":173913},"geometry":{"x":176027.81000000052,"y":2539382.7699999996}},{"attributes":{"ID":173915,"DIS_CODE":0,"TOWNNAME":"歸仁區","LI":"大廟里","LIN":"18鄰","STREET":"大廟五街","SECT":" ","MAREA":" ","LANE":"２７巷","ALLEY":"６弄","HOUSE_NO":"１３號","E_COORD97":175885.92999999999,"N_COORD97":2544268.0899999999,"ADDRESS":"大廟五街２７巷６弄１３號","OBJECTID":173914},"geometry":{"x":175885.93000000156,"y":2544268.0900000017}},{"attributes":{"ID":173916,"DIS_CODE":0,"TOWNNAME":"歸仁區","LI":"七甲里","LIN":"20鄰","STREET":"南潭三街","SECT":" ","MAREA":" ","LANE":"１６５巷","ALLEY":"３弄","HOUSE_NO":"８號","E_COORD97":176461.17999999999,"N_COORD97":2543249.0299999998,"ADDRESS":"南潭三街１６５巷３弄８號","OBJECTID":173915},"geometry":{"x":176461.18000000063,"y":2543249.0299999993}},{"attributes":{"ID":173917,"DIS_CODE":0,"TOWNNAME":"歸仁區","LI":"六甲里","LIN":"41鄰","STREET":"民生十二街","SECT":" ","MAREA":" ","LANE":"２７巷","ALLEY":"１０弄","HOUSE_NO":"１５號","E_COORD97":176001.35999999999,"N_COORD97":2539388.77,"ADDRESS":"民生十二街２７巷１０弄１５號","OBJECTID":173916},"geometry":{"x":176001.36000000127,"y":2539388.7700000014}},{"attributes":{"ID":173918,"DIS_CODE":0,"TOWNNAME":"歸仁區","LI":"大廟里","LIN":"4鄰","STREET":"和順路","SECT":"二段","MAREA":" ","LANE":"１５１巷","ALLEY":"３９弄","HOUSE_NO":"４３號","E_COORD97":176228.20000000001,"N_COORD97":2543514.98,"ADDRESS":"和順路二段１５１巷３９弄４３號","OBJECTID":173917},"geometry":{"x":176228.20000000019,"y":2543514.9800000004}},{"attributes":{"ID":173919,"DIS_CODE":0,"TOWNNAME":"新化區","LI":"礁坑里","LIN":"10鄰","STREET":" ","SECT":" ","MAREA":"蔡厝仔","LANE":" ","ALLEY":" ","HOUSE_NO":"３２號","E_COORD97":184460.17000000001,"N_COORD97":2548808.25,"ADDRESS":"蔡厝仔３２號","OBJECTID":173918},"geometry":{"x":184460.16999999993,"y":2548808.25}},{"attributes":{"ID":173920,"DIS_CODE":0,"TOWNNAME":"新化區","LI":"協興里","LIN":"10鄰","STREET":"正新路","SECT":" ","MAREA":" ","LANE":" ","ALLEY":" ","HOUSE_NO":"３４５號","E_COORD97":178529.92000000001,"N_COORD97":2548836.25,"ADDRESS":"正新路３４５號","OBJECTID":173919},"geometry":{"x":178529.91999999993,"y":2548836.25}},{"attributes":{"ID":173921,"DIS_CODE":0,"TOWNNAME":"新化區","LI":"協興里","LIN":"10鄰","STREET":"正新路","SECT":" ","MAREA":" ","LANE":" ","ALLEY":" ","HOUSE_NO":"３１３號","E_COORD97":178541.92000000001,"N_COORD97":2548763.25,"ADDRESS":"正新路３１３號","OBJECTID":173920},"geometry":{"x":178541.91999999993,"y":2548763.2500000019}},{"attributes":{"ID":173922,"DIS_CODE":0,"TOWNNAME":"歸仁區","LI":"七甲里","LIN":"18鄰","STREET":"南潭三街","SECT":" ","MAREA":" ","LANE":"１６２巷","ALLEY":"８弄","HOUSE_NO":"１３號","E_COORD97":176405.53,"N_COORD97":2543141.02,"ADDRESS":"南潭三街１６２巷８弄１３號","OBJECTID":173921},"geometry":{"x":176405.53000000026,"y":2543141.0199999996}},{"attributes":{"ID":173923,"DIS_CODE":0,"TOWNNAME":"安平區","LI":"平通里","LIN":"10鄰","STREET":"育平九街","SECT":" ","MAREA":" ","LANE":" ","ALLEY":" ","HOUSE_NO":"２４８之２號","E_COORD97":164879.82999999999,"N_COORD97":2544028.4300000002,"ADDRESS":"育平九街２４８之２號","OBJECTID":173922},"geometry":{"x":164879.83000000007,"y":2544028.4300000016}},{"attributes":{"ID":173924,"DIS_CODE":0,"TOWNNAME":"歸仁區","LI":"七甲里","LIN":"20鄰","STREET":"南潭三街","SECT":" ","MAREA":" ","LANE":"１６５巷","ALLEY":"１１弄","HOUSE_NO":"６號","E_COORD97":176456.53,"N_COORD97":2543313.0299999998,"ADDRESS":"南潭三街１６５巷１１弄６號","OBJECTID":173923},"geometry":{"x":176456.53000000026,"y":2543313.0300000012}},{"attributes":{"ID":173925,"DIS_CODE":0,"TOWNNAME":"歸仁區","LI":"七甲里","LIN":"18鄰","STREET":"南潭三街","SECT":" ","MAREA":" ","LANE":"１６２巷","ALLEY":"７弄","HOUSE_NO":"２６號","E_COORD97":176505.03,"N_COORD97":2543144.0299999998,"ADDRESS":"南潭三街１６２巷７弄２６號","OBJECTID":173924},"geometry":{"x":176505.03000000119,"y":2543144.0299999993}},{"attributes":{"ID":173926,"DIS_CODE":0,"TOWNNAME":"歸仁區","LI":"六甲里","LIN":"41鄰","STREET":"民生十二街","SECT":" ","MAREA":" ","LANE":"２７巷","ALLEY":"１０弄","HOUSE_NO":"１０號","E_COORD97":176023.95999999999,"N_COORD97":2539401.77,"ADDRESS":"民生十二街２７巷１０弄１０號","OBJECTID":173925},"geometry":{"x":176023.96000000089,"y":2539401.7700000014}},{"attributes":{"ID":173927,"DIS_CODE":0,"TOWNNAME":"歸仁區","LI":"大廟里","LIN":"4鄰","STREET":"和順路","SECT":"二段","MAREA":" ","LANE":"１５１巷","ALLEY":"３９弄","HOUSE_NO":"２５號","E_COORD97":176212,"N_COORD97":2543560.98,"ADDRESS":"和順路二段１５１巷３９弄２５號","OBJECTID":173926},"geometry":{"x":176212.00000000093,"y":2543560.9800000023}},{"attributes":{"ID":173928,"DIS_CODE":0,"TOWNNAME":"歸仁區","LI":"七甲里","LIN":"18鄰","STREET":"南潭三街","SECT":" ","MAREA":" ","LANE":"１６２巷","ALLEY":"１１弄","HOUSE_NO":"２７號","E_COORD97":176506.07999999999,"N_COORD97":2543121.0299999998,"ADDRESS":"南潭三街１６２巷１１弄２７號","OBJECTID":173927},"geometry":{"x":176506.08000000101,"y":2543121.0299999993}},{"attributes":{"ID":173929,"DIS_CODE":0,"TOWNNAME":"歸仁區","LI":"六甲里","LIN":"41鄰","STREET":"民生十二街","SECT":" ","MAREA":" ","LANE":"２７巷","ALLEY":"１０弄","HOUSE_NO":"５號","E_COORD97":176023.70999999999,"N_COORD97":2539383.77,"ADDRESS":"民生十二街２７巷１０弄５號","OBJECTID":173928},"geometry":{"x":176023.71000000089,"y":2539383.7700000033}},{"attributes":{"ID":173930,"DIS_CODE":0,"TOWNNAME":"歸仁區","LI":"七甲里","LIN":"18鄰","STREET":"南潭三街","SECT":" ","MAREA":" ","LANE":"１６２巷","ALLEY":"１２弄","HOUSE_NO":"１８號","E_COORD97":176402.48000000001,"N_COORD97":2543116.0299999998,"ADDRESS":"南潭三街１６２巷１２弄１８號","OBJECTID":173929},"geometry":{"x":176402.48000000138,"y":2543116.0300000012}},{"attributes":{"ID":173931,"DIS_CODE":0,"TOWNNAME":"歸仁區","LI":"七甲里","LIN":"20鄰","STREET":"南潭三街","SECT":" ","MAREA":" ","LANE":"１６５巷","ALLEY":"１１弄","HOUSE_NO":"１０號","E_COORD97":176473.17999999999,"N_COORD97":2543314.0299999998,"ADDRESS":"南潭三街１６５巷１１弄１０號","OBJECTID":173930},"geometry":{"x":176473.18000000063,"y":2543314.0299999993}},{"attributes":{"ID":173932,"DIS_CODE":0,"TOWNNAME":"新化區","LI":"全興里","LIN":"10鄰","STREET":" ","SECT":" ","MAREA":"竹子\u25A0","LANE":" ","ALLEY":" ","HOUSE_NO":"２２２號","E_COORD97":177907.92999999999,"N_COORD97":2547213.25,"ADDRESS":"竹子\u25A0２２２號","OBJECTID":173931},"geometry":{"x":177907.9299999997,"y":2547213.2500000019}},{"attributes":{"ID":173933,"DIS_CODE":0,"TOWNNAME":"歸仁區","LI":"大廟里","LIN":"20鄰","STREET":"大廟一街","SECT":" ","MAREA":" ","LANE":"２８巷","ALLEY":"２１弄","HOUSE_NO":"１４號","E_COORD97":175746.69,"N_COORD97":2544135.1200000001,"ADDRESS":"大廟一街２８巷２１弄１４號","OBJECTID":173932},"geometry":{"x":175746.69000000134,"y":2544135.120000001}},{"attributes":{"ID":173934,"DIS_CODE":0,"TOWNNAME":"歸仁區","LI":"大廟里","LIN":"4鄰","STREET":"和順路","SECT":"二段","MAREA":" ","LANE":"１５１巷","ALLEY":"３９弄","HOUSE_NO":"３９號","E_COORD97":176217,"N_COORD97":2543533.98,"ADDRESS":"和順路二段１５１巷３９弄３９號","OBJECTID":173933},"geometry":{"x":176217.00000000093,"y":2543533.9800000023}},{"attributes":{"ID":173935,"DIS_CODE":0,"TOWNNAME":"歸仁區","LI":"大廟里","LIN":"4鄰","STREET":"和順路","SECT":"二段","MAREA":" ","LANE":"１５１巷","ALLEY":"３９弄","HOUSE_NO":"２７號","E_COORD97":176213,"N_COORD97":2543555.98,"ADDRESS":"和順路二段１５１巷３９弄２７號","OBJECTID":173934},"geometry":{"x":176213.00000000186,"y":2543555.9800000004}},{"attributes":{"ID":173936,"DIS_CODE":0,"TOWNNAME":"歸仁區","LI":"六甲里","LIN":"41鄰","STREET":"民生十二街","SECT":" ","MAREA":" ","LANE":"２７巷","ALLEY":"１０弄","HOUSE_NO":"１３號","E_COORD97":176006.45999999999,"N_COORD97":2539387.77,"ADDRESS":"民生十二街２７巷１０弄１３號","OBJECTID":173935},"geometry":{"x":176006.46000000089,"y":2539387.7700000014}},{"attributes":{"ID":173937,"DIS_CODE":0,"TOWNNAME":"歸仁區","LI":"大廟里","LIN":"4鄰","STREET":"和順路","SECT":"二段","MAREA":" ","LANE":"１５１巷","ALLEY":"３９弄","HOUSE_NO":"５號","E_COORD97":176201.54999999999,"N_COORD97":2543559.98,"ADDRESS":"和順路二段１５１巷３９弄５號","OBJECTID":173936},"geometry":{"x":176201.54999999981,"y":2543559.9800000004}},{"attributes":{"ID":173938,"DIS_CODE":0,"TOWNNAME":"歸仁區","LI":"大廟里","LIN":"18鄰","STREET":"大廟五街","SECT":" ","MAREA":" ","LANE":"２７巷","ALLEY":"６弄","HOUSE_NO":"１２號","E_COORD97":175898.23000000001,"N_COORD97":2544252.0899999999,"ADDRESS":"大廟五街２７巷６弄１２號","OBJECTID":173937},"geometry":{"x":175898.23000000231,"y":2544252.0900000017}},{"attributes":{"ID":173939,"DIS_CODE":0,"TOWNNAME":"歸仁區","LI":"大廟里","LIN":"20鄰","STREET":"大廟一街","SECT":" ","MAREA":" ","LANE":"２８巷","ALLEY":"２１弄","HOUSE_NO":"１８號","E_COORD97":175733.29000000001,"N_COORD97":2544120.1200000001,"ADDRESS":"大廟一街２８巷２１弄１８號","OBJECTID":173938},"geometry":{"x":175733.29000000097,"y":2544120.1200000029}},{"attributes":{"ID":173940,"DIS_CODE":0,"TOWNNAME":"歸仁區","LI":"大廟里","LIN":"20鄰","STREET":"大廟一街","SECT":" ","MAREA":" ","LANE":"２８巷","ALLEY":"２１弄","HOUSE_NO":"６號","E_COORD97":175766.04000000001,"N_COORD97":2544146.1200000001,"ADDRESS":"大廟一街２８巷２１弄６號","OBJECTID":173939},"geometry":{"x":175766.04000000004,"y":2544146.120000001}},{"attributes":{"ID":173941,"DIS_CODE":0,"TOWNNAME":"歸仁區","LI":"大廟里","LIN":"18鄰","STREET":"大廟五街","SECT":" ","MAREA":" ","LANE":"２７巷","ALLEY":"６弄","HOUSE_NO":"１號","E_COORD97":175873.28,"N_COORD97":2544240.0899999999,"ADDRESS":"大廟五街２７巷６弄１號","OBJECTID":173940},"geometry":{"x":175873.28000000026,"y":2544240.0899999999}},{"attributes":{"ID":173942,"DIS_CODE":0,"TOWNNAME":"歸仁區","LI":"大廟里","LIN":"20鄰","STREET":"大廟一街","SECT":" ","MAREA":" ","LANE":"２８巷","ALLEY":"２１弄","HOUSE_NO":"２０號","E_COORD97":175727.19,"N_COORD97":2544122.1200000001,"ADDRESS":"大廟一街２８巷２１弄２０號","OBJECTID":173941},"geometry":{"x":175727.19000000227,"y":2544122.120000001}},{"attributes":{"ID":173943,"DIS_CODE":0,"TOWNNAME":"善化區","LI":"胡厝里","LIN":"10鄰","STREET":" ","SECT":" ","MAREA":"百二甲","LANE":" ","ALLEY":" ","HOUSE_NO":"４號之４","E_COORD97":175220.48000000001,"N_COORD97":2559997.52,"ADDRESS":"百二甲４號之４","OBJECTID":173942},"geometry":{"x":175220.48000000138,"y":2559997.5199999996}},{"attributes":{"ID":173944,"DIS_CODE":0,"TOWNNAME":"歸仁區","LI":"七甲里","LIN":"17鄰","STREET":"南潭三街","SECT":" ","MAREA":" ","LANE":"１６２巷","ALLEY":"１５弄","HOUSE_NO":"１４號","E_COORD97":176473.07999999999,"N_COORD97":2543072.0299999998,"ADDRESS":"南潭三街１６２巷１５弄１４號","OBJECTID":173943},"geometry":{"x":176473.08000000007,"y":2543072.0300000012}},{"attributes":{"ID":173945,"DIS_CODE":0,"TOWNNAME":"新化區","LI":"崙頂里","LIN":"10鄰","STREET":" ","SECT":" ","MAREA":"崙子頂","LANE":" ","ALLEY":" ","HOUSE_NO":"３７１號","E_COORD97":176840.42999999999,"N_COORD97":2546888.25,"ADDRESS":"崙子頂３７１號","OBJECTID":173944},"geometry":{"x":176840.43000000063,"y":2546888.2500000019}},{"attributes":{"ID":173946,"DIS_CODE":0,"TOWNNAME":"新化區","LI":"礁坑里","LIN":"10鄰","STREET":" ","SECT":" ","MAREA":"蔡厝仔","LANE":" ","ALLEY":" ","HOUSE_NO":"１９號","E_COORD97":184528.87,"N_COORD97":2548671.25,"ADDRESS":"蔡厝仔１９號","OBJECTID":173945},"geometry":{"x":184528.87000000197,"y":2548671.2500000019}},{"attributes":{"ID":173947,"DIS_CODE":0,"TOWNNAME":"新化區","LI":"全興里","LIN":"10鄰","STREET":" ","SECT":" ","MAREA":"竹子\u25A0","LANE":" ","ALLEY":" ","HOUSE_NO":"２２６號之１","E_COORD97":177769.70528299999,"N_COORD97":2547304.5467099999,"ADDRESS":"竹子\u25A0２２６號之１","OBJECTID":173946},"geometry":{"x":177769.705283002,"y":2547304.5467100013}},{"attributes":{"ID":173948,"DIS_CODE":0,"TOWNNAME":"歸仁區","LI":"大廟里","LIN":"20鄰","STREET":"大廟一街","SECT":" ","MAREA":" ","LANE":"２８巷","ALLEY":"２１弄","HOUSE_NO":"２２號","E_COORD97":175720.98999999999,"N_COORD97":2544122.1200000001,"ADDRESS":"大廟一街２８巷２１弄２２號","OBJECTID":173947},"geometry":{"x":175720.99000000022,"y":2544122.120000001}},{"attributes":{"ID":173949,"DIS_CODE":0,"TOWNNAME":"安定區","LI":"港南里","LIN":"10鄰","STREET":" ","SECT":" ","MAREA":"港口","LANE":" ","ALLEY":" ","HOUSE_NO":"７０號","E_COORD97":171381.73999999999,"N_COORD97":2554361.25,"ADDRESS":"港口７０號","OBJECTID":173948},"geometry":{"x":171381.74000000022,"y":2554361.2500000019}},{"attributes":{"ID":173950,"DIS_CODE":0,"TOWNNAME":"歸仁區","LI":"七甲里","LIN":"18鄰","STREET":"南潭三街","SECT":" ","MAREA":" ","LANE":"１６２巷","ALLEY":"８弄","HOUSE_NO":"１６號","E_COORD97":176405.53,"N_COORD97":2543150.0299999998,"ADDRESS":"南潭三街１６２巷８弄１６號","OBJECTID":173949},"geometry":{"x":176405.53000000026,"y":2543150.0300000012}},{"attributes":{"ID":173951,"DIS_CODE":0,"TOWNNAME":"歸仁區","LI":"七甲里","LIN":"17鄰","STREET":"南潭三街","SECT":" ","MAREA":" ","LANE":"１６２巷","ALLEY":"１９弄","HOUSE_NO":"１７號","E_COORD97":176486.28,"N_COORD97":2543050.0299999998,"ADDRESS":"南潭三街１６２巷１９弄１７號","OBJECTID":173950},"geometry":{"x":176486.28000000119,"y":2543050.0299999975}},{"attributes":{"ID":173952,"DIS_CODE":0,"TOWNNAME":"歸仁區","LI":"大廟里","LIN":"4鄰","STREET":"和順路","SECT":"二段","MAREA":" ","LANE":"１５１巷","ALLEY":"３９弄","HOUSE_NO":"２１號","E_COORD97":176210,"N_COORD97":2543568.98,"ADDRESS":"和順路二段１５１巷３９弄２１號","OBJECTID":173951},"geometry":{"x":176210.00000000093,"y":2543568.9800000004}},{"attributes":{"ID":173953,"DIS_CODE":0,"TOWNNAME":"歸仁區","LI":"七甲里","LIN":"18鄰","STREET":"南潭三街","SECT":" ","MAREA":" ","LANE":"１６２巷","ALLEY":"１１弄","HOUSE_NO":"５號","E_COORD97":176457.73000000001,"N_COORD97":2543120.0299999998,"ADDRESS":"南潭三街１６２巷１１弄５號","OBJECTID":173952},"geometry":{"x":176457.73000000231,"y":2543120.0299999993}},{"attributes":{"ID":173954,"DIS_CODE":0,"TOWNNAME":"歸仁區","LI":"七甲里","LIN":"20鄰","STREET":"南潭三街","SECT":" ","MAREA":" ","LANE":"１６５巷","ALLEY":"３弄","HOUSE_NO":"２號","E_COORD97":176444.78,"N_COORD97":2543246.0299999998,"ADDRESS":"南潭三街１６５巷３弄２號","OBJECTID":173953},"geometry":{"x":176444.78000000026,"y":2543246.0299999993}},{"attributes":{"ID":173955,"DIS_CODE":0,"TOWNNAME":"歸仁區","LI":"大廟里","LIN":"20鄰","STREET":"大廟一街","SECT":" ","MAREA":" ","LANE":"２８巷","ALLEY":"５５弄","HOUSE_NO":"３５號","E_COORD97":175670.75,"N_COORD97":2544152.1200000001,"ADDRESS":"大廟一街２８巷５５弄３５號","OBJECTID":173954},"geometry":{"x":175670.75000000093,"y":2544152.120000001}},{"attributes":{"ID":173956,"DIS_CODE":0,"TOWNNAME":"歸仁區","LI":"七甲里","LIN":"18鄰","STREET":"南潭三街","SECT":" ","MAREA":" ","LANE":"１６２巷","ALLEY":"１２弄","HOUSE_NO":"８號","E_COORD97":176425.92999999999,"N_COORD97":2543117.0299999998,"ADDRESS":"南潭三街１６２巷１２弄８號","OBJECTID":173955},"geometry":{"x":176425.9299999997,"y":2543117.0299999993}},{"attributes":{"ID":173957,"DIS_CODE":0,"TOWNNAME":"歸仁區","LI":"大廟里","LIN":"20鄰","STREET":"大廟一街","SECT":" ","MAREA":" ","LANE":"２８巷","ALLEY":"５５弄","HOUSE_NO":"３１號","E_COORD97":175695.45000000001,"N_COORD97":2544163.1200000001,"ADDRESS":"大廟一街２８巷５５弄３１號","OBJECTID":173956},"geometry":{"x":175695.45000000112,"y":2544163.120000001}},{"attributes":{"ID":173958,"DIS_CODE":0,"TOWNNAME":"歸仁區","LI":"七甲里","LIN":"18鄰","STREET":"南潭三街","SECT":" ","MAREA":" ","LANE":"１６２巷","ALLEY":"７弄","HOUSE_NO":"１６號","E_COORD97":176479.32999999999,"N_COORD97":2543143.0299999998,"ADDRESS":"南潭三街１６２巷７弄１６號","OBJECTID":173957},"geometry":{"x":176479.33000000101,"y":2543143.0300000012}},{"attributes":{"ID":173959,"DIS_CODE":0,"TOWNNAME":"歸仁區","LI":"大廟里","LIN":"4鄰","STREET":"和順路","SECT":"二段","MAREA":" ","LANE":"１５１巷","ALLEY":"３９弄","HOUSE_NO":"３５號","E_COORD97":176215,"N_COORD97":2543541.98,"ADDRESS":"和順路二段１５１巷３９弄３５號","OBJECTID":173958},"geometry":{"x":176215.00000000093,"y":2543541.9800000004}},{"attributes":{"ID":173960,"DIS_CODE":0,"TOWNNAME":"歸仁區","LI":"大廟里","LIN":"4鄰","STREET":"和順路","SECT":"二段","MAREA":" ","LANE":"１５１巷","ALLEY":"３９弄","HOUSE_NO":"１３號","E_COORD97":176199.79999999999,"N_COORD97":2543574.98,"ADDRESS":"和順路二段１５１巷３９弄１３號","OBJECTID":173959},"geometry":{"x":176199.79999999981,"y":2543574.9800000023}},{"attributes":{"ID":173961,"DIS_CODE":0,"TOWNNAME":"善化區","LI":"文昌里","LIN":"15鄰","STREET":"大信路","SECT":" ","MAREA":" ","LANE":" ","ALLEY":" ","HOUSE_NO":"６９號八樓","E_COORD97":177607.37,"N_COORD97":2558777.75,"ADDRESS":"大信路６９號八樓","OBJECTID":173960},"geometry":{"x":177607.37000000197,"y":2558777.7500000037}},{"attributes":{"ID":173962,"DIS_CODE":0,"TOWNNAME":"善化區","LI":"文昌里","LIN":"15鄰","STREET":"大信路","SECT":" ","MAREA":" ","LANE":" ","ALLEY":" ","HOUSE_NO":"６７號四樓","E_COORD97":177597.67999999999,"N_COORD97":2558743.5,"ADDRESS":"大信路６７號四樓","OBJECTID":173961},"geometry":{"x":177597.6799999997,"y":2558743.5000000019}},{"attributes":{"ID":173963,"DIS_CODE":0,"TOWNNAME":"善化區","LI":"文昌里","LIN":"15鄰","STREET":"大信路","SECT":" ","MAREA":" ","LANE":" ","ALLEY":" ","HOUSE_NO":"６１號七樓","E_COORD97":177589.53,"N_COORD97":2558766.25,"ADDRESS":"大信路６１號七樓","OBJECTID":173962},"geometry":{"x":177589.53000000212,"y":2558766.25}},{"attributes":{"ID":173964,"DIS_CODE":0,"TOWNNAME":"新化區","LI":"護國里","LIN":"10鄰","STREET":"中山路","SECT":" ","MAREA":" ","LANE":" ","ALLEY":" ","HOUSE_NO":"９８號","E_COORD97":179571.76000000001,"N_COORD97":2549070.25,"ADDRESS":"中山路９８號","OBJECTID":173963},"geometry":{"x":179571.75999999978,"y":2549070.25}},{"attributes":{"ID":173965,"DIS_CODE":0,"TOWNNAME":"東區","LI":"南聖里","LIN":"10鄰","STREET":"裕和路","SECT":" ","MAREA":" ","LANE":" ","ALLEY":" ","HOUSE_NO":"１９９號","E_COORD97":172337.66,"N_COORD97":2543159.71,"ADDRESS":"裕和路１９９號","OBJECTID":173964},"geometry":{"x":172337.66000000015,"y":2543159.7100000028}},{"attributes":{"ID":173966,"DIS_CODE":0,"TOWNNAME":"東區","LI":"南聖里","LIN":"10鄰","STREET":"裕和路","SECT":" ","MAREA":" ","LANE":" ","ALLEY":" ","HOUSE_NO":"１９７號","E_COORD97":172315.82999999999,"N_COORD97":2543157.48,"ADDRESS":"裕和路１９７號","OBJECTID":173965},"geometry":{"x":172315.83000000101,"y":2543157.4800000023}},{"attributes":{"ID":173967,"DIS_CODE":0,"TOWNNAME":"中西區","LI":"仙草里","LIN":"10鄰","STREET":"府緯街","SECT":" ","MAREA":" ","LANE":" ","ALLEY":" ","HOUSE_NO":"２０號","E_COORD97":167921.78,"N_COORD97":2542728.0899999999,"ADDRESS":"府緯街２０號","OBJECTID":173966},"geometry":{"x":167921.78000000212,"y":2542728.089999998}},{"attributes":{"ID":173968,"DIS_CODE":0,"TOWNNAME":"歸仁區","LI":"七甲里","LIN":"18鄰","STREET":"南潭三街","SECT":" ","MAREA":" ","LANE":"１６２巷","ALLEY":"１２弄","HOUSE_NO":"１６號","E_COORD97":176407.67999999999,"N_COORD97":2543116.0299999998,"ADDRESS":"南潭三街１６２巷１２弄１６號","OBJECTID":173967},"geometry":{"x":176407.6799999997,"y":2543116.0300000012}},{"attributes":{"ID":173969,"DIS_CODE":0,"TOWNNAME":"歸仁區","LI":"七甲里","LIN":"4鄰","STREET":"中正北路","SECT":"二段","MAREA":" ","LANE":"５１６巷","ALLEY":"５２弄","HOUSE_NO":"１０號","E_COORD97":177546.62,"N_COORD97":2543189.2599999998,"ADDRESS":"中正北路二段５１６巷５２弄１０號","OBJECTID":173968},"geometry":{"x":177546.62000000104,"y":2543189.2600000016}},{"attributes":{"ID":173970,"DIS_CODE":0,"TOWNNAME":"歸仁區","LI":"大廟里","LIN":"20鄰","STREET":"大廟一街","SECT":" ","MAREA":" ","LANE":"２８巷","ALLEY":"５５弄","HOUSE_NO":"２３號","E_COORD97":175718.67000000001,"N_COORD97":2544145.25,"ADDRESS":"大廟一街２８巷５５弄２３號","OBJECTID":173969},"geometry":{"x":175718.67000000086,"y":2544145.2500000019}},{"attributes":{"ID":173971,"DIS_CODE":0,"TOWNNAME":"歸仁區","LI":"六甲里","LIN":"41鄰","STREET":"民生十二街","SECT":" ","MAREA":" ","LANE":"２７巷","ALLEY":"１０弄","HOUSE_NO":"８號","E_COORD97":176026.81,"N_COORD97":2539400.77,"ADDRESS":"民生十二街２７巷１０弄８號","OBJECTID":173970},"geometry":{"x":176026.80999999959,"y":2539400.7700000033}},{"attributes":{"ID":173972,"DIS_CODE":0,"TOWNNAME":"歸仁區","LI":"大廟里","LIN":"17鄰","STREET":"保大路","SECT":"三段","MAREA":" ","LANE":"３６６巷","ALLEY":"２２弄","HOUSE_NO":"１號","E_COORD97":175631.32000000001,"N_COORD97":2544896.2799999998,"ADDRESS":"保大路三段３６６巷２２弄１號","OBJECTID":173971},"geometry":{"x":175631.32000000216,"y":2544896.2800000031}},{"attributes":{"ID":173973,"DIS_CODE":0,"TOWNNAME":"歸仁區","LI":"七甲里","LIN":"18鄰","STREET":"南潭三街","SECT":" ","MAREA":" ","LANE":"１６２巷","ALLEY":"７弄","HOUSE_NO":"６號","E_COORD97":176453.48000000001,"N_COORD97":2543142.0299999998,"ADDRESS":"南潭三街１６２巷７弄６號","OBJECTID":173972},"geometry":{"x":176453.48000000045,"y":2543142.0300000031}},{"attributes":{"ID":173974,"DIS_CODE":0,"TOWNNAME":"歸仁區","LI":"六甲里","LIN":"34鄰","STREET":"六甲六街","SECT":" ","MAREA":" ","LANE":"１１巷","ALLEY":"１弄","HOUSE_NO":"１２號","E_COORD97":175576.56060900001,"N_COORD97":2539320.7916199998,"ADDRESS":"六甲六街１１巷１弄１２號","OBJECTID":173973},"geometry":{"x":175576.56060900073,"y":2539320.7916210014}},{"attributes":{"ID":173975,"DIS_CODE":0,"TOWNNAME":"歸仁區","LI":"大廟里","LIN":"20鄰","STREET":"大廟一街","SECT":" ","MAREA":" ","LANE":"２８巷","ALLEY":"２１弄","HOUSE_NO":"２４號","E_COORD97":175714.47,"N_COORD97":2544129.25,"ADDRESS":"大廟一街２８巷２１弄２４號","OBJECTID":173974},"geometry":{"x":175714.4700000016,"y":2544129.2500000019}},{"attributes":{"ID":173976,"DIS_CODE":0,"TOWNNAME":"歸仁區","LI":"大廟里","LIN":"20鄰","STREET":"大廟一街","SECT":" ","MAREA":" ","LANE":"２８巷","ALLEY":"５５弄","HOUSE_NO":"１號","E_COORD97":175690.01999999999,"N_COORD97":2544206.25,"ADDRESS":"大廟一街２８巷５５弄１號","OBJECTID":173975},"geometry":{"x":175690.01999999955,"y":2544206.2500000019}},{"attributes":{"ID":173977,"DIS_CODE":0,"TOWNNAME":"歸仁區","LI":"大廟里","LIN":"13鄰","STREET":"大廟六街","SECT":" ","MAREA":" ","LANE":"１１０巷","ALLEY":"２０弄","HOUSE_NO":"２號","E_COORD97":176220.37,"N_COORD97":2544215.25,"ADDRESS":"大廟六街１１０巷２０弄２號","OBJECTID":173976},"geometry":{"x":176220.37000000011,"y":2544215.25}},{"attributes":{"ID":173978,"DIS_CODE":0,"TOWNNAME":"歸仁區","LI":"七甲里","LIN":"18鄰","STREET":"南潭三街","SECT":" ","MAREA":" ","LANE":"１６２巷","ALLEY":"８弄","HOUSE_NO":"３號","E_COORD97":176427.88,"N_COORD97":2543142.0299999998,"ADDRESS":"南潭三街１６２巷８弄３號","OBJECTID":173977},"geometry":{"x":176427.88000000082,"y":2543142.0300000031}},{"attributes":{"ID":173979,"DIS_CODE":0,"TOWNNAME":"歸仁區","LI":"七甲里","LIN":"20鄰","STREET":"南潭三街","SECT":" ","MAREA":" ","LANE":"１６５巷","ALLEY":"７弄","HOUSE_NO":"１號","E_COORD97":176442.98000000001,"N_COORD97":2543298.0299999998,"ADDRESS":"南潭三街１６５巷７弄１號","OBJECTID":173978},"geometry":{"x":176442.98000000138,"y":2543298.0300000031}},{"attributes":{"ID":173980,"DIS_CODE":0,"TOWNNAME":"歸仁區","LI":"七甲里","LIN":"20鄰","STREET":"南潭三街","SECT":" ","MAREA":" ","LANE":"１６５巷","ALLEY":"３弄","HOUSE_NO":"１號","E_COORD97":176444.88,"N_COORD97":2543265.0299999998,"ADDRESS":"南潭三街１６５巷３弄１號","OBJECTID":173979},"geometry":{"x":176444.88000000082,"y":2543265.0300000012}},{"attributes":{"ID":173981,"DIS_CODE":0,"TOWNNAME":"北區","LI":"文元里","LIN":"14鄰","STREET":"文賢路","SECT":" ","MAREA":" ","LANE":"１０３０巷","ALLEY":"３弄","HOUSE_NO":"３２號","E_COORD97":167407.89999999999,"N_COORD97":2546156.4199999999,"ADDRESS":"文賢路１０３０巷３弄３２號","OBJECTID":173980},"geometry":{"x":167407.9000000013,"y":2546156.4199999999}},{"attributes":{"ID":173982,"DIS_CODE":0,"TOWNNAME":"柳營區","LI":"士林里","LIN":"12鄰","STREET":"柳營路","SECT":"二段","MAREA":" ","LANE":"１９巷","ALLEY":"２弄","HOUSE_NO":"２號","E_COORD97":179625.73000000001,"N_COORD97":2575159.04,"ADDRESS":"柳營路二段１９巷２弄２號","OBJECTID":173981},"geometry":{"x":179625.73000000045,"y":2575159.0399999991}},{"attributes":{"ID":173983,"DIS_CODE":0,"TOWNNAME":"柳營區","LI":"士林里","LIN":"12鄰","STREET":"柳營路","SECT":"二段","MAREA":" ","LANE":"１９巷","ALLEY":"２弄","HOUSE_NO":"６號","E_COORD97":179623.98999999999,"N_COORD97":2575164.3900000001,"ADDRESS":"柳營路二段１９巷２弄６號","OBJECTID":173982},"geometry":{"x":179623.99000000209,"y":2575164.3900000025}},{"attributes":{"ID":173984,"DIS_CODE":0,"TOWNNAME":"中西區","LI":"仙草里","LIN":"10鄰","STREET":"府緯街","SECT":" ","MAREA":" ","LANE":" ","ALLEY":" ","HOUSE_NO":"８號","E_COORD97":167942.78,"N_COORD97":2542727.3900000001,"ADDRESS":"府緯街８號","OBJECTID":173983},"geometry":{"x":167942.78000000119,"y":2542727.3900000025}},{"attributes":{"ID":173985,"DIS_CODE":0,"TOWNNAME":"柳營區","LI":"士林里","LIN":"12鄰","STREET":"柳營路","SECT":"二段","MAREA":" ","LANE":"１９巷","ALLEY":"２弄","HOUSE_NO":"８號","E_COORD97":179622.13,"N_COORD97":2575169.77,"ADDRESS":"柳營路二段１９巷２弄８號","OBJECTID":173984},"geometry":{"x":179622.12999999989,"y":2575169.7700000014}},{"attributes":{"ID":173986,"DIS_CODE":0,"TOWNNAME":"善化區","LI":"什乃里","LIN":"10鄰","STREET":" ","SECT":" ","MAREA":"什乃","LANE":" ","ALLEY":" ","HOUSE_NO":"１８１號","E_COORD97":177072.45999999999,"N_COORD97":2559823.75,"ADDRESS":"什乃１８１號","OBJECTID":173985},"geometry":{"x":177072.45999999903,"y":2559823.75}},{"attributes":{"ID":173987,"DIS_CODE":0,"TOWNNAME":"柳營區","LI":"人和里","LIN":"17鄰","STREET":"柳營路","SECT":"三段","MAREA":" ","LANE":"４２０巷","ALLEY":"２弄","HOUSE_NO":"１０號","E_COORD97":179736.03,"N_COORD97":2577016.5099999998,"ADDRESS":"柳營路三段４２０巷２弄１０號","OBJECTID":173986},"geometry":{"x":179736.03000000119,"y":2577016.5100000016}},{"attributes":{"ID":173988,"DIS_CODE":0,"TOWNNAME":"柳營區","LI":"人和里","LIN":"17鄰","STREET":"柳營路","SECT":"三段","MAREA":" ","LANE":"４２０巷","ALLEY":"２弄","HOUSE_NO":"１２號","E_COORD97":179735.75,"N_COORD97":2577010.6800000002,"ADDRESS":"柳營路三段４２０巷２弄１２號","OBJECTID":173987},"geometry":{"x":179735.75000000093,"y":2577010.6799999997}},{"attributes":{"ID":173989,"DIS_CODE":0,"TOWNNAME":"仁德區","LI":"中生里","LIN":"10鄰","STREET":" ","SECT":" ","MAREA":"中洲","LANE":" ","ALLEY":" ","HOUSE_NO":"１７４號","E_COORD97":173172.20999999999,"N_COORD97":2534049.4900000002,"ADDRESS":"中洲１７４號","OBJECTID":173988},"geometry":{"x":173172.21000000089,"y":2534049.4900000002}},{"attributes":{"ID":173990,"DIS_CODE":0,"TOWNNAME":"柳營區","LI":"人和里","LIN":"17鄰","STREET":"柳營路","SECT":"三段","MAREA":" ","LANE":"４２０巷","ALLEY":"２弄","HOUSE_NO":"１號","E_COORD97":179752.79000000001,"N_COORD97":2577034.6299999999,"ADDRESS":"柳營路三段４２０巷２弄１號","OBJECTID":173989},"geometry":{"x":179752.79000000097,"y":2577034.6300000027}},{"attributes":{"ID":173991,"DIS_CODE":0,"TOWNNAME":"柳營區","LI":"人和里","LIN":"17鄰","STREET":"柳營路","SECT":"三段","MAREA":" ","LANE":"４２０巷","ALLEY":"２弄","HOUSE_NO":"２號","E_COORD97":179736.84,"N_COORD97":2577033.98,"ADDRESS":"柳營路三段４２０巷２弄２號","OBJECTID":173990},"geometry":{"x":179736.84000000078,"y":2577033.9800000023}},{"attributes":{"ID":173992,"DIS_CODE":0,"TOWNNAME":"柳營區","LI":"人和里","LIN":"17鄰","STREET":"柳營路","SECT":"三段","MAREA":" ","LANE":"４２０巷","ALLEY":"２弄","HOUSE_NO":"３號","E_COORD97":179752.42999999999,"N_COORD97":2577027.7799999998,"ADDRESS":"柳營路三段４２０巷２弄３號","OBJECTID":173991},"geometry":{"x":179752.4299999997,"y":2577027.7800000012}},{"attributes":{"ID":173993,"DIS_CODE":0,"TOWNNAME":"柳營區","LI":"人和里","LIN":"17鄰","STREET":"柳營路","SECT":"三段","MAREA":" ","LANE":"４２０巷","ALLEY":"２弄","HOUSE_NO":"５號","E_COORD97":179752.06,"N_COORD97":2577020.9300000002,"ADDRESS":"柳營路三段４２０巷２弄５號","OBJECTID":173992},"geometry":{"x":179752.06000000052,"y":2577020.9300000016}},{"attributes":{"ID":173994,"DIS_CODE":0,"TOWNNAME":"柳營區","LI":"人和里","LIN":"17鄰","STREET":"柳營路","SECT":"三段","MAREA":" ","LANE":"４２０巷","ALLEY":"２弄","HOUSE_NO":"６號","E_COORD97":179736.57000000001,"N_COORD97":2577028.1600000001,"ADDRESS":"柳營路三段４２０巷２弄６號","OBJECTID":173993},"geometry":{"x":179736.5700000003,"y":2577028.1600000001}},{"attributes":{"ID":173995,"DIS_CODE":0,"TOWNNAME":"柳營區","LI":"人和里","LIN":"17鄰","STREET":"柳營路","SECT":"三段","MAREA":" ","LANE":"４２０巷","ALLEY":"２弄","HOUSE_NO":"８號","E_COORD97":179736.29999999999,"N_COORD97":2577022.3300000001,"ADDRESS":"柳營路三段４２０巷２弄８號","OBJECTID":173994},"geometry":{"x":179736.29999999981,"y":2577022.3300000019}},{"attributes":{"ID":173996,"DIS_CODE":0,"TOWNNAME":"柳營區","LI":"大農里","LIN":"6鄰","STREET":"義士路","SECT":"一段","MAREA":" ","LANE":"２４７巷","ALLEY":"１２６弄","HOUSE_NO":"６號","E_COORD97":186207.98999999999,"N_COORD97":2575694.8700000001,"ADDRESS":"義士路一段２４７巷１２６弄６號","OBJECTID":173995},"geometry":{"x":186207.99000000209,"y":2575694.870000001}},{"attributes":{"ID":173997,"DIS_CODE":0,"TOWNNAME":"柳營區","LI":"大農里","LIN":"7鄰","STREET":"義士路","SECT":"一段","MAREA":" ","LANE":"２４７巷","ALLEY":"１０弄","HOUSE_NO":"１０號","E_COORD97":186321.94,"N_COORD97":2575757.1000000001,"ADDRESS":"義士路一段２４７巷１０弄１０號","OBJECTID":173996},"geometry":{"x":186321.94000000041,"y":2575757.1000000034}},{"attributes":{"ID":173998,"DIS_CODE":0,"TOWNNAME":"柳營區","LI":"大農里","LIN":"7鄰","STREET":"義士路","SECT":"一段","MAREA":" ","LANE":"２４７巷","ALLEY":"１０弄","HOUSE_NO":"２號","E_COORD97":186344.75,"N_COORD97":2575772.27,"ADDRESS":"義士路一段２４７巷１０弄２號","OBJECTID":173997},"geometry":{"x":186344.75,"y":2575772.2699999996}},{"attributes":{"ID":173999,"DIS_CODE":0,"TOWNNAME":"新化區","LI":"唪口里","LIN":"10鄰","STREET":" ","SECT":" ","MAREA":"唪口","LANE":" ","ALLEY":" ","HOUSE_NO":"１４７號之６","E_COORD97":177769.79999999999,"N_COORD97":2549054.2599999998,"ADDRESS":"唪口１４７號之６","OBJECTID":173998},"geometry":{"x":177769.79999999981,"y":2549054.2600000016}},{"attributes":{"ID":174000,"DIS_CODE":0,"TOWNNAME":"白河區","LI":"河東里","LIN":"10鄰","STREET":" ","SECT":" ","MAREA":"糞箕湖","LANE":" ","ALLEY":" ","HOUSE_NO":"１３３號","E_COORD97":191018.73999999999,"N_COORD97":2582550.77,"ADDRESS":"糞箕湖１３３號","OBJECTID":173999},"geometry":{"x":191018.74000000022,"y":2582550.7700000014}},{"attributes":{"ID":174001,"DIS_CODE":0,"TOWNNAME":"柳營區","LI":"大農里","LIN":"7鄰","STREET":"義士路","SECT":"一段","MAREA":" ","LANE":"２４７巷","ALLEY":"１０弄","HOUSE_NO":"８號","E_COORD97":186336.07999999999,"N_COORD97":2575766.8300000001,"ADDRESS":"義士路一段２４７巷１０弄８號","OBJECTID":174000},"geometry":{"x":186336.08000000194,"y":2575766.8300000019}}]}