{"displayFieldName":"TOWNNAME","fieldAliases":{"ID":"ID","DIS_CODE":"DIS_CODE","TOWNNAME":"TOWNNAME","LI":"LI","LIN":"LIN","STREET":"STREET","SECT":"SECT","MAREA":"MAREA","LANE":"LANE","ALLEY":"ALLEY","HOUSE_NO":"HOUSE_NO","E_COORD97":"E_COORD97","N_COORD97":"N_COORD97","ADDRESS":"ADDRESS","OBJECTID":"OBJECTID"},"geometryType":"esriGeometryPoint","spatialReference":{"wkid":102443,"latestWkid":3826},"fields":[{"name":"ID","type":"esriFieldTypeDouble","alias":"ID"},{"name":"DIS_CODE","type":"esriFieldTypeInteger","alias":"DIS_CODE"},{"name":"TOWNNAME","type":"esriFieldTypeString","alias":"TOWNNAME","length":8},{"name":"LI","type":"esriFieldTypeString","alias":"LI","length":8},{"name":"LIN","type":"esriFieldTypeString","alias":"LIN","length":12},{"name":"STREET","type":"esriFieldTypeString","alias":"STREET","length":20},{"name":"SECT","type":"esriFieldTypeString","alias":"SECT","length":8},{"name":"MAREA","type":"esriFieldTypeString","alias":"MAREA","length":12},{"name":"LANE","type":"esriFieldTypeString","alias":"LANE","length":10},{"name":"ALLEY","type":"esriFieldTypeString","alias":"ALLEY","length":10},{"name":"HOUSE_NO","type":"esriFieldTypeString","alias":"HOUSE_NO","length":20},{"name":"E_COORD97","type":"esriFieldTypeDouble","alias":"E_COORD97"},{"name":"N_COORD97","type":"esriFieldTypeDouble","alias":"N_COORD97"},{"name":"ADDRESS","type":"esriFieldTypeString","alias":"ADDRESS","length":50},{"name":"OBJECTID","type":"esriFieldTypeOID","alias":"OBJECTID"}],"features":[{"attributes":{"ID":569628,"DIS_CODE":0,"TOWNNAME":"柳營區","LI":"東昇里","LIN":"28鄰","STREET":"中山西路","SECT":"一段","MAREA":" ","LANE":" ","ALLEY":" ","HOUSE_NO":"１１３號","E_COORD97":180620.64999999999,"N_COORD97":2575331.5800000001,"ADDRESS":"中山西路一段１１３號","OBJECTID":569601},"geometry":{"x":180620.65000000037,"y":2575331.5800000019}},{"attributes":{"ID":569629,"DIS_CODE":0,"TOWNNAME":"柳營區","LI":"光福里","LIN":"28鄰","STREET":"光福七街","SECT":" ","MAREA":" ","LANE":" ","ALLEY":" ","HOUSE_NO":"１５８號","E_COORD97":179737.98999999999,"N_COORD97":2575801.9900000002,"ADDRESS":"光福七街１５８號","OBJECTID":569602},"geometry":{"x":179737.99000000115,"y":2575801.9900000002}},{"attributes":{"ID":569630,"DIS_CODE":0,"TOWNNAME":"柳營區","LI":"光福里","LIN":"28鄰","STREET":"光福七街","SECT":" ","MAREA":" ","LANE":" ","ALLEY":" ","HOUSE_NO":"１６２號","E_COORD97":179735.67000000001,"N_COORD97":2575813.8300000001,"ADDRESS":"光福七街１６２號","OBJECTID":569603},"geometry":{"x":179735.66999999993,"y":2575813.8300000038}},{"attributes":{"ID":569631,"DIS_CODE":0,"TOWNNAME":"柳營區","LI":"光福里","LIN":"28鄰","STREET":"光福七街","SECT":" ","MAREA":" ","LANE":" ","ALLEY":" ","HOUSE_NO":"１７０號","E_COORD97":179738.88,"N_COORD97":2575834.5499999998,"ADDRESS":"光福七街１７０號","OBJECTID":569604},"geometry":{"x":179738.87999999989,"y":2575834.5500000026}},{"attributes":{"ID":569632,"DIS_CODE":0,"TOWNNAME":"柳營區","LI":"光福里","LIN":"28鄰","STREET":"光福七街","SECT":" ","MAREA":" ","LANE":" ","ALLEY":" ","HOUSE_NO":"１７８號","E_COORD97":179738.76000000001,"N_COORD97":2575853.8399999999,"ADDRESS":"光福七街１７８號","OBJECTID":569605},"geometry":{"x":179738.76000000071,"y":2575853.839999998}},{"attributes":{"ID":569633,"DIS_CODE":0,"TOWNNAME":"柳營區","LI":"光福里","LIN":"28鄰","STREET":"光福七街","SECT":" ","MAREA":" ","LANE":" ","ALLEY":" ","HOUSE_NO":"２０６號","E_COORD97":179751.64999999999,"N_COORD97":2575877.5699999998,"ADDRESS":"光福七街２０６號","OBJECTID":569606},"geometry":{"x":179751.65000000037,"y":2575877.5700000022}},{"attributes":{"ID":569634,"DIS_CODE":0,"TOWNNAME":"柳營區","LI":"光福里","LIN":"28鄰","STREET":"光福七街","SECT":" ","MAREA":" ","LANE":" ","ALLEY":" ","HOUSE_NO":"２１０號","E_COORD97":179752.95000000001,"N_COORD97":2575886.6299999999,"ADDRESS":"光福七街２１０號","OBJECTID":569607},"geometry":{"x":179752.95000000205,"y":2575886.6300000008}},{"attributes":{"ID":569635,"DIS_CODE":0,"TOWNNAME":"柳營區","LI":"光福里","LIN":"28鄰","STREET":"光福七街","SECT":" ","MAREA":" ","LANE":" ","ALLEY":" ","HOUSE_NO":"２１６號","E_COORD97":179751.22,"N_COORD97":2575902.3700000001,"ADDRESS":"光福七街２１６號","OBJECTID":569608},"geometry":{"x":179751.22000000067,"y":2575902.3699999992}},{"attributes":{"ID":569636,"DIS_CODE":0,"TOWNNAME":"柳營區","LI":"光福里","LIN":"28鄰","STREET":"光福七街","SECT":" ","MAREA":" ","LANE":" ","ALLEY":" ","HOUSE_NO":"２１８號","E_COORD97":179756.37,"N_COORD97":2575917.6699999999,"ADDRESS":"光福七街２１８號","OBJECTID":569609},"geometry":{"x":179756.37000000011,"y":2575917.6700000018}},{"attributes":{"ID":569637,"DIS_CODE":0,"TOWNNAME":"柳營區","LI":"光福里","LIN":"28鄰","STREET":"光福七街","SECT":" ","MAREA":" ","LANE":" ","ALLEY":" ","HOUSE_NO":"２３０號","E_COORD97":179753.17999999999,"N_COORD97":2575935.1099999999,"ADDRESS":"光福七街２３０號","OBJECTID":569610},"geometry":{"x":179753.18000000063,"y":2575935.1099999994}},{"attributes":{"ID":569638,"DIS_CODE":0,"TOWNNAME":"玉井區","LI":"玉田里","LIN":"28鄰","STREET":"中山路","SECT":" ","MAREA":" ","LANE":" ","ALLEY":" ","HOUSE_NO":"２１號","E_COORD97":194964.01000000001,"N_COORD97":2557723.25,"ADDRESS":"中山路２１號","OBJECTID":569611},"geometry":{"x":194964.00999999978,"y":2557723.2500000037}},{"attributes":{"ID":569639,"DIS_CODE":0,"TOWNNAME":"南區","LI":"府南里","LIN":"28鄰","STREET":"大成路","SECT":"二段","MAREA":" ","LANE":" ","ALLEY":" ","HOUSE_NO":"５９號","E_COORD97":167545.09,"N_COORD97":2541724.9300000002,"ADDRESS":"大成路二段５９號","OBJECTID":569612},"geometry":{"x":167545.09000000078,"y":2541724.9299999997}},{"attributes":{"ID":569640,"DIS_CODE":0,"TOWNNAME":"南區","LI":"府南里","LIN":"28鄰","STREET":"大成路","SECT":"二段","MAREA":" ","LANE":" ","ALLEY":" ","HOUSE_NO":"３７號","E_COORD97":167592.29999999999,"N_COORD97":2541725.4199999999,"ADDRESS":"大成路二段３７號","OBJECTID":569613},"geometry":{"x":167592.30000000168,"y":2541725.4199999999}},{"attributes":{"ID":569641,"DIS_CODE":0,"TOWNNAME":"南區","LI":"府南里","LIN":"28鄰","STREET":"大成路","SECT":"二段","MAREA":" ","LANE":" ","ALLEY":" ","HOUSE_NO":"３９號","E_COORD97":167588.23999999999,"N_COORD97":2541724.27,"ADDRESS":"大成路二段３９號","OBJECTID":569614},"geometry":{"x":167588.24000000115,"y":2541724.2700000014}},{"attributes":{"ID":569642,"DIS_CODE":0,"TOWNNAME":"南區","LI":"府南里","LIN":"28鄰","STREET":"大成路","SECT":"二段","MAREA":" ","LANE":" ","ALLEY":" ","HOUSE_NO":"４１號","E_COORD97":167583.85000000001,"N_COORD97":2541725.4199999999,"ADDRESS":"大成路二段４１號","OBJECTID":569615},"geometry":{"x":167583.85000000056,"y":2541725.4199999999}},{"attributes":{"ID":569643,"DIS_CODE":0,"TOWNNAME":"南區","LI":"府南里","LIN":"28鄰","STREET":"大成路","SECT":"二段","MAREA":" ","LANE":" ","ALLEY":" ","HOUSE_NO":"４３號","E_COORD97":167579.76999999999,"N_COORD97":2541723.1899999999,"ADDRESS":"大成路二段４３號","OBJECTID":569616},"geometry":{"x":167579.76999999955,"y":2541723.1899999995}},{"attributes":{"ID":569644,"DIS_CODE":0,"TOWNNAME":"南區","LI":"府南里","LIN":"28鄰","STREET":"大成路","SECT":"二段","MAREA":" ","LANE":" ","ALLEY":" ","HOUSE_NO":"４５號","E_COORD97":167575.79999999999,"N_COORD97":2541725.1699999999,"ADDRESS":"大成路二段４５號","OBJECTID":569617},"geometry":{"x":167575.80000000075,"y":2541725.1700000018}},{"attributes":{"ID":569645,"DIS_CODE":0,"TOWNNAME":"南區","LI":"府南里","LIN":"28鄰","STREET":"大成路","SECT":"二段","MAREA":" ","LANE":" ","ALLEY":" ","HOUSE_NO":"４７號","E_COORD97":167571.57999999999,"N_COORD97":2541723.52,"ADDRESS":"大成路二段４７號","OBJECTID":569618},"geometry":{"x":167571.58000000007,"y":2541723.5199999996}},{"attributes":{"ID":569646,"DIS_CODE":0,"TOWNNAME":"南區","LI":"府南里","LIN":"28鄰","STREET":"大成路","SECT":"二段","MAREA":" ","LANE":" ","ALLEY":" ","HOUSE_NO":"４９號","E_COORD97":167566.35999999999,"N_COORD97":2541725.1699999999,"ADDRESS":"大成路二段４９號","OBJECTID":569619},"geometry":{"x":167566.36000000034,"y":2541725.1700000018}},{"attributes":{"ID":569647,"DIS_CODE":0,"TOWNNAME":"南區","LI":"府南里","LIN":"28鄰","STREET":"大成路","SECT":"二段","MAREA":" ","LANE":" ","ALLEY":" ","HOUSE_NO":"５１號","E_COORD97":167561.89000000001,"N_COORD97":2541724.02,"ADDRESS":"大成路二段５１號","OBJECTID":569620},"geometry":{"x":167561.8900000006,"y":2541724.0199999996}},{"attributes":{"ID":569648,"DIS_CODE":0,"TOWNNAME":"南區","LI":"府南里","LIN":"28鄰","STREET":"大成路","SECT":"二段","MAREA":" ","LANE":" ","ALLEY":" ","HOUSE_NO":"５３號","E_COORD97":167557.84,"N_COORD97":2541725.0899999999,"ADDRESS":"大成路二段５３號","OBJECTID":569621},"geometry":{"x":167557.83999999985,"y":2541725.0900000017}},{"attributes":{"ID":569649,"DIS_CODE":0,"TOWNNAME":"南區","LI":"府南里","LIN":"28鄰","STREET":"大成路","SECT":"二段","MAREA":" ","LANE":" ","ALLEY":" ","HOUSE_NO":"５７號","E_COORD97":167549.39000000001,"N_COORD97":2541724.6800000002,"ADDRESS":"大成路二段５７號","OBJECTID":569622},"geometry":{"x":167549.3900000006,"y":2541724.6800000016}},{"attributes":{"ID":569650,"DIS_CODE":0,"TOWNNAME":"南區","LI":"府南里","LIN":"28鄰","STREET":"大成路","SECT":"二段","MAREA":" ","LANE":" ","ALLEY":" ","HOUSE_NO":"５５號","E_COORD97":167553.78,"N_COORD97":2541724.7599999998,"ADDRESS":"大成路二段５５號","OBJECTID":569623},"geometry":{"x":167553.78000000026,"y":2541724.7600000016}},{"attributes":{"ID":569651,"DIS_CODE":0,"TOWNNAME":"歸仁區","LI":"辜厝里","LIN":"28鄰","STREET":"大吉二街","SECT":" ","MAREA":" ","LANE":" ","ALLEY":" ","HOUSE_NO":"２７號","E_COORD97":177290.04000000001,"N_COORD97":2540547.6800000002,"ADDRESS":"大吉二街２７號","OBJECTID":569624},"geometry":{"x":177290.04000000004,"y":2540547.6800000034}},{"attributes":{"ID":569652,"DIS_CODE":0,"TOWNNAME":"歸仁區","LI":"辜厝里","LIN":"28鄰","STREET":"大吉二街","SECT":" ","MAREA":" ","LANE":" ","ALLEY":" ","HOUSE_NO":"１號","E_COORD97":177224.19,"N_COORD97":2540549.6800000002,"ADDRESS":"大吉二街１號","OBJECTID":569625},"geometry":{"x":177224.19000000227,"y":2540549.6799999997}},{"attributes":{"ID":569653,"DIS_CODE":0,"TOWNNAME":"歸仁區","LI":"辜厝里","LIN":"28鄰","STREET":"大吉街","SECT":" ","MAREA":" ","LANE":" ","ALLEY":" ","HOUSE_NO":"１１１號","E_COORD97":177212.23999999999,"N_COORD97":2540569.6800000002,"ADDRESS":"大吉街１１１號","OBJECTID":569626},"geometry":{"x":177212.24000000115,"y":2540569.6799999997}},{"attributes":{"ID":569654,"DIS_CODE":0,"TOWNNAME":"歸仁區","LI":"崙頂里","LIN":"28鄰","STREET":"成功十街","SECT":" ","MAREA":" ","LANE":" ","ALLEY":" ","HOUSE_NO":"９０號","E_COORD97":177799.04000000001,"N_COORD97":2539770.5499999998,"ADDRESS":"成功十街９０號","OBJECTID":569627},"geometry":{"x":177799.04000000004,"y":2539770.5500000026}},{"attributes":{"ID":569655,"DIS_CODE":0,"TOWNNAME":"歸仁區","LI":"崙頂里","LIN":"28鄰","STREET":"成功十街","SECT":" ","MAREA":" ","LANE":" ","ALLEY":" ","HOUSE_NO":"６８號","E_COORD97":177787.44,"N_COORD97":2539710.5499999998,"ADDRESS":"成功十街６８號","OBJECTID":569628},"geometry":{"x":177787.44000000134,"y":2539710.5500000007}},{"attributes":{"ID":569656,"DIS_CODE":0,"TOWNNAME":"歸仁區","LI":"許厝里","LIN":"28鄰","STREET":"中山路","SECT":"一段","MAREA":" ","LANE":" ","ALLEY":" ","HOUSE_NO":"５０４號","E_COORD97":177889.67999999999,"N_COORD97":2540758.04,"ADDRESS":"中山路一段５０４號","OBJECTID":569629},"geometry":{"x":177889.68000000156,"y":2540758.0400000028}},{"attributes":{"ID":569657,"DIS_CODE":0,"TOWNNAME":"歸仁區","LI":"辜厝里","LIN":"28鄰","STREET":"大吉街","SECT":" ","MAREA":" ","LANE":" ","ALLEY":" ","HOUSE_NO":"１１５號","E_COORD97":177213.14000000001,"N_COORD97":2540558.6800000002,"ADDRESS":"大吉街１１５號","OBJECTID":569630},"geometry":{"x":177213.13999999966,"y":2540558.6800000016}},{"attributes":{"ID":569658,"DIS_CODE":0,"TOWNNAME":"歸仁區","LI":"辜厝里","LIN":"28鄰","STREET":"大吉二街","SECT":" ","MAREA":" ","LANE":" ","ALLEY":" ","HOUSE_NO":"２３號","E_COORD97":177278.73999999999,"N_COORD97":2540551.6699999999,"ADDRESS":"大吉二街２３號","OBJECTID":569631},"geometry":{"x":177278.74000000022,"y":2540551.6700000018}},{"attributes":{"ID":569659,"DIS_CODE":0,"TOWNNAME":"歸仁區","LI":"許厝里","LIN":"28鄰","STREET":"中山路","SECT":"一段","MAREA":" ","LANE":" ","ALLEY":" ","HOUSE_NO":"５００號","E_COORD97":177899.88,"N_COORD97":2540756.04,"ADDRESS":"中山路一段５００號","OBJECTID":569632},"geometry":{"x":177899.87999999989,"y":2540756.040000001}},{"attributes":{"ID":569660,"DIS_CODE":0,"TOWNNAME":"歸仁區","LI":"崙頂里","LIN":"28鄰","STREET":"成功十街","SECT":" ","MAREA":" ","LANE":" ","ALLEY":" ","HOUSE_NO":"８８號","E_COORD97":177791.84,"N_COORD97":2539761.5499999998,"ADDRESS":"成功十街８８號","OBJECTID":569633},"geometry":{"x":177791.83999999985,"y":2539761.5500000007}},{"attributes":{"ID":569661,"DIS_CODE":0,"TOWNNAME":"歸仁區","LI":"許厝里","LIN":"28鄰","STREET":"中山路","SECT":"一段","MAREA":" ","LANE":" ","ALLEY":" ","HOUSE_NO":"４８８號","E_COORD97":177927.57999999999,"N_COORD97":2540753.04,"ADDRESS":"中山路一段４８８號","OBJECTID":569634},"geometry":{"x":177927.58000000007,"y":2540753.0399999991}},{"attributes":{"ID":569662,"DIS_CODE":0,"TOWNNAME":"歸仁區","LI":"辜厝里","LIN":"28鄰","STREET":"大吉二街","SECT":" ","MAREA":" ","LANE":" ","ALLEY":" ","HOUSE_NO":"７號","E_COORD97":177238.48999999999,"N_COORD97":2540549.6800000002,"ADDRESS":"大吉二街７號","OBJECTID":569635},"geometry":{"x":177238.49000000022,"y":2540549.6799999997}},{"attributes":{"ID":569663,"DIS_CODE":0,"TOWNNAME":"歸仁區","LI":"崙頂里","LIN":"28鄰","STREET":"成功十街","SECT":" ","MAREA":" ","LANE":" ","ALLEY":" ","HOUSE_NO":"１００號","E_COORD97":177795.29000000001,"N_COORD97":2539792.5499999998,"ADDRESS":"成功十街１００號","OBJECTID":569636},"geometry":{"x":177795.29000000004,"y":2539792.5500000007}},{"attributes":{"ID":569664,"DIS_CODE":0,"TOWNNAME":"歸仁區","LI":"崙頂里","LIN":"28鄰","STREET":"成功十街","SECT":" ","MAREA":" ","LANE":" ","ALLEY":" ","HOUSE_NO":"３６號","E_COORD97":177787.91,"N_COORD97":2539666.8199999998,"ADDRESS":"成功十街３６號","OBJECTID":569637},"geometry":{"x":177787.91000000015,"y":2539666.8200000022}},{"attributes":{"ID":569665,"DIS_CODE":0,"TOWNNAME":"歸仁區","LI":"六甲里","LIN":"28鄰","STREET":"六甲路","SECT":" ","MAREA":" ","LANE":" ","ALLEY":" ","HOUSE_NO":"２５６號","E_COORD97":175858.17000000001,"N_COORD97":2539220.25,"ADDRESS":"六甲路２５６號","OBJECTID":569638},"geometry":{"x":175858.17000000086,"y":2539220.25}},{"attributes":{"ID":569666,"DIS_CODE":0,"TOWNNAME":"歸仁區","LI":"六甲里","LIN":"28鄰","STREET":"六甲路","SECT":" ","MAREA":" ","LANE":" ","ALLEY":" ","HOUSE_NO":"２５２號","E_COORD97":175865.26999999999,"N_COORD97":2539220.25,"ADDRESS":"六甲路２５２號","OBJECTID":569639},"geometry":{"x":175865.27000000048,"y":2539220.25}},{"attributes":{"ID":569667,"DIS_CODE":0,"TOWNNAME":"玉井區","LI":"玉田里","LIN":"28鄰","STREET":"中山路","SECT":" ","MAREA":" ","LANE":" ","ALLEY":" ","HOUSE_NO":"７５號","E_COORD97":195152.01000000001,"N_COORD97":2557752.2400000002,"ADDRESS":"中山路７５號","OBJECTID":569640},"geometry":{"x":195152.01000000071,"y":2557752.2400000002}},{"attributes":{"ID":569668,"DIS_CODE":0,"TOWNNAME":"玉井區","LI":"玉田里","LIN":"28鄰","STREET":"中山路","SECT":" ","MAREA":" ","LANE":" ","ALLEY":" ","HOUSE_NO":"６５號","E_COORD97":195122.20999999999,"N_COORD97":2557750.2400000002,"ADDRESS":"中山路６５號","OBJECTID":569641},"geometry":{"x":195122.20999999996,"y":2557750.2399999984}},{"attributes":{"ID":569669,"DIS_CODE":0,"TOWNNAME":"玉井區","LI":"玉田里","LIN":"28鄰","STREET":"中山路","SECT":" ","MAREA":" ","LANE":" ","ALLEY":" ","HOUSE_NO":"８５號","E_COORD97":195171.10000000001,"N_COORD97":2557754.2400000002,"ADDRESS":"中山路８５號","OBJECTID":569642},"geometry":{"x":195171.10000000056,"y":2557754.2400000021}},{"attributes":{"ID":569670,"DIS_CODE":0,"TOWNNAME":"玉井區","LI":"玉田里","LIN":"28鄰","STREET":"中山路","SECT":" ","MAREA":" ","LANE":" ","ALLEY":" ","HOUSE_NO":"２５號","E_COORD97":194973.51000000001,"N_COORD97":2557724.25,"ADDRESS":"中山路２５號","OBJECTID":569643},"geometry":{"x":194973.51000000071,"y":2557724.2500000019}},{"attributes":{"ID":569671,"DIS_CODE":0,"TOWNNAME":"玉井區","LI":"玉田里","LIN":"28鄰","STREET":"中山路","SECT":" ","MAREA":" ","LANE":" ","ALLEY":" ","HOUSE_NO":"８７號","E_COORD97":195177.10999999999,"N_COORD97":2557754.2400000002,"ADDRESS":"中山路８７號","OBJECTID":569644},"geometry":{"x":195177.11000000127,"y":2557754.2400000021}},{"attributes":{"ID":569672,"DIS_CODE":0,"TOWNNAME":"玉井區","LI":"玉田里","LIN":"28鄰","STREET":"中山路","SECT":" ","MAREA":" ","LANE":" ","ALLEY":" ","HOUSE_NO":"６１號","E_COORD97":195111.70999999999,"N_COORD97":2557749.2400000002,"ADDRESS":"中山路６１號","OBJECTID":569645},"geometry":{"x":195111.71000000089,"y":2557749.2400000002}},{"attributes":{"ID":569673,"DIS_CODE":0,"TOWNNAME":"玉井區","LI":"玉田里","LIN":"28鄰","STREET":"中山路","SECT":" ","MAREA":" ","LANE":" ","ALLEY":" ","HOUSE_NO":"３１號","E_COORD97":194986.29999999999,"N_COORD97":2557731.25,"ADDRESS":"中山路３１號","OBJECTID":569646},"geometry":{"x":194986.29999999981,"y":2557731.2500000019}},{"attributes":{"ID":569674,"DIS_CODE":0,"TOWNNAME":"玉井區","LI":"玉田里","LIN":"28鄰","STREET":"中山路","SECT":" ","MAREA":" ","LANE":" ","ALLEY":" ","HOUSE_NO":"１５號","E_COORD97":194941.01000000001,"N_COORD97":2557737.25,"ADDRESS":"中山路１５號","OBJECTID":569647},"geometry":{"x":194941.01000000164,"y":2557737.2500000019}},{"attributes":{"ID":569675,"DIS_CODE":0,"TOWNNAME":"玉井區","LI":"玉田里","LIN":"28鄰","STREET":"中山路","SECT":" ","MAREA":" ","LANE":" ","ALLEY":" ","HOUSE_NO":"１１號","E_COORD97":194920.89999999999,"N_COORD97":2557717.25,"ADDRESS":"中山路１１號","OBJECTID":569648},"geometry":{"x":194920.9000000013,"y":2557717.2500000019}},{"attributes":{"ID":569676,"DIS_CODE":0,"TOWNNAME":"玉井區","LI":"玉田里","LIN":"28鄰","STREET":"中山路","SECT":" ","MAREA":" ","LANE":" ","ALLEY":" ","HOUSE_NO":"２７號","E_COORD97":194976.51000000001,"N_COORD97":2557724.25,"ADDRESS":"中山路２７號","OBJECTID":569649},"geometry":{"x":194976.50999999978,"y":2557724.2500000019}},{"attributes":{"ID":569677,"DIS_CODE":0,"TOWNNAME":"玉井區","LI":"玉田里","LIN":"28鄰","STREET":"中山路","SECT":" ","MAREA":" ","LANE":" ","ALLEY":" ","HOUSE_NO":"４７號","E_COORD97":195020.60000000001,"N_COORD97":2557731.25,"ADDRESS":"中山路４７號","OBJECTID":569650},"geometry":{"x":195020.60000000056,"y":2557731.2500000019}},{"attributes":{"ID":569678,"DIS_CODE":0,"TOWNNAME":"歸仁區","LI":"歸仁里","LIN":"28鄰","STREET":"中山路","SECT":"一段","MAREA":" ","LANE":" ","ALLEY":" ","HOUSE_NO":"２６４號","E_COORD97":178633.60999999999,"N_COORD97":2540647.25,"ADDRESS":"中山路一段２６４號","OBJECTID":569651},"geometry":{"x":178633.61000000127,"y":2540647.2500000019}},{"attributes":{"ID":569679,"DIS_CODE":0,"TOWNNAME":"歸仁區","LI":"歸仁里","LIN":"28鄰","STREET":"中山路","SECT":"一段","MAREA":" ","LANE":" ","ALLEY":" ","HOUSE_NO":"２６６號","E_COORD97":178620.31,"N_COORD97":2540651.25,"ADDRESS":"中山路一段２６６號","OBJECTID":569652},"geometry":{"x":178620.30999999959,"y":2540651.25}},{"attributes":{"ID":569680,"DIS_CODE":0,"TOWNNAME":"玉井區","LI":"玉田里","LIN":"28鄰","STREET":"中山路","SECT":" ","MAREA":" ","LANE":" ","ALLEY":" ","HOUSE_NO":"５號","E_COORD97":194902.76000000001,"N_COORD97":2557716.25,"ADDRESS":"中山路５號","OBJECTID":569653},"geometry":{"x":194902.76000000071,"y":2557716.2500000037}},{"attributes":{"ID":569681,"DIS_CODE":0,"TOWNNAME":"玉井區","LI":"玉田里","LIN":"28鄰","STREET":"中山路","SECT":" ","MAREA":" ","LANE":" ","ALLEY":" ","HOUSE_NO":"３５號","E_COORD97":194994.22,"N_COORD97":2557731.25,"ADDRESS":"中山路３５號","OBJECTID":569654},"geometry":{"x":194994.22000000067,"y":2557731.2500000019}},{"attributes":{"ID":569682,"DIS_CODE":0,"TOWNNAME":"玉井區","LI":"玉田里","LIN":"28鄰","STREET":"中山路","SECT":" ","MAREA":" ","LANE":" ","ALLEY":" ","HOUSE_NO":"５９號","E_COORD97":195107.31,"N_COORD97":2557748.2400000002,"ADDRESS":"中山路５９號","OBJECTID":569655},"geometry":{"x":195107.31000000052,"y":2557748.2400000021}},{"attributes":{"ID":569683,"DIS_CODE":0,"TOWNNAME":"玉井區","LI":"玉田里","LIN":"28鄰","STREET":"中山路","SECT":" ","MAREA":" ","LANE":" ","ALLEY":" ","HOUSE_NO":"２３號","E_COORD97":194968.39999999999,"N_COORD97":2557723.25,"ADDRESS":"中山路２３號","OBJECTID":569656},"geometry":{"x":194968.4000000013,"y":2557723.2500000037}},{"attributes":{"ID":569684,"DIS_CODE":0,"TOWNNAME":"玉井區","LI":"玉田里","LIN":"28鄰","STREET":"中山路","SECT":" ","MAREA":" ","LANE":" ","ALLEY":" ","HOUSE_NO":"５１號","E_COORD97":195040.60000000001,"N_COORD97":2557735.25,"ADDRESS":"中山路５１號","OBJECTID":569657},"geometry":{"x":195040.60000000056,"y":2557735.25}},{"attributes":{"ID":569685,"DIS_CODE":0,"TOWNNAME":"玉井區","LI":"玉田里","LIN":"28鄰","STREET":"中山路","SECT":" ","MAREA":" ","LANE":" ","ALLEY":" ","HOUSE_NO":"９１號","E_COORD97":195216.51000000001,"N_COORD97":2557767.2400000002,"ADDRESS":"中山路９１號","OBJECTID":569658},"geometry":{"x":195216.51000000071,"y":2557767.2399999984}},{"attributes":{"ID":569686,"DIS_CODE":0,"TOWNNAME":"歸仁區","LI":"崙頂里","LIN":"28鄰","STREET":"成功十街","SECT":" ","MAREA":" ","LANE":" ","ALLEY":" ","HOUSE_NO":"１０８號","E_COORD97":177798.48999999999,"N_COORD97":2539811.5499999998,"ADDRESS":"成功十街１０８號","OBJECTID":569659},"geometry":{"x":177798.49000000115,"y":2539811.5500000026}},{"attributes":{"ID":569687,"DIS_CODE":0,"TOWNNAME":"歸仁區","LI":"許厝里","LIN":"28鄰","STREET":"中山路","SECT":"一段","MAREA":" ","LANE":" ","ALLEY":" ","HOUSE_NO":"４９８號","E_COORD97":177904.98000000001,"N_COORD97":2540755.04,"ADDRESS":"中山路一段４９８號","OBJECTID":569660},"geometry":{"x":177904.98000000045,"y":2540755.040000001}},{"attributes":{"ID":569688,"DIS_CODE":0,"TOWNNAME":"歸仁區","LI":"歸仁里","LIN":"28鄰","STREET":"中山路","SECT":"一段","MAREA":" ","LANE":" ","ALLEY":" ","HOUSE_NO":"２９２號","E_COORD97":178527.10999999999,"N_COORD97":2540684.25,"ADDRESS":"中山路一段２９２號","OBJECTID":569661},"geometry":{"x":178527.11000000127,"y":2540684.2500000019}},{"attributes":{"ID":569689,"DIS_CODE":0,"TOWNNAME":"歸仁區","LI":"歸仁里","LIN":"28鄰","STREET":"中山路","SECT":"一段","MAREA":" ","LANE":" ","ALLEY":" ","HOUSE_NO":"５２號","E_COORD97":179464.82999999999,"N_COORD97":2540372.5699999998,"ADDRESS":"中山路一段５２號","OBJECTID":569662},"geometry":{"x":179464.83000000007,"y":2540372.570000004}},{"attributes":{"ID":569690,"DIS_CODE":0,"TOWNNAME":"歸仁區","LI":"媽廟里","LIN":"28鄰","STREET":"保大路","SECT":"一段","MAREA":" ","LANE":" ","ALLEY":" ","HOUSE_NO":"１２０號","E_COORD97":177788.03,"N_COORD97":2544034.7200000002,"ADDRESS":"保大路一段１２０號","OBJECTID":569663},"geometry":{"x":177788.03000000119,"y":2544034.7200000025}},{"attributes":{"ID":569691,"DIS_CODE":0,"TOWNNAME":"歸仁區","LI":"歸南里","LIN":"28鄰","STREET":"民生南街","SECT":"二段","MAREA":" ","LANE":" ","ALLEY":" ","HOUSE_NO":"２４２號","E_COORD97":176067.35999999999,"N_COORD97":2540075.25,"ADDRESS":"民生南街二段２４２號","OBJECTID":569664},"geometry":{"x":176067.36000000127,"y":2540075.25}},{"attributes":{"ID":569692,"DIS_CODE":0,"TOWNNAME":"歸仁區","LI":"歸仁里","LIN":"28鄰","STREET":"中山路","SECT":"一段","MAREA":" ","LANE":" ","ALLEY":" ","HOUSE_NO":"２３６號","E_COORD97":178755.41,"N_COORD97":2540603.25,"ADDRESS":"中山路一段２３６號","OBJECTID":569665},"geometry":{"x":178755.41000000108,"y":2540603.2500000019}},{"attributes":{"ID":569693,"DIS_CODE":0,"TOWNNAME":"歸仁區","LI":"歸南里","LIN":"28鄰","STREET":"民生南街","SECT":"二段","MAREA":" ","LANE":" ","ALLEY":" ","HOUSE_NO":"２７６號","E_COORD97":176067.06,"N_COORD97":2540019.25,"ADDRESS":"民生南街二段２７６號","OBJECTID":569666},"geometry":{"x":176067.06000000052,"y":2540019.2500000019}},{"attributes":{"ID":569694,"DIS_CODE":0,"TOWNNAME":"歸仁區","LI":"歸仁里","LIN":"28鄰","STREET":"中山路","SECT":"一段","MAREA":" ","LANE":" ","ALLEY":" ","HOUSE_NO":"２３６之１號","E_COORD97":178815.31,"N_COORD97":2540589.2599999998,"ADDRESS":"中山路一段２３６之１號","OBJECTID":569667},"geometry":{"x":178815.30999999959,"y":2540589.2600000016}},{"attributes":{"ID":569695,"DIS_CODE":0,"TOWNNAME":"歸仁區","LI":"歸南里","LIN":"28鄰","STREET":"民生南街","SECT":"二段","MAREA":" ","LANE":" ","ALLEY":" ","HOUSE_NO":"２５２號","E_COORD97":176067.26000000001,"N_COORD97":2540060.25,"ADDRESS":"民生南街二段２５２號","OBJECTID":569668},"geometry":{"x":176067.26000000071,"y":2540060.2500000019}},{"attributes":{"ID":569696,"DIS_CODE":0,"TOWNNAME":"歸仁區","LI":"歸仁里","LIN":"28鄰","STREET":"中山路","SECT":"一段","MAREA":" ","LANE":" ","ALLEY":" ","HOUSE_NO":"２０號","E_COORD97":179600.03,"N_COORD97":2540329.5699999998,"ADDRESS":"中山路一段２０號","OBJECTID":569669},"geometry":{"x":179600.03000000212,"y":2540329.5700000022}},{"attributes":{"ID":569697,"DIS_CODE":0,"TOWNNAME":"六甲區","LI":"甲東里","LIN":"28鄰","STREET":"珊瑚路","SECT":" ","MAREA":" ","LANE":" ","ALLEY":" ","HOUSE_NO":"２２９號","E_COORD97":184675.39000000001,"N_COORD97":2568632.2599999998,"ADDRESS":"珊瑚路２２９號","OBJECTID":569670},"geometry":{"x":184675.38999999966,"y":2568632.2599999998}},{"attributes":{"ID":569698,"DIS_CODE":0,"TOWNNAME":"六甲區","LI":"甲東里","LIN":"28鄰","STREET":"珊瑚路","SECT":" ","MAREA":" ","LANE":" ","ALLEY":" ","HOUSE_NO":"１１７號","E_COORD97":183908.23999999999,"N_COORD97":2569229.4500000002,"ADDRESS":"珊瑚路１１７號","OBJECTID":569671},"geometry":{"x":183908.24000000115,"y":2569229.4500000011}},{"attributes":{"ID":569699,"DIS_CODE":0,"TOWNNAME":"六甲區","LI":"甲東里","LIN":"28鄰","STREET":"珊瑚路","SECT":" ","MAREA":" ","LANE":" ","ALLEY":" ","HOUSE_NO":"１２３號","E_COORD97":183922.5,"N_COORD97":2569224.48,"ADDRESS":"珊瑚路１２３號","OBJECTID":569672},"geometry":{"x":183922.49999999907,"y":2569224.4800000004}},{"attributes":{"ID":569700,"DIS_CODE":0,"TOWNNAME":"六甲區","LI":"甲東里","LIN":"28鄰","STREET":"珊瑚路","SECT":" ","MAREA":" ","LANE":" ","ALLEY":" ","HOUSE_NO":"１２５號","E_COORD97":183927.85999999999,"N_COORD97":2569222.4700000002,"ADDRESS":"珊瑚路１２５號","OBJECTID":569673},"geometry":{"x":183927.86000000127,"y":2569222.4700000044}},{"attributes":{"ID":569701,"DIS_CODE":0,"TOWNNAME":"六甲區","LI":"甲東里","LIN":"28鄰","STREET":"珊瑚路","SECT":" ","MAREA":" ","LANE":" ","ALLEY":" ","HOUSE_NO":"１６９號","E_COORD97":184075.82999999999,"N_COORD97":2569083.9500000002,"ADDRESS":"珊瑚路１６９號","OBJECTID":569674},"geometry":{"x":184075.83000000007,"y":2569083.9499999993}},{"attributes":{"ID":569702,"DIS_CODE":0,"TOWNNAME":"六甲區","LI":"甲東里","LIN":"28鄰","STREET":"珊瑚路","SECT":" ","MAREA":" ","LANE":" ","ALLEY":" ","HOUSE_NO":"１７１號","E_COORD97":184079,"N_COORD97":2569080.5800000001,"ADDRESS":"珊瑚路１７１號","OBJECTID":569675},"geometry":{"x":184079.00000000093,"y":2569080.5800000001}},{"attributes":{"ID":569703,"DIS_CODE":0,"TOWNNAME":"六甲區","LI":"甲東里","LIN":"28鄰","STREET":"珊瑚路","SECT":" ","MAREA":" ","LANE":" ","ALLEY":" ","HOUSE_NO":"１９１號","E_COORD97":184211.03,"N_COORD97":2568979.1400000001,"ADDRESS":"珊瑚路１９１號","OBJECTID":569676},"geometry":{"x":184211.03000000119,"y":2568979.1400000006}},{"attributes":{"ID":569704,"DIS_CODE":0,"TOWNNAME":"六甲區","LI":"甲東里","LIN":"28鄰","STREET":"珊瑚路","SECT":" ","MAREA":" ","LANE":" ","ALLEY":" ","HOUSE_NO":"２３１號","E_COORD97":184674.42000000001,"N_COORD97":2568623.98,"ADDRESS":"珊瑚路２３１號","OBJECTID":569677},"geometry":{"x":184674.42000000086,"y":2568623.9800000004}},{"attributes":{"ID":569705,"DIS_CODE":0,"TOWNNAME":"六甲區","LI":"甲東里","LIN":"28鄰","STREET":"珊瑚路","SECT":" ","MAREA":" ","LANE":" ","ALLEY":" ","HOUSE_NO":"２３５號","E_COORD97":184678.70999999999,"N_COORD97":2568621.71,"ADDRESS":"珊瑚路２３５號","OBJECTID":569678},"geometry":{"x":184678.70999999996,"y":2568621.7100000028}},{"attributes":{"ID":569706,"DIS_CODE":0,"TOWNNAME":"六甲區","LI":"甲東里","LIN":"28鄰","STREET":"珊瑚路","SECT":" ","MAREA":" ","LANE":" ","ALLEY":" ","HOUSE_NO":"２３７號","E_COORD97":184684.25,"N_COORD97":2568620.8700000001,"ADDRESS":"珊瑚路２３７號","OBJECTID":569679},"geometry":{"x":184684.25000000093,"y":2568620.8700000029}},{"attributes":{"ID":569707,"DIS_CODE":0,"TOWNNAME":"六甲區","LI":"甲東里","LIN":"28鄰","STREET":"珊瑚路","SECT":" ","MAREA":" ","LANE":" ","ALLEY":" ","HOUSE_NO":"２３９號","E_COORD97":184690.44,"N_COORD97":2568618.6299999999,"ADDRESS":"珊瑚路２３９號","OBJECTID":569680},"geometry":{"x":184690.44000000134,"y":2568618.629999999}},{"attributes":{"ID":569708,"DIS_CODE":0,"TOWNNAME":"新營區","LI":"民生里","LIN":"28鄰","STREET":"民治路","SECT":" ","MAREA":" ","LANE":" ","ALLEY":" ","HOUSE_NO":"１３３號","E_COORD97":178909.76000000001,"N_COORD97":2578585.6600000001,"ADDRESS":"民治路１３３號","OBJECTID":569681},"geometry":{"x":178909.76000000164,"y":2578585.660000002}},{"attributes":{"ID":569709,"DIS_CODE":0,"TOWNNAME":"新營區","LI":"民生里","LIN":"28鄰","STREET":"民治路","SECT":" ","MAREA":" ","LANE":" ","ALLEY":" ","HOUSE_NO":"１５３號","E_COORD97":178875.85000000001,"N_COORD97":2578552.6099999999,"ADDRESS":"民治路１５３號","OBJECTID":569682},"geometry":{"x":178875.84999999963,"y":2578552.6099999994}},{"attributes":{"ID":569710,"DIS_CODE":0,"TOWNNAME":"新營區","LI":"民生里","LIN":"28鄰","STREET":"民治路","SECT":" ","MAREA":" ","LANE":" ","ALLEY":" ","HOUSE_NO":"１４３號","E_COORD97":178894.35000000001,"N_COORD97":2578571.3399999999,"ADDRESS":"民治路１４３號","OBJECTID":569683},"geometry":{"x":178894.35000000056,"y":2578571.3400000017}},{"attributes":{"ID":569711,"DIS_CODE":0,"TOWNNAME":"新營區","LI":"民生里","LIN":"28鄰","STREET":"民治路","SECT":" ","MAREA":" ","LANE":" ","ALLEY":" ","HOUSE_NO":"１５７號","E_COORD97":178868.64999999999,"N_COORD97":2578543.7799999998,"ADDRESS":"民治路１５７號","OBJECTID":569684},"geometry":{"x":178868.65000000224,"y":2578543.7800000012}},{"attributes":{"ID":569712,"DIS_CODE":0,"TOWNNAME":"新營區","LI":"大宏里","LIN":"28鄰","STREET":"新東街","SECT":" ","MAREA":" ","LANE":" ","ALLEY":" ","HOUSE_NO":"４２號","E_COORD97":180809.54999999999,"N_COORD97":2578690.73,"ADDRESS":"新東街４２號","OBJECTID":569685},"geometry":{"x":180809.54999999981,"y":2578690.7300000023}},{"attributes":{"ID":569713,"DIS_CODE":0,"TOWNNAME":"新營區","LI":"民生里","LIN":"28鄰","STREET":"民治路","SECT":" ","MAREA":" ","LANE":" ","ALLEY":" ","HOUSE_NO":"１２７號","E_COORD97":178919.01000000001,"N_COORD97":2578593.3700000001,"ADDRESS":"民治路１２７號","OBJECTID":569686},"geometry":{"x":178919.00999999978,"y":2578593.370000001}},{"attributes":{"ID":569714,"DIS_CODE":0,"TOWNNAME":"新營區","LI":"民生里","LIN":"28鄰","STREET":"民治路","SECT":" ","MAREA":" ","LANE":" ","ALLEY":" ","HOUSE_NO":"１２１號","E_COORD97":178929.26999999999,"N_COORD97":2578601.0699999998,"ADDRESS":"民治路１２１號","OBJECTID":569687},"geometry":{"x":178929.26999999955,"y":2578601.0700000003}},{"attributes":{"ID":569715,"DIS_CODE":0,"TOWNNAME":"新營區","LI":"新北里","LIN":"28鄰","STREET":"新北街","SECT":" ","MAREA":" ","LANE":" ","ALLEY":" ","HOUSE_NO":"７８號","E_COORD97":178790.78,"N_COORD97":2578770.0699999998,"ADDRESS":"新北街７８號","OBJECTID":569688},"geometry":{"x":178790.78000000026,"y":2578770.0700000022}},{"attributes":{"ID":569716,"DIS_CODE":0,"TOWNNAME":"新營區","LI":"民生里","LIN":"28鄰","STREET":"進修街","SECT":" ","MAREA":" ","LANE":" ","ALLEY":" ","HOUSE_NO":"２５之３２號","E_COORD97":178958.29999999999,"N_COORD97":2578573.3100000001,"ADDRESS":"進修街２５之３２號","OBJECTID":569689},"geometry":{"x":178958.29999999981,"y":2578573.3100000005}},{"attributes":{"ID":569717,"DIS_CODE":0,"TOWNNAME":"新營區","LI":"新南里","LIN":"28鄰","STREET":"秦漢街","SECT":" ","MAREA":" ","LANE":" ","ALLEY":" ","HOUSE_NO":"５５號","E_COORD97":178469.37,"N_COORD97":2578721.79,"ADDRESS":"秦漢街５５號","OBJECTID":569690},"geometry":{"x":178469.37000000011,"y":2578721.7900000028}},{"attributes":{"ID":569718,"DIS_CODE":0,"TOWNNAME":"新營區","LI":"新南里","LIN":"28鄰","STREET":"金華路","SECT":"二段","MAREA":" ","LANE":" ","ALLEY":" ","HOUSE_NO":"１７８號","E_COORD97":178455.78,"N_COORD97":2578619.9700000002,"ADDRESS":"金華路二段１７８號","OBJECTID":569691},"geometry":{"x":178455.78000000212,"y":2578619.9700000007}},{"attributes":{"ID":569719,"DIS_CODE":0,"TOWNNAME":"新營區","LI":"大宏里","LIN":"28鄰","STREET":"新東街","SECT":" ","MAREA":" ","LANE":" ","ALLEY":" ","HOUSE_NO":"４０號","E_COORD97":180806.45999999999,"N_COORD97":2578687.4199999999,"ADDRESS":"新東街４０號","OBJECTID":569692},"geometry":{"x":180806.45999999996,"y":2578687.4199999999}},{"attributes":{"ID":569720,"DIS_CODE":0,"TOWNNAME":"柳營區","LI":"東昇里","LIN":"28鄰","STREET":"建國路","SECT":" ","MAREA":" ","LANE":" ","ALLEY":" ","HOUSE_NO":"１１號","E_COORD97":180659.64000000001,"N_COORD97":2575095.7400000002,"ADDRESS":"建國路１１號","OBJECTID":569693},"geometry":{"x":180659.63999999873,"y":2575095.7400000039}},{"attributes":{"ID":569721,"DIS_CODE":0,"TOWNNAME":"新營區","LI":"民生里","LIN":"28鄰","STREET":"進修街","SECT":" ","MAREA":" ","LANE":" ","ALLEY":" ","HOUSE_NO":"２５之６７號","E_COORD97":178986.04999999999,"N_COORD97":2578599.7599999998,"ADDRESS":"進修街２５之６７號","OBJECTID":569694},"geometry":{"x":178986.05000000075,"y":2578599.7599999998}},{"attributes":{"ID":569722,"DIS_CODE":0,"TOWNNAME":"新營區","LI":"新南里","LIN":"28鄰","STREET":"金華路","SECT":"二段","MAREA":" ","LANE":" ","ALLEY":" ","HOUSE_NO":"１６８號","E_COORD97":178472.22,"N_COORD97":2578635.3999999999,"ADDRESS":"金華路二段１６８號","OBJECTID":569695},"geometry":{"x":178472.21999999974,"y":2578635.4000000022}},{"attributes":{"ID":569723,"DIS_CODE":0,"TOWNNAME":"新營區","LI":"民生里","LIN":"28鄰","STREET":"民治路","SECT":" ","MAREA":" ","LANE":" ","ALLEY":" ","HOUSE_NO":"１５５號","E_COORD97":178871.73999999999,"N_COORD97":2578548.2000000002,"ADDRESS":"民治路１５５號","OBJECTID":569696},"geometry":{"x":178871.74000000115,"y":2578548.1999999993}},{"attributes":{"ID":569724,"DIS_CODE":0,"TOWNNAME":"新營區","LI":"民生里","LIN":"28鄰","STREET":"進修街","SECT":" ","MAREA":" ","LANE":" ","ALLEY":" ","HOUSE_NO":"２５之５９號","E_COORD97":178979.85000000001,"N_COORD97":2578587.6099999999,"ADDRESS":"進修街２５之５９號","OBJECTID":569697},"geometry":{"x":178979.84999999963,"y":2578587.6099999975}},{"attributes":{"ID":569725,"DIS_CODE":0,"TOWNNAME":"新營區","LI":"新東里","LIN":"28鄰","STREET":"東光街","SECT":" ","MAREA":" ","LANE":" ","ALLEY":" ","HOUSE_NO":"１０５號","E_COORD97":180592.84,"N_COORD97":2579778.1600000001,"ADDRESS":"東光街１０５號","OBJECTID":569698},"geometry":{"x":180592.84000000078,"y":2579778.1600000039}},{"attributes":{"ID":569726,"DIS_CODE":0,"TOWNNAME":"新營區","LI":"民生里","LIN":"28鄰","STREET":"進修街","SECT":" ","MAREA":" ","LANE":" ","ALLEY":" ","HOUSE_NO":"２５之４３號","E_COORD97":178924.48999999999,"N_COORD97":2578561.29,"ADDRESS":"進修街２５之４３號","OBJECTID":569699},"geometry":{"x":178924.49000000115,"y":2578561.2899999991}},{"attributes":{"ID":569727,"DIS_CODE":0,"TOWNNAME":"新營區","LI":"新南里","LIN":"28鄰","STREET":"金華路","SECT":"二段","MAREA":" ","LANE":" ","ALLEY":" ","HOUSE_NO":"１７２號","E_COORD97":178464,"N_COORD97":2578626.5800000001,"ADDRESS":"金華路二段１７２號","OBJECTID":569700},"geometry":{"x":178463.99999999907,"y":2578626.5800000019}},{"attributes":{"ID":569728,"DIS_CODE":0,"TOWNNAME":"新營區","LI":"新北里","LIN":"28鄰","STREET":"新北街","SECT":" ","MAREA":" ","LANE":" ","ALLEY":" ","HOUSE_NO":"８０號","E_COORD97":178787.76999999999,"N_COORD97":2578773.4100000001,"ADDRESS":"新北街８０號","OBJECTID":569701},"geometry":{"x":178787.77000000048,"y":2578773.410000002}},{"attributes":{"ID":569729,"DIS_CODE":0,"TOWNNAME":"新營區","LI":"民生里","LIN":"28鄰","STREET":"進修街","SECT":" ","MAREA":" ","LANE":" ","ALLEY":" ","HOUSE_NO":"２５之６８號","E_COORD97":178989.10000000001,"N_COORD97":2578596.4199999999,"ADDRESS":"進修街２５之６８號","OBJECTID":569702},"geometry":{"x":178989.10000000056,"y":2578596.4200000037}},{"attributes":{"ID":569730,"DIS_CODE":0,"TOWNNAME":"新營區","LI":"新東里","LIN":"28鄰","STREET":"東興七街","SECT":" ","MAREA":" ","LANE":" ","ALLEY":" ","HOUSE_NO":"１６號","E_COORD97":180699.85999999999,"N_COORD97":2579749.96,"ADDRESS":"東興七街１６號","OBJECTID":569703},"geometry":{"x":180699.86000000127,"y":2579749.9600000046}},{"attributes":{"ID":569731,"DIS_CODE":0,"TOWNNAME":"新營區","LI":"民生里","LIN":"28鄰","STREET":"進修街","SECT":" ","MAREA":" ","LANE":" ","ALLEY":" ","HOUSE_NO":"２５之３４號","E_COORD97":178912.01999999999,"N_COORD97":2578520.3799999999,"ADDRESS":"進修街２５之３４號","OBJECTID":569704},"geometry":{"x":178912.01999999955,"y":2578520.379999999}},{"attributes":{"ID":569732,"DIS_CODE":0,"TOWNNAME":"歸仁區","LI":"六甲里","LIN":"28鄰","STREET":"六甲二街","SECT":" ","MAREA":" ","LANE":" ","ALLEY":" ","HOUSE_NO":"５０號","E_COORD97":175865.67000000001,"N_COORD97":2539292.25,"ADDRESS":"六甲二街５０號","OBJECTID":569705},"geometry":{"x":175865.66999999993,"y":2539292.25}},{"attributes":{"ID":569733,"DIS_CODE":0,"TOWNNAME":"柳營區","LI":"東昇里","LIN":"28鄰","STREET":"建國路","SECT":" ","MAREA":" ","LANE":" ","ALLEY":" ","HOUSE_NO":"３號","E_COORD97":180667.70999999999,"N_COORD97":2575168.1899999999,"ADDRESS":"建國路３號","OBJECTID":569706},"geometry":{"x":180667.70999999996,"y":2575168.1899999995}},{"attributes":{"ID":569734,"DIS_CODE":0,"TOWNNAME":"新營區","LI":"民榮里","LIN":"28鄰","STREET":"復興路","SECT":" ","MAREA":" ","LANE":" ","ALLEY":" ","HOUSE_NO":"６８１號","E_COORD97":177985.76000000001,"N_COORD97":2578298.8700000001,"ADDRESS":"復興路６８１號","OBJECTID":569707},"geometry":{"x":177985.76000000164,"y":2578298.870000001}},{"attributes":{"ID":569735,"DIS_CODE":0,"TOWNNAME":"東區","LI":"東明里","LIN":"28鄰","STREET":"東安路","SECT":" ","MAREA":" ","LANE":" ","ALLEY":" ","HOUSE_NO":"４５號","E_COORD97":170659.59,"N_COORD97":2543586.8900000001,"ADDRESS":"東安路４５號","OBJECTID":569708},"geometry":{"x":170659.58999999985,"y":2543586.8900000006}},{"attributes":{"ID":569736,"DIS_CODE":0,"TOWNNAME":"東區","LI":"東明里","LIN":"28鄰","STREET":"東安路","SECT":" ","MAREA":" ","LANE":" ","ALLEY":" ","HOUSE_NO":"４９號","E_COORD97":170661,"N_COORD97":2543596.79,"ADDRESS":"東安路４９號","OBJECTID":569709},"geometry":{"x":170661,"y":2543596.7899999991}},{"attributes":{"ID":569737,"DIS_CODE":0,"TOWNNAME":"六甲區","LI":"甲東里","LIN":"28鄰","STREET":"興東街","SECT":" ","MAREA":" ","LANE":" ","ALLEY":" ","HOUSE_NO":"１１８號","E_COORD97":183942.38,"N_COORD97":2569360.6800000002,"ADDRESS":"興東街１１８號","OBJECTID":569710},"geometry":{"x":183942.38000000082,"y":2569360.6800000016}},{"attributes":{"ID":569738,"DIS_CODE":0,"TOWNNAME":"六甲區","LI":"甲東里","LIN":"28鄰","STREET":"興東街","SECT":" ","MAREA":" ","LANE":" ","ALLEY":" ","HOUSE_NO":"１２０號","E_COORD97":183940.94,"N_COORD97":2569356.6499999999,"ADDRESS":"興東街１２０號","OBJECTID":569711},"geometry":{"x":183940.94000000134,"y":2569356.6500000041}},{"attributes":{"ID":569739,"DIS_CODE":0,"TOWNNAME":"六甲區","LI":"甲東里","LIN":"28鄰","STREET":"興東街","SECT":" ","MAREA":" ","LANE":" ","ALLEY":" ","HOUSE_NO":"１２２號","E_COORD97":183938.59,"N_COORD97":2569352.5800000001,"ADDRESS":"興東街１２２號","OBJECTID":569712},"geometry":{"x":183938.58999999985,"y":2569352.5800000001}},{"attributes":{"ID":569740,"DIS_CODE":0,"TOWNNAME":"六甲區","LI":"甲東里","LIN":"28鄰","STREET":"興東街","SECT":" ","MAREA":" ","LANE":" ","ALLEY":" ","HOUSE_NO":"１２６號","E_COORD97":183936.62,"N_COORD97":2569348.1299999999,"ADDRESS":"興東街１２６號","OBJECTID":569713},"geometry":{"x":183936.62000000011,"y":2569348.1299999971}},{"attributes":{"ID":569741,"DIS_CODE":0,"TOWNNAME":"六甲區","LI":"甲東里","LIN":"28鄰","STREET":"興東街","SECT":" ","MAREA":" ","LANE":" ","ALLEY":" ","HOUSE_NO":"１２８號","E_COORD97":183934.85999999999,"N_COORD97":2569343.98,"ADDRESS":"興東街１２８號","OBJECTID":569714},"geometry":{"x":183934.86000000127,"y":2569343.9799999986}},{"attributes":{"ID":569742,"DIS_CODE":0,"TOWNNAME":"六甲區","LI":"甲東里","LIN":"28鄰","STREET":"興東街","SECT":" ","MAREA":" ","LANE":" ","ALLEY":" ","HOUSE_NO":"１３０號","E_COORD97":183931.95000000001,"N_COORD97":2569339.79,"ADDRESS":"興東街１３０號","OBJECTID":569715},"geometry":{"x":183931.95000000112,"y":2569339.7899999991}},{"attributes":{"ID":569743,"DIS_CODE":0,"TOWNNAME":"關廟區","LI":"香洋里","LIN":"28鄰","STREET":"中山路","SECT":"二段","MAREA":" ","LANE":" ","ALLEY":" ","HOUSE_NO":"７９號","E_COORD97":181023.01000000001,"N_COORD97":2539879.2799999998,"ADDRESS":"中山路二段７９號","OBJECTID":569716},"geometry":{"x":181023.00999999978,"y":2539879.2800000012}},{"attributes":{"ID":569744,"DIS_CODE":0,"TOWNNAME":"關廟區","LI":"東勢里","LIN":"28鄰","STREET":"東榮街","SECT":" ","MAREA":" ","LANE":" ","ALLEY":" ","HOUSE_NO":"１１３號","E_COORD97":182165.92999999999,"N_COORD97":2539367.1099999999,"ADDRESS":"東榮街１１３號","OBJECTID":569717},"geometry":{"x":182165.9299999997,"y":2539367.1099999994}},{"attributes":{"ID":569745,"DIS_CODE":0,"TOWNNAME":"安平區","LI":"育平里","LIN":"28鄰","STREET":"育平路","SECT":" ","MAREA":" ","LANE":" ","ALLEY":" ","HOUSE_NO":"１７８號","E_COORD97":164586.70000000001,"N_COORD97":2543283.4900000002,"ADDRESS":"育平路１７８號","OBJECTID":569718},"geometry":{"x":164586.70000000112,"y":2543283.4900000021}},{"attributes":{"ID":569746,"DIS_CODE":0,"TOWNNAME":"安平區","LI":"育平里","LIN":"28鄰","STREET":"育平路","SECT":" ","MAREA":" ","LANE":" ","ALLEY":" ","HOUSE_NO":"１８０號","E_COORD97":164588.39999999999,"N_COORD97":2543291.5600000001,"ADDRESS":"育平路１８０號","OBJECTID":569719},"geometry":{"x":164588.40000000224,"y":2543291.5600000005}},{"attributes":{"ID":569747,"DIS_CODE":0,"TOWNNAME":"安平區","LI":"育平里","LIN":"28鄰","STREET":"育平路","SECT":" ","MAREA":" ","LANE":" ","ALLEY":" ","HOUSE_NO":"１８２號","E_COORD97":164590,"N_COORD97":2543299.6299999999,"ADDRESS":"育平路１８２號","OBJECTID":569720},"geometry":{"x":164590,"y":2543299.629999999}},{"attributes":{"ID":569748,"DIS_CODE":0,"TOWNNAME":"安平區","LI":"育平里","LIN":"28鄰","STREET":"育平路","SECT":" ","MAREA":" ","LANE":" ","ALLEY":" ","HOUSE_NO":"１８４號","E_COORD97":164591.01999999999,"N_COORD97":2543306.3300000001,"ADDRESS":"育平路１８４號","OBJECTID":569721},"geometry":{"x":164591.01999999955,"y":2543306.3300000001}},{"attributes":{"ID":569749,"DIS_CODE":0,"TOWNNAME":"安平區","LI":"育平里","LIN":"28鄰","STREET":"育平路","SECT":" ","MAREA":" ","LANE":" ","ALLEY":" ","HOUSE_NO":"１８６號","E_COORD97":164592.5,"N_COORD97":2543313.52,"ADDRESS":"育平路１８６號","OBJECTID":569722},"geometry":{"x":164592.50000000186,"y":2543313.5199999996}},{"attributes":{"ID":569750,"DIS_CODE":0,"TOWNNAME":"安平區","LI":"育平里","LIN":"28鄰","STREET":"育平路","SECT":" ","MAREA":" ","LANE":" ","ALLEY":" ","HOUSE_NO":"１８８號","E_COORD97":164593.75,"N_COORD97":2543319.5499999998,"ADDRESS":"育平路１８８號","OBJECTID":569723},"geometry":{"x":164593.75,"y":2543319.5500000045}},{"attributes":{"ID":569751,"DIS_CODE":0,"TOWNNAME":"安平區","LI":"育平里","LIN":"28鄰","STREET":"育平路","SECT":" ","MAREA":" ","LANE":" ","ALLEY":" ","HOUSE_NO":"１９０號","E_COORD97":164596.59,"N_COORD97":2543326.9300000002,"ADDRESS":"育平路１９０號","OBJECTID":569724},"geometry":{"x":164596.58999999892,"y":2543326.9300000016}},{"attributes":{"ID":569752,"DIS_CODE":0,"TOWNNAME":"南區","LI":"金華里","LIN":"28鄰","STREET":"中華西路","SECT":"一段","MAREA":" ","LANE":" ","ALLEY":" ","HOUSE_NO":"２６２號","E_COORD97":166536.01999999999,"N_COORD97":2542439.21,"ADDRESS":"中華西路一段２６２號","OBJECTID":569725},"geometry":{"x":166536.01999999862,"y":2542439.2100000009}},{"attributes":{"ID":569753,"DIS_CODE":0,"TOWNNAME":"南區","LI":"金華里","LIN":"28鄰","STREET":"中華西路","SECT":"一段","MAREA":" ","LANE":" ","ALLEY":" ","HOUSE_NO":"２６４號","E_COORD97":166537.63,"N_COORD97":2542443.3399999999,"ADDRESS":"中華西路一段２６４號","OBJECTID":569726},"geometry":{"x":166537.63000000082,"y":2542443.3400000017}},{"attributes":{"ID":569754,"DIS_CODE":0,"TOWNNAME":"南區","LI":"金華里","LIN":"28鄰","STREET":"中華西路","SECT":"一段","MAREA":" ","LANE":" ","ALLEY":" ","HOUSE_NO":"２６６號","E_COORD97":166539.78,"N_COORD97":2542447.1800000002,"ADDRESS":"中華西路一段２６６號","OBJECTID":569727},"geometry":{"x":166539.78000000026,"y":2542447.1800000016}},{"attributes":{"ID":569755,"DIS_CODE":0,"TOWNNAME":"南區","LI":"金華里","LIN":"28鄰","STREET":"中華西路","SECT":"一段","MAREA":" ","LANE":" ","ALLEY":" ","HOUSE_NO":"２６８號","E_COORD97":166541.48000000001,"N_COORD97":2542451.1800000002,"ADDRESS":"中華西路一段２６８號","OBJECTID":569728},"geometry":{"x":166541.48000000138,"y":2542451.1800000016}},{"attributes":{"ID":569756,"DIS_CODE":0,"TOWNNAME":"南區","LI":"金華里","LIN":"28鄰","STREET":"中華西路","SECT":"一段","MAREA":" ","LANE":" ","ALLEY":" ","HOUSE_NO":"２７０號","E_COORD97":166542.70999999999,"N_COORD97":2542455.0299999998,"ADDRESS":"中華西路一段２７０號","OBJECTID":569729},"geometry":{"x":166542.71000000089,"y":2542455.0300000012}},{"attributes":{"ID":569757,"DIS_CODE":0,"TOWNNAME":"南區","LI":"金華里","LIN":"28鄰","STREET":"中華西路","SECT":"一段","MAREA":" ","LANE":" ","ALLEY":" ","HOUSE_NO":"２７２號","E_COORD97":166545.01999999999,"N_COORD97":2542459.5600000001,"ADDRESS":"中華西路一段２７２號","OBJECTID":569730},"geometry":{"x":166545.02000000048,"y":2542459.5600000024}},{"attributes":{"ID":569758,"DIS_CODE":0,"TOWNNAME":"南區","LI":"金華里","LIN":"28鄰","STREET":"中華西路","SECT":"一段","MAREA":" ","LANE":" ","ALLEY":" ","HOUSE_NO":"２７４號","E_COORD97":166544.56,"N_COORD97":2542464.1800000002,"ADDRESS":"中華西路一段２７４號","OBJECTID":569731},"geometry":{"x":166544.56000000052,"y":2542464.1800000016}},{"attributes":{"ID":569759,"DIS_CODE":0,"TOWNNAME":"南區","LI":"金華里","LIN":"28鄰","STREET":"中華西路","SECT":"一段","MAREA":" ","LANE":" ","ALLEY":" ","HOUSE_NO":"２８０號","E_COORD97":166549.81,"N_COORD97":2542477.5299999998,"ADDRESS":"中華西路一段２８０號","OBJECTID":569732},"geometry":{"x":166549.81000000052,"y":2542477.5300000031}},{"attributes":{"ID":569760,"DIS_CODE":0,"TOWNNAME":"南區","LI":"金華里","LIN":"28鄰","STREET":"中華西路","SECT":"一段","MAREA":" ","LANE":" ","ALLEY":" ","HOUSE_NO":"２８２號","E_COORD97":166551.87,"N_COORD97":2542481.6400000001,"ADDRESS":"中華西路一段２８２號","OBJECTID":569733},"geometry":{"x":166551.87000000104,"y":2542481.6400000025}},{"attributes":{"ID":569761,"DIS_CODE":0,"TOWNNAME":"南區","LI":"金華里","LIN":"28鄰","STREET":"中華西路","SECT":"一段","MAREA":" ","LANE":" ","ALLEY":" ","HOUSE_NO":"２８４號","E_COORD97":166552.60999999999,"N_COORD97":2542485.75,"ADDRESS":"中華西路一段２８４號","OBJECTID":569734},"geometry":{"x":166552.61000000034,"y":2542485.75}},{"attributes":{"ID":569762,"DIS_CODE":0,"TOWNNAME":"南區","LI":"金華里","LIN":"28鄰","STREET":"中華西路","SECT":"一段","MAREA":" ","LANE":" ","ALLEY":" ","HOUSE_NO":"２８６號","E_COORD97":166554.85999999999,"N_COORD97":2542489.3900000001,"ADDRESS":"中華西路一段２８６號","OBJECTID":569735},"geometry":{"x":166554.86000000034,"y":2542489.3900000006}},{"attributes":{"ID":569763,"DIS_CODE":0,"TOWNNAME":"南區","LI":"金華里","LIN":"28鄰","STREET":"中華西路","SECT":"一段","MAREA":" ","LANE":" ","ALLEY":" ","HOUSE_NO":"２８８號","E_COORD97":166555.60999999999,"N_COORD97":2542494.6200000001,"ADDRESS":"中華西路一段２８８號","OBJECTID":569736},"geometry":{"x":166555.61000000127,"y":2542494.620000001}},{"attributes":{"ID":569764,"DIS_CODE":0,"TOWNNAME":"南區","LI":"金華里","LIN":"28鄰","STREET":"中華西路","SECT":"一段","MAREA":" ","LANE":" ","ALLEY":" ","HOUSE_NO":"２９０號","E_COORD97":166557.48000000001,"N_COORD97":2542498.5499999998,"ADDRESS":"中華西路一段２９０號","OBJECTID":569737},"geometry":{"x":166557.48000000045,"y":2542498.5500000007}},{"attributes":{"ID":569765,"DIS_CODE":0,"TOWNNAME":"南區","LI":"金華里","LIN":"28鄰","STREET":"中華西路","SECT":"一段","MAREA":" ","LANE":" ","ALLEY":" ","HOUSE_NO":"２９２號","E_COORD97":166558.79000000001,"N_COORD97":2542502.1000000001,"ADDRESS":"中華西路一段２９２號","OBJECTID":569738},"geometry":{"x":166558.79000000097,"y":2542502.1000000015}},{"attributes":{"ID":569766,"DIS_CODE":0,"TOWNNAME":"新營區","LI":"民生里","LIN":"28鄰","STREET":"民治路","SECT":" ","MAREA":" ","LANE":" ","ALLEY":" ","HOUSE_NO":"１３７號","E_COORD97":178903.60000000001,"N_COORD97":2578580.1600000001,"ADDRESS":"民治路１３７號","OBJECTID":569739},"geometry":{"x":178903.59999999963,"y":2578580.1600000001}},{"attributes":{"ID":569767,"DIS_CODE":0,"TOWNNAME":"新營區","LI":"民生里","LIN":"28鄰","STREET":"民治路","SECT":" ","MAREA":" ","LANE":" ","ALLEY":" ","HOUSE_NO":"１４５號","E_COORD97":178891.26999999999,"N_COORD97":2578568.04,"ADDRESS":"民治路１４５號","OBJECTID":569740},"geometry":{"x":178891.27000000048,"y":2578568.040000001}},{"attributes":{"ID":569768,"DIS_CODE":0,"TOWNNAME":"新營區","LI":"民生里","LIN":"28鄰","STREET":"進修街","SECT":" ","MAREA":" ","LANE":" ","ALLEY":" ","HOUSE_NO":"２５之６５號","E_COORD97":178982,"N_COORD97":2578607.5299999998,"ADDRESS":"進修街２５之６５號","OBJECTID":569741},"geometry":{"x":178982,"y":2578607.5299999993}},{"attributes":{"ID":569769,"DIS_CODE":0,"TOWNNAME":"新營區","LI":"新東里","LIN":"28鄰","STREET":"東光街","SECT":" ","MAREA":" ","LANE":" ","ALLEY":" ","HOUSE_NO":"１０７號","E_COORD97":180583.62,"N_COORD97":2579777.1000000001,"ADDRESS":"東光街１０７號","OBJECTID":569742},"geometry":{"x":180583.62000000011,"y":2579777.0999999996}},{"attributes":{"ID":569770,"DIS_CODE":0,"TOWNNAME":"新營區","LI":"新東里","LIN":"28鄰","STREET":"東興七街","SECT":" ","MAREA":" ","LANE":" ","ALLEY":" ","HOUSE_NO":"２２號","E_COORD97":180685.60999999999,"N_COORD97":2579750.0299999998,"ADDRESS":"東興七街２２號","OBJECTID":569743},"geometry":{"x":180685.61000000034,"y":2579750.0299999993}},{"attributes":{"ID":569771,"DIS_CODE":0,"TOWNNAME":"新營區","LI":"民生里","LIN":"28鄰","STREET":"進修街","SECT":" ","MAREA":" ","LANE":" ","ALLEY":" ","HOUSE_NO":"２５之４７號","E_COORD97":178939.78,"N_COORD97":2578550.1499999999,"ADDRESS":"進修街２５之４７號","OBJECTID":569744},"geometry":{"x":178939.78000000026,"y":2578550.1500000004}},{"attributes":{"ID":569772,"DIS_CODE":0,"TOWNNAME":"新營區","LI":"新北里","LIN":"28鄰","STREET":"新北街","SECT":" ","MAREA":" ","LANE":" ","ALLEY":" ","HOUSE_NO":"９２號","E_COORD97":178767.32000000001,"N_COORD97":2578795.6499999999,"ADDRESS":"新北街９２號","OBJECTID":569745},"geometry":{"x":178767.31999999937,"y":2578795.6500000022}},{"attributes":{"ID":569773,"DIS_CODE":0,"TOWNNAME":"新營區","LI":"民生里","LIN":"28鄰","STREET":"民治路","SECT":" ","MAREA":" ","LANE":" ","ALLEY":" ","HOUSE_NO":"１３１號","E_COORD97":178912.85000000001,"N_COORD97":2578587.8599999999,"ADDRESS":"民治路１３１號","OBJECTID":569746},"geometry":{"x":178912.85000000056,"y":2578587.8599999994}},{"attributes":{"ID":569774,"DIS_CODE":0,"TOWNNAME":"新營區","LI":"民生里","LIN":"28鄰","STREET":"進修街","SECT":" ","MAREA":" ","LANE":" ","ALLEY":" ","HOUSE_NO":"２５之６３號","E_COORD97":178975.82999999999,"N_COORD97":2578603.1299999999,"ADDRESS":"進修街２５之６３號","OBJECTID":569747},"geometry":{"x":178975.83000000101,"y":2578603.129999999}},{"attributes":{"ID":569775,"DIS_CODE":0,"TOWNNAME":"新營區","LI":"新東里","LIN":"28鄰","STREET":"東興七街","SECT":" ","MAREA":" ","LANE":" ","ALLEY":" ","HOUSE_NO":"２１號","E_COORD97":180672.22,"N_COORD97":2579727.9500000002,"ADDRESS":"東興七街２１號","OBJECTID":569748},"geometry":{"x":180672.21999999974,"y":2579727.950000003}},{"attributes":{"ID":569776,"DIS_CODE":0,"TOWNNAME":"新營區","LI":"新東里","LIN":"28鄰","STREET":"東興七街","SECT":" ","MAREA":" ","LANE":" ","ALLEY":" ","HOUSE_NO":"３０號","E_COORD97":180666.20000000001,"N_COORD97":2579749.0099999998,"ADDRESS":"東興七街３０號","OBJECTID":569749},"geometry":{"x":180666.20000000019,"y":2579749.0100000016}},{"attributes":{"ID":569777,"DIS_CODE":0,"TOWNNAME":"新營區","LI":"南興里","LIN":"28鄰","STREET":"建業路","SECT":" ","MAREA":" ","LANE":" ","ALLEY":" ","HOUSE_NO":"１２１號","E_COORD97":178476.87,"N_COORD97":2577480.2999999998,"ADDRESS":"建業路１２１號","OBJECTID":569750},"geometry":{"x":178476.86999999918,"y":2577480.3000000026}},{"attributes":{"ID":569778,"DIS_CODE":0,"TOWNNAME":"新營區","LI":"民生里","LIN":"28鄰","STREET":"進修街","SECT":" ","MAREA":" ","LANE":" ","ALLEY":" ","HOUSE_NO":"２５之６１號","E_COORD97":178977.84,"N_COORD97":2578595.3700000001,"ADDRESS":"進修街２５之６１號","OBJECTID":569751},"geometry":{"x":178977.83999999985,"y":2578595.3700000029}},{"attributes":{"ID":569779,"DIS_CODE":0,"TOWNNAME":"新營區","LI":"民榮里","LIN":"28鄰","STREET":"復興路","SECT":" ","MAREA":" ","LANE":" ","ALLEY":" ","HOUSE_NO":"６７７號","E_COORD97":177985.76000000001,"N_COORD97":2578298.8700000001,"ADDRESS":"復興路６７７號","OBJECTID":569752},"geometry":{"x":177985.76000000164,"y":2578298.870000001}},{"attributes":{"ID":569780,"DIS_CODE":0,"TOWNNAME":"新營區","LI":"新北里","LIN":"28鄰","STREET":"新北街","SECT":" ","MAREA":" ","LANE":" ","ALLEY":" ","HOUSE_NO":"９４號","E_COORD97":178764.26999999999,"N_COORD97":2578798.9900000002,"ADDRESS":"新北街９４號","OBJECTID":569753},"geometry":{"x":178764.27000000048,"y":2578798.9900000002}},{"attributes":{"ID":569781,"DIS_CODE":0,"TOWNNAME":"新營區","LI":"新北里","LIN":"28鄰","STREET":"新北街","SECT":" ","MAREA":" ","LANE":" ","ALLEY":" ","HOUSE_NO":"９０號","E_COORD97":178771.39000000001,"N_COORD97":2578792.3100000001,"ADDRESS":"新北街９０號","OBJECTID":569754},"geometry":{"x":178771.39000000153,"y":2578792.3100000024}},{"attributes":{"ID":569782,"DIS_CODE":0,"TOWNNAME":"新營區","LI":"民生里","LIN":"28鄰","STREET":"民治路","SECT":" ","MAREA":" ","LANE":" ","ALLEY":" ","HOUSE_NO":"１５１號","E_COORD97":178878.94,"N_COORD97":2578555.9100000001,"ADDRESS":"民治路１５１號","OBJECTID":569755},"geometry":{"x":178878.94000000134,"y":2578555.9100000039}},{"attributes":{"ID":569783,"DIS_CODE":0,"TOWNNAME":"新營區","LI":"新北里","LIN":"28鄰","STREET":"新北街","SECT":" ","MAREA":" ","LANE":" ","ALLEY":" ","HOUSE_NO":"７２號","E_COORD97":178814.17999999999,"N_COORD97":2578744.4900000002,"ADDRESS":"新北街７２號","OBJECTID":569756},"geometry":{"x":178814.18000000063,"y":2578744.4900000002}},{"attributes":{"ID":569784,"DIS_CODE":0,"TOWNNAME":"新營區","LI":"民榮里","LIN":"28鄰","STREET":"復興路","SECT":" ","MAREA":" ","LANE":" ","ALLEY":" ","HOUSE_NO":"５０１號","E_COORD97":178252.48999999999,"N_COORD97":2578246.6299999999,"ADDRESS":"復興路５０１號","OBJECTID":569757},"geometry":{"x":178252.49000000209,"y":2578246.629999999}},{"attributes":{"ID":569785,"DIS_CODE":0,"TOWNNAME":"新營區","LI":"民榮里","LIN":"28鄰","STREET":"復興路","SECT":" ","MAREA":" ","LANE":" ","ALLEY":" ","HOUSE_NO":"５０５號","E_COORD97":178212.56,"N_COORD97":2578239.0800000001,"ADDRESS":"復興路５０５號","OBJECTID":569758},"geometry":{"x":178212.56000000052,"y":2578239.0800000001}},{"attributes":{"ID":569786,"DIS_CODE":0,"TOWNNAME":"新營區","LI":"民榮里","LIN":"28鄰","STREET":"復興路","SECT":" ","MAREA":" ","LANE":" ","ALLEY":" ","HOUSE_NO":"５０７號","E_COORD97":178192.12,"N_COORD97":2578242.5,"ADDRESS":"復興路５０７號","OBJECTID":569759},"geometry":{"x":178192.12000000197,"y":2578242.5}},{"attributes":{"ID":569787,"DIS_CODE":0,"TOWNNAME":"新營區","LI":"民榮里","LIN":"28鄰","STREET":"復興路","SECT":" ","MAREA":" ","LANE":" ","ALLEY":" ","HOUSE_NO":"６８９號","E_COORD97":177938.79000000001,"N_COORD97":2578315.71,"ADDRESS":"復興路６８９號","OBJECTID":569760},"geometry":{"x":177938.79000000097,"y":2578315.7100000028}},{"attributes":{"ID":569788,"DIS_CODE":0,"TOWNNAME":"新營區","LI":"民榮里","LIN":"28鄰","STREET":"復興路","SECT":" ","MAREA":" ","LANE":" ","ALLEY":" ","HOUSE_NO":"５３９號","E_COORD97":178041.98999999999,"N_COORD97":2578290.8399999999,"ADDRESS":"復興路５３９號","OBJECTID":569761},"geometry":{"x":178041.99000000022,"y":2578290.8399999999}},{"attributes":{"ID":569789,"DIS_CODE":0,"TOWNNAME":"新營區","LI":"民榮里","LIN":"28鄰","STREET":"復興路","SECT":" ","MAREA":" ","LANE":" ","ALLEY":" ","HOUSE_NO":"５１３之２號","E_COORD97":178166.06,"N_COORD97":2578258.1899999999,"ADDRESS":"復興路５１３之２號","OBJECTID":569762},"geometry":{"x":178166.05999999959,"y":2578258.1899999976}},{"attributes":{"ID":569790,"DIS_CODE":0,"TOWNNAME":"新營區","LI":"民榮里","LIN":"28鄰","STREET":"復興路","SECT":" ","MAREA":" ","LANE":" ","ALLEY":" ","HOUSE_NO":"４９７號","E_COORD97":178261.73999999999,"N_COORD97":2578243.27,"ADDRESS":"復興路４９７號","OBJECTID":569763},"geometry":{"x":178261.74000000115,"y":2578243.2699999996}},{"attributes":{"ID":569791,"DIS_CODE":0,"TOWNNAME":"新營區","LI":"大宏里","LIN":"28鄰","STREET":"開元路","SECT":" ","MAREA":" ","LANE":" ","ALLEY":" ","HOUSE_NO":"５５號","E_COORD97":180871.94,"N_COORD97":2578703.73,"ADDRESS":"開元路５５號","OBJECTID":569764},"geometry":{"x":180871.94000000041,"y":2578703.7300000023}},{"attributes":{"ID":569792,"DIS_CODE":0,"TOWNNAME":"新營區","LI":"民榮里","LIN":"28鄰","STREET":"復興路","SECT":" ","MAREA":" ","LANE":" ","ALLEY":" ","HOUSE_NO":"４９１號","E_COORD97":178274,"N_COORD97":2578240.9900000002,"ADDRESS":"復興路４９１號","OBJECTID":569765},"geometry":{"x":178274,"y":2578240.9900000021}},{"attributes":{"ID":569793,"DIS_CODE":0,"TOWNNAME":"新營區","LI":"大宏里","LIN":"28鄰","STREET":"開元路","SECT":" ","MAREA":" ","LANE":" ","ALLEY":" ","HOUSE_NO":"４３號","E_COORD97":180856.48999999999,"N_COORD97":2578668.3599999999,"ADDRESS":"開元路４３號","OBJECTID":569766},"geometry":{"x":180856.49000000115,"y":2578668.3600000013}},{"attributes":{"ID":569794,"DIS_CODE":0,"TOWNNAME":"新營區","LI":"大宏里","LIN":"28鄰","STREET":"開元路","SECT":" ","MAREA":" ","LANE":" ","ALLEY":" ","HOUSE_NO":"４７號","E_COORD97":180865.78,"N_COORD97":2578684.9300000002,"ADDRESS":"開元路４７號","OBJECTID":569767},"geometry":{"x":180865.78000000026,"y":2578684.9300000016}},{"attributes":{"ID":569795,"DIS_CODE":0,"TOWNNAME":"新營區","LI":"大宏里","LIN":"28鄰","STREET":"開元路","SECT":" ","MAREA":" ","LANE":" ","ALLEY":" ","HOUSE_NO":"３３號","E_COORD97":180822.57000000001,"N_COORD97":2578630.8700000001,"ADDRESS":"開元路３３號","OBJECTID":569768},"geometry":{"x":180822.57000000123,"y":2578630.870000001}},{"attributes":{"ID":569796,"DIS_CODE":0,"TOWNNAME":"新營區","LI":"新東里","LIN":"28鄰","STREET":"東興九街","SECT":" ","MAREA":" ","LANE":" ","ALLEY":" ","HOUSE_NO":"５６號","E_COORD97":180613.10999999999,"N_COORD97":2579784.71,"ADDRESS":"東興九街５６號","OBJECTID":569769},"geometry":{"x":180613.1099999994,"y":2579784.7100000009}},{"attributes":{"ID":569797,"DIS_CODE":0,"TOWNNAME":"新營區","LI":"大宏里","LIN":"28鄰","STREET":"開元路","SECT":" ","MAREA":" ","LANE":" ","ALLEY":" ","HOUSE_NO":"３９號","E_COORD97":180853.39000000001,"N_COORD97":2578658.4100000001,"ADDRESS":"開元路３９號","OBJECTID":569770},"geometry":{"x":180853.3900000006,"y":2578658.410000002}},{"attributes":{"ID":569798,"DIS_CODE":0,"TOWNNAME":"新營區","LI":"大宏里","LIN":"28鄰","STREET":"開元路","SECT":" ","MAREA":" ","LANE":" ","ALLEY":" ","HOUSE_NO":"３３號之２","E_COORD97":180842.23999999999,"N_COORD97":2578633.0600000001,"ADDRESS":"開元路３３號之２","OBJECTID":569771},"geometry":{"x":180842.24000000022,"y":2578633.0600000005}},{"attributes":{"ID":569799,"DIS_CODE":0,"TOWNNAME":"新營區","LI":"民生里","LIN":"28鄰","STREET":"民治路","SECT":" ","MAREA":" ","LANE":" ","ALLEY":" ","HOUSE_NO":"１１５號","E_COORD97":178949.79999999999,"N_COORD97":2578615.3700000001,"ADDRESS":"民治路１１５號","OBJECTID":569772},"geometry":{"x":178949.79999999981,"y":2578615.3700000029}},{"attributes":{"ID":569800,"DIS_CODE":0,"TOWNNAME":"新營區","LI":"新北里","LIN":"28鄰","STREET":"新北二街","SECT":" ","MAREA":" ","LANE":" ","ALLEY":" ","HOUSE_NO":"６之１１號","E_COORD97":178915.89999999999,"N_COORD97":2578749.6000000001,"ADDRESS":"新北二街６之１１號","OBJECTID":569773},"geometry":{"x":178915.90000000037,"y":2578749.5999999996}},{"attributes":{"ID":569801,"DIS_CODE":0,"TOWNNAME":"關廟區","LI":"東勢里","LIN":"28鄰","STREET":"東榮街","SECT":" ","MAREA":" ","LANE":" ","ALLEY":" ","HOUSE_NO":"２９１號","E_COORD97":182442.87,"N_COORD97":2539034.25,"ADDRESS":"東榮街２９１號","OBJECTID":569774},"geometry":{"x":182442.87000000104,"y":2539034.25}},{"attributes":{"ID":569802,"DIS_CODE":0,"TOWNNAME":"關廟區","LI":"東勢里","LIN":"28鄰","STREET":"東榮街","SECT":" ","MAREA":" ","LANE":" ","ALLEY":" ","HOUSE_NO":"１１５號","E_COORD97":182173.23000000001,"N_COORD97":2539371.1099999999,"ADDRESS":"東榮街１１５號","OBJECTID":569775},"geometry":{"x":182173.23000000045,"y":2539371.1099999975}},{"attributes":{"ID":569803,"DIS_CODE":0,"TOWNNAME":"關廟區","LI":"東勢里","LIN":"28鄰","STREET":"東榮街","SECT":" ","MAREA":" ","LANE":" ","ALLEY":" ","HOUSE_NO":"１４５號","E_COORD97":182245.03,"N_COORD97":2539345.1099999999,"ADDRESS":"東榮街１４５號","OBJECTID":569776},"geometry":{"x":182245.03000000119,"y":2539345.1100000013}},{"attributes":{"ID":569804,"DIS_CODE":0,"TOWNNAME":"歸仁區","LI":"歸仁里","LIN":"28鄰","STREET":"中山路","SECT":"一段","MAREA":" ","LANE":" ","ALLEY":" ","HOUSE_NO":"５４號","E_COORD97":179461.73000000001,"N_COORD97":2540374.5699999998,"ADDRESS":"中山路一段５４號","OBJECTID":569777},"geometry":{"x":179461.73000000138,"y":2540374.5700000003}},{"attributes":{"ID":569805,"DIS_CODE":0,"TOWNNAME":"歸仁區","LI":"南興里","LIN":"28鄰","STREET":"文化街","SECT":"三段","MAREA":" ","LANE":" ","ALLEY":" ","HOUSE_NO":"７８４號","E_COORD97":175316.73999999999,"N_COORD97":2541210.8300000001,"ADDRESS":"文化街三段７８４號","OBJECTID":569778},"geometry":{"x":175316.74000000115,"y":2541210.8300000001}},{"attributes":{"ID":569806,"DIS_CODE":0,"TOWNNAME":"歸仁區","LI":"歸仁里","LIN":"28鄰","STREET":"中山路","SECT":"一段","MAREA":" ","LANE":" ","ALLEY":" ","HOUSE_NO":"３６號","E_COORD97":179567.23000000001,"N_COORD97":2540338.5699999998,"ADDRESS":"中山路一段３６號","OBJECTID":569779},"geometry":{"x":179567.23000000138,"y":2540338.5699999984}},{"attributes":{"ID":569807,"DIS_CODE":0,"TOWNNAME":"歸仁區","LI":"歸南里","LIN":"28鄰","STREET":"民生南街","SECT":"二段","MAREA":" ","LANE":" ","ALLEY":" ","HOUSE_NO":"２６０號","E_COORD97":176067.26000000001,"N_COORD97":2540048.25,"ADDRESS":"民生南街二段２６０號","OBJECTID":569780},"geometry":{"x":176067.26000000071,"y":2540048.25}},{"attributes":{"ID":569808,"DIS_CODE":0,"TOWNNAME":"歸仁區","LI":"媽廟里","LIN":"28鄰","STREET":"保大路","SECT":"一段","MAREA":" ","LANE":" ","ALLEY":" ","HOUSE_NO":"１２６號","E_COORD97":177775.73000000001,"N_COORD97":2544034.7200000002,"ADDRESS":"保大路一段１２６號","OBJECTID":569781},"geometry":{"x":177775.73000000045,"y":2544034.7200000025}},{"attributes":{"ID":569809,"DIS_CODE":0,"TOWNNAME":"歸仁區","LI":"媽廟里","LIN":"28鄰","STREET":"保大路","SECT":"一段","MAREA":" ","LANE":" ","ALLEY":" ","HOUSE_NO":"１３０號","E_COORD97":177764.42999999999,"N_COORD97":2544033.7200000002,"ADDRESS":"保大路一段１３０號","OBJECTID":569782},"geometry":{"x":177764.43000000063,"y":2544033.7200000044}},{"attributes":{"ID":569810,"DIS_CODE":0,"TOWNNAME":"歸仁區","LI":"歸南里","LIN":"28鄰","STREET":"民生南街","SECT":"二段","MAREA":" ","LANE":" ","ALLEY":" ","HOUSE_NO":"２７４號","E_COORD97":176049.66,"N_COORD97":2540019.25,"ADDRESS":"民生南街二段２７４號","OBJECTID":569783},"geometry":{"x":176049.66000000108,"y":2540019.2500000019}},{"attributes":{"ID":569811,"DIS_CODE":0,"TOWNNAME":"歸仁區","LI":"新厝里","LIN":"28鄰","STREET":"中正南路","SECT":"一段","MAREA":" ","LANE":" ","ALLEY":" ","HOUSE_NO":"４３７號","E_COORD97":176965.62,"N_COORD97":2540070.79,"ADDRESS":"中正南路一段４３７號","OBJECTID":569784},"geometry":{"x":176965.62000000104,"y":2540070.7899999991}},{"attributes":{"ID":569812,"DIS_CODE":0,"TOWNNAME":"歸仁區","LI":"媽廟里","LIN":"28鄰","STREET":"保大路","SECT":"一段","MAREA":" ","LANE":" ","ALLEY":" ","HOUSE_NO":"１３４號","E_COORD97":177756.23000000001,"N_COORD97":2544033.7200000002,"ADDRESS":"保大路一段１３４號","OBJECTID":569785},"geometry":{"x":177756.23000000231,"y":2544033.7200000044}},{"attributes":{"ID":569813,"DIS_CODE":0,"TOWNNAME":"歸仁區","LI":"歸南里","LIN":"28鄰","STREET":"民生南街","SECT":"二段","MAREA":" ","LANE":" ","ALLEY":" ","HOUSE_NO":"２７０號","E_COORD97":176067.16,"N_COORD97":2540028.25,"ADDRESS":"民生南街二段２７０號","OBJECTID":569786},"geometry":{"x":176067.16000000015,"y":2540028.25}},{"attributes":{"ID":569814,"DIS_CODE":0,"TOWNNAME":"歸仁區","LI":"歸仁里","LIN":"28鄰","STREET":"中山路","SECT":"一段","MAREA":" ","LANE":" ","ALLEY":" ","HOUSE_NO":"６號","E_COORD97":179628.38,"N_COORD97":2540319.5699999998,"ADDRESS":"中山路一段６號","OBJECTID":569787},"geometry":{"x":179628.38000000082,"y":2540319.5700000022}},{"attributes":{"ID":569815,"DIS_CODE":0,"TOWNNAME":"歸仁區","LI":"媽廟里","LIN":"28鄰","STREET":"保大路","SECT":"一段","MAREA":" ","LANE":" ","ALLEY":" ","HOUSE_NO":"１４０號","E_COORD97":177742.92999999999,"N_COORD97":2544033.7200000002,"ADDRESS":"保大路一段１４０號","OBJECTID":569788},"geometry":{"x":177742.93000000063,"y":2544033.7200000044}},{"attributes":{"ID":569816,"DIS_CODE":0,"TOWNNAME":"歸仁區","LI":"媽廟里","LIN":"28鄰","STREET":"保大路","SECT":"一段","MAREA":" ","LANE":" ","ALLEY":" ","HOUSE_NO":"１３８號","E_COORD97":177748.03,"N_COORD97":2544033.7200000002,"ADDRESS":"保大路一段１３８號","OBJECTID":569789},"geometry":{"x":177748.03000000026,"y":2544033.7200000044}},{"attributes":{"ID":569817,"DIS_CODE":0,"TOWNNAME":"歸仁區","LI":"媽廟里","LIN":"28鄰","STREET":"保大路","SECT":"一段","MAREA":" ","LANE":" ","ALLEY":" ","HOUSE_NO":"１２２號","E_COORD97":177782.92999999999,"N_COORD97":2544034.7200000002,"ADDRESS":"保大路一段１２２號","OBJECTID":569790},"geometry":{"x":177782.93000000156,"y":2544034.7200000025}},{"attributes":{"ID":569818,"DIS_CODE":0,"TOWNNAME":"歸仁區","LI":"歸南里","LIN":"28鄰","STREET":"民生南街","SECT":"二段","MAREA":" ","LANE":" ","ALLEY":" ","HOUSE_NO":"２６４號","E_COORD97":176067.26000000001,"N_COORD97":2540040.25,"ADDRESS":"民生南街二段２６４號","OBJECTID":569791},"geometry":{"x":176067.26000000071,"y":2540040.2500000019}},{"attributes":{"ID":569819,"DIS_CODE":0,"TOWNNAME":"歸仁區","LI":"媽廟里","LIN":"28鄰","STREET":"保大路","SECT":"一段","MAREA":" ","LANE":" ","ALLEY":" ","HOUSE_NO":"９０號","E_COORD97":177897.48000000001,"N_COORD97":2544040.7200000002,"ADDRESS":"保大路一段９０號","OBJECTID":569792},"geometry":{"x":177897.48000000138,"y":2544040.7200000025}},{"attributes":{"ID":569820,"DIS_CODE":0,"TOWNNAME":"歸仁區","LI":"媽廟里","LIN":"28鄰","STREET":"保大路","SECT":"一段","MAREA":" ","LANE":" ","ALLEY":" ","HOUSE_NO":"１３２號","E_COORD97":177760.32999999999,"N_COORD97":2544033.7200000002,"ADDRESS":"保大路一段１３２號","OBJECTID":569793},"geometry":{"x":177760.33000000101,"y":2544033.7200000044}},{"attributes":{"ID":569821,"DIS_CODE":0,"TOWNNAME":"歸仁區","LI":"歸南里","LIN":"28鄰","STREET":"民生南街","SECT":"二段","MAREA":" ","LANE":" ","ALLEY":" ","HOUSE_NO":"２５６號","E_COORD97":176051.85999999999,"N_COORD97":2540055.25,"ADDRESS":"民生南街二段２５６號","OBJECTID":569794},"geometry":{"x":176051.86000000127,"y":2540055.25}},{"attributes":{"ID":569822,"DIS_CODE":0,"TOWNNAME":"歸仁區","LI":"媽廟里","LIN":"28鄰","STREET":"保大路","SECT":"一段","MAREA":" ","LANE":" ","ALLEY":" ","HOUSE_NO":"１４６號","E_COORD97":177730.63,"N_COORD97":2544032.7200000002,"ADDRESS":"保大路一段１４６號","OBJECTID":569795},"geometry":{"x":177730.62999999989,"y":2544032.7200000007}},{"attributes":{"ID":569823,"DIS_CODE":0,"TOWNNAME":"歸仁區","LI":"歸南里","LIN":"28鄰","STREET":"民生南街","SECT":"二段","MAREA":" ","LANE":" ","ALLEY":" ","HOUSE_NO":"２６６號","E_COORD97":176067.16,"N_COORD97":2540035.25,"ADDRESS":"民生南街二段２６６號","OBJECTID":569796},"geometry":{"x":176067.16000000015,"y":2540035.2499999981}},{"attributes":{"ID":569824,"DIS_CODE":0,"TOWNNAME":"歸仁區","LI":"媽廟里","LIN":"28鄰","STREET":"保大路","SECT":"一段","MAREA":" ","LANE":" ","ALLEY":" ","HOUSE_NO":"１１８號","E_COORD97":177806.42999999999,"N_COORD97":2544035.7200000002,"ADDRESS":"保大路一段１１８號","OBJECTID":569797},"geometry":{"x":177806.42999999877,"y":2544035.7200000007}},{"attributes":{"ID":569825,"DIS_CODE":0,"TOWNNAME":"歸仁區","LI":"歸仁里","LIN":"28鄰","STREET":"中山路","SECT":"一段","MAREA":" ","LANE":" ","ALLEY":" ","HOUSE_NO":"５８號","E_COORD97":179455.73000000001,"N_COORD97":2540398.5699999998,"ADDRESS":"中山路一段５８號","OBJECTID":569798},"geometry":{"x":179455.73000000045,"y":2540398.5700000003}},{"attributes":{"ID":569826,"DIS_CODE":0,"TOWNNAME":"歸仁區","LI":"歸仁里","LIN":"28鄰","STREET":"中山路","SECT":"一段","MAREA":" ","LANE":" ","ALLEY":" ","HOUSE_NO":"２８６號","E_COORD97":178566.01000000001,"N_COORD97":2540672.25,"ADDRESS":"中山路一段２８６號","OBJECTID":569799},"geometry":{"x":178566.01000000071,"y":2540672.25}},{"attributes":{"ID":569827,"DIS_CODE":0,"TOWNNAME":"歸仁區","LI":"歸仁里","LIN":"28鄰","STREET":"中山路","SECT":"一段","MAREA":" ","LANE":" ","ALLEY":" ","HOUSE_NO":"３４號","E_COORD97":179570.23000000001,"N_COORD97":2540337.5699999998,"ADDRESS":"中山路一段３４號","OBJECTID":569800},"geometry":{"x":179570.23000000138,"y":2540337.5700000003}}]}