{"displayFieldName":"TOWNNAME","fieldAliases":{"ID":"ID","DIS_CODE":"DIS_CODE","TOWNNAME":"TOWNNAME","LI":"LI","LIN":"LIN","STREET":"STREET","SECT":"SECT","MAREA":"MAREA","LANE":"LANE","ALLEY":"ALLEY","HOUSE_NO":"HOUSE_NO","E_COORD97":"E_COORD97","N_COORD97":"N_COORD97","ADDRESS":"ADDRESS","OBJECTID":"OBJECTID"},"geometryType":"esriGeometryPoint","spatialReference":{"wkid":102443,"latestWkid":3826},"fields":[{"name":"ID","type":"esriFieldTypeDouble","alias":"ID"},{"name":"DIS_CODE","type":"esriFieldTypeInteger","alias":"DIS_CODE"},{"name":"TOWNNAME","type":"esriFieldTypeString","alias":"TOWNNAME","length":8},{"name":"LI","type":"esriFieldTypeString","alias":"LI","length":8},{"name":"LIN","type":"esriFieldTypeString","alias":"LIN","length":12},{"name":"STREET","type":"esriFieldTypeString","alias":"STREET","length":20},{"name":"SECT","type":"esriFieldTypeString","alias":"SECT","length":8},{"name":"MAREA","type":"esriFieldTypeString","alias":"MAREA","length":12},{"name":"LANE","type":"esriFieldTypeString","alias":"LANE","length":10},{"name":"ALLEY","type":"esriFieldTypeString","alias":"ALLEY","length":10},{"name":"HOUSE_NO","type":"esriFieldTypeString","alias":"HOUSE_NO","length":20},{"name":"E_COORD97","type":"esriFieldTypeDouble","alias":"E_COORD97"},{"name":"N_COORD97","type":"esriFieldTypeDouble","alias":"N_COORD97"},{"name":"ADDRESS","type":"esriFieldTypeString","alias":"ADDRESS","length":50},{"name":"OBJECTID","type":"esriFieldTypeOID","alias":"OBJECTID"}],"features":[{"attributes":{"ID":325410,"DIS_CODE":0,"TOWNNAME":"永康區","LI":"東橋里","LIN":"26鄰","STREET":"中正路","SECT":" ","MAREA":" ","LANE":"２７９巷","ALLEY":" ","HOUSE_NO":"６號","E_COORD97":172663.92999999999,"N_COORD97":2548052.7400000002,"ADDRESS":"中正路２７９巷６號","OBJECTID":325401},"geometry":{"x":172663.93000000063,"y":2548052.7400000002}},{"attributes":{"ID":325411,"DIS_CODE":0,"TOWNNAME":"東區","LI":"東安里","LIN":"15鄰","STREET":"長榮路","SECT":"二段","MAREA":" ","LANE":"３２巷","ALLEY":" ","HOUSE_NO":"１６２號二樓之６","E_COORD97":170184.60000000001,"N_COORD97":2543077.5299999998,"ADDRESS":"長榮路二段３２巷１６２號二樓之６","OBJECTID":325402},"geometry":{"x":170184.59999999963,"y":2543077.5300000031}},{"attributes":{"ID":325412,"DIS_CODE":0,"TOWNNAME":"東區","LI":"東安里","LIN":"15鄰","STREET":"長榮路","SECT":"二段","MAREA":" ","LANE":"３２巷","ALLEY":" ","HOUSE_NO":"１６２號二樓之７","E_COORD97":170184.60000000001,"N_COORD97":2543077.5299999998,"ADDRESS":"長榮路二段３２巷１６２號二樓之７","OBJECTID":325403},"geometry":{"x":170184.59999999963,"y":2543077.5300000031}},{"attributes":{"ID":325413,"DIS_CODE":0,"TOWNNAME":"東區","LI":"東安里","LIN":"15鄰","STREET":"長榮路","SECT":"二段","MAREA":" ","LANE":"３２巷","ALLEY":" ","HOUSE_NO":"１６２號二樓之８","E_COORD97":170184.60000000001,"N_COORD97":2543077.5299999998,"ADDRESS":"長榮路二段３２巷１６２號二樓之８","OBJECTID":325404},"geometry":{"x":170184.59999999963,"y":2543077.5300000031}},{"attributes":{"ID":325414,"DIS_CODE":0,"TOWNNAME":"東區","LI":"東安里","LIN":"15鄰","STREET":"長榮路","SECT":"二段","MAREA":" ","LANE":"３２巷","ALLEY":" ","HOUSE_NO":"１６２號二樓之９","E_COORD97":170184.60000000001,"N_COORD97":2543077.5299999998,"ADDRESS":"長榮路二段３２巷１６２號二樓之９","OBJECTID":325405},"geometry":{"x":170184.59999999963,"y":2543077.5300000031}},{"attributes":{"ID":325415,"DIS_CODE":0,"TOWNNAME":"東區","LI":"東安里","LIN":"15鄰","STREET":"長榮路","SECT":"二段","MAREA":" ","LANE":"３２巷","ALLEY":" ","HOUSE_NO":"１６２號三樓之１","E_COORD97":170184.60000000001,"N_COORD97":2543077.5299999998,"ADDRESS":"長榮路二段３２巷１６２號三樓之１","OBJECTID":325406},"geometry":{"x":170184.59999999963,"y":2543077.5300000031}},{"attributes":{"ID":325416,"DIS_CODE":0,"TOWNNAME":"東區","LI":"東安里","LIN":"15鄰","STREET":"長榮路","SECT":"二段","MAREA":" ","LANE":"３２巷","ALLEY":" ","HOUSE_NO":"１６２號三樓之１０","E_COORD97":170184.60000000001,"N_COORD97":2543077.5299999998,"ADDRESS":"長榮路二段３２巷１６２號三樓之１０","OBJECTID":325407},"geometry":{"x":170184.59999999963,"y":2543077.5300000031}},{"attributes":{"ID":325417,"DIS_CODE":0,"TOWNNAME":"東區","LI":"東安里","LIN":"15鄰","STREET":"長榮路","SECT":"二段","MAREA":" ","LANE":"３２巷","ALLEY":" ","HOUSE_NO":"１６２號三樓之１１","E_COORD97":170184.60000000001,"N_COORD97":2543077.5299999998,"ADDRESS":"長榮路二段３２巷１６２號三樓之１１","OBJECTID":325408},"geometry":{"x":170184.59999999963,"y":2543077.5300000031}},{"attributes":{"ID":325418,"DIS_CODE":0,"TOWNNAME":"東區","LI":"東安里","LIN":"15鄰","STREET":"長榮路","SECT":"二段","MAREA":" ","LANE":"３２巷","ALLEY":" ","HOUSE_NO":"１６２號三樓之１２","E_COORD97":170184.60000000001,"N_COORD97":2543077.5299999998,"ADDRESS":"長榮路二段３２巷１６２號三樓之１２","OBJECTID":325409},"geometry":{"x":170184.59999999963,"y":2543077.5300000031}},{"attributes":{"ID":325419,"DIS_CODE":0,"TOWNNAME":"東區","LI":"東安里","LIN":"15鄰","STREET":"長榮路","SECT":"二段","MAREA":" ","LANE":"３２巷","ALLEY":" ","HOUSE_NO":"１６２號三樓之１３","E_COORD97":170184.60000000001,"N_COORD97":2543077.5299999998,"ADDRESS":"長榮路二段３２巷１６２號三樓之１３","OBJECTID":325410},"geometry":{"x":170184.59999999963,"y":2543077.5300000031}},{"attributes":{"ID":325420,"DIS_CODE":0,"TOWNNAME":"東區","LI":"東安里","LIN":"15鄰","STREET":"長榮路","SECT":"二段","MAREA":" ","LANE":"３２巷","ALLEY":" ","HOUSE_NO":"１６２號三樓之１４","E_COORD97":170184.60000000001,"N_COORD97":2543077.5299999998,"ADDRESS":"長榮路二段３２巷１６２號三樓之１４","OBJECTID":325411},"geometry":{"x":170184.59999999963,"y":2543077.5300000031}},{"attributes":{"ID":325421,"DIS_CODE":0,"TOWNNAME":"東區","LI":"東安里","LIN":"15鄰","STREET":"長榮路","SECT":"二段","MAREA":" ","LANE":"３２巷","ALLEY":" ","HOUSE_NO":"１６２號三樓之１５","E_COORD97":170184.60000000001,"N_COORD97":2543077.5299999998,"ADDRESS":"長榮路二段３２巷１６２號三樓之１５","OBJECTID":325412},"geometry":{"x":170184.59999999963,"y":2543077.5300000031}},{"attributes":{"ID":325422,"DIS_CODE":0,"TOWNNAME":"東區","LI":"東安里","LIN":"15鄰","STREET":"長榮路","SECT":"二段","MAREA":" ","LANE":"３２巷","ALLEY":" ","HOUSE_NO":"１６２號三樓之１６","E_COORD97":170184.60000000001,"N_COORD97":2543077.5299999998,"ADDRESS":"長榮路二段３２巷１６２號三樓之１６","OBJECTID":325413},"geometry":{"x":170184.59999999963,"y":2543077.5300000031}},{"attributes":{"ID":325423,"DIS_CODE":0,"TOWNNAME":"東區","LI":"東安里","LIN":"15鄰","STREET":"長榮路","SECT":"二段","MAREA":" ","LANE":"３２巷","ALLEY":" ","HOUSE_NO":"１６２號三樓之１７","E_COORD97":170184.60000000001,"N_COORD97":2543077.5299999998,"ADDRESS":"長榮路二段３２巷１６２號三樓之１７","OBJECTID":325414},"geometry":{"x":170184.59999999963,"y":2543077.5300000031}},{"attributes":{"ID":325424,"DIS_CODE":0,"TOWNNAME":"東區","LI":"東安里","LIN":"15鄰","STREET":"長榮路","SECT":"二段","MAREA":" ","LANE":"３２巷","ALLEY":" ","HOUSE_NO":"１６２號三樓之１８","E_COORD97":170184.60000000001,"N_COORD97":2543077.5299999998,"ADDRESS":"長榮路二段３２巷１６２號三樓之１８","OBJECTID":325415},"geometry":{"x":170184.59999999963,"y":2543077.5300000031}},{"attributes":{"ID":325425,"DIS_CODE":0,"TOWNNAME":"東區","LI":"東安里","LIN":"15鄰","STREET":"長榮路","SECT":"二段","MAREA":" ","LANE":"３２巷","ALLEY":" ","HOUSE_NO":"１６２號三樓之１９","E_COORD97":170184.60000000001,"N_COORD97":2543077.5299999998,"ADDRESS":"長榮路二段３２巷１６２號三樓之１９","OBJECTID":325416},"geometry":{"x":170184.59999999963,"y":2543077.5300000031}},{"attributes":{"ID":325426,"DIS_CODE":0,"TOWNNAME":"歸仁區","LI":"看東里","LIN":"2鄰","STREET":"忠孝南路","SECT":" ","MAREA":" ","LANE":" ","ALLEY":" ","HOUSE_NO":"１０６號","E_COORD97":178527.49843400001,"N_COORD97":2540361.0469200001,"ADDRESS":"忠孝南路１０６號","OBJECTID":325417},"geometry":{"x":178527.49843400065,"y":2540361.0469189994}},{"attributes":{"ID":325427,"DIS_CODE":0,"TOWNNAME":"東區","LI":"東安里","LIN":"15鄰","STREET":"長榮路","SECT":"二段","MAREA":" ","LANE":"３２巷","ALLEY":" ","HOUSE_NO":"１６２號三樓之２","E_COORD97":170184.60000000001,"N_COORD97":2543077.5299999998,"ADDRESS":"長榮路二段３２巷１６２號三樓之２","OBJECTID":325418},"geometry":{"x":170184.59999999963,"y":2543077.5300000031}},{"attributes":{"ID":325428,"DIS_CODE":0,"TOWNNAME":"鹽水區","LI":"橋南里","LIN":"17鄰","STREET":"月津路","SECT":" ","MAREA":" ","LANE":" ","ALLEY":" ","HOUSE_NO":"３０號","E_COORD97":174884.09,"N_COORD97":2579254.0899999999,"ADDRESS":"月津路３０號","OBJECTID":325419},"geometry":{"x":174884.08999999985,"y":2579254.0900000017}},{"attributes":{"ID":325429,"DIS_CODE":0,"TOWNNAME":"鹽水區","LI":"橋南里","LIN":"17鄰","STREET":"月津路","SECT":" ","MAREA":" ","LANE":" ","ALLEY":" ","HOUSE_NO":"３２號","E_COORD97":174874.84,"N_COORD97":2579233.8599999999,"ADDRESS":"月津路３２號","OBJECTID":325420},"geometry":{"x":174874.84000000078,"y":2579233.8600000031}},{"attributes":{"ID":325430,"DIS_CODE":0,"TOWNNAME":"中西區","LI":"民生里","LIN":"7鄰","STREET":"金華路","SECT":"三段","MAREA":" ","LANE":" ","ALLEY":" ","HOUSE_NO":"５６號","E_COORD97":167213.83522000001,"N_COORD97":2543363.0247200001,"ADDRESS":"金華路三段５６號","OBJECTID":325421},"geometry":{"x":167213.83522000164,"y":2543363.0247240011}},{"attributes":{"ID":325431,"DIS_CODE":0,"TOWNNAME":"永康區","LI":"埔園里","LIN":"26鄰","STREET":"自強路","SECT":" ","MAREA":" ","LANE":"４１７巷","ALLEY":" ","HOUSE_NO":"２９號","E_COORD97":173741.64999999999,"N_COORD97":2548049.1699999999,"ADDRESS":"自強路４１７巷２９號","OBJECTID":325422},"geometry":{"x":173741.65000000037,"y":2548049.1699999999}},{"attributes":{"ID":325432,"DIS_CODE":0,"TOWNNAME":"永康區","LI":"神洲里","LIN":"5鄰","STREET":"忠孝路","SECT":" ","MAREA":" ","LANE":"３８巷","ALLEY":" ","HOUSE_NO":"５號","E_COORD97":172108.35000000001,"N_COORD97":2544707.46,"ADDRESS":"忠孝路３８巷５號","OBJECTID":325423},"geometry":{"x":172108.35000000056,"y":2544707.4600000028}},{"attributes":{"ID":325433,"DIS_CODE":0,"TOWNNAME":"永康區","LI":"勝利里","LIN":"18鄰","STREET":"中華一路","SECT":" ","MAREA":" ","LANE":"３２４巷","ALLEY":" ","HOUSE_NO":"１３號","E_COORD97":171217.62,"N_COORD97":2545052.8700000001,"ADDRESS":"中華一路３２４巷１３號","OBJECTID":325424},"geometry":{"x":171217.62000000011,"y":2545052.870000001}},{"attributes":{"ID":325434,"DIS_CODE":0,"TOWNNAME":"永康區","LI":"東橋里","LIN":"26鄰","STREET":"中正路","SECT":" ","MAREA":" ","LANE":"２７９巷","ALLEY":" ","HOUSE_NO":"１６號","E_COORD97":172574.98000000001,"N_COORD97":2547996.5,"ADDRESS":"中正路２７９巷１６號","OBJECTID":325425},"geometry":{"x":172574.98000000045,"y":2547996.5}},{"attributes":{"ID":325435,"DIS_CODE":0,"TOWNNAME":"永康區","LI":"埔園里","LIN":"4鄰","STREET":"中山路","SECT":" ","MAREA":" ","LANE":"１５８巷","ALLEY":" ","HOUSE_NO":"５０號","E_COORD97":173930.26000000001,"N_COORD97":2547848.9900000002,"ADDRESS":"中山路１５８巷５０號","OBJECTID":325426},"geometry":{"x":173930.25999999978,"y":2547848.9900000039}},{"attributes":{"ID":325436,"DIS_CODE":0,"TOWNNAME":"麻豆區","LI":"中興里","LIN":"4鄰","STREET":"中興街","SECT":" ","MAREA":" ","LANE":"３巷","ALLEY":" ","HOUSE_NO":"９號","E_COORD97":172939.59,"N_COORD97":2564580.7400000002,"ADDRESS":"中興街３巷９號","OBJECTID":325427},"geometry":{"x":172939.58999999985,"y":2564580.7400000002}},{"attributes":{"ID":325437,"DIS_CODE":0,"TOWNNAME":"東區","LI":"東安里","LIN":"15鄰","STREET":"長榮路","SECT":"二段","MAREA":" ","LANE":"３２巷","ALLEY":" ","HOUSE_NO":"１６２號三樓之２０","E_COORD97":170184.60000000001,"N_COORD97":2543077.5299999998,"ADDRESS":"長榮路二段３２巷１６２號三樓之２０","OBJECTID":325428},"geometry":{"x":170184.59999999963,"y":2543077.5300000031}},{"attributes":{"ID":325438,"DIS_CODE":0,"TOWNNAME":"東區","LI":"東安里","LIN":"15鄰","STREET":"長榮路","SECT":"二段","MAREA":" ","LANE":"３２巷","ALLEY":" ","HOUSE_NO":"１６２號三樓之２１","E_COORD97":170184.60000000001,"N_COORD97":2543077.5299999998,"ADDRESS":"長榮路二段３２巷１６２號三樓之２１","OBJECTID":325429},"geometry":{"x":170184.59999999963,"y":2543077.5300000031}},{"attributes":{"ID":325439,"DIS_CODE":0,"TOWNNAME":"東區","LI":"東安里","LIN":"15鄰","STREET":"長榮路","SECT":"二段","MAREA":" ","LANE":"３２巷","ALLEY":" ","HOUSE_NO":"１６２號三樓之２２","E_COORD97":170184.60000000001,"N_COORD97":2543077.5299999998,"ADDRESS":"長榮路二段３２巷１６２號三樓之２２","OBJECTID":325430},"geometry":{"x":170184.59999999963,"y":2543077.5300000031}},{"attributes":{"ID":325440,"DIS_CODE":0,"TOWNNAME":"南區","LI":"開南里","LIN":"7鄰","STREET":"中華西路","SECT":"一段","MAREA":" ","LANE":"８巷","ALLEY":" ","HOUSE_NO":"３號","E_COORD97":166376.82999999999,"N_COORD97":2540577.8799999999,"ADDRESS":"中華西路一段８巷３號","OBJECTID":325431},"geometry":{"x":166376.82999999914,"y":2540577.879999999}},{"attributes":{"ID":325441,"DIS_CODE":0,"TOWNNAME":"東區","LI":"東安里","LIN":"15鄰","STREET":"長榮路","SECT":"二段","MAREA":" ","LANE":"３２巷","ALLEY":" ","HOUSE_NO":"１６２號三樓之３","E_COORD97":170184.60000000001,"N_COORD97":2543077.5299999998,"ADDRESS":"長榮路二段３２巷１６２號三樓之３","OBJECTID":325432},"geometry":{"x":170184.59999999963,"y":2543077.5300000031}},{"attributes":{"ID":325442,"DIS_CODE":0,"TOWNNAME":"東區","LI":"東安里","LIN":"15鄰","STREET":"長榮路","SECT":"二段","MAREA":" ","LANE":"３２巷","ALLEY":" ","HOUSE_NO":"１６２號三樓之４","E_COORD97":170184.60000000001,"N_COORD97":2543077.5299999998,"ADDRESS":"長榮路二段３２巷１６２號三樓之４","OBJECTID":325433},"geometry":{"x":170184.59999999963,"y":2543077.5300000031}},{"attributes":{"ID":325443,"DIS_CODE":0,"TOWNNAME":"東區","LI":"東安里","LIN":"15鄰","STREET":"長榮路","SECT":"二段","MAREA":" ","LANE":"３２巷","ALLEY":" ","HOUSE_NO":"１６２號三樓之５","E_COORD97":170184.60000000001,"N_COORD97":2543077.5299999998,"ADDRESS":"長榮路二段３２巷１６２號三樓之５","OBJECTID":325434},"geometry":{"x":170184.59999999963,"y":2543077.5300000031}},{"attributes":{"ID":325444,"DIS_CODE":0,"TOWNNAME":"東區","LI":"東安里","LIN":"15鄰","STREET":"長榮路","SECT":"二段","MAREA":" ","LANE":"３２巷","ALLEY":" ","HOUSE_NO":"１６２號三樓之６","E_COORD97":170184.60000000001,"N_COORD97":2543077.5299999998,"ADDRESS":"長榮路二段３２巷１６２號三樓之６","OBJECTID":325435},"geometry":{"x":170184.59999999963,"y":2543077.5300000031}},{"attributes":{"ID":325445,"DIS_CODE":0,"TOWNNAME":"鹽水區","LI":"橋南里","LIN":"17鄰","STREET":"月津路","SECT":" ","MAREA":" ","LANE":" ","ALLEY":" ","HOUSE_NO":"３４號","E_COORD97":174872.56,"N_COORD97":2579230.5899999999,"ADDRESS":"月津路３４號","OBJECTID":325436},"geometry":{"x":174872.55999999959,"y":2579230.5900000017}},{"attributes":{"ID":325446,"DIS_CODE":0,"TOWNNAME":"鹽水區","LI":"橋南里","LIN":"17鄰","STREET":"月津路","SECT":" ","MAREA":" ","LANE":" ","ALLEY":" ","HOUSE_NO":"３６號","E_COORD97":174870.28,"N_COORD97":2579227.3199999998,"ADDRESS":"月津路３６號","OBJECTID":325437},"geometry":{"x":174870.27999999933,"y":2579227.3200000003}},{"attributes":{"ID":325447,"DIS_CODE":0,"TOWNNAME":"關廟區","LI":"北勢里","LIN":"17鄰","STREET":"成功路","SECT":" ","MAREA":" ","LANE":" ","ALLEY":" ","HOUSE_NO":"３４７號","E_COORD97":181280.57000000001,"N_COORD97":2540499.27,"ADDRESS":"成功路３４７號","OBJECTID":325438},"geometry":{"x":181280.5700000003,"y":2540499.2700000033}},{"attributes":{"ID":325448,"DIS_CODE":0,"TOWNNAME":"關廟區","LI":"東勢里","LIN":"17鄰","STREET":"旺萊路","SECT":" ","MAREA":" ","LANE":" ","ALLEY":" ","HOUSE_NO":"２６２號","E_COORD97":181923.84,"N_COORD97":2539394.25,"ADDRESS":"旺萊路２６２號","OBJECTID":325439},"geometry":{"x":181923.84000000078,"y":2539394.25}},{"attributes":{"ID":325449,"DIS_CODE":0,"TOWNNAME":"關廟區","LI":"東勢里","LIN":"17鄰","STREET":"東仁街","SECT":" ","MAREA":" ","LANE":" ","ALLEY":" ","HOUSE_NO":"１９號","E_COORD97":181882.32000000001,"N_COORD97":2539307.25,"ADDRESS":"東仁街１９號","OBJECTID":325440},"geometry":{"x":181882.3200000003,"y":2539307.2500000019}},{"attributes":{"ID":325450,"DIS_CODE":0,"TOWNNAME":"關廟區","LI":"五甲里","LIN":"17鄰","STREET":"五義街","SECT":" ","MAREA":" ","LANE":" ","ALLEY":" ","HOUSE_NO":"５３號","E_COORD97":181088.22,"N_COORD97":2539050.27,"ADDRESS":"五義街５３號","OBJECTID":325441},"geometry":{"x":181088.2200000016,"y":2539050.2699999996}},{"attributes":{"ID":325451,"DIS_CODE":0,"TOWNNAME":"永康區","LI":"崑山里","LIN":"20鄰","STREET":"崑山街","SECT":" ","MAREA":" ","LANE":"２１巷","ALLEY":" ","HOUSE_NO":"４６號","E_COORD97":173834.09,"N_COORD97":2544613.02,"ADDRESS":"崑山街２１巷４６號","OBJECTID":325442},"geometry":{"x":173834.09000000078,"y":2544613.0199999996}},{"attributes":{"ID":325452,"DIS_CODE":0,"TOWNNAME":"永康區","LI":"埔園里","LIN":"25鄰","STREET":"自強路","SECT":" ","MAREA":" ","LANE":"４１７巷","ALLEY":" ","HOUSE_NO":"４４號","E_COORD97":173739.23999999999,"N_COORD97":2548095.29,"ADDRESS":"自強路４１７巷４４號","OBJECTID":325443},"geometry":{"x":173739.24000000022,"y":2548095.2899999991}},{"attributes":{"ID":325453,"DIS_CODE":0,"TOWNNAME":"永康區","LI":"崑山里","LIN":"46鄰","STREET":"崑山街","SECT":" ","MAREA":" ","LANE":"２５８巷","ALLEY":" ","HOUSE_NO":"９號","E_COORD97":174163.87,"N_COORD97":2545144.0800000001,"ADDRESS":"崑山街２５８巷９號","OBJECTID":325444},"geometry":{"x":174163.87000000011,"y":2545144.0800000019}},{"attributes":{"ID":325454,"DIS_CODE":0,"TOWNNAME":"永康區","LI":"崑山里","LIN":"20鄰","STREET":"崑山街","SECT":" ","MAREA":" ","LANE":"２１巷","ALLEY":" ","HOUSE_NO":"４０號","E_COORD97":173828.31,"N_COORD97":2544595.1200000001,"ADDRESS":"崑山街２１巷４０號","OBJECTID":325445},"geometry":{"x":173828.30999999959,"y":2544595.1200000029}},{"attributes":{"ID":325455,"DIS_CODE":0,"TOWNNAME":"永康區","LI":"勝利里","LIN":"25鄰","STREET":"中華路","SECT":" ","MAREA":" ","LANE":"１５５巷","ALLEY":" ","HOUSE_NO":"７０號","E_COORD97":171450.31,"N_COORD97":2544752.5,"ADDRESS":"中華路１５５巷７０號","OBJECTID":325446},"geometry":{"x":171450.31000000145,"y":2544752.5}},{"attributes":{"ID":325456,"DIS_CODE":0,"TOWNNAME":"永康區","LI":"東橋里","LIN":"25鄰","STREET":"中正路","SECT":" ","MAREA":" ","LANE":"２６９巷","ALLEY":" ","HOUSE_NO":"１９號","E_COORD97":172777.45999999999,"N_COORD97":2547906.2400000002,"ADDRESS":"中正路２６９巷１９號","OBJECTID":325447},"geometry":{"x":172777.46000000089,"y":2547906.2400000021}},{"attributes":{"ID":325457,"DIS_CODE":0,"TOWNNAME":"永康區","LI":"崑山里","LIN":"20鄰","STREET":"崑山街","SECT":" ","MAREA":" ","LANE":"２１巷","ALLEY":" ","HOUSE_NO":"３６號","E_COORD97":173835.79999999999,"N_COORD97":2544593.1600000001,"ADDRESS":"崑山街２１巷３６號","OBJECTID":325448},"geometry":{"x":173835.80000000168,"y":2544593.1600000039}},{"attributes":{"ID":325458,"DIS_CODE":0,"TOWNNAME":"永康區","LI":"崑山里","LIN":"20鄰","STREET":"崑山街","SECT":" ","MAREA":" ","LANE":"２１巷","ALLEY":" ","HOUSE_NO":"３２號","E_COORD97":173843.69,"N_COORD97":2544590.4199999999,"ADDRESS":"崑山街２１巷３２號","OBJECTID":325449},"geometry":{"x":173843.69000000041,"y":2544590.4199999999}},{"attributes":{"ID":325459,"DIS_CODE":0,"TOWNNAME":"永康區","LI":"東灣里","LIN":"26鄰","STREET":"大灣一街","SECT":" ","MAREA":" ","LANE":"２４２巷","ALLEY":" ","HOUSE_NO":"１９號","E_COORD97":174983,"N_COORD97":2544592.9300000002,"ADDRESS":"大灣一街２４２巷１９號","OBJECTID":325450},"geometry":{"x":174983.00000000093,"y":2544592.9299999997}},{"attributes":{"ID":325460,"DIS_CODE":0,"TOWNNAME":"永康區","LI":"東灣里","LIN":"26鄰","STREET":"大灣一街","SECT":" ","MAREA":" ","LANE":"２４２巷","ALLEY":" ","HOUSE_NO":"３０號","E_COORD97":174955.17000000001,"N_COORD97":2544575.3300000001,"ADDRESS":"大灣一街２４２巷３０號","OBJECTID":325451},"geometry":{"x":174955.16999999993,"y":2544575.3300000019}},{"attributes":{"ID":325461,"DIS_CODE":0,"TOWNNAME":"東區","LI":"東安里","LIN":"15鄰","STREET":"長榮路","SECT":"二段","MAREA":" ","LANE":"３２巷","ALLEY":" ","HOUSE_NO":"１６２號三樓之７","E_COORD97":170184.60000000001,"N_COORD97":2543077.5299999998,"ADDRESS":"長榮路二段３２巷１６２號三樓之７","OBJECTID":325452},"geometry":{"x":170184.59999999963,"y":2543077.5300000031}},{"attributes":{"ID":325462,"DIS_CODE":0,"TOWNNAME":"東區","LI":"東安里","LIN":"15鄰","STREET":"長榮路","SECT":"二段","MAREA":" ","LANE":"３２巷","ALLEY":" ","HOUSE_NO":"１６２號三樓之８","E_COORD97":170184.60000000001,"N_COORD97":2543077.5299999998,"ADDRESS":"長榮路二段３２巷１６２號三樓之８","OBJECTID":325453},"geometry":{"x":170184.59999999963,"y":2543077.5300000031}},{"attributes":{"ID":325463,"DIS_CODE":0,"TOWNNAME":"東區","LI":"東安里","LIN":"15鄰","STREET":"長榮路","SECT":"二段","MAREA":" ","LANE":"３２巷","ALLEY":" ","HOUSE_NO":"１６２號三樓之９","E_COORD97":170184.60000000001,"N_COORD97":2543077.5299999998,"ADDRESS":"長榮路二段３２巷１６２號三樓之９","OBJECTID":325454},"geometry":{"x":170184.59999999963,"y":2543077.5300000031}},{"attributes":{"ID":325464,"DIS_CODE":0,"TOWNNAME":"關廟區","LI":"五甲里","LIN":"17鄰","STREET":"五義街","SECT":" ","MAREA":" ","LANE":" ","ALLEY":" ","HOUSE_NO":"７８號","E_COORD97":181055.92000000001,"N_COORD97":2539043.27,"ADDRESS":"五義街７８號","OBJECTID":325455},"geometry":{"x":181055.91999999993,"y":2539043.2699999996}},{"attributes":{"ID":325465,"DIS_CODE":0,"TOWNNAME":"關廟區","LI":"東勢里","LIN":"17鄰","STREET":"東仁街","SECT":" ","MAREA":" ","LANE":" ","ALLEY":" ","HOUSE_NO":"２７號","E_COORD97":181868.51999999999,"N_COORD97":2539298.25,"ADDRESS":"東仁街２７號","OBJECTID":325456},"geometry":{"x":181868.51999999955,"y":2539298.25}},{"attributes":{"ID":325466,"DIS_CODE":0,"TOWNNAME":"關廟區","LI":"北花里","LIN":"17鄰","STREET":"中正路","SECT":" ","MAREA":" ","LANE":" ","ALLEY":" ","HOUSE_NO":"５３９號","E_COORD97":182338.76000000001,"N_COORD97":2540469.25,"ADDRESS":"中正路５３９號","OBJECTID":325457},"geometry":{"x":182338.75999999978,"y":2540469.2499999981}},{"attributes":{"ID":325467,"DIS_CODE":0,"TOWNNAME":"關廟區","LI":"北花里","LIN":"17鄰","STREET":"中正路","SECT":" ","MAREA":" ","LANE":" ","ALLEY":" ","HOUSE_NO":"５１７號","E_COORD97":182380.56,"N_COORD97":2540501.25,"ADDRESS":"中正路５１７號","OBJECTID":325458},"geometry":{"x":182380.55999999959,"y":2540501.2500000019}},{"attributes":{"ID":325468,"DIS_CODE":0,"TOWNNAME":"關廟區","LI":"松腳里","LIN":"17鄰","STREET":"民族街","SECT":" ","MAREA":" ","LANE":" ","ALLEY":" ","HOUSE_NO":"７號","E_COORD97":181606.98999999999,"N_COORD97":2539776.29,"ADDRESS":"民族街７號","OBJECTID":325459},"geometry":{"x":181606.99000000022,"y":2539776.2899999991}},{"attributes":{"ID":325469,"DIS_CODE":0,"TOWNNAME":"關廟區","LI":"東勢里","LIN":"17鄰","STREET":"東德街","SECT":" ","MAREA":" ","LANE":" ","ALLEY":" ","HOUSE_NO":"６０號","E_COORD97":181919.22,"N_COORD97":2539286.27,"ADDRESS":"東德街６０號","OBJECTID":325460},"geometry":{"x":181919.22000000067,"y":2539286.2700000014}},{"attributes":{"ID":325470,"DIS_CODE":0,"TOWNNAME":"關廟區","LI":"北花里","LIN":"17鄰","STREET":"中正路","SECT":" ","MAREA":" ","LANE":" ","ALLEY":" ","HOUSE_NO":"４９３號","E_COORD97":182449.66,"N_COORD97":2540564.25,"ADDRESS":"中正路４９３號","OBJECTID":325461},"geometry":{"x":182449.66000000015,"y":2540564.2500000037}},{"attributes":{"ID":325471,"DIS_CODE":0,"TOWNNAME":"關廟區","LI":"東勢里","LIN":"17鄰","STREET":"東德街","SECT":" ","MAREA":" ","LANE":" ","ALLEY":" ","HOUSE_NO":"６６號","E_COORD97":181913.01999999999,"N_COORD97":2539281.27,"ADDRESS":"東德街６６號","OBJECTID":325462},"geometry":{"x":181913.01999999955,"y":2539281.2699999996}},{"attributes":{"ID":325472,"DIS_CODE":0,"TOWNNAME":"關廟區","LI":"北花里","LIN":"17鄰","STREET":"中正路","SECT":" ","MAREA":" ","LANE":" ","ALLEY":" ","HOUSE_NO":"５４５號","E_COORD97":182322.38,"N_COORD97":2540462.4700000002,"ADDRESS":"中正路５４５號","OBJECTID":325463},"geometry":{"x":182322.37999999989,"y":2540462.4700000025}},{"attributes":{"ID":325473,"DIS_CODE":0,"TOWNNAME":"安平區","LI":"平安里","LIN":"17鄰","STREET":"安平路","SECT":" ","MAREA":" ","LANE":" ","ALLEY":" ","HOUSE_NO":"５６６號","E_COORD97":164953.72,"N_COORD97":2544372.9399999999,"ADDRESS":"安平路５６６號","OBJECTID":325464},"geometry":{"x":164953.72000000067,"y":2544372.9399999995}},{"attributes":{"ID":325474,"DIS_CODE":0,"TOWNNAME":"安平區","LI":"平安里","LIN":"17鄰","STREET":"安平路","SECT":" ","MAREA":" ","LANE":" ","ALLEY":" ","HOUSE_NO":"５９０號","E_COORD97":164884.42999999999,"N_COORD97":2544388.1899999999,"ADDRESS":"安平路５９０號","OBJECTID":325465},"geometry":{"x":164884.43000000063,"y":2544388.1899999995}},{"attributes":{"ID":325475,"DIS_CODE":0,"TOWNNAME":"安平區","LI":"平安里","LIN":"17鄰","STREET":"安平路","SECT":" ","MAREA":" ","LANE":" ","ALLEY":" ","HOUSE_NO":"５７６號之２","E_COORD97":164922.26999999999,"N_COORD97":2544411.4300000002,"ADDRESS":"安平路５７６號之２","OBJECTID":325466},"geometry":{"x":164922.27000000142,"y":2544411.4300000016}},{"attributes":{"ID":325476,"DIS_CODE":0,"TOWNNAME":"永康區","LI":"建國里","LIN":"26鄰","STREET":" ","SECT":" ","MAREA":"慈光九村","LANE":" ","ALLEY":" ","HOUSE_NO":"１５號","E_COORD97":172821.37,"N_COORD97":2544262.5,"ADDRESS":"慈光九村１５號","OBJECTID":325467},"geometry":{"x":172821.37000000011,"y":2544262.5000000019}},{"attributes":{"ID":325477,"DIS_CODE":0,"TOWNNAME":"永康區","LI":"埔園里","LIN":"13鄰","STREET":"中山路","SECT":" ","MAREA":" ","LANE":"２３３巷","ALLEY":" ","HOUSE_NO":"５號","E_COORD97":173622.17999999999,"N_COORD97":2548141.9900000002,"ADDRESS":"中山路２３３巷５號","OBJECTID":325468},"geometry":{"x":173622.1799999997,"y":2548141.9900000021}},{"attributes":{"ID":325478,"DIS_CODE":0,"TOWNNAME":"永康區","LI":"神洲里","LIN":"18鄰","STREET":"忠孝路","SECT":" ","MAREA":" ","LANE":"１５２巷","ALLEY":" ","HOUSE_NO":"６號","E_COORD97":172125.67000000001,"N_COORD97":2545077,"ADDRESS":"忠孝路１５２巷６號","OBJECTID":325469},"geometry":{"x":172125.66999999993,"y":2545077}},{"attributes":{"ID":325479,"DIS_CODE":0,"TOWNNAME":"永康區","LI":"埔園里","LIN":"20鄰","STREET":"四維街","SECT":" ","MAREA":" ","LANE":"１０２巷","ALLEY":" ","HOUSE_NO":"２６號","E_COORD97":173436.85999999999,"N_COORD97":2548232.7799999998,"ADDRESS":"四維街１０２巷２６號","OBJECTID":325470},"geometry":{"x":173436.86000000034,"y":2548232.7800000012}},{"attributes":{"ID":325480,"DIS_CODE":0,"TOWNNAME":"永康區","LI":"東灣里","LIN":"26鄰","STREET":"大灣一街","SECT":" ","MAREA":" ","LANE":"２２０巷","ALLEY":" ","HOUSE_NO":"６號","E_COORD97":174888.34,"N_COORD97":2544557.1499999999,"ADDRESS":"大灣一街２２０巷６號","OBJECTID":325471},"geometry":{"x":174888.34000000078,"y":2544557.1500000022}},{"attributes":{"ID":325481,"DIS_CODE":0,"TOWNNAME":"永康區","LI":"東灣里","LIN":"26鄰","STREET":"大灣一街","SECT":" ","MAREA":" ","LANE":"２４２巷","ALLEY":" ","HOUSE_NO":"１３號","E_COORD97":174979.54000000001,"N_COORD97":2544608.5,"ADDRESS":"大灣一街２４２巷１３號","OBJECTID":325472},"geometry":{"x":174979.54000000004,"y":2544608.5000000019}},{"attributes":{"ID":325482,"DIS_CODE":0,"TOWNNAME":"永康區","LI":"東灣里","LIN":"32鄰","STREET":"大灣一街","SECT":" ","MAREA":" ","LANE":"３３６巷","ALLEY":" ","HOUSE_NO":"１６號","E_COORD97":175095.23000000001,"N_COORD97":2544707.2799999998,"ADDRESS":"大灣一街３３６巷１６號","OBJECTID":325473},"geometry":{"x":175095.23000000138,"y":2544707.2800000012}},{"attributes":{"ID":325483,"DIS_CODE":0,"TOWNNAME":"永康區","LI":"東橋里","LIN":"20鄰","STREET":"中山南路","SECT":" ","MAREA":" ","LANE":"３６５巷","ALLEY":" ","HOUSE_NO":"３號之１９","E_COORD97":172914.07000000001,"N_COORD97":2547109.29,"ADDRESS":"中山南路３６５巷３號之１９","OBJECTID":325474},"geometry":{"x":172914.07000000123,"y":2547109.2899999991}},{"attributes":{"ID":325484,"DIS_CODE":0,"TOWNNAME":"永康區","LI":"東灣里","LIN":"20鄰","STREET":"大灣三街","SECT":" ","MAREA":" ","LANE":"７３巷","ALLEY":" ","HOUSE_NO":"５５號","E_COORD97":174900.19,"N_COORD97":2544861.5099999998,"ADDRESS":"大灣三街７３巷５５號","OBJECTID":325475},"geometry":{"x":174900.19000000134,"y":2544861.5100000035}},{"attributes":{"ID":325485,"DIS_CODE":0,"TOWNNAME":"東區","LI":"東安里","LIN":"15鄰","STREET":"長榮路","SECT":"二段","MAREA":" ","LANE":"３２巷","ALLEY":" ","HOUSE_NO":"１６２號五樓之１","E_COORD97":170184.60000000001,"N_COORD97":2543077.5299999998,"ADDRESS":"長榮路二段３２巷１６２號五樓之１","OBJECTID":325476},"geometry":{"x":170184.59999999963,"y":2543077.5300000031}},{"attributes":{"ID":325486,"DIS_CODE":0,"TOWNNAME":"東區","LI":"東安里","LIN":"15鄰","STREET":"長榮路","SECT":"二段","MAREA":" ","LANE":"３２巷","ALLEY":" ","HOUSE_NO":"１６２號五樓之１０","E_COORD97":170184.60000000001,"N_COORD97":2543077.5299999998,"ADDRESS":"長榮路二段３２巷１６２號五樓之１０","OBJECTID":325477},"geometry":{"x":170184.59999999963,"y":2543077.5300000031}},{"attributes":{"ID":325487,"DIS_CODE":0,"TOWNNAME":"東區","LI":"東安里","LIN":"15鄰","STREET":"長榮路","SECT":"二段","MAREA":" ","LANE":"３２巷","ALLEY":" ","HOUSE_NO":"１６２號五樓之１１","E_COORD97":170184.60000000001,"N_COORD97":2543077.5299999998,"ADDRESS":"長榮路二段３２巷１６２號五樓之１１","OBJECTID":325478},"geometry":{"x":170184.59999999963,"y":2543077.5300000031}},{"attributes":{"ID":325488,"DIS_CODE":0,"TOWNNAME":"東區","LI":"東安里","LIN":"15鄰","STREET":"長榮路","SECT":"二段","MAREA":" ","LANE":"３２巷","ALLEY":" ","HOUSE_NO":"１６２號五樓之１２","E_COORD97":170184.60000000001,"N_COORD97":2543077.5299999998,"ADDRESS":"長榮路二段３２巷１６２號五樓之１２","OBJECTID":325479},"geometry":{"x":170184.59999999963,"y":2543077.5300000031}},{"attributes":{"ID":325489,"DIS_CODE":0,"TOWNNAME":"東區","LI":"東安里","LIN":"15鄰","STREET":"長榮路","SECT":"二段","MAREA":" ","LANE":"３２巷","ALLEY":" ","HOUSE_NO":"１６２號五樓之１３","E_COORD97":170184.60000000001,"N_COORD97":2543077.5299999998,"ADDRESS":"長榮路二段３２巷１６２號五樓之１３","OBJECTID":325480},"geometry":{"x":170184.59999999963,"y":2543077.5300000031}},{"attributes":{"ID":325490,"DIS_CODE":0,"TOWNNAME":"七股區","LI":"樹林里","LIN":"15鄰","STREET":" ","SECT":" ","MAREA":"樹林","LANE":" ","ALLEY":" ","HOUSE_NO":"１３１號之１","E_COORD97":163063.37917999999,"N_COORD97":2557598.2890900001,"ADDRESS":"樹林１３１號之１","OBJECTID":325481},"geometry":{"x":163063.37918000109,"y":2557598.2890900001}},{"attributes":{"ID":325491,"DIS_CODE":0,"TOWNNAME":"東區","LI":"東安里","LIN":"15鄰","STREET":"長榮路","SECT":"二段","MAREA":" ","LANE":"３２巷","ALLEY":" ","HOUSE_NO":"１６２號五樓之１４","E_COORD97":170184.60000000001,"N_COORD97":2543077.5299999998,"ADDRESS":"長榮路二段３２巷１６２號五樓之１４","OBJECTID":325482},"geometry":{"x":170184.59999999963,"y":2543077.5300000031}},{"attributes":{"ID":325492,"DIS_CODE":0,"TOWNNAME":"安平區","LI":"平安里","LIN":"17鄰","STREET":"安平路","SECT":" ","MAREA":" ","LANE":" ","ALLEY":" ","HOUSE_NO":"５７６號之３","E_COORD97":164917.66,"N_COORD97":2544413.1200000001,"ADDRESS":"安平路５７６號之３","OBJECTID":325483},"geometry":{"x":164917.66000000108,"y":2544413.120000001}},{"attributes":{"ID":325493,"DIS_CODE":0,"TOWNNAME":"安平區","LI":"平安里","LIN":"17鄰","STREET":"安平路","SECT":" ","MAREA":" ","LANE":" ","ALLEY":" ","HOUSE_NO":"５７６號之４","E_COORD97":164913.53,"N_COORD97":2544414.5800000001,"ADDRESS":"安平路５７６號之４","OBJECTID":325484},"geometry":{"x":164913.53000000119,"y":2544414.5800000019}},{"attributes":{"ID":325494,"DIS_CODE":0,"TOWNNAME":"安平區","LI":"平安里","LIN":"17鄰","STREET":"安平路","SECT":" ","MAREA":" ","LANE":" ","ALLEY":" ","HOUSE_NO":"５７６號之５","E_COORD97":164908.92000000001,"N_COORD97":2544415.79,"ADDRESS":"安平路５７６號之５","OBJECTID":325485},"geometry":{"x":164908.92000000086,"y":2544415.790000001}},{"attributes":{"ID":325495,"DIS_CODE":0,"TOWNNAME":"安平區","LI":"平安里","LIN":"17鄰","STREET":"安平路","SECT":" ","MAREA":" ","LANE":" ","ALLEY":" ","HOUSE_NO":"５７８號","E_COORD97":164911.26000000001,"N_COORD97":2544381.77,"ADDRESS":"安平路５７８號","OBJECTID":325486},"geometry":{"x":164911.26000000071,"y":2544381.7700000014}},{"attributes":{"ID":325496,"DIS_CODE":0,"TOWNNAME":"安平區","LI":"平安里","LIN":"17鄰","STREET":"安平路","SECT":" ","MAREA":" ","LANE":" ","ALLEY":" ","HOUSE_NO":"５８０號","E_COORD97":164906.76999999999,"N_COORD97":2544383.6299999999,"ADDRESS":"安平路５８０號","OBJECTID":325487},"geometry":{"x":164906.76999999955,"y":2544383.629999999}},{"attributes":{"ID":325497,"DIS_CODE":0,"TOWNNAME":"安平區","LI":"平安里","LIN":"17鄰","STREET":"安平路","SECT":" ","MAREA":" ","LANE":" ","ALLEY":" ","HOUSE_NO":"５８２號","E_COORD97":164902.07999999999,"N_COORD97":2544384.1699999999,"ADDRESS":"安平路５８２號","OBJECTID":325488},"geometry":{"x":164902.08000000194,"y":2544384.1699999999}},{"attributes":{"ID":325498,"DIS_CODE":0,"TOWNNAME":"安平區","LI":"平安里","LIN":"17鄰","STREET":"安平路","SECT":" ","MAREA":" ","LANE":" ","ALLEY":" ","HOUSE_NO":"５８４號","E_COORD97":164897.66,"N_COORD97":2544385.1499999999,"ADDRESS":"安平路５８４號","OBJECTID":325489},"geometry":{"x":164897.66000000015,"y":2544385.1500000004}},{"attributes":{"ID":325499,"DIS_CODE":0,"TOWNNAME":"安平區","LI":"平安里","LIN":"17鄰","STREET":"安平路","SECT":" ","MAREA":" ","LANE":" ","ALLEY":" ","HOUSE_NO":"６０８號","E_COORD97":164817.95000000001,"N_COORD97":2544402.2400000002,"ADDRESS":"安平路６０８號","OBJECTID":325490},"geometry":{"x":164817.95000000019,"y":2544402.2400000002}},{"attributes":{"ID":325500,"DIS_CODE":0,"TOWNNAME":"安平區","LI":"平安里","LIN":"17鄰","STREET":"安平路","SECT":" ","MAREA":" ","LANE":" ","ALLEY":" ","HOUSE_NO":"６１８號","E_COORD97":164790.81,"N_COORD97":2544415.8799999999,"ADDRESS":"安平路６１８號","OBJECTID":325491},"geometry":{"x":164790.80999999959,"y":2544415.879999999}},{"attributes":{"ID":325501,"DIS_CODE":0,"TOWNNAME":"安平區","LI":"平安里","LIN":"17鄰","STREET":"安平路","SECT":" ","MAREA":" ","LANE":" ","ALLEY":" ","HOUSE_NO":"６２４號","E_COORD97":164768.63,"N_COORD97":2544426.4900000002,"ADDRESS":"安平路６２４號","OBJECTID":325492},"geometry":{"x":164768.62999999989,"y":2544426.4900000002}},{"attributes":{"ID":325502,"DIS_CODE":0,"TOWNNAME":"永康區","LI":"建國里","LIN":"25鄰","STREET":" ","SECT":" ","MAREA":"慈光九村","LANE":" ","ALLEY":" ","HOUSE_NO":"８號","E_COORD97":172803.94,"N_COORD97":2544275.25,"ADDRESS":"慈光九村８號","OBJECTID":325493},"geometry":{"x":172803.94000000041,"y":2544275.25}},{"attributes":{"ID":325503,"DIS_CODE":0,"TOWNNAME":"永康區","LI":"埔園里","LIN":"24鄰","STREET":"中正路","SECT":" ","MAREA":" ","LANE":"１４８巷","ALLEY":" ","HOUSE_NO":"２號之５","E_COORD97":173552.44,"N_COORD97":2547909.3900000001,"ADDRESS":"中正路１４８巷２號之５","OBJECTID":325494},"geometry":{"x":173552.44000000134,"y":2547909.3900000006}},{"attributes":{"ID":325504,"DIS_CODE":0,"TOWNNAME":"永康區","LI":"東灣里","LIN":"20鄰","STREET":"大灣三街","SECT":" ","MAREA":" ","LANE":"７３巷","ALLEY":" ","HOUSE_NO":"３５號","E_COORD97":174851.09,"N_COORD97":2544879.8100000001,"ADDRESS":"大灣三街７３巷３５號","OBJECTID":325495},"geometry":{"x":174851.09000000078,"y":2544879.8100000005}},{"attributes":{"ID":325505,"DIS_CODE":0,"TOWNNAME":"永康區","LI":"埔園里","LIN":"26鄰","STREET":"自強路","SECT":" ","MAREA":" ","LANE":"４１７巷","ALLEY":" ","HOUSE_NO":"２１號","E_COORD97":173747.45000000001,"N_COORD97":2548033.1699999999,"ADDRESS":"自強路４１７巷２１號","OBJECTID":325496},"geometry":{"x":173747.45000000112,"y":2548033.1699999999}},{"attributes":{"ID":325506,"DIS_CODE":0,"TOWNNAME":"永康區","LI":"埔園里","LIN":"13鄰","STREET":"中山路","SECT":" ","MAREA":" ","LANE":"２０７巷","ALLEY":" ","HOUSE_NO":"６１號","E_COORD97":173546.73000000001,"N_COORD97":2548149.9900000002,"ADDRESS":"中山路２０７巷６１號","OBJECTID":325497},"geometry":{"x":173546.73000000045,"y":2548149.9900000002}},{"attributes":{"ID":325507,"DIS_CODE":0,"TOWNNAME":"永康區","LI":"東灣里","LIN":"26鄰","STREET":"大灣一街","SECT":" ","MAREA":" ","LANE":"２４２巷","ALLEY":" ","HOUSE_NO":"１１號","E_COORD97":174973.45000000001,"N_COORD97":2544606.0299999998,"ADDRESS":"大灣一街２４２巷１１號","OBJECTID":325498},"geometry":{"x":174973.45000000019,"y":2544606.0299999993}},{"attributes":{"ID":325508,"DIS_CODE":0,"TOWNNAME":"永康區","LI":"埔園里","LIN":"5鄰","STREET":"中山路","SECT":" ","MAREA":" ","LANE":"１５８巷","ALLEY":" ","HOUSE_NO":"４號","E_COORD97":173792.79999999999,"N_COORD97":2547806.2400000002,"ADDRESS":"中山路１５８巷４號","OBJECTID":325499},"geometry":{"x":173792.79999999981,"y":2547806.2400000002}},{"attributes":{"ID":325509,"DIS_CODE":0,"TOWNNAME":"東區","LI":"東安里","LIN":"15鄰","STREET":"長榮路","SECT":"二段","MAREA":" ","LANE":"３２巷","ALLEY":" ","HOUSE_NO":"１６２號五樓之１５","E_COORD97":170184.60000000001,"N_COORD97":2543077.5299999998,"ADDRESS":"長榮路二段３２巷１６２號五樓之１５","OBJECTID":325500},"geometry":{"x":170184.59999999963,"y":2543077.5300000031}},{"attributes":{"ID":325510,"DIS_CODE":0,"TOWNNAME":"東區","LI":"東安里","LIN":"15鄰","STREET":"長榮路","SECT":"二段","MAREA":" ","LANE":"３２巷","ALLEY":" ","HOUSE_NO":"１６２號五樓之１６","E_COORD97":170184.60000000001,"N_COORD97":2543077.5299999998,"ADDRESS":"長榮路二段３２巷１６２號五樓之１６","OBJECTID":325501},"geometry":{"x":170184.59999999963,"y":2543077.5300000031}},{"attributes":{"ID":325511,"DIS_CODE":0,"TOWNNAME":"東區","LI":"東安里","LIN":"15鄰","STREET":"長榮路","SECT":"二段","MAREA":" ","LANE":"３２巷","ALLEY":" ","HOUSE_NO":"１６２號五樓之１７","E_COORD97":170184.60000000001,"N_COORD97":2543077.5299999998,"ADDRESS":"長榮路二段３２巷１６２號五樓之１７","OBJECTID":325502},"geometry":{"x":170184.59999999963,"y":2543077.5300000031}},{"attributes":{"ID":325512,"DIS_CODE":0,"TOWNNAME":"東區","LI":"東安里","LIN":"15鄰","STREET":"長榮路","SECT":"二段","MAREA":" ","LANE":"３２巷","ALLEY":" ","HOUSE_NO":"１６２號五樓之１８","E_COORD97":170184.60000000001,"N_COORD97":2543077.5299999998,"ADDRESS":"長榮路二段３２巷１６２號五樓之１８","OBJECTID":325503},"geometry":{"x":170184.59999999963,"y":2543077.5300000031}},{"attributes":{"ID":325513,"DIS_CODE":0,"TOWNNAME":"東區","LI":"東安里","LIN":"15鄰","STREET":"長榮路","SECT":"二段","MAREA":" ","LANE":"３２巷","ALLEY":" ","HOUSE_NO":"１６２號五樓之１９","E_COORD97":170184.60000000001,"N_COORD97":2543077.5299999998,"ADDRESS":"長榮路二段３２巷１６２號五樓之１９","OBJECTID":325504},"geometry":{"x":170184.59999999963,"y":2543077.5300000031}},{"attributes":{"ID":325514,"DIS_CODE":0,"TOWNNAME":"東區","LI":"東安里","LIN":"15鄰","STREET":"長榮路","SECT":"二段","MAREA":" ","LANE":"３２巷","ALLEY":" ","HOUSE_NO":"１６２號五樓之２","E_COORD97":170184.60000000001,"N_COORD97":2543077.5299999998,"ADDRESS":"長榮路二段３２巷１６２號五樓之２","OBJECTID":325505},"geometry":{"x":170184.59999999963,"y":2543077.5300000031}},{"attributes":{"ID":325515,"DIS_CODE":0,"TOWNNAME":"山上區","LI":"明和里","LIN":"15鄰","STREET":" ","SECT":" ","MAREA":"明和","LANE":" ","ALLEY":" ","HOUSE_NO":"１１號之１８","E_COORD97":183448.03370299999,"N_COORD97":2555970.6253399998,"ADDRESS":"明和１１號之１８","OBJECTID":325506},"geometry":{"x":183448.03370300028,"y":2555970.6253420003}},{"attributes":{"ID":325516,"DIS_CODE":0,"TOWNNAME":"安平區","LI":"平安里","LIN":"17鄰","STREET":"安平路","SECT":" ","MAREA":" ","LANE":" ","ALLEY":" ","HOUSE_NO":"６２６號","E_COORD97":164761.13,"N_COORD97":2544429.2400000002,"ADDRESS":"安平路６２６號","OBJECTID":325507},"geometry":{"x":164761.13000000082,"y":2544429.2400000002}},{"attributes":{"ID":325517,"DIS_CODE":0,"TOWNNAME":"安平區","LI":"平安里","LIN":"17鄰","STREET":"安平路","SECT":" ","MAREA":" ","LANE":" ","ALLEY":" ","HOUSE_NO":"６３０號","E_COORD97":164746.59,"N_COORD97":2544434.29,"ADDRESS":"安平路６３０號","OBJECTID":325508},"geometry":{"x":164746.59000000078,"y":2544434.2899999991}},{"attributes":{"ID":325518,"DIS_CODE":0,"TOWNNAME":"歸仁區","LI":"南保里","LIN":"17鄰","STREET":"文化十街","SECT":" ","MAREA":" ","LANE":" ","ALLEY":" ","HOUSE_NO":"３６號","E_COORD97":176561.84,"N_COORD97":2541367.3300000001,"ADDRESS":"文化十街３６號","OBJECTID":325509},"geometry":{"x":176561.84000000078,"y":2541367.3300000038}},{"attributes":{"ID":325519,"DIS_CODE":0,"TOWNNAME":"麻豆區","LI":"油車里","LIN":"17鄰","STREET":"新生北路","SECT":" ","MAREA":" ","LANE":" ","ALLEY":" ","HOUSE_NO":"１７４號","E_COORD97":172309.37,"N_COORD97":2565383.2799999998,"ADDRESS":"新生北路１７４號","OBJECTID":325510},"geometry":{"x":172309.37000000011,"y":2565383.2799999993}},{"attributes":{"ID":325520,"DIS_CODE":0,"TOWNNAME":"麻豆區","LI":"油車里","LIN":"17鄰","STREET":"新生北路","SECT":" ","MAREA":" ","LANE":" ","ALLEY":" ","HOUSE_NO":"１７６號","E_COORD97":172308.87,"N_COORD97":2565387.2599999998,"ADDRESS":"新生北路１７６號","OBJECTID":325511},"geometry":{"x":172308.87000000104,"y":2565387.2599999998}},{"attributes":{"ID":325521,"DIS_CODE":0,"TOWNNAME":"麻豆區","LI":"油車里","LIN":"17鄰","STREET":"新生北路","SECT":" ","MAREA":" ","LANE":" ","ALLEY":" ","HOUSE_NO":"１７８號","E_COORD97":172308.34,"N_COORD97":2565391.0600000001,"ADDRESS":"新生北路１７８號","OBJECTID":325512},"geometry":{"x":172308.34000000078,"y":2565391.0600000024}},{"attributes":{"ID":325522,"DIS_CODE":0,"TOWNNAME":"麻豆區","LI":"油車里","LIN":"17鄰","STREET":"新生北路","SECT":" ","MAREA":" ","LANE":" ","ALLEY":" ","HOUSE_NO":"１８０號","E_COORD97":172307.95000000001,"N_COORD97":2565395.21,"ADDRESS":"新生北路１８０號","OBJECTID":325513},"geometry":{"x":172307.95000000112,"y":2565395.2100000009}},{"attributes":{"ID":325523,"DIS_CODE":0,"TOWNNAME":"永康區","LI":"建國里","LIN":"25鄰","STREET":" ","SECT":" ","MAREA":"慈光九村","LANE":" ","ALLEY":" ","HOUSE_NO":"１０號","E_COORD97":172786.79000000001,"N_COORD97":2544276.75,"ADDRESS":"慈光九村１０號","OBJECTID":325514},"geometry":{"x":172786.7900000019,"y":2544276.7500000037}},{"attributes":{"ID":325524,"DIS_CODE":0,"TOWNNAME":"永康區","LI":"埔園里","LIN":"4鄰","STREET":"埔聖街","SECT":" ","MAREA":" ","LANE":"８１巷","ALLEY":" ","HOUSE_NO":"７３號","E_COORD97":173988.45999999999,"N_COORD97":2547796.8399999999,"ADDRESS":"埔聖街８１巷７３號","OBJECTID":325515},"geometry":{"x":173988.45999999996,"y":2547796.8400000017}},{"attributes":{"ID":325525,"DIS_CODE":0,"TOWNNAME":"永康區","LI":"埔園里","LIN":"20鄰","STREET":"四維街","SECT":" ","MAREA":" ","LANE":"１０２巷","ALLEY":" ","HOUSE_NO":"３４號","E_COORD97":173456.17000000001,"N_COORD97":2548232.8799999999,"ADDRESS":"四維街１０２巷３４號","OBJECTID":325516},"geometry":{"x":173456.16999999993,"y":2548232.8800000008}},{"attributes":{"ID":325526,"DIS_CODE":0,"TOWNNAME":"永康區","LI":"神洲里","LIN":"18鄰","STREET":"忠孝路","SECT":" ","MAREA":" ","LANE":"１５２巷","ALLEY":" ","HOUSE_NO":"４號","E_COORD97":172120.53,"N_COORD97":2545077.75,"ADDRESS":"忠孝路１５２巷４號","OBJECTID":325517},"geometry":{"x":172120.53000000026,"y":2545077.7500000019}},{"attributes":{"ID":325527,"DIS_CODE":0,"TOWNNAME":"永康區","LI":"埔園里","LIN":"25鄰","STREET":"自強路","SECT":" ","MAREA":" ","LANE":"４１７巷","ALLEY":" ","HOUSE_NO":"３４號","E_COORD97":173750.89999999999,"N_COORD97":2548070.54,"ADDRESS":"自強路４１７巷３４號","OBJECTID":325518},"geometry":{"x":173750.90000000224,"y":2548070.5399999991}},{"attributes":{"ID":325528,"DIS_CODE":0,"TOWNNAME":"東區","LI":"東安里","LIN":"15鄰","STREET":"長榮路","SECT":"二段","MAREA":" ","LANE":"３２巷","ALLEY":" ","HOUSE_NO":"１６２號五樓之２０","E_COORD97":170184.60000000001,"N_COORD97":2543077.5299999998,"ADDRESS":"長榮路二段３２巷１６２號五樓之２０","OBJECTID":325519},"geometry":{"x":170184.59999999963,"y":2543077.5300000031}},{"attributes":{"ID":325529,"DIS_CODE":0,"TOWNNAME":"東區","LI":"東安里","LIN":"15鄰","STREET":"長榮路","SECT":"二段","MAREA":" ","LANE":"３２巷","ALLEY":" ","HOUSE_NO":"１６２號五樓之２１","E_COORD97":170184.60000000001,"N_COORD97":2543077.5299999998,"ADDRESS":"長榮路二段３２巷１６２號五樓之２１","OBJECTID":325520},"geometry":{"x":170184.59999999963,"y":2543077.5300000031}},{"attributes":{"ID":325530,"DIS_CODE":0,"TOWNNAME":"東區","LI":"東安里","LIN":"15鄰","STREET":"長榮路","SECT":"二段","MAREA":" ","LANE":"３２巷","ALLEY":" ","HOUSE_NO":"１６２號五樓之２２","E_COORD97":170184.60000000001,"N_COORD97":2543077.5299999998,"ADDRESS":"長榮路二段３２巷１６２號五樓之２２","OBJECTID":325521},"geometry":{"x":170184.59999999963,"y":2543077.5300000031}},{"attributes":{"ID":325531,"DIS_CODE":0,"TOWNNAME":"東區","LI":"東安里","LIN":"15鄰","STREET":"長榮路","SECT":"二段","MAREA":" ","LANE":"３２巷","ALLEY":" ","HOUSE_NO":"１６２號五樓之３","E_COORD97":170184.60000000001,"N_COORD97":2543077.5299999998,"ADDRESS":"長榮路二段３２巷１６２號五樓之３","OBJECTID":325522},"geometry":{"x":170184.59999999963,"y":2543077.5300000031}},{"attributes":{"ID":325532,"DIS_CODE":0,"TOWNNAME":"東區","LI":"東安里","LIN":"15鄰","STREET":"長榮路","SECT":"二段","MAREA":" ","LANE":"３２巷","ALLEY":" ","HOUSE_NO":"１６２號五樓之４","E_COORD97":170184.60000000001,"N_COORD97":2543077.5299999998,"ADDRESS":"長榮路二段３２巷１６２號五樓之４","OBJECTID":325523},"geometry":{"x":170184.59999999963,"y":2543077.5300000031}},{"attributes":{"ID":325533,"DIS_CODE":0,"TOWNNAME":"東區","LI":"東安里","LIN":"15鄰","STREET":"長榮路","SECT":"二段","MAREA":" ","LANE":"３２巷","ALLEY":" ","HOUSE_NO":"１６２號五樓之５","E_COORD97":170184.60000000001,"N_COORD97":2543077.5299999998,"ADDRESS":"長榮路二段３２巷１６２號五樓之５","OBJECTID":325524},"geometry":{"x":170184.59999999963,"y":2543077.5300000031}},{"attributes":{"ID":325534,"DIS_CODE":0,"TOWNNAME":"東區","LI":"東安里","LIN":"15鄰","STREET":"長榮路","SECT":"二段","MAREA":" ","LANE":"３２巷","ALLEY":" ","HOUSE_NO":"１６２號五樓之６","E_COORD97":170184.60000000001,"N_COORD97":2543077.5299999998,"ADDRESS":"長榮路二段３２巷１６２號五樓之６","OBJECTID":325525},"geometry":{"x":170184.59999999963,"y":2543077.5300000031}},{"attributes":{"ID":325535,"DIS_CODE":0,"TOWNNAME":"東區","LI":"東安里","LIN":"15鄰","STREET":"長榮路","SECT":"二段","MAREA":" ","LANE":"３２巷","ALLEY":" ","HOUSE_NO":"１６２號五樓之７","E_COORD97":170184.60000000001,"N_COORD97":2543077.5299999998,"ADDRESS":"長榮路二段３２巷１６２號五樓之７","OBJECTID":325526},"geometry":{"x":170184.59999999963,"y":2543077.5300000031}},{"attributes":{"ID":325536,"DIS_CODE":0,"TOWNNAME":"東區","LI":"東安里","LIN":"15鄰","STREET":"長榮路","SECT":"二段","MAREA":" ","LANE":"３２巷","ALLEY":" ","HOUSE_NO":"１６２號五樓之８","E_COORD97":170184.60000000001,"N_COORD97":2543077.5299999998,"ADDRESS":"長榮路二段３２巷１６２號五樓之８","OBJECTID":325527},"geometry":{"x":170184.59999999963,"y":2543077.5300000031}},{"attributes":{"ID":325537,"DIS_CODE":0,"TOWNNAME":"麻豆區","LI":"油車里","LIN":"17鄰","STREET":"新生北路","SECT":" ","MAREA":" ","LANE":" ","ALLEY":" ","HOUSE_NO":"１８８號","E_COORD97":172309.39999999999,"N_COORD97":2565418.96,"ADDRESS":"新生北路１８８號","OBJECTID":325528},"geometry":{"x":172309.40000000037,"y":2565418.9600000046}},{"attributes":{"ID":325538,"DIS_CODE":0,"TOWNNAME":"北區","LI":"玉皇里","LIN":"5鄰","STREET":"福德街","SECT":" ","MAREA":" ","LANE":" ","ALLEY":" ","HOUSE_NO":"１８號","E_COORD97":168722.66,"N_COORD97":2544594.0699999998,"ADDRESS":"福德街１８號","OBJECTID":325529},"geometry":{"x":168722.66000000201,"y":2544594.0700000022}},{"attributes":{"ID":325539,"DIS_CODE":0,"TOWNNAME":"麻豆區","LI":"油車里","LIN":"17鄰","STREET":"新生北路","SECT":" ","MAREA":" ","LANE":" ","ALLEY":" ","HOUSE_NO":"１９０號","E_COORD97":172309.54999999999,"N_COORD97":2565427.2400000002,"ADDRESS":"新生北路１９０號","OBJECTID":325530},"geometry":{"x":172309.54999999981,"y":2565427.2400000021}},{"attributes":{"ID":325540,"DIS_CODE":0,"TOWNNAME":"麻豆區","LI":"油車里","LIN":"17鄰","STREET":"新生北路","SECT":" ","MAREA":" ","LANE":" ","ALLEY":" ","HOUSE_NO":"２００號","E_COORD97":172307.01000000001,"N_COORD97":2565453.7400000002,"ADDRESS":"新生北路２００號","OBJECTID":325531},"geometry":{"x":172307.01000000164,"y":2565453.7400000021}},{"attributes":{"ID":325541,"DIS_CODE":0,"TOWNNAME":"永康區","LI":"烏竹里","LIN":"4鄰","STREET":"烏竹街","SECT":" ","MAREA":" ","LANE":" ","ALLEY":" ","HOUSE_NO":"７２號","E_COORD97":174504.44,"N_COORD97":2549386.9900000002,"ADDRESS":"烏竹街７２號","OBJECTID":325532},"geometry":{"x":174504.44000000041,"y":2549386.9900000002}},{"attributes":{"ID":325542,"DIS_CODE":0,"TOWNNAME":"安南區","LI":"城南里","LIN":"13鄰","STREET":"城西街","SECT":"二段","MAREA":" ","LANE":"２３３巷","ALLEY":" ","HOUSE_NO":"５５號","E_COORD97":159778.41,"N_COORD97":2550833.1200000001,"ADDRESS":"城西街二段２３３巷５５號","OBJECTID":325533},"geometry":{"x":159778.41000000015,"y":2550833.1200000029}},{"attributes":{"ID":325543,"DIS_CODE":0,"TOWNNAME":"安南區","LI":"\u25A0田里","LIN":"8鄰","STREET":"本田路","SECT":"三段","MAREA":" ","LANE":"８０巷","ALLEY":" ","HOUSE_NO":"１１號","E_COORD97":163916.91069300001,"N_COORD97":2549079.6794599998,"ADDRESS":"本田路三段８０巷１１號","OBJECTID":325534},"geometry":{"x":163916.910693001,"y":2549079.6794620026}},{"attributes":{"ID":325544,"DIS_CODE":0,"TOWNNAME":"安南區","LI":"\u25A0田里","LIN":"8鄰","STREET":"本田路","SECT":"三段","MAREA":" ","LANE":"８０巷","ALLEY":" ","HOUSE_NO":"１０號","E_COORD97":163919.557967,"N_COORD97":2549076.9278000002,"ADDRESS":"本田路三段８０巷１０號","OBJECTID":325535},"geometry":{"x":163919.55796699971,"y":2549076.9277970009}},{"attributes":{"ID":325545,"DIS_CODE":0,"TOWNNAME":"安南區","LI":"\u25A0田里","LIN":"8鄰","STREET":"本田路","SECT":"三段","MAREA":" ","LANE":"８０巷","ALLEY":" ","HOUSE_NO":"１號","E_COORD97":163901.76828700001,"N_COORD97":2549070.7894700002,"ADDRESS":"本田路三段８０巷１號","OBJECTID":325536},"geometry":{"x":163901.76828700025,"y":2549070.7894669995}},{"attributes":{"ID":325546,"DIS_CODE":0,"TOWNNAME":"東區","LI":"東安里","LIN":"15鄰","STREET":"長榮路","SECT":"二段","MAREA":" ","LANE":"３２巷","ALLEY":" ","HOUSE_NO":"１６２號五樓之９","E_COORD97":170184.60000000001,"N_COORD97":2543077.5299999998,"ADDRESS":"長榮路二段３２巷１６２號五樓之９","OBJECTID":325537},"geometry":{"x":170184.59999999963,"y":2543077.5300000031}},{"attributes":{"ID":325547,"DIS_CODE":0,"TOWNNAME":"東區","LI":"東安里","LIN":"15鄰","STREET":"長榮路","SECT":"二段","MAREA":" ","LANE":"３２巷","ALLEY":" ","HOUSE_NO":"１６２號四樓之１","E_COORD97":170184.60000000001,"N_COORD97":2543077.5299999998,"ADDRESS":"長榮路二段３２巷１６２號四樓之１","OBJECTID":325538},"geometry":{"x":170184.59999999963,"y":2543077.5300000031}},{"attributes":{"ID":325548,"DIS_CODE":0,"TOWNNAME":"東區","LI":"東安里","LIN":"15鄰","STREET":"長榮路","SECT":"二段","MAREA":" ","LANE":"３２巷","ALLEY":" ","HOUSE_NO":"１６２號四樓之１０","E_COORD97":170184.60000000001,"N_COORD97":2543077.5299999998,"ADDRESS":"長榮路二段３２巷１６２號四樓之１０","OBJECTID":325539},"geometry":{"x":170184.59999999963,"y":2543077.5300000031}},{"attributes":{"ID":325549,"DIS_CODE":0,"TOWNNAME":"東區","LI":"東安里","LIN":"15鄰","STREET":"長榮路","SECT":"二段","MAREA":" ","LANE":"３２巷","ALLEY":" ","HOUSE_NO":"１６２號四樓之１１","E_COORD97":170184.60000000001,"N_COORD97":2543077.5299999998,"ADDRESS":"長榮路二段３２巷１６２號四樓之１１","OBJECTID":325540},"geometry":{"x":170184.59999999963,"y":2543077.5300000031}},{"attributes":{"ID":325550,"DIS_CODE":0,"TOWNNAME":"東區","LI":"東安里","LIN":"15鄰","STREET":"長榮路","SECT":"二段","MAREA":" ","LANE":"３２巷","ALLEY":" ","HOUSE_NO":"１６２號四樓之１２","E_COORD97":170184.60000000001,"N_COORD97":2543077.5299999998,"ADDRESS":"長榮路二段３２巷１６２號四樓之１２","OBJECTID":325541},"geometry":{"x":170184.59999999963,"y":2543077.5300000031}},{"attributes":{"ID":325551,"DIS_CODE":0,"TOWNNAME":"東區","LI":"東安里","LIN":"15鄰","STREET":"長榮路","SECT":"二段","MAREA":" ","LANE":"３２巷","ALLEY":" ","HOUSE_NO":"１６２號四樓之１３","E_COORD97":170184.60000000001,"N_COORD97":2543077.5299999998,"ADDRESS":"長榮路二段３２巷１６２號四樓之１３","OBJECTID":325542},"geometry":{"x":170184.59999999963,"y":2543077.5300000031}},{"attributes":{"ID":325552,"DIS_CODE":0,"TOWNNAME":"東區","LI":"東安里","LIN":"15鄰","STREET":"長榮路","SECT":"二段","MAREA":" ","LANE":"３２巷","ALLEY":" ","HOUSE_NO":"１６２號四樓之１４","E_COORD97":170184.60000000001,"N_COORD97":2543077.5299999998,"ADDRESS":"長榮路二段３２巷１６２號四樓之１４","OBJECTID":325543},"geometry":{"x":170184.59999999963,"y":2543077.5300000031}},{"attributes":{"ID":325553,"DIS_CODE":0,"TOWNNAME":"東區","LI":"東安里","LIN":"15鄰","STREET":"長榮路","SECT":"二段","MAREA":" ","LANE":"３２巷","ALLEY":" ","HOUSE_NO":"１６２號四樓之１５","E_COORD97":170184.60000000001,"N_COORD97":2543077.5299999998,"ADDRESS":"長榮路二段３２巷１６２號四樓之１５","OBJECTID":325544},"geometry":{"x":170184.59999999963,"y":2543077.5300000031}},{"attributes":{"ID":325554,"DIS_CODE":0,"TOWNNAME":"東區","LI":"東安里","LIN":"15鄰","STREET":"長榮路","SECT":"二段","MAREA":" ","LANE":"３２巷","ALLEY":" ","HOUSE_NO":"１６２號四樓之１６","E_COORD97":170184.60000000001,"N_COORD97":2543077.5299999998,"ADDRESS":"長榮路二段３２巷１６２號四樓之１６","OBJECTID":325545},"geometry":{"x":170184.59999999963,"y":2543077.5300000031}},{"attributes":{"ID":325555,"DIS_CODE":0,"TOWNNAME":"東區","LI":"東安里","LIN":"15鄰","STREET":"長榮路","SECT":"二段","MAREA":" ","LANE":"３２巷","ALLEY":" ","HOUSE_NO":"１６２號四樓之１７","E_COORD97":170184.60000000001,"N_COORD97":2543077.5299999998,"ADDRESS":"長榮路二段３２巷１６２號四樓之１７","OBJECTID":325546},"geometry":{"x":170184.59999999963,"y":2543077.5300000031}},{"attributes":{"ID":325556,"DIS_CODE":0,"TOWNNAME":"麻豆區","LI":"油車里","LIN":"17鄰","STREET":"新生北路","SECT":" ","MAREA":" ","LANE":" ","ALLEY":" ","HOUSE_NO":"２０２號","E_COORD97":172310.81,"N_COORD97":2565473.4199999999,"ADDRESS":"新生北路２０２號","OBJECTID":325547},"geometry":{"x":172310.80999999959,"y":2565473.4200000018}},{"attributes":{"ID":325557,"DIS_CODE":0,"TOWNNAME":"麻豆區","LI":"油車里","LIN":"17鄰","STREET":"新生北路","SECT":" ","MAREA":" ","LANE":" ","ALLEY":" ","HOUSE_NO":"２２４號","E_COORD97":172305.35000000001,"N_COORD97":2565489.5899999999,"ADDRESS":"新生北路２２４號","OBJECTID":325548},"geometry":{"x":172305.34999999963,"y":2565489.5900000017}},{"attributes":{"ID":325558,"DIS_CODE":0,"TOWNNAME":"麻豆區","LI":"油車里","LIN":"17鄰","STREET":"新生北路","SECT":" ","MAREA":" ","LANE":" ","ALLEY":" ","HOUSE_NO":"２２６號","E_COORD97":172307.76000000001,"N_COORD97":2565498.23,"ADDRESS":"新生北路２２６號","OBJECTID":325549},"geometry":{"x":172307.75999999978,"y":2565498.2300000023}},{"attributes":{"ID":325559,"DIS_CODE":0,"TOWNNAME":"麻豆區","LI":"油車里","LIN":"17鄰","STREET":"新生北路","SECT":" ","MAREA":" ","LANE":" ","ALLEY":" ","HOUSE_NO":"２２８號","E_COORD97":172307.72,"N_COORD97":2565503.3100000001,"ADDRESS":"新生北路２２８號","OBJECTID":325550},"geometry":{"x":172307.72000000067,"y":2565503.3100000005}},{"attributes":{"ID":325560,"DIS_CODE":0,"TOWNNAME":"麻豆區","LI":"油車里","LIN":"17鄰","STREET":"新生北路","SECT":" ","MAREA":" ","LANE":" ","ALLEY":" ","HOUSE_NO":"２３８號","E_COORD97":172307.5,"N_COORD97":2565529.3900000001,"ADDRESS":"新生北路２３８號","OBJECTID":325551},"geometry":{"x":172307.50000000093,"y":2565529.3900000006}},{"attributes":{"ID":325561,"DIS_CODE":0,"TOWNNAME":"麻豆區","LI":"油車里","LIN":"17鄰","STREET":"新生北路","SECT":" ","MAREA":" ","LANE":" ","ALLEY":" ","HOUSE_NO":"２４８號","E_COORD97":172310.82000000001,"N_COORD97":2565547.7599999998,"ADDRESS":"新生北路２４８號","OBJECTID":325552},"geometry":{"x":172310.82000000123,"y":2565547.7600000035}},{"attributes":{"ID":325562,"DIS_CODE":0,"TOWNNAME":"安南區","LI":"公\u25A0里","LIN":"7鄰","STREET":"安興街","SECT":" ","MAREA":" ","LANE":"１５６巷","ALLEY":" ","HOUSE_NO":"５號","E_COORD97":164087.98000000001,"N_COORD97":2552124.3399999999,"ADDRESS":"安興街１５６巷５號","OBJECTID":325553},"geometry":{"x":164087.98000000138,"y":2552124.3399999999}},{"attributes":{"ID":325563,"DIS_CODE":0,"TOWNNAME":"安南區","LI":"南興里","LIN":"8鄰","STREET":"安興街","SECT":" ","MAREA":" ","LANE":"６３２巷","ALLEY":" ","HOUSE_NO":"１３號","E_COORD97":163517.89999999999,"N_COORD97":2552485.4199999999,"ADDRESS":"安興街６３２巷１３號","OBJECTID":325554},"geometry":{"x":163517.90000000037,"y":2552485.4199999999}},{"attributes":{"ID":325564,"DIS_CODE":0,"TOWNNAME":"安南區","LI":"南興里","LIN":"8鄰","STREET":"安興街","SECT":" ","MAREA":" ","LANE":"６３２巷","ALLEY":" ","HOUSE_NO":"７號","E_COORD97":163505.57999999999,"N_COORD97":2552476.8900000001,"ADDRESS":"安興街６３２巷７號","OBJECTID":325555},"geometry":{"x":163505.58000000101,"y":2552476.8900000006}},{"attributes":{"ID":325565,"DIS_CODE":0,"TOWNNAME":"安南區","LI":"南興里","LIN":"8鄰","STREET":"安興街","SECT":" ","MAREA":" ","LANE":"６４０巷","ALLEY":" ","HOUSE_NO":"１１號","E_COORD97":163505.57999999999,"N_COORD97":2552513.21,"ADDRESS":"安興街６４０巷１１號","OBJECTID":325556},"geometry":{"x":163505.58000000101,"y":2552513.2100000046}},{"attributes":{"ID":325566,"DIS_CODE":0,"TOWNNAME":"山上區","LI":"南洲里","LIN":"20鄰","STREET":" ","SECT":" ","MAREA":"南洲","LANE":" ","ALLEY":" ","HOUSE_NO":"３７５號","E_COORD97":183751.64000000001,"N_COORD97":2555836.25,"ADDRESS":"南洲３７５號","OBJECTID":325557},"geometry":{"x":183751.63999999966,"y":2555836.2500000019}},{"attributes":{"ID":325567,"DIS_CODE":0,"TOWNNAME":"安南區","LI":"南興里","LIN":"8鄰","STREET":"安興街","SECT":" ","MAREA":" ","LANE":"６４０巷","ALLEY":" ","HOUSE_NO":"１７號","E_COORD97":163526.60000000001,"N_COORD97":2552510.4399999999,"ADDRESS":"安興街６４０巷１７號","OBJECTID":325558},"geometry":{"x":163526.5999999987,"y":2552510.4400000032}},{"attributes":{"ID":325568,"DIS_CODE":0,"TOWNNAME":"安南區","LI":"南興里","LIN":"8鄰","STREET":"安興街","SECT":" ","MAREA":" ","LANE":"６４０巷","ALLEY":" ","HOUSE_NO":"２１號","E_COORD97":163548.73999999999,"N_COORD97":2552510.4399999999,"ADDRESS":"安興街６４０巷２１號","OBJECTID":325559},"geometry":{"x":163548.74000000115,"y":2552510.4400000032}},{"attributes":{"ID":325569,"DIS_CODE":0,"TOWNNAME":"安南區","LI":"南興里","LIN":"8鄰","STREET":"安興街","SECT":" ","MAREA":" ","LANE":"６４０巷","ALLEY":" ","HOUSE_NO":"３號","E_COORD97":163481.79000000001,"N_COORD97":2552517.0699999998,"ADDRESS":"安興街６４０巷３號","OBJECTID":325560},"geometry":{"x":163481.7900000019,"y":2552517.070000004}},{"attributes":{"ID":325570,"DIS_CODE":0,"TOWNNAME":"安南區","LI":"南興里","LIN":"8鄰","STREET":"安興街","SECT":" ","MAREA":" ","LANE":"７０２巷","ALLEY":" ","HOUSE_NO":"３號","E_COORD97":163493.79999999999,"N_COORD97":2552692.7999999998,"ADDRESS":"安興街７０２巷３號","OBJECTID":325561},"geometry":{"x":163493.80000000075,"y":2552692.8000000026}},{"attributes":{"ID":325571,"DIS_CODE":0,"TOWNNAME":"安南區","LI":"學東里","LIN":"4鄰","STREET":"公學路","SECT":"六段","MAREA":" ","LANE":"４６９巷","ALLEY":" ","HOUSE_NO":"６１號","E_COORD97":162609.26000000001,"N_COORD97":2553058.0800000001,"ADDRESS":"公學路六段４６９巷６１號","OBJECTID":325562},"geometry":{"x":162609.26000000071,"y":2553058.0800000001}},{"attributes":{"ID":325572,"DIS_CODE":0,"TOWNNAME":"安南區","LI":"城東里","LIN":"4鄰","STREET":"城北路","SECT":" ","MAREA":" ","LANE":"１７２巷","ALLEY":" ","HOUSE_NO":"４５號","E_COORD97":161100.47,"N_COORD97":2551761.3100000001,"ADDRESS":"城北路１７２巷４５號","OBJECTID":325563},"geometry":{"x":161100.47000000067,"y":2551761.3100000005}},{"attributes":{"ID":325573,"DIS_CODE":0,"TOWNNAME":"東區","LI":"東安里","LIN":"15鄰","STREET":"長榮路","SECT":"二段","MAREA":" ","LANE":"３２巷","ALLEY":" ","HOUSE_NO":"１６２號四樓之１８","E_COORD97":170184.60000000001,"N_COORD97":2543077.5299999998,"ADDRESS":"長榮路二段３２巷１６２號四樓之１８","OBJECTID":325564},"geometry":{"x":170184.59999999963,"y":2543077.5300000031}},{"attributes":{"ID":325574,"DIS_CODE":0,"TOWNNAME":"東區","LI":"東安里","LIN":"15鄰","STREET":"長榮路","SECT":"二段","MAREA":" ","LANE":"３２巷","ALLEY":" ","HOUSE_NO":"１６２號四樓之１９","E_COORD97":170184.60000000001,"N_COORD97":2543077.5299999998,"ADDRESS":"長榮路二段３２巷１６２號四樓之１９","OBJECTID":325565},"geometry":{"x":170184.59999999963,"y":2543077.5300000031}},{"attributes":{"ID":325575,"DIS_CODE":0,"TOWNNAME":"東區","LI":"東安里","LIN":"15鄰","STREET":"長榮路","SECT":"二段","MAREA":" ","LANE":"３２巷","ALLEY":" ","HOUSE_NO":"１６２號四樓之２","E_COORD97":170184.60000000001,"N_COORD97":2543077.5299999998,"ADDRESS":"長榮路二段３２巷１６２號四樓之２","OBJECTID":325566},"geometry":{"x":170184.59999999963,"y":2543077.5300000031}},{"attributes":{"ID":325576,"DIS_CODE":0,"TOWNNAME":"麻豆區","LI":"油車里","LIN":"17鄰","STREET":"新生北路","SECT":" ","MAREA":" ","LANE":" ","ALLEY":" ","HOUSE_NO":"３００號","E_COORD97":172409.95000000001,"N_COORD97":2565555.3100000001,"ADDRESS":"新生北路３００號","OBJECTID":325567},"geometry":{"x":172409.95000000112,"y":2565555.3100000024}},{"attributes":{"ID":325577,"DIS_CODE":0,"TOWNNAME":"歸仁區","LI":"南保里","LIN":"17鄰","STREET":"文化十街","SECT":" ","MAREA":" ","LANE":" ","ALLEY":" ","HOUSE_NO":"４２號","E_COORD97":176585.44,"N_COORD97":2541365.3300000001,"ADDRESS":"文化十街４２號","OBJECTID":325568},"geometry":{"x":176585.44000000134,"y":2541365.3300000019}},{"attributes":{"ID":325578,"DIS_CODE":0,"TOWNNAME":"歸仁區","LI":"歸南里","LIN":"17鄰","STREET":"民生八街","SECT":" ","MAREA":" ","LANE":" ","ALLEY":" ","HOUSE_NO":"６號","E_COORD97":176164.06,"N_COORD97":2540346.25,"ADDRESS":"民生八街６號","OBJECTID":325569},"geometry":{"x":176164.05999999959,"y":2540346.25}},{"attributes":{"ID":325579,"DIS_CODE":0,"TOWNNAME":"麻豆區","LI":"油車里","LIN":"17鄰","STREET":"新生北路","SECT":" ","MAREA":" ","LANE":" ","ALLEY":" ","HOUSE_NO":"３１０號","E_COORD97":172430.88,"N_COORD97":2565553.4100000001,"ADDRESS":"新生北路３１０號","OBJECTID":325570},"geometry":{"x":172430.87999999989,"y":2565553.4100000001}},{"attributes":{"ID":325580,"DIS_CODE":0,"TOWNNAME":"麻豆區","LI":"油車里","LIN":"17鄰","STREET":"新生北路","SECT":" ","MAREA":" ","LANE":" ","ALLEY":" ","HOUSE_NO":"３１６號","E_COORD97":172446.88,"N_COORD97":2565552.02,"ADDRESS":"新生北路３１６號","OBJECTID":325571},"geometry":{"x":172446.88000000175,"y":2565552.0199999996}},{"attributes":{"ID":325581,"DIS_CODE":0,"TOWNNAME":"麻豆區","LI":"油車里","LIN":"17鄰","STREET":"新生北路","SECT":" ","MAREA":" ","LANE":" ","ALLEY":" ","HOUSE_NO":"３１８號","E_COORD97":172452.19,"N_COORD97":2565552.54,"ADDRESS":"新生北路３１８號","OBJECTID":325572},"geometry":{"x":172452.19000000227,"y":2565552.540000001}},{"attributes":{"ID":325582,"DIS_CODE":0,"TOWNNAME":"麻豆區","LI":"油車里","LIN":"17鄰","STREET":"新生北路","SECT":" ","MAREA":" ","LANE":" ","ALLEY":" ","HOUSE_NO":"３２０號","E_COORD97":172457.09,"N_COORD97":2565551.96,"ADDRESS":"新生北路３２０號","OBJECTID":325573},"geometry":{"x":172457.08999999985,"y":2565551.9600000028}},{"attributes":{"ID":325583,"DIS_CODE":0,"TOWNNAME":"麻豆區","LI":"油車里","LIN":"17鄰","STREET":"新生北路","SECT":" ","MAREA":" ","LANE":" ","ALLEY":" ","HOUSE_NO":"３２２號","E_COORD97":172462.42000000001,"N_COORD97":2565551.6099999999,"ADDRESS":"新生北路３２２號","OBJECTID":325574},"geometry":{"x":172462.42000000086,"y":2565551.6099999975}},{"attributes":{"ID":325584,"DIS_CODE":0,"TOWNNAME":"七股區","LI":"樹林里","LIN":"15鄰","STREET":" ","SECT":" ","MAREA":"樹林","LANE":" ","ALLEY":" ","HOUSE_NO":"１３１號之１０","E_COORD97":163085.00128,"N_COORD97":2557587.2824300001,"ADDRESS":"樹林１３１號之１０","OBJECTID":325575},"geometry":{"x":163085.00128000136,"y":2557587.2824300006}},{"attributes":{"ID":325585,"DIS_CODE":0,"TOWNNAME":"麻豆區","LI":"油車里","LIN":"17鄰","STREET":"新生北路","SECT":" ","MAREA":" ","LANE":" ","ALLEY":" ","HOUSE_NO":"３２４號","E_COORD97":172466.98000000001,"N_COORD97":2565551.02,"ADDRESS":"新生北路３２４號","OBJECTID":325576},"geometry":{"x":172466.98000000045,"y":2565551.0199999996}},{"attributes":{"ID":325586,"DIS_CODE":0,"TOWNNAME":"麻豆區","LI":"油車里","LIN":"17鄰","STREET":"新生北路","SECT":" ","MAREA":" ","LANE":" ","ALLEY":" ","HOUSE_NO":"３２６號","E_COORD97":172470.88,"N_COORD97":2565550.79,"ADDRESS":"新生北路３２６號","OBJECTID":325577},"geometry":{"x":172470.88000000082,"y":2565550.790000001}},{"attributes":{"ID":325587,"DIS_CODE":0,"TOWNNAME":"麻豆區","LI":"油車里","LIN":"17鄰","STREET":"新生北路","SECT":" ","MAREA":" ","LANE":" ","ALLEY":" ","HOUSE_NO":"３２８號","E_COORD97":172475.82999999999,"N_COORD97":2565550.5299999998,"ADDRESS":"新生北路３２８號","OBJECTID":325578},"geometry":{"x":172475.83000000007,"y":2565550.5300000012}},{"attributes":{"ID":325588,"DIS_CODE":0,"TOWNNAME":"新營區","LI":"王公里","LIN":"33鄰","STREET":"民族路","SECT":" ","MAREA":" ","LANE":"３０８巷","ALLEY":" ","HOUSE_NO":"３７號","E_COORD97":180498.21869199999,"N_COORD97":2579765.7731499998,"ADDRESS":"民族路３０８巷３７號","OBJECTID":325579},"geometry":{"x":180498.21869200189,"y":2579765.7731449995}},{"attributes":{"ID":325589,"DIS_CODE":0,"TOWNNAME":"安南區","LI":"城東里","LIN":"4鄰","STREET":"城北路","SECT":" ","MAREA":" ","LANE":"１７２巷","ALLEY":" ","HOUSE_NO":"６１號","E_COORD97":161140.20999999999,"N_COORD97":2551765.0699999998,"ADDRESS":"城北路１７２巷６１號","OBJECTID":325580},"geometry":{"x":161140.21000000089,"y":2551765.0700000022}},{"attributes":{"ID":325590,"DIS_CODE":0,"TOWNNAME":"東區","LI":"東安里","LIN":"15鄰","STREET":"長榮路","SECT":"二段","MAREA":" ","LANE":"３２巷","ALLEY":" ","HOUSE_NO":"１６２號四樓之３","E_COORD97":170184.60000000001,"N_COORD97":2543077.5299999998,"ADDRESS":"長榮路二段３２巷１６２號四樓之３","OBJECTID":325581},"geometry":{"x":170184.59999999963,"y":2543077.5300000031}},{"attributes":{"ID":325591,"DIS_CODE":0,"TOWNNAME":"東區","LI":"東安里","LIN":"15鄰","STREET":"長榮路","SECT":"二段","MAREA":" ","LANE":"３２巷","ALLEY":" ","HOUSE_NO":"１６２號四樓之４","E_COORD97":170184.60000000001,"N_COORD97":2543077.5299999998,"ADDRESS":"長榮路二段３２巷１６２號四樓之４","OBJECTID":325582},"geometry":{"x":170184.59999999963,"y":2543077.5300000031}},{"attributes":{"ID":325592,"DIS_CODE":0,"TOWNNAME":"東區","LI":"東安里","LIN":"15鄰","STREET":"長榮路","SECT":"二段","MAREA":" ","LANE":"３２巷","ALLEY":" ","HOUSE_NO":"１６２號四樓之５","E_COORD97":170184.60000000001,"N_COORD97":2543077.5299999998,"ADDRESS":"長榮路二段３２巷１６２號四樓之５","OBJECTID":325583},"geometry":{"x":170184.59999999963,"y":2543077.5300000031}},{"attributes":{"ID":325593,"DIS_CODE":0,"TOWNNAME":"東區","LI":"東安里","LIN":"15鄰","STREET":"長榮路","SECT":"二段","MAREA":" ","LANE":"３２巷","ALLEY":" ","HOUSE_NO":"１６２號四樓之６","E_COORD97":170184.60000000001,"N_COORD97":2543077.5299999998,"ADDRESS":"長榮路二段３２巷１６２號四樓之６","OBJECTID":325584},"geometry":{"x":170184.59999999963,"y":2543077.5300000031}},{"attributes":{"ID":325594,"DIS_CODE":0,"TOWNNAME":"東區","LI":"東安里","LIN":"15鄰","STREET":"長榮路","SECT":"二段","MAREA":" ","LANE":"３２巷","ALLEY":" ","HOUSE_NO":"１６２號四樓之７","E_COORD97":170184.60000000001,"N_COORD97":2543077.5299999998,"ADDRESS":"長榮路二段３２巷１６２號四樓之７","OBJECTID":325585},"geometry":{"x":170184.59999999963,"y":2543077.5300000031}},{"attributes":{"ID":325595,"DIS_CODE":0,"TOWNNAME":"東區","LI":"東安里","LIN":"15鄰","STREET":"長榮路","SECT":"二段","MAREA":" ","LANE":"３２巷","ALLEY":" ","HOUSE_NO":"１６２號四樓之８","E_COORD97":170184.60000000001,"N_COORD97":2543077.5299999998,"ADDRESS":"長榮路二段３２巷１６２號四樓之８","OBJECTID":325586},"geometry":{"x":170184.59999999963,"y":2543077.5300000031}},{"attributes":{"ID":325596,"DIS_CODE":0,"TOWNNAME":"東區","LI":"東安里","LIN":"15鄰","STREET":"長榮路","SECT":"二段","MAREA":" ","LANE":"３２巷","ALLEY":" ","HOUSE_NO":"１６２號四樓之９","E_COORD97":170184.60000000001,"N_COORD97":2543077.5299999998,"ADDRESS":"長榮路二段３２巷１６２號四樓之９","OBJECTID":325587},"geometry":{"x":170184.59999999963,"y":2543077.5300000031}},{"attributes":{"ID":325597,"DIS_CODE":0,"TOWNNAME":"中西區","LI":"三合里","LIN":"15鄰","STREET":"信義街","SECT":" ","MAREA":" ","LANE":"１０８巷","ALLEY":" ","HOUSE_NO":"４３號二樓之１","E_COORD97":167459.85999999999,"N_COORD97":2544617.7400000002,"ADDRESS":"信義街１０８巷４３號二樓之１","OBJECTID":325588},"geometry":{"x":167459.86000000034,"y":2544617.7400000021}},{"attributes":{"ID":325598,"DIS_CODE":0,"TOWNNAME":"中西區","LI":"三合里","LIN":"15鄰","STREET":"信義街","SECT":" ","MAREA":" ","LANE":"１０８巷","ALLEY":" ","HOUSE_NO":"４３號二樓之１０","E_COORD97":167459.85999999999,"N_COORD97":2544617.7400000002,"ADDRESS":"信義街１０８巷４３號二樓之１０","OBJECTID":325589},"geometry":{"x":167459.86000000034,"y":2544617.7400000021}},{"attributes":{"ID":325599,"DIS_CODE":0,"TOWNNAME":"中西區","LI":"三合里","LIN":"15鄰","STREET":"信義街","SECT":" ","MAREA":" ","LANE":"１０８巷","ALLEY":" ","HOUSE_NO":"４３號二樓之１１","E_COORD97":167459.85999999999,"N_COORD97":2544617.7400000002,"ADDRESS":"信義街１０８巷４３號二樓之１１","OBJECTID":325590},"geometry":{"x":167459.86000000034,"y":2544617.7400000021}},{"attributes":{"ID":325600,"DIS_CODE":0,"TOWNNAME":"中西區","LI":"三合里","LIN":"15鄰","STREET":"信義街","SECT":" ","MAREA":" ","LANE":"１０８巷","ALLEY":" ","HOUSE_NO":"４３號二樓之１２","E_COORD97":167459.85999999999,"N_COORD97":2544617.7400000002,"ADDRESS":"信義街１０８巷４３號二樓之１２","OBJECTID":325591},"geometry":{"x":167459.86000000034,"y":2544617.7400000021}},{"attributes":{"ID":325601,"DIS_CODE":0,"TOWNNAME":"中西區","LI":"三合里","LIN":"15鄰","STREET":"信義街","SECT":" ","MAREA":" ","LANE":"１０８巷","ALLEY":" ","HOUSE_NO":"４３號二樓之２","E_COORD97":167459.85999999999,"N_COORD97":2544617.7400000002,"ADDRESS":"信義街１０８巷４３號二樓之２","OBJECTID":325592},"geometry":{"x":167459.86000000034,"y":2544617.7400000021}},{"attributes":{"ID":325602,"DIS_CODE":0,"TOWNNAME":"中西區","LI":"三合里","LIN":"15鄰","STREET":"信義街","SECT":" ","MAREA":" ","LANE":"１０８巷","ALLEY":" ","HOUSE_NO":"４３號二樓之３","E_COORD97":167459.85999999999,"N_COORD97":2544617.7400000002,"ADDRESS":"信義街１０８巷４３號二樓之３","OBJECTID":325593},"geometry":{"x":167459.86000000034,"y":2544617.7400000021}},{"attributes":{"ID":325603,"DIS_CODE":0,"TOWNNAME":"中西區","LI":"三合里","LIN":"15鄰","STREET":"信義街","SECT":" ","MAREA":" ","LANE":"１０８巷","ALLEY":" ","HOUSE_NO":"４３號二樓之４","E_COORD97":167459.85999999999,"N_COORD97":2544617.7400000002,"ADDRESS":"信義街１０８巷４３號二樓之４","OBJECTID":325594},"geometry":{"x":167459.86000000034,"y":2544617.7400000021}},{"attributes":{"ID":325604,"DIS_CODE":0,"TOWNNAME":"麻豆區","LI":"油車里","LIN":"17鄰","STREET":"新生北路","SECT":" ","MAREA":" ","LANE":" ","ALLEY":" ","HOUSE_NO":"３３０號","E_COORD97":172480.45999999999,"N_COORD97":2565549.9399999999,"ADDRESS":"新生北路３３０號","OBJECTID":325595},"geometry":{"x":172480.46000000183,"y":2565549.9400000013}},{"attributes":{"ID":325605,"DIS_CODE":0,"TOWNNAME":"歸仁區","LI":"後市里","LIN":"17鄰","STREET":"中山路","SECT":"二段","MAREA":" ","LANE":" ","ALLEY":" ","HOUSE_NO":"１４５號","E_COORD97":177294.39000000001,"N_COORD97":2540798.5499999998,"ADDRESS":"中山路二段１４５號","OBJECTID":325596},"geometry":{"x":177294.38999999966,"y":2540798.5500000026}},{"attributes":{"ID":325606,"DIS_CODE":0,"TOWNNAME":"歸仁區","LI":"南保里","LIN":"17鄰","STREET":"文化十街","SECT":" ","MAREA":" ","LANE":" ","ALLEY":" ","HOUSE_NO":"４８號","E_COORD97":176593.64000000001,"N_COORD97":2541365.3300000001,"ADDRESS":"文化十街４８號","OBJECTID":325597},"geometry":{"x":176593.6400000006,"y":2541365.3300000019}},{"attributes":{"ID":325607,"DIS_CODE":0,"TOWNNAME":"山上區","LI":"新莊里","LIN":"6鄰","STREET":" ","SECT":" ","MAREA":"大庄","LANE":" ","ALLEY":" ","HOUSE_NO":"９之９號","E_COORD97":183970.41,"N_COORD97":2554898.2999999998,"ADDRESS":"大庄９之９號","OBJECTID":325598},"geometry":{"x":183970.41000000015,"y":2554898.3000000007}},{"attributes":{"ID":325608,"DIS_CODE":0,"TOWNNAME":"山上區","LI":"明和里","LIN":"22鄰","STREET":" ","SECT":" ","MAREA":"北勢洲","LANE":" ","ALLEY":" ","HOUSE_NO":"６５號","E_COORD97":181849.23999999999,"N_COORD97":2556497.29,"ADDRESS":"北勢洲６５號","OBJECTID":325599},"geometry":{"x":181849.24000000022,"y":2556497.2899999991}},{"attributes":{"ID":325609,"DIS_CODE":0,"TOWNNAME":"新市區","LI":"永就里","LIN":"4鄰","STREET":" ","SECT":" ","MAREA":"永就","LANE":" ","ALLEY":" ","HOUSE_NO":"４３號","E_COORD97":178501.73000000001,"N_COORD97":2551539.25,"ADDRESS":"永就４３號","OBJECTID":325600},"geometry":{"x":178501.73000000045,"y":2551539.2500000037}}]}