{"displayFieldName":"TOWNNAME","fieldAliases":{"ID":"ID","DIS_CODE":"DIS_CODE","TOWNNAME":"TOWNNAME","LI":"LI","LIN":"LIN","STREET":"STREET","SECT":"SECT","MAREA":"MAREA","LANE":"LANE","ALLEY":"ALLEY","HOUSE_NO":"HOUSE_NO","E_COORD97":"E_COORD97","N_COORD97":"N_COORD97","ADDRESS":"ADDRESS","OBJECTID":"OBJECTID"},"geometryType":"esriGeometryPoint","spatialReference":{"wkid":102443,"latestWkid":3826},"fields":[{"name":"ID","type":"esriFieldTypeDouble","alias":"ID"},{"name":"DIS_CODE","type":"esriFieldTypeInteger","alias":"DIS_CODE"},{"name":"TOWNNAME","type":"esriFieldTypeString","alias":"TOWNNAME","length":8},{"name":"LI","type":"esriFieldTypeString","alias":"LI","length":8},{"name":"LIN","type":"esriFieldTypeString","alias":"LIN","length":12},{"name":"STREET","type":"esriFieldTypeString","alias":"STREET","length":20},{"name":"SECT","type":"esriFieldTypeString","alias":"SECT","length":8},{"name":"MAREA","type":"esriFieldTypeString","alias":"MAREA","length":12},{"name":"LANE","type":"esriFieldTypeString","alias":"LANE","length":10},{"name":"ALLEY","type":"esriFieldTypeString","alias":"ALLEY","length":10},{"name":"HOUSE_NO","type":"esriFieldTypeString","alias":"HOUSE_NO","length":20},{"name":"E_COORD97","type":"esriFieldTypeDouble","alias":"E_COORD97"},{"name":"N_COORD97","type":"esriFieldTypeDouble","alias":"N_COORD97"},{"name":"ADDRESS","type":"esriFieldTypeString","alias":"ADDRESS","length":50},{"name":"OBJECTID","type":"esriFieldTypeOID","alias":"OBJECTID"}],"features":[{"attributes":{"ID":403825,"DIS_CODE":0,"TOWNNAME":"北區","LI":"五福里","LIN":"11鄰","STREET":"成功路","SECT":" ","MAREA":" ","LANE":"２２０巷","ALLEY":" ","HOUSE_NO":"１１號","E_COORD97":168319.69,"N_COORD97":2544442.3900000001,"ADDRESS":"成功路２２０巷１１號","OBJECTID":403801},"geometry":{"x":168319.69000000134,"y":2544442.3899999987}},{"attributes":{"ID":403826,"DIS_CODE":0,"TOWNNAME":"北區","LI":"五福里","LIN":"11鄰","STREET":"成功路","SECT":" ","MAREA":" ","LANE":"２２０巷","ALLEY":" ","HOUSE_NO":"１７號","E_COORD97":168329.73000000001,"N_COORD97":2544443.2999999998,"ADDRESS":"成功路２２０巷１７號","OBJECTID":403802},"geometry":{"x":168329.73000000138,"y":2544443.3000000045}},{"attributes":{"ID":403827,"DIS_CODE":0,"TOWNNAME":"北區","LI":"五福里","LIN":"11鄰","STREET":"成功路","SECT":" ","MAREA":" ","LANE":"２２０巷","ALLEY":" ","HOUSE_NO":"１９號","E_COORD97":168323.20999999999,"N_COORD97":2544450.0699999998,"ADDRESS":"成功路２２０巷１９號","OBJECTID":403803},"geometry":{"x":168323.20999999996,"y":2544450.0700000003}},{"attributes":{"ID":403828,"DIS_CODE":0,"TOWNNAME":"北區","LI":"五福里","LIN":"11鄰","STREET":"成功路","SECT":" ","MAREA":" ","LANE":"２２０巷","ALLEY":" ","HOUSE_NO":"１號","E_COORD97":168308.87,"N_COORD97":2544431.0499999998,"ADDRESS":"成功路２２０巷１號","OBJECTID":403804},"geometry":{"x":168308.87000000011,"y":2544431.0500000007}},{"attributes":{"ID":403829,"DIS_CODE":0,"TOWNNAME":"北區","LI":"五福里","LIN":"11鄰","STREET":"成功路","SECT":" ","MAREA":" ","LANE":"２２０巷","ALLEY":" ","HOUSE_NO":"２號","E_COORD97":168319.29999999999,"N_COORD97":2544430.9199999999,"ADDRESS":"成功路２２０巷２號","OBJECTID":403805},"geometry":{"x":168319.29999999981,"y":2544430.9199999999}},{"attributes":{"ID":403830,"DIS_CODE":0,"TOWNNAME":"北區","LI":"五福里","LIN":"11鄰","STREET":"成功路","SECT":" ","MAREA":" ","LANE":"２２０巷","ALLEY":" ","HOUSE_NO":"３號","E_COORD97":168311.60999999999,"N_COORD97":2544439.7799999998,"ADDRESS":"成功路２２０巷３號","OBJECTID":403806},"geometry":{"x":168311.61000000127,"y":2544439.7800000012}},{"attributes":{"ID":403831,"DIS_CODE":0,"TOWNNAME":"北區","LI":"五福里","LIN":"11鄰","STREET":"成功路","SECT":" ","MAREA":" ","LANE":"２３８巷","ALLEY":" ","HOUSE_NO":"１０號","E_COORD97":168305.48000000001,"N_COORD97":2544450.71,"ADDRESS":"成功路２３８巷１０號","OBJECTID":403807},"geometry":{"x":168305.48000000231,"y":2544450.709999999}},{"attributes":{"ID":403832,"DIS_CODE":0,"TOWNNAME":"北區","LI":"五福里","LIN":"11鄰","STREET":"成功路","SECT":" ","MAREA":" ","LANE":"２３８巷","ALLEY":" ","HOUSE_NO":"１４號","E_COORD97":168308.73999999999,"N_COORD97":2544457.75,"ADDRESS":"成功路２３８巷１４號","OBJECTID":403808},"geometry":{"x":168308.74000000115,"y":2544457.7500000019}},{"attributes":{"ID":403833,"DIS_CODE":0,"TOWNNAME":"北區","LI":"五福里","LIN":"11鄰","STREET":"成功路","SECT":" ","MAREA":" ","LANE":"２３８巷","ALLEY":" ","HOUSE_NO":"１８號","E_COORD97":168311.87,"N_COORD97":2544466.3399999999,"ADDRESS":"成功路２３８巷１８號","OBJECTID":403809},"geometry":{"x":168311.87000000011,"y":2544466.3400000017}},{"attributes":{"ID":403834,"DIS_CODE":0,"TOWNNAME":"北區","LI":"五福里","LIN":"11鄰","STREET":"成功路","SECT":" ","MAREA":" ","LANE":"２３８巷","ALLEY":" ","HOUSE_NO":"４號","E_COORD97":168295.57999999999,"N_COORD97":2544431.4500000002,"ADDRESS":"成功路２３８巷４號","OBJECTID":403810},"geometry":{"x":168295.58000000007,"y":2544431.4500000011}},{"attributes":{"ID":403835,"DIS_CODE":0,"TOWNNAME":"北區","LI":"五福里","LIN":"11鄰","STREET":"成功路","SECT":" ","MAREA":" ","LANE":"２３８巷","ALLEY":" ","HOUSE_NO":"６號","E_COORD97":168297.79000000001,"N_COORD97":2544434.96,"ADDRESS":"成功路２３８巷６號","OBJECTID":403811},"geometry":{"x":168297.7900000019,"y":2544434.9600000009}},{"attributes":{"ID":403836,"DIS_CODE":0,"TOWNNAME":"北區","LI":"五福里","LIN":"11鄰","STREET":"成功路","SECT":" ","MAREA":" ","LANE":"２３８巷","ALLEY":" ","HOUSE_NO":"８號","E_COORD97":168302.88,"N_COORD97":2544444.4700000002,"ADDRESS":"成功路２３８巷８號","OBJECTID":403812},"geometry":{"x":168302.88000000082,"y":2544444.4700000007}},{"attributes":{"ID":403837,"DIS_CODE":0,"TOWNNAME":"北區","LI":"文元里","LIN":"11鄰","STREET":"文賢路","SECT":" ","MAREA":" ","LANE":"１０８０巷","ALLEY":" ","HOUSE_NO":"１號之７","E_COORD97":167445.59,"N_COORD97":2546224.29,"ADDRESS":"文賢路１０８０巷１號之７","OBJECTID":403813},"geometry":{"x":167445.58999999985,"y":2546224.2899999991}},{"attributes":{"ID":403838,"DIS_CODE":0,"TOWNNAME":"北區","LI":"文元里","LIN":"11鄰","STREET":"文賢路","SECT":" ","MAREA":" ","LANE":"１０８０巷","ALLEY":" ","HOUSE_NO":"１號之８","E_COORD97":167447.48999999999,"N_COORD97":2546225.8100000001,"ADDRESS":"文賢路１０８０巷１號之８","OBJECTID":403814},"geometry":{"x":167447.49000000209,"y":2546225.8100000005}},{"attributes":{"ID":403839,"DIS_CODE":0,"TOWNNAME":"北區","LI":"文元里","LIN":"11鄰","STREET":"文賢路","SECT":" ","MAREA":" ","LANE":"１０８０巷","ALLEY":" ","HOUSE_NO":"１號之４","E_COORD97":167392.15005200001,"N_COORD97":2546214.9946099999,"ADDRESS":"文賢路１０８０巷１號之４","OBJECTID":403815},"geometry":{"x":167392.15005199984,"y":2546214.9946100004}},{"attributes":{"ID":403840,"DIS_CODE":0,"TOWNNAME":"北區","LI":"延平里","LIN":"11鄰","STREET":"公園路","SECT":" ","MAREA":" ","LANE":"７８８巷","ALLEY":" ","HOUSE_NO":"５９號","E_COORD97":169256.01000000001,"N_COORD97":2545733.7000000002,"ADDRESS":"公園路７８８巷５９號","OBJECTID":403816},"geometry":{"x":169256.01000000071,"y":2545733.6999999993}},{"attributes":{"ID":403841,"DIS_CODE":0,"TOWNNAME":"北區","LI":"文元里","LIN":"11鄰","STREET":"文賢路","SECT":" ","MAREA":" ","LANE":"１０８０巷","ALLEY":" ","HOUSE_NO":"１號之９","E_COORD97":167398.080266,"N_COORD97":2546217.1112799998,"ADDRESS":"文賢路１０８０巷１號之９","OBJECTID":403817},"geometry":{"x":167398.08026599977,"y":2546217.1112750024}},{"attributes":{"ID":403842,"DIS_CODE":0,"TOWNNAME":"北區","LI":"重興里","LIN":"11鄰","STREET":"東豐路","SECT":" ","MAREA":" ","LANE":"４５１巷","ALLEY":" ","HOUSE_NO":"２０號","E_COORD97":170916.38,"N_COORD97":2544804.9199999999,"ADDRESS":"東豐路４５１巷２０號","OBJECTID":403818},"geometry":{"x":170916.38000000082,"y":2544804.9200000018}},{"attributes":{"ID":403843,"DIS_CODE":0,"TOWNNAME":"北區","LI":"重興里","LIN":"11鄰","STREET":"東豐路","SECT":" ","MAREA":" ","LANE":"４５１巷","ALLEY":" ","HOUSE_NO":"２０號之１","E_COORD97":170914.5,"N_COORD97":2544831.73,"ADDRESS":"東豐路４５１巷２０號之１","OBJECTID":403819},"geometry":{"x":170914.50000000093,"y":2544831.7300000023}},{"attributes":{"ID":403844,"DIS_CODE":0,"TOWNNAME":"北區","LI":"重興里","LIN":"11鄰","STREET":"東豐路","SECT":" ","MAREA":" ","LANE":"４５１巷","ALLEY":" ","HOUSE_NO":"２０號之２","E_COORD97":170911.60999999999,"N_COORD97":2544822.1600000001,"ADDRESS":"東豐路４５１巷２０號之２","OBJECTID":403820},"geometry":{"x":170911.6100000022,"y":2544822.1600000001}},{"attributes":{"ID":403845,"DIS_CODE":0,"TOWNNAME":"北區","LI":"重興里","LIN":"11鄰","STREET":"東豐路","SECT":" ","MAREA":" ","LANE":"４５１巷","ALLEY":" ","HOUSE_NO":"２０號之３","E_COORD97":170942.29999999999,"N_COORD97":2544839.0499999998,"ADDRESS":"東豐路４５１巷２０號之３","OBJECTID":403821},"geometry":{"x":170942.30000000075,"y":2544839.0500000026}},{"attributes":{"ID":403846,"DIS_CODE":0,"TOWNNAME":"北區","LI":"重興里","LIN":"11鄰","STREET":"東豐路","SECT":" ","MAREA":" ","LANE":"４５１巷","ALLEY":" ","HOUSE_NO":"２０號之４","E_COORD97":170946.67000000001,"N_COORD97":2544837.1000000001,"ADDRESS":"東豐路４５１巷２０號之４","OBJECTID":403822},"geometry":{"x":170946.67000000086,"y":2544837.1000000034}},{"attributes":{"ID":403847,"DIS_CODE":0,"TOWNNAME":"北區","LI":"重興里","LIN":"11鄰","STREET":"東豐路","SECT":" ","MAREA":" ","LANE":"４５１巷","ALLEY":" ","HOUSE_NO":"２０號之５","E_COORD97":170923.14999999999,"N_COORD97":2544830.3399999999,"ADDRESS":"東豐路４５１巷２０號之５","OBJECTID":403823},"geometry":{"x":170923.15000000037,"y":2544830.3400000017}},{"attributes":{"ID":403848,"DIS_CODE":0,"TOWNNAME":"北區","LI":"重興里","LIN":"11鄰","STREET":"東豐路","SECT":" ","MAREA":" ","LANE":"４５１巷","ALLEY":" ","HOUSE_NO":"２０號之６","E_COORD97":170953.29000000001,"N_COORD97":2544833.1299999999,"ADDRESS":"東豐路４５１巷２０號之６","OBJECTID":403824},"geometry":{"x":170953.29000000097,"y":2544833.1300000008}},{"attributes":{"ID":403849,"DIS_CODE":0,"TOWNNAME":"北區","LI":"重興里","LIN":"11鄰","STREET":"東豐路","SECT":" ","MAREA":" ","LANE":"４５１巷","ALLEY":" ","HOUSE_NO":"２０號之７","E_COORD97":170934.10999999999,"N_COORD97":2544845.0899999999,"ADDRESS":"東豐路４５１巷２０號之７","OBJECTID":403825},"geometry":{"x":170934.11000000127,"y":2544845.0900000017}},{"attributes":{"ID":403850,"DIS_CODE":0,"TOWNNAME":"北區","LI":"重興里","LIN":"11鄰","STREET":"東豐路","SECT":" ","MAREA":" ","LANE":"４５１巷","ALLEY":" ","HOUSE_NO":"２０號之８","E_COORD97":170968.92000000001,"N_COORD97":2544822.1600000001,"ADDRESS":"東豐路４５１巷２０號之８","OBJECTID":403826},"geometry":{"x":170968.92000000086,"y":2544822.1600000001}},{"attributes":{"ID":403851,"DIS_CODE":0,"TOWNNAME":"中西區","LI":"大涼里","LIN":"13鄰","STREET":"金城街","SECT":" ","MAREA":" ","LANE":" ","ALLEY":" ","HOUSE_NO":"５３號","E_COORD97":166899.57999999999,"N_COORD97":2543697.8999999999,"ADDRESS":"金城街５３號","OBJECTID":403827},"geometry":{"x":166899.58000000101,"y":2543697.9000000022}},{"attributes":{"ID":403852,"DIS_CODE":0,"TOWNNAME":"北區","LI":"重興里","LIN":"11鄰","STREET":"東豐路","SECT":" ","MAREA":" ","LANE":"４５１巷","ALLEY":" ","HOUSE_NO":"２０號之９","E_COORD97":170939.89999999999,"N_COORD97":2544820.21,"ADDRESS":"東豐路４５１巷２０號之９","OBJECTID":403828},"geometry":{"x":170939.90000000037,"y":2544820.2100000009}},{"attributes":{"ID":403853,"DIS_CODE":0,"TOWNNAME":"北區","LI":"重興里","LIN":"11鄰","STREET":"東豐路","SECT":" ","MAREA":" ","LANE":"４５１巷","ALLEY":" ","HOUSE_NO":"２２號","E_COORD97":170929.38,"N_COORD97":2544797.8300000001,"ADDRESS":"東豐路４５１巷２２號","OBJECTID":403829},"geometry":{"x":170929.37999999989,"y":2544797.8300000001}},{"attributes":{"ID":403854,"DIS_CODE":0,"TOWNNAME":"北區","LI":"重興里","LIN":"11鄰","STREET":"東豐路","SECT":" ","MAREA":" ","LANE":"４５１巷","ALLEY":" ","HOUSE_NO":"２４號","E_COORD97":170934.31,"N_COORD97":2544784.5800000001,"ADDRESS":"東豐路４５１巷２４號","OBJECTID":403830},"geometry":{"x":170934.30999999959,"y":2544784.5800000019}},{"attributes":{"ID":403855,"DIS_CODE":0,"TOWNNAME":"北區","LI":"重興里","LIN":"11鄰","STREET":"東豐路","SECT":" ","MAREA":" ","LANE":"４５１巷","ALLEY":" ","HOUSE_NO":"２５號","E_COORD97":170913.10000000001,"N_COORD97":2544848.3199999998,"ADDRESS":"東豐路４５１巷２５號","OBJECTID":403831},"geometry":{"x":170913.10000000056,"y":2544848.3200000003}},{"attributes":{"ID":403856,"DIS_CODE":0,"TOWNNAME":"北區","LI":"重興里","LIN":"11鄰","STREET":"東豐路","SECT":" ","MAREA":" ","LANE":"４５１巷","ALLEY":" ","HOUSE_NO":"２６號","E_COORD97":170943.42000000001,"N_COORD97":2544877.52,"ADDRESS":"東豐路４５１巷２６號","OBJECTID":403832},"geometry":{"x":170943.42000000086,"y":2544877.5199999996}},{"attributes":{"ID":403857,"DIS_CODE":0,"TOWNNAME":"北區","LI":"重興里","LIN":"11鄰","STREET":"東豐路","SECT":" ","MAREA":" ","LANE":"４５１巷","ALLEY":" ","HOUSE_NO":"２７號","E_COORD97":170921.85000000001,"N_COORD97":2544862.8100000001,"ADDRESS":"東豐路４５１巷２７號","OBJECTID":403833},"geometry":{"x":170921.85000000056,"y":2544862.8100000005}},{"attributes":{"ID":403858,"DIS_CODE":0,"TOWNNAME":"北區","LI":"重興里","LIN":"11鄰","STREET":"東豐路","SECT":" ","MAREA":" ","LANE":"４５１巷","ALLEY":" ","HOUSE_NO":"２７號之１","E_COORD97":170920.35999999999,"N_COORD97":2544876.4700000002,"ADDRESS":"東豐路４５１巷２７號之１","OBJECTID":403834},"geometry":{"x":170920.36000000127,"y":2544876.4700000025}},{"attributes":{"ID":403859,"DIS_CODE":0,"TOWNNAME":"北區","LI":"重興里","LIN":"11鄰","STREET":"東豐路","SECT":" ","MAREA":" ","LANE":"４５１巷","ALLEY":" ","HOUSE_NO":"２９號","E_COORD97":170917.38,"N_COORD97":2544887.6200000001,"ADDRESS":"東豐路４５１巷２９號","OBJECTID":403835},"geometry":{"x":170917.37999999989,"y":2544887.620000001}},{"attributes":{"ID":403860,"DIS_CODE":0,"TOWNNAME":"北區","LI":"重興里","LIN":"11鄰","STREET":"東豐路","SECT":" ","MAREA":" ","LANE":"４５１巷","ALLEY":" ","HOUSE_NO":"２９號之１","E_COORD97":170905.57000000001,"N_COORD97":2544898.2200000002,"ADDRESS":"東豐路４５１巷２９號之１","OBJECTID":403836},"geometry":{"x":170905.57000000123,"y":2544898.2200000044}},{"attributes":{"ID":403861,"DIS_CODE":0,"TOWNNAME":"北區","LI":"重興里","LIN":"11鄰","STREET":"東豐路","SECT":" ","MAREA":" ","LANE":"４５１巷","ALLEY":" ","HOUSE_NO":"２號","E_COORD97":170861.67000000001,"N_COORD97":2544758.6899999999,"ADDRESS":"東豐路４５１巷２號","OBJECTID":403837},"geometry":{"x":170861.67000000179,"y":2544758.6900000013}},{"attributes":{"ID":403862,"DIS_CODE":0,"TOWNNAME":"北區","LI":"重興里","LIN":"11鄰","STREET":"東豐路","SECT":" ","MAREA":" ","LANE":"４５１巷","ALLEY":" ","HOUSE_NO":"３號","E_COORD97":170809.03,"N_COORD97":2544774.5699999998,"ADDRESS":"東豐路４５１巷３號","OBJECTID":403838},"geometry":{"x":170809.03000000119,"y":2544774.5700000022}},{"attributes":{"ID":403863,"DIS_CODE":0,"TOWNNAME":"北區","LI":"重興里","LIN":"11鄰","STREET":"東豐路","SECT":" ","MAREA":" ","LANE":"４５１巷","ALLEY":" ","HOUSE_NO":"４號","E_COORD97":170872.51999999999,"N_COORD97":2544768.1699999999,"ADDRESS":"東豐路４５１巷４號","OBJECTID":403839},"geometry":{"x":170872.52000000142,"y":2544768.1699999999}},{"attributes":{"ID":403864,"DIS_CODE":0,"TOWNNAME":"北區","LI":"重興里","LIN":"11鄰","STREET":"東豐路","SECT":" ","MAREA":" ","LANE":"４５１巷","ALLEY":" ","HOUSE_NO":"５號","E_COORD97":170838.45999999999,"N_COORD97":2544784.0499999998,"ADDRESS":"東豐路４５１巷５號","OBJECTID":403840},"geometry":{"x":170838.46000000089,"y":2544784.0500000045}},{"attributes":{"ID":403865,"DIS_CODE":0,"TOWNNAME":"北區","LI":"重興里","LIN":"11鄰","STREET":"東豐路","SECT":" ","MAREA":" ","LANE":"４５１巷","ALLEY":" ","HOUSE_NO":"６號","E_COORD97":170878.57000000001,"N_COORD97":2544778.3900000001,"ADDRESS":"東豐路４５１巷６號","OBJECTID":403841},"geometry":{"x":170878.57000000123,"y":2544778.3900000043}},{"attributes":{"ID":403866,"DIS_CODE":0,"TOWNNAME":"北區","LI":"重興里","LIN":"11鄰","STREET":"東豐路","SECT":" ","MAREA":" ","LANE":"４５１巷","ALLEY":" ","HOUSE_NO":"７號","E_COORD97":170855.39000000001,"N_COORD97":2544789.4399999999,"ADDRESS":"東豐路４５１巷７號","OBJECTID":403842},"geometry":{"x":170855.3900000006,"y":2544789.4399999995}},{"attributes":{"ID":403867,"DIS_CODE":0,"TOWNNAME":"北區","LI":"重興里","LIN":"11鄰","STREET":"東豐路","SECT":" ","MAREA":" ","LANE":"４５１巷","ALLEY":" ","HOUSE_NO":"８號","E_COORD97":170837.39000000001,"N_COORD97":2544759.1499999999,"ADDRESS":"東豐路４５１巷８號","OBJECTID":403843},"geometry":{"x":170837.38999999966,"y":2544759.1499999985}},{"attributes":{"ID":403868,"DIS_CODE":0,"TOWNNAME":"北區","LI":"重興里","LIN":"11鄰","STREET":"東豐路","SECT":" ","MAREA":" ","LANE":"４５１巷","ALLEY":" ","HOUSE_NO":"９號","E_COORD97":170867.35000000001,"N_COORD97":2544793.3399999999,"ADDRESS":"東豐路４５１巷９號","OBJECTID":403844},"geometry":{"x":170867.35000000056,"y":2544793.3399999999}},{"attributes":{"ID":403869,"DIS_CODE":0,"TOWNNAME":"北區","LI":"重興里","LIN":"11鄰","STREET":"東豐路","SECT":" ","MAREA":" ","LANE":"４５１巷","ALLEY":" ","HOUSE_NO":"１８號之１","E_COORD97":170911.67999999999,"N_COORD97":2544779.8700000001,"ADDRESS":"東豐路４５１巷１８號之１","OBJECTID":403845},"geometry":{"x":170911.6799999997,"y":2544779.8700000029}},{"attributes":{"ID":403870,"DIS_CODE":0,"TOWNNAME":"北區","LI":"重興里","LIN":"11鄰","STREET":"東豐路","SECT":" ","MAREA":" ","LANE":"４５１巷","ALLEY":" ","HOUSE_NO":"２號之１","E_COORD97":170795.48999999999,"N_COORD97":2544763.48,"ADDRESS":"東豐路４５１巷２號之１","OBJECTID":403846},"geometry":{"x":170795.49000000209,"y":2544763.4800000004}},{"attributes":{"ID":403871,"DIS_CODE":0,"TOWNNAME":"北區","LI":"安民里","LIN":"11鄰","STREET":"國華街","SECT":"四段","MAREA":" ","LANE":"９巷","ALLEY":" ","HOUSE_NO":"１０號","E_COORD97":167955.25,"N_COORD97":2544586.4700000002,"ADDRESS":"國華街四段９巷１０號","OBJECTID":403847},"geometry":{"x":167955.25,"y":2544586.4700000007}},{"attributes":{"ID":403872,"DIS_CODE":0,"TOWNNAME":"北區","LI":"安民里","LIN":"11鄰","STREET":"國華街","SECT":"四段","MAREA":" ","LANE":"９巷","ALLEY":" ","HOUSE_NO":"１２號","E_COORD97":167963.25,"N_COORD97":2544582.5899999999,"ADDRESS":"國華街四段９巷１２號","OBJECTID":403848},"geometry":{"x":167963.25000000093,"y":2544582.5899999999}},{"attributes":{"ID":403873,"DIS_CODE":0,"TOWNNAME":"永康區","LI":"大灣里","LIN":"11鄰","STREET":"大灣路","SECT":" ","MAREA":" ","LANE":"２４０巷","ALLEY":" ","HOUSE_NO":"１號七樓之１","E_COORD97":174967.13,"N_COORD97":2545362.9900000002,"ADDRESS":"大灣路２４０巷１號七樓之１","OBJECTID":403849},"geometry":{"x":174967.12999999989,"y":2545362.9900000002}},{"attributes":{"ID":403874,"DIS_CODE":0,"TOWNNAME":"北區","LI":"安民里","LIN":"11鄰","STREET":"國華街","SECT":"四段","MAREA":" ","LANE":"１３巷","ALLEY":" ","HOUSE_NO":"１號","E_COORD97":168000.5,"N_COORD97":2544600.4199999999,"ADDRESS":"國華街四段１３巷１號","OBJECTID":403850},"geometry":{"x":168000.50000000093,"y":2544600.4199999999}},{"attributes":{"ID":403875,"DIS_CODE":0,"TOWNNAME":"永康區","LI":"大灣里","LIN":"11鄰","STREET":"大灣路","SECT":" ","MAREA":" ","LANE":"２４０巷","ALLEY":" ","HOUSE_NO":"１號八樓之２","E_COORD97":174967.26999999999,"N_COORD97":2545362.9900000002,"ADDRESS":"大灣路２４０巷１號八樓之２","OBJECTID":403851},"geometry":{"x":174967.26999999955,"y":2545362.9900000002}},{"attributes":{"ID":403876,"DIS_CODE":0,"TOWNNAME":"永康區","LI":"大灣里","LIN":"11鄰","STREET":"大灣路","SECT":" ","MAREA":" ","LANE":"２４０巷","ALLEY":" ","HOUSE_NO":"１號五樓之３","E_COORD97":174967.23000000001,"N_COORD97":2545362.9900000002,"ADDRESS":"大灣路２４０巷１號五樓之３","OBJECTID":403852},"geometry":{"x":174967.23000000045,"y":2545362.9900000002}},{"attributes":{"ID":403877,"DIS_CODE":0,"TOWNNAME":"北區","LI":"安民里","LIN":"11鄰","STREET":"國華街","SECT":"四段","MAREA":" ","LANE":"１３巷","ALLEY":" ","HOUSE_NO":"２號","E_COORD97":167996.62,"N_COORD97":2544601.79,"ADDRESS":"國華街四段１３巷２號","OBJECTID":403853},"geometry":{"x":167996.62000000011,"y":2544601.790000001}},{"attributes":{"ID":403878,"DIS_CODE":0,"TOWNNAME":"永康區","LI":"大灣里","LIN":"11鄰","STREET":"大灣路","SECT":" ","MAREA":" ","LANE":"２４０巷","ALLEY":" ","HOUSE_NO":"３號七樓之１","E_COORD97":174954.85999999999,"N_COORD97":2545347.7599999998,"ADDRESS":"大灣路２４０巷３號七樓之１","OBJECTID":403854},"geometry":{"x":174954.86000000127,"y":2545347.7600000035}},{"attributes":{"ID":403879,"DIS_CODE":0,"TOWNNAME":"永康區","LI":"大灣里","LIN":"11鄰","STREET":"大灣路","SECT":" ","MAREA":" ","LANE":"２４０巷","ALLEY":" ","HOUSE_NO":"３號十樓之１","E_COORD97":174954.85999999999,"N_COORD97":2545347.7599999998,"ADDRESS":"大灣路２４０巷３號十樓之１","OBJECTID":403855},"geometry":{"x":174954.86000000127,"y":2545347.7600000035}},{"attributes":{"ID":403880,"DIS_CODE":0,"TOWNNAME":"北區","LI":"安民里","LIN":"11鄰","STREET":"國華街","SECT":"四段","MAREA":" ","LANE":"１３巷","ALLEY":" ","HOUSE_NO":"５號","E_COORD97":167988.62,"N_COORD97":2544604.9900000002,"ADDRESS":"國華街四段１３巷５號","OBJECTID":403856},"geometry":{"x":167988.62000000011,"y":2544604.9900000021}},{"attributes":{"ID":403881,"DIS_CODE":0,"TOWNNAME":"永康區","LI":"大灣里","LIN":"11鄰","STREET":"大灣路","SECT":" ","MAREA":" ","LANE":"２４０巷","ALLEY":" ","HOUSE_NO":"３號十一樓之２","E_COORD97":174956.25,"N_COORD97":2545347.7599999998,"ADDRESS":"大灣路２４０巷３號十一樓之２","OBJECTID":403857},"geometry":{"x":174956.25,"y":2545347.7600000035}},{"attributes":{"ID":403882,"DIS_CODE":0,"TOWNNAME":"永康區","LI":"大灣里","LIN":"11鄰","STREET":"大灣路","SECT":" ","MAREA":" ","LANE":"２４０巷","ALLEY":" ","HOUSE_NO":"３號九樓之１","E_COORD97":174954.85999999999,"N_COORD97":2545347.7599999998,"ADDRESS":"大灣路２４０巷３號九樓之１","OBJECTID":403858},"geometry":{"x":174954.86000000127,"y":2545347.7600000035}},{"attributes":{"ID":403883,"DIS_CODE":0,"TOWNNAME":"永康區","LI":"大灣里","LIN":"11鄰","STREET":"大灣路","SECT":" ","MAREA":" ","LANE":"２４０巷","ALLEY":" ","HOUSE_NO":"３號四樓之２","E_COORD97":174955,"N_COORD97":2545347.7599999998,"ADDRESS":"大灣路２４０巷３號四樓之２","OBJECTID":403859},"geometry":{"x":174954.99999999907,"y":2545347.7600000035}},{"attributes":{"ID":403884,"DIS_CODE":0,"TOWNNAME":"永康區","LI":"大灣里","LIN":"11鄰","STREET":"大灣路","SECT":" ","MAREA":" ","LANE":"２４０巷","ALLEY":" ","HOUSE_NO":"３號六樓之２","E_COORD97":174955,"N_COORD97":2545347.7599999998,"ADDRESS":"大灣路２４０巷３號六樓之２","OBJECTID":403860},"geometry":{"x":174954.99999999907,"y":2545347.7600000035}},{"attributes":{"ID":403885,"DIS_CODE":0,"TOWNNAME":"永康區","LI":"大灣里","LIN":"11鄰","STREET":"大灣路","SECT":" ","MAREA":" ","LANE":"２４０巷","ALLEY":" ","HOUSE_NO":"３號四樓之３","E_COORD97":174954.95999999999,"N_COORD97":2545347.7599999998,"ADDRESS":"大灣路２４０巷３號四樓之３","OBJECTID":403861},"geometry":{"x":174954.95999999996,"y":2545347.7600000035}},{"attributes":{"ID":403886,"DIS_CODE":0,"TOWNNAME":"永康區","LI":"大灣里","LIN":"11鄰","STREET":"大灣路","SECT":" ","MAREA":" ","LANE":"２４０巷","ALLEY":" ","HOUSE_NO":"１號十二樓之１","E_COORD97":174968.38,"N_COORD97":2545362.9900000002,"ADDRESS":"大灣路２４０巷１號十二樓之１","OBJECTID":403862},"geometry":{"x":174968.38000000082,"y":2545362.9900000002}},{"attributes":{"ID":403887,"DIS_CODE":0,"TOWNNAME":"北區","LI":"安民里","LIN":"11鄰","STREET":"國華街","SECT":"四段","MAREA":" ","LANE":"１３巷","ALLEY":" ","HOUSE_NO":"６號","E_COORD97":167985.19,"N_COORD97":2544607.27,"ADDRESS":"國華街四段１３巷６號","OBJECTID":403863},"geometry":{"x":167985.18999999948,"y":2544607.2699999996}},{"attributes":{"ID":403888,"DIS_CODE":0,"TOWNNAME":"永康區","LI":"大灣里","LIN":"11鄰","STREET":"大灣路","SECT":" ","MAREA":" ","LANE":"２４０巷","ALLEY":" ","HOUSE_NO":"３號五樓之１","E_COORD97":174954.85999999999,"N_COORD97":2545347.7599999998,"ADDRESS":"大灣路２４０巷３號五樓之１","OBJECTID":403864},"geometry":{"x":174954.86000000127,"y":2545347.7600000035}},{"attributes":{"ID":403889,"DIS_CODE":0,"TOWNNAME":"永康區","LI":"大灣里","LIN":"11鄰","STREET":"大灣路","SECT":" ","MAREA":" ","LANE":"２４０巷","ALLEY":" ","HOUSE_NO":"１號五樓之１","E_COORD97":174967.13,"N_COORD97":2545362.9900000002,"ADDRESS":"大灣路２４０巷１號五樓之１","OBJECTID":403865},"geometry":{"x":174967.12999999989,"y":2545362.9900000002}},{"attributes":{"ID":403890,"DIS_CODE":0,"TOWNNAME":"永康區","LI":"大灣里","LIN":"11鄰","STREET":"大灣路","SECT":" ","MAREA":" ","LANE":"２４０巷","ALLEY":" ","HOUSE_NO":"１號六樓之２","E_COORD97":174967.26999999999,"N_COORD97":2545362.9900000002,"ADDRESS":"大灣路２４０巷１號六樓之２","OBJECTID":403866},"geometry":{"x":174967.26999999955,"y":2545362.9900000002}},{"attributes":{"ID":403891,"DIS_CODE":0,"TOWNNAME":"永康區","LI":"大灣里","LIN":"11鄰","STREET":"大灣路","SECT":" ","MAREA":" ","LANE":"２４０巷","ALLEY":" ","HOUSE_NO":"１號十一樓之２","E_COORD97":174968.51999999999,"N_COORD97":2545362.9900000002,"ADDRESS":"大灣路２４０巷１號十一樓之２","OBJECTID":403867},"geometry":{"x":174968.52000000048,"y":2545362.9900000002}},{"attributes":{"ID":403892,"DIS_CODE":0,"TOWNNAME":"中西區","LI":"普濟里","LIN":"11鄰","STREET":"國華街","SECT":"三段","MAREA":" ","LANE":"２５０巷","ALLEY":" ","HOUSE_NO":"２７號二樓之１","E_COORD97":168015.29999999999,"N_COORD97":2544444.3500000001,"ADDRESS":"國華街三段２５０巷２７號二樓之１","OBJECTID":403868},"geometry":{"x":168015.29999999981,"y":2544444.3499999996}},{"attributes":{"ID":403893,"DIS_CODE":0,"TOWNNAME":"中西區","LI":"普濟里","LIN":"11鄰","STREET":"國華街","SECT":"三段","MAREA":" ","LANE":"２５０巷","ALLEY":" ","HOUSE_NO":"２７號二樓之２","E_COORD97":168015.29999999999,"N_COORD97":2544444.3500000001,"ADDRESS":"國華街三段２５０巷２７號二樓之２","OBJECTID":403869},"geometry":{"x":168015.29999999981,"y":2544444.3499999996}},{"attributes":{"ID":403894,"DIS_CODE":0,"TOWNNAME":"中西區","LI":"普濟里","LIN":"11鄰","STREET":"國華街","SECT":"三段","MAREA":" ","LANE":"２５０巷","ALLEY":" ","HOUSE_NO":"２７號二樓之３","E_COORD97":168015.29999999999,"N_COORD97":2544444.3500000001,"ADDRESS":"國華街三段２５０巷２７號二樓之３","OBJECTID":403870},"geometry":{"x":168015.29999999981,"y":2544444.3499999996}},{"attributes":{"ID":403895,"DIS_CODE":0,"TOWNNAME":"中西區","LI":"普濟里","LIN":"11鄰","STREET":"國華街","SECT":"三段","MAREA":" ","LANE":"２５０巷","ALLEY":" ","HOUSE_NO":"２７號三樓之１","E_COORD97":168015.29999999999,"N_COORD97":2544444.3500000001,"ADDRESS":"國華街三段２５０巷２７號三樓之１","OBJECTID":403871},"geometry":{"x":168015.29999999981,"y":2544444.3499999996}},{"attributes":{"ID":403896,"DIS_CODE":0,"TOWNNAME":"中西區","LI":"普濟里","LIN":"11鄰","STREET":"國華街","SECT":"三段","MAREA":" ","LANE":"２５０巷","ALLEY":" ","HOUSE_NO":"２７號三樓之２","E_COORD97":168015.29999999999,"N_COORD97":2544444.3500000001,"ADDRESS":"國華街三段２５０巷２７號三樓之２","OBJECTID":403872},"geometry":{"x":168015.29999999981,"y":2544444.3499999996}},{"attributes":{"ID":403897,"DIS_CODE":0,"TOWNNAME":"中西區","LI":"普濟里","LIN":"11鄰","STREET":"國華街","SECT":"三段","MAREA":" ","LANE":"２５０巷","ALLEY":" ","HOUSE_NO":"２７號三樓之３","E_COORD97":168015.29999999999,"N_COORD97":2544444.3500000001,"ADDRESS":"國華街三段２５０巷２７號三樓之３","OBJECTID":403873},"geometry":{"x":168015.29999999981,"y":2544444.3499999996}},{"attributes":{"ID":403898,"DIS_CODE":0,"TOWNNAME":"中西區","LI":"普濟里","LIN":"11鄰","STREET":"國華街","SECT":"三段","MAREA":" ","LANE":"２５０巷","ALLEY":" ","HOUSE_NO":"２７號五樓之１","E_COORD97":168015.29999999999,"N_COORD97":2544444.3500000001,"ADDRESS":"國華街三段２５０巷２７號五樓之１","OBJECTID":403874},"geometry":{"x":168015.29999999981,"y":2544444.3499999996}},{"attributes":{"ID":403899,"DIS_CODE":0,"TOWNNAME":"中西區","LI":"普濟里","LIN":"11鄰","STREET":"國華街","SECT":"三段","MAREA":" ","LANE":"２５０巷","ALLEY":" ","HOUSE_NO":"２７號五樓之２","E_COORD97":168015.29999999999,"N_COORD97":2544444.3500000001,"ADDRESS":"國華街三段２５０巷２７號五樓之２","OBJECTID":403875},"geometry":{"x":168015.29999999981,"y":2544444.3499999996}},{"attributes":{"ID":403900,"DIS_CODE":0,"TOWNNAME":"中西區","LI":"普濟里","LIN":"11鄰","STREET":"國華街","SECT":"三段","MAREA":" ","LANE":"２５０巷","ALLEY":" ","HOUSE_NO":"２７號五樓之３","E_COORD97":168015.29999999999,"N_COORD97":2544444.3500000001,"ADDRESS":"國華街三段２５０巷２７號五樓之３","OBJECTID":403876},"geometry":{"x":168015.29999999981,"y":2544444.3499999996}},{"attributes":{"ID":403901,"DIS_CODE":0,"TOWNNAME":"中西區","LI":"普濟里","LIN":"11鄰","STREET":"國華街","SECT":"三段","MAREA":" ","LANE":"２５０巷","ALLEY":" ","HOUSE_NO":"２７號四樓之１","E_COORD97":168015.29999999999,"N_COORD97":2544444.3500000001,"ADDRESS":"國華街三段２５０巷２７號四樓之１","OBJECTID":403877},"geometry":{"x":168015.29999999981,"y":2544444.3499999996}},{"attributes":{"ID":403902,"DIS_CODE":0,"TOWNNAME":"中西區","LI":"普濟里","LIN":"11鄰","STREET":"國華街","SECT":"三段","MAREA":" ","LANE":"２５０巷","ALLEY":" ","HOUSE_NO":"２７號四樓之２","E_COORD97":168015.29999999999,"N_COORD97":2544444.3500000001,"ADDRESS":"國華街三段２５０巷２７號四樓之２","OBJECTID":403878},"geometry":{"x":168015.29999999981,"y":2544444.3499999996}},{"attributes":{"ID":403903,"DIS_CODE":0,"TOWNNAME":"中西區","LI":"普濟里","LIN":"11鄰","STREET":"國華街","SECT":"三段","MAREA":" ","LANE":"２５０巷","ALLEY":" ","HOUSE_NO":"２７號四樓之３","E_COORD97":168015.29999999999,"N_COORD97":2544444.3500000001,"ADDRESS":"國華街三段２５０巷２７號四樓之３","OBJECTID":403879},"geometry":{"x":168015.29999999981,"y":2544444.3499999996}},{"attributes":{"ID":403904,"DIS_CODE":0,"TOWNNAME":"北區","LI":"安民里","LIN":"11鄰","STREET":"國華街","SECT":"四段","MAREA":" ","LANE":"５巷","ALLEY":" ","HOUSE_NO":"１號","E_COORD97":167993.19,"N_COORD97":2544574.3700000001,"ADDRESS":"國華街四段５巷１號","OBJECTID":403880},"geometry":{"x":167993.19000000041,"y":2544574.370000001}},{"attributes":{"ID":403905,"DIS_CODE":0,"TOWNNAME":"北區","LI":"安民里","LIN":"11鄰","STREET":"國華街","SECT":"四段","MAREA":" ","LANE":"５巷","ALLEY":" ","HOUSE_NO":"２號","E_COORD97":167984.95999999999,"N_COORD97":2544578.25,"ADDRESS":"國華街四段５巷２號","OBJECTID":403881},"geometry":{"x":167984.96000000089,"y":2544578.25}},{"attributes":{"ID":403906,"DIS_CODE":0,"TOWNNAME":"東區","LI":"崇善里","LIN":"11鄰","STREET":"崇善八街","SECT":" ","MAREA":" ","LANE":"２２巷","ALLEY":" ","HOUSE_NO":"２號三樓","E_COORD97":171118.75,"N_COORD97":2541363.1499999999,"ADDRESS":"崇善八街２２巷２號三樓","OBJECTID":403882},"geometry":{"x":171118.74999999907,"y":2541363.1500000022}},{"attributes":{"ID":403907,"DIS_CODE":0,"TOWNNAME":"東區","LI":"崇善里","LIN":"11鄰","STREET":"崇善八街","SECT":" ","MAREA":" ","LANE":"２２巷","ALLEY":" ","HOUSE_NO":"２號五樓","E_COORD97":171118.75,"N_COORD97":2541363.1499999999,"ADDRESS":"崇善八街２２巷２號五樓","OBJECTID":403883},"geometry":{"x":171118.74999999907,"y":2541363.1500000022}},{"attributes":{"ID":403908,"DIS_CODE":0,"TOWNNAME":"東區","LI":"崇善里","LIN":"11鄰","STREET":"崇善八街","SECT":" ","MAREA":" ","LANE":"２２巷","ALLEY":" ","HOUSE_NO":"２號四樓","E_COORD97":171118.75,"N_COORD97":2541363.1499999999,"ADDRESS":"崇善八街２２巷２號四樓","OBJECTID":403884},"geometry":{"x":171118.74999999907,"y":2541363.1500000022}},{"attributes":{"ID":403909,"DIS_CODE":0,"TOWNNAME":"永康區","LI":"大灣里","LIN":"11鄰","STREET":"大灣路","SECT":" ","MAREA":" ","LANE":"２４０巷","ALLEY":" ","HOUSE_NO":"１號七樓之３","E_COORD97":174967.23000000001,"N_COORD97":2545362.9900000002,"ADDRESS":"大灣路２４０巷１號七樓之３","OBJECTID":403885},"geometry":{"x":174967.23000000045,"y":2545362.9900000002}},{"attributes":{"ID":403910,"DIS_CODE":0,"TOWNNAME":"永康區","LI":"大灣里","LIN":"11鄰","STREET":"大灣路","SECT":" ","MAREA":" ","LANE":"２４０巷","ALLEY":" ","HOUSE_NO":"１號九樓之２","E_COORD97":174967.26999999999,"N_COORD97":2545362.9900000002,"ADDRESS":"大灣路２４０巷１號九樓之２","OBJECTID":403886},"geometry":{"x":174967.26999999955,"y":2545362.9900000002}},{"attributes":{"ID":403911,"DIS_CODE":0,"TOWNNAME":"永康區","LI":"大灣里","LIN":"11鄰","STREET":"大灣路","SECT":" ","MAREA":" ","LANE":"２４０巷","ALLEY":" ","HOUSE_NO":"１號四樓之１","E_COORD97":174967.13,"N_COORD97":2545362.9900000002,"ADDRESS":"大灣路２４０巷１號四樓之１","OBJECTID":403887},"geometry":{"x":174967.12999999989,"y":2545362.9900000002}},{"attributes":{"ID":403912,"DIS_CODE":0,"TOWNNAME":"永康區","LI":"大灣里","LIN":"11鄰","STREET":"大灣路","SECT":" ","MAREA":" ","LANE":"２４０巷","ALLEY":" ","HOUSE_NO":"１號八樓之１","E_COORD97":174967.13,"N_COORD97":2545362.9900000002,"ADDRESS":"大灣路２４０巷１號八樓之１","OBJECTID":403888},"geometry":{"x":174967.12999999989,"y":2545362.9900000002}},{"attributes":{"ID":403913,"DIS_CODE":0,"TOWNNAME":"永康區","LI":"大灣里","LIN":"11鄰","STREET":"大灣路","SECT":" ","MAREA":" ","LANE":"２４０巷","ALLEY":" ","HOUSE_NO":"１號十樓之１","E_COORD97":174967.13,"N_COORD97":2545362.9900000002,"ADDRESS":"大灣路２４０巷１號十樓之１","OBJECTID":403889},"geometry":{"x":174967.12999999989,"y":2545362.9900000002}},{"attributes":{"ID":403914,"DIS_CODE":0,"TOWNNAME":"永康區","LI":"大灣里","LIN":"11鄰","STREET":"大灣路","SECT":" ","MAREA":" ","LANE":"２４０巷","ALLEY":" ","HOUSE_NO":"１號三樓","E_COORD97":174965,"N_COORD97":2545362.9500000002,"ADDRESS":"大灣路２４０巷１號三樓","OBJECTID":403890},"geometry":{"x":174965,"y":2545362.950000003}},{"attributes":{"ID":403915,"DIS_CODE":0,"TOWNNAME":"永康區","LI":"大灣里","LIN":"11鄰","STREET":"大灣路","SECT":" ","MAREA":" ","LANE":"２４０巷","ALLEY":" ","HOUSE_NO":"１號五樓之２","E_COORD97":174967.26999999999,"N_COORD97":2545362.9900000002,"ADDRESS":"大灣路２４０巷１號五樓之２","OBJECTID":403891},"geometry":{"x":174967.26999999955,"y":2545362.9900000002}},{"attributes":{"ID":403916,"DIS_CODE":0,"TOWNNAME":"永康區","LI":"大灣里","LIN":"11鄰","STREET":"大灣路","SECT":" ","MAREA":" ","LANE":"２４０巷","ALLEY":" ","HOUSE_NO":"１號十一樓之３","E_COORD97":174968.48000000001,"N_COORD97":2545362.9900000002,"ADDRESS":"大灣路２４０巷１號十一樓之３","OBJECTID":403892},"geometry":{"x":174968.48000000045,"y":2545362.9900000002}},{"attributes":{"ID":403917,"DIS_CODE":0,"TOWNNAME":"永康區","LI":"大灣里","LIN":"11鄰","STREET":"大灣路","SECT":" ","MAREA":" ","LANE":"２４０巷","ALLEY":" ","HOUSE_NO":"３號三樓","E_COORD97":174952.73000000001,"N_COORD97":2545347.7200000002,"ADDRESS":"大灣路２４０巷３號三樓","OBJECTID":403893},"geometry":{"x":174952.73000000138,"y":2545347.7200000007}},{"attributes":{"ID":403918,"DIS_CODE":0,"TOWNNAME":"北區","LI":"安民里","LIN":"11鄰","STREET":"國華街","SECT":"四段","MAREA":" ","LANE":"５巷","ALLEY":" ","HOUSE_NO":"３號","E_COORD97":167977.19,"N_COORD97":2544579.1600000001,"ADDRESS":"國華街四段５巷３號","OBJECTID":403894},"geometry":{"x":167977.19000000134,"y":2544579.1599999983}},{"attributes":{"ID":403919,"DIS_CODE":0,"TOWNNAME":"東區","LI":"後甲里","LIN":"11鄰","STREET":"建東街","SECT":" ","MAREA":" ","LANE":"４３巷","ALLEY":" ","HOUSE_NO":"１號三樓之１","E_COORD97":171764.16,"N_COORD97":2543408.8799999999,"ADDRESS":"建東街４３巷１號三樓之１","OBJECTID":403895},"geometry":{"x":171764.16000000108,"y":2543408.879999999}},{"attributes":{"ID":403920,"DIS_CODE":0,"TOWNNAME":"東區","LI":"後甲里","LIN":"11鄰","STREET":"建東街","SECT":" ","MAREA":" ","LANE":"４３巷","ALLEY":" ","HOUSE_NO":"１號三樓之２","E_COORD97":171764.16,"N_COORD97":2543408.8799999999,"ADDRESS":"建東街４３巷１號三樓之２","OBJECTID":403896},"geometry":{"x":171764.16000000108,"y":2543408.879999999}},{"attributes":{"ID":403921,"DIS_CODE":0,"TOWNNAME":"東區","LI":"後甲里","LIN":"11鄰","STREET":"建東街","SECT":" ","MAREA":" ","LANE":"４３巷","ALLEY":" ","HOUSE_NO":"１號三樓之３","E_COORD97":171764.16,"N_COORD97":2543408.8799999999,"ADDRESS":"建東街４３巷１號三樓之３","OBJECTID":403897},"geometry":{"x":171764.16000000108,"y":2543408.879999999}},{"attributes":{"ID":403922,"DIS_CODE":0,"TOWNNAME":"東區","LI":"後甲里","LIN":"11鄰","STREET":"建東街","SECT":" ","MAREA":" ","LANE":"４３巷","ALLEY":" ","HOUSE_NO":"１號五樓之３","E_COORD97":171764.16,"N_COORD97":2543408.8799999999,"ADDRESS":"建東街４３巷１號五樓之３","OBJECTID":403898},"geometry":{"x":171764.16000000108,"y":2543408.879999999}},{"attributes":{"ID":403923,"DIS_CODE":0,"TOWNNAME":"東區","LI":"後甲里","LIN":"11鄰","STREET":"建東街","SECT":" ","MAREA":" ","LANE":"４３巷","ALLEY":" ","HOUSE_NO":"１號四樓之１","E_COORD97":171764.16,"N_COORD97":2543408.8799999999,"ADDRESS":"建東街４３巷１號四樓之１","OBJECTID":403899},"geometry":{"x":171764.16000000108,"y":2543408.879999999}},{"attributes":{"ID":403924,"DIS_CODE":0,"TOWNNAME":"東區","LI":"後甲里","LIN":"11鄰","STREET":"建東街","SECT":" ","MAREA":" ","LANE":"４３巷","ALLEY":" ","HOUSE_NO":"１號四樓之２","E_COORD97":171764.16,"N_COORD97":2543408.8799999999,"ADDRESS":"建東街４３巷１號四樓之２","OBJECTID":403900},"geometry":{"x":171764.16000000108,"y":2543408.879999999}},{"attributes":{"ID":403925,"DIS_CODE":0,"TOWNNAME":"東區","LI":"後甲里","LIN":"11鄰","STREET":"建東街","SECT":" ","MAREA":" ","LANE":"４３巷","ALLEY":" ","HOUSE_NO":"１號三樓之４","E_COORD97":171764.16,"N_COORD97":2543408.8799999999,"ADDRESS":"建東街４３巷１號三樓之４","OBJECTID":403901},"geometry":{"x":171764.16000000108,"y":2543408.879999999}},{"attributes":{"ID":403926,"DIS_CODE":0,"TOWNNAME":"東區","LI":"後甲里","LIN":"11鄰","STREET":"建東街","SECT":" ","MAREA":" ","LANE":"４３巷","ALLEY":" ","HOUSE_NO":"１號四樓之３","E_COORD97":171764.16,"N_COORD97":2543408.8799999999,"ADDRESS":"建東街４３巷１號四樓之３","OBJECTID":403902},"geometry":{"x":171764.16000000108,"y":2543408.879999999}},{"attributes":{"ID":403927,"DIS_CODE":0,"TOWNNAME":"東區","LI":"後甲里","LIN":"11鄰","STREET":"建東街","SECT":" ","MAREA":" ","LANE":"４３巷","ALLEY":" ","HOUSE_NO":"１號五樓之１","E_COORD97":171764.16,"N_COORD97":2543408.8799999999,"ADDRESS":"建東街４３巷１號五樓之１","OBJECTID":403903},"geometry":{"x":171764.16000000108,"y":2543408.879999999}},{"attributes":{"ID":403928,"DIS_CODE":0,"TOWNNAME":"東區","LI":"後甲里","LIN":"11鄰","STREET":"建東街","SECT":" ","MAREA":" ","LANE":"４３巷","ALLEY":" ","HOUSE_NO":"１號五樓之２","E_COORD97":171764.16,"N_COORD97":2543408.8799999999,"ADDRESS":"建東街４３巷１號五樓之２","OBJECTID":403904},"geometry":{"x":171764.16000000108,"y":2543408.879999999}},{"attributes":{"ID":403929,"DIS_CODE":0,"TOWNNAME":"東區","LI":"後甲里","LIN":"11鄰","STREET":"建東街","SECT":" ","MAREA":" ","LANE":"４３巷","ALLEY":" ","HOUSE_NO":"１號五樓之４","E_COORD97":171764.16,"N_COORD97":2543408.8799999999,"ADDRESS":"建東街４３巷１號五樓之４","OBJECTID":403905},"geometry":{"x":171764.16000000108,"y":2543408.879999999}},{"attributes":{"ID":403930,"DIS_CODE":0,"TOWNNAME":"東區","LI":"富裕里","LIN":"11鄰","STREET":"裕豐街","SECT":" ","MAREA":" ","LANE":"５４巷","ALLEY":" ","HOUSE_NO":"１６號二樓","E_COORD97":170761.45999999999,"N_COORD97":2542751.3500000001,"ADDRESS":"裕豐街５４巷１６號二樓","OBJECTID":403906},"geometry":{"x":170761.46000000183,"y":2542751.3500000015}},{"attributes":{"ID":403931,"DIS_CODE":0,"TOWNNAME":"東區","LI":"富裕里","LIN":"11鄰","STREET":"裕豐街","SECT":" ","MAREA":" ","LANE":"５４巷","ALLEY":" ","HOUSE_NO":"１６號二樓之１","E_COORD97":170761.45999999999,"N_COORD97":2542751.3500000001,"ADDRESS":"裕豐街５４巷１６號二樓之１","OBJECTID":403907},"geometry":{"x":170761.46000000183,"y":2542751.3500000015}},{"attributes":{"ID":403932,"DIS_CODE":0,"TOWNNAME":"東區","LI":"富裕里","LIN":"11鄰","STREET":"裕豐街","SECT":" ","MAREA":" ","LANE":"５４巷","ALLEY":" ","HOUSE_NO":"１６號三樓","E_COORD97":170761.45999999999,"N_COORD97":2542751.3500000001,"ADDRESS":"裕豐街５４巷１６號三樓","OBJECTID":403908},"geometry":{"x":170761.46000000183,"y":2542751.3500000015}},{"attributes":{"ID":403933,"DIS_CODE":0,"TOWNNAME":"東區","LI":"富裕里","LIN":"11鄰","STREET":"裕豐街","SECT":" ","MAREA":" ","LANE":"５４巷","ALLEY":" ","HOUSE_NO":"１６號三樓之１","E_COORD97":170761.45999999999,"N_COORD97":2542751.3500000001,"ADDRESS":"裕豐街５４巷１６號三樓之１","OBJECTID":403909},"geometry":{"x":170761.46000000183,"y":2542751.3500000015}},{"attributes":{"ID":403934,"DIS_CODE":0,"TOWNNAME":"東區","LI":"富裕里","LIN":"11鄰","STREET":"裕豐街","SECT":" ","MAREA":" ","LANE":"５４巷","ALLEY":" ","HOUSE_NO":"１６號三樓之３","E_COORD97":170761.45999999999,"N_COORD97":2542751.3500000001,"ADDRESS":"裕豐街５４巷１６號三樓之３","OBJECTID":403910},"geometry":{"x":170761.46000000183,"y":2542751.3500000015}},{"attributes":{"ID":403935,"DIS_CODE":0,"TOWNNAME":"東區","LI":"富裕里","LIN":"11鄰","STREET":"裕豐街","SECT":" ","MAREA":" ","LANE":"５４巷","ALLEY":" ","HOUSE_NO":"１６號五樓之２","E_COORD97":170761.45999999999,"N_COORD97":2542751.3500000001,"ADDRESS":"裕豐街５４巷１６號五樓之２","OBJECTID":403911},"geometry":{"x":170761.46000000183,"y":2542751.3500000015}},{"attributes":{"ID":403936,"DIS_CODE":0,"TOWNNAME":"東區","LI":"富裕里","LIN":"11鄰","STREET":"裕豐街","SECT":" ","MAREA":" ","LANE":"５４巷","ALLEY":" ","HOUSE_NO":"１６號五樓之３","E_COORD97":170761.45999999999,"N_COORD97":2542751.3500000001,"ADDRESS":"裕豐街５４巷１６號五樓之３","OBJECTID":403912},"geometry":{"x":170761.46000000183,"y":2542751.3500000015}},{"attributes":{"ID":403937,"DIS_CODE":0,"TOWNNAME":"東區","LI":"富裕里","LIN":"11鄰","STREET":"裕豐街","SECT":" ","MAREA":" ","LANE":"５４巷","ALLEY":" ","HOUSE_NO":"１６號六樓之３","E_COORD97":170761.45999999999,"N_COORD97":2542751.3500000001,"ADDRESS":"裕豐街５４巷１６號六樓之３","OBJECTID":403913},"geometry":{"x":170761.46000000183,"y":2542751.3500000015}},{"attributes":{"ID":403938,"DIS_CODE":0,"TOWNNAME":"東區","LI":"富裕里","LIN":"11鄰","STREET":"裕豐街","SECT":" ","MAREA":" ","LANE":"５４巷","ALLEY":" ","HOUSE_NO":"１６號四樓","E_COORD97":170761.45999999999,"N_COORD97":2542751.3500000001,"ADDRESS":"裕豐街５４巷１６號四樓","OBJECTID":403914},"geometry":{"x":170761.46000000183,"y":2542751.3500000015}},{"attributes":{"ID":403939,"DIS_CODE":0,"TOWNNAME":"東區","LI":"富裕里","LIN":"11鄰","STREET":"裕豐街","SECT":" ","MAREA":" ","LANE":"５４巷","ALLEY":" ","HOUSE_NO":"１６號四樓之３","E_COORD97":170761.45999999999,"N_COORD97":2542751.3500000001,"ADDRESS":"裕豐街５４巷１６號四樓之３","OBJECTID":403915},"geometry":{"x":170761.46000000183,"y":2542751.3500000015}},{"attributes":{"ID":403940,"DIS_CODE":0,"TOWNNAME":"東區","LI":"富裕里","LIN":"11鄰","STREET":"裕豐街","SECT":" ","MAREA":" ","LANE":"５４巷","ALLEY":" ","HOUSE_NO":"１６號二樓之３","E_COORD97":170761.45999999999,"N_COORD97":2542751.3500000001,"ADDRESS":"裕豐街５４巷１６號二樓之３","OBJECTID":403916},"geometry":{"x":170761.46000000183,"y":2542751.3500000015}},{"attributes":{"ID":403941,"DIS_CODE":0,"TOWNNAME":"東區","LI":"富裕里","LIN":"11鄰","STREET":"裕豐街","SECT":" ","MAREA":" ","LANE":"５４巷","ALLEY":" ","HOUSE_NO":"１６號二樓之２","E_COORD97":170761.45999999999,"N_COORD97":2542751.3500000001,"ADDRESS":"裕豐街５４巷１６號二樓之２","OBJECTID":403917},"geometry":{"x":170761.46000000183,"y":2542751.3500000015}},{"attributes":{"ID":403942,"DIS_CODE":0,"TOWNNAME":"東區","LI":"富裕里","LIN":"11鄰","STREET":"裕豐街","SECT":" ","MAREA":" ","LANE":"５４巷","ALLEY":" ","HOUSE_NO":"１６號三樓之２","E_COORD97":170761.45999999999,"N_COORD97":2542751.3500000001,"ADDRESS":"裕豐街５４巷１６號三樓之２","OBJECTID":403918},"geometry":{"x":170761.46000000183,"y":2542751.3500000015}},{"attributes":{"ID":403943,"DIS_CODE":0,"TOWNNAME":"東區","LI":"富裕里","LIN":"11鄰","STREET":"裕豐街","SECT":" ","MAREA":" ","LANE":"５４巷","ALLEY":" ","HOUSE_NO":"１６號四樓之１","E_COORD97":170761.45999999999,"N_COORD97":2542751.3500000001,"ADDRESS":"裕豐街５４巷１６號四樓之１","OBJECTID":403919},"geometry":{"x":170761.46000000183,"y":2542751.3500000015}},{"attributes":{"ID":403944,"DIS_CODE":0,"TOWNNAME":"東區","LI":"富裕里","LIN":"11鄰","STREET":"裕豐街","SECT":" ","MAREA":" ","LANE":"５４巷","ALLEY":" ","HOUSE_NO":"１６號四樓之２","E_COORD97":170761.45999999999,"N_COORD97":2542751.3500000001,"ADDRESS":"裕豐街５４巷１６號四樓之２","OBJECTID":403920},"geometry":{"x":170761.46000000183,"y":2542751.3500000015}},{"attributes":{"ID":403945,"DIS_CODE":0,"TOWNNAME":"東區","LI":"富裕里","LIN":"11鄰","STREET":"裕豐街","SECT":" ","MAREA":" ","LANE":"５４巷","ALLEY":" ","HOUSE_NO":"１６號五樓","E_COORD97":170761.45999999999,"N_COORD97":2542751.3500000001,"ADDRESS":"裕豐街５４巷１６號五樓","OBJECTID":403921},"geometry":{"x":170761.46000000183,"y":2542751.3500000015}},{"attributes":{"ID":403946,"DIS_CODE":0,"TOWNNAME":"東區","LI":"富裕里","LIN":"11鄰","STREET":"裕豐街","SECT":" ","MAREA":" ","LANE":"５４巷","ALLEY":" ","HOUSE_NO":"１６號五樓之１","E_COORD97":170761.45999999999,"N_COORD97":2542751.3500000001,"ADDRESS":"裕豐街５４巷１６號五樓之１","OBJECTID":403922},"geometry":{"x":170761.46000000183,"y":2542751.3500000015}},{"attributes":{"ID":403947,"DIS_CODE":0,"TOWNNAME":"東區","LI":"富裕里","LIN":"11鄰","STREET":"裕豐街","SECT":" ","MAREA":" ","LANE":"５４巷","ALLEY":" ","HOUSE_NO":"１６號六樓","E_COORD97":170761.45999999999,"N_COORD97":2542751.3500000001,"ADDRESS":"裕豐街５４巷１６號六樓","OBJECTID":403923},"geometry":{"x":170761.46000000183,"y":2542751.3500000015}},{"attributes":{"ID":403948,"DIS_CODE":0,"TOWNNAME":"東區","LI":"富裕里","LIN":"11鄰","STREET":"裕豐街","SECT":" ","MAREA":" ","LANE":"５４巷","ALLEY":" ","HOUSE_NO":"１６號六樓之１","E_COORD97":170761.45999999999,"N_COORD97":2542751.3500000001,"ADDRESS":"裕豐街５４巷１６號六樓之１","OBJECTID":403924},"geometry":{"x":170761.46000000183,"y":2542751.3500000015}},{"attributes":{"ID":403949,"DIS_CODE":0,"TOWNNAME":"中西區","LI":"大涼里","LIN":"13鄰","STREET":"金城街","SECT":" ","MAREA":" ","LANE":" ","ALLEY":" ","HOUSE_NO":"５５號","E_COORD97":166902.23000000001,"N_COORD97":2543705.8599999999,"ADDRESS":"金城街５５號","OBJECTID":403925},"geometry":{"x":166902.23000000138,"y":2543705.8600000031}},{"attributes":{"ID":403950,"DIS_CODE":0,"TOWNNAME":"東區","LI":"富裕里","LIN":"11鄰","STREET":"裕豐街","SECT":" ","MAREA":" ","LANE":"５４巷","ALLEY":" ","HOUSE_NO":"１６號六樓之２","E_COORD97":170761.45999999999,"N_COORD97":2542751.3500000001,"ADDRESS":"裕豐街５４巷１６號六樓之２","OBJECTID":403926},"geometry":{"x":170761.46000000183,"y":2542751.3500000015}},{"attributes":{"ID":403951,"DIS_CODE":0,"TOWNNAME":"永康區","LI":"大灣里","LIN":"11鄰","STREET":"大灣路","SECT":" ","MAREA":" ","LANE":"２４０巷","ALLEY":" ","HOUSE_NO":"３號五樓之２","E_COORD97":174955,"N_COORD97":2545347.7599999998,"ADDRESS":"大灣路２４０巷３號五樓之２","OBJECTID":403927},"geometry":{"x":174954.99999999907,"y":2545347.7600000035}},{"attributes":{"ID":403952,"DIS_CODE":0,"TOWNNAME":"永康區","LI":"大灣里","LIN":"11鄰","STREET":"大灣路","SECT":" ","MAREA":" ","LANE":"２４０巷","ALLEY":" ","HOUSE_NO":"３號七樓之２","E_COORD97":174955,"N_COORD97":2545347.7599999998,"ADDRESS":"大灣路２４０巷３號七樓之２","OBJECTID":403928},"geometry":{"x":174954.99999999907,"y":2545347.7600000035}},{"attributes":{"ID":403953,"DIS_CODE":0,"TOWNNAME":"永康區","LI":"大灣里","LIN":"11鄰","STREET":"大灣路","SECT":" ","MAREA":" ","LANE":"２４０巷","ALLEY":" ","HOUSE_NO":"３號十一樓之１","E_COORD97":174956.10999999999,"N_COORD97":2545347.7599999998,"ADDRESS":"大灣路２４０巷３號十一樓之１","OBJECTID":403929},"geometry":{"x":174956.11000000034,"y":2545347.7600000035}},{"attributes":{"ID":403954,"DIS_CODE":0,"TOWNNAME":"永康區","LI":"大灣里","LIN":"11鄰","STREET":"大灣路","SECT":" ","MAREA":" ","LANE":"２４０巷","ALLEY":" ","HOUSE_NO":"３號八樓之２","E_COORD97":174955,"N_COORD97":2545347.7599999998,"ADDRESS":"大灣路２４０巷３號八樓之２","OBJECTID":403930},"geometry":{"x":174954.99999999907,"y":2545347.7600000035}},{"attributes":{"ID":403955,"DIS_CODE":0,"TOWNNAME":"永康區","LI":"大灣里","LIN":"11鄰","STREET":"大灣路","SECT":" ","MAREA":" ","LANE":"２４０巷","ALLEY":" ","HOUSE_NO":"３號八樓之１","E_COORD97":174954.85999999999,"N_COORD97":2545347.7599999998,"ADDRESS":"大灣路２４０巷３號八樓之１","OBJECTID":403931},"geometry":{"x":174954.86000000127,"y":2545347.7600000035}},{"attributes":{"ID":403956,"DIS_CODE":0,"TOWNNAME":"永康區","LI":"大灣里","LIN":"11鄰","STREET":"大灣路","SECT":" ","MAREA":" ","LANE":"２４０巷","ALLEY":" ","HOUSE_NO":"３號九樓之２","E_COORD97":174955,"N_COORD97":2545347.7599999998,"ADDRESS":"大灣路２４０巷３號九樓之２","OBJECTID":403932},"geometry":{"x":174954.99999999907,"y":2545347.7600000035}},{"attributes":{"ID":403957,"DIS_CODE":0,"TOWNNAME":"永康區","LI":"大灣里","LIN":"11鄰","STREET":"大灣路","SECT":" ","MAREA":" ","LANE":"２４０巷","ALLEY":" ","HOUSE_NO":"３號七樓之３","E_COORD97":174954.95999999999,"N_COORD97":2545347.7599999998,"ADDRESS":"大灣路２４０巷３號七樓之３","OBJECTID":403933},"geometry":{"x":174954.95999999996,"y":2545347.7600000035}},{"attributes":{"ID":403958,"DIS_CODE":0,"TOWNNAME":"東區","LI":"崇善里","LIN":"10鄰","STREET":"崇善八街","SECT":" ","MAREA":" ","LANE":"６９巷","ALLEY":" ","HOUSE_NO":"８號","E_COORD97":171221.85999999999,"N_COORD97":2541490.2599999998,"ADDRESS":"崇善八街６９巷８號","OBJECTID":403934},"geometry":{"x":171221.8600000022,"y":2541490.2600000016}},{"attributes":{"ID":403959,"DIS_CODE":0,"TOWNNAME":"永康區","LI":"大灣里","LIN":"11鄰","STREET":"大灣路","SECT":" ","MAREA":" ","LANE":"２４０巷","ALLEY":" ","HOUSE_NO":"１號十二樓之２","E_COORD97":174968.51999999999,"N_COORD97":2545362.9900000002,"ADDRESS":"大灣路２４０巷１號十二樓之２","OBJECTID":403935},"geometry":{"x":174968.52000000048,"y":2545362.9900000002}},{"attributes":{"ID":403960,"DIS_CODE":0,"TOWNNAME":"永康區","LI":"大灣里","LIN":"11鄰","STREET":"大灣路","SECT":" ","MAREA":" ","LANE":"２４０巷","ALLEY":" ","HOUSE_NO":"３號十二樓之２","E_COORD97":174956.25,"N_COORD97":2545347.7599999998,"ADDRESS":"大灣路２４０巷３號十二樓之２","OBJECTID":403936},"geometry":{"x":174956.25,"y":2545347.7600000035}},{"attributes":{"ID":403961,"DIS_CODE":0,"TOWNNAME":"永康區","LI":"大灣里","LIN":"11鄰","STREET":"大灣路","SECT":" ","MAREA":" ","LANE":"２４０巷","ALLEY":" ","HOUSE_NO":"３號十樓之２","E_COORD97":174955,"N_COORD97":2545347.7599999998,"ADDRESS":"大灣路２４０巷３號十樓之２","OBJECTID":403937},"geometry":{"x":174954.99999999907,"y":2545347.7600000035}},{"attributes":{"ID":403962,"DIS_CODE":0,"TOWNNAME":"永康區","LI":"大灣里","LIN":"11鄰","STREET":"大灣路","SECT":" ","MAREA":" ","LANE":"２４０巷","ALLEY":" ","HOUSE_NO":"３號四樓之１","E_COORD97":174954.85999999999,"N_COORD97":2545347.7599999998,"ADDRESS":"大灣路２４０巷３號四樓之１","OBJECTID":403938},"geometry":{"x":174954.86000000127,"y":2545347.7600000035}},{"attributes":{"ID":403963,"DIS_CODE":0,"TOWNNAME":"永康區","LI":"大灣里","LIN":"11鄰","STREET":"大灣路","SECT":" ","MAREA":" ","LANE":"２４０巷","ALLEY":" ","HOUSE_NO":"３號十一樓之３","E_COORD97":174956.20999999999,"N_COORD97":2545347.7599999998,"ADDRESS":"大灣路２４０巷３號十一樓之３","OBJECTID":403939},"geometry":{"x":174956.20999999996,"y":2545347.7600000035}},{"attributes":{"ID":403964,"DIS_CODE":0,"TOWNNAME":"永康區","LI":"大灣里","LIN":"11鄰","STREET":"大灣路","SECT":" ","MAREA":" ","LANE":"２４０巷","ALLEY":" ","HOUSE_NO":"３號二樓","E_COORD97":174952.73000000001,"N_COORD97":2545347.7200000002,"ADDRESS":"大灣路２４０巷３號二樓","OBJECTID":403940},"geometry":{"x":174952.73000000138,"y":2545347.7200000007}},{"attributes":{"ID":403965,"DIS_CODE":0,"TOWNNAME":"北區","LI":"安民里","LIN":"11鄰","STREET":"國華街","SECT":"四段","MAREA":" ","LANE":"５巷","ALLEY":" ","HOUSE_NO":"５號","E_COORD97":167971.92999999999,"N_COORD97":2544580.5299999998,"ADDRESS":"國華街四段５巷５號","OBJECTID":403941},"geometry":{"x":167971.9299999997,"y":2544580.5300000012}},{"attributes":{"ID":403966,"DIS_CODE":0,"TOWNNAME":"永康區","LI":"大灣里","LIN":"11鄰","STREET":"大灣路","SECT":" ","MAREA":" ","LANE":"２４０巷","ALLEY":" ","HOUSE_NO":"３號五樓之３","E_COORD97":174954.95999999999,"N_COORD97":2545347.7599999998,"ADDRESS":"大灣路２４０巷３號五樓之３","OBJECTID":403942},"geometry":{"x":174954.95999999996,"y":2545347.7600000035}},{"attributes":{"ID":403967,"DIS_CODE":0,"TOWNNAME":"永康區","LI":"大灣里","LIN":"11鄰","STREET":"大灣路","SECT":" ","MAREA":" ","LANE":"２４０巷","ALLEY":" ","HOUSE_NO":"１號二樓","E_COORD97":174965,"N_COORD97":2545362.9500000002,"ADDRESS":"大灣路２４０巷１號二樓","OBJECTID":403943},"geometry":{"x":174965,"y":2545362.950000003}},{"attributes":{"ID":403968,"DIS_CODE":0,"TOWNNAME":"永康區","LI":"大灣里","LIN":"11鄰","STREET":"大灣路","SECT":" ","MAREA":" ","LANE":"２４０巷","ALLEY":" ","HOUSE_NO":"１號九樓之３","E_COORD97":174967.23000000001,"N_COORD97":2545362.9900000002,"ADDRESS":"大灣路２４０巷１號九樓之３","OBJECTID":403944},"geometry":{"x":174967.23000000045,"y":2545362.9900000002}},{"attributes":{"ID":403969,"DIS_CODE":0,"TOWNNAME":"永康區","LI":"大灣里","LIN":"11鄰","STREET":"大灣路","SECT":" ","MAREA":" ","LANE":"２４０巷","ALLEY":" ","HOUSE_NO":"１號十樓之２","E_COORD97":174967.26999999999,"N_COORD97":2545362.9900000002,"ADDRESS":"大灣路２４０巷１號十樓之２","OBJECTID":403945},"geometry":{"x":174967.26999999955,"y":2545362.9900000002}},{"attributes":{"ID":403970,"DIS_CODE":0,"TOWNNAME":"中西區","LI":"永福里","LIN":"11鄰","STREET":"永福路","SECT":"二段","MAREA":" ","LANE":"１５２巷","ALLEY":" ","HOUSE_NO":"６號一樓","E_COORD97":168186.07000000001,"N_COORD97":2543855.0600000001,"ADDRESS":"永福路二段１５２巷６號一樓","OBJECTID":403946},"geometry":{"x":168186.07000000216,"y":2543855.0600000042}},{"attributes":{"ID":403971,"DIS_CODE":0,"TOWNNAME":"中西區","LI":"永福里","LIN":"11鄰","STREET":"永福路","SECT":"二段","MAREA":" ","LANE":"１５２巷","ALLEY":" ","HOUSE_NO":"６號二樓","E_COORD97":168186.07000000001,"N_COORD97":2543855.0600000001,"ADDRESS":"永福路二段１５２巷６號二樓","OBJECTID":403947},"geometry":{"x":168186.07000000216,"y":2543855.0600000042}},{"attributes":{"ID":403972,"DIS_CODE":0,"TOWNNAME":"中西區","LI":"永福里","LIN":"11鄰","STREET":"永福路","SECT":"二段","MAREA":" ","LANE":"１５２巷","ALLEY":" ","HOUSE_NO":"６號三樓","E_COORD97":168186.07000000001,"N_COORD97":2543855.0600000001,"ADDRESS":"永福路二段１５２巷６號三樓","OBJECTID":403948},"geometry":{"x":168186.07000000216,"y":2543855.0600000042}},{"attributes":{"ID":403973,"DIS_CODE":0,"TOWNNAME":"中西區","LI":"永福里","LIN":"11鄰","STREET":"永福路","SECT":"二段","MAREA":" ","LANE":"１５２巷","ALLEY":" ","HOUSE_NO":"６號五樓","E_COORD97":168186.07000000001,"N_COORD97":2543855.0600000001,"ADDRESS":"永福路二段１５２巷６號五樓","OBJECTID":403949},"geometry":{"x":168186.07000000216,"y":2543855.0600000042}},{"attributes":{"ID":403974,"DIS_CODE":0,"TOWNNAME":"中西區","LI":"永福里","LIN":"11鄰","STREET":"永福路","SECT":"二段","MAREA":" ","LANE":"１５２巷","ALLEY":" ","HOUSE_NO":"６號四樓","E_COORD97":168186.07000000001,"N_COORD97":2543855.0600000001,"ADDRESS":"永福路二段１５２巷６號四樓","OBJECTID":403950},"geometry":{"x":168186.07000000216,"y":2543855.0600000042}},{"attributes":{"ID":403975,"DIS_CODE":0,"TOWNNAME":"中西區","LI":"永福里","LIN":"11鄰","STREET":"永福路","SECT":"二段","MAREA":" ","LANE":"１５２巷","ALLEY":" ","HOUSE_NO":"８號一樓","E_COORD97":168183.76999999999,"N_COORD97":2543846.4399999999,"ADDRESS":"永福路二段１５２巷８號一樓","OBJECTID":403951},"geometry":{"x":168183.76999999862,"y":2543846.4399999995}},{"attributes":{"ID":403976,"DIS_CODE":0,"TOWNNAME":"中西區","LI":"永福里","LIN":"11鄰","STREET":"永福路","SECT":"二段","MAREA":" ","LANE":"１５２巷","ALLEY":" ","HOUSE_NO":"８號二樓","E_COORD97":168183.76999999999,"N_COORD97":2543846.4399999999,"ADDRESS":"永福路二段１５２巷８號二樓","OBJECTID":403952},"geometry":{"x":168183.76999999862,"y":2543846.4399999995}},{"attributes":{"ID":403977,"DIS_CODE":0,"TOWNNAME":"中西區","LI":"永福里","LIN":"11鄰","STREET":"永福路","SECT":"二段","MAREA":" ","LANE":"１５２巷","ALLEY":" ","HOUSE_NO":"８號三樓","E_COORD97":168183.76999999999,"N_COORD97":2543846.4399999999,"ADDRESS":"永福路二段１５２巷８號三樓","OBJECTID":403953},"geometry":{"x":168183.76999999862,"y":2543846.4399999995}},{"attributes":{"ID":403978,"DIS_CODE":0,"TOWNNAME":"中西區","LI":"永福里","LIN":"11鄰","STREET":"永福路","SECT":"二段","MAREA":" ","LANE":"１５２巷","ALLEY":" ","HOUSE_NO":"８號五樓","E_COORD97":168183.76999999999,"N_COORD97":2543846.4399999999,"ADDRESS":"永福路二段１５２巷８號五樓","OBJECTID":403954},"geometry":{"x":168183.76999999862,"y":2543846.4399999995}},{"attributes":{"ID":403979,"DIS_CODE":0,"TOWNNAME":"中西區","LI":"永福里","LIN":"11鄰","STREET":"永福路","SECT":"二段","MAREA":" ","LANE":"１５２巷","ALLEY":" ","HOUSE_NO":"８號四樓","E_COORD97":168183.76999999999,"N_COORD97":2543846.4399999999,"ADDRESS":"永福路二段１５２巷８號四樓","OBJECTID":403955},"geometry":{"x":168183.76999999862,"y":2543846.4399999995}},{"attributes":{"ID":403980,"DIS_CODE":0,"TOWNNAME":"中西區","LI":"福安里","LIN":"11鄰","STREET":"永福路","SECT":"二段","MAREA":" ","LANE":"３５巷","ALLEY":" ","HOUSE_NO":"２４號一樓","E_COORD97":167956.67000000001,"N_COORD97":2543507.21,"ADDRESS":"永福路二段３５巷２４號一樓","OBJECTID":403956},"geometry":{"x":167956.67000000086,"y":2543507.2100000009}},{"attributes":{"ID":403981,"DIS_CODE":0,"TOWNNAME":"中西區","LI":"福安里","LIN":"11鄰","STREET":"永福路","SECT":"二段","MAREA":" ","LANE":"３５巷","ALLEY":" ","HOUSE_NO":"２４號二樓之１","E_COORD97":167960.39000000001,"N_COORD97":2543509.3399999999,"ADDRESS":"永福路二段３５巷２４號二樓之１","OBJECTID":403957},"geometry":{"x":167960.38999999966,"y":2543509.3399999999}},{"attributes":{"ID":403982,"DIS_CODE":0,"TOWNNAME":"中西區","LI":"福安里","LIN":"11鄰","STREET":"永福路","SECT":"二段","MAREA":" ","LANE":"３５巷","ALLEY":" ","HOUSE_NO":"２４號二樓之２","E_COORD97":167960.39000000001,"N_COORD97":2543509.3399999999,"ADDRESS":"永福路二段３５巷２４號二樓之２","OBJECTID":403958},"geometry":{"x":167960.38999999966,"y":2543509.3399999999}},{"attributes":{"ID":403983,"DIS_CODE":0,"TOWNNAME":"中西區","LI":"福安里","LIN":"11鄰","STREET":"永福路","SECT":"二段","MAREA":" ","LANE":"３５巷","ALLEY":" ","HOUSE_NO":"２４號三樓之１","E_COORD97":167960.39000000001,"N_COORD97":2543509.3399999999,"ADDRESS":"永福路二段３５巷２４號三樓之１","OBJECTID":403959},"geometry":{"x":167960.38999999966,"y":2543509.3399999999}},{"attributes":{"ID":403984,"DIS_CODE":0,"TOWNNAME":"中西區","LI":"福安里","LIN":"11鄰","STREET":"永福路","SECT":"二段","MAREA":" ","LANE":"３５巷","ALLEY":" ","HOUSE_NO":"２４號三樓之２","E_COORD97":167960.39000000001,"N_COORD97":2543509.3399999999,"ADDRESS":"永福路二段３５巷２４號三樓之２","OBJECTID":403960},"geometry":{"x":167960.38999999966,"y":2543509.3399999999}},{"attributes":{"ID":403985,"DIS_CODE":0,"TOWNNAME":"中西區","LI":"福安里","LIN":"11鄰","STREET":"永福路","SECT":"二段","MAREA":" ","LANE":"３５巷","ALLEY":" ","HOUSE_NO":"２４號四樓之１","E_COORD97":167960.39000000001,"N_COORD97":2543509.3399999999,"ADDRESS":"永福路二段３５巷２４號四樓之１","OBJECTID":403961},"geometry":{"x":167960.38999999966,"y":2543509.3399999999}},{"attributes":{"ID":403986,"DIS_CODE":0,"TOWNNAME":"中西區","LI":"福安里","LIN":"11鄰","STREET":"永福路","SECT":"二段","MAREA":" ","LANE":"３５巷","ALLEY":" ","HOUSE_NO":"２４號四樓之２","E_COORD97":167960.39000000001,"N_COORD97":2543509.3399999999,"ADDRESS":"永福路二段３５巷２４號四樓之２","OBJECTID":403962},"geometry":{"x":167960.38999999966,"y":2543509.3399999999}},{"attributes":{"ID":403987,"DIS_CODE":0,"TOWNNAME":"永康區","LI":"神洲里","LIN":"11鄰","STREET":"忠孝路","SECT":" ","MAREA":" ","LANE":"１５２巷","ALLEY":" ","HOUSE_NO":"４０號二樓","E_COORD97":172263.01999999999,"N_COORD97":2545070.9100000001,"ADDRESS":"忠孝路１５２巷４０號二樓","OBJECTID":403963},"geometry":{"x":172263.02000000048,"y":2545070.910000002}},{"attributes":{"ID":403988,"DIS_CODE":0,"TOWNNAME":"東區","LI":"東光里","LIN":"11鄰","STREET":"怡東路","SECT":" ","MAREA":" ","LANE":"１５０巷","ALLEY":" ","HOUSE_NO":"１３號二樓","E_COORD97":170957.17000000001,"N_COORD97":2543964.5899999999,"ADDRESS":"怡東路１５０巷１３號二樓","OBJECTID":403964},"geometry":{"x":170957.17000000086,"y":2543964.5899999999}},{"attributes":{"ID":403989,"DIS_CODE":0,"TOWNNAME":"東區","LI":"東光里","LIN":"11鄰","STREET":"怡東路","SECT":" ","MAREA":" ","LANE":"１５０巷","ALLEY":" ","HOUSE_NO":"１３號三樓","E_COORD97":170957.17000000001,"N_COORD97":2543964.5899999999,"ADDRESS":"怡東路１５０巷１３號三樓","OBJECTID":403965},"geometry":{"x":170957.17000000086,"y":2543964.5899999999}},{"attributes":{"ID":403990,"DIS_CODE":0,"TOWNNAME":"東區","LI":"東光里","LIN":"11鄰","STREET":"怡東路","SECT":" ","MAREA":" ","LANE":"１５０巷","ALLEY":" ","HOUSE_NO":"１３號四樓","E_COORD97":170957.17000000001,"N_COORD97":2543964.5899999999,"ADDRESS":"怡東路１５０巷１３號四樓","OBJECTID":403966},"geometry":{"x":170957.17000000086,"y":2543964.5899999999}},{"attributes":{"ID":403991,"DIS_CODE":0,"TOWNNAME":"東區","LI":"東光里","LIN":"11鄰","STREET":"怡東路","SECT":" ","MAREA":" ","LANE":"１５０巷","ALLEY":" ","HOUSE_NO":"１３號五樓","E_COORD97":170957.17000000001,"N_COORD97":2543964.5899999999,"ADDRESS":"怡東路１５０巷１３號五樓","OBJECTID":403967},"geometry":{"x":170957.17000000086,"y":2543964.5899999999}},{"attributes":{"ID":403992,"DIS_CODE":0,"TOWNNAME":"東區","LI":"東光里","LIN":"11鄰","STREET":"怡東路","SECT":" ","MAREA":" ","LANE":"１５０巷","ALLEY":" ","HOUSE_NO":"１３號六樓","E_COORD97":170957.17000000001,"N_COORD97":2543964.5899999999,"ADDRESS":"怡東路１５０巷１３號六樓","OBJECTID":403968},"geometry":{"x":170957.17000000086,"y":2543964.5899999999}},{"attributes":{"ID":403993,"DIS_CODE":0,"TOWNNAME":"東區","LI":"東光里","LIN":"11鄰","STREET":"怡東路","SECT":" ","MAREA":" ","LANE":"１５０巷","ALLEY":" ","HOUSE_NO":"１３號七樓","E_COORD97":170957.17000000001,"N_COORD97":2543964.5899999999,"ADDRESS":"怡東路１５０巷１３號七樓","OBJECTID":403969},"geometry":{"x":170957.17000000086,"y":2543964.5899999999}},{"attributes":{"ID":403994,"DIS_CODE":0,"TOWNNAME":"東區","LI":"東光里","LIN":"11鄰","STREET":"怡東路","SECT":" ","MAREA":" ","LANE":"１５０巷","ALLEY":" ","HOUSE_NO":"１３號八樓","E_COORD97":170957.17000000001,"N_COORD97":2543964.5899999999,"ADDRESS":"怡東路１５０巷１３號八樓","OBJECTID":403970},"geometry":{"x":170957.17000000086,"y":2543964.5899999999}},{"attributes":{"ID":403995,"DIS_CODE":0,"TOWNNAME":"東區","LI":"東光里","LIN":"11鄰","STREET":"怡東路","SECT":" ","MAREA":" ","LANE":"１５０巷","ALLEY":" ","HOUSE_NO":"１３號九樓","E_COORD97":170957.17000000001,"N_COORD97":2543964.5899999999,"ADDRESS":"怡東路１５０巷１３號九樓","OBJECTID":403971},"geometry":{"x":170957.17000000086,"y":2543964.5899999999}},{"attributes":{"ID":403996,"DIS_CODE":0,"TOWNNAME":"東區","LI":"東光里","LIN":"11鄰","STREET":"怡東路","SECT":" ","MAREA":" ","LANE":"１５０巷","ALLEY":" ","HOUSE_NO":"１３號十樓","E_COORD97":170957.17000000001,"N_COORD97":2543964.5899999999,"ADDRESS":"怡東路１５０巷１３號十樓","OBJECTID":403972},"geometry":{"x":170957.17000000086,"y":2543964.5899999999}},{"attributes":{"ID":403997,"DIS_CODE":0,"TOWNNAME":"東區","LI":"東光里","LIN":"11鄰","STREET":"怡東路","SECT":" ","MAREA":" ","LANE":"１５０巷","ALLEY":" ","HOUSE_NO":"１３號十一樓","E_COORD97":170957.17000000001,"N_COORD97":2543964.5899999999,"ADDRESS":"怡東路１５０巷１３號十一樓","OBJECTID":403973},"geometry":{"x":170957.17000000086,"y":2543964.5899999999}},{"attributes":{"ID":403998,"DIS_CODE":0,"TOWNNAME":"東區","LI":"東光里","LIN":"11鄰","STREET":"怡東路","SECT":" ","MAREA":" ","LANE":"１５０巷","ALLEY":" ","HOUSE_NO":"１３號十二樓","E_COORD97":170957.17000000001,"N_COORD97":2543964.5899999999,"ADDRESS":"怡東路１５０巷１３號十二樓","OBJECTID":403974},"geometry":{"x":170957.17000000086,"y":2543964.5899999999}},{"attributes":{"ID":403999,"DIS_CODE":0,"TOWNNAME":"東區","LI":"東光里","LIN":"11鄰","STREET":"怡東路","SECT":" ","MAREA":" ","LANE":"１５０巷","ALLEY":" ","HOUSE_NO":"１５號二樓","E_COORD97":170954.23000000001,"N_COORD97":2543954.6099999999,"ADDRESS":"怡東路１５０巷１５號二樓","OBJECTID":403975},"geometry":{"x":170954.23000000045,"y":2543954.6099999994}},{"attributes":{"ID":404000,"DIS_CODE":0,"TOWNNAME":"東區","LI":"東光里","LIN":"11鄰","STREET":"怡東路","SECT":" ","MAREA":" ","LANE":"１５０巷","ALLEY":" ","HOUSE_NO":"１５號三樓","E_COORD97":170954.23000000001,"N_COORD97":2543954.6099999999,"ADDRESS":"怡東路１５０巷１５號三樓","OBJECTID":403976},"geometry":{"x":170954.23000000045,"y":2543954.6099999994}},{"attributes":{"ID":404001,"DIS_CODE":0,"TOWNNAME":"東區","LI":"東光里","LIN":"11鄰","STREET":"怡東路","SECT":" ","MAREA":" ","LANE":"１５０巷","ALLEY":" ","HOUSE_NO":"１５號四樓","E_COORD97":170954.23000000001,"N_COORD97":2543954.6099999999,"ADDRESS":"怡東路１５０巷１５號四樓","OBJECTID":403977},"geometry":{"x":170954.23000000045,"y":2543954.6099999994}},{"attributes":{"ID":404002,"DIS_CODE":0,"TOWNNAME":"東區","LI":"東光里","LIN":"11鄰","STREET":"怡東路","SECT":" ","MAREA":" ","LANE":"１５０巷","ALLEY":" ","HOUSE_NO":"１５號五樓","E_COORD97":170954.23000000001,"N_COORD97":2543954.6099999999,"ADDRESS":"怡東路１５０巷１５號五樓","OBJECTID":403978},"geometry":{"x":170954.23000000045,"y":2543954.6099999994}},{"attributes":{"ID":404003,"DIS_CODE":0,"TOWNNAME":"東區","LI":"東光里","LIN":"11鄰","STREET":"怡東路","SECT":" ","MAREA":" ","LANE":"１５０巷","ALLEY":" ","HOUSE_NO":"１５號六樓","E_COORD97":170954.23000000001,"N_COORD97":2543954.6099999999,"ADDRESS":"怡東路１５０巷１５號六樓","OBJECTID":403979},"geometry":{"x":170954.23000000045,"y":2543954.6099999994}},{"attributes":{"ID":404004,"DIS_CODE":0,"TOWNNAME":"東區","LI":"東光里","LIN":"11鄰","STREET":"怡東路","SECT":" ","MAREA":" ","LANE":"１５０巷","ALLEY":" ","HOUSE_NO":"１５號七樓","E_COORD97":170954.23000000001,"N_COORD97":2543954.6099999999,"ADDRESS":"怡東路１５０巷１５號七樓","OBJECTID":403980},"geometry":{"x":170954.23000000045,"y":2543954.6099999994}},{"attributes":{"ID":404005,"DIS_CODE":0,"TOWNNAME":"東區","LI":"東光里","LIN":"11鄰","STREET":"怡東路","SECT":" ","MAREA":" ","LANE":"１５０巷","ALLEY":" ","HOUSE_NO":"１５號八樓","E_COORD97":170954.23000000001,"N_COORD97":2543954.6099999999,"ADDRESS":"怡東路１５０巷１５號八樓","OBJECTID":403981},"geometry":{"x":170954.23000000045,"y":2543954.6099999994}},{"attributes":{"ID":404006,"DIS_CODE":0,"TOWNNAME":"東區","LI":"東光里","LIN":"11鄰","STREET":"怡東路","SECT":" ","MAREA":" ","LANE":"１５０巷","ALLEY":" ","HOUSE_NO":"１５號九樓","E_COORD97":170954.23000000001,"N_COORD97":2543954.6099999999,"ADDRESS":"怡東路１５０巷１５號九樓","OBJECTID":403982},"geometry":{"x":170954.23000000045,"y":2543954.6099999994}},{"attributes":{"ID":404007,"DIS_CODE":0,"TOWNNAME":"東區","LI":"東光里","LIN":"11鄰","STREET":"怡東路","SECT":" ","MAREA":" ","LANE":"１５０巷","ALLEY":" ","HOUSE_NO":"１５號十樓","E_COORD97":170954.23000000001,"N_COORD97":2543954.6099999999,"ADDRESS":"怡東路１５０巷１５號十樓","OBJECTID":403983},"geometry":{"x":170954.23000000045,"y":2543954.6099999994}},{"attributes":{"ID":404008,"DIS_CODE":0,"TOWNNAME":"東區","LI":"東光里","LIN":"11鄰","STREET":"怡東路","SECT":" ","MAREA":" ","LANE":"１５０巷","ALLEY":" ","HOUSE_NO":"１５號十一樓","E_COORD97":170954.23000000001,"N_COORD97":2543954.6099999999,"ADDRESS":"怡東路１５０巷１５號十一樓","OBJECTID":403984},"geometry":{"x":170954.23000000045,"y":2543954.6099999994}},{"attributes":{"ID":404009,"DIS_CODE":0,"TOWNNAME":"東區","LI":"東光里","LIN":"11鄰","STREET":"怡東路","SECT":" ","MAREA":" ","LANE":"１５０巷","ALLEY":" ","HOUSE_NO":"１５號十二樓","E_COORD97":170954.23000000001,"N_COORD97":2543954.6099999999,"ADDRESS":"怡東路１５０巷１５號十二樓","OBJECTID":403985},"geometry":{"x":170954.23000000045,"y":2543954.6099999994}},{"attributes":{"ID":404010,"DIS_CODE":0,"TOWNNAME":"東區","LI":"東光里","LIN":"11鄰","STREET":"怡東路","SECT":" ","MAREA":" ","LANE":"１５０巷","ALLEY":" ","HOUSE_NO":"１７號二樓","E_COORD97":170953.35000000001,"N_COORD97":2543943.4500000002,"ADDRESS":"怡東路１５０巷１７號二樓","OBJECTID":403986},"geometry":{"x":170953.35000000149,"y":2543943.4500000011}},{"attributes":{"ID":404011,"DIS_CODE":0,"TOWNNAME":"東區","LI":"東光里","LIN":"11鄰","STREET":"怡東路","SECT":" ","MAREA":" ","LANE":"１５０巷","ALLEY":" ","HOUSE_NO":"１７號三樓","E_COORD97":170953.35000000001,"N_COORD97":2543943.4500000002,"ADDRESS":"怡東路１５０巷１７號三樓","OBJECTID":403987},"geometry":{"x":170953.35000000149,"y":2543943.4500000011}},{"attributes":{"ID":404012,"DIS_CODE":0,"TOWNNAME":"東區","LI":"東光里","LIN":"11鄰","STREET":"怡東路","SECT":" ","MAREA":" ","LANE":"１５０巷","ALLEY":" ","HOUSE_NO":"１７號四樓","E_COORD97":170953.35000000001,"N_COORD97":2543943.4500000002,"ADDRESS":"怡東路１５０巷１７號四樓","OBJECTID":403988},"geometry":{"x":170953.35000000149,"y":2543943.4500000011}},{"attributes":{"ID":404013,"DIS_CODE":0,"TOWNNAME":"東區","LI":"東光里","LIN":"11鄰","STREET":"怡東路","SECT":" ","MAREA":" ","LANE":"１５０巷","ALLEY":" ","HOUSE_NO":"１７號五樓","E_COORD97":170953.35000000001,"N_COORD97":2543943.4500000002,"ADDRESS":"怡東路１５０巷１７號五樓","OBJECTID":403989},"geometry":{"x":170953.35000000149,"y":2543943.4500000011}},{"attributes":{"ID":404014,"DIS_CODE":0,"TOWNNAME":"東區","LI":"東光里","LIN":"11鄰","STREET":"怡東路","SECT":" ","MAREA":" ","LANE":"１５０巷","ALLEY":" ","HOUSE_NO":"１７號六樓","E_COORD97":170953.35000000001,"N_COORD97":2543943.4500000002,"ADDRESS":"怡東路１５０巷１７號六樓","OBJECTID":403990},"geometry":{"x":170953.35000000149,"y":2543943.4500000011}},{"attributes":{"ID":404015,"DIS_CODE":0,"TOWNNAME":"東區","LI":"東光里","LIN":"11鄰","STREET":"怡東路","SECT":" ","MAREA":" ","LANE":"１５０巷","ALLEY":" ","HOUSE_NO":"１７號七樓","E_COORD97":170953.35000000001,"N_COORD97":2543943.4500000002,"ADDRESS":"怡東路１５０巷１７號七樓","OBJECTID":403991},"geometry":{"x":170953.35000000149,"y":2543943.4500000011}},{"attributes":{"ID":404016,"DIS_CODE":0,"TOWNNAME":"東區","LI":"東光里","LIN":"11鄰","STREET":"怡東路","SECT":" ","MAREA":" ","LANE":"１５０巷","ALLEY":" ","HOUSE_NO":"１７號八樓","E_COORD97":170953.35000000001,"N_COORD97":2543943.4500000002,"ADDRESS":"怡東路１５０巷１７號八樓","OBJECTID":403992},"geometry":{"x":170953.35000000149,"y":2543943.4500000011}},{"attributes":{"ID":404017,"DIS_CODE":0,"TOWNNAME":"東區","LI":"東光里","LIN":"11鄰","STREET":"怡東路","SECT":" ","MAREA":" ","LANE":"１５０巷","ALLEY":" ","HOUSE_NO":"１７號九樓","E_COORD97":170953.35000000001,"N_COORD97":2543943.4500000002,"ADDRESS":"怡東路１５０巷１７號九樓","OBJECTID":403993},"geometry":{"x":170953.35000000149,"y":2543943.4500000011}},{"attributes":{"ID":404018,"DIS_CODE":0,"TOWNNAME":"東區","LI":"東光里","LIN":"11鄰","STREET":"怡東路","SECT":" ","MAREA":" ","LANE":"１５０巷","ALLEY":" ","HOUSE_NO":"１７號十樓","E_COORD97":170953.35000000001,"N_COORD97":2543943.4500000002,"ADDRESS":"怡東路１５０巷１７號十樓","OBJECTID":403994},"geometry":{"x":170953.35000000149,"y":2543943.4500000011}},{"attributes":{"ID":404019,"DIS_CODE":0,"TOWNNAME":"東區","LI":"東光里","LIN":"11鄰","STREET":"怡東路","SECT":" ","MAREA":" ","LANE":"１５０巷","ALLEY":" ","HOUSE_NO":"１７號十一樓","E_COORD97":170953.35000000001,"N_COORD97":2543943.4500000002,"ADDRESS":"怡東路１５０巷１７號十一樓","OBJECTID":403995},"geometry":{"x":170953.35000000149,"y":2543943.4500000011}},{"attributes":{"ID":404020,"DIS_CODE":0,"TOWNNAME":"東區","LI":"東光里","LIN":"11鄰","STREET":"怡東路","SECT":" ","MAREA":" ","LANE":"１５０巷","ALLEY":" ","HOUSE_NO":"１７號十二樓","E_COORD97":170953.35000000001,"N_COORD97":2543943.4500000002,"ADDRESS":"怡東路１５０巷１７號十二樓","OBJECTID":403996},"geometry":{"x":170953.35000000149,"y":2543943.4500000011}},{"attributes":{"ID":404021,"DIS_CODE":0,"TOWNNAME":"東區","LI":"東光里","LIN":"11鄰","STREET":"怡東路","SECT":" ","MAREA":" ","LANE":"１５０巷","ALLEY":" ","HOUSE_NO":"１９號二樓","E_COORD97":170967.45999999999,"N_COORD97":2543941.1000000001,"ADDRESS":"怡東路１５０巷１９號二樓","OBJECTID":403997},"geometry":{"x":170967.45999999996,"y":2543941.0999999996}},{"attributes":{"ID":404022,"DIS_CODE":0,"TOWNNAME":"東區","LI":"東光里","LIN":"11鄰","STREET":"怡東路","SECT":" ","MAREA":" ","LANE":"１５０巷","ALLEY":" ","HOUSE_NO":"１９號三樓","E_COORD97":170967.45999999999,"N_COORD97":2543941.1000000001,"ADDRESS":"怡東路１５０巷１９號三樓","OBJECTID":403998},"geometry":{"x":170967.45999999996,"y":2543941.0999999996}},{"attributes":{"ID":404023,"DIS_CODE":0,"TOWNNAME":"東區","LI":"東光里","LIN":"11鄰","STREET":"怡東路","SECT":" ","MAREA":" ","LANE":"１５０巷","ALLEY":" ","HOUSE_NO":"１９號四樓","E_COORD97":170967.45999999999,"N_COORD97":2543941.1000000001,"ADDRESS":"怡東路１５０巷１９號四樓","OBJECTID":403999},"geometry":{"x":170967.45999999996,"y":2543941.0999999996}},{"attributes":{"ID":404024,"DIS_CODE":0,"TOWNNAME":"東區","LI":"東光里","LIN":"11鄰","STREET":"怡東路","SECT":" ","MAREA":" ","LANE":"１５０巷","ALLEY":" ","HOUSE_NO":"１９號五樓","E_COORD97":170967.45999999999,"N_COORD97":2543941.1000000001,"ADDRESS":"怡東路１５０巷１９號五樓","OBJECTID":404000},"geometry":{"x":170967.45999999996,"y":2543941.0999999996}}]}