{"displayFieldName":"TOWNNAME","fieldAliases":{"ID":"ID","DIS_CODE":"DIS_CODE","TOWNNAME":"TOWNNAME","LI":"LI","LIN":"LIN","STREET":"STREET","SECT":"SECT","MAREA":"MAREA","LANE":"LANE","ALLEY":"ALLEY","HOUSE_NO":"HOUSE_NO","E_COORD97":"E_COORD97","N_COORD97":"N_COORD97","ADDRESS":"ADDRESS","OBJECTID":"OBJECTID"},"geometryType":"esriGeometryPoint","spatialReference":{"wkid":102443,"latestWkid":3826},"fields":[{"name":"ID","type":"esriFieldTypeDouble","alias":"ID"},{"name":"DIS_CODE","type":"esriFieldTypeInteger","alias":"DIS_CODE"},{"name":"TOWNNAME","type":"esriFieldTypeString","alias":"TOWNNAME","length":8},{"name":"LI","type":"esriFieldTypeString","alias":"LI","length":8},{"name":"LIN","type":"esriFieldTypeString","alias":"LIN","length":12},{"name":"STREET","type":"esriFieldTypeString","alias":"STREET","length":20},{"name":"SECT","type":"esriFieldTypeString","alias":"SECT","length":8},{"name":"MAREA","type":"esriFieldTypeString","alias":"MAREA","length":12},{"name":"LANE","type":"esriFieldTypeString","alias":"LANE","length":10},{"name":"ALLEY","type":"esriFieldTypeString","alias":"ALLEY","length":10},{"name":"HOUSE_NO","type":"esriFieldTypeString","alias":"HOUSE_NO","length":20},{"name":"E_COORD97","type":"esriFieldTypeDouble","alias":"E_COORD97"},{"name":"N_COORD97","type":"esriFieldTypeDouble","alias":"N_COORD97"},{"name":"ADDRESS","type":"esriFieldTypeString","alias":"ADDRESS","length":50},{"name":"OBJECTID","type":"esriFieldTypeOID","alias":"OBJECTID"}],"features":[{"attributes":{"ID":357210,"DIS_CODE":0,"TOWNNAME":"安南區","LI":"新順里","LIN":"25鄰","STREET":"興安路","SECT":" ","MAREA":" ","LANE":" ","ALLEY":" ","HOUSE_NO":"９０號","E_COORD97":169436.51000000001,"N_COORD97":2549117.8700000001,"ADDRESS":"興安路９０號","OBJECTID":357201},"geometry":{"x":169436.50999999978,"y":2549117.870000001}},{"attributes":{"ID":357211,"DIS_CODE":0,"TOWNNAME":"安南區","LI":"新順里","LIN":"25鄰","STREET":"興安路","SECT":" ","MAREA":" ","LANE":" ","ALLEY":" ","HOUSE_NO":"９２號","E_COORD97":169431.19,"N_COORD97":2549117.3399999999,"ADDRESS":"興安路９２號","OBJECTID":357202},"geometry":{"x":169431.18999999948,"y":2549117.339999998}},{"attributes":{"ID":357212,"DIS_CODE":0,"TOWNNAME":"安南區","LI":"新順里","LIN":"25鄰","STREET":"興安路","SECT":" ","MAREA":" ","LANE":" ","ALLEY":" ","HOUSE_NO":"９６號","E_COORD97":169427.47,"N_COORD97":2549118.6699999999,"ADDRESS":"興安路９６號","OBJECTID":357203},"geometry":{"x":169427.47000000067,"y":2549118.6700000037}},{"attributes":{"ID":357213,"DIS_CODE":0,"TOWNNAME":"安南區","LI":"新順里","LIN":"25鄰","STREET":"慶安路","SECT":" ","MAREA":" ","LANE":" ","ALLEY":" ","HOUSE_NO":"５７號","E_COORD97":169469.20999999999,"N_COORD97":2549129.29,"ADDRESS":"慶安路５７號","OBJECTID":357204},"geometry":{"x":169469.20999999996,"y":2549129.2899999991}},{"attributes":{"ID":357214,"DIS_CODE":0,"TOWNNAME":"安南區","LI":"新順里","LIN":"25鄰","STREET":"慶安路","SECT":" ","MAREA":" ","LANE":" ","ALLEY":" ","HOUSE_NO":"５９號","E_COORD97":169470.53,"N_COORD97":2549132.7400000002,"ADDRESS":"慶安路５９號","OBJECTID":357205},"geometry":{"x":169470.53000000026,"y":2549132.7400000021}},{"attributes":{"ID":357215,"DIS_CODE":0,"TOWNNAME":"東山區","LI":"東山里","LIN":"26鄰","STREET":" ","SECT":" ","MAREA":"東山","LANE":" ","ALLEY":" ","HOUSE_NO":"４４５號","E_COORD97":188760.32000000001,"N_COORD97":2580323.1800000002,"ADDRESS":"東山４４５號","OBJECTID":357206},"geometry":{"x":188760.3200000003,"y":2580323.1799999997}},{"attributes":{"ID":357216,"DIS_CODE":0,"TOWNNAME":"東山區","LI":"東山里","LIN":"26鄰","STREET":" ","SECT":" ","MAREA":"東山","LANE":" ","ALLEY":" ","HOUSE_NO":"４４７號","E_COORD97":188749.48000000001,"N_COORD97":2580324.5699999998,"ADDRESS":"東山４４７號","OBJECTID":357207},"geometry":{"x":188749.48000000231,"y":2580324.5700000003}},{"attributes":{"ID":357217,"DIS_CODE":0,"TOWNNAME":"東山區","LI":"東山里","LIN":"26鄰","STREET":" ","SECT":" ","MAREA":"東山","LANE":" ","ALLEY":" ","HOUSE_NO":"４４８號","E_COORD97":188745.04000000001,"N_COORD97":2580324.3700000001,"ADDRESS":"東山４４８號","OBJECTID":357208},"geometry":{"x":188745.04000000004,"y":2580324.3700000029}},{"attributes":{"ID":357218,"DIS_CODE":0,"TOWNNAME":"東山區","LI":"東山里","LIN":"26鄰","STREET":" ","SECT":" ","MAREA":"東山","LANE":" ","ALLEY":" ","HOUSE_NO":"４４９號","E_COORD97":188740.04999999999,"N_COORD97":2580324.48,"ADDRESS":"東山４４９號","OBJECTID":357209},"geometry":{"x":188740.05000000075,"y":2580324.4800000004}},{"attributes":{"ID":357219,"DIS_CODE":0,"TOWNNAME":"東山區","LI":"東山里","LIN":"26鄰","STREET":" ","SECT":" ","MAREA":"東山","LANE":" ","ALLEY":" ","HOUSE_NO":"４５０號","E_COORD97":188734.91,"N_COORD97":2580325.0699999998,"ADDRESS":"東山４５０號","OBJECTID":357210},"geometry":{"x":188734.91000000108,"y":2580325.070000004}},{"attributes":{"ID":357220,"DIS_CODE":0,"TOWNNAME":"東山區","LI":"東山里","LIN":"26鄰","STREET":" ","SECT":" ","MAREA":"東山","LANE":" ","ALLEY":" ","HOUSE_NO":"４５１號","E_COORD97":188729.76999999999,"N_COORD97":2580325.6600000001,"ADDRESS":"東山４５１號","OBJECTID":357211},"geometry":{"x":188729.77000000048,"y":2580325.660000002}},{"attributes":{"ID":357221,"DIS_CODE":0,"TOWNNAME":"東山區","LI":"東山里","LIN":"26鄰","STREET":" ","SECT":" ","MAREA":"東山","LANE":" ","ALLEY":" ","HOUSE_NO":"４５２號","E_COORD97":188724.63,"N_COORD97":2580326.2400000002,"ADDRESS":"東山４５２號","OBJECTID":357212},"geometry":{"x":188724.63000000082,"y":2580326.2400000002}},{"attributes":{"ID":357222,"DIS_CODE":0,"TOWNNAME":"東山區","LI":"東山里","LIN":"26鄰","STREET":" ","SECT":" ","MAREA":"東山","LANE":" ","ALLEY":" ","HOUSE_NO":"４５３號","E_COORD97":188719.48999999999,"N_COORD97":2580326.8500000001,"ADDRESS":"東山４５３號","OBJECTID":357213},"geometry":{"x":188719.49000000022,"y":2580326.8500000015}},{"attributes":{"ID":357223,"DIS_CODE":0,"TOWNNAME":"東山區","LI":"東山里","LIN":"26鄰","STREET":" ","SECT":" ","MAREA":"東山","LANE":" ","ALLEY":" ","HOUSE_NO":"４５４號","E_COORD97":188699.76999999999,"N_COORD97":2580320.1400000001,"ADDRESS":"東山４５４號","OBJECTID":357214},"geometry":{"x":188699.77000000048,"y":2580320.1400000006}},{"attributes":{"ID":357224,"DIS_CODE":0,"TOWNNAME":"東山區","LI":"東山里","LIN":"26鄰","STREET":" ","SECT":" ","MAREA":"東山","LANE":" ","ALLEY":" ","HOUSE_NO":"４５５號","E_COORD97":188699.48000000001,"N_COORD97":2580324.4100000001,"ADDRESS":"東山４５５號","OBJECTID":357215},"geometry":{"x":188699.48000000045,"y":2580324.4100000001}},{"attributes":{"ID":357225,"DIS_CODE":0,"TOWNNAME":"東山區","LI":"東山里","LIN":"26鄰","STREET":" ","SECT":" ","MAREA":"東山","LANE":" ","ALLEY":" ","HOUSE_NO":"４５６號","E_COORD97":188699.19,"N_COORD97":2580328.6800000002,"ADDRESS":"東山４５６號","OBJECTID":357216},"geometry":{"x":188699.19000000134,"y":2580328.6799999997}},{"attributes":{"ID":357226,"DIS_CODE":0,"TOWNNAME":"東區","LI":"後甲里","LIN":"30鄰","STREET":"建東街","SECT":" ","MAREA":" ","LANE":"５４巷","ALLEY":" ","HOUSE_NO":"３１號七樓","E_COORD97":171850.67000000001,"N_COORD97":2543484.2999999998,"ADDRESS":"建東街５４巷３１號七樓","OBJECTID":357217},"geometry":{"x":171850.67000000086,"y":2543484.3000000026}},{"attributes":{"ID":357227,"DIS_CODE":0,"TOWNNAME":"東區","LI":"東光里","LIN":"30鄰","STREET":"東平路","SECT":" ","MAREA":" ","LANE":"９巷","ALLEY":" ","HOUSE_NO":"１號七樓","E_COORD97":171446.56,"N_COORD97":2543888.1699999999,"ADDRESS":"東平路９巷１號七樓","OBJECTID":357218},"geometry":{"x":171446.55999999959,"y":2543888.1700000018}},{"attributes":{"ID":357228,"DIS_CODE":0,"TOWNNAME":"東區","LI":"東光里","LIN":"30鄰","STREET":"東平路","SECT":" ","MAREA":" ","LANE":"９巷","ALLEY":" ","HOUSE_NO":"１號七樓之１","E_COORD97":171446.56,"N_COORD97":2543888.1699999999,"ADDRESS":"東平路９巷１號七樓之１","OBJECTID":357219},"geometry":{"x":171446.55999999959,"y":2543888.1700000018}},{"attributes":{"ID":357229,"DIS_CODE":0,"TOWNNAME":"東區","LI":"東光里","LIN":"30鄰","STREET":"東平路","SECT":" ","MAREA":" ","LANE":"９巷","ALLEY":" ","HOUSE_NO":"１號七樓之２","E_COORD97":171446.56,"N_COORD97":2543888.1699999999,"ADDRESS":"東平路９巷１號七樓之２","OBJECTID":357220},"geometry":{"x":171446.55999999959,"y":2543888.1700000018}},{"attributes":{"ID":357230,"DIS_CODE":0,"TOWNNAME":"東區","LI":"東光里","LIN":"30鄰","STREET":"東平路","SECT":" ","MAREA":" ","LANE":"９巷","ALLEY":" ","HOUSE_NO":"１號七樓之３","E_COORD97":171446.56,"N_COORD97":2543888.1699999999,"ADDRESS":"東平路９巷１號七樓之３","OBJECTID":357221},"geometry":{"x":171446.55999999959,"y":2543888.1700000018}},{"attributes":{"ID":357231,"DIS_CODE":0,"TOWNNAME":"東山區","LI":"東山里","LIN":"26鄰","STREET":" ","SECT":" ","MAREA":"東山","LANE":" ","ALLEY":" ","HOUSE_NO":"４５７號","E_COORD97":188698.89999999999,"N_COORD97":2580332.9500000002,"ADDRESS":"東山４５７號","OBJECTID":357222},"geometry":{"x":188698.90000000037,"y":2580332.9500000011}},{"attributes":{"ID":357232,"DIS_CODE":0,"TOWNNAME":"東山區","LI":"東山里","LIN":"26鄰","STREET":" ","SECT":" ","MAREA":"東山","LANE":" ","ALLEY":" ","HOUSE_NO":"４６０號","E_COORD97":188680.92999999999,"N_COORD97":2580336.5699999998,"ADDRESS":"東山４６０號","OBJECTID":357223},"geometry":{"x":188680.9299999997,"y":2580336.5700000022}},{"attributes":{"ID":357233,"DIS_CODE":0,"TOWNNAME":"東區","LI":"東光里","LIN":"30鄰","STREET":"東平路","SECT":" ","MAREA":" ","LANE":"９巷","ALLEY":" ","HOUSE_NO":"１號七樓之４","E_COORD97":171446.56,"N_COORD97":2543888.1699999999,"ADDRESS":"東平路９巷１號七樓之４","OBJECTID":357224},"geometry":{"x":171446.55999999959,"y":2543888.1700000018}},{"attributes":{"ID":357234,"DIS_CODE":0,"TOWNNAME":"東區","LI":"東光里","LIN":"30鄰","STREET":"東平路","SECT":" ","MAREA":" ","LANE":"９巷","ALLEY":" ","HOUSE_NO":"１號五樓","E_COORD97":171446.56,"N_COORD97":2543888.1699999999,"ADDRESS":"東平路９巷１號五樓","OBJECTID":357225},"geometry":{"x":171446.55999999959,"y":2543888.1700000018}},{"attributes":{"ID":357235,"DIS_CODE":0,"TOWNNAME":"東區","LI":"東光里","LIN":"30鄰","STREET":"東平路","SECT":" ","MAREA":" ","LANE":"９巷","ALLEY":" ","HOUSE_NO":"１號五樓之１","E_COORD97":171446.56,"N_COORD97":2543888.1699999999,"ADDRESS":"東平路９巷１號五樓之１","OBJECTID":357226},"geometry":{"x":171446.55999999959,"y":2543888.1700000018}},{"attributes":{"ID":357236,"DIS_CODE":0,"TOWNNAME":"東山區","LI":"東山里","LIN":"26鄰","STREET":" ","SECT":" ","MAREA":"東山","LANE":" ","ALLEY":" ","HOUSE_NO":"４６１號","E_COORD97":188681.26000000001,"N_COORD97":2580331.8399999999,"ADDRESS":"東山４６１號","OBJECTID":357227},"geometry":{"x":188681.26000000071,"y":2580331.8399999999}},{"attributes":{"ID":357237,"DIS_CODE":0,"TOWNNAME":"東山區","LI":"東山里","LIN":"26鄰","STREET":" ","SECT":" ","MAREA":"東山","LANE":" ","ALLEY":" ","HOUSE_NO":"４６２號","E_COORD97":188681.59,"N_COORD97":2580327.1099999999,"ADDRESS":"東山４６２號","OBJECTID":357228},"geometry":{"x":188681.58999999985,"y":2580327.1100000031}},{"attributes":{"ID":357238,"DIS_CODE":0,"TOWNNAME":"東山區","LI":"東山里","LIN":"26鄰","STREET":" ","SECT":" ","MAREA":"東山","LANE":" ","ALLEY":" ","HOUSE_NO":"４６３號","E_COORD97":188681.91,"N_COORD97":2580322.3700000001,"ADDRESS":"東山４６３號","OBJECTID":357229},"geometry":{"x":188681.91000000201,"y":2580322.370000001}},{"attributes":{"ID":357239,"DIS_CODE":0,"TOWNNAME":"東山區","LI":"東山里","LIN":"26鄰","STREET":" ","SECT":" ","MAREA":"東山","LANE":" ","ALLEY":" ","HOUSE_NO":"４６４號","E_COORD97":188682.23999999999,"N_COORD97":2580317.6400000001,"ADDRESS":"東山４６４號","OBJECTID":357230},"geometry":{"x":188682.24000000022,"y":2580317.6400000006}},{"attributes":{"ID":357240,"DIS_CODE":0,"TOWNNAME":"東山區","LI":"東山里","LIN":"26鄰","STREET":" ","SECT":" ","MAREA":"東山","LANE":" ","ALLEY":" ","HOUSE_NO":"４６５號","E_COORD97":188669.20000000001,"N_COORD97":2580327.25,"ADDRESS":"東山４６５號","OBJECTID":357231},"geometry":{"x":188669.20000000019,"y":2580327.2500000019}},{"attributes":{"ID":357241,"DIS_CODE":0,"TOWNNAME":"東山區","LI":"東山里","LIN":"26鄰","STREET":" ","SECT":" ","MAREA":"東山","LANE":" ","ALLEY":" ","HOUSE_NO":"４６６號","E_COORD97":188662.70999999999,"N_COORD97":2580326.6699999999,"ADDRESS":"東山４６６號","OBJECTID":357232},"geometry":{"x":188662.71000000183,"y":2580326.6699999999}},{"attributes":{"ID":357242,"DIS_CODE":0,"TOWNNAME":"東山區","LI":"東山里","LIN":"26鄰","STREET":" ","SECT":" ","MAREA":"東山","LANE":" ","ALLEY":" ","HOUSE_NO":"４６７號","E_COORD97":188668.14000000001,"N_COORD97":2580345.9199999999,"ADDRESS":"東山４６７號","OBJECTID":357233},"geometry":{"x":188668.1400000006,"y":2580345.9200000037}},{"attributes":{"ID":357243,"DIS_CODE":0,"TOWNNAME":"東山區","LI":"東山里","LIN":"26鄰","STREET":" ","SECT":" ","MAREA":"東山","LANE":" ","ALLEY":" ","HOUSE_NO":"４６８號","E_COORD97":188660.51000000001,"N_COORD97":2580345.48,"ADDRESS":"東山４６８號","OBJECTID":357234},"geometry":{"x":188660.51000000071,"y":2580345.4800000004}},{"attributes":{"ID":357244,"DIS_CODE":0,"TOWNNAME":"東山區","LI":"東山里","LIN":"26鄰","STREET":" ","SECT":" ","MAREA":"東山","LANE":" ","ALLEY":" ","HOUSE_NO":"４６９號","E_COORD97":188663.64999999999,"N_COORD97":2580304.1299999999,"ADDRESS":"東山４６９號","OBJECTID":357235},"geometry":{"x":188663.6500000013,"y":2580304.1300000008}},{"attributes":{"ID":357245,"DIS_CODE":0,"TOWNNAME":"東山區","LI":"東山里","LIN":"26鄰","STREET":" ","SECT":" ","MAREA":"東山","LANE":" ","ALLEY":" ","HOUSE_NO":"４７０號","E_COORD97":188670.06,"N_COORD97":2580304.1899999999,"ADDRESS":"東山４７０號","OBJECTID":357236},"geometry":{"x":188670.06000000145,"y":2580304.1900000013}},{"attributes":{"ID":357246,"DIS_CODE":0,"TOWNNAME":"東山區","LI":"東山里","LIN":"26鄰","STREET":" ","SECT":" ","MAREA":"東山","LANE":" ","ALLEY":" ","HOUSE_NO":"４７１號","E_COORD97":188682.51999999999,"N_COORD97":2580307,"ADDRESS":"東山４７１號","OBJECTID":357237},"geometry":{"x":188682.52000000048,"y":2580307}},{"attributes":{"ID":357247,"DIS_CODE":0,"TOWNNAME":"永康區","LI":"西勢里","LIN":"26鄰","STREET":"廣興街","SECT":" ","MAREA":" ","LANE":"２６巷","ALLEY":" ","HOUSE_NO":"１７號","E_COORD97":175939.42000000001,"N_COORD97":2546462.7400000002,"ADDRESS":"廣興街２６巷１７號","OBJECTID":357238},"geometry":{"x":175939.42000000086,"y":2546462.7400000002}},{"attributes":{"ID":357248,"DIS_CODE":0,"TOWNNAME":"永康區","LI":"西勢里","LIN":"26鄰","STREET":"廣興街","SECT":" ","MAREA":" ","LANE":"２６巷","ALLEY":" ","HOUSE_NO":"２５號","E_COORD97":175950.53,"N_COORD97":2546451.5,"ADDRESS":"廣興街２６巷２５號","OBJECTID":357239},"geometry":{"x":175950.53000000119,"y":2546451.4999999981}},{"attributes":{"ID":357249,"DIS_CODE":0,"TOWNNAME":"永康區","LI":"永康里","LIN":"26鄰","STREET":"中山北路","SECT":" ","MAREA":" ","LANE":"１０４巷","ALLEY":" ","HOUSE_NO":"２號","E_COORD97":174152.29000000001,"N_COORD97":2547435.5600000001,"ADDRESS":"中山北路１０４巷２號","OBJECTID":357240},"geometry":{"x":174152.29000000004,"y":2547435.5600000024}},{"attributes":{"ID":357250,"DIS_CODE":0,"TOWNNAME":"中西區","LI":"大涼里","LIN":"26鄰","STREET":"永華一街","SECT":" ","MAREA":" ","LANE":"４４巷","ALLEY":" ","HOUSE_NO":"３１號","E_COORD97":166932.35000000001,"N_COORD97":2543361.77,"ADDRESS":"永華一街４４巷３１號","OBJECTID":357241},"geometry":{"x":166932.35000000149,"y":2543361.7700000014}},{"attributes":{"ID":357251,"DIS_CODE":0,"TOWNNAME":"安南區","LI":"州北里","LIN":"26鄰","STREET":"北安路","SECT":"四段","MAREA":" ","LANE":"５４８巷","ALLEY":" ","HOUSE_NO":"１０２號","E_COORD97":169753.48000000001,"N_COORD97":2551842.9100000001,"ADDRESS":"北安路四段５４８巷１０２號","OBJECTID":357242},"geometry":{"x":169753.48000000138,"y":2551842.9100000001}},{"attributes":{"ID":357252,"DIS_CODE":0,"TOWNNAME":"安南區","LI":"州北里","LIN":"26鄰","STREET":"北安路","SECT":"四段","MAREA":" ","LANE":"５４８巷","ALLEY":" ","HOUSE_NO":"３４號","E_COORD97":169637.85000000001,"N_COORD97":2551907.71,"ADDRESS":"北安路四段５４８巷３４號","OBJECTID":357243},"geometry":{"x":169637.85000000149,"y":2551907.7100000028}},{"attributes":{"ID":357253,"DIS_CODE":0,"TOWNNAME":"安南區","LI":"州北里","LIN":"26鄰","STREET":"北安路","SECT":"四段","MAREA":" ","LANE":"５４８巷","ALLEY":" ","HOUSE_NO":"３６號","E_COORD97":169642.70000000001,"N_COORD97":2551910.1899999999,"ADDRESS":"北安路四段５４８巷３６號","OBJECTID":357244},"geometry":{"x":169642.70000000019,"y":2551910.1899999995}},{"attributes":{"ID":357254,"DIS_CODE":0,"TOWNNAME":"西港區","LI":"西港里","LIN":"26鄰","STREET":" ","SECT":" ","MAREA":"堀子頭","LANE":" ","ALLEY":" ","HOUSE_NO":"５２號","E_COORD97":168684.34,"N_COORD97":2557566.4399999999,"ADDRESS":"堀子頭５２號","OBJECTID":357245},"geometry":{"x":168684.34000000078,"y":2557566.4400000013}},{"attributes":{"ID":357255,"DIS_CODE":0,"TOWNNAME":"東區","LI":"東光里","LIN":"30鄰","STREET":"東平路","SECT":" ","MAREA":" ","LANE":"９巷","ALLEY":" ","HOUSE_NO":"１號五樓之２","E_COORD97":171446.56,"N_COORD97":2543888.1699999999,"ADDRESS":"東平路９巷１號五樓之２","OBJECTID":357246},"geometry":{"x":171446.55999999959,"y":2543888.1700000018}},{"attributes":{"ID":357256,"DIS_CODE":0,"TOWNNAME":"東區","LI":"東光里","LIN":"30鄰","STREET":"東平路","SECT":" ","MAREA":" ","LANE":"９巷","ALLEY":" ","HOUSE_NO":"１號五樓之３","E_COORD97":171446.56,"N_COORD97":2543888.1699999999,"ADDRESS":"東平路９巷１號五樓之３","OBJECTID":357247},"geometry":{"x":171446.55999999959,"y":2543888.1700000018}},{"attributes":{"ID":357257,"DIS_CODE":0,"TOWNNAME":"東區","LI":"東光里","LIN":"30鄰","STREET":"東平路","SECT":" ","MAREA":" ","LANE":"９巷","ALLEY":" ","HOUSE_NO":"１號五樓之４","E_COORD97":171446.56,"N_COORD97":2543888.1699999999,"ADDRESS":"東平路９巷１號五樓之４","OBJECTID":357248},"geometry":{"x":171446.55999999959,"y":2543888.1700000018}},{"attributes":{"ID":357258,"DIS_CODE":0,"TOWNNAME":"東區","LI":"東光里","LIN":"30鄰","STREET":"東平路","SECT":" ","MAREA":" ","LANE":"９巷","ALLEY":" ","HOUSE_NO":"１號六樓","E_COORD97":171446.56,"N_COORD97":2543888.1699999999,"ADDRESS":"東平路９巷１號六樓","OBJECTID":357249},"geometry":{"x":171446.55999999959,"y":2543888.1700000018}},{"attributes":{"ID":357259,"DIS_CODE":0,"TOWNNAME":"東區","LI":"東光里","LIN":"30鄰","STREET":"東平路","SECT":" ","MAREA":" ","LANE":"９巷","ALLEY":" ","HOUSE_NO":"１號六樓之１","E_COORD97":171446.56,"N_COORD97":2543888.1699999999,"ADDRESS":"東平路９巷１號六樓之１","OBJECTID":357250},"geometry":{"x":171446.55999999959,"y":2543888.1700000018}},{"attributes":{"ID":357260,"DIS_CODE":0,"TOWNNAME":"東區","LI":"東光里","LIN":"30鄰","STREET":"東平路","SECT":" ","MAREA":" ","LANE":"９巷","ALLEY":" ","HOUSE_NO":"１號六樓之２","E_COORD97":171446.56,"N_COORD97":2543888.1699999999,"ADDRESS":"東平路９巷１號六樓之２","OBJECTID":357251},"geometry":{"x":171446.55999999959,"y":2543888.1700000018}},{"attributes":{"ID":357261,"DIS_CODE":0,"TOWNNAME":"東區","LI":"東光里","LIN":"30鄰","STREET":"東平路","SECT":" ","MAREA":" ","LANE":"９巷","ALLEY":" ","HOUSE_NO":"１號六樓之３","E_COORD97":171446.56,"N_COORD97":2543888.1699999999,"ADDRESS":"東平路９巷１號六樓之３","OBJECTID":357252},"geometry":{"x":171446.55999999959,"y":2543888.1700000018}},{"attributes":{"ID":357262,"DIS_CODE":0,"TOWNNAME":"東區","LI":"東光里","LIN":"30鄰","STREET":"東平路","SECT":" ","MAREA":" ","LANE":"９巷","ALLEY":" ","HOUSE_NO":"１號六樓之４","E_COORD97":171446.56,"N_COORD97":2543888.1699999999,"ADDRESS":"東平路９巷１號六樓之４","OBJECTID":357253},"geometry":{"x":171446.55999999959,"y":2543888.1700000018}},{"attributes":{"ID":357263,"DIS_CODE":0,"TOWNNAME":"東區","LI":"自強里","LIN":"8鄰","STREET":"東門路","SECT":"三段","MAREA":" ","LANE":" ","ALLEY":" ","HOUSE_NO":"１５號八樓之２","E_COORD97":171070.75,"N_COORD97":2542365.1800000002,"ADDRESS":"東門路三段１５號八樓之２","OBJECTID":357254},"geometry":{"x":171070.75,"y":2542365.1800000016}},{"attributes":{"ID":357264,"DIS_CODE":0,"TOWNNAME":"東區","LI":"自強里","LIN":"8鄰","STREET":"東門路","SECT":"三段","MAREA":" ","LANE":" ","ALLEY":" ","HOUSE_NO":"１５號八樓之３","E_COORD97":171070.75,"N_COORD97":2542365.1800000002,"ADDRESS":"東門路三段１５號八樓之３","OBJECTID":357255},"geometry":{"x":171070.75,"y":2542365.1800000016}},{"attributes":{"ID":357265,"DIS_CODE":0,"TOWNNAME":"東區","LI":"自強里","LIN":"8鄰","STREET":"東門路","SECT":"三段","MAREA":" ","LANE":" ","ALLEY":" ","HOUSE_NO":"１５號十一樓","E_COORD97":171070.75,"N_COORD97":2542365.1800000002,"ADDRESS":"東門路三段１５號十一樓","OBJECTID":357256},"geometry":{"x":171070.75,"y":2542365.1800000016}},{"attributes":{"ID":357266,"DIS_CODE":0,"TOWNNAME":"東區","LI":"自強里","LIN":"8鄰","STREET":"東門路","SECT":"三段","MAREA":" ","LANE":" ","ALLEY":" ","HOUSE_NO":"１５號十一樓之１","E_COORD97":171070.75,"N_COORD97":2542365.1800000002,"ADDRESS":"東門路三段１５號十一樓之１","OBJECTID":357257},"geometry":{"x":171070.75,"y":2542365.1800000016}},{"attributes":{"ID":357267,"DIS_CODE":0,"TOWNNAME":"東區","LI":"自強里","LIN":"8鄰","STREET":"東門路","SECT":"三段","MAREA":" ","LANE":" ","ALLEY":" ","HOUSE_NO":"１５號十一樓之２","E_COORD97":171070.75,"N_COORD97":2542365.1800000002,"ADDRESS":"東門路三段１５號十一樓之２","OBJECTID":357258},"geometry":{"x":171070.75,"y":2542365.1800000016}},{"attributes":{"ID":357268,"DIS_CODE":0,"TOWNNAME":"東區","LI":"自強里","LIN":"8鄰","STREET":"東門路","SECT":"三段","MAREA":" ","LANE":" ","ALLEY":" ","HOUSE_NO":"１５號十一樓之３","E_COORD97":171070.75,"N_COORD97":2542365.1800000002,"ADDRESS":"東門路三段１５號十一樓之３","OBJECTID":357259},"geometry":{"x":171070.75,"y":2542365.1800000016}},{"attributes":{"ID":357269,"DIS_CODE":0,"TOWNNAME":"東區","LI":"自強里","LIN":"8鄰","STREET":"東門路","SECT":"三段","MAREA":" ","LANE":" ","ALLEY":" ","HOUSE_NO":"１５號十七樓","E_COORD97":171070.75,"N_COORD97":2542365.1800000002,"ADDRESS":"東門路三段１５號十七樓","OBJECTID":357260},"geometry":{"x":171070.75,"y":2542365.1800000016}},{"attributes":{"ID":357270,"DIS_CODE":0,"TOWNNAME":"安南區","LI":"州北里","LIN":"26鄰","STREET":"北安路","SECT":"四段","MAREA":" ","LANE":"５４８巷","ALLEY":" ","HOUSE_NO":"５６號","E_COORD97":169688.29000000001,"N_COORD97":2551930.3100000001,"ADDRESS":"北安路四段５４８巷５６號","OBJECTID":357261},"geometry":{"x":169688.29000000097,"y":2551930.3100000024}},{"attributes":{"ID":357271,"DIS_CODE":0,"TOWNNAME":"安南區","LI":"州北里","LIN":"26鄰","STREET":"北安路","SECT":"四段","MAREA":" ","LANE":"５４８巷","ALLEY":" ","HOUSE_NO":"５７號","E_COORD97":169717.63,"N_COORD97":2551946.1899999999,"ADDRESS":"北安路四段５４８巷５７號","OBJECTID":357262},"geometry":{"x":169717.63000000175,"y":2551946.1900000013}},{"attributes":{"ID":357272,"DIS_CODE":0,"TOWNNAME":"安南區","LI":"州北里","LIN":"26鄰","STREET":"北安路","SECT":"四段","MAREA":" ","LANE":"５４８巷","ALLEY":" ","HOUSE_NO":"５８號","E_COORD97":169692.54999999999,"N_COORD97":2551931.73,"ADDRESS":"北安路四段５４８巷５８號","OBJECTID":357263},"geometry":{"x":169692.54999999888,"y":2551931.7300000004}},{"attributes":{"ID":357273,"DIS_CODE":0,"TOWNNAME":"安南區","LI":"州北里","LIN":"26鄰","STREET":"北安路","SECT":"四段","MAREA":" ","LANE":"５４８巷","ALLEY":" ","HOUSE_NO":"５９號","E_COORD97":169720.42999999999,"N_COORD97":2551941.5699999998,"ADDRESS":"北安路四段５４８巷５９號","OBJECTID":357264},"geometry":{"x":169720.43000000156,"y":2551941.5700000022}},{"attributes":{"ID":357274,"DIS_CODE":0,"TOWNNAME":"安平區","LI":"華平里","LIN":"8鄰","STREET":"育平九街","SECT":" ","MAREA":" ","LANE":"２２巷","ALLEY":" ","HOUSE_NO":"１號","E_COORD97":165413.67999999999,"N_COORD97":2543967.3799999999,"ADDRESS":"育平九街２２巷１號","OBJECTID":357265},"geometry":{"x":165413.68000000063,"y":2543967.3800000008}},{"attributes":{"ID":357275,"DIS_CODE":0,"TOWNNAME":"東區","LI":"東光里","LIN":"30鄰","STREET":"東平路","SECT":" ","MAREA":" ","LANE":"９巷","ALLEY":" ","HOUSE_NO":"１號四樓","E_COORD97":171446.56,"N_COORD97":2543888.1699999999,"ADDRESS":"東平路９巷１號四樓","OBJECTID":357266},"geometry":{"x":171446.55999999959,"y":2543888.1700000018}},{"attributes":{"ID":357276,"DIS_CODE":0,"TOWNNAME":"東區","LI":"東光里","LIN":"30鄰","STREET":"東平路","SECT":" ","MAREA":" ","LANE":"９巷","ALLEY":" ","HOUSE_NO":"１號四樓之１","E_COORD97":171446.56,"N_COORD97":2543888.1699999999,"ADDRESS":"東平路９巷１號四樓之１","OBJECTID":357267},"geometry":{"x":171446.55999999959,"y":2543888.1700000018}},{"attributes":{"ID":357277,"DIS_CODE":0,"TOWNNAME":"東區","LI":"東光里","LIN":"30鄰","STREET":"東平路","SECT":" ","MAREA":" ","LANE":"９巷","ALLEY":" ","HOUSE_NO":"１號四樓之２","E_COORD97":171446.56,"N_COORD97":2543888.1699999999,"ADDRESS":"東平路９巷１號四樓之２","OBJECTID":357268},"geometry":{"x":171446.55999999959,"y":2543888.1700000018}},{"attributes":{"ID":357278,"DIS_CODE":0,"TOWNNAME":"東區","LI":"東光里","LIN":"30鄰","STREET":"東平路","SECT":" ","MAREA":" ","LANE":"９巷","ALLEY":" ","HOUSE_NO":"１號四樓之３","E_COORD97":171446.56,"N_COORD97":2543888.1699999999,"ADDRESS":"東平路９巷１號四樓之３","OBJECTID":357269},"geometry":{"x":171446.55999999959,"y":2543888.1700000018}},{"attributes":{"ID":357279,"DIS_CODE":0,"TOWNNAME":"東區","LI":"東光里","LIN":"30鄰","STREET":"東平路","SECT":" ","MAREA":" ","LANE":"９巷","ALLEY":" ","HOUSE_NO":"１號四樓之４","E_COORD97":171446.56,"N_COORD97":2543888.1699999999,"ADDRESS":"東平路９巷１號四樓之４","OBJECTID":357270},"geometry":{"x":171446.55999999959,"y":2543888.1700000018}},{"attributes":{"ID":357280,"DIS_CODE":0,"TOWNNAME":"東區","LI":"東光里","LIN":"30鄰","STREET":"東平路","SECT":" ","MAREA":" ","LANE":"９巷","ALLEY":" ","HOUSE_NO":"７號七樓","E_COORD97":171443.67999999999,"N_COORD97":2543868.79,"ADDRESS":"東平路９巷７號七樓","OBJECTID":357271},"geometry":{"x":171443.6799999997,"y":2543868.7900000028}},{"attributes":{"ID":357281,"DIS_CODE":0,"TOWNNAME":"東區","LI":"東光里","LIN":"30鄰","STREET":"東平路","SECT":" ","MAREA":" ","LANE":"９巷","ALLEY":" ","HOUSE_NO":"７號七樓之１","E_COORD97":171443.67999999999,"N_COORD97":2543868.79,"ADDRESS":"東平路９巷７號七樓之１","OBJECTID":357272},"geometry":{"x":171443.6799999997,"y":2543868.7900000028}},{"attributes":{"ID":357282,"DIS_CODE":0,"TOWNNAME":"東區","LI":"東光里","LIN":"30鄰","STREET":"東平路","SECT":" ","MAREA":" ","LANE":"９巷","ALLEY":" ","HOUSE_NO":"７號七樓之２","E_COORD97":171443.67999999999,"N_COORD97":2543868.79,"ADDRESS":"東平路９巷７號七樓之２","OBJECTID":357273},"geometry":{"x":171443.6799999997,"y":2543868.7900000028}},{"attributes":{"ID":357283,"DIS_CODE":0,"TOWNNAME":"東區","LI":"東光里","LIN":"30鄰","STREET":"東平路","SECT":" ","MAREA":" ","LANE":"９巷","ALLEY":" ","HOUSE_NO":"７號七樓之３","E_COORD97":171443.67999999999,"N_COORD97":2543868.79,"ADDRESS":"東平路９巷７號七樓之３","OBJECTID":357274},"geometry":{"x":171443.6799999997,"y":2543868.7900000028}},{"attributes":{"ID":357284,"DIS_CODE":0,"TOWNNAME":"東區","LI":"東光里","LIN":"30鄰","STREET":"東平路","SECT":" ","MAREA":" ","LANE":"９巷","ALLEY":" ","HOUSE_NO":"７號七樓之４","E_COORD97":171443.67999999999,"N_COORD97":2543868.79,"ADDRESS":"東平路９巷７號七樓之４","OBJECTID":357275},"geometry":{"x":171443.6799999997,"y":2543868.7900000028}},{"attributes":{"ID":357285,"DIS_CODE":0,"TOWNNAME":"東區","LI":"東光里","LIN":"30鄰","STREET":"東平路","SECT":" ","MAREA":" ","LANE":"９巷","ALLEY":" ","HOUSE_NO":"７號七樓之５","E_COORD97":171443.67999999999,"N_COORD97":2543868.79,"ADDRESS":"東平路９巷７號七樓之５","OBJECTID":357276},"geometry":{"x":171443.6799999997,"y":2543868.7900000028}},{"attributes":{"ID":357286,"DIS_CODE":0,"TOWNNAME":"東區","LI":"東光里","LIN":"30鄰","STREET":"東平路","SECT":" ","MAREA":" ","LANE":"９巷","ALLEY":" ","HOUSE_NO":"７號七樓之６","E_COORD97":171443.67999999999,"N_COORD97":2543868.79,"ADDRESS":"東平路９巷７號七樓之６","OBJECTID":357277},"geometry":{"x":171443.6799999997,"y":2543868.7900000028}},{"attributes":{"ID":357287,"DIS_CODE":0,"TOWNNAME":"東區","LI":"東光里","LIN":"30鄰","STREET":"東平路","SECT":" ","MAREA":" ","LANE":"９巷","ALLEY":" ","HOUSE_NO":"７號七樓之７","E_COORD97":171443.67999999999,"N_COORD97":2543868.79,"ADDRESS":"東平路９巷７號七樓之７","OBJECTID":357278},"geometry":{"x":171443.6799999997,"y":2543868.7900000028}},{"attributes":{"ID":357288,"DIS_CODE":0,"TOWNNAME":"東區","LI":"東光里","LIN":"30鄰","STREET":"東平路","SECT":" ","MAREA":" ","LANE":"９巷","ALLEY":" ","HOUSE_NO":"７號五樓","E_COORD97":171443.67999999999,"N_COORD97":2543868.79,"ADDRESS":"東平路９巷７號五樓","OBJECTID":357279},"geometry":{"x":171443.6799999997,"y":2543868.7900000028}},{"attributes":{"ID":357289,"DIS_CODE":0,"TOWNNAME":"東區","LI":"東光里","LIN":"30鄰","STREET":"東平路","SECT":" ","MAREA":" ","LANE":"９巷","ALLEY":" ","HOUSE_NO":"７號五樓之１","E_COORD97":171443.67999999999,"N_COORD97":2543868.79,"ADDRESS":"東平路９巷７號五樓之１","OBJECTID":357280},"geometry":{"x":171443.6799999997,"y":2543868.7900000028}},{"attributes":{"ID":357290,"DIS_CODE":0,"TOWNNAME":"東區","LI":"東光里","LIN":"30鄰","STREET":"東平路","SECT":" ","MAREA":" ","LANE":"９巷","ALLEY":" ","HOUSE_NO":"７號五樓之２","E_COORD97":171443.67999999999,"N_COORD97":2543868.79,"ADDRESS":"東平路９巷７號五樓之２","OBJECTID":357281},"geometry":{"x":171443.6799999997,"y":2543868.7900000028}},{"attributes":{"ID":357291,"DIS_CODE":0,"TOWNNAME":"東區","LI":"東光里","LIN":"30鄰","STREET":"東平路","SECT":" ","MAREA":" ","LANE":"９巷","ALLEY":" ","HOUSE_NO":"７號五樓之３","E_COORD97":171443.67999999999,"N_COORD97":2543868.79,"ADDRESS":"東平路９巷７號五樓之３","OBJECTID":357282},"geometry":{"x":171443.6799999997,"y":2543868.7900000028}},{"attributes":{"ID":357292,"DIS_CODE":0,"TOWNNAME":"東區","LI":"東光里","LIN":"30鄰","STREET":"東平路","SECT":" ","MAREA":" ","LANE":"９巷","ALLEY":" ","HOUSE_NO":"７號五樓之４","E_COORD97":171443.67999999999,"N_COORD97":2543868.79,"ADDRESS":"東平路９巷７號五樓之４","OBJECTID":357283},"geometry":{"x":171443.6799999997,"y":2543868.7900000028}},{"attributes":{"ID":357293,"DIS_CODE":0,"TOWNNAME":"東區","LI":"東光里","LIN":"30鄰","STREET":"東平路","SECT":" ","MAREA":" ","LANE":"９巷","ALLEY":" ","HOUSE_NO":"７號五樓之５","E_COORD97":171443.67999999999,"N_COORD97":2543868.79,"ADDRESS":"東平路９巷７號五樓之５","OBJECTID":357284},"geometry":{"x":171443.6799999997,"y":2543868.7900000028}},{"attributes":{"ID":357294,"DIS_CODE":0,"TOWNNAME":"東區","LI":"東光里","LIN":"30鄰","STREET":"東平路","SECT":" ","MAREA":" ","LANE":"９巷","ALLEY":" ","HOUSE_NO":"７號五樓之６","E_COORD97":171443.67999999999,"N_COORD97":2543868.79,"ADDRESS":"東平路９巷７號五樓之６","OBJECTID":357285},"geometry":{"x":171443.6799999997,"y":2543868.7900000028}},{"attributes":{"ID":357295,"DIS_CODE":0,"TOWNNAME":"東區","LI":"自強里","LIN":"8鄰","STREET":"東門路","SECT":"三段","MAREA":" ","LANE":" ","ALLEY":" ","HOUSE_NO":"１５號十七樓之１","E_COORD97":171070.75,"N_COORD97":2542365.1800000002,"ADDRESS":"東門路三段１５號十七樓之１","OBJECTID":357286},"geometry":{"x":171070.75,"y":2542365.1800000016}},{"attributes":{"ID":357296,"DIS_CODE":0,"TOWNNAME":"東區","LI":"自強里","LIN":"8鄰","STREET":"東門路","SECT":"三段","MAREA":" ","LANE":" ","ALLEY":" ","HOUSE_NO":"１５號十七樓之２","E_COORD97":171070.75,"N_COORD97":2542365.1800000002,"ADDRESS":"東門路三段１５號十七樓之２","OBJECTID":357287},"geometry":{"x":171070.75,"y":2542365.1800000016}},{"attributes":{"ID":357297,"DIS_CODE":0,"TOWNNAME":"東區","LI":"自強里","LIN":"8鄰","STREET":"東門路","SECT":"三段","MAREA":" ","LANE":" ","ALLEY":" ","HOUSE_NO":"１５號十七樓之３","E_COORD97":171070.75,"N_COORD97":2542365.1800000002,"ADDRESS":"東門路三段１５號十七樓之３","OBJECTID":357288},"geometry":{"x":171070.75,"y":2542365.1800000016}},{"attributes":{"ID":357298,"DIS_CODE":0,"TOWNNAME":"東區","LI":"自強里","LIN":"8鄰","STREET":"東門路","SECT":"三段","MAREA":" ","LANE":" ","ALLEY":" ","HOUSE_NO":"１５號十九樓","E_COORD97":171070.75,"N_COORD97":2542365.1800000002,"ADDRESS":"東門路三段１５號十九樓","OBJECTID":357289},"geometry":{"x":171070.75,"y":2542365.1800000016}},{"attributes":{"ID":357299,"DIS_CODE":0,"TOWNNAME":"東區","LI":"自強里","LIN":"8鄰","STREET":"東門路","SECT":"三段","MAREA":" ","LANE":" ","ALLEY":" ","HOUSE_NO":"１５號十九樓之１","E_COORD97":171070.75,"N_COORD97":2542365.1800000002,"ADDRESS":"東門路三段１５號十九樓之１","OBJECTID":357290},"geometry":{"x":171070.75,"y":2542365.1800000016}},{"attributes":{"ID":357300,"DIS_CODE":0,"TOWNNAME":"南區","LI":"光明里","LIN":"26鄰","STREET":"新建路","SECT":" ","MAREA":" ","LANE":"２５巷","ALLEY":" ","HOUSE_NO":"１８號","E_COORD97":166551.60000000001,"N_COORD97":2541314.7599999998,"ADDRESS":"新建路２５巷１８號","OBJECTID":357291},"geometry":{"x":166551.60000000056,"y":2541314.7600000016}},{"attributes":{"ID":357301,"DIS_CODE":0,"TOWNNAME":"新市區","LI":"大社里","LIN":"26鄰","STREET":" ","SECT":" ","MAREA":"大社","LANE":" ","ALLEY":" ","HOUSE_NO":"６７２號之３","E_COORD97":179905.88,"N_COORD97":2554332.2999999998,"ADDRESS":"大社６７２號之３","OBJECTID":357292},"geometry":{"x":179905.88000000082,"y":2554332.3000000007}},{"attributes":{"ID":357302,"DIS_CODE":0,"TOWNNAME":"南區","LI":"光明里","LIN":"26鄰","STREET":"新建路","SECT":" ","MAREA":" ","LANE":"２５巷","ALLEY":" ","HOUSE_NO":"２０號","E_COORD97":166557.45000000001,"N_COORD97":2541314.6200000001,"ADDRESS":"新建路２５巷２０號","OBJECTID":357293},"geometry":{"x":166557.45000000019,"y":2541314.620000001}},{"attributes":{"ID":357303,"DIS_CODE":0,"TOWNNAME":"南區","LI":"光明里","LIN":"26鄰","STREET":"新建路","SECT":" ","MAREA":" ","LANE":"２５巷","ALLEY":" ","HOUSE_NO":"２２號","E_COORD97":166566.44,"N_COORD97":2541315.0499999998,"ADDRESS":"新建路２５巷２２號","OBJECTID":357294},"geometry":{"x":166566.44000000227,"y":2541315.0500000007}},{"attributes":{"ID":357304,"DIS_CODE":0,"TOWNNAME":"南區","LI":"光明里","LIN":"26鄰","STREET":"新建路","SECT":" ","MAREA":" ","LANE":"２５巷","ALLEY":" ","HOUSE_NO":"２４號","E_COORD97":166571.73000000001,"N_COORD97":2541314.9100000001,"ADDRESS":"新建路２５巷２４號","OBJECTID":357295},"geometry":{"x":166571.73000000138,"y":2541314.9100000001}},{"attributes":{"ID":357305,"DIS_CODE":0,"TOWNNAME":"南區","LI":"光明里","LIN":"26鄰","STREET":"新建路","SECT":" ","MAREA":" ","LANE":"２５巷","ALLEY":" ","HOUSE_NO":"２６號","E_COORD97":166579.72,"N_COORD97":2541314.6200000001,"ADDRESS":"新建路２５巷２６號","OBJECTID":357296},"geometry":{"x":166579.72000000067,"y":2541314.620000001}},{"attributes":{"ID":357306,"DIS_CODE":0,"TOWNNAME":"南區","LI":"光明里","LIN":"26鄰","STREET":"新建路","SECT":" ","MAREA":" ","LANE":"２５巷","ALLEY":" ","HOUSE_NO":"２８號","E_COORD97":166586.57000000001,"N_COORD97":2541314.9100000001,"ADDRESS":"新建路２５巷２８號","OBJECTID":357297},"geometry":{"x":166586.57000000123,"y":2541314.9100000001}},{"attributes":{"ID":357307,"DIS_CODE":0,"TOWNNAME":"南區","LI":"府南里","LIN":"26鄰","STREET":"大成路","SECT":"二段","MAREA":" ","LANE":"８１巷","ALLEY":" ","HOUSE_NO":"５６號","E_COORD97":167345.38,"N_COORD97":2541612.98,"ADDRESS":"大成路二段８１巷５６號","OBJECTID":357298},"geometry":{"x":167345.37999999989,"y":2541612.9800000004}},{"attributes":{"ID":357308,"DIS_CODE":0,"TOWNNAME":"東區","LI":"東光里","LIN":"30鄰","STREET":"東平路","SECT":" ","MAREA":" ","LANE":"９巷","ALLEY":" ","HOUSE_NO":"７號五樓之７","E_COORD97":171443.67999999999,"N_COORD97":2543868.79,"ADDRESS":"東平路９巷７號五樓之７","OBJECTID":357299},"geometry":{"x":171443.6799999997,"y":2543868.7900000028}},{"attributes":{"ID":357309,"DIS_CODE":0,"TOWNNAME":"東區","LI":"東光里","LIN":"30鄰","STREET":"東平路","SECT":" ","MAREA":" ","LANE":"９巷","ALLEY":" ","HOUSE_NO":"７號六樓","E_COORD97":171443.67999999999,"N_COORD97":2543868.79,"ADDRESS":"東平路９巷７號六樓","OBJECTID":357300},"geometry":{"x":171443.6799999997,"y":2543868.7900000028}},{"attributes":{"ID":357310,"DIS_CODE":0,"TOWNNAME":"東區","LI":"東光里","LIN":"30鄰","STREET":"東平路","SECT":" ","MAREA":" ","LANE":"９巷","ALLEY":" ","HOUSE_NO":"７號六樓之１","E_COORD97":171443.67999999999,"N_COORD97":2543868.79,"ADDRESS":"東平路９巷７號六樓之１","OBJECTID":357301},"geometry":{"x":171443.6799999997,"y":2543868.7900000028}},{"attributes":{"ID":357311,"DIS_CODE":0,"TOWNNAME":"東區","LI":"東光里","LIN":"30鄰","STREET":"東平路","SECT":" ","MAREA":" ","LANE":"９巷","ALLEY":" ","HOUSE_NO":"７號六樓之２","E_COORD97":171443.67999999999,"N_COORD97":2543868.79,"ADDRESS":"東平路９巷７號六樓之２","OBJECTID":357302},"geometry":{"x":171443.6799999997,"y":2543868.7900000028}},{"attributes":{"ID":357312,"DIS_CODE":0,"TOWNNAME":"東區","LI":"東光里","LIN":"30鄰","STREET":"東平路","SECT":" ","MAREA":" ","LANE":"９巷","ALLEY":" ","HOUSE_NO":"７號六樓之３","E_COORD97":171443.67999999999,"N_COORD97":2543868.79,"ADDRESS":"東平路９巷７號六樓之３","OBJECTID":357303},"geometry":{"x":171443.6799999997,"y":2543868.7900000028}},{"attributes":{"ID":357313,"DIS_CODE":0,"TOWNNAME":"新市區","LI":"大社里","LIN":"26鄰","STREET":" ","SECT":" ","MAREA":"大社","LANE":" ","ALLEY":" ","HOUSE_NO":"６５４號","E_COORD97":179996.17999999999,"N_COORD97":2554358.75,"ADDRESS":"大社６５４號","OBJECTID":357304},"geometry":{"x":179996.1799999997,"y":2554358.75}},{"attributes":{"ID":357314,"DIS_CODE":0,"TOWNNAME":"東區","LI":"東光里","LIN":"30鄰","STREET":"東平路","SECT":" ","MAREA":" ","LANE":"９巷","ALLEY":" ","HOUSE_NO":"７號六樓之４","E_COORD97":171443.67999999999,"N_COORD97":2543868.79,"ADDRESS":"東平路９巷７號六樓之４","OBJECTID":357305},"geometry":{"x":171443.6799999997,"y":2543868.7900000028}},{"attributes":{"ID":357315,"DIS_CODE":0,"TOWNNAME":"東區","LI":"東光里","LIN":"30鄰","STREET":"東平路","SECT":" ","MAREA":" ","LANE":"９巷","ALLEY":" ","HOUSE_NO":"７號六樓之５","E_COORD97":171443.67999999999,"N_COORD97":2543868.79,"ADDRESS":"東平路９巷７號六樓之５","OBJECTID":357306},"geometry":{"x":171443.6799999997,"y":2543868.7900000028}},{"attributes":{"ID":357316,"DIS_CODE":0,"TOWNNAME":"東區","LI":"東光里","LIN":"30鄰","STREET":"東平路","SECT":" ","MAREA":" ","LANE":"９巷","ALLEY":" ","HOUSE_NO":"７號六樓之６","E_COORD97":171443.67999999999,"N_COORD97":2543868.79,"ADDRESS":"東平路９巷７號六樓之６","OBJECTID":357307},"geometry":{"x":171443.6799999997,"y":2543868.7900000028}},{"attributes":{"ID":357317,"DIS_CODE":0,"TOWNNAME":"東區","LI":"東光里","LIN":"30鄰","STREET":"東平路","SECT":" ","MAREA":" ","LANE":"９巷","ALLEY":" ","HOUSE_NO":"７號六樓之７","E_COORD97":171443.67999999999,"N_COORD97":2543868.79,"ADDRESS":"東平路９巷７號六樓之７","OBJECTID":357308},"geometry":{"x":171443.6799999997,"y":2543868.7900000028}},{"attributes":{"ID":357318,"DIS_CODE":0,"TOWNNAME":"東區","LI":"東光里","LIN":"30鄰","STREET":"東平路","SECT":" ","MAREA":" ","LANE":"９巷","ALLEY":" ","HOUSE_NO":"７號四樓","E_COORD97":171443.67999999999,"N_COORD97":2543868.79,"ADDRESS":"東平路９巷７號四樓","OBJECTID":357309},"geometry":{"x":171443.6799999997,"y":2543868.7900000028}},{"attributes":{"ID":357319,"DIS_CODE":0,"TOWNNAME":"東區","LI":"東光里","LIN":"30鄰","STREET":"東平路","SECT":" ","MAREA":" ","LANE":"９巷","ALLEY":" ","HOUSE_NO":"７號四樓之１","E_COORD97":171443.67999999999,"N_COORD97":2543868.79,"ADDRESS":"東平路９巷７號四樓之１","OBJECTID":357310},"geometry":{"x":171443.6799999997,"y":2543868.7900000028}},{"attributes":{"ID":357320,"DIS_CODE":0,"TOWNNAME":"東區","LI":"自強里","LIN":"8鄰","STREET":"東門路","SECT":"三段","MAREA":" ","LANE":" ","ALLEY":" ","HOUSE_NO":"１５號十九樓之２","E_COORD97":171070.75,"N_COORD97":2542365.1800000002,"ADDRESS":"東門路三段１５號十九樓之２","OBJECTID":357311},"geometry":{"x":171070.75,"y":2542365.1800000016}},{"attributes":{"ID":357321,"DIS_CODE":0,"TOWNNAME":"東區","LI":"自強里","LIN":"8鄰","STREET":"東門路","SECT":"三段","MAREA":" ","LANE":" ","ALLEY":" ","HOUSE_NO":"１５號十九樓之３","E_COORD97":171070.75,"N_COORD97":2542365.1800000002,"ADDRESS":"東門路三段１５號十九樓之３","OBJECTID":357312},"geometry":{"x":171070.75,"y":2542365.1800000016}},{"attributes":{"ID":357322,"DIS_CODE":0,"TOWNNAME":"東區","LI":"自強里","LIN":"8鄰","STREET":"東門路","SECT":"三段","MAREA":" ","LANE":" ","ALLEY":" ","HOUSE_NO":"１５號十二樓","E_COORD97":171070.75,"N_COORD97":2542365.1800000002,"ADDRESS":"東門路三段１５號十二樓","OBJECTID":357313},"geometry":{"x":171070.75,"y":2542365.1800000016}},{"attributes":{"ID":357323,"DIS_CODE":0,"TOWNNAME":"東區","LI":"自強里","LIN":"8鄰","STREET":"東門路","SECT":"三段","MAREA":" ","LANE":" ","ALLEY":" ","HOUSE_NO":"１５號十二樓之１","E_COORD97":171070.75,"N_COORD97":2542365.1800000002,"ADDRESS":"東門路三段１５號十二樓之１","OBJECTID":357314},"geometry":{"x":171070.75,"y":2542365.1800000016}},{"attributes":{"ID":357324,"DIS_CODE":0,"TOWNNAME":"東區","LI":"自強里","LIN":"8鄰","STREET":"東門路","SECT":"三段","MAREA":" ","LANE":" ","ALLEY":" ","HOUSE_NO":"１５號十二樓之２","E_COORD97":171070.75,"N_COORD97":2542365.1800000002,"ADDRESS":"東門路三段１５號十二樓之２","OBJECTID":357315},"geometry":{"x":171070.75,"y":2542365.1800000016}},{"attributes":{"ID":357325,"DIS_CODE":0,"TOWNNAME":"東區","LI":"自強里","LIN":"8鄰","STREET":"東門路","SECT":"三段","MAREA":" ","LANE":" ","ALLEY":" ","HOUSE_NO":"１５號十二樓之３","E_COORD97":171070.75,"N_COORD97":2542365.1800000002,"ADDRESS":"東門路三段１５號十二樓之３","OBJECTID":357316},"geometry":{"x":171070.75,"y":2542365.1800000016}},{"attributes":{"ID":357326,"DIS_CODE":0,"TOWNNAME":"仁德區","LI":"仁愛里","LIN":"26鄰","STREET":"大同路","SECT":"三段","MAREA":" ","LANE":" ","ALLEY":" ","HOUSE_NO":"３９６號","E_COORD97":169763.40700000001,"N_COORD97":2539405.7551500001,"ADDRESS":"大同路三段３９６號","OBJECTID":357317},"geometry":{"x":169763.40700000059,"y":2539405.7551469989}},{"attributes":{"ID":357327,"DIS_CODE":0,"TOWNNAME":"東區","LI":"東光里","LIN":"30鄰","STREET":"東平路","SECT":" ","MAREA":" ","LANE":"９巷","ALLEY":" ","HOUSE_NO":"７號四樓之２","E_COORD97":171443.67999999999,"N_COORD97":2543868.79,"ADDRESS":"東平路９巷７號四樓之２","OBJECTID":357318},"geometry":{"x":171443.6799999997,"y":2543868.7900000028}},{"attributes":{"ID":357328,"DIS_CODE":0,"TOWNNAME":"東區","LI":"東光里","LIN":"30鄰","STREET":"東平路","SECT":" ","MAREA":" ","LANE":"９巷","ALLEY":" ","HOUSE_NO":"７號四樓之３","E_COORD97":171443.67999999999,"N_COORD97":2543868.79,"ADDRESS":"東平路９巷７號四樓之３","OBJECTID":357319},"geometry":{"x":171443.6799999997,"y":2543868.7900000028}},{"attributes":{"ID":357329,"DIS_CODE":0,"TOWNNAME":"東區","LI":"東光里","LIN":"30鄰","STREET":"東平路","SECT":" ","MAREA":" ","LANE":"９巷","ALLEY":" ","HOUSE_NO":"７號四樓之４","E_COORD97":171443.67999999999,"N_COORD97":2543868.79,"ADDRESS":"東平路９巷７號四樓之４","OBJECTID":357320},"geometry":{"x":171443.6799999997,"y":2543868.7900000028}},{"attributes":{"ID":357330,"DIS_CODE":0,"TOWNNAME":"東區","LI":"東光里","LIN":"30鄰","STREET":"東平路","SECT":" ","MAREA":" ","LANE":"９巷","ALLEY":" ","HOUSE_NO":"７號四樓之５","E_COORD97":171443.67999999999,"N_COORD97":2543868.79,"ADDRESS":"東平路９巷７號四樓之５","OBJECTID":357321},"geometry":{"x":171443.6799999997,"y":2543868.7900000028}},{"attributes":{"ID":357331,"DIS_CODE":0,"TOWNNAME":"東區","LI":"東光里","LIN":"30鄰","STREET":"東平路","SECT":" ","MAREA":" ","LANE":"９巷","ALLEY":" ","HOUSE_NO":"７號四樓之６","E_COORD97":171443.67999999999,"N_COORD97":2543868.79,"ADDRESS":"東平路９巷７號四樓之６","OBJECTID":357322},"geometry":{"x":171443.6799999997,"y":2543868.7900000028}},{"attributes":{"ID":357332,"DIS_CODE":0,"TOWNNAME":"東區","LI":"自強里","LIN":"8鄰","STREET":"東門路","SECT":"三段","MAREA":" ","LANE":" ","ALLEY":" ","HOUSE_NO":"１５號十八樓","E_COORD97":171070.75,"N_COORD97":2542365.1800000002,"ADDRESS":"東門路三段１５號十八樓","OBJECTID":357323},"geometry":{"x":171070.75,"y":2542365.1800000016}},{"attributes":{"ID":357333,"DIS_CODE":0,"TOWNNAME":"東區","LI":"東光里","LIN":"30鄰","STREET":"東平路","SECT":" ","MAREA":" ","LANE":"９巷","ALLEY":" ","HOUSE_NO":"７號四樓之７","E_COORD97":171443.67999999999,"N_COORD97":2543868.79,"ADDRESS":"東平路９巷７號四樓之７","OBJECTID":357324},"geometry":{"x":171443.6799999997,"y":2543868.7900000028}},{"attributes":{"ID":357334,"DIS_CODE":0,"TOWNNAME":"永康區","LI":"六合里","LIN":"30鄰","STREET":"中華二路","SECT":" ","MAREA":" ","LANE":"２６６巷","ALLEY":" ","HOUSE_NO":"１２號三樓之１","E_COORD97":171392.92000000001,"N_COORD97":2545486.1899999999,"ADDRESS":"中華二路２６６巷１２號三樓之１","OBJECTID":357325},"geometry":{"x":171392.92000000086,"y":2545486.1899999995}},{"attributes":{"ID":357335,"DIS_CODE":0,"TOWNNAME":"永康區","LI":"六合里","LIN":"30鄰","STREET":"中華二路","SECT":" ","MAREA":" ","LANE":"２６６巷","ALLEY":" ","HOUSE_NO":"１６號七樓之１","E_COORD97":171395.34,"N_COORD97":2545481.3500000001,"ADDRESS":"中華二路２６６巷１６號七樓之１","OBJECTID":357326},"geometry":{"x":171395.33999999985,"y":2545481.3499999996}},{"attributes":{"ID":357336,"DIS_CODE":0,"TOWNNAME":"永康區","LI":"六合里","LIN":"30鄰","STREET":"中華二路","SECT":" ","MAREA":" ","LANE":"２６６巷","ALLEY":" ","HOUSE_NO":"１８號七樓之１","E_COORD97":171398.79000000001,"N_COORD97":2545472.8100000001,"ADDRESS":"中華二路２６６巷１８號七樓之１","OBJECTID":357327},"geometry":{"x":171398.79000000097,"y":2545472.8100000005}},{"attributes":{"ID":357337,"DIS_CODE":0,"TOWNNAME":"永康區","LI":"六合里","LIN":"30鄰","STREET":"中華二路","SECT":" ","MAREA":" ","LANE":"２６６巷","ALLEY":" ","HOUSE_NO":"２０號七樓之１","E_COORD97":171408.85000000001,"N_COORD97":2545478.46,"ADDRESS":"中華二路２６６巷２０號七樓之１","OBJECTID":357328},"geometry":{"x":171408.84999999963,"y":2545478.4600000009}},{"attributes":{"ID":357338,"DIS_CODE":0,"TOWNNAME":"永康區","LI":"六合里","LIN":"30鄰","STREET":"中華二路","SECT":" ","MAREA":" ","LANE":"２６６巷","ALLEY":" ","HOUSE_NO":"２２號七樓之１","E_COORD97":171408.13,"N_COORD97":2545484.0299999998,"ADDRESS":"中華二路２６６巷２２號七樓之１","OBJECTID":357329},"geometry":{"x":171408.13000000082,"y":2545484.0299999993}},{"attributes":{"ID":357339,"DIS_CODE":0,"TOWNNAME":"東區","LI":"虎尾里","LIN":"30鄰","STREET":"自由路","SECT":"三段","MAREA":" ","LANE":" ","ALLEY":" ","HOUSE_NO":"１號七樓","E_COORD97":171803.92000000001,"N_COORD97":2541850.02,"ADDRESS":"自由路三段１號七樓","OBJECTID":357330},"geometry":{"x":171803.91999999993,"y":2541850.0199999996}},{"attributes":{"ID":357340,"DIS_CODE":0,"TOWNNAME":"東區","LI":"虎尾里","LIN":"30鄰","STREET":"自由路","SECT":"三段","MAREA":" ","LANE":" ","ALLEY":" ","HOUSE_NO":"１號七樓之１","E_COORD97":171803.92000000001,"N_COORD97":2541850.02,"ADDRESS":"自由路三段１號七樓之１","OBJECTID":357331},"geometry":{"x":171803.91999999993,"y":2541850.0199999996}},{"attributes":{"ID":357341,"DIS_CODE":0,"TOWNNAME":"東區","LI":"虎尾里","LIN":"30鄰","STREET":"自由路","SECT":"三段","MAREA":" ","LANE":" ","ALLEY":" ","HOUSE_NO":"１號九樓","E_COORD97":171803.92000000001,"N_COORD97":2541850.02,"ADDRESS":"自由路三段１號九樓","OBJECTID":357332},"geometry":{"x":171803.91999999993,"y":2541850.0199999996}},{"attributes":{"ID":357342,"DIS_CODE":0,"TOWNNAME":"東區","LI":"虎尾里","LIN":"30鄰","STREET":"自由路","SECT":"三段","MAREA":" ","LANE":" ","ALLEY":" ","HOUSE_NO":"１號九樓之１","E_COORD97":171803.92000000001,"N_COORD97":2541850.02,"ADDRESS":"自由路三段１號九樓之１","OBJECTID":357333},"geometry":{"x":171803.91999999993,"y":2541850.0199999996}},{"attributes":{"ID":357343,"DIS_CODE":0,"TOWNNAME":"東區","LI":"虎尾里","LIN":"30鄰","STREET":"自由路","SECT":"三段","MAREA":" ","LANE":" ","ALLEY":" ","HOUSE_NO":"１號八樓","E_COORD97":171803.92000000001,"N_COORD97":2541850.02,"ADDRESS":"自由路三段１號八樓","OBJECTID":357334},"geometry":{"x":171803.91999999993,"y":2541850.0199999996}},{"attributes":{"ID":357344,"DIS_CODE":0,"TOWNNAME":"安南區","LI":"溪頂里","LIN":"26鄰","STREET":"郡安路","SECT":"四段","MAREA":" ","LANE":"２７８巷","ALLEY":" ","HOUSE_NO":"４８號","E_COORD97":168570.53,"N_COORD97":2547543.96,"ADDRESS":"郡安路四段２７８巷４８號","OBJECTID":357335},"geometry":{"x":168570.53000000026,"y":2547543.9600000009}},{"attributes":{"ID":357345,"DIS_CODE":0,"TOWNNAME":"安南區","LI":"溪頂里","LIN":"26鄰","STREET":"郡安路","SECT":"四段","MAREA":" ","LANE":"２７８巷","ALLEY":" ","HOUSE_NO":"５０號","E_COORD97":168570.76000000001,"N_COORD97":2547539.1800000002,"ADDRESS":"郡安路四段２７８巷５０號","OBJECTID":357336},"geometry":{"x":168570.76000000164,"y":2547539.1800000016}},{"attributes":{"ID":357346,"DIS_CODE":0,"TOWNNAME":"東區","LI":"虎尾里","LIN":"30鄰","STREET":"自由路","SECT":"三段","MAREA":" ","LANE":" ","ALLEY":" ","HOUSE_NO":"１號八樓之１","E_COORD97":171803.92000000001,"N_COORD97":2541850.02,"ADDRESS":"自由路三段１號八樓之１","OBJECTID":357337},"geometry":{"x":171803.91999999993,"y":2541850.0199999996}},{"attributes":{"ID":357347,"DIS_CODE":0,"TOWNNAME":"東區","LI":"虎尾里","LIN":"30鄰","STREET":"自由路","SECT":"三段","MAREA":" ","LANE":" ","ALLEY":" ","HOUSE_NO":"１號十一樓","E_COORD97":171803.92000000001,"N_COORD97":2541850.02,"ADDRESS":"自由路三段１號十一樓","OBJECTID":357338},"geometry":{"x":171803.91999999993,"y":2541850.0199999996}},{"attributes":{"ID":357348,"DIS_CODE":0,"TOWNNAME":"東區","LI":"虎尾里","LIN":"30鄰","STREET":"自由路","SECT":"三段","MAREA":" ","LANE":" ","ALLEY":" ","HOUSE_NO":"１號十一樓之１","E_COORD97":171803.92000000001,"N_COORD97":2541850.02,"ADDRESS":"自由路三段１號十一樓之１","OBJECTID":357339},"geometry":{"x":171803.91999999993,"y":2541850.0199999996}},{"attributes":{"ID":357349,"DIS_CODE":0,"TOWNNAME":"東區","LI":"虎尾里","LIN":"30鄰","STREET":"自由路","SECT":"三段","MAREA":" ","LANE":" ","ALLEY":" ","HOUSE_NO":"１號十二樓","E_COORD97":171803.92000000001,"N_COORD97":2541850.02,"ADDRESS":"自由路三段１號十二樓","OBJECTID":357340},"geometry":{"x":171803.91999999993,"y":2541850.0199999996}},{"attributes":{"ID":357350,"DIS_CODE":0,"TOWNNAME":"東區","LI":"虎尾里","LIN":"30鄰","STREET":"自由路","SECT":"三段","MAREA":" ","LANE":" ","ALLEY":" ","HOUSE_NO":"１號十二樓之１","E_COORD97":171803.92000000001,"N_COORD97":2541850.02,"ADDRESS":"自由路三段１號十二樓之１","OBJECTID":357341},"geometry":{"x":171803.91999999993,"y":2541850.0199999996}},{"attributes":{"ID":357351,"DIS_CODE":0,"TOWNNAME":"東區","LI":"虎尾里","LIN":"30鄰","STREET":"自由路","SECT":"三段","MAREA":" ","LANE":" ","ALLEY":" ","HOUSE_NO":"１號十三樓","E_COORD97":171803.92000000001,"N_COORD97":2541850.02,"ADDRESS":"自由路三段１號十三樓","OBJECTID":357342},"geometry":{"x":171803.91999999993,"y":2541850.0199999996}},{"attributes":{"ID":357352,"DIS_CODE":0,"TOWNNAME":"東區","LI":"虎尾里","LIN":"30鄰","STREET":"自由路","SECT":"三段","MAREA":" ","LANE":" ","ALLEY":" ","HOUSE_NO":"１號十三樓之１","E_COORD97":171803.92000000001,"N_COORD97":2541850.02,"ADDRESS":"自由路三段１號十三樓之１","OBJECTID":357343},"geometry":{"x":171803.91999999993,"y":2541850.0199999996}},{"attributes":{"ID":357353,"DIS_CODE":0,"TOWNNAME":"東區","LI":"虎尾里","LIN":"30鄰","STREET":"自由路","SECT":"三段","MAREA":" ","LANE":" ","ALLEY":" ","HOUSE_NO":"１號十樓","E_COORD97":171803.92000000001,"N_COORD97":2541850.02,"ADDRESS":"自由路三段１號十樓","OBJECTID":357344},"geometry":{"x":171803.91999999993,"y":2541850.0199999996}},{"attributes":{"ID":357354,"DIS_CODE":0,"TOWNNAME":"東區","LI":"虎尾里","LIN":"30鄰","STREET":"自由路","SECT":"三段","MAREA":" ","LANE":" ","ALLEY":" ","HOUSE_NO":"１號十樓之１","E_COORD97":171803.92000000001,"N_COORD97":2541850.02,"ADDRESS":"自由路三段１號十樓之１","OBJECTID":357345},"geometry":{"x":171803.91999999993,"y":2541850.0199999996}},{"attributes":{"ID":357355,"DIS_CODE":0,"TOWNNAME":"東區","LI":"虎尾里","LIN":"30鄰","STREET":"自由路","SECT":"三段","MAREA":" ","LANE":" ","ALLEY":" ","HOUSE_NO":"１號三樓","E_COORD97":171803.92000000001,"N_COORD97":2541850.02,"ADDRESS":"自由路三段１號三樓","OBJECTID":357346},"geometry":{"x":171803.91999999993,"y":2541850.0199999996}},{"attributes":{"ID":357356,"DIS_CODE":0,"TOWNNAME":"東區","LI":"虎尾里","LIN":"30鄰","STREET":"自由路","SECT":"三段","MAREA":" ","LANE":" ","ALLEY":" ","HOUSE_NO":"１號三樓之１","E_COORD97":171803.92000000001,"N_COORD97":2541850.02,"ADDRESS":"自由路三段１號三樓之１","OBJECTID":357347},"geometry":{"x":171803.91999999993,"y":2541850.0199999996}},{"attributes":{"ID":357357,"DIS_CODE":0,"TOWNNAME":"東區","LI":"虎尾里","LIN":"30鄰","STREET":"自由路","SECT":"三段","MAREA":" ","LANE":" ","ALLEY":" ","HOUSE_NO":"１號五樓","E_COORD97":171803.92000000001,"N_COORD97":2541850.02,"ADDRESS":"自由路三段１號五樓","OBJECTID":357348},"geometry":{"x":171803.91999999993,"y":2541850.0199999996}},{"attributes":{"ID":357358,"DIS_CODE":0,"TOWNNAME":"東區","LI":"自強里","LIN":"8鄰","STREET":"東門路","SECT":"三段","MAREA":" ","LANE":" ","ALLEY":" ","HOUSE_NO":"１５號十八樓之１","E_COORD97":171070.75,"N_COORD97":2542365.1800000002,"ADDRESS":"東門路三段１５號十八樓之１","OBJECTID":357349},"geometry":{"x":171070.75,"y":2542365.1800000016}},{"attributes":{"ID":357359,"DIS_CODE":0,"TOWNNAME":"東區","LI":"自強里","LIN":"8鄰","STREET":"東門路","SECT":"三段","MAREA":" ","LANE":" ","ALLEY":" ","HOUSE_NO":"１５號十八樓之２","E_COORD97":171070.75,"N_COORD97":2542365.1800000002,"ADDRESS":"東門路三段１５號十八樓之２","OBJECTID":357350},"geometry":{"x":171070.75,"y":2542365.1800000016}},{"attributes":{"ID":357360,"DIS_CODE":0,"TOWNNAME":"西港區","LI":"慶安里","LIN":"26鄰","STREET":"新興街","SECT":" ","MAREA":" ","LANE":"１２巷","ALLEY":" ","HOUSE_NO":"８號","E_COORD97":168262.81,"N_COORD97":2557752.1099999999,"ADDRESS":"新興街１２巷８號","OBJECTID":357351},"geometry":{"x":168262.80999999959,"y":2557752.1100000013}},{"attributes":{"ID":357361,"DIS_CODE":0,"TOWNNAME":"西港區","LI":"慶安里","LIN":"26鄰","STREET":"新興街","SECT":" ","MAREA":" ","LANE":"１２巷","ALLEY":" ","HOUSE_NO":"９號","E_COORD97":168258.57999999999,"N_COORD97":2557752.46,"ADDRESS":"新興街１２巷９號","OBJECTID":357352},"geometry":{"x":168258.58000000194,"y":2557752.4600000009}},{"attributes":{"ID":357362,"DIS_CODE":0,"TOWNNAME":"永康區","LI":"西勢里","LIN":"26鄰","STREET":"廣興街","SECT":" ","MAREA":" ","LANE":"２６巷","ALLEY":" ","HOUSE_NO":"２１號","E_COORD97":175944.92000000001,"N_COORD97":2546456.9900000002,"ADDRESS":"廣興街２６巷２１號","OBJECTID":357353},"geometry":{"x":175944.91999999993,"y":2546456.9900000021}},{"attributes":{"ID":357363,"DIS_CODE":0,"TOWNNAME":"西港區","LI":"慶安里","LIN":"26鄰","STREET":"慶安路","SECT":" ","MAREA":" ","LANE":"５９巷","ALLEY":" ","HOUSE_NO":"２４號","E_COORD97":168231.23000000001,"N_COORD97":2557838.6499999999,"ADDRESS":"慶安路５９巷２４號","OBJECTID":357354},"geometry":{"x":168231.23000000138,"y":2557838.6500000004}},{"attributes":{"ID":357364,"DIS_CODE":0,"TOWNNAME":"西港區","LI":"慶安里","LIN":"26鄰","STREET":"慶安路","SECT":" ","MAREA":" ","LANE":"５９巷","ALLEY":" ","HOUSE_NO":"２６號","E_COORD97":168235,"N_COORD97":2557839.2200000002,"ADDRESS":"慶安路５９巷２６號","OBJECTID":357355},"geometry":{"x":168235,"y":2557839.2200000044}},{"attributes":{"ID":357365,"DIS_CODE":0,"TOWNNAME":"西港區","LI":"慶安里","LIN":"26鄰","STREET":"慶安路","SECT":" ","MAREA":" ","LANE":"５９巷","ALLEY":" ","HOUSE_NO":"２８號","E_COORD97":168238.98999999999,"N_COORD97":2557839.5099999998,"ADDRESS":"慶安路５９巷２８號","OBJECTID":357356},"geometry":{"x":168238.99000000209,"y":2557839.5099999979}},{"attributes":{"ID":357366,"DIS_CODE":0,"TOWNNAME":"西港區","LI":"慶安里","LIN":"26鄰","STREET":"慶安路","SECT":" ","MAREA":" ","LANE":"５９巷","ALLEY":" ","HOUSE_NO":"３０號","E_COORD97":168243.22,"N_COORD97":2557839.98,"ADDRESS":"慶安路５９巷３０號","OBJECTID":357357},"geometry":{"x":168243.21999999974,"y":2557839.9800000004}},{"attributes":{"ID":357367,"DIS_CODE":0,"TOWNNAME":"西港區","LI":"慶安里","LIN":"26鄰","STREET":"慶安路","SECT":" ","MAREA":" ","LANE":"５９巷","ALLEY":" ","HOUSE_NO":"３２號","E_COORD97":168247.54000000001,"N_COORD97":2557840.1699999999,"ADDRESS":"慶安路５９巷３２號","OBJECTID":357358},"geometry":{"x":168247.54000000097,"y":2557840.1700000018}},{"attributes":{"ID":357368,"DIS_CODE":0,"TOWNNAME":"西港區","LI":"慶安里","LIN":"26鄰","STREET":"慶安路","SECT":" ","MAREA":" ","LANE":"５９巷","ALLEY":" ","HOUSE_NO":"３４號","E_COORD97":168251.53,"N_COORD97":2557840.4500000002,"ADDRESS":"慶安路５９巷３４號","OBJECTID":357359},"geometry":{"x":168251.53000000026,"y":2557840.4500000011}},{"attributes":{"ID":357369,"DIS_CODE":0,"TOWNNAME":"東區","LI":"虎尾里","LIN":"30鄰","STREET":"自由路","SECT":"三段","MAREA":" ","LANE":" ","ALLEY":" ","HOUSE_NO":"１號五樓之１","E_COORD97":171803.92000000001,"N_COORD97":2541850.02,"ADDRESS":"自由路三段１號五樓之１","OBJECTID":357360},"geometry":{"x":171803.91999999993,"y":2541850.0199999996}},{"attributes":{"ID":357370,"DIS_CODE":0,"TOWNNAME":"永康區","LI":"埔園里","LIN":"35鄰","STREET":"八德街","SECT":" ","MAREA":" ","LANE":"８７巷","ALLEY":" ","HOUSE_NO":"７號","E_COORD97":174147.81,"N_COORD97":2548494.02,"ADDRESS":"八德街８７巷７號","OBJECTID":357361},"geometry":{"x":174147.81000000052,"y":2548494.0199999996}},{"attributes":{"ID":357371,"DIS_CODE":0,"TOWNNAME":"東區","LI":"虎尾里","LIN":"30鄰","STREET":"自由路","SECT":"三段","MAREA":" ","LANE":" ","ALLEY":" ","HOUSE_NO":"１號六樓","E_COORD97":171803.92000000001,"N_COORD97":2541850.02,"ADDRESS":"自由路三段１號六樓","OBJECTID":357362},"geometry":{"x":171803.91999999993,"y":2541850.0199999996}},{"attributes":{"ID":357372,"DIS_CODE":0,"TOWNNAME":"東區","LI":"虎尾里","LIN":"30鄰","STREET":"自由路","SECT":"三段","MAREA":" ","LANE":" ","ALLEY":" ","HOUSE_NO":"１號六樓之１","E_COORD97":171803.92000000001,"N_COORD97":2541850.02,"ADDRESS":"自由路三段１號六樓之１","OBJECTID":357363},"geometry":{"x":171803.91999999993,"y":2541850.0199999996}},{"attributes":{"ID":357373,"DIS_CODE":0,"TOWNNAME":"東區","LI":"虎尾里","LIN":"30鄰","STREET":"自由路","SECT":"三段","MAREA":" ","LANE":" ","ALLEY":" ","HOUSE_NO":"１號四樓","E_COORD97":171803.92000000001,"N_COORD97":2541850.02,"ADDRESS":"自由路三段１號四樓","OBJECTID":357364},"geometry":{"x":171803.91999999993,"y":2541850.0199999996}},{"attributes":{"ID":357374,"DIS_CODE":0,"TOWNNAME":"東區","LI":"自強里","LIN":"8鄰","STREET":"東門路","SECT":"三段","MAREA":" ","LANE":" ","ALLEY":" ","HOUSE_NO":"１５號十八樓之３","E_COORD97":171070.75,"N_COORD97":2542365.1800000002,"ADDRESS":"東門路三段１５號十八樓之３","OBJECTID":357365},"geometry":{"x":171070.75,"y":2542365.1800000016}},{"attributes":{"ID":357375,"DIS_CODE":0,"TOWNNAME":"東區","LI":"自強里","LIN":"8鄰","STREET":"東門路","SECT":"三段","MAREA":" ","LANE":" ","ALLEY":" ","HOUSE_NO":"１５號十三樓","E_COORD97":171070.75,"N_COORD97":2542365.1800000002,"ADDRESS":"東門路三段１５號十三樓","OBJECTID":357366},"geometry":{"x":171070.75,"y":2542365.1800000016}},{"attributes":{"ID":357376,"DIS_CODE":0,"TOWNNAME":"東區","LI":"自強里","LIN":"8鄰","STREET":"東門路","SECT":"三段","MAREA":" ","LANE":" ","ALLEY":" ","HOUSE_NO":"１５號十三樓之１","E_COORD97":171070.75,"N_COORD97":2542365.1800000002,"ADDRESS":"東門路三段１５號十三樓之１","OBJECTID":357367},"geometry":{"x":171070.75,"y":2542365.1800000016}},{"attributes":{"ID":357377,"DIS_CODE":0,"TOWNNAME":"東區","LI":"自強里","LIN":"8鄰","STREET":"東門路","SECT":"三段","MAREA":" ","LANE":" ","ALLEY":" ","HOUSE_NO":"１５號十三樓之２","E_COORD97":171070.75,"N_COORD97":2542365.1800000002,"ADDRESS":"東門路三段１５號十三樓之２","OBJECTID":357368},"geometry":{"x":171070.75,"y":2542365.1800000016}},{"attributes":{"ID":357378,"DIS_CODE":0,"TOWNNAME":"東區","LI":"自強里","LIN":"8鄰","STREET":"東門路","SECT":"三段","MAREA":" ","LANE":" ","ALLEY":" ","HOUSE_NO":"１５號十三樓之３","E_COORD97":171070.75,"N_COORD97":2542365.1800000002,"ADDRESS":"東門路三段１５號十三樓之３","OBJECTID":357369},"geometry":{"x":171070.75,"y":2542365.1800000016}},{"attributes":{"ID":357379,"DIS_CODE":0,"TOWNNAME":"東區","LI":"自強里","LIN":"8鄰","STREET":"東門路","SECT":"三段","MAREA":" ","LANE":" ","ALLEY":" ","HOUSE_NO":"１５號十五樓","E_COORD97":171070.75,"N_COORD97":2542365.1800000002,"ADDRESS":"東門路三段１５號十五樓","OBJECTID":357370},"geometry":{"x":171070.75,"y":2542365.1800000016}},{"attributes":{"ID":357380,"DIS_CODE":0,"TOWNNAME":"東區","LI":"自強里","LIN":"8鄰","STREET":"東門路","SECT":"三段","MAREA":" ","LANE":" ","ALLEY":" ","HOUSE_NO":"１５號十五樓之１","E_COORD97":171070.75,"N_COORD97":2542365.1800000002,"ADDRESS":"東門路三段１５號十五樓之１","OBJECTID":357371},"geometry":{"x":171070.75,"y":2542365.1800000016}},{"attributes":{"ID":357381,"DIS_CODE":0,"TOWNNAME":"東區","LI":"自強里","LIN":"8鄰","STREET":"東門路","SECT":"三段","MAREA":" ","LANE":" ","ALLEY":" ","HOUSE_NO":"１５號十五樓之２","E_COORD97":171070.75,"N_COORD97":2542365.1800000002,"ADDRESS":"東門路三段１５號十五樓之２","OBJECTID":357372},"geometry":{"x":171070.75,"y":2542365.1800000016}},{"attributes":{"ID":357382,"DIS_CODE":0,"TOWNNAME":"官田區","LI":"官田里","LIN":"26鄰","STREET":" ","SECT":" ","MAREA":"官田","LANE":" ","ALLEY":" ","HOUSE_NO":"４０２號","E_COORD97":182479.10000000001,"N_COORD97":2565408.04,"ADDRESS":"官田４０２號","OBJECTID":357373},"geometry":{"x":182479.10000000056,"y":2565408.0399999991}},{"attributes":{"ID":357383,"DIS_CODE":0,"TOWNNAME":"東區","LI":"中西里","LIN":"26鄰","STREET":"東寧路","SECT":" ","MAREA":" ","LANE":"１２０巷","ALLEY":" ","HOUSE_NO":"２９號","E_COORD97":170295.73999999999,"N_COORD97":2543532.5800000001,"ADDRESS":"東寧路１２０巷２９號","OBJECTID":357374},"geometry":{"x":170295.74000000115,"y":2543532.5800000019}},{"attributes":{"ID":357384,"DIS_CODE":0,"TOWNNAME":"東區","LI":"中西里","LIN":"26鄰","STREET":"東寧路","SECT":" ","MAREA":" ","LANE":"１２０巷","ALLEY":" ","HOUSE_NO":"３１號","E_COORD97":170285.60999999999,"N_COORD97":2543531.1899999999,"ADDRESS":"東寧路１２０巷３１號","OBJECTID":357375},"geometry":{"x":170285.61000000034,"y":2543531.1900000013}},{"attributes":{"ID":357385,"DIS_CODE":0,"TOWNNAME":"東區","LI":"中西里","LIN":"26鄰","STREET":"東寧路","SECT":" ","MAREA":" ","LANE":"１２０巷","ALLEY":" ","HOUSE_NO":"３３號","E_COORD97":170271.29999999999,"N_COORD97":2543530.8399999999,"ADDRESS":"東寧路１２０巷３３號","OBJECTID":357376},"geometry":{"x":170271.30000000075,"y":2543530.8400000017}},{"attributes":{"ID":357386,"DIS_CODE":0,"TOWNNAME":"東區","LI":"中西里","LIN":"26鄰","STREET":"東寧路","SECT":" ","MAREA":" ","LANE":"１２０巷","ALLEY":" ","HOUSE_NO":"４１號","E_COORD97":170244.44,"N_COORD97":2543495.96,"ADDRESS":"東寧路１２０巷４１號","OBJECTID":357377},"geometry":{"x":170244.44000000041,"y":2543495.9600000009}},{"attributes":{"ID":357387,"DIS_CODE":0,"TOWNNAME":"東區","LI":"中西里","LIN":"26鄰","STREET":"東寧路","SECT":" ","MAREA":" ","LANE":"１２０巷","ALLEY":" ","HOUSE_NO":"５３號","E_COORD97":170295.59,"N_COORD97":2543506.9500000002,"ADDRESS":"東寧路１２０巷５３號","OBJECTID":357378},"geometry":{"x":170295.58999999985,"y":2543506.9499999993}},{"attributes":{"ID":357388,"DIS_CODE":0,"TOWNNAME":"東區","LI":"虎尾里","LIN":"30鄰","STREET":"自由路","SECT":"三段","MAREA":" ","LANE":" ","ALLEY":" ","HOUSE_NO":"１號四樓之１","E_COORD97":171803.92000000001,"N_COORD97":2541850.02,"ADDRESS":"自由路三段１號四樓之１","OBJECTID":357379},"geometry":{"x":171803.91999999993,"y":2541850.0199999996}},{"attributes":{"ID":357389,"DIS_CODE":0,"TOWNNAME":"永康區","LI":"埔園里","LIN":"38鄰","STREET":"龍國街","SECT":" ","MAREA":" ","LANE":"１９８巷","ALLEY":" ","HOUSE_NO":"２８號","E_COORD97":174322.44,"N_COORD97":2547978.0800000001,"ADDRESS":"龍國街１９８巷２８號","OBJECTID":357380},"geometry":{"x":174322.44000000134,"y":2547978.0800000019}},{"attributes":{"ID":357390,"DIS_CODE":0,"TOWNNAME":"永康區","LI":"崑山里","LIN":"39鄰","STREET":"崑山街","SECT":" ","MAREA":" ","LANE":"１７８巷","ALLEY":" ","HOUSE_NO":"１５號","E_COORD97":174131.39000000001,"N_COORD97":2544930.23,"ADDRESS":"崑山街１７８巷１５號","OBJECTID":357381},"geometry":{"x":174131.38999999966,"y":2544930.2300000004}},{"attributes":{"ID":357391,"DIS_CODE":0,"TOWNNAME":"永康區","LI":"東灣里","LIN":"10鄰","STREET":"立興街","SECT":" ","MAREA":" ","LANE":"２８巷","ALLEY":" ","HOUSE_NO":"２號","E_COORD97":174658.09,"N_COORD97":2544880.77,"ADDRESS":"立興街２８巷２號","OBJECTID":357382},"geometry":{"x":174658.09000000078,"y":2544880.7700000014}},{"attributes":{"ID":357392,"DIS_CODE":0,"TOWNNAME":"永康區","LI":"西灣里","LIN":"30鄰","STREET":"公園路","SECT":" ","MAREA":" ","LANE":"９３巷","ALLEY":" ","HOUSE_NO":"１７號二樓之２","E_COORD97":174263.29000000001,"N_COORD97":2545904.4199999999,"ADDRESS":"公園路９３巷１７號二樓之２","OBJECTID":357383},"geometry":{"x":174263.2900000019,"y":2545904.4200000018}},{"attributes":{"ID":357393,"DIS_CODE":0,"TOWNNAME":"永康區","LI":"西灣里","LIN":"30鄰","STREET":"公園路","SECT":" ","MAREA":" ","LANE":"９３巷","ALLEY":" ","HOUSE_NO":"１７號四樓之２","E_COORD97":174263.29000000001,"N_COORD97":2545904.4199999999,"ADDRESS":"公園路９３巷１７號四樓之２","OBJECTID":357384},"geometry":{"x":174263.2900000019,"y":2545904.4200000018}},{"attributes":{"ID":357394,"DIS_CODE":0,"TOWNNAME":"永康區","LI":"西灣里","LIN":"30鄰","STREET":"公園路","SECT":" ","MAREA":" ","LANE":"９３巷","ALLEY":" ","HOUSE_NO":"１７號五樓之１","E_COORD97":174263.14999999999,"N_COORD97":2545904.4199999999,"ADDRESS":"公園路９３巷１７號五樓之１","OBJECTID":357385},"geometry":{"x":174263.1500000013,"y":2545904.4200000018}},{"attributes":{"ID":357395,"DIS_CODE":0,"TOWNNAME":"永康區","LI":"西灣里","LIN":"30鄰","STREET":"公園路","SECT":" ","MAREA":" ","LANE":"９３巷","ALLEY":" ","HOUSE_NO":"１７號三樓之１","E_COORD97":174263.14999999999,"N_COORD97":2545904.4199999999,"ADDRESS":"公園路９３巷１７號三樓之１","OBJECTID":357386},"geometry":{"x":174263.1500000013,"y":2545904.4200000018}},{"attributes":{"ID":357396,"DIS_CODE":0,"TOWNNAME":"東區","LI":"自強里","LIN":"8鄰","STREET":"東門路","SECT":"三段","MAREA":" ","LANE":" ","ALLEY":" ","HOUSE_NO":"１５號十五樓之３","E_COORD97":171070.75,"N_COORD97":2542365.1800000002,"ADDRESS":"東門路三段１５號十五樓之３","OBJECTID":357387},"geometry":{"x":171070.75,"y":2542365.1800000016}},{"attributes":{"ID":357397,"DIS_CODE":0,"TOWNNAME":"東區","LI":"自強里","LIN":"8鄰","STREET":"東門路","SECT":"三段","MAREA":" ","LANE":" ","ALLEY":" ","HOUSE_NO":"１５號十六樓","E_COORD97":171070.75,"N_COORD97":2542365.1800000002,"ADDRESS":"東門路三段１５號十六樓","OBJECTID":357388},"geometry":{"x":171070.75,"y":2542365.1800000016}},{"attributes":{"ID":357398,"DIS_CODE":0,"TOWNNAME":"東區","LI":"自強里","LIN":"8鄰","STREET":"東門路","SECT":"三段","MAREA":" ","LANE":" ","ALLEY":" ","HOUSE_NO":"１５號十六樓之１","E_COORD97":171070.75,"N_COORD97":2542365.1800000002,"ADDRESS":"東門路三段１５號十六樓之１","OBJECTID":357389},"geometry":{"x":171070.75,"y":2542365.1800000016}},{"attributes":{"ID":357399,"DIS_CODE":0,"TOWNNAME":"東區","LI":"自強里","LIN":"8鄰","STREET":"東門路","SECT":"三段","MAREA":" ","LANE":" ","ALLEY":" ","HOUSE_NO":"１５號十六樓之２","E_COORD97":171070.75,"N_COORD97":2542365.1800000002,"ADDRESS":"東門路三段１５號十六樓之２","OBJECTID":357390},"geometry":{"x":171070.75,"y":2542365.1800000016}},{"attributes":{"ID":357400,"DIS_CODE":0,"TOWNNAME":"東區","LI":"自強里","LIN":"8鄰","STREET":"東門路","SECT":"三段","MAREA":" ","LANE":" ","ALLEY":" ","HOUSE_NO":"１５號十六樓之３","E_COORD97":171070.75,"N_COORD97":2542365.1800000002,"ADDRESS":"東門路三段１５號十六樓之３","OBJECTID":357391},"geometry":{"x":171070.75,"y":2542365.1800000016}},{"attributes":{"ID":357401,"DIS_CODE":0,"TOWNNAME":"東區","LI":"裕農里","LIN":"26鄰","STREET":"東寧路","SECT":" ","MAREA":" ","LANE":"５１０巷","ALLEY":" ","HOUSE_NO":"１０１號","E_COORD97":170977.45000000001,"N_COORD97":2543248.5099999998,"ADDRESS":"東寧路５１０巷１０１號","OBJECTID":357392},"geometry":{"x":170977.45000000112,"y":2543248.5100000016}},{"attributes":{"ID":357402,"DIS_CODE":0,"TOWNNAME":"東區","LI":"裕農里","LIN":"26鄰","STREET":"東寧路","SECT":" ","MAREA":" ","LANE":"５１０巷","ALLEY":" ","HOUSE_NO":"５５號","E_COORD97":171016.76000000001,"N_COORD97":2543258.7400000002,"ADDRESS":"東寧路５１０巷５５號","OBJECTID":357393},"geometry":{"x":171016.75999999885,"y":2543258.7400000002}},{"attributes":{"ID":357403,"DIS_CODE":0,"TOWNNAME":"東區","LI":"裕農里","LIN":"26鄰","STREET":"東寧路","SECT":" ","MAREA":" ","LANE":"５１０巷","ALLEY":" ","HOUSE_NO":"６５號","E_COORD97":171009.17000000001,"N_COORD97":2543240.6000000001,"ADDRESS":"東寧路５１０巷６５號","OBJECTID":357394},"geometry":{"x":171009.17000000179,"y":2543240.6000000015}},{"attributes":{"ID":357404,"DIS_CODE":0,"TOWNNAME":"東區","LI":"裕農里","LIN":"26鄰","STREET":"東寧路","SECT":" ","MAREA":" ","LANE":"５１０巷","ALLEY":" ","HOUSE_NO":"６７號","E_COORD97":171006.51999999999,"N_COORD97":2543253.1299999999,"ADDRESS":"東寧路５１０巷６７號","OBJECTID":357395},"geometry":{"x":171006.52000000048,"y":2543253.1300000008}},{"attributes":{"ID":357405,"DIS_CODE":0,"TOWNNAME":"東區","LI":"裕農里","LIN":"26鄰","STREET":"東寧路","SECT":" ","MAREA":" ","LANE":"５１０巷","ALLEY":" ","HOUSE_NO":"６９號","E_COORD97":171000.25,"N_COORD97":2543252.7999999998,"ADDRESS":"東寧路５１０巷６９號","OBJECTID":357396},"geometry":{"x":171000.25000000186,"y":2543252.8000000007}},{"attributes":{"ID":357406,"DIS_CODE":0,"TOWNNAME":"東區","LI":"裕農里","LIN":"26鄰","STREET":"東寧路","SECT":" ","MAREA":" ","LANE":"５１０巷","ALLEY":" ","HOUSE_NO":"７３號","E_COORD97":170989.35000000001,"N_COORD97":2543254.1200000001,"ADDRESS":"東寧路５１０巷７３號","OBJECTID":357397},"geometry":{"x":170989.35000000056,"y":2543254.120000001}},{"attributes":{"ID":357407,"DIS_CODE":0,"TOWNNAME":"東區","LI":"裕農里","LIN":"26鄰","STREET":"東寧路","SECT":" ","MAREA":" ","LANE":"５１０巷","ALLEY":" ","HOUSE_NO":"７５號","E_COORD97":170991.32999999999,"N_COORD97":2543247.8500000001,"ADDRESS":"東寧路５１０巷７５號","OBJECTID":357398},"geometry":{"x":170991.33000000194,"y":2543247.8499999996}},{"attributes":{"ID":357408,"DIS_CODE":0,"TOWNNAME":"東區","LI":"裕農里","LIN":"26鄰","STREET":"東寧路","SECT":" ","MAREA":" ","LANE":"５１０巷","ALLEY":" ","HOUSE_NO":"７７號","E_COORD97":170991.66,"N_COORD97":2543240.6000000001,"ADDRESS":"東寧路５１０巷７７號","OBJECTID":357399},"geometry":{"x":170991.66000000015,"y":2543240.6000000015}},{"attributes":{"ID":357409,"DIS_CODE":0,"TOWNNAME":"東區","LI":"裕農里","LIN":"26鄰","STREET":"東寧路","SECT":" ","MAREA":" ","LANE":"５１０巷","ALLEY":" ","HOUSE_NO":"７９號","E_COORD97":170993.31,"N_COORD97":2543238.29,"ADDRESS":"東寧路５１０巷７９號","OBJECTID":357400},"geometry":{"x":170993.31000000052,"y":2543238.2900000028}}]}