{"displayFieldName":"TOWNNAME","fieldAliases":{"ID":"ID","DIS_CODE":"DIS_CODE","TOWNNAME":"TOWNNAME","LI":"LI","LIN":"LIN","STREET":"STREET","SECT":"SECT","MAREA":"MAREA","LANE":"LANE","ALLEY":"ALLEY","HOUSE_NO":"HOUSE_NO","E_COORD97":"E_COORD97","N_COORD97":"N_COORD97","ADDRESS":"ADDRESS","OBJECTID":"OBJECTID"},"geometryType":"esriGeometryPoint","spatialReference":{"wkid":102443,"latestWkid":3826},"fields":[{"name":"ID","type":"esriFieldTypeDouble","alias":"ID"},{"name":"DIS_CODE","type":"esriFieldTypeInteger","alias":"DIS_CODE"},{"name":"TOWNNAME","type":"esriFieldTypeString","alias":"TOWNNAME","length":8},{"name":"LI","type":"esriFieldTypeString","alias":"LI","length":8},{"name":"LIN","type":"esriFieldTypeString","alias":"LIN","length":12},{"name":"STREET","type":"esriFieldTypeString","alias":"STREET","length":20},{"name":"SECT","type":"esriFieldTypeString","alias":"SECT","length":8},{"name":"MAREA","type":"esriFieldTypeString","alias":"MAREA","length":12},{"name":"LANE","type":"esriFieldTypeString","alias":"LANE","length":10},{"name":"ALLEY","type":"esriFieldTypeString","alias":"ALLEY","length":10},{"name":"HOUSE_NO","type":"esriFieldTypeString","alias":"HOUSE_NO","length":20},{"name":"E_COORD97","type":"esriFieldTypeDouble","alias":"E_COORD97"},{"name":"N_COORD97","type":"esriFieldTypeDouble","alias":"N_COORD97"},{"name":"ADDRESS","type":"esriFieldTypeString","alias":"ADDRESS","length":50},{"name":"OBJECTID","type":"esriFieldTypeOID","alias":"OBJECTID"}],"features":[{"attributes":{"ID":602228,"DIS_CODE":0,"TOWNNAME":"安南區","LI":"新順里","LIN":"22鄰","STREET":"育安一街","SECT":" ","MAREA":" ","LANE":" ","ALLEY":" ","HOUSE_NO":"２７號","E_COORD97":169300.16,"N_COORD97":2549827.25,"ADDRESS":"育安一街２７號","OBJECTID":602201},"geometry":{"x":169300.16000000015,"y":2549827.2500000019}},{"attributes":{"ID":602229,"DIS_CODE":0,"TOWNNAME":"安南區","LI":"新順里","LIN":"22鄰","STREET":"育安一街","SECT":" ","MAREA":" ","LANE":" ","ALLEY":" ","HOUSE_NO":"２９號","E_COORD97":169303.14999999999,"N_COORD97":2549829.9399999999,"ADDRESS":"育安一街２９號","OBJECTID":602202},"geometry":{"x":169303.1500000013,"y":2549829.9400000013}},{"attributes":{"ID":602230,"DIS_CODE":0,"TOWNNAME":"安南區","LI":"新順里","LIN":"22鄰","STREET":"育安一街","SECT":" ","MAREA":" ","LANE":" ","ALLEY":" ","HOUSE_NO":"３１號","E_COORD97":169306.63,"N_COORD97":2549832.8300000001,"ADDRESS":"育安一街３１號","OBJECTID":602203},"geometry":{"x":169306.62999999989,"y":2549832.8300000001}},{"attributes":{"ID":602231,"DIS_CODE":0,"TOWNNAME":"安南區","LI":"新順里","LIN":"22鄰","STREET":"育安一街","SECT":" ","MAREA":" ","LANE":" ","ALLEY":" ","HOUSE_NO":"３３號","E_COORD97":169310.38,"N_COORD97":2549835.02,"ADDRESS":"育安一街３３號","OBJECTID":602204},"geometry":{"x":169310.37999999989,"y":2549835.0200000033}},{"attributes":{"ID":602232,"DIS_CODE":0,"TOWNNAME":"安南區","LI":"新順里","LIN":"22鄰","STREET":"育安一街","SECT":" ","MAREA":" ","LANE":" ","ALLEY":" ","HOUSE_NO":"３５號","E_COORD97":169313.51000000001,"N_COORD97":2549838.1499999999,"ADDRESS":"育安一街３５號","OBJECTID":602205},"geometry":{"x":169313.51000000071,"y":2549838.1500000041}},{"attributes":{"ID":602233,"DIS_CODE":0,"TOWNNAME":"安南區","LI":"新順里","LIN":"22鄰","STREET":"培安二街","SECT":" ","MAREA":" ","LANE":" ","ALLEY":" ","HOUSE_NO":"３１號","E_COORD97":169387.04000000001,"N_COORD97":2549723,"ADDRESS":"培安二街３１號","OBJECTID":602206},"geometry":{"x":169387.04000000004,"y":2549723}},{"attributes":{"ID":602234,"DIS_CODE":0,"TOWNNAME":"安南區","LI":"新順里","LIN":"22鄰","STREET":"培安路","SECT":" ","MAREA":" ","LANE":" ","ALLEY":" ","HOUSE_NO":"３３號","E_COORD97":169240.32999999999,"N_COORD97":2549798.3300000001,"ADDRESS":"培安路３３號","OBJECTID":602207},"geometry":{"x":169240.33000000101,"y":2549798.3300000001}},{"attributes":{"ID":602235,"DIS_CODE":0,"TOWNNAME":"安南區","LI":"新順里","LIN":"22鄰","STREET":"培安路","SECT":" ","MAREA":" ","LANE":" ","ALLEY":" ","HOUSE_NO":"３７號","E_COORD97":169244.88,"N_COORD97":2549787.96,"ADDRESS":"培安路３７號","OBJECTID":602208},"geometry":{"x":169244.88000000082,"y":2549787.9600000009}},{"attributes":{"ID":602236,"DIS_CODE":0,"TOWNNAME":"新化區","LI":"東榮里","LIN":"22鄰","STREET":"中興路","SECT":" ","MAREA":" ","LANE":" ","ALLEY":" ","HOUSE_NO":"７６７號","E_COORD97":179314.41,"N_COORD97":2548223.25,"ADDRESS":"中興路７６７號","OBJECTID":602209},"geometry":{"x":179314.41000000108,"y":2548223.2500000037}},{"attributes":{"ID":602237,"DIS_CODE":0,"TOWNNAME":"新化區","LI":"東榮里","LIN":"22鄰","STREET":"復興路","SECT":" ","MAREA":" ","LANE":" ","ALLEY":" ","HOUSE_NO":"２３１號","E_COORD97":179371.32000000001,"N_COORD97":2548140.25,"ADDRESS":"復興路２３１號","OBJECTID":602210},"geometry":{"x":179371.32000000123,"y":2548140.25}},{"attributes":{"ID":602238,"DIS_CODE":0,"TOWNNAME":"新化區","LI":"東榮里","LIN":"22鄰","STREET":"復興路","SECT":" ","MAREA":" ","LANE":" ","ALLEY":" ","HOUSE_NO":"２３５號","E_COORD97":179368.01999999999,"N_COORD97":2548150.25,"ADDRESS":"復興路２３５號","OBJECTID":602211},"geometry":{"x":179368.01999999955,"y":2548150.2500000019}},{"attributes":{"ID":602239,"DIS_CODE":0,"TOWNNAME":"安南區","LI":"新順里","LIN":"22鄰","STREET":"培安路","SECT":" ","MAREA":" ","LANE":" ","ALLEY":" ","HOUSE_NO":"９１號","E_COORD97":169251.23999999999,"N_COORD97":2549583.1499999999,"ADDRESS":"培安路９１號","OBJECTID":602212},"geometry":{"x":169251.24000000115,"y":2549583.1500000004}},{"attributes":{"ID":602240,"DIS_CODE":0,"TOWNNAME":"安南區","LI":"新順里","LIN":"22鄰","STREET":"培安路","SECT":" ","MAREA":" ","LANE":" ","ALLEY":" ","HOUSE_NO":"９３號","E_COORD97":169249.97,"N_COORD97":2549580.1000000001,"ADDRESS":"培安路９３號","OBJECTID":602213},"geometry":{"x":169249.96999999974,"y":2549580.1000000034}},{"attributes":{"ID":602241,"DIS_CODE":0,"TOWNNAME":"白河區","LI":"白河里","LIN":"11鄰","STREET":"中正路","SECT":" ","MAREA":" ","LANE":" ","ALLEY":" ","HOUSE_NO":"２０號","E_COORD97":190283.73000000001,"N_COORD97":2583095.6699999999,"ADDRESS":"中正路２０號","OBJECTID":602214},"geometry":{"x":190283.73000000138,"y":2583095.6699999999}},{"attributes":{"ID":602242,"DIS_CODE":0,"TOWNNAME":"安南區","LI":"新順里","LIN":"22鄰","STREET":"培安路","SECT":" ","MAREA":" ","LANE":" ","ALLEY":" ","HOUSE_NO":"９５號","E_COORD97":169248.82999999999,"N_COORD97":2549576.7999999998,"ADDRESS":"培安路９５號","OBJECTID":602215},"geometry":{"x":169248.83000000101,"y":2549576.8000000026}},{"attributes":{"ID":602243,"DIS_CODE":0,"TOWNNAME":"安南區","LI":"新順里","LIN":"22鄰","STREET":"培安路","SECT":" ","MAREA":" ","LANE":" ","ALLEY":" ","HOUSE_NO":"９７號","E_COORD97":169248.07000000001,"N_COORD97":2549573.5,"ADDRESS":"培安路９７號","OBJECTID":602216},"geometry":{"x":169248.0700000003,"y":2549573.5}},{"attributes":{"ID":602244,"DIS_CODE":0,"TOWNNAME":"安南區","LI":"新順里","LIN":"22鄰","STREET":"培安路","SECT":" ","MAREA":" ","LANE":" ","ALLEY":" ","HOUSE_NO":"９９號","E_COORD97":169246.92000000001,"N_COORD97":2549569.9399999999,"ADDRESS":"培安路９９號","OBJECTID":602217},"geometry":{"x":169246.92000000086,"y":2549569.9399999995}},{"attributes":{"ID":602245,"DIS_CODE":0,"TOWNNAME":"安南區","LI":"新順里","LIN":"22鄰","STREET":"培安路","SECT":" ","MAREA":" ","LANE":" ","ALLEY":" ","HOUSE_NO":"１０１號","E_COORD97":169245.91,"N_COORD97":2549566.2599999998,"ADDRESS":"培安路１０１號","OBJECTID":602218},"geometry":{"x":169245.91000000015,"y":2549566.2600000016}},{"attributes":{"ID":602246,"DIS_CODE":0,"TOWNNAME":"安南區","LI":"海東里","LIN":"22鄰","STREET":"同安路","SECT":" ","MAREA":" ","LANE":" ","ALLEY":" ","HOUSE_NO":"３１號","E_COORD97":166875.5,"N_COORD97":2548900.4500000002,"ADDRESS":"同安路３１號","OBJECTID":602219},"geometry":{"x":166875.5,"y":2548900.4500000011}},{"attributes":{"ID":602247,"DIS_CODE":0,"TOWNNAME":"安南區","LI":"長安里","LIN":"22鄰","STREET":"公學路","SECT":"二段","MAREA":" ","LANE":" ","ALLEY":" ","HOUSE_NO":"１１之１號","E_COORD97":167831.54999999999,"N_COORD97":2552570.1699999999,"ADDRESS":"公學路二段１１之１號","OBJECTID":602220},"geometry":{"x":167831.55000000075,"y":2552570.1700000037}},{"attributes":{"ID":602248,"DIS_CODE":0,"TOWNNAME":"東區","LI":"關聖里","LIN":"22鄰","STREET":"裕文一街","SECT":" ","MAREA":" ","LANE":" ","ALLEY":" ","HOUSE_NO":"１１１號","E_COORD97":172715.98000000001,"N_COORD97":2542897.8500000001,"ADDRESS":"裕文一街１１１號","OBJECTID":602221},"geometry":{"x":172715.98000000045,"y":2542897.8499999996}},{"attributes":{"ID":602249,"DIS_CODE":0,"TOWNNAME":"東區","LI":"關聖里","LIN":"22鄰","STREET":"裕文一街","SECT":" ","MAREA":" ","LANE":" ","ALLEY":" ","HOUSE_NO":"１１３號","E_COORD97":172715.59,"N_COORD97":2542902.0899999999,"ADDRESS":"裕文一街１１３號","OBJECTID":602222},"geometry":{"x":172715.59000000078,"y":2542902.0900000017}},{"attributes":{"ID":602250,"DIS_CODE":0,"TOWNNAME":"東區","LI":"關聖里","LIN":"22鄰","STREET":"裕文一街","SECT":" ","MAREA":" ","LANE":" ","ALLEY":" ","HOUSE_NO":"１１５號","E_COORD97":172715.59,"N_COORD97":2542906.21,"ADDRESS":"裕文一街１１５號","OBJECTID":602223},"geometry":{"x":172715.59000000078,"y":2542906.2100000028}},{"attributes":{"ID":602251,"DIS_CODE":0,"TOWNNAME":"東區","LI":"關聖里","LIN":"22鄰","STREET":"裕文一街","SECT":" ","MAREA":" ","LANE":" ","ALLEY":" ","HOUSE_NO":"１１７號","E_COORD97":172715.59,"N_COORD97":2542910.71,"ADDRESS":"裕文一街１１７號","OBJECTID":602224},"geometry":{"x":172715.59000000078,"y":2542910.7100000009}},{"attributes":{"ID":602252,"DIS_CODE":0,"TOWNNAME":"東區","LI":"關聖里","LIN":"22鄰","STREET":"裕文一街","SECT":" ","MAREA":" ","LANE":" ","ALLEY":" ","HOUSE_NO":"１１９號","E_COORD97":172715.98000000001,"N_COORD97":2542914.9500000002,"ADDRESS":"裕文一街１１９號","OBJECTID":602225},"geometry":{"x":172715.98000000045,"y":2542914.9499999974}},{"attributes":{"ID":602253,"DIS_CODE":0,"TOWNNAME":"東區","LI":"關聖里","LIN":"22鄰","STREET":"裕文一街","SECT":" ","MAREA":" ","LANE":" ","ALLEY":" ","HOUSE_NO":"１２１號","E_COORD97":172715.59,"N_COORD97":2542919.0699999998,"ADDRESS":"裕文一街１２１號","OBJECTID":602226},"geometry":{"x":172715.59000000078,"y":2542919.070000004}},{"attributes":{"ID":602254,"DIS_CODE":0,"TOWNNAME":"東區","LI":"關聖里","LIN":"22鄰","STREET":"裕文一街","SECT":" ","MAREA":" ","LANE":" ","ALLEY":" ","HOUSE_NO":"１２３號","E_COORD97":172715.98000000001,"N_COORD97":2542923.5699999998,"ADDRESS":"裕文一街１２３號","OBJECTID":602227},"geometry":{"x":172715.98000000045,"y":2542923.5700000022}},{"attributes":{"ID":602255,"DIS_CODE":0,"TOWNNAME":"東區","LI":"關聖里","LIN":"22鄰","STREET":"裕文一街","SECT":" ","MAREA":" ","LANE":" ","ALLEY":" ","HOUSE_NO":"１２５號","E_COORD97":172715.98000000001,"N_COORD97":2542927.1699999999,"ADDRESS":"裕文一街１２５號","OBJECTID":602228},"geometry":{"x":172715.98000000045,"y":2542927.1699999999}},{"attributes":{"ID":602256,"DIS_CODE":0,"TOWNNAME":"東區","LI":"關聖里","LIN":"22鄰","STREET":"裕文一街","SECT":" ","MAREA":" ","LANE":" ","ALLEY":" ","HOUSE_NO":"１２７號","E_COORD97":172716.23000000001,"N_COORD97":2542932.3199999998,"ADDRESS":"裕文一街１２７號","OBJECTID":602229},"geometry":{"x":172716.22999999952,"y":2542932.3200000022}},{"attributes":{"ID":602257,"DIS_CODE":0,"TOWNNAME":"東區","LI":"關聖里","LIN":"22鄰","STREET":"裕文一街","SECT":" ","MAREA":" ","LANE":" ","ALLEY":" ","HOUSE_NO":"１２９號","E_COORD97":172715.85000000001,"N_COORD97":2542935.79,"ADDRESS":"裕文一街１２９號","OBJECTID":602230},"geometry":{"x":172715.84999999963,"y":2542935.7899999991}},{"attributes":{"ID":602258,"DIS_CODE":0,"TOWNNAME":"東區","LI":"關聖里","LIN":"22鄰","STREET":"裕文一街","SECT":" ","MAREA":" ","LANE":" ","ALLEY":" ","HOUSE_NO":"１３１號","E_COORD97":172715.85000000001,"N_COORD97":2542940.4199999999,"ADDRESS":"裕文一街１３１號","OBJECTID":602231},"geometry":{"x":172715.84999999963,"y":2542940.4200000018}},{"attributes":{"ID":602259,"DIS_CODE":0,"TOWNNAME":"東區","LI":"關聖里","LIN":"22鄰","STREET":"裕文一街","SECT":" ","MAREA":" ","LANE":" ","ALLEY":" ","HOUSE_NO":"１３３號","E_COORD97":172715.85000000001,"N_COORD97":2542945.1800000002,"ADDRESS":"裕文一街１３３號","OBJECTID":602232},"geometry":{"x":172715.84999999963,"y":2542945.1800000016}},{"attributes":{"ID":602260,"DIS_CODE":0,"TOWNNAME":"東區","LI":"關聖里","LIN":"22鄰","STREET":"裕和三街","SECT":" ","MAREA":" ","LANE":" ","ALLEY":" ","HOUSE_NO":"２３號","E_COORD97":172679.79999999999,"N_COORD97":2542998.2000000002,"ADDRESS":"裕和三街２３號","OBJECTID":602233},"geometry":{"x":172679.80000000075,"y":2542998.200000003}},{"attributes":{"ID":602261,"DIS_CODE":0,"TOWNNAME":"東區","LI":"關聖里","LIN":"22鄰","STREET":"裕和三街","SECT":" ","MAREA":" ","LANE":" ","ALLEY":" ","HOUSE_NO":"２５號","E_COORD97":172680.57999999999,"N_COORD97":2542992.5099999998,"ADDRESS":"裕和三街２５號","OBJECTID":602234},"geometry":{"x":172680.58000000007,"y":2542992.5099999998}},{"attributes":{"ID":602262,"DIS_CODE":0,"TOWNNAME":"東區","LI":"關聖里","LIN":"22鄰","STREET":"裕和三街","SECT":" ","MAREA":" ","LANE":" ","ALLEY":" ","HOUSE_NO":"４１號","E_COORD97":172678.64999999999,"N_COORD97":2542897.5899999999,"ADDRESS":"裕和三街４１號","OBJECTID":602235},"geometry":{"x":172678.6500000013,"y":2542897.5899999999}},{"attributes":{"ID":602263,"DIS_CODE":0,"TOWNNAME":"東區","LI":"關聖里","LIN":"22鄰","STREET":"裕和三街","SECT":" ","MAREA":" ","LANE":" ","ALLEY":" ","HOUSE_NO":"４５號","E_COORD97":172678.26000000001,"N_COORD97":2542905.9500000002,"ADDRESS":"裕和三街４５號","OBJECTID":602236},"geometry":{"x":172678.26000000164,"y":2542905.9500000011}},{"attributes":{"ID":602264,"DIS_CODE":0,"TOWNNAME":"東區","LI":"關聖里","LIN":"22鄰","STREET":"裕和三街","SECT":" ","MAREA":" ","LANE":" ","ALLEY":" ","HOUSE_NO":"４７號","E_COORD97":172678.64999999999,"N_COORD97":2542910.4500000002,"ADDRESS":"裕和三街４７號","OBJECTID":602237},"geometry":{"x":172678.6500000013,"y":2542910.4499999993}},{"attributes":{"ID":602265,"DIS_CODE":0,"TOWNNAME":"東區","LI":"關聖里","LIN":"22鄰","STREET":"裕和三街","SECT":" ","MAREA":" ","LANE":" ","ALLEY":" ","HOUSE_NO":"４９號","E_COORD97":172678.64999999999,"N_COORD97":2542914.3100000001,"ADDRESS":"裕和三街４９號","OBJECTID":602238},"geometry":{"x":172678.6500000013,"y":2542914.3100000042}},{"attributes":{"ID":602266,"DIS_CODE":0,"TOWNNAME":"東區","LI":"關聖里","LIN":"22鄰","STREET":"裕和三街","SECT":" ","MAREA":" ","LANE":" ","ALLEY":" ","HOUSE_NO":"５１號","E_COORD97":172678.64999999999,"N_COORD97":2542918.8100000001,"ADDRESS":"裕和三街５１號","OBJECTID":602239},"geometry":{"x":172678.6500000013,"y":2542918.8100000024}},{"attributes":{"ID":602267,"DIS_CODE":0,"TOWNNAME":"東區","LI":"關聖里","LIN":"22鄰","STREET":"裕和三街","SECT":" ","MAREA":" ","LANE":" ","ALLEY":" ","HOUSE_NO":"５９號","E_COORD97":172679.29000000001,"N_COORD97":2542936.4300000002,"ADDRESS":"裕和三街５９號","OBJECTID":602240},"geometry":{"x":172679.29000000004,"y":2542936.4300000016}},{"attributes":{"ID":602268,"DIS_CODE":0,"TOWNNAME":"東區","LI":"關聖里","LIN":"22鄰","STREET":"裕和三街","SECT":" ","MAREA":" ","LANE":" ","ALLEY":" ","HOUSE_NO":"６１號","E_COORD97":172679.29000000001,"N_COORD97":2542940.4199999999,"ADDRESS":"裕和三街６１號","OBJECTID":602241},"geometry":{"x":172679.29000000004,"y":2542940.4200000018}},{"attributes":{"ID":602269,"DIS_CODE":0,"TOWNNAME":"東區","LI":"關聖里","LIN":"22鄰","STREET":"裕和三街","SECT":" ","MAREA":" ","LANE":" ","ALLEY":" ","HOUSE_NO":"６３號","E_COORD97":172679.29000000001,"N_COORD97":2542944.79,"ADDRESS":"裕和三街６３號","OBJECTID":602242},"geometry":{"x":172679.29000000004,"y":2542944.790000001}},{"attributes":{"ID":602270,"DIS_CODE":0,"TOWNNAME":"東區","LI":"關聖里","LIN":"22鄰","STREET":"裕和三街","SECT":" ","MAREA":" ","LANE":" ","ALLEY":" ","HOUSE_NO":"６５號","E_COORD97":172696.67000000001,"N_COORD97":2542944.54,"ADDRESS":"裕和三街６５號","OBJECTID":602243},"geometry":{"x":172696.67000000086,"y":2542944.5399999991}},{"attributes":{"ID":602271,"DIS_CODE":0,"TOWNNAME":"東區","LI":"關聖里","LIN":"22鄰","STREET":"裕和三街","SECT":" ","MAREA":" ","LANE":" ","ALLEY":" ","HOUSE_NO":"６７號","E_COORD97":172697.57000000001,"N_COORD97":2542940.6800000002,"ADDRESS":"裕和三街６７號","OBJECTID":602244},"geometry":{"x":172697.57000000123,"y":2542940.6799999997}},{"attributes":{"ID":602272,"DIS_CODE":0,"TOWNNAME":"東區","LI":"關聖里","LIN":"22鄰","STREET":"裕和三街","SECT":" ","MAREA":" ","LANE":" ","ALLEY":" ","HOUSE_NO":"６９號","E_COORD97":172696.54000000001,"N_COORD97":2542936.4300000002,"ADDRESS":"裕和三街６９號","OBJECTID":602245},"geometry":{"x":172696.54000000004,"y":2542936.4300000016}},{"attributes":{"ID":602273,"DIS_CODE":0,"TOWNNAME":"東區","LI":"關聖里","LIN":"22鄰","STREET":"裕和三街","SECT":" ","MAREA":" ","LANE":" ","ALLEY":" ","HOUSE_NO":"７１號","E_COORD97":172696.92999999999,"N_COORD97":2542931.6699999999,"ADDRESS":"裕和三街７１號","OBJECTID":602246},"geometry":{"x":172696.9299999997,"y":2542931.6700000018}},{"attributes":{"ID":602274,"DIS_CODE":0,"TOWNNAME":"東區","LI":"關聖里","LIN":"22鄰","STREET":"裕和三街","SECT":" ","MAREA":" ","LANE":" ","ALLEY":" ","HOUSE_NO":"７３號","E_COORD97":172696.92999999999,"N_COORD97":2542927.1699999999,"ADDRESS":"裕和三街７３號","OBJECTID":602247},"geometry":{"x":172696.9299999997,"y":2542927.1699999999}},{"attributes":{"ID":602275,"DIS_CODE":0,"TOWNNAME":"東區","LI":"關聖里","LIN":"22鄰","STREET":"裕和三街","SECT":" ","MAREA":" ","LANE":" ","ALLEY":" ","HOUSE_NO":"７５號","E_COORD97":172696.92999999999,"N_COORD97":2542923.3100000001,"ADDRESS":"裕和三街７５號","OBJECTID":602248},"geometry":{"x":172696.9299999997,"y":2542923.3100000005}},{"attributes":{"ID":602276,"DIS_CODE":0,"TOWNNAME":"東區","LI":"關聖里","LIN":"22鄰","STREET":"裕和三街","SECT":" ","MAREA":" ","LANE":" ","ALLEY":" ","HOUSE_NO":"７７號","E_COORD97":172697.31,"N_COORD97":2542918.8100000001,"ADDRESS":"裕和三街７７號","OBJECTID":602249},"geometry":{"x":172697.30999999959,"y":2542918.8100000024}},{"attributes":{"ID":602277,"DIS_CODE":0,"TOWNNAME":"東區","LI":"關聖里","LIN":"22鄰","STREET":"裕和三街","SECT":" ","MAREA":" ","LANE":" ","ALLEY":" ","HOUSE_NO":"７８號","E_COORD97":172656.23000000001,"N_COORD97":2542971,"ADDRESS":"裕和三街７８號","OBJECTID":602250},"geometry":{"x":172656.23000000045,"y":2542971.0000000019}},{"attributes":{"ID":602278,"DIS_CODE":0,"TOWNNAME":"東區","LI":"關聖里","LIN":"22鄰","STREET":"裕和三街","SECT":" ","MAREA":" ","LANE":" ","ALLEY":" ","HOUSE_NO":"７９號","E_COORD97":172696.67000000001,"N_COORD97":2542914.5699999998,"ADDRESS":"裕和三街７９號","OBJECTID":602251},"geometry":{"x":172696.67000000086,"y":2542914.5700000003}},{"attributes":{"ID":602279,"DIS_CODE":0,"TOWNNAME":"東區","LI":"關聖里","LIN":"22鄰","STREET":"裕和三街","SECT":" ","MAREA":" ","LANE":" ","ALLEY":" ","HOUSE_NO":"８０號","E_COORD97":172650.64999999999,"N_COORD97":2542968.0699999998,"ADDRESS":"裕和三街８０號","OBJECTID":602252},"geometry":{"x":172650.65000000224,"y":2542968.0700000003}},{"attributes":{"ID":602280,"DIS_CODE":0,"TOWNNAME":"東區","LI":"關聖里","LIN":"22鄰","STREET":"裕和三街","SECT":" ","MAREA":" ","LANE":" ","ALLEY":" ","HOUSE_NO":"８１號","E_COORD97":172696.92999999999,"N_COORD97":2542910.0699999998,"ADDRESS":"裕和三街８１號","OBJECTID":602253},"geometry":{"x":172696.9299999997,"y":2542910.0700000022}},{"attributes":{"ID":602281,"DIS_CODE":0,"TOWNNAME":"東區","LI":"關聖里","LIN":"22鄰","STREET":"裕和三街","SECT":" ","MAREA":" ","LANE":" ","ALLEY":" ","HOUSE_NO":"８２號","E_COORD97":172645.07999999999,"N_COORD97":2542970.5600000001,"ADDRESS":"裕和三街８２號","OBJECTID":602254},"geometry":{"x":172645.08000000007,"y":2542970.5600000024}},{"attributes":{"ID":602282,"DIS_CODE":0,"TOWNNAME":"東區","LI":"關聖里","LIN":"22鄰","STREET":"裕和三街","SECT":" ","MAREA":" ","LANE":" ","ALLEY":" ","HOUSE_NO":"８３號","E_COORD97":172696.67000000001,"N_COORD97":2542906.3399999999,"ADDRESS":"裕和三街８３號","OBJECTID":602255},"geometry":{"x":172696.67000000086,"y":2542906.3400000036}},{"attributes":{"ID":602283,"DIS_CODE":0,"TOWNNAME":"東區","LI":"關聖里","LIN":"22鄰","STREET":"裕和三街","SECT":" ","MAREA":" ","LANE":" ","ALLEY":" ","HOUSE_NO":"８５號","E_COORD97":172695.25,"N_COORD97":2542901.71,"ADDRESS":"裕和三街８５號","OBJECTID":602256},"geometry":{"x":172695.24999999907,"y":2542901.7100000046}},{"attributes":{"ID":602284,"DIS_CODE":0,"TOWNNAME":"東區","LI":"關聖里","LIN":"22鄰","STREET":"裕和三街","SECT":" ","MAREA":" ","LANE":" ","ALLEY":" ","HOUSE_NO":"８６號","E_COORD97":172639.64999999999,"N_COORD97":2542968.0699999998,"ADDRESS":"裕和三街８６號","OBJECTID":602257},"geometry":{"x":172639.6500000013,"y":2542968.0700000003}},{"attributes":{"ID":602285,"DIS_CODE":0,"TOWNNAME":"東區","LI":"關聖里","LIN":"22鄰","STREET":"裕和三街","SECT":" ","MAREA":" ","LANE":" ","ALLEY":" ","HOUSE_NO":"８７號","E_COORD97":172696.01999999999,"N_COORD97":2542897.5899999999,"ADDRESS":"裕和三街８７號","OBJECTID":602258},"geometry":{"x":172696.01999999955,"y":2542897.5899999999}},{"attributes":{"ID":602286,"DIS_CODE":0,"TOWNNAME":"東區","LI":"關聖里","LIN":"22鄰","STREET":"裕和三街","SECT":" ","MAREA":" ","LANE":" ","ALLEY":" ","HOUSE_NO":"８８號","E_COORD97":172640.20999999999,"N_COORD97":2542947.5299999998,"ADDRESS":"裕和三街８８號","OBJECTID":602259},"geometry":{"x":172640.21000000089,"y":2542947.5299999993}},{"attributes":{"ID":602287,"DIS_CODE":0,"TOWNNAME":"東區","LI":"關聖里","LIN":"22鄰","STREET":"裕和三街","SECT":" ","MAREA":" ","LANE":" ","ALLEY":" ","HOUSE_NO":"９０號","E_COORD97":172645.41,"N_COORD97":2542951.5099999998,"ADDRESS":"裕和三街９０號","OBJECTID":602260},"geometry":{"x":172645.41000000201,"y":2542951.5099999998}},{"attributes":{"ID":602288,"DIS_CODE":0,"TOWNNAME":"東區","LI":"關聖里","LIN":"22鄰","STREET":"裕和三街","SECT":" ","MAREA":" ","LANE":" ","ALLEY":" ","HOUSE_NO":"９２號","E_COORD97":172650.91,"N_COORD97":2542947.5299999998,"ADDRESS":"裕和三街９２號","OBJECTID":602261},"geometry":{"x":172650.91000000108,"y":2542947.5299999993}},{"attributes":{"ID":602289,"DIS_CODE":0,"TOWNNAME":"東區","LI":"關聖里","LIN":"22鄰","STREET":"裕和三街","SECT":" ","MAREA":" ","LANE":" ","ALLEY":" ","HOUSE_NO":"９６號","E_COORD97":172655.5,"N_COORD97":2542951.5099999998,"ADDRESS":"裕和三街９６號","OBJECTID":602262},"geometry":{"x":172655.50000000093,"y":2542951.5099999998}},{"attributes":{"ID":602290,"DIS_CODE":0,"TOWNNAME":"安南區","LI":"海佃里","LIN":"22鄰","STREET":"海佃路","SECT":"一段","MAREA":" ","LANE":" ","ALLEY":" ","HOUSE_NO":"３４７號","E_COORD97":167053.64999999999,"N_COORD97":2547548.98,"ADDRESS":"海佃路一段３４７號","OBJECTID":602263},"geometry":{"x":167053.6500000013,"y":2547548.9800000023}},{"attributes":{"ID":602291,"DIS_CODE":0,"TOWNNAME":"安南區","LI":"海佃里","LIN":"22鄰","STREET":"海佃路","SECT":"一段","MAREA":" ","LANE":" ","ALLEY":" ","HOUSE_NO":"３５５號","E_COORD97":167052.32000000001,"N_COORD97":2547553.1699999999,"ADDRESS":"海佃路一段３５５號","OBJECTID":602264},"geometry":{"x":167052.32000000123,"y":2547553.1700000018}},{"attributes":{"ID":602292,"DIS_CODE":0,"TOWNNAME":"安南區","LI":"海佃里","LIN":"22鄰","STREET":"海佃路","SECT":"一段","MAREA":" ","LANE":" ","ALLEY":" ","HOUSE_NO":"３２９之１號","E_COORD97":167013.64000000001,"N_COORD97":2547414.7000000002,"ADDRESS":"海佃路一段３２９之１號","OBJECTID":602265},"geometry":{"x":167013.6400000006,"y":2547414.6999999993}},{"attributes":{"ID":602293,"DIS_CODE":0,"TOWNNAME":"仁德區","LI":"後壁里","LIN":"22鄰","STREET":"中正路","SECT":"二段","MAREA":" ","LANE":" ","ALLEY":" ","HOUSE_NO":"１３９號","E_COORD97":173189.09,"N_COORD97":2538591.27,"ADDRESS":"中正路二段１３９號","OBJECTID":602266},"geometry":{"x":173189.08999999985,"y":2538591.2700000014}},{"attributes":{"ID":602294,"DIS_CODE":0,"TOWNNAME":"仁德區","LI":"仁義里","LIN":"22鄰","STREET":"正義路","SECT":" ","MAREA":" ","LANE":" ","ALLEY":" ","HOUSE_NO":"１２０號","E_COORD97":173696.23000000001,"N_COORD97":2541413.7599999998,"ADDRESS":"正義路１２０號","OBJECTID":602267},"geometry":{"x":173696.23000000231,"y":2541413.7599999998}},{"attributes":{"ID":602295,"DIS_CODE":0,"TOWNNAME":"仁德區","LI":"後壁里","LIN":"22鄰","STREET":"中正路","SECT":"二段","MAREA":" ","LANE":" ","ALLEY":" ","HOUSE_NO":"１９９號","E_COORD97":173206.39999999999,"N_COORD97":2538728.52,"ADDRESS":"中正路二段１９９號","OBJECTID":602268},"geometry":{"x":173206.40000000037,"y":2538728.5200000014}},{"attributes":{"ID":602296,"DIS_CODE":0,"TOWNNAME":"仁德區","LI":"成功里","LIN":"22鄰","STREET":"保生路","SECT":" ","MAREA":" ","LANE":" ","ALLEY":" ","HOUSE_NO":"４５號","E_COORD97":170796.10000000001,"N_COORD97":2539773.9900000002,"ADDRESS":"保生路４５號","OBJECTID":602269},"geometry":{"x":170796.10000000056,"y":2539773.9900000021}},{"attributes":{"ID":602297,"DIS_CODE":0,"TOWNNAME":"仁德區","LI":"成功里","LIN":"22鄰","STREET":"保生路","SECT":" ","MAREA":" ","LANE":" ","ALLEY":" ","HOUSE_NO":"５５號","E_COORD97":170775.85000000001,"N_COORD97":2539776.75,"ADDRESS":"保生路５５號","OBJECTID":602270},"geometry":{"x":170775.85000000056,"y":2539776.75}},{"attributes":{"ID":602298,"DIS_CODE":0,"TOWNNAME":"仁德區","LI":"後壁里","LIN":"22鄰","STREET":"中正路","SECT":"二段","MAREA":" ","LANE":" ","ALLEY":" ","HOUSE_NO":"１６３號","E_COORD97":173199.39999999999,"N_COORD97":2538647.0299999998,"ADDRESS":"中正路二段１６３號","OBJECTID":602271},"geometry":{"x":173199.40000000037,"y":2538647.0300000012}},{"attributes":{"ID":602299,"DIS_CODE":0,"TOWNNAME":"仁德區","LI":"後壁里","LIN":"22鄰","STREET":"中正路","SECT":"二段","MAREA":" ","LANE":" ","ALLEY":" ","HOUSE_NO":"１５７號","E_COORD97":173177.76000000001,"N_COORD97":2538612.27,"ADDRESS":"中正路二段１５７號","OBJECTID":602272},"geometry":{"x":173177.75999999978,"y":2538612.2700000014}},{"attributes":{"ID":602300,"DIS_CODE":0,"TOWNNAME":"仁德區","LI":"成功里","LIN":"22鄰","STREET":"保生路","SECT":" ","MAREA":" ","LANE":" ","ALLEY":" ","HOUSE_NO":"３５號","E_COORD97":170817.97,"N_COORD97":2539770.9900000002,"ADDRESS":"保生路３５號","OBJECTID":602273},"geometry":{"x":170817.96999999974,"y":2539770.9900000021}},{"attributes":{"ID":602301,"DIS_CODE":0,"TOWNNAME":"仁德區","LI":"後壁里","LIN":"22鄰","STREET":"中正路","SECT":"二段","MAREA":" ","LANE":" ","ALLEY":" ","HOUSE_NO":"１３１號","E_COORD97":173182.34,"N_COORD97":2538572.0299999998,"ADDRESS":"中正路二段１３１號","OBJECTID":602274},"geometry":{"x":173182.33999999985,"y":2538572.0300000012}},{"attributes":{"ID":602302,"DIS_CODE":0,"TOWNNAME":"仁德區","LI":"仁義里","LIN":"22鄰","STREET":"中清一街","SECT":" ","MAREA":" ","LANE":" ","ALLEY":" ","HOUSE_NO":"４０號","E_COORD97":173647.76000000001,"N_COORD97":2541394.29,"ADDRESS":"中清一街４０號","OBJECTID":602275},"geometry":{"x":173647.76000000164,"y":2541394.290000001}},{"attributes":{"ID":602303,"DIS_CODE":0,"TOWNNAME":"仁德區","LI":"保安里","LIN":"22鄰","STREET":"文賢路","SECT":"一段","MAREA":" ","LANE":" ","ALLEY":" ","HOUSE_NO":"６８２號","E_COORD97":171230.95000000001,"N_COORD97":2536479.3300000001,"ADDRESS":"文賢路一段６８２號","OBJECTID":602276},"geometry":{"x":171230.95000000019,"y":2536479.3300000019}},{"attributes":{"ID":602304,"DIS_CODE":0,"TOWNNAME":"仁德區","LI":"仁義里","LIN":"22鄰","STREET":"中清路","SECT":" ","MAREA":" ","LANE":" ","ALLEY":" ","HOUSE_NO":"１０３號","E_COORD97":173707.44,"N_COORD97":2541354.2999999998,"ADDRESS":"中清路１０３號","OBJECTID":602277},"geometry":{"x":173707.44000000041,"y":2541354.3000000007}},{"attributes":{"ID":602305,"DIS_CODE":0,"TOWNNAME":"仁德區","LI":"土庫里","LIN":"22鄰","STREET":"太子二街","SECT":" ","MAREA":" ","LANE":" ","ALLEY":" ","HOUSE_NO":"５號","E_COORD97":174288.35999999999,"N_COORD97":2543480.25,"ADDRESS":"太子二街５號","OBJECTID":602278},"geometry":{"x":174288.3599999994,"y":2543480.2500000037}},{"attributes":{"ID":602306,"DIS_CODE":0,"TOWNNAME":"仁德區","LI":"上崙里","LIN":"22鄰","STREET":"德崙路","SECT":" ","MAREA":" ","LANE":" ","ALLEY":" ","HOUSE_NO":"２２４號","E_COORD97":173685.07000000001,"N_COORD97":2538254.27,"ADDRESS":"德崙路２２４號","OBJECTID":602279},"geometry":{"x":173685.0700000003,"y":2538254.2699999996}},{"attributes":{"ID":602307,"DIS_CODE":0,"TOWNNAME":"永康區","LI":"甲頂里","LIN":"22鄰","STREET":"中正南路","SECT":" ","MAREA":" ","LANE":" ","ALLEY":" ","HOUSE_NO":"３６號","E_COORD97":169667.91,"N_COORD97":2546694.2400000002,"ADDRESS":"中正南路３６號","OBJECTID":602280},"geometry":{"x":169667.91000000015,"y":2546694.2399999984}},{"attributes":{"ID":602308,"DIS_CODE":0,"TOWNNAME":"永康區","LI":"崑山里","LIN":"22鄰","STREET":"國光二街","SECT":" ","MAREA":" ","LANE":" ","ALLEY":" ","HOUSE_NO":"２９號","E_COORD97":174004.12,"N_COORD97":2544675.5699999998,"ADDRESS":"國光二街２９號","OBJECTID":602281},"geometry":{"x":174004.12000000104,"y":2544675.5700000022}},{"attributes":{"ID":602309,"DIS_CODE":0,"TOWNNAME":"永康區","LI":"永康里","LIN":"22鄰","STREET":"中山南路","SECT":" ","MAREA":" ","LANE":" ","ALLEY":" ","HOUSE_NO":"５１３號","E_COORD97":173155.38,"N_COORD97":2546975.4900000002,"ADDRESS":"中山南路５１３號","OBJECTID":602282},"geometry":{"x":173155.37999999896,"y":2546975.4900000021}},{"attributes":{"ID":602310,"DIS_CODE":0,"TOWNNAME":"永康區","LI":"崑山里","LIN":"22鄰","STREET":"國光一街","SECT":" ","MAREA":" ","LANE":" ","ALLEY":" ","HOUSE_NO":"３８號","E_COORD97":173949.57000000001,"N_COORD97":2544609.7400000002,"ADDRESS":"國光一街３８號","OBJECTID":602283},"geometry":{"x":173949.56999999937,"y":2544609.7400000021}},{"attributes":{"ID":602311,"DIS_CODE":0,"TOWNNAME":"永康區","LI":"安康里","LIN":"22鄰","STREET":"中華西街","SECT":" ","MAREA":" ","LANE":" ","ALLEY":" ","HOUSE_NO":"１３８號","E_COORD97":170697.5,"N_COORD97":2546172.3300000001,"ADDRESS":"中華西街１３８號","OBJECTID":602284},"geometry":{"x":170697.50000000093,"y":2546172.3300000019}},{"attributes":{"ID":602312,"DIS_CODE":0,"TOWNNAME":"永康區","LI":"大灣里","LIN":"22鄰","STREET":"大灣路","SECT":" ","MAREA":" ","LANE":" ","ALLEY":" ","HOUSE_NO":"２２１號","E_COORD97":174965.29000000001,"N_COORD97":2545293.98,"ADDRESS":"大灣路２２１號","OBJECTID":602285},"geometry":{"x":174965.29000000097,"y":2545293.9800000023}},{"attributes":{"ID":602313,"DIS_CODE":0,"TOWNNAME":"永康區","LI":"尚頂里","LIN":"22鄰","STREET":"大武街","SECT":" ","MAREA":" ","LANE":" ","ALLEY":" ","HOUSE_NO":"６０號","E_COORD97":170388.97,"N_COORD97":2546797.23,"ADDRESS":"大武街６０號","OBJECTID":602286},"geometry":{"x":170388.97000000067,"y":2546797.2300000023}},{"attributes":{"ID":602314,"DIS_CODE":0,"TOWNNAME":"永康區","LI":"西勢里","LIN":"22鄰","STREET":"富強路","SECT":"一段","MAREA":" ","LANE":" ","ALLEY":" ","HOUSE_NO":"２３２號之１","E_COORD97":175647.32999999999,"N_COORD97":2546435.0499999998,"ADDRESS":"富強路一段２３２號之１","OBJECTID":602287},"geometry":{"x":175647.33000000007,"y":2546435.0499999989}},{"attributes":{"ID":602315,"DIS_CODE":0,"TOWNNAME":"永康區","LI":"中興里","LIN":"22鄰","STREET":"中華路","SECT":" ","MAREA":" ","LANE":" ","ALLEY":" ","HOUSE_NO":"２０２號之２６","E_COORD97":171638.78,"N_COORD97":2545025.54,"ADDRESS":"中華路２０２號之２６","OBJECTID":602288},"geometry":{"x":171638.78000000026,"y":2545025.5399999991}},{"attributes":{"ID":602316,"DIS_CODE":0,"TOWNNAME":"永康區","LI":"尚頂里","LIN":"22鄰","STREET":"中華路","SECT":" ","MAREA":" ","LANE":" ","ALLEY":" ","HOUSE_NO":"９８２號","E_COORD97":170334.5,"N_COORD97":2546812.4900000002,"ADDRESS":"中華路９８２號","OBJECTID":602289},"geometry":{"x":170334.50000000093,"y":2546812.4900000021}},{"attributes":{"ID":602317,"DIS_CODE":0,"TOWNNAME":"永康區","LI":"崑山里","LIN":"22鄰","STREET":"國光二街","SECT":" ","MAREA":" ","LANE":" ","ALLEY":" ","HOUSE_NO":"３９號","E_COORD97":173983.94,"N_COORD97":2544683.5,"ADDRESS":"國光二街３９號","OBJECTID":602290},"geometry":{"x":173983.94000000041,"y":2544683.5000000019}},{"attributes":{"ID":602318,"DIS_CODE":0,"TOWNNAME":"南區","LI":"明興里","LIN":"22鄰","STREET":"永春街","SECT":" ","MAREA":" ","LANE":" ","ALLEY":" ","HOUSE_NO":"７號","E_COORD97":167087.29999999999,"N_COORD97":2540591.79,"ADDRESS":"永春街７號","OBJECTID":602291},"geometry":{"x":167087.30000000075,"y":2540591.790000001}},{"attributes":{"ID":602319,"DIS_CODE":0,"TOWNNAME":"南區","LI":"明興里","LIN":"22鄰","STREET":"永春街","SECT":" ","MAREA":" ","LANE":" ","ALLEY":" ","HOUSE_NO":"６１號","E_COORD97":167098.97,"N_COORD97":2540715.21,"ADDRESS":"永春街６１號","OBJECTID":602292},"geometry":{"x":167098.96999999974,"y":2540715.2100000028}},{"attributes":{"ID":602320,"DIS_CODE":0,"TOWNNAME":"南區","LI":"明興里","LIN":"22鄰","STREET":"永春街","SECT":" ","MAREA":" ","LANE":" ","ALLEY":" ","HOUSE_NO":"６３號","E_COORD97":167099.89999999999,"N_COORD97":2540719.2799999998,"ADDRESS":"永春街６３號","OBJECTID":602293},"geometry":{"x":167099.90000000037,"y":2540719.2800000031}},{"attributes":{"ID":602321,"DIS_CODE":0,"TOWNNAME":"南區","LI":"明興里","LIN":"22鄰","STREET":"永興一街","SECT":" ","MAREA":" ","LANE":" ","ALLEY":" ","HOUSE_NO":"４８號","E_COORD97":167128.31,"N_COORD97":2540736.4500000002,"ADDRESS":"永興一街４８號","OBJECTID":602294},"geometry":{"x":167128.31000000052,"y":2540736.4500000011}},{"attributes":{"ID":602322,"DIS_CODE":0,"TOWNNAME":"南區","LI":"明興里","LIN":"22鄰","STREET":"永興一街","SECT":" ","MAREA":" ","LANE":" ","ALLEY":" ","HOUSE_NO":"５０號","E_COORD97":167124.66,"N_COORD97":2540736.1899999999,"ADDRESS":"永興一街５０號","OBJECTID":602295},"geometry":{"x":167124.66000000108,"y":2540736.1899999995}},{"attributes":{"ID":602323,"DIS_CODE":0,"TOWNNAME":"南區","LI":"明興里","LIN":"22鄰","STREET":"永興一街","SECT":" ","MAREA":" ","LANE":" ","ALLEY":" ","HOUSE_NO":"５２號","E_COORD97":167120.07000000001,"N_COORD97":2540736.8700000001,"ADDRESS":"永興一街５２號","OBJECTID":602296},"geometry":{"x":167120.07000000123,"y":2540736.870000001}},{"attributes":{"ID":602324,"DIS_CODE":0,"TOWNNAME":"南區","LI":"明興里","LIN":"22鄰","STREET":"永興一街","SECT":" ","MAREA":" ","LANE":" ","ALLEY":" ","HOUSE_NO":"５４號","E_COORD97":167116.32999999999,"N_COORD97":2540737.04,"ADDRESS":"永興一街５４號","OBJECTID":602297},"geometry":{"x":167116.33000000101,"y":2540737.0399999991}},{"attributes":{"ID":602325,"DIS_CODE":0,"TOWNNAME":"南區","LI":"明興里","LIN":"22鄰","STREET":"永興一街","SECT":" ","MAREA":" ","LANE":" ","ALLEY":" ","HOUSE_NO":"５６號","E_COORD97":167111.48999999999,"N_COORD97":2540737.7200000002,"ADDRESS":"永興一街５６號","OBJECTID":602298},"geometry":{"x":167111.49000000022,"y":2540737.7200000007}},{"attributes":{"ID":602326,"DIS_CODE":0,"TOWNNAME":"西港區","LI":"慶安里","LIN":"22鄰","STREET":"中山路","SECT":" ","MAREA":" ","LANE":" ","ALLEY":" ","HOUSE_NO":"２５３號","E_COORD97":168397.79000000001,"N_COORD97":2557871.7799999998,"ADDRESS":"中山路２５３號","OBJECTID":602299},"geometry":{"x":168397.7900000019,"y":2557871.7800000012}},{"attributes":{"ID":602327,"DIS_CODE":0,"TOWNNAME":"西港區","LI":"慶安里","LIN":"22鄰","STREET":"中山路","SECT":" ","MAREA":" ","LANE":" ","ALLEY":" ","HOUSE_NO":"２５５號","E_COORD97":168396.76999999999,"N_COORD97":2557886.1800000002,"ADDRESS":"中山路２５５號","OBJECTID":602300},"geometry":{"x":168396.76999999955,"y":2557886.1800000034}},{"attributes":{"ID":602328,"DIS_CODE":0,"TOWNNAME":"西港區","LI":"慶安里","LIN":"22鄰","STREET":"中山路","SECT":" ","MAREA":" ","LANE":" ","ALLEY":" ","HOUSE_NO":"２５７號","E_COORD97":168397.45000000001,"N_COORD97":2557890.3799999999,"ADDRESS":"中山路２５７號","OBJECTID":602301},"geometry":{"x":168397.45000000112,"y":2557890.3799999971}},{"attributes":{"ID":602329,"DIS_CODE":0,"TOWNNAME":"西港區","LI":"慶安里","LIN":"22鄰","STREET":"中山路","SECT":" ","MAREA":" ","LANE":" ","ALLEY":" ","HOUSE_NO":"２５９號之１","E_COORD97":168393.63,"N_COORD97":2557898.0299999998,"ADDRESS":"中山路２５９號之１","OBJECTID":602302},"geometry":{"x":168393.63000000175,"y":2557898.0300000012}},{"attributes":{"ID":602330,"DIS_CODE":0,"TOWNNAME":"西港區","LI":"慶安里","LIN":"22鄰","STREET":"中山路","SECT":" ","MAREA":" ","LANE":" ","ALLEY":" ","HOUSE_NO":"２５９號","E_COORD97":168395.06,"N_COORD97":2557894.6600000001,"ADDRESS":"中山路２５９號","OBJECTID":602303},"geometry":{"x":168395.05999999959,"y":2557894.660000002}},{"attributes":{"ID":602331,"DIS_CODE":0,"TOWNNAME":"西港區","LI":"慶安里","LIN":"22鄰","STREET":"中山路","SECT":" ","MAREA":" ","LANE":" ","ALLEY":" ","HOUSE_NO":"２６１號","E_COORD97":168393.17999999999,"N_COORD97":2557903.21,"ADDRESS":"中山路２６１號","OBJECTID":602304},"geometry":{"x":168393.18000000156,"y":2557903.2100000009}},{"attributes":{"ID":602332,"DIS_CODE":0,"TOWNNAME":"西港區","LI":"慶安里","LIN":"22鄰","STREET":"中山路","SECT":" ","MAREA":" ","LANE":" ","ALLEY":" ","HOUSE_NO":"２６３號","E_COORD97":168388.42000000001,"N_COORD97":2557911.04,"ADDRESS":"中山路２６３號","OBJECTID":602305},"geometry":{"x":168388.42000000179,"y":2557911.040000001}},{"attributes":{"ID":602333,"DIS_CODE":0,"TOWNNAME":"安南區","LI":"海東里","LIN":" ","STREET":"海環街","SECT":" ","MAREA":" ","LANE":" ","ALLEY":" ","HOUSE_NO":"５４號","E_COORD97":166620.79999999999,"N_COORD97":2548839,"ADDRESS":"海環街５４號","OBJECTID":602306},"geometry":{"x":166620.79999999981,"y":2548839.0000000019}},{"attributes":{"ID":602334,"DIS_CODE":0,"TOWNNAME":"東區","LI":"中西里","LIN":"22鄰","STREET":"長榮路","SECT":"二段","MAREA":" ","LANE":" ","ALLEY":" ","HOUSE_NO":"１４２號","E_COORD97":170020.95999999999,"N_COORD97":2543296.3599999999,"ADDRESS":"長榮路二段１４２號","OBJECTID":602307},"geometry":{"x":170020.96000000089,"y":2543296.3600000013}},{"attributes":{"ID":602335,"DIS_CODE":0,"TOWNNAME":"東區","LI":"忠孝里","LIN":"22鄰","STREET":"崇明七街","SECT":" ","MAREA":" ","LANE":" ","ALLEY":" ","HOUSE_NO":"３３號","E_COORD97":169688.16,"N_COORD97":2542166.2599999998,"ADDRESS":"崇明七街３３號","OBJECTID":602308},"geometry":{"x":169688.16000000015,"y":2542166.2599999998}},{"attributes":{"ID":602336,"DIS_CODE":0,"TOWNNAME":"東區","LI":"東明里","LIN":"22鄰","STREET":"東安路","SECT":" ","MAREA":" ","LANE":" ","ALLEY":" ","HOUSE_NO":"３２號","E_COORD97":170690.42000000001,"N_COORD97":2543586.0699999998,"ADDRESS":"東安路３２號","OBJECTID":602309},"geometry":{"x":170690.42000000179,"y":2543586.0700000003}},{"attributes":{"ID":602337,"DIS_CODE":0,"TOWNNAME":"東區","LI":"關聖里","LIN":"22鄰","STREET":"裕和三街","SECT":" ","MAREA":" ","LANE":" ","ALLEY":" ","HOUSE_NO":"７２號","E_COORD97":172653.37,"N_COORD97":2542986.0699999998,"ADDRESS":"裕和三街７２號","OBJECTID":602310},"geometry":{"x":172653.37000000011,"y":2542986.0700000003}},{"attributes":{"ID":602338,"DIS_CODE":0,"TOWNNAME":"新市區","LI":"港墘里","LIN":"22鄰","STREET":"華美街","SECT":" ","MAREA":" ","LANE":" ","ALLEY":" ","HOUSE_NO":"１０之２號","E_COORD97":178131.54000000001,"N_COORD97":2552813.0499999998,"ADDRESS":"華美街１０之２號","OBJECTID":602311},"geometry":{"x":178131.53999999911,"y":2552813.0500000026}},{"attributes":{"ID":602339,"DIS_CODE":0,"TOWNNAME":"新市區","LI":"港墘里","LIN":"22鄰","STREET":"華美街","SECT":" ","MAREA":" ","LANE":" ","ALLEY":" ","HOUSE_NO":"２２號","E_COORD97":178139.54000000001,"N_COORD97":2552856.0499999998,"ADDRESS":"華美街２２號","OBJECTID":602312},"geometry":{"x":178139.54000000004,"y":2552856.0500000007}},{"attributes":{"ID":602340,"DIS_CODE":0,"TOWNNAME":"新市區","LI":"新市里","LIN":"22鄰","STREET":"自強街","SECT":" ","MAREA":" ","LANE":" ","ALLEY":" ","HOUSE_NO":"１６號","E_COORD97":177712.10000000001,"N_COORD97":2553526,"ADDRESS":"自強街１６號","OBJECTID":602313},"geometry":{"x":177712.10000000149,"y":2553526}},{"attributes":{"ID":602341,"DIS_CODE":0,"TOWNNAME":"新市區","LI":"新市里","LIN":"22鄰","STREET":"自強街","SECT":" ","MAREA":" ","LANE":" ","ALLEY":" ","HOUSE_NO":"２１號","E_COORD97":177678.29999999999,"N_COORD97":2553505.75,"ADDRESS":"自強街２１號","OBJECTID":602314},"geometry":{"x":177678.29999999981,"y":2553505.7500000019}},{"attributes":{"ID":602342,"DIS_CODE":0,"TOWNNAME":"新市區","LI":"新市里","LIN":"22鄰","STREET":"自強街","SECT":" ","MAREA":" ","LANE":" ","ALLEY":" ","HOUSE_NO":"２６號","E_COORD97":177687.5,"N_COORD97":2553520.25,"ADDRESS":"自強街２６號","OBJECTID":602315},"geometry":{"x":177687.5,"y":2553520.2500000019}},{"attributes":{"ID":602343,"DIS_CODE":0,"TOWNNAME":"新市區","LI":"新市里","LIN":"22鄰","STREET":"自強街","SECT":" ","MAREA":" ","LANE":" ","ALLEY":" ","HOUSE_NO":"２０號","E_COORD97":177704.10000000001,"N_COORD97":2553524.25,"ADDRESS":"自強街２０號","OBJECTID":602316},"geometry":{"x":177704.10000000056,"y":2553524.25}},{"attributes":{"ID":602344,"DIS_CODE":0,"TOWNNAME":"新市區","LI":"新市里","LIN":"22鄰","STREET":"自強街","SECT":" ","MAREA":" ","LANE":" ","ALLEY":" ","HOUSE_NO":"１８號","E_COORD97":177708.04999999999,"N_COORD97":2553525,"ADDRESS":"自強街１８號","OBJECTID":602317},"geometry":{"x":177708.05000000075,"y":2553525.0000000019}},{"attributes":{"ID":602345,"DIS_CODE":0,"TOWNNAME":"新市區","LI":"新市里","LIN":"22鄰","STREET":"自強街","SECT":" ","MAREA":" ","LANE":" ","ALLEY":" ","HOUSE_NO":"１１號","E_COORD97":177702.79999999999,"N_COORD97":2553511.25,"ADDRESS":"自強街１１號","OBJECTID":602318},"geometry":{"x":177702.80000000075,"y":2553511.25}},{"attributes":{"ID":602346,"DIS_CODE":0,"TOWNNAME":"新市區","LI":"新市里","LIN":"22鄰","STREET":"自強街","SECT":" ","MAREA":" ","LANE":" ","ALLEY":" ","HOUSE_NO":"９號","E_COORD97":177705.45999999999,"N_COORD97":2553512.25,"ADDRESS":"自強街９號","OBJECTID":602319},"geometry":{"x":177705.46000000089,"y":2553512.2500000037}},{"attributes":{"ID":602347,"DIS_CODE":0,"TOWNNAME":"新市區","LI":"新市里","LIN":"22鄰","STREET":"自強街","SECT":" ","MAREA":" ","LANE":" ","ALLEY":" ","HOUSE_NO":"２５號","E_COORD97":177670.29999999999,"N_COORD97":2553503.75,"ADDRESS":"自強街２５號","OBJECTID":602320},"geometry":{"x":177670.30000000168,"y":2553503.75}},{"attributes":{"ID":602348,"DIS_CODE":0,"TOWNNAME":"安南區","LI":"海佃里","LIN":"22鄰","STREET":"海佃路","SECT":"一段","MAREA":" ","LANE":" ","ALLEY":" ","HOUSE_NO":"４０３號","E_COORD97":167018.32000000001,"N_COORD97":2547646.4199999999,"ADDRESS":"海佃路一段４０３號","OBJECTID":602321},"geometry":{"x":167018.32000000123,"y":2547646.4200000018}},{"attributes":{"ID":602349,"DIS_CODE":0,"TOWNNAME":"安南區","LI":"海佃里","LIN":"22鄰","STREET":"海佃路","SECT":"一段","MAREA":" ","LANE":" ","ALLEY":" ","HOUSE_NO":"４０５號","E_COORD97":167014.98999999999,"N_COORD97":2547649.7400000002,"ADDRESS":"海佃路一段４０５號","OBJECTID":602322},"geometry":{"x":167014.98999999929,"y":2547649.7400000002}},{"attributes":{"ID":602350,"DIS_CODE":0,"TOWNNAME":"安南區","LI":"海佃里","LIN":"22鄰","STREET":"海佃路","SECT":"一段","MAREA":" ","LANE":" ","ALLEY":" ","HOUSE_NO":"４０７號","E_COORD97":167013.66,"N_COORD97":2547653.73,"ADDRESS":"海佃路一段４０７號","OBJECTID":602323},"geometry":{"x":167013.66000000015,"y":2547653.7300000004}},{"attributes":{"ID":602351,"DIS_CODE":0,"TOWNNAME":"中西區","LI":"藥王里","LIN":"22鄰","STREET":"永和街","SECT":" ","MAREA":" ","LANE":" ","ALLEY":" ","HOUSE_NO":"７０號","E_COORD97":167028.17000000001,"N_COORD97":2544595.5699999998,"ADDRESS":"永和街７０號","OBJECTID":602324},"geometry":{"x":167028.16999999993,"y":2544595.5700000003}},{"attributes":{"ID":602352,"DIS_CODE":0,"TOWNNAME":"中西區","LI":"藥王里","LIN":"22鄰","STREET":"和善街","SECT":" ","MAREA":" ","LANE":" ","ALLEY":" ","HOUSE_NO":"４１號","E_COORD97":167036.28,"N_COORD97":2544640.2599999998,"ADDRESS":"和善街４１號","OBJECTID":602325},"geometry":{"x":167036.28000000026,"y":2544640.2600000016}},{"attributes":{"ID":602353,"DIS_CODE":0,"TOWNNAME":"南區","LI":"郡南里","LIN":"22鄰","STREET":"永興三街","SECT":" ","MAREA":" ","LANE":" ","ALLEY":" ","HOUSE_NO":"８９號","E_COORD97":167246.42000000001,"N_COORD97":2540590.8700000001,"ADDRESS":"永興三街８９號","OBJECTID":602326},"geometry":{"x":167246.42000000086,"y":2540590.870000001}},{"attributes":{"ID":602354,"DIS_CODE":0,"TOWNNAME":"南區","LI":"郡南里","LIN":"22鄰","STREET":"永興三街","SECT":" ","MAREA":" ","LANE":" ","ALLEY":" ","HOUSE_NO":"９１號","E_COORD97":167242.04000000001,"N_COORD97":2540590.8700000001,"ADDRESS":"永興三街９１號","OBJECTID":602327},"geometry":{"x":167242.04000000097,"y":2540590.870000001}},{"attributes":{"ID":602355,"DIS_CODE":0,"TOWNNAME":"南區","LI":"郡南里","LIN":"22鄰","STREET":"永興三街","SECT":" ","MAREA":" ","LANE":" ","ALLEY":" ","HOUSE_NO":"９３號","E_COORD97":167238.54000000001,"N_COORD97":2540592.6200000001,"ADDRESS":"永興三街９３號","OBJECTID":602328},"geometry":{"x":167238.54000000097,"y":2540592.620000001}},{"attributes":{"ID":602356,"DIS_CODE":0,"TOWNNAME":"南區","LI":"郡南里","LIN":"22鄰","STREET":"永興三街","SECT":" ","MAREA":" ","LANE":" ","ALLEY":" ","HOUSE_NO":"９５號","E_COORD97":167232.70999999999,"N_COORD97":2540591.4500000002,"ADDRESS":"永興三街９５號","OBJECTID":602329},"geometry":{"x":167232.71000000089,"y":2540591.4499999993}},{"attributes":{"ID":602357,"DIS_CODE":0,"TOWNNAME":"南區","LI":"郡南里","LIN":"22鄰","STREET":"德興路","SECT":" ","MAREA":" ","LANE":" ","ALLEY":" ","HOUSE_NO":"８１號","E_COORD97":167216.45999999999,"N_COORD97":2540643.9300000002,"ADDRESS":"德興路８１號","OBJECTID":602330},"geometry":{"x":167216.45999999996,"y":2540643.9299999978}},{"attributes":{"ID":602358,"DIS_CODE":0,"TOWNNAME":"南區","LI":"郡南里","LIN":"22鄰","STREET":"德興路","SECT":" ","MAREA":" ","LANE":" ","ALLEY":" ","HOUSE_NO":"８３號","E_COORD97":167216.89999999999,"N_COORD97":2540639.7999999998,"ADDRESS":"德興路８３號","OBJECTID":602331},"geometry":{"x":167216.90000000037,"y":2540639.8000000026}},{"attributes":{"ID":602359,"DIS_CODE":0,"TOWNNAME":"南區","LI":"郡南里","LIN":"22鄰","STREET":"德興路","SECT":" ","MAREA":" ","LANE":" ","ALLEY":" ","HOUSE_NO":"８５號","E_COORD97":167217.38,"N_COORD97":2540634.25,"ADDRESS":"德興路８５號","OBJECTID":602332},"geometry":{"x":167217.38000000082,"y":2540634.25}},{"attributes":{"ID":602360,"DIS_CODE":0,"TOWNNAME":"南區","LI":"郡南里","LIN":"22鄰","STREET":"德興路","SECT":" ","MAREA":" ","LANE":" ","ALLEY":" ","HOUSE_NO":"８７號","E_COORD97":167217.54000000001,"N_COORD97":2540629.6400000001,"ADDRESS":"德興路８７號","OBJECTID":602333},"geometry":{"x":167217.54000000004,"y":2540629.6400000006}},{"attributes":{"ID":602361,"DIS_CODE":0,"TOWNNAME":"南區","LI":"郡南里","LIN":"22鄰","STREET":"德興路","SECT":" ","MAREA":" ","LANE":" ","ALLEY":" ","HOUSE_NO":"９１號","E_COORD97":167216.73999999999,"N_COORD97":2540618.29,"ADDRESS":"德興路９１號","OBJECTID":602334},"geometry":{"x":167216.73999999929,"y":2540618.290000001}},{"attributes":{"ID":602362,"DIS_CODE":0,"TOWNNAME":"永康區","LI":"神洲里","LIN":"22鄰","STREET":"忠孝路","SECT":" ","MAREA":" ","LANE":" ","ALLEY":" ","HOUSE_NO":"８０號","E_COORD97":172091.22,"N_COORD97":2544924.7400000002,"ADDRESS":"忠孝路８０號","OBJECTID":602335},"geometry":{"x":172091.21999999974,"y":2544924.7400000039}},{"attributes":{"ID":602363,"DIS_CODE":0,"TOWNNAME":"永康區","LI":"埔園里","LIN":"22鄰","STREET":"四維街","SECT":" ","MAREA":" ","LANE":" ","ALLEY":" ","HOUSE_NO":"６２號","E_COORD97":173413.85999999999,"N_COORD97":2548076.9399999999,"ADDRESS":"四維街６２號","OBJECTID":602336},"geometry":{"x":173413.8600000022,"y":2548076.9400000013}},{"attributes":{"ID":602364,"DIS_CODE":0,"TOWNNAME":"永康區","LI":"東橋里","LIN":"22鄰","STREET":"自強路","SECT":" ","MAREA":" ","LANE":" ","ALLEY":" ","HOUSE_NO":"１０７號","E_COORD97":172798.53,"N_COORD97":2547300.2400000002,"ADDRESS":"自強路１０７號","OBJECTID":602337},"geometry":{"x":172798.53000000026,"y":2547300.2400000002}},{"attributes":{"ID":602365,"DIS_CODE":0,"TOWNNAME":"永康區","LI":"東橋里","LIN":"22鄰","STREET":"自強路","SECT":" ","MAREA":" ","LANE":" ","ALLEY":" ","HOUSE_NO":"１５１號","E_COORD97":173002.88,"N_COORD97":2547402.7400000002,"ADDRESS":"自強路１５１號","OBJECTID":602338},"geometry":{"x":173002.88000000175,"y":2547402.7400000002}},{"attributes":{"ID":602366,"DIS_CODE":0,"TOWNNAME":"永康區","LI":"東灣里","LIN":"22鄰","STREET":"大灣二街","SECT":" ","MAREA":" ","LANE":" ","ALLEY":" ","HOUSE_NO":"７０號","E_COORD97":174863.94,"N_COORD97":2544786.02,"ADDRESS":"大灣二街７０號","OBJECTID":602339},"geometry":{"x":174863.94000000041,"y":2544786.0199999996}},{"attributes":{"ID":602367,"DIS_CODE":0,"TOWNNAME":"東區","LI":"和平里","LIN":"22鄰","STREET":"自由路","SECT":"二段","MAREA":" ","LANE":" ","ALLEY":" ","HOUSE_NO":"１３１號","E_COORD97":171800.01999999999,"N_COORD97":2541547.4100000001,"ADDRESS":"自由路二段１３１號","OBJECTID":602340},"geometry":{"x":171800.02000000048,"y":2541547.410000002}},{"attributes":{"ID":602368,"DIS_CODE":0,"TOWNNAME":"東區","LI":"和平里","LIN":"22鄰","STREET":"自由路","SECT":"二段","MAREA":" ","LANE":" ","ALLEY":" ","HOUSE_NO":"１３５號","E_COORD97":171799.37,"N_COORD97":2541555.5899999999,"ADDRESS":"自由路二段１３５號","OBJECTID":602341},"geometry":{"x":171799.37000000011,"y":2541555.5900000017}},{"attributes":{"ID":602369,"DIS_CODE":0,"TOWNNAME":"東區","LI":"和平里","LIN":"22鄰","STREET":"自由路","SECT":"二段","MAREA":" ","LANE":" ","ALLEY":" ","HOUSE_NO":"１３７號","E_COORD97":171799.37,"N_COORD97":2541560.1800000002,"ADDRESS":"自由路二段１３７號","OBJECTID":602342},"geometry":{"x":171799.37000000011,"y":2541560.1799999997}},{"attributes":{"ID":602370,"DIS_CODE":0,"TOWNNAME":"東區","LI":"和平里","LIN":"22鄰","STREET":"自由路","SECT":"二段","MAREA":" ","LANE":" ","ALLEY":" ","HOUSE_NO":"１３９號","E_COORD97":171799.37,"N_COORD97":2541565.4199999999,"ADDRESS":"自由路二段１３９號","OBJECTID":602343},"geometry":{"x":171799.37000000011,"y":2541565.4199999999}},{"attributes":{"ID":602371,"DIS_CODE":0,"TOWNNAME":"東區","LI":"和平里","LIN":"22鄰","STREET":"自由路","SECT":"二段","MAREA":" ","LANE":" ","ALLEY":" ","HOUSE_NO":"１４１號","E_COORD97":171799.70000000001,"N_COORD97":2541570,"ADDRESS":"自由路二段１４１號","OBJECTID":602344},"geometry":{"x":171799.70000000112,"y":2541570.0000000019}},{"attributes":{"ID":602372,"DIS_CODE":0,"TOWNNAME":"東區","LI":"和平里","LIN":"22鄰","STREET":"自由路","SECT":"二段","MAREA":" ","LANE":" ","ALLEY":" ","HOUSE_NO":"１４３號","E_COORD97":171799.70000000001,"N_COORD97":2541574.2599999998,"ADDRESS":"自由路二段１４３號","OBJECTID":602345},"geometry":{"x":171799.70000000112,"y":2541574.2600000035}},{"attributes":{"ID":602373,"DIS_CODE":0,"TOWNNAME":"東區","LI":"和平里","LIN":"22鄰","STREET":"自由路","SECT":"二段","MAREA":" ","LANE":" ","ALLEY":" ","HOUSE_NO":"１４５號","E_COORD97":171799.70000000001,"N_COORD97":2541578.8399999999,"ADDRESS":"自由路二段１４５號","OBJECTID":602346},"geometry":{"x":171799.70000000112,"y":2541578.8400000017}},{"attributes":{"ID":602374,"DIS_CODE":0,"TOWNNAME":"東區","LI":"和平里","LIN":"22鄰","STREET":"自由路","SECT":"二段","MAREA":" ","LANE":" ","ALLEY":" ","HOUSE_NO":"１５１號","E_COORD97":171800.67999999999,"N_COORD97":2541584.0800000001,"ADDRESS":"自由路二段１５１號","OBJECTID":602347},"geometry":{"x":171800.68000000063,"y":2541584.0800000019}},{"attributes":{"ID":602375,"DIS_CODE":0,"TOWNNAME":"東區","LI":"和平里","LIN":"22鄰","STREET":"自由路","SECT":"二段","MAREA":" ","LANE":" ","ALLEY":" ","HOUSE_NO":"１５３號","E_COORD97":171799.04000000001,"N_COORD97":2541588.9900000002,"ADDRESS":"自由路二段１５３號","OBJECTID":602348},"geometry":{"x":171799.04000000097,"y":2541588.9900000002}},{"attributes":{"ID":602376,"DIS_CODE":0,"TOWNNAME":"東區","LI":"和平里","LIN":"22鄰","STREET":"自由路","SECT":"二段","MAREA":" ","LANE":" ","ALLEY":" ","HOUSE_NO":"１５５號","E_COORD97":171799.37,"N_COORD97":2541592.9199999999,"ADDRESS":"自由路二段１５５號","OBJECTID":602349},"geometry":{"x":171799.37000000011,"y":2541592.9199999999}},{"attributes":{"ID":602377,"DIS_CODE":0,"TOWNNAME":"東區","LI":"和平里","LIN":"22鄰","STREET":"自由路","SECT":"二段","MAREA":" ","LANE":" ","ALLEY":" ","HOUSE_NO":"１５７號","E_COORD97":171798.06,"N_COORD97":2541597.5099999998,"ADDRESS":"自由路二段１５７號","OBJECTID":602350},"geometry":{"x":171798.06000000052,"y":2541597.5100000016}},{"attributes":{"ID":602378,"DIS_CODE":0,"TOWNNAME":"東區","LI":"和平里","LIN":"22鄰","STREET":"自由路","SECT":"二段","MAREA":" ","LANE":" ","ALLEY":" ","HOUSE_NO":"１５９號","E_COORD97":171798.72,"N_COORD97":2541603.0699999998,"ADDRESS":"自由路二段１５９號","OBJECTID":602351},"geometry":{"x":171798.72000000067,"y":2541603.0700000003}},{"attributes":{"ID":602379,"DIS_CODE":0,"TOWNNAME":"東區","LI":"和平里","LIN":"22鄰","STREET":"自由路","SECT":"二段","MAREA":" ","LANE":" ","ALLEY":" ","HOUSE_NO":"１７３號","E_COORD97":171796.75,"N_COORD97":2541635.8199999998,"ADDRESS":"自由路二段１７３號","OBJECTID":602352},"geometry":{"x":171796.75,"y":2541635.820000004}},{"attributes":{"ID":602380,"DIS_CODE":0,"TOWNNAME":"南區","LI":"郡南里","LIN":"22鄰","STREET":"永興二街","SECT":" ","MAREA":" ","LANE":" ","ALLEY":" ","HOUSE_NO":"３號","E_COORD97":167279.51999999999,"N_COORD97":2540641.5899999999,"ADDRESS":"永興二街３號","OBJECTID":602353},"geometry":{"x":167279.51999999955,"y":2540641.5899999999}},{"attributes":{"ID":602381,"DIS_CODE":0,"TOWNNAME":"東區","LI":"和平里","LIN":"22鄰","STREET":"自由路","SECT":"二段","MAREA":" ","LANE":" ","ALLEY":" ","HOUSE_NO":"１７１號","E_COORD97":171797.41,"N_COORD97":2541632.2200000002,"ADDRESS":"自由路二段１７１號","OBJECTID":602354},"geometry":{"x":171797.41000000015,"y":2541632.2200000007}},{"attributes":{"ID":602382,"DIS_CODE":0,"TOWNNAME":"東區","LI":"和平里","LIN":"22鄰","STREET":"自由路","SECT":"二段","MAREA":" ","LANE":" ","ALLEY":" ","HOUSE_NO":"１６１號","E_COORD97":171797.73000000001,"N_COORD97":2541608.6400000001,"ADDRESS":"自由路二段１６１號","OBJECTID":602355},"geometry":{"x":171797.73000000138,"y":2541608.6400000006}},{"attributes":{"ID":602383,"DIS_CODE":0,"TOWNNAME":"東區","LI":"和平里","LIN":"22鄰","STREET":"自由路","SECT":"二段","MAREA":" ","LANE":" ","ALLEY":" ","HOUSE_NO":"１６３號","E_COORD97":171798.39000000001,"N_COORD97":2541613.5499999998,"ADDRESS":"自由路二段１６３號","OBJECTID":602356},"geometry":{"x":171798.38999999966,"y":2541613.5500000007}},{"attributes":{"ID":602384,"DIS_CODE":0,"TOWNNAME":"東區","LI":"和平里","LIN":"22鄰","STREET":"自由路","SECT":"二段","MAREA":" ","LANE":" ","ALLEY":" ","HOUSE_NO":"１６５號","E_COORD97":171798.06,"N_COORD97":2541619.77,"ADDRESS":"自由路二段１６５號","OBJECTID":602357},"geometry":{"x":171798.06000000052,"y":2541619.7700000014}},{"attributes":{"ID":602385,"DIS_CODE":0,"TOWNNAME":"東區","LI":"和平里","LIN":"22鄰","STREET":"自由路","SECT":"二段","MAREA":" ","LANE":" ","ALLEY":" ","HOUSE_NO":"１６７號","E_COORD97":171797.41,"N_COORD97":2541625.0099999998,"ADDRESS":"自由路二段１６７號","OBJECTID":602358},"geometry":{"x":171797.41000000015,"y":2541625.0100000016}},{"attributes":{"ID":602386,"DIS_CODE":0,"TOWNNAME":"東區","LI":"和平里","LIN":"22鄰","STREET":"自由路","SECT":"二段","MAREA":" ","LANE":" ","ALLEY":" ","HOUSE_NO":"１６９號","E_COORD97":171797.41,"N_COORD97":2541628.9399999999,"ADDRESS":"自由路二段１６９號","OBJECTID":602359},"geometry":{"x":171797.41000000015,"y":2541628.9399999995}},{"attributes":{"ID":602387,"DIS_CODE":0,"TOWNNAME":"東區","LI":"崇成里","LIN":"22鄰","STREET":"崇明二十二街","SECT":" ","MAREA":" ","LANE":" ","ALLEY":" ","HOUSE_NO":"５０號","E_COORD97":170715.54000000001,"N_COORD97":2540910.2200000002,"ADDRESS":"崇明二十二街５０號","OBJECTID":602360},"geometry":{"x":170715.54000000097,"y":2540910.2200000007}},{"attributes":{"ID":602388,"DIS_CODE":0,"TOWNNAME":"東區","LI":"崇成里","LIN":"22鄰","STREET":"崇明二十二街","SECT":" ","MAREA":" ","LANE":" ","ALLEY":" ","HOUSE_NO":"５２號","E_COORD97":170721.63,"N_COORD97":2540910.4399999999,"ADDRESS":"崇明二十二街５２號","OBJECTID":602361},"geometry":{"x":170721.63000000082,"y":2540910.4399999995}},{"attributes":{"ID":602389,"DIS_CODE":0,"TOWNNAME":"東區","LI":"崇成里","LIN":"22鄰","STREET":"崇明二十二街","SECT":" ","MAREA":" ","LANE":" ","ALLEY":" ","HOUSE_NO":"５６號","E_COORD97":170728.14999999999,"N_COORD97":2540910.2200000002,"ADDRESS":"崇明二十二街５６號","OBJECTID":602362},"geometry":{"x":170728.15000000037,"y":2540910.2200000007}},{"attributes":{"ID":602390,"DIS_CODE":0,"TOWNNAME":"東區","LI":"崇成里","LIN":"22鄰","STREET":"崇明二十二街","SECT":" ","MAREA":" ","LANE":" ","ALLEY":" ","HOUSE_NO":"５８號","E_COORD97":170734.01000000001,"N_COORD97":2540910.0099999998,"ADDRESS":"崇明二十二街５８號","OBJECTID":602363},"geometry":{"x":170734.01000000071,"y":2540910.0099999998}},{"attributes":{"ID":602391,"DIS_CODE":0,"TOWNNAME":"東區","LI":"崇成里","LIN":"22鄰","STREET":"崇明二十二街","SECT":" ","MAREA":" ","LANE":" ","ALLEY":" ","HOUSE_NO":"６０號","E_COORD97":170739.23000000001,"N_COORD97":2540910.0099999998,"ADDRESS":"崇明二十二街６０號","OBJECTID":602364},"geometry":{"x":170739.23000000045,"y":2540910.0099999998}},{"attributes":{"ID":602392,"DIS_CODE":0,"TOWNNAME":"東區","LI":"富強里","LIN":"22鄰","STREET":"東門路","SECT":"二段","MAREA":" ","LANE":" ","ALLEY":" ","HOUSE_NO":"３３１號","E_COORD97":170761.92000000001,"N_COORD97":2542608.6099999999,"ADDRESS":"東門路二段３３１號","OBJECTID":602365},"geometry":{"x":170761.92000000086,"y":2542608.6099999994}},{"attributes":{"ID":602393,"DIS_CODE":0,"TOWNNAME":"東區","LI":"關聖里","LIN":"22鄰","STREET":"裕文一街","SECT":" ","MAREA":" ","LANE":" ","ALLEY":" ","HOUSE_NO":"９９號","E_COORD97":172718.20000000001,"N_COORD97":2542853.6099999999,"ADDRESS":"裕文一街９９號","OBJECTID":602366},"geometry":{"x":172718.20000000112,"y":2542853.6100000013}},{"attributes":{"ID":602394,"DIS_CODE":0,"TOWNNAME":"東區","LI":"關聖里","LIN":"22鄰","STREET":"裕文一街","SECT":" ","MAREA":" ","LANE":" ","ALLEY":" ","HOUSE_NO":"１０３號","E_COORD97":172718.85999999999,"N_COORD97":2542864.0899999999,"ADDRESS":"裕文一街１０３號","OBJECTID":602367},"geometry":{"x":172718.8600000022,"y":2542864.0900000036}},{"attributes":{"ID":602395,"DIS_CODE":0,"TOWNNAME":"東區","LI":"關聖里","LIN":"22鄰","STREET":"裕文一街","SECT":" ","MAREA":" ","LANE":" ","ALLEY":" ","HOUSE_NO":"１０５號","E_COORD97":172718.53,"N_COORD97":2542869,"ADDRESS":"裕文一街１０５號","OBJECTID":602368},"geometry":{"x":172718.53000000026,"y":2542869.0000000019}},{"attributes":{"ID":602396,"DIS_CODE":0,"TOWNNAME":"東區","LI":"關聖里","LIN":"22鄰","STREET":"裕文一街","SECT":" ","MAREA":" ","LANE":" ","ALLEY":" ","HOUSE_NO":"１０７號","E_COORD97":172718.20000000001,"N_COORD97":2542873.9199999999,"ADDRESS":"裕文一街１０７號","OBJECTID":602369},"geometry":{"x":172718.20000000112,"y":2542873.9199999999}},{"attributes":{"ID":602397,"DIS_CODE":0,"TOWNNAME":"東區","LI":"關聖里","LIN":"22鄰","STREET":"裕文一街","SECT":" ","MAREA":" ","LANE":" ","ALLEY":" ","HOUSE_NO":"１０９號","E_COORD97":172717.73999999999,"N_COORD97":2542878.9300000002,"ADDRESS":"裕文一街１０９號","OBJECTID":602370},"geometry":{"x":172717.74000000209,"y":2542878.9300000016}},{"attributes":{"ID":602398,"DIS_CODE":0,"TOWNNAME":"東區","LI":"關聖里","LIN":"22鄰","STREET":"裕文一街","SECT":" ","MAREA":" ","LANE":" ","ALLEY":" ","HOUSE_NO":"１５１號","E_COORD97":172717.73999999999,"N_COORD97":2542971.8799999999,"ADDRESS":"裕文一街１５１號","OBJECTID":602371},"geometry":{"x":172717.74000000209,"y":2542971.879999999}},{"attributes":{"ID":602399,"DIS_CODE":0,"TOWNNAME":"東區","LI":"關聖里","LIN":"22鄰","STREET":"裕文一街","SECT":" ","MAREA":" ","LANE":" ","ALLEY":" ","HOUSE_NO":"１５３號","E_COORD97":172718.23000000001,"N_COORD97":2542976.46,"ADDRESS":"裕文一街１５３號","OBJECTID":602372},"geometry":{"x":172718.23000000138,"y":2542976.4600000009}},{"attributes":{"ID":602400,"DIS_CODE":0,"TOWNNAME":"東區","LI":"關聖里","LIN":"22鄰","STREET":"裕文一街","SECT":" ","MAREA":" ","LANE":" ","ALLEY":" ","HOUSE_NO":"１５５號","E_COORD97":172717.98000000001,"N_COORD97":2542981.0499999998,"ADDRESS":"裕文一街１５５號","OBJECTID":602373},"geometry":{"x":172717.98000000231,"y":2542981.0500000026}},{"attributes":{"ID":602401,"DIS_CODE":0,"TOWNNAME":"東區","LI":"關聖里","LIN":"22鄰","STREET":"裕文一街","SECT":" ","MAREA":" ","LANE":" ","ALLEY":" ","HOUSE_NO":"１５７號","E_COORD97":172717.98000000001,"N_COORD97":2542985.1600000001,"ADDRESS":"裕文一街１５７號","OBJECTID":602374},"geometry":{"x":172717.98000000231,"y":2542985.1600000001}},{"attributes":{"ID":602402,"DIS_CODE":0,"TOWNNAME":"東區","LI":"關聖里","LIN":"22鄰","STREET":"裕文一街","SECT":" ","MAREA":" ","LANE":" ","ALLEY":" ","HOUSE_NO":"１５９號","E_COORD97":172716.04999999999,"N_COORD97":2542990.9500000002,"ADDRESS":"裕文一街１５９號","OBJECTID":602375},"geometry":{"x":172716.04999999981,"y":2542990.9500000011}},{"attributes":{"ID":602403,"DIS_CODE":0,"TOWNNAME":"東區","LI":"關聖里","LIN":"22鄰","STREET":"裕文一街","SECT":" ","MAREA":" ","LANE":" ","ALLEY":" ","HOUSE_NO":"１６１號","E_COORD97":172716.04999999999,"N_COORD97":2542995.54,"ADDRESS":"裕文一街１６１號","OBJECTID":602376},"geometry":{"x":172716.04999999981,"y":2542995.5399999972}},{"attributes":{"ID":602404,"DIS_CODE":0,"TOWNNAME":"東區","LI":"關聖里","LIN":"22鄰","STREET":"裕文一街","SECT":" ","MAREA":" ","LANE":" ","ALLEY":" ","HOUSE_NO":"１６５號","E_COORD97":172717.01999999999,"N_COORD97":2543006.1600000001,"ADDRESS":"裕文一街１６５號","OBJECTID":602377},"geometry":{"x":172717.02000000048,"y":2543006.1600000039}},{"attributes":{"ID":602405,"DIS_CODE":0,"TOWNNAME":"東區","LI":"關聖里","LIN":"22鄰","STREET":"裕文一街","SECT":" ","MAREA":" ","LANE":" ","ALLEY":" ","HOUSE_NO":"１６３號","E_COORD97":172716.29000000001,"N_COORD97":2543001.0899999999,"ADDRESS":"裕文一街１６３號","OBJECTID":602378},"geometry":{"x":172716.29000000097,"y":2543001.0900000017}},{"attributes":{"ID":602406,"DIS_CODE":0,"TOWNNAME":"東區","LI":"關聖里","LIN":"22鄰","STREET":"裕平路","SECT":" ","MAREA":" ","LANE":" ","ALLEY":" ","HOUSE_NO":"２６９號","E_COORD97":172667.76999999999,"N_COORD97":2542837.2200000002,"ADDRESS":"裕平路２６９號","OBJECTID":602379},"geometry":{"x":172667.77000000142,"y":2542837.2200000025}},{"attributes":{"ID":602407,"DIS_CODE":0,"TOWNNAME":"東區","LI":"關聖里","LIN":"22鄰","STREET":"裕平路","SECT":" ","MAREA":" ","LANE":" ","ALLEY":" ","HOUSE_NO":"２８１號","E_COORD97":172699.92999999999,"N_COORD97":2542839.8300000001,"ADDRESS":"裕平路２８１號","OBJECTID":602380},"geometry":{"x":172699.9299999997,"y":2542839.8300000019}},{"attributes":{"ID":602408,"DIS_CODE":0,"TOWNNAME":"東區","LI":"關聖里","LIN":"22鄰","STREET":"裕平路","SECT":" ","MAREA":" ","LANE":" ","ALLEY":" ","HOUSE_NO":"２８３號","E_COORD97":172704.26999999999,"N_COORD97":2542839.54,"ADDRESS":"裕平路２８３號","OBJECTID":602381},"geometry":{"x":172704.26999999955,"y":2542839.5399999972}},{"attributes":{"ID":602409,"DIS_CODE":0,"TOWNNAME":"東區","LI":"關聖里","LIN":"22鄰","STREET":"裕平路","SECT":" ","MAREA":" ","LANE":" ","ALLEY":" ","HOUSE_NO":"２８５號","E_COORD97":172709.48999999999,"N_COORD97":2542839.8300000001,"ADDRESS":"裕平路２８５號","OBJECTID":602382},"geometry":{"x":172709.49000000115,"y":2542839.8300000019}},{"attributes":{"ID":602410,"DIS_CODE":0,"TOWNNAME":"東區","LI":"關聖里","LIN":"22鄰","STREET":"裕平路","SECT":" ","MAREA":" ","LANE":" ","ALLEY":" ","HOUSE_NO":"２８７號","E_COORD97":172714.98999999999,"N_COORD97":2542839.8300000001,"ADDRESS":"裕平路２８７號","OBJECTID":602383},"geometry":{"x":172714.99000000115,"y":2542839.8300000019}},{"attributes":{"ID":602411,"DIS_CODE":0,"TOWNNAME":"東區","LI":"關聖里","LIN":"22鄰","STREET":"裕平路","SECT":" ","MAREA":" ","LANE":" ","ALLEY":" ","HOUSE_NO":"２９１號","E_COORD97":172724.26000000001,"N_COORD97":2542839.54,"ADDRESS":"裕平路２９１號","OBJECTID":602384},"geometry":{"x":172724.26000000071,"y":2542839.5399999972}},{"attributes":{"ID":602412,"DIS_CODE":0,"TOWNNAME":"東區","LI":"關聖里","LIN":"22鄰","STREET":"裕平路","SECT":" ","MAREA":" ","LANE":" ","ALLEY":" ","HOUSE_NO":"２８９號","E_COORD97":172719.34,"N_COORD97":2542839.8300000001,"ADDRESS":"裕平路２８９號","OBJECTID":602385},"geometry":{"x":172719.33999999985,"y":2542839.8300000019}},{"attributes":{"ID":602413,"DIS_CODE":0,"TOWNNAME":"東區","LI":"關聖里","LIN":"22鄰","STREET":"裕平路","SECT":" ","MAREA":" ","LANE":" ","ALLEY":" ","HOUSE_NO":"３２１號","E_COORD97":172790.23999999999,"N_COORD97":2542837.2400000002,"ADDRESS":"裕平路３２１號","OBJECTID":602386},"geometry":{"x":172790.24000000022,"y":2542837.2400000021}},{"attributes":{"ID":602414,"DIS_CODE":0,"TOWNNAME":"東區","LI":"關聖里","LIN":"22鄰","STREET":"裕平路","SECT":" ","MAREA":" ","LANE":" ","ALLEY":" ","HOUSE_NO":"３２３號","E_COORD97":172795.14999999999,"N_COORD97":2542837.5699999998,"ADDRESS":"裕平路３２３號","OBJECTID":602387},"geometry":{"x":172795.1500000013,"y":2542837.570000004}},{"attributes":{"ID":602415,"DIS_CODE":0,"TOWNNAME":"東區","LI":"關聖里","LIN":"22鄰","STREET":"裕平路","SECT":" ","MAREA":" ","LANE":" ","ALLEY":" ","HOUSE_NO":"３２５號","E_COORD97":172799.73999999999,"N_COORD97":2542837.5699999998,"ADDRESS":"裕平路３２５號","OBJECTID":602388},"geometry":{"x":172799.74000000115,"y":2542837.570000004}},{"attributes":{"ID":602416,"DIS_CODE":0,"TOWNNAME":"東區","LI":"關聖里","LIN":"22鄰","STREET":"裕平路","SECT":" ","MAREA":" ","LANE":" ","ALLEY":" ","HOUSE_NO":"３２７號","E_COORD97":172804.32000000001,"N_COORD97":2542837.8999999999,"ADDRESS":"裕平路３２７號","OBJECTID":602389},"geometry":{"x":172804.32000000123,"y":2542837.9000000004}},{"attributes":{"ID":602417,"DIS_CODE":0,"TOWNNAME":"東區","LI":"關聖里","LIN":"22鄰","STREET":"裕平路","SECT":" ","MAREA":" ","LANE":" ","ALLEY":" ","HOUSE_NO":"３２９號","E_COORD97":172808.57999999999,"N_COORD97":2542837.5699999998,"ADDRESS":"裕平路３２９號","OBJECTID":602390},"geometry":{"x":172808.58000000194,"y":2542837.570000004}},{"attributes":{"ID":602418,"DIS_CODE":0,"TOWNNAME":"東區","LI":"關聖里","LIN":"22鄰","STREET":"裕平路","SECT":" ","MAREA":" ","LANE":" ","ALLEY":" ","HOUSE_NO":"３３１號","E_COORD97":172812.51000000001,"N_COORD97":2542838.2200000002,"ADDRESS":"裕平路３３１號","OBJECTID":602391},"geometry":{"x":172812.51000000071,"y":2542838.2200000025}},{"attributes":{"ID":602419,"DIS_CODE":0,"TOWNNAME":"東區","LI":"關聖里","LIN":"22鄰","STREET":"裕平路","SECT":" ","MAREA":" ","LANE":" ","ALLEY":" ","HOUSE_NO":"３３３號","E_COORD97":172816.44,"N_COORD97":2542838.5499999998,"ADDRESS":"裕平路３３３號","OBJECTID":602392},"geometry":{"x":172816.44000000041,"y":2542838.5500000026}},{"attributes":{"ID":602420,"DIS_CODE":0,"TOWNNAME":"東區","LI":"關聖里","LIN":"22鄰","STREET":"裕平路","SECT":" ","MAREA":" ","LANE":" ","ALLEY":" ","HOUSE_NO":"３３５號","E_COORD97":172821.01999999999,"N_COORD97":2542837.8999999999,"ADDRESS":"裕平路３３５號","OBJECTID":602393},"geometry":{"x":172821.02000000048,"y":2542837.9000000004}},{"attributes":{"ID":602421,"DIS_CODE":0,"TOWNNAME":"東區","LI":"關聖里","LIN":"22鄰","STREET":"裕平路","SECT":" ","MAREA":" ","LANE":" ","ALLEY":" ","HOUSE_NO":"３３７號","E_COORD97":172825.28,"N_COORD97":2542838.5499999998,"ADDRESS":"裕平路３３７號","OBJECTID":602394},"geometry":{"x":172825.28000000026,"y":2542838.5500000026}},{"attributes":{"ID":602422,"DIS_CODE":0,"TOWNNAME":"東區","LI":"關聖里","LIN":"22鄰","STREET":"裕文一街","SECT":" ","MAREA":" ","LANE":" ","ALLEY":" ","HOUSE_NO":"１０１號","E_COORD97":172718.85999999999,"N_COORD97":2542859.1800000002,"ADDRESS":"裕文一街１０１號","OBJECTID":602395},"geometry":{"x":172718.8600000022,"y":2542859.1799999997}},{"attributes":{"ID":602423,"DIS_CODE":0,"TOWNNAME":"東區","LI":"關聖里","LIN":"22鄰","STREET":"裕和三街","SECT":" ","MAREA":" ","LANE":" ","ALLEY":" ","HOUSE_NO":"１１０號","E_COORD97":172658.60999999999,"N_COORD97":2542929.9100000001,"ADDRESS":"裕和三街１１０號","OBJECTID":602396},"geometry":{"x":172658.61000000034,"y":2542929.9100000039}},{"attributes":{"ID":602424,"DIS_CODE":0,"TOWNNAME":"東區","LI":"關聖里","LIN":"22鄰","STREET":"裕和三街","SECT":" ","MAREA":" ","LANE":" ","ALLEY":" ","HOUSE_NO":"１１２號","E_COORD97":172659.10000000001,"N_COORD97":2542927.1299999999,"ADDRESS":"裕和三街１１２號","OBJECTID":602397},"geometry":{"x":172659.10000000056,"y":2542927.1300000027}},{"attributes":{"ID":602425,"DIS_CODE":0,"TOWNNAME":"東區","LI":"關聖里","LIN":"22鄰","STREET":"裕和三街","SECT":" ","MAREA":" ","LANE":" ","ALLEY":" ","HOUSE_NO":"１１６號","E_COORD97":172657.95000000001,"N_COORD97":2542925,"ADDRESS":"裕和三街１１６號","OBJECTID":602398},"geometry":{"x":172657.95000000019,"y":2542925}},{"attributes":{"ID":602426,"DIS_CODE":0,"TOWNNAME":"東區","LI":"關聖里","LIN":"22鄰","STREET":"裕和三街","SECT":" ","MAREA":" ","LANE":" ","ALLEY":" ","HOUSE_NO":"１１８號","E_COORD97":172658.76999999999,"N_COORD97":2542922.21,"ADDRESS":"裕和三街１１８號","OBJECTID":602399},"geometry":{"x":172658.76999999955,"y":2542922.2100000028}},{"attributes":{"ID":602427,"DIS_CODE":0,"TOWNNAME":"東區","LI":"關聖里","LIN":"22鄰","STREET":"裕和三街","SECT":" ","MAREA":" ","LANE":" ","ALLEY":" ","HOUSE_NO":"１６８號","E_COORD97":172680.06,"N_COORD97":2542879.3199999998,"ADDRESS":"裕和三街１６８號","OBJECTID":602400},"geometry":{"x":172680.06000000052,"y":2542879.3200000003}}]}