{"displayFieldName":"TOWNNAME","fieldAliases":{"ID":"ID","DIS_CODE":"DIS_CODE","TOWNNAME":"TOWNNAME","LI":"LI","LIN":"LIN","STREET":"STREET","SECT":"SECT","MAREA":"MAREA","LANE":"LANE","ALLEY":"ALLEY","HOUSE_NO":"HOUSE_NO","E_COORD97":"E_COORD97","N_COORD97":"N_COORD97","ADDRESS":"ADDRESS","OBJECTID":"OBJECTID"},"geometryType":"esriGeometryPoint","spatialReference":{"wkid":102443,"latestWkid":3826},"fields":[{"name":"ID","type":"esriFieldTypeDouble","alias":"ID"},{"name":"DIS_CODE","type":"esriFieldTypeInteger","alias":"DIS_CODE"},{"name":"TOWNNAME","type":"esriFieldTypeString","alias":"TOWNNAME","length":8},{"name":"LI","type":"esriFieldTypeString","alias":"LI","length":8},{"name":"LIN","type":"esriFieldTypeString","alias":"LIN","length":12},{"name":"STREET","type":"esriFieldTypeString","alias":"STREET","length":20},{"name":"SECT","type":"esriFieldTypeString","alias":"SECT","length":8},{"name":"MAREA","type":"esriFieldTypeString","alias":"MAREA","length":12},{"name":"LANE","type":"esriFieldTypeString","alias":"LANE","length":10},{"name":"ALLEY","type":"esriFieldTypeString","alias":"ALLEY","length":10},{"name":"HOUSE_NO","type":"esriFieldTypeString","alias":"HOUSE_NO","length":20},{"name":"E_COORD97","type":"esriFieldTypeDouble","alias":"E_COORD97"},{"name":"N_COORD97","type":"esriFieldTypeDouble","alias":"N_COORD97"},{"name":"ADDRESS","type":"esriFieldTypeString","alias":"ADDRESS","length":50},{"name":"OBJECTID","type":"esriFieldTypeOID","alias":"OBJECTID"}],"features":[{"attributes":{"ID":205002,"DIS_CODE":0,"TOWNNAME":"安南區","LI":"海佃里","LIN":"25鄰","STREET":"國安街","SECT":" ","MAREA":" ","LANE":"１５６巷","ALLEY":"８４弄","HOUSE_NO":"２２號","E_COORD97":166789.03,"N_COORD97":2547210.8599999999,"ADDRESS":"國安街１５６巷８４弄２２號","OBJECTID":205001},"geometry":{"x":166789.03000000026,"y":2547210.8599999994}},{"attributes":{"ID":205003,"DIS_CODE":0,"TOWNNAME":"安南區","LI":"海佃里","LIN":"25鄰","STREET":"國安街","SECT":" ","MAREA":" ","LANE":"１５６巷","ALLEY":"８４弄","HOUSE_NO":"２３號","E_COORD97":166789.03,"N_COORD97":2547238.7599999998,"ADDRESS":"國安街１５６巷８４弄２３號","OBJECTID":205002},"geometry":{"x":166789.03000000026,"y":2547238.7599999998}},{"attributes":{"ID":205004,"DIS_CODE":0,"TOWNNAME":"安南區","LI":"海佃里","LIN":"25鄰","STREET":"國安街","SECT":" ","MAREA":" ","LANE":"１５６巷","ALLEY":"８４弄","HOUSE_NO":"２４號","E_COORD97":166793.67999999999,"N_COORD97":2547214.1800000002,"ADDRESS":"國安街１５６巷８４弄２４號","OBJECTID":205003},"geometry":{"x":166793.68000000063,"y":2547214.1800000016}},{"attributes":{"ID":205005,"DIS_CODE":0,"TOWNNAME":"安南區","LI":"海佃里","LIN":"25鄰","STREET":"國安街","SECT":" ","MAREA":" ","LANE":"１５６巷","ALLEY":"８４弄","HOUSE_NO":"２號","E_COORD97":166732.5,"N_COORD97":2547202.2200000002,"ADDRESS":"國安街１５６巷８４弄２號","OBJECTID":205004},"geometry":{"x":166732.50000000093,"y":2547202.2200000007}},{"attributes":{"ID":205006,"DIS_CODE":0,"TOWNNAME":"安南區","LI":"海佃里","LIN":"25鄰","STREET":"國安街","SECT":" ","MAREA":" ","LANE":"１５６巷","ALLEY":"８４弄","HOUSE_NO":"３號","E_COORD97":166733.82999999999,"N_COORD97":2547226.7999999998,"ADDRESS":"國安街１５６巷８４弄３號","OBJECTID":205005},"geometry":{"x":166733.83000000007,"y":2547226.8000000045}},{"attributes":{"ID":205007,"DIS_CODE":0,"TOWNNAME":"安南區","LI":"海佃里","LIN":"25鄰","STREET":"國安街","SECT":" ","MAREA":" ","LANE":"１５６巷","ALLEY":"８４弄","HOUSE_NO":"４號","E_COORD97":166737.82000000001,"N_COORD97":2547202.8799999999,"ADDRESS":"國安街１５６巷８４弄４號","OBJECTID":205006},"geometry":{"x":166737.8200000003,"y":2547202.879999999}},{"attributes":{"ID":205008,"DIS_CODE":0,"TOWNNAME":"安南區","LI":"海佃里","LIN":"25鄰","STREET":"國安街","SECT":" ","MAREA":" ","LANE":"１５６巷","ALLEY":"８４弄","HOUSE_NO":"５號","E_COORD97":166739.14999999999,"N_COORD97":2547227.46,"ADDRESS":"國安街１５６巷８４弄５號","OBJECTID":205007},"geometry":{"x":166739.15000000037,"y":2547227.4600000028}},{"attributes":{"ID":205009,"DIS_CODE":0,"TOWNNAME":"白河區","LI":"草店里","LIN":"2鄰","STREET":" ","SECT":" ","MAREA":"草店","LANE":" ","ALLEY":" ","HOUSE_NO":"１６之１６號","E_COORD97":192493.73999999999,"N_COORD97":2587944.3999999999,"ADDRESS":"草店１６之１６號","OBJECTID":205008},"geometry":{"x":192493.74000000209,"y":2587944.4000000041}},{"attributes":{"ID":205010,"DIS_CODE":0,"TOWNNAME":"白河區","LI":"草店里","LIN":"2鄰","STREET":" ","SECT":" ","MAREA":"草店","LANE":" ","ALLEY":" ","HOUSE_NO":"１６之１７號","E_COORD97":192470.81,"N_COORD97":2587937.2000000002,"ADDRESS":"草店１６之１７號","OBJECTID":205009},"geometry":{"x":192470.81000000052,"y":2587937.1999999993}},{"attributes":{"ID":205011,"DIS_CODE":0,"TOWNNAME":"白河區","LI":"草店里","LIN":"2鄰","STREET":" ","SECT":" ","MAREA":"草店","LANE":" ","ALLEY":" ","HOUSE_NO":"１６之１８號","E_COORD97":192483.79999999999,"N_COORD97":2587906.6800000002,"ADDRESS":"草店１６之１８號","OBJECTID":205010},"geometry":{"x":192483.79999999981,"y":2587906.6799999997}},{"attributes":{"ID":205012,"DIS_CODE":0,"TOWNNAME":"白河區","LI":"草店里","LIN":"2鄰","STREET":" ","SECT":" ","MAREA":"草店","LANE":" ","ALLEY":" ","HOUSE_NO":"１６之１９號","E_COORD97":192467.98999999999,"N_COORD97":2587933.25,"ADDRESS":"草店１６之１９號","OBJECTID":205011},"geometry":{"x":192467.99000000022,"y":2587933.25}},{"attributes":{"ID":205013,"DIS_CODE":0,"TOWNNAME":"白河區","LI":"草店里","LIN":"2鄰","STREET":" ","SECT":" ","MAREA":"草店","LANE":" ","ALLEY":" ","HOUSE_NO":"１６之２號","E_COORD97":192409.67000000001,"N_COORD97":2587903.4199999999,"ADDRESS":"草店１６之２號","OBJECTID":205012},"geometry":{"x":192409.67000000086,"y":2587903.4200000018}},{"attributes":{"ID":205014,"DIS_CODE":0,"TOWNNAME":"白河區","LI":"草店里","LIN":"2鄰","STREET":" ","SECT":" ","MAREA":"草店","LANE":" ","ALLEY":" ","HOUSE_NO":"１６之４號","E_COORD97":192392.01999999999,"N_COORD97":2587894.3199999998,"ADDRESS":"草店１６之４號","OBJECTID":205013},"geometry":{"x":192392.02000000048,"y":2587894.3200000022}},{"attributes":{"ID":205015,"DIS_CODE":0,"TOWNNAME":"白河區","LI":"草店里","LIN":"2鄰","STREET":" ","SECT":" ","MAREA":"草店","LANE":" ","ALLEY":" ","HOUSE_NO":"１６之７號","E_COORD97":192419.76999999999,"N_COORD97":2587920.3599999999,"ADDRESS":"草店１６之７號","OBJECTID":205014},"geometry":{"x":192419.76999999955,"y":2587920.3600000013}},{"attributes":{"ID":205016,"DIS_CODE":0,"TOWNNAME":"白河區","LI":"草店里","LIN":"2鄰","STREET":" ","SECT":" ","MAREA":"草店","LANE":" ","ALLEY":" ","HOUSE_NO":"１６號","E_COORD97":192392.67999999999,"N_COORD97":2587913.3300000001,"ADDRESS":"草店１６號","OBJECTID":205015},"geometry":{"x":192392.68000000063,"y":2587913.3300000001}},{"attributes":{"ID":205017,"DIS_CODE":0,"TOWNNAME":"白河區","LI":"草店里","LIN":"2鄰","STREET":" ","SECT":" ","MAREA":"草店","LANE":" ","ALLEY":" ","HOUSE_NO":"１７之１號","E_COORD97":192359.26000000001,"N_COORD97":2587944.6000000001,"ADDRESS":"草店１７之１號","OBJECTID":205016},"geometry":{"x":192359.26000000164,"y":2587944.5999999996}},{"attributes":{"ID":205018,"DIS_CODE":0,"TOWNNAME":"白河區","LI":"草店里","LIN":"2鄰","STREET":" ","SECT":" ","MAREA":"草店","LANE":" ","ALLEY":" ","HOUSE_NO":"１７之２號","E_COORD97":192387.67999999999,"N_COORD97":2587944.1699999999,"ADDRESS":"草店１７之２號","OBJECTID":205017},"geometry":{"x":192387.68000000063,"y":2587944.1699999999}},{"attributes":{"ID":205019,"DIS_CODE":0,"TOWNNAME":"安南區","LI":"海佃里","LIN":"25鄰","STREET":"國安街","SECT":" ","MAREA":" ","LANE":"１５６巷","ALLEY":"８４弄","HOUSE_NO":"６號","E_COORD97":166743.14000000001,"N_COORD97":2547204.21,"ADDRESS":"國安街１５６巷８４弄６號","OBJECTID":205018},"geometry":{"x":166743.13999999966,"y":2547204.2100000046}},{"attributes":{"ID":205020,"DIS_CODE":0,"TOWNNAME":"歸仁區","LI":"大潭里","LIN":"7鄰","STREET":"中正南路","SECT":"三段","MAREA":" ","LANE":"２８７巷","ALLEY":"２弄","HOUSE_NO":"５號","E_COORD97":175145.60999999999,"N_COORD97":2534631.2799999998,"ADDRESS":"中正南路三段２８７巷２弄５號","OBJECTID":205019},"geometry":{"x":175145.61000000034,"y":2534631.2800000012}},{"attributes":{"ID":205021,"DIS_CODE":0,"TOWNNAME":"安南區","LI":"海佃里","LIN":"25鄰","STREET":"國安街","SECT":" ","MAREA":" ","LANE":"１５６巷","ALLEY":"８４弄","HOUSE_NO":"７號","E_COORD97":166744.47,"N_COORD97":2547227.46,"ADDRESS":"國安街１５６巷８４弄７號","OBJECTID":205020},"geometry":{"x":166744.46999999974,"y":2547227.4600000028}},{"attributes":{"ID":205022,"DIS_CODE":0,"TOWNNAME":"安南區","LI":"海佃里","LIN":"25鄰","STREET":"國安街","SECT":" ","MAREA":" ","LANE":"１５６巷","ALLEY":"８４弄","HOUSE_NO":"８號","E_COORD97":166749.13,"N_COORD97":2547206.21,"ADDRESS":"國安街１５６巷８４弄８號","OBJECTID":205021},"geometry":{"x":166749.12999999989,"y":2547206.2100000009}},{"attributes":{"ID":205023,"DIS_CODE":0,"TOWNNAME":"安南區","LI":"海佃里","LIN":"25鄰","STREET":"國安街","SECT":" ","MAREA":" ","LANE":"１５６巷","ALLEY":"８４弄","HOUSE_NO":"９號","E_COORD97":166750.45999999999,"N_COORD97":2547228.79,"ADDRESS":"國安街１５６巷８４弄９號","OBJECTID":205022},"geometry":{"x":166750.45999999903,"y":2547228.7900000028}},{"attributes":{"ID":205024,"DIS_CODE":0,"TOWNNAME":"永康區","LI":"二王里","LIN":"25鄰","STREET":"中山南路","SECT":" ","MAREA":" ","LANE":"５４４巷","ALLEY":"７９弄","HOUSE_NO":"３號","E_COORD97":172354.73000000001,"N_COORD97":2546294.6499999999,"ADDRESS":"中山南路５４４巷７９弄３號","OBJECTID":205023},"geometry":{"x":172354.73000000045,"y":2546294.6500000004}},{"attributes":{"ID":205025,"DIS_CODE":0,"TOWNNAME":"永康區","LI":"二王里","LIN":"25鄰","STREET":"中山南路","SECT":" ","MAREA":" ","LANE":"５４４巷","ALLEY":"１０３弄","HOUSE_NO":"６號","E_COORD97":172352.75,"N_COORD97":2546228.4199999999,"ADDRESS":"中山南路５４４巷１０３弄６號","OBJECTID":205024},"geometry":{"x":172352.75,"y":2546228.4200000037}},{"attributes":{"ID":205026,"DIS_CODE":0,"TOWNNAME":"東區","LI":"虎尾里","LIN":"25鄰","STREET":"富農街","SECT":"一段","MAREA":" ","LANE":"１８８巷","ALLEY":"１０弄","HOUSE_NO":"１８號","E_COORD97":171550.06,"N_COORD97":2542439.46,"ADDRESS":"富農街一段１８８巷１０弄１８號","OBJECTID":205025},"geometry":{"x":171550.05999999959,"y":2542439.4600000028}},{"attributes":{"ID":205027,"DIS_CODE":0,"TOWNNAME":"東區","LI":"東光里","LIN":"25鄰","STREET":"東安路","SECT":" ","MAREA":" ","LANE":"１７６巷","ALLEY":"１弄","HOUSE_NO":"１號","E_COORD97":170787.57000000001,"N_COORD97":2543970.73,"ADDRESS":"東安路１７６巷１弄１號","OBJECTID":205026},"geometry":{"x":170787.5700000003,"y":2543970.7300000004}},{"attributes":{"ID":205028,"DIS_CODE":0,"TOWNNAME":"東區","LI":"東光里","LIN":"25鄰","STREET":"東安路","SECT":" ","MAREA":" ","LANE":"１７６巷","ALLEY":"１弄","HOUSE_NO":"２號","E_COORD97":170787.10999999999,"N_COORD97":2543951.5,"ADDRESS":"東安路１７６巷１弄２號","OBJECTID":205027},"geometry":{"x":170787.11000000034,"y":2543951.5}},{"attributes":{"ID":205029,"DIS_CODE":0,"TOWNNAME":"東區","LI":"東光里","LIN":"25鄰","STREET":"東安路","SECT":" ","MAREA":" ","LANE":"１７６巷","ALLEY":"１弄","HOUSE_NO":"３號","E_COORD97":170796.41,"N_COORD97":2543969.9900000002,"ADDRESS":"東安路１７６巷１弄３號","OBJECTID":205028},"geometry":{"x":170796.41000000108,"y":2543969.9900000002}},{"attributes":{"ID":205030,"DIS_CODE":0,"TOWNNAME":"北區","LI":"大道里","LIN":"9鄰","STREET":"北門路","SECT":"二段","MAREA":" ","LANE":" ","ALLEY":" ","HOUSE_NO":"５４３號","E_COORD97":169644.89999999999,"N_COORD97":2545671.5299999998,"ADDRESS":"北門路二段５４３號","OBJECTID":205029},"geometry":{"x":169644.90000000037,"y":2545671.5300000012}},{"attributes":{"ID":205031,"DIS_CODE":0,"TOWNNAME":"北區","LI":"安民里","LIN":"9鄰","STREET":"成功路","SECT":" ","MAREA":" ","LANE":" ","ALLEY":" ","HOUSE_NO":"３６８號","E_COORD97":168053.88,"N_COORD97":2544512.4900000002,"ADDRESS":"成功路３６８號","OBJECTID":205030},"geometry":{"x":168053.87999999989,"y":2544512.4900000002}},{"attributes":{"ID":205032,"DIS_CODE":0,"TOWNNAME":"北區","LI":"安民里","LIN":"9鄰","STREET":"成功路","SECT":" ","MAREA":" ","LANE":" ","ALLEY":" ","HOUSE_NO":"３７０號","E_COORD97":168042.45000000001,"N_COORD97":2544516.6200000001,"ADDRESS":"成功路３７０號","OBJECTID":205031},"geometry":{"x":168042.45000000019,"y":2544516.6200000029}},{"attributes":{"ID":205033,"DIS_CODE":0,"TOWNNAME":"北區","LI":"裕民里","LIN":"8鄰","STREET":"成功路","SECT":" ","MAREA":" ","LANE":" ","ALLEY":" ","HOUSE_NO":"５８６號","E_COORD97":167492.07999999999,"N_COORD97":2544766.1000000001,"ADDRESS":"成功路５８６號","OBJECTID":205032},"geometry":{"x":167492.08000000007,"y":2544766.1000000015}},{"attributes":{"ID":205034,"DIS_CODE":0,"TOWNNAME":"北區","LI":"成功里","LIN":"9鄰","STREET":"西門路","SECT":"四段","MAREA":" ","LANE":" ","ALLEY":" ","HOUSE_NO":"４８３號","E_COORD97":169270.94,"N_COORD97":2546555.1800000002,"ADDRESS":"西門路四段４８３號","OBJECTID":205033},"geometry":{"x":169270.94000000134,"y":2546555.1799999978}},{"attributes":{"ID":205035,"DIS_CODE":0,"TOWNNAME":"北區","LI":"成功里","LIN":"9鄰","STREET":"西門路","SECT":"四段","MAREA":" ","LANE":" ","ALLEY":" ","HOUSE_NO":"５０３號","E_COORD97":169296.81,"N_COORD97":2546591.29,"ADDRESS":"西門路四段５０３號","OBJECTID":205034},"geometry":{"x":169296.80999999959,"y":2546591.2900000028}},{"attributes":{"ID":205036,"DIS_CODE":0,"TOWNNAME":"北區","LI":"成功里","LIN":"9鄰","STREET":"西門路","SECT":"四段","MAREA":" ","LANE":" ","ALLEY":" ","HOUSE_NO":"４９９號","E_COORD97":169291.10000000001,"N_COORD97":2546583.04,"ADDRESS":"西門路四段４９９號","OBJECTID":205035},"geometry":{"x":169291.10000000056,"y":2546583.0400000028}},{"attributes":{"ID":205037,"DIS_CODE":0,"TOWNNAME":"北區","LI":"成功里","LIN":"9鄰","STREET":"西門路","SECT":"四段","MAREA":" ","LANE":" ","ALLEY":" ","HOUSE_NO":"４９１號","E_COORD97":169280.62,"N_COORD97":2546569.7000000002,"ADDRESS":"西門路四段４９１號","OBJECTID":205036},"geometry":{"x":169280.62000000197,"y":2546569.7000000011}},{"attributes":{"ID":205038,"DIS_CODE":0,"TOWNNAME":"北區","LI":"成功里","LIN":"9鄰","STREET":"西門路","SECT":"四段","MAREA":" ","LANE":" ","ALLEY":" ","HOUSE_NO":"４８７號","E_COORD97":169275.85999999999,"N_COORD97":2546562.0800000001,"ADDRESS":"西門路四段４８７號","OBJECTID":205037},"geometry":{"x":169275.8600000022,"y":2546562.0800000001}},{"attributes":{"ID":205039,"DIS_CODE":0,"TOWNNAME":"白河區","LI":"草店里","LIN":"2鄰","STREET":" ","SECT":" ","MAREA":"草店","LANE":" ","ALLEY":" ","HOUSE_NO":"１７之４號","E_COORD97":192426.22,"N_COORD97":2587932.3300000001,"ADDRESS":"草店１７之４號","OBJECTID":205038},"geometry":{"x":192426.22000000067,"y":2587932.3300000019}},{"attributes":{"ID":205040,"DIS_CODE":0,"TOWNNAME":"白河區","LI":"草店里","LIN":"2鄰","STREET":" ","SECT":" ","MAREA":"草店","LANE":" ","ALLEY":" ","HOUSE_NO":"１７號","E_COORD97":192344.72,"N_COORD97":2587975.8500000001,"ADDRESS":"草店１７號","OBJECTID":205039},"geometry":{"x":192344.72000000067,"y":2587975.8500000015}},{"attributes":{"ID":205041,"DIS_CODE":0,"TOWNNAME":"白河區","LI":"草店里","LIN":"2鄰","STREET":" ","SECT":" ","MAREA":"草店","LANE":" ","ALLEY":" ","HOUSE_NO":"１８號","E_COORD97":192362.92000000001,"N_COORD97":2587958.3599999999,"ADDRESS":"草店１８號","OBJECTID":205040},"geometry":{"x":192362.91999999993,"y":2587958.3600000013}},{"attributes":{"ID":205042,"DIS_CODE":0,"TOWNNAME":"白河區","LI":"草店里","LIN":"2鄰","STREET":" ","SECT":" ","MAREA":"草店","LANE":" ","ALLEY":" ","HOUSE_NO":"１９號","E_COORD97":192336.13,"N_COORD97":2588005.6499999999,"ADDRESS":"草店１９號","OBJECTID":205041},"geometry":{"x":192336.12999999989,"y":2588005.6500000004}},{"attributes":{"ID":205043,"DIS_CODE":0,"TOWNNAME":"白河區","LI":"廣安里","LIN":"2鄰","STREET":" ","SECT":" ","MAREA":"埤斗子","LANE":" ","ALLEY":" ","HOUSE_NO":"１３號","E_COORD97":189497.82999999999,"N_COORD97":2587345.2999999998,"ADDRESS":"埤斗子１３號","OBJECTID":205042},"geometry":{"x":189497.83000000101,"y":2587345.3000000045}},{"attributes":{"ID":205044,"DIS_CODE":0,"TOWNNAME":"白河區","LI":"秀祐里","LIN":"2鄰","STREET":" ","SECT":" ","MAREA":"頂秀祐","LANE":" ","ALLEY":" ","HOUSE_NO":"３１號","E_COORD97":188916.22,"N_COORD97":2583331.5899999999,"ADDRESS":"頂秀祐３１號","OBJECTID":205043},"geometry":{"x":188916.21999999974,"y":2583331.5900000036}},{"attributes":{"ID":205045,"DIS_CODE":0,"TOWNNAME":"白河區","LI":"秀祐里","LIN":"2鄰","STREET":" ","SECT":" ","MAREA":"頂秀祐","LANE":" ","ALLEY":" ","HOUSE_NO":"３２號","E_COORD97":188922.62,"N_COORD97":2583350.9300000002,"ADDRESS":"頂秀祐３２號","OBJECTID":205044},"geometry":{"x":188922.61999999918,"y":2583350.9300000016}},{"attributes":{"ID":205046,"DIS_CODE":0,"TOWNNAME":"白河區","LI":"秀祐里","LIN":"2鄰","STREET":" ","SECT":" ","MAREA":"頂秀祐","LANE":" ","ALLEY":" ","HOUSE_NO":"３３之１號","E_COORD97":188925.98999999999,"N_COORD97":2583368.4500000002,"ADDRESS":"頂秀祐３３之１號","OBJECTID":205045},"geometry":{"x":188925.99000000115,"y":2583368.4499999993}},{"attributes":{"ID":205047,"DIS_CODE":0,"TOWNNAME":"白河區","LI":"秀祐里","LIN":"2鄰","STREET":" ","SECT":" ","MAREA":"頂秀祐","LANE":" ","ALLEY":" ","HOUSE_NO":"３３號","E_COORD97":188907.01999999999,"N_COORD97":2583363.3599999999,"ADDRESS":"頂秀祐３３號","OBJECTID":205046},"geometry":{"x":188907.01999999955,"y":2583363.3600000031}},{"attributes":{"ID":205048,"DIS_CODE":0,"TOWNNAME":"白河區","LI":"秀祐里","LIN":"2鄰","STREET":" ","SECT":" ","MAREA":"頂秀祐","LANE":" ","ALLEY":" ","HOUSE_NO":"３４號","E_COORD97":188879.10000000001,"N_COORD97":2583367.5,"ADDRESS":"頂秀祐３４號","OBJECTID":205047},"geometry":{"x":188879.10000000056,"y":2583367.5000000019}},{"attributes":{"ID":205049,"DIS_CODE":0,"TOWNNAME":"白河區","LI":"玉豐里","LIN":"2鄰","STREET":" ","SECT":" ","MAREA":"頂崁頭","LANE":" ","ALLEY":" ","HOUSE_NO":"１１之１號","E_COORD97":191183.45999999999,"N_COORD97":2586804.96,"ADDRESS":"頂崁頭１１之１號","OBJECTID":205048},"geometry":{"x":191183.46000000183,"y":2586804.9600000009}},{"attributes":{"ID":205050,"DIS_CODE":0,"TOWNNAME":"白河區","LI":"玉豐里","LIN":"2鄰","STREET":" ","SECT":" ","MAREA":"頂崁頭","LANE":" ","ALLEY":" ","HOUSE_NO":"１１之５號","E_COORD97":191166.39000000001,"N_COORD97":2586848.7200000002,"ADDRESS":"頂崁頭１１之５號","OBJECTID":205049},"geometry":{"x":191166.38999999966,"y":2586848.7200000025}},{"attributes":{"ID":205051,"DIS_CODE":0,"TOWNNAME":"白河區","LI":"玉豐里","LIN":"2鄰","STREET":" ","SECT":" ","MAREA":"頂崁頭","LANE":" ","ALLEY":" ","HOUSE_NO":"１１之６號","E_COORD97":191152.35000000001,"N_COORD97":2586833.8900000001,"ADDRESS":"頂崁頭１１之６號","OBJECTID":205050},"geometry":{"x":191152.35000000056,"y":2586833.8900000025}},{"attributes":{"ID":205052,"DIS_CODE":0,"TOWNNAME":"白河區","LI":"玉豐里","LIN":"2鄰","STREET":" ","SECT":" ","MAREA":"頂崁頭","LANE":" ","ALLEY":" ","HOUSE_NO":"１１之７號","E_COORD97":191142.01000000001,"N_COORD97":2586804.8199999998,"ADDRESS":"頂崁頭１１之７號","OBJECTID":205051},"geometry":{"x":191142.00999999885,"y":2586804.8200000003}},{"attributes":{"ID":205053,"DIS_CODE":0,"TOWNNAME":"南區","LI":"喜北里","LIN":"9鄰","STREET":"喜樹路","SECT":" ","MAREA":" ","LANE":" ","ALLEY":" ","HOUSE_NO":"１３２號之１","E_COORD97":165871.85999999999,"N_COORD97":2538307.3900000001,"ADDRESS":"喜樹路１３２號之１","OBJECTID":205052},"geometry":{"x":165871.8600000022,"y":2538307.3900000025}},{"attributes":{"ID":205054,"DIS_CODE":0,"TOWNNAME":"南區","LI":"建南里","LIN":"9鄰","STREET":"德興路","SECT":" ","MAREA":" ","LANE":" ","ALLEY":" ","HOUSE_NO":"２８８號","E_COORD97":167201.20000000001,"N_COORD97":2539974.8599999999,"ADDRESS":"德興路２８８號","OBJECTID":205053},"geometry":{"x":167201.20000000019,"y":2539974.8599999994}},{"attributes":{"ID":205055,"DIS_CODE":0,"TOWNNAME":"南區","LI":"建南里","LIN":"9鄰","STREET":"德興路","SECT":" ","MAREA":" ","LANE":" ","ALLEY":" ","HOUSE_NO":"２９０號","E_COORD97":167201.87,"N_COORD97":2539967.4900000002,"ADDRESS":"德興路２９０號","OBJECTID":205054},"geometry":{"x":167201.87000000011,"y":2539967.4900000021}},{"attributes":{"ID":205056,"DIS_CODE":0,"TOWNNAME":"安南區","LI":"溪心里","LIN":"19鄰","STREET":"海中街","SECT":" ","MAREA":" ","LANE":" ","ALLEY":" ","HOUSE_NO":"８０２號","E_COORD97":165948.84,"N_COORD97":2549975.2999999998,"ADDRESS":"海中街８０２號","OBJECTID":205055},"geometry":{"x":165948.83999999985,"y":2549975.3000000007}},{"attributes":{"ID":205057,"DIS_CODE":0,"TOWNNAME":"安南區","LI":"溪心里","LIN":"19鄰","STREET":"海中街","SECT":" ","MAREA":" ","LANE":" ","ALLEY":" ","HOUSE_NO":"８０６號","E_COORD97":165950.20999999999,"N_COORD97":2549980.2599999998,"ADDRESS":"海中街８０６號","OBJECTID":205056},"geometry":{"x":165950.20999999996,"y":2549980.2600000016}},{"attributes":{"ID":205058,"DIS_CODE":0,"TOWNNAME":"安南區","LI":"溪心里","LIN":"19鄰","STREET":"海中街","SECT":" ","MAREA":" ","LANE":" ","ALLEY":" ","HOUSE_NO":"８０８號","E_COORD97":165954.54000000001,"N_COORD97":2549984.3700000001,"ADDRESS":"海中街８０８號","OBJECTID":205057},"geometry":{"x":165954.54000000004,"y":2549984.3700000029}},{"attributes":{"ID":205059,"DIS_CODE":0,"TOWNNAME":"東區","LI":"東光里","LIN":"25鄰","STREET":"東安路","SECT":" ","MAREA":" ","LANE":"１７６巷","ALLEY":"１弄","HOUSE_NO":"４號","E_COORD97":170794.59,"N_COORD97":2543950.8700000001,"ADDRESS":"東安路１７６巷１弄４號","OBJECTID":205058},"geometry":{"x":170794.59000000078,"y":2543950.870000001}},{"attributes":{"ID":205060,"DIS_CODE":0,"TOWNNAME":"安南區","LI":"溪心里","LIN":"19鄰","STREET":"海中街","SECT":" ","MAREA":" ","LANE":" ","ALLEY":" ","HOUSE_NO":"８１０號","E_COORD97":165957.91,"N_COORD97":2549986.79,"ADDRESS":"海中街８１０號","OBJECTID":205059},"geometry":{"x":165957.91000000201,"y":2549986.7899999991}},{"attributes":{"ID":205061,"DIS_CODE":0,"TOWNNAME":"安南區","LI":"溪心里","LIN":"17鄰","STREET":"仁安二街","SECT":" ","MAREA":" ","LANE":" ","ALLEY":" ","HOUSE_NO":"１０８號","E_COORD97":166084.42000000001,"N_COORD97":2550182.4500000002,"ADDRESS":"仁安二街１０８號","OBJECTID":205060},"geometry":{"x":166084.41999999993,"y":2550182.4499999993}},{"attributes":{"ID":205062,"DIS_CODE":0,"TOWNNAME":"安南區","LI":"溪心里","LIN":"17鄰","STREET":"仁安二街","SECT":" ","MAREA":" ","LANE":" ","ALLEY":" ","HOUSE_NO":"１１０號","E_COORD97":166100.67000000001,"N_COORD97":2550197.3900000001,"ADDRESS":"仁安二街１１０號","OBJECTID":205061},"geometry":{"x":166100.67000000086,"y":2550197.3900000025}},{"attributes":{"ID":205063,"DIS_CODE":0,"TOWNNAME":"安南區","LI":"溪心里","LIN":"17鄰","STREET":"智安四街","SECT":" ","MAREA":" ","LANE":" ","ALLEY":" ","HOUSE_NO":"３９號","E_COORD97":166221.69,"N_COORD97":2550201.2999999998,"ADDRESS":"智安四街３９號","OBJECTID":205062},"geometry":{"x":166221.69000000041,"y":2550201.3000000026}},{"attributes":{"ID":205064,"DIS_CODE":0,"TOWNNAME":"安南區","LI":"溪心里","LIN":"17鄰","STREET":"智安四街","SECT":" ","MAREA":" ","LANE":" ","ALLEY":" ","HOUSE_NO":"４１號","E_COORD97":166218.39999999999,"N_COORD97":2550205.0499999998,"ADDRESS":"智安四街４１號","OBJECTID":205063},"geometry":{"x":166218.40000000037,"y":2550205.0500000007}},{"attributes":{"ID":205065,"DIS_CODE":0,"TOWNNAME":"東區","LI":"東光里","LIN":"25鄰","STREET":"東安路","SECT":" ","MAREA":" ","LANE":"１７６巷","ALLEY":"１弄","HOUSE_NO":"５號","E_COORD97":170805.35000000001,"N_COORD97":2543969.5499999998,"ADDRESS":"東安路１７６巷１弄５號","OBJECTID":205064},"geometry":{"x":170805.34999999963,"y":2543969.5500000007}},{"attributes":{"ID":205066,"DIS_CODE":0,"TOWNNAME":"東區","LI":"東光里","LIN":"25鄰","STREET":"東安路","SECT":" ","MAREA":" ","LANE":"１７６巷","ALLEY":"１弄","HOUSE_NO":"６號","E_COORD97":170803.53,"N_COORD97":2543950.4100000001,"ADDRESS":"東安路１７６巷１弄６號","OBJECTID":205065},"geometry":{"x":170803.52999999933,"y":2543950.4100000039}},{"attributes":{"ID":205067,"DIS_CODE":0,"TOWNNAME":"東區","LI":"東光里","LIN":"25鄰","STREET":"東安路","SECT":" ","MAREA":" ","LANE":"１７６巷","ALLEY":"１弄","HOUSE_NO":"７號","E_COORD97":170814.01999999999,"N_COORD97":2543968.9100000001,"ADDRESS":"東安路１７６巷１弄７號","OBJECTID":205066},"geometry":{"x":170814.01999999955,"y":2543968.910000002}},{"attributes":{"ID":205068,"DIS_CODE":0,"TOWNNAME":"東區","LI":"東光里","LIN":"25鄰","STREET":"東安路","SECT":" ","MAREA":" ","LANE":"１７６巷","ALLEY":"１弄","HOUSE_NO":"８號","E_COORD97":170812.19,"N_COORD97":2543949.23,"ADDRESS":"東安路１７６巷１弄８號","OBJECTID":205067},"geometry":{"x":170812.19000000041,"y":2543949.2300000023}},{"attributes":{"ID":205069,"DIS_CODE":0,"TOWNNAME":"東區","LI":"東光里","LIN":"25鄰","STREET":"東安路","SECT":" ","MAREA":" ","LANE":"１７６巷","ALLEY":"１弄","HOUSE_NO":"１１號","E_COORD97":170827.91,"N_COORD97":2543970.2200000002,"ADDRESS":"東安路１７６巷１弄１１號","OBJECTID":205068},"geometry":{"x":170827.91000000015,"y":2543970.2200000025}},{"attributes":{"ID":205070,"DIS_CODE":0,"TOWNNAME":"東區","LI":"東光里","LIN":"25鄰","STREET":"東安路","SECT":" ","MAREA":" ","LANE":"１７６巷","ALLEY":"１弄","HOUSE_NO":"１６號","E_COORD97":170839.79999999999,"N_COORD97":2543947.46,"ADDRESS":"東安路１７６巷１弄１６號","OBJECTID":205069},"geometry":{"x":170839.79999999981,"y":2543947.4600000046}},{"attributes":{"ID":205071,"DIS_CODE":0,"TOWNNAME":"東區","LI":"東光里","LIN":"25鄰","STREET":"東安路","SECT":" ","MAREA":" ","LANE":"１７６巷","ALLEY":"１弄","HOUSE_NO":"１７號","E_COORD97":170847.54999999999,"N_COORD97":2543969.5899999999,"ADDRESS":"東安路１７６巷１弄１７號","OBJECTID":205070},"geometry":{"x":170847.55000000075,"y":2543969.5900000017}},{"attributes":{"ID":205072,"DIS_CODE":0,"TOWNNAME":"東區","LI":"東光里","LIN":"25鄰","STREET":"東安路","SECT":" ","MAREA":" ","LANE":"１７６巷","ALLEY":"１弄","HOUSE_NO":"１８號","E_COORD97":170845.28,"N_COORD97":2543946.6899999999,"ADDRESS":"東安路１７６巷１弄１８號","OBJECTID":205071},"geometry":{"x":170845.28000000026,"y":2543946.6899999995}},{"attributes":{"ID":205073,"DIS_CODE":0,"TOWNNAME":"東區","LI":"東光里","LIN":"25鄰","STREET":"東安路","SECT":" ","MAREA":" ","LANE":"１７６巷","ALLEY":"１弄","HOUSE_NO":"１９號","E_COORD97":170853.70000000001,"N_COORD97":2543968.4500000002,"ADDRESS":"東安路１７６巷１弄１９號","OBJECTID":205072},"geometry":{"x":170853.70000000112,"y":2543968.4499999993}},{"attributes":{"ID":205074,"DIS_CODE":0,"TOWNNAME":"東區","LI":"東光里","LIN":"25鄰","STREET":"東安路","SECT":" ","MAREA":" ","LANE":"１７６巷","ALLEY":"１弄","HOUSE_NO":"２０號","E_COORD97":170851.62,"N_COORD97":2543945.6800000002,"ADDRESS":"東安路１７６巷１弄２０號","OBJECTID":205073},"geometry":{"x":170851.62000000011,"y":2543945.6800000016}},{"attributes":{"ID":205075,"DIS_CODE":0,"TOWNNAME":"東區","LI":"東光里","LIN":"25鄰","STREET":"東安路","SECT":" ","MAREA":" ","LANE":"１７６巷","ALLEY":"１弄","HOUSE_NO":"２１號","E_COORD97":170859.39999999999,"N_COORD97":2543966.7400000002,"ADDRESS":"東安路１７６巷１弄２１號","OBJECTID":205074},"geometry":{"x":170859.4000000013,"y":2543966.7400000021}},{"attributes":{"ID":205076,"DIS_CODE":0,"TOWNNAME":"東區","LI":"東光里","LIN":"25鄰","STREET":"東安路","SECT":" ","MAREA":" ","LANE":"１７６巷","ALLEY":"１弄","HOUSE_NO":"２２號","E_COORD97":170857.42000000001,"N_COORD97":2543945.6800000002,"ADDRESS":"東安路１７６巷１弄２２號","OBJECTID":205075},"geometry":{"x":170857.41999999993,"y":2543945.6800000016}},{"attributes":{"ID":205077,"DIS_CODE":0,"TOWNNAME":"東區","LI":"東光里","LIN":"25鄰","STREET":"東安路","SECT":" ","MAREA":" ","LANE":"１７６巷","ALLEY":"１弄","HOUSE_NO":"２３號","E_COORD97":170865.12,"N_COORD97":2543967.6899999999,"ADDRESS":"東安路１７６巷１弄２３號","OBJECTID":205076},"geometry":{"x":170865.12000000011,"y":2543967.6899999995}},{"attributes":{"ID":205078,"DIS_CODE":0,"TOWNNAME":"東區","LI":"東光里","LIN":"25鄰","STREET":"東安路","SECT":" ","MAREA":" ","LANE":"１７６巷","ALLEY":"１弄","HOUSE_NO":"２４號","E_COORD97":170863.37,"N_COORD97":2543945.5299999998,"ADDRESS":"東安路１７６巷１弄２４號","OBJECTID":205077},"geometry":{"x":170863.37000000011,"y":2543945.5300000031}},{"attributes":{"ID":205079,"DIS_CODE":0,"TOWNNAME":"東區","LI":"東光里","LIN":"25鄰","STREET":"東安路","SECT":" ","MAREA":" ","LANE":"１７６巷","ALLEY":"１弄","HOUSE_NO":"２５號","E_COORD97":170871.13,"N_COORD97":2543966.98,"ADDRESS":"東安路１７６巷１弄２５號","OBJECTID":205078},"geometry":{"x":170871.13000000082,"y":2543966.9799999986}},{"attributes":{"ID":205080,"DIS_CODE":0,"TOWNNAME":"東區","LI":"東光里","LIN":"25鄰","STREET":"東安路","SECT":" ","MAREA":" ","LANE":"１７６巷","ALLEY":"１弄","HOUSE_NO":"２６號","E_COORD97":170869.16,"N_COORD97":2543944.6000000001,"ADDRESS":"東安路１７６巷１弄２６號","OBJECTID":205079},"geometry":{"x":170869.16000000108,"y":2543944.5999999996}},{"attributes":{"ID":205081,"DIS_CODE":0,"TOWNNAME":"安南區","LI":"溪心里","LIN":"17鄰","STREET":"智安四街","SECT":" ","MAREA":" ","LANE":" ","ALLEY":" ","HOUSE_NO":"４３號","E_COORD97":166216.35999999999,"N_COORD97":2550209.1200000001,"ADDRESS":"智安四街４３號","OBJECTID":205080},"geometry":{"x":166216.36000000127,"y":2550209.1200000029}},{"attributes":{"ID":205082,"DIS_CODE":0,"TOWNNAME":"北區","LI":"重興里","LIN":"9鄰","STREET":" ","SECT":" ","MAREA":"自強","LANE":" ","ALLEY":" ","HOUSE_NO":"３０號","E_COORD97":170614.63,"N_COORD97":2545114.8700000001,"ADDRESS":"自強３０號","OBJECTID":205081},"geometry":{"x":170614.63000000082,"y":2545114.8700000029}},{"attributes":{"ID":205083,"DIS_CODE":0,"TOWNNAME":"白河區","LI":"玉豐里","LIN":"2鄰","STREET":" ","SECT":" ","MAREA":"頂崁頭","LANE":" ","ALLEY":" ","HOUSE_NO":"１１號","E_COORD97":191177.76000000001,"N_COORD97":2586782.4399999999,"ADDRESS":"頂崁頭１１號","OBJECTID":205082},"geometry":{"x":191177.76000000164,"y":2586782.4399999995}},{"attributes":{"ID":205084,"DIS_CODE":0,"TOWNNAME":"白河區","LI":"玉豐里","LIN":"2鄰","STREET":" ","SECT":" ","MAREA":"頂崁頭","LANE":" ","ALLEY":" ","HOUSE_NO":"１２之１號","E_COORD97":191062.57000000001,"N_COORD97":2586845.7599999998,"ADDRESS":"頂崁頭１２之１號","OBJECTID":205083},"geometry":{"x":191062.57000000216,"y":2586845.7599999998}},{"attributes":{"ID":205085,"DIS_CODE":0,"TOWNNAME":"東區","LI":"東光里","LIN":"25鄰","STREET":"東安路","SECT":" ","MAREA":" ","LANE":"１７６巷","ALLEY":"１弄","HOUSE_NO":"２７號","E_COORD97":170876.32000000001,"N_COORD97":2543965.9399999999,"ADDRESS":"東安路１７６巷１弄２７號","OBJECTID":205084},"geometry":{"x":170876.32000000216,"y":2543965.9399999995}},{"attributes":{"ID":205086,"DIS_CODE":0,"TOWNNAME":"東區","LI":"東光里","LIN":"25鄰","STREET":"東安路","SECT":" ","MAREA":" ","LANE":"１７６巷","ALLEY":"１弄","HOUSE_NO":"２８號","E_COORD97":170874.95999999999,"N_COORD97":2543943.6000000001,"ADDRESS":"東安路１７６巷１弄２８號","OBJECTID":205085},"geometry":{"x":170874.96000000183,"y":2543943.5999999996}},{"attributes":{"ID":205087,"DIS_CODE":0,"TOWNNAME":"東區","LI":"東光里","LIN":"25鄰","STREET":"東安路","SECT":" ","MAREA":" ","LANE":"１７６巷","ALLEY":"１弄","HOUSE_NO":"２９號","E_COORD97":170882.76000000001,"N_COORD97":2543965.7200000002,"ADDRESS":"東安路１７６巷１弄２９號","OBJECTID":205086},"geometry":{"x":170882.75999999978,"y":2543965.7200000044}},{"attributes":{"ID":205088,"DIS_CODE":0,"TOWNNAME":"東區","LI":"東光里","LIN":"25鄰","STREET":"東安路","SECT":" ","MAREA":" ","LANE":"１７６巷","ALLEY":"１弄","HOUSE_NO":"３０號","E_COORD97":170880.98000000001,"N_COORD97":2543943.6000000001,"ADDRESS":"東安路１７６巷１弄３０號","OBJECTID":205087},"geometry":{"x":170880.98000000138,"y":2543943.5999999996}},{"attributes":{"ID":205089,"DIS_CODE":0,"TOWNNAME":"東區","LI":"東光里","LIN":"25鄰","STREET":"東安路","SECT":" ","MAREA":" ","LANE":"１７６巷","ALLEY":"１弄","HOUSE_NO":"３１號","E_COORD97":170888.81,"N_COORD97":2543964.8599999999,"ADDRESS":"東安路１７６巷１弄３１號","OBJECTID":205088},"geometry":{"x":170888.80999999959,"y":2543964.8600000013}},{"attributes":{"ID":205090,"DIS_CODE":0,"TOWNNAME":"東區","LI":"東光里","LIN":"25鄰","STREET":"東安路","SECT":" ","MAREA":" ","LANE":"１７６巷","ALLEY":"１弄","HOUSE_NO":"３２號","E_COORD97":170887.35999999999,"N_COORD97":2543942.1400000001,"ADDRESS":"東安路１７６巷１弄３２號","OBJECTID":205089},"geometry":{"x":170887.36000000034,"y":2543942.1400000006}},{"attributes":{"ID":205091,"DIS_CODE":0,"TOWNNAME":"仁德區","LI":"太子里","LIN":"25鄰","STREET":"長興五街","SECT":" ","MAREA":" ","LANE":"１４巷","ALLEY":"９弄","HOUSE_NO":"７號","E_COORD97":173625.51454900001,"N_COORD97":2543633.7411799999,"ADDRESS":"長興五街１４巷９弄７號","OBJECTID":205090},"geometry":{"x":173625.51454900112,"y":2543633.7411829997}},{"attributes":{"ID":205092,"DIS_CODE":0,"TOWNNAME":"仁德區","LI":"太子里","LIN":"25鄰","STREET":"長興五街","SECT":" ","MAREA":" ","LANE":"１４巷","ALLEY":"９弄","HOUSE_NO":"３號","E_COORD97":173616.40835300001,"N_COORD97":2543630.3545200001,"ADDRESS":"長興五街１４巷９弄３號","OBJECTID":205091},"geometry":{"x":173616.40835300088,"y":2543630.3545180038}},{"attributes":{"ID":205093,"DIS_CODE":0,"TOWNNAME":"永康區","LI":"正強里","LIN":"25鄰","STREET":"中正路","SECT":" ","MAREA":" ","LANE":"１２７巷","ALLEY":"８弄","HOUSE_NO":"４號","E_COORD97":173349.01999999999,"N_COORD97":2547845.5699999998,"ADDRESS":"中正路１２７巷８弄４號","OBJECTID":205092},"geometry":{"x":173349.01999999862,"y":2547845.5700000022}},{"attributes":{"ID":205094,"DIS_CODE":0,"TOWNNAME":"永康區","LI":"正強里","LIN":"25鄰","STREET":"中正路","SECT":" ","MAREA":" ","LANE":"１２７巷","ALLEY":"８弄","HOUSE_NO":"１０號","E_COORD97":173336.14999999999,"N_COORD97":2547841.8199999998,"ADDRESS":"中正路１２７巷８弄１０號","OBJECTID":205093},"geometry":{"x":173336.1500000013,"y":2547841.8200000003}},{"attributes":{"ID":205095,"DIS_CODE":0,"TOWNNAME":"白河區","LI":"詔安里","LIN":"2鄰","STREET":" ","SECT":" ","MAREA":"詔安厝","LANE":" ","ALLEY":" ","HOUSE_NO":"１５號","E_COORD97":189909.44,"N_COORD97":2588028.3799999999,"ADDRESS":"詔安厝１５號","OBJECTID":205094},"geometry":{"x":189909.44000000134,"y":2588028.3800000008}},{"attributes":{"ID":205096,"DIS_CODE":0,"TOWNNAME":"永康區","LI":"五王里","LIN":"25鄰","STREET":"成功路","SECT":" ","MAREA":" ","LANE":"２４４巷","ALLEY":"４９弄","HOUSE_NO":"１號","E_COORD97":171416.60000000001,"N_COORD97":2545892.6099999999,"ADDRESS":"成功路２４４巷４９弄１號","OBJECTID":205095},"geometry":{"x":171416.60000000056,"y":2545892.6100000013}},{"attributes":{"ID":205097,"DIS_CODE":0,"TOWNNAME":"安南區","LI":"州北里","LIN":"25鄰","STREET":"安和路","SECT":"五段","MAREA":" ","LANE":"１７１巷","ALLEY":"１７弄","HOUSE_NO":"４２號","E_COORD97":169815.63,"N_COORD97":2551739.29,"ADDRESS":"安和路五段１７１巷１７弄４２號","OBJECTID":205096},"geometry":{"x":169815.62999999989,"y":2551739.290000001}},{"attributes":{"ID":205098,"DIS_CODE":0,"TOWNNAME":"安南區","LI":"州南里","LIN":"25鄰","STREET":"安和路","SECT":"四段","MAREA":" ","LANE":"５３８巷","ALLEY":"１３弄","HOUSE_NO":"１２號","E_COORD97":170007.29000000001,"N_COORD97":2551329.29,"ADDRESS":"安和路四段５３８巷１３弄１２號","OBJECTID":205097},"geometry":{"x":170007.29000000097,"y":2551329.290000001}},{"attributes":{"ID":205099,"DIS_CODE":0,"TOWNNAME":"安南區","LI":"州南里","LIN":"25鄰","STREET":"安和路","SECT":"四段","MAREA":" ","LANE":"５３８巷","ALLEY":"１３弄","HOUSE_NO":"１０號","E_COORD97":170006.07999999999,"N_COORD97":2551325.8500000001,"ADDRESS":"安和路四段５３８巷１３弄１０號","OBJECTID":205098},"geometry":{"x":170006.08000000007,"y":2551325.8500000015}},{"attributes":{"ID":205100,"DIS_CODE":0,"TOWNNAME":"安南區","LI":"州南里","LIN":"25鄰","STREET":"安和路","SECT":"四段","MAREA":" ","LANE":"５３８巷","ALLEY":"１３弄","HOUSE_NO":"１１號","E_COORD97":169991.07000000001,"N_COORD97":2551343.5899999999,"ADDRESS":"安和路四段５３８巷１３弄１１號","OBJECTID":205099},"geometry":{"x":169991.0700000003,"y":2551343.5900000017}},{"attributes":{"ID":205101,"DIS_CODE":0,"TOWNNAME":"安南區","LI":"州南里","LIN":"25鄰","STREET":"安和路","SECT":"四段","MAREA":" ","LANE":"５３８巷","ALLEY":"１３弄","HOUSE_NO":"１３號","E_COORD97":169992.62,"N_COORD97":2551347.3900000001,"ADDRESS":"安和路四段５３８巷１３弄１３號","OBJECTID":205100},"geometry":{"x":169992.62000000197,"y":2551347.3900000006}},{"attributes":{"ID":205102,"DIS_CODE":0,"TOWNNAME":"安南區","LI":"州南里","LIN":"25鄰","STREET":"安和路","SECT":"四段","MAREA":" ","LANE":"５３８巷","ALLEY":"１３弄","HOUSE_NO":"１４號","E_COORD97":170009.70000000001,"N_COORD97":2551333.2599999998,"ADDRESS":"安和路四段５３８巷１３弄１４號","OBJECTID":205101},"geometry":{"x":170009.70000000112,"y":2551333.2600000016}},{"attributes":{"ID":205103,"DIS_CODE":0,"TOWNNAME":"安南區","LI":"州南里","LIN":"25鄰","STREET":"安和路","SECT":"四段","MAREA":" ","LANE":"５３８巷","ALLEY":"１３弄","HOUSE_NO":"１５號","E_COORD97":169996.59,"N_COORD97":2551349.9700000002,"ADDRESS":"安和路四段５３８巷１３弄１５號","OBJECTID":205102},"geometry":{"x":169996.59000000078,"y":2551349.9700000025}},{"attributes":{"ID":205104,"DIS_CODE":0,"TOWNNAME":"安南區","LI":"州南里","LIN":"25鄰","STREET":"安和路","SECT":"四段","MAREA":" ","LANE":"５３８巷","ALLEY":"１３弄","HOUSE_NO":"１６號","E_COORD97":170011.60000000001,"N_COORD97":2551338.0800000001,"ADDRESS":"安和路四段５３８巷１３弄１６號","OBJECTID":205103},"geometry":{"x":170011.60000000056,"y":2551338.0800000019}},{"attributes":{"ID":205105,"DIS_CODE":0,"TOWNNAME":"安南區","LI":"州南里","LIN":"25鄰","STREET":"安和路","SECT":"四段","MAREA":" ","LANE":"５３８巷","ALLEY":"１３弄","HOUSE_NO":"２號","E_COORD97":169997.79999999999,"N_COORD97":2551309.2999999998,"ADDRESS":"安和路四段５３８巷１３弄２號","OBJECTID":205104},"geometry":{"x":169997.80000000168,"y":2551309.3000000026}},{"attributes":{"ID":205106,"DIS_CODE":0,"TOWNNAME":"安南區","LI":"州南里","LIN":"25鄰","STREET":"安和路","SECT":"四段","MAREA":" ","LANE":"５３８巷","ALLEY":"１３弄","HOUSE_NO":"３號","E_COORD97":169985.72,"N_COORD97":2551328.2599999998,"ADDRESS":"安和路四段５３８巷１３弄３號","OBJECTID":205105},"geometry":{"x":169985.71999999974,"y":2551328.2599999979}},{"attributes":{"ID":205107,"DIS_CODE":0,"TOWNNAME":"永康區","LI":"大橋里","LIN":"9鄰","STREET":"大橋三街","SECT":" ","MAREA":" ","LANE":" ","ALLEY":" ","HOUSE_NO":"２８７號四樓之２","E_COORD97":171119.37,"N_COORD97":2546965.5499999998,"ADDRESS":"大橋三街２８７號四樓之２","OBJECTID":205106},"geometry":{"x":171119.37000000011,"y":2546965.5500000026}},{"attributes":{"ID":205108,"DIS_CODE":0,"TOWNNAME":"東區","LI":"圍下里","LIN":"9鄰","STREET":"勝利路","SECT":" ","MAREA":" ","LANE":" ","ALLEY":" ","HOUSE_NO":"８３號三樓","E_COORD97":169792.89000000001,"N_COORD97":2543544.23,"ADDRESS":"勝利路８３號三樓","OBJECTID":205107},"geometry":{"x":169792.88999999966,"y":2543544.2300000004}},{"attributes":{"ID":205109,"DIS_CODE":0,"TOWNNAME":"東區","LI":"圍下里","LIN":"9鄰","STREET":"勝利路","SECT":" ","MAREA":" ","LANE":" ","ALLEY":" ","HOUSE_NO":"８３號五樓","E_COORD97":169792.89000000001,"N_COORD97":2543544.23,"ADDRESS":"勝利路８３號五樓","OBJECTID":205108},"geometry":{"x":169792.88999999966,"y":2543544.2300000004}},{"attributes":{"ID":205110,"DIS_CODE":0,"TOWNNAME":"東區","LI":"東門里","LIN":"9鄰","STREET":"前鋒路","SECT":" ","MAREA":" ","LANE":" ","ALLEY":" ","HOUSE_NO":"４１號三樓","E_COORD97":169282.54999999999,"N_COORD97":2543424.2599999998,"ADDRESS":"前鋒路４１號三樓","OBJECTID":205109},"geometry":{"x":169282.55000000168,"y":2543424.2599999998}},{"attributes":{"ID":205111,"DIS_CODE":0,"TOWNNAME":"安南區","LI":"溪心里","LIN":"17鄰","STREET":"智安四街","SECT":" ","MAREA":" ","LANE":" ","ALLEY":" ","HOUSE_NO":"４５號","E_COORD97":166213.54000000001,"N_COORD97":2550212.4100000001,"ADDRESS":"智安四街４５號","OBJECTID":205110},"geometry":{"x":166213.54000000097,"y":2550212.4100000039}},{"attributes":{"ID":205112,"DIS_CODE":0,"TOWNNAME":"六甲區","LI":"中社里","LIN":"9鄰","STREET":" ","SECT":" ","MAREA":"中社","LANE":" ","ALLEY":" ","HOUSE_NO":"３１９號","E_COORD97":180991.51999999999,"N_COORD97":2570807.5800000001,"ADDRESS":"中社３１９號","OBJECTID":205111},"geometry":{"x":180991.52000000048,"y":2570807.5799999982}},{"attributes":{"ID":205113,"DIS_CODE":0,"TOWNNAME":"白河區","LI":"玉豐里","LIN":"2鄰","STREET":" ","SECT":" ","MAREA":"頂崁頭","LANE":" ","ALLEY":" ","HOUSE_NO":"１２號","E_COORD97":191170.89000000001,"N_COORD97":2586773.3199999998,"ADDRESS":"頂崁頭１２號","OBJECTID":205112},"geometry":{"x":191170.88999999966,"y":2586773.3200000022}},{"attributes":{"ID":205114,"DIS_CODE":0,"TOWNNAME":"白河區","LI":"玉豐里","LIN":"2鄰","STREET":" ","SECT":" ","MAREA":"頂崁頭","LANE":" ","ALLEY":" ","HOUSE_NO":"１３號","E_COORD97":191186.79000000001,"N_COORD97":2586767.04,"ADDRESS":"頂崁頭１３號","OBJECTID":205113},"geometry":{"x":191186.79000000097,"y":2586767.040000001}},{"attributes":{"ID":205115,"DIS_CODE":0,"TOWNNAME":"白河區","LI":"玉豐里","LIN":"2鄰","STREET":" ","SECT":" ","MAREA":"頂崁頭","LANE":" ","ALLEY":" ","HOUSE_NO":"１５號","E_COORD97":191193.84,"N_COORD97":2586745.0499999998,"ADDRESS":"頂崁頭１５號","OBJECTID":205114},"geometry":{"x":191193.83999999985,"y":2586745.0500000026}},{"attributes":{"ID":205116,"DIS_CODE":0,"TOWNNAME":"安南區","LI":"州南里","LIN":"25鄰","STREET":"安和路","SECT":"四段","MAREA":" ","LANE":"５３８巷","ALLEY":"１３弄","HOUSE_NO":"４號","E_COORD97":169999.87,"N_COORD97":2551312.75,"ADDRESS":"安和路四段５３８巷１３弄４號","OBJECTID":205115},"geometry":{"x":169999.87000000104,"y":2551312.7500000019}},{"attributes":{"ID":205117,"DIS_CODE":0,"TOWNNAME":"白河區","LI":"玉豐里","LIN":"2鄰","STREET":" ","SECT":" ","MAREA":"頂崁頭","LANE":" ","ALLEY":" ","HOUSE_NO":"１６號","E_COORD97":191203.01000000001,"N_COORD97":2586788.1699999999,"ADDRESS":"頂崁頭１６號","OBJECTID":205116},"geometry":{"x":191203.00999999978,"y":2586788.1699999999}},{"attributes":{"ID":205118,"DIS_CODE":0,"TOWNNAME":"白河區","LI":"玉豐里","LIN":"2鄰","STREET":" ","SECT":" ","MAREA":"頂崁頭","LANE":" ","ALLEY":" ","HOUSE_NO":"１７號","E_COORD97":191272.35999999999,"N_COORD97":2586852.5600000001,"ADDRESS":"頂崁頭１７號","OBJECTID":205117},"geometry":{"x":191272.36000000034,"y":2586852.5600000024}},{"attributes":{"ID":205119,"DIS_CODE":0,"TOWNNAME":"白河區","LI":"玉豐里","LIN":"2鄰","STREET":" ","SECT":" ","MAREA":"頂崁頭","LANE":" ","ALLEY":" ","HOUSE_NO":"１８號","E_COORD97":191305.12,"N_COORD97":2586800.8199999998,"ADDRESS":"頂崁頭１８號","OBJECTID":205118},"geometry":{"x":191305.12000000104,"y":2586800.8200000003}},{"attributes":{"ID":205120,"DIS_CODE":0,"TOWNNAME":"白河區","LI":"玉豐里","LIN":"2鄰","STREET":" ","SECT":" ","MAREA":"頂崁頭","LANE":" ","ALLEY":" ","HOUSE_NO":"２１之１號","E_COORD97":191224.22,"N_COORD97":2586669.0499999998,"ADDRESS":"頂崁頭２１之１號","OBJECTID":205119},"geometry":{"x":191224.22000000067,"y":2586669.0500000045}},{"attributes":{"ID":205121,"DIS_CODE":0,"TOWNNAME":"白河區","LI":"玉豐里","LIN":"2鄰","STREET":" ","SECT":" ","MAREA":"頂崁頭","LANE":" ","ALLEY":" ","HOUSE_NO":"２１號","E_COORD97":191205.26000000001,"N_COORD97":2586655.7200000002,"ADDRESS":"頂崁頭２１號","OBJECTID":205120},"geometry":{"x":191205.26000000071,"y":2586655.7200000025}},{"attributes":{"ID":205122,"DIS_CODE":0,"TOWNNAME":"白河區","LI":"玉豐里","LIN":"2鄰","STREET":" ","SECT":" ","MAREA":"頂崁頭","LANE":" ","ALLEY":" ","HOUSE_NO":"２２之２號","E_COORD97":191133.5,"N_COORD97":2586712.4500000002,"ADDRESS":"頂崁頭２２之２號","OBJECTID":205121},"geometry":{"x":191133.5,"y":2586712.4500000011}},{"attributes":{"ID":205123,"DIS_CODE":0,"TOWNNAME":"白河區","LI":"玉豐里","LIN":"2鄰","STREET":" ","SECT":" ","MAREA":"頂崁頭","LANE":" ","ALLEY":" ","HOUSE_NO":"２２號","E_COORD97":191130.06,"N_COORD97":2586708.8399999999,"ADDRESS":"頂崁頭２２號","OBJECTID":205122},"geometry":{"x":191130.06000000052,"y":2586708.8399999999}},{"attributes":{"ID":205124,"DIS_CODE":0,"TOWNNAME":"白河區","LI":"玉豐里","LIN":"2鄰","STREET":" ","SECT":" ","MAREA":"頂崁頭","LANE":" ","ALLEY":" ","HOUSE_NO":"２３之１號","E_COORD97":191109.62,"N_COORD97":2586743.1200000001,"ADDRESS":"頂崁頭２３之１號","OBJECTID":205123},"geometry":{"x":191109.62000000197,"y":2586743.1199999992}},{"attributes":{"ID":205125,"DIS_CODE":0,"TOWNNAME":"白河區","LI":"玉豐里","LIN":"2鄰","STREET":" ","SECT":" ","MAREA":"頂崁頭","LANE":" ","ALLEY":" ","HOUSE_NO":"２３號","E_COORD97":191144.37,"N_COORD97":2586693.1899999999,"ADDRESS":"頂崁頭２３號","OBJECTID":205124},"geometry":{"x":191144.37000000011,"y":2586693.1899999995}},{"attributes":{"ID":205126,"DIS_CODE":0,"TOWNNAME":"永康區","LI":"大橋里","LIN":"9鄰","STREET":"大橋三街","SECT":" ","MAREA":" ","LANE":" ","ALLEY":" ","HOUSE_NO":"２８１號五樓之１","E_COORD97":171125.42000000001,"N_COORD97":2546950.7599999998,"ADDRESS":"大橋三街２８１號五樓之１","OBJECTID":205125},"geometry":{"x":171125.41999999993,"y":2546950.7599999998}},{"attributes":{"ID":205127,"DIS_CODE":0,"TOWNNAME":"安南區","LI":"州南里","LIN":"25鄰","STREET":"安和路","SECT":"四段","MAREA":" ","LANE":"５３８巷","ALLEY":"１３弄","HOUSE_NO":"５號","E_COORD97":169987.45000000001,"N_COORD97":2551332.0499999998,"ADDRESS":"安和路四段５３８巷１３弄５號","OBJECTID":205126},"geometry":{"x":169987.45000000112,"y":2551332.0500000026}},{"attributes":{"ID":205128,"DIS_CODE":0,"TOWNNAME":"安南區","LI":"州南里","LIN":"25鄰","STREET":"安和路","SECT":"四段","MAREA":" ","LANE":"５３８巷","ALLEY":"１３弄","HOUSE_NO":"７號","E_COORD97":169988.14000000001,"N_COORD97":2551335.3199999998,"ADDRESS":"安和路四段５３８巷１３弄７號","OBJECTID":205127},"geometry":{"x":169988.13999999966,"y":2551335.320000004}},{"attributes":{"ID":205129,"DIS_CODE":0,"TOWNNAME":"安南區","LI":"州南里","LIN":"25鄰","STREET":"安和路","SECT":"四段","MAREA":" ","LANE":"５３８巷","ALLEY":"１３弄","HOUSE_NO":"８號","E_COORD97":170004.51999999999,"N_COORD97":2551320.3300000001,"ADDRESS":"安和路四段５３８巷１３弄８號","OBJECTID":205128},"geometry":{"x":170004.52000000142,"y":2551320.3300000001}},{"attributes":{"ID":205130,"DIS_CODE":0,"TOWNNAME":"安南區","LI":"州南里","LIN":"25鄰","STREET":"安和路","SECT":"四段","MAREA":" ","LANE":"５３８巷","ALLEY":"１３弄","HOUSE_NO":"９號","E_COORD97":169990.20999999999,"N_COORD97":2551339.1099999999,"ADDRESS":"安和路四段５３８巷１３弄９號","OBJECTID":205129},"geometry":{"x":169990.21000000183,"y":2551339.1099999975}},{"attributes":{"ID":205131,"DIS_CODE":0,"TOWNNAME":"永康區","LI":"安康里","LIN":"25鄰","STREET":"中華路","SECT":" ","MAREA":" ","LANE":"７０３巷","ALLEY":"４弄","HOUSE_NO":"５號","E_COORD97":170856.72,"N_COORD97":2546323.25,"ADDRESS":"中華路７０３巷４弄５號","OBJECTID":205130},"geometry":{"x":170856.72000000067,"y":2546323.25}},{"attributes":{"ID":205132,"DIS_CODE":0,"TOWNNAME":"永康區","LI":"尚頂里","LIN":"25鄰","STREET":"中正南路","SECT":" ","MAREA":" ","LANE":"２１０巷","ALLEY":"１２弄","HOUSE_NO":"４號","E_COORD97":170160.20000000001,"N_COORD97":2547109.2400000002,"ADDRESS":"中正南路２１０巷１２弄４號","OBJECTID":205131},"geometry":{"x":170160.20000000112,"y":2547109.2400000021}},{"attributes":{"ID":205133,"DIS_CODE":0,"TOWNNAME":"永康區","LI":"東灣里","LIN":"25鄰","STREET":"大灣二街","SECT":" ","MAREA":" ","LANE":"７１巷","ALLEY":"１８弄","HOUSE_NO":"１２號","E_COORD97":174769.84,"N_COORD97":2544698.7999999998,"ADDRESS":"大灣二街７１巷１８弄１２號","OBJECTID":205132},"geometry":{"x":174769.84000000078,"y":2544698.8000000026}},{"attributes":{"ID":205134,"DIS_CODE":0,"TOWNNAME":"永康區","LI":"東灣里","LIN":"25鄰","STREET":"大灣二街","SECT":" ","MAREA":" ","LANE":"７１巷","ALLEY":"１８弄","HOUSE_NO":"８號","E_COORD97":174778.31,"N_COORD97":2544719.2000000002,"ADDRESS":"大灣二街７１巷１８弄８號","OBJECTID":205133},"geometry":{"x":174778.31000000052,"y":2544719.1999999993}},{"attributes":{"ID":205135,"DIS_CODE":0,"TOWNNAME":"永康區","LI":"東灣里","LIN":"25鄰","STREET":"大灣二街","SECT":" ","MAREA":" ","LANE":"７１巷","ALLEY":"１８弄","HOUSE_NO":"１６號","E_COORD97":174760.95000000001,"N_COORD97":2544702.9399999999,"ADDRESS":"大灣二街７１巷１８弄１６號","OBJECTID":205134},"geometry":{"x":174760.95000000112,"y":2544702.9400000013}},{"attributes":{"ID":205136,"DIS_CODE":0,"TOWNNAME":"永康區","LI":"尚頂里","LIN":"25鄰","STREET":"中正南路","SECT":" ","MAREA":" ","LANE":"２１０巷","ALLEY":"１２弄","HOUSE_NO":"３０號","E_COORD97":170208.10000000001,"N_COORD97":2547063.25,"ADDRESS":"中正南路２１０巷１２弄３０號","OBJECTID":205135},"geometry":{"x":170208.10000000056,"y":2547063.25}},{"attributes":{"ID":205137,"DIS_CODE":0,"TOWNNAME":"永康區","LI":"尚頂里","LIN":"25鄰","STREET":"中正南路","SECT":" ","MAREA":" ","LANE":"２１０巷","ALLEY":"１２弄","HOUSE_NO":"２２號","E_COORD97":170195.35000000001,"N_COORD97":2547077.2400000002,"ADDRESS":"中正南路２１０巷１２弄２２號","OBJECTID":205136},"geometry":{"x":170195.34999999963,"y":2547077.2400000002}},{"attributes":{"ID":205138,"DIS_CODE":0,"TOWNNAME":"永康區","LI":"尚頂里","LIN":"25鄰","STREET":"中正南路","SECT":" ","MAREA":" ","LANE":"２１０巷","ALLEY":"１２弄","HOUSE_NO":"３２號","E_COORD97":170212.35000000001,"N_COORD97":2547060.25,"ADDRESS":"中正南路２１０巷１２弄３２號","OBJECTID":205137},"geometry":{"x":170212.34999999963,"y":2547060.2500000037}},{"attributes":{"ID":205139,"DIS_CODE":0,"TOWNNAME":"安南區","LI":"州南里","LIN":"25鄰","STREET":"安和路","SECT":"四段","MAREA":" ","LANE":"４０６巷","ALLEY":"９弄","HOUSE_NO":"８８號","E_COORD97":170007.42999999999,"N_COORD97":2551175.7400000002,"ADDRESS":"安和路四段４０６巷９弄８８號","OBJECTID":205138},"geometry":{"x":170007.43000000063,"y":2551175.7400000002}},{"attributes":{"ID":205140,"DIS_CODE":0,"TOWNNAME":"安南區","LI":"州南里","LIN":"25鄰","STREET":"安和路","SECT":"四段","MAREA":" ","LANE":"４０６巷","ALLEY":"９弄","HOUSE_NO":"９０號","E_COORD97":170007.42999999999,"N_COORD97":2551179.0699999998,"ADDRESS":"安和路四段４０６巷９弄９０號","OBJECTID":205139},"geometry":{"x":170007.43000000063,"y":2551179.0700000022}},{"attributes":{"ID":205141,"DIS_CODE":0,"TOWNNAME":"安南區","LI":"州南里","LIN":"25鄰","STREET":"安和路","SECT":"四段","MAREA":" ","LANE":"４０６巷","ALLEY":"９弄","HOUSE_NO":"９２號","E_COORD97":170007.59,"N_COORD97":2551182.7200000002,"ADDRESS":"安和路四段４０６巷９弄９２號","OBJECTID":205140},"geometry":{"x":170007.58999999985,"y":2551182.7200000007}},{"attributes":{"ID":205142,"DIS_CODE":0,"TOWNNAME":"北區","LI":"和順里","LIN":"28鄰","STREET":"臨安路","SECT":"二段","MAREA":" ","LANE":"１４３巷","ALLEY":"１１２弄","HOUSE_NO":"１號","E_COORD97":167787.35999999999,"N_COORD97":2545181.04,"ADDRESS":"臨安路二段１４３巷１１２弄１號","OBJECTID":205141},"geometry":{"x":167787.3600000022,"y":2545181.0399999991}},{"attributes":{"ID":205143,"DIS_CODE":0,"TOWNNAME":"北區","LI":"和順里","LIN":"28鄰","STREET":"臨安路","SECT":"二段","MAREA":" ","LANE":"１４３巷","ALLEY":"１１２弄","HOUSE_NO":"２７號","E_COORD97":167849.44,"N_COORD97":2545182.7799999998,"ADDRESS":"臨安路二段１４３巷１１２弄２７號","OBJECTID":205142},"geometry":{"x":167849.44000000041,"y":2545182.7800000012}},{"attributes":{"ID":205144,"DIS_CODE":0,"TOWNNAME":"北區","LI":"和順里","LIN":"28鄰","STREET":"臨安路","SECT":"二段","MAREA":" ","LANE":"１４３巷","ALLEY":"１１２弄","HOUSE_NO":"３號","E_COORD97":167791.17000000001,"N_COORD97":2545181.3500000001,"ADDRESS":"臨安路二段１４３巷１１２弄３號","OBJECTID":205143},"geometry":{"x":167791.16999999993,"y":2545181.3500000015}},{"attributes":{"ID":205145,"DIS_CODE":0,"TOWNNAME":"白河區","LI":"詔安里","LIN":"2鄰","STREET":" ","SECT":" ","MAREA":"詔安厝","LANE":" ","ALLEY":" ","HOUSE_NO":"１５之１號","E_COORD97":189901.75,"N_COORD97":2588035.9500000002,"ADDRESS":"詔安厝１５之１號","OBJECTID":205144},"geometry":{"x":189901.75000000093,"y":2588035.9500000011}},{"attributes":{"ID":205146,"DIS_CODE":0,"TOWNNAME":"北區","LI":"大豐里","LIN":"20鄰","STREET":"大興街","SECT":" ","MAREA":" ","LANE":"２３３巷","ALLEY":"４６弄","HOUSE_NO":"９號","E_COORD97":166824.06,"N_COORD97":2545504.6499999999,"ADDRESS":"大興街２３３巷４６弄９號","OBJECTID":205145},"geometry":{"x":166824.06000000145,"y":2545504.6500000004}},{"attributes":{"ID":205147,"DIS_CODE":0,"TOWNNAME":"永康區","LI":"大橋里","LIN":"9鄰","STREET":"大橋三街","SECT":" ","MAREA":" ","LANE":" ","ALLEY":" ","HOUSE_NO":"２８７號七樓之１","E_COORD97":171119.23000000001,"N_COORD97":2546965.5499999998,"ADDRESS":"大橋三街２８７號七樓之１","OBJECTID":205146},"geometry":{"x":171119.23000000045,"y":2546965.5500000026}},{"attributes":{"ID":205148,"DIS_CODE":0,"TOWNNAME":"東區","LI":"忠孝里","LIN":"9鄰","STREET":"榮譽街","SECT":" ","MAREA":" ","LANE":" ","ALLEY":" ","HOUSE_NO":"９０號五樓","E_COORD97":169776.63,"N_COORD97":2541700.46,"ADDRESS":"榮譽街９０號五樓","OBJECTID":205147},"geometry":{"x":169776.62999999989,"y":2541700.4600000028}},{"attributes":{"ID":205149,"DIS_CODE":0,"TOWNNAME":"北區","LI":"和順里","LIN":"28鄰","STREET":"臨安路","SECT":"二段","MAREA":" ","LANE":"１４３巷","ALLEY":"１１２弄","HOUSE_NO":"１９號","E_COORD97":167828.32000000001,"N_COORD97":2545182.3100000001,"ADDRESS":"臨安路二段１４３巷１１２弄１９號","OBJECTID":205148},"geometry":{"x":167828.32000000216,"y":2545182.3100000042}},{"attributes":{"ID":205150,"DIS_CODE":0,"TOWNNAME":"北區","LI":"和順里","LIN":"28鄰","STREET":"臨安路","SECT":"二段","MAREA":" ","LANE":"１４３巷","ALLEY":"１１２弄","HOUSE_NO":"２１號","E_COORD97":167833.07999999999,"N_COORD97":2545182.3100000001,"ADDRESS":"臨安路二段１４３巷１１２弄２１號","OBJECTID":205149},"geometry":{"x":167833.08000000194,"y":2545182.3100000042}},{"attributes":{"ID":205151,"DIS_CODE":0,"TOWNNAME":"北區","LI":"和順里","LIN":"28鄰","STREET":"臨安路","SECT":"二段","MAREA":" ","LANE":"１４３巷","ALLEY":"１１２弄","HOUSE_NO":"２３號","E_COORD97":167838.16,"N_COORD97":2545182.46,"ADDRESS":"臨安路二段１４３巷１１２弄２３號","OBJECTID":205150},"geometry":{"x":167838.16000000108,"y":2545182.4600000028}},{"attributes":{"ID":205152,"DIS_CODE":0,"TOWNNAME":"北區","LI":"和順里","LIN":"28鄰","STREET":"臨安路","SECT":"二段","MAREA":" ","LANE":"１４３巷","ALLEY":"１１２弄","HOUSE_NO":"２５號","E_COORD97":167843.72,"N_COORD97":2545182.7799999998,"ADDRESS":"臨安路二段１４３巷１１２弄２５號","OBJECTID":205151},"geometry":{"x":167843.7200000016,"y":2545182.7800000012}},{"attributes":{"ID":205153,"DIS_CODE":0,"TOWNNAME":"北區","LI":"和順里","LIN":"28鄰","STREET":"臨安路","SECT":"二段","MAREA":" ","LANE":"１４３巷","ALLEY":"１１２弄","HOUSE_NO":"２號","E_COORD97":167787.35999999999,"N_COORD97":2545171.6699999999,"ADDRESS":"臨安路二段１４３巷１１２弄２號","OBJECTID":205152},"geometry":{"x":167787.3600000022,"y":2545171.6699999999}},{"attributes":{"ID":205154,"DIS_CODE":0,"TOWNNAME":"北區","LI":"和順里","LIN":"28鄰","STREET":"臨安路","SECT":"二段","MAREA":" ","LANE":"１４３巷","ALLEY":"１１２弄","HOUSE_NO":"４６號","E_COORD97":167871.66,"N_COORD97":2545173.5699999998,"ADDRESS":"臨安路二段１４３巷１１２弄４６號","OBJECTID":205153},"geometry":{"x":167871.66000000201,"y":2545173.570000004}},{"attributes":{"ID":205155,"DIS_CODE":0,"TOWNNAME":"北區","LI":"和順里","LIN":"28鄰","STREET":"臨安路","SECT":"二段","MAREA":" ","LANE":"１４３巷","ALLEY":"１１２弄","HOUSE_NO":"６號","E_COORD97":167791.48999999999,"N_COORD97":2545171.8300000001,"ADDRESS":"臨安路二段１４３巷１１２弄６號","OBJECTID":205154},"geometry":{"x":167791.49000000209,"y":2545171.8300000019}},{"attributes":{"ID":205156,"DIS_CODE":0,"TOWNNAME":"白河區","LI":"詔安里","LIN":"2鄰","STREET":" ","SECT":" ","MAREA":"詔安厝","LANE":" ","ALLEY":" ","HOUSE_NO":"１５之３號","E_COORD97":189901.29999999999,"N_COORD97":2588064.6600000001,"ADDRESS":"詔安厝１５之３號","OBJECTID":205155},"geometry":{"x":189901.30000000075,"y":2588064.660000002}},{"attributes":{"ID":205157,"DIS_CODE":0,"TOWNNAME":"白河區","LI":"詔安里","LIN":"2鄰","STREET":" ","SECT":" ","MAREA":"詔安厝","LANE":" ","ALLEY":" ","HOUSE_NO":"１６號","E_COORD97":189927.06,"N_COORD97":2588011.4500000002,"ADDRESS":"詔安厝１６號","OBJECTID":205156},"geometry":{"x":189927.05999999959,"y":2588011.4500000011}},{"attributes":{"ID":205158,"DIS_CODE":0,"TOWNNAME":"北區","LI":"和順里","LIN":"28鄰","STREET":"臨安路","SECT":"二段","MAREA":" ","LANE":"１４３巷","ALLEY":"１１２弄","HOUSE_NO":"８號","E_COORD97":167795.62,"N_COORD97":2545171.9900000002,"ADDRESS":"臨安路二段１４３巷１１２弄８號","OBJECTID":205157},"geometry":{"x":167795.62000000197,"y":2545171.9900000021}},{"attributes":{"ID":205159,"DIS_CODE":0,"TOWNNAME":"北區","LI":"和順里","LIN":"28鄰","STREET":"臨安路","SECT":"二段","MAREA":" ","LANE":"１４３巷","ALLEY":"１１２弄","HOUSE_NO":"１０號","E_COORD97":167799.91,"N_COORD97":2545172.1499999999,"ADDRESS":"臨安路二段１４３巷１１２弄１０號","OBJECTID":205158},"geometry":{"x":167799.91000000015,"y":2545172.1500000004}},{"attributes":{"ID":205160,"DIS_CODE":0,"TOWNNAME":"北區","LI":"和順里","LIN":"28鄰","STREET":"臨安路","SECT":"二段","MAREA":" ","LANE":"１４３巷","ALLEY":"１１２弄","HOUSE_NO":"１２號","E_COORD97":167804.51000000001,"N_COORD97":2545171.9900000002,"ADDRESS":"臨安路二段１４３巷１１２弄１２號","OBJECTID":205159},"geometry":{"x":167804.51000000164,"y":2545171.9900000021}},{"attributes":{"ID":205161,"DIS_CODE":0,"TOWNNAME":"北區","LI":"和順里","LIN":"28鄰","STREET":"臨安路","SECT":"二段","MAREA":" ","LANE":"１４３巷","ALLEY":"１１２弄","HOUSE_NO":"４２號","E_COORD97":167865.47,"N_COORD97":2545173.4199999999,"ADDRESS":"臨安路二段１４３巷１１２弄４２號","OBJECTID":205160},"geometry":{"x":167865.46999999974,"y":2545173.4199999999}},{"attributes":{"ID":205162,"DIS_CODE":0,"TOWNNAME":"北區","LI":"和順里","LIN":"28鄰","STREET":"臨安路","SECT":"二段","MAREA":" ","LANE":"１４３巷","ALLEY":"１１２弄","HOUSE_NO":"３８號","E_COORD97":167854.04000000001,"N_COORD97":2545173.4199999999,"ADDRESS":"臨安路二段１４３巷１１２弄３８號","OBJECTID":205161},"geometry":{"x":167854.04000000097,"y":2545173.4199999999}},{"attributes":{"ID":205163,"DIS_CODE":0,"TOWNNAME":"東區","LI":"裕農里","LIN":"25鄰","STREET":"裕農路","SECT":" ","MAREA":" ","LANE":"３８９巷","ALLEY":"３弄","HOUSE_NO":"１號二樓","E_COORD97":171132.16,"N_COORD97":2543185.6099999999,"ADDRESS":"裕農路３８９巷３弄１號二樓","OBJECTID":205162},"geometry":{"x":171132.16000000108,"y":2543185.6100000031}},{"attributes":{"ID":205164,"DIS_CODE":0,"TOWNNAME":"東區","LI":"裕農里","LIN":"25鄰","STREET":"裕農路","SECT":" ","MAREA":" ","LANE":"３８９巷","ALLEY":"３弄","HOUSE_NO":"１號三樓","E_COORD97":171132.16,"N_COORD97":2543185.6099999999,"ADDRESS":"裕農路３８９巷３弄１號三樓","OBJECTID":205163},"geometry":{"x":171132.16000000108,"y":2543185.6100000031}},{"attributes":{"ID":205165,"DIS_CODE":0,"TOWNNAME":"東區","LI":"裕農里","LIN":"25鄰","STREET":"裕農路","SECT":" ","MAREA":" ","LANE":"３８９巷","ALLEY":"３弄","HOUSE_NO":"１號四樓","E_COORD97":171132.16,"N_COORD97":2543185.6099999999,"ADDRESS":"裕農路３８９巷３弄１號四樓","OBJECTID":205164},"geometry":{"x":171132.16000000108,"y":2543185.6100000031}},{"attributes":{"ID":205166,"DIS_CODE":0,"TOWNNAME":"東區","LI":"裕農里","LIN":"25鄰","STREET":"裕農路","SECT":" ","MAREA":" ","LANE":"３８９巷","ALLEY":"３弄","HOUSE_NO":"１號五樓","E_COORD97":171132.16,"N_COORD97":2543185.6099999999,"ADDRESS":"裕農路３８９巷３弄１號五樓","OBJECTID":205165},"geometry":{"x":171132.16000000108,"y":2543185.6100000031}},{"attributes":{"ID":205167,"DIS_CODE":0,"TOWNNAME":"東區","LI":"裕農里","LIN":"25鄰","STREET":"裕農路","SECT":" ","MAREA":" ","LANE":"３８９巷","ALLEY":"３弄","HOUSE_NO":"３號二樓","E_COORD97":171125.09,"N_COORD97":2543185.8199999998,"ADDRESS":"裕農路３８９巷３弄３號二樓","OBJECTID":205166},"geometry":{"x":171125.09000000078,"y":2543185.8200000022}},{"attributes":{"ID":205168,"DIS_CODE":0,"TOWNNAME":"東區","LI":"裕農里","LIN":"25鄰","STREET":"裕農路","SECT":" ","MAREA":" ","LANE":"３８９巷","ALLEY":"３弄","HOUSE_NO":"３號三樓","E_COORD97":171125.09,"N_COORD97":2543185.8199999998,"ADDRESS":"裕農路３８９巷３弄３號三樓","OBJECTID":205167},"geometry":{"x":171125.09000000078,"y":2543185.8200000022}},{"attributes":{"ID":205169,"DIS_CODE":0,"TOWNNAME":"東區","LI":"裕農里","LIN":"25鄰","STREET":"裕農路","SECT":" ","MAREA":" ","LANE":"３８９巷","ALLEY":"３弄","HOUSE_NO":"３號四樓","E_COORD97":171125.09,"N_COORD97":2543185.8199999998,"ADDRESS":"裕農路３８９巷３弄３號四樓","OBJECTID":205168},"geometry":{"x":171125.09000000078,"y":2543185.8200000022}},{"attributes":{"ID":205170,"DIS_CODE":0,"TOWNNAME":"東區","LI":"裕農里","LIN":"25鄰","STREET":"裕農路","SECT":" ","MAREA":" ","LANE":"３８９巷","ALLEY":"３弄","HOUSE_NO":"３號五樓","E_COORD97":171125.09,"N_COORD97":2543185.8199999998,"ADDRESS":"裕農路３８９巷３弄３號五樓","OBJECTID":205169},"geometry":{"x":171125.09000000078,"y":2543185.8200000022}},{"attributes":{"ID":205171,"DIS_CODE":0,"TOWNNAME":"東區","LI":"裕農里","LIN":"25鄰","STREET":"裕農路","SECT":" ","MAREA":" ","LANE":"３８９巷","ALLEY":"３弄","HOUSE_NO":"５號二樓","E_COORD97":171118.01000000001,"N_COORD97":2543186.0299999998,"ADDRESS":"裕農路３８９巷３弄５號二樓","OBJECTID":205170},"geometry":{"x":171118.00999999978,"y":2543186.0300000031}},{"attributes":{"ID":205172,"DIS_CODE":0,"TOWNNAME":"東區","LI":"裕農里","LIN":"25鄰","STREET":"裕農路","SECT":" ","MAREA":" ","LANE":"３８９巷","ALLEY":"３弄","HOUSE_NO":"５號三樓","E_COORD97":171118.01000000001,"N_COORD97":2543186.0299999998,"ADDRESS":"裕農路３８９巷３弄５號三樓","OBJECTID":205171},"geometry":{"x":171118.00999999978,"y":2543186.0300000031}},{"attributes":{"ID":205173,"DIS_CODE":0,"TOWNNAME":"東區","LI":"忠孝里","LIN":"9鄰","STREET":"榮譽街","SECT":" ","MAREA":" ","LANE":" ","ALLEY":" ","HOUSE_NO":"９０號二樓","E_COORD97":169776.63,"N_COORD97":2541700.46,"ADDRESS":"榮譽街９０號二樓","OBJECTID":205172},"geometry":{"x":169776.62999999989,"y":2541700.4600000028}},{"attributes":{"ID":205174,"DIS_CODE":0,"TOWNNAME":"白河區","LI":"詔安里","LIN":"2鄰","STREET":" ","SECT":" ","MAREA":"詔安厝","LANE":" ","ALLEY":" ","HOUSE_NO":"１７號","E_COORD97":190208.31,"N_COORD97":2589731.1800000002,"ADDRESS":"詔安厝１７號","OBJECTID":205173},"geometry":{"x":190208.31000000052,"y":2589731.1799999997}},{"attributes":{"ID":205175,"DIS_CODE":0,"TOWNNAME":"白河區","LI":"詔安里","LIN":"2鄰","STREET":" ","SECT":" ","MAREA":"詔安厝","LANE":" ","ALLEY":" ","HOUSE_NO":"１８號","E_COORD97":189898.5,"N_COORD97":2588028.7999999998,"ADDRESS":"詔安厝１８號","OBJECTID":205174},"geometry":{"x":189898.50000000093,"y":2588028.8000000007}},{"attributes":{"ID":205176,"DIS_CODE":0,"TOWNNAME":"白河區","LI":"詔安里","LIN":"2鄰","STREET":" ","SECT":" ","MAREA":"詔安厝","LANE":" ","ALLEY":" ","HOUSE_NO":"１９號","E_COORD97":189883.39000000001,"N_COORD97":2588046.48,"ADDRESS":"詔安厝１９號","OBJECTID":205175},"geometry":{"x":189883.39000000153,"y":2588046.4800000023}},{"attributes":{"ID":205177,"DIS_CODE":0,"TOWNNAME":"白河區","LI":"詔安里","LIN":"2鄰","STREET":" ","SECT":" ","MAREA":"詔安厝","LANE":" ","ALLEY":" ","HOUSE_NO":"２０號","E_COORD97":189875.76000000001,"N_COORD97":2588029.1200000001,"ADDRESS":"詔安厝２０號","OBJECTID":205176},"geometry":{"x":189875.76000000164,"y":2588029.1200000029}},{"attributes":{"ID":205178,"DIS_CODE":0,"TOWNNAME":"白河區","LI":"詔安里","LIN":"2鄰","STREET":" ","SECT":" ","MAREA":"詔安厝","LANE":" ","ALLEY":" ","HOUSE_NO":"２１之１號","E_COORD97":189863.67999999999,"N_COORD97":2588043.8599999999,"ADDRESS":"詔安厝２１之１號","OBJECTID":205177},"geometry":{"x":189863.6799999997,"y":2588043.8599999994}},{"attributes":{"ID":205179,"DIS_CODE":0,"TOWNNAME":"白河區","LI":"詔安里","LIN":"2鄰","STREET":" ","SECT":" ","MAREA":"詔安厝","LANE":" ","ALLEY":" ","HOUSE_NO":"２１之２號","E_COORD97":189843.39999999999,"N_COORD97":2588068.0099999998,"ADDRESS":"詔安厝２１之２號","OBJECTID":205178},"geometry":{"x":189843.40000000224,"y":2588068.0099999998}},{"attributes":{"ID":205180,"DIS_CODE":0,"TOWNNAME":"白河區","LI":"詔安里","LIN":"2鄰","STREET":" ","SECT":" ","MAREA":"詔安厝","LANE":" ","ALLEY":" ","HOUSE_NO":"２１之３號","E_COORD97":189839.84,"N_COORD97":2588069.6299999999,"ADDRESS":"詔安厝２１之３號","OBJECTID":205179},"geometry":{"x":189839.84000000171,"y":2588069.629999999}},{"attributes":{"ID":205181,"DIS_CODE":0,"TOWNNAME":"麻豆區","LI":"中民里","LIN":"2鄰","STREET":" ","SECT":" ","MAREA":"謝厝寮","LANE":" ","ALLEY":" ","HOUSE_NO":"８６之２號","E_COORD97":171837.34,"N_COORD97":2560911.8700000001,"ADDRESS":"謝厝寮８６之２號","OBJECTID":205180},"geometry":{"x":171837.34000000078,"y":2560911.8700000029}},{"attributes":{"ID":205182,"DIS_CODE":0,"TOWNNAME":"麻豆區","LI":"中民里","LIN":"2鄰","STREET":" ","SECT":" ","MAREA":"謝厝寮","LANE":" ","ALLEY":" ","HOUSE_NO":"８６號之２","E_COORD97":171837.34,"N_COORD97":2560911.8700000001,"ADDRESS":"謝厝寮８６號之２","OBJECTID":205181},"geometry":{"x":171837.34000000078,"y":2560911.8700000029}},{"attributes":{"ID":205183,"DIS_CODE":0,"TOWNNAME":"麻豆區","LI":"中民里","LIN":"2鄰","STREET":" ","SECT":" ","MAREA":"謝厝寮","LANE":" ","ALLEY":" ","HOUSE_NO":"８６號之５","E_COORD97":171863.88,"N_COORD97":2560935.6000000001,"ADDRESS":"謝厝寮８６號之５","OBJECTID":205182},"geometry":{"x":171863.88000000082,"y":2560935.6000000015}},{"attributes":{"ID":205184,"DIS_CODE":0,"TOWNNAME":"麻豆區","LI":"中民里","LIN":"2鄰","STREET":" ","SECT":" ","MAREA":"謝厝寮","LANE":" ","ALLEY":" ","HOUSE_NO":"８６號之６","E_COORD97":171858.89999999999,"N_COORD97":2560933.6099999999,"ADDRESS":"謝厝寮８６號之６","OBJECTID":205183},"geometry":{"x":171858.89999999944,"y":2560933.6099999994}},{"attributes":{"ID":205185,"DIS_CODE":0,"TOWNNAME":"麻豆區","LI":"中民里","LIN":"2鄰","STREET":" ","SECT":" ","MAREA":"謝厝寮","LANE":" ","ALLEY":" ","HOUSE_NO":"８６號","E_COORD97":171874.23999999999,"N_COORD97":2560954.9700000002,"ADDRESS":"謝厝寮８６號","OBJECTID":205184},"geometry":{"x":171874.24000000115,"y":2560954.9700000025}},{"attributes":{"ID":205186,"DIS_CODE":0,"TOWNNAME":"麻豆區","LI":"中民里","LIN":"2鄰","STREET":" ","SECT":" ","MAREA":"謝厝寮","LANE":" ","ALLEY":" ","HOUSE_NO":"８７號之２","E_COORD97":172002.88,"N_COORD97":2560820.7400000002,"ADDRESS":"謝厝寮８７號之２","OBJECTID":205185},"geometry":{"x":172002.88000000175,"y":2560820.7400000002}},{"attributes":{"ID":205187,"DIS_CODE":0,"TOWNNAME":"麻豆區","LI":"中民里","LIN":"2鄰","STREET":" ","SECT":" ","MAREA":"謝厝寮","LANE":" ","ALLEY":" ","HOUSE_NO":"８９號","E_COORD97":171829.226299,"N_COORD97":2560901.2054599999,"ADDRESS":"謝厝寮８９號","OBJECTID":205186},"geometry":{"x":171829.22629899997,"y":2560901.2054629996}},{"attributes":{"ID":205188,"DIS_CODE":0,"TOWNNAME":"麻豆區","LI":"中民里","LIN":"2鄰","STREET":" ","SECT":" ","MAREA":"謝厝寮","LANE":" ","ALLEY":" ","HOUSE_NO":"９１號之２","E_COORD97":171858.13,"N_COORD97":2560848.5099999998,"ADDRESS":"謝厝寮９１號之２","OBJECTID":205187},"geometry":{"x":171858.12999999989,"y":2560848.5100000016}},{"attributes":{"ID":205189,"DIS_CODE":0,"TOWNNAME":"麻豆區","LI":"中民里","LIN":"2鄰","STREET":" ","SECT":" ","MAREA":"謝厝寮","LANE":" ","ALLEY":" ","HOUSE_NO":"９１號","E_COORD97":171810.89999999999,"N_COORD97":2560876.8500000001,"ADDRESS":"謝厝寮９１號","OBJECTID":205188},"geometry":{"x":171810.90000000037,"y":2560876.8499999996}},{"attributes":{"ID":205190,"DIS_CODE":0,"TOWNNAME":"麻豆區","LI":"中民里","LIN":"2鄰","STREET":" ","SECT":" ","MAREA":"謝厝寮","LANE":" ","ALLEY":" ","HOUSE_NO":"９２號之１","E_COORD97":171809.73999999999,"N_COORD97":2560856.2999999998,"ADDRESS":"謝厝寮９２號之１","OBJECTID":205189},"geometry":{"x":171809.74000000115,"y":2560856.3000000045}},{"attributes":{"ID":205191,"DIS_CODE":0,"TOWNNAME":"麻豆區","LI":"中民里","LIN":"2鄰","STREET":" ","SECT":" ","MAREA":"謝厝寮","LANE":" ","ALLEY":" ","HOUSE_NO":"９２號之２","E_COORD97":171865.54000000001,"N_COORD97":2560831.2799999998,"ADDRESS":"謝厝寮９２號之２","OBJECTID":205190},"geometry":{"x":171865.54000000004,"y":2560831.2800000031}},{"attributes":{"ID":205192,"DIS_CODE":0,"TOWNNAME":"麻豆區","LI":"中民里","LIN":"2鄰","STREET":" ","SECT":" ","MAREA":"謝厝寮","LANE":" ","ALLEY":" ","HOUSE_NO":"９２號","E_COORD97":171803.64999999999,"N_COORD97":2560842.5299999998,"ADDRESS":"謝厝寮９２號","OBJECTID":205191},"geometry":{"x":171803.6500000013,"y":2560842.5299999993}},{"attributes":{"ID":205193,"DIS_CODE":0,"TOWNNAME":"麻豆區","LI":"中民里","LIN":"2鄰","STREET":" ","SECT":" ","MAREA":"謝厝寮","LANE":" ","ALLEY":" ","HOUSE_NO":"９３號之１","E_COORD97":171790.5,"N_COORD97":2560795,"ADDRESS":"謝厝寮９３號之１","OBJECTID":205192},"geometry":{"x":171790.50000000093,"y":2560795}},{"attributes":{"ID":205194,"DIS_CODE":0,"TOWNNAME":"麻豆區","LI":"中民里","LIN":"2鄰","STREET":" ","SECT":" ","MAREA":"謝厝寮","LANE":" ","ALLEY":" ","HOUSE_NO":"９３號之２","E_COORD97":171802.66,"N_COORD97":2560809.7200000002,"ADDRESS":"謝厝寮９３號之２","OBJECTID":205193},"geometry":{"x":171802.65999999922,"y":2560809.7200000025}},{"attributes":{"ID":205195,"DIS_CODE":0,"TOWNNAME":"麻豆區","LI":"中民里","LIN":"2鄰","STREET":" ","SECT":" ","MAREA":"謝厝寮","LANE":" ","ALLEY":" ","HOUSE_NO":"９４號之１","E_COORD97":171794.75,"N_COORD97":2560832.5299999998,"ADDRESS":"謝厝寮９４號之１","OBJECTID":205194},"geometry":{"x":171794.75,"y":2560832.5299999993}},{"attributes":{"ID":205196,"DIS_CODE":0,"TOWNNAME":"麻豆區","LI":"中民里","LIN":"2鄰","STREET":" ","SECT":" ","MAREA":"謝厝寮","LANE":" ","ALLEY":" ","HOUSE_NO":"９４號之２","E_COORD97":171779.34,"N_COORD97":2560812.9900000002,"ADDRESS":"謝厝寮９４號之２","OBJECTID":205195},"geometry":{"x":171779.34000000171,"y":2560812.9900000002}},{"attributes":{"ID":205197,"DIS_CODE":0,"TOWNNAME":"麻豆區","LI":"中民里","LIN":"2鄰","STREET":" ","SECT":" ","MAREA":"謝厝寮","LANE":" ","ALLEY":" ","HOUSE_NO":"９４號","E_COORD97":171783.98000000001,"N_COORD97":2560818.77,"ADDRESS":"謝厝寮９４號","OBJECTID":205196},"geometry":{"x":171783.98000000231,"y":2560818.7700000014}},{"attributes":{"ID":205198,"DIS_CODE":0,"TOWNNAME":"麻豆區","LI":"港尾里","LIN":"2鄰","STREET":" ","SECT":" ","MAREA":"謝榜寮","LANE":" ","ALLEY":" ","HOUSE_NO":"１３號之１","E_COORD97":167958.72,"N_COORD97":2566237.9100000001,"ADDRESS":"謝榜寮１３號之１","OBJECTID":205197},"geometry":{"x":167958.71999999974,"y":2566237.9100000001}},{"attributes":{"ID":205199,"DIS_CODE":0,"TOWNNAME":"麻豆區","LI":"港尾里","LIN":"2鄰","STREET":" ","SECT":" ","MAREA":"謝榜寮","LANE":" ","ALLEY":" ","HOUSE_NO":"１３號之４","E_COORD97":167944.78,"N_COORD97":2566261.5699999998,"ADDRESS":"謝榜寮１３號之４","OBJECTID":205198},"geometry":{"x":167944.78000000026,"y":2566261.570000004}},{"attributes":{"ID":205200,"DIS_CODE":0,"TOWNNAME":"麻豆區","LI":"港尾里","LIN":"2鄰","STREET":" ","SECT":" ","MAREA":"謝榜寮","LANE":" ","ALLEY":" ","HOUSE_NO":"１３號","E_COORD97":167992.81,"N_COORD97":2566231.48,"ADDRESS":"謝榜寮１３號","OBJECTID":205199},"geometry":{"x":167992.81000000052,"y":2566231.4800000004}},{"attributes":{"ID":205201,"DIS_CODE":0,"TOWNNAME":"麻豆區","LI":"港尾里","LIN":"2鄰","STREET":" ","SECT":" ","MAREA":"謝榜寮","LANE":" ","ALLEY":" ","HOUSE_NO":"１４號","E_COORD97":168019.88,"N_COORD97":2566276.6699999999,"ADDRESS":"謝榜寮１４號","OBJECTID":205200},"geometry":{"x":168019.88000000082,"y":2566276.6699999999}}]}