{"displayFieldName":"TOWNNAME","fieldAliases":{"ID":"ID","DIS_CODE":"DIS_CODE","TOWNNAME":"TOWNNAME","LI":"LI","LIN":"LIN","STREET":"STREET","SECT":"SECT","MAREA":"MAREA","LANE":"LANE","ALLEY":"ALLEY","HOUSE_NO":"HOUSE_NO","E_COORD97":"E_COORD97","N_COORD97":"N_COORD97","ADDRESS":"ADDRESS","OBJECTID":"OBJECTID"},"geometryType":"esriGeometryPoint","spatialReference":{"wkid":102443,"latestWkid":3826},"fields":[{"name":"ID","type":"esriFieldTypeDouble","alias":"ID"},{"name":"DIS_CODE","type":"esriFieldTypeInteger","alias":"DIS_CODE"},{"name":"TOWNNAME","type":"esriFieldTypeString","alias":"TOWNNAME","length":8},{"name":"LI","type":"esriFieldTypeString","alias":"LI","length":8},{"name":"LIN","type":"esriFieldTypeString","alias":"LIN","length":12},{"name":"STREET","type":"esriFieldTypeString","alias":"STREET","length":20},{"name":"SECT","type":"esriFieldTypeString","alias":"SECT","length":8},{"name":"MAREA","type":"esriFieldTypeString","alias":"MAREA","length":12},{"name":"LANE","type":"esriFieldTypeString","alias":"LANE","length":10},{"name":"ALLEY","type":"esriFieldTypeString","alias":"ALLEY","length":10},{"name":"HOUSE_NO","type":"esriFieldTypeString","alias":"HOUSE_NO","length":20},{"name":"E_COORD97","type":"esriFieldTypeDouble","alias":"E_COORD97"},{"name":"N_COORD97","type":"esriFieldTypeDouble","alias":"N_COORD97"},{"name":"ADDRESS","type":"esriFieldTypeString","alias":"ADDRESS","length":50},{"name":"OBJECTID","type":"esriFieldTypeOID","alias":"OBJECTID"}],"features":[{"attributes":{"ID":248205,"DIS_CODE":0,"TOWNNAME":"大內區","LI":"內江里","LIN":"11鄰","STREET":" ","SECT":" ","MAREA":"內庄","LANE":" ","ALLEY":" ","HOUSE_NO":"３２７號之１","E_COORD97":184569.51000000001,"N_COORD97":2556779.2999999998,"ADDRESS":"內庄３２７號之１","OBJECTID":248201},"geometry":{"x":184569.50999999978,"y":2556779.3000000026}},{"attributes":{"ID":248206,"DIS_CODE":0,"TOWNNAME":"永康區","LI":"二王里","LIN":"43鄰","STREET":"中山南路","SECT":" ","MAREA":" ","LANE":"３１６巷","ALLEY":" ","HOUSE_NO":"６２號","E_COORD97":172125.48000000001,"N_COORD97":2546128.0699999998,"ADDRESS":"中山南路３１６巷６２號","OBJECTID":248202},"geometry":{"x":172125.48000000138,"y":2546128.0700000003}},{"attributes":{"ID":248207,"DIS_CODE":0,"TOWNNAME":"永康區","LI":"大橋里","LIN":"14鄰","STREET":"大橋一街","SECT":" ","MAREA":" ","LANE":"７３巷","ALLEY":" ","HOUSE_NO":"５１號","E_COORD97":170820.54000000001,"N_COORD97":2546518.25,"ADDRESS":"大橋一街７３巷５１號","OBJECTID":248203},"geometry":{"x":170820.54000000097,"y":2546518.2500000019}},{"attributes":{"ID":248208,"DIS_CODE":0,"TOWNNAME":"中西區","LI":"光賢里","LIN":"11鄰","STREET":"和善街","SECT":" ","MAREA":" ","LANE":"１２５巷","ALLEY":" ","HOUSE_NO":"１０號","E_COORD97":166859.48999999999,"N_COORD97":2544794.75,"ADDRESS":"和善街１２５巷１０號","OBJECTID":248204},"geometry":{"x":166859.49000000115,"y":2544794.75}},{"attributes":{"ID":248209,"DIS_CODE":0,"TOWNNAME":"永康區","LI":"三合里","LIN":"4鄰","STREET":"中華二路","SECT":" ","MAREA":" ","LANE":"８８巷","ALLEY":" ","HOUSE_NO":"１１號","E_COORD97":172074.20999999999,"N_COORD97":2545488.5600000001,"ADDRESS":"中華二路８８巷１１號","OBJECTID":248205},"geometry":{"x":172074.21000000089,"y":2545488.5600000005}},{"attributes":{"ID":248210,"DIS_CODE":0,"TOWNNAME":"永康區","LI":"二王里","LIN":"43鄰","STREET":"中山南路","SECT":" ","MAREA":" ","LANE":"３１６巷","ALLEY":" ","HOUSE_NO":"５０號","E_COORD97":172092.47,"N_COORD97":2546123.79,"ADDRESS":"中山南路３１６巷５０號","OBJECTID":248206},"geometry":{"x":172092.47000000067,"y":2546123.790000001}},{"attributes":{"ID":248211,"DIS_CODE":0,"TOWNNAME":"永康區","LI":"三合里","LIN":"24鄰","STREET":"南工街","SECT":" ","MAREA":" ","LANE":"２６７巷","ALLEY":" ","HOUSE_NO":"７２號","E_COORD97":171866.01999999999,"N_COORD97":2545834.9900000002,"ADDRESS":"南工街２６７巷７２號","OBJECTID":248207},"geometry":{"x":171866.02000000048,"y":2545834.9900000039}},{"attributes":{"ID":248212,"DIS_CODE":0,"TOWNNAME":"永康區","LI":"大灣里","LIN":"8鄰","STREET":"民族路","SECT":" ","MAREA":" ","LANE":"３９６巷","ALLEY":" ","HOUSE_NO":"３１號","E_COORD97":174750.92000000001,"N_COORD97":2545526.3999999999,"ADDRESS":"民族路３９６巷３１號","OBJECTID":248208},"geometry":{"x":174750.92000000086,"y":2545526.4000000004}},{"attributes":{"ID":248213,"DIS_CODE":0,"TOWNNAME":"永康區","LI":"大橋里","LIN":"8鄰","STREET":"大橋三街","SECT":" ","MAREA":" ","LANE":"１９９巷","ALLEY":" ","HOUSE_NO":"８２號","E_COORD97":170964.51999999999,"N_COORD97":2546897.1699999999,"ADDRESS":"大橋三街１９９巷８２號","OBJECTID":248209},"geometry":{"x":170964.52000000048,"y":2546897.1699999999}},{"attributes":{"ID":248214,"DIS_CODE":0,"TOWNNAME":"永康區","LI":"大橋里","LIN":"7鄰","STREET":"大橋三街","SECT":" ","MAREA":" ","LANE":"１９９巷","ALLEY":" ","HOUSE_NO":"７７號","E_COORD97":170946.26000000001,"N_COORD97":2546915.7000000002,"ADDRESS":"大橋三街１９９巷７７號","OBJECTID":248210},"geometry":{"x":170946.26000000071,"y":2546915.7000000011}},{"attributes":{"ID":248215,"DIS_CODE":0,"TOWNNAME":"仁德區","LI":"太子里","LIN":"47鄰","STREET":"太子路","SECT":" ","MAREA":" ","LANE":"９巷","ALLEY":" ","HOUSE_NO":"２７號","E_COORD97":175489.89999999999,"N_COORD97":2543479.75,"ADDRESS":"太子路９巷２７號","OBJECTID":248211},"geometry":{"x":175489.90000000037,"y":2543479.75}},{"attributes":{"ID":248216,"DIS_CODE":0,"TOWNNAME":"仁德區","LI":"太子里","LIN":"47鄰","STREET":"太子路","SECT":" ","MAREA":" ","LANE":"９巷","ALLEY":" ","HOUSE_NO":"３４號","E_COORD97":175457.81,"N_COORD97":2543457.5,"ADDRESS":"太子路９巷３４號","OBJECTID":248212},"geometry":{"x":175457.81000000145,"y":2543457.5}},{"attributes":{"ID":248217,"DIS_CODE":0,"TOWNNAME":"仁德區","LI":"太子里","LIN":"47鄰","STREET":"太子路","SECT":" ","MAREA":" ","LANE":"９巷","ALLEY":" ","HOUSE_NO":"２９號","E_COORD97":175470.45000000001,"N_COORD97":2543460.25,"ADDRESS":"太子路９巷２９號","OBJECTID":248213},"geometry":{"x":175470.45000000019,"y":2543460.2500000019}},{"attributes":{"ID":248218,"DIS_CODE":0,"TOWNNAME":"大內區","LI":"二溪里","LIN":"11鄰","STREET":" ","SECT":" ","MAREA":"其子瓦","LANE":" ","ALLEY":" ","HOUSE_NO":"１６號","E_COORD97":190121.42000000001,"N_COORD97":2557442.25,"ADDRESS":"其子瓦１６號","OBJECTID":248214},"geometry":{"x":190121.42000000086,"y":2557442.2500000019}},{"attributes":{"ID":248219,"DIS_CODE":0,"TOWNNAME":"仁德區","LI":"仁義里","LIN":"47鄰","STREET":"仁義路","SECT":" ","MAREA":" ","LANE":"２１巷","ALLEY":" ","HOUSE_NO":"４２號","E_COORD97":173526.34,"N_COORD97":2541054.52,"ADDRESS":"仁義路２１巷４２號","OBJECTID":248215},"geometry":{"x":173526.33999999985,"y":2541054.5200000014}},{"attributes":{"ID":248220,"DIS_CODE":0,"TOWNNAME":"仁德區","LI":"太子里","LIN":"47鄰","STREET":"太子路","SECT":" ","MAREA":" ","LANE":"９巷","ALLEY":" ","HOUSE_NO":"９號","E_COORD97":175471.95000000001,"N_COORD97":2543494.75,"ADDRESS":"太子路９巷９號","OBJECTID":248216},"geometry":{"x":175471.95000000019,"y":2543494.7500000019}},{"attributes":{"ID":248221,"DIS_CODE":0,"TOWNNAME":"歸仁區","LI":"六甲里","LIN":"13鄰","STREET":"中正二十街","SECT":" ","MAREA":" ","LANE":" ","ALLEY":" ","HOUSE_NO":"５９號","E_COORD97":175838.45999999999,"N_COORD97":2539090.25,"ADDRESS":"中正二十街５９號","OBJECTID":248217},"geometry":{"x":175838.46000000183,"y":2539090.2500000019}},{"attributes":{"ID":248222,"DIS_CODE":0,"TOWNNAME":"南區","LI":"金華里","LIN":"14鄰","STREET":"惠南街","SECT":" ","MAREA":" ","LANE":" ","ALLEY":" ","HOUSE_NO":"４２號二樓","E_COORD97":166770.92999999999,"N_COORD97":2542122.2799999998,"ADDRESS":"惠南街４２號二樓","OBJECTID":248218},"geometry":{"x":166770.93000000156,"y":2542122.2799999993}},{"attributes":{"ID":248223,"DIS_CODE":0,"TOWNNAME":"南區","LI":"金華里","LIN":"14鄰","STREET":"惠南街","SECT":" ","MAREA":" ","LANE":" ","ALLEY":" ","HOUSE_NO":"４２號三樓","E_COORD97":166770.92999999999,"N_COORD97":2542122.2799999998,"ADDRESS":"惠南街４２號三樓","OBJECTID":248219},"geometry":{"x":166770.93000000156,"y":2542122.2799999993}},{"attributes":{"ID":248224,"DIS_CODE":0,"TOWNNAME":"南區","LI":"金華里","LIN":"14鄰","STREET":"惠南街","SECT":" ","MAREA":" ","LANE":" ","ALLEY":" ","HOUSE_NO":"４２號四樓","E_COORD97":166770.92999999999,"N_COORD97":2542122.2799999998,"ADDRESS":"惠南街４２號四樓","OBJECTID":248220},"geometry":{"x":166770.93000000156,"y":2542122.2799999993}},{"attributes":{"ID":248225,"DIS_CODE":0,"TOWNNAME":"南區","LI":"金華里","LIN":"14鄰","STREET":"惠南街","SECT":" ","MAREA":" ","LANE":" ","ALLEY":" ","HOUSE_NO":"４４號二樓","E_COORD97":166771.70000000001,"N_COORD97":2542143,"ADDRESS":"惠南街４４號二樓","OBJECTID":248221},"geometry":{"x":166771.70000000112,"y":2542143.0000000019}},{"attributes":{"ID":248226,"DIS_CODE":0,"TOWNNAME":"南區","LI":"金華里","LIN":"14鄰","STREET":"惠南街","SECT":" ","MAREA":" ","LANE":" ","ALLEY":" ","HOUSE_NO":"４４號三樓","E_COORD97":166771.70000000001,"N_COORD97":2542143,"ADDRESS":"惠南街４４號三樓","OBJECTID":248222},"geometry":{"x":166771.70000000112,"y":2542143.0000000019}},{"attributes":{"ID":248227,"DIS_CODE":0,"TOWNNAME":"南區","LI":"金華里","LIN":"14鄰","STREET":"惠南街","SECT":" ","MAREA":" ","LANE":" ","ALLEY":" ","HOUSE_NO":"４４號四樓","E_COORD97":166771.70000000001,"N_COORD97":2542143,"ADDRESS":"惠南街４４號四樓","OBJECTID":248223},"geometry":{"x":166771.70000000112,"y":2542143.0000000019}},{"attributes":{"ID":248228,"DIS_CODE":0,"TOWNNAME":"南區","LI":"金華里","LIN":"14鄰","STREET":"惠南街","SECT":" ","MAREA":" ","LANE":" ","ALLEY":" ","HOUSE_NO":"４６號二樓","E_COORD97":166774.44,"N_COORD97":2542155.3799999999,"ADDRESS":"惠南街４６號二樓","OBJECTID":248224},"geometry":{"x":166774.44000000041,"y":2542155.379999999}},{"attributes":{"ID":248229,"DIS_CODE":0,"TOWNNAME":"南區","LI":"金華里","LIN":"14鄰","STREET":"惠南街","SECT":" ","MAREA":" ","LANE":" ","ALLEY":" ","HOUSE_NO":"４６號三樓","E_COORD97":166774.44,"N_COORD97":2542155.3799999999,"ADDRESS":"惠南街４６號三樓","OBJECTID":248225},"geometry":{"x":166774.44000000041,"y":2542155.379999999}},{"attributes":{"ID":248230,"DIS_CODE":0,"TOWNNAME":"中西區","LI":"光賢里","LIN":"11鄰","STREET":"和善街","SECT":" ","MAREA":" ","LANE":"１２５巷","ALLEY":" ","HOUSE_NO":"１４號","E_COORD97":166853.35000000001,"N_COORD97":2544786.5,"ADDRESS":"和善街１２５巷１４號","OBJECTID":248226},"geometry":{"x":166853.35000000056,"y":2544786.5}},{"attributes":{"ID":248231,"DIS_CODE":0,"TOWNNAME":"中西區","LI":"光賢里","LIN":"11鄰","STREET":"和善街","SECT":" ","MAREA":" ","LANE":"１２５巷","ALLEY":" ","HOUSE_NO":"１６號","E_COORD97":166850.17000000001,"N_COORD97":2544783.3199999998,"ADDRESS":"和善街１２５巷１６號","OBJECTID":248227},"geometry":{"x":166850.16999999993,"y":2544783.3200000022}},{"attributes":{"ID":248232,"DIS_CODE":0,"TOWNNAME":"中西區","LI":"光賢里","LIN":"11鄰","STREET":"和善街","SECT":" ","MAREA":" ","LANE":"１２５巷","ALLEY":" ","HOUSE_NO":"１８號","E_COORD97":166847.63,"N_COORD97":2544780.1499999999,"ADDRESS":"和善街１２５巷１８號","OBJECTID":248228},"geometry":{"x":166847.63000000175,"y":2544780.1500000022}},{"attributes":{"ID":248233,"DIS_CODE":0,"TOWNNAME":"中西區","LI":"光賢里","LIN":"11鄰","STREET":"和善街","SECT":" ","MAREA":" ","LANE":"１２５巷","ALLEY":" ","HOUSE_NO":"２０號","E_COORD97":166845.29999999999,"N_COORD97":2544777.3900000001,"ADDRESS":"和善街１２５巷２０號","OBJECTID":248229},"geometry":{"x":166845.30000000075,"y":2544777.3900000006}},{"attributes":{"ID":248234,"DIS_CODE":0,"TOWNNAME":"中西區","LI":"光賢里","LIN":"11鄰","STREET":"和善街","SECT":" ","MAREA":" ","LANE":"１２５巷","ALLEY":" ","HOUSE_NO":"２２號","E_COORD97":166842.76000000001,"N_COORD97":2544774.0099999998,"ADDRESS":"和善街１２５巷２２號","OBJECTID":248230},"geometry":{"x":166842.75999999978,"y":2544774.0100000016}},{"attributes":{"ID":248235,"DIS_CODE":0,"TOWNNAME":"中西區","LI":"光賢里","LIN":"11鄰","STREET":"和善街","SECT":" ","MAREA":" ","LANE":"１２５巷","ALLEY":" ","HOUSE_NO":"２４號","E_COORD97":166839.79999999999,"N_COORD97":2544770.8300000001,"ADDRESS":"和善街１２５巷２４號","OBJECTID":248231},"geometry":{"x":166839.80000000168,"y":2544770.8300000001}},{"attributes":{"ID":248236,"DIS_CODE":0,"TOWNNAME":"中西區","LI":"光賢里","LIN":"11鄰","STREET":"和善街","SECT":" ","MAREA":" ","LANE":"１２５巷","ALLEY":" ","HOUSE_NO":"２６號","E_COORD97":166837.26000000001,"N_COORD97":2544767.8700000001,"ADDRESS":"和善街１２５巷２６號","OBJECTID":248232},"geometry":{"x":166837.26000000071,"y":2544767.870000001}},{"attributes":{"ID":248237,"DIS_CODE":0,"TOWNNAME":"中西區","LI":"光賢里","LIN":"11鄰","STREET":"和善街","SECT":" ","MAREA":" ","LANE":"１２５巷","ALLEY":" ","HOUSE_NO":"２８號","E_COORD97":166834.51000000001,"N_COORD97":2544764.6899999999,"ADDRESS":"和善街１２５巷２８號","OBJECTID":248233},"geometry":{"x":166834.50999999978,"y":2544764.6899999976}},{"attributes":{"ID":248238,"DIS_CODE":0,"TOWNNAME":"永康區","LI":"大橋里","LIN":"1鄰","STREET":"大橋一街","SECT":" ","MAREA":" ","LANE":"７３巷","ALLEY":" ","HOUSE_NO":"２１３號","E_COORD97":170573.95000000001,"N_COORD97":2546708.7400000002,"ADDRESS":"大橋一街７３巷２１３號","OBJECTID":248234},"geometry":{"x":170573.95000000112,"y":2546708.7400000021}},{"attributes":{"ID":248239,"DIS_CODE":0,"TOWNNAME":"永康區","LI":"大灣里","LIN":"31鄰","STREET":"文賢街","SECT":" ","MAREA":" ","LANE":"６８巷","ALLEY":" ","HOUSE_NO":"３２號","E_COORD97":175398.63,"N_COORD97":2545087.0800000001,"ADDRESS":"文賢街６８巷３２號","OBJECTID":248235},"geometry":{"x":175398.63000000082,"y":2545087.0800000001}},{"attributes":{"ID":248240,"DIS_CODE":0,"TOWNNAME":"中西區","LI":"光賢里","LIN":"11鄰","STREET":"和善街","SECT":" ","MAREA":" ","LANE":"１２５巷","ALLEY":" ","HOUSE_NO":"２號","E_COORD97":166870.28,"N_COORD97":2544807.8700000001,"ADDRESS":"和善街１２５巷２號","OBJECTID":248236},"geometry":{"x":166870.28000000026,"y":2544807.870000001}},{"attributes":{"ID":248241,"DIS_CODE":0,"TOWNNAME":"中西區","LI":"光賢里","LIN":"11鄰","STREET":"和善街","SECT":" ","MAREA":" ","LANE":"１２５巷","ALLEY":" ","HOUSE_NO":"３０號","E_COORD97":166832.17999999999,"N_COORD97":2544761.3100000001,"ADDRESS":"和善街１２５巷３０號","OBJECTID":248237},"geometry":{"x":166832.18000000063,"y":2544761.3100000005}},{"attributes":{"ID":248242,"DIS_CODE":0,"TOWNNAME":"中西區","LI":"光賢里","LIN":"11鄰","STREET":"和善街","SECT":" ","MAREA":" ","LANE":"１２５巷","ALLEY":" ","HOUSE_NO":"３２號","E_COORD97":166829.85000000001,"N_COORD97":2544758.3399999999,"ADDRESS":"和善街１２５巷３２號","OBJECTID":248238},"geometry":{"x":166829.84999999963,"y":2544758.3400000017}},{"attributes":{"ID":248243,"DIS_CODE":0,"TOWNNAME":"仁德區","LI":"太子里","LIN":"47鄰","STREET":"太子路","SECT":" ","MAREA":" ","LANE":"９巷","ALLEY":" ","HOUSE_NO":"５４號","E_COORD97":175447.92000000001,"N_COORD97":2543422.7599999998,"ADDRESS":"太子路９巷５４號","OBJECTID":248239},"geometry":{"x":175447.92000000086,"y":2543422.7600000016}},{"attributes":{"ID":248244,"DIS_CODE":0,"TOWNNAME":"永康區","LI":"西灣里","LIN":"47鄰","STREET":"大灣路","SECT":" ","MAREA":" ","LANE":"９４２巷","ALLEY":" ","HOUSE_NO":"５７５號","E_COORD97":173942.89999999999,"N_COORD97":2545639.2400000002,"ADDRESS":"大灣路９４２巷５７５號","OBJECTID":248240},"geometry":{"x":173942.9000000013,"y":2545639.2400000002}},{"attributes":{"ID":248245,"DIS_CODE":0,"TOWNNAME":"永康區","LI":"正強里","LIN":"47鄰","STREET":"中正路","SECT":" ","MAREA":" ","LANE":"２５６巷","ALLEY":" ","HOUSE_NO":"１１號之４１","E_COORD97":173231.20999999999,"N_COORD97":2547996.2000000002,"ADDRESS":"中正路２５６巷１１號之４１","OBJECTID":248241},"geometry":{"x":173231.20999999903,"y":2547996.2000000011}},{"attributes":{"ID":248246,"DIS_CODE":0,"TOWNNAME":"永康區","LI":"正強里","LIN":"47鄰","STREET":"中正路","SECT":" ","MAREA":" ","LANE":"２５６巷","ALLEY":" ","HOUSE_NO":"１１號之５","E_COORD97":173230.10999999999,"N_COORD97":2547996.2000000002,"ADDRESS":"中正路２５６巷１１號之５","OBJECTID":248242},"geometry":{"x":173230.11000000034,"y":2547996.2000000011}},{"attributes":{"ID":248247,"DIS_CODE":0,"TOWNNAME":"南區","LI":"金華里","LIN":"14鄰","STREET":"惠南街","SECT":" ","MAREA":" ","LANE":" ","ALLEY":" ","HOUSE_NO":"４６號四樓","E_COORD97":166774.44,"N_COORD97":2542155.3799999999,"ADDRESS":"惠南街４６號四樓","OBJECTID":248243},"geometry":{"x":166774.44000000041,"y":2542155.379999999}},{"attributes":{"ID":248248,"DIS_CODE":0,"TOWNNAME":"北區","LI":"玉皇里","LIN":"14鄰","STREET":"忠義路","SECT":"三段","MAREA":" ","LANE":" ","ALLEY":" ","HOUSE_NO":"２２號十一樓之２","E_COORD97":168537.85999999999,"N_COORD97":2544419.5800000001,"ADDRESS":"忠義路三段２２號十一樓之２","OBJECTID":248244},"geometry":{"x":168537.86000000034,"y":2544419.5800000001}},{"attributes":{"ID":248249,"DIS_CODE":0,"TOWNNAME":"北區","LI":"正覺里","LIN":"14鄰","STREET":"西門路","SECT":"四段","MAREA":" ","LANE":" ","ALLEY":" ","HOUSE_NO":"４８０號四樓之１","E_COORD97":169147.26000000001,"N_COORD97":2546314.6099999999,"ADDRESS":"西門路四段４８０號四樓之１","OBJECTID":248245},"geometry":{"x":169147.26000000071,"y":2546314.6099999975}},{"attributes":{"ID":248250,"DIS_CODE":0,"TOWNNAME":"北區","LI":"正覺里","LIN":"14鄰","STREET":"西門路","SECT":"四段","MAREA":" ","LANE":" ","ALLEY":" ","HOUSE_NO":"４８０號四樓之２","E_COORD97":169147.26000000001,"N_COORD97":2546314.6099999999,"ADDRESS":"西門路四段４８０號四樓之２","OBJECTID":248246},"geometry":{"x":169147.26000000071,"y":2546314.6099999975}},{"attributes":{"ID":248251,"DIS_CODE":0,"TOWNNAME":"北區","LI":"正覺里","LIN":"14鄰","STREET":"西門路","SECT":"四段","MAREA":" ","LANE":" ","ALLEY":" ","HOUSE_NO":"４８０號四樓之３","E_COORD97":169147.26000000001,"N_COORD97":2546314.6099999999,"ADDRESS":"西門路四段４８０號四樓之３","OBJECTID":248247},"geometry":{"x":169147.26000000071,"y":2546314.6099999975}},{"attributes":{"ID":248252,"DIS_CODE":0,"TOWNNAME":"北區","LI":"正覺里","LIN":"14鄰","STREET":"西門路","SECT":"四段","MAREA":" ","LANE":" ","ALLEY":" ","HOUSE_NO":"４８６號二樓","E_COORD97":169141.62,"N_COORD97":2546335.98,"ADDRESS":"西門路四段４８６號二樓","OBJECTID":248248},"geometry":{"x":169141.62000000197,"y":2546335.9800000004}},{"attributes":{"ID":248253,"DIS_CODE":0,"TOWNNAME":"北區","LI":"正覺里","LIN":"14鄰","STREET":"西門路","SECT":"四段","MAREA":" ","LANE":" ","ALLEY":" ","HOUSE_NO":"４８６號三樓","E_COORD97":169141.62,"N_COORD97":2546335.98,"ADDRESS":"西門路四段４８６號三樓","OBJECTID":248249},"geometry":{"x":169141.62000000197,"y":2546335.9800000004}},{"attributes":{"ID":248254,"DIS_CODE":0,"TOWNNAME":"北區","LI":"正覺里","LIN":"14鄰","STREET":"西門路","SECT":"四段","MAREA":" ","LANE":" ","ALLEY":" ","HOUSE_NO":"４８６號五樓","E_COORD97":169141.62,"N_COORD97":2546335.98,"ADDRESS":"西門路四段４８６號五樓","OBJECTID":248250},"geometry":{"x":169141.62000000197,"y":2546335.9800000004}},{"attributes":{"ID":248255,"DIS_CODE":0,"TOWNNAME":"北區","LI":"正覺里","LIN":"14鄰","STREET":"西門路","SECT":"四段","MAREA":" ","LANE":" ","ALLEY":" ","HOUSE_NO":"４８６號四樓","E_COORD97":169141.62,"N_COORD97":2546335.98,"ADDRESS":"西門路四段４８６號四樓","OBJECTID":248251},"geometry":{"x":169141.62000000197,"y":2546335.9800000004}},{"attributes":{"ID":248256,"DIS_CODE":0,"TOWNNAME":"北區","LI":"玉皇里","LIN":"14鄰","STREET":"成功路","SECT":" ","MAREA":" ","LANE":" ","ALLEY":" ","HOUSE_NO":"１１４號七樓之１","E_COORD97":168539.87,"N_COORD97":2544372.5,"ADDRESS":"成功路１１４號七樓之１","OBJECTID":248252},"geometry":{"x":168539.87000000197,"y":2544372.5}},{"attributes":{"ID":248257,"DIS_CODE":0,"TOWNNAME":"北區","LI":"玉皇里","LIN":"14鄰","STREET":"成功路","SECT":" ","MAREA":" ","LANE":" ","ALLEY":" ","HOUSE_NO":"１１４號七樓之２","E_COORD97":168539.87,"N_COORD97":2544372.5,"ADDRESS":"成功路１１４號七樓之２","OBJECTID":248253},"geometry":{"x":168539.87000000197,"y":2544372.5}},{"attributes":{"ID":248258,"DIS_CODE":0,"TOWNNAME":"北區","LI":"玉皇里","LIN":"14鄰","STREET":"成功路","SECT":" ","MAREA":" ","LANE":" ","ALLEY":" ","HOUSE_NO":"１１４號九樓之１","E_COORD97":168539.87,"N_COORD97":2544372.5,"ADDRESS":"成功路１１４號九樓之１","OBJECTID":248254},"geometry":{"x":168539.87000000197,"y":2544372.5}},{"attributes":{"ID":248259,"DIS_CODE":0,"TOWNNAME":"中西區","LI":"光賢里","LIN":"11鄰","STREET":"和善街","SECT":" ","MAREA":" ","LANE":"１２５巷","ALLEY":" ","HOUSE_NO":"４號","E_COORD97":166867.95000000001,"N_COORD97":2544804.9100000001,"ADDRESS":"和善街１２５巷４號","OBJECTID":248255},"geometry":{"x":166867.95000000205,"y":2544804.9100000039}},{"attributes":{"ID":248260,"DIS_CODE":0,"TOWNNAME":"中西區","LI":"光賢里","LIN":"11鄰","STREET":"和善街","SECT":" ","MAREA":" ","LANE":"１２５巷","ALLEY":" ","HOUSE_NO":"６號","E_COORD97":166865.20000000001,"N_COORD97":2544801.7400000002,"ADDRESS":"和善街１２５巷６號","OBJECTID":248256},"geometry":{"x":166865.20000000112,"y":2544801.7400000002}},{"attributes":{"ID":248261,"DIS_CODE":0,"TOWNNAME":"中西區","LI":"光賢里","LIN":"11鄰","STREET":"和善街","SECT":" ","MAREA":" ","LANE":"１２５巷","ALLEY":" ","HOUSE_NO":"８號","E_COORD97":166862.66,"N_COORD97":2544798.5499999998,"ADDRESS":"和善街１２５巷８號","OBJECTID":248257},"geometry":{"x":166862.66000000015,"y":2544798.5500000026}},{"attributes":{"ID":248262,"DIS_CODE":0,"TOWNNAME":"永康區","LI":"三合里","LIN":"5鄰","STREET":"南工街","SECT":" ","MAREA":" ","LANE":"９８巷","ALLEY":" ","HOUSE_NO":"６號","E_COORD97":172126.54000000001,"N_COORD97":2545714.5,"ADDRESS":"南工街９８巷６號","OBJECTID":248258},"geometry":{"x":172126.54000000004,"y":2545714.5}},{"attributes":{"ID":248263,"DIS_CODE":0,"TOWNNAME":"永康區","LI":"西灣里","LIN":"47鄰","STREET":"大灣路","SECT":" ","MAREA":" ","LANE":"９４２巷","ALLEY":" ","HOUSE_NO":"５８９號","E_COORD97":173932.47,"N_COORD97":2545673.4900000002,"ADDRESS":"大灣路９４２巷５８９號","OBJECTID":248259},"geometry":{"x":173932.46999999974,"y":2545673.4900000021}},{"attributes":{"ID":248264,"DIS_CODE":0,"TOWNNAME":"永康區","LI":"崑山里","LIN":"47鄰","STREET":"國光五街","SECT":" ","MAREA":" ","LANE":"２２巷","ALLEY":" ","HOUSE_NO":"１２號","E_COORD97":174236.04000000001,"N_COORD97":2545129.2599999998,"ADDRESS":"國光五街２２巷１２號","OBJECTID":248260},"geometry":{"x":174236.0400000019,"y":2545129.2599999998}},{"attributes":{"ID":248265,"DIS_CODE":0,"TOWNNAME":"北區","LI":"玉皇里","LIN":"14鄰","STREET":"成功路","SECT":" ","MAREA":" ","LANE":" ","ALLEY":" ","HOUSE_NO":"１１４號九樓之２","E_COORD97":168539.87,"N_COORD97":2544372.5,"ADDRESS":"成功路１１４號九樓之２","OBJECTID":248261},"geometry":{"x":168539.87000000197,"y":2544372.5}},{"attributes":{"ID":248266,"DIS_CODE":0,"TOWNNAME":"北區","LI":"玉皇里","LIN":"14鄰","STREET":"成功路","SECT":" ","MAREA":" ","LANE":" ","ALLEY":" ","HOUSE_NO":"１１４號九樓之３","E_COORD97":168539.87,"N_COORD97":2544372.5,"ADDRESS":"成功路１１４號九樓之３","OBJECTID":248262},"geometry":{"x":168539.87000000197,"y":2544372.5}},{"attributes":{"ID":248267,"DIS_CODE":0,"TOWNNAME":"北區","LI":"玉皇里","LIN":"14鄰","STREET":"成功路","SECT":" ","MAREA":" ","LANE":" ","ALLEY":" ","HOUSE_NO":"１１４號九樓之４","E_COORD97":168539.87,"N_COORD97":2544372.5,"ADDRESS":"成功路１１４號九樓之４","OBJECTID":248263},"geometry":{"x":168539.87000000197,"y":2544372.5}},{"attributes":{"ID":248268,"DIS_CODE":0,"TOWNNAME":"永康區","LI":"六合里","LIN":"8鄰","STREET":"六合路","SECT":" ","MAREA":" ","LANE":"４７巷","ALLEY":" ","HOUSE_NO":"３４號","E_COORD97":171095.34873,"N_COORD97":2545595.8674099999,"ADDRESS":"六合路４７巷３４號","OBJECTID":248264},"geometry":{"x":171095.34872999974,"y":2545595.8674110044}},{"attributes":{"ID":248269,"DIS_CODE":0,"TOWNNAME":"永康區","LI":"大橋里","LIN":"25鄰","STREET":"大橋一街","SECT":" ","MAREA":" ","LANE":"２４７巷","ALLEY":" ","HOUSE_NO":"２９號","E_COORD97":171251.26000000001,"N_COORD97":2546714.2400000002,"ADDRESS":"大橋一街２４７巷２９號","OBJECTID":248265},"geometry":{"x":171251.26000000071,"y":2546714.2400000002}},{"attributes":{"ID":248270,"DIS_CODE":0,"TOWNNAME":"永康區","LI":"大橋里","LIN":"15鄰","STREET":"大橋一街","SECT":" ","MAREA":" ","LANE":"７３巷","ALLEY":" ","HOUSE_NO":"４８號","E_COORD97":170857.07000000001,"N_COORD97":2546527.25,"ADDRESS":"大橋一街７３巷４８號","OBJECTID":248266},"geometry":{"x":170857.0700000003,"y":2546527.25}},{"attributes":{"ID":248271,"DIS_CODE":0,"TOWNNAME":"永康區","LI":"五王里","LIN":"1鄰","STREET":"成功路","SECT":" ","MAREA":" ","LANE":"１３０巷","ALLEY":" ","HOUSE_NO":"３６號","E_COORD97":171549.04999999999,"N_COORD97":2545543.5299999998,"ADDRESS":"成功路１３０巷３６號","OBJECTID":248267},"geometry":{"x":171549.05000000075,"y":2545543.5300000012}},{"attributes":{"ID":248272,"DIS_CODE":0,"TOWNNAME":"新市區","LI":"新和里","LIN":"47鄰","STREET":"和平街","SECT":" ","MAREA":" ","LANE":"１６８巷","ALLEY":" ","HOUSE_NO":"１８號","E_COORD97":177423.26000000001,"N_COORD97":2553345.25,"ADDRESS":"和平街１６８巷１８號","OBJECTID":248268},"geometry":{"x":177423.26000000071,"y":2553345.25}},{"attributes":{"ID":248273,"DIS_CODE":0,"TOWNNAME":"新市區","LI":"新和里","LIN":"47鄰","STREET":"和平街","SECT":" ","MAREA":" ","LANE":"１６８巷","ALLEY":" ","HOUSE_NO":"２４號","E_COORD97":177409.73999999999,"N_COORD97":2553361.25,"ADDRESS":"和平街１６８巷２４號","OBJECTID":248269},"geometry":{"x":177409.74000000022,"y":2553361.2500000019}},{"attributes":{"ID":248274,"DIS_CODE":0,"TOWNNAME":"北區","LI":"玉皇里","LIN":"14鄰","STREET":"成功路","SECT":" ","MAREA":" ","LANE":" ","ALLEY":" ","HOUSE_NO":"１１４號二樓","E_COORD97":168539.87,"N_COORD97":2544372.5,"ADDRESS":"成功路１１４號二樓","OBJECTID":248270},"geometry":{"x":168539.87000000197,"y":2544372.5}},{"attributes":{"ID":248275,"DIS_CODE":0,"TOWNNAME":"北區","LI":"玉皇里","LIN":"14鄰","STREET":"成功路","SECT":" ","MAREA":" ","LANE":" ","ALLEY":" ","HOUSE_NO":"１１４號八樓之１","E_COORD97":168539.87,"N_COORD97":2544372.5,"ADDRESS":"成功路１１４號八樓之１","OBJECTID":248271},"geometry":{"x":168539.87000000197,"y":2544372.5}},{"attributes":{"ID":248276,"DIS_CODE":0,"TOWNNAME":"北區","LI":"玉皇里","LIN":"14鄰","STREET":"成功路","SECT":" ","MAREA":" ","LANE":" ","ALLEY":" ","HOUSE_NO":"１１４號八樓之２","E_COORD97":168539.87,"N_COORD97":2544372.5,"ADDRESS":"成功路１１４號八樓之２","OBJECTID":248272},"geometry":{"x":168539.87000000197,"y":2544372.5}},{"attributes":{"ID":248277,"DIS_CODE":0,"TOWNNAME":"中西區","LI":"大涼里","LIN":"11鄰","STREET":"府前路","SECT":"二段","MAREA":" ","LANE":"２５８巷","ALLEY":" ","HOUSE_NO":"５３號","E_COORD97":166977.03,"N_COORD97":2543796.54,"ADDRESS":"府前路二段２５８巷５３號","OBJECTID":248273},"geometry":{"x":166977.03000000026,"y":2543796.540000001}},{"attributes":{"ID":248278,"DIS_CODE":0,"TOWNNAME":"中西區","LI":"大涼里","LIN":"11鄰","STREET":"府前路","SECT":"二段","MAREA":" ","LANE":"２５８巷","ALLEY":" ","HOUSE_NO":"３５號","E_COORD97":167046.82999999999,"N_COORD97":2543785.96,"ADDRESS":"府前路二段２５８巷３５號","OBJECTID":248274},"geometry":{"x":167046.83000000101,"y":2543785.9600000028}},{"attributes":{"ID":248279,"DIS_CODE":0,"TOWNNAME":"中西區","LI":"大涼里","LIN":"11鄰","STREET":"府前路","SECT":"二段","MAREA":" ","LANE":"２５８巷","ALLEY":" ","HOUSE_NO":"３７號","E_COORD97":167037.67999999999,"N_COORD97":2543788.1200000001,"ADDRESS":"府前路二段２５８巷３７號","OBJECTID":248275},"geometry":{"x":167037.68000000063,"y":2543788.1200000029}},{"attributes":{"ID":248280,"DIS_CODE":0,"TOWNNAME":"中西區","LI":"大涼里","LIN":"11鄰","STREET":"府前路","SECT":"二段","MAREA":" ","LANE":"２５８巷","ALLEY":" ","HOUSE_NO":"３９號","E_COORD97":167028.29999999999,"N_COORD97":2543790.5299999998,"ADDRESS":"府前路二段２５８巷３９號","OBJECTID":248276},"geometry":{"x":167028.30000000075,"y":2543790.5300000012}},{"attributes":{"ID":248281,"DIS_CODE":0,"TOWNNAME":"中西區","LI":"大涼里","LIN":"11鄰","STREET":"府前路","SECT":"二段","MAREA":" ","LANE":"２５８巷","ALLEY":" ","HOUSE_NO":"４１號","E_COORD97":167020.35000000001,"N_COORD97":2543791.9700000002,"ADDRESS":"府前路二段２５８巷４１號","OBJECTID":248277},"geometry":{"x":167020.34999999963,"y":2543791.9700000025}},{"attributes":{"ID":248282,"DIS_CODE":0,"TOWNNAME":"中西區","LI":"大涼里","LIN":"11鄰","STREET":"府前路","SECT":"二段","MAREA":" ","LANE":"２５８巷","ALLEY":" ","HOUSE_NO":"４３號","E_COORD97":167012.64999999999,"N_COORD97":2543793.4100000001,"ADDRESS":"府前路二段２５８巷４３號","OBJECTID":248278},"geometry":{"x":167012.6500000013,"y":2543793.4100000001}},{"attributes":{"ID":248283,"DIS_CODE":0,"TOWNNAME":"永康區","LI":"\u25A0洲里","LIN":"11鄰","STREET":"\u25A0行路","SECT":" ","MAREA":" ","LANE":"１１１巷","ALLEY":" ","HOUSE_NO":"８號","E_COORD97":171473.13,"N_COORD97":2549179.2400000002,"ADDRESS":"\u25A0行路１１１巷８號","OBJECTID":248279},"geometry":{"x":171473.12999999989,"y":2549179.2400000002}},{"attributes":{"ID":248284,"DIS_CODE":0,"TOWNNAME":"新市區","LI":"新和里","LIN":"47鄰","STREET":"和平街","SECT":" ","MAREA":" ","LANE":"１６８巷","ALLEY":" ","HOUSE_NO":"２２號","E_COORD97":177412.84,"N_COORD97":2553357.5,"ADDRESS":"和平街１６８巷２２號","OBJECTID":248280},"geometry":{"x":177412.84000000078,"y":2553357.5}},{"attributes":{"ID":248285,"DIS_CODE":0,"TOWNNAME":"新市區","LI":"新和里","LIN":"47鄰","STREET":"和平街","SECT":" ","MAREA":" ","LANE":"１６８巷","ALLEY":" ","HOUSE_NO":"１８之１號","E_COORD97":177422.59,"N_COORD97":2553349.0499999998,"ADDRESS":"和平街１６８巷１８之１號","OBJECTID":248281},"geometry":{"x":177422.59000000171,"y":2553349.0500000026}},{"attributes":{"ID":248286,"DIS_CODE":0,"TOWNNAME":"仁德區","LI":"仁義里","LIN":"47鄰","STREET":"仁義路","SECT":" ","MAREA":" ","LANE":"２１巷","ALLEY":" ","HOUSE_NO":"４號","E_COORD97":173462.39000000001,"N_COORD97":2540988.2599999998,"ADDRESS":"仁義路２１巷４號","OBJECTID":248282},"geometry":{"x":173462.3900000006,"y":2540988.2600000016}},{"attributes":{"ID":248287,"DIS_CODE":0,"TOWNNAME":"仁德區","LI":"太子里","LIN":"47鄰","STREET":"太子路","SECT":" ","MAREA":" ","LANE":"９巷","ALLEY":" ","HOUSE_NO":"４６號","E_COORD97":175444.70000000001,"N_COORD97":2543435.2599999998,"ADDRESS":"太子路９巷４６號","OBJECTID":248283},"geometry":{"x":175444.70000000019,"y":2543435.2599999998}},{"attributes":{"ID":248288,"DIS_CODE":0,"TOWNNAME":"仁德區","LI":"太子里","LIN":"47鄰","STREET":"太子路","SECT":" ","MAREA":" ","LANE":"９巷","ALLEY":" ","HOUSE_NO":"６２號","E_COORD97":175447.20000000001,"N_COORD97":2543402.0099999998,"ADDRESS":"太子路９巷６２號","OBJECTID":248284},"geometry":{"x":175447.20000000205,"y":2543402.0099999998}},{"attributes":{"ID":248289,"DIS_CODE":0,"TOWNNAME":"仁德區","LI":"仁義里","LIN":"47鄰","STREET":"仁義路","SECT":" ","MAREA":" ","LANE":"２１巷","ALLEY":" ","HOUSE_NO":"３１號","E_COORD97":173473.48000000001,"N_COORD97":2541023.02,"ADDRESS":"仁義路２１巷３１號","OBJECTID":248285},"geometry":{"x":173473.48000000045,"y":2541023.0200000033}},{"attributes":{"ID":248290,"DIS_CODE":0,"TOWNNAME":"仁德區","LI":"太子里","LIN":"47鄰","STREET":"太子路","SECT":" ","MAREA":" ","LANE":"９巷","ALLEY":" ","HOUSE_NO":"５２號","E_COORD97":175453.03,"N_COORD97":2543421.2599999998,"ADDRESS":"太子路９巷５２號","OBJECTID":248286},"geometry":{"x":175453.03000000026,"y":2543421.2599999998}},{"attributes":{"ID":248291,"DIS_CODE":0,"TOWNNAME":"仁德區","LI":"太子里","LIN":"47鄰","STREET":"太子路","SECT":" ","MAREA":" ","LANE":"９巷","ALLEY":" ","HOUSE_NO":"４１號","E_COORD97":175473.81,"N_COORD97":2543448.7599999998,"ADDRESS":"太子路９巷４１號","OBJECTID":248287},"geometry":{"x":175473.80999999959,"y":2543448.7599999998}},{"attributes":{"ID":248292,"DIS_CODE":0,"TOWNNAME":"永康區","LI":"西灣里","LIN":"47鄰","STREET":"大灣路","SECT":" ","MAREA":" ","LANE":"９４２巷","ALLEY":" ","HOUSE_NO":"５９７號","E_COORD97":173928.14000000001,"N_COORD97":2545690.75,"ADDRESS":"大灣路９４２巷５９７號","OBJECTID":248288},"geometry":{"x":173928.14000000153,"y":2545690.7500000037}},{"attributes":{"ID":248293,"DIS_CODE":0,"TOWNNAME":"北區","LI":"玉皇里","LIN":"14鄰","STREET":"成功路","SECT":" ","MAREA":" ","LANE":" ","ALLEY":" ","HOUSE_NO":"１１４號十一樓之１","E_COORD97":168539.87,"N_COORD97":2544372.5,"ADDRESS":"成功路１１４號十一樓之１","OBJECTID":248289},"geometry":{"x":168539.87000000197,"y":2544372.5}},{"attributes":{"ID":248294,"DIS_CODE":0,"TOWNNAME":"北區","LI":"玉皇里","LIN":"14鄰","STREET":"成功路","SECT":" ","MAREA":" ","LANE":" ","ALLEY":" ","HOUSE_NO":"１１４號十一樓之２","E_COORD97":168539.87,"N_COORD97":2544372.5,"ADDRESS":"成功路１１４號十一樓之２","OBJECTID":248290},"geometry":{"x":168539.87000000197,"y":2544372.5}},{"attributes":{"ID":248295,"DIS_CODE":0,"TOWNNAME":"北區","LI":"玉皇里","LIN":"14鄰","STREET":"成功路","SECT":" ","MAREA":" ","LANE":" ","ALLEY":" ","HOUSE_NO":"１１４號十一樓之３","E_COORD97":168539.87,"N_COORD97":2544372.5,"ADDRESS":"成功路１１４號十一樓之３","OBJECTID":248291},"geometry":{"x":168539.87000000197,"y":2544372.5}},{"attributes":{"ID":248296,"DIS_CODE":0,"TOWNNAME":"北區","LI":"玉皇里","LIN":"14鄰","STREET":"成功路","SECT":" ","MAREA":" ","LANE":" ","ALLEY":" ","HOUSE_NO":"１１４號十一樓之４","E_COORD97":168539.87,"N_COORD97":2544372.5,"ADDRESS":"成功路１１４號十一樓之４","OBJECTID":248292},"geometry":{"x":168539.87000000197,"y":2544372.5}},{"attributes":{"ID":248297,"DIS_CODE":0,"TOWNNAME":"北區","LI":"玉皇里","LIN":"14鄰","STREET":"成功路","SECT":" ","MAREA":" ","LANE":" ","ALLEY":" ","HOUSE_NO":"１１４號十二樓之１","E_COORD97":168539.87,"N_COORD97":2544372.5,"ADDRESS":"成功路１１４號十二樓之１","OBJECTID":248293},"geometry":{"x":168539.87000000197,"y":2544372.5}},{"attributes":{"ID":248298,"DIS_CODE":0,"TOWNNAME":"北區","LI":"玉皇里","LIN":"14鄰","STREET":"成功路","SECT":" ","MAREA":" ","LANE":" ","ALLEY":" ","HOUSE_NO":"１１４號十二樓之２","E_COORD97":168539.87,"N_COORD97":2544372.5,"ADDRESS":"成功路１１４號十二樓之２","OBJECTID":248294},"geometry":{"x":168539.87000000197,"y":2544372.5}},{"attributes":{"ID":248299,"DIS_CODE":0,"TOWNNAME":"北區","LI":"玉皇里","LIN":"14鄰","STREET":"成功路","SECT":" ","MAREA":" ","LANE":" ","ALLEY":" ","HOUSE_NO":"１１４號十二樓之３","E_COORD97":168539.87,"N_COORD97":2544372.5,"ADDRESS":"成功路１１４號十二樓之３","OBJECTID":248295},"geometry":{"x":168539.87000000197,"y":2544372.5}},{"attributes":{"ID":248300,"DIS_CODE":0,"TOWNNAME":"永康區","LI":"中華里","LIN":"11鄰","STREET":"忠義街","SECT":" ","MAREA":" ","LANE":"１０巷","ALLEY":" ","HOUSE_NO":"２號","E_COORD97":171746.01999999999,"N_COORD97":2544372.3399999999,"ADDRESS":"忠義街１０巷２號","OBJECTID":248296},"geometry":{"x":171746.02000000048,"y":2544372.3400000017}},{"attributes":{"ID":248301,"DIS_CODE":0,"TOWNNAME":"永康區","LI":"中華里","LIN":"11鄰","STREET":"忠義街","SECT":" ","MAREA":" ","LANE":"１０巷","ALLEY":" ","HOUSE_NO":"２４號","E_COORD97":171800.72,"N_COORD97":2544371.4900000002,"ADDRESS":"忠義街１０巷２４號","OBJECTID":248297},"geometry":{"x":171800.72000000067,"y":2544371.4900000021}},{"attributes":{"ID":248302,"DIS_CODE":0,"TOWNNAME":"永康區","LI":"中華里","LIN":"11鄰","STREET":"忠義街","SECT":" ","MAREA":" ","LANE":"１０巷","ALLEY":" ","HOUSE_NO":"１２號","E_COORD97":171769.92999999999,"N_COORD97":2544360.3700000001,"ADDRESS":"忠義街１０巷１２號","OBJECTID":248298},"geometry":{"x":171769.93000000156,"y":2544360.370000001}},{"attributes":{"ID":248303,"DIS_CODE":0,"TOWNNAME":"永康區","LI":"中華里","LIN":"11鄰","STREET":"忠義街","SECT":" ","MAREA":" ","LANE":"１０巷","ALLEY":" ","HOUSE_NO":"１０號","E_COORD97":171763.51999999999,"N_COORD97":2544372.3399999999,"ADDRESS":"忠義街１０巷１０號","OBJECTID":248299},"geometry":{"x":171763.51999999955,"y":2544372.3400000017}},{"attributes":{"ID":248304,"DIS_CODE":0,"TOWNNAME":"永康區","LI":"中華里","LIN":"11鄰","STREET":"忠義街","SECT":" ","MAREA":" ","LANE":"１０巷","ALLEY":" ","HOUSE_NO":"１６號","E_COORD97":171782.54000000001,"N_COORD97":2544372.1299999999,"ADDRESS":"忠義街１０巷１６號","OBJECTID":248300},"geometry":{"x":171782.54000000004,"y":2544372.1300000008}},{"attributes":{"ID":248305,"DIS_CODE":0,"TOWNNAME":"永康區","LI":"二王里","LIN":"11鄰","STREET":"永二街","SECT":" ","MAREA":" ","LANE":"３９３巷","ALLEY":" ","HOUSE_NO":"１號","E_COORD97":172901.48999999999,"N_COORD97":2546611.5800000001,"ADDRESS":"永二街３９３巷１號","OBJECTID":248301},"geometry":{"x":172901.49000000115,"y":2546611.5800000019}},{"attributes":{"ID":248306,"DIS_CODE":0,"TOWNNAME":"永康區","LI":"二王里","LIN":"11鄰","STREET":"永二街","SECT":" ","MAREA":" ","LANE":"３９３巷","ALLEY":" ","HOUSE_NO":"１５號","E_COORD97":172954.92999999999,"N_COORD97":2546564.3300000001,"ADDRESS":"永二街３９３巷１５號","OBJECTID":248302},"geometry":{"x":172954.93000000156,"y":2546564.3300000001}},{"attributes":{"ID":248307,"DIS_CODE":0,"TOWNNAME":"永康區","LI":"大橋里","LIN":"18鄰","STREET":"大橋一街","SECT":" ","MAREA":" ","LANE":"１３９巷","ALLEY":" ","HOUSE_NO":"６４號","E_COORD97":170955.75,"N_COORD97":2546663.4900000002,"ADDRESS":"大橋一街１３９巷６４號","OBJECTID":248303},"geometry":{"x":170955.75,"y":2546663.4900000021}},{"attributes":{"ID":248308,"DIS_CODE":0,"TOWNNAME":"永康區","LI":"大橋里","LIN":"1鄰","STREET":"大橋一街","SECT":" ","MAREA":" ","LANE":"７３巷","ALLEY":" ","HOUSE_NO":"２０１號","E_COORD97":170566.29000000001,"N_COORD97":2546677.2400000002,"ADDRESS":"大橋一街７３巷２０１號","OBJECTID":248304},"geometry":{"x":170566.29000000097,"y":2546677.2400000002}},{"attributes":{"ID":248309,"DIS_CODE":0,"TOWNNAME":"永康區","LI":"大灣里","LIN":"6鄰","STREET":"大灣路","SECT":" ","MAREA":" ","LANE":"２１８巷","ALLEY":" ","HOUSE_NO":"２８號","E_COORD97":174900.44,"N_COORD97":2545535.6800000002,"ADDRESS":"大灣路２１８巷２８號","OBJECTID":248305},"geometry":{"x":174900.44000000134,"y":2545535.6800000016}},{"attributes":{"ID":248310,"DIS_CODE":0,"TOWNNAME":"永康區","LI":"大灣里","LIN":"29鄰","STREET":"民族路","SECT":" ","MAREA":" ","LANE":"１２６巷","ALLEY":" ","HOUSE_NO":"５號","E_COORD97":175306.56,"N_COORD97":2544910.73,"ADDRESS":"民族路１２６巷５號","OBJECTID":248306},"geometry":{"x":175306.55999999959,"y":2544910.7300000004}},{"attributes":{"ID":248311,"DIS_CODE":0,"TOWNNAME":"永康區","LI":"中華里","LIN":"11鄰","STREET":"小東路","SECT":" ","MAREA":" ","LANE":" ","ALLEY":" ","HOUSE_NO":"５５７號","E_COORD97":171738.25,"N_COORD97":2544339.5299999998,"ADDRESS":"小東路５５７號","OBJECTID":248307},"geometry":{"x":171738.25000000093,"y":2544339.5300000012}},{"attributes":{"ID":248312,"DIS_CODE":0,"TOWNNAME":"永康區","LI":"中華里","LIN":"11鄰","STREET":"小東路","SECT":" ","MAREA":" ","LANE":" ","ALLEY":" ","HOUSE_NO":"５６５號","E_COORD97":171753.85000000001,"N_COORD97":2544339.5299999998,"ADDRESS":"小東路５６５號","OBJECTID":248308},"geometry":{"x":171753.85000000056,"y":2544339.5300000012}},{"attributes":{"ID":248313,"DIS_CODE":0,"TOWNNAME":"永康區","LI":"中華里","LIN":"11鄰","STREET":"忠義街","SECT":" ","MAREA":" ","LANE":" ","ALLEY":" ","HOUSE_NO":"８號","E_COORD97":171731.32000000001,"N_COORD97":2544373.0800000001,"ADDRESS":"忠義街８號","OBJECTID":248309},"geometry":{"x":171731.32000000123,"y":2544373.0800000038}},{"attributes":{"ID":248314,"DIS_CODE":0,"TOWNNAME":"永康區","LI":"中華里","LIN":"11鄰","STREET":"小東路","SECT":" ","MAREA":" ","LANE":" ","ALLEY":" ","HOUSE_NO":"５５９號","E_COORD97":171742.31,"N_COORD97":2544339.7400000002,"ADDRESS":"小東路５５９號","OBJECTID":248310},"geometry":{"x":171742.31000000052,"y":2544339.7400000021}},{"attributes":{"ID":248315,"DIS_CODE":0,"TOWNNAME":"永康區","LI":"中華里","LIN":"11鄰","STREET":"小東路","SECT":" ","MAREA":" ","LANE":" ","ALLEY":" ","HOUSE_NO":"５７５號","E_COORD97":171773.95000000001,"N_COORD97":2544339.9500000002,"ADDRESS":"小東路５７５號","OBJECTID":248311},"geometry":{"x":171773.95000000112,"y":2544339.9500000011}},{"attributes":{"ID":248316,"DIS_CODE":0,"TOWNNAME":"永康區","LI":"大灣里","LIN":"11鄰","STREET":"大灣路","SECT":" ","MAREA":" ","LANE":" ","ALLEY":" ","HOUSE_NO":"２５０號","E_COORD97":174963.56,"N_COORD97":2545349.21,"ADDRESS":"大灣路２５０號","OBJECTID":248312},"geometry":{"x":174963.55999999959,"y":2545349.209999999}},{"attributes":{"ID":248317,"DIS_CODE":0,"TOWNNAME":"永康區","LI":"大灣里","LIN":"11鄰","STREET":"大灣路","SECT":" ","MAREA":" ","LANE":" ","ALLEY":" ","HOUSE_NO":"２０６號","E_COORD97":175015.85000000001,"N_COORD97":2545423.2200000002,"ADDRESS":"大灣路２０６號","OBJECTID":248313},"geometry":{"x":175015.85000000056,"y":2545423.2200000007}},{"attributes":{"ID":248318,"DIS_CODE":0,"TOWNNAME":"永康區","LI":"三合里","LIN":"14鄰","STREET":"南工街","SECT":" ","MAREA":" ","LANE":" ","ALLEY":" ","HOUSE_NO":"１８７號","E_COORD97":172017.97,"N_COORD97":2545844.9900000002,"ADDRESS":"南工街１８７號","OBJECTID":248314},"geometry":{"x":172017.97000000067,"y":2545844.9899999984}},{"attributes":{"ID":248319,"DIS_CODE":0,"TOWNNAME":"永康區","LI":"大橋里","LIN":"8鄰","STREET":"大橋三街","SECT":" ","MAREA":" ","LANE":" ","ALLEY":" ","HOUSE_NO":"２０９號","E_COORD97":170890.73999999999,"N_COORD97":2546800.7999999998,"ADDRESS":"大橋三街２０９號","OBJECTID":248315},"geometry":{"x":170890.74000000115,"y":2546800.8000000026}},{"attributes":{"ID":248320,"DIS_CODE":0,"TOWNNAME":"永康區","LI":"大橋里","LIN":"16鄰","STREET":"大橋二街","SECT":" ","MAREA":" ","LANE":" ","ALLEY":" ","HOUSE_NO":"９６號","E_COORD97":170917.95999999999,"N_COORD97":2546661.5,"ADDRESS":"大橋二街９６號","OBJECTID":248316},"geometry":{"x":170917.96000000089,"y":2546661.5}},{"attributes":{"ID":248321,"DIS_CODE":0,"TOWNNAME":"永康區","LI":"大灣里","LIN":"11鄰","STREET":"大灣路","SECT":" ","MAREA":" ","LANE":" ","ALLEY":" ","HOUSE_NO":"２０４號","E_COORD97":175018.13,"N_COORD97":2545426.6600000001,"ADDRESS":"大灣路２０４號","OBJECTID":248317},"geometry":{"x":175018.12999999989,"y":2545426.6600000001}},{"attributes":{"ID":248322,"DIS_CODE":0,"TOWNNAME":"永康區","LI":"大灣里","LIN":"11鄰","STREET":"大灣路","SECT":" ","MAREA":" ","LANE":" ","ALLEY":" ","HOUSE_NO":"２４６號","E_COORD97":174967.64000000001,"N_COORD97":2545356.21,"ADDRESS":"大灣路２４６號","OBJECTID":248318},"geometry":{"x":174967.6400000006,"y":2545356.2100000046}},{"attributes":{"ID":248323,"DIS_CODE":0,"TOWNNAME":"永康區","LI":"大灣里","LIN":"11鄰","STREET":"大灣路","SECT":" ","MAREA":" ","LANE":" ","ALLEY":" ","HOUSE_NO":"２４２號","E_COORD97":174971.85000000001,"N_COORD97":2545363.1000000001,"ADDRESS":"大灣路２４２號","OBJECTID":248319},"geometry":{"x":174971.84999999963,"y":2545363.1000000015}},{"attributes":{"ID":248324,"DIS_CODE":0,"TOWNNAME":"中西區","LI":"西湖里","LIN":"11鄰","STREET":"湖美一街","SECT":" ","MAREA":" ","LANE":"２６巷","ALLEY":" ","HOUSE_NO":"１０號","E_COORD97":166097.35999999999,"N_COORD97":2544528.5899999999,"ADDRESS":"湖美一街２６巷１０號","OBJECTID":248320},"geometry":{"x":166097.3600000022,"y":2544528.5900000036}},{"attributes":{"ID":248325,"DIS_CODE":0,"TOWNNAME":"永康區","LI":"西灣里","LIN":"47鄰","STREET":"大灣路","SECT":" ","MAREA":" ","LANE":"９４２巷","ALLEY":" ","HOUSE_NO":"６１３號","E_COORD97":173917.19,"N_COORD97":2545730.27,"ADDRESS":"大灣路９４２巷６１３號","OBJECTID":248321},"geometry":{"x":173917.19000000134,"y":2545730.2699999996}},{"attributes":{"ID":248326,"DIS_CODE":0,"TOWNNAME":"永康區","LI":"西灣里","LIN":"47鄰","STREET":"大灣路","SECT":" ","MAREA":" ","LANE":"９４２巷","ALLEY":" ","HOUSE_NO":"６１９號","E_COORD97":173913.85999999999,"N_COORD97":2545742.02,"ADDRESS":"大灣路９４２巷６１９號","OBJECTID":248322},"geometry":{"x":173913.8600000022,"y":2545742.0199999996}},{"attributes":{"ID":248327,"DIS_CODE":0,"TOWNNAME":"永康區","LI":"西灣里","LIN":"47鄰","STREET":"大灣路","SECT":" ","MAREA":" ","LANE":"９４２巷","ALLEY":" ","HOUSE_NO":"４２８號","E_COORD97":173959.76999999999,"N_COORD97":2545632.7400000002,"ADDRESS":"大灣路９４２巷４２８號","OBJECTID":248323},"geometry":{"x":173959.77000000048,"y":2545632.7400000002}},{"attributes":{"ID":248328,"DIS_CODE":0,"TOWNNAME":"永康區","LI":"西灣里","LIN":"47鄰","STREET":"大灣路","SECT":" ","MAREA":" ","LANE":"９４２巷","ALLEY":" ","HOUSE_NO":"４４６號之２","E_COORD97":173948.07000000001,"N_COORD97":2545679.54,"ADDRESS":"大灣路９４２巷４４６號之２","OBJECTID":248324},"geometry":{"x":173948.07000000216,"y":2545679.5399999991}},{"attributes":{"ID":248329,"DIS_CODE":0,"TOWNNAME":"永康區","LI":"西灣里","LIN":"47鄰","STREET":"大灣路","SECT":" ","MAREA":" ","LANE":"９４２巷","ALLEY":" ","HOUSE_NO":"４２６號","E_COORD97":173960.85999999999,"N_COORD97":2545627.9900000002,"ADDRESS":"大灣路９４２巷４２６號","OBJECTID":248325},"geometry":{"x":173960.86000000034,"y":2545627.9899999984}},{"attributes":{"ID":248330,"DIS_CODE":0,"TOWNNAME":"永康區","LI":"西灣里","LIN":"47鄰","STREET":"大灣路","SECT":" ","MAREA":" ","LANE":"９４２巷","ALLEY":" ","HOUSE_NO":"４４６號","E_COORD97":173948.26999999999,"N_COORD97":2545671.4900000002,"ADDRESS":"大灣路９４２巷４４６號","OBJECTID":248326},"geometry":{"x":173948.27000000048,"y":2545671.4900000002}},{"attributes":{"ID":248331,"DIS_CODE":0,"TOWNNAME":"永康區","LI":"西灣里","LIN":"47鄰","STREET":"大灣路","SECT":" ","MAREA":" ","LANE":"９４２巷","ALLEY":" ","HOUSE_NO":"４３０號","E_COORD97":173958.32000000001,"N_COORD97":2545637.2400000002,"ADDRESS":"大灣路９４２巷４３０號","OBJECTID":248327},"geometry":{"x":173958.32000000123,"y":2545637.2400000021}},{"attributes":{"ID":248332,"DIS_CODE":0,"TOWNNAME":"永康區","LI":"西灣里","LIN":"47鄰","STREET":"大灣路","SECT":" ","MAREA":" ","LANE":"９４２巷","ALLEY":" ","HOUSE_NO":"４３４號","E_COORD97":173955.63,"N_COORD97":2545646.4900000002,"ADDRESS":"大灣路９４２巷４３４號","OBJECTID":248328},"geometry":{"x":173955.63000000175,"y":2545646.4900000021}},{"attributes":{"ID":248333,"DIS_CODE":0,"TOWNNAME":"永康區","LI":"西灣里","LIN":"47鄰","STREET":"大灣路","SECT":" ","MAREA":" ","LANE":"９４２巷","ALLEY":" ","HOUSE_NO":"４４０號","E_COORD97":173951.82000000001,"N_COORD97":2545659.4900000002,"ADDRESS":"大灣路９４２巷４４０號","OBJECTID":248329},"geometry":{"x":173951.82000000123,"y":2545659.4900000021}},{"attributes":{"ID":248334,"DIS_CODE":0,"TOWNNAME":"永康區","LI":"\u25A0行里","LIN":"47鄰","STREET":"新行街","SECT":" ","MAREA":" ","LANE":"４巷","ALLEY":" ","HOUSE_NO":"４０號","E_COORD97":172341.04999999999,"N_COORD97":2548844.8900000001,"ADDRESS":"新行街４巷４０號","OBJECTID":248330},"geometry":{"x":172341.05000000075,"y":2548844.8900000025}},{"attributes":{"ID":248335,"DIS_CODE":0,"TOWNNAME":"永康區","LI":"西灣里","LIN":"47鄰","STREET":"大灣路","SECT":" ","MAREA":" ","LANE":"９４２巷","ALLEY":" ","HOUSE_NO":"４４６號之１","E_COORD97":173949.26999999999,"N_COORD97":2545675.54,"ADDRESS":"大灣路９４２巷４４６號之１","OBJECTID":248331},"geometry":{"x":173949.27000000142,"y":2545675.540000001}},{"attributes":{"ID":248336,"DIS_CODE":0,"TOWNNAME":"永康區","LI":"西灣里","LIN":"47鄰","STREET":"大灣路","SECT":" ","MAREA":" ","LANE":"９４２巷","ALLEY":" ","HOUSE_NO":"６１５號","E_COORD97":173916.19,"N_COORD97":2545734.27,"ADDRESS":"大灣路９４２巷６１５號","OBJECTID":248332},"geometry":{"x":173916.19000000041,"y":2545734.2700000033}},{"attributes":{"ID":248337,"DIS_CODE":0,"TOWNNAME":"永康區","LI":"西灣里","LIN":"47鄰","STREET":"大灣路","SECT":" ","MAREA":" ","LANE":"９４２巷","ALLEY":" ","HOUSE_NO":"４４２號之１","E_COORD97":173951.60000000001,"N_COORD97":2545667.79,"ADDRESS":"大灣路９４２巷４４２號之１","OBJECTID":248333},"geometry":{"x":173951.59999999963,"y":2545667.7899999991}},{"attributes":{"ID":248338,"DIS_CODE":0,"TOWNNAME":"永康區","LI":"西灣里","LIN":"47鄰","STREET":"大灣路","SECT":" ","MAREA":" ","LANE":"９４２巷","ALLEY":" ","HOUSE_NO":"６２９號","E_COORD97":173906.14999999999,"N_COORD97":2545765.9900000002,"ADDRESS":"大灣路９４２巷６２９號","OBJECTID":248334},"geometry":{"x":173906.15000000037,"y":2545765.9900000002}},{"attributes":{"ID":248339,"DIS_CODE":0,"TOWNNAME":"永康區","LI":"西灣里","LIN":"47鄰","STREET":"大灣路","SECT":" ","MAREA":" ","LANE":"９４２巷","ALLEY":" ","HOUSE_NO":"５９９號","E_COORD97":173927.17999999999,"N_COORD97":2545694.75,"ADDRESS":"大灣路９４２巷５９９號","OBJECTID":248335},"geometry":{"x":173927.1799999997,"y":2545694.7500000019}},{"attributes":{"ID":248340,"DIS_CODE":0,"TOWNNAME":"仁德區","LI":"太子里","LIN":"47鄰","STREET":"太子路","SECT":" ","MAREA":" ","LANE":"９巷","ALLEY":" ","HOUSE_NO":"４２號","E_COORD97":175455.04000000001,"N_COORD97":2543432.7599999998,"ADDRESS":"太子路９巷４２號","OBJECTID":248336},"geometry":{"x":175455.0400000019,"y":2543432.7600000016}},{"attributes":{"ID":248341,"DIS_CODE":0,"TOWNNAME":"仁德區","LI":"太子里","LIN":"47鄰","STREET":"太子路","SECT":" ","MAREA":" ","LANE":"９巷","ALLEY":" ","HOUSE_NO":"５０號","E_COORD97":175434.79000000001,"N_COORD97":2543437.7599999998,"ADDRESS":"太子路９巷５０號","OBJECTID":248337},"geometry":{"x":175434.79000000097,"y":2543437.7599999998}},{"attributes":{"ID":248342,"DIS_CODE":0,"TOWNNAME":"仁德區","LI":"太子里","LIN":"47鄰","STREET":"太子路","SECT":" ","MAREA":" ","LANE":"９巷","ALLEY":" ","HOUSE_NO":"４７號","E_COORD97":175487.04999999999,"N_COORD97":2543447.2599999998,"ADDRESS":"太子路９巷４７號","OBJECTID":248338},"geometry":{"x":175487.05000000075,"y":2543447.2600000016}},{"attributes":{"ID":248343,"DIS_CODE":0,"TOWNNAME":"仁德區","LI":"仁義里","LIN":"47鄰","STREET":"仁義路","SECT":" ","MAREA":" ","LANE":"２１巷","ALLEY":" ","HOUSE_NO":"１８號","E_COORD97":173482.51000000001,"N_COORD97":2541013.2599999998,"ADDRESS":"仁義路２１巷１８號","OBJECTID":248339},"geometry":{"x":173482.50999999978,"y":2541013.2600000016}},{"attributes":{"ID":248344,"DIS_CODE":0,"TOWNNAME":"仁德區","LI":"太子里","LIN":"47鄰","STREET":"太子路","SECT":" ","MAREA":" ","LANE":"９巷","ALLEY":" ","HOUSE_NO":"４２之１號","E_COORD97":175452.14999999999,"N_COORD97":2543434.0499999998,"ADDRESS":"太子路９巷４２之１號","OBJECTID":248340},"geometry":{"x":175452.15000000037,"y":2543434.0500000007}},{"attributes":{"ID":248345,"DIS_CODE":0,"TOWNNAME":"仁德區","LI":"太子里","LIN":"47鄰","STREET":"太子路","SECT":" ","MAREA":" ","LANE":"９巷","ALLEY":" ","HOUSE_NO":"５６號","E_COORD97":175442.95000000001,"N_COORD97":2543424.2599999998,"ADDRESS":"太子路９巷５６號","OBJECTID":248341},"geometry":{"x":175442.95000000112,"y":2543424.2599999998}},{"attributes":{"ID":248346,"DIS_CODE":0,"TOWNNAME":"仁德區","LI":"仁義里","LIN":"47鄰","STREET":"仁義路","SECT":" ","MAREA":" ","LANE":"２１巷","ALLEY":" ","HOUSE_NO":"３５號","E_COORD97":173468.13,"N_COORD97":2541039.52,"ADDRESS":"仁義路２１巷３５號","OBJECTID":248342},"geometry":{"x":173468.13000000082,"y":2541039.5199999996}},{"attributes":{"ID":248347,"DIS_CODE":0,"TOWNNAME":"仁德區","LI":"太子里","LIN":"47鄰","STREET":"太子路","SECT":" ","MAREA":" ","LANE":"９巷","ALLEY":" ","HOUSE_NO":"３９號","E_COORD97":175468.67999999999,"N_COORD97":2543449.0099999998,"ADDRESS":"太子路９巷３９號","OBJECTID":248343},"geometry":{"x":175468.6799999997,"y":2543449.0100000016}},{"attributes":{"ID":248348,"DIS_CODE":0,"TOWNNAME":"仁德區","LI":"太子里","LIN":"47鄰","STREET":"太子路","SECT":" ","MAREA":" ","LANE":"９巷","ALLEY":" ","HOUSE_NO":"７４號","E_COORD97":175444.73000000001,"N_COORD97":2543390.75,"ADDRESS":"太子路９巷７４號","OBJECTID":248344},"geometry":{"x":175444.73000000138,"y":2543390.75}},{"attributes":{"ID":248349,"DIS_CODE":0,"TOWNNAME":"仁德區","LI":"仁義里","LIN":"47鄰","STREET":"仁義路","SECT":" ","MAREA":" ","LANE":"２１巷","ALLEY":" ","HOUSE_NO":"２９號","E_COORD97":173469.64000000001,"N_COORD97":2541018.0099999998,"ADDRESS":"仁義路２１巷２９號","OBJECTID":248345},"geometry":{"x":173469.63999999966,"y":2541018.0100000016}},{"attributes":{"ID":248350,"DIS_CODE":0,"TOWNNAME":"仁德區","LI":"太子里","LIN":"47鄰","STREET":"太子路","SECT":" ","MAREA":" ","LANE":"９巷","ALLEY":" ","HOUSE_NO":"７０號","E_COORD97":175429.54999999999,"N_COORD97":2543406.5099999998,"ADDRESS":"太子路９巷７０號","OBJECTID":248346},"geometry":{"x":175429.55000000075,"y":2543406.5099999998}},{"attributes":{"ID":248351,"DIS_CODE":0,"TOWNNAME":"仁德區","LI":"太子里","LIN":"47鄰","STREET":"太子路","SECT":" ","MAREA":" ","LANE":"９巷","ALLEY":" ","HOUSE_NO":"４０號","E_COORD97":175442.06,"N_COORD97":2543459,"ADDRESS":"太子路９巷４０號","OBJECTID":248347},"geometry":{"x":175442.05999999959,"y":2543459.0000000019}},{"attributes":{"ID":248352,"DIS_CODE":0,"TOWNNAME":"北區","LI":"玉皇里","LIN":"14鄰","STREET":"成功路","SECT":" ","MAREA":" ","LANE":" ","ALLEY":" ","HOUSE_NO":"１１４號十二樓之４","E_COORD97":168539.87,"N_COORD97":2544372.5,"ADDRESS":"成功路１１４號十二樓之４","OBJECTID":248348},"geometry":{"x":168539.87000000197,"y":2544372.5}},{"attributes":{"ID":248353,"DIS_CODE":0,"TOWNNAME":"永康區","LI":"三合里","LIN":"5鄰","STREET":"南工街","SECT":" ","MAREA":" ","LANE":"８２巷","ALLEY":" ","HOUSE_NO":"５號","E_COORD97":172127.10000000001,"N_COORD97":2545693.5,"ADDRESS":"南工街８２巷５號","OBJECTID":248349},"geometry":{"x":172127.10000000056,"y":2545693.5000000019}},{"attributes":{"ID":248354,"DIS_CODE":0,"TOWNNAME":"仁德區","LI":"中洲里","LIN":"11鄰","STREET":" ","SECT":" ","MAREA":"中洲","LANE":" ","ALLEY":" ","HOUSE_NO":"３３６號之８","E_COORD97":173245.45999999999,"N_COORD97":2534262.29,"ADDRESS":"中洲３３６號之８","OBJECTID":248350},"geometry":{"x":173245.46000000089,"y":2534262.2899999991}},{"attributes":{"ID":248355,"DIS_CODE":0,"TOWNNAME":"永康區","LI":"三合里","LIN":"24鄰","STREET":"南工街","SECT":" ","MAREA":" ","LANE":"３１１巷","ALLEY":" ","HOUSE_NO":"４９號","E_COORD97":171802.41,"N_COORD97":2545900.75,"ADDRESS":"南工街３１１巷４９號","OBJECTID":248351},"geometry":{"x":171802.41000000015,"y":2545900.7500000037}},{"attributes":{"ID":248356,"DIS_CODE":0,"TOWNNAME":"永康區","LI":"大橋里","LIN":"8鄰","STREET":"大橋三街","SECT":" ","MAREA":" ","LANE":"１９９巷","ALLEY":" ","HOUSE_NO":"９４號","E_COORD97":170991.17999999999,"N_COORD97":2546910.8999999999,"ADDRESS":"大橋三街１９９巷９４號","OBJECTID":248352},"geometry":{"x":170991.1799999997,"y":2546910.9000000022}},{"attributes":{"ID":248357,"DIS_CODE":0,"TOWNNAME":"仁德區","LI":"太子里","LIN":"47鄰","STREET":"太子路","SECT":" ","MAREA":" ","LANE":"９巷","ALLEY":" ","HOUSE_NO":"３８號","E_COORD97":175447.01000000001,"N_COORD97":2543458.5,"ADDRESS":"太子路９巷３８號","OBJECTID":248353},"geometry":{"x":175447.01000000071,"y":2543458.5000000019}},{"attributes":{"ID":248358,"DIS_CODE":0,"TOWNNAME":"仁德區","LI":"太子里","LIN":"47鄰","STREET":"太子路","SECT":" ","MAREA":" ","LANE":"９巷","ALLEY":" ","HOUSE_NO":"４３號","E_COORD97":175478.42000000001,"N_COORD97":2543448.2599999998,"ADDRESS":"太子路９巷４３號","OBJECTID":248354},"geometry":{"x":175478.42000000086,"y":2543448.2599999998}},{"attributes":{"ID":248359,"DIS_CODE":0,"TOWNNAME":"永康區","LI":"西灣里","LIN":"47鄰","STREET":"大灣路","SECT":" ","MAREA":" ","LANE":"９４２巷","ALLEY":" ","HOUSE_NO":"５９１號","E_COORD97":173931.13,"N_COORD97":2545678.4900000002,"ADDRESS":"大灣路９４２巷５９１號","OBJECTID":248355},"geometry":{"x":173931.12999999989,"y":2545678.4900000002}},{"attributes":{"ID":248360,"DIS_CODE":0,"TOWNNAME":"永康區","LI":"西灣里","LIN":"47鄰","STREET":"大灣路","SECT":" ","MAREA":" ","LANE":"９４２巷","ALLEY":" ","HOUSE_NO":"５８１號","E_COORD97":173938.97,"N_COORD97":2545651.9900000002,"ADDRESS":"大灣路９４２巷５８１號","OBJECTID":248356},"geometry":{"x":173938.96999999974,"y":2545651.9900000039}},{"attributes":{"ID":248361,"DIS_CODE":0,"TOWNNAME":"永康區","LI":"西灣里","LIN":"47鄰","STREET":"大灣路","SECT":" ","MAREA":" ","LANE":"９４２巷","ALLEY":" ","HOUSE_NO":"６０３號","E_COORD97":173924.94,"N_COORD97":2545702.75,"ADDRESS":"大灣路９４２巷６０３號","OBJECTID":248357},"geometry":{"x":173924.94000000041,"y":2545702.75}},{"attributes":{"ID":248362,"DIS_CODE":0,"TOWNNAME":"永康區","LI":"西灣里","LIN":"47鄰","STREET":"大灣路","SECT":" ","MAREA":" ","LANE":"９４２巷","ALLEY":" ","HOUSE_NO":"６１７號","E_COORD97":173914.89000000001,"N_COORD97":2545738.27,"ADDRESS":"大灣路９４２巷６１７號","OBJECTID":248358},"geometry":{"x":173914.8900000006,"y":2545738.2700000014}},{"attributes":{"ID":248363,"DIS_CODE":0,"TOWNNAME":"永康區","LI":"西灣里","LIN":"47鄰","STREET":"大灣路","SECT":" ","MAREA":" ","LANE":"９４２巷","ALLEY":" ","HOUSE_NO":"６２５號","E_COORD97":173910.39000000001,"N_COORD97":2545754.77,"ADDRESS":"大灣路９４２巷６２５號","OBJECTID":248359},"geometry":{"x":173910.38999999966,"y":2545754.7700000014}},{"attributes":{"ID":248364,"DIS_CODE":0,"TOWNNAME":"仁德區","LI":"中洲里","LIN":"11鄰","STREET":" ","SECT":" ","MAREA":"中洲","LANE":" ","ALLEY":" ","HOUSE_NO":"３２２號之１","E_COORD97":173326.57000000001,"N_COORD97":2534091.2999999998,"ADDRESS":"中洲３２２號之１","OBJECTID":248360},"geometry":{"x":173326.57000000123,"y":2534091.3000000007}},{"attributes":{"ID":248365,"DIS_CODE":0,"TOWNNAME":"永康區","LI":"\u25A0行里","LIN":"47鄰","STREET":"新行街","SECT":" ","MAREA":" ","LANE":"４巷","ALLEY":" ","HOUSE_NO":"４３號","E_COORD97":172320.51000000001,"N_COORD97":2548836.98,"ADDRESS":"新行街４巷４３號","OBJECTID":248361},"geometry":{"x":172320.51000000164,"y":2548836.9800000023}},{"attributes":{"ID":248366,"DIS_CODE":0,"TOWNNAME":"仁德區","LI":"仁愛里","LIN":"11鄰","STREET":" ","SECT":" ","MAREA":"仁愛","LANE":" ","ALLEY":" ","HOUSE_NO":"２２７號","E_COORD97":170297.24249,"N_COORD97":2540042.3700000001,"ADDRESS":"仁愛２２７號","OBJECTID":248362},"geometry":{"x":170297.24249000195,"y":2540042.3699999992}},{"attributes":{"ID":248367,"DIS_CODE":0,"TOWNNAME":"永康區","LI":"\u25A0行里","LIN":"47鄰","STREET":"新行街","SECT":" ","MAREA":" ","LANE":"４巷","ALLEY":" ","HOUSE_NO":"４７號","E_COORD97":172324.66,"N_COORD97":2548845.7200000002,"ADDRESS":"新行街４巷４７號","OBJECTID":248363},"geometry":{"x":172324.66000000015,"y":2548845.7200000025}},{"attributes":{"ID":248368,"DIS_CODE":0,"TOWNNAME":"永康區","LI":"\u25A0行里","LIN":"47鄰","STREET":"新行街","SECT":" ","MAREA":" ","LANE":"４巷","ALLEY":" ","HOUSE_NO":"３８號","E_COORD97":172339.22,"N_COORD97":2548841.1400000001,"ADDRESS":"新行街４巷３８號","OBJECTID":248364},"geometry":{"x":172339.21999999881,"y":2548841.1400000006}},{"attributes":{"ID":248369,"DIS_CODE":0,"TOWNNAME":"永康區","LI":"\u25A0行里","LIN":"47鄰","STREET":"新行街","SECT":" ","MAREA":" ","LANE":"４巷","ALLEY":" ","HOUSE_NO":"３４號","E_COORD97":172335.22,"N_COORD97":2548832.8999999999,"ADDRESS":"新行街４巷３４號","OBJECTID":248365},"geometry":{"x":172335.21999999974,"y":2548832.9000000041}},{"attributes":{"ID":248370,"DIS_CODE":0,"TOWNNAME":"永康區","LI":"\u25A0行里","LIN":"47鄰","STREET":"新行街","SECT":" ","MAREA":" ","LANE":"４巷","ALLEY":" ","HOUSE_NO":"３９號","E_COORD97":172311.14000000001,"N_COORD97":2548815.5699999998,"ADDRESS":"新行街４巷３９號","OBJECTID":248366},"geometry":{"x":172311.1400000006,"y":2548815.5700000022}},{"attributes":{"ID":248371,"DIS_CODE":0,"TOWNNAME":"仁德區","LI":"太子里","LIN":"47鄰","STREET":"太子路","SECT":" ","MAREA":" ","LANE":"９巷","ALLEY":" ","HOUSE_NO":"２２號","E_COORD97":175452.25,"N_COORD97":2543490,"ADDRESS":"太子路９巷２２號","OBJECTID":248367},"geometry":{"x":175452.25000000093,"y":2543490.0000000019}},{"attributes":{"ID":248372,"DIS_CODE":0,"TOWNNAME":"仁德區","LI":"太子里","LIN":"47鄰","STREET":"太子路","SECT":" ","MAREA":" ","LANE":"９巷","ALLEY":" ","HOUSE_NO":"２４號","E_COORD97":175447.84,"N_COORD97":2543490.25,"ADDRESS":"太子路９巷２４號","OBJECTID":248368},"geometry":{"x":175447.84000000078,"y":2543490.2500000037}},{"attributes":{"ID":248373,"DIS_CODE":0,"TOWNNAME":"北區","LI":"玉皇里","LIN":"14鄰","STREET":"成功路","SECT":" ","MAREA":" ","LANE":" ","ALLEY":" ","HOUSE_NO":"１１４號十三樓","E_COORD97":168539.87,"N_COORD97":2544372.5,"ADDRESS":"成功路１１４號十三樓","OBJECTID":248369},"geometry":{"x":168539.87000000197,"y":2544372.5}},{"attributes":{"ID":248374,"DIS_CODE":0,"TOWNNAME":"北區","LI":"玉皇里","LIN":"14鄰","STREET":"成功路","SECT":" ","MAREA":" ","LANE":" ","ALLEY":" ","HOUSE_NO":"１１４號十五樓","E_COORD97":168539.87,"N_COORD97":2544372.5,"ADDRESS":"成功路１１４號十五樓","OBJECTID":248370},"geometry":{"x":168539.87000000197,"y":2544372.5}},{"attributes":{"ID":248375,"DIS_CODE":0,"TOWNNAME":"北區","LI":"玉皇里","LIN":"14鄰","STREET":"成功路","SECT":" ","MAREA":" ","LANE":" ","ALLEY":" ","HOUSE_NO":"１１４號十四樓","E_COORD97":168539.87,"N_COORD97":2544372.5,"ADDRESS":"成功路１１４號十四樓","OBJECTID":248371},"geometry":{"x":168539.87000000197,"y":2544372.5}},{"attributes":{"ID":248376,"DIS_CODE":0,"TOWNNAME":"仁德區","LI":"中洲里","LIN":"11鄰","STREET":" ","SECT":" ","MAREA":"中洲","LANE":" ","ALLEY":" ","HOUSE_NO":"３２１號","E_COORD97":173309.98999999999,"N_COORD97":2534088.25,"ADDRESS":"中洲３２１號","OBJECTID":248372},"geometry":{"x":173309.99000000115,"y":2534088.25}},{"attributes":{"ID":248377,"DIS_CODE":0,"TOWNNAME":"仁德區","LI":"土庫里","LIN":"11鄰","STREET":"土庫路","SECT":" ","MAREA":" ","LANE":"９９巷","ALLEY":" ","HOUSE_NO":"１２號","E_COORD97":174357.84,"N_COORD97":2543194,"ADDRESS":"土庫路９９巷１２號","OBJECTID":248373},"geometry":{"x":174357.84000000078,"y":2543194.0000000019}},{"attributes":{"ID":248378,"DIS_CODE":0,"TOWNNAME":"仁德區","LI":"中洲里","LIN":"11鄰","STREET":" ","SECT":" ","MAREA":"中洲","LANE":" ","ALLEY":" ","HOUSE_NO":"３３４之６號","E_COORD97":173260.51999999999,"N_COORD97":2534199.5499999998,"ADDRESS":"中洲３３４之６號","OBJECTID":248374},"geometry":{"x":173260.51999999955,"y":2534199.5500000045}},{"attributes":{"ID":248379,"DIS_CODE":0,"TOWNNAME":"仁德區","LI":"土庫里","LIN":"11鄰","STREET":"土庫路","SECT":" ","MAREA":" ","LANE":"９９巷","ALLEY":" ","HOUSE_NO":"１號","E_COORD97":174303.73000000001,"N_COORD97":2543185.7400000002,"ADDRESS":"土庫路９９巷１號","OBJECTID":248375},"geometry":{"x":174303.73000000138,"y":2543185.7400000021}},{"attributes":{"ID":248380,"DIS_CODE":0,"TOWNNAME":"仁德區","LI":"土庫里","LIN":"11鄰","STREET":"土庫路","SECT":" ","MAREA":" ","LANE":"９９巷","ALLEY":" ","HOUSE_NO":"２號","E_COORD97":174316.31,"N_COORD97":2543184.9900000002,"ADDRESS":"土庫路９９巷２號","OBJECTID":248376},"geometry":{"x":174316.30999999959,"y":2543184.9900000021}},{"attributes":{"ID":248381,"DIS_CODE":0,"TOWNNAME":"仁德區","LI":"上崙里","LIN":"11鄰","STREET":"德崙路","SECT":" ","MAREA":" ","LANE":"３８３巷","ALLEY":" ","HOUSE_NO":"３號","E_COORD97":174129.54000000001,"N_COORD97":2538149.77,"ADDRESS":"德崙路３８３巷３號","OBJECTID":248377},"geometry":{"x":174129.54000000097,"y":2538149.7700000033}},{"attributes":{"ID":248382,"DIS_CODE":0,"TOWNNAME":"仁德區","LI":"中洲里","LIN":"11鄰","STREET":" ","SECT":" ","MAREA":"中洲","LANE":" ","ALLEY":" ","HOUSE_NO":"３３５號","E_COORD97":173285.35999999999,"N_COORD97":2534227,"ADDRESS":"中洲３３５號","OBJECTID":248378},"geometry":{"x":173285.36000000127,"y":2534227.0000000019}},{"attributes":{"ID":248383,"DIS_CODE":0,"TOWNNAME":"仁德區","LI":"保安里","LIN":"11鄰","STREET":"中正路","SECT":"一段","MAREA":" ","LANE":"２５１巷","ALLEY":" ","HOUSE_NO":"１７號","E_COORD97":171744.76000000001,"N_COORD97":2536039.02,"ADDRESS":"中正路一段２５１巷１７號","OBJECTID":248379},"geometry":{"x":171744.76000000071,"y":2536039.0199999996}},{"attributes":{"ID":248384,"DIS_CODE":0,"TOWNNAME":"仁德區","LI":"保安里","LIN":"11鄰","STREET":"中正路","SECT":"一段","MAREA":" ","LANE":"２５１巷","ALLEY":" ","HOUSE_NO":"１１號","E_COORD97":171755.26999999999,"N_COORD97":2536026.52,"ADDRESS":"中正路一段２５１巷１１號","OBJECTID":248380},"geometry":{"x":171755.26999999955,"y":2536026.5200000014}},{"attributes":{"ID":248385,"DIS_CODE":0,"TOWNNAME":"仁德區","LI":"保安里","LIN":"11鄰","STREET":"中正路","SECT":"一段","MAREA":" ","LANE":"２５１巷","ALLEY":" ","HOUSE_NO":"９號","E_COORD97":171757.51000000001,"N_COORD97":2536023.27,"ADDRESS":"中正路一段２５１巷９號","OBJECTID":248381},"geometry":{"x":171757.50999999885,"y":2536023.2699999996}},{"attributes":{"ID":248386,"DIS_CODE":0,"TOWNNAME":"仁德區","LI":"田厝里","LIN":"11鄰","STREET":"田厝二街","SECT":" ","MAREA":" ","LANE":"７１巷","ALLEY":" ","HOUSE_NO":"２６號","E_COORD97":172271.22,"N_COORD97":2537681.4900000002,"ADDRESS":"田厝二街７１巷２６號","OBJECTID":248382},"geometry":{"x":172271.21999999974,"y":2537681.4900000021}},{"attributes":{"ID":248387,"DIS_CODE":0,"TOWNNAME":"仁德區","LI":"保安里","LIN":"11鄰","STREET":"中正路","SECT":"一段","MAREA":" ","LANE":"２５１巷","ALLEY":" ","HOUSE_NO":"２７號","E_COORD97":171690.20999999999,"N_COORD97":2536082.2799999998,"ADDRESS":"中正路一段２５１巷２７號","OBJECTID":248383},"geometry":{"x":171690.20999999996,"y":2536082.2800000012}},{"attributes":{"ID":248388,"DIS_CODE":0,"TOWNNAME":"仁德區","LI":"仁義里","LIN":"47鄰","STREET":"中正路","SECT":"二段","MAREA":" ","LANE":"１０７８巷","ALLEY":" ","HOUSE_NO":"１３號","E_COORD97":173436.64999999999,"N_COORD97":2541006.02,"ADDRESS":"中正路二段１０７８巷１３號","OBJECTID":248384},"geometry":{"x":173436.65000000037,"y":2541006.0199999977}},{"attributes":{"ID":248389,"DIS_CODE":0,"TOWNNAME":"仁德區","LI":"太子里","LIN":"47鄰","STREET":"太子路","SECT":" ","MAREA":" ","LANE":"９巷","ALLEY":" ","HOUSE_NO":"８號","E_COORD97":175447.95999999999,"N_COORD97":2543527.0099999998,"ADDRESS":"太子路９巷８號","OBJECTID":248385},"geometry":{"x":175447.95999999996,"y":2543527.0100000016}},{"attributes":{"ID":248390,"DIS_CODE":0,"TOWNNAME":"北區","LI":"玉皇里","LIN":"14鄰","STREET":"成功路","SECT":" ","MAREA":" ","LANE":" ","ALLEY":" ","HOUSE_NO":"１１４號十樓之１","E_COORD97":168539.87,"N_COORD97":2544372.5,"ADDRESS":"成功路１１４號十樓之１","OBJECTID":248386},"geometry":{"x":168539.87000000197,"y":2544372.5}},{"attributes":{"ID":248391,"DIS_CODE":0,"TOWNNAME":"北區","LI":"玉皇里","LIN":"14鄰","STREET":"成功路","SECT":" ","MAREA":" ","LANE":" ","ALLEY":" ","HOUSE_NO":"１１４號十樓之２","E_COORD97":168539.87,"N_COORD97":2544372.5,"ADDRESS":"成功路１１４號十樓之２","OBJECTID":248387},"geometry":{"x":168539.87000000197,"y":2544372.5}},{"attributes":{"ID":248392,"DIS_CODE":0,"TOWNNAME":"北區","LI":"玉皇里","LIN":"14鄰","STREET":"成功路","SECT":" ","MAREA":" ","LANE":" ","ALLEY":" ","HOUSE_NO":"１１４號十樓之３","E_COORD97":168539.87,"N_COORD97":2544372.5,"ADDRESS":"成功路１１４號十樓之３","OBJECTID":248388},"geometry":{"x":168539.87000000197,"y":2544372.5}},{"attributes":{"ID":248393,"DIS_CODE":0,"TOWNNAME":"北區","LI":"玉皇里","LIN":"14鄰","STREET":"成功路","SECT":" ","MAREA":" ","LANE":" ","ALLEY":" ","HOUSE_NO":"１１４號十樓之４","E_COORD97":168539.87,"N_COORD97":2544372.5,"ADDRESS":"成功路１１４號十樓之４","OBJECTID":248389},"geometry":{"x":168539.87000000197,"y":2544372.5}},{"attributes":{"ID":248394,"DIS_CODE":0,"TOWNNAME":"北區","LI":"玉皇里","LIN":"14鄰","STREET":"成功路","SECT":" ","MAREA":" ","LANE":" ","ALLEY":" ","HOUSE_NO":"１１４號三樓","E_COORD97":168539.87,"N_COORD97":2544372.5,"ADDRESS":"成功路１１４號三樓","OBJECTID":248390},"geometry":{"x":168539.87000000197,"y":2544372.5}},{"attributes":{"ID":248395,"DIS_CODE":0,"TOWNNAME":"北區","LI":"玉皇里","LIN":"14鄰","STREET":"成功路","SECT":" ","MAREA":" ","LANE":" ","ALLEY":" ","HOUSE_NO":"１１４號五樓","E_COORD97":168539.87,"N_COORD97":2544372.5,"ADDRESS":"成功路１１４號五樓","OBJECTID":248391},"geometry":{"x":168539.87000000197,"y":2544372.5}},{"attributes":{"ID":248396,"DIS_CODE":0,"TOWNNAME":"北區","LI":"玉皇里","LIN":"14鄰","STREET":"成功路","SECT":" ","MAREA":" ","LANE":" ","ALLEY":" ","HOUSE_NO":"１１４號四樓","E_COORD97":168539.87,"N_COORD97":2544372.5,"ADDRESS":"成功路１１４號四樓","OBJECTID":248392},"geometry":{"x":168539.87000000197,"y":2544372.5}},{"attributes":{"ID":248397,"DIS_CODE":0,"TOWNNAME":"北區","LI":"玉皇里","LIN":"14鄰","STREET":"成功路","SECT":" ","MAREA":" ","LANE":" ","ALLEY":" ","HOUSE_NO":"１２０號七樓之１","E_COORD97":168513.31,"N_COORD97":2544355.96,"ADDRESS":"成功路１２０號七樓之１","OBJECTID":248393},"geometry":{"x":168513.31000000052,"y":2544355.9600000028}},{"attributes":{"ID":248398,"DIS_CODE":0,"TOWNNAME":"仁德區","LI":"仁愛里","LIN":"11鄰","STREET":" ","SECT":" ","MAREA":"仁愛","LANE":" ","ALLEY":" ","HOUSE_NO":"２２９號","E_COORD97":170303.38628000001,"N_COORD97":2540042.4700000002,"ADDRESS":"仁愛２２９號","OBJECTID":248394},"geometry":{"x":170303.38628000114,"y":2540042.4700000025}},{"attributes":{"ID":248399,"DIS_CODE":0,"TOWNNAME":"北區","LI":"玉皇里","LIN":"14鄰","STREET":"忠義路","SECT":"三段","MAREA":" ","LANE":" ","ALLEY":" ","HOUSE_NO":"２２號三樓之４","E_COORD97":168537.85999999999,"N_COORD97":2544419.5800000001,"ADDRESS":"忠義路三段２２號三樓之４","OBJECTID":248395},"geometry":{"x":168537.86000000034,"y":2544419.5800000001}},{"attributes":{"ID":248400,"DIS_CODE":0,"TOWNNAME":"新市區","LI":"港墘里","LIN":"11鄰","STREET":" ","SECT":" ","MAREA":"崙頂","LANE":" ","ALLEY":" ","HOUSE_NO":"２９之５號","E_COORD97":178820.31,"N_COORD97":2552540.1499999999,"ADDRESS":"崙頂２９之５號","OBJECTID":248396},"geometry":{"x":178820.30999999959,"y":2552540.1500000041}},{"attributes":{"ID":248401,"DIS_CODE":0,"TOWNNAME":"善化區","LI":"田寮里","LIN":"11鄰","STREET":" ","SECT":" ","MAREA":"六分寮","LANE":" ","ALLEY":" ","HOUSE_NO":"１１９之５號","E_COORD97":178686.56,"N_COORD97":2561369.02,"ADDRESS":"六分寮１１９之５號","OBJECTID":248397},"geometry":{"x":178686.55999999959,"y":2561369.0200000033}},{"attributes":{"ID":248402,"DIS_CODE":0,"TOWNNAME":"善化區","LI":"光文里","LIN":"11鄰","STREET":"民權路","SECT":" ","MAREA":" ","LANE":"８７巷","ALLEY":" ","HOUSE_NO":"６號","E_COORD97":178543.48000000001,"N_COORD97":2559021.7599999998,"ADDRESS":"民權路８７巷６號","OBJECTID":248398},"geometry":{"x":178543.48000000138,"y":2559021.7600000016}},{"attributes":{"ID":248403,"DIS_CODE":0,"TOWNNAME":"善化區","LI":"光文里","LIN":"11鄰","STREET":"民權路","SECT":" ","MAREA":" ","LANE":"６５巷","ALLEY":" ","HOUSE_NO":"３號","E_COORD97":178603.37,"N_COORD97":2559035.7599999998,"ADDRESS":"民權路６５巷３號","OBJECTID":248399},"geometry":{"x":178603.37000000011,"y":2559035.7600000016}},{"attributes":{"ID":248404,"DIS_CODE":0,"TOWNNAME":"永康區","LI":"二王里","LIN":"1鄰","STREET":"二王路","SECT":" ","MAREA":" ","LANE":"２７巷","ALLEY":" ","HOUSE_NO":"２５號","E_COORD97":173072.07000000001,"N_COORD97":2546821.96,"ADDRESS":"二王路２７巷２５號","OBJECTID":248400},"geometry":{"x":173072.07000000123,"y":2546821.9600000009}}]}