{"displayFieldName":"TOWNNAME","fieldAliases":{"ID":"ID","DIS_CODE":"DIS_CODE","TOWNNAME":"TOWNNAME","LI":"LI","LIN":"LIN","STREET":"STREET","SECT":"SECT","MAREA":"MAREA","LANE":"LANE","ALLEY":"ALLEY","HOUSE_NO":"HOUSE_NO","E_COORD97":"E_COORD97","N_COORD97":"N_COORD97","ADDRESS":"ADDRESS","OBJECTID":"OBJECTID"},"geometryType":"esriGeometryPoint","spatialReference":{"wkid":102443,"latestWkid":3826},"fields":[{"name":"ID","type":"esriFieldTypeDouble","alias":"ID"},{"name":"DIS_CODE","type":"esriFieldTypeInteger","alias":"DIS_CODE"},{"name":"TOWNNAME","type":"esriFieldTypeString","alias":"TOWNNAME","length":8},{"name":"LI","type":"esriFieldTypeString","alias":"LI","length":8},{"name":"LIN","type":"esriFieldTypeString","alias":"LIN","length":12},{"name":"STREET","type":"esriFieldTypeString","alias":"STREET","length":20},{"name":"SECT","type":"esriFieldTypeString","alias":"SECT","length":8},{"name":"MAREA","type":"esriFieldTypeString","alias":"MAREA","length":12},{"name":"LANE","type":"esriFieldTypeString","alias":"LANE","length":10},{"name":"ALLEY","type":"esriFieldTypeString","alias":"ALLEY","length":10},{"name":"HOUSE_NO","type":"esriFieldTypeString","alias":"HOUSE_NO","length":20},{"name":"E_COORD97","type":"esriFieldTypeDouble","alias":"E_COORD97"},{"name":"N_COORD97","type":"esriFieldTypeDouble","alias":"N_COORD97"},{"name":"ADDRESS","type":"esriFieldTypeString","alias":"ADDRESS","length":50},{"name":"OBJECTID","type":"esriFieldTypeOID","alias":"OBJECTID"}],"features":[{"attributes":{"ID":445426,"DIS_CODE":0,"TOWNNAME":"東區","LI":"崇德里","LIN":"5鄰","STREET":"崇善路","SECT":" ","MAREA":" ","LANE":"２３２巷","ALLEY":" ","HOUSE_NO":"３４號","E_COORD97":170675.31,"N_COORD97":2541922.2599999998,"ADDRESS":"崇善路２３２巷３４號","OBJECTID":445401},"geometry":{"x":170675.30999999959,"y":2541922.2599999998}},{"attributes":{"ID":445427,"DIS_CODE":0,"TOWNNAME":"東區","LI":"崇德里","LIN":"5鄰","STREET":"崇善路","SECT":" ","MAREA":" ","LANE":"２３２巷","ALLEY":" ","HOUSE_NO":"３６號","E_COORD97":170672.20999999999,"N_COORD97":2541919.7799999998,"ADDRESS":"崇善路２３２巷３６號","OBJECTID":445402},"geometry":{"x":170672.21000000089,"y":2541919.7800000031}},{"attributes":{"ID":445428,"DIS_CODE":0,"TOWNNAME":"東區","LI":"崇德里","LIN":"5鄰","STREET":"崇善路","SECT":" ","MAREA":" ","LANE":"２３２巷","ALLEY":" ","HOUSE_NO":"３８號","E_COORD97":170669.54999999999,"N_COORD97":2541916.2400000002,"ADDRESS":"崇善路２３２巷３８號","OBJECTID":445403},"geometry":{"x":170669.55000000075,"y":2541916.2400000002}},{"attributes":{"ID":445429,"DIS_CODE":0,"TOWNNAME":"東區","LI":"崇德里","LIN":"5鄰","STREET":"崇善路","SECT":" ","MAREA":" ","LANE":"２３２巷","ALLEY":" ","HOUSE_NO":"４０號","E_COORD97":170666.57000000001,"N_COORD97":2541913.0499999998,"ADDRESS":"崇善路２３２巷４０號","OBJECTID":445404},"geometry":{"x":170666.57000000123,"y":2541913.0500000026}},{"attributes":{"ID":445430,"DIS_CODE":0,"TOWNNAME":"東區","LI":"崇德里","LIN":"5鄰","STREET":"崇善路","SECT":" ","MAREA":" ","LANE":"２３２巷","ALLEY":" ","HOUSE_NO":"６號","E_COORD97":170732.72,"N_COORD97":2541988.9900000002,"ADDRESS":"崇善路２３２巷６號","OBJECTID":445405},"geometry":{"x":170732.72000000067,"y":2541988.9900000002}},{"attributes":{"ID":445431,"DIS_CODE":0,"TOWNNAME":"東區","LI":"崇德里","LIN":"5鄰","STREET":"崇善路","SECT":" ","MAREA":" ","LANE":"２３２巷","ALLEY":" ","HOUSE_NO":"８號","E_COORD97":170730.07999999999,"N_COORD97":2541985.6200000001,"ADDRESS":"崇善路２３２巷８號","OBJECTID":445406},"geometry":{"x":170730.07999999914,"y":2541985.620000001}},{"attributes":{"ID":445432,"DIS_CODE":0,"TOWNNAME":"東區","LI":"崇信里","LIN":"5鄰","STREET":"中華東路","SECT":"三段","MAREA":" ","LANE":"２４巷","ALLEY":" ","HOUSE_NO":"１１號","E_COORD97":170895.04999999999,"N_COORD97":2542388.96,"ADDRESS":"中華東路三段２４巷１１號","OBJECTID":445407},"geometry":{"x":170895.05000000075,"y":2542388.9600000028}},{"attributes":{"ID":445433,"DIS_CODE":0,"TOWNNAME":"白河區","LI":"白河里","LIN":"5鄰","STREET":"康樂路","SECT":" ","MAREA":" ","LANE":"３０巷","ALLEY":" ","HOUSE_NO":"１０號","E_COORD97":190240.38,"N_COORD97":2582971.3199999998,"ADDRESS":"康樂路３０巷１０號","OBJECTID":445408},"geometry":{"x":190240.38000000082,"y":2582971.320000004}},{"attributes":{"ID":445434,"DIS_CODE":0,"TOWNNAME":"白河區","LI":"白河里","LIN":"5鄰","STREET":"康樂路","SECT":" ","MAREA":" ","LANE":"３０巷","ALLEY":" ","HOUSE_NO":"１號","E_COORD97":190214.01999999999,"N_COORD97":2582967.8500000001,"ADDRESS":"康樂路３０巷１號","OBJECTID":445409},"geometry":{"x":190214.01999999955,"y":2582967.8500000015}},{"attributes":{"ID":445435,"DIS_CODE":0,"TOWNNAME":"白河區","LI":"白河里","LIN":"5鄰","STREET":"康樂路","SECT":" ","MAREA":" ","LANE":"３０巷","ALLEY":" ","HOUSE_NO":"２之２號","E_COORD97":190225.79000000001,"N_COORD97":2582962.2200000002,"ADDRESS":"康樂路３０巷２之２號","OBJECTID":445410},"geometry":{"x":190225.79000000097,"y":2582962.2200000044}},{"attributes":{"ID":445436,"DIS_CODE":0,"TOWNNAME":"白河區","LI":"白河里","LIN":"5鄰","STREET":"康樂路","SECT":" ","MAREA":" ","LANE":"３０巷","ALLEY":" ","HOUSE_NO":"２之３號","E_COORD97":190228.73999999999,"N_COORD97":2582964.1699999999,"ADDRESS":"康樂路３０巷２之３號","OBJECTID":445411},"geometry":{"x":190228.74000000022,"y":2582964.1699999999}},{"attributes":{"ID":445437,"DIS_CODE":0,"TOWNNAME":"白河區","LI":"白河里","LIN":"5鄰","STREET":"康樂路","SECT":" ","MAREA":" ","LANE":"３０巷","ALLEY":" ","HOUSE_NO":"２號","E_COORD97":190220.39000000001,"N_COORD97":2582958.1600000001,"ADDRESS":"康樂路３０巷２號","OBJECTID":445412},"geometry":{"x":190220.38999999966,"y":2582958.1599999983}},{"attributes":{"ID":445438,"DIS_CODE":0,"TOWNNAME":"白河區","LI":"白河里","LIN":"5鄰","STREET":"康樂路","SECT":" ","MAREA":" ","LANE":"３０巷","ALLEY":" ","HOUSE_NO":"６號","E_COORD97":190234.76000000001,"N_COORD97":2582967.5699999998,"ADDRESS":"康樂路３０巷６號","OBJECTID":445413},"geometry":{"x":190234.75999999978,"y":2582967.5700000022}},{"attributes":{"ID":445439,"DIS_CODE":0,"TOWNNAME":"白河區","LI":"白河里","LIN":"5鄰","STREET":"康樂路","SECT":" ","MAREA":" ","LANE":"３０巷","ALLEY":" ","HOUSE_NO":"８號","E_COORD97":190237.85000000001,"N_COORD97":2582969.6600000001,"ADDRESS":"康樂路３０巷８號","OBJECTID":445414},"geometry":{"x":190237.85000000149,"y":2582969.660000002}},{"attributes":{"ID":445440,"DIS_CODE":0,"TOWNNAME":"麻豆區","LI":"中興里","LIN":"5鄰","STREET":"興國路","SECT":" ","MAREA":" ","LANE":"３８巷","ALLEY":" ","HOUSE_NO":"１０號","E_COORD97":172947.92999999999,"N_COORD97":2564528.3300000001,"ADDRESS":"興國路３８巷１０號","OBJECTID":445415},"geometry":{"x":172947.9299999997,"y":2564528.3300000019}},{"attributes":{"ID":445441,"DIS_CODE":0,"TOWNNAME":"麻豆區","LI":"中興里","LIN":"5鄰","STREET":"興國路","SECT":" ","MAREA":" ","LANE":"３８巷","ALLEY":" ","HOUSE_NO":"２號之１","E_COORD97":172941.70000000001,"N_COORD97":2564567.0299999998,"ADDRESS":"興國路３８巷２號之１","OBJECTID":445416},"geometry":{"x":172941.70000000205,"y":2564567.0300000012}},{"attributes":{"ID":445442,"DIS_CODE":0,"TOWNNAME":"麻豆區","LI":"中興里","LIN":"5鄰","STREET":"興國路","SECT":" ","MAREA":" ","LANE":"３８巷","ALLEY":" ","HOUSE_NO":"２之２號","E_COORD97":172936.54000000001,"N_COORD97":2564566.1800000002,"ADDRESS":"興國路３８巷２之２號","OBJECTID":445417},"geometry":{"x":172936.54000000097,"y":2564566.1800000016}},{"attributes":{"ID":445443,"DIS_CODE":0,"TOWNNAME":"麻豆區","LI":"中興里","LIN":"5鄰","STREET":"興國路","SECT":" ","MAREA":" ","LANE":"３８巷","ALLEY":" ","HOUSE_NO":"２號","E_COORD97":172946.35999999999,"N_COORD97":2564567.5299999998,"ADDRESS":"興國路３８巷２號","OBJECTID":445418},"geometry":{"x":172946.36000000127,"y":2564567.5299999993}},{"attributes":{"ID":445444,"DIS_CODE":0,"TOWNNAME":"麻豆區","LI":"中興里","LIN":"5鄰","STREET":"興國路","SECT":" ","MAREA":" ","LANE":"３８巷","ALLEY":" ","HOUSE_NO":"３號","E_COORD97":172931.10000000001,"N_COORD97":2564565.1299999999,"ADDRESS":"興國路３８巷３號","OBJECTID":445419},"geometry":{"x":172931.09999999963,"y":2564565.1300000008}},{"attributes":{"ID":445445,"DIS_CODE":0,"TOWNNAME":"麻豆區","LI":"巷口里","LIN":"5鄰","STREET":"興國路","SECT":" ","MAREA":" ","LANE":"４９巷","ALLEY":" ","HOUSE_NO":"１１號","E_COORD97":173134.22,"N_COORD97":2564286.8399999999,"ADDRESS":"興國路４９巷１１號","OBJECTID":445420},"geometry":{"x":173134.21999999974,"y":2564286.8400000017}},{"attributes":{"ID":445446,"DIS_CODE":0,"TOWNNAME":"麻豆區","LI":"巷口里","LIN":"5鄰","STREET":"興國路","SECT":" ","MAREA":" ","LANE":"４９巷","ALLEY":" ","HOUSE_NO":"１號之３","E_COORD97":173081.88,"N_COORD97":2564286.3599999999,"ADDRESS":"興國路４９巷１號之３","OBJECTID":445421},"geometry":{"x":173081.87999999989,"y":2564286.3600000013}},{"attributes":{"ID":445447,"DIS_CODE":0,"TOWNNAME":"麻豆區","LI":"巷口里","LIN":"5鄰","STREET":"興國路","SECT":" ","MAREA":" ","LANE":"４９巷","ALLEY":" ","HOUSE_NO":"１號之４","E_COORD97":173062.91,"N_COORD97":2564289.8700000001,"ADDRESS":"興國路４９巷１號之４","OBJECTID":445422},"geometry":{"x":173062.91000000108,"y":2564289.870000001}},{"attributes":{"ID":445448,"DIS_CODE":0,"TOWNNAME":"麻豆區","LI":"巷口里","LIN":"5鄰","STREET":"興國路","SECT":" ","MAREA":" ","LANE":"４９巷","ALLEY":" ","HOUSE_NO":"１號","E_COORD97":173091.23999999999,"N_COORD97":2564307.27,"ADDRESS":"興國路４９巷１號","OBJECTID":445423},"geometry":{"x":173091.24000000115,"y":2564307.2700000014}},{"attributes":{"ID":445449,"DIS_CODE":0,"TOWNNAME":"麻豆區","LI":"巷口里","LIN":"5鄰","STREET":"興國路","SECT":" ","MAREA":" ","LANE":"４９巷","ALLEY":" ","HOUSE_NO":"３號","E_COORD97":173119.28,"N_COORD97":2564285.8399999999,"ADDRESS":"興國路４９巷３號","OBJECTID":445424},"geometry":{"x":173119.28000000212,"y":2564285.839999998}},{"attributes":{"ID":445450,"DIS_CODE":0,"TOWNNAME":"安南區","LI":"佃東里","LIN":"5鄰","STREET":"十二佃路","SECT":" ","MAREA":" ","LANE":"１４６巷","ALLEY":" ","HOUSE_NO":"２８號","E_COORD97":165456.41,"N_COORD97":2552170.1899999999,"ADDRESS":"十二佃路１４６巷２８號","OBJECTID":445425},"geometry":{"x":165456.41000000108,"y":2552170.1900000013}},{"attributes":{"ID":445451,"DIS_CODE":0,"TOWNNAME":"安南區","LI":"佃東里","LIN":"5鄰","STREET":"十二佃路","SECT":" ","MAREA":" ","LANE":"４５巷","ALLEY":" ","HOUSE_NO":"８號","E_COORD97":165477.32999999999,"N_COORD97":2552090.27,"ADDRESS":"十二佃路４５巷８號","OBJECTID":445426},"geometry":{"x":165477.33000000101,"y":2552090.2699999996}},{"attributes":{"ID":445452,"DIS_CODE":0,"TOWNNAME":"安南區","LI":"佃東里","LIN":"5鄰","STREET":"十二佃路","SECT":" ","MAREA":" ","LANE":"４５巷","ALLEY":" ","HOUSE_NO":"１２號","E_COORD97":165470.12,"N_COORD97":2552074.3900000001,"ADDRESS":"十二佃路４５巷１２號","OBJECTID":445427},"geometry":{"x":165470.12000000104,"y":2552074.3900000043}},{"attributes":{"ID":445453,"DIS_CODE":0,"TOWNNAME":"安南區","LI":"佃東里","LIN":"5鄰","STREET":"十二佃路","SECT":" ","MAREA":" ","LANE":"４５巷","ALLEY":" ","HOUSE_NO":"１８號","E_COORD97":165466.44,"N_COORD97":2552069.3799999999,"ADDRESS":"十二佃路４５巷１８號","OBJECTID":445428},"geometry":{"x":165466.44000000134,"y":2552069.3800000027}},{"attributes":{"ID":445454,"DIS_CODE":0,"TOWNNAME":"安南區","LI":"佃東里","LIN":"5鄰","STREET":"十二佃路","SECT":" ","MAREA":" ","LANE":"４５巷","ALLEY":" ","HOUSE_NO":"２０號","E_COORD97":165463.34,"N_COORD97":2552066.5899999999,"ADDRESS":"十二佃路４５巷２０號","OBJECTID":445429},"geometry":{"x":165463.34000000078,"y":2552066.5900000017}},{"attributes":{"ID":445455,"DIS_CODE":0,"TOWNNAME":"安南區","LI":"原佃里","LIN":"5鄰","STREET":"本原街","SECT":"一段","MAREA":" ","LANE":"２３３巷","ALLEY":" ","HOUSE_NO":"２之１號","E_COORD97":167726.39000000001,"N_COORD97":2550316.54,"ADDRESS":"本原街一段２３３巷２之１號","OBJECTID":445430},"geometry":{"x":167726.38999999966,"y":2550316.540000001}},{"attributes":{"ID":445456,"DIS_CODE":0,"TOWNNAME":"安南區","LI":"安慶里","LIN":"5鄰","STREET":"怡安路","SECT":"一段","MAREA":" ","LANE":"２５０巷","ALLEY":" ","HOUSE_NO":"２之１號","E_COORD97":169107.28,"N_COORD97":2549102.02,"ADDRESS":"怡安路一段２５０巷２之１號","OBJECTID":445431},"geometry":{"x":169107.28000000119,"y":2549102.0199999996}},{"attributes":{"ID":445457,"DIS_CODE":0,"TOWNNAME":"安南區","LI":"州南里","LIN":"5鄰","STREET":"安和路","SECT":"四段","MAREA":" ","LANE":"５３７巷","ALLEY":" ","HOUSE_NO":"６８號","E_COORD97":169836.22,"N_COORD97":2551433.0899999999,"ADDRESS":"安和路四段５３７巷６８號","OBJECTID":445432},"geometry":{"x":169836.22000000067,"y":2551433.0900000017}},{"attributes":{"ID":445458,"DIS_CODE":0,"TOWNNAME":"安南區","LI":"\u25A0南里","LIN":"5鄰","STREET":"安昌街","SECT":" ","MAREA":" ","LANE":"１３１巷","ALLEY":" ","HOUSE_NO":"１３號","E_COORD97":169996.67999999999,"N_COORD97":2552320.5,"ADDRESS":"安昌街１３１巷１３號","OBJECTID":445433},"geometry":{"x":169996.67999999877,"y":2552320.5000000037}},{"attributes":{"ID":445459,"DIS_CODE":0,"TOWNNAME":"安南區","LI":"公親里","LIN":"5鄰","STREET":"公學路","SECT":"一段","MAREA":" ","LANE":"１２４巷","ALLEY":" ","HOUSE_NO":"５３號","E_COORD97":168167.10999999999,"N_COORD97":2553146.77,"ADDRESS":"公學路一段１２４巷５３號","OBJECTID":445434},"geometry":{"x":168167.1100000022,"y":2553146.7700000014}},{"attributes":{"ID":445460,"DIS_CODE":0,"TOWNNAME":"安南區","LI":"公親里","LIN":"5鄰","STREET":"公學路","SECT":"一段","MAREA":" ","LANE":"１６０巷","ALLEY":" ","HOUSE_NO":"１１號","E_COORD97":168187.20999999999,"N_COORD97":2553111.1499999999,"ADDRESS":"公學路一段１６０巷１１號","OBJECTID":445435},"geometry":{"x":168187.21000000089,"y":2553111.1500000022}},{"attributes":{"ID":445461,"DIS_CODE":0,"TOWNNAME":"安南區","LI":"公親里","LIN":"5鄰","STREET":"公學路","SECT":"一段","MAREA":" ","LANE":"１６０巷","ALLEY":" ","HOUSE_NO":"５號","E_COORD97":168161.26999999999,"N_COORD97":2553119.5699999998,"ADDRESS":"公學路一段１６０巷５號","OBJECTID":445436},"geometry":{"x":168161.26999999955,"y":2553119.5700000003}},{"attributes":{"ID":445462,"DIS_CODE":0,"TOWNNAME":"安南區","LI":"公親里","LIN":"5鄰","STREET":"公學路","SECT":"一段","MAREA":" ","LANE":"１６０巷","ALLEY":" ","HOUSE_NO":"７號","E_COORD97":168175.54000000001,"N_COORD97":2553100.79,"ADDRESS":"公學路一段１６０巷７號","OBJECTID":445437},"geometry":{"x":168175.54000000004,"y":2553100.7900000028}},{"attributes":{"ID":445463,"DIS_CODE":0,"TOWNNAME":"安南區","LI":"公親里","LIN":"5鄰","STREET":"公學路","SECT":"一段","MAREA":" ","LANE":"２２６巷","ALLEY":" ","HOUSE_NO":"３４號","E_COORD97":168108.73999999999,"N_COORD97":2553129.2799999998,"ADDRESS":"公學路一段２２６巷３４號","OBJECTID":445438},"geometry":{"x":168108.74000000115,"y":2553129.2800000012}},{"attributes":{"ID":445464,"DIS_CODE":0,"TOWNNAME":"安南區","LI":"公親里","LIN":"5鄰","STREET":"公學路","SECT":"一段","MAREA":" ","LANE":"２２６巷","ALLEY":" ","HOUSE_NO":"３７號","E_COORD97":168118.47,"N_COORD97":2553153.25,"ADDRESS":"公學路一段２２６巷３７號","OBJECTID":445439},"geometry":{"x":168118.47000000067,"y":2553153.2500000019}},{"attributes":{"ID":445465,"DIS_CODE":0,"TOWNNAME":"安南區","LI":"公親里","LIN":"5鄰","STREET":"公學路","SECT":"一段","MAREA":" ","LANE":"２２６巷","ALLEY":" ","HOUSE_NO":"３８號","E_COORD97":168123.01000000001,"N_COORD97":2553121.5099999998,"ADDRESS":"公學路一段２２６巷３８號","OBJECTID":445440},"geometry":{"x":168123.00999999978,"y":2553121.5100000016}},{"attributes":{"ID":445466,"DIS_CODE":0,"TOWNNAME":"安南區","LI":"公親里","LIN":"5鄰","STREET":"公學路","SECT":"一段","MAREA":" ","LANE":"２２６巷","ALLEY":" ","HOUSE_NO":"４０號","E_COORD97":168133.38,"N_COORD97":2553131.23,"ADDRESS":"公學路一段２２６巷４０號","OBJECTID":445441},"geometry":{"x":168133.38000000082,"y":2553131.2300000023}},{"attributes":{"ID":445467,"DIS_CODE":0,"TOWNNAME":"安南區","LI":"公親里","LIN":"5鄰","STREET":"公學路","SECT":"一段","MAREA":" ","LANE":"２２６巷","ALLEY":" ","HOUSE_NO":"４１號","E_COORD97":168140.51999999999,"N_COORD97":2553166.8500000001,"ADDRESS":"公學路一段２２６巷４１號","OBJECTID":445442},"geometry":{"x":168140.52000000048,"y":2553166.8500000015}},{"attributes":{"ID":445468,"DIS_CODE":0,"TOWNNAME":"佳里區","LI":"忠仁里","LIN":"5鄰","STREET":"建中街","SECT":" ","MAREA":" ","LANE":"６１巷","ALLEY":" ","HOUSE_NO":"１１號","E_COORD97":165848.10999999999,"N_COORD97":2562050.25,"ADDRESS":"建中街６１巷１１號","OBJECTID":445443},"geometry":{"x":165848.1100000022,"y":2562050.2500000019}},{"attributes":{"ID":445469,"DIS_CODE":0,"TOWNNAME":"佳里區","LI":"忠仁里","LIN":"5鄰","STREET":"建中街","SECT":" ","MAREA":" ","LANE":"６１巷","ALLEY":" ","HOUSE_NO":"１６號","E_COORD97":165832.92999999999,"N_COORD97":2562036.5299999998,"ADDRESS":"建中街６１巷１６號","OBJECTID":445444},"geometry":{"x":165832.9299999997,"y":2562036.5300000031}},{"attributes":{"ID":445470,"DIS_CODE":0,"TOWNNAME":"佳里區","LI":"忠仁里","LIN":"5鄰","STREET":"建中街","SECT":" ","MAREA":" ","LANE":"６１巷","ALLEY":" ","HOUSE_NO":"１８號","E_COORD97":165836.88,"N_COORD97":2562036.8900000001,"ADDRESS":"建中街６１巷１８號","OBJECTID":445445},"geometry":{"x":165836.87999999989,"y":2562036.8900000025}},{"attributes":{"ID":445471,"DIS_CODE":0,"TOWNNAME":"佳里區","LI":"忠仁里","LIN":"5鄰","STREET":"建中街","SECT":" ","MAREA":" ","LANE":"６１巷","ALLEY":" ","HOUSE_NO":"１號","E_COORD97":165825.35999999999,"N_COORD97":2562048.1099999999,"ADDRESS":"建中街６１巷１號","OBJECTID":445446},"geometry":{"x":165825.36000000034,"y":2562048.1099999994}},{"attributes":{"ID":445472,"DIS_CODE":0,"TOWNNAME":"佳里區","LI":"忠仁里","LIN":"5鄰","STREET":"建中街","SECT":" ","MAREA":" ","LANE":"６１巷","ALLEY":" ","HOUSE_NO":"２０號","E_COORD97":165841,"N_COORD97":2562037.3500000001,"ADDRESS":"建中街６１巷２０號","OBJECTID":445447},"geometry":{"x":165841,"y":2562037.3499999996}},{"attributes":{"ID":445473,"DIS_CODE":0,"TOWNNAME":"佳里區","LI":"忠仁里","LIN":"5鄰","STREET":"建中街","SECT":" ","MAREA":" ","LANE":"６１巷","ALLEY":" ","HOUSE_NO":"２２號","E_COORD97":165845.13,"N_COORD97":2562037.9399999999,"ADDRESS":"建中街６１巷２２號","OBJECTID":445448},"geometry":{"x":165845.12999999989,"y":2562037.9400000013}},{"attributes":{"ID":445474,"DIS_CODE":0,"TOWNNAME":"佳里區","LI":"忠仁里","LIN":"5鄰","STREET":"建中街","SECT":" ","MAREA":" ","LANE":"６１巷","ALLEY":" ","HOUSE_NO":"２６號","E_COORD97":165849.19,"N_COORD97":2562038.5099999998,"ADDRESS":"建中街６１巷２６號","OBJECTID":445449},"geometry":{"x":165849.19000000041,"y":2562038.5100000016}},{"attributes":{"ID":445475,"DIS_CODE":0,"TOWNNAME":"佳里區","LI":"忠仁里","LIN":"5鄰","STREET":"建中街","SECT":" ","MAREA":" ","LANE":"６１巷","ALLEY":" ","HOUSE_NO":"３號","E_COORD97":165831.75,"N_COORD97":2562048.6899999999,"ADDRESS":"建中街６１巷３號","OBJECTID":445450},"geometry":{"x":165831.75000000093,"y":2562048.6899999995}},{"attributes":{"ID":445476,"DIS_CODE":0,"TOWNNAME":"佳里區","LI":"忠仁里","LIN":"5鄰","STREET":"建中街","SECT":" ","MAREA":" ","LANE":"６１巷","ALLEY":" ","HOUSE_NO":"５號","E_COORD97":165835.69,"N_COORD97":2562049.0499999998,"ADDRESS":"建中街６１巷５號","OBJECTID":445451},"geometry":{"x":165835.68999999948,"y":2562049.0500000026}},{"attributes":{"ID":445477,"DIS_CODE":0,"TOWNNAME":"佳里區","LI":"忠仁里","LIN":"5鄰","STREET":"建中街","SECT":" ","MAREA":" ","LANE":"６１巷","ALLEY":" ","HOUSE_NO":"７號","E_COORD97":165839.70999999999,"N_COORD97":2562049.3300000001,"ADDRESS":"建中街６１巷７號","OBJECTID":445452},"geometry":{"x":165839.70999999996,"y":2562049.3300000019}},{"attributes":{"ID":445478,"DIS_CODE":0,"TOWNNAME":"佳里區","LI":"忠仁里","LIN":"5鄰","STREET":"建中街","SECT":" ","MAREA":" ","LANE":"６１巷","ALLEY":" ","HOUSE_NO":"８號","E_COORD97":165810.95999999999,"N_COORD97":2562046.9700000002,"ADDRESS":"建中街６１巷８號","OBJECTID":445453},"geometry":{"x":165810.95999999996,"y":2562046.9700000007}},{"attributes":{"ID":445479,"DIS_CODE":0,"TOWNNAME":"佳里區","LI":"忠仁里","LIN":"5鄰","STREET":"建中街","SECT":" ","MAREA":" ","LANE":"６１巷","ALLEY":" ","HOUSE_NO":"９號","E_COORD97":165844.09,"N_COORD97":2562049.8599999999,"ADDRESS":"建中街６１巷９號","OBJECTID":445454},"geometry":{"x":165844.08999999985,"y":2562049.8599999994}},{"attributes":{"ID":445480,"DIS_CODE":0,"TOWNNAME":"安南區","LI":"安西里","LIN":"5鄰","STREET":"安通路","SECT":"四段","MAREA":" ","LANE":"１１９巷","ALLEY":" ","HOUSE_NO":"６３號","E_COORD97":168726.45999999999,"N_COORD97":2547921.6899999999,"ADDRESS":"安通路四段１１９巷６３號","OBJECTID":445455},"geometry":{"x":168726.45999999996,"y":2547921.6900000013}},{"attributes":{"ID":445481,"DIS_CODE":0,"TOWNNAME":"安南區","LI":"安西里","LIN":"5鄰","STREET":"安通路","SECT":"四段","MAREA":" ","LANE":"１１９巷","ALLEY":" ","HOUSE_NO":"６５號","E_COORD97":168744.81,"N_COORD97":2547942.5299999998,"ADDRESS":"安通路四段１１９巷６５號","OBJECTID":445456},"geometry":{"x":168744.81000000145,"y":2547942.5300000031}},{"attributes":{"ID":445482,"DIS_CODE":0,"TOWNNAME":"安南區","LI":"安西里","LIN":"5鄰","STREET":"安通路","SECT":"四段","MAREA":" ","LANE":"１１９巷","ALLEY":" ","HOUSE_NO":"６７號","E_COORD97":168745.79000000001,"N_COORD97":2547946.46,"ADDRESS":"安通路四段１１９巷６７號","OBJECTID":445457},"geometry":{"x":168745.79000000097,"y":2547946.4600000009}},{"attributes":{"ID":445483,"DIS_CODE":0,"TOWNNAME":"安南區","LI":"安西里","LIN":"5鄰","STREET":"安通路","SECT":"四段","MAREA":" ","LANE":"１１９巷","ALLEY":" ","HOUSE_NO":"６９號","E_COORD97":168746.45000000001,"N_COORD97":2547951.04,"ADDRESS":"安通路四段１１９巷６９號","OBJECTID":445458},"geometry":{"x":168746.45000000112,"y":2547951.0399999991}},{"attributes":{"ID":445484,"DIS_CODE":0,"TOWNNAME":"安南區","LI":"安西里","LIN":"5鄰","STREET":"安通路","SECT":"四段","MAREA":" ","LANE":"１１９巷","ALLEY":" ","HOUSE_NO":"７１號","E_COORD97":168748.42000000001,"N_COORD97":2547955.29,"ADDRESS":"安通路四段１１９巷７１號","OBJECTID":445459},"geometry":{"x":168748.42000000086,"y":2547955.290000001}},{"attributes":{"ID":445485,"DIS_CODE":0,"TOWNNAME":"安南區","LI":"安西里","LIN":"5鄰","STREET":"安通路","SECT":"四段","MAREA":" ","LANE":"１１９巷","ALLEY":" ","HOUSE_NO":"７５號","E_COORD97":168746.45000000001,"N_COORD97":2547966.0899999999,"ADDRESS":"安通路四段１１９巷７５號","OBJECTID":445460},"geometry":{"x":168746.45000000112,"y":2547966.0899999999}},{"attributes":{"ID":445486,"DIS_CODE":0,"TOWNNAME":"安南區","LI":"安西里","LIN":"5鄰","STREET":"安通路","SECT":"四段","MAREA":" ","LANE":"１１９巷","ALLEY":" ","HOUSE_NO":"７７號","E_COORD97":168748.09,"N_COORD97":2547970.3500000001,"ADDRESS":"安通路四段１１９巷７７號","OBJECTID":445461},"geometry":{"x":168748.08999999892,"y":2547970.3499999996}},{"attributes":{"ID":445487,"DIS_CODE":0,"TOWNNAME":"安南區","LI":"安西里","LIN":"5鄰","STREET":"安通路","SECT":"四段","MAREA":" ","LANE":"１１９巷","ALLEY":" ","HOUSE_NO":"７９號","E_COORD97":168748.42000000001,"N_COORD97":2547974.6000000001,"ADDRESS":"安通路四段１１９巷７９號","OBJECTID":445462},"geometry":{"x":168748.42000000086,"y":2547974.6000000015}},{"attributes":{"ID":445488,"DIS_CODE":0,"TOWNNAME":"安南區","LI":"安西里","LIN":"5鄰","STREET":"安通路","SECT":"四段","MAREA":" ","LANE":"１１９巷","ALLEY":" ","HOUSE_NO":"８１號","E_COORD97":168749.73000000001,"N_COORD97":2547979.5099999998,"ADDRESS":"安通路四段１１９巷８１號","OBJECTID":445463},"geometry":{"x":168749.73000000138,"y":2547979.5099999998}},{"attributes":{"ID":445489,"DIS_CODE":0,"TOWNNAME":"安南區","LI":"安西里","LIN":"5鄰","STREET":"安通路","SECT":"四段","MAREA":" ","LANE":"１１９巷","ALLEY":" ","HOUSE_NO":"８３號","E_COORD97":168749.73000000001,"N_COORD97":2547984.7400000002,"ADDRESS":"安通路四段１１９巷８３號","OBJECTID":445464},"geometry":{"x":168749.73000000138,"y":2547984.7400000002}},{"attributes":{"ID":445490,"DIS_CODE":0,"TOWNNAME":"安南區","LI":"城中里","LIN":"5鄰","STREET":"安中路","SECT":"六段","MAREA":" ","LANE":"５１９巷","ALLEY":" ","HOUSE_NO":"６０號","E_COORD97":160847.51000000001,"N_COORD97":2551225.77,"ADDRESS":"安中路六段５１９巷６０號","OBJECTID":445465},"geometry":{"x":160847.51000000164,"y":2551225.7699999996}},{"attributes":{"ID":445491,"DIS_CODE":0,"TOWNNAME":"新市區","LI":"港墘里","LIN":"5鄰","STREET":"民族路","SECT":" ","MAREA":" ","LANE":"９９巷","ALLEY":" ","HOUSE_NO":"１０號","E_COORD97":178348.35000000001,"N_COORD97":2553591.29,"ADDRESS":"民族路９９巷１０號","OBJECTID":445466},"geometry":{"x":178348.35000000056,"y":2553591.2899999991}},{"attributes":{"ID":445492,"DIS_CODE":0,"TOWNNAME":"新市區","LI":"港墘里","LIN":"5鄰","STREET":"民族路","SECT":" ","MAREA":" ","LANE":"９７巷","ALLEY":" ","HOUSE_NO":"７號","E_COORD97":178400.57000000001,"N_COORD97":2553611.54,"ADDRESS":"民族路９７巷７號","OBJECTID":445467},"geometry":{"x":178400.5700000003,"y":2553611.540000001}},{"attributes":{"ID":445493,"DIS_CODE":0,"TOWNNAME":"東區","LI":"崇學里","LIN":"5鄰","STREET":"崇德四街","SECT":" ","MAREA":" ","LANE":"５巷","ALLEY":" ","HOUSE_NO":"１８號","E_COORD97":170496.22,"N_COORD97":2541983.9300000002,"ADDRESS":"崇德四街５巷１８號","OBJECTID":445468},"geometry":{"x":170496.21999999974,"y":2541983.9300000016}},{"attributes":{"ID":445494,"DIS_CODE":0,"TOWNNAME":"東區","LI":"崇學里","LIN":"5鄰","STREET":"崇德四街","SECT":" ","MAREA":" ","LANE":"５巷","ALLEY":" ","HOUSE_NO":"１９號","E_COORD97":170475.42000000001,"N_COORD97":2541965.9500000002,"ADDRESS":"崇德四街５巷１９號","OBJECTID":445469},"geometry":{"x":170475.42000000086,"y":2541965.950000003}},{"attributes":{"ID":445495,"DIS_CODE":0,"TOWNNAME":"東區","LI":"崇學里","LIN":"5鄰","STREET":"崇德四街","SECT":" ","MAREA":" ","LANE":"５巷","ALLEY":" ","HOUSE_NO":"２０號","E_COORD97":170492.84,"N_COORD97":2541986.7400000002,"ADDRESS":"崇德四街５巷２０號","OBJECTID":445470},"geometry":{"x":170492.84000000078,"y":2541986.7400000021}},{"attributes":{"ID":445496,"DIS_CODE":0,"TOWNNAME":"東區","LI":"崇學里","LIN":"5鄰","STREET":"崇德四街","SECT":" ","MAREA":" ","LANE":"５巷","ALLEY":" ","HOUSE_NO":"２１號","E_COORD97":170472.25,"N_COORD97":2541968.5499999998,"ADDRESS":"崇德四街５巷２１號","OBJECTID":445471},"geometry":{"x":170472.25,"y":2541968.5500000007}},{"attributes":{"ID":445497,"DIS_CODE":0,"TOWNNAME":"東區","LI":"崇學里","LIN":"5鄰","STREET":"崇德四街","SECT":" ","MAREA":" ","LANE":"５巷","ALLEY":" ","HOUSE_NO":"２２號","E_COORD97":170489.73999999999,"N_COORD97":2541989.4199999999,"ADDRESS":"崇德四街５巷２２號","OBJECTID":445472},"geometry":{"x":170489.74000000022,"y":2541989.4199999999}},{"attributes":{"ID":445498,"DIS_CODE":0,"TOWNNAME":"東區","LI":"崇學里","LIN":"5鄰","STREET":"崇德四街","SECT":" ","MAREA":" ","LANE":"５巷","ALLEY":" ","HOUSE_NO":"２３號","E_COORD97":170468.78,"N_COORD97":2541971.0499999998,"ADDRESS":"崇德四街５巷２３號","OBJECTID":445473},"geometry":{"x":170468.78000000119,"y":2541971.0500000026}},{"attributes":{"ID":445499,"DIS_CODE":0,"TOWNNAME":"東區","LI":"崇學里","LIN":"5鄰","STREET":"崇德四街","SECT":" ","MAREA":" ","LANE":"５巷","ALLEY":" ","HOUSE_NO":"２４號","E_COORD97":170486.35999999999,"N_COORD97":2541992.0899999999,"ADDRESS":"崇德四街５巷２４號","OBJECTID":445474},"geometry":{"x":170486.36000000127,"y":2541992.0899999999}},{"attributes":{"ID":445500,"DIS_CODE":0,"TOWNNAME":"東區","LI":"崇學里","LIN":"5鄰","STREET":"崇德四街","SECT":" ","MAREA":" ","LANE":"５巷","ALLEY":" ","HOUSE_NO":"２５號","E_COORD97":170465.41,"N_COORD97":2541973.54,"ADDRESS":"崇德四街５巷２５號","OBJECTID":445475},"geometry":{"x":170465.41000000201,"y":2541973.540000001}},{"attributes":{"ID":445501,"DIS_CODE":0,"TOWNNAME":"東區","LI":"崇學里","LIN":"5鄰","STREET":"崇德四街","SECT":" ","MAREA":" ","LANE":"５巷","ALLEY":" ","HOUSE_NO":"２６號","E_COORD97":170483.82999999999,"N_COORD97":2541994.6200000001,"ADDRESS":"崇德四街５巷２６號","OBJECTID":445476},"geometry":{"x":170483.83000000007,"y":2541994.6200000029}},{"attributes":{"ID":445502,"DIS_CODE":0,"TOWNNAME":"東區","LI":"崇學里","LIN":"5鄰","STREET":"崇德四街","SECT":" ","MAREA":" ","LANE":"５巷","ALLEY":" ","HOUSE_NO":"２７號","E_COORD97":170462.04000000001,"N_COORD97":2541976.1400000001,"ADDRESS":"崇德四街５巷２７號","OBJECTID":445477},"geometry":{"x":170462.04000000004,"y":2541976.1400000043}},{"attributes":{"ID":445503,"DIS_CODE":0,"TOWNNAME":"東區","LI":"崇學里","LIN":"5鄰","STREET":"崇德四街","SECT":" ","MAREA":" ","LANE":"５巷","ALLEY":" ","HOUSE_NO":"２８號","E_COORD97":170480.59,"N_COORD97":2541997.0099999998,"ADDRESS":"崇德四街５巷２８號","OBJECTID":445478},"geometry":{"x":170480.58999999892,"y":2541997.0100000016}},{"attributes":{"ID":445504,"DIS_CODE":0,"TOWNNAME":"東區","LI":"崇學里","LIN":"5鄰","STREET":"崇德四街","SECT":" ","MAREA":" ","LANE":"５巷","ALLEY":" ","HOUSE_NO":"２９號","E_COORD97":170458.87,"N_COORD97":2541978.54,"ADDRESS":"崇德四街５巷２９號","OBJECTID":445479},"geometry":{"x":170458.87000000104,"y":2541978.5400000028}},{"attributes":{"ID":445505,"DIS_CODE":0,"TOWNNAME":"東區","LI":"崇學里","LIN":"5鄰","STREET":"崇德四街","SECT":" ","MAREA":" ","LANE":"５巷","ALLEY":" ","HOUSE_NO":"３０號","E_COORD97":170477.51000000001,"N_COORD97":2541999.0299999998,"ADDRESS":"崇德四街５巷３０號","OBJECTID":445480},"geometry":{"x":170477.50999999978,"y":2541999.0299999975}},{"attributes":{"ID":445506,"DIS_CODE":0,"TOWNNAME":"東區","LI":"崇學里","LIN":"5鄰","STREET":"崇德四街","SECT":" ","MAREA":" ","LANE":"５巷","ALLEY":" ","HOUSE_NO":"３１號","E_COORD97":170455.98000000001,"N_COORD97":2541981.4300000002,"ADDRESS":"崇德四街５巷３１號","OBJECTID":445481},"geometry":{"x":170455.98000000045,"y":2541981.4300000016}},{"attributes":{"ID":445507,"DIS_CODE":0,"TOWNNAME":"東區","LI":"崇學里","LIN":"5鄰","STREET":"崇德四街","SECT":" ","MAREA":" ","LANE":"５巷","ALLEY":" ","HOUSE_NO":"３２號","E_COORD97":170473.92999999999,"N_COORD97":2542001.1499999999,"ADDRESS":"崇德四街５巷３２號","OBJECTID":445482},"geometry":{"x":170473.93000000063,"y":2542001.1500000022}},{"attributes":{"ID":445508,"DIS_CODE":0,"TOWNNAME":"東區","LI":"崇學里","LIN":"5鄰","STREET":"崇德四街","SECT":" ","MAREA":" ","LANE":"５巷","ALLEY":" ","HOUSE_NO":"３３號","E_COORD97":170452.42000000001,"N_COORD97":2541983.54,"ADDRESS":"崇德四街５巷３３號","OBJECTID":445483},"geometry":{"x":170452.41999999993,"y":2541983.540000001}},{"attributes":{"ID":445509,"DIS_CODE":0,"TOWNNAME":"東區","LI":"崇學里","LIN":"5鄰","STREET":"崇德四街","SECT":" ","MAREA":" ","LANE":"５巷","ALLEY":" ","HOUSE_NO":"３４號","E_COORD97":170470.79999999999,"N_COORD97":2542003.3799999999,"ADDRESS":"崇德四街５巷３４號","OBJECTID":445484},"geometry":{"x":170470.80000000168,"y":2542003.3800000027}},{"attributes":{"ID":445510,"DIS_CODE":0,"TOWNNAME":"東區","LI":"崇學里","LIN":"5鄰","STREET":"崇德四街","SECT":" ","MAREA":" ","LANE":"５巷","ALLEY":" ","HOUSE_NO":"３５號","E_COORD97":170448.72,"N_COORD97":2541985.4500000002,"ADDRESS":"崇德四街５巷３５號","OBJECTID":445485},"geometry":{"x":170448.71999999974,"y":2541985.4499999993}},{"attributes":{"ID":445511,"DIS_CODE":0,"TOWNNAME":"東區","LI":"崇學里","LIN":"5鄰","STREET":"崇德四街","SECT":" ","MAREA":" ","LANE":"５巷","ALLEY":" ","HOUSE_NO":"３６號","E_COORD97":170467.56,"N_COORD97":2542005.6200000001,"ADDRESS":"崇德四街５巷３６號","OBJECTID":445486},"geometry":{"x":170467.56000000052,"y":2542005.620000001}},{"attributes":{"ID":445512,"DIS_CODE":0,"TOWNNAME":"東區","LI":"崇學里","LIN":"5鄰","STREET":"崇德四街","SECT":" ","MAREA":" ","LANE":"５巷","ALLEY":" ","HOUSE_NO":"３７號","E_COORD97":170442.35999999999,"N_COORD97":2541985.8300000001,"ADDRESS":"崇德四街５巷３７號","OBJECTID":445487},"geometry":{"x":170442.36000000127,"y":2541985.8300000019}},{"attributes":{"ID":445513,"DIS_CODE":0,"TOWNNAME":"東區","LI":"崇學里","LIN":"5鄰","STREET":"崇德四街","SECT":" ","MAREA":" ","LANE":"５巷","ALLEY":" ","HOUSE_NO":"３８號","E_COORD97":170464.09,"N_COORD97":2542010.2999999998,"ADDRESS":"崇德四街５巷３８號","OBJECTID":445488},"geometry":{"x":170464.09000000078,"y":2542010.3000000026}},{"attributes":{"ID":445514,"DIS_CODE":0,"TOWNNAME":"東區","LI":"崇學里","LIN":"5鄰","STREET":"崇德四街","SECT":" ","MAREA":" ","LANE":"５巷","ALLEY":" ","HOUSE_NO":"５５號","E_COORD97":170415.85999999999,"N_COORD97":2542011.1400000001,"ADDRESS":"崇德四街５巷５５號","OBJECTID":445489},"geometry":{"x":170415.86000000034,"y":2542011.1400000025}},{"attributes":{"ID":445515,"DIS_CODE":0,"TOWNNAME":"東區","LI":"崇學里","LIN":"5鄰","STREET":"崇德四街","SECT":" ","MAREA":" ","LANE":"５巷","ALLEY":" ","HOUSE_NO":"５７號","E_COORD97":170412.60999999999,"N_COORD97":2542014.0099999998,"ADDRESS":"崇德四街５巷５７號","OBJECTID":445490},"geometry":{"x":170412.61000000034,"y":2542014.0100000016}},{"attributes":{"ID":445516,"DIS_CODE":0,"TOWNNAME":"東區","LI":"崇學里","LIN":"5鄰","STREET":"崇德四街","SECT":" ","MAREA":" ","LANE":"５巷","ALLEY":" ","HOUSE_NO":"５９號","E_COORD97":170408.39999999999,"N_COORD97":2542017.0699999998,"ADDRESS":"崇德四街５巷５９號","OBJECTID":445491},"geometry":{"x":170408.4000000013,"y":2542017.070000004}},{"attributes":{"ID":445517,"DIS_CODE":0,"TOWNNAME":"東區","LI":"崇學里","LIN":"5鄰","STREET":"崇德四街","SECT":" ","MAREA":" ","LANE":"５巷","ALLEY":" ","HOUSE_NO":"６１號","E_COORD97":170405.14000000001,"N_COORD97":2542019.9300000002,"ADDRESS":"崇德四街５巷６１號","OBJECTID":445492},"geometry":{"x":170405.13999999966,"y":2542019.9299999997}},{"attributes":{"ID":445518,"DIS_CODE":0,"TOWNNAME":"東區","LI":"崇學里","LIN":"5鄰","STREET":"崇德四街","SECT":" ","MAREA":" ","LANE":"５巷","ALLEY":" ","HOUSE_NO":"６號","E_COORD97":170522.56,"N_COORD97":2541962.96,"ADDRESS":"崇德四街５巷６號","OBJECTID":445493},"geometry":{"x":170522.55999999959,"y":2541962.9600000009}},{"attributes":{"ID":445519,"DIS_CODE":0,"TOWNNAME":"東區","LI":"崇學里","LIN":"5鄰","STREET":"崇德四街","SECT":" ","MAREA":" ","LANE":"５巷","ALLEY":" ","HOUSE_NO":"８號","E_COORD97":170519.60000000001,"N_COORD97":2541965.0699999998,"ADDRESS":"崇德四街５巷８號","OBJECTID":445494},"geometry":{"x":170519.60000000056,"y":2541965.0700000003}},{"attributes":{"ID":445520,"DIS_CODE":0,"TOWNNAME":"東區","LI":"成大里","LIN":"5鄰","STREET":"育樂街","SECT":" ","MAREA":" ","LANE":"１９７巷","ALLEY":" ","HOUSE_NO":"１號","E_COORD97":169531.53,"N_COORD97":2543794.7400000002,"ADDRESS":"育樂街１９７巷１號","OBJECTID":445495},"geometry":{"x":169531.53000000026,"y":2543794.7400000002}},{"attributes":{"ID":445521,"DIS_CODE":0,"TOWNNAME":"安南區","LI":"安東里","LIN":"5鄰","STREET":"安和路","SECT":"一段","MAREA":" ","LANE":"２８８巷","ALLEY":" ","HOUSE_NO":"７４號","E_COORD97":169472.60000000001,"N_COORD97":2548125.9100000001,"ADDRESS":"安和路一段２８８巷７４號","OBJECTID":445496},"geometry":{"x":169472.60000000056,"y":2548125.9100000001}},{"attributes":{"ID":445522,"DIS_CODE":0,"TOWNNAME":"安南區","LI":"安東里","LIN":"5鄰","STREET":"安和路","SECT":"一段","MAREA":" ","LANE":"２８８巷","ALLEY":" ","HOUSE_NO":"７６號","E_COORD97":169465.32999999999,"N_COORD97":2548125.3500000001,"ADDRESS":"安和路一段２８８巷７６號","OBJECTID":445497},"geometry":{"x":169465.33000000007,"y":2548125.3500000015}},{"attributes":{"ID":445523,"DIS_CODE":0,"TOWNNAME":"安南區","LI":"安東里","LIN":"5鄰","STREET":"安和路","SECT":"一段","MAREA":" ","LANE":"２８８巷","ALLEY":" ","HOUSE_NO":"７８號","E_COORD97":169468.54999999999,"N_COORD97":2548140.9199999999,"ADDRESS":"安和路一段２８８巷７８號","OBJECTID":445498},"geometry":{"x":169468.54999999981,"y":2548140.9200000018}},{"attributes":{"ID":445524,"DIS_CODE":0,"TOWNNAME":"安南區","LI":"安東里","LIN":"5鄰","STREET":"安和路","SECT":"一段","MAREA":" ","LANE":"２８８巷","ALLEY":" ","HOUSE_NO":"８０號","E_COORD97":169463.66,"N_COORD97":2548155.1699999999,"ADDRESS":"安和路一段２８８巷８０號","OBJECTID":445499},"geometry":{"x":169463.66000000108,"y":2548155.1699999999}},{"attributes":{"ID":445525,"DIS_CODE":0,"TOWNNAME":"安南區","LI":"安東里","LIN":"5鄰","STREET":"安和路","SECT":"一段","MAREA":" ","LANE":"２８８巷","ALLEY":" ","HOUSE_NO":"８２號","E_COORD97":169466.17000000001,"N_COORD97":2548170.5299999998,"ADDRESS":"安和路一段２８８巷８２號","OBJECTID":445500},"geometry":{"x":169466.16999999993,"y":2548170.5300000012}},{"attributes":{"ID":445526,"DIS_CODE":0,"TOWNNAME":"安南區","LI":"安東里","LIN":"5鄰","STREET":"安和路","SECT":"一段","MAREA":" ","LANE":"２８８巷","ALLEY":" ","HOUSE_NO":"９０號","E_COORD97":169512.01000000001,"N_COORD97":2548172.7599999998,"ADDRESS":"安和路一段２８８巷９０號","OBJECTID":445501},"geometry":{"x":169512.01000000071,"y":2548172.7600000016}},{"attributes":{"ID":445527,"DIS_CODE":0,"TOWNNAME":"安南區","LI":"安東里","LIN":"5鄰","STREET":"安和路","SECT":"一段","MAREA":" ","LANE":"２８８巷","ALLEY":" ","HOUSE_NO":"９２號","E_COORD97":169511.73000000001,"N_COORD97":2548164.2400000002,"ADDRESS":"安和路一段２８８巷９２號","OBJECTID":445502},"geometry":{"x":169511.73000000045,"y":2548164.2400000002}},{"attributes":{"ID":445528,"DIS_CODE":0,"TOWNNAME":"安南區","LI":"安順里","LIN":"5鄰","STREET":"安和路","SECT":"四段","MAREA":" ","LANE":"７５巷","ALLEY":" ","HOUSE_NO":"２５號","E_COORD97":169914.92000000001,"N_COORD97":2550213.0099999998,"ADDRESS":"安和路四段７５巷２５號","OBJECTID":445503},"geometry":{"x":169914.91999999993,"y":2550213.0100000016}},{"attributes":{"ID":445529,"DIS_CODE":0,"TOWNNAME":"安南區","LI":"州南里","LIN":"5鄰","STREET":"安和路","SECT":"四段","MAREA":" ","LANE":"５３７巷","ALLEY":" ","HOUSE_NO":"９３號","E_COORD97":169781.14999999999,"N_COORD97":2551461.79,"ADDRESS":"安和路四段５３７巷９３號","OBJECTID":445504},"geometry":{"x":169781.1500000013,"y":2551461.7899999991}},{"attributes":{"ID":445530,"DIS_CODE":0,"TOWNNAME":"安南區","LI":"州南里","LIN":"5鄰","STREET":"安和路","SECT":"四段","MAREA":" ","LANE":"５３７巷","ALLEY":" ","HOUSE_NO":"８９號","E_COORD97":169786.84,"N_COORD97":2551456.1099999999,"ADDRESS":"安和路四段５３７巷８９號","OBJECTID":445505},"geometry":{"x":169786.83999999985,"y":2551456.1100000013}},{"attributes":{"ID":445531,"DIS_CODE":0,"TOWNNAME":"安南區","LI":"溪北里","LIN":"5鄰","STREET":"安和路","SECT":"一段","MAREA":" ","LANE":"３１巷","ALLEY":" ","HOUSE_NO":"１０號","E_COORD97":169509.94,"N_COORD97":2547431.7999999998,"ADDRESS":"安和路一段３１巷１０號","OBJECTID":445506},"geometry":{"x":169509.94000000134,"y":2547431.8000000026}},{"attributes":{"ID":445532,"DIS_CODE":0,"TOWNNAME":"安南區","LI":"溪北里","LIN":"5鄰","STREET":"安和路","SECT":"一段","MAREA":" ","LANE":"４７巷","ALLEY":" ","HOUSE_NO":"１１號","E_COORD97":169500.01999999999,"N_COORD97":2547443.7599999998,"ADDRESS":"安和路一段４７巷１１號","OBJECTID":445507},"geometry":{"x":169500.02000000048,"y":2547443.7600000016}},{"attributes":{"ID":445533,"DIS_CODE":0,"TOWNNAME":"安南區","LI":"溪北里","LIN":"5鄰","STREET":"安和路","SECT":"一段","MAREA":" ","LANE":"３１巷","ALLEY":" ","HOUSE_NO":"１１號","E_COORD97":169510.51000000001,"N_COORD97":2547403.0899999999,"ADDRESS":"安和路一段３１巷１１號","OBJECTID":445508},"geometry":{"x":169510.51000000071,"y":2547403.0899999999}},{"attributes":{"ID":445534,"DIS_CODE":0,"TOWNNAME":"安南區","LI":"溪北里","LIN":"5鄰","STREET":"安和路","SECT":"一段","MAREA":" ","LANE":"３１巷","ALLEY":" ","HOUSE_NO":"１２號","E_COORD97":169505.92000000001,"N_COORD97":2547429.0299999998,"ADDRESS":"安和路一段３１巷１２號","OBJECTID":445509},"geometry":{"x":169505.92000000086,"y":2547429.0299999993}},{"attributes":{"ID":445535,"DIS_CODE":0,"TOWNNAME":"安南區","LI":"溪北里","LIN":"5鄰","STREET":"安和路","SECT":"一段","MAREA":" ","LANE":"３１巷","ALLEY":" ","HOUSE_NO":"１４號","E_COORD97":169501.70999999999,"N_COORD97":2547426.9300000002,"ADDRESS":"安和路一段３１巷１４號","OBJECTID":445510},"geometry":{"x":169501.70999999996,"y":2547426.9299999997}},{"attributes":{"ID":445536,"DIS_CODE":0,"TOWNNAME":"安南區","LI":"溪北里","LIN":"5鄰","STREET":"安和路","SECT":"一段","MAREA":" ","LANE":"３１巷","ALLEY":" ","HOUSE_NO":"１６號","E_COORD97":169496.73999999999,"N_COORD97":2547425.3100000001,"ADDRESS":"安和路一段３１巷１６號","OBJECTID":445511},"geometry":{"x":169496.73999999929,"y":2547425.3100000005}},{"attributes":{"ID":445537,"DIS_CODE":0,"TOWNNAME":"安南區","LI":"溪北里","LIN":"5鄰","STREET":"安和路","SECT":"一段","MAREA":" ","LANE":"３１巷","ALLEY":" ","HOUSE_NO":"２號","E_COORD97":169528.03,"N_COORD97":2547435.9199999999,"ADDRESS":"安和路一段３１巷２號","OBJECTID":445512},"geometry":{"x":169528.03000000026,"y":2547435.9200000018}},{"attributes":{"ID":445538,"DIS_CODE":0,"TOWNNAME":"安南區","LI":"溪北里","LIN":"5鄰","STREET":"安和路","SECT":"一段","MAREA":" ","LANE":"３１巷","ALLEY":" ","HOUSE_NO":"４號","E_COORD97":169523.51000000001,"N_COORD97":2547434.1899999999,"ADDRESS":"安和路一段３１巷４號","OBJECTID":445513},"geometry":{"x":169523.51000000164,"y":2547434.1900000013}},{"attributes":{"ID":445539,"DIS_CODE":0,"TOWNNAME":"安南區","LI":"溪北里","LIN":"5鄰","STREET":"安和路","SECT":"一段","MAREA":" ","LANE":"３１巷","ALLEY":" ","HOUSE_NO":"６號","E_COORD97":169519.29000000001,"N_COORD97":2547433.6200000001,"ADDRESS":"安和路一段３１巷６號","OBJECTID":445514},"geometry":{"x":169519.29000000004,"y":2547433.620000001}},{"attributes":{"ID":445540,"DIS_CODE":0,"TOWNNAME":"安南區","LI":"溪北里","LIN":"5鄰","STREET":"安和路","SECT":"一段","MAREA":" ","LANE":"３１巷","ALLEY":" ","HOUSE_NO":"７號","E_COORD97":169518.82999999999,"N_COORD97":2547407.3900000001,"ADDRESS":"安和路一段３１巷７號","OBJECTID":445515},"geometry":{"x":169518.83000000101,"y":2547407.3900000025}},{"attributes":{"ID":445541,"DIS_CODE":0,"TOWNNAME":"安南區","LI":"溪北里","LIN":"5鄰","STREET":"安和路","SECT":"一段","MAREA":" ","LANE":"３１巷","ALLEY":" ","HOUSE_NO":"８號","E_COORD97":169515.26999999999,"N_COORD97":2547431.8900000001,"ADDRESS":"安和路一段３１巷８號","OBJECTID":445516},"geometry":{"x":169515.27000000048,"y":2547431.8900000006}},{"attributes":{"ID":445542,"DIS_CODE":0,"TOWNNAME":"安南區","LI":"溪北里","LIN":"5鄰","STREET":"安和路","SECT":"一段","MAREA":" ","LANE":"３１巷","ALLEY":" ","HOUSE_NO":"９號","E_COORD97":169514.72,"N_COORD97":2547404.7200000002,"ADDRESS":"安和路一段３１巷９號","OBJECTID":445517},"geometry":{"x":169514.71999999974,"y":2547404.7200000025}},{"attributes":{"ID":445543,"DIS_CODE":0,"TOWNNAME":"安南區","LI":"溪北里","LIN":"5鄰","STREET":"安和路","SECT":"一段","MAREA":" ","LANE":"４７巷","ALLEY":" ","HOUSE_NO":"１０號","E_COORD97":169496.67999999999,"N_COORD97":2547466.3399999999,"ADDRESS":"安和路一段４７巷１０號","OBJECTID":445518},"geometry":{"x":169496.68000000156,"y":2547466.3400000036}},{"attributes":{"ID":445544,"DIS_CODE":0,"TOWNNAME":"安南區","LI":"溪北里","LIN":"5鄰","STREET":"安和路","SECT":"一段","MAREA":" ","LANE":"４７巷","ALLEY":" ","HOUSE_NO":"１２號","E_COORD97":169492.59,"N_COORD97":2547464.1400000001,"ADDRESS":"安和路一段４７巷１２號","OBJECTID":445519},"geometry":{"x":169492.59000000078,"y":2547464.1400000006}},{"attributes":{"ID":445545,"DIS_CODE":0,"TOWNNAME":"安南區","LI":"溪北里","LIN":"5鄰","STREET":"安和路","SECT":"一段","MAREA":" ","LANE":"４７巷","ALLEY":" ","HOUSE_NO":"１３號","E_COORD97":169494.82000000001,"N_COORD97":2547442.9100000001,"ADDRESS":"安和路一段４７巷１３號","OBJECTID":445520},"geometry":{"x":169494.82000000216,"y":2547442.910000002}},{"attributes":{"ID":445546,"DIS_CODE":0,"TOWNNAME":"安南區","LI":"溪北里","LIN":"5鄰","STREET":"安和路","SECT":"一段","MAREA":" ","LANE":"４７巷","ALLEY":" ","HOUSE_NO":"１４號","E_COORD97":169487.39000000001,"N_COORD97":2547463.2000000002,"ADDRESS":"安和路一段４７巷１４號","OBJECTID":445521},"geometry":{"x":169487.3900000006,"y":2547463.1999999974}},{"attributes":{"ID":445547,"DIS_CODE":0,"TOWNNAME":"安南區","LI":"溪北里","LIN":"5鄰","STREET":"安和路","SECT":"一段","MAREA":" ","LANE":"４７巷","ALLEY":" ","HOUSE_NO":"１５號","E_COORD97":169490.28,"N_COORD97":2547441.3999999999,"ADDRESS":"安和路一段４７巷１５號","OBJECTID":445522},"geometry":{"x":169490.28000000119,"y":2547441.4000000004}},{"attributes":{"ID":445548,"DIS_CODE":0,"TOWNNAME":"安南區","LI":"溪北里","LIN":"5鄰","STREET":"安和路","SECT":"一段","MAREA":" ","LANE":"４７巷","ALLEY":" ","HOUSE_NO":"１６號","E_COORD97":169483.76999999999,"N_COORD97":2547461.7799999998,"ADDRESS":"安和路一段４７巷１６號","OBJECTID":445523},"geometry":{"x":169483.76999999955,"y":2547461.7799999993}},{"attributes":{"ID":445549,"DIS_CODE":0,"TOWNNAME":"安南區","LI":"溪北里","LIN":"5鄰","STREET":"安和路","SECT":"一段","MAREA":" ","LANE":"４７巷","ALLEY":" ","HOUSE_NO":"２號","E_COORD97":169513.37,"N_COORD97":2547474.8300000001,"ADDRESS":"安和路一段４７巷２號","OBJECTID":445524},"geometry":{"x":169513.37000000104,"y":2547474.8300000019}},{"attributes":{"ID":445550,"DIS_CODE":0,"TOWNNAME":"安南區","LI":"溪北里","LIN":"5鄰","STREET":"安和路","SECT":"一段","MAREA":" ","LANE":"４７巷","ALLEY":" ","HOUSE_NO":"４號","E_COORD97":169510.53,"N_COORD97":2547472.4700000002,"ADDRESS":"安和路一段４７巷４號","OBJECTID":445525},"geometry":{"x":169510.53000000119,"y":2547472.4700000007}},{"attributes":{"ID":445551,"DIS_CODE":0,"TOWNNAME":"安南區","LI":"溪北里","LIN":"5鄰","STREET":"安和路","SECT":"一段","MAREA":" ","LANE":"４７巷","ALLEY":" ","HOUSE_NO":"６號","E_COORD97":169504.54999999999,"N_COORD97":2547469.7999999998,"ADDRESS":"安和路一段４７巷６號","OBJECTID":445526},"geometry":{"x":169504.55000000168,"y":2547469.8000000007}},{"attributes":{"ID":445552,"DIS_CODE":0,"TOWNNAME":"安南區","LI":"溪北里","LIN":"5鄰","STREET":"安和路","SECT":"一段","MAREA":" ","LANE":"４７巷","ALLEY":" ","HOUSE_NO":"７號","E_COORD97":169509,"N_COORD97":2547447.1600000001,"ADDRESS":"安和路一段４７巷７號","OBJECTID":445527},"geometry":{"x":169509.00000000093,"y":2547447.1600000001}},{"attributes":{"ID":445553,"DIS_CODE":0,"TOWNNAME":"安南區","LI":"溪北里","LIN":"5鄰","STREET":"安和路","SECT":"一段","MAREA":" ","LANE":"４７巷","ALLEY":" ","HOUSE_NO":"８號","E_COORD97":169500.92999999999,"N_COORD97":2547467.6000000001,"ADDRESS":"安和路一段４７巷８號","OBJECTID":445528},"geometry":{"x":169500.93000000063,"y":2547467.5999999978}},{"attributes":{"ID":445554,"DIS_CODE":0,"TOWNNAME":"安南區","LI":"溪北里","LIN":"5鄰","STREET":"安和路","SECT":"一段","MAREA":" ","LANE":"４７巷","ALLEY":" ","HOUSE_NO":"９號","E_COORD97":169504.54999999999,"N_COORD97":2547445.3599999999,"ADDRESS":"安和路一段４７巷９號","OBJECTID":445529},"geometry":{"x":169504.55000000168,"y":2547445.3600000031}},{"attributes":{"ID":445555,"DIS_CODE":0,"TOWNNAME":"安南區","LI":"溪墘里","LIN":"5鄰","STREET":"海佃路","SECT":"一段","MAREA":" ","LANE":"２４６巷","ALLEY":" ","HOUSE_NO":"１０號","E_COORD97":167189.98000000001,"N_COORD97":2547318.8300000001,"ADDRESS":"海佃路一段２４６巷１０號","OBJECTID":445530},"geometry":{"x":167189.98000000231,"y":2547318.8300000019}},{"attributes":{"ID":445556,"DIS_CODE":0,"TOWNNAME":"安南區","LI":"溪墘里","LIN":"5鄰","STREET":"海佃路","SECT":"一段","MAREA":" ","LANE":"２４６巷","ALLEY":" ","HOUSE_NO":"１２號","E_COORD97":167194.79000000001,"N_COORD97":2547319.9500000002,"ADDRESS":"海佃路一段２４６巷１２號","OBJECTID":445531},"geometry":{"x":167194.79000000097,"y":2547319.9500000011}},{"attributes":{"ID":445557,"DIS_CODE":0,"TOWNNAME":"安南區","LI":"溪墘里","LIN":"5鄰","STREET":"海佃路","SECT":"一段","MAREA":" ","LANE":"２４６巷","ALLEY":" ","HOUSE_NO":"１４號","E_COORD97":167199.70999999999,"N_COORD97":2547320.6600000001,"ADDRESS":"海佃路一段２４６巷１４號","OBJECTID":445532},"geometry":{"x":167199.70999999903,"y":2547320.6600000001}},{"attributes":{"ID":445558,"DIS_CODE":0,"TOWNNAME":"安南區","LI":"溪墘里","LIN":"5鄰","STREET":"海佃路","SECT":"一段","MAREA":" ","LANE":"２４６巷","ALLEY":" ","HOUSE_NO":"１６號","E_COORD97":167203.67999999999,"N_COORD97":2547321.8999999999,"ADDRESS":"海佃路一段２４６巷１６號","OBJECTID":445533},"geometry":{"x":167203.68000000063,"y":2547321.9000000022}},{"attributes":{"ID":445559,"DIS_CODE":0,"TOWNNAME":"安南區","LI":"溪墘里","LIN":"5鄰","STREET":"海佃路","SECT":"一段","MAREA":" ","LANE":"２４６巷","ALLEY":" ","HOUSE_NO":"１８號","E_COORD97":167207.94,"N_COORD97":2547322.2599999998,"ADDRESS":"海佃路一段２４６巷１８號","OBJECTID":445534},"geometry":{"x":167207.94000000134,"y":2547322.2600000016}},{"attributes":{"ID":445560,"DIS_CODE":0,"TOWNNAME":"安南區","LI":"溪墘里","LIN":"5鄰","STREET":"海佃路","SECT":"一段","MAREA":" ","LANE":"２４６巷","ALLEY":" ","HOUSE_NO":"２２號","E_COORD97":167213.04000000001,"N_COORD97":2547323.5,"ADDRESS":"海佃路一段２４６巷２２號","OBJECTID":445535},"geometry":{"x":167213.0400000019,"y":2547323.5000000019}},{"attributes":{"ID":445561,"DIS_CODE":0,"TOWNNAME":"安南區","LI":"溪墘里","LIN":"5鄰","STREET":"海佃路","SECT":"一段","MAREA":" ","LANE":"２４６巷","ALLEY":" ","HOUSE_NO":"２４號","E_COORD97":167217.37,"N_COORD97":2547324.21,"ADDRESS":"海佃路一段２４６巷２４號","OBJECTID":445536},"geometry":{"x":167217.37000000011,"y":2547324.2100000028}},{"attributes":{"ID":445562,"DIS_CODE":0,"TOWNNAME":"安南區","LI":"溪墘里","LIN":"5鄰","STREET":"海佃路","SECT":"一段","MAREA":" ","LANE":"２４６巷","ALLEY":" ","HOUSE_NO":"２６號","E_COORD97":167221.54999999999,"N_COORD97":2547324.75,"ADDRESS":"海佃路一段２４６巷２６號","OBJECTID":445537},"geometry":{"x":167221.55000000075,"y":2547324.7500000037}},{"attributes":{"ID":445563,"DIS_CODE":0,"TOWNNAME":"安南區","LI":"溪墘里","LIN":"5鄰","STREET":"海佃路","SECT":"一段","MAREA":" ","LANE":"２４６巷","ALLEY":" ","HOUSE_NO":"２號","E_COORD97":167172.48000000001,"N_COORD97":2547313.6600000001,"ADDRESS":"海佃路一段２４６巷２號","OBJECTID":445538},"geometry":{"x":167172.48000000045,"y":2547313.660000002}},{"attributes":{"ID":445564,"DIS_CODE":0,"TOWNNAME":"安南區","LI":"溪墘里","LIN":"5鄰","STREET":"海佃路","SECT":"一段","MAREA":" ","LANE":"２４６巷","ALLEY":" ","HOUSE_NO":"３０號","E_COORD97":167234.95999999999,"N_COORD97":2547330.02,"ADDRESS":"海佃路一段２４６巷３０號","OBJECTID":445539},"geometry":{"x":167234.95999999996,"y":2547330.0200000014}},{"attributes":{"ID":445565,"DIS_CODE":0,"TOWNNAME":"安南區","LI":"溪墘里","LIN":"5鄰","STREET":"海佃路","SECT":"一段","MAREA":" ","LANE":"２４６巷","ALLEY":" ","HOUSE_NO":"３２號","E_COORD97":167239.10000000001,"N_COORD97":2547331.0099999998,"ADDRESS":"海佃路一段２４６巷３２號","OBJECTID":445540},"geometry":{"x":167239.0999999987,"y":2547331.0100000016}},{"attributes":{"ID":445566,"DIS_CODE":0,"TOWNNAME":"安南區","LI":"溪墘里","LIN":"5鄰","STREET":"海佃路","SECT":"一段","MAREA":" ","LANE":"２４６巷","ALLEY":" ","HOUSE_NO":"３４號","E_COORD97":167244.12,"N_COORD97":2547331.6000000001,"ADDRESS":"海佃路一段２４６巷３４號","OBJECTID":445541},"geometry":{"x":167244.12000000011,"y":2547331.5999999996}},{"attributes":{"ID":445567,"DIS_CODE":0,"TOWNNAME":"安南區","LI":"溪墘里","LIN":"5鄰","STREET":"海佃路","SECT":"一段","MAREA":" ","LANE":"２４６巷","ALLEY":" ","HOUSE_NO":"３６號","E_COORD97":167248.44,"N_COORD97":2547332.1200000001,"ADDRESS":"海佃路一段２４６巷３６號","OBJECTID":445542},"geometry":{"x":167248.44000000134,"y":2547332.120000001}},{"attributes":{"ID":445568,"DIS_CODE":0,"TOWNNAME":"安南區","LI":"溪墘里","LIN":"5鄰","STREET":"海佃路","SECT":"一段","MAREA":" ","LANE":"２４６巷","ALLEY":" ","HOUSE_NO":"３８號","E_COORD97":167253.19,"N_COORD97":2547333.75,"ADDRESS":"海佃路一段２４６巷３８號","OBJECTID":445543},"geometry":{"x":167253.19000000134,"y":2547333.75}},{"attributes":{"ID":445569,"DIS_CODE":0,"TOWNNAME":"安南區","LI":"溪墘里","LIN":"5鄰","STREET":"海佃路","SECT":"一段","MAREA":" ","LANE":"２４６巷","ALLEY":" ","HOUSE_NO":"４０號","E_COORD97":167257.51000000001,"N_COORD97":2547334.98,"ADDRESS":"海佃路一段２４６巷４０號","OBJECTID":445544},"geometry":{"x":167257.51000000071,"y":2547334.9800000023}},{"attributes":{"ID":445570,"DIS_CODE":0,"TOWNNAME":"安南區","LI":"溪墘里","LIN":"5鄰","STREET":"海佃路","SECT":"一段","MAREA":" ","LANE":"２４６巷","ALLEY":" ","HOUSE_NO":"４２號","E_COORD97":167261.35999999999,"N_COORD97":2547335.7400000002,"ADDRESS":"海佃路一段２４６巷４２號","OBJECTID":445545},"geometry":{"x":167261.36000000034,"y":2547335.7400000021}},{"attributes":{"ID":445571,"DIS_CODE":0,"TOWNNAME":"安南區","LI":"溪墘里","LIN":"5鄰","STREET":"海佃路","SECT":"一段","MAREA":" ","LANE":"２４６巷","ALLEY":" ","HOUSE_NO":"４６號","E_COORD97":167270.98999999999,"N_COORD97":2547337.4300000002,"ADDRESS":"海佃路一段２４６巷４６號","OBJECTID":445546},"geometry":{"x":167270.98999999929,"y":2547337.4300000016}},{"attributes":{"ID":445572,"DIS_CODE":0,"TOWNNAME":"安南區","LI":"溪墘里","LIN":"5鄰","STREET":"海佃路","SECT":"一段","MAREA":" ","LANE":"２４６巷","ALLEY":" ","HOUSE_NO":"４８號","E_COORD97":167275.87,"N_COORD97":2547338.5299999998,"ADDRESS":"海佃路一段２４６巷４８號","OBJECTID":445547},"geometry":{"x":167275.87000000104,"y":2547338.5299999993}},{"attributes":{"ID":445573,"DIS_CODE":0,"TOWNNAME":"安南區","LI":"溪墘里","LIN":"5鄰","STREET":"海佃路","SECT":"一段","MAREA":" ","LANE":"２４６巷","ALLEY":" ","HOUSE_NO":"５２號","E_COORD97":167284.5,"N_COORD97":2547339.9900000002,"ADDRESS":"海佃路一段２４６巷５２號","OBJECTID":445548},"geometry":{"x":167284.50000000093,"y":2547339.9900000002}},{"attributes":{"ID":445574,"DIS_CODE":0,"TOWNNAME":"安南區","LI":"溪墘里","LIN":"5鄰","STREET":"海佃路","SECT":"一段","MAREA":" ","LANE":"２４６巷","ALLEY":" ","HOUSE_NO":"６０號","E_COORD97":167302.81,"N_COORD97":2547344.3199999998,"ADDRESS":"海佃路一段２４６巷６０號","OBJECTID":445549},"geometry":{"x":167302.81000000052,"y":2547344.3200000003}},{"attributes":{"ID":445575,"DIS_CODE":0,"TOWNNAME":"安南區","LI":"溪墘里","LIN":"5鄰","STREET":"海佃路","SECT":"一段","MAREA":" ","LANE":"２４６巷","ALLEY":" ","HOUSE_NO":"６２號","E_COORD97":167307.35999999999,"N_COORD97":2547344.8399999999,"ADDRESS":"海佃路一段２４６巷６２號","OBJECTID":445550},"geometry":{"x":167307.36000000034,"y":2547344.8400000017}},{"attributes":{"ID":445576,"DIS_CODE":0,"TOWNNAME":"安南區","LI":"溪墘里","LIN":"5鄰","STREET":"海佃路","SECT":"一段","MAREA":" ","LANE":"２４６巷","ALLEY":" ","HOUSE_NO":"６４號","E_COORD97":167311.39000000001,"N_COORD97":2547345.4300000002,"ADDRESS":"海佃路一段２４６巷６４號","OBJECTID":445551},"geometry":{"x":167311.38999999966,"y":2547345.4299999997}},{"attributes":{"ID":445577,"DIS_CODE":0,"TOWNNAME":"安南區","LI":"溪墘里","LIN":"5鄰","STREET":"海佃路","SECT":"一段","MAREA":" ","LANE":"２４６巷","ALLEY":" ","HOUSE_NO":"６６號","E_COORD97":167315.94,"N_COORD97":2547346.2999999998,"ADDRESS":"海佃路一段２４６巷６６號","OBJECTID":445552},"geometry":{"x":167315.94000000134,"y":2547346.3000000026}},{"attributes":{"ID":445578,"DIS_CODE":0,"TOWNNAME":"安南區","LI":"溪墘里","LIN":"5鄰","STREET":"海佃路","SECT":"一段","MAREA":" ","LANE":"２４６巷","ALLEY":" ","HOUSE_NO":"８號","E_COORD97":167185.66,"N_COORD97":2547317.3999999999,"ADDRESS":"海佃路一段２４６巷８號","OBJECTID":445553},"geometry":{"x":167185.66000000108,"y":2547317.4000000041}},{"attributes":{"ID":445579,"DIS_CODE":0,"TOWNNAME":"北區","LI":"正風里","LIN":"5鄰","STREET":"公園路","SECT":" ","MAREA":" ","LANE":"９５２巷","ALLEY":" ","HOUSE_NO":"１０號","E_COORD97":169473.54999999999,"N_COORD97":2546238.4700000002,"ADDRESS":"公園路９５２巷１０號","OBJECTID":445554},"geometry":{"x":169473.54999999981,"y":2546238.4700000007}},{"attributes":{"ID":445580,"DIS_CODE":0,"TOWNNAME":"北區","LI":"正風里","LIN":"5鄰","STREET":"公園路","SECT":" ","MAREA":" ","LANE":"９５２巷","ALLEY":" ","HOUSE_NO":"１２號","E_COORD97":169480.12,"N_COORD97":2546237.2599999998,"ADDRESS":"公園路９５２巷１２號","OBJECTID":445555},"geometry":{"x":169480.12000000011,"y":2546237.2600000016}},{"attributes":{"ID":445581,"DIS_CODE":0,"TOWNNAME":"北區","LI":"正風里","LIN":"5鄰","STREET":"公園路","SECT":" ","MAREA":" ","LANE":"９５２巷","ALLEY":" ","HOUSE_NO":"６號","E_COORD97":169462.84,"N_COORD97":2546241.9500000002,"ADDRESS":"公園路９５２巷６號","OBJECTID":445556},"geometry":{"x":169462.83999999985,"y":2546241.9500000011}},{"attributes":{"ID":445582,"DIS_CODE":0,"TOWNNAME":"北區","LI":"正風里","LIN":"5鄰","STREET":"公園路","SECT":" ","MAREA":" ","LANE":"９５２巷","ALLEY":" ","HOUSE_NO":"８號","E_COORD97":169468.10999999999,"N_COORD97":2546240.5800000001,"ADDRESS":"公園路９５２巷８號","OBJECTID":445557},"geometry":{"x":169468.11000000127,"y":2546240.5800000001}},{"attributes":{"ID":445583,"DIS_CODE":0,"TOWNNAME":"新營區","LI":"興業里","LIN":"5鄰","STREET":"公誠街","SECT":" ","MAREA":" ","LANE":"１１巷","ALLEY":" ","HOUSE_NO":"８號","E_COORD97":180325.13,"N_COORD97":2577959.8599999999,"ADDRESS":"公誠街１１巷８號","OBJECTID":445558},"geometry":{"x":180325.13000000082,"y":2577959.8600000013}},{"attributes":{"ID":445584,"DIS_CODE":0,"TOWNNAME":"安平區","LI":"文平里","LIN":"5鄰","STREET":"建平六街","SECT":" ","MAREA":" ","LANE":"８０巷","ALLEY":" ","HOUSE_NO":"１１０號","E_COORD97":166447.63,"N_COORD97":2543125.0600000001,"ADDRESS":"建平六街８０巷１１０號","OBJECTID":445559},"geometry":{"x":166447.63000000175,"y":2543125.0600000005}},{"attributes":{"ID":445585,"DIS_CODE":0,"TOWNNAME":"安平區","LI":"文平里","LIN":"5鄰","STREET":"建平六街","SECT":" ","MAREA":" ","LANE":"８０巷","ALLEY":" ","HOUSE_NO":"１１１號","E_COORD97":166428.25,"N_COORD97":2543134.0499999998,"ADDRESS":"建平六街８０巷１１１號","OBJECTID":445560},"geometry":{"x":166428.25000000186,"y":2543134.0500000026}},{"attributes":{"ID":445586,"DIS_CODE":0,"TOWNNAME":"安平區","LI":"文平里","LIN":"5鄰","STREET":"建平六街","SECT":" ","MAREA":" ","LANE":"８０巷","ALLEY":" ","HOUSE_NO":"１１２號","E_COORD97":166448.66,"N_COORD97":2543132.2599999998,"ADDRESS":"建平六街８０巷１１２號","OBJECTID":445561},"geometry":{"x":166448.66000000015,"y":2543132.2600000016}},{"attributes":{"ID":445587,"DIS_CODE":0,"TOWNNAME":"安平區","LI":"文平里","LIN":"5鄰","STREET":"建平六街","SECT":" ","MAREA":" ","LANE":"８０巷","ALLEY":" ","HOUSE_NO":"１１３號","E_COORD97":166428.85000000001,"N_COORD97":2543141.9300000002,"ADDRESS":"建平六街８０巷１１３號","OBJECTID":445562},"geometry":{"x":166428.85000000149,"y":2543141.9299999997}},{"attributes":{"ID":445588,"DIS_CODE":0,"TOWNNAME":"安平區","LI":"文平里","LIN":"5鄰","STREET":"建平六街","SECT":" ","MAREA":" ","LANE":"８０巷","ALLEY":" ","HOUSE_NO":"１１４號","E_COORD97":166449.60999999999,"N_COORD97":2543139.4500000002,"ADDRESS":"建平六街８０巷１１４號","OBJECTID":445563},"geometry":{"x":166449.61000000034,"y":2543139.4500000011}},{"attributes":{"ID":445589,"DIS_CODE":0,"TOWNNAME":"安平區","LI":"文平里","LIN":"5鄰","STREET":"建平六街","SECT":" ","MAREA":" ","LANE":"８０巷","ALLEY":" ","HOUSE_NO":"１１７號","E_COORD97":166423.88,"N_COORD97":2543155.7400000002,"ADDRESS":"建平六街８０巷１１７號","OBJECTID":445564},"geometry":{"x":166423.88000000175,"y":2543155.7400000021}},{"attributes":{"ID":445590,"DIS_CODE":0,"TOWNNAME":"安平區","LI":"文平里","LIN":"5鄰","STREET":"建平六街","SECT":" ","MAREA":" ","LANE":"８０巷","ALLEY":" ","HOUSE_NO":"１１７號地下層","E_COORD97":166423.88,"N_COORD97":2543155.7400000002,"ADDRESS":"建平六街８０巷１１７號地下層","OBJECTID":445565},"geometry":{"x":166423.88000000175,"y":2543155.7400000021}},{"attributes":{"ID":445591,"DIS_CODE":0,"TOWNNAME":"安平區","LI":"文平里","LIN":"5鄰","STREET":"建平六街","SECT":" ","MAREA":" ","LANE":"８０巷","ALLEY":" ","HOUSE_NO":"１１９號","E_COORD97":166424.64999999999,"N_COORD97":2543162.4300000002,"ADDRESS":"建平六街８０巷１１９號","OBJECTID":445566},"geometry":{"x":166424.6500000013,"y":2543162.4299999997}},{"attributes":{"ID":445592,"DIS_CODE":0,"TOWNNAME":"安平區","LI":"文平里","LIN":"5鄰","STREET":"建平六街","SECT":" ","MAREA":" ","LANE":"８０巷","ALLEY":" ","HOUSE_NO":"１２１號","E_COORD97":166425.07999999999,"N_COORD97":2543169.2799999998,"ADDRESS":"建平六街８０巷１２１號","OBJECTID":445567},"geometry":{"x":166425.08000000101,"y":2543169.2799999993}},{"attributes":{"ID":445593,"DIS_CODE":0,"TOWNNAME":"安平區","LI":"文平里","LIN":"5鄰","STREET":"建平六街","SECT":" ","MAREA":" ","LANE":"８０巷","ALLEY":" ","HOUSE_NO":"１２３號","E_COORD97":166426.28,"N_COORD97":2543176.8700000001,"ADDRESS":"建平六街８０巷１２３號","OBJECTID":445568},"geometry":{"x":166426.28000000026,"y":2543176.8700000029}},{"attributes":{"ID":445594,"DIS_CODE":0,"TOWNNAME":"安平區","LI":"文平里","LIN":"5鄰","STREET":"建平六街","SECT":" ","MAREA":" ","LANE":"８０巷","ALLEY":" ","HOUSE_NO":"１２５號","E_COORD97":166426.88,"N_COORD97":2543185.7799999998,"ADDRESS":"建平六街８０巷１２５號","OBJECTID":445569},"geometry":{"x":166426.87999999989,"y":2543185.7800000012}},{"attributes":{"ID":445595,"DIS_CODE":0,"TOWNNAME":"新營區","LI":"新東里","LIN":"5鄰","STREET":"東大街","SECT":" ","MAREA":" ","LANE":"５２巷","ALLEY":" ","HOUSE_NO":"７號","E_COORD97":181042.57000000001,"N_COORD97":2579150.3399999999,"ADDRESS":"東大街５２巷７號","OBJECTID":445570},"geometry":{"x":181042.57000000123,"y":2579150.3400000017}},{"attributes":{"ID":445596,"DIS_CODE":0,"TOWNNAME":"新營區","LI":"興業里","LIN":"5鄰","STREET":"公誠街","SECT":" ","MAREA":" ","LANE":"１１巷","ALLEY":" ","HOUSE_NO":"４之１號","E_COORD97":180313.32000000001,"N_COORD97":2577959.98,"ADDRESS":"公誠街１１巷４之１號","OBJECTID":445571},"geometry":{"x":180313.31999999937,"y":2577959.9800000023}},{"attributes":{"ID":445597,"DIS_CODE":0,"TOWNNAME":"新營區","LI":"王公里","LIN":"5鄰","STREET":"民治路","SECT":" ","MAREA":" ","LANE":"１８巷","ALLEY":" ","HOUSE_NO":"７號之２","E_COORD97":180341.51000000001,"N_COORD97":2578960.9900000002,"ADDRESS":"民治路１８巷７號之２","OBJECTID":445572},"geometry":{"x":180341.50999999978,"y":2578960.9900000002}},{"attributes":{"ID":445598,"DIS_CODE":0,"TOWNNAME":"新營區","LI":"新東里","LIN":"5鄰","STREET":"東大街","SECT":" ","MAREA":" ","LANE":"５２巷","ALLEY":" ","HOUSE_NO":"５１號","E_COORD97":181154.32000000001,"N_COORD97":2579159.79,"ADDRESS":"東大街５２巷５１號","OBJECTID":445573},"geometry":{"x":181154.32000000216,"y":2579159.790000001}},{"attributes":{"ID":445599,"DIS_CODE":0,"TOWNNAME":"六甲區","LI":"水林里","LIN":"5鄰","STREET":"中山路","SECT":" ","MAREA":" ","LANE":"２２８巷","ALLEY":" ","HOUSE_NO":"１５號","E_COORD97":183108.37,"N_COORD97":2570181.3399999999,"ADDRESS":"中山路２２８巷１５號","OBJECTID":445574},"geometry":{"x":183108.37000000197,"y":2570181.3399999999}},{"attributes":{"ID":445600,"DIS_CODE":0,"TOWNNAME":"六甲區","LI":"水林里","LIN":"5鄰","STREET":"中山路","SECT":" ","MAREA":" ","LANE":"２２８巷","ALLEY":" ","HOUSE_NO":"１號","E_COORD97":183118.73999999999,"N_COORD97":2570150.6200000001,"ADDRESS":"中山路２２８巷１號","OBJECTID":445575},"geometry":{"x":183118.74000000022,"y":2570150.6199999992}},{"attributes":{"ID":445601,"DIS_CODE":0,"TOWNNAME":"六甲區","LI":"水林里","LIN":"5鄰","STREET":"中山路","SECT":" ","MAREA":" ","LANE":"２５４巷","ALLEY":" ","HOUSE_NO":"２號","E_COORD97":183084.89999999999,"N_COORD97":2570169.3399999999,"ADDRESS":"中山路２５４巷２號","OBJECTID":445576},"geometry":{"x":183084.9000000013,"y":2570169.3400000017}},{"attributes":{"ID":445602,"DIS_CODE":0,"TOWNNAME":"六甲區","LI":"水林里","LIN":"5鄰","STREET":"中山路","SECT":" ","MAREA":" ","LANE":"２５４巷","ALLEY":" ","HOUSE_NO":"４號","E_COORD97":183072.64000000001,"N_COORD97":2570165.73,"ADDRESS":"中山路２５４巷４號","OBJECTID":445577},"geometry":{"x":183072.6400000006,"y":2570165.7300000004}},{"attributes":{"ID":445603,"DIS_CODE":0,"TOWNNAME":"六甲區","LI":"水林里","LIN":"5鄰","STREET":"中山路","SECT":" ","MAREA":" ","LANE":"２８０巷","ALLEY":" ","HOUSE_NO":"１０號之１","E_COORD97":183026.10999999999,"N_COORD97":2570192.8999999999,"ADDRESS":"中山路２８０巷１０號之１","OBJECTID":445578},"geometry":{"x":183026.11000000127,"y":2570192.9000000022}},{"attributes":{"ID":445604,"DIS_CODE":0,"TOWNNAME":"六甲區","LI":"水林里","LIN":"5鄰","STREET":"中山路","SECT":" ","MAREA":" ","LANE":"２８０巷","ALLEY":" ","HOUSE_NO":"２０號","E_COORD97":183025.92000000001,"N_COORD97":2570203.3399999999,"ADDRESS":"中山路２８０巷２０號","OBJECTID":445579},"geometry":{"x":183025.91999999993,"y":2570203.3400000017}},{"attributes":{"ID":445605,"DIS_CODE":0,"TOWNNAME":"六甲區","LI":"六甲里","LIN":"5鄰","STREET":"中正路","SECT":" ","MAREA":" ","LANE":"３８９巷","ALLEY":" ","HOUSE_NO":"１號","E_COORD97":183524.95999999999,"N_COORD97":2569652.9900000002,"ADDRESS":"中正路３８９巷１號","OBJECTID":445580},"geometry":{"x":183524.96000000089,"y":2569652.9900000021}},{"attributes":{"ID":445606,"DIS_CODE":0,"TOWNNAME":"六甲區","LI":"六甲里","LIN":"5鄰","STREET":"中正路","SECT":" ","MAREA":" ","LANE":"３８９巷","ALLEY":" ","HOUSE_NO":"２之１號","E_COORD97":183525.73000000001,"N_COORD97":2569683.4300000002,"ADDRESS":"中正路３８９巷２之１號","OBJECTID":445581},"geometry":{"x":183525.73000000045,"y":2569683.4300000016}},{"attributes":{"ID":445607,"DIS_CODE":0,"TOWNNAME":"六甲區","LI":"六甲里","LIN":"5鄰","STREET":"中正路","SECT":" ","MAREA":" ","LANE":"３８９巷","ALLEY":" ","HOUSE_NO":"２號","E_COORD97":183522.35000000001,"N_COORD97":2569670.02,"ADDRESS":"中正路３８９巷２號","OBJECTID":445582},"geometry":{"x":183522.34999999963,"y":2569670.0200000014}},{"attributes":{"ID":445608,"DIS_CODE":0,"TOWNNAME":"六甲區","LI":"六甲里","LIN":"5鄰","STREET":"中正路","SECT":" ","MAREA":" ","LANE":"３８９巷","ALLEY":" ","HOUSE_NO":"３號","E_COORD97":183513.01000000001,"N_COORD97":2569656.8100000001,"ADDRESS":"中正路３８９巷３號","OBJECTID":445583},"geometry":{"x":183513.00999999978,"y":2569656.8100000005}},{"attributes":{"ID":445609,"DIS_CODE":0,"TOWNNAME":"六甲區","LI":"六甲里","LIN":"5鄰","STREET":"中正路","SECT":" ","MAREA":" ","LANE":"３８９巷","ALLEY":" ","HOUSE_NO":"４號","E_COORD97":183503.82999999999,"N_COORD97":2569681.9399999999,"ADDRESS":"中正路３８９巷４號","OBJECTID":445584},"geometry":{"x":183503.83000000101,"y":2569681.9399999995}},{"attributes":{"ID":445610,"DIS_CODE":0,"TOWNNAME":"六甲區","LI":"六甲里","LIN":"5鄰","STREET":"中正路","SECT":" ","MAREA":" ","LANE":"３８９巷","ALLEY":" ","HOUSE_NO":"５號","E_COORD97":183494.64999999999,"N_COORD97":2569663.8999999999,"ADDRESS":"中正路３８９巷５號","OBJECTID":445585},"geometry":{"x":183494.65000000037,"y":2569663.9000000022}},{"attributes":{"ID":445611,"DIS_CODE":0,"TOWNNAME":"六甲區","LI":"六甲里","LIN":"5鄰","STREET":"中正路","SECT":" ","MAREA":" ","LANE":"３８９巷","ALLEY":" ","HOUSE_NO":"６號","E_COORD97":183508.54999999999,"N_COORD97":2569689.96,"ADDRESS":"中正路３８９巷６號","OBJECTID":445586},"geometry":{"x":183508.55000000168,"y":2569689.9600000009}},{"attributes":{"ID":445612,"DIS_CODE":0,"TOWNNAME":"六甲區","LI":"六甲里","LIN":"5鄰","STREET":"中正路","SECT":" ","MAREA":" ","LANE":"４２３巷","ALLEY":" ","HOUSE_NO":"９號","E_COORD97":183533.19,"N_COORD97":2569723.4399999999,"ADDRESS":"中正路４２３巷９號","OBJECTID":445587},"geometry":{"x":183533.19000000041,"y":2569723.4400000032}},{"attributes":{"ID":445613,"DIS_CODE":0,"TOWNNAME":"六甲區","LI":"龍湖里","LIN":"5鄰","STREET":"中華路","SECT":" ","MAREA":" ","LANE":"２１５巷","ALLEY":" ","HOUSE_NO":"１４號","E_COORD97":183124.07000000001,"N_COORD97":2569203.25,"ADDRESS":"中華路２１５巷１４號","OBJECTID":445588},"geometry":{"x":183124.07000000216,"y":2569203.2500000019}},{"attributes":{"ID":445614,"DIS_CODE":0,"TOWNNAME":"六甲區","LI":"龍湖里","LIN":"5鄰","STREET":"中華路","SECT":" ","MAREA":" ","LANE":"２１５巷","ALLEY":" ","HOUSE_NO":"２號之１","E_COORD97":183109.26000000001,"N_COORD97":2569243.21,"ADDRESS":"中華路２１５巷２號之１","OBJECTID":445589},"geometry":{"x":183109.26000000071,"y":2569243.2100000009}},{"attributes":{"ID":445615,"DIS_CODE":0,"TOWNNAME":"六甲區","LI":"龍湖里","LIN":"5鄰","STREET":"中華路","SECT":" ","MAREA":" ","LANE":"２１５巷","ALLEY":" ","HOUSE_NO":"２號","E_COORD97":183099.79999999999,"N_COORD97":2569248.71,"ADDRESS":"中華路２１５巷２號","OBJECTID":445590},"geometry":{"x":183099.79999999888,"y":2569248.7100000028}},{"attributes":{"ID":445616,"DIS_CODE":0,"TOWNNAME":"六甲區","LI":"龍湖里","LIN":"5鄰","STREET":"中華路","SECT":" ","MAREA":" ","LANE":"２１５巷","ALLEY":" ","HOUSE_NO":"６號","E_COORD97":183116.73999999999,"N_COORD97":2569222.9100000001,"ADDRESS":"中華路２１５巷６號","OBJECTID":445591},"geometry":{"x":183116.74000000115,"y":2569222.910000002}},{"attributes":{"ID":445617,"DIS_CODE":0,"TOWNNAME":"六甲區","LI":"龍湖里","LIN":"5鄰","STREET":"中華路","SECT":" ","MAREA":" ","LANE":"２３１巷","ALLEY":" ","HOUSE_NO":"４號","E_COORD97":183062.32000000001,"N_COORD97":2569191.6200000001,"ADDRESS":"中華路２３１巷４號","OBJECTID":445592},"geometry":{"x":183062.3200000003,"y":2569191.6200000029}},{"attributes":{"ID":445618,"DIS_CODE":0,"TOWNNAME":"六甲區","LI":"水林里","LIN":"5鄰","STREET":"民族街","SECT":" ","MAREA":" ","LANE":"２７５巷","ALLEY":" ","HOUSE_NO":"３１號","E_COORD97":183088.67000000001,"N_COORD97":2570212.4399999999,"ADDRESS":"民族街２７５巷３１號","OBJECTID":445593},"geometry":{"x":183088.66999999993,"y":2570212.4400000013}},{"attributes":{"ID":445619,"DIS_CODE":0,"TOWNNAME":"六甲區","LI":"水林里","LIN":"5鄰","STREET":"民族街","SECT":" ","MAREA":" ","LANE":"２７５巷","ALLEY":" ","HOUSE_NO":"３３號","E_COORD97":183083.85000000001,"N_COORD97":2570212.0499999998,"ADDRESS":"民族街２７５巷３３號","OBJECTID":445594},"geometry":{"x":183083.84999999963,"y":2570212.0500000045}},{"attributes":{"ID":445620,"DIS_CODE":0,"TOWNNAME":"六甲區","LI":"水林里","LIN":"5鄰","STREET":"民族街","SECT":" ","MAREA":" ","LANE":"２７５巷","ALLEY":" ","HOUSE_NO":"３７號","E_COORD97":183075,"N_COORD97":2570211.5499999998,"ADDRESS":"民族街２７５巷３７號","OBJECTID":445595},"geometry":{"x":183075.00000000186,"y":2570211.5500000007}},{"attributes":{"ID":445621,"DIS_CODE":0,"TOWNNAME":"六甲區","LI":"水林里","LIN":"5鄰","STREET":"民族街","SECT":" ","MAREA":" ","LANE":"２７５巷","ALLEY":" ","HOUSE_NO":"３９號","E_COORD97":183069.85999999999,"N_COORD97":2570211.5800000001,"ADDRESS":"民族街２７５巷３９號","OBJECTID":445596},"geometry":{"x":183069.86000000127,"y":2570211.5800000019}},{"attributes":{"ID":445622,"DIS_CODE":0,"TOWNNAME":"六甲區","LI":"水林里","LIN":"5鄰","STREET":"民族街","SECT":" ","MAREA":" ","LANE":"２７５巷","ALLEY":" ","HOUSE_NO":"４１號","E_COORD97":183065.53,"N_COORD97":2570211.2999999998,"ADDRESS":"民族街２７５巷４１號","OBJECTID":445597},"geometry":{"x":183065.53000000119,"y":2570211.3000000026}},{"attributes":{"ID":445623,"DIS_CODE":0,"TOWNNAME":"柳營區","LI":"中埕里","LIN":"5鄰","STREET":"中山西路","SECT":"二段","MAREA":" ","LANE":"７９巷","ALLEY":" ","HOUSE_NO":"１０號","E_COORD97":179968.67000000001,"N_COORD97":2575060.75,"ADDRESS":"中山西路二段７９巷１０號","OBJECTID":445598},"geometry":{"x":179968.67000000086,"y":2575060.75}},{"attributes":{"ID":445624,"DIS_CODE":0,"TOWNNAME":"柳營區","LI":"中埕里","LIN":"5鄰","STREET":"中山西路","SECT":"二段","MAREA":" ","LANE":"７９巷","ALLEY":" ","HOUSE_NO":"１２號","E_COORD97":179970.22,"N_COORD97":2575056.8700000001,"ADDRESS":"中山西路二段７９巷１２號","OBJECTID":445599},"geometry":{"x":179970.21999999974,"y":2575056.870000001}},{"attributes":{"ID":445625,"DIS_CODE":0,"TOWNNAME":"柳營區","LI":"中埕里","LIN":"5鄰","STREET":"中山西路","SECT":"二段","MAREA":" ","LANE":"７９巷","ALLEY":" ","HOUSE_NO":"１６號","E_COORD97":179971.98000000001,"N_COORD97":2575052.2200000002,"ADDRESS":"中山西路二段７９巷１６號","OBJECTID":445600},"geometry":{"x":179971.98000000138,"y":2575052.2200000044}}]}