{"displayFieldName":"TOWNNAME","fieldAliases":{"ID":"ID","DIS_CODE":"DIS_CODE","TOWNNAME":"TOWNNAME","LI":"LI","LIN":"LIN","STREET":"STREET","SECT":"SECT","MAREA":"MAREA","LANE":"LANE","ALLEY":"ALLEY","HOUSE_NO":"HOUSE_NO","E_COORD97":"E_COORD97","N_COORD97":"N_COORD97","ADDRESS":"ADDRESS","OBJECTID":"OBJECTID"},"geometryType":"esriGeometryPoint","spatialReference":{"wkid":102443,"latestWkid":3826},"fields":[{"name":"ID","type":"esriFieldTypeDouble","alias":"ID"},{"name":"DIS_CODE","type":"esriFieldTypeInteger","alias":"DIS_CODE"},{"name":"TOWNNAME","type":"esriFieldTypeString","alias":"TOWNNAME","length":8},{"name":"LI","type":"esriFieldTypeString","alias":"LI","length":8},{"name":"LIN","type":"esriFieldTypeString","alias":"LIN","length":12},{"name":"STREET","type":"esriFieldTypeString","alias":"STREET","length":20},{"name":"SECT","type":"esriFieldTypeString","alias":"SECT","length":8},{"name":"MAREA","type":"esriFieldTypeString","alias":"MAREA","length":12},{"name":"LANE","type":"esriFieldTypeString","alias":"LANE","length":10},{"name":"ALLEY","type":"esriFieldTypeString","alias":"ALLEY","length":10},{"name":"HOUSE_NO","type":"esriFieldTypeString","alias":"HOUSE_NO","length":20},{"name":"E_COORD97","type":"esriFieldTypeDouble","alias":"E_COORD97"},{"name":"N_COORD97","type":"esriFieldTypeDouble","alias":"N_COORD97"},{"name":"ADDRESS","type":"esriFieldTypeString","alias":"ADDRESS","length":50},{"name":"OBJECTID","type":"esriFieldTypeOID","alias":"OBJECTID"}],"features":[{"attributes":{"ID":535028,"DIS_CODE":0,"TOWNNAME":"東區","LI":"成大里","LIN":"19鄰","STREET":"勝利路","SECT":" ","MAREA":" ","LANE":" ","ALLEY":" ","HOUSE_NO":"１１５號五樓之９","E_COORD97":169820.38,"N_COORD97":2543885.6099999999,"ADDRESS":"勝利路１１５號五樓之９","OBJECTID":535001},"geometry":{"x":169820.37999999989,"y":2543885.6099999994}},{"attributes":{"ID":535029,"DIS_CODE":0,"TOWNNAME":"東區","LI":"成大里","LIN":"19鄰","STREET":"勝利路","SECT":" ","MAREA":" ","LANE":" ","ALLEY":" ","HOUSE_NO":"１１５號六樓之１","E_COORD97":169820.38,"N_COORD97":2543885.6099999999,"ADDRESS":"勝利路１１５號六樓之１","OBJECTID":535002},"geometry":{"x":169820.37999999989,"y":2543885.6099999994}},{"attributes":{"ID":535030,"DIS_CODE":0,"TOWNNAME":"東區","LI":"成大里","LIN":"19鄰","STREET":"勝利路","SECT":" ","MAREA":" ","LANE":" ","ALLEY":" ","HOUSE_NO":"１１５號六樓之１０","E_COORD97":169820.38,"N_COORD97":2543885.6099999999,"ADDRESS":"勝利路１１５號六樓之１０","OBJECTID":535003},"geometry":{"x":169820.37999999989,"y":2543885.6099999994}},{"attributes":{"ID":535031,"DIS_CODE":0,"TOWNNAME":"東區","LI":"成大里","LIN":"19鄰","STREET":"勝利路","SECT":" ","MAREA":" ","LANE":" ","ALLEY":" ","HOUSE_NO":"１１５號六樓之１１","E_COORD97":169820.38,"N_COORD97":2543885.6099999999,"ADDRESS":"勝利路１１５號六樓之１１","OBJECTID":535004},"geometry":{"x":169820.37999999989,"y":2543885.6099999994}},{"attributes":{"ID":535032,"DIS_CODE":0,"TOWNNAME":"東區","LI":"成大里","LIN":"19鄰","STREET":"勝利路","SECT":" ","MAREA":" ","LANE":" ","ALLEY":" ","HOUSE_NO":"１１５號六樓之１２","E_COORD97":169820.38,"N_COORD97":2543885.6099999999,"ADDRESS":"勝利路１１５號六樓之１２","OBJECTID":535005},"geometry":{"x":169820.37999999989,"y":2543885.6099999994}},{"attributes":{"ID":535033,"DIS_CODE":0,"TOWNNAME":"東區","LI":"成大里","LIN":"19鄰","STREET":"勝利路","SECT":" ","MAREA":" ","LANE":" ","ALLEY":" ","HOUSE_NO":"１１５號六樓之１３","E_COORD97":169820.38,"N_COORD97":2543885.6099999999,"ADDRESS":"勝利路１１５號六樓之１３","OBJECTID":535006},"geometry":{"x":169820.37999999989,"y":2543885.6099999994}},{"attributes":{"ID":535034,"DIS_CODE":0,"TOWNNAME":"東區","LI":"成大里","LIN":"19鄰","STREET":"勝利路","SECT":" ","MAREA":" ","LANE":" ","ALLEY":" ","HOUSE_NO":"１１５號六樓之１４","E_COORD97":169820.38,"N_COORD97":2543885.6099999999,"ADDRESS":"勝利路１１５號六樓之１４","OBJECTID":535007},"geometry":{"x":169820.37999999989,"y":2543885.6099999994}},{"attributes":{"ID":535035,"DIS_CODE":0,"TOWNNAME":"東區","LI":"成大里","LIN":"19鄰","STREET":"勝利路","SECT":" ","MAREA":" ","LANE":" ","ALLEY":" ","HOUSE_NO":"１１５號六樓之１５","E_COORD97":169820.38,"N_COORD97":2543885.6099999999,"ADDRESS":"勝利路１１５號六樓之１５","OBJECTID":535008},"geometry":{"x":169820.37999999989,"y":2543885.6099999994}},{"attributes":{"ID":535036,"DIS_CODE":0,"TOWNNAME":"東區","LI":"成大里","LIN":"19鄰","STREET":"勝利路","SECT":" ","MAREA":" ","LANE":" ","ALLEY":" ","HOUSE_NO":"１１５號六樓之２","E_COORD97":169820.38,"N_COORD97":2543885.6099999999,"ADDRESS":"勝利路１１５號六樓之２","OBJECTID":535009},"geometry":{"x":169820.37999999989,"y":2543885.6099999994}},{"attributes":{"ID":535037,"DIS_CODE":0,"TOWNNAME":"東區","LI":"成大里","LIN":"19鄰","STREET":"勝利路","SECT":" ","MAREA":" ","LANE":" ","ALLEY":" ","HOUSE_NO":"１１５號六樓之３","E_COORD97":169820.38,"N_COORD97":2543885.6099999999,"ADDRESS":"勝利路１１５號六樓之３","OBJECTID":535010},"geometry":{"x":169820.37999999989,"y":2543885.6099999994}},{"attributes":{"ID":535038,"DIS_CODE":0,"TOWNNAME":"東區","LI":"成大里","LIN":"19鄰","STREET":"勝利路","SECT":" ","MAREA":" ","LANE":" ","ALLEY":" ","HOUSE_NO":"１１５號六樓之４","E_COORD97":169820.38,"N_COORD97":2543885.6099999999,"ADDRESS":"勝利路１１５號六樓之４","OBJECTID":535011},"geometry":{"x":169820.37999999989,"y":2543885.6099999994}},{"attributes":{"ID":535039,"DIS_CODE":0,"TOWNNAME":"東區","LI":"成大里","LIN":"19鄰","STREET":"勝利路","SECT":" ","MAREA":" ","LANE":" ","ALLEY":" ","HOUSE_NO":"１１５號六樓之５","E_COORD97":169820.38,"N_COORD97":2543885.6099999999,"ADDRESS":"勝利路１１５號六樓之５","OBJECTID":535012},"geometry":{"x":169820.37999999989,"y":2543885.6099999994}},{"attributes":{"ID":535040,"DIS_CODE":0,"TOWNNAME":"東區","LI":"成大里","LIN":"19鄰","STREET":"勝利路","SECT":" ","MAREA":" ","LANE":" ","ALLEY":" ","HOUSE_NO":"１１５號六樓之６","E_COORD97":169820.38,"N_COORD97":2543885.6099999999,"ADDRESS":"勝利路１１５號六樓之６","OBJECTID":535013},"geometry":{"x":169820.37999999989,"y":2543885.6099999994}},{"attributes":{"ID":535041,"DIS_CODE":0,"TOWNNAME":"東區","LI":"成大里","LIN":"19鄰","STREET":"勝利路","SECT":" ","MAREA":" ","LANE":" ","ALLEY":" ","HOUSE_NO":"１１５號六樓之７","E_COORD97":169820.38,"N_COORD97":2543885.6099999999,"ADDRESS":"勝利路１１５號六樓之７","OBJECTID":535014},"geometry":{"x":169820.37999999989,"y":2543885.6099999994}},{"attributes":{"ID":535042,"DIS_CODE":0,"TOWNNAME":"東區","LI":"成大里","LIN":"19鄰","STREET":"勝利路","SECT":" ","MAREA":" ","LANE":" ","ALLEY":" ","HOUSE_NO":"１１５號六樓之８","E_COORD97":169820.38,"N_COORD97":2543885.6099999999,"ADDRESS":"勝利路１１５號六樓之８","OBJECTID":535015},"geometry":{"x":169820.37999999989,"y":2543885.6099999994}},{"attributes":{"ID":535043,"DIS_CODE":0,"TOWNNAME":"東區","LI":"成大里","LIN":"19鄰","STREET":"勝利路","SECT":" ","MAREA":" ","LANE":" ","ALLEY":" ","HOUSE_NO":"１１５號六樓之９","E_COORD97":169820.38,"N_COORD97":2543885.6099999999,"ADDRESS":"勝利路１１５號六樓之９","OBJECTID":535016},"geometry":{"x":169820.37999999989,"y":2543885.6099999994}},{"attributes":{"ID":535044,"DIS_CODE":0,"TOWNNAME":"東區","LI":"成大里","LIN":"19鄰","STREET":"勝利路","SECT":" ","MAREA":" ","LANE":" ","ALLEY":" ","HOUSE_NO":"１１５號四樓之１","E_COORD97":169820.38,"N_COORD97":2543885.6099999999,"ADDRESS":"勝利路１１５號四樓之１","OBJECTID":535017},"geometry":{"x":169820.37999999989,"y":2543885.6099999994}},{"attributes":{"ID":535045,"DIS_CODE":0,"TOWNNAME":"東區","LI":"成大里","LIN":"19鄰","STREET":"勝利路","SECT":" ","MAREA":" ","LANE":" ","ALLEY":" ","HOUSE_NO":"１１５號四樓之１０","E_COORD97":169820.38,"N_COORD97":2543885.6099999999,"ADDRESS":"勝利路１１５號四樓之１０","OBJECTID":535018},"geometry":{"x":169820.37999999989,"y":2543885.6099999994}},{"attributes":{"ID":535046,"DIS_CODE":0,"TOWNNAME":"東區","LI":"成大里","LIN":"19鄰","STREET":"勝利路","SECT":" ","MAREA":" ","LANE":" ","ALLEY":" ","HOUSE_NO":"１１５號四樓之１１","E_COORD97":169820.38,"N_COORD97":2543885.6099999999,"ADDRESS":"勝利路１１５號四樓之１１","OBJECTID":535019},"geometry":{"x":169820.37999999989,"y":2543885.6099999994}},{"attributes":{"ID":535047,"DIS_CODE":0,"TOWNNAME":"東區","LI":"成大里","LIN":"19鄰","STREET":"勝利路","SECT":" ","MAREA":" ","LANE":" ","ALLEY":" ","HOUSE_NO":"１１５號四樓之１２","E_COORD97":169820.38,"N_COORD97":2543885.6099999999,"ADDRESS":"勝利路１１５號四樓之１２","OBJECTID":535020},"geometry":{"x":169820.37999999989,"y":2543885.6099999994}},{"attributes":{"ID":535048,"DIS_CODE":0,"TOWNNAME":"東區","LI":"成大里","LIN":"19鄰","STREET":"勝利路","SECT":" ","MAREA":" ","LANE":" ","ALLEY":" ","HOUSE_NO":"１１５號四樓之１３","E_COORD97":169820.38,"N_COORD97":2543885.6099999999,"ADDRESS":"勝利路１１５號四樓之１３","OBJECTID":535021},"geometry":{"x":169820.37999999989,"y":2543885.6099999994}},{"attributes":{"ID":535049,"DIS_CODE":0,"TOWNNAME":"東區","LI":"成大里","LIN":"19鄰","STREET":"勝利路","SECT":" ","MAREA":" ","LANE":" ","ALLEY":" ","HOUSE_NO":"１１５號四樓之１８","E_COORD97":169820.38,"N_COORD97":2543885.6099999999,"ADDRESS":"勝利路１１５號四樓之１８","OBJECTID":535022},"geometry":{"x":169820.37999999989,"y":2543885.6099999994}},{"attributes":{"ID":535050,"DIS_CODE":0,"TOWNNAME":"東區","LI":"成大里","LIN":"19鄰","STREET":"勝利路","SECT":" ","MAREA":" ","LANE":" ","ALLEY":" ","HOUSE_NO":"１１５號四樓之１５","E_COORD97":169820.38,"N_COORD97":2543885.6099999999,"ADDRESS":"勝利路１１５號四樓之１５","OBJECTID":535023},"geometry":{"x":169820.37999999989,"y":2543885.6099999994}},{"attributes":{"ID":535051,"DIS_CODE":0,"TOWNNAME":"東區","LI":"成大里","LIN":"19鄰","STREET":"勝利路","SECT":" ","MAREA":" ","LANE":" ","ALLEY":" ","HOUSE_NO":"１１５號四樓之２","E_COORD97":169820.38,"N_COORD97":2543885.6099999999,"ADDRESS":"勝利路１１５號四樓之２","OBJECTID":535024},"geometry":{"x":169820.37999999989,"y":2543885.6099999994}},{"attributes":{"ID":535052,"DIS_CODE":0,"TOWNNAME":"東區","LI":"成大里","LIN":"19鄰","STREET":"勝利路","SECT":" ","MAREA":" ","LANE":" ","ALLEY":" ","HOUSE_NO":"１１５號四樓之３","E_COORD97":169820.38,"N_COORD97":2543885.6099999999,"ADDRESS":"勝利路１１５號四樓之３","OBJECTID":535025},"geometry":{"x":169820.37999999989,"y":2543885.6099999994}},{"attributes":{"ID":535053,"DIS_CODE":0,"TOWNNAME":"東區","LI":"成大里","LIN":"19鄰","STREET":"勝利路","SECT":" ","MAREA":" ","LANE":" ","ALLEY":" ","HOUSE_NO":"１１５號四樓之５","E_COORD97":169820.38,"N_COORD97":2543885.6099999999,"ADDRESS":"勝利路１１５號四樓之５","OBJECTID":535026},"geometry":{"x":169820.37999999989,"y":2543885.6099999994}},{"attributes":{"ID":535054,"DIS_CODE":0,"TOWNNAME":"東區","LI":"成大里","LIN":"19鄰","STREET":"勝利路","SECT":" ","MAREA":" ","LANE":" ","ALLEY":" ","HOUSE_NO":"１１５號四樓之６","E_COORD97":169820.38,"N_COORD97":2543885.6099999999,"ADDRESS":"勝利路１１５號四樓之６","OBJECTID":535027},"geometry":{"x":169820.37999999989,"y":2543885.6099999994}},{"attributes":{"ID":535055,"DIS_CODE":0,"TOWNNAME":"東區","LI":"成大里","LIN":"19鄰","STREET":"勝利路","SECT":" ","MAREA":" ","LANE":" ","ALLEY":" ","HOUSE_NO":"１１５號四樓之７","E_COORD97":169820.38,"N_COORD97":2543885.6099999999,"ADDRESS":"勝利路１１５號四樓之７","OBJECTID":535028},"geometry":{"x":169820.37999999989,"y":2543885.6099999994}},{"attributes":{"ID":535056,"DIS_CODE":0,"TOWNNAME":"東區","LI":"成大里","LIN":"19鄰","STREET":"勝利路","SECT":" ","MAREA":" ","LANE":" ","ALLEY":" ","HOUSE_NO":"１１５號四樓之８","E_COORD97":169820.38,"N_COORD97":2543885.6099999999,"ADDRESS":"勝利路１１５號四樓之８","OBJECTID":535029},"geometry":{"x":169820.37999999989,"y":2543885.6099999994}},{"attributes":{"ID":535057,"DIS_CODE":0,"TOWNNAME":"東區","LI":"成大里","LIN":"19鄰","STREET":"勝利路","SECT":" ","MAREA":" ","LANE":" ","ALLEY":" ","HOUSE_NO":"１１５號四樓之９","E_COORD97":169820.38,"N_COORD97":2543885.6099999999,"ADDRESS":"勝利路１１５號四樓之９","OBJECTID":535030},"geometry":{"x":169820.37999999989,"y":2543885.6099999994}},{"attributes":{"ID":535058,"DIS_CODE":0,"TOWNNAME":"東區","LI":"東智里","LIN":"19鄰","STREET":"崇德路","SECT":" ","MAREA":" ","LANE":" ","ALLEY":" ","HOUSE_NO":"９０９號七樓","E_COORD97":170796.29000000001,"N_COORD97":2540401.98,"ADDRESS":"崇德路９０９號七樓","OBJECTID":535031},"geometry":{"x":170796.29000000004,"y":2540401.9800000023}},{"attributes":{"ID":535059,"DIS_CODE":0,"TOWNNAME":"東區","LI":"東智里","LIN":"19鄰","STREET":"崇德路","SECT":" ","MAREA":" ","LANE":" ","ALLEY":" ","HOUSE_NO":"９０９號七樓之１","E_COORD97":170796.29000000001,"N_COORD97":2540401.98,"ADDRESS":"崇德路９０９號七樓之１","OBJECTID":535032},"geometry":{"x":170796.29000000004,"y":2540401.9800000023}},{"attributes":{"ID":535060,"DIS_CODE":0,"TOWNNAME":"東區","LI":"東智里","LIN":"19鄰","STREET":"崇德路","SECT":" ","MAREA":" ","LANE":" ","ALLEY":" ","HOUSE_NO":"９０９號三樓","E_COORD97":170796.29000000001,"N_COORD97":2540401.98,"ADDRESS":"崇德路９０９號三樓","OBJECTID":535033},"geometry":{"x":170796.29000000004,"y":2540401.9800000023}},{"attributes":{"ID":535061,"DIS_CODE":0,"TOWNNAME":"東區","LI":"東智里","LIN":"19鄰","STREET":"崇德路","SECT":" ","MAREA":" ","LANE":" ","ALLEY":" ","HOUSE_NO":"９０９號三樓之１","E_COORD97":170796.29000000001,"N_COORD97":2540401.98,"ADDRESS":"崇德路９０９號三樓之１","OBJECTID":535034},"geometry":{"x":170796.29000000004,"y":2540401.9800000023}},{"attributes":{"ID":535062,"DIS_CODE":0,"TOWNNAME":"東區","LI":"東智里","LIN":"19鄰","STREET":"崇德路","SECT":" ","MAREA":" ","LANE":" ","ALLEY":" ","HOUSE_NO":"９０９號五樓","E_COORD97":170796.29000000001,"N_COORD97":2540401.98,"ADDRESS":"崇德路９０９號五樓","OBJECTID":535035},"geometry":{"x":170796.29000000004,"y":2540401.9800000023}},{"attributes":{"ID":535063,"DIS_CODE":0,"TOWNNAME":"東區","LI":"東智里","LIN":"19鄰","STREET":"崇德路","SECT":" ","MAREA":" ","LANE":" ","ALLEY":" ","HOUSE_NO":"９０９號五樓之１","E_COORD97":170796.29000000001,"N_COORD97":2540401.98,"ADDRESS":"崇德路９０９號五樓之１","OBJECTID":535036},"geometry":{"x":170796.29000000004,"y":2540401.9800000023}},{"attributes":{"ID":535064,"DIS_CODE":0,"TOWNNAME":"東區","LI":"東智里","LIN":"19鄰","STREET":"崇德路","SECT":" ","MAREA":" ","LANE":" ","ALLEY":" ","HOUSE_NO":"９０９號六樓","E_COORD97":170796.29000000001,"N_COORD97":2540401.98,"ADDRESS":"崇德路９０９號六樓","OBJECTID":535037},"geometry":{"x":170796.29000000004,"y":2540401.9800000023}},{"attributes":{"ID":535065,"DIS_CODE":0,"TOWNNAME":"東區","LI":"東智里","LIN":"19鄰","STREET":"崇德路","SECT":" ","MAREA":" ","LANE":" ","ALLEY":" ","HOUSE_NO":"９０９號六樓之１","E_COORD97":170796.29000000001,"N_COORD97":2540401.98,"ADDRESS":"崇德路９０９號六樓之１","OBJECTID":535038},"geometry":{"x":170796.29000000004,"y":2540401.9800000023}},{"attributes":{"ID":535066,"DIS_CODE":0,"TOWNNAME":"東區","LI":"東智里","LIN":"19鄰","STREET":"崇德路","SECT":" ","MAREA":" ","LANE":" ","ALLEY":" ","HOUSE_NO":"９０９號四樓","E_COORD97":170796.29000000001,"N_COORD97":2540401.98,"ADDRESS":"崇德路９０９號四樓","OBJECTID":535039},"geometry":{"x":170796.29000000004,"y":2540401.9800000023}},{"attributes":{"ID":535067,"DIS_CODE":0,"TOWNNAME":"東區","LI":"東智里","LIN":"19鄰","STREET":"崇德路","SECT":" ","MAREA":" ","LANE":" ","ALLEY":" ","HOUSE_NO":"９０９號四樓之１","E_COORD97":170796.29000000001,"N_COORD97":2540401.98,"ADDRESS":"崇德路９０９號四樓之１","OBJECTID":535040},"geometry":{"x":170796.29000000004,"y":2540401.9800000023}},{"attributes":{"ID":535068,"DIS_CODE":0,"TOWNNAME":"東區","LI":"東智里","LIN":"19鄰","STREET":"崇德路","SECT":" ","MAREA":" ","LANE":" ","ALLEY":" ","HOUSE_NO":"９１９號七樓","E_COORD97":170796.60999999999,"N_COORD97":2540370.1899999999,"ADDRESS":"崇德路９１９號七樓","OBJECTID":535041},"geometry":{"x":170796.61000000127,"y":2540370.1899999995}},{"attributes":{"ID":535069,"DIS_CODE":0,"TOWNNAME":"東區","LI":"東智里","LIN":"19鄰","STREET":"崇德路","SECT":" ","MAREA":" ","LANE":" ","ALLEY":" ","HOUSE_NO":"９１９號七樓之１","E_COORD97":170796.60999999999,"N_COORD97":2540370.1899999999,"ADDRESS":"崇德路９１９號七樓之１","OBJECTID":535042},"geometry":{"x":170796.61000000127,"y":2540370.1899999995}},{"attributes":{"ID":535070,"DIS_CODE":0,"TOWNNAME":"東區","LI":"東智里","LIN":"19鄰","STREET":"崇德路","SECT":" ","MAREA":" ","LANE":" ","ALLEY":" ","HOUSE_NO":"９１９號三樓","E_COORD97":170796.60999999999,"N_COORD97":2540370.1899999999,"ADDRESS":"崇德路９１９號三樓","OBJECTID":535043},"geometry":{"x":170796.61000000127,"y":2540370.1899999995}},{"attributes":{"ID":535071,"DIS_CODE":0,"TOWNNAME":"東區","LI":"東智里","LIN":"19鄰","STREET":"崇德路","SECT":" ","MAREA":" ","LANE":" ","ALLEY":" ","HOUSE_NO":"９１９號三樓之１","E_COORD97":170796.60999999999,"N_COORD97":2540370.1899999999,"ADDRESS":"崇德路９１９號三樓之１","OBJECTID":535044},"geometry":{"x":170796.61000000127,"y":2540370.1899999995}},{"attributes":{"ID":535072,"DIS_CODE":0,"TOWNNAME":"東區","LI":"東智里","LIN":"19鄰","STREET":"崇德路","SECT":" ","MAREA":" ","LANE":" ","ALLEY":" ","HOUSE_NO":"９１９號五樓","E_COORD97":170796.60999999999,"N_COORD97":2540370.1899999999,"ADDRESS":"崇德路９１９號五樓","OBJECTID":535045},"geometry":{"x":170796.61000000127,"y":2540370.1899999995}},{"attributes":{"ID":535073,"DIS_CODE":0,"TOWNNAME":"東區","LI":"東智里","LIN":"19鄰","STREET":"崇德路","SECT":" ","MAREA":" ","LANE":" ","ALLEY":" ","HOUSE_NO":"９１９號五樓之１","E_COORD97":170796.60999999999,"N_COORD97":2540370.1899999999,"ADDRESS":"崇德路９１９號五樓之１","OBJECTID":535046},"geometry":{"x":170796.61000000127,"y":2540370.1899999995}},{"attributes":{"ID":535074,"DIS_CODE":0,"TOWNNAME":"東區","LI":"東智里","LIN":"19鄰","STREET":"崇德路","SECT":" ","MAREA":" ","LANE":" ","ALLEY":" ","HOUSE_NO":"９１９號六樓","E_COORD97":170796.60999999999,"N_COORD97":2540370.1899999999,"ADDRESS":"崇德路９１９號六樓","OBJECTID":535047},"geometry":{"x":170796.61000000127,"y":2540370.1899999995}},{"attributes":{"ID":535075,"DIS_CODE":0,"TOWNNAME":"東區","LI":"東智里","LIN":"19鄰","STREET":"崇德路","SECT":" ","MAREA":" ","LANE":" ","ALLEY":" ","HOUSE_NO":"９１９號六樓之１","E_COORD97":170796.60999999999,"N_COORD97":2540370.1899999999,"ADDRESS":"崇德路９１９號六樓之１","OBJECTID":535048},"geometry":{"x":170796.61000000127,"y":2540370.1899999995}},{"attributes":{"ID":535076,"DIS_CODE":0,"TOWNNAME":"東區","LI":"東智里","LIN":"19鄰","STREET":"崇德路","SECT":" ","MAREA":" ","LANE":" ","ALLEY":" ","HOUSE_NO":"９１９號四樓","E_COORD97":170796.60999999999,"N_COORD97":2540370.1899999999,"ADDRESS":"崇德路９１９號四樓","OBJECTID":535049},"geometry":{"x":170796.61000000127,"y":2540370.1899999995}},{"attributes":{"ID":535077,"DIS_CODE":0,"TOWNNAME":"東區","LI":"東智里","LIN":"19鄰","STREET":"崇德路","SECT":" ","MAREA":" ","LANE":" ","ALLEY":" ","HOUSE_NO":"９１９號四樓之１","E_COORD97":170796.60999999999,"N_COORD97":2540370.1899999999,"ADDRESS":"崇德路９１９號四樓之１","OBJECTID":535050},"geometry":{"x":170796.61000000127,"y":2540370.1899999995}},{"attributes":{"ID":535078,"DIS_CODE":0,"TOWNNAME":"東區","LI":"東智里","LIN":"19鄰","STREET":"崇德路","SECT":" ","MAREA":" ","LANE":" ","ALLEY":" ","HOUSE_NO":"９２９號七樓","E_COORD97":170795.95999999999,"N_COORD97":2540343.4300000002,"ADDRESS":"崇德路９２９號七樓","OBJECTID":535051},"geometry":{"x":170795.96000000089,"y":2540343.4300000016}},{"attributes":{"ID":535079,"DIS_CODE":0,"TOWNNAME":"東區","LI":"東智里","LIN":"19鄰","STREET":"崇德路","SECT":" ","MAREA":" ","LANE":" ","ALLEY":" ","HOUSE_NO":"９２９號七樓之１","E_COORD97":170795.95999999999,"N_COORD97":2540343.4300000002,"ADDRESS":"崇德路９２９號七樓之１","OBJECTID":535052},"geometry":{"x":170795.96000000089,"y":2540343.4300000016}},{"attributes":{"ID":535080,"DIS_CODE":0,"TOWNNAME":"東區","LI":"東智里","LIN":"19鄰","STREET":"崇德路","SECT":" ","MAREA":" ","LANE":" ","ALLEY":" ","HOUSE_NO":"９２９號三樓","E_COORD97":170795.95999999999,"N_COORD97":2540343.4300000002,"ADDRESS":"崇德路９２９號三樓","OBJECTID":535053},"geometry":{"x":170795.96000000089,"y":2540343.4300000016}},{"attributes":{"ID":535081,"DIS_CODE":0,"TOWNNAME":"東區","LI":"東智里","LIN":"19鄰","STREET":"崇德路","SECT":" ","MAREA":" ","LANE":" ","ALLEY":" ","HOUSE_NO":"９２９號三樓之１","E_COORD97":170795.95999999999,"N_COORD97":2540343.4300000002,"ADDRESS":"崇德路９２９號三樓之１","OBJECTID":535054},"geometry":{"x":170795.96000000089,"y":2540343.4300000016}},{"attributes":{"ID":535082,"DIS_CODE":0,"TOWNNAME":"東區","LI":"東智里","LIN":"19鄰","STREET":"崇德路","SECT":" ","MAREA":" ","LANE":" ","ALLEY":" ","HOUSE_NO":"９２９號五樓","E_COORD97":170795.95999999999,"N_COORD97":2540343.4300000002,"ADDRESS":"崇德路９２９號五樓","OBJECTID":535055},"geometry":{"x":170795.96000000089,"y":2540343.4300000016}},{"attributes":{"ID":535083,"DIS_CODE":0,"TOWNNAME":"東區","LI":"東智里","LIN":"19鄰","STREET":"崇德路","SECT":" ","MAREA":" ","LANE":" ","ALLEY":" ","HOUSE_NO":"９２９號五樓之１","E_COORD97":170795.95999999999,"N_COORD97":2540343.4300000002,"ADDRESS":"崇德路９２９號五樓之１","OBJECTID":535056},"geometry":{"x":170795.96000000089,"y":2540343.4300000016}},{"attributes":{"ID":535084,"DIS_CODE":0,"TOWNNAME":"東區","LI":"東智里","LIN":"19鄰","STREET":"崇德路","SECT":" ","MAREA":" ","LANE":" ","ALLEY":" ","HOUSE_NO":"９２９號六樓","E_COORD97":170795.95999999999,"N_COORD97":2540343.4300000002,"ADDRESS":"崇德路９２９號六樓","OBJECTID":535057},"geometry":{"x":170795.96000000089,"y":2540343.4300000016}},{"attributes":{"ID":535085,"DIS_CODE":0,"TOWNNAME":"歸仁區","LI":"新厝里","LIN":"19鄰","STREET":"大成二街","SECT":" ","MAREA":" ","LANE":" ","ALLEY":" ","HOUSE_NO":"１號","E_COORD97":177618.09,"N_COORD97":2540364.1800000002,"ADDRESS":"大成二街１號","OBJECTID":535058},"geometry":{"x":177618.09000000078,"y":2540364.1799999997}},{"attributes":{"ID":535086,"DIS_CODE":0,"TOWNNAME":"東區","LI":"東智里","LIN":"19鄰","STREET":"崇德路","SECT":" ","MAREA":" ","LANE":" ","ALLEY":" ","HOUSE_NO":"９２９號六樓之１","E_COORD97":170795.95999999999,"N_COORD97":2540343.4300000002,"ADDRESS":"崇德路９２９號六樓之１","OBJECTID":535059},"geometry":{"x":170795.96000000089,"y":2540343.4300000016}},{"attributes":{"ID":535087,"DIS_CODE":0,"TOWNNAME":"東區","LI":"東智里","LIN":"19鄰","STREET":"崇德路","SECT":" ","MAREA":" ","LANE":" ","ALLEY":" ","HOUSE_NO":"９２９號四樓","E_COORD97":170795.95999999999,"N_COORD97":2540343.4300000002,"ADDRESS":"崇德路９２９號四樓","OBJECTID":535060},"geometry":{"x":170795.96000000089,"y":2540343.4300000016}},{"attributes":{"ID":535088,"DIS_CODE":0,"TOWNNAME":"東區","LI":"東智里","LIN":"19鄰","STREET":"崇德路","SECT":" ","MAREA":" ","LANE":" ","ALLEY":" ","HOUSE_NO":"９２９號四樓之１","E_COORD97":170795.95999999999,"N_COORD97":2540343.4300000002,"ADDRESS":"崇德路９２９號四樓之１","OBJECTID":535061},"geometry":{"x":170795.96000000089,"y":2540343.4300000016}},{"attributes":{"ID":535089,"DIS_CODE":0,"TOWNNAME":"東區","LI":"東智里","LIN":"19鄰","STREET":"崇德路","SECT":" ","MAREA":" ","LANE":" ","ALLEY":" ","HOUSE_NO":"９３５號七樓","E_COORD97":170797.23000000001,"N_COORD97":2540317.1400000001,"ADDRESS":"崇德路９３５號七樓","OBJECTID":535062},"geometry":{"x":170797.23000000045,"y":2540317.1400000006}},{"attributes":{"ID":535090,"DIS_CODE":0,"TOWNNAME":"東區","LI":"東智里","LIN":"19鄰","STREET":"崇德路","SECT":" ","MAREA":" ","LANE":" ","ALLEY":" ","HOUSE_NO":"９３５號三樓","E_COORD97":170797.23000000001,"N_COORD97":2540317.1400000001,"ADDRESS":"崇德路９３５號三樓","OBJECTID":535063},"geometry":{"x":170797.23000000045,"y":2540317.1400000006}},{"attributes":{"ID":535091,"DIS_CODE":0,"TOWNNAME":"東區","LI":"東智里","LIN":"19鄰","STREET":"崇德路","SECT":" ","MAREA":" ","LANE":" ","ALLEY":" ","HOUSE_NO":"９３５號五樓","E_COORD97":170797.23000000001,"N_COORD97":2540317.1400000001,"ADDRESS":"崇德路９３５號五樓","OBJECTID":535064},"geometry":{"x":170797.23000000045,"y":2540317.1400000006}},{"attributes":{"ID":535092,"DIS_CODE":0,"TOWNNAME":"東區","LI":"東智里","LIN":"19鄰","STREET":"崇德路","SECT":" ","MAREA":" ","LANE":" ","ALLEY":" ","HOUSE_NO":"９３５號六樓","E_COORD97":170797.23000000001,"N_COORD97":2540317.1400000001,"ADDRESS":"崇德路９３５號六樓","OBJECTID":535065},"geometry":{"x":170797.23000000045,"y":2540317.1400000006}},{"attributes":{"ID":535093,"DIS_CODE":0,"TOWNNAME":"東區","LI":"東智里","LIN":"19鄰","STREET":"崇德路","SECT":" ","MAREA":" ","LANE":" ","ALLEY":" ","HOUSE_NO":"９３５號四樓","E_COORD97":170797.23000000001,"N_COORD97":2540317.1400000001,"ADDRESS":"崇德路９３５號四樓","OBJECTID":535066},"geometry":{"x":170797.23000000045,"y":2540317.1400000006}},{"attributes":{"ID":535094,"DIS_CODE":0,"TOWNNAME":"東區","LI":"東智里","LIN":"19鄰","STREET":"崇德路","SECT":" ","MAREA":" ","LANE":" ","ALLEY":" ","HOUSE_NO":"９３７號七樓","E_COORD97":170796.59,"N_COORD97":2540310.5099999998,"ADDRESS":"崇德路９３７號七樓","OBJECTID":535067},"geometry":{"x":170796.59000000078,"y":2540310.5099999998}},{"attributes":{"ID":535095,"DIS_CODE":0,"TOWNNAME":"東區","LI":"東智里","LIN":"19鄰","STREET":"崇德路","SECT":" ","MAREA":" ","LANE":" ","ALLEY":" ","HOUSE_NO":"９３７號三樓","E_COORD97":170796.59,"N_COORD97":2540310.5099999998,"ADDRESS":"崇德路９３７號三樓","OBJECTID":535068},"geometry":{"x":170796.59000000078,"y":2540310.5099999998}},{"attributes":{"ID":535096,"DIS_CODE":0,"TOWNNAME":"東區","LI":"東智里","LIN":"19鄰","STREET":"崇德路","SECT":" ","MAREA":" ","LANE":" ","ALLEY":" ","HOUSE_NO":"９３７號五樓","E_COORD97":170796.59,"N_COORD97":2540310.5099999998,"ADDRESS":"崇德路９３７號五樓","OBJECTID":535069},"geometry":{"x":170796.59000000078,"y":2540310.5099999998}},{"attributes":{"ID":535097,"DIS_CODE":0,"TOWNNAME":"東區","LI":"東智里","LIN":"19鄰","STREET":"崇德路","SECT":" ","MAREA":" ","LANE":" ","ALLEY":" ","HOUSE_NO":"９３７號六樓","E_COORD97":170796.59,"N_COORD97":2540310.5099999998,"ADDRESS":"崇德路９３７號六樓","OBJECTID":535070},"geometry":{"x":170796.59000000078,"y":2540310.5099999998}},{"attributes":{"ID":535098,"DIS_CODE":0,"TOWNNAME":"東區","LI":"東智里","LIN":"19鄰","STREET":"崇德路","SECT":" ","MAREA":" ","LANE":" ","ALLEY":" ","HOUSE_NO":"９３７號四樓","E_COORD97":170796.59,"N_COORD97":2540310.5099999998,"ADDRESS":"崇德路９３７號四樓","OBJECTID":535071},"geometry":{"x":170796.59000000078,"y":2540310.5099999998}},{"attributes":{"ID":535099,"DIS_CODE":0,"TOWNNAME":"東區","LI":"東智里","LIN":"19鄰","STREET":"崇德路","SECT":" ","MAREA":" ","LANE":" ","ALLEY":" ","HOUSE_NO":"９３９號七樓","E_COORD97":170796.28,"N_COORD97":2540303.4100000001,"ADDRESS":"崇德路９３９號七樓","OBJECTID":535072},"geometry":{"x":170796.28000000026,"y":2540303.410000002}},{"attributes":{"ID":535100,"DIS_CODE":0,"TOWNNAME":"東區","LI":"東智里","LIN":"19鄰","STREET":"崇德路","SECT":" ","MAREA":" ","LANE":" ","ALLEY":" ","HOUSE_NO":"９３９號三樓","E_COORD97":170796.28,"N_COORD97":2540303.4100000001,"ADDRESS":"崇德路９３９號三樓","OBJECTID":535073},"geometry":{"x":170796.28000000026,"y":2540303.410000002}},{"attributes":{"ID":535101,"DIS_CODE":0,"TOWNNAME":"東區","LI":"東智里","LIN":"19鄰","STREET":"崇德路","SECT":" ","MAREA":" ","LANE":" ","ALLEY":" ","HOUSE_NO":"９３９號五樓","E_COORD97":170796.28,"N_COORD97":2540303.4100000001,"ADDRESS":"崇德路９３９號五樓","OBJECTID":535074},"geometry":{"x":170796.28000000026,"y":2540303.410000002}},{"attributes":{"ID":535102,"DIS_CODE":0,"TOWNNAME":"東區","LI":"東智里","LIN":"19鄰","STREET":"崇德路","SECT":" ","MAREA":" ","LANE":" ","ALLEY":" ","HOUSE_NO":"９３９號六樓","E_COORD97":170796.28,"N_COORD97":2540303.4100000001,"ADDRESS":"崇德路９３９號六樓","OBJECTID":535075},"geometry":{"x":170796.28000000026,"y":2540303.410000002}},{"attributes":{"ID":535103,"DIS_CODE":0,"TOWNNAME":"東區","LI":"東智里","LIN":"19鄰","STREET":"崇德路","SECT":" ","MAREA":" ","LANE":" ","ALLEY":" ","HOUSE_NO":"９３９號四樓","E_COORD97":170796.28,"N_COORD97":2540303.4100000001,"ADDRESS":"崇德路９３９號四樓","OBJECTID":535076},"geometry":{"x":170796.28000000026,"y":2540303.410000002}},{"attributes":{"ID":535104,"DIS_CODE":0,"TOWNNAME":"東區","LI":"虎尾里","LIN":"19鄰","STREET":"東成街","SECT":" ","MAREA":" ","LANE":" ","ALLEY":" ","HOUSE_NO":"２４號二樓","E_COORD97":171293.17000000001,"N_COORD97":2542240.6499999999,"ADDRESS":"東成街２４號二樓","OBJECTID":535077},"geometry":{"x":171293.16999999993,"y":2542240.6500000022}},{"attributes":{"ID":535105,"DIS_CODE":0,"TOWNNAME":"東區","LI":"虎尾里","LIN":"19鄰","STREET":"東成街","SECT":" ","MAREA":" ","LANE":" ","ALLEY":" ","HOUSE_NO":"２４號三樓","E_COORD97":171293.17000000001,"N_COORD97":2542240.6499999999,"ADDRESS":"東成街２４號三樓","OBJECTID":535078},"geometry":{"x":171293.16999999993,"y":2542240.6500000022}},{"attributes":{"ID":535106,"DIS_CODE":0,"TOWNNAME":"東區","LI":"虎尾里","LIN":"19鄰","STREET":"東成街","SECT":" ","MAREA":" ","LANE":" ","ALLEY":" ","HOUSE_NO":"２４號五樓","E_COORD97":171293.17000000001,"N_COORD97":2542240.6499999999,"ADDRESS":"東成街２４號五樓","OBJECTID":535079},"geometry":{"x":171293.16999999993,"y":2542240.6500000022}},{"attributes":{"ID":535107,"DIS_CODE":0,"TOWNNAME":"東區","LI":"虎尾里","LIN":"19鄰","STREET":"東成街","SECT":" ","MAREA":" ","LANE":" ","ALLEY":" ","HOUSE_NO":"２４號四樓","E_COORD97":171293.17000000001,"N_COORD97":2542240.6499999999,"ADDRESS":"東成街２４號四樓","OBJECTID":535080},"geometry":{"x":171293.16999999993,"y":2542240.6500000022}},{"attributes":{"ID":535108,"DIS_CODE":0,"TOWNNAME":"東區","LI":"虎尾里","LIN":"19鄰","STREET":"東成街","SECT":" ","MAREA":" ","LANE":" ","ALLEY":" ","HOUSE_NO":"２６號二樓","E_COORD97":171298.69,"N_COORD97":2542241.75,"ADDRESS":"東成街２６號二樓","OBJECTID":535081},"geometry":{"x":171298.69000000041,"y":2542241.75}},{"attributes":{"ID":535109,"DIS_CODE":0,"TOWNNAME":"東區","LI":"虎尾里","LIN":"19鄰","STREET":"東成街","SECT":" ","MAREA":" ","LANE":" ","ALLEY":" ","HOUSE_NO":"２６號三樓","E_COORD97":171298.69,"N_COORD97":2542241.75,"ADDRESS":"東成街２６號三樓","OBJECTID":535082},"geometry":{"x":171298.69000000041,"y":2542241.75}},{"attributes":{"ID":535110,"DIS_CODE":0,"TOWNNAME":"東區","LI":"虎尾里","LIN":"19鄰","STREET":"東成街","SECT":" ","MAREA":" ","LANE":" ","ALLEY":" ","HOUSE_NO":"２６號五樓","E_COORD97":171298.69,"N_COORD97":2542241.75,"ADDRESS":"東成街２６號五樓","OBJECTID":535083},"geometry":{"x":171298.69000000041,"y":2542241.75}},{"attributes":{"ID":535111,"DIS_CODE":0,"TOWNNAME":"東區","LI":"虎尾里","LIN":"19鄰","STREET":"東成街","SECT":" ","MAREA":" ","LANE":" ","ALLEY":" ","HOUSE_NO":"２６號四樓","E_COORD97":171298.69,"N_COORD97":2542241.75,"ADDRESS":"東成街２６號四樓","OBJECTID":535084},"geometry":{"x":171298.69000000041,"y":2542241.75}},{"attributes":{"ID":535112,"DIS_CODE":0,"TOWNNAME":"東區","LI":"虎尾里","LIN":"19鄰","STREET":"東成街","SECT":" ","MAREA":" ","LANE":" ","ALLEY":" ","HOUSE_NO":"３４號二樓","E_COORD97":171334.17999999999,"N_COORD97":2542239.5499999998,"ADDRESS":"東成街３４號二樓","OBJECTID":535085},"geometry":{"x":171334.17999999877,"y":2542239.5500000026}},{"attributes":{"ID":535113,"DIS_CODE":0,"TOWNNAME":"東區","LI":"虎尾里","LIN":"19鄰","STREET":"東成街","SECT":" ","MAREA":" ","LANE":" ","ALLEY":" ","HOUSE_NO":"３４號三樓","E_COORD97":171334.17999999999,"N_COORD97":2542239.5499999998,"ADDRESS":"東成街３４號三樓","OBJECTID":535086},"geometry":{"x":171334.17999999877,"y":2542239.5500000026}},{"attributes":{"ID":535114,"DIS_CODE":0,"TOWNNAME":"東區","LI":"虎尾里","LIN":"19鄰","STREET":"東成街","SECT":" ","MAREA":" ","LANE":" ","ALLEY":" ","HOUSE_NO":"３４號四樓","E_COORD97":171334.17999999999,"N_COORD97":2542239.5499999998,"ADDRESS":"東成街３４號四樓","OBJECTID":535087},"geometry":{"x":171334.17999999877,"y":2542239.5500000026}},{"attributes":{"ID":535115,"DIS_CODE":0,"TOWNNAME":"東區","LI":"東門里","LIN":"19鄰","STREET":"東門路","SECT":"一段","MAREA":" ","LANE":" ","ALLEY":" ","HOUSE_NO":"６１號七樓之７","E_COORD97":169288.26000000001,"N_COORD97":2543262.23,"ADDRESS":"東門路一段６１號七樓之７","OBJECTID":535088},"geometry":{"x":169288.26000000071,"y":2543262.2300000004}},{"attributes":{"ID":535116,"DIS_CODE":0,"TOWNNAME":"東區","LI":"東門里","LIN":"19鄰","STREET":"東門路","SECT":"一段","MAREA":" ","LANE":" ","ALLEY":" ","HOUSE_NO":"６１號七樓之１","E_COORD97":169288.26000000001,"N_COORD97":2543262.23,"ADDRESS":"東門路一段６１號七樓之１","OBJECTID":535089},"geometry":{"x":169288.26000000071,"y":2543262.2300000004}},{"attributes":{"ID":535117,"DIS_CODE":0,"TOWNNAME":"東區","LI":"東門里","LIN":"19鄰","STREET":"東門路","SECT":"一段","MAREA":" ","LANE":" ","ALLEY":" ","HOUSE_NO":"６１號七樓之１０","E_COORD97":169288.26000000001,"N_COORD97":2543262.23,"ADDRESS":"東門路一段６１號七樓之１０","OBJECTID":535090},"geometry":{"x":169288.26000000071,"y":2543262.2300000004}},{"attributes":{"ID":535118,"DIS_CODE":0,"TOWNNAME":"東區","LI":"東門里","LIN":"19鄰","STREET":"東門路","SECT":"一段","MAREA":" ","LANE":" ","ALLEY":" ","HOUSE_NO":"６１號七樓之１１","E_COORD97":169288.26000000001,"N_COORD97":2543262.23,"ADDRESS":"東門路一段６１號七樓之１１","OBJECTID":535091},"geometry":{"x":169288.26000000071,"y":2543262.2300000004}},{"attributes":{"ID":535119,"DIS_CODE":0,"TOWNNAME":"東區","LI":"東門里","LIN":"19鄰","STREET":"東門路","SECT":"一段","MAREA":" ","LANE":" ","ALLEY":" ","HOUSE_NO":"６１號七樓之１２","E_COORD97":169288.26000000001,"N_COORD97":2543262.23,"ADDRESS":"東門路一段６１號七樓之１２","OBJECTID":535092},"geometry":{"x":169288.26000000071,"y":2543262.2300000004}},{"attributes":{"ID":535120,"DIS_CODE":0,"TOWNNAME":"東區","LI":"東門里","LIN":"19鄰","STREET":"東門路","SECT":"一段","MAREA":" ","LANE":" ","ALLEY":" ","HOUSE_NO":"６１號七樓之１３","E_COORD97":169288.26000000001,"N_COORD97":2543262.23,"ADDRESS":"東門路一段６１號七樓之１３","OBJECTID":535093},"geometry":{"x":169288.26000000071,"y":2543262.2300000004}},{"attributes":{"ID":535121,"DIS_CODE":0,"TOWNNAME":"東區","LI":"東門里","LIN":"19鄰","STREET":"東門路","SECT":"一段","MAREA":" ","LANE":" ","ALLEY":" ","HOUSE_NO":"６１號七樓之１４","E_COORD97":169288.26000000001,"N_COORD97":2543262.23,"ADDRESS":"東門路一段６１號七樓之１４","OBJECTID":535094},"geometry":{"x":169288.26000000071,"y":2543262.2300000004}},{"attributes":{"ID":535122,"DIS_CODE":0,"TOWNNAME":"東區","LI":"東門里","LIN":"19鄰","STREET":"東門路","SECT":"一段","MAREA":" ","LANE":" ","ALLEY":" ","HOUSE_NO":"６１號七樓之２","E_COORD97":169288.26000000001,"N_COORD97":2543262.23,"ADDRESS":"東門路一段６１號七樓之２","OBJECTID":535095},"geometry":{"x":169288.26000000071,"y":2543262.2300000004}},{"attributes":{"ID":535123,"DIS_CODE":0,"TOWNNAME":"東區","LI":"東門里","LIN":"19鄰","STREET":"東門路","SECT":"一段","MAREA":" ","LANE":" ","ALLEY":" ","HOUSE_NO":"６１號七樓之３","E_COORD97":169288.26000000001,"N_COORD97":2543262.23,"ADDRESS":"東門路一段６１號七樓之３","OBJECTID":535096},"geometry":{"x":169288.26000000071,"y":2543262.2300000004}},{"attributes":{"ID":535124,"DIS_CODE":0,"TOWNNAME":"東區","LI":"東門里","LIN":"19鄰","STREET":"東門路","SECT":"一段","MAREA":" ","LANE":" ","ALLEY":" ","HOUSE_NO":"６１號七樓之４","E_COORD97":169288.26000000001,"N_COORD97":2543262.23,"ADDRESS":"東門路一段６１號七樓之４","OBJECTID":535097},"geometry":{"x":169288.26000000071,"y":2543262.2300000004}},{"attributes":{"ID":535125,"DIS_CODE":0,"TOWNNAME":"東區","LI":"東門里","LIN":"19鄰","STREET":"東門路","SECT":"一段","MAREA":" ","LANE":" ","ALLEY":" ","HOUSE_NO":"６１號七樓之５","E_COORD97":169288.26000000001,"N_COORD97":2543262.23,"ADDRESS":"東門路一段６１號七樓之５","OBJECTID":535098},"geometry":{"x":169288.26000000071,"y":2543262.2300000004}},{"attributes":{"ID":535126,"DIS_CODE":0,"TOWNNAME":"東區","LI":"東門里","LIN":"19鄰","STREET":"東門路","SECT":"一段","MAREA":" ","LANE":" ","ALLEY":" ","HOUSE_NO":"６１號七樓之６","E_COORD97":169288.26000000001,"N_COORD97":2543262.23,"ADDRESS":"東門路一段６１號七樓之６","OBJECTID":535099},"geometry":{"x":169288.26000000071,"y":2543262.2300000004}},{"attributes":{"ID":535127,"DIS_CODE":0,"TOWNNAME":"東區","LI":"東門里","LIN":"19鄰","STREET":"東門路","SECT":"一段","MAREA":" ","LANE":" ","ALLEY":" ","HOUSE_NO":"６１號七樓之８","E_COORD97":169288.26000000001,"N_COORD97":2543262.23,"ADDRESS":"東門路一段６１號七樓之８","OBJECTID":535100},"geometry":{"x":169288.26000000071,"y":2543262.2300000004}},{"attributes":{"ID":535128,"DIS_CODE":0,"TOWNNAME":"東區","LI":"東門里","LIN":"19鄰","STREET":"東門路","SECT":"一段","MAREA":" ","LANE":" ","ALLEY":" ","HOUSE_NO":"６１號七樓之９","E_COORD97":169288.26000000001,"N_COORD97":2543262.23,"ADDRESS":"東門路一段６１號七樓之９","OBJECTID":535101},"geometry":{"x":169288.26000000071,"y":2543262.2300000004}},{"attributes":{"ID":535129,"DIS_CODE":0,"TOWNNAME":"東區","LI":"東門里","LIN":"19鄰","STREET":"東門路","SECT":"一段","MAREA":" ","LANE":" ","ALLEY":" ","HOUSE_NO":"６１號二樓之１","E_COORD97":169288.26000000001,"N_COORD97":2543262.23,"ADDRESS":"東門路一段６１號二樓之１","OBJECTID":535102},"geometry":{"x":169288.26000000071,"y":2543262.2300000004}},{"attributes":{"ID":535130,"DIS_CODE":0,"TOWNNAME":"東區","LI":"東門里","LIN":"19鄰","STREET":"東門路","SECT":"一段","MAREA":" ","LANE":" ","ALLEY":" ","HOUSE_NO":"６１號二樓之１０","E_COORD97":169288.26000000001,"N_COORD97":2543262.23,"ADDRESS":"東門路一段６１號二樓之１０","OBJECTID":535103},"geometry":{"x":169288.26000000071,"y":2543262.2300000004}},{"attributes":{"ID":535131,"DIS_CODE":0,"TOWNNAME":"東區","LI":"東門里","LIN":"19鄰","STREET":"東門路","SECT":"一段","MAREA":" ","LANE":" ","ALLEY":" ","HOUSE_NO":"６１號二樓之１１","E_COORD97":169288.26000000001,"N_COORD97":2543262.23,"ADDRESS":"東門路一段６１號二樓之１１","OBJECTID":535104},"geometry":{"x":169288.26000000071,"y":2543262.2300000004}},{"attributes":{"ID":535132,"DIS_CODE":0,"TOWNNAME":"東區","LI":"東門里","LIN":"19鄰","STREET":"東門路","SECT":"一段","MAREA":" ","LANE":" ","ALLEY":" ","HOUSE_NO":"６１號二樓之１２","E_COORD97":169288.26000000001,"N_COORD97":2543262.23,"ADDRESS":"東門路一段６１號二樓之１２","OBJECTID":535105},"geometry":{"x":169288.26000000071,"y":2543262.2300000004}},{"attributes":{"ID":535133,"DIS_CODE":0,"TOWNNAME":"東區","LI":"東門里","LIN":"19鄰","STREET":"東門路","SECT":"一段","MAREA":" ","LANE":" ","ALLEY":" ","HOUSE_NO":"６１號二樓之１３","E_COORD97":169288.26000000001,"N_COORD97":2543262.23,"ADDRESS":"東門路一段６１號二樓之１３","OBJECTID":535106},"geometry":{"x":169288.26000000071,"y":2543262.2300000004}},{"attributes":{"ID":535134,"DIS_CODE":0,"TOWNNAME":"東區","LI":"東門里","LIN":"19鄰","STREET":"東門路","SECT":"一段","MAREA":" ","LANE":" ","ALLEY":" ","HOUSE_NO":"６１號二樓之１４","E_COORD97":169288.26000000001,"N_COORD97":2543262.23,"ADDRESS":"東門路一段６１號二樓之１４","OBJECTID":535107},"geometry":{"x":169288.26000000071,"y":2543262.2300000004}},{"attributes":{"ID":535135,"DIS_CODE":0,"TOWNNAME":"東區","LI":"東門里","LIN":"19鄰","STREET":"東門路","SECT":"一段","MAREA":" ","LANE":" ","ALLEY":" ","HOUSE_NO":"６１號二樓之１５","E_COORD97":169288.26000000001,"N_COORD97":2543262.23,"ADDRESS":"東門路一段６１號二樓之１５","OBJECTID":535108},"geometry":{"x":169288.26000000071,"y":2543262.2300000004}},{"attributes":{"ID":535136,"DIS_CODE":0,"TOWNNAME":"東區","LI":"東門里","LIN":"19鄰","STREET":"東門路","SECT":"一段","MAREA":" ","LANE":" ","ALLEY":" ","HOUSE_NO":"６１號二樓之２","E_COORD97":169288.26000000001,"N_COORD97":2543262.23,"ADDRESS":"東門路一段６１號二樓之２","OBJECTID":535109},"geometry":{"x":169288.26000000071,"y":2543262.2300000004}},{"attributes":{"ID":535137,"DIS_CODE":0,"TOWNNAME":"東區","LI":"東門里","LIN":"19鄰","STREET":"東門路","SECT":"一段","MAREA":" ","LANE":" ","ALLEY":" ","HOUSE_NO":"６１號二樓之３","E_COORD97":169288.26000000001,"N_COORD97":2543262.23,"ADDRESS":"東門路一段６１號二樓之３","OBJECTID":535110},"geometry":{"x":169288.26000000071,"y":2543262.2300000004}},{"attributes":{"ID":535138,"DIS_CODE":0,"TOWNNAME":"東區","LI":"東門里","LIN":"19鄰","STREET":"東門路","SECT":"一段","MAREA":" ","LANE":" ","ALLEY":" ","HOUSE_NO":"６１號二樓之４","E_COORD97":169288.26000000001,"N_COORD97":2543262.23,"ADDRESS":"東門路一段６１號二樓之４","OBJECTID":535111},"geometry":{"x":169288.26000000071,"y":2543262.2300000004}},{"attributes":{"ID":535139,"DIS_CODE":0,"TOWNNAME":"東區","LI":"東門里","LIN":"19鄰","STREET":"東門路","SECT":"一段","MAREA":" ","LANE":" ","ALLEY":" ","HOUSE_NO":"６１號二樓之５","E_COORD97":169288.26000000001,"N_COORD97":2543262.23,"ADDRESS":"東門路一段６１號二樓之５","OBJECTID":535112},"geometry":{"x":169288.26000000071,"y":2543262.2300000004}},{"attributes":{"ID":535140,"DIS_CODE":0,"TOWNNAME":"東區","LI":"東門里","LIN":"19鄰","STREET":"東門路","SECT":"一段","MAREA":" ","LANE":" ","ALLEY":" ","HOUSE_NO":"６１號二樓之６","E_COORD97":169288.26000000001,"N_COORD97":2543262.23,"ADDRESS":"東門路一段６１號二樓之６","OBJECTID":535113},"geometry":{"x":169288.26000000071,"y":2543262.2300000004}},{"attributes":{"ID":535141,"DIS_CODE":0,"TOWNNAME":"東區","LI":"東門里","LIN":"19鄰","STREET":"東門路","SECT":"一段","MAREA":" ","LANE":" ","ALLEY":" ","HOUSE_NO":"６１號二樓之７","E_COORD97":169288.26000000001,"N_COORD97":2543262.23,"ADDRESS":"東門路一段６１號二樓之７","OBJECTID":535114},"geometry":{"x":169288.26000000071,"y":2543262.2300000004}},{"attributes":{"ID":535142,"DIS_CODE":0,"TOWNNAME":"東區","LI":"東門里","LIN":"19鄰","STREET":"東門路","SECT":"一段","MAREA":" ","LANE":" ","ALLEY":" ","HOUSE_NO":"６１號二樓之８","E_COORD97":169288.26000000001,"N_COORD97":2543262.23,"ADDRESS":"東門路一段６１號二樓之８","OBJECTID":535115},"geometry":{"x":169288.26000000071,"y":2543262.2300000004}},{"attributes":{"ID":535143,"DIS_CODE":0,"TOWNNAME":"東區","LI":"東門里","LIN":"19鄰","STREET":"東門路","SECT":"一段","MAREA":" ","LANE":" ","ALLEY":" ","HOUSE_NO":"６１號二樓之９","E_COORD97":169288.26000000001,"N_COORD97":2543262.23,"ADDRESS":"東門路一段６１號二樓之９","OBJECTID":535116},"geometry":{"x":169288.26000000071,"y":2543262.2300000004}},{"attributes":{"ID":535144,"DIS_CODE":0,"TOWNNAME":"東區","LI":"東門里","LIN":"19鄰","STREET":"東門路","SECT":"一段","MAREA":" ","LANE":" ","ALLEY":" ","HOUSE_NO":"６１號三樓之１","E_COORD97":169288.26000000001,"N_COORD97":2543262.23,"ADDRESS":"東門路一段６１號三樓之１","OBJECTID":535117},"geometry":{"x":169288.26000000071,"y":2543262.2300000004}},{"attributes":{"ID":535145,"DIS_CODE":0,"TOWNNAME":"東區","LI":"東門里","LIN":"19鄰","STREET":"東門路","SECT":"一段","MAREA":" ","LANE":" ","ALLEY":" ","HOUSE_NO":"６１號三樓之１０","E_COORD97":169288.26000000001,"N_COORD97":2543262.23,"ADDRESS":"東門路一段６１號三樓之１０","OBJECTID":535118},"geometry":{"x":169288.26000000071,"y":2543262.2300000004}},{"attributes":{"ID":535146,"DIS_CODE":0,"TOWNNAME":"東區","LI":"東門里","LIN":"19鄰","STREET":"東門路","SECT":"一段","MAREA":" ","LANE":" ","ALLEY":" ","HOUSE_NO":"６１號三樓之１１","E_COORD97":169288.26000000001,"N_COORD97":2543262.23,"ADDRESS":"東門路一段６１號三樓之１１","OBJECTID":535119},"geometry":{"x":169288.26000000071,"y":2543262.2300000004}},{"attributes":{"ID":535147,"DIS_CODE":0,"TOWNNAME":"東區","LI":"東門里","LIN":"19鄰","STREET":"東門路","SECT":"一段","MAREA":" ","LANE":" ","ALLEY":" ","HOUSE_NO":"６１號三樓之１２","E_COORD97":169288.26000000001,"N_COORD97":2543262.23,"ADDRESS":"東門路一段６１號三樓之１２","OBJECTID":535120},"geometry":{"x":169288.26000000071,"y":2543262.2300000004}},{"attributes":{"ID":535148,"DIS_CODE":0,"TOWNNAME":"東區","LI":"東門里","LIN":"19鄰","STREET":"東門路","SECT":"一段","MAREA":" ","LANE":" ","ALLEY":" ","HOUSE_NO":"６１號三樓之１３","E_COORD97":169288.26000000001,"N_COORD97":2543262.23,"ADDRESS":"東門路一段６１號三樓之１３","OBJECTID":535121},"geometry":{"x":169288.26000000071,"y":2543262.2300000004}},{"attributes":{"ID":535149,"DIS_CODE":0,"TOWNNAME":"中西區","LI":"大涼里","LIN":"19鄰","STREET":"府前一街","SECT":" ","MAREA":" ","LANE":" ","ALLEY":" ","HOUSE_NO":"１５３號四樓","E_COORD97":166650.37,"N_COORD97":2544113.1099999999,"ADDRESS":"府前一街１５３號四樓","OBJECTID":535122},"geometry":{"x":166650.37000000104,"y":2544113.1099999994}},{"attributes":{"ID":535150,"DIS_CODE":0,"TOWNNAME":"東區","LI":"東門里","LIN":"19鄰","STREET":"東門路","SECT":"一段","MAREA":" ","LANE":" ","ALLEY":" ","HOUSE_NO":"６１號三樓之１４","E_COORD97":169288.26000000001,"N_COORD97":2543262.23,"ADDRESS":"東門路一段６１號三樓之１４","OBJECTID":535123},"geometry":{"x":169288.26000000071,"y":2543262.2300000004}},{"attributes":{"ID":535151,"DIS_CODE":0,"TOWNNAME":"東區","LI":"東門里","LIN":"19鄰","STREET":"東門路","SECT":"一段","MAREA":" ","LANE":" ","ALLEY":" ","HOUSE_NO":"６１號三樓之１５","E_COORD97":169288.26000000001,"N_COORD97":2543262.23,"ADDRESS":"東門路一段６１號三樓之１５","OBJECTID":535124},"geometry":{"x":169288.26000000071,"y":2543262.2300000004}},{"attributes":{"ID":535152,"DIS_CODE":0,"TOWNNAME":"東區","LI":"東門里","LIN":"19鄰","STREET":"東門路","SECT":"一段","MAREA":" ","LANE":" ","ALLEY":" ","HOUSE_NO":"６１號三樓之２","E_COORD97":169288.26000000001,"N_COORD97":2543262.23,"ADDRESS":"東門路一段６１號三樓之２","OBJECTID":535125},"geometry":{"x":169288.26000000071,"y":2543262.2300000004}},{"attributes":{"ID":535153,"DIS_CODE":0,"TOWNNAME":"東區","LI":"東門里","LIN":"19鄰","STREET":"東門路","SECT":"一段","MAREA":" ","LANE":" ","ALLEY":" ","HOUSE_NO":"６１號三樓之３","E_COORD97":169288.26000000001,"N_COORD97":2543262.23,"ADDRESS":"東門路一段６１號三樓之３","OBJECTID":535126},"geometry":{"x":169288.26000000071,"y":2543262.2300000004}},{"attributes":{"ID":535154,"DIS_CODE":0,"TOWNNAME":"東區","LI":"東門里","LIN":"19鄰","STREET":"東門路","SECT":"一段","MAREA":" ","LANE":" ","ALLEY":" ","HOUSE_NO":"６１號三樓之４","E_COORD97":169288.26000000001,"N_COORD97":2543262.23,"ADDRESS":"東門路一段６１號三樓之４","OBJECTID":535127},"geometry":{"x":169288.26000000071,"y":2543262.2300000004}},{"attributes":{"ID":535155,"DIS_CODE":0,"TOWNNAME":"東區","LI":"東門里","LIN":"19鄰","STREET":"東門路","SECT":"一段","MAREA":" ","LANE":" ","ALLEY":" ","HOUSE_NO":"６１號三樓之５","E_COORD97":169288.26000000001,"N_COORD97":2543262.23,"ADDRESS":"東門路一段６１號三樓之５","OBJECTID":535128},"geometry":{"x":169288.26000000071,"y":2543262.2300000004}},{"attributes":{"ID":535156,"DIS_CODE":0,"TOWNNAME":"東區","LI":"東門里","LIN":"19鄰","STREET":"東門路","SECT":"一段","MAREA":" ","LANE":" ","ALLEY":" ","HOUSE_NO":"６１號三樓之６","E_COORD97":169288.26000000001,"N_COORD97":2543262.23,"ADDRESS":"東門路一段６１號三樓之６","OBJECTID":535129},"geometry":{"x":169288.26000000071,"y":2543262.2300000004}},{"attributes":{"ID":535157,"DIS_CODE":0,"TOWNNAME":"東區","LI":"東門里","LIN":"19鄰","STREET":"東門路","SECT":"一段","MAREA":" ","LANE":" ","ALLEY":" ","HOUSE_NO":"６１號三樓之７","E_COORD97":169288.26000000001,"N_COORD97":2543262.23,"ADDRESS":"東門路一段６１號三樓之７","OBJECTID":535130},"geometry":{"x":169288.26000000071,"y":2543262.2300000004}},{"attributes":{"ID":535158,"DIS_CODE":0,"TOWNNAME":"東區","LI":"東門里","LIN":"19鄰","STREET":"東門路","SECT":"一段","MAREA":" ","LANE":" ","ALLEY":" ","HOUSE_NO":"６１號三樓之８","E_COORD97":169288.26000000001,"N_COORD97":2543262.23,"ADDRESS":"東門路一段６１號三樓之８","OBJECTID":535131},"geometry":{"x":169288.26000000071,"y":2543262.2300000004}},{"attributes":{"ID":535159,"DIS_CODE":0,"TOWNNAME":"東區","LI":"東門里","LIN":"19鄰","STREET":"東門路","SECT":"一段","MAREA":" ","LANE":" ","ALLEY":" ","HOUSE_NO":"６１號三樓之９","E_COORD97":169288.26000000001,"N_COORD97":2543262.23,"ADDRESS":"東門路一段６１號三樓之９","OBJECTID":535132},"geometry":{"x":169288.26000000071,"y":2543262.2300000004}},{"attributes":{"ID":535160,"DIS_CODE":0,"TOWNNAME":"東區","LI":"東門里","LIN":"19鄰","STREET":"東門路","SECT":"一段","MAREA":" ","LANE":" ","ALLEY":" ","HOUSE_NO":"６１號五樓之１","E_COORD97":169288.26000000001,"N_COORD97":2543262.23,"ADDRESS":"東門路一段６１號五樓之１","OBJECTID":535133},"geometry":{"x":169288.26000000071,"y":2543262.2300000004}},{"attributes":{"ID":535161,"DIS_CODE":0,"TOWNNAME":"東區","LI":"東門里","LIN":"19鄰","STREET":"東門路","SECT":"一段","MAREA":" ","LANE":" ","ALLEY":" ","HOUSE_NO":"６１號五樓之１０","E_COORD97":169288.26000000001,"N_COORD97":2543262.23,"ADDRESS":"東門路一段６１號五樓之１０","OBJECTID":535134},"geometry":{"x":169288.26000000071,"y":2543262.2300000004}},{"attributes":{"ID":535162,"DIS_CODE":0,"TOWNNAME":"東區","LI":"東門里","LIN":"19鄰","STREET":"東門路","SECT":"一段","MAREA":" ","LANE":" ","ALLEY":" ","HOUSE_NO":"６１號五樓之１１","E_COORD97":169288.26000000001,"N_COORD97":2543262.23,"ADDRESS":"東門路一段６１號五樓之１１","OBJECTID":535135},"geometry":{"x":169288.26000000071,"y":2543262.2300000004}},{"attributes":{"ID":535163,"DIS_CODE":0,"TOWNNAME":"東區","LI":"東門里","LIN":"19鄰","STREET":"東門路","SECT":"一段","MAREA":" ","LANE":" ","ALLEY":" ","HOUSE_NO":"６１號五樓之１２","E_COORD97":169288.26000000001,"N_COORD97":2543262.23,"ADDRESS":"東門路一段６１號五樓之１２","OBJECTID":535136},"geometry":{"x":169288.26000000071,"y":2543262.2300000004}},{"attributes":{"ID":535164,"DIS_CODE":0,"TOWNNAME":"東區","LI":"東門里","LIN":"19鄰","STREET":"東門路","SECT":"一段","MAREA":" ","LANE":" ","ALLEY":" ","HOUSE_NO":"６１號五樓之１３","E_COORD97":169288.26000000001,"N_COORD97":2543262.23,"ADDRESS":"東門路一段６１號五樓之１３","OBJECTID":535137},"geometry":{"x":169288.26000000071,"y":2543262.2300000004}},{"attributes":{"ID":535165,"DIS_CODE":0,"TOWNNAME":"東區","LI":"東門里","LIN":"19鄰","STREET":"東門路","SECT":"一段","MAREA":" ","LANE":" ","ALLEY":" ","HOUSE_NO":"６１號五樓之１４","E_COORD97":169288.26000000001,"N_COORD97":2543262.23,"ADDRESS":"東門路一段６１號五樓之１４","OBJECTID":535138},"geometry":{"x":169288.26000000071,"y":2543262.2300000004}},{"attributes":{"ID":535166,"DIS_CODE":0,"TOWNNAME":"東區","LI":"東門里","LIN":"19鄰","STREET":"東門路","SECT":"一段","MAREA":" ","LANE":" ","ALLEY":" ","HOUSE_NO":"６１號五樓之１５","E_COORD97":169288.26000000001,"N_COORD97":2543262.23,"ADDRESS":"東門路一段６１號五樓之１５","OBJECTID":535139},"geometry":{"x":169288.26000000071,"y":2543262.2300000004}},{"attributes":{"ID":535167,"DIS_CODE":0,"TOWNNAME":"東區","LI":"東門里","LIN":"19鄰","STREET":"東門路","SECT":"一段","MAREA":" ","LANE":" ","ALLEY":" ","HOUSE_NO":"６１號五樓之２","E_COORD97":169288.26000000001,"N_COORD97":2543262.23,"ADDRESS":"東門路一段６１號五樓之２","OBJECTID":535140},"geometry":{"x":169288.26000000071,"y":2543262.2300000004}},{"attributes":{"ID":535168,"DIS_CODE":0,"TOWNNAME":"東區","LI":"東門里","LIN":"19鄰","STREET":"東門路","SECT":"一段","MAREA":" ","LANE":" ","ALLEY":" ","HOUSE_NO":"６１號五樓之３","E_COORD97":169288.26000000001,"N_COORD97":2543262.23,"ADDRESS":"東門路一段６１號五樓之３","OBJECTID":535141},"geometry":{"x":169288.26000000071,"y":2543262.2300000004}},{"attributes":{"ID":535169,"DIS_CODE":0,"TOWNNAME":"東區","LI":"東門里","LIN":"19鄰","STREET":"東門路","SECT":"一段","MAREA":" ","LANE":" ","ALLEY":" ","HOUSE_NO":"６１號五樓之４","E_COORD97":169288.26000000001,"N_COORD97":2543262.23,"ADDRESS":"東門路一段６１號五樓之４","OBJECTID":535142},"geometry":{"x":169288.26000000071,"y":2543262.2300000004}},{"attributes":{"ID":535170,"DIS_CODE":0,"TOWNNAME":"東區","LI":"東門里","LIN":"19鄰","STREET":"東門路","SECT":"一段","MAREA":" ","LANE":" ","ALLEY":" ","HOUSE_NO":"６１號五樓之５","E_COORD97":169288.26000000001,"N_COORD97":2543262.23,"ADDRESS":"東門路一段６１號五樓之５","OBJECTID":535143},"geometry":{"x":169288.26000000071,"y":2543262.2300000004}},{"attributes":{"ID":535171,"DIS_CODE":0,"TOWNNAME":"東區","LI":"東門里","LIN":"19鄰","STREET":"東門路","SECT":"一段","MAREA":" ","LANE":" ","ALLEY":" ","HOUSE_NO":"６１號五樓之６","E_COORD97":169288.26000000001,"N_COORD97":2543262.23,"ADDRESS":"東門路一段６１號五樓之６","OBJECTID":535144},"geometry":{"x":169288.26000000071,"y":2543262.2300000004}},{"attributes":{"ID":535172,"DIS_CODE":0,"TOWNNAME":"東區","LI":"東門里","LIN":"19鄰","STREET":"東門路","SECT":"一段","MAREA":" ","LANE":" ","ALLEY":" ","HOUSE_NO":"６１號五樓之７","E_COORD97":169288.26000000001,"N_COORD97":2543262.23,"ADDRESS":"東門路一段６１號五樓之７","OBJECTID":535145},"geometry":{"x":169288.26000000071,"y":2543262.2300000004}},{"attributes":{"ID":535173,"DIS_CODE":0,"TOWNNAME":"東區","LI":"東門里","LIN":"19鄰","STREET":"東門路","SECT":"一段","MAREA":" ","LANE":" ","ALLEY":" ","HOUSE_NO":"６１號五樓之８","E_COORD97":169288.26000000001,"N_COORD97":2543262.23,"ADDRESS":"東門路一段６１號五樓之８","OBJECTID":535146},"geometry":{"x":169288.26000000071,"y":2543262.2300000004}},{"attributes":{"ID":535174,"DIS_CODE":0,"TOWNNAME":"東區","LI":"東門里","LIN":"19鄰","STREET":"東門路","SECT":"一段","MAREA":" ","LANE":" ","ALLEY":" ","HOUSE_NO":"６１號五樓之９","E_COORD97":169288.26000000001,"N_COORD97":2543262.23,"ADDRESS":"東門路一段６１號五樓之９","OBJECTID":535147},"geometry":{"x":169288.26000000071,"y":2543262.2300000004}},{"attributes":{"ID":535175,"DIS_CODE":0,"TOWNNAME":"東區","LI":"東門里","LIN":"19鄰","STREET":"東門路","SECT":"一段","MAREA":" ","LANE":" ","ALLEY":" ","HOUSE_NO":"６１號六樓之１","E_COORD97":169288.26000000001,"N_COORD97":2543262.23,"ADDRESS":"東門路一段６１號六樓之１","OBJECTID":535148},"geometry":{"x":169288.26000000071,"y":2543262.2300000004}},{"attributes":{"ID":535176,"DIS_CODE":0,"TOWNNAME":"東區","LI":"東門里","LIN":"19鄰","STREET":"東門路","SECT":"一段","MAREA":" ","LANE":" ","ALLEY":" ","HOUSE_NO":"６１號六樓之１０","E_COORD97":169288.26000000001,"N_COORD97":2543262.23,"ADDRESS":"東門路一段６１號六樓之１０","OBJECTID":535149},"geometry":{"x":169288.26000000071,"y":2543262.2300000004}},{"attributes":{"ID":535177,"DIS_CODE":0,"TOWNNAME":"東區","LI":"東門里","LIN":"19鄰","STREET":"東門路","SECT":"一段","MAREA":" ","LANE":" ","ALLEY":" ","HOUSE_NO":"６１號六樓之１１","E_COORD97":169288.26000000001,"N_COORD97":2543262.23,"ADDRESS":"東門路一段６１號六樓之１１","OBJECTID":535150},"geometry":{"x":169288.26000000071,"y":2543262.2300000004}},{"attributes":{"ID":535178,"DIS_CODE":0,"TOWNNAME":"東區","LI":"東門里","LIN":"19鄰","STREET":"東門路","SECT":"一段","MAREA":" ","LANE":" ","ALLEY":" ","HOUSE_NO":"６１號六樓之１２","E_COORD97":169288.26000000001,"N_COORD97":2543262.23,"ADDRESS":"東門路一段６１號六樓之１２","OBJECTID":535151},"geometry":{"x":169288.26000000071,"y":2543262.2300000004}},{"attributes":{"ID":535179,"DIS_CODE":0,"TOWNNAME":"東區","LI":"東門里","LIN":"19鄰","STREET":"東門路","SECT":"一段","MAREA":" ","LANE":" ","ALLEY":" ","HOUSE_NO":"６１號六樓之１３","E_COORD97":169288.26000000001,"N_COORD97":2543262.23,"ADDRESS":"東門路一段６１號六樓之１３","OBJECTID":535152},"geometry":{"x":169288.26000000071,"y":2543262.2300000004}},{"attributes":{"ID":535180,"DIS_CODE":0,"TOWNNAME":"東區","LI":"東門里","LIN":"19鄰","STREET":"東門路","SECT":"一段","MAREA":" ","LANE":" ","ALLEY":" ","HOUSE_NO":"６１號六樓之１４","E_COORD97":169288.26000000001,"N_COORD97":2543262.23,"ADDRESS":"東門路一段６１號六樓之１４","OBJECTID":535153},"geometry":{"x":169288.26000000071,"y":2543262.2300000004}},{"attributes":{"ID":535181,"DIS_CODE":0,"TOWNNAME":"東區","LI":"東門里","LIN":"19鄰","STREET":"東門路","SECT":"一段","MAREA":" ","LANE":" ","ALLEY":" ","HOUSE_NO":"６１號六樓之１５","E_COORD97":169288.26000000001,"N_COORD97":2543262.23,"ADDRESS":"東門路一段６１號六樓之１５","OBJECTID":535154},"geometry":{"x":169288.26000000071,"y":2543262.2300000004}},{"attributes":{"ID":535182,"DIS_CODE":0,"TOWNNAME":"東區","LI":"東門里","LIN":"19鄰","STREET":"東門路","SECT":"一段","MAREA":" ","LANE":" ","ALLEY":" ","HOUSE_NO":"６１號六樓之２","E_COORD97":169288.26000000001,"N_COORD97":2543262.23,"ADDRESS":"東門路一段６１號六樓之２","OBJECTID":535155},"geometry":{"x":169288.26000000071,"y":2543262.2300000004}},{"attributes":{"ID":535183,"DIS_CODE":0,"TOWNNAME":"東區","LI":"東門里","LIN":"19鄰","STREET":"東門路","SECT":"一段","MAREA":" ","LANE":" ","ALLEY":" ","HOUSE_NO":"６１號六樓之３","E_COORD97":169288.26000000001,"N_COORD97":2543262.23,"ADDRESS":"東門路一段６１號六樓之３","OBJECTID":535156},"geometry":{"x":169288.26000000071,"y":2543262.2300000004}},{"attributes":{"ID":535184,"DIS_CODE":0,"TOWNNAME":"東區","LI":"東門里","LIN":"19鄰","STREET":"東門路","SECT":"一段","MAREA":" ","LANE":" ","ALLEY":" ","HOUSE_NO":"６１號六樓之４","E_COORD97":169288.26000000001,"N_COORD97":2543262.23,"ADDRESS":"東門路一段６１號六樓之４","OBJECTID":535157},"geometry":{"x":169288.26000000071,"y":2543262.2300000004}},{"attributes":{"ID":535185,"DIS_CODE":0,"TOWNNAME":"東區","LI":"東門里","LIN":"19鄰","STREET":"東門路","SECT":"一段","MAREA":" ","LANE":" ","ALLEY":" ","HOUSE_NO":"６１號六樓之５","E_COORD97":169288.26000000001,"N_COORD97":2543262.23,"ADDRESS":"東門路一段６１號六樓之５","OBJECTID":535158},"geometry":{"x":169288.26000000071,"y":2543262.2300000004}},{"attributes":{"ID":535186,"DIS_CODE":0,"TOWNNAME":"東區","LI":"東門里","LIN":"19鄰","STREET":"東門路","SECT":"一段","MAREA":" ","LANE":" ","ALLEY":" ","HOUSE_NO":"６１號六樓之６","E_COORD97":169288.26000000001,"N_COORD97":2543262.23,"ADDRESS":"東門路一段６１號六樓之６","OBJECTID":535159},"geometry":{"x":169288.26000000071,"y":2543262.2300000004}},{"attributes":{"ID":535187,"DIS_CODE":0,"TOWNNAME":"東區","LI":"東門里","LIN":"19鄰","STREET":"東門路","SECT":"一段","MAREA":" ","LANE":" ","ALLEY":" ","HOUSE_NO":"６１號六樓之７","E_COORD97":169288.26000000001,"N_COORD97":2543262.23,"ADDRESS":"東門路一段６１號六樓之７","OBJECTID":535160},"geometry":{"x":169288.26000000071,"y":2543262.2300000004}},{"attributes":{"ID":535188,"DIS_CODE":0,"TOWNNAME":"東區","LI":"東門里","LIN":"19鄰","STREET":"東門路","SECT":"一段","MAREA":" ","LANE":" ","ALLEY":" ","HOUSE_NO":"６１號六樓之８","E_COORD97":169288.26000000001,"N_COORD97":2543262.23,"ADDRESS":"東門路一段６１號六樓之８","OBJECTID":535161},"geometry":{"x":169288.26000000071,"y":2543262.2300000004}},{"attributes":{"ID":535189,"DIS_CODE":0,"TOWNNAME":"東區","LI":"東門里","LIN":"19鄰","STREET":"東門路","SECT":"一段","MAREA":" ","LANE":" ","ALLEY":" ","HOUSE_NO":"６１號六樓之９","E_COORD97":169288.26000000001,"N_COORD97":2543262.23,"ADDRESS":"東門路一段６１號六樓之９","OBJECTID":535162},"geometry":{"x":169288.26000000071,"y":2543262.2300000004}},{"attributes":{"ID":535190,"DIS_CODE":0,"TOWNNAME":"東區","LI":"東門里","LIN":"19鄰","STREET":"東門路","SECT":"一段","MAREA":" ","LANE":" ","ALLEY":" ","HOUSE_NO":"６１號四樓之１","E_COORD97":169288.26000000001,"N_COORD97":2543262.23,"ADDRESS":"東門路一段６１號四樓之１","OBJECTID":535163},"geometry":{"x":169288.26000000071,"y":2543262.2300000004}},{"attributes":{"ID":535191,"DIS_CODE":0,"TOWNNAME":"東區","LI":"東門里","LIN":"19鄰","STREET":"東門路","SECT":"一段","MAREA":" ","LANE":" ","ALLEY":" ","HOUSE_NO":"６１號四樓之１０","E_COORD97":169288.26000000001,"N_COORD97":2543262.23,"ADDRESS":"東門路一段６１號四樓之１０","OBJECTID":535164},"geometry":{"x":169288.26000000071,"y":2543262.2300000004}},{"attributes":{"ID":535192,"DIS_CODE":0,"TOWNNAME":"東區","LI":"東門里","LIN":"19鄰","STREET":"東門路","SECT":"一段","MAREA":" ","LANE":" ","ALLEY":" ","HOUSE_NO":"６１號四樓之１１","E_COORD97":169288.26000000001,"N_COORD97":2543262.23,"ADDRESS":"東門路一段６１號四樓之１１","OBJECTID":535165},"geometry":{"x":169288.26000000071,"y":2543262.2300000004}},{"attributes":{"ID":535193,"DIS_CODE":0,"TOWNNAME":"東區","LI":"東門里","LIN":"19鄰","STREET":"東門路","SECT":"一段","MAREA":" ","LANE":" ","ALLEY":" ","HOUSE_NO":"６１號四樓之１２","E_COORD97":169288.26000000001,"N_COORD97":2543262.23,"ADDRESS":"東門路一段６１號四樓之１２","OBJECTID":535166},"geometry":{"x":169288.26000000071,"y":2543262.2300000004}},{"attributes":{"ID":535194,"DIS_CODE":0,"TOWNNAME":"東區","LI":"東門里","LIN":"19鄰","STREET":"東門路","SECT":"一段","MAREA":" ","LANE":" ","ALLEY":" ","HOUSE_NO":"６１號四樓之１３","E_COORD97":169288.26000000001,"N_COORD97":2543262.23,"ADDRESS":"東門路一段６１號四樓之１３","OBJECTID":535167},"geometry":{"x":169288.26000000071,"y":2543262.2300000004}},{"attributes":{"ID":535195,"DIS_CODE":0,"TOWNNAME":"東區","LI":"東門里","LIN":"19鄰","STREET":"東門路","SECT":"一段","MAREA":" ","LANE":" ","ALLEY":" ","HOUSE_NO":"６１號四樓之１５","E_COORD97":169288.26000000001,"N_COORD97":2543262.23,"ADDRESS":"東門路一段６１號四樓之１５","OBJECTID":535168},"geometry":{"x":169288.26000000071,"y":2543262.2300000004}},{"attributes":{"ID":535196,"DIS_CODE":0,"TOWNNAME":"東區","LI":"東門里","LIN":"19鄰","STREET":"東門路","SECT":"一段","MAREA":" ","LANE":" ","ALLEY":" ","HOUSE_NO":"６１號四樓之２","E_COORD97":169288.26000000001,"N_COORD97":2543262.23,"ADDRESS":"東門路一段６１號四樓之２","OBJECTID":535169},"geometry":{"x":169288.26000000071,"y":2543262.2300000004}},{"attributes":{"ID":535197,"DIS_CODE":0,"TOWNNAME":"東區","LI":"東門里","LIN":"19鄰","STREET":"東門路","SECT":"一段","MAREA":" ","LANE":" ","ALLEY":" ","HOUSE_NO":"６１號四樓之３","E_COORD97":169288.26000000001,"N_COORD97":2543262.23,"ADDRESS":"東門路一段６１號四樓之３","OBJECTID":535170},"geometry":{"x":169288.26000000071,"y":2543262.2300000004}},{"attributes":{"ID":535198,"DIS_CODE":0,"TOWNNAME":"東區","LI":"東門里","LIN":"19鄰","STREET":"東門路","SECT":"一段","MAREA":" ","LANE":" ","ALLEY":" ","HOUSE_NO":"６１號四樓之５","E_COORD97":169288.26000000001,"N_COORD97":2543262.23,"ADDRESS":"東門路一段６１號四樓之５","OBJECTID":535171},"geometry":{"x":169288.26000000071,"y":2543262.2300000004}},{"attributes":{"ID":535199,"DIS_CODE":0,"TOWNNAME":"東區","LI":"東門里","LIN":"19鄰","STREET":"東門路","SECT":"一段","MAREA":" ","LANE":" ","ALLEY":" ","HOUSE_NO":"６１號四樓之６","E_COORD97":169288.26000000001,"N_COORD97":2543262.23,"ADDRESS":"東門路一段６１號四樓之６","OBJECTID":535172},"geometry":{"x":169288.26000000071,"y":2543262.2300000004}},{"attributes":{"ID":535200,"DIS_CODE":0,"TOWNNAME":"東區","LI":"東門里","LIN":"19鄰","STREET":"東門路","SECT":"一段","MAREA":" ","LANE":" ","ALLEY":" ","HOUSE_NO":"６１號四樓之７","E_COORD97":169288.26000000001,"N_COORD97":2543262.23,"ADDRESS":"東門路一段６１號四樓之７","OBJECTID":535173},"geometry":{"x":169288.26000000071,"y":2543262.2300000004}},{"attributes":{"ID":535201,"DIS_CODE":0,"TOWNNAME":"東區","LI":"東門里","LIN":"19鄰","STREET":"東門路","SECT":"一段","MAREA":" ","LANE":" ","ALLEY":" ","HOUSE_NO":"６１號四樓之８","E_COORD97":169288.26000000001,"N_COORD97":2543262.23,"ADDRESS":"東門路一段６１號四樓之８","OBJECTID":535174},"geometry":{"x":169288.26000000071,"y":2543262.2300000004}},{"attributes":{"ID":535202,"DIS_CODE":0,"TOWNNAME":"東區","LI":"東門里","LIN":"19鄰","STREET":"東門路","SECT":"一段","MAREA":" ","LANE":" ","ALLEY":" ","HOUSE_NO":"６１號四樓之９","E_COORD97":169288.26000000001,"N_COORD97":2543262.23,"ADDRESS":"東門路一段６１號四樓之９","OBJECTID":535175},"geometry":{"x":169288.26000000071,"y":2543262.2300000004}},{"attributes":{"ID":535203,"DIS_CODE":0,"TOWNNAME":"官田區","LI":"二鎮里","LIN":"19鄰","STREET":"工社西街","SECT":" ","MAREA":" ","LANE":" ","ALLEY":" ","HOUSE_NO":"１６號四樓之２","E_COORD97":180814.42000000001,"N_COORD97":2568630.1699999999,"ADDRESS":"工社西街１６號四樓之２","OBJECTID":535176},"geometry":{"x":180814.42000000086,"y":2568630.1699999981}},{"attributes":{"ID":535204,"DIS_CODE":0,"TOWNNAME":"中西區","LI":"民生里","LIN":"19鄰","STREET":"南華街","SECT":" ","MAREA":" ","LANE":" ","ALLEY":" ","HOUSE_NO":"８１號六樓之１０","E_COORD97":167106.60999999999,"N_COORD97":2543489.6000000001,"ADDRESS":"南華街８１號六樓之１０","OBJECTID":535177},"geometry":{"x":167106.61000000127,"y":2543489.5999999996}},{"attributes":{"ID":535205,"DIS_CODE":0,"TOWNNAME":"中西區","LI":"民生里","LIN":"19鄰","STREET":"南華街","SECT":" ","MAREA":" ","LANE":" ","ALLEY":" ","HOUSE_NO":"８１號六樓之４","E_COORD97":167100.67999999999,"N_COORD97":2543495.4199999999,"ADDRESS":"南華街８１號六樓之４","OBJECTID":535178},"geometry":{"x":167100.6799999997,"y":2543495.4199999999}},{"attributes":{"ID":535206,"DIS_CODE":0,"TOWNNAME":"東區","LI":"崇成里","LIN":"19鄰","STREET":"崇明路","SECT":" ","MAREA":" ","LANE":" ","ALLEY":" ","HOUSE_NO":"５９１號七樓","E_COORD97":170630.81,"N_COORD97":2540904.6299999999,"ADDRESS":"崇明路５９１號七樓","OBJECTID":535179},"geometry":{"x":170630.80999999959,"y":2540904.6300000008}},{"attributes":{"ID":535207,"DIS_CODE":0,"TOWNNAME":"東區","LI":"崇成里","LIN":"19鄰","STREET":"崇明路","SECT":" ","MAREA":" ","LANE":" ","ALLEY":" ","HOUSE_NO":"５９１號七樓之１","E_COORD97":170630.81,"N_COORD97":2540904.6299999999,"ADDRESS":"崇明路５９１號七樓之１","OBJECTID":535180},"geometry":{"x":170630.80999999959,"y":2540904.6300000008}},{"attributes":{"ID":535208,"DIS_CODE":0,"TOWNNAME":"東區","LI":"崇成里","LIN":"19鄰","STREET":"崇明路","SECT":" ","MAREA":" ","LANE":" ","ALLEY":" ","HOUSE_NO":"５９１號七樓之２","E_COORD97":170630.81,"N_COORD97":2540904.6299999999,"ADDRESS":"崇明路５９１號七樓之２","OBJECTID":535181},"geometry":{"x":170630.80999999959,"y":2540904.6300000008}},{"attributes":{"ID":535209,"DIS_CODE":0,"TOWNNAME":"東區","LI":"崇成里","LIN":"19鄰","STREET":"崇明路","SECT":" ","MAREA":" ","LANE":" ","ALLEY":" ","HOUSE_NO":"５９１號二樓之２","E_COORD97":170630.81,"N_COORD97":2540904.6299999999,"ADDRESS":"崇明路５９１號二樓之２","OBJECTID":535182},"geometry":{"x":170630.80999999959,"y":2540904.6300000008}},{"attributes":{"ID":535210,"DIS_CODE":0,"TOWNNAME":"東區","LI":"崇成里","LIN":"19鄰","STREET":"崇明路","SECT":" ","MAREA":" ","LANE":" ","ALLEY":" ","HOUSE_NO":"５９１號八樓","E_COORD97":170630.81,"N_COORD97":2540904.6299999999,"ADDRESS":"崇明路５９１號八樓","OBJECTID":535183},"geometry":{"x":170630.80999999959,"y":2540904.6300000008}},{"attributes":{"ID":535211,"DIS_CODE":0,"TOWNNAME":"東區","LI":"崇成里","LIN":"19鄰","STREET":"崇明路","SECT":" ","MAREA":" ","LANE":" ","ALLEY":" ","HOUSE_NO":"５９１號八樓之１","E_COORD97":170630.81,"N_COORD97":2540904.6299999999,"ADDRESS":"崇明路５９１號八樓之１","OBJECTID":535184},"geometry":{"x":170630.80999999959,"y":2540904.6300000008}},{"attributes":{"ID":535212,"DIS_CODE":0,"TOWNNAME":"東區","LI":"崇成里","LIN":"19鄰","STREET":"崇明路","SECT":" ","MAREA":" ","LANE":" ","ALLEY":" ","HOUSE_NO":"５９１號八樓之２","E_COORD97":170630.81,"N_COORD97":2540904.6299999999,"ADDRESS":"崇明路５９１號八樓之２","OBJECTID":535185},"geometry":{"x":170630.80999999959,"y":2540904.6300000008}},{"attributes":{"ID":535213,"DIS_CODE":0,"TOWNNAME":"東區","LI":"崇成里","LIN":"19鄰","STREET":"崇明路","SECT":" ","MAREA":" ","LANE":" ","ALLEY":" ","HOUSE_NO":"５９１號三樓","E_COORD97":170630.81,"N_COORD97":2540904.6299999999,"ADDRESS":"崇明路５９１號三樓","OBJECTID":535186},"geometry":{"x":170630.80999999959,"y":2540904.6300000008}},{"attributes":{"ID":535214,"DIS_CODE":0,"TOWNNAME":"東區","LI":"崇成里","LIN":"19鄰","STREET":"崇明路","SECT":" ","MAREA":" ","LANE":" ","ALLEY":" ","HOUSE_NO":"５９１號三樓之１","E_COORD97":170630.81,"N_COORD97":2540904.6299999999,"ADDRESS":"崇明路５９１號三樓之１","OBJECTID":535187},"geometry":{"x":170630.80999999959,"y":2540904.6300000008}},{"attributes":{"ID":535215,"DIS_CODE":0,"TOWNNAME":"東區","LI":"崇成里","LIN":"19鄰","STREET":"崇明路","SECT":" ","MAREA":" ","LANE":" ","ALLEY":" ","HOUSE_NO":"５９１號三樓之２","E_COORD97":170630.81,"N_COORD97":2540904.6299999999,"ADDRESS":"崇明路５９１號三樓之２","OBJECTID":535188},"geometry":{"x":170630.80999999959,"y":2540904.6300000008}},{"attributes":{"ID":535216,"DIS_CODE":0,"TOWNNAME":"東區","LI":"崇成里","LIN":"19鄰","STREET":"崇明路","SECT":" ","MAREA":" ","LANE":" ","ALLEY":" ","HOUSE_NO":"５９１號五樓","E_COORD97":170630.81,"N_COORD97":2540904.6299999999,"ADDRESS":"崇明路５９１號五樓","OBJECTID":535189},"geometry":{"x":170630.80999999959,"y":2540904.6300000008}},{"attributes":{"ID":535217,"DIS_CODE":0,"TOWNNAME":"東區","LI":"崇成里","LIN":"19鄰","STREET":"崇明路","SECT":" ","MAREA":" ","LANE":" ","ALLEY":" ","HOUSE_NO":"５９１號五樓之１","E_COORD97":170630.81,"N_COORD97":2540904.6299999999,"ADDRESS":"崇明路５９１號五樓之１","OBJECTID":535190},"geometry":{"x":170630.80999999959,"y":2540904.6300000008}},{"attributes":{"ID":535218,"DIS_CODE":0,"TOWNNAME":"東區","LI":"崇成里","LIN":"19鄰","STREET":"崇明路","SECT":" ","MAREA":" ","LANE":" ","ALLEY":" ","HOUSE_NO":"５９１號五樓之２","E_COORD97":170630.81,"N_COORD97":2540904.6299999999,"ADDRESS":"崇明路５９１號五樓之２","OBJECTID":535191},"geometry":{"x":170630.80999999959,"y":2540904.6300000008}},{"attributes":{"ID":535219,"DIS_CODE":0,"TOWNNAME":"東區","LI":"崇成里","LIN":"19鄰","STREET":"崇明路","SECT":" ","MAREA":" ","LANE":" ","ALLEY":" ","HOUSE_NO":"５９１號六樓","E_COORD97":170630.81,"N_COORD97":2540904.6299999999,"ADDRESS":"崇明路５９１號六樓","OBJECTID":535192},"geometry":{"x":170630.80999999959,"y":2540904.6300000008}},{"attributes":{"ID":535220,"DIS_CODE":0,"TOWNNAME":"東區","LI":"崇成里","LIN":"19鄰","STREET":"崇明路","SECT":" ","MAREA":" ","LANE":" ","ALLEY":" ","HOUSE_NO":"５９１號六樓之１","E_COORD97":170630.81,"N_COORD97":2540904.6299999999,"ADDRESS":"崇明路５９１號六樓之１","OBJECTID":535193},"geometry":{"x":170630.80999999959,"y":2540904.6300000008}},{"attributes":{"ID":535221,"DIS_CODE":0,"TOWNNAME":"東區","LI":"崇成里","LIN":"19鄰","STREET":"崇明路","SECT":" ","MAREA":" ","LANE":" ","ALLEY":" ","HOUSE_NO":"５９１號六樓之２","E_COORD97":170630.81,"N_COORD97":2540904.6299999999,"ADDRESS":"崇明路５９１號六樓之２","OBJECTID":535194},"geometry":{"x":170630.80999999959,"y":2540904.6300000008}},{"attributes":{"ID":535222,"DIS_CODE":0,"TOWNNAME":"東區","LI":"崇成里","LIN":"19鄰","STREET":"崇明路","SECT":" ","MAREA":" ","LANE":" ","ALLEY":" ","HOUSE_NO":"５９１號四樓","E_COORD97":170630.81,"N_COORD97":2540904.6299999999,"ADDRESS":"崇明路５９１號四樓","OBJECTID":535195},"geometry":{"x":170630.80999999959,"y":2540904.6300000008}},{"attributes":{"ID":535223,"DIS_CODE":0,"TOWNNAME":"東區","LI":"崇成里","LIN":"19鄰","STREET":"崇明路","SECT":" ","MAREA":" ","LANE":" ","ALLEY":" ","HOUSE_NO":"５９１號四樓之１","E_COORD97":170630.81,"N_COORD97":2540904.6299999999,"ADDRESS":"崇明路５９１號四樓之１","OBJECTID":535196},"geometry":{"x":170630.80999999959,"y":2540904.6300000008}},{"attributes":{"ID":535224,"DIS_CODE":0,"TOWNNAME":"東區","LI":"崇成里","LIN":"19鄰","STREET":"崇明路","SECT":" ","MAREA":" ","LANE":" ","ALLEY":" ","HOUSE_NO":"５９１號四樓之２","E_COORD97":170630.81,"N_COORD97":2540904.6299999999,"ADDRESS":"崇明路５９１號四樓之２","OBJECTID":535197},"geometry":{"x":170630.80999999959,"y":2540904.6300000008}},{"attributes":{"ID":535225,"DIS_CODE":0,"TOWNNAME":"東區","LI":"崇成里","LIN":"19鄰","STREET":"崇明路","SECT":" ","MAREA":" ","LANE":" ","ALLEY":" ","HOUSE_NO":"５９５號七樓","E_COORD97":170623.85000000001,"N_COORD97":2540884.8700000001,"ADDRESS":"崇明路５９５號七樓","OBJECTID":535198},"geometry":{"x":170623.84999999963,"y":2540884.8700000029}},{"attributes":{"ID":535226,"DIS_CODE":0,"TOWNNAME":"東區","LI":"崇成里","LIN":"19鄰","STREET":"崇明路","SECT":" ","MAREA":" ","LANE":" ","ALLEY":" ","HOUSE_NO":"５９５號七樓之１","E_COORD97":170623.85000000001,"N_COORD97":2540884.8700000001,"ADDRESS":"崇明路５９５號七樓之１","OBJECTID":535199},"geometry":{"x":170623.84999999963,"y":2540884.8700000029}},{"attributes":{"ID":535227,"DIS_CODE":0,"TOWNNAME":"東區","LI":"崇成里","LIN":"19鄰","STREET":"崇明路","SECT":" ","MAREA":" ","LANE":" ","ALLEY":" ","HOUSE_NO":"５９５號七樓之２","E_COORD97":170623.85000000001,"N_COORD97":2540884.8700000001,"ADDRESS":"崇明路５９５號七樓之２","OBJECTID":535200},"geometry":{"x":170623.84999999963,"y":2540884.8700000029}}]}