{"displayFieldName":"TOWNNAME","fieldAliases":{"ID":"ID","DIS_CODE":"DIS_CODE","TOWNNAME":"TOWNNAME","LI":"LI","LIN":"LIN","STREET":"STREET","SECT":"SECT","MAREA":"MAREA","LANE":"LANE","ALLEY":"ALLEY","HOUSE_NO":"HOUSE_NO","E_COORD97":"E_COORD97","N_COORD97":"N_COORD97","ADDRESS":"ADDRESS","OBJECTID":"OBJECTID"},"geometryType":"esriGeometryPoint","spatialReference":{"wkid":102443,"latestWkid":3826},"fields":[{"name":"ID","type":"esriFieldTypeDouble","alias":"ID"},{"name":"DIS_CODE","type":"esriFieldTypeInteger","alias":"DIS_CODE"},{"name":"TOWNNAME","type":"esriFieldTypeString","alias":"TOWNNAME","length":8},{"name":"LI","type":"esriFieldTypeString","alias":"LI","length":8},{"name":"LIN","type":"esriFieldTypeString","alias":"LIN","length":12},{"name":"STREET","type":"esriFieldTypeString","alias":"STREET","length":20},{"name":"SECT","type":"esriFieldTypeString","alias":"SECT","length":8},{"name":"MAREA","type":"esriFieldTypeString","alias":"MAREA","length":12},{"name":"LANE","type":"esriFieldTypeString","alias":"LANE","length":10},{"name":"ALLEY","type":"esriFieldTypeString","alias":"ALLEY","length":10},{"name":"HOUSE_NO","type":"esriFieldTypeString","alias":"HOUSE_NO","length":20},{"name":"E_COORD97","type":"esriFieldTypeDouble","alias":"E_COORD97"},{"name":"N_COORD97","type":"esriFieldTypeDouble","alias":"N_COORD97"},{"name":"ADDRESS","type":"esriFieldTypeString","alias":"ADDRESS","length":50},{"name":"OBJECTID","type":"esriFieldTypeOID","alias":"OBJECTID"}],"features":[{"attributes":{"ID":350210,"DIS_CODE":0,"TOWNNAME":"安南區","LI":"南興里","LIN":"6鄰","STREET":"公學路","SECT":"五段","MAREA":" ","LANE":"６９７巷","ALLEY":" ","HOUSE_NO":"１６９號十二樓","E_COORD97":163837.38,"N_COORD97":2552448.46,"ADDRESS":"公學路五段６９７巷１６９號十二樓","OBJECTID":350201},"geometry":{"x":163837.38000000082,"y":2552448.4600000028}},{"attributes":{"ID":350211,"DIS_CODE":0,"TOWNNAME":"安南區","LI":"南興里","LIN":"6鄰","STREET":"公學路","SECT":"五段","MAREA":" ","LANE":"６９７巷","ALLEY":" ","HOUSE_NO":"１６９號十樓","E_COORD97":163837.38,"N_COORD97":2552448.46,"ADDRESS":"公學路五段６９７巷１６９號十樓","OBJECTID":350202},"geometry":{"x":163837.38000000082,"y":2552448.4600000028}},{"attributes":{"ID":350212,"DIS_CODE":0,"TOWNNAME":"安南區","LI":"南興里","LIN":"6鄰","STREET":"公學路","SECT":"五段","MAREA":" ","LANE":"６９７巷","ALLEY":" ","HOUSE_NO":"１６９號三樓","E_COORD97":163837.38,"N_COORD97":2552448.46,"ADDRESS":"公學路五段６９７巷１６９號三樓","OBJECTID":350203},"geometry":{"x":163837.38000000082,"y":2552448.4600000028}},{"attributes":{"ID":350213,"DIS_CODE":0,"TOWNNAME":"安南區","LI":"南興里","LIN":"6鄰","STREET":"公學路","SECT":"五段","MAREA":" ","LANE":"６９７巷","ALLEY":" ","HOUSE_NO":"１６９號五樓","E_COORD97":163837.38,"N_COORD97":2552448.46,"ADDRESS":"公學路五段６９７巷１６９號五樓","OBJECTID":350204},"geometry":{"x":163837.38000000082,"y":2552448.4600000028}},{"attributes":{"ID":350214,"DIS_CODE":0,"TOWNNAME":"安南區","LI":"南興里","LIN":"6鄰","STREET":"公學路","SECT":"五段","MAREA":" ","LANE":"６９７巷","ALLEY":" ","HOUSE_NO":"１６９號六樓","E_COORD97":163837.38,"N_COORD97":2552448.46,"ADDRESS":"公學路五段６９７巷１６９號六樓","OBJECTID":350205},"geometry":{"x":163837.38000000082,"y":2552448.4600000028}},{"attributes":{"ID":350215,"DIS_CODE":0,"TOWNNAME":"安南區","LI":"南興里","LIN":"6鄰","STREET":"公學路","SECT":"五段","MAREA":" ","LANE":"６９７巷","ALLEY":" ","HOUSE_NO":"１６９號四樓","E_COORD97":163837.38,"N_COORD97":2552448.46,"ADDRESS":"公學路五段６９７巷１６９號四樓","OBJECTID":350206},"geometry":{"x":163837.38000000082,"y":2552448.4600000028}},{"attributes":{"ID":350216,"DIS_CODE":0,"TOWNNAME":"安南區","LI":"南興里","LIN":"6鄰","STREET":"公學路","SECT":"五段","MAREA":" ","LANE":"６９７巷","ALLEY":" ","HOUSE_NO":"１７１號一樓","E_COORD97":163863.70000000001,"N_COORD97":2552450.5699999998,"ADDRESS":"公學路五段６９７巷１７１號一樓","OBJECTID":350207},"geometry":{"x":163863.70000000019,"y":2552450.5700000022}},{"attributes":{"ID":350217,"DIS_CODE":0,"TOWNNAME":"安南區","LI":"南興里","LIN":"6鄰","STREET":"公學路","SECT":"五段","MAREA":" ","LANE":"６９７巷","ALLEY":" ","HOUSE_NO":"１７１號七樓","E_COORD97":163863.70000000001,"N_COORD97":2552450.5699999998,"ADDRESS":"公學路五段６９７巷１７１號七樓","OBJECTID":350208},"geometry":{"x":163863.70000000019,"y":2552450.5700000022}},{"attributes":{"ID":350218,"DIS_CODE":0,"TOWNNAME":"安南區","LI":"南興里","LIN":"6鄰","STREET":"公學路","SECT":"五段","MAREA":" ","LANE":"６９７巷","ALLEY":" ","HOUSE_NO":"１７１號七樓之１","E_COORD97":163863.70000000001,"N_COORD97":2552450.5699999998,"ADDRESS":"公學路五段６９７巷１７１號七樓之１","OBJECTID":350209},"geometry":{"x":163863.70000000019,"y":2552450.5700000022}},{"attributes":{"ID":350219,"DIS_CODE":0,"TOWNNAME":"安南區","LI":"南興里","LIN":"6鄰","STREET":"公學路","SECT":"五段","MAREA":" ","LANE":"６９７巷","ALLEY":" ","HOUSE_NO":"１７１號九樓","E_COORD97":163863.70000000001,"N_COORD97":2552450.5699999998,"ADDRESS":"公學路五段６９７巷１７１號九樓","OBJECTID":350210},"geometry":{"x":163863.70000000019,"y":2552450.5700000022}},{"attributes":{"ID":350220,"DIS_CODE":0,"TOWNNAME":"安南區","LI":"南興里","LIN":"6鄰","STREET":"公學路","SECT":"五段","MAREA":" ","LANE":"６９７巷","ALLEY":" ","HOUSE_NO":"１７１號九樓之１","E_COORD97":163863.70000000001,"N_COORD97":2552450.5699999998,"ADDRESS":"公學路五段６９７巷１７１號九樓之１","OBJECTID":350211},"geometry":{"x":163863.70000000019,"y":2552450.5700000022}},{"attributes":{"ID":350221,"DIS_CODE":0,"TOWNNAME":"安南區","LI":"南興里","LIN":"6鄰","STREET":"公學路","SECT":"五段","MAREA":" ","LANE":"６９７巷","ALLEY":" ","HOUSE_NO":"１７１號八樓","E_COORD97":163863.70000000001,"N_COORD97":2552450.5699999998,"ADDRESS":"公學路五段６９７巷１７１號八樓","OBJECTID":350212},"geometry":{"x":163863.70000000019,"y":2552450.5700000022}},{"attributes":{"ID":350222,"DIS_CODE":0,"TOWNNAME":"安南區","LI":"南興里","LIN":"6鄰","STREET":"公學路","SECT":"五段","MAREA":" ","LANE":"６９７巷","ALLEY":" ","HOUSE_NO":"１７１號八樓之１","E_COORD97":163863.70000000001,"N_COORD97":2552450.5699999998,"ADDRESS":"公學路五段６９７巷１７１號八樓之１","OBJECTID":350213},"geometry":{"x":163863.70000000019,"y":2552450.5700000022}},{"attributes":{"ID":350223,"DIS_CODE":0,"TOWNNAME":"安南區","LI":"南興里","LIN":"6鄰","STREET":"公學路","SECT":"五段","MAREA":" ","LANE":"６９７巷","ALLEY":" ","HOUSE_NO":"１７１號十一樓","E_COORD97":163863.70000000001,"N_COORD97":2552450.5699999998,"ADDRESS":"公學路五段６９７巷１７１號十一樓","OBJECTID":350214},"geometry":{"x":163863.70000000019,"y":2552450.5700000022}},{"attributes":{"ID":350224,"DIS_CODE":0,"TOWNNAME":"安南區","LI":"南興里","LIN":"6鄰","STREET":"公學路","SECT":"五段","MAREA":" ","LANE":"６９７巷","ALLEY":" ","HOUSE_NO":"１７１號十一樓之１","E_COORD97":163863.70000000001,"N_COORD97":2552450.5699999998,"ADDRESS":"公學路五段６９７巷１７１號十一樓之１","OBJECTID":350215},"geometry":{"x":163863.70000000019,"y":2552450.5700000022}},{"attributes":{"ID":350225,"DIS_CODE":0,"TOWNNAME":"安南區","LI":"南興里","LIN":"6鄰","STREET":"公學路","SECT":"五段","MAREA":" ","LANE":"６９７巷","ALLEY":" ","HOUSE_NO":"１７１號十二樓","E_COORD97":163863.70000000001,"N_COORD97":2552450.5699999998,"ADDRESS":"公學路五段６９７巷１７１號十二樓","OBJECTID":350216},"geometry":{"x":163863.70000000019,"y":2552450.5700000022}},{"attributes":{"ID":350226,"DIS_CODE":0,"TOWNNAME":"安南區","LI":"南興里","LIN":"6鄰","STREET":"公學路","SECT":"五段","MAREA":" ","LANE":"６９７巷","ALLEY":" ","HOUSE_NO":"１７１號十二樓之１","E_COORD97":163863.70000000001,"N_COORD97":2552450.5699999998,"ADDRESS":"公學路五段６９７巷１７１號十二樓之１","OBJECTID":350217},"geometry":{"x":163863.70000000019,"y":2552450.5700000022}},{"attributes":{"ID":350227,"DIS_CODE":0,"TOWNNAME":"安南區","LI":"南興里","LIN":"6鄰","STREET":"公學路","SECT":"五段","MAREA":" ","LANE":"６９７巷","ALLEY":" ","HOUSE_NO":"１７１號十樓","E_COORD97":163863.70000000001,"N_COORD97":2552450.5699999998,"ADDRESS":"公學路五段６９７巷１７１號十樓","OBJECTID":350218},"geometry":{"x":163863.70000000019,"y":2552450.5700000022}},{"attributes":{"ID":350228,"DIS_CODE":0,"TOWNNAME":"安南區","LI":"南興里","LIN":"6鄰","STREET":"公學路","SECT":"五段","MAREA":" ","LANE":"６９７巷","ALLEY":" ","HOUSE_NO":"１７１號十樓之１","E_COORD97":163863.70000000001,"N_COORD97":2552450.5699999998,"ADDRESS":"公學路五段６９７巷１７１號十樓之１","OBJECTID":350219},"geometry":{"x":163863.70000000019,"y":2552450.5700000022}},{"attributes":{"ID":350229,"DIS_CODE":0,"TOWNNAME":"安南區","LI":"南興里","LIN":"6鄰","STREET":"公學路","SECT":"五段","MAREA":" ","LANE":"６９７巷","ALLEY":" ","HOUSE_NO":"１７１號三樓","E_COORD97":163863.70000000001,"N_COORD97":2552450.5699999998,"ADDRESS":"公學路五段６９７巷１７１號三樓","OBJECTID":350220},"geometry":{"x":163863.70000000019,"y":2552450.5700000022}},{"attributes":{"ID":350230,"DIS_CODE":0,"TOWNNAME":"安南區","LI":"南興里","LIN":"6鄰","STREET":"公學路","SECT":"五段","MAREA":" ","LANE":"６９７巷","ALLEY":" ","HOUSE_NO":"１７１號三樓之１","E_COORD97":163863.70000000001,"N_COORD97":2552450.5699999998,"ADDRESS":"公學路五段６９７巷１７１號三樓之１","OBJECTID":350221},"geometry":{"x":163863.70000000019,"y":2552450.5700000022}},{"attributes":{"ID":350231,"DIS_CODE":0,"TOWNNAME":"安南區","LI":"南興里","LIN":"6鄰","STREET":"公學路","SECT":"五段","MAREA":" ","LANE":"６９７巷","ALLEY":" ","HOUSE_NO":"１７１號六樓之１","E_COORD97":163863.70000000001,"N_COORD97":2552450.5699999998,"ADDRESS":"公學路五段６９７巷１７１號六樓之１","OBJECTID":350222},"geometry":{"x":163863.70000000019,"y":2552450.5700000022}},{"attributes":{"ID":350232,"DIS_CODE":0,"TOWNNAME":"安南區","LI":"南興里","LIN":"6鄰","STREET":"公學路","SECT":"五段","MAREA":" ","LANE":"６９７巷","ALLEY":" ","HOUSE_NO":"１７１號四樓","E_COORD97":163863.70000000001,"N_COORD97":2552450.5699999998,"ADDRESS":"公學路五段６９７巷１７１號四樓","OBJECTID":350223},"geometry":{"x":163863.70000000019,"y":2552450.5700000022}},{"attributes":{"ID":350233,"DIS_CODE":0,"TOWNNAME":"安南區","LI":"南興里","LIN":"6鄰","STREET":"公學路","SECT":"五段","MAREA":" ","LANE":"６９７巷","ALLEY":" ","HOUSE_NO":"１７１號四樓之１","E_COORD97":163863.70000000001,"N_COORD97":2552450.5699999998,"ADDRESS":"公學路五段６９７巷１７１號四樓之１","OBJECTID":350224},"geometry":{"x":163863.70000000019,"y":2552450.5700000022}},{"attributes":{"ID":350234,"DIS_CODE":0,"TOWNNAME":"安南區","LI":"海東里","LIN":"6鄰","STREET":"同安路","SECT":" ","MAREA":" ","LANE":"２３７巷","ALLEY":" ","HOUSE_NO":"１號七樓之１","E_COORD97":167195.69,"N_COORD97":2549238.3799999999,"ADDRESS":"同安路２３７巷１號七樓之１","OBJECTID":350225},"geometry":{"x":167195.69000000134,"y":2549238.3800000027}},{"attributes":{"ID":350235,"DIS_CODE":0,"TOWNNAME":"安南區","LI":"海東里","LIN":"6鄰","STREET":"同安路","SECT":" ","MAREA":" ","LANE":"２３７巷","ALLEY":" ","HOUSE_NO":"１號七樓之２","E_COORD97":167195.69,"N_COORD97":2549238.3799999999,"ADDRESS":"同安路２３７巷１號七樓之２","OBJECTID":350226},"geometry":{"x":167195.69000000134,"y":2549238.3800000027}},{"attributes":{"ID":350236,"DIS_CODE":0,"TOWNNAME":"北區","LI":"小康里","LIN":"8鄰","STREET":"實踐街","SECT":" ","MAREA":" ","LANE":" ","ALLEY":" ","HOUSE_NO":"２５號","E_COORD97":169819.82000000001,"N_COORD97":2546085.0299999998,"ADDRESS":"實踐街２５號","OBJECTID":350227},"geometry":{"x":169819.8200000003,"y":2546085.0300000012}},{"attributes":{"ID":350237,"DIS_CODE":0,"TOWNNAME":"永康區","LI":"成功里","LIN":"37鄰","STREET":"中華路","SECT":" ","MAREA":" ","LANE":"１５４巷","ALLEY":" ","HOUSE_NO":"７１號","E_COORD97":171794.14999999999,"N_COORD97":2544913.7400000002,"ADDRESS":"中華路１５４巷７１號","OBJECTID":350228},"geometry":{"x":171794.15000000037,"y":2544913.7400000002}},{"attributes":{"ID":350238,"DIS_CODE":0,"TOWNNAME":"永康區","LI":"安康里","LIN":"24鄰","STREET":"中華路","SECT":" ","MAREA":" ","LANE":"７０３巷","ALLEY":" ","HOUSE_NO":"５４號","E_COORD97":170760.54000000001,"N_COORD97":2546274.2400000002,"ADDRESS":"中華路７０３巷５４號","OBJECTID":350229},"geometry":{"x":170760.54000000004,"y":2546274.2400000039}},{"attributes":{"ID":350239,"DIS_CODE":0,"TOWNNAME":"安南區","LI":"海東里","LIN":"6鄰","STREET":"同安路","SECT":" ","MAREA":" ","LANE":"２３７巷","ALLEY":" ","HOUSE_NO":"１號七樓之５","E_COORD97":167195.69,"N_COORD97":2549238.3799999999,"ADDRESS":"同安路２３７巷１號七樓之５","OBJECTID":350230},"geometry":{"x":167195.69000000134,"y":2549238.3800000027}},{"attributes":{"ID":350240,"DIS_CODE":0,"TOWNNAME":"安南區","LI":"海東里","LIN":"6鄰","STREET":"同安路","SECT":" ","MAREA":" ","LANE":"２３７巷","ALLEY":" ","HOUSE_NO":"１號七樓之６","E_COORD97":167195.69,"N_COORD97":2549238.3799999999,"ADDRESS":"同安路２３７巷１號七樓之６","OBJECTID":350231},"geometry":{"x":167195.69000000134,"y":2549238.3800000027}},{"attributes":{"ID":350241,"DIS_CODE":0,"TOWNNAME":"安南區","LI":"海東里","LIN":"6鄰","STREET":"同安路","SECT":" ","MAREA":" ","LANE":"２３７巷","ALLEY":" ","HOUSE_NO":"１號七樓之７","E_COORD97":167195.69,"N_COORD97":2549238.3799999999,"ADDRESS":"同安路２３７巷１號七樓之７","OBJECTID":350232},"geometry":{"x":167195.69000000134,"y":2549238.3800000027}},{"attributes":{"ID":350242,"DIS_CODE":0,"TOWNNAME":"安南區","LI":"海東里","LIN":"6鄰","STREET":"同安路","SECT":" ","MAREA":" ","LANE":"２３７巷","ALLEY":" ","HOUSE_NO":"１號七樓之８","E_COORD97":167195.69,"N_COORD97":2549238.3799999999,"ADDRESS":"同安路２３７巷１號七樓之８","OBJECTID":350233},"geometry":{"x":167195.69000000134,"y":2549238.3800000027}},{"attributes":{"ID":350243,"DIS_CODE":0,"TOWNNAME":"安南區","LI":"海東里","LIN":"6鄰","STREET":"同安路","SECT":" ","MAREA":" ","LANE":"２３７巷","ALLEY":" ","HOUSE_NO":"１號九樓之２","E_COORD97":167195.69,"N_COORD97":2549238.3799999999,"ADDRESS":"同安路２３７巷１號九樓之２","OBJECTID":350234},"geometry":{"x":167195.69000000134,"y":2549238.3800000027}},{"attributes":{"ID":350244,"DIS_CODE":0,"TOWNNAME":"安南區","LI":"海東里","LIN":"6鄰","STREET":"同安路","SECT":" ","MAREA":" ","LANE":"２３７巷","ALLEY":" ","HOUSE_NO":"１號九樓之３","E_COORD97":167195.69,"N_COORD97":2549238.3799999999,"ADDRESS":"同安路２３７巷１號九樓之３","OBJECTID":350235},"geometry":{"x":167195.69000000134,"y":2549238.3800000027}},{"attributes":{"ID":350245,"DIS_CODE":0,"TOWNNAME":"安南區","LI":"海東里","LIN":"6鄰","STREET":"同安路","SECT":" ","MAREA":" ","LANE":"２３７巷","ALLEY":" ","HOUSE_NO":"１號九樓之５","E_COORD97":167195.69,"N_COORD97":2549238.3799999999,"ADDRESS":"同安路２３７巷１號九樓之５","OBJECTID":350236},"geometry":{"x":167195.69000000134,"y":2549238.3800000027}},{"attributes":{"ID":350246,"DIS_CODE":0,"TOWNNAME":"安南區","LI":"海東里","LIN":"6鄰","STREET":"同安路","SECT":" ","MAREA":" ","LANE":"２３７巷","ALLEY":" ","HOUSE_NO":"１號九樓之６","E_COORD97":167195.69,"N_COORD97":2549238.3799999999,"ADDRESS":"同安路２３７巷１號九樓之６","OBJECTID":350237},"geometry":{"x":167195.69000000134,"y":2549238.3800000027}},{"attributes":{"ID":350247,"DIS_CODE":0,"TOWNNAME":"安南區","LI":"海東里","LIN":"6鄰","STREET":"同安路","SECT":" ","MAREA":" ","LANE":"２３７巷","ALLEY":" ","HOUSE_NO":"１號九樓之７","E_COORD97":167195.69,"N_COORD97":2549238.3799999999,"ADDRESS":"同安路２３７巷１號九樓之７","OBJECTID":350238},"geometry":{"x":167195.69000000134,"y":2549238.3800000027}},{"attributes":{"ID":350248,"DIS_CODE":0,"TOWNNAME":"安南區","LI":"海東里","LIN":"6鄰","STREET":"同安路","SECT":" ","MAREA":" ","LANE":"２３７巷","ALLEY":" ","HOUSE_NO":"１號九樓之８","E_COORD97":167195.69,"N_COORD97":2549238.3799999999,"ADDRESS":"同安路２３７巷１號九樓之８","OBJECTID":350239},"geometry":{"x":167195.69000000134,"y":2549238.3800000027}},{"attributes":{"ID":350249,"DIS_CODE":0,"TOWNNAME":"安南區","LI":"海東里","LIN":"6鄰","STREET":"同安路","SECT":" ","MAREA":" ","LANE":"２３７巷","ALLEY":" ","HOUSE_NO":"１號九樓之９","E_COORD97":167195.69,"N_COORD97":2549238.3799999999,"ADDRESS":"同安路２３７巷１號九樓之９","OBJECTID":350240},"geometry":{"x":167195.69000000134,"y":2549238.3800000027}},{"attributes":{"ID":350250,"DIS_CODE":0,"TOWNNAME":"安南區","LI":"海東里","LIN":"6鄰","STREET":"同安路","SECT":" ","MAREA":" ","LANE":"２３７巷","ALLEY":" ","HOUSE_NO":"１號八樓之１","E_COORD97":167195.69,"N_COORD97":2549238.3799999999,"ADDRESS":"同安路２３７巷１號八樓之１","OBJECTID":350241},"geometry":{"x":167195.69000000134,"y":2549238.3800000027}},{"attributes":{"ID":350251,"DIS_CODE":0,"TOWNNAME":"安南區","LI":"海東里","LIN":"6鄰","STREET":"同安路","SECT":" ","MAREA":" ","LANE":"２３７巷","ALLEY":" ","HOUSE_NO":"１號八樓之２","E_COORD97":167195.69,"N_COORD97":2549238.3799999999,"ADDRESS":"同安路２３７巷１號八樓之２","OBJECTID":350242},"geometry":{"x":167195.69000000134,"y":2549238.3800000027}},{"attributes":{"ID":350252,"DIS_CODE":0,"TOWNNAME":"安南區","LI":"海東里","LIN":"6鄰","STREET":"同安路","SECT":" ","MAREA":" ","LANE":"２３７巷","ALLEY":" ","HOUSE_NO":"１號八樓之３","E_COORD97":167195.69,"N_COORD97":2549238.3799999999,"ADDRESS":"同安路２３７巷１號八樓之３","OBJECTID":350243},"geometry":{"x":167195.69000000134,"y":2549238.3800000027}},{"attributes":{"ID":350253,"DIS_CODE":0,"TOWNNAME":"安南區","LI":"海東里","LIN":"6鄰","STREET":"同安路","SECT":" ","MAREA":" ","LANE":"２３７巷","ALLEY":" ","HOUSE_NO":"１號八樓之５","E_COORD97":167195.69,"N_COORD97":2549238.3799999999,"ADDRESS":"同安路２３７巷１號八樓之５","OBJECTID":350244},"geometry":{"x":167195.69000000134,"y":2549238.3800000027}},{"attributes":{"ID":350254,"DIS_CODE":0,"TOWNNAME":"安南區","LI":"海東里","LIN":"6鄰","STREET":"同安路","SECT":" ","MAREA":" ","LANE":"２３７巷","ALLEY":" ","HOUSE_NO":"１號八樓之６","E_COORD97":167195.69,"N_COORD97":2549238.3799999999,"ADDRESS":"同安路２３７巷１號八樓之６","OBJECTID":350245},"geometry":{"x":167195.69000000134,"y":2549238.3800000027}},{"attributes":{"ID":350255,"DIS_CODE":0,"TOWNNAME":"安南區","LI":"海東里","LIN":"6鄰","STREET":"同安路","SECT":" ","MAREA":" ","LANE":"２３７巷","ALLEY":" ","HOUSE_NO":"１號八樓之７","E_COORD97":167195.69,"N_COORD97":2549238.3799999999,"ADDRESS":"同安路２３７巷１號八樓之７","OBJECTID":350246},"geometry":{"x":167195.69000000134,"y":2549238.3800000027}},{"attributes":{"ID":350256,"DIS_CODE":0,"TOWNNAME":"安南區","LI":"海東里","LIN":"6鄰","STREET":"同安路","SECT":" ","MAREA":" ","LANE":"２３７巷","ALLEY":" ","HOUSE_NO":"１號八樓之８","E_COORD97":167195.69,"N_COORD97":2549238.3799999999,"ADDRESS":"同安路２３７巷１號八樓之８","OBJECTID":350247},"geometry":{"x":167195.69000000134,"y":2549238.3800000027}},{"attributes":{"ID":350257,"DIS_CODE":0,"TOWNNAME":"安南區","LI":"海東里","LIN":"6鄰","STREET":"同安路","SECT":" ","MAREA":" ","LANE":"２３７巷","ALLEY":" ","HOUSE_NO":"１號十一樓之５","E_COORD97":167195.69,"N_COORD97":2549238.3799999999,"ADDRESS":"同安路２３７巷１號十一樓之５","OBJECTID":350248},"geometry":{"x":167195.69000000134,"y":2549238.3800000027}},{"attributes":{"ID":350258,"DIS_CODE":0,"TOWNNAME":"安南區","LI":"海東里","LIN":"6鄰","STREET":"同安路","SECT":" ","MAREA":" ","LANE":"２３７巷","ALLEY":" ","HOUSE_NO":"１號十一樓之６","E_COORD97":167195.69,"N_COORD97":2549238.3799999999,"ADDRESS":"同安路２３７巷１號十一樓之６","OBJECTID":350249},"geometry":{"x":167195.69000000134,"y":2549238.3800000027}},{"attributes":{"ID":350259,"DIS_CODE":0,"TOWNNAME":"安南區","LI":"海東里","LIN":"6鄰","STREET":"同安路","SECT":" ","MAREA":" ","LANE":"２３７巷","ALLEY":" ","HOUSE_NO":"１號十一樓之７","E_COORD97":167195.69,"N_COORD97":2549238.3799999999,"ADDRESS":"同安路２３７巷１號十一樓之７","OBJECTID":350250},"geometry":{"x":167195.69000000134,"y":2549238.3800000027}},{"attributes":{"ID":350260,"DIS_CODE":0,"TOWNNAME":"安南區","LI":"海東里","LIN":"6鄰","STREET":"同安路","SECT":" ","MAREA":" ","LANE":"２３７巷","ALLEY":" ","HOUSE_NO":"１號十一樓之８","E_COORD97":167195.69,"N_COORD97":2549238.3799999999,"ADDRESS":"同安路２３７巷１號十一樓之８","OBJECTID":350251},"geometry":{"x":167195.69000000134,"y":2549238.3800000027}},{"attributes":{"ID":350261,"DIS_CODE":0,"TOWNNAME":"安南區","LI":"長安里","LIN":"18鄰","STREET":"長溪路","SECT":"三段","MAREA":" ","LANE":"２７３巷","ALLEY":" ","HOUSE_NO":"３７號","E_COORD97":167696.88,"N_COORD97":2551874.0800000001,"ADDRESS":"長溪路三段２７３巷３７號","OBJECTID":350252},"geometry":{"x":167696.87999999896,"y":2551874.0800000019}},{"attributes":{"ID":350262,"DIS_CODE":0,"TOWNNAME":"安南區","LI":"長安里","LIN":"18鄰","STREET":"長溪路","SECT":"三段","MAREA":" ","LANE":"２７３巷","ALLEY":" ","HOUSE_NO":"３８號","E_COORD97":167707.62,"N_COORD97":2551895.3500000001,"ADDRESS":"長溪路三段２７３巷３８號","OBJECTID":350253},"geometry":{"x":167707.62000000104,"y":2551895.3500000015}},{"attributes":{"ID":350263,"DIS_CODE":0,"TOWNNAME":"安南區","LI":"海東里","LIN":"6鄰","STREET":"同安路","SECT":" ","MAREA":" ","LANE":"２３７巷","ALLEY":" ","HOUSE_NO":"１號十一樓之９","E_COORD97":167195.69,"N_COORD97":2549238.3799999999,"ADDRESS":"同安路２３７巷１號十一樓之９","OBJECTID":350254},"geometry":{"x":167195.69000000134,"y":2549238.3800000027}},{"attributes":{"ID":350264,"DIS_CODE":0,"TOWNNAME":"安南區","LI":"海東里","LIN":"6鄰","STREET":"同安路","SECT":" ","MAREA":" ","LANE":"２３７巷","ALLEY":" ","HOUSE_NO":"１號十二樓之１","E_COORD97":167195.69,"N_COORD97":2549238.3799999999,"ADDRESS":"同安路２３７巷１號十二樓之１","OBJECTID":350255},"geometry":{"x":167195.69000000134,"y":2549238.3800000027}},{"attributes":{"ID":350265,"DIS_CODE":0,"TOWNNAME":"安南區","LI":"海東里","LIN":"6鄰","STREET":"同安路","SECT":" ","MAREA":" ","LANE":"２３７巷","ALLEY":" ","HOUSE_NO":"１號十二樓之２","E_COORD97":167195.69,"N_COORD97":2549238.3799999999,"ADDRESS":"同安路２３７巷１號十二樓之２","OBJECTID":350256},"geometry":{"x":167195.69000000134,"y":2549238.3800000027}},{"attributes":{"ID":350266,"DIS_CODE":0,"TOWNNAME":"安南區","LI":"海東里","LIN":"6鄰","STREET":"同安路","SECT":" ","MAREA":" ","LANE":"２３７巷","ALLEY":" ","HOUSE_NO":"１號十二樓之３","E_COORD97":167195.69,"N_COORD97":2549238.3799999999,"ADDRESS":"同安路２３７巷１號十二樓之３","OBJECTID":350257},"geometry":{"x":167195.69000000134,"y":2549238.3800000027}},{"attributes":{"ID":350267,"DIS_CODE":0,"TOWNNAME":"安平區","LI":"億載里","LIN":"8鄰","STREET":"光州六街","SECT":" ","MAREA":" ","LANE":" ","ALLEY":" ","HOUSE_NO":"６８號","E_COORD97":164204.70999999999,"N_COORD97":2543554.6699999999,"ADDRESS":"光州六街６８號","OBJECTID":350258},"geometry":{"x":164204.71000000089,"y":2543554.6699999999}},{"attributes":{"ID":350268,"DIS_CODE":0,"TOWNNAME":"安南區","LI":"海東里","LIN":"6鄰","STREET":"同安路","SECT":" ","MAREA":" ","LANE":"２３７巷","ALLEY":" ","HOUSE_NO":"１號十二樓之５","E_COORD97":167195.69,"N_COORD97":2549238.3799999999,"ADDRESS":"同安路２３７巷１號十二樓之５","OBJECTID":350259},"geometry":{"x":167195.69000000134,"y":2549238.3800000027}},{"attributes":{"ID":350269,"DIS_CODE":0,"TOWNNAME":"安南區","LI":"海東里","LIN":"6鄰","STREET":"同安路","SECT":" ","MAREA":" ","LANE":"２３７巷","ALLEY":" ","HOUSE_NO":"１號十二樓之６","E_COORD97":167195.69,"N_COORD97":2549238.3799999999,"ADDRESS":"同安路２３７巷１號十二樓之６","OBJECTID":350260},"geometry":{"x":167195.69000000134,"y":2549238.3800000027}},{"attributes":{"ID":350270,"DIS_CODE":0,"TOWNNAME":"安南區","LI":"海東里","LIN":"6鄰","STREET":"同安路","SECT":" ","MAREA":" ","LANE":"２３７巷","ALLEY":" ","HOUSE_NO":"１號十二樓之７","E_COORD97":167195.69,"N_COORD97":2549238.3799999999,"ADDRESS":"同安路２３７巷１號十二樓之７","OBJECTID":350261},"geometry":{"x":167195.69000000134,"y":2549238.3800000027}},{"attributes":{"ID":350271,"DIS_CODE":0,"TOWNNAME":"安南區","LI":"海東里","LIN":"6鄰","STREET":"同安路","SECT":" ","MAREA":" ","LANE":"２３７巷","ALLEY":" ","HOUSE_NO":"１號十二樓之８","E_COORD97":167195.69,"N_COORD97":2549238.3799999999,"ADDRESS":"同安路２３７巷１號十二樓之８","OBJECTID":350262},"geometry":{"x":167195.69000000134,"y":2549238.3800000027}},{"attributes":{"ID":350272,"DIS_CODE":0,"TOWNNAME":"安南區","LI":"海東里","LIN":"6鄰","STREET":"同安路","SECT":" ","MAREA":" ","LANE":"２３７巷","ALLEY":" ","HOUSE_NO":"１號十二樓之９","E_COORD97":167195.69,"N_COORD97":2549238.3799999999,"ADDRESS":"同安路２３７巷１號十二樓之９","OBJECTID":350263},"geometry":{"x":167195.69000000134,"y":2549238.3800000027}},{"attributes":{"ID":350273,"DIS_CODE":0,"TOWNNAME":"安南區","LI":"海東里","LIN":"6鄰","STREET":"同安路","SECT":" ","MAREA":" ","LANE":"２３７巷","ALLEY":" ","HOUSE_NO":"１號十樓之１","E_COORD97":167195.69,"N_COORD97":2549238.3799999999,"ADDRESS":"同安路２３７巷１號十樓之１","OBJECTID":350264},"geometry":{"x":167195.69000000134,"y":2549238.3800000027}},{"attributes":{"ID":350274,"DIS_CODE":0,"TOWNNAME":"安南區","LI":"海東里","LIN":"6鄰","STREET":"同安路","SECT":" ","MAREA":" ","LANE":"２３７巷","ALLEY":" ","HOUSE_NO":"１號十樓之２","E_COORD97":167195.69,"N_COORD97":2549238.3799999999,"ADDRESS":"同安路２３７巷１號十樓之２","OBJECTID":350265},"geometry":{"x":167195.69000000134,"y":2549238.3800000027}},{"attributes":{"ID":350275,"DIS_CODE":0,"TOWNNAME":"安南區","LI":"海東里","LIN":"6鄰","STREET":"同安路","SECT":" ","MAREA":" ","LANE":"２３７巷","ALLEY":" ","HOUSE_NO":"１號十樓之３","E_COORD97":167195.69,"N_COORD97":2549238.3799999999,"ADDRESS":"同安路２３７巷１號十樓之３","OBJECTID":350266},"geometry":{"x":167195.69000000134,"y":2549238.3800000027}},{"attributes":{"ID":350276,"DIS_CODE":0,"TOWNNAME":"安南區","LI":"海東里","LIN":"6鄰","STREET":"同安路","SECT":" ","MAREA":" ","LANE":"２３７巷","ALLEY":" ","HOUSE_NO":"１號十樓之５","E_COORD97":167195.69,"N_COORD97":2549238.3799999999,"ADDRESS":"同安路２３７巷１號十樓之５","OBJECTID":350267},"geometry":{"x":167195.69000000134,"y":2549238.3800000027}},{"attributes":{"ID":350277,"DIS_CODE":0,"TOWNNAME":"安南區","LI":"海東里","LIN":"6鄰","STREET":"同安路","SECT":" ","MAREA":" ","LANE":"２３７巷","ALLEY":" ","HOUSE_NO":"１號十樓之６","E_COORD97":167195.69,"N_COORD97":2549238.3799999999,"ADDRESS":"同安路２３７巷１號十樓之６","OBJECTID":350268},"geometry":{"x":167195.69000000134,"y":2549238.3800000027}},{"attributes":{"ID":350278,"DIS_CODE":0,"TOWNNAME":"安南區","LI":"海東里","LIN":"6鄰","STREET":"同安路","SECT":" ","MAREA":" ","LANE":"２３７巷","ALLEY":" ","HOUSE_NO":"１號十樓之７","E_COORD97":167195.69,"N_COORD97":2549238.3799999999,"ADDRESS":"同安路２３７巷１號十樓之７","OBJECTID":350269},"geometry":{"x":167195.69000000134,"y":2549238.3800000027}},{"attributes":{"ID":350279,"DIS_CODE":0,"TOWNNAME":"安南區","LI":"海東里","LIN":"6鄰","STREET":"同安路","SECT":" ","MAREA":" ","LANE":"２３７巷","ALLEY":" ","HOUSE_NO":"１號十樓之８","E_COORD97":167195.69,"N_COORD97":2549238.3799999999,"ADDRESS":"同安路２３７巷１號十樓之８","OBJECTID":350270},"geometry":{"x":167195.69000000134,"y":2549238.3800000027}},{"attributes":{"ID":350280,"DIS_CODE":0,"TOWNNAME":"安南區","LI":"海東里","LIN":"6鄰","STREET":"同安路","SECT":" ","MAREA":" ","LANE":"２３７巷","ALLEY":" ","HOUSE_NO":"１號十樓之９","E_COORD97":167195.69,"N_COORD97":2549238.3799999999,"ADDRESS":"同安路２３７巷１號十樓之９","OBJECTID":350271},"geometry":{"x":167195.69000000134,"y":2549238.3800000027}},{"attributes":{"ID":350281,"DIS_CODE":0,"TOWNNAME":"安南區","LI":"海東里","LIN":"6鄰","STREET":"同安路","SECT":" ","MAREA":" ","LANE":"２３７巷","ALLEY":" ","HOUSE_NO":"１號三樓之１","E_COORD97":167195.69,"N_COORD97":2549238.3799999999,"ADDRESS":"同安路２３７巷１號三樓之１","OBJECTID":350272},"geometry":{"x":167195.69000000134,"y":2549238.3800000027}},{"attributes":{"ID":350282,"DIS_CODE":0,"TOWNNAME":"永康區","LI":"西橋里","LIN":"1鄰","STREET":"中山南路","SECT":" ","MAREA":" ","LANE":"４３巷","ALLEY":" ","HOUSE_NO":"５號","E_COORD97":170744.41,"N_COORD97":2545846.1600000001,"ADDRESS":"中山南路４３巷５號","OBJECTID":350273},"geometry":{"x":170744.41000000015,"y":2545846.1600000001}},{"attributes":{"ID":350283,"DIS_CODE":0,"TOWNNAME":"安南區","LI":"海東里","LIN":"6鄰","STREET":"同安路","SECT":" ","MAREA":" ","LANE":"２３７巷","ALLEY":" ","HOUSE_NO":"１號三樓之２","E_COORD97":167195.69,"N_COORD97":2549238.3799999999,"ADDRESS":"同安路２３７巷１號三樓之２","OBJECTID":350274},"geometry":{"x":167195.69000000134,"y":2549238.3800000027}},{"attributes":{"ID":350284,"DIS_CODE":0,"TOWNNAME":"安南區","LI":"海東里","LIN":"6鄰","STREET":"同安路","SECT":" ","MAREA":" ","LANE":"２３７巷","ALLEY":" ","HOUSE_NO":"１號三樓之３","E_COORD97":167195.69,"N_COORD97":2549238.3799999999,"ADDRESS":"同安路２３７巷１號三樓之３","OBJECTID":350275},"geometry":{"x":167195.69000000134,"y":2549238.3800000027}},{"attributes":{"ID":350285,"DIS_CODE":0,"TOWNNAME":"安南區","LI":"海東里","LIN":"6鄰","STREET":"同安路","SECT":" ","MAREA":" ","LANE":"２３７巷","ALLEY":" ","HOUSE_NO":"１號三樓之５","E_COORD97":167195.69,"N_COORD97":2549238.3799999999,"ADDRESS":"同安路２３７巷１號三樓之５","OBJECTID":350276},"geometry":{"x":167195.69000000134,"y":2549238.3800000027}},{"attributes":{"ID":350286,"DIS_CODE":0,"TOWNNAME":"安南區","LI":"海東里","LIN":"6鄰","STREET":"同安路","SECT":" ","MAREA":" ","LANE":"２３７巷","ALLEY":" ","HOUSE_NO":"１號三樓之６","E_COORD97":167195.69,"N_COORD97":2549238.3799999999,"ADDRESS":"同安路２３７巷１號三樓之６","OBJECTID":350277},"geometry":{"x":167195.69000000134,"y":2549238.3800000027}},{"attributes":{"ID":350287,"DIS_CODE":0,"TOWNNAME":"安南區","LI":"海東里","LIN":"6鄰","STREET":"同安路","SECT":" ","MAREA":" ","LANE":"２３７巷","ALLEY":" ","HOUSE_NO":"１號三樓之７","E_COORD97":167195.69,"N_COORD97":2549238.3799999999,"ADDRESS":"同安路２３７巷１號三樓之７","OBJECTID":350278},"geometry":{"x":167195.69000000134,"y":2549238.3800000027}},{"attributes":{"ID":350288,"DIS_CODE":0,"TOWNNAME":"歸仁區","LI":"歸南里","LIN":"8鄰","STREET":"中正十六街","SECT":" ","MAREA":" ","LANE":" ","ALLEY":" ","HOUSE_NO":"１５號","E_COORD97":176531.26000000001,"N_COORD97":2539869.9500000002,"ADDRESS":"中正十六街１５號","OBJECTID":350279},"geometry":{"x":176531.26000000164,"y":2539869.9499999993}},{"attributes":{"ID":350289,"DIS_CODE":0,"TOWNNAME":"歸仁區","LI":"看西里","LIN":"8鄰","STREET":"信義南路","SECT":" ","MAREA":" ","LANE":" ","ALLEY":" ","HOUSE_NO":"１９３號","E_COORD97":178129.56,"N_COORD97":2540224.4900000002,"ADDRESS":"信義南路１９３號","OBJECTID":350280},"geometry":{"x":178129.56000000052,"y":2540224.4900000021}},{"attributes":{"ID":350290,"DIS_CODE":0,"TOWNNAME":"安南區","LI":"梅花里","LIN":"18鄰","STREET":"同安路","SECT":" ","MAREA":" ","LANE":"３４４巷","ALLEY":" ","HOUSE_NO":"２２號之１","E_COORD97":167323.97,"N_COORD97":2549232.9199999999,"ADDRESS":"同安路３４４巷２２號之１","OBJECTID":350281},"geometry":{"x":167323.97000000067,"y":2549232.9200000018}},{"attributes":{"ID":350291,"DIS_CODE":0,"TOWNNAME":"安南區","LI":"梅花里","LIN":"18鄰","STREET":"同安路","SECT":" ","MAREA":" ","LANE":"３４４巷","ALLEY":" ","HOUSE_NO":"２２號之２","E_COORD97":167327.79999999999,"N_COORD97":2549230.7999999998,"ADDRESS":"同安路３４４巷２２號之２","OBJECTID":350282},"geometry":{"x":167327.79999999888,"y":2549230.8000000045}},{"attributes":{"ID":350292,"DIS_CODE":0,"TOWNNAME":"安南區","LI":"佃東里","LIN":"18鄰","STREET":"公學路","SECT":"四段","MAREA":" ","LANE":"２巷","ALLEY":" ","HOUSE_NO":"４１號","E_COORD97":165988.16,"N_COORD97":2552178.75,"ADDRESS":"公學路四段２巷４１號","OBJECTID":350283},"geometry":{"x":165988.15999999922,"y":2552178.75}},{"attributes":{"ID":350293,"DIS_CODE":0,"TOWNNAME":"安南區","LI":"佃東里","LIN":"18鄰","STREET":"公學路","SECT":"四段","MAREA":" ","LANE":"２巷","ALLEY":" ","HOUSE_NO":"４３號","E_COORD97":165989.85000000001,"N_COORD97":2552183.5800000001,"ADDRESS":"公學路四段２巷４３號","OBJECTID":350284},"geometry":{"x":165989.85000000149,"y":2552183.5800000001}},{"attributes":{"ID":350294,"DIS_CODE":0,"TOWNNAME":"安南區","LI":"佃東里","LIN":"18鄰","STREET":"公學路","SECT":"四段","MAREA":" ","LANE":"２巷","ALLEY":" ","HOUSE_NO":"４９號","E_COORD97":165992.98999999999,"N_COORD97":2552198.9700000002,"ADDRESS":"公學路四段２巷４９號","OBJECTID":350285},"geometry":{"x":165992.99000000209,"y":2552198.9700000007}},{"attributes":{"ID":350295,"DIS_CODE":0,"TOWNNAME":"安南區","LI":"佃東里","LIN":"18鄰","STREET":"公學路","SECT":"四段","MAREA":" ","LANE":"２巷","ALLEY":" ","HOUSE_NO":"５１號","E_COORD97":165992,"N_COORD97":2552204.1099999999,"ADDRESS":"公學路四段２巷５１號","OBJECTID":350286},"geometry":{"x":165992,"y":2552204.1100000031}},{"attributes":{"ID":350296,"DIS_CODE":0,"TOWNNAME":"安南區","LI":"佃東里","LIN":"18鄰","STREET":"公學路","SECT":"四段","MAREA":" ","LANE":"２巷","ALLEY":" ","HOUSE_NO":"５３號","E_COORD97":165994.32000000001,"N_COORD97":2552209.0800000001,"ADDRESS":"公學路四段２巷５３號","OBJECTID":350287},"geometry":{"x":165994.32000000123,"y":2552209.0800000019}},{"attributes":{"ID":350297,"DIS_CODE":0,"TOWNNAME":"安南區","LI":"佃東里","LIN":"18鄰","STREET":"公學路","SECT":"四段","MAREA":" ","LANE":"２巷","ALLEY":" ","HOUSE_NO":"５７號","E_COORD97":166004.37,"N_COORD97":2552223.8900000001,"ADDRESS":"公學路四段２巷５７號","OBJECTID":350288},"geometry":{"x":166004.37000000104,"y":2552223.8900000025}},{"attributes":{"ID":350298,"DIS_CODE":0,"TOWNNAME":"安南區","LI":"佃東里","LIN":"18鄰","STREET":"公學路","SECT":"四段","MAREA":" ","LANE":"２巷","ALLEY":" ","HOUSE_NO":"５９號","E_COORD97":166004.79999999999,"N_COORD97":2552227.9300000002,"ADDRESS":"公學路四段２巷５９號","OBJECTID":350289},"geometry":{"x":166004.79999999981,"y":2552227.9299999997}},{"attributes":{"ID":350299,"DIS_CODE":0,"TOWNNAME":"北區","LI":"東興里","LIN":"8鄰","STREET":"小東路","SECT":" ","MAREA":" ","LANE":" ","ALLEY":" ","HOUSE_NO":"３０９號","E_COORD97":171128.39000000001,"N_COORD97":2544411.25,"ADDRESS":"小東路３０９號","OBJECTID":350290},"geometry":{"x":171128.3900000006,"y":2544411.25}},{"attributes":{"ID":350300,"DIS_CODE":0,"TOWNNAME":"安南區","LI":"州北里","LIN":"18鄰","STREET":"安昌街","SECT":" ","MAREA":" ","LANE":"８５巷","ALLEY":" ","HOUSE_NO":"１２１號","E_COORD97":169905.14000000001,"N_COORD97":2552456.9900000002,"ADDRESS":"安昌街８５巷１２１號","OBJECTID":350291},"geometry":{"x":169905.13999999966,"y":2552456.9900000021}},{"attributes":{"ID":350301,"DIS_CODE":0,"TOWNNAME":"安南區","LI":"州北里","LIN":"18鄰","STREET":"安昌街","SECT":" ","MAREA":" ","LANE":"８５巷","ALLEY":" ","HOUSE_NO":"１２３號","E_COORD97":169909.70999999999,"N_COORD97":2552463.9199999999,"ADDRESS":"安昌街８５巷１２３號","OBJECTID":350292},"geometry":{"x":169909.70999999996,"y":2552463.9200000018}},{"attributes":{"ID":350302,"DIS_CODE":0,"TOWNNAME":"安南區","LI":"海東里","LIN":"6鄰","STREET":"同安路","SECT":" ","MAREA":" ","LANE":"２３７巷","ALLEY":" ","HOUSE_NO":"１號三樓之８","E_COORD97":167195.69,"N_COORD97":2549238.3799999999,"ADDRESS":"同安路２３７巷１號三樓之８","OBJECTID":350293},"geometry":{"x":167195.69000000134,"y":2549238.3800000027}},{"attributes":{"ID":350303,"DIS_CODE":0,"TOWNNAME":"安南區","LI":"海東里","LIN":"6鄰","STREET":"同安路","SECT":" ","MAREA":" ","LANE":"２３７巷","ALLEY":" ","HOUSE_NO":"１號三樓之９","E_COORD97":167195.69,"N_COORD97":2549238.3799999999,"ADDRESS":"同安路２３７巷１號三樓之９","OBJECTID":350294},"geometry":{"x":167195.69000000134,"y":2549238.3800000027}},{"attributes":{"ID":350304,"DIS_CODE":0,"TOWNNAME":"安南區","LI":"海東里","LIN":"6鄰","STREET":"同安路","SECT":" ","MAREA":" ","LANE":"２３７巷","ALLEY":" ","HOUSE_NO":"１號五樓之１","E_COORD97":167195.69,"N_COORD97":2549238.3799999999,"ADDRESS":"同安路２３７巷１號五樓之１","OBJECTID":350295},"geometry":{"x":167195.69000000134,"y":2549238.3800000027}},{"attributes":{"ID":350305,"DIS_CODE":0,"TOWNNAME":"歸仁區","LI":"看東里","LIN":"8鄰","STREET":"成功一街","SECT":" ","MAREA":" ","LANE":" ","ALLEY":" ","HOUSE_NO":"５９號","E_COORD97":178621.45000000001,"N_COORD97":2540066.4500000002,"ADDRESS":"成功一街５９號","OBJECTID":350296},"geometry":{"x":178621.45000000112,"y":2540066.4499999993}},{"attributes":{"ID":350306,"DIS_CODE":0,"TOWNNAME":"歸仁區","LI":"辜厝里","LIN":"8鄰","STREET":"中正南路","SECT":"一段","MAREA":" ","LANE":" ","ALLEY":" ","HOUSE_NO":"３６號","E_COORD97":177601.85999999999,"N_COORD97":2540647.1200000001,"ADDRESS":"中正南路一段３６號","OBJECTID":350297},"geometry":{"x":177601.86000000034,"y":2540647.120000001}},{"attributes":{"ID":350307,"DIS_CODE":0,"TOWNNAME":"歸仁區","LI":"看東里","LIN":"8鄰","STREET":"成功一街","SECT":" ","MAREA":" ","LANE":" ","ALLEY":" ","HOUSE_NO":"６１號","E_COORD97":178620.35000000001,"N_COORD97":2540057.4500000002,"ADDRESS":"成功一街６１號","OBJECTID":350298},"geometry":{"x":178620.34999999963,"y":2540057.4500000011}},{"attributes":{"ID":350308,"DIS_CODE":0,"TOWNNAME":"歸仁區","LI":"辜厝里","LIN":"8鄰","STREET":"中正南路","SECT":"一段","MAREA":" ","LANE":" ","ALLEY":" ","HOUSE_NO":"５２號","E_COORD97":177596.56,"N_COORD97":2540616.1200000001,"ADDRESS":"中正南路一段５２號","OBJECTID":350299},"geometry":{"x":177596.55999999959,"y":2540616.120000001}},{"attributes":{"ID":350309,"DIS_CODE":0,"TOWNNAME":"歸仁區","LI":"看西里","LIN":"8鄰","STREET":"信義南路","SECT":" ","MAREA":" ","LANE":" ","ALLEY":" ","HOUSE_NO":"１９７號","E_COORD97":178128.56,"N_COORD97":2540216.4900000002,"ADDRESS":"信義南路１９７號","OBJECTID":350300},"geometry":{"x":178128.55999999959,"y":2540216.4900000002}},{"attributes":{"ID":350310,"DIS_CODE":0,"TOWNNAME":"歸仁區","LI":"崙頂里","LIN":"8鄰","STREET":"崙頂三街","SECT":" ","MAREA":" ","LANE":" ","ALLEY":" ","HOUSE_NO":"１０２號","E_COORD97":178053.72,"N_COORD97":2539923.6800000002,"ADDRESS":"崙頂三街１０２號","OBJECTID":350301},"geometry":{"x":178053.71999999881,"y":2539923.6800000034}},{"attributes":{"ID":350311,"DIS_CODE":0,"TOWNNAME":"歸仁區","LI":"歸南里","LIN":"8鄰","STREET":"中正十六街","SECT":" ","MAREA":" ","LANE":" ","ALLEY":" ","HOUSE_NO":"１３號","E_COORD97":176531.26000000001,"N_COORD97":2539865.9500000002,"ADDRESS":"中正十六街１３號","OBJECTID":350302},"geometry":{"x":176531.26000000164,"y":2539865.9499999993}},{"attributes":{"ID":350312,"DIS_CODE":0,"TOWNNAME":"北區","LI":"永祥里","LIN":"8鄰","STREET":"實踐街","SECT":" ","MAREA":" ","LANE":" ","ALLEY":" ","HOUSE_NO":"４１號","E_COORD97":169887.16,"N_COORD97":2546032.23,"ADDRESS":"實踐街４１號","OBJECTID":350303},"geometry":{"x":169887.16000000201,"y":2546032.2300000004}},{"attributes":{"ID":350313,"DIS_CODE":0,"TOWNNAME":"北區","LI":"永祥里","LIN":"8鄰","STREET":"實踐街","SECT":" ","MAREA":" ","LANE":" ","ALLEY":" ","HOUSE_NO":"４３號","E_COORD97":169892.20999999999,"N_COORD97":2546029.5099999998,"ADDRESS":"實踐街４３號","OBJECTID":350304},"geometry":{"x":169892.21000000089,"y":2546029.5099999998}},{"attributes":{"ID":350314,"DIS_CODE":0,"TOWNNAME":"北區","LI":"永祥里","LIN":"8鄰","STREET":"實踐街","SECT":" ","MAREA":" ","LANE":" ","ALLEY":" ","HOUSE_NO":"４５號","E_COORD97":169896,"N_COORD97":2546027.6800000002,"ADDRESS":"實踐街４５號","OBJECTID":350305},"geometry":{"x":169896,"y":2546027.6800000016}},{"attributes":{"ID":350315,"DIS_CODE":0,"TOWNNAME":"北區","LI":"永祥里","LIN":"8鄰","STREET":"實踐街","SECT":" ","MAREA":" ","LANE":" ","ALLEY":" ","HOUSE_NO":"４７號","E_COORD97":169901.06,"N_COORD97":2546026.23,"ADDRESS":"實踐街４７號","OBJECTID":350306},"geometry":{"x":169901.06000000052,"y":2546026.2300000004}},{"attributes":{"ID":350316,"DIS_CODE":0,"TOWNNAME":"北區","LI":"永祥里","LIN":"8鄰","STREET":"實踐街","SECT":" ","MAREA":" ","LANE":" ","ALLEY":" ","HOUSE_NO":"４９號","E_COORD97":169905.04000000001,"N_COORD97":2546025.0899999999,"ADDRESS":"實踐街４９號","OBJECTID":350307},"geometry":{"x":169905.04000000097,"y":2546025.0900000017}},{"attributes":{"ID":350317,"DIS_CODE":0,"TOWNNAME":"佳里區","LI":"佳化里","LIN":"18鄰","STREET":" ","SECT":" ","MAREA":"佳里興","LANE":" ","ALLEY":" ","HOUSE_NO":"１７１號","E_COORD97":167277.23000000001,"N_COORD97":2565095.2000000002,"ADDRESS":"佳里興１７１號","OBJECTID":350308},"geometry":{"x":167277.23000000138,"y":2565095.1999999993}},{"attributes":{"ID":350318,"DIS_CODE":0,"TOWNNAME":"佳里區","LI":"佳化里","LIN":"18鄰","STREET":" ","SECT":" ","MAREA":"佳里興","LANE":" ","ALLEY":" ","HOUSE_NO":"１７２號之１","E_COORD97":167243.54000000001,"N_COORD97":2565104.5600000001,"ADDRESS":"佳里興１７２號之１","OBJECTID":350309},"geometry":{"x":167243.5400000019,"y":2565104.5600000005}},{"attributes":{"ID":350319,"DIS_CODE":0,"TOWNNAME":"佳里區","LI":"佳化里","LIN":"18鄰","STREET":" ","SECT":" ","MAREA":"佳里興","LANE":" ","ALLEY":" ","HOUSE_NO":"１７４號之２","E_COORD97":167269.97,"N_COORD97":2565033.21,"ADDRESS":"佳里興１７４號之２","OBJECTID":350310},"geometry":{"x":167269.96999999974,"y":2565033.2100000009}},{"attributes":{"ID":350320,"DIS_CODE":0,"TOWNNAME":"佳里區","LI":"佳化里","LIN":"18鄰","STREET":" ","SECT":" ","MAREA":"佳里興","LANE":" ","ALLEY":" ","HOUSE_NO":"１７４號之３","E_COORD97":167269.57999999999,"N_COORD97":2565028.77,"ADDRESS":"佳里興１７４號之３","OBJECTID":350311},"geometry":{"x":167269.58000000007,"y":2565028.7700000033}},{"attributes":{"ID":350321,"DIS_CODE":0,"TOWNNAME":"佳里區","LI":"佳化里","LIN":"18鄰","STREET":" ","SECT":" ","MAREA":"佳里興","LANE":" ","ALLEY":" ","HOUSE_NO":"１７４號之５","E_COORD97":167269.29999999999,"N_COORD97":2565020.0600000001,"ADDRESS":"佳里興１７４號之５","OBJECTID":350312},"geometry":{"x":167269.30000000075,"y":2565020.0600000005}},{"attributes":{"ID":350322,"DIS_CODE":0,"TOWNNAME":"佳里區","LI":"佳化里","LIN":"18鄰","STREET":" ","SECT":" ","MAREA":"佳里興","LANE":" ","ALLEY":" ","HOUSE_NO":"１７４號之６","E_COORD97":167262.17999999999,"N_COORD97":2565031.9500000002,"ADDRESS":"佳里興１７４號之６","OBJECTID":350313},"geometry":{"x":167262.1799999997,"y":2565031.9500000011}},{"attributes":{"ID":350323,"DIS_CODE":0,"TOWNNAME":"佳里區","LI":"佳化里","LIN":"18鄰","STREET":" ","SECT":" ","MAREA":"佳里興","LANE":" ","ALLEY":" ","HOUSE_NO":"１７４號之７","E_COORD97":167257.56,"N_COORD97":2565032.2200000002,"ADDRESS":"佳里興１７４號之７","OBJECTID":350314},"geometry":{"x":167257.55999999959,"y":2565032.2200000007}},{"attributes":{"ID":350324,"DIS_CODE":0,"TOWNNAME":"安南區","LI":"海東里","LIN":"6鄰","STREET":"同安路","SECT":" ","MAREA":" ","LANE":"２３７巷","ALLEY":" ","HOUSE_NO":"１號五樓之２","E_COORD97":167195.69,"N_COORD97":2549238.3799999999,"ADDRESS":"同安路２３７巷１號五樓之２","OBJECTID":350315},"geometry":{"x":167195.69000000134,"y":2549238.3800000027}},{"attributes":{"ID":350325,"DIS_CODE":0,"TOWNNAME":"安南區","LI":"海東里","LIN":"6鄰","STREET":"同安路","SECT":" ","MAREA":" ","LANE":"２３７巷","ALLEY":" ","HOUSE_NO":"１號五樓之３","E_COORD97":167195.69,"N_COORD97":2549238.3799999999,"ADDRESS":"同安路２３７巷１號五樓之３","OBJECTID":350316},"geometry":{"x":167195.69000000134,"y":2549238.3800000027}},{"attributes":{"ID":350326,"DIS_CODE":0,"TOWNNAME":"安南區","LI":"海東里","LIN":"6鄰","STREET":"同安路","SECT":" ","MAREA":" ","LANE":"２３７巷","ALLEY":" ","HOUSE_NO":"１號五樓之５","E_COORD97":167195.69,"N_COORD97":2549238.3799999999,"ADDRESS":"同安路２３７巷１號五樓之５","OBJECTID":350317},"geometry":{"x":167195.69000000134,"y":2549238.3800000027}},{"attributes":{"ID":350327,"DIS_CODE":0,"TOWNNAME":"安南區","LI":"海東里","LIN":"6鄰","STREET":"同安路","SECT":" ","MAREA":" ","LANE":"２３７巷","ALLEY":" ","HOUSE_NO":"１號五樓之６","E_COORD97":167195.69,"N_COORD97":2549238.3799999999,"ADDRESS":"同安路２３７巷１號五樓之６","OBJECTID":350318},"geometry":{"x":167195.69000000134,"y":2549238.3800000027}},{"attributes":{"ID":350328,"DIS_CODE":0,"TOWNNAME":"安南區","LI":"海東里","LIN":"6鄰","STREET":"同安路","SECT":" ","MAREA":" ","LANE":"２３７巷","ALLEY":" ","HOUSE_NO":"１號五樓之７","E_COORD97":167195.69,"N_COORD97":2549238.3799999999,"ADDRESS":"同安路２３７巷１號五樓之７","OBJECTID":350319},"geometry":{"x":167195.69000000134,"y":2549238.3800000027}},{"attributes":{"ID":350329,"DIS_CODE":0,"TOWNNAME":"安南區","LI":"海東里","LIN":"6鄰","STREET":"同安路","SECT":" ","MAREA":" ","LANE":"２３７巷","ALLEY":" ","HOUSE_NO":"１號五樓之８","E_COORD97":167195.69,"N_COORD97":2549238.3799999999,"ADDRESS":"同安路２３７巷１號五樓之８","OBJECTID":350320},"geometry":{"x":167195.69000000134,"y":2549238.3800000027}},{"attributes":{"ID":350330,"DIS_CODE":0,"TOWNNAME":"安南區","LI":"海東里","LIN":"6鄰","STREET":"同安路","SECT":" ","MAREA":" ","LANE":"２３７巷","ALLEY":" ","HOUSE_NO":"１號五樓之９","E_COORD97":167195.69,"N_COORD97":2549238.3799999999,"ADDRESS":"同安路２３７巷１號五樓之９","OBJECTID":350321},"geometry":{"x":167195.69000000134,"y":2549238.3800000027}},{"attributes":{"ID":350331,"DIS_CODE":0,"TOWNNAME":"安南區","LI":"海東里","LIN":"6鄰","STREET":"同安路","SECT":" ","MAREA":" ","LANE":"２３７巷","ALLEY":" ","HOUSE_NO":"１號六樓之１","E_COORD97":167195.69,"N_COORD97":2549238.3799999999,"ADDRESS":"同安路２３７巷１號六樓之１","OBJECTID":350322},"geometry":{"x":167195.69000000134,"y":2549238.3800000027}},{"attributes":{"ID":350332,"DIS_CODE":0,"TOWNNAME":"安南區","LI":"海東里","LIN":"6鄰","STREET":"同安路","SECT":" ","MAREA":" ","LANE":"２３７巷","ALLEY":" ","HOUSE_NO":"１號六樓之２","E_COORD97":167195.69,"N_COORD97":2549238.3799999999,"ADDRESS":"同安路２３７巷１號六樓之２","OBJECTID":350323},"geometry":{"x":167195.69000000134,"y":2549238.3800000027}},{"attributes":{"ID":350333,"DIS_CODE":0,"TOWNNAME":"安南區","LI":"海東里","LIN":"6鄰","STREET":"同安路","SECT":" ","MAREA":" ","LANE":"２３７巷","ALLEY":" ","HOUSE_NO":"１號六樓之３","E_COORD97":167195.69,"N_COORD97":2549238.3799999999,"ADDRESS":"同安路２３７巷１號六樓之３","OBJECTID":350324},"geometry":{"x":167195.69000000134,"y":2549238.3800000027}},{"attributes":{"ID":350334,"DIS_CODE":0,"TOWNNAME":"安南區","LI":"海東里","LIN":"6鄰","STREET":"同安路","SECT":" ","MAREA":" ","LANE":"２３７巷","ALLEY":" ","HOUSE_NO":"１號六樓之５","E_COORD97":167195.69,"N_COORD97":2549238.3799999999,"ADDRESS":"同安路２３７巷１號六樓之５","OBJECTID":350325},"geometry":{"x":167195.69000000134,"y":2549238.3800000027}},{"attributes":{"ID":350335,"DIS_CODE":0,"TOWNNAME":"安南區","LI":"海東里","LIN":"6鄰","STREET":"同安路","SECT":" ","MAREA":" ","LANE":"２３７巷","ALLEY":" ","HOUSE_NO":"１號六樓之６","E_COORD97":167195.69,"N_COORD97":2549238.3799999999,"ADDRESS":"同安路２３７巷１號六樓之６","OBJECTID":350326},"geometry":{"x":167195.69000000134,"y":2549238.3800000027}},{"attributes":{"ID":350336,"DIS_CODE":0,"TOWNNAME":"安南區","LI":"海東里","LIN":"6鄰","STREET":"同安路","SECT":" ","MAREA":" ","LANE":"２３７巷","ALLEY":" ","HOUSE_NO":"１號六樓之７","E_COORD97":167195.69,"N_COORD97":2549238.3799999999,"ADDRESS":"同安路２３７巷１號六樓之７","OBJECTID":350327},"geometry":{"x":167195.69000000134,"y":2549238.3800000027}},{"attributes":{"ID":350337,"DIS_CODE":0,"TOWNNAME":"安南區","LI":"海東里","LIN":"6鄰","STREET":"同安路","SECT":" ","MAREA":" ","LANE":"２３７巷","ALLEY":" ","HOUSE_NO":"１號六樓之８","E_COORD97":167195.69,"N_COORD97":2549238.3799999999,"ADDRESS":"同安路２３７巷１號六樓之８","OBJECTID":350328},"geometry":{"x":167195.69000000134,"y":2549238.3800000027}},{"attributes":{"ID":350338,"DIS_CODE":0,"TOWNNAME":"永康區","LI":"西勢里","LIN":"25鄰","STREET":"廣興街","SECT":" ","MAREA":" ","LANE":"２６巷","ALLEY":" ","HOUSE_NO":"４０號","E_COORD97":175946.07000000001,"N_COORD97":2546436.5,"ADDRESS":"廣興街２６巷４０號","OBJECTID":350329},"geometry":{"x":175946.0700000003,"y":2546436.5000000019}},{"attributes":{"ID":350339,"DIS_CODE":0,"TOWNNAME":"永康區","LI":"永康里","LIN":"31鄰","STREET":"聖龍街","SECT":" ","MAREA":" ","LANE":"１８６巷","ALLEY":" ","HOUSE_NO":"３２號","E_COORD97":174227.34,"N_COORD97":2547779.9500000002,"ADDRESS":"聖龍街１８６巷３２號","OBJECTID":350330},"geometry":{"x":174227.34000000078,"y":2547779.9499999993}},{"attributes":{"ID":350340,"DIS_CODE":0,"TOWNNAME":"永康區","LI":"永康里","LIN":"31鄰","STREET":"聖龍街","SECT":" ","MAREA":" ","LANE":"１８６巷","ALLEY":" ","HOUSE_NO":"６２號","E_COORD97":174230.26000000001,"N_COORD97":2547706.5499999998,"ADDRESS":"聖龍街１８６巷６２號","OBJECTID":350331},"geometry":{"x":174230.25999999978,"y":2547706.5500000045}},{"attributes":{"ID":350341,"DIS_CODE":0,"TOWNNAME":"安南區","LI":"海東里","LIN":"6鄰","STREET":"同安路","SECT":" ","MAREA":" ","LANE":"２３７巷","ALLEY":" ","HOUSE_NO":"１號六樓之９","E_COORD97":167195.69,"N_COORD97":2549238.3799999999,"ADDRESS":"同安路２３７巷１號六樓之９","OBJECTID":350332},"geometry":{"x":167195.69000000134,"y":2549238.3800000027}},{"attributes":{"ID":350342,"DIS_CODE":0,"TOWNNAME":"安南區","LI":"海東里","LIN":"6鄰","STREET":"同安路","SECT":" ","MAREA":" ","LANE":"２３７巷","ALLEY":" ","HOUSE_NO":"１號四樓之１","E_COORD97":167195.69,"N_COORD97":2549238.3799999999,"ADDRESS":"同安路２３７巷１號四樓之１","OBJECTID":350333},"geometry":{"x":167195.69000000134,"y":2549238.3800000027}},{"attributes":{"ID":350343,"DIS_CODE":0,"TOWNNAME":"安南區","LI":"海東里","LIN":"6鄰","STREET":"同安路","SECT":" ","MAREA":" ","LANE":"２３７巷","ALLEY":" ","HOUSE_NO":"１號四樓之２","E_COORD97":167195.69,"N_COORD97":2549238.3799999999,"ADDRESS":"同安路２３７巷１號四樓之２","OBJECTID":350334},"geometry":{"x":167195.69000000134,"y":2549238.3800000027}},{"attributes":{"ID":350344,"DIS_CODE":0,"TOWNNAME":"安南區","LI":"海東里","LIN":"6鄰","STREET":"同安路","SECT":" ","MAREA":" ","LANE":"２３７巷","ALLEY":" ","HOUSE_NO":"１號四樓之３","E_COORD97":167195.69,"N_COORD97":2549238.3799999999,"ADDRESS":"同安路２３７巷１號四樓之３","OBJECTID":350335},"geometry":{"x":167195.69000000134,"y":2549238.3800000027}},{"attributes":{"ID":350345,"DIS_CODE":0,"TOWNNAME":"安南區","LI":"海東里","LIN":"6鄰","STREET":"同安路","SECT":" ","MAREA":" ","LANE":"２３７巷","ALLEY":" ","HOUSE_NO":"１號四樓之５","E_COORD97":167195.69,"N_COORD97":2549238.3799999999,"ADDRESS":"同安路２３７巷１號四樓之５","OBJECTID":350336},"geometry":{"x":167195.69000000134,"y":2549238.3800000027}},{"attributes":{"ID":350346,"DIS_CODE":0,"TOWNNAME":"安南區","LI":"海東里","LIN":"6鄰","STREET":"同安路","SECT":" ","MAREA":" ","LANE":"２３７巷","ALLEY":" ","HOUSE_NO":"１號四樓之６","E_COORD97":167195.69,"N_COORD97":2549238.3799999999,"ADDRESS":"同安路２３７巷１號四樓之６","OBJECTID":350337},"geometry":{"x":167195.69000000134,"y":2549238.3800000027}},{"attributes":{"ID":350347,"DIS_CODE":0,"TOWNNAME":"安南區","LI":"海東里","LIN":"6鄰","STREET":"同安路","SECT":" ","MAREA":" ","LANE":"２３７巷","ALLEY":" ","HOUSE_NO":"１號四樓之７","E_COORD97":167195.69,"N_COORD97":2549238.3799999999,"ADDRESS":"同安路２３７巷１號四樓之７","OBJECTID":350338},"geometry":{"x":167195.69000000134,"y":2549238.3800000027}},{"attributes":{"ID":350348,"DIS_CODE":0,"TOWNNAME":"佳里區","LI":"興化里","LIN":"18鄰","STREET":" ","SECT":" ","MAREA":"佳里興","LANE":" ","ALLEY":" ","HOUSE_NO":"５７０號之１１","E_COORD97":166748.60999999999,"N_COORD97":2565208.6000000001,"ADDRESS":"佳里興５７０號之１１","OBJECTID":350339},"geometry":{"x":166748.61000000127,"y":2565208.5999999996}},{"attributes":{"ID":350349,"DIS_CODE":0,"TOWNNAME":"佳里區","LI":"興化里","LIN":"18鄰","STREET":" ","SECT":" ","MAREA":"佳里興","LANE":" ","ALLEY":" ","HOUSE_NO":"５７０號之１２","E_COORD97":166750.92000000001,"N_COORD97":2565212.5499999998,"ADDRESS":"佳里興５７０號之１２","OBJECTID":350340},"geometry":{"x":166750.92000000179,"y":2565212.5500000026}},{"attributes":{"ID":350350,"DIS_CODE":0,"TOWNNAME":"佳里區","LI":"興化里","LIN":"18鄰","STREET":" ","SECT":" ","MAREA":"佳里興","LANE":" ","ALLEY":" ","HOUSE_NO":"５７０號之１３","E_COORD97":166752.47,"N_COORD97":2565215.9900000002,"ADDRESS":"佳里興５７０號之１３","OBJECTID":350341},"geometry":{"x":166752.47000000067,"y":2565215.9900000021}},{"attributes":{"ID":350351,"DIS_CODE":0,"TOWNNAME":"佳里區","LI":"興化里","LIN":"18鄰","STREET":" ","SECT":" ","MAREA":"佳里興","LANE":" ","ALLEY":" ","HOUSE_NO":"５７０號之１４","E_COORD97":166753.87,"N_COORD97":2565220.0800000001,"ADDRESS":"佳里興５７０號之１４","OBJECTID":350342},"geometry":{"x":166753.87000000104,"y":2565220.0800000001}},{"attributes":{"ID":350352,"DIS_CODE":0,"TOWNNAME":"佳里區","LI":"忠仁里","LIN":"18鄰","STREET":"佳東路","SECT":" ","MAREA":" ","LANE":"３２７巷","ALLEY":" ","HOUSE_NO":"１１號","E_COORD97":166291.95000000001,"N_COORD97":2562334.9100000001,"ADDRESS":"佳東路３２７巷１１號","OBJECTID":350343},"geometry":{"x":166291.95000000112,"y":2562334.9100000001}},{"attributes":{"ID":350353,"DIS_CODE":0,"TOWNNAME":"佳里區","LI":"忠仁里","LIN":"18鄰","STREET":"佳東路","SECT":" ","MAREA":" ","LANE":"３２７巷","ALLEY":" ","HOUSE_NO":"１３號","E_COORD97":166287.95999999999,"N_COORD97":2562334.9199999999,"ADDRESS":"佳東路３２７巷１３號","OBJECTID":350344},"geometry":{"x":166287.96000000089,"y":2562334.9199999999}},{"attributes":{"ID":350354,"DIS_CODE":0,"TOWNNAME":"佳里區","LI":"忠仁里","LIN":"18鄰","STREET":"佳東路","SECT":" ","MAREA":" ","LANE":"３２７巷","ALLEY":" ","HOUSE_NO":"１５號","E_COORD97":166283.97,"N_COORD97":2562334.9300000002,"ADDRESS":"佳東路３２７巷１５號","OBJECTID":350345},"geometry":{"x":166283.96999999881,"y":2562334.9299999997}},{"attributes":{"ID":350355,"DIS_CODE":0,"TOWNNAME":"佳里區","LI":"忠仁里","LIN":"18鄰","STREET":"佳東路","SECT":" ","MAREA":" ","LANE":"３２７巷","ALLEY":" ","HOUSE_NO":"１７號","E_COORD97":166279.98000000001,"N_COORD97":2562334.9300000002,"ADDRESS":"佳東路３２７巷１７號","OBJECTID":350346},"geometry":{"x":166279.98000000138,"y":2562334.9299999997}},{"attributes":{"ID":350356,"DIS_CODE":0,"TOWNNAME":"佳里區","LI":"忠仁里","LIN":"18鄰","STREET":"佳東路","SECT":" ","MAREA":" ","LANE":"３２７巷","ALLEY":" ","HOUSE_NO":"１９號","E_COORD97":166275.98999999999,"N_COORD97":2562334.9399999999,"ADDRESS":"佳東路３２７巷１９號","OBJECTID":350347},"geometry":{"x":166275.99000000209,"y":2562334.9399999995}},{"attributes":{"ID":350357,"DIS_CODE":0,"TOWNNAME":"佳里區","LI":"忠仁里","LIN":"18鄰","STREET":"佳東路","SECT":" ","MAREA":" ","LANE":"３２７巷","ALLEY":" ","HOUSE_NO":"２１號","E_COORD97":166272,"N_COORD97":2562334.9500000002,"ADDRESS":"佳東路３２７巷２１號","OBJECTID":350348},"geometry":{"x":166272,"y":2562334.9499999993}},{"attributes":{"ID":350358,"DIS_CODE":0,"TOWNNAME":"佳里區","LI":"忠仁里","LIN":"18鄰","STREET":"佳東路","SECT":" ","MAREA":" ","LANE":"３２７巷","ALLEY":" ","HOUSE_NO":"２３號","E_COORD97":166268.01000000001,"N_COORD97":2562334.9500000002,"ADDRESS":"佳東路３２７巷２３號","OBJECTID":350349},"geometry":{"x":166268.00999999978,"y":2562334.9499999993}},{"attributes":{"ID":350359,"DIS_CODE":0,"TOWNNAME":"安南區","LI":"海東里","LIN":"6鄰","STREET":"同安路","SECT":" ","MAREA":" ","LANE":"２３７巷","ALLEY":" ","HOUSE_NO":"１號四樓之８","E_COORD97":167195.69,"N_COORD97":2549238.3799999999,"ADDRESS":"同安路２３７巷１號四樓之８","OBJECTID":350350},"geometry":{"x":167195.69000000134,"y":2549238.3800000027}},{"attributes":{"ID":350360,"DIS_CODE":0,"TOWNNAME":"安南區","LI":"海東里","LIN":"6鄰","STREET":"同安路","SECT":" ","MAREA":" ","LANE":"２３７巷","ALLEY":" ","HOUSE_NO":"１號四樓之９","E_COORD97":167195.69,"N_COORD97":2549238.3799999999,"ADDRESS":"同安路２３７巷１號四樓之９","OBJECTID":350351},"geometry":{"x":167195.69000000134,"y":2549238.3800000027}},{"attributes":{"ID":350361,"DIS_CODE":0,"TOWNNAME":"永康區","LI":"復華里","LIN":"6鄰","STREET":"國華街","SECT":" ","MAREA":" ","LANE":"１０２巷","ALLEY":" ","HOUSE_NO":"９６號十二樓之２","E_COORD97":173018.32000000001,"N_COORD97":2546176.0800000001,"ADDRESS":"國華街１０２巷９６號十二樓之２","OBJECTID":350352},"geometry":{"x":173018.3200000003,"y":2546176.0800000001}},{"attributes":{"ID":350362,"DIS_CODE":0,"TOWNNAME":"永康區","LI":"復華里","LIN":"6鄰","STREET":"國華街","SECT":" ","MAREA":" ","LANE":"１０２巷","ALLEY":" ","HOUSE_NO":"９０號五樓之１","E_COORD97":173008.73999999999,"N_COORD97":2546144.3799999999,"ADDRESS":"國華街１０２巷９０號五樓之１","OBJECTID":350353},"geometry":{"x":173008.74000000022,"y":2546144.3800000008}},{"attributes":{"ID":350363,"DIS_CODE":0,"TOWNNAME":"北區","LI":"永祥里","LIN":"8鄰","STREET":"實踐街","SECT":" ","MAREA":" ","LANE":" ","ALLEY":" ","HOUSE_NO":"５３號","E_COORD97":169907.95999999999,"N_COORD97":2546024.6899999999,"ADDRESS":"實踐街５３號","OBJECTID":350354},"geometry":{"x":169907.95999999996,"y":2546024.6899999995}},{"attributes":{"ID":350364,"DIS_CODE":0,"TOWNNAME":"北區","LI":"永祥里","LIN":"8鄰","STREET":"實踐街","SECT":" ","MAREA":" ","LANE":" ","ALLEY":" ","HOUSE_NO":"５５號","E_COORD97":169913.26000000001,"N_COORD97":2546024.3599999999,"ADDRESS":"實踐街５５號","OBJECTID":350355},"geometry":{"x":169913.26000000164,"y":2546024.3599999994}},{"attributes":{"ID":350365,"DIS_CODE":0,"TOWNNAME":"北區","LI":"永祥里","LIN":"8鄰","STREET":"實踐街","SECT":" ","MAREA":" ","LANE":" ","ALLEY":" ","HOUSE_NO":"５７號","E_COORD97":169918.84,"N_COORD97":2546023.6899999999,"ADDRESS":"實踐街５７號","OBJECTID":350356},"geometry":{"x":169918.83999999985,"y":2546023.6900000013}},{"attributes":{"ID":350366,"DIS_CODE":0,"TOWNNAME":"北區","LI":"永祥里","LIN":"8鄰","STREET":"實踐街","SECT":" ","MAREA":" ","LANE":" ","ALLEY":" ","HOUSE_NO":"５９號","E_COORD97":169923.01999999999,"N_COORD97":2546023.1600000001,"ADDRESS":"實踐街５９號","OBJECTID":350357},"geometry":{"x":169923.01999999862,"y":2546023.1600000001}},{"attributes":{"ID":350367,"DIS_CODE":0,"TOWNNAME":"北區","LI":"永祥里","LIN":"8鄰","STREET":"實踐街","SECT":" ","MAREA":" ","LANE":" ","ALLEY":" ","HOUSE_NO":"６１號","E_COORD97":169928.32000000001,"N_COORD97":2546022.3700000001,"ADDRESS":"實踐街６１號","OBJECTID":350358},"geometry":{"x":169928.3200000003,"y":2546022.370000001}},{"attributes":{"ID":350368,"DIS_CODE":0,"TOWNNAME":"北區","LI":"永祥里","LIN":"8鄰","STREET":"實踐街","SECT":" ","MAREA":" ","LANE":" ","ALLEY":" ","HOUSE_NO":"６３號","E_COORD97":169933.10999999999,"N_COORD97":2546022.4300000002,"ADDRESS":"實踐街６３號","OBJECTID":350359},"geometry":{"x":169933.11000000034,"y":2546022.4300000016}},{"attributes":{"ID":350369,"DIS_CODE":0,"TOWNNAME":"北區","LI":"永祥里","LIN":"8鄰","STREET":"實踐街","SECT":" ","MAREA":" ","LANE":" ","ALLEY":" ","HOUSE_NO":"６５號","E_COORD97":169937.69,"N_COORD97":2546022.6299999999,"ADDRESS":"實踐街６５號","OBJECTID":350360},"geometry":{"x":169937.69000000041,"y":2546022.6300000027}},{"attributes":{"ID":350370,"DIS_CODE":0,"TOWNNAME":"北區","LI":"永祥里","LIN":"8鄰","STREET":"實踐街","SECT":" ","MAREA":" ","LANE":" ","ALLEY":" ","HOUSE_NO":"６７號","E_COORD97":169942.45999999999,"N_COORD97":2546021.8999999999,"ADDRESS":"實踐街６７號","OBJECTID":350361},"geometry":{"x":169942.45999999996,"y":2546021.9000000004}},{"attributes":{"ID":350371,"DIS_CODE":0,"TOWNNAME":"北區","LI":"永祥里","LIN":"8鄰","STREET":"實踐街","SECT":" ","MAREA":" ","LANE":" ","ALLEY":" ","HOUSE_NO":"６９號","E_COORD97":169946.97,"N_COORD97":2546022.5600000001,"ADDRESS":"實踐街６９號","OBJECTID":350362},"geometry":{"x":169946.96999999974,"y":2546022.5600000024}},{"attributes":{"ID":350372,"DIS_CODE":0,"TOWNNAME":"佳里區","LI":"東寧里","LIN":"18鄰","STREET":"佳東路","SECT":" ","MAREA":" ","LANE":"３９３巷","ALLEY":" ","HOUSE_NO":"１１號","E_COORD97":166211.14999999999,"N_COORD97":2562506.4100000001,"ADDRESS":"佳東路３９３巷１１號","OBJECTID":350363},"geometry":{"x":166211.1500000013,"y":2562506.410000002}},{"attributes":{"ID":350373,"DIS_CODE":0,"TOWNNAME":"佳里區","LI":"東寧里","LIN":"18鄰","STREET":"佳東路","SECT":" ","MAREA":" ","LANE":"３９３巷","ALLEY":" ","HOUSE_NO":"１３號","E_COORD97":166206.54000000001,"N_COORD97":2562506,"ADDRESS":"佳東路３９３巷１３號","OBJECTID":350364},"geometry":{"x":166206.54000000097,"y":2562506.0000000019}},{"attributes":{"ID":350374,"DIS_CODE":0,"TOWNNAME":"佳里區","LI":"東寧里","LIN":"18鄰","STREET":"佳東路","SECT":" ","MAREA":" ","LANE":"３９３巷","ALLEY":" ","HOUSE_NO":"１５號","E_COORD97":166202.09,"N_COORD97":2562505.2799999998,"ADDRESS":"佳東路３９３巷１５號","OBJECTID":350365},"geometry":{"x":166202.09000000171,"y":2562505.2799999993}},{"attributes":{"ID":350375,"DIS_CODE":0,"TOWNNAME":"佳里區","LI":"東寧里","LIN":"18鄰","STREET":"佳東路","SECT":" ","MAREA":" ","LANE":"３９３巷","ALLEY":" ","HOUSE_NO":"１７號","E_COORD97":166197.88,"N_COORD97":2562504.3199999998,"ADDRESS":"佳東路３９３巷１７號","OBJECTID":350366},"geometry":{"x":166197.87999999989,"y":2562504.3200000022}},{"attributes":{"ID":350376,"DIS_CODE":0,"TOWNNAME":"佳里區","LI":"東寧里","LIN":"18鄰","STREET":"佳東路","SECT":" ","MAREA":" ","LANE":"３９３巷","ALLEY":" ","HOUSE_NO":"１９號","E_COORD97":166193.66,"N_COORD97":2562503.8599999999,"ADDRESS":"佳東路３９３巷１９號","OBJECTID":350367},"geometry":{"x":166193.66000000108,"y":2562503.8599999994}},{"attributes":{"ID":350377,"DIS_CODE":0,"TOWNNAME":"佳里區","LI":"東寧里","LIN":"18鄰","STREET":"佳東路","SECT":" ","MAREA":" ","LANE":"３９３巷","ALLEY":" ","HOUSE_NO":"１號","E_COORD97":166243.16,"N_COORD97":2562513.8599999999,"ADDRESS":"佳東路３９３巷１號","OBJECTID":350368},"geometry":{"x":166243.16000000108,"y":2562513.8600000013}},{"attributes":{"ID":350378,"DIS_CODE":0,"TOWNNAME":"佳里區","LI":"東寧里","LIN":"18鄰","STREET":"佳東路","SECT":" ","MAREA":" ","LANE":"３９３巷","ALLEY":" ","HOUSE_NO":"３號","E_COORD97":166236.73000000001,"N_COORD97":2562514.0499999998,"ADDRESS":"佳東路３９３巷３號","OBJECTID":350369},"geometry":{"x":166236.73000000045,"y":2562514.0500000026}},{"attributes":{"ID":350379,"DIS_CODE":0,"TOWNNAME":"佳里區","LI":"東寧里","LIN":"18鄰","STREET":"佳東路","SECT":" ","MAREA":" ","LANE":"３９３巷","ALLEY":" ","HOUSE_NO":"５號","E_COORD97":166228.26000000001,"N_COORD97":2562513.02,"ADDRESS":"佳東路３９３巷５號","OBJECTID":350370},"geometry":{"x":166228.26000000071,"y":2562513.0200000014}},{"attributes":{"ID":350380,"DIS_CODE":0,"TOWNNAME":"佳里區","LI":"東寧里","LIN":"18鄰","STREET":"佳東路","SECT":" ","MAREA":" ","LANE":"３９３巷","ALLEY":" ","HOUSE_NO":"７號","E_COORD97":166221.20999999999,"N_COORD97":2562509.04,"ADDRESS":"佳東路３９３巷７號","OBJECTID":350371},"geometry":{"x":166221.20999999996,"y":2562509.040000001}},{"attributes":{"ID":350381,"DIS_CODE":0,"TOWNNAME":"佳里區","LI":"東寧里","LIN":"18鄰","STREET":"佳東路","SECT":" ","MAREA":" ","LANE":"３９３巷","ALLEY":" ","HOUSE_NO":"９號","E_COORD97":166215.91,"N_COORD97":2562508.3199999998,"ADDRESS":"佳東路３９３巷９號","OBJECTID":350372},"geometry":{"x":166215.91000000108,"y":2562508.3200000022}},{"attributes":{"ID":350382,"DIS_CODE":0,"TOWNNAME":"佳里區","LI":"鎮山里","LIN":"18鄰","STREET":"佳南路","SECT":" ","MAREA":" ","LANE":"２００巷","ALLEY":" ","HOUSE_NO":"１１號","E_COORD97":166124.48999999999,"N_COORD97":2561075.8500000001,"ADDRESS":"佳南路２００巷１１號","OBJECTID":350373},"geometry":{"x":166124.49000000022,"y":2561075.8500000015}},{"attributes":{"ID":350383,"DIS_CODE":0,"TOWNNAME":"佳里區","LI":"鎮山里","LIN":"18鄰","STREET":"佳南路","SECT":" ","MAREA":" ","LANE":"２００巷","ALLEY":" ","HOUSE_NO":"１３號","E_COORD97":166110.22,"N_COORD97":2561067.9300000002,"ADDRESS":"佳南路２００巷１３號","OBJECTID":350374},"geometry":{"x":166110.22000000067,"y":2561067.9300000034}},{"attributes":{"ID":350384,"DIS_CODE":0,"TOWNNAME":"永康區","LI":"復華里","LIN":"6鄰","STREET":"國華街","SECT":" ","MAREA":" ","LANE":"１０２巷","ALLEY":" ","HOUSE_NO":"９６號八樓之２","E_COORD97":173017.07000000001,"N_COORD97":2546176.0800000001,"ADDRESS":"國華街１０２巷９６號八樓之２","OBJECTID":350375},"geometry":{"x":173017.0700000003,"y":2546176.0800000001}},{"attributes":{"ID":350385,"DIS_CODE":0,"TOWNNAME":"永康區","LI":"正強里","LIN":"35鄰","STREET":"正強街","SECT":" ","MAREA":" ","LANE":"３１１巷","ALLEY":" ","HOUSE_NO":"２０號","E_COORD97":173206.57000000001,"N_COORD97":2548216.2799999998,"ADDRESS":"正強街３１１巷２０號","OBJECTID":350376},"geometry":{"x":173206.5700000003,"y":2548216.2800000012}},{"attributes":{"ID":350386,"DIS_CODE":0,"TOWNNAME":"永康區","LI":"安康里","LIN":"6鄰","STREET":"中華路","SECT":" ","MAREA":" ","LANE":"７２７巷","ALLEY":" ","HOUSE_NO":"４０號","E_COORD97":170743.5,"N_COORD97":2546375.3100000001,"ADDRESS":"中華路７２７巷４０號","OBJECTID":350377},"geometry":{"x":170743.5,"y":2546375.3100000005}},{"attributes":{"ID":350387,"DIS_CODE":0,"TOWNNAME":"東區","LI":"路東里","LIN":"6鄰","STREET":"大同路","SECT":"二段","MAREA":" ","LANE":"６１巷","ALLEY":" ","HOUSE_NO":"１６號五樓","E_COORD97":169386.85999999999,"N_COORD97":2542216.9399999999,"ADDRESS":"大同路二段６１巷１６號五樓","OBJECTID":350378},"geometry":{"x":169386.86000000034,"y":2542216.9400000032}},{"attributes":{"ID":350388,"DIS_CODE":0,"TOWNNAME":"永康區","LI":"復華里","LIN":"6鄰","STREET":"國華街","SECT":" ","MAREA":" ","LANE":"１０２巷","ALLEY":" ","HOUSE_NO":"９２號四樓之２","E_COORD97":173003.76999999999,"N_COORD97":2546148.5499999998,"ADDRESS":"國華街１０２巷９２號四樓之２","OBJECTID":350379},"geometry":{"x":173003.77000000048,"y":2546148.5500000026}},{"attributes":{"ID":350389,"DIS_CODE":0,"TOWNNAME":"永康區","LI":"復華里","LIN":"6鄰","STREET":"國華街","SECT":" ","MAREA":" ","LANE":"１０２巷","ALLEY":" ","HOUSE_NO":"９２號十樓之１","E_COORD97":173003.64000000001,"N_COORD97":2546148.5499999998,"ADDRESS":"國華街１０２巷９２號十樓之１","OBJECTID":350380},"geometry":{"x":173003.63999999966,"y":2546148.5500000026}},{"attributes":{"ID":350390,"DIS_CODE":0,"TOWNNAME":"永康區","LI":"復華里","LIN":"6鄰","STREET":"國華街","SECT":" ","MAREA":" ","LANE":"１０２巷","ALLEY":" ","HOUSE_NO":"９４號四樓之２","E_COORD97":173023.81,"N_COORD97":2546167.79,"ADDRESS":"國華街１０２巷９４號四樓之２","OBJECTID":350381},"geometry":{"x":173023.81000000052,"y":2546167.790000001}},{"attributes":{"ID":350391,"DIS_CODE":0,"TOWNNAME":"永康區","LI":"復華里","LIN":"6鄰","STREET":"國華街","SECT":" ","MAREA":" ","LANE":"１０２巷","ALLEY":" ","HOUSE_NO":"９０號八樓之２","E_COORD97":173008.87,"N_COORD97":2546144.3799999999,"ADDRESS":"國華街１０２巷９０號八樓之２","OBJECTID":350382},"geometry":{"x":173008.87000000104,"y":2546144.3800000008}},{"attributes":{"ID":350392,"DIS_CODE":0,"TOWNNAME":"北區","LI":"小康里","LIN":"8鄰","STREET":"實踐街","SECT":" ","MAREA":" ","LANE":" ","ALLEY":" ","HOUSE_NO":"１７之１號","E_COORD97":169764.70999999999,"N_COORD97":2546205.4100000001,"ADDRESS":"實踐街１７之１號","OBJECTID":350383},"geometry":{"x":169764.71000000183,"y":2546205.410000002}},{"attributes":{"ID":350393,"DIS_CODE":0,"TOWNNAME":"北區","LI":"小康里","LIN":"8鄰","STREET":"實踐街","SECT":" ","MAREA":" ","LANE":" ","ALLEY":" ","HOUSE_NO":"１７號","E_COORD97":169765.85000000001,"N_COORD97":2546125.7400000002,"ADDRESS":"實踐街１７號","OBJECTID":350384},"geometry":{"x":169765.85000000056,"y":2546125.7400000021}},{"attributes":{"ID":350394,"DIS_CODE":0,"TOWNNAME":"北區","LI":"小康里","LIN":"8鄰","STREET":"實踐街","SECT":" ","MAREA":" ","LANE":" ","ALLEY":" ","HOUSE_NO":"１９號","E_COORD97":169806,"N_COORD97":2546091.6499999999,"ADDRESS":"實踐街１９號","OBJECTID":350385},"geometry":{"x":169806,"y":2546091.6500000041}},{"attributes":{"ID":350395,"DIS_CODE":0,"TOWNNAME":"北區","LI":"小康里","LIN":"8鄰","STREET":"實踐街","SECT":" ","MAREA":" ","LANE":" ","ALLEY":" ","HOUSE_NO":"２１號","E_COORD97":169809.97,"N_COORD97":2546089.5699999998,"ADDRESS":"實踐街２１號","OBJECTID":350386},"geometry":{"x":169809.96999999881,"y":2546089.5700000022}},{"attributes":{"ID":350396,"DIS_CODE":0,"TOWNNAME":"安平區","LI":"華平里","LIN":"8鄰","STREET":"健康二街","SECT":" ","MAREA":" ","LANE":" ","ALLEY":" ","HOUSE_NO":"５１３號","E_COORD97":165360.42000000001,"N_COORD97":2544021.6000000001,"ADDRESS":"健康二街５１３號","OBJECTID":350387},"geometry":{"x":165360.41999999993,"y":2544021.5999999996}},{"attributes":{"ID":350397,"DIS_CODE":0,"TOWNNAME":"安平區","LI":"華平里","LIN":"8鄰","STREET":"健康二街","SECT":" ","MAREA":" ","LANE":" ","ALLEY":" ","HOUSE_NO":"５１３之１號","E_COORD97":165354.13,"N_COORD97":2544025.1200000001,"ADDRESS":"健康二街５１３之１號","OBJECTID":350388},"geometry":{"x":165354.12999999896,"y":2544025.1200000029}},{"attributes":{"ID":350398,"DIS_CODE":0,"TOWNNAME":"安平區","LI":"華平里","LIN":"8鄰","STREET":"健康二街","SECT":" ","MAREA":" ","LANE":" ","ALLEY":" ","HOUSE_NO":"５１３之２號","E_COORD97":165348.73000000001,"N_COORD97":2544025.9199999999,"ADDRESS":"健康二街５１３之２號","OBJECTID":350389},"geometry":{"x":165348.73000000045,"y":2544025.9200000018}},{"attributes":{"ID":350399,"DIS_CODE":0,"TOWNNAME":"安平區","LI":"華平里","LIN":"8鄰","STREET":"健康二街","SECT":" ","MAREA":" ","LANE":" ","ALLEY":" ","HOUSE_NO":"５１３之３號","E_COORD97":165343.48999999999,"N_COORD97":2544027.6600000001,"ADDRESS":"健康二街５１３之３號","OBJECTID":350390},"geometry":{"x":165343.49000000022,"y":2544027.660000002}},{"attributes":{"ID":350400,"DIS_CODE":0,"TOWNNAME":"安平區","LI":"華平里","LIN":"8鄰","STREET":"健康二街","SECT":" ","MAREA":" ","LANE":" ","ALLEY":" ","HOUSE_NO":"５１５號","E_COORD97":165361.26999999999,"N_COORD97":2544039.4100000001,"ADDRESS":"健康二街５１５號","OBJECTID":350391},"geometry":{"x":165361.26999999862,"y":2544039.410000002}},{"attributes":{"ID":350401,"DIS_CODE":0,"TOWNNAME":"安平區","LI":"華平里","LIN":"8鄰","STREET":"健康二街","SECT":" ","MAREA":" ","LANE":" ","ALLEY":" ","HOUSE_NO":"５１５之１號","E_COORD97":165355.87,"N_COORD97":2544040.0499999998,"ADDRESS":"健康二街５１５之１號","OBJECTID":350392},"geometry":{"x":165355.87000000011,"y":2544040.0500000007}},{"attributes":{"ID":350402,"DIS_CODE":0,"TOWNNAME":"永康區","LI":"復華里","LIN":"6鄰","STREET":"國華街","SECT":" ","MAREA":" ","LANE":"１０２巷","ALLEY":" ","HOUSE_NO":"９０號八樓之３","E_COORD97":173008.84,"N_COORD97":2546144.3799999999,"ADDRESS":"國華街１０２巷９０號八樓之３","OBJECTID":350393},"geometry":{"x":173008.84000000078,"y":2546144.3800000008}},{"attributes":{"ID":350403,"DIS_CODE":0,"TOWNNAME":"永康區","LI":"五王里","LIN":"6鄰","STREET":"中華二路","SECT":" ","MAREA":" ","LANE":"２０６巷","ALLEY":" ","HOUSE_NO":"６６號四樓之３","E_COORD97":171606.12,"N_COORD97":2545642.54,"ADDRESS":"中華二路２０６巷６６號四樓之３","OBJECTID":350394},"geometry":{"x":171606.12000000011,"y":2545642.5399999991}},{"attributes":{"ID":350404,"DIS_CODE":0,"TOWNNAME":"永康區","LI":"五王里","LIN":"6鄰","STREET":"中華二路","SECT":" ","MAREA":" ","LANE":"２０６巷","ALLEY":" ","HOUSE_NO":"６６號四樓之１","E_COORD97":171606.01999999999,"N_COORD97":2545642.54,"ADDRESS":"中華二路２０６巷６６號四樓之１","OBJECTID":350395},"geometry":{"x":171606.01999999955,"y":2545642.5399999991}},{"attributes":{"ID":350405,"DIS_CODE":0,"TOWNNAME":"東區","LI":"路東里","LIN":"6鄰","STREET":"大同路","SECT":"二段","MAREA":" ","LANE":"６１巷","ALLEY":" ","HOUSE_NO":"１６號十三樓","E_COORD97":169386.85999999999,"N_COORD97":2542216.9399999999,"ADDRESS":"大同路二段６１巷１６號十三樓","OBJECTID":350396},"geometry":{"x":169386.86000000034,"y":2542216.9400000032}},{"attributes":{"ID":350406,"DIS_CODE":0,"TOWNNAME":"東區","LI":"路東里","LIN":"6鄰","STREET":"大同路","SECT":"二段","MAREA":" ","LANE":"６１巷","ALLEY":" ","HOUSE_NO":"１６號十三樓之１","E_COORD97":169386.85999999999,"N_COORD97":2542216.9399999999,"ADDRESS":"大同路二段６１巷１６號十三樓之１","OBJECTID":350397},"geometry":{"x":169386.86000000034,"y":2542216.9400000032}},{"attributes":{"ID":350407,"DIS_CODE":0,"TOWNNAME":"東區","LI":"路東里","LIN":"6鄰","STREET":"大同路","SECT":"二段","MAREA":" ","LANE":"６１巷","ALLEY":" ","HOUSE_NO":"１６號十五樓","E_COORD97":169386.85999999999,"N_COORD97":2542216.9399999999,"ADDRESS":"大同路二段６１巷１６號十五樓","OBJECTID":350398},"geometry":{"x":169386.86000000034,"y":2542216.9400000032}},{"attributes":{"ID":350408,"DIS_CODE":0,"TOWNNAME":"東區","LI":"路東里","LIN":"6鄰","STREET":"大同路","SECT":"二段","MAREA":" ","LANE":"６１巷","ALLEY":" ","HOUSE_NO":"１６號十五樓之１","E_COORD97":169386.85999999999,"N_COORD97":2542216.9399999999,"ADDRESS":"大同路二段６１巷１６號十五樓之１","OBJECTID":350399},"geometry":{"x":169386.86000000034,"y":2542216.9400000032}},{"attributes":{"ID":350409,"DIS_CODE":0,"TOWNNAME":"東區","LI":"路東里","LIN":"6鄰","STREET":"大同路","SECT":"二段","MAREA":" ","LANE":"６１巷","ALLEY":" ","HOUSE_NO":"１６號十六樓","E_COORD97":169386.85999999999,"N_COORD97":2542216.9399999999,"ADDRESS":"大同路二段６１巷１６號十六樓","OBJECTID":350400},"geometry":{"x":169386.86000000034,"y":2542216.9400000032}}]}