{"displayFieldName":"TOWNNAME","fieldAliases":{"ID":"ID","DIS_CODE":"DIS_CODE","TOWNNAME":"TOWNNAME","LI":"LI","LIN":"LIN","STREET":"STREET","SECT":"SECT","MAREA":"MAREA","LANE":"LANE","ALLEY":"ALLEY","HOUSE_NO":"HOUSE_NO","E_COORD97":"E_COORD97","N_COORD97":"N_COORD97","ADDRESS":"ADDRESS","OBJECTID":"OBJECTID"},"geometryType":"esriGeometryPoint","spatialReference":{"wkid":102443,"latestWkid":3826},"fields":[{"name":"ID","type":"esriFieldTypeDouble","alias":"ID"},{"name":"DIS_CODE","type":"esriFieldTypeInteger","alias":"DIS_CODE"},{"name":"TOWNNAME","type":"esriFieldTypeString","alias":"TOWNNAME","length":8},{"name":"LI","type":"esriFieldTypeString","alias":"LI","length":8},{"name":"LIN","type":"esriFieldTypeString","alias":"LIN","length":12},{"name":"STREET","type":"esriFieldTypeString","alias":"STREET","length":20},{"name":"SECT","type":"esriFieldTypeString","alias":"SECT","length":8},{"name":"MAREA","type":"esriFieldTypeString","alias":"MAREA","length":12},{"name":"LANE","type":"esriFieldTypeString","alias":"LANE","length":10},{"name":"ALLEY","type":"esriFieldTypeString","alias":"ALLEY","length":10},{"name":"HOUSE_NO","type":"esriFieldTypeString","alias":"HOUSE_NO","length":20},{"name":"E_COORD97","type":"esriFieldTypeDouble","alias":"E_COORD97"},{"name":"N_COORD97","type":"esriFieldTypeDouble","alias":"N_COORD97"},{"name":"ADDRESS","type":"esriFieldTypeString","alias":"ADDRESS","length":50},{"name":"OBJECTID","type":"esriFieldTypeOID","alias":"OBJECTID"}],"features":[{"attributes":{"ID":346610,"DIS_CODE":0,"TOWNNAME":"北區","LI":"正風里","LIN":"6鄰","STREET":"公園路","SECT":" ","MAREA":" ","LANE":"９１８巷","ALLEY":" ","HOUSE_NO":"３２號","E_COORD97":169508.84,"N_COORD97":2546149.0800000001,"ADDRESS":"公園路９１８巷３２號","OBJECTID":346601},"geometry":{"x":169508.83999999985,"y":2546149.0800000001}},{"attributes":{"ID":346611,"DIS_CODE":0,"TOWNNAME":"北區","LI":"正風里","LIN":"6鄰","STREET":"公園路","SECT":" ","MAREA":" ","LANE":"９１８巷","ALLEY":" ","HOUSE_NO":"３３號","E_COORD97":169503.38,"N_COORD97":2546176.48,"ADDRESS":"公園路９１８巷３３號","OBJECTID":346602},"geometry":{"x":169503.37999999989,"y":2546176.4800000004}},{"attributes":{"ID":346612,"DIS_CODE":0,"TOWNNAME":"北區","LI":"正風里","LIN":"6鄰","STREET":"公園路","SECT":" ","MAREA":" ","LANE":"９１８巷","ALLEY":" ","HOUSE_NO":"３４號","E_COORD97":169510.87,"N_COORD97":2546155.3799999999,"ADDRESS":"公園路９１８巷３４號","OBJECTID":346603},"geometry":{"x":169510.87000000011,"y":2546155.379999999}},{"attributes":{"ID":346613,"DIS_CODE":0,"TOWNNAME":"北區","LI":"正風里","LIN":"6鄰","STREET":"公園路","SECT":" ","MAREA":" ","LANE":"９１８巷","ALLEY":" ","HOUSE_NO":"３５號","E_COORD97":169505.5,"N_COORD97":2546182.6699999999,"ADDRESS":"公園路９１８巷３５號","OBJECTID":346604},"geometry":{"x":169505.50000000093,"y":2546182.6700000037}},{"attributes":{"ID":346614,"DIS_CODE":0,"TOWNNAME":"北區","LI":"正風里","LIN":"6鄰","STREET":"公園路","SECT":" ","MAREA":" ","LANE":"９１８巷","ALLEY":" ","HOUSE_NO":"３６號","E_COORD97":169513.14000000001,"N_COORD97":2546166.6800000002,"ADDRESS":"公園路９１８巷３６號","OBJECTID":346605},"geometry":{"x":169513.13999999966,"y":2546166.6800000016}},{"attributes":{"ID":346615,"DIS_CODE":0,"TOWNNAME":"麻豆區","LI":"中興里","LIN":"8鄰","STREET":"三民路","SECT":" ","MAREA":" ","LANE":" ","ALLEY":" ","HOUSE_NO":"５７號之５七樓","E_COORD97":172841.17999999999,"N_COORD97":2564385.54,"ADDRESS":"三民路５７號之５七樓","OBJECTID":346606},"geometry":{"x":172841.1799999997,"y":2564385.5400000028}},{"attributes":{"ID":346616,"DIS_CODE":0,"TOWNNAME":"佳里區","LI":"鎮山里","LIN":"1鄰","STREET":"平等街","SECT":" ","MAREA":" ","LANE":" ","ALLEY":" ","HOUSE_NO":"１２３號","E_COORD97":165860.70999999999,"N_COORD97":2561885.7999999998,"ADDRESS":"平等街１２３號","OBJECTID":346607},"geometry":{"x":165860.71000000183,"y":2561885.8000000007}},{"attributes":{"ID":346617,"DIS_CODE":0,"TOWNNAME":"新市區","LI":"新和里","LIN":"50鄰","STREET":"自強街","SECT":" ","MAREA":" ","LANE":"３４巷","ALLEY":" ","HOUSE_NO":"２７號","E_COORD97":177695.19,"N_COORD97":2553629,"ADDRESS":"自強街３４巷２７號","OBJECTID":346608},"geometry":{"x":177695.19000000041,"y":2553628.9999999981}},{"attributes":{"ID":346618,"DIS_CODE":0,"TOWNNAME":"永康區","LI":"西灣里","LIN":"50鄰","STREET":"永華路","SECT":" ","MAREA":" ","LANE":"２７３巷","ALLEY":" ","HOUSE_NO":"４０號","E_COORD97":173926.72,"N_COORD97":2545796.27,"ADDRESS":"永華路２７３巷４０號","OBJECTID":346609},"geometry":{"x":173926.72000000067,"y":2545796.2700000014}},{"attributes":{"ID":346619,"DIS_CODE":0,"TOWNNAME":"北區","LI":"正風里","LIN":"6鄰","STREET":"公園路","SECT":" ","MAREA":" ","LANE":"９１８巷","ALLEY":" ","HOUSE_NO":"３８號","E_COORD97":169515.98000000001,"N_COORD97":2546171.5499999998,"ADDRESS":"公園路９１８巷３８號","OBJECTID":346610},"geometry":{"x":169515.98000000138,"y":2546171.5500000026}},{"attributes":{"ID":346620,"DIS_CODE":0,"TOWNNAME":"新營區","LI":"興業里","LIN":"6鄰","STREET":"公誠街","SECT":" ","MAREA":" ","LANE":"１１巷","ALLEY":" ","HOUSE_NO":"１３之４號","E_COORD97":180357.51999999999,"N_COORD97":2577973.0699999998,"ADDRESS":"公誠街１１巷１３之４號","OBJECTID":346611},"geometry":{"x":180357.52000000048,"y":2577973.0700000022}},{"attributes":{"ID":346621,"DIS_CODE":0,"TOWNNAME":"歸仁區","LI":"大廟里","LIN":"6鄰","STREET":"和順路","SECT":"二段","MAREA":" ","LANE":"２４０巷","ALLEY":" ","HOUSE_NO":"５１號","E_COORD97":175826.39000000001,"N_COORD97":2543797.2799999998,"ADDRESS":"和順路二段２４０巷５１號","OBJECTID":346612},"geometry":{"x":175826.38999999966,"y":2543797.2799999993}},{"attributes":{"ID":346622,"DIS_CODE":0,"TOWNNAME":"北區","LI":"興北里","LIN":"6鄰","STREET":"公園北路","SECT":" ","MAREA":" ","LANE":"７８巷","ALLEY":" ","HOUSE_NO":"６７號","E_COORD97":169132.79999999999,"N_COORD97":2545177.25,"ADDRESS":"公園北路７８巷６７號","OBJECTID":346613},"geometry":{"x":169132.79999999981,"y":2545177.25}},{"attributes":{"ID":346623,"DIS_CODE":0,"TOWNNAME":"麻豆區","LI":"中興里","LIN":"8鄰","STREET":"三民路","SECT":" ","MAREA":" ","LANE":" ","ALLEY":" ","HOUSE_NO":"５７號之５二樓","E_COORD97":172841.17999999999,"N_COORD97":2564385.54,"ADDRESS":"三民路５７號之５二樓","OBJECTID":346614},"geometry":{"x":172841.1799999997,"y":2564385.5400000028}},{"attributes":{"ID":346624,"DIS_CODE":0,"TOWNNAME":"麻豆區","LI":"中興里","LIN":"8鄰","STREET":"三民路","SECT":" ","MAREA":" ","LANE":" ","ALLEY":" ","HOUSE_NO":"５７號之５三樓","E_COORD97":172841.17999999999,"N_COORD97":2564385.54,"ADDRESS":"三民路５７號之５三樓","OBJECTID":346615},"geometry":{"x":172841.1799999997,"y":2564385.5400000028}},{"attributes":{"ID":346625,"DIS_CODE":0,"TOWNNAME":"佳里區","LI":"安西里","LIN":"50鄰","STREET":" ","SECT":" ","MAREA":"安西","LANE":" ","ALLEY":" ","HOUSE_NO":"１２８號之５２","E_COORD97":164251.92000000001,"N_COORD97":2562013.4500000002,"ADDRESS":"安西１２８號之５２","OBJECTID":346616},"geometry":{"x":164251.91999999993,"y":2562013.4500000011}},{"attributes":{"ID":346626,"DIS_CODE":0,"TOWNNAME":"北區","LI":"興北里","LIN":"6鄰","STREET":"公園北路","SECT":" ","MAREA":" ","LANE":"７８巷","ALLEY":" ","HOUSE_NO":"６９號","E_COORD97":169139.09,"N_COORD97":2545172.3999999999,"ADDRESS":"公園北路７８巷６９號","OBJECTID":346617},"geometry":{"x":169139.08999999985,"y":2545172.4000000022}},{"attributes":{"ID":346627,"DIS_CODE":0,"TOWNNAME":"北區","LI":"興北里","LIN":"6鄰","STREET":"公園北路","SECT":" ","MAREA":" ","LANE":"７８巷","ALLEY":" ","HOUSE_NO":"７７號","E_COORD97":169162.54999999999,"N_COORD97":2545207.6099999999,"ADDRESS":"公園北路７８巷７７號","OBJECTID":346618},"geometry":{"x":169162.55000000075,"y":2545207.6100000013}},{"attributes":{"ID":346628,"DIS_CODE":0,"TOWNNAME":"佳里區","LI":"安西里","LIN":"50鄰","STREET":" ","SECT":" ","MAREA":"安西","LANE":" ","ALLEY":" ","HOUSE_NO":"１３１號之１９","E_COORD97":164407,"N_COORD97":2562066.5800000001,"ADDRESS":"安西１３１號之１９","OBJECTID":346619},"geometry":{"x":164407,"y":2562066.5800000001}},{"attributes":{"ID":346629,"DIS_CODE":0,"TOWNNAME":"東區","LI":"莊敬里","LIN":"27鄰","STREET":"東光路","SECT":"二段","MAREA":" ","LANE":"１４巷","ALLEY":" ","HOUSE_NO":"９號","E_COORD97":171260.42000000001,"N_COORD97":2544004.9300000002,"ADDRESS":"東光路二段１４巷９號","OBJECTID":346620},"geometry":{"x":171260.42000000086,"y":2544004.9300000016}},{"attributes":{"ID":346630,"DIS_CODE":0,"TOWNNAME":"歸仁區","LI":"辜厝里","LIN":"50鄰","STREET":"中正十街","SECT":" ","MAREA":" ","LANE":"８巷","ALLEY":" ","HOUSE_NO":"２號","E_COORD97":177048.41,"N_COORD97":2540184.5,"ADDRESS":"中正十街８巷２號","OBJECTID":346621},"geometry":{"x":177048.41000000108,"y":2540184.5000000019}},{"attributes":{"ID":346631,"DIS_CODE":0,"TOWNNAME":"永康區","LI":"西灣里","LIN":"50鄰","STREET":"永華路","SECT":" ","MAREA":" ","LANE":"２７３巷","ALLEY":" ","HOUSE_NO":"３６號","E_COORD97":173936.81,"N_COORD97":2545798.77,"ADDRESS":"永華路２７３巷３６號","OBJECTID":346622},"geometry":{"x":173936.80999999959,"y":2545798.7700000033}},{"attributes":{"ID":346632,"DIS_CODE":0,"TOWNNAME":"永康區","LI":"西灣里","LIN":"50鄰","STREET":"永華路","SECT":" ","MAREA":" ","LANE":"２７３巷","ALLEY":" ","HOUSE_NO":"３８號","E_COORD97":173931.57000000001,"N_COORD97":2545797.27,"ADDRESS":"永華路２７３巷３８號","OBJECTID":346623},"geometry":{"x":173931.57000000123,"y":2545797.2699999996}},{"attributes":{"ID":346633,"DIS_CODE":0,"TOWNNAME":"佳里區","LI":"安西里","LIN":"50鄰","STREET":" ","SECT":" ","MAREA":"安西","LANE":" ","ALLEY":" ","HOUSE_NO":"１３１號之１","E_COORD97":164370.12,"N_COORD97":2562037.6800000002,"ADDRESS":"安西１３１號之１","OBJECTID":346624},"geometry":{"x":164370.12000000104,"y":2562037.6799999997}},{"attributes":{"ID":346634,"DIS_CODE":0,"TOWNNAME":"佳里區","LI":"安西里","LIN":"50鄰","STREET":" ","SECT":" ","MAREA":"安西","LANE":" ","ALLEY":" ","HOUSE_NO":"１３１號之２０","E_COORD97":164400.82000000001,"N_COORD97":2562068.27,"ADDRESS":"安西１３１號之２０","OBJECTID":346625},"geometry":{"x":164400.82000000123,"y":2562068.2699999996}},{"attributes":{"ID":346635,"DIS_CODE":0,"TOWNNAME":"佳里區","LI":"安西里","LIN":"50鄰","STREET":" ","SECT":" ","MAREA":"安西","LANE":" ","ALLEY":" ","HOUSE_NO":"１３１號之２１","E_COORD97":164395.12,"N_COORD97":2562068.7400000002,"ADDRESS":"安西１３１號之２１","OBJECTID":346626},"geometry":{"x":164395.12000000197,"y":2562068.7400000002}},{"attributes":{"ID":346636,"DIS_CODE":0,"TOWNNAME":"佳里區","LI":"安西里","LIN":"50鄰","STREET":" ","SECT":" ","MAREA":"安西","LANE":" ","ALLEY":" ","HOUSE_NO":"１３１號之２２","E_COORD97":164390.57999999999,"N_COORD97":2562073.9300000002,"ADDRESS":"安西１３１號之２２","OBJECTID":346627},"geometry":{"x":164390.58000000101,"y":2562073.9299999997}},{"attributes":{"ID":346637,"DIS_CODE":0,"TOWNNAME":"佳里區","LI":"安西里","LIN":"50鄰","STREET":" ","SECT":" ","MAREA":"安西","LANE":" ","ALLEY":" ","HOUSE_NO":"１３１號之２３","E_COORD97":164369.29000000001,"N_COORD97":2562052.8399999999,"ADDRESS":"安西１３１號之２３","OBJECTID":346628},"geometry":{"x":164369.29000000004,"y":2562052.8400000017}},{"attributes":{"ID":346638,"DIS_CODE":0,"TOWNNAME":"北區","LI":"興北里","LIN":"6鄰","STREET":"公園北路","SECT":" ","MAREA":" ","LANE":"７８巷","ALLEY":" ","HOUSE_NO":"８３號","E_COORD97":169145.54000000001,"N_COORD97":2545207.6299999999,"ADDRESS":"公園北路７８巷８３號","OBJECTID":346629},"geometry":{"x":169145.5400000019,"y":2545207.629999999}},{"attributes":{"ID":346639,"DIS_CODE":0,"TOWNNAME":"北區","LI":"興南里","LIN":"6鄰","STREET":"公園路","SECT":" ","MAREA":" ","LANE":"３２１巷","ALLEY":" ","HOUSE_NO":"２０號","E_COORD97":168927.63,"N_COORD97":2544994.7799999998,"ADDRESS":"公園路３２１巷２０號","OBJECTID":346630},"geometry":{"x":168927.63000000175,"y":2544994.7800000031}},{"attributes":{"ID":346640,"DIS_CODE":0,"TOWNNAME":"北區","LI":"興南里","LIN":"6鄰","STREET":"公園路","SECT":" ","MAREA":" ","LANE":"３２１巷","ALLEY":" ","HOUSE_NO":"２２號","E_COORD97":168922.85000000001,"N_COORD97":2544985.3799999999,"ADDRESS":"公園路３２１巷２２號","OBJECTID":346631},"geometry":{"x":168922.85000000056,"y":2544985.379999999}},{"attributes":{"ID":346641,"DIS_CODE":0,"TOWNNAME":"麻豆區","LI":"中興里","LIN":"8鄰","STREET":"三民路","SECT":" ","MAREA":" ","LANE":" ","ALLEY":" ","HOUSE_NO":"５７號之５五樓","E_COORD97":172841.17999999999,"N_COORD97":2564385.54,"ADDRESS":"三民路５７號之５五樓","OBJECTID":346632},"geometry":{"x":172841.1799999997,"y":2564385.5400000028}},{"attributes":{"ID":346642,"DIS_CODE":0,"TOWNNAME":"麻豆區","LI":"中興里","LIN":"8鄰","STREET":"三民路","SECT":" ","MAREA":" ","LANE":" ","ALLEY":" ","HOUSE_NO":"５７號之５六樓","E_COORD97":172841.17999999999,"N_COORD97":2564385.54,"ADDRESS":"三民路５７號之５六樓","OBJECTID":346633},"geometry":{"x":172841.1799999997,"y":2564385.5400000028}},{"attributes":{"ID":346643,"DIS_CODE":0,"TOWNNAME":"麻豆區","LI":"中興里","LIN":"8鄰","STREET":"三民路","SECT":" ","MAREA":" ","LANE":" ","ALLEY":" ","HOUSE_NO":"５７號之５四樓","E_COORD97":172841.17999999999,"N_COORD97":2564385.54,"ADDRESS":"三民路５７號之５四樓","OBJECTID":346634},"geometry":{"x":172841.1799999997,"y":2564385.5400000028}},{"attributes":{"ID":346644,"DIS_CODE":0,"TOWNNAME":"麻豆區","LI":"中興里","LIN":"8鄰","STREET":"三民路","SECT":" ","MAREA":" ","LANE":" ","ALLEY":" ","HOUSE_NO":"５７號之６七樓","E_COORD97":172833.66,"N_COORD97":2564382.1699999999,"ADDRESS":"三民路５７號之６七樓","OBJECTID":346635},"geometry":{"x":172833.66000000108,"y":2564382.1700000037}},{"attributes":{"ID":346645,"DIS_CODE":0,"TOWNNAME":"下營區","LI":"大屯里","LIN":"3鄰","STREET":" ","SECT":" ","MAREA":"大屯寮","LANE":" ","ALLEY":" ","HOUSE_NO":"２７號之１","E_COORD97":172083.368785,"N_COORD97":2570455.1337700002,"ADDRESS":"大屯寮２７號之１","OBJECTID":346636},"geometry":{"x":172083.36878500134,"y":2570455.133766003}},{"attributes":{"ID":346646,"DIS_CODE":0,"TOWNNAME":"永康區","LI":"\u25A0行里","LIN":"38鄰","STREET":"仁愛街","SECT":" ","MAREA":" ","LANE":"１３６巷","ALLEY":" ","HOUSE_NO":"４７號","E_COORD97":172278.26999999999,"N_COORD97":2549609.77,"ADDRESS":"仁愛街１３６巷４７號","OBJECTID":346637},"geometry":{"x":172278.27000000048,"y":2549609.7700000014}},{"attributes":{"ID":346647,"DIS_CODE":0,"TOWNNAME":"北區","LI":"興南里","LIN":"6鄰","STREET":"公園路","SECT":" ","MAREA":" ","LANE":"３２１巷","ALLEY":" ","HOUSE_NO":"２４號","E_COORD97":168907.04000000001,"N_COORD97":2544984.8399999999,"ADDRESS":"公園路３２１巷２４號","OBJECTID":346638},"geometry":{"x":168907.04000000097,"y":2544984.8400000036}},{"attributes":{"ID":346648,"DIS_CODE":0,"TOWNNAME":"北區","LI":"興南里","LIN":"6鄰","STREET":"公園路","SECT":" ","MAREA":" ","LANE":"３２１巷","ALLEY":" ","HOUSE_NO":"２６號","E_COORD97":168906.89999999999,"N_COORD97":2544990.7000000002,"ADDRESS":"公園路３２１巷２６號","OBJECTID":346639},"geometry":{"x":168906.90000000037,"y":2544990.6999999993}},{"attributes":{"ID":346649,"DIS_CODE":0,"TOWNNAME":"北區","LI":"興南里","LIN":"6鄰","STREET":"公園路","SECT":" ","MAREA":" ","LANE":"３２１巷","ALLEY":" ","HOUSE_NO":"２８號","E_COORD97":168907.12,"N_COORD97":2544997.8599999999,"ADDRESS":"公園路３２１巷２８號","OBJECTID":346640},"geometry":{"x":168907.12000000011,"y":2544997.8600000031}},{"attributes":{"ID":346650,"DIS_CODE":0,"TOWNNAME":"仁德區","LI":"仁義里","LIN":"38鄰","STREET":"仁義五街","SECT":" ","MAREA":" ","LANE":" ","ALLEY":" ","HOUSE_NO":"１８號","E_COORD97":173526.84,"N_COORD97":2540427.77,"ADDRESS":"仁義五街１８號","OBJECTID":346641},"geometry":{"x":173526.83999999892,"y":2540427.7699999996}},{"attributes":{"ID":346651,"DIS_CODE":0,"TOWNNAME":"歸仁區","LI":"大潭里","LIN":"6鄰","STREET":"大潭一街","SECT":" ","MAREA":" ","LANE":"１８巷","ALLEY":" ","HOUSE_NO":"１２號","E_COORD97":175173.72,"N_COORD97":2534666.25,"ADDRESS":"大潭一街１８巷１２號","OBJECTID":346642},"geometry":{"x":175173.7200000016,"y":2534666.2500000019}},{"attributes":{"ID":346652,"DIS_CODE":0,"TOWNNAME":"北區","LI":"勝安里","LIN":"6鄰","STREET":"開元路","SECT":" ","MAREA":" ","LANE":"７３巷","ALLEY":" ","HOUSE_NO":"６２號之１","E_COORD97":169858.37,"N_COORD97":2545356.9199999999,"ADDRESS":"開元路７３巷６２號之１","OBJECTID":346643},"geometry":{"x":169858.37000000011,"y":2545356.9199999981}},{"attributes":{"ID":346653,"DIS_CODE":0,"TOWNNAME":"北區","LI":"勝安里","LIN":"6鄰","STREET":"開元路","SECT":" ","MAREA":" ","LANE":"７３巷","ALLEY":" ","HOUSE_NO":"６４號","E_COORD97":169862.95000000001,"N_COORD97":2545361.02,"ADDRESS":"開元路７３巷６４號","OBJECTID":346644},"geometry":{"x":169862.95000000019,"y":2545361.0200000014}},{"attributes":{"ID":346654,"DIS_CODE":0,"TOWNNAME":"北區","LI":"勝安里","LIN":"6鄰","STREET":"開元路","SECT":" ","MAREA":" ","LANE":"７３巷","ALLEY":" ","HOUSE_NO":"６４號之１","E_COORD97":169867.20999999999,"N_COORD97":2545364.4900000002,"ADDRESS":"開元路７３巷６４號之１","OBJECTID":346645},"geometry":{"x":169867.20999999996,"y":2545364.4900000021}},{"attributes":{"ID":346655,"DIS_CODE":0,"TOWNNAME":"北區","LI":"勝安里","LIN":"6鄰","STREET":"開元路","SECT":" ","MAREA":" ","LANE":"７３巷","ALLEY":" ","HOUSE_NO":"６６號之３地下一層","E_COORD97":169883.92999999999,"N_COORD97":2545366.3799999999,"ADDRESS":"開元路７３巷６６號之３地下一層","OBJECTID":346646},"geometry":{"x":169883.93000000063,"y":2545366.3799999971}},{"attributes":{"ID":346656,"DIS_CODE":0,"TOWNNAME":"北區","LI":"勝安里","LIN":"6鄰","STREET":"開元路","SECT":" ","MAREA":" ","LANE":"７３巷","ALLEY":" ","HOUSE_NO":"６６號之５","E_COORD97":169875.41,"N_COORD97":2545375.8399999999,"ADDRESS":"開元路７３巷６６號之５","OBJECTID":346647},"geometry":{"x":169875.41000000201,"y":2545375.8400000017}},{"attributes":{"ID":346657,"DIS_CODE":0,"TOWNNAME":"北區","LI":"勝安里","LIN":"6鄰","STREET":"開元路","SECT":" ","MAREA":" ","LANE":"７３巷","ALLEY":" ","HOUSE_NO":"６６號之６","E_COORD97":169878.41,"N_COORD97":2545378.5899999999,"ADDRESS":"開元路７３巷６６號之６","OBJECTID":346648},"geometry":{"x":169878.41000000015,"y":2545378.5899999999}},{"attributes":{"ID":346658,"DIS_CODE":0,"TOWNNAME":"北區","LI":"勝安里","LIN":"6鄰","STREET":"開元路","SECT":" ","MAREA":" ","LANE":"７３巷","ALLEY":" ","HOUSE_NO":"６６號之７","E_COORD97":169881.41,"N_COORD97":2545381.75,"ADDRESS":"開元路７３巷６６號之７","OBJECTID":346649},"geometry":{"x":169881.41000000015,"y":2545381.75}},{"attributes":{"ID":346659,"DIS_CODE":0,"TOWNNAME":"麻豆區","LI":"中興里","LIN":"8鄰","STREET":"三民路","SECT":" ","MAREA":" ","LANE":" ","ALLEY":" ","HOUSE_NO":"５７號之６二樓","E_COORD97":172833.66,"N_COORD97":2564382.1699999999,"ADDRESS":"三民路５７號之６二樓","OBJECTID":346650},"geometry":{"x":172833.66000000108,"y":2564382.1700000037}},{"attributes":{"ID":346660,"DIS_CODE":0,"TOWNNAME":"永康區","LI":"龍潭里","LIN":"38鄰","STREET":"中山北路","SECT":" ","MAREA":" ","LANE":"１６４巷","ALLEY":" ","HOUSE_NO":"８０號之２０","E_COORD97":174455.14999999999,"N_COORD97":2547365.7999999998,"ADDRESS":"中山北路１６４巷８０號之２０","OBJECTID":346651},"geometry":{"x":174455.1500000013,"y":2547365.8000000045}},{"attributes":{"ID":346661,"DIS_CODE":0,"TOWNNAME":"永康區","LI":"五王里","LIN":"38鄰","STREET":"中華路","SECT":" ","MAREA":" ","LANE":"５７８巷","ALLEY":" ","HOUSE_NO":"１７號之４","E_COORD97":171332.34,"N_COORD97":2545989.54,"ADDRESS":"中華路５７８巷１７號之４","OBJECTID":346652},"geometry":{"x":171332.34000000078,"y":2545989.5400000028}},{"attributes":{"ID":346662,"DIS_CODE":0,"TOWNNAME":"永康區","LI":"龍潭里","LIN":"38鄰","STREET":"中山北路","SECT":" ","MAREA":" ","LANE":"１６４巷","ALLEY":" ","HOUSE_NO":"８２號之２０","E_COORD97":174451.34,"N_COORD97":2547386.9199999999,"ADDRESS":"中山北路１６４巷８２號之２０","OBJECTID":346653},"geometry":{"x":174451.34000000078,"y":2547386.9199999999}},{"attributes":{"ID":346663,"DIS_CODE":0,"TOWNNAME":"永康區","LI":"五王里","LIN":"38鄰","STREET":"中華路","SECT":" ","MAREA":" ","LANE":"５７８巷","ALLEY":" ","HOUSE_NO":"１７號之４６","E_COORD97":171333.67000000001,"N_COORD97":2545989.54,"ADDRESS":"中華路５７８巷１７號之４６","OBJECTID":346654},"geometry":{"x":171333.67000000086,"y":2545989.5400000028}},{"attributes":{"ID":346664,"DIS_CODE":0,"TOWNNAME":"仁德區","LI":"太子里","LIN":"38鄰","STREET":"長興一街","SECT":" ","MAREA":" ","LANE":"５９巷","ALLEY":" ","HOUSE_NO":"３號","E_COORD97":174483.17999999999,"N_COORD97":2543783,"ADDRESS":"長興一街５９巷３號","OBJECTID":346655},"geometry":{"x":174483.1799999997,"y":2543783}},{"attributes":{"ID":346665,"DIS_CODE":0,"TOWNNAME":"永康區","LI":"北灣里","LIN":"38鄰","STREET":"大灣路","SECT":" ","MAREA":" ","LANE":"４０巷","ALLEY":" ","HOUSE_NO":"２１３號","E_COORD97":174788.13,"N_COORD97":2546349.3700000001,"ADDRESS":"大灣路４０巷２１３號","OBJECTID":346656},"geometry":{"x":174788.13000000082,"y":2546349.3700000029}},{"attributes":{"ID":346666,"DIS_CODE":0,"TOWNNAME":"永康區","LI":"北灣里","LIN":"38鄰","STREET":"大灣路","SECT":" ","MAREA":" ","LANE":"４０巷","ALLEY":" ","HOUSE_NO":"１５７號","E_COORD97":174901.57000000001,"N_COORD97":2546251.8700000001,"ADDRESS":"大灣路４０巷１５７號","OBJECTID":346657},"geometry":{"x":174901.5700000003,"y":2546251.8700000029}},{"attributes":{"ID":346667,"DIS_CODE":0,"TOWNNAME":"永康區","LI":"北灣里","LIN":"38鄰","STREET":"大灣路","SECT":" ","MAREA":" ","LANE":"４０巷","ALLEY":" ","HOUSE_NO":"１５５號","E_COORD97":174904.35999999999,"N_COORD97":2546249.3799999999,"ADDRESS":"大灣路４０巷１５５號","OBJECTID":346658},"geometry":{"x":174904.36000000127,"y":2546249.3800000008}},{"attributes":{"ID":346668,"DIS_CODE":0,"TOWNNAME":"永康區","LI":"北灣里","LIN":"38鄰","STREET":"大灣路","SECT":" ","MAREA":" ","LANE":"４０巷","ALLEY":" ","HOUSE_NO":"２１１號","E_COORD97":174790.91,"N_COORD97":2546345.6899999999,"ADDRESS":"大灣路４０巷２１１號","OBJECTID":346659},"geometry":{"x":174790.91000000015,"y":2546345.6900000013}},{"attributes":{"ID":346669,"DIS_CODE":0,"TOWNNAME":"永康區","LI":"北灣里","LIN":"38鄰","STREET":"大灣路","SECT":" ","MAREA":" ","LANE":"４０巷","ALLEY":" ","HOUSE_NO":"１５９號","E_COORD97":174868.14999999999,"N_COORD97":2546235.75,"ADDRESS":"大灣路４０巷１５９號","OBJECTID":346660},"geometry":{"x":174868.1500000013,"y":2546235.75}},{"attributes":{"ID":346670,"DIS_CODE":0,"TOWNNAME":"永康區","LI":"五王里","LIN":"38鄰","STREET":"中華路","SECT":" ","MAREA":" ","LANE":"５７８巷","ALLEY":" ","HOUSE_NO":"１７號之４９","E_COORD97":171333.64999999999,"N_COORD97":2545989.54,"ADDRESS":"中華路５７８巷１７號之４９","OBJECTID":346661},"geometry":{"x":171333.65000000224,"y":2545989.5400000028}},{"attributes":{"ID":346671,"DIS_CODE":0,"TOWNNAME":"永康區","LI":"復華里","LIN":" ","STREET":"國華街","SECT":" ","MAREA":" ","LANE":" ","ALLEY":" ","HOUSE_NO":"５０號","E_COORD97":172847.54999999999,"N_COORD97":2545689.0299999998,"ADDRESS":"國華街５０號","OBJECTID":346662},"geometry":{"x":172847.55000000168,"y":2545689.0300000012}},{"attributes":{"ID":346672,"DIS_CODE":0,"TOWNNAME":"永康區","LI":"三民里","LIN":" ","STREET":"中正北路","SECT":" ","MAREA":" ","LANE":" ","ALLEY":" ","HOUSE_NO":"９２６號","E_COORD97":175331.39999999999,"N_COORD97":2550385.3399999999,"ADDRESS":"中正北路９２６號","OBJECTID":346663},"geometry":{"x":175331.4000000013,"y":2550385.339999998}},{"attributes":{"ID":346673,"DIS_CODE":0,"TOWNNAME":"永康區","LI":"龍潭里","LIN":" ","STREET":"永明街","SECT":" ","MAREA":" ","LANE":" ","ALLEY":" ","HOUSE_NO":"３２０之４號","E_COORD97":174608.35999999999,"N_COORD97":2547172.96,"ADDRESS":"永明街３２０之４號","OBJECTID":346664},"geometry":{"x":174608.36000000034,"y":2547172.9600000028}},{"attributes":{"ID":346674,"DIS_CODE":0,"TOWNNAME":"永康區","LI":"東橋里","LIN":" ","STREET":"自強路","SECT":" ","MAREA":" ","LANE":" ","ALLEY":" ","HOUSE_NO":"１３３號","E_COORD97":172948.16,"N_COORD97":2547362.5,"ADDRESS":"自強路１３３號","OBJECTID":346665},"geometry":{"x":172948.16000000015,"y":2547362.5}},{"attributes":{"ID":346675,"DIS_CODE":0,"TOWNNAME":"永康區","LI":"\u25A0洲里","LIN":"38鄰","STREET":"\u25A0行路","SECT":" ","MAREA":" ","LANE":" ","ALLEY":" ","HOUSE_NO":"２１６號","E_COORD97":171272.97,"N_COORD97":2549161.5600000001,"ADDRESS":"\u25A0行路２１６號","OBJECTID":346666},"geometry":{"x":171272.96999999881,"y":2549161.5600000024}},{"attributes":{"ID":346676,"DIS_CODE":0,"TOWNNAME":"永康區","LI":"\u25A0洲里","LIN":"26鄰","STREET":"洲尾街","SECT":" ","MAREA":" ","LANE":" ","ALLEY":" ","HOUSE_NO":"２３９號","E_COORD97":170918.26000000001,"N_COORD97":2549118.1499999999,"ADDRESS":"洲尾街２３９號","OBJECTID":346667},"geometry":{"x":170918.25999999978,"y":2549118.1500000004}},{"attributes":{"ID":346677,"DIS_CODE":0,"TOWNNAME":"永康區","LI":"\u25A0洲里","LIN":"39鄰","STREET":"\u25A0洲一街","SECT":" ","MAREA":" ","LANE":" ","ALLEY":" ","HOUSE_NO":"１０６號","E_COORD97":171635.45999999999,"N_COORD97":2549094.9900000002,"ADDRESS":"\u25A0洲一街１０６號","OBJECTID":346668},"geometry":{"x":171635.45999999996,"y":2549094.9900000002}},{"attributes":{"ID":346678,"DIS_CODE":0,"TOWNNAME":"永康區","LI":"大橋里","LIN":" ","STREET":"中華路","SECT":" ","MAREA":" ","LANE":" ","ALLEY":" ","HOUSE_NO":"７８４號","E_COORD97":170840.92999999999,"N_COORD97":2546451.25,"ADDRESS":"中華路７８４號","OBJECTID":346669},"geometry":{"x":170840.92999999877,"y":2546451.2500000019}},{"attributes":{"ID":346679,"DIS_CODE":0,"TOWNNAME":"永康區","LI":"大灣里","LIN":" ","STREET":"大灣路","SECT":" ","MAREA":" ","LANE":" ","ALLEY":" ","HOUSE_NO":"２３４之５號","E_COORD97":173380.85000000001,"N_COORD97":2545181.7799999998,"ADDRESS":"大灣路２３４之５號","OBJECTID":346670},"geometry":{"x":173380.85000000149,"y":2545181.7800000012}},{"attributes":{"ID":346680,"DIS_CODE":0,"TOWNNAME":"永康區","LI":"尚頂里","LIN":" ","STREET":"國聖街","SECT":" ","MAREA":" ","LANE":" ","ALLEY":" ","HOUSE_NO":"７２號","E_COORD97":171144.59,"N_COORD97":2548794.5,"ADDRESS":"國聖街７２號","OBJECTID":346671},"geometry":{"x":171144.58999999985,"y":2548794.5000000037}},{"attributes":{"ID":346681,"DIS_CODE":0,"TOWNNAME":"永康區","LI":"西橋里","LIN":" ","STREET":"中華西街","SECT":" ","MAREA":" ","LANE":" ","ALLEY":" ","HOUSE_NO":"８９號","E_COORD97":172119.20999999999,"N_COORD97":2549193.9900000002,"ADDRESS":"中華西街８９號","OBJECTID":346672},"geometry":{"x":172119.21000000183,"y":2549193.9900000002}},{"attributes":{"ID":346682,"DIS_CODE":0,"TOWNNAME":"永康區","LI":"北灣里","LIN":"38鄰","STREET":"大灣路","SECT":" ","MAREA":" ","LANE":"４０巷","ALLEY":" ","HOUSE_NO":"２１９號","E_COORD97":174762.14999999999,"N_COORD97":2546356.04,"ADDRESS":"大灣路４０巷２１９號","OBJECTID":346673},"geometry":{"x":174762.15000000037,"y":2546356.040000001}},{"attributes":{"ID":346683,"DIS_CODE":0,"TOWNNAME":"永康區","LI":"北灣里","LIN":"38鄰","STREET":"大灣路","SECT":" ","MAREA":" ","LANE":"４０巷","ALLEY":" ","HOUSE_NO":"２２１號","E_COORD97":174758.10999999999,"N_COORD97":2546361.3199999998,"ADDRESS":"大灣路４０巷２２１號","OBJECTID":346674},"geometry":{"x":174758.1100000022,"y":2546361.3200000003}},{"attributes":{"ID":346684,"DIS_CODE":0,"TOWNNAME":"永康區","LI":"崑山里","LIN":"38鄰","STREET":"崑山街","SECT":" ","MAREA":" ","LANE":"１８３巷","ALLEY":" ","HOUSE_NO":"３１號","E_COORD97":173951.42999999999,"N_COORD97":2544964.7000000002,"ADDRESS":"崑山街１８３巷３１號","OBJECTID":346675},"geometry":{"x":173951.4299999997,"y":2544964.700000003}},{"attributes":{"ID":346685,"DIS_CODE":0,"TOWNNAME":"永康區","LI":"北灣里","LIN":"38鄰","STREET":"大灣路","SECT":" ","MAREA":" ","LANE":"４０巷","ALLEY":" ","HOUSE_NO":"１８７號","E_COORD97":174822.92000000001,"N_COORD97":2546295.5299999998,"ADDRESS":"大灣路４０巷１８７號","OBJECTID":346676},"geometry":{"x":174822.91999999993,"y":2546295.5300000012}},{"attributes":{"ID":346686,"DIS_CODE":0,"TOWNNAME":"永康區","LI":"北灣里","LIN":"38鄰","STREET":"大灣路","SECT":" ","MAREA":" ","LANE":"４０巷","ALLEY":" ","HOUSE_NO":"１８９號","E_COORD97":174819.48999999999,"N_COORD97":2546302.1899999999,"ADDRESS":"大灣路４０巷１８９號","OBJECTID":346677},"geometry":{"x":174819.49000000022,"y":2546302.1900000013}},{"attributes":{"ID":346687,"DIS_CODE":0,"TOWNNAME":"永康區","LI":"北灣里","LIN":"38鄰","STREET":"大灣路","SECT":" ","MAREA":" ","LANE":"４０巷","ALLEY":" ","HOUSE_NO":"１９３號","E_COORD97":174810.5,"N_COORD97":2546311.8500000001,"ADDRESS":"大灣路４０巷１９３號","OBJECTID":346678},"geometry":{"x":174810.5,"y":2546311.8499999996}},{"attributes":{"ID":346688,"DIS_CODE":0,"TOWNNAME":"永康區","LI":"北灣里","LIN":"38鄰","STREET":"大灣路","SECT":" ","MAREA":" ","LANE":"４０巷","ALLEY":" ","HOUSE_NO":"１９５號","E_COORD97":174806.56,"N_COORD97":2546313.1899999999,"ADDRESS":"大灣路４０巷１９５號","OBJECTID":346679},"geometry":{"x":174806.55999999959,"y":2546313.1899999995}},{"attributes":{"ID":346689,"DIS_CODE":0,"TOWNNAME":"永康區","LI":"北灣里","LIN":"38鄰","STREET":"大灣路","SECT":" ","MAREA":" ","LANE":"４０巷","ALLEY":" ","HOUSE_NO":"１９７號","E_COORD97":174803.70999999999,"N_COORD97":2546315.8100000001,"ADDRESS":"大灣路４０巷１９７號","OBJECTID":346680},"geometry":{"x":174803.70999999996,"y":2546315.8100000024}},{"attributes":{"ID":346690,"DIS_CODE":0,"TOWNNAME":"永康區","LI":"北灣里","LIN":"38鄰","STREET":"大灣路","SECT":" ","MAREA":" ","LANE":"４０巷","ALLEY":" ","HOUSE_NO":"１９９號","E_COORD97":174800.25,"N_COORD97":2546318.9900000002,"ADDRESS":"大灣路４０巷１９９號","OBJECTID":346681},"geometry":{"x":174800.25,"y":2546318.9900000002}},{"attributes":{"ID":346691,"DIS_CODE":0,"TOWNNAME":"北區","LI":"安民里","LIN":"6鄰","STREET":"康樂街","SECT":" ","MAREA":" ","LANE":"４０６巷","ALLEY":" ","HOUSE_NO":"２４號","E_COORD97":167817.42999999999,"N_COORD97":2544716.0600000001,"ADDRESS":"康樂街４０６巷２４號","OBJECTID":346682},"geometry":{"x":167817.43000000063,"y":2544716.0600000042}},{"attributes":{"ID":346692,"DIS_CODE":0,"TOWNNAME":"鹽水區","LI":"武廟里","LIN":"6鄰","STREET":"文武街","SECT":" ","MAREA":" ","LANE":"７２巷","ALLEY":" ","HOUSE_NO":"１５號","E_COORD97":175019.01999999999,"N_COORD97":2580251.1200000001,"ADDRESS":"文武街７２巷１５號","OBJECTID":346683},"geometry":{"x":175019.02000000048,"y":2580251.1200000029}},{"attributes":{"ID":346693,"DIS_CODE":0,"TOWNNAME":"鹽水區","LI":"武廟里","LIN":"6鄰","STREET":"文武街","SECT":" ","MAREA":" ","LANE":"７２巷","ALLEY":" ","HOUSE_NO":"１６號","E_COORD97":175058.78,"N_COORD97":2580235.77,"ADDRESS":"文武街７２巷１６號","OBJECTID":346684},"geometry":{"x":175058.78000000119,"y":2580235.7700000014}},{"attributes":{"ID":346694,"DIS_CODE":0,"TOWNNAME":"鹽水區","LI":"武廟里","LIN":"6鄰","STREET":"文武街","SECT":" ","MAREA":" ","LANE":"７２巷","ALLEY":" ","HOUSE_NO":"１７號","E_COORD97":175023.12,"N_COORD97":2580251.2200000002,"ADDRESS":"文武街７２巷１７號","OBJECTID":346685},"geometry":{"x":175023.12000000011,"y":2580251.2200000025}},{"attributes":{"ID":346695,"DIS_CODE":0,"TOWNNAME":"鹽水區","LI":"武廟里","LIN":"6鄰","STREET":"文武街","SECT":" ","MAREA":" ","LANE":"７２巷","ALLEY":" ","HOUSE_NO":"１８號","E_COORD97":175058.32000000001,"N_COORD97":2580240.6499999999,"ADDRESS":"文武街７２巷１８號","OBJECTID":346686},"geometry":{"x":175058.32000000216,"y":2580240.6500000022}},{"attributes":{"ID":346696,"DIS_CODE":0,"TOWNNAME":"鹽水區","LI":"武廟里","LIN":"6鄰","STREET":"文武街","SECT":" ","MAREA":" ","LANE":"７２巷","ALLEY":" ","HOUSE_NO":"１９號","E_COORD97":175033.56,"N_COORD97":2580243.8500000001,"ADDRESS":"文武街７２巷１９號","OBJECTID":346687},"geometry":{"x":175033.55999999959,"y":2580243.8499999996}},{"attributes":{"ID":346697,"DIS_CODE":0,"TOWNNAME":"鹽水區","LI":"武廟里","LIN":"6鄰","STREET":"文武街","SECT":" ","MAREA":" ","LANE":"７２巷","ALLEY":" ","HOUSE_NO":"１號","E_COORD97":175035.73999999999,"N_COORD97":2580216.5899999999,"ADDRESS":"文武街７２巷１號","OBJECTID":346688},"geometry":{"x":175035.74000000115,"y":2580216.5900000017}},{"attributes":{"ID":346698,"DIS_CODE":0,"TOWNNAME":"鹽水區","LI":"武廟里","LIN":"6鄰","STREET":"文武街","SECT":" ","MAREA":" ","LANE":"７２巷","ALLEY":" ","HOUSE_NO":"２０號","E_COORD97":175058.23000000001,"N_COORD97":2580245.0099999998,"ADDRESS":"文武街７２巷２０號","OBJECTID":346689},"geometry":{"x":175058.23000000138,"y":2580245.0100000016}},{"attributes":{"ID":346699,"DIS_CODE":0,"TOWNNAME":"鹽水區","LI":"武廟里","LIN":"6鄰","STREET":"文武街","SECT":" ","MAREA":" ","LANE":"７２巷","ALLEY":" ","HOUSE_NO":"２１號","E_COORD97":175033.26000000001,"N_COORD97":2580248.5499999998,"ADDRESS":"文武街７２巷２１號","OBJECTID":346690},"geometry":{"x":175033.26000000071,"y":2580248.5500000026}},{"attributes":{"ID":346700,"DIS_CODE":0,"TOWNNAME":"鹽水區","LI":"武廟里","LIN":"6鄰","STREET":"文武街","SECT":" ","MAREA":" ","LANE":"７２巷","ALLEY":" ","HOUSE_NO":"２２號","E_COORD97":175057.95000000001,"N_COORD97":2580249.6200000001,"ADDRESS":"文武街７２巷２２號","OBJECTID":346691},"geometry":{"x":175057.95000000112,"y":2580249.620000001}},{"attributes":{"ID":346701,"DIS_CODE":0,"TOWNNAME":"鹽水區","LI":"武廟里","LIN":"6鄰","STREET":"文武街","SECT":" ","MAREA":" ","LANE":"７２巷","ALLEY":" ","HOUSE_NO":"２３號","E_COORD97":175032.95000000001,"N_COORD97":2580253.2400000002,"ADDRESS":"文武街７２巷２３號","OBJECTID":346692},"geometry":{"x":175032.95000000019,"y":2580253.2400000021}},{"attributes":{"ID":346702,"DIS_CODE":0,"TOWNNAME":"北區","LI":"大山里","LIN":"6鄰","STREET":"精忠街","SECT":" ","MAREA":" ","LANE":"２５巷","ALLEY":" ","HOUSE_NO":"３４號","E_COORD97":169378.95999999999,"N_COORD97":2545425.4700000002,"ADDRESS":"精忠街２５巷３４號","OBJECTID":346693},"geometry":{"x":169378.96000000089,"y":2545425.4700000044}},{"attributes":{"ID":346703,"DIS_CODE":0,"TOWNNAME":"北區","LI":"大山里","LIN":"6鄰","STREET":"精忠街","SECT":" ","MAREA":" ","LANE":"２５巷","ALLEY":" ","HOUSE_NO":"３５號","E_COORD97":169390.57000000001,"N_COORD97":2545426.8300000001,"ADDRESS":"精忠街２５巷３５號","OBJECTID":346694},"geometry":{"x":169390.5700000003,"y":2545426.8300000019}},{"attributes":{"ID":346704,"DIS_CODE":0,"TOWNNAME":"北區","LI":"大山里","LIN":"6鄰","STREET":"精忠街","SECT":" ","MAREA":" ","LANE":"２５巷","ALLEY":" ","HOUSE_NO":"３６號之１","E_COORD97":169410.35000000001,"N_COORD97":2545414.1499999999,"ADDRESS":"精忠街２５巷３６號之１","OBJECTID":346695},"geometry":{"x":169410.34999999963,"y":2545414.1500000022}},{"attributes":{"ID":346705,"DIS_CODE":0,"TOWNNAME":"北區","LI":"大仁里","LIN":"6鄰","STREET":"北門路","SECT":"二段","MAREA":" ","LANE":"２６３巷","ALLEY":" ","HOUSE_NO":"９號","E_COORD97":169517.03,"N_COORD97":2545380.4500000002,"ADDRESS":"北門路二段２６３巷９號","OBJECTID":346696},"geometry":{"x":169517.03000000212,"y":2545380.4500000011}},{"attributes":{"ID":346706,"DIS_CODE":0,"TOWNNAME":"麻豆區","LI":"中興里","LIN":"8鄰","STREET":"三民路","SECT":" ","MAREA":" ","LANE":" ","ALLEY":" ","HOUSE_NO":"５７號之６三樓","E_COORD97":172833.66,"N_COORD97":2564382.1699999999,"ADDRESS":"三民路５７號之６三樓","OBJECTID":346697},"geometry":{"x":172833.66000000108,"y":2564382.1700000037}},{"attributes":{"ID":346707,"DIS_CODE":0,"TOWNNAME":"麻豆區","LI":"中興里","LIN":"8鄰","STREET":"三民路","SECT":" ","MAREA":" ","LANE":" ","ALLEY":" ","HOUSE_NO":"５７號之６五樓","E_COORD97":172833.66,"N_COORD97":2564382.1699999999,"ADDRESS":"三民路５７號之６五樓","OBJECTID":346698},"geometry":{"x":172833.66000000108,"y":2564382.1700000037}},{"attributes":{"ID":346708,"DIS_CODE":0,"TOWNNAME":"麻豆區","LI":"中興里","LIN":"8鄰","STREET":"三民路","SECT":" ","MAREA":" ","LANE":" ","ALLEY":" ","HOUSE_NO":"５７號之６六樓","E_COORD97":172833.66,"N_COORD97":2564382.1699999999,"ADDRESS":"三民路５７號之６六樓","OBJECTID":346699},"geometry":{"x":172833.66000000108,"y":2564382.1700000037}},{"attributes":{"ID":346709,"DIS_CODE":0,"TOWNNAME":"麻豆區","LI":"中興里","LIN":"8鄰","STREET":"三民路","SECT":" ","MAREA":" ","LANE":" ","ALLEY":" ","HOUSE_NO":"５７號之６四樓","E_COORD97":172833.66,"N_COORD97":2564382.1699999999,"ADDRESS":"三民路５７號之６四樓","OBJECTID":346700},"geometry":{"x":172833.66000000108,"y":2564382.1700000037}},{"attributes":{"ID":346710,"DIS_CODE":0,"TOWNNAME":"麻豆區","LI":"中興里","LIN":"8鄰","STREET":"三民路","SECT":" ","MAREA":" ","LANE":" ","ALLEY":" ","HOUSE_NO":"５７號七樓","E_COORD97":172812.63,"N_COORD97":2564366.4700000002,"ADDRESS":"三民路５７號七樓","OBJECTID":346701},"geometry":{"x":172812.62999999989,"y":2564366.4700000007}},{"attributes":{"ID":346711,"DIS_CODE":0,"TOWNNAME":"麻豆區","LI":"中興里","LIN":"8鄰","STREET":"三民路","SECT":" ","MAREA":" ","LANE":" ","ALLEY":" ","HOUSE_NO":"５７號三樓","E_COORD97":172812.63,"N_COORD97":2564366.4700000002,"ADDRESS":"三民路５７號三樓","OBJECTID":346702},"geometry":{"x":172812.62999999989,"y":2564366.4700000007}},{"attributes":{"ID":346712,"DIS_CODE":0,"TOWNNAME":"麻豆區","LI":"中興里","LIN":"8鄰","STREET":"三民路","SECT":" ","MAREA":" ","LANE":" ","ALLEY":" ","HOUSE_NO":"５７號五樓","E_COORD97":172812.63,"N_COORD97":2564366.4700000002,"ADDRESS":"三民路５７號五樓","OBJECTID":346703},"geometry":{"x":172812.62999999989,"y":2564366.4700000007}},{"attributes":{"ID":346713,"DIS_CODE":0,"TOWNNAME":"麻豆區","LI":"中興里","LIN":"8鄰","STREET":"三民路","SECT":" ","MAREA":" ","LANE":" ","ALLEY":" ","HOUSE_NO":"５７號六樓","E_COORD97":172812.63,"N_COORD97":2564366.4700000002,"ADDRESS":"三民路５７號六樓","OBJECTID":346704},"geometry":{"x":172812.62999999989,"y":2564366.4700000007}},{"attributes":{"ID":346714,"DIS_CODE":0,"TOWNNAME":"麻豆區","LI":"中興里","LIN":"8鄰","STREET":"三民路","SECT":" ","MAREA":" ","LANE":" ","ALLEY":" ","HOUSE_NO":"５７號四樓","E_COORD97":172812.63,"N_COORD97":2564366.4700000002,"ADDRESS":"三民路５７號四樓","OBJECTID":346705},"geometry":{"x":172812.62999999989,"y":2564366.4700000007}},{"attributes":{"ID":346715,"DIS_CODE":0,"TOWNNAME":"佳里區","LI":"安西里","LIN":"38鄰","STREET":"文化路","SECT":" ","MAREA":" ","LANE":"４７８巷","ALLEY":" ","HOUSE_NO":"８號","E_COORD97":165016.48999999999,"N_COORD97":2562616.1699999999,"ADDRESS":"文化路４７８巷８號","OBJECTID":346706},"geometry":{"x":165016.49000000209,"y":2562616.1700000018}},{"attributes":{"ID":346716,"DIS_CODE":0,"TOWNNAME":"永康區","LI":"北灣里","LIN":"38鄰","STREET":"大灣路","SECT":" ","MAREA":" ","LANE":"４０巷","ALLEY":" ","HOUSE_NO":"２２３號","E_COORD97":174754.38,"N_COORD97":2546363.1699999999,"ADDRESS":"大灣路４０巷２２３號","OBJECTID":346707},"geometry":{"x":174754.38000000082,"y":2546363.1700000018}},{"attributes":{"ID":346717,"DIS_CODE":0,"TOWNNAME":"永康區","LI":"北灣里","LIN":"38鄰","STREET":"大灣路","SECT":" ","MAREA":" ","LANE":"４０巷","ALLEY":" ","HOUSE_NO":"２２５號","E_COORD97":174750.97,"N_COORD97":2546369.1000000001,"ADDRESS":"大灣路４０巷２２５號","OBJECTID":346708},"geometry":{"x":174750.96999999974,"y":2546369.0999999978}},{"attributes":{"ID":346718,"DIS_CODE":0,"TOWNNAME":"永康區","LI":"正強里","LIN":"38鄰","STREET":"正強街","SECT":" ","MAREA":" ","LANE":"３０５巷","ALLEY":" ","HOUSE_NO":"３２號","E_COORD97":173191.57000000001,"N_COORD97":2548069.9900000002,"ADDRESS":"正強街３０５巷３２號","OBJECTID":346709},"geometry":{"x":173191.5700000003,"y":2548069.9900000021}},{"attributes":{"ID":346719,"DIS_CODE":0,"TOWNNAME":"東區","LI":"成大里","LIN":"5鄰","STREET":"民族路","SECT":"一段","MAREA":" ","LANE":"１７巷","ALLEY":" ","HOUSE_NO":"２號","E_COORD97":169532.34,"N_COORD97":2543800.0499999998,"ADDRESS":"民族路一段１７巷２號","OBJECTID":346710},"geometry":{"x":169532.33999999985,"y":2543800.0500000007}},{"attributes":{"ID":346720,"DIS_CODE":0,"TOWNNAME":"永康區","LI":"三合里","LIN":"6鄰","STREET":"南工街","SECT":" ","MAREA":" ","LANE":"１３０巷","ALLEY":" ","HOUSE_NO":"７號","E_COORD97":172133.82000000001,"N_COORD97":2545796.3100000001,"ADDRESS":"南工街１３０巷７號","OBJECTID":346711},"geometry":{"x":172133.8200000003,"y":2545796.3100000024}},{"attributes":{"ID":346721,"DIS_CODE":0,"TOWNNAME":"東區","LI":"成大里","LIN":"5鄰","STREET":"民族路","SECT":"一段","MAREA":" ","LANE":"１７巷","ALLEY":" ","HOUSE_NO":"２號之１","E_COORD97":169545.62,"N_COORD97":2543805.1499999999,"ADDRESS":"民族路一段１７巷２號之１","OBJECTID":346712},"geometry":{"x":169545.62000000104,"y":2543805.1500000004}},{"attributes":{"ID":346722,"DIS_CODE":0,"TOWNNAME":"東區","LI":"成大里","LIN":"5鄰","STREET":"民族路","SECT":"一段","MAREA":" ","LANE":"１７巷","ALLEY":" ","HOUSE_NO":"３７號","E_COORD97":169599.76000000001,"N_COORD97":2543809.6299999999,"ADDRESS":"民族路一段１７巷３７號","OBJECTID":346713},"geometry":{"x":169599.76000000164,"y":2543809.6300000008}},{"attributes":{"ID":346723,"DIS_CODE":0,"TOWNNAME":"東區","LI":"成大里","LIN":"5鄰","STREET":"民族路","SECT":"一段","MAREA":" ","LANE":"１７巷","ALLEY":" ","HOUSE_NO":"６號","E_COORD97":169553.59,"N_COORD97":2543804.9399999999,"ADDRESS":"民族路一段１７巷６號","OBJECTID":346714},"geometry":{"x":169553.59000000078,"y":2543804.9400000013}},{"attributes":{"ID":346724,"DIS_CODE":0,"TOWNNAME":"東區","LI":"成大里","LIN":"5鄰","STREET":"民族路","SECT":"一段","MAREA":" ","LANE":"１７巷","ALLEY":" ","HOUSE_NO":"８號","E_COORD97":169560.13,"N_COORD97":2543804.5299999998,"ADDRESS":"民族路一段１７巷８號","OBJECTID":346715},"geometry":{"x":169560.13000000082,"y":2543804.5300000012}},{"attributes":{"ID":346725,"DIS_CODE":0,"TOWNNAME":"永康區","LI":"南灣里","LIN":"38鄰","STREET":"南灣街","SECT":" ","MAREA":" ","LANE":"１００巷","ALLEY":" ","HOUSE_NO":"２０號","E_COORD97":174451.73000000001,"N_COORD97":2545027.7400000002,"ADDRESS":"南灣街１００巷２０號","OBJECTID":346716},"geometry":{"x":174451.73000000045,"y":2545027.7400000021}},{"attributes":{"ID":346726,"DIS_CODE":0,"TOWNNAME":"永康區","LI":"南灣里","LIN":"38鄰","STREET":"大安街","SECT":" ","MAREA":" ","LANE":"９７巷","ALLEY":" ","HOUSE_NO":"３１號","E_COORD97":174473.94,"N_COORD97":2545052.29,"ADDRESS":"大安街９７巷３１號","OBJECTID":346717},"geometry":{"x":174473.94000000041,"y":2545052.290000001}},{"attributes":{"ID":346727,"DIS_CODE":0,"TOWNNAME":"永康區","LI":"南灣里","LIN":"38鄰","STREET":"大安街","SECT":" ","MAREA":" ","LANE":"９７巷","ALLEY":" ","HOUSE_NO":"２１號","E_COORD97":174474.41,"N_COORD97":2545025.0699999998,"ADDRESS":"大安街９７巷２１號","OBJECTID":346718},"geometry":{"x":174474.41000000201,"y":2545025.0700000022}},{"attributes":{"ID":346728,"DIS_CODE":0,"TOWNNAME":"歸仁區","LI":"崙頂里","LIN":"6鄰","STREET":"信義南路","SECT":" ","MAREA":" ","LANE":"２０２巷","ALLEY":" ","HOUSE_NO":"３７號","E_COORD97":178062.54999999999,"N_COORD97":2540032.6800000002,"ADDRESS":"信義南路２０２巷３７號","OBJECTID":346719},"geometry":{"x":178062.55000000075,"y":2540032.6800000016}},{"attributes":{"ID":346729,"DIS_CODE":0,"TOWNNAME":"新營區","LI":"新北里","LIN":"6鄰","STREET":"三興街","SECT":" ","MAREA":" ","LANE":"１７３巷","ALLEY":" ","HOUSE_NO":"６號","E_COORD97":179336.5,"N_COORD97":2579579.2200000002,"ADDRESS":"三興街１７３巷６號","OBJECTID":346720},"geometry":{"x":179336.5,"y":2579579.2200000025}},{"attributes":{"ID":346730,"DIS_CODE":0,"TOWNNAME":"南區","LI":"同安里","LIN":"6鄰","STREET":"明興路","SECT":" ","MAREA":" ","LANE":"１１８１巷","ALLEY":" ","HOUSE_NO":"２２號","E_COORD97":166561.26999999999,"N_COORD97":2536327.3900000001,"ADDRESS":"明興路１１８１巷２２號","OBJECTID":346721},"geometry":{"x":166561.26999999955,"y":2536327.3900000025}},{"attributes":{"ID":346731,"DIS_CODE":0,"TOWNNAME":"南區","LI":"同安里","LIN":"6鄰","STREET":"明興路","SECT":" ","MAREA":" ","LANE":"１１８１巷","ALLEY":" ","HOUSE_NO":"３８號","E_COORD97":166638.29000000001,"N_COORD97":2536336.4700000002,"ADDRESS":"明興路１１８１巷３８號","OBJECTID":346722},"geometry":{"x":166638.2900000019,"y":2536336.4700000025}},{"attributes":{"ID":346732,"DIS_CODE":0,"TOWNNAME":"南區","LI":"同安里","LIN":"6鄰","STREET":"明興路","SECT":" ","MAREA":" ","LANE":"１１８１巷","ALLEY":" ","HOUSE_NO":"８６號","E_COORD97":166665.87,"N_COORD97":2536340.8500000001,"ADDRESS":"明興路１１８１巷８６號","OBJECTID":346723},"geometry":{"x":166665.87000000011,"y":2536340.8499999996}},{"attributes":{"ID":346733,"DIS_CODE":0,"TOWNNAME":"北區","LI":"成功里","LIN":"6鄰","STREET":"北安路","SECT":"一段","MAREA":" ","LANE":"２１２巷","ALLEY":" ","HOUSE_NO":"２號","E_COORD97":168836.39999999999,"N_COORD97":2546540.5499999998,"ADDRESS":"北安路一段２１２巷２號","OBJECTID":346724},"geometry":{"x":168836.39999999944,"y":2546540.5500000045}},{"attributes":{"ID":346734,"DIS_CODE":0,"TOWNNAME":"北區","LI":"文元里","LIN":"6鄰","STREET":"海安路","SECT":"三段","MAREA":" ","LANE":"７８１巷","ALLEY":" ","HOUSE_NO":"１３６號","E_COORD97":167804.91,"N_COORD97":2545992.6600000001,"ADDRESS":"海安路三段７８１巷１３６號","OBJECTID":346725},"geometry":{"x":167804.91000000015,"y":2545992.6600000001}},{"attributes":{"ID":346735,"DIS_CODE":0,"TOWNNAME":"南區","LI":"同安里","LIN":"6鄰","STREET":"明興路","SECT":" ","MAREA":" ","LANE":"１１８１巷","ALLEY":" ","HOUSE_NO":"１９８號之６","E_COORD97":167011.84,"N_COORD97":2536235.4199999999,"ADDRESS":"明興路１１８１巷１９８號之６","OBJECTID":346726},"geometry":{"x":167011.83999999985,"y":2536235.4199999999}},{"attributes":{"ID":346736,"DIS_CODE":0,"TOWNNAME":"永康區","LI":"二王里","LIN":"8鄰","STREET":"二王路","SECT":" ","MAREA":" ","LANE":" ","ALLEY":" ","HOUSE_NO":"１０號九樓之３","E_COORD97":172986.07999999999,"N_COORD97":2546837.98,"ADDRESS":"二王路１０號九樓之３","OBJECTID":346727},"geometry":{"x":172986.08000000007,"y":2546837.9800000004}},{"attributes":{"ID":346737,"DIS_CODE":0,"TOWNNAME":"永康區","LI":"二王里","LIN":"8鄰","STREET":"二王路","SECT":" ","MAREA":" ","LANE":" ","ALLEY":" ","HOUSE_NO":"１０號九樓之２","E_COORD97":172986.10999999999,"N_COORD97":2546837.98,"ADDRESS":"二王路１０號九樓之２","OBJECTID":346728},"geometry":{"x":172986.11000000034,"y":2546837.9800000004}},{"attributes":{"ID":346738,"DIS_CODE":0,"TOWNNAME":"永康區","LI":"二王里","LIN":"8鄰","STREET":"二王路","SECT":" ","MAREA":" ","LANE":" ","ALLEY":" ","HOUSE_NO":"１６號六樓之３","E_COORD97":172975.14999999999,"N_COORD97":2546819.7999999998,"ADDRESS":"二王路１６號六樓之３","OBJECTID":346729},"geometry":{"x":172975.1500000013,"y":2546819.7999999989}},{"attributes":{"ID":346739,"DIS_CODE":0,"TOWNNAME":"永康區","LI":"二王里","LIN":"8鄰","STREET":"二王路","SECT":" ","MAREA":" ","LANE":" ","ALLEY":" ","HOUSE_NO":"１０號四樓之３","E_COORD97":172986.07999999999,"N_COORD97":2546837.98,"ADDRESS":"二王路１０號四樓之３","OBJECTID":346730},"geometry":{"x":172986.08000000007,"y":2546837.9800000004}},{"attributes":{"ID":346740,"DIS_CODE":0,"TOWNNAME":"永康區","LI":"二王里","LIN":"8鄰","STREET":"二王路","SECT":" ","MAREA":" ","LANE":" ","ALLEY":" ","HOUSE_NO":"１０號八樓之１","E_COORD97":172985.98000000001,"N_COORD97":2546837.98,"ADDRESS":"二王路１０號八樓之１","OBJECTID":346731},"geometry":{"x":172985.98000000231,"y":2546837.9800000004}},{"attributes":{"ID":346741,"DIS_CODE":0,"TOWNNAME":"永康區","LI":"二王里","LIN":"8鄰","STREET":"二王路","SECT":" ","MAREA":" ","LANE":" ","ALLEY":" ","HOUSE_NO":"１６號十樓之３","E_COORD97":172975.14999999999,"N_COORD97":2546819.7999999998,"ADDRESS":"二王路１６號十樓之３","OBJECTID":346732},"geometry":{"x":172975.1500000013,"y":2546819.7999999989}},{"attributes":{"ID":346742,"DIS_CODE":0,"TOWNNAME":"永康區","LI":"二王里","LIN":"8鄰","STREET":"二王路","SECT":" ","MAREA":" ","LANE":" ","ALLEY":" ","HOUSE_NO":"１０號十一樓之２","E_COORD97":172987.35999999999,"N_COORD97":2546837.98,"ADDRESS":"二王路１０號十一樓之２","OBJECTID":346733},"geometry":{"x":172987.36000000127,"y":2546837.9800000004}},{"attributes":{"ID":346743,"DIS_CODE":0,"TOWNNAME":"永康區","LI":"二王里","LIN":"8鄰","STREET":"二王路","SECT":" ","MAREA":" ","LANE":" ","ALLEY":" ","HOUSE_NO":"１８號四樓之１","E_COORD97":172979.20999999999,"N_COORD97":2546822.5499999998,"ADDRESS":"二王路１８號四樓之１","OBJECTID":346734},"geometry":{"x":172979.21000000089,"y":2546822.5500000026}},{"attributes":{"ID":346744,"DIS_CODE":0,"TOWNNAME":"永康區","LI":"二王里","LIN":"8鄰","STREET":"二王路","SECT":" ","MAREA":" ","LANE":" ","ALLEY":" ","HOUSE_NO":"１０號十三樓之１","E_COORD97":172987.23000000001,"N_COORD97":2546837.98,"ADDRESS":"二王路１０號十三樓之１","OBJECTID":346735},"geometry":{"x":172987.23000000045,"y":2546837.9800000004}},{"attributes":{"ID":346745,"DIS_CODE":0,"TOWNNAME":"永康區","LI":"二王里","LIN":"8鄰","STREET":"二王路","SECT":" ","MAREA":" ","LANE":" ","ALLEY":" ","HOUSE_NO":"１０號七樓之２","E_COORD97":172986.10999999999,"N_COORD97":2546837.98,"ADDRESS":"二王路１０號七樓之２","OBJECTID":346736},"geometry":{"x":172986.11000000034,"y":2546837.9800000004}},{"attributes":{"ID":346746,"DIS_CODE":0,"TOWNNAME":"永康區","LI":"二王里","LIN":"8鄰","STREET":"二王路","SECT":" ","MAREA":" ","LANE":" ","ALLEY":" ","HOUSE_NO":"１８號九樓之２","E_COORD97":172979.34,"N_COORD97":2546822.5499999998,"ADDRESS":"二王路１８號九樓之２","OBJECTID":346737},"geometry":{"x":172979.34000000171,"y":2546822.5500000026}},{"attributes":{"ID":346747,"DIS_CODE":0,"TOWNNAME":"仁德區","LI":"後壁里","LIN":"38鄰","STREET":"德安路","SECT":" ","MAREA":" ","LANE":"３１巷","ALLEY":" ","HOUSE_NO":"３號","E_COORD97":173483.14000000001,"N_COORD97":2539154.3900000001,"ADDRESS":"德安路３１巷３號","OBJECTID":346738},"geometry":{"x":173483.1400000006,"y":2539154.3900000025}},{"attributes":{"ID":346748,"DIS_CODE":0,"TOWNNAME":"佳里區","LI":"安西里","LIN":"38鄰","STREET":"文化路","SECT":" ","MAREA":" ","LANE":"４７８巷","ALLEY":" ","HOUSE_NO":"４號","E_COORD97":165016.51999999999,"N_COORD97":2562624.5499999998,"ADDRESS":"文化路４７８巷４號","OBJECTID":346739},"geometry":{"x":165016.51999999955,"y":2562624.5500000045}},{"attributes":{"ID":346749,"DIS_CODE":0,"TOWNNAME":"佳里區","LI":"安西里","LIN":"38鄰","STREET":"文化路","SECT":" ","MAREA":" ","LANE":"４７８巷","ALLEY":" ","HOUSE_NO":"６號","E_COORD97":165016.45999999999,"N_COORD97":2562620.3999999999,"ADDRESS":"文化路４７８巷６號","OBJECTID":346740},"geometry":{"x":165016.46000000183,"y":2562620.4000000004}},{"attributes":{"ID":346750,"DIS_CODE":0,"TOWNNAME":"永康區","LI":"正強里","LIN":"38鄰","STREET":"正強街","SECT":" ","MAREA":" ","LANE":"３０５巷","ALLEY":" ","HOUSE_NO":"４０號","E_COORD97":173177.53,"N_COORD97":2548066.9900000002,"ADDRESS":"正強街３０５巷４０號","OBJECTID":346741},"geometry":{"x":173177.53000000119,"y":2548066.9900000021}},{"attributes":{"ID":346751,"DIS_CODE":0,"TOWNNAME":"永康區","LI":"永康里","LIN":"38鄰","STREET":"大同街","SECT":" ","MAREA":" ","LANE":"７１５巷","ALLEY":" ","HOUSE_NO":"２７號","E_COORD97":174441.45999999999,"N_COORD97":2546660.3799999999,"ADDRESS":"大同街７１５巷２７號","OBJECTID":346742},"geometry":{"x":174441.45999999996,"y":2546660.379999999}},{"attributes":{"ID":346752,"DIS_CODE":0,"TOWNNAME":"永康區","LI":"北灣里","LIN":"38鄰","STREET":"大灣路","SECT":" ","MAREA":" ","LANE":"４０巷","ALLEY":" ","HOUSE_NO":"２１５號","E_COORD97":174785.13,"N_COORD97":2546352.1200000001,"ADDRESS":"大灣路４０巷２１５號","OBJECTID":346743},"geometry":{"x":174785.13000000082,"y":2546352.120000001}},{"attributes":{"ID":346753,"DIS_CODE":0,"TOWNNAME":"永康區","LI":"西灣里","LIN":"38鄰","STREET":"國光七街","SECT":" ","MAREA":" ","LANE":"３８巷","ALLEY":" ","HOUSE_NO":"２８號","E_COORD97":174229.38,"N_COORD97":2545617.29,"ADDRESS":"國光七街３８巷２８號","OBJECTID":346744},"geometry":{"x":174229.37999999989,"y":2545617.2899999991}},{"attributes":{"ID":346754,"DIS_CODE":0,"TOWNNAME":"永康區","LI":"西灣里","LIN":"38鄰","STREET":"國光七街","SECT":" ","MAREA":" ","LANE":"３８巷","ALLEY":" ","HOUSE_NO":"２６號","E_COORD97":174227.98000000001,"N_COORD97":2545612.54,"ADDRESS":"國光七街３８巷２６號","OBJECTID":346745},"geometry":{"x":174227.98000000045,"y":2545612.5399999991}},{"attributes":{"ID":346755,"DIS_CODE":0,"TOWNNAME":"永康區","LI":"西灣里","LIN":"38鄰","STREET":"國光七街","SECT":" ","MAREA":" ","LANE":"３８巷","ALLEY":" ","HOUSE_NO":"１９號","E_COORD97":174217.48000000001,"N_COORD97":2545612.0099999998,"ADDRESS":"國光七街３８巷１９號","OBJECTID":346746},"geometry":{"x":174217.48000000045,"y":2545612.0100000016}},{"attributes":{"ID":346756,"DIS_CODE":0,"TOWNNAME":"永康區","LI":"尚頂里","LIN":" ","STREET":"尚頂路","SECT":" ","MAREA":" ","LANE":" ","ALLEY":" ","HOUSE_NO":"３１４號","E_COORD97":170736.38,"N_COORD97":2547943.4900000002,"ADDRESS":"尚頂路３１４號","OBJECTID":346747},"geometry":{"x":170736.38000000175,"y":2547943.4900000002}},{"attributes":{"ID":346757,"DIS_CODE":0,"TOWNNAME":"永康區","LI":"\u25A0洲里","LIN":"32鄰","STREET":"\u25A0行路","SECT":" ","MAREA":" ","LANE":" ","ALLEY":" ","HOUSE_NO":"２６１號","E_COORD97":170962.29999999999,"N_COORD97":2548915.8700000001,"ADDRESS":"\u25A0行路２６１號","OBJECTID":346748},"geometry":{"x":170962.30000000168,"y":2548915.8700000029}},{"attributes":{"ID":346758,"DIS_CODE":0,"TOWNNAME":"永康區","LI":"蔦松里","LIN":" ","STREET":"蔦松一街","SECT":" ","MAREA":" ","LANE":" ","ALLEY":" ","HOUSE_NO":"１３５號","E_COORD97":173657.78,"N_COORD97":2549592.7400000002,"ADDRESS":"蔦松一街１３５號","OBJECTID":346749},"geometry":{"x":173657.78000000026,"y":2549592.7400000002}},{"attributes":{"ID":346759,"DIS_CODE":0,"TOWNNAME":"永康區","LI":"復國里","LIN":" ","STREET":"復國一路","SECT":" ","MAREA":" ","LANE":" ","ALLEY":" ","HOUSE_NO":"２６５號","E_COORD97":172732.26000000001,"N_COORD97":2545470.27,"ADDRESS":"復國一路２６５號","OBJECTID":346750},"geometry":{"x":172732.25999999885,"y":2545470.2700000014}},{"attributes":{"ID":346760,"DIS_CODE":0,"TOWNNAME":"永康區","LI":"\u25A0洲里","LIN":"38鄰","STREET":"\u25A0行路","SECT":" ","MAREA":" ","LANE":" ","ALLEY":" ","HOUSE_NO":"１８２號","E_COORD97":171342.13,"N_COORD97":2549233.1600000001,"ADDRESS":"\u25A0行路１８２號","OBJECTID":346751},"geometry":{"x":171342.13000000082,"y":2549233.1600000001}},{"attributes":{"ID":346761,"DIS_CODE":0,"TOWNNAME":"永康區","LI":"復國里","LIN":"14鄰","STREET":"復國二路","SECT":" ","MAREA":" ","LANE":" ","ALLEY":" ","HOUSE_NO":"１４２號","E_COORD97":172910.56,"N_COORD97":2545613.8399999999,"ADDRESS":"復國二路１４２號","OBJECTID":346752},"geometry":{"x":172910.56000000052,"y":2545613.8399999999}},{"attributes":{"ID":346762,"DIS_CODE":0,"TOWNNAME":"永康區","LI":"中華里","LIN":"8鄰","STREET":"忠勇街","SECT":" ","MAREA":" ","LANE":" ","ALLEY":" ","HOUSE_NO":"５２號","E_COORD97":171899.98000000001,"N_COORD97":2544473.2400000002,"ADDRESS":"忠勇街５２號","OBJECTID":346753},"geometry":{"x":171899.98000000138,"y":2544473.2400000002}},{"attributes":{"ID":346763,"DIS_CODE":0,"TOWNNAME":"永康區","LI":"崑山里","LIN":" ","STREET":"大仁街","SECT":" ","MAREA":" ","LANE":" ","ALLEY":" ","HOUSE_NO":"２２５之４號","E_COORD97":173950.17000000001,"N_COORD97":2545140.29,"ADDRESS":"大仁街２２５之４號","OBJECTID":346754},"geometry":{"x":173950.16999999899,"y":2545140.2900000028}},{"attributes":{"ID":346764,"DIS_CODE":0,"TOWNNAME":"永康區","LI":"三合里","LIN":" ","STREET":"中山東路","SECT":" ","MAREA":" ","LANE":" ","ALLEY":" ","HOUSE_NO":"９５號","E_COORD97":171752.20000000001,"N_COORD97":2545932.8599999999,"ADDRESS":"中山東路９５號","OBJECTID":346755},"geometry":{"x":171752.20000000112,"y":2545932.8599999994}},{"attributes":{"ID":346765,"DIS_CODE":0,"TOWNNAME":"永康區","LI":"尚頂里","LIN":" ","STREET":"國聖街","SECT":" ","MAREA":" ","LANE":" ","ALLEY":" ","HOUSE_NO":"４５號","E_COORD97":170780.53,"N_COORD97":2548290.3599999999,"ADDRESS":"國聖街４５號","OBJECTID":346756},"geometry":{"x":170780.53000000119,"y":2548290.3600000013}},{"attributes":{"ID":346766,"DIS_CODE":0,"TOWNNAME":"永康區","LI":"尚頂里","LIN":" ","STREET":"尚頂路","SECT":" ","MAREA":" ","LANE":" ","ALLEY":" ","HOUSE_NO":"３２４之１號","E_COORD97":170828.45999999999,"N_COORD97":2547876.2999999998,"ADDRESS":"尚頂路３２４之１號","OBJECTID":346757},"geometry":{"x":170828.45999999996,"y":2547876.3000000007}},{"attributes":{"ID":346767,"DIS_CODE":0,"TOWNNAME":"永康區","LI":"大橋里","LIN":" ","STREET":"中華路","SECT":" ","MAREA":" ","LANE":" ","ALLEY":" ","HOUSE_NO":"７２２號","E_COORD97":170958.45000000001,"N_COORD97":2546329.77,"ADDRESS":"中華路７２２號","OBJECTID":346758},"geometry":{"x":170958.45000000205,"y":2546329.7699999996}},{"attributes":{"ID":346768,"DIS_CODE":0,"TOWNNAME":"南區","LI":"同安里","LIN":"6鄰","STREET":"明興路","SECT":" ","MAREA":" ","LANE":"１１８１巷","ALLEY":" ","HOUSE_NO":"２號","E_COORD97":166492.26999999999,"N_COORD97":2536312.8599999999,"ADDRESS":"明興路１１８１巷２號","OBJECTID":346759},"geometry":{"x":166492.27000000048,"y":2536312.8600000013}},{"attributes":{"ID":346769,"DIS_CODE":0,"TOWNNAME":"南區","LI":"國宅里","LIN":"6鄰","STREET":"金華路","SECT":"二段","MAREA":" ","LANE":"３３巷","ALLEY":" ","HOUSE_NO":"２６號","E_COORD97":166984.64000000001,"N_COORD97":2541982.0800000001,"ADDRESS":"金華路二段３３巷２６號","OBJECTID":346760},"geometry":{"x":166984.64000000153,"y":2541982.0800000001}},{"attributes":{"ID":346770,"DIS_CODE":0,"TOWNNAME":"關廟區","LI":"關廟里","LIN":"6鄰","STREET":"民生街","SECT":" ","MAREA":" ","LANE":"２０３巷","ALLEY":" ","HOUSE_NO":"１７號","E_COORD97":180842.04000000001,"N_COORD97":2539973.29,"ADDRESS":"民生街２０３巷１７號","OBJECTID":346761},"geometry":{"x":180842.04000000004,"y":2539973.2900000028}},{"attributes":{"ID":346771,"DIS_CODE":0,"TOWNNAME":"新營區","LI":"南紙里","LIN":"6鄰","STREET":"南紙街","SECT":" ","MAREA":" ","LANE":"１４３巷","ALLEY":" ","HOUSE_NO":"２５號","E_COORD97":177879.82000000001,"N_COORD97":2577372.4300000002,"ADDRESS":"南紙街１４３巷２５號","OBJECTID":346762},"geometry":{"x":177879.82000000123,"y":2577372.4300000034}},{"attributes":{"ID":346772,"DIS_CODE":0,"TOWNNAME":"新化區","LI":"觀音里","LIN":"6鄰","STREET":"中正路","SECT":" ","MAREA":" ","LANE":"５４９巷","ALLEY":" ","HOUSE_NO":"２７號","E_COORD97":178983.06,"N_COORD97":2548626.25,"ADDRESS":"中正路５４９巷２７號","OBJECTID":346763},"geometry":{"x":178983.05999999959,"y":2548626.25}},{"attributes":{"ID":346773,"DIS_CODE":0,"TOWNNAME":"南區","LI":"竹溪里","LIN":"6鄰","STREET":"體育路","SECT":" ","MAREA":" ","LANE":"２１巷","ALLEY":" ","HOUSE_NO":"３８號之２","E_COORD97":168855.01000000001,"N_COORD97":2542329.3399999999,"ADDRESS":"體育路２１巷３８號之２","OBJECTID":346764},"geometry":{"x":168855.00999999978,"y":2542329.3399999999}},{"attributes":{"ID":346774,"DIS_CODE":0,"TOWNNAME":"南區","LI":"郡南里","LIN":"6鄰","STREET":"德興路","SECT":" ","MAREA":" ","LANE":"１２１巷","ALLEY":" ","HOUSE_NO":"３號","E_COORD97":167247.64000000001,"N_COORD97":2540534.0600000001,"ADDRESS":"德興路１２１巷３號","OBJECTID":346765},"geometry":{"x":167247.6400000006,"y":2540534.0600000005}},{"attributes":{"ID":346775,"DIS_CODE":0,"TOWNNAME":"新營區","LI":"新南里","LIN":"6鄰","STREET":"秦漢街","SECT":" ","MAREA":" ","LANE":"９０巷","ALLEY":" ","HOUSE_NO":"６３號","E_COORD97":178533.39999999999,"N_COORD97":2578852.1600000001,"ADDRESS":"秦漢街９０巷６３號","OBJECTID":346766},"geometry":{"x":178533.4000000013,"y":2578852.1600000001}},{"attributes":{"ID":346776,"DIS_CODE":0,"TOWNNAME":"新營區","LI":"新北里","LIN":"6鄰","STREET":"三興街","SECT":" ","MAREA":" ","LANE":"２７５巷","ALLEY":" ","HOUSE_NO":"４５號","E_COORD97":179187.79999999999,"N_COORD97":2579647.4700000002,"ADDRESS":"三興街２７５巷４５號","OBJECTID":346767},"geometry":{"x":179187.80000000075,"y":2579647.4700000007}},{"attributes":{"ID":346777,"DIS_CODE":0,"TOWNNAME":"新化區","LI":"協興里","LIN":"6鄰","STREET":"忠孝路","SECT":" ","MAREA":" ","LANE":"１９６巷","ALLEY":" ","HOUSE_NO":"１０號","E_COORD97":178351.87,"N_COORD97":2548594.25,"ADDRESS":"忠孝路１９６巷１０號","OBJECTID":346768},"geometry":{"x":178351.87000000104,"y":2548594.2500000019}},{"attributes":{"ID":346778,"DIS_CODE":0,"TOWNNAME":"中西區","LI":"永福里","LIN":"6鄰","STREET":"永福路","SECT":"二段","MAREA":" ","LANE":"５４巷","ALLEY":" ","HOUSE_NO":"３９號","E_COORD97":168148.07000000001,"N_COORD97":2543582.7599999998,"ADDRESS":"永福路二段５４巷３９號","OBJECTID":346769},"geometry":{"x":168148.0700000003,"y":2543582.7600000016}},{"attributes":{"ID":346779,"DIS_CODE":0,"TOWNNAME":"中西區","LI":"永福里","LIN":"6鄰","STREET":"永福路","SECT":"二段","MAREA":" ","LANE":"５４巷","ALLEY":" ","HOUSE_NO":"３號","E_COORD97":168091.45999999999,"N_COORD97":2543589.5800000001,"ADDRESS":"永福路二段５４巷３號","OBJECTID":346770},"geometry":{"x":168091.46000000183,"y":2543589.5799999982}},{"attributes":{"ID":346780,"DIS_CODE":0,"TOWNNAME":"中西區","LI":"永福里","LIN":"6鄰","STREET":"永福路","SECT":"二段","MAREA":" ","LANE":"５４巷","ALLEY":" ","HOUSE_NO":"４１號","E_COORD97":168155.16,"N_COORD97":2543569.25,"ADDRESS":"永福路二段５４巷４１號","OBJECTID":346771},"geometry":{"x":168155.16000000108,"y":2543569.2500000019}},{"attributes":{"ID":346781,"DIS_CODE":0,"TOWNNAME":"中西區","LI":"永福里","LIN":"6鄰","STREET":"永福路","SECT":"二段","MAREA":" ","LANE":"５４巷","ALLEY":" ","HOUSE_NO":"５號","E_COORD97":168096.79999999999,"N_COORD97":2543588.6000000001,"ADDRESS":"永福路二段５４巷５號","OBJECTID":346772},"geometry":{"x":168096.79999999981,"y":2543588.5999999996}},{"attributes":{"ID":346782,"DIS_CODE":0,"TOWNNAME":"中西區","LI":"永福里","LIN":"6鄰","STREET":"永福路","SECT":"二段","MAREA":" ","LANE":"５４巷","ALLEY":" ","HOUSE_NO":"７號","E_COORD97":168101.5,"N_COORD97":2543586.96,"ADDRESS":"永福路二段５４巷７號","OBJECTID":346773},"geometry":{"x":168101.50000000186,"y":2543586.9600000009}},{"attributes":{"ID":346783,"DIS_CODE":0,"TOWNNAME":"永康區","LI":"復華里","LIN":"38鄰","STREET":"復華七街","SECT":" ","MAREA":" ","LANE":"３２巷","ALLEY":" ","HOUSE_NO":"４５號七樓之２","E_COORD97":172722.70000000001,"N_COORD97":2545891.2999999998,"ADDRESS":"復華七街３２巷４５號七樓之２","OBJECTID":346774},"geometry":{"x":172722.70000000019,"y":2545891.3000000045}},{"attributes":{"ID":346784,"DIS_CODE":0,"TOWNNAME":"中西區","LI":"永福里","LIN":"6鄰","STREET":"永福路","SECT":"二段","MAREA":" ","LANE":"５４巷","ALLEY":" ","HOUSE_NO":"９號","E_COORD97":168104.23000000001,"N_COORD97":2543597.1000000001,"ADDRESS":"永福路二段５４巷９號","OBJECTID":346775},"geometry":{"x":168104.23000000138,"y":2543597.1000000015}},{"attributes":{"ID":346785,"DIS_CODE":0,"TOWNNAME":"安南區","LI":"城北里","LIN":"6鄰","STREET":"安中路","SECT":"六段","MAREA":" ","LANE":"５５４巷","ALLEY":" ","HOUSE_NO":"５４號","E_COORD97":161037.5,"N_COORD97":2551444.02,"ADDRESS":"安中路六段５５４巷５４號","OBJECTID":346776},"geometry":{"x":161037.50000000186,"y":2551444.0199999996}},{"attributes":{"ID":346786,"DIS_CODE":0,"TOWNNAME":"安南區","LI":"城北里","LIN":"6鄰","STREET":"安中路","SECT":"六段","MAREA":" ","LANE":"５５４巷","ALLEY":" ","HOUSE_NO":"２８號","E_COORD97":160954.19,"N_COORD97":2551420.4500000002,"ADDRESS":"安中路六段５５４巷２８號","OBJECTID":346777},"geometry":{"x":160954.19000000134,"y":2551420.4499999993}},{"attributes":{"ID":346787,"DIS_CODE":0,"TOWNNAME":"安南區","LI":"安西里","LIN":"6鄰","STREET":"安和路","SECT":"一段","MAREA":" ","LANE":"２８５巷","ALLEY":" ","HOUSE_NO":"５８號","E_COORD97":169113.54000000001,"N_COORD97":2548045.21,"ADDRESS":"安和路一段２８５巷５８號","OBJECTID":346778},"geometry":{"x":169113.54000000097,"y":2548045.2100000028}},{"attributes":{"ID":346788,"DIS_CODE":0,"TOWNNAME":"安南區","LI":"溪心里","LIN":"6鄰","STREET":"本原街","SECT":"二段","MAREA":" ","LANE":"１１６巷","ALLEY":" ","HOUSE_NO":"６５號","E_COORD97":166789.23000000001,"N_COORD97":2550966.1800000002,"ADDRESS":"本原街二段１１６巷６５號","OBJECTID":346779},"geometry":{"x":166789.23000000045,"y":2550966.1800000034}},{"attributes":{"ID":346789,"DIS_CODE":0,"TOWNNAME":"安南區","LI":"溪心里","LIN":"6鄰","STREET":"本原街","SECT":"二段","MAREA":" ","LANE":"１１６巷","ALLEY":" ","HOUSE_NO":"６７號","E_COORD97":166794.51000000001,"N_COORD97":2550966.8100000001,"ADDRESS":"本原街二段１１６巷６７號","OBJECTID":346780},"geometry":{"x":166794.51000000071,"y":2550966.8100000024}},{"attributes":{"ID":346790,"DIS_CODE":0,"TOWNNAME":"安南區","LI":"溪心里","LIN":"6鄰","STREET":"本原街","SECT":"二段","MAREA":" ","LANE":"１１６巷","ALLEY":" ","HOUSE_NO":"６９號","E_COORD97":166798.95000000001,"N_COORD97":2550966.6000000001,"ADDRESS":"本原街二段１１６巷６９號","OBJECTID":346781},"geometry":{"x":166798.95000000112,"y":2550966.6000000034}},{"attributes":{"ID":346791,"DIS_CODE":0,"TOWNNAME":"安南區","LI":"溪心里","LIN":"6鄰","STREET":"本原街","SECT":"二段","MAREA":" ","LANE":"１１６巷","ALLEY":" ","HOUSE_NO":"７１號","E_COORD97":166795.35999999999,"N_COORD97":2550979.9100000001,"ADDRESS":"本原街二段１１６巷７１號","OBJECTID":346782},"geometry":{"x":166795.36000000034,"y":2550979.910000002}},{"attributes":{"ID":346792,"DIS_CODE":0,"TOWNNAME":"安南區","LI":"溪心里","LIN":"6鄰","STREET":"本原街","SECT":"二段","MAREA":" ","LANE":"１１６巷","ALLEY":" ","HOUSE_NO":"７３號","E_COORD97":166795.10999999999,"N_COORD97":2550984.0099999998,"ADDRESS":"本原街二段１１６巷７３號","OBJECTID":346783},"geometry":{"x":166795.11000000034,"y":2550984.0099999998}},{"attributes":{"ID":346793,"DIS_CODE":0,"TOWNNAME":"安南區","LI":"溪心里","LIN":"6鄰","STREET":"本原街","SECT":"二段","MAREA":" ","LANE":"１１６巷","ALLEY":" ","HOUSE_NO":"７５號","E_COORD97":166795.10999999999,"N_COORD97":2550988.2599999998,"ADDRESS":"本原街二段１１６巷７５號","OBJECTID":346784},"geometry":{"x":166795.11000000034,"y":2550988.2599999998}},{"attributes":{"ID":346794,"DIS_CODE":0,"TOWNNAME":"安南區","LI":"溪心里","LIN":"6鄰","STREET":"本原街","SECT":"二段","MAREA":" ","LANE":"１１６巷","ALLEY":" ","HOUSE_NO":"７７號","E_COORD97":166793.85000000001,"N_COORD97":2550994.0899999999,"ADDRESS":"本原街二段１１６巷７７號","OBJECTID":346785},"geometry":{"x":166793.85000000056,"y":2550994.0900000036}},{"attributes":{"ID":346795,"DIS_CODE":0,"TOWNNAME":"永康區","LI":"二王里","LIN":"8鄰","STREET":"二王路","SECT":" ","MAREA":" ","LANE":" ","ALLEY":" ","HOUSE_NO":"１０號十二樓之２","E_COORD97":172987.35999999999,"N_COORD97":2546837.98,"ADDRESS":"二王路１０號十二樓之２","OBJECTID":346786},"geometry":{"x":172987.36000000127,"y":2546837.9800000004}},{"attributes":{"ID":346796,"DIS_CODE":0,"TOWNNAME":"永康區","LI":"復華里","LIN":"38鄰","STREET":"復華七街","SECT":" ","MAREA":" ","LANE":"３２巷","ALLEY":" ","HOUSE_NO":"４５號六樓之２","E_COORD97":172722.70000000001,"N_COORD97":2545891.2999999998,"ADDRESS":"復華七街３２巷４５號六樓之２","OBJECTID":346787},"geometry":{"x":172722.70000000019,"y":2545891.3000000045}},{"attributes":{"ID":346797,"DIS_CODE":0,"TOWNNAME":"永康區","LI":"復華里","LIN":"38鄰","STREET":"復華七街","SECT":" ","MAREA":" ","LANE":"３２巷","ALLEY":" ","HOUSE_NO":"４５號十一樓之２","E_COORD97":172723.95000000001,"N_COORD97":2545891.2999999998,"ADDRESS":"復華七街３２巷４５號十一樓之２","OBJECTID":346788},"geometry":{"x":172723.95000000019,"y":2545891.3000000045}},{"attributes":{"ID":346798,"DIS_CODE":0,"TOWNNAME":"永康區","LI":"復華里","LIN":"38鄰","STREET":"復華七街","SECT":" ","MAREA":" ","LANE":"３２巷","ALLEY":" ","HOUSE_NO":"２３號十樓之２","E_COORD97":172707.75,"N_COORD97":2545918.7999999998,"ADDRESS":"復華七街３２巷２３號十樓之２","OBJECTID":346789},"geometry":{"x":172707.75000000093,"y":2545918.8000000026}},{"attributes":{"ID":346799,"DIS_CODE":0,"TOWNNAME":"安南區","LI":"溪心里","LIN":"6鄰","STREET":"本原街","SECT":"二段","MAREA":" ","LANE":"１１６巷","ALLEY":" ","HOUSE_NO":"７９號","E_COORD97":166792.04999999999,"N_COORD97":2550997.0800000001,"ADDRESS":"本原街二段１１６巷７９號","OBJECTID":346790},"geometry":{"x":166792.04999999981,"y":2550997.0800000001}},{"attributes":{"ID":346800,"DIS_CODE":0,"TOWNNAME":"安南區","LI":"溪心里","LIN":"6鄰","STREET":"本原街","SECT":"二段","MAREA":" ","LANE":"１１６巷","ALLEY":" ","HOUSE_NO":"７９號之１","E_COORD97":166791.45999999999,"N_COORD97":2551001.46,"ADDRESS":"本原街二段１１６巷７９號之１","OBJECTID":346791},"geometry":{"x":166791.46000000089,"y":2551001.4600000009}},{"attributes":{"ID":346801,"DIS_CODE":0,"TOWNNAME":"永康區","LI":"二王里","LIN":"6鄰","STREET":"永二街","SECT":" ","MAREA":" ","LANE":"３７６巷","ALLEY":" ","HOUSE_NO":"１２號","E_COORD97":172874.42999999999,"N_COORD97":2546725.46,"ADDRESS":"永二街３７６巷１２號","OBJECTID":346792},"geometry":{"x":172874.4299999997,"y":2546725.4600000028}},{"attributes":{"ID":346802,"DIS_CODE":0,"TOWNNAME":"永康區","LI":"二王里","LIN":"6鄰","STREET":"永二街","SECT":" ","MAREA":" ","LANE":"３７６巷","ALLEY":" ","HOUSE_NO":"１１號","E_COORD97":172862.88,"N_COORD97":2546718.6699999999,"ADDRESS":"永二街３７６巷１１號","OBJECTID":346793},"geometry":{"x":172862.88000000082,"y":2546718.6700000018}},{"attributes":{"ID":346803,"DIS_CODE":0,"TOWNNAME":"永康區","LI":"三合里","LIN":"6鄰","STREET":"南工街","SECT":" ","MAREA":" ","LANE":"１３０巷","ALLEY":" ","HOUSE_NO":"１０號","E_COORD97":172139.32000000001,"N_COORD97":2545782.79,"ADDRESS":"南工街１３０巷１０號","OBJECTID":346794},"geometry":{"x":172139.32000000216,"y":2545782.7899999991}},{"attributes":{"ID":346804,"DIS_CODE":0,"TOWNNAME":"永康區","LI":"二王里","LIN":"6鄰","STREET":"永二街","SECT":" ","MAREA":" ","LANE":"３７６巷","ALLEY":" ","HOUSE_NO":"１８號","E_COORD97":172872.25,"N_COORD97":2546751.4500000002,"ADDRESS":"永二街３７６巷１８號","OBJECTID":346795},"geometry":{"x":172872.25000000093,"y":2546751.4499999993}},{"attributes":{"ID":346805,"DIS_CODE":0,"TOWNNAME":"永康區","LI":"三民里","LIN":"6鄰","STREET":"三民街","SECT":" ","MAREA":" ","LANE":"１８巷","ALLEY":" ","HOUSE_NO":"１３號","E_COORD97":173337.20999999999,"N_COORD97":2550185.7799999998,"ADDRESS":"三民街１８巷１３號","OBJECTID":346796},"geometry":{"x":173337.21000000089,"y":2550185.7800000012}},{"attributes":{"ID":346806,"DIS_CODE":0,"TOWNNAME":"永康區","LI":"二王里","LIN":"6鄰","STREET":"永二街","SECT":" ","MAREA":" ","LANE":"３７６巷","ALLEY":" ","HOUSE_NO":"８號之１","E_COORD97":172883.01000000001,"N_COORD97":2546703.8199999998,"ADDRESS":"永二街３７６巷８號之１","OBJECTID":346797},"geometry":{"x":172883.00999999978,"y":2546703.8200000003}},{"attributes":{"ID":346807,"DIS_CODE":0,"TOWNNAME":"中西區","LI":"西湖里","LIN":"6鄰","STREET":"頂美一街","SECT":" ","MAREA":" ","LANE":"７６巷","ALLEY":" ","HOUSE_NO":"１０號","E_COORD97":166338.88,"N_COORD97":2544670.3399999999,"ADDRESS":"頂美一街７６巷１０號","OBJECTID":346798},"geometry":{"x":166338.87999999989,"y":2544670.3400000017}},{"attributes":{"ID":346808,"DIS_CODE":0,"TOWNNAME":"中西區","LI":"西湖里","LIN":"6鄰","STREET":"頂美一街","SECT":" ","MAREA":" ","LANE":"７６巷","ALLEY":" ","HOUSE_NO":"１１號","E_COORD97":166344.23000000001,"N_COORD97":2544689.1000000001,"ADDRESS":"頂美一街７６巷１１號","OBJECTID":346799},"geometry":{"x":166344.23000000231,"y":2544689.1000000015}},{"attributes":{"ID":346809,"DIS_CODE":0,"TOWNNAME":"中西區","LI":"西湖里","LIN":"6鄰","STREET":"頂美一街","SECT":" ","MAREA":" ","LANE":"７６巷","ALLEY":" ","HOUSE_NO":"１２號","E_COORD97":166344.95999999999,"N_COORD97":2544669.8500000001,"ADDRESS":"頂美一街７６巷１２號","OBJECTID":346800},"geometry":{"x":166344.95999999996,"y":2544669.8500000015}}]}