{"displayFieldName":"TOWNNAME","fieldAliases":{"ID":"ID","DIS_CODE":"DIS_CODE","TOWNNAME":"TOWNNAME","LI":"LI","LIN":"LIN","STREET":"STREET","SECT":"SECT","MAREA":"MAREA","LANE":"LANE","ALLEY":"ALLEY","HOUSE_NO":"HOUSE_NO","E_COORD97":"E_COORD97","N_COORD97":"N_COORD97","ADDRESS":"ADDRESS","OBJECTID":"OBJECTID"},"geometryType":"esriGeometryPoint","spatialReference":{"wkid":102443,"latestWkid":3826},"fields":[{"name":"ID","type":"esriFieldTypeDouble","alias":"ID"},{"name":"DIS_CODE","type":"esriFieldTypeInteger","alias":"DIS_CODE"},{"name":"TOWNNAME","type":"esriFieldTypeString","alias":"TOWNNAME","length":8},{"name":"LI","type":"esriFieldTypeString","alias":"LI","length":8},{"name":"LIN","type":"esriFieldTypeString","alias":"LIN","length":12},{"name":"STREET","type":"esriFieldTypeString","alias":"STREET","length":20},{"name":"SECT","type":"esriFieldTypeString","alias":"SECT","length":8},{"name":"MAREA","type":"esriFieldTypeString","alias":"MAREA","length":12},{"name":"LANE","type":"esriFieldTypeString","alias":"LANE","length":10},{"name":"ALLEY","type":"esriFieldTypeString","alias":"ALLEY","length":10},{"name":"HOUSE_NO","type":"esriFieldTypeString","alias":"HOUSE_NO","length":20},{"name":"E_COORD97","type":"esriFieldTypeDouble","alias":"E_COORD97"},{"name":"N_COORD97","type":"esriFieldTypeDouble","alias":"N_COORD97"},{"name":"ADDRESS","type":"esriFieldTypeString","alias":"ADDRESS","length":50},{"name":"OBJECTID","type":"esriFieldTypeOID","alias":"OBJECTID"}],"features":[{"attributes":{"ID":282807,"DIS_CODE":0,"TOWNNAME":"佳里區","LI":"龍安里","LIN":"2鄰","STREET":" ","SECT":" ","MAREA":"塭子內","LANE":" ","ALLEY":" ","HOUSE_NO":"１５號","E_COORD97":164367.5,"N_COORD97":2558392.52,"ADDRESS":"塭子內１５號","OBJECTID":282801},"geometry":{"x":164367.50000000093,"y":2558392.5200000014}},{"attributes":{"ID":282808,"DIS_CODE":0,"TOWNNAME":"佳里區","LI":"龍安里","LIN":"2鄰","STREET":" ","SECT":" ","MAREA":"塭子內","LANE":" ","ALLEY":" ","HOUSE_NO":"１６號之２","E_COORD97":164407.38,"N_COORD97":2558386.1899999999,"ADDRESS":"塭子內１６號之２","OBJECTID":282802},"geometry":{"x":164407.38000000082,"y":2558386.1899999995}},{"attributes":{"ID":282809,"DIS_CODE":0,"TOWNNAME":"佳里區","LI":"東寧里","LIN":"2鄰","STREET":"新生路","SECT":" ","MAREA":" ","LANE":" ","ALLEY":" ","HOUSE_NO":"１５２號","E_COORD97":165800.42999999999,"N_COORD97":2562307.5299999998,"ADDRESS":"新生路１５２號","OBJECTID":282803},"geometry":{"x":165800.4299999997,"y":2562307.5300000031}},{"attributes":{"ID":282810,"DIS_CODE":0,"TOWNNAME":"佳里區","LI":"溪州里","LIN":"2鄰","STREET":" ","SECT":" ","MAREA":"溪州","LANE":" ","ALLEY":" ","HOUSE_NO":"１０號","E_COORD97":166254.79000000001,"N_COORD97":2567280.6099999999,"ADDRESS":"溪州１０號","OBJECTID":282804},"geometry":{"x":166254.79000000004,"y":2567280.6099999975}},{"attributes":{"ID":282811,"DIS_CODE":0,"TOWNNAME":"佳里區","LI":"溪州里","LIN":"2鄰","STREET":" ","SECT":" ","MAREA":"溪州","LANE":" ","ALLEY":" ","HOUSE_NO":"１１號之１","E_COORD97":166239.60000000001,"N_COORD97":2567300.0499999998,"ADDRESS":"溪州１１號之１","OBJECTID":282805},"geometry":{"x":166239.60000000056,"y":2567300.0500000026}},{"attributes":{"ID":282812,"DIS_CODE":0,"TOWNNAME":"北區","LI":"和順里","LIN":"30鄰","STREET":"臨安路","SECT":"二段","MAREA":" ","LANE":"１９５巷","ALLEY":" ","HOUSE_NO":"７號","E_COORD97":167892.16,"N_COORD97":2544961,"ADDRESS":"臨安路二段１９５巷７號","OBJECTID":282806},"geometry":{"x":167892.16000000108,"y":2544961.0000000019}},{"attributes":{"ID":282813,"DIS_CODE":0,"TOWNNAME":"北區","LI":"和順里","LIN":"30鄰","STREET":"臨安路","SECT":"二段","MAREA":" ","LANE":"１９５巷","ALLEY":" ","HOUSE_NO":"８號","E_COORD97":167919.41,"N_COORD97":2544960.96,"ADDRESS":"臨安路二段１９５巷８號","OBJECTID":282807},"geometry":{"x":167919.41000000108,"y":2544960.959999999}},{"attributes":{"ID":282814,"DIS_CODE":0,"TOWNNAME":"北區","LI":"和順里","LIN":"30鄰","STREET":"臨安路","SECT":"二段","MAREA":" ","LANE":"１９５巷","ALLEY":" ","HOUSE_NO":"９號","E_COORD97":167892.16,"N_COORD97":2544965.1200000001,"ADDRESS":"臨安路二段１９５巷９號","OBJECTID":282808},"geometry":{"x":167892.16000000108,"y":2544965.1200000029}},{"attributes":{"ID":282815,"DIS_CODE":0,"TOWNNAME":"佳里區","LI":"溪州里","LIN":"2鄰","STREET":" ","SECT":" ","MAREA":"溪州","LANE":" ","ALLEY":" ","HOUSE_NO":"１１號","E_COORD97":166226.01000000001,"N_COORD97":2567308.79,"ADDRESS":"溪州１１號","OBJECTID":282809},"geometry":{"x":166226.00999999978,"y":2567308.7899999991}},{"attributes":{"ID":282816,"DIS_CODE":0,"TOWNNAME":"北區","LI":"和順里","LIN":"30鄰","STREET":"臨安路","SECT":"二段","MAREA":" ","LANE":"１９５巷","ALLEY":" ","HOUSE_NO":"３號","E_COORD97":167894.56,"N_COORD97":2544943.8700000001,"ADDRESS":"臨安路二段１９５巷３號","OBJECTID":282810},"geometry":{"x":167894.56000000052,"y":2544943.870000001}},{"attributes":{"ID":282817,"DIS_CODE":0,"TOWNNAME":"佳里區","LI":"溪州里","LIN":"2鄰","STREET":" ","SECT":" ","MAREA":"溪州","LANE":" ","ALLEY":" ","HOUSE_NO":"１３號","E_COORD97":166220.88,"N_COORD97":2567390.52,"ADDRESS":"溪州１３號","OBJECTID":282811},"geometry":{"x":166220.88000000082,"y":2567390.5200000014}},{"attributes":{"ID":282818,"DIS_CODE":0,"TOWNNAME":"北區","LI":"大豐里","LIN":"30鄰","STREET":"文賢路","SECT":" ","MAREA":" ","LANE":"３６５巷","ALLEY":" ","HOUSE_NO":"２２號","E_COORD97":167276.10000000001,"N_COORD97":2545392.71,"ADDRESS":"文賢路３６５巷２２號","OBJECTID":282812},"geometry":{"x":167276.09999999963,"y":2545392.7100000009}},{"attributes":{"ID":282819,"DIS_CODE":0,"TOWNNAME":"北區","LI":"大豐里","LIN":"30鄰","STREET":"文賢路","SECT":" ","MAREA":" ","LANE":"３６５巷","ALLEY":" ","HOUSE_NO":"２４號","E_COORD97":167271.44,"N_COORD97":2545392.54,"ADDRESS":"文賢路３６５巷２４號","OBJECTID":282813},"geometry":{"x":167271.44000000041,"y":2545392.5399999972}},{"attributes":{"ID":282820,"DIS_CODE":0,"TOWNNAME":"北區","LI":"大豐里","LIN":"30鄰","STREET":"文賢路","SECT":" ","MAREA":" ","LANE":"３６５巷","ALLEY":" ","HOUSE_NO":"２６號","E_COORD97":167266.51000000001,"N_COORD97":2545392.2799999998,"ADDRESS":"文賢路３６５巷２６號","OBJECTID":282814},"geometry":{"x":167266.50999999978,"y":2545392.2800000012}},{"attributes":{"ID":282821,"DIS_CODE":0,"TOWNNAME":"佳里區","LI":"溪州里","LIN":"2鄰","STREET":" ","SECT":" ","MAREA":"溪州","LANE":" ","ALLEY":" ","HOUSE_NO":"１４號","E_COORD97":166250.79000000001,"N_COORD97":2567379.2999999998,"ADDRESS":"溪州１４號","OBJECTID":282815},"geometry":{"x":166250.79000000097,"y":2567379.3000000045}},{"attributes":{"ID":282822,"DIS_CODE":0,"TOWNNAME":"佳里區","LI":"溪州里","LIN":"2鄰","STREET":" ","SECT":" ","MAREA":"溪州","LANE":" ","ALLEY":" ","HOUSE_NO":"１５號","E_COORD97":166257.48999999999,"N_COORD97":2567361.8900000001,"ADDRESS":"溪州１５號","OBJECTID":282816},"geometry":{"x":166257.49000000209,"y":2567361.8900000025}},{"attributes":{"ID":282823,"DIS_CODE":0,"TOWNNAME":"北區","LI":"大豐里","LIN":"30鄰","STREET":"文賢路","SECT":" ","MAREA":" ","LANE":"３６５巷","ALLEY":" ","HOUSE_NO":"２８號","E_COORD97":167262.10000000001,"N_COORD97":2545393.0600000001,"ADDRESS":"文賢路３６５巷２８號","OBJECTID":282817},"geometry":{"x":167262.09999999963,"y":2545393.0600000005}},{"attributes":{"ID":282824,"DIS_CODE":0,"TOWNNAME":"佳里區","LI":"溪州里","LIN":"2鄰","STREET":" ","SECT":" ","MAREA":"溪州","LANE":" ","ALLEY":" ","HOUSE_NO":"１６號之１","E_COORD97":166253.89000000001,"N_COORD97":2567321.0699999998,"ADDRESS":"溪州１６號之１","OBJECTID":282818},"geometry":{"x":166253.88999999966,"y":2567321.0700000022}},{"attributes":{"ID":282825,"DIS_CODE":0,"TOWNNAME":"北區","LI":"大豐里","LIN":"30鄰","STREET":"文賢路","SECT":" ","MAREA":" ","LANE":"３６５巷","ALLEY":" ","HOUSE_NO":"３０號","E_COORD97":167257.26000000001,"N_COORD97":2545392.9700000002,"ADDRESS":"文賢路３６５巷３０號","OBJECTID":282819},"geometry":{"x":167257.26000000071,"y":2545392.9700000025}},{"attributes":{"ID":282826,"DIS_CODE":0,"TOWNNAME":"北區","LI":"大豐里","LIN":"30鄰","STREET":"文賢路","SECT":" ","MAREA":" ","LANE":"３６５巷","ALLEY":" ","HOUSE_NO":"３２號","E_COORD97":167252.92999999999,"N_COORD97":2545393.23,"ADDRESS":"文賢路３６５巷３２號","OBJECTID":282820},"geometry":{"x":167252.93000000063,"y":2545393.2300000023}},{"attributes":{"ID":282827,"DIS_CODE":0,"TOWNNAME":"北區","LI":"大豐里","LIN":"30鄰","STREET":"文賢路","SECT":" ","MAREA":" ","LANE":"３６５巷","ALLEY":" ","HOUSE_NO":"３４號","E_COORD97":167248.09,"N_COORD97":2545393.75,"ADDRESS":"文賢路３６５巷３４號","OBJECTID":282821},"geometry":{"x":167248.09000000171,"y":2545393.7500000019}},{"attributes":{"ID":282828,"DIS_CODE":0,"TOWNNAME":"永康區","LI":"尚頂里","LIN":"2鄰","STREET":"中正二街","SECT":" ","MAREA":" ","LANE":" ","ALLEY":" ","HOUSE_NO":"１５７之１號","E_COORD97":171313.73000000001,"N_COORD97":2547692.2200000002,"ADDRESS":"中正二街１５７之１號","OBJECTID":282822},"geometry":{"x":171313.73000000045,"y":2547692.2200000025}},{"attributes":{"ID":282829,"DIS_CODE":0,"TOWNNAME":"北區","LI":"大豐里","LIN":"30鄰","STREET":"文賢路","SECT":" ","MAREA":" ","LANE":"３６５巷","ALLEY":" ","HOUSE_NO":"３６號","E_COORD97":167243.85999999999,"N_COORD97":2545393.8399999999,"ADDRESS":"文賢路３６５巷３６號","OBJECTID":282823},"geometry":{"x":167243.86000000127,"y":2545393.8399999999}},{"attributes":{"ID":282830,"DIS_CODE":0,"TOWNNAME":"永康區","LI":"西橋里","LIN":"2鄰","STREET":"中山南路","SECT":" ","MAREA":" ","LANE":" ","ALLEY":" ","HOUSE_NO":"７３號","E_COORD97":170829.88,"N_COORD97":2545877.4900000002,"ADDRESS":"中山南路７３號","OBJECTID":282824},"geometry":{"x":170829.88000000082,"y":2545877.4900000002}},{"attributes":{"ID":282831,"DIS_CODE":0,"TOWNNAME":"北區","LI":"大豐里","LIN":"30鄰","STREET":"文賢路","SECT":" ","MAREA":" ","LANE":"３６５巷","ALLEY":" ","HOUSE_NO":"３８號","E_COORD97":167238.67000000001,"N_COORD97":2545393.6600000001,"ADDRESS":"文賢路３６５巷３８號","OBJECTID":282825},"geometry":{"x":167238.66999999993,"y":2545393.660000002}},{"attributes":{"ID":282832,"DIS_CODE":0,"TOWNNAME":"下營區","LI":"仁里里","LIN":"13鄰","STREET":"永安街","SECT":" ","MAREA":" ","LANE":" ","ALLEY":" ","HOUSE_NO":"４６號","E_COORD97":174101.34000200001,"N_COORD97":2570394.8817500002,"ADDRESS":"永安街４６號","OBJECTID":282826},"geometry":{"x":174101.34000200033,"y":2570394.8817460015}},{"attributes":{"ID":282833,"DIS_CODE":0,"TOWNNAME":"北區","LI":"和順里","LIN":"30鄰","STREET":"海安路","SECT":"三段","MAREA":" ","LANE":"１３５巷","ALLEY":" ","HOUSE_NO":"１１號","E_COORD97":167938.84,"N_COORD97":2545002.52,"ADDRESS":"海安路三段１３５巷１１號","OBJECTID":282827},"geometry":{"x":167938.83999999985,"y":2545002.5199999996}},{"attributes":{"ID":282834,"DIS_CODE":0,"TOWNNAME":"北區","LI":"和順里","LIN":"30鄰","STREET":"海安路","SECT":"三段","MAREA":" ","LANE":"１３５巷","ALLEY":" ","HOUSE_NO":"１３號","E_COORD97":167934.38,"N_COORD97":2545002.6800000002,"ADDRESS":"海安路三段１３５巷１３號","OBJECTID":282828},"geometry":{"x":167934.38000000175,"y":2545002.6800000034}},{"attributes":{"ID":282835,"DIS_CODE":0,"TOWNNAME":"永康區","LI":"東橋里","LIN":"20鄰","STREET":"自強路","SECT":" ","MAREA":" ","LANE":"２２巷","ALLEY":" ","HOUSE_NO":"９號","E_COORD97":172760.54000000001,"N_COORD97":2547117.4900000002,"ADDRESS":"自強路２２巷９號","OBJECTID":282829},"geometry":{"x":172760.54000000004,"y":2547117.4900000021}},{"attributes":{"ID":282836,"DIS_CODE":0,"TOWNNAME":"永康區","LI":"西勢里","LIN":"30鄰","STREET":"富強路","SECT":"一段","MAREA":" ","LANE":"２巷","ALLEY":" ","HOUSE_NO":"２３號七樓","E_COORD97":175472.92999999999,"N_COORD97":2545914.7799999998,"ADDRESS":"富強路一段２巷２３號七樓","OBJECTID":282830},"geometry":{"x":175472.93000000063,"y":2545914.7800000012}},{"attributes":{"ID":282837,"DIS_CODE":0,"TOWNNAME":"永康區","LI":"西勢里","LIN":"30鄰","STREET":"富強路","SECT":"一段","MAREA":" ","LANE":"２巷","ALLEY":" ","HOUSE_NO":"２７號三樓","E_COORD97":175482.12,"N_COORD97":2545907.0299999998,"ADDRESS":"富強路一段２巷２７號三樓","OBJECTID":282831},"geometry":{"x":175482.12000000104,"y":2545907.0299999993}},{"attributes":{"ID":282838,"DIS_CODE":0,"TOWNNAME":"永康區","LI":"西勢里","LIN":"30鄰","STREET":"富強路","SECT":"一段","MAREA":" ","LANE":"２巷","ALLEY":" ","HOUSE_NO":"２５號六樓","E_COORD97":175475.39999999999,"N_COORD97":2545911.7799999998,"ADDRESS":"富強路一段２巷２５號六樓","OBJECTID":282832},"geometry":{"x":175475.4000000013,"y":2545911.7799999993}},{"attributes":{"ID":282839,"DIS_CODE":0,"TOWNNAME":"永康區","LI":"埔園里","LIN":"32鄰","STREET":"龍埔街","SECT":" ","MAREA":" ","LANE":"２８３巷","ALLEY":" ","HOUSE_NO":"３３號","E_COORD97":174038.54000000001,"N_COORD97":2548224.9900000002,"ADDRESS":"龍埔街２８３巷３３號","OBJECTID":282833},"geometry":{"x":174038.54000000097,"y":2548224.9899999984}},{"attributes":{"ID":282840,"DIS_CODE":0,"TOWNNAME":"永康區","LI":"復華里","LIN":"30鄰","STREET":"復華八街","SECT":" ","MAREA":" ","LANE":"４７巷","ALLEY":" ","HOUSE_NO":"４３號二樓之２","E_COORD97":172678.26000000001,"N_COORD97":2546351.2999999998,"ADDRESS":"復華八街４７巷４３號二樓之２","OBJECTID":282834},"geometry":{"x":172678.26000000164,"y":2546351.3000000007}},{"attributes":{"ID":282841,"DIS_CODE":0,"TOWNNAME":"山上區","LI":"南洲里","LIN":"2鄰","STREET":" ","SECT":" ","MAREA":"南洲","LANE":" ","ALLEY":" ","HOUSE_NO":"１３０號之１３","E_COORD97":183838.62,"N_COORD97":2555788.2999999998,"ADDRESS":"南洲１３０號之１３","OBJECTID":282835},"geometry":{"x":183838.62000000011,"y":2555788.3000000026}},{"attributes":{"ID":282842,"DIS_CODE":0,"TOWNNAME":"山上區","LI":"玉\u25A0里","LIN":"2鄰","STREET":" ","SECT":" ","MAREA":"蚵\u25A0潭","LANE":" ","ALLEY":" ","HOUSE_NO":"１７之２號","E_COORD97":187379.42000000001,"N_COORD97":2555661.2999999998,"ADDRESS":"蚵\u25A0潭１７之２號","OBJECTID":282836},"geometry":{"x":187379.41999999993,"y":2555661.3000000007}},{"attributes":{"ID":282843,"DIS_CODE":0,"TOWNNAME":"永康區","LI":"復華里","LIN":"30鄰","STREET":"復華八街","SECT":" ","MAREA":" ","LANE":"４７巷","ALLEY":" ","HOUSE_NO":"４３號三樓之５","E_COORD97":172678.28,"N_COORD97":2546351.2999999998,"ADDRESS":"復華八街４７巷４３號三樓之５","OBJECTID":282837},"geometry":{"x":172678.28000000026,"y":2546351.3000000007}},{"attributes":{"ID":282844,"DIS_CODE":0,"TOWNNAME":"東區","LI":"富強里","LIN":"30鄰","STREET":"裕農路","SECT":" ","MAREA":" ","LANE":"２８８巷","ALLEY":" ","HOUSE_NO":"１７號六樓","E_COORD97":170962.04999999999,"N_COORD97":2542975.3199999998,"ADDRESS":"裕農路２８８巷１７號六樓","OBJECTID":282838},"geometry":{"x":170962.04999999981,"y":2542975.3200000022}},{"attributes":{"ID":282845,"DIS_CODE":0,"TOWNNAME":"東區","LI":"富強里","LIN":"30鄰","STREET":"裕農路","SECT":" ","MAREA":" ","LANE":"２８８巷","ALLEY":" ","HOUSE_NO":"１７號六樓之１","E_COORD97":170962.04999999999,"N_COORD97":2542975.3199999998,"ADDRESS":"裕農路２８８巷１７號六樓之１","OBJECTID":282839},"geometry":{"x":170962.04999999981,"y":2542975.3200000022}},{"attributes":{"ID":282846,"DIS_CODE":0,"TOWNNAME":"東區","LI":"富強里","LIN":"30鄰","STREET":"裕農路","SECT":" ","MAREA":" ","LANE":"２８８巷","ALLEY":" ","HOUSE_NO":"１７號六樓之２","E_COORD97":170962.04999999999,"N_COORD97":2542975.3199999998,"ADDRESS":"裕農路２８８巷１７號六樓之２","OBJECTID":282840},"geometry":{"x":170962.04999999981,"y":2542975.3200000022}},{"attributes":{"ID":282847,"DIS_CODE":0,"TOWNNAME":"東區","LI":"富強里","LIN":"30鄰","STREET":"裕農路","SECT":" ","MAREA":" ","LANE":"２８８巷","ALLEY":" ","HOUSE_NO":"１７號六樓之３","E_COORD97":170962.04999999999,"N_COORD97":2542975.3199999998,"ADDRESS":"裕農路２８８巷１７號六樓之３","OBJECTID":282841},"geometry":{"x":170962.04999999981,"y":2542975.3200000022}},{"attributes":{"ID":282848,"DIS_CODE":0,"TOWNNAME":"東區","LI":"富強里","LIN":"30鄰","STREET":"裕農路","SECT":" ","MAREA":" ","LANE":"２８８巷","ALLEY":" ","HOUSE_NO":"１７號四樓","E_COORD97":170962.04999999999,"N_COORD97":2542975.3199999998,"ADDRESS":"裕農路２８８巷１７號四樓","OBJECTID":282842},"geometry":{"x":170962.04999999981,"y":2542975.3200000022}},{"attributes":{"ID":282849,"DIS_CODE":0,"TOWNNAME":"東區","LI":"富強里","LIN":"30鄰","STREET":"裕農路","SECT":" ","MAREA":" ","LANE":"２８８巷","ALLEY":" ","HOUSE_NO":"１７號四樓之１","E_COORD97":170962.04999999999,"N_COORD97":2542975.3199999998,"ADDRESS":"裕農路２８８巷１７號四樓之１","OBJECTID":282843},"geometry":{"x":170962.04999999981,"y":2542975.3200000022}},{"attributes":{"ID":282850,"DIS_CODE":0,"TOWNNAME":"永康區","LI":"烏竹里","LIN":"17鄰","STREET":"龍橋街","SECT":" ","MAREA":" ","LANE":"２５３巷","ALLEY":" ","HOUSE_NO":"１３號","E_COORD97":174533.60000000001,"N_COORD97":2548818.75,"ADDRESS":"龍橋街２５３巷１３號","OBJECTID":282844},"geometry":{"x":174533.60000000149,"y":2548818.75}},{"attributes":{"ID":282851,"DIS_CODE":0,"TOWNNAME":"永康區","LI":"西灣里","LIN":"30鄰","STREET":"公園路","SECT":" ","MAREA":" ","LANE":"９３巷","ALLEY":" ","HOUSE_NO":"１７號六樓之２","E_COORD97":174263.29000000001,"N_COORD97":2545904.4199999999,"ADDRESS":"公園路９３巷１７號六樓之２","OBJECTID":282845},"geometry":{"x":174263.2900000019,"y":2545904.4200000018}},{"attributes":{"ID":282852,"DIS_CODE":0,"TOWNNAME":"永康區","LI":"東灣里","LIN":"24鄰","STREET":"大灣三街","SECT":" ","MAREA":" ","LANE":"７３巷","ALLEY":" ","HOUSE_NO":"６８號","E_COORD97":174801.59,"N_COORD97":2544823.4900000002,"ADDRESS":"大灣三街７３巷６８號","OBJECTID":282846},"geometry":{"x":174801.58999999985,"y":2544823.4900000002}},{"attributes":{"ID":282853,"DIS_CODE":0,"TOWNNAME":"安平區","LI":"國平里","LIN":"30鄰","STREET":"健康三街","SECT":" ","MAREA":" ","LANE":"１２巷","ALLEY":" ","HOUSE_NO":"１號三樓之１８","E_COORD97":164774.88,"N_COORD97":2542904.3999999999,"ADDRESS":"健康三街１２巷１號三樓之１８","OBJECTID":282847},"geometry":{"x":164774.88000000082,"y":2542904.4000000022}},{"attributes":{"ID":282854,"DIS_CODE":0,"TOWNNAME":"安平區","LI":"國平里","LIN":"30鄰","STREET":"健康三街","SECT":" ","MAREA":" ","LANE":"１２巷","ALLEY":" ","HOUSE_NO":"１號三樓之１９","E_COORD97":164774.88,"N_COORD97":2542904.3999999999,"ADDRESS":"健康三街１２巷１號三樓之１９","OBJECTID":282848},"geometry":{"x":164774.88000000082,"y":2542904.4000000022}},{"attributes":{"ID":282855,"DIS_CODE":0,"TOWNNAME":"安平區","LI":"國平里","LIN":"30鄰","STREET":"健康三街","SECT":" ","MAREA":" ","LANE":"１２巷","ALLEY":" ","HOUSE_NO":"１號七樓之１９","E_COORD97":164774.88,"N_COORD97":2542904.3999999999,"ADDRESS":"健康三街１２巷１號七樓之１９","OBJECTID":282849},"geometry":{"x":164774.88000000082,"y":2542904.4000000022}},{"attributes":{"ID":282856,"DIS_CODE":0,"TOWNNAME":"安平區","LI":"國平里","LIN":"30鄰","STREET":"健康三街","SECT":" ","MAREA":" ","LANE":"１２巷","ALLEY":" ","HOUSE_NO":"１號八樓之１４","E_COORD97":164774.88,"N_COORD97":2542904.3999999999,"ADDRESS":"健康三街１２巷１號八樓之１４","OBJECTID":282850},"geometry":{"x":164774.88000000082,"y":2542904.4000000022}},{"attributes":{"ID":282857,"DIS_CODE":0,"TOWNNAME":"永康區","LI":"烏竹里","LIN":"16鄰","STREET":"龍橋街","SECT":" ","MAREA":" ","LANE":"２９６巷","ALLEY":" ","HOUSE_NO":"２３號","E_COORD97":174578.39000000001,"N_COORD97":2549055.7400000002,"ADDRESS":"龍橋街２９６巷２３號","OBJECTID":282851},"geometry":{"x":174578.38999999966,"y":2549055.7400000021}},{"attributes":{"ID":282858,"DIS_CODE":0,"TOWNNAME":"歸仁區","LI":"後市里","LIN":"30鄰","STREET":"民族北街","SECT":" ","MAREA":" ","LANE":"１７巷","ALLEY":" ","HOUSE_NO":"２號八樓之１","E_COORD97":177400.56,"N_COORD97":2540892.75,"ADDRESS":"民族北街１７巷２號八樓之１","OBJECTID":282852},"geometry":{"x":177400.56000000052,"y":2540892.75}},{"attributes":{"ID":282859,"DIS_CODE":0,"TOWNNAME":"歸仁區","LI":"後市里","LIN":"30鄰","STREET":"民族北街","SECT":" ","MAREA":" ","LANE":"１７巷","ALLEY":" ","HOUSE_NO":"２號八樓之５","E_COORD97":177400.59,"N_COORD97":2540892.75,"ADDRESS":"民族北街１７巷２號八樓之５","OBJECTID":282853},"geometry":{"x":177400.59000000171,"y":2540892.75}},{"attributes":{"ID":282860,"DIS_CODE":0,"TOWNNAME":"永康區","LI":"埔園里","LIN":"35鄰","STREET":"八德街","SECT":" ","MAREA":" ","LANE":"８７巷","ALLEY":" ","HOUSE_NO":"９號","E_COORD97":174147.07000000001,"N_COORD97":2548488.77,"ADDRESS":"八德街８７巷９號","OBJECTID":282854},"geometry":{"x":174147.07000000123,"y":2548488.7699999996}},{"attributes":{"ID":282861,"DIS_CODE":0,"TOWNNAME":"永康區","LI":"南灣里","LIN":"8鄰","STREET":"南興路","SECT":" ","MAREA":" ","LANE":"２巷","ALLEY":" ","HOUSE_NO":"１９號","E_COORD97":174463.66,"N_COORD97":2543976.2400000002,"ADDRESS":"南興路２巷１９號","OBJECTID":282855},"geometry":{"x":174463.66000000015,"y":2543976.2400000021}},{"attributes":{"ID":282862,"DIS_CODE":0,"TOWNNAME":"新營區","LI":"忠政里","LIN":"30鄰","STREET":"府西路","SECT":" ","MAREA":" ","LANE":"３３巷","ALLEY":" ","HOUSE_NO":"６號二樓","E_COORD97":179785.14999999999,"N_COORD97":2578977.9700000002,"ADDRESS":"府西路３３巷６號二樓","OBJECTID":282856},"geometry":{"x":179785.15000000037,"y":2578977.9700000025}},{"attributes":{"ID":282863,"DIS_CODE":0,"TOWNNAME":"安南區","LI":"淵中里","LIN":"2鄰","STREET":"安中路","SECT":"三段","MAREA":" ","LANE":" ","ALLEY":" ","HOUSE_NO":"４１９號","E_COORD97":165341.70999999999,"N_COORD97":2550040.1000000001,"ADDRESS":"安中路三段４１９號","OBJECTID":282857},"geometry":{"x":165341.70999999996,"y":2550040.0999999996}},{"attributes":{"ID":282864,"DIS_CODE":0,"TOWNNAME":"安南區","LI":"公親里","LIN":"2鄰","STREET":"公學路","SECT":"一段","MAREA":" ","LANE":" ","ALLEY":" ","HOUSE_NO":"３１６之５２號","E_COORD97":167809.04000000001,"N_COORD97":2552652,"ADDRESS":"公學路一段３１６之５２號","OBJECTID":282858},"geometry":{"x":167809.04000000004,"y":2552652}},{"attributes":{"ID":282865,"DIS_CODE":0,"TOWNNAME":"新營區","LI":"忠政里","LIN":"30鄰","STREET":"府西路","SECT":" ","MAREA":" ","LANE":"３３巷","ALLEY":" ","HOUSE_NO":"２號四樓","E_COORD97":179793.39000000001,"N_COORD97":2578977.9300000002,"ADDRESS":"府西路３３巷２號四樓","OBJECTID":282859},"geometry":{"x":179793.38999999966,"y":2578977.9299999997}},{"attributes":{"ID":282866,"DIS_CODE":0,"TOWNNAME":"安南區","LI":"鹿耳里","LIN":"2鄰","STREET":"本田路","SECT":"二段","MAREA":" ","LANE":" ","ALLEY":" ","HOUSE_NO":"２１號","E_COORD97":161200.35000000001,"N_COORD97":2547850.71,"ADDRESS":"本田路二段２１號","OBJECTID":282860},"geometry":{"x":161200.34999999963,"y":2547850.7100000009}},{"attributes":{"ID":282867,"DIS_CODE":0,"TOWNNAME":"新營區","LI":"忠政里","LIN":"30鄰","STREET":"府西路","SECT":" ","MAREA":" ","LANE":"３３巷","ALLEY":" ","HOUSE_NO":"６號四樓","E_COORD97":179785.14999999999,"N_COORD97":2578977.9700000002,"ADDRESS":"府西路３３巷６號四樓","OBJECTID":282861},"geometry":{"x":179785.15000000037,"y":2578977.9700000025}},{"attributes":{"ID":282868,"DIS_CODE":0,"TOWNNAME":"新營區","LI":"忠政里","LIN":"30鄰","STREET":"府西路","SECT":" ","MAREA":" ","LANE":"３３巷","ALLEY":" ","HOUSE_NO":"２號三樓","E_COORD97":179793.39000000001,"N_COORD97":2578977.9300000002,"ADDRESS":"府西路３３巷２號三樓","OBJECTID":282862},"geometry":{"x":179793.38999999966,"y":2578977.9299999997}},{"attributes":{"ID":282869,"DIS_CODE":0,"TOWNNAME":"永康區","LI":"正強里","LIN":"30鄰","STREET":"中正路","SECT":" ","MAREA":" ","LANE":"２０９巷","ALLEY":" ","HOUSE_NO":"１１２號","E_COORD97":173129.47,"N_COORD97":2547688.75,"ADDRESS":"中正路２０９巷１１２號","OBJECTID":282863},"geometry":{"x":173129.47000000067,"y":2547688.7500000019}},{"attributes":{"ID":282870,"DIS_CODE":0,"TOWNNAME":"安南區","LI":"鹿耳里","LIN":"2鄰","STREET":"鹿耳一路","SECT":" ","MAREA":" ","LANE":" ","ALLEY":" ","HOUSE_NO":"６５號","E_COORD97":160803.63,"N_COORD97":2547964.0600000001,"ADDRESS":"鹿耳一路６５號","OBJECTID":282864},"geometry":{"x":160803.62999999989,"y":2547964.0600000042}},{"attributes":{"ID":282871,"DIS_CODE":0,"TOWNNAME":"安南區","LI":"鹿耳里","LIN":"2鄰","STREET":"科技五路","SECT":" ","MAREA":" ","LANE":" ","ALLEY":" ","HOUSE_NO":"６００號","E_COORD97":161509.67999999999,"N_COORD97":2548102.96,"ADDRESS":"科技五路６００號","OBJECTID":282865},"geometry":{"x":161509.68000000063,"y":2548102.9600000009}},{"attributes":{"ID":282872,"DIS_CODE":0,"TOWNNAME":"南區","LI":"明亮里","LIN":"2鄰","STREET":"新都路","SECT":" ","MAREA":" ","LANE":" ","ALLEY":" ","HOUSE_NO":"５６６號","E_COORD97":167030.07999999999,"N_COORD97":2540894.8700000001,"ADDRESS":"新都路５６６號","OBJECTID":282866},"geometry":{"x":167030.08000000101,"y":2540894.8700000029}},{"attributes":{"ID":282873,"DIS_CODE":0,"TOWNNAME":"麻豆區","LI":"大埕里","LIN":"2鄰","STREET":"中正路","SECT":" ","MAREA":" ","LANE":" ","ALLEY":" ","HOUSE_NO":"５３號之８","E_COORD97":173097.59,"N_COORD97":2565010.27,"ADDRESS":"中正路５３號之８","OBJECTID":282867},"geometry":{"x":173097.58999999985,"y":2565010.2699999996}},{"attributes":{"ID":282874,"DIS_CODE":0,"TOWNNAME":"東區","LI":"和平里","LIN":"16鄰","STREET":"仁和路","SECT":" ","MAREA":" ","LANE":" ","ALLEY":" ","HOUSE_NO":"７３號之５０","E_COORD97":171379.32000000001,"N_COORD97":2541638.6000000001,"ADDRESS":"仁和路７３號之５０","OBJECTID":282868},"geometry":{"x":171379.3200000003,"y":2541638.5999999996}},{"attributes":{"ID":282875,"DIS_CODE":0,"TOWNNAME":"山上區","LI":"南洲里","LIN":"2鄰","STREET":" ","SECT":" ","MAREA":"南洲","LANE":" ","ALLEY":" ","HOUSE_NO":"１３０號之３５","E_COORD97":183805.28,"N_COORD97":2555804.2999999998,"ADDRESS":"南洲１３０號之３５","OBJECTID":282869},"geometry":{"x":183805.28000000026,"y":2555804.2999999989}},{"attributes":{"ID":282876,"DIS_CODE":0,"TOWNNAME":"山上區","LI":"玉\u25A0里","LIN":"2鄰","STREET":" ","SECT":" ","MAREA":"蚵\u25A0潭","LANE":" ","ALLEY":" ","HOUSE_NO":"２０之１號","E_COORD97":187386.42000000001,"N_COORD97":2555733.2999999998,"ADDRESS":"蚵\u25A0潭２０之１號","OBJECTID":282870},"geometry":{"x":187386.42000000179,"y":2555733.3000000045}},{"attributes":{"ID":282877,"DIS_CODE":0,"TOWNNAME":"永康區","LI":"正強里","LIN":"30鄰","STREET":"中正路","SECT":" ","MAREA":" ","LANE":"２０９巷","ALLEY":" ","HOUSE_NO":"１１８號","E_COORD97":173129.92999999999,"N_COORD97":2547679.75,"ADDRESS":"中正路２０９巷１１８號","OBJECTID":282871},"geometry":{"x":173129.93000000063,"y":2547679.75}},{"attributes":{"ID":282878,"DIS_CODE":0,"TOWNNAME":"永康區","LI":"正強里","LIN":"30鄰","STREET":"正強街","SECT":" ","MAREA":" ","LANE":"２１５巷","ALLEY":" ","HOUSE_NO":"５０號","E_COORD97":173222.88,"N_COORD97":2547709.1899999999,"ADDRESS":"正強街２１５巷５０號","OBJECTID":282872},"geometry":{"x":173222.87999999989,"y":2547709.1900000013}},{"attributes":{"ID":282879,"DIS_CODE":0,"TOWNNAME":"永康區","LI":"永康里","LIN":"30鄰","STREET":"永大路","SECT":"二段","MAREA":" ","LANE":"９０９巷","ALLEY":" ","HOUSE_NO":"１２號","E_COORD97":174213.60000000001,"N_COORD97":2547069.8199999998,"ADDRESS":"永大路二段９０９巷１２號","OBJECTID":282873},"geometry":{"x":174213.60000000056,"y":2547069.8200000003}},{"attributes":{"ID":282880,"DIS_CODE":0,"TOWNNAME":"永康區","LI":"正強里","LIN":"30鄰","STREET":"正強街","SECT":" ","MAREA":" ","LANE":"２１５巷","ALLEY":" ","HOUSE_NO":"８６號","E_COORD97":173165.95000000001,"N_COORD97":2547699.4900000002,"ADDRESS":"正強街２１５巷８６號","OBJECTID":282874},"geometry":{"x":173165.95000000112,"y":2547699.4899999984}},{"attributes":{"ID":282881,"DIS_CODE":0,"TOWNNAME":"永康區","LI":"正強里","LIN":"30鄰","STREET":"中正路","SECT":" ","MAREA":" ","LANE":"２０９巷","ALLEY":" ","HOUSE_NO":"８１號","E_COORD97":173153.03,"N_COORD97":2547710.4900000002,"ADDRESS":"中正路２０９巷８１號","OBJECTID":282875},"geometry":{"x":173153.02999999933,"y":2547710.4900000021}},{"attributes":{"ID":282882,"DIS_CODE":0,"TOWNNAME":"永康區","LI":"正強里","LIN":"30鄰","STREET":"中正路","SECT":" ","MAREA":" ","LANE":"２０９巷","ALLEY":" ","HOUSE_NO":"１０８號","E_COORD97":173129.91,"N_COORD97":2547698,"ADDRESS":"中正路２０９巷１０８號","OBJECTID":282876},"geometry":{"x":173129.91000000015,"y":2547698}},{"attributes":{"ID":282883,"DIS_CODE":0,"TOWNNAME":"玉井區","LI":"玉田里","LIN":"30鄰","STREET":"仁愛街","SECT":" ","MAREA":" ","LANE":"２９巷","ALLEY":" ","HOUSE_NO":"５號","E_COORD97":195459.34,"N_COORD97":2557621.2799999998,"ADDRESS":"仁愛街２９巷５號","OBJECTID":282877},"geometry":{"x":195459.34000000171,"y":2557621.2800000012}},{"attributes":{"ID":282884,"DIS_CODE":0,"TOWNNAME":"安南區","LI":"州北里","LIN":"30鄰","STREET":"安和路","SECT":"六段","MAREA":" ","LANE":"２０巷","ALLEY":" ","HOUSE_NO":"１１６號","E_COORD97":169789.28,"N_COORD97":2552445.7999999998,"ADDRESS":"安和路六段２０巷１１６號","OBJECTID":282878},"geometry":{"x":169789.28000000026,"y":2552445.8000000026}},{"attributes":{"ID":282885,"DIS_CODE":0,"TOWNNAME":"佳里區","LI":"安西里","LIN":"30鄰","STREET":"佳西路","SECT":" ","MAREA":" ","LANE":"４８６巷","ALLEY":" ","HOUSE_NO":"１１號","E_COORD97":164984.16,"N_COORD97":2563114.5800000001,"ADDRESS":"佳西路４８６巷１１號","OBJECTID":282879},"geometry":{"x":164984.16000000015,"y":2563114.5800000001}},{"attributes":{"ID":282886,"DIS_CODE":0,"TOWNNAME":"佳里區","LI":"安西里","LIN":"30鄰","STREET":"佳西路","SECT":" ","MAREA":" ","LANE":"４８６巷","ALLEY":" ","HOUSE_NO":"１３號","E_COORD97":164986.64999999999,"N_COORD97":2563118.04,"ADDRESS":"佳西路４８６巷１３號","OBJECTID":282880},"geometry":{"x":164986.64999999944,"y":2563118.040000001}},{"attributes":{"ID":282887,"DIS_CODE":0,"TOWNNAME":"佳里區","LI":"安西里","LIN":"30鄰","STREET":"佳西路","SECT":" ","MAREA":" ","LANE":"４８６巷","ALLEY":" ","HOUSE_NO":"１５號","E_COORD97":164989.19,"N_COORD97":2563122.0499999998,"ADDRESS":"佳西路４８６巷１５號","OBJECTID":282881},"geometry":{"x":164989.19000000041,"y":2563122.0500000007}},{"attributes":{"ID":282888,"DIS_CODE":0,"TOWNNAME":"佳里區","LI":"安西里","LIN":"30鄰","STREET":"佳西路","SECT":" ","MAREA":" ","LANE":"４８６巷","ALLEY":" ","HOUSE_NO":"１７號","E_COORD97":164991.95000000001,"N_COORD97":2563125.2999999998,"ADDRESS":"佳西路４８６巷１７號","OBJECTID":282882},"geometry":{"x":164991.95000000112,"y":2563125.3000000026}},{"attributes":{"ID":282889,"DIS_CODE":0,"TOWNNAME":"佳里區","LI":"安西里","LIN":"30鄰","STREET":"佳西路","SECT":" ","MAREA":" ","LANE":"４８６巷","ALLEY":" ","HOUSE_NO":"１９號","E_COORD97":165008.32000000001,"N_COORD97":2563112.8599999999,"ADDRESS":"佳西路４８６巷１９號","OBJECTID":282883},"geometry":{"x":165008.32000000123,"y":2563112.8600000013}},{"attributes":{"ID":282890,"DIS_CODE":0,"TOWNNAME":"佳里區","LI":"安西里","LIN":"30鄰","STREET":"佳西路","SECT":" ","MAREA":" ","LANE":"４８６巷","ALLEY":" ","HOUSE_NO":"１號","E_COORD97":164967.01999999999,"N_COORD97":2563102.7200000002,"ADDRESS":"佳西路４８６巷１號","OBJECTID":282884},"geometry":{"x":164967.02000000048,"y":2563102.7200000025}},{"attributes":{"ID":282891,"DIS_CODE":0,"TOWNNAME":"佳里區","LI":"安西里","LIN":"30鄰","STREET":"佳西路","SECT":" ","MAREA":" ","LANE":"４８６巷","ALLEY":" ","HOUSE_NO":"２１號","E_COORD97":165005.39999999999,"N_COORD97":2563109.4399999999,"ADDRESS":"佳西路４８６巷２１號","OBJECTID":282885},"geometry":{"x":165005.40000000224,"y":2563109.4400000013}},{"attributes":{"ID":282892,"DIS_CODE":0,"TOWNNAME":"佳里區","LI":"安西里","LIN":"30鄰","STREET":"佳西路","SECT":" ","MAREA":" ","LANE":"４８６巷","ALLEY":" ","HOUSE_NO":"２３號","E_COORD97":165002.67000000001,"N_COORD97":2563105.7999999998,"ADDRESS":"佳西路４８６巷２３號","OBJECTID":282886},"geometry":{"x":165002.66999999993,"y":2563105.8000000007}},{"attributes":{"ID":282893,"DIS_CODE":0,"TOWNNAME":"佳里區","LI":"安西里","LIN":"30鄰","STREET":"佳西路","SECT":" ","MAREA":" ","LANE":"４８６巷","ALLEY":" ","HOUSE_NO":"２５號","E_COORD97":165000.25,"N_COORD97":2563101.8599999999,"ADDRESS":"佳西路４８６巷２５號","OBJECTID":282887},"geometry":{"x":165000.25,"y":2563101.8599999994}},{"attributes":{"ID":282894,"DIS_CODE":0,"TOWNNAME":"佳里區","LI":"安西里","LIN":"30鄰","STREET":"佳西路","SECT":" ","MAREA":" ","LANE":"４８６巷","ALLEY":" ","HOUSE_NO":"２７號","E_COORD97":164989.79000000001,"N_COORD97":2563096.3399999999,"ADDRESS":"佳西路４８６巷２７號","OBJECTID":282888},"geometry":{"x":164989.79000000004,"y":2563096.3400000017}},{"attributes":{"ID":282895,"DIS_CODE":0,"TOWNNAME":"佳里區","LI":"安西里","LIN":"30鄰","STREET":"佳西路","SECT":" ","MAREA":" ","LANE":"４８６巷","ALLEY":" ","HOUSE_NO":"２９號","E_COORD97":164996.35000000001,"N_COORD97":2563091.3700000001,"ADDRESS":"佳西路４８６巷２９號","OBJECTID":282889},"geometry":{"x":164996.3499999987,"y":2563091.3700000029}},{"attributes":{"ID":282896,"DIS_CODE":0,"TOWNNAME":"佳里區","LI":"安西里","LIN":"30鄰","STREET":"佳西路","SECT":" ","MAREA":" ","LANE":"４８６巷","ALLEY":" ","HOUSE_NO":"３１號","E_COORD97":165027.60999999999,"N_COORD97":2563117.3700000001,"ADDRESS":"佳西路４８６巷３１號","OBJECTID":282890},"geometry":{"x":165027.6100000022,"y":2563117.3700000048}},{"attributes":{"ID":282897,"DIS_CODE":0,"TOWNNAME":"佳里區","LI":"安西里","LIN":"30鄰","STREET":"佳西路","SECT":" ","MAREA":" ","LANE":"４８６巷","ALLEY":" ","HOUSE_NO":"３號","E_COORD97":164971.20000000001,"N_COORD97":2563099.6400000001,"ADDRESS":"佳西路４８６巷３號","OBJECTID":282891},"geometry":{"x":164971.20000000112,"y":2563099.6400000025}},{"attributes":{"ID":282898,"DIS_CODE":0,"TOWNNAME":"佳里區","LI":"安西里","LIN":"30鄰","STREET":"佳西路","SECT":" ","MAREA":" ","LANE":"４８６巷","ALLEY":" ","HOUSE_NO":"５號","E_COORD97":164976.01999999999,"N_COORD97":2563096.23,"ADDRESS":"佳西路４８６巷５號","OBJECTID":282892},"geometry":{"x":164976.01999999955,"y":2563096.2300000004}},{"attributes":{"ID":282899,"DIS_CODE":0,"TOWNNAME":"佳里區","LI":"安西里","LIN":"30鄰","STREET":"佳西路","SECT":" ","MAREA":" ","LANE":"４８６巷","ALLEY":" ","HOUSE_NO":"７號","E_COORD97":164978.72,"N_COORD97":2563106.8599999999,"ADDRESS":"佳西路４８６巷７號","OBJECTID":282893},"geometry":{"x":164978.71999999881,"y":2563106.8600000013}},{"attributes":{"ID":282900,"DIS_CODE":0,"TOWNNAME":"佳里區","LI":"安西里","LIN":"30鄰","STREET":"佳西路","SECT":" ","MAREA":" ","LANE":"４８６巷","ALLEY":" ","HOUSE_NO":"９號","E_COORD97":164980.92999999999,"N_COORD97":2563110.9100000001,"ADDRESS":"佳西路４８６巷９號","OBJECTID":282894},"geometry":{"x":164980.93000000063,"y":2563110.910000002}},{"attributes":{"ID":282901,"DIS_CODE":0,"TOWNNAME":"佳里區","LI":"安西里","LIN":"30鄰","STREET":"佳西路","SECT":" ","MAREA":" ","LANE":"５６２巷","ALLEY":" ","HOUSE_NO":"１０號","E_COORD97":165043.57999999999,"N_COORD97":2563190.4100000001,"ADDRESS":"佳西路５６２巷１０號","OBJECTID":282895},"geometry":{"x":165043.58000000101,"y":2563190.4100000001}},{"attributes":{"ID":282902,"DIS_CODE":0,"TOWNNAME":"佳里區","LI":"安西里","LIN":"30鄰","STREET":"佳西路","SECT":" ","MAREA":" ","LANE":"５６２巷","ALLEY":" ","HOUSE_NO":"１１號","E_COORD97":165056.81,"N_COORD97":2563200.04,"ADDRESS":"佳西路５６２巷１１號","OBJECTID":282896},"geometry":{"x":165056.81000000052,"y":2563200.040000001}},{"attributes":{"ID":282903,"DIS_CODE":0,"TOWNNAME":"佳里區","LI":"安西里","LIN":"30鄰","STREET":"佳西路","SECT":" ","MAREA":" ","LANE":"５６２巷","ALLEY":" ","HOUSE_NO":"１２號","E_COORD97":165046.57000000001,"N_COORD97":2563187.4100000001,"ADDRESS":"佳西路５６２巷１２號","OBJECTID":282897},"geometry":{"x":165046.57000000216,"y":2563187.4100000039}},{"attributes":{"ID":282904,"DIS_CODE":0,"TOWNNAME":"佳里區","LI":"安西里","LIN":"30鄰","STREET":"佳西路","SECT":" ","MAREA":" ","LANE":"５６２巷","ALLEY":" ","HOUSE_NO":"１３號","E_COORD97":165060.25,"N_COORD97":2563197.29,"ADDRESS":"佳西路５６２巷１３號","OBJECTID":282898},"geometry":{"x":165060.25000000186,"y":2563197.2900000028}},{"attributes":{"ID":282905,"DIS_CODE":0,"TOWNNAME":"佳里區","LI":"安西里","LIN":"30鄰","STREET":"佳西路","SECT":" ","MAREA":" ","LANE":"５６２巷","ALLEY":" ","HOUSE_NO":"１６號","E_COORD97":165049.45000000001,"N_COORD97":2563184.2400000002,"ADDRESS":"佳西路５６２巷１６號","OBJECTID":282899},"geometry":{"x":165049.45000000112,"y":2563184.2400000002}},{"attributes":{"ID":282906,"DIS_CODE":0,"TOWNNAME":"佳里區","LI":"安西里","LIN":"30鄰","STREET":"佳西路","SECT":" ","MAREA":" ","LANE":"５６２巷","ALLEY":" ","HOUSE_NO":"１８號","E_COORD97":165052.78,"N_COORD97":2563182.21,"ADDRESS":"佳西路５６２巷１８號","OBJECTID":282900},"geometry":{"x":165052.78000000026,"y":2563182.2100000009}},{"attributes":{"ID":282907,"DIS_CODE":0,"TOWNNAME":"佳里區","LI":"安西里","LIN":"30鄰","STREET":"佳西路","SECT":" ","MAREA":" ","LANE":"５６２巷","ALLEY":" ","HOUSE_NO":"１號","E_COORD97":165041.25,"N_COORD97":2563212.1400000001,"ADDRESS":"佳西路５６２巷１號","OBJECTID":282901},"geometry":{"x":165041.25,"y":2563212.1400000006}},{"attributes":{"ID":282908,"DIS_CODE":0,"TOWNNAME":"永康區","LI":"崑山里","LIN":"30鄰","STREET":"國光二街","SECT":" ","MAREA":" ","LANE":"７０巷","ALLEY":" ","HOUSE_NO":"２１號","E_COORD97":173891.75,"N_COORD97":2544808.7799999998,"ADDRESS":"國光二街７０巷２１號","OBJECTID":282902},"geometry":{"x":173891.75,"y":2544808.7800000012}},{"attributes":{"ID":282909,"DIS_CODE":0,"TOWNNAME":"永康區","LI":"埔園里","LIN":"30鄰","STREET":"龍埔街","SECT":" ","MAREA":" ","LANE":"４３０巷","ALLEY":" ","HOUSE_NO":"１９號","E_COORD97":173956.72,"N_COORD97":2548436.5899999999,"ADDRESS":"龍埔街４３０巷１９號","OBJECTID":282903},"geometry":{"x":173956.72000000067,"y":2548436.5899999999}},{"attributes":{"ID":282910,"DIS_CODE":0,"TOWNNAME":"永康區","LI":"復國里","LIN":"30鄰","STREET":"復國一路","SECT":" ","MAREA":" ","LANE":"１７３巷","ALLEY":" ","HOUSE_NO":"５４號","E_COORD97":172573.66,"N_COORD97":2545226.7599999998,"ADDRESS":"復國一路１７３巷５４號","OBJECTID":282904},"geometry":{"x":172573.66000000015,"y":2545226.7600000016}},{"attributes":{"ID":282911,"DIS_CODE":0,"TOWNNAME":"佳里區","LI":"安西里","LIN":"30鄰","STREET":"忠孝路","SECT":" ","MAREA":" ","LANE":"２８１巷","ALLEY":" ","HOUSE_NO":"１１號","E_COORD97":165127.20000000001,"N_COORD97":2563174.3199999998,"ADDRESS":"忠孝路２８１巷１１號","OBJECTID":282905},"geometry":{"x":165127.20000000112,"y":2563174.3200000003}},{"attributes":{"ID":282912,"DIS_CODE":0,"TOWNNAME":"佳里區","LI":"安西里","LIN":"30鄰","STREET":"忠孝路","SECT":" ","MAREA":" ","LANE":"２８１巷","ALLEY":" ","HOUSE_NO":"５８號","E_COORD97":165053.76999999999,"N_COORD97":2563071.5,"ADDRESS":"忠孝路２８１巷５８號","OBJECTID":282906},"geometry":{"x":165053.76999999955,"y":2563071.5000000037}},{"attributes":{"ID":282913,"DIS_CODE":0,"TOWNNAME":"佳里區","LI":"安西里","LIN":"30鄰","STREET":"忠孝路","SECT":" ","MAREA":" ","LANE":"２８１巷","ALLEY":" ","HOUSE_NO":"５號","E_COORD97":165135.60000000001,"N_COORD97":2563186.1299999999,"ADDRESS":"忠孝路２８１巷５號","OBJECTID":282907},"geometry":{"x":165135.60000000056,"y":2563186.1300000008}},{"attributes":{"ID":282914,"DIS_CODE":0,"TOWNNAME":"佳里區","LI":"安西里","LIN":"30鄰","STREET":"忠孝路","SECT":" ","MAREA":" ","LANE":"２８１巷","ALLEY":" ","HOUSE_NO":"６０號","E_COORD97":165053.60999999999,"N_COORD97":2563065.6400000001,"ADDRESS":"忠孝路２８１巷６０號","OBJECTID":282908},"geometry":{"x":165053.61000000127,"y":2563065.6400000025}},{"attributes":{"ID":282915,"DIS_CODE":0,"TOWNNAME":"六甲區","LI":"六甲里","LIN":"30鄰","STREET":"中華路","SECT":" ","MAREA":" ","LANE":"９３巷","ALLEY":" ","HOUSE_NO":"２７號","E_COORD97":183410.29000000001,"N_COORD97":2569273.0600000001,"ADDRESS":"中華路９３巷２７號","OBJECTID":282909},"geometry":{"x":183410.29000000004,"y":2569273.0600000024}},{"attributes":{"ID":282916,"DIS_CODE":0,"TOWNNAME":"六甲區","LI":"六甲里","LIN":"30鄰","STREET":"中華路","SECT":" ","MAREA":" ","LANE":"９３巷","ALLEY":" ","HOUSE_NO":"２９號","E_COORD97":183408.5,"N_COORD97":2569268.9500000002,"ADDRESS":"中華路９３巷２９號","OBJECTID":282910},"geometry":{"x":183408.5,"y":2569268.9500000011}},{"attributes":{"ID":282917,"DIS_CODE":0,"TOWNNAME":"六甲區","LI":"六甲里","LIN":"30鄰","STREET":"中華路","SECT":" ","MAREA":" ","LANE":"９３巷","ALLEY":" ","HOUSE_NO":"３１號","E_COORD97":183407.32000000001,"N_COORD97":2569265.2400000002,"ADDRESS":"中華路９３巷３１號","OBJECTID":282911},"geometry":{"x":183407.32000000123,"y":2569265.2400000021}},{"attributes":{"ID":282918,"DIS_CODE":0,"TOWNNAME":"六甲區","LI":"六甲里","LIN":"30鄰","STREET":"中華路","SECT":" ","MAREA":" ","LANE":"９３巷","ALLEY":" ","HOUSE_NO":"３３號","E_COORD97":183406.06,"N_COORD97":2569261.3300000001,"ADDRESS":"中華路９３巷３３號","OBJECTID":282912},"geometry":{"x":183406.05999999959,"y":2569261.3300000019}},{"attributes":{"ID":282919,"DIS_CODE":0,"TOWNNAME":"六甲區","LI":"六甲里","LIN":"30鄰","STREET":"中華路","SECT":" ","MAREA":" ","LANE":"９３巷","ALLEY":" ","HOUSE_NO":"３５號","E_COORD97":183404.32999999999,"N_COORD97":2569257.77,"ADDRESS":"中華路９３巷３５號","OBJECTID":282913},"geometry":{"x":183404.33000000007,"y":2569257.7700000014}},{"attributes":{"ID":282920,"DIS_CODE":0,"TOWNNAME":"六甲區","LI":"六甲里","LIN":"30鄰","STREET":"中華路","SECT":" ","MAREA":" ","LANE":"９３巷","ALLEY":" ","HOUSE_NO":"３７號","E_COORD97":183403.01999999999,"N_COORD97":2569253.4399999999,"ADDRESS":"中華路９３巷３７號","OBJECTID":282914},"geometry":{"x":183403.01999999955,"y":2569253.4400000013}},{"attributes":{"ID":282921,"DIS_CODE":0,"TOWNNAME":"六甲區","LI":"六甲里","LIN":"30鄰","STREET":"中華路","SECT":" ","MAREA":" ","LANE":"９３巷","ALLEY":" ","HOUSE_NO":"３９號","E_COORD97":183401.17000000001,"N_COORD97":2569249.2799999998,"ADDRESS":"中華路９３巷３９號","OBJECTID":282915},"geometry":{"x":183401.17000000086,"y":2569249.2799999975}},{"attributes":{"ID":282922,"DIS_CODE":0,"TOWNNAME":"六甲區","LI":"六甲里","LIN":"30鄰","STREET":"中華路","SECT":" ","MAREA":" ","LANE":"９３巷","ALLEY":" ","HOUSE_NO":"４１號","E_COORD97":183400.12,"N_COORD97":2569245.1899999999,"ADDRESS":"中華路９３巷４１號","OBJECTID":282916},"geometry":{"x":183400.12000000104,"y":2569245.1899999995}},{"attributes":{"ID":282923,"DIS_CODE":0,"TOWNNAME":"六甲區","LI":"六甲里","LIN":"30鄰","STREET":"中華路","SECT":" ","MAREA":" ","LANE":"９３巷","ALLEY":" ","HOUSE_NO":"４３號","E_COORD97":183398.51999999999,"N_COORD97":2569241.3999999999,"ADDRESS":"中華路９３巷４３號","OBJECTID":282917},"geometry":{"x":183398.52000000048,"y":2569241.4000000004}},{"attributes":{"ID":282924,"DIS_CODE":0,"TOWNNAME":"玉井區","LI":"玉田里","LIN":"30鄰","STREET":"仁愛街","SECT":" ","MAREA":" ","LANE":"２６巷","ALLEY":" ","HOUSE_NO":"３號","E_COORD97":195523.84,"N_COORD97":2557654.27,"ADDRESS":"仁愛街２６巷３號","OBJECTID":282918},"geometry":{"x":195523.84000000171,"y":2557654.2699999996}},{"attributes":{"ID":282925,"DIS_CODE":0,"TOWNNAME":"玉井區","LI":"玉田里","LIN":"30鄰","STREET":"中華路","SECT":" ","MAREA":" ","LANE":"３８１巷","ALLEY":" ","HOUSE_NO":"５號","E_COORD97":195488.85999999999,"N_COORD97":2557605.25,"ADDRESS":"中華路３８１巷５號","OBJECTID":282919},"geometry":{"x":195488.86000000127,"y":2557605.2500000019}},{"attributes":{"ID":282926,"DIS_CODE":0,"TOWNNAME":"玉井區","LI":"玉田里","LIN":"30鄰","STREET":"仁愛街","SECT":" ","MAREA":" ","LANE":"２６巷","ALLEY":" ","HOUSE_NO":"１號","E_COORD97":195529.44,"N_COORD97":2557649.27,"ADDRESS":"仁愛街２６巷１號","OBJECTID":282920},"geometry":{"x":195529.44000000134,"y":2557649.2700000014}},{"attributes":{"ID":282927,"DIS_CODE":0,"TOWNNAME":"玉井區","LI":"玉田里","LIN":"30鄰","STREET":"仁愛街","SECT":" ","MAREA":" ","LANE":"２６巷","ALLEY":" ","HOUSE_NO":"６號","E_COORD97":195547.73000000001,"N_COORD97":2557632.2799999998,"ADDRESS":"仁愛街２６巷６號","OBJECTID":282921},"geometry":{"x":195547.73000000138,"y":2557632.2800000012}},{"attributes":{"ID":282928,"DIS_CODE":0,"TOWNNAME":"玉井區","LI":"玉田里","LIN":"30鄰","STREET":"中華路","SECT":" ","MAREA":" ","LANE":"３８１巷","ALLEY":" ","HOUSE_NO":"２之１號","E_COORD97":195501.06,"N_COORD97":2557592.2999999998,"ADDRESS":"中華路３８１巷２之１號","OBJECTID":282922},"geometry":{"x":195501.05999999959,"y":2557592.3000000026}},{"attributes":{"ID":282929,"DIS_CODE":0,"TOWNNAME":"六甲區","LI":"六甲里","LIN":"30鄰","STREET":"成功街","SECT":" ","MAREA":" ","LANE":"４８巷","ALLEY":" ","HOUSE_NO":"１１號","E_COORD97":183313.29000000001,"N_COORD97":2569180.5600000001,"ADDRESS":"成功街４８巷１１號","OBJECTID":282923},"geometry":{"x":183313.29000000004,"y":2569180.5600000005}},{"attributes":{"ID":282930,"DIS_CODE":0,"TOWNNAME":"六甲區","LI":"六甲里","LIN":"30鄰","STREET":"成功街","SECT":" ","MAREA":" ","LANE":"４８巷","ALLEY":" ","HOUSE_NO":"１３號","E_COORD97":183317.26999999999,"N_COORD97":2569176.7799999998,"ADDRESS":"成功街４８巷１３號","OBJECTID":282924},"geometry":{"x":183317.27000000048,"y":2569176.7799999993}},{"attributes":{"ID":282931,"DIS_CODE":0,"TOWNNAME":"新營區","LI":"南興里","LIN":"30鄰","STREET":"建業路","SECT":" ","MAREA":" ","LANE":"１５７巷","ALLEY":" ","HOUSE_NO":"２５號","E_COORD97":178397.64000000001,"N_COORD97":2577415.3300000001,"ADDRESS":"建業路１５７巷２５號","OBJECTID":282925},"geometry":{"x":178397.63999999966,"y":2577415.3300000019}},{"attributes":{"ID":282932,"DIS_CODE":0,"TOWNNAME":"南區","LI":"金華里","LIN":"30鄰","STREET":"新孝路","SECT":" ","MAREA":" ","LANE":"１２６巷","ALLEY":" ","HOUSE_NO":"８９號","E_COORD97":166638.32000000001,"N_COORD97":2542284.1299999999,"ADDRESS":"新孝路１２６巷８９號","OBJECTID":282926},"geometry":{"x":166638.32000000216,"y":2542284.1300000008}},{"attributes":{"ID":282933,"DIS_CODE":0,"TOWNNAME":"南區","LI":"金華里","LIN":"30鄰","STREET":"新孝路","SECT":" ","MAREA":" ","LANE":"１２６巷","ALLEY":" ","HOUSE_NO":"９１號","E_COORD97":166638.32000000001,"N_COORD97":2542288.8399999999,"ADDRESS":"新孝路１２６巷９１號","OBJECTID":282927},"geometry":{"x":166638.32000000216,"y":2542288.8399999999}},{"attributes":{"ID":282934,"DIS_CODE":0,"TOWNNAME":"南區","LI":"金華里","LIN":"30鄰","STREET":"新孝路","SECT":" ","MAREA":" ","LANE":"１２６巷","ALLEY":" ","HOUSE_NO":"９３號","E_COORD97":166662.69,"N_COORD97":2542284.9300000002,"ADDRESS":"新孝路１２６巷９３號","OBJECTID":282928},"geometry":{"x":166662.69000000041,"y":2542284.9299999978}},{"attributes":{"ID":282935,"DIS_CODE":0,"TOWNNAME":"南區","LI":"金華里","LIN":"30鄰","STREET":"新孝路","SECT":" ","MAREA":" ","LANE":"１２６巷","ALLEY":" ","HOUSE_NO":"９５號","E_COORD97":166668.41,"N_COORD97":2542286.8100000001,"ADDRESS":"新孝路１２６巷９５號","OBJECTID":282929},"geometry":{"x":166668.41000000108,"y":2542286.8100000042}},{"attributes":{"ID":282936,"DIS_CODE":0,"TOWNNAME":"安平區","LI":"平通里","LIN":"30鄰","STREET":"育平九街","SECT":" ","MAREA":" ","LANE":"３７２巷","ALLEY":" ","HOUSE_NO":"２２號之２","E_COORD97":164612.69,"N_COORD97":2543844.3799999999,"ADDRESS":"育平九街３７２巷２２號之２","OBJECTID":282930},"geometry":{"x":164612.69000000134,"y":2543844.3800000027}},{"attributes":{"ID":282937,"DIS_CODE":0,"TOWNNAME":"安平區","LI":"平通里","LIN":"30鄰","STREET":"育平九街","SECT":" ","MAREA":" ","LANE":"３７２巷","ALLEY":" ","HOUSE_NO":"２２號之３","E_COORD97":164617.20000000001,"N_COORD97":2543844.27,"ADDRESS":"育平九街３７２巷２２號之３","OBJECTID":282931},"geometry":{"x":164617.20000000112,"y":2543844.2699999996}},{"attributes":{"ID":282938,"DIS_CODE":0,"TOWNNAME":"安平區","LI":"平通里","LIN":"30鄰","STREET":"育平九街","SECT":" ","MAREA":" ","LANE":"３７２巷","ALLEY":" ","HOUSE_NO":"２２號之４","E_COORD97":164602.64999999999,"N_COORD97":2543861.0099999998,"ADDRESS":"育平九街３７２巷２２號之４","OBJECTID":282932},"geometry":{"x":164602.6500000013,"y":2543861.0099999979}},{"attributes":{"ID":282939,"DIS_CODE":0,"TOWNNAME":"安平區","LI":"平通里","LIN":"30鄰","STREET":"育平九街","SECT":" ","MAREA":" ","LANE":"３７２巷","ALLEY":" ","HOUSE_NO":"２２號之５","E_COORD97":164607.45000000001,"N_COORD97":2543861.3500000001,"ADDRESS":"育平九街３７２巷２２號之５","OBJECTID":282933},"geometry":{"x":164607.45000000019,"y":2543861.3499999996}},{"attributes":{"ID":282940,"DIS_CODE":0,"TOWNNAME":"安平區","LI":"平通里","LIN":"30鄰","STREET":"育平九街","SECT":" ","MAREA":" ","LANE":"３７２巷","ALLEY":" ","HOUSE_NO":"２２號之６","E_COORD97":164612.07000000001,"N_COORD97":2543861.4100000001,"ADDRESS":"育平九街３７２巷２２號之６","OBJECTID":282934},"geometry":{"x":164612.0700000003,"y":2543861.4100000001}},{"attributes":{"ID":282941,"DIS_CODE":0,"TOWNNAME":"安平區","LI":"平通里","LIN":"30鄰","STREET":"育平九街","SECT":" ","MAREA":" ","LANE":"３７２巷","ALLEY":" ","HOUSE_NO":"２２號之７","E_COORD97":164616.85999999999,"N_COORD97":2543861.52,"ADDRESS":"育平九街３７２巷２２號之７","OBJECTID":282935},"geometry":{"x":164616.86000000034,"y":2543861.5200000014}},{"attributes":{"ID":282942,"DIS_CODE":0,"TOWNNAME":"安平區","LI":"平通里","LIN":"30鄰","STREET":"育平九街","SECT":" ","MAREA":" ","LANE":"３７２巷","ALLEY":" ","HOUSE_NO":"３０號","E_COORD97":164604.42999999999,"N_COORD97":2543884.4399999999,"ADDRESS":"育平九街３７２巷３０號","OBJECTID":282936},"geometry":{"x":164604.43000000156,"y":2543884.4399999995}},{"attributes":{"ID":282943,"DIS_CODE":0,"TOWNNAME":"安平區","LI":"平通里","LIN":"30鄰","STREET":"育平九街","SECT":" ","MAREA":" ","LANE":"３７２巷","ALLEY":" ","HOUSE_NO":"４號","E_COORD97":164610.64000000001,"N_COORD97":2543790.8399999999,"ADDRESS":"育平九街３７２巷４號","OBJECTID":282937},"geometry":{"x":164610.63999999966,"y":2543790.8399999999}},{"attributes":{"ID":282944,"DIS_CODE":0,"TOWNNAME":"安平區","LI":"平通里","LIN":"30鄰","STREET":"育平九街","SECT":" ","MAREA":" ","LANE":"３７２巷","ALLEY":" ","HOUSE_NO":"６號","E_COORD97":164610.60000000001,"N_COORD97":2543795.5,"ADDRESS":"育平九街３７２巷６號","OBJECTID":282938},"geometry":{"x":164610.60000000056,"y":2543795.5}},{"attributes":{"ID":282945,"DIS_CODE":0,"TOWNNAME":"安平區","LI":"平通里","LIN":"30鄰","STREET":"育平九街","SECT":" ","MAREA":" ","LANE":"３７２巷","ALLEY":" ","HOUSE_NO":"８號","E_COORD97":164610.54999999999,"N_COORD97":2543799.8500000001,"ADDRESS":"育平九街３７２巷８號","OBJECTID":282939},"geometry":{"x":164610.55000000168,"y":2543799.8499999996}},{"attributes":{"ID":282946,"DIS_CODE":0,"TOWNNAME":"安平區","LI":"育平里","LIN":"30鄰","STREET":"府平路","SECT":" ","MAREA":" ","LANE":"３８６巷","ALLEY":" ","HOUSE_NO":"４９號","E_COORD97":164617.92000000001,"N_COORD97":2543238.0800000001,"ADDRESS":"府平路３８６巷４９號","OBJECTID":282940},"geometry":{"x":164617.91999999993,"y":2543238.0800000019}},{"attributes":{"ID":282947,"DIS_CODE":0,"TOWNNAME":"安平區","LI":"育平里","LIN":"30鄰","STREET":"府平路","SECT":" ","MAREA":" ","LANE":"３８６巷","ALLEY":" ","HOUSE_NO":"５１號","E_COORD97":164618.85000000001,"N_COORD97":2543245.3799999999,"ADDRESS":"府平路３８６巷５１號","OBJECTID":282941},"geometry":{"x":164618.85000000056,"y":2543245.3800000008}},{"attributes":{"ID":282948,"DIS_CODE":0,"TOWNNAME":"安平區","LI":"育平里","LIN":"30鄰","STREET":"府平路","SECT":" ","MAREA":" ","LANE":"３８６巷","ALLEY":" ","HOUSE_NO":"５３號","E_COORD97":164620.51999999999,"N_COORD97":2543253.7400000002,"ADDRESS":"府平路３８６巷５３號","OBJECTID":282942},"geometry":{"x":164620.51999999862,"y":2543253.7400000021}},{"attributes":{"ID":282949,"DIS_CODE":0,"TOWNNAME":"南區","LI":"金華里","LIN":"30鄰","STREET":"新孝路","SECT":" ","MAREA":" ","LANE":"１４８巷","ALLEY":" ","HOUSE_NO":"８８號","E_COORD97":166610.57000000001,"N_COORD97":2542293.1600000001,"ADDRESS":"新孝路１４８巷８８號","OBJECTID":282943},"geometry":{"x":166610.5700000003,"y":2542293.1600000001}},{"attributes":{"ID":282950,"DIS_CODE":0,"TOWNNAME":"南區","LI":"金華里","LIN":"30鄰","STREET":"新孝路","SECT":" ","MAREA":" ","LANE":"１４８巷","ALLEY":" ","HOUSE_NO":"９０號","E_COORD97":166613.07000000001,"N_COORD97":2542297.1600000001,"ADDRESS":"新孝路１４８巷９０號","OBJECTID":282944},"geometry":{"x":166613.07000000123,"y":2542297.1600000001}},{"attributes":{"ID":282951,"DIS_CODE":0,"TOWNNAME":"歸仁區","LI":"南興里","LIN":"30鄰","STREET":"保興街","SECT":" ","MAREA":" ","LANE":"５５巷","ALLEY":" ","HOUSE_NO":"８號","E_COORD97":176468.32000000001,"N_COORD97":2541070.25,"ADDRESS":"保興街５５巷８號","OBJECTID":282945},"geometry":{"x":176468.3200000003,"y":2541070.2500000019}},{"attributes":{"ID":282952,"DIS_CODE":0,"TOWNNAME":"南區","LI":"金華里","LIN":"30鄰","STREET":"新孝路","SECT":" ","MAREA":" ","LANE":"１４８巷","ALLEY":" ","HOUSE_NO":"９４號","E_COORD97":166616.07000000001,"N_COORD97":2542309.4100000001,"ADDRESS":"新孝路１４８巷９４號","OBJECTID":282946},"geometry":{"x":166616.0700000003,"y":2542309.4100000039}},{"attributes":{"ID":282953,"DIS_CODE":0,"TOWNNAME":"南區","LI":"金華里","LIN":"30鄰","STREET":"新孝路","SECT":" ","MAREA":" ","LANE":"１４８巷","ALLEY":" ","HOUSE_NO":"９６號","E_COORD97":166616.82999999999,"N_COORD97":2542313.1600000001,"ADDRESS":"新孝路１４８巷９６號","OBJECTID":282947},"geometry":{"x":166616.83000000007,"y":2542313.1600000001}},{"attributes":{"ID":282954,"DIS_CODE":0,"TOWNNAME":"南區","LI":"金華里","LIN":"30鄰","STREET":"新孝路","SECT":" ","MAREA":" ","LANE":"１４８巷","ALLEY":" ","HOUSE_NO":"９８號","E_COORD97":166618.82999999999,"N_COORD97":2542317.6600000001,"ADDRESS":"新孝路１４８巷９８號","OBJECTID":282948},"geometry":{"x":166618.83000000007,"y":2542317.6600000001}},{"attributes":{"ID":282955,"DIS_CODE":0,"TOWNNAME":"南區","LI":"金華里","LIN":"30鄰","STREET":"新孝路","SECT":" ","MAREA":" ","LANE":"１２６巷","ALLEY":" ","HOUSE_NO":"１９號","E_COORD97":166584.70000000001,"N_COORD97":2542132.3999999999,"ADDRESS":"新孝路１２６巷１９號","OBJECTID":282949},"geometry":{"x":166584.70000000205,"y":2542132.4000000004}},{"attributes":{"ID":282956,"DIS_CODE":0,"TOWNNAME":"南區","LI":"金華里","LIN":"30鄰","STREET":"新孝路","SECT":" ","MAREA":" ","LANE":"１２６巷","ALLEY":" ","HOUSE_NO":"２１號","E_COORD97":166587.17999999999,"N_COORD97":2542136.8100000001,"ADDRESS":"新孝路１２６巷２１號","OBJECTID":282950},"geometry":{"x":166587.1799999997,"y":2542136.8100000005}},{"attributes":{"ID":282957,"DIS_CODE":0,"TOWNNAME":"新營區","LI":"忠政里","LIN":"30鄰","STREET":"府西路","SECT":" ","MAREA":" ","LANE":"３３巷","ALLEY":" ","HOUSE_NO":"３號","E_COORD97":179789.84,"N_COORD97":2578966.8500000001,"ADDRESS":"府西路３３巷３號","OBJECTID":282951},"geometry":{"x":179789.83999999985,"y":2578966.8500000015}},{"attributes":{"ID":282958,"DIS_CODE":0,"TOWNNAME":"新營區","LI":"忠政里","LIN":"30鄰","STREET":"府西路","SECT":" ","MAREA":" ","LANE":"３３巷","ALLEY":" ","HOUSE_NO":"５號","E_COORD97":179785.67999999999,"N_COORD97":2578966.8700000001,"ADDRESS":"府西路３３巷５號","OBJECTID":282952},"geometry":{"x":179785.6799999997,"y":2578966.870000001}},{"attributes":{"ID":282959,"DIS_CODE":0,"TOWNNAME":"新營區","LI":"忠政里","LIN":"30鄰","STREET":"府西路","SECT":" ","MAREA":" ","LANE":"３３巷","ALLEY":" ","HOUSE_NO":"７號","E_COORD97":179781.60000000001,"N_COORD97":2578966.8900000001,"ADDRESS":"府西路３３巷７號","OBJECTID":282953},"geometry":{"x":179781.59999999963,"y":2578966.8900000043}},{"attributes":{"ID":282960,"DIS_CODE":0,"TOWNNAME":"新營區","LI":"新北里","LIN":"30鄰","STREET":"新北街","SECT":" ","MAREA":" ","LANE":"１７０巷","ALLEY":" ","HOUSE_NO":"５號","E_COORD97":178697.53,"N_COORD97":2578996.4300000002,"ADDRESS":"新北街１７０巷５號","OBJECTID":282954},"geometry":{"x":178697.53000000026,"y":2578996.4300000034}},{"attributes":{"ID":282961,"DIS_CODE":0,"TOWNNAME":"歸仁區","LI":"南保里","LIN":"30鄰","STREET":"民權北路","SECT":" ","MAREA":" ","LANE":"６１巷","ALLEY":" ","HOUSE_NO":"５號","E_COORD97":176959.39000000001,"N_COORD97":2541017.29,"ADDRESS":"民權北路６１巷５號","OBJECTID":282955},"geometry":{"x":176959.3900000006,"y":2541017.2899999972}},{"attributes":{"ID":282962,"DIS_CODE":0,"TOWNNAME":"歸仁區","LI":"南興里","LIN":"30鄰","STREET":"保興街","SECT":" ","MAREA":" ","LANE":"５５巷","ALLEY":" ","HOUSE_NO":"１０號","E_COORD97":176465.47,"N_COORD97":2541071.25,"ADDRESS":"保興街５５巷１０號","OBJECTID":282956},"geometry":{"x":176465.4700000016,"y":2541071.25}},{"attributes":{"ID":282963,"DIS_CODE":0,"TOWNNAME":"歸仁區","LI":"辜厝里","LIN":"30鄰","STREET":"大順三街","SECT":" ","MAREA":" ","LANE":"７８巷","ALLEY":" ","HOUSE_NO":"１０號","E_COORD97":177377.57999999999,"N_COORD97":2540470.9500000002,"ADDRESS":"大順三街７８巷１０號","OBJECTID":282957},"geometry":{"x":177377.58000000101,"y":2540470.950000003}},{"attributes":{"ID":282964,"DIS_CODE":0,"TOWNNAME":"歸仁區","LI":"辜厝里","LIN":"30鄰","STREET":"大順三街","SECT":" ","MAREA":" ","LANE":"７８巷","ALLEY":" ","HOUSE_NO":"１８號","E_COORD97":177361.17999999999,"N_COORD97":2540470.9500000002,"ADDRESS":"大順三街７８巷１８號","OBJECTID":282958},"geometry":{"x":177361.18000000063,"y":2540470.950000003}},{"attributes":{"ID":282965,"DIS_CODE":0,"TOWNNAME":"歸仁區","LI":"辜厝里","LIN":"30鄰","STREET":"大順三街","SECT":" ","MAREA":" ","LANE":"７８巷","ALLEY":" ","HOUSE_NO":"１６號","E_COORD97":177366.28,"N_COORD97":2540470.9500000002,"ADDRESS":"大順三街７８巷１６號","OBJECTID":282959},"geometry":{"x":177366.28000000119,"y":2540470.950000003}},{"attributes":{"ID":282966,"DIS_CODE":0,"TOWNNAME":"歸仁區","LI":"崙頂里","LIN":"30鄰","STREET":"凱旋路","SECT":"一段","MAREA":" ","LANE":"６０１巷","ALLEY":" ","HOUSE_NO":"８８號","E_COORD97":177731.03,"N_COORD97":2539329.25,"ADDRESS":"凱旋路一段６０１巷８８號","OBJECTID":282960},"geometry":{"x":177731.03000000026,"y":2539329.25}},{"attributes":{"ID":282967,"DIS_CODE":0,"TOWNNAME":"歸仁區","LI":"南興里","LIN":"30鄰","STREET":"保興街","SECT":" ","MAREA":" ","LANE":"５５巷","ALLEY":" ","HOUSE_NO":"６號","E_COORD97":176472.42000000001,"N_COORD97":2541070.25,"ADDRESS":"保興街５５巷６號","OBJECTID":282961},"geometry":{"x":176472.41999999993,"y":2541070.2500000019}},{"attributes":{"ID":282968,"DIS_CODE":0,"TOWNNAME":"新營區","LI":"大宏里","LIN":"30鄰","STREET":"開元路","SECT":" ","MAREA":" ","LANE":"３１巷","ALLEY":" ","HOUSE_NO":"１１號","E_COORD97":180774.37,"N_COORD97":2578622.2400000002,"ADDRESS":"開元路３１巷１１號","OBJECTID":282962},"geometry":{"x":180774.37000000104,"y":2578622.2400000021}},{"attributes":{"ID":282969,"DIS_CODE":0,"TOWNNAME":"新營區","LI":"民榮里","LIN":"30鄰","STREET":"太子路","SECT":" ","MAREA":" ","LANE":"４４巷","ALLEY":" ","HOUSE_NO":"２７號","E_COORD97":178155.22,"N_COORD97":2578052.1899999999,"ADDRESS":"太子路４４巷２７號","OBJECTID":282963},"geometry":{"x":178155.21999999974,"y":2578052.1900000013}},{"attributes":{"ID":282970,"DIS_CODE":0,"TOWNNAME":"關廟區","LI":"香洋里","LIN":"30鄰","STREET":"大仁街","SECT":" ","MAREA":" ","LANE":"４１６巷","ALLEY":" ","HOUSE_NO":"２２號","E_COORD97":180956.92000000001,"N_COORD97":2539734.25,"ADDRESS":"大仁街４１６巷２２號","OBJECTID":282964},"geometry":{"x":180956.92000000086,"y":2539734.2500000019}},{"attributes":{"ID":282971,"DIS_CODE":0,"TOWNNAME":"關廟區","LI":"香洋里","LIN":"30鄰","STREET":"大仁街","SECT":" ","MAREA":" ","LANE":"４１６巷","ALLEY":" ","HOUSE_NO":"１６號","E_COORD97":180971.12,"N_COORD97":2539736.25,"ADDRESS":"大仁街４１６巷１６號","OBJECTID":282965},"geometry":{"x":180971.12000000104,"y":2539736.25}},{"attributes":{"ID":282972,"DIS_CODE":0,"TOWNNAME":"關廟區","LI":"香洋里","LIN":"30鄰","STREET":"大富街","SECT":" ","MAREA":" ","LANE":"３０１巷","ALLEY":" ","HOUSE_NO":"３２號","E_COORD97":180976.51999999999,"N_COORD97":2539712.25,"ADDRESS":"大富街３０１巷３２號","OBJECTID":282966},"geometry":{"x":180976.52000000048,"y":2539712.25}},{"attributes":{"ID":282973,"DIS_CODE":0,"TOWNNAME":"關廟區","LI":"香洋里","LIN":"30鄰","STREET":"大富街","SECT":" ","MAREA":" ","LANE":"３０１巷","ALLEY":" ","HOUSE_NO":"３０號","E_COORD97":180979.92000000001,"N_COORD97":2539713.25,"ADDRESS":"大富街３０１巷３０號","OBJECTID":282967},"geometry":{"x":180979.91999999993,"y":2539713.2500000037}},{"attributes":{"ID":282974,"DIS_CODE":0,"TOWNNAME":"關廟區","LI":"香洋里","LIN":"30鄰","STREET":"大富街","SECT":" ","MAREA":" ","LANE":"３０１巷","ALLEY":" ","HOUSE_NO":"２２號","E_COORD97":180991.82000000001,"N_COORD97":2539717.25,"ADDRESS":"大富街３０１巷２２號","OBJECTID":282968},"geometry":{"x":180991.82000000123,"y":2539717.2500000019}},{"attributes":{"ID":282975,"DIS_CODE":0,"TOWNNAME":"北區","LI":"成德里","LIN":"30鄰","STREET":"海安路","SECT":"三段","MAREA":" ","LANE":"５００巷","ALLEY":" ","HOUSE_NO":"１１２號","E_COORD97":168139.66,"N_COORD97":2545676.0699999998,"ADDRESS":"海安路三段５００巷１１２號","OBJECTID":282969},"geometry":{"x":168139.66000000108,"y":2545676.0700000022}},{"attributes":{"ID":282976,"DIS_CODE":0,"TOWNNAME":"新化區","LI":"\u25A0拔里","LIN":"2鄰","STREET":" ","SECT":" ","MAREA":"\u25A0拔林","LANE":" ","ALLEY":" ","HOUSE_NO":"９５號之１","E_COORD97":183558.29999999999,"N_COORD97":2552139.2599999998,"ADDRESS":"\u25A0拔林９５號之１","OBJECTID":282970},"geometry":{"x":183558.30000000075,"y":2552139.2600000016}},{"attributes":{"ID":282977,"DIS_CODE":0,"TOWNNAME":"新化區","LI":"\u25A0拔里","LIN":"2鄰","STREET":" ","SECT":" ","MAREA":"\u25A0拔林","LANE":" ","ALLEY":" ","HOUSE_NO":"８５號之１","E_COORD97":183530,"N_COORD97":2552083.2599999998,"ADDRESS":"\u25A0拔林８５號之１","OBJECTID":282971},"geometry":{"x":183530.00000000093,"y":2552083.2599999998}},{"attributes":{"ID":282978,"DIS_CODE":0,"TOWNNAME":"新化區","LI":"知義里","LIN":"2鄰","STREET":" ","SECT":" ","MAREA":"知母義","LANE":" ","ALLEY":" ","HOUSE_NO":"１５２號","E_COORD97":179758.32000000001,"N_COORD97":2547046.25,"ADDRESS":"知母義１５２號","OBJECTID":282972},"geometry":{"x":179758.3200000003,"y":2547046.25}},{"attributes":{"ID":282979,"DIS_CODE":0,"TOWNNAME":"新化區","LI":"\u25A0拔里","LIN":"2鄰","STREET":" ","SECT":" ","MAREA":"\u25A0拔林","LANE":" ","ALLEY":" ","HOUSE_NO":"８３號","E_COORD97":183482.76999999999,"N_COORD97":2552114.25,"ADDRESS":"\u25A0拔林８３號","OBJECTID":282973},"geometry":{"x":183482.76999999955,"y":2552114.25}},{"attributes":{"ID":282980,"DIS_CODE":0,"TOWNNAME":"新化區","LI":"\u25A0拔里","LIN":"2鄰","STREET":" ","SECT":" ","MAREA":"\u25A0拔林","LANE":" ","ALLEY":" ","HOUSE_NO":"８１號之２","E_COORD97":183447.23000000001,"N_COORD97":2552059.2599999998,"ADDRESS":"\u25A0拔林８１號之２","OBJECTID":282974},"geometry":{"x":183447.23000000138,"y":2552059.2599999998}},{"attributes":{"ID":282981,"DIS_CODE":0,"TOWNNAME":"北區","LI":"成德里","LIN":"30鄰","STREET":"海安路","SECT":"三段","MAREA":" ","LANE":"５００巷","ALLEY":" ","HOUSE_NO":"１１６號","E_COORD97":168146.06,"N_COORD97":2545675.8100000001,"ADDRESS":"海安路三段５００巷１１６號","OBJECTID":282975},"geometry":{"x":168146.05999999959,"y":2545675.8100000005}},{"attributes":{"ID":282982,"DIS_CODE":0,"TOWNNAME":"新化區","LI":"知義里","LIN":"2鄰","STREET":" ","SECT":" ","MAREA":"知母義","LANE":" ","ALLEY":" ","HOUSE_NO":"６０號","E_COORD97":179781.07000000001,"N_COORD97":2547014.25,"ADDRESS":"知母義６０號","OBJECTID":282976},"geometry":{"x":179781.07000000216,"y":2547014.2500000019}},{"attributes":{"ID":282983,"DIS_CODE":0,"TOWNNAME":"新化區","LI":"豐榮里","LIN":"2鄰","STREET":" ","SECT":" ","MAREA":"洋子","LANE":" ","ALLEY":" ","HOUSE_NO":"３７號","E_COORD97":178105.63,"N_COORD97":2548224.25,"ADDRESS":"洋子３７號","OBJECTID":282977},"geometry":{"x":178105.63000000082,"y":2548224.2500000019}},{"attributes":{"ID":282984,"DIS_CODE":0,"TOWNNAME":"新化區","LI":"豐榮里","LIN":"2鄰","STREET":" ","SECT":" ","MAREA":"洋子","LANE":" ","ALLEY":" ","HOUSE_NO":"３０號","E_COORD97":178084.73000000001,"N_COORD97":2548302.25,"ADDRESS":"洋子３０號","OBJECTID":282978},"geometry":{"x":178084.73000000045,"y":2548302.2500000019}},{"attributes":{"ID":282985,"DIS_CODE":0,"TOWNNAME":"永康區","LI":"正強里","LIN":"30鄰","STREET":"中正路","SECT":" ","MAREA":" ","LANE":"２０９巷","ALLEY":" ","HOUSE_NO":"７７號","E_COORD97":173151.73999999999,"N_COORD97":2547718.9900000002,"ADDRESS":"中正路２０９巷７７號","OBJECTID":282979},"geometry":{"x":173151.74000000209,"y":2547718.9900000002}},{"attributes":{"ID":282986,"DIS_CODE":0,"TOWNNAME":"新化區","LI":"太平里","LIN":"2鄰","STREET":"建國街","SECT":" ","MAREA":" ","LANE":" ","ALLEY":" ","HOUSE_NO":"５２號","E_COORD97":179170.38,"N_COORD97":2548777.2599999998,"ADDRESS":"建國街５２號","OBJECTID":282980},"geometry":{"x":179170.38000000082,"y":2548777.2599999998}},{"attributes":{"ID":282987,"DIS_CODE":0,"TOWNNAME":"新化區","LI":"太平里","LIN":"2鄰","STREET":"忠孝路","SECT":" ","MAREA":" ","LANE":" ","ALLEY":" ","HOUSE_NO":"３６號之３","E_COORD97":179088.72,"N_COORD97":2548736.2599999998,"ADDRESS":"忠孝路３６號之３","OBJECTID":282981},"geometry":{"x":179088.71999999974,"y":2548736.2600000016}},{"attributes":{"ID":282988,"DIS_CODE":0,"TOWNNAME":"新化區","LI":"\u25A0拔里","LIN":"2鄰","STREET":" ","SECT":" ","MAREA":"\u25A0拔林","LANE":" ","ALLEY":" ","HOUSE_NO":"８６號之１","E_COORD97":183428.89999999999,"N_COORD97":2552067.2599999998,"ADDRESS":"\u25A0拔林８６號之１","OBJECTID":282982},"geometry":{"x":183428.9000000013,"y":2552067.2599999998}},{"attributes":{"ID":282989,"DIS_CODE":0,"TOWNNAME":"新化區","LI":"\u25A0拔里","LIN":"2鄰","STREET":" ","SECT":" ","MAREA":"\u25A0拔林","LANE":" ","ALLEY":" ","HOUSE_NO":"８１號之５","E_COORD97":183465.42999999999,"N_COORD97":2552075.2599999998,"ADDRESS":"\u25A0拔林８１號之５","OBJECTID":282983},"geometry":{"x":183465.43000000063,"y":2552075.2600000016}},{"attributes":{"ID":282990,"DIS_CODE":0,"TOWNNAME":"新化區","LI":"知義里","LIN":"2鄰","STREET":" ","SECT":" ","MAREA":"知母義","LANE":" ","ALLEY":" ","HOUSE_NO":"１３７號之１","E_COORD97":179805.04999999999,"N_COORD97":2547036.2599999998,"ADDRESS":"知母義１３７號之１","OBJECTID":282984},"geometry":{"x":179805.05000000075,"y":2547036.2600000035}},{"attributes":{"ID":282991,"DIS_CODE":0,"TOWNNAME":"新化區","LI":"\u25A0拔里","LIN":"2鄰","STREET":" ","SECT":" ","MAREA":"\u25A0拔林","LANE":" ","ALLEY":" ","HOUSE_NO":"９７號","E_COORD97":183545.87,"N_COORD97":2552171.25,"ADDRESS":"\u25A0拔林９７號","OBJECTID":282985},"geometry":{"x":183545.87000000104,"y":2552171.2500000019}},{"attributes":{"ID":282992,"DIS_CODE":0,"TOWNNAME":"新化區","LI":"\u25A0拔里","LIN":"2鄰","STREET":" ","SECT":" ","MAREA":"\u25A0拔林","LANE":" ","ALLEY":" ","HOUSE_NO":"７９號之３","E_COORD97":183516.82000000001,"N_COORD97":2552064.2599999998,"ADDRESS":"\u25A0拔林７９號之３","OBJECTID":282986},"geometry":{"x":183516.8200000003,"y":2552064.2600000035}},{"attributes":{"ID":282993,"DIS_CODE":0,"TOWNNAME":"北區","LI":"大港里","LIN":"30鄰","STREET":"賢北街","SECT":" ","MAREA":" ","LANE":"１９５巷","ALLEY":" ","HOUSE_NO":"１６號","E_COORD97":166154.82999999999,"N_COORD97":2545577.1000000001,"ADDRESS":"賢北街１９５巷１６號","OBJECTID":282987},"geometry":{"x":166154.83000000194,"y":2545577.1000000015}},{"attributes":{"ID":282994,"DIS_CODE":0,"TOWNNAME":"新化區","LI":"\u25A0拔里","LIN":"2鄰","STREET":" ","SECT":" ","MAREA":"\u25A0拔林","LANE":" ","ALLEY":" ","HOUSE_NO":"７７號之１","E_COORD97":183538.39999999999,"N_COORD97":2552031.2599999998,"ADDRESS":"\u25A0拔林７７號之１","OBJECTID":282988},"geometry":{"x":183538.40000000037,"y":2552031.2600000016}},{"attributes":{"ID":282995,"DIS_CODE":0,"TOWNNAME":"新化區","LI":"\u25A0拔里","LIN":"2鄰","STREET":" ","SECT":" ","MAREA":"\u25A0拔林","LANE":" ","ALLEY":" ","HOUSE_NO":"９２號之１","E_COORD97":183432.29999999999,"N_COORD97":2552108.2599999998,"ADDRESS":"\u25A0拔林９２號之１","OBJECTID":282989},"geometry":{"x":183432.30000000168,"y":2552108.2600000035}},{"attributes":{"ID":282996,"DIS_CODE":0,"TOWNNAME":"北區","LI":"大港里","LIN":"30鄰","STREET":"賢北街","SECT":" ","MAREA":" ","LANE":"１９５巷","ALLEY":" ","HOUSE_NO":"１８號","E_COORD97":166150.16,"N_COORD97":2545574.8199999998,"ADDRESS":"賢北街１９５巷１８號","OBJECTID":282990},"geometry":{"x":166150.16000000108,"y":2545574.8200000003}},{"attributes":{"ID":282997,"DIS_CODE":0,"TOWNNAME":"新化區","LI":"唪口里","LIN":"2鄰","STREET":"大德路","SECT":" ","MAREA":" ","LANE":" ","ALLEY":" ","HOUSE_NO":"９６號之３","E_COORD97":178158.82999999999,"N_COORD97":2549453.2599999998,"ADDRESS":"大德路９６號之３","OBJECTID":282991},"geometry":{"x":178158.83000000101,"y":2549453.2599999998}},{"attributes":{"ID":282998,"DIS_CODE":0,"TOWNNAME":"北區","LI":"大港里","LIN":"30鄰","STREET":"賢北街","SECT":" ","MAREA":" ","LANE":"１９５巷","ALLEY":" ","HOUSE_NO":"２０號","E_COORD97":166144.95000000001,"N_COORD97":2545572.1800000002,"ADDRESS":"賢北街１９５巷２０號","OBJECTID":282992},"geometry":{"x":166144.95000000019,"y":2545572.1800000034}},{"attributes":{"ID":282999,"DIS_CODE":0,"TOWNNAME":"北區","LI":"大港里","LIN":"30鄰","STREET":"賢北街","SECT":" ","MAREA":" ","LANE":"１９５巷","ALLEY":" ","HOUSE_NO":"２１７號","E_COORD97":166112.35000000001,"N_COORD97":2545552.4500000002,"ADDRESS":"賢北街１９５巷２１７號","OBJECTID":282993},"geometry":{"x":166112.35000000056,"y":2545552.4499999993}},{"attributes":{"ID":283000,"DIS_CODE":0,"TOWNNAME":"北區","LI":"大港里","LIN":"30鄰","STREET":"賢北街","SECT":" ","MAREA":" ","LANE":"１９５巷","ALLEY":" ","HOUSE_NO":"２１９號","E_COORD97":166108.39999999999,"N_COORD97":2545550.3399999999,"ADDRESS":"賢北街１９５巷２１９號","OBJECTID":282994},"geometry":{"x":166108.40000000037,"y":2545550.3399999999}},{"attributes":{"ID":283001,"DIS_CODE":0,"TOWNNAME":"北區","LI":"大港里","LIN":"30鄰","STREET":"賢北街","SECT":" ","MAREA":" ","LANE":"１９５巷","ALLEY":" ","HOUSE_NO":"２２３號","E_COORD97":166097.98000000001,"N_COORD97":2545544.7200000002,"ADDRESS":"賢北街１９５巷２２３號","OBJECTID":282995},"geometry":{"x":166097.98000000045,"y":2545544.7200000007}},{"attributes":{"ID":283002,"DIS_CODE":0,"TOWNNAME":"北區","LI":"大港里","LIN":"30鄰","STREET":"賢北街","SECT":" ","MAREA":" ","LANE":"１９５巷","ALLEY":" ","HOUSE_NO":"２２５號","E_COORD97":166093.48999999999,"N_COORD97":2545542.4300000002,"ADDRESS":"賢北街１９５巷２２５號","OBJECTID":282996},"geometry":{"x":166093.49000000115,"y":2545542.4299999997}},{"attributes":{"ID":283003,"DIS_CODE":0,"TOWNNAME":"北區","LI":"大港里","LIN":"30鄰","STREET":"賢北街","SECT":" ","MAREA":" ","LANE":"１９５巷","ALLEY":" ","HOUSE_NO":"２２７號","E_COORD97":166088.10000000001,"N_COORD97":2545539.9700000002,"ADDRESS":"賢北街１９５巷２２７號","OBJECTID":282997},"geometry":{"x":166088.10000000149,"y":2545539.9700000007}},{"attributes":{"ID":283004,"DIS_CODE":0,"TOWNNAME":"北區","LI":"大港里","LIN":"30鄰","STREET":"賢北街","SECT":" ","MAREA":" ","LANE":"１９５巷","ALLEY":" ","HOUSE_NO":"２２９號","E_COORD97":166085.23000000001,"N_COORD97":2545538.2200000002,"ADDRESS":"賢北街１９５巷２２９號","OBJECTID":282998},"geometry":{"x":166085.23000000138,"y":2545538.2200000007}},{"attributes":{"ID":283005,"DIS_CODE":0,"TOWNNAME":"北區","LI":"大港里","LIN":"30鄰","STREET":"賢北街","SECT":" ","MAREA":" ","LANE":"１９５巷","ALLEY":" ","HOUSE_NO":"２２號","E_COORD97":166139.20999999999,"N_COORD97":2545569.3700000001,"ADDRESS":"賢北街１９５巷２２號","OBJECTID":282999},"geometry":{"x":166139.21000000089,"y":2545569.3700000029}},{"attributes":{"ID":283006,"DIS_CODE":0,"TOWNNAME":"北區","LI":"大港里","LIN":"30鄰","STREET":"賢北街","SECT":" ","MAREA":" ","LANE":"１９５巷","ALLEY":" ","HOUSE_NO":"２３１號","E_COORD97":166081.81,"N_COORD97":2545535.9300000002,"ADDRESS":"賢北街１９５巷２３１號","OBJECTID":283000},"geometry":{"x":166081.81000000052,"y":2545535.9299999997}}]}