{"displayFieldName":"TOWNNAME","fieldAliases":{"ID":"ID","DIS_CODE":"DIS_CODE","TOWNNAME":"TOWNNAME","LI":"LI","LIN":"LIN","STREET":"STREET","SECT":"SECT","MAREA":"MAREA","LANE":"LANE","ALLEY":"ALLEY","HOUSE_NO":"HOUSE_NO","E_COORD97":"E_COORD97","N_COORD97":"N_COORD97","ADDRESS":"ADDRESS","OBJECTID":"OBJECTID"},"geometryType":"esriGeometryPoint","spatialReference":{"wkid":102443,"latestWkid":3826},"fields":[{"name":"ID","type":"esriFieldTypeDouble","alias":"ID"},{"name":"DIS_CODE","type":"esriFieldTypeInteger","alias":"DIS_CODE"},{"name":"TOWNNAME","type":"esriFieldTypeString","alias":"TOWNNAME","length":8},{"name":"LI","type":"esriFieldTypeString","alias":"LI","length":8},{"name":"LIN","type":"esriFieldTypeString","alias":"LIN","length":12},{"name":"STREET","type":"esriFieldTypeString","alias":"STREET","length":20},{"name":"SECT","type":"esriFieldTypeString","alias":"SECT","length":8},{"name":"MAREA","type":"esriFieldTypeString","alias":"MAREA","length":12},{"name":"LANE","type":"esriFieldTypeString","alias":"LANE","length":10},{"name":"ALLEY","type":"esriFieldTypeString","alias":"ALLEY","length":10},{"name":"HOUSE_NO","type":"esriFieldTypeString","alias":"HOUSE_NO","length":20},{"name":"E_COORD97","type":"esriFieldTypeDouble","alias":"E_COORD97"},{"name":"N_COORD97","type":"esriFieldTypeDouble","alias":"N_COORD97"},{"name":"ADDRESS","type":"esriFieldTypeString","alias":"ADDRESS","length":50},{"name":"OBJECTID","type":"esriFieldTypeOID","alias":"OBJECTID"}],"features":[{"attributes":{"ID":136001,"DIS_CODE":0,"TOWNNAME":"安平區","LI":"海頭里","LIN":"6鄰","STREET":"中興街","SECT":" ","MAREA":" ","LANE":" ","ALLEY":" ","HOUSE_NO":"１０號","E_COORD97":164302.89999999999,"N_COORD97":2544676.8399999999,"ADDRESS":"中興街１０號","OBJECTID":136001},"geometry":{"x":164302.90000000037,"y":2544676.8400000017}},{"attributes":{"ID":136002,"DIS_CODE":0,"TOWNNAME":"安平區","LI":"海頭里","LIN":"6鄰","STREET":"中興街","SECT":" ","MAREA":" ","LANE":" ","ALLEY":" ","HOUSE_NO":"１０號之１","E_COORD97":164297.57999999999,"N_COORD97":2544678.3599999999,"ADDRESS":"中興街１０號之１","OBJECTID":136002},"geometry":{"x":164297.58000000101,"y":2544678.3599999994}},{"attributes":{"ID":136003,"DIS_CODE":0,"TOWNNAME":"安平區","LI":"海頭里","LIN":"6鄰","STREET":"平生路","SECT":" ","MAREA":" ","LANE":" ","ALLEY":" ","HOUSE_NO":"７３號","E_COORD97":164333.22,"N_COORD97":2544676.4100000001,"ADDRESS":"平生路７３號","OBJECTID":136003},"geometry":{"x":164333.22000000067,"y":2544676.410000002}},{"attributes":{"ID":136004,"DIS_CODE":0,"TOWNNAME":"安平區","LI":"海頭里","LIN":"6鄰","STREET":"平生路","SECT":" ","MAREA":" ","LANE":" ","ALLEY":" ","HOUSE_NO":"７５號","E_COORD97":164333.56,"N_COORD97":2544681.6600000001,"ADDRESS":"平生路７５號","OBJECTID":136004},"geometry":{"x":164333.55999999959,"y":2544681.660000002}},{"attributes":{"ID":136005,"DIS_CODE":0,"TOWNNAME":"安平區","LI":"海頭里","LIN":"6鄰","STREET":"平生路","SECT":" ","MAREA":" ","LANE":" ","ALLEY":" ","HOUSE_NO":"７７號","E_COORD97":164334.32000000001,"N_COORD97":2544686.3500000001,"ADDRESS":"平生路７７號","OBJECTID":136005},"geometry":{"x":164334.3200000003,"y":2544686.3500000015}},{"attributes":{"ID":136006,"DIS_CODE":0,"TOWNNAME":"安平區","LI":"海頭里","LIN":"6鄰","STREET":"平生路","SECT":" ","MAREA":" ","LANE":" ","ALLEY":" ","HOUSE_NO":"７９號","E_COORD97":164334.95000000001,"N_COORD97":2544690.8399999999,"ADDRESS":"平生路７９號","OBJECTID":136006},"geometry":{"x":164334.95000000019,"y":2544690.8400000017}},{"attributes":{"ID":136007,"DIS_CODE":0,"TOWNNAME":"安平區","LI":"海頭里","LIN":"6鄰","STREET":"平生路","SECT":" ","MAREA":" ","LANE":" ","ALLEY":" ","HOUSE_NO":"８１號","E_COORD97":164338.10999999999,"N_COORD97":2544694.9399999999,"ADDRESS":"平生路８１號","OBJECTID":136007},"geometry":{"x":164338.11000000127,"y":2544694.9399999995}},{"attributes":{"ID":136008,"DIS_CODE":0,"TOWNNAME":"佳里區","LI":"建南里","LIN":" ","STREET":"義民街","SECT":" ","MAREA":" ","LANE":" ","ALLEY":" ","HOUSE_NO":"２９８號","E_COORD97":165626.37,"N_COORD97":2562364.1400000001,"ADDRESS":"義民街２９８號","OBJECTID":136008},"geometry":{"x":165626.37000000104,"y":2562364.1400000025}},{"attributes":{"ID":136009,"DIS_CODE":0,"TOWNNAME":"佳里區","LI":"安西里","LIN":" ","STREET":"義民街","SECT":" ","MAREA":" ","LANE":" ","ALLEY":" ","HOUSE_NO":"３１２號","E_COORD97":165356.41,"N_COORD97":2562403.3100000001,"ADDRESS":"義民街３１２號","OBJECTID":136009},"geometry":{"x":165356.41000000108,"y":2562403.3100000024}},{"attributes":{"ID":136010,"DIS_CODE":0,"TOWNNAME":"佳里區","LI":"東寧里","LIN":" ","STREET":"義民街","SECT":" ","MAREA":" ","LANE":" ","ALLEY":" ","HOUSE_NO":"６７號","E_COORD97":165974.48999999999,"N_COORD97":2562419.75,"ADDRESS":"義民街６７號","OBJECTID":136010},"geometry":{"x":165974.49000000115,"y":2562419.7500000019}},{"attributes":{"ID":136011,"DIS_CODE":0,"TOWNNAME":"佳里區","LI":"東寧里","LIN":"4鄰","STREET":"義民街","SECT":" ","MAREA":" ","LANE":" ","ALLEY":" ","HOUSE_NO":"１５７號","E_COORD97":165743.29999999999,"N_COORD97":2562407.1400000001,"ADDRESS":"義民街１５７號","OBJECTID":136011},"geometry":{"x":165743.30000000075,"y":2562407.1400000025}},{"attributes":{"ID":136012,"DIS_CODE":0,"TOWNNAME":"安南區","LI":"\u25A0田里","LIN":"4鄰","STREET":"\u25A0田五街","SECT":" ","MAREA":" ","LANE":" ","ALLEY":" ","HOUSE_NO":"８７號","E_COORD97":162495.67999999999,"N_COORD97":2548194.0099999998,"ADDRESS":"\u25A0田五街８７號","OBJECTID":136012},"geometry":{"x":162495.68000000156,"y":2548194.0100000035}},{"attributes":{"ID":136013,"DIS_CODE":0,"TOWNNAME":"後壁區","LI":"長安里","LIN":" ","STREET":" ","SECT":" ","MAREA":"中寮","LANE":" ","ALLEY":" ","HOUSE_NO":"８１之１號","E_COORD97":184260.95999999999,"N_COORD97":2581149.1800000002,"ADDRESS":"中寮８１之１號","OBJECTID":136013},"geometry":{"x":184260.96000000089,"y":2581149.1799999997}},{"attributes":{"ID":136014,"DIS_CODE":0,"TOWNNAME":"後壁區","LI":"長安里","LIN":" ","STREET":" ","SECT":" ","MAREA":"中寮","LANE":" ","ALLEY":" ","HOUSE_NO":"８８之２號","E_COORD97":184225.25,"N_COORD97":2581131.5099999998,"ADDRESS":"中寮８８之２號","OBJECTID":136014},"geometry":{"x":184225.25,"y":2581131.5100000035}},{"attributes":{"ID":136015,"DIS_CODE":0,"TOWNNAME":"後壁區","LI":"長安里","LIN":" ","STREET":" ","SECT":" ","MAREA":"中寮","LANE":" ","ALLEY":" ","HOUSE_NO":"９１號","E_COORD97":184187.76000000001,"N_COORD97":2581103.2799999998,"ADDRESS":"中寮９１號","OBJECTID":136015},"geometry":{"x":184187.75999999978,"y":2581103.2800000012}},{"attributes":{"ID":136016,"DIS_CODE":0,"TOWNNAME":"後壁區","LI":"長安里","LIN":" ","STREET":" ","SECT":" ","MAREA":"中寮","LANE":" ","ALLEY":" ","HOUSE_NO":"９２之１號","E_COORD97":184173.10000000001,"N_COORD97":2581110.8900000001,"ADDRESS":"中寮９２之１號","OBJECTID":136016},"geometry":{"x":184173.10000000056,"y":2581110.8900000025}},{"attributes":{"ID":136017,"DIS_CODE":0,"TOWNNAME":"後壁區","LI":"長安里","LIN":" ","STREET":" ","SECT":" ","MAREA":"中寮","LANE":" ","ALLEY":" ","HOUSE_NO":"９７之１號","E_COORD97":184219.17000000001,"N_COORD97":2581245.4399999999,"ADDRESS":"中寮９７之１號","OBJECTID":136017},"geometry":{"x":184219.16999999993,"y":2581245.4399999995}},{"attributes":{"ID":136018,"DIS_CODE":0,"TOWNNAME":"後壁區","LI":"長安里","LIN":" ","STREET":" ","SECT":" ","MAREA":"中寮","LANE":" ","ALLEY":" ","HOUSE_NO":"９８之７號","E_COORD97":184273.73000000001,"N_COORD97":2581281.52,"ADDRESS":"中寮９８之７號","OBJECTID":136018},"geometry":{"x":184273.73000000045,"y":2581281.5200000014}},{"attributes":{"ID":136019,"DIS_CODE":0,"TOWNNAME":"後壁區","LI":"嘉苳里","LIN":" ","STREET":" ","SECT":" ","MAREA":"本協","LANE":" ","ALLEY":" ","HOUSE_NO":"１１號","E_COORD97":187113.23999999999,"N_COORD97":2583523.02,"ADDRESS":"本協１１號","OBJECTID":136019},"geometry":{"x":187113.24000000209,"y":2583523.0200000014}},{"attributes":{"ID":136020,"DIS_CODE":0,"TOWNNAME":"南區","LI":"明亮里","LIN":"27鄰","STREET":"金華路","SECT":"一段","MAREA":" ","LANE":"４８４巷","ALLEY":"８６弄","HOUSE_NO":"１０號","E_COORD97":167175.85000000001,"N_COORD97":2541384.2400000002,"ADDRESS":"金華路一段４８４巷８６弄１０號","OBJECTID":136020},"geometry":{"x":167175.84999999963,"y":2541384.2400000002}},{"attributes":{"ID":136021,"DIS_CODE":0,"TOWNNAME":"南區","LI":"明亮里","LIN":"27鄰","STREET":"金華路","SECT":"一段","MAREA":" ","LANE":"４８４巷","ALLEY":"８６弄","HOUSE_NO":"１１號","E_COORD97":167182.25,"N_COORD97":2541375.6200000001,"ADDRESS":"金華路一段４８４巷８６弄１１號","OBJECTID":136021},"geometry":{"x":167182.25,"y":2541375.620000001}},{"attributes":{"ID":136022,"DIS_CODE":0,"TOWNNAME":"南區","LI":"明亮里","LIN":"27鄰","STREET":"金華路","SECT":"一段","MAREA":" ","LANE":"４８４巷","ALLEY":"８６弄","HOUSE_NO":"１２號","E_COORD97":167173.62,"N_COORD97":2541381.04,"ADDRESS":"金華路一段４８４巷８６弄１２號","OBJECTID":136022},"geometry":{"x":167173.62000000104,"y":2541381.0399999991}},{"attributes":{"ID":136023,"DIS_CODE":0,"TOWNNAME":"南區","LI":"明亮里","LIN":"27鄰","STREET":"金華路","SECT":"一段","MAREA":" ","LANE":"４８４巷","ALLEY":"８６弄","HOUSE_NO":"１３號","E_COORD97":167180.32999999999,"N_COORD97":2541372.1000000001,"ADDRESS":"金華路一段４８４巷８６弄１３號","OBJECTID":136023},"geometry":{"x":167180.33000000007,"y":2541372.1000000034}},{"attributes":{"ID":136024,"DIS_CODE":0,"TOWNNAME":"南區","LI":"明亮里","LIN":"27鄰","STREET":"金華路","SECT":"一段","MAREA":" ","LANE":"４８４巷","ALLEY":"８６弄","HOUSE_NO":"１４號","E_COORD97":167170.73999999999,"N_COORD97":2541377.21,"ADDRESS":"金華路一段４８４巷８６弄１４號","OBJECTID":136024},"geometry":{"x":167170.74000000022,"y":2541377.2100000028}},{"attributes":{"ID":136025,"DIS_CODE":0,"TOWNNAME":"南區","LI":"明亮里","LIN":"27鄰","STREET":"金華路","SECT":"一段","MAREA":" ","LANE":"４８４巷","ALLEY":"８６弄","HOUSE_NO":"１５號","E_COORD97":167178.41,"N_COORD97":2541368.5899999999,"ADDRESS":"金華路一段４８４巷８６弄１５號","OBJECTID":136025},"geometry":{"x":167178.41000000201,"y":2541368.589999998}},{"attributes":{"ID":136026,"DIS_CODE":0,"TOWNNAME":"南區","LI":"明亮里","LIN":"27鄰","STREET":"金華路","SECT":"一段","MAREA":" ","LANE":"４８４巷","ALLEY":"８６弄","HOUSE_NO":"１６號","E_COORD97":167169.45999999999,"N_COORD97":2541373.7000000002,"ADDRESS":"金華路一段４８４巷８６弄１６號","OBJECTID":136026},"geometry":{"x":167169.46000000089,"y":2541373.6999999993}},{"attributes":{"ID":136027,"DIS_CODE":0,"TOWNNAME":"南區","LI":"明亮里","LIN":"27鄰","STREET":"金華路","SECT":"一段","MAREA":" ","LANE":"４８４巷","ALLEY":"８６弄","HOUSE_NO":"１７號","E_COORD97":167177.13,"N_COORD97":2541364.7599999998,"ADDRESS":"金華路一段４８４巷８６弄１７號","OBJECTID":136027},"geometry":{"x":167177.13000000082,"y":2541364.7600000016}},{"attributes":{"ID":136028,"DIS_CODE":0,"TOWNNAME":"南區","LI":"明亮里","LIN":"27鄰","STREET":"金華路","SECT":"一段","MAREA":" ","LANE":"４８４巷","ALLEY":"８６弄","HOUSE_NO":"１８號","E_COORD97":167167.85999999999,"N_COORD97":2541370.8199999998,"ADDRESS":"金華路一段４８４巷８６弄１８號","OBJECTID":136028},"geometry":{"x":167167.86000000034,"y":2541370.8200000003}},{"attributes":{"ID":136029,"DIS_CODE":0,"TOWNNAME":"南區","LI":"明亮里","LIN":"27鄰","STREET":"金華路","SECT":"一段","MAREA":" ","LANE":"４８４巷","ALLEY":"８６弄","HOUSE_NO":"１９號","E_COORD97":167174.89999999999,"N_COORD97":2541362.2000000002,"ADDRESS":"金華路一段４８４巷８６弄１９號","OBJECTID":136029},"geometry":{"x":167174.90000000037,"y":2541362.2000000011}},{"attributes":{"ID":136030,"DIS_CODE":0,"TOWNNAME":"南區","LI":"明亮里","LIN":"27鄰","STREET":"金華路","SECT":"一段","MAREA":" ","LANE":"４８４巷","ALLEY":"８６弄","HOUSE_NO":"２０號","E_COORD97":167165.62,"N_COORD97":2541368.27,"ADDRESS":"金華路一段４８４巷８６弄２０號","OBJECTID":136030},"geometry":{"x":167165.62000000104,"y":2541368.2700000014}},{"attributes":{"ID":136031,"DIS_CODE":0,"TOWNNAME":"南區","LI":"明亮里","LIN":"27鄰","STREET":"金華路","SECT":"一段","MAREA":" ","LANE":"４８４巷","ALLEY":"８６弄","HOUSE_NO":"２１號","E_COORD97":167172.66,"N_COORD97":2541358.0499999998,"ADDRESS":"金華路一段４８４巷８６弄２１號","OBJECTID":136031},"geometry":{"x":167172.66000000015,"y":2541358.0500000026}},{"attributes":{"ID":136032,"DIS_CODE":0,"TOWNNAME":"南區","LI":"明亮里","LIN":"27鄰","STREET":"金華路","SECT":"一段","MAREA":" ","LANE":"４８４巷","ALLEY":"８６弄","HOUSE_NO":"２２號","E_COORD97":167163.38,"N_COORD97":2541363.7999999998,"ADDRESS":"金華路一段４８４巷８６弄２２號","OBJECTID":136032},"geometry":{"x":167163.38000000082,"y":2541363.8000000007}},{"attributes":{"ID":136033,"DIS_CODE":0,"TOWNNAME":"後壁區","LI":"新嘉里","LIN":" ","STREET":" ","SECT":" ","MAREA":"白沙屯","LANE":" ","ALLEY":" ","HOUSE_NO":"１１號","E_COORD97":179842.42999999999,"N_COORD97":2585892.7400000002,"ADDRESS":"白沙屯１１號","OBJECTID":136033},"geometry":{"x":179842.43000000156,"y":2585892.7400000002}},{"attributes":{"ID":136034,"DIS_CODE":0,"TOWNNAME":"南區","LI":"明亮里","LIN":"27鄰","STREET":"金華路","SECT":"一段","MAREA":" ","LANE":"４８４巷","ALLEY":"８６弄","HOUSE_NO":"２３號","E_COORD97":167171.70000000001,"N_COORD97":2541354.54,"ADDRESS":"金華路一段４８４巷８６弄２３號","OBJECTID":136034},"geometry":{"x":167171.70000000112,"y":2541354.5399999972}},{"attributes":{"ID":136035,"DIS_CODE":0,"TOWNNAME":"南區","LI":"明亮里","LIN":"27鄰","STREET":"金華路","SECT":"一段","MAREA":" ","LANE":"４８４巷","ALLEY":"８６弄","HOUSE_NO":"２４號","E_COORD97":167161.45999999999,"N_COORD97":2541360.6000000001,"ADDRESS":"金華路一段４８４巷８６弄２４號","OBJECTID":136035},"geometry":{"x":167161.46000000089,"y":2541360.5999999996}},{"attributes":{"ID":136036,"DIS_CODE":0,"TOWNNAME":"南區","LI":"明亮里","LIN":"27鄰","STREET":"金華路","SECT":"一段","MAREA":" ","LANE":"４８４巷","ALLEY":"８６弄","HOUSE_NO":"２５號","E_COORD97":167170.73999999999,"N_COORD97":2541350.0699999998,"ADDRESS":"金華路一段４８４巷８６弄２５號","OBJECTID":136036},"geometry":{"x":167170.74000000022,"y":2541350.0700000022}},{"attributes":{"ID":136037,"DIS_CODE":0,"TOWNNAME":"南區","LI":"明亮里","LIN":"27鄰","STREET":"金華路","SECT":"一段","MAREA":" ","LANE":"４８４巷","ALLEY":"８６弄","HOUSE_NO":"２６號","E_COORD97":167157.95000000001,"N_COORD97":2541357.0899999999,"ADDRESS":"金華路一段４８４巷８６弄２６號","OBJECTID":136037},"geometry":{"x":167157.95000000112,"y":2541357.0899999999}},{"attributes":{"ID":136038,"DIS_CODE":0,"TOWNNAME":"南區","LI":"明亮里","LIN":"27鄰","STREET":"金華路","SECT":"一段","MAREA":" ","LANE":"４８４巷","ALLEY":"８６弄","HOUSE_NO":"２７號","E_COORD97":167168.17999999999,"N_COORD97":2541347.5099999998,"ADDRESS":"金華路一段４８４巷８６弄２７號","OBJECTID":136038},"geometry":{"x":167168.18000000063,"y":2541347.5099999998}},{"attributes":{"ID":136039,"DIS_CODE":0,"TOWNNAME":"南區","LI":"明亮里","LIN":"27鄰","STREET":"金華路","SECT":"一段","MAREA":" ","LANE":"４８４巷","ALLEY":"８６弄","HOUSE_NO":"２８號","E_COORD97":167154.48999999999,"N_COORD97":2541347.8999999999,"ADDRESS":"金華路一段４８４巷８６弄２８號","OBJECTID":136039},"geometry":{"x":167154.49000000115,"y":2541347.9000000022}},{"attributes":{"ID":136040,"DIS_CODE":0,"TOWNNAME":"南區","LI":"明亮里","LIN":"27鄰","STREET":"金華路","SECT":"一段","MAREA":" ","LANE":"４８４巷","ALLEY":"８６弄","HOUSE_NO":"２９號","E_COORD97":167165.62,"N_COORD97":2541344.96,"ADDRESS":"金華路一段４８４巷８６弄２９號","OBJECTID":136040},"geometry":{"x":167165.62000000104,"y":2541344.9600000028}},{"attributes":{"ID":136041,"DIS_CODE":0,"TOWNNAME":"南區","LI":"明亮里","LIN":"27鄰","STREET":"金華路","SECT":"一段","MAREA":" ","LANE":"４８４巷","ALLEY":"８６弄","HOUSE_NO":"３１號","E_COORD97":167162.73999999999,"N_COORD97":2541340.7999999998,"ADDRESS":"金華路一段４８４巷８６弄３１號","OBJECTID":136041},"geometry":{"x":167162.74000000115,"y":2541340.8000000007}},{"attributes":{"ID":136042,"DIS_CODE":0,"TOWNNAME":"南區","LI":"明亮里","LIN":"27鄰","STREET":"金華路","SECT":"一段","MAREA":" ","LANE":"４８４巷","ALLEY":"８６弄","HOUSE_NO":"３３號","E_COORD97":167160.82000000001,"N_COORD97":2541338.25,"ADDRESS":"金華路一段４８４巷８６弄３３號","OBJECTID":136042},"geometry":{"x":167160.82000000123,"y":2541338.2500000019}},{"attributes":{"ID":136043,"DIS_CODE":0,"TOWNNAME":"南區","LI":"明亮里","LIN":"27鄰","STREET":"金華路","SECT":"一段","MAREA":" ","LANE":"４８４巷","ALLEY":"８６弄","HOUSE_NO":"３５號","E_COORD97":167158.26999999999,"N_COORD97":2541334.4199999999,"ADDRESS":"金華路一段４８４巷８６弄３５號","OBJECTID":136043},"geometry":{"x":167158.27000000142,"y":2541334.4200000018}},{"attributes":{"ID":136044,"DIS_CODE":0,"TOWNNAME":"南區","LI":"明亮里","LIN":"27鄰","STREET":"金華路","SECT":"一段","MAREA":" ","LANE":"４８４巷","ALLEY":"８６弄","HOUSE_NO":"３７號","E_COORD97":167155.70999999999,"N_COORD97":2541330.8999999999,"ADDRESS":"金華路一段４８４巷８６弄３７號","OBJECTID":136044},"geometry":{"x":167155.71000000183,"y":2541330.9000000022}},{"attributes":{"ID":136045,"DIS_CODE":0,"TOWNNAME":"東區","LI":"小東里","LIN":"27鄰","STREET":"小東路","SECT":" ","MAREA":" ","LANE":"１９８巷","ALLEY":"４０弄","HOUSE_NO":"２７號","E_COORD97":170760.39999999999,"N_COORD97":2544358.1200000001,"ADDRESS":"小東路１９８巷４０弄２７號","OBJECTID":136045},"geometry":{"x":170760.40000000037,"y":2544358.1200000029}},{"attributes":{"ID":136046,"DIS_CODE":0,"TOWNNAME":"東區","LI":"小東里","LIN":"27鄰","STREET":"小東路","SECT":" ","MAREA":" ","LANE":"１９８巷","ALLEY":"４０弄","HOUSE_NO":"３４號","E_COORD97":170722.76999999999,"N_COORD97":2544367.71,"ADDRESS":"小東路１９８巷４０弄３４號","OBJECTID":136046},"geometry":{"x":170722.76999999955,"y":2544367.7100000028}},{"attributes":{"ID":136047,"DIS_CODE":0,"TOWNNAME":"東區","LI":"泉南里","LIN":"27鄰","STREET":"府連路","SECT":" ","MAREA":" ","LANE":"２６０巷","ALLEY":"２弄","HOUSE_NO":"１９號之１","E_COORD97":169435.28,"N_COORD97":2542777.0899999999,"ADDRESS":"府連路２６０巷２弄１９號之１","OBJECTID":136047},"geometry":{"x":169435.28000000026,"y":2542777.0900000017}},{"attributes":{"ID":136048,"DIS_CODE":0,"TOWNNAME":"新市區","LI":"新市里","LIN":"27鄰","STREET":"復興路","SECT":" ","MAREA":" ","LANE":"６巷","ALLEY":"１９弄","HOUSE_NO":"１３號","E_COORD97":177878.84,"N_COORD97":2553394.0299999998,"ADDRESS":"復興路６巷１９弄１３號","OBJECTID":136048},"geometry":{"x":177878.84000000078,"y":2553394.0299999993}},{"attributes":{"ID":136049,"DIS_CODE":0,"TOWNNAME":"麻豆區","LI":"港尾里","LIN":"6鄰","STREET":" ","SECT":" ","MAREA":"港子尾","LANE":" ","ALLEY":" ","HOUSE_NO":"１４號","E_COORD97":168656.66,"N_COORD97":2567150.7799999998,"ADDRESS":"港子尾１４號","OBJECTID":136049},"geometry":{"x":168656.66000000108,"y":2567150.7800000031}},{"attributes":{"ID":136050,"DIS_CODE":0,"TOWNNAME":"麻豆區","LI":"港尾里","LIN":"6鄰","STREET":" ","SECT":" ","MAREA":"港子尾","LANE":" ","ALLEY":" ","HOUSE_NO":"１５之１號","E_COORD97":168696.31,"N_COORD97":2567152.8999999999,"ADDRESS":"港子尾１５之１號","OBJECTID":136050},"geometry":{"x":168696.31000000052,"y":2567152.9000000004}},{"attributes":{"ID":136051,"DIS_CODE":0,"TOWNNAME":"麻豆區","LI":"港尾里","LIN":"6鄰","STREET":" ","SECT":" ","MAREA":"港子尾","LANE":" ","ALLEY":" ","HOUSE_NO":"１５號之２","E_COORD97":168639.73000000001,"N_COORD97":2567181.02,"ADDRESS":"港子尾１５號之２","OBJECTID":136051},"geometry":{"x":168639.73000000138,"y":2567181.0200000014}},{"attributes":{"ID":136052,"DIS_CODE":0,"TOWNNAME":"麻豆區","LI":"港尾里","LIN":"6鄰","STREET":" ","SECT":" ","MAREA":"港子尾","LANE":" ","ALLEY":" ","HOUSE_NO":"１５號","E_COORD97":168597.76999999999,"N_COORD97":2567163.52,"ADDRESS":"港子尾１５號","OBJECTID":136052},"geometry":{"x":168597.77000000048,"y":2567163.5200000014}},{"attributes":{"ID":136053,"DIS_CODE":0,"TOWNNAME":"麻豆區","LI":"港尾里","LIN":"6鄰","STREET":" ","SECT":" ","MAREA":"港子尾","LANE":" ","ALLEY":" ","HOUSE_NO":"１６號之１","E_COORD97":168564.48000000001,"N_COORD97":2567134.6200000001,"ADDRESS":"港子尾１６號之１","OBJECTID":136053},"geometry":{"x":168564.48000000045,"y":2567134.6200000029}},{"attributes":{"ID":136054,"DIS_CODE":0,"TOWNNAME":"麻豆區","LI":"港尾里","LIN":"6鄰","STREET":" ","SECT":" ","MAREA":"港子尾","LANE":" ","ALLEY":" ","HOUSE_NO":"１６號之２","E_COORD97":168547.70999999999,"N_COORD97":2567145.1800000002,"ADDRESS":"港子尾１６號之２","OBJECTID":136054},"geometry":{"x":168547.71000000089,"y":2567145.1800000034}},{"attributes":{"ID":136055,"DIS_CODE":0,"TOWNNAME":"麻豆區","LI":"港尾里","LIN":"6鄰","STREET":" ","SECT":" ","MAREA":"港子尾","LANE":" ","ALLEY":" ","HOUSE_NO":"１６號之３","E_COORD97":168580.44,"N_COORD97":2567122.7799999998,"ADDRESS":"港子尾１６號之３","OBJECTID":136055},"geometry":{"x":168580.44000000227,"y":2567122.7799999993}},{"attributes":{"ID":136056,"DIS_CODE":0,"TOWNNAME":"麻豆區","LI":"港尾里","LIN":"6鄰","STREET":" ","SECT":" ","MAREA":"港子尾","LANE":" ","ALLEY":" ","HOUSE_NO":"１６號","E_COORD97":168568.70000000001,"N_COORD97":2567152.6099999999,"ADDRESS":"港子尾１６號","OBJECTID":136056},"geometry":{"x":168568.70000000112,"y":2567152.6100000013}},{"attributes":{"ID":136057,"DIS_CODE":0,"TOWNNAME":"麻豆區","LI":"港尾里","LIN":"6鄰","STREET":" ","SECT":" ","MAREA":"港子尾","LANE":" ","ALLEY":" ","HOUSE_NO":"２０號","E_COORD97":168523.89999999999,"N_COORD97":2567181.1400000001,"ADDRESS":"港子尾２０號","OBJECTID":136057},"geometry":{"x":168523.90000000037,"y":2567181.1400000025}},{"attributes":{"ID":136058,"DIS_CODE":0,"TOWNNAME":"麻豆區","LI":"港尾里","LIN":"6鄰","STREET":" ","SECT":" ","MAREA":"港子尾","LANE":" ","ALLEY":" ","HOUSE_NO":"２２號","E_COORD97":168505.37,"N_COORD97":2567178.4500000002,"ADDRESS":"港子尾２２號","OBJECTID":136058},"geometry":{"x":168505.37000000011,"y":2567178.4499999993}},{"attributes":{"ID":136059,"DIS_CODE":0,"TOWNNAME":"麻豆區","LI":"港尾里","LIN":"6鄰","STREET":" ","SECT":" ","MAREA":"港子尾","LANE":" ","ALLEY":" ","HOUSE_NO":"２３號","E_COORD97":168507.67000000001,"N_COORD97":2567199.54,"ADDRESS":"港子尾２３號","OBJECTID":136059},"geometry":{"x":168507.67000000086,"y":2567199.5400000028}},{"attributes":{"ID":136060,"DIS_CODE":0,"TOWNNAME":"麻豆區","LI":"港尾里","LIN":"6鄰","STREET":" ","SECT":" ","MAREA":"港子尾","LANE":" ","ALLEY":" ","HOUSE_NO":"２４號之１","E_COORD97":168543.73000000001,"N_COORD97":2567217.4700000002,"ADDRESS":"港子尾２４號之１","OBJECTID":136060},"geometry":{"x":168543.73000000045,"y":2567217.4700000007}},{"attributes":{"ID":136061,"DIS_CODE":0,"TOWNNAME":"麻豆區","LI":"港尾里","LIN":"6鄰","STREET":" ","SECT":" ","MAREA":"港子尾","LANE":" ","ALLEY":" ","HOUSE_NO":"２４號","E_COORD97":168527.88,"N_COORD97":2567196.3599999999,"ADDRESS":"港子尾２４號","OBJECTID":136061},"geometry":{"x":168527.88000000082,"y":2567196.3599999994}},{"attributes":{"ID":136062,"DIS_CODE":0,"TOWNNAME":"後壁區","LI":"嘉苳里","LIN":" ","STREET":" ","SECT":" ","MAREA":"本協","LANE":" ","ALLEY":" ","HOUSE_NO":"１３號","E_COORD97":187071.39999999999,"N_COORD97":2583576.8799999999,"ADDRESS":"本協１３號","OBJECTID":136062},"geometry":{"x":187071.40000000037,"y":2583576.8800000008}},{"attributes":{"ID":136063,"DIS_CODE":0,"TOWNNAME":"後壁區","LI":"嘉苳里","LIN":" ","STREET":" ","SECT":" ","MAREA":"本協","LANE":" ","ALLEY":" ","HOUSE_NO":"３６號","E_COORD97":186967.89000000001,"N_COORD97":2583524.7799999998,"ADDRESS":"本協３６號","OBJECTID":136063},"geometry":{"x":186967.8900000006,"y":2583524.7799999993}},{"attributes":{"ID":136064,"DIS_CODE":0,"TOWNNAME":"後壁區","LI":"嘉苳里","LIN":" ","STREET":" ","SECT":" ","MAREA":"本協","LANE":" ","ALLEY":" ","HOUSE_NO":"３７號","E_COORD97":186969.89000000001,"N_COORD97":2583495.02,"ADDRESS":"本協３７號","OBJECTID":136064},"geometry":{"x":186969.8900000006,"y":2583495.0200000014}},{"attributes":{"ID":136065,"DIS_CODE":0,"TOWNNAME":"後壁區","LI":"嘉苳里","LIN":" ","STREET":" ","SECT":" ","MAREA":"本協","LANE":" ","ALLEY":" ","HOUSE_NO":"６２號","E_COORD97":186893.35000000001,"N_COORD97":2583557.2999999998,"ADDRESS":"本協６２號","OBJECTID":136065},"geometry":{"x":186893.35000000149,"y":2583557.3000000007}},{"attributes":{"ID":136066,"DIS_CODE":0,"TOWNNAME":"後壁區","LI":"嘉苳里","LIN":" ","STREET":" ","SECT":" ","MAREA":"本協","LANE":" ","ALLEY":" ","HOUSE_NO":"８之１號","E_COORD97":187173.87,"N_COORD97":2583543.8900000001,"ADDRESS":"本協８之１號","OBJECTID":136066},"geometry":{"x":187173.87000000104,"y":2583543.8900000043}},{"attributes":{"ID":136067,"DIS_CODE":0,"TOWNNAME":"後壁區","LI":"新嘉里","LIN":" ","STREET":" ","SECT":" ","MAREA":"白沙屯","LANE":" ","ALLEY":" ","HOUSE_NO":"１２０之１７號","E_COORD97":179999.09,"N_COORD97":2585574.0099999998,"ADDRESS":"白沙屯１２０之１７號","OBJECTID":136067},"geometry":{"x":179999.08999999892,"y":2585574.0100000016}},{"attributes":{"ID":136068,"DIS_CODE":0,"TOWNNAME":"後壁區","LI":"新嘉里","LIN":" ","STREET":" ","SECT":" ","MAREA":"白沙屯","LANE":" ","ALLEY":" ","HOUSE_NO":"１２２之１號","E_COORD97":179768.42999999999,"N_COORD97":2585569.3900000001,"ADDRESS":"白沙屯１２２之１號","OBJECTID":136068},"geometry":{"x":179768.43000000063,"y":2585569.3900000025}},{"attributes":{"ID":136069,"DIS_CODE":0,"TOWNNAME":"後壁區","LI":"新嘉里","LIN":" ","STREET":" ","SECT":" ","MAREA":"白沙屯","LANE":" ","ALLEY":" ","HOUSE_NO":"１２２之２號","E_COORD97":179747,"N_COORD97":2585565.1800000002,"ADDRESS":"白沙屯１２２之２號","OBJECTID":136069},"geometry":{"x":179747,"y":2585565.1800000034}},{"attributes":{"ID":136070,"DIS_CODE":0,"TOWNNAME":"後壁區","LI":"新嘉里","LIN":" ","STREET":" ","SECT":" ","MAREA":"白沙屯","LANE":" ","ALLEY":" ","HOUSE_NO":"１３０之１號","E_COORD97":179826.48999999999,"N_COORD97":2585415.2799999998,"ADDRESS":"白沙屯１３０之１號","OBJECTID":136070},"geometry":{"x":179826.49000000115,"y":2585415.2800000012}},{"attributes":{"ID":136071,"DIS_CODE":0,"TOWNNAME":"後壁區","LI":"新嘉里","LIN":" ","STREET":" ","SECT":" ","MAREA":"白沙屯","LANE":" ","ALLEY":" ","HOUSE_NO":"１３０之３號","E_COORD97":179772.98999999999,"N_COORD97":2585446.7799999998,"ADDRESS":"白沙屯１３０之３號","OBJECTID":136071},"geometry":{"x":179772.98999999929,"y":2585446.7800000012}},{"attributes":{"ID":136072,"DIS_CODE":0,"TOWNNAME":"後壁區","LI":"新嘉里","LIN":" ","STREET":" ","SECT":" ","MAREA":"白沙屯","LANE":" ","ALLEY":" ","HOUSE_NO":"１３１之１號","E_COORD97":179737.76000000001,"N_COORD97":2585498.4399999999,"ADDRESS":"白沙屯１３１之１號","OBJECTID":136072},"geometry":{"x":179737.75999999978,"y":2585498.4399999976}},{"attributes":{"ID":136073,"DIS_CODE":0,"TOWNNAME":"麻豆區","LI":"龍泉里","LIN":"6鄰","STREET":" ","SECT":" ","MAREA":"溝子墘","LANE":" ","ALLEY":" ","HOUSE_NO":"５６號之２１","E_COORD97":174252.82000000001,"N_COORD97":2564038.9100000001,"ADDRESS":"溝子墘５６號之２１","OBJECTID":136073},"geometry":{"x":174252.8200000003,"y":2564038.910000002}},{"attributes":{"ID":136074,"DIS_CODE":0,"TOWNNAME":"麻豆區","LI":"龍泉里","LIN":"6鄰","STREET":" ","SECT":" ","MAREA":"溝子墘","LANE":" ","ALLEY":" ","HOUSE_NO":"５６號之２２","E_COORD97":174256.62,"N_COORD97":2564040.9399999999,"ADDRESS":"溝子墘５６號之２２","OBJECTID":136074},"geometry":{"x":174256.62000000104,"y":2564040.9400000032}},{"attributes":{"ID":136075,"DIS_CODE":0,"TOWNNAME":"麻豆區","LI":"龍泉里","LIN":"6鄰","STREET":" ","SECT":" ","MAREA":"溝子墘","LANE":" ","ALLEY":" ","HOUSE_NO":"５６號之２３","E_COORD97":174260.25,"N_COORD97":2564042.5099999998,"ADDRESS":"溝子墘５６號之２３","OBJECTID":136075},"geometry":{"x":174260.25000000093,"y":2564042.5099999998}},{"attributes":{"ID":136076,"DIS_CODE":0,"TOWNNAME":"麻豆區","LI":"龍泉里","LIN":"6鄰","STREET":" ","SECT":" ","MAREA":"溝子墘","LANE":" ","ALLEY":" ","HOUSE_NO":"５６號之２４","E_COORD97":174263.54000000001,"N_COORD97":2564044.2200000002,"ADDRESS":"溝子墘５６號之２４","OBJECTID":136076},"geometry":{"x":174263.54000000097,"y":2564044.2200000025}},{"attributes":{"ID":136077,"DIS_CODE":0,"TOWNNAME":"麻豆區","LI":"龍泉里","LIN":"6鄰","STREET":" ","SECT":" ","MAREA":"溝子墘","LANE":" ","ALLEY":" ","HOUSE_NO":"５６號之２５","E_COORD97":174360.44,"N_COORD97":2564096.2000000002,"ADDRESS":"溝子墘５６號之２５","OBJECTID":136077},"geometry":{"x":174360.44000000041,"y":2564096.1999999993}},{"attributes":{"ID":136078,"DIS_CODE":0,"TOWNNAME":"麻豆區","LI":"龍泉里","LIN":"6鄰","STREET":" ","SECT":" ","MAREA":"溝子墘","LANE":" ","ALLEY":" ","HOUSE_NO":"５６號之２６","E_COORD97":174243.03,"N_COORD97":2563982.7000000002,"ADDRESS":"溝子墘５６號之２６","OBJECTID":136078},"geometry":{"x":174243.02999999933,"y":2563982.7000000011}},{"attributes":{"ID":136079,"DIS_CODE":0,"TOWNNAME":"麻豆區","LI":"龍泉里","LIN":"6鄰","STREET":" ","SECT":" ","MAREA":"溝子墘","LANE":" ","ALLEY":" ","HOUSE_NO":"５６號之２","E_COORD97":174244.23999999999,"N_COORD97":2564032.8700000001,"ADDRESS":"溝子墘５６號之２","OBJECTID":136079},"geometry":{"x":174244.24000000115,"y":2564032.8700000048}},{"attributes":{"ID":136080,"DIS_CODE":0,"TOWNNAME":"麻豆區","LI":"龍泉里","LIN":"6鄰","STREET":" ","SECT":" ","MAREA":"溝子墘","LANE":" ","ALLEY":" ","HOUSE_NO":"５６號之３","E_COORD97":174293.67999999999,"N_COORD97":2564058.27,"ADDRESS":"溝子墘５６號之３","OBJECTID":136080},"geometry":{"x":174293.6799999997,"y":2564058.2699999996}},{"attributes":{"ID":136081,"DIS_CODE":0,"TOWNNAME":"麻豆區","LI":"龍泉里","LIN":"6鄰","STREET":" ","SECT":" ","MAREA":"溝子墘","LANE":" ","ALLEY":" ","HOUSE_NO":"５６號之４","E_COORD97":174277.95999999999,"N_COORD97":2564044.0600000001,"ADDRESS":"溝子墘５６號之４","OBJECTID":136081},"geometry":{"x":174277.96000000089,"y":2564044.0600000005}},{"attributes":{"ID":136082,"DIS_CODE":0,"TOWNNAME":"歸仁區","LI":"後市里","LIN":"6鄰","STREET":"大吉一街","SECT":" ","MAREA":" ","LANE":" ","ALLEY":" ","HOUSE_NO":"５３號","E_COORD97":177157.81,"N_COORD97":2540644.25,"ADDRESS":"大吉一街５３號","OBJECTID":136082},"geometry":{"x":177157.80999999959,"y":2540644.25}},{"attributes":{"ID":136083,"DIS_CODE":0,"TOWNNAME":"後壁區","LI":"新嘉里","LIN":" ","STREET":" ","SECT":" ","MAREA":"白沙屯","LANE":" ","ALLEY":" ","HOUSE_NO":"１３１之３號","E_COORD97":179732.04999999999,"N_COORD97":2585442.4399999999,"ADDRESS":"白沙屯１３１之３號","OBJECTID":136083},"geometry":{"x":179732.05000000075,"y":2585442.4400000013}},{"attributes":{"ID":136084,"DIS_CODE":0,"TOWNNAME":"後壁區","LI":"新嘉里","LIN":" ","STREET":" ","SECT":" ","MAREA":"白沙屯","LANE":" ","ALLEY":" ","HOUSE_NO":"１３２號","E_COORD97":179695.81,"N_COORD97":2585459.7200000002,"ADDRESS":"白沙屯１３２號","OBJECTID":136084},"geometry":{"x":179695.81000000145,"y":2585459.7200000007}},{"attributes":{"ID":136085,"DIS_CODE":0,"TOWNNAME":"後壁區","LI":"新嘉里","LIN":" ","STREET":" ","SECT":" ","MAREA":"白沙屯","LANE":" ","ALLEY":" ","HOUSE_NO":"１３７之１號","E_COORD97":179714.23999999999,"N_COORD97":2585301.79,"ADDRESS":"白沙屯１３７之１號","OBJECTID":136085},"geometry":{"x":179714.24000000115,"y":2585301.7899999991}},{"attributes":{"ID":136086,"DIS_CODE":0,"TOWNNAME":"後壁區","LI":"新嘉里","LIN":" ","STREET":" ","SECT":" ","MAREA":"白沙屯","LANE":" ","ALLEY":" ","HOUSE_NO":"１４３號","E_COORD97":179624.12,"N_COORD97":2585480.9399999999,"ADDRESS":"白沙屯１４３號","OBJECTID":136086},"geometry":{"x":179624.12000000011,"y":2585480.9399999995}},{"attributes":{"ID":136087,"DIS_CODE":0,"TOWNNAME":"後壁區","LI":"新嘉里","LIN":" ","STREET":" ","SECT":" ","MAREA":"白沙屯","LANE":" ","ALLEY":" ","HOUSE_NO":"１４８號","E_COORD97":179584.26000000001,"N_COORD97":2585451.2599999998,"ADDRESS":"白沙屯１４８號","OBJECTID":136087},"geometry":{"x":179584.25999999885,"y":2585451.2599999998}},{"attributes":{"ID":136088,"DIS_CODE":0,"TOWNNAME":"後壁區","LI":"新嘉里","LIN":" ","STREET":" ","SECT":" ","MAREA":"白沙屯","LANE":" ","ALLEY":" ","HOUSE_NO":"１５３號","E_COORD97":179607.42999999999,"N_COORD97":2585394.0099999998,"ADDRESS":"白沙屯１５３號","OBJECTID":136088},"geometry":{"x":179607.43000000063,"y":2585394.0100000016}},{"attributes":{"ID":136089,"DIS_CODE":0,"TOWNNAME":"後壁區","LI":"新嘉里","LIN":" ","STREET":" ","SECT":" ","MAREA":"白沙屯","LANE":" ","ALLEY":" ","HOUSE_NO":"１６０之２號","E_COORD97":179441.92999999999,"N_COORD97":2585456.8199999998,"ADDRESS":"白沙屯１６０之２號","OBJECTID":136089},"geometry":{"x":179441.9299999997,"y":2585456.8200000022}},{"attributes":{"ID":136090,"DIS_CODE":0,"TOWNNAME":"後壁區","LI":"新嘉里","LIN":" ","STREET":" ","SECT":" ","MAREA":"白沙屯","LANE":" ","ALLEY":" ","HOUSE_NO":"１６５號","E_COORD97":179520.89999999999,"N_COORD97":2585488.1499999999,"ADDRESS":"白沙屯１６５號","OBJECTID":136090},"geometry":{"x":179520.90000000037,"y":2585488.1500000041}},{"attributes":{"ID":136091,"DIS_CODE":0,"TOWNNAME":"後壁區","LI":"新嘉里","LIN":" ","STREET":" ","SECT":" ","MAREA":"白沙屯","LANE":" ","ALLEY":" ","HOUSE_NO":"１７０之１號","E_COORD97":179483.42000000001,"N_COORD97":2585154.5,"ADDRESS":"白沙屯１７０之１號","OBJECTID":136091},"geometry":{"x":179483.42000000179,"y":2585154.5000000019}},{"attributes":{"ID":136092,"DIS_CODE":0,"TOWNNAME":"後壁區","LI":"新嘉里","LIN":" ","STREET":" ","SECT":" ","MAREA":"白沙屯","LANE":" ","ALLEY":" ","HOUSE_NO":"１７４之２號","E_COORD97":179515.48000000001,"N_COORD97":2585615.7400000002,"ADDRESS":"白沙屯１７４之２號","OBJECTID":136092},"geometry":{"x":179515.48000000045,"y":2585615.7400000002}},{"attributes":{"ID":136093,"DIS_CODE":0,"TOWNNAME":"後壁區","LI":"新嘉里","LIN":" ","STREET":" ","SECT":" ","MAREA":"白沙屯","LANE":" ","ALLEY":" ","HOUSE_NO":"１７９號","E_COORD97":179534.97,"N_COORD97":2585667.25,"ADDRESS":"白沙屯１７９號","OBJECTID":136093},"geometry":{"x":179534.96999999974,"y":2585667.2500000019}},{"attributes":{"ID":136094,"DIS_CODE":0,"TOWNNAME":"歸仁區","LI":"後市里","LIN":"6鄰","STREET":"大吉一街","SECT":" ","MAREA":" ","LANE":" ","ALLEY":" ","HOUSE_NO":"１１號","E_COORD97":177161.31,"N_COORD97":2540747.25,"ADDRESS":"大吉一街１１號","OBJECTID":136094},"geometry":{"x":177161.31000000145,"y":2540747.2499999981}},{"attributes":{"ID":136095,"DIS_CODE":0,"TOWNNAME":"後壁區","LI":"新嘉里","LIN":" ","STREET":" ","SECT":" ","MAREA":"白沙屯","LANE":" ","ALLEY":" ","HOUSE_NO":"１７之１號","E_COORD97":179818.57000000001,"N_COORD97":2585804.5,"ADDRESS":"白沙屯１７之１號","OBJECTID":136095},"geometry":{"x":179818.57000000123,"y":2585804.5000000019}},{"attributes":{"ID":136096,"DIS_CODE":0,"TOWNNAME":"後壁區","LI":"新嘉里","LIN":" ","STREET":" ","SECT":" ","MAREA":"白沙屯","LANE":" ","ALLEY":" ","HOUSE_NO":"１８１號","E_COORD97":179564.97,"N_COORD97":2585660.0899999999,"ADDRESS":"白沙屯１８１號","OBJECTID":136096},"geometry":{"x":179564.97000000067,"y":2585660.0899999999}},{"attributes":{"ID":136097,"DIS_CODE":0,"TOWNNAME":"後壁區","LI":"新嘉里","LIN":" ","STREET":" ","SECT":" ","MAREA":"白沙屯","LANE":" ","ALLEY":" ","HOUSE_NO":"１８２號","E_COORD97":179571.44,"N_COORD97":2585677.2000000002,"ADDRESS":"白沙屯１８２號","OBJECTID":136097},"geometry":{"x":179571.44000000041,"y":2585677.2000000011}},{"attributes":{"ID":136098,"DIS_CODE":0,"TOWNNAME":"後壁區","LI":"新嘉里","LIN":" ","STREET":" ","SECT":" ","MAREA":"白沙屯","LANE":" ","ALLEY":" ","HOUSE_NO":"１之７號","E_COORD97":180090.04000000001,"N_COORD97":2585956.1499999999,"ADDRESS":"白沙屯１之７號","OBJECTID":136098},"geometry":{"x":180090.04000000097,"y":2585956.1500000022}},{"attributes":{"ID":136099,"DIS_CODE":0,"TOWNNAME":"後壁區","LI":"新嘉里","LIN":" ","STREET":" ","SECT":" ","MAREA":"白沙屯","LANE":" ","ALLEY":" ","HOUSE_NO":"２０之１３號","E_COORD97":179749.79999999999,"N_COORD97":2585890.7400000002,"ADDRESS":"白沙屯２０之１３號","OBJECTID":136099},"geometry":{"x":179749.79999999981,"y":2585890.7400000039}},{"attributes":{"ID":136100,"DIS_CODE":0,"TOWNNAME":"後壁區","LI":"新嘉里","LIN":" ","STREET":" ","SECT":" ","MAREA":"白沙屯","LANE":" ","ALLEY":" ","HOUSE_NO":"２１０之２號","E_COORD97":179410.64000000001,"N_COORD97":2585755.73,"ADDRESS":"白沙屯２１０之２號","OBJECTID":136100},"geometry":{"x":179410.6400000006,"y":2585755.7300000023}},{"attributes":{"ID":136101,"DIS_CODE":0,"TOWNNAME":"新市區","LI":"新市里","LIN":"27鄰","STREET":"復興路","SECT":" ","MAREA":" ","LANE":"６巷","ALLEY":"１９弄","HOUSE_NO":"２９之１號","E_COORD97":177856.81,"N_COORD97":2553421.5499999998,"ADDRESS":"復興路６巷１９弄２９之１號","OBJECTID":136101},"geometry":{"x":177856.81000000052,"y":2553421.5500000007}},{"attributes":{"ID":136102,"DIS_CODE":0,"TOWNNAME":"新市區","LI":"新市里","LIN":"27鄰","STREET":"復興路","SECT":" ","MAREA":" ","LANE":"６巷","ALLEY":"１９弄","HOUSE_NO":"３１號","E_COORD97":177878.14000000001,"N_COORD97":2553430.5299999998,"ADDRESS":"復興路６巷１９弄３１號","OBJECTID":136102},"geometry":{"x":177878.1400000006,"y":2553430.5299999993}},{"attributes":{"ID":136103,"DIS_CODE":0,"TOWNNAME":"後壁區","LI":"新嘉里","LIN":" ","STREET":" ","SECT":" ","MAREA":"白沙屯","LANE":" ","ALLEY":" ","HOUSE_NO":"２１０之３號","E_COORD97":179489.23999999999,"N_COORD97":2585780.1600000001,"ADDRESS":"白沙屯２１０之３號","OBJECTID":136103},"geometry":{"x":179489.24000000022,"y":2585780.160000002}},{"attributes":{"ID":136104,"DIS_CODE":0,"TOWNNAME":"後壁區","LI":"新嘉里","LIN":" ","STREET":" ","SECT":" ","MAREA":"白沙屯","LANE":" ","ALLEY":" ","HOUSE_NO":"２１０之４號","E_COORD97":179485.69,"N_COORD97":2585746.7000000002,"ADDRESS":"白沙屯２１０之４號","OBJECTID":136104},"geometry":{"x":179485.69000000134,"y":2585746.6999999993}},{"attributes":{"ID":136105,"DIS_CODE":0,"TOWNNAME":"後壁區","LI":"新嘉里","LIN":" ","STREET":" ","SECT":" ","MAREA":"白沙屯","LANE":" ","ALLEY":" ","HOUSE_NO":"２１２號","E_COORD97":179471.41,"N_COORD97":2585655.7200000002,"ADDRESS":"白沙屯２１２號","OBJECTID":136105},"geometry":{"x":179471.41000000015,"y":2585655.7200000007}},{"attributes":{"ID":136106,"DIS_CODE":0,"TOWNNAME":"歸仁區","LI":"後市里","LIN":"6鄰","STREET":"大吉一街","SECT":" ","MAREA":" ","LANE":" ","ALLEY":" ","HOUSE_NO":"３５號","E_COORD97":177160.10999999999,"N_COORD97":2540696.25,"ADDRESS":"大吉一街３５號","OBJECTID":136106},"geometry":{"x":177160.1100000022,"y":2540696.25}},{"attributes":{"ID":136107,"DIS_CODE":0,"TOWNNAME":"後壁區","LI":"新嘉里","LIN":" ","STREET":" ","SECT":" ","MAREA":"白沙屯","LANE":" ","ALLEY":" ","HOUSE_NO":"２１８號","E_COORD97":179500.92999999999,"N_COORD97":2585611.96,"ADDRESS":"白沙屯２１８號","OBJECTID":136107},"geometry":{"x":179500.9299999997,"y":2585611.9600000046}},{"attributes":{"ID":136108,"DIS_CODE":0,"TOWNNAME":"後壁區","LI":"新嘉里","LIN":" ","STREET":" ","SECT":" ","MAREA":"白沙屯","LANE":" ","ALLEY":" ","HOUSE_NO":"２２０號","E_COORD97":179468.87,"N_COORD97":2585603.04,"ADDRESS":"白沙屯２２０號","OBJECTID":136108},"geometry":{"x":179468.87000000104,"y":2585603.040000001}},{"attributes":{"ID":136109,"DIS_CODE":0,"TOWNNAME":"後壁區","LI":"新嘉里","LIN":" ","STREET":" ","SECT":" ","MAREA":"白沙屯","LANE":" ","ALLEY":" ","HOUSE_NO":"２３０之１號","E_COORD97":179502.14999999999,"N_COORD97":2585578.04,"ADDRESS":"白沙屯２３０之１號","OBJECTID":136109},"geometry":{"x":179502.15000000037,"y":2585578.0399999991}},{"attributes":{"ID":136110,"DIS_CODE":0,"TOWNNAME":"後壁區","LI":"新嘉里","LIN":" ","STREET":" ","SECT":" ","MAREA":"白沙屯","LANE":" ","ALLEY":" ","HOUSE_NO":"２３５之１號","E_COORD97":179022.89000000001,"N_COORD97":2585646.2000000002,"ADDRESS":"白沙屯２３５之１號","OBJECTID":136110},"geometry":{"x":179022.8900000006,"y":2585646.2000000011}},{"attributes":{"ID":136111,"DIS_CODE":0,"TOWNNAME":"後壁區","LI":"新嘉里","LIN":" ","STREET":" ","SECT":" ","MAREA":"白沙屯","LANE":" ","ALLEY":" ","HOUSE_NO":"２之１號","E_COORD97":179966.63,"N_COORD97":2585916.4700000002,"ADDRESS":"白沙屯２之１號","OBJECTID":136111},"geometry":{"x":179966.62999999896,"y":2585916.4699999988}},{"attributes":{"ID":136112,"DIS_CODE":0,"TOWNNAME":"後壁區","LI":"新嘉里","LIN":" ","STREET":" ","SECT":" ","MAREA":"白沙屯","LANE":" ","ALLEY":" ","HOUSE_NO":"３５９號","E_COORD97":179196.92000000001,"N_COORD97":2583927.3999999999,"ADDRESS":"白沙屯３５９號","OBJECTID":136112},"geometry":{"x":179196.92000000179,"y":2583927.4000000022}},{"attributes":{"ID":136113,"DIS_CODE":0,"TOWNNAME":"後壁區","LI":"新嘉里","LIN":" ","STREET":" ","SECT":" ","MAREA":"白沙屯","LANE":" ","ALLEY":" ","HOUSE_NO":"３５號","E_COORD97":179594.75,"N_COORD97":2585734.5699999998,"ADDRESS":"白沙屯３５號","OBJECTID":136113},"geometry":{"x":179594.75000000186,"y":2585734.5700000003}},{"attributes":{"ID":136114,"DIS_CODE":0,"TOWNNAME":"後壁區","LI":"新嘉里","LIN":" ","STREET":" ","SECT":" ","MAREA":"白沙屯","LANE":" ","ALLEY":" ","HOUSE_NO":"３之３號","E_COORD97":179924.45000000001,"N_COORD97":2585874.5299999998,"ADDRESS":"白沙屯３之３號","OBJECTID":136114},"geometry":{"x":179924.45000000112,"y":2585874.5300000012}},{"attributes":{"ID":136115,"DIS_CODE":0,"TOWNNAME":"後壁區","LI":"新嘉里","LIN":" ","STREET":" ","SECT":" ","MAREA":"白沙屯","LANE":" ","ALLEY":" ","HOUSE_NO":"３之４號","E_COORD97":179920.41,"N_COORD97":2585871.5699999998,"ADDRESS":"白沙屯３之４號","OBJECTID":136115},"geometry":{"x":179920.41000000015,"y":2585871.570000004}},{"attributes":{"ID":136116,"DIS_CODE":0,"TOWNNAME":"後壁區","LI":"新嘉里","LIN":" ","STREET":" ","SECT":" ","MAREA":"白沙屯","LANE":" ","ALLEY":" ","HOUSE_NO":"３之５號","E_COORD97":179915.38,"N_COORD97":2585895.3199999998,"ADDRESS":"白沙屯３之５號","OBJECTID":136116},"geometry":{"x":179915.37999999989,"y":2585895.3200000003}},{"attributes":{"ID":136117,"DIS_CODE":0,"TOWNNAME":"歸仁區","LI":"沙崙里","LIN":"6鄰","STREET":" ","SECT":" ","MAREA":"沙崙","LANE":" ","ALLEY":" ","HOUSE_NO":"２８０號","E_COORD97":179574.07999999999,"N_COORD97":2537988.25,"ADDRESS":"沙崙２８０號","OBJECTID":136117},"geometry":{"x":179574.08000000194,"y":2537988.2500000019}},{"attributes":{"ID":136118,"DIS_CODE":0,"TOWNNAME":"後壁區","LI":"新嘉里","LIN":" ","STREET":" ","SECT":" ","MAREA":"白沙屯","LANE":" ","ALLEY":" ","HOUSE_NO":"４２號","E_COORD97":179592.92000000001,"N_COORD97":2585770.9900000002,"ADDRESS":"白沙屯４２號","OBJECTID":136118},"geometry":{"x":179592.91999999993,"y":2585770.9900000021}},{"attributes":{"ID":136119,"DIS_CODE":0,"TOWNNAME":"後壁區","LI":"新嘉里","LIN":" ","STREET":" ","SECT":" ","MAREA":"白沙屯","LANE":" ","ALLEY":" ","HOUSE_NO":"５５號","E_COORD97":179628.45000000001,"N_COORD97":2585786.6299999999,"ADDRESS":"白沙屯５５號","OBJECTID":136119},"geometry":{"x":179628.45000000019,"y":2585786.6300000008}},{"attributes":{"ID":136120,"DIS_CODE":0,"TOWNNAME":"後壁區","LI":"新嘉里","LIN":" ","STREET":" ","SECT":" ","MAREA":"白沙屯","LANE":" ","ALLEY":" ","HOUSE_NO":"６６之５號","E_COORD97":179714.32000000001,"N_COORD97":2585701.79,"ADDRESS":"白沙屯６６之５號","OBJECTID":136120},"geometry":{"x":179714.3200000003,"y":2585701.7899999991}},{"attributes":{"ID":136121,"DIS_CODE":0,"TOWNNAME":"後壁區","LI":"新嘉里","LIN":" ","STREET":" ","SECT":" ","MAREA":"白沙屯","LANE":" ","ALLEY":" ","HOUSE_NO":"７５號","E_COORD97":179635.42999999999,"N_COORD97":2585683.0800000001,"ADDRESS":"白沙屯７５號","OBJECTID":136121},"geometry":{"x":179635.4299999997,"y":2585683.0800000001}},{"attributes":{"ID":136122,"DIS_CODE":0,"TOWNNAME":"後壁區","LI":"新嘉里","LIN":" ","STREET":" ","SECT":" ","MAREA":"白沙屯","LANE":" ","ALLEY":" ","HOUSE_NO":"７號","E_COORD97":179845.88,"N_COORD97":2585754.4100000001,"ADDRESS":"白沙屯７號","OBJECTID":136122},"geometry":{"x":179845.87999999989,"y":2585754.410000002}},{"attributes":{"ID":136123,"DIS_CODE":0,"TOWNNAME":"歸仁區","LI":"歸南里","LIN":"6鄰","STREET":"中正南路","SECT":"一段","MAREA":" ","LANE":" ","ALLEY":" ","HOUSE_NO":"５５６號","E_COORD97":176763.35000000001,"N_COORD97":2539963.4500000002,"ADDRESS":"中正南路一段５５６號","OBJECTID":136123},"geometry":{"x":176763.35000000056,"y":2539963.4500000011}},{"attributes":{"ID":136124,"DIS_CODE":0,"TOWNNAME":"新市區","LI":"新市里","LIN":"27鄰","STREET":"復興路","SECT":" ","MAREA":" ","LANE":"６巷","ALLEY":"１９弄","HOUSE_NO":"２１號","E_COORD97":177878.48000000001,"N_COORD97":2553409.5299999998,"ADDRESS":"復興路６巷１９弄２１號","OBJECTID":136124},"geometry":{"x":177878.48000000138,"y":2553409.5300000012}},{"attributes":{"ID":136125,"DIS_CODE":0,"TOWNNAME":"後壁區","LI":"新嘉里","LIN":" ","STREET":" ","SECT":" ","MAREA":"白沙屯","LANE":" ","ALLEY":" ","HOUSE_NO":"８６號","E_COORD97":179612.19,"N_COORD97":2585711.29,"ADDRESS":"白沙屯８６號","OBJECTID":136125},"geometry":{"x":179612.19000000041,"y":2585711.2899999991}},{"attributes":{"ID":136126,"DIS_CODE":0,"TOWNNAME":"歸仁區","LI":"歸仁里","LIN":"6鄰","STREET":"大通路","SECT":" ","MAREA":" ","LANE":" ","ALLEY":" ","HOUSE_NO":"４９號","E_COORD97":177792.04999999999,"N_COORD97":2540871.1800000002,"ADDRESS":"大通路４９號","OBJECTID":136126},"geometry":{"x":177792.04999999981,"y":2540871.1800000016}},{"attributes":{"ID":136127,"DIS_CODE":0,"TOWNNAME":"後壁區","LI":"新嘉里","LIN":" ","STREET":" ","SECT":" ","MAREA":"白沙屯","LANE":" ","ALLEY":" ","HOUSE_NO":"８９之１號","E_COORD97":179590.39000000001,"N_COORD97":2585689.0699999998,"ADDRESS":"白沙屯８９之１號","OBJECTID":136127},"geometry":{"x":179590.3900000006,"y":2585689.0700000022}},{"attributes":{"ID":136128,"DIS_CODE":0,"TOWNNAME":"永康區","LI":"東橋里","LIN":"27鄰","STREET":"中正路","SECT":" ","MAREA":" ","LANE":"２７９巷","ALLEY":"２１弄","HOUSE_NO":"２８號","E_COORD97":172502.26000000001,"N_COORD97":2547782.5,"ADDRESS":"中正路２７９巷２１弄２８號","OBJECTID":136128},"geometry":{"x":172502.26000000071,"y":2547782.5}},{"attributes":{"ID":136129,"DIS_CODE":0,"TOWNNAME":"後壁區","LI":"新嘉里","LIN":" ","STREET":" ","SECT":" ","MAREA":"白沙屯","LANE":" ","ALLEY":" ","HOUSE_NO":"９０號","E_COORD97":179590.39000000001,"N_COORD97":2585679.02,"ADDRESS":"白沙屯９０號","OBJECTID":136129},"geometry":{"x":179590.3900000006,"y":2585679.0200000014}},{"attributes":{"ID":136130,"DIS_CODE":0,"TOWNNAME":"後壁區","LI":"新嘉里","LIN":" ","STREET":" ","SECT":" ","MAREA":"白沙屯","LANE":" ","ALLEY":" ","HOUSE_NO":"９３之１號","E_COORD97":179578.67999999999,"N_COORD97":2585622.3700000001,"ADDRESS":"白沙屯９３之１號","OBJECTID":136130},"geometry":{"x":179578.68000000063,"y":2585622.370000001}},{"attributes":{"ID":136131,"DIS_CODE":0,"TOWNNAME":"永康區","LI":"東橋里","LIN":"27鄰","STREET":"中正路","SECT":" ","MAREA":" ","LANE":"２７９巷","ALLEY":"２１弄","HOUSE_NO":"４３號","E_COORD97":172632.85000000001,"N_COORD97":2547835.2400000002,"ADDRESS":"中正路２７９巷２１弄４３號","OBJECTID":136131},"geometry":{"x":172632.84999999963,"y":2547835.2400000021}},{"attributes":{"ID":136132,"DIS_CODE":0,"TOWNNAME":"永康區","LI":"東橋里","LIN":"27鄰","STREET":"中正路","SECT":" ","MAREA":" ","LANE":"２７９巷","ALLEY":"２１弄","HOUSE_NO":"４７號","E_COORD97":172647.39999999999,"N_COORD97":2547835.4900000002,"ADDRESS":"中正路２７９巷２１弄４７號","OBJECTID":136132},"geometry":{"x":172647.40000000224,"y":2547835.4900000039}},{"attributes":{"ID":136133,"DIS_CODE":0,"TOWNNAME":"後壁區","LI":"新嘉里","LIN":" ","STREET":" ","SECT":" ","MAREA":"白沙屯","LANE":" ","ALLEY":" ","HOUSE_NO":"９６之１號","E_COORD97":179565.26999999999,"N_COORD97":2585569.7400000002,"ADDRESS":"白沙屯９６之１號","OBJECTID":136133},"geometry":{"x":179565.26999999862,"y":2585569.7400000021}},{"attributes":{"ID":136134,"DIS_CODE":0,"TOWNNAME":"後壁區","LI":"新嘉里","LIN":" ","STREET":" ","SECT":" ","MAREA":"白沙屯","LANE":" ","ALLEY":" ","HOUSE_NO":"９６號","E_COORD97":179569.64000000001,"N_COORD97":2585582.6299999999,"ADDRESS":"白沙屯９６號","OBJECTID":136134},"geometry":{"x":179569.63999999873,"y":2585582.6300000008}},{"attributes":{"ID":136135,"DIS_CODE":0,"TOWNNAME":"後壁區","LI":"竹新里","LIN":" ","STREET":" ","SECT":" ","MAREA":"竹圍後","LANE":" ","ALLEY":" ","HOUSE_NO":"１００之３號","E_COORD97":178770.79999999999,"N_COORD97":2582412.02,"ADDRESS":"竹圍後１００之３號","OBJECTID":136135},"geometry":{"x":178770.80000000075,"y":2582412.0199999996}},{"attributes":{"ID":136136,"DIS_CODE":0,"TOWNNAME":"後壁區","LI":"竹新里","LIN":" ","STREET":" ","SECT":" ","MAREA":"竹圍後","LANE":" ","ALLEY":" ","HOUSE_NO":"１０５之５號","E_COORD97":178634.17999999999,"N_COORD97":2582388.8799999999,"ADDRESS":"竹圍後１０５之５號","OBJECTID":136136},"geometry":{"x":178634.18000000063,"y":2582388.879999999}},{"attributes":{"ID":136137,"DIS_CODE":0,"TOWNNAME":"永康區","LI":"東橋里","LIN":"27鄰","STREET":"中正路","SECT":" ","MAREA":" ","LANE":"２７９巷","ALLEY":"２１弄","HOUSE_NO":"２１號","E_COORD97":172527.45000000001,"N_COORD97":2547795.7599999998,"ADDRESS":"中正路２７９巷２１弄２１號","OBJECTID":136137},"geometry":{"x":172527.45000000019,"y":2547795.7600000035}},{"attributes":{"ID":136138,"DIS_CODE":0,"TOWNNAME":"永康區","LI":"東橋里","LIN":"27鄰","STREET":"中正路","SECT":" ","MAREA":" ","LANE":"２７９巷","ALLEY":"２１弄","HOUSE_NO":"２５號","E_COORD97":172591.39000000001,"N_COORD97":2547785.3700000001,"ADDRESS":"中正路２７９巷２１弄２５號","OBJECTID":136138},"geometry":{"x":172591.3900000006,"y":2547785.370000001}},{"attributes":{"ID":136139,"DIS_CODE":0,"TOWNNAME":"永康區","LI":"東橋里","LIN":"27鄰","STREET":"中正路","SECT":" ","MAREA":" ","LANE":"２７９巷","ALLEY":"２１弄","HOUSE_NO":"３號","E_COORD97":172572.09,"N_COORD97":2547861.75,"ADDRESS":"中正路２７９巷２１弄３號","OBJECTID":136139},"geometry":{"x":172572.08999999985,"y":2547861.7500000019}},{"attributes":{"ID":136140,"DIS_CODE":0,"TOWNNAME":"後壁區","LI":"竹新里","LIN":" ","STREET":" ","SECT":" ","MAREA":"竹圍後","LANE":" ","ALLEY":" ","HOUSE_NO":"１０６號","E_COORD97":178650.17999999999,"N_COORD97":2582416.75,"ADDRESS":"竹圍後１０６號","OBJECTID":136140},"geometry":{"x":178650.1799999997,"y":2582416.7500000019}},{"attributes":{"ID":136141,"DIS_CODE":0,"TOWNNAME":"永康區","LI":"東橋里","LIN":"27鄰","STREET":"中正路","SECT":" ","MAREA":" ","LANE":"２７９巷","ALLEY":"２１弄","HOUSE_NO":"３２號","E_COORD97":172506.67999999999,"N_COORD97":2547749.4900000002,"ADDRESS":"中正路２７９巷２１弄３２號","OBJECTID":136141},"geometry":{"x":172506.6799999997,"y":2547749.4900000002}},{"attributes":{"ID":136142,"DIS_CODE":0,"TOWNNAME":"後壁區","LI":"竹新里","LIN":" ","STREET":" ","SECT":" ","MAREA":"竹圍後","LANE":" ","ALLEY":" ","HOUSE_NO":"１０７之１號","E_COORD97":178658.89999999999,"N_COORD97":2582428.02,"ADDRESS":"竹圍後１０７之１號","OBJECTID":136142},"geometry":{"x":178658.9000000013,"y":2582428.0200000014}},{"attributes":{"ID":136143,"DIS_CODE":0,"TOWNNAME":"後壁區","LI":"竹新里","LIN":" ","STREET":" ","SECT":" ","MAREA":"竹圍後","LANE":" ","ALLEY":" ","HOUSE_NO":"１１１之２號","E_COORD97":178768.09,"N_COORD97":2582501.0600000001,"ADDRESS":"竹圍後１１１之２號","OBJECTID":136143},"geometry":{"x":178768.08999999985,"y":2582501.0600000005}},{"attributes":{"ID":136144,"DIS_CODE":0,"TOWNNAME":"後壁區","LI":"竹新里","LIN":" ","STREET":" ","SECT":" ","MAREA":"竹圍後","LANE":" ","ALLEY":" ","HOUSE_NO":"１１２號","E_COORD97":178726.26999999999,"N_COORD97":2582515.1499999999,"ADDRESS":"竹圍後１１２號","OBJECTID":136144},"geometry":{"x":178726.27000000142,"y":2582515.1500000022}},{"attributes":{"ID":136145,"DIS_CODE":0,"TOWNNAME":"後壁區","LI":"竹新里","LIN":" ","STREET":" ","SECT":" ","MAREA":"竹圍後","LANE":" ","ALLEY":" ","HOUSE_NO":"１２０之４號","E_COORD97":178915.39000000001,"N_COORD97":2583025.3500000001,"ADDRESS":"竹圍後１２０之４號","OBJECTID":136145},"geometry":{"x":178915.39000000153,"y":2583025.3500000015}},{"attributes":{"ID":136146,"DIS_CODE":0,"TOWNNAME":"後壁區","LI":"竹新里","LIN":" ","STREET":" ","SECT":" ","MAREA":"竹圍後","LANE":" ","ALLEY":" ","HOUSE_NO":"１之１號","E_COORD97":178676.37,"N_COORD97":2582679.54,"ADDRESS":"竹圍後１之１號","OBJECTID":136146},"geometry":{"x":178676.37000000011,"y":2582679.5399999991}},{"attributes":{"ID":136147,"DIS_CODE":0,"TOWNNAME":"後壁區","LI":"竹新里","LIN":" ","STREET":" ","SECT":" ","MAREA":"竹圍後","LANE":" ","ALLEY":" ","HOUSE_NO":"３１之１號","E_COORD97":178577.73000000001,"N_COORD97":2582397.9500000002,"ADDRESS":"竹圍後３１之１號","OBJECTID":136147},"geometry":{"x":178577.73000000045,"y":2582397.9499999993}},{"attributes":{"ID":136148,"DIS_CODE":0,"TOWNNAME":"後壁區","LI":"竹新里","LIN":" ","STREET":" ","SECT":" ","MAREA":"竹圍後","LANE":" ","ALLEY":" ","HOUSE_NO":"３１之２號","E_COORD97":178572.98999999999,"N_COORD97":2582399.25,"ADDRESS":"竹圍後３１之２號","OBJECTID":136148},"geometry":{"x":178572.99000000209,"y":2582399.2500000019}},{"attributes":{"ID":136149,"DIS_CODE":0,"TOWNNAME":"後壁區","LI":"竹新里","LIN":" ","STREET":" ","SECT":" ","MAREA":"竹圍後","LANE":" ","ALLEY":" ","HOUSE_NO":"４４號","E_COORD97":178401.48000000001,"N_COORD97":2582408.5499999998,"ADDRESS":"竹圍後４４號","OBJECTID":136149},"geometry":{"x":178401.48000000045,"y":2582408.5500000026}},{"attributes":{"ID":136150,"DIS_CODE":0,"TOWNNAME":"後壁區","LI":"竹新里","LIN":" ","STREET":" ","SECT":" ","MAREA":"竹圍後","LANE":" ","ALLEY":" ","HOUSE_NO":"４７號","E_COORD97":178314.29000000001,"N_COORD97":2582407.3700000001,"ADDRESS":"竹圍後４７號","OBJECTID":136150},"geometry":{"x":178314.29000000004,"y":2582407.370000001}},{"attributes":{"ID":136151,"DIS_CODE":0,"TOWNNAME":"歸仁區","LI":"新厝里","LIN":"6鄰","STREET":"復興路","SECT":" ","MAREA":" ","LANE":" ","ALLEY":" ","HOUSE_NO":"９３號","E_COORD97":177764.17000000001,"N_COORD97":2540617.25,"ADDRESS":"復興路９３號","OBJECTID":136151},"geometry":{"x":177764.16999999993,"y":2540617.25}},{"attributes":{"ID":136152,"DIS_CODE":0,"TOWNNAME":"歸仁區","LI":"辜厝里","LIN":"6鄰","STREET":"民族南街","SECT":" ","MAREA":" ","LANE":" ","ALLEY":" ","HOUSE_NO":"８９號","E_COORD97":177408.89000000001,"N_COORD97":2540624.5499999998,"ADDRESS":"民族南街８９號","OBJECTID":136152},"geometry":{"x":177408.8900000006,"y":2540624.5500000026}},{"attributes":{"ID":136153,"DIS_CODE":0,"TOWNNAME":"永康區","LI":"東橋里","LIN":"27鄰","STREET":"中正路","SECT":" ","MAREA":" ","LANE":"２７９巷","ALLEY":"２１弄","HOUSE_NO":"１５號","E_COORD97":172594.01000000001,"N_COORD97":2547839.4900000002,"ADDRESS":"中正路２７９巷２１弄１５號","OBJECTID":136153},"geometry":{"x":172594.01000000071,"y":2547839.4900000021}},{"attributes":{"ID":136154,"DIS_CODE":0,"TOWNNAME":"永康區","LI":"東橋里","LIN":"27鄰","STREET":"中正路","SECT":" ","MAREA":" ","LANE":"２７９巷","ALLEY":"２１弄","HOUSE_NO":"７號","E_COORD97":172608.39999999999,"N_COORD97":2547857.5,"ADDRESS":"中正路２７９巷２１弄７號","OBJECTID":136154},"geometry":{"x":172608.40000000224,"y":2547857.5}},{"attributes":{"ID":136155,"DIS_CODE":0,"TOWNNAME":"後壁區","LI":"竹新里","LIN":" ","STREET":" ","SECT":" ","MAREA":"竹圍後","LANE":" ","ALLEY":" ","HOUSE_NO":"４９之１號","E_COORD97":178221.28,"N_COORD97":2582357.02,"ADDRESS":"竹圍後４９之１號","OBJECTID":136155},"geometry":{"x":178221.28000000026,"y":2582357.0199999996}},{"attributes":{"ID":136156,"DIS_CODE":0,"TOWNNAME":"後壁區","LI":"竹新里","LIN":" ","STREET":" ","SECT":" ","MAREA":"竹圍後","LANE":" ","ALLEY":" ","HOUSE_NO":"４９號","E_COORD97":178280.75,"N_COORD97":2582391.3100000001,"ADDRESS":"竹圍後４９號","OBJECTID":136156},"geometry":{"x":178280.75,"y":2582391.3100000005}},{"attributes":{"ID":136157,"DIS_CODE":0,"TOWNNAME":"永康區","LI":"東橋里","LIN":"27鄰","STREET":"中正路","SECT":" ","MAREA":" ","LANE":"２７９巷","ALLEY":"２１弄","HOUSE_NO":"４１號","E_COORD97":172523.45999999999,"N_COORD97":2547747.2400000002,"ADDRESS":"中正路２７９巷２１弄４１號","OBJECTID":136157},"geometry":{"x":172523.46000000089,"y":2547747.2400000002}},{"attributes":{"ID":136158,"DIS_CODE":0,"TOWNNAME":"後壁區","LI":"竹新里","LIN":" ","STREET":" ","SECT":" ","MAREA":"竹圍後","LANE":" ","ALLEY":" ","HOUSE_NO":"５６號","E_COORD97":178350.07000000001,"N_COORD97":2582284.6299999999,"ADDRESS":"竹圍後５６號","OBJECTID":136158},"geometry":{"x":178350.0700000003,"y":2582284.629999999}},{"attributes":{"ID":136159,"DIS_CODE":0,"TOWNNAME":"後壁區","LI":"竹新里","LIN":" ","STREET":" ","SECT":" ","MAREA":"竹圍後","LANE":" ","ALLEY":" ","HOUSE_NO":"６１號","E_COORD97":178393.60000000001,"N_COORD97":2582333.1699999999,"ADDRESS":"竹圍後６１號","OBJECTID":136159},"geometry":{"x":178393.60000000149,"y":2582333.1699999999}},{"attributes":{"ID":136160,"DIS_CODE":0,"TOWNNAME":"永康區","LI":"東橋里","LIN":"27鄰","STREET":"中正路","SECT":" ","MAREA":" ","LANE":"２７９巷","ALLEY":"２１弄","HOUSE_NO":"３號之１","E_COORD97":172588.70000000001,"N_COORD97":2547860.7999999998,"ADDRESS":"中正路２７９巷２１弄３號之１","OBJECTID":136160},"geometry":{"x":172588.70000000019,"y":2547860.8000000045}},{"attributes":{"ID":136161,"DIS_CODE":0,"TOWNNAME":"永康區","LI":"東橋里","LIN":"27鄰","STREET":"中正路","SECT":" ","MAREA":" ","LANE":"２７９巷","ALLEY":"２１弄","HOUSE_NO":"２３號","E_COORD97":172567.47,"N_COORD97":2547786.3700000001,"ADDRESS":"中正路２７９巷２１弄２３號","OBJECTID":136161},"geometry":{"x":172567.46999999974,"y":2547786.3700000048}},{"attributes":{"ID":136162,"DIS_CODE":0,"TOWNNAME":"永康區","LI":"東橋里","LIN":"27鄰","STREET":"中正路","SECT":" ","MAREA":" ","LANE":"２７９巷","ALLEY":"２１弄","HOUSE_NO":"５號","E_COORD97":172598.73999999999,"N_COORD97":2547858.25,"ADDRESS":"中正路２７９巷２１弄５號","OBJECTID":136162},"geometry":{"x":172598.74000000022,"y":2547858.2500000019}},{"attributes":{"ID":136163,"DIS_CODE":0,"TOWNNAME":"永康區","LI":"東橋里","LIN":"27鄰","STREET":"中正路","SECT":" ","MAREA":" ","LANE":"２７９巷","ALLEY":"２１弄","HOUSE_NO":"２２號","E_COORD97":172512.29999999999,"N_COORD97":2547832.4900000002,"ADDRESS":"中正路２７９巷２１弄２２號","OBJECTID":136163},"geometry":{"x":172512.30000000075,"y":2547832.4900000021}},{"attributes":{"ID":136164,"DIS_CODE":0,"TOWNNAME":"永康區","LI":"東橋里","LIN":"27鄰","STREET":"中正路","SECT":" ","MAREA":" ","LANE":"２７９巷","ALLEY":"２１弄","HOUSE_NO":"９號","E_COORD97":172614.25,"N_COORD97":2547857.25,"ADDRESS":"中正路２７９巷２１弄９號","OBJECTID":136164},"geometry":{"x":172614.25000000093,"y":2547857.2500000037}},{"attributes":{"ID":136165,"DIS_CODE":0,"TOWNNAME":"永康區","LI":"東橋里","LIN":"27鄰","STREET":"中正路","SECT":" ","MAREA":" ","LANE":"２７９巷","ALLEY":"２弄","HOUSE_NO":"３７號","E_COORD97":172667.12,"N_COORD97":2547925.52,"ADDRESS":"中正路２７９巷２弄３７號","OBJECTID":136165},"geometry":{"x":172667.12000000011,"y":2547925.5199999996}},{"attributes":{"ID":136166,"DIS_CODE":0,"TOWNNAME":"永康區","LI":"東橋里","LIN":"27鄰","STREET":"中正路","SECT":" ","MAREA":" ","LANE":"２７９巷","ALLEY":"２１弄","HOUSE_NO":"４９號","E_COORD97":172653.66,"N_COORD97":2547835.7400000002,"ADDRESS":"中正路２７９巷２１弄４９號","OBJECTID":136166},"geometry":{"x":172653.65999999922,"y":2547835.7400000002}},{"attributes":{"ID":136167,"DIS_CODE":0,"TOWNNAME":"新市區","LI":"新市里","LIN":"27鄰","STREET":"復興路","SECT":" ","MAREA":" ","LANE":"６巷","ALLEY":"１９弄","HOUSE_NO":"２９之６號","E_COORD97":177857.62,"N_COORD97":2553430.7999999998,"ADDRESS":"復興路６巷１９弄２９之６號","OBJECTID":136167},"geometry":{"x":177857.62000000011,"y":2553430.8000000007}},{"attributes":{"ID":136168,"DIS_CODE":0,"TOWNNAME":"新市區","LI":"新市里","LIN":"27鄰","STREET":"復興路","SECT":" ","MAREA":" ","LANE":"６巷","ALLEY":"１９弄","HOUSE_NO":"２９之８號","E_COORD97":177853.73000000001,"N_COORD97":2553430.7999999998,"ADDRESS":"復興路６巷１９弄２９之８號","OBJECTID":136168},"geometry":{"x":177853.73000000045,"y":2553430.8000000007}},{"attributes":{"ID":136169,"DIS_CODE":0,"TOWNNAME":"後壁區","LI":"竹新里","LIN":" ","STREET":" ","SECT":" ","MAREA":"竹圍後","LANE":" ","ALLEY":" ","HOUSE_NO":"７６號","E_COORD97":178494.22,"N_COORD97":2582337.1099999999,"ADDRESS":"竹圍後７６號","OBJECTID":136169},"geometry":{"x":178494.21999999974,"y":2582337.1099999994}},{"attributes":{"ID":136170,"DIS_CODE":0,"TOWNNAME":"後壁區","LI":"竹新里","LIN":" ","STREET":" ","SECT":" ","MAREA":"竹圍後","LANE":" ","ALLEY":" ","HOUSE_NO":"８２之３號","E_COORD97":178414.09,"N_COORD97":2582247.7400000002,"ADDRESS":"竹圍後８２之３號","OBJECTID":136170},"geometry":{"x":178414.08999999892,"y":2582247.7400000002}},{"attributes":{"ID":136171,"DIS_CODE":0,"TOWNNAME":"後壁區","LI":"竹新里","LIN":" ","STREET":" ","SECT":" ","MAREA":"竹圍後","LANE":" ","ALLEY":" ","HOUSE_NO":"８２之４號","E_COORD97":178411.13,"N_COORD97":2582239.1400000001,"ADDRESS":"竹圍後８２之４號","OBJECTID":136171},"geometry":{"x":178411.13000000082,"y":2582239.1400000006}},{"attributes":{"ID":136172,"DIS_CODE":0,"TOWNNAME":"後壁區","LI":"竹新里","LIN":" ","STREET":" ","SECT":" ","MAREA":"竹圍後","LANE":" ","ALLEY":" ","HOUSE_NO":"８４號","E_COORD97":178407.57999999999,"N_COORD97":2582255.2799999998,"ADDRESS":"竹圍後８４號","OBJECTID":136172},"geometry":{"x":178407.57999999914,"y":2582255.2800000012}},{"attributes":{"ID":136173,"DIS_CODE":0,"TOWNNAME":"後壁區","LI":"竹新里","LIN":" ","STREET":" ","SECT":" ","MAREA":"竹圍後","LANE":" ","ALLEY":" ","HOUSE_NO":"８８之３號","E_COORD97":178303.66,"N_COORD97":2582224.2999999998,"ADDRESS":"竹圍後８８之３號","OBJECTID":136173},"geometry":{"x":178303.66000000015,"y":2582224.3000000007}},{"attributes":{"ID":136174,"DIS_CODE":0,"TOWNNAME":"後壁區","LI":"竹新里","LIN":" ","STREET":" ","SECT":" ","MAREA":"竹圍後","LANE":" ","ALLEY":" ","HOUSE_NO":"８之１號","E_COORD97":178628.37,"N_COORD97":2582554.2400000002,"ADDRESS":"竹圍後８之１號","OBJECTID":136174},"geometry":{"x":178628.37000000104,"y":2582554.2399999984}},{"attributes":{"ID":136175,"DIS_CODE":0,"TOWNNAME":"後壁區","LI":"頂長里","LIN":" ","STREET":" ","SECT":" ","MAREA":"長短樹","LANE":" ","ALLEY":" ","HOUSE_NO":"１０之２號","E_COORD97":181530.39000000001,"N_COORD97":2585059.3100000001,"ADDRESS":"長短樹１０之２號","OBJECTID":136175},"geometry":{"x":181530.38999999966,"y":2585059.3100000005}},{"attributes":{"ID":136176,"DIS_CODE":0,"TOWNNAME":"後壁區","LI":"頂長里","LIN":" ","STREET":" ","SECT":" ","MAREA":"長短樹","LANE":" ","ALLEY":" ","HOUSE_NO":"１６之２附１號","E_COORD97":181492.54999999999,"N_COORD97":2584930.8999999999,"ADDRESS":"長短樹１６之２附１號","OBJECTID":136176},"geometry":{"x":181492.54999999981,"y":2584930.9000000022}},{"attributes":{"ID":136177,"DIS_CODE":0,"TOWNNAME":"後壁區","LI":"頂長里","LIN":" ","STREET":" ","SECT":" ","MAREA":"長短樹","LANE":" ","ALLEY":" ","HOUSE_NO":"１６之３號","E_COORD97":181492.82999999999,"N_COORD97":2584904.6600000001,"ADDRESS":"長短樹１６之３號","OBJECTID":136177},"geometry":{"x":181492.82999999914,"y":2584904.6600000039}},{"attributes":{"ID":136178,"DIS_CODE":0,"TOWNNAME":"後壁區","LI":"頂長里","LIN":" ","STREET":" ","SECT":" ","MAREA":"長短樹","LANE":" ","ALLEY":" ","HOUSE_NO":"１６之６號","E_COORD97":181525.31,"N_COORD97":2584933.6000000001,"ADDRESS":"長短樹１６之６號","OBJECTID":136178},"geometry":{"x":181525.31000000052,"y":2584933.5999999996}},{"attributes":{"ID":136179,"DIS_CODE":0,"TOWNNAME":"後壁區","LI":"頂長里","LIN":" ","STREET":" ","SECT":" ","MAREA":"長短樹","LANE":" ","ALLEY":" ","HOUSE_NO":"２０號","E_COORD97":181429.14999999999,"N_COORD97":2585074.5099999998,"ADDRESS":"長短樹２０號","OBJECTID":136179},"geometry":{"x":181429.1500000013,"y":2585074.5099999979}},{"attributes":{"ID":136180,"DIS_CODE":0,"TOWNNAME":"後壁區","LI":"頂長里","LIN":" ","STREET":" ","SECT":" ","MAREA":"長短樹","LANE":" ","ALLEY":" ","HOUSE_NO":"２３之１號","E_COORD97":181452.97,"N_COORD97":2585010.9300000002,"ADDRESS":"長短樹２３之１號","OBJECTID":136180},"geometry":{"x":181452.97000000067,"y":2585010.9300000034}},{"attributes":{"ID":136181,"DIS_CODE":0,"TOWNNAME":"後壁區","LI":"頂長里","LIN":" ","STREET":" ","SECT":" ","MAREA":"長短樹","LANE":" ","ALLEY":" ","HOUSE_NO":"２４之１１號","E_COORD97":181394.70999999999,"N_COORD97":2584924.6200000001,"ADDRESS":"長短樹２４之１１號","OBJECTID":136181},"geometry":{"x":181394.70999999996,"y":2584924.620000001}},{"attributes":{"ID":136182,"DIS_CODE":0,"TOWNNAME":"後壁區","LI":"頂長里","LIN":" ","STREET":" ","SECT":" ","MAREA":"長短樹","LANE":" ","ALLEY":" ","HOUSE_NO":"２４之１號","E_COORD97":181426.01000000001,"N_COORD97":2584905.46,"ADDRESS":"長短樹２４之１號","OBJECTID":136182},"geometry":{"x":181426.01000000071,"y":2584905.4600000009}},{"attributes":{"ID":136183,"DIS_CODE":0,"TOWNNAME":"後壁區","LI":"頂長里","LIN":" ","STREET":" ","SECT":" ","MAREA":"長短樹","LANE":" ","ALLEY":" ","HOUSE_NO":"２４號","E_COORD97":181425.09,"N_COORD97":2584991.9900000002,"ADDRESS":"長短樹２４號","OBJECTID":136183},"geometry":{"x":181425.09000000078,"y":2584991.9900000021}},{"attributes":{"ID":136184,"DIS_CODE":0,"TOWNNAME":"後壁區","LI":"頂長里","LIN":" ","STREET":" ","SECT":" ","MAREA":"長短樹","LANE":" ","ALLEY":" ","HOUSE_NO":"２６號","E_COORD97":181391.45000000001,"N_COORD97":2585073.0499999998,"ADDRESS":"長短樹２６號","OBJECTID":136184},"geometry":{"x":181391.45000000019,"y":2585073.0500000026}},{"attributes":{"ID":136185,"DIS_CODE":0,"TOWNNAME":"歸仁區","LI":"後市里","LIN":"6鄰","STREET":"大吉一街","SECT":" ","MAREA":" ","LANE":" ","ALLEY":" ","HOUSE_NO":"３７號","E_COORD97":177159.01000000001,"N_COORD97":2540691.25,"ADDRESS":"大吉一街３７號","OBJECTID":136185},"geometry":{"x":177159.01000000071,"y":2540691.2500000019}},{"attributes":{"ID":136186,"DIS_CODE":0,"TOWNNAME":"歸仁區","LI":"沙崙里","LIN":"6鄰","STREET":" ","SECT":" ","MAREA":"沙崙","LANE":" ","ALLEY":" ","HOUSE_NO":"２７７號","E_COORD97":179590.57999999999,"N_COORD97":2537995.25,"ADDRESS":"沙崙２７７號","OBJECTID":136186},"geometry":{"x":179590.58000000007,"y":2537995.2500000019}},{"attributes":{"ID":136187,"DIS_CODE":0,"TOWNNAME":"歸仁區","LI":"沙崙里","LIN":"6鄰","STREET":" ","SECT":" ","MAREA":"沙崙","LANE":" ","ALLEY":" ","HOUSE_NO":"３０５號","E_COORD97":179594.88,"N_COORD97":2538042.25,"ADDRESS":"沙崙３０５號","OBJECTID":136187},"geometry":{"x":179594.87999999989,"y":2538042.2500000019}},{"attributes":{"ID":136188,"DIS_CODE":0,"TOWNNAME":"歸仁區","LI":"沙崙里","LIN":"6鄰","STREET":" ","SECT":" ","MAREA":"沙崙","LANE":" ","ALLEY":" ","HOUSE_NO":"２７１號","E_COORD97":179579.17999999999,"N_COORD97":2537968.25,"ADDRESS":"沙崙２７１號","OBJECTID":136188},"geometry":{"x":179579.1799999997,"y":2537968.2500000019}},{"attributes":{"ID":136189,"DIS_CODE":0,"TOWNNAME":"新營區","LI":"太北里","LIN":"6鄰","STREET":" ","SECT":" ","MAREA":"太子宮","LANE":" ","ALLEY":" ","HOUSE_NO":"５１之２號","E_COORD97":175892.23000000001,"N_COORD97":2577085.5099999998,"ADDRESS":"太子宮５１之２號","OBJECTID":136189},"geometry":{"x":175892.23000000138,"y":2577085.5099999998}},{"attributes":{"ID":136190,"DIS_CODE":0,"TOWNNAME":"新營區","LI":"太南里","LIN":"6鄰","STREET":" ","SECT":" ","MAREA":"太子宮","LANE":" ","ALLEY":" ","HOUSE_NO":"２１６之１號","E_COORD97":176195.41,"N_COORD97":2576901.27,"ADDRESS":"太子宮２１６之１號","OBJECTID":136190},"geometry":{"x":176195.41000000108,"y":2576901.2699999996}},{"attributes":{"ID":136191,"DIS_CODE":0,"TOWNNAME":"新市區","LI":"新市里","LIN":"27鄰","STREET":"復興路","SECT":" ","MAREA":" ","LANE":"６巷","ALLEY":"１９弄","HOUSE_NO":"１９號","E_COORD97":177878.54000000001,"N_COORD97":2553405.5299999998,"ADDRESS":"復興路６巷１９弄１９號","OBJECTID":136191},"geometry":{"x":177878.54000000004,"y":2553405.5300000012}},{"attributes":{"ID":136192,"DIS_CODE":0,"TOWNNAME":"新營區","LI":"太南里","LIN":"6鄰","STREET":" ","SECT":" ","MAREA":"太子宮","LANE":" ","ALLEY":" ","HOUSE_NO":"２１６號","E_COORD97":176200,"N_COORD97":2576887.8999999999,"ADDRESS":"太子宮２１６號","OBJECTID":136192},"geometry":{"x":176200.00000000093,"y":2576887.9000000004}},{"attributes":{"ID":136193,"DIS_CODE":0,"TOWNNAME":"新營區","LI":"太北里","LIN":"6鄰","STREET":" ","SECT":" ","MAREA":"太子宮","LANE":" ","ALLEY":" ","HOUSE_NO":"４５號之２","E_COORD97":175767.54000000001,"N_COORD97":2577141.5,"ADDRESS":"太子宮４５號之２","OBJECTID":136193},"geometry":{"x":175767.54000000097,"y":2577141.5000000037}},{"attributes":{"ID":136194,"DIS_CODE":0,"TOWNNAME":"新營區","LI":"太北里","LIN":"6鄰","STREET":" ","SECT":" ","MAREA":"太子宮","LANE":" ","ALLEY":" ","HOUSE_NO":"４７號之１５","E_COORD97":175865.07000000001,"N_COORD97":2577162.0600000001,"ADDRESS":"太子宮４７號之１５","OBJECTID":136194},"geometry":{"x":175865.0700000003,"y":2577162.0600000042}},{"attributes":{"ID":136195,"DIS_CODE":0,"TOWNNAME":"後壁區","LI":"頂長里","LIN":" ","STREET":" ","SECT":" ","MAREA":"長短樹","LANE":" ","ALLEY":" ","HOUSE_NO":"３８之２號","E_COORD97":181242.09,"N_COORD97":2584974.3599999999,"ADDRESS":"長短樹３８之２號","OBJECTID":136195},"geometry":{"x":181242.09000000078,"y":2584974.3600000013}},{"attributes":{"ID":136196,"DIS_CODE":0,"TOWNNAME":"後壁區","LI":"頂長里","LIN":" ","STREET":" ","SECT":" ","MAREA":"長短樹","LANE":" ","ALLEY":" ","HOUSE_NO":"３之１號","E_COORD97":181547.79999999999,"N_COORD97":2585153.6499999999,"ADDRESS":"長短樹３之１號","OBJECTID":136196},"geometry":{"x":181547.80000000075,"y":2585153.6500000022}},{"attributes":{"ID":136197,"DIS_CODE":0,"TOWNNAME":"後壁區","LI":"頂長里","LIN":" ","STREET":" ","SECT":" ","MAREA":"長短樹","LANE":" ","ALLEY":" ","HOUSE_NO":"４３號","E_COORD97":181647.06,"N_COORD97":2584970.8599999999,"ADDRESS":"長短樹４３號","OBJECTID":136197},"geometry":{"x":181647.06000000052,"y":2584970.8600000013}},{"attributes":{"ID":136198,"DIS_CODE":0,"TOWNNAME":"後壁區","LI":"頂長里","LIN":" ","STREET":" ","SECT":" ","MAREA":"長短樹","LANE":" ","ALLEY":" ","HOUSE_NO":"７３之１號","E_COORD97":181762.97,"N_COORD97":2585103,"ADDRESS":"長短樹７３之１號","OBJECTID":136198},"geometry":{"x":181762.9700000016,"y":2585103.0000000019}},{"attributes":{"ID":136199,"DIS_CODE":0,"TOWNNAME":"後壁區","LI":"頂長里","LIN":" ","STREET":" ","SECT":" ","MAREA":"長短樹","LANE":" ","ALLEY":" ","HOUSE_NO":"８之１號","E_COORD97":181487.32000000001,"N_COORD97":2585158.4100000001,"ADDRESS":"長短樹８之１號","OBJECTID":136199},"geometry":{"x":181487.32000000123,"y":2585158.410000002}},{"attributes":{"ID":136200,"DIS_CODE":0,"TOWNNAME":"後壁區","LI":"頂長里","LIN":" ","STREET":" ","SECT":" ","MAREA":"長短樹","LANE":" ","ALLEY":" ","HOUSE_NO":"８之２號","E_COORD97":181470.28,"N_COORD97":2585107.46,"ADDRESS":"長短樹８之２號","OBJECTID":136200},"geometry":{"x":181470.28000000119,"y":2585107.4600000028}}]}