{"displayFieldName":"TOWNNAME","fieldAliases":{"ID":"ID","DIS_CODE":"DIS_CODE","TOWNNAME":"TOWNNAME","LI":"LI","LIN":"LIN","STREET":"STREET","SECT":"SECT","MAREA":"MAREA","LANE":"LANE","ALLEY":"ALLEY","HOUSE_NO":"HOUSE_NO","E_COORD97":"E_COORD97","N_COORD97":"N_COORD97","ADDRESS":"ADDRESS","OBJECTID":"OBJECTID"},"geometryType":"esriGeometryPoint","spatialReference":{"wkid":102443,"latestWkid":3826},"fields":[{"name":"ID","type":"esriFieldTypeDouble","alias":"ID"},{"name":"DIS_CODE","type":"esriFieldTypeInteger","alias":"DIS_CODE"},{"name":"TOWNNAME","type":"esriFieldTypeString","alias":"TOWNNAME","length":8},{"name":"LI","type":"esriFieldTypeString","alias":"LI","length":8},{"name":"LIN","type":"esriFieldTypeString","alias":"LIN","length":12},{"name":"STREET","type":"esriFieldTypeString","alias":"STREET","length":20},{"name":"SECT","type":"esriFieldTypeString","alias":"SECT","length":8},{"name":"MAREA","type":"esriFieldTypeString","alias":"MAREA","length":12},{"name":"LANE","type":"esriFieldTypeString","alias":"LANE","length":10},{"name":"ALLEY","type":"esriFieldTypeString","alias":"ALLEY","length":10},{"name":"HOUSE_NO","type":"esriFieldTypeString","alias":"HOUSE_NO","length":20},{"name":"E_COORD97","type":"esriFieldTypeDouble","alias":"E_COORD97"},{"name":"N_COORD97","type":"esriFieldTypeDouble","alias":"N_COORD97"},{"name":"ADDRESS","type":"esriFieldTypeString","alias":"ADDRESS","length":50},{"name":"OBJECTID","type":"esriFieldTypeOID","alias":"OBJECTID"}],"features":[{"attributes":{"ID":204802,"DIS_CODE":0,"TOWNNAME":"安南區","LI":"溪心里","LIN":"19鄰","STREET":"海中街","SECT":" ","MAREA":" ","LANE":" ","ALLEY":" ","HOUSE_NO":"８００號","E_COORD97":165948.20999999999,"N_COORD97":2549969.2999999998,"ADDRESS":"海中街８００號","OBJECTID":204801},"geometry":{"x":165948.20999999996,"y":2549969.3000000007}},{"attributes":{"ID":204803,"DIS_CODE":0,"TOWNNAME":"東區","LI":"小東里","LIN":"25鄰","STREET":"小東路","SECT":" ","MAREA":" ","LANE":"１９８巷","ALLEY":"６弄","HOUSE_NO":"１１號","E_COORD97":170792.51000000001,"N_COORD97":2544437.5699999998,"ADDRESS":"小東路１９８巷６弄１１號","OBJECTID":204802},"geometry":{"x":170792.50999999978,"y":2544437.5699999984}},{"attributes":{"ID":204804,"DIS_CODE":0,"TOWNNAME":"東區","LI":"小東里","LIN":"25鄰","STREET":"小東路","SECT":" ","MAREA":" ","LANE":"１９８巷","ALLEY":"６弄","HOUSE_NO":"１１號之１","E_COORD97":170788.91,"N_COORD97":2544423.0499999998,"ADDRESS":"小東路１９８巷６弄１１號之１","OBJECTID":204803},"geometry":{"x":170788.91000000015,"y":2544423.0500000026}},{"attributes":{"ID":204805,"DIS_CODE":0,"TOWNNAME":"東區","LI":"小東里","LIN":"25鄰","STREET":"小東路","SECT":" ","MAREA":" ","LANE":"１９８巷","ALLEY":"６弄","HOUSE_NO":"３３號","E_COORD97":170735.06,"N_COORD97":2544421.1200000001,"ADDRESS":"小東路１９８巷６弄３３號","OBJECTID":204804},"geometry":{"x":170735.06000000052,"y":2544421.1200000048}},{"attributes":{"ID":204806,"DIS_CODE":0,"TOWNNAME":"東區","LI":"泉南里","LIN":"25鄰","STREET":"光華街","SECT":" ","MAREA":" ","LANE":"２２９巷","ALLEY":"１７弄","HOUSE_NO":"１４號","E_COORD97":169498.82999999999,"N_COORD97":2542922.54,"ADDRESS":"光華街２２９巷１７弄１４號","OBJECTID":204805},"geometry":{"x":169498.83000000007,"y":2542922.540000001}},{"attributes":{"ID":204807,"DIS_CODE":0,"TOWNNAME":"東區","LI":"泉南里","LIN":"25鄰","STREET":"光華街","SECT":" ","MAREA":" ","LANE":"２２９巷","ALLEY":"１７弄","HOUSE_NO":"２號","E_COORD97":169479.35000000001,"N_COORD97":2542928.48,"ADDRESS":"光華街２２９巷１７弄２號","OBJECTID":204806},"geometry":{"x":169479.35000000056,"y":2542928.4800000004}},{"attributes":{"ID":204808,"DIS_CODE":0,"TOWNNAME":"東區","LI":"泉南里","LIN":"25鄰","STREET":"光華街","SECT":" ","MAREA":" ","LANE":"２２９巷","ALLEY":"１７弄","HOUSE_NO":"８號","E_COORD97":169487.69,"N_COORD97":2542925.9900000002,"ADDRESS":"光華街２２９巷１７弄８號","OBJECTID":204807},"geometry":{"x":169487.69000000134,"y":2542925.9900000039}},{"attributes":{"ID":204809,"DIS_CODE":0,"TOWNNAME":"東區","LI":"泉南里","LIN":"25鄰","STREET":"光華街","SECT":" ","MAREA":" ","LANE":"２２９巷","ALLEY":"１７弄","HOUSE_NO":"６號","E_COORD97":169484.22,"N_COORD97":2542927.0800000001,"ADDRESS":"光華街２２９巷１７弄６號","OBJECTID":204808},"geometry":{"x":169484.21999999974,"y":2542927.0800000001}},{"attributes":{"ID":204810,"DIS_CODE":0,"TOWNNAME":"東區","LI":"小東里","LIN":"25鄰","STREET":"小東路","SECT":" ","MAREA":" ","LANE":"１９８巷","ALLEY":"６弄","HOUSE_NO":"３１號","E_COORD97":170733.82000000001,"N_COORD97":2544432.3500000001,"ADDRESS":"小東路１９８巷６弄３１號","OBJECTID":204809},"geometry":{"x":170733.81999999937,"y":2544432.3500000015}},{"attributes":{"ID":204811,"DIS_CODE":0,"TOWNNAME":"永康區","LI":"安康里","LIN":"25鄰","STREET":"中華路","SECT":" ","MAREA":" ","LANE":"７０３巷","ALLEY":"４弄","HOUSE_NO":"６號","E_COORD97":170868.10999999999,"N_COORD97":2546330.25,"ADDRESS":"中華路７０３巷４弄６號","OBJECTID":204810},"geometry":{"x":170868.11000000127,"y":2546330.25}},{"attributes":{"ID":204812,"DIS_CODE":0,"TOWNNAME":"東區","LI":"小東里","LIN":"25鄰","STREET":"小東路","SECT":" ","MAREA":" ","LANE":"１９８巷","ALLEY":"６弄","HOUSE_NO":"３１號之１","E_COORD97":170729.31,"N_COORD97":2544432.3500000001,"ADDRESS":"小東路１９８巷６弄３１號之１","OBJECTID":204811},"geometry":{"x":170729.30999999959,"y":2544432.3500000015}},{"attributes":{"ID":204813,"DIS_CODE":0,"TOWNNAME":"東區","LI":"小東里","LIN":"25鄰","STREET":"小東路","SECT":" ","MAREA":" ","LANE":"１９８巷","ALLEY":"６弄","HOUSE_NO":"３１號之２","E_COORD97":170720.87,"N_COORD97":2544432.5699999998,"ADDRESS":"小東路１９８巷６弄３１號之２","OBJECTID":204812},"geometry":{"x":170720.87000000011,"y":2544432.5700000022}},{"attributes":{"ID":204814,"DIS_CODE":0,"TOWNNAME":"東區","LI":"小東里","LIN":"25鄰","STREET":"小東路","SECT":" ","MAREA":" ","LANE":"１９８巷","ALLEY":"６弄","HOUSE_NO":"３號","E_COORD97":170807.04000000001,"N_COORD97":2544429.3500000001,"ADDRESS":"小東路１９８巷６弄３號","OBJECTID":204813},"geometry":{"x":170807.04000000097,"y":2544429.3500000015}},{"attributes":{"ID":204815,"DIS_CODE":0,"TOWNNAME":"東區","LI":"小東里","LIN":"25鄰","STREET":"小東路","SECT":" ","MAREA":" ","LANE":"１９８巷","ALLEY":"６弄","HOUSE_NO":"５號","E_COORD97":170804.10999999999,"N_COORD97":2544432.8399999999,"ADDRESS":"小東路１９８巷６弄５號","OBJECTID":204814},"geometry":{"x":170804.11000000034,"y":2544432.8400000017}},{"attributes":{"ID":204816,"DIS_CODE":0,"TOWNNAME":"東區","LI":"小東里","LIN":"25鄰","STREET":"小東路","SECT":" ","MAREA":" ","LANE":"１９８巷","ALLEY":"６弄","HOUSE_NO":"７號","E_COORD97":170800.17000000001,"N_COORD97":2544434.1899999999,"ADDRESS":"小東路１９８巷６弄７號","OBJECTID":204815},"geometry":{"x":170800.16999999993,"y":2544434.1900000013}},{"attributes":{"ID":204817,"DIS_CODE":0,"TOWNNAME":"將軍區","LI":"忠興里","LIN":"2鄰","STREET":" ","SECT":" ","MAREA":"忠興","LANE":" ","ALLEY":" ","HOUSE_NO":"３６之３０號","E_COORD97":163674.97,"N_COORD97":2566711.4500000002,"ADDRESS":"忠興３６之３０號","OBJECTID":204816},"geometry":{"x":163674.96999999974,"y":2566711.4499999993}},{"attributes":{"ID":204818,"DIS_CODE":0,"TOWNNAME":"白河區","LI":"草店里","LIN":"2鄰","STREET":" ","SECT":" ","MAREA":"草店","LANE":" ","ALLEY":" ","HOUSE_NO":"１５號","E_COORD97":192387.87,"N_COORD97":2587882.7200000002,"ADDRESS":"草店１５號","OBJECTID":204817},"geometry":{"x":192387.87000000104,"y":2587882.7200000025}},{"attributes":{"ID":204819,"DIS_CODE":0,"TOWNNAME":"將軍區","LI":"忠興里","LIN":"2鄰","STREET":" ","SECT":" ","MAREA":"忠興","LANE":" ","ALLEY":" ","HOUSE_NO":"３６之４號","E_COORD97":163697.92999999999,"N_COORD97":2566725.7999999998,"ADDRESS":"忠興３６之４號","OBJECTID":204818},"geometry":{"x":163697.93000000063,"y":2566725.8000000026}},{"attributes":{"ID":204820,"DIS_CODE":0,"TOWNNAME":"將軍區","LI":"長沙里","LIN":"2鄰","STREET":" ","SECT":" ","MAREA":"長沙","LANE":" ","ALLEY":" ","HOUSE_NO":"１０之１６號","E_COORD97":157409.62,"N_COORD97":2568707.73,"ADDRESS":"長沙１０之１６號","OBJECTID":204819},"geometry":{"x":157409.62000000104,"y":2568707.7300000004}},{"attributes":{"ID":204821,"DIS_CODE":0,"TOWNNAME":"將軍區","LI":"長沙里","LIN":"2鄰","STREET":" ","SECT":" ","MAREA":"長沙","LANE":" ","ALLEY":" ","HOUSE_NO":"１０之１７號","E_COORD97":157405.76999999999,"N_COORD97":2568707.6499999999,"ADDRESS":"長沙１０之１７號","OBJECTID":204820},"geometry":{"x":157405.76999999862,"y":2568707.6500000004}},{"attributes":{"ID":204822,"DIS_CODE":0,"TOWNNAME":"將軍區","LI":"長沙里","LIN":"2鄰","STREET":" ","SECT":" ","MAREA":"長沙","LANE":" ","ALLEY":" ","HOUSE_NO":"１０之１８號","E_COORD97":157401.35000000001,"N_COORD97":2568707.6000000001,"ADDRESS":"長沙１０之１８號","OBJECTID":204821},"geometry":{"x":157401.34999999963,"y":2568707.5999999996}},{"attributes":{"ID":204823,"DIS_CODE":0,"TOWNNAME":"學甲區","LI":"三慶里","LIN":"9鄰","STREET":" ","SECT":" ","MAREA":"頂洲","LANE":" ","ALLEY":" ","HOUSE_NO":"１１７號","E_COORD97":168415.97,"N_COORD97":2576453.04,"ADDRESS":"頂洲１１７號","OBJECTID":204822},"geometry":{"x":168415.96999999974,"y":2576453.040000001}},{"attributes":{"ID":204824,"DIS_CODE":0,"TOWNNAME":"學甲區","LI":"三慶里","LIN":"9鄰","STREET":" ","SECT":" ","MAREA":"頂洲","LANE":" ","ALLEY":" ","HOUSE_NO":"１１８號","E_COORD97":168422.16,"N_COORD97":2576438.1299999999,"ADDRESS":"頂洲１１８號","OBJECTID":204823},"geometry":{"x":168422.16000000015,"y":2576438.1300000008}},{"attributes":{"ID":204825,"DIS_CODE":0,"TOWNNAME":"東區","LI":"小東里","LIN":"25鄰","STREET":"小東路","SECT":" ","MAREA":" ","LANE":"１９８巷","ALLEY":"６弄","HOUSE_NO":"９號","E_COORD97":170796.79000000001,"N_COORD97":2544435.2000000002,"ADDRESS":"小東路１９８巷６弄９號","OBJECTID":204824},"geometry":{"x":170796.79000000097,"y":2544435.1999999993}},{"attributes":{"ID":204826,"DIS_CODE":0,"TOWNNAME":"東區","LI":"小東里","LIN":"25鄰","STREET":"小東路","SECT":" ","MAREA":" ","LANE":"１９８巷","ALLEY":"６弄","HOUSE_NO":"２１號之４","E_COORD97":170753.66,"N_COORD97":2544433.02,"ADDRESS":"小東路１９８巷６弄２１號之４","OBJECTID":204825},"geometry":{"x":170753.66000000108,"y":2544433.0199999996}},{"attributes":{"ID":204827,"DIS_CODE":0,"TOWNNAME":"東區","LI":"小東里","LIN":"25鄰","STREET":"小東路","SECT":" ","MAREA":" ","LANE":"１９８巷","ALLEY":"６弄","HOUSE_NO":"２１號之５","E_COORD97":170752.42000000001,"N_COORD97":2544429.2999999998,"ADDRESS":"小東路１９８巷６弄２１號之５","OBJECTID":204826},"geometry":{"x":170752.41999999993,"y":2544429.3000000007}},{"attributes":{"ID":204828,"DIS_CODE":0,"TOWNNAME":"東區","LI":"小東里","LIN":"25鄰","STREET":"小東路","SECT":" ","MAREA":" ","LANE":"１９８巷","ALLEY":"６弄","HOUSE_NO":"２１號之６","E_COORD97":170750.51000000001,"N_COORD97":2544425.8199999998,"ADDRESS":"小東路１９８巷６弄２１號之６","OBJECTID":204827},"geometry":{"x":170750.50999999978,"y":2544425.820000004}},{"attributes":{"ID":204829,"DIS_CODE":0,"TOWNNAME":"東區","LI":"小東里","LIN":"25鄰","STREET":"小東路","SECT":" ","MAREA":" ","LANE":"１９８巷","ALLEY":"６弄","HOUSE_NO":"２１號之７","E_COORD97":170749.26999999999,"N_COORD97":2544421.77,"ADDRESS":"小東路１９８巷６弄２１號之７","OBJECTID":204828},"geometry":{"x":170749.27000000048,"y":2544421.7699999977}},{"attributes":{"ID":204830,"DIS_CODE":0,"TOWNNAME":"東區","LI":"泉南里","LIN":"25鄰","STREET":"光華街","SECT":" ","MAREA":" ","LANE":"２２９巷","ALLEY":"２７弄","HOUSE_NO":"１５號","E_COORD97":169532.92000000001,"N_COORD97":2542911.7200000002,"ADDRESS":"光華街２２９巷２７弄１５號","OBJECTID":204829},"geometry":{"x":169532.92000000086,"y":2542911.7200000025}},{"attributes":{"ID":204831,"DIS_CODE":0,"TOWNNAME":"東區","LI":"泉南里","LIN":"25鄰","STREET":"光華街","SECT":" ","MAREA":" ","LANE":"２２９巷","ALLEY":"２７弄","HOUSE_NO":"１７號","E_COORD97":169536.92000000001,"N_COORD97":2542910.9700000002,"ADDRESS":"光華街２２９巷２７弄１７號","OBJECTID":204830},"geometry":{"x":169536.91999999993,"y":2542910.9700000025}},{"attributes":{"ID":204832,"DIS_CODE":0,"TOWNNAME":"東區","LI":"泉南里","LIN":"25鄰","STREET":"光華街","SECT":" ","MAREA":" ","LANE":"２２９巷","ALLEY":"２７弄","HOUSE_NO":"１９號","E_COORD97":169540.70999999999,"N_COORD97":2542909.2400000002,"ADDRESS":"光華街２２９巷２７弄１９號","OBJECTID":204831},"geometry":{"x":169540.70999999996,"y":2542909.2400000002}},{"attributes":{"ID":204833,"DIS_CODE":0,"TOWNNAME":"東區","LI":"泉南里","LIN":"25鄰","STREET":"光華街","SECT":" ","MAREA":" ","LANE":"２２９巷","ALLEY":"２７弄","HOUSE_NO":"１號","E_COORD97":169504.78,"N_COORD97":2542921.4500000002,"ADDRESS":"光華街２２９巷２７弄１號","OBJECTID":204832},"geometry":{"x":169504.78000000026,"y":2542921.4499999993}},{"attributes":{"ID":204834,"DIS_CODE":0,"TOWNNAME":"東區","LI":"泉南里","LIN":"25鄰","STREET":"光華街","SECT":" ","MAREA":" ","LANE":"２２９巷","ALLEY":"２７弄","HOUSE_NO":"２１號","E_COORD97":169544.28,"N_COORD97":2542908.1600000001,"ADDRESS":"光華街２２９巷２７弄２１號","OBJECTID":204833},"geometry":{"x":169544.28000000119,"y":2542908.160000002}},{"attributes":{"ID":204835,"DIS_CODE":0,"TOWNNAME":"東區","LI":"泉南里","LIN":"25鄰","STREET":"光華街","SECT":" ","MAREA":" ","LANE":"２２９巷","ALLEY":"２７弄","HOUSE_NO":"２３號","E_COORD97":169547.51999999999,"N_COORD97":2542906.3199999998,"ADDRESS":"光華街２２９巷２７弄２３號","OBJECTID":204834},"geometry":{"x":169547.52000000048,"y":2542906.3200000003}},{"attributes":{"ID":204836,"DIS_CODE":0,"TOWNNAME":"東區","LI":"泉南里","LIN":"25鄰","STREET":"光華街","SECT":" ","MAREA":" ","LANE":"２２９巷","ALLEY":"２７弄","HOUSE_NO":"２５號","E_COORD97":169551.85000000001,"N_COORD97":2542905.02,"ADDRESS":"光華街２２９巷２７弄２５號","OBJECTID":204835},"geometry":{"x":169551.85000000056,"y":2542905.0200000033}},{"attributes":{"ID":204837,"DIS_CODE":0,"TOWNNAME":"學甲區","LI":"三慶里","LIN":"9鄰","STREET":" ","SECT":" ","MAREA":"頂洲","LANE":" ","ALLEY":" ","HOUSE_NO":"１１９號","E_COORD97":168390.78,"N_COORD97":2576441.8599999999,"ADDRESS":"頂洲１１９號","OBJECTID":204836},"geometry":{"x":168390.78000000026,"y":2576441.8599999994}},{"attributes":{"ID":204838,"DIS_CODE":0,"TOWNNAME":"學甲區","LI":"三慶里","LIN":"9鄰","STREET":" ","SECT":" ","MAREA":"頂洲","LANE":" ","ALLEY":" ","HOUSE_NO":"１２０號之１","E_COORD97":168362.26000000001,"N_COORD97":2576434.5899999999,"ADDRESS":"頂洲１２０號之１","OBJECTID":204837},"geometry":{"x":168362.26000000164,"y":2576434.5899999999}},{"attributes":{"ID":204839,"DIS_CODE":0,"TOWNNAME":"學甲區","LI":"三慶里","LIN":"9鄰","STREET":" ","SECT":" ","MAREA":"頂洲","LANE":" ","ALLEY":" ","HOUSE_NO":"１２０號","E_COORD97":168374.12,"N_COORD97":2576437.7200000002,"ADDRESS":"頂洲１２０號","OBJECTID":204838},"geometry":{"x":168374.12000000104,"y":2576437.7200000007}},{"attributes":{"ID":204840,"DIS_CODE":0,"TOWNNAME":"學甲區","LI":"三慶里","LIN":"9鄰","STREET":" ","SECT":" ","MAREA":"頂洲","LANE":" ","ALLEY":" ","HOUSE_NO":"１２１號","E_COORD97":168381.70000000001,"N_COORD97":2576406.9399999999,"ADDRESS":"頂洲１２１號","OBJECTID":204839},"geometry":{"x":168381.70000000205,"y":2576406.9400000013}},{"attributes":{"ID":204841,"DIS_CODE":0,"TOWNNAME":"學甲區","LI":"三慶里","LIN":"9鄰","STREET":" ","SECT":" ","MAREA":"頂洲","LANE":" ","ALLEY":" ","HOUSE_NO":"１２２號","E_COORD97":168365.06,"N_COORD97":2576405.29,"ADDRESS":"頂洲１２２號","OBJECTID":204840},"geometry":{"x":168365.06000000145,"y":2576405.2899999991}},{"attributes":{"ID":204842,"DIS_CODE":0,"TOWNNAME":"學甲區","LI":"三慶里","LIN":"9鄰","STREET":" ","SECT":" ","MAREA":"頂洲","LANE":" ","ALLEY":" ","HOUSE_NO":"１２３號之１","E_COORD97":168351.87,"N_COORD97":2576400.8300000001,"ADDRESS":"頂洲１２３號之１","OBJECTID":204841},"geometry":{"x":168351.87000000104,"y":2576400.8300000019}},{"attributes":{"ID":204843,"DIS_CODE":0,"TOWNNAME":"東區","LI":"泉南里","LIN":"25鄰","STREET":"光華街","SECT":" ","MAREA":" ","LANE":"２２９巷","ALLEY":"２７弄","HOUSE_NO":"２９號","E_COORD97":169559.75,"N_COORD97":2542901.9900000002,"ADDRESS":"光華街２２９巷２７弄２９號","OBJECTID":204842},"geometry":{"x":169559.75000000093,"y":2542901.9900000002}},{"attributes":{"ID":204844,"DIS_CODE":0,"TOWNNAME":"東區","LI":"泉南里","LIN":"25鄰","STREET":"光華街","SECT":" ","MAREA":" ","LANE":"２２９巷","ALLEY":"２７弄","HOUSE_NO":"３號","E_COORD97":169509.10999999999,"N_COORD97":2542920.0499999998,"ADDRESS":"光華街２２９巷２７弄３號","OBJECTID":204843},"geometry":{"x":169509.11000000034,"y":2542920.0500000026}},{"attributes":{"ID":204845,"DIS_CODE":0,"TOWNNAME":"學甲區","LI":"慈福里","LIN":"9鄰","STREET":"博愛街","SECT":" ","MAREA":" ","LANE":" ","ALLEY":" ","HOUSE_NO":"２３號","E_COORD97":166666.54000000001,"N_COORD97":2569872.4199999999,"ADDRESS":"博愛街２３號","OBJECTID":204844},"geometry":{"x":166666.54000000004,"y":2569872.4199999999}},{"attributes":{"ID":204846,"DIS_CODE":0,"TOWNNAME":"學甲區","LI":"慈福里","LIN":"9鄰","STREET":"博愛街","SECT":" ","MAREA":" ","LANE":" ","ALLEY":" ","HOUSE_NO":"２５號","E_COORD97":166662.20999999999,"N_COORD97":2569872.9300000002,"ADDRESS":"博愛街２５號","OBJECTID":204845},"geometry":{"x":166662.20999999996,"y":2569872.9300000016}},{"attributes":{"ID":204847,"DIS_CODE":0,"TOWNNAME":"學甲區","LI":"慈福里","LIN":"9鄰","STREET":"博愛街","SECT":" ","MAREA":" ","LANE":" ","ALLEY":" ","HOUSE_NO":"２７號","E_COORD97":166657.53,"N_COORD97":2569873.1200000001,"ADDRESS":"博愛街２７號","OBJECTID":204846},"geometry":{"x":166657.53000000119,"y":2569873.1200000029}},{"attributes":{"ID":204848,"DIS_CODE":0,"TOWNNAME":"學甲區","LI":"慈福里","LIN":"9鄰","STREET":"博愛街","SECT":" ","MAREA":" ","LANE":" ","ALLEY":" ","HOUSE_NO":"２９號","E_COORD97":166653.37,"N_COORD97":2569873.73,"ADDRESS":"博愛街２９號","OBJECTID":204847},"geometry":{"x":166653.37000000104,"y":2569873.7300000004}},{"attributes":{"ID":204849,"DIS_CODE":0,"TOWNNAME":"東區","LI":"泉南里","LIN":"25鄰","STREET":"光華街","SECT":" ","MAREA":" ","LANE":"２２９巷","ALLEY":"２７弄","HOUSE_NO":"７號","E_COORD97":169516.67999999999,"N_COORD97":2542917.4500000002,"ADDRESS":"光華街２２９巷２７弄７號","OBJECTID":204848},"geometry":{"x":169516.6799999997,"y":2542917.4499999993}},{"attributes":{"ID":204850,"DIS_CODE":0,"TOWNNAME":"東區","LI":"泉南里","LIN":"25鄰","STREET":"光華街","SECT":" ","MAREA":" ","LANE":"２２９巷","ALLEY":"２７弄","HOUSE_NO":"９號","E_COORD97":169521.01000000001,"N_COORD97":2542915.8300000001,"ADDRESS":"光華街２２９巷２７弄９號","OBJECTID":204849},"geometry":{"x":169521.00999999978,"y":2542915.8300000001}},{"attributes":{"ID":204851,"DIS_CODE":0,"TOWNNAME":"東區","LI":"泉南里","LIN":"25鄰","STREET":"光華街","SECT":" ","MAREA":" ","LANE":"２２９巷","ALLEY":"２７弄","HOUSE_NO":"２７號","E_COORD97":169555.42000000001,"N_COORD97":2542903.6200000001,"ADDRESS":"光華街２２９巷２７弄２７號","OBJECTID":204850},"geometry":{"x":169555.42000000086,"y":2542903.6200000029}},{"attributes":{"ID":204852,"DIS_CODE":0,"TOWNNAME":"東區","LI":"泉南里","LIN":"25鄰","STREET":"光華街","SECT":" ","MAREA":" ","LANE":"２２９巷","ALLEY":"２７弄","HOUSE_NO":"１３號","E_COORD97":169528.59,"N_COORD97":2542912.2599999998,"ADDRESS":"光華街２２９巷２７弄１３號","OBJECTID":204851},"geometry":{"x":169528.59000000078,"y":2542912.2599999998}},{"attributes":{"ID":204853,"DIS_CODE":0,"TOWNNAME":"東區","LI":"泉南里","LIN":"25鄰","STREET":"光華街","SECT":" ","MAREA":" ","LANE":"２２９巷","ALLEY":"２７弄","HOUSE_NO":"３１號","E_COORD97":169564.62,"N_COORD97":2542900.3700000001,"ADDRESS":"光華街２２９巷２７弄３１號","OBJECTID":204852},"geometry":{"x":169564.62000000011,"y":2542900.3699999992}},{"attributes":{"ID":204854,"DIS_CODE":0,"TOWNNAME":"東區","LI":"小東里","LIN":"25鄰","STREET":"小東路","SECT":" ","MAREA":" ","LANE":"１９８巷","ALLEY":"６弄","HOUSE_NO":"３５號","E_COORD97":170729.76000000001,"N_COORD97":2544421.5699999998,"ADDRESS":"小東路１９８巷６弄３５號","OBJECTID":204853},"geometry":{"x":170729.75999999978,"y":2544421.5700000022}},{"attributes":{"ID":204855,"DIS_CODE":0,"TOWNNAME":"東區","LI":"小東里","LIN":"25鄰","STREET":"小東路","SECT":" ","MAREA":" ","LANE":"１９８巷","ALLEY":"６弄","HOUSE_NO":"３７號","E_COORD97":170725.70999999999,"N_COORD97":2544422.4700000002,"ADDRESS":"小東路１９８巷６弄３７號","OBJECTID":204854},"geometry":{"x":170725.70999999903,"y":2544422.4700000025}},{"attributes":{"ID":204856,"DIS_CODE":0,"TOWNNAME":"東區","LI":"小東里","LIN":"25鄰","STREET":"小東路","SECT":" ","MAREA":" ","LANE":"１９８巷","ALLEY":"６弄","HOUSE_NO":"３９號","E_COORD97":170722.10999999999,"N_COORD97":2544424.0499999998,"ADDRESS":"小東路１９８巷６弄３９號","OBJECTID":204855},"geometry":{"x":170722.11000000127,"y":2544424.0500000007}},{"attributes":{"ID":204857,"DIS_CODE":0,"TOWNNAME":"東區","LI":"小東里","LIN":"25鄰","STREET":"小東路","SECT":" ","MAREA":" ","LANE":"１９８巷","ALLEY":"６弄","HOUSE_NO":"４１號","E_COORD97":170717.38,"N_COORD97":2544426.8599999999,"ADDRESS":"小東路１９８巷６弄４１號","OBJECTID":204856},"geometry":{"x":170717.37999999989,"y":2544426.8599999994}},{"attributes":{"ID":204858,"DIS_CODE":0,"TOWNNAME":"東區","LI":"泉南里","LIN":"25鄰","STREET":"光華街","SECT":" ","MAREA":" ","LANE":"２２９巷","ALLEY":"２７弄","HOUSE_NO":"４３號","E_COORD97":169593.35999999999,"N_COORD97":2542889.9700000002,"ADDRESS":"光華街２２９巷２７弄４３號","OBJECTID":204857},"geometry":{"x":169593.36000000127,"y":2542889.9700000025}},{"attributes":{"ID":204859,"DIS_CODE":0,"TOWNNAME":"學甲區","LI":"新達里","LIN":"9鄰","STREET":"新生路","SECT":" ","MAREA":" ","LANE":" ","ALLEY":" ","HOUSE_NO":"１２號之１","E_COORD97":166561,"N_COORD97":2570544.77,"ADDRESS":"新生路１２號之１","OBJECTID":204858},"geometry":{"x":166561.00000000093,"y":2570544.7700000033}},{"attributes":{"ID":204860,"DIS_CODE":0,"TOWNNAME":"麻豆區","LI":"港尾里","LIN":"15鄰","STREET":" ","SECT":" ","MAREA":"客子寮","LANE":" ","ALLEY":" ","HOUSE_NO":"３８３號","E_COORD97":170063.88,"N_COORD97":2569317.5099999998,"ADDRESS":"客子寮３８３號","OBJECTID":204859},"geometry":{"x":170063.88000000082,"y":2569317.5100000016}},{"attributes":{"ID":204861,"DIS_CODE":0,"TOWNNAME":"麻豆區","LI":"港尾里","LIN":"15鄰","STREET":" ","SECT":" ","MAREA":"客子寮","LANE":" ","ALLEY":" ","HOUSE_NO":"３８５號","E_COORD97":170052.07999999999,"N_COORD97":2569322.23,"ADDRESS":"客子寮３８５號","OBJECTID":204860},"geometry":{"x":170052.08000000194,"y":2569322.2300000042}},{"attributes":{"ID":204862,"DIS_CODE":0,"TOWNNAME":"麻豆區","LI":"港尾里","LIN":"15鄰","STREET":" ","SECT":" ","MAREA":"客子寮","LANE":" ","ALLEY":" ","HOUSE_NO":"３８６號","E_COORD97":170120.79999999999,"N_COORD97":2569328.3799999999,"ADDRESS":"客子寮３８６號","OBJECTID":204861},"geometry":{"x":170120.79999999981,"y":2569328.379999999}},{"attributes":{"ID":204863,"DIS_CODE":0,"TOWNNAME":"麻豆區","LI":"港尾里","LIN":"15鄰","STREET":" ","SECT":" ","MAREA":"客子寮","LANE":" ","ALLEY":" ","HOUSE_NO":"３８７號","E_COORD97":170046.39000000001,"N_COORD97":2569324.8300000001,"ADDRESS":"客子寮３８７號","OBJECTID":204862},"geometry":{"x":170046.3900000006,"y":2569324.8300000019}},{"attributes":{"ID":204864,"DIS_CODE":0,"TOWNNAME":"麻豆區","LI":"港尾里","LIN":"15鄰","STREET":" ","SECT":" ","MAREA":"客子寮","LANE":" ","ALLEY":" ","HOUSE_NO":"３８８號","E_COORD97":170101,"N_COORD97":2569338.1600000001,"ADDRESS":"客子寮３８８號","OBJECTID":204863},"geometry":{"x":170101,"y":2569338.1600000001}},{"attributes":{"ID":204865,"DIS_CODE":0,"TOWNNAME":"麻豆區","LI":"港尾里","LIN":"15鄰","STREET":" ","SECT":" ","MAREA":"客子寮","LANE":" ","ALLEY":" ","HOUSE_NO":"３８９號","E_COORD97":170034.26000000001,"N_COORD97":2569330.4399999999,"ADDRESS":"客子寮３８９號","OBJECTID":204864},"geometry":{"x":170034.26000000071,"y":2569330.4400000013}},{"attributes":{"ID":204866,"DIS_CODE":0,"TOWNNAME":"麻豆區","LI":"港尾里","LIN":"15鄰","STREET":" ","SECT":" ","MAREA":"客子寮","LANE":" ","ALLEY":" ","HOUSE_NO":"３８號之１","E_COORD97":170393.60000000001,"N_COORD97":2568951.2999999998,"ADDRESS":"客子寮３８號之１","OBJECTID":204865},"geometry":{"x":170393.59999999963,"y":2568951.3000000007}},{"attributes":{"ID":204867,"DIS_CODE":0,"TOWNNAME":"麻豆區","LI":"港尾里","LIN":"15鄰","STREET":" ","SECT":" ","MAREA":"客子寮","LANE":" ","ALLEY":" ","HOUSE_NO":"３８號之２","E_COORD97":170391.19,"N_COORD97":2568948.1800000002,"ADDRESS":"客子寮３８號之２","OBJECTID":204866},"geometry":{"x":170391.19000000134,"y":2568948.1799999997}},{"attributes":{"ID":204868,"DIS_CODE":0,"TOWNNAME":"麻豆區","LI":"港尾里","LIN":"15鄰","STREET":" ","SECT":" ","MAREA":"客子寮","LANE":" ","ALLEY":" ","HOUSE_NO":"３８號","E_COORD97":170396.04999999999,"N_COORD97":2568953.8300000001,"ADDRESS":"客子寮３８號","OBJECTID":204867},"geometry":{"x":170396.04999999888,"y":2568953.8300000001}},{"attributes":{"ID":204869,"DIS_CODE":0,"TOWNNAME":"將軍區","LI":"長沙里","LIN":"2鄰","STREET":" ","SECT":" ","MAREA":"長沙","LANE":" ","ALLEY":" ","HOUSE_NO":"１０之１９號","E_COORD97":157397.32000000001,"N_COORD97":2568707.77,"ADDRESS":"長沙１０之１９號","OBJECTID":204868},"geometry":{"x":157397.3200000003,"y":2568707.7700000014}},{"attributes":{"ID":204870,"DIS_CODE":0,"TOWNNAME":"將軍區","LI":"長沙里","LIN":"2鄰","STREET":" ","SECT":" ","MAREA":"長沙","LANE":" ","ALLEY":" ","HOUSE_NO":"１０之２０號","E_COORD97":157393.54000000001,"N_COORD97":2568707.8500000001,"ADDRESS":"長沙１０之２０號","OBJECTID":204869},"geometry":{"x":157393.54000000004,"y":2568707.8500000015}},{"attributes":{"ID":204871,"DIS_CODE":0,"TOWNNAME":"學甲區","LI":"光華里","LIN":"9鄰","STREET":" ","SECT":" ","MAREA":"過港子","LANE":" ","ALLEY":" ","HOUSE_NO":"９２號之４","E_COORD97":164818.29000000001,"N_COORD97":2572450.3300000001,"ADDRESS":"過港子９２號之４","OBJECTID":204870},"geometry":{"x":164818.29000000097,"y":2572450.3300000038}},{"attributes":{"ID":204872,"DIS_CODE":0,"TOWNNAME":"學甲區","LI":"光華里","LIN":"9鄰","STREET":" ","SECT":" ","MAREA":"過港子","LANE":" ","ALLEY":" ","HOUSE_NO":"９２號之８","E_COORD97":164513.29999999999,"N_COORD97":2572185.3100000001,"ADDRESS":"過港子９２號之８","OBJECTID":204871},"geometry":{"x":164513.29999999981,"y":2572185.3100000005}},{"attributes":{"ID":204873,"DIS_CODE":0,"TOWNNAME":"學甲區","LI":"光華里","LIN":"9鄰","STREET":" ","SECT":" ","MAREA":"過港子","LANE":" ","ALLEY":" ","HOUSE_NO":"９２號","E_COORD97":164722.82000000001,"N_COORD97":2572543.2599999998,"ADDRESS":"過港子９２號","OBJECTID":204872},"geometry":{"x":164722.82000000216,"y":2572543.2600000016}},{"attributes":{"ID":204874,"DIS_CODE":0,"TOWNNAME":"學甲區","LI":"光華里","LIN":"9鄰","STREET":" ","SECT":" ","MAREA":"過港子","LANE":" ","ALLEY":" ","HOUSE_NO":"９４號","E_COORD97":164759.10000000001,"N_COORD97":2573010.3700000001,"ADDRESS":"過港子９４號","OBJECTID":204873},"geometry":{"x":164759.10000000149,"y":2573010.3699999992}},{"attributes":{"ID":204875,"DIS_CODE":0,"TOWNNAME":"學甲區","LI":"光華里","LIN":"9鄰","STREET":" ","SECT":" ","MAREA":"過港子","LANE":" ","ALLEY":" ","HOUSE_NO":"７９號之４","E_COORD97":164757.73999999999,"N_COORD97":2571713.71,"ADDRESS":"過港子７９號之４","OBJECTID":204874},"geometry":{"x":164757.74000000115,"y":2571713.7100000028}},{"attributes":{"ID":204876,"DIS_CODE":0,"TOWNNAME":"學甲區","LI":"光華里","LIN":"9鄰","STREET":" ","SECT":" ","MAREA":"過港子","LANE":" ","ALLEY":" ","HOUSE_NO":"７９號","E_COORD97":164747.91,"N_COORD97":2571682.4199999999,"ADDRESS":"過港子７９號","OBJECTID":204875},"geometry":{"x":164747.91000000108,"y":2571682.4199999999}},{"attributes":{"ID":204877,"DIS_CODE":0,"TOWNNAME":"學甲區","LI":"光華里","LIN":"9鄰","STREET":" ","SECT":" ","MAREA":"過港子","LANE":" ","ALLEY":" ","HOUSE_NO":"８０號","E_COORD97":164726.67000000001,"N_COORD97":2571699.3999999999,"ADDRESS":"過港子８０號","OBJECTID":204876},"geometry":{"x":164726.66999999899,"y":2571699.4000000004}},{"attributes":{"ID":204878,"DIS_CODE":0,"TOWNNAME":"學甲區","LI":"光華里","LIN":"9鄰","STREET":" ","SECT":" ","MAREA":"過港子","LANE":" ","ALLEY":" ","HOUSE_NO":"８１號","E_COORD97":164712.19,"N_COORD97":2571686.8999999999,"ADDRESS":"過港子８１號","OBJECTID":204877},"geometry":{"x":164712.19000000134,"y":2571686.9000000004}},{"attributes":{"ID":204879,"DIS_CODE":0,"TOWNNAME":"學甲區","LI":"光華里","LIN":"9鄰","STREET":" ","SECT":" ","MAREA":"過港子","LANE":" ","ALLEY":" ","HOUSE_NO":"８２號","E_COORD97":164718.07999999999,"N_COORD97":2571713.29,"ADDRESS":"過港子８２號","OBJECTID":204878},"geometry":{"x":164718.08000000101,"y":2571713.2899999991}},{"attributes":{"ID":204880,"DIS_CODE":0,"TOWNNAME":"麻豆區","LI":"港尾里","LIN":"15鄰","STREET":" ","SECT":" ","MAREA":"客子寮","LANE":" ","ALLEY":" ","HOUSE_NO":"４０１號","E_COORD97":170136.54999999999,"N_COORD97":2569335.2599999998,"ADDRESS":"客子寮４０１號","OBJECTID":204879},"geometry":{"x":170136.54999999981,"y":2569335.2600000016}},{"attributes":{"ID":204881,"DIS_CODE":0,"TOWNNAME":"麻豆區","LI":"港尾里","LIN":"15鄰","STREET":" ","SECT":" ","MAREA":"客子寮","LANE":" ","ALLEY":" ","HOUSE_NO":"４０２號","E_COORD97":170060.10999999999,"N_COORD97":2569355.4900000002,"ADDRESS":"客子寮４０２號","OBJECTID":204880},"geometry":{"x":170060.11000000034,"y":2569355.4900000021}},{"attributes":{"ID":204882,"DIS_CODE":0,"TOWNNAME":"麻豆區","LI":"港尾里","LIN":"15鄰","STREET":" ","SECT":" ","MAREA":"客子寮","LANE":" ","ALLEY":" ","HOUSE_NO":"４０３號","E_COORD97":170125.53,"N_COORD97":2569340.5299999998,"ADDRESS":"客子寮４０３號","OBJECTID":204881},"geometry":{"x":170125.53000000212,"y":2569340.5300000012}},{"attributes":{"ID":204883,"DIS_CODE":0,"TOWNNAME":"麻豆區","LI":"港尾里","LIN":"12鄰","STREET":" ","SECT":" ","MAREA":"客子寮","LANE":" ","ALLEY":" ","HOUSE_NO":"３號","E_COORD97":169673.16,"N_COORD97":2568240.1000000001,"ADDRESS":"客子寮３號","OBJECTID":204882},"geometry":{"x":169673.16000000015,"y":2568240.0999999996}},{"attributes":{"ID":204884,"DIS_CODE":0,"TOWNNAME":"學甲區","LI":"光華里","LIN":"9鄰","STREET":" ","SECT":" ","MAREA":"過港子","LANE":" ","ALLEY":" ","HOUSE_NO":"９２號之１０","E_COORD97":164756.64999999999,"N_COORD97":2572759.48,"ADDRESS":"過港子９２號之１０","OBJECTID":204883},"geometry":{"x":164756.6500000013,"y":2572759.4800000023}},{"attributes":{"ID":204885,"DIS_CODE":0,"TOWNNAME":"學甲區","LI":"光華里","LIN":"9鄰","STREET":" ","SECT":" ","MAREA":"過港子","LANE":" ","ALLEY":" ","HOUSE_NO":"９２號之１２","E_COORD97":164708.42000000001,"N_COORD97":2571980.9900000002,"ADDRESS":"過港子９２號之１２","OBJECTID":204884},"geometry":{"x":164708.42000000086,"y":2571980.9900000002}},{"attributes":{"ID":204886,"DIS_CODE":0,"TOWNNAME":"學甲區","LI":"光華里","LIN":"9鄰","STREET":" ","SECT":" ","MAREA":"過港子","LANE":" ","ALLEY":" ","HOUSE_NO":"９２號之２５","E_COORD97":164517.41,"N_COORD97":2572632.5499999998,"ADDRESS":"過港子９２號之２５","OBJECTID":204885},"geometry":{"x":164517.41000000108,"y":2572632.5499999989}},{"attributes":{"ID":204887,"DIS_CODE":0,"TOWNNAME":"將軍區","LI":"長沙里","LIN":"2鄰","STREET":" ","SECT":" ","MAREA":"長沙","LANE":" ","ALLEY":" ","HOUSE_NO":"１０之２１號","E_COORD97":157389.04000000001,"N_COORD97":2568707.8399999999,"ADDRESS":"長沙１０之２１號","OBJECTID":204886},"geometry":{"x":157389.04000000004,"y":2568707.8400000017}},{"attributes":{"ID":204888,"DIS_CODE":0,"TOWNNAME":"將軍區","LI":"長沙里","LIN":"2鄰","STREET":" ","SECT":" ","MAREA":"長沙","LANE":" ","ALLEY":" ","HOUSE_NO":"１０之２２號","E_COORD97":157385.23999999999,"N_COORD97":2568707.7799999998,"ADDRESS":"長沙１０之２２號","OBJECTID":204887},"geometry":{"x":157385.24000000115,"y":2568707.7800000012}},{"attributes":{"ID":204889,"DIS_CODE":0,"TOWNNAME":"將軍區","LI":"長沙里","LIN":"2鄰","STREET":" ","SECT":" ","MAREA":"長沙","LANE":" ","ALLEY":" ","HOUSE_NO":"１０之２３號","E_COORD97":157381.26000000001,"N_COORD97":2568707.9100000001,"ADDRESS":"長沙１０之２３號","OBJECTID":204888},"geometry":{"x":157381.26000000071,"y":2568707.910000002}},{"attributes":{"ID":204890,"DIS_CODE":0,"TOWNNAME":"將軍區","LI":"長沙里","LIN":"2鄰","STREET":" ","SECT":" ","MAREA":"長沙","LANE":" ","ALLEY":" ","HOUSE_NO":"１０之２４號","E_COORD97":157382.85000000001,"N_COORD97":2568732.3399999999,"ADDRESS":"長沙１０之２４號","OBJECTID":204889},"geometry":{"x":157382.84999999963,"y":2568732.3400000017}},{"attributes":{"ID":204891,"DIS_CODE":0,"TOWNNAME":"東區","LI":"泉南里","LIN":"25鄰","STREET":"光華街","SECT":" ","MAREA":" ","LANE":"２２９巷","ALLEY":"２７弄","HOUSE_NO":"３３號","E_COORD97":169573,"N_COORD97":2542898.23,"ADDRESS":"光華街２２９巷２７弄３３號","OBJECTID":204890},"geometry":{"x":169573.00000000093,"y":2542898.2300000023}},{"attributes":{"ID":204892,"DIS_CODE":0,"TOWNNAME":"永康區","LI":"西勢里","LIN":"25鄰","STREET":"廣興街","SECT":" ","MAREA":" ","LANE":"３８巷","ALLEY":"３４弄","HOUSE_NO":"３４號","E_COORD97":176009.79999999999,"N_COORD97":2546356.4900000002,"ADDRESS":"廣興街３８巷３４弄３４號","OBJECTID":204891},"geometry":{"x":176009.79999999981,"y":2546356.4900000002}},{"attributes":{"ID":204893,"DIS_CODE":0,"TOWNNAME":"東區","LI":"虎尾里","LIN":"25鄰","STREET":"富農街","SECT":"一段","MAREA":" ","LANE":"１８８巷","ALLEY":"２６弄","HOUSE_NO":"１１號","E_COORD97":171636.53,"N_COORD97":2542442.7200000002,"ADDRESS":"富農街一段１８８巷２６弄１１號","OBJECTID":204892},"geometry":{"x":171636.53000000119,"y":2542442.7200000007}},{"attributes":{"ID":204894,"DIS_CODE":0,"TOWNNAME":"東區","LI":"虎尾里","LIN":"25鄰","STREET":"富農街","SECT":"一段","MAREA":" ","LANE":"１８８巷","ALLEY":"２６弄","HOUSE_NO":"１３號","E_COORD97":171637.01000000001,"N_COORD97":2542438.25,"ADDRESS":"富農街一段１８８巷２６弄１３號","OBJECTID":204893},"geometry":{"x":171637.00999999978,"y":2542438.25}},{"attributes":{"ID":204895,"DIS_CODE":0,"TOWNNAME":"將軍區","LI":"長沙里","LIN":"2鄰","STREET":" ","SECT":" ","MAREA":"長沙","LANE":" ","ALLEY":" ","HOUSE_NO":"１０之２５號","E_COORD97":157386.39000000001,"N_COORD97":2568732.4100000001,"ADDRESS":"長沙１０之２５號","OBJECTID":204894},"geometry":{"x":157386.38999999873,"y":2568732.4100000001}},{"attributes":{"ID":204896,"DIS_CODE":0,"TOWNNAME":"將軍區","LI":"長沙里","LIN":"2鄰","STREET":" ","SECT":" ","MAREA":"長沙","LANE":" ","ALLEY":" ","HOUSE_NO":"１０之７號","E_COORD97":157405.54999999999,"N_COORD97":2568682.6899999999,"ADDRESS":"長沙１０之７號","OBJECTID":204895},"geometry":{"x":157405.54999999981,"y":2568682.6899999995}},{"attributes":{"ID":204897,"DIS_CODE":0,"TOWNNAME":"東區","LI":"虎尾里","LIN":"25鄰","STREET":"富農街","SECT":"一段","MAREA":" ","LANE":"１８８巷","ALLEY":"２６弄","HOUSE_NO":"３號","E_COORD97":171635.25,"N_COORD97":2542459.3199999998,"ADDRESS":"富農街一段１８８巷２６弄３號","OBJECTID":204896},"geometry":{"x":171635.25,"y":2542459.320000004}},{"attributes":{"ID":204898,"DIS_CODE":0,"TOWNNAME":"將軍區","LI":"長沙里","LIN":"2鄰","STREET":" ","SECT":" ","MAREA":"長沙","LANE":" ","ALLEY":" ","HOUSE_NO":"１０之８號","E_COORD97":157410.60999999999,"N_COORD97":2568682.79,"ADDRESS":"長沙１０之８號","OBJECTID":204897},"geometry":{"x":157410.61000000034,"y":2568682.7899999972}},{"attributes":{"ID":204899,"DIS_CODE":0,"TOWNNAME":"東區","LI":"虎尾里","LIN":"25鄰","STREET":"富農街","SECT":"一段","MAREA":" ","LANE":"１８８巷","ALLEY":"２６弄","HOUSE_NO":"５號","E_COORD97":171635.89000000001,"N_COORD97":2542455.3300000001,"ADDRESS":"富農街一段１８８巷２６弄５號","OBJECTID":204898},"geometry":{"x":171635.88999999966,"y":2542455.3300000001}},{"attributes":{"ID":204900,"DIS_CODE":0,"TOWNNAME":"將軍區","LI":"長沙里","LIN":"2鄰","STREET":" ","SECT":" ","MAREA":"長沙","LANE":" ","ALLEY":" ","HOUSE_NO":"１０之９號","E_COORD97":157415.56,"N_COORD97":2568682.77,"ADDRESS":"長沙１０之９號","OBJECTID":204899},"geometry":{"x":157415.55999999959,"y":2568682.7699999996}},{"attributes":{"ID":204901,"DIS_CODE":0,"TOWNNAME":"白河區","LI":"汴頭里","LIN":"2鄰","STREET":" ","SECT":" ","MAREA":"林子內","LANE":" ","ALLEY":" ","HOUSE_NO":"１７之１號","E_COORD97":194992.54999999999,"N_COORD97":2584890.4700000002,"ADDRESS":"林子內１７之１號","OBJECTID":204900},"geometry":{"x":194992.54999999981,"y":2584890.4700000025}},{"attributes":{"ID":204902,"DIS_CODE":0,"TOWNNAME":"白河區","LI":"汴頭里","LIN":"2鄰","STREET":" ","SECT":" ","MAREA":"林子內","LANE":" ","ALLEY":" ","HOUSE_NO":"１７之２號","E_COORD97":194969.84,"N_COORD97":2584903.2599999998,"ADDRESS":"林子內１７之２號","OBJECTID":204901},"geometry":{"x":194969.84000000078,"y":2584903.2599999979}},{"attributes":{"ID":204903,"DIS_CODE":0,"TOWNNAME":"白河區","LI":"汴頭里","LIN":"2鄰","STREET":" ","SECT":" ","MAREA":"林子內","LANE":" ","ALLEY":" ","HOUSE_NO":"１７之３號","E_COORD97":194979.34,"N_COORD97":2584872.9100000001,"ADDRESS":"林子內１７之３號","OBJECTID":204902},"geometry":{"x":194979.33999999985,"y":2584872.910000002}},{"attributes":{"ID":204904,"DIS_CODE":0,"TOWNNAME":"白河區","LI":"汴頭里","LIN":"2鄰","STREET":" ","SECT":" ","MAREA":"林子內","LANE":" ","ALLEY":" ","HOUSE_NO":"１７號","E_COORD97":195029.60000000001,"N_COORD97":2584899.8199999998,"ADDRESS":"林子內１７號","OBJECTID":204903},"geometry":{"x":195029.59999999963,"y":2584899.8200000003}},{"attributes":{"ID":204905,"DIS_CODE":0,"TOWNNAME":"白河區","LI":"汴頭里","LIN":"2鄰","STREET":" ","SECT":" ","MAREA":"林子內","LANE":" ","ALLEY":" ","HOUSE_NO":"１９號","E_COORD97":194988.41,"N_COORD97":2584910.5600000001,"ADDRESS":"林子內１９號","OBJECTID":204904},"geometry":{"x":194988.41000000108,"y":2584910.5600000024}},{"attributes":{"ID":204906,"DIS_CODE":0,"TOWNNAME":"白河區","LI":"汴頭里","LIN":"2鄰","STREET":" ","SECT":" ","MAREA":"林子內","LANE":" ","ALLEY":" ","HOUSE_NO":"２１之１０號","E_COORD97":194978.14000000001,"N_COORD97":2584916.6899999999,"ADDRESS":"林子內２１之１０號","OBJECTID":204905},"geometry":{"x":194978.1400000006,"y":2584916.6899999995}},{"attributes":{"ID":204907,"DIS_CODE":0,"TOWNNAME":"白河區","LI":"汴頭里","LIN":"2鄰","STREET":" ","SECT":" ","MAREA":"林子內","LANE":" ","ALLEY":" ","HOUSE_NO":"２１之１號","E_COORD97":194985.38,"N_COORD97":2584930.8999999999,"ADDRESS":"林子內２１之１號","OBJECTID":204906},"geometry":{"x":194985.37999999989,"y":2584930.9000000022}},{"attributes":{"ID":204908,"DIS_CODE":0,"TOWNNAME":"白河區","LI":"汴頭里","LIN":"2鄰","STREET":" ","SECT":" ","MAREA":"林子內","LANE":" ","ALLEY":" ","HOUSE_NO":"２１之２號","E_COORD97":194964.81,"N_COORD97":2584961.0600000001,"ADDRESS":"林子內２１之２號","OBJECTID":204907},"geometry":{"x":194964.81000000052,"y":2584961.0600000024}},{"attributes":{"ID":204909,"DIS_CODE":0,"TOWNNAME":"白河區","LI":"汴頭里","LIN":"2鄰","STREET":" ","SECT":" ","MAREA":"林子內","LANE":" ","ALLEY":" ","HOUSE_NO":"２１之３號","E_COORD97":194995.98000000001,"N_COORD97":2584953.9900000002,"ADDRESS":"林子內２１之３號","OBJECTID":204908},"geometry":{"x":194995.98000000045,"y":2584953.9900000021}},{"attributes":{"ID":204910,"DIS_CODE":0,"TOWNNAME":"白河區","LI":"庄內里","LIN":"2鄰","STREET":" ","SECT":" ","MAREA":"客庄內","LANE":" ","ALLEY":" ","HOUSE_NO":"２４之１１號","E_COORD97":191107.45000000001,"N_COORD97":2583408.71,"ADDRESS":"客庄內２４之１１號","OBJECTID":204909},"geometry":{"x":191107.45000000205,"y":2583408.7100000009}},{"attributes":{"ID":204911,"DIS_CODE":0,"TOWNNAME":"白河區","LI":"庄內里","LIN":"2鄰","STREET":" ","SECT":" ","MAREA":"客庄內","LANE":" ","ALLEY":" ","HOUSE_NO":"２４之１２號","E_COORD97":191105.03,"N_COORD97":2583420.9199999999,"ADDRESS":"客庄內２４之１２號","OBJECTID":204910},"geometry":{"x":191105.03000000026,"y":2583420.9200000037}},{"attributes":{"ID":204912,"DIS_CODE":0,"TOWNNAME":"白河區","LI":"庄內里","LIN":"2鄰","STREET":" ","SECT":" ","MAREA":"客庄內","LANE":" ","ALLEY":" ","HOUSE_NO":"２４之１３號","E_COORD97":191103.23000000001,"N_COORD97":2583427.8999999999,"ADDRESS":"客庄內２４之１３號","OBJECTID":204911},"geometry":{"x":191103.23000000045,"y":2583427.9000000004}},{"attributes":{"ID":204913,"DIS_CODE":0,"TOWNNAME":"白河區","LI":"庄內里","LIN":"2鄰","STREET":" ","SECT":" ","MAREA":"客庄內","LANE":" ","ALLEY":" ","HOUSE_NO":"２４之１４號","E_COORD97":191099.98000000001,"N_COORD97":2583433.9199999999,"ADDRESS":"客庄內２４之１４號","OBJECTID":204912},"geometry":{"x":191099.98000000045,"y":2583433.9199999999}},{"attributes":{"ID":204914,"DIS_CODE":0,"TOWNNAME":"東區","LI":"虎尾里","LIN":"25鄰","STREET":"富農街","SECT":"一段","MAREA":" ","LANE":"１８８巷","ALLEY":"２６弄","HOUSE_NO":"７號","E_COORD97":171635.89000000001,"N_COORD97":2542451.3399999999,"ADDRESS":"富農街一段１８８巷２６弄７號","OBJECTID":204913},"geometry":{"x":171635.88999999966,"y":2542451.3399999999}},{"attributes":{"ID":204915,"DIS_CODE":0,"TOWNNAME":"東區","LI":"虎尾里","LIN":"25鄰","STREET":"富農街","SECT":"一段","MAREA":" ","LANE":"１８８巷","ALLEY":"２６弄","HOUSE_NO":"９號","E_COORD97":171636.53,"N_COORD97":2542447.3500000001,"ADDRESS":"富農街一段１８８巷２６弄９號","OBJECTID":204914},"geometry":{"x":171636.53000000119,"y":2542447.3499999996}},{"attributes":{"ID":204916,"DIS_CODE":0,"TOWNNAME":"東區","LI":"崇誨里","LIN":"25鄰","STREET":"林森路","SECT":"二段","MAREA":" ","LANE":"１９２巷","ALLEY":"５９弄","HOUSE_NO":"４號","E_COORD97":170629.79999999999,"N_COORD97":2543383.02,"ADDRESS":"林森路二段１９２巷５９弄４號","OBJECTID":204915},"geometry":{"x":170629.79999999981,"y":2543383.0200000033}},{"attributes":{"ID":204917,"DIS_CODE":0,"TOWNNAME":"東區","LI":"崇誨里","LIN":"25鄰","STREET":"林森路","SECT":"二段","MAREA":" ","LANE":"１９２巷","ALLEY":"５９弄","HOUSE_NO":"６號","E_COORD97":170627.95999999999,"N_COORD97":2543390.8399999999,"ADDRESS":"林森路二段１９２巷５９弄６號","OBJECTID":204916},"geometry":{"x":170627.96000000089,"y":2543390.8399999999}},{"attributes":{"ID":204918,"DIS_CODE":0,"TOWNNAME":"東區","LI":"崇誨里","LIN":"25鄰","STREET":"林森路","SECT":"二段","MAREA":" ","LANE":"１９２巷","ALLEY":"５９弄","HOUSE_NO":"８號","E_COORD97":170626.26999999999,"N_COORD97":2543398.8700000001,"ADDRESS":"林森路二段１９２巷５９弄８號","OBJECTID":204917},"geometry":{"x":170626.26999999955,"y":2543398.8699999992}},{"attributes":{"ID":204919,"DIS_CODE":0,"TOWNNAME":"東區","LI":"崇誨里","LIN":"25鄰","STREET":"林森路","SECT":"二段","MAREA":" ","LANE":"１９２巷","ALLEY":"５９弄","HOUSE_NO":"９號","E_COORD97":170608.5,"N_COORD97":2543402.2000000002,"ADDRESS":"林森路二段１９２巷５９弄９號","OBJECTID":204918},"geometry":{"x":170608.49999999907,"y":2543402.2000000011}},{"attributes":{"ID":204920,"DIS_CODE":0,"TOWNNAME":"東區","LI":"崇誨里","LIN":"25鄰","STREET":"林森路","SECT":"二段","MAREA":" ","LANE":"１９２巷","ALLEY":"５９弄","HOUSE_NO":"１２號","E_COORD97":170622.17999999999,"N_COORD97":2543413.8100000001,"ADDRESS":"林森路二段１９２巷５９弄１２號","OBJECTID":204919},"geometry":{"x":170622.1799999997,"y":2543413.8100000024}},{"attributes":{"ID":204921,"DIS_CODE":0,"TOWNNAME":"東區","LI":"裕農里","LIN":"25鄰","STREET":"裕農路","SECT":" ","MAREA":" ","LANE":"３８９巷","ALLEY":"３弄","HOUSE_NO":"２５號","E_COORD97":171057.89000000001,"N_COORD97":2543233.9100000001,"ADDRESS":"裕農路３８９巷３弄２５號","OBJECTID":204920},"geometry":{"x":171057.88999999966,"y":2543233.9100000001}},{"attributes":{"ID":204922,"DIS_CODE":0,"TOWNNAME":"東區","LI":"富強里","LIN":"25鄰","STREET":"裕農路","SECT":" ","MAREA":" ","LANE":"４４６巷","ALLEY":"５２弄","HOUSE_NO":"５２之５號","E_COORD97":171086.39999999999,"N_COORD97":2543019.8599999999,"ADDRESS":"裕農路４４６巷５２弄５２之５號","OBJECTID":204921},"geometry":{"x":171086.4000000013,"y":2543019.8599999994}},{"attributes":{"ID":204923,"DIS_CODE":0,"TOWNNAME":"東區","LI":"自強里","LIN":"25鄰","STREET":"裕農路","SECT":" ","MAREA":" ","LANE":"４４６巷","ALLEY":"５２弄","HOUSE_NO":"５６號","E_COORD97":171070.82999999999,"N_COORD97":2542990.6499999999,"ADDRESS":"裕農路４４６巷５２弄５６號","OBJECTID":204922},"geometry":{"x":171070.82999999914,"y":2542990.6500000022}},{"attributes":{"ID":204924,"DIS_CODE":0,"TOWNNAME":"白河區","LI":"庄內里","LIN":"2鄰","STREET":" ","SECT":" ","MAREA":"客庄內","LANE":" ","ALLEY":" ","HOUSE_NO":"２４之１５號","E_COORD97":191098.06,"N_COORD97":2583440.8599999999,"ADDRESS":"客庄內２４之１５號","OBJECTID":204923},"geometry":{"x":191098.06000000052,"y":2583440.8599999975}},{"attributes":{"ID":204925,"DIS_CODE":0,"TOWNNAME":"白河區","LI":"庄內里","LIN":"2鄰","STREET":" ","SECT":" ","MAREA":"客庄內","LANE":" ","ALLEY":" ","HOUSE_NO":"２４之１６號","E_COORD97":191096.19,"N_COORD97":2583447.54,"ADDRESS":"客庄內２４之１６號","OBJECTID":204924},"geometry":{"x":191096.19000000134,"y":2583447.540000001}},{"attributes":{"ID":204926,"DIS_CODE":0,"TOWNNAME":"白河區","LI":"庄內里","LIN":"2鄰","STREET":" ","SECT":" ","MAREA":"客庄內","LANE":" ","ALLEY":" ","HOUSE_NO":"２４之１７號","E_COORD97":191093.98999999999,"N_COORD97":2583454.2999999998,"ADDRESS":"客庄內２４之１７號","OBJECTID":204925},"geometry":{"x":191093.99000000115,"y":2583454.3000000026}},{"attributes":{"ID":204927,"DIS_CODE":0,"TOWNNAME":"白河區","LI":"庄內里","LIN":"2鄰","STREET":" ","SECT":" ","MAREA":"客庄內","LANE":" ","ALLEY":" ","HOUSE_NO":"２４之５號","E_COORD97":191123.35999999999,"N_COORD97":2583425.7599999998,"ADDRESS":"客庄內２４之５號","OBJECTID":204926},"geometry":{"x":191123.3600000022,"y":2583425.7600000016}},{"attributes":{"ID":204928,"DIS_CODE":0,"TOWNNAME":"白河區","LI":"庄內里","LIN":"2鄰","STREET":" ","SECT":" ","MAREA":"客庄內","LANE":" ","ALLEY":" ","HOUSE_NO":"２４之６號","E_COORD97":191116.26000000001,"N_COORD97":2583446.4500000002,"ADDRESS":"客庄內２４之６號","OBJECTID":204927},"geometry":{"x":191116.25999999978,"y":2583446.4499999993}},{"attributes":{"ID":204929,"DIS_CODE":0,"TOWNNAME":"白河區","LI":"庄內里","LIN":"2鄰","STREET":" ","SECT":" ","MAREA":"客庄內","LANE":" ","ALLEY":" ","HOUSE_NO":"２４號","E_COORD97":191061.60999999999,"N_COORD97":2583468.2999999998,"ADDRESS":"客庄內２４號","OBJECTID":204928},"geometry":{"x":191061.61000000034,"y":2583468.3000000026}},{"attributes":{"ID":204930,"DIS_CODE":0,"TOWNNAME":"白河區","LI":"庄內里","LIN":"2鄰","STREET":" ","SECT":" ","MAREA":"客庄內","LANE":" ","ALLEY":" ","HOUSE_NO":"２５之１號","E_COORD97":191014.48000000001,"N_COORD97":2583396.0299999998,"ADDRESS":"客庄內２５之１號","OBJECTID":204929},"geometry":{"x":191014.48000000138,"y":2583396.0300000031}},{"attributes":{"ID":204931,"DIS_CODE":0,"TOWNNAME":"東區","LI":"富強里","LIN":"25鄰","STREET":"裕農路","SECT":" ","MAREA":" ","LANE":"４４６巷","ALLEY":"５２弄","HOUSE_NO":"５６之１號","E_COORD97":171069.73000000001,"N_COORD97":2542999.0099999998,"ADDRESS":"裕農路４４６巷５２弄５６之１號","OBJECTID":204930},"geometry":{"x":171069.73000000045,"y":2542999.0099999998}},{"attributes":{"ID":204932,"DIS_CODE":0,"TOWNNAME":"白河區","LI":"庄內里","LIN":"2鄰","STREET":" ","SECT":" ","MAREA":"客庄內","LANE":" ","ALLEY":" ","HOUSE_NO":"２５號","E_COORD97":191034.98999999999,"N_COORD97":2583410.4700000002,"ADDRESS":"客庄內２５號","OBJECTID":204931},"geometry":{"x":191034.99000000115,"y":2583410.4700000007}},{"attributes":{"ID":204933,"DIS_CODE":0,"TOWNNAME":"白河區","LI":"庄內里","LIN":"2鄰","STREET":" ","SECT":" ","MAREA":"客庄內","LANE":" ","ALLEY":" ","HOUSE_NO":"２６號","E_COORD97":191005.29000000001,"N_COORD97":2583407.0099999998,"ADDRESS":"客庄內２６號","OBJECTID":204932},"geometry":{"x":191005.29000000097,"y":2583407.0100000016}},{"attributes":{"ID":204934,"DIS_CODE":0,"TOWNNAME":"白河區","LI":"庄內里","LIN":"2鄰","STREET":" ","SECT":" ","MAREA":"客庄內","LANE":" ","ALLEY":" ","HOUSE_NO":"２７號","E_COORD97":190993.54000000001,"N_COORD97":2583397.5699999998,"ADDRESS":"客庄內２７號","OBJECTID":204933},"geometry":{"x":190993.54000000097,"y":2583397.5700000022}},{"attributes":{"ID":204935,"DIS_CODE":0,"TOWNNAME":"白河區","LI":"崁頭里","LIN":"2鄰","STREET":" ","SECT":" ","MAREA":"崁子頭","LANE":" ","ALLEY":" ","HOUSE_NO":"１４之１號","E_COORD97":190465.10999999999,"N_COORD97":2580751.6699999999,"ADDRESS":"崁子頭１４之１號","OBJECTID":204934},"geometry":{"x":190465.11000000034,"y":2580751.6700000018}},{"attributes":{"ID":204936,"DIS_CODE":0,"TOWNNAME":"白河區","LI":"崁頭里","LIN":"2鄰","STREET":" ","SECT":" ","MAREA":"崁子頭","LANE":" ","ALLEY":" ","HOUSE_NO":"１４之２號","E_COORD97":190451.45000000001,"N_COORD97":2580756.5800000001,"ADDRESS":"崁子頭１４之２號","OBJECTID":204935},"geometry":{"x":190451.45000000205,"y":2580756.5800000019}},{"attributes":{"ID":204937,"DIS_CODE":0,"TOWNNAME":"白河區","LI":"崁頭里","LIN":"2鄰","STREET":" ","SECT":" ","MAREA":"崁子頭","LANE":" ","ALLEY":" ","HOUSE_NO":"１４之７號","E_COORD97":190470.51999999999,"N_COORD97":2580707.8599999999,"ADDRESS":"崁子頭１４之７號","OBJECTID":204936},"geometry":{"x":190470.52000000142,"y":2580707.8599999994}},{"attributes":{"ID":204938,"DIS_CODE":0,"TOWNNAME":"白河區","LI":"崁頭里","LIN":"2鄰","STREET":" ","SECT":" ","MAREA":"崁子頭","LANE":" ","ALLEY":" ","HOUSE_NO":"１４號","E_COORD97":190477.42000000001,"N_COORD97":2580755.02,"ADDRESS":"崁子頭１４號","OBJECTID":204937},"geometry":{"x":190477.42000000086,"y":2580755.0200000033}},{"attributes":{"ID":204939,"DIS_CODE":0,"TOWNNAME":"白河區","LI":"崁頭里","LIN":"2鄰","STREET":" ","SECT":" ","MAREA":"崁子頭","LANE":" ","ALLEY":" ","HOUSE_NO":"１５之１號","E_COORD97":190473.64999999999,"N_COORD97":2580817.6099999999,"ADDRESS":"崁子頭１５之１號","OBJECTID":204938},"geometry":{"x":190473.65000000037,"y":2580817.6099999994}},{"attributes":{"ID":204940,"DIS_CODE":0,"TOWNNAME":"白河區","LI":"崁頭里","LIN":"2鄰","STREET":" ","SECT":" ","MAREA":"崁子頭","LANE":" ","ALLEY":" ","HOUSE_NO":"１６號","E_COORD97":190477.64000000001,"N_COORD97":2580711.8799999999,"ADDRESS":"崁子頭１６號","OBJECTID":204939},"geometry":{"x":190477.63999999966,"y":2580711.8800000008}},{"attributes":{"ID":204941,"DIS_CODE":0,"TOWNNAME":"白河區","LI":"崁頭里","LIN":"2鄰","STREET":" ","SECT":" ","MAREA":"崁子頭","LANE":" ","ALLEY":" ","HOUSE_NO":"１７號","E_COORD97":190504.75,"N_COORD97":2580741.96,"ADDRESS":"崁子頭１７號","OBJECTID":204940},"geometry":{"x":190504.75,"y":2580741.9600000009}},{"attributes":{"ID":204942,"DIS_CODE":0,"TOWNNAME":"白河區","LI":"崁頭里","LIN":"2鄰","STREET":" ","SECT":" ","MAREA":"崁子頭","LANE":" ","ALLEY":" ","HOUSE_NO":"１９之１號","E_COORD97":190537.48999999999,"N_COORD97":2580811.5899999999,"ADDRESS":"崁子頭１９之１號","OBJECTID":204941},"geometry":{"x":190537.49000000209,"y":2580811.5899999999}},{"attributes":{"ID":204943,"DIS_CODE":0,"TOWNNAME":"白河區","LI":"崁頭里","LIN":"2鄰","STREET":" ","SECT":" ","MAREA":"崁子頭","LANE":" ","ALLEY":" ","HOUSE_NO":"１９之２號","E_COORD97":190531.39999999999,"N_COORD97":2580847.3999999999,"ADDRESS":"崁子頭１９之２號","OBJECTID":204942},"geometry":{"x":190531.40000000037,"y":2580847.4000000004}},{"attributes":{"ID":204944,"DIS_CODE":0,"TOWNNAME":"白河區","LI":"崁頭里","LIN":"2鄰","STREET":" ","SECT":" ","MAREA":"崁子頭","LANE":" ","ALLEY":" ","HOUSE_NO":"１９號","E_COORD97":190532.57999999999,"N_COORD97":2580759.46,"ADDRESS":"崁子頭１９號","OBJECTID":204943},"geometry":{"x":190532.58000000007,"y":2580759.4600000009}},{"attributes":{"ID":204945,"DIS_CODE":0,"TOWNNAME":"白河區","LI":"崁頭里","LIN":"2鄰","STREET":" ","SECT":" ","MAREA":"崁子頭","LANE":" ","ALLEY":" ","HOUSE_NO":"２１之１號","E_COORD97":190567.35000000001,"N_COORD97":2580734.73,"ADDRESS":"崁子頭２１之１號","OBJECTID":204944},"geometry":{"x":190567.35000000056,"y":2580734.7300000023}},{"attributes":{"ID":204946,"DIS_CODE":0,"TOWNNAME":"白河區","LI":"崁頭里","LIN":"2鄰","STREET":" ","SECT":" ","MAREA":"崁子頭","LANE":" ","ALLEY":" ","HOUSE_NO":"２１之２號","E_COORD97":190557.44,"N_COORD97":2580735.8399999999,"ADDRESS":"崁子頭２１之２號","OBJECTID":204945},"geometry":{"x":190557.44000000134,"y":2580735.8399999999}},{"attributes":{"ID":204947,"DIS_CODE":0,"TOWNNAME":"白河區","LI":"崁頭里","LIN":"2鄰","STREET":" ","SECT":" ","MAREA":"崁子頭","LANE":" ","ALLEY":" ","HOUSE_NO":"２１號","E_COORD97":190560.72,"N_COORD97":2580717.8599999999,"ADDRESS":"崁子頭２１號","OBJECTID":204946},"geometry":{"x":190560.71999999974,"y":2580717.8599999994}},{"attributes":{"ID":204948,"DIS_CODE":0,"TOWNNAME":"白河區","LI":"崁頭里","LIN":"2鄰","STREET":" ","SECT":" ","MAREA":"崁子頭","LANE":" ","ALLEY":" ","HOUSE_NO":"２２號","E_COORD97":190586.20999999999,"N_COORD97":2580735.7000000002,"ADDRESS":"崁子頭２２號","OBJECTID":204947},"geometry":{"x":190586.20999999996,"y":2580735.6999999993}},{"attributes":{"ID":204949,"DIS_CODE":0,"TOWNNAME":"白河區","LI":"草店里","LIN":"2鄰","STREET":" ","SECT":" ","MAREA":"草店","LANE":" ","ALLEY":" ","HOUSE_NO":"１１號","E_COORD97":192388.76999999999,"N_COORD97":2587786.6200000001,"ADDRESS":"草店１１號","OBJECTID":204948},"geometry":{"x":192388.76999999955,"y":2587786.620000001}},{"attributes":{"ID":204950,"DIS_CODE":0,"TOWNNAME":"白河區","LI":"草店里","LIN":"2鄰","STREET":" ","SECT":" ","MAREA":"草店","LANE":" ","ALLEY":" ","HOUSE_NO":"１３號","E_COORD97":192358.09,"N_COORD97":2587846.9900000002,"ADDRESS":"草店１３號","OBJECTID":204949},"geometry":{"x":192358.08999999985,"y":2587846.9900000002}},{"attributes":{"ID":204951,"DIS_CODE":0,"TOWNNAME":"白河區","LI":"草店里","LIN":"2鄰","STREET":" ","SECT":" ","MAREA":"草店","LANE":" ","ALLEY":" ","HOUSE_NO":"１４號","E_COORD97":192381.78,"N_COORD97":2587869.9199999999,"ADDRESS":"草店１４號","OBJECTID":204950},"geometry":{"x":192381.78000000212,"y":2587869.9200000018}},{"attributes":{"ID":204952,"DIS_CODE":0,"TOWNNAME":"白河區","LI":"草店里","LIN":"2鄰","STREET":" ","SECT":" ","MAREA":"草店","LANE":" ","ALLEY":" ","HOUSE_NO":"１６之１０號","E_COORD97":192435.09,"N_COORD97":2587943.8399999999,"ADDRESS":"草店１６之１０號","OBJECTID":204951},"geometry":{"x":192435.09000000171,"y":2587943.8399999999}},{"attributes":{"ID":204953,"DIS_CODE":0,"TOWNNAME":"白河區","LI":"草店里","LIN":"2鄰","STREET":" ","SECT":" ","MAREA":"草店","LANE":" ","ALLEY":" ","HOUSE_NO":"１６之１３號","E_COORD97":192465.60000000001,"N_COORD97":2587998.71,"ADDRESS":"草店１６之１３號","OBJECTID":204952},"geometry":{"x":192465.60000000056,"y":2587998.7100000009}},{"attributes":{"ID":204954,"DIS_CODE":0,"TOWNNAME":"白河區","LI":"草店里","LIN":"2鄰","STREET":" ","SECT":" ","MAREA":"草店","LANE":" ","ALLEY":" ","HOUSE_NO":"１６之１４號","E_COORD97":192448.07999999999,"N_COORD97":2587986.9399999999,"ADDRESS":"草店１６之１４號","OBJECTID":204953},"geometry":{"x":192448.08000000101,"y":2587986.9399999976}},{"attributes":{"ID":204955,"DIS_CODE":0,"TOWNNAME":"白河區","LI":"草店里","LIN":"2鄰","STREET":" ","SECT":" ","MAREA":"草店","LANE":" ","ALLEY":" ","HOUSE_NO":"１６之１５號","E_COORD97":192484.92999999999,"N_COORD97":2587963.54,"ADDRESS":"草店１６之１５號","OBJECTID":204954},"geometry":{"x":192484.9299999997,"y":2587963.540000001}},{"attributes":{"ID":204956,"DIS_CODE":0,"TOWNNAME":"安南區","LI":"安富里","LIN":"25鄰","STREET":"郡安路","SECT":"五段","MAREA":" ","LANE":"１６４巷","ALLEY":"３弄","HOUSE_NO":"１５號","E_COORD97":167715.17999999999,"N_COORD97":2547709.5299999998,"ADDRESS":"郡安路五段１６４巷３弄１５號","OBJECTID":204955},"geometry":{"x":167715.18000000156,"y":2547709.5300000012}},{"attributes":{"ID":204957,"DIS_CODE":0,"TOWNNAME":"安南區","LI":"安富里","LIN":"25鄰","STREET":"郡安路","SECT":"五段","MAREA":" ","LANE":"１６４巷","ALLEY":"４弄","HOUSE_NO":"８號","E_COORD97":167629.94,"N_COORD97":2547693.27,"ADDRESS":"郡安路五段１６４巷４弄８號","OBJECTID":204956},"geometry":{"x":167629.94000000134,"y":2547693.2699999996}},{"attributes":{"ID":204958,"DIS_CODE":0,"TOWNNAME":"安南區","LI":"安富里","LIN":"25鄰","STREET":"郡安路","SECT":"五段","MAREA":" ","LANE":"１６４巷","ALLEY":"４弄","HOUSE_NO":"２３號","E_COORD97":167581.53,"N_COORD97":2547661.6000000001,"ADDRESS":"郡安路五段１６４巷４弄２３號","OBJECTID":204957},"geometry":{"x":167581.53000000119,"y":2547661.6000000015}},{"attributes":{"ID":204959,"DIS_CODE":0,"TOWNNAME":"東區","LI":"富強里","LIN":"25鄰","STREET":"裕農路","SECT":" ","MAREA":" ","LANE":"４４６巷","ALLEY":"５２弄","HOUSE_NO":"１１號","E_COORD97":171193.26999999999,"N_COORD97":2542980,"ADDRESS":"裕農路４４６巷５２弄１１號","OBJECTID":204958},"geometry":{"x":171193.27000000048,"y":2542980.0000000037}},{"attributes":{"ID":204960,"DIS_CODE":0,"TOWNNAME":"東區","LI":"富強里","LIN":"25鄰","STREET":"裕農路","SECT":" ","MAREA":" ","LANE":"４４６巷","ALLEY":"５２弄","HOUSE_NO":"１５號","E_COORD97":171181.57000000001,"N_COORD97":2542979.6899999999,"ADDRESS":"裕農路４４６巷５２弄１５號","OBJECTID":204959},"geometry":{"x":171181.57000000123,"y":2542979.6900000013}},{"attributes":{"ID":204961,"DIS_CODE":0,"TOWNNAME":"東區","LI":"富強里","LIN":"25鄰","STREET":"裕農路","SECT":" ","MAREA":" ","LANE":"４４６巷","ALLEY":"５２弄","HOUSE_NO":"１７號","E_COORD97":171174.76999999999,"N_COORD97":2542980,"ADDRESS":"裕農路４４６巷５２弄１７號","OBJECTID":204960},"geometry":{"x":171174.77000000048,"y":2542980.0000000037}},{"attributes":{"ID":204962,"DIS_CODE":0,"TOWNNAME":"東區","LI":"富強里","LIN":"25鄰","STREET":"裕農路","SECT":" ","MAREA":" ","LANE":"４４６巷","ALLEY":"５２弄","HOUSE_NO":"１號","E_COORD97":171221.10000000001,"N_COORD97":2542980.1600000001,"ADDRESS":"裕農路４４６巷５２弄１號","OBJECTID":204961},"geometry":{"x":171221.0999999987,"y":2542980.160000002}},{"attributes":{"ID":204963,"DIS_CODE":0,"TOWNNAME":"東區","LI":"富強里","LIN":"25鄰","STREET":"裕農路","SECT":" ","MAREA":" ","LANE":"４４６巷","ALLEY":"５２弄","HOUSE_NO":"２０號","E_COORD97":171185.67000000001,"N_COORD97":2543003.02,"ADDRESS":"裕農路４４６巷５２弄２０號","OBJECTID":204962},"geometry":{"x":171185.67000000086,"y":2543003.0200000033}},{"attributes":{"ID":204964,"DIS_CODE":0,"TOWNNAME":"東區","LI":"富強里","LIN":"25鄰","STREET":"裕農路","SECT":" ","MAREA":" ","LANE":"４４６巷","ALLEY":"５２弄","HOUSE_NO":"２１號","E_COORD97":171162.44,"N_COORD97":2542978.4199999999,"ADDRESS":"裕農路４４６巷５２弄２１號","OBJECTID":204963},"geometry":{"x":171162.44000000134,"y":2542978.4200000018}},{"attributes":{"ID":204965,"DIS_CODE":0,"TOWNNAME":"東區","LI":"富強里","LIN":"25鄰","STREET":"裕農路","SECT":" ","MAREA":" ","LANE":"４４６巷","ALLEY":"５２弄","HOUSE_NO":"２３號","E_COORD97":171162.91,"N_COORD97":2542974.9500000002,"ADDRESS":"裕農路４４６巷５２弄２３號","OBJECTID":204964},"geometry":{"x":171162.91000000015,"y":2542974.9499999993}},{"attributes":{"ID":204966,"DIS_CODE":0,"TOWNNAME":"東區","LI":"富強里","LIN":"25鄰","STREET":"裕農路","SECT":" ","MAREA":" ","LANE":"４４６巷","ALLEY":"５２弄","HOUSE_NO":"２９號","E_COORD97":171164,"N_COORD97":2542962.46,"ADDRESS":"裕農路４４６巷５２弄２９號","OBJECTID":204965},"geometry":{"x":171164,"y":2542962.4600000028}},{"attributes":{"ID":204967,"DIS_CODE":0,"TOWNNAME":"東區","LI":"富強里","LIN":"25鄰","STREET":"裕農路","SECT":" ","MAREA":" ","LANE":"４４６巷","ALLEY":"５２弄","HOUSE_NO":"３３號","E_COORD97":171133.32999999999,"N_COORD97":2542965.6499999999,"ADDRESS":"裕農路４４６巷５２弄３３號","OBJECTID":204966},"geometry":{"x":171133.33000000007,"y":2542965.6499999985}},{"attributes":{"ID":204968,"DIS_CODE":0,"TOWNNAME":"東區","LI":"富強里","LIN":"25鄰","STREET":"裕農路","SECT":" ","MAREA":" ","LANE":"４４６巷","ALLEY":"５２弄","HOUSE_NO":"３５號","E_COORD97":171133.60000000001,"N_COORD97":2542969.7000000002,"ADDRESS":"裕農路４４６巷５２弄３５號","OBJECTID":204967},"geometry":{"x":171133.60000000056,"y":2542969.6999999993}},{"attributes":{"ID":204969,"DIS_CODE":0,"TOWNNAME":"東區","LI":"富強里","LIN":"25鄰","STREET":"裕農路","SECT":" ","MAREA":" ","LANE":"４４６巷","ALLEY":"５２弄","HOUSE_NO":"３７號","E_COORD97":171133.67000000001,"N_COORD97":2542973.4900000002,"ADDRESS":"裕農路４４６巷５２弄３７號","OBJECTID":204968},"geometry":{"x":171133.67000000086,"y":2542973.4900000039}},{"attributes":{"ID":204970,"DIS_CODE":0,"TOWNNAME":"東區","LI":"富強里","LIN":"25鄰","STREET":"裕農路","SECT":" ","MAREA":" ","LANE":"４４６巷","ALLEY":"５２弄","HOUSE_NO":"３９號","E_COORD97":171134.14000000001,"N_COORD97":2542977.54,"ADDRESS":"裕農路４４６巷５２弄３９號","OBJECTID":204969},"geometry":{"x":171134.13999999966,"y":2542977.5399999991}},{"attributes":{"ID":204971,"DIS_CODE":0,"TOWNNAME":"東區","LI":"富強里","LIN":"25鄰","STREET":"裕農路","SECT":" ","MAREA":" ","LANE":"４４６巷","ALLEY":"５２弄","HOUSE_NO":"３號","E_COORD97":171216.04000000001,"N_COORD97":2542980.79,"ADDRESS":"裕農路４４６巷５２弄３號","OBJECTID":204970},"geometry":{"x":171216.04000000097,"y":2542980.790000001}},{"attributes":{"ID":204972,"DIS_CODE":0,"TOWNNAME":"東區","LI":"富強里","LIN":"25鄰","STREET":"裕農路","SECT":" ","MAREA":" ","LANE":"４４６巷","ALLEY":"５２弄","HOUSE_NO":"４３號","E_COORD97":171114.39000000001,"N_COORD97":2542975.5800000001,"ADDRESS":"裕農路４４６巷５２弄４３號","OBJECTID":204971},"geometry":{"x":171114.3900000006,"y":2542975.5800000001}},{"attributes":{"ID":204973,"DIS_CODE":0,"TOWNNAME":"東區","LI":"富強里","LIN":"25鄰","STREET":"裕農路","SECT":" ","MAREA":" ","LANE":"４４６巷","ALLEY":"５２弄","HOUSE_NO":"４５號","E_COORD97":171109.04999999999,"N_COORD97":2542975.3100000001,"ADDRESS":"裕農路４４６巷５２弄４５號","OBJECTID":204972},"geometry":{"x":171109.04999999981,"y":2542975.3100000042}},{"attributes":{"ID":204974,"DIS_CODE":0,"TOWNNAME":"東區","LI":"富強里","LIN":"25鄰","STREET":"裕農路","SECT":" ","MAREA":" ","LANE":"４４６巷","ALLEY":"５２弄","HOUSE_NO":"５號","E_COORD97":171209.87,"N_COORD97":2542980.1600000001,"ADDRESS":"裕農路４４６巷５２弄５號","OBJECTID":204973},"geometry":{"x":171209.87000000104,"y":2542980.160000002}},{"attributes":{"ID":204975,"DIS_CODE":0,"TOWNNAME":"東區","LI":"富強里","LIN":"25鄰","STREET":"裕農路","SECT":" ","MAREA":" ","LANE":"４４６巷","ALLEY":"５２弄","HOUSE_NO":"９號","E_COORD97":171198.95999999999,"N_COORD97":2542979.3700000001,"ADDRESS":"裕農路４４６巷５２弄９號","OBJECTID":204974},"geometry":{"x":171198.96000000089,"y":2542979.3700000029}},{"attributes":{"ID":204976,"DIS_CODE":0,"TOWNNAME":"歸仁區","LI":"看西里","LIN":"4鄰","STREET":"仁愛南街","SECT":" ","MAREA":" ","LANE":"１０２巷","ALLEY":"９弄","HOUSE_NO":"２號","E_COORD97":178229.45000000001,"N_COORD97":2540352.29,"ADDRESS":"仁愛南街１０２巷９弄２號","OBJECTID":204975},"geometry":{"x":178229.45000000112,"y":2540352.2899999991}},{"attributes":{"ID":204977,"DIS_CODE":0,"TOWNNAME":"永康區","LI":"永康里","LIN":"25鄰","STREET":"中山北路","SECT":" ","MAREA":" ","LANE":"１２３巷","ALLEY":"１１弄","HOUSE_NO":"１７號","E_COORD97":174058.28,"N_COORD97":2547566.7999999998,"ADDRESS":"中山北路１２３巷１１弄１７號","OBJECTID":204976},"geometry":{"x":174058.27999999933,"y":2547566.8000000026}},{"attributes":{"ID":204978,"DIS_CODE":0,"TOWNNAME":"東區","LI":"富強里","LIN":"25鄰","STREET":"裕農路","SECT":" ","MAREA":" ","LANE":"４４６巷","ALLEY":"７０弄","HOUSE_NO":"２號","E_COORD97":171221.95000000001,"N_COORD97":2542967.6600000001,"ADDRESS":"裕農路４４６巷７０弄２號","OBJECTID":204977},"geometry":{"x":171221.95000000112,"y":2542967.6600000001}},{"attributes":{"ID":204979,"DIS_CODE":0,"TOWNNAME":"永康區","LI":"復興里","LIN":"25鄰","STREET":"復興路","SECT":" ","MAREA":" ","LANE":"２７７巷","ALLEY":"１４２弄","HOUSE_NO":"１６號","E_COORD97":172324.19,"N_COORD97":2543909.1800000002,"ADDRESS":"復興路２７７巷１４２弄１６號","OBJECTID":204978},"geometry":{"x":172324.19000000041,"y":2543909.1799999997}},{"attributes":{"ID":204980,"DIS_CODE":0,"TOWNNAME":"安南區","LI":"安慶里","LIN":"25鄰","STREET":"安中路","SECT":"一段","MAREA":" ","LANE":"２０３巷","ALLEY":"３０弄","HOUSE_NO":"１號","E_COORD97":168704.23000000001,"N_COORD97":2548384.8199999998,"ADDRESS":"安中路一段２０３巷３０弄１號","OBJECTID":204979},"geometry":{"x":168704.23000000138,"y":2548384.8200000003}},{"attributes":{"ID":204981,"DIS_CODE":0,"TOWNNAME":"安南區","LI":"安慶里","LIN":"25鄰","STREET":"安中路","SECT":"一段","MAREA":" ","LANE":"２０３巷","ALLEY":"３０弄","HOUSE_NO":"７號","E_COORD97":168688.48000000001,"N_COORD97":2548385.1699999999,"ADDRESS":"安中路一段２０３巷３０弄７號","OBJECTID":204980},"geometry":{"x":168688.47999999952,"y":2548385.1699999999}},{"attributes":{"ID":204982,"DIS_CODE":0,"TOWNNAME":"麻豆區","LI":"埤頭里","LIN":"2鄰","STREET":" ","SECT":" ","MAREA":"埤頭","LANE":" ","ALLEY":" ","HOUSE_NO":"２４號","E_COORD97":170725.32999999999,"N_COORD97":2565756.2400000002,"ADDRESS":"埤頭２４號","OBJECTID":204981},"geometry":{"x":170725.33000000101,"y":2565756.2400000021}},{"attributes":{"ID":204983,"DIS_CODE":0,"TOWNNAME":"東區","LI":"虎尾里","LIN":"25鄰","STREET":"富農街","SECT":"一段","MAREA":" ","LANE":"１８８巷","ALLEY":"１０弄","HOUSE_NO":"４號","E_COORD97":171562.07000000001,"N_COORD97":2542456.0499999998,"ADDRESS":"富農街一段１８８巷１０弄４號","OBJECTID":204982},"geometry":{"x":171562.0700000003,"y":2542456.0500000026}},{"attributes":{"ID":204984,"DIS_CODE":0,"TOWNNAME":"東區","LI":"虎尾里","LIN":"25鄰","STREET":"富農街","SECT":"一段","MAREA":" ","LANE":"１８８巷","ALLEY":"１０弄","HOUSE_NO":"６號","E_COORD97":171562.67000000001,"N_COORD97":2542452.0499999998,"ADDRESS":"富農街一段１８８巷１０弄６號","OBJECTID":204983},"geometry":{"x":171562.66999999993,"y":2542452.0500000026}},{"attributes":{"ID":204985,"DIS_CODE":0,"TOWNNAME":"東區","LI":"虎尾里","LIN":"25鄰","STREET":"富農街","SECT":"一段","MAREA":" ","LANE":"１８８巷","ALLEY":"１０弄","HOUSE_NO":"８號","E_COORD97":171564.87,"N_COORD97":2542446.8500000001,"ADDRESS":"富農街一段１８８巷１０弄８號","OBJECTID":204984},"geometry":{"x":171564.87000000011,"y":2542446.8499999996}},{"attributes":{"ID":204986,"DIS_CODE":0,"TOWNNAME":"歸仁區","LI":"七甲里","LIN":"18鄰","STREET":"南潭三街","SECT":" ","MAREA":" ","LANE":"１６２巷","ALLEY":"８弄","HOUSE_NO":"１４號","E_COORD97":176409.63,"N_COORD97":2543150.0299999998,"ADDRESS":"南潭三街１６２巷８弄１４號","OBJECTID":204985},"geometry":{"x":176409.62999999989,"y":2543150.0300000012}},{"attributes":{"ID":204987,"DIS_CODE":0,"TOWNNAME":"永康區","LI":"復興里","LIN":"25鄰","STREET":"復興路","SECT":" ","MAREA":" ","LANE":"４２３巷","ALLEY":"９５弄","HOUSE_NO":"１２號","E_COORD97":172261.23000000001,"N_COORD97":2544069.4199999999,"ADDRESS":"復興路４２３巷９５弄１２號","OBJECTID":204986},"geometry":{"x":172261.23000000045,"y":2544069.4200000018}},{"attributes":{"ID":204988,"DIS_CODE":0,"TOWNNAME":"東區","LI":"中西里","LIN":"9鄰","STREET":"勝利路","SECT":" ","MAREA":" ","LANE":" ","ALLEY":" ","HOUSE_NO":"７４號三樓","E_COORD97":169821.85000000001,"N_COORD97":2543617.5600000001,"ADDRESS":"勝利路７４號三樓","OBJECTID":204987},"geometry":{"x":169821.84999999963,"y":2543617.5600000042}},{"attributes":{"ID":204989,"DIS_CODE":0,"TOWNNAME":"永康區","LI":"復興里","LIN":"25鄰","STREET":"復興路","SECT":" ","MAREA":" ","LANE":"２７７巷","ALLEY":"１４２弄","HOUSE_NO":"１８號之３","E_COORD97":172310.89999999999,"N_COORD97":2543859.1000000001,"ADDRESS":"復興路２７７巷１４２弄１８號之３","OBJECTID":204988},"geometry":{"x":172310.90000000037,"y":2543859.0999999996}},{"attributes":{"ID":204990,"DIS_CODE":0,"TOWNNAME":"歸仁區","LI":"大廟里","LIN":"4鄰","STREET":"和順路","SECT":"二段","MAREA":" ","LANE":"１５１巷","ALLEY":"３９弄","HOUSE_NO":"１１號","E_COORD97":176200.79999999999,"N_COORD97":2543570.98,"ADDRESS":"和順路二段１５１巷３９弄１１號","OBJECTID":204989},"geometry":{"x":176200.80000000075,"y":2543570.9800000023}},{"attributes":{"ID":204991,"DIS_CODE":0,"TOWNNAME":"安南區","LI":"海佃里","LIN":"25鄰","STREET":"國安街","SECT":" ","MAREA":" ","LANE":"１５６巷","ALLEY":"８４弄","HOUSE_NO":"１０號","E_COORD97":166754.45000000001,"N_COORD97":2547205.54,"ADDRESS":"國安街１５６巷８４弄１０號","OBJECTID":204990},"geometry":{"x":166754.45000000112,"y":2547205.5399999991}},{"attributes":{"ID":204992,"DIS_CODE":0,"TOWNNAME":"安南區","LI":"海佃里","LIN":"25鄰","STREET":"國安街","SECT":" ","MAREA":" ","LANE":"１５６巷","ALLEY":"８４弄","HOUSE_NO":"１１號","E_COORD97":166756.44,"N_COORD97":2547230.1200000001,"ADDRESS":"國安街１５６巷８４弄１１號","OBJECTID":204991},"geometry":{"x":166756.44000000134,"y":2547230.1200000029}},{"attributes":{"ID":204993,"DIS_CODE":0,"TOWNNAME":"安南區","LI":"海佃里","LIN":"25鄰","STREET":"國安街","SECT":" ","MAREA":" ","LANE":"１５６巷","ALLEY":"８４弄","HOUSE_NO":"１２號","E_COORD97":166760.42999999999,"N_COORD97":2547207.5299999998,"ADDRESS":"國安街１５６巷８４弄１２號","OBJECTID":204992},"geometry":{"x":166760.4299999997,"y":2547207.5300000012}},{"attributes":{"ID":204994,"DIS_CODE":0,"TOWNNAME":"安南區","LI":"海佃里","LIN":"25鄰","STREET":"國安街","SECT":" ","MAREA":" ","LANE":"１５６巷","ALLEY":"８４弄","HOUSE_NO":"１３號","E_COORD97":166761.10000000001,"N_COORD97":2547232.1099999999,"ADDRESS":"國安街１５６巷８４弄１３號","OBJECTID":204993},"geometry":{"x":166761.10000000149,"y":2547232.1099999994}},{"attributes":{"ID":204995,"DIS_CODE":0,"TOWNNAME":"安南區","LI":"海佃里","LIN":"25鄰","STREET":"國安街","SECT":" ","MAREA":" ","LANE":"１５６巷","ALLEY":"８４弄","HOUSE_NO":"１４號","E_COORD97":166765.09,"N_COORD97":2547208.2000000002,"ADDRESS":"國安街１５６巷８４弄１４號","OBJECTID":204994},"geometry":{"x":166765.09000000078,"y":2547208.1999999993}},{"attributes":{"ID":204996,"DIS_CODE":0,"TOWNNAME":"安南區","LI":"海佃里","LIN":"25鄰","STREET":"國安街","SECT":" ","MAREA":" ","LANE":"１５６巷","ALLEY":"８４弄","HOUSE_NO":"１６號","E_COORD97":166771.73999999999,"N_COORD97":2547208.2000000002,"ADDRESS":"國安街１５６巷８４弄１６號","OBJECTID":204995},"geometry":{"x":166771.74000000115,"y":2547208.1999999993}},{"attributes":{"ID":204997,"DIS_CODE":0,"TOWNNAME":"安南區","LI":"海佃里","LIN":"25鄰","STREET":"國安街","SECT":" ","MAREA":" ","LANE":"１５６巷","ALLEY":"８４弄","HOUSE_NO":"１７號","E_COORD97":166773.07000000001,"N_COORD97":2547232.7799999998,"ADDRESS":"國安街１５６巷８４弄１７號","OBJECTID":204996},"geometry":{"x":166773.07000000123,"y":2547232.7800000012}},{"attributes":{"ID":204998,"DIS_CODE":0,"TOWNNAME":"安南區","LI":"海佃里","LIN":"25鄰","STREET":"國安街","SECT":" ","MAREA":" ","LANE":"１５６巷","ALLEY":"８４弄","HOUSE_NO":"１８號","E_COORD97":166777.06,"N_COORD97":2547209.5299999998,"ADDRESS":"國安街１５６巷８４弄１８號","OBJECTID":204997},"geometry":{"x":166777.06000000052,"y":2547209.5299999993}},{"attributes":{"ID":204999,"DIS_CODE":0,"TOWNNAME":"安南區","LI":"海佃里","LIN":"25鄰","STREET":"國安街","SECT":" ","MAREA":" ","LANE":"１５６巷","ALLEY":"８４弄","HOUSE_NO":"１９號","E_COORD97":166777.72,"N_COORD97":2547235.4300000002,"ADDRESS":"國安街１５６巷８４弄１９號","OBJECTID":204998},"geometry":{"x":166777.72000000067,"y":2547235.4300000016}},{"attributes":{"ID":205000,"DIS_CODE":0,"TOWNNAME":"安南區","LI":"海佃里","LIN":"25鄰","STREET":"國安街","SECT":" ","MAREA":" ","LANE":"１５６巷","ALLEY":"８４弄","HOUSE_NO":"１號","E_COORD97":166727.85000000001,"N_COORD97":2547225.4700000002,"ADDRESS":"國安街１５６巷８４弄１號","OBJECTID":204999},"geometry":{"x":166727.85000000056,"y":2547225.4699999988}},{"attributes":{"ID":205001,"DIS_CODE":0,"TOWNNAME":"安南區","LI":"海佃里","LIN":"25鄰","STREET":"國安街","SECT":" ","MAREA":" ","LANE":"１５６巷","ALLEY":"８４弄","HOUSE_NO":"２０號","E_COORD97":166783.04000000001,"N_COORD97":2547210.8599999999,"ADDRESS":"國安街１５６巷８４弄２０號","OBJECTID":205000},"geometry":{"x":166783.04000000097,"y":2547210.8599999994}}]}