{"displayFieldName":"TOWNNAME","fieldAliases":{"ID":"ID","DIS_CODE":"DIS_CODE","TOWNNAME":"TOWNNAME","LI":"LI","LIN":"LIN","STREET":"STREET","SECT":"SECT","MAREA":"MAREA","LANE":"LANE","ALLEY":"ALLEY","HOUSE_NO":"HOUSE_NO","E_COORD97":"E_COORD97","N_COORD97":"N_COORD97","ADDRESS":"ADDRESS","OBJECTID":"OBJECTID"},"geometryType":"esriGeometryPoint","spatialReference":{"wkid":102443,"latestWkid":3826},"fields":[{"name":"ID","type":"esriFieldTypeDouble","alias":"ID"},{"name":"DIS_CODE","type":"esriFieldTypeInteger","alias":"DIS_CODE"},{"name":"TOWNNAME","type":"esriFieldTypeString","alias":"TOWNNAME","length":8},{"name":"LI","type":"esriFieldTypeString","alias":"LI","length":8},{"name":"LIN","type":"esriFieldTypeString","alias":"LIN","length":12},{"name":"STREET","type":"esriFieldTypeString","alias":"STREET","length":20},{"name":"SECT","type":"esriFieldTypeString","alias":"SECT","length":8},{"name":"MAREA","type":"esriFieldTypeString","alias":"MAREA","length":12},{"name":"LANE","type":"esriFieldTypeString","alias":"LANE","length":10},{"name":"ALLEY","type":"esriFieldTypeString","alias":"ALLEY","length":10},{"name":"HOUSE_NO","type":"esriFieldTypeString","alias":"HOUSE_NO","length":20},{"name":"E_COORD97","type":"esriFieldTypeDouble","alias":"E_COORD97"},{"name":"N_COORD97","type":"esriFieldTypeDouble","alias":"N_COORD97"},{"name":"ADDRESS","type":"esriFieldTypeString","alias":"ADDRESS","length":50},{"name":"OBJECTID","type":"esriFieldTypeOID","alias":"OBJECTID"}],"features":[{"attributes":{"ID":291207,"DIS_CODE":0,"TOWNNAME":"安南區","LI":"梅花里","LIN":"21鄰","STREET":"同安路","SECT":" ","MAREA":" ","LANE":"２６２巷","ALLEY":" ","HOUSE_NO":"５號","E_COORD97":167201.17000000001,"N_COORD97":2549127.8100000001,"ADDRESS":"同安路２６２巷５號","OBJECTID":291201},"geometry":{"x":167201.16999999993,"y":2549127.8100000005}},{"attributes":{"ID":291208,"DIS_CODE":0,"TOWNNAME":"安南區","LI":"梅花里","LIN":"21鄰","STREET":"同安路","SECT":" ","MAREA":" ","LANE":"２６２巷","ALLEY":" ","HOUSE_NO":"７號","E_COORD97":167203.72,"N_COORD97":2549125.8500000001,"ADDRESS":"同安路２６２巷７號","OBJECTID":291202},"geometry":{"x":167203.72000000067,"y":2549125.8499999996}},{"attributes":{"ID":291209,"DIS_CODE":0,"TOWNNAME":"安南區","LI":"州北里","LIN":"21鄰","STREET":"安和路","SECT":"五段","MAREA":" ","LANE":"２６９巷","ALLEY":" ","HOUSE_NO":"１８號之１","E_COORD97":169627.29999999999,"N_COORD97":2551999.25,"ADDRESS":"安和路五段２６９巷１８號之１","OBJECTID":291203},"geometry":{"x":169627.30000000075,"y":2551999.25}},{"attributes":{"ID":291210,"DIS_CODE":0,"TOWNNAME":"安南區","LI":"安順里","LIN":"21鄰","STREET":"育安三街","SECT":" ","MAREA":" ","LANE":"２１６巷","ALLEY":" ","HOUSE_NO":"３號","E_COORD97":169457.31,"N_COORD97":2550158.96,"ADDRESS":"育安三街２１６巷３號","OBJECTID":291204},"geometry":{"x":169457.31000000052,"y":2550158.9600000028}},{"attributes":{"ID":291211,"DIS_CODE":0,"TOWNNAME":"安南區","LI":"安順里","LIN":"21鄰","STREET":"育安三街","SECT":" ","MAREA":" ","LANE":"２１６巷","ALLEY":" ","HOUSE_NO":"１號","E_COORD97":169452.35000000001,"N_COORD97":2550159.4399999999,"ADDRESS":"育安三街２１６巷１號","OBJECTID":291205},"geometry":{"x":169452.34999999963,"y":2550159.4399999995}},{"attributes":{"ID":291212,"DIS_CODE":0,"TOWNNAME":"安南區","LI":"安順里","LIN":"21鄰","STREET":"育安三街","SECT":" ","MAREA":" ","LANE":"２１６巷","ALLEY":" ","HOUSE_NO":"２號","E_COORD97":169451.39000000001,"N_COORD97":2550147.46,"ADDRESS":"育安三街２１６巷２號","OBJECTID":291206},"geometry":{"x":169451.3900000006,"y":2550147.4600000009}},{"attributes":{"ID":291213,"DIS_CODE":0,"TOWNNAME":"安南區","LI":"安順里","LIN":"21鄰","STREET":"育安三街","SECT":" ","MAREA":" ","LANE":"２１２巷","ALLEY":" ","HOUSE_NO":"１號","E_COORD97":169450.59,"N_COORD97":2550129.6000000001,"ADDRESS":"育安三街２１２巷１號","OBJECTID":291207},"geometry":{"x":169450.59000000078,"y":2550129.6000000015}},{"attributes":{"ID":291214,"DIS_CODE":0,"TOWNNAME":"安南區","LI":"安順里","LIN":"21鄰","STREET":"育安三街","SECT":" ","MAREA":" ","LANE":"２１６巷","ALLEY":" ","HOUSE_NO":"５號","E_COORD97":169461.78,"N_COORD97":2550159.1200000001,"ADDRESS":"育安三街２１６巷５號","OBJECTID":291208},"geometry":{"x":169461.78000000119,"y":2550159.1200000029}},{"attributes":{"ID":291215,"DIS_CODE":0,"TOWNNAME":"善化區","LI":"坐駕里","LIN":"4鄰","STREET":"中正路","SECT":" ","MAREA":" ","LANE":" ","ALLEY":" ","HOUSE_NO":"４４８號","E_COORD97":177699.14000000001,"N_COORD97":2558961.75,"ADDRESS":"中正路４４８號","OBJECTID":291209},"geometry":{"x":177699.13999999966,"y":2558961.7500000019}},{"attributes":{"ID":291216,"DIS_CODE":0,"TOWNNAME":"安南區","LI":"安順里","LIN":"21鄰","STREET":"育安三街","SECT":" ","MAREA":" ","LANE":"２１６巷","ALLEY":" ","HOUSE_NO":"６號","E_COORD97":169456.82999999999,"N_COORD97":2550147.2999999998,"ADDRESS":"育安三街２１６巷６號","OBJECTID":291210},"geometry":{"x":169456.83000000007,"y":2550147.3000000026}},{"attributes":{"ID":291217,"DIS_CODE":0,"TOWNNAME":"中西區","LI":"光賢里","LIN":"4鄰","STREET":"武聖路","SECT":" ","MAREA":" ","LANE":" ","ALLEY":" ","HOUSE_NO":"４７號","E_COORD97":167201.75,"N_COORD97":2545101.3500000001,"ADDRESS":"武聖路４７號","OBJECTID":291211},"geometry":{"x":167201.75000000093,"y":2545101.3499999996}},{"attributes":{"ID":291218,"DIS_CODE":0,"TOWNNAME":"中西區","LI":"光賢里","LIN":"4鄰","STREET":"武聖路","SECT":" ","MAREA":" ","LANE":" ","ALLEY":" ","HOUSE_NO":"４９號","E_COORD97":167197.94,"N_COORD97":2545103.4700000002,"ADDRESS":"武聖路４９號","OBJECTID":291212},"geometry":{"x":167197.94000000041,"y":2545103.4700000044}},{"attributes":{"ID":291219,"DIS_CODE":0,"TOWNNAME":"安南區","LI":"安順里","LIN":"21鄰","STREET":"育安三街","SECT":" ","MAREA":" ","LANE":"２１２巷","ALLEY":" ","HOUSE_NO":"１４號","E_COORD97":169471.54000000001,"N_COORD97":2550114.75,"ADDRESS":"育安三街２１２巷１４號","OBJECTID":291213},"geometry":{"x":169471.54000000097,"y":2550114.75}},{"attributes":{"ID":291220,"DIS_CODE":0,"TOWNNAME":"安南區","LI":"安順里","LIN":"21鄰","STREET":"育安三街","SECT":" ","MAREA":" ","LANE":"２１２巷","ALLEY":" ","HOUSE_NO":"１６號","E_COORD97":169476.5,"N_COORD97":2550114.5899999999,"ADDRESS":"育安三街２１２巷１６號","OBJECTID":291214},"geometry":{"x":169476.50000000093,"y":2550114.5899999999}},{"attributes":{"ID":291221,"DIS_CODE":0,"TOWNNAME":"安南區","LI":"梅花里","LIN":"21鄰","STREET":"同安路","SECT":" ","MAREA":" ","LANE":"３２２巷","ALLEY":" ","HOUSE_NO":"１６號","E_COORD97":167265.47,"N_COORD97":2549199.8500000001,"ADDRESS":"同安路３２２巷１６號","OBJECTID":291215},"geometry":{"x":167265.46999999974,"y":2549199.8500000015}},{"attributes":{"ID":291222,"DIS_CODE":0,"TOWNNAME":"中西區","LI":"光賢里","LIN":"4鄰","STREET":"武聖路","SECT":" ","MAREA":" ","LANE":" ","ALLEY":" ","HOUSE_NO":"５１號","E_COORD97":167194.34,"N_COORD97":2545105.1600000001,"ADDRESS":"武聖路５１號","OBJECTID":291216},"geometry":{"x":167194.34000000078,"y":2545105.160000002}},{"attributes":{"ID":291223,"DIS_CODE":0,"TOWNNAME":"中西區","LI":"光賢里","LIN":"4鄰","STREET":"武聖路","SECT":" ","MAREA":" ","LANE":" ","ALLEY":" ","HOUSE_NO":"５３號","E_COORD97":167190.95999999999,"N_COORD97":2545106.6400000001,"ADDRESS":"武聖路５３號","OBJECTID":291217},"geometry":{"x":167190.95999999996,"y":2545106.6400000025}},{"attributes":{"ID":291224,"DIS_CODE":0,"TOWNNAME":"安南區","LI":"\u25A0南里","LIN":"21鄰","STREET":"環福街","SECT":" ","MAREA":" ","LANE":"２１６巷","ALLEY":" ","HOUSE_NO":"６６號","E_COORD97":170469.82000000001,"N_COORD97":2552692.0499999998,"ADDRESS":"環福街２１６巷６６號","OBJECTID":291218},"geometry":{"x":170469.82000000123,"y":2552692.0500000026}},{"attributes":{"ID":291225,"DIS_CODE":0,"TOWNNAME":"安南區","LI":"\u25A0南里","LIN":"21鄰","STREET":"環福街","SECT":" ","MAREA":" ","LANE":"２１６巷","ALLEY":" ","HOUSE_NO":"６１號","E_COORD97":170418.98000000001,"N_COORD97":2552704.4700000002,"ADDRESS":"環福街２１６巷６１號","OBJECTID":291219},"geometry":{"x":170418.98000000045,"y":2552704.4700000044}},{"attributes":{"ID":291226,"DIS_CODE":0,"TOWNNAME":"官田區","LI":"隆田里","LIN":"21鄰","STREET":"中興路","SECT":" ","MAREA":" ","LANE":"１巷","ALLEY":" ","HOUSE_NO":"９８號","E_COORD97":180548.35999999999,"N_COORD97":2565628.2000000002,"ADDRESS":"中興路１巷９８號","OBJECTID":291220},"geometry":{"x":180548.36000000034,"y":2565628.1999999993}},{"attributes":{"ID":291227,"DIS_CODE":0,"TOWNNAME":"永康區","LI":"東灣里","LIN":" ","STREET":"大灣路","SECT":" ","MAREA":" ","LANE":" ","ALLEY":" ","HOUSE_NO":"３８３號","E_COORD97":174744.01000000001,"N_COORD97":2544869.5,"ADDRESS":"大灣路３８３號","OBJECTID":291221},"geometry":{"x":174744.00999999978,"y":2544869.5000000019}},{"attributes":{"ID":291228,"DIS_CODE":0,"TOWNNAME":"仁德區","LI":"土庫里","LIN":"21鄰","STREET":"太子二街","SECT":" ","MAREA":" ","LANE":"１１６巷","ALLEY":" ","HOUSE_NO":"２號","E_COORD97":174462.82000000001,"N_COORD97":2543302.0099999998,"ADDRESS":"太子二街１１６巷２號","OBJECTID":291222},"geometry":{"x":174462.8200000003,"y":2543302.0100000035}},{"attributes":{"ID":291229,"DIS_CODE":0,"TOWNNAME":"仁德區","LI":"土庫里","LIN":"21鄰","STREET":"太子二街","SECT":" ","MAREA":" ","LANE":"８８巷","ALLEY":" ","HOUSE_NO":"１號","E_COORD97":174371.48000000001,"N_COORD97":2543293,"ADDRESS":"太子二街８８巷１號","OBJECTID":291223},"geometry":{"x":174371.48000000138,"y":2543293.0000000019}},{"attributes":{"ID":291230,"DIS_CODE":0,"TOWNNAME":"永康區","LI":"\u25A0洲里","LIN":"13鄰","STREET":"\u25A0洲一街","SECT":" ","MAREA":" ","LANE":" ","ALLEY":" ","HOUSE_NO":"７２號","E_COORD97":171597.89999999999,"N_COORD97":2549058.4900000002,"ADDRESS":"\u25A0洲一街７２號","OBJECTID":291224},"geometry":{"x":171597.89999999944,"y":2549058.4900000002}},{"attributes":{"ID":291231,"DIS_CODE":0,"TOWNNAME":"永康區","LI":"龍潭里","LIN":" ","STREET":"龍埔街","SECT":" ","MAREA":" ","LANE":" ","ALLEY":" ","HOUSE_NO":"１１號","E_COORD97":174843.16,"N_COORD97":2548182.1699999999,"ADDRESS":"龍埔街１１號","OBJECTID":291225},"geometry":{"x":174843.16000000015,"y":2548182.1699999999}},{"attributes":{"ID":291232,"DIS_CODE":0,"TOWNNAME":"仁德區","LI":"大甲里","LIN":"21鄰","STREET":"行大街","SECT":" ","MAREA":" ","LANE":"４０２巷","ALLEY":" ","HOUSE_NO":"３７號","E_COORD97":169508.31,"N_COORD97":2535330.25,"ADDRESS":"行大街４０２巷３７號","OBJECTID":291226},"geometry":{"x":169508.31000000052,"y":2535330.2500000019}},{"attributes":{"ID":291233,"DIS_CODE":0,"TOWNNAME":"仁德區","LI":"土庫里","LIN":"21鄰","STREET":"太子二街","SECT":" ","MAREA":" ","LANE":"１２５巷","ALLEY":" ","HOUSE_NO":"３之１號","E_COORD97":174504.42999999999,"N_COORD97":2543317.7999999998,"ADDRESS":"太子二街１２５巷３之１號","OBJECTID":291227},"geometry":{"x":174504.43000000156,"y":2543317.8000000045}},{"attributes":{"ID":291234,"DIS_CODE":0,"TOWNNAME":"仁德區","LI":"二行里","LIN":"21鄰","STREET":"二行一路","SECT":" ","MAREA":" ","LANE":"７１巷","ALLEY":" ","HOUSE_NO":"３８號","E_COORD97":170274.34,"N_COORD97":2535348,"ADDRESS":"二行一路７１巷３８號","OBJECTID":291228},"geometry":{"x":170274.34000000078,"y":2535347.9999999981}},{"attributes":{"ID":291235,"DIS_CODE":0,"TOWNNAME":"仁德區","LI":"二行里","LIN":"21鄰","STREET":"二行一路","SECT":" ","MAREA":" ","LANE":"７１巷","ALLEY":" ","HOUSE_NO":"３６號","E_COORD97":170281.51999999999,"N_COORD97":2535346.5,"ADDRESS":"二行一路７１巷３６號","OBJECTID":291229},"geometry":{"x":170281.52000000048,"y":2535346.5000000019}},{"attributes":{"ID":291236,"DIS_CODE":0,"TOWNNAME":"東區","LI":"後甲里","LIN":"21鄰","STREET":"裕農路","SECT":" ","MAREA":" ","LANE":"６６１巷","ALLEY":" ","HOUSE_NO":"４４號","E_COORD97":171730.5,"N_COORD97":2543348.1600000001,"ADDRESS":"裕農路６６１巷４４號","OBJECTID":291230},"geometry":{"x":171730.5,"y":2543348.1600000001}},{"attributes":{"ID":291237,"DIS_CODE":0,"TOWNNAME":"東區","LI":"後甲里","LIN":"21鄰","STREET":"裕農路","SECT":" ","MAREA":" ","LANE":"６６１巷","ALLEY":" ","HOUSE_NO":"４６號","E_COORD97":171728.38,"N_COORD97":2543351.6000000001,"ADDRESS":"裕農路６６１巷４６號","OBJECTID":291231},"geometry":{"x":171728.38000000082,"y":2543351.5999999996}},{"attributes":{"ID":291238,"DIS_CODE":0,"TOWNNAME":"東區","LI":"後甲里","LIN":"21鄰","STREET":"裕農路","SECT":" ","MAREA":" ","LANE":"６６１巷","ALLEY":" ","HOUSE_NO":"４８號","E_COORD97":171728.38,"N_COORD97":2543356.1000000001,"ADDRESS":"裕農路６６１巷４８號","OBJECTID":291232},"geometry":{"x":171728.38000000082,"y":2543356.1000000015}},{"attributes":{"ID":291239,"DIS_CODE":0,"TOWNNAME":"東區","LI":"後甲里","LIN":"21鄰","STREET":"裕農路","SECT":" ","MAREA":" ","LANE":"６６１巷","ALLEY":" ","HOUSE_NO":"６０號","E_COORD97":171722.82000000001,"N_COORD97":2543390.6200000001,"ADDRESS":"裕農路６６１巷６０號","OBJECTID":291233},"geometry":{"x":171722.82000000123,"y":2543390.6200000048}},{"attributes":{"ID":291240,"DIS_CODE":0,"TOWNNAME":"永康區","LI":"西勢里","LIN":"21鄰","STREET":"富強路","SECT":"一段","MAREA":" ","LANE":"９８巷","ALLEY":" ","HOUSE_NO":"２８號","E_COORD97":175537,"N_COORD97":2546116.2799999998,"ADDRESS":"富強路一段９８巷２８號","OBJECTID":291234},"geometry":{"x":175537.00000000093,"y":2546116.2799999993}},{"attributes":{"ID":291241,"DIS_CODE":0,"TOWNNAME":"永康區","LI":"甲頂里","LIN":"21鄰","STREET":"中正南路","SECT":" ","MAREA":" ","LANE":"５２巷","ALLEY":" ","HOUSE_NO":"１８號","E_COORD97":169720.94,"N_COORD97":2546719.25,"ADDRESS":"中正南路５２巷１８號","OBJECTID":291235},"geometry":{"x":169720.94000000041,"y":2546719.2500000019}},{"attributes":{"ID":291242,"DIS_CODE":0,"TOWNNAME":"永康區","LI":"東橋里","LIN":" ","STREET":"中山南路","SECT":" ","MAREA":" ","LANE":"３６５巷","ALLEY":" ","HOUSE_NO":"３號","E_COORD97":172701.75,"N_COORD97":2547053.23,"ADDRESS":"中山南路３６５巷３號","OBJECTID":291236},"geometry":{"x":172701.75,"y":2547053.2300000004}},{"attributes":{"ID":291243,"DIS_CODE":0,"TOWNNAME":"安平區","LI":"港仔里","LIN":"1鄰","STREET":"安平路","SECT":" ","MAREA":" ","LANE":" ","ALLEY":" ","HOUSE_NO":"１３號","E_COORD97":164753.14000000001,"N_COORD97":2544390.8199999998,"ADDRESS":"安平路１３號","OBJECTID":291237},"geometry":{"x":164753.13999999966,"y":2544390.8200000003}},{"attributes":{"ID":291244,"DIS_CODE":0,"TOWNNAME":"安平區","LI":"港仔里","LIN":"1鄰","STREET":"安平路","SECT":" ","MAREA":" ","LANE":" ","ALLEY":" ","HOUSE_NO":"１５號","E_COORD97":164741.48000000001,"N_COORD97":2544394.75,"ADDRESS":"安平路１５號","OBJECTID":291238},"geometry":{"x":164741.48000000045,"y":2544394.75}},{"attributes":{"ID":291245,"DIS_CODE":0,"TOWNNAME":"安平區","LI":"港仔里","LIN":"1鄰","STREET":"安平路","SECT":" ","MAREA":" ","LANE":" ","ALLEY":" ","HOUSE_NO":"１７號","E_COORD97":164717.44,"N_COORD97":2544404.9700000002,"ADDRESS":"安平路１７號","OBJECTID":291239},"geometry":{"x":164717.44000000134,"y":2544404.9700000044}},{"attributes":{"ID":291246,"DIS_CODE":0,"TOWNNAME":"安平區","LI":"港仔里","LIN":"1鄰","STREET":"安平路","SECT":" ","MAREA":" ","LANE":" ","ALLEY":" ","HOUSE_NO":"１９號","E_COORD97":164699.17000000001,"N_COORD97":2544408.8999999999,"ADDRESS":"安平路１９號","OBJECTID":291240},"geometry":{"x":164699.16999999993,"y":2544408.9000000022}},{"attributes":{"ID":291247,"DIS_CODE":0,"TOWNNAME":"新營區","LI":"民榮里","LIN":"1鄰","STREET":"復興路","SECT":" ","MAREA":" ","LANE":" ","ALLEY":" ","HOUSE_NO":"１３１之２號","E_COORD97":179351.51000000001,"N_COORD97":2578035.4300000002,"ADDRESS":"復興路１３１之２號","OBJECTID":291241},"geometry":{"x":179351.50999999978,"y":2578035.4299999997}},{"attributes":{"ID":291248,"DIS_CODE":0,"TOWNNAME":"歸仁區","LI":"七甲里","LIN":"1鄰","STREET":"七甲五街","SECT":" ","MAREA":" ","LANE":" ","ALLEY":" ","HOUSE_NO":"８７號","E_COORD97":177201.37,"N_COORD97":2542585.02,"ADDRESS":"七甲五街８７號","OBJECTID":291242},"geometry":{"x":177201.37000000011,"y":2542585.0199999996}},{"attributes":{"ID":291249,"DIS_CODE":0,"TOWNNAME":"歸仁區","LI":"八甲里","LIN":"1鄰","STREET":"忠孝北路","SECT":" ","MAREA":" ","LANE":" ","ALLEY":" ","HOUSE_NO":"２６９號","E_COORD97":177911.32999999999,"N_COORD97":2541470.25,"ADDRESS":"忠孝北路２６９號","OBJECTID":291243},"geometry":{"x":177911.33000000101,"y":2541470.2500000019}},{"attributes":{"ID":291250,"DIS_CODE":0,"TOWNNAME":"歸仁區","LI":"大廟里","LIN":"1鄰","STREET":"大廟二街","SECT":" ","MAREA":" ","LANE":" ","ALLEY":" ","HOUSE_NO":"２３號","E_COORD97":175999.76999999999,"N_COORD97":2544040.25,"ADDRESS":"大廟二街２３號","OBJECTID":291244},"geometry":{"x":175999.76999999955,"y":2544040.2500000019}},{"attributes":{"ID":291251,"DIS_CODE":0,"TOWNNAME":"永康區","LI":"西勢里","LIN":"21鄰","STREET":"富強路","SECT":"一段","MAREA":" ","LANE":"１４９巷","ALLEY":" ","HOUSE_NO":"２７號","E_COORD97":175487.85999999999,"N_COORD97":2546383.8999999999,"ADDRESS":"富強路一段１４９巷２７號","OBJECTID":291245},"geometry":{"x":175487.86000000034,"y":2546383.9000000004}},{"attributes":{"ID":291252,"DIS_CODE":0,"TOWNNAME":"永康區","LI":"西勢里","LIN":"21鄰","STREET":"富強路","SECT":"一段","MAREA":" ","LANE":"１５５巷","ALLEY":" ","HOUSE_NO":"８號","E_COORD97":175554.04000000001,"N_COORD97":2546386.6200000001,"ADDRESS":"富強路一段１５５巷８號","OBJECTID":291246},"geometry":{"x":175554.04000000097,"y":2546386.620000001}},{"attributes":{"ID":291253,"DIS_CODE":0,"TOWNNAME":"永康區","LI":"蔦松里","LIN":" ","STREET":"中正北路","SECT":" ","MAREA":" ","LANE":" ","ALLEY":" ","HOUSE_NO":"６９７之２號","E_COORD97":174150.45999999999,"N_COORD97":2549423.3399999999,"ADDRESS":"中正北路６９７之２號","OBJECTID":291247},"geometry":{"x":174150.46000000089,"y":2549423.3400000017}},{"attributes":{"ID":291254,"DIS_CODE":0,"TOWNNAME":"永康區","LI":"龍潭里","LIN":" ","STREET":"龍潭街","SECT":" ","MAREA":" ","LANE":" ","ALLEY":" ","HOUSE_NO":"２５０號","E_COORD97":174937.09,"N_COORD97":2548336.25,"ADDRESS":"龍潭街２５０號","OBJECTID":291248},"geometry":{"x":174937.08999999985,"y":2548336.2500000019}},{"attributes":{"ID":291255,"DIS_CODE":0,"TOWNNAME":"永康區","LI":"西勢里","LIN":"21鄰","STREET":"富強路","SECT":"一段","MAREA":" ","LANE":"９８巷","ALLEY":" ","HOUSE_NO":"５２號","E_COORD97":175595.48000000001,"N_COORD97":2546064.1400000001,"ADDRESS":"富強路一段９８巷５２號","OBJECTID":291249},"geometry":{"x":175595.48000000138,"y":2546064.1400000006}},{"attributes":{"ID":291256,"DIS_CODE":0,"TOWNNAME":"永康區","LI":"甲頂里","LIN":" ","STREET":"中正南路","SECT":" ","MAREA":" ","LANE":" ","ALLEY":" ","HOUSE_NO":"３２號","E_COORD97":169665.44,"N_COORD97":2546683.7400000002,"ADDRESS":"中正南路３２號","OBJECTID":291250},"geometry":{"x":169665.44000000134,"y":2546683.7400000002}},{"attributes":{"ID":291257,"DIS_CODE":0,"TOWNNAME":"永康區","LI":"\u25A0洲里","LIN":"20鄰","STREET":"中正南路","SECT":" ","MAREA":" ","LANE":" ","ALLEY":" ","HOUSE_NO":"８２３號","E_COORD97":171742.66,"N_COORD97":2549012.25,"ADDRESS":"中正南路８２３號","OBJECTID":291251},"geometry":{"x":171742.66000000015,"y":2549012.25}},{"attributes":{"ID":291258,"DIS_CODE":0,"TOWNNAME":"永康區","LI":"西勢里","LIN":"21鄰","STREET":"富強路","SECT":"一段","MAREA":" ","LANE":"９８巷","ALLEY":" ","HOUSE_NO":"２６號","E_COORD97":175534.04000000001,"N_COORD97":2546119.5299999998,"ADDRESS":"富強路一段９８巷２６號","OBJECTID":291252},"geometry":{"x":175534.04000000004,"y":2546119.5300000012}},{"attributes":{"ID":291259,"DIS_CODE":0,"TOWNNAME":"永康區","LI":"西勢里","LIN":"21鄰","STREET":"富強路","SECT":"一段","MAREA":" ","LANE":"９８巷","ALLEY":" ","HOUSE_NO":"６０號","E_COORD97":175608.76999999999,"N_COORD97":2546051.6400000001,"ADDRESS":"富強路一段９８巷６０號","OBJECTID":291253},"geometry":{"x":175608.77000000142,"y":2546051.6400000043}},{"attributes":{"ID":291260,"DIS_CODE":0,"TOWNNAME":"永康區","LI":"永康里","LIN":"26鄰","STREET":"中山北路","SECT":" ","MAREA":" ","LANE":" ","ALLEY":" ","HOUSE_NO":"６０號","E_COORD97":174043.67000000001,"N_COORD97":2547394.5899999999,"ADDRESS":"中山北路６０號","OBJECTID":291254},"geometry":{"x":174043.67000000086,"y":2547394.5900000017}},{"attributes":{"ID":291261,"DIS_CODE":0,"TOWNNAME":"永康區","LI":"\u25A0洲里","LIN":"39鄰","STREET":"\u25A0洲一街","SECT":" ","MAREA":" ","LANE":" ","ALLEY":" ","HOUSE_NO":"５９號","E_COORD97":171612.14999999999,"N_COORD97":2549107.7599999998,"ADDRESS":"\u25A0洲一街５９號","OBJECTID":291255},"geometry":{"x":171612.1500000013,"y":2549107.7600000035}},{"attributes":{"ID":291262,"DIS_CODE":0,"TOWNNAME":"永康區","LI":"甲頂里","LIN":"21鄰","STREET":"中正南路","SECT":" ","MAREA":" ","LANE":"５２巷","ALLEY":" ","HOUSE_NO":"３號","E_COORD97":169682.88,"N_COORD97":2546748.8500000001,"ADDRESS":"中正南路５２巷３號","OBJECTID":291256},"geometry":{"x":169682.88000000082,"y":2546748.8500000015}},{"attributes":{"ID":291263,"DIS_CODE":0,"TOWNNAME":"永康區","LI":"西勢里","LIN":"21鄰","STREET":"富強路","SECT":"一段","MAREA":" ","LANE":"１５５巷","ALLEY":" ","HOUSE_NO":"１５號","E_COORD97":175532.91,"N_COORD97":2546384.6699999999,"ADDRESS":"富強路一段１５５巷１５號","OBJECTID":291257},"geometry":{"x":175532.91000000108,"y":2546384.6699999999}},{"attributes":{"ID":291264,"DIS_CODE":0,"TOWNNAME":"永康區","LI":"西勢里","LIN":"21鄰","STREET":"富強路","SECT":"一段","MAREA":" ","LANE":"９８巷","ALLEY":" ","HOUSE_NO":"３６號","E_COORD97":175569.10000000001,"N_COORD97":2546088.2599999998,"ADDRESS":"富強路一段９８巷３６號","OBJECTID":291258},"geometry":{"x":175569.09999999963,"y":2546088.2600000016}},{"attributes":{"ID":291265,"DIS_CODE":0,"TOWNNAME":"永康區","LI":"西勢里","LIN":"21鄰","STREET":"富強路","SECT":"一段","MAREA":" ","LANE":"１５５巷","ALLEY":" ","HOUSE_NO":"６號","E_COORD97":175557.51000000001,"N_COORD97":2546383.1200000001,"ADDRESS":"富強路一段１５５巷６號","OBJECTID":291259},"geometry":{"x":175557.50999999978,"y":2546383.120000001}},{"attributes":{"ID":291266,"DIS_CODE":0,"TOWNNAME":"永康區","LI":"甲頂里","LIN":"21鄰","STREET":"中正南路","SECT":" ","MAREA":" ","LANE":"５２巷","ALLEY":" ","HOUSE_NO":"８號","E_COORD97":169704.32999999999,"N_COORD97":2546736.75,"ADDRESS":"中正南路５２巷８號","OBJECTID":291260},"geometry":{"x":169704.33000000007,"y":2546736.75}},{"attributes":{"ID":291267,"DIS_CODE":0,"TOWNNAME":"永康區","LI":"西勢里","LIN":"21鄰","STREET":"富強路","SECT":"一段","MAREA":" ","LANE":"１５５巷","ALLEY":" ","HOUSE_NO":"１９號","E_COORD97":175525.16,"N_COORD97":2546391.9199999999,"ADDRESS":"富強路一段１５５巷１９號","OBJECTID":291261},"geometry":{"x":175525.16000000015,"y":2546391.9200000018}},{"attributes":{"ID":291268,"DIS_CODE":0,"TOWNNAME":"永康區","LI":"\u25A0洲里","LIN":"23鄰","STREET":"洲尾街","SECT":" ","MAREA":" ","LANE":" ","ALLEY":" ","HOUSE_NO":"１號","E_COORD97":170906.32999999999,"N_COORD97":2549084.5,"ADDRESS":"洲尾街１號","OBJECTID":291262},"geometry":{"x":170906.33000000007,"y":2549084.5}},{"attributes":{"ID":291269,"DIS_CODE":0,"TOWNNAME":"永康區","LI":"西勢里","LIN":"21鄰","STREET":"富強路","SECT":"一段","MAREA":" ","LANE":"１４９巷","ALLEY":" ","HOUSE_NO":"３８號","E_COORD97":175489.16,"N_COORD97":2546400.8999999999,"ADDRESS":"富強路一段１４９巷３８號","OBJECTID":291263},"geometry":{"x":175489.16000000015,"y":2546400.9000000004}},{"attributes":{"ID":291270,"DIS_CODE":0,"TOWNNAME":"永康區","LI":"西勢里","LIN":"21鄰","STREET":"富強路","SECT":"一段","MAREA":" ","LANE":"１５５巷","ALLEY":" ","HOUSE_NO":"７號","E_COORD97":175549.56,"N_COORD97":2546372.4900000002,"ADDRESS":"富強路一段１５５巷７號","OBJECTID":291264},"geometry":{"x":175549.56000000052,"y":2546372.4900000002}},{"attributes":{"ID":291271,"DIS_CODE":0,"TOWNNAME":"永康區","LI":"西勢里","LIN":"21鄰","STREET":"富強路","SECT":"一段","MAREA":" ","LANE":"１４９巷","ALLEY":" ","HOUSE_NO":"３１號","E_COORD97":175480.70999999999,"N_COORD97":2546390.1499999999,"ADDRESS":"富強路一段１４９巷３１號","OBJECTID":291265},"geometry":{"x":175480.70999999903,"y":2546390.1500000041}},{"attributes":{"ID":291272,"DIS_CODE":0,"TOWNNAME":"永康區","LI":"西勢里","LIN":"21鄰","STREET":"富強路","SECT":"一段","MAREA":" ","LANE":"１５５巷","ALLEY":" ","HOUSE_NO":"１０號","E_COORD97":175551.20999999999,"N_COORD97":2546390.3700000001,"ADDRESS":"富強路一段１５５巷１０號","OBJECTID":291266},"geometry":{"x":175551.20999999996,"y":2546390.3700000029}},{"attributes":{"ID":291273,"DIS_CODE":0,"TOWNNAME":"永康區","LI":"西勢里","LIN":"21鄰","STREET":"富強路","SECT":"一段","MAREA":" ","LANE":"１４９巷","ALLEY":" ","HOUSE_NO":"１７號","E_COORD97":175508.85000000001,"N_COORD97":2546366.46,"ADDRESS":"富強路一段１４９巷１７號","OBJECTID":291267},"geometry":{"x":175508.85000000056,"y":2546366.4600000028}},{"attributes":{"ID":291274,"DIS_CODE":0,"TOWNNAME":"永康區","LI":"北灣里","LIN":" ","STREET":"信義街","SECT":" ","MAREA":" ","LANE":" ","ALLEY":" ","HOUSE_NO":"１之１號","E_COORD97":175641.39000000001,"N_COORD97":2545654.0600000001,"ADDRESS":"信義街１之１號","OBJECTID":291268},"geometry":{"x":175641.38999999966,"y":2545654.0600000005}},{"attributes":{"ID":291275,"DIS_CODE":0,"TOWNNAME":"永康區","LI":"西勢里","LIN":"21鄰","STREET":"富強路","SECT":"一段","MAREA":" ","LANE":"１５５巷","ALLEY":" ","HOUSE_NO":"５號","E_COORD97":175553.32000000001,"N_COORD97":2546369.2400000002,"ADDRESS":"富強路一段１５５巷５號","OBJECTID":291269},"geometry":{"x":175553.32000000216,"y":2546369.2400000039}},{"attributes":{"ID":291276,"DIS_CODE":0,"TOWNNAME":"永康區","LI":"西勢里","LIN":"21鄰","STREET":"富強路","SECT":"一段","MAREA":" ","LANE":"１４３巷","ALLEY":" ","HOUSE_NO":"４２號","E_COORD97":175466.01000000001,"N_COORD97":2546375.21,"ADDRESS":"富強路一段１４３巷４２號","OBJECTID":291270},"geometry":{"x":175466.00999999978,"y":2546375.2100000009}},{"attributes":{"ID":291277,"DIS_CODE":0,"TOWNNAME":"永康區","LI":"西勢里","LIN":"21鄰","STREET":"富強路","SECT":"一段","MAREA":" ","LANE":"１４９巷","ALLEY":" ","HOUSE_NO":"２３號","E_COORD97":175494.69,"N_COORD97":2546377.8999999999,"ADDRESS":"富強路一段１４９巷２３號","OBJECTID":291271},"geometry":{"x":175494.69000000041,"y":2546377.9000000004}},{"attributes":{"ID":291278,"DIS_CODE":0,"TOWNNAME":"永康區","LI":"西勢里","LIN":"21鄰","STREET":"富強路","SECT":"一段","MAREA":" ","LANE":"１４９巷","ALLEY":" ","HOUSE_NO":"２６號","E_COORD97":175513.95000000001,"N_COORD97":2546378.98,"ADDRESS":"富強路一段１４９巷２６號","OBJECTID":291272},"geometry":{"x":175513.95000000112,"y":2546378.9800000023}},{"attributes":{"ID":291279,"DIS_CODE":0,"TOWNNAME":"永康區","LI":"西勢里","LIN":"21鄰","STREET":"富強路","SECT":"一段","MAREA":" ","LANE":"１５５巷","ALLEY":" ","HOUSE_NO":"１６號","E_COORD97":175543.64999999999,"N_COORD97":2546397.1200000001,"ADDRESS":"富強路一段１５５巷１６號","OBJECTID":291273},"geometry":{"x":175543.65000000037,"y":2546397.120000001}},{"attributes":{"ID":291280,"DIS_CODE":0,"TOWNNAME":"永康區","LI":"埔園里","LIN":" ","STREET":"中山路","SECT":" ","MAREA":" ","LANE":" ","ALLEY":" ","HOUSE_NO":"３３４號","E_COORD97":173674.22,"N_COORD97":2548211.1899999999,"ADDRESS":"中山路３３４號","OBJECTID":291274},"geometry":{"x":173674.22000000067,"y":2548211.1900000013}},{"attributes":{"ID":291281,"DIS_CODE":0,"TOWNNAME":"永康區","LI":"龍潭里","LIN":" ","STREET":"龍潭街","SECT":" ","MAREA":" ","LANE":" ","ALLEY":" ","HOUSE_NO":"７４號","E_COORD97":174789.17000000001,"N_COORD97":2547922.0299999998,"ADDRESS":"龍潭街７４號","OBJECTID":291275},"geometry":{"x":174789.16999999993,"y":2547922.0299999975}},{"attributes":{"ID":291282,"DIS_CODE":0,"TOWNNAME":"永康區","LI":"西勢里","LIN":"21鄰","STREET":"富強路","SECT":"一段","MAREA":" ","LANE":"１５５巷","ALLEY":" ","HOUSE_NO":"２３號","E_COORD97":175515.53,"N_COORD97":2546399.9199999999,"ADDRESS":"富強路一段１５５巷２３號","OBJECTID":291276},"geometry":{"x":175515.53000000026,"y":2546399.9199999999}},{"attributes":{"ID":291283,"DIS_CODE":0,"TOWNNAME":"永康區","LI":"\u25A0洲里","LIN":"20鄰","STREET":"中正南路","SECT":" ","MAREA":" ","LANE":" ","ALLEY":" ","HOUSE_NO":"８０９號","E_COORD97":171722.57000000001,"N_COORD97":2548994,"ADDRESS":"中正南路８０９號","OBJECTID":291277},"geometry":{"x":171722.57000000123,"y":2548994}},{"attributes":{"ID":291284,"DIS_CODE":0,"TOWNNAME":"永康區","LI":"永康里","LIN":" ","STREET":"中山北路","SECT":" ","MAREA":" ","LANE":" ","ALLEY":" ","HOUSE_NO":"１３３號","E_COORD97":174137.37,"N_COORD97":2547500.3700000001,"ADDRESS":"中山北路１３３號","OBJECTID":291278},"geometry":{"x":174137.37000000197,"y":2547500.370000001}},{"attributes":{"ID":291285,"DIS_CODE":0,"TOWNNAME":"永康區","LI":"東灣里","LIN":" ","STREET":"大灣東路","SECT":" ","MAREA":" ","LANE":" ","ALLEY":" ","HOUSE_NO":"２２０之４號","E_COORD97":174787.20999999999,"N_COORD97":2544422.29,"ADDRESS":"大灣東路２２０之４號","OBJECTID":291279},"geometry":{"x":174787.20999999996,"y":2544422.290000001}},{"attributes":{"ID":291286,"DIS_CODE":0,"TOWNNAME":"永康區","LI":"龍潭里","LIN":" ","STREET":"永明街","SECT":" ","MAREA":" ","LANE":" ","ALLEY":" ","HOUSE_NO":"３２６之４號","E_COORD97":174589.57000000001,"N_COORD97":2547164.71,"ADDRESS":"永明街３２６之４號","OBJECTID":291280},"geometry":{"x":174589.57000000123,"y":2547164.7100000028}},{"attributes":{"ID":291287,"DIS_CODE":0,"TOWNNAME":"永康區","LI":"南灣里","LIN":" ","STREET":"大灣東路","SECT":" ","MAREA":" ","LANE":" ","ALLEY":" ","HOUSE_NO":"１６２之４號","E_COORD97":174596.06,"N_COORD97":2544354.0499999998,"ADDRESS":"大灣東路１６２之４號","OBJECTID":291281},"geometry":{"x":174596.05999999959,"y":2544354.0500000026}},{"attributes":{"ID":291288,"DIS_CODE":0,"TOWNNAME":"永康區","LI":"永康里","LIN":" ","STREET":"永康街","SECT":" ","MAREA":" ","LANE":" ","ALLEY":" ","HOUSE_NO":"９３號","E_COORD97":173847.56,"N_COORD97":2547155.0699999998,"ADDRESS":"永康街９３號","OBJECTID":291282},"geometry":{"x":173847.56000000052,"y":2547155.0700000022}},{"attributes":{"ID":291289,"DIS_CODE":0,"TOWNNAME":"永康區","LI":"中華里","LIN":"18鄰","STREET":"忠義街","SECT":" ","MAREA":" ","LANE":" ","ALLEY":" ","HOUSE_NO":"３５號","E_COORD97":171707.70999999999,"N_COORD97":2544489.9500000002,"ADDRESS":"忠義街３５號","OBJECTID":291283},"geometry":{"x":171707.71000000089,"y":2544489.9500000011}},{"attributes":{"ID":291290,"DIS_CODE":0,"TOWNNAME":"永康區","LI":"龍潭里","LIN":" ","STREET":"永明街","SECT":" ","MAREA":" ","LANE":" ","ALLEY":" ","HOUSE_NO":"２１８之６號","E_COORD97":174566.04999999999,"N_COORD97":2547158.96,"ADDRESS":"永明街２１８之６號","OBJECTID":291284},"geometry":{"x":174566.04999999981,"y":2547158.9600000028}},{"attributes":{"ID":291291,"DIS_CODE":0,"TOWNNAME":"永康區","LI":"甲頂里","LIN":"21鄰","STREET":"中正南路","SECT":" ","MAREA":" ","LANE":"５２巷","ALLEY":" ","HOUSE_NO":"３０號","E_COORD97":169766.70000000001,"N_COORD97":2546769.48,"ADDRESS":"中正南路５２巷３０號","OBJECTID":291285},"geometry":{"x":169766.70000000205,"y":2546769.4800000004}},{"attributes":{"ID":291292,"DIS_CODE":0,"TOWNNAME":"永康區","LI":"甲頂里","LIN":" ","STREET":"中正南路","SECT":" ","MAREA":" ","LANE":" ","ALLEY":" ","HOUSE_NO":"１１８號","E_COORD97":169678.67000000001,"N_COORD97":2546909.52,"ADDRESS":"中正南路１１８號","OBJECTID":291286},"geometry":{"x":169678.67000000086,"y":2546909.5200000014}},{"attributes":{"ID":291293,"DIS_CODE":0,"TOWNNAME":"永康區","LI":"南灣里","LIN":" ","STREET":"大灣路","SECT":" ","MAREA":" ","LANE":" ","ALLEY":" ","HOUSE_NO":"４６５號","E_COORD97":174654.62,"N_COORD97":2544692.3199999998,"ADDRESS":"大灣路４６５號","OBJECTID":291287},"geometry":{"x":174654.62000000104,"y":2544692.3200000003}},{"attributes":{"ID":291294,"DIS_CODE":0,"TOWNNAME":"永康區","LI":"甲頂里","LIN":" ","STREET":"中正南路","SECT":" ","MAREA":" ","LANE":" ","ALLEY":" ","HOUSE_NO":"３３號","E_COORD97":169554.29000000001,"N_COORD97":2546693.2400000002,"ADDRESS":"中正南路３３號","OBJECTID":291288},"geometry":{"x":169554.29000000097,"y":2546693.2400000002}},{"attributes":{"ID":291295,"DIS_CODE":0,"TOWNNAME":"永康區","LI":"中華里","LIN":"18鄰","STREET":"忠義街","SECT":" ","MAREA":" ","LANE":" ","ALLEY":" ","HOUSE_NO":"４５號","E_COORD97":171708.20999999999,"N_COORD97":2544512.0299999998,"ADDRESS":"忠義街４５號","OBJECTID":291289},"geometry":{"x":171708.20999999996,"y":2544512.0300000012}},{"attributes":{"ID":291296,"DIS_CODE":0,"TOWNNAME":"永康區","LI":"南灣里","LIN":" ","STREET":"大灣路","SECT":" ","MAREA":" ","LANE":" ","ALLEY":" ","HOUSE_NO":"６２６號","E_COORD97":174528.79999999999,"N_COORD97":2544614.7400000002,"ADDRESS":"大灣路６２６號","OBJECTID":291290},"geometry":{"x":174528.79999999981,"y":2544614.7400000002}},{"attributes":{"ID":291297,"DIS_CODE":0,"TOWNNAME":"永康區","LI":"永康里","LIN":" ","STREET":"永大路","SECT":"二段","MAREA":" ","LANE":" ","ALLEY":" ","HOUSE_NO":"１６２２號","E_COORD97":174241.79000000001,"N_COORD97":2547451.23,"ADDRESS":"永大路二段１６２２號","OBJECTID":291291},"geometry":{"x":174241.79000000097,"y":2547451.2300000023}},{"attributes":{"ID":291298,"DIS_CODE":0,"TOWNNAME":"永康區","LI":"西勢里","LIN":"21鄰","STREET":"富強路","SECT":"一段","MAREA":" ","LANE":"１５５巷","ALLEY":" ","HOUSE_NO":"１號","E_COORD97":175560.78,"N_COORD97":2546362.7400000002,"ADDRESS":"富強路一段１５５巷１號","OBJECTID":291292},"geometry":{"x":175560.78000000119,"y":2546362.7400000021}},{"attributes":{"ID":291299,"DIS_CODE":0,"TOWNNAME":"永康區","LI":"西勢里","LIN":"21鄰","STREET":"富強路","SECT":"一段","MAREA":" ","LANE":"１５５巷","ALLEY":" ","HOUSE_NO":"１８號","E_COORD97":175539.78,"N_COORD97":2546400.3700000001,"ADDRESS":"富強路一段１５５巷１８號","OBJECTID":291293},"geometry":{"x":175539.78000000026,"y":2546400.3700000029}},{"attributes":{"ID":291300,"DIS_CODE":0,"TOWNNAME":"永康區","LI":"西勢里","LIN":"21鄰","STREET":"富強路","SECT":"一段","MAREA":" ","LANE":"１４９巷","ALLEY":" ","HOUSE_NO":"３６號","E_COORD97":175492.44,"N_COORD97":2546397.8999999999,"ADDRESS":"富強路一段１４９巷３６號","OBJECTID":291294},"geometry":{"x":175492.44000000041,"y":2546397.9000000004}},{"attributes":{"ID":291301,"DIS_CODE":0,"TOWNNAME":"永康區","LI":"甲頂里","LIN":"21鄰","STREET":"中正南路","SECT":" ","MAREA":" ","LANE":"５２巷","ALLEY":" ","HOUSE_NO":"３６號","E_COORD97":169791.75,"N_COORD97":2546764.2000000002,"ADDRESS":"中正南路５２巷３６號","OBJECTID":291295},"geometry":{"x":169791.75000000093,"y":2546764.1999999993}},{"attributes":{"ID":291302,"DIS_CODE":0,"TOWNNAME":"永康區","LI":"\u25A0行里","LIN":"21鄰","STREET":"正南五街","SECT":" ","MAREA":" ","LANE":"３３７巷","ALLEY":" ","HOUSE_NO":"１６號","E_COORD97":171721.57999999999,"N_COORD97":2548607.5,"ADDRESS":"正南五街３３７巷１６號","OBJECTID":291296},"geometry":{"x":171721.58000000007,"y":2548607.5}},{"attributes":{"ID":291303,"DIS_CODE":0,"TOWNNAME":"新化區","LI":"東榮里","LIN":"21鄰","STREET":"復興路","SECT":" ","MAREA":" ","LANE":"１８７巷","ALLEY":" ","HOUSE_NO":"１７號","E_COORD97":179394.42999999999,"N_COORD97":2547869.77,"ADDRESS":"復興路１８７巷１７號","OBJECTID":291297},"geometry":{"x":179394.4299999997,"y":2547869.7699999977}},{"attributes":{"ID":291304,"DIS_CODE":0,"TOWNNAME":"安南區","LI":"州南里","LIN":"21鄰","STREET":"安和路","SECT":"四段","MAREA":" ","LANE":"５３３巷","ALLEY":" ","HOUSE_NO":"１０１號","E_COORD97":169735.32999999999,"N_COORD97":2551224.3300000001,"ADDRESS":"安和路四段５３３巷１０１號","OBJECTID":291298},"geometry":{"x":169735.33000000101,"y":2551224.3300000019}},{"attributes":{"ID":291305,"DIS_CODE":0,"TOWNNAME":"安南區","LI":"州南里","LIN":"21鄰","STREET":"安和路","SECT":"四段","MAREA":" ","LANE":"５３３巷","ALLEY":" ","HOUSE_NO":"１０３號","E_COORD97":169730.98000000001,"N_COORD97":2551221.52,"ADDRESS":"安和路四段５３３巷１０３號","OBJECTID":291299},"geometry":{"x":169730.97999999952,"y":2551221.5200000033}},{"attributes":{"ID":291306,"DIS_CODE":0,"TOWNNAME":"安南區","LI":"州南里","LIN":"21鄰","STREET":"安和路","SECT":"四段","MAREA":" ","LANE":"５３３巷","ALLEY":" ","HOUSE_NO":"９９號","E_COORD97":169740.20000000001,"N_COORD97":2551224.5899999999,"ADDRESS":"安和路四段５３３巷９９號","OBJECTID":291300},"geometry":{"x":169740.20000000112,"y":2551224.5900000036}},{"attributes":{"ID":291307,"DIS_CODE":0,"TOWNNAME":"安南區","LI":"溪墘里","LIN":"21鄰","STREET":"安寧街","SECT":" ","MAREA":" ","LANE":"３７巷","ALLEY":" ","HOUSE_NO":"１１號","E_COORD97":167378.39999999999,"N_COORD97":2546941.6899999999,"ADDRESS":"安寧街３７巷１１號","OBJECTID":291301},"geometry":{"x":167378.40000000037,"y":2546941.6900000032}},{"attributes":{"ID":291308,"DIS_CODE":0,"TOWNNAME":"安南區","LI":"溪墘里","LIN":"21鄰","STREET":"安寧街","SECT":" ","MAREA":" ","LANE":"３７巷","ALLEY":" ","HOUSE_NO":"１７號","E_COORD97":167362.54999999999,"N_COORD97":2546938.2599999998,"ADDRESS":"安寧街３７巷１７號","OBJECTID":291302},"geometry":{"x":167362.55000000075,"y":2546938.2600000016}},{"attributes":{"ID":291309,"DIS_CODE":0,"TOWNNAME":"安南區","LI":"溪墘里","LIN":"21鄰","STREET":"安寧街","SECT":" ","MAREA":" ","LANE":"３７巷","ALLEY":" ","HOUSE_NO":"３號","E_COORD97":167399.79000000001,"N_COORD97":2546946.23,"ADDRESS":"安寧街３７巷３號","OBJECTID":291303},"geometry":{"x":167399.79000000097,"y":2546946.2300000023}},{"attributes":{"ID":291310,"DIS_CODE":0,"TOWNNAME":"安南區","LI":"溪墘里","LIN":"21鄰","STREET":"安寧街","SECT":" ","MAREA":" ","LANE":"３７巷","ALLEY":" ","HOUSE_NO":"２１號","E_COORD97":167351.38,"N_COORD97":2546936.6400000001,"ADDRESS":"安寧街３７巷２１號","OBJECTID":291304},"geometry":{"x":167351.38000000082,"y":2546936.6400000025}},{"attributes":{"ID":291311,"DIS_CODE":0,"TOWNNAME":"安南區","LI":"溪墘里","LIN":"21鄰","STREET":"安寧街","SECT":" ","MAREA":" ","LANE":"３７巷","ALLEY":" ","HOUSE_NO":"２４號","E_COORD97":167341.29000000001,"N_COORD97":2546957.8500000001,"ADDRESS":"安寧街３７巷２４號","OBJECTID":291305},"geometry":{"x":167341.29000000004,"y":2546957.8500000015}},{"attributes":{"ID":291312,"DIS_CODE":0,"TOWNNAME":"永康區","LI":"南灣里","LIN":" ","STREET":"大灣東路","SECT":" ","MAREA":" ","LANE":" ","ALLEY":" ","HOUSE_NO":"１１０之１號","E_COORD97":174448.13,"N_COORD97":2544372.5499999998,"ADDRESS":"大灣東路１１０之１號","OBJECTID":291306},"geometry":{"x":174448.12999999989,"y":2544372.5500000007}},{"attributes":{"ID":291313,"DIS_CODE":0,"TOWNNAME":"永康區","LI":"西灣里","LIN":" ","STREET":"民族路","SECT":" ","MAREA":" ","LANE":" ","ALLEY":" ","HOUSE_NO":"４７５號","E_COORD97":174601.79999999999,"N_COORD97":2545425.5299999998,"ADDRESS":"民族路４７５號","OBJECTID":291307},"geometry":{"x":174601.79999999888,"y":2545425.5299999993}},{"attributes":{"ID":291314,"DIS_CODE":0,"TOWNNAME":"安南區","LI":"溪墘里","LIN":"21鄰","STREET":"安寧街","SECT":" ","MAREA":" ","LANE":"３７巷","ALLEY":" ","HOUSE_NO":"２２號","E_COORD97":167347.10000000001,"N_COORD97":2546957.7799999998,"ADDRESS":"安寧街３７巷２２號","OBJECTID":291308},"geometry":{"x":167347.09999999963,"y":2546957.7800000031}},{"attributes":{"ID":291315,"DIS_CODE":0,"TOWNNAME":"永康區","LI":"永康里","LIN":" ","STREET":"永明街","SECT":" ","MAREA":" ","LANE":" ","ALLEY":" ","HOUSE_NO":"１１２號","E_COORD97":174182.13,"N_COORD97":2547230.6000000001,"ADDRESS":"永明街１１２號","OBJECTID":291309},"geometry":{"x":174182.12999999989,"y":2547230.6000000034}},{"attributes":{"ID":291316,"DIS_CODE":0,"TOWNNAME":"安南區","LI":"溪墘里","LIN":"21鄰","STREET":"安寧街","SECT":" ","MAREA":" ","LANE":"２３巷","ALLEY":" ","HOUSE_NO":"１０號","E_COORD97":167386.23000000001,"N_COORD97":2546929.52,"ADDRESS":"安寧街２３巷１０號","OBJECTID":291310},"geometry":{"x":167386.23000000045,"y":2546929.5200000014}},{"attributes":{"ID":291317,"DIS_CODE":0,"TOWNNAME":"安南區","LI":"溪墘里","LIN":"21鄰","STREET":"安寧街","SECT":" ","MAREA":" ","LANE":"２３巷","ALLEY":" ","HOUSE_NO":"１１號","E_COORD97":167385.53,"N_COORD97":2546906.7000000002,"ADDRESS":"安寧街２３巷１１號","OBJECTID":291311},"geometry":{"x":167385.53000000026,"y":2546906.6999999993}},{"attributes":{"ID":291318,"DIS_CODE":0,"TOWNNAME":"永康區","LI":"龍潭里","LIN":" ","STREET":"永明街","SECT":" ","MAREA":" ","LANE":" ","ALLEY":" ","HOUSE_NO":"３１８之４號","E_COORD97":174569.82000000001,"N_COORD97":2547192.3700000001,"ADDRESS":"永明街３１８之４號","OBJECTID":291312},"geometry":{"x":174569.8200000003,"y":2547192.370000001}},{"attributes":{"ID":291319,"DIS_CODE":0,"TOWNNAME":"安南區","LI":"溪墘里","LIN":"21鄰","STREET":"安寧街","SECT":" ","MAREA":" ","LANE":"２３巷","ALLEY":" ","HOUSE_NO":"１６號","E_COORD97":167370.17999999999,"N_COORD97":2546926.0499999998,"ADDRESS":"安寧街２３巷１６號","OBJECTID":291313},"geometry":{"x":167370.1799999997,"y":2546926.0500000007}},{"attributes":{"ID":291320,"DIS_CODE":0,"TOWNNAME":"東區","LI":"大同里","LIN":"21鄰","STREET":"大同路","SECT":"一段","MAREA":" ","LANE":"１７５巷","ALLEY":" ","HOUSE_NO":"１１之８號","E_COORD97":169198.25,"N_COORD97":2542764.79,"ADDRESS":"大同路一段１７５巷１１之８號","OBJECTID":291314},"geometry":{"x":169198.25000000186,"y":2542764.790000001}},{"attributes":{"ID":291321,"DIS_CODE":0,"TOWNNAME":"永康區","LI":"西灣里","LIN":"21鄰","STREET":"國光七街","SECT":" ","MAREA":" ","LANE":"３巷","ALLEY":" ","HOUSE_NO":"５７號","E_COORD97":174324.22,"N_COORD97":2545374.71,"ADDRESS":"國光七街３巷５７號","OBJECTID":291315},"geometry":{"x":174324.21999999974,"y":2545374.7100000028}},{"attributes":{"ID":291322,"DIS_CODE":0,"TOWNNAME":"永康區","LI":"三民里","LIN":" ","STREET":"三民街","SECT":" ","MAREA":" ","LANE":" ","ALLEY":" ","HOUSE_NO":"９之１號","E_COORD97":172863.01000000001,"N_COORD97":2550350.0499999998,"ADDRESS":"三民街９之１號","OBJECTID":291316},"geometry":{"x":172863.01000000164,"y":2550350.0500000007}},{"attributes":{"ID":291323,"DIS_CODE":0,"TOWNNAME":"永康區","LI":"南灣里","LIN":" ","STREET":"大灣路","SECT":" ","MAREA":" ","LANE":" ","ALLEY":" ","HOUSE_NO":"７５８之１號","E_COORD97":174175.17999999999,"N_COORD97":2544540.0600000001,"ADDRESS":"大灣路７５８之１號","OBJECTID":291317},"geometry":{"x":174175.1799999997,"y":2544540.0600000024}},{"attributes":{"ID":291324,"DIS_CODE":0,"TOWNNAME":"永康區","LI":"西灣里","LIN":"21鄰","STREET":"國光七街","SECT":" ","MAREA":" ","LANE":"３巷","ALLEY":" ","HOUSE_NO":"７７號","E_COORD97":174310.81,"N_COORD97":2545328.4500000002,"ADDRESS":"國光七街３巷７７號","OBJECTID":291318},"geometry":{"x":174310.81000000052,"y":2545328.4499999993}},{"attributes":{"ID":291325,"DIS_CODE":0,"TOWNNAME":"永康區","LI":"西勢里","LIN":"21鄰","STREET":"富強路","SECT":"一段","MAREA":" ","LANE":"１４３巷","ALLEY":" ","HOUSE_NO":"１６號","E_COORD97":175509.69,"N_COORD97":2546336.4700000002,"ADDRESS":"富強路一段１４３巷１６號","OBJECTID":291319},"geometry":{"x":175509.69000000041,"y":2546336.4700000007}},{"attributes":{"ID":291326,"DIS_CODE":0,"TOWNNAME":"永康區","LI":"龍潭里","LIN":" ","STREET":"龍潭街","SECT":" ","MAREA":" ","LANE":" ","ALLEY":" ","HOUSE_NO":"２３２號","E_COORD97":174920.29999999999,"N_COORD97":2548306.71,"ADDRESS":"龍潭街２３２號","OBJECTID":291320},"geometry":{"x":174920.29999999981,"y":2548306.7100000028}},{"attributes":{"ID":291327,"DIS_CODE":0,"TOWNNAME":"永康區","LI":"西灣里","LIN":"21鄰","STREET":"國光七街","SECT":" ","MAREA":" ","LANE":"３巷","ALLEY":" ","HOUSE_NO":"６３號","E_COORD97":174316.57999999999,"N_COORD97":2545363.6699999999,"ADDRESS":"國光七街３巷６３號","OBJECTID":291321},"geometry":{"x":174316.58000000007,"y":2545363.6700000018}},{"attributes":{"ID":291328,"DIS_CODE":0,"TOWNNAME":"永康區","LI":"西勢里","LIN":"21鄰","STREET":"富強路","SECT":"一段","MAREA":" ","LANE":"１４９巷","ALLEY":" ","HOUSE_NO":"３號","E_COORD97":175535.26000000001,"N_COORD97":2546341.4700000002,"ADDRESS":"富強路一段１４９巷３號","OBJECTID":291322},"geometry":{"x":175535.26000000071,"y":2546341.4700000025}},{"attributes":{"ID":291329,"DIS_CODE":0,"TOWNNAME":"永康區","LI":"西勢里","LIN":"21鄰","STREET":"富強路","SECT":"一段","MAREA":" ","LANE":"１４９巷","ALLEY":" ","HOUSE_NO":"８號","E_COORD97":175540.14999999999,"N_COORD97":2546354.25,"ADDRESS":"富強路一段１４９巷８號","OBJECTID":291323},"geometry":{"x":175540.15000000037,"y":2546354.25}},{"attributes":{"ID":291330,"DIS_CODE":0,"TOWNNAME":"永康區","LI":"西勢里","LIN":"21鄰","STREET":"富強路","SECT":"一段","MAREA":" ","LANE":"１４９巷","ALLEY":" ","HOUSE_NO":"５號","E_COORD97":175530.95999999999,"N_COORD97":2546345.4700000002,"ADDRESS":"富強路一段１４９巷５號","OBJECTID":291324},"geometry":{"x":175530.95999999996,"y":2546345.4700000025}},{"attributes":{"ID":291331,"DIS_CODE":0,"TOWNNAME":"永康區","LI":"西灣里","LIN":"21鄰","STREET":"國光七街","SECT":" ","MAREA":" ","LANE":"３巷","ALLEY":" ","HOUSE_NO":"４７號","E_COORD97":174330.62,"N_COORD97":2545394.46,"ADDRESS":"國光七街３巷４７號","OBJECTID":291325},"geometry":{"x":174330.62000000197,"y":2545394.4600000009}},{"attributes":{"ID":291332,"DIS_CODE":0,"TOWNNAME":"永康區","LI":"西灣里","LIN":"21鄰","STREET":"國光七街","SECT":" ","MAREA":" ","LANE":"３巷","ALLEY":" ","HOUSE_NO":"７５號","E_COORD97":174312.31,"N_COORD97":2545333.4500000002,"ADDRESS":"國光七街３巷７５號","OBJECTID":291326},"geometry":{"x":174312.31000000052,"y":2545333.4500000011}},{"attributes":{"ID":291333,"DIS_CODE":0,"TOWNNAME":"永康區","LI":"\u25A0洲里","LIN":"32鄰","STREET":"\u25A0行路","SECT":" ","MAREA":" ","LANE":" ","ALLEY":" ","HOUSE_NO":"２５１號","E_COORD97":171117.54000000001,"N_COORD97":2548971.9900000002,"ADDRESS":"\u25A0行路２５１號","OBJECTID":291327},"geometry":{"x":171117.54000000097,"y":2548971.9900000021}},{"attributes":{"ID":291334,"DIS_CODE":0,"TOWNNAME":"永康區","LI":"西勢里","LIN":"21鄰","STREET":"富強路","SECT":"一段","MAREA":" ","LANE":"１４３巷","ALLEY":" ","HOUSE_NO":"２７號","E_COORD97":175469.67000000001,"N_COORD97":2546352.27,"ADDRESS":"富強路一段１４３巷２７號","OBJECTID":291328},"geometry":{"x":175469.67000000086,"y":2546352.2700000014}},{"attributes":{"ID":291335,"DIS_CODE":0,"TOWNNAME":"永康區","LI":"西勢里","LIN":"21鄰","STREET":"富強路","SECT":"一段","MAREA":" ","LANE":"１４９巷","ALLEY":" ","HOUSE_NO":"１２號","E_COORD97":175533.14000000001,"N_COORD97":2546361.4900000002,"ADDRESS":"富強路一段１４９巷１２號","OBJECTID":291329},"geometry":{"x":175533.13999999966,"y":2546361.4900000021}},{"attributes":{"ID":291336,"DIS_CODE":0,"TOWNNAME":"永康區","LI":"西勢里","LIN":"21鄰","STREET":"富強路","SECT":"一段","MAREA":" ","LANE":"１４９巷","ALLEY":" ","HOUSE_NO":"１３號","E_COORD97":175516.39999999999,"N_COORD97":2546359.46,"ADDRESS":"富強路一段１４９巷１３號","OBJECTID":291330},"geometry":{"x":175516.4000000013,"y":2546359.4600000028}},{"attributes":{"ID":291337,"DIS_CODE":0,"TOWNNAME":"永康區","LI":"\u25A0行里","LIN":"21鄰","STREET":"正南五街","SECT":" ","MAREA":" ","LANE":"４５８巷","ALLEY":" ","HOUSE_NO":"１０號","E_COORD97":171700,"N_COORD97":2548694,"ADDRESS":"正南五街４５８巷１０號","OBJECTID":291331},"geometry":{"x":171700,"y":2548694.0000000019}},{"attributes":{"ID":291338,"DIS_CODE":0,"TOWNNAME":"永康區","LI":"五王里","LIN":" ","STREET":"中山南路","SECT":" ","MAREA":" ","LANE":" ","ALLEY":" ","HOUSE_NO":"２３２號","E_COORD97":171433.04999999999,"N_COORD97":2546058.9700000002,"ADDRESS":"中山南路２３２號","OBJECTID":291332},"geometry":{"x":171433.04999999981,"y":2546058.9700000007}},{"attributes":{"ID":291339,"DIS_CODE":0,"TOWNNAME":"永康區","LI":"\u25A0行里","LIN":"21鄰","STREET":"正南五街","SECT":" ","MAREA":" ","LANE":"３８９巷","ALLEY":" ","HOUSE_NO":"９號","E_COORD97":171655.85999999999,"N_COORD97":2548657.6899999999,"ADDRESS":"正南五街３８９巷９號","OBJECTID":291333},"geometry":{"x":171655.8600000022,"y":2548657.6900000013}},{"attributes":{"ID":291340,"DIS_CODE":0,"TOWNNAME":"永康區","LI":"南灣里","LIN":" ","STREET":"大灣路","SECT":" ","MAREA":" ","LANE":" ","ALLEY":" ","HOUSE_NO":"６９２號","E_COORD97":174370.76999999999,"N_COORD97":2544581.96,"ADDRESS":"大灣路６９２號","OBJECTID":291334},"geometry":{"x":174370.76999999955,"y":2544581.9600000028}},{"attributes":{"ID":291341,"DIS_CODE":0,"TOWNNAME":"永康區","LI":"東灣里","LIN":" ","STREET":"大灣東路","SECT":" ","MAREA":" ","LANE":" ","ALLEY":" ","HOUSE_NO":"２２２之６號","E_COORD97":174802.89999999999,"N_COORD97":2544404.29,"ADDRESS":"大灣東路２２２之６號","OBJECTID":291335},"geometry":{"x":174802.90000000037,"y":2544404.2899999972}},{"attributes":{"ID":291342,"DIS_CODE":0,"TOWNNAME":"永康區","LI":"南灣里","LIN":" ","STREET":"大灣東路","SECT":" ","MAREA":" ","LANE":" ","ALLEY":" ","HOUSE_NO":"１６２之１號","E_COORD97":174583.63,"N_COORD97":2544391.29,"ADDRESS":"大灣東路１６２之１號","OBJECTID":291336},"geometry":{"x":174583.63000000082,"y":2544391.290000001}},{"attributes":{"ID":291343,"DIS_CODE":0,"TOWNNAME":"永康區","LI":"\u25A0行里","LIN":"21鄰","STREET":"正南五街","SECT":" ","MAREA":" ","LANE":"４５８巷","ALLEY":" ","HOUSE_NO":"１６號","E_COORD97":171700.54000000001,"N_COORD97":2548712,"ADDRESS":"正南五街４５８巷１６號","OBJECTID":291337},"geometry":{"x":171700.54000000097,"y":2548712}},{"attributes":{"ID":291344,"DIS_CODE":0,"TOWNNAME":"永康區","LI":"龍潭里","LIN":"21鄰","STREET":"龍潭街","SECT":" ","MAREA":" ","LANE":"２８６巷","ALLEY":" ","HOUSE_NO":"３號","E_COORD97":174955.17999999999,"N_COORD97":2548495.25,"ADDRESS":"龍潭街２８６巷３號","OBJECTID":291338},"geometry":{"x":174955.18000000156,"y":2548495.2500000019}},{"attributes":{"ID":291345,"DIS_CODE":0,"TOWNNAME":"永康區","LI":"\u25A0洲里","LIN":" ","STREET":"中正南路","SECT":" ","MAREA":" ","LANE":" ","ALLEY":" ","HOUSE_NO":"６８９之１號","E_COORD97":171498.64000000001,"N_COORD97":2548786.29,"ADDRESS":"中正南路６８９之１號","OBJECTID":291339},"geometry":{"x":171498.63999999966,"y":2548786.290000001}},{"attributes":{"ID":291346,"DIS_CODE":0,"TOWNNAME":"永康區","LI":"\u25A0洲里","LIN":" ","STREET":"正南六街","SECT":" ","MAREA":" ","LANE":" ","ALLEY":" ","HOUSE_NO":"１１３號","E_COORD97":170801.34,"N_COORD97":2548686.25,"ADDRESS":"正南六街１１３號","OBJECTID":291340},"geometry":{"x":170801.34000000078,"y":2548686.25}},{"attributes":{"ID":291347,"DIS_CODE":0,"TOWNNAME":"永康區","LI":"龍潭里","LIN":"21鄰","STREET":"龍潭街","SECT":" ","MAREA":" ","LANE":"２８６巷","ALLEY":" ","HOUSE_NO":"４號","E_COORD97":174982.20000000001,"N_COORD97":2548482.4399999999,"ADDRESS":"龍潭街２８６巷４號","OBJECTID":291341},"geometry":{"x":174982.20000000019,"y":2548482.4400000032}},{"attributes":{"ID":291348,"DIS_CODE":0,"TOWNNAME":"永康區","LI":"龍潭里","LIN":"21鄰","STREET":"龍潭街","SECT":" ","MAREA":" ","LANE":"２８６巷","ALLEY":" ","HOUSE_NO":"７５號","E_COORD97":175007.98000000001,"N_COORD97":2548689.52,"ADDRESS":"龍潭街２８６巷７５號","OBJECTID":291342},"geometry":{"x":175007.98000000045,"y":2548689.5200000014}},{"attributes":{"ID":291349,"DIS_CODE":0,"TOWNNAME":"永康區","LI":"中華里","LIN":"14鄰","STREET":"忠義街","SECT":" ","MAREA":" ","LANE":" ","ALLEY":" ","HOUSE_NO":"２２號","E_COORD97":171729.54999999999,"N_COORD97":2544403.1699999999,"ADDRESS":"忠義街２２號","OBJECTID":291343},"geometry":{"x":171729.54999999981,"y":2544403.1700000018}},{"attributes":{"ID":291350,"DIS_CODE":0,"TOWNNAME":"仁德區","LI":"二行里","LIN":"21鄰","STREET":"二行一路","SECT":" ","MAREA":" ","LANE":"７１巷","ALLEY":" ","HOUSE_NO":"１４號","E_COORD97":170357.54000000001,"N_COORD97":2535331,"ADDRESS":"二行一路７１巷１４號","OBJECTID":291344},"geometry":{"x":170357.5400000019,"y":2535331}},{"attributes":{"ID":291351,"DIS_CODE":0,"TOWNNAME":"永康區","LI":"西灣里","LIN":" ","STREET":"永大路","SECT":"二段","MAREA":" ","LANE":" ","ALLEY":" ","HOUSE_NO":"７２２之１號","E_COORD97":174527.48000000001,"N_COORD97":2545813.5499999998,"ADDRESS":"永大路二段７２２之１號","OBJECTID":291345},"geometry":{"x":174527.48000000138,"y":2545813.5500000007}},{"attributes":{"ID":291352,"DIS_CODE":0,"TOWNNAME":"永康區","LI":"中華里","LIN":"25鄰","STREET":"忠義街","SECT":" ","MAREA":" ","LANE":" ","ALLEY":" ","HOUSE_NO":"８０號","E_COORD97":171724.03,"N_COORD97":2544604.6499999999,"ADDRESS":"忠義街８０號","OBJECTID":291346},"geometry":{"x":171724.02999999933,"y":2544604.6500000022}},{"attributes":{"ID":291353,"DIS_CODE":0,"TOWNNAME":"永康區","LI":"\u25A0洲里","LIN":"40鄰","STREET":"國聖街","SECT":" ","MAREA":" ","LANE":" ","ALLEY":" ","HOUSE_NO":"２８７號","E_COORD97":170997.70999999999,"N_COORD97":2548598.75,"ADDRESS":"國聖街２８７號","OBJECTID":291347},"geometry":{"x":170997.71000000089,"y":2548598.75}},{"attributes":{"ID":291354,"DIS_CODE":0,"TOWNNAME":"永康區","LI":"\u25A0洲里","LIN":"40鄰","STREET":"國聖街","SECT":" ","MAREA":" ","LANE":" ","ALLEY":" ","HOUSE_NO":"２９５號","E_COORD97":171023.39000000001,"N_COORD97":2548623.5,"ADDRESS":"國聖街２９５號","OBJECTID":291348},"geometry":{"x":171023.3900000006,"y":2548623.5}},{"attributes":{"ID":291355,"DIS_CODE":0,"TOWNNAME":"永康區","LI":"\u25A0洲里","LIN":"24鄰","STREET":"國聖街","SECT":" ","MAREA":" ","LANE":" ","ALLEY":" ","HOUSE_NO":"２１３號","E_COORD97":170793.98999999999,"N_COORD97":2548402.25,"ADDRESS":"國聖街２１３號","OBJECTID":291349},"geometry":{"x":170793.99000000115,"y":2548402.25}},{"attributes":{"ID":291356,"DIS_CODE":0,"TOWNNAME":"仁德區","LI":"二行里","LIN":"21鄰","STREET":"二行一路","SECT":" ","MAREA":" ","LANE":"７１巷","ALLEY":" ","HOUSE_NO":"３２號","E_COORD97":170296.01999999999,"N_COORD97":2535344,"ADDRESS":"二行一路７１巷３２號","OBJECTID":291350},"geometry":{"x":170296.02000000142,"y":2535344}},{"attributes":{"ID":291357,"DIS_CODE":0,"TOWNNAME":"永康區","LI":"中華里","LIN":"24鄰","STREET":"華興街","SECT":" ","MAREA":" ","LANE":" ","ALLEY":" ","HOUSE_NO":"１８４號","E_COORD97":171635.57999999999,"N_COORD97":2544580.5099999998,"ADDRESS":"華興街１８４號","OBJECTID":291351},"geometry":{"x":171635.58000000101,"y":2544580.5100000016}},{"attributes":{"ID":291358,"DIS_CODE":0,"TOWNNAME":"仁德區","LI":"二行里","LIN":"21鄰","STREET":"二行一路","SECT":" ","MAREA":" ","LANE":"７１巷","ALLEY":" ","HOUSE_NO":"２６號","E_COORD97":170316.82999999999,"N_COORD97":2535339.5,"ADDRESS":"二行一路７１巷２６號","OBJECTID":291352},"geometry":{"x":170316.83000000101,"y":2535339.5000000019}},{"attributes":{"ID":291359,"DIS_CODE":0,"TOWNNAME":"仁德區","LI":"二行里","LIN":"21鄰","STREET":"二行一路","SECT":" ","MAREA":" ","LANE":"７１巷","ALLEY":" ","HOUSE_NO":"１８號","E_COORD97":170344.47,"N_COORD97":2535334,"ADDRESS":"二行一路７１巷１８號","OBJECTID":291353},"geometry":{"x":170344.47000000067,"y":2535334}},{"attributes":{"ID":291360,"DIS_CODE":0,"TOWNNAME":"仁德區","LI":"土庫里","LIN":"21鄰","STREET":"太子二街","SECT":" ","MAREA":" ","LANE":"１３４巷","ALLEY":" ","HOUSE_NO":"６號","E_COORD97":174459.67999999999,"N_COORD97":2543262.5,"ADDRESS":"太子二街１３４巷６號","OBJECTID":291354},"geometry":{"x":174459.6799999997,"y":2543262.5000000019}},{"attributes":{"ID":291361,"DIS_CODE":0,"TOWNNAME":"仁德區","LI":"二行里","LIN":"21鄰","STREET":"二行一路","SECT":" ","MAREA":" ","LANE":"７１巷","ALLEY":" ","HOUSE_NO":"３０號","E_COORD97":170302.57000000001,"N_COORD97":2535342,"ADDRESS":"二行一路７１巷３０號","OBJECTID":291355},"geometry":{"x":170302.5700000003,"y":2535342.0000000019}},{"attributes":{"ID":291362,"DIS_CODE":0,"TOWNNAME":"仁德區","LI":"大甲里","LIN":"21鄰","STREET":"行大街","SECT":" ","MAREA":" ","LANE":"４２２巷","ALLEY":" ","HOUSE_NO":"８號","E_COORD97":169448.48999999999,"N_COORD97":2535334.25,"ADDRESS":"行大街４２２巷８號","OBJECTID":291356},"geometry":{"x":169448.49000000115,"y":2535334.2500000019}},{"attributes":{"ID":291363,"DIS_CODE":0,"TOWNNAME":"仁德區","LI":"仁德里","LIN":"21鄰","STREET":"中山路","SECT":" ","MAREA":" ","LANE":"８７５巷","ALLEY":" ","HOUSE_NO":"１０７號之２","E_COORD97":172370.20000000001,"N_COORD97":2541224.04,"ADDRESS":"中山路８７５巷１０７號之２","OBJECTID":291357},"geometry":{"x":172370.20000000019,"y":2541224.040000001}},{"attributes":{"ID":291364,"DIS_CODE":0,"TOWNNAME":"安南區","LI":"溪墘里","LIN":"21鄰","STREET":"安寧街","SECT":" ","MAREA":" ","LANE":"２３巷","ALLEY":" ","HOUSE_NO":"２２之１號","E_COORD97":167347.87,"N_COORD97":2546924.2400000002,"ADDRESS":"安寧街２３巷２２之１號","OBJECTID":291358},"geometry":{"x":167347.87000000011,"y":2546924.2400000002}},{"attributes":{"ID":291365,"DIS_CODE":0,"TOWNNAME":"東區","LI":"新東里","LIN":"21鄰","STREET":"裕豐街","SECT":" ","MAREA":" ","LANE":"１６３巷","ALLEY":" ","HOUSE_NO":"１７號","E_COORD97":170652.16,"N_COORD97":2543120.2599999998,"ADDRESS":"裕豐街１６３巷１７號","OBJECTID":291359},"geometry":{"x":170652.16000000108,"y":2543120.2599999979}},{"attributes":{"ID":291366,"DIS_CODE":0,"TOWNNAME":"東區","LI":"新東里","LIN":"21鄰","STREET":"裕豐街","SECT":" ","MAREA":" ","LANE":"１６３巷","ALLEY":" ","HOUSE_NO":"１９號","E_COORD97":170645.79999999999,"N_COORD97":2543118.9399999999,"ADDRESS":"裕豐街１６３巷１９號","OBJECTID":291360},"geometry":{"x":170645.80000000075,"y":2543118.9400000032}},{"attributes":{"ID":291367,"DIS_CODE":0,"TOWNNAME":"安南區","LI":"\u25A0南里","LIN":"21鄰","STREET":"環福街","SECT":" ","MAREA":" ","LANE":"１７０巷","ALLEY":" ","HOUSE_NO":"１１號之３","E_COORD97":170409.95999999999,"N_COORD97":2552661.8999999999,"ADDRESS":"環福街１７０巷１１號之３","OBJECTID":291361},"geometry":{"x":170409.95999999996,"y":2552661.9000000022}},{"attributes":{"ID":291368,"DIS_CODE":0,"TOWNNAME":"安南區","LI":"\u25A0南里","LIN":"21鄰","STREET":"環福街","SECT":" ","MAREA":" ","LANE":"１７０巷","ALLEY":" ","HOUSE_NO":"１９號","E_COORD97":170399.51000000001,"N_COORD97":2552595.8399999999,"ADDRESS":"環福街１７０巷１９號","OBJECTID":291362},"geometry":{"x":170399.50999999978,"y":2552595.839999998}},{"attributes":{"ID":291369,"DIS_CODE":0,"TOWNNAME":"安南區","LI":"\u25A0南里","LIN":"21鄰","STREET":"環福街","SECT":" ","MAREA":" ","LANE":"１７０巷","ALLEY":" ","HOUSE_NO":"２３號","E_COORD97":170413.07000000001,"N_COORD97":2552599.4399999999,"ADDRESS":"環福街１７０巷２３號","OBJECTID":291363},"geometry":{"x":170413.0700000003,"y":2552599.4400000013}},{"attributes":{"ID":291370,"DIS_CODE":0,"TOWNNAME":"永康區","LI":"中華里","LIN":"25鄰","STREET":"忠義街","SECT":" ","MAREA":" ","LANE":" ","ALLEY":" ","HOUSE_NO":"８２號","E_COORD97":171724.03,"N_COORD97":2544609.1400000001,"ADDRESS":"忠義街８２號","OBJECTID":291364},"geometry":{"x":171724.02999999933,"y":2544609.1400000006}},{"attributes":{"ID":291371,"DIS_CODE":0,"TOWNNAME":"永康區","LI":"甲頂里","LIN":" ","STREET":"中正南路","SECT":" ","MAREA":" ","LANE":" ","ALLEY":" ","HOUSE_NO":"８之３號","E_COORD97":170934.89999999999,"N_COORD97":2547964.2999999998,"ADDRESS":"中正南路８之３號","OBJECTID":291365},"geometry":{"x":170934.90000000037,"y":2547964.3000000026}},{"attributes":{"ID":291372,"DIS_CODE":0,"TOWNNAME":"安南區","LI":"顯宮里","LIN":"6鄰","STREET":"媽祖宮路","SECT":" ","MAREA":" ","LANE":" ","ALLEY":" ","HOUSE_NO":"１４６號","E_COORD97":160665.93571799999,"N_COORD97":2548869.92508,"ADDRESS":"媽祖宮路１４６號","OBJECTID":291366},"geometry":{"x":160665.93571799994,"y":2548869.925082}},{"attributes":{"ID":291373,"DIS_CODE":0,"TOWNNAME":"永康區","LI":"西灣里","LIN":" ","STREET":"民族路","SECT":" ","MAREA":" ","LANE":" ","ALLEY":" ","HOUSE_NO":"４８０號","E_COORD97":174571.60000000001,"N_COORD97":2545457.0899999999,"ADDRESS":"民族路４８０號","OBJECTID":291367},"geometry":{"x":174571.60000000056,"y":2545457.0899999999}},{"attributes":{"ID":291374,"DIS_CODE":0,"TOWNNAME":"安南區","LI":"安東里","LIN":"21鄰","STREET":"安和路","SECT":"一段","MAREA":" ","LANE":"４９６巷","ALLEY":" ","HOUSE_NO":"２５號之４","E_COORD97":169549.73999999999,"N_COORD97":2548421.1099999999,"ADDRESS":"安和路一段４９６巷２５號之４","OBJECTID":291368},"geometry":{"x":169549.74000000115,"y":2548421.1100000013}},{"attributes":{"ID":291375,"DIS_CODE":0,"TOWNNAME":"永康區","LI":"\u25A0洲里","LIN":"25鄰","STREET":"國聖街","SECT":" ","MAREA":" ","LANE":" ","ALLEY":" ","HOUSE_NO":"１５９號","E_COORD97":170632.20999999999,"N_COORD97":2548243.2400000002,"ADDRESS":"國聖街１５９號","OBJECTID":291369},"geometry":{"x":170632.20999999996,"y":2548243.2400000002}},{"attributes":{"ID":291376,"DIS_CODE":0,"TOWNNAME":"永康區","LI":"\u25A0洲里","LIN":"40鄰","STREET":"國聖街","SECT":" ","MAREA":" ","LANE":" ","ALLEY":" ","HOUSE_NO":"２９１號","E_COORD97":171009.42000000001,"N_COORD97":2548608.75,"ADDRESS":"國聖街２９１號","OBJECTID":291370},"geometry":{"x":171009.42000000086,"y":2548608.75}},{"attributes":{"ID":291377,"DIS_CODE":0,"TOWNNAME":"安南區","LI":"安東里","LIN":"21鄰","STREET":"安和路","SECT":"一段","MAREA":" ","LANE":"４９６巷","ALLEY":" ","HOUSE_NO":"２５號之５","E_COORD97":169550.85999999999,"N_COORD97":2548417.2000000002,"ADDRESS":"安和路一段４９６巷２５號之５","OBJECTID":291371},"geometry":{"x":169550.86000000127,"y":2548417.2000000011}},{"attributes":{"ID":291378,"DIS_CODE":0,"TOWNNAME":"永康區","LI":"\u25A0洲里","LIN":" ","STREET":"洲尾街","SECT":" ","MAREA":" ","LANE":" ","ALLEY":" ","HOUSE_NO":"１１號","E_COORD97":171029.67000000001,"N_COORD97":2548532.25,"ADDRESS":"洲尾街１１號","OBJECTID":291372},"geometry":{"x":171029.67000000086,"y":2548532.2500000019}},{"attributes":{"ID":291379,"DIS_CODE":0,"TOWNNAME":"安南區","LI":"安富里","LIN":"21鄰","STREET":"郡安路","SECT":"五段","MAREA":" ","LANE":"１７８巷","ALLEY":" ","HOUSE_NO":"９１號","E_COORD97":167572.29999999999,"N_COORD97":2547516.6200000001,"ADDRESS":"郡安路五段１７８巷９１號","OBJECTID":291373},"geometry":{"x":167572.30000000075,"y":2547516.6200000048}},{"attributes":{"ID":291380,"DIS_CODE":0,"TOWNNAME":"安南區","LI":"安富里","LIN":"21鄰","STREET":"郡安路","SECT":"五段","MAREA":" ","LANE":"１７８巷","ALLEY":" ","HOUSE_NO":"９０號","E_COORD97":167549.19,"N_COORD97":2547519,"ADDRESS":"郡安路五段１７８巷９０號","OBJECTID":291374},"geometry":{"x":167549.19000000041,"y":2547519}},{"attributes":{"ID":291381,"DIS_CODE":0,"TOWNNAME":"中西區","LI":"赤嵌里","LIN":"21鄰","STREET":"忠義路","SECT":"二段","MAREA":" ","LANE":"１９９巷","ALLEY":" ","HOUSE_NO":"８號","E_COORD97":168407,"N_COORD97":2544220.0099999998,"ADDRESS":"忠義路二段１９９巷８號","OBJECTID":291375},"geometry":{"x":168407.00000000093,"y":2544220.0099999998}},{"attributes":{"ID":291382,"DIS_CODE":0,"TOWNNAME":"中西區","LI":"赤嵌里","LIN":"21鄰","STREET":"忠義路","SECT":"二段","MAREA":" ","LANE":"１９９巷","ALLEY":" ","HOUSE_NO":"９號","E_COORD97":168391.97,"N_COORD97":2544206.0299999998,"ADDRESS":"忠義路二段１９９巷９號","OBJECTID":291376},"geometry":{"x":168391.97000000067,"y":2544206.0299999993}},{"attributes":{"ID":291383,"DIS_CODE":0,"TOWNNAME":"東區","LI":"富強里","LIN":"21鄰","STREET":"東門路","SECT":"二段","MAREA":" ","LANE":"３０１巷","ALLEY":" ","HOUSE_NO":"１４號","E_COORD97":170788.39000000001,"N_COORD97":2542674.6699999999,"ADDRESS":"東門路二段３０１巷１４號","OBJECTID":291377},"geometry":{"x":170788.38999999966,"y":2542674.6700000018}},{"attributes":{"ID":291384,"DIS_CODE":0,"TOWNNAME":"東區","LI":"富強里","LIN":"21鄰","STREET":"東門路","SECT":"二段","MAREA":" ","LANE":"３０１巷","ALLEY":" ","HOUSE_NO":"１６號","E_COORD97":170792.28,"N_COORD97":2542677.1800000002,"ADDRESS":"東門路二段３０１巷１６號","OBJECTID":291378},"geometry":{"x":170792.28000000119,"y":2542677.1800000016}},{"attributes":{"ID":291385,"DIS_CODE":0,"TOWNNAME":"東區","LI":"富強里","LIN":"21鄰","STREET":"東門路","SECT":"二段","MAREA":" ","LANE":"３０１巷","ALLEY":" ","HOUSE_NO":"２０號","E_COORD97":170802.94,"N_COORD97":2542677.8900000001,"ADDRESS":"東門路二段３０１巷２０號","OBJECTID":291379},"geometry":{"x":170802.94000000134,"y":2542677.8900000025}},{"attributes":{"ID":291386,"DIS_CODE":0,"TOWNNAME":"東區","LI":"富強里","LIN":"21鄰","STREET":"東門路","SECT":"二段","MAREA":" ","LANE":"３０１巷","ALLEY":" ","HOUSE_NO":"２２號","E_COORD97":170806.45999999999,"N_COORD97":2542679.52,"ADDRESS":"東門路二段３０１巷２２號","OBJECTID":291380},"geometry":{"x":170806.45999999996,"y":2542679.5199999996}},{"attributes":{"ID":291387,"DIS_CODE":0,"TOWNNAME":"東區","LI":"富強里","LIN":"21鄰","STREET":"東門路","SECT":"二段","MAREA":" ","LANE":"３０１巷","ALLEY":" ","HOUSE_NO":"３０號","E_COORD97":170825.78,"N_COORD97":2542686.73,"ADDRESS":"東門路二段３０１巷３０號","OBJECTID":291381},"geometry":{"x":170825.78000000212,"y":2542686.7300000004}},{"attributes":{"ID":291388,"DIS_CODE":0,"TOWNNAME":"東區","LI":"富強里","LIN":"21鄰","STREET":"東門路","SECT":"二段","MAREA":" ","LANE":"３０１巷","ALLEY":" ","HOUSE_NO":"３２號","E_COORD97":170829.17999999999,"N_COORD97":2542689.7599999998,"ADDRESS":"東門路二段３０１巷３２號","OBJECTID":291382},"geometry":{"x":170829.18000000156,"y":2542689.7600000035}},{"attributes":{"ID":291389,"DIS_CODE":0,"TOWNNAME":"東區","LI":"富強里","LIN":"21鄰","STREET":"東門路","SECT":"二段","MAREA":" ","LANE":"３０１巷","ALLEY":" ","HOUSE_NO":"３４號","E_COORD97":170832.04000000001,"N_COORD97":2542692.6699999999,"ADDRESS":"東門路二段３０１巷３４號","OBJECTID":291383},"geometry":{"x":170832.03999999911,"y":2542692.6699999999}},{"attributes":{"ID":291390,"DIS_CODE":0,"TOWNNAME":"東區","LI":"富強里","LIN":"21鄰","STREET":"東門路","SECT":"二段","MAREA":" ","LANE":"３０１巷","ALLEY":" ","HOUSE_NO":"３６號","E_COORD97":170834.42000000001,"N_COORD97":2542697.48,"ADDRESS":"東門路二段３０１巷３６號","OBJECTID":291384},"geometry":{"x":170834.41999999899,"y":2542697.4800000023}},{"attributes":{"ID":291391,"DIS_CODE":0,"TOWNNAME":"安南區","LI":"理想里","LIN":"21鄰","STREET":"海佃路","SECT":"二段","MAREA":" ","LANE":"１５０巷","ALLEY":" ","HOUSE_NO":"１２２號之３９","E_COORD97":167222.748486,"N_COORD97":2548609.18407,"ADDRESS":"海佃路二段１５０巷１２２號之３９","OBJECTID":291385},"geometry":{"x":167222.74848600011,"y":2548609.1840740014}},{"attributes":{"ID":291392,"DIS_CODE":0,"TOWNNAME":"永康區","LI":"\u25A0洲里","LIN":"24鄰","STREET":"國聖街","SECT":" ","MAREA":" ","LANE":" ","ALLEY":" ","HOUSE_NO":"２８６號","E_COORD97":170815.92000000001,"N_COORD97":2548388.0800000001,"ADDRESS":"國聖街２８６號","OBJECTID":291386},"geometry":{"x":170815.92000000179,"y":2548388.0800000019}},{"attributes":{"ID":291393,"DIS_CODE":0,"TOWNNAME":"永康區","LI":"中華里","LIN":"25鄰","STREET":"忠義街","SECT":" ","MAREA":" ","LANE":" ","ALLEY":" ","HOUSE_NO":"６３號","E_COORD97":171706.51000000001,"N_COORD97":2544599.8700000001,"ADDRESS":"忠義街６３號","OBJECTID":291387},"geometry":{"x":171706.50999999978,"y":2544599.8700000029}},{"attributes":{"ID":291394,"DIS_CODE":0,"TOWNNAME":"永康區","LI":"復國里","LIN":"21鄰","STREET":"復國一路","SECT":" ","MAREA":" ","LANE":"３４７巷","ALLEY":" ","HOUSE_NO":"８號","E_COORD97":172731.70000000001,"N_COORD97":2545809.5299999998,"ADDRESS":"復國一路３４７巷８號","OBJECTID":291388},"geometry":{"x":172731.70000000112,"y":2545809.5299999993}},{"attributes":{"ID":291395,"DIS_CODE":0,"TOWNNAME":"永康區","LI":"新樹里","LIN":" ","STREET":"西勢路","SECT":" ","MAREA":" ","LANE":" ","ALLEY":" ","HOUSE_NO":"２２６號","E_COORD97":175755.78,"N_COORD97":2546787,"ADDRESS":"西勢路２２６號","OBJECTID":291389},"geometry":{"x":175755.78000000119,"y":2546787}},{"attributes":{"ID":291396,"DIS_CODE":0,"TOWNNAME":"東區","LI":"崇明里","LIN":"21鄰","STREET":"中華東路","SECT":"三段","MAREA":" ","LANE":"３９９巷","ALLEY":" ","HOUSE_NO":"１３號","E_COORD97":170076.82000000001,"N_COORD97":2541498.3900000001,"ADDRESS":"中華東路三段３９９巷１３號","OBJECTID":291390},"geometry":{"x":170076.82000000123,"y":2541498.3900000006}},{"attributes":{"ID":291397,"DIS_CODE":0,"TOWNNAME":"東區","LI":"崇明里","LIN":"21鄰","STREET":"中華東路","SECT":"三段","MAREA":" ","LANE":"３９９巷","ALLEY":" ","HOUSE_NO":"１５號","E_COORD97":170077.85999999999,"N_COORD97":2541492.5,"ADDRESS":"中華東路三段３９９巷１５號","OBJECTID":291391},"geometry":{"x":170077.86000000127,"y":2541492.5000000019}},{"attributes":{"ID":291398,"DIS_CODE":0,"TOWNNAME":"永康區","LI":"南灣里","LIN":" ","STREET":"大灣路","SECT":" ","MAREA":" ","LANE":" ","ALLEY":" ","HOUSE_NO":"５４２號","E_COORD97":174660.75,"N_COORD97":2544764.7999999998,"ADDRESS":"大灣路５４２號","OBJECTID":291392},"geometry":{"x":174660.75000000093,"y":2544764.8000000007}},{"attributes":{"ID":291399,"DIS_CODE":0,"TOWNNAME":"永康區","LI":"東灣里","LIN":" ","STREET":"民族路","SECT":" ","MAREA":" ","LANE":" ","ALLEY":" ","HOUSE_NO":"２９１號","E_COORD97":175087.31,"N_COORD97":2545067.0600000001,"ADDRESS":"民族路２９１號","OBJECTID":291393},"geometry":{"x":175087.30999999959,"y":2545067.0600000005}},{"attributes":{"ID":291400,"DIS_CODE":0,"TOWNNAME":"永康區","LI":"中華里","LIN":"4鄰","STREET":"小東路","SECT":" ","MAREA":" ","LANE":" ","ALLEY":" ","HOUSE_NO":"６５５號","E_COORD97":171961.88,"N_COORD97":2544341.46,"ADDRESS":"小東路６５５號","OBJECTID":291394},"geometry":{"x":171961.87999999989,"y":2544341.4600000028}},{"attributes":{"ID":291401,"DIS_CODE":0,"TOWNNAME":"永康區","LI":"龍潭里","LIN":" ","STREET":"龍潭街","SECT":" ","MAREA":" ","LANE":" ","ALLEY":" ","HOUSE_NO":"２４２號","E_COORD97":174930.38,"N_COORD97":2548325.5,"ADDRESS":"龍潭街２４２號","OBJECTID":291395},"geometry":{"x":174930.38000000175,"y":2548325.5}},{"attributes":{"ID":291402,"DIS_CODE":0,"TOWNNAME":"永康區","LI":"東灣里","LIN":" ","STREET":"大灣東路","SECT":" ","MAREA":" ","LANE":" ","ALLEY":" ","HOUSE_NO":"２２２之２號","E_COORD97":174790.48000000001,"N_COORD97":2544461.0499999998,"ADDRESS":"大灣東路２２２之２號","OBJECTID":291396},"geometry":{"x":174790.48000000045,"y":2544461.0500000007}},{"attributes":{"ID":291403,"DIS_CODE":0,"TOWNNAME":"東區","LI":"崇信里","LIN":"21鄰","STREET":"中華東路","SECT":"三段","MAREA":" ","LANE":"４４巷","ALLEY":" ","HOUSE_NO":"４３號","E_COORD97":170829.07999999999,"N_COORD97":2542402.5499999998,"ADDRESS":"中華東路三段４４巷４３號","OBJECTID":291397},"geometry":{"x":170829.08000000101,"y":2542402.5500000007}},{"attributes":{"ID":291404,"DIS_CODE":0,"TOWNNAME":"東區","LI":"崇信里","LIN":"21鄰","STREET":"中華東路","SECT":"三段","MAREA":" ","LANE":"４４巷","ALLEY":" ","HOUSE_NO":"４９號","E_COORD97":170818.81,"N_COORD97":2542425.8599999999,"ADDRESS":"中華東路三段４４巷４９號","OBJECTID":291398},"geometry":{"x":170818.81000000052,"y":2542425.8600000013}},{"attributes":{"ID":291405,"DIS_CODE":0,"TOWNNAME":"東區","LI":"崇信里","LIN":"21鄰","STREET":"中華東路","SECT":"三段","MAREA":" ","LANE":"４４巷","ALLEY":" ","HOUSE_NO":"５５號","E_COORD97":170807.54000000001,"N_COORD97":2542458.1600000001,"ADDRESS":"中華東路三段４４巷５５號","OBJECTID":291399},"geometry":{"x":170807.54000000097,"y":2542458.160000002}},{"attributes":{"ID":291406,"DIS_CODE":0,"TOWNNAME":"永康區","LI":"龍潭里","LIN":" ","STREET":"龍潭街","SECT":" ","MAREA":" ","LANE":" ","ALLEY":" ","HOUSE_NO":"１９２號","E_COORD97":174900.76999999999,"N_COORD97":2548207.3100000001,"ADDRESS":"龍潭街１９２號","OBJECTID":291400},"geometry":{"x":174900.77000000048,"y":2548207.3100000024}}]}