{"displayFieldName":"TOWNNAME","fieldAliases":{"ID":"ID","DIS_CODE":"DIS_CODE","TOWNNAME":"TOWNNAME","LI":"LI","LIN":"LIN","STREET":"STREET","SECT":"SECT","MAREA":"MAREA","LANE":"LANE","ALLEY":"ALLEY","HOUSE_NO":"HOUSE_NO","E_COORD97":"E_COORD97","N_COORD97":"N_COORD97","ADDRESS":"ADDRESS","OBJECTID":"OBJECTID"},"geometryType":"esriGeometryPoint","spatialReference":{"wkid":102443,"latestWkid":3826},"fields":[{"name":"ID","type":"esriFieldTypeDouble","alias":"ID"},{"name":"DIS_CODE","type":"esriFieldTypeInteger","alias":"DIS_CODE"},{"name":"TOWNNAME","type":"esriFieldTypeString","alias":"TOWNNAME","length":8},{"name":"LI","type":"esriFieldTypeString","alias":"LI","length":8},{"name":"LIN","type":"esriFieldTypeString","alias":"LIN","length":12},{"name":"STREET","type":"esriFieldTypeString","alias":"STREET","length":20},{"name":"SECT","type":"esriFieldTypeString","alias":"SECT","length":8},{"name":"MAREA","type":"esriFieldTypeString","alias":"MAREA","length":12},{"name":"LANE","type":"esriFieldTypeString","alias":"LANE","length":10},{"name":"ALLEY","type":"esriFieldTypeString","alias":"ALLEY","length":10},{"name":"HOUSE_NO","type":"esriFieldTypeString","alias":"HOUSE_NO","length":20},{"name":"E_COORD97","type":"esriFieldTypeDouble","alias":"E_COORD97"},{"name":"N_COORD97","type":"esriFieldTypeDouble","alias":"N_COORD97"},{"name":"ADDRESS","type":"esriFieldTypeString","alias":"ADDRESS","length":50},{"name":"OBJECTID","type":"esriFieldTypeOID","alias":"OBJECTID"}],"features":[{"attributes":{"ID":12801,"DIS_CODE":0,"TOWNNAME":"永康區","LI":"勝利里","LIN":"24鄰","STREET":"勝利街","SECT":" ","MAREA":" ","LANE":"１１６巷","ALLEY":"１２弄","HOUSE_NO":"５號","E_COORD97":171421.44,"N_COORD97":2544847.5,"ADDRESS":"勝利街１１６巷１２弄５號","OBJECTID":12801},"geometry":{"x":171421.44000000227,"y":2544847.5}},{"attributes":{"ID":12802,"DIS_CODE":0,"TOWNNAME":"永康區","LI":"勝利里","LIN":"24鄰","STREET":"勝利街","SECT":" ","MAREA":" ","LANE":"１１６巷","ALLEY":"１２弄","HOUSE_NO":"２７號","E_COORD97":171420.73000000001,"N_COORD97":2544800,"ADDRESS":"勝利街１１６巷１２弄２７號","OBJECTID":12802},"geometry":{"x":171420.73000000045,"y":2544800}},{"attributes":{"ID":12803,"DIS_CODE":0,"TOWNNAME":"永康區","LI":"正強里","LIN":"24鄰","STREET":"中正路","SECT":" ","MAREA":" ","LANE":"１２７巷","ALLEY":"２４弄","HOUSE_NO":"１５號","E_COORD97":173334.92000000001,"N_COORD97":2547782.8399999999,"ADDRESS":"中正路１２７巷２４弄１５號","OBJECTID":12803},"geometry":{"x":173334.92000000179,"y":2547782.8400000017}},{"attributes":{"ID":12804,"DIS_CODE":0,"TOWNNAME":"永康區","LI":"三合里","LIN":"24鄰","STREET":"南工街","SECT":" ","MAREA":" ","LANE":"２６７巷","ALLEY":"１４弄","HOUSE_NO":"１號","E_COORD97":171870.45999999999,"N_COORD97":2545913.6699999999,"ADDRESS":"南工街２６７巷１４弄１號","OBJECTID":12804},"geometry":{"x":171870.46000000089,"y":2545913.6699999999}},{"attributes":{"ID":12805,"DIS_CODE":0,"TOWNNAME":"新化區","LI":"豐榮里","LIN":"13鄰","STREET":"民治路","SECT":" ","MAREA":" ","LANE":" ","ALLEY":" ","HOUSE_NO":"１１８號","E_COORD97":178715.60000000001,"N_COORD97":2548158.6600000001,"ADDRESS":"民治路１１８號","OBJECTID":12805},"geometry":{"x":178715.60000000149,"y":2548158.6600000001}},{"attributes":{"ID":12806,"DIS_CODE":0,"TOWNNAME":"永康區","LI":"勝利里","LIN":"24鄰","STREET":"勝利街","SECT":" ","MAREA":" ","LANE":"１１６巷","ALLEY":"１２弄","HOUSE_NO":"７號","E_COORD97":171421.56,"N_COORD97":2544842.25,"ADDRESS":"勝利街１１６巷１２弄７號","OBJECTID":12806},"geometry":{"x":171421.56000000145,"y":2544842.25}},{"attributes":{"ID":12807,"DIS_CODE":0,"TOWNNAME":"左鎮區","LI":"榮和里","LIN":"13鄰","STREET":" ","SECT":" ","MAREA":"菜寮","LANE":" ","ALLEY":" ","HOUSE_NO":"６０號之７","E_COORD97":187316.26000000001,"N_COORD97":2551510.0600000001,"ADDRESS":"菜寮６０號之７","OBJECTID":12807},"geometry":{"x":187316.26000000071,"y":2551510.0600000005}},{"attributes":{"ID":12808,"DIS_CODE":0,"TOWNNAME":"永康區","LI":"勝利里","LIN":"24鄰","STREET":"勝利街","SECT":" ","MAREA":" ","LANE":"１１６巷","ALLEY":"１２弄","HOUSE_NO":"１６號","E_COORD97":171402.48999999999,"N_COORD97":2544828.52,"ADDRESS":"勝利街１１６巷１２弄１６號","OBJECTID":12808},"geometry":{"x":171402.49000000115,"y":2544828.5200000014}},{"attributes":{"ID":12809,"DIS_CODE":0,"TOWNNAME":"永康區","LI":"勝利里","LIN":"24鄰","STREET":"勝利街","SECT":" ","MAREA":" ","LANE":"１１６巷","ALLEY":"１２弄","HOUSE_NO":"４２號","E_COORD97":171402.25,"N_COORD97":2544770.2400000002,"ADDRESS":"勝利街１１６巷１２弄４２號","OBJECTID":12809},"geometry":{"x":171402.25000000093,"y":2544770.2400000021}},{"attributes":{"ID":12810,"DIS_CODE":0,"TOWNNAME":"安南區","LI":"海東里","LIN":"24鄰","STREET":"同安路","SECT":" ","MAREA":" ","LANE":"２２５巷","ALLEY":"１１７弄","HOUSE_NO":"１號","E_COORD97":166990.29000000001,"N_COORD97":2549291.5299999998,"ADDRESS":"同安路２２５巷１１７弄１號","OBJECTID":12810},"geometry":{"x":166990.29000000004,"y":2549291.5299999993}},{"attributes":{"ID":12811,"DIS_CODE":0,"TOWNNAME":"玉井區","LI":"豐里里","LIN":"13鄰","STREET":" ","SECT":" ","MAREA":"豐里","LANE":" ","ALLEY":" ","HOUSE_NO":"１３８之８號","E_COORD97":192959.48000000001,"N_COORD97":2560688.7000000002,"ADDRESS":"豐里１３８之８號","OBJECTID":12811},"geometry":{"x":192959.48000000045,"y":2560688.6999999993}},{"attributes":{"ID":12812,"DIS_CODE":0,"TOWNNAME":"安南區","LI":"海東里","LIN":"24鄰","STREET":"同安路","SECT":" ","MAREA":" ","LANE":"２２５巷","ALLEY":"１１７弄","HOUSE_NO":"３號","E_COORD97":166987.26999999999,"N_COORD97":2549288.8399999999,"ADDRESS":"同安路２２５巷１１７弄３號","OBJECTID":12812},"geometry":{"x":166987.27000000048,"y":2549288.8399999999}},{"attributes":{"ID":12813,"DIS_CODE":0,"TOWNNAME":"官田區","LI":"南\u25A0里","LIN":"13鄰","STREET":" ","SECT":" ","MAREA":"三結義","LANE":" ","ALLEY":" ","HOUSE_NO":"４１號","E_COORD97":179572.81,"N_COORD97":2567387.5499999998,"ADDRESS":"三結義４１號","OBJECTID":12813},"geometry":{"x":179572.80999999959,"y":2567387.5499999989}},{"attributes":{"ID":12814,"DIS_CODE":0,"TOWNNAME":"北區","LI":"重興里","LIN":"13鄰","STREET":"開南街","SECT":" ","MAREA":" ","LANE":" ","ALLEY":" ","HOUSE_NO":"１５５號","E_COORD97":170662.29000000001,"N_COORD97":2545105.9199999999,"ADDRESS":"開南街１５５號","OBJECTID":12814},"geometry":{"x":170662.29000000004,"y":2545105.9199999999}},{"attributes":{"ID":12815,"DIS_CODE":0,"TOWNNAME":"將軍區","LI":"平沙里","LIN":"13鄰","STREET":" ","SECT":" ","MAREA":"平沙","LANE":" ","ALLEY":" ","HOUSE_NO":"１５５號","E_COORD97":156702.28671300001,"N_COORD97":2567865.4761100002,"ADDRESS":"平沙１５５號","OBJECTID":12815},"geometry":{"x":156702.28671300039,"y":2567865.4761140011}},{"attributes":{"ID":12816,"DIS_CODE":0,"TOWNNAME":"歸仁區","LI":"看東里","LIN":"13鄰","STREET":"中山一街","SECT":" ","MAREA":" ","LANE":" ","ALLEY":" ","HOUSE_NO":"９４號","E_COORD97":178635.19,"N_COORD97":2540442.4199999999,"ADDRESS":"中山一街９４號","OBJECTID":12816},"geometry":{"x":178635.19000000134,"y":2540442.4200000018}},{"attributes":{"ID":12817,"DIS_CODE":0,"TOWNNAME":"將軍區","LI":"平沙里","LIN":"13鄰","STREET":" ","SECT":" ","MAREA":"平沙","LANE":" ","ALLEY":" ","HOUSE_NO":"１５８號","E_COORD97":156709.91394,"N_COORD97":2567872.5669399998,"ADDRESS":"平沙１５８號","OBJECTID":12817},"geometry":{"x":156709.91394000035,"y":2567872.566943001}},{"attributes":{"ID":12818,"DIS_CODE":0,"TOWNNAME":"將軍區","LI":"平沙里","LIN":"13鄰","STREET":" ","SECT":" ","MAREA":"平沙","LANE":" ","ALLEY":" ","HOUSE_NO":"１５９號","E_COORD97":156718.17676900001,"N_COORD97":2567847.1669600001,"ADDRESS":"平沙１５９號","OBJECTID":12818},"geometry":{"x":156718.17676899955,"y":2567847.1669570003}},{"attributes":{"ID":12819,"DIS_CODE":0,"TOWNNAME":"將軍區","LI":"平沙里","LIN":"13鄰","STREET":" ","SECT":" ","MAREA":"平沙","LANE":" ","ALLEY":" ","HOUSE_NO":"１６０號","E_COORD97":156489.28,"N_COORD97":2567586.6899999999,"ADDRESS":"平沙１６０號","OBJECTID":12819},"geometry":{"x":156489.28000000026,"y":2567586.6900000013}},{"attributes":{"ID":12820,"DIS_CODE":0,"TOWNNAME":"後壁區","LI":"墨林里","LIN":"13鄰","STREET":" ","SECT":" ","MAREA":"菁寮","LANE":" ","ALLEY":" ","HOUSE_NO":"３４６之４號","E_COORD97":182119.32999999999,"N_COORD97":2586250.04,"ADDRESS":"菁寮３４６之４號","OBJECTID":12820},"geometry":{"x":182119.33000000007,"y":2586250.0399999972}},{"attributes":{"ID":12821,"DIS_CODE":0,"TOWNNAME":"南化區","LI":"北寮里","LIN":"13鄰","STREET":" ","SECT":" ","MAREA":"北寮","LANE":" ","ALLEY":" ","HOUSE_NO":"１８０之３號","E_COORD97":198716.94,"N_COORD97":2552577.7999999998,"ADDRESS":"北寮１８０之３號","OBJECTID":12821},"geometry":{"x":198716.94000000041,"y":2552577.8000000026}},{"attributes":{"ID":12822,"DIS_CODE":0,"TOWNNAME":"南化區","LI":"北寮里","LIN":"13鄰","STREET":" ","SECT":" ","MAREA":"北寮","LANE":" ","ALLEY":" ","HOUSE_NO":"１８０之２號","E_COORD97":198712.44,"N_COORD97":2552576.7999999998,"ADDRESS":"北寮１８０之２號","OBJECTID":12822},"geometry":{"x":198712.44000000134,"y":2552576.8000000045}},{"attributes":{"ID":12823,"DIS_CODE":0,"TOWNNAME":"南化區","LI":"北寮里","LIN":"13鄰","STREET":" ","SECT":" ","MAREA":"北寮","LANE":" ","ALLEY":" ","HOUSE_NO":"１８０之１號","E_COORD97":198677.54000000001,"N_COORD97":2552577.7999999998,"ADDRESS":"北寮１８０之１號","OBJECTID":12823},"geometry":{"x":198677.54000000097,"y":2552577.8000000026}},{"attributes":{"ID":12824,"DIS_CODE":0,"TOWNNAME":"南化區","LI":"北寮里","LIN":"13鄰","STREET":" ","SECT":" ","MAREA":"北寮","LANE":" ","ALLEY":" ","HOUSE_NO":"１７９之２號","E_COORD97":198816.73999999999,"N_COORD97":2552575.7999999998,"ADDRESS":"北寮１７９之２號","OBJECTID":12824},"geometry":{"x":198816.73999999929,"y":2552575.8000000007}},{"attributes":{"ID":12825,"DIS_CODE":0,"TOWNNAME":"楠西區","LI":"照興里","LIN":"13鄰","STREET":" ","SECT":" ","MAREA":"興南","LANE":" ","ALLEY":" ","HOUSE_NO":"３６號","E_COORD97":195525.07000000001,"N_COORD97":2563606.25,"ADDRESS":"興南３６號","OBJECTID":12825},"geometry":{"x":195525.07000000123,"y":2563606.2500000019}},{"attributes":{"ID":12826,"DIS_CODE":0,"TOWNNAME":"山上區","LI":"山上里","LIN":"13鄰","STREET":" ","SECT":" ","MAREA":"山上","LANE":" ","ALLEY":" ","HOUSE_NO":"２０１之５號","E_COORD97":184035.20999999999,"N_COORD97":2555522.2999999998,"ADDRESS":"山上２０１之５號","OBJECTID":12826},"geometry":{"x":184035.21000000089,"y":2555522.3000000007}},{"attributes":{"ID":12827,"DIS_CODE":0,"TOWNNAME":"山上區","LI":"山上里","LIN":"13鄰","STREET":" ","SECT":" ","MAREA":"山上","LANE":" ","ALLEY":" ","HOUSE_NO":"２０１之７號","E_COORD97":184035.31,"N_COORD97":2555515.2999999998,"ADDRESS":"山上２０１之７號","OBJECTID":12827},"geometry":{"x":184035.31000000145,"y":2555515.3000000007}},{"attributes":{"ID":12828,"DIS_CODE":0,"TOWNNAME":"山上區","LI":"山上里","LIN":"13鄰","STREET":" ","SECT":" ","MAREA":"山上","LANE":" ","ALLEY":" ","HOUSE_NO":"２０１之２號","E_COORD97":184033.67524800001,"N_COORD97":2555536.3161399998,"ADDRESS":"山上２０１之２號","OBJECTID":12828},"geometry":{"x":184033.67524800077,"y":2555536.3161420021}},{"attributes":{"ID":12829,"DIS_CODE":0,"TOWNNAME":"山上區","LI":"山上里","LIN":"13鄰","STREET":" ","SECT":" ","MAREA":"山上","LANE":" ","ALLEY":" ","HOUSE_NO":"２０１之８號","E_COORD97":184036.10999999999,"N_COORD97":2555510.2999999998,"ADDRESS":"山上２０１之８號","OBJECTID":12829},"geometry":{"x":184036.11000000127,"y":2555510.3000000026}},{"attributes":{"ID":12830,"DIS_CODE":0,"TOWNNAME":"新市區","LI":"大營里","LIN":"13鄰","STREET":" ","SECT":" ","MAREA":"大營","LANE":" ","ALLEY":" ","HOUSE_NO":"２５５之１號","E_COORD97":179072.48000000001,"N_COORD97":2555576.7999999998,"ADDRESS":"大營２５５之１號","OBJECTID":12830},"geometry":{"x":179072.48000000045,"y":2555576.8000000007}},{"attributes":{"ID":12831,"DIS_CODE":0,"TOWNNAME":"新市區","LI":"大營里","LIN":"13鄰","STREET":" ","SECT":" ","MAREA":"大營","LANE":" ","ALLEY":" ","HOUSE_NO":"２５１之１號","E_COORD97":179140.67999999999,"N_COORD97":2555576.7999999998,"ADDRESS":"大營２５１之１號","OBJECTID":12831},"geometry":{"x":179140.68000000156,"y":2555576.8000000007}},{"attributes":{"ID":12832,"DIS_CODE":0,"TOWNNAME":"麻豆區","LI":"南勢里","LIN":"24鄰","STREET":" ","SECT":" ","MAREA":"南勢","LANE":" ","ALLEY":" ","HOUSE_NO":"８２號之６","E_COORD97":174623.12,"N_COORD97":2565007.6800000002,"ADDRESS":"南勢８２號之６","OBJECTID":12832},"geometry":{"x":174623.12000000011,"y":2565007.6799999997}},{"attributes":{"ID":12833,"DIS_CODE":0,"TOWNNAME":"麻豆區","LI":"南勢里","LIN":"24鄰","STREET":" ","SECT":" ","MAREA":"南勢","LANE":" ","ALLEY":" ","HOUSE_NO":"８２號","E_COORD97":174606.03,"N_COORD97":2565007.3100000001,"ADDRESS":"南勢８２號","OBJECTID":12833},"geometry":{"x":174606.03000000212,"y":2565007.3100000024}},{"attributes":{"ID":12834,"DIS_CODE":0,"TOWNNAME":"麻豆區","LI":"南勢里","LIN":"24鄰","STREET":" ","SECT":" ","MAREA":"南勢","LANE":" ","ALLEY":" ","HOUSE_NO":"８３號","E_COORD97":174560.23999999999,"N_COORD97":2564948.8399999999,"ADDRESS":"南勢８３號","OBJECTID":12834},"geometry":{"x":174560.24000000022,"y":2564948.8400000017}},{"attributes":{"ID":12835,"DIS_CODE":0,"TOWNNAME":"麻豆區","LI":"南勢里","LIN":"24鄰","STREET":" ","SECT":" ","MAREA":"南勢","LANE":" ","ALLEY":" ","HOUSE_NO":"８４號之１０","E_COORD97":174741.75,"N_COORD97":2565049.5800000001,"ADDRESS":"南勢８４號之１０","OBJECTID":12835},"geometry":{"x":174741.75000000093,"y":2565049.5800000001}},{"attributes":{"ID":12836,"DIS_CODE":0,"TOWNNAME":"安南區","LI":"海東里","LIN":"24鄰","STREET":"同安路","SECT":" ","MAREA":" ","LANE":"２２５巷","ALLEY":"１６０弄","HOUSE_NO":"２號","E_COORD97":167022.51999999999,"N_COORD97":2549335.5099999998,"ADDRESS":"同安路２２５巷１６０弄２號","OBJECTID":12836},"geometry":{"x":167022.51999999955,"y":2549335.5099999998}},{"attributes":{"ID":12837,"DIS_CODE":0,"TOWNNAME":"楠西區","LI":"楠西里","LIN":"24鄰","STREET":"中興路","SECT":" ","MAREA":" ","LANE":"６３巷","ALLEY":"３弄","HOUSE_NO":"６號","E_COORD97":197159.12,"N_COORD97":2564327.8900000001,"ADDRESS":"中興路６３巷３弄６號","OBJECTID":12837},"geometry":{"x":197159.12000000011,"y":2564327.8900000025}},{"attributes":{"ID":12838,"DIS_CODE":0,"TOWNNAME":"安南區","LI":"海東里","LIN":"24鄰","STREET":"同安路","SECT":" ","MAREA":" ","LANE":"２２５巷","ALLEY":"１６０弄","HOUSE_NO":"６號","E_COORD97":167024.89999999999,"N_COORD97":2549338.8399999999,"ADDRESS":"同安路２２５巷１６０弄６號","OBJECTID":12838},"geometry":{"x":167024.9000000013,"y":2549338.8400000017}},{"attributes":{"ID":12839,"DIS_CODE":0,"TOWNNAME":"安南區","LI":"海東里","LIN":"24鄰","STREET":"同安路","SECT":" ","MAREA":" ","LANE":"２２５巷","ALLEY":"１１７弄","HOUSE_NO":"５號","E_COORD97":166956,"N_COORD97":2549246.77,"ADDRESS":"同安路２２５巷１１７弄５號","OBJECTID":12839},"geometry":{"x":166956.00000000093,"y":2549246.7700000033}},{"attributes":{"ID":12840,"DIS_CODE":0,"TOWNNAME":"安南區","LI":"海東里","LIN":"24鄰","STREET":"同安路","SECT":" ","MAREA":" ","LANE":"２２５巷","ALLEY":"１１７弄","HOUSE_NO":"７號","E_COORD97":166952.98000000001,"N_COORD97":2549243.27,"ADDRESS":"同安路２２５巷１１７弄７號","OBJECTID":12840},"geometry":{"x":166952.98000000138,"y":2549243.2700000033}},{"attributes":{"ID":12841,"DIS_CODE":0,"TOWNNAME":"安南區","LI":"海東里","LIN":"24鄰","STREET":"同安路","SECT":" ","MAREA":" ","LANE":"２２５巷","ALLEY":"１１７弄","HOUSE_NO":"８號","E_COORD97":166946.95000000001,"N_COORD97":2549253.1200000001,"ADDRESS":"同安路２２５巷１１７弄８號","OBJECTID":12841},"geometry":{"x":166946.95000000019,"y":2549253.1200000029}},{"attributes":{"ID":12842,"DIS_CODE":0,"TOWNNAME":"安南區","LI":"海東里","LIN":"24鄰","STREET":"同安路","SECT":" ","MAREA":" ","LANE":"２２５巷","ALLEY":"１１７弄","HOUSE_NO":"１０號","E_COORD97":166944.89000000001,"N_COORD97":2549249.6200000001,"ADDRESS":"同安路２２５巷１１７弄１０號","OBJECTID":12842},"geometry":{"x":166944.88999999966,"y":2549249.6200000029}},{"attributes":{"ID":12843,"DIS_CODE":0,"TOWNNAME":"永康區","LI":"六合里","LIN":"24鄰","STREET":"中華二路","SECT":" ","MAREA":" ","LANE":"３４０巷","ALLEY":"１５弄","HOUSE_NO":"１號","E_COORD97":171158.78,"N_COORD97":2545503.25,"ADDRESS":"中華二路３４０巷１５弄１號","OBJECTID":12843},"geometry":{"x":171158.78000000026,"y":2545503.25}},{"attributes":{"ID":12844,"DIS_CODE":0,"TOWNNAME":"永康區","LI":"東橋里","LIN":"24鄰","STREET":"中正路","SECT":" ","MAREA":" ","LANE":"２１７巷","ALLEY":"３弄","HOUSE_NO":"７２號","E_COORD97":172750.38,"N_COORD97":2547849.7400000002,"ADDRESS":"中正路２１７巷３弄７２號","OBJECTID":12844},"geometry":{"x":172750.38000000175,"y":2547849.7400000002}},{"attributes":{"ID":12845,"DIS_CODE":0,"TOWNNAME":"歸仁區","LI":"南保里","LIN":"24鄰","STREET":"文化街","SECT":"三段","MAREA":" ","LANE":"１０５巷","ALLEY":"１９弄","HOUSE_NO":"１１號","E_COORD97":176799.92000000001,"N_COORD97":2541142.2599999998,"ADDRESS":"文化街三段１０５巷１９弄１１號","OBJECTID":12845},"geometry":{"x":176799.92000000179,"y":2541142.2599999998}},{"attributes":{"ID":12846,"DIS_CODE":0,"TOWNNAME":"歸仁區","LI":"許厝里","LIN":"24鄰","STREET":"大仁街","SECT":" ","MAREA":" ","LANE":"１２６巷","ALLEY":"１７弄","HOUSE_NO":"５號","E_COORD97":178240.98000000001,"N_COORD97":2540941.25,"ADDRESS":"大仁街１２６巷１７弄５號","OBJECTID":12846},"geometry":{"x":178240.98000000231,"y":2540941.2500000019}},{"attributes":{"ID":12847,"DIS_CODE":0,"TOWNNAME":"新營區","LI":"新南里","LIN":"24鄰","STREET":"隋唐街","SECT":" ","MAREA":" ","LANE":"２９５巷","ALLEY":"４１弄","HOUSE_NO":"１１號","E_COORD97":178199.16,"N_COORD97":2578479.4500000002,"ADDRESS":"隋唐街２９５巷４１弄１１號","OBJECTID":12847},"geometry":{"x":178199.16000000108,"y":2578479.4499999993}},{"attributes":{"ID":12848,"DIS_CODE":0,"TOWNNAME":"安平區","LI":"建平里","LIN":"24鄰","STREET":"建平九街","SECT":" ","MAREA":" ","LANE":"６０巷","ALLEY":"３１弄","HOUSE_NO":"２５號","E_COORD97":165969.57000000001,"N_COORD97":2543619.5899999999,"ADDRESS":"建平九街６０巷３１弄２５號","OBJECTID":12848},"geometry":{"x":165969.5700000003,"y":2543619.5899999999}},{"attributes":{"ID":12849,"DIS_CODE":0,"TOWNNAME":"麻豆區","LI":"南勢里","LIN":"24鄰","STREET":" ","SECT":" ","MAREA":"南勢","LANE":" ","ALLEY":" ","HOUSE_NO":"８４號之１１","E_COORD97":174720.01999999999,"N_COORD97":2565054.48,"ADDRESS":"南勢８４號之１１","OBJECTID":12849},"geometry":{"x":174720.01999999955,"y":2565054.4800000004}},{"attributes":{"ID":12850,"DIS_CODE":0,"TOWNNAME":"麻豆區","LI":"南勢里","LIN":"24鄰","STREET":" ","SECT":" ","MAREA":"南勢","LANE":" ","ALLEY":" ","HOUSE_NO":"８４號之１３","E_COORD97":174766.78,"N_COORD97":2564996.29,"ADDRESS":"南勢８４號之１３","OBJECTID":12850},"geometry":{"x":174766.78000000026,"y":2564996.2899999991}},{"attributes":{"ID":12851,"DIS_CODE":0,"TOWNNAME":"麻豆區","LI":"南勢里","LIN":"24鄰","STREET":" ","SECT":" ","MAREA":"南勢","LANE":" ","ALLEY":" ","HOUSE_NO":"８４號之９","E_COORD97":174719.48999999999,"N_COORD97":2565058.1600000001,"ADDRESS":"南勢８４號之９","OBJECTID":12851},"geometry":{"x":174719.49000000022,"y":2565058.160000002}},{"attributes":{"ID":12852,"DIS_CODE":0,"TOWNNAME":"仁德區","LI":"仁和里","LIN":"24鄰","STREET":" ","SECT":" ","MAREA":"仁和","LANE":" ","ALLEY":" ","HOUSE_NO":"４８５號","E_COORD97":170389.351544,"N_COORD97":2539781.1499999999,"ADDRESS":"仁和４８５號","OBJECTID":12852},"geometry":{"x":170389.35154400021,"y":2539781.1500000004}},{"attributes":{"ID":12853,"DIS_CODE":0,"TOWNNAME":"新市區","LI":"大社里","LIN":"24鄰","STREET":" ","SECT":" ","MAREA":"大社","LANE":" ","ALLEY":" ","HOUSE_NO":"８８６之４３號","E_COORD97":179851.26999999999,"N_COORD97":2554056.29,"ADDRESS":"大社８８６之４３號","OBJECTID":12853},"geometry":{"x":179851.26999999955,"y":2554056.2899999991}},{"attributes":{"ID":12854,"DIS_CODE":0,"TOWNNAME":"官田區","LI":"渡頭里","LIN":"24鄰","STREET":" ","SECT":" ","MAREA":"渡子頭","LANE":" ","ALLEY":" ","HOUSE_NO":"２３２號","E_COORD97":182228.82999999999,"N_COORD97":2563692.0600000001,"ADDRESS":"渡子頭２３２號","OBJECTID":12854},"geometry":{"x":182228.83000000101,"y":2563692.0600000042}},{"attributes":{"ID":12855,"DIS_CODE":0,"TOWNNAME":"新市區","LI":"大社里","LIN":"24鄰","STREET":" ","SECT":" ","MAREA":"大社","LANE":" ","ALLEY":" ","HOUSE_NO":"８８６之４５號","E_COORD97":179844.26999999999,"N_COORD97":2554052.77,"ADDRESS":"大社８８６之４５號","OBJECTID":12855},"geometry":{"x":179844.26999999955,"y":2554052.7699999996}},{"attributes":{"ID":12856,"DIS_CODE":0,"TOWNNAME":"新市區","LI":"大社里","LIN":"24鄰","STREET":" ","SECT":" ","MAREA":"大社","LANE":" ","ALLEY":" ","HOUSE_NO":"８８６之４６號","E_COORD97":179847.22,"N_COORD97":2554071.5699999998,"ADDRESS":"大社８８６之４６號","OBJECTID":12856},"geometry":{"x":179847.21999999881,"y":2554071.5700000003}},{"attributes":{"ID":12857,"DIS_CODE":0,"TOWNNAME":"新市區","LI":"大社里","LIN":"24鄰","STREET":" ","SECT":" ","MAREA":"大社","LANE":" ","ALLEY":" ","HOUSE_NO":"８８６之４７號","E_COORD97":179840.16,"N_COORD97":2554051.3399999999,"ADDRESS":"大社８８６之４７號","OBJECTID":12857},"geometry":{"x":179840.16000000108,"y":2554051.3400000017}},{"attributes":{"ID":12858,"DIS_CODE":0,"TOWNNAME":"新市區","LI":"大社里","LIN":"24鄰","STREET":" ","SECT":" ","MAREA":"大社","LANE":" ","ALLEY":" ","HOUSE_NO":"８８６之４８號","E_COORD97":179841.35000000001,"N_COORD97":2554075.4300000002,"ADDRESS":"大社８８６之４８號","OBJECTID":12858},"geometry":{"x":179841.35000000149,"y":2554075.4299999997}},{"attributes":{"ID":12859,"DIS_CODE":0,"TOWNNAME":"新市區","LI":"大社里","LIN":"24鄰","STREET":" ","SECT":" ","MAREA":"大社","LANE":" ","ALLEY":" ","HOUSE_NO":"８８６之４９號","E_COORD97":179838.26000000001,"N_COORD97":2554045.6600000001,"ADDRESS":"大社８８６之４９號","OBJECTID":12859},"geometry":{"x":179838.25999999978,"y":2554045.660000002}},{"attributes":{"ID":12860,"DIS_CODE":0,"TOWNNAME":"新市區","LI":"大社里","LIN":"24鄰","STREET":" ","SECT":" ","MAREA":"大社","LANE":" ","ALLEY":" ","HOUSE_NO":"８８６之５０號","E_COORD97":179839.79000000001,"N_COORD97":2554067.6099999999,"ADDRESS":"大社８８６之５０號","OBJECTID":12860},"geometry":{"x":179839.79000000004,"y":2554067.6099999994}},{"attributes":{"ID":12861,"DIS_CODE":0,"TOWNNAME":"新市區","LI":"大社里","LIN":"24鄰","STREET":" ","SECT":" ","MAREA":"大社","LANE":" ","ALLEY":" ","HOUSE_NO":"８８６之５１號","E_COORD97":179823.09,"N_COORD97":2554046.0299999998,"ADDRESS":"大社８８６之５１號","OBJECTID":12861},"geometry":{"x":179823.09000000078,"y":2554046.0300000012}},{"attributes":{"ID":12862,"DIS_CODE":0,"TOWNNAME":"新市區","LI":"大社里","LIN":"24鄰","STREET":" ","SECT":" ","MAREA":"大社","LANE":" ","ALLEY":" ","HOUSE_NO":"８８６之５２號","E_COORD97":179835.67000000001,"N_COORD97":2554066.2000000002,"ADDRESS":"大社８８６之５２號","OBJECTID":12862},"geometry":{"x":179835.66999999993,"y":2554066.1999999993}},{"attributes":{"ID":12863,"DIS_CODE":0,"TOWNNAME":"新市區","LI":"大社里","LIN":"24鄰","STREET":" ","SECT":" ","MAREA":"大社","LANE":" ","ALLEY":" ","HOUSE_NO":"８８６之５３號","E_COORD97":179819.51000000001,"N_COORD97":2554041.7799999998,"ADDRESS":"大社８８６之５３號","OBJECTID":12863},"geometry":{"x":179819.50999999978,"y":2554041.7800000012}},{"attributes":{"ID":12864,"DIS_CODE":0,"TOWNNAME":"新市區","LI":"大社里","LIN":"24鄰","STREET":" ","SECT":" ","MAREA":"大社","LANE":" ","ALLEY":" ","HOUSE_NO":"８８６之５５號","E_COORD97":179815.16,"N_COORD97":2554040.27,"ADDRESS":"大社８８６之５５號","OBJECTID":12864},"geometry":{"x":179815.16000000015,"y":2554040.2699999977}},{"attributes":{"ID":12865,"DIS_CODE":0,"TOWNNAME":"新市區","LI":"大社里","LIN":"24鄰","STREET":" ","SECT":" ","MAREA":"大社","LANE":" ","ALLEY":" ","HOUSE_NO":"８８６之５６號","E_COORD97":179829.72,"N_COORD97":2554068.98,"ADDRESS":"大社８８６之５６號","OBJECTID":12865},"geometry":{"x":179829.71999999974,"y":2554068.9800000004}},{"attributes":{"ID":12866,"DIS_CODE":0,"TOWNNAME":"新市區","LI":"大社里","LIN":"24鄰","STREET":" ","SECT":" ","MAREA":"大社","LANE":" ","ALLEY":" ","HOUSE_NO":"８８６之５７號","E_COORD97":179810.79999999999,"N_COORD97":2554038.77,"ADDRESS":"大社８８６之５７號","OBJECTID":12866},"geometry":{"x":179810.79999999981,"y":2554038.7700000014}},{"attributes":{"ID":12867,"DIS_CODE":0,"TOWNNAME":"新市區","LI":"大社里","LIN":"24鄰","STREET":" ","SECT":" ","MAREA":"大社","LANE":" ","ALLEY":" ","HOUSE_NO":"８８６之５８號","E_COORD97":179818.22,"N_COORD97":2554062.0499999998,"ADDRESS":"大社８８６之５８號","OBJECTID":12867},"geometry":{"x":179818.21999999974,"y":2554062.0500000007}},{"attributes":{"ID":12868,"DIS_CODE":0,"TOWNNAME":"新市區","LI":"大社里","LIN":"24鄰","STREET":" ","SECT":" ","MAREA":"大社","LANE":" ","ALLEY":" ","HOUSE_NO":"８８６之５９號","E_COORD97":179806.45000000001,"N_COORD97":2554037.27,"ADDRESS":"大社８８６之５９號","OBJECTID":12868},"geometry":{"x":179806.45000000019,"y":2554037.2700000033}},{"attributes":{"ID":12869,"DIS_CODE":0,"TOWNNAME":"新市區","LI":"大社里","LIN":"24鄰","STREET":" ","SECT":" ","MAREA":"大社","LANE":" ","ALLEY":" ","HOUSE_NO":"８８６之６０號","E_COORD97":179814.57000000001,"N_COORD97":2554059.3500000001,"ADDRESS":"大社８８６之６０號","OBJECTID":12869},"geometry":{"x":179814.5700000003,"y":2554059.3499999996}},{"attributes":{"ID":12870,"DIS_CODE":0,"TOWNNAME":"新市區","LI":"大社里","LIN":"24鄰","STREET":" ","SECT":" ","MAREA":"大社","LANE":" ","ALLEY":" ","HOUSE_NO":"８８６之６１號","E_COORD97":179802.10000000001,"N_COORD97":2554035.7599999998,"ADDRESS":"大社８８６之６１號","OBJECTID":12870},"geometry":{"x":179802.09999999963,"y":2554035.7599999998}},{"attributes":{"ID":12871,"DIS_CODE":0,"TOWNNAME":"新市區","LI":"大社里","LIN":"24鄰","STREET":" ","SECT":" ","MAREA":"大社","LANE":" ","ALLEY":" ","HOUSE_NO":"８８６之６２號","E_COORD97":179810.20999999999,"N_COORD97":2554057.8399999999,"ADDRESS":"大社８８６之６２號","OBJECTID":12871},"geometry":{"x":179810.20999999903,"y":2554057.8400000017}},{"attributes":{"ID":12872,"DIS_CODE":0,"TOWNNAME":"新市區","LI":"大社里","LIN":"24鄰","STREET":" ","SECT":" ","MAREA":"大社","LANE":" ","ALLEY":" ","HOUSE_NO":"８８６之６３號","E_COORD97":179797.75,"N_COORD97":2554034.2599999998,"ADDRESS":"大社８８６之６３號","OBJECTID":12872},"geometry":{"x":179797.75,"y":2554034.2600000035}},{"attributes":{"ID":12873,"DIS_CODE":0,"TOWNNAME":"新市區","LI":"大社里","LIN":"24鄰","STREET":" ","SECT":" ","MAREA":"大社","LANE":" ","ALLEY":" ","HOUSE_NO":"８８６之６５號","E_COORD97":179789.81,"N_COORD97":2554032.4700000002,"ADDRESS":"大社８８６之６５號","OBJECTID":12873},"geometry":{"x":179789.80999999959,"y":2554032.4700000007}},{"attributes":{"ID":12874,"DIS_CODE":0,"TOWNNAME":"新市區","LI":"大社里","LIN":"24鄰","STREET":" ","SECT":" ","MAREA":"大社","LANE":" ","ALLEY":" ","HOUSE_NO":"８８６之６６號","E_COORD97":179805.85999999999,"N_COORD97":2554056.3399999999,"ADDRESS":"大社８８６之６６號","OBJECTID":12874},"geometry":{"x":179805.86000000034,"y":2554056.3399999999}},{"attributes":{"ID":12875,"DIS_CODE":0,"TOWNNAME":"新市區","LI":"大社里","LIN":"24鄰","STREET":" ","SECT":" ","MAREA":"大社","LANE":" ","ALLEY":" ","HOUSE_NO":"８８６之６８號","E_COORD97":179801.51000000001,"N_COORD97":2554054.8399999999,"ADDRESS":"大社８８６之６８號","OBJECTID":12875},"geometry":{"x":179801.51000000071,"y":2554054.8400000017}},{"attributes":{"ID":12876,"DIS_CODE":0,"TOWNNAME":"新市區","LI":"大社里","LIN":"24鄰","STREET":" ","SECT":" ","MAREA":"大社","LANE":" ","ALLEY":" ","HOUSE_NO":"８８６之７０號","E_COORD97":179797.16,"N_COORD97":2554053.3399999999,"ADDRESS":"大社８８６之７０號","OBJECTID":12876},"geometry":{"x":179797.16000000015,"y":2554053.3399999999}},{"attributes":{"ID":12877,"DIS_CODE":0,"TOWNNAME":"新市區","LI":"大社里","LIN":"24鄰","STREET":" ","SECT":" ","MAREA":"大社","LANE":" ","ALLEY":" ","HOUSE_NO":"８８６之７２號","E_COORD97":179792.81,"N_COORD97":2554051.8300000001,"ADDRESS":"大社８８６之７２號","OBJECTID":12877},"geometry":{"x":179792.81000000052,"y":2554051.8300000019}},{"attributes":{"ID":12878,"DIS_CODE":0,"TOWNNAME":"新市區","LI":"大社里","LIN":"24鄰","STREET":" ","SECT":" ","MAREA":"大社","LANE":" ","ALLEY":" ","HOUSE_NO":"８８６之７６號","E_COORD97":179788.45000000001,"N_COORD97":2554050.3300000001,"ADDRESS":"大社８８６之７６號","OBJECTID":12878},"geometry":{"x":179788.45000000019,"y":2554050.3300000001}},{"attributes":{"ID":12879,"DIS_CODE":0,"TOWNNAME":"新市區","LI":"大社里","LIN":"24鄰","STREET":" ","SECT":" ","MAREA":"大社","LANE":" ","ALLEY":" ","HOUSE_NO":"８８６之７８號","E_COORD97":179783.26000000001,"N_COORD97":2554049.9700000002,"ADDRESS":"大社８８６之７８號","OBJECTID":12879},"geometry":{"x":179783.26000000071,"y":2554049.9700000007}},{"attributes":{"ID":12880,"DIS_CODE":0,"TOWNNAME":"新市區","LI":"大社里","LIN":"24鄰","STREET":" ","SECT":" ","MAREA":"大社","LANE":" ","ALLEY":" ","HOUSE_NO":"８８６之８０號","E_COORD97":179776.57999999999,"N_COORD97":2554047.9300000002,"ADDRESS":"大社８８６之８０號","OBJECTID":12880},"geometry":{"x":179776.58000000007,"y":2554047.9300000016}},{"attributes":{"ID":12881,"DIS_CODE":0,"TOWNNAME":"安定區","LI":"蘇林里","LIN":"24鄰","STREET":" ","SECT":" ","MAREA":"蘇厝","LANE":" ","ALLEY":" ","HOUSE_NO":"２７３號之３","E_COORD97":173364.45000000001,"N_COORD97":2558613.2999999998,"ADDRESS":"蘇厝２７３號之３","OBJECTID":12881},"geometry":{"x":173364.45000000112,"y":2558613.3000000026}},{"attributes":{"ID":12882,"DIS_CODE":0,"TOWNNAME":"新市區","LI":"大營里","LIN":"24鄰","STREET":" ","SECT":" ","MAREA":"大營","LANE":" ","ALLEY":" ","HOUSE_NO":"１３１之４８號","E_COORD97":179171.35000000001,"N_COORD97":2554687.7999999998,"ADDRESS":"大營１３１之４８號","OBJECTID":12882},"geometry":{"x":179171.34999999963,"y":2554687.8000000007}},{"attributes":{"ID":12883,"DIS_CODE":0,"TOWNNAME":"官田區","LI":"渡頭里","LIN":"24鄰","STREET":" ","SECT":" ","MAREA":"渡子頭","LANE":" ","ALLEY":" ","HOUSE_NO":"２０２號","E_COORD97":181775.23000000001,"N_COORD97":2563505.7999999998,"ADDRESS":"渡子頭２０２號","OBJECTID":12883},"geometry":{"x":181775.23000000045,"y":2563505.8000000026}},{"attributes":{"ID":12884,"DIS_CODE":0,"TOWNNAME":"官田區","LI":"渡頭里","LIN":"24鄰","STREET":" ","SECT":" ","MAREA":"渡子頭","LANE":" ","ALLEY":" ","HOUSE_NO":"２０４號之１","E_COORD97":181822.54000000001,"N_COORD97":2563478.9300000002,"ADDRESS":"渡子頭２０４號之１","OBJECTID":12884},"geometry":{"x":181822.54000000097,"y":2563478.9300000016}},{"attributes":{"ID":12885,"DIS_CODE":0,"TOWNNAME":"官田區","LI":"渡頭里","LIN":"24鄰","STREET":" ","SECT":" ","MAREA":"渡子頭","LANE":" ","ALLEY":" ","HOUSE_NO":"２３３號","E_COORD97":182228.73000000001,"N_COORD97":2563695.9500000002,"ADDRESS":"渡子頭２３３號","OBJECTID":12885},"geometry":{"x":182228.73000000138,"y":2563695.9500000011}},{"attributes":{"ID":12886,"DIS_CODE":0,"TOWNNAME":"官田區","LI":"渡頭里","LIN":"24鄰","STREET":" ","SECT":" ","MAREA":"渡子頭","LANE":" ","ALLEY":" ","HOUSE_NO":"２０４號之２","E_COORD97":181798.70999999999,"N_COORD97":2563530.71,"ADDRESS":"渡子頭２０４號之２","OBJECTID":12886},"geometry":{"x":181798.70999999903,"y":2563530.7100000009}},{"attributes":{"ID":12887,"DIS_CODE":0,"TOWNNAME":"官田區","LI":"渡頭里","LIN":"24鄰","STREET":" ","SECT":" ","MAREA":"渡子頭","LANE":" ","ALLEY":" ","HOUSE_NO":"２０４號之３","E_COORD97":181808.76999999999,"N_COORD97":2563521.1000000001,"ADDRESS":"渡子頭２０４號之３","OBJECTID":12887},"geometry":{"x":181808.77000000048,"y":2563521.0999999978}},{"attributes":{"ID":12888,"DIS_CODE":0,"TOWNNAME":"官田區","LI":"渡頭里","LIN":"24鄰","STREET":" ","SECT":" ","MAREA":"渡子頭","LANE":" ","ALLEY":" ","HOUSE_NO":"２０４號","E_COORD97":181815.64000000001,"N_COORD97":2563469.52,"ADDRESS":"渡子頭２０４號","OBJECTID":12888},"geometry":{"x":181815.63999999966,"y":2563469.5199999996}},{"attributes":{"ID":12889,"DIS_CODE":0,"TOWNNAME":"官田區","LI":"渡頭里","LIN":"24鄰","STREET":" ","SECT":" ","MAREA":"渡子頭","LANE":" ","ALLEY":" ","HOUSE_NO":"２０５號之１","E_COORD97":181849.01000000001,"N_COORD97":2563492.1499999999,"ADDRESS":"渡子頭２０５號之１","OBJECTID":12889},"geometry":{"x":181849.00999999885,"y":2563492.1500000022}},{"attributes":{"ID":12890,"DIS_CODE":0,"TOWNNAME":"官田區","LI":"渡頭里","LIN":"24鄰","STREET":" ","SECT":" ","MAREA":"渡子頭","LANE":" ","ALLEY":" ","HOUSE_NO":"２０５號之３","E_COORD97":181862.29000000001,"N_COORD97":2563496.48,"ADDRESS":"渡子頭２０５號之３","OBJECTID":12890},"geometry":{"x":181862.29000000004,"y":2563496.4800000023}},{"attributes":{"ID":12891,"DIS_CODE":0,"TOWNNAME":"官田區","LI":"渡頭里","LIN":"24鄰","STREET":" ","SECT":" ","MAREA":"渡子頭","LANE":" ","ALLEY":" ","HOUSE_NO":"２０５號","E_COORD97":181836.20999999999,"N_COORD97":2563487.4700000002,"ADDRESS":"渡子頭２０５號","OBJECTID":12891},"geometry":{"x":181836.21000000183,"y":2563487.4700000025}},{"attributes":{"ID":12892,"DIS_CODE":0,"TOWNNAME":"官田區","LI":"渡頭里","LIN":"24鄰","STREET":" ","SECT":" ","MAREA":"渡子頭","LANE":" ","ALLEY":" ","HOUSE_NO":"２０６號之１１","E_COORD97":181877.91,"N_COORD97":2563550.02,"ADDRESS":"渡子頭２０６號之１１","OBJECTID":12892},"geometry":{"x":181877.91000000108,"y":2563550.0200000014}},{"attributes":{"ID":12893,"DIS_CODE":0,"TOWNNAME":"官田區","LI":"渡頭里","LIN":"24鄰","STREET":" ","SECT":" ","MAREA":"渡子頭","LANE":" ","ALLEY":" ","HOUSE_NO":"２０７號之２１","E_COORD97":181846.37,"N_COORD97":2563740.71,"ADDRESS":"渡子頭２０７號之２１","OBJECTID":12893},"geometry":{"x":181846.37000000011,"y":2563740.7100000009}},{"attributes":{"ID":12894,"DIS_CODE":0,"TOWNNAME":"官田區","LI":"渡頭里","LIN":"24鄰","STREET":" ","SECT":" ","MAREA":"渡子頭","LANE":" ","ALLEY":" ","HOUSE_NO":"１９６號之１","E_COORD97":181640.10999999999,"N_COORD97":2563374.3799999999,"ADDRESS":"渡子頭１９６號之１","OBJECTID":12894},"geometry":{"x":181640.11000000034,"y":2563374.3800000008}},{"attributes":{"ID":12895,"DIS_CODE":0,"TOWNNAME":"官田區","LI":"渡頭里","LIN":"24鄰","STREET":" ","SECT":" ","MAREA":"渡子頭","LANE":" ","ALLEY":" ","HOUSE_NO":"１９６號","E_COORD97":181619.14000000001,"N_COORD97":2563410.98,"ADDRESS":"渡子頭１９６號","OBJECTID":12895},"geometry":{"x":181619.13999999873,"y":2563410.9800000042}},{"attributes":{"ID":12896,"DIS_CODE":0,"TOWNNAME":"官田區","LI":"渡頭里","LIN":"24鄰","STREET":" ","SECT":" ","MAREA":"渡子頭","LANE":" ","ALLEY":" ","HOUSE_NO":"１９９號之１","E_COORD97":181692.85999999999,"N_COORD97":2563438.5099999998,"ADDRESS":"渡子頭１９９號之１","OBJECTID":12896},"geometry":{"x":181692.86000000034,"y":2563438.5100000016}},{"attributes":{"ID":12897,"DIS_CODE":0,"TOWNNAME":"官田區","LI":"渡頭里","LIN":"24鄰","STREET":" ","SECT":" ","MAREA":"渡子頭","LANE":" ","ALLEY":" ","HOUSE_NO":"１９９號之２","E_COORD97":181686.5,"N_COORD97":2563466.48,"ADDRESS":"渡子頭１９９號之２","OBJECTID":12897},"geometry":{"x":181686.5,"y":2563466.4800000023}},{"attributes":{"ID":12898,"DIS_CODE":0,"TOWNNAME":"官田區","LI":"渡頭里","LIN":"24鄰","STREET":" ","SECT":" ","MAREA":"渡子頭","LANE":" ","ALLEY":" ","HOUSE_NO":"２０７號","E_COORD97":181811.39999999999,"N_COORD97":2563568.5299999998,"ADDRESS":"渡子頭２０７號","OBJECTID":12898},"geometry":{"x":181811.39999999944,"y":2563568.5299999993}},{"attributes":{"ID":12899,"DIS_CODE":0,"TOWNNAME":"官田區","LI":"渡頭里","LIN":"24鄰","STREET":" ","SECT":" ","MAREA":"渡子頭","LANE":" ","ALLEY":" ","HOUSE_NO":"２０８號","E_COORD97":181861.91,"N_COORD97":2563586.5499999998,"ADDRESS":"渡子頭２０８號","OBJECTID":12899},"geometry":{"x":181861.90999999922,"y":2563586.5500000007}},{"attributes":{"ID":12900,"DIS_CODE":0,"TOWNNAME":"官田區","LI":"渡頭里","LIN":"24鄰","STREET":" ","SECT":" ","MAREA":"渡子頭","LANE":" ","ALLEY":" ","HOUSE_NO":"２０９號","E_COORD97":181969.89999999999,"N_COORD97":2563572.6899999999,"ADDRESS":"渡子頭２０９號","OBJECTID":12900},"geometry":{"x":181969.9000000013,"y":2563572.6900000013}},{"attributes":{"ID":12901,"DIS_CODE":0,"TOWNNAME":"官田區","LI":"渡頭里","LIN":"24鄰","STREET":" ","SECT":" ","MAREA":"渡子頭","LANE":" ","ALLEY":" ","HOUSE_NO":"２１２號","E_COORD97":181990.66,"N_COORD97":2563576.1800000002,"ADDRESS":"渡子頭２１２號","OBJECTID":12901},"geometry":{"x":181990.66000000015,"y":2563576.1800000016}},{"attributes":{"ID":12902,"DIS_CODE":0,"TOWNNAME":"官田區","LI":"渡頭里","LIN":"24鄰","STREET":" ","SECT":" ","MAREA":"渡子頭","LANE":" ","ALLEY":" ","HOUSE_NO":"２１３號","E_COORD97":181990.10999999999,"N_COORD97":2563617.9300000002,"ADDRESS":"渡子頭２１３號","OBJECTID":12902},"geometry":{"x":181990.11000000127,"y":2563617.9300000016}},{"attributes":{"ID":12903,"DIS_CODE":0,"TOWNNAME":"官田區","LI":"渡頭里","LIN":"24鄰","STREET":" ","SECT":" ","MAREA":"渡子頭","LANE":" ","ALLEY":" ","HOUSE_NO":"２１４號之１","E_COORD97":182019,"N_COORD97":2563604.8199999998,"ADDRESS":"渡子頭２１４號之１","OBJECTID":12903},"geometry":{"x":182019.00000000186,"y":2563604.8200000003}},{"attributes":{"ID":12904,"DIS_CODE":0,"TOWNNAME":"官田區","LI":"渡頭里","LIN":"24鄰","STREET":" ","SECT":" ","MAREA":"渡子頭","LANE":" ","ALLEY":" ","HOUSE_NO":"２１４號","E_COORD97":182022.13,"N_COORD97":2563630.5800000001,"ADDRESS":"渡子頭２１４號","OBJECTID":12904},"geometry":{"x":182022.13000000082,"y":2563630.5800000038}},{"attributes":{"ID":12905,"DIS_CODE":0,"TOWNNAME":"官田區","LI":"渡頭里","LIN":"24鄰","STREET":" ","SECT":" ","MAREA":"渡子頭","LANE":" ","ALLEY":" ","HOUSE_NO":"２１５號","E_COORD97":182028.95999999999,"N_COORD97":2563607.6899999999,"ADDRESS":"渡子頭２１５號","OBJECTID":12905},"geometry":{"x":182028.95999999996,"y":2563607.6899999995}},{"attributes":{"ID":12906,"DIS_CODE":0,"TOWNNAME":"官田區","LI":"渡頭里","LIN":"24鄰","STREET":" ","SECT":" ","MAREA":"渡子頭","LANE":" ","ALLEY":" ","HOUSE_NO":"２１６號","E_COORD97":182027.10000000001,"N_COORD97":2563581.9900000002,"ADDRESS":"渡子頭２１６號","OBJECTID":12906},"geometry":{"x":182027.10000000056,"y":2563581.9900000002}},{"attributes":{"ID":12907,"DIS_CODE":0,"TOWNNAME":"官田區","LI":"渡頭里","LIN":"24鄰","STREET":" ","SECT":" ","MAREA":"渡子頭","LANE":" ","ALLEY":" ","HOUSE_NO":"２１８號","E_COORD97":182036.95000000001,"N_COORD97":2563585.0800000001,"ADDRESS":"渡子頭２１８號","OBJECTID":12907},"geometry":{"x":182036.95000000112,"y":2563585.0800000001}},{"attributes":{"ID":12908,"DIS_CODE":0,"TOWNNAME":"官田區","LI":"渡頭里","LIN":"24鄰","STREET":" ","SECT":" ","MAREA":"渡子頭","LANE":" ","ALLEY":" ","HOUSE_NO":"２２２號","E_COORD97":182158.72,"N_COORD97":2563630.1299999999,"ADDRESS":"渡子頭２２２號","OBJECTID":12908},"geometry":{"x":182158.71999999974,"y":2563630.1300000008}},{"attributes":{"ID":12909,"DIS_CODE":0,"TOWNNAME":"官田區","LI":"渡頭里","LIN":"24鄰","STREET":" ","SECT":" ","MAREA":"渡子頭","LANE":" ","ALLEY":" ","HOUSE_NO":"２２３號之１３","E_COORD97":182158.44,"N_COORD97":2563699.21,"ADDRESS":"渡子頭２２３號之１３","OBJECTID":12909},"geometry":{"x":182158.44000000041,"y":2563699.2100000028}},{"attributes":{"ID":12910,"DIS_CODE":0,"TOWNNAME":"官田區","LI":"渡頭里","LIN":"24鄰","STREET":" ","SECT":" ","MAREA":"渡子頭","LANE":" ","ALLEY":" ","HOUSE_NO":"２２３號之１","E_COORD97":182172.14000000001,"N_COORD97":2563645.6200000001,"ADDRESS":"渡子頭２２３號之１","OBJECTID":12910},"geometry":{"x":182172.1400000006,"y":2563645.6200000029}},{"attributes":{"ID":12911,"DIS_CODE":0,"TOWNNAME":"官田區","LI":"渡頭里","LIN":"24鄰","STREET":" ","SECT":" ","MAREA":"渡子頭","LANE":" ","ALLEY":" ","HOUSE_NO":"２２３號之３","E_COORD97":182177.17000000001,"N_COORD97":2563647.6099999999,"ADDRESS":"渡子頭２２３號之３","OBJECTID":12911},"geometry":{"x":182177.17000000179,"y":2563647.6100000013}},{"attributes":{"ID":12912,"DIS_CODE":0,"TOWNNAME":"官田區","LI":"渡頭里","LIN":"24鄰","STREET":" ","SECT":" ","MAREA":"渡子頭","LANE":" ","ALLEY":" ","HOUSE_NO":"２２３號之６","E_COORD97":182186.64000000001,"N_COORD97":2563650.2999999998,"ADDRESS":"渡子頭２２３號之６","OBJECTID":12912},"geometry":{"x":182186.63999999966,"y":2563650.3000000026}},{"attributes":{"ID":12913,"DIS_CODE":0,"TOWNNAME":"官田區","LI":"渡頭里","LIN":"24鄰","STREET":" ","SECT":" ","MAREA":"渡子頭","LANE":" ","ALLEY":" ","HOUSE_NO":"２２４號之６","E_COORD97":182184.92999999999,"N_COORD97":2563708.8300000001,"ADDRESS":"渡子頭２２４號之６","OBJECTID":12913},"geometry":{"x":182184.9299999997,"y":2563708.8300000001}},{"attributes":{"ID":12914,"DIS_CODE":0,"TOWNNAME":"官田區","LI":"渡頭里","LIN":"24鄰","STREET":" ","SECT":" ","MAREA":"渡子頭","LANE":" ","ALLEY":" ","HOUSE_NO":"２２４號","E_COORD97":182196.25,"N_COORD97":2563654.6499999999,"ADDRESS":"渡子頭２２４號","OBJECTID":12914},"geometry":{"x":182196.25,"y":2563654.6500000022}},{"attributes":{"ID":12915,"DIS_CODE":0,"TOWNNAME":"官田區","LI":"渡頭里","LIN":"24鄰","STREET":" ","SECT":" ","MAREA":"渡子頭","LANE":" ","ALLEY":" ","HOUSE_NO":"２２５號之１","E_COORD97":182204.57999999999,"N_COORD97":2563657.4300000002,"ADDRESS":"渡子頭２２５號之１","OBJECTID":12915},"geometry":{"x":182204.58000000007,"y":2563657.4299999997}},{"attributes":{"ID":12916,"DIS_CODE":0,"TOWNNAME":"官田區","LI":"渡頭里","LIN":"24鄰","STREET":" ","SECT":" ","MAREA":"渡子頭","LANE":" ","ALLEY":" ","HOUSE_NO":"２２５號","E_COORD97":182200.04000000001,"N_COORD97":2563656.23,"ADDRESS":"渡子頭２２５號","OBJECTID":12916},"geometry":{"x":182200.0400000019,"y":2563656.2300000004}},{"attributes":{"ID":12917,"DIS_CODE":0,"TOWNNAME":"官田區","LI":"渡頭里","LIN":"24鄰","STREET":" ","SECT":" ","MAREA":"渡子頭","LANE":" ","ALLEY":" ","HOUSE_NO":"２２６號","E_COORD97":182209.06,"N_COORD97":2563658.9300000002,"ADDRESS":"渡子頭２２６號","OBJECTID":12917},"geometry":{"x":182209.05999999959,"y":2563658.9300000016}},{"attributes":{"ID":12918,"DIS_CODE":0,"TOWNNAME":"官田區","LI":"渡頭里","LIN":"24鄰","STREET":" ","SECT":" ","MAREA":"渡子頭","LANE":" ","ALLEY":" ","HOUSE_NO":"２２７號","E_COORD97":182221.26000000001,"N_COORD97":2563678.6699999999,"ADDRESS":"渡子頭２２７號","OBJECTID":12918},"geometry":{"x":182221.25999999978,"y":2563678.6700000018}},{"attributes":{"ID":12919,"DIS_CODE":0,"TOWNNAME":"官田區","LI":"渡頭里","LIN":"24鄰","STREET":" ","SECT":" ","MAREA":"渡子頭","LANE":" ","ALLEY":" ","HOUSE_NO":"２３０號","E_COORD97":182228.14000000001,"N_COORD97":2563683.4900000002,"ADDRESS":"渡子頭２３０號","OBJECTID":12919},"geometry":{"x":182228.1400000006,"y":2563683.4900000021}},{"attributes":{"ID":12920,"DIS_CODE":0,"TOWNNAME":"官田區","LI":"渡頭里","LIN":"24鄰","STREET":" ","SECT":" ","MAREA":"渡子頭","LANE":" ","ALLEY":" ","HOUSE_NO":"２３１號","E_COORD97":182229.01999999999,"N_COORD97":2563687.8799999999,"ADDRESS":"渡子頭２３１號","OBJECTID":12920},"geometry":{"x":182229.02000000048,"y":2563687.879999999}},{"attributes":{"ID":12921,"DIS_CODE":0,"TOWNNAME":"官田區","LI":"渡頭里","LIN":"24鄰","STREET":" ","SECT":" ","MAREA":"渡子頭","LANE":" ","ALLEY":" ","HOUSE_NO":"２３４號","E_COORD97":182228.62,"N_COORD97":2563699.8799999999,"ADDRESS":"渡子頭２３４號","OBJECTID":12921},"geometry":{"x":182228.62000000104,"y":2563699.8800000008}},{"attributes":{"ID":12922,"DIS_CODE":0,"TOWNNAME":"安平區","LI":"建平里","LIN":"24鄰","STREET":"建平九街","SECT":" ","MAREA":" ","LANE":"６０巷","ALLEY":"３１弄","HOUSE_NO":"２６號","E_COORD97":165959.19,"N_COORD97":2543646.7200000002,"ADDRESS":"建平九街６０巷３１弄２６號","OBJECTID":12922},"geometry":{"x":165959.19000000041,"y":2543646.7200000007}},{"attributes":{"ID":12923,"DIS_CODE":0,"TOWNNAME":"安平區","LI":"建平里","LIN":"24鄰","STREET":"建平九街","SECT":" ","MAREA":" ","LANE":"６０巷","ALLEY":"３１弄","HOUSE_NO":"２７號","E_COORD97":165964.70999999999,"N_COORD97":2543620.1000000001,"ADDRESS":"建平九街６０巷３１弄２７號","OBJECTID":12923},"geometry":{"x":165964.71000000089,"y":2543620.1000000015}},{"attributes":{"ID":12924,"DIS_CODE":0,"TOWNNAME":"安平區","LI":"建平里","LIN":"24鄰","STREET":"建平九街","SECT":" ","MAREA":" ","LANE":"６０巷","ALLEY":"３１弄","HOUSE_NO":"２８號","E_COORD97":165954.73000000001,"N_COORD97":2543647.6499999999,"ADDRESS":"建平九街６０巷３１弄２８號","OBJECTID":12924},"geometry":{"x":165954.73000000138,"y":2543647.6500000022}},{"attributes":{"ID":12925,"DIS_CODE":0,"TOWNNAME":"安平區","LI":"建平里","LIN":"24鄰","STREET":"建平九街","SECT":" ","MAREA":" ","LANE":"６０巷","ALLEY":"３１弄","HOUSE_NO":"２９號","E_COORD97":165960.17999999999,"N_COORD97":2543621.77,"ADDRESS":"建平九街６０巷３１弄２９號","OBJECTID":12925},"geometry":{"x":165960.1799999997,"y":2543621.7700000033}},{"attributes":{"ID":12926,"DIS_CODE":0,"TOWNNAME":"安平區","LI":"建平里","LIN":"24鄰","STREET":"建平九街","SECT":" ","MAREA":" ","LANE":"６０巷","ALLEY":"３１弄","HOUSE_NO":"２號","E_COORD97":166021.59,"N_COORD97":2543635.6400000001,"ADDRESS":"建平九街６０巷３１弄２號","OBJECTID":12926},"geometry":{"x":166021.58999999985,"y":2543635.6400000025}},{"attributes":{"ID":12927,"DIS_CODE":0,"TOWNNAME":"安平區","LI":"建平里","LIN":"24鄰","STREET":"建平九街","SECT":" ","MAREA":" ","LANE":"６０巷","ALLEY":"３１弄","HOUSE_NO":"３０號","E_COORD97":165949.91,"N_COORD97":2543648.3900000001,"ADDRESS":"建平九街６０巷３１弄３０號","OBJECTID":12927},"geometry":{"x":165949.91000000108,"y":2543648.3900000006}},{"attributes":{"ID":12928,"DIS_CODE":0,"TOWNNAME":"安平區","LI":"建平里","LIN":"24鄰","STREET":"建平九街","SECT":" ","MAREA":" ","LANE":"６０巷","ALLEY":"３１弄","HOUSE_NO":"３１號","E_COORD97":165954.98000000001,"N_COORD97":2543622.1099999999,"ADDRESS":"建平九街６０巷３１弄３１號","OBJECTID":12928},"geometry":{"x":165954.98000000138,"y":2543622.1099999994}},{"attributes":{"ID":12929,"DIS_CODE":0,"TOWNNAME":"安平區","LI":"建平里","LIN":"24鄰","STREET":"建平九街","SECT":" ","MAREA":" ","LANE":"６０巷","ALLEY":"３１弄","HOUSE_NO":"３２號","E_COORD97":165944.89999999999,"N_COORD97":2543649.5,"ADDRESS":"建平九街６０巷３１弄３２號","OBJECTID":12929},"geometry":{"x":165944.9000000013,"y":2543649.5000000019}},{"attributes":{"ID":12930,"DIS_CODE":0,"TOWNNAME":"南區","LI":"文南里","LIN":"20鄰","STREET":"仁南街","SECT":" ","MAREA":" ","LANE":" ","ALLEY":" ","HOUSE_NO":"４０號","E_COORD97":166387.14999999999,"N_COORD97":2542663.75,"ADDRESS":"仁南街４０號","OBJECTID":12930},"geometry":{"x":166387.1500000013,"y":2542663.7500000019}},{"attributes":{"ID":12931,"DIS_CODE":0,"TOWNNAME":"南區","LI":"文南里","LIN":"20鄰","STREET":"仁南一街","SECT":" ","MAREA":" ","LANE":" ","ALLEY":" ","HOUSE_NO":"１１號","E_COORD97":166432.64000000001,"N_COORD97":2542627.75,"ADDRESS":"仁南一街１１號","OBJECTID":12931},"geometry":{"x":166432.6400000006,"y":2542627.75}},{"attributes":{"ID":12932,"DIS_CODE":0,"TOWNNAME":"南區","LI":"文南里","LIN":"20鄰","STREET":"仁南二街","SECT":" ","MAREA":" ","LANE":" ","ALLEY":" ","HOUSE_NO":"１２號","E_COORD97":166429.06,"N_COORD97":2542662.3199999998,"ADDRESS":"仁南二街１２號","OBJECTID":12932},"geometry":{"x":166429.06000000145,"y":2542662.3200000003}},{"attributes":{"ID":12933,"DIS_CODE":0,"TOWNNAME":"南區","LI":"文南里","LIN":"20鄰","STREET":"仁南三街","SECT":" ","MAREA":" ","LANE":" ","ALLEY":" ","HOUSE_NO":"１０號","E_COORD97":166416.20000000001,"N_COORD97":2542714.23,"ADDRESS":"仁南三街１０號","OBJECTID":12933},"geometry":{"x":166416.20000000019,"y":2542714.2299999986}},{"attributes":{"ID":12934,"DIS_CODE":0,"TOWNNAME":"南區","LI":"文南里","LIN":"20鄰","STREET":"仁南三街","SECT":" ","MAREA":" ","LANE":" ","ALLEY":" ","HOUSE_NO":"１２號","E_COORD97":166421.92000000001,"N_COORD97":2542714.23,"ADDRESS":"仁南三街１２號","OBJECTID":12934},"geometry":{"x":166421.92000000179,"y":2542714.2299999986}},{"attributes":{"ID":12935,"DIS_CODE":0,"TOWNNAME":"南區","LI":"文南里","LIN":"20鄰","STREET":"仁南三街","SECT":" ","MAREA":" ","LANE":" ","ALLEY":" ","HOUSE_NO":"２０號","E_COORD97":166449.06,"N_COORD97":2542710.5800000001,"ADDRESS":"仁南三街２０號","OBJECTID":12935},"geometry":{"x":166449.05999999959,"y":2542710.5800000001}},{"attributes":{"ID":12936,"DIS_CODE":0,"TOWNNAME":"南區","LI":"文南里","LIN":"20鄰","STREET":"仁南三街","SECT":" ","MAREA":" ","LANE":" ","ALLEY":" ","HOUSE_NO":"２２號","E_COORD97":166456.84,"N_COORD97":2542710.1000000001,"ADDRESS":"仁南三街２２號","OBJECTID":12936},"geometry":{"x":166456.84000000078,"y":2542710.0999999996}},{"attributes":{"ID":12937,"DIS_CODE":0,"TOWNNAME":"南區","LI":"文南里","LIN":"20鄰","STREET":"仁南三街","SECT":" ","MAREA":" ","LANE":" ","ALLEY":" ","HOUSE_NO":"２６號","E_COORD97":166460.81,"N_COORD97":2542708.6800000002,"ADDRESS":"仁南三街２６號","OBJECTID":12937},"geometry":{"x":166460.80999999959,"y":2542708.6800000016}},{"attributes":{"ID":12938,"DIS_CODE":0,"TOWNNAME":"安平區","LI":"建平里","LIN":"24鄰","STREET":"建平九街","SECT":" ","MAREA":" ","LANE":"６０巷","ALLEY":"３１弄","HOUSE_NO":"３３號","E_COORD97":165949.78,"N_COORD97":2543623.9500000002,"ADDRESS":"建平九街６０巷３１弄３３號","OBJECTID":12938},"geometry":{"x":165949.78000000026,"y":2543623.950000003}},{"attributes":{"ID":12939,"DIS_CODE":0,"TOWNNAME":"安平區","LI":"建平里","LIN":"24鄰","STREET":"建平九街","SECT":" ","MAREA":" ","LANE":"６０巷","ALLEY":"３１弄","HOUSE_NO":"３４號","E_COORD97":165940.07000000001,"N_COORD97":2543651.54,"ADDRESS":"建平九街６０巷３１弄３４號","OBJECTID":12939},"geometry":{"x":165940.07000000123,"y":2543651.540000001}},{"attributes":{"ID":12940,"DIS_CODE":0,"TOWNNAME":"安平區","LI":"建平里","LIN":"24鄰","STREET":"建平九街","SECT":" ","MAREA":" ","LANE":"６０巷","ALLEY":"３１弄","HOUSE_NO":"３５號","E_COORD97":165944.92000000001,"N_COORD97":2543623.1099999999,"ADDRESS":"建平九街６０巷３１弄３５號","OBJECTID":12940},"geometry":{"x":165944.91999999993,"y":2543623.1100000013}},{"attributes":{"ID":12941,"DIS_CODE":0,"TOWNNAME":"安平區","LI":"建平里","LIN":"24鄰","STREET":"建平九街","SECT":" ","MAREA":" ","LANE":"６０巷","ALLEY":"３１弄","HOUSE_NO":"３６號","E_COORD97":165935.98999999999,"N_COORD97":2543650.2400000002,"ADDRESS":"建平九街６０巷３１弄３６號","OBJECTID":12941},"geometry":{"x":165935.99000000115,"y":2543650.2400000021}},{"attributes":{"ID":12942,"DIS_CODE":0,"TOWNNAME":"安平區","LI":"建平里","LIN":"24鄰","STREET":"建平九街","SECT":" ","MAREA":" ","LANE":"６０巷","ALLEY":"３１弄","HOUSE_NO":"３７號","E_COORD97":165939.54999999999,"N_COORD97":2543623.9500000002,"ADDRESS":"建平九街６０巷３１弄３７號","OBJECTID":12942},"geometry":{"x":165939.55000000168,"y":2543623.950000003}},{"attributes":{"ID":12943,"DIS_CODE":0,"TOWNNAME":"安平區","LI":"建平里","LIN":"24鄰","STREET":"建平九街","SECT":" ","MAREA":" ","LANE":"６０巷","ALLEY":"３１弄","HOUSE_NO":"３８號","E_COORD97":165930.60999999999,"N_COORD97":2543651.3500000001,"ADDRESS":"建平九街６０巷３１弄３８號","OBJECTID":12943},"geometry":{"x":165930.61000000034,"y":2543651.3499999996}},{"attributes":{"ID":12944,"DIS_CODE":0,"TOWNNAME":"安平區","LI":"建平里","LIN":"24鄰","STREET":"建平九街","SECT":" ","MAREA":" ","LANE":"６０巷","ALLEY":"３１弄","HOUSE_NO":"３９號","E_COORD97":165935.69,"N_COORD97":2543627.1299999999,"ADDRESS":"建平九街６０巷３１弄３９號","OBJECTID":12944},"geometry":{"x":165935.68999999948,"y":2543627.1300000008}},{"attributes":{"ID":12945,"DIS_CODE":0,"TOWNNAME":"安平區","LI":"建平里","LIN":"24鄰","STREET":"建平九街","SECT":" ","MAREA":" ","LANE":"６０巷","ALLEY":"３１弄","HOUSE_NO":"３號","E_COORD97":166018.32000000001,"N_COORD97":2543619.7200000002,"ADDRESS":"建平九街６０巷３１弄３號","OBJECTID":12945},"geometry":{"x":166018.32000000123,"y":2543619.7200000007}},{"attributes":{"ID":12946,"DIS_CODE":0,"TOWNNAME":"安平區","LI":"建平里","LIN":"24鄰","STREET":"建平九街","SECT":" ","MAREA":" ","LANE":"６０巷","ALLEY":"３１弄","HOUSE_NO":"４１號","E_COORD97":165931.67000000001,"N_COORD97":2543625.6299999999,"ADDRESS":"建平九街６０巷３１弄４１號","OBJECTID":12946},"geometry":{"x":165931.66999999993,"y":2543625.6300000027}},{"attributes":{"ID":12947,"DIS_CODE":0,"TOWNNAME":"安平區","LI":"建平里","LIN":"24鄰","STREET":"建平九街","SECT":" ","MAREA":" ","LANE":"６０巷","ALLEY":"３１弄","HOUSE_NO":"４號","E_COORD97":166017.19,"N_COORD97":2543635.4300000002,"ADDRESS":"建平九街６０巷３１弄４號","OBJECTID":12947},"geometry":{"x":166017.19000000227,"y":2543635.4300000016}},{"attributes":{"ID":12948,"DIS_CODE":0,"TOWNNAME":"南區","LI":"文南里","LIN":"20鄰","STREET":"仁南三街","SECT":" ","MAREA":" ","LANE":" ","ALLEY":" ","HOUSE_NO":"２８號","E_COORD97":166469.22,"N_COORD97":2542707.4100000001,"ADDRESS":"仁南三街２８號","OBJECTID":12948},"geometry":{"x":166469.22000000067,"y":2542707.410000002}},{"attributes":{"ID":12949,"DIS_CODE":0,"TOWNNAME":"南區","LI":"文南里","LIN":"20鄰","STREET":"仁南三街","SECT":" ","MAREA":" ","LANE":" ","ALLEY":" ","HOUSE_NO":"３０號","E_COORD97":166478.75,"N_COORD97":2542706.29,"ADDRESS":"仁南三街３０號","OBJECTID":12949},"geometry":{"x":166478.75,"y":2542706.290000001}},{"attributes":{"ID":12950,"DIS_CODE":0,"TOWNNAME":"南區","LI":"文南里","LIN":"20鄰","STREET":"仁南三街","SECT":" ","MAREA":" ","LANE":" ","ALLEY":" ","HOUSE_NO":"３２號","E_COORD97":166485.57999999999,"N_COORD97":2542705.98,"ADDRESS":"仁南三街３２號","OBJECTID":12950},"geometry":{"x":166485.58000000101,"y":2542705.9800000042}},{"attributes":{"ID":12951,"DIS_CODE":0,"TOWNNAME":"南區","LI":"文南里","LIN":"20鄰","STREET":"仁南四街","SECT":" ","MAREA":" ","LANE":" ","ALLEY":" ","HOUSE_NO":"１１號","E_COORD97":166485.42000000001,"N_COORD97":2542761.2200000002,"ADDRESS":"仁南四街１１號","OBJECTID":12951},"geometry":{"x":166485.42000000086,"y":2542761.2200000007}},{"attributes":{"ID":12952,"DIS_CODE":0,"TOWNNAME":"南區","LI":"文南里","LIN":"20鄰","STREET":"仁南四街","SECT":" ","MAREA":" ","LANE":" ","ALLEY":" ","HOUSE_NO":"１３號","E_COORD97":166484.94,"N_COORD97":2542754.5499999998,"ADDRESS":"仁南四街１３號","OBJECTID":12952},"geometry":{"x":166484.93999999948,"y":2542754.5500000026}},{"attributes":{"ID":12953,"DIS_CODE":0,"TOWNNAME":"安平區","LI":"建平里","LIN":"24鄰","STREET":"建平九街","SECT":" ","MAREA":" ","LANE":"６０巷","ALLEY":"３１弄","HOUSE_NO":"５號","E_COORD97":166014.92999999999,"N_COORD97":2543619.7200000002,"ADDRESS":"建平九街６０巷３１弄５號","OBJECTID":12953},"geometry":{"x":166014.93000000156,"y":2543619.7200000007}},{"attributes":{"ID":12954,"DIS_CODE":0,"TOWNNAME":"安平區","LI":"建平里","LIN":"24鄰","STREET":"建平九街","SECT":" ","MAREA":" ","LANE":"６０巷","ALLEY":"３１弄","HOUSE_NO":"６號","E_COORD97":166012.17999999999,"N_COORD97":2543635.8999999999,"ADDRESS":"建平九街６０巷３１弄６號","OBJECTID":12954},"geometry":{"x":166012.18000000063,"y":2543635.9000000022}},{"attributes":{"ID":12955,"DIS_CODE":0,"TOWNNAME":"安平區","LI":"建平里","LIN":"24鄰","STREET":"建平九街","SECT":" ","MAREA":" ","LANE":"６０巷","ALLEY":"３１弄","HOUSE_NO":"７號","E_COORD97":166010.5,"N_COORD97":2543620.04,"ADDRESS":"建平九街６０巷３１弄７號","OBJECTID":12955},"geometry":{"x":166010.5,"y":2543620.040000001}},{"attributes":{"ID":12956,"DIS_CODE":0,"TOWNNAME":"南區","LI":"文南里","LIN":"20鄰","STREET":"仁南四街","SECT":" ","MAREA":" ","LANE":" ","ALLEY":" ","HOUSE_NO":"１５號","E_COORD97":166484.45999999999,"N_COORD97":2542750.5899999999,"ADDRESS":"仁南四街１５號","OBJECTID":12956},"geometry":{"x":166484.46000000183,"y":2542750.5899999999}},{"attributes":{"ID":12957,"DIS_CODE":0,"TOWNNAME":"安平區","LI":"建平里","LIN":"24鄰","STREET":"建平九街","SECT":" ","MAREA":" ","LANE":"６０巷","ALLEY":"３１弄","HOUSE_NO":"８號","E_COORD97":166008.32000000001,"N_COORD97":2543635.77,"ADDRESS":"建平九街６０巷３１弄８號","OBJECTID":12957},"geometry":{"x":166008.32000000123,"y":2543635.7700000014}},{"attributes":{"ID":12958,"DIS_CODE":0,"TOWNNAME":"安平區","LI":"建平里","LIN":"24鄰","STREET":"建平九街","SECT":" ","MAREA":" ","LANE":"６０巷","ALLEY":"３１弄","HOUSE_NO":"９號","E_COORD97":166002.42999999999,"N_COORD97":2543616.8999999999,"ADDRESS":"建平九街６０巷３１弄９號","OBJECTID":12958},"geometry":{"x":166002.4299999997,"y":2543616.9000000004}},{"attributes":{"ID":12959,"DIS_CODE":0,"TOWNNAME":"安平區","LI":"華平里","LIN":"24鄰","STREET":"建平八街","SECT":" ","MAREA":" ","LANE":"４１６巷","ALLEY":"６弄","HOUSE_NO":"１１號","E_COORD97":165259.59,"N_COORD97":2543617.8999999999,"ADDRESS":"建平八街４１６巷６弄１１號","OBJECTID":12959},"geometry":{"x":165259.59000000171,"y":2543617.9000000004}},{"attributes":{"ID":12960,"DIS_CODE":0,"TOWNNAME":"北區","LI":"三德里","LIN":"5鄰","STREET":"裕民街","SECT":" ","MAREA":" ","LANE":" ","ALLEY":" ","HOUSE_NO":"６０號","E_COORD97":168488.37,"N_COORD97":2544479.79,"ADDRESS":"裕民街６０號","OBJECTID":12960},"geometry":{"x":168488.37000000011,"y":2544479.790000001}},{"attributes":{"ID":12961,"DIS_CODE":0,"TOWNNAME":"南區","LI":"文南里","LIN":"20鄰","STREET":"仁南四街","SECT":" ","MAREA":" ","LANE":" ","ALLEY":" ","HOUSE_NO":"１７號","E_COORD97":166482.88,"N_COORD97":2542744.8700000001,"ADDRESS":"仁南四街１７號","OBJECTID":12961},"geometry":{"x":166482.87999999989,"y":2542744.8700000048}},{"attributes":{"ID":12962,"DIS_CODE":0,"TOWNNAME":"官田區","LI":"渡頭里","LIN":"24鄰","STREET":" ","SECT":" ","MAREA":"渡子頭","LANE":" ","ALLEY":" ","HOUSE_NO":"２３５號","E_COORD97":182228.44,"N_COORD97":2563704.1200000001,"ADDRESS":"渡子頭２３５號","OBJECTID":12962},"geometry":{"x":182228.44000000134,"y":2563704.120000001}},{"attributes":{"ID":12963,"DIS_CODE":0,"TOWNNAME":"佳里區","LI":"漳洲里","LIN":"13鄰","STREET":" ","SECT":" ","MAREA":"番子寮","LANE":" ","ALLEY":" ","HOUSE_NO":"２９９號","E_COORD97":163171.64999999999,"N_COORD97":2565036.7400000002,"ADDRESS":"番子寮２９９號","OBJECTID":12963},"geometry":{"x":163171.6500000013,"y":2565036.7400000021}},{"attributes":{"ID":12964,"DIS_CODE":0,"TOWNNAME":"佳里區","LI":"漳洲里","LIN":"13鄰","STREET":" ","SECT":" ","MAREA":"番子寮","LANE":" ","ALLEY":" ","HOUSE_NO":"３０１號","E_COORD97":163126.57000000001,"N_COORD97":2565030.4100000001,"ADDRESS":"番子寮３０１號","OBJECTID":12964},"geometry":{"x":163126.57000000123,"y":2565030.4100000001}},{"attributes":{"ID":12965,"DIS_CODE":0,"TOWNNAME":"佳里區","LI":"漳洲里","LIN":"13鄰","STREET":" ","SECT":" ","MAREA":"番子寮","LANE":" ","ALLEY":" ","HOUSE_NO":"３０２號","E_COORD97":163110.01000000001,"N_COORD97":2565026.79,"ADDRESS":"番子寮３０２號","OBJECTID":12965},"geometry":{"x":163110.00999999978,"y":2565026.7899999991}},{"attributes":{"ID":12966,"DIS_CODE":0,"TOWNNAME":"佳里區","LI":"漳洲里","LIN":"13鄰","STREET":" ","SECT":" ","MAREA":"番子寮","LANE":" ","ALLEY":" ","HOUSE_NO":"３０３號","E_COORD97":163145.41,"N_COORD97":2565052.3500000001,"ADDRESS":"番子寮３０３號","OBJECTID":12966},"geometry":{"x":163145.41000000201,"y":2565052.3500000015}},{"attributes":{"ID":12967,"DIS_CODE":0,"TOWNNAME":"佳里區","LI":"漳洲里","LIN":"13鄰","STREET":" ","SECT":" ","MAREA":"番子寮","LANE":" ","ALLEY":" ","HOUSE_NO":"３０５號","E_COORD97":163171.59,"N_COORD97":2565085.0699999998,"ADDRESS":"番子寮３０５號","OBJECTID":12967},"geometry":{"x":163171.59000000078,"y":2565085.070000004}},{"attributes":{"ID":12968,"DIS_CODE":0,"TOWNNAME":"佳里區","LI":"漳洲里","LIN":"13鄰","STREET":" ","SECT":" ","MAREA":"番子寮","LANE":" ","ALLEY":" ","HOUSE_NO":"３０６號","E_COORD97":163143.19,"N_COORD97":2565079.29,"ADDRESS":"番子寮３０６號","OBJECTID":12968},"geometry":{"x":163143.19000000041,"y":2565079.290000001}},{"attributes":{"ID":12969,"DIS_CODE":0,"TOWNNAME":"安平區","LI":"華平里","LIN":"24鄰","STREET":"建平八街","SECT":" ","MAREA":" ","LANE":"４１６巷","ALLEY":"６弄","HOUSE_NO":"１２號","E_COORD97":165262.26999999999,"N_COORD97":2543629.2999999998,"ADDRESS":"建平八街４１６巷６弄１２號","OBJECTID":12969},"geometry":{"x":165262.26999999955,"y":2543629.3000000007}},{"attributes":{"ID":12970,"DIS_CODE":0,"TOWNNAME":"安平區","LI":"華平里","LIN":"24鄰","STREET":"建平八街","SECT":" ","MAREA":" ","LANE":"４１６巷","ALLEY":"６弄","HOUSE_NO":"１３號","E_COORD97":165246.82999999999,"N_COORD97":2543620.9199999999,"ADDRESS":"建平八街４１６巷６弄１３號","OBJECTID":12970},"geometry":{"x":165246.83000000101,"y":2543620.9199999999}},{"attributes":{"ID":12971,"DIS_CODE":0,"TOWNNAME":"安平區","LI":"華平里","LIN":"24鄰","STREET":"建平八街","SECT":" ","MAREA":" ","LANE":"４１６巷","ALLEY":"６弄","HOUSE_NO":"１５號","E_COORD97":165242.57999999999,"N_COORD97":2543621.1400000001,"ADDRESS":"建平八街４１６巷６弄１５號","OBJECTID":12971},"geometry":{"x":165242.58000000007,"y":2543621.1400000025}},{"attributes":{"ID":12972,"DIS_CODE":0,"TOWNNAME":"佳里區","LI":"漳洲里","LIN":"13鄰","STREET":" ","SECT":" ","MAREA":"番子寮","LANE":" ","ALLEY":" ","HOUSE_NO":"３０９號","E_COORD97":163116.82999999999,"N_COORD97":2565184.5899999999,"ADDRESS":"番子寮３０９號","OBJECTID":12972},"geometry":{"x":163116.83000000007,"y":2565184.5899999999}},{"attributes":{"ID":12973,"DIS_CODE":0,"TOWNNAME":"佳里區","LI":"海澄里","LIN":"13鄰","STREET":" ","SECT":" ","MAREA":"番子寮","LANE":" ","ALLEY":" ","HOUSE_NO":"９４號之１","E_COORD97":164060.42999999999,"N_COORD97":2564601.23,"ADDRESS":"番子寮９４號之１","OBJECTID":12973},"geometry":{"x":164060.43000000063,"y":2564601.2300000004}},{"attributes":{"ID":12974,"DIS_CODE":0,"TOWNNAME":"佳里區","LI":"海澄里","LIN":"13鄰","STREET":" ","SECT":" ","MAREA":"番子寮","LANE":" ","ALLEY":" ","HOUSE_NO":"９４號","E_COORD97":164060.54000000001,"N_COORD97":2564630.0800000001,"ADDRESS":"番子寮９４號","OBJECTID":12974},"geometry":{"x":164060.54000000097,"y":2564630.0800000001}},{"attributes":{"ID":12975,"DIS_CODE":0,"TOWNNAME":"佳里區","LI":"海澄里","LIN":"13鄰","STREET":" ","SECT":" ","MAREA":"番子寮","LANE":" ","ALLEY":" ","HOUSE_NO":"９５號之１","E_COORD97":164037.88,"N_COORD97":2564580.9900000002,"ADDRESS":"番子寮９５號之１","OBJECTID":12975},"geometry":{"x":164037.88000000082,"y":2564580.9900000021}},{"attributes":{"ID":12976,"DIS_CODE":0,"TOWNNAME":"佳里區","LI":"海澄里","LIN":"13鄰","STREET":" ","SECT":" ","MAREA":"番子寮","LANE":" ","ALLEY":" ","HOUSE_NO":"９５號","E_COORD97":164039.28,"N_COORD97":2564555.0899999999,"ADDRESS":"番子寮９５號","OBJECTID":12976},"geometry":{"x":164039.28000000026,"y":2564555.0899999999}},{"attributes":{"ID":12977,"DIS_CODE":0,"TOWNNAME":"佳里區","LI":"海澄里","LIN":"13鄰","STREET":" ","SECT":" ","MAREA":"番子寮","LANE":" ","ALLEY":" ","HOUSE_NO":"９６號之１","E_COORD97":164021.72,"N_COORD97":2564639.04,"ADDRESS":"番子寮９６號之１","OBJECTID":12977},"geometry":{"x":164021.72000000067,"y":2564639.0399999991}},{"attributes":{"ID":12978,"DIS_CODE":0,"TOWNNAME":"佳里區","LI":"海澄里","LIN":"13鄰","STREET":" ","SECT":" ","MAREA":"番子寮","LANE":" ","ALLEY":" ","HOUSE_NO":"９６號之２","E_COORD97":164029.37,"N_COORD97":2564639.3999999999,"ADDRESS":"番子寮９６號之２","OBJECTID":12978},"geometry":{"x":164029.37000000104,"y":2564639.4000000022}},{"attributes":{"ID":12979,"DIS_CODE":0,"TOWNNAME":"佳里區","LI":"海澄里","LIN":"13鄰","STREET":" ","SECT":" ","MAREA":"番子寮","LANE":" ","ALLEY":" ","HOUSE_NO":"９６號之３","E_COORD97":164034.20000000001,"N_COORD97":2564637.1099999999,"ADDRESS":"番子寮９６號之３","OBJECTID":12979},"geometry":{"x":164034.20000000112,"y":2564637.1100000013}},{"attributes":{"ID":12980,"DIS_CODE":0,"TOWNNAME":"佳里區","LI":"海澄里","LIN":"13鄰","STREET":" ","SECT":" ","MAREA":"番子寮","LANE":" ","ALLEY":" ","HOUSE_NO":"９７號","E_COORD97":164003.16,"N_COORD97":2564608.1099999999,"ADDRESS":"番子寮９７號","OBJECTID":12980},"geometry":{"x":164003.16000000201,"y":2564608.1099999994}},{"attributes":{"ID":12981,"DIS_CODE":0,"TOWNNAME":"佳里區","LI":"海澄里","LIN":"13鄰","STREET":" ","SECT":" ","MAREA":"番子寮","LANE":" ","ALLEY":" ","HOUSE_NO":"９９號之１","E_COORD97":163972.37,"N_COORD97":2564637.0699999998,"ADDRESS":"番子寮９９號之１","OBJECTID":12981},"geometry":{"x":163972.37000000011,"y":2564637.0700000003}},{"attributes":{"ID":12982,"DIS_CODE":0,"TOWNNAME":"佳里區","LI":"海澄里","LIN":"13鄰","STREET":" ","SECT":" ","MAREA":"番子寮","LANE":" ","ALLEY":" ","HOUSE_NO":"９９號之２","E_COORD97":163968.38,"N_COORD97":2564573.0099999998,"ADDRESS":"番子寮９９號之２","OBJECTID":12982},"geometry":{"x":163968.38000000082,"y":2564573.0100000035}},{"attributes":{"ID":12983,"DIS_CODE":0,"TOWNNAME":"安定區","LI":"蘇林里","LIN":"13鄰","STREET":" ","SECT":" ","MAREA":"蘇厝","LANE":" ","ALLEY":" ","HOUSE_NO":"１４６號","E_COORD97":173473.22,"N_COORD97":2558955.25,"ADDRESS":"蘇厝１４６號","OBJECTID":12983},"geometry":{"x":173473.21999999974,"y":2558955.2500000019}},{"attributes":{"ID":12984,"DIS_CODE":0,"TOWNNAME":"官田區","LI":"渡頭里","LIN":"24鄰","STREET":" ","SECT":" ","MAREA":"渡子頭","LANE":" ","ALLEY":" ","HOUSE_NO":"２３６號","E_COORD97":182224.82000000001,"N_COORD97":2563711.48,"ADDRESS":"渡子頭２３６號","OBJECTID":12984},"geometry":{"x":182224.8200000003,"y":2563711.4800000004}},{"attributes":{"ID":12985,"DIS_CODE":0,"TOWNNAME":"官田區","LI":"渡頭里","LIN":"24鄰","STREET":" ","SECT":" ","MAREA":"渡子頭","LANE":" ","ALLEY":" ","HOUSE_NO":"２３８號之１","E_COORD97":182174.19,"N_COORD97":2563737.3999999999,"ADDRESS":"渡子頭２３８號之１","OBJECTID":12985},"geometry":{"x":182174.19000000134,"y":2563737.4000000022}},{"attributes":{"ID":12986,"DIS_CODE":0,"TOWNNAME":"官田區","LI":"渡頭里","LIN":"24鄰","STREET":" ","SECT":" ","MAREA":"渡子頭","LANE":" ","ALLEY":" ","HOUSE_NO":"２３８號","E_COORD97":182179.70999999999,"N_COORD97":2563718.96,"ADDRESS":"渡子頭２３８號","OBJECTID":12986},"geometry":{"x":182179.70999999996,"y":2563718.9600000009}},{"attributes":{"ID":12987,"DIS_CODE":0,"TOWNNAME":"東山區","LI":"聖賢里","LIN":"14鄰","STREET":" ","SECT":" ","MAREA":"田尾","LANE":" ","ALLEY":" ","HOUSE_NO":"８０號","E_COORD97":185226.62,"N_COORD97":2578701.1800000002,"ADDRESS":"田尾８０號","OBJECTID":12987},"geometry":{"x":185226.62000000011,"y":2578701.1800000016}},{"attributes":{"ID":12988,"DIS_CODE":0,"TOWNNAME":"官田區","LI":"渡頭里","LIN":"24鄰","STREET":" ","SECT":" ","MAREA":"渡子頭","LANE":" ","ALLEY":" ","HOUSE_NO":"２４０號","E_COORD97":182216.45999999999,"N_COORD97":2563739.9900000002,"ADDRESS":"渡子頭２４０號","OBJECTID":12988},"geometry":{"x":182216.46000000089,"y":2563739.9900000021}},{"attributes":{"ID":12989,"DIS_CODE":0,"TOWNNAME":"官田區","LI":"渡頭里","LIN":"24鄰","STREET":" ","SECT":" ","MAREA":"渡子頭","LANE":" ","ALLEY":" ","HOUSE_NO":"２４８號之１２","E_COORD97":182229.89999999999,"N_COORD97":2563836.0600000001,"ADDRESS":"渡子頭２４８號之１２","OBJECTID":12989},"geometry":{"x":182229.90000000037,"y":2563836.0600000024}},{"attributes":{"ID":12990,"DIS_CODE":0,"TOWNNAME":"官田區","LI":"渡頭里","LIN":"24鄰","STREET":" ","SECT":" ","MAREA":"渡子頭","LANE":" ","ALLEY":" ","HOUSE_NO":"２４８號之１３","E_COORD97":182229.95000000001,"N_COORD97":2563847.5099999998,"ADDRESS":"渡子頭２４８號之１３","OBJECTID":12990},"geometry":{"x":182229.95000000112,"y":2563847.5100000035}},{"attributes":{"ID":12991,"DIS_CODE":0,"TOWNNAME":"安平區","LI":"華平里","LIN":"24鄰","STREET":"建平八街","SECT":" ","MAREA":" ","LANE":"４１６巷","ALLEY":"６弄","HOUSE_NO":"１６號","E_COORD97":165244.14999999999,"N_COORD97":2543631.0899999999,"ADDRESS":"建平八街４１６巷６弄１６號","OBJECTID":12991},"geometry":{"x":165244.15000000037,"y":2543631.0900000017}},{"attributes":{"ID":12992,"DIS_CODE":0,"TOWNNAME":"安平區","LI":"華平里","LIN":"24鄰","STREET":"建平八街","SECT":" ","MAREA":" ","LANE":"４１６巷","ALLEY":"６弄","HOUSE_NO":"１７號","E_COORD97":165238,"N_COORD97":2543621.7000000002,"ADDRESS":"建平八街４１６巷６弄１７號","OBJECTID":12992},"geometry":{"x":165238,"y":2543621.6999999993}},{"attributes":{"ID":12993,"DIS_CODE":0,"TOWNNAME":"安平區","LI":"華平里","LIN":"24鄰","STREET":"建平八街","SECT":" ","MAREA":" ","LANE":"４１６巷","ALLEY":"６弄","HOUSE_NO":"１８號","E_COORD97":165239.34,"N_COORD97":2543631.98,"ADDRESS":"建平八街４１６巷６弄１８號","OBJECTID":12993},"geometry":{"x":165239.34000000078,"y":2543631.9800000023}},{"attributes":{"ID":12994,"DIS_CODE":0,"TOWNNAME":"新市區","LI":"大社里","LIN":"24鄰","STREET":" ","SECT":" ","MAREA":"大社","LANE":" ","ALLEY":" ","HOUSE_NO":"８８６之２號","E_COORD97":179830.06,"N_COORD97":2553986.9500000002,"ADDRESS":"大社８８６之２號","OBJECTID":12994},"geometry":{"x":179830.06000000052,"y":2553986.9499999993}},{"attributes":{"ID":12995,"DIS_CODE":0,"TOWNNAME":"新市區","LI":"大社里","LIN":"24鄰","STREET":" ","SECT":" ","MAREA":"大社","LANE":" ","ALLEY":" ","HOUSE_NO":"８８６之３號","E_COORD97":179826.37,"N_COORD97":2553985.7200000002,"ADDRESS":"大社８８６之３號","OBJECTID":12995},"geometry":{"x":179826.37000000197,"y":2553985.7200000025}},{"attributes":{"ID":12996,"DIS_CODE":0,"TOWNNAME":"新市區","LI":"大社里","LIN":"24鄰","STREET":" ","SECT":" ","MAREA":"大社","LANE":" ","ALLEY":" ","HOUSE_NO":"８８６之５號","E_COORD97":179821.97,"N_COORD97":2553984.25,"ADDRESS":"大社８８６之５號","OBJECTID":12996},"geometry":{"x":179821.9700000016,"y":2553984.2500000019}},{"attributes":{"ID":12997,"DIS_CODE":0,"TOWNNAME":"安平區","LI":"華平里","LIN":"24鄰","STREET":"建平八街","SECT":" ","MAREA":" ","LANE":"４１６巷","ALLEY":"６弄","HOUSE_NO":"１９號","E_COORD97":165233.75,"N_COORD97":2543622.2599999998,"ADDRESS":"建平八街４１６巷６弄１９號","OBJECTID":12997},"geometry":{"x":165233.75000000093,"y":2543622.2600000035}},{"attributes":{"ID":12998,"DIS_CODE":0,"TOWNNAME":"新市區","LI":"大社里","LIN":"24鄰","STREET":" ","SECT":" ","MAREA":"大社","LANE":" ","ALLEY":" ","HOUSE_NO":"８８６之６號","E_COORD97":179817.60000000001,"N_COORD97":2553982.7799999998,"ADDRESS":"大社８８６之６號","OBJECTID":12998},"geometry":{"x":179817.60000000149,"y":2553982.7800000031}},{"attributes":{"ID":12999,"DIS_CODE":0,"TOWNNAME":"安平區","LI":"華平里","LIN":"24鄰","STREET":"建平八街","SECT":" ","MAREA":" ","LANE":"４１６巷","ALLEY":"６弄","HOUSE_NO":"１號","E_COORD97":165283.07999999999,"N_COORD97":2543617.79,"ADDRESS":"建平八街４１６巷６弄１號","OBJECTID":12999},"geometry":{"x":165283.08000000007,"y":2543617.7900000028}},{"attributes":{"ID":13000,"DIS_CODE":0,"TOWNNAME":"安平區","LI":"華平里","LIN":"24鄰","STREET":"建平八街","SECT":" ","MAREA":" ","LANE":"４１６巷","ALLEY":"６弄","HOUSE_NO":"２０號","E_COORD97":165234.98000000001,"N_COORD97":2543632.4300000002,"ADDRESS":"建平八街４１６巷６弄２０號","OBJECTID":13000},"geometry":{"x":165234.98000000045,"y":2543632.4300000016}}]}