{"displayFieldName":"TOWNNAME","fieldAliases":{"ID":"ID","DIS_CODE":"DIS_CODE","TOWNNAME":"TOWNNAME","LI":"LI","LIN":"LIN","STREET":"STREET","SECT":"SECT","MAREA":"MAREA","LANE":"LANE","ALLEY":"ALLEY","HOUSE_NO":"HOUSE_NO","E_COORD97":"E_COORD97","N_COORD97":"N_COORD97","ADDRESS":"ADDRESS","OBJECTID":"OBJECTID"},"geometryType":"esriGeometryPoint","spatialReference":{"wkid":102443,"latestWkid":3826},"fields":[{"name":"ID","type":"esriFieldTypeDouble","alias":"ID"},{"name":"DIS_CODE","type":"esriFieldTypeInteger","alias":"DIS_CODE"},{"name":"TOWNNAME","type":"esriFieldTypeString","alias":"TOWNNAME","length":8},{"name":"LI","type":"esriFieldTypeString","alias":"LI","length":8},{"name":"LIN","type":"esriFieldTypeString","alias":"LIN","length":12},{"name":"STREET","type":"esriFieldTypeString","alias":"STREET","length":20},{"name":"SECT","type":"esriFieldTypeString","alias":"SECT","length":8},{"name":"MAREA","type":"esriFieldTypeString","alias":"MAREA","length":12},{"name":"LANE","type":"esriFieldTypeString","alias":"LANE","length":10},{"name":"ALLEY","type":"esriFieldTypeString","alias":"ALLEY","length":10},{"name":"HOUSE_NO","type":"esriFieldTypeString","alias":"HOUSE_NO","length":20},{"name":"E_COORD97","type":"esriFieldTypeDouble","alias":"E_COORD97"},{"name":"N_COORD97","type":"esriFieldTypeDouble","alias":"N_COORD97"},{"name":"ADDRESS","type":"esriFieldTypeString","alias":"ADDRESS","length":50},{"name":"OBJECTID","type":"esriFieldTypeOID","alias":"OBJECTID"}],"features":[{"attributes":{"ID":393425,"DIS_CODE":0,"TOWNNAME":"東區","LI":"成大里","LIN":"23鄰","STREET":"育樂街","SECT":" ","MAREA":" ","LANE":"１４１巷","ALLEY":" ","HOUSE_NO":"１號三樓","E_COORD97":169524.39000000001,"N_COORD97":2543941.48,"ADDRESS":"育樂街１４１巷１號三樓","OBJECTID":393401},"geometry":{"x":169524.3900000006,"y":2543941.4800000023}},{"attributes":{"ID":393426,"DIS_CODE":0,"TOWNNAME":"東區","LI":"成大里","LIN":"23鄰","STREET":"育樂街","SECT":" ","MAREA":" ","LANE":"１４１巷","ALLEY":" ","HOUSE_NO":"１號四樓","E_COORD97":169524.39000000001,"N_COORD97":2543941.48,"ADDRESS":"育樂街１４１巷１號四樓","OBJECTID":393402},"geometry":{"x":169524.3900000006,"y":2543941.4800000023}},{"attributes":{"ID":393427,"DIS_CODE":0,"TOWNNAME":"永康區","LI":"復國里","LIN":"12鄰","STREET":"復國二路","SECT":" ","MAREA":" ","LANE":"１１４巷","ALLEY":" ","HOUSE_NO":"９號","E_COORD97":172897.42999999999,"N_COORD97":2545445.77,"ADDRESS":"復國二路１１４巷９號","OBJECTID":393403},"geometry":{"x":172897.43000000063,"y":2545445.7700000033}},{"attributes":{"ID":393428,"DIS_CODE":0,"TOWNNAME":"永康區","LI":"西灣里","LIN":"23鄰","STREET":"國光七街","SECT":" ","MAREA":" ","LANE":"２１巷","ALLEY":" ","HOUSE_NO":"１號八樓","E_COORD97":174301.70000000001,"N_COORD97":2545509.5099999998,"ADDRESS":"國光七街２１巷１號八樓","OBJECTID":393404},"geometry":{"x":174301.70000000112,"y":2545509.5100000016}},{"attributes":{"ID":393429,"DIS_CODE":0,"TOWNNAME":"永康區","LI":"西灣里","LIN":"23鄰","STREET":"國光七街","SECT":" ","MAREA":" ","LANE":"２１巷","ALLEY":" ","HOUSE_NO":"７號五樓","E_COORD97":174297.54000000001,"N_COORD97":2545497.5099999998,"ADDRESS":"國光七街２１巷７號五樓","OBJECTID":393405},"geometry":{"x":174297.54000000097,"y":2545497.5099999998}},{"attributes":{"ID":393430,"DIS_CODE":0,"TOWNNAME":"永康區","LI":"西灣里","LIN":"23鄰","STREET":"國光七街","SECT":" ","MAREA":" ","LANE":"２１巷","ALLEY":" ","HOUSE_NO":"７號三樓","E_COORD97":174297.54000000001,"N_COORD97":2545497.5099999998,"ADDRESS":"國光七街２１巷７號三樓","OBJECTID":393406},"geometry":{"x":174297.54000000097,"y":2545497.5099999998}},{"attributes":{"ID":393431,"DIS_CODE":0,"TOWNNAME":"永康區","LI":"西灣里","LIN":"23鄰","STREET":"國光七街","SECT":" ","MAREA":" ","LANE":"２１巷","ALLEY":" ","HOUSE_NO":"７號八樓","E_COORD97":174297.54000000001,"N_COORD97":2545497.5099999998,"ADDRESS":"國光七街２１巷７號八樓","OBJECTID":393407},"geometry":{"x":174297.54000000097,"y":2545497.5099999998}},{"attributes":{"ID":393432,"DIS_CODE":0,"TOWNNAME":"永康區","LI":"安康里","LIN":"16鄰","STREET":"中華路","SECT":" ","MAREA":" ","LANE":"６６１巷","ALLEY":" ","HOUSE_NO":"２５號","E_COORD97":170900.14999999999,"N_COORD97":2546163.7400000002,"ADDRESS":"中華路６６１巷２５號","OBJECTID":393408},"geometry":{"x":170900.1500000013,"y":2546163.7400000021}},{"attributes":{"ID":393433,"DIS_CODE":0,"TOWNNAME":"永康區","LI":"二王里","LIN":"26鄰","STREET":"中山南路","SECT":" ","MAREA":" ","LANE":"５４４巷","ALLEY":" ","HOUSE_NO":"１２７號","E_COORD97":172328.57000000001,"N_COORD97":2546181.4900000002,"ADDRESS":"中山南路５４４巷１２７號","OBJECTID":393409},"geometry":{"x":172328.5700000003,"y":2546181.4900000021}},{"attributes":{"ID":393434,"DIS_CODE":0,"TOWNNAME":"永康區","LI":"三合里","LIN":"8鄰","STREET":"南工街","SECT":" ","MAREA":" ","LANE":"１３５巷","ALLEY":" ","HOUSE_NO":"１３號","E_COORD97":172041.17000000001,"N_COORD97":2545769.7400000002,"ADDRESS":"南工街１３５巷１３號","OBJECTID":393410},"geometry":{"x":172041.16999999993,"y":2545769.7400000021}},{"attributes":{"ID":393435,"DIS_CODE":0,"TOWNNAME":"永康區","LI":"西灣里","LIN":"23鄰","STREET":"國光七街","SECT":" ","MAREA":" ","LANE":"２１巷","ALLEY":" ","HOUSE_NO":"１號四樓","E_COORD97":174301.70000000001,"N_COORD97":2545509.5099999998,"ADDRESS":"國光七街２１巷１號四樓","OBJECTID":393411},"geometry":{"x":174301.70000000112,"y":2545509.5100000016}},{"attributes":{"ID":393436,"DIS_CODE":0,"TOWNNAME":"永康區","LI":"三合里","LIN":"20鄰","STREET":"南工街","SECT":" ","MAREA":" ","LANE":"２６７巷","ALLEY":" ","HOUSE_NO":"４號","E_COORD97":171880.25,"N_COORD97":2545956.2400000002,"ADDRESS":"南工街２６７巷４號","OBJECTID":393412},"geometry":{"x":171880.25000000093,"y":2545956.2400000021}},{"attributes":{"ID":393437,"DIS_CODE":0,"TOWNNAME":"永康區","LI":"二王里","LIN":"26鄰","STREET":"中山南路","SECT":" ","MAREA":" ","LANE":"５４４巷","ALLEY":" ","HOUSE_NO":"１１２號","E_COORD97":172313.16,"N_COORD97":2546184.1200000001,"ADDRESS":"中山南路５４４巷１１２號","OBJECTID":393413},"geometry":{"x":172313.16000000201,"y":2546184.1200000048}},{"attributes":{"ID":393438,"DIS_CODE":0,"TOWNNAME":"永康區","LI":"西灣里","LIN":"23鄰","STREET":"國光七街","SECT":" ","MAREA":" ","LANE":"２１巷","ALLEY":" ","HOUSE_NO":"７號四樓","E_COORD97":174297.54000000001,"N_COORD97":2545497.5099999998,"ADDRESS":"國光七街２１巷７號四樓","OBJECTID":393414},"geometry":{"x":174297.54000000097,"y":2545497.5099999998}},{"attributes":{"ID":393439,"DIS_CODE":0,"TOWNNAME":"永康區","LI":"西灣里","LIN":"23鄰","STREET":"國光七街","SECT":" ","MAREA":" ","LANE":"２１巷","ALLEY":" ","HOUSE_NO":"１號七樓","E_COORD97":174301.70000000001,"N_COORD97":2545509.5099999998,"ADDRESS":"國光七街２１巷１號七樓","OBJECTID":393415},"geometry":{"x":174301.70000000112,"y":2545509.5100000016}},{"attributes":{"ID":393440,"DIS_CODE":0,"TOWNNAME":"永康區","LI":"安康里","LIN":"23鄰","STREET":"中華西街","SECT":" ","MAREA":" ","LANE":"１２２巷","ALLEY":" ","HOUSE_NO":"３１號二樓","E_COORD97":170827.29000000001,"N_COORD97":2546218.5099999998,"ADDRESS":"中華西街１２２巷３１號二樓","OBJECTID":393416},"geometry":{"x":170827.29000000097,"y":2546218.5100000016}},{"attributes":{"ID":393441,"DIS_CODE":0,"TOWNNAME":"永康區","LI":"安康里","LIN":"23鄰","STREET":"中華西街","SECT":" ","MAREA":" ","LANE":"１２２巷","ALLEY":" ","HOUSE_NO":"３３號四樓","E_COORD97":170837.79000000001,"N_COORD97":2546218.7599999998,"ADDRESS":"中華西街１２２巷３３號四樓","OBJECTID":393417},"geometry":{"x":170837.79000000097,"y":2546218.7599999998}},{"attributes":{"ID":393442,"DIS_CODE":0,"TOWNNAME":"永康區","LI":"安康里","LIN":"23鄰","STREET":"中華西街","SECT":" ","MAREA":" ","LANE":"１２２巷","ALLEY":" ","HOUSE_NO":"３１號五樓","E_COORD97":170827.29000000001,"N_COORD97":2546218.5099999998,"ADDRESS":"中華西街１２２巷３１號五樓","OBJECTID":393418},"geometry":{"x":170827.29000000097,"y":2546218.5100000016}},{"attributes":{"ID":393443,"DIS_CODE":0,"TOWNNAME":"永康區","LI":"安康里","LIN":"23鄰","STREET":"中華西街","SECT":" ","MAREA":" ","LANE":"１２２巷","ALLEY":" ","HOUSE_NO":"３５號五樓","E_COORD97":170839.85999999999,"N_COORD97":2546236.0099999998,"ADDRESS":"中華西街１２２巷３５號五樓","OBJECTID":393419},"geometry":{"x":170839.86000000034,"y":2546236.0100000016}},{"attributes":{"ID":393444,"DIS_CODE":0,"TOWNNAME":"永康區","LI":"安康里","LIN":"23鄰","STREET":"中華西街","SECT":" ","MAREA":" ","LANE":"１２２巷","ALLEY":" ","HOUSE_NO":"３５號三樓","E_COORD97":170839.85999999999,"N_COORD97":2546236.0099999998,"ADDRESS":"中華西街１２２巷３５號三樓","OBJECTID":393420},"geometry":{"x":170839.86000000034,"y":2546236.0100000016}},{"attributes":{"ID":393445,"DIS_CODE":0,"TOWNNAME":"永康區","LI":"安康里","LIN":"23鄰","STREET":"中華西街","SECT":" ","MAREA":" ","LANE":"１２２巷","ALLEY":" ","HOUSE_NO":"３５號七樓","E_COORD97":170839.85999999999,"N_COORD97":2546236.0099999998,"ADDRESS":"中華西街１２２巷３５號七樓","OBJECTID":393421},"geometry":{"x":170839.86000000034,"y":2546236.0100000016}},{"attributes":{"ID":393446,"DIS_CODE":0,"TOWNNAME":"玉井區","LI":"玉井里","LIN":"16鄰","STREET":"民主街","SECT":" ","MAREA":" ","LANE":"３９巷","ALLEY":" ","HOUSE_NO":"１號","E_COORD97":194867.82999999999,"N_COORD97":2558083.2799999998,"ADDRESS":"民主街３９巷１號","OBJECTID":393422},"geometry":{"x":194867.83000000007,"y":2558083.2799999993}},{"attributes":{"ID":393447,"DIS_CODE":0,"TOWNNAME":"永康區","LI":"三民里","LIN":"11鄰","STREET":"和平路","SECT":" ","MAREA":" ","LANE":"２３０巷","ALLEY":" ","HOUSE_NO":"１１號","E_COORD97":174831.31,"N_COORD97":2550728.6099999999,"ADDRESS":"和平路２３０巷１１號","OBJECTID":393423},"geometry":{"x":174831.31000000052,"y":2550728.6099999994}},{"attributes":{"ID":393448,"DIS_CODE":0,"TOWNNAME":"永康區","LI":"二王里","LIN":"30鄰","STREET":"中山南路","SECT":" ","MAREA":" ","LANE":"５１０巷","ALLEY":" ","HOUSE_NO":"１號之５","E_COORD97":172160.35000000001,"N_COORD97":2546452.6000000001,"ADDRESS":"中山南路５１０巷１號之５","OBJECTID":393424},"geometry":{"x":172160.35000000149,"y":2546452.5999999996}},{"attributes":{"ID":393449,"DIS_CODE":0,"TOWNNAME":"永康區","LI":"三合里","LIN":"10鄰","STREET":"南工街","SECT":" ","MAREA":" ","LANE":"２４７巷","ALLEY":" ","HOUSE_NO":"５３號","E_COORD97":171963.63,"N_COORD97":2545721,"ADDRESS":"南工街２４７巷５３號","OBJECTID":393425},"geometry":{"x":171963.62999999896,"y":2545721.0000000019}},{"attributes":{"ID":393450,"DIS_CODE":0,"TOWNNAME":"永康區","LI":"網寮里","LIN":"23鄰","STREET":"文化路","SECT":" ","MAREA":" ","LANE":"１２８巷","ALLEY":" ","HOUSE_NO":"４號二樓之２","E_COORD97":173903.53,"N_COORD97":2546260,"ADDRESS":"文化路１２８巷４號二樓之２","OBJECTID":393426},"geometry":{"x":173903.53000000026,"y":2546260.0000000019}},{"attributes":{"ID":393451,"DIS_CODE":0,"TOWNNAME":"永康區","LI":"網寮里","LIN":"23鄰","STREET":"文化路","SECT":" ","MAREA":" ","LANE":"１２８巷","ALLEY":" ","HOUSE_NO":"４號七樓之２","E_COORD97":173903.53,"N_COORD97":2546260,"ADDRESS":"文化路１２８巷４號七樓之２","OBJECTID":393427},"geometry":{"x":173903.53000000026,"y":2546260.0000000019}},{"attributes":{"ID":393452,"DIS_CODE":0,"TOWNNAME":"永康區","LI":"安康里","LIN":"23鄰","STREET":"中華西街","SECT":" ","MAREA":" ","LANE":"１２２巷","ALLEY":" ","HOUSE_NO":"３５號六樓","E_COORD97":170839.85999999999,"N_COORD97":2546236.0099999998,"ADDRESS":"中華西街１２２巷３５號六樓","OBJECTID":393428},"geometry":{"x":170839.86000000034,"y":2546236.0100000016}},{"attributes":{"ID":393453,"DIS_CODE":0,"TOWNNAME":"永康區","LI":"網寮里","LIN":"23鄰","STREET":"文化路","SECT":" ","MAREA":" ","LANE":"１２８巷","ALLEY":" ","HOUSE_NO":"４號四樓之３","E_COORD97":173903.48999999999,"N_COORD97":2546260,"ADDRESS":"文化路１２８巷４號四樓之３","OBJECTID":393429},"geometry":{"x":173903.49000000115,"y":2546260.0000000019}},{"attributes":{"ID":393454,"DIS_CODE":0,"TOWNNAME":"永康區","LI":"網寮里","LIN":"23鄰","STREET":"文化路","SECT":" ","MAREA":" ","LANE":"１２８巷","ALLEY":" ","HOUSE_NO":"２號四樓之１","E_COORD97":173906.53,"N_COORD97":2546255.75,"ADDRESS":"文化路１２８巷２號四樓之１","OBJECTID":393430},"geometry":{"x":173906.53000000119,"y":2546255.75}},{"attributes":{"ID":393455,"DIS_CODE":0,"TOWNNAME":"永康區","LI":"網寮里","LIN":"23鄰","STREET":"文化路","SECT":" ","MAREA":" ","LANE":"１２８巷","ALLEY":" ","HOUSE_NO":"２號三樓之１６","E_COORD97":173907.79999999999,"N_COORD97":2546255.75,"ADDRESS":"文化路１２８巷２號三樓之１６","OBJECTID":393431},"geometry":{"x":173907.79999999981,"y":2546255.75}},{"attributes":{"ID":393456,"DIS_CODE":0,"TOWNNAME":"永康區","LI":"網寮里","LIN":"23鄰","STREET":"文化路","SECT":" ","MAREA":" ","LANE":"１２８巷","ALLEY":" ","HOUSE_NO":"２號三樓之６","E_COORD97":173906.63,"N_COORD97":2546255.75,"ADDRESS":"文化路１２８巷２號三樓之６","OBJECTID":393432},"geometry":{"x":173906.63000000082,"y":2546255.75}},{"attributes":{"ID":393457,"DIS_CODE":0,"TOWNNAME":"永康區","LI":"西灣里","LIN":"23鄰","STREET":"國光七街","SECT":" ","MAREA":" ","LANE":"２１巷","ALLEY":" ","HOUSE_NO":"７號九樓","E_COORD97":174297.54000000001,"N_COORD97":2545497.5099999998,"ADDRESS":"國光七街２１巷７號九樓","OBJECTID":393433},"geometry":{"x":174297.54000000097,"y":2545497.5099999998}},{"attributes":{"ID":393458,"DIS_CODE":0,"TOWNNAME":"永康區","LI":"大橋里","LIN":"23鄰","STREET":"大橋一街","SECT":" ","MAREA":" ","LANE":"１８１巷","ALLEY":" ","HOUSE_NO":"１６號五樓之１","E_COORD97":171156.37,"N_COORD97":2546593.29,"ADDRESS":"大橋一街１８１巷１６號五樓之１","OBJECTID":393434},"geometry":{"x":171156.37000000011,"y":2546593.2899999991}},{"attributes":{"ID":393459,"DIS_CODE":0,"TOWNNAME":"永康區","LI":"大橋里","LIN":"23鄰","STREET":"大橋一街","SECT":" ","MAREA":" ","LANE":"１８１巷","ALLEY":" ","HOUSE_NO":"１６號四樓之５","E_COORD97":171156.53,"N_COORD97":2546593.29,"ADDRESS":"大橋一街１８１巷１６號四樓之５","OBJECTID":393435},"geometry":{"x":171156.53000000119,"y":2546593.2899999991}},{"attributes":{"ID":393460,"DIS_CODE":0,"TOWNNAME":"永康區","LI":"安康里","LIN":"23鄰","STREET":"中華西街","SECT":" ","MAREA":" ","LANE":"１２２巷","ALLEY":" ","HOUSE_NO":"４５號一樓之４","E_COORD97":170870.06,"N_COORD97":2546233.7999999998,"ADDRESS":"中華西街１２２巷４５號一樓之４","OBJECTID":393436},"geometry":{"x":170870.05999999959,"y":2546233.8000000045}},{"attributes":{"ID":393461,"DIS_CODE":0,"TOWNNAME":"永康區","LI":"西灣里","LIN":"23鄰","STREET":"國光七街","SECT":" ","MAREA":" ","LANE":"２１巷","ALLEY":" ","HOUSE_NO":"１號五樓","E_COORD97":174301.70000000001,"N_COORD97":2545509.5099999998,"ADDRESS":"國光七街２１巷１號五樓","OBJECTID":393437},"geometry":{"x":174301.70000000112,"y":2545509.5100000016}},{"attributes":{"ID":393462,"DIS_CODE":0,"TOWNNAME":"新營區","LI":"南紙里","LIN":"23鄰","STREET":"南紙街","SECT":" ","MAREA":" ","LANE":"１１７巷","ALLEY":" ","HOUSE_NO":"１６號七樓之２５附１","E_COORD97":177871.06,"N_COORD97":2577436.7999999998,"ADDRESS":"南紙街１１７巷１６號七樓之２５附１","OBJECTID":393438},"geometry":{"x":177871.05999999959,"y":2577436.8000000026}},{"attributes":{"ID":393463,"DIS_CODE":0,"TOWNNAME":"新營區","LI":"南紙里","LIN":"23鄰","STREET":"南紙街","SECT":" ","MAREA":" ","LANE":"１１７巷","ALLEY":" ","HOUSE_NO":"１６號三樓之４","E_COORD97":177867.32999999999,"N_COORD97":2577436.7999999998,"ADDRESS":"南紙街１１７巷１６號三樓之４","OBJECTID":393439},"geometry":{"x":177867.33000000101,"y":2577436.8000000026}},{"attributes":{"ID":393464,"DIS_CODE":0,"TOWNNAME":"新營區","LI":"南紙里","LIN":"23鄰","STREET":"南紙街","SECT":" ","MAREA":" ","LANE":"１１７巷","ALLEY":" ","HOUSE_NO":"１６號七樓之８","E_COORD97":177867.45000000001,"N_COORD97":2577436.7999999998,"ADDRESS":"南紙街１１７巷１６號七樓之８","OBJECTID":393440},"geometry":{"x":177867.45000000019,"y":2577436.8000000026}},{"attributes":{"ID":393465,"DIS_CODE":0,"TOWNNAME":"新營區","LI":"南紙里","LIN":"23鄰","STREET":"南紙街","SECT":" ","MAREA":" ","LANE":"１１７巷","ALLEY":" ","HOUSE_NO":"１６號六樓之１９","E_COORD97":177868.64000000001,"N_COORD97":2577436.7999999998,"ADDRESS":"南紙街１１７巷１６號六樓之１９","OBJECTID":393441},"geometry":{"x":177868.6400000006,"y":2577436.8000000026}},{"attributes":{"ID":393466,"DIS_CODE":0,"TOWNNAME":"新營區","LI":"南紙里","LIN":"23鄰","STREET":"南紙街","SECT":" ","MAREA":" ","LANE":"１１７巷","ALLEY":" ","HOUSE_NO":"１６號七樓之１４","E_COORD97":177868.57999999999,"N_COORD97":2577436.7999999998,"ADDRESS":"南紙街１１７巷１６號七樓之１４","OBJECTID":393442},"geometry":{"x":177868.58000000194,"y":2577436.8000000026}},{"attributes":{"ID":393467,"DIS_CODE":0,"TOWNNAME":"新營區","LI":"南紙里","LIN":"23鄰","STREET":"南紙街","SECT":" ","MAREA":" ","LANE":"１１７巷","ALLEY":" ","HOUSE_NO":"１６號五樓之２１","E_COORD97":177868.56,"N_COORD97":2577436.7999999998,"ADDRESS":"南紙街１１７巷１６號五樓之２１","OBJECTID":393443},"geometry":{"x":177868.56000000052,"y":2577436.8000000026}},{"attributes":{"ID":393468,"DIS_CODE":0,"TOWNNAME":"新營區","LI":"南紙里","LIN":"23鄰","STREET":"南紙街","SECT":" ","MAREA":" ","LANE":"１１７巷","ALLEY":" ","HOUSE_NO":"１６號二樓之１２","E_COORD97":177868.69,"N_COORD97":2577436.7999999998,"ADDRESS":"南紙街１１７巷１６號二樓之１２","OBJECTID":393444},"geometry":{"x":177868.69000000134,"y":2577436.8000000026}},{"attributes":{"ID":393469,"DIS_CODE":0,"TOWNNAME":"新營區","LI":"南紙里","LIN":"23鄰","STREET":"南紙街","SECT":" ","MAREA":" ","LANE":"１１７巷","ALLEY":" ","HOUSE_NO":"１６號三樓之１２","E_COORD97":177868.69,"N_COORD97":2577436.7999999998,"ADDRESS":"南紙街１１７巷１６號三樓之１２","OBJECTID":393445},"geometry":{"x":177868.69000000134,"y":2577436.8000000026}},{"attributes":{"ID":393470,"DIS_CODE":0,"TOWNNAME":"新營區","LI":"南紙里","LIN":"23鄰","STREET":"南紙街","SECT":" ","MAREA":" ","LANE":"１１７巷","ALLEY":" ","HOUSE_NO":"１６號三樓之６","E_COORD97":177867.41,"N_COORD97":2577436.7999999998,"ADDRESS":"南紙街１１７巷１６號三樓之６","OBJECTID":393446},"geometry":{"x":177867.41000000015,"y":2577436.8000000026}},{"attributes":{"ID":393471,"DIS_CODE":0,"TOWNNAME":"新營區","LI":"南紙里","LIN":"23鄰","STREET":"南紙街","SECT":" ","MAREA":" ","LANE":"１１７巷","ALLEY":" ","HOUSE_NO":"１６號三樓之７","E_COORD97":177867.38,"N_COORD97":2577436.7999999998,"ADDRESS":"南紙街１１７巷１６號三樓之７","OBJECTID":393447},"geometry":{"x":177867.37999999989,"y":2577436.8000000026}},{"attributes":{"ID":393472,"DIS_CODE":0,"TOWNNAME":"新營區","LI":"南紙里","LIN":"23鄰","STREET":"南紙街","SECT":" ","MAREA":" ","LANE":"１１７巷","ALLEY":" ","HOUSE_NO":"１６號四樓之３","E_COORD97":177867.39999999999,"N_COORD97":2577436.7999999998,"ADDRESS":"南紙街１１７巷１６號四樓之３","OBJECTID":393448},"geometry":{"x":177867.4000000013,"y":2577436.8000000026}},{"attributes":{"ID":393473,"DIS_CODE":0,"TOWNNAME":"新營區","LI":"南紙里","LIN":"23鄰","STREET":"南紙街","SECT":" ","MAREA":" ","LANE":"１１７巷","ALLEY":" ","HOUSE_NO":"１６號六樓之６","E_COORD97":177867.41,"N_COORD97":2577436.7999999998,"ADDRESS":"南紙街１１７巷１６號六樓之６","OBJECTID":393449},"geometry":{"x":177867.41000000015,"y":2577436.8000000026}},{"attributes":{"ID":393474,"DIS_CODE":0,"TOWNNAME":"新營區","LI":"南紙里","LIN":"23鄰","STREET":"南紙街","SECT":" ","MAREA":" ","LANE":"１１７巷","ALLEY":" ","HOUSE_NO":"１６號三樓之５","E_COORD97":177867.45999999999,"N_COORD97":2577436.7999999998,"ADDRESS":"南紙街１１７巷１６號三樓之５","OBJECTID":393450},"geometry":{"x":177867.45999999996,"y":2577436.8000000026}},{"attributes":{"ID":393475,"DIS_CODE":0,"TOWNNAME":"新營區","LI":"南紙里","LIN":"23鄰","STREET":"南紙街","SECT":" ","MAREA":" ","LANE":"１１７巷","ALLEY":" ","HOUSE_NO":"１６號六樓之７","E_COORD97":177867.38,"N_COORD97":2577436.7999999998,"ADDRESS":"南紙街１１７巷１６號六樓之７","OBJECTID":393451},"geometry":{"x":177867.37999999989,"y":2577436.8000000026}},{"attributes":{"ID":393476,"DIS_CODE":0,"TOWNNAME":"新營區","LI":"南紙里","LIN":"23鄰","STREET":"南紙街","SECT":" ","MAREA":" ","LANE":"１１７巷","ALLEY":" ","HOUSE_NO":"１６號五樓之２４","E_COORD97":177868.57999999999,"N_COORD97":2577436.7999999998,"ADDRESS":"南紙街１１７巷１６號五樓之２４","OBJECTID":393452},"geometry":{"x":177868.58000000194,"y":2577436.8000000026}},{"attributes":{"ID":393477,"DIS_CODE":0,"TOWNNAME":"新營區","LI":"南紙里","LIN":"23鄰","STREET":"南紙街","SECT":" ","MAREA":" ","LANE":"１１７巷","ALLEY":" ","HOUSE_NO":"１６號七樓之４","E_COORD97":177867.32999999999,"N_COORD97":2577436.7999999998,"ADDRESS":"南紙街１１７巷１６號七樓之４","OBJECTID":393453},"geometry":{"x":177867.33000000101,"y":2577436.8000000026}},{"attributes":{"ID":393478,"DIS_CODE":0,"TOWNNAME":"新營區","LI":"南紙里","LIN":"23鄰","STREET":"南紙街","SECT":" ","MAREA":" ","LANE":"１１７巷","ALLEY":" ","HOUSE_NO":"１６號五樓之１３","E_COORD97":177868.64999999999,"N_COORD97":2577436.7999999998,"ADDRESS":"南紙街１１７巷１６號五樓之１３","OBJECTID":393454},"geometry":{"x":177868.6500000013,"y":2577436.8000000026}},{"attributes":{"ID":393479,"DIS_CODE":0,"TOWNNAME":"新營區","LI":"南紙里","LIN":"23鄰","STREET":"南紙街","SECT":" ","MAREA":" ","LANE":"１１７巷","ALLEY":" ","HOUSE_NO":"１６號四樓之１","E_COORD97":177867.31,"N_COORD97":2577436.7999999998,"ADDRESS":"南紙街１１７巷１６號四樓之１","OBJECTID":393455},"geometry":{"x":177867.31000000052,"y":2577436.8000000026}},{"attributes":{"ID":393480,"DIS_CODE":0,"TOWNNAME":"新營區","LI":"南紙里","LIN":"23鄰","STREET":"南紙街","SECT":" ","MAREA":" ","LANE":"１１７巷","ALLEY":" ","HOUSE_NO":"１６號七樓之２１","E_COORD97":177868.56,"N_COORD97":2577436.7999999998,"ADDRESS":"南紙街１１７巷１６號七樓之２１","OBJECTID":393456},"geometry":{"x":177868.56000000052,"y":2577436.8000000026}},{"attributes":{"ID":393481,"DIS_CODE":0,"TOWNNAME":"新營區","LI":"南紙里","LIN":"23鄰","STREET":"南紙街","SECT":" ","MAREA":" ","LANE":"１１７巷","ALLEY":" ","HOUSE_NO":"１６號七樓之１０","E_COORD97":177868.60999999999,"N_COORD97":2577436.7999999998,"ADDRESS":"南紙街１１７巷１６號七樓之１０","OBJECTID":393457},"geometry":{"x":177868.6099999994,"y":2577436.8000000026}},{"attributes":{"ID":393482,"DIS_CODE":0,"TOWNNAME":"新營區","LI":"南紙里","LIN":"23鄰","STREET":"南紙街","SECT":" ","MAREA":" ","LANE":"１１７巷","ALLEY":" ","HOUSE_NO":"１６號七樓之１５","E_COORD97":177868.70999999999,"N_COORD97":2577436.7999999998,"ADDRESS":"南紙街１１７巷１６號七樓之１５","OBJECTID":393458},"geometry":{"x":177868.70999999996,"y":2577436.8000000026}},{"attributes":{"ID":393483,"DIS_CODE":0,"TOWNNAME":"新營區","LI":"南紙里","LIN":"23鄰","STREET":"南紙街","SECT":" ","MAREA":" ","LANE":"１１７巷","ALLEY":" ","HOUSE_NO":"１６號五樓之９","E_COORD97":177867.39000000001,"N_COORD97":2577436.7999999998,"ADDRESS":"南紙街１１７巷１６號五樓之９","OBJECTID":393459},"geometry":{"x":177867.38999999966,"y":2577436.8000000026}},{"attributes":{"ID":393484,"DIS_CODE":0,"TOWNNAME":"新營區","LI":"南紙里","LIN":"23鄰","STREET":"南紙街","SECT":" ","MAREA":" ","LANE":"１１７巷","ALLEY":" ","HOUSE_NO":"１６號三樓之２５","E_COORD97":177868.70999999999,"N_COORD97":2577436.7999999998,"ADDRESS":"南紙街１１７巷１６號三樓之２５","OBJECTID":393460},"geometry":{"x":177868.70999999996,"y":2577436.8000000026}},{"attributes":{"ID":393485,"DIS_CODE":0,"TOWNNAME":"新營區","LI":"南紙里","LIN":"23鄰","STREET":"南紙街","SECT":" ","MAREA":" ","LANE":"１１７巷","ALLEY":" ","HOUSE_NO":"１６號三樓之１６","E_COORD97":177868.66,"N_COORD97":2577436.7999999998,"ADDRESS":"南紙街１１７巷１６號三樓之１６","OBJECTID":393461},"geometry":{"x":177868.66000000108,"y":2577436.8000000026}},{"attributes":{"ID":393486,"DIS_CODE":0,"TOWNNAME":"新營區","LI":"南紙里","LIN":"23鄰","STREET":"南紙街","SECT":" ","MAREA":" ","LANE":"１１７巷","ALLEY":" ","HOUSE_NO":"１６號七樓之２７","E_COORD97":177868.63,"N_COORD97":2577436.7999999998,"ADDRESS":"南紙街１１７巷１６號七樓之２７","OBJECTID":393462},"geometry":{"x":177868.63000000082,"y":2577436.8000000026}},{"attributes":{"ID":393487,"DIS_CODE":0,"TOWNNAME":"新營區","LI":"南紙里","LIN":"23鄰","STREET":"南紙街","SECT":" ","MAREA":" ","LANE":"１１７巷","ALLEY":" ","HOUSE_NO":"１６號六樓之２４","E_COORD97":177868.57999999999,"N_COORD97":2577436.7999999998,"ADDRESS":"南紙街１１７巷１６號六樓之２４","OBJECTID":393463},"geometry":{"x":177868.58000000194,"y":2577436.8000000026}},{"attributes":{"ID":393488,"DIS_CODE":0,"TOWNNAME":"新營區","LI":"南紙里","LIN":"23鄰","STREET":"南紙街","SECT":" ","MAREA":" ","LANE":"１１７巷","ALLEY":" ","HOUSE_NO":"１６號五樓之７","E_COORD97":177867.38,"N_COORD97":2577436.7999999998,"ADDRESS":"南紙街１１７巷１６號五樓之７","OBJECTID":393464},"geometry":{"x":177867.37999999989,"y":2577436.8000000026}},{"attributes":{"ID":393489,"DIS_CODE":0,"TOWNNAME":"新營區","LI":"南紙里","LIN":"23鄰","STREET":"南紙街","SECT":" ","MAREA":" ","LANE":"１１７巷","ALLEY":" ","HOUSE_NO":"１６號二樓之９","E_COORD97":177867.39000000001,"N_COORD97":2577436.7999999998,"ADDRESS":"南紙街１１７巷１６號二樓之９","OBJECTID":393465},"geometry":{"x":177867.38999999966,"y":2577436.8000000026}},{"attributes":{"ID":393490,"DIS_CODE":0,"TOWNNAME":"新營區","LI":"南紙里","LIN":"23鄰","STREET":"南紙街","SECT":" ","MAREA":" ","LANE":"１１７巷","ALLEY":" ","HOUSE_NO":"１６號四樓之７","E_COORD97":177867.38,"N_COORD97":2577436.7999999998,"ADDRESS":"南紙街１１７巷１６號四樓之７","OBJECTID":393466},"geometry":{"x":177867.37999999989,"y":2577436.8000000026}},{"attributes":{"ID":393491,"DIS_CODE":0,"TOWNNAME":"新營區","LI":"南紙里","LIN":"23鄰","STREET":"南紙街","SECT":" ","MAREA":" ","LANE":"１１７巷","ALLEY":" ","HOUSE_NO":"１６號七樓之１８","E_COORD97":177868.70000000001,"N_COORD97":2577436.7999999998,"ADDRESS":"南紙街１１７巷１６號七樓之１８","OBJECTID":393467},"geometry":{"x":177868.70000000112,"y":2577436.8000000026}},{"attributes":{"ID":393492,"DIS_CODE":0,"TOWNNAME":"新營區","LI":"南紙里","LIN":"23鄰","STREET":"南紙街","SECT":" ","MAREA":" ","LANE":"１１７巷","ALLEY":" ","HOUSE_NO":"１６號四樓之２２","E_COORD97":177868.69,"N_COORD97":2577436.7999999998,"ADDRESS":"南紙街１１７巷１６號四樓之２２","OBJECTID":393468},"geometry":{"x":177868.69000000134,"y":2577436.8000000026}},{"attributes":{"ID":393493,"DIS_CODE":0,"TOWNNAME":"新營區","LI":"南紙里","LIN":"23鄰","STREET":"南紙街","SECT":" ","MAREA":" ","LANE":"１１７巷","ALLEY":" ","HOUSE_NO":"１６號四樓之２３","E_COORD97":177868.64999999999,"N_COORD97":2577436.7999999998,"ADDRESS":"南紙街１１７巷１６號四樓之２３","OBJECTID":393469},"geometry":{"x":177868.6500000013,"y":2577436.8000000026}},{"attributes":{"ID":393494,"DIS_CODE":0,"TOWNNAME":"新營區","LI":"南紙里","LIN":"23鄰","STREET":"南紙街","SECT":" ","MAREA":" ","LANE":"１１７巷","ALLEY":" ","HOUSE_NO":"１６號七樓之１９","E_COORD97":177868.64000000001,"N_COORD97":2577436.7999999998,"ADDRESS":"南紙街１１７巷１６號七樓之１９","OBJECTID":393470},"geometry":{"x":177868.6400000006,"y":2577436.8000000026}},{"attributes":{"ID":393495,"DIS_CODE":0,"TOWNNAME":"新營區","LI":"南紙里","LIN":"23鄰","STREET":"南紙街","SECT":" ","MAREA":" ","LANE":"１１７巷","ALLEY":" ","HOUSE_NO":"１６號六樓之２０","E_COORD97":177868.60999999999,"N_COORD97":2577436.7999999998,"ADDRESS":"南紙街１１７巷１６號六樓之２０","OBJECTID":393471},"geometry":{"x":177868.6099999994,"y":2577436.8000000026}},{"attributes":{"ID":393496,"DIS_CODE":0,"TOWNNAME":"南區","LI":"田寮里","LIN":"23鄰","STREET":"西門路","SECT":"一段","MAREA":" ","LANE":"２７９巷","ALLEY":" ","HOUSE_NO":"２０號二樓","E_COORD97":167599.82000000001,"N_COORD97":2541981.73,"ADDRESS":"西門路一段２７９巷２０號二樓","OBJECTID":393472},"geometry":{"x":167599.82000000123,"y":2541981.7300000004}},{"attributes":{"ID":393497,"DIS_CODE":0,"TOWNNAME":"南區","LI":"田寮里","LIN":"23鄰","STREET":"西門路","SECT":"一段","MAREA":" ","LANE":"２７９巷","ALLEY":" ","HOUSE_NO":"２０號三樓","E_COORD97":167599.82000000001,"N_COORD97":2541981.73,"ADDRESS":"西門路一段２７９巷２０號三樓","OBJECTID":393473},"geometry":{"x":167599.82000000123,"y":2541981.7300000004}},{"attributes":{"ID":393498,"DIS_CODE":0,"TOWNNAME":"南區","LI":"田寮里","LIN":"23鄰","STREET":"西門路","SECT":"一段","MAREA":" ","LANE":"２７９巷","ALLEY":" ","HOUSE_NO":"２０號五樓","E_COORD97":167599.82000000001,"N_COORD97":2541981.73,"ADDRESS":"西門路一段２７９巷２０號五樓","OBJECTID":393474},"geometry":{"x":167599.82000000123,"y":2541981.7300000004}},{"attributes":{"ID":393499,"DIS_CODE":0,"TOWNNAME":"南區","LI":"田寮里","LIN":"23鄰","STREET":"西門路","SECT":"一段","MAREA":" ","LANE":"２７９巷","ALLEY":" ","HOUSE_NO":"２０號四樓","E_COORD97":167599.82000000001,"N_COORD97":2541981.73,"ADDRESS":"西門路一段２７９巷２０號四樓","OBJECTID":393475},"geometry":{"x":167599.82000000123,"y":2541981.7300000004}},{"attributes":{"ID":393500,"DIS_CODE":0,"TOWNNAME":"南區","LI":"田寮里","LIN":"23鄰","STREET":"西門路","SECT":"一段","MAREA":" ","LANE":"２７９巷","ALLEY":" ","HOUSE_NO":"１８號二樓","E_COORD97":167615.5,"N_COORD97":2541964.79,"ADDRESS":"西門路一段２７９巷１８號二樓","OBJECTID":393476},"geometry":{"x":167615.50000000093,"y":2541964.790000001}},{"attributes":{"ID":393501,"DIS_CODE":0,"TOWNNAME":"南區","LI":"田寮里","LIN":"23鄰","STREET":"西門路","SECT":"一段","MAREA":" ","LANE":"２７９巷","ALLEY":" ","HOUSE_NO":"１８號三樓","E_COORD97":167615.5,"N_COORD97":2541964.79,"ADDRESS":"西門路一段２７９巷１８號三樓","OBJECTID":393477},"geometry":{"x":167615.50000000093,"y":2541964.790000001}},{"attributes":{"ID":393502,"DIS_CODE":0,"TOWNNAME":"南區","LI":"田寮里","LIN":"23鄰","STREET":"西門路","SECT":"一段","MAREA":" ","LANE":"２７９巷","ALLEY":" ","HOUSE_NO":"１８號五樓","E_COORD97":167615.5,"N_COORD97":2541964.79,"ADDRESS":"西門路一段２７９巷１８號五樓","OBJECTID":393478},"geometry":{"x":167615.50000000093,"y":2541964.790000001}},{"attributes":{"ID":393503,"DIS_CODE":0,"TOWNNAME":"南區","LI":"田寮里","LIN":"23鄰","STREET":"西門路","SECT":"一段","MAREA":" ","LANE":"２７９巷","ALLEY":" ","HOUSE_NO":"１８號四樓","E_COORD97":167615.5,"N_COORD97":2541964.79,"ADDRESS":"西門路一段２７９巷１８號四樓","OBJECTID":393479},"geometry":{"x":167615.50000000093,"y":2541964.790000001}},{"attributes":{"ID":393504,"DIS_CODE":0,"TOWNNAME":"新營區","LI":"南紙里","LIN":"23鄰","STREET":"南紙街","SECT":" ","MAREA":" ","LANE":"１１７巷","ALLEY":" ","HOUSE_NO":"１６號六樓之４","E_COORD97":177867.32999999999,"N_COORD97":2577436.7999999998,"ADDRESS":"南紙街１１７巷１６號六樓之４","OBJECTID":393480},"geometry":{"x":177867.33000000101,"y":2577436.8000000026}},{"attributes":{"ID":393505,"DIS_CODE":0,"TOWNNAME":"新營區","LI":"南紙里","LIN":"23鄰","STREET":"南紙街","SECT":" ","MAREA":" ","LANE":"１１７巷","ALLEY":" ","HOUSE_NO":"１６號六樓之２７","E_COORD97":177868.63,"N_COORD97":2577436.7999999998,"ADDRESS":"南紙街１１７巷１６號六樓之２７","OBJECTID":393481},"geometry":{"x":177868.63000000082,"y":2577436.8000000026}},{"attributes":{"ID":393506,"DIS_CODE":0,"TOWNNAME":"新營區","LI":"南紙里","LIN":"23鄰","STREET":"南紙街","SECT":" ","MAREA":" ","LANE":"１１７巷","ALLEY":" ","HOUSE_NO":"１６號六樓之２５","E_COORD97":177868.70999999999,"N_COORD97":2577436.7999999998,"ADDRESS":"南紙街１１７巷１６號六樓之２５","OBJECTID":393482},"geometry":{"x":177868.70999999996,"y":2577436.8000000026}},{"attributes":{"ID":393507,"DIS_CODE":0,"TOWNNAME":"新營區","LI":"南紙里","LIN":"23鄰","STREET":"南紙街","SECT":" ","MAREA":" ","LANE":"１１７巷","ALLEY":" ","HOUSE_NO":"１６號六樓之９","E_COORD97":177867.39000000001,"N_COORD97":2577436.7999999998,"ADDRESS":"南紙街１１７巷１６號六樓之９","OBJECTID":393483},"geometry":{"x":177867.38999999966,"y":2577436.8000000026}},{"attributes":{"ID":393508,"DIS_CODE":0,"TOWNNAME":"新營區","LI":"南紙里","LIN":"23鄰","STREET":"南紙街","SECT":" ","MAREA":" ","LANE":"１１７巷","ALLEY":" ","HOUSE_NO":"１６號六樓之８","E_COORD97":177867.45000000001,"N_COORD97":2577436.7999999998,"ADDRESS":"南紙街１１７巷１６號六樓之８","OBJECTID":393484},"geometry":{"x":177867.45000000019,"y":2577436.8000000026}},{"attributes":{"ID":393509,"DIS_CODE":0,"TOWNNAME":"新營區","LI":"南紙里","LIN":"23鄰","STREET":"南紙街","SECT":" ","MAREA":" ","LANE":"１１７巷","ALLEY":" ","HOUSE_NO":"１６號六樓之２２","E_COORD97":177868.69,"N_COORD97":2577436.7999999998,"ADDRESS":"南紙街１１７巷１６號六樓之２２","OBJECTID":393485},"geometry":{"x":177868.69000000134,"y":2577436.8000000026}},{"attributes":{"ID":393510,"DIS_CODE":0,"TOWNNAME":"新營區","LI":"南紙里","LIN":"23鄰","STREET":"南紙街","SECT":" ","MAREA":" ","LANE":"１１７巷","ALLEY":" ","HOUSE_NO":"１６號六樓之１６","E_COORD97":177868.66,"N_COORD97":2577436.7999999998,"ADDRESS":"南紙街１１７巷１６號六樓之１６","OBJECTID":393486},"geometry":{"x":177868.66000000108,"y":2577436.8000000026}},{"attributes":{"ID":393511,"DIS_CODE":0,"TOWNNAME":"新營區","LI":"南紙里","LIN":"23鄰","STREET":"南紙街","SECT":" ","MAREA":" ","LANE":"１１７巷","ALLEY":" ","HOUSE_NO":"１６號六樓之３","E_COORD97":177867.39999999999,"N_COORD97":2577436.7999999998,"ADDRESS":"南紙街１１７巷１６號六樓之３","OBJECTID":393487},"geometry":{"x":177867.4000000013,"y":2577436.8000000026}},{"attributes":{"ID":393512,"DIS_CODE":0,"TOWNNAME":"新營區","LI":"南紙里","LIN":"23鄰","STREET":"南紙街","SECT":" ","MAREA":" ","LANE":"１１７巷","ALLEY":" ","HOUSE_NO":"１６號五樓之３","E_COORD97":177867.39999999999,"N_COORD97":2577436.7999999998,"ADDRESS":"南紙街１１７巷１６號五樓之３","OBJECTID":393488},"geometry":{"x":177867.4000000013,"y":2577436.8000000026}},{"attributes":{"ID":393513,"DIS_CODE":0,"TOWNNAME":"新營區","LI":"南紙里","LIN":"23鄰","STREET":"南紙街","SECT":" ","MAREA":" ","LANE":"１１７巷","ALLEY":" ","HOUSE_NO":"１６號五樓之６","E_COORD97":177867.41,"N_COORD97":2577436.7999999998,"ADDRESS":"南紙街１１７巷１６號五樓之６","OBJECTID":393489},"geometry":{"x":177867.41000000015,"y":2577436.8000000026}},{"attributes":{"ID":393514,"DIS_CODE":0,"TOWNNAME":"新營區","LI":"南紙里","LIN":"23鄰","STREET":"南紙街","SECT":" ","MAREA":" ","LANE":"１１７巷","ALLEY":" ","HOUSE_NO":"１６號五樓之２０","E_COORD97":177868.60999999999,"N_COORD97":2577436.7999999998,"ADDRESS":"南紙街１１７巷１６號五樓之２０","OBJECTID":393490},"geometry":{"x":177868.6099999994,"y":2577436.8000000026}},{"attributes":{"ID":393515,"DIS_CODE":0,"TOWNNAME":"新營區","LI":"南紙里","LIN":"23鄰","STREET":"南紙街","SECT":" ","MAREA":" ","LANE":"１１７巷","ALLEY":" ","HOUSE_NO":"１６號六樓之１５","E_COORD97":177868.70999999999,"N_COORD97":2577436.7999999998,"ADDRESS":"南紙街１１７巷１６號六樓之１５","OBJECTID":393491},"geometry":{"x":177868.70999999996,"y":2577436.8000000026}},{"attributes":{"ID":393516,"DIS_CODE":0,"TOWNNAME":"新營區","LI":"南紙里","LIN":"23鄰","STREET":"南紙街","SECT":" ","MAREA":" ","LANE":"１１７巷","ALLEY":" ","HOUSE_NO":"１６號五樓之２２","E_COORD97":177868.69,"N_COORD97":2577436.7999999998,"ADDRESS":"南紙街１１７巷１６號五樓之２２","OBJECTID":393492},"geometry":{"x":177868.69000000134,"y":2577436.8000000026}},{"attributes":{"ID":393517,"DIS_CODE":0,"TOWNNAME":"新營區","LI":"南紙里","LIN":"23鄰","STREET":"南紙街","SECT":" ","MAREA":" ","LANE":"１１７巷","ALLEY":" ","HOUSE_NO":"１６號五樓之２６","E_COORD97":177868.66,"N_COORD97":2577436.7999999998,"ADDRESS":"南紙街１１７巷１６號五樓之２６","OBJECTID":393493},"geometry":{"x":177868.66000000108,"y":2577436.8000000026}},{"attributes":{"ID":393518,"DIS_CODE":0,"TOWNNAME":"新營區","LI":"南紙里","LIN":"23鄰","STREET":"南紙街","SECT":" ","MAREA":" ","LANE":"１１７巷","ALLEY":" ","HOUSE_NO":"１６號五樓之１１","E_COORD97":177868.56,"N_COORD97":2577436.7999999998,"ADDRESS":"南紙街１１７巷１６號五樓之１１","OBJECTID":393494},"geometry":{"x":177868.56000000052,"y":2577436.8000000026}},{"attributes":{"ID":393519,"DIS_CODE":0,"TOWNNAME":"新營區","LI":"南紙里","LIN":"23鄰","STREET":"南紙街","SECT":" ","MAREA":" ","LANE":"１１７巷","ALLEY":" ","HOUSE_NO":"１６號六樓之１３","E_COORD97":177868.64999999999,"N_COORD97":2577436.7999999998,"ADDRESS":"南紙街１１７巷１６號六樓之１３","OBJECTID":393495},"geometry":{"x":177868.6500000013,"y":2577436.8000000026}},{"attributes":{"ID":393520,"DIS_CODE":0,"TOWNNAME":"新營區","LI":"南紙里","LIN":"23鄰","STREET":"南紙街","SECT":" ","MAREA":" ","LANE":"１１７巷","ALLEY":" ","HOUSE_NO":"１６號五樓之１０","E_COORD97":177868.60999999999,"N_COORD97":2577436.7999999998,"ADDRESS":"南紙街１１７巷１６號五樓之１０","OBJECTID":393496},"geometry":{"x":177868.6099999994,"y":2577436.8000000026}},{"attributes":{"ID":393521,"DIS_CODE":0,"TOWNNAME":"新營區","LI":"南紙里","LIN":"23鄰","STREET":"南紙街","SECT":" ","MAREA":" ","LANE":"１１７巷","ALLEY":" ","HOUSE_NO":"１６號二樓之５","E_COORD97":177867.45999999999,"N_COORD97":2577436.7999999998,"ADDRESS":"南紙街１１７巷１６號二樓之５","OBJECTID":393497},"geometry":{"x":177867.45999999996,"y":2577436.8000000026}},{"attributes":{"ID":393522,"DIS_CODE":0,"TOWNNAME":"新營區","LI":"南紙里","LIN":"23鄰","STREET":"南紙街","SECT":" ","MAREA":" ","LANE":"１１７巷","ALLEY":" ","HOUSE_NO":"１６號六樓之２","E_COORD97":177867.44,"N_COORD97":2577436.7999999998,"ADDRESS":"南紙街１１７巷１６號六樓之２","OBJECTID":393498},"geometry":{"x":177867.44000000041,"y":2577436.8000000026}},{"attributes":{"ID":393523,"DIS_CODE":0,"TOWNNAME":"新營區","LI":"南紙里","LIN":"23鄰","STREET":"南紙街","SECT":" ","MAREA":" ","LANE":"１１７巷","ALLEY":" ","HOUSE_NO":"１６號七樓之７","E_COORD97":177867.38,"N_COORD97":2577436.7999999998,"ADDRESS":"南紙街１１７巷１６號七樓之７","OBJECTID":393499},"geometry":{"x":177867.37999999989,"y":2577436.8000000026}},{"attributes":{"ID":393524,"DIS_CODE":0,"TOWNNAME":"新營區","LI":"南紙里","LIN":"23鄰","STREET":"南紙街","SECT":" ","MAREA":" ","LANE":"１１７巷","ALLEY":" ","HOUSE_NO":"１６號六樓之２１","E_COORD97":177868.56,"N_COORD97":2577436.7999999998,"ADDRESS":"南紙街１１７巷１６號六樓之２１","OBJECTID":393500},"geometry":{"x":177868.56000000052,"y":2577436.8000000026}},{"attributes":{"ID":393525,"DIS_CODE":0,"TOWNNAME":"新營區","LI":"南紙里","LIN":"23鄰","STREET":"南紙街","SECT":" ","MAREA":" ","LANE":"１１７巷","ALLEY":" ","HOUSE_NO":"１６號二樓之１３","E_COORD97":177868.64999999999,"N_COORD97":2577436.7999999998,"ADDRESS":"南紙街１１７巷１６號二樓之１３","OBJECTID":393501},"geometry":{"x":177868.6500000013,"y":2577436.8000000026}},{"attributes":{"ID":393526,"DIS_CODE":0,"TOWNNAME":"新營區","LI":"南紙里","LIN":"23鄰","STREET":"南紙街","SECT":" ","MAREA":" ","LANE":"１１７巷","ALLEY":" ","HOUSE_NO":"１６號五樓之２","E_COORD97":177867.44,"N_COORD97":2577436.7999999998,"ADDRESS":"南紙街１１７巷１６號五樓之２","OBJECTID":393502},"geometry":{"x":177867.44000000041,"y":2577436.8000000026}},{"attributes":{"ID":393527,"DIS_CODE":0,"TOWNNAME":"新營區","LI":"南紙里","LIN":"23鄰","STREET":"南紙街","SECT":" ","MAREA":" ","LANE":"１１７巷","ALLEY":" ","HOUSE_NO":"１６號二樓之１","E_COORD97":177867.31,"N_COORD97":2577436.7999999998,"ADDRESS":"南紙街１１７巷１６號二樓之１","OBJECTID":393503},"geometry":{"x":177867.31000000052,"y":2577436.8000000026}},{"attributes":{"ID":393528,"DIS_CODE":0,"TOWNNAME":"新營區","LI":"南紙里","LIN":"23鄰","STREET":"南紙街","SECT":" ","MAREA":" ","LANE":"１１７巷","ALLEY":" ","HOUSE_NO":"１６號二樓之１０","E_COORD97":177868.60999999999,"N_COORD97":2577436.7999999998,"ADDRESS":"南紙街１１７巷１６號二樓之１０","OBJECTID":393504},"geometry":{"x":177868.6099999994,"y":2577436.8000000026}},{"attributes":{"ID":393529,"DIS_CODE":0,"TOWNNAME":"新營區","LI":"南紙里","LIN":"23鄰","STREET":"南紙街","SECT":" ","MAREA":" ","LANE":"１１７巷","ALLEY":" ","HOUSE_NO":"１６號七樓之６","E_COORD97":177867.41,"N_COORD97":2577436.7999999998,"ADDRESS":"南紙街１１７巷１６號七樓之６","OBJECTID":393505},"geometry":{"x":177867.41000000015,"y":2577436.8000000026}},{"attributes":{"ID":393530,"DIS_CODE":0,"TOWNNAME":"新營區","LI":"南紙里","LIN":"23鄰","STREET":"南紙街","SECT":" ","MAREA":" ","LANE":"１１７巷","ALLEY":" ","HOUSE_NO":"１６號七樓之１６","E_COORD97":177868.66,"N_COORD97":2577436.7999999998,"ADDRESS":"南紙街１１７巷１６號七樓之１６","OBJECTID":393506},"geometry":{"x":177868.66000000108,"y":2577436.8000000026}},{"attributes":{"ID":393531,"DIS_CODE":0,"TOWNNAME":"新營區","LI":"南紙里","LIN":"23鄰","STREET":"南紙街","SECT":" ","MAREA":" ","LANE":"１１７巷","ALLEY":" ","HOUSE_NO":"１６號七樓之２２","E_COORD97":177868.69,"N_COORD97":2577436.7999999998,"ADDRESS":"南紙街１１７巷１６號七樓之２２","OBJECTID":393507},"geometry":{"x":177868.69000000134,"y":2577436.8000000026}},{"attributes":{"ID":393532,"DIS_CODE":0,"TOWNNAME":"新營區","LI":"南紙里","LIN":"23鄰","STREET":"南紙街","SECT":" ","MAREA":" ","LANE":"１１７巷","ALLEY":" ","HOUSE_NO":"１６號七樓之１７","E_COORD97":177868.63,"N_COORD97":2577436.7999999998,"ADDRESS":"南紙街１１７巷１６號七樓之１７","OBJECTID":393508},"geometry":{"x":177868.63000000082,"y":2577436.8000000026}},{"attributes":{"ID":393533,"DIS_CODE":0,"TOWNNAME":"新營區","LI":"南紙里","LIN":"23鄰","STREET":"南紙街","SECT":" ","MAREA":" ","LANE":"１１７巷","ALLEY":" ","HOUSE_NO":"１６號二樓之１１","E_COORD97":177868.56,"N_COORD97":2577436.7999999998,"ADDRESS":"南紙街１１７巷１６號二樓之１１","OBJECTID":393509},"geometry":{"x":177868.56000000052,"y":2577436.8000000026}},{"attributes":{"ID":393534,"DIS_CODE":0,"TOWNNAME":"新營區","LI":"南紙里","LIN":"23鄰","STREET":"南紙街","SECT":" ","MAREA":" ","LANE":"１１７巷","ALLEY":" ","HOUSE_NO":"１６號七樓之９","E_COORD97":177867.39000000001,"N_COORD97":2577436.7999999998,"ADDRESS":"南紙街１１７巷１６號七樓之９","OBJECTID":393510},"geometry":{"x":177867.38999999966,"y":2577436.8000000026}},{"attributes":{"ID":393535,"DIS_CODE":0,"TOWNNAME":"新營區","LI":"南紙里","LIN":"23鄰","STREET":"南紙街","SECT":" ","MAREA":" ","LANE":"１１７巷","ALLEY":" ","HOUSE_NO":"１６號五樓之１２","E_COORD97":177868.69,"N_COORD97":2577436.7999999998,"ADDRESS":"南紙街１１７巷１６號五樓之１２","OBJECTID":393511},"geometry":{"x":177868.69000000134,"y":2577436.8000000026}},{"attributes":{"ID":393536,"DIS_CODE":0,"TOWNNAME":"新營區","LI":"南紙里","LIN":"23鄰","STREET":"南紙街","SECT":" ","MAREA":" ","LANE":"１１７巷","ALLEY":" ","HOUSE_NO":"１６號五樓之２５","E_COORD97":177868.70999999999,"N_COORD97":2577436.7999999998,"ADDRESS":"南紙街１１７巷１６號五樓之２５","OBJECTID":393512},"geometry":{"x":177868.70999999996,"y":2577436.8000000026}},{"attributes":{"ID":393537,"DIS_CODE":0,"TOWNNAME":"新營區","LI":"南紙里","LIN":"23鄰","STREET":"南紙街","SECT":" ","MAREA":" ","LANE":"１１７巷","ALLEY":" ","HOUSE_NO":"１６號五樓之１８","E_COORD97":177868.70000000001,"N_COORD97":2577436.7999999998,"ADDRESS":"南紙街１１７巷１６號五樓之１８","OBJECTID":393513},"geometry":{"x":177868.70000000112,"y":2577436.8000000026}},{"attributes":{"ID":393538,"DIS_CODE":0,"TOWNNAME":"新營區","LI":"南紙里","LIN":"23鄰","STREET":"南紙街","SECT":" ","MAREA":" ","LANE":"１１７巷","ALLEY":" ","HOUSE_NO":"１６號六樓之１４","E_COORD97":177868.57999999999,"N_COORD97":2577436.7999999998,"ADDRESS":"南紙街１１７巷１６號六樓之１４","OBJECTID":393514},"geometry":{"x":177868.58000000194,"y":2577436.8000000026}},{"attributes":{"ID":393539,"DIS_CODE":0,"TOWNNAME":"新營區","LI":"南紙里","LIN":"23鄰","STREET":"南紙街","SECT":" ","MAREA":" ","LANE":"１１７巷","ALLEY":" ","HOUSE_NO":"１６號五樓之１５","E_COORD97":177868.70999999999,"N_COORD97":2577436.7999999998,"ADDRESS":"南紙街１１７巷１６號五樓之１５","OBJECTID":393515},"geometry":{"x":177868.70999999996,"y":2577436.8000000026}},{"attributes":{"ID":393540,"DIS_CODE":0,"TOWNNAME":"新營區","LI":"南紙里","LIN":"23鄰","STREET":"南紙街","SECT":" ","MAREA":" ","LANE":"１１７巷","ALLEY":" ","HOUSE_NO":"１６號三樓之８","E_COORD97":177867.45000000001,"N_COORD97":2577436.7999999998,"ADDRESS":"南紙街１１７巷１６號三樓之８","OBJECTID":393516},"geometry":{"x":177867.45000000019,"y":2577436.8000000026}},{"attributes":{"ID":393541,"DIS_CODE":0,"TOWNNAME":"新營區","LI":"南紙里","LIN":"23鄰","STREET":"南紙街","SECT":" ","MAREA":" ","LANE":"１１７巷","ALLEY":" ","HOUSE_NO":"１６號三樓之９","E_COORD97":177867.39000000001,"N_COORD97":2577436.7999999998,"ADDRESS":"南紙街１１７巷１６號三樓之９","OBJECTID":393517},"geometry":{"x":177867.38999999966,"y":2577436.8000000026}},{"attributes":{"ID":393542,"DIS_CODE":0,"TOWNNAME":"新營區","LI":"南紙里","LIN":"23鄰","STREET":"南紙街","SECT":" ","MAREA":" ","LANE":"１１７巷","ALLEY":" ","HOUSE_NO":"１６號五樓之５","E_COORD97":177867.45999999999,"N_COORD97":2577436.7999999998,"ADDRESS":"南紙街１１７巷１６號五樓之５","OBJECTID":393518},"geometry":{"x":177867.45999999996,"y":2577436.8000000026}},{"attributes":{"ID":393543,"DIS_CODE":0,"TOWNNAME":"新營區","LI":"南紙里","LIN":"23鄰","STREET":"南紙街","SECT":" ","MAREA":" ","LANE":"１１７巷","ALLEY":" ","HOUSE_NO":"１６號六樓之１１","E_COORD97":177868.56,"N_COORD97":2577436.7999999998,"ADDRESS":"南紙街１１７巷１６號六樓之１１","OBJECTID":393519},"geometry":{"x":177868.56000000052,"y":2577436.8000000026}},{"attributes":{"ID":393544,"DIS_CODE":0,"TOWNNAME":"新營區","LI":"南紙里","LIN":"23鄰","STREET":"南紙街","SECT":" ","MAREA":" ","LANE":"１１７巷","ALLEY":" ","HOUSE_NO":"１６號五樓之１４","E_COORD97":177868.57999999999,"N_COORD97":2577436.7999999998,"ADDRESS":"南紙街１１７巷１６號五樓之１４","OBJECTID":393520},"geometry":{"x":177868.58000000194,"y":2577436.8000000026}},{"attributes":{"ID":393545,"DIS_CODE":0,"TOWNNAME":"新營區","LI":"南紙里","LIN":"23鄰","STREET":"南紙街","SECT":" ","MAREA":" ","LANE":"１１７巷","ALLEY":" ","HOUSE_NO":"１６號六樓之１２","E_COORD97":177868.69,"N_COORD97":2577436.7999999998,"ADDRESS":"南紙街１１７巷１６號六樓之１２","OBJECTID":393521},"geometry":{"x":177868.69000000134,"y":2577436.8000000026}},{"attributes":{"ID":393546,"DIS_CODE":0,"TOWNNAME":"新營區","LI":"南紙里","LIN":"23鄰","STREET":"南紙街","SECT":" ","MAREA":" ","LANE":"１１７巷","ALLEY":" ","HOUSE_NO":"１６號七樓之１","E_COORD97":177867.31,"N_COORD97":2577436.7999999998,"ADDRESS":"南紙街１１７巷１６號七樓之１","OBJECTID":393522},"geometry":{"x":177867.31000000052,"y":2577436.8000000026}},{"attributes":{"ID":393547,"DIS_CODE":0,"TOWNNAME":"新營區","LI":"南紙里","LIN":"23鄰","STREET":"南紙街","SECT":" ","MAREA":" ","LANE":"１１７巷","ALLEY":" ","HOUSE_NO":"１６號四樓之１８","E_COORD97":177868.70000000001,"N_COORD97":2577436.7999999998,"ADDRESS":"南紙街１１７巷１６號四樓之１８","OBJECTID":393523},"geometry":{"x":177868.70000000112,"y":2577436.8000000026}},{"attributes":{"ID":393548,"DIS_CODE":0,"TOWNNAME":"新營區","LI":"南紙里","LIN":"23鄰","STREET":"南紙街","SECT":" ","MAREA":" ","LANE":"１１７巷","ALLEY":" ","HOUSE_NO":"１６號四樓之４","E_COORD97":177867.32999999999,"N_COORD97":2577436.7999999998,"ADDRESS":"南紙街１１７巷１６號四樓之４","OBJECTID":393524},"geometry":{"x":177867.33000000101,"y":2577436.8000000026}},{"attributes":{"ID":393549,"DIS_CODE":0,"TOWNNAME":"新營區","LI":"南紙里","LIN":"23鄰","STREET":"南紙街","SECT":" ","MAREA":" ","LANE":"１１７巷","ALLEY":" ","HOUSE_NO":"１６號七樓之３","E_COORD97":177867.39999999999,"N_COORD97":2577436.7999999998,"ADDRESS":"南紙街１１７巷１６號七樓之３","OBJECTID":393525},"geometry":{"x":177867.4000000013,"y":2577436.8000000026}},{"attributes":{"ID":393550,"DIS_CODE":0,"TOWNNAME":"鹽水區","LI":"橋南里","LIN":"23鄰","STREET":"四維路","SECT":" ","MAREA":" ","LANE":"２００巷","ALLEY":" ","HOUSE_NO":"１１號一樓之１","E_COORD97":175642.76000000001,"N_COORD97":2578695.46,"ADDRESS":"四維路２００巷１１號一樓之１","OBJECTID":393526},"geometry":{"x":175642.75999999978,"y":2578695.4600000046}},{"attributes":{"ID":393551,"DIS_CODE":0,"TOWNNAME":"鹽水區","LI":"橋南里","LIN":"23鄰","STREET":"四維路","SECT":" ","MAREA":" ","LANE":"２００巷","ALLEY":" ","HOUSE_NO":"１１號三樓","E_COORD97":175642.76000000001,"N_COORD97":2578695.46,"ADDRESS":"四維路２００巷１１號三樓","OBJECTID":393527},"geometry":{"x":175642.75999999978,"y":2578695.4600000046}},{"attributes":{"ID":393552,"DIS_CODE":0,"TOWNNAME":"鹽水區","LI":"橋南里","LIN":"23鄰","STREET":"四維路","SECT":" ","MAREA":" ","LANE":"２００巷","ALLEY":" ","HOUSE_NO":"１１號五樓之５","E_COORD97":175642.76000000001,"N_COORD97":2578695.46,"ADDRESS":"四維路２００巷１１號五樓之５","OBJECTID":393528},"geometry":{"x":175642.75999999978,"y":2578695.4600000046}},{"attributes":{"ID":393553,"DIS_CODE":0,"TOWNNAME":"鹽水區","LI":"橋南里","LIN":"23鄰","STREET":"四維路","SECT":" ","MAREA":" ","LANE":"２００巷","ALLEY":" ","HOUSE_NO":"１１號四樓之３","E_COORD97":175642.76000000001,"N_COORD97":2578695.46,"ADDRESS":"四維路２００巷１１號四樓之３","OBJECTID":393529},"geometry":{"x":175642.75999999978,"y":2578695.4600000046}},{"attributes":{"ID":393554,"DIS_CODE":0,"TOWNNAME":"安平區","LI":"平安里","LIN":"23鄰","STREET":"安平路","SECT":" ","MAREA":" ","LANE":"４４６巷","ALLEY":" ","HOUSE_NO":"３０號二樓之１","E_COORD97":165297.95000000001,"N_COORD97":2544403.54,"ADDRESS":"安平路４４６巷３０號二樓之１","OBJECTID":393530},"geometry":{"x":165297.95000000019,"y":2544403.540000001}},{"attributes":{"ID":393555,"DIS_CODE":0,"TOWNNAME":"安平區","LI":"平安里","LIN":"23鄰","STREET":"安平路","SECT":" ","MAREA":" ","LANE":"４４６巷","ALLEY":" ","HOUSE_NO":"３０號三樓之１","E_COORD97":165297.95000000001,"N_COORD97":2544403.54,"ADDRESS":"安平路４４６巷３０號三樓之１","OBJECTID":393531},"geometry":{"x":165297.95000000019,"y":2544403.540000001}},{"attributes":{"ID":393556,"DIS_CODE":0,"TOWNNAME":"安平區","LI":"平安里","LIN":"23鄰","STREET":"安平路","SECT":" ","MAREA":" ","LANE":"４４６巷","ALLEY":" ","HOUSE_NO":"３０號三樓之２","E_COORD97":165297.95000000001,"N_COORD97":2544403.54,"ADDRESS":"安平路４４６巷３０號三樓之２","OBJECTID":393532},"geometry":{"x":165297.95000000019,"y":2544403.540000001}},{"attributes":{"ID":393557,"DIS_CODE":0,"TOWNNAME":"安平區","LI":"平安里","LIN":"23鄰","STREET":"安平路","SECT":" ","MAREA":" ","LANE":"４４６巷","ALLEY":" ","HOUSE_NO":"３０號五樓之１","E_COORD97":165297.95000000001,"N_COORD97":2544403.54,"ADDRESS":"安平路４４６巷３０號五樓之１","OBJECTID":393533},"geometry":{"x":165297.95000000019,"y":2544403.540000001}},{"attributes":{"ID":393558,"DIS_CODE":0,"TOWNNAME":"安平區","LI":"平安里","LIN":"23鄰","STREET":"安平路","SECT":" ","MAREA":" ","LANE":"４４６巷","ALLEY":" ","HOUSE_NO":"３０號五樓之２","E_COORD97":165297.95000000001,"N_COORD97":2544403.54,"ADDRESS":"安平路４４６巷３０號五樓之２","OBJECTID":393534},"geometry":{"x":165297.95000000019,"y":2544403.540000001}},{"attributes":{"ID":393559,"DIS_CODE":0,"TOWNNAME":"安平區","LI":"平安里","LIN":"23鄰","STREET":"安平路","SECT":" ","MAREA":" ","LANE":"４４６巷","ALLEY":" ","HOUSE_NO":"３０號四樓之１","E_COORD97":165297.95000000001,"N_COORD97":2544403.54,"ADDRESS":"安平路４４６巷３０號四樓之１","OBJECTID":393535},"geometry":{"x":165297.95000000019,"y":2544403.540000001}},{"attributes":{"ID":393560,"DIS_CODE":0,"TOWNNAME":"安平區","LI":"平安里","LIN":"23鄰","STREET":"安平路","SECT":" ","MAREA":" ","LANE":"４４６巷","ALLEY":" ","HOUSE_NO":"３０號四樓之２","E_COORD97":165297.95000000001,"N_COORD97":2544403.54,"ADDRESS":"安平路４４６巷３０號四樓之２","OBJECTID":393536},"geometry":{"x":165297.95000000019,"y":2544403.540000001}},{"attributes":{"ID":393561,"DIS_CODE":0,"TOWNNAME":"安平區","LI":"平安里","LIN":"23鄰","STREET":"安平路","SECT":" ","MAREA":" ","LANE":"４４６巷","ALLEY":" ","HOUSE_NO":"４２號四樓之２","E_COORD97":165344.60999999999,"N_COORD97":2544419.3799999999,"ADDRESS":"安平路４４６巷４２號四樓之２","OBJECTID":393537},"geometry":{"x":165344.6100000022,"y":2544419.379999999}},{"attributes":{"ID":393562,"DIS_CODE":0,"TOWNNAME":"新營區","LI":"南紙里","LIN":"23鄰","STREET":"南紙街","SECT":" ","MAREA":" ","LANE":"１１７巷","ALLEY":" ","HOUSE_NO":"１６號四樓之２８","E_COORD97":177868.70000000001,"N_COORD97":2577436.7999999998,"ADDRESS":"南紙街１１７巷１６號四樓之２８","OBJECTID":393538},"geometry":{"x":177868.70000000112,"y":2577436.8000000026}},{"attributes":{"ID":393563,"DIS_CODE":0,"TOWNNAME":"新營區","LI":"南紙里","LIN":"23鄰","STREET":"南紙街","SECT":" ","MAREA":" ","LANE":"１１７巷","ALLEY":" ","HOUSE_NO":"１６號四樓之２６","E_COORD97":177868.66,"N_COORD97":2577436.7999999998,"ADDRESS":"南紙街１１７巷１６號四樓之２６","OBJECTID":393539},"geometry":{"x":177868.66000000108,"y":2577436.8000000026}},{"attributes":{"ID":393564,"DIS_CODE":0,"TOWNNAME":"新營區","LI":"南紙里","LIN":"23鄰","STREET":"南紙街","SECT":" ","MAREA":" ","LANE":"１１７巷","ALLEY":" ","HOUSE_NO":"１６號三樓之２７","E_COORD97":177868.63,"N_COORD97":2577436.7999999998,"ADDRESS":"南紙街１１７巷１６號三樓之２７","OBJECTID":393540},"geometry":{"x":177868.63000000082,"y":2577436.8000000026}},{"attributes":{"ID":393565,"DIS_CODE":0,"TOWNNAME":"新營區","LI":"南紙里","LIN":"23鄰","STREET":"南紙街","SECT":" ","MAREA":" ","LANE":"１１７巷","ALLEY":" ","HOUSE_NO":"１６號四樓之２７","E_COORD97":177868.63,"N_COORD97":2577436.7999999998,"ADDRESS":"南紙街１１７巷１６號四樓之２７","OBJECTID":393541},"geometry":{"x":177868.63000000082,"y":2577436.8000000026}},{"attributes":{"ID":393566,"DIS_CODE":0,"TOWNNAME":"新營區","LI":"南紙里","LIN":"23鄰","STREET":"南紙街","SECT":" ","MAREA":" ","LANE":"１１７巷","ALLEY":" ","HOUSE_NO":"１６號四樓之２１","E_COORD97":177868.56,"N_COORD97":2577436.7999999998,"ADDRESS":"南紙街１１７巷１６號四樓之２１","OBJECTID":393542},"geometry":{"x":177868.56000000052,"y":2577436.8000000026}},{"attributes":{"ID":393567,"DIS_CODE":0,"TOWNNAME":"新營區","LI":"南紙里","LIN":"23鄰","STREET":"南紙街","SECT":" ","MAREA":" ","LANE":"１１７巷","ALLEY":" ","HOUSE_NO":"１６號三樓之２２","E_COORD97":177868.69,"N_COORD97":2577436.7999999998,"ADDRESS":"南紙街１１７巷１６號三樓之２２","OBJECTID":393543},"geometry":{"x":177868.69000000134,"y":2577436.8000000026}},{"attributes":{"ID":393568,"DIS_CODE":0,"TOWNNAME":"新營區","LI":"南紙里","LIN":"23鄰","STREET":"南紙街","SECT":" ","MAREA":" ","LANE":"１１７巷","ALLEY":" ","HOUSE_NO":"１６號四樓之１７","E_COORD97":177868.63,"N_COORD97":2577436.7999999998,"ADDRESS":"南紙街１１７巷１６號四樓之１７","OBJECTID":393544},"geometry":{"x":177868.63000000082,"y":2577436.8000000026}},{"attributes":{"ID":393569,"DIS_CODE":0,"TOWNNAME":"新營區","LI":"南紙里","LIN":"23鄰","STREET":"南紙街","SECT":" ","MAREA":" ","LANE":"１１７巷","ALLEY":" ","HOUSE_NO":"１６號三樓之２","E_COORD97":177867.44,"N_COORD97":2577436.7999999998,"ADDRESS":"南紙街１１７巷１６號三樓之２","OBJECTID":393545},"geometry":{"x":177867.44000000041,"y":2577436.8000000026}},{"attributes":{"ID":393570,"DIS_CODE":0,"TOWNNAME":"新營區","LI":"南紙里","LIN":"23鄰","STREET":"南紙街","SECT":" ","MAREA":" ","LANE":"１１７巷","ALLEY":" ","HOUSE_NO":"１６號二樓之４","E_COORD97":177867.32999999999,"N_COORD97":2577436.7999999998,"ADDRESS":"南紙街１１７巷１６號二樓之４","OBJECTID":393546},"geometry":{"x":177867.33000000101,"y":2577436.8000000026}},{"attributes":{"ID":393571,"DIS_CODE":0,"TOWNNAME":"新營區","LI":"南紙里","LIN":"23鄰","STREET":"南紙街","SECT":" ","MAREA":" ","LANE":"１１７巷","ALLEY":" ","HOUSE_NO":"１６號三樓之２８","E_COORD97":177868.70000000001,"N_COORD97":2577436.7999999998,"ADDRESS":"南紙街１１７巷１６號三樓之２８","OBJECTID":393547},"geometry":{"x":177868.70000000112,"y":2577436.8000000026}},{"attributes":{"ID":393572,"DIS_CODE":0,"TOWNNAME":"新營區","LI":"南紙里","LIN":"23鄰","STREET":"南紙街","SECT":" ","MAREA":" ","LANE":"１１７巷","ALLEY":" ","HOUSE_NO":"１６號三樓之１","E_COORD97":177867.31,"N_COORD97":2577436.7999999998,"ADDRESS":"南紙街１１７巷１６號三樓之１","OBJECTID":393548},"geometry":{"x":177867.31000000052,"y":2577436.8000000026}},{"attributes":{"ID":393573,"DIS_CODE":0,"TOWNNAME":"新營區","LI":"南紙里","LIN":"23鄰","STREET":"南紙街","SECT":" ","MAREA":" ","LANE":"１１７巷","ALLEY":" ","HOUSE_NO":"１６號三樓之２６","E_COORD97":177868.66,"N_COORD97":2577436.7999999998,"ADDRESS":"南紙街１１７巷１６號三樓之２６","OBJECTID":393549},"geometry":{"x":177868.66000000108,"y":2577436.8000000026}},{"attributes":{"ID":393574,"DIS_CODE":0,"TOWNNAME":"新營區","LI":"南紙里","LIN":"23鄰","STREET":"南紙街","SECT":" ","MAREA":" ","LANE":"１１７巷","ALLEY":" ","HOUSE_NO":"１６號三樓之１４","E_COORD97":177868.57999999999,"N_COORD97":2577436.7999999998,"ADDRESS":"南紙街１１７巷１６號三樓之１４","OBJECTID":393550},"geometry":{"x":177868.58000000194,"y":2577436.8000000026}},{"attributes":{"ID":393575,"DIS_CODE":0,"TOWNNAME":"新營區","LI":"南紙里","LIN":"23鄰","STREET":"南紙街","SECT":" ","MAREA":" ","LANE":"１１７巷","ALLEY":" ","HOUSE_NO":"１６號二樓之７","E_COORD97":177867.38,"N_COORD97":2577436.7999999998,"ADDRESS":"南紙街１１７巷１６號二樓之７","OBJECTID":393551},"geometry":{"x":177867.37999999989,"y":2577436.8000000026}},{"attributes":{"ID":393576,"DIS_CODE":0,"TOWNNAME":"新營區","LI":"南紙里","LIN":"23鄰","STREET":"南紙街","SECT":" ","MAREA":" ","LANE":"１１７巷","ALLEY":" ","HOUSE_NO":"１６號七樓之２６","E_COORD97":177868.66,"N_COORD97":2577436.7999999998,"ADDRESS":"南紙街１１７巷１６號七樓之２６","OBJECTID":393552},"geometry":{"x":177868.66000000108,"y":2577436.8000000026}},{"attributes":{"ID":393577,"DIS_CODE":0,"TOWNNAME":"新營區","LI":"南紙里","LIN":"23鄰","STREET":"南紙街","SECT":" ","MAREA":" ","LANE":"１１７巷","ALLEY":" ","HOUSE_NO":"１６號七樓之１２","E_COORD97":177868.69,"N_COORD97":2577436.7999999998,"ADDRESS":"南紙街１１７巷１６號七樓之１２","OBJECTID":393553},"geometry":{"x":177868.69000000134,"y":2577436.8000000026}},{"attributes":{"ID":393578,"DIS_CODE":0,"TOWNNAME":"永康區","LI":"北灣里","LIN":"23鄰","STREET":"大灣路","SECT":" ","MAREA":" ","LANE":"１２巷","ALLEY":" ","HOUSE_NO":"１６號","E_COORD97":175301.32000000001,"N_COORD97":2546022.4500000002,"ADDRESS":"大灣路１２巷１６號","OBJECTID":393554},"geometry":{"x":175301.32000000123,"y":2546022.4499999993}},{"attributes":{"ID":393579,"DIS_CODE":0,"TOWNNAME":"安南區","LI":"州南里","LIN":"23鄰","STREET":"安和路","SECT":"四段","MAREA":" ","LANE":"５３３巷","ALLEY":" ","HOUSE_NO":"３４號","E_COORD97":169853.67000000001,"N_COORD97":2551299.2000000002,"ADDRESS":"安和路四段５３３巷３４號","OBJECTID":393555},"geometry":{"x":169853.67000000086,"y":2551299.2000000011}},{"attributes":{"ID":393580,"DIS_CODE":0,"TOWNNAME":"佳里區","LI":"鎮山里","LIN":"23鄰","STREET":"佳南路","SECT":" ","MAREA":" ","LANE":"６１巷","ALLEY":" ","HOUSE_NO":"１８號","E_COORD97":166406.13,"N_COORD97":2561216.52,"ADDRESS":"佳南路６１巷１８號","OBJECTID":393556},"geometry":{"x":166406.12999999989,"y":2561216.5200000033}},{"attributes":{"ID":393581,"DIS_CODE":0,"TOWNNAME":"佳里區","LI":"鎮山里","LIN":"23鄰","STREET":"佳南路","SECT":" ","MAREA":" ","LANE":"６１巷","ALLEY":" ","HOUSE_NO":"２０號","E_COORD97":166424.89000000001,"N_COORD97":2561215.0499999998,"ADDRESS":"佳南路６１巷２０號","OBJECTID":393557},"geometry":{"x":166424.88999999966,"y":2561215.0500000026}},{"attributes":{"ID":393582,"DIS_CODE":0,"TOWNNAME":"佳里區","LI":"鎮山里","LIN":"23鄰","STREET":"佳南路","SECT":" ","MAREA":" ","LANE":"６１巷","ALLEY":" ","HOUSE_NO":"２７號","E_COORD97":166477.51999999999,"N_COORD97":2561213.0600000001,"ADDRESS":"佳南路６１巷２７號","OBJECTID":393558},"geometry":{"x":166477.52000000048,"y":2561213.0600000005}},{"attributes":{"ID":393583,"DIS_CODE":0,"TOWNNAME":"佳里區","LI":"鎮山里","LIN":"23鄰","STREET":"佳南路","SECT":" ","MAREA":" ","LANE":"６１巷","ALLEY":" ","HOUSE_NO":"２９號","E_COORD97":166487.01999999999,"N_COORD97":2561203.9100000001,"ADDRESS":"佳南路６１巷２９號","OBJECTID":393559},"geometry":{"x":166487.02000000142,"y":2561203.9099999983}},{"attributes":{"ID":393584,"DIS_CODE":0,"TOWNNAME":"佳里區","LI":"鎮山里","LIN":"23鄰","STREET":"佳南路","SECT":" ","MAREA":" ","LANE":"６１巷","ALLEY":" ","HOUSE_NO":"３７號","E_COORD97":166506.06,"N_COORD97":2561201.29,"ADDRESS":"佳南路６１巷３７號","OBJECTID":393560},"geometry":{"x":166506.06000000052,"y":2561201.290000001}},{"attributes":{"ID":393585,"DIS_CODE":0,"TOWNNAME":"佳里區","LI":"鎮山里","LIN":"23鄰","STREET":"佳南路","SECT":" ","MAREA":" ","LANE":"６１巷","ALLEY":" ","HOUSE_NO":"３９號","E_COORD97":166512.67000000001,"N_COORD97":2561200.3999999999,"ADDRESS":"佳南路６１巷３９號","OBJECTID":393561},"geometry":{"x":166512.66999999993,"y":2561200.4000000004}},{"attributes":{"ID":393586,"DIS_CODE":0,"TOWNNAME":"佳里區","LI":"鎮山里","LIN":"23鄰","STREET":"佳南路","SECT":" ","MAREA":" ","LANE":"６１巷","ALLEY":" ","HOUSE_NO":"３號","E_COORD97":166424.69,"N_COORD97":2561238.6200000001,"ADDRESS":"佳南路６１巷３號","OBJECTID":393562},"geometry":{"x":166424.69000000134,"y":2561238.6200000029}},{"attributes":{"ID":393587,"DIS_CODE":0,"TOWNNAME":"佳里區","LI":"鎮山里","LIN":"23鄰","STREET":"佳南路","SECT":" ","MAREA":" ","LANE":"６１巷","ALLEY":" ","HOUSE_NO":"４０號之１","E_COORD97":166466.57999999999,"N_COORD97":2561184.48,"ADDRESS":"佳南路６１巷４０號之１","OBJECTID":393563},"geometry":{"x":166466.58000000007,"y":2561184.4800000023}},{"attributes":{"ID":393588,"DIS_CODE":0,"TOWNNAME":"下營區","LI":"仁里里","LIN":"23鄰","STREET":"仁里街","SECT":" ","MAREA":" ","LANE":"２３巷","ALLEY":" ","HOUSE_NO":"１２號","E_COORD97":174311.29000000001,"N_COORD97":2569996.5499999998,"ADDRESS":"仁里街２３巷１２號","OBJECTID":393564},"geometry":{"x":174311.29000000097,"y":2569996.5500000026}},{"attributes":{"ID":393589,"DIS_CODE":0,"TOWNNAME":"下營區","LI":"仁里里","LIN":"23鄰","STREET":"仁里街","SECT":" ","MAREA":" ","LANE":"２３巷","ALLEY":" ","HOUSE_NO":"１８號","E_COORD97":174313.51000000001,"N_COORD97":2570021.1499999999,"ADDRESS":"仁里街２３巷１８號","OBJECTID":393565},"geometry":{"x":174313.50999999978,"y":2570021.1500000041}},{"attributes":{"ID":393590,"DIS_CODE":0,"TOWNNAME":"下營區","LI":"仁里里","LIN":"23鄰","STREET":"仁里街","SECT":" ","MAREA":" ","LANE":"２３巷","ALLEY":" ","HOUSE_NO":"２２號","E_COORD97":174366.35999999999,"N_COORD97":2570006.9500000002,"ADDRESS":"仁里街２３巷２２號","OBJECTID":393566},"geometry":{"x":174366.3599999994,"y":2570006.9499999993}},{"attributes":{"ID":393591,"DIS_CODE":0,"TOWNNAME":"下營區","LI":"仁里里","LIN":"23鄰","STREET":"仁里街","SECT":" ","MAREA":" ","LANE":"２３巷","ALLEY":" ","HOUSE_NO":"６號","E_COORD97":174290.98999999999,"N_COORD97":2570025.3199999998,"ADDRESS":"仁里街２３巷６號","OBJECTID":393567},"geometry":{"x":174290.99000000209,"y":2570025.3200000003}},{"attributes":{"ID":393592,"DIS_CODE":0,"TOWNNAME":"下營區","LI":"後街里","LIN":"23鄰","STREET":"自由街","SECT":" ","MAREA":" ","LANE":"１５５巷","ALLEY":" ","HOUSE_NO":"３號","E_COORD97":174844.73999999999,"N_COORD97":2571079.0099999998,"ADDRESS":"自由街１５５巷３號","OBJECTID":393568},"geometry":{"x":174844.74000000022,"y":2571079.0099999979}},{"attributes":{"ID":393593,"DIS_CODE":0,"TOWNNAME":"下營區","LI":"營前里","LIN":"23鄰","STREET":"忠孝街","SECT":" ","MAREA":" ","LANE":"２６巷","ALLEY":" ","HOUSE_NO":"１０號","E_COORD97":174656.14999999999,"N_COORD97":2569842.8399999999,"ADDRESS":"忠孝街２６巷１０號","OBJECTID":393569},"geometry":{"x":174656.15000000224,"y":2569842.8400000036}},{"attributes":{"ID":393594,"DIS_CODE":0,"TOWNNAME":"下營區","LI":"營前里","LIN":"23鄰","STREET":"忠孝街","SECT":" ","MAREA":" ","LANE":"２６巷","ALLEY":" ","HOUSE_NO":"１號","E_COORD97":174684.31,"N_COORD97":2569835.4199999999,"ADDRESS":"忠孝街２６巷１號","OBJECTID":393570},"geometry":{"x":174684.30999999959,"y":2569835.4199999981}},{"attributes":{"ID":393595,"DIS_CODE":0,"TOWNNAME":"下營區","LI":"營前里","LIN":"23鄰","STREET":"忠孝街","SECT":" ","MAREA":" ","LANE":"２６巷","ALLEY":" ","HOUSE_NO":"２號","E_COORD97":174679.45999999999,"N_COORD97":2569849.9700000002,"ADDRESS":"忠孝街２６巷２號","OBJECTID":393571},"geometry":{"x":174679.46000000089,"y":2569849.9700000025}},{"attributes":{"ID":393596,"DIS_CODE":0,"TOWNNAME":"下營區","LI":"營前里","LIN":"23鄰","STREET":"忠孝街","SECT":" ","MAREA":" ","LANE":"２６巷","ALLEY":" ","HOUSE_NO":"３號","E_COORD97":174677.59,"N_COORD97":2569832.6800000002,"ADDRESS":"忠孝街２６巷３號","OBJECTID":393572},"geometry":{"x":174677.58999999985,"y":2569832.6799999997}},{"attributes":{"ID":393597,"DIS_CODE":0,"TOWNNAME":"下營區","LI":"營前里","LIN":"23鄰","STREET":"忠孝街","SECT":" ","MAREA":" ","LANE":"２６巷","ALLEY":" ","HOUSE_NO":"５號","E_COORD97":174665.26000000001,"N_COORD97":2569831.8900000001,"ADDRESS":"忠孝街２６巷５號","OBJECTID":393573},"geometry":{"x":174665.26000000071,"y":2569831.8900000006}},{"attributes":{"ID":393598,"DIS_CODE":0,"TOWNNAME":"下營區","LI":"營前里","LIN":"23鄰","STREET":"忠孝街","SECT":" ","MAREA":" ","LANE":"２６巷","ALLEY":" ","HOUSE_NO":"６號","E_COORD97":174672.64999999999,"N_COORD97":2569847.6099999999,"ADDRESS":"忠孝街２６巷６號","OBJECTID":393574},"geometry":{"x":174672.65000000037,"y":2569847.6100000031}},{"attributes":{"ID":393599,"DIS_CODE":0,"TOWNNAME":"佳里區","LI":"安西里","LIN":"23鄰","STREET":"忠孝路","SECT":" ","MAREA":" ","LANE":"１１０巷","ALLEY":" ","HOUSE_NO":"２１號","E_COORD97":165311.10000000001,"N_COORD97":2563226.4199999999,"ADDRESS":"忠孝路１１０巷２１號","OBJECTID":393575},"geometry":{"x":165311.09999999963,"y":2563226.4199999999}},{"attributes":{"ID":393600,"DIS_CODE":0,"TOWNNAME":"佳里區","LI":"安西里","LIN":"23鄰","STREET":"忠孝路","SECT":" ","MAREA":" ","LANE":"１１０巷","ALLEY":" ","HOUSE_NO":"２４號","E_COORD97":165324.10999999999,"N_COORD97":2563214.8199999998,"ADDRESS":"忠孝路１１０巷２４號","OBJECTID":393576},"geometry":{"x":165324.11000000034,"y":2563214.8200000003}},{"attributes":{"ID":393601,"DIS_CODE":0,"TOWNNAME":"佳里區","LI":"安西里","LIN":"23鄰","STREET":"忠孝路","SECT":" ","MAREA":" ","LANE":"１１０巷","ALLEY":" ","HOUSE_NO":"２５號","E_COORD97":165321.51000000001,"N_COORD97":2563232.6200000001,"ADDRESS":"忠孝路１１０巷２５號","OBJECTID":393577},"geometry":{"x":165321.51000000071,"y":2563232.6200000029}},{"attributes":{"ID":393602,"DIS_CODE":0,"TOWNNAME":"佳里區","LI":"安西里","LIN":"23鄰","STREET":"忠孝路","SECT":" ","MAREA":" ","LANE":"１１０巷","ALLEY":" ","HOUSE_NO":"２６號","E_COORD97":165329.07999999999,"N_COORD97":2563217.46,"ADDRESS":"忠孝路１１０巷２６號","OBJECTID":393578},"geometry":{"x":165329.08000000007,"y":2563217.4600000009}},{"attributes":{"ID":393603,"DIS_CODE":0,"TOWNNAME":"佳里區","LI":"安西里","LIN":"23鄰","STREET":"忠孝路","SECT":" ","MAREA":" ","LANE":"１１０巷","ALLEY":" ","HOUSE_NO":"２７號","E_COORD97":165327,"N_COORD97":2563235.7400000002,"ADDRESS":"忠孝路１１０巷２７號","OBJECTID":393579},"geometry":{"x":165327.00000000093,"y":2563235.7400000002}},{"attributes":{"ID":393604,"DIS_CODE":0,"TOWNNAME":"佳里區","LI":"安西里","LIN":"23鄰","STREET":"忠孝路","SECT":" ","MAREA":" ","LANE":"１１０巷","ALLEY":" ","HOUSE_NO":"２８號","E_COORD97":165333.67999999999,"N_COORD97":2563220.5600000001,"ADDRESS":"忠孝路１１０巷２８號","OBJECTID":393580},"geometry":{"x":165333.68000000063,"y":2563220.5599999987}},{"attributes":{"ID":393605,"DIS_CODE":0,"TOWNNAME":"佳里區","LI":"安西里","LIN":"23鄰","STREET":"忠孝路","SECT":" ","MAREA":" ","LANE":"１１０巷","ALLEY":" ","HOUSE_NO":"３０號","E_COORD97":165338.29999999999,"N_COORD97":2563194.6899999999,"ADDRESS":"忠孝路１１０巷３０號","OBJECTID":393581},"geometry":{"x":165338.30000000075,"y":2563194.6899999995}},{"attributes":{"ID":393606,"DIS_CODE":0,"TOWNNAME":"佳里區","LI":"安西里","LIN":"23鄰","STREET":"忠孝路","SECT":" ","MAREA":" ","LANE":"１１０巷","ALLEY":" ","HOUSE_NO":"３２號","E_COORD97":165340.66,"N_COORD97":2563189.5899999999,"ADDRESS":"忠孝路１１０巷３２號","OBJECTID":393582},"geometry":{"x":165340.66000000201,"y":2563189.5900000017}},{"attributes":{"ID":393607,"DIS_CODE":0,"TOWNNAME":"佳里區","LI":"安西里","LIN":"23鄰","STREET":"忠孝路","SECT":" ","MAREA":" ","LANE":"１１０巷","ALLEY":" ","HOUSE_NO":"６號","E_COORD97":165289,"N_COORD97":2563186.0800000001,"ADDRESS":"忠孝路１１０巷６號","OBJECTID":393583},"geometry":{"x":165288.99999999907,"y":2563186.0800000038}},{"attributes":{"ID":393608,"DIS_CODE":0,"TOWNNAME":"佳里區","LI":"安西里","LIN":"23鄰","STREET":"忠孝路","SECT":" ","MAREA":" ","LANE":"１１０巷","ALLEY":" ","HOUSE_NO":"７號","E_COORD97":165272.78,"N_COORD97":2563203,"ADDRESS":"忠孝路１１０巷７號","OBJECTID":393584},"geometry":{"x":165272.78000000119,"y":2563203}},{"attributes":{"ID":393609,"DIS_CODE":0,"TOWNNAME":"佳里區","LI":"安西里","LIN":"23鄰","STREET":"忠孝路","SECT":" ","MAREA":" ","LANE":"１１０巷","ALLEY":" ","HOUSE_NO":"８號","E_COORD97":165292.76000000001,"N_COORD97":2563188.6899999999,"ADDRESS":"忠孝路１１０巷８號","OBJECTID":393585},"geometry":{"x":165292.76000000071,"y":2563188.6900000013}},{"attributes":{"ID":393610,"DIS_CODE":0,"TOWNNAME":"佳里區","LI":"安西里","LIN":"23鄰","STREET":"忠孝路","SECT":" ","MAREA":" ","LANE":"１１０巷","ALLEY":" ","HOUSE_NO":"９號","E_COORD97":165277.76999999999,"N_COORD97":2563207.29,"ADDRESS":"忠孝路１１０巷９號","OBJECTID":393586},"geometry":{"x":165277.76999999955,"y":2563207.2899999972}},{"attributes":{"ID":393611,"DIS_CODE":0,"TOWNNAME":"佳里區","LI":"安西里","LIN":"23鄰","STREET":"忠孝路","SECT":" ","MAREA":" ","LANE":"１６２巷","ALLEY":" ","HOUSE_NO":"１０號","E_COORD97":165187.89000000001,"N_COORD97":2563252.9300000002,"ADDRESS":"忠孝路１６２巷１０號","OBJECTID":393587},"geometry":{"x":165187.89000000153,"y":2563252.9300000016}},{"attributes":{"ID":393612,"DIS_CODE":0,"TOWNNAME":"佳里區","LI":"安西里","LIN":"23鄰","STREET":"忠孝路","SECT":" ","MAREA":" ","LANE":"１６２巷","ALLEY":" ","HOUSE_NO":"１２號","E_COORD97":165190.76999999999,"N_COORD97":2563255.6499999999,"ADDRESS":"忠孝路１６２巷１２號","OBJECTID":393588},"geometry":{"x":165190.77000000048,"y":2563255.6500000004}},{"attributes":{"ID":393613,"DIS_CODE":0,"TOWNNAME":"佳里區","LI":"安西里","LIN":"23鄰","STREET":"忠孝路","SECT":" ","MAREA":" ","LANE":"１６２巷","ALLEY":" ","HOUSE_NO":"１６號","E_COORD97":165193.5,"N_COORD97":2563258.4500000002,"ADDRESS":"忠孝路１６２巷１６號","OBJECTID":393589},"geometry":{"x":165193.5,"y":2563258.4500000011}},{"attributes":{"ID":393614,"DIS_CODE":0,"TOWNNAME":"六甲區","LI":"六甲里","LIN":"23鄰","STREET":"中正路","SECT":" ","MAREA":" ","LANE":"４８５巷","ALLEY":" ","HOUSE_NO":"７號","E_COORD97":183574.95000000001,"N_COORD97":2569871.2799999998,"ADDRESS":"中正路４８５巷７號","OBJECTID":393590},"geometry":{"x":183574.95000000019,"y":2569871.2800000012}},{"attributes":{"ID":393615,"DIS_CODE":0,"TOWNNAME":"佳里區","LI":"安西里","LIN":"23鄰","STREET":"忠孝路","SECT":" ","MAREA":" ","LANE":"１６２巷","ALLEY":" ","HOUSE_NO":"１８號","E_COORD97":165196.98000000001,"N_COORD97":2563261.4300000002,"ADDRESS":"忠孝路１６２巷１８號","OBJECTID":393591},"geometry":{"x":165196.98000000138,"y":2563261.4300000034}},{"attributes":{"ID":393616,"DIS_CODE":0,"TOWNNAME":"佳里區","LI":"安西里","LIN":"23鄰","STREET":"忠孝路","SECT":" ","MAREA":" ","LANE":"１６２巷","ALLEY":" ","HOUSE_NO":"２０號","E_COORD97":165200.5,"N_COORD97":2563264.46,"ADDRESS":"忠孝路１６２巷２０號","OBJECTID":393592},"geometry":{"x":165200.5,"y":2563264.4600000009}},{"attributes":{"ID":393617,"DIS_CODE":0,"TOWNNAME":"佳里區","LI":"安西里","LIN":"23鄰","STREET":"忠孝路","SECT":" ","MAREA":" ","LANE":"１６２巷","ALLEY":" ","HOUSE_NO":"２２號","E_COORD97":165203.73000000001,"N_COORD97":2563267.1299999999,"ADDRESS":"忠孝路１６２巷２２號","OBJECTID":393593},"geometry":{"x":165203.73000000138,"y":2563267.1300000008}},{"attributes":{"ID":393618,"DIS_CODE":0,"TOWNNAME":"佳里區","LI":"安西里","LIN":"23鄰","STREET":"忠孝路","SECT":" ","MAREA":" ","LANE":"１６２巷","ALLEY":" ","HOUSE_NO":"２６號","E_COORD97":165206.94,"N_COORD97":2563269.7799999998,"ADDRESS":"忠孝路１６２巷２６號","OBJECTID":393594},"geometry":{"x":165206.94000000227,"y":2563269.7800000012}},{"attributes":{"ID":393619,"DIS_CODE":0,"TOWNNAME":"佳里區","LI":"安西里","LIN":"23鄰","STREET":"忠孝路","SECT":" ","MAREA":" ","LANE":"１６２巷","ALLEY":" ","HOUSE_NO":"２８號","E_COORD97":165210,"N_COORD97":2563272.3999999999,"ADDRESS":"忠孝路１６２巷２８號","OBJECTID":393595},"geometry":{"x":165210.00000000093,"y":2563272.4000000041}},{"attributes":{"ID":393620,"DIS_CODE":0,"TOWNNAME":"佳里區","LI":"安西里","LIN":"23鄰","STREET":"忠孝路","SECT":" ","MAREA":" ","LANE":"１６２巷","ALLEY":" ","HOUSE_NO":"３０號","E_COORD97":165213.48999999999,"N_COORD97":2563275.0699999998,"ADDRESS":"忠孝路１６２巷３０號","OBJECTID":393596},"geometry":{"x":165213.49000000115,"y":2563275.0700000022}},{"attributes":{"ID":393621,"DIS_CODE":0,"TOWNNAME":"佳里區","LI":"安西里","LIN":"23鄰","STREET":"忠孝路","SECT":" ","MAREA":" ","LANE":"１６２巷","ALLEY":" ","HOUSE_NO":"６號","E_COORD97":165181.91,"N_COORD97":2563246.9500000002,"ADDRESS":"忠孝路１６２巷６號","OBJECTID":393597},"geometry":{"x":165181.91000000108,"y":2563246.9499999993}},{"attributes":{"ID":393622,"DIS_CODE":0,"TOWNNAME":"佳里區","LI":"安西里","LIN":"23鄰","STREET":"忠孝路","SECT":" ","MAREA":" ","LANE":"１６２巷","ALLEY":" ","HOUSE_NO":"８號","E_COORD97":165185,"N_COORD97":2563249.9900000002,"ADDRESS":"忠孝路１６２巷８號","OBJECTID":393598},"geometry":{"x":165185,"y":2563249.9900000002}},{"attributes":{"ID":393623,"DIS_CODE":0,"TOWNNAME":"新市區","LI":"港墘里","LIN":"23鄰","STREET":"光華街","SECT":" ","MAREA":" ","LANE":"１５２巷","ALLEY":" ","HOUSE_NO":"９號","E_COORD97":177934.04000000001,"N_COORD97":2552820,"ADDRESS":"光華街１５２巷９號","OBJECTID":393599},"geometry":{"x":177934.04000000097,"y":2552820.0000000019}},{"attributes":{"ID":393624,"DIS_CODE":0,"TOWNNAME":"東區","LI":"圍下里","LIN":"23鄰","STREET":"前鋒路","SECT":" ","MAREA":" ","LANE":"１３７巷","ALLEY":" ","HOUSE_NO":"１０號","E_COORD97":169270.69,"N_COORD97":2543868.5499999998,"ADDRESS":"前鋒路１３７巷１０號","OBJECTID":393600},"geometry":{"x":169270.69000000134,"y":2543868.5499999989}}]}