{"displayFieldName":"TOWNNAME","fieldAliases":{"ID":"ID","DIS_CODE":"DIS_CODE","TOWNNAME":"TOWNNAME","LI":"LI","LIN":"LIN","STREET":"STREET","SECT":"SECT","MAREA":"MAREA","LANE":"LANE","ALLEY":"ALLEY","HOUSE_NO":"HOUSE_NO","E_COORD97":"E_COORD97","N_COORD97":"N_COORD97","ADDRESS":"ADDRESS","OBJECTID":"OBJECTID"},"geometryType":"esriGeometryPoint","spatialReference":{"wkid":102443,"latestWkid":3826},"fields":[{"name":"ID","type":"esriFieldTypeDouble","alias":"ID"},{"name":"DIS_CODE","type":"esriFieldTypeInteger","alias":"DIS_CODE"},{"name":"TOWNNAME","type":"esriFieldTypeString","alias":"TOWNNAME","length":8},{"name":"LI","type":"esriFieldTypeString","alias":"LI","length":8},{"name":"LIN","type":"esriFieldTypeString","alias":"LIN","length":12},{"name":"STREET","type":"esriFieldTypeString","alias":"STREET","length":20},{"name":"SECT","type":"esriFieldTypeString","alias":"SECT","length":8},{"name":"MAREA","type":"esriFieldTypeString","alias":"MAREA","length":12},{"name":"LANE","type":"esriFieldTypeString","alias":"LANE","length":10},{"name":"ALLEY","type":"esriFieldTypeString","alias":"ALLEY","length":10},{"name":"HOUSE_NO","type":"esriFieldTypeString","alias":"HOUSE_NO","length":20},{"name":"E_COORD97","type":"esriFieldTypeDouble","alias":"E_COORD97"},{"name":"N_COORD97","type":"esriFieldTypeDouble","alias":"N_COORD97"},{"name":"ADDRESS","type":"esriFieldTypeString","alias":"ADDRESS","length":50},{"name":"OBJECTID","type":"esriFieldTypeOID","alias":"OBJECTID"}],"features":[{"attributes":{"ID":513628,"DIS_CODE":0,"TOWNNAME":"永康區","LI":"六合里","LIN":"1鄰","STREET":"新興街","SECT":" ","MAREA":" ","LANE":" ","ALLEY":" ","HOUSE_NO":"８之５號五樓之２","E_COORD97":170950.95000000001,"N_COORD97":2545708.7999999998,"ADDRESS":"新興街８之５號五樓之２","OBJECTID":513601},"geometry":{"x":170950.95000000019,"y":2545708.8000000026}},{"attributes":{"ID":513629,"DIS_CODE":0,"TOWNNAME":"永康區","LI":"六合里","LIN":"1鄰","STREET":"新興街","SECT":" ","MAREA":" ","LANE":" ","ALLEY":" ","HOUSE_NO":"６號二樓之６","E_COORD97":170919.38,"N_COORD97":2545737.29,"ADDRESS":"新興街６號二樓之６","OBJECTID":513602},"geometry":{"x":170919.37999999989,"y":2545737.290000001}},{"attributes":{"ID":513630,"DIS_CODE":0,"TOWNNAME":"永康區","LI":"六合里","LIN":"1鄰","STREET":"新興街","SECT":" ","MAREA":" ","LANE":" ","ALLEY":" ","HOUSE_NO":"８之３號五樓之１","E_COORD97":170947.14999999999,"N_COORD97":2545728.0499999998,"ADDRESS":"新興街８之３號五樓之１","OBJECTID":513603},"geometry":{"x":170947.15000000224,"y":2545728.0500000026}},{"attributes":{"ID":513631,"DIS_CODE":0,"TOWNNAME":"永康區","LI":"蔦松里","LIN":"1鄰","STREET":"蔦松二街","SECT":" ","MAREA":" ","LANE":" ","ALLEY":" ","HOUSE_NO":"１１２號七樓之３","E_COORD97":173778.47,"N_COORD97":2549341.8300000001,"ADDRESS":"蔦松二街１１２號七樓之３","OBJECTID":513604},"geometry":{"x":173778.4700000016,"y":2549341.8300000038}},{"attributes":{"ID":513632,"DIS_CODE":0,"TOWNNAME":"永康區","LI":"六合里","LIN":"1鄰","STREET":"新興街","SECT":" ","MAREA":" ","LANE":" ","ALLEY":" ","HOUSE_NO":"８之２號七樓之１","E_COORD97":170938.76999999999,"N_COORD97":2545746.29,"ADDRESS":"新興街８之２號七樓之１","OBJECTID":513605},"geometry":{"x":170938.77000000048,"y":2545746.2899999991}},{"attributes":{"ID":513633,"DIS_CODE":0,"TOWNNAME":"南區","LI":"新生里","LIN":"1鄰","STREET":"大林路","SECT":" ","MAREA":" ","LANE":" ","ALLEY":" ","HOUSE_NO":"２號二樓之１","E_COORD97":169367.64999999999,"N_COORD97":2541886.5499999998,"ADDRESS":"大林路２號二樓之１","OBJECTID":513606},"geometry":{"x":169367.6500000013,"y":2541886.5500000026}},{"attributes":{"ID":513634,"DIS_CODE":0,"TOWNNAME":"永康區","LI":"蔦松里","LIN":"1鄰","STREET":"蔦松二街","SECT":" ","MAREA":" ","LANE":" ","ALLEY":" ","HOUSE_NO":"１１２號六樓之４","E_COORD97":173778.39999999999,"N_COORD97":2549341.8300000001,"ADDRESS":"蔦松二街１１２號六樓之４","OBJECTID":513607},"geometry":{"x":173778.4000000013,"y":2549341.8300000038}},{"attributes":{"ID":513635,"DIS_CODE":0,"TOWNNAME":"永康區","LI":"蔦松里","LIN":"1鄰","STREET":"蔦松二街","SECT":" ","MAREA":" ","LANE":" ","ALLEY":" ","HOUSE_NO":"１１４號七樓之３","E_COORD97":173793.88,"N_COORD97":2549352.3300000001,"ADDRESS":"蔦松二街１１４號七樓之３","OBJECTID":513608},"geometry":{"x":173793.87999999989,"y":2549352.3300000019}},{"attributes":{"ID":513636,"DIS_CODE":0,"TOWNNAME":"永康區","LI":"六合里","LIN":"1鄰","STREET":"新興街","SECT":" ","MAREA":" ","LANE":" ","ALLEY":" ","HOUSE_NO":"６號三樓之２","E_COORD97":170919.41,"N_COORD97":2545737.29,"ADDRESS":"新興街６號三樓之２","OBJECTID":513609},"geometry":{"x":170919.41000000015,"y":2545737.290000001}},{"attributes":{"ID":513637,"DIS_CODE":0,"TOWNNAME":"永康區","LI":"\u25A0行里","LIN":"1鄰","STREET":"中正路","SECT":" ","MAREA":" ","LANE":" ","ALLEY":" ","HOUSE_NO":"９８６號七樓之３","E_COORD97":171936.81,"N_COORD97":2549018.2999999998,"ADDRESS":"中正路９８６號七樓之３","OBJECTID":513610},"geometry":{"x":171936.81000000145,"y":2549018.3000000026}},{"attributes":{"ID":513638,"DIS_CODE":0,"TOWNNAME":"永康區","LI":"蔦松里","LIN":"1鄰","STREET":"蔦松二街","SECT":" ","MAREA":" ","LANE":" ","ALLEY":" ","HOUSE_NO":"１１２號五樓之３","E_COORD97":173778.47,"N_COORD97":2549341.8300000001,"ADDRESS":"蔦松二街１１２號五樓之３","OBJECTID":513611},"geometry":{"x":173778.4700000016,"y":2549341.8300000038}},{"attributes":{"ID":513639,"DIS_CODE":0,"TOWNNAME":"永康區","LI":"\u25A0行里","LIN":"1鄰","STREET":"中正路","SECT":" ","MAREA":" ","LANE":" ","ALLEY":" ","HOUSE_NO":"９８６號五樓之２","E_COORD97":171936.84,"N_COORD97":2549018.2999999998,"ADDRESS":"中正路９８６號五樓之２","OBJECTID":513612},"geometry":{"x":171936.84000000171,"y":2549018.3000000026}},{"attributes":{"ID":513640,"DIS_CODE":0,"TOWNNAME":"永康區","LI":"\u25A0行里","LIN":"1鄰","STREET":"中正路","SECT":" ","MAREA":" ","LANE":" ","ALLEY":" ","HOUSE_NO":"９８６號四樓之２","E_COORD97":171936.84,"N_COORD97":2549018.2999999998,"ADDRESS":"中正路９８６號四樓之２","OBJECTID":513613},"geometry":{"x":171936.84000000171,"y":2549018.3000000026}},{"attributes":{"ID":513641,"DIS_CODE":0,"TOWNNAME":"永康區","LI":"六合里","LIN":"1鄰","STREET":"新興街","SECT":" ","MAREA":" ","LANE":" ","ALLEY":" ","HOUSE_NO":"６號八樓之６","E_COORD97":170919.38,"N_COORD97":2545737.29,"ADDRESS":"新興街６號八樓之６","OBJECTID":513614},"geometry":{"x":170919.37999999989,"y":2545737.290000001}},{"attributes":{"ID":513642,"DIS_CODE":0,"TOWNNAME":"永康區","LI":"\u25A0行里","LIN":"1鄰","STREET":"中正路","SECT":" ","MAREA":" ","LANE":" ","ALLEY":" ","HOUSE_NO":"９８６號五樓之６","E_COORD97":171936.81,"N_COORD97":2549018.2999999998,"ADDRESS":"中正路９８６號五樓之６","OBJECTID":513615},"geometry":{"x":171936.81000000145,"y":2549018.3000000026}},{"attributes":{"ID":513643,"DIS_CODE":0,"TOWNNAME":"南區","LI":"新生里","LIN":"1鄰","STREET":"大林路","SECT":" ","MAREA":" ","LANE":" ","ALLEY":" ","HOUSE_NO":"２號二樓之２","E_COORD97":169367.64999999999,"N_COORD97":2541886.5499999998,"ADDRESS":"大林路２號二樓之２","OBJECTID":513616},"geometry":{"x":169367.6500000013,"y":2541886.5500000026}},{"attributes":{"ID":513644,"DIS_CODE":0,"TOWNNAME":"永康區","LI":"六合里","LIN":"1鄰","STREET":"新興街","SECT":" ","MAREA":" ","LANE":" ","ALLEY":" ","HOUSE_NO":"２號七樓之５","E_COORD97":170912.01999999999,"N_COORD97":2545758.73,"ADDRESS":"新興街２號七樓之５","OBJECTID":513617},"geometry":{"x":170912.02000000048,"y":2545758.7300000004}},{"attributes":{"ID":513645,"DIS_CODE":0,"TOWNNAME":"永康區","LI":"六合里","LIN":"1鄰","STREET":"新興街","SECT":" ","MAREA":" ","LANE":" ","ALLEY":" ","HOUSE_NO":"２號三樓之１","E_COORD97":170911.85999999999,"N_COORD97":2545758.73,"ADDRESS":"新興街２號三樓之１","OBJECTID":513618},"geometry":{"x":170911.86000000127,"y":2545758.7300000004}},{"attributes":{"ID":513646,"DIS_CODE":0,"TOWNNAME":"永康區","LI":"\u25A0行里","LIN":"1鄰","STREET":"中正北路","SECT":" ","MAREA":" ","LANE":" ","ALLEY":" ","HOUSE_NO":"５４號四樓之１１","E_COORD97":172009.10000000001,"N_COORD97":2549058.5800000001,"ADDRESS":"中正北路５４號四樓之１１","OBJECTID":513619},"geometry":{"x":172009.09999999963,"y":2549058.5800000038}},{"attributes":{"ID":513647,"DIS_CODE":0,"TOWNNAME":"永康區","LI":"六合里","LIN":"1鄰","STREET":"新興街","SECT":" ","MAREA":" ","LANE":" ","ALLEY":" ","HOUSE_NO":"６號九樓之６","E_COORD97":170919.38,"N_COORD97":2545737.29,"ADDRESS":"新興街６號九樓之６","OBJECTID":513620},"geometry":{"x":170919.37999999989,"y":2545737.290000001}},{"attributes":{"ID":513648,"DIS_CODE":0,"TOWNNAME":"永康區","LI":"六合里","LIN":"1鄰","STREET":"新興街","SECT":" ","MAREA":" ","LANE":" ","ALLEY":" ","HOUSE_NO":"８之５號十一樓之６","E_COORD97":170952.17000000001,"N_COORD97":2545708.7999999998,"ADDRESS":"新興街８之５號十一樓之６","OBJECTID":513621},"geometry":{"x":170952.17000000086,"y":2545708.8000000026}},{"attributes":{"ID":513649,"DIS_CODE":0,"TOWNNAME":"永康區","LI":"\u25A0行里","LIN":"1鄰","STREET":"中正北路","SECT":" ","MAREA":" ","LANE":" ","ALLEY":" ","HOUSE_NO":"５４號十樓之９","E_COORD97":172007.92999999999,"N_COORD97":2549058.5800000001,"ADDRESS":"中正北路５４號十樓之９","OBJECTID":513622},"geometry":{"x":172007.93000000063,"y":2549058.5800000038}},{"attributes":{"ID":513650,"DIS_CODE":0,"TOWNNAME":"永康區","LI":"六合里","LIN":"1鄰","STREET":"新興街","SECT":" ","MAREA":" ","LANE":" ","ALLEY":" ","HOUSE_NO":"８之５號七樓之６","E_COORD97":170950.92000000001,"N_COORD97":2545708.7999999998,"ADDRESS":"新興街８之５號七樓之６","OBJECTID":513623},"geometry":{"x":170950.91999999993,"y":2545708.8000000026}},{"attributes":{"ID":513651,"DIS_CODE":0,"TOWNNAME":"永康區","LI":"蔦松里","LIN":"1鄰","STREET":"蔦松二街","SECT":" ","MAREA":" ","LANE":" ","ALLEY":" ","HOUSE_NO":"１１４號三樓之１","E_COORD97":173793.79000000001,"N_COORD97":2549352.3300000001,"ADDRESS":"蔦松二街１１４號三樓之１","OBJECTID":513624},"geometry":{"x":173793.79000000097,"y":2549352.3300000019}},{"attributes":{"ID":513652,"DIS_CODE":0,"TOWNNAME":"永康區","LI":"六合里","LIN":"1鄰","STREET":"新興街","SECT":" ","MAREA":" ","LANE":" ","ALLEY":" ","HOUSE_NO":"８之３號六樓之１","E_COORD97":170947.14999999999,"N_COORD97":2545728.0499999998,"ADDRESS":"新興街８之３號六樓之１","OBJECTID":513625},"geometry":{"x":170947.15000000224,"y":2545728.0500000026}},{"attributes":{"ID":513653,"DIS_CODE":0,"TOWNNAME":"永康區","LI":"六合里","LIN":"1鄰","STREET":"新興街","SECT":" ","MAREA":" ","LANE":" ","ALLEY":" ","HOUSE_NO":"８之３號八樓之２","E_COORD97":170947.29000000001,"N_COORD97":2545728.0499999998,"ADDRESS":"新興街８之３號八樓之２","OBJECTID":513626},"geometry":{"x":170947.28999999911,"y":2545728.0500000026}},{"attributes":{"ID":513654,"DIS_CODE":0,"TOWNNAME":"永康區","LI":"六合里","LIN":"1鄰","STREET":"新興街","SECT":" ","MAREA":" ","LANE":" ","ALLEY":" ","HOUSE_NO":"８之３號四樓之３","E_COORD97":170947.25,"N_COORD97":2545728.0499999998,"ADDRESS":"新興街８之３號四樓之３","OBJECTID":513627},"geometry":{"x":170947.25,"y":2545728.0500000026}},{"attributes":{"ID":513655,"DIS_CODE":0,"TOWNNAME":"南區","LI":"新生里","LIN":"1鄰","STREET":"大林路","SECT":" ","MAREA":" ","LANE":" ","ALLEY":" ","HOUSE_NO":"６號三樓之１","E_COORD97":169339.28,"N_COORD97":2541879,"ADDRESS":"大林路６號三樓之１","OBJECTID":513628},"geometry":{"x":169339.28000000119,"y":2541879.0000000019}},{"attributes":{"ID":513656,"DIS_CODE":0,"TOWNNAME":"南區","LI":"新生里","LIN":"1鄰","STREET":"大林路","SECT":" ","MAREA":" ","LANE":" ","ALLEY":" ","HOUSE_NO":"６號三樓之２","E_COORD97":169339.28,"N_COORD97":2541879,"ADDRESS":"大林路６號三樓之２","OBJECTID":513629},"geometry":{"x":169339.28000000119,"y":2541879.0000000019}},{"attributes":{"ID":513657,"DIS_CODE":0,"TOWNNAME":"安平區","LI":"怡平里","LIN":"4鄰","STREET":"建平十七街","SECT":" ","MAREA":" ","LANE":" ","ALLEY":" ","HOUSE_NO":"４０６號","E_COORD97":165733.73000000001,"N_COORD97":2544244.7000000002,"ADDRESS":"建平十七街４０６號","OBJECTID":513630},"geometry":{"x":165733.72999999952,"y":2544244.6999999993}},{"attributes":{"ID":513658,"DIS_CODE":0,"TOWNNAME":"安平區","LI":"建平里","LIN":"1鄰","STREET":"建平十七街","SECT":" ","MAREA":" ","LANE":" ","ALLEY":" ","HOUSE_NO":"３號","E_COORD97":166456.73999999999,"N_COORD97":2544156.54,"ADDRESS":"建平十七街３號","OBJECTID":513631},"geometry":{"x":166456.74000000022,"y":2544156.540000001}},{"attributes":{"ID":513659,"DIS_CODE":0,"TOWNNAME":"南區","LI":"新生里","LIN":"1鄰","STREET":"大林路","SECT":" ","MAREA":" ","LANE":" ","ALLEY":" ","HOUSE_NO":"６號三樓之５","E_COORD97":169339.28,"N_COORD97":2541879,"ADDRESS":"大林路６號三樓之５","OBJECTID":513632},"geometry":{"x":169339.28000000119,"y":2541879.0000000019}},{"attributes":{"ID":513660,"DIS_CODE":0,"TOWNNAME":"永康區","LI":"六合里","LIN":"1鄰","STREET":"新興街","SECT":" ","MAREA":" ","LANE":" ","ALLEY":" ","HOUSE_NO":"８之２號十樓之２","E_COORD97":170938.91,"N_COORD97":2545746.29,"ADDRESS":"新興街８之２號十樓之２","OBJECTID":513633},"geometry":{"x":170938.91000000108,"y":2545746.2899999991}},{"attributes":{"ID":513661,"DIS_CODE":0,"TOWNNAME":"永康區","LI":"六合里","LIN":"1鄰","STREET":"新興街","SECT":" ","MAREA":" ","LANE":" ","ALLEY":" ","HOUSE_NO":"８之３號七樓之６","E_COORD97":170947.26000000001,"N_COORD97":2545728.0499999998,"ADDRESS":"新興街８之３號七樓之６","OBJECTID":513634},"geometry":{"x":170947.25999999885,"y":2545728.0500000026}},{"attributes":{"ID":513662,"DIS_CODE":0,"TOWNNAME":"永康區","LI":"蔦松里","LIN":"1鄰","STREET":"蔦松二街","SECT":" ","MAREA":" ","LANE":" ","ALLEY":" ","HOUSE_NO":"１１２號三樓之２","E_COORD97":173778.51000000001,"N_COORD97":2549341.8300000001,"ADDRESS":"蔦松二街１１２號三樓之２","OBJECTID":513635},"geometry":{"x":173778.51000000071,"y":2549341.8300000038}},{"attributes":{"ID":513663,"DIS_CODE":0,"TOWNNAME":"永康區","LI":"六合里","LIN":"1鄰","STREET":"新興街","SECT":" ","MAREA":" ","LANE":" ","ALLEY":" ","HOUSE_NO":"８之２號十一樓之２","E_COORD97":170940.16,"N_COORD97":2545746.29,"ADDRESS":"新興街８之２號十一樓之２","OBJECTID":513636},"geometry":{"x":170940.16000000108,"y":2545746.2899999991}},{"attributes":{"ID":513664,"DIS_CODE":0,"TOWNNAME":"永康區","LI":"六合里","LIN":"1鄰","STREET":"新興街","SECT":" ","MAREA":" ","LANE":" ","ALLEY":" ","HOUSE_NO":"８之３號二樓之６","E_COORD97":170947.26000000001,"N_COORD97":2545728.0499999998,"ADDRESS":"新興街８之３號二樓之６","OBJECTID":513637},"geometry":{"x":170947.25999999885,"y":2545728.0500000026}},{"attributes":{"ID":513665,"DIS_CODE":0,"TOWNNAME":"永康區","LI":"六合里","LIN":"1鄰","STREET":"新興街","SECT":" ","MAREA":" ","LANE":" ","ALLEY":" ","HOUSE_NO":"８之３號五樓之２","E_COORD97":170947.29000000001,"N_COORD97":2545728.0499999998,"ADDRESS":"新興街８之３號五樓之２","OBJECTID":513638},"geometry":{"x":170947.28999999911,"y":2545728.0500000026}},{"attributes":{"ID":513666,"DIS_CODE":0,"TOWNNAME":"永康區","LI":"大灣里","LIN":"1鄰","STREET":"大安街","SECT":" ","MAREA":" ","LANE":" ","ALLEY":" ","HOUSE_NO":"４１８號三樓之１","E_COORD97":174639.42000000001,"N_COORD97":2545787,"ADDRESS":"大安街４１８號三樓之１","OBJECTID":513639},"geometry":{"x":174639.41999999993,"y":2545786.9999999981}},{"attributes":{"ID":513667,"DIS_CODE":0,"TOWNNAME":"永康區","LI":"六合里","LIN":"1鄰","STREET":"新興街","SECT":" ","MAREA":" ","LANE":" ","ALLEY":" ","HOUSE_NO":"８之５號三樓之５","E_COORD97":170950.97,"N_COORD97":2545708.7999999998,"ADDRESS":"新興街８之５號三樓之５","OBJECTID":513640},"geometry":{"x":170950.9700000016,"y":2545708.8000000026}},{"attributes":{"ID":513668,"DIS_CODE":0,"TOWNNAME":"永康區","LI":"六合里","LIN":"1鄰","STREET":"新興街","SECT":" ","MAREA":" ","LANE":" ","ALLEY":" ","HOUSE_NO":"８之２號九樓之２","E_COORD97":170938.91,"N_COORD97":2545746.29,"ADDRESS":"新興街８之２號九樓之２","OBJECTID":513641},"geometry":{"x":170938.91000000108,"y":2545746.2899999991}},{"attributes":{"ID":513669,"DIS_CODE":0,"TOWNNAME":"永康區","LI":"六合里","LIN":"1鄰","STREET":"新興街","SECT":" ","MAREA":" ","LANE":" ","ALLEY":" ","HOUSE_NO":"６號五樓之７","E_COORD97":170919.35000000001,"N_COORD97":2545737.29,"ADDRESS":"新興街６號五樓之７","OBJECTID":513642},"geometry":{"x":170919.3499999987,"y":2545737.290000001}},{"attributes":{"ID":513670,"DIS_CODE":0,"TOWNNAME":"永康區","LI":"六合里","LIN":"1鄰","STREET":"新興街","SECT":" ","MAREA":" ","LANE":" ","ALLEY":" ","HOUSE_NO":"２號七樓之１","E_COORD97":170911.85999999999,"N_COORD97":2545758.73,"ADDRESS":"新興街２號七樓之１","OBJECTID":513643},"geometry":{"x":170911.86000000127,"y":2545758.7300000004}},{"attributes":{"ID":513671,"DIS_CODE":0,"TOWNNAME":"永康區","LI":"六合里","LIN":"1鄰","STREET":"新興街","SECT":" ","MAREA":" ","LANE":" ","ALLEY":" ","HOUSE_NO":"８之３號九樓之６","E_COORD97":170947.26000000001,"N_COORD97":2545728.0499999998,"ADDRESS":"新興街８之３號九樓之６","OBJECTID":513644},"geometry":{"x":170947.25999999885,"y":2545728.0500000026}},{"attributes":{"ID":513672,"DIS_CODE":0,"TOWNNAME":"永康區","LI":"蔦松里","LIN":"1鄰","STREET":"蔦松二街","SECT":" ","MAREA":" ","LANE":" ","ALLEY":" ","HOUSE_NO":"１１４號五樓之３","E_COORD97":173793.88,"N_COORD97":2549352.3300000001,"ADDRESS":"蔦松二街１１４號五樓之３","OBJECTID":513645},"geometry":{"x":173793.87999999989,"y":2549352.3300000019}},{"attributes":{"ID":513673,"DIS_CODE":0,"TOWNNAME":"永康區","LI":"蔦松里","LIN":"1鄰","STREET":"蔦松二街","SECT":" ","MAREA":" ","LANE":" ","ALLEY":" ","HOUSE_NO":"１１２號四樓之２","E_COORD97":173778.51000000001,"N_COORD97":2549341.8300000001,"ADDRESS":"蔦松二街１１２號四樓之２","OBJECTID":513646},"geometry":{"x":173778.51000000071,"y":2549341.8300000038}},{"attributes":{"ID":513674,"DIS_CODE":0,"TOWNNAME":"南區","LI":"新生里","LIN":"1鄰","STREET":"大林路","SECT":" ","MAREA":" ","LANE":" ","ALLEY":" ","HOUSE_NO":"６號六樓之１","E_COORD97":169339.28,"N_COORD97":2541879,"ADDRESS":"大林路６號六樓之１","OBJECTID":513647},"geometry":{"x":169339.28000000119,"y":2541879.0000000019}},{"attributes":{"ID":513675,"DIS_CODE":0,"TOWNNAME":"南區","LI":"新生里","LIN":"1鄰","STREET":"大林路","SECT":" ","MAREA":" ","LANE":" ","ALLEY":" ","HOUSE_NO":"６號六樓之２","E_COORD97":169339.28,"N_COORD97":2541879,"ADDRESS":"大林路６號六樓之２","OBJECTID":513648},"geometry":{"x":169339.28000000119,"y":2541879.0000000019}},{"attributes":{"ID":513676,"DIS_CODE":0,"TOWNNAME":"南區","LI":"新生里","LIN":"1鄰","STREET":"大林路","SECT":" ","MAREA":" ","LANE":" ","ALLEY":" ","HOUSE_NO":"６號六樓之３","E_COORD97":169339.28,"N_COORD97":2541879,"ADDRESS":"大林路６號六樓之３","OBJECTID":513649},"geometry":{"x":169339.28000000119,"y":2541879.0000000019}},{"attributes":{"ID":513677,"DIS_CODE":0,"TOWNNAME":"鹽水區","LI":"橋南里","LIN":"23鄰","STREET":"五福路","SECT":" ","MAREA":" ","LANE":" ","ALLEY":" ","HOUSE_NO":"１５４號","E_COORD97":175653.82000000001,"N_COORD97":2578374.4900000002,"ADDRESS":"五福路１５４號","OBJECTID":513650},"geometry":{"x":175653.82000000123,"y":2578374.4900000002}},{"attributes":{"ID":513678,"DIS_CODE":0,"TOWNNAME":"南區","LI":"新生里","LIN":"1鄰","STREET":"大林路","SECT":" ","MAREA":" ","LANE":" ","ALLEY":" ","HOUSE_NO":"６號六樓之５","E_COORD97":169339.28,"N_COORD97":2541879,"ADDRESS":"大林路６號六樓之５","OBJECTID":513651},"geometry":{"x":169339.28000000119,"y":2541879.0000000019}},{"attributes":{"ID":513679,"DIS_CODE":0,"TOWNNAME":"南區","LI":"新生里","LIN":"1鄰","STREET":"大林路","SECT":" ","MAREA":" ","LANE":" ","ALLEY":" ","HOUSE_NO":"６號四樓之１","E_COORD97":169339.28,"N_COORD97":2541879,"ADDRESS":"大林路６號四樓之１","OBJECTID":513652},"geometry":{"x":169339.28000000119,"y":2541879.0000000019}},{"attributes":{"ID":513680,"DIS_CODE":0,"TOWNNAME":"南區","LI":"新生里","LIN":"1鄰","STREET":"大林路","SECT":" ","MAREA":" ","LANE":" ","ALLEY":" ","HOUSE_NO":"６號四樓之２","E_COORD97":169339.28,"N_COORD97":2541879,"ADDRESS":"大林路６號四樓之２","OBJECTID":513653},"geometry":{"x":169339.28000000119,"y":2541879.0000000019}},{"attributes":{"ID":513681,"DIS_CODE":0,"TOWNNAME":"南區","LI":"新生里","LIN":"1鄰","STREET":"大林路","SECT":" ","MAREA":" ","LANE":" ","ALLEY":" ","HOUSE_NO":"６號四樓之３","E_COORD97":169339.28,"N_COORD97":2541879,"ADDRESS":"大林路６號四樓之３","OBJECTID":513654},"geometry":{"x":169339.28000000119,"y":2541879.0000000019}},{"attributes":{"ID":513682,"DIS_CODE":0,"TOWNNAME":"永康區","LI":"六合里","LIN":"1鄰","STREET":"新興街","SECT":" ","MAREA":" ","LANE":" ","ALLEY":" ","HOUSE_NO":"８之２號六樓之５","E_COORD97":170938.92999999999,"N_COORD97":2545746.29,"ADDRESS":"新興街８之２號六樓之５","OBJECTID":513655},"geometry":{"x":170938.9299999997,"y":2545746.2899999991}},{"attributes":{"ID":513683,"DIS_CODE":0,"TOWNNAME":"永康區","LI":"大灣里","LIN":"1鄰","STREET":"大安街","SECT":" ","MAREA":" ","LANE":" ","ALLEY":" ","HOUSE_NO":"４１８號五樓之３","E_COORD97":174639.51999999999,"N_COORD97":2545787,"ADDRESS":"大安街４１８號五樓之３","OBJECTID":513656},"geometry":{"x":174639.52000000048,"y":2545786.9999999981}},{"attributes":{"ID":513684,"DIS_CODE":0,"TOWNNAME":"永康區","LI":"六合里","LIN":"1鄰","STREET":"新興街","SECT":" ","MAREA":" ","LANE":" ","ALLEY":" ","HOUSE_NO":"６號七樓之５","E_COORD97":170919.42999999999,"N_COORD97":2545737.29,"ADDRESS":"新興街６號七樓之５","OBJECTID":513657},"geometry":{"x":170919.43000000063,"y":2545737.290000001}},{"attributes":{"ID":513685,"DIS_CODE":0,"TOWNNAME":"永康區","LI":"六合里","LIN":"1鄰","STREET":"新興街","SECT":" ","MAREA":" ","LANE":" ","ALLEY":" ","HOUSE_NO":"８之５號八樓之６","E_COORD97":170950.92000000001,"N_COORD97":2545708.7999999998,"ADDRESS":"新興街８之５號八樓之６","OBJECTID":513658},"geometry":{"x":170950.91999999993,"y":2545708.8000000026}},{"attributes":{"ID":513686,"DIS_CODE":0,"TOWNNAME":"永康區","LI":"五王里","LIN":"1鄰","STREET":"成功路","SECT":" ","MAREA":" ","LANE":" ","ALLEY":" ","HOUSE_NO":"６０號七樓之１","E_COORD97":171546.73999999999,"N_COORD97":2545481.2999999998,"ADDRESS":"成功路６０號七樓之１","OBJECTID":513659},"geometry":{"x":171546.74000000115,"y":2545481.3000000026}},{"attributes":{"ID":513687,"DIS_CODE":0,"TOWNNAME":"永康區","LI":"六合里","LIN":"1鄰","STREET":"新興街","SECT":" ","MAREA":" ","LANE":" ","ALLEY":" ","HOUSE_NO":"８號十一樓之５","E_COORD97":170923.98000000001,"N_COORD97":2545756.79,"ADDRESS":"新興街８號十一樓之５","OBJECTID":513660},"geometry":{"x":170923.98000000045,"y":2545756.7899999991}},{"attributes":{"ID":513688,"DIS_CODE":0,"TOWNNAME":"永康區","LI":"六合里","LIN":"1鄰","STREET":"新興街","SECT":" ","MAREA":" ","LANE":" ","ALLEY":" ","HOUSE_NO":"８號五樓之６","E_COORD97":170922.67999999999,"N_COORD97":2545756.79,"ADDRESS":"新興街８號五樓之６","OBJECTID":513661},"geometry":{"x":170922.68000000063,"y":2545756.7899999991}},{"attributes":{"ID":513689,"DIS_CODE":0,"TOWNNAME":"永康區","LI":"五王里","LIN":"1鄰","STREET":"成功路","SECT":" ","MAREA":" ","LANE":" ","ALLEY":" ","HOUSE_NO":"６４號六樓之２","E_COORD97":171547.29999999999,"N_COORD97":2545487.0499999998,"ADDRESS":"成功路６４號六樓之２","OBJECTID":513662},"geometry":{"x":171547.30000000168,"y":2545487.0500000026}},{"attributes":{"ID":513690,"DIS_CODE":0,"TOWNNAME":"永康區","LI":"六合里","LIN":"1鄰","STREET":"新興街","SECT":" ","MAREA":" ","LANE":" ","ALLEY":" ","HOUSE_NO":"８之１號三樓之６","E_COORD97":170947.98000000001,"N_COORD97":2545766.79,"ADDRESS":"新興街８之１號三樓之６","OBJECTID":513663},"geometry":{"x":170947.98000000045,"y":2545766.7899999991}},{"attributes":{"ID":513691,"DIS_CODE":0,"TOWNNAME":"永康區","LI":"六合里","LIN":"1鄰","STREET":"新興街","SECT":" ","MAREA":" ","LANE":" ","ALLEY":" ","HOUSE_NO":"８之１號九樓之１","E_COORD97":170947.87,"N_COORD97":2545766.79,"ADDRESS":"新興街８之１號九樓之１","OBJECTID":513664},"geometry":{"x":170947.87000000011,"y":2545766.7899999991}},{"attributes":{"ID":513692,"DIS_CODE":0,"TOWNNAME":"永康區","LI":"六合里","LIN":"1鄰","STREET":"新興街","SECT":" ","MAREA":" ","LANE":" ","ALLEY":" ","HOUSE_NO":"８之１號十樓之２","E_COORD97":170948.01000000001,"N_COORD97":2545766.79,"ADDRESS":"新興街８之１號十樓之２","OBJECTID":513665},"geometry":{"x":170948.01000000071,"y":2545766.7899999991}},{"attributes":{"ID":513693,"DIS_CODE":0,"TOWNNAME":"永康區","LI":"永康里","LIN":"1鄰","STREET":"永埔街","SECT":" ","MAREA":" ","LANE":" ","ALLEY":" ","HOUSE_NO":"３９號","E_COORD97":173989.42000000001,"N_COORD97":2547565.25,"ADDRESS":"永埔街３９號","OBJECTID":513666},"geometry":{"x":173989.42000000086,"y":2547565.2499999981}},{"attributes":{"ID":513694,"DIS_CODE":0,"TOWNNAME":"永康區","LI":"六合里","LIN":"1鄰","STREET":"新興街","SECT":" ","MAREA":" ","LANE":" ","ALLEY":" ","HOUSE_NO":"８之２號八樓之３","E_COORD97":170938.87,"N_COORD97":2545746.29,"ADDRESS":"新興街８之２號八樓之３","OBJECTID":513667},"geometry":{"x":170938.87000000104,"y":2545746.2899999991}},{"attributes":{"ID":513695,"DIS_CODE":0,"TOWNNAME":"永康區","LI":"六合里","LIN":"1鄰","STREET":"新興街","SECT":" ","MAREA":" ","LANE":" ","ALLEY":" ","HOUSE_NO":"８號七樓之１","E_COORD97":170922.57000000001,"N_COORD97":2545756.79,"ADDRESS":"新興街８號七樓之１","OBJECTID":513668},"geometry":{"x":170922.57000000123,"y":2545756.7899999991}},{"attributes":{"ID":513696,"DIS_CODE":0,"TOWNNAME":"永康區","LI":"大橋里","LIN":"1鄰","STREET":"中華路","SECT":" ","MAREA":" ","LANE":" ","ALLEY":" ","HOUSE_NO":"８６２號四樓之６","E_COORD97":170635.73000000001,"N_COORD97":2546605.79,"ADDRESS":"中華路８６２號四樓之６","OBJECTID":513669},"geometry":{"x":170635.73000000045,"y":2546605.790000001}},{"attributes":{"ID":513697,"DIS_CODE":0,"TOWNNAME":"南區","LI":"新生里","LIN":"1鄰","STREET":"大林路","SECT":" ","MAREA":" ","LANE":" ","ALLEY":" ","HOUSE_NO":"６號七樓之１","E_COORD97":169339.28,"N_COORD97":2541879,"ADDRESS":"大林路６號七樓之１","OBJECTID":513670},"geometry":{"x":169339.28000000119,"y":2541879.0000000019}},{"attributes":{"ID":513698,"DIS_CODE":0,"TOWNNAME":"永康區","LI":"六合里","LIN":"1鄰","STREET":"新興街","SECT":" ","MAREA":" ","LANE":" ","ALLEY":" ","HOUSE_NO":"６號十一樓之７","E_COORD97":170920.60000000001,"N_COORD97":2545737.29,"ADDRESS":"新興街６號十一樓之７","OBJECTID":513671},"geometry":{"x":170920.59999999963,"y":2545737.290000001}},{"attributes":{"ID":513699,"DIS_CODE":0,"TOWNNAME":"永康區","LI":"大橋里","LIN":"1鄰","STREET":"中華路","SECT":" ","MAREA":" ","LANE":" ","ALLEY":" ","HOUSE_NO":"８６２號六樓之１","E_COORD97":170635.63,"N_COORD97":2546605.79,"ADDRESS":"中華路８６２號六樓之１","OBJECTID":513672},"geometry":{"x":170635.62999999989,"y":2546605.790000001}},{"attributes":{"ID":513700,"DIS_CODE":0,"TOWNNAME":"永康區","LI":"\u25A0行里","LIN":"1鄰","STREET":"中正北路","SECT":" ","MAREA":" ","LANE":" ","ALLEY":" ","HOUSE_NO":"５４號七樓之７","E_COORD97":172007.92999999999,"N_COORD97":2549058.5800000001,"ADDRESS":"中正北路５４號七樓之７","OBJECTID":513673},"geometry":{"x":172007.93000000063,"y":2549058.5800000038}},{"attributes":{"ID":513701,"DIS_CODE":0,"TOWNNAME":"永康區","LI":"六合里","LIN":"1鄰","STREET":"新興街","SECT":" ","MAREA":" ","LANE":" ","ALLEY":" ","HOUSE_NO":"８號六樓之５","E_COORD97":170922.73000000001,"N_COORD97":2545756.79,"ADDRESS":"新興街８號六樓之５","OBJECTID":513674},"geometry":{"x":170922.72999999952,"y":2545756.7899999991}},{"attributes":{"ID":513702,"DIS_CODE":0,"TOWNNAME":"永康區","LI":"六合里","LIN":"1鄰","STREET":"新興街","SECT":" ","MAREA":" ","LANE":" ","ALLEY":" ","HOUSE_NO":"６之１號四樓之３","E_COORD97":170932.95999999999,"N_COORD97":2545719.7999999998,"ADDRESS":"新興街６之１號四樓之３","OBJECTID":513675},"geometry":{"x":170932.96000000089,"y":2545719.8000000026}},{"attributes":{"ID":513703,"DIS_CODE":0,"TOWNNAME":"南區","LI":"新生里","LIN":"1鄰","STREET":"大林路","SECT":" ","MAREA":" ","LANE":" ","ALLEY":" ","HOUSE_NO":"６號七樓之２","E_COORD97":169339.28,"N_COORD97":2541879,"ADDRESS":"大林路６號七樓之２","OBJECTID":513676},"geometry":{"x":169339.28000000119,"y":2541879.0000000019}},{"attributes":{"ID":513704,"DIS_CODE":0,"TOWNNAME":"永康區","LI":"六合里","LIN":"1鄰","STREET":"新興街","SECT":" ","MAREA":" ","LANE":" ","ALLEY":" ","HOUSE_NO":"８之１號八樓之２","E_COORD97":170948.01000000001,"N_COORD97":2545766.79,"ADDRESS":"新興街８之１號八樓之２","OBJECTID":513677},"geometry":{"x":170948.01000000071,"y":2545766.7899999991}},{"attributes":{"ID":513705,"DIS_CODE":0,"TOWNNAME":"永康區","LI":"六合里","LIN":"1鄰","STREET":"新興街","SECT":" ","MAREA":" ","LANE":" ","ALLEY":" ","HOUSE_NO":"８之１號四樓之５","E_COORD97":170948.03,"N_COORD97":2545766.79,"ADDRESS":"新興街８之１號四樓之５","OBJECTID":513678},"geometry":{"x":170948.03000000119,"y":2545766.7899999991}},{"attributes":{"ID":513706,"DIS_CODE":0,"TOWNNAME":"永康區","LI":"六合里","LIN":"1鄰","STREET":"新興街","SECT":" ","MAREA":" ","LANE":" ","ALLEY":" ","HOUSE_NO":"８之１號十一樓之５","E_COORD97":170949.28,"N_COORD97":2545766.79,"ADDRESS":"新興街８之１號十一樓之５","OBJECTID":513679},"geometry":{"x":170949.27999999933,"y":2545766.7899999991}},{"attributes":{"ID":513707,"DIS_CODE":0,"TOWNNAME":"永康區","LI":"\u25A0行里","LIN":"1鄰","STREET":"中正北路","SECT":" ","MAREA":" ","LANE":" ","ALLEY":" ","HOUSE_NO":"５４號八樓之１０","E_COORD97":172009.14999999999,"N_COORD97":2549058.5800000001,"ADDRESS":"中正北路５４號八樓之１０","OBJECTID":513680},"geometry":{"x":172009.15000000037,"y":2549058.5800000038}},{"attributes":{"ID":513708,"DIS_CODE":0,"TOWNNAME":"永康區","LI":"六合里","LIN":"1鄰","STREET":"新興街","SECT":" ","MAREA":" ","LANE":" ","ALLEY":" ","HOUSE_NO":"６之１號八樓之７","E_COORD97":170932.94,"N_COORD97":2545719.7999999998,"ADDRESS":"新興街６之１號八樓之７","OBJECTID":513681},"geometry":{"x":170932.94000000041,"y":2545719.8000000026}},{"attributes":{"ID":513709,"DIS_CODE":0,"TOWNNAME":"永康區","LI":"\u25A0行里","LIN":"1鄰","STREET":"中正北路","SECT":" ","MAREA":" ","LANE":" ","ALLEY":" ","HOUSE_NO":"５４號十樓之１","E_COORD97":172007.85000000001,"N_COORD97":2549058.5800000001,"ADDRESS":"中正北路５４號十樓之１","OBJECTID":513682},"geometry":{"x":172007.85000000149,"y":2549058.5800000038}},{"attributes":{"ID":513710,"DIS_CODE":0,"TOWNNAME":"永康區","LI":"\u25A0行里","LIN":"1鄰","STREET":"中正北路","SECT":" ","MAREA":" ","LANE":" ","ALLEY":" ","HOUSE_NO":"５４號七樓之８","E_COORD97":172008,"N_COORD97":2549058.5800000001,"ADDRESS":"中正北路５４號七樓之８","OBJECTID":513683},"geometry":{"x":172008,"y":2549058.5800000038}},{"attributes":{"ID":513711,"DIS_CODE":0,"TOWNNAME":"永康區","LI":"\u25A0行里","LIN":"1鄰","STREET":"中正北路","SECT":" ","MAREA":" ","LANE":" ","ALLEY":" ","HOUSE_NO":"５４號六樓之１","E_COORD97":172007.85000000001,"N_COORD97":2549058.5800000001,"ADDRESS":"中正北路５４號六樓之１","OBJECTID":513684},"geometry":{"x":172007.85000000149,"y":2549058.5800000038}},{"attributes":{"ID":513712,"DIS_CODE":0,"TOWNNAME":"永康區","LI":"六合里","LIN":"1鄰","STREET":"新興街","SECT":" ","MAREA":" ","LANE":" ","ALLEY":" ","HOUSE_NO":"８之２號二樓之７","E_COORD97":170938.85000000001,"N_COORD97":2545746.29,"ADDRESS":"新興街８之２號二樓之７","OBJECTID":513685},"geometry":{"x":170938.85000000056,"y":2545746.2899999991}},{"attributes":{"ID":513713,"DIS_CODE":0,"TOWNNAME":"永康區","LI":"\u25A0行里","LIN":"1鄰","STREET":"中正北路","SECT":" ","MAREA":" ","LANE":" ","ALLEY":" ","HOUSE_NO":"５４號五樓之１１","E_COORD97":172009.10000000001,"N_COORD97":2549058.5800000001,"ADDRESS":"中正北路５４號五樓之１１","OBJECTID":513686},"geometry":{"x":172009.09999999963,"y":2549058.5800000038}},{"attributes":{"ID":513714,"DIS_CODE":0,"TOWNNAME":"永康區","LI":"\u25A0行里","LIN":"1鄰","STREET":"中正北路","SECT":" ","MAREA":" ","LANE":" ","ALLEY":" ","HOUSE_NO":"５４號九樓之１３","E_COORD97":172009.20000000001,"N_COORD97":2549058.5800000001,"ADDRESS":"中正北路５４號九樓之１３","OBJECTID":513687},"geometry":{"x":172009.20000000019,"y":2549058.5800000038}},{"attributes":{"ID":513715,"DIS_CODE":0,"TOWNNAME":"永康區","LI":"\u25A0行里","LIN":"1鄰","STREET":"中正北路","SECT":" ","MAREA":" ","LANE":" ","ALLEY":" ","HOUSE_NO":"５４號六樓之９","E_COORD97":172007.92999999999,"N_COORD97":2549058.5800000001,"ADDRESS":"中正北路５４號六樓之９","OBJECTID":513688},"geometry":{"x":172007.93000000063,"y":2549058.5800000038}},{"attributes":{"ID":513716,"DIS_CODE":0,"TOWNNAME":"永康區","LI":"六合里","LIN":"1鄰","STREET":"新興街","SECT":" ","MAREA":" ","LANE":" ","ALLEY":" ","HOUSE_NO":"２號十樓之５","E_COORD97":170912.01999999999,"N_COORD97":2545758.73,"ADDRESS":"新興街２號十樓之５","OBJECTID":513689},"geometry":{"x":170912.02000000048,"y":2545758.7300000004}},{"attributes":{"ID":513717,"DIS_CODE":0,"TOWNNAME":"永康區","LI":"\u25A0行里","LIN":"1鄰","STREET":"中正北路","SECT":" ","MAREA":" ","LANE":" ","ALLEY":" ","HOUSE_NO":"５４號九樓之７","E_COORD97":172007.92999999999,"N_COORD97":2549058.5800000001,"ADDRESS":"中正北路５４號九樓之７","OBJECTID":513690},"geometry":{"x":172007.93000000063,"y":2549058.5800000038}},{"attributes":{"ID":513718,"DIS_CODE":0,"TOWNNAME":"永康區","LI":"六合里","LIN":"1鄰","STREET":"新興街","SECT":" ","MAREA":" ","LANE":" ","ALLEY":" ","HOUSE_NO":"２號八樓之１","E_COORD97":170911.85999999999,"N_COORD97":2545758.73,"ADDRESS":"新興街２號八樓之１","OBJECTID":513691},"geometry":{"x":170911.86000000127,"y":2545758.7300000004}},{"attributes":{"ID":513719,"DIS_CODE":0,"TOWNNAME":"永康區","LI":"\u25A0行里","LIN":"1鄰","STREET":"中正北路","SECT":" ","MAREA":" ","LANE":" ","ALLEY":" ","HOUSE_NO":"５４號八樓之９","E_COORD97":172007.92999999999,"N_COORD97":2549058.5800000001,"ADDRESS":"中正北路５４號八樓之９","OBJECTID":513692},"geometry":{"x":172007.93000000063,"y":2549058.5800000038}},{"attributes":{"ID":513720,"DIS_CODE":0,"TOWNNAME":"永康區","LI":"六合里","LIN":"1鄰","STREET":"新興街","SECT":" ","MAREA":" ","LANE":" ","ALLEY":" ","HOUSE_NO":"８之５號二樓之３","E_COORD97":170950.91,"N_COORD97":2545708.7999999998,"ADDRESS":"新興街８之５號二樓之３","OBJECTID":513693},"geometry":{"x":170950.91000000108,"y":2545708.8000000026}},{"attributes":{"ID":513721,"DIS_CODE":0,"TOWNNAME":"永康區","LI":"六合里","LIN":"1鄰","STREET":"新興街","SECT":" ","MAREA":" ","LANE":" ","ALLEY":" ","HOUSE_NO":"２號五樓之１","E_COORD97":170911.85999999999,"N_COORD97":2545758.73,"ADDRESS":"新興街２號五樓之１","OBJECTID":513694},"geometry":{"x":170911.86000000127,"y":2545758.7300000004}},{"attributes":{"ID":513722,"DIS_CODE":0,"TOWNNAME":"永康區","LI":"蔦松里","LIN":"1鄰","STREET":"蔦松二街","SECT":" ","MAREA":" ","LANE":" ","ALLEY":" ","HOUSE_NO":"１１２號五樓之２","E_COORD97":173778.51000000001,"N_COORD97":2549341.8300000001,"ADDRESS":"蔦松二街１１２號五樓之２","OBJECTID":513695},"geometry":{"x":173778.51000000071,"y":2549341.8300000038}},{"attributes":{"ID":513723,"DIS_CODE":0,"TOWNNAME":"永康區","LI":"\u25A0行里","LIN":"1鄰","STREET":"中正北路","SECT":" ","MAREA":" ","LANE":" ","ALLEY":" ","HOUSE_NO":"５４號六樓之４","E_COORD97":172007.87,"N_COORD97":2549058.5800000001,"ADDRESS":"中正北路５４號六樓之４","OBJECTID":513696},"geometry":{"x":172007.87000000011,"y":2549058.5800000038}},{"attributes":{"ID":513724,"DIS_CODE":0,"TOWNNAME":"永康區","LI":"\u25A0行里","LIN":"1鄰","STREET":"中正北路","SECT":" ","MAREA":" ","LANE":" ","ALLEY":" ","HOUSE_NO":"５４號三樓之２","E_COORD97":172007.98000000001,"N_COORD97":2549058.5800000001,"ADDRESS":"中正北路５４號三樓之２","OBJECTID":513697},"geometry":{"x":172007.98000000138,"y":2549058.5800000038}},{"attributes":{"ID":513725,"DIS_CODE":0,"TOWNNAME":"永康區","LI":"\u25A0行里","LIN":"1鄰","STREET":"中正北路","SECT":" ","MAREA":" ","LANE":" ","ALLEY":" ","HOUSE_NO":"５４號十一樓之１","E_COORD97":172009.10000000001,"N_COORD97":2549058.5800000001,"ADDRESS":"中正北路５４號十一樓之１","OBJECTID":513698},"geometry":{"x":172009.09999999963,"y":2549058.5800000038}},{"attributes":{"ID":513726,"DIS_CODE":0,"TOWNNAME":"南區","LI":"新生里","LIN":"1鄰","STREET":"大林路","SECT":" ","MAREA":" ","LANE":" ","ALLEY":" ","HOUSE_NO":"６號七樓之３","E_COORD97":169339.28,"N_COORD97":2541879,"ADDRESS":"大林路６號七樓之３","OBJECTID":513699},"geometry":{"x":169339.28000000119,"y":2541879.0000000019}},{"attributes":{"ID":513727,"DIS_CODE":0,"TOWNNAME":"永康區","LI":"\u25A0行里","LIN":"1鄰","STREET":"中正北路","SECT":" ","MAREA":" ","LANE":" ","ALLEY":" ","HOUSE_NO":"５４號七樓之１１","E_COORD97":172009.10000000001,"N_COORD97":2549058.5800000001,"ADDRESS":"中正北路５４號七樓之１１","OBJECTID":513700},"geometry":{"x":172009.09999999963,"y":2549058.5800000038}},{"attributes":{"ID":513728,"DIS_CODE":0,"TOWNNAME":"永康區","LI":"\u25A0行里","LIN":"1鄰","STREET":"中正北路","SECT":" ","MAREA":" ","LANE":" ","ALLEY":" ","HOUSE_NO":"５４號七樓之１２","E_COORD97":172009.23000000001,"N_COORD97":2549058.5800000001,"ADDRESS":"中正北路５４號七樓之１２","OBJECTID":513701},"geometry":{"x":172009.23000000045,"y":2549058.5800000038}},{"attributes":{"ID":513729,"DIS_CODE":0,"TOWNNAME":"永康區","LI":"\u25A0行里","LIN":"1鄰","STREET":"中正路","SECT":" ","MAREA":" ","LANE":" ","ALLEY":" ","HOUSE_NO":"９８６號三樓之５","E_COORD97":171936.85999999999,"N_COORD97":2549018.2999999998,"ADDRESS":"中正路９８６號三樓之５","OBJECTID":513702},"geometry":{"x":171936.86000000034,"y":2549018.3000000026}},{"attributes":{"ID":513730,"DIS_CODE":0,"TOWNNAME":"永康區","LI":"六合里","LIN":"1鄰","STREET":"新興街","SECT":" ","MAREA":" ","LANE":" ","ALLEY":" ","HOUSE_NO":"８之５號十一樓之１","E_COORD97":170952.06,"N_COORD97":2545708.7999999998,"ADDRESS":"新興街８之５號十一樓之１","OBJECTID":513703},"geometry":{"x":170952.06000000052,"y":2545708.8000000026}},{"attributes":{"ID":513731,"DIS_CODE":0,"TOWNNAME":"永康區","LI":"\u25A0行里","LIN":"1鄰","STREET":"中正北路","SECT":" ","MAREA":" ","LANE":" ","ALLEY":" ","HOUSE_NO":"５４號六樓之１２","E_COORD97":172009.23000000001,"N_COORD97":2549058.5800000001,"ADDRESS":"中正北路５４號六樓之１２","OBJECTID":513704},"geometry":{"x":172009.23000000045,"y":2549058.5800000038}},{"attributes":{"ID":513732,"DIS_CODE":0,"TOWNNAME":"永康區","LI":"\u25A0行里","LIN":"1鄰","STREET":"中正北路","SECT":" ","MAREA":" ","LANE":" ","ALLEY":" ","HOUSE_NO":"５４號七樓之６","E_COORD97":172007.95000000001,"N_COORD97":2549058.5800000001,"ADDRESS":"中正北路５４號七樓之６","OBJECTID":513705},"geometry":{"x":172007.95000000112,"y":2549058.5800000038}},{"attributes":{"ID":513733,"DIS_CODE":0,"TOWNNAME":"永康區","LI":"\u25A0行里","LIN":"1鄰","STREET":"中正北路","SECT":" ","MAREA":" ","LANE":" ","ALLEY":" ","HOUSE_NO":"５４號十樓之１２","E_COORD97":172009.23000000001,"N_COORD97":2549058.5800000001,"ADDRESS":"中正北路５４號十樓之１２","OBJECTID":513706},"geometry":{"x":172009.23000000045,"y":2549058.5800000038}},{"attributes":{"ID":513734,"DIS_CODE":0,"TOWNNAME":"南區","LI":"新生里","LIN":"1鄰","STREET":"大林路","SECT":" ","MAREA":" ","LANE":" ","ALLEY":" ","HOUSE_NO":"６號七樓之５","E_COORD97":169339.28,"N_COORD97":2541879,"ADDRESS":"大林路６號七樓之５","OBJECTID":513707},"geometry":{"x":169339.28000000119,"y":2541879.0000000019}},{"attributes":{"ID":513735,"DIS_CODE":0,"TOWNNAME":"永康區","LI":"大橋里","LIN":"1鄰","STREET":"中華路","SECT":" ","MAREA":" ","LANE":" ","ALLEY":" ","HOUSE_NO":"８６２號七樓之８","E_COORD97":170635.78,"N_COORD97":2546605.79,"ADDRESS":"中華路８６２號七樓之８","OBJECTID":513708},"geometry":{"x":170635.78000000212,"y":2546605.790000001}},{"attributes":{"ID":513736,"DIS_CODE":0,"TOWNNAME":"永康區","LI":"大橋里","LIN":"1鄰","STREET":"中華路","SECT":" ","MAREA":" ","LANE":" ","ALLEY":" ","HOUSE_NO":"８６２號五樓之６","E_COORD97":170635.73000000001,"N_COORD97":2546605.79,"ADDRESS":"中華路８６２號五樓之６","OBJECTID":513709},"geometry":{"x":170635.73000000045,"y":2546605.790000001}},{"attributes":{"ID":513737,"DIS_CODE":0,"TOWNNAME":"永康區","LI":"六合里","LIN":"1鄰","STREET":"新興街","SECT":" ","MAREA":" ","LANE":" ","ALLEY":" ","HOUSE_NO":"６之１號七樓之１","E_COORD97":170932.85999999999,"N_COORD97":2545719.7999999998,"ADDRESS":"新興街６之１號七樓之１","OBJECTID":513710},"geometry":{"x":170932.86000000034,"y":2545719.8000000026}},{"attributes":{"ID":513738,"DIS_CODE":0,"TOWNNAME":"永康區","LI":"大橋里","LIN":"1鄰","STREET":"中華路","SECT":" ","MAREA":" ","LANE":" ","ALLEY":" ","HOUSE_NO":"８６２號四樓之７","E_COORD97":170635.70999999999,"N_COORD97":2546605.79,"ADDRESS":"中華路８６２號四樓之７","OBJECTID":513711},"geometry":{"x":170635.70999999996,"y":2546605.790000001}},{"attributes":{"ID":513739,"DIS_CODE":0,"TOWNNAME":"永康區","LI":"六合里","LIN":"1鄰","STREET":"新興街","SECT":" ","MAREA":" ","LANE":" ","ALLEY":" ","HOUSE_NO":"８號三樓之３","E_COORD97":170922.67000000001,"N_COORD97":2545756.79,"ADDRESS":"新興街８號三樓之３","OBJECTID":513712},"geometry":{"x":170922.67000000179,"y":2545756.7899999991}},{"attributes":{"ID":513740,"DIS_CODE":0,"TOWNNAME":"永康區","LI":"五王里","LIN":"1鄰","STREET":"成功路","SECT":" ","MAREA":" ","LANE":" ","ALLEY":" ","HOUSE_NO":"６４號七樓之３","E_COORD97":171547.26000000001,"N_COORD97":2545487.0499999998,"ADDRESS":"成功路６４號七樓之３","OBJECTID":513713},"geometry":{"x":171547.25999999978,"y":2545487.0500000026}},{"attributes":{"ID":513741,"DIS_CODE":0,"TOWNNAME":"永康區","LI":"六合里","LIN":"1鄰","STREET":"新興街","SECT":" ","MAREA":" ","LANE":" ","ALLEY":" ","HOUSE_NO":"６之１號十一樓之６","E_COORD97":170934.22,"N_COORD97":2545719.7999999998,"ADDRESS":"新興街６之１號十一樓之６","OBJECTID":513714},"geometry":{"x":170934.22000000067,"y":2545719.8000000026}},{"attributes":{"ID":513742,"DIS_CODE":0,"TOWNNAME":"永康區","LI":"六合里","LIN":"1鄰","STREET":"新興街","SECT":" ","MAREA":" ","LANE":" ","ALLEY":" ","HOUSE_NO":"６之１號十一樓之３","E_COORD97":170934.20999999999,"N_COORD97":2545719.7999999998,"ADDRESS":"新興街６之１號十一樓之３","OBJECTID":513715},"geometry":{"x":170934.20999999903,"y":2545719.8000000026}},{"attributes":{"ID":513743,"DIS_CODE":0,"TOWNNAME":"永康區","LI":"五王里","LIN":"1鄰","STREET":"成功路","SECT":" ","MAREA":" ","LANE":" ","ALLEY":" ","HOUSE_NO":"６０號六樓之２","E_COORD97":171546.88,"N_COORD97":2545481.2999999998,"ADDRESS":"成功路６０號六樓之２","OBJECTID":513716},"geometry":{"x":171546.88000000082,"y":2545481.3000000026}},{"attributes":{"ID":513744,"DIS_CODE":0,"TOWNNAME":"永康區","LI":"大橋里","LIN":"1鄰","STREET":"中華路","SECT":" ","MAREA":" ","LANE":" ","ALLEY":" ","HOUSE_NO":"８６２號八樓之８","E_COORD97":170635.78,"N_COORD97":2546605.79,"ADDRESS":"中華路８６２號八樓之８","OBJECTID":513717},"geometry":{"x":170635.78000000212,"y":2546605.790000001}},{"attributes":{"ID":513745,"DIS_CODE":0,"TOWNNAME":"永康區","LI":"大橋里","LIN":"1鄰","STREET":"中華路","SECT":" ","MAREA":" ","LANE":" ","ALLEY":" ","HOUSE_NO":"８６２號四樓之３","E_COORD97":170635.73000000001,"N_COORD97":2546605.79,"ADDRESS":"中華路８６２號四樓之３","OBJECTID":513718},"geometry":{"x":170635.73000000045,"y":2546605.790000001}},{"attributes":{"ID":513746,"DIS_CODE":0,"TOWNNAME":"永康區","LI":"六合里","LIN":"1鄰","STREET":"新興街","SECT":" ","MAREA":" ","LANE":" ","ALLEY":" ","HOUSE_NO":"６之１號二樓之２","E_COORD97":170933,"N_COORD97":2545719.7999999998,"ADDRESS":"新興街６之１號二樓之２","OBJECTID":513719},"geometry":{"x":170933.00000000093,"y":2545719.8000000026}},{"attributes":{"ID":513747,"DIS_CODE":0,"TOWNNAME":"永康區","LI":"六合里","LIN":"1鄰","STREET":"新興街","SECT":" ","MAREA":" ","LANE":" ","ALLEY":" ","HOUSE_NO":"８之１號五樓之６","E_COORD97":170947.98000000001,"N_COORD97":2545766.79,"ADDRESS":"新興街８之１號五樓之６","OBJECTID":513720},"geometry":{"x":170947.98000000045,"y":2545766.7899999991}},{"attributes":{"ID":513748,"DIS_CODE":0,"TOWNNAME":"永康區","LI":"六合里","LIN":"1鄰","STREET":"新興街","SECT":" ","MAREA":" ","LANE":" ","ALLEY":" ","HOUSE_NO":"６之１號三樓之１","E_COORD97":170932.85999999999,"N_COORD97":2545719.7999999998,"ADDRESS":"新興街６之１號三樓之１","OBJECTID":513721},"geometry":{"x":170932.86000000034,"y":2545719.8000000026}},{"attributes":{"ID":513749,"DIS_CODE":0,"TOWNNAME":"永康區","LI":"六合里","LIN":"1鄰","STREET":"新興街","SECT":" ","MAREA":" ","LANE":" ","ALLEY":" ","HOUSE_NO":"６之１號六樓之３","E_COORD97":170932.95999999999,"N_COORD97":2545719.7999999998,"ADDRESS":"新興街６之１號六樓之３","OBJECTID":513722},"geometry":{"x":170932.96000000089,"y":2545719.8000000026}},{"attributes":{"ID":513750,"DIS_CODE":0,"TOWNNAME":"永康區","LI":"大橋里","LIN":"1鄰","STREET":"中華路","SECT":" ","MAREA":" ","LANE":" ","ALLEY":" ","HOUSE_NO":"９０８號五樓","E_COORD97":170542.12,"N_COORD97":2546672,"ADDRESS":"中華路９０８號五樓","OBJECTID":513723},"geometry":{"x":170542.12000000104,"y":2546672.0000000037}},{"attributes":{"ID":513751,"DIS_CODE":0,"TOWNNAME":"南區","LI":"新生里","LIN":"1鄰","STREET":"大林路","SECT":" ","MAREA":" ","LANE":" ","ALLEY":" ","HOUSE_NO":"６號八樓之１","E_COORD97":169339.28,"N_COORD97":2541879,"ADDRESS":"大林路６號八樓之１","OBJECTID":513724},"geometry":{"x":169339.28000000119,"y":2541879.0000000019}},{"attributes":{"ID":513752,"DIS_CODE":0,"TOWNNAME":"新化區","LI":"豐榮里","LIN":"1鄰","STREET":"中山路","SECT":" ","MAREA":" ","LANE":" ","ALLEY":" ","HOUSE_NO":"６１５號八樓之５","E_COORD97":178244.47,"N_COORD97":2548475.2599999998,"ADDRESS":"中山路６１５號八樓之５","OBJECTID":513725},"geometry":{"x":178244.47000000067,"y":2548475.2600000016}},{"attributes":{"ID":513753,"DIS_CODE":0,"TOWNNAME":"南區","LI":"新生里","LIN":"1鄰","STREET":"大林路","SECT":" ","MAREA":" ","LANE":" ","ALLEY":" ","HOUSE_NO":"６號八樓之３","E_COORD97":169339.28,"N_COORD97":2541879,"ADDRESS":"大林路６號八樓之３","OBJECTID":513726},"geometry":{"x":169339.28000000119,"y":2541879.0000000019}},{"attributes":{"ID":513754,"DIS_CODE":0,"TOWNNAME":"東區","LI":"路東里","LIN":"1鄰","STREET":"大同路","SECT":"二段","MAREA":" ","LANE":" ","ALLEY":" ","HOUSE_NO":"６３號七樓","E_COORD97":169325.60000000001,"N_COORD97":2542231.3199999998,"ADDRESS":"大同路二段６３號七樓","OBJECTID":513727},"geometry":{"x":169325.59999999963,"y":2542231.3200000003}},{"attributes":{"ID":513755,"DIS_CODE":0,"TOWNNAME":"東區","LI":"路東里","LIN":"1鄰","STREET":"大同路","SECT":"二段","MAREA":" ","LANE":" ","ALLEY":" ","HOUSE_NO":"６３號七樓之１","E_COORD97":169325.60000000001,"N_COORD97":2542231.3199999998,"ADDRESS":"大同路二段６３號七樓之１","OBJECTID":513728},"geometry":{"x":169325.59999999963,"y":2542231.3200000003}},{"attributes":{"ID":513756,"DIS_CODE":0,"TOWNNAME":"東區","LI":"路東里","LIN":"1鄰","STREET":"大同路","SECT":"二段","MAREA":" ","LANE":" ","ALLEY":" ","HOUSE_NO":"６３號七樓之２","E_COORD97":169325.60000000001,"N_COORD97":2542231.3199999998,"ADDRESS":"大同路二段６３號七樓之２","OBJECTID":513729},"geometry":{"x":169325.59999999963,"y":2542231.3200000003}},{"attributes":{"ID":513757,"DIS_CODE":0,"TOWNNAME":"東區","LI":"路東里","LIN":"1鄰","STREET":"大同路","SECT":"二段","MAREA":" ","LANE":" ","ALLEY":" ","HOUSE_NO":"６３號七樓之３","E_COORD97":169325.60000000001,"N_COORD97":2542231.3199999998,"ADDRESS":"大同路二段６３號七樓之３","OBJECTID":513730},"geometry":{"x":169325.59999999963,"y":2542231.3200000003}},{"attributes":{"ID":513758,"DIS_CODE":0,"TOWNNAME":"東區","LI":"路東里","LIN":"1鄰","STREET":"大同路","SECT":"二段","MAREA":" ","LANE":" ","ALLEY":" ","HOUSE_NO":"６３號七樓之４","E_COORD97":169325.60000000001,"N_COORD97":2542231.3199999998,"ADDRESS":"大同路二段６３號七樓之４","OBJECTID":513731},"geometry":{"x":169325.59999999963,"y":2542231.3200000003}},{"attributes":{"ID":513759,"DIS_CODE":0,"TOWNNAME":"東區","LI":"路東里","LIN":"1鄰","STREET":"大同路","SECT":"二段","MAREA":" ","LANE":" ","ALLEY":" ","HOUSE_NO":"６３號七樓之５","E_COORD97":169325.60000000001,"N_COORD97":2542231.3199999998,"ADDRESS":"大同路二段６３號七樓之５","OBJECTID":513732},"geometry":{"x":169325.59999999963,"y":2542231.3200000003}},{"attributes":{"ID":513760,"DIS_CODE":0,"TOWNNAME":"東區","LI":"路東里","LIN":"1鄰","STREET":"大同路","SECT":"二段","MAREA":" ","LANE":" ","ALLEY":" ","HOUSE_NO":"６３號九樓","E_COORD97":169325.60000000001,"N_COORD97":2542231.3199999998,"ADDRESS":"大同路二段６３號九樓","OBJECTID":513733},"geometry":{"x":169325.59999999963,"y":2542231.3200000003}},{"attributes":{"ID":513761,"DIS_CODE":0,"TOWNNAME":"東區","LI":"路東里","LIN":"1鄰","STREET":"大同路","SECT":"二段","MAREA":" ","LANE":" ","ALLEY":" ","HOUSE_NO":"６３號九樓之１","E_COORD97":169325.60000000001,"N_COORD97":2542231.3199999998,"ADDRESS":"大同路二段６３號九樓之１","OBJECTID":513734},"geometry":{"x":169325.59999999963,"y":2542231.3200000003}},{"attributes":{"ID":513762,"DIS_CODE":0,"TOWNNAME":"東區","LI":"路東里","LIN":"1鄰","STREET":"大同路","SECT":"二段","MAREA":" ","LANE":" ","ALLEY":" ","HOUSE_NO":"６３號九樓之２","E_COORD97":169325.60000000001,"N_COORD97":2542231.3199999998,"ADDRESS":"大同路二段６３號九樓之２","OBJECTID":513735},"geometry":{"x":169325.59999999963,"y":2542231.3200000003}},{"attributes":{"ID":513763,"DIS_CODE":0,"TOWNNAME":"東區","LI":"路東里","LIN":"1鄰","STREET":"大同路","SECT":"二段","MAREA":" ","LANE":" ","ALLEY":" ","HOUSE_NO":"６３號九樓之３","E_COORD97":169325.60000000001,"N_COORD97":2542231.3199999998,"ADDRESS":"大同路二段６３號九樓之３","OBJECTID":513736},"geometry":{"x":169325.59999999963,"y":2542231.3200000003}},{"attributes":{"ID":513764,"DIS_CODE":0,"TOWNNAME":"東區","LI":"路東里","LIN":"1鄰","STREET":"大同路","SECT":"二段","MAREA":" ","LANE":" ","ALLEY":" ","HOUSE_NO":"６３號九樓之５","E_COORD97":169325.60000000001,"N_COORD97":2542231.3199999998,"ADDRESS":"大同路二段６３號九樓之５","OBJECTID":513737},"geometry":{"x":169325.59999999963,"y":2542231.3200000003}},{"attributes":{"ID":513765,"DIS_CODE":0,"TOWNNAME":"東區","LI":"路東里","LIN":"1鄰","STREET":"大同路","SECT":"二段","MAREA":" ","LANE":" ","ALLEY":" ","HOUSE_NO":"６３號八樓","E_COORD97":169325.60000000001,"N_COORD97":2542231.3199999998,"ADDRESS":"大同路二段６３號八樓","OBJECTID":513738},"geometry":{"x":169325.59999999963,"y":2542231.3200000003}},{"attributes":{"ID":513766,"DIS_CODE":0,"TOWNNAME":"東區","LI":"路東里","LIN":"1鄰","STREET":"大同路","SECT":"二段","MAREA":" ","LANE":" ","ALLEY":" ","HOUSE_NO":"６３號八樓之１","E_COORD97":169325.60000000001,"N_COORD97":2542231.3199999998,"ADDRESS":"大同路二段６３號八樓之１","OBJECTID":513739},"geometry":{"x":169325.59999999963,"y":2542231.3200000003}},{"attributes":{"ID":513767,"DIS_CODE":0,"TOWNNAME":"東區","LI":"路東里","LIN":"1鄰","STREET":"大同路","SECT":"二段","MAREA":" ","LANE":" ","ALLEY":" ","HOUSE_NO":"６３號八樓之２","E_COORD97":169325.60000000001,"N_COORD97":2542231.3199999998,"ADDRESS":"大同路二段６３號八樓之２","OBJECTID":513740},"geometry":{"x":169325.59999999963,"y":2542231.3200000003}},{"attributes":{"ID":513768,"DIS_CODE":0,"TOWNNAME":"東區","LI":"路東里","LIN":"1鄰","STREET":"大同路","SECT":"二段","MAREA":" ","LANE":" ","ALLEY":" ","HOUSE_NO":"６３號八樓之３","E_COORD97":169325.60000000001,"N_COORD97":2542231.3199999998,"ADDRESS":"大同路二段６３號八樓之３","OBJECTID":513741},"geometry":{"x":169325.59999999963,"y":2542231.3200000003}},{"attributes":{"ID":513769,"DIS_CODE":0,"TOWNNAME":"東區","LI":"路東里","LIN":"1鄰","STREET":"大同路","SECT":"二段","MAREA":" ","LANE":" ","ALLEY":" ","HOUSE_NO":"６３號八樓之４","E_COORD97":169325.60000000001,"N_COORD97":2542231.3199999998,"ADDRESS":"大同路二段６３號八樓之４","OBJECTID":513742},"geometry":{"x":169325.59999999963,"y":2542231.3200000003}},{"attributes":{"ID":513770,"DIS_CODE":0,"TOWNNAME":"東區","LI":"路東里","LIN":"1鄰","STREET":"大同路","SECT":"二段","MAREA":" ","LANE":" ","ALLEY":" ","HOUSE_NO":"６３號八樓之５","E_COORD97":169325.60000000001,"N_COORD97":2542231.3199999998,"ADDRESS":"大同路二段６３號八樓之５","OBJECTID":513743},"geometry":{"x":169325.59999999963,"y":2542231.3200000003}},{"attributes":{"ID":513771,"DIS_CODE":0,"TOWNNAME":"東區","LI":"路東里","LIN":"1鄰","STREET":"大同路","SECT":"二段","MAREA":" ","LANE":" ","ALLEY":" ","HOUSE_NO":"６３號十一樓","E_COORD97":169325.60000000001,"N_COORD97":2542231.3199999998,"ADDRESS":"大同路二段６３號十一樓","OBJECTID":513744},"geometry":{"x":169325.59999999963,"y":2542231.3200000003}},{"attributes":{"ID":513772,"DIS_CODE":0,"TOWNNAME":"東區","LI":"路東里","LIN":"1鄰","STREET":"大同路","SECT":"二段","MAREA":" ","LANE":" ","ALLEY":" ","HOUSE_NO":"６３號十一樓之１","E_COORD97":169325.60000000001,"N_COORD97":2542231.3199999998,"ADDRESS":"大同路二段６３號十一樓之１","OBJECTID":513745},"geometry":{"x":169325.59999999963,"y":2542231.3200000003}},{"attributes":{"ID":513773,"DIS_CODE":0,"TOWNNAME":"東區","LI":"路東里","LIN":"1鄰","STREET":"大同路","SECT":"二段","MAREA":" ","LANE":" ","ALLEY":" ","HOUSE_NO":"６３號十一樓之２","E_COORD97":169325.60000000001,"N_COORD97":2542231.3199999998,"ADDRESS":"大同路二段６３號十一樓之２","OBJECTID":513746},"geometry":{"x":169325.59999999963,"y":2542231.3200000003}},{"attributes":{"ID":513774,"DIS_CODE":0,"TOWNNAME":"東區","LI":"路東里","LIN":"1鄰","STREET":"大同路","SECT":"二段","MAREA":" ","LANE":" ","ALLEY":" ","HOUSE_NO":"６３號十一樓之３","E_COORD97":169325.60000000001,"N_COORD97":2542231.3199999998,"ADDRESS":"大同路二段６３號十一樓之３","OBJECTID":513747},"geometry":{"x":169325.59999999963,"y":2542231.3200000003}},{"attributes":{"ID":513775,"DIS_CODE":0,"TOWNNAME":"東區","LI":"路東里","LIN":"1鄰","STREET":"大同路","SECT":"二段","MAREA":" ","LANE":" ","ALLEY":" ","HOUSE_NO":"６３號十一樓之４","E_COORD97":169325.60000000001,"N_COORD97":2542231.3199999998,"ADDRESS":"大同路二段６３號十一樓之４","OBJECTID":513748},"geometry":{"x":169325.59999999963,"y":2542231.3200000003}},{"attributes":{"ID":513776,"DIS_CODE":0,"TOWNNAME":"東區","LI":"路東里","LIN":"1鄰","STREET":"大同路","SECT":"二段","MAREA":" ","LANE":" ","ALLEY":" ","HOUSE_NO":"６３號十一樓之５","E_COORD97":169325.60000000001,"N_COORD97":2542231.3199999998,"ADDRESS":"大同路二段６３號十一樓之５","OBJECTID":513749},"geometry":{"x":169325.59999999963,"y":2542231.3200000003}},{"attributes":{"ID":513777,"DIS_CODE":0,"TOWNNAME":"東區","LI":"路東里","LIN":"1鄰","STREET":"大同路","SECT":"二段","MAREA":" ","LANE":" ","ALLEY":" ","HOUSE_NO":"６３號十二樓","E_COORD97":169325.60000000001,"N_COORD97":2542231.3199999998,"ADDRESS":"大同路二段６３號十二樓","OBJECTID":513750},"geometry":{"x":169325.59999999963,"y":2542231.3200000003}},{"attributes":{"ID":513778,"DIS_CODE":0,"TOWNNAME":"東區","LI":"路東里","LIN":"1鄰","STREET":"大同路","SECT":"二段","MAREA":" ","LANE":" ","ALLEY":" ","HOUSE_NO":"６３號十二樓之１","E_COORD97":169325.60000000001,"N_COORD97":2542231.3199999998,"ADDRESS":"大同路二段６３號十二樓之１","OBJECTID":513751},"geometry":{"x":169325.59999999963,"y":2542231.3200000003}},{"attributes":{"ID":513779,"DIS_CODE":0,"TOWNNAME":"東區","LI":"路東里","LIN":"1鄰","STREET":"大同路","SECT":"二段","MAREA":" ","LANE":" ","ALLEY":" ","HOUSE_NO":"６３號十二樓之２","E_COORD97":169325.60000000001,"N_COORD97":2542231.3199999998,"ADDRESS":"大同路二段６３號十二樓之２","OBJECTID":513752},"geometry":{"x":169325.59999999963,"y":2542231.3200000003}},{"attributes":{"ID":513780,"DIS_CODE":0,"TOWNNAME":"東區","LI":"路東里","LIN":"1鄰","STREET":"大同路","SECT":"二段","MAREA":" ","LANE":" ","ALLEY":" ","HOUSE_NO":"６３號十二樓之３","E_COORD97":169325.60000000001,"N_COORD97":2542231.3199999998,"ADDRESS":"大同路二段６３號十二樓之３","OBJECTID":513753},"geometry":{"x":169325.59999999963,"y":2542231.3200000003}},{"attributes":{"ID":513781,"DIS_CODE":0,"TOWNNAME":"東區","LI":"路東里","LIN":"1鄰","STREET":"大同路","SECT":"二段","MAREA":" ","LANE":" ","ALLEY":" ","HOUSE_NO":"６３號十二樓之４","E_COORD97":169325.60000000001,"N_COORD97":2542231.3199999998,"ADDRESS":"大同路二段６３號十二樓之４","OBJECTID":513754},"geometry":{"x":169325.59999999963,"y":2542231.3200000003}},{"attributes":{"ID":513782,"DIS_CODE":0,"TOWNNAME":"東區","LI":"路東里","LIN":"1鄰","STREET":"大同路","SECT":"二段","MAREA":" ","LANE":" ","ALLEY":" ","HOUSE_NO":"６３號十二樓之５","E_COORD97":169325.60000000001,"N_COORD97":2542231.3199999998,"ADDRESS":"大同路二段６３號十二樓之５","OBJECTID":513755},"geometry":{"x":169325.59999999963,"y":2542231.3200000003}},{"attributes":{"ID":513783,"DIS_CODE":0,"TOWNNAME":"東區","LI":"路東里","LIN":"1鄰","STREET":"大同路","SECT":"二段","MAREA":" ","LANE":" ","ALLEY":" ","HOUSE_NO":"６３號十三樓","E_COORD97":169325.60000000001,"N_COORD97":2542231.3199999998,"ADDRESS":"大同路二段６３號十三樓","OBJECTID":513756},"geometry":{"x":169325.59999999963,"y":2542231.3200000003}},{"attributes":{"ID":513784,"DIS_CODE":0,"TOWNNAME":"東區","LI":"路東里","LIN":"1鄰","STREET":"大同路","SECT":"二段","MAREA":" ","LANE":" ","ALLEY":" ","HOUSE_NO":"６３號十三樓之１","E_COORD97":169325.60000000001,"N_COORD97":2542231.3199999998,"ADDRESS":"大同路二段６３號十三樓之１","OBJECTID":513757},"geometry":{"x":169325.59999999963,"y":2542231.3200000003}},{"attributes":{"ID":513785,"DIS_CODE":0,"TOWNNAME":"東區","LI":"路東里","LIN":"1鄰","STREET":"大同路","SECT":"二段","MAREA":" ","LANE":" ","ALLEY":" ","HOUSE_NO":"６３號十三樓之２","E_COORD97":169325.60000000001,"N_COORD97":2542231.3199999998,"ADDRESS":"大同路二段６３號十三樓之２","OBJECTID":513758},"geometry":{"x":169325.59999999963,"y":2542231.3200000003}},{"attributes":{"ID":513786,"DIS_CODE":0,"TOWNNAME":"東區","LI":"路東里","LIN":"1鄰","STREET":"大同路","SECT":"二段","MAREA":" ","LANE":" ","ALLEY":" ","HOUSE_NO":"６３號十三樓之３","E_COORD97":169325.60000000001,"N_COORD97":2542231.3199999998,"ADDRESS":"大同路二段６３號十三樓之３","OBJECTID":513759},"geometry":{"x":169325.59999999963,"y":2542231.3200000003}},{"attributes":{"ID":513787,"DIS_CODE":0,"TOWNNAME":"東區","LI":"路東里","LIN":"1鄰","STREET":"大同路","SECT":"二段","MAREA":" ","LANE":" ","ALLEY":" ","HOUSE_NO":"６３號十三樓之４","E_COORD97":169325.60000000001,"N_COORD97":2542231.3199999998,"ADDRESS":"大同路二段６３號十三樓之４","OBJECTID":513760},"geometry":{"x":169325.59999999963,"y":2542231.3200000003}},{"attributes":{"ID":513788,"DIS_CODE":0,"TOWNNAME":"東區","LI":"路東里","LIN":"1鄰","STREET":"大同路","SECT":"二段","MAREA":" ","LANE":" ","ALLEY":" ","HOUSE_NO":"６３號十三樓之５","E_COORD97":169325.60000000001,"N_COORD97":2542231.3199999998,"ADDRESS":"大同路二段６３號十三樓之５","OBJECTID":513761},"geometry":{"x":169325.59999999963,"y":2542231.3200000003}},{"attributes":{"ID":513789,"DIS_CODE":0,"TOWNNAME":"東區","LI":"路東里","LIN":"1鄰","STREET":"大同路","SECT":"二段","MAREA":" ","LANE":" ","ALLEY":" ","HOUSE_NO":"６３號十五樓","E_COORD97":169325.60000000001,"N_COORD97":2542231.3199999998,"ADDRESS":"大同路二段６３號十五樓","OBJECTID":513762},"geometry":{"x":169325.59999999963,"y":2542231.3200000003}},{"attributes":{"ID":513790,"DIS_CODE":0,"TOWNNAME":"東區","LI":"路東里","LIN":"1鄰","STREET":"大同路","SECT":"二段","MAREA":" ","LANE":" ","ALLEY":" ","HOUSE_NO":"６３號十五樓之１","E_COORD97":169325.60000000001,"N_COORD97":2542231.3199999998,"ADDRESS":"大同路二段６３號十五樓之１","OBJECTID":513763},"geometry":{"x":169325.59999999963,"y":2542231.3200000003}},{"attributes":{"ID":513791,"DIS_CODE":0,"TOWNNAME":"東區","LI":"路東里","LIN":"1鄰","STREET":"大同路","SECT":"二段","MAREA":" ","LANE":" ","ALLEY":" ","HOUSE_NO":"６３號十五樓之２","E_COORD97":169325.60000000001,"N_COORD97":2542231.3199999998,"ADDRESS":"大同路二段６３號十五樓之２","OBJECTID":513764},"geometry":{"x":169325.59999999963,"y":2542231.3200000003}},{"attributes":{"ID":513792,"DIS_CODE":0,"TOWNNAME":"東區","LI":"路東里","LIN":"1鄰","STREET":"大同路","SECT":"二段","MAREA":" ","LANE":" ","ALLEY":" ","HOUSE_NO":"６３號十五樓之３","E_COORD97":169325.60000000001,"N_COORD97":2542231.3199999998,"ADDRESS":"大同路二段６３號十五樓之３","OBJECTID":513765},"geometry":{"x":169325.59999999963,"y":2542231.3200000003}},{"attributes":{"ID":513793,"DIS_CODE":0,"TOWNNAME":"東區","LI":"路東里","LIN":"1鄰","STREET":"大同路","SECT":"二段","MAREA":" ","LANE":" ","ALLEY":" ","HOUSE_NO":"６３號十五樓之４","E_COORD97":169325.60000000001,"N_COORD97":2542231.3199999998,"ADDRESS":"大同路二段６３號十五樓之４","OBJECTID":513766},"geometry":{"x":169325.59999999963,"y":2542231.3200000003}},{"attributes":{"ID":513794,"DIS_CODE":0,"TOWNNAME":"東區","LI":"路東里","LIN":"1鄰","STREET":"大同路","SECT":"二段","MAREA":" ","LANE":" ","ALLEY":" ","HOUSE_NO":"６３號十五樓之５","E_COORD97":169325.60000000001,"N_COORD97":2542231.3199999998,"ADDRESS":"大同路二段６３號十五樓之５","OBJECTID":513767},"geometry":{"x":169325.59999999963,"y":2542231.3200000003}},{"attributes":{"ID":513795,"DIS_CODE":0,"TOWNNAME":"東區","LI":"路東里","LIN":"1鄰","STREET":"大同路","SECT":"二段","MAREA":" ","LANE":" ","ALLEY":" ","HOUSE_NO":"６３號十六樓","E_COORD97":169325.60000000001,"N_COORD97":2542231.3199999998,"ADDRESS":"大同路二段６３號十六樓","OBJECTID":513768},"geometry":{"x":169325.59999999963,"y":2542231.3200000003}},{"attributes":{"ID":513796,"DIS_CODE":0,"TOWNNAME":"東區","LI":"路東里","LIN":"1鄰","STREET":"大同路","SECT":"二段","MAREA":" ","LANE":" ","ALLEY":" ","HOUSE_NO":"６３號十六樓之１","E_COORD97":169325.60000000001,"N_COORD97":2542231.3199999998,"ADDRESS":"大同路二段６３號十六樓之１","OBJECTID":513769},"geometry":{"x":169325.59999999963,"y":2542231.3200000003}},{"attributes":{"ID":513797,"DIS_CODE":0,"TOWNNAME":"東區","LI":"路東里","LIN":"1鄰","STREET":"大同路","SECT":"二段","MAREA":" ","LANE":" ","ALLEY":" ","HOUSE_NO":"６３號十六樓之２","E_COORD97":169325.60000000001,"N_COORD97":2542231.3199999998,"ADDRESS":"大同路二段６３號十六樓之２","OBJECTID":513770},"geometry":{"x":169325.59999999963,"y":2542231.3200000003}},{"attributes":{"ID":513798,"DIS_CODE":0,"TOWNNAME":"中西區","LI":"保安里","LIN":"1鄰","STREET":"友愛街","SECT":" ","MAREA":" ","LANE":" ","ALLEY":" ","HOUSE_NO":"１７９號","E_COORD97":167766.26000000001,"N_COORD97":2543586.96,"ADDRESS":"友愛街１７９號","OBJECTID":513771},"geometry":{"x":167766.26000000071,"y":2543586.9600000009}},{"attributes":{"ID":513799,"DIS_CODE":0,"TOWNNAME":"東區","LI":"路東里","LIN":"1鄰","STREET":"大同路","SECT":"二段","MAREA":" ","LANE":" ","ALLEY":" ","HOUSE_NO":"６３號四樓之５","E_COORD97":169325.60000000001,"N_COORD97":2542231.3199999998,"ADDRESS":"大同路二段６３號四樓之５","OBJECTID":513772},"geometry":{"x":169325.59999999963,"y":2542231.3200000003}},{"attributes":{"ID":513800,"DIS_CODE":0,"TOWNNAME":"東區","LI":"路東里","LIN":"1鄰","STREET":"大同路","SECT":"二段","MAREA":" ","LANE":" ","ALLEY":" ","HOUSE_NO":"６３號十六樓之３","E_COORD97":169325.60000000001,"N_COORD97":2542231.3199999998,"ADDRESS":"大同路二段６３號十六樓之３","OBJECTID":513773},"geometry":{"x":169325.59999999963,"y":2542231.3200000003}},{"attributes":{"ID":513801,"DIS_CODE":0,"TOWNNAME":"東區","LI":"路東里","LIN":"1鄰","STREET":"大同路","SECT":"二段","MAREA":" ","LANE":" ","ALLEY":" ","HOUSE_NO":"６３號十六樓之４","E_COORD97":169325.60000000001,"N_COORD97":2542231.3199999998,"ADDRESS":"大同路二段６３號十六樓之４","OBJECTID":513774},"geometry":{"x":169325.59999999963,"y":2542231.3200000003}},{"attributes":{"ID":513802,"DIS_CODE":0,"TOWNNAME":"東區","LI":"路東里","LIN":"1鄰","STREET":"大同路","SECT":"二段","MAREA":" ","LANE":" ","ALLEY":" ","HOUSE_NO":"６３號十六樓之５","E_COORD97":169325.60000000001,"N_COORD97":2542231.3199999998,"ADDRESS":"大同路二段６３號十六樓之５","OBJECTID":513775},"geometry":{"x":169325.59999999963,"y":2542231.3200000003}},{"attributes":{"ID":513803,"DIS_CODE":0,"TOWNNAME":"東區","LI":"路東里","LIN":"1鄰","STREET":"大同路","SECT":"二段","MAREA":" ","LANE":" ","ALLEY":" ","HOUSE_NO":"６３號十四樓","E_COORD97":169325.60000000001,"N_COORD97":2542231.3199999998,"ADDRESS":"大同路二段６３號十四樓","OBJECTID":513776},"geometry":{"x":169325.59999999963,"y":2542231.3200000003}},{"attributes":{"ID":513804,"DIS_CODE":0,"TOWNNAME":"東區","LI":"路東里","LIN":"1鄰","STREET":"大同路","SECT":"二段","MAREA":" ","LANE":" ","ALLEY":" ","HOUSE_NO":"６３號十四樓之１","E_COORD97":169325.60000000001,"N_COORD97":2542231.3199999998,"ADDRESS":"大同路二段６３號十四樓之１","OBJECTID":513777},"geometry":{"x":169325.59999999963,"y":2542231.3200000003}},{"attributes":{"ID":513805,"DIS_CODE":0,"TOWNNAME":"東區","LI":"路東里","LIN":"1鄰","STREET":"大同路","SECT":"二段","MAREA":" ","LANE":" ","ALLEY":" ","HOUSE_NO":"６３號十四樓之２","E_COORD97":169325.60000000001,"N_COORD97":2542231.3199999998,"ADDRESS":"大同路二段６３號十四樓之２","OBJECTID":513778},"geometry":{"x":169325.59999999963,"y":2542231.3200000003}},{"attributes":{"ID":513806,"DIS_CODE":0,"TOWNNAME":"東區","LI":"路東里","LIN":"1鄰","STREET":"大同路","SECT":"二段","MAREA":" ","LANE":" ","ALLEY":" ","HOUSE_NO":"６３號十四樓之３","E_COORD97":169325.60000000001,"N_COORD97":2542231.3199999998,"ADDRESS":"大同路二段６３號十四樓之３","OBJECTID":513779},"geometry":{"x":169325.59999999963,"y":2542231.3200000003}},{"attributes":{"ID":513807,"DIS_CODE":0,"TOWNNAME":"東區","LI":"路東里","LIN":"1鄰","STREET":"大同路","SECT":"二段","MAREA":" ","LANE":" ","ALLEY":" ","HOUSE_NO":"６３號十四樓之５","E_COORD97":169325.60000000001,"N_COORD97":2542231.3199999998,"ADDRESS":"大同路二段６３號十四樓之５","OBJECTID":513780},"geometry":{"x":169325.59999999963,"y":2542231.3200000003}},{"attributes":{"ID":513808,"DIS_CODE":0,"TOWNNAME":"東區","LI":"路東里","LIN":"1鄰","STREET":"大同路","SECT":"二段","MAREA":" ","LANE":" ","ALLEY":" ","HOUSE_NO":"６３號十四樓之６","E_COORD97":169325.60000000001,"N_COORD97":2542231.3199999998,"ADDRESS":"大同路二段６３號十四樓之６","OBJECTID":513781},"geometry":{"x":169325.59999999963,"y":2542231.3200000003}},{"attributes":{"ID":513809,"DIS_CODE":0,"TOWNNAME":"東區","LI":"路東里","LIN":"1鄰","STREET":"大同路","SECT":"二段","MAREA":" ","LANE":" ","ALLEY":" ","HOUSE_NO":"６３號十樓","E_COORD97":169325.60000000001,"N_COORD97":2542231.3199999998,"ADDRESS":"大同路二段６３號十樓","OBJECTID":513782},"geometry":{"x":169325.59999999963,"y":2542231.3200000003}},{"attributes":{"ID":513810,"DIS_CODE":0,"TOWNNAME":"東區","LI":"路東里","LIN":"1鄰","STREET":"大同路","SECT":"二段","MAREA":" ","LANE":" ","ALLEY":" ","HOUSE_NO":"６３號十樓之１","E_COORD97":169325.60000000001,"N_COORD97":2542231.3199999998,"ADDRESS":"大同路二段６３號十樓之１","OBJECTID":513783},"geometry":{"x":169325.59999999963,"y":2542231.3200000003}},{"attributes":{"ID":513811,"DIS_CODE":0,"TOWNNAME":"東區","LI":"路東里","LIN":"1鄰","STREET":"大同路","SECT":"二段","MAREA":" ","LANE":" ","ALLEY":" ","HOUSE_NO":"６３號十樓之２","E_COORD97":169325.60000000001,"N_COORD97":2542231.3199999998,"ADDRESS":"大同路二段６３號十樓之２","OBJECTID":513784},"geometry":{"x":169325.59999999963,"y":2542231.3200000003}},{"attributes":{"ID":513812,"DIS_CODE":0,"TOWNNAME":"東區","LI":"路東里","LIN":"1鄰","STREET":"大同路","SECT":"二段","MAREA":" ","LANE":" ","ALLEY":" ","HOUSE_NO":"６３號十樓之３","E_COORD97":169325.60000000001,"N_COORD97":2542231.3199999998,"ADDRESS":"大同路二段６３號十樓之３","OBJECTID":513785},"geometry":{"x":169325.59999999963,"y":2542231.3200000003}},{"attributes":{"ID":513813,"DIS_CODE":0,"TOWNNAME":"東區","LI":"路東里","LIN":"1鄰","STREET":"大同路","SECT":"二段","MAREA":" ","LANE":" ","ALLEY":" ","HOUSE_NO":"６３號十樓之４","E_COORD97":169325.60000000001,"N_COORD97":2542231.3199999998,"ADDRESS":"大同路二段６３號十樓之４","OBJECTID":513786},"geometry":{"x":169325.59999999963,"y":2542231.3200000003}},{"attributes":{"ID":513814,"DIS_CODE":0,"TOWNNAME":"東區","LI":"路東里","LIN":"1鄰","STREET":"大同路","SECT":"二段","MAREA":" ","LANE":" ","ALLEY":" ","HOUSE_NO":"６３號十樓之５","E_COORD97":169325.60000000001,"N_COORD97":2542231.3199999998,"ADDRESS":"大同路二段６３號十樓之５","OBJECTID":513787},"geometry":{"x":169325.59999999963,"y":2542231.3200000003}},{"attributes":{"ID":513815,"DIS_CODE":0,"TOWNNAME":"東區","LI":"路東里","LIN":"1鄰","STREET":"大同路","SECT":"二段","MAREA":" ","LANE":" ","ALLEY":" ","HOUSE_NO":"６３號五樓","E_COORD97":169325.60000000001,"N_COORD97":2542231.3199999998,"ADDRESS":"大同路二段６３號五樓","OBJECTID":513788},"geometry":{"x":169325.59999999963,"y":2542231.3200000003}},{"attributes":{"ID":513816,"DIS_CODE":0,"TOWNNAME":"東區","LI":"路東里","LIN":"1鄰","STREET":"大同路","SECT":"二段","MAREA":" ","LANE":" ","ALLEY":" ","HOUSE_NO":"６３號五樓之１","E_COORD97":169325.60000000001,"N_COORD97":2542231.3199999998,"ADDRESS":"大同路二段６３號五樓之１","OBJECTID":513789},"geometry":{"x":169325.59999999963,"y":2542231.3200000003}},{"attributes":{"ID":513817,"DIS_CODE":0,"TOWNNAME":"東區","LI":"路東里","LIN":"1鄰","STREET":"大同路","SECT":"二段","MAREA":" ","LANE":" ","ALLEY":" ","HOUSE_NO":"６３號五樓之２","E_COORD97":169325.60000000001,"N_COORD97":2542231.3199999998,"ADDRESS":"大同路二段６３號五樓之２","OBJECTID":513790},"geometry":{"x":169325.59999999963,"y":2542231.3200000003}},{"attributes":{"ID":513818,"DIS_CODE":0,"TOWNNAME":"東區","LI":"路東里","LIN":"1鄰","STREET":"大同路","SECT":"二段","MAREA":" ","LANE":" ","ALLEY":" ","HOUSE_NO":"６３號五樓之３","E_COORD97":169325.60000000001,"N_COORD97":2542231.3199999998,"ADDRESS":"大同路二段６３號五樓之３","OBJECTID":513791},"geometry":{"x":169325.59999999963,"y":2542231.3200000003}},{"attributes":{"ID":513819,"DIS_CODE":0,"TOWNNAME":"東區","LI":"路東里","LIN":"1鄰","STREET":"大同路","SECT":"二段","MAREA":" ","LANE":" ","ALLEY":" ","HOUSE_NO":"６３號五樓之４","E_COORD97":169325.60000000001,"N_COORD97":2542231.3199999998,"ADDRESS":"大同路二段６３號五樓之４","OBJECTID":513792},"geometry":{"x":169325.59999999963,"y":2542231.3200000003}},{"attributes":{"ID":513820,"DIS_CODE":0,"TOWNNAME":"東區","LI":"路東里","LIN":"1鄰","STREET":"大同路","SECT":"二段","MAREA":" ","LANE":" ","ALLEY":" ","HOUSE_NO":"６３號五樓之５","E_COORD97":169325.60000000001,"N_COORD97":2542231.3199999998,"ADDRESS":"大同路二段６３號五樓之５","OBJECTID":513793},"geometry":{"x":169325.59999999963,"y":2542231.3200000003}},{"attributes":{"ID":513821,"DIS_CODE":0,"TOWNNAME":"東區","LI":"路東里","LIN":"1鄰","STREET":"大同路","SECT":"二段","MAREA":" ","LANE":" ","ALLEY":" ","HOUSE_NO":"６３號六樓","E_COORD97":169325.60000000001,"N_COORD97":2542231.3199999998,"ADDRESS":"大同路二段６３號六樓","OBJECTID":513794},"geometry":{"x":169325.59999999963,"y":2542231.3200000003}},{"attributes":{"ID":513822,"DIS_CODE":0,"TOWNNAME":"東區","LI":"路東里","LIN":"1鄰","STREET":"大同路","SECT":"二段","MAREA":" ","LANE":" ","ALLEY":" ","HOUSE_NO":"６３號六樓之１","E_COORD97":169325.60000000001,"N_COORD97":2542231.3199999998,"ADDRESS":"大同路二段６３號六樓之１","OBJECTID":513795},"geometry":{"x":169325.59999999963,"y":2542231.3200000003}},{"attributes":{"ID":513823,"DIS_CODE":0,"TOWNNAME":"東區","LI":"路東里","LIN":"1鄰","STREET":"大同路","SECT":"二段","MAREA":" ","LANE":" ","ALLEY":" ","HOUSE_NO":"６３號六樓之２","E_COORD97":169325.60000000001,"N_COORD97":2542231.3199999998,"ADDRESS":"大同路二段６３號六樓之２","OBJECTID":513796},"geometry":{"x":169325.59999999963,"y":2542231.3200000003}},{"attributes":{"ID":513824,"DIS_CODE":0,"TOWNNAME":"東區","LI":"路東里","LIN":"1鄰","STREET":"大同路","SECT":"二段","MAREA":" ","LANE":" ","ALLEY":" ","HOUSE_NO":"６３號六樓之３","E_COORD97":169325.60000000001,"N_COORD97":2542231.3199999998,"ADDRESS":"大同路二段６３號六樓之３","OBJECTID":513797},"geometry":{"x":169325.59999999963,"y":2542231.3200000003}},{"attributes":{"ID":513825,"DIS_CODE":0,"TOWNNAME":"東區","LI":"路東里","LIN":"1鄰","STREET":"大同路","SECT":"二段","MAREA":" ","LANE":" ","ALLEY":" ","HOUSE_NO":"６３號六樓之４","E_COORD97":169325.60000000001,"N_COORD97":2542231.3199999998,"ADDRESS":"大同路二段６３號六樓之４","OBJECTID":513798},"geometry":{"x":169325.59999999963,"y":2542231.3200000003}},{"attributes":{"ID":513826,"DIS_CODE":0,"TOWNNAME":"東區","LI":"路東里","LIN":"1鄰","STREET":"大同路","SECT":"二段","MAREA":" ","LANE":" ","ALLEY":" ","HOUSE_NO":"６３號六樓之５","E_COORD97":169325.60000000001,"N_COORD97":2542231.3199999998,"ADDRESS":"大同路二段６３號六樓之５","OBJECTID":513799},"geometry":{"x":169325.59999999963,"y":2542231.3200000003}},{"attributes":{"ID":513827,"DIS_CODE":0,"TOWNNAME":"東區","LI":"路東里","LIN":"1鄰","STREET":"大同路","SECT":"二段","MAREA":" ","LANE":" ","ALLEY":" ","HOUSE_NO":"６３號四樓","E_COORD97":169325.60000000001,"N_COORD97":2542231.3199999998,"ADDRESS":"大同路二段６３號四樓","OBJECTID":513800},"geometry":{"x":169325.59999999963,"y":2542231.3200000003}}]}