{"displayFieldName":"TOWNNAME","fieldAliases":{"ID":"ID","DIS_CODE":"DIS_CODE","TOWNNAME":"TOWNNAME","LI":"LI","LIN":"LIN","STREET":"STREET","SECT":"SECT","MAREA":"MAREA","LANE":"LANE","ALLEY":"ALLEY","HOUSE_NO":"HOUSE_NO","E_COORD97":"E_COORD97","N_COORD97":"N_COORD97","ADDRESS":"ADDRESS","OBJECTID":"OBJECTID"},"geometryType":"esriGeometryPoint","spatialReference":{"wkid":102443,"latestWkid":3826},"fields":[{"name":"ID","type":"esriFieldTypeDouble","alias":"ID"},{"name":"DIS_CODE","type":"esriFieldTypeInteger","alias":"DIS_CODE"},{"name":"TOWNNAME","type":"esriFieldTypeString","alias":"TOWNNAME","length":8},{"name":"LI","type":"esriFieldTypeString","alias":"LI","length":8},{"name":"LIN","type":"esriFieldTypeString","alias":"LIN","length":12},{"name":"STREET","type":"esriFieldTypeString","alias":"STREET","length":20},{"name":"SECT","type":"esriFieldTypeString","alias":"SECT","length":8},{"name":"MAREA","type":"esriFieldTypeString","alias":"MAREA","length":12},{"name":"LANE","type":"esriFieldTypeString","alias":"LANE","length":10},{"name":"ALLEY","type":"esriFieldTypeString","alias":"ALLEY","length":10},{"name":"HOUSE_NO","type":"esriFieldTypeString","alias":"HOUSE_NO","length":20},{"name":"E_COORD97","type":"esriFieldTypeDouble","alias":"E_COORD97"},{"name":"N_COORD97","type":"esriFieldTypeDouble","alias":"N_COORD97"},{"name":"ADDRESS","type":"esriFieldTypeString","alias":"ADDRESS","length":50},{"name":"OBJECTID","type":"esriFieldTypeOID","alias":"OBJECTID"}],"features":[{"attributes":{"ID":157202,"DIS_CODE":0,"TOWNNAME":"麻豆區","LI":"寮\u25A0里","LIN":"5鄰","STREET":" ","SECT":" ","MAREA":"寮子\u25A0","LANE":" ","ALLEY":" ","HOUSE_NO":"４４號之３４","E_COORD97":176975.12,"N_COORD97":2565314.04,"ADDRESS":"寮子\u25A0４４號之３４","OBJECTID":157201},"geometry":{"x":176975.12000000197,"y":2565314.0399999991}},{"attributes":{"ID":157203,"DIS_CODE":0,"TOWNNAME":"中西區","LI":"福安里","LIN":"19鄰","STREET":"中正路","SECT":" ","MAREA":" ","LANE":" ","ALLEY":" ","HOUSE_NO":"１６３號","E_COORD97":167879.10999999999,"N_COORD97":2543680.2999999998,"ADDRESS":"中正路１６３號","OBJECTID":157202},"geometry":{"x":167879.11000000127,"y":2543680.2999999989}},{"attributes":{"ID":157204,"DIS_CODE":0,"TOWNNAME":"麻豆區","LI":"寮\u25A0里","LIN":"5鄰","STREET":" ","SECT":" ","MAREA":"寮子\u25A0","LANE":" ","ALLEY":" ","HOUSE_NO":"４４號之３５","E_COORD97":176971.88,"N_COORD97":2565329.8300000001,"ADDRESS":"寮子\u25A0４４號之３５","OBJECTID":157203},"geometry":{"x":176971.88000000082,"y":2565329.8300000001}},{"attributes":{"ID":157205,"DIS_CODE":0,"TOWNNAME":"永康區","LI":"\u25A0洲里","LIN":"2鄰","STREET":"\u25A0行路","SECT":" ","MAREA":" ","LANE":"２２巷","ALLEY":"２弄","HOUSE_NO":"１０號","E_COORD97":171762.69,"N_COORD97":2549216,"ADDRESS":"\u25A0行路２２巷２弄１０號","OBJECTID":157204},"geometry":{"x":171762.69000000134,"y":2549216.0000000019}},{"attributes":{"ID":157206,"DIS_CODE":0,"TOWNNAME":"安南區","LI":"\u25A0南里","LIN":"2鄰","STREET":"安昌街","SECT":" ","MAREA":" ","LANE":"１３１巷","ALLEY":"２弄","HOUSE_NO":"２４號","E_COORD97":170031.16,"N_COORD97":2552427.8399999999,"ADDRESS":"安昌街１３１巷２弄２４號","OBJECTID":157205},"geometry":{"x":170031.16000000015,"y":2552427.8400000017}},{"attributes":{"ID":157207,"DIS_CODE":0,"TOWNNAME":"安南區","LI":"大安里","LIN":"2鄰","STREET":"大安街","SECT":" ","MAREA":" ","LANE":"２６巷","ALLEY":"１弄","HOUSE_NO":"１３號","E_COORD97":167151.29000000001,"N_COORD97":2547943.0699999998,"ADDRESS":"大安街２６巷１弄１３號","OBJECTID":157206},"geometry":{"x":167151.29000000004,"y":2547943.0700000003}},{"attributes":{"ID":157208,"DIS_CODE":0,"TOWNNAME":"永康區","LI":"蔦松里","LIN":"2鄰","STREET":"蔦松二街","SECT":" ","MAREA":" ","LANE":"１２４巷","ALLEY":"３５弄","HOUSE_NO":"２號之２","E_COORD97":173856.35999999999,"N_COORD97":2549285.5299999998,"ADDRESS":"蔦松二街１２４巷３５弄２號之２","OBJECTID":157207},"geometry":{"x":173856.36000000127,"y":2549285.5300000012}},{"attributes":{"ID":157209,"DIS_CODE":0,"TOWNNAME":"永康區","LI":"蔦松里","LIN":"2鄰","STREET":"蔦松二街","SECT":" ","MAREA":" ","LANE":"１２４巷","ALLEY":"３５弄","HOUSE_NO":"２號之６","E_COORD97":173874.03,"N_COORD97":2549285.2799999998,"ADDRESS":"蔦松二街１２４巷３５弄２號之６","OBJECTID":157208},"geometry":{"x":173874.03000000119,"y":2549285.2799999993}},{"attributes":{"ID":157210,"DIS_CODE":0,"TOWNNAME":"永康區","LI":"蔦松里","LIN":"2鄰","STREET":"蔦松二街","SECT":" ","MAREA":" ","LANE":"１２４巷","ALLEY":"３５弄","HOUSE_NO":"５號","E_COORD97":173902.73999999999,"N_COORD97":2549313.75,"ADDRESS":"蔦松二街１２４巷３５弄５號","OBJECTID":157209},"geometry":{"x":173902.74000000209,"y":2549313.75}},{"attributes":{"ID":157211,"DIS_CODE":0,"TOWNNAME":"永康區","LI":"龍潭里","LIN":"2鄰","STREET":"龍潭街","SECT":" ","MAREA":" ","LANE":"８９巷","ALLEY":"６弄","HOUSE_NO":"１１號","E_COORD97":174784.95000000001,"N_COORD97":2548135.79,"ADDRESS":"龍潭街８９巷６弄１１號","OBJECTID":157210},"geometry":{"x":174784.95000000112,"y":2548135.7899999991}},{"attributes":{"ID":157212,"DIS_CODE":0,"TOWNNAME":"中西區","LI":"福安里","LIN":"19鄰","STREET":"中正路","SECT":" ","MAREA":" ","LANE":" ","ALLEY":" ","HOUSE_NO":"１６５號","E_COORD97":167875.39000000001,"N_COORD97":2543681.3599999999,"ADDRESS":"中正路１６５號","OBJECTID":157211},"geometry":{"x":167875.3900000006,"y":2543681.3599999994}},{"attributes":{"ID":157213,"DIS_CODE":0,"TOWNNAME":"麻豆區","LI":"寮\u25A0里","LIN":"5鄰","STREET":" ","SECT":" ","MAREA":"寮子\u25A0","LANE":" ","ALLEY":" ","HOUSE_NO":"４４號之３６","E_COORD97":176973.94,"N_COORD97":2565333.6699999999,"ADDRESS":"寮子\u25A0４４號之３６","OBJECTID":157212},"geometry":{"x":176973.94000000134,"y":2565333.6699999999}},{"attributes":{"ID":157214,"DIS_CODE":0,"TOWNNAME":"麻豆區","LI":"寮\u25A0里","LIN":"5鄰","STREET":" ","SECT":" ","MAREA":"寮子\u25A0","LANE":" ","ALLEY":" ","HOUSE_NO":"４４號之３７","E_COORD97":176976,"N_COORD97":2565337.5,"ADDRESS":"寮子\u25A0４４號之３７","OBJECTID":157213},"geometry":{"x":176976.00000000093,"y":2565337.5000000019}},{"attributes":{"ID":157215,"DIS_CODE":0,"TOWNNAME":"麻豆區","LI":"寮\u25A0里","LIN":"5鄰","STREET":" ","SECT":" ","MAREA":"寮子\u25A0","LANE":" ","ALLEY":" ","HOUSE_NO":"４４號之３８","E_COORD97":176978.04999999999,"N_COORD97":2565341.3399999999,"ADDRESS":"寮子\u25A0４４號之３８","OBJECTID":157214},"geometry":{"x":176978.04999999981,"y":2565341.3400000017}},{"attributes":{"ID":157216,"DIS_CODE":0,"TOWNNAME":"麻豆區","LI":"寮\u25A0里","LIN":"5鄰","STREET":" ","SECT":" ","MAREA":"寮子\u25A0","LANE":" ","ALLEY":" ","HOUSE_NO":"４４號之３９","E_COORD97":176980.10999999999,"N_COORD97":2565345.1699999999,"ADDRESS":"寮子\u25A0４４號之３９","OBJECTID":157215},"geometry":{"x":176980.11000000034,"y":2565345.1700000037}},{"attributes":{"ID":157217,"DIS_CODE":0,"TOWNNAME":"麻豆區","LI":"寮\u25A0里","LIN":"5鄰","STREET":" ","SECT":" ","MAREA":"寮子\u25A0","LANE":" ","ALLEY":" ","HOUSE_NO":"４４號之４０","E_COORD97":176982.17000000001,"N_COORD97":2565349.0099999998,"ADDRESS":"寮子\u25A0４４號之４０","OBJECTID":157216},"geometry":{"x":176982.16999999993,"y":2565349.0099999998}},{"attributes":{"ID":157218,"DIS_CODE":0,"TOWNNAME":"永康區","LI":"龍潭里","LIN":"2鄰","STREET":"龍潭街","SECT":" ","MAREA":" ","LANE":"８９巷","ALLEY":"６弄","HOUSE_NO":"１７號","E_COORD97":174797.64999999999,"N_COORD97":2548142.29,"ADDRESS":"龍潭街８９巷６弄１７號","OBJECTID":157217},"geometry":{"x":174797.65000000037,"y":2548142.290000001}},{"attributes":{"ID":157219,"DIS_CODE":0,"TOWNNAME":"永康區","LI":"龍潭里","LIN":"2鄰","STREET":"龍潭街","SECT":" ","MAREA":" ","LANE":"８９巷","ALLEY":"６弄","HOUSE_NO":"３４號","E_COORD97":174769.97,"N_COORD97":2548166.0099999998,"ADDRESS":"龍潭街８９巷６弄３４號","OBJECTID":157218},"geometry":{"x":174769.96999999974,"y":2548166.0099999998}},{"attributes":{"ID":157220,"DIS_CODE":0,"TOWNNAME":"永康區","LI":"龍潭里","LIN":"2鄰","STREET":"龍潭街","SECT":" ","MAREA":" ","LANE":"８９巷","ALLEY":"１６弄","HOUSE_NO":"８號","E_COORD97":174782.23999999999,"N_COORD97":2548107.48,"ADDRESS":"龍潭街８９巷１６弄８號","OBJECTID":157219},"geometry":{"x":174782.24000000022,"y":2548107.4800000023}},{"attributes":{"ID":157221,"DIS_CODE":0,"TOWNNAME":"東區","LI":"龍山里","LIN":"19鄰","STREET":"崇仁街","SECT":" ","MAREA":" ","LANE":" ","ALLEY":" ","HOUSE_NO":"８９號","E_COORD97":170481.34,"N_COORD97":2542658.1899999999,"ADDRESS":"崇仁街８９號","OBJECTID":157220},"geometry":{"x":170481.34000000078,"y":2542658.1899999995}},{"attributes":{"ID":157222,"DIS_CODE":0,"TOWNNAME":"東區","LI":"和平里","LIN":"19鄰","STREET":"仁和路","SECT":" ","MAREA":" ","LANE":" ","ALLEY":" ","HOUSE_NO":"９５號之４１","E_COORD97":171362.76999999999,"N_COORD97":2541493.0699999998,"ADDRESS":"仁和路９５號之４１","OBJECTID":157221},"geometry":{"x":171362.77000000048,"y":2541493.0700000022}},{"attributes":{"ID":157223,"DIS_CODE":0,"TOWNNAME":"東區","LI":"龍山里","LIN":"19鄰","STREET":"崇仁街","SECT":" ","MAREA":" ","LANE":" ","ALLEY":" ","HOUSE_NO":"９１號","E_COORD97":170493.44,"N_COORD97":2542649.8599999999,"ADDRESS":"崇仁街９１號","OBJECTID":157222},"geometry":{"x":170493.44000000041,"y":2542649.8599999994}},{"attributes":{"ID":157224,"DIS_CODE":0,"TOWNNAME":"永康區","LI":"龍潭里","LIN":"2鄰","STREET":"龍潭街","SECT":" ","MAREA":" ","LANE":"８９巷","ALLEY":"６弄","HOUSE_NO":"１９號","E_COORD97":174802.89000000001,"N_COORD97":2548141.29,"ADDRESS":"龍潭街８９巷６弄１９號","OBJECTID":157223},"geometry":{"x":174802.89000000153,"y":2548141.290000001}},{"attributes":{"ID":157225,"DIS_CODE":0,"TOWNNAME":"永康區","LI":"龍潭里","LIN":"2鄰","STREET":"龍潭街","SECT":" ","MAREA":" ","LANE":"８９巷","ALLEY":"１６弄","HOUSE_NO":"１７號","E_COORD97":174759.59,"N_COORD97":2548117.8799999999,"ADDRESS":"龍潭街８９巷１６弄１７號","OBJECTID":157224},"geometry":{"x":174759.59000000078,"y":2548117.879999999}},{"attributes":{"ID":157226,"DIS_CODE":0,"TOWNNAME":"永康區","LI":"蔦松里","LIN":"2鄰","STREET":"蔦松二街","SECT":" ","MAREA":" ","LANE":"１２４巷","ALLEY":"３５弄","HOUSE_NO":"６號","E_COORD97":173860.51999999999,"N_COORD97":2549268.4900000002,"ADDRESS":"蔦松二街１２４巷３５弄６號","OBJECTID":157225},"geometry":{"x":173860.51999999955,"y":2549268.4900000002}},{"attributes":{"ID":157227,"DIS_CODE":0,"TOWNNAME":"永康區","LI":"蔦松里","LIN":"2鄰","STREET":"蔦松二街","SECT":" ","MAREA":" ","LANE":"１２４巷","ALLEY":"３５弄","HOUSE_NO":"８號","E_COORD97":173889.92999999999,"N_COORD97":2549260.9900000002,"ADDRESS":"蔦松二街１２４巷３５弄８號","OBJECTID":157226},"geometry":{"x":173889.9299999997,"y":2549260.9900000021}},{"attributes":{"ID":157228,"DIS_CODE":0,"TOWNNAME":"永康區","LI":"龍潭里","LIN":"2鄰","STREET":"龍潭街","SECT":" ","MAREA":" ","LANE":"８９巷","ALLEY":"６弄","HOUSE_NO":"２２號","E_COORD97":174802.26999999999,"N_COORD97":2548158.7400000002,"ADDRESS":"龍潭街８９巷６弄２２號","OBJECTID":157227},"geometry":{"x":174802.27000000048,"y":2548158.7400000002}},{"attributes":{"ID":157229,"DIS_CODE":0,"TOWNNAME":"永康區","LI":"蔦松里","LIN":"2鄰","STREET":"蔦松二街","SECT":" ","MAREA":" ","LANE":"１２４巷","ALLEY":"３５弄","HOUSE_NO":"２號","E_COORD97":173845.51000000001,"N_COORD97":2549286.98,"ADDRESS":"蔦松二街１２４巷３５弄２號","OBJECTID":157228},"geometry":{"x":173845.50999999978,"y":2549286.9800000042}},{"attributes":{"ID":157230,"DIS_CODE":0,"TOWNNAME":"永康區","LI":"龍潭里","LIN":"2鄰","STREET":"龍潭街","SECT":" ","MAREA":" ","LANE":"８９巷","ALLEY":"６弄","HOUSE_NO":"２４號","E_COORD97":174796.76999999999,"N_COORD97":2548159.5,"ADDRESS":"龍潭街８９巷６弄２４號","OBJECTID":157229},"geometry":{"x":174796.77000000142,"y":2548159.5}},{"attributes":{"ID":157231,"DIS_CODE":0,"TOWNNAME":"永康區","LI":"龍潭里","LIN":"2鄰","STREET":"龍潭街","SECT":" ","MAREA":" ","LANE":"８９巷","ALLEY":"６弄","HOUSE_NO":"９號","E_COORD97":174788.95000000001,"N_COORD97":2548134.54,"ADDRESS":"龍潭街８９巷６弄９號","OBJECTID":157230},"geometry":{"x":174788.95000000019,"y":2548134.5399999991}},{"attributes":{"ID":157232,"DIS_CODE":0,"TOWNNAME":"永康區","LI":"龍潭里","LIN":"2鄰","STREET":"龍潭街","SECT":" ","MAREA":" ","LANE":"８９巷","ALLEY":"６弄","HOUSE_NO":"２號","E_COORD97":174819.29999999999,"N_COORD97":2548121.3599999999,"ADDRESS":"龍潭街８９巷６弄２號","OBJECTID":157231},"geometry":{"x":174819.30000000075,"y":2548121.3600000013}},{"attributes":{"ID":157233,"DIS_CODE":0,"TOWNNAME":"永康區","LI":"龍潭里","LIN":"2鄰","STREET":"龍潭街","SECT":" ","MAREA":" ","LANE":"８９巷","ALLEY":"６弄","HOUSE_NO":"６號","E_COORD97":174822.29999999999,"N_COORD97":2548133.5800000001,"ADDRESS":"龍潭街８９巷６弄６號","OBJECTID":157232},"geometry":{"x":174822.30000000168,"y":2548133.5800000019}},{"attributes":{"ID":157234,"DIS_CODE":0,"TOWNNAME":"永康區","LI":"龍潭里","LIN":"2鄰","STREET":"龍潭街","SECT":" ","MAREA":" ","LANE":"８９巷","ALLEY":"６弄","HOUSE_NO":"１０號","E_COORD97":174832.60000000001,"N_COORD97":2548154.75,"ADDRESS":"龍潭街８９巷６弄１０號","OBJECTID":157233},"geometry":{"x":174832.60000000056,"y":2548154.75}},{"attributes":{"ID":157235,"DIS_CODE":0,"TOWNNAME":"東區","LI":"虎尾里","LIN":"2鄰","STREET":"東門路","SECT":"三段","MAREA":" ","LANE":"１７９巷","ALLEY":"５８弄","HOUSE_NO":"１０號","E_COORD97":171682.60999999999,"N_COORD97":2541981.6099999999,"ADDRESS":"東門路三段１７９巷５８弄１０號","OBJECTID":157234},"geometry":{"x":171682.61000000034,"y":2541981.6099999975}},{"attributes":{"ID":157236,"DIS_CODE":0,"TOWNNAME":"東區","LI":"虎尾里","LIN":"2鄰","STREET":"東門路","SECT":"三段","MAREA":" ","LANE":"１７９巷","ALLEY":"５８弄","HOUSE_NO":"１１號","E_COORD97":171699.70000000001,"N_COORD97":2541978.79,"ADDRESS":"東門路三段１７９巷５８弄１１號","OBJECTID":157235},"geometry":{"x":171699.70000000112,"y":2541978.7899999991}},{"attributes":{"ID":157237,"DIS_CODE":0,"TOWNNAME":"東區","LI":"虎尾里","LIN":"2鄰","STREET":"東門路","SECT":"三段","MAREA":" ","LANE":"１７９巷","ALLEY":"５８弄","HOUSE_NO":"１３號","E_COORD97":171699.88,"N_COORD97":2541974.75,"ADDRESS":"東門路三段１７９巷５８弄１３號","OBJECTID":157236},"geometry":{"x":171699.88000000082,"y":2541974.7500000037}},{"attributes":{"ID":157238,"DIS_CODE":0,"TOWNNAME":"東區","LI":"虎尾里","LIN":"2鄰","STREET":"東門路","SECT":"三段","MAREA":" ","LANE":"１７９巷","ALLEY":"５８弄","HOUSE_NO":"１４號","E_COORD97":171683.32000000001,"N_COORD97":2541973.8700000001,"ADDRESS":"東門路三段１７９巷５８弄１４號","OBJECTID":157237},"geometry":{"x":171683.32000000216,"y":2541973.870000001}},{"attributes":{"ID":157239,"DIS_CODE":0,"TOWNNAME":"善化區","LI":"小新里","LIN":"19鄰","STREET":" ","SECT":" ","MAREA":"小新營","LANE":" ","ALLEY":" ","HOUSE_NO":"１５８號之２","E_COORD97":179960.67000000001,"N_COORD97":2558264.27,"ADDRESS":"小新營１５８號之２","OBJECTID":157238},"geometry":{"x":179960.66999999993,"y":2558264.2699999996}},{"attributes":{"ID":157240,"DIS_CODE":0,"TOWNNAME":"麻豆區","LI":"寮\u25A0里","LIN":"5鄰","STREET":" ","SECT":" ","MAREA":"寮子\u25A0","LANE":" ","ALLEY":" ","HOUSE_NO":"４４號之４２","E_COORD97":177093.34,"N_COORD97":2565279.54,"ADDRESS":"寮子\u25A0４４號之４２","OBJECTID":157239},"geometry":{"x":177093.33999999985,"y":2565279.5399999991}},{"attributes":{"ID":157241,"DIS_CODE":0,"TOWNNAME":"麻豆區","LI":"寮\u25A0里","LIN":"5鄰","STREET":" ","SECT":" ","MAREA":"寮子\u25A0","LANE":" ","ALLEY":" ","HOUSE_NO":"４４號之４５","E_COORD97":177103.91,"N_COORD97":2565275.54,"ADDRESS":"寮子\u25A0４４號之４５","OBJECTID":157240},"geometry":{"x":177103.91000000108,"y":2565275.540000001}},{"attributes":{"ID":157242,"DIS_CODE":0,"TOWNNAME":"麻豆區","LI":"寮\u25A0里","LIN":"5鄰","STREET":" ","SECT":" ","MAREA":"寮子\u25A0","LANE":" ","ALLEY":" ","HOUSE_NO":"４４號之４","E_COORD97":176990.76000000001,"N_COORD97":2565312.1200000001,"ADDRESS":"寮子\u25A0４４號之４","OBJECTID":157241},"geometry":{"x":176990.76000000164,"y":2565312.120000001}},{"attributes":{"ID":157243,"DIS_CODE":0,"TOWNNAME":"麻豆區","LI":"寮\u25A0里","LIN":"5鄰","STREET":" ","SECT":" ","MAREA":"寮子\u25A0","LANE":" ","ALLEY":" ","HOUSE_NO":"４４號之５","E_COORD97":177015.60999999999,"N_COORD97":2565310.5499999998,"ADDRESS":"寮子\u25A0４４號之５","OBJECTID":157242},"geometry":{"x":177015.61000000034,"y":2565310.5500000026}},{"attributes":{"ID":157244,"DIS_CODE":0,"TOWNNAME":"麻豆區","LI":"寮\u25A0里","LIN":"5鄰","STREET":" ","SECT":" ","MAREA":"寮子\u25A0","LANE":" ","ALLEY":" ","HOUSE_NO":"４４號之６０","E_COORD97":177392.06,"N_COORD97":2565175.6400000001,"ADDRESS":"寮子\u25A0４４號之６０","OBJECTID":157243},"geometry":{"x":177392.06000000052,"y":2565175.6400000006}},{"attributes":{"ID":157245,"DIS_CODE":0,"TOWNNAME":"麻豆區","LI":"寮\u25A0里","LIN":"5鄰","STREET":" ","SECT":" ","MAREA":"寮子\u25A0","LANE":" ","ALLEY":" ","HOUSE_NO":"４４號之７","E_COORD97":177089,"N_COORD97":2565281.7200000002,"ADDRESS":"寮子\u25A0４４號之７","OBJECTID":157244},"geometry":{"x":177089,"y":2565281.7200000025}},{"attributes":{"ID":157246,"DIS_CODE":0,"TOWNNAME":"麻豆區","LI":"寮\u25A0里","LIN":"5鄰","STREET":" ","SECT":" ","MAREA":"寮子\u25A0","LANE":" ","ALLEY":" ","HOUSE_NO":"４４號之８","E_COORD97":177067.84,"N_COORD97":2565295.27,"ADDRESS":"寮子\u25A0４４號之８","OBJECTID":157245},"geometry":{"x":177067.83999999985,"y":2565295.2699999996}},{"attributes":{"ID":157247,"DIS_CODE":0,"TOWNNAME":"麻豆區","LI":"寮\u25A0里","LIN":"5鄰","STREET":" ","SECT":" ","MAREA":"寮子\u25A0","LANE":" ","ALLEY":" ","HOUSE_NO":"４４號之９","E_COORD97":177118.76000000001,"N_COORD97":2565277.25,"ADDRESS":"寮子\u25A0４４號之９","OBJECTID":157246},"geometry":{"x":177118.75999999978,"y":2565277.2500000019}},{"attributes":{"ID":157248,"DIS_CODE":0,"TOWNNAME":"東山區","LI":"高原里","LIN":"5鄰","STREET":" ","SECT":" ","MAREA":"高原","LANE":" ","ALLEY":" ","HOUSE_NO":"３６號之１","E_COORD97":195355.70000000001,"N_COORD97":2575902.7200000002,"ADDRESS":"高原３６號之１","OBJECTID":157247},"geometry":{"x":195355.70000000112,"y":2575902.7200000007}},{"attributes":{"ID":157249,"DIS_CODE":0,"TOWNNAME":"東山區","LI":"高原里","LIN":"5鄰","STREET":" ","SECT":" ","MAREA":"高原","LANE":" ","ALLEY":" ","HOUSE_NO":"３６號之３","E_COORD97":195412.26999999999,"N_COORD97":2575963.54,"ADDRESS":"高原３６號之３","OBJECTID":157248},"geometry":{"x":195412.27000000048,"y":2575963.5399999972}},{"attributes":{"ID":157250,"DIS_CODE":0,"TOWNNAME":"東區","LI":"虎尾里","LIN":"2鄰","STREET":"東門路","SECT":"三段","MAREA":" ","LANE":"１７９巷","ALLEY":"５８弄","HOUSE_NO":"１５號","E_COORD97":171700.76000000001,"N_COORD97":2541970.3500000001,"ADDRESS":"東門路三段１７９巷５８弄１５號","OBJECTID":157249},"geometry":{"x":171700.76000000071,"y":2541970.3500000034}},{"attributes":{"ID":157251,"DIS_CODE":0,"TOWNNAME":"新化區","LI":"全興里","LIN":"19鄰","STREET":" ","SECT":" ","MAREA":"竹子\u25A0","LANE":" ","ALLEY":" ","HOUSE_NO":"２４７號之２２６","E_COORD97":178433.07999999999,"N_COORD97":2546719.2599999998,"ADDRESS":"竹子\u25A0２４７號之２２６","OBJECTID":157250},"geometry":{"x":178433.08000000194,"y":2546719.2600000016}},{"attributes":{"ID":157252,"DIS_CODE":0,"TOWNNAME":"東區","LI":"虎尾里","LIN":"2鄰","STREET":"東門路","SECT":"三段","MAREA":" ","LANE":"１７９巷","ALLEY":"５８弄","HOUSE_NO":"１７號","E_COORD97":171700.92999999999,"N_COORD97":2541966.8300000001,"ADDRESS":"東門路三段１７９巷５８弄１７號","OBJECTID":157251},"geometry":{"x":171700.93000000063,"y":2541966.8300000001}},{"attributes":{"ID":157253,"DIS_CODE":0,"TOWNNAME":"東區","LI":"虎尾里","LIN":"2鄰","STREET":"東門路","SECT":"三段","MAREA":" ","LANE":"１７９巷","ALLEY":"５８弄","HOUSE_NO":"１９號","E_COORD97":171701.64000000001,"N_COORD97":2541962.7799999998,"ADDRESS":"東門路三段１７９巷５８弄１９號","OBJECTID":157252},"geometry":{"x":171701.63999999966,"y":2541962.7799999993}},{"attributes":{"ID":157254,"DIS_CODE":0,"TOWNNAME":"永康區","LI":"西橋里","LIN":"19鄰","STREET":"大橋三街","SECT":" ","MAREA":" ","LANE":" ","ALLEY":" ","HOUSE_NO":"１９號","E_COORD97":170474.79000000001,"N_COORD97":2546351,"ADDRESS":"大橋三街１９號","OBJECTID":157253},"geometry":{"x":170474.79000000097,"y":2546351.0000000019}},{"attributes":{"ID":157255,"DIS_CODE":0,"TOWNNAME":"永康區","LI":"西橋里","LIN":"19鄰","STREET":"大橋三街","SECT":" ","MAREA":" ","LANE":" ","ALLEY":" ","HOUSE_NO":"３７號之１１","E_COORD97":170532.82999999999,"N_COORD97":2546428.7999999998,"ADDRESS":"大橋三街３７號之１１","OBJECTID":157254},"geometry":{"x":170532.83000000007,"y":2546428.8000000007}},{"attributes":{"ID":157256,"DIS_CODE":0,"TOWNNAME":"新化區","LI":"全興里","LIN":"19鄰","STREET":" ","SECT":" ","MAREA":"竹子\u25A0","LANE":" ","ALLEY":" ","HOUSE_NO":"２４７號之２３０","E_COORD97":178424.87,"N_COORD97":2546719.2599999998,"ADDRESS":"竹子\u25A0２４７號之２３０","OBJECTID":157255},"geometry":{"x":178424.87000000104,"y":2546719.2600000016}},{"attributes":{"ID":157257,"DIS_CODE":0,"TOWNNAME":"新化區","LI":"全興里","LIN":"19鄰","STREET":" ","SECT":" ","MAREA":"竹子\u25A0","LANE":" ","ALLEY":" ","HOUSE_NO":"２４７號之２４８","E_COORD97":178374.09,"N_COORD97":2546721.2599999998,"ADDRESS":"竹子\u25A0２４７號之２４８","OBJECTID":157256},"geometry":{"x":178374.09000000078,"y":2546721.2600000035}},{"attributes":{"ID":157258,"DIS_CODE":0,"TOWNNAME":"新化區","LI":"全興里","LIN":"19鄰","STREET":" ","SECT":" ","MAREA":"竹子\u25A0","LANE":" ","ALLEY":" ","HOUSE_NO":"２４７號之２４２","E_COORD97":178390.89000000001,"N_COORD97":2546720.2599999998,"ADDRESS":"竹子\u25A0２４７號之２４２","OBJECTID":157257},"geometry":{"x":178390.88999999966,"y":2546720.2599999998}},{"attributes":{"ID":157259,"DIS_CODE":0,"TOWNNAME":"新化區","LI":"全興里","LIN":"19鄰","STREET":" ","SECT":" ","MAREA":"竹子\u25A0","LANE":" ","ALLEY":" ","HOUSE_NO":"２４７號之２３８","E_COORD97":178411.79000000001,"N_COORD97":2546719.2599999998,"ADDRESS":"竹子\u25A0２４７號之２３８","OBJECTID":157258},"geometry":{"x":178411.79000000097,"y":2546719.2600000016}},{"attributes":{"ID":157260,"DIS_CODE":0,"TOWNNAME":"善化區","LI":"坐駕里","LIN":"19鄰","STREET":" ","SECT":" ","MAREA":"坐駕","LANE":" ","ALLEY":" ","HOUSE_NO":"５之７號","E_COORD97":178300.92000000001,"N_COORD97":2558424.52,"ADDRESS":"坐駕５之７號","OBJECTID":157259},"geometry":{"x":178300.92000000086,"y":2558424.5199999996}},{"attributes":{"ID":157261,"DIS_CODE":0,"TOWNNAME":"善化區","LI":"坐駕里","LIN":"19鄰","STREET":" ","SECT":" ","MAREA":"坐駕","LANE":" ","ALLEY":" ","HOUSE_NO":"６之１號","E_COORD97":178386.76000000001,"N_COORD97":2558347.52,"ADDRESS":"坐駕６之１號","OBJECTID":157260},"geometry":{"x":178386.75999999978,"y":2558347.5199999996}},{"attributes":{"ID":157262,"DIS_CODE":0,"TOWNNAME":"善化區","LI":"坐駕里","LIN":"19鄰","STREET":" ","SECT":" ","MAREA":"坐駕","LANE":" ","ALLEY":" ","HOUSE_NO":"５之２號","E_COORD97":178305.54999999999,"N_COORD97":2558406.77,"ADDRESS":"坐駕５之２號","OBJECTID":157261},"geometry":{"x":178305.54999999981,"y":2558406.7699999996}},{"attributes":{"ID":157263,"DIS_CODE":0,"TOWNNAME":"善化區","LI":"小新里","LIN":"19鄰","STREET":" ","SECT":" ","MAREA":"小新營","LANE":" ","ALLEY":" ","HOUSE_NO":"１５８號之３","E_COORD97":179965.82000000001,"N_COORD97":2558261.27,"ADDRESS":"小新營１５８號之３","OBJECTID":157262},"geometry":{"x":179965.81999999937,"y":2558261.2699999977}},{"attributes":{"ID":157264,"DIS_CODE":0,"TOWNNAME":"東區","LI":"虎尾里","LIN":"2鄰","STREET":"東門路","SECT":"三段","MAREA":" ","LANE":"１７９巷","ALLEY":"５８弄","HOUSE_NO":"１號","E_COORD97":171698.32999999999,"N_COORD97":2541998.96,"ADDRESS":"東門路三段１７９巷５８弄１號","OBJECTID":157263},"geometry":{"x":171698.33000000101,"y":2541998.9600000028}},{"attributes":{"ID":157265,"DIS_CODE":0,"TOWNNAME":"善化區","LI":"小新里","LIN":"19鄰","STREET":" ","SECT":" ","MAREA":"小新營","LANE":" ","ALLEY":" ","HOUSE_NO":"１５７號","E_COORD97":179954.26999999999,"N_COORD97":2558262,"ADDRESS":"小新營１５７號","OBJECTID":157264},"geometry":{"x":179954.27000000048,"y":2558262.0000000019}},{"attributes":{"ID":157266,"DIS_CODE":0,"TOWNNAME":"東山區","LI":"高原里","LIN":"5鄰","STREET":" ","SECT":" ","MAREA":"高原","LANE":" ","ALLEY":" ","HOUSE_NO":"３６號之４","E_COORD97":195665.51999999999,"N_COORD97":2576109.1800000002,"ADDRESS":"高原３６號之４","OBJECTID":157265},"geometry":{"x":195665.51999999955,"y":2576109.1800000034}},{"attributes":{"ID":157267,"DIS_CODE":0,"TOWNNAME":"東山區","LI":"高原里","LIN":"5鄰","STREET":" ","SECT":" ","MAREA":"高原","LANE":" ","ALLEY":" ","HOUSE_NO":"３６號之５","E_COORD97":195695.59,"N_COORD97":2576106.3199999998,"ADDRESS":"高原３６號之５","OBJECTID":157266},"geometry":{"x":195695.59000000078,"y":2576106.3200000022}},{"attributes":{"ID":157268,"DIS_CODE":0,"TOWNNAME":"東山區","LI":"高原里","LIN":"5鄰","STREET":" ","SECT":" ","MAREA":"高原","LANE":" ","ALLEY":" ","HOUSE_NO":"３６號之７","E_COORD97":195748.62,"N_COORD97":2576034.1099999999,"ADDRESS":"高原３６號之７","OBJECTID":157267},"geometry":{"x":195748.62000000011,"y":2576034.1099999994}},{"attributes":{"ID":157269,"DIS_CODE":0,"TOWNNAME":"東山區","LI":"高原里","LIN":"5鄰","STREET":" ","SECT":" ","MAREA":"高原","LANE":" ","ALLEY":" ","HOUSE_NO":"３６號之８","E_COORD97":195416.57999999999,"N_COORD97":2575992.7000000002,"ADDRESS":"高原３６號之８","OBJECTID":157268},"geometry":{"x":195416.58000000007,"y":2575992.6999999993}},{"attributes":{"ID":157270,"DIS_CODE":0,"TOWNNAME":"東山區","LI":"高原里","LIN":"5鄰","STREET":" ","SECT":" ","MAREA":"高原","LANE":" ","ALLEY":" ","HOUSE_NO":"３６號","E_COORD97":195657.89999999999,"N_COORD97":2576138.6200000001,"ADDRESS":"高原３６號","OBJECTID":157269},"geometry":{"x":195657.90000000224,"y":2576138.6200000029}},{"attributes":{"ID":157271,"DIS_CODE":0,"TOWNNAME":"東山區","LI":"高原里","LIN":"5鄰","STREET":" ","SECT":" ","MAREA":"高原","LANE":" ","ALLEY":" ","HOUSE_NO":"３７號","E_COORD97":195774.38,"N_COORD97":2576132.46,"ADDRESS":"高原３７號","OBJECTID":157270},"geometry":{"x":195774.38000000175,"y":2576132.4600000046}},{"attributes":{"ID":157272,"DIS_CODE":0,"TOWNNAME":"東山區","LI":"高原里","LIN":"5鄰","STREET":" ","SECT":" ","MAREA":"高原","LANE":" ","ALLEY":" ","HOUSE_NO":"３８號","E_COORD97":195751.82000000001,"N_COORD97":2576086.3999999999,"ADDRESS":"高原３８號","OBJECTID":157271},"geometry":{"x":195751.82000000123,"y":2576086.4000000022}},{"attributes":{"ID":157273,"DIS_CODE":0,"TOWNNAME":"善化區","LI":"小新里","LIN":"19鄰","STREET":" ","SECT":" ","MAREA":"小新營","LANE":" ","ALLEY":" ","HOUSE_NO":"１５８號","E_COORD97":179970.70000000001,"N_COORD97":2558263,"ADDRESS":"小新營１５８號","OBJECTID":157272},"geometry":{"x":179970.70000000112,"y":2558263}},{"attributes":{"ID":157274,"DIS_CODE":0,"TOWNNAME":"善化區","LI":"光文里","LIN":"19鄰","STREET":"信義路","SECT":" ","MAREA":" ","LANE":" ","ALLEY":" ","HOUSE_NO":"１２１號","E_COORD97":178249.82000000001,"N_COORD97":2558905.75,"ADDRESS":"信義路１２１號","OBJECTID":157273},"geometry":{"x":178249.8200000003,"y":2558905.75}},{"attributes":{"ID":157275,"DIS_CODE":0,"TOWNNAME":"善化區","LI":"坐駕里","LIN":"19鄰","STREET":" ","SECT":" ","MAREA":"坐駕","LANE":" ","ALLEY":" ","HOUSE_NO":"５之５號","E_COORD97":178299.07000000001,"N_COORD97":2558416.02,"ADDRESS":"坐駕５之５號","OBJECTID":157274},"geometry":{"x":178299.0700000003,"y":2558416.0200000033}},{"attributes":{"ID":157276,"DIS_CODE":0,"TOWNNAME":"善化區","LI":"小新里","LIN":"19鄰","STREET":" ","SECT":" ","MAREA":"小新營","LANE":" ","ALLEY":" ","HOUSE_NO":"１３１號之１","E_COORD97":179885.67999999999,"N_COORD97":2558266.77,"ADDRESS":"小新營１３１號之１","OBJECTID":157275},"geometry":{"x":179885.68000000063,"y":2558266.7699999996}},{"attributes":{"ID":157277,"DIS_CODE":0,"TOWNNAME":"善化區","LI":"坐駕里","LIN":"19鄰","STREET":" ","SECT":" ","MAREA":"坐駕","LANE":" ","ALLEY":" ","HOUSE_NO":"３７號","E_COORD97":178756.48999999999,"N_COORD97":2558432.75,"ADDRESS":"坐駕３７號","OBJECTID":157276},"geometry":{"x":178756.49000000115,"y":2558432.7500000019}},{"attributes":{"ID":157278,"DIS_CODE":0,"TOWNNAME":"善化區","LI":"坐駕里","LIN":"19鄰","STREET":" ","SECT":" ","MAREA":"坐駕","LANE":" ","ALLEY":" ","HOUSE_NO":"３４號","E_COORD97":178789.45999999999,"N_COORD97":2558450.75,"ADDRESS":"坐駕３４號","OBJECTID":157277},"geometry":{"x":178789.45999999996,"y":2558450.75}},{"attributes":{"ID":157279,"DIS_CODE":0,"TOWNNAME":"善化區","LI":"坐駕里","LIN":"19鄰","STREET":" ","SECT":" ","MAREA":"坐駕","LANE":" ","ALLEY":" ","HOUSE_NO":"４０號之２","E_COORD97":178609.91,"N_COORD97":2558484.77,"ADDRESS":"坐駕４０號之２","OBJECTID":157278},"geometry":{"x":178609.91000000015,"y":2558484.7699999996}},{"attributes":{"ID":157280,"DIS_CODE":0,"TOWNNAME":"善化區","LI":"坐駕里","LIN":"19鄰","STREET":" ","SECT":" ","MAREA":"坐駕","LANE":" ","ALLEY":" ","HOUSE_NO":"６之６號","E_COORD97":178379.88,"N_COORD97":2558362.02,"ADDRESS":"坐駕６之６號","OBJECTID":157279},"geometry":{"x":178379.87999999989,"y":2558362.0200000014}},{"attributes":{"ID":157281,"DIS_CODE":0,"TOWNNAME":"善化區","LI":"坐駕里","LIN":"19鄰","STREET":" ","SECT":" ","MAREA":"坐駕","LANE":" ","ALLEY":" ","HOUSE_NO":"５３號","E_COORD97":178455.10000000001,"N_COORD97":2558578.5,"ADDRESS":"坐駕５３號","OBJECTID":157280},"geometry":{"x":178455.10000000056,"y":2558578.5}},{"attributes":{"ID":157282,"DIS_CODE":0,"TOWNNAME":"善化區","LI":"坐駕里","LIN":"19鄰","STREET":" ","SECT":" ","MAREA":"坐駕","LANE":" ","ALLEY":" ","HOUSE_NO":"６之２號","E_COORD97":178382.37,"N_COORD97":2558346.77,"ADDRESS":"坐駕６之２號","OBJECTID":157281},"geometry":{"x":178382.37000000104,"y":2558346.7700000014}},{"attributes":{"ID":157283,"DIS_CODE":0,"TOWNNAME":"善化區","LI":"坐駕里","LIN":"19鄰","STREET":" ","SECT":" ","MAREA":"坐駕","LANE":" ","ALLEY":" ","HOUSE_NO":"６之９號","E_COORD97":178358.37,"N_COORD97":2558369.27,"ADDRESS":"坐駕６之９號","OBJECTID":157282},"geometry":{"x":178358.37000000197,"y":2558369.2699999996}},{"attributes":{"ID":157284,"DIS_CODE":0,"TOWNNAME":"善化區","LI":"胡厝里","LIN":"19鄰","STREET":" ","SECT":" ","MAREA":"西衛","LANE":" ","ALLEY":" ","HOUSE_NO":"３０之８號","E_COORD97":174213.81,"N_COORD97":2559232.52,"ADDRESS":"西衛３０之８號","OBJECTID":157283},"geometry":{"x":174213.81000000052,"y":2559232.5199999996}},{"attributes":{"ID":157285,"DIS_CODE":0,"TOWNNAME":"東山區","LI":"高原里","LIN":"5鄰","STREET":" ","SECT":" ","MAREA":"高原","LANE":" ","ALLEY":" ","HOUSE_NO":"３９號","E_COORD97":195767.5,"N_COORD97":2576109.23,"ADDRESS":"高原３９號","OBJECTID":157284},"geometry":{"x":195767.50000000093,"y":2576109.2300000004}},{"attributes":{"ID":157286,"DIS_CODE":0,"TOWNNAME":"東區","LI":"虎尾里","LIN":"2鄰","STREET":"東門路","SECT":"三段","MAREA":" ","LANE":"１７９巷","ALLEY":"５８弄","HOUSE_NO":"２０號","E_COORD97":171684.01999999999,"N_COORD97":2541961.3700000001,"ADDRESS":"東門路三段１７９巷５８弄２０號","OBJECTID":157285},"geometry":{"x":171684.01999999955,"y":2541961.3700000048}},{"attributes":{"ID":157287,"DIS_CODE":0,"TOWNNAME":"東區","LI":"虎尾里","LIN":"2鄰","STREET":"東門路","SECT":"三段","MAREA":" ","LANE":"１７９巷","ALLEY":"５８弄","HOUSE_NO":"２１號","E_COORD97":171701.45999999999,"N_COORD97":2541959.0800000001,"ADDRESS":"東門路三段１７９巷５８弄２１號","OBJECTID":157286},"geometry":{"x":171701.45999999996,"y":2541959.0800000038}},{"attributes":{"ID":157288,"DIS_CODE":0,"TOWNNAME":"東區","LI":"虎尾里","LIN":"2鄰","STREET":"東門路","SECT":"三段","MAREA":" ","LANE":"１７９巷","ALLEY":"５８弄","HOUSE_NO":"２２號","E_COORD97":171684.38,"N_COORD97":2541957.6800000002,"ADDRESS":"東門路三段１７９巷５８弄２２號","OBJECTID":157287},"geometry":{"x":171684.38000000082,"y":2541957.6799999997}},{"attributes":{"ID":157289,"DIS_CODE":0,"TOWNNAME":"東區","LI":"虎尾里","LIN":"2鄰","STREET":"東門路","SECT":"三段","MAREA":" ","LANE":"１７９巷","ALLEY":"５８弄","HOUSE_NO":"２３號","E_COORD97":171701.45999999999,"N_COORD97":2541954.8599999999,"ADDRESS":"東門路三段１７９巷５８弄２３號","OBJECTID":157288},"geometry":{"x":171701.45999999996,"y":2541954.8599999994}},{"attributes":{"ID":157290,"DIS_CODE":0,"TOWNNAME":"東區","LI":"虎尾里","LIN":"2鄰","STREET":"東門路","SECT":"三段","MAREA":" ","LANE":"１７９巷","ALLEY":"５８弄","HOUSE_NO":"２４號","E_COORD97":171684.54999999999,"N_COORD97":2541953.6299999999,"ADDRESS":"東門路三段１７９巷５８弄２４號","OBJECTID":157289},"geometry":{"x":171684.55000000168,"y":2541953.629999999}},{"attributes":{"ID":157291,"DIS_CODE":0,"TOWNNAME":"東區","LI":"虎尾里","LIN":"2鄰","STREET":"東門路","SECT":"三段","MAREA":" ","LANE":"１７９巷","ALLEY":"５８弄","HOUSE_NO":"２５號","E_COORD97":171701.45999999999,"N_COORD97":2541950.8100000001,"ADDRESS":"東門路三段１７９巷５８弄２５號","OBJECTID":157290},"geometry":{"x":171701.45999999996,"y":2541950.8100000005}},{"attributes":{"ID":157292,"DIS_CODE":0,"TOWNNAME":"東區","LI":"虎尾里","LIN":"2鄰","STREET":"東門路","SECT":"三段","MAREA":" ","LANE":"１７９巷","ALLEY":"５８弄","HOUSE_NO":"２６號","E_COORD97":171684.73000000001,"N_COORD97":2541949.9300000002,"ADDRESS":"東門路三段１７９巷５８弄２６號","OBJECTID":157291},"geometry":{"x":171684.73000000138,"y":2541949.9300000016}},{"attributes":{"ID":157293,"DIS_CODE":0,"TOWNNAME":"東區","LI":"虎尾里","LIN":"2鄰","STREET":"東門路","SECT":"三段","MAREA":" ","LANE":"１７９巷","ALLEY":"５８弄","HOUSE_NO":"２７號","E_COORD97":171701.45999999999,"N_COORD97":2541946.77,"ADDRESS":"東門路三段１７９巷５８弄２７號","OBJECTID":157292},"geometry":{"x":171701.45999999996,"y":2541946.7699999977}},{"attributes":{"ID":157294,"DIS_CODE":0,"TOWNNAME":"東區","LI":"虎尾里","LIN":"2鄰","STREET":"東門路","SECT":"三段","MAREA":" ","LANE":"１７９巷","ALLEY":"５８弄","HOUSE_NO":"２８號","E_COORD97":171684.89999999999,"N_COORD97":2541945.8900000001,"ADDRESS":"東門路三段１７９巷５８弄２８號","OBJECTID":157293},"geometry":{"x":171684.9000000013,"y":2541945.8900000006}},{"attributes":{"ID":157295,"DIS_CODE":0,"TOWNNAME":"東區","LI":"虎尾里","LIN":"2鄰","STREET":"東門路","SECT":"三段","MAREA":" ","LANE":"１７９巷","ALLEY":"５８弄","HOUSE_NO":"２號","E_COORD97":171680.66,"N_COORD97":2541997.7799999998,"ADDRESS":"東門路三段１７９巷５８弄２號","OBJECTID":157294},"geometry":{"x":171680.65999999922,"y":2541997.7800000031}},{"attributes":{"ID":157296,"DIS_CODE":0,"TOWNNAME":"東區","LI":"龍山里","LIN":"19鄰","STREET":"德光街","SECT":" ","MAREA":" ","LANE":" ","ALLEY":" ","HOUSE_NO":"４０號","E_COORD97":170497.81,"N_COORD97":2542670.0800000001,"ADDRESS":"德光街４０號","OBJECTID":157295},"geometry":{"x":170497.81000000052,"y":2542670.0800000001}},{"attributes":{"ID":157297,"DIS_CODE":0,"TOWNNAME":"東區","LI":"和平里","LIN":"19鄰","STREET":"仁和路","SECT":" ","MAREA":" ","LANE":" ","ALLEY":" ","HOUSE_NO":"９５號之６１","E_COORD97":171367.54000000001,"N_COORD97":2541525.3399999999,"ADDRESS":"仁和路９５號之６１","OBJECTID":157296},"geometry":{"x":171367.54000000004,"y":2541525.3399999999}},{"attributes":{"ID":157298,"DIS_CODE":0,"TOWNNAME":"東區","LI":"和平里","LIN":"19鄰","STREET":"仁和路","SECT":" ","MAREA":" ","LANE":" ","ALLEY":" ","HOUSE_NO":"９５號之５５","E_COORD97":171387.01000000001,"N_COORD97":2541513.8300000001,"ADDRESS":"仁和路９５號之５５","OBJECTID":157297},"geometry":{"x":171387.01000000071,"y":2541513.8300000019}},{"attributes":{"ID":157299,"DIS_CODE":0,"TOWNNAME":"中西區","LI":"協和里","LIN":" ","STREET":"協和街","SECT":" ","MAREA":" ","LANE":" ","ALLEY":" ","HOUSE_NO":"１１２號","E_COORD97":167180.76999999999,"N_COORD97":2544613.1800000002,"ADDRESS":"協和街１１２號","OBJECTID":157298},"geometry":{"x":167180.77000000048,"y":2544613.1800000016}},{"attributes":{"ID":157300,"DIS_CODE":0,"TOWNNAME":"中西區","LI":"協和里","LIN":" ","STREET":"永和街","SECT":" ","MAREA":" ","LANE":" ","ALLEY":" ","HOUSE_NO":"１７９號","E_COORD97":167223.38,"N_COORD97":2544794.71,"ADDRESS":"永和街１７９號","OBJECTID":157299},"geometry":{"x":167223.37999999989,"y":2544794.7100000028}},{"attributes":{"ID":157301,"DIS_CODE":0,"TOWNNAME":"中西區","LI":"協進里","LIN":" ","STREET":"西寧街","SECT":" ","MAREA":" ","LANE":" ","ALLEY":" ","HOUSE_NO":"７５號","E_COORD97":167013.81,"N_COORD97":2544238.3399999999,"ADDRESS":"西寧街７５號","OBJECTID":157300},"geometry":{"x":167013.80999999959,"y":2544238.3399999999}},{"attributes":{"ID":157302,"DIS_CODE":0,"TOWNNAME":"中西區","LI":"協進里","LIN":" ","STREET":"西寧街","SECT":" ","MAREA":" ","LANE":" ","ALLEY":" ","HOUSE_NO":"７７號","E_COORD97":167009.14000000001,"N_COORD97":2544239.5,"ADDRESS":"西寧街７７號","OBJECTID":157301},"geometry":{"x":167009.1400000006,"y":2544239.5000000019}},{"attributes":{"ID":157303,"DIS_CODE":0,"TOWNNAME":"中西區","LI":"協進里","LIN":" ","STREET":"臨安路","SECT":"一段","MAREA":" ","LANE":" ","ALLEY":" ","HOUSE_NO":"３４號","E_COORD97":166946.66,"N_COORD97":2544322.29,"ADDRESS":"臨安路一段３４號","OBJECTID":157302},"geometry":{"x":166946.66000000108,"y":2544322.2899999991}},{"attributes":{"ID":157304,"DIS_CODE":0,"TOWNNAME":"東區","LI":"虎尾里","LIN":"2鄰","STREET":"東門路","SECT":"三段","MAREA":" ","LANE":"１７９巷","ALLEY":"５８弄","HOUSE_NO":"３號","E_COORD97":171698.57000000001,"N_COORD97":2541995.1200000001,"ADDRESS":"東門路三段１７９巷５８弄３號","OBJECTID":157303},"geometry":{"x":171698.57000000216,"y":2541995.1200000029}},{"attributes":{"ID":157305,"DIS_CODE":0,"TOWNNAME":"東區","LI":"虎尾里","LIN":"2鄰","STREET":"東門路","SECT":"三段","MAREA":" ","LANE":"１７９巷","ALLEY":"５８弄","HOUSE_NO":"４號","E_COORD97":171680.69,"N_COORD97":2541994.04,"ADDRESS":"東門路三段１７９巷５８弄４號","OBJECTID":157304},"geometry":{"x":171680.68999999948,"y":2541994.0399999991}},{"attributes":{"ID":157306,"DIS_CODE":0,"TOWNNAME":"東區","LI":"虎尾里","LIN":"2鄰","STREET":"東門路","SECT":"三段","MAREA":" ","LANE":"１７９巷","ALLEY":"５８弄","HOUSE_NO":"５號","E_COORD97":171699.17000000001,"N_COORD97":2541990.7599999998,"ADDRESS":"東門路三段１７９巷５８弄５號","OBJECTID":157305},"geometry":{"x":171699.17000000179,"y":2541990.7599999998}},{"attributes":{"ID":157307,"DIS_CODE":0,"TOWNNAME":"東區","LI":"虎尾里","LIN":"2鄰","STREET":"東門路","SECT":"三段","MAREA":" ","LANE":"１７９巷","ALLEY":"５８弄","HOUSE_NO":"６號","E_COORD97":171681.56,"N_COORD97":2541989.7000000002,"ADDRESS":"東門路三段１７９巷５８弄６號","OBJECTID":157306},"geometry":{"x":171681.56000000052,"y":2541989.6999999993}},{"attributes":{"ID":157308,"DIS_CODE":0,"TOWNNAME":"東區","LI":"虎尾里","LIN":"2鄰","STREET":"東門路","SECT":"三段","MAREA":" ","LANE":"１７９巷","ALLEY":"５８弄","HOUSE_NO":"７號","E_COORD97":171699.35000000001,"N_COORD97":2541987.5899999999,"ADDRESS":"東門路三段１７９巷５８弄７號","OBJECTID":157307},"geometry":{"x":171699.35000000149,"y":2541987.5899999999}},{"attributes":{"ID":157309,"DIS_CODE":0,"TOWNNAME":"東區","LI":"虎尾里","LIN":"2鄰","STREET":"東門路","SECT":"三段","MAREA":" ","LANE":"１７９巷","ALLEY":"５８弄","HOUSE_NO":"８號","E_COORD97":171682.26000000001,"N_COORD97":2541985.48,"ADDRESS":"東門路三段１７９巷５８弄８號","OBJECTID":157308},"geometry":{"x":171682.25999999978,"y":2541985.4800000023}},{"attributes":{"ID":157310,"DIS_CODE":0,"TOWNNAME":"永康區","LI":"北灣里","LIN":"2鄰","STREET":"大灣路","SECT":" ","MAREA":" ","LANE":"１１９巷","ALLEY":"５８弄","HOUSE_NO":"１２號之２","E_COORD97":175323.29000000001,"N_COORD97":2545509.5899999999,"ADDRESS":"大灣路１１９巷５８弄１２號之２","OBJECTID":157309},"geometry":{"x":175323.29000000097,"y":2545509.5900000017}},{"attributes":{"ID":157311,"DIS_CODE":0,"TOWNNAME":"中西區","LI":"協進里","LIN":" ","STREET":"民權路","SECT":"三段","MAREA":" ","LANE":" ","ALLEY":" ","HOUSE_NO":"３１１號","E_COORD97":167087.97,"N_COORD97":2544285.9500000002,"ADDRESS":"民權路三段３１１號","OBJECTID":157310},"geometry":{"x":167087.97000000067,"y":2544285.9500000011}},{"attributes":{"ID":157312,"DIS_CODE":0,"TOWNNAME":"中西區","LI":"保安里","LIN":" ","STREET":"友愛街","SECT":" ","MAREA":" ","LANE":" ","ALLEY":" ","HOUSE_NO":"１４２號","E_COORD97":167749.47,"N_COORD97":2543616.2999999998,"ADDRESS":"友愛街１４２號","OBJECTID":157311},"geometry":{"x":167749.47000000067,"y":2543616.3000000045}},{"attributes":{"ID":157313,"DIS_CODE":0,"TOWNNAME":"中西區","LI":"保安里","LIN":" ","STREET":"中正路","SECT":" ","MAREA":" ","LANE":" ","ALLEY":" ","HOUSE_NO":"２５９號","E_COORD97":167641.91,"N_COORD97":2543732.5,"ADDRESS":"中正路２５９號","OBJECTID":157312},"geometry":{"x":167641.91000000108,"y":2543732.4999999981}},{"attributes":{"ID":157314,"DIS_CODE":0,"TOWNNAME":"大內區","LI":"頭社里","LIN":"19鄰","STREET":" ","SECT":" ","MAREA":"頭社","LANE":" ","ALLEY":" ","HOUSE_NO":"２３５號","E_COORD97":187677.48999999999,"N_COORD97":2559615.25,"ADDRESS":"頭社２３５號","OBJECTID":157313},"geometry":{"x":187677.49000000022,"y":2559615.2500000019}},{"attributes":{"ID":157315,"DIS_CODE":0,"TOWNNAME":"東山區","LI":"高原里","LIN":"5鄰","STREET":" ","SECT":" ","MAREA":"高原","LANE":" ","ALLEY":" ","HOUSE_NO":"４０號","E_COORD97":195803.20999999999,"N_COORD97":2576107.1000000001,"ADDRESS":"高原４０號","OBJECTID":157314},"geometry":{"x":195803.21000000089,"y":2576107.1000000015}},{"attributes":{"ID":157316,"DIS_CODE":0,"TOWNNAME":"東山區","LI":"高原里","LIN":"5鄰","STREET":" ","SECT":" ","MAREA":"高原","LANE":" ","ALLEY":" ","HOUSE_NO":"４１號之１","E_COORD97":195793.59,"N_COORD97":2576083.8799999999,"ADDRESS":"高原４１號之１","OBJECTID":157315},"geometry":{"x":195793.59000000078,"y":2576083.8800000008}},{"attributes":{"ID":157317,"DIS_CODE":0,"TOWNNAME":"東山區","LI":"高原里","LIN":"5鄰","STREET":" ","SECT":" ","MAREA":"高原","LANE":" ","ALLEY":" ","HOUSE_NO":"４１號之２","E_COORD97":195764.89999999999,"N_COORD97":2576043.9500000002,"ADDRESS":"高原４１號之２","OBJECTID":157316},"geometry":{"x":195764.9000000013,"y":2576043.9500000011}},{"attributes":{"ID":157318,"DIS_CODE":0,"TOWNNAME":"東山區","LI":"高原里","LIN":"5鄰","STREET":" ","SECT":" ","MAREA":"高原","LANE":" ","ALLEY":" ","HOUSE_NO":"４１號之３","E_COORD97":195782.26000000001,"N_COORD97":2576040.6499999999,"ADDRESS":"高原４１號之３","OBJECTID":157317},"geometry":{"x":195782.26000000071,"y":2576040.6500000022}},{"attributes":{"ID":157319,"DIS_CODE":0,"TOWNNAME":"東山區","LI":"高原里","LIN":"5鄰","STREET":" ","SECT":" ","MAREA":"高原","LANE":" ","ALLEY":" ","HOUSE_NO":"４１號","E_COORD97":195763.25,"N_COORD97":2576075.04,"ADDRESS":"高原４１號","OBJECTID":157318},"geometry":{"x":195763.25,"y":2576075.0399999991}},{"attributes":{"ID":157320,"DIS_CODE":0,"TOWNNAME":"東山區","LI":"高原里","LIN":"5鄰","STREET":" ","SECT":" ","MAREA":"高原","LANE":" ","ALLEY":" ","HOUSE_NO":"４２號","E_COORD97":195812.39999999999,"N_COORD97":2576078.5800000001,"ADDRESS":"高原４２號","OBJECTID":157319},"geometry":{"x":195812.4000000013,"y":2576078.5800000001}},{"attributes":{"ID":157321,"DIS_CODE":0,"TOWNNAME":"東山區","LI":"高原里","LIN":"5鄰","STREET":" ","SECT":" ","MAREA":"高原","LANE":" ","ALLEY":" ","HOUSE_NO":"４３號之２","E_COORD97":195845.89000000001,"N_COORD97":2576016.6000000001,"ADDRESS":"高原４３號之２","OBJECTID":157320},"geometry":{"x":195845.8900000006,"y":2576016.5999999996}},{"attributes":{"ID":157322,"DIS_CODE":0,"TOWNNAME":"東山區","LI":"高原里","LIN":"5鄰","STREET":" ","SECT":" ","MAREA":"高原","LANE":" ","ALLEY":" ","HOUSE_NO":"４３號","E_COORD97":195811.34,"N_COORD97":2576056.7000000002,"ADDRESS":"高原４３號","OBJECTID":157321},"geometry":{"x":195811.33999999985,"y":2576056.6999999993}},{"attributes":{"ID":157323,"DIS_CODE":0,"TOWNNAME":"東山區","LI":"高原里","LIN":"5鄰","STREET":" ","SECT":" ","MAREA":"高原","LANE":" ","ALLEY":" ","HOUSE_NO":"４４號","E_COORD97":195856.35000000001,"N_COORD97":2576048.04,"ADDRESS":"高原４４號","OBJECTID":157322},"geometry":{"x":195856.35000000056,"y":2576048.0399999991}},{"attributes":{"ID":157324,"DIS_CODE":0,"TOWNNAME":"鹽水區","LI":"田寮里","LIN":"5鄰","STREET":" ","SECT":" ","MAREA":"田寮","LANE":" ","ALLEY":" ","HOUSE_NO":"５１號","E_COORD97":171112.28,"N_COORD97":2575174.8199999998,"ADDRESS":"田寮５１號","OBJECTID":157323},"geometry":{"x":171112.28000000212,"y":2575174.8200000022}},{"attributes":{"ID":157325,"DIS_CODE":0,"TOWNNAME":"鹽水區","LI":"田寮里","LIN":"5鄰","STREET":" ","SECT":" ","MAREA":"田寮","LANE":" ","ALLEY":" ","HOUSE_NO":"５２號","E_COORD97":171093.51999999999,"N_COORD97":2575170.3199999998,"ADDRESS":"田寮５２號","OBJECTID":157324},"geometry":{"x":171093.52000000048,"y":2575170.3200000022}},{"attributes":{"ID":157326,"DIS_CODE":0,"TOWNNAME":"鹽水區","LI":"田寮里","LIN":"5鄰","STREET":" ","SECT":" ","MAREA":"田寮","LANE":" ","ALLEY":" ","HOUSE_NO":"５３號","E_COORD97":171095.95999999999,"N_COORD97":2575148.9300000002,"ADDRESS":"田寮５３號","OBJECTID":157325},"geometry":{"x":171095.96000000089,"y":2575148.9300000016}},{"attributes":{"ID":157327,"DIS_CODE":0,"TOWNNAME":"鹽水區","LI":"田寮里","LIN":"5鄰","STREET":" ","SECT":" ","MAREA":"田寮","LANE":" ","ALLEY":" ","HOUSE_NO":"５４號","E_COORD97":171105.17999999999,"N_COORD97":2575158.7400000002,"ADDRESS":"田寮５４號","OBJECTID":157326},"geometry":{"x":171105.1799999997,"y":2575158.7400000002}},{"attributes":{"ID":157328,"DIS_CODE":0,"TOWNNAME":"鹽水區","LI":"田寮里","LIN":"5鄰","STREET":" ","SECT":" ","MAREA":"田寮","LANE":" ","ALLEY":" ","HOUSE_NO":"５５號","E_COORD97":171116.81,"N_COORD97":2575153.5499999998,"ADDRESS":"田寮５５號","OBJECTID":157327},"geometry":{"x":171116.81000000052,"y":2575153.5500000007}},{"attributes":{"ID":157329,"DIS_CODE":0,"TOWNNAME":"鹽水區","LI":"田寮里","LIN":"5鄰","STREET":" ","SECT":" ","MAREA":"田寮","LANE":" ","ALLEY":" ","HOUSE_NO":"５６號","E_COORD97":171134.67999999999,"N_COORD97":2575169.0800000001,"ADDRESS":"田寮５６號","OBJECTID":157328},"geometry":{"x":171134.68000000063,"y":2575169.0800000019}},{"attributes":{"ID":157330,"DIS_CODE":0,"TOWNNAME":"鹽水區","LI":"田寮里","LIN":"5鄰","STREET":" ","SECT":" ","MAREA":"田寮","LANE":" ","ALLEY":" ","HOUSE_NO":"５８號","E_COORD97":171100.67000000001,"N_COORD97":2575231.9199999999,"ADDRESS":"田寮５８號","OBJECTID":157329},"geometry":{"x":171100.67000000179,"y":2575231.9199999999}},{"attributes":{"ID":157331,"DIS_CODE":0,"TOWNNAME":"鹽水區","LI":"福得里","LIN":"5鄰","STREET":" ","SECT":" ","MAREA":"後厝","LANE":" ","ALLEY":" ","HOUSE_NO":"１２０號","E_COORD97":175329.89000000001,"N_COORD97":2579911.2200000002,"ADDRESS":"後厝１２０號","OBJECTID":157330},"geometry":{"x":175329.88999999966,"y":2579911.2200000025}},{"attributes":{"ID":157332,"DIS_CODE":0,"TOWNNAME":"鹽水區","LI":"福得里","LIN":"5鄰","STREET":" ","SECT":" ","MAREA":"後厝","LANE":" ","ALLEY":" ","HOUSE_NO":"１２１號","E_COORD97":175327.45999999999,"N_COORD97":2579915.1699999999,"ADDRESS":"後厝１２１號","OBJECTID":157331},"geometry":{"x":175327.45999999996,"y":2579915.1700000018}},{"attributes":{"ID":157333,"DIS_CODE":0,"TOWNNAME":"鹽水區","LI":"福得里","LIN":"5鄰","STREET":" ","SECT":" ","MAREA":"後厝","LANE":" ","ALLEY":" ","HOUSE_NO":"１２２號","E_COORD97":175325.04000000001,"N_COORD97":2579919.1200000001,"ADDRESS":"後厝１２２號","OBJECTID":157332},"geometry":{"x":175325.04000000097,"y":2579919.1200000029}},{"attributes":{"ID":157334,"DIS_CODE":0,"TOWNNAME":"鹽水區","LI":"福得里","LIN":"5鄰","STREET":" ","SECT":" ","MAREA":"後厝","LANE":" ","ALLEY":" ","HOUSE_NO":"１２３號之１","E_COORD97":175320.12,"N_COORD97":2579926.23,"ADDRESS":"後厝１２３號之１","OBJECTID":157333},"geometry":{"x":175320.12000000011,"y":2579926.2300000004}},{"attributes":{"ID":157335,"DIS_CODE":0,"TOWNNAME":"鹽水區","LI":"福得里","LIN":"5鄰","STREET":" ","SECT":" ","MAREA":"後厝","LANE":" ","ALLEY":" ","HOUSE_NO":"１２３號","E_COORD97":175323.37,"N_COORD97":2579923.0099999998,"ADDRESS":"後厝１２３號","OBJECTID":157334},"geometry":{"x":175323.37000000011,"y":2579923.0099999998}},{"attributes":{"ID":157336,"DIS_CODE":0,"TOWNNAME":"鹽水區","LI":"福得里","LIN":"5鄰","STREET":" ","SECT":" ","MAREA":"後厝","LANE":" ","ALLEY":" ","HOUSE_NO":"１２５號","E_COORD97":175316.31,"N_COORD97":2579937.4399999999,"ADDRESS":"後厝１２５號","OBJECTID":157335},"geometry":{"x":175316.30999999959,"y":2579937.4399999995}},{"attributes":{"ID":157337,"DIS_CODE":0,"TOWNNAME":"中西區","LI":"大南里","LIN":"6鄰","STREET":"南寧街","SECT":" ","MAREA":" ","LANE":" ","ALLEY":" ","HOUSE_NO":"６８號","E_COORD97":168284.72,"N_COORD97":2542852.04,"ADDRESS":"南寧街６８號","OBJECTID":157336},"geometry":{"x":168284.72000000067,"y":2542852.0399999991}},{"attributes":{"ID":157338,"DIS_CODE":0,"TOWNNAME":"鹽水區","LI":"福得里","LIN":"5鄰","STREET":" ","SECT":" ","MAREA":"後厝","LANE":" ","ALLEY":" ","HOUSE_NO":"１２６號","E_COORD97":175309.67999999999,"N_COORD97":2579947.1499999999,"ADDRESS":"後厝１２６號","OBJECTID":157337},"geometry":{"x":175309.68000000063,"y":2579947.1500000004}},{"attributes":{"ID":157339,"DIS_CODE":0,"TOWNNAME":"鹽水區","LI":"福得里","LIN":"5鄰","STREET":" ","SECT":" ","MAREA":"後厝","LANE":" ","ALLEY":" ","HOUSE_NO":"１２７號","E_COORD97":175319.60999999999,"N_COORD97":2579932.7200000002,"ADDRESS":"後厝１２７號","OBJECTID":157338},"geometry":{"x":175319.61000000127,"y":2579932.7200000007}},{"attributes":{"ID":157340,"DIS_CODE":0,"TOWNNAME":"鹽水區","LI":"福得里","LIN":"5鄰","STREET":" ","SECT":" ","MAREA":"後厝","LANE":" ","ALLEY":" ","HOUSE_NO":"１２８號","E_COORD97":175312.81,"N_COORD97":2579942.0800000001,"ADDRESS":"後厝１２８號","OBJECTID":157339},"geometry":{"x":175312.80999999959,"y":2579942.0800000019}},{"attributes":{"ID":157341,"DIS_CODE":0,"TOWNNAME":"鹽水區","LI":"福得里","LIN":"5鄰","STREET":" ","SECT":" ","MAREA":"後厝","LANE":" ","ALLEY":" ","HOUSE_NO":"３３號","E_COORD97":175387.89999999999,"N_COORD97":2579923.9100000001,"ADDRESS":"後厝３３號","OBJECTID":157340},"geometry":{"x":175387.90000000037,"y":2579923.910000002}},{"attributes":{"ID":157342,"DIS_CODE":0,"TOWNNAME":"鹽水區","LI":"福得里","LIN":"5鄰","STREET":" ","SECT":" ","MAREA":"後厝","LANE":" ","ALLEY":" ","HOUSE_NO":"３４號","E_COORD97":175384.25,"N_COORD97":2579921.2599999998,"ADDRESS":"後厝３４號","OBJECTID":157341},"geometry":{"x":175384.25000000093,"y":2579921.2600000016}},{"attributes":{"ID":157343,"DIS_CODE":0,"TOWNNAME":"鹽水區","LI":"福得里","LIN":"5鄰","STREET":" ","SECT":" ","MAREA":"後厝","LANE":" ","ALLEY":" ","HOUSE_NO":"３５號","E_COORD97":175380.73000000001,"N_COORD97":2579919.2000000002,"ADDRESS":"後厝３５號","OBJECTID":157342},"geometry":{"x":175380.73000000045,"y":2579919.1999999974}},{"attributes":{"ID":157344,"DIS_CODE":0,"TOWNNAME":"鹽水區","LI":"福得里","LIN":"5鄰","STREET":" ","SECT":" ","MAREA":"後厝","LANE":" ","ALLEY":" ","HOUSE_NO":"３６號","E_COORD97":175363.12,"N_COORD97":2579908.75,"ADDRESS":"後厝３６號","OBJECTID":157343},"geometry":{"x":175363.12000000104,"y":2579908.75}},{"attributes":{"ID":157345,"DIS_CODE":0,"TOWNNAME":"鹽水區","LI":"福得里","LIN":"5鄰","STREET":" ","SECT":" ","MAREA":"後厝","LANE":" ","ALLEY":" ","HOUSE_NO":"３７號","E_COORD97":175366.13,"N_COORD97":2579904.3100000001,"ADDRESS":"後厝３７號","OBJECTID":157344},"geometry":{"x":175366.13000000175,"y":2579904.3100000024}},{"attributes":{"ID":157346,"DIS_CODE":0,"TOWNNAME":"鹽水區","LI":"福得里","LIN":"5鄰","STREET":" ","SECT":" ","MAREA":"後厝","LANE":" ","ALLEY":" ","HOUSE_NO":"３８號","E_COORD97":175368.45000000001,"N_COORD97":2579900.23,"ADDRESS":"後厝３８號","OBJECTID":157345},"geometry":{"x":175368.45000000019,"y":2579900.2300000042}},{"attributes":{"ID":157347,"DIS_CODE":0,"TOWNNAME":"鹽水區","LI":"福得里","LIN":"5鄰","STREET":" ","SECT":" ","MAREA":"後厝","LANE":" ","ALLEY":" ","HOUSE_NO":"３９號","E_COORD97":175370.89999999999,"N_COORD97":2579896.79,"ADDRESS":"後厝３９號","OBJECTID":157346},"geometry":{"x":175370.90000000037,"y":2579896.7899999991}},{"attributes":{"ID":157348,"DIS_CODE":0,"TOWNNAME":"鹽水區","LI":"福得里","LIN":"5鄰","STREET":" ","SECT":" ","MAREA":"後厝","LANE":" ","ALLEY":" ","HOUSE_NO":"４０號","E_COORD97":175373.75,"N_COORD97":2579893.1000000001,"ADDRESS":"後厝４０號","OBJECTID":157347},"geometry":{"x":175373.75000000186,"y":2579893.0999999996}},{"attributes":{"ID":157349,"DIS_CODE":0,"TOWNNAME":"鹽水區","LI":"福得里","LIN":"5鄰","STREET":" ","SECT":" ","MAREA":"後厝","LANE":" ","ALLEY":" ","HOUSE_NO":"４１號","E_COORD97":175376.20999999999,"N_COORD97":2579888.7799999998,"ADDRESS":"後厝４１號","OBJECTID":157348},"geometry":{"x":175376.21000000089,"y":2579888.7800000012}},{"attributes":{"ID":157350,"DIS_CODE":0,"TOWNNAME":"鹽水區","LI":"福得里","LIN":"5鄰","STREET":" ","SECT":" ","MAREA":"後厝","LANE":" ","ALLEY":" ","HOUSE_NO":"４２號","E_COORD97":175378.51999999999,"N_COORD97":2579884.5099999998,"ADDRESS":"後厝４２號","OBJECTID":157349},"geometry":{"x":175378.52000000048,"y":2579884.5100000016}},{"attributes":{"ID":157351,"DIS_CODE":0,"TOWNNAME":"鹽水區","LI":"福得里","LIN":"5鄰","STREET":" ","SECT":" ","MAREA":"後厝","LANE":" ","ALLEY":" ","HOUSE_NO":"４３號","E_COORD97":175381.13,"N_COORD97":2579880.96,"ADDRESS":"後厝４３號","OBJECTID":157350},"geometry":{"x":175381.12999999896,"y":2579880.9600000009}},{"attributes":{"ID":157352,"DIS_CODE":0,"TOWNNAME":"鹽水區","LI":"福得里","LIN":"5鄰","STREET":" ","SECT":" ","MAREA":"後厝","LANE":" ","ALLEY":" ","HOUSE_NO":"４４號","E_COORD97":175383.64000000001,"N_COORD97":2579877.2400000002,"ADDRESS":"後厝４４號","OBJECTID":157351},"geometry":{"x":175383.63999999966,"y":2579877.2400000021}},{"attributes":{"ID":157353,"DIS_CODE":0,"TOWNNAME":"鹽水區","LI":"福得里","LIN":"5鄰","STREET":" ","SECT":" ","MAREA":"後厝","LANE":" ","ALLEY":" ","HOUSE_NO":"４號之１","E_COORD97":175310.03,"N_COORD97":2579992.0699999998,"ADDRESS":"後厝４號之１","OBJECTID":157352},"geometry":{"x":175310.03000000119,"y":2579992.0700000003}},{"attributes":{"ID":157354,"DIS_CODE":0,"TOWNNAME":"鹽水區","LI":"福得里","LIN":"5鄰","STREET":" ","SECT":" ","MAREA":"後厝","LANE":" ","ALLEY":" ","HOUSE_NO":"４號之２","E_COORD97":175312.04000000001,"N_COORD97":2579988.6000000001,"ADDRESS":"後厝４號之２","OBJECTID":157353},"geometry":{"x":175312.04000000004,"y":2579988.6000000015}},{"attributes":{"ID":157355,"DIS_CODE":0,"TOWNNAME":"鹽水區","LI":"福得里","LIN":"5鄰","STREET":" ","SECT":" ","MAREA":"後厝","LANE":" ","ALLEY":" ","HOUSE_NO":"４號之３","E_COORD97":175314,"N_COORD97":2579984.8300000001,"ADDRESS":"後厝４號之３","OBJECTID":157354},"geometry":{"x":175314,"y":2579984.8300000019}},{"attributes":{"ID":157356,"DIS_CODE":0,"TOWNNAME":"鹽水區","LI":"福得里","LIN":"5鄰","STREET":" ","SECT":" ","MAREA":"後厝","LANE":" ","ALLEY":" ","HOUSE_NO":"４號之４","E_COORD97":175317.12,"N_COORD97":2579981.8799999999,"ADDRESS":"後厝４號之４","OBJECTID":157355},"geometry":{"x":175317.12000000197,"y":2579981.879999999}},{"attributes":{"ID":157357,"DIS_CODE":0,"TOWNNAME":"鹽水區","LI":"福得里","LIN":"5鄰","STREET":" ","SECT":" ","MAREA":"後厝","LANE":" ","ALLEY":" ","HOUSE_NO":"４號之５","E_COORD97":175319.62,"N_COORD97":2579977.3700000001,"ADDRESS":"後厝４號之５","OBJECTID":157356},"geometry":{"x":175319.62000000104,"y":2579977.370000001}},{"attributes":{"ID":157358,"DIS_CODE":0,"TOWNNAME":"鹽水區","LI":"福得里","LIN":"5鄰","STREET":" ","SECT":" ","MAREA":"後厝","LANE":" ","ALLEY":" ","HOUSE_NO":"４號之６","E_COORD97":175337.10000000001,"N_COORD97":2579970.8300000001,"ADDRESS":"後厝４號之６","OBJECTID":157357},"geometry":{"x":175337.10000000149,"y":2579970.8300000019}},{"attributes":{"ID":157359,"DIS_CODE":0,"TOWNNAME":"鹽水區","LI":"福得里","LIN":"5鄰","STREET":" ","SECT":" ","MAREA":"後厝","LANE":" ","ALLEY":" ","HOUSE_NO":"４號","E_COORD97":175307.04999999999,"N_COORD97":2579996.8199999998,"ADDRESS":"後厝４號","OBJECTID":157358},"geometry":{"x":175307.04999999888,"y":2579996.8200000003}},{"attributes":{"ID":157360,"DIS_CODE":0,"TOWNNAME":"鹽水區","LI":"福得里","LIN":"5鄰","STREET":" ","SECT":" ","MAREA":"後厝","LANE":" ","ALLEY":" ","HOUSE_NO":"５０號","E_COORD97":175399.73000000001,"N_COORD97":2579853.98,"ADDRESS":"後厝５０號","OBJECTID":157359},"geometry":{"x":175399.72999999952,"y":2579853.9800000004}},{"attributes":{"ID":157361,"DIS_CODE":0,"TOWNNAME":"鹽水區","LI":"福得里","LIN":"5鄰","STREET":" ","SECT":" ","MAREA":"後厝","LANE":" ","ALLEY":" ","HOUSE_NO":"７１之１號","E_COORD97":175428.56,"N_COORD97":2579755.4199999999,"ADDRESS":"後厝７１之１號","OBJECTID":157360},"geometry":{"x":175428.55999999959,"y":2579755.4199999999}},{"attributes":{"ID":157362,"DIS_CODE":0,"TOWNNAME":"鹽水區","LI":"福得里","LIN":"5鄰","STREET":" ","SECT":" ","MAREA":"後厝","LANE":" ","ALLEY":" ","HOUSE_NO":"７１號","E_COORD97":175426.73999999999,"N_COORD97":2579759.48,"ADDRESS":"後厝７１號","OBJECTID":157361},"geometry":{"x":175426.74000000209,"y":2579759.4800000042}},{"attributes":{"ID":157363,"DIS_CODE":0,"TOWNNAME":"鹽水區","LI":"福得里","LIN":"5鄰","STREET":" ","SECT":" ","MAREA":"後厝","LANE":" ","ALLEY":" ","HOUSE_NO":"７２號","E_COORD97":175424.97,"N_COORD97":2579762.8500000001,"ADDRESS":"後厝７２號","OBJECTID":157362},"geometry":{"x":175424.97000000067,"y":2579762.8500000034}},{"attributes":{"ID":157364,"DIS_CODE":0,"TOWNNAME":"鹽水區","LI":"福得里","LIN":"5鄰","STREET":" ","SECT":" ","MAREA":"後厝","LANE":" ","ALLEY":" ","HOUSE_NO":"７３號","E_COORD97":175422.67000000001,"N_COORD97":2579766.27,"ADDRESS":"後厝７３號","OBJECTID":157363},"geometry":{"x":175422.66999999993,"y":2579766.2699999996}},{"attributes":{"ID":157365,"DIS_CODE":0,"TOWNNAME":"鹽水區","LI":"福得里","LIN":"5鄰","STREET":" ","SECT":" ","MAREA":"後厝","LANE":" ","ALLEY":" ","HOUSE_NO":"７４號","E_COORD97":175420.53,"N_COORD97":2579769.8700000001,"ADDRESS":"後厝７４號","OBJECTID":157364},"geometry":{"x":175420.53000000026,"y":2579769.870000001}},{"attributes":{"ID":157366,"DIS_CODE":0,"TOWNNAME":"鹽水區","LI":"福得里","LIN":"5鄰","STREET":" ","SECT":" ","MAREA":"後厝","LANE":" ","ALLEY":" ","HOUSE_NO":"７５號","E_COORD97":175418.25,"N_COORD97":2579773.5099999998,"ADDRESS":"後厝７５號","OBJECTID":157365},"geometry":{"x":175418.25000000093,"y":2579773.5100000016}},{"attributes":{"ID":157367,"DIS_CODE":0,"TOWNNAME":"鹽水區","LI":"福得里","LIN":"5鄰","STREET":" ","SECT":" ","MAREA":"後厝","LANE":" ","ALLEY":" ","HOUSE_NO":"７６號","E_COORD97":175416.06,"N_COORD97":2579776.79,"ADDRESS":"後厝７６號","OBJECTID":157366},"geometry":{"x":175416.06000000052,"y":2579776.790000001}},{"attributes":{"ID":157368,"DIS_CODE":0,"TOWNNAME":"鹽水區","LI":"福得里","LIN":"5鄰","STREET":" ","SECT":" ","MAREA":"後厝","LANE":" ","ALLEY":" ","HOUSE_NO":"７７號","E_COORD97":175413.79999999999,"N_COORD97":2579780.2400000002,"ADDRESS":"後厝７７號","OBJECTID":157367},"geometry":{"x":175413.79999999888,"y":2579780.2400000002}},{"attributes":{"ID":157369,"DIS_CODE":0,"TOWNNAME":"鹽水區","LI":"福得里","LIN":"5鄰","STREET":" ","SECT":" ","MAREA":"後厝","LANE":" ","ALLEY":" ","HOUSE_NO":"７８號","E_COORD97":175411.54000000001,"N_COORD97":2579783.6899999999,"ADDRESS":"後厝７８號","OBJECTID":157368},"geometry":{"x":175411.54000000097,"y":2579783.6899999995}},{"attributes":{"ID":157370,"DIS_CODE":0,"TOWNNAME":"鹽水區","LI":"福得里","LIN":"5鄰","STREET":" ","SECT":" ","MAREA":"後厝","LANE":" ","ALLEY":" ","HOUSE_NO":"７９號","E_COORD97":175409.28,"N_COORD97":2579787.1299999999,"ADDRESS":"後厝７９號","OBJECTID":157369},"geometry":{"x":175409.28000000026,"y":2579787.1299999971}},{"attributes":{"ID":157371,"DIS_CODE":0,"TOWNNAME":"東區","LI":"和平里","LIN":"19鄰","STREET":"仁和路","SECT":" ","MAREA":" ","LANE":" ","ALLEY":" ","HOUSE_NO":"９５號之３１","E_COORD97":171368.54000000001,"N_COORD97":2541479.1800000002,"ADDRESS":"仁和路９５號之３１","OBJECTID":157370},"geometry":{"x":171368.54000000097,"y":2541479.1799999997}},{"attributes":{"ID":157372,"DIS_CODE":0,"TOWNNAME":"鹽水區","LI":"福得里","LIN":"5鄰","STREET":" ","SECT":" ","MAREA":"後厝","LANE":" ","ALLEY":" ","HOUSE_NO":"９２號","E_COORD97":175369.39000000001,"N_COORD97":2579801.54,"ADDRESS":"後厝９２號","OBJECTID":157371},"geometry":{"x":175369.3900000006,"y":2579801.5399999972}},{"attributes":{"ID":157373,"DIS_CODE":0,"TOWNNAME":"鹽水區","LI":"福得里","LIN":"5鄰","STREET":" ","SECT":" ","MAREA":"後厝","LANE":" ","ALLEY":" ","HOUSE_NO":"９３號","E_COORD97":175366.17999999999,"N_COORD97":2579798.8599999999,"ADDRESS":"後厝９３號","OBJECTID":157372},"geometry":{"x":175366.18000000063,"y":2579798.8599999994}},{"attributes":{"ID":157374,"DIS_CODE":0,"TOWNNAME":"鹽水區","LI":"福得里","LIN":"5鄰","STREET":" ","SECT":" ","MAREA":"後厝","LANE":" ","ALLEY":" ","HOUSE_NO":"９４號","E_COORD97":175354.60999999999,"N_COORD97":2579824.6499999999,"ADDRESS":"後厝９４號","OBJECTID":157373},"geometry":{"x":175354.6099999994,"y":2579824.6500000004}},{"attributes":{"ID":157375,"DIS_CODE":0,"TOWNNAME":"鹽水區","LI":"福得里","LIN":"5鄰","STREET":" ","SECT":" ","MAREA":"後厝","LANE":" ","ALLEY":" ","HOUSE_NO":"９５號","E_COORD97":175357.91,"N_COORD97":2579826.8599999999,"ADDRESS":"後厝９５號","OBJECTID":157374},"geometry":{"x":175357.91000000108,"y":2579826.8600000031}},{"attributes":{"ID":157376,"DIS_CODE":0,"TOWNNAME":"永康區","LI":"北灣里","LIN":"2鄰","STREET":"文賢街","SECT":" ","MAREA":" ","LANE":"１２２巷","ALLEY":"２７弄","HOUSE_NO":"２２號","E_COORD97":175476.45999999999,"N_COORD97":2545555.5699999998,"ADDRESS":"文賢街１２２巷２７弄２２號","OBJECTID":157375},"geometry":{"x":175476.46000000089,"y":2545555.5700000003}},{"attributes":{"ID":157377,"DIS_CODE":0,"TOWNNAME":"安平區","LI":"文平里","LIN":"2鄰","STREET":"中華西路","SECT":"二段","MAREA":" ","LANE":"４９巷","ALLEY":"２４弄","HOUSE_NO":"１１２之３號三樓","E_COORD97":166580.30428099999,"N_COORD97":2543235.0833299998,"ADDRESS":"中華西路二段４９巷２４弄１１２之３號三樓","OBJECTID":157376},"geometry":{"x":166580.30428100191,"y":2543235.0833290033}},{"attributes":{"ID":157378,"DIS_CODE":0,"TOWNNAME":"永康區","LI":"烏竹里","LIN":"19鄰","STREET":"自強路","SECT":" ","MAREA":" ","LANE":" ","ALLEY":" ","HOUSE_NO":"７５９號","E_COORD97":174455.57999999999,"N_COORD97":2548549.5499999998,"ADDRESS":"自強路７５９號","OBJECTID":157377},"geometry":{"x":174455.58000000007,"y":2548549.5500000007}},{"attributes":{"ID":157379,"DIS_CODE":0,"TOWNNAME":"安平區","LI":"文平里","LIN":"2鄰","STREET":"中華西路","SECT":"二段","MAREA":" ","LANE":"４９巷","ALLEY":"２４弄","HOUSE_NO":"１１２號之３三樓","E_COORD97":166574.67000000001,"N_COORD97":2543240.46,"ADDRESS":"中華西路二段４９巷２４弄１１２號之３三樓","OBJECTID":157378},"geometry":{"x":166574.67000000086,"y":2543240.4600000028}},{"attributes":{"ID":157380,"DIS_CODE":0,"TOWNNAME":"安南區","LI":"佃西里","LIN":"2鄰","STREET":"公學路","SECT":"四段","MAREA":" ","LANE":"１２６巷","ALLEY":"１２２弄","HOUSE_NO":"１號","E_COORD97":165277.25450400001,"N_COORD97":2551977.6171300001,"ADDRESS":"公學路四段１２６巷１２２弄１號","OBJECTID":157379},"geometry":{"x":165277.25450400077,"y":2551977.6171289999}},{"attributes":{"ID":157381,"DIS_CODE":0,"TOWNNAME":"永康區","LI":"中華里","LIN":"19鄰","STREET":"華興街","SECT":" ","MAREA":" ","LANE":" ","ALLEY":" ","HOUSE_NO":"１３１號","E_COORD97":171668.60999999999,"N_COORD97":2544560.5499999998,"ADDRESS":"華興街１３１號","OBJECTID":157380},"geometry":{"x":171668.61000000034,"y":2544560.5500000045}},{"attributes":{"ID":157382,"DIS_CODE":0,"TOWNNAME":"安南區","LI":"佃西里","LIN":"2鄰","STREET":"公學路","SECT":"四段","MAREA":" ","LANE":"１２６巷","ALLEY":"１２２弄","HOUSE_NO":"２號","E_COORD97":165280.85625000001,"N_COORD97":2551983.4379599998,"ADDRESS":"公學路四段１２６巷１２２弄２號","OBJECTID":157381},"geometry":{"x":165280.85625000112,"y":2551983.4379590042}},{"attributes":{"ID":157383,"DIS_CODE":0,"TOWNNAME":"中西區","LI":"保安里","LIN":" ","STREET":"康樂街","SECT":" ","MAREA":" ","LANE":" ","ALLEY":" ","HOUSE_NO":"９６之１號","E_COORD97":167428.01999999999,"N_COORD97":2543701.6600000001,"ADDRESS":"康樂街９６之１號","OBJECTID":157382},"geometry":{"x":167428.02000000048,"y":2543701.660000002}},{"attributes":{"ID":157384,"DIS_CODE":0,"TOWNNAME":"中西區","LI":"保安里","LIN":" ","STREET":"康樂街","SECT":" ","MAREA":" ","LANE":" ","ALLEY":" ","HOUSE_NO":"９６之２號","E_COORD97":167442.32999999999,"N_COORD97":2543696.6299999999,"ADDRESS":"康樂街９６之２號","OBJECTID":157383},"geometry":{"x":167442.33000000101,"y":2543696.6299999971}},{"attributes":{"ID":157385,"DIS_CODE":0,"TOWNNAME":"安南區","LI":"佃西里","LIN":"2鄰","STREET":"公學路","SECT":"四段","MAREA":" ","LANE":"１２６巷","ALLEY":"１２２弄","HOUSE_NO":"４７號","E_COORD97":165217.50789199999,"N_COORD97":2552022.2787700002,"ADDRESS":"公學路四段１２６巷１２２弄４７號","OBJECTID":157384},"geometry":{"x":165217.50789200049,"y":2552022.2787710018}},{"attributes":{"ID":157386,"DIS_CODE":0,"TOWNNAME":"中西區","LI":"保安里","LIN":" ","STREET":"康樂街","SECT":" ","MAREA":" ","LANE":" ","ALLEY":" ","HOUSE_NO":"９６之３號","E_COORD97":167444.94,"N_COORD97":2543695.8700000001,"ADDRESS":"康樂街９６之３號","OBJECTID":157385},"geometry":{"x":167444.94000000134,"y":2543695.870000001}},{"attributes":{"ID":157387,"DIS_CODE":0,"TOWNNAME":"安南區","LI":"佃西里","LIN":"2鄰","STREET":"公學路","SECT":"四段","MAREA":" ","LANE":"１２６巷","ALLEY":"１２２弄","HOUSE_NO":"４６號","E_COORD97":165213.05867,"N_COORD97":2552017.8337699999,"ADDRESS":"公學路四段１２６巷１２２弄４６號","OBJECTID":157386},"geometry":{"x":165213.05867000204,"y":2552017.8337700013}},{"attributes":{"ID":157388,"DIS_CODE":0,"TOWNNAME":"永康區","LI":"勝利里","LIN":"2鄰","STREET":"勝利街","SECT":" ","MAREA":" ","LANE":"２巷","ALLEY":"５９弄","HOUSE_NO":"８號","E_COORD97":170976.23999999999,"N_COORD97":2544718.5,"ADDRESS":"勝利街２巷５９弄８號","OBJECTID":157387},"geometry":{"x":170976.24000000022,"y":2544718.5}},{"attributes":{"ID":157389,"DIS_CODE":0,"TOWNNAME":"永康區","LI":"龍潭里","LIN":"2鄰","STREET":"龍潭街","SECT":" ","MAREA":" ","LANE":"８９巷","ALLEY":"６弄","HOUSE_NO":"２８號","E_COORD97":174785.92000000001,"N_COORD97":2548162,"ADDRESS":"龍潭街８９巷６弄２８號","OBJECTID":157388},"geometry":{"x":174785.91999999899,"y":2548162.0000000019}},{"attributes":{"ID":157390,"DIS_CODE":0,"TOWNNAME":"永康區","LI":"龍潭里","LIN":"2鄰","STREET":"龍潭街","SECT":" ","MAREA":" ","LANE":"８９巷","ALLEY":"６弄","HOUSE_NO":"３８號","E_COORD97":174782.29000000001,"N_COORD97":2548147.29,"ADDRESS":"龍潭街８９巷６弄３８號","OBJECTID":157389},"geometry":{"x":174782.29000000097,"y":2548147.2899999972}},{"attributes":{"ID":157391,"DIS_CODE":0,"TOWNNAME":"永康區","LI":"勝利里","LIN":"2鄰","STREET":"勝利街","SECT":" ","MAREA":" ","LANE":"２巷","ALLEY":"５９弄","HOUSE_NO":"１７號","E_COORD97":170934.20999999999,"N_COORD97":2544706.75,"ADDRESS":"勝利街２巷５９弄１７號","OBJECTID":157390},"geometry":{"x":170934.20999999903,"y":2544706.75}},{"attributes":{"ID":157392,"DIS_CODE":0,"TOWNNAME":"永康區","LI":"龍潭里","LIN":"2鄰","STREET":"龍潭街","SECT":" ","MAREA":" ","LANE":"８９巷","ALLEY":"６弄","HOUSE_NO":"１６號","E_COORD97":174817.04000000001,"N_COORD97":2548155.0099999998,"ADDRESS":"龍潭街８９巷６弄１６號","OBJECTID":157391},"geometry":{"x":174817.04000000004,"y":2548155.0100000016}},{"attributes":{"ID":157393,"DIS_CODE":0,"TOWNNAME":"永康區","LI":"蔦松里","LIN":"2鄰","STREET":"蔦松二街","SECT":" ","MAREA":" ","LANE":"１２４巷","ALLEY":"３５弄","HOUSE_NO":"７號","E_COORD97":173918.23000000001,"N_COORD97":2549315.25,"ADDRESS":"蔦松二街１２４巷３５弄７號","OBJECTID":157392},"geometry":{"x":173918.23000000231,"y":2549315.2500000019}},{"attributes":{"ID":157394,"DIS_CODE":0,"TOWNNAME":"永康區","LI":"尚頂里","LIN":"19鄰","STREET":"南台街","SECT":" ","MAREA":" ","LANE":"３巷","ALLEY":" ","HOUSE_NO":"２２號","E_COORD97":170495.32999999999,"N_COORD97":2546854.75,"ADDRESS":"南台街３巷２２號","OBJECTID":157393},"geometry":{"x":170495.33000000101,"y":2546854.7500000019}},{"attributes":{"ID":157395,"DIS_CODE":0,"TOWNNAME":"大內區","LI":"頭社里","LIN":"19鄰","STREET":" ","SECT":" ","MAREA":"頭社","LANE":" ","ALLEY":" ","HOUSE_NO":"２３８號","E_COORD97":187661.89000000001,"N_COORD97":2559693.25,"ADDRESS":"頭社２３８號","OBJECTID":157394},"geometry":{"x":187661.88999999966,"y":2559693.2500000019}},{"attributes":{"ID":157396,"DIS_CODE":0,"TOWNNAME":"大內區","LI":"頭社里","LIN":"19鄰","STREET":" ","SECT":" ","MAREA":"頭社","LANE":" ","ALLEY":" ","HOUSE_NO":"２３４號之１","E_COORD97":187651.42999999999,"N_COORD97":2559597.2999999998,"ADDRESS":"頭社２３４號之１","OBJECTID":157395},"geometry":{"x":187651.4299999997,"y":2559597.3000000007}},{"attributes":{"ID":157397,"DIS_CODE":0,"TOWNNAME":"安南區","LI":"安東里","LIN":"2鄰","STREET":"安和路","SECT":"一段","MAREA":" ","LANE":"４７８巷","ALLEY":"４６弄","HOUSE_NO":"１０號","E_COORD97":169513.54000000001,"N_COORD97":2548322.9900000002,"ADDRESS":"安和路一段４７８巷４６弄１０號","OBJECTID":157396},"geometry":{"x":169513.54000000097,"y":2548322.9900000002}},{"attributes":{"ID":157398,"DIS_CODE":0,"TOWNNAME":"安南區","LI":"安東里","LIN":"2鄰","STREET":"安和路","SECT":"一段","MAREA":" ","LANE":"４７８巷","ALLEY":"４６弄","HOUSE_NO":"１１號","E_COORD97":169494.95000000001,"N_COORD97":2548306.9300000002,"ADDRESS":"安和路一段４７８巷４６弄１１號","OBJECTID":157397},"geometry":{"x":169494.95000000019,"y":2548306.9300000016}},{"attributes":{"ID":157399,"DIS_CODE":0,"TOWNNAME":"安南區","LI":"安東里","LIN":"2鄰","STREET":"安和路","SECT":"一段","MAREA":" ","LANE":"４７８巷","ALLEY":"４６弄","HOUSE_NO":"１２號","E_COORD97":169507.39000000001,"N_COORD97":2548323.27,"ADDRESS":"安和路一段４７８巷４６弄１２號","OBJECTID":157398},"geometry":{"x":169507.3900000006,"y":2548323.2699999996}},{"attributes":{"ID":157400,"DIS_CODE":0,"TOWNNAME":"安南區","LI":"安東里","LIN":"2鄰","STREET":"安和路","SECT":"一段","MAREA":" ","LANE":"４７８巷","ALLEY":"４６弄","HOUSE_NO":"１３號","E_COORD97":169489.92000000001,"N_COORD97":2548307.0699999998,"ADDRESS":"安和路一段４７８巷４６弄１３號","OBJECTID":157399},"geometry":{"x":169489.91999999993,"y":2548307.0700000022}},{"attributes":{"ID":157401,"DIS_CODE":0,"TOWNNAME":"安南區","LI":"安東里","LIN":"2鄰","STREET":"安和路","SECT":"一段","MAREA":" ","LANE":"４７８巷","ALLEY":"４６弄","HOUSE_NO":"１４號","E_COORD97":169502.5,"N_COORD97":2548323.1299999999,"ADDRESS":"安和路一段４７８巷４６弄１４號","OBJECTID":157400},"geometry":{"x":169502.5,"y":2548323.129999999}}]}