{"displayFieldName":"TOWNNAME","fieldAliases":{"ID":"ID","DIS_CODE":"DIS_CODE","TOWNNAME":"TOWNNAME","LI":"LI","LIN":"LIN","STREET":"STREET","SECT":"SECT","MAREA":"MAREA","LANE":"LANE","ALLEY":"ALLEY","HOUSE_NO":"HOUSE_NO","E_COORD97":"E_COORD97","N_COORD97":"N_COORD97","ADDRESS":"ADDRESS","OBJECTID":"OBJECTID"},"geometryType":"esriGeometryPoint","spatialReference":{"wkid":102443,"latestWkid":3826},"fields":[{"name":"ID","type":"esriFieldTypeDouble","alias":"ID"},{"name":"DIS_CODE","type":"esriFieldTypeInteger","alias":"DIS_CODE"},{"name":"TOWNNAME","type":"esriFieldTypeString","alias":"TOWNNAME","length":8},{"name":"LI","type":"esriFieldTypeString","alias":"LI","length":8},{"name":"LIN","type":"esriFieldTypeString","alias":"LIN","length":12},{"name":"STREET","type":"esriFieldTypeString","alias":"STREET","length":20},{"name":"SECT","type":"esriFieldTypeString","alias":"SECT","length":8},{"name":"MAREA","type":"esriFieldTypeString","alias":"MAREA","length":12},{"name":"LANE","type":"esriFieldTypeString","alias":"LANE","length":10},{"name":"ALLEY","type":"esriFieldTypeString","alias":"ALLEY","length":10},{"name":"HOUSE_NO","type":"esriFieldTypeString","alias":"HOUSE_NO","length":20},{"name":"E_COORD97","type":"esriFieldTypeDouble","alias":"E_COORD97"},{"name":"N_COORD97","type":"esriFieldTypeDouble","alias":"N_COORD97"},{"name":"ADDRESS","type":"esriFieldTypeString","alias":"ADDRESS","length":50},{"name":"OBJECTID","type":"esriFieldTypeOID","alias":"OBJECTID"}],"features":[{"attributes":{"ID":300409,"DIS_CODE":0,"TOWNNAME":"南區","LI":"省躬里","LIN":"8鄰","STREET":"灣裡路","SECT":" ","MAREA":" ","LANE":"６２巷","ALLEY":" ","HOUSE_NO":"１１號","E_COORD97":165715.63,"N_COORD97":2537129,"ADDRESS":"灣裡路６２巷１１號","OBJECTID":300401},"geometry":{"x":165715.63000000082,"y":2537129.0000000019}},{"attributes":{"ID":300410,"DIS_CODE":0,"TOWNNAME":"南區","LI":"省躬里","LIN":"8鄰","STREET":"灣裡路","SECT":" ","MAREA":" ","LANE":"６２巷","ALLEY":" ","HOUSE_NO":"１３號","E_COORD97":165710.76999999999,"N_COORD97":2537126.71,"ADDRESS":"灣裡路６２巷１３號","OBJECTID":300402},"geometry":{"x":165710.77000000048,"y":2537126.7100000009}},{"attributes":{"ID":300411,"DIS_CODE":0,"TOWNNAME":"南區","LI":"省躬里","LIN":"8鄰","STREET":"灣裡路","SECT":" ","MAREA":" ","LANE":"６２巷","ALLEY":" ","HOUSE_NO":"１５號","E_COORD97":165705.62,"N_COORD97":2537127.8500000001,"ADDRESS":"灣裡路６２巷１５號","OBJECTID":300403},"geometry":{"x":165705.62000000104,"y":2537127.8499999996}},{"attributes":{"ID":300412,"DIS_CODE":0,"TOWNNAME":"安南區","LI":"新順里","LIN":"14鄰","STREET":"永安路","SECT":" ","MAREA":" ","LANE":" ","ALLEY":" ","HOUSE_NO":"１３４號","E_COORD97":170438.57999999999,"N_COORD97":2549300.2400000002,"ADDRESS":"永安路１３４號","OBJECTID":300404},"geometry":{"x":170438.58000000194,"y":2549300.2400000002}},{"attributes":{"ID":300413,"DIS_CODE":0,"TOWNNAME":"安南區","LI":"新順里","LIN":"14鄰","STREET":"永安路","SECT":" ","MAREA":" ","LANE":" ","ALLEY":" ","HOUSE_NO":"６０號","E_COORD97":170106.84,"N_COORD97":2549475.5600000001,"ADDRESS":"永安路６０號","OBJECTID":300405},"geometry":{"x":170106.84000000078,"y":2549475.5600000005}},{"attributes":{"ID":300414,"DIS_CODE":0,"TOWNNAME":"官田區","LI":"隆田里","LIN":"14鄰","STREET":"文化街","SECT":" ","MAREA":" ","LANE":" ","ALLEY":" ","HOUSE_NO":"１００號","E_COORD97":180195.85000000001,"N_COORD97":2566067.48,"ADDRESS":"文化街１００號","OBJECTID":300406},"geometry":{"x":180195.85000000056,"y":2566067.4800000004}},{"attributes":{"ID":300415,"DIS_CODE":0,"TOWNNAME":"官田區","LI":"隆田里","LIN":"14鄰","STREET":"文化街","SECT":" ","MAREA":" ","LANE":" ","ALLEY":" ","HOUSE_NO":"１０６號","E_COORD97":180185.81,"N_COORD97":2566082.9900000002,"ADDRESS":"文化街１０６號","OBJECTID":300407},"geometry":{"x":180185.81000000052,"y":2566082.9900000021}},{"attributes":{"ID":300416,"DIS_CODE":0,"TOWNNAME":"仁德區","LI":"保安里","LIN":"12鄰","STREET":"開發五路","SECT":" ","MAREA":" ","LANE":" ","ALLEY":" ","HOUSE_NO":"６號","E_COORD97":172829.993877,"N_COORD97":2535683.5714199999,"ADDRESS":"開發五路６號","OBJECTID":300408},"geometry":{"x":172829.99387700018,"y":2535683.5714229997}},{"attributes":{"ID":300417,"DIS_CODE":0,"TOWNNAME":"南區","LI":"省躬里","LIN":"8鄰","STREET":"灣裡路","SECT":" ","MAREA":" ","LANE":"６２巷","ALLEY":" ","HOUSE_NO":"１７號","E_COORD97":165700.76000000001,"N_COORD97":2537127.2799999998,"ADDRESS":"灣裡路６２巷１７號","OBJECTID":300409},"geometry":{"x":165700.76000000164,"y":2537127.2800000012}},{"attributes":{"ID":300418,"DIS_CODE":0,"TOWNNAME":"南區","LI":"省躬里","LIN":"8鄰","STREET":"灣裡路","SECT":" ","MAREA":" ","LANE":"６２巷","ALLEY":" ","HOUSE_NO":"１９號","E_COORD97":165690.76000000001,"N_COORD97":2537131.2799999998,"ADDRESS":"灣裡路６２巷１９號","OBJECTID":300410},"geometry":{"x":165690.76000000071,"y":2537131.2799999993}},{"attributes":{"ID":300419,"DIS_CODE":0,"TOWNNAME":"南區","LI":"省躬里","LIN":"8鄰","STREET":"灣裡路","SECT":" ","MAREA":" ","LANE":"６２巷","ALLEY":" ","HOUSE_NO":"７號","E_COORD97":165725.63,"N_COORD97":2537130.4199999999,"ADDRESS":"灣裡路６２巷７號","OBJECTID":300411},"geometry":{"x":165725.63000000082,"y":2537130.4199999999}},{"attributes":{"ID":300420,"DIS_CODE":0,"TOWNNAME":"南區","LI":"省躬里","LIN":"8鄰","STREET":"灣裡路","SECT":" ","MAREA":" ","LANE":"６２巷","ALLEY":" ","HOUSE_NO":"９號","E_COORD97":165721.06,"N_COORD97":2537128.4300000002,"ADDRESS":"灣裡路６２巷９號","OBJECTID":300412},"geometry":{"x":165721.06000000052,"y":2537128.4300000034}},{"attributes":{"ID":300421,"DIS_CODE":0,"TOWNNAME":"南區","LI":"永寧里","LIN":"8鄰","STREET":"灣裡路","SECT":" ","MAREA":" ","LANE":"８８巷","ALLEY":" ","HOUSE_NO":"１８９號","E_COORD97":165928.54000000001,"N_COORD97":2536488.8700000001,"ADDRESS":"灣裡路８８巷１８９號","OBJECTID":300413},"geometry":{"x":165928.54000000097,"y":2536488.870000001}},{"attributes":{"ID":300422,"DIS_CODE":0,"TOWNNAME":"南區","LI":"永寧里","LIN":"8鄰","STREET":"灣裡路","SECT":" ","MAREA":" ","LANE":"８８巷","ALLEY":" ","HOUSE_NO":"１９１號","E_COORD97":165884.66,"N_COORD97":2536446.8399999999,"ADDRESS":"灣裡路８８巷１９１號","OBJECTID":300414},"geometry":{"x":165884.66000000015,"y":2536446.8399999999}},{"attributes":{"ID":300423,"DIS_CODE":0,"TOWNNAME":"北區","LI":"文成里","LIN":"8鄰","STREET":"文賢路","SECT":" ","MAREA":" ","LANE":"５２０巷","ALLEY":" ","HOUSE_NO":"２號","E_COORD97":167373.04999999999,"N_COORD97":2545291.04,"ADDRESS":"文賢路５２０巷２號","OBJECTID":300415},"geometry":{"x":167373.04999999981,"y":2545291.0400000028}},{"attributes":{"ID":300424,"DIS_CODE":0,"TOWNNAME":"南區","LI":"永寧里","LIN":"8鄰","STREET":"灣裡路","SECT":" ","MAREA":" ","LANE":"８８巷","ALLEY":" ","HOUSE_NO":"１９３號","E_COORD97":165884.92999999999,"N_COORD97":2536442.6600000001,"ADDRESS":"灣裡路８８巷１９３號","OBJECTID":300416},"geometry":{"x":165884.93000000063,"y":2536442.6600000039}},{"attributes":{"ID":300425,"DIS_CODE":0,"TOWNNAME":"南區","LI":"永寧里","LIN":"8鄰","STREET":"灣裡路","SECT":" ","MAREA":" ","LANE":"８８巷","ALLEY":" ","HOUSE_NO":"１９９號","E_COORD97":165884.14999999999,"N_COORD97":2536439.3100000001,"ADDRESS":"灣裡路８８巷１９９號","OBJECTID":300417},"geometry":{"x":165884.1500000013,"y":2536439.3100000024}},{"attributes":{"ID":300426,"DIS_CODE":0,"TOWNNAME":"南區","LI":"永寧里","LIN":"8鄰","STREET":"灣裡路","SECT":" ","MAREA":" ","LANE":"８８巷","ALLEY":" ","HOUSE_NO":"２０１號","E_COORD97":165885.94,"N_COORD97":2536436.8700000001,"ADDRESS":"灣裡路８８巷２０１號","OBJECTID":300418},"geometry":{"x":165885.94000000041,"y":2536436.870000001}},{"attributes":{"ID":300427,"DIS_CODE":0,"TOWNNAME":"南區","LI":"永寧里","LIN":"8鄰","STREET":"灣裡路","SECT":" ","MAREA":" ","LANE":"８８巷","ALLEY":" ","HOUSE_NO":"２０３號","E_COORD97":165892,"N_COORD97":2536434.5099999998,"ADDRESS":"灣裡路８８巷２０３號","OBJECTID":300419},"geometry":{"x":165892,"y":2536434.5100000016}},{"attributes":{"ID":300428,"DIS_CODE":0,"TOWNNAME":"南區","LI":"永寧里","LIN":"8鄰","STREET":"灣裡路","SECT":" ","MAREA":" ","LANE":"８８巷","ALLEY":" ","HOUSE_NO":"２０５號","E_COORD97":165898.88,"N_COORD97":2536434.2799999998,"ADDRESS":"灣裡路８８巷２０５號","OBJECTID":300420},"geometry":{"x":165898.88000000082,"y":2536434.2800000012}},{"attributes":{"ID":300429,"DIS_CODE":0,"TOWNNAME":"南區","LI":"永寧里","LIN":"8鄰","STREET":"灣裡路","SECT":" ","MAREA":" ","LANE":"８８巷","ALLEY":" ","HOUSE_NO":"２０７號","E_COORD97":165903.38,"N_COORD97":2536442,"ADDRESS":"灣裡路８８巷２０７號","OBJECTID":300421},"geometry":{"x":165903.37999999896,"y":2536442}},{"attributes":{"ID":300430,"DIS_CODE":0,"TOWNNAME":"南區","LI":"永寧里","LIN":"8鄰","STREET":"灣裡路","SECT":" ","MAREA":" ","LANE":"８８巷","ALLEY":" ","HOUSE_NO":"２０９號","E_COORD97":165906.48999999999,"N_COORD97":2536432.9700000002,"ADDRESS":"灣裡路８８巷２０９號","OBJECTID":300422},"geometry":{"x":165906.49000000209,"y":2536432.9700000007}},{"attributes":{"ID":300431,"DIS_CODE":0,"TOWNNAME":"南區","LI":"永寧里","LIN":"8鄰","STREET":"灣裡路","SECT":" ","MAREA":" ","LANE":"８８巷","ALLEY":" ","HOUSE_NO":"２１１號","E_COORD97":165923.39999999999,"N_COORD97":2536432.0099999998,"ADDRESS":"灣裡路８８巷２１１號","OBJECTID":300423},"geometry":{"x":165923.40000000037,"y":2536432.0099999998}},{"attributes":{"ID":300432,"DIS_CODE":0,"TOWNNAME":"南區","LI":"永寧里","LIN":"8鄰","STREET":"灣裡路","SECT":" ","MAREA":" ","LANE":"８８巷","ALLEY":" ","HOUSE_NO":"２１３號","E_COORD97":165945.29999999999,"N_COORD97":2536436.0299999998,"ADDRESS":"灣裡路８８巷２１３號","OBJECTID":300424},"geometry":{"x":165945.30000000075,"y":2536436.0300000012}},{"attributes":{"ID":300433,"DIS_CODE":0,"TOWNNAME":"南區","LI":"永寧里","LIN":"8鄰","STREET":"灣裡路","SECT":" ","MAREA":" ","LANE":"８８巷","ALLEY":" ","HOUSE_NO":"２１３號之１","E_COORD97":165951.26000000001,"N_COORD97":2536433.9399999999,"ADDRESS":"灣裡路８８巷２１３號之１","OBJECTID":300425},"geometry":{"x":165951.25999999978,"y":2536433.9400000013}},{"attributes":{"ID":300434,"DIS_CODE":0,"TOWNNAME":"南區","LI":"鯤鯓里","LIN":"8鄰","STREET":"鯤鯓路","SECT":" ","MAREA":" ","LANE":"１０４巷","ALLEY":" ","HOUSE_NO":"４１號","E_COORD97":164956.29000000001,"N_COORD97":2540089.7400000002,"ADDRESS":"鯤鯓路１０４巷４１號","OBJECTID":300426},"geometry":{"x":164956.29000000004,"y":2540089.7400000002}},{"attributes":{"ID":300435,"DIS_CODE":0,"TOWNNAME":"南區","LI":"鯤鯓里","LIN":"8鄰","STREET":"鯤鯓路","SECT":" ","MAREA":" ","LANE":"１０４巷","ALLEY":" ","HOUSE_NO":"４３號","E_COORD97":164957.01000000001,"N_COORD97":2540083.9500000002,"ADDRESS":"鯤鯓路１０４巷４３號","OBJECTID":300427},"geometry":{"x":164957.01000000071,"y":2540083.9499999974}},{"attributes":{"ID":300436,"DIS_CODE":0,"TOWNNAME":"南區","LI":"鯤鯓里","LIN":"8鄰","STREET":"鯤鯓路","SECT":" ","MAREA":" ","LANE":"１３７巷","ALLEY":" ","HOUSE_NO":"１號","E_COORD97":164891.67000000001,"N_COORD97":2540081.6299999999,"ADDRESS":"鯤鯓路１３７巷１號","OBJECTID":300428},"geometry":{"x":164891.67000000086,"y":2540081.629999999}},{"attributes":{"ID":300437,"DIS_CODE":0,"TOWNNAME":"南區","LI":"鯤鯓里","LIN":"8鄰","STREET":"鯤鯓路","SECT":" ","MAREA":" ","LANE":"１３７巷","ALLEY":" ","HOUSE_NO":"３號","E_COORD97":164874.54999999999,"N_COORD97":2540083.5600000001,"ADDRESS":"鯤鯓路１３７巷３號","OBJECTID":300429},"geometry":{"x":164874.54999999981,"y":2540083.5600000005}},{"attributes":{"ID":300438,"DIS_CODE":0,"TOWNNAME":"南區","LI":"鯤鯓里","LIN":"8鄰","STREET":"鯤鯓路","SECT":" ","MAREA":" ","LANE":"１３７巷","ALLEY":" ","HOUSE_NO":"５號","E_COORD97":164838.32000000001,"N_COORD97":2540067.5099999998,"ADDRESS":"鯤鯓路１３７巷５號","OBJECTID":300430},"geometry":{"x":164838.32000000123,"y":2540067.5100000035}},{"attributes":{"ID":300439,"DIS_CODE":0,"TOWNNAME":"南區","LI":"喜南里","LIN":"8鄰","STREET":"喜樹路","SECT":" ","MAREA":" ","LANE":"２７０巷","ALLEY":" ","HOUSE_NO":"３６號","E_COORD97":165533.22,"N_COORD97":2537849.48,"ADDRESS":"喜樹路２７０巷３６號","OBJECTID":300431},"geometry":{"x":165533.2200000016,"y":2537849.4800000004}},{"attributes":{"ID":300440,"DIS_CODE":0,"TOWNNAME":"南區","LI":"喜南里","LIN":"8鄰","STREET":"喜樹路","SECT":" ","MAREA":" ","LANE":"２７０巷","ALLEY":" ","HOUSE_NO":"３８號","E_COORD97":165530.10000000001,"N_COORD97":2537857.9700000002,"ADDRESS":"喜樹路２７０巷３８號","OBJECTID":300432},"geometry":{"x":165530.09999999963,"y":2537857.9700000044}},{"attributes":{"ID":300441,"DIS_CODE":0,"TOWNNAME":"南區","LI":"喜南里","LIN":"8鄰","STREET":"喜樹路","SECT":" ","MAREA":" ","LANE":"２７０巷","ALLEY":" ","HOUSE_NO":"４０號","E_COORD97":165518.04000000001,"N_COORD97":2537858.3399999999,"ADDRESS":"喜樹路２７０巷４０號","OBJECTID":300433},"geometry":{"x":165518.04000000097,"y":2537858.3400000036}},{"attributes":{"ID":300442,"DIS_CODE":0,"TOWNNAME":"南區","LI":"喜南里","LIN":"8鄰","STREET":"喜樹路","SECT":" ","MAREA":" ","LANE":"２７０巷","ALLEY":" ","HOUSE_NO":"４２號","E_COORD97":165501.70999999999,"N_COORD97":2537852.4100000001,"ADDRESS":"喜樹路２７０巷４２號","OBJECTID":300434},"geometry":{"x":165501.71000000089,"y":2537852.410000002}},{"attributes":{"ID":300443,"DIS_CODE":0,"TOWNNAME":"南區","LI":"喜南里","LIN":"8鄰","STREET":"喜樹路","SECT":" ","MAREA":" ","LANE":"２７０巷","ALLEY":" ","HOUSE_NO":"４２號之１","E_COORD97":165503.57000000001,"N_COORD97":2537846.29,"ADDRESS":"喜樹路２７０巷４２號之１","OBJECTID":300435},"geometry":{"x":165503.5700000003,"y":2537846.2899999991}},{"attributes":{"ID":300444,"DIS_CODE":0,"TOWNNAME":"南區","LI":"喜南里","LIN":"8鄰","STREET":"喜樹路","SECT":" ","MAREA":" ","LANE":"２７０巷","ALLEY":" ","HOUSE_NO":"４６號","E_COORD97":165519.17000000001,"N_COORD97":2537845.71,"ADDRESS":"喜樹路２７０巷４６號","OBJECTID":300436},"geometry":{"x":165519.17000000086,"y":2537845.7100000009}},{"attributes":{"ID":300445,"DIS_CODE":0,"TOWNNAME":"南區","LI":"喜南里","LIN":"8鄰","STREET":"喜樹路","SECT":" ","MAREA":" ","LANE":"２７０巷","ALLEY":" ","HOUSE_NO":"４８號","E_COORD97":165512.32000000001,"N_COORD97":2537834.5299999998,"ADDRESS":"喜樹路２７０巷４８號","OBJECTID":300437},"geometry":{"x":165512.3200000003,"y":2537834.5299999993}},{"attributes":{"ID":300446,"DIS_CODE":0,"TOWNNAME":"南區","LI":"喜南里","LIN":"8鄰","STREET":"喜樹路","SECT":" ","MAREA":" ","LANE":"２７０巷","ALLEY":" ","HOUSE_NO":"５２號","E_COORD97":165526.37,"N_COORD97":2537835.4500000002,"ADDRESS":"喜樹路２７０巷５２號","OBJECTID":300438},"geometry":{"x":165526.37000000104,"y":2537835.4499999993}},{"attributes":{"ID":300447,"DIS_CODE":0,"TOWNNAME":"南區","LI":"喜南里","LIN":"8鄰","STREET":"喜樹路","SECT":" ","MAREA":" ","LANE":"２７０巷","ALLEY":" ","HOUSE_NO":"５４號","E_COORD97":165536.87,"N_COORD97":2537831.1099999999,"ADDRESS":"喜樹路２７０巷５４號","OBJECTID":300439},"geometry":{"x":165536.87000000011,"y":2537831.1099999994}},{"attributes":{"ID":300448,"DIS_CODE":0,"TOWNNAME":"南區","LI":"喜南里","LIN":"8鄰","STREET":"喜樹路","SECT":" ","MAREA":" ","LANE":"２７０巷","ALLEY":" ","HOUSE_NO":"５６號","E_COORD97":165515.63,"N_COORD97":2537827.75,"ADDRESS":"喜樹路２７０巷５６號","OBJECTID":300440},"geometry":{"x":165515.63000000082,"y":2537827.75}},{"attributes":{"ID":300449,"DIS_CODE":0,"TOWNNAME":"南區","LI":"喜南里","LIN":"8鄰","STREET":"喜樹路","SECT":" ","MAREA":" ","LANE":"２７０巷","ALLEY":" ","HOUSE_NO":"５８號","E_COORD97":165505.70000000001,"N_COORD97":2537819.48,"ADDRESS":"喜樹路２７０巷５８號","OBJECTID":300441},"geometry":{"x":165505.70000000112,"y":2537819.4800000004}},{"attributes":{"ID":300450,"DIS_CODE":0,"TOWNNAME":"南區","LI":"喜南里","LIN":"8鄰","STREET":"喜樹路","SECT":" ","MAREA":" ","LANE":"２８８巷","ALLEY":" ","HOUSE_NO":"６５號","E_COORD97":165543.79000000001,"N_COORD97":2537795.3799999999,"ADDRESS":"喜樹路２８８巷６５號","OBJECTID":300442},"geometry":{"x":165543.79000000097,"y":2537795.379999999}},{"attributes":{"ID":300451,"DIS_CODE":0,"TOWNNAME":"南區","LI":"喜南里","LIN":"8鄰","STREET":"喜樹路","SECT":" ","MAREA":" ","LANE":"２８８巷","ALLEY":" ","HOUSE_NO":"６７號","E_COORD97":165547.48000000001,"N_COORD97":2537790.1200000001,"ADDRESS":"喜樹路２８８巷６７號","OBJECTID":300443},"geometry":{"x":165547.48000000231,"y":2537790.1200000029}},{"attributes":{"ID":300452,"DIS_CODE":0,"TOWNNAME":"南區","LI":"喜南里","LIN":"8鄰","STREET":"喜樹路","SECT":" ","MAREA":" ","LANE":"２８８巷","ALLEY":" ","HOUSE_NO":"６７號之１","E_COORD97":165543.17999999999,"N_COORD97":2537777.98,"ADDRESS":"喜樹路２８８巷６７號之１","OBJECTID":300444},"geometry":{"x":165543.1799999997,"y":2537777.9800000023}},{"attributes":{"ID":300453,"DIS_CODE":0,"TOWNNAME":"南區","LI":"喜南里","LIN":"8鄰","STREET":"喜樹路","SECT":" ","MAREA":" ","LANE":"３４０巷","ALLEY":" ","HOUSE_NO":"１２６號","E_COORD97":165522.39000000001,"N_COORD97":2537775.6699999999,"ADDRESS":"喜樹路３４０巷１２６號","OBJECTID":300445},"geometry":{"x":165522.3900000006,"y":2537775.6700000018}},{"attributes":{"ID":300454,"DIS_CODE":0,"TOWNNAME":"南區","LI":"喜南里","LIN":"8鄰","STREET":"喜樹路","SECT":" ","MAREA":" ","LANE":"３４０巷","ALLEY":" ","HOUSE_NO":"１２６號之１","E_COORD97":165517.19,"N_COORD97":2537786.6400000001,"ADDRESS":"喜樹路３４０巷１２６號之１","OBJECTID":300446},"geometry":{"x":165517.19000000227,"y":2537786.6400000025}},{"attributes":{"ID":300455,"DIS_CODE":0,"TOWNNAME":"南區","LI":"喜南里","LIN":"8鄰","STREET":"喜樹路","SECT":" ","MAREA":" ","LANE":"３４０巷","ALLEY":" ","HOUSE_NO":"１２６號之２","E_COORD97":165515.26999999999,"N_COORD97":2537791.4500000002,"ADDRESS":"喜樹路３４０巷１２６號之２","OBJECTID":300447},"geometry":{"x":165515.26999999955,"y":2537791.4499999993}},{"attributes":{"ID":300456,"DIS_CODE":0,"TOWNNAME":"仁德區","LI":"保安里","LIN":"12鄰","STREET":"開發二路","SECT":" ","MAREA":" ","LANE":" ","ALLEY":" ","HOUSE_NO":"２２號","E_COORD97":172786.85856299999,"N_COORD97":2536076.5206800001,"ADDRESS":"開發二路２２號","OBJECTID":300448},"geometry":{"x":172786.85856300127,"y":2536076.5206850022}},{"attributes":{"ID":300457,"DIS_CODE":0,"TOWNNAME":"南區","LI":"喜南里","LIN":"8鄰","STREET":"喜樹路","SECT":" ","MAREA":" ","LANE":"３４０巷","ALLEY":" ","HOUSE_NO":"１２８號","E_COORD97":165516.04999999999,"N_COORD97":2537798.3999999999,"ADDRESS":"喜樹路３４０巷１２８號","OBJECTID":300449},"geometry":{"x":165516.05000000075,"y":2537798.4000000022}},{"attributes":{"ID":300458,"DIS_CODE":0,"TOWNNAME":"南區","LI":"喜南里","LIN":"8鄰","STREET":"喜樹路","SECT":" ","MAREA":" ","LANE":"３４０巷","ALLEY":" ","HOUSE_NO":"１４０號之１","E_COORD97":165499.85999999999,"N_COORD97":2537862.9700000002,"ADDRESS":"喜樹路３４０巷１４０號之１","OBJECTID":300450},"geometry":{"x":165499.86000000034,"y":2537862.9700000025}},{"attributes":{"ID":300459,"DIS_CODE":0,"TOWNNAME":"學甲區","LI":"新榮里","LIN":"8鄰","STREET":"濟生路","SECT":" ","MAREA":" ","LANE":"３巷","ALLEY":" ","HOUSE_NO":"１０號","E_COORD97":166855.54999999999,"N_COORD97":2570137.5299999998,"ADDRESS":"濟生路３巷１０號","OBJECTID":300451},"geometry":{"x":166855.55000000075,"y":2570137.5300000012}},{"attributes":{"ID":300460,"DIS_CODE":0,"TOWNNAME":"學甲區","LI":"新榮里","LIN":"8鄰","STREET":"濟生路","SECT":" ","MAREA":" ","LANE":"３巷","ALLEY":" ","HOUSE_NO":"１１號","E_COORD97":166871.67999999999,"N_COORD97":2570115.79,"ADDRESS":"濟生路３巷１１號","OBJECTID":300452},"geometry":{"x":166871.68000000063,"y":2570115.7899999991}},{"attributes":{"ID":300461,"DIS_CODE":0,"TOWNNAME":"學甲區","LI":"新榮里","LIN":"8鄰","STREET":"濟生路","SECT":" ","MAREA":" ","LANE":"３巷","ALLEY":" ","HOUSE_NO":"１２號","E_COORD97":166854.88,"N_COORD97":2570132.6000000001,"ADDRESS":"濟生路３巷１２號","OBJECTID":300453},"geometry":{"x":166854.88000000082,"y":2570132.6000000034}},{"attributes":{"ID":300462,"DIS_CODE":0,"TOWNNAME":"學甲區","LI":"新榮里","LIN":"8鄰","STREET":"濟生路","SECT":" ","MAREA":" ","LANE":"３巷","ALLEY":" ","HOUSE_NO":"１３號","E_COORD97":166871,"N_COORD97":2570111.3599999999,"ADDRESS":"濟生路３巷１３號","OBJECTID":300454},"geometry":{"x":166871.00000000093,"y":2570111.3600000013}},{"attributes":{"ID":300463,"DIS_CODE":0,"TOWNNAME":"學甲區","LI":"新榮里","LIN":"8鄰","STREET":"濟生路","SECT":" ","MAREA":" ","LANE":"３巷","ALLEY":" ","HOUSE_NO":"１４號","E_COORD97":166854.17000000001,"N_COORD97":2570128.0499999998,"ADDRESS":"濟生路３巷１４號","OBJECTID":300455},"geometry":{"x":166854.17000000179,"y":2570128.0500000026}},{"attributes":{"ID":300464,"DIS_CODE":0,"TOWNNAME":"學甲區","LI":"新榮里","LIN":"8鄰","STREET":"濟生路","SECT":" ","MAREA":" ","LANE":"３巷","ALLEY":" ","HOUSE_NO":"１５號","E_COORD97":166870.10000000001,"N_COORD97":2570107.0600000001,"ADDRESS":"濟生路３巷１５號","OBJECTID":300456},"geometry":{"x":166870.10000000056,"y":2570107.0600000024}},{"attributes":{"ID":300465,"DIS_CODE":0,"TOWNNAME":"學甲區","LI":"新榮里","LIN":"8鄰","STREET":"濟生路","SECT":" ","MAREA":" ","LANE":"３巷","ALLEY":" ","HOUSE_NO":"１６號","E_COORD97":166853.95000000001,"N_COORD97":2570123.1299999999,"ADDRESS":"濟生路３巷１６號","OBJECTID":300457},"geometry":{"x":166853.95000000019,"y":2570123.129999999}},{"attributes":{"ID":300466,"DIS_CODE":0,"TOWNNAME":"學甲區","LI":"新榮里","LIN":"8鄰","STREET":"濟生路","SECT":" ","MAREA":" ","LANE":"３巷","ALLEY":" ","HOUSE_NO":"１７號","E_COORD97":166869.37,"N_COORD97":2570103.0600000001,"ADDRESS":"濟生路３巷１７號","OBJECTID":300458},"geometry":{"x":166869.37000000011,"y":2570103.0600000042}},{"attributes":{"ID":300467,"DIS_CODE":0,"TOWNNAME":"學甲區","LI":"新榮里","LIN":"8鄰","STREET":"濟生路","SECT":" ","MAREA":" ","LANE":"３巷","ALLEY":" ","HOUSE_NO":"１８號","E_COORD97":166853.31,"N_COORD97":2570119.1499999999,"ADDRESS":"濟生路３巷１８號","OBJECTID":300459},"geometry":{"x":166853.31000000052,"y":2570119.1499999985}},{"attributes":{"ID":300468,"DIS_CODE":0,"TOWNNAME":"學甲區","LI":"新榮里","LIN":"8鄰","STREET":"濟生路","SECT":" ","MAREA":" ","LANE":"３巷","ALLEY":" ","HOUSE_NO":"１９號","E_COORD97":166868.60999999999,"N_COORD97":2570098.1800000002,"ADDRESS":"濟生路３巷１９號","OBJECTID":300460},"geometry":{"x":166868.6100000022,"y":2570098.1800000034}},{"attributes":{"ID":300469,"DIS_CODE":0,"TOWNNAME":"學甲區","LI":"新榮里","LIN":"8鄰","STREET":"濟生路","SECT":" ","MAREA":" ","LANE":"３巷","ALLEY":" ","HOUSE_NO":"２０號","E_COORD97":166852.79000000001,"N_COORD97":2570114.4100000001,"ADDRESS":"濟生路３巷２０號","OBJECTID":300461},"geometry":{"x":166852.79000000004,"y":2570114.410000002}},{"attributes":{"ID":300470,"DIS_CODE":0,"TOWNNAME":"學甲區","LI":"新榮里","LIN":"8鄰","STREET":"濟生路","SECT":" ","MAREA":" ","LANE":"３巷","ALLEY":" ","HOUSE_NO":"２２號","E_COORD97":166852.01000000001,"N_COORD97":2570110.0800000001,"ADDRESS":"濟生路３巷２２號","OBJECTID":300462},"geometry":{"x":166852.01000000071,"y":2570110.0800000019}},{"attributes":{"ID":300471,"DIS_CODE":0,"TOWNNAME":"學甲區","LI":"新榮里","LIN":"8鄰","STREET":"濟生路","SECT":" ","MAREA":" ","LANE":"３巷","ALLEY":" ","HOUSE_NO":"２４號","E_COORD97":166851.14000000001,"N_COORD97":2570105.6299999999,"ADDRESS":"濟生路３巷２４號","OBJECTID":300463},"geometry":{"x":166851.1400000006,"y":2570105.6300000008}},{"attributes":{"ID":300472,"DIS_CODE":0,"TOWNNAME":"學甲區","LI":"新榮里","LIN":"8鄰","STREET":"濟生路","SECT":" ","MAREA":" ","LANE":"３巷","ALLEY":" ","HOUSE_NO":"２６號","E_COORD97":166850.10999999999,"N_COORD97":2570101.2799999998,"ADDRESS":"濟生路３巷２６號","OBJECTID":300464},"geometry":{"x":166850.1100000022,"y":2570101.2800000012}},{"attributes":{"ID":300473,"DIS_CODE":0,"TOWNNAME":"學甲區","LI":"新榮里","LIN":"8鄰","STREET":"濟生路","SECT":" ","MAREA":" ","LANE":"３巷","ALLEY":" ","HOUSE_NO":"２號","E_COORD97":166859,"N_COORD97":2570154.79,"ADDRESS":"濟生路３巷２號","OBJECTID":300465},"geometry":{"x":166859.00000000093,"y":2570154.790000001}},{"attributes":{"ID":300474,"DIS_CODE":0,"TOWNNAME":"學甲區","LI":"新榮里","LIN":"8鄰","STREET":"濟生路","SECT":" ","MAREA":" ","LANE":"３巷","ALLEY":" ","HOUSE_NO":"３號","E_COORD97":166873.81,"N_COORD97":2570134.0899999999,"ADDRESS":"濟生路３巷３號","OBJECTID":300466},"geometry":{"x":166873.81000000052,"y":2570134.0900000017}},{"attributes":{"ID":300475,"DIS_CODE":0,"TOWNNAME":"學甲區","LI":"新榮里","LIN":"8鄰","STREET":"濟生路","SECT":" ","MAREA":" ","LANE":"３巷","ALLEY":" ","HOUSE_NO":"４號","E_COORD97":166857.14000000001,"N_COORD97":2570150.1600000001,"ADDRESS":"濟生路３巷４號","OBJECTID":300467},"geometry":{"x":166857.13999999966,"y":2570150.160000002}},{"attributes":{"ID":300476,"DIS_CODE":0,"TOWNNAME":"學甲區","LI":"新榮里","LIN":"8鄰","STREET":"濟生路","SECT":" ","MAREA":" ","LANE":"３巷","ALLEY":" ","HOUSE_NO":"５號","E_COORD97":166873.19,"N_COORD97":2570129.9199999999,"ADDRESS":"濟生路３巷５號","OBJECTID":300468},"geometry":{"x":166873.19000000227,"y":2570129.9199999999}},{"attributes":{"ID":300477,"DIS_CODE":0,"TOWNNAME":"學甲區","LI":"新榮里","LIN":"8鄰","STREET":"濟生路","SECT":" ","MAREA":" ","LANE":"３巷","ALLEY":" ","HOUSE_NO":"６號","E_COORD97":166857.19,"N_COORD97":2570145.7799999998,"ADDRESS":"濟生路３巷６號","OBJECTID":300469},"geometry":{"x":166857.19000000041,"y":2570145.7800000012}},{"attributes":{"ID":300478,"DIS_CODE":0,"TOWNNAME":"學甲區","LI":"新榮里","LIN":"8鄰","STREET":"濟生路","SECT":" ","MAREA":" ","LANE":"３巷","ALLEY":" ","HOUSE_NO":"７號","E_COORD97":166872.39000000001,"N_COORD97":2570125.2799999998,"ADDRESS":"濟生路３巷７號","OBJECTID":300470},"geometry":{"x":166872.38999999966,"y":2570125.2800000012}},{"attributes":{"ID":300479,"DIS_CODE":0,"TOWNNAME":"學甲區","LI":"新榮里","LIN":"8鄰","STREET":"濟生路","SECT":" ","MAREA":" ","LANE":"３巷","ALLEY":" ","HOUSE_NO":"８號","E_COORD97":166856.57000000001,"N_COORD97":2570141.5,"ADDRESS":"濟生路３巷８號","OBJECTID":300471},"geometry":{"x":166856.5700000003,"y":2570141.5000000019}},{"attributes":{"ID":300480,"DIS_CODE":0,"TOWNNAME":"學甲區","LI":"新榮里","LIN":"8鄰","STREET":"濟生路","SECT":" ","MAREA":" ","LANE":"３巷","ALLEY":" ","HOUSE_NO":"９號","E_COORD97":166872.10000000001,"N_COORD97":2570120.3399999999,"ADDRESS":"濟生路３巷９號","OBJECTID":300472},"geometry":{"x":166872.10000000056,"y":2570120.3399999999}},{"attributes":{"ID":300481,"DIS_CODE":0,"TOWNNAME":"六甲區","LI":"七甲里","LIN":"8鄰","STREET":"七甲街","SECT":" ","MAREA":" ","LANE":"１０８巷","ALLEY":" ","HOUSE_NO":"１０號","E_COORD97":183084.95999999999,"N_COORD97":2569067.0299999998,"ADDRESS":"七甲街１０８巷１０號","OBJECTID":300473},"geometry":{"x":183084.95999999996,"y":2569067.0299999993}},{"attributes":{"ID":300482,"DIS_CODE":0,"TOWNNAME":"六甲區","LI":"七甲里","LIN":"8鄰","STREET":"七甲街","SECT":" ","MAREA":" ","LANE":"１０８巷","ALLEY":" ","HOUSE_NO":"１８號","E_COORD97":183082.17000000001,"N_COORD97":2569093.7999999998,"ADDRESS":"七甲街１０８巷１８號","OBJECTID":300474},"geometry":{"x":183082.16999999899,"y":2569093.8000000007}},{"attributes":{"ID":300483,"DIS_CODE":0,"TOWNNAME":"六甲區","LI":"七甲里","LIN":"8鄰","STREET":"七甲街","SECT":" ","MAREA":" ","LANE":"１０８巷","ALLEY":" ","HOUSE_NO":"２２號","E_COORD97":183086.42999999999,"N_COORD97":2569115.4300000002,"ADDRESS":"七甲街１０８巷２２號","OBJECTID":300475},"geometry":{"x":183086.4299999997,"y":2569115.4299999997}},{"attributes":{"ID":300484,"DIS_CODE":0,"TOWNNAME":"六甲區","LI":"七甲里","LIN":"8鄰","STREET":"七甲街","SECT":" ","MAREA":" ","LANE":"１０８巷","ALLEY":" ","HOUSE_NO":"２號","E_COORD97":183070.23000000001,"N_COORD97":2569048.2400000002,"ADDRESS":"七甲街１０８巷２號","OBJECTID":300476},"geometry":{"x":183070.23000000045,"y":2569048.2400000021}},{"attributes":{"ID":300485,"DIS_CODE":0,"TOWNNAME":"六甲區","LI":"七甲里","LIN":"8鄰","STREET":"七甲街","SECT":" ","MAREA":" ","LANE":"１０８巷","ALLEY":" ","HOUSE_NO":"４號","E_COORD97":183072.53,"N_COORD97":2569055.48,"ADDRESS":"七甲街１０８巷４號","OBJECTID":300477},"geometry":{"x":183072.53000000119,"y":2569055.4800000004}},{"attributes":{"ID":300486,"DIS_CODE":0,"TOWNNAME":"六甲區","LI":"七甲里","LIN":"8鄰","STREET":"七甲街","SECT":" ","MAREA":" ","LANE":"１０８巷","ALLEY":" ","HOUSE_NO":"６號","E_COORD97":183073.88,"N_COORD97":2569063.98,"ADDRESS":"七甲街１０８巷６號","OBJECTID":300478},"geometry":{"x":183073.87999999989,"y":2569063.9800000023}},{"attributes":{"ID":300487,"DIS_CODE":0,"TOWNNAME":"南區","LI":"新昌里","LIN":"8鄰","STREET":"西門路","SECT":"一段","MAREA":" ","LANE":"５４５巷","ALLEY":" ","HOUSE_NO":"１２號","E_COORD97":167668.60000000001,"N_COORD97":2542702.3700000001,"ADDRESS":"西門路一段５４５巷１２號","OBJECTID":300479},"geometry":{"x":167668.60000000056,"y":2542702.370000001}},{"attributes":{"ID":300488,"DIS_CODE":0,"TOWNNAME":"南區","LI":"府南里","LIN":"8鄰","STREET":"金華路","SECT":"一段","MAREA":" ","LANE":"４８４巷","ALLEY":" ","HOUSE_NO":"１１９號","E_COORD97":167266.85999999999,"N_COORD97":2541337.3500000001,"ADDRESS":"金華路一段４８４巷１１９號","OBJECTID":300480},"geometry":{"x":167266.8599999994,"y":2541337.3500000015}},{"attributes":{"ID":300489,"DIS_CODE":0,"TOWNNAME":"南區","LI":"明興里","LIN":"8鄰","STREET":"金華路","SECT":"一段","MAREA":" ","LANE":"１４０巷","ALLEY":" ","HOUSE_NO":"３４號","E_COORD97":167002.97,"N_COORD97":2540595.02,"ADDRESS":"金華路一段１４０巷３４號","OBJECTID":300481},"geometry":{"x":167002.9700000016,"y":2540595.0199999996}},{"attributes":{"ID":300490,"DIS_CODE":0,"TOWNNAME":"北區","LI":"仁愛里","LIN":"8鄰","STREET":"東豐路","SECT":" ","MAREA":" ","LANE":"２２７巷","ALLEY":" ","HOUSE_NO":"３號","E_COORD97":170092.26999999999,"N_COORD97":2544891.3799999999,"ADDRESS":"東豐路２２７巷３號","OBJECTID":300482},"geometry":{"x":170092.26999999955,"y":2544891.379999999}},{"attributes":{"ID":300491,"DIS_CODE":0,"TOWNNAME":"北區","LI":"仁愛里","LIN":"8鄰","STREET":"東豐路","SECT":" ","MAREA":" ","LANE":"２２７巷","ALLEY":" ","HOUSE_NO":"５號","E_COORD97":170090.16,"N_COORD97":2544895.8900000001,"ADDRESS":"東豐路２２７巷５號","OBJECTID":300483},"geometry":{"x":170090.16000000015,"y":2544895.8900000006}},{"attributes":{"ID":300492,"DIS_CODE":0,"TOWNNAME":"北區","LI":"仁愛里","LIN":"8鄰","STREET":"東豐路","SECT":" ","MAREA":" ","LANE":"２２７巷","ALLEY":" ","HOUSE_NO":"７號","E_COORD97":170089.85999999999,"N_COORD97":2544899.7999999998,"ADDRESS":"東豐路２２７巷７號","OBJECTID":300484},"geometry":{"x":170089.86000000127,"y":2544899.8000000007}},{"attributes":{"ID":300493,"DIS_CODE":0,"TOWNNAME":"北區","LI":"仁愛里","LIN":"8鄰","STREET":"東豐路","SECT":" ","MAREA":" ","LANE":"１９１巷","ALLEY":" ","HOUSE_NO":"１０號","E_COORD97":170020.67000000001,"N_COORD97":2544914.1099999999,"ADDRESS":"東豐路１９１巷１０號","OBJECTID":300485},"geometry":{"x":170020.66999999993,"y":2544914.1099999994}},{"attributes":{"ID":300494,"DIS_CODE":0,"TOWNNAME":"北區","LI":"仁愛里","LIN":"8鄰","STREET":"東豐路","SECT":" ","MAREA":" ","LANE":"１９１巷","ALLEY":" ","HOUSE_NO":"１６號","E_COORD97":170022.35999999999,"N_COORD97":2544924.2799999998,"ADDRESS":"東豐路１９１巷１６號","OBJECTID":300486},"geometry":{"x":170022.36000000127,"y":2544924.2800000012}},{"attributes":{"ID":300495,"DIS_CODE":0,"TOWNNAME":"北區","LI":"仁愛里","LIN":"8鄰","STREET":"東豐路","SECT":" ","MAREA":" ","LANE":"１９１巷","ALLEY":" ","HOUSE_NO":"１８號","E_COORD97":170021.79999999999,"N_COORD97":2544927.1000000001,"ADDRESS":"東豐路１９１巷１８號","OBJECTID":300487},"geometry":{"x":170021.80000000075,"y":2544927.0999999996}},{"attributes":{"ID":300496,"DIS_CODE":0,"TOWNNAME":"北區","LI":"長榮里","LIN":"4鄰","STREET":"長榮路","SECT":"五段","MAREA":" ","LANE":"４１巷","ALLEY":" ","HOUSE_NO":"３０號","E_COORD97":169939.20000000001,"N_COORD97":2545612.6699999999,"ADDRESS":"長榮路五段４１巷３０號","OBJECTID":300488},"geometry":{"x":169939.20000000019,"y":2545612.6699999999}},{"attributes":{"ID":300497,"DIS_CODE":0,"TOWNNAME":"北區","LI":"文成里","LIN":"8鄰","STREET":"文賢路","SECT":" ","MAREA":" ","LANE":"５２０巷","ALLEY":" ","HOUSE_NO":"１０號","E_COORD97":167393.79000000001,"N_COORD97":2545290.04,"ADDRESS":"文賢路５２０巷１０號","OBJECTID":300489},"geometry":{"x":167393.79000000004,"y":2545290.0399999991}},{"attributes":{"ID":300498,"DIS_CODE":0,"TOWNNAME":"北區","LI":"文成里","LIN":"8鄰","STREET":"文賢路","SECT":" ","MAREA":" ","LANE":"５２０巷","ALLEY":" ","HOUSE_NO":"１１號","E_COORD97":167403.59,"N_COORD97":2545301.1200000001,"ADDRESS":"文賢路５２０巷１１號","OBJECTID":300490},"geometry":{"x":167403.58999999985,"y":2545301.120000001}},{"attributes":{"ID":300499,"DIS_CODE":0,"TOWNNAME":"北區","LI":"文成里","LIN":"8鄰","STREET":"文賢路","SECT":" ","MAREA":" ","LANE":"５２０巷","ALLEY":" ","HOUSE_NO":"１２號","E_COORD97":167397.42000000001,"N_COORD97":2545288.6299999999,"ADDRESS":"文賢路５２０巷１２號","OBJECTID":300491},"geometry":{"x":167397.42000000086,"y":2545288.629999999}},{"attributes":{"ID":300500,"DIS_CODE":0,"TOWNNAME":"北區","LI":"文成里","LIN":"8鄰","STREET":"文賢路","SECT":" ","MAREA":" ","LANE":"５２０巷","ALLEY":" ","HOUSE_NO":"１３號","E_COORD97":167407.78,"N_COORD97":2545301.3100000001,"ADDRESS":"文賢路５２０巷１３號","OBJECTID":300492},"geometry":{"x":167407.78000000026,"y":2545301.3100000024}},{"attributes":{"ID":300501,"DIS_CODE":0,"TOWNNAME":"善化區","LI":"小新里","LIN":"20鄰","STREET":" ","SECT":" ","MAREA":"小新營","LANE":" ","ALLEY":" ","HOUSE_NO":"３６２之２號","E_COORD97":180205.45000000001,"N_COORD97":2557327.4700000002,"ADDRESS":"小新營３６２之２號","OBJECTID":300493},"geometry":{"x":180205.45000000019,"y":2557327.4700000007}},{"attributes":{"ID":300502,"DIS_CODE":0,"TOWNNAME":"善化區","LI":"牛庄里","LIN":"8鄰","STREET":" ","SECT":" ","MAREA":"牛庄","LANE":" ","ALLEY":" ","HOUSE_NO":"９７之１６號","E_COORD97":180143.97,"N_COORD97":2560185.6499999999,"ADDRESS":"牛庄９７之１６號","OBJECTID":300494},"geometry":{"x":180143.9700000016,"y":2560185.6500000041}},{"attributes":{"ID":300503,"DIS_CODE":0,"TOWNNAME":"善化區","LI":"田寮里","LIN":"15鄰","STREET":" ","SECT":" ","MAREA":"六分寮","LANE":" ","ALLEY":" ","HOUSE_NO":"１６７號之５","E_COORD97":178797.37,"N_COORD97":2561360.3399999999,"ADDRESS":"六分寮１６７號之５","OBJECTID":300495},"geometry":{"x":178797.37000000197,"y":2561360.3400000036}},{"attributes":{"ID":300504,"DIS_CODE":0,"TOWNNAME":"善化區","LI":"胡家里","LIN":"4鄰","STREET":" ","SECT":" ","MAREA":"胡厝寮","LANE":" ","ALLEY":" ","HOUSE_NO":"３０２號之１０","E_COORD97":175505.41,"N_COORD97":2560339.1200000001,"ADDRESS":"胡厝寮３０２號之１０","OBJECTID":300496},"geometry":{"x":175505.41000000108,"y":2560339.1200000048}},{"attributes":{"ID":300505,"DIS_CODE":0,"TOWNNAME":"北區","LI":"文成里","LIN":"8鄰","STREET":"文賢路","SECT":" ","MAREA":" ","LANE":"５２０巷","ALLEY":" ","HOUSE_NO":"１４號","E_COORD97":167403.26000000001,"N_COORD97":2545289.8399999999,"ADDRESS":"文賢路５２０巷１４號","OBJECTID":300497},"geometry":{"x":167403.26000000071,"y":2545289.8400000036}},{"attributes":{"ID":300506,"DIS_CODE":0,"TOWNNAME":"北區","LI":"文成里","LIN":"8鄰","STREET":"文賢路","SECT":" ","MAREA":" ","LANE":"５２０巷","ALLEY":" ","HOUSE_NO":"１５號","E_COORD97":167412.17000000001,"N_COORD97":2545301.1200000001,"ADDRESS":"文賢路５２０巷１５號","OBJECTID":300498},"geometry":{"x":167412.17000000086,"y":2545301.120000001}},{"attributes":{"ID":300507,"DIS_CODE":0,"TOWNNAME":"北區","LI":"文成里","LIN":"8鄰","STREET":"文賢路","SECT":" ","MAREA":" ","LANE":"５２０巷","ALLEY":" ","HOUSE_NO":"１６號","E_COORD97":167407.07999999999,"N_COORD97":2545289.23,"ADDRESS":"文賢路５２０巷１６號","OBJECTID":300499},"geometry":{"x":167407.08000000007,"y":2545289.2300000023}},{"attributes":{"ID":300508,"DIS_CODE":0,"TOWNNAME":"北區","LI":"文成里","LIN":"8鄰","STREET":"文賢路","SECT":" ","MAREA":" ","LANE":"５２０巷","ALLEY":" ","HOUSE_NO":"１７號","E_COORD97":167416.94,"N_COORD97":2545300.9300000002,"ADDRESS":"文賢路５２０巷１７號","OBJECTID":300500},"geometry":{"x":167416.94000000041,"y":2545300.9299999997}},{"attributes":{"ID":300509,"DIS_CODE":0,"TOWNNAME":"北區","LI":"文成里","LIN":"8鄰","STREET":"文賢路","SECT":" ","MAREA":" ","LANE":"５２０巷","ALLEY":" ","HOUSE_NO":"１８號","E_COORD97":167412.51999999999,"N_COORD97":2545288.6299999999,"ADDRESS":"文賢路５２０巷１８號","OBJECTID":300501},"geometry":{"x":167412.52000000142,"y":2545288.629999999}},{"attributes":{"ID":300510,"DIS_CODE":0,"TOWNNAME":"北區","LI":"文成里","LIN":"8鄰","STREET":"文賢路","SECT":" ","MAREA":" ","LANE":"５２０巷","ALLEY":" ","HOUSE_NO":"１９號","E_COORD97":167421.89999999999,"N_COORD97":2545300.5499999998,"ADDRESS":"文賢路５２０巷１９號","OBJECTID":300502},"geometry":{"x":167421.90000000037,"y":2545300.5500000026}},{"attributes":{"ID":300511,"DIS_CODE":0,"TOWNNAME":"北區","LI":"文成里","LIN":"8鄰","STREET":"文賢路","SECT":" ","MAREA":" ","LANE":"５２０巷","ALLEY":" ","HOUSE_NO":"１號","E_COORD97":167380.51000000001,"N_COORD97":2545302.6400000001,"ADDRESS":"文賢路５２０巷１號","OBJECTID":300503},"geometry":{"x":167380.50999999978,"y":2545302.6400000025}},{"attributes":{"ID":300512,"DIS_CODE":0,"TOWNNAME":"北區","LI":"文成里","LIN":"8鄰","STREET":"文賢路","SECT":" ","MAREA":" ","LANE":"５２０巷","ALLEY":" ","HOUSE_NO":"２０號","E_COORD97":167416.75,"N_COORD97":2545287.4199999999,"ADDRESS":"文賢路５２０巷２０號","OBJECTID":300504},"geometry":{"x":167416.75000000093,"y":2545287.4200000018}},{"attributes":{"ID":300513,"DIS_CODE":0,"TOWNNAME":"北區","LI":"文成里","LIN":"8鄰","STREET":"文賢路","SECT":" ","MAREA":" ","LANE":"５２０巷","ALLEY":" ","HOUSE_NO":"２１號","E_COORD97":167426.28,"N_COORD97":2545300.1699999999,"ADDRESS":"文賢路５２０巷２１號","OBJECTID":300505},"geometry":{"x":167426.28000000026,"y":2545300.1699999999}},{"attributes":{"ID":300514,"DIS_CODE":0,"TOWNNAME":"北區","LI":"文成里","LIN":"8鄰","STREET":"文賢路","SECT":" ","MAREA":" ","LANE":"５２０巷","ALLEY":" ","HOUSE_NO":"２２號","E_COORD97":167424.79999999999,"N_COORD97":2545287.2200000002,"ADDRESS":"文賢路５２０巷２２號","OBJECTID":300506},"geometry":{"x":167424.80000000075,"y":2545287.2200000007}},{"attributes":{"ID":300515,"DIS_CODE":0,"TOWNNAME":"北區","LI":"文成里","LIN":"8鄰","STREET":"文賢路","SECT":" ","MAREA":" ","LANE":"５２０巷","ALLEY":" ","HOUSE_NO":"２３號","E_COORD97":167431.23999999999,"N_COORD97":2545299.79,"ADDRESS":"文賢路５２０巷２３號","OBJECTID":300507},"geometry":{"x":167431.24000000115,"y":2545299.790000001}},{"attributes":{"ID":300516,"DIS_CODE":0,"TOWNNAME":"北區","LI":"文成里","LIN":"8鄰","STREET":"文賢路","SECT":" ","MAREA":" ","LANE":"５２０巷","ALLEY":" ","HOUSE_NO":"２４號","E_COORD97":167429.64000000001,"N_COORD97":2545286.6200000001,"ADDRESS":"文賢路５２０巷２４號","OBJECTID":300508},"geometry":{"x":167429.6400000006,"y":2545286.6200000029}},{"attributes":{"ID":300517,"DIS_CODE":0,"TOWNNAME":"善化區","LI":"胡家里","LIN":"4鄰","STREET":" ","SECT":" ","MAREA":"胡厝寮","LANE":" ","ALLEY":" ","HOUSE_NO":"３０２號之１１","E_COORD97":175499.82999999999,"N_COORD97":2560338.7999999998,"ADDRESS":"胡厝寮３０２號之１１","OBJECTID":300509},"geometry":{"x":175499.83000000007,"y":2560338.8000000026}},{"attributes":{"ID":300518,"DIS_CODE":0,"TOWNNAME":"善化區","LI":"胡家里","LIN":"4鄰","STREET":" ","SECT":" ","MAREA":"胡厝寮","LANE":" ","ALLEY":" ","HOUSE_NO":"３０２號之１２","E_COORD97":175494.25,"N_COORD97":2560338.3100000001,"ADDRESS":"胡厝寮３０２號之１２","OBJECTID":300510},"geometry":{"x":175494.25000000186,"y":2560338.3100000024}},{"attributes":{"ID":300519,"DIS_CODE":0,"TOWNNAME":"善化區","LI":"胡家里","LIN":"4鄰","STREET":" ","SECT":" ","MAREA":"胡厝寮","LANE":" ","ALLEY":" ","HOUSE_NO":"３０２號之１３","E_COORD97":175488.64000000001,"N_COORD97":2560338,"ADDRESS":"胡厝寮３０２號之１３","OBJECTID":300511},"geometry":{"x":175488.63999999966,"y":2560338}},{"attributes":{"ID":300520,"DIS_CODE":0,"TOWNNAME":"北區","LI":"文成里","LIN":"8鄰","STREET":"文賢路","SECT":" ","MAREA":" ","LANE":"５２０巷","ALLEY":" ","HOUSE_NO":"２５號","E_COORD97":167435.44,"N_COORD97":2545300.1699999999,"ADDRESS":"文賢路５２０巷２５號","OBJECTID":300512},"geometry":{"x":167435.44000000041,"y":2545300.1699999999}},{"attributes":{"ID":300521,"DIS_CODE":0,"TOWNNAME":"新營區","LI":"王公里","LIN":"1鄰","STREET":"中正路","SECT":" ","MAREA":" ","LANE":" ","ALLEY":" ","HOUSE_NO":"４２之１號","E_COORD97":180116.044742,"N_COORD97":2578915.82106,"ADDRESS":"中正路４２之１號","OBJECTID":300513},"geometry":{"x":180116.04474200029,"y":2578915.8210620005}},{"attributes":{"ID":300522,"DIS_CODE":0,"TOWNNAME":"北區","LI":"文成里","LIN":"8鄰","STREET":"文賢路","SECT":" ","MAREA":" ","LANE":"５２０巷","ALLEY":" ","HOUSE_NO":"２６號","E_COORD97":167433.45999999999,"N_COORD97":2545286.8199999998,"ADDRESS":"文賢路５２０巷２６號","OBJECTID":300514},"geometry":{"x":167433.45999999996,"y":2545286.8199999984}},{"attributes":{"ID":300523,"DIS_CODE":0,"TOWNNAME":"北區","LI":"文成里","LIN":"8鄰","STREET":"文賢路","SECT":" ","MAREA":" ","LANE":"５２０巷","ALLEY":" ","HOUSE_NO":"２７號","E_COORD97":167439.63,"N_COORD97":2545299.98,"ADDRESS":"文賢路５２０巷２７號","OBJECTID":300515},"geometry":{"x":167439.63000000082,"y":2545299.9800000023}},{"attributes":{"ID":300524,"DIS_CODE":0,"TOWNNAME":"北區","LI":"文成里","LIN":"8鄰","STREET":"文賢路","SECT":" ","MAREA":" ","LANE":"５２０巷","ALLEY":" ","HOUSE_NO":"２８號","E_COORD97":167438.29000000001,"N_COORD97":2545286.4199999999,"ADDRESS":"文賢路５２０巷２８號","OBJECTID":300516},"geometry":{"x":167438.28999999911,"y":2545286.4200000018}},{"attributes":{"ID":300525,"DIS_CODE":0,"TOWNNAME":"北區","LI":"文成里","LIN":"8鄰","STREET":"文賢路","SECT":" ","MAREA":" ","LANE":"５２０巷","ALLEY":" ","HOUSE_NO":"２９號","E_COORD97":167443.82999999999,"N_COORD97":2545299.98,"ADDRESS":"文賢路５２０巷２９號","OBJECTID":300517},"geometry":{"x":167443.83000000101,"y":2545299.9800000023}},{"attributes":{"ID":300526,"DIS_CODE":0,"TOWNNAME":"北區","LI":"文成里","LIN":"8鄰","STREET":"文賢路","SECT":" ","MAREA":" ","LANE":"５２０巷","ALLEY":" ","HOUSE_NO":"３０號","E_COORD97":167442.73000000001,"N_COORD97":2545286.4199999999,"ADDRESS":"文賢路５２０巷３０號","OBJECTID":300518},"geometry":{"x":167442.73000000231,"y":2545286.4200000018}},{"attributes":{"ID":300527,"DIS_CODE":0,"TOWNNAME":"北區","LI":"文成里","LIN":"8鄰","STREET":"文賢路","SECT":" ","MAREA":" ","LANE":"５２０巷","ALLEY":" ","HOUSE_NO":"３１號","E_COORD97":167449.17000000001,"N_COORD97":2545299.79,"ADDRESS":"文賢路５２０巷３１號","OBJECTID":300519},"geometry":{"x":167449.17000000179,"y":2545299.790000001}},{"attributes":{"ID":300528,"DIS_CODE":0,"TOWNNAME":"北區","LI":"文成里","LIN":"8鄰","STREET":"文賢路","SECT":" ","MAREA":" ","LANE":"５２０巷","ALLEY":" ","HOUSE_NO":"３２號","E_COORD97":167447.76000000001,"N_COORD97":2545286.4199999999,"ADDRESS":"文賢路５２０巷３２號","OBJECTID":300520},"geometry":{"x":167447.75999999978,"y":2545286.4200000018}},{"attributes":{"ID":300529,"DIS_CODE":0,"TOWNNAME":"北區","LI":"文成里","LIN":"8鄰","STREET":"文賢路","SECT":" ","MAREA":" ","LANE":"５２０巷","ALLEY":" ","HOUSE_NO":"３２號之３","E_COORD97":167445.95000000001,"N_COORD97":2545269.3300000001,"ADDRESS":"文賢路５２０巷３２號之３","OBJECTID":300521},"geometry":{"x":167445.95000000205,"y":2545269.3300000001}},{"attributes":{"ID":300530,"DIS_CODE":0,"TOWNNAME":"善化區","LI":"胡家里","LIN":"4鄰","STREET":" ","SECT":" ","MAREA":"胡厝寮","LANE":" ","ALLEY":" ","HOUSE_NO":"３０２號之１８","E_COORD97":175498.12,"N_COORD97":2560363.96,"ADDRESS":"胡厝寮３０２號之１８","OBJECTID":300522},"geometry":{"x":175498.12000000011,"y":2560363.9600000046}},{"attributes":{"ID":300531,"DIS_CODE":0,"TOWNNAME":"善化區","LI":"胡家里","LIN":"4鄰","STREET":" ","SECT":" ","MAREA":"胡厝寮","LANE":" ","ALLEY":" ","HOUSE_NO":"３０２號之１９","E_COORD97":175492.98999999999,"N_COORD97":2560363.9700000002,"ADDRESS":"胡厝寮３０２號之１９","OBJECTID":300523},"geometry":{"x":175492.99000000115,"y":2560363.9700000025}},{"attributes":{"ID":300532,"DIS_CODE":0,"TOWNNAME":"善化區","LI":"胡家里","LIN":"4鄰","STREET":" ","SECT":" ","MAREA":"胡厝寮","LANE":" ","ALLEY":" ","HOUSE_NO":"３０２號之２０","E_COORD97":175487.60999999999,"N_COORD97":2560363.8399999999,"ADDRESS":"胡厝寮３０２號之２０","OBJECTID":300524},"geometry":{"x":175487.61000000127,"y":2560363.8400000017}},{"attributes":{"ID":300533,"DIS_CODE":0,"TOWNNAME":"北區","LI":"文成里","LIN":"8鄰","STREET":"文賢路","SECT":" ","MAREA":" ","LANE":"５２０巷","ALLEY":" ","HOUSE_NO":"３３號","E_COORD97":167456.41,"N_COORD97":2545299.98,"ADDRESS":"文賢路５２０巷３３號","OBJECTID":300525},"geometry":{"x":167456.41000000201,"y":2545299.9800000023}},{"attributes":{"ID":300534,"DIS_CODE":0,"TOWNNAME":"北區","LI":"文成里","LIN":"8鄰","STREET":"文賢路","SECT":" ","MAREA":" ","LANE":"５２０巷","ALLEY":" ","HOUSE_NO":"３４號","E_COORD97":167455.20999999999,"N_COORD97":2545287.2200000002,"ADDRESS":"文賢路５２０巷３４號","OBJECTID":300526},"geometry":{"x":167455.20999999996,"y":2545287.2200000007}},{"attributes":{"ID":300535,"DIS_CODE":0,"TOWNNAME":"北區","LI":"文成里","LIN":"8鄰","STREET":"文賢路","SECT":" ","MAREA":" ","LANE":"５２０巷","ALLEY":" ","HOUSE_NO":"３６號","E_COORD97":167460.23999999999,"N_COORD97":2545286.8199999998,"ADDRESS":"文賢路５２０巷３６號","OBJECTID":300527},"geometry":{"x":167460.24000000022,"y":2545286.8199999984}},{"attributes":{"ID":300536,"DIS_CODE":0,"TOWNNAME":"北區","LI":"文成里","LIN":"8鄰","STREET":"文賢路","SECT":" ","MAREA":" ","LANE":"５２０巷","ALLEY":" ","HOUSE_NO":"３７號","E_COORD97":167462.89999999999,"N_COORD97":2545299.02,"ADDRESS":"文賢路５２０巷３７號","OBJECTID":300528},"geometry":{"x":167462.90000000037,"y":2545299.0200000014}},{"attributes":{"ID":300537,"DIS_CODE":0,"TOWNNAME":"北區","LI":"文成里","LIN":"8鄰","STREET":"文賢路","SECT":" ","MAREA":" ","LANE":"５２０巷","ALLEY":" ","HOUSE_NO":"３８號","E_COORD97":167464.88,"N_COORD97":2545285.6099999999,"ADDRESS":"文賢路５２０巷３８號","OBJECTID":300529},"geometry":{"x":167464.88000000082,"y":2545285.6100000013}},{"attributes":{"ID":300538,"DIS_CODE":0,"TOWNNAME":"北區","LI":"文成里","LIN":"8鄰","STREET":"文賢路","SECT":" ","MAREA":" ","LANE":"５２０巷","ALLEY":" ","HOUSE_NO":"３９號","E_COORD97":167469.76000000001,"N_COORD97":2545298.6400000001,"ADDRESS":"文賢路５２０巷３９號","OBJECTID":300530},"geometry":{"x":167469.75999999978,"y":2545298.6400000043}},{"attributes":{"ID":300539,"DIS_CODE":0,"TOWNNAME":"北區","LI":"文成里","LIN":"8鄰","STREET":"文賢路","SECT":" ","MAREA":" ","LANE":"５２０巷","ALLEY":" ","HOUSE_NO":"３號","E_COORD97":167384.70999999999,"N_COORD97":2545301.8799999999,"ADDRESS":"文賢路５２０巷３號","OBJECTID":300531},"geometry":{"x":167384.71000000183,"y":2545301.8799999971}},{"attributes":{"ID":300540,"DIS_CODE":0,"TOWNNAME":"北區","LI":"文成里","LIN":"8鄰","STREET":"文賢路","SECT":" ","MAREA":" ","LANE":"５２０巷","ALLEY":" ","HOUSE_NO":"４０號","E_COORD97":167467.89999999999,"N_COORD97":2545285.4100000001,"ADDRESS":"文賢路５２０巷４０號","OBJECTID":300532},"geometry":{"x":167467.90000000037,"y":2545285.4100000001}},{"attributes":{"ID":300541,"DIS_CODE":0,"TOWNNAME":"北區","LI":"文成里","LIN":"8鄰","STREET":"文賢路","SECT":" ","MAREA":" ","LANE":"５２０巷","ALLEY":" ","HOUSE_NO":"４１號","E_COORD97":167474.72,"N_COORD97":2545298.4500000002,"ADDRESS":"文賢路５２０巷４１號","OBJECTID":300533},"geometry":{"x":167474.72000000067,"y":2545298.450000003}},{"attributes":{"ID":300542,"DIS_CODE":0,"TOWNNAME":"北區","LI":"文成里","LIN":"8鄰","STREET":"文賢路","SECT":" ","MAREA":" ","LANE":"５２０巷","ALLEY":" ","HOUSE_NO":"４２號","E_COORD97":167473.94,"N_COORD97":2545284.8100000001,"ADDRESS":"文賢路５２０巷４２號","OBJECTID":300534},"geometry":{"x":167473.94000000134,"y":2545284.8100000024}},{"attributes":{"ID":300543,"DIS_CODE":0,"TOWNNAME":"北區","LI":"文成里","LIN":"8鄰","STREET":"文賢路","SECT":" ","MAREA":" ","LANE":"５２０巷","ALLEY":" ","HOUSE_NO":"５０號","E_COORD97":167491.34,"N_COORD97":2545281.9900000002,"ADDRESS":"文賢路５２０巷５０號","OBJECTID":300535},"geometry":{"x":167491.33999999985,"y":2545281.9900000002}},{"attributes":{"ID":300544,"DIS_CODE":0,"TOWNNAME":"北區","LI":"文成里","LIN":"8鄰","STREET":"文賢路","SECT":" ","MAREA":" ","LANE":"５２０巷","ALLEY":" ","HOUSE_NO":"４５號","E_COORD97":167481.64999999999,"N_COORD97":2545297.1200000001,"ADDRESS":"文賢路５２０巷４５號","OBJECTID":300536},"geometry":{"x":167481.65000000037,"y":2545297.1200000029}},{"attributes":{"ID":300545,"DIS_CODE":0,"TOWNNAME":"白河區","LI":"河東里","LIN":"4鄰","STREET":" ","SECT":" ","MAREA":"糞箕湖","LANE":" ","ALLEY":" ","HOUSE_NO":"６１之４號","E_COORD97":192124.89999999999,"N_COORD97":2582424.21,"ADDRESS":"糞箕湖６１之４號","OBJECTID":300537},"geometry":{"x":192124.89999999944,"y":2582424.2100000028}},{"attributes":{"ID":300546,"DIS_CODE":0,"TOWNNAME":"北區","LI":"文成里","LIN":"8鄰","STREET":"文賢路","SECT":" ","MAREA":" ","LANE":"５２０巷","ALLEY":" ","HOUSE_NO":"４７號","E_COORD97":167486.79999999999,"N_COORD97":2545298.0699999998,"ADDRESS":"文賢路５２０巷４７號","OBJECTID":300538},"geometry":{"x":167486.79999999981,"y":2545298.0700000003}},{"attributes":{"ID":300547,"DIS_CODE":0,"TOWNNAME":"善化區","LI":"溪美里","LIN":"18鄰","STREET":" ","SECT":" ","MAREA":"溪尾","LANE":" ","ALLEY":" ","HOUSE_NO":"２１７號之３１","E_COORD97":177349.76999999999,"N_COORD97":2561385.8700000001,"ADDRESS":"溪尾２１７號之３１","OBJECTID":300539},"geometry":{"x":177349.77000000142,"y":2561385.8700000029}},{"attributes":{"ID":300548,"DIS_CODE":0,"TOWNNAME":"白河區","LI":"河東里","LIN":"4鄰","STREET":" ","SECT":" ","MAREA":"糞箕湖","LANE":" ","ALLEY":" ","HOUSE_NO":"６２之３５號","E_COORD97":192026.73000000001,"N_COORD97":2582515.73,"ADDRESS":"糞箕湖６２之３５號","OBJECTID":300540},"geometry":{"x":192026.73000000138,"y":2582515.7300000023}},{"attributes":{"ID":300549,"DIS_CODE":0,"TOWNNAME":"北區","LI":"文成里","LIN":"8鄰","STREET":"文賢路","SECT":" ","MAREA":" ","LANE":"５２０巷","ALLEY":" ","HOUSE_NO":"４９號","E_COORD97":167494.62,"N_COORD97":2545301.3100000001,"ADDRESS":"文賢路５２０巷４９號","OBJECTID":300541},"geometry":{"x":167494.62000000104,"y":2545301.3100000024}},{"attributes":{"ID":300550,"DIS_CODE":0,"TOWNNAME":"北區","LI":"文成里","LIN":"8鄰","STREET":"文賢路","SECT":" ","MAREA":" ","LANE":"５２０巷","ALLEY":" ","HOUSE_NO":"４號","E_COORD97":167379.48999999999,"N_COORD97":2545291.2400000002,"ADDRESS":"文賢路５２０巷４號","OBJECTID":300542},"geometry":{"x":167379.48999999929,"y":2545291.2400000021}},{"attributes":{"ID":300551,"DIS_CODE":0,"TOWNNAME":"北區","LI":"文成里","LIN":"8鄰","STREET":"文賢路","SECT":" ","MAREA":" ","LANE":"５２０巷","ALLEY":" ","HOUSE_NO":"５１號","E_COORD97":167502.82000000001,"N_COORD97":2545296.9199999999,"ADDRESS":"文賢路５２０巷５１號","OBJECTID":300543},"geometry":{"x":167502.82000000216,"y":2545296.9200000018}},{"attributes":{"ID":300552,"DIS_CODE":0,"TOWNNAME":"北區","LI":"文成里","LIN":"8鄰","STREET":"文賢路","SECT":" ","MAREA":" ","LANE":"５２０巷","ALLEY":" ","HOUSE_NO":"５３號","E_COORD97":167508.16,"N_COORD97":2545297.3100000001,"ADDRESS":"文賢路５２０巷５３號","OBJECTID":300544},"geometry":{"x":167508.16000000015,"y":2545297.3099999987}},{"attributes":{"ID":300553,"DIS_CODE":0,"TOWNNAME":"北區","LI":"文成里","LIN":"8鄰","STREET":"文賢路","SECT":" ","MAREA":" ","LANE":"５２０巷","ALLEY":" ","HOUSE_NO":"５７號","E_COORD97":167523.54000000001,"N_COORD97":2545297.3300000001,"ADDRESS":"文賢路５２０巷５７號","OBJECTID":300545},"geometry":{"x":167523.54000000097,"y":2545297.3300000019}},{"attributes":{"ID":300554,"DIS_CODE":0,"TOWNNAME":"北區","LI":"文成里","LIN":"8鄰","STREET":"文賢路","SECT":" ","MAREA":" ","LANE":"５２０巷","ALLEY":" ","HOUSE_NO":"５９號","E_COORD97":167531.17000000001,"N_COORD97":2545296.3700000001,"ADDRESS":"文賢路５２０巷５９號","OBJECTID":300546},"geometry":{"x":167531.17000000086,"y":2545296.370000001}},{"attributes":{"ID":300555,"DIS_CODE":0,"TOWNNAME":"北區","LI":"文成里","LIN":"8鄰","STREET":"文賢路","SECT":" ","MAREA":" ","LANE":"５２０巷","ALLEY":" ","HOUSE_NO":"５號","E_COORD97":167389.47,"N_COORD97":2545301.8799999999,"ADDRESS":"文賢路５２０巷５號","OBJECTID":300547},"geometry":{"x":167389.4700000016,"y":2545301.8799999971}},{"attributes":{"ID":300556,"DIS_CODE":0,"TOWNNAME":"北區","LI":"文成里","LIN":"8鄰","STREET":"文賢路","SECT":" ","MAREA":" ","LANE":"５２０巷","ALLEY":" ","HOUSE_NO":"６０號","E_COORD97":167524.23000000001,"N_COORD97":2545281.3700000001,"ADDRESS":"文賢路５２０巷６０號","OBJECTID":300548},"geometry":{"x":167524.23000000138,"y":2545281.3700000029}},{"attributes":{"ID":300557,"DIS_CODE":0,"TOWNNAME":"北區","LI":"文成里","LIN":"8鄰","STREET":"文賢路","SECT":" ","MAREA":" ","LANE":"５２０巷","ALLEY":" ","HOUSE_NO":"６０號之１","E_COORD97":167547.59,"N_COORD97":2545280.77,"ADDRESS":"文賢路５２０巷６０號之１","OBJECTID":300549},"geometry":{"x":167547.58999999985,"y":2545280.7700000014}},{"attributes":{"ID":300558,"DIS_CODE":0,"TOWNNAME":"北區","LI":"文成里","LIN":"8鄰","STREET":"文賢路","SECT":" ","MAREA":" ","LANE":"５２０巷","ALLEY":" ","HOUSE_NO":"６１號","E_COORD97":167538.60999999999,"N_COORD97":2545296.3700000001,"ADDRESS":"文賢路５２０巷６１號","OBJECTID":300550},"geometry":{"x":167538.61000000127,"y":2545296.370000001}},{"attributes":{"ID":300559,"DIS_CODE":0,"TOWNNAME":"北區","LI":"文成里","LIN":"8鄰","STREET":"文賢路","SECT":" ","MAREA":" ","LANE":"５２０巷","ALLEY":" ","HOUSE_NO":"６２號","E_COORD97":167553.23000000001,"N_COORD97":2545280.9700000002,"ADDRESS":"文賢路５２０巷６２號","OBJECTID":300551},"geometry":{"x":167553.23000000138,"y":2545280.9700000025}},{"attributes":{"ID":300560,"DIS_CODE":0,"TOWNNAME":"北區","LI":"文成里","LIN":"8鄰","STREET":"文賢路","SECT":" ","MAREA":" ","LANE":"５２０巷","ALLEY":" ","HOUSE_NO":"６３號","E_COORD97":167546.23000000001,"N_COORD97":2545296.1800000002,"ADDRESS":"文賢路５２０巷６３號","OBJECTID":300552},"geometry":{"x":167546.23000000138,"y":2545296.1799999997}},{"attributes":{"ID":300561,"DIS_CODE":0,"TOWNNAME":"北區","LI":"文成里","LIN":"8鄰","STREET":"文賢路","SECT":" ","MAREA":" ","LANE":"５２０巷","ALLEY":" ","HOUSE_NO":"６５號","E_COORD97":167552.14999999999,"N_COORD97":2545295.7999999998,"ADDRESS":"文賢路５２０巷６５號","OBJECTID":300553},"geometry":{"x":167552.1500000013,"y":2545295.8000000026}},{"attributes":{"ID":300562,"DIS_CODE":0,"TOWNNAME":"北區","LI":"文成里","LIN":"8鄰","STREET":"文賢路","SECT":" ","MAREA":" ","LANE":"５２０巷","ALLEY":" ","HOUSE_NO":"６６號","E_COORD97":167562.70000000001,"N_COORD97":2545280.3599999999,"ADDRESS":"文賢路５２０巷６６號","OBJECTID":300554},"geometry":{"x":167562.70000000019,"y":2545280.3600000013}},{"attributes":{"ID":300563,"DIS_CODE":0,"TOWNNAME":"北區","LI":"文成里","LIN":"8鄰","STREET":"文賢路","SECT":" ","MAREA":" ","LANE":"５２０巷","ALLEY":" ","HOUSE_NO":"６７號","E_COORD97":167556.72,"N_COORD97":2545294.6600000001,"ADDRESS":"文賢路５２０巷６７號","OBJECTID":300555},"geometry":{"x":167556.71999999974,"y":2545294.6600000039}},{"attributes":{"ID":300564,"DIS_CODE":0,"TOWNNAME":"北區","LI":"文成里","LIN":"8鄰","STREET":"文賢路","SECT":" ","MAREA":" ","LANE":"５２０巷","ALLEY":" ","HOUSE_NO":"６８號","E_COORD97":167569.14000000001,"N_COORD97":2545280.77,"ADDRESS":"文賢路５２０巷６８號","OBJECTID":300556},"geometry":{"x":167569.13999999966,"y":2545280.7700000014}},{"attributes":{"ID":300565,"DIS_CODE":0,"TOWNNAME":"北區","LI":"文成里","LIN":"8鄰","STREET":"文賢路","SECT":" ","MAREA":" ","LANE":"５２０巷","ALLEY":" ","HOUSE_NO":"６９號","E_COORD97":167563.78,"N_COORD97":2545294.6600000001,"ADDRESS":"文賢路５２０巷６９號","OBJECTID":300557},"geometry":{"x":167563.78000000026,"y":2545294.6600000039}},{"attributes":{"ID":300566,"DIS_CODE":0,"TOWNNAME":"北區","LI":"文成里","LIN":"8鄰","STREET":"文賢路","SECT":" ","MAREA":" ","LANE":"５２０巷","ALLEY":" ","HOUSE_NO":"６號","E_COORD97":167384.32999999999,"N_COORD97":2545290.8399999999,"ADDRESS":"文賢路５２０巷６號","OBJECTID":300558},"geometry":{"x":167384.33000000101,"y":2545290.8400000017}},{"attributes":{"ID":300567,"DIS_CODE":0,"TOWNNAME":"北區","LI":"文成里","LIN":"8鄰","STREET":"文賢路","SECT":" ","MAREA":" ","LANE":"５２０巷","ALLEY":" ","HOUSE_NO":"７０號","E_COORD97":167576.19,"N_COORD97":2545280.77,"ADDRESS":"文賢路５２０巷７０號","OBJECTID":300559},"geometry":{"x":167576.19000000041,"y":2545280.7700000014}},{"attributes":{"ID":300568,"DIS_CODE":0,"TOWNNAME":"北區","LI":"長榮里","LIN":"5鄰","STREET":"長榮路","SECT":"五段","MAREA":" ","LANE":"４１巷","ALLEY":" ","HOUSE_NO":"２６號","E_COORD97":169965.23999999999,"N_COORD97":2545589.6499999999,"ADDRESS":"長榮路五段４１巷２６號","OBJECTID":300560},"geometry":{"x":169965.24000000115,"y":2545589.6500000004}},{"attributes":{"ID":300569,"DIS_CODE":0,"TOWNNAME":"北區","LI":"文成里","LIN":"8鄰","STREET":"文賢路","SECT":" ","MAREA":" ","LANE":"５２０巷","ALLEY":" ","HOUSE_NO":"７１號","E_COORD97":167567.39999999999,"N_COORD97":2545294.2799999998,"ADDRESS":"文賢路５２０巷７１號","OBJECTID":300561},"geometry":{"x":167567.4000000013,"y":2545294.2800000012}},{"attributes":{"ID":300570,"DIS_CODE":0,"TOWNNAME":"北區","LI":"文成里","LIN":"8鄰","STREET":"文賢路","SECT":" ","MAREA":" ","LANE":"５２０巷","ALLEY":" ","HOUSE_NO":"７３號","E_COORD97":167576.94,"N_COORD97":2545293.8999999999,"ADDRESS":"文賢路５２０巷７３號","OBJECTID":300562},"geometry":{"x":167576.94000000134,"y":2545293.9000000022}},{"attributes":{"ID":300571,"DIS_CODE":0,"TOWNNAME":"北區","LI":"文成里","LIN":"8鄰","STREET":"文賢路","SECT":" ","MAREA":" ","LANE":"５２０巷","ALLEY":" ","HOUSE_NO":"７９號","E_COORD97":167581.53,"N_COORD97":2545293.98,"ADDRESS":"文賢路５２０巷７９號","OBJECTID":300563},"geometry":{"x":167581.53000000119,"y":2545293.9800000023}},{"attributes":{"ID":300572,"DIS_CODE":0,"TOWNNAME":"白河區","LI":"河東里","LIN":"4鄰","STREET":" ","SECT":" ","MAREA":"糞箕湖","LANE":" ","ALLEY":" ","HOUSE_NO":"６２之４４號","E_COORD97":192005.51000000001,"N_COORD97":2582493.1299999999,"ADDRESS":"糞箕湖６２之４４號","OBJECTID":300564},"geometry":{"x":192005.51000000071,"y":2582493.1300000027}},{"attributes":{"ID":300573,"DIS_CODE":0,"TOWNNAME":"白河區","LI":"河東里","LIN":"4鄰","STREET":" ","SECT":" ","MAREA":"糞箕湖","LANE":" ","ALLEY":" ","HOUSE_NO":"６２之４５號","E_COORD97":192006.12,"N_COORD97":2582496.5699999998,"ADDRESS":"糞箕湖６２之４５號","OBJECTID":300565},"geometry":{"x":192006.12000000011,"y":2582496.5700000003}},{"attributes":{"ID":300574,"DIS_CODE":0,"TOWNNAME":"白河區","LI":"河東里","LIN":"4鄰","STREET":" ","SECT":" ","MAREA":"糞箕湖","LANE":" ","ALLEY":" ","HOUSE_NO":"６２之４６號","E_COORD97":192006.73000000001,"N_COORD97":2582500.0099999998,"ADDRESS":"糞箕湖６２之４６號","OBJECTID":300566},"geometry":{"x":192006.73000000138,"y":2582500.0099999998}},{"attributes":{"ID":300575,"DIS_CODE":0,"TOWNNAME":"白河區","LI":"河東里","LIN":"4鄰","STREET":" ","SECT":" ","MAREA":"糞箕湖","LANE":" ","ALLEY":" ","HOUSE_NO":"６２之４７號","E_COORD97":192007.34,"N_COORD97":2582503.4500000002,"ADDRESS":"糞箕湖６２之４７號","OBJECTID":300567},"geometry":{"x":192007.33999999985,"y":2582503.4499999993}},{"attributes":{"ID":300576,"DIS_CODE":0,"TOWNNAME":"善化區","LI":"田寮里","LIN":"4鄰","STREET":" ","SECT":" ","MAREA":"六分寮","LANE":" ","ALLEY":" ","HOUSE_NO":"５３號之１２","E_COORD97":178405.01000000001,"N_COORD97":2561119.6800000002,"ADDRESS":"六分寮５３號之１２","OBJECTID":300568},"geometry":{"x":178405.01000000071,"y":2561119.6799999997}},{"attributes":{"ID":300577,"DIS_CODE":0,"TOWNNAME":"白河區","LI":"河東里","LIN":"4鄰","STREET":" ","SECT":" ","MAREA":"糞箕湖","LANE":" ","ALLEY":" ","HOUSE_NO":"６２之４８號","E_COORD97":192007.95000000001,"N_COORD97":2582506.8900000001,"ADDRESS":"糞箕湖６２之４８號","OBJECTID":300569},"geometry":{"x":192007.95000000112,"y":2582506.8900000025}},{"attributes":{"ID":300578,"DIS_CODE":0,"TOWNNAME":"北區","LI":"文成里","LIN":"8鄰","STREET":"文賢路","SECT":" ","MAREA":" ","LANE":"５２０巷","ALLEY":" ","HOUSE_NO":"７號","E_COORD97":167394.62,"N_COORD97":2545302.2599999998,"ADDRESS":"文賢路５２０巷７號","OBJECTID":300570},"geometry":{"x":167394.62000000104,"y":2545302.2599999998}},{"attributes":{"ID":300579,"DIS_CODE":0,"TOWNNAME":"北區","LI":"文成里","LIN":"8鄰","STREET":"文賢路","SECT":" ","MAREA":" ","LANE":"５２０巷","ALLEY":" ","HOUSE_NO":"８號","E_COORD97":167389.76000000001,"N_COORD97":2545290.04,"ADDRESS":"文賢路５２０巷８號","OBJECTID":300571},"geometry":{"x":167389.76000000071,"y":2545290.0399999991}},{"attributes":{"ID":300580,"DIS_CODE":0,"TOWNNAME":"白河區","LI":"河東里","LIN":"4鄰","STREET":" ","SECT":" ","MAREA":"糞箕湖","LANE":" ","ALLEY":" ","HOUSE_NO":"６３之３６號","E_COORD97":191676.37,"N_COORD97":2582570.7799999998,"ADDRESS":"糞箕湖６３之３６號","OBJECTID":300572},"geometry":{"x":191676.37000000104,"y":2582570.7800000012}},{"attributes":{"ID":300581,"DIS_CODE":0,"TOWNNAME":"白河區","LI":"河東里","LIN":"4鄰","STREET":" ","SECT":" ","MAREA":"糞箕湖","LANE":" ","ALLEY":" ","HOUSE_NO":"６３之３號","E_COORD97":191964.75,"N_COORD97":2582505.9900000002,"ADDRESS":"糞箕湖６３之３號","OBJECTID":300573},"geometry":{"x":191964.75000000093,"y":2582505.9900000021}},{"attributes":{"ID":300582,"DIS_CODE":0,"TOWNNAME":"善化區","LI":"胡厝里","LIN":"6鄰","STREET":" ","SECT":" ","MAREA":"胡厝寮","LANE":" ","ALLEY":" ","HOUSE_NO":"１９３號","E_COORD97":175202.92000000001,"N_COORD97":2560448.71,"ADDRESS":"胡厝寮１９３號","OBJECTID":300574},"geometry":{"x":175202.91999999899,"y":2560448.7100000009}},{"attributes":{"ID":300583,"DIS_CODE":0,"TOWNNAME":"善化區","LI":"胡家里","LIN":"4鄰","STREET":" ","SECT":" ","MAREA":"胡厝寮","LANE":" ","ALLEY":" ","HOUSE_NO":"３１號之１","E_COORD97":175430.09,"N_COORD97":2560437.0800000001,"ADDRESS":"胡厝寮３１號之１","OBJECTID":300575},"geometry":{"x":175430.08999999985,"y":2560437.0800000019}},{"attributes":{"ID":300584,"DIS_CODE":0,"TOWNNAME":"善化區","LI":"胡家里","LIN":"4鄰","STREET":" ","SECT":" ","MAREA":"胡厝寮","LANE":" ","ALLEY":" ","HOUSE_NO":"３９９號之７","E_COORD97":175676.83220100001,"N_COORD97":2560104.3474099999,"ADDRESS":"胡厝寮３９９號之７","OBJECTID":300576},"geometry":{"x":175676.83220100123,"y":2560104.3474109992}},{"attributes":{"ID":300585,"DIS_CODE":0,"TOWNNAME":"北區","LI":"文成里","LIN":"8鄰","STREET":"文賢路","SECT":" ","MAREA":" ","LANE":"５２０巷","ALLEY":" ","HOUSE_NO":"９號","E_COORD97":167399.20000000001,"N_COORD97":2545301.8799999999,"ADDRESS":"文賢路５２０巷９號","OBJECTID":300577},"geometry":{"x":167399.20000000112,"y":2545301.8799999971}},{"attributes":{"ID":300586,"DIS_CODE":0,"TOWNNAME":"南區","LI":"明興里","LIN":"8鄰","STREET":"金華路","SECT":"一段","MAREA":" ","LANE":"１４０巷","ALLEY":" ","HOUSE_NO":"７號","E_COORD97":166964.44,"N_COORD97":2540613.8799999999,"ADDRESS":"金華路一段１４０巷７號","OBJECTID":300578},"geometry":{"x":166964.44000000041,"y":2540613.8800000008}},{"attributes":{"ID":300587,"DIS_CODE":0,"TOWNNAME":"南區","LI":"建南里","LIN":"8鄰","STREET":"德興路","SECT":" ","MAREA":" ","LANE":"２１０巷","ALLEY":" ","HOUSE_NO":"１０號","E_COORD97":167171.95999999999,"N_COORD97":2540174.1099999999,"ADDRESS":"德興路２１０巷１０號","OBJECTID":300579},"geometry":{"x":167171.95999999996,"y":2540174.1099999994}},{"attributes":{"ID":300588,"DIS_CODE":0,"TOWNNAME":"南區","LI":"建南里","LIN":"8鄰","STREET":"德興路","SECT":" ","MAREA":" ","LANE":"２１０巷","ALLEY":" ","HOUSE_NO":"１２號","E_COORD97":167167.57000000001,"N_COORD97":2540173.3799999999,"ADDRESS":"德興路２１０巷１２號","OBJECTID":300580},"geometry":{"x":167167.57000000123,"y":2540173.3800000008}},{"attributes":{"ID":300589,"DIS_CODE":0,"TOWNNAME":"南區","LI":"建南里","LIN":"8鄰","STREET":"德興路","SECT":" ","MAREA":" ","LANE":"２１０巷","ALLEY":" ","HOUSE_NO":"１４號","E_COORD97":167163.19,"N_COORD97":2540173.7400000002,"ADDRESS":"德興路２１０巷１４號","OBJECTID":300581},"geometry":{"x":167163.19000000227,"y":2540173.7400000002}},{"attributes":{"ID":300590,"DIS_CODE":0,"TOWNNAME":"南區","LI":"建南里","LIN":"8鄰","STREET":"德興路","SECT":" ","MAREA":" ","LANE":"２１０巷","ALLEY":" ","HOUSE_NO":"１６號","E_COORD97":167158.25,"N_COORD97":2540173.9300000002,"ADDRESS":"德興路２１０巷１６號","OBJECTID":300582},"geometry":{"x":167158.25,"y":2540173.9300000016}},{"attributes":{"ID":300591,"DIS_CODE":0,"TOWNNAME":"南區","LI":"建南里","LIN":"8鄰","STREET":"德興路","SECT":" ","MAREA":" ","LANE":"２１０巷","ALLEY":" ","HOUSE_NO":"１號","E_COORD97":167186.37,"N_COORD97":2540149.8199999998,"ADDRESS":"德興路２１０巷１號","OBJECTID":300583},"geometry":{"x":167186.37000000011,"y":2540149.8200000003}},{"attributes":{"ID":300592,"DIS_CODE":0,"TOWNNAME":"南區","LI":"建南里","LIN":"8鄰","STREET":"德興路","SECT":" ","MAREA":" ","LANE":"２１０巷","ALLEY":" ","HOUSE_NO":"２號","E_COORD97":167188.41,"N_COORD97":2540175.9300000002,"ADDRESS":"德興路２１０巷２號","OBJECTID":300584},"geometry":{"x":167188.40999999922,"y":2540175.9299999997}},{"attributes":{"ID":300593,"DIS_CODE":0,"TOWNNAME":"南區","LI":"建南里","LIN":"8鄰","STREET":"德興路","SECT":" ","MAREA":" ","LANE":"２１０巷","ALLEY":" ","HOUSE_NO":"４號","E_COORD97":167183.84,"N_COORD97":2540175.75,"ADDRESS":"德興路２１０巷４號","OBJECTID":300585},"geometry":{"x":167183.84000000078,"y":2540175.7500000019}},{"attributes":{"ID":300594,"DIS_CODE":0,"TOWNNAME":"南區","LI":"建南里","LIN":"8鄰","STREET":"德興路","SECT":" ","MAREA":" ","LANE":"２１０巷","ALLEY":" ","HOUSE_NO":"６號","E_COORD97":167180.19,"N_COORD97":2540175.3900000001,"ADDRESS":"德興路２１０巷６號","OBJECTID":300586},"geometry":{"x":167180.19000000227,"y":2540175.3900000025}},{"attributes":{"ID":300595,"DIS_CODE":0,"TOWNNAME":"南區","LI":"建南里","LIN":"8鄰","STREET":"德興路","SECT":" ","MAREA":" ","LANE":"２１０巷","ALLEY":" ","HOUSE_NO":"８號","E_COORD97":167176.16,"N_COORD97":2540174.4700000002,"ADDRESS":"德興路２１０巷８號","OBJECTID":300587},"geometry":{"x":167176.16000000015,"y":2540174.4700000025}},{"attributes":{"ID":300596,"DIS_CODE":0,"TOWNNAME":"南區","LI":"建南里","LIN":"8鄰","STREET":"德興路","SECT":" ","MAREA":" ","LANE":"２３２巷","ALLEY":" ","HOUSE_NO":"２號","E_COORD97":167186.16,"N_COORD97":2540123.98,"ADDRESS":"德興路２３２巷２號","OBJECTID":300588},"geometry":{"x":167186.16000000015,"y":2540123.9800000023}},{"attributes":{"ID":300597,"DIS_CODE":0,"TOWNNAME":"南區","LI":"建南里","LIN":"8鄰","STREET":"德興路","SECT":" ","MAREA":" ","LANE":"２３２巷","ALLEY":" ","HOUSE_NO":"３６號","E_COORD97":167120.26999999999,"N_COORD97":2540123.25,"ADDRESS":"德興路２３２巷３６號","OBJECTID":300589},"geometry":{"x":167120.26999999955,"y":2540123.25}},{"attributes":{"ID":300598,"DIS_CODE":0,"TOWNNAME":"東區","LI":"崇德里","LIN":"8鄰","STREET":"崇德七街","SECT":" ","MAREA":" ","LANE":"２０巷","ALLEY":" ","HOUSE_NO":"２８號七樓","E_COORD97":170866.51999999999,"N_COORD97":2541705.4700000002,"ADDRESS":"崇德七街２０巷２８號七樓","OBJECTID":300590},"geometry":{"x":170866.51999999955,"y":2541705.4700000007}},{"attributes":{"ID":300599,"DIS_CODE":0,"TOWNNAME":"白河區","LI":"關嶺里","LIN":"4鄰","STREET":" ","SECT":" ","MAREA":"關子嶺","LANE":" ","ALLEY":" ","HOUSE_NO":"８２之４號","E_COORD97":198945.32999999999,"N_COORD97":2581361.48,"ADDRESS":"關子嶺８２之４號","OBJECTID":300591},"geometry":{"x":198945.33000000101,"y":2581361.4800000004}},{"attributes":{"ID":300600,"DIS_CODE":0,"TOWNNAME":"白河區","LI":"關嶺里","LIN":"4鄰","STREET":" ","SECT":" ","MAREA":"關子嶺","LANE":" ","ALLEY":" ","HOUSE_NO":"８２號","E_COORD97":199010.94,"N_COORD97":2581299.8900000001,"ADDRESS":"關子嶺８２號","OBJECTID":300592},"geometry":{"x":199010.94000000134,"y":2581299.8900000025}},{"attributes":{"ID":300601,"DIS_CODE":0,"TOWNNAME":"善化區","LI":"小新里","LIN":"20鄰","STREET":" ","SECT":" ","MAREA":"小新營","LANE":" ","ALLEY":" ","HOUSE_NO":"１６３號之３","E_COORD97":179972.45000000001,"N_COORD97":2558191.73,"ADDRESS":"小新營１６３號之３","OBJECTID":300593},"geometry":{"x":179972.45000000112,"y":2558191.7300000042}},{"attributes":{"ID":300602,"DIS_CODE":0,"TOWNNAME":"善化區","LI":"胡家里","LIN":"13鄰","STREET":" ","SECT":" ","MAREA":"胡厝寮","LANE":" ","ALLEY":" ","HOUSE_NO":"６４號之４","E_COORD97":175378.51999999999,"N_COORD97":2560720.7200000002,"ADDRESS":"胡厝寮６４號之４","OBJECTID":300594},"geometry":{"x":175378.52000000048,"y":2560720.7200000007}},{"attributes":{"ID":300603,"DIS_CODE":0,"TOWNNAME":"善化區","LI":"牛庄里","LIN":"13鄰","STREET":" ","SECT":" ","MAREA":"牛庄","LANE":" ","ALLEY":" ","HOUSE_NO":"１號之２５","E_COORD97":180036.44,"N_COORD97":2559268.5800000001,"ADDRESS":"牛庄１號之２５","OBJECTID":300595},"geometry":{"x":180036.44000000227,"y":2559268.5800000019}},{"attributes":{"ID":300604,"DIS_CODE":0,"TOWNNAME":"善化區","LI":"胡厝里","LIN":"17鄰","STREET":" ","SECT":" ","MAREA":"西衛","LANE":" ","ALLEY":" ","HOUSE_NO":"７號之３","E_COORD97":174434.75,"N_COORD97":2559479.6299999999,"ADDRESS":"西衛７號之３","OBJECTID":300596},"geometry":{"x":174434.75000000186,"y":2559479.6300000008}},{"attributes":{"ID":300605,"DIS_CODE":0,"TOWNNAME":"南區","LI":"明德里","LIN":"4鄰","STREET":"大成路","SECT":"一段","MAREA":" ","LANE":"１９３巷","ALLEY":" ","HOUSE_NO":"１４１號","E_COORD97":168039.28,"N_COORD97":2541632.4900000002,"ADDRESS":"大成路一段１９３巷１４１號","OBJECTID":300597},"geometry":{"x":168039.28000000119,"y":2541632.4900000021}},{"attributes":{"ID":300606,"DIS_CODE":0,"TOWNNAME":"南區","LI":"明德里","LIN":"4鄰","STREET":"大成路","SECT":"一段","MAREA":" ","LANE":"１９３巷","ALLEY":" ","HOUSE_NO":"１６５號","E_COORD97":168014.20000000001,"N_COORD97":2541614.8700000001,"ADDRESS":"大成路一段１９３巷１６５號","OBJECTID":300598},"geometry":{"x":168014.20000000112,"y":2541614.870000001}},{"attributes":{"ID":300607,"DIS_CODE":0,"TOWNNAME":"南區","LI":"明德里","LIN":"4鄰","STREET":"大成路","SECT":"一段","MAREA":" ","LANE":"１９３巷","ALLEY":" ","HOUSE_NO":"１６６號","E_COORD97":168031.98000000001,"N_COORD97":2541615.5099999998,"ADDRESS":"大成路一段１９３巷１６６號","OBJECTID":300599},"geometry":{"x":168031.98000000045,"y":2541615.5099999998}},{"attributes":{"ID":300608,"DIS_CODE":0,"TOWNNAME":"南區","LI":"明德里","LIN":"4鄰","STREET":"大成路","SECT":"一段","MAREA":" ","LANE":"１９３巷","ALLEY":" ","HOUSE_NO":"１６７號","E_COORD97":168039.12,"N_COORD97":2541615.8199999998,"ADDRESS":"大成路一段１９３巷１６７號","OBJECTID":300600},"geometry":{"x":168039.12000000011,"y":2541615.8200000022}}]}