{"displayFieldName":"TOWNNAME","fieldAliases":{"ID":"ID","DIS_CODE":"DIS_CODE","TOWNNAME":"TOWNNAME","LI":"LI","LIN":"LIN","STREET":"STREET","SECT":"SECT","MAREA":"MAREA","LANE":"LANE","ALLEY":"ALLEY","HOUSE_NO":"HOUSE_NO","E_COORD97":"E_COORD97","N_COORD97":"N_COORD97","ADDRESS":"ADDRESS","OBJECTID":"OBJECTID"},"geometryType":"esriGeometryPoint","spatialReference":{"wkid":102443,"latestWkid":3826},"fields":[{"name":"ID","type":"esriFieldTypeDouble","alias":"ID"},{"name":"DIS_CODE","type":"esriFieldTypeInteger","alias":"DIS_CODE"},{"name":"TOWNNAME","type":"esriFieldTypeString","alias":"TOWNNAME","length":8},{"name":"LI","type":"esriFieldTypeString","alias":"LI","length":8},{"name":"LIN","type":"esriFieldTypeString","alias":"LIN","length":12},{"name":"STREET","type":"esriFieldTypeString","alias":"STREET","length":20},{"name":"SECT","type":"esriFieldTypeString","alias":"SECT","length":8},{"name":"MAREA","type":"esriFieldTypeString","alias":"MAREA","length":12},{"name":"LANE","type":"esriFieldTypeString","alias":"LANE","length":10},{"name":"ALLEY","type":"esriFieldTypeString","alias":"ALLEY","length":10},{"name":"HOUSE_NO","type":"esriFieldTypeString","alias":"HOUSE_NO","length":20},{"name":"E_COORD97","type":"esriFieldTypeDouble","alias":"E_COORD97"},{"name":"N_COORD97","type":"esriFieldTypeDouble","alias":"N_COORD97"},{"name":"ADDRESS","type":"esriFieldTypeString","alias":"ADDRESS","length":50},{"name":"OBJECTID","type":"esriFieldTypeOID","alias":"OBJECTID"}],"features":[{"attributes":{"ID":517428,"DIS_CODE":0,"TOWNNAME":"學甲區","LI":"仁得里","LIN":"1鄰","STREET":"八德街","SECT":" ","MAREA":" ","LANE":" ","ALLEY":" ","HOUSE_NO":"３６號","E_COORD97":166292.37,"N_COORD97":2569701.1400000001,"ADDRESS":"八德街３６號","OBJECTID":517401},"geometry":{"x":166292.37000000104,"y":2569701.1400000006}},{"attributes":{"ID":517429,"DIS_CODE":0,"TOWNNAME":"學甲區","LI":"仁得里","LIN":"1鄰","STREET":"八德街","SECT":" ","MAREA":" ","LANE":" ","ALLEY":" ","HOUSE_NO":"３７號","E_COORD97":166240.79000000001,"N_COORD97":2569681.2400000002,"ADDRESS":"八德街３７號","OBJECTID":517402},"geometry":{"x":166240.79000000004,"y":2569681.2400000039}},{"attributes":{"ID":517430,"DIS_CODE":0,"TOWNNAME":"學甲區","LI":"仁得里","LIN":"1鄰","STREET":"八德街","SECT":" ","MAREA":" ","LANE":" ","ALLEY":" ","HOUSE_NO":"３８號","E_COORD97":166288.44,"N_COORD97":2569701.3199999998,"ADDRESS":"八德街３８號","OBJECTID":517403},"geometry":{"x":166288.44000000227,"y":2569701.320000004}},{"attributes":{"ID":517431,"DIS_CODE":0,"TOWNNAME":"中西區","LI":"中正里","LIN":"1鄰","STREET":"西門路","SECT":"二段","MAREA":" ","LANE":" ","ALLEY":" ","HOUSE_NO":"１３３號","E_COORD97":167833.85000000001,"N_COORD97":2543737.2799999998,"ADDRESS":"西門路二段１３３號","OBJECTID":517404},"geometry":{"x":167833.84999999963,"y":2543737.2800000012}},{"attributes":{"ID":517432,"DIS_CODE":0,"TOWNNAME":"中西區","LI":"中正里","LIN":"1鄰","STREET":"西門路","SECT":"二段","MAREA":" ","LANE":" ","ALLEY":" ","HOUSE_NO":"１３５號","E_COORD97":167835.14999999999,"N_COORD97":2543739.9500000002,"ADDRESS":"西門路二段１３５號","OBJECTID":517405},"geometry":{"x":167835.1500000013,"y":2543739.9500000011}},{"attributes":{"ID":517433,"DIS_CODE":0,"TOWNNAME":"中西區","LI":"中正里","LIN":"1鄰","STREET":"西門路","SECT":"二段","MAREA":" ","LANE":" ","ALLEY":" ","HOUSE_NO":"１３７號","E_COORD97":167835.35999999999,"N_COORD97":2543741.6000000001,"ADDRESS":"西門路二段１３７號","OBJECTID":517406},"geometry":{"x":167835.36000000127,"y":2543741.5999999978}},{"attributes":{"ID":517434,"DIS_CODE":0,"TOWNNAME":"中西區","LI":"中正里","LIN":"1鄰","STREET":"西門路","SECT":"二段","MAREA":" ","LANE":" ","ALLEY":" ","HOUSE_NO":"１３９號之６","E_COORD97":167824.91,"N_COORD97":2543740.4500000002,"ADDRESS":"西門路二段１３９號之６","OBJECTID":517407},"geometry":{"x":167824.91000000108,"y":2543740.4500000011}},{"attributes":{"ID":517435,"DIS_CODE":0,"TOWNNAME":"中西區","LI":"中正里","LIN":"1鄰","STREET":"西門路","SECT":"二段","MAREA":" ","LANE":" ","ALLEY":" ","HOUSE_NO":"１３９號之８","E_COORD97":167816.88,"N_COORD97":2543742.9700000002,"ADDRESS":"西門路二段１３９號之８","OBJECTID":517408},"geometry":{"x":167816.87999999989,"y":2543742.9700000007}},{"attributes":{"ID":517436,"DIS_CODE":0,"TOWNNAME":"中西區","LI":"中正里","LIN":"1鄰","STREET":"西門路","SECT":"二段","MAREA":" ","LANE":" ","ALLEY":" ","HOUSE_NO":"１３９號之９","E_COORD97":167812.51000000001,"N_COORD97":2543744.46,"ADDRESS":"西門路二段１３９號之９","OBJECTID":517409},"geometry":{"x":167812.50999999978,"y":2543744.4600000028}},{"attributes":{"ID":517437,"DIS_CODE":0,"TOWNNAME":"中西區","LI":"中正里","LIN":"1鄰","STREET":"西門路","SECT":"二段","MAREA":" ","LANE":" ","ALLEY":" ","HOUSE_NO":"１４３號","E_COORD97":167834.81,"N_COORD97":2543744.6099999999,"ADDRESS":"西門路二段１４３號","OBJECTID":517410},"geometry":{"x":167834.81000000052,"y":2543744.6099999975}},{"attributes":{"ID":517438,"DIS_CODE":0,"TOWNNAME":"中西區","LI":"中正里","LIN":"1鄰","STREET":"西門路","SECT":"二段","MAREA":" ","LANE":" ","ALLEY":" ","HOUSE_NO":"１４３號之２","E_COORD97":167827.88,"N_COORD97":2543743.2400000002,"ADDRESS":"西門路二段１４３號之２","OBJECTID":517411},"geometry":{"x":167827.88000000082,"y":2543743.2400000002}},{"attributes":{"ID":517439,"DIS_CODE":0,"TOWNNAME":"中西區","LI":"中正里","LIN":"1鄰","STREET":"西門路","SECT":"二段","MAREA":" ","LANE":" ","ALLEY":" ","HOUSE_NO":"１４７號","E_COORD97":167839,"N_COORD97":2543755.2400000002,"ADDRESS":"西門路二段１４７號","OBJECTID":517412},"geometry":{"x":167839.00000000093,"y":2543755.2400000039}},{"attributes":{"ID":517440,"DIS_CODE":0,"TOWNNAME":"中西區","LI":"中正里","LIN":"1鄰","STREET":"西門路","SECT":"二段","MAREA":" ","LANE":" ","ALLEY":" ","HOUSE_NO":"１４９號","E_COORD97":167839.62,"N_COORD97":2543757.6299999999,"ADDRESS":"西門路二段１４９號","OBJECTID":517413},"geometry":{"x":167839.62000000197,"y":2543757.6299999971}},{"attributes":{"ID":517441,"DIS_CODE":0,"TOWNNAME":"中西區","LI":"中正里","LIN":"1鄰","STREET":"西門路","SECT":"二段","MAREA":" ","LANE":" ","ALLEY":" ","HOUSE_NO":"１５１號","E_COORD97":167840.29999999999,"N_COORD97":2543759.7599999998,"ADDRESS":"西門路二段１５１號","OBJECTID":517414},"geometry":{"x":167840.30000000075,"y":2543759.7599999998}},{"attributes":{"ID":517442,"DIS_CODE":0,"TOWNNAME":"中西區","LI":"中正里","LIN":"1鄰","STREET":"西門路","SECT":"二段","MAREA":" ","LANE":" ","ALLEY":" ","HOUSE_NO":"１５３號","E_COORD97":167841.26000000001,"N_COORD97":2543762.2200000002,"ADDRESS":"西門路二段１５３號","OBJECTID":517415},"geometry":{"x":167841.25999999978,"y":2543762.2199999988}},{"attributes":{"ID":517443,"DIS_CODE":0,"TOWNNAME":"中西區","LI":"中正里","LIN":"1鄰","STREET":"西門路","SECT":"二段","MAREA":" ","LANE":" ","ALLEY":" ","HOUSE_NO":"１５５號","E_COORD97":167842.56,"N_COORD97":2543768.04,"ADDRESS":"西門路二段１５５號","OBJECTID":517416},"geometry":{"x":167842.55999999959,"y":2543768.0399999991}},{"attributes":{"ID":517444,"DIS_CODE":0,"TOWNNAME":"中西區","LI":"中正里","LIN":"1鄰","STREET":"西門路","SECT":"二段","MAREA":" ","LANE":" ","ALLEY":" ","HOUSE_NO":"１５７號","E_COORD97":167843.38,"N_COORD97":2543773.5699999998,"ADDRESS":"西門路二段１５７號","OBJECTID":517417},"geometry":{"x":167843.38000000082,"y":2543773.5700000022}},{"attributes":{"ID":517445,"DIS_CODE":0,"TOWNNAME":"中西區","LI":"中正里","LIN":"1鄰","STREET":"西門路","SECT":"二段","MAREA":" ","LANE":" ","ALLEY":" ","HOUSE_NO":"１５９號","E_COORD97":167843.85999999999,"N_COORD97":2543778.9100000001,"ADDRESS":"西門路二段１５９號","OBJECTID":517418},"geometry":{"x":167843.86000000127,"y":2543778.910000002}},{"attributes":{"ID":517446,"DIS_CODE":0,"TOWNNAME":"中西區","LI":"中正里","LIN":"1鄰","STREET":"西門路","SECT":"二段","MAREA":" ","LANE":" ","ALLEY":" ","HOUSE_NO":"１６５號","E_COORD97":167844.82000000001,"N_COORD97":2543783.2999999998,"ADDRESS":"西門路二段１６５號","OBJECTID":517419},"geometry":{"x":167844.8200000003,"y":2543783.3000000026}},{"attributes":{"ID":517447,"DIS_CODE":0,"TOWNNAME":"中西區","LI":"中正里","LIN":"1鄰","STREET":"西門路","SECT":"二段","MAREA":" ","LANE":" ","ALLEY":" ","HOUSE_NO":"１６７號","E_COORD97":167846.26000000001,"N_COORD97":2543787.6099999999,"ADDRESS":"西門路二段１６７號","OBJECTID":517420},"geometry":{"x":167846.25999999978,"y":2543787.6099999994}},{"attributes":{"ID":517448,"DIS_CODE":0,"TOWNNAME":"中西區","LI":"中正里","LIN":"1鄰","STREET":"西門路","SECT":"二段","MAREA":" ","LANE":" ","ALLEY":" ","HOUSE_NO":"１６９號","E_COORD97":167848.32000000001,"N_COORD97":2543794.8199999998,"ADDRESS":"西門路二段１６９號","OBJECTID":517421},"geometry":{"x":167848.3200000003,"y":2543794.8200000003}},{"attributes":{"ID":517449,"DIS_CODE":0,"TOWNNAME":"中西區","LI":"中正里","LIN":"1鄰","STREET":"西門路","SECT":"二段","MAREA":" ","LANE":" ","ALLEY":" ","HOUSE_NO":"１７１號","E_COORD97":167852.29000000001,"N_COORD97":2543810.3399999999,"ADDRESS":"西門路二段１７１號","OBJECTID":517422},"geometry":{"x":167852.29000000097,"y":2543810.3399999999}},{"attributes":{"ID":517450,"DIS_CODE":0,"TOWNNAME":"中西區","LI":"中正里","LIN":"1鄰","STREET":"西門路","SECT":"二段","MAREA":" ","LANE":" ","ALLEY":" ","HOUSE_NO":"１７３號","E_COORD97":167854.07000000001,"N_COORD97":2543814.7000000002,"ADDRESS":"西門路二段１７３號","OBJECTID":517423},"geometry":{"x":167854.07000000123,"y":2543814.6999999993}},{"attributes":{"ID":517451,"DIS_CODE":0,"TOWNNAME":"中西區","LI":"中正里","LIN":"1鄰","STREET":"西門路","SECT":"二段","MAREA":" ","LANE":" ","ALLEY":" ","HOUSE_NO":"１７５號","E_COORD97":167855.04000000001,"N_COORD97":2543818.6499999999,"ADDRESS":"西門路二段１７５號","OBJECTID":517424},"geometry":{"x":167855.04000000004,"y":2543818.6500000004}},{"attributes":{"ID":517452,"DIS_CODE":0,"TOWNNAME":"中西區","LI":"保安里","LIN":"1鄰","STREET":"尊王路","SECT":" ","MAREA":" ","LANE":" ","ALLEY":" ","HOUSE_NO":"３０號","E_COORD97":167706.89000000001,"N_COORD97":2543565.23,"ADDRESS":"尊王路３０號","OBJECTID":517425},"geometry":{"x":167706.89000000153,"y":2543565.2299999986}},{"attributes":{"ID":517453,"DIS_CODE":0,"TOWNNAME":"中西區","LI":"保安里","LIN":"1鄰","STREET":"尊王路","SECT":" ","MAREA":" ","LANE":" ","ALLEY":" ","HOUSE_NO":"２８號","E_COORD97":167710.16,"N_COORD97":2543564.0299999998,"ADDRESS":"尊王路２８號","OBJECTID":517426},"geometry":{"x":167710.16000000015,"y":2543564.0299999993}},{"attributes":{"ID":517454,"DIS_CODE":0,"TOWNNAME":"中西區","LI":"保安里","LIN":"1鄰","STREET":"尊王路","SECT":" ","MAREA":" ","LANE":" ","ALLEY":" ","HOUSE_NO":"１２號","E_COORD97":167737.44,"N_COORD97":2543556.7400000002,"ADDRESS":"尊王路１２號","OBJECTID":517427},"geometry":{"x":167737.44000000041,"y":2543556.7400000002}},{"attributes":{"ID":517455,"DIS_CODE":0,"TOWNNAME":"中西區","LI":"元安里","LIN":"1鄰","STREET":"永華路","SECT":"一段","MAREA":" ","LANE":" ","ALLEY":" ","HOUSE_NO":"３０號","E_COORD97":167630.35000000001,"N_COORD97":2543129.52,"ADDRESS":"永華路一段３０號","OBJECTID":517428},"geometry":{"x":167630.34999999963,"y":2543129.5200000014}},{"attributes":{"ID":517456,"DIS_CODE":0,"TOWNNAME":"中西區","LI":"水仙里","LIN":"1鄰","STREET":"民生路","SECT":"二段","MAREA":" ","LANE":" ","ALLEY":" ","HOUSE_NO":"２４號","E_COORD97":167827.47,"N_COORD97":2543940.04,"ADDRESS":"民生路二段２４號","OBJECTID":517429},"geometry":{"x":167827.47000000067,"y":2543940.0399999991}},{"attributes":{"ID":517457,"DIS_CODE":0,"TOWNNAME":"中西區","LI":"三合里","LIN":"1鄰","STREET":"民族路","SECT":"三段","MAREA":" ","LANE":" ","ALLEY":" ","HOUSE_NO":"１１０號","E_COORD97":167685.82000000001,"N_COORD97":2544351.8500000001,"ADDRESS":"民族路三段１１０號","OBJECTID":517430},"geometry":{"x":167685.81999999937,"y":2544351.8500000015}},{"attributes":{"ID":517458,"DIS_CODE":0,"TOWNNAME":"中西區","LI":"大涼里","LIN":"1鄰","STREET":"中正路","SECT":" ","MAREA":" ","LANE":" ","ALLEY":" ","HOUSE_NO":"３４３號之２５","E_COORD97":167240.92999999999,"N_COORD97":2543819.3799999999,"ADDRESS":"中正路３４３號之２５","OBJECTID":517431},"geometry":{"x":167240.93000000063,"y":2543819.379999999}},{"attributes":{"ID":517459,"DIS_CODE":0,"TOWNNAME":"安南區","LI":"溪頂里","LIN":"1鄰","STREET":"文安街","SECT":" ","MAREA":" ","LANE":" ","ALLEY":" ","HOUSE_NO":"１３４號","E_COORD97":169073.35000000001,"N_COORD97":2547438.8999999999,"ADDRESS":"文安街１３４號","OBJECTID":517432},"geometry":{"x":169073.35000000149,"y":2547438.9000000004}},{"attributes":{"ID":517460,"DIS_CODE":0,"TOWNNAME":"安南區","LI":"溪頂里","LIN":"1鄰","STREET":"文安街","SECT":" ","MAREA":" ","LANE":" ","ALLEY":" ","HOUSE_NO":"１３６號","E_COORD97":169065.75,"N_COORD97":2547438.3300000001,"ADDRESS":"文安街１３６號","OBJECTID":517433},"geometry":{"x":169065.75,"y":2547438.3300000001}},{"attributes":{"ID":517461,"DIS_CODE":0,"TOWNNAME":"安南區","LI":"溪頂里","LIN":"1鄰","STREET":"文安街","SECT":" ","MAREA":" ","LANE":" ","ALLEY":" ","HOUSE_NO":"１４１號","E_COORD97":169086.38,"N_COORD97":2547416.3300000001,"ADDRESS":"文安街１４１號","OBJECTID":517434},"geometry":{"x":169086.37999999989,"y":2547416.3300000019}},{"attributes":{"ID":517462,"DIS_CODE":0,"TOWNNAME":"安南區","LI":"溪頂里","LIN":"1鄰","STREET":"文安街","SECT":" ","MAREA":" ","LANE":" ","ALLEY":" ","HOUSE_NO":"１４３號","E_COORD97":169074.79000000001,"N_COORD97":2547415.4500000002,"ADDRESS":"文安街１４３號","OBJECTID":517435},"geometry":{"x":169074.79000000097,"y":2547415.4500000011}},{"attributes":{"ID":517463,"DIS_CODE":0,"TOWNNAME":"安南區","LI":"溪頂里","LIN":"1鄰","STREET":"文安街","SECT":" ","MAREA":" ","LANE":" ","ALLEY":" ","HOUSE_NO":"１４４號","E_COORD97":169023.06,"N_COORD97":2547430.77,"ADDRESS":"文安街１４４號","OBJECTID":517436},"geometry":{"x":169023.06000000052,"y":2547430.7700000014}},{"attributes":{"ID":517464,"DIS_CODE":0,"TOWNNAME":"安南區","LI":"溪頂里","LIN":"1鄰","STREET":"文安街","SECT":" ","MAREA":" ","LANE":" ","ALLEY":" ","HOUSE_NO":"１４５號","E_COORD97":169067.23000000001,"N_COORD97":2547414.1899999999,"ADDRESS":"文安街１４５號","OBJECTID":517437},"geometry":{"x":169067.23000000138,"y":2547414.1900000013}},{"attributes":{"ID":517465,"DIS_CODE":0,"TOWNNAME":"安南區","LI":"溪頂里","LIN":"1鄰","STREET":"文安街","SECT":" ","MAREA":" ","LANE":" ","ALLEY":" ","HOUSE_NO":"１４９號","E_COORD97":169050.62,"N_COORD97":2547413.75,"ADDRESS":"文安街１４９號","OBJECTID":517438},"geometry":{"x":169050.62000000104,"y":2547413.7500000019}},{"attributes":{"ID":517466,"DIS_CODE":0,"TOWNNAME":"安南區","LI":"溪頂里","LIN":"1鄰","STREET":"文安街","SECT":" ","MAREA":" ","LANE":" ","ALLEY":" ","HOUSE_NO":"１５１號","E_COORD97":169041.88,"N_COORD97":2547412.9500000002,"ADDRESS":"文安街１５１號","OBJECTID":517439},"geometry":{"x":169041.88000000082,"y":2547412.9499999993}},{"attributes":{"ID":517467,"DIS_CODE":0,"TOWNNAME":"安南區","LI":"淵東里","LIN":"1鄰","STREET":"海佃路","SECT":"四段","MAREA":" ","LANE":" ","ALLEY":" ","HOUSE_NO":"１０之４號","E_COORD97":165791.51999999999,"N_COORD97":2550500.8399999999,"ADDRESS":"海佃路四段１０之４號","OBJECTID":517440},"geometry":{"x":165791.51999999955,"y":2550500.8400000036}},{"attributes":{"ID":517468,"DIS_CODE":0,"TOWNNAME":"安南區","LI":"淵東里","LIN":"1鄰","STREET":"海佃路","SECT":"四段","MAREA":" ","LANE":" ","ALLEY":" ","HOUSE_NO":"１０之６號","E_COORD97":165790.88,"N_COORD97":2550506.8700000001,"ADDRESS":"海佃路四段１０之６號","OBJECTID":517441},"geometry":{"x":165790.87999999989,"y":2550506.8700000029}},{"attributes":{"ID":517469,"DIS_CODE":0,"TOWNNAME":"安南區","LI":"鳳凰里","LIN":"1鄰","STREET":"北安路","SECT":"三段","MAREA":" ","LANE":" ","ALLEY":" ","HOUSE_NO":"１４１號","E_COORD97":168290.73493100001,"N_COORD97":2549018.2886100002,"ADDRESS":"北安路三段１４１號","OBJECTID":517442},"geometry":{"x":168290.73493099958,"y":2549018.2886090018}},{"attributes":{"ID":517470,"DIS_CODE":0,"TOWNNAME":"安南區","LI":"鳳凰里","LIN":"1鄰","STREET":"北安路","SECT":"三段","MAREA":" ","LANE":" ","ALLEY":" ","HOUSE_NO":"１４３號","E_COORD97":168292.42879500001,"N_COORD97":2549022.73361,"ADDRESS":"北安路三段１４３號","OBJECTID":517443},"geometry":{"x":168292.42879500054,"y":2549022.7336060014}},{"attributes":{"ID":517471,"DIS_CODE":0,"TOWNNAME":"安南區","LI":"淵中里","LIN":"1鄰","STREET":"安中路","SECT":"三段","MAREA":" ","LANE":" ","ALLEY":" ","HOUSE_NO":"３４９號","E_COORD97":165575.17000000001,"N_COORD97":2549910.71,"ADDRESS":"安中路三段３４９號","OBJECTID":517444},"geometry":{"x":165575.17000000086,"y":2549910.7100000028}},{"attributes":{"ID":517472,"DIS_CODE":0,"TOWNNAME":"安南區","LI":"淵中里","LIN":"1鄰","STREET":"安中路","SECT":"三段","MAREA":" ","LANE":" ","ALLEY":" ","HOUSE_NO":"３５１號","E_COORD97":165570.48999999999,"N_COORD97":2549912.0699999998,"ADDRESS":"安中路三段３５１號","OBJECTID":517445},"geometry":{"x":165570.49000000022,"y":2549912.0700000003}},{"attributes":{"ID":517473,"DIS_CODE":0,"TOWNNAME":"安南區","LI":"淵中里","LIN":"1鄰","STREET":"安中路","SECT":"三段","MAREA":" ","LANE":" ","ALLEY":" ","HOUSE_NO":"３５３號","E_COORD97":165566.64000000001,"N_COORD97":2549912.8999999999,"ADDRESS":"安中路三段３５３號","OBJECTID":517446},"geometry":{"x":165566.6400000006,"y":2549912.9000000004}},{"attributes":{"ID":517474,"DIS_CODE":0,"TOWNNAME":"安南區","LI":"淵中里","LIN":"1鄰","STREET":"安中路","SECT":"三段","MAREA":" ","LANE":" ","ALLEY":" ","HOUSE_NO":"３５５號","E_COORD97":165562.48000000001,"N_COORD97":2549913.8799999999,"ADDRESS":"安中路三段３５５號","OBJECTID":517447},"geometry":{"x":165562.48000000045,"y":2549913.8800000008}},{"attributes":{"ID":517475,"DIS_CODE":0,"TOWNNAME":"安南區","LI":"淵中里","LIN":"1鄰","STREET":"安中路","SECT":"三段","MAREA":" ","LANE":" ","ALLEY":" ","HOUSE_NO":"３５７號","E_COORD97":165558.32999999999,"N_COORD97":2549914.7799999998,"ADDRESS":"安中路三段３５７號","OBJECTID":517448},"geometry":{"x":165558.33000000101,"y":2549914.7800000012}},{"attributes":{"ID":517476,"DIS_CODE":0,"TOWNNAME":"安南區","LI":"淵中里","LIN":"1鄰","STREET":"安中路","SECT":"三段","MAREA":" ","LANE":" ","ALLEY":" ","HOUSE_NO":"３５９號","E_COORD97":165554.10000000001,"N_COORD97":2549915.8399999999,"ADDRESS":"安中路三段３５９號","OBJECTID":517449},"geometry":{"x":165554.0999999987,"y":2549915.8400000017}},{"attributes":{"ID":517477,"DIS_CODE":0,"TOWNNAME":"安南區","LI":"淵中里","LIN":"1鄰","STREET":"安中路","SECT":"三段","MAREA":" ","LANE":" ","ALLEY":" ","HOUSE_NO":"３６１號","E_COORD97":165550.03,"N_COORD97":2549916.5899999999,"ADDRESS":"安中路三段３６１號","OBJECTID":517450},"geometry":{"x":165550.03000000026,"y":2549916.5900000017}},{"attributes":{"ID":517478,"DIS_CODE":0,"TOWNNAME":"安南區","LI":"淵中里","LIN":"1鄰","STREET":"樂安一街","SECT":" ","MAREA":" ","LANE":" ","ALLEY":" ","HOUSE_NO":"２２０號","E_COORD97":165565.57000000001,"N_COORD97":2549869.0600000001,"ADDRESS":"樂安一街２２０號","OBJECTID":517451},"geometry":{"x":165565.57000000123,"y":2549869.0600000005}},{"attributes":{"ID":517479,"DIS_CODE":0,"TOWNNAME":"安南區","LI":"淵中里","LIN":"1鄰","STREET":"樂安一街","SECT":" ","MAREA":" ","LANE":" ","ALLEY":" ","HOUSE_NO":"２２２號","E_COORD97":165561.04000000001,"N_COORD97":2549870.3500000001,"ADDRESS":"樂安一街２２２號","OBJECTID":517452},"geometry":{"x":165561.04000000004,"y":2549870.3500000015}},{"attributes":{"ID":517480,"DIS_CODE":0,"TOWNNAME":"安南區","LI":"淵中里","LIN":"1鄰","STREET":"樂安一街","SECT":" ","MAREA":" ","LANE":" ","ALLEY":" ","HOUSE_NO":"２２４號","E_COORD97":165556.51000000001,"N_COORD97":2549871.3300000001,"ADDRESS":"樂安一街２２４號","OBJECTID":517453},"geometry":{"x":165556.50999999885,"y":2549871.3300000019}},{"attributes":{"ID":517481,"DIS_CODE":0,"TOWNNAME":"安南區","LI":"淵中里","LIN":"1鄰","STREET":"樂安一街","SECT":" ","MAREA":" ","LANE":" ","ALLEY":" ","HOUSE_NO":"２２６號","E_COORD97":165552.95999999999,"N_COORD97":2549872.6099999999,"ADDRESS":"樂安一街２２６號","OBJECTID":517454},"geometry":{"x":165552.95999999996,"y":2549872.6100000013}},{"attributes":{"ID":517482,"DIS_CODE":0,"TOWNNAME":"安南區","LI":"淵中里","LIN":"1鄰","STREET":"樂安一街","SECT":" ","MAREA":" ","LANE":" ","ALLEY":" ","HOUSE_NO":"２２８號","E_COORD97":165548.13,"N_COORD97":2549873.21,"ADDRESS":"樂安一街２２８號","OBJECTID":517455},"geometry":{"x":165548.13000000082,"y":2549873.2100000028}},{"attributes":{"ID":517483,"DIS_CODE":0,"TOWNNAME":"安南區","LI":"淵中里","LIN":"1鄰","STREET":"樂安一街","SECT":" ","MAREA":" ","LANE":" ","ALLEY":" ","HOUSE_NO":"２３０號","E_COORD97":165544.28,"N_COORD97":2549874.3399999999,"ADDRESS":"樂安一街２３０號","OBJECTID":517456},"geometry":{"x":165544.28000000119,"y":2549874.3400000017}},{"attributes":{"ID":517484,"DIS_CODE":0,"TOWNNAME":"安南區","LI":"淵中里","LIN":"1鄰","STREET":"樂安一街","SECT":" ","MAREA":" ","LANE":" ","ALLEY":" ","HOUSE_NO":"２３２號","E_COORD97":165539.89999999999,"N_COORD97":2549875.02,"ADDRESS":"樂安一街２３２號","OBJECTID":517457},"geometry":{"x":165539.9000000013,"y":2549875.0199999996}},{"attributes":{"ID":517485,"DIS_CODE":0,"TOWNNAME":"安南區","LI":"淵中里","LIN":"1鄰","STREET":"樂安一街","SECT":" ","MAREA":" ","LANE":" ","ALLEY":" ","HOUSE_NO":"２３４號","E_COORD97":165535.89999999999,"N_COORD97":2549876.46,"ADDRESS":"樂安一街２３４號","OBJECTID":517458},"geometry":{"x":165535.89999999944,"y":2549876.4600000009}},{"attributes":{"ID":517486,"DIS_CODE":0,"TOWNNAME":"安南區","LI":"淵中里","LIN":"1鄰","STREET":"樂安一街","SECT":" ","MAREA":" ","LANE":" ","ALLEY":" ","HOUSE_NO":"２３６號","E_COORD97":165532.04999999999,"N_COORD97":2549877.21,"ADDRESS":"樂安一街２３６號","OBJECTID":517459},"geometry":{"x":165532.04999999981,"y":2549877.2100000028}},{"attributes":{"ID":517487,"DIS_CODE":0,"TOWNNAME":"安南區","LI":"淵中里","LIN":"1鄰","STREET":"樂安一街","SECT":" ","MAREA":" ","LANE":" ","ALLEY":" ","HOUSE_NO":"２３８號","E_COORD97":165527.29000000001,"N_COORD97":2549878.4900000002,"ADDRESS":"樂安一街２３８號","OBJECTID":517460},"geometry":{"x":165527.29000000004,"y":2549878.4900000002}},{"attributes":{"ID":517488,"DIS_CODE":0,"TOWNNAME":"安南區","LI":"淵中里","LIN":"1鄰","STREET":"樂安二街","SECT":" ","MAREA":" ","LANE":" ","ALLEY":" ","HOUSE_NO":"１５０號","E_COORD97":165699.20000000001,"N_COORD97":2549774.5,"ADDRESS":"樂安二街１５０號","OBJECTID":517461},"geometry":{"x":165699.20000000019,"y":2549774.5000000037}},{"attributes":{"ID":517489,"DIS_CODE":0,"TOWNNAME":"安南區","LI":"淵中里","LIN":"1鄰","STREET":"樂安二街","SECT":" ","MAREA":" ","LANE":" ","ALLEY":" ","HOUSE_NO":"１５２號","E_COORD97":165695.44,"N_COORD97":2549775.6600000001,"ADDRESS":"樂安二街１５２號","OBJECTID":517462},"geometry":{"x":165695.44000000134,"y":2549775.6600000001}},{"attributes":{"ID":517490,"DIS_CODE":0,"TOWNNAME":"安南區","LI":"淵中里","LIN":"1鄰","STREET":"樂安二街","SECT":" ","MAREA":" ","LANE":" ","ALLEY":" ","HOUSE_NO":"１５４號","E_COORD97":165691.10999999999,"N_COORD97":2549776.8199999998,"ADDRESS":"樂安二街１５４號","OBJECTID":517463},"geometry":{"x":165691.11000000127,"y":2549776.8200000022}},{"attributes":{"ID":517491,"DIS_CODE":0,"TOWNNAME":"安南區","LI":"新順里","LIN":"1鄰","STREET":"安豐五街","SECT":" ","MAREA":" ","LANE":" ","ALLEY":" ","HOUSE_NO":"４６號","E_COORD97":169515.92999999999,"N_COORD97":2549748.52,"ADDRESS":"安豐五街４６號","OBJECTID":517464},"geometry":{"x":169515.93000000063,"y":2549748.5199999996}},{"attributes":{"ID":517492,"DIS_CODE":0,"TOWNNAME":"安南區","LI":"新順里","LIN":"1鄰","STREET":"安豐五街","SECT":" ","MAREA":" ","LANE":" ","ALLEY":" ","HOUSE_NO":"５６號","E_COORD97":169536.66,"N_COORD97":2549740.7799999998,"ADDRESS":"安豐五街５６號","OBJECTID":517465},"geometry":{"x":169536.66000000108,"y":2549740.7799999993}},{"attributes":{"ID":517493,"DIS_CODE":0,"TOWNNAME":"安南區","LI":"新順里","LIN":"1鄰","STREET":"安豐五街","SECT":" ","MAREA":" ","LANE":" ","ALLEY":" ","HOUSE_NO":"６０號","E_COORD97":169531.66,"N_COORD97":2549749.52,"ADDRESS":"安豐五街６０號","OBJECTID":517466},"geometry":{"x":169531.66000000108,"y":2549749.5199999996}},{"attributes":{"ID":517494,"DIS_CODE":0,"TOWNNAME":"安南區","LI":"淵中里","LIN":"1鄰","STREET":"安中路","SECT":"三段","MAREA":" ","LANE":" ","ALLEY":" ","HOUSE_NO":"２８５號","E_COORD97":165701.95999999999,"N_COORD97":2549877.6299999999,"ADDRESS":"安中路三段２８５號","OBJECTID":517467},"geometry":{"x":165701.96000000089,"y":2549877.6300000027}},{"attributes":{"ID":517495,"DIS_CODE":0,"TOWNNAME":"安南區","LI":"新順里","LIN":"1鄰","STREET":"安豐五街","SECT":" ","MAREA":" ","LANE":" ","ALLEY":" ","HOUSE_NO":"３６號","E_COORD97":169494.70000000001,"N_COORD97":2549731.5499999998,"ADDRESS":"安豐五街３６號","OBJECTID":517468},"geometry":{"x":169494.70000000019,"y":2549731.5500000026}},{"attributes":{"ID":517496,"DIS_CODE":0,"TOWNNAME":"安南區","LI":"新順里","LIN":"1鄰","STREET":"安豐五街","SECT":" ","MAREA":" ","LANE":" ","ALLEY":" ","HOUSE_NO":"３８號","E_COORD97":169498.19,"N_COORD97":2549734.0499999998,"ADDRESS":"安豐五街３８號","OBJECTID":517469},"geometry":{"x":169498.19000000134,"y":2549734.0500000045}},{"attributes":{"ID":517497,"DIS_CODE":0,"TOWNNAME":"安南區","LI":"鳳凰里","LIN":"1鄰","STREET":"北安路","SECT":"三段","MAREA":" ","LANE":" ","ALLEY":" ","HOUSE_NO":"１４９號","E_COORD97":168294.546126,"N_COORD97":2549045.17026,"ADDRESS":"北安路三段１４９號","OBJECTID":517470},"geometry":{"x":168294.54612599965,"y":2549045.1702609994}},{"attributes":{"ID":517498,"DIS_CODE":0,"TOWNNAME":"安南區","LI":"鳳凰里","LIN":"1鄰","STREET":"北安路","SECT":"三段","MAREA":" ","LANE":" ","ALLEY":" ","HOUSE_NO":"１４７號","E_COORD97":168294.12265999999,"N_COORD97":2549040.9369299999,"ADDRESS":"北安路三段１４７號","OBJECTID":517471},"geometry":{"x":168294.12265999988,"y":2549040.9369300008}},{"attributes":{"ID":517499,"DIS_CODE":0,"TOWNNAME":"安南區","LI":"新順里","LIN":"1鄰","STREET":"安豐五街","SECT":" ","MAREA":" ","LANE":" ","ALLEY":" ","HOUSE_NO":"４０號","E_COORD97":169502.19,"N_COORD97":2549736.54,"ADDRESS":"安豐五街４０號","OBJECTID":517472},"geometry":{"x":169502.19000000041,"y":2549736.540000001}},{"attributes":{"ID":517500,"DIS_CODE":0,"TOWNNAME":"安南區","LI":"新順里","LIN":"1鄰","STREET":"安豐五街","SECT":" ","MAREA":" ","LANE":" ","ALLEY":" ","HOUSE_NO":"４１號","E_COORD97":169535.91,"N_COORD97":2549784.96,"ADDRESS":"安豐五街４１號","OBJECTID":517473},"geometry":{"x":169535.91000000015,"y":2549784.9600000009}},{"attributes":{"ID":517501,"DIS_CODE":0,"TOWNNAME":"安南區","LI":"城中里","LIN":"1鄰","STREET":"安中路","SECT":"六段","MAREA":" ","LANE":" ","ALLEY":" ","HOUSE_NO":"５２９號","E_COORD97":160904.70000000001,"N_COORD97":2551349.9399999999,"ADDRESS":"安中路六段５２９號","OBJECTID":517474},"geometry":{"x":160904.70000000112,"y":2551349.9399999995}},{"attributes":{"ID":517502,"DIS_CODE":0,"TOWNNAME":"安南區","LI":"城東里","LIN":"1鄰","STREET":"安明路","SECT":"四段","MAREA":" ","LANE":" ","ALLEY":" ","HOUSE_NO":"７０７號之１","E_COORD97":161260.42999999999,"N_COORD97":2551834.1699999999,"ADDRESS":"安明路四段７０７號之１","OBJECTID":517475},"geometry":{"x":161260.43000000063,"y":2551834.1699999999}},{"attributes":{"ID":517503,"DIS_CODE":0,"TOWNNAME":"安南區","LI":"淵中里","LIN":"1鄰","STREET":"樂安一街","SECT":" ","MAREA":" ","LANE":" ","ALLEY":" ","HOUSE_NO":"１９７號","E_COORD97":165625.42999999999,"N_COORD97":2549828.6200000001,"ADDRESS":"樂安一街１９７號","OBJECTID":517476},"geometry":{"x":165625.43000000063,"y":2549828.6199999992}},{"attributes":{"ID":517504,"DIS_CODE":0,"TOWNNAME":"安南區","LI":"淵中里","LIN":"1鄰","STREET":"樂安一街","SECT":" ","MAREA":" ","LANE":" ","ALLEY":" ","HOUSE_NO":"１９９號","E_COORD97":165619.32999999999,"N_COORD97":2549829.6299999999,"ADDRESS":"樂安一街１９９號","OBJECTID":517477},"geometry":{"x":165619.33000000194,"y":2549829.629999999}},{"attributes":{"ID":517505,"DIS_CODE":0,"TOWNNAME":"安南區","LI":"淵中里","LIN":"1鄰","STREET":"樂安一街","SECT":" ","MAREA":" ","LANE":" ","ALLEY":" ","HOUSE_NO":"２０１號","E_COORD97":165614.01999999999,"N_COORD97":2549830.8599999999,"ADDRESS":"樂安一街２０１號","OBJECTID":517478},"geometry":{"x":165614.02000000142,"y":2549830.8599999994}},{"attributes":{"ID":517506,"DIS_CODE":0,"TOWNNAME":"安南區","LI":"淵中里","LIN":"1鄰","STREET":"樂安一街","SECT":" ","MAREA":" ","LANE":" ","ALLEY":" ","HOUSE_NO":"２０３號","E_COORD97":165608.48000000001,"N_COORD97":2549832.3199999998,"ADDRESS":"樂安一街２０３號","OBJECTID":517479},"geometry":{"x":165608.48000000231,"y":2549832.3200000003}},{"attributes":{"ID":517507,"DIS_CODE":0,"TOWNNAME":"安南區","LI":"淵中里","LIN":"1鄰","STREET":"樂安一街","SECT":" ","MAREA":" ","LANE":" ","ALLEY":" ","HOUSE_NO":"２０５號","E_COORD97":165602.78,"N_COORD97":2549833.3199999998,"ADDRESS":"樂安一街２０５號","OBJECTID":517480},"geometry":{"x":165602.78000000212,"y":2549833.3199999984}},{"attributes":{"ID":517508,"DIS_CODE":0,"TOWNNAME":"安南區","LI":"淵中里","LIN":"1鄰","STREET":"樂安一街","SECT":" ","MAREA":" ","LANE":" ","ALLEY":" ","HOUSE_NO":"２０７號","E_COORD97":165596.39000000001,"N_COORD97":2549834.3900000001,"ADDRESS":"樂安一街２０７號","OBJECTID":517481},"geometry":{"x":165596.39000000153,"y":2549834.3900000025}},{"attributes":{"ID":517509,"DIS_CODE":0,"TOWNNAME":"安南區","LI":"淵中里","LIN":"1鄰","STREET":"樂安一街","SECT":" ","MAREA":" ","LANE":" ","ALLEY":" ","HOUSE_NO":"２２９號","E_COORD97":165547.94,"N_COORD97":2549851.3300000001,"ADDRESS":"樂安一街２２９號","OBJECTID":517482},"geometry":{"x":165547.94000000134,"y":2549851.3300000019}},{"attributes":{"ID":517510,"DIS_CODE":0,"TOWNNAME":"安南區","LI":"淵中里","LIN":"1鄰","STREET":"樂安一街","SECT":" ","MAREA":" ","LANE":" ","ALLEY":" ","HOUSE_NO":"２３１號","E_COORD97":165544.32000000001,"N_COORD97":2549852.4100000001,"ADDRESS":"樂安一街２３１號","OBJECTID":517483},"geometry":{"x":165544.3200000003,"y":2549852.4100000001}},{"attributes":{"ID":517511,"DIS_CODE":0,"TOWNNAME":"安南區","LI":"淵中里","LIN":"1鄰","STREET":"樂安一街","SECT":" ","MAREA":" ","LANE":" ","ALLEY":" ","HOUSE_NO":"２３３號","E_COORD97":165540.14999999999,"N_COORD97":2549853.5899999999,"ADDRESS":"樂安一街２３３號","OBJECTID":517484},"geometry":{"x":165540.1500000013,"y":2549853.5899999999}},{"attributes":{"ID":517512,"DIS_CODE":0,"TOWNNAME":"安南區","LI":"淵中里","LIN":"1鄰","STREET":"樂安一街","SECT":" ","MAREA":" ","LANE":" ","ALLEY":" ","HOUSE_NO":"２３５號","E_COORD97":165536.14000000001,"N_COORD97":2549854.3599999999,"ADDRESS":"樂安一街２３５號","OBJECTID":517485},"geometry":{"x":165536.1400000006,"y":2549854.3599999994}},{"attributes":{"ID":517513,"DIS_CODE":0,"TOWNNAME":"安南區","LI":"淵中里","LIN":"1鄰","STREET":"樂安一街","SECT":" ","MAREA":" ","LANE":" ","ALLEY":" ","HOUSE_NO":"２３９號","E_COORD97":165528.14000000001,"N_COORD97":2549856.5899999999,"ADDRESS":"樂安一街２３９號","OBJECTID":517486},"geometry":{"x":165528.13999999966,"y":2549856.5900000017}},{"attributes":{"ID":517514,"DIS_CODE":0,"TOWNNAME":"安南區","LI":"淵中里","LIN":"1鄰","STREET":"樂安一街","SECT":" ","MAREA":" ","LANE":" ","ALLEY":" ","HOUSE_NO":"２４１號","E_COORD97":165523.60000000001,"N_COORD97":2549857.5899999999,"ADDRESS":"樂安一街２４１號","OBJECTID":517487},"geometry":{"x":165523.60000000149,"y":2549857.5899999999}},{"attributes":{"ID":517515,"DIS_CODE":0,"TOWNNAME":"安南區","LI":"淵中里","LIN":"1鄰","STREET":"樂安一街","SECT":" ","MAREA":" ","LANE":" ","ALLEY":" ","HOUSE_NO":"２４３號","E_COORD97":165519.59,"N_COORD97":2549858.9700000002,"ADDRESS":"樂安一街２４３號","OBJECTID":517488},"geometry":{"x":165519.59000000078,"y":2549858.9700000007}},{"attributes":{"ID":517516,"DIS_CODE":0,"TOWNNAME":"安南區","LI":"海東里","LIN":"1鄰","STREET":"海佃路","SECT":"二段","MAREA":" ","LANE":" ","ALLEY":" ","HOUSE_NO":"５５１號","E_COORD97":166627.34,"N_COORD97":2549321.6400000001,"ADDRESS":"海佃路二段５５１號","OBJECTID":517489},"geometry":{"x":166627.33999999985,"y":2549321.6400000006}},{"attributes":{"ID":517517,"DIS_CODE":0,"TOWNNAME":"安南區","LI":"淵中里","LIN":"1鄰","STREET":"樂安二街","SECT":" ","MAREA":" ","LANE":" ","ALLEY":" ","HOUSE_NO":"１６６號","E_COORD97":165662.76000000001,"N_COORD97":2549786.0600000001,"ADDRESS":"樂安二街１６６號","OBJECTID":517490},"geometry":{"x":165662.75999999978,"y":2549786.0600000024}},{"attributes":{"ID":517518,"DIS_CODE":0,"TOWNNAME":"安南區","LI":"淵中里","LIN":"1鄰","STREET":"樂安二街","SECT":" ","MAREA":" ","LANE":" ","ALLEY":" ","HOUSE_NO":"１６８號","E_COORD97":165653.79999999999,"N_COORD97":2549788.3700000001,"ADDRESS":"樂安二街１６８號","OBJECTID":517491},"geometry":{"x":165653.80000000075,"y":2549788.370000001}},{"attributes":{"ID":517519,"DIS_CODE":0,"TOWNNAME":"安南區","LI":"新順里","LIN":"1鄰","STREET":"安豐五街","SECT":" ","MAREA":" ","LANE":" ","ALLEY":" ","HOUSE_NO":"４２號","E_COORD97":169505.69,"N_COORD97":2549739.29,"ADDRESS":"安豐五街４２號","OBJECTID":517492},"geometry":{"x":169505.69000000041,"y":2549739.2899999991}},{"attributes":{"ID":517520,"DIS_CODE":0,"TOWNNAME":"安南區","LI":"新順里","LIN":"1鄰","STREET":"培安二街","SECT":" ","MAREA":" ","LANE":" ","ALLEY":" ","HOUSE_NO":"８號","E_COORD97":169396.51999999999,"N_COORD97":2549624.3100000001,"ADDRESS":"培安二街８號","OBJECTID":517493},"geometry":{"x":169396.52000000048,"y":2549624.3100000024}},{"attributes":{"ID":517521,"DIS_CODE":0,"TOWNNAME":"安南區","LI":"新順里","LIN":"1鄰","STREET":"安豐六街","SECT":" ","MAREA":" ","LANE":" ","ALLEY":" ","HOUSE_NO":"８５號","E_COORD97":169456.10000000001,"N_COORD97":2549689.3500000001,"ADDRESS":"安豐六街８５號","OBJECTID":517494},"geometry":{"x":169456.09999999963,"y":2549689.3499999996}},{"attributes":{"ID":517522,"DIS_CODE":0,"TOWNNAME":"安南區","LI":"新順里","LIN":"1鄰","STREET":"安生街","SECT":" ","MAREA":" ","LANE":" ","ALLEY":" ","HOUSE_NO":"１０８號","E_COORD97":169485.04000000001,"N_COORD97":2549568.6800000002,"ADDRESS":"安生街１０８號","OBJECTID":517495},"geometry":{"x":169485.04000000097,"y":2549568.6799999997}},{"attributes":{"ID":517523,"DIS_CODE":0,"TOWNNAME":"安南區","LI":"新順里","LIN":"1鄰","STREET":"安生街","SECT":" ","MAREA":" ","LANE":" ","ALLEY":" ","HOUSE_NO":"１１８號","E_COORD97":169463.63,"N_COORD97":2549579.2400000002,"ADDRESS":"安生街１１８號","OBJECTID":517496},"geometry":{"x":169463.63000000082,"y":2549579.2400000002}},{"attributes":{"ID":517524,"DIS_CODE":0,"TOWNNAME":"安南區","LI":"新順里","LIN":"1鄰","STREET":"安豐五街","SECT":" ","MAREA":" ","LANE":" ","ALLEY":" ","HOUSE_NO":"１３號","E_COORD97":169464.85999999999,"N_COORD97":2549727.3799999999,"ADDRESS":"安豐五街１３號","OBJECTID":517497},"geometry":{"x":169464.86000000034,"y":2549727.3800000008}},{"attributes":{"ID":517525,"DIS_CODE":0,"TOWNNAME":"安南區","LI":"新順里","LIN":"1鄰","STREET":"安豐五街","SECT":" ","MAREA":" ","LANE":" ","ALLEY":" ","HOUSE_NO":"５０號","E_COORD97":169522.67000000001,"N_COORD97":2549741.5299999998,"ADDRESS":"安豐五街５０號","OBJECTID":517498},"geometry":{"x":169522.67000000086,"y":2549741.5299999993}},{"attributes":{"ID":517526,"DIS_CODE":0,"TOWNNAME":"安南區","LI":"新順里","LIN":"1鄰","STREET":"安豐五街","SECT":" ","MAREA":" ","LANE":" ","ALLEY":" ","HOUSE_NO":"６２號","E_COORD97":169528.42000000001,"N_COORD97":2549753.0099999998,"ADDRESS":"安豐五街６２號","OBJECTID":517499},"geometry":{"x":169528.41999999993,"y":2549753.0099999998}},{"attributes":{"ID":517527,"DIS_CODE":0,"TOWNNAME":"安南區","LI":"新順里","LIN":"1鄰","STREET":"安豐六街","SECT":" ","MAREA":" ","LANE":" ","ALLEY":" ","HOUSE_NO":"７７號","E_COORD97":169438.23999999999,"N_COORD97":2549694.0600000001,"ADDRESS":"安豐六街７７號","OBJECTID":517500},"geometry":{"x":169438.24000000115,"y":2549694.0600000024}},{"attributes":{"ID":517528,"DIS_CODE":0,"TOWNNAME":"安南區","LI":"新順里","LIN":"1鄰","STREET":"安豐六街","SECT":" ","MAREA":" ","LANE":" ","ALLEY":" ","HOUSE_NO":"７９號","E_COORD97":169441.60999999999,"N_COORD97":2549693.0499999998,"ADDRESS":"安豐六街７９號","OBJECTID":517501},"geometry":{"x":169441.61000000034,"y":2549693.0500000007}},{"attributes":{"ID":517529,"DIS_CODE":0,"TOWNNAME":"安南區","LI":"新順里","LIN":"1鄰","STREET":"安豐六街","SECT":" ","MAREA":" ","LANE":" ","ALLEY":" ","HOUSE_NO":"８１號","E_COORD97":169446.66,"N_COORD97":2549691.7000000002,"ADDRESS":"安豐六街８１號","OBJECTID":517502},"geometry":{"x":169446.66000000108,"y":2549691.7000000011}},{"attributes":{"ID":517530,"DIS_CODE":0,"TOWNNAME":"安南區","LI":"新順里","LIN":"1鄰","STREET":"安豐六街","SECT":" ","MAREA":" ","LANE":" ","ALLEY":" ","HOUSE_NO":"８３號","E_COORD97":169451.38,"N_COORD97":2549690.3599999999,"ADDRESS":"安豐六街８３號","OBJECTID":517503},"geometry":{"x":169451.37999999896,"y":2549690.3600000013}},{"attributes":{"ID":517531,"DIS_CODE":0,"TOWNNAME":"新化區","LI":"護國里","LIN":"1鄰","STREET":"中正路","SECT":" ","MAREA":" ","LANE":" ","ALLEY":" ","HOUSE_NO":"４０４號","E_COORD97":179081.70999999999,"N_COORD97":2548451.25,"ADDRESS":"中正路４０４號","OBJECTID":517504},"geometry":{"x":179081.71000000089,"y":2548451.2500000019}},{"attributes":{"ID":517532,"DIS_CODE":0,"TOWNNAME":"新化區","LI":"中央里","LIN":"1鄰","STREET":"中正路","SECT":" ","MAREA":" ","LANE":" ","ALLEY":" ","HOUSE_NO":"４２３號","E_COORD97":179084.60999999999,"N_COORD97":2548372.25,"ADDRESS":"中正路４２３號","OBJECTID":517505},"geometry":{"x":179084.61000000127,"y":2548372.2499999981}},{"attributes":{"ID":517533,"DIS_CODE":0,"TOWNNAME":"新化區","LI":"中央里","LIN":"1鄰","STREET":"中正路","SECT":" ","MAREA":" ","LANE":" ","ALLEY":" ","HOUSE_NO":"４０９號","E_COORD97":179090.81,"N_COORD97":2548342.25,"ADDRESS":"中正路４０９號","OBJECTID":517506},"geometry":{"x":179090.81000000052,"y":2548342.2500000019}},{"attributes":{"ID":517534,"DIS_CODE":0,"TOWNNAME":"新化區","LI":"竹林里","LIN":"1鄰","STREET":"民權街","SECT":" ","MAREA":" ","LANE":" ","ALLEY":" ","HOUSE_NO":"６８號","E_COORD97":178760.76000000001,"N_COORD97":2548603.25,"ADDRESS":"民權街６８號","OBJECTID":517507},"geometry":{"x":178760.76000000071,"y":2548603.2500000019}},{"attributes":{"ID":517535,"DIS_CODE":0,"TOWNNAME":"新化區","LI":"竹林里","LIN":"1鄰","STREET":"民權街","SECT":" ","MAREA":" ","LANE":" ","ALLEY":" ","HOUSE_NO":"６０號","E_COORD97":178757.45999999999,"N_COORD97":2548573.25,"ADDRESS":"民權街６０號","OBJECTID":517508},"geometry":{"x":178757.45999999996,"y":2548573.2500000019}},{"attributes":{"ID":517536,"DIS_CODE":0,"TOWNNAME":"新化區","LI":"中央里","LIN":"1鄰","STREET":"中正路","SECT":" ","MAREA":" ","LANE":" ","ALLEY":" ","HOUSE_NO":"４１１號","E_COORD97":179089.81,"N_COORD97":2548347.25,"ADDRESS":"中正路４１１號","OBJECTID":517509},"geometry":{"x":179089.80999999959,"y":2548347.25}},{"attributes":{"ID":517537,"DIS_CODE":0,"TOWNNAME":"新化區","LI":"武安里","LIN":"1鄰","STREET":"中正路","SECT":" ","MAREA":" ","LANE":" ","ALLEY":" ","HOUSE_NO":"２０１號","E_COORD97":179078.81,"N_COORD97":2547597.25,"ADDRESS":"中正路２０１號","OBJECTID":517510},"geometry":{"x":179078.81000000052,"y":2547597.2500000019}},{"attributes":{"ID":517538,"DIS_CODE":0,"TOWNNAME":"新化區","LI":"中央里","LIN":"1鄰","STREET":"信義路","SECT":" ","MAREA":" ","LANE":" ","ALLEY":" ","HOUSE_NO":"２６８號","E_COORD97":179031.42999999999,"N_COORD97":2548312.25,"ADDRESS":"信義路２６８號","OBJECTID":517511},"geometry":{"x":179031.4299999997,"y":2548312.2500000019}},{"attributes":{"ID":517539,"DIS_CODE":0,"TOWNNAME":"新化區","LI":"觀音里","LIN":"1鄰","STREET":"中正路","SECT":" ","MAREA":" ","LANE":" ","ALLEY":" ","HOUSE_NO":"４６５號","E_COORD97":179058.01000000001,"N_COORD97":2548488.25,"ADDRESS":"中正路４６５號","OBJECTID":517512},"geometry":{"x":179058.00999999978,"y":2548488.2500000019}},{"attributes":{"ID":517540,"DIS_CODE":0,"TOWNNAME":"新化區","LI":"太平里","LIN":"1鄰","STREET":"仁愛街","SECT":" ","MAREA":" ","LANE":" ","ALLEY":" ","HOUSE_NO":"３８號之２","E_COORD97":179063.73999999999,"N_COORD97":2548600.2599999998,"ADDRESS":"仁愛街３８號之２","OBJECTID":517513},"geometry":{"x":179063.74000000022,"y":2548600.2600000016}},{"attributes":{"ID":517541,"DIS_CODE":0,"TOWNNAME":"新化區","LI":"太平里","LIN":"1鄰","STREET":"仁愛街","SECT":" ","MAREA":" ","LANE":" ","ALLEY":" ","HOUSE_NO":"３０號","E_COORD97":179102.28,"N_COORD97":2548627.25,"ADDRESS":"仁愛街３０號","OBJECTID":517514},"geometry":{"x":179102.28000000119,"y":2548627.2500000019}},{"attributes":{"ID":517542,"DIS_CODE":0,"TOWNNAME":"新化區","LI":"太平里","LIN":"1鄰","STREET":"中正路","SECT":" ","MAREA":" ","LANE":" ","ALLEY":" ","HOUSE_NO":"４８０號之１","E_COORD97":179030.14000000001,"N_COORD97":2548609.2599999998,"ADDRESS":"中正路４８０號之１","OBJECTID":517515},"geometry":{"x":179030.13999999966,"y":2548609.2599999979}},{"attributes":{"ID":517543,"DIS_CODE":0,"TOWNNAME":"佳里區","LI":"建南里","LIN":"1鄰","STREET":"義民街","SECT":" ","MAREA":" ","LANE":" ","ALLEY":" ","HOUSE_NO":"１８９號","E_COORD97":165642.51999999999,"N_COORD97":2562392.3799999999,"ADDRESS":"義民街１８９號","OBJECTID":517516},"geometry":{"x":165642.51999999955,"y":2562392.379999999}},{"attributes":{"ID":517544,"DIS_CODE":0,"TOWNNAME":"安南區","LI":"淵東里","LIN":"1鄰","STREET":"海佃路","SECT":"四段","MAREA":" ","LANE":" ","ALLEY":" ","HOUSE_NO":"２０號","E_COORD97":165768.97,"N_COORD97":2550518.9300000002,"ADDRESS":"海佃路四段２０號","OBJECTID":517517},"geometry":{"x":165768.97000000067,"y":2550518.9299999997}},{"attributes":{"ID":517545,"DIS_CODE":0,"TOWNNAME":"安南區","LI":"淵東里","LIN":"1鄰","STREET":"海佃路","SECT":"四段","MAREA":" ","LANE":" ","ALLEY":" ","HOUSE_NO":"２０之２號","E_COORD97":165759.12,"N_COORD97":2550528.1400000001,"ADDRESS":"海佃路四段２０之２號","OBJECTID":517518},"geometry":{"x":165759.12000000011,"y":2550528.1400000025}},{"attributes":{"ID":517546,"DIS_CODE":0,"TOWNNAME":"安南區","LI":"淵東里","LIN":"1鄰","STREET":"海佃路","SECT":"四段","MAREA":" ","LANE":" ","ALLEY":" ","HOUSE_NO":"７２號","E_COORD97":165702.42999999999,"N_COORD97":2550652.75,"ADDRESS":"海佃路四段７２號","OBJECTID":517519},"geometry":{"x":165702.4299999997,"y":2550652.75}},{"attributes":{"ID":517547,"DIS_CODE":0,"TOWNNAME":"安南區","LI":"淵東里","LIN":"1鄰","STREET":"海佃路","SECT":"四段","MAREA":" ","LANE":" ","ALLEY":" ","HOUSE_NO":"７０號","E_COORD97":165703.92000000001,"N_COORD97":2550644.9199999999,"ADDRESS":"海佃路四段７０號","OBJECTID":517520},"geometry":{"x":165703.92000000086,"y":2550644.9199999999}},{"attributes":{"ID":517548,"DIS_CODE":0,"TOWNNAME":"安南區","LI":"淵東里","LIN":"1鄰","STREET":"海佃路","SECT":"四段","MAREA":" ","LANE":" ","ALLEY":" ","HOUSE_NO":"７６號","E_COORD97":165701.38,"N_COORD97":2550658.6699999999,"ADDRESS":"海佃路四段７６號","OBJECTID":517521},"geometry":{"x":165701.37999999989,"y":2550658.6700000018}},{"attributes":{"ID":517549,"DIS_CODE":0,"TOWNNAME":"安南區","LI":"淵東里","LIN":"1鄰","STREET":"海佃路","SECT":"四段","MAREA":" ","LANE":" ","ALLEY":" ","HOUSE_NO":"７８號","E_COORD97":165700.53,"N_COORD97":2550662.9100000001,"ADDRESS":"海佃路四段７８號","OBJECTID":517522},"geometry":{"x":165700.53000000026,"y":2550662.9100000001}},{"attributes":{"ID":517550,"DIS_CODE":0,"TOWNNAME":"安南區","LI":"淵東里","LIN":"1鄰","STREET":"海佃路","SECT":"四段","MAREA":" ","LANE":" ","ALLEY":" ","HOUSE_NO":"８０號","E_COORD97":165699.67999999999,"N_COORD97":2550667.1400000001,"ADDRESS":"海佃路四段８０號","OBJECTID":517523},"geometry":{"x":165699.68000000063,"y":2550667.1400000025}},{"attributes":{"ID":517551,"DIS_CODE":0,"TOWNNAME":"安南區","LI":"淵東里","LIN":"1鄰","STREET":"海佃路","SECT":"四段","MAREA":" ","LANE":" ","ALLEY":" ","HOUSE_NO":"８２號","E_COORD97":165698.41,"N_COORD97":2550671.1600000001,"ADDRESS":"海佃路四段８２號","OBJECTID":517524},"geometry":{"x":165698.41000000201,"y":2550671.1600000001}},{"attributes":{"ID":517552,"DIS_CODE":0,"TOWNNAME":"安南區","LI":"淵東里","LIN":"1鄰","STREET":"海佃路","SECT":"四段","MAREA":" ","LANE":" ","ALLEY":" ","HOUSE_NO":"８６號","E_COORD97":165696.92999999999,"N_COORD97":2550674.9700000002,"ADDRESS":"海佃路四段８６號","OBJECTID":517525},"geometry":{"x":165696.93000000063,"y":2550674.9700000025}},{"attributes":{"ID":517553,"DIS_CODE":0,"TOWNNAME":"安南區","LI":"淵東里","LIN":"1鄰","STREET":"海佃路","SECT":"四段","MAREA":" ","LANE":" ","ALLEY":" ","HOUSE_NO":"８８號","E_COORD97":165696.29999999999,"N_COORD97":2550679.21,"ADDRESS":"海佃路四段８８號","OBJECTID":517526},"geometry":{"x":165696.29999999981,"y":2550679.2100000046}},{"attributes":{"ID":517554,"DIS_CODE":0,"TOWNNAME":"安南區","LI":"淵東里","LIN":"1鄰","STREET":"海佃路","SECT":"四段","MAREA":" ","LANE":" ","ALLEY":" ","HOUSE_NO":"９０號","E_COORD97":165695.45000000001,"N_COORD97":2550683.4399999999,"ADDRESS":"海佃路四段９０號","OBJECTID":517527},"geometry":{"x":165695.45000000112,"y":2550683.4400000013}},{"attributes":{"ID":517555,"DIS_CODE":0,"TOWNNAME":"安南區","LI":"淵東里","LIN":"1鄰","STREET":"海佃路","SECT":"四段","MAREA":" ","LANE":" ","ALLEY":" ","HOUSE_NO":"９２號","E_COORD97":165694.17999999999,"N_COORD97":2550687.25,"ADDRESS":"海佃路四段９２號","OBJECTID":517528},"geometry":{"x":165694.1799999997,"y":2550687.25}},{"attributes":{"ID":517556,"DIS_CODE":0,"TOWNNAME":"安南區","LI":"淵東里","LIN":"1鄰","STREET":"海佃路","SECT":"四段","MAREA":" ","LANE":" ","ALLEY":" ","HOUSE_NO":"９６號","E_COORD97":165693.12,"N_COORD97":2550692.54,"ADDRESS":"海佃路四段９６號","OBJECTID":517529},"geometry":{"x":165693.12000000011,"y":2550692.540000001}},{"attributes":{"ID":517557,"DIS_CODE":0,"TOWNNAME":"安南區","LI":"淵東里","LIN":"1鄰","STREET":"海佃路","SECT":"四段","MAREA":" ","LANE":" ","ALLEY":" ","HOUSE_NO":"９８號","E_COORD97":165692.48999999999,"N_COORD97":2550695.29,"ADDRESS":"海佃路四段９８號","OBJECTID":517530},"geometry":{"x":165692.49000000022,"y":2550695.290000001}},{"attributes":{"ID":517558,"DIS_CODE":0,"TOWNNAME":"安南區","LI":"淵東里","LIN":"1鄰","STREET":"海佃路","SECT":"四段","MAREA":" ","LANE":" ","ALLEY":" ","HOUSE_NO":"１００號","E_COORD97":165690.79000000001,"N_COORD97":2550699.9500000002,"ADDRESS":"海佃路四段１００號","OBJECTID":517531},"geometry":{"x":165690.79000000097,"y":2550699.9500000011}},{"attributes":{"ID":517559,"DIS_CODE":0,"TOWNNAME":"安南區","LI":"淵東里","LIN":"1鄰","STREET":"海佃路","SECT":"四段","MAREA":" ","LANE":" ","ALLEY":" ","HOUSE_NO":"１０２號","E_COORD97":165689.73000000001,"N_COORD97":2550703.7599999998,"ADDRESS":"海佃路四段１０２號","OBJECTID":517532},"geometry":{"x":165689.73000000231,"y":2550703.7599999998}},{"attributes":{"ID":517560,"DIS_CODE":0,"TOWNNAME":"安南區","LI":"淵東里","LIN":"1鄰","STREET":"海佃路","SECT":"四段","MAREA":" ","LANE":" ","ALLEY":" ","HOUSE_NO":"１０２之１號","E_COORD97":165689.10000000001,"N_COORD97":2550707.3599999999,"ADDRESS":"海佃路四段１０２之１號","OBJECTID":517533},"geometry":{"x":165689.09999999963,"y":2550707.3600000013}},{"attributes":{"ID":517561,"DIS_CODE":0,"TOWNNAME":"安南區","LI":"淵東里","LIN":"1鄰","STREET":"海佃路","SECT":"四段","MAREA":" ","LANE":" ","ALLEY":" ","HOUSE_NO":"１０６號","E_COORD97":165687.62,"N_COORD97":2550710.5299999998,"ADDRESS":"海佃路四段１０６號","OBJECTID":517534},"geometry":{"x":165687.62000000104,"y":2550710.5300000012}},{"attributes":{"ID":517562,"DIS_CODE":0,"TOWNNAME":"安南區","LI":"淵東里","LIN":"1鄰","STREET":"海佃路","SECT":"四段","MAREA":" ","LANE":" ","ALLEY":" ","HOUSE_NO":"１０８號","E_COORD97":165686.76999999999,"N_COORD97":2550713.0699999998,"ADDRESS":"海佃路四段１０８號","OBJECTID":517535},"geometry":{"x":165686.76999999862,"y":2550713.0699999984}},{"attributes":{"ID":517563,"DIS_CODE":0,"TOWNNAME":"安南區","LI":"淵東里","LIN":"1鄰","STREET":"海佃路","SECT":"四段","MAREA":" ","LANE":" ","ALLEY":" ","HOUSE_NO":"１１０號","E_COORD97":165686.56,"N_COORD97":2550716.25,"ADDRESS":"海佃路四段１１０號","OBJECTID":517536},"geometry":{"x":165686.55999999866,"y":2550716.2500000019}},{"attributes":{"ID":517564,"DIS_CODE":0,"TOWNNAME":"安南區","LI":"淵東里","LIN":"1鄰","STREET":"海佃路","SECT":"四段","MAREA":" ","LANE":" ","ALLEY":" ","HOUSE_NO":"１１２號","E_COORD97":165686.14000000001,"N_COORD97":2550721.1200000001,"ADDRESS":"海佃路四段１１２號","OBJECTID":517537},"geometry":{"x":165686.14000000153,"y":2550721.1200000029}},{"attributes":{"ID":517565,"DIS_CODE":0,"TOWNNAME":"安南區","LI":"淵東里","LIN":"1鄰","STREET":"海佃路","SECT":"四段","MAREA":" ","LANE":" ","ALLEY":" ","HOUSE_NO":"１１２之１號","E_COORD97":165683.38,"N_COORD97":2550725.1400000001,"ADDRESS":"海佃路四段１１２之１號","OBJECTID":517538},"geometry":{"x":165683.38000000082,"y":2550725.1400000006}},{"attributes":{"ID":517566,"DIS_CODE":0,"TOWNNAME":"安南區","LI":"淵東里","LIN":"1鄰","STREET":"海佃路","SECT":"四段","MAREA":" ","LANE":" ","ALLEY":" ","HOUSE_NO":"１１６號","E_COORD97":165683.17000000001,"N_COORD97":2550729.1600000001,"ADDRESS":"海佃路四段１１６號","OBJECTID":517539},"geometry":{"x":165683.17000000086,"y":2550729.1600000001}},{"attributes":{"ID":517567,"DIS_CODE":0,"TOWNNAME":"安南區","LI":"安和里","LIN":"1鄰","STREET":"安和路","SECT":"一段","MAREA":" ","LANE":" ","ALLEY":" ","HOUSE_NO":"２０之６號","E_COORD97":169576.67000000001,"N_COORD97":2547396.6699999999,"ADDRESS":"安和路一段２０之６號","OBJECTID":517540},"geometry":{"x":169576.67000000179,"y":2547396.6700000037}},{"attributes":{"ID":517568,"DIS_CODE":0,"TOWNNAME":"安南區","LI":"大安里","LIN":"1鄰","STREET":"海佃路","SECT":"二段","MAREA":" ","LANE":" ","ALLEY":" ","HOUSE_NO":"２４之２號","E_COORD97":167042.82000000001,"N_COORD97":2547842.8700000001,"ADDRESS":"海佃路二段２４之２號","OBJECTID":517541},"geometry":{"x":167042.8200000003,"y":2547842.870000001}},{"attributes":{"ID":517569,"DIS_CODE":0,"TOWNNAME":"南區","LI":"光明里","LIN":"1鄰","STREET":"利南街","SECT":" ","MAREA":" ","LANE":" ","ALLEY":" ","HOUSE_NO":"１４３號","E_COORD97":166785.37,"N_COORD97":2541361.1600000001,"ADDRESS":"利南街１４３號","OBJECTID":517542},"geometry":{"x":166785.37000000197,"y":2541361.1600000001}},{"attributes":{"ID":517570,"DIS_CODE":0,"TOWNNAME":"南區","LI":"光明里","LIN":"1鄰","STREET":"利南街","SECT":" ","MAREA":" ","LANE":" ","ALLEY":" ","HOUSE_NO":"１４５號","E_COORD97":166789.98000000001,"N_COORD97":2541361.0699999998,"ADDRESS":"利南街１４５號","OBJECTID":517543},"geometry":{"x":166789.98000000231,"y":2541361.0700000003}},{"attributes":{"ID":517571,"DIS_CODE":0,"TOWNNAME":"南區","LI":"光明里","LIN":"1鄰","STREET":"利南街","SECT":" ","MAREA":" ","LANE":" ","ALLEY":" ","HOUSE_NO":"１４７號","E_COORD97":166794.31,"N_COORD97":2541360.9700000002,"ADDRESS":"利南街１４７號","OBJECTID":517544},"geometry":{"x":166794.31000000052,"y":2541360.9700000025}},{"attributes":{"ID":517572,"DIS_CODE":0,"TOWNNAME":"南區","LI":"光明里","LIN":"1鄰","STREET":"利南街","SECT":" ","MAREA":" ","LANE":" ","ALLEY":" ","HOUSE_NO":"１４９號","E_COORD97":166798.82999999999,"N_COORD97":2541360.8799999999,"ADDRESS":"利南街１４９號","OBJECTID":517545},"geometry":{"x":166798.83000000007,"y":2541360.879999999}},{"attributes":{"ID":517573,"DIS_CODE":0,"TOWNNAME":"南區","LI":"再興里","LIN":"1鄰","STREET":"三官路","SECT":" ","MAREA":" ","LANE":" ","ALLEY":" ","HOUSE_NO":"６號","E_COORD97":167328.09,"N_COORD97":2542417.3300000001,"ADDRESS":"三官路６號","OBJECTID":517546},"geometry":{"x":167328.09000000078,"y":2542417.3300000001}},{"attributes":{"ID":517574,"DIS_CODE":0,"TOWNNAME":"南區","LI":"再興里","LIN":"1鄰","STREET":"健康路","SECT":"二段","MAREA":" ","LANE":" ","ALLEY":" ","HOUSE_NO":"１４１號","E_COORD97":167332.34,"N_COORD97":2542450.02,"ADDRESS":"健康路二段１４１號","OBJECTID":517547},"geometry":{"x":167332.33999999985,"y":2542450.0199999996}},{"attributes":{"ID":517575,"DIS_CODE":0,"TOWNNAME":"南區","LI":"再興里","LIN":"1鄰","STREET":"健康路","SECT":"二段","MAREA":" ","LANE":" ","ALLEY":" ","HOUSE_NO":"１４３號","E_COORD97":167326.51999999999,"N_COORD97":2542450.4399999999,"ADDRESS":"健康路二段１４３號","OBJECTID":517548},"geometry":{"x":167326.52000000048,"y":2542450.4399999995}},{"attributes":{"ID":517576,"DIS_CODE":0,"TOWNNAME":"南區","LI":"再興里","LIN":"1鄰","STREET":"健康路","SECT":"二段","MAREA":" ","LANE":" ","ALLEY":" ","HOUSE_NO":"１４５號","E_COORD97":167319.75,"N_COORD97":2542451.0800000001,"ADDRESS":"健康路二段１４５號","OBJECTID":517549},"geometry":{"x":167319.75,"y":2542451.0800000019}},{"attributes":{"ID":517577,"DIS_CODE":0,"TOWNNAME":"南區","LI":"再興里","LIN":"1鄰","STREET":"健康路","SECT":"二段","MAREA":" ","LANE":" ","ALLEY":" ","HOUSE_NO":"１４９號","E_COORD97":167312.98000000001,"N_COORD97":2542451.3900000001,"ADDRESS":"健康路二段１４９號","OBJECTID":517550},"geometry":{"x":167312.98000000045,"y":2542451.3900000006}},{"attributes":{"ID":517578,"DIS_CODE":0,"TOWNNAME":"南區","LI":"再興里","LIN":"1鄰","STREET":"健康路","SECT":"二段","MAREA":" ","LANE":" ","ALLEY":" ","HOUSE_NO":"１５１號","E_COORD97":167308.54000000001,"N_COORD97":2542451.8100000001,"ADDRESS":"健康路二段１５１號","OBJECTID":517551},"geometry":{"x":167308.54000000097,"y":2542451.8100000005}},{"attributes":{"ID":517579,"DIS_CODE":0,"TOWNNAME":"南區","LI":"再興里","LIN":"1鄰","STREET":"健康路","SECT":"二段","MAREA":" ","LANE":" ","ALLEY":" ","HOUSE_NO":"１５５號","E_COORD97":167298.91,"N_COORD97":2542452.0299999998,"ADDRESS":"健康路二段１５５號","OBJECTID":517552},"geometry":{"x":167298.91000000108,"y":2542452.0299999993}},{"attributes":{"ID":517580,"DIS_CODE":0,"TOWNNAME":"南區","LI":"再興里","LIN":"1鄰","STREET":"健康路","SECT":"二段","MAREA":" ","LANE":" ","ALLEY":" ","HOUSE_NO":"１５７號","E_COORD97":167294.37,"N_COORD97":2542452.4500000002,"ADDRESS":"健康路二段１５７號","OBJECTID":517553},"geometry":{"x":167294.37000000104,"y":2542452.4499999993}},{"attributes":{"ID":517581,"DIS_CODE":0,"TOWNNAME":"南區","LI":"再興里","LIN":"1鄰","STREET":"健康路","SECT":"二段","MAREA":" ","LANE":" ","ALLEY":" ","HOUSE_NO":"１５９號","E_COORD97":167289.60999999999,"N_COORD97":2542452.2400000002,"ADDRESS":"健康路二段１５９號","OBJECTID":517554},"geometry":{"x":167289.61000000127,"y":2542452.2400000002}},{"attributes":{"ID":517582,"DIS_CODE":0,"TOWNNAME":"南區","LI":"再興里","LIN":"1鄰","STREET":"健康路","SECT":"二段","MAREA":" ","LANE":" ","ALLEY":" ","HOUSE_NO":"１７３號","E_COORD97":167257.17999999999,"N_COORD97":2542453.3999999999,"ADDRESS":"健康路二段１７３號","OBJECTID":517555},"geometry":{"x":167257.1799999997,"y":2542453.4000000022}},{"attributes":{"ID":517583,"DIS_CODE":0,"TOWNNAME":"南區","LI":"再興里","LIN":"1鄰","STREET":"健康路","SECT":"二段","MAREA":" ","LANE":" ","ALLEY":" ","HOUSE_NO":"１７５號","E_COORD97":167251.78,"N_COORD97":2542453.5099999998,"ADDRESS":"健康路二段１７５號","OBJECTID":517556},"geometry":{"x":167251.78000000026,"y":2542453.5099999998}},{"attributes":{"ID":517584,"DIS_CODE":0,"TOWNNAME":"南區","LI":"再興里","LIN":"1鄰","STREET":"健康路","SECT":"二段","MAREA":" ","LANE":" ","ALLEY":" ","HOUSE_NO":"１７７號","E_COORD97":167246.07000000001,"N_COORD97":2542453.8199999998,"ADDRESS":"健康路二段１７７號","OBJECTID":517557},"geometry":{"x":167246.0700000003,"y":2542453.8200000022}},{"attributes":{"ID":517585,"DIS_CODE":0,"TOWNNAME":"南區","LI":"再興里","LIN":"1鄰","STREET":"健康路","SECT":"二段","MAREA":" ","LANE":" ","ALLEY":" ","HOUSE_NO":"１７９號","E_COORD97":167239.29999999999,"N_COORD97":2542454.25,"ADDRESS":"健康路二段１７９號","OBJECTID":517558},"geometry":{"x":167239.29999999981,"y":2542454.2500000019}},{"attributes":{"ID":517586,"DIS_CODE":0,"TOWNNAME":"南區","LI":"再興里","LIN":"1鄰","STREET":"健康路","SECT":"二段","MAREA":" ","LANE":" ","ALLEY":" ","HOUSE_NO":"１８７號","E_COORD97":167216.85000000001,"N_COORD97":2542453.46,"ADDRESS":"健康路二段１８７號","OBJECTID":517559},"geometry":{"x":167216.84999999963,"y":2542453.4600000028}},{"attributes":{"ID":517587,"DIS_CODE":0,"TOWNNAME":"南區","LI":"再興里","LIN":"1鄰","STREET":"健康路","SECT":"二段","MAREA":" ","LANE":" ","ALLEY":" ","HOUSE_NO":"１８９號","E_COORD97":167211.85999999999,"N_COORD97":2542454.4900000002,"ADDRESS":"健康路二段１８９號","OBJECTID":517560},"geometry":{"x":167211.86000000127,"y":2542454.4900000002}},{"attributes":{"ID":517588,"DIS_CODE":0,"TOWNNAME":"南區","LI":"再興里","LIN":"1鄰","STREET":"健康路","SECT":"二段","MAREA":" ","LANE":" ","ALLEY":" ","HOUSE_NO":"１９１號","E_COORD97":167207.31,"N_COORD97":2542454.9300000002,"ADDRESS":"健康路二段１９１號","OBJECTID":517561},"geometry":{"x":167207.31000000145,"y":2542454.9300000034}},{"attributes":{"ID":517589,"DIS_CODE":0,"TOWNNAME":"南區","LI":"再興里","LIN":"1鄰","STREET":"健康路","SECT":"二段","MAREA":" ","LANE":" ","ALLEY":" ","HOUSE_NO":"１９３號","E_COORD97":167200.41,"N_COORD97":2542454.7799999998,"ADDRESS":"健康路二段１９３號","OBJECTID":517562},"geometry":{"x":167200.41000000201,"y":2542454.7799999993}},{"attributes":{"ID":517590,"DIS_CODE":0,"TOWNNAME":"南區","LI":"再興里","LIN":"1鄰","STREET":"健康路","SECT":"二段","MAREA":" ","LANE":" ","ALLEY":" ","HOUSE_NO":"１９７號","E_COORD97":167189.98000000001,"N_COORD97":2542454.6400000001,"ADDRESS":"健康路二段１９７號","OBJECTID":517563},"geometry":{"x":167189.98000000231,"y":2542454.6400000025}},{"attributes":{"ID":517591,"DIS_CODE":0,"TOWNNAME":"南區","LI":"再興里","LIN":"1鄰","STREET":"健康路","SECT":"二段","MAREA":" ","LANE":" ","ALLEY":" ","HOUSE_NO":"２０３號","E_COORD97":167175.73000000001,"N_COORD97":2542455.6600000001,"ADDRESS":"健康路二段２０３號","OBJECTID":517564},"geometry":{"x":167175.73000000045,"y":2542455.6600000001}},{"attributes":{"ID":517592,"DIS_CODE":0,"TOWNNAME":"南區","LI":"再興里","LIN":"1鄰","STREET":"健康路","SECT":"二段","MAREA":" ","LANE":" ","ALLEY":" ","HOUSE_NO":"２１１號","E_COORD97":167162.51999999999,"N_COORD97":2542456.1000000001,"ADDRESS":"健康路二段２１１號","OBJECTID":517565},"geometry":{"x":167162.52000000048,"y":2542456.0999999996}},{"attributes":{"ID":517593,"DIS_CODE":0,"TOWNNAME":"南區","LI":"再興里","LIN":"1鄰","STREET":"健康路","SECT":"二段","MAREA":" ","LANE":" ","ALLEY":" ","HOUSE_NO":"２１３號","E_COORD97":167158.10999999999,"N_COORD97":2542456.3999999999,"ADDRESS":"健康路二段２１３號","OBJECTID":517566},"geometry":{"x":167158.11000000034,"y":2542456.4000000022}},{"attributes":{"ID":517594,"DIS_CODE":0,"TOWNNAME":"南區","LI":"再興里","LIN":"1鄰","STREET":"健康路","SECT":"二段","MAREA":" ","LANE":" ","ALLEY":" ","HOUSE_NO":"２１５號","E_COORD97":167153.26999999999,"N_COORD97":2542456.54,"ADDRESS":"健康路二段２１５號","OBJECTID":517567},"geometry":{"x":167153.27000000142,"y":2542456.5400000028}},{"attributes":{"ID":517595,"DIS_CODE":0,"TOWNNAME":"南區","LI":"竹溪里","LIN":"1鄰","STREET":"健康路","SECT":"一段","MAREA":" ","LANE":" ","ALLEY":" ","HOUSE_NO":"１２５號","E_COORD97":168914.63,"N_COORD97":2542410.7999999998,"ADDRESS":"健康路一段１２５號","OBJECTID":517568},"geometry":{"x":168914.63000000082,"y":2542410.8000000026}},{"attributes":{"ID":517596,"DIS_CODE":0,"TOWNNAME":"南區","LI":"竹溪里","LIN":"1鄰","STREET":"健康路","SECT":"一段","MAREA":" ","LANE":" ","ALLEY":" ","HOUSE_NO":"１２７號","E_COORD97":168910.45999999999,"N_COORD97":2542407.8799999999,"ADDRESS":"健康路一段１２７號","OBJECTID":517569},"geometry":{"x":168910.46000000089,"y":2542407.8800000008}},{"attributes":{"ID":517597,"DIS_CODE":0,"TOWNNAME":"南區","LI":"竹溪里","LIN":"1鄰","STREET":"健康路","SECT":"一段","MAREA":" ","LANE":" ","ALLEY":" ","HOUSE_NO":"１２９號","E_COORD97":168903.78,"N_COORD97":2542407.8799999999,"ADDRESS":"健康路一段１２９號","OBJECTID":517570},"geometry":{"x":168903.78000000119,"y":2542407.8800000008}},{"attributes":{"ID":517598,"DIS_CODE":0,"TOWNNAME":"南區","LI":"竹溪里","LIN":"1鄰","STREET":"健康路","SECT":"一段","MAREA":" ","LANE":" ","ALLEY":" ","HOUSE_NO":"１３１號","E_COORD97":168901.70000000001,"N_COORD97":2542408.2999999998,"ADDRESS":"健康路一段１３１號","OBJECTID":517571},"geometry":{"x":168901.70000000019,"y":2542408.3000000007}},{"attributes":{"ID":517599,"DIS_CODE":0,"TOWNNAME":"南區","LI":"竹溪里","LIN":"1鄰","STREET":"健康路","SECT":"一段","MAREA":" ","LANE":" ","ALLEY":" ","HOUSE_NO":"１１７號","E_COORD97":168939.23999999999,"N_COORD97":2542409.1299999999,"ADDRESS":"健康路一段１１７號","OBJECTID":517572},"geometry":{"x":168939.24000000209,"y":2542409.1300000008}},{"attributes":{"ID":517600,"DIS_CODE":0,"TOWNNAME":"南區","LI":"佛壇里","LIN":"1鄰","STREET":"興南街","SECT":" ","MAREA":" ","LANE":" ","ALLEY":" ","HOUSE_NO":"３５５號","E_COORD97":165833.20000000001,"N_COORD97":2535490.8799999999,"ADDRESS":"興南街３５５號","OBJECTID":517573},"geometry":{"x":165833.20000000019,"y":2535490.8800000008}},{"attributes":{"ID":517601,"DIS_CODE":0,"TOWNNAME":"東區","LI":"文聖里","LIN":"1鄰","STREET":"富農街","SECT":"二段","MAREA":" ","LANE":" ","ALLEY":" ","HOUSE_NO":"１０號","E_COORD97":171653.63,"N_COORD97":2542852.8100000001,"ADDRESS":"富農街二段１０號","OBJECTID":517574},"geometry":{"x":171653.63000000175,"y":2542852.8099999987}},{"attributes":{"ID":517602,"DIS_CODE":0,"TOWNNAME":"東區","LI":"文聖里","LIN":"1鄰","STREET":"富農街","SECT":"二段","MAREA":" ","LANE":" ","ALLEY":" ","HOUSE_NO":"６號","E_COORD97":171650.09,"N_COORD97":2542837.5699999998,"ADDRESS":"富農街二段６號","OBJECTID":517575},"geometry":{"x":171650.08999999985,"y":2542837.570000004}},{"attributes":{"ID":517603,"DIS_CODE":0,"TOWNNAME":"東區","LI":"新東里","LIN":"1鄰","STREET":"東門路","SECT":"二段","MAREA":" ","LANE":" ","ALLEY":" ","HOUSE_NO":"１６３號","E_COORD97":170385.73000000001,"N_COORD97":2542875.3500000001,"ADDRESS":"東門路二段１６３號","OBJECTID":517576},"geometry":{"x":170385.73000000138,"y":2542875.3499999978}},{"attributes":{"ID":517604,"DIS_CODE":0,"TOWNNAME":"東區","LI":"大同里","LIN":"1鄰","STREET":"東門路","SECT":"一段","MAREA":" ","LANE":" ","ALLEY":" ","HOUSE_NO":"３８號","E_COORD97":169247.34,"N_COORD97":2543194.8199999998,"ADDRESS":"東門路一段３８號","OBJECTID":517577},"geometry":{"x":169247.34000000078,"y":2543194.8200000003}},{"attributes":{"ID":517605,"DIS_CODE":0,"TOWNNAME":"安南區","LI":"梅花里","LIN":"1鄰","STREET":"安中路","SECT":"一段","MAREA":" ","LANE":" ","ALLEY":" ","HOUSE_NO":"６８３號","E_COORD97":167711.93340400001,"N_COORD97":2549152.7801100002,"ADDRESS":"安中路一段６８３號","OBJECTID":517578},"geometry":{"x":167711.93340400141,"y":2549152.7801099997}},{"attributes":{"ID":517606,"DIS_CODE":0,"TOWNNAME":"安南區","LI":"梅花里","LIN":"1鄰","STREET":"北安路","SECT":"二段","MAREA":" ","LANE":" ","ALLEY":" ","HOUSE_NO":"３６３之２３號","E_COORD97":168233.54999999999,"N_COORD97":2548827.23,"ADDRESS":"北安路二段３６３之２３號","OBJECTID":517579},"geometry":{"x":168233.55000000075,"y":2548827.2300000042}},{"attributes":{"ID":517607,"DIS_CODE":0,"TOWNNAME":"安南區","LI":"\u25A0田里","LIN":"1鄰","STREET":"\u25A0田路","SECT":" ","MAREA":" ","LANE":" ","ALLEY":" ","HOUSE_NO":"３１９號","E_COORD97":162050.281632,"N_COORD97":2548129.6301899999,"ADDRESS":"\u25A0田路３１９號","OBJECTID":517580},"geometry":{"x":162050.28163199965,"y":2548129.6301890034}},{"attributes":{"ID":517608,"DIS_CODE":0,"TOWNNAME":"安南區","LI":"\u25A0田里","LIN":"1鄰","STREET":"\u25A0田路","SECT":" ","MAREA":" ","LANE":" ","ALLEY":" ","HOUSE_NO":"３２１號","E_COORD97":162041.17501000001,"N_COORD97":2548131.3235200001,"ADDRESS":"\u25A0田路３２１號","OBJECTID":517581},"geometry":{"x":162041.17501000129,"y":2548131.3235210013}},{"attributes":{"ID":517609,"DIS_CODE":0,"TOWNNAME":"安南區","LI":"\u25A0田里","LIN":"1鄰","STREET":"\u25A0田路","SECT":" ","MAREA":" ","LANE":" ","ALLEY":" ","HOUSE_NO":"３３１號","E_COORD97":161985.69,"N_COORD97":2548123.9500000002,"ADDRESS":"\u25A0田路３３１號","OBJECTID":517582},"geometry":{"x":161985.69000000041,"y":2548123.9500000011}},{"attributes":{"ID":517610,"DIS_CODE":0,"TOWNNAME":"安南區","LI":"\u25A0田里","LIN":"1鄰","STREET":"\u25A0田路","SECT":" ","MAREA":" ","LANE":" ","ALLEY":" ","HOUSE_NO":"３３３號","E_COORD97":161981.19,"N_COORD97":2548123.5499999998,"ADDRESS":"\u25A0田路３３３號","OBJECTID":517583},"geometry":{"x":161981.19000000134,"y":2548123.5500000045}},{"attributes":{"ID":517611,"DIS_CODE":0,"TOWNNAME":"安南區","LI":"\u25A0田里","LIN":"1鄰","STREET":"\u25A0田路","SECT":" ","MAREA":" ","LANE":" ","ALLEY":" ","HOUSE_NO":"３３５號","E_COORD97":161976.29999999999,"N_COORD97":2548123.5499999998,"ADDRESS":"\u25A0田路３３５號","OBJECTID":517584},"geometry":{"x":161976.30000000168,"y":2548123.5500000045}},{"attributes":{"ID":517612,"DIS_CODE":0,"TOWNNAME":"安南區","LI":"\u25A0田里","LIN":"1鄰","STREET":"\u25A0田路","SECT":" ","MAREA":" ","LANE":" ","ALLEY":" ","HOUSE_NO":"３３７號","E_COORD97":161971.79999999999,"N_COORD97":2548122.8900000001,"ADDRESS":"\u25A0田路３３７號","OBJECTID":517585},"geometry":{"x":161971.80000000075,"y":2548122.8900000025}},{"attributes":{"ID":517613,"DIS_CODE":0,"TOWNNAME":"安南區","LI":"\u25A0田里","LIN":"1鄰","STREET":"\u25A0田路","SECT":" ","MAREA":" ","LANE":" ","ALLEY":" ","HOUSE_NO":"３３９號","E_COORD97":161968.35999999999,"N_COORD97":2548122.7599999998,"ADDRESS":"\u25A0田路３３９號","OBJECTID":517586},"geometry":{"x":161968.36000000127,"y":2548122.7600000016}},{"attributes":{"ID":517614,"DIS_CODE":0,"TOWNNAME":"安南區","LI":"\u25A0田里","LIN":"1鄰","STREET":"\u25A0田路","SECT":" ","MAREA":" ","LANE":" ","ALLEY":" ","HOUSE_NO":"３４１號","E_COORD97":161963.73000000001,"N_COORD97":2548122.23,"ADDRESS":"\u25A0田路３４１號","OBJECTID":517587},"geometry":{"x":161963.73000000231,"y":2548122.2300000042}},{"attributes":{"ID":517615,"DIS_CODE":0,"TOWNNAME":"安南區","LI":"\u25A0田里","LIN":"1鄰","STREET":"\u25A0田路","SECT":" ","MAREA":" ","LANE":" ","ALLEY":" ","HOUSE_NO":"３４３號","E_COORD97":161959.35999999999,"N_COORD97":2548121.96,"ADDRESS":"\u25A0田路３４３號","OBJECTID":517588},"geometry":{"x":161959.3600000022,"y":2548121.9600000028}},{"attributes":{"ID":517616,"DIS_CODE":0,"TOWNNAME":"安南區","LI":"\u25A0田里","LIN":"1鄰","STREET":"\u25A0田路","SECT":" ","MAREA":" ","LANE":" ","ALLEY":" ","HOUSE_NO":"３４５號","E_COORD97":161955.26000000001,"N_COORD97":2548121.8300000001,"ADDRESS":"\u25A0田路３４５號","OBJECTID":517589},"geometry":{"x":161955.25999999978,"y":2548121.8300000019}},{"attributes":{"ID":517617,"DIS_CODE":0,"TOWNNAME":"安南區","LI":"\u25A0田里","LIN":"1鄰","STREET":"\u25A0田路","SECT":" ","MAREA":" ","LANE":" ","ALLEY":" ","HOUSE_NO":"３４７號","E_COORD97":161950.89999999999,"N_COORD97":2548121.1699999999,"ADDRESS":"\u25A0田路３４７號","OBJECTID":517590},"geometry":{"x":161950.9000000013,"y":2548121.1699999999}},{"attributes":{"ID":517618,"DIS_CODE":0,"TOWNNAME":"安南區","LI":"\u25A0田里","LIN":"1鄰","STREET":"\u25A0田路","SECT":" ","MAREA":" ","LANE":" ","ALLEY":" ","HOUSE_NO":"３４９號","E_COORD97":161946.79999999999,"N_COORD97":2548121.04,"ADDRESS":"\u25A0田路３４９號","OBJECTID":517591},"geometry":{"x":161946.79999999981,"y":2548121.0399999991}},{"attributes":{"ID":517619,"DIS_CODE":0,"TOWNNAME":"安南區","LI":"\u25A0田里","LIN":"1鄰","STREET":"\u25A0田路","SECT":" ","MAREA":" ","LANE":" ","ALLEY":" ","HOUSE_NO":"３５５號","E_COORD97":161928.41,"N_COORD97":2548120.2400000002,"ADDRESS":"\u25A0田路３５５號","OBJECTID":517592},"geometry":{"x":161928.41000000201,"y":2548120.2400000002}},{"attributes":{"ID":517620,"DIS_CODE":0,"TOWNNAME":"安南區","LI":"\u25A0田里","LIN":"1鄰","STREET":"\u25A0田路","SECT":" ","MAREA":" ","LANE":" ","ALLEY":" ","HOUSE_NO":"３５７號","E_COORD97":161924.31,"N_COORD97":2548120.2400000002,"ADDRESS":"\u25A0田路３５７號","OBJECTID":517593},"geometry":{"x":161924.30999999959,"y":2548120.2400000002}},{"attributes":{"ID":517621,"DIS_CODE":0,"TOWNNAME":"安南區","LI":"\u25A0田里","LIN":"1鄰","STREET":"\u25A0田路","SECT":" ","MAREA":" ","LANE":" ","ALLEY":" ","HOUSE_NO":"３５９號","E_COORD97":161919.94,"N_COORD97":2548120.1099999999,"ADDRESS":"\u25A0田路３５９號","OBJECTID":517594},"geometry":{"x":161919.94000000227,"y":2548120.1100000013}},{"attributes":{"ID":517622,"DIS_CODE":0,"TOWNNAME":"安南區","LI":"\u25A0田里","LIN":"1鄰","STREET":"\u25A0田路","SECT":" ","MAREA":" ","LANE":" ","ALLEY":" ","HOUSE_NO":"３６１號","E_COORD97":161914.12,"N_COORD97":2548120.77,"ADDRESS":"\u25A0田路３６１號","OBJECTID":517595},"geometry":{"x":161914.12000000104,"y":2548120.7699999977}},{"attributes":{"ID":517623,"DIS_CODE":0,"TOWNNAME":"安南區","LI":"\u25A0田里","LIN":"1鄰","STREET":"\u25A0田路","SECT":" ","MAREA":" ","LANE":" ","ALLEY":" ","HOUSE_NO":"３６３號","E_COORD97":161907.37,"N_COORD97":2548122.23,"ADDRESS":"\u25A0田路３６３號","OBJECTID":517596},"geometry":{"x":161907.37000000011,"y":2548122.2300000042}},{"attributes":{"ID":517624,"DIS_CODE":0,"TOWNNAME":"安南區","LI":"\u25A0田里","LIN":"1鄰","STREET":"\u25A0田路","SECT":" ","MAREA":" ","LANE":" ","ALLEY":" ","HOUSE_NO":"３６５號","E_COORD97":161904.20000000001,"N_COORD97":2548121.96,"ADDRESS":"\u25A0田路３６５號","OBJECTID":517597},"geometry":{"x":161904.20000000019,"y":2548121.9600000028}},{"attributes":{"ID":517625,"DIS_CODE":0,"TOWNNAME":"安南區","LI":"\u25A0田里","LIN":"1鄰","STREET":"\u25A0田路","SECT":" ","MAREA":" ","LANE":" ","ALLEY":" ","HOUSE_NO":"３６７號","E_COORD97":161898.51000000001,"N_COORD97":2548121.7000000002,"ADDRESS":"\u25A0田路３６７號","OBJECTID":517598},"geometry":{"x":161898.51000000164,"y":2548121.7000000011}},{"attributes":{"ID":517626,"DIS_CODE":0,"TOWNNAME":"安南區","LI":"\u25A0田里","LIN":"1鄰","STREET":"\u25A0田路","SECT":" ","MAREA":" ","LANE":" ","ALLEY":" ","HOUSE_NO":"３６９號","E_COORD97":161893.88,"N_COORD97":2548121.04,"ADDRESS":"\u25A0田路３６９號","OBJECTID":517599},"geometry":{"x":161893.87999999989,"y":2548121.0399999991}},{"attributes":{"ID":517627,"DIS_CODE":0,"TOWNNAME":"安南區","LI":"\u25A0田里","LIN":"1鄰","STREET":"\u25A0田路","SECT":" ","MAREA":" ","LANE":" ","ALLEY":" ","HOUSE_NO":"３７１號","E_COORD97":161888.85000000001,"N_COORD97":2548121.1699999999,"ADDRESS":"\u25A0田路３７１號","OBJECTID":517600},"geometry":{"x":161888.84999999963,"y":2548121.1699999999}}]}