{"displayFieldName":"TOWNNAME","fieldAliases":{"ID":"ID","DIS_CODE":"DIS_CODE","TOWNNAME":"TOWNNAME","LI":"LI","LIN":"LIN","STREET":"STREET","SECT":"SECT","MAREA":"MAREA","LANE":"LANE","ALLEY":"ALLEY","HOUSE_NO":"HOUSE_NO","E_COORD97":"E_COORD97","N_COORD97":"N_COORD97","ADDRESS":"ADDRESS","OBJECTID":"OBJECTID"},"geometryType":"esriGeometryPoint","spatialReference":{"wkid":102443,"latestWkid":3826},"fields":[{"name":"ID","type":"esriFieldTypeDouble","alias":"ID"},{"name":"DIS_CODE","type":"esriFieldTypeInteger","alias":"DIS_CODE"},{"name":"TOWNNAME","type":"esriFieldTypeString","alias":"TOWNNAME","length":8},{"name":"LI","type":"esriFieldTypeString","alias":"LI","length":8},{"name":"LIN","type":"esriFieldTypeString","alias":"LIN","length":12},{"name":"STREET","type":"esriFieldTypeString","alias":"STREET","length":20},{"name":"SECT","type":"esriFieldTypeString","alias":"SECT","length":8},{"name":"MAREA","type":"esriFieldTypeString","alias":"MAREA","length":12},{"name":"LANE","type":"esriFieldTypeString","alias":"LANE","length":10},{"name":"ALLEY","type":"esriFieldTypeString","alias":"ALLEY","length":10},{"name":"HOUSE_NO","type":"esriFieldTypeString","alias":"HOUSE_NO","length":20},{"name":"E_COORD97","type":"esriFieldTypeDouble","alias":"E_COORD97"},{"name":"N_COORD97","type":"esriFieldTypeDouble","alias":"N_COORD97"},{"name":"ADDRESS","type":"esriFieldTypeString","alias":"ADDRESS","length":50},{"name":"OBJECTID","type":"esriFieldTypeOID","alias":"OBJECTID"}],"features":[{"attributes":{"ID":409225,"DIS_CODE":0,"TOWNNAME":"永康區","LI":"五王里","LIN":"22鄰","STREET":"成功路","SECT":" ","MAREA":" ","LANE":"２２８巷","ALLEY":" ","HOUSE_NO":"５４號","E_COORD97":171476.51000000001,"N_COORD97":2545847.0099999998,"ADDRESS":"成功路２２８巷５４號","OBJECTID":409201},"geometry":{"x":171476.51000000071,"y":2545847.0099999998}},{"attributes":{"ID":409226,"DIS_CODE":0,"TOWNNAME":"永康區","LI":"正強里","LIN":"22鄰","STREET":"中正路","SECT":" ","MAREA":" ","LANE":"１２７巷","ALLEY":" ","HOUSE_NO":"３９號","E_COORD97":173406.54999999999,"N_COORD97":2547748.4900000002,"ADDRESS":"中正路１２７巷３９號","OBJECTID":409202},"geometry":{"x":173406.54999999981,"y":2547748.4900000021}},{"attributes":{"ID":409227,"DIS_CODE":0,"TOWNNAME":"永康區","LI":"中興里","LIN":"22鄰","STREET":"中華路","SECT":" ","MAREA":" ","LANE":"２１２巷","ALLEY":" ","HOUSE_NO":"２７號","E_COORD97":171770.29000000001,"N_COORD97":2545022.0499999998,"ADDRESS":"中華路２１２巷２７號","OBJECTID":409203},"geometry":{"x":171770.29000000097,"y":2545022.0500000026}},{"attributes":{"ID":409228,"DIS_CODE":0,"TOWNNAME":"永康區","LI":"五王里","LIN":"22鄰","STREET":"成功路","SECT":" ","MAREA":" ","LANE":"２２８巷","ALLEY":" ","HOUSE_NO":"５０號","E_COORD97":171464.79999999999,"N_COORD97":2545841.2599999998,"ADDRESS":"成功路２２８巷５０號","OBJECTID":409204},"geometry":{"x":171464.80000000075,"y":2545841.2599999998}},{"attributes":{"ID":409229,"DIS_CODE":0,"TOWNNAME":"東區","LI":"大學里","LIN":"22鄰","STREET":"東寧路","SECT":" ","MAREA":" ","LANE":"９３巷","ALLEY":" ","HOUSE_NO":"７６號","E_COORD97":170359.98000000001,"N_COORD97":2543687.3999999999,"ADDRESS":"東寧路９３巷７６號","OBJECTID":409205},"geometry":{"x":170359.98000000231,"y":2543687.4000000022}},{"attributes":{"ID":409230,"DIS_CODE":0,"TOWNNAME":"東區","LI":"大學里","LIN":"22鄰","STREET":"東寧路","SECT":" ","MAREA":" ","LANE":"９３巷","ALLEY":" ","HOUSE_NO":"７８號","E_COORD97":170371.89000000001,"N_COORD97":2543667.0099999998,"ADDRESS":"東寧路９３巷７８號","OBJECTID":409206},"geometry":{"x":170371.8900000006,"y":2543667.0099999998}},{"attributes":{"ID":409231,"DIS_CODE":0,"TOWNNAME":"東區","LI":"大學里","LIN":"22鄰","STREET":"東寧路","SECT":" ","MAREA":" ","LANE":"９３巷","ALLEY":" ","HOUSE_NO":"８０號","E_COORD97":170360.76000000001,"N_COORD97":2543667.73,"ADDRESS":"東寧路９３巷８０號","OBJECTID":409207},"geometry":{"x":170360.76000000164,"y":2543667.7300000023}},{"attributes":{"ID":409232,"DIS_CODE":0,"TOWNNAME":"東區","LI":"大學里","LIN":"22鄰","STREET":"東寧路","SECT":" ","MAREA":" ","LANE":"９３巷","ALLEY":" ","HOUSE_NO":"８２號","E_COORD97":170370.31,"N_COORD97":2543644.9300000002,"ADDRESS":"東寧路９３巷８２號","OBJECTID":409208},"geometry":{"x":170370.30999999866,"y":2543644.9300000034}},{"attributes":{"ID":409233,"DIS_CODE":0,"TOWNNAME":"東區","LI":"大學里","LIN":"22鄰","STREET":"東寧路","SECT":" ","MAREA":" ","LANE":"９３巷","ALLEY":" ","HOUSE_NO":"８４號","E_COORD97":170358.64999999999,"N_COORD97":2543645.8399999999,"ADDRESS":"東寧路９３巷８４號","OBJECTID":409209},"geometry":{"x":170358.65000000037,"y":2543645.8400000017}},{"attributes":{"ID":409234,"DIS_CODE":0,"TOWNNAME":"東區","LI":"大學里","LIN":"22鄰","STREET":"東寧路","SECT":" ","MAREA":" ","LANE":"９３巷","ALLEY":" ","HOUSE_NO":"８６號","E_COORD97":170355.28,"N_COORD97":2543728.1400000001,"ADDRESS":"東寧路９３巷８６號","OBJECTID":409210},"geometry":{"x":170355.28000000026,"y":2543728.1400000006}},{"attributes":{"ID":409235,"DIS_CODE":0,"TOWNNAME":"東區","LI":"大同里","LIN":"22鄰","STREET":"大同路","SECT":"一段","MAREA":" ","LANE":"１９７巷","ALLEY":" ","HOUSE_NO":"２之１號","E_COORD97":169151.63,"N_COORD97":2542727.2200000002,"ADDRESS":"大同路一段１９７巷２之１號","OBJECTID":409211},"geometry":{"x":169151.63000000082,"y":2542727.2200000007}},{"attributes":{"ID":409236,"DIS_CODE":0,"TOWNNAME":"東區","LI":"大同里","LIN":"22鄰","STREET":"大同路","SECT":"一段","MAREA":" ","LANE":"２１５巷","ALLEY":" ","HOUSE_NO":"１５號","E_COORD97":169179.17999999999,"N_COORD97":2542708.8799999999,"ADDRESS":"大同路一段２１５巷１５號","OBJECTID":409212},"geometry":{"x":169179.1799999997,"y":2542708.8800000008}},{"attributes":{"ID":409237,"DIS_CODE":0,"TOWNNAME":"東區","LI":"大同里","LIN":"22鄰","STREET":"大同路","SECT":"一段","MAREA":" ","LANE":"２１５巷","ALLEY":" ","HOUSE_NO":"１６號","E_COORD97":169179.81,"N_COORD97":2542698.4500000002,"ADDRESS":"大同路一段２１５巷１６號","OBJECTID":409213},"geometry":{"x":169179.80999999959,"y":2542698.4500000011}},{"attributes":{"ID":409238,"DIS_CODE":0,"TOWNNAME":"東區","LI":"大同里","LIN":"22鄰","STREET":"大同路","SECT":"一段","MAREA":" ","LANE":"２１５巷","ALLEY":" ","HOUSE_NO":"１號","E_COORD97":169150.37,"N_COORD97":2542715.9100000001,"ADDRESS":"大同路一段２１５巷１號","OBJECTID":409214},"geometry":{"x":169150.37000000104,"y":2542715.9100000001}},{"attributes":{"ID":409239,"DIS_CODE":0,"TOWNNAME":"東區","LI":"大同里","LIN":"22鄰","STREET":"大同路","SECT":"一段","MAREA":" ","LANE":"２１５巷","ALLEY":" ","HOUSE_NO":"２號","E_COORD97":169152.51000000001,"N_COORD97":2542696.9399999999,"ADDRESS":"大同路一段２１５巷２號","OBJECTID":409215},"geometry":{"x":169152.51000000071,"y":2542696.9399999995}},{"attributes":{"ID":409240,"DIS_CODE":0,"TOWNNAME":"東區","LI":"大同里","LIN":"22鄰","STREET":"大同路","SECT":"一段","MAREA":" ","LANE":"２１５巷","ALLEY":" ","HOUSE_NO":"３號","E_COORD97":169154.51999999999,"N_COORD97":2542714.5299999998,"ADDRESS":"大同路一段２１５巷３號","OBJECTID":409216},"geometry":{"x":169154.51999999955,"y":2542714.5300000031}},{"attributes":{"ID":409241,"DIS_CODE":0,"TOWNNAME":"東區","LI":"大同里","LIN":"22鄰","STREET":"大同路","SECT":"一段","MAREA":" ","LANE":"２１５巷","ALLEY":" ","HOUSE_NO":"４號","E_COORD97":169150.88,"N_COORD97":2542702.2200000002,"ADDRESS":"大同路一段２１５巷４號","OBJECTID":409217},"geometry":{"x":169150.87999999989,"y":2542702.2200000025}},{"attributes":{"ID":409242,"DIS_CODE":0,"TOWNNAME":"東區","LI":"大同里","LIN":"22鄰","STREET":"大同路","SECT":"一段","MAREA":" ","LANE":"２１５巷","ALLEY":" ","HOUSE_NO":"５號","E_COORD97":169159.17999999999,"N_COORD97":2542713.02,"ADDRESS":"大同路一段２１５巷５號","OBJECTID":409218},"geometry":{"x":169159.1799999997,"y":2542713.0200000014}},{"attributes":{"ID":409243,"DIS_CODE":0,"TOWNNAME":"東區","LI":"大同里","LIN":"22鄰","STREET":"大同路","SECT":"一段","MAREA":" ","LANE":"２１５巷","ALLEY":" ","HOUSE_NO":"６號","E_COORD97":169151.13,"N_COORD97":2542705.3599999999,"ADDRESS":"大同路一段２１５巷６號","OBJECTID":409219},"geometry":{"x":169151.12999999989,"y":2542705.3599999994}},{"attributes":{"ID":409244,"DIS_CODE":0,"TOWNNAME":"東區","LI":"大同里","LIN":"22鄰","STREET":"大同路","SECT":"一段","MAREA":" ","LANE":"２１５巷","ALLEY":" ","HOUSE_NO":"８號","E_COORD97":169163.70999999999,"N_COORD97":2542698.1899999999,"ADDRESS":"大同路一段２１５巷８號","OBJECTID":409220},"geometry":{"x":169163.70999999996,"y":2542698.1900000013}},{"attributes":{"ID":409245,"DIS_CODE":0,"TOWNNAME":"東區","LI":"大同里","LIN":"22鄰","STREET":"大同路","SECT":"一段","MAREA":" ","LANE":"２１５巷","ALLEY":" ","HOUSE_NO":"９號","E_COORD97":169168.48999999999,"N_COORD97":2542710.0099999998,"ADDRESS":"大同路一段２１５巷９號","OBJECTID":409221},"geometry":{"x":169168.49000000115,"y":2542710.0100000016}},{"attributes":{"ID":409246,"DIS_CODE":0,"TOWNNAME":"中西區","LI":"西賢里","LIN":"22鄰","STREET":"西賢一街","SECT":" ","MAREA":" ","LANE":"２３５巷","ALLEY":" ","HOUSE_NO":"６６號","E_COORD97":165589.92999999999,"N_COORD97":2545050.5600000001,"ADDRESS":"西賢一街２３５巷６６號","OBJECTID":409222},"geometry":{"x":165589.93000000063,"y":2545050.5600000005}},{"attributes":{"ID":409247,"DIS_CODE":0,"TOWNNAME":"中西區","LI":"西賢里","LIN":"22鄰","STREET":"西賢一街","SECT":" ","MAREA":" ","LANE":"２３５巷","ALLEY":" ","HOUSE_NO":"６８號","E_COORD97":165593.64000000001,"N_COORD97":2545050.6699999999,"ADDRESS":"西賢一街２３５巷６８號","OBJECTID":409223},"geometry":{"x":165593.6400000006,"y":2545050.6700000018}},{"attributes":{"ID":409248,"DIS_CODE":0,"TOWNNAME":"中西區","LI":"西賢里","LIN":"22鄰","STREET":"西賢一街","SECT":" ","MAREA":" ","LANE":"２３５巷","ALLEY":" ","HOUSE_NO":"７０號","E_COORD97":165598.29999999999,"N_COORD97":2545050.6699999999,"ADDRESS":"西賢一街２３５巷７０號","OBJECTID":409224},"geometry":{"x":165598.29999999981,"y":2545050.6700000018}},{"attributes":{"ID":409249,"DIS_CODE":0,"TOWNNAME":"中西區","LI":"西賢里","LIN":"22鄰","STREET":"西賢一街","SECT":" ","MAREA":" ","LANE":"２３５巷","ALLEY":" ","HOUSE_NO":"７２號","E_COORD97":165602,"N_COORD97":2545050.6699999999,"ADDRESS":"西賢一街２３５巷７２號","OBJECTID":409225},"geometry":{"x":165602,"y":2545050.6700000018}},{"attributes":{"ID":409250,"DIS_CODE":0,"TOWNNAME":"中西區","LI":"西賢里","LIN":"22鄰","STREET":"西賢一街","SECT":" ","MAREA":" ","LANE":"２３５巷","ALLEY":" ","HOUSE_NO":"７６號","E_COORD97":165606.45000000001,"N_COORD97":2545050.6699999999,"ADDRESS":"西賢一街２３５巷７６號","OBJECTID":409226},"geometry":{"x":165606.45000000019,"y":2545050.6700000018}},{"attributes":{"ID":409251,"DIS_CODE":0,"TOWNNAME":"中西區","LI":"西賢里","LIN":"22鄰","STREET":"西賢一街","SECT":" ","MAREA":" ","LANE":"２３５巷","ALLEY":" ","HOUSE_NO":"７８號","E_COORD97":165610.79000000001,"N_COORD97":2545050.6699999999,"ADDRESS":"西賢一街２３５巷７８號","OBJECTID":409227},"geometry":{"x":165610.79000000004,"y":2545050.6700000018}},{"attributes":{"ID":409252,"DIS_CODE":0,"TOWNNAME":"中西區","LI":"西賢里","LIN":"22鄰","STREET":"西賢一街","SECT":" ","MAREA":" ","LANE":"２３５巷","ALLEY":" ","HOUSE_NO":"８０號","E_COORD97":165613.97,"N_COORD97":2545050.77,"ADDRESS":"西賢一街２３５巷８０號","OBJECTID":409228},"geometry":{"x":165613.96999999974,"y":2545050.7700000014}},{"attributes":{"ID":409253,"DIS_CODE":0,"TOWNNAME":"中西區","LI":"西賢里","LIN":"22鄰","STREET":"西賢一街","SECT":" ","MAREA":" ","LANE":"２３５巷","ALLEY":" ","HOUSE_NO":"８２號","E_COORD97":165619.04999999999,"N_COORD97":2545050.6699999999,"ADDRESS":"西賢一街２３５巷８２號","OBJECTID":409229},"geometry":{"x":165619.04999999888,"y":2545050.6700000018}},{"attributes":{"ID":409254,"DIS_CODE":0,"TOWNNAME":"中西區","LI":"西賢里","LIN":"22鄰","STREET":"西賢一街","SECT":" ","MAREA":" ","LANE":"２３５巷","ALLEY":" ","HOUSE_NO":"８６號","E_COORD97":165623.60000000001,"N_COORD97":2545050.6699999999,"ADDRESS":"西賢一街２３５巷８６號","OBJECTID":409230},"geometry":{"x":165623.5999999987,"y":2545050.6700000018}},{"attributes":{"ID":409255,"DIS_CODE":0,"TOWNNAME":"永康區","LI":"正強里","LIN":"22鄰","STREET":"自強路","SECT":" ","MAREA":" ","LANE":"３２１巷","ALLEY":" ","HOUSE_NO":"１７號","E_COORD97":173428.41,"N_COORD97":2547782.75,"ADDRESS":"自強路３２１巷１７號","OBJECTID":409231},"geometry":{"x":173428.41000000201,"y":2547782.7500000037}},{"attributes":{"ID":409256,"DIS_CODE":0,"TOWNNAME":"永康區","LI":"西灣里","LIN":"22鄰","STREET":"國光七街","SECT":" ","MAREA":" ","LANE":"３巷","ALLEY":" ","HOUSE_NO":"７８號","E_COORD97":174291.69,"N_COORD97":2545329.6000000001,"ADDRESS":"國光七街３巷７８號","OBJECTID":409232},"geometry":{"x":174291.69000000134,"y":2545329.6000000015}},{"attributes":{"ID":409257,"DIS_CODE":0,"TOWNNAME":"永康區","LI":"西勢里","LIN":"22鄰","STREET":"富強路","SECT":"一段","MAREA":" ","LANE":"２１６巷","ALLEY":" ","HOUSE_NO":"９號","E_COORD97":175667.41,"N_COORD97":2546382.5299999998,"ADDRESS":"富強路一段２１６巷９號","OBJECTID":409233},"geometry":{"x":175667.41000000015,"y":2546382.5299999993}},{"attributes":{"ID":409258,"DIS_CODE":0,"TOWNNAME":"永康區","LI":"東橋里","LIN":"22鄰","STREET":"自強路","SECT":" ","MAREA":" ","LANE":"１３９巷","ALLEY":" ","HOUSE_NO":"４號","E_COORD97":172993.72,"N_COORD97":2547420.2400000002,"ADDRESS":"自強路１３９巷４號","OBJECTID":409234},"geometry":{"x":172993.7200000016,"y":2547420.2400000039}},{"attributes":{"ID":409259,"DIS_CODE":0,"TOWNNAME":"永康區","LI":"西灣里","LIN":"22鄰","STREET":"國光七街","SECT":" ","MAREA":" ","LANE":"３巷","ALLEY":" ","HOUSE_NO":"４２號","E_COORD97":174314.01999999999,"N_COORD97":2545403.8599999999,"ADDRESS":"國光七街３巷４２號","OBJECTID":409235},"geometry":{"x":174314.02000000048,"y":2545403.8599999994}},{"attributes":{"ID":409260,"DIS_CODE":0,"TOWNNAME":"永康區","LI":"建國里","LIN":"22鄰","STREET":"興國街","SECT":" ","MAREA":" ","LANE":"５巷","ALLEY":" ","HOUSE_NO":"５號","E_COORD97":172674.95999999999,"N_COORD97":2544671.5,"ADDRESS":"興國街５巷５號","OBJECTID":409236},"geometry":{"x":172674.95999999996,"y":2544671.5}},{"attributes":{"ID":409261,"DIS_CODE":0,"TOWNNAME":"東區","LI":"小東里","LIN":"22鄰","STREET":"光明街","SECT":" ","MAREA":" ","LANE":"１７５巷","ALLEY":" ","HOUSE_NO":"３４號","E_COORD97":171017.64000000001,"N_COORD97":2544157.1000000001,"ADDRESS":"光明街１７５巷３４號","OBJECTID":409237},"geometry":{"x":171017.64000000153,"y":2544157.0999999996}},{"attributes":{"ID":409262,"DIS_CODE":0,"TOWNNAME":"東區","LI":"小東里","LIN":"22鄰","STREET":"光明街","SECT":" ","MAREA":" ","LANE":"１７５巷","ALLEY":" ","HOUSE_NO":"３６號","E_COORD97":171037.23000000001,"N_COORD97":2544158.6600000001,"ADDRESS":"光明街１７５巷３６號","OBJECTID":409238},"geometry":{"x":171037.23000000138,"y":2544158.6600000001}},{"attributes":{"ID":409263,"DIS_CODE":0,"TOWNNAME":"東區","LI":"自強里","LIN":"22鄰","STREET":"富農街","SECT":"一段","MAREA":" ","LANE":"１５３巷","ALLEY":" ","HOUSE_NO":"１０號","E_COORD97":171517.41,"N_COORD97":2542558.3799999999,"ADDRESS":"富農街一段１５３巷１０號","OBJECTID":409239},"geometry":{"x":171517.41000000015,"y":2542558.379999999}},{"attributes":{"ID":409264,"DIS_CODE":0,"TOWNNAME":"東區","LI":"自強里","LIN":"22鄰","STREET":"富農街","SECT":"一段","MAREA":" ","LANE":"１５３巷","ALLEY":" ","HOUSE_NO":"１１號","E_COORD97":171477.67999999999,"N_COORD97":2542524.4399999999,"ADDRESS":"富農街一段１５３巷１１號","OBJECTID":409240},"geometry":{"x":171477.6799999997,"y":2542524.4399999995}},{"attributes":{"ID":409265,"DIS_CODE":0,"TOWNNAME":"東區","LI":"自強里","LIN":"22鄰","STREET":"富農街","SECT":"一段","MAREA":" ","LANE":"１５３巷","ALLEY":" ","HOUSE_NO":"１２號","E_COORD97":171512.95999999999,"N_COORD97":2542560.5299999998,"ADDRESS":"富農街一段１５３巷１２號","OBJECTID":409241},"geometry":{"x":171512.96000000089,"y":2542560.5299999993}},{"attributes":{"ID":409266,"DIS_CODE":0,"TOWNNAME":"東區","LI":"自強里","LIN":"22鄰","STREET":"富農街","SECT":"一段","MAREA":" ","LANE":"１５３巷","ALLEY":" ","HOUSE_NO":"１３號","E_COORD97":171470.94,"N_COORD97":2542524.2999999998,"ADDRESS":"富農街一段１５３巷１３號","OBJECTID":409242},"geometry":{"x":171470.94000000134,"y":2542524.2999999989}},{"attributes":{"ID":409267,"DIS_CODE":0,"TOWNNAME":"東區","LI":"自強里","LIN":"22鄰","STREET":"富農街","SECT":"一段","MAREA":" ","LANE":"１５３巷","ALLEY":" ","HOUSE_NO":"１４號","E_COORD97":171508.79999999999,"N_COORD97":2542558.3799999999,"ADDRESS":"富農街一段１５３巷１４號","OBJECTID":409243},"geometry":{"x":171508.80000000075,"y":2542558.379999999}},{"attributes":{"ID":409268,"DIS_CODE":0,"TOWNNAME":"東區","LI":"自強里","LIN":"22鄰","STREET":"富農街","SECT":"一段","MAREA":" ","LANE":"１５３巷","ALLEY":" ","HOUSE_NO":"１５號","E_COORD97":171464.34,"N_COORD97":2542524.2999999998,"ADDRESS":"富農街一段１５３巷１５號","OBJECTID":409244},"geometry":{"x":171464.34000000078,"y":2542524.2999999989}},{"attributes":{"ID":409269,"DIS_CODE":0,"TOWNNAME":"東區","LI":"自強里","LIN":"22鄰","STREET":"富農街","SECT":"一段","MAREA":" ","LANE":"１５３巷","ALLEY":" ","HOUSE_NO":"１６號","E_COORD97":171509.23000000001,"N_COORD97":2542554.0800000001,"ADDRESS":"富農街一段１５３巷１６號","OBJECTID":409245},"geometry":{"x":171509.22999999952,"y":2542554.0800000001}},{"attributes":{"ID":409270,"DIS_CODE":0,"TOWNNAME":"白河區","LI":"永安里","LIN":"22鄰","STREET":"西安街","SECT":" ","MAREA":" ","LANE":"４８巷","ALLEY":" ","HOUSE_NO":"７號","E_COORD97":189777.82000000001,"N_COORD97":2582809.3700000001,"ADDRESS":"西安街４８巷７號","OBJECTID":409246},"geometry":{"x":189777.82000000123,"y":2582809.3700000029}},{"attributes":{"ID":409271,"DIS_CODE":0,"TOWNNAME":"東區","LI":"自強里","LIN":"22鄰","STREET":"富農街","SECT":"一段","MAREA":" ","LANE":"１５３巷","ALLEY":" ","HOUSE_NO":"１８號","E_COORD97":171508.09,"N_COORD97":2542535.4399999999,"ADDRESS":"富農街一段１５３巷１８號","OBJECTID":409247},"geometry":{"x":171508.09000000171,"y":2542535.4399999995}},{"attributes":{"ID":409272,"DIS_CODE":0,"TOWNNAME":"東區","LI":"自強里","LIN":"22鄰","STREET":"富農街","SECT":"一段","MAREA":" ","LANE":"１５３巷","ALLEY":" ","HOUSE_NO":"２０號","E_COORD97":171503.78,"N_COORD97":2542535.4399999999,"ADDRESS":"富農街一段１５３巷２０號","OBJECTID":409248},"geometry":{"x":171503.78000000212,"y":2542535.4399999995}},{"attributes":{"ID":409273,"DIS_CODE":0,"TOWNNAME":"東區","LI":"自強里","LIN":"22鄰","STREET":"富農街","SECT":"一段","MAREA":" ","LANE":"１５３巷","ALLEY":" ","HOUSE_NO":"３０號","E_COORD97":171481.82999999999,"N_COORD97":2542535.4399999999,"ADDRESS":"富農街一段１５３巷３０號","OBJECTID":409249},"geometry":{"x":171481.83000000101,"y":2542535.4399999995}},{"attributes":{"ID":409274,"DIS_CODE":0,"TOWNNAME":"東區","LI":"自強里","LIN":"22鄰","STREET":"富農街","SECT":"一段","MAREA":" ","LANE":"１５３巷","ALLEY":" ","HOUSE_NO":"３２號","E_COORD97":171480.54000000001,"N_COORD97":2542553.5099999998,"ADDRESS":"富農街一段１５３巷３２號","OBJECTID":409250},"geometry":{"x":171480.54000000097,"y":2542553.5100000016}},{"attributes":{"ID":409275,"DIS_CODE":0,"TOWNNAME":"東區","LI":"自強里","LIN":"22鄰","STREET":"富農街","SECT":"一段","MAREA":" ","LANE":"１５３巷","ALLEY":" ","HOUSE_NO":"３４號","E_COORD97":171478.95999999999,"N_COORD97":2542558.3799999999,"ADDRESS":"富農街一段１５３巷３４號","OBJECTID":409251},"geometry":{"x":171478.96000000089,"y":2542558.379999999}},{"attributes":{"ID":409276,"DIS_CODE":0,"TOWNNAME":"東區","LI":"自強里","LIN":"22鄰","STREET":"富農街","SECT":"一段","MAREA":" ","LANE":"１５３巷","ALLEY":" ","HOUSE_NO":"３８號","E_COORD97":171470.92000000001,"N_COORD97":2542553.6499999999,"ADDRESS":"富農街一段１５３巷３８號","OBJECTID":409252},"geometry":{"x":171470.92000000086,"y":2542553.6500000022}},{"attributes":{"ID":409277,"DIS_CODE":0,"TOWNNAME":"永康區","LI":"南灣里","LIN":"22鄰","STREET":"大灣路","SECT":" ","MAREA":" ","LANE":"７６４巷","ALLEY":" ","HOUSE_NO":"１號","E_COORD97":174151.70999999999,"N_COORD97":2544565.4500000002,"ADDRESS":"大灣路７６４巷１號","OBJECTID":409253},"geometry":{"x":174151.70999999903,"y":2544565.4499999993}},{"attributes":{"ID":409278,"DIS_CODE":0,"TOWNNAME":"永康區","LI":"二王里","LIN":"22鄰","STREET":"中山南路","SECT":" ","MAREA":" ","LANE":"６１６巷","ALLEY":" ","HOUSE_NO":"１０號","E_COORD97":172323.17999999999,"N_COORD97":2546561.4300000002,"ADDRESS":"中山南路６１６巷１０號","OBJECTID":409254},"geometry":{"x":172323.18000000063,"y":2546561.4300000016}},{"attributes":{"ID":409279,"DIS_CODE":0,"TOWNNAME":"永康區","LI":"永康里","LIN":"22鄰","STREET":"中山南路","SECT":" ","MAREA":" ","LANE":"４７１巷","ALLEY":" ","HOUSE_NO":"４６號","E_COORD97":173185.79000000001,"N_COORD97":2547156.25,"ADDRESS":"中山南路４７１巷４６號","OBJECTID":409255},"geometry":{"x":173185.79000000097,"y":2547156.2500000019}},{"attributes":{"ID":409280,"DIS_CODE":0,"TOWNNAME":"永康區","LI":"勝利里","LIN":"22鄰","STREET":"中華一路","SECT":" ","MAREA":" ","LANE":"１８２巷","ALLEY":" ","HOUSE_NO":"１９號","E_COORD97":171502.01000000001,"N_COORD97":2545100.5,"ADDRESS":"中華一路１８２巷１９號","OBJECTID":409256},"geometry":{"x":171502.01000000071,"y":2545100.5000000019}},{"attributes":{"ID":409281,"DIS_CODE":0,"TOWNNAME":"永康區","LI":"西勢里","LIN":"22鄰","STREET":"富強路","SECT":"一段","MAREA":" ","LANE":"１９４巷","ALLEY":" ","HOUSE_NO":"９號","E_COORD97":175658.45999999999,"N_COORD97":2546311.2799999998,"ADDRESS":"富強路一段１９４巷９號","OBJECTID":409257},"geometry":{"x":175658.45999999996,"y":2546311.2800000012}},{"attributes":{"ID":409282,"DIS_CODE":0,"TOWNNAME":"永康區","LI":"中興里","LIN":"22鄰","STREET":"中華路","SECT":" ","MAREA":" ","LANE":"２１２巷","ALLEY":" ","HOUSE_NO":"４４號","E_COORD97":171802.14000000001,"N_COORD97":2545011.0099999998,"ADDRESS":"中華路２１２巷４４號","OBJECTID":409258},"geometry":{"x":171802.13999999966,"y":2545011.0100000016}},{"attributes":{"ID":409283,"DIS_CODE":0,"TOWNNAME":"永康區","LI":"西勢里","LIN":"22鄰","STREET":"富強路","SECT":"一段","MAREA":" ","LANE":"２１６巷","ALLEY":" ","HOUSE_NO":"１５號","E_COORD97":175675.35000000001,"N_COORD97":2546393.5299999998,"ADDRESS":"富強路一段２１６巷１５號","OBJECTID":409259},"geometry":{"x":175675.34999999963,"y":2546393.5300000012}},{"attributes":{"ID":409284,"DIS_CODE":0,"TOWNNAME":"永康區","LI":"安康里","LIN":"22鄰","STREET":"中華路","SECT":" ","MAREA":" ","LANE":"７０３巷","ALLEY":" ","HOUSE_NO":"８３號","E_COORD97":170709.59,"N_COORD97":2546213.25,"ADDRESS":"中華路７０３巷８３號","OBJECTID":409260},"geometry":{"x":170709.59000000171,"y":2546213.2500000019}},{"attributes":{"ID":409285,"DIS_CODE":0,"TOWNNAME":"永康區","LI":"西灣里","LIN":"22鄰","STREET":"大勇路","SECT":" ","MAREA":" ","LANE":"４８巷","ALLEY":" ","HOUSE_NO":"４０號","E_COORD97":174297.88,"N_COORD97":2545354.1899999999,"ADDRESS":"大勇路４８巷４０號","OBJECTID":409261},"geometry":{"x":174297.87999999989,"y":2545354.1899999995}},{"attributes":{"ID":409286,"DIS_CODE":0,"TOWNNAME":"永康區","LI":"尚頂里","LIN":"22鄰","STREET":"大武街","SECT":" ","MAREA":" ","LANE":"７１巷","ALLEY":" ","HOUSE_NO":"５號","E_COORD97":170368.89999999999,"N_COORD97":2546836.75,"ADDRESS":"大武街７１巷５號","OBJECTID":409262},"geometry":{"x":170368.90000000224,"y":2546836.7500000037}},{"attributes":{"ID":409287,"DIS_CODE":0,"TOWNNAME":"永康區","LI":"中興里","LIN":"22鄰","STREET":"中華路","SECT":" ","MAREA":" ","LANE":"２１２巷","ALLEY":" ","HOUSE_NO":"３５號","E_COORD97":171790.72,"N_COORD97":2545023.7999999998,"ADDRESS":"中華路２１２巷３５號","OBJECTID":409263},"geometry":{"x":171790.72000000067,"y":2545023.8000000026}},{"attributes":{"ID":409288,"DIS_CODE":0,"TOWNNAME":"東區","LI":"崇學里","LIN":"13鄰","STREET":"崇明九街","SECT":" ","MAREA":" ","LANE":" ","ALLEY":" ","HOUSE_NO":"１１６號","E_COORD97":170202.35999999999,"N_COORD97":2541920.7200000002,"ADDRESS":"崇明九街１１６號","OBJECTID":409264},"geometry":{"x":170202.36000000034,"y":2541920.7200000007}},{"attributes":{"ID":409289,"DIS_CODE":0,"TOWNNAME":"安南區","LI":"溪頂里","LIN":"22鄰","STREET":"郡安路","SECT":"四段","MAREA":" ","LANE":"２４９巷","ALLEY":" ","HOUSE_NO":"１４號","E_COORD97":168721.29000000001,"N_COORD97":2547606.2000000002,"ADDRESS":"郡安路四段２４９巷１４號","OBJECTID":409265},"geometry":{"x":168721.29000000004,"y":2547606.2000000011}},{"attributes":{"ID":409290,"DIS_CODE":0,"TOWNNAME":"安南區","LI":"溪頂里","LIN":"22鄰","STREET":"郡安路","SECT":"四段","MAREA":" ","LANE":"２４９巷","ALLEY":" ","HOUSE_NO":"１５號","E_COORD97":168747.42000000001,"N_COORD97":2547599.8599999999,"ADDRESS":"郡安路四段２４９巷１５號","OBJECTID":409266},"geometry":{"x":168747.41999999993,"y":2547599.8599999994}},{"attributes":{"ID":409291,"DIS_CODE":0,"TOWNNAME":"安南區","LI":"溪頂里","LIN":"22鄰","STREET":"郡安路","SECT":"四段","MAREA":" ","LANE":"２４９巷","ALLEY":" ","HOUSE_NO":"１６號","E_COORD97":168721.73999999999,"N_COORD97":2547602.1499999999,"ADDRESS":"郡安路四段２４９巷１６號","OBJECTID":409267},"geometry":{"x":168721.74000000022,"y":2547602.1500000022}},{"attributes":{"ID":409292,"DIS_CODE":0,"TOWNNAME":"安南區","LI":"溪頂里","LIN":"22鄰","STREET":"郡安路","SECT":"四段","MAREA":" ","LANE":"２４９巷","ALLEY":" ","HOUSE_NO":"１７號","E_COORD97":168747.60999999999,"N_COORD97":2547596.0800000001,"ADDRESS":"郡安路四段２４９巷１７號","OBJECTID":409268},"geometry":{"x":168747.61000000127,"y":2547596.0800000001}},{"attributes":{"ID":409293,"DIS_CODE":0,"TOWNNAME":"安南區","LI":"溪頂里","LIN":"22鄰","STREET":"郡安路","SECT":"四段","MAREA":" ","LANE":"２４９巷","ALLEY":" ","HOUSE_NO":"１８號","E_COORD97":168721.73999999999,"N_COORD97":2547597.7999999998,"ADDRESS":"郡安路四段２４９巷１８號","OBJECTID":409269},"geometry":{"x":168721.74000000022,"y":2547597.8000000026}},{"attributes":{"ID":409294,"DIS_CODE":0,"TOWNNAME":"安南區","LI":"溪頂里","LIN":"22鄰","STREET":"郡安路","SECT":"四段","MAREA":" ","LANE":"２４９巷","ALLEY":" ","HOUSE_NO":"１９號","E_COORD97":168747.60999999999,"N_COORD97":2547591.8300000001,"ADDRESS":"郡安路四段２４９巷１９號","OBJECTID":409270},"geometry":{"x":168747.61000000127,"y":2547591.8300000001}},{"attributes":{"ID":409295,"DIS_CODE":0,"TOWNNAME":"安南區","LI":"溪頂里","LIN":"22鄰","STREET":"郡安路","SECT":"四段","MAREA":" ","LANE":"２４９巷","ALLEY":" ","HOUSE_NO":"２０號","E_COORD97":168722.19,"N_COORD97":2547593.6000000001,"ADDRESS":"郡安路四段２４９巷２０號","OBJECTID":409271},"geometry":{"x":168722.19000000041,"y":2547593.6000000015}},{"attributes":{"ID":409296,"DIS_CODE":0,"TOWNNAME":"安南區","LI":"溪頂里","LIN":"22鄰","STREET":"郡安路","SECT":"四段","MAREA":" ","LANE":"２４９巷","ALLEY":" ","HOUSE_NO":"２１號","E_COORD97":168748.67000000001,"N_COORD97":2547587.0499999998,"ADDRESS":"郡安路四段２４９巷２１號","OBJECTID":409272},"geometry":{"x":168748.66999999993,"y":2547587.0500000007}},{"attributes":{"ID":409297,"DIS_CODE":0,"TOWNNAME":"安南區","LI":"溪頂里","LIN":"22鄰","STREET":"郡安路","SECT":"四段","MAREA":" ","LANE":"２４９巷","ALLEY":" ","HOUSE_NO":"２２號","E_COORD97":168722.35999999999,"N_COORD97":2547589.54,"ADDRESS":"郡安路四段２４９巷２２號","OBJECTID":409273},"geometry":{"x":168722.36000000034,"y":2547589.5399999972}},{"attributes":{"ID":409298,"DIS_CODE":0,"TOWNNAME":"安南區","LI":"溪頂里","LIN":"22鄰","STREET":"郡安路","SECT":"四段","MAREA":" ","LANE":"２４９巷","ALLEY":" ","HOUSE_NO":"２３號","E_COORD97":168749.03,"N_COORD97":2547582.6299999999,"ADDRESS":"郡安路四段２４９巷２３號","OBJECTID":409274},"geometry":{"x":168749.03000000212,"y":2547582.6300000008}},{"attributes":{"ID":409299,"DIS_CODE":0,"TOWNNAME":"安南區","LI":"溪頂里","LIN":"22鄰","STREET":"郡安路","SECT":"四段","MAREA":" ","LANE":"２４９巷","ALLEY":" ","HOUSE_NO":"２４號","E_COORD97":168722.51999999999,"N_COORD97":2547585.9199999999,"ADDRESS":"郡安路四段２４９巷２４號","OBJECTID":409275},"geometry":{"x":168722.51999999955,"y":2547585.9200000018}},{"attributes":{"ID":409300,"DIS_CODE":0,"TOWNNAME":"安南區","LI":"溪頂里","LIN":"22鄰","STREET":"郡安路","SECT":"四段","MAREA":" ","LANE":"２４９巷","ALLEY":" ","HOUSE_NO":"２５號","E_COORD97":168748.85000000001,"N_COORD97":2547579.27,"ADDRESS":"郡安路四段２４９巷２５號","OBJECTID":409276},"geometry":{"x":168748.84999999963,"y":2547579.2700000014}},{"attributes":{"ID":409301,"DIS_CODE":0,"TOWNNAME":"安南區","LI":"溪頂里","LIN":"22鄰","STREET":"郡安路","SECT":"四段","MAREA":" ","LANE":"２４９巷","ALLEY":" ","HOUSE_NO":"２６號","E_COORD97":168723.67999999999,"N_COORD97":2547581.6400000001,"ADDRESS":"郡安路四段２４９巷２６號","OBJECTID":409277},"geometry":{"x":168723.68000000156,"y":2547581.6400000025}},{"attributes":{"ID":409302,"DIS_CODE":0,"TOWNNAME":"白河區","LI":"永安里","LIN":"22鄰","STREET":"西安街","SECT":" ","MAREA":" ","LANE":"４８巷","ALLEY":" ","HOUSE_NO":"８號","E_COORD97":189797.47,"N_COORD97":2582790.5099999998,"ADDRESS":"西安街４８巷８號","OBJECTID":409278},"geometry":{"x":189797.46999999974,"y":2582790.5100000016}},{"attributes":{"ID":409303,"DIS_CODE":0,"TOWNNAME":"安南區","LI":"溪頂里","LIN":"22鄰","STREET":"郡安路","SECT":"四段","MAREA":" ","LANE":"２４９巷","ALLEY":" ","HOUSE_NO":"２７號","E_COORD97":168749.38,"N_COORD97":2547575.73,"ADDRESS":"郡安路四段２４９巷２７號","OBJECTID":409279},"geometry":{"x":168749.37999999989,"y":2547575.7300000004}},{"attributes":{"ID":409304,"DIS_CODE":0,"TOWNNAME":"安南區","LI":"溪頂里","LIN":"22鄰","STREET":"郡安路","SECT":"四段","MAREA":" ","LANE":"２４９巷","ALLEY":" ","HOUSE_NO":"２９號","E_COORD97":168750.10000000001,"N_COORD97":2547565.21,"ADDRESS":"郡安路四段２４９巷２９號","OBJECTID":409280},"geometry":{"x":168750.10000000056,"y":2547565.2100000009}},{"attributes":{"ID":409305,"DIS_CODE":0,"TOWNNAME":"安南區","LI":"溪頂里","LIN":"22鄰","STREET":"郡安路","SECT":"四段","MAREA":" ","LANE":"２４９巷","ALLEY":" ","HOUSE_NO":"２號","E_COORD97":168717.76999999999,"N_COORD97":2547631.2599999998,"ADDRESS":"郡安路四段２４９巷２號","OBJECTID":409281},"geometry":{"x":168717.76999999862,"y":2547631.2600000016}},{"attributes":{"ID":409306,"DIS_CODE":0,"TOWNNAME":"安南區","LI":"溪頂里","LIN":"22鄰","STREET":"郡安路","SECT":"四段","MAREA":" ","LANE":"２４９巷","ALLEY":" ","HOUSE_NO":"３０號","E_COORD97":168723.51000000001,"N_COORD97":2547573.2400000002,"ADDRESS":"郡安路四段２４９巷３０號","OBJECTID":409282},"geometry":{"x":168723.51000000071,"y":2547573.2400000021}},{"attributes":{"ID":409307,"DIS_CODE":0,"TOWNNAME":"安南區","LI":"溪頂里","LIN":"22鄰","STREET":"郡安路","SECT":"四段","MAREA":" ","LANE":"２４９巷","ALLEY":" ","HOUSE_NO":"３１號","E_COORD97":168750.63,"N_COORD97":2547560.6099999999,"ADDRESS":"郡安路四段２４９巷３１號","OBJECTID":409283},"geometry":{"x":168750.62999999989,"y":2547560.6100000013}},{"attributes":{"ID":409308,"DIS_CODE":0,"TOWNNAME":"安南區","LI":"溪頂里","LIN":"22鄰","STREET":"郡安路","SECT":"四段","MAREA":" ","LANE":"２４９巷","ALLEY":" ","HOUSE_NO":"３２號","E_COORD97":168724.42999999999,"N_COORD97":2547563.3100000001,"ADDRESS":"郡安路四段２４９巷３２號","OBJECTID":409284},"geometry":{"x":168724.43000000063,"y":2547563.3100000024}},{"attributes":{"ID":409309,"DIS_CODE":0,"TOWNNAME":"安南區","LI":"溪頂里","LIN":"22鄰","STREET":"郡安路","SECT":"四段","MAREA":" ","LANE":"２４９巷","ALLEY":" ","HOUSE_NO":"３３號","E_COORD97":168750.98000000001,"N_COORD97":2547556.3599999999,"ADDRESS":"郡安路四段２４９巷３３號","OBJECTID":409285},"geometry":{"x":168750.98000000045,"y":2547556.3599999994}},{"attributes":{"ID":409310,"DIS_CODE":0,"TOWNNAME":"安南區","LI":"溪頂里","LIN":"22鄰","STREET":"郡安路","SECT":"四段","MAREA":" ","LANE":"２４９巷","ALLEY":" ","HOUSE_NO":"３５號","E_COORD97":168751.69,"N_COORD97":2547552.4700000002,"ADDRESS":"郡安路四段２４９巷３５號","OBJECTID":409286},"geometry":{"x":168751.69000000134,"y":2547552.4700000025}},{"attributes":{"ID":409311,"DIS_CODE":0,"TOWNNAME":"安南區","LI":"溪頂里","LIN":"22鄰","STREET":"郡安路","SECT":"四段","MAREA":" ","LANE":"２４９巷","ALLEY":" ","HOUSE_NO":"３６號","E_COORD97":168724.59,"N_COORD97":2547554.1099999999,"ADDRESS":"郡安路四段２４９巷３６號","OBJECTID":409287},"geometry":{"x":168724.59000000171,"y":2547554.1099999994}},{"attributes":{"ID":409312,"DIS_CODE":0,"TOWNNAME":"安南區","LI":"溪頂里","LIN":"22鄰","STREET":"郡安路","SECT":"四段","MAREA":" ","LANE":"２４９巷","ALLEY":" ","HOUSE_NO":"３７號","E_COORD97":168751.34,"N_COORD97":2547548.04,"ADDRESS":"郡安路四段２４９巷３７號","OBJECTID":409288},"geometry":{"x":168751.33999999985,"y":2547548.0399999991}},{"attributes":{"ID":409313,"DIS_CODE":0,"TOWNNAME":"安南區","LI":"溪頂里","LIN":"22鄰","STREET":"郡安路","SECT":"四段","MAREA":" ","LANE":"２４９巷","ALLEY":" ","HOUSE_NO":"３８號","E_COORD97":168725.57999999999,"N_COORD97":2547550.3300000001,"ADDRESS":"郡安路四段２４９巷３８號","OBJECTID":409289},"geometry":{"x":168725.58000000101,"y":2547550.3300000001}},{"attributes":{"ID":409314,"DIS_CODE":0,"TOWNNAME":"安南區","LI":"溪頂里","LIN":"22鄰","STREET":"郡安路","SECT":"四段","MAREA":" ","LANE":"２４９巷","ALLEY":" ","HOUSE_NO":"３９號","E_COORD97":168752.04000000001,"N_COORD97":2547544.6800000002,"ADDRESS":"郡安路四段２４９巷３９號","OBJECTID":409290},"geometry":{"x":168752.03999999911,"y":2547544.6799999997}},{"attributes":{"ID":409315,"DIS_CODE":0,"TOWNNAME":"安南區","LI":"溪頂里","LIN":"22鄰","STREET":"郡安路","SECT":"四段","MAREA":" ","LANE":"２４９巷","ALLEY":" ","HOUSE_NO":"３號","E_COORD97":168746,"N_COORD97":2547624.1000000001,"ADDRESS":"郡安路四段２４９巷３號","OBJECTID":409291},"geometry":{"x":168746.00000000093,"y":2547624.1000000015}},{"attributes":{"ID":409316,"DIS_CODE":0,"TOWNNAME":"安南區","LI":"溪頂里","LIN":"22鄰","STREET":"郡安路","SECT":"四段","MAREA":" ","LANE":"２４９巷","ALLEY":" ","HOUSE_NO":"４１號","E_COORD97":168752.75,"N_COORD97":2547540.6099999999,"ADDRESS":"郡安路四段２４９巷４１號","OBJECTID":409292},"geometry":{"x":168752.75000000093,"y":2547540.6099999994}},{"attributes":{"ID":409317,"DIS_CODE":0,"TOWNNAME":"安南區","LI":"溪頂里","LIN":"22鄰","STREET":"郡安路","SECT":"四段","MAREA":" ","LANE":"２４９巷","ALLEY":" ","HOUSE_NO":"４２號","E_COORD97":168725.73999999999,"N_COORD97":2547542.1200000001,"ADDRESS":"郡安路四段２４９巷４２號","OBJECTID":409293},"geometry":{"x":168725.74000000115,"y":2547542.120000001}},{"attributes":{"ID":409318,"DIS_CODE":0,"TOWNNAME":"安南區","LI":"溪頂里","LIN":"22鄰","STREET":"郡安路","SECT":"四段","MAREA":" ","LANE":"２４９巷","ALLEY":" ","HOUSE_NO":"４３號","E_COORD97":168752.75,"N_COORD97":2547535.6600000001,"ADDRESS":"郡安路四段２４９巷４３號","OBJECTID":409294},"geometry":{"x":168752.75000000093,"y":2547535.6600000039}},{"attributes":{"ID":409319,"DIS_CODE":0,"TOWNNAME":"安南區","LI":"溪頂里","LIN":"22鄰","STREET":"郡安路","SECT":"四段","MAREA":" ","LANE":"２４９巷","ALLEY":" ","HOUSE_NO":"４５號","E_COORD97":168753.10999999999,"N_COORD97":2547531.77,"ADDRESS":"郡安路四段２４９巷４５號","OBJECTID":409295},"geometry":{"x":168753.11000000034,"y":2547531.7700000014}},{"attributes":{"ID":409320,"DIS_CODE":0,"TOWNNAME":"安南區","LI":"溪頂里","LIN":"22鄰","STREET":"郡安路","SECT":"四段","MAREA":" ","LANE":"２４９巷","ALLEY":" ","HOUSE_NO":"４６號","E_COORD97":168727.06,"N_COORD97":2547533.7400000002,"ADDRESS":"郡安路四段２４９巷４６號","OBJECTID":409296},"geometry":{"x":168727.05999999959,"y":2547533.7400000002}},{"attributes":{"ID":409321,"DIS_CODE":0,"TOWNNAME":"安南區","LI":"溪頂里","LIN":"22鄰","STREET":"郡安路","SECT":"四段","MAREA":" ","LANE":"２４９巷","ALLEY":" ","HOUSE_NO":"４７號","E_COORD97":168753.28,"N_COORD97":2547527.7000000002,"ADDRESS":"郡安路四段２４９巷４７號","OBJECTID":409297},"geometry":{"x":168753.28000000119,"y":2547527.700000003}},{"attributes":{"ID":409322,"DIS_CODE":0,"TOWNNAME":"安南區","LI":"溪頂里","LIN":"22鄰","STREET":"郡安路","SECT":"四段","MAREA":" ","LANE":"２４９巷","ALLEY":" ","HOUSE_NO":"４８號","E_COORD97":168727.70999999999,"N_COORD97":2547529.96,"ADDRESS":"郡安路四段２４９巷４８號","OBJECTID":409298},"geometry":{"x":168727.71000000089,"y":2547529.9600000009}},{"attributes":{"ID":409323,"DIS_CODE":0,"TOWNNAME":"安南區","LI":"溪頂里","LIN":"22鄰","STREET":"郡安路","SECT":"四段","MAREA":" ","LANE":"２４９巷","ALLEY":" ","HOUSE_NO":"４９號","E_COORD97":168754.35000000001,"N_COORD97":2547523.98,"ADDRESS":"郡安路四段２４９巷４９號","OBJECTID":409299},"geometry":{"x":168754.34999999963,"y":2547523.9800000042}},{"attributes":{"ID":409324,"DIS_CODE":0,"TOWNNAME":"安南區","LI":"溪頂里","LIN":"22鄰","STREET":"郡安路","SECT":"四段","MAREA":" ","LANE":"２４９巷","ALLEY":" ","HOUSE_NO":"５０號","E_COORD97":168727.88,"N_COORD97":2547525.9199999999,"ADDRESS":"郡安路四段２４９巷５０號","OBJECTID":409300},"geometry":{"x":168727.88000000082,"y":2547525.9199999999}},{"attributes":{"ID":409325,"DIS_CODE":0,"TOWNNAME":"安南區","LI":"溪頂里","LIN":"22鄰","STREET":"郡安路","SECT":"四段","MAREA":" ","LANE":"２４９巷","ALLEY":" ","HOUSE_NO":"５１號","E_COORD97":168753.82000000001,"N_COORD97":2547519.2000000002,"ADDRESS":"郡安路四段２４９巷５１號","OBJECTID":409301},"geometry":{"x":168753.81999999937,"y":2547519.2000000011}},{"attributes":{"ID":409326,"DIS_CODE":0,"TOWNNAME":"安南區","LI":"溪頂里","LIN":"22鄰","STREET":"郡安路","SECT":"四段","MAREA":" ","LANE":"２４９巷","ALLEY":" ","HOUSE_NO":"５２號","E_COORD97":168728.20999999999,"N_COORD97":2547521.6499999999,"ADDRESS":"郡安路四段２４９巷５２號","OBJECTID":409302},"geometry":{"x":168728.20999999996,"y":2547521.6500000004}},{"attributes":{"ID":409327,"DIS_CODE":0,"TOWNNAME":"安南區","LI":"溪頂里","LIN":"22鄰","STREET":"郡安路","SECT":"四段","MAREA":" ","LANE":"２４９巷","ALLEY":" ","HOUSE_NO":"５３號","E_COORD97":168754.51999999999,"N_COORD97":2547515.8300000001,"ADDRESS":"郡安路四段２４９巷５３號","OBJECTID":409303},"geometry":{"x":168754.51999999955,"y":2547515.8300000019}},{"attributes":{"ID":409328,"DIS_CODE":0,"TOWNNAME":"安南區","LI":"溪頂里","LIN":"22鄰","STREET":"郡安路","SECT":"四段","MAREA":" ","LANE":"２４９巷","ALLEY":" ","HOUSE_NO":"５４號","E_COORD97":168728.37,"N_COORD97":2547517.54,"ADDRESS":"郡安路四段２４９巷５４號","OBJECTID":409304},"geometry":{"x":168728.37000000104,"y":2547517.5399999991}},{"attributes":{"ID":409329,"DIS_CODE":0,"TOWNNAME":"安南區","LI":"溪頂里","LIN":"22鄰","STREET":"郡安路","SECT":"四段","MAREA":" ","LANE":"２４９巷","ALLEY":" ","HOUSE_NO":"５５號","E_COORD97":168755.59,"N_COORD97":2547511.0499999998,"ADDRESS":"郡安路四段２４９巷５５號","OBJECTID":409305},"geometry":{"x":168755.59000000078,"y":2547511.0500000026}},{"attributes":{"ID":409330,"DIS_CODE":0,"TOWNNAME":"安南區","LI":"溪頂里","LIN":"22鄰","STREET":"郡安路","SECT":"四段","MAREA":" ","LANE":"２４９巷","ALLEY":" ","HOUSE_NO":"５６號","E_COORD97":168728.87,"N_COORD97":2547513.4399999999,"ADDRESS":"郡安路四段２４９巷５６號","OBJECTID":409306},"geometry":{"x":168728.87000000011,"y":2547513.4400000013}},{"attributes":{"ID":409331,"DIS_CODE":0,"TOWNNAME":"安南區","LI":"溪頂里","LIN":"22鄰","STREET":"郡安路","SECT":"四段","MAREA":" ","LANE":"２４９巷","ALLEY":" ","HOUSE_NO":"５７號","E_COORD97":168754.51999999999,"N_COORD97":2547507.5099999998,"ADDRESS":"郡安路四段２４９巷５７號","OBJECTID":409307},"geometry":{"x":168754.51999999955,"y":2547507.5100000016}},{"attributes":{"ID":409332,"DIS_CODE":0,"TOWNNAME":"安南區","LI":"溪頂里","LIN":"22鄰","STREET":"郡安路","SECT":"四段","MAREA":" ","LANE":"２４９巷","ALLEY":" ","HOUSE_NO":"５８號","E_COORD97":168729.20000000001,"N_COORD97":2547509.8199999998,"ADDRESS":"郡安路四段２４９巷５８號","OBJECTID":409308},"geometry":{"x":168729.20000000205,"y":2547509.8200000003}},{"attributes":{"ID":409333,"DIS_CODE":0,"TOWNNAME":"安南區","LI":"溪頂里","LIN":"22鄰","STREET":"郡安路","SECT":"四段","MAREA":" ","LANE":"２４９巷","ALLEY":" ","HOUSE_NO":"５９號","E_COORD97":168755.41,"N_COORD97":2547503.6200000001,"ADDRESS":"郡安路四段２４９巷５９號","OBJECTID":409309},"geometry":{"x":168755.41000000108,"y":2547503.6200000029}},{"attributes":{"ID":409334,"DIS_CODE":0,"TOWNNAME":"安南區","LI":"溪頂里","LIN":"22鄰","STREET":"郡安路","SECT":"四段","MAREA":" ","LANE":"２４９巷","ALLEY":" ","HOUSE_NO":"５號","E_COORD97":168746.70999999999,"N_COORD97":2547620.21,"ADDRESS":"郡安路四段２４９巷５號","OBJECTID":409310},"geometry":{"x":168746.70999999996,"y":2547620.2100000009}},{"attributes":{"ID":409335,"DIS_CODE":0,"TOWNNAME":"安南區","LI":"溪頂里","LIN":"22鄰","STREET":"郡安路","SECT":"四段","MAREA":" ","LANE":"２４９巷","ALLEY":" ","HOUSE_NO":"６０號","E_COORD97":168729.53,"N_COORD97":2547505.2200000002,"ADDRESS":"郡安路四段２４９巷６０號","OBJECTID":409311},"geometry":{"x":168729.53000000119,"y":2547505.2199999988}},{"attributes":{"ID":409336,"DIS_CODE":0,"TOWNNAME":"安南區","LI":"溪頂里","LIN":"22鄰","STREET":"郡安路","SECT":"四段","MAREA":" ","LANE":"２４９巷","ALLEY":" ","HOUSE_NO":"６２號","E_COORD97":168730.01999999999,"N_COORD97":2547501.4399999999,"ADDRESS":"郡安路四段２４９巷６２號","OBJECTID":409312},"geometry":{"x":168730.02000000048,"y":2547501.4399999995}},{"attributes":{"ID":409337,"DIS_CODE":0,"TOWNNAME":"安南區","LI":"溪頂里","LIN":"22鄰","STREET":"郡安路","SECT":"四段","MAREA":" ","LANE":"２４９巷","ALLEY":" ","HOUSE_NO":"６號","E_COORD97":168719.34,"N_COORD97":2547622.2400000002,"ADDRESS":"郡安路四段２４９巷６號","OBJECTID":409313},"geometry":{"x":168719.34000000171,"y":2547622.2400000002}},{"attributes":{"ID":409338,"DIS_CODE":0,"TOWNNAME":"安南區","LI":"溪頂里","LIN":"22鄰","STREET":"郡安路","SECT":"四段","MAREA":" ","LANE":"２４９巷","ALLEY":" ","HOUSE_NO":"７號","E_COORD97":168746.17999999999,"N_COORD97":2547616.1400000001,"ADDRESS":"郡安路四段２４９巷７號","OBJECTID":409314},"geometry":{"x":168746.18000000063,"y":2547616.1400000006}},{"attributes":{"ID":409339,"DIS_CODE":0,"TOWNNAME":"安南區","LI":"溪頂里","LIN":"22鄰","STREET":"郡安路","SECT":"四段","MAREA":" ","LANE":"２４９巷","ALLEY":" ","HOUSE_NO":"８號","E_COORD97":168719.64000000001,"N_COORD97":2547618.4900000002,"ADDRESS":"郡安路四段２４９巷８號","OBJECTID":409315},"geometry":{"x":168719.6400000006,"y":2547618.4900000039}},{"attributes":{"ID":409340,"DIS_CODE":0,"TOWNNAME":"安南區","LI":"溪頂里","LIN":"22鄰","STREET":"郡安路","SECT":"四段","MAREA":" ","LANE":"２４９巷","ALLEY":" ","HOUSE_NO":"９號","E_COORD97":168747.06,"N_COORD97":2547612.25,"ADDRESS":"郡安路四段２４９巷９號","OBJECTID":409316},"geometry":{"x":168747.06000000052,"y":2547612.25}},{"attributes":{"ID":409341,"DIS_CODE":0,"TOWNNAME":"安南區","LI":"溪頂里","LIN":"22鄰","STREET":"郡安路","SECT":"四段","MAREA":" ","LANE":"２４９巷","ALLEY":" ","HOUSE_NO":"３４號","E_COORD97":168724.92000000001,"N_COORD97":2547558.3900000001,"ADDRESS":"郡安路四段２４９巷３４號","OBJECTID":409317},"geometry":{"x":168724.91999999993,"y":2547558.3900000043}},{"attributes":{"ID":409342,"DIS_CODE":0,"TOWNNAME":"下營區","LI":"後街里","LIN":"22鄰","STREET":"大和街","SECT":" ","MAREA":" ","LANE":"１０３巷","ALLEY":" ","HOUSE_NO":"１０號","E_COORD97":174624.92999999999,"N_COORD97":2571196.6299999999,"ADDRESS":"大和街１０３巷１０號","OBJECTID":409318},"geometry":{"x":174624.93000000063,"y":2571196.6300000008}},{"attributes":{"ID":409343,"DIS_CODE":0,"TOWNNAME":"下營區","LI":"後街里","LIN":"22鄰","STREET":"大和街","SECT":" ","MAREA":" ","LANE":"１０３巷","ALLEY":" ","HOUSE_NO":"１２號","E_COORD97":174625.26000000001,"N_COORD97":2571192.5699999998,"ADDRESS":"大和街１０３巷１２號","OBJECTID":409319},"geometry":{"x":174625.25999999978,"y":2571192.5700000022}},{"attributes":{"ID":409344,"DIS_CODE":0,"TOWNNAME":"下營區","LI":"後街里","LIN":"22鄰","STREET":"大和街","SECT":" ","MAREA":" ","LANE":"１０３巷","ALLEY":" ","HOUSE_NO":"１６號","E_COORD97":174625.67000000001,"N_COORD97":2571188.4100000001,"ADDRESS":"大和街１０３巷１６號","OBJECTID":409320},"geometry":{"x":174625.67000000086,"y":2571188.4100000001}},{"attributes":{"ID":409345,"DIS_CODE":0,"TOWNNAME":"下營區","LI":"後街里","LIN":"22鄰","STREET":"大和街","SECT":" ","MAREA":" ","LANE":"１０３巷","ALLEY":" ","HOUSE_NO":"１８號","E_COORD97":174625.89000000001,"N_COORD97":2571184.3100000001,"ADDRESS":"大和街１０３巷１８號","OBJECTID":409321},"geometry":{"x":174625.88999999966,"y":2571184.3100000024}},{"attributes":{"ID":409346,"DIS_CODE":0,"TOWNNAME":"下營區","LI":"後街里","LIN":"22鄰","STREET":"大和街","SECT":" ","MAREA":" ","LANE":"１０３巷","ALLEY":" ","HOUSE_NO":"２０號","E_COORD97":174626.39999999999,"N_COORD97":2571180.3300000001,"ADDRESS":"大和街１０３巷２０號","OBJECTID":409322},"geometry":{"x":174626.4000000013,"y":2571180.3300000019}},{"attributes":{"ID":409347,"DIS_CODE":0,"TOWNNAME":"下營區","LI":"後街里","LIN":"22鄰","STREET":"大和街","SECT":" ","MAREA":" ","LANE":"１０３巷","ALLEY":" ","HOUSE_NO":"２號","E_COORD97":174623.98999999999,"N_COORD97":2571209.1800000002,"ADDRESS":"大和街１０３巷２號","OBJECTID":409323},"geometry":{"x":174623.99000000022,"y":2571209.1799999997}},{"attributes":{"ID":409348,"DIS_CODE":0,"TOWNNAME":"下營區","LI":"後街里","LIN":"22鄰","STREET":"大和街","SECT":" ","MAREA":" ","LANE":"１０３巷","ALLEY":" ","HOUSE_NO":"６號","E_COORD97":174624.26000000001,"N_COORD97":2571205.3100000001,"ADDRESS":"大和街１０３巷６號","OBJECTID":409324},"geometry":{"x":174624.26000000164,"y":2571205.3100000005}},{"attributes":{"ID":409349,"DIS_CODE":0,"TOWNNAME":"下營區","LI":"後街里","LIN":"22鄰","STREET":"大和街","SECT":" ","MAREA":" ","LANE":"１１３巷","ALLEY":" ","HOUSE_NO":"１１號","E_COORD97":174622.89999999999,"N_COORD97":2571147.1899999999,"ADDRESS":"大和街１１３巷１１號","OBJECTID":409325},"geometry":{"x":174622.9000000013,"y":2571147.1899999995}},{"attributes":{"ID":409350,"DIS_CODE":0,"TOWNNAME":"下營區","LI":"後街里","LIN":"22鄰","STREET":"大和街","SECT":" ","MAREA":" ","LANE":"１１３巷","ALLEY":" ","HOUSE_NO":"１３號","E_COORD97":174623.42000000001,"N_COORD97":2571143.1600000001,"ADDRESS":"大和街１１３巷１３號","OBJECTID":409326},"geometry":{"x":174623.42000000086,"y":2571143.1600000039}},{"attributes":{"ID":409351,"DIS_CODE":0,"TOWNNAME":"東區","LI":"崇學里","LIN":"13鄰","STREET":"崇明九街","SECT":" ","MAREA":" ","LANE":" ","ALLEY":" ","HOUSE_NO":"１１８號","E_COORD97":170205.79999999999,"N_COORD97":2541923.6899999999,"ADDRESS":"崇明九街１１８號","OBJECTID":409327},"geometry":{"x":170205.79999999981,"y":2541923.6900000032}},{"attributes":{"ID":409352,"DIS_CODE":0,"TOWNNAME":"下營區","LI":"後街里","LIN":"22鄰","STREET":"大和街","SECT":" ","MAREA":" ","LANE":"１１３巷","ALLEY":" ","HOUSE_NO":"１５號","E_COORD97":174623.82000000001,"N_COORD97":2571138.6600000001,"ADDRESS":"大和街１１３巷１５號","OBJECTID":409328},"geometry":{"x":174623.8200000003,"y":2571138.6600000001}},{"attributes":{"ID":409353,"DIS_CODE":0,"TOWNNAME":"下營區","LI":"後街里","LIN":"22鄰","STREET":"大和街","SECT":" ","MAREA":" ","LANE":"１１３巷","ALLEY":" ","HOUSE_NO":"１７號","E_COORD97":174624.04999999999,"N_COORD97":2571134.5800000001,"ADDRESS":"大和街１１３巷１７號","OBJECTID":409329},"geometry":{"x":174624.05000000168,"y":2571134.5800000019}},{"attributes":{"ID":409354,"DIS_CODE":0,"TOWNNAME":"下營區","LI":"後街里","LIN":"22鄰","STREET":"大和街","SECT":" ","MAREA":" ","LANE":"１１３巷","ALLEY":" ","HOUSE_NO":"１９號","E_COORD97":174624.60999999999,"N_COORD97":2571130.3500000001,"ADDRESS":"大和街１１３巷１９號","OBJECTID":409330},"geometry":{"x":174624.61000000127,"y":2571130.3499999996}},{"attributes":{"ID":409355,"DIS_CODE":0,"TOWNNAME":"下營區","LI":"後街里","LIN":"22鄰","STREET":"大和街","SECT":" ","MAREA":" ","LANE":"１１３巷","ALLEY":" ","HOUSE_NO":"１號","E_COORD97":174621.23000000001,"N_COORD97":2571168.29,"ADDRESS":"大和街１１３巷１號","OBJECTID":409331},"geometry":{"x":174621.23000000045,"y":2571168.2900000028}},{"attributes":{"ID":409356,"DIS_CODE":0,"TOWNNAME":"下營區","LI":"後街里","LIN":"22鄰","STREET":"大和街","SECT":" ","MAREA":" ","LANE":"１１３巷","ALLEY":" ","HOUSE_NO":"３號","E_COORD97":174621.78,"N_COORD97":2571164.3199999998,"ADDRESS":"大和街１１３巷３號","OBJECTID":409332},"geometry":{"x":174621.78000000119,"y":2571164.3200000003}},{"attributes":{"ID":409357,"DIS_CODE":0,"TOWNNAME":"下營區","LI":"後街里","LIN":"22鄰","STREET":"大忠街","SECT":" ","MAREA":" ","LANE":"６２巷","ALLEY":" ","HOUSE_NO":"１０號","E_COORD97":174693.44,"N_COORD97":2571063.6600000001,"ADDRESS":"大忠街６２巷１０號","OBJECTID":409333},"geometry":{"x":174693.44000000134,"y":2571063.6600000001}},{"attributes":{"ID":409358,"DIS_CODE":0,"TOWNNAME":"下營區","LI":"後街里","LIN":"22鄰","STREET":"大忠街","SECT":" ","MAREA":" ","LANE":"６２巷","ALLEY":" ","HOUSE_NO":"１２號","E_COORD97":174692.98000000001,"N_COORD97":2571067.5499999998,"ADDRESS":"大忠街６２巷１２號","OBJECTID":409334},"geometry":{"x":174692.98000000231,"y":2571067.5500000026}},{"attributes":{"ID":409359,"DIS_CODE":0,"TOWNNAME":"下營區","LI":"後街里","LIN":"22鄰","STREET":"大忠街","SECT":" ","MAREA":" ","LANE":"６２巷","ALLEY":" ","HOUSE_NO":"１６號","E_COORD97":174692.54000000001,"N_COORD97":2571071.75,"ADDRESS":"大忠街６２巷１６號","OBJECTID":409335},"geometry":{"x":174692.54000000097,"y":2571071.7500000019}},{"attributes":{"ID":409360,"DIS_CODE":0,"TOWNNAME":"下營區","LI":"後街里","LIN":"22鄰","STREET":"大忠街","SECT":" ","MAREA":" ","LANE":"６２巷","ALLEY":" ","HOUSE_NO":"１８號","E_COORD97":174692.22,"N_COORD97":2571075.8999999999,"ADDRESS":"大忠街６２巷１８號","OBJECTID":409336},"geometry":{"x":174692.2200000016,"y":2571075.9000000004}},{"attributes":{"ID":409361,"DIS_CODE":0,"TOWNNAME":"下營區","LI":"後街里","LIN":"22鄰","STREET":"大忠街","SECT":" ","MAREA":" ","LANE":"６２巷","ALLEY":" ","HOUSE_NO":"２０號","E_COORD97":174691.67999999999,"N_COORD97":2571079.8100000001,"ADDRESS":"大忠街６２巷２０號","OBJECTID":409337},"geometry":{"x":174691.6799999997,"y":2571079.8100000005}},{"attributes":{"ID":409362,"DIS_CODE":0,"TOWNNAME":"下營區","LI":"後街里","LIN":"22鄰","STREET":"大忠街","SECT":" ","MAREA":" ","LANE":"６２巷","ALLEY":" ","HOUSE_NO":"２２號","E_COORD97":174691.64999999999,"N_COORD97":2571088.1200000001,"ADDRESS":"大忠街６２巷２２號","OBJECTID":409338},"geometry":{"x":174691.65000000224,"y":2571088.1200000029}},{"attributes":{"ID":409363,"DIS_CODE":0,"TOWNNAME":"下營區","LI":"後街里","LIN":"22鄰","STREET":"大忠街","SECT":" ","MAREA":" ","LANE":"６２巷","ALLEY":" ","HOUSE_NO":"２６號","E_COORD97":174690.82999999999,"N_COORD97":2571092.0699999998,"ADDRESS":"大忠街６２巷２６號","OBJECTID":409339},"geometry":{"x":174690.83000000101,"y":2571092.0700000003}},{"attributes":{"ID":409364,"DIS_CODE":0,"TOWNNAME":"下營區","LI":"後街里","LIN":"22鄰","STREET":"大忠街","SECT":" ","MAREA":" ","LANE":"６２巷","ALLEY":" ","HOUSE_NO":"２８號","E_COORD97":174690.10999999999,"N_COORD97":2571095.9199999999,"ADDRESS":"大忠街６２巷２８號","OBJECTID":409340},"geometry":{"x":174690.1099999994,"y":2571095.9199999999}},{"attributes":{"ID":409365,"DIS_CODE":0,"TOWNNAME":"下營區","LI":"後街里","LIN":"22鄰","STREET":"大忠街","SECT":" ","MAREA":" ","LANE":"６２巷","ALLEY":" ","HOUSE_NO":"２號","E_COORD97":174694.67999999999,"N_COORD97":2571051.96,"ADDRESS":"大忠街６２巷２號","OBJECTID":409341},"geometry":{"x":174694.68000000063,"y":2571051.9600000009}},{"attributes":{"ID":409366,"DIS_CODE":0,"TOWNNAME":"下營區","LI":"後街里","LIN":"22鄰","STREET":"大忠街","SECT":" ","MAREA":" ","LANE":"６２巷","ALLEY":" ","HOUSE_NO":"３０號","E_COORD97":174689.92000000001,"N_COORD97":2571099.7000000002,"ADDRESS":"大忠街６２巷３０號","OBJECTID":409342},"geometry":{"x":174689.92000000086,"y":2571099.6999999993}},{"attributes":{"ID":409367,"DIS_CODE":0,"TOWNNAME":"下營區","LI":"後街里","LIN":"22鄰","STREET":"大忠街","SECT":" ","MAREA":" ","LANE":"６２巷","ALLEY":" ","HOUSE_NO":"３２號","E_COORD97":174689.57000000001,"N_COORD97":2571103.75,"ADDRESS":"大忠街６２巷３２號","OBJECTID":409343},"geometry":{"x":174689.57000000123,"y":2571103.75}},{"attributes":{"ID":409368,"DIS_CODE":0,"TOWNNAME":"下營區","LI":"後街里","LIN":"22鄰","STREET":"大忠街","SECT":" ","MAREA":" ","LANE":"６２巷","ALLEY":" ","HOUSE_NO":"３６號","E_COORD97":174688.85999999999,"N_COORD97":2571108.0099999998,"ADDRESS":"大忠街６２巷３６號","OBJECTID":409344},"geometry":{"x":174688.86000000127,"y":2571108.0099999998}},{"attributes":{"ID":409369,"DIS_CODE":0,"TOWNNAME":"下營區","LI":"後街里","LIN":"22鄰","STREET":"大忠街","SECT":" ","MAREA":" ","LANE":"６２巷","ALLEY":" ","HOUSE_NO":"３８號","E_COORD97":174688.39999999999,"N_COORD97":2571111.79,"ADDRESS":"大忠街６２巷３８號","OBJECTID":409345},"geometry":{"x":174688.40000000224,"y":2571111.790000001}},{"attributes":{"ID":409370,"DIS_CODE":0,"TOWNNAME":"下營區","LI":"後街里","LIN":"22鄰","STREET":"大忠街","SECT":" ","MAREA":" ","LANE":"６２巷","ALLEY":" ","HOUSE_NO":"４０號","E_COORD97":174687.73999999999,"N_COORD97":2571115.8300000001,"ADDRESS":"大忠街６２巷４０號","OBJECTID":409346},"geometry":{"x":174687.74000000115,"y":2571115.8300000019}},{"attributes":{"ID":409371,"DIS_CODE":0,"TOWNNAME":"下營區","LI":"後街里","LIN":"22鄰","STREET":"大忠街","SECT":" ","MAREA":" ","LANE":"６２巷","ALLEY":" ","HOUSE_NO":"４２號","E_COORD97":174687.42999999999,"N_COORD97":2571119.7400000002,"ADDRESS":"大忠街６２巷４２號","OBJECTID":409347},"geometry":{"x":174687.43000000156,"y":2571119.7400000021}},{"attributes":{"ID":409372,"DIS_CODE":0,"TOWNNAME":"下營區","LI":"後街里","LIN":"22鄰","STREET":"大忠街","SECT":" ","MAREA":" ","LANE":"６２巷","ALLEY":" ","HOUSE_NO":"４６號","E_COORD97":174686.60000000001,"N_COORD97":2571123.7200000002,"ADDRESS":"大忠街６２巷４６號","OBJECTID":409348},"geometry":{"x":174686.60000000056,"y":2571123.7200000025}},{"attributes":{"ID":409373,"DIS_CODE":0,"TOWNNAME":"下營區","LI":"後街里","LIN":"22鄰","STREET":"大忠街","SECT":" ","MAREA":" ","LANE":"６２巷","ALLEY":" ","HOUSE_NO":"４８號","E_COORD97":174686.19,"N_COORD97":2571127.98,"ADDRESS":"大忠街６２巷４８號","OBJECTID":409349},"geometry":{"x":174686.19000000041,"y":2571127.9800000023}},{"attributes":{"ID":409374,"DIS_CODE":0,"TOWNNAME":"下營區","LI":"後街里","LIN":"22鄰","STREET":"大忠街","SECT":" ","MAREA":" ","LANE":"６２巷","ALLEY":" ","HOUSE_NO":"６號","E_COORD97":174694.34,"N_COORD97":2571055.7400000002,"ADDRESS":"大忠街６２巷６號","OBJECTID":409350},"geometry":{"x":174694.33999999985,"y":2571055.7400000021}},{"attributes":{"ID":409375,"DIS_CODE":0,"TOWNNAME":"下營區","LI":"後街里","LIN":"22鄰","STREET":"大忠街","SECT":" ","MAREA":" ","LANE":"６２巷","ALLEY":" ","HOUSE_NO":"８號","E_COORD97":174693.89000000001,"N_COORD97":2571059.6699999999,"ADDRESS":"大忠街６２巷８號","OBJECTID":409351},"geometry":{"x":174693.88999999966,"y":2571059.6699999999}},{"attributes":{"ID":409376,"DIS_CODE":0,"TOWNNAME":"新市區","LI":"港墘里","LIN":"22鄰","STREET":"南港街","SECT":" ","MAREA":" ","LANE":"２６巷","ALLEY":" ","HOUSE_NO":"１５號","E_COORD97":178178.16,"N_COORD97":2552814.75,"ADDRESS":"南港街２６巷１５號","OBJECTID":409352},"geometry":{"x":178178.16000000015,"y":2552814.7500000019}},{"attributes":{"ID":409377,"DIS_CODE":0,"TOWNNAME":"新市區","LI":"港墘里","LIN":"22鄰","STREET":"南港街","SECT":" ","MAREA":" ","LANE":"２６巷","ALLEY":" ","HOUSE_NO":"１１號","E_COORD97":178180.20999999999,"N_COORD97":2552806.25,"ADDRESS":"南港街２６巷１１號","OBJECTID":409353},"geometry":{"x":178180.21000000089,"y":2552806.25}},{"attributes":{"ID":409378,"DIS_CODE":0,"TOWNNAME":"新市區","LI":"港墘里","LIN":"22鄰","STREET":"華美街","SECT":" ","MAREA":" ","LANE":"１３巷","ALLEY":" ","HOUSE_NO":"８號","E_COORD97":178085.87,"N_COORD97":2552848.0499999998,"ADDRESS":"華美街１３巷８號","OBJECTID":409354},"geometry":{"x":178085.87000000104,"y":2552848.0500000026}},{"attributes":{"ID":409379,"DIS_CODE":0,"TOWNNAME":"新市區","LI":"港墘里","LIN":"22鄰","STREET":"南港街","SECT":" ","MAREA":" ","LANE":"２６巷","ALLEY":" ","HOUSE_NO":"４號","E_COORD97":178194.26999999999,"N_COORD97":2552790.25,"ADDRESS":"南港街２６巷４號","OBJECTID":409355},"geometry":{"x":178194.27000000048,"y":2552790.2500000037}},{"attributes":{"ID":409380,"DIS_CODE":0,"TOWNNAME":"新市區","LI":"港墘里","LIN":"22鄰","STREET":"南港街","SECT":" ","MAREA":" ","LANE":"２６巷","ALLEY":" ","HOUSE_NO":"１６號","E_COORD97":178189.14999999999,"N_COORD97":2552818,"ADDRESS":"南港街２６巷１６號","OBJECTID":409356},"geometry":{"x":178189.1500000013,"y":2552818}},{"attributes":{"ID":409381,"DIS_CODE":0,"TOWNNAME":"新市區","LI":"港墘里","LIN":"22鄰","STREET":"南港街","SECT":" ","MAREA":" ","LANE":"２６巷","ALLEY":" ","HOUSE_NO":"２０號","E_COORD97":178187.32000000001,"N_COORD97":2552826.25,"ADDRESS":"南港街２６巷２０號","OBJECTID":409357},"geometry":{"x":178187.3200000003,"y":2552826.25}},{"attributes":{"ID":409382,"DIS_CODE":0,"TOWNNAME":"新市區","LI":"港墘里","LIN":"22鄰","STREET":"南港街","SECT":" ","MAREA":" ","LANE":"２６巷","ALLEY":" ","HOUSE_NO":"１９號","E_COORD97":178176.41,"N_COORD97":2552823,"ADDRESS":"南港街２６巷１９號","OBJECTID":409358},"geometry":{"x":178176.41000000015,"y":2552823.0000000019}},{"attributes":{"ID":409383,"DIS_CODE":0,"TOWNNAME":"新市區","LI":"港墘里","LIN":"22鄰","STREET":"南港街","SECT":" ","MAREA":" ","LANE":"２６巷","ALLEY":" ","HOUSE_NO":"１號","E_COORD97":178183.63,"N_COORD97":2552785.75,"ADDRESS":"南港街２６巷１號","OBJECTID":409359},"geometry":{"x":178183.63000000082,"y":2552785.75}},{"attributes":{"ID":409384,"DIS_CODE":0,"TOWNNAME":"新市區","LI":"港墘里","LIN":"22鄰","STREET":"華美街","SECT":" ","MAREA":" ","LANE":"１３巷","ALLEY":" ","HOUSE_NO":"１０號","E_COORD97":178069.51000000001,"N_COORD97":2552865.5499999998,"ADDRESS":"華美街１３巷１０號","OBJECTID":409360},"geometry":{"x":178069.51000000071,"y":2552865.5500000007}},{"attributes":{"ID":409385,"DIS_CODE":0,"TOWNNAME":"新市區","LI":"港墘里","LIN":"22鄰","STREET":"華美街","SECT":" ","MAREA":" ","LANE":"１３巷","ALLEY":" ","HOUSE_NO":"１３號","E_COORD97":178050.39999999999,"N_COORD97":2552817.0499999998,"ADDRESS":"華美街１３巷１３號","OBJECTID":409361},"geometry":{"x":178050.4000000013,"y":2552817.0500000026}},{"attributes":{"ID":409386,"DIS_CODE":0,"TOWNNAME":"新市區","LI":"港墘里","LIN":"22鄰","STREET":"南港街","SECT":" ","MAREA":" ","LANE":"２６巷","ALLEY":" ","HOUSE_NO":"１８號","E_COORD97":178188.20999999999,"N_COORD97":2552822.25,"ADDRESS":"南港街２６巷１８號","OBJECTID":409362},"geometry":{"x":178188.21000000089,"y":2552822.2500000019}},{"attributes":{"ID":409387,"DIS_CODE":0,"TOWNNAME":"新市區","LI":"港墘里","LIN":"22鄰","STREET":"南港街","SECT":" ","MAREA":" ","LANE":"２６巷","ALLEY":" ","HOUSE_NO":"５號","E_COORD97":178181.57000000001,"N_COORD97":2552794.25,"ADDRESS":"南港街２６巷５號","OBJECTID":409363},"geometry":{"x":178181.57000000123,"y":2552794.2500000019}},{"attributes":{"ID":409388,"DIS_CODE":0,"TOWNNAME":"新市區","LI":"港墘里","LIN":"22鄰","STREET":"南港街","SECT":" ","MAREA":" ","LANE":"２６巷","ALLEY":" ","HOUSE_NO":"９號","E_COORD97":178179.76999999999,"N_COORD97":2552802.25,"ADDRESS":"南港街２６巷９號","OBJECTID":409364},"geometry":{"x":178179.76999999955,"y":2552802.25}},{"attributes":{"ID":409389,"DIS_CODE":0,"TOWNNAME":"新市區","LI":"港墘里","LIN":"22鄰","STREET":"南港街","SECT":" ","MAREA":" ","LANE":"２６巷","ALLEY":" ","HOUSE_NO":"１４號","E_COORD97":178190.20999999999,"N_COORD97":2552813.75,"ADDRESS":"南港街２６巷１４號","OBJECTID":409365},"geometry":{"x":178190.21000000089,"y":2552813.7500000037}},{"attributes":{"ID":409390,"DIS_CODE":0,"TOWNNAME":"新市區","LI":"港墘里","LIN":"22鄰","STREET":"南港街","SECT":" ","MAREA":" ","LANE":"２６巷","ALLEY":" ","HOUSE_NO":"１３號","E_COORD97":178179.13,"N_COORD97":2552810.5,"ADDRESS":"南港街２６巷１３號","OBJECTID":409366},"geometry":{"x":178179.13000000082,"y":2552810.5}},{"attributes":{"ID":409391,"DIS_CODE":0,"TOWNNAME":"安南區","LI":"溪東里","LIN":"22鄰","STREET":"安富街","SECT":" ","MAREA":" ","LANE":"１３３巷","ALLEY":" ","HOUSE_NO":"１０號","E_COORD97":167890.25,"N_COORD97":2547478.3900000001,"ADDRESS":"安富街１３３巷１０號","OBJECTID":409367},"geometry":{"x":167890.25000000093,"y":2547478.3900000025}},{"attributes":{"ID":409392,"DIS_CODE":0,"TOWNNAME":"安南區","LI":"溪東里","LIN":"22鄰","STREET":"安富街","SECT":" ","MAREA":" ","LANE":"１３３巷","ALLEY":" ","HOUSE_NO":"１２號","E_COORD97":167890.48999999999,"N_COORD97":2547473.8599999999,"ADDRESS":"安富街１３３巷１２號","OBJECTID":409368},"geometry":{"x":167890.49000000115,"y":2547473.8600000013}},{"attributes":{"ID":409393,"DIS_CODE":0,"TOWNNAME":"安南區","LI":"溪東里","LIN":"22鄰","STREET":"安富街","SECT":" ","MAREA":" ","LANE":"１３３巷","ALLEY":" ","HOUSE_NO":"１６號","E_COORD97":167890.60000000001,"N_COORD97":2547469.8100000001,"ADDRESS":"安富街１３３巷１６號","OBJECTID":409369},"geometry":{"x":167890.60000000056,"y":2547469.8100000005}},{"attributes":{"ID":409394,"DIS_CODE":0,"TOWNNAME":"安南區","LI":"溪東里","LIN":"22鄰","STREET":"安富街","SECT":" ","MAREA":" ","LANE":"１３３巷","ALLEY":" ","HOUSE_NO":"２號","E_COORD97":167886.54999999999,"N_COORD97":2547490.6699999999,"ADDRESS":"安富街１３３巷２號","OBJECTID":409370},"geometry":{"x":167886.54999999981,"y":2547490.6699999999}},{"attributes":{"ID":409395,"DIS_CODE":0,"TOWNNAME":"安南區","LI":"溪東里","LIN":"22鄰","STREET":"安富街","SECT":" ","MAREA":" ","LANE":"１３３巷","ALLEY":" ","HOUSE_NO":"６號","E_COORD97":167887.5,"N_COORD97":2547486.1400000001,"ADDRESS":"安富街１３３巷６號","OBJECTID":409371},"geometry":{"x":167887.5,"y":2547486.1400000025}},{"attributes":{"ID":409396,"DIS_CODE":0,"TOWNNAME":"安南區","LI":"溪東里","LIN":"22鄰","STREET":"安富街","SECT":" ","MAREA":" ","LANE":"１３３巷","ALLEY":" ","HOUSE_NO":"８號","E_COORD97":167889.41,"N_COORD97":2547482.0899999999,"ADDRESS":"安富街１３３巷８號","OBJECTID":409372},"geometry":{"x":167889.41000000108,"y":2547482.0900000017}},{"attributes":{"ID":409397,"DIS_CODE":0,"TOWNNAME":"安南區","LI":"溪東里","LIN":"22鄰","STREET":"安富街","SECT":" ","MAREA":" ","LANE":"１６７巷","ALLEY":" ","HOUSE_NO":"１號","E_COORD97":167805.14999999999,"N_COORD97":2547489.2599999998,"ADDRESS":"安富街１６７巷１號","OBJECTID":409373},"geometry":{"x":167805.15000000037,"y":2547489.2599999998}},{"attributes":{"ID":409398,"DIS_CODE":0,"TOWNNAME":"安南區","LI":"溪東里","LIN":"22鄰","STREET":"安富街","SECT":" ","MAREA":" ","LANE":"１６７巷","ALLEY":" ","HOUSE_NO":"３號","E_COORD97":167804.76000000001,"N_COORD97":2547482.6600000001,"ADDRESS":"安富街１６７巷３號","OBJECTID":409374},"geometry":{"x":167804.76000000071,"y":2547482.660000002}},{"attributes":{"ID":409399,"DIS_CODE":0,"TOWNNAME":"安南區","LI":"溪東里","LIN":"22鄰","STREET":"安富街","SECT":" ","MAREA":" ","LANE":"１６７巷","ALLEY":" ","HOUSE_NO":"５號","E_COORD97":167806.84,"N_COORD97":2547478.1299999999,"ADDRESS":"安富街１６７巷５號","OBJECTID":409375},"geometry":{"x":167806.83999999985,"y":2547478.1300000008}},{"attributes":{"ID":409400,"DIS_CODE":0,"TOWNNAME":"安南區","LI":"溪東里","LIN":"22鄰","STREET":"安富街","SECT":" ","MAREA":" ","LANE":"１６７巷","ALLEY":" ","HOUSE_NO":"７號","E_COORD97":167808.91,"N_COORD97":2547474.1200000001,"ADDRESS":"安富街１６７巷７號","OBJECTID":409376},"geometry":{"x":167808.91000000201,"y":2547474.1200000029}},{"attributes":{"ID":409401,"DIS_CODE":0,"TOWNNAME":"安南區","LI":"溪東里","LIN":"22鄰","STREET":"安富街","SECT":" ","MAREA":" ","LANE":"１６７巷","ALLEY":" ","HOUSE_NO":"９號","E_COORD97":167808.26000000001,"N_COORD97":2547468.5499999998,"ADDRESS":"安富街１６７巷９號","OBJECTID":409377},"geometry":{"x":167808.26000000071,"y":2547468.5500000007}},{"attributes":{"ID":409402,"DIS_CODE":0,"TOWNNAME":"佳里區","LI":"建南里","LIN":"22鄰","STREET":"四維三街","SECT":" ","MAREA":" ","LANE":"２３巷","ALLEY":" ","HOUSE_NO":"１３號","E_COORD97":165616,"N_COORD97":2561416.1299999999,"ADDRESS":"四維三街２３巷１３號","OBJECTID":409378},"geometry":{"x":165616,"y":2561416.1300000008}},{"attributes":{"ID":409403,"DIS_CODE":0,"TOWNNAME":"佳里區","LI":"建南里","LIN":"22鄰","STREET":"四維三街","SECT":" ","MAREA":" ","LANE":"２３巷","ALLEY":" ","HOUSE_NO":"１５號","E_COORD97":165626.32999999999,"N_COORD97":2561416.9399999999,"ADDRESS":"四維三街２３巷１５號","OBJECTID":409379},"geometry":{"x":165626.33000000101,"y":2561416.9400000032}},{"attributes":{"ID":409404,"DIS_CODE":0,"TOWNNAME":"佳里區","LI":"建南里","LIN":"22鄰","STREET":"四維三街","SECT":" ","MAREA":" ","LANE":"２３巷","ALLEY":" ","HOUSE_NO":"１７號","E_COORD97":165640.23000000001,"N_COORD97":2561416.5,"ADDRESS":"四維三街２３巷１７號","OBJECTID":409380},"geometry":{"x":165640.23000000045,"y":2561416.5}},{"attributes":{"ID":409405,"DIS_CODE":0,"TOWNNAME":"佳里區","LI":"建南里","LIN":"22鄰","STREET":"四維三街","SECT":" ","MAREA":" ","LANE":"２３巷","ALLEY":" ","HOUSE_NO":"３號","E_COORD97":165590.57999999999,"N_COORD97":2561416.3399999999,"ADDRESS":"四維三街２３巷３號","OBJECTID":409381},"geometry":{"x":165590.58000000101,"y":2561416.3399999999}},{"attributes":{"ID":409406,"DIS_CODE":0,"TOWNNAME":"佳里區","LI":"建南里","LIN":"22鄰","STREET":"四維三街","SECT":" ","MAREA":" ","LANE":"２３巷","ALLEY":" ","HOUSE_NO":"５號","E_COORD97":165594.79000000001,"N_COORD97":2561416.1899999999,"ADDRESS":"四維三街２３巷５號","OBJECTID":409382},"geometry":{"x":165594.79000000097,"y":2561416.1900000013}},{"attributes":{"ID":409407,"DIS_CODE":0,"TOWNNAME":"佳里區","LI":"建南里","LIN":"22鄰","STREET":"四維三街","SECT":" ","MAREA":" ","LANE":"２３巷","ALLEY":" ","HOUSE_NO":"７號","E_COORD97":165599.20999999999,"N_COORD97":2561416.4700000002,"ADDRESS":"四維三街２３巷７號","OBJECTID":409383},"geometry":{"x":165599.20999999996,"y":2561416.4700000007}},{"attributes":{"ID":409408,"DIS_CODE":0,"TOWNNAME":"佳里區","LI":"建南里","LIN":"22鄰","STREET":"四維三街","SECT":" ","MAREA":" ","LANE":"２３巷","ALLEY":" ","HOUSE_NO":"９號","E_COORD97":165603.28,"N_COORD97":2561416.3399999999,"ADDRESS":"四維三街２３巷９號","OBJECTID":409384},"geometry":{"x":165603.28000000119,"y":2561416.3399999999}},{"attributes":{"ID":409409,"DIS_CODE":0,"TOWNNAME":"佳里區","LI":"建南里","LIN":"22鄰","STREET":"四維三街","SECT":" ","MAREA":" ","LANE":"３２巷","ALLEY":" ","HOUSE_NO":"１０號","E_COORD97":165535.22,"N_COORD97":2561401,"ADDRESS":"四維三街３２巷１０號","OBJECTID":409385},"geometry":{"x":165535.22000000067,"y":2561401.0000000019}},{"attributes":{"ID":409410,"DIS_CODE":0,"TOWNNAME":"佳里區","LI":"建南里","LIN":"22鄰","STREET":"四維三街","SECT":" ","MAREA":" ","LANE":"３２巷","ALLEY":" ","HOUSE_NO":"１２號","E_COORD97":165530.85000000001,"N_COORD97":2561401.1400000001,"ADDRESS":"四維三街３２巷１２號","OBJECTID":409386},"geometry":{"x":165530.85000000056,"y":2561401.1400000025}},{"attributes":{"ID":409411,"DIS_CODE":0,"TOWNNAME":"佳里區","LI":"建南里","LIN":"22鄰","STREET":"四維三街","SECT":" ","MAREA":" ","LANE":"３２巷","ALLEY":" ","HOUSE_NO":"１４號","E_COORD97":165525.23000000001,"N_COORD97":2561401.3100000001,"ADDRESS":"四維三街３２巷１４號","OBJECTID":409387},"geometry":{"x":165525.22999999952,"y":2561401.3100000005}},{"attributes":{"ID":409412,"DIS_CODE":0,"TOWNNAME":"佳里區","LI":"建南里","LIN":"22鄰","STREET":"四維三街","SECT":" ","MAREA":" ","LANE":"３２巷","ALLEY":" ","HOUSE_NO":"１６號","E_COORD97":165520.57000000001,"N_COORD97":2561401.0099999998,"ADDRESS":"四維三街３２巷１６號","OBJECTID":409388},"geometry":{"x":165520.5700000003,"y":2561401.0100000016}},{"attributes":{"ID":409413,"DIS_CODE":0,"TOWNNAME":"佳里區","LI":"建南里","LIN":"22鄰","STREET":"四維三街","SECT":" ","MAREA":" ","LANE":"３２巷","ALLEY":" ","HOUSE_NO":"１８號","E_COORD97":165515.23000000001,"N_COORD97":2561401.2400000002,"ADDRESS":"四維三街３２巷１８號","OBJECTID":409389},"geometry":{"x":165515.23000000231,"y":2561401.2400000002}},{"attributes":{"ID":409414,"DIS_CODE":0,"TOWNNAME":"佳里區","LI":"建南里","LIN":"22鄰","STREET":"四維三街","SECT":" ","MAREA":" ","LANE":"３２巷","ALLEY":" ","HOUSE_NO":"２號","E_COORD97":165550.82000000001,"N_COORD97":2561400.6800000002,"ADDRESS":"四維三街３２巷２號","OBJECTID":409390},"geometry":{"x":165550.82000000123,"y":2561400.6799999997}},{"attributes":{"ID":409415,"DIS_CODE":0,"TOWNNAME":"佳里區","LI":"建南里","LIN":"22鄰","STREET":"四維三街","SECT":" ","MAREA":" ","LANE":"３２巷","ALLEY":" ","HOUSE_NO":"６號","E_COORD97":165545.32000000001,"N_COORD97":2561400.7799999998,"ADDRESS":"四維三街３２巷６號","OBJECTID":409391},"geometry":{"x":165545.32000000123,"y":2561400.7800000031}},{"attributes":{"ID":409416,"DIS_CODE":0,"TOWNNAME":"永康區","LI":"東灣里","LIN":"22鄰","STREET":"大灣三街","SECT":" ","MAREA":" ","LANE":"７３巷","ALLEY":" ","HOUSE_NO":"１２７號","E_COORD97":174843.06,"N_COORD97":2544780.21,"ADDRESS":"大灣三街７３巷１２７號","OBJECTID":409392},"geometry":{"x":174843.06000000052,"y":2544780.2100000028}},{"attributes":{"ID":409417,"DIS_CODE":0,"TOWNNAME":"永康區","LI":"勝利里","LIN":"22鄰","STREET":"中華一路","SECT":" ","MAREA":" ","LANE":"１８２巷","ALLEY":" ","HOUSE_NO":"２４號","E_COORD97":171522.81,"N_COORD97":2545103,"ADDRESS":"中華一路１８２巷２４號","OBJECTID":409393},"geometry":{"x":171522.80999999959,"y":2545103.0000000019}},{"attributes":{"ID":409418,"DIS_CODE":0,"TOWNNAME":"東區","LI":"大智里","LIN":"40鄰","STREET":"文東街","SECT":" ","MAREA":" ","LANE":"２巷","ALLEY":" ","HOUSE_NO":"１７號","E_COORD97":171377.45999999999,"N_COORD97":2540130.9100000001,"ADDRESS":"文東街２巷１７號","OBJECTID":409394},"geometry":{"x":171377.46000000089,"y":2540130.910000002}},{"attributes":{"ID":409419,"DIS_CODE":0,"TOWNNAME":"永康區","LI":"西灣里","LIN":"22鄰","STREET":"大勇路","SECT":" ","MAREA":" ","LANE":"６２巷","ALLEY":" ","HOUSE_NO":"２０號","E_COORD97":174279.69,"N_COORD97":2545419.3700000001,"ADDRESS":"大勇路６２巷２０號","OBJECTID":409395},"geometry":{"x":174279.69000000134,"y":2545419.370000001}},{"attributes":{"ID":409420,"DIS_CODE":0,"TOWNNAME":"永康區","LI":"正強里","LIN":"22鄰","STREET":"自強路","SECT":" ","MAREA":" ","LANE":"３２１巷","ALLEY":" ","HOUSE_NO":"６號","E_COORD97":173441.76999999999,"N_COORD97":2547769.25,"ADDRESS":"自強路３２１巷６號","OBJECTID":409396},"geometry":{"x":173441.76999999955,"y":2547769.2500000019}},{"attributes":{"ID":409421,"DIS_CODE":0,"TOWNNAME":"永康區","LI":"建國里","LIN":"22鄰","STREET":"興國街","SECT":" ","MAREA":" ","LANE":"５巷","ALLEY":" ","HOUSE_NO":"２號","E_COORD97":172665.32999999999,"N_COORD97":2544681.75,"ADDRESS":"興國街５巷２號","OBJECTID":409397},"geometry":{"x":172665.33000000007,"y":2544681.7500000019}},{"attributes":{"ID":409422,"DIS_CODE":0,"TOWNNAME":"永康區","LI":"網寮里","LIN":"22鄰","STREET":"永春街","SECT":" ","MAREA":" ","LANE":"２５巷","ALLEY":" ","HOUSE_NO":"１５號之８","E_COORD97":173705.70999999999,"N_COORD97":2546261.04,"ADDRESS":"永春街２５巷１５號之８","OBJECTID":409398},"geometry":{"x":173705.70999999996,"y":2546261.040000001}},{"attributes":{"ID":409423,"DIS_CODE":0,"TOWNNAME":"永康區","LI":"西灣里","LIN":"22鄰","STREET":"永大路","SECT":"二段","MAREA":" ","LANE":"１９７巷","ALLEY":" ","HOUSE_NO":"５２號","E_COORD97":174224.10999999999,"N_COORD97":2545343.1200000001,"ADDRESS":"永大路二段１９７巷５２號","OBJECTID":409399},"geometry":{"x":174224.1100000022,"y":2545343.1199999992}},{"attributes":{"ID":409424,"DIS_CODE":0,"TOWNNAME":"永康區","LI":"西灣里","LIN":"22鄰","STREET":"永大路","SECT":"二段","MAREA":" ","LANE":"１９７巷","ALLEY":" ","HOUSE_NO":"５０號","E_COORD97":174227.67999999999,"N_COORD97":2545341.6200000001,"ADDRESS":"永大路二段１９７巷５０號","OBJECTID":409400},"geometry":{"x":174227.6799999997,"y":2545341.6200000029}}]}