{"displayFieldName":"TOWNNAME","fieldAliases":{"ID":"ID","DIS_CODE":"DIS_CODE","TOWNNAME":"TOWNNAME","LI":"LI","LIN":"LIN","STREET":"STREET","SECT":"SECT","MAREA":"MAREA","LANE":"LANE","ALLEY":"ALLEY","HOUSE_NO":"HOUSE_NO","E_COORD97":"E_COORD97","N_COORD97":"N_COORD97","ADDRESS":"ADDRESS","OBJECTID":"OBJECTID"},"geometryType":"esriGeometryPoint","spatialReference":{"wkid":102443,"latestWkid":3826},"fields":[{"name":"ID","type":"esriFieldTypeDouble","alias":"ID"},{"name":"DIS_CODE","type":"esriFieldTypeInteger","alias":"DIS_CODE"},{"name":"TOWNNAME","type":"esriFieldTypeString","alias":"TOWNNAME","length":8},{"name":"LI","type":"esriFieldTypeString","alias":"LI","length":8},{"name":"LIN","type":"esriFieldTypeString","alias":"LIN","length":12},{"name":"STREET","type":"esriFieldTypeString","alias":"STREET","length":20},{"name":"SECT","type":"esriFieldTypeString","alias":"SECT","length":8},{"name":"MAREA","type":"esriFieldTypeString","alias":"MAREA","length":12},{"name":"LANE","type":"esriFieldTypeString","alias":"LANE","length":10},{"name":"ALLEY","type":"esriFieldTypeString","alias":"ALLEY","length":10},{"name":"HOUSE_NO","type":"esriFieldTypeString","alias":"HOUSE_NO","length":20},{"name":"E_COORD97","type":"esriFieldTypeDouble","alias":"E_COORD97"},{"name":"N_COORD97","type":"esriFieldTypeDouble","alias":"N_COORD97"},{"name":"ADDRESS","type":"esriFieldTypeString","alias":"ADDRESS","length":50},{"name":"OBJECTID","type":"esriFieldTypeOID","alias":"OBJECTID"}],"features":[{"attributes":{"ID":381211,"DIS_CODE":0,"TOWNNAME":"中西區","LI":"中正里","LIN":"9鄰","STREET":"正德街","SECT":" ","MAREA":" ","LANE":"２０巷","ALLEY":" ","HOUSE_NO":"９號","E_COORD97":167540.23000000001,"N_COORD97":2543840.73,"ADDRESS":"正德街２０巷９號","OBJECTID":381201},"geometry":{"x":167540.23000000045,"y":2543840.7300000023}},{"attributes":{"ID":381212,"DIS_CODE":0,"TOWNNAME":"中西區","LI":"中正里","LIN":"9鄰","STREET":"正德街","SECT":" ","MAREA":" ","LANE":"３２巷","ALLEY":" ","HOUSE_NO":"１０號","E_COORD97":167540.09,"N_COORD97":2543848.1499999999,"ADDRESS":"正德街３２巷１０號","OBJECTID":381202},"geometry":{"x":167540.09000000078,"y":2543848.1500000022}},{"attributes":{"ID":381213,"DIS_CODE":0,"TOWNNAME":"中西區","LI":"中正里","LIN":"9鄰","STREET":"正德街","SECT":" ","MAREA":" ","LANE":"３２巷","ALLEY":" ","HOUSE_NO":"１２號","E_COORD97":167544.17000000001,"N_COORD97":2543847.8199999998,"ADDRESS":"正德街３２巷１２號","OBJECTID":381203},"geometry":{"x":167544.17000000179,"y":2543847.8200000003}},{"attributes":{"ID":381214,"DIS_CODE":0,"TOWNNAME":"永康區","LI":"尚頂里","LIN":"8鄰","STREET":"正南一街","SECT":" ","MAREA":" ","LANE":"１１８巷","ALLEY":" ","HOUSE_NO":"１１號","E_COORD97":170925.95000000001,"N_COORD97":2547320.7599999998,"ADDRESS":"正南一街１１８巷１１號","OBJECTID":381204},"geometry":{"x":170925.95000000019,"y":2547320.7599999998}},{"attributes":{"ID":381215,"DIS_CODE":0,"TOWNNAME":"永康區","LI":"尚頂里","LIN":"6鄰","STREET":"中正二街","SECT":" ","MAREA":" ","LANE":"１０５巷","ALLEY":" ","HOUSE_NO":"３８號","E_COORD97":170958.87,"N_COORD97":2547612.52,"ADDRESS":"中正二街１０５巷３８號","OBJECTID":381205},"geometry":{"x":170958.87000000197,"y":2547612.5199999996}},{"attributes":{"ID":381216,"DIS_CODE":0,"TOWNNAME":"中西區","LI":"中正里","LIN":"9鄰","STREET":"正德街","SECT":" ","MAREA":" ","LANE":"３２巷","ALLEY":" ","HOUSE_NO":"１４號","E_COORD97":167547.70999999999,"N_COORD97":2543847.29,"ADDRESS":"正德街３２巷１４號","OBJECTID":381206},"geometry":{"x":167547.71000000089,"y":2543847.2899999991}},{"attributes":{"ID":381217,"DIS_CODE":0,"TOWNNAME":"中西區","LI":"中正里","LIN":"9鄰","STREET":"正德街","SECT":" ","MAREA":" ","LANE":"３２巷","ALLEY":" ","HOUSE_NO":"６號","E_COORD97":167534.07999999999,"N_COORD97":2543848.8999999999,"ADDRESS":"正德街３２巷６號","OBJECTID":381207},"geometry":{"x":167534.08000000007,"y":2543848.9000000041}},{"attributes":{"ID":381218,"DIS_CODE":0,"TOWNNAME":"中西區","LI":"中正里","LIN":"9鄰","STREET":"正德街","SECT":" ","MAREA":" ","LANE":"３２巷","ALLEY":" ","HOUSE_NO":"８號","E_COORD97":167537.19,"N_COORD97":2543848.5699999998,"ADDRESS":"正德街３２巷８號","OBJECTID":381208},"geometry":{"x":167537.19000000041,"y":2543848.5700000022}},{"attributes":{"ID":381219,"DIS_CODE":0,"TOWNNAME":"中西區","LI":"中正里","LIN":"9鄰","STREET":"正德街","SECT":" ","MAREA":" ","LANE":"１３巷","ALLEY":" ","HOUSE_NO":"１１號","E_COORD97":167492.09,"N_COORD97":2543843.4900000002,"ADDRESS":"正德街１３巷１１號","OBJECTID":381209},"geometry":{"x":167492.09000000171,"y":2543843.4900000002}},{"attributes":{"ID":381220,"DIS_CODE":0,"TOWNNAME":"中西區","LI":"中正里","LIN":"9鄰","STREET":"正德街","SECT":" ","MAREA":" ","LANE":"１３巷","ALLEY":" ","HOUSE_NO":"１３號","E_COORD97":167485.87,"N_COORD97":2543844.5600000001,"ADDRESS":"正德街１３巷１３號","OBJECTID":381210},"geometry":{"x":167485.87000000104,"y":2543844.5599999987}},{"attributes":{"ID":381221,"DIS_CODE":0,"TOWNNAME":"中西區","LI":"中正里","LIN":"9鄰","STREET":"正德街","SECT":" ","MAREA":" ","LANE":"１３巷","ALLEY":" ","HOUSE_NO":"１７號","E_COORD97":167482.54000000001,"N_COORD97":2543844.9900000002,"ADDRESS":"正德街１３巷１７號","OBJECTID":381211},"geometry":{"x":167482.5400000019,"y":2543844.9900000039}},{"attributes":{"ID":381222,"DIS_CODE":0,"TOWNNAME":"中西區","LI":"中正里","LIN":"9鄰","STREET":"正德街","SECT":" ","MAREA":" ","LANE":"１３巷","ALLEY":" ","HOUSE_NO":"１９號","E_COORD97":167477.92999999999,"N_COORD97":2543845.5299999998,"ADDRESS":"正德街１３巷１９號","OBJECTID":381212},"geometry":{"x":167477.93000000063,"y":2543845.5299999993}},{"attributes":{"ID":381223,"DIS_CODE":0,"TOWNNAME":"中西區","LI":"中正里","LIN":"9鄰","STREET":"正德街","SECT":" ","MAREA":" ","LANE":"１３巷","ALLEY":" ","HOUSE_NO":"２１號","E_COORD97":167474.60000000001,"N_COORD97":2543848.1000000001,"ADDRESS":"正德街１３巷２１號","OBJECTID":381213},"geometry":{"x":167474.59999999963,"y":2543848.1000000015}},{"attributes":{"ID":381224,"DIS_CODE":0,"TOWNNAME":"中西區","LI":"中正里","LIN":"9鄰","STREET":"正德街","SECT":" ","MAREA":" ","LANE":"１３巷","ALLEY":" ","HOUSE_NO":"２３號","E_COORD97":167472.23999999999,"N_COORD97":2543848.8500000001,"ADDRESS":"正德街１３巷２３號","OBJECTID":381214},"geometry":{"x":167472.24000000022,"y":2543848.8500000015}},{"attributes":{"ID":381225,"DIS_CODE":0,"TOWNNAME":"中西區","LI":"中正里","LIN":"9鄰","STREET":"正德街","SECT":" ","MAREA":" ","LANE":"１３巷","ALLEY":" ","HOUSE_NO":"２７號","E_COORD97":167467.19,"N_COORD97":2543849.2799999998,"ADDRESS":"正德街１３巷２７號","OBJECTID":381215},"geometry":{"x":167467.19000000134,"y":2543849.2800000012}},{"attributes":{"ID":381226,"DIS_CODE":0,"TOWNNAME":"中西區","LI":"中正里","LIN":"9鄰","STREET":"正德街","SECT":" ","MAREA":" ","LANE":"１３巷","ALLEY":" ","HOUSE_NO":"３號","E_COORD97":167504.44,"N_COORD97":2543841.2400000002,"ADDRESS":"正德街１３巷３號","OBJECTID":381216},"geometry":{"x":167504.44000000134,"y":2543841.2400000021}},{"attributes":{"ID":381227,"DIS_CODE":0,"TOWNNAME":"中西區","LI":"中正里","LIN":"9鄰","STREET":"正德街","SECT":" ","MAREA":" ","LANE":"１３巷","ALLEY":" ","HOUSE_NO":"５號","E_COORD97":167501.10999999999,"N_COORD97":2543842.3100000001,"ADDRESS":"正德街１３巷５號","OBJECTID":381217},"geometry":{"x":167501.11000000127,"y":2543842.3100000005}},{"attributes":{"ID":381228,"DIS_CODE":0,"TOWNNAME":"中西區","LI":"中正里","LIN":"9鄰","STREET":"正德街","SECT":" ","MAREA":" ","LANE":"１３巷","ALLEY":" ","HOUSE_NO":"７號","E_COORD97":167498.32000000001,"N_COORD97":2543841.77,"ADDRESS":"正德街１３巷７號","OBJECTID":381218},"geometry":{"x":167498.32000000123,"y":2543841.7699999996}},{"attributes":{"ID":381229,"DIS_CODE":0,"TOWNNAME":"中西區","LI":"中正里","LIN":"9鄰","STREET":"正德街","SECT":" ","MAREA":" ","LANE":"１３巷","ALLEY":" ","HOUSE_NO":"９號","E_COORD97":167495.53,"N_COORD97":2543842.2000000002,"ADDRESS":"正德街１３巷９號","OBJECTID":381219},"geometry":{"x":167495.53000000026,"y":2543842.1999999974}},{"attributes":{"ID":381230,"DIS_CODE":0,"TOWNNAME":"中西區","LI":"中正里","LIN":"9鄰","STREET":"康樂街","SECT":" ","MAREA":" ","LANE":"１１４巷","ALLEY":" ","HOUSE_NO":"９號","E_COORD97":167480.5,"N_COORD97":2543833.1200000001,"ADDRESS":"康樂街１１４巷９號","OBJECTID":381220},"geometry":{"x":167480.5,"y":2543833.120000001}},{"attributes":{"ID":381231,"DIS_CODE":0,"TOWNNAME":"永康區","LI":"西灣里","LIN":"26鄰","STREET":"國光八街","SECT":" ","MAREA":" ","LANE":"４１巷","ALLEY":" ","HOUSE_NO":"３４號","E_COORD97":174332.57999999999,"N_COORD97":2545675.2400000002,"ADDRESS":"國光八街４１巷３４號","OBJECTID":381221},"geometry":{"x":174332.58000000194,"y":2545675.2400000021}},{"attributes":{"ID":381232,"DIS_CODE":0,"TOWNNAME":"中西區","LI":"民生里","LIN":"9鄰","STREET":"大勇街","SECT":" ","MAREA":" ","LANE":"１５３巷","ALLEY":" ","HOUSE_NO":"１０號","E_COORD97":167123.10000000001,"N_COORD97":2543353.77,"ADDRESS":"大勇街１５３巷１０號","OBJECTID":381222},"geometry":{"x":167123.09999999963,"y":2543353.7699999977}},{"attributes":{"ID":381233,"DIS_CODE":0,"TOWNNAME":"中西區","LI":"民生里","LIN":"9鄰","STREET":"大勇街","SECT":" ","MAREA":" ","LANE":"１５３巷","ALLEY":" ","HOUSE_NO":"１２號","E_COORD97":167121.95999999999,"N_COORD97":2543349.8999999999,"ADDRESS":"大勇街１５３巷１２號","OBJECTID":381223},"geometry":{"x":167121.96000000183,"y":2543349.9000000004}},{"attributes":{"ID":381234,"DIS_CODE":0,"TOWNNAME":"中西區","LI":"民生里","LIN":"9鄰","STREET":"大勇街","SECT":" ","MAREA":" ","LANE":"１５３巷","ALLEY":" ","HOUSE_NO":"１６號","E_COORD97":167114.89999999999,"N_COORD97":2543354.0699999998,"ADDRESS":"大勇街１５３巷１６號","OBJECTID":381224},"geometry":{"x":167114.9000000013,"y":2543354.0700000022}},{"attributes":{"ID":381235,"DIS_CODE":0,"TOWNNAME":"中西區","LI":"民生里","LIN":"9鄰","STREET":"大勇街","SECT":" ","MAREA":" ","LANE":"１５３巷","ALLEY":" ","HOUSE_NO":"１８號","E_COORD97":167110.57000000001,"N_COORD97":2543354.52,"ADDRESS":"大勇街１５３巷１８號","OBJECTID":381225},"geometry":{"x":167110.5700000003,"y":2543354.5199999996}},{"attributes":{"ID":381236,"DIS_CODE":0,"TOWNNAME":"中西區","LI":"民生里","LIN":"9鄰","STREET":"大勇街","SECT":" ","MAREA":" ","LANE":"１５３巷","ALLEY":" ","HOUSE_NO":"２０號","E_COORD97":167107.37,"N_COORD97":2543355.4300000002,"ADDRESS":"大勇街１５３巷２０號","OBJECTID":381226},"geometry":{"x":167107.37000000197,"y":2543355.4299999997}},{"attributes":{"ID":381237,"DIS_CODE":0,"TOWNNAME":"中西區","LI":"民生里","LIN":"9鄰","STREET":"大勇街","SECT":" ","MAREA":" ","LANE":"１５３巷","ALLEY":" ","HOUSE_NO":"４號","E_COORD97":167124.92999999999,"N_COORD97":2543365.6099999999,"ADDRESS":"大勇街１５３巷４號","OBJECTID":381227},"geometry":{"x":167124.9299999997,"y":2543365.6100000013}},{"attributes":{"ID":381238,"DIS_CODE":0,"TOWNNAME":"中西區","LI":"民生里","LIN":"9鄰","STREET":"大勇街","SECT":" ","MAREA":" ","LANE":"１５３巷","ALLEY":" ","HOUSE_NO":"６號","E_COORD97":167124.01000000001,"N_COORD97":2543360.6000000001,"ADDRESS":"大勇街１５３巷６號","OBJECTID":381228},"geometry":{"x":167124.00999999978,"y":2543360.5999999996}},{"attributes":{"ID":381239,"DIS_CODE":0,"TOWNNAME":"中西區","LI":"民生里","LIN":"9鄰","STREET":"大勇街","SECT":" ","MAREA":" ","LANE":"１５３巷","ALLEY":" ","HOUSE_NO":"８號","E_COORD97":167123.32999999999,"N_COORD97":2543356.73,"ADDRESS":"大勇街１５３巷８號","OBJECTID":381229},"geometry":{"x":167123.33000000101,"y":2543356.7300000023}},{"attributes":{"ID":381240,"DIS_CODE":0,"TOWNNAME":"永康區","LI":"西灣里","LIN":"24鄰","STREET":"國光八街","SECT":" ","MAREA":" ","LANE":"１１巷","ALLEY":" ","HOUSE_NO":"１３號","E_COORD97":174410.38,"N_COORD97":2545699.5,"ADDRESS":"國光八街１１巷１３號","OBJECTID":381230},"geometry":{"x":174410.38000000082,"y":2545699.5000000019}},{"attributes":{"ID":381241,"DIS_CODE":0,"TOWNNAME":"永康區","LI":"西灣里","LIN":"24鄰","STREET":"國光七街","SECT":" ","MAREA":" ","LANE":"６巷","ALLEY":" ","HOUSE_NO":"１４號","E_COORD97":174384.14999999999,"N_COORD97":2545612.71,"ADDRESS":"國光七街６巷１４號","OBJECTID":381231},"geometry":{"x":174384.15000000037,"y":2545612.7100000009}},{"attributes":{"ID":381242,"DIS_CODE":0,"TOWNNAME":"中西區","LI":"三合里","LIN":"9鄰","STREET":"民族路","SECT":"三段","MAREA":" ","LANE":"１７６巷","ALLEY":" ","HOUSE_NO":"１４號","E_COORD97":167540.14999999999,"N_COORD97":2544453.29,"ADDRESS":"民族路三段１７６巷１４號","OBJECTID":381232},"geometry":{"x":167540.1500000013,"y":2544453.290000001}},{"attributes":{"ID":381243,"DIS_CODE":0,"TOWNNAME":"中西區","LI":"三合里","LIN":"9鄰","STREET":"民族路","SECT":"三段","MAREA":" ","LANE":"１７６巷","ALLEY":" ","HOUSE_NO":"１６號","E_COORD97":167542.63,"N_COORD97":2544456.9900000002,"ADDRESS":"民族路三段１７６巷１６號","OBJECTID":381233},"geometry":{"x":167542.62999999896,"y":2544456.9900000002}},{"attributes":{"ID":381244,"DIS_CODE":0,"TOWNNAME":"中西區","LI":"三合里","LIN":"9鄰","STREET":"民族路","SECT":"三段","MAREA":" ","LANE":"１７６巷","ALLEY":" ","HOUSE_NO":"１８號","E_COORD97":167545.45000000001,"N_COORD97":2544460.8799999999,"ADDRESS":"民族路三段１７６巷１８號","OBJECTID":381234},"geometry":{"x":167545.45000000019,"y":2544460.879999999}},{"attributes":{"ID":381245,"DIS_CODE":0,"TOWNNAME":"中西區","LI":"三合里","LIN":"9鄰","STREET":"民族路","SECT":"三段","MAREA":" ","LANE":"１７６巷","ALLEY":" ","HOUSE_NO":"２０號","E_COORD97":167546.34,"N_COORD97":2544463.5299999998,"ADDRESS":"民族路三段１７６巷２０號","OBJECTID":381235},"geometry":{"x":167546.34000000171,"y":2544463.5299999993}},{"attributes":{"ID":381246,"DIS_CODE":0,"TOWNNAME":"中西區","LI":"三合里","LIN":"9鄰","STREET":"民族路","SECT":"三段","MAREA":" ","LANE":"１７６巷","ALLEY":" ","HOUSE_NO":"２號","E_COORD97":167528.48999999999,"N_COORD97":2544433.6899999999,"ADDRESS":"民族路三段１７６巷２號","OBJECTID":381236},"geometry":{"x":167528.49000000022,"y":2544433.6900000013}},{"attributes":{"ID":381247,"DIS_CODE":0,"TOWNNAME":"中西區","LI":"三合里","LIN":"9鄰","STREET":"民族路","SECT":"三段","MAREA":" ","LANE":"１７６巷","ALLEY":" ","HOUSE_NO":"４號","E_COORD97":167534.32000000001,"N_COORD97":2544435.8100000001,"ADDRESS":"民族路三段１７６巷４號","OBJECTID":381237},"geometry":{"x":167534.3200000003,"y":2544435.8100000005}},{"attributes":{"ID":381248,"DIS_CODE":0,"TOWNNAME":"中西區","LI":"三合里","LIN":"9鄰","STREET":"民族路","SECT":"三段","MAREA":" ","LANE":"１７６巷","ALLEY":" ","HOUSE_NO":"６號","E_COORD97":167536.97,"N_COORD97":2544440.2200000002,"ADDRESS":"民族路三段１７６巷６號","OBJECTID":381238},"geometry":{"x":167536.9700000016,"y":2544440.2199999988}},{"attributes":{"ID":381249,"DIS_CODE":0,"TOWNNAME":"中西區","LI":"三合里","LIN":"9鄰","STREET":"民族路","SECT":"三段","MAREA":" ","LANE":"１７６巷","ALLEY":" ","HOUSE_NO":"８號","E_COORD97":167537.32999999999,"N_COORD97":2544443.2200000002,"ADDRESS":"民族路三段１７６巷８號","OBJECTID":381239},"geometry":{"x":167537.33000000007,"y":2544443.2200000007}},{"attributes":{"ID":381250,"DIS_CODE":0,"TOWNNAME":"永康區","LI":"尚頂里","LIN":"1鄰","STREET":"中正南路","SECT":" ","MAREA":" ","LANE":"３０６巷","ALLEY":" ","HOUSE_NO":"１１號","E_COORD97":170735.76999999999,"N_COORD97":2547844.9900000002,"ADDRESS":"中正南路３０６巷１１號","OBJECTID":381240},"geometry":{"x":170735.77000000048,"y":2547844.9900000002}},{"attributes":{"ID":381251,"DIS_CODE":0,"TOWNNAME":"永康區","LI":"尚頂里","LIN":"6鄰","STREET":"中正二街","SECT":" ","MAREA":" ","LANE":"１０５巷","ALLEY":" ","HOUSE_NO":"７號","E_COORD97":171013.17000000001,"N_COORD97":2547537.0699999998,"ADDRESS":"中正二街１０５巷７號","OBJECTID":381241},"geometry":{"x":171013.17000000086,"y":2547537.0700000022}},{"attributes":{"ID":381252,"DIS_CODE":0,"TOWNNAME":"永康區","LI":"西灣里","LIN":"26鄰","STREET":"國光八街","SECT":" ","MAREA":" ","LANE":"４１巷","ALLEY":" ","HOUSE_NO":"３２號","E_COORD97":174333.82000000001,"N_COORD97":2545679.4900000002,"ADDRESS":"國光八街４１巷３２號","OBJECTID":381242},"geometry":{"x":174333.8200000003,"y":2545679.4900000021}},{"attributes":{"ID":381253,"DIS_CODE":0,"TOWNNAME":"永康區","LI":"尚頂里","LIN":"24鄰","STREET":"南台街","SECT":" ","MAREA":" ","LANE":"５４巷","ALLEY":" ","HOUSE_NO":"４３號之１","E_COORD97":170325.14000000001,"N_COORD97":2547119.54,"ADDRESS":"南台街５４巷４３號之１","OBJECTID":381243},"geometry":{"x":170325.13999999966,"y":2547119.540000001}},{"attributes":{"ID":381254,"DIS_CODE":0,"TOWNNAME":"麻豆區","LI":"東角里","LIN":"9鄰","STREET":"興中路","SECT":" ","MAREA":" ","LANE":"２５１巷","ALLEY":" ","HOUSE_NO":"１５號","E_COORD97":174094.16,"N_COORD97":2564868.1899999999,"ADDRESS":"興中路２５１巷１５號","OBJECTID":381244},"geometry":{"x":174094.16000000015,"y":2564868.1899999995}},{"attributes":{"ID":381255,"DIS_CODE":0,"TOWNNAME":"麻豆區","LI":"東角里","LIN":"9鄰","STREET":"興中路","SECT":" ","MAREA":" ","LANE":"２５１巷","ALLEY":" ","HOUSE_NO":"１６號","E_COORD97":174188.82000000001,"N_COORD97":2564848.21,"ADDRESS":"興中路２５１巷１６號","OBJECTID":381245},"geometry":{"x":174188.82000000216,"y":2564848.2100000028}},{"attributes":{"ID":381256,"DIS_CODE":0,"TOWNNAME":"麻豆區","LI":"東角里","LIN":"9鄰","STREET":"興中路","SECT":" ","MAREA":" ","LANE":"２５１巷","ALLEY":" ","HOUSE_NO":"１７號","E_COORD97":174122.95000000001,"N_COORD97":2564884.7000000002,"ADDRESS":"興中路２５１巷１７號","OBJECTID":381246},"geometry":{"x":174122.95000000019,"y":2564884.7000000011}},{"attributes":{"ID":381257,"DIS_CODE":0,"TOWNNAME":"永康區","LI":"西灣里","LIN":"50鄰","STREET":"永華路","SECT":" ","MAREA":" ","LANE":"２７３巷","ALLEY":" ","HOUSE_NO":"１２號","E_COORD97":173989.41,"N_COORD97":2545815.8700000001,"ADDRESS":"永華路２７３巷１２號","OBJECTID":381247},"geometry":{"x":173989.41000000015,"y":2545815.870000001}},{"attributes":{"ID":381258,"DIS_CODE":0,"TOWNNAME":"永康區","LI":"西灣里","LIN":"30鄰","STREET":"國光八街","SECT":" ","MAREA":" ","LANE":"６０巷","ALLEY":" ","HOUSE_NO":"３０號","E_COORD97":174267.70999999999,"N_COORD97":2545842.0099999998,"ADDRESS":"國光八街６０巷３０號","OBJECTID":381248},"geometry":{"x":174267.71000000089,"y":2545842.0100000016}},{"attributes":{"ID":381259,"DIS_CODE":0,"TOWNNAME":"永康區","LI":"西灣里","LIN":"21鄰","STREET":"國光七街","SECT":" ","MAREA":" ","LANE":"３巷","ALLEY":" ","HOUSE_NO":"５１號","E_COORD97":174328.31,"N_COORD97":2545386.71,"ADDRESS":"國光七街３巷５１號","OBJECTID":381249},"geometry":{"x":174328.30999999959,"y":2545386.7100000046}},{"attributes":{"ID":381260,"DIS_CODE":0,"TOWNNAME":"麻豆區","LI":"東角里","LIN":"9鄰","STREET":"興中路","SECT":" ","MAREA":" ","LANE":"２５１巷","ALLEY":" ","HOUSE_NO":"１８號","E_COORD97":174195.48000000001,"N_COORD97":2564848.1200000001,"ADDRESS":"興中路２５１巷１８號","OBJECTID":381250},"geometry":{"x":174195.48000000045,"y":2564848.1200000048}},{"attributes":{"ID":381261,"DIS_CODE":0,"TOWNNAME":"麻豆區","LI":"東角里","LIN":"9鄰","STREET":"興中路","SECT":" ","MAREA":" ","LANE":"２５１巷","ALLEY":" ","HOUSE_NO":"１９號","E_COORD97":174118.63,"N_COORD97":2564884.6200000001,"ADDRESS":"興中路２５１巷１９號","OBJECTID":381251},"geometry":{"x":174118.63000000082,"y":2564884.620000001}},{"attributes":{"ID":381262,"DIS_CODE":0,"TOWNNAME":"麻豆區","LI":"東角里","LIN":"9鄰","STREET":"興中路","SECT":" ","MAREA":" ","LANE":"２５１巷","ALLEY":" ","HOUSE_NO":"１號","E_COORD97":174125.28,"N_COORD97":2564847.3799999999,"ADDRESS":"興中路２５１巷１號","OBJECTID":381252},"geometry":{"x":174125.28000000119,"y":2564847.379999999}},{"attributes":{"ID":381263,"DIS_CODE":0,"TOWNNAME":"麻豆區","LI":"東角里","LIN":"9鄰","STREET":"興中路","SECT":" ","MAREA":" ","LANE":"２５１巷","ALLEY":" ","HOUSE_NO":"２３號","E_COORD97":174109.07999999999,"N_COORD97":2564884.7000000002,"ADDRESS":"興中路２５１巷２３號","OBJECTID":381253},"geometry":{"x":174109.08000000101,"y":2564884.7000000011}},{"attributes":{"ID":381264,"DIS_CODE":0,"TOWNNAME":"麻豆區","LI":"東角里","LIN":"9鄰","STREET":"興中路","SECT":" ","MAREA":" ","LANE":"２５１巷","ALLEY":" ","HOUSE_NO":"２４號","E_COORD97":174150.25,"N_COORD97":2564866.0499999998,"ADDRESS":"興中路２５１巷２４號","OBJECTID":381254},"geometry":{"x":174150.25000000093,"y":2564866.0500000026}},{"attributes":{"ID":381265,"DIS_CODE":0,"TOWNNAME":"麻豆區","LI":"東角里","LIN":"9鄰","STREET":"興中路","SECT":" ","MAREA":" ","LANE":"２５１巷","ALLEY":" ","HOUSE_NO":"２５號","E_COORD97":174104.29999999999,"N_COORD97":2564884.9199999999,"ADDRESS":"興中路２５１巷２５號","OBJECTID":381255},"geometry":{"x":174104.30000000075,"y":2564884.9199999999}},{"attributes":{"ID":381266,"DIS_CODE":0,"TOWNNAME":"麻豆區","LI":"東角里","LIN":"9鄰","STREET":"興中路","SECT":" ","MAREA":" ","LANE":"２５１巷","ALLEY":" ","HOUSE_NO":"２６號","E_COORD97":174157.22,"N_COORD97":2564866,"ADDRESS":"興中路２５１巷２６號","OBJECTID":381256},"geometry":{"x":174157.22000000067,"y":2564866.0000000019}},{"attributes":{"ID":381267,"DIS_CODE":0,"TOWNNAME":"麻豆區","LI":"東角里","LIN":"9鄰","STREET":"興中路","SECT":" ","MAREA":" ","LANE":"２５１巷","ALLEY":" ","HOUSE_NO":"２７號","E_COORD97":174099.19,"N_COORD97":2564884.9900000002,"ADDRESS":"興中路２５１巷２７號","OBJECTID":381257},"geometry":{"x":174099.19000000041,"y":2564884.9900000002}},{"attributes":{"ID":381268,"DIS_CODE":0,"TOWNNAME":"麻豆區","LI":"東角里","LIN":"9鄰","STREET":"興中路","SECT":" ","MAREA":" ","LANE":"２５１巷","ALLEY":" ","HOUSE_NO":"２８號","E_COORD97":174164.78,"N_COORD97":2564865.6299999999,"ADDRESS":"興中路２５１巷２８號","OBJECTID":381258},"geometry":{"x":174164.78000000026,"y":2564865.629999999}},{"attributes":{"ID":381269,"DIS_CODE":0,"TOWNNAME":"麻豆區","LI":"東角里","LIN":"9鄰","STREET":"興中路","SECT":" ","MAREA":" ","LANE":"２５１巷","ALLEY":" ","HOUSE_NO":"２９號","E_COORD97":174095,"N_COORD97":2564884.8999999999,"ADDRESS":"興中路２５１巷２９號","OBJECTID":381259},"geometry":{"x":174095,"y":2564884.9000000004}},{"attributes":{"ID":381270,"DIS_CODE":0,"TOWNNAME":"麻豆區","LI":"東角里","LIN":"9鄰","STREET":"興中路","SECT":" ","MAREA":" ","LANE":"２５１巷","ALLEY":" ","HOUSE_NO":"２號","E_COORD97":174142.38,"N_COORD97":2564848.0699999998,"ADDRESS":"興中路２５１巷２號","OBJECTID":381260},"geometry":{"x":174142.38000000082,"y":2564848.0700000022}},{"attributes":{"ID":381271,"DIS_CODE":0,"TOWNNAME":"麻豆區","LI":"東角里","LIN":"9鄰","STREET":"興中路","SECT":" ","MAREA":" ","LANE":"２５１巷","ALLEY":" ","HOUSE_NO":"３０號","E_COORD97":174171.92000000001,"N_COORD97":2564865.5499999998,"ADDRESS":"興中路２５１巷３０號","OBJECTID":381261},"geometry":{"x":174171.91999999993,"y":2564865.5500000045}},{"attributes":{"ID":381272,"DIS_CODE":0,"TOWNNAME":"麻豆區","LI":"東角里","LIN":"9鄰","STREET":"興中路","SECT":" ","MAREA":" ","LANE":"２５１巷","ALLEY":" ","HOUSE_NO":"３１號","E_COORD97":174090.32000000001,"N_COORD97":2564884.9700000002,"ADDRESS":"興中路２５１巷３１號","OBJECTID":381262},"geometry":{"x":174090.32000000216,"y":2564884.9700000007}},{"attributes":{"ID":381273,"DIS_CODE":0,"TOWNNAME":"麻豆區","LI":"東角里","LIN":"9鄰","STREET":"興中路","SECT":" ","MAREA":" ","LANE":"２５１巷","ALLEY":" ","HOUSE_NO":"３２號","E_COORD97":174178.84,"N_COORD97":2564865.5299999998,"ADDRESS":"興中路２５１巷３２號","OBJECTID":381263},"geometry":{"x":174178.83999999985,"y":2564865.5300000012}},{"attributes":{"ID":381274,"DIS_CODE":0,"TOWNNAME":"麻豆區","LI":"東角里","LIN":"9鄰","STREET":"興中路","SECT":" ","MAREA":" ","LANE":"２５１巷","ALLEY":" ","HOUSE_NO":"３３號","E_COORD97":174085.42000000001,"N_COORD97":2564884.7000000002,"ADDRESS":"興中路２５１巷３３號","OBJECTID":381264},"geometry":{"x":174085.41999999993,"y":2564884.7000000011}},{"attributes":{"ID":381275,"DIS_CODE":0,"TOWNNAME":"麻豆區","LI":"東角里","LIN":"9鄰","STREET":"興中路","SECT":" ","MAREA":" ","LANE":"２５１巷","ALLEY":" ","HOUSE_NO":"３４號","E_COORD97":174186.45000000001,"N_COORD97":2564865.48,"ADDRESS":"興中路２５１巷３４號","OBJECTID":381265},"geometry":{"x":174186.45000000112,"y":2564865.4800000042}},{"attributes":{"ID":381276,"DIS_CODE":0,"TOWNNAME":"麻豆區","LI":"東角里","LIN":"9鄰","STREET":"興中路","SECT":" ","MAREA":" ","LANE":"２５１巷","ALLEY":" ","HOUSE_NO":"３５號","E_COORD97":174080.75,"N_COORD97":2564884.8300000001,"ADDRESS":"興中路２５１巷３５號","OBJECTID":381266},"geometry":{"x":174080.75000000093,"y":2564884.8300000001}},{"attributes":{"ID":381277,"DIS_CODE":0,"TOWNNAME":"麻豆區","LI":"東角里","LIN":"9鄰","STREET":"興中路","SECT":" ","MAREA":" ","LANE":"２５１巷","ALLEY":" ","HOUSE_NO":"３６號","E_COORD97":174193.64000000001,"N_COORD97":2564865.2799999998,"ADDRESS":"興中路２５１巷３６號","OBJECTID":381267},"geometry":{"x":174193.63999999966,"y":2564865.2799999993}},{"attributes":{"ID":381278,"DIS_CODE":0,"TOWNNAME":"麻豆區","LI":"東角里","LIN":"9鄰","STREET":"興中路","SECT":" ","MAREA":" ","LANE":"２５１巷","ALLEY":" ","HOUSE_NO":"３７號","E_COORD97":174124.64000000001,"N_COORD97":2564895.4300000002,"ADDRESS":"興中路２５１巷３７號","OBJECTID":381268},"geometry":{"x":174124.63999999966,"y":2564895.4299999978}},{"attributes":{"ID":381279,"DIS_CODE":0,"TOWNNAME":"麻豆區","LI":"東角里","LIN":"9鄰","STREET":"興中路","SECT":" ","MAREA":" ","LANE":"２５１巷","ALLEY":" ","HOUSE_NO":"３８號","E_COORD97":174201.34,"N_COORD97":2564865.3399999999,"ADDRESS":"興中路２５１巷３８號","OBJECTID":381269},"geometry":{"x":174201.33999999985,"y":2564865.3399999999}},{"attributes":{"ID":381280,"DIS_CODE":0,"TOWNNAME":"麻豆區","LI":"東角里","LIN":"9鄰","STREET":"興中路","SECT":" ","MAREA":" ","LANE":"２５１巷","ALLEY":" ","HOUSE_NO":"３９號","E_COORD97":174124.94,"N_COORD97":2564902.8799999999,"ADDRESS":"興中路２５１巷３９號","OBJECTID":381270},"geometry":{"x":174124.94000000041,"y":2564902.8800000008}},{"attributes":{"ID":381281,"DIS_CODE":0,"TOWNNAME":"麻豆區","LI":"東角里","LIN":"9鄰","STREET":"興中路","SECT":" ","MAREA":" ","LANE":"２５１巷","ALLEY":" ","HOUSE_NO":"３號","E_COORD97":174125.47,"N_COORD97":2564858.8999999999,"ADDRESS":"興中路２５１巷３號","OBJECTID":381271},"geometry":{"x":174125.46999999974,"y":2564858.9000000004}},{"attributes":{"ID":381282,"DIS_CODE":0,"TOWNNAME":"麻豆區","LI":"東角里","LIN":"9鄰","STREET":"興中路","SECT":" ","MAREA":" ","LANE":"２５１巷","ALLEY":" ","HOUSE_NO":"４０號","E_COORD97":174209.26999999999,"N_COORD97":2564864.8100000001,"ADDRESS":"興中路２５１巷４０號","OBJECTID":381272},"geometry":{"x":174209.27000000048,"y":2564864.8100000024}},{"attributes":{"ID":381283,"DIS_CODE":0,"TOWNNAME":"永康區","LI":"尚頂里","LIN":"1鄰","STREET":"中正南路","SECT":" ","MAREA":" ","LANE":"３０６巷","ALLEY":" ","HOUSE_NO":"２８號","E_COORD97":170785.64999999999,"N_COORD97":2547650.9100000001,"ADDRESS":"中正南路３０６巷２８號","OBJECTID":381273},"geometry":{"x":170785.65000000037,"y":2547650.910000002}},{"attributes":{"ID":381284,"DIS_CODE":0,"TOWNNAME":"永康區","LI":"尚頂里","LIN":"1鄰","STREET":"中正南路","SECT":" ","MAREA":" ","LANE":"３０６巷","ALLEY":" ","HOUSE_NO":"２９號","E_COORD97":170789.66,"N_COORD97":2547712.2200000002,"ADDRESS":"中正南路３０６巷２９號","OBJECTID":381274},"geometry":{"x":170789.66000000108,"y":2547712.2200000044}},{"attributes":{"ID":381285,"DIS_CODE":0,"TOWNNAME":"永康區","LI":"西勢里","LIN":"21鄰","STREET":"富強路","SECT":"一段","MAREA":" ","LANE":"１４３巷","ALLEY":" ","HOUSE_NO":"８號","E_COORD97":175519.54999999999,"N_COORD97":2546326.2200000002,"ADDRESS":"富強路一段１４３巷８號","OBJECTID":381275},"geometry":{"x":175519.55000000075,"y":2546326.2200000025}},{"attributes":{"ID":381286,"DIS_CODE":0,"TOWNNAME":"永康區","LI":"西勢里","LIN":"21鄰","STREET":"富強路","SECT":"一段","MAREA":" ","LANE":"１４３巷","ALLEY":" ","HOUSE_NO":"１２號","E_COORD97":175513.14999999999,"N_COORD97":2546333.4700000002,"ADDRESS":"富強路一段１４３巷１２號","OBJECTID":381276},"geometry":{"x":175513.15000000037,"y":2546333.4700000007}},{"attributes":{"ID":381287,"DIS_CODE":0,"TOWNNAME":"麻豆區","LI":"東角里","LIN":"9鄰","STREET":"興中路","SECT":" ","MAREA":" ","LANE":"２５１巷","ALLEY":" ","HOUSE_NO":"４１號","E_COORD97":174119.19,"N_COORD97":2564900.7999999998,"ADDRESS":"興中路２５１巷４１號","OBJECTID":381277},"geometry":{"x":174119.19000000134,"y":2564900.7999999989}},{"attributes":{"ID":381288,"DIS_CODE":0,"TOWNNAME":"麻豆區","LI":"東角里","LIN":"9鄰","STREET":"興中路","SECT":" ","MAREA":" ","LANE":"２５１巷","ALLEY":" ","HOUSE_NO":"４２號","E_COORD97":174143.48000000001,"N_COORD97":2564887.1400000001,"ADDRESS":"興中路２５１巷４２號","OBJECTID":381278},"geometry":{"x":174143.48000000045,"y":2564887.1400000006}},{"attributes":{"ID":381289,"DIS_CODE":0,"TOWNNAME":"麻豆區","LI":"東角里","LIN":"9鄰","STREET":"興中路","SECT":" ","MAREA":" ","LANE":"２５１巷","ALLEY":" ","HOUSE_NO":"４３號","E_COORD97":174113.47,"N_COORD97":2564900.7999999998,"ADDRESS":"興中路２５１巷４３號","OBJECTID":381279},"geometry":{"x":174113.46999999974,"y":2564900.7999999989}},{"attributes":{"ID":381290,"DIS_CODE":0,"TOWNNAME":"麻豆區","LI":"東角里","LIN":"9鄰","STREET":"興中路","SECT":" ","MAREA":" ","LANE":"２５１巷","ALLEY":" ","HOUSE_NO":"４４號","E_COORD97":174150.63,"N_COORD97":2564887.4700000002,"ADDRESS":"興中路２５１巷４４號","OBJECTID":381280},"geometry":{"x":174150.63000000175,"y":2564887.4700000025}},{"attributes":{"ID":381291,"DIS_CODE":0,"TOWNNAME":"麻豆區","LI":"東角里","LIN":"9鄰","STREET":"興中路","SECT":" ","MAREA":" ","LANE":"２５１巷","ALLEY":" ","HOUSE_NO":"４５號","E_COORD97":174108.63,"N_COORD97":2564900.8700000001,"ADDRESS":"興中路２５１巷４５號","OBJECTID":381281},"geometry":{"x":174108.63000000082,"y":2564900.8700000048}},{"attributes":{"ID":381292,"DIS_CODE":0,"TOWNNAME":"麻豆區","LI":"東角里","LIN":"9鄰","STREET":"興中路","SECT":" ","MAREA":" ","LANE":"２５１巷","ALLEY":" ","HOUSE_NO":"４６號","E_COORD97":174157.64000000001,"N_COORD97":2564886.7400000002,"ADDRESS":"興中路２５１巷４６號","OBJECTID":381282},"geometry":{"x":174157.6400000006,"y":2564886.7400000002}},{"attributes":{"ID":381293,"DIS_CODE":0,"TOWNNAME":"麻豆區","LI":"東角里","LIN":"9鄰","STREET":"興中路","SECT":" ","MAREA":" ","LANE":"２５１巷","ALLEY":" ","HOUSE_NO":"４７號","E_COORD97":174103.44,"N_COORD97":2564901.0099999998,"ADDRESS":"興中路２５１巷４７號","OBJECTID":381283},"geometry":{"x":174103.44000000134,"y":2564901.0099999998}},{"attributes":{"ID":381294,"DIS_CODE":0,"TOWNNAME":"麻豆區","LI":"東角里","LIN":"9鄰","STREET":"興中路","SECT":" ","MAREA":" ","LANE":"２５１巷","ALLEY":" ","HOUSE_NO":"４８號","E_COORD97":174165.12,"N_COORD97":2564887,"ADDRESS":"興中路２５１巷４８號","OBJECTID":381284},"geometry":{"x":174165.12000000104,"y":2564887}},{"attributes":{"ID":381295,"DIS_CODE":0,"TOWNNAME":"麻豆區","LI":"東角里","LIN":"9鄰","STREET":"興中路","SECT":" ","MAREA":" ","LANE":"２５１巷","ALLEY":" ","HOUSE_NO":"２號之１","E_COORD97":174148.57999999999,"N_COORD97":2564848.77,"ADDRESS":"興中路２５１巷２號之１","OBJECTID":381285},"geometry":{"x":174148.58000000007,"y":2564848.7699999977}},{"attributes":{"ID":381296,"DIS_CODE":0,"TOWNNAME":"麻豆區","LI":"東角里","LIN":"9鄰","STREET":"興中路","SECT":" ","MAREA":" ","LANE":"２５１巷","ALLEY":" ","HOUSE_NO":"５０號","E_COORD97":174172.35000000001,"N_COORD97":2564886.6600000001,"ADDRESS":"興中路２５１巷５０號","OBJECTID":381286},"geometry":{"x":174172.34999999963,"y":2564886.6600000001}},{"attributes":{"ID":381297,"DIS_CODE":0,"TOWNNAME":"麻豆區","LI":"東角里","LIN":"9鄰","STREET":"興中路","SECT":" ","MAREA":" ","LANE":"２５１巷","ALLEY":" ","HOUSE_NO":"５１號","E_COORD97":174093.48999999999,"N_COORD97":2564901.25,"ADDRESS":"興中路２５１巷５１號","OBJECTID":381287},"geometry":{"x":174093.49000000022,"y":2564901.2500000019}},{"attributes":{"ID":381298,"DIS_CODE":0,"TOWNNAME":"麻豆區","LI":"東角里","LIN":"9鄰","STREET":"興中路","SECT":" ","MAREA":" ","LANE":"２５１巷","ALLEY":" ","HOUSE_NO":"５２號","E_COORD97":174178.85000000001,"N_COORD97":2564887.2000000002,"ADDRESS":"興中路２５１巷５２號","OBJECTID":381288},"geometry":{"x":174178.84999999963,"y":2564887.2000000011}},{"attributes":{"ID":381299,"DIS_CODE":0,"TOWNNAME":"麻豆區","LI":"東角里","LIN":"9鄰","STREET":"興中路","SECT":" ","MAREA":" ","LANE":"２５１巷","ALLEY":" ","HOUSE_NO":"５３號","E_COORD97":174088.48999999999,"N_COORD97":2564901.23,"ADDRESS":"興中路２５１巷５３號","OBJECTID":381289},"geometry":{"x":174088.49000000022,"y":2564901.2300000042}},{"attributes":{"ID":381300,"DIS_CODE":0,"TOWNNAME":"麻豆區","LI":"東角里","LIN":"9鄰","STREET":"興中路","SECT":" ","MAREA":" ","LANE":"２５１巷","ALLEY":" ","HOUSE_NO":"５４號","E_COORD97":174186.32000000001,"N_COORD97":2564887.2599999998,"ADDRESS":"興中路２５１巷５４號","OBJECTID":381290},"geometry":{"x":174186.3200000003,"y":2564887.2600000016}},{"attributes":{"ID":381301,"DIS_CODE":0,"TOWNNAME":"麻豆區","LI":"東角里","LIN":"9鄰","STREET":"興中路","SECT":" ","MAREA":" ","LANE":"２５１巷","ALLEY":" ","HOUSE_NO":"５５號","E_COORD97":174083.10000000001,"N_COORD97":2564901.0600000001,"ADDRESS":"興中路２５１巷５５號","OBJECTID":381291},"geometry":{"x":174083.10000000056,"y":2564901.0600000005}},{"attributes":{"ID":381302,"DIS_CODE":0,"TOWNNAME":"麻豆區","LI":"東角里","LIN":"9鄰","STREET":"興中路","SECT":" ","MAREA":" ","LANE":"２５１巷","ALLEY":" ","HOUSE_NO":"５６號","E_COORD97":174194.45000000001,"N_COORD97":2564887.1600000001,"ADDRESS":"興中路２５１巷５６號","OBJECTID":381292},"geometry":{"x":174194.45000000205,"y":2564887.1600000001}},{"attributes":{"ID":381303,"DIS_CODE":0,"TOWNNAME":"麻豆區","LI":"東角里","LIN":"9鄰","STREET":"興中路","SECT":" ","MAREA":" ","LANE":"２５１巷","ALLEY":" ","HOUSE_NO":"５７號","E_COORD97":174078.63,"N_COORD97":2564901.2799999998,"ADDRESS":"興中路２５１巷５７號","OBJECTID":381293},"geometry":{"x":174078.62999999989,"y":2564901.2800000012}},{"attributes":{"ID":381304,"DIS_CODE":0,"TOWNNAME":"麻豆區","LI":"東角里","LIN":"9鄰","STREET":"興中路","SECT":" ","MAREA":" ","LANE":"２５１巷","ALLEY":" ","HOUSE_NO":"５８號","E_COORD97":174202.23000000001,"N_COORD97":2564886.6400000001,"ADDRESS":"興中路２５１巷５８號","OBJECTID":381294},"geometry":{"x":174202.23000000045,"y":2564886.6400000006}},{"attributes":{"ID":381305,"DIS_CODE":0,"TOWNNAME":"麻豆區","LI":"東角里","LIN":"9鄰","STREET":"興中路","SECT":" ","MAREA":" ","LANE":"２５１巷","ALLEY":" ","HOUSE_NO":"５９號","E_COORD97":174073.29000000001,"N_COORD97":2564901.5299999998,"ADDRESS":"興中路２５１巷５９號","OBJECTID":381295},"geometry":{"x":174073.2900000019,"y":2564901.5300000031}},{"attributes":{"ID":381306,"DIS_CODE":0,"TOWNNAME":"麻豆區","LI":"東角里","LIN":"9鄰","STREET":"興中路","SECT":" ","MAREA":" ","LANE":"２５１巷","ALLEY":" ","HOUSE_NO":"５號","E_COORD97":174125.56,"N_COORD97":2564865.02,"ADDRESS":"興中路２５１巷５號","OBJECTID":381296},"geometry":{"x":174125.56000000052,"y":2564865.0200000014}},{"attributes":{"ID":381307,"DIS_CODE":0,"TOWNNAME":"永康區","LI":"西灣里","LIN":"32鄰","STREET":"國光八街","SECT":" ","MAREA":" ","LANE":"９０巷","ALLEY":" ","HOUSE_NO":"４號","E_COORD97":174202.69,"N_COORD97":2545787.5,"ADDRESS":"國光八街９０巷４號","OBJECTID":381297},"geometry":{"x":174202.69000000041,"y":2545787.5000000037}},{"attributes":{"ID":381308,"DIS_CODE":0,"TOWNNAME":"永康區","LI":"西灣里","LIN":"46鄰","STREET":"永華路","SECT":" ","MAREA":" ","LANE":"２３３巷","ALLEY":" ","HOUSE_NO":"１７號","E_COORD97":174005.98999999999,"N_COORD97":2545721.75,"ADDRESS":"永華路２３３巷１７號","OBJECTID":381298},"geometry":{"x":174005.98999999929,"y":2545721.7500000019}},{"attributes":{"ID":381309,"DIS_CODE":0,"TOWNNAME":"永康區","LI":"西勢里","LIN":"21鄰","STREET":"富強路","SECT":"一段","MAREA":" ","LANE":"１５５巷","ALLEY":" ","HOUSE_NO":"４２號","E_COORD97":175502.67000000001,"N_COORD97":2546434.2999999998,"ADDRESS":"富強路一段１５５巷４２號","OBJECTID":381299},"geometry":{"x":175502.66999999993,"y":2546434.3000000026}},{"attributes":{"ID":381310,"DIS_CODE":0,"TOWNNAME":"麻豆區","LI":"東角里","LIN":"9鄰","STREET":"興中路","SECT":" ","MAREA":" ","LANE":"２５１巷","ALLEY":" ","HOUSE_NO":"６０號","E_COORD97":174142.79999999999,"N_COORD97":2564900.02,"ADDRESS":"興中路２５１巷６０號","OBJECTID":381300},"geometry":{"x":174142.80000000075,"y":2564900.0199999996}},{"attributes":{"ID":381311,"DIS_CODE":0,"TOWNNAME":"麻豆區","LI":"東角里","LIN":"9鄰","STREET":"興中路","SECT":" ","MAREA":" ","LANE":"２５１巷","ALLEY":" ","HOUSE_NO":"６１號","E_COORD97":174068.39999999999,"N_COORD97":2564901.7400000002,"ADDRESS":"興中路２５１巷６１號","OBJECTID":381301},"geometry":{"x":174068.4000000013,"y":2564901.7400000021}},{"attributes":{"ID":381312,"DIS_CODE":0,"TOWNNAME":"麻豆區","LI":"東角里","LIN":"9鄰","STREET":"興中路","SECT":" ","MAREA":" ","LANE":"２５１巷","ALLEY":" ","HOUSE_NO":"６２號","E_COORD97":174149.84,"N_COORD97":2564899.8599999999,"ADDRESS":"興中路２５１巷６２號","OBJECTID":381302},"geometry":{"x":174149.84000000078,"y":2564899.8600000013}},{"attributes":{"ID":381313,"DIS_CODE":0,"TOWNNAME":"麻豆區","LI":"東角里","LIN":"9鄰","STREET":"興中路","SECT":" ","MAREA":" ","LANE":"２５１巷","ALLEY":" ","HOUSE_NO":"６３號","E_COORD97":174124.97,"N_COORD97":2564917.2400000002,"ADDRESS":"興中路２５１巷６３號","OBJECTID":381303},"geometry":{"x":174124.97000000067,"y":2564917.2400000002}},{"attributes":{"ID":381314,"DIS_CODE":0,"TOWNNAME":"麻豆區","LI":"東角里","LIN":"9鄰","STREET":"興中路","SECT":" ","MAREA":" ","LANE":"２５１巷","ALLEY":" ","HOUSE_NO":"６４號","E_COORD97":174157.76999999999,"N_COORD97":2564899.8900000001,"ADDRESS":"興中路２５１巷６４號","OBJECTID":381304},"geometry":{"x":174157.77000000142,"y":2564899.8900000006}},{"attributes":{"ID":381315,"DIS_CODE":0,"TOWNNAME":"麻豆區","LI":"東角里","LIN":"9鄰","STREET":"興中路","SECT":" ","MAREA":" ","LANE":"２５１巷","ALLEY":" ","HOUSE_NO":"６５號","E_COORD97":174124.29000000001,"N_COORD97":2564923.9300000002,"ADDRESS":"興中路２５１巷６５號","OBJECTID":381305},"geometry":{"x":174124.2900000019,"y":2564923.9300000016}},{"attributes":{"ID":381316,"DIS_CODE":0,"TOWNNAME":"麻豆區","LI":"東角里","LIN":"9鄰","STREET":"興中路","SECT":" ","MAREA":" ","LANE":"２５１巷","ALLEY":" ","HOUSE_NO":"６６號","E_COORD97":174164.75,"N_COORD97":2564900.1000000001,"ADDRESS":"興中路２５１巷６６號","OBJECTID":381306},"geometry":{"x":174164.75,"y":2564900.0999999996}},{"attributes":{"ID":381317,"DIS_CODE":0,"TOWNNAME":"麻豆區","LI":"東角里","LIN":"9鄰","STREET":"興中路","SECT":" ","MAREA":" ","LANE":"２５１巷","ALLEY":" ","HOUSE_NO":"６７號","E_COORD97":174120.48999999999,"N_COORD97":2564921.1800000002,"ADDRESS":"興中路２５１巷６７號","OBJECTID":381307},"geometry":{"x":174120.49000000115,"y":2564921.1800000034}},{"attributes":{"ID":381318,"DIS_CODE":0,"TOWNNAME":"麻豆區","LI":"東角里","LIN":"9鄰","STREET":"興中路","SECT":" ","MAREA":" ","LANE":"２５１巷","ALLEY":" ","HOUSE_NO":"６８號","E_COORD97":174172.38,"N_COORD97":2564900.0600000001,"ADDRESS":"興中路２５１巷６８號","OBJECTID":381308},"geometry":{"x":174172.37999999989,"y":2564900.0600000024}},{"attributes":{"ID":381319,"DIS_CODE":0,"TOWNNAME":"麻豆區","LI":"東角里","LIN":"9鄰","STREET":"興中路","SECT":" ","MAREA":" ","LANE":"２５１巷","ALLEY":" ","HOUSE_NO":"６９號","E_COORD97":174115.23999999999,"N_COORD97":2564921.0499999998,"ADDRESS":"興中路２５１巷６９號","OBJECTID":381309},"geometry":{"x":174115.24000000115,"y":2564921.0500000026}},{"attributes":{"ID":381320,"DIS_CODE":0,"TOWNNAME":"麻豆區","LI":"東角里","LIN":"9鄰","STREET":"興中路","SECT":" ","MAREA":" ","LANE":"２５１巷","ALLEY":" ","HOUSE_NO":"６號","E_COORD97":174155.95000000001,"N_COORD97":2564848.4100000001,"ADDRESS":"興中路２５１巷６號","OBJECTID":381310},"geometry":{"x":174155.95000000112,"y":2564848.4100000001}},{"attributes":{"ID":381321,"DIS_CODE":0,"TOWNNAME":"麻豆區","LI":"東角里","LIN":"9鄰","STREET":"興中路","SECT":" ","MAREA":" ","LANE":"２５１巷","ALLEY":" ","HOUSE_NO":"７０號","E_COORD97":174179.04999999999,"N_COORD97":2564900.1400000001,"ADDRESS":"興中路２５１巷７０號","OBJECTID":381311},"geometry":{"x":174179.04999999981,"y":2564900.1400000025}},{"attributes":{"ID":381322,"DIS_CODE":0,"TOWNNAME":"麻豆區","LI":"東角里","LIN":"9鄰","STREET":"興中路","SECT":" ","MAREA":" ","LANE":"２５１巷","ALLEY":" ","HOUSE_NO":"７１號","E_COORD97":174110.17000000001,"N_COORD97":2564921.3500000001,"ADDRESS":"興中路２５１巷７１號","OBJECTID":381312},"geometry":{"x":174110.17000000086,"y":2564921.3500000015}},{"attributes":{"ID":381323,"DIS_CODE":0,"TOWNNAME":"麻豆區","LI":"東角里","LIN":"9鄰","STREET":"興中路","SECT":" ","MAREA":" ","LANE":"２５１巷","ALLEY":" ","HOUSE_NO":"７２號","E_COORD97":174188.85000000001,"N_COORD97":2564898.6899999999,"ADDRESS":"興中路２５１巷７２號","OBJECTID":381313},"geometry":{"x":174188.84999999963,"y":2564898.6899999995}},{"attributes":{"ID":381324,"DIS_CODE":0,"TOWNNAME":"麻豆區","LI":"東角里","LIN":"9鄰","STREET":"興中路","SECT":" ","MAREA":" ","LANE":"２５１巷","ALLEY":" ","HOUSE_NO":"７３號","E_COORD97":174105.10999999999,"N_COORD97":2564921.2599999998,"ADDRESS":"興中路２５１巷７３號","OBJECTID":381314},"geometry":{"x":174105.11000000034,"y":2564921.2600000016}},{"attributes":{"ID":381325,"DIS_CODE":0,"TOWNNAME":"麻豆區","LI":"東角里","LIN":"9鄰","STREET":"興中路","SECT":" ","MAREA":" ","LANE":"２５１巷","ALLEY":" ","HOUSE_NO":"７４號","E_COORD97":174198.69,"N_COORD97":2564899.4199999999,"ADDRESS":"興中路２５１巷７４號","OBJECTID":381315},"geometry":{"x":174198.69000000134,"y":2564899.4200000037}},{"attributes":{"ID":381326,"DIS_CODE":0,"TOWNNAME":"麻豆區","LI":"東角里","LIN":"9鄰","STREET":"興中路","SECT":" ","MAREA":" ","LANE":"２５１巷","ALLEY":" ","HOUSE_NO":"７５號","E_COORD97":174099.67000000001,"N_COORD97":2564921.21,"ADDRESS":"興中路２５１巷７５號","OBJECTID":381316},"geometry":{"x":174099.67000000086,"y":2564921.2100000009}},{"attributes":{"ID":381327,"DIS_CODE":0,"TOWNNAME":"麻豆區","LI":"東角里","LIN":"9鄰","STREET":"興中路","SECT":" ","MAREA":" ","LANE":"２５１巷","ALLEY":" ","HOUSE_NO":"７６號","E_COORD97":174143.16,"N_COORD97":2564922.8700000001,"ADDRESS":"興中路２５１巷７６號","OBJECTID":381317},"geometry":{"x":174143.16000000015,"y":2564922.870000001}},{"attributes":{"ID":381328,"DIS_CODE":0,"TOWNNAME":"麻豆區","LI":"東角里","LIN":"9鄰","STREET":"興中路","SECT":" ","MAREA":" ","LANE":"２５１巷","ALLEY":" ","HOUSE_NO":"７７號","E_COORD97":174094.95999999999,"N_COORD97":2564921.4700000002,"ADDRESS":"興中路２５１巷７７號","OBJECTID":381318},"geometry":{"x":174094.96000000089,"y":2564921.4700000025}},{"attributes":{"ID":381329,"DIS_CODE":0,"TOWNNAME":"永康區","LI":"尚頂里","LIN":"10鄰","STREET":"正南一街","SECT":" ","MAREA":" ","LANE":"１０７巷","ALLEY":" ","HOUSE_NO":"３６號","E_COORD97":170805.62,"N_COORD97":2547143.98,"ADDRESS":"正南一街１０７巷３６號","OBJECTID":381319},"geometry":{"x":170805.62000000011,"y":2547143.9800000042}},{"attributes":{"ID":381330,"DIS_CODE":0,"TOWNNAME":"永康區","LI":"尚頂里","LIN":"9鄰","STREET":"正南一街","SECT":" ","MAREA":" ","LANE":"１２９巷","ALLEY":" ","HOUSE_NO":"３７號","E_COORD97":170704.95999999999,"N_COORD97":2547116.9199999999,"ADDRESS":"正南一街１２９巷３７號","OBJECTID":381320},"geometry":{"x":170704.95999999996,"y":2547116.9200000037}},{"attributes":{"ID":381331,"DIS_CODE":0,"TOWNNAME":"永康區","LI":"西勢里","LIN":"21鄰","STREET":"富強路","SECT":"一段","MAREA":" ","LANE":"１４３巷","ALLEY":" ","HOUSE_NO":"５號","E_COORD97":175514.87,"N_COORD97":2546314.5299999998,"ADDRESS":"富強路一段１４３巷５號","OBJECTID":381321},"geometry":{"x":175514.87000000011,"y":2546314.5299999993}},{"attributes":{"ID":381332,"DIS_CODE":0,"TOWNNAME":"永康區","LI":"西勢里","LIN":"21鄰","STREET":"富強路","SECT":"一段","MAREA":" ","LANE":"１４３巷","ALLEY":" ","HOUSE_NO":"３０號","E_COORD97":175484.89000000001,"N_COORD97":2546358.46,"ADDRESS":"富強路一段１４３巷３０號","OBJECTID":381322},"geometry":{"x":175484.8900000006,"y":2546358.4600000028}},{"attributes":{"ID":381333,"DIS_CODE":0,"TOWNNAME":"麻豆區","LI":"東角里","LIN":"9鄰","STREET":"興中路","SECT":" ","MAREA":" ","LANE":"２５１巷","ALLEY":" ","HOUSE_NO":"８０號","E_COORD97":174157.39999999999,"N_COORD97":2564922.7799999998,"ADDRESS":"興中路２５１巷８０號","OBJECTID":381323},"geometry":{"x":174157.40000000037,"y":2564922.7799999993}},{"attributes":{"ID":381334,"DIS_CODE":0,"TOWNNAME":"麻豆區","LI":"東角里","LIN":"9鄰","STREET":"興中路","SECT":" ","MAREA":" ","LANE":"２５１巷","ALLEY":" ","HOUSE_NO":"８３號","E_COORD97":174079.70999999999,"N_COORD97":2564921.6099999999,"ADDRESS":"興中路２５１巷８３號","OBJECTID":381324},"geometry":{"x":174079.71000000089,"y":2564921.6100000013}},{"attributes":{"ID":381335,"DIS_CODE":0,"TOWNNAME":"麻豆區","LI":"東角里","LIN":"9鄰","STREET":"興中路","SECT":" ","MAREA":" ","LANE":"２５１巷","ALLEY":" ","HOUSE_NO":"８４號","E_COORD97":174172.29000000001,"N_COORD97":2564922.3700000001,"ADDRESS":"興中路２５１巷８４號","OBJECTID":381325},"geometry":{"x":174172.29000000097,"y":2564922.3700000029}},{"attributes":{"ID":381336,"DIS_CODE":0,"TOWNNAME":"麻豆區","LI":"東角里","LIN":"9鄰","STREET":"興中路","SECT":" ","MAREA":" ","LANE":"２５１巷","ALLEY":" ","HOUSE_NO":"８５號","E_COORD97":174074.39000000001,"N_COORD97":2564921.6200000001,"ADDRESS":"興中路２５１巷８５號","OBJECTID":381326},"geometry":{"x":174074.3900000006,"y":2564921.620000001}},{"attributes":{"ID":381337,"DIS_CODE":0,"TOWNNAME":"麻豆區","LI":"東角里","LIN":"9鄰","STREET":"興中路","SECT":" ","MAREA":" ","LANE":"２５１巷","ALLEY":" ","HOUSE_NO":"８６號","E_COORD97":174179.85000000001,"N_COORD97":2564922.8500000001,"ADDRESS":"興中路２５１巷８６號","OBJECTID":381327},"geometry":{"x":174179.85000000056,"y":2564922.8499999996}},{"attributes":{"ID":381338,"DIS_CODE":0,"TOWNNAME":"麻豆區","LI":"東角里","LIN":"9鄰","STREET":"興中路","SECT":" ","MAREA":" ","LANE":"２５１巷","ALLEY":" ","HOUSE_NO":"８７號","E_COORD97":174069.39000000001,"N_COORD97":2564921.5600000001,"ADDRESS":"興中路２５１巷８７號","OBJECTID":381328},"geometry":{"x":174069.3900000006,"y":2564921.5600000005}},{"attributes":{"ID":381339,"DIS_CODE":0,"TOWNNAME":"麻豆區","LI":"東角里","LIN":"9鄰","STREET":"興中路","SECT":" ","MAREA":" ","LANE":"２５１巷","ALLEY":" ","HOUSE_NO":"８８號","E_COORD97":174186.98999999999,"N_COORD97":2564922.6400000001,"ADDRESS":"興中路２５１巷８８號","OBJECTID":381329},"geometry":{"x":174186.99000000022,"y":2564922.6400000025}},{"attributes":{"ID":381340,"DIS_CODE":0,"TOWNNAME":"麻豆區","LI":"東角里","LIN":"9鄰","STREET":"興中路","SECT":" ","MAREA":" ","LANE":"２５１巷","ALLEY":" ","HOUSE_NO":"８９號","E_COORD97":174064.12,"N_COORD97":2564921.5600000001,"ADDRESS":"興中路２５１巷８９號","OBJECTID":381330},"geometry":{"x":174064.12000000011,"y":2564921.5600000005}},{"attributes":{"ID":381341,"DIS_CODE":0,"TOWNNAME":"麻豆區","LI":"東角里","LIN":"9鄰","STREET":"興中路","SECT":" ","MAREA":" ","LANE":"２５１巷","ALLEY":" ","HOUSE_NO":"８號","E_COORD97":174162.62,"N_COORD97":2564848.3500000001,"ADDRESS":"興中路２５１巷８號","OBJECTID":381331},"geometry":{"x":174162.61999999918,"y":2564848.3499999978}},{"attributes":{"ID":381342,"DIS_CODE":0,"TOWNNAME":"麻豆區","LI":"東角里","LIN":"9鄰","STREET":"興中路","SECT":" ","MAREA":" ","LANE":"２５１巷","ALLEY":" ","HOUSE_NO":"９０號","E_COORD97":174193.44,"N_COORD97":2564922.6499999999,"ADDRESS":"興中路２５１巷９０號","OBJECTID":381332},"geometry":{"x":174193.44000000134,"y":2564922.6500000022}},{"attributes":{"ID":381343,"DIS_CODE":0,"TOWNNAME":"麻豆區","LI":"東角里","LIN":"9鄰","STREET":"興中路","SECT":" ","MAREA":" ","LANE":"２５１巷","ALLEY":" ","HOUSE_NO":"９１號","E_COORD97":174058.89000000001,"N_COORD97":2564921.6200000001,"ADDRESS":"興中路２５１巷９１號","OBJECTID":381333},"geometry":{"x":174058.8900000006,"y":2564921.620000001}},{"attributes":{"ID":381344,"DIS_CODE":0,"TOWNNAME":"麻豆區","LI":"東角里","LIN":"9鄰","STREET":"興中路","SECT":" ","MAREA":" ","LANE":"２５１巷","ALLEY":" ","HOUSE_NO":"９３號","E_COORD97":174053.42000000001,"N_COORD97":2564921.5899999999,"ADDRESS":"興中路２５１巷９３號","OBJECTID":381334},"geometry":{"x":174053.41999999993,"y":2564921.589999998}},{"attributes":{"ID":381345,"DIS_CODE":0,"TOWNNAME":"麻豆區","LI":"東角里","LIN":"9鄰","STREET":"興中路","SECT":" ","MAREA":" ","LANE":"２５１巷","ALLEY":" ","HOUSE_NO":"９號","E_COORD97":174111.57999999999,"N_COORD97":2564866.3300000001,"ADDRESS":"興中路２５１巷９號","OBJECTID":381335},"geometry":{"x":174111.58000000007,"y":2564866.3300000038}},{"attributes":{"ID":381346,"DIS_CODE":0,"TOWNNAME":"永康區","LI":"西灣里","LIN":"41鄰","STREET":"國光六街","SECT":" ","MAREA":" ","LANE":"９０巷","ALLEY":" ","HOUSE_NO":"１０號","E_COORD97":174049.51000000001,"N_COORD97":2545380.9700000002,"ADDRESS":"國光六街９０巷１０號","OBJECTID":381336},"geometry":{"x":174049.51000000164,"y":2545380.9700000007}},{"attributes":{"ID":381347,"DIS_CODE":0,"TOWNNAME":"永康區","LI":"尚頂里","LIN":"13鄰","STREET":"正南一街","SECT":" ","MAREA":" ","LANE":"１０５巷","ALLEY":" ","HOUSE_NO":"４０號","E_COORD97":171073.29000000001,"N_COORD97":2547126.4900000002,"ADDRESS":"正南一街１０５巷４０號","OBJECTID":381337},"geometry":{"x":171073.29000000097,"y":2547126.4899999984}},{"attributes":{"ID":381348,"DIS_CODE":0,"TOWNNAME":"永康區","LI":"西灣里","LIN":"37鄰","STREET":"永華路","SECT":" ","MAREA":" ","LANE":"２３８巷","ALLEY":" ","HOUSE_NO":"９號","E_COORD97":174178.29999999999,"N_COORD97":2545594.46,"ADDRESS":"永華路２３８巷９號","OBJECTID":381338},"geometry":{"x":174178.30000000075,"y":2545594.4600000009}},{"attributes":{"ID":381349,"DIS_CODE":0,"TOWNNAME":"永康區","LI":"西灣里","LIN":"24鄰","STREET":"國光七街","SECT":" ","MAREA":" ","LANE":"６巷","ALLEY":" ","HOUSE_NO":"２號","E_COORD97":174362.26999999999,"N_COORD97":2545540.2000000002,"ADDRESS":"國光七街６巷２號","OBJECTID":381339},"geometry":{"x":174362.26999999955,"y":2545540.1999999993}},{"attributes":{"ID":381350,"DIS_CODE":0,"TOWNNAME":"下營區","LI":"仁里里","LIN":"9鄰","STREET":"工業街","SECT":" ","MAREA":" ","LANE":"２巷","ALLEY":" ","HOUSE_NO":"２３號","E_COORD97":173516.94,"N_COORD97":2570106.0699999998,"ADDRESS":"工業街２巷２３號","OBJECTID":381340},"geometry":{"x":173516.94000000134,"y":2570106.0699999984}},{"attributes":{"ID":381351,"DIS_CODE":0,"TOWNNAME":"永康區","LI":"尚頂里","LIN":"6鄰","STREET":"中正二街","SECT":" ","MAREA":" ","LANE":"１０５巷","ALLEY":" ","HOUSE_NO":"２７號","E_COORD97":170948.78,"N_COORD97":2547600.5699999998,"ADDRESS":"中正二街１０５巷２７號","OBJECTID":381341},"geometry":{"x":170948.78000000026,"y":2547600.5700000003}},{"attributes":{"ID":381352,"DIS_CODE":0,"TOWNNAME":"永康區","LI":"尚頂里","LIN":"10鄰","STREET":"正南一街","SECT":" ","MAREA":" ","LANE":"１２９巷","ALLEY":" ","HOUSE_NO":"１１號","E_COORD97":170823.92999999999,"N_COORD97":2547196.2599999998,"ADDRESS":"正南一街１２９巷１１號","OBJECTID":381342},"geometry":{"x":170823.92999999877,"y":2547196.2600000016}},{"attributes":{"ID":381353,"DIS_CODE":0,"TOWNNAME":"下營區","LI":"仁里里","LIN":"9鄰","STREET":"工業街","SECT":" ","MAREA":" ","LANE":"２巷","ALLEY":" ","HOUSE_NO":"２５號","E_COORD97":173503.79999999999,"N_COORD97":2570111.73,"ADDRESS":"工業街２巷２５號","OBJECTID":381343},"geometry":{"x":173503.80000000075,"y":2570111.7300000004}},{"attributes":{"ID":381354,"DIS_CODE":0,"TOWNNAME":"下營區","LI":"仁里里","LIN":"9鄰","STREET":"工業街","SECT":" ","MAREA":" ","LANE":"２巷","ALLEY":" ","HOUSE_NO":"２９號","E_COORD97":173449.35999999999,"N_COORD97":2570122.0800000001,"ADDRESS":"工業街２巷２９號","OBJECTID":381344},"geometry":{"x":173449.3600000022,"y":2570122.0800000001}},{"attributes":{"ID":381355,"DIS_CODE":0,"TOWNNAME":"下營區","LI":"仁里里","LIN":"9鄰","STREET":"工業街","SECT":" ","MAREA":" ","LANE":"２巷","ALLEY":" ","HOUSE_NO":"３３號","E_COORD97":173416.37,"N_COORD97":2570124.3999999999,"ADDRESS":"工業街２巷３３號","OBJECTID":381345},"geometry":{"x":173416.37000000011,"y":2570124.4000000041}},{"attributes":{"ID":381356,"DIS_CODE":0,"TOWNNAME":"下營區","LI":"仁里里","LIN":"9鄰","STREET":"工業街","SECT":" ","MAREA":" ","LANE":"２巷","ALLEY":" ","HOUSE_NO":"５號","E_COORD97":173806.10999999999,"N_COORD97":2570088.7999999998,"ADDRESS":"工業街２巷５號","OBJECTID":381346},"geometry":{"x":173806.11000000127,"y":2570088.8000000026}},{"attributes":{"ID":381357,"DIS_CODE":0,"TOWNNAME":"下營區","LI":"仁里里","LIN":"9鄰","STREET":"工業街","SECT":" ","MAREA":" ","LANE":"２巷","ALLEY":" ","HOUSE_NO":"７號","E_COORD97":173794.51000000001,"N_COORD97":2570138.7200000002,"ADDRESS":"工業街２巷７號","OBJECTID":381347},"geometry":{"x":173794.50999999978,"y":2570138.7200000007}},{"attributes":{"ID":381358,"DIS_CODE":0,"TOWNNAME":"永康區","LI":"西灣里","LIN":"13鄰","STREET":"永大路","SECT":"二段","MAREA":" ","LANE":"５５６巷","ALLEY":" ","HOUSE_NO":"４５號","E_COORD97":174544.09,"N_COORD97":2545398.7799999998,"ADDRESS":"永大路二段５５６巷４５號","OBJECTID":381348},"geometry":{"x":174544.09000000171,"y":2545398.7800000012}},{"attributes":{"ID":381359,"DIS_CODE":0,"TOWNNAME":"永康區","LI":"尚頂里","LIN":"19鄰","STREET":"南台街","SECT":" ","MAREA":" ","LANE":"３巷","ALLEY":" ","HOUSE_NO":"２０號","E_COORD97":170494.23999999999,"N_COORD97":2546862.25,"ADDRESS":"南台街３巷２０號","OBJECTID":381349},"geometry":{"x":170494.24000000115,"y":2546862.25}},{"attributes":{"ID":381360,"DIS_CODE":0,"TOWNNAME":"永康區","LI":"西灣里","LIN":"50鄰","STREET":"永華路","SECT":" ","MAREA":" ","LANE":"２７３巷","ALLEY":" ","HOUSE_NO":"２８號","E_COORD97":173948.07999999999,"N_COORD97":2545804.8300000001,"ADDRESS":"永華路２７３巷２８號","OBJECTID":381350},"geometry":{"x":173948.08000000101,"y":2545804.8300000001}},{"attributes":{"ID":381361,"DIS_CODE":0,"TOWNNAME":"下營區","LI":"下營里","LIN":"9鄰","STREET":"中山路","SECT":"一段","MAREA":" ","LANE":"９巷","ALLEY":" ","HOUSE_NO":"１２號","E_COORD97":174416.98999999999,"N_COORD97":2570534.1600000001,"ADDRESS":"中山路一段９巷１２號","OBJECTID":381351},"geometry":{"x":174416.99000000115,"y":2570534.160000002}},{"attributes":{"ID":381362,"DIS_CODE":0,"TOWNNAME":"下營區","LI":"營前里","LIN":"9鄰","STREET":"中山路","SECT":"二段","MAREA":" ","LANE":"１１１巷","ALLEY":" ","HOUSE_NO":"２號","E_COORD97":174515.60000000001,"N_COORD97":2570183.8900000001,"ADDRESS":"中山路二段１１１巷２號","OBJECTID":381352},"geometry":{"x":174515.60000000056,"y":2570183.8900000025}},{"attributes":{"ID":381363,"DIS_CODE":0,"TOWNNAME":"永康區","LI":"正強里","LIN":"9鄰","STREET":"自強路","SECT":" ","MAREA":" ","LANE":"３３０巷","ALLEY":" ","HOUSE_NO":"２號","E_COORD97":173411.37,"N_COORD97":2547662.5600000001,"ADDRESS":"自強路３３０巷２號","OBJECTID":381353},"geometry":{"x":173411.37000000011,"y":2547662.5600000024}},{"attributes":{"ID":381364,"DIS_CODE":0,"TOWNNAME":"永康區","LI":"正強里","LIN":"9鄰","STREET":"正義街","SECT":" ","MAREA":" ","LANE":"１２６巷","ALLEY":" ","HOUSE_NO":"５號","E_COORD97":173371.13,"N_COORD97":2547571.1600000001,"ADDRESS":"正義街１２６巷５號","OBJECTID":381354},"geometry":{"x":173371.13000000082,"y":2547571.160000002}},{"attributes":{"ID":381365,"DIS_CODE":0,"TOWNNAME":"永康區","LI":"正強里","LIN":"9鄰","STREET":"自強路","SECT":" ","MAREA":" ","LANE":"３３０巷","ALLEY":" ","HOUSE_NO":"１６號","E_COORD97":173425.81,"N_COORD97":2547622.4900000002,"ADDRESS":"自強路３３０巷１６號","OBJECTID":381355},"geometry":{"x":173425.81000000052,"y":2547622.4900000021}},{"attributes":{"ID":381366,"DIS_CODE":0,"TOWNNAME":"永康區","LI":"西灣里","LIN":"46鄰","STREET":"永華路","SECT":" ","MAREA":" ","LANE":"２７３巷","ALLEY":" ","HOUSE_NO":"３５號","E_COORD97":173938.70000000001,"N_COORD97":2545780.4399999999,"ADDRESS":"永華路２７３巷３５號","OBJECTID":381356},"geometry":{"x":173938.70000000112,"y":2545780.4400000032}},{"attributes":{"ID":381367,"DIS_CODE":0,"TOWNNAME":"永康區","LI":"西灣里","LIN":"17鄰","STREET":"永大路","SECT":"二段","MAREA":" ","LANE":"５５６巷","ALLEY":" ","HOUSE_NO":"３號","E_COORD97":174420.34,"N_COORD97":2545437.77,"ADDRESS":"永大路二段５５６巷３號","OBJECTID":381357},"geometry":{"x":174420.34000000171,"y":2545437.7699999996}},{"attributes":{"ID":381368,"DIS_CODE":0,"TOWNNAME":"永康區","LI":"尚頂里","LIN":"1鄰","STREET":"中正南路","SECT":" ","MAREA":" ","LANE":"３０６巷","ALLEY":" ","HOUSE_NO":"２號","E_COORD97":170689.72,"N_COORD97":2547860.7000000002,"ADDRESS":"中正南路３０６巷２號","OBJECTID":381358},"geometry":{"x":170689.71999999974,"y":2547860.7000000011}},{"attributes":{"ID":381369,"DIS_CODE":0,"TOWNNAME":"安南區","LI":"溪北里","LIN":"9鄰","STREET":"府安路","SECT":"四段","MAREA":" ","LANE":"２４巷","ALLEY":" ","HOUSE_NO":"１９號","E_COORD97":169394.81,"N_COORD97":2547370,"ADDRESS":"府安路四段２４巷１９號","OBJECTID":381359},"geometry":{"x":169394.81000000052,"y":2547370}},{"attributes":{"ID":381370,"DIS_CODE":0,"TOWNNAME":"安南區","LI":"城南里","LIN":"9鄰","STREET":"城西街","SECT":"一段","MAREA":" ","LANE":"２４９巷","ALLEY":" ","HOUSE_NO":"３１號","E_COORD97":160426.45999999999,"N_COORD97":2551117.1899999999,"ADDRESS":"城西街一段２４９巷３１號","OBJECTID":381360},"geometry":{"x":160426.46000000089,"y":2551117.1899999995}},{"attributes":{"ID":381371,"DIS_CODE":0,"TOWNNAME":"永康區","LI":"尚頂里","LIN":"9鄰","STREET":"正南一街","SECT":" ","MAREA":" ","LANE":"１２９巷","ALLEY":" ","HOUSE_NO":"１２號","E_COORD97":170815.98999999999,"N_COORD97":2547217.5,"ADDRESS":"正南一街１２９巷１２號","OBJECTID":381361},"geometry":{"x":170815.99000000115,"y":2547217.5}},{"attributes":{"ID":381372,"DIS_CODE":0,"TOWNNAME":"南區","LI":"開南里","LIN":"22鄰","STREET":"新建路","SECT":" ","MAREA":" ","LANE":"４１巷","ALLEY":" ","HOUSE_NO":"１３號","E_COORD97":166573.26000000001,"N_COORD97":2540996.8999999999,"ADDRESS":"新建路４１巷１３號","OBJECTID":381362},"geometry":{"x":166573.25999999978,"y":2540996.9000000004}},{"attributes":{"ID":381373,"DIS_CODE":0,"TOWNNAME":"南區","LI":"開南里","LIN":"22鄰","STREET":"新建路","SECT":" ","MAREA":" ","LANE":"４１巷","ALLEY":" ","HOUSE_NO":"１４號","E_COORD97":166602.25,"N_COORD97":2540972.8399999999,"ADDRESS":"新建路４１巷１４號","OBJECTID":381363},"geometry":{"x":166602.25,"y":2540972.8399999999}},{"attributes":{"ID":381374,"DIS_CODE":0,"TOWNNAME":"南區","LI":"開南里","LIN":"22鄰","STREET":"新建路","SECT":" ","MAREA":" ","LANE":"４１巷","ALLEY":" ","HOUSE_NO":"１５號","E_COORD97":166578.41,"N_COORD97":2540996.7400000002,"ADDRESS":"新建路４１巷１５號","OBJECTID":381364},"geometry":{"x":166578.41000000108,"y":2540996.7400000021}},{"attributes":{"ID":381375,"DIS_CODE":0,"TOWNNAME":"南區","LI":"開南里","LIN":"22鄰","STREET":"新建路","SECT":" ","MAREA":" ","LANE":"４１巷","ALLEY":" ","HOUSE_NO":"１６號","E_COORD97":166613.04000000001,"N_COORD97":2540973.3199999998,"ADDRESS":"新建路４１巷１６號","OBJECTID":381365},"geometry":{"x":166613.04000000097,"y":2540973.3200000003}},{"attributes":{"ID":381376,"DIS_CODE":0,"TOWNNAME":"南區","LI":"開南里","LIN":"22鄰","STREET":"新建路","SECT":" ","MAREA":" ","LANE":"４１巷","ALLEY":" ","HOUSE_NO":"１７號","E_COORD97":166591.79000000001,"N_COORD97":2540996.8999999999,"ADDRESS":"新建路４１巷１７號","OBJECTID":381366},"geometry":{"x":166591.79000000004,"y":2540996.9000000004}},{"attributes":{"ID":381377,"DIS_CODE":0,"TOWNNAME":"南區","LI":"開南里","LIN":"22鄰","STREET":"新建路","SECT":" ","MAREA":" ","LANE":"４１巷","ALLEY":" ","HOUSE_NO":"１９號","E_COORD97":166596.14000000001,"N_COORD97":2540996.8999999999,"ADDRESS":"新建路４１巷１９號","OBJECTID":381367},"geometry":{"x":166596.13999999966,"y":2540996.9000000004}},{"attributes":{"ID":381378,"DIS_CODE":0,"TOWNNAME":"南區","LI":"開南里","LIN":"22鄰","STREET":"新建路","SECT":" ","MAREA":" ","LANE":"４１巷","ALLEY":" ","HOUSE_NO":"２１號","E_COORD97":166609.19,"N_COORD97":2540997.3799999999,"ADDRESS":"新建路４１巷２１號","OBJECTID":381368},"geometry":{"x":166609.19000000134,"y":2540997.3800000008}},{"attributes":{"ID":381379,"DIS_CODE":0,"TOWNNAME":"南區","LI":"開南里","LIN":"22鄰","STREET":"新建路","SECT":" ","MAREA":" ","LANE":"４１巷","ALLEY":" ","HOUSE_NO":"２３號","E_COORD97":166613.85999999999,"N_COORD97":2540997.0600000001,"ADDRESS":"新建路４１巷２３號","OBJECTID":381369},"geometry":{"x":166613.86000000034,"y":2540997.0600000024}},{"attributes":{"ID":381380,"DIS_CODE":0,"TOWNNAME":"歸仁區","LI":"崙頂里","LIN":"22鄰","STREET":"崙頂二街","SECT":" ","MAREA":" ","LANE":"５０巷","ALLEY":" ","HOUSE_NO":"１１號","E_COORD97":177728.04000000001,"N_COORD97":2540058.48,"ADDRESS":"崙頂二街５０巷１１號","OBJECTID":381370},"geometry":{"x":177728.03999999911,"y":2540058.4800000023}},{"attributes":{"ID":381381,"DIS_CODE":0,"TOWNNAME":"歸仁區","LI":"崙頂里","LIN":"22鄰","STREET":"崙頂二街","SECT":" ","MAREA":" ","LANE":"５０巷","ALLEY":" ","HOUSE_NO":"１９號","E_COORD97":177717.84,"N_COORD97":2540073.48,"ADDRESS":"崙頂二街５０巷１９號","OBJECTID":381371},"geometry":{"x":177717.84000000078,"y":2540073.4800000004}},{"attributes":{"ID":381382,"DIS_CODE":0,"TOWNNAME":"歸仁區","LI":"崙頂里","LIN":"22鄰","STREET":"崙頂二街","SECT":" ","MAREA":" ","LANE":"５０巷","ALLEY":" ","HOUSE_NO":"５７號","E_COORD97":177718.54000000001,"N_COORD97":2540000.48,"ADDRESS":"崙頂二街５０巷５７號","OBJECTID":381372},"geometry":{"x":177718.54000000097,"y":2540000.4800000042}},{"attributes":{"ID":381383,"DIS_CODE":0,"TOWNNAME":"歸仁區","LI":"南保里","LIN":"22鄰","STREET":"文化街","SECT":"三段","MAREA":" ","LANE":"６１巷","ALLEY":" ","HOUSE_NO":"３３號","E_COORD97":176898.32000000001,"N_COORD97":2541137.2599999998,"ADDRESS":"文化街三段６１巷３３號","OBJECTID":381373},"geometry":{"x":176898.32000000123,"y":2541137.2600000035}},{"attributes":{"ID":381384,"DIS_CODE":0,"TOWNNAME":"安南區","LI":"安和里","LIN":"9鄰","STREET":"安和路","SECT":"一段","MAREA":" ","LANE":"１８巷","ALLEY":" ","HOUSE_NO":"１２號","E_COORD97":169630.82000000001,"N_COORD97":2547442.5299999998,"ADDRESS":"安和路一段１８巷１２號","OBJECTID":381374},"geometry":{"x":169630.82000000123,"y":2547442.5300000012}},{"attributes":{"ID":381385,"DIS_CODE":0,"TOWNNAME":"東區","LI":"成大里","LIN":"9鄰","STREET":"育樂街","SECT":" ","MAREA":" ","LANE":"１４１巷","ALLEY":" ","HOUSE_NO":"２６號","E_COORD97":169592.5,"N_COORD97":2543939.2999999998,"ADDRESS":"育樂街１４１巷２６號","OBJECTID":381375},"geometry":{"x":169592.5,"y":2543939.3000000026}},{"attributes":{"ID":381386,"DIS_CODE":0,"TOWNNAME":"東區","LI":"成大里","LIN":"9鄰","STREET":"育樂街","SECT":" ","MAREA":" ","LANE":"１４１巷","ALLEY":" ","HOUSE_NO":"２８號","E_COORD97":169596.29000000001,"N_COORD97":2543938.4700000002,"ADDRESS":"育樂街１４１巷２８號","OBJECTID":381376},"geometry":{"x":169596.2900000019,"y":2543938.4700000025}},{"attributes":{"ID":381387,"DIS_CODE":0,"TOWNNAME":"東區","LI":"成大里","LIN":"9鄰","STREET":"育樂街","SECT":" ","MAREA":" ","LANE":"１４１巷","ALLEY":" ","HOUSE_NO":"３０號","E_COORD97":169601.07000000001,"N_COORD97":2543940.8199999998,"ADDRESS":"育樂街１４１巷３０號","OBJECTID":381377},"geometry":{"x":169601.0700000003,"y":2543940.8199999984}},{"attributes":{"ID":381388,"DIS_CODE":0,"TOWNNAME":"東區","LI":"成大里","LIN":"9鄰","STREET":"育樂街","SECT":" ","MAREA":" ","LANE":"１４１巷","ALLEY":" ","HOUSE_NO":"３２號","E_COORD97":169603.51999999999,"N_COORD97":2543941.1899999999,"ADDRESS":"育樂街１４１巷３２號","OBJECTID":381378},"geometry":{"x":169603.52000000048,"y":2543941.1900000032}},{"attributes":{"ID":381389,"DIS_CODE":0,"TOWNNAME":"永康區","LI":"\u25A0行里","LIN":"22鄰","STREET":"正南五街","SECT":" ","MAREA":" ","LANE":"５２０巷","ALLEY":" ","HOUSE_NO":"４０號","E_COORD97":171665.73999999999,"N_COORD97":2548776.3199999998,"ADDRESS":"正南五街５２０巷４０號","OBJECTID":381379},"geometry":{"x":171665.74000000115,"y":2548776.3200000022}},{"attributes":{"ID":381390,"DIS_CODE":0,"TOWNNAME":"東區","LI":"成大里","LIN":"9鄰","STREET":"育樂街","SECT":" ","MAREA":" ","LANE":"１４１巷","ALLEY":" ","HOUSE_NO":"３４號","E_COORD97":169611.10000000001,"N_COORD97":2543943.5499999998,"ADDRESS":"育樂街１４１巷３４號","OBJECTID":381380},"geometry":{"x":169611.10000000056,"y":2543943.5500000045}},{"attributes":{"ID":381391,"DIS_CODE":0,"TOWNNAME":"東區","LI":"成大里","LIN":"9鄰","STREET":"育樂街","SECT":" ","MAREA":" ","LANE":"１４１巷","ALLEY":" ","HOUSE_NO":"３６號","E_COORD97":169615.35999999999,"N_COORD97":2543944.3799999999,"ADDRESS":"育樂街１４１巷３６號","OBJECTID":381381},"geometry":{"x":169615.36000000127,"y":2543944.379999999}},{"attributes":{"ID":381392,"DIS_CODE":0,"TOWNNAME":"東區","LI":"成大里","LIN":"9鄰","STREET":"育樂街","SECT":" ","MAREA":" ","LANE":"１４１巷","ALLEY":" ","HOUSE_NO":"３８號","E_COORD97":169617.95999999999,"N_COORD97":2543943.2000000002,"ADDRESS":"育樂街１４１巷３８號","OBJECTID":381382},"geometry":{"x":169617.96000000089,"y":2543943.1999999993}},{"attributes":{"ID":381393,"DIS_CODE":0,"TOWNNAME":"東區","LI":"成大里","LIN":"9鄰","STREET":"育樂街","SECT":" ","MAREA":" ","LANE":"１４１巷","ALLEY":" ","HOUSE_NO":"４０號","E_COORD97":169621.16,"N_COORD97":2543945.0899999999,"ADDRESS":"育樂街１４１巷４０號","OBJECTID":381383},"geometry":{"x":169621.16000000201,"y":2543945.0899999999}},{"attributes":{"ID":381394,"DIS_CODE":0,"TOWNNAME":"東區","LI":"成大里","LIN":"9鄰","STREET":"育樂街","SECT":" ","MAREA":" ","LANE":"１４１巷","ALLEY":" ","HOUSE_NO":"４６號","E_COORD97":169629.19,"N_COORD97":2543947.8999999999,"ADDRESS":"育樂街１４１巷４６號","OBJECTID":381384},"geometry":{"x":169629.19000000041,"y":2543947.9000000022}},{"attributes":{"ID":381395,"DIS_CODE":0,"TOWNNAME":"永康區","LI":"\u25A0行里","LIN":"43鄰","STREET":"\u25A0和街","SECT":" ","MAREA":" ","LANE":"２６３巷","ALLEY":" ","HOUSE_NO":"１７號","E_COORD97":171432.20999999999,"N_COORD97":2548383.5899999999,"ADDRESS":"\u25A0和街２６３巷１７號","OBJECTID":381385},"geometry":{"x":171432.20999999996,"y":2548383.5900000036}},{"attributes":{"ID":381396,"DIS_CODE":0,"TOWNNAME":"永康區","LI":"埔園里","LIN":" ","STREET":"自強路","SECT":" ","MAREA":" ","LANE":"６３４巷","ALLEY":" ","HOUSE_NO":"３號","E_COORD97":174187.17000000001,"N_COORD97":2548253.9900000002,"ADDRESS":"自強路６３４巷３號","OBJECTID":381386},"geometry":{"x":174187.16999999993,"y":2548253.9900000021}},{"attributes":{"ID":381397,"DIS_CODE":0,"TOWNNAME":"永康區","LI":"\u25A0行里","LIN":"38鄰","STREET":"仁愛街","SECT":" ","MAREA":" ","LANE":"１３６巷","ALLEY":" ","HOUSE_NO":"４９號","E_COORD97":172282.06,"N_COORD97":2549610.27,"ADDRESS":"仁愛街１３６巷４９號","OBJECTID":381387},"geometry":{"x":172282.05999999959,"y":2549610.2700000014}},{"attributes":{"ID":381398,"DIS_CODE":0,"TOWNNAME":"永康區","LI":"\u25A0行里","LIN":"20鄰","STREET":"正南五街","SECT":" ","MAREA":" ","LANE":"２８９巷","ALLEY":" ","HOUSE_NO":"１０８號","E_COORD97":171826.82999999999,"N_COORD97":2548314.3599999999,"ADDRESS":"正南五街２８９巷１０８號","OBJECTID":381388},"geometry":{"x":171826.83000000007,"y":2548314.3600000013}},{"attributes":{"ID":381399,"DIS_CODE":0,"TOWNNAME":"永康區","LI":"\u25A0行里","LIN":"35鄰","STREET":"中正北路","SECT":" ","MAREA":" ","LANE":"１７７巷","ALLEY":" ","HOUSE_NO":"１７號","E_COORD97":172385.67999999999,"N_COORD97":2549178.21,"ADDRESS":"中正北路１７７巷１７號","OBJECTID":381389},"geometry":{"x":172385.68000000063,"y":2549178.2100000028}},{"attributes":{"ID":381400,"DIS_CODE":0,"TOWNNAME":"永康區","LI":"\u25A0行里","LIN":"35鄰","STREET":"中正北路","SECT":" ","MAREA":" ","LANE":"１７７巷","ALLEY":" ","HOUSE_NO":"２２號","E_COORD97":172379.60000000001,"N_COORD97":2549213.7200000002,"ADDRESS":"中正北路１７７巷２２號","OBJECTID":381390},"geometry":{"x":172379.60000000056,"y":2549213.7200000007}},{"attributes":{"ID":381401,"DIS_CODE":0,"TOWNNAME":"永康區","LI":"\u25A0行里","LIN":"35鄰","STREET":"中正北路","SECT":" ","MAREA":" ","LANE":"１７７巷","ALLEY":" ","HOUSE_NO":"１４號","E_COORD97":172406.89000000001,"N_COORD97":2549163.9900000002,"ADDRESS":"中正北路１７７巷１４號","OBJECTID":381391},"geometry":{"x":172406.88999999966,"y":2549163.9900000002}},{"attributes":{"ID":381402,"DIS_CODE":0,"TOWNNAME":"永康區","LI":"\u25A0行里","LIN":"41鄰","STREET":"永安路","SECT":" ","MAREA":" ","LANE":"１６５巷","ALLEY":" ","HOUSE_NO":"１１８號","E_COORD97":172466.23000000001,"N_COORD97":2549452.3199999998,"ADDRESS":"永安路１６５巷１１８號","OBJECTID":381392},"geometry":{"x":172466.23000000138,"y":2549452.3200000003}},{"attributes":{"ID":381403,"DIS_CODE":0,"TOWNNAME":"永康區","LI":"\u25A0行里","LIN":"41鄰","STREET":"永安路","SECT":" ","MAREA":" ","LANE":"１６５巷","ALLEY":" ","HOUSE_NO":"１１４號","E_COORD97":172474.75,"N_COORD97":2549452.8199999998,"ADDRESS":"永安路１６５巷１１４號","OBJECTID":381393},"geometry":{"x":172474.75,"y":2549452.8200000003}},{"attributes":{"ID":381404,"DIS_CODE":0,"TOWNNAME":"永康區","LI":"大橋里","LIN":" ","STREET":"大橋一街","SECT":" ","MAREA":" ","LANE":"１３７巷","ALLEY":" ","HOUSE_NO":"８號","E_COORD97":171030.23999999999,"N_COORD97":2546540.5,"ADDRESS":"大橋一街１３７巷８號","OBJECTID":381394},"geometry":{"x":171030.24000000022,"y":2546540.5000000019}},{"attributes":{"ID":381405,"DIS_CODE":0,"TOWNNAME":"官田區","LI":"隆田里","LIN":"9鄰","STREET":"中山路","SECT":"一段","MAREA":" ","LANE":"１０２巷","ALLEY":" ","HOUSE_NO":"１０號","E_COORD97":180066.09,"N_COORD97":2565837.8399999999,"ADDRESS":"中山路一段１０２巷１０號","OBJECTID":381395},"geometry":{"x":180066.09000000078,"y":2565837.8399999999}},{"attributes":{"ID":381406,"DIS_CODE":0,"TOWNNAME":"永康區","LI":"\u25A0行里","LIN":"35鄰","STREET":"中正北路","SECT":" ","MAREA":" ","LANE":"１７７巷","ALLEY":" ","HOUSE_NO":"２４號","E_COORD97":172375.54999999999,"N_COORD97":2549213.4700000002,"ADDRESS":"中正北路１７７巷２４號","OBJECTID":381396},"geometry":{"x":172375.54999999981,"y":2549213.4700000025}},{"attributes":{"ID":381407,"DIS_CODE":0,"TOWNNAME":"官田區","LI":"隆田里","LIN":"9鄰","STREET":"中山路","SECT":"一段","MAREA":" ","LANE":"１０２巷","ALLEY":" ","HOUSE_NO":"１１號","E_COORD97":180087.76999999999,"N_COORD97":2565852.4199999999,"ADDRESS":"中山路一段１０２巷１１號","OBJECTID":381397},"geometry":{"x":180087.77000000048,"y":2565852.4200000018}},{"attributes":{"ID":381408,"DIS_CODE":0,"TOWNNAME":"官田區","LI":"隆田里","LIN":"9鄰","STREET":"中山路","SECT":"一段","MAREA":" ","LANE":"１０２巷","ALLEY":" ","HOUSE_NO":"１２號","E_COORD97":180066.10999999999,"N_COORD97":2565842.02,"ADDRESS":"中山路一段１０２巷１２號","OBJECTID":381398},"geometry":{"x":180066.11000000127,"y":2565842.0200000014}},{"attributes":{"ID":381409,"DIS_CODE":0,"TOWNNAME":"官田區","LI":"隆田里","LIN":"9鄰","STREET":"中山路","SECT":"一段","MAREA":" ","LANE":"１０２巷","ALLEY":" ","HOUSE_NO":"１３號","E_COORD97":180088.34,"N_COORD97":2565856.3199999998,"ADDRESS":"中山路一段１０２巷１３號","OBJECTID":381399},"geometry":{"x":180088.33999999985,"y":2565856.320000004}},{"attributes":{"ID":381410,"DIS_CODE":0,"TOWNNAME":"官田區","LI":"隆田里","LIN":"9鄰","STREET":"中山路","SECT":"一段","MAREA":" ","LANE":"１０２巷","ALLEY":" ","HOUSE_NO":"１４號","E_COORD97":180066.28,"N_COORD97":2565846.1299999999,"ADDRESS":"中山路一段１０２巷１４號","OBJECTID":381400},"geometry":{"x":180066.28000000119,"y":2565846.1300000027}}]}