{"displayFieldName":"TOWNNAME","fieldAliases":{"ID":"ID","DIS_CODE":"DIS_CODE","TOWNNAME":"TOWNNAME","LI":"LI","LIN":"LIN","STREET":"STREET","SECT":"SECT","MAREA":"MAREA","LANE":"LANE","ALLEY":"ALLEY","HOUSE_NO":"HOUSE_NO","E_COORD97":"E_COORD97","N_COORD97":"N_COORD97","ADDRESS":"ADDRESS","OBJECTID":"OBJECTID"},"geometryType":"esriGeometryPoint","spatialReference":{"wkid":102443,"latestWkid":3826},"fields":[{"name":"ID","type":"esriFieldTypeDouble","alias":"ID"},{"name":"DIS_CODE","type":"esriFieldTypeInteger","alias":"DIS_CODE"},{"name":"TOWNNAME","type":"esriFieldTypeString","alias":"TOWNNAME","length":8},{"name":"LI","type":"esriFieldTypeString","alias":"LI","length":8},{"name":"LIN","type":"esriFieldTypeString","alias":"LIN","length":12},{"name":"STREET","type":"esriFieldTypeString","alias":"STREET","length":20},{"name":"SECT","type":"esriFieldTypeString","alias":"SECT","length":8},{"name":"MAREA","type":"esriFieldTypeString","alias":"MAREA","length":12},{"name":"LANE","type":"esriFieldTypeString","alias":"LANE","length":10},{"name":"ALLEY","type":"esriFieldTypeString","alias":"ALLEY","length":10},{"name":"HOUSE_NO","type":"esriFieldTypeString","alias":"HOUSE_NO","length":20},{"name":"E_COORD97","type":"esriFieldTypeDouble","alias":"E_COORD97"},{"name":"N_COORD97","type":"esriFieldTypeDouble","alias":"N_COORD97"},{"name":"ADDRESS","type":"esriFieldTypeString","alias":"ADDRESS","length":50},{"name":"OBJECTID","type":"esriFieldTypeOID","alias":"OBJECTID"}],"features":[{"attributes":{"ID":401625,"DIS_CODE":0,"TOWNNAME":"東區","LI":"莊敬里","LIN":"11鄰","STREET":"中華東路","SECT":"一段","MAREA":" ","LANE":"１０巷","ALLEY":" ","HOUSE_NO":"２２號","E_COORD97":171454.88,"N_COORD97":2544258.4199999999,"ADDRESS":"中華東路一段１０巷２２號","OBJECTID":401601},"geometry":{"x":171454.87999999989,"y":2544258.4199999981}},{"attributes":{"ID":401626,"DIS_CODE":0,"TOWNNAME":"東區","LI":"莊敬里","LIN":"11鄰","STREET":"中華東路","SECT":"一段","MAREA":" ","LANE":"１０巷","ALLEY":" ","HOUSE_NO":"２６號","E_COORD97":171450.51000000001,"N_COORD97":2544261.02,"ADDRESS":"中華東路一段１０巷２６號","OBJECTID":401602},"geometry":{"x":171450.50999999978,"y":2544261.0200000033}},{"attributes":{"ID":401627,"DIS_CODE":0,"TOWNNAME":"東區","LI":"莊敬里","LIN":"11鄰","STREET":"中華東路","SECT":"一段","MAREA":" ","LANE":"１０巷","ALLEY":" ","HOUSE_NO":"２８號","E_COORD97":171444.37,"N_COORD97":2544260.0899999999,"ADDRESS":"中華東路一段１０巷２８號","OBJECTID":401603},"geometry":{"x":171444.37000000104,"y":2544260.0899999999}},{"attributes":{"ID":401628,"DIS_CODE":0,"TOWNNAME":"永康區","LI":"五王里","LIN":"39鄰","STREET":"中華路","SECT":" ","MAREA":" ","LANE":"５７８巷","ALLEY":" ","HOUSE_NO":"１７號之７７","E_COORD97":171333.64999999999,"N_COORD97":2545989.54,"ADDRESS":"中華路５７８巷１７號之７７","OBJECTID":401604},"geometry":{"x":171333.65000000224,"y":2545989.5400000028}},{"attributes":{"ID":401629,"DIS_CODE":0,"TOWNNAME":"永康區","LI":"五王里","LIN":"39鄰","STREET":"中華路","SECT":" ","MAREA":" ","LANE":"５７８巷","ALLEY":" ","HOUSE_NO":"１７號之９６","E_COORD97":171333.67000000001,"N_COORD97":2545989.54,"ADDRESS":"中華路５７８巷１７號之９６","OBJECTID":401605},"geometry":{"x":171333.67000000086,"y":2545989.5400000028}},{"attributes":{"ID":401630,"DIS_CODE":0,"TOWNNAME":"永康區","LI":"王行里","LIN":"7鄰","STREET":"王行路","SECT":" ","MAREA":" ","LANE":"４８７巷","ALLEY":" ","HOUSE_NO":"６８號","E_COORD97":175246.04000000001,"N_COORD97":2548830.3399999999,"ADDRESS":"王行路４８７巷６８號","OBJECTID":401606},"geometry":{"x":175246.04000000004,"y":2548830.3400000017}},{"attributes":{"ID":401631,"DIS_CODE":0,"TOWNNAME":"東區","LI":"莊敬里","LIN":"11鄰","STREET":"中華東路","SECT":"一段","MAREA":" ","LANE":"１０巷","ALLEY":" ","HOUSE_NO":"３６號","E_COORD97":171428.38,"N_COORD97":2544263.6200000001,"ADDRESS":"中華東路一段１０巷３６號","OBJECTID":401607},"geometry":{"x":171428.38000000082,"y":2544263.620000001}},{"attributes":{"ID":401632,"DIS_CODE":0,"TOWNNAME":"東區","LI":"莊敬里","LIN":"11鄰","STREET":"中華東路","SECT":"一段","MAREA":" ","LANE":"１０巷","ALLEY":" ","HOUSE_NO":"３８號","E_COORD97":171421.95999999999,"N_COORD97":2544262.8799999999,"ADDRESS":"中華東路一段１０巷３８號","OBJECTID":401608},"geometry":{"x":171421.95999999996,"y":2544262.8800000008}},{"attributes":{"ID":401633,"DIS_CODE":0,"TOWNNAME":"東區","LI":"莊敬里","LIN":"11鄰","STREET":"中華東路","SECT":"一段","MAREA":" ","LANE":"１０巷","ALLEY":" ","HOUSE_NO":"４０號","E_COORD97":171416.76000000001,"N_COORD97":2544264.6400000001,"ADDRESS":"中華東路一段１０巷４０號","OBJECTID":401609},"geometry":{"x":171416.75999999978,"y":2544264.6400000043}},{"attributes":{"ID":401634,"DIS_CODE":0,"TOWNNAME":"東區","LI":"莊敬里","LIN":"11鄰","STREET":"中華東路","SECT":"一段","MAREA":" ","LANE":"１０巷","ALLEY":" ","HOUSE_NO":"４２號","E_COORD97":171411.26999999999,"N_COORD97":2544264.27,"ADDRESS":"中華東路一段１０巷４２號","OBJECTID":401610},"geometry":{"x":171411.26999999955,"y":2544264.2700000014}},{"attributes":{"ID":401635,"DIS_CODE":0,"TOWNNAME":"永康區","LI":"中興里","LIN":"22鄰","STREET":"中華路","SECT":" ","MAREA":" ","LANE":"２１２巷","ALLEY":" ","HOUSE_NO":"１０號","E_COORD97":171725.22,"N_COORD97":2545005.2599999998,"ADDRESS":"中華路２１２巷１０號","OBJECTID":401611},"geometry":{"x":171725.21999999974,"y":2545005.2599999979}},{"attributes":{"ID":401636,"DIS_CODE":0,"TOWNNAME":"永康區","LI":"五王里","LIN":"39鄰","STREET":"中華路","SECT":" ","MAREA":" ","LANE":"５７８巷","ALLEY":" ","HOUSE_NO":"１７號之６８","E_COORD97":171333.72,"N_COORD97":2545989.54,"ADDRESS":"中華路５７８巷１７號之６８","OBJECTID":401612},"geometry":{"x":171333.71999999974,"y":2545989.5400000028}},{"attributes":{"ID":401637,"DIS_CODE":0,"TOWNNAME":"永康區","LI":"王行里","LIN":"7鄰","STREET":"王行路","SECT":" ","MAREA":" ","LANE":"３９９巷","ALLEY":" ","HOUSE_NO":"２２號","E_COORD97":175354.92999999999,"N_COORD97":2548733.5600000001,"ADDRESS":"王行路３９９巷２２號","OBJECTID":401613},"geometry":{"x":175354.9299999997,"y":2548733.5600000042}},{"attributes":{"ID":401638,"DIS_CODE":0,"TOWNNAME":"永康區","LI":"五王里","LIN":"15鄰","STREET":"中華二路","SECT":" ","MAREA":" ","LANE":"２０６巷","ALLEY":" ","HOUSE_NO":"７０號","E_COORD97":171593.82999999999,"N_COORD97":2545662.3700000001,"ADDRESS":"中華二路２０６巷７０號","OBJECTID":401614},"geometry":{"x":171593.83000000101,"y":2545662.370000001}},{"attributes":{"ID":401639,"DIS_CODE":0,"TOWNNAME":"永康區","LI":"王行里","LIN":"16鄰","STREET":"王行路","SECT":" ","MAREA":" ","LANE":"６８巷","ALLEY":" ","HOUSE_NO":"３８號","E_COORD97":175970.07000000001,"N_COORD97":2548098.2200000002,"ADDRESS":"王行路６８巷３８號","OBJECTID":401615},"geometry":{"x":175970.0700000003,"y":2548098.2200000007}},{"attributes":{"ID":401640,"DIS_CODE":0,"TOWNNAME":"東區","LI":"莊敬里","LIN":"11鄰","STREET":"中華東路","SECT":"一段","MAREA":" ","LANE":"１０巷","ALLEY":" ","HOUSE_NO":"２９號","E_COORD97":171455.81,"N_COORD97":2544241.8399999999,"ADDRESS":"中華東路一段１０巷２９號","OBJECTID":401616},"geometry":{"x":171455.81000000052,"y":2544241.8399999999}},{"attributes":{"ID":401641,"DIS_CODE":0,"TOWNNAME":"東區","LI":"莊敬里","LIN":"11鄰","STREET":"中華東路","SECT":"一段","MAREA":" ","LANE":"１０巷","ALLEY":" ","HOUSE_NO":"２９之２號","E_COORD97":171444.56,"N_COORD97":2544243.1400000001,"ADDRESS":"中華東路一段１０巷２９之２號","OBJECTID":401617},"geometry":{"x":171444.55999999959,"y":2544243.1400000006}},{"attributes":{"ID":401642,"DIS_CODE":0,"TOWNNAME":"東區","LI":"莊敬里","LIN":"11鄰","STREET":"中華東路","SECT":"一段","MAREA":" ","LANE":"１０巷","ALLEY":" ","HOUSE_NO":"２９之３號","E_COORD97":171437.76999999999,"N_COORD97":2544243.5099999998,"ADDRESS":"中華東路一段１０巷２９之３號","OBJECTID":401618},"geometry":{"x":171437.77000000048,"y":2544243.5099999998}},{"attributes":{"ID":401643,"DIS_CODE":0,"TOWNNAME":"東區","LI":"莊敬里","LIN":"11鄰","STREET":"中華東路","SECT":"一段","MAREA":" ","LANE":"１０巷","ALLEY":" ","HOUSE_NO":"２９之１號","E_COORD97":171449.95000000001,"N_COORD97":2544242.6699999999,"ADDRESS":"中華東路一段１０巷２９之１號","OBJECTID":401619},"geometry":{"x":171449.95000000205,"y":2544242.6699999999}},{"attributes":{"ID":401644,"DIS_CODE":0,"TOWNNAME":"東區","LI":"莊敬里","LIN":"11鄰","STREET":"中華東路","SECT":"一段","MAREA":" ","LANE":"１０巷","ALLEY":" ","HOUSE_NO":"３１號","E_COORD97":171430.14000000001,"N_COORD97":2544244.0699999998,"ADDRESS":"中華東路一段１０巷３１號","OBJECTID":401620},"geometry":{"x":171430.1400000006,"y":2544244.0700000003}},{"attributes":{"ID":401645,"DIS_CODE":0,"TOWNNAME":"東區","LI":"莊敬里","LIN":"11鄰","STREET":"中華東路","SECT":"一段","MAREA":" ","LANE":"１０巷","ALLEY":" ","HOUSE_NO":"３１之１號","E_COORD97":171423.42999999999,"N_COORD97":2544244.6299999999,"ADDRESS":"中華東路一段１０巷３１之１號","OBJECTID":401621},"geometry":{"x":171423.4299999997,"y":2544244.629999999}},{"attributes":{"ID":401646,"DIS_CODE":0,"TOWNNAME":"東區","LI":"莊敬里","LIN":"11鄰","STREET":"中華東路","SECT":"一段","MAREA":" ","LANE":"１０巷","ALLEY":" ","HOUSE_NO":"３１之２號","E_COORD97":171416.70999999999,"N_COORD97":2544244.6000000001,"ADDRESS":"中華東路一段１０巷３１之２號","OBJECTID":401622},"geometry":{"x":171416.70999999996,"y":2544244.6000000015}},{"attributes":{"ID":401647,"DIS_CODE":0,"TOWNNAME":"東區","LI":"莊敬里","LIN":"11鄰","STREET":"中華東路","SECT":"一段","MAREA":" ","LANE":"１０巷","ALLEY":" ","HOUSE_NO":"３１之３號","E_COORD97":171410.41,"N_COORD97":2544245.8399999999,"ADDRESS":"中華東路一段１０巷３１之３號","OBJECTID":401623},"geometry":{"x":171410.41000000015,"y":2544245.8400000017}},{"attributes":{"ID":401648,"DIS_CODE":0,"TOWNNAME":"永康區","LI":"五王里","LIN":"39鄰","STREET":"中華路","SECT":" ","MAREA":" ","LANE":"５７８巷","ALLEY":" ","HOUSE_NO":"１７號之１０２","E_COORD97":171334.95000000001,"N_COORD97":2545989.54,"ADDRESS":"中華路５７８巷１７號之１０２","OBJECTID":401624},"geometry":{"x":171334.95000000112,"y":2545989.5400000028}},{"attributes":{"ID":401649,"DIS_CODE":0,"TOWNNAME":"永康區","LI":"五王里","LIN":"15鄰","STREET":"中華二路","SECT":" ","MAREA":" ","LANE":"２０６巷","ALLEY":" ","HOUSE_NO":"７８號","E_COORD97":171589.07000000001,"N_COORD97":2545681.2200000002,"ADDRESS":"中華二路２０６巷７８號","OBJECTID":401625},"geometry":{"x":171589.07000000123,"y":2545681.2199999988}},{"attributes":{"ID":401650,"DIS_CODE":0,"TOWNNAME":"永康區","LI":"五王里","LIN":"10鄰","STREET":"中山東路","SECT":" ","MAREA":" ","LANE":"２９２巷","ALLEY":" ","HOUSE_NO":"２７號","E_COORD97":171738.60000000001,"N_COORD97":2545600.8399999999,"ADDRESS":"中山東路２９２巷２７號","OBJECTID":401626},"geometry":{"x":171738.60000000056,"y":2545600.8399999999}},{"attributes":{"ID":401651,"DIS_CODE":0,"TOWNNAME":"永康區","LI":"五王里","LIN":"37鄰","STREET":"中華路","SECT":" ","MAREA":" ","LANE":"５７８巷","ALLEY":" ","HOUSE_NO":"１５號之３","E_COORD97":171274.79999999999,"N_COORD97":2545965.79,"ADDRESS":"中華路５７８巷１５號之３","OBJECTID":401627},"geometry":{"x":171274.80000000075,"y":2545965.7899999991}},{"attributes":{"ID":401652,"DIS_CODE":0,"TOWNNAME":"永康區","LI":"五王里","LIN":"37鄰","STREET":"中華路","SECT":" ","MAREA":" ","LANE":"５７８巷","ALLEY":" ","HOUSE_NO":"１５號之６","E_COORD97":171274.79999999999,"N_COORD97":2545965.79,"ADDRESS":"中華路５７８巷１５號之６","OBJECTID":401628},"geometry":{"x":171274.80000000075,"y":2545965.7899999991}},{"attributes":{"ID":401653,"DIS_CODE":0,"TOWNNAME":"永康區","LI":"五王里","LIN":"23鄰","STREET":"成功路","SECT":" ","MAREA":" ","LANE":"２４４巷","ALLEY":" ","HOUSE_NO":"８０號","E_COORD97":171452.75,"N_COORD97":2545933.02,"ADDRESS":"成功路２４４巷８０號","OBJECTID":401629},"geometry":{"x":171452.75000000186,"y":2545933.0200000014}},{"attributes":{"ID":401654,"DIS_CODE":0,"TOWNNAME":"永康區","LI":"王行里","LIN":"4鄰","STREET":"育樂街","SECT":" ","MAREA":" ","LANE":"１８２巷","ALLEY":" ","HOUSE_NO":"９號","E_COORD97":175047.85000000001,"N_COORD97":2548377.9500000002,"ADDRESS":"育樂街１８２巷９號","OBJECTID":401630},"geometry":{"x":175047.85000000056,"y":2548377.9500000011}},{"attributes":{"ID":401655,"DIS_CODE":0,"TOWNNAME":"東區","LI":"東門里","LIN":"11鄰","STREET":"東榮街","SECT":" ","MAREA":" ","LANE":"４４巷","ALLEY":" ","HOUSE_NO":"１０號","E_COORD97":169503.88,"N_COORD97":2543418,"ADDRESS":"東榮街４４巷１０號","OBJECTID":401631},"geometry":{"x":169503.87999999989,"y":2543418.0000000019}},{"attributes":{"ID":401656,"DIS_CODE":0,"TOWNNAME":"東區","LI":"東門里","LIN":"11鄰","STREET":"東榮街","SECT":" ","MAREA":" ","LANE":"４４巷","ALLEY":" ","HOUSE_NO":"１４號","E_COORD97":169516.79000000001,"N_COORD97":2543433.0499999998,"ADDRESS":"東榮街４４巷１４號","OBJECTID":401632},"geometry":{"x":169516.7900000019,"y":2543433.0500000026}},{"attributes":{"ID":401657,"DIS_CODE":0,"TOWNNAME":"東區","LI":"東門里","LIN":"11鄰","STREET":"東榮街","SECT":" ","MAREA":" ","LANE":"４４巷","ALLEY":" ","HOUSE_NO":"１６號","E_COORD97":169517.87,"N_COORD97":2543438.46,"ADDRESS":"東榮街４４巷１６號","OBJECTID":401633},"geometry":{"x":169517.87000000197,"y":2543438.4600000009}},{"attributes":{"ID":401658,"DIS_CODE":0,"TOWNNAME":"東區","LI":"東門里","LIN":"11鄰","STREET":"東榮街","SECT":" ","MAREA":" ","LANE":"４４巷","ALLEY":" ","HOUSE_NO":"１８號","E_COORD97":169498.72,"N_COORD97":2543435.6699999999,"ADDRESS":"東榮街４４巷１８號","OBJECTID":401634},"geometry":{"x":169498.72000000067,"y":2543435.6699999999}},{"attributes":{"ID":401659,"DIS_CODE":0,"TOWNNAME":"東區","LI":"東門里","LIN":"11鄰","STREET":"東榮街","SECT":" ","MAREA":" ","LANE":"４４巷","ALLEY":" ","HOUSE_NO":"２號","E_COORD97":169527.13,"N_COORD97":2543407.6699999999,"ADDRESS":"東榮街４４巷２號","OBJECTID":401635},"geometry":{"x":169527.12999999989,"y":2543407.6699999999}},{"attributes":{"ID":401660,"DIS_CODE":0,"TOWNNAME":"東區","LI":"東門里","LIN":"11鄰","STREET":"東榮街","SECT":" ","MAREA":" ","LANE":"４４巷","ALLEY":" ","HOUSE_NO":"６號","E_COORD97":169512.63,"N_COORD97":2543409.98,"ADDRESS":"東榮街４４巷６號","OBJECTID":401636},"geometry":{"x":169512.63000000175,"y":2543409.9800000004}},{"attributes":{"ID":401661,"DIS_CODE":0,"TOWNNAME":"東區","LI":"東門里","LIN":"11鄰","STREET":"東榮街","SECT":" ","MAREA":" ","LANE":"４４巷","ALLEY":" ","HOUSE_NO":"８號","E_COORD97":169506.73999999999,"N_COORD97":2543406.29,"ADDRESS":"東榮街４４巷８號","OBJECTID":401637},"geometry":{"x":169506.74000000022,"y":2543406.2899999991}},{"attributes":{"ID":401662,"DIS_CODE":0,"TOWNNAME":"東區","LI":"東門里","LIN":"11鄰","STREET":"東榮街","SECT":" ","MAREA":" ","LANE":"４４巷","ALLEY":" ","HOUSE_NO":"８號之１","E_COORD97":169499.64000000001,"N_COORD97":2543406.6699999999,"ADDRESS":"東榮街４４巷８號之１","OBJECTID":401638},"geometry":{"x":169499.63999999966,"y":2543406.6700000018}},{"attributes":{"ID":401663,"DIS_CODE":0,"TOWNNAME":"永康區","LI":"五王里","LIN":"22鄰","STREET":"成功路","SECT":" ","MAREA":" ","LANE":"２２８巷","ALLEY":" ","HOUSE_NO":"６０號","E_COORD97":171493.01000000001,"N_COORD97":2545856.2599999998,"ADDRESS":"成功路２２８巷６０號","OBJECTID":401639},"geometry":{"x":171493.00999999978,"y":2545856.2599999979}},{"attributes":{"ID":401664,"DIS_CODE":0,"TOWNNAME":"永康區","LI":"中興里","LIN":"18鄰","STREET":"中華路","SECT":" ","MAREA":" ","LANE":"２８６巷","ALLEY":" ","HOUSE_NO":"３７號","E_COORD97":171654.60000000001,"N_COORD97":2545334.7400000002,"ADDRESS":"中華路２８６巷３７號","OBJECTID":401640},"geometry":{"x":171654.59999999963,"y":2545334.7399999984}},{"attributes":{"ID":401665,"DIS_CODE":0,"TOWNNAME":"永康區","LI":"中興里","LIN":"18鄰","STREET":"中華路","SECT":" ","MAREA":" ","LANE":"２８６巷","ALLEY":" ","HOUSE_NO":"４２號","E_COORD97":171704.48999999999,"N_COORD97":2545283.5,"ADDRESS":"中華路２８６巷４２號","OBJECTID":401641},"geometry":{"x":171704.49000000115,"y":2545283.5000000019}},{"attributes":{"ID":401666,"DIS_CODE":0,"TOWNNAME":"永康區","LI":"大橋里","LIN":"17鄰","STREET":"大橋一街","SECT":" ","MAREA":" ","LANE":"１０３巷","ALLEY":" ","HOUSE_NO":"４號","E_COORD97":170985.73000000001,"N_COORD97":2546487.2400000002,"ADDRESS":"大橋一街１０３巷４號","OBJECTID":401642},"geometry":{"x":170985.73000000138,"y":2546487.2400000002}},{"attributes":{"ID":401667,"DIS_CODE":0,"TOWNNAME":"永康區","LI":"大橋里","LIN":"7鄰","STREET":"大橋三街","SECT":" ","MAREA":" ","LANE":"１９９巷","ALLEY":" ","HOUSE_NO":"１５號","E_COORD97":170836.29999999999,"N_COORD97":2546845,"ADDRESS":"大橋三街１９９巷１５號","OBJECTID":401643},"geometry":{"x":170836.29999999981,"y":2546845.0000000037}},{"attributes":{"ID":401668,"DIS_CODE":0,"TOWNNAME":"永康區","LI":"大灣里","LIN":"30鄰","STREET":"民族路","SECT":" ","MAREA":" ","LANE":"９６巷","ALLEY":" ","HOUSE_NO":"２之１號","E_COORD97":175364.17999999999,"N_COORD97":2544828.71,"ADDRESS":"民族路９６巷２之１號","OBJECTID":401644},"geometry":{"x":175364.18000000063,"y":2544828.7100000028}},{"attributes":{"ID":401669,"DIS_CODE":0,"TOWNNAME":"永康區","LI":"大灣里","LIN":"11鄰","STREET":"大灣路","SECT":" ","MAREA":" ","LANE":"２４０巷","ALLEY":" ","HOUSE_NO":"１４號","E_COORD97":174923.67999999999,"N_COORD97":2545387.9900000002,"ADDRESS":"大灣路２４０巷１４號","OBJECTID":401645},"geometry":{"x":174923.68000000063,"y":2545387.9900000021}},{"attributes":{"ID":401670,"DIS_CODE":0,"TOWNNAME":"永康區","LI":"大橋里","LIN":"10鄰","STREET":"大橋三街","SECT":" ","MAREA":" ","LANE":"２６６巷","ALLEY":" ","HOUSE_NO":"１０８號","E_COORD97":170919.54000000001,"N_COORD97":2546750.25,"ADDRESS":"大橋三街２６６巷１０８號","OBJECTID":401646},"geometry":{"x":170919.54000000004,"y":2546750.25}},{"attributes":{"ID":401671,"DIS_CODE":0,"TOWNNAME":"永康區","LI":"三合里","LIN":"21鄰","STREET":"南工街","SECT":" ","MAREA":" ","LANE":"２８９巷","ALLEY":" ","HOUSE_NO":"１號","E_COORD97":171871.67999999999,"N_COORD97":2546025,"ADDRESS":"南工街２８９巷１號","OBJECTID":401647},"geometry":{"x":171871.68000000156,"y":2546025.0000000019}},{"attributes":{"ID":401672,"DIS_CODE":0,"TOWNNAME":"永康區","LI":"大橋里","LIN":"11鄰","STREET":"大橋三街","SECT":" ","MAREA":" ","LANE":"２６６巷","ALLEY":" ","HOUSE_NO":"１０７號","E_COORD97":170938.03,"N_COORD97":2546714.4900000002,"ADDRESS":"大橋三街２６６巷１０７號","OBJECTID":401648},"geometry":{"x":170938.03000000119,"y":2546714.4900000021}},{"attributes":{"ID":401673,"DIS_CODE":0,"TOWNNAME":"永康區","LI":"大灣里","LIN":"11鄰","STREET":"大灣路","SECT":" ","MAREA":" ","LANE":"２４０巷","ALLEY":" ","HOUSE_NO":"８號","E_COORD97":174950.47,"N_COORD97":2545380.3799999999,"ADDRESS":"大灣路２４０巷８號","OBJECTID":401649},"geometry":{"x":174950.47000000067,"y":2545380.3800000027}},{"attributes":{"ID":401674,"DIS_CODE":0,"TOWNNAME":"永康區","LI":"大橋里","LIN":"5鄰","STREET":"大橋一街","SECT":" ","MAREA":" ","LANE":"１０３巷","ALLEY":" ","HOUSE_NO":"２１６號","E_COORD97":170773.54999999999,"N_COORD97":2546821,"ADDRESS":"大橋一街１０３巷２１６號","OBJECTID":401650},"geometry":{"x":170773.54999999981,"y":2546821}},{"attributes":{"ID":401675,"DIS_CODE":0,"TOWNNAME":"永康區","LI":"大灣里","LIN":"5鄰","STREET":"大同街","SECT":" ","MAREA":" ","LANE":"１５３巷","ALLEY":" ","HOUSE_NO":"１２號","E_COORD97":174800.89000000001,"N_COORD97":2545611.1499999999,"ADDRESS":"大同街１５３巷１２號","OBJECTID":401651},"geometry":{"x":174800.88999999966,"y":2545611.1500000022}},{"attributes":{"ID":401676,"DIS_CODE":0,"TOWNNAME":"永康區","LI":"中興里","LIN":"5鄰","STREET":"中華路","SECT":" ","MAREA":" ","LANE":"２１４巷","ALLEY":" ","HOUSE_NO":"８５號","E_COORD97":171895.59,"N_COORD97":2545101,"ADDRESS":"中華路２１４巷８５號","OBJECTID":401652},"geometry":{"x":171895.58999999985,"y":2545101}},{"attributes":{"ID":401677,"DIS_CODE":0,"TOWNNAME":"永康區","LI":"大橋里","LIN":"5鄰","STREET":"大橋三街","SECT":" ","MAREA":" ","LANE":"１９９巷","ALLEY":" ","HOUSE_NO":"３號","E_COORD97":170839.79999999999,"N_COORD97":2546810.8100000001,"ADDRESS":"大橋三街１９９巷３號","OBJECTID":401653},"geometry":{"x":170839.79999999981,"y":2546810.8100000024}},{"attributes":{"ID":401678,"DIS_CODE":0,"TOWNNAME":"永康區","LI":"中興里","LIN":"20鄰","STREET":"中華路","SECT":" ","MAREA":" ","LANE":"２１６巷","ALLEY":" ","HOUSE_NO":"２１號","E_COORD97":171818.10999999999,"N_COORD97":2545159.3300000001,"ADDRESS":"中華路２１６巷２１號","OBJECTID":401654},"geometry":{"x":171818.11000000034,"y":2545159.3300000019}},{"attributes":{"ID":401679,"DIS_CODE":0,"TOWNNAME":"永康區","LI":"五王里","LIN":"29鄰","STREET":"中山東路","SECT":" ","MAREA":" ","LANE":"６８巷","ALLEY":" ","HOUSE_NO":"１７號","E_COORD97":171601.69,"N_COORD97":2545959.9199999999,"ADDRESS":"中山東路６８巷１７號","OBJECTID":401655},"geometry":{"x":171601.69000000134,"y":2545959.9199999999}},{"attributes":{"ID":401680,"DIS_CODE":0,"TOWNNAME":"中西區","LI":"協進里","LIN":"11鄰","STREET":"民生路","SECT":"二段","MAREA":" ","LANE":"４００巷","ALLEY":" ","HOUSE_NO":"２１號","E_COORD97":166826.85999999999,"N_COORD97":2544374.8700000001,"ADDRESS":"民生路二段４００巷２１號","OBJECTID":401656},"geometry":{"x":166826.86000000127,"y":2544374.870000001}},{"attributes":{"ID":401681,"DIS_CODE":0,"TOWNNAME":"中西區","LI":"協進里","LIN":"11鄰","STREET":"民生路","SECT":"二段","MAREA":" ","LANE":"４００巷","ALLEY":" ","HOUSE_NO":"２２號","E_COORD97":166821.92000000001,"N_COORD97":2544375.6200000001,"ADDRESS":"民生路二段４００巷２２號","OBJECTID":401657},"geometry":{"x":166821.91999999899,"y":2544375.620000001}},{"attributes":{"ID":401682,"DIS_CODE":0,"TOWNNAME":"永康區","LI":"三民里","LIN":"11鄰","STREET":"和平路","SECT":" ","MAREA":" ","LANE":"２５８巷","ALLEY":" ","HOUSE_NO":"６１號","E_COORD97":174945.48000000001,"N_COORD97":2550885.6499999999,"ADDRESS":"和平路２５８巷６１號","OBJECTID":401658},"geometry":{"x":174945.48000000231,"y":2550885.6500000041}},{"attributes":{"ID":401683,"DIS_CODE":0,"TOWNNAME":"永康區","LI":"復國里","LIN":"5鄰","STREET":"復國一路","SECT":" ","MAREA":" ","LANE":"９０巷","ALLEY":" ","HOUSE_NO":"６６號","E_COORD97":172823.73999999999,"N_COORD97":2544927.02,"ADDRESS":"復國一路９０巷６６號","OBJECTID":401659},"geometry":{"x":172823.74000000022,"y":2544927.0200000014}},{"attributes":{"ID":401684,"DIS_CODE":0,"TOWNNAME":"永康區","LI":"勝利里","LIN":"34鄰","STREET":"勝利街","SECT":" ","MAREA":" ","LANE":"１巷","ALLEY":" ","HOUSE_NO":"２３號","E_COORD97":171050.79000000001,"N_COORD97":2544620.5,"ADDRESS":"勝利街１巷２３號","OBJECTID":401660},"geometry":{"x":171050.7900000019,"y":2544620.5}},{"attributes":{"ID":401685,"DIS_CODE":0,"TOWNNAME":"佳里區","LI":"鎮山里","LIN":"11鄰","STREET":"中興街","SECT":" ","MAREA":" ","LANE":"２４９巷","ALLEY":" ","HOUSE_NO":"１０號","E_COORD97":166131.03,"N_COORD97":2561616.8100000001,"ADDRESS":"中興街２４９巷１０號","OBJECTID":401661},"geometry":{"x":166131.03000000026,"y":2561616.8100000024}},{"attributes":{"ID":401686,"DIS_CODE":0,"TOWNNAME":"佳里區","LI":"鎮山里","LIN":"11鄰","STREET":"中興街","SECT":" ","MAREA":" ","LANE":"２４９巷","ALLEY":" ","HOUSE_NO":"１１號","E_COORD97":166125.79999999999,"N_COORD97":2561600.1499999999,"ADDRESS":"中興街２４９巷１１號","OBJECTID":401662},"geometry":{"x":166125.79999999981,"y":2561600.1500000022}},{"attributes":{"ID":401687,"DIS_CODE":0,"TOWNNAME":"中西區","LI":"大涼里","LIN":"13鄰","STREET":"府前一街","SECT":" ","MAREA":" ","LANE":" ","ALLEY":" ","HOUSE_NO":"１０號","E_COORD97":166830.89000000001,"N_COORD97":2543700.5499999998,"ADDRESS":"府前一街１０號","OBJECTID":401663},"geometry":{"x":166830.8900000006,"y":2543700.5500000026}},{"attributes":{"ID":401688,"DIS_CODE":0,"TOWNNAME":"佳里區","LI":"鎮山里","LIN":"11鄰","STREET":"中興街","SECT":" ","MAREA":" ","LANE":"２４９巷","ALLEY":" ","HOUSE_NO":"１２號","E_COORD97":166126.62,"N_COORD97":2561615.9300000002,"ADDRESS":"中興街２４９巷１２號","OBJECTID":401664},"geometry":{"x":166126.62000000104,"y":2561615.9299999997}},{"attributes":{"ID":401689,"DIS_CODE":0,"TOWNNAME":"佳里區","LI":"鎮山里","LIN":"11鄰","STREET":"中興街","SECT":" ","MAREA":" ","LANE":"２４９巷","ALLEY":" ","HOUSE_NO":"１３號","E_COORD97":166121.69,"N_COORD97":2561599.6099999999,"ADDRESS":"中興街２４９巷１３號","OBJECTID":401665},"geometry":{"x":166121.69000000041,"y":2561599.6100000013}},{"attributes":{"ID":401690,"DIS_CODE":0,"TOWNNAME":"佳里區","LI":"鎮山里","LIN":"11鄰","STREET":"中興街","SECT":" ","MAREA":" ","LANE":"２４９巷","ALLEY":" ","HOUSE_NO":"１６號","E_COORD97":166122.22,"N_COORD97":2561615.04,"ADDRESS":"中興街２４９巷１６號","OBJECTID":401666},"geometry":{"x":166122.21999999974,"y":2561615.0399999991}},{"attributes":{"ID":401691,"DIS_CODE":0,"TOWNNAME":"佳里區","LI":"鎮山里","LIN":"11鄰","STREET":"中興街","SECT":" ","MAREA":" ","LANE":"２４９巷","ALLEY":" ","HOUSE_NO":"１號","E_COORD97":166146.35999999999,"N_COORD97":2561602.8500000001,"ADDRESS":"中興街２４９巷１號","OBJECTID":401667},"geometry":{"x":166146.3599999994,"y":2561602.8499999996}},{"attributes":{"ID":401692,"DIS_CODE":0,"TOWNNAME":"佳里區","LI":"鎮山里","LIN":"11鄰","STREET":"中興街","SECT":" ","MAREA":" ","LANE":"２４９巷","ALLEY":" ","HOUSE_NO":"２號","E_COORD97":166144.13,"N_COORD97":2561618.3500000001,"ADDRESS":"中興街２４９巷２號","OBJECTID":401668},"geometry":{"x":166144.13000000175,"y":2561618.3500000015}},{"attributes":{"ID":401693,"DIS_CODE":0,"TOWNNAME":"佳里區","LI":"鎮山里","LIN":"11鄰","STREET":"中興街","SECT":" ","MAREA":" ","LANE":"２４９巷","ALLEY":" ","HOUSE_NO":"３號","E_COORD97":166142.25,"N_COORD97":2561602.3100000001,"ADDRESS":"中興街２４９巷３號","OBJECTID":401669},"geometry":{"x":166142.25000000093,"y":2561602.3100000024}},{"attributes":{"ID":401694,"DIS_CODE":0,"TOWNNAME":"佳里區","LI":"鎮山里","LIN":"11鄰","STREET":"中興街","SECT":" ","MAREA":" ","LANE":"２４９巷","ALLEY":" ","HOUSE_NO":"５號","E_COORD97":166138.14000000001,"N_COORD97":2561601.77,"ADDRESS":"中興街２４９巷５號","OBJECTID":401670},"geometry":{"x":166138.13999999966,"y":2561601.7700000014}},{"attributes":{"ID":401695,"DIS_CODE":0,"TOWNNAME":"佳里區","LI":"鎮山里","LIN":"11鄰","STREET":"中興街","SECT":" ","MAREA":" ","LANE":"２４９巷","ALLEY":" ","HOUSE_NO":"６號","E_COORD97":166139.73000000001,"N_COORD97":2561617.4700000002,"ADDRESS":"中興街２４９巷６號","OBJECTID":401671},"geometry":{"x":166139.73000000138,"y":2561617.4700000007}},{"attributes":{"ID":401696,"DIS_CODE":0,"TOWNNAME":"佳里區","LI":"鎮山里","LIN":"11鄰","STREET":"中興街","SECT":" ","MAREA":" ","LANE":"２４９巷","ALLEY":" ","HOUSE_NO":"７號","E_COORD97":166134.01999999999,"N_COORD97":2561601.23,"ADDRESS":"中興街２４９巷７號","OBJECTID":401672},"geometry":{"x":166134.01999999955,"y":2561601.2300000004}},{"attributes":{"ID":401697,"DIS_CODE":0,"TOWNNAME":"佳里區","LI":"鎮山里","LIN":"11鄰","STREET":"中興街","SECT":" ","MAREA":" ","LANE":"２４９巷","ALLEY":" ","HOUSE_NO":"８號","E_COORD97":166135.32000000001,"N_COORD97":2561616.5800000001,"ADDRESS":"中興街２４９巷８號","OBJECTID":401673},"geometry":{"x":166135.32000000123,"y":2561616.5800000038}},{"attributes":{"ID":401698,"DIS_CODE":0,"TOWNNAME":"佳里區","LI":"鎮山里","LIN":"11鄰","STREET":"中興街","SECT":" ","MAREA":" ","LANE":"２４９巷","ALLEY":" ","HOUSE_NO":"９號","E_COORD97":166129.91,"N_COORD97":2561600.6899999999,"ADDRESS":"中興街２４９巷９號","OBJECTID":401674},"geometry":{"x":166129.91000000015,"y":2561600.6899999995}},{"attributes":{"ID":401699,"DIS_CODE":0,"TOWNNAME":"佳里區","LI":"鎮山里","LIN":"11鄰","STREET":"中興街","SECT":" ","MAREA":" ","LANE":"３４２巷","ALLEY":" ","HOUSE_NO":"１０號","E_COORD97":166203.29000000001,"N_COORD97":2561612.21,"ADDRESS":"中興街３４２巷１０號","OBJECTID":401675},"geometry":{"x":166203.29000000097,"y":2561612.2100000009}},{"attributes":{"ID":401700,"DIS_CODE":0,"TOWNNAME":"佳里區","LI":"鎮山里","LIN":"11鄰","STREET":"中興街","SECT":" ","MAREA":" ","LANE":"３４２巷","ALLEY":" ","HOUSE_NO":"１１號","E_COORD97":166209.45000000001,"N_COORD97":2561627.52,"ADDRESS":"中興街３４２巷１１號","OBJECTID":401676},"geometry":{"x":166209.45000000019,"y":2561627.5200000014}},{"attributes":{"ID":401701,"DIS_CODE":0,"TOWNNAME":"佳里區","LI":"鎮山里","LIN":"11鄰","STREET":"中興街","SECT":" ","MAREA":" ","LANE":"３４２巷","ALLEY":" ","HOUSE_NO":"１２號","E_COORD97":166207.38,"N_COORD97":2561612.71,"ADDRESS":"中興街３４２巷１２號","OBJECTID":401677},"geometry":{"x":166207.38000000082,"y":2561612.7100000009}},{"attributes":{"ID":401702,"DIS_CODE":0,"TOWNNAME":"佳里區","LI":"鎮山里","LIN":"11鄰","STREET":"中興街","SECT":" ","MAREA":" ","LANE":"３４２巷","ALLEY":" ","HOUSE_NO":"１３號","E_COORD97":166213.26999999999,"N_COORD97":2561628.29,"ADDRESS":"中興街３４２巷１３號","OBJECTID":401678},"geometry":{"x":166213.26999999955,"y":2561628.290000001}},{"attributes":{"ID":401703,"DIS_CODE":0,"TOWNNAME":"佳里區","LI":"鎮山里","LIN":"11鄰","STREET":"中興街","SECT":" ","MAREA":" ","LANE":"３４２巷","ALLEY":" ","HOUSE_NO":"１８號","E_COORD97":166215.54999999999,"N_COORD97":2561614.3900000001,"ADDRESS":"中興街３４２巷１８號","OBJECTID":401679},"geometry":{"x":166215.54999999981,"y":2561614.3900000006}},{"attributes":{"ID":401704,"DIS_CODE":0,"TOWNNAME":"永康區","LI":"勝利里","LIN":"34鄰","STREET":"勝利街","SECT":" ","MAREA":" ","LANE":"１巷","ALLEY":" ","HOUSE_NO":"１９號","E_COORD97":171063.92000000001,"N_COORD97":2544610,"ADDRESS":"勝利街１巷１９號","OBJECTID":401680},"geometry":{"x":171063.92000000086,"y":2544610}},{"attributes":{"ID":401705,"DIS_CODE":0,"TOWNNAME":"永康區","LI":"復國里","LIN":"8鄰","STREET":"復國二路","SECT":" ","MAREA":" ","LANE":"６３巷","ALLEY":" ","HOUSE_NO":"２０號","E_COORD97":172763.13,"N_COORD97":2545146.27,"ADDRESS":"復國二路６３巷２０號","OBJECTID":401681},"geometry":{"x":172763.12999999989,"y":2545146.2699999996}},{"attributes":{"ID":401706,"DIS_CODE":0,"TOWNNAME":"永康區","LI":"勝利里","LIN":"33鄰","STREET":"小東路","SECT":" ","MAREA":" ","LANE":"４４９巷","ALLEY":" ","HOUSE_NO":"１７號","E_COORD97":171446.23000000001,"N_COORD97":2544455.25,"ADDRESS":"小東路４４９巷１７號","OBJECTID":401682},"geometry":{"x":171446.23000000045,"y":2544455.25}},{"attributes":{"ID":401707,"DIS_CODE":0,"TOWNNAME":"下營區","LI":"新興里","LIN":"11鄰","STREET":"大同街","SECT":" ","MAREA":" ","LANE":"２２巷","ALLEY":" ","HOUSE_NO":"２號","E_COORD97":174632.04999999999,"N_COORD97":2570708.6899999999,"ADDRESS":"大同街２２巷２號","OBJECTID":401683},"geometry":{"x":174632.04999999981,"y":2570708.6900000013}},{"attributes":{"ID":401708,"DIS_CODE":0,"TOWNNAME":"永康區","LI":"復華里","LIN":"23鄰","STREET":"國華街","SECT":" ","MAREA":" ","LANE":"１３４巷","ALLEY":" ","HOUSE_NO":"２９號","E_COORD97":172744.69,"N_COORD97":2546206.5,"ADDRESS":"國華街１３４巷２９號","OBJECTID":401684},"geometry":{"x":172744.69000000041,"y":2546206.5}},{"attributes":{"ID":401709,"DIS_CODE":0,"TOWNNAME":"佳里區","LI":"鎮山里","LIN":"11鄰","STREET":"中興街","SECT":" ","MAREA":" ","LANE":"３４２巷","ALLEY":" ","HOUSE_NO":"１號","E_COORD97":166188.41,"N_COORD97":2561626.6699999999,"ADDRESS":"中興街３４２巷１號","OBJECTID":401685},"geometry":{"x":166188.41000000201,"y":2561626.6700000018}},{"attributes":{"ID":401710,"DIS_CODE":0,"TOWNNAME":"佳里區","LI":"鎮山里","LIN":"11鄰","STREET":"中興街","SECT":" ","MAREA":" ","LANE":"３４２巷","ALLEY":" ","HOUSE_NO":"２０號","E_COORD97":166219.39000000001,"N_COORD97":2561615.0699999998,"ADDRESS":"中興街３４２巷２０號","OBJECTID":401686},"geometry":{"x":166219.38999999966,"y":2561615.0700000003}},{"attributes":{"ID":401711,"DIS_CODE":0,"TOWNNAME":"佳里區","LI":"鎮山里","LIN":"11鄰","STREET":"中興街","SECT":" ","MAREA":" ","LANE":"３４２巷","ALLEY":" ","HOUSE_NO":"２號","E_COORD97":166191.78,"N_COORD97":2561610.27,"ADDRESS":"中興街３４２巷２號","OBJECTID":401687},"geometry":{"x":166191.78000000119,"y":2561610.2699999996}},{"attributes":{"ID":401712,"DIS_CODE":0,"TOWNNAME":"佳里區","LI":"鎮山里","LIN":"11鄰","STREET":"中興街","SECT":" ","MAREA":" ","LANE":"３４２巷","ALLEY":" ","HOUSE_NO":"３號","E_COORD97":166192.81,"N_COORD97":2561627.5299999998,"ADDRESS":"中興街３４２巷３號","OBJECTID":401688},"geometry":{"x":166192.80999999959,"y":2561627.5300000012}},{"attributes":{"ID":401713,"DIS_CODE":0,"TOWNNAME":"佳里區","LI":"鎮山里","LIN":"11鄰","STREET":"中興街","SECT":" ","MAREA":" ","LANE":"３４２巷","ALLEY":" ","HOUSE_NO":"５號","E_COORD97":166196.70999999999,"N_COORD97":2561628.27,"ADDRESS":"中興街３４２巷５號","OBJECTID":401689},"geometry":{"x":166196.71000000089,"y":2561628.2700000033}},{"attributes":{"ID":401714,"DIS_CODE":0,"TOWNNAME":"佳里區","LI":"鎮山里","LIN":"11鄰","STREET":"中興街","SECT":" ","MAREA":" ","LANE":"３４２巷","ALLEY":" ","HOUSE_NO":"６號","E_COORD97":166195.51999999999,"N_COORD97":2561610.8999999999,"ADDRESS":"中興街３４２巷６號","OBJECTID":401690},"geometry":{"x":166195.52000000142,"y":2561610.9000000004}},{"attributes":{"ID":401715,"DIS_CODE":0,"TOWNNAME":"佳里區","LI":"鎮山里","LIN":"11鄰","STREET":"中興街","SECT":" ","MAREA":" ","LANE":"３４２巷","ALLEY":" ","HOUSE_NO":"７號","E_COORD97":166201.10000000001,"N_COORD97":2561626.9399999999,"ADDRESS":"中興街３４２巷７號","OBJECTID":401691},"geometry":{"x":166201.09999999963,"y":2561626.9400000032}},{"attributes":{"ID":401716,"DIS_CODE":0,"TOWNNAME":"佳里區","LI":"鎮山里","LIN":"11鄰","STREET":"中興街","SECT":" ","MAREA":" ","LANE":"３４２巷","ALLEY":" ","HOUSE_NO":"８號","E_COORD97":166199.73000000001,"N_COORD97":2561611.0499999998,"ADDRESS":"中興街３４２巷８號","OBJECTID":401692},"geometry":{"x":166199.73000000045,"y":2561611.0500000026}},{"attributes":{"ID":401717,"DIS_CODE":0,"TOWNNAME":"佳里區","LI":"鎮山里","LIN":"11鄰","STREET":"中興街","SECT":" ","MAREA":" ","LANE":"３４２巷","ALLEY":" ","HOUSE_NO":"９號","E_COORD97":166205.20000000001,"N_COORD97":2561627.0499999998,"ADDRESS":"中興街３４２巷９號","OBJECTID":401693},"geometry":{"x":166205.20000000112,"y":2561627.0500000007}},{"attributes":{"ID":401718,"DIS_CODE":0,"TOWNNAME":"新化區","LI":"太平里","LIN":"11鄰","STREET":"中正路","SECT":" ","MAREA":" ","LANE":"６９１巷","ALLEY":" ","HOUSE_NO":"２２號之５","E_COORD97":178757.42000000001,"N_COORD97":2549022.2599999998,"ADDRESS":"中正路６９１巷２２號之５","OBJECTID":401694},"geometry":{"x":178757.41999999993,"y":2549022.2599999998}},{"attributes":{"ID":401719,"DIS_CODE":0,"TOWNNAME":"新化區","LI":"太平里","LIN":"11鄰","STREET":"中正路","SECT":" ","MAREA":" ","LANE":"７０７巷","ALLEY":" ","HOUSE_NO":"２３號","E_COORD97":178699.16,"N_COORD97":2549144.25,"ADDRESS":"中正路７０７巷２３號","OBJECTID":401695},"geometry":{"x":178699.16000000108,"y":2549144.25}},{"attributes":{"ID":401720,"DIS_CODE":0,"TOWNNAME":"新化區","LI":"護國里","LIN":"11鄰","STREET":"中山路","SECT":" ","MAREA":" ","LANE":"１１１巷","ALLEY":" ","HOUSE_NO":"５３號","E_COORD97":180176.76000000001,"N_COORD97":2549192.25,"ADDRESS":"中山路１１１巷５３號","OBJECTID":401696},"geometry":{"x":180176.76000000071,"y":2549192.25}},{"attributes":{"ID":401721,"DIS_CODE":0,"TOWNNAME":"新化區","LI":"護國里","LIN":"11鄰","STREET":"中山路","SECT":" ","MAREA":" ","LANE":"３巷","ALLEY":" ","HOUSE_NO":"１０１號","E_COORD97":181258.60999999999,"N_COORD97":2549301.25,"ADDRESS":"中山路３巷１０１號","OBJECTID":401697},"geometry":{"x":181258.61000000034,"y":2549301.2500000037}},{"attributes":{"ID":401722,"DIS_CODE":0,"TOWNNAME":"新化區","LI":"太平里","LIN":"11鄰","STREET":"中正路","SECT":" ","MAREA":" ","LANE":"７０７巷","ALLEY":" ","HOUSE_NO":"１３號","E_COORD97":178715.76000000001,"N_COORD97":2549153.25,"ADDRESS":"中正路７０７巷１３號","OBJECTID":401698},"geometry":{"x":178715.75999999978,"y":2549153.2500000019}},{"attributes":{"ID":401723,"DIS_CODE":0,"TOWNNAME":"新化區","LI":"太平里","LIN":"11鄰","STREET":"中正路","SECT":" ","MAREA":" ","LANE":"６９１巷","ALLEY":" ","HOUSE_NO":"４８號","E_COORD97":178702.56,"N_COORD97":2548947.25,"ADDRESS":"中正路６９１巷４８號","OBJECTID":401699},"geometry":{"x":178702.56000000052,"y":2548947.25}},{"attributes":{"ID":401724,"DIS_CODE":0,"TOWNNAME":"新化區","LI":"護國里","LIN":"11鄰","STREET":"中山路","SECT":" ","MAREA":" ","LANE":"３９巷","ALLEY":" ","HOUSE_NO":"４５號","E_COORD97":180197.01000000001,"N_COORD97":2549638.25,"ADDRESS":"中山路３９巷４５號","OBJECTID":401700},"geometry":{"x":180197.01000000071,"y":2549638.2500000019}},{"attributes":{"ID":401725,"DIS_CODE":0,"TOWNNAME":"新化區","LI":"護國里","LIN":"11鄰","STREET":"中山路","SECT":" ","MAREA":" ","LANE":"１１１巷","ALLEY":" ","HOUSE_NO":"７１號","E_COORD97":180379.26000000001,"N_COORD97":2549181.25,"ADDRESS":"中山路１１１巷７１號","OBJECTID":401701},"geometry":{"x":180379.25999999885,"y":2549181.25}},{"attributes":{"ID":401726,"DIS_CODE":0,"TOWNNAME":"新化區","LI":"太平里","LIN":"11鄰","STREET":"中正路","SECT":" ","MAREA":" ","LANE":"６９１巷","ALLEY":" ","HOUSE_NO":"１８號","E_COORD97":178729.56,"N_COORD97":2549032.25,"ADDRESS":"中正路６９１巷１８號","OBJECTID":401702},"geometry":{"x":178729.56000000052,"y":2549032.25}},{"attributes":{"ID":401727,"DIS_CODE":0,"TOWNNAME":"新化區","LI":"護國里","LIN":"11鄰","STREET":"中山路","SECT":" ","MAREA":" ","LANE":"１１１巷","ALLEY":" ","HOUSE_NO":"５７號","E_COORD97":180242.06,"N_COORD97":2549171.25,"ADDRESS":"中山路１１１巷５７號","OBJECTID":401703},"geometry":{"x":180242.06000000052,"y":2549171.25}},{"attributes":{"ID":401728,"DIS_CODE":0,"TOWNNAME":"新化區","LI":"太平里","LIN":"11鄰","STREET":"中正路","SECT":" ","MAREA":" ","LANE":"６９１巷","ALLEY":" ","HOUSE_NO":"８號","E_COORD97":178789.20999999999,"N_COORD97":2549105.25,"ADDRESS":"中正路６９１巷８號","OBJECTID":401704},"geometry":{"x":178789.20999999996,"y":2549105.2500000019}},{"attributes":{"ID":401729,"DIS_CODE":0,"TOWNNAME":"新化區","LI":"太平里","LIN":"11鄰","STREET":"中正路","SECT":" ","MAREA":" ","LANE":"６９１巷","ALLEY":" ","HOUSE_NO":"３６號之３","E_COORD97":178717.41,"N_COORD97":2548971.2599999998,"ADDRESS":"中正路６９１巷３６號之３","OBJECTID":401705},"geometry":{"x":178717.41000000201,"y":2548971.2599999998}},{"attributes":{"ID":401730,"DIS_CODE":0,"TOWNNAME":"新化區","LI":"護國里","LIN":"11鄰","STREET":"中山路","SECT":" ","MAREA":" ","LANE":"１９巷","ALLEY":" ","HOUSE_NO":"１７號之２","E_COORD97":180375.35999999999,"N_COORD97":2549682.2599999998,"ADDRESS":"中山路１９巷１７號之２","OBJECTID":401706},"geometry":{"x":180375.36000000034,"y":2549682.2600000016}},{"attributes":{"ID":401731,"DIS_CODE":0,"TOWNNAME":"安南區","LI":"南興里","LIN":"11鄰","STREET":"公學路","SECT":"五段","MAREA":" ","LANE":"６９７巷","ALLEY":" ","HOUSE_NO":"４７號","E_COORD97":163872.17000000001,"N_COORD97":2552730.7599999998,"ADDRESS":"公學路五段６９７巷４７號","OBJECTID":401707},"geometry":{"x":163872.16999999993,"y":2552730.7599999998}},{"attributes":{"ID":401732,"DIS_CODE":0,"TOWNNAME":"安南區","LI":"南興里","LIN":"11鄰","STREET":"公學路","SECT":"五段","MAREA":" ","LANE":"６９７巷","ALLEY":" ","HOUSE_NO":"４９號","E_COORD97":163872.73999999999,"N_COORD97":2552722.7400000002,"ADDRESS":"公學路五段６９７巷４９號","OBJECTID":401708},"geometry":{"x":163872.74000000115,"y":2552722.7400000039}},{"attributes":{"ID":401733,"DIS_CODE":0,"TOWNNAME":"永康區","LI":"正強里","LIN":"11鄰","STREET":"正強街","SECT":" ","MAREA":" ","LANE":"１４６巷","ALLEY":" ","HOUSE_NO":"２號","E_COORD97":173358.89000000001,"N_COORD97":2547456.8100000001,"ADDRESS":"正強街１４６巷２號","OBJECTID":401709},"geometry":{"x":173358.8900000006,"y":2547456.8100000005}},{"attributes":{"ID":401734,"DIS_CODE":0,"TOWNNAME":"永康區","LI":"尚頂里","LIN":"11鄰","STREET":"正南一街","SECT":" ","MAREA":" ","LANE":"５７巷","ALLEY":" ","HOUSE_NO":"１３號","E_COORD97":171198.22,"N_COORD97":2547256.6899999999,"ADDRESS":"正南一街５７巷１３號","OBJECTID":401710},"geometry":{"x":171198.21999999974,"y":2547256.6899999976}},{"attributes":{"ID":401735,"DIS_CODE":0,"TOWNNAME":"東區","LI":"小東里","LIN":"11鄰","STREET":"東安路","SECT":" ","MAREA":" ","LANE":"２５１巷","ALLEY":" ","HOUSE_NO":"１００號","E_COORD97":170643.72,"N_COORD97":2544170.6899999999,"ADDRESS":"東安路２５１巷１００號","OBJECTID":401711},"geometry":{"x":170643.71999999974,"y":2544170.6899999995}},{"attributes":{"ID":401736,"DIS_CODE":0,"TOWNNAME":"東區","LI":"小東里","LIN":"11鄰","STREET":"東安路","SECT":" ","MAREA":" ","LANE":"２５１巷","ALLEY":" ","HOUSE_NO":"１０２號","E_COORD97":170646.39999999999,"N_COORD97":2544191.3300000001,"ADDRESS":"東安路２５１巷１０２號","OBJECTID":401712},"geometry":{"x":170646.40000000037,"y":2544191.3300000001}},{"attributes":{"ID":401737,"DIS_CODE":0,"TOWNNAME":"東區","LI":"小東里","LIN":"11鄰","STREET":"東安路","SECT":" ","MAREA":" ","LANE":"２５１巷","ALLEY":" ","HOUSE_NO":"１０４號","E_COORD97":170659.29999999999,"N_COORD97":2544192.3999999999,"ADDRESS":"東安路２５１巷１０４號","OBJECTID":401713},"geometry":{"x":170659.30000000075,"y":2544192.4000000022}},{"attributes":{"ID":401738,"DIS_CODE":0,"TOWNNAME":"東區","LI":"小東里","LIN":"11鄰","STREET":"東安路","SECT":" ","MAREA":" ","LANE":"２５１巷","ALLEY":" ","HOUSE_NO":"１０６號","E_COORD97":170664.13,"N_COORD97":2544191.6899999999,"ADDRESS":"東安路２５１巷１０６號","OBJECTID":401714},"geometry":{"x":170664.13000000082,"y":2544191.6899999976}},{"attributes":{"ID":401739,"DIS_CODE":0,"TOWNNAME":"東區","LI":"小東里","LIN":"11鄰","STREET":"東安路","SECT":" ","MAREA":" ","LANE":"２５１巷","ALLEY":" ","HOUSE_NO":"１０８號","E_COORD97":170668.51999999999,"N_COORD97":2544191.4199999999,"ADDRESS":"東安路２５１巷１０８號","OBJECTID":401715},"geometry":{"x":170668.51999999955,"y":2544191.4200000018}},{"attributes":{"ID":401740,"DIS_CODE":0,"TOWNNAME":"東區","LI":"小東里","LIN":"11鄰","STREET":"東安路","SECT":" ","MAREA":" ","LANE":"２５１巷","ALLEY":" ","HOUSE_NO":"１１０號","E_COORD97":170672.91,"N_COORD97":2544191.5099999998,"ADDRESS":"東安路２５１巷１１０號","OBJECTID":401716},"geometry":{"x":170672.91000000108,"y":2544191.5100000016}},{"attributes":{"ID":401741,"DIS_CODE":0,"TOWNNAME":"東區","LI":"小東里","LIN":"11鄰","STREET":"東安路","SECT":" ","MAREA":" ","LANE":"２５１巷","ALLEY":" ","HOUSE_NO":"１１２號","E_COORD97":170677.20999999999,"N_COORD97":2544191.0600000001,"ADDRESS":"東安路２５１巷１１２號","OBJECTID":401717},"geometry":{"x":170677.21000000089,"y":2544191.0600000024}},{"attributes":{"ID":401742,"DIS_CODE":0,"TOWNNAME":"東區","LI":"小東里","LIN":"11鄰","STREET":"東安路","SECT":" ","MAREA":" ","LANE":"２５１巷","ALLEY":" ","HOUSE_NO":"１１６之１號","E_COORD97":170681.59,"N_COORD97":2544191.8599999999,"ADDRESS":"東安路２５１巷１１６之１號","OBJECTID":401718},"geometry":{"x":170681.58999999985,"y":2544191.8600000013}},{"attributes":{"ID":401743,"DIS_CODE":0,"TOWNNAME":"東區","LI":"小東里","LIN":"11鄰","STREET":"東安路","SECT":" ","MAREA":" ","LANE":"２５１巷","ALLEY":" ","HOUSE_NO":"１１６號","E_COORD97":170685.98000000001,"N_COORD97":2544190.9700000002,"ADDRESS":"東安路２５１巷１１６號","OBJECTID":401719},"geometry":{"x":170685.98000000138,"y":2544190.9700000007}},{"attributes":{"ID":401744,"DIS_CODE":0,"TOWNNAME":"東區","LI":"小東里","LIN":"11鄰","STREET":"東安路","SECT":" ","MAREA":" ","LANE":"２５１巷","ALLEY":" ","HOUSE_NO":"１１８號","E_COORD97":170690.73000000001,"N_COORD97":2544191.7799999998,"ADDRESS":"東安路２５１巷１１８號","OBJECTID":401720},"geometry":{"x":170690.73000000138,"y":2544191.7800000012}},{"attributes":{"ID":401745,"DIS_CODE":0,"TOWNNAME":"東區","LI":"小東里","LIN":"11鄰","STREET":"東安路","SECT":" ","MAREA":" ","LANE":"２５１巷","ALLEY":" ","HOUSE_NO":"１２６號","E_COORD97":170676.66,"N_COORD97":2544210.8500000001,"ADDRESS":"東安路２５１巷１２６號","OBJECTID":401721},"geometry":{"x":170676.66000000015,"y":2544210.8499999996}},{"attributes":{"ID":401746,"DIS_CODE":0,"TOWNNAME":"東區","LI":"小東里","LIN":"11鄰","STREET":"東安路","SECT":" ","MAREA":" ","LANE":"２５１巷","ALLEY":" ","HOUSE_NO":"１２號","E_COORD97":170733.31,"N_COORD97":2544121.79,"ADDRESS":"東安路２５１巷１２號","OBJECTID":401722},"geometry":{"x":170733.31000000145,"y":2544121.7899999991}},{"attributes":{"ID":401747,"DIS_CODE":0,"TOWNNAME":"東區","LI":"小東里","LIN":"11鄰","STREET":"東安路","SECT":" ","MAREA":" ","LANE":"２５１巷","ALLEY":" ","HOUSE_NO":"１３６號","E_COORD97":170660.51000000001,"N_COORD97":2544212.8399999999,"ADDRESS":"東安路２５１巷１３６號","OBJECTID":401723},"geometry":{"x":170660.50999999978,"y":2544212.8400000017}},{"attributes":{"ID":401748,"DIS_CODE":0,"TOWNNAME":"東區","LI":"小東里","LIN":"11鄰","STREET":"東安路","SECT":" ","MAREA":" ","LANE":"２５１巷","ALLEY":" ","HOUSE_NO":"１３８號","E_COORD97":170653.14000000001,"N_COORD97":2544212.77,"ADDRESS":"東安路２５１巷１３８號","OBJECTID":401724},"geometry":{"x":170653.14000000153,"y":2544212.7700000014}},{"attributes":{"ID":401749,"DIS_CODE":0,"TOWNNAME":"東區","LI":"小東里","LIN":"11鄰","STREET":"東安路","SECT":" ","MAREA":" ","LANE":"２５１巷","ALLEY":" ","HOUSE_NO":"１４０號","E_COORD97":170642.89000000001,"N_COORD97":2544208.71,"ADDRESS":"東安路２５１巷１４０號","OBJECTID":401725},"geometry":{"x":170642.89000000153,"y":2544208.7100000009}},{"attributes":{"ID":401750,"DIS_CODE":0,"TOWNNAME":"東區","LI":"小東里","LIN":"11鄰","STREET":"東安路","SECT":" ","MAREA":" ","LANE":"２５１巷","ALLEY":" ","HOUSE_NO":"１４６號","E_COORD97":170642.81,"N_COORD97":2544220.6499999999,"ADDRESS":"東安路２５１巷１４６號","OBJECTID":401726},"geometry":{"x":170642.80999999959,"y":2544220.6500000022}},{"attributes":{"ID":401751,"DIS_CODE":0,"TOWNNAME":"東區","LI":"小東里","LIN":"11鄰","STREET":"東安路","SECT":" ","MAREA":" ","LANE":"２５１巷","ALLEY":" ","HOUSE_NO":"１４８號","E_COORD97":170641.63,"N_COORD97":2544226.46,"ADDRESS":"東安路２５１巷１４８號","OBJECTID":401727},"geometry":{"x":170641.63000000175,"y":2544226.4600000028}},{"attributes":{"ID":401752,"DIS_CODE":0,"TOWNNAME":"東區","LI":"小東里","LIN":"11鄰","STREET":"東安路","SECT":" ","MAREA":" ","LANE":"２５１巷","ALLEY":" ","HOUSE_NO":"１４號","E_COORD97":170728.38,"N_COORD97":2544121.2999999998,"ADDRESS":"東安路２５１巷１４號","OBJECTID":401728},"geometry":{"x":170728.38000000082,"y":2544121.3000000045}},{"attributes":{"ID":401753,"DIS_CODE":0,"TOWNNAME":"東區","LI":"小東里","LIN":"11鄰","STREET":"東安路","SECT":" ","MAREA":" ","LANE":"２５１巷","ALLEY":" ","HOUSE_NO":"１６號","E_COORD97":170720.10000000001,"N_COORD97":2544123.3700000001,"ADDRESS":"東安路２５１巷１６號","OBJECTID":401729},"geometry":{"x":170720.10000000056,"y":2544123.370000001}},{"attributes":{"ID":401754,"DIS_CODE":0,"TOWNNAME":"東區","LI":"小東里","LIN":"11鄰","STREET":"東安路","SECT":" ","MAREA":" ","LANE":"２５１巷","ALLEY":" ","HOUSE_NO":"１８號","E_COORD97":170715.26999999999,"N_COORD97":2544122.9700000002,"ADDRESS":"東安路２５１巷１８號","OBJECTID":401730},"geometry":{"x":170715.27000000048,"y":2544122.9700000007}},{"attributes":{"ID":401755,"DIS_CODE":0,"TOWNNAME":"東區","LI":"小東里","LIN":"11鄰","STREET":"東安路","SECT":" ","MAREA":" ","LANE":"２５１巷","ALLEY":" ","HOUSE_NO":"２８號","E_COORD97":170684.73999999999,"N_COORD97":2544124.3100000001,"ADDRESS":"東安路２５１巷２８號","OBJECTID":401731},"geometry":{"x":170684.74000000022,"y":2544124.3100000042}},{"attributes":{"ID":401756,"DIS_CODE":0,"TOWNNAME":"東區","LI":"小東里","LIN":"11鄰","STREET":"東安路","SECT":" ","MAREA":" ","LANE":"２５１巷","ALLEY":" ","HOUSE_NO":"３０號","E_COORD97":170680.70999999999,"N_COORD97":2544124.3100000001,"ADDRESS":"東安路２５１巷３０號","OBJECTID":401732},"geometry":{"x":170680.71000000089,"y":2544124.3100000042}},{"attributes":{"ID":401757,"DIS_CODE":0,"TOWNNAME":"東區","LI":"小東里","LIN":"11鄰","STREET":"東安路","SECT":" ","MAREA":" ","LANE":"２５１巷","ALLEY":" ","HOUSE_NO":"３２號","E_COORD97":170677.03,"N_COORD97":2544124.3999999999,"ADDRESS":"東安路２５１巷３２號","OBJECTID":401733},"geometry":{"x":170677.03000000119,"y":2544124.4000000022}},{"attributes":{"ID":401758,"DIS_CODE":0,"TOWNNAME":"東區","LI":"小東里","LIN":"11鄰","STREET":"東安路","SECT":" ","MAREA":" ","LANE":"２５１巷","ALLEY":" ","HOUSE_NO":"４０號","E_COORD97":170653.03,"N_COORD97":2544123.0600000001,"ADDRESS":"東安路２５１巷４０號","OBJECTID":401734},"geometry":{"x":170653.03000000119,"y":2544123.0600000024}},{"attributes":{"ID":401759,"DIS_CODE":0,"TOWNNAME":"東區","LI":"小東里","LIN":"11鄰","STREET":"東安路","SECT":" ","MAREA":" ","LANE":"２５１巷","ALLEY":" ","HOUSE_NO":"４２號","E_COORD97":170647.20999999999,"N_COORD97":2544123.6800000002,"ADDRESS":"東安路２５１巷４２號","OBJECTID":401735},"geometry":{"x":170647.20999999996,"y":2544123.6799999997}},{"attributes":{"ID":401760,"DIS_CODE":0,"TOWNNAME":"東區","LI":"小東里","LIN":"11鄰","STREET":"東安路","SECT":" ","MAREA":" ","LANE":"２５１巷","ALLEY":" ","HOUSE_NO":"４６號","E_COORD97":170642.28,"N_COORD97":2544124.2200000002,"ADDRESS":"東安路２５１巷４６號","OBJECTID":401736},"geometry":{"x":170642.28000000026,"y":2544124.2200000007}},{"attributes":{"ID":401761,"DIS_CODE":0,"TOWNNAME":"安南區","LI":"安東里","LIN":"11鄰","STREET":"安和路","SECT":"一段","MAREA":" ","LANE":"２２０巷","ALLEY":" ","HOUSE_NO":"７３號","E_COORD97":169495.60000000001,"N_COORD97":2548038.1499999999,"ADDRESS":"安和路一段２２０巷７３號","OBJECTID":401737},"geometry":{"x":169495.60000000149,"y":2548038.1500000022}},{"attributes":{"ID":401762,"DIS_CODE":0,"TOWNNAME":"永康區","LI":"崑山里","LIN":"20鄰","STREET":"崑山街","SECT":" ","MAREA":" ","LANE":"２１巷","ALLEY":" ","HOUSE_NO":"２號","E_COORD97":173898.92000000001,"N_COORD97":2544577.3100000001,"ADDRESS":"崑山街２１巷２號","OBJECTID":401738},"geometry":{"x":173898.91999999993,"y":2544577.3100000005}},{"attributes":{"ID":401763,"DIS_CODE":0,"TOWNNAME":"永康區","LI":"崑山里","LIN":"46鄰","STREET":"永華路","SECT":" ","MAREA":" ","LANE":"３２巷","ALLEY":" ","HOUSE_NO":"４６號","E_COORD97":174197.70000000001,"N_COORD97":2545167.0600000001,"ADDRESS":"永華路３２巷４６號","OBJECTID":401739},"geometry":{"x":174197.70000000019,"y":2545167.0600000042}},{"attributes":{"ID":401764,"DIS_CODE":0,"TOWNNAME":"永康區","LI":"崑山里","LIN":"41鄰","STREET":"崑山街","SECT":" ","MAREA":" ","LANE":"２０３巷","ALLEY":" ","HOUSE_NO":"１４號","E_COORD97":174034.70999999999,"N_COORD97":2545017.6899999999,"ADDRESS":"崑山街２０３巷１４號","OBJECTID":401740},"geometry":{"x":174034.70999999903,"y":2545017.6899999995}},{"attributes":{"ID":401765,"DIS_CODE":0,"TOWNNAME":"永康區","LI":"復國里","LIN":"1鄰","STREET":"復國二路","SECT":" ","MAREA":" ","LANE":"１０巷","ALLEY":" ","HOUSE_NO":"２號","E_COORD97":172844.17999999999,"N_COORD97":2544752.2000000002,"ADDRESS":"復國二路１０巷２號","OBJECTID":401741},"geometry":{"x":172844.1799999997,"y":2544752.2000000011}},{"attributes":{"ID":401766,"DIS_CODE":0,"TOWNNAME":"永康區","LI":"勝利里","LIN":"19鄰","STREET":"勝利街","SECT":" ","MAREA":" ","LANE":"１９７巷","ALLEY":" ","HOUSE_NO":"２７號","E_COORD97":171264.95000000001,"N_COORD97":2545127.75,"ADDRESS":"勝利街１９７巷２７號","OBJECTID":401742},"geometry":{"x":171264.95000000019,"y":2545127.7500000037}},{"attributes":{"ID":401767,"DIS_CODE":0,"TOWNNAME":"永康區","LI":"復國里","LIN":"12鄰","STREET":"復國二路","SECT":" ","MAREA":" ","LANE":"１１０巷","ALLEY":" ","HOUSE_NO":"６號","E_COORD97":172880.75,"N_COORD97":2545404.5299999998,"ADDRESS":"復國二路１１０巷６號","OBJECTID":401743},"geometry":{"x":172880.75000000093,"y":2545404.5300000012}},{"attributes":{"ID":401768,"DIS_CODE":0,"TOWNNAME":"永康區","LI":"復華里","LIN":"34鄰","STREET":"復國一路","SECT":" ","MAREA":" ","LANE":"４７５巷","ALLEY":" ","HOUSE_NO":"５０號","E_COORD97":172543.28,"N_COORD97":2546017.2799999998,"ADDRESS":"復國一路４７５巷５０號","OBJECTID":401744},"geometry":{"x":172543.28000000119,"y":2546017.2799999993}},{"attributes":{"ID":401769,"DIS_CODE":0,"TOWNNAME":"永康區","LI":"復國里","LIN":"19鄰","STREET":"復國一路","SECT":" ","MAREA":" ","LANE":"３６２巷","ALLEY":" ","HOUSE_NO":"１６號","E_COORD97":172817.95999999999,"N_COORD97":2545769.6499999999,"ADDRESS":"復國一路３６２巷１６號","OBJECTID":401745},"geometry":{"x":172817.96000000089,"y":2545769.6500000041}},{"attributes":{"ID":401770,"DIS_CODE":0,"TOWNNAME":"永康區","LI":"復國里","LIN":"16鄰","STREET":"復國二路","SECT":" ","MAREA":" ","LANE":"１９０巷","ALLEY":" ","HOUSE_NO":"１６號","E_COORD97":172983.12,"N_COORD97":2545741.52,"ADDRESS":"復國二路１９０巷１６號","OBJECTID":401746},"geometry":{"x":172983.12000000104,"y":2545741.5199999996}},{"attributes":{"ID":401771,"DIS_CODE":0,"TOWNNAME":"永康區","LI":"復華里","LIN":"16鄰","STREET":"國華街","SECT":" ","MAREA":" ","LANE":"９５巷","ALLEY":" ","HOUSE_NO":"２４號","E_COORD97":172753.51999999999,"N_COORD97":2546017.75,"ADDRESS":"國華街９５巷２４號","OBJECTID":401747},"geometry":{"x":172753.51999999955,"y":2546017.7500000019}},{"attributes":{"ID":401772,"DIS_CODE":0,"TOWNNAME":"仁德區","LI":"一甲里","LIN":"11鄰","STREET":"忠義二街","SECT":" ","MAREA":" ","LANE":"２５巷","ALLEY":" ","HOUSE_NO":"７號","E_COORD97":173941.53,"N_COORD97":2542096.0499999998,"ADDRESS":"忠義二街２５巷７號","OBJECTID":401748},"geometry":{"x":173941.53000000212,"y":2542096.0500000026}},{"attributes":{"ID":401773,"DIS_CODE":0,"TOWNNAME":"仁德區","LI":"太子里","LIN":"11鄰","STREET":"長興二街","SECT":" ","MAREA":" ","LANE":"９６巷","ALLEY":" ","HOUSE_NO":"１１號","E_COORD97":174181.39999999999,"N_COORD97":2543735.23,"ADDRESS":"長興二街９６巷１１號","OBJECTID":401749},"geometry":{"x":174181.40000000224,"y":2543735.2300000042}},{"attributes":{"ID":401774,"DIS_CODE":0,"TOWNNAME":"仁德區","LI":"太子里","LIN":"11鄰","STREET":"長興二街","SECT":" ","MAREA":" ","LANE":"９６巷","ALLEY":" ","HOUSE_NO":"１３號","E_COORD97":174181.39999999999,"N_COORD97":2543740.3900000001,"ADDRESS":"長興二街９６巷１３號","OBJECTID":401750},"geometry":{"x":174181.40000000224,"y":2543740.3900000006}},{"attributes":{"ID":401775,"DIS_CODE":0,"TOWNNAME":"仁德區","LI":"太子里","LIN":"11鄰","STREET":"長興二街","SECT":" ","MAREA":" ","LANE":"９６巷","ALLEY":" ","HOUSE_NO":"３號","E_COORD97":174181.14999999999,"N_COORD97":2543714.4900000002,"ADDRESS":"長興二街９６巷３號","OBJECTID":401751},"geometry":{"x":174181.15000000037,"y":2543714.4900000002}},{"attributes":{"ID":401776,"DIS_CODE":0,"TOWNNAME":"仁德區","LI":"太子里","LIN":"11鄰","STREET":"長興二街","SECT":" ","MAREA":" ","LANE":"９６巷","ALLEY":" ","HOUSE_NO":"５號","E_COORD97":174180.95000000001,"N_COORD97":2543719.6899999999,"ADDRESS":"長興二街９６巷５號","OBJECTID":401752},"geometry":{"x":174180.95000000205,"y":2543719.6899999995}},{"attributes":{"ID":401777,"DIS_CODE":0,"TOWNNAME":"仁德區","LI":"太子里","LIN":"11鄰","STREET":"長興二街","SECT":" ","MAREA":" ","LANE":"９６巷","ALLEY":" ","HOUSE_NO":"７號","E_COORD97":174180.81,"N_COORD97":2543725.1499999999,"ADDRESS":"長興二街９６巷７號","OBJECTID":401753},"geometry":{"x":174180.80999999959,"y":2543725.1500000041}},{"attributes":{"ID":401778,"DIS_CODE":0,"TOWNNAME":"永康區","LI":"復國里","LIN":"35鄰","STREET":"復國一路","SECT":" ","MAREA":" ","LANE":"８５巷","ALLEY":" ","HOUSE_NO":"５號","E_COORD97":172670.98000000001,"N_COORD97":2544961.5299999998,"ADDRESS":"復國一路８５巷５號","OBJECTID":401754},"geometry":{"x":172670.98000000138,"y":2544961.5299999993}},{"attributes":{"ID":401779,"DIS_CODE":0,"TOWNNAME":"永康區","LI":"復國里","LIN":"31鄰","STREET":"復國一路","SECT":" ","MAREA":" ","LANE":"１７３巷","ALLEY":" ","HOUSE_NO":"１３號","E_COORD97":172674.63,"N_COORD97":2545203.7999999998,"ADDRESS":"復國一路１７３巷１３號","OBJECTID":401755},"geometry":{"x":172674.63000000082,"y":2545203.8000000026}},{"attributes":{"ID":401780,"DIS_CODE":0,"TOWNNAME":"仁德區","LI":"太子里","LIN":"11鄰","STREET":"長興二街","SECT":" ","MAREA":" ","LANE":"９６巷","ALLEY":" ","HOUSE_NO":"９號","E_COORD97":174180.29999999999,"N_COORD97":2543730.1499999999,"ADDRESS":"長興二街９６巷９號","OBJECTID":401756},"geometry":{"x":174180.30000000075,"y":2543730.1500000022}},{"attributes":{"ID":401781,"DIS_CODE":0,"TOWNNAME":"仁德區","LI":"上崙里","LIN":"11鄰","STREET":"德善路","SECT":" ","MAREA":" ","LANE":"４７３巷","ALLEY":" ","HOUSE_NO":"１２號","E_COORD97":174070,"N_COORD97":2538129.71,"ADDRESS":"德善路４７３巷１２號","OBJECTID":401757},"geometry":{"x":174070,"y":2538129.7100000009}},{"attributes":{"ID":401782,"DIS_CODE":0,"TOWNNAME":"下營區","LI":"宅內里","LIN":"11鄰","STREET":"人和三街","SECT":" ","MAREA":" ","LANE":"７１巷","ALLEY":" ","HOUSE_NO":"２２號","E_COORD97":174228.70000000001,"N_COORD97":2570620.1499999999,"ADDRESS":"人和三街７１巷２２號","OBJECTID":401758},"geometry":{"x":174228.70000000112,"y":2570620.1500000004}},{"attributes":{"ID":401783,"DIS_CODE":0,"TOWNNAME":"下營區","LI":"宅內里","LIN":"11鄰","STREET":"人和三街","SECT":" ","MAREA":" ","LANE":"７１巷","ALLEY":" ","HOUSE_NO":"２５號","E_COORD97":174256.76000000001,"N_COORD97":2570621.3500000001,"ADDRESS":"人和三街７１巷２５號","OBJECTID":401759},"geometry":{"x":174256.76000000071,"y":2570621.3499999996}},{"attributes":{"ID":401784,"DIS_CODE":0,"TOWNNAME":"下營區","LI":"宅內里","LIN":"11鄰","STREET":"人和三街","SECT":" ","MAREA":" ","LANE":"７１巷","ALLEY":" ","HOUSE_NO":"３３號","E_COORD97":174253.06,"N_COORD97":2570609.4199999999,"ADDRESS":"人和三街７１巷３３號","OBJECTID":401760},"geometry":{"x":174253.06000000052,"y":2570609.4200000018}},{"attributes":{"ID":401785,"DIS_CODE":0,"TOWNNAME":"永康區","LI":"復華里","LIN":"3鄰","STREET":"復國二路","SECT":" ","MAREA":" ","LANE":"３３８巷","ALLEY":" ","HOUSE_NO":"９號","E_COORD97":173055.12,"N_COORD97":2546126.8999999999,"ADDRESS":"復國二路３３８巷９號","OBJECTID":401761},"geometry":{"x":173055.12000000011,"y":2546126.9000000004}},{"attributes":{"ID":401786,"DIS_CODE":0,"TOWNNAME":"永康區","LI":"復國里","LIN":"31鄰","STREET":"復國一路","SECT":" ","MAREA":" ","LANE":"１５９巷","ALLEY":" ","HOUSE_NO":"１２號","E_COORD97":172676.26999999999,"N_COORD97":2545181.71,"ADDRESS":"復國一路１５９巷１２號","OBJECTID":401762},"geometry":{"x":172676.27000000048,"y":2545181.7100000009}},{"attributes":{"ID":401787,"DIS_CODE":0,"TOWNNAME":"永康區","LI":"復華里","LIN":"28鄰","STREET":"復華八街","SECT":" ","MAREA":" ","LANE":"４５巷","ALLEY":" ","HOUSE_NO":"５號","E_COORD97":172750.14000000001,"N_COORD97":2546336.2599999998,"ADDRESS":"復華八街４５巷５號","OBJECTID":401763},"geometry":{"x":172750.14000000153,"y":2546336.2599999998}},{"attributes":{"ID":401788,"DIS_CODE":0,"TOWNNAME":"永康區","LI":"復國里","LIN":"4鄰","STREET":"復國一路","SECT":" ","MAREA":" ","LANE":"６８巷","ALLEY":" ","HOUSE_NO":"４０號","E_COORD97":172814.64000000001,"N_COORD97":2544862.52,"ADDRESS":"復國一路６８巷４０號","OBJECTID":401764},"geometry":{"x":172814.6400000006,"y":2544862.5200000014}},{"attributes":{"ID":401789,"DIS_CODE":0,"TOWNNAME":"永康區","LI":"復華里","LIN":"11鄰","STREET":"復國二路","SECT":" ","MAREA":" ","LANE":"２４３巷","ALLEY":" ","HOUSE_NO":"３３號","E_COORD97":172941.69,"N_COORD97":2546126.0899999999,"ADDRESS":"復國二路２４３巷３３號","OBJECTID":401765},"geometry":{"x":172941.69000000041,"y":2546126.0900000017}},{"attributes":{"ID":401790,"DIS_CODE":0,"TOWNNAME":"永康區","LI":"復華里","LIN":"3鄰","STREET":"復國二路","SECT":" ","MAREA":" ","LANE":"３４０巷","ALLEY":" ","HOUSE_NO":"１１號","E_COORD97":173068.42000000001,"N_COORD97":2546160.1400000001,"ADDRESS":"復國二路３４０巷１１號","OBJECTID":401766},"geometry":{"x":173068.41999999993,"y":2546160.1400000025}},{"attributes":{"ID":401791,"DIS_CODE":0,"TOWNNAME":"永康區","LI":"復華里","LIN":"24鄰","STREET":"復華八街","SECT":" ","MAREA":" ","LANE":"５８巷","ALLEY":" ","HOUSE_NO":"８號","E_COORD97":172772.57999999999,"N_COORD97":2546302.7599999998,"ADDRESS":"復華八街５８巷８號","OBJECTID":401767},"geometry":{"x":172772.58000000007,"y":2546302.7599999998}},{"attributes":{"ID":401792,"DIS_CODE":0,"TOWNNAME":"永康區","LI":"復華里","LIN":"15鄰","STREET":"國華街","SECT":" ","MAREA":" ","LANE":"９３巷","ALLEY":" ","HOUSE_NO":"２０號","E_COORD97":172780.69,"N_COORD97":2545993.9399999999,"ADDRESS":"國華街９３巷２０號","OBJECTID":401768},"geometry":{"x":172780.69000000041,"y":2545993.9400000032}},{"attributes":{"ID":401793,"DIS_CODE":0,"TOWNNAME":"永康區","LI":"復國里","LIN":"19鄰","STREET":"復國一路","SECT":" ","MAREA":" ","LANE":"３６２巷","ALLEY":" ","HOUSE_NO":"６號","E_COORD97":172796.48000000001,"N_COORD97":2545770.3999999999,"ADDRESS":"復國一路３６２巷６號","OBJECTID":401769},"geometry":{"x":172796.48000000138,"y":2545770.4000000004}},{"attributes":{"ID":401794,"DIS_CODE":0,"TOWNNAME":"永康區","LI":"復華里","LIN":"16鄰","STREET":"國華街","SECT":" ","MAREA":" ","LANE":"９５巷","ALLEY":" ","HOUSE_NO":"１５號","E_COORD97":172772.20000000001,"N_COORD97":2546013.75,"ADDRESS":"國華街９５巷１５號","OBJECTID":401770},"geometry":{"x":172772.20000000205,"y":2546013.7500000019}},{"attributes":{"ID":401795,"DIS_CODE":0,"TOWNNAME":"永康區","LI":"復華里","LIN":"16鄰","STREET":"國華街","SECT":" ","MAREA":" ","LANE":"９５巷","ALLEY":" ","HOUSE_NO":"１７號","E_COORD97":172768.62,"N_COORD97":2546010.25,"ADDRESS":"國華街９５巷１７號","OBJECTID":401771},"geometry":{"x":172768.62000000011,"y":2546010.2500000019}},{"attributes":{"ID":401796,"DIS_CODE":0,"TOWNNAME":"永康區","LI":"復國里","LIN":"2鄰","STREET":"復國一路","SECT":" ","MAREA":" ","LANE":"２８巷","ALLEY":" ","HOUSE_NO":"３１號","E_COORD97":172809.04999999999,"N_COORD97":2544779.1000000001,"ADDRESS":"復國一路２８巷３１號","OBJECTID":401772},"geometry":{"x":172809.05000000075,"y":2544779.1000000034}},{"attributes":{"ID":401797,"DIS_CODE":0,"TOWNNAME":"永康區","LI":"復華里","LIN":"25鄰","STREET":"復華八街","SECT":" ","MAREA":" ","LANE":"４９巷","ALLEY":" ","HOUSE_NO":"７號","E_COORD97":172769.38,"N_COORD97":2546412.5299999998,"ADDRESS":"復華八街４９巷７號","OBJECTID":401773},"geometry":{"x":172769.38000000082,"y":2546412.5299999993}},{"attributes":{"ID":401798,"DIS_CODE":0,"TOWNNAME":"永康區","LI":"復華里","LIN":"32鄰","STREET":"國華街","SECT":" ","MAREA":" ","LANE":"１２７巷","ALLEY":" ","HOUSE_NO":"１２號","E_COORD97":172536.03,"N_COORD97":2546291.7400000002,"ADDRESS":"國華街１２７巷１２號","OBJECTID":401774},"geometry":{"x":172536.02999999933,"y":2546291.7400000021}},{"attributes":{"ID":401799,"DIS_CODE":0,"TOWNNAME":"永康區","LI":"勝利里","LIN":"14鄰","STREET":"勝利街","SECT":" ","MAREA":" ","LANE":"７７巷","ALLEY":" ","HOUSE_NO":"９號","E_COORD97":171314.69,"N_COORD97":2544760.2599999998,"ADDRESS":"勝利街７７巷９號","OBJECTID":401775},"geometry":{"x":171314.69000000227,"y":2544760.2599999998}},{"attributes":{"ID":401800,"DIS_CODE":0,"TOWNNAME":"永康區","LI":"復華里","LIN":"4鄰","STREET":"國華街","SECT":" ","MAREA":" ","LANE":"１０２巷","ALLEY":" ","HOUSE_NO":"１０４號","E_COORD97":172951.04999999999,"N_COORD97":2546184.2799999998,"ADDRESS":"國華街１０２巷１０４號","OBJECTID":401776},"geometry":{"x":172951.05000000075,"y":2546184.2799999993}},{"attributes":{"ID":401801,"DIS_CODE":0,"TOWNNAME":"永康區","LI":"勝利里","LIN":"14鄰","STREET":"勝利街","SECT":" ","MAREA":" ","LANE":"７７巷","ALLEY":" ","HOUSE_NO":"２６號","E_COORD97":171244.07999999999,"N_COORD97":2544791.0099999998,"ADDRESS":"勝利街７７巷２６號","OBJECTID":401777},"geometry":{"x":171244.08000000101,"y":2544791.0100000016}},{"attributes":{"ID":401802,"DIS_CODE":0,"TOWNNAME":"永康區","LI":"復華里","LIN":"11鄰","STREET":"復國二路","SECT":" ","MAREA":" ","LANE":"２４３巷","ALLEY":" ","HOUSE_NO":"２３號","E_COORD97":172960.64000000001,"N_COORD97":2546118.0899999999,"ADDRESS":"復國二路２４３巷２３號","OBJECTID":401778},"geometry":{"x":172960.6400000006,"y":2546118.0899999999}},{"attributes":{"ID":401803,"DIS_CODE":0,"TOWNNAME":"永康區","LI":"復國里","LIN":"11鄰","STREET":"復國一路","SECT":" ","MAREA":" ","LANE":"２７６巷","ALLEY":" ","HOUSE_NO":"６７號","E_COORD97":172830.67000000001,"N_COORD97":2545422.52,"ADDRESS":"復國一路２７６巷６７號","OBJECTID":401779},"geometry":{"x":172830.66999999993,"y":2545422.5199999996}},{"attributes":{"ID":401804,"DIS_CODE":0,"TOWNNAME":"永康區","LI":"復國里","LIN":"11鄰","STREET":"復國一路","SECT":" ","MAREA":" ","LANE":"２７６巷","ALLEY":" ","HOUSE_NO":"６１號","E_COORD97":172830.39999999999,"N_COORD97":2545441.73,"ADDRESS":"復國一路２７６巷６１號","OBJECTID":401780},"geometry":{"x":172830.40000000224,"y":2545441.7300000023}},{"attributes":{"ID":401805,"DIS_CODE":0,"TOWNNAME":"永康區","LI":"復國里","LIN":"11鄰","STREET":"復國一路","SECT":" ","MAREA":" ","LANE":"２８０巷","ALLEY":" ","HOUSE_NO":"３７號","E_COORD97":172843.79000000001,"N_COORD97":2545502.7799999998,"ADDRESS":"復國一路２８０巷３７號","OBJECTID":401781},"geometry":{"x":172843.79000000004,"y":2545502.7799999993}},{"attributes":{"ID":401806,"DIS_CODE":0,"TOWNNAME":"下營區","LI":"新興里","LIN":"11鄰","STREET":"大同街","SECT":" ","MAREA":" ","LANE":"２２巷","ALLEY":" ","HOUSE_NO":"３號","E_COORD97":174624.35999999999,"N_COORD97":2570719.6699999999,"ADDRESS":"大同街２２巷３號","OBJECTID":401782},"geometry":{"x":174624.36000000127,"y":2570719.6700000018}},{"attributes":{"ID":401807,"DIS_CODE":0,"TOWNNAME":"永康區","LI":"復國里","LIN":"4鄰","STREET":"復國一路","SECT":" ","MAREA":" ","LANE":"６８巷","ALLEY":" ","HOUSE_NO":"４２之１號","E_COORD97":172824.94,"N_COORD97":2544863.04,"ADDRESS":"復國一路６８巷４２之１號","OBJECTID":401783},"geometry":{"x":172824.93999999948,"y":2544863.0399999991}},{"attributes":{"ID":401808,"DIS_CODE":0,"TOWNNAME":"永康區","LI":"復國里","LIN":"36鄰","STREET":"復國一路","SECT":" ","MAREA":" ","LANE":"２１巷","ALLEY":" ","HOUSE_NO":"６號","E_COORD97":172669.89999999999,"N_COORD97":2544817.52,"ADDRESS":"復國一路２１巷６號","OBJECTID":401784},"geometry":{"x":172669.9000000013,"y":2544817.5200000014}},{"attributes":{"ID":401809,"DIS_CODE":0,"TOWNNAME":"永康區","LI":"復華里","LIN":"25鄰","STREET":"復華八街","SECT":" ","MAREA":" ","LANE":"４９巷","ALLEY":" ","HOUSE_NO":"２號","E_COORD97":172789.14000000001,"N_COORD97":2546423.2799999998,"ADDRESS":"復華八街４９巷２號","OBJECTID":401785},"geometry":{"x":172789.14000000153,"y":2546423.2800000012}},{"attributes":{"ID":401810,"DIS_CODE":0,"TOWNNAME":"永康區","LI":"復華里","LIN":"25鄰","STREET":"復華八街","SECT":" ","MAREA":" ","LANE":"４９巷","ALLEY":" ","HOUSE_NO":"２８號","E_COORD97":172733.89000000001,"N_COORD97":2546424.0299999998,"ADDRESS":"復華八街４９巷２８號","OBJECTID":401786},"geometry":{"x":172733.8900000006,"y":2546424.0300000012}},{"attributes":{"ID":401811,"DIS_CODE":0,"TOWNNAME":"永康區","LI":"復華里","LIN":"25鄰","STREET":"復華八街","SECT":" ","MAREA":" ","LANE":"４９巷","ALLEY":" ","HOUSE_NO":"３號","E_COORD97":172779.23000000001,"N_COORD97":2546412.7799999998,"ADDRESS":"復華八街４９巷３號","OBJECTID":401787},"geometry":{"x":172779.23000000138,"y":2546412.7800000012}},{"attributes":{"ID":401812,"DIS_CODE":0,"TOWNNAME":"永康區","LI":"復華里","LIN":"25鄰","STREET":"復華八街","SECT":" ","MAREA":" ","LANE":"４９巷","ALLEY":" ","HOUSE_NO":"１０號","E_COORD97":172776.13,"N_COORD97":2546423.2799999998,"ADDRESS":"復華八街４９巷１０號","OBJECTID":401788},"geometry":{"x":172776.13000000082,"y":2546423.2800000012}},{"attributes":{"ID":401813,"DIS_CODE":0,"TOWNNAME":"永康區","LI":"勝利里","LIN":"13鄰","STREET":"勝利街","SECT":" ","MAREA":" ","LANE":"７５巷","ALLEY":" ","HOUSE_NO":"２２號","E_COORD97":171276.14999999999,"N_COORD97":2544757.2599999998,"ADDRESS":"勝利街７５巷２２號","OBJECTID":401789},"geometry":{"x":171276.1500000013,"y":2544757.2599999998}},{"attributes":{"ID":401814,"DIS_CODE":0,"TOWNNAME":"永康區","LI":"復華里","LIN":"14鄰","STREET":"國華街","SECT":" ","MAREA":" ","LANE":"９４巷","ALLEY":" ","HOUSE_NO":"３３號","E_COORD97":172949.73999999999,"N_COORD97":2545900.25,"ADDRESS":"國華街９４巷３３號","OBJECTID":401790},"geometry":{"x":172949.74000000022,"y":2545900.25}},{"attributes":{"ID":401815,"DIS_CODE":0,"TOWNNAME":"永康區","LI":"勝利里","LIN":"14鄰","STREET":"勝利街","SECT":" ","MAREA":" ","LANE":"７７巷","ALLEY":" ","HOUSE_NO":"８號","E_COORD97":171277.37,"N_COORD97":2544783.5099999998,"ADDRESS":"勝利街７７巷８號","OBJECTID":401791},"geometry":{"x":171277.37000000011,"y":2544783.5100000035}},{"attributes":{"ID":401816,"DIS_CODE":0,"TOWNNAME":"永康區","LI":"復國里","LIN":"35鄰","STREET":"復國一路","SECT":" ","MAREA":" ","LANE":"１０３巷","ALLEY":" ","HOUSE_NO":"３號","E_COORD97":172679.26000000001,"N_COORD97":2544999.7799999998,"ADDRESS":"復國一路１０３巷３號","OBJECTID":401792},"geometry":{"x":172679.25999999978,"y":2544999.7799999993}},{"attributes":{"ID":401817,"DIS_CODE":0,"TOWNNAME":"永康區","LI":"復華里","LIN":"29鄰","STREET":"國華街","SECT":" ","MAREA":" ","LANE":"１２３巷","ALLEY":" ","HOUSE_NO":"１３號","E_COORD97":172609.87,"N_COORD97":2546237.25,"ADDRESS":"國華街１２３巷１３號","OBJECTID":401793},"geometry":{"x":172609.87000000197,"y":2546237.2500000019}},{"attributes":{"ID":401818,"DIS_CODE":0,"TOWNNAME":"永康區","LI":"復國里","LIN":"23鄰","STREET":"復華三街","SECT":" ","MAREA":" ","LANE":"９０巷","ALLEY":" ","HOUSE_NO":"３３號","E_COORD97":172577.34,"N_COORD97":2545655.52,"ADDRESS":"復華三街９０巷３３號","OBJECTID":401794},"geometry":{"x":172577.33999999985,"y":2545655.5200000014}},{"attributes":{"ID":401819,"DIS_CODE":0,"TOWNNAME":"永康區","LI":"復華里","LIN":"16鄰","STREET":"國華街","SECT":" ","MAREA":" ","LANE":"９５巷","ALLEY":" ","HOUSE_NO":"１２號","E_COORD97":172774.78,"N_COORD97":2546038.75,"ADDRESS":"國華街９５巷１２號","OBJECTID":401795},"geometry":{"x":172774.78000000026,"y":2546038.75}},{"attributes":{"ID":401820,"DIS_CODE":0,"TOWNNAME":"永康區","LI":"復國里","LIN":"11鄰","STREET":"復國一路","SECT":" ","MAREA":" ","LANE":"２８０巷","ALLEY":" ","HOUSE_NO":"２３號","E_COORD97":172814.10999999999,"N_COORD97":2545494.48,"ADDRESS":"復國一路２８０巷２３號","OBJECTID":401796},"geometry":{"x":172814.11000000127,"y":2545494.4800000023}},{"attributes":{"ID":401821,"DIS_CODE":0,"TOWNNAME":"下營區","LI":"新興里","LIN":"11鄰","STREET":"大同街","SECT":" ","MAREA":" ","LANE":"４８巷","ALLEY":" ","HOUSE_NO":"１８號","E_COORD97":174592.39000000001,"N_COORD97":2570707.0899999999,"ADDRESS":"大同街４８巷１８號","OBJECTID":401797},"geometry":{"x":174592.38999999966,"y":2570707.0900000017}},{"attributes":{"ID":401822,"DIS_CODE":0,"TOWNNAME":"下營區","LI":"新興里","LIN":"11鄰","STREET":"大同街","SECT":" ","MAREA":" ","LANE":"４８巷","ALLEY":" ","HOUSE_NO":"２０號","E_COORD97":174589.91,"N_COORD97":2570729.4300000002,"ADDRESS":"大同街４８巷２０號","OBJECTID":401798},"geometry":{"x":174589.91000000108,"y":2570729.4299999997}},{"attributes":{"ID":401823,"DIS_CODE":0,"TOWNNAME":"下營區","LI":"新興里","LIN":"11鄰","STREET":"大同街","SECT":" ","MAREA":" ","LANE":"４８巷","ALLEY":" ","HOUSE_NO":"２８號","E_COORD97":174589.48000000001,"N_COORD97":2570731.71,"ADDRESS":"大同街４８巷２８號","OBJECTID":401799},"geometry":{"x":174589.48000000231,"y":2570731.7100000009}},{"attributes":{"ID":401824,"DIS_CODE":0,"TOWNNAME":"下營區","LI":"新興里","LIN":"11鄰","STREET":"大同街","SECT":" ","MAREA":" ","LANE":"４８巷","ALLEY":" ","HOUSE_NO":"２號","E_COORD97":174585.20000000001,"N_COORD97":2570698.1600000001,"ADDRESS":"大同街４８巷２號","OBJECTID":401800},"geometry":{"x":174585.20000000112,"y":2570698.1600000001}}]}