{"displayFieldName":"TOWNNAME","fieldAliases":{"ID":"ID","DIS_CODE":"DIS_CODE","TOWNNAME":"TOWNNAME","LI":"LI","LIN":"LIN","STREET":"STREET","SECT":"SECT","MAREA":"MAREA","LANE":"LANE","ALLEY":"ALLEY","HOUSE_NO":"HOUSE_NO","E_COORD97":"E_COORD97","N_COORD97":"N_COORD97","ADDRESS":"ADDRESS","OBJECTID":"OBJECTID"},"geometryType":"esriGeometryPoint","spatialReference":{"wkid":102443,"latestWkid":3826},"fields":[{"name":"ID","type":"esriFieldTypeDouble","alias":"ID"},{"name":"DIS_CODE","type":"esriFieldTypeInteger","alias":"DIS_CODE"},{"name":"TOWNNAME","type":"esriFieldTypeString","alias":"TOWNNAME","length":8},{"name":"LI","type":"esriFieldTypeString","alias":"LI","length":8},{"name":"LIN","type":"esriFieldTypeString","alias":"LIN","length":12},{"name":"STREET","type":"esriFieldTypeString","alias":"STREET","length":20},{"name":"SECT","type":"esriFieldTypeString","alias":"SECT","length":8},{"name":"MAREA","type":"esriFieldTypeString","alias":"MAREA","length":12},{"name":"LANE","type":"esriFieldTypeString","alias":"LANE","length":10},{"name":"ALLEY","type":"esriFieldTypeString","alias":"ALLEY","length":10},{"name":"HOUSE_NO","type":"esriFieldTypeString","alias":"HOUSE_NO","length":20},{"name":"E_COORD97","type":"esriFieldTypeDouble","alias":"E_COORD97"},{"name":"N_COORD97","type":"esriFieldTypeDouble","alias":"N_COORD97"},{"name":"ADDRESS","type":"esriFieldTypeString","alias":"ADDRESS","length":50},{"name":"OBJECTID","type":"esriFieldTypeOID","alias":"OBJECTID"}],"features":[{"attributes":{"ID":446026,"DIS_CODE":0,"TOWNNAME":"北區","LI":"國興里","LIN":"5鄰","STREET":"開元路","SECT":" ","MAREA":" ","LANE":"３９４巷","ALLEY":" ","HOUSE_NO":"１４號","E_COORD97":170586.5,"N_COORD97":2545583.3799999999,"ADDRESS":"開元路３９４巷１４號","OBJECTID":446001},"geometry":{"x":170586.50000000186,"y":2545583.3799999971}},{"attributes":{"ID":446027,"DIS_CODE":0,"TOWNNAME":"北區","LI":"國興里","LIN":"5鄰","STREET":"開元路","SECT":" ","MAREA":" ","LANE":"３９４巷","ALLEY":" ","HOUSE_NO":"３２號","E_COORD97":170609.16,"N_COORD97":2545551,"ADDRESS":"開元路３９４巷３２號","OBJECTID":446002},"geometry":{"x":170609.16000000015,"y":2545551.0000000019}},{"attributes":{"ID":446028,"DIS_CODE":0,"TOWNNAME":"北區","LI":"國興里","LIN":"5鄰","STREET":"開元路","SECT":" ","MAREA":" ","LANE":"３９４巷","ALLEY":" ","HOUSE_NO":"３４號","E_COORD97":170612.23000000001,"N_COORD97":2545547.9300000002,"ADDRESS":"開元路３９４巷３４號","OBJECTID":446003},"geometry":{"x":170612.23000000045,"y":2545547.9300000016}},{"attributes":{"ID":446029,"DIS_CODE":0,"TOWNNAME":"北區","LI":"國興里","LIN":"5鄰","STREET":"開元路","SECT":" ","MAREA":" ","LANE":"３９４巷","ALLEY":" ","HOUSE_NO":"３６號","E_COORD97":170615.67999999999,"N_COORD97":2545546.0099999998,"ADDRESS":"開元路３９４巷３６號","OBJECTID":446004},"geometry":{"x":170615.68000000156,"y":2545546.0099999979}},{"attributes":{"ID":446030,"DIS_CODE":0,"TOWNNAME":"北區","LI":"國興里","LIN":"5鄰","STREET":"開元路","SECT":" ","MAREA":" ","LANE":"３９４巷","ALLEY":" ","HOUSE_NO":"３８號","E_COORD97":170618.95000000001,"N_COORD97":2545543.23,"ADDRESS":"開元路３９４巷３８號","OBJECTID":446005},"geometry":{"x":170618.95000000019,"y":2545543.2300000023}},{"attributes":{"ID":446031,"DIS_CODE":0,"TOWNNAME":"北區","LI":"國興里","LIN":"5鄰","STREET":"開元路","SECT":" ","MAREA":" ","LANE":"３９４巷","ALLEY":" ","HOUSE_NO":"４０號","E_COORD97":170622.12,"N_COORD97":2545539.9700000002,"ADDRESS":"開元路３９４巷４０號","OBJECTID":446006},"geometry":{"x":170622.12000000104,"y":2545539.9700000007}},{"attributes":{"ID":446032,"DIS_CODE":0,"TOWNNAME":"北區","LI":"國興里","LIN":"5鄰","STREET":"開元路","SECT":" ","MAREA":" ","LANE":"３９４巷","ALLEY":" ","HOUSE_NO":"４２號","E_COORD97":170625.19,"N_COORD97":2545537.9500000002,"ADDRESS":"開元路３９４巷４２號","OBJECTID":446007},"geometry":{"x":170625.19000000134,"y":2545537.9499999993}},{"attributes":{"ID":446033,"DIS_CODE":0,"TOWNNAME":"北區","LI":"國興里","LIN":"5鄰","STREET":"開元路","SECT":" ","MAREA":" ","LANE":"３９４巷","ALLEY":" ","HOUSE_NO":"４２號之１","E_COORD97":170628.54999999999,"N_COORD97":2545534.5,"ADDRESS":"開元路３９４巷４２號之１","OBJECTID":446008},"geometry":{"x":170628.55000000075,"y":2545534.5000000019}},{"attributes":{"ID":446034,"DIS_CODE":0,"TOWNNAME":"北區","LI":"國興里","LIN":"5鄰","STREET":"開元路","SECT":" ","MAREA":" ","LANE":"３９４巷","ALLEY":" ","HOUSE_NO":"４４號","E_COORD97":170632.48999999999,"N_COORD97":2545532.29,"ADDRESS":"開元路３９４巷４４號","OBJECTID":446009},"geometry":{"x":170632.49000000022,"y":2545532.2899999991}},{"attributes":{"ID":446035,"DIS_CODE":0,"TOWNNAME":"北區","LI":"國興里","LIN":"5鄰","STREET":"開元路","SECT":" ","MAREA":" ","LANE":"３９４巷","ALLEY":" ","HOUSE_NO":"４６號","E_COORD97":170636.23000000001,"N_COORD97":2545529.8900000001,"ADDRESS":"開元路３９４巷４６號","OBJECTID":446010},"geometry":{"x":170636.22999999952,"y":2545529.8900000006}},{"attributes":{"ID":446036,"DIS_CODE":0,"TOWNNAME":"北區","LI":"國興里","LIN":"5鄰","STREET":"開元路","SECT":" ","MAREA":" ","LANE":"３９４巷","ALLEY":" ","HOUSE_NO":"４８號","E_COORD97":170639.20999999999,"N_COORD97":2545526.9199999999,"ADDRESS":"開元路３９４巷４８號","OBJECTID":446011},"geometry":{"x":170639.20999999996,"y":2545526.9200000037}},{"attributes":{"ID":446037,"DIS_CODE":0,"TOWNNAME":"北區","LI":"勝安里","LIN":"5鄰","STREET":"開元路","SECT":" ","MAREA":" ","LANE":"１１７巷","ALLEY":" ","HOUSE_NO":"１０號","E_COORD97":169821.57000000001,"N_COORD97":2545265.1800000002,"ADDRESS":"開元路１１７巷１０號","OBJECTID":446012},"geometry":{"x":169821.5700000003,"y":2545265.1800000016}},{"attributes":{"ID":446038,"DIS_CODE":0,"TOWNNAME":"北區","LI":"勝安里","LIN":"5鄰","STREET":"開元路","SECT":" ","MAREA":" ","LANE":"１１７巷","ALLEY":" ","HOUSE_NO":"１２號","E_COORD97":169818.20000000001,"N_COORD97":2545270.2000000002,"ADDRESS":"開元路１１７巷１２號","OBJECTID":446013},"geometry":{"x":169818.20000000112,"y":2545270.2000000011}},{"attributes":{"ID":446039,"DIS_CODE":0,"TOWNNAME":"北區","LI":"勝安里","LIN":"5鄰","STREET":"開元路","SECT":" ","MAREA":" ","LANE":"１１７巷","ALLEY":" ","HOUSE_NO":"１６號","E_COORD97":169816.78,"N_COORD97":2545274.9300000002,"ADDRESS":"開元路１１７巷１６號","OBJECTID":446014},"geometry":{"x":169816.78000000026,"y":2545274.9299999997}},{"attributes":{"ID":446040,"DIS_CODE":0,"TOWNNAME":"北區","LI":"勝安里","LIN":"5鄰","STREET":"開元路","SECT":" ","MAREA":" ","LANE":"１１７巷","ALLEY":" ","HOUSE_NO":"１８號","E_COORD97":169815.51999999999,"N_COORD97":2545278.0800000001,"ADDRESS":"開元路１１７巷１８號","OBJECTID":446015},"geometry":{"x":169815.51999999955,"y":2545278.0799999982}},{"attributes":{"ID":446041,"DIS_CODE":0,"TOWNNAME":"北區","LI":"勝安里","LIN":"5鄰","STREET":"開元路","SECT":" ","MAREA":" ","LANE":"１１７巷","ALLEY":" ","HOUSE_NO":"２０號","E_COORD97":169814.26000000001,"N_COORD97":2545281.5499999998,"ADDRESS":"開元路１１７巷２０號","OBJECTID":446016},"geometry":{"x":169814.25999999978,"y":2545281.5500000007}},{"attributes":{"ID":446042,"DIS_CODE":0,"TOWNNAME":"北區","LI":"勝安里","LIN":"5鄰","STREET":"開元路","SECT":" ","MAREA":" ","LANE":"１１７巷","ALLEY":" ","HOUSE_NO":"２２號","E_COORD97":169813,"N_COORD97":2545285.1699999999,"ADDRESS":"開元路１１７巷２２號","OBJECTID":446017},"geometry":{"x":169813,"y":2545285.1700000018}},{"attributes":{"ID":446043,"DIS_CODE":0,"TOWNNAME":"北區","LI":"勝安里","LIN":"5鄰","STREET":"開元路","SECT":" ","MAREA":" ","LANE":"１１７巷","ALLEY":" ","HOUSE_NO":"２４號","E_COORD97":169812.04999999999,"N_COORD97":2545288.6400000001,"ADDRESS":"開元路１１７巷２４號","OBJECTID":446018},"geometry":{"x":169812.05000000075,"y":2545288.6400000043}},{"attributes":{"ID":446044,"DIS_CODE":0,"TOWNNAME":"北區","LI":"勝安里","LIN":"5鄰","STREET":"開元路","SECT":" ","MAREA":" ","LANE":"１４１巷","ALLEY":" ","HOUSE_NO":"１號","E_COORD97":169847.39000000001,"N_COORD97":2545301.1699999999,"ADDRESS":"開元路１４１巷１號","OBJECTID":446019},"geometry":{"x":169847.38999999966,"y":2545301.1700000037}},{"attributes":{"ID":446045,"DIS_CODE":0,"TOWNNAME":"北區","LI":"華興里","LIN":"5鄰","STREET":"南園街","SECT":" ","MAREA":" ","LANE":"５４巷","ALLEY":" ","HOUSE_NO":"１３號","E_COORD97":170510.35999999999,"N_COORD97":2545384.2599999998,"ADDRESS":"南園街５４巷１３號","OBJECTID":446020},"geometry":{"x":170510.36000000127,"y":2545384.2599999998}},{"attributes":{"ID":446046,"DIS_CODE":0,"TOWNNAME":"北區","LI":"華興里","LIN":"5鄰","STREET":"南園街","SECT":" ","MAREA":" ","LANE":"５４巷","ALLEY":" ","HOUSE_NO":"１５號","E_COORD97":170505.42999999999,"N_COORD97":2545386.1099999999,"ADDRESS":"南園街５４巷１５號","OBJECTID":446021},"geometry":{"x":170505.43000000156,"y":2545386.1100000013}},{"attributes":{"ID":446047,"DIS_CODE":0,"TOWNNAME":"北區","LI":"華興里","LIN":"5鄰","STREET":"南園街","SECT":" ","MAREA":" ","LANE":"５４巷","ALLEY":" ","HOUSE_NO":"１７號","E_COORD97":170500.73999999999,"N_COORD97":2545388.0499999998,"ADDRESS":"南園街５４巷１７號","OBJECTID":446022},"geometry":{"x":170500.74000000115,"y":2545388.0500000026}},{"attributes":{"ID":446048,"DIS_CODE":0,"TOWNNAME":"北區","LI":"華興里","LIN":"5鄰","STREET":"南園街","SECT":" ","MAREA":" ","LANE":"５４巷","ALLEY":" ","HOUSE_NO":"１９號","E_COORD97":170497.26999999999,"N_COORD97":2545390.23,"ADDRESS":"南園街５４巷１９號","OBJECTID":446023},"geometry":{"x":170497.26999999955,"y":2545390.2300000023}},{"attributes":{"ID":446049,"DIS_CODE":0,"TOWNNAME":"北區","LI":"華興里","LIN":"5鄰","STREET":"南園街","SECT":" ","MAREA":" ","LANE":"５４巷","ALLEY":" ","HOUSE_NO":"１號","E_COORD97":170498.01999999999,"N_COORD97":2545410.8700000001,"ADDRESS":"南園街５４巷１號","OBJECTID":446024},"geometry":{"x":170498.02000000048,"y":2545410.8700000029}},{"attributes":{"ID":446050,"DIS_CODE":0,"TOWNNAME":"北區","LI":"華興里","LIN":"5鄰","STREET":"南園街","SECT":" ","MAREA":" ","LANE":"５４巷","ALLEY":" ","HOUSE_NO":"２１號","E_COORD97":170492.98000000001,"N_COORD97":2545392.0899999999,"ADDRESS":"南園街５４巷２１號","OBJECTID":446025},"geometry":{"x":170492.98000000138,"y":2545392.0899999999}},{"attributes":{"ID":446051,"DIS_CODE":0,"TOWNNAME":"北區","LI":"華興里","LIN":"5鄰","STREET":"南園街","SECT":" ","MAREA":" ","LANE":"５４巷","ALLEY":" ","HOUSE_NO":"２３號","E_COORD97":170488.45999999999,"N_COORD97":2545395.2400000002,"ADDRESS":"南園街５４巷２３號","OBJECTID":446026},"geometry":{"x":170488.46000000183,"y":2545395.2400000002}},{"attributes":{"ID":446052,"DIS_CODE":0,"TOWNNAME":"北區","LI":"華興里","LIN":"5鄰","STREET":"南園街","SECT":" ","MAREA":" ","LANE":"５４巷","ALLEY":" ","HOUSE_NO":"２５號","E_COORD97":170485.14000000001,"N_COORD97":2545384.0099999998,"ADDRESS":"南園街５４巷２５號","OBJECTID":446027},"geometry":{"x":170485.13999999873,"y":2545384.0100000016}},{"attributes":{"ID":446053,"DIS_CODE":0,"TOWNNAME":"北區","LI":"華興里","LIN":"5鄰","STREET":"南園街","SECT":" ","MAREA":" ","LANE":"５４巷","ALLEY":" ","HOUSE_NO":"２７號","E_COORD97":170483.20000000001,"N_COORD97":2545379.8999999999,"ADDRESS":"南園街５４巷２７號","OBJECTID":446028},"geometry":{"x":170483.20000000019,"y":2545379.9000000004}},{"attributes":{"ID":446054,"DIS_CODE":0,"TOWNNAME":"北區","LI":"華興里","LIN":"5鄰","STREET":"南園街","SECT":" ","MAREA":" ","LANE":"５４巷","ALLEY":" ","HOUSE_NO":"２９號","E_COORD97":170481.57999999999,"N_COORD97":2545375.9399999999,"ADDRESS":"南園街５４巷２９號","OBJECTID":446029},"geometry":{"x":170481.58000000101,"y":2545375.9399999995}},{"attributes":{"ID":446055,"DIS_CODE":0,"TOWNNAME":"北區","LI":"華興里","LIN":"5鄰","STREET":"南園街","SECT":" ","MAREA":" ","LANE":"５４巷","ALLEY":" ","HOUSE_NO":"３１號","E_COORD97":170478.82999999999,"N_COORD97":2545372.0600000001,"ADDRESS":"南園街５４巷３１號","OBJECTID":446030},"geometry":{"x":170478.83000000007,"y":2545372.0600000024}},{"attributes":{"ID":446056,"DIS_CODE":0,"TOWNNAME":"北區","LI":"華興里","LIN":"5鄰","STREET":"南園街","SECT":" ","MAREA":" ","LANE":"５４巷","ALLEY":" ","HOUSE_NO":"５號","E_COORD97":170507.23000000001,"N_COORD97":2545406.27,"ADDRESS":"南園街５４巷５號","OBJECTID":446031},"geometry":{"x":170507.23000000045,"y":2545406.2700000014}},{"attributes":{"ID":446057,"DIS_CODE":0,"TOWNNAME":"北區","LI":"華興里","LIN":"5鄰","STREET":"南園街","SECT":" ","MAREA":" ","LANE":"５４巷","ALLEY":" ","HOUSE_NO":"７號","E_COORD97":170511.26999999999,"N_COORD97":2545404.8100000001,"ADDRESS":"南園街５４巷７號","OBJECTID":446032},"geometry":{"x":170511.26999999862,"y":2545404.8100000005}},{"attributes":{"ID":446058,"DIS_CODE":0,"TOWNNAME":"北區","LI":"華興里","LIN":"5鄰","STREET":"南園街","SECT":" ","MAREA":" ","LANE":"５４巷","ALLEY":" ","HOUSE_NO":"９號","E_COORD97":170515.14999999999,"N_COORD97":2545402.4700000002,"ADDRESS":"南園街５４巷９號","OBJECTID":446033},"geometry":{"x":170515.1500000013,"y":2545402.4700000025}},{"attributes":{"ID":446059,"DIS_CODE":0,"TOWNNAME":"北區","LI":"華興里","LIN":"5鄰","STREET":"南園街","SECT":" ","MAREA":" ","LANE":"９６巷","ALLEY":" ","HOUSE_NO":"１０號","E_COORD97":170524.42999999999,"N_COORD97":2545393.3999999999,"ADDRESS":"南園街９６巷１０號","OBJECTID":446034},"geometry":{"x":170524.43000000063,"y":2545393.4000000004}},{"attributes":{"ID":446060,"DIS_CODE":0,"TOWNNAME":"北區","LI":"華興里","LIN":"5鄰","STREET":"南園街","SECT":" ","MAREA":" ","LANE":"９６巷","ALLEY":" ","HOUSE_NO":"１２號","E_COORD97":170523.20999999999,"N_COORD97":2545389.6000000001,"ADDRESS":"南園街９６巷１２號","OBJECTID":446035},"geometry":{"x":170523.21000000089,"y":2545389.6000000034}},{"attributes":{"ID":446061,"DIS_CODE":0,"TOWNNAME":"北區","LI":"華興里","LIN":"5鄰","STREET":"南園街","SECT":" ","MAREA":" ","LANE":"９６巷","ALLEY":" ","HOUSE_NO":"１４號","E_COORD97":170521.67999999999,"N_COORD97":2545386.4500000002,"ADDRESS":"南園街９６巷１４號","OBJECTID":446036},"geometry":{"x":170521.6799999997,"y":2545386.4499999993}},{"attributes":{"ID":446062,"DIS_CODE":0,"TOWNNAME":"北區","LI":"華興里","LIN":"5鄰","STREET":"南園街","SECT":" ","MAREA":" ","LANE":"９６巷","ALLEY":" ","HOUSE_NO":"１６號","E_COORD97":170519.5,"N_COORD97":2545383.1400000001,"ADDRESS":"南園街９６巷１６號","OBJECTID":446037},"geometry":{"x":170519.50000000093,"y":2545383.1400000006}},{"attributes":{"ID":446063,"DIS_CODE":0,"TOWNNAME":"北區","LI":"華興里","LIN":"5鄰","STREET":"南園街","SECT":" ","MAREA":" ","LANE":"９６巷","ALLEY":" ","HOUSE_NO":"１８號","E_COORD97":170517.39000000001,"N_COORD97":2545379.4100000001,"ADDRESS":"南園街９６巷１８號","OBJECTID":446038},"geometry":{"x":170517.39000000153,"y":2545379.410000002}},{"attributes":{"ID":446064,"DIS_CODE":0,"TOWNNAME":"北區","LI":"華興里","LIN":"5鄰","STREET":"南園街","SECT":" ","MAREA":" ","LANE":"９６巷","ALLEY":" ","HOUSE_NO":"２０號","E_COORD97":170515.85000000001,"N_COORD97":2545376.8300000001,"ADDRESS":"南園街９６巷２０號","OBJECTID":446039},"geometry":{"x":170515.84999999963,"y":2545376.8300000001}},{"attributes":{"ID":446065,"DIS_CODE":0,"TOWNNAME":"北區","LI":"華興里","LIN":"5鄰","STREET":"南園街","SECT":" ","MAREA":" ","LANE":"９６巷","ALLEY":" ","HOUSE_NO":"２２號","E_COORD97":170514.16,"N_COORD97":2545373.6800000002,"ADDRESS":"南園街９６巷２２號","OBJECTID":446040},"geometry":{"x":170514.16000000015,"y":2545373.6800000016}},{"attributes":{"ID":446066,"DIS_CODE":0,"TOWNNAME":"北區","LI":"華興里","LIN":"5鄰","STREET":"南園街","SECT":" ","MAREA":" ","LANE":"９６巷","ALLEY":" ","HOUSE_NO":"２６號","E_COORD97":170493.31,"N_COORD97":2545374.4100000001,"ADDRESS":"南園街９６巷２６號","OBJECTID":446041},"geometry":{"x":170493.31000000052,"y":2545374.4100000039}},{"attributes":{"ID":446067,"DIS_CODE":0,"TOWNNAME":"北區","LI":"華興里","LIN":"5鄰","STREET":"南園街","SECT":" ","MAREA":" ","LANE":"９６巷","ALLEY":" ","HOUSE_NO":"２號","E_COORD97":170540.28,"N_COORD97":2545378.2000000002,"ADDRESS":"南園街９６巷２號","OBJECTID":446042},"geometry":{"x":170540.28000000026,"y":2545378.200000003}},{"attributes":{"ID":446068,"DIS_CODE":0,"TOWNNAME":"北區","LI":"華興里","LIN":"5鄰","STREET":"南園街","SECT":" ","MAREA":" ","LANE":"９６巷","ALLEY":" ","HOUSE_NO":"６號","E_COORD97":170534.29000000001,"N_COORD97":2545377.6299999999,"ADDRESS":"南園街９６巷６號","OBJECTID":446043},"geometry":{"x":170534.29000000097,"y":2545377.629999999}},{"attributes":{"ID":446069,"DIS_CODE":0,"TOWNNAME":"北區","LI":"華興里","LIN":"5鄰","STREET":"南園街","SECT":" ","MAREA":" ","LANE":"９６巷","ALLEY":" ","HOUSE_NO":"８號","E_COORD97":170530.66,"N_COORD97":2545378.7599999998,"ADDRESS":"南園街９６巷８號","OBJECTID":446044},"geometry":{"x":170530.66000000015,"y":2545378.7600000016}},{"attributes":{"ID":446070,"DIS_CODE":0,"TOWNNAME":"關廟區","LI":"關廟里","LIN":"5鄰","STREET":"中山路","SECT":"二段","MAREA":" ","LANE":"１６５巷","ALLEY":" ","HOUSE_NO":"９８號","E_COORD97":180750.35000000001,"N_COORD97":2539792.1699999999,"ADDRESS":"中山路二段１６５巷９８號","OBJECTID":446045},"geometry":{"x":180750.35000000056,"y":2539792.1700000018}},{"attributes":{"ID":446071,"DIS_CODE":0,"TOWNNAME":"關廟區","LI":"關廟里","LIN":"5鄰","STREET":"中山路","SECT":"二段","MAREA":" ","LANE":"１６５巷","ALLEY":" ","HOUSE_NO":"９２號","E_COORD97":180744.95000000001,"N_COORD97":2539800.1699999999,"ADDRESS":"中山路二段１６５巷９２號","OBJECTID":446046},"geometry":{"x":180744.95000000112,"y":2539800.1700000018}},{"attributes":{"ID":446072,"DIS_CODE":0,"TOWNNAME":"關廟區","LI":"布袋里","LIN":"5鄰","STREET":"長文街","SECT":" ","MAREA":" ","LANE":"６１巷","ALLEY":" ","HOUSE_NO":"１５號","E_COORD97":183031.04000000001,"N_COORD97":2535425.25,"ADDRESS":"長文街６１巷１５號","OBJECTID":446047},"geometry":{"x":183031.04000000097,"y":2535425.2500000019}},{"attributes":{"ID":446073,"DIS_CODE":0,"TOWNNAME":"關廟區","LI":"龜洞里","LIN":"5鄰","STREET":"南橋街","SECT":" ","MAREA":" ","LANE":"６８巷","ALLEY":" ","HOUSE_NO":"２６號","E_COORD97":182060.54000000001,"N_COORD97":2532669.2999999998,"ADDRESS":"南橋街６８巷２６號","OBJECTID":446048},"geometry":{"x":182060.54000000004,"y":2532669.3000000026}},{"attributes":{"ID":446074,"DIS_CODE":0,"TOWNNAME":"關廟區","LI":"五甲里","LIN":"5鄰","STREET":"五甲路","SECT":" ","MAREA":" ","LANE":"２１巷","ALLEY":" ","HOUSE_NO":"５號","E_COORD97":181275.72,"N_COORD97":2539070.25,"ADDRESS":"五甲路２１巷５號","OBJECTID":446049},"geometry":{"x":181275.71999999974,"y":2539070.2500000019}},{"attributes":{"ID":446075,"DIS_CODE":0,"TOWNNAME":"關廟區","LI":"關廟里","LIN":"5鄰","STREET":"中山路","SECT":"二段","MAREA":" ","LANE":"１６５巷","ALLEY":" ","HOUSE_NO":"１０３號","E_COORD97":180777.06,"N_COORD97":2539781.2799999998,"ADDRESS":"中山路二段１６５巷１０３號","OBJECTID":446050},"geometry":{"x":180777.05999999959,"y":2539781.2800000012}},{"attributes":{"ID":446076,"DIS_CODE":0,"TOWNNAME":"關廟區","LI":"關廟里","LIN":"5鄰","STREET":"中山路","SECT":"二段","MAREA":" ","LANE":"１６５巷","ALLEY":" ","HOUSE_NO":"９６號","E_COORD97":180746.14999999999,"N_COORD97":2539796.1699999999,"ADDRESS":"中山路二段１６５巷９６號","OBJECTID":446051},"geometry":{"x":180746.15000000037,"y":2539796.1700000018}},{"attributes":{"ID":446077,"DIS_CODE":0,"TOWNNAME":"關廟區","LI":"深坑里","LIN":"5鄰","STREET":"深坑一街","SECT":" ","MAREA":" ","LANE":"１３巷","ALLEY":" ","HOUSE_NO":"６２號","E_COORD97":181791.07000000001,"N_COORD97":2537720.2999999998,"ADDRESS":"深坑一街１３巷６２號","OBJECTID":446052},"geometry":{"x":181791.0700000003,"y":2537720.3000000045}},{"attributes":{"ID":446078,"DIS_CODE":0,"TOWNNAME":"關廟區","LI":"北勢里","LIN":"5鄰","STREET":"成功路","SECT":" ","MAREA":" ","LANE":"１１５巷","ALLEY":" ","HOUSE_NO":"８號","E_COORD97":181569.07000000001,"N_COORD97":2540422.27,"ADDRESS":"成功路１１５巷８號","OBJECTID":446053},"geometry":{"x":181569.0700000003,"y":2540422.2700000014}},{"attributes":{"ID":446079,"DIS_CODE":0,"TOWNNAME":"關廟區","LI":"北花里","LIN":"5鄰","STREET":"園東街","SECT":" ","MAREA":" ","LANE":"１１８巷","ALLEY":" ","HOUSE_NO":"１６號","E_COORD97":182082.26000000001,"N_COORD97":2540235.25,"ADDRESS":"園東街１１８巷１６號","OBJECTID":446054},"geometry":{"x":182082.25999999978,"y":2540235.2499999981}},{"attributes":{"ID":446080,"DIS_CODE":0,"TOWNNAME":"關廟區","LI":"松腳里","LIN":"5鄰","STREET":"中山路","SECT":"一段","MAREA":" ","LANE":"２１巷","ALLEY":" ","HOUSE_NO":"１１號","E_COORD97":182072.76000000001,"N_COORD97":2539909.2799999998,"ADDRESS":"中山路一段２１巷１１號","OBJECTID":446055},"geometry":{"x":182072.75999999885,"y":2539909.2800000031}},{"attributes":{"ID":446081,"DIS_CODE":0,"TOWNNAME":"關廟區","LI":"布袋里","LIN":"5鄰","STREET":"長文街","SECT":" ","MAREA":" ","LANE":"１８１巷","ALLEY":" ","HOUSE_NO":"１５號","E_COORD97":182772.34,"N_COORD97":2535271.25,"ADDRESS":"長文街１８１巷１５號","OBJECTID":446056},"geometry":{"x":182772.33999999985,"y":2535271.25}},{"attributes":{"ID":446082,"DIS_CODE":0,"TOWNNAME":"關廟區","LI":"北花里","LIN":"5鄰","STREET":"花園二街","SECT":" ","MAREA":" ","LANE":"８１巷","ALLEY":" ","HOUSE_NO":"９號","E_COORD97":181986.23999999999,"N_COORD97":2540268.25,"ADDRESS":"花園二街８１巷９號","OBJECTID":446057},"geometry":{"x":181986.24000000022,"y":2540268.25}},{"attributes":{"ID":446083,"DIS_CODE":0,"TOWNNAME":"關廟區","LI":"北勢里","LIN":"5鄰","STREET":"成功路","SECT":" ","MAREA":" ","LANE":"１１５巷","ALLEY":" ","HOUSE_NO":"２號","E_COORD97":181572.47,"N_COORD97":2540430.27,"ADDRESS":"成功路１１５巷２號","OBJECTID":446058},"geometry":{"x":181572.46999999974,"y":2540430.2699999996}},{"attributes":{"ID":446084,"DIS_CODE":0,"TOWNNAME":"關廟區","LI":"北花里","LIN":"5鄰","STREET":"四維街","SECT":" ","MAREA":" ","LANE":"３５０巷","ALLEY":" ","HOUSE_NO":"５１號","E_COORD97":182023.10999999999,"N_COORD97":2540252.25,"ADDRESS":"四維街３５０巷５１號","OBJECTID":446059},"geometry":{"x":182023.11000000034,"y":2540252.2499999981}},{"attributes":{"ID":446085,"DIS_CODE":0,"TOWNNAME":"關廟區","LI":"北勢里","LIN":"5鄰","STREET":"成功路","SECT":" ","MAREA":" ","LANE":"１１５巷","ALLEY":" ","HOUSE_NO":"１２號","E_COORD97":181568.42000000001,"N_COORD97":2540413.27,"ADDRESS":"成功路１１５巷１２號","OBJECTID":446060},"geometry":{"x":181568.42000000179,"y":2540413.2699999996}},{"attributes":{"ID":446086,"DIS_CODE":0,"TOWNNAME":"關廟區","LI":"北勢里","LIN":"5鄰","STREET":"成功路","SECT":" ","MAREA":" ","LANE":"１１５巷","ALLEY":" ","HOUSE_NO":"１號","E_COORD97":181577.07000000001,"N_COORD97":2540422.27,"ADDRESS":"成功路１１５巷１號","OBJECTID":446061},"geometry":{"x":181577.07000000123,"y":2540422.2700000014}},{"attributes":{"ID":446087,"DIS_CODE":0,"TOWNNAME":"北區","LI":"開元里","LIN":"5鄰","STREET":"北園街","SECT":" ","MAREA":" ","LANE":"１０９巷","ALLEY":" ","HOUSE_NO":"３２號","E_COORD97":170247.73000000001,"N_COORD97":2545917.3799999999,"ADDRESS":"北園街１０９巷３２號","OBJECTID":446062},"geometry":{"x":170247.73000000045,"y":2545917.3800000008}},{"attributes":{"ID":446088,"DIS_CODE":0,"TOWNNAME":"北區","LI":"開元里","LIN":"5鄰","STREET":"北園街","SECT":" ","MAREA":" ","LANE":"１０９巷","ALLEY":" ","HOUSE_NO":"３４號","E_COORD97":170242.70999999999,"N_COORD97":2545917.2200000002,"ADDRESS":"北園街１０９巷３４號","OBJECTID":446063},"geometry":{"x":170242.71000000183,"y":2545917.2200000007}},{"attributes":{"ID":446089,"DIS_CODE":0,"TOWNNAME":"北區","LI":"開元里","LIN":"5鄰","STREET":"北園街","SECT":" ","MAREA":" ","LANE":"１０９巷","ALLEY":" ","HOUSE_NO":"３６號","E_COORD97":170238.91,"N_COORD97":2545917.9500000002,"ADDRESS":"北園街１０９巷３６號","OBJECTID":446064},"geometry":{"x":170238.91000000108,"y":2545917.9499999993}},{"attributes":{"ID":446090,"DIS_CODE":0,"TOWNNAME":"北區","LI":"開元里","LIN":"5鄰","STREET":"北園街","SECT":" ","MAREA":" ","LANE":"１０９巷","ALLEY":" ","HOUSE_NO":"３８號","E_COORD97":170235.67000000001,"N_COORD97":2545918.0299999998,"ADDRESS":"北園街１０９巷３８號","OBJECTID":446065},"geometry":{"x":170235.66999999993,"y":2545918.0299999993}},{"attributes":{"ID":446091,"DIS_CODE":0,"TOWNNAME":"北區","LI":"開元里","LIN":"5鄰","STREET":"北園街","SECT":" ","MAREA":" ","LANE":"１０９巷","ALLEY":" ","HOUSE_NO":"４０號","E_COORD97":170232.28,"N_COORD97":2545918.27,"ADDRESS":"北園街１０９巷４０號","OBJECTID":446066},"geometry":{"x":170232.28000000212,"y":2545918.2700000014}},{"attributes":{"ID":446092,"DIS_CODE":0,"TOWNNAME":"北區","LI":"開元里","LIN":"5鄰","STREET":"北園街","SECT":" ","MAREA":" ","LANE":"１０９巷","ALLEY":" ","HOUSE_NO":"４２號","E_COORD97":170228.31,"N_COORD97":2545918.5099999998,"ADDRESS":"北園街１０９巷４２號","OBJECTID":446067},"geometry":{"x":170228.31000000052,"y":2545918.5099999998}},{"attributes":{"ID":446093,"DIS_CODE":0,"TOWNNAME":"北區","LI":"開元里","LIN":"5鄰","STREET":"北園街","SECT":" ","MAREA":" ","LANE":"１０９巷","ALLEY":" ","HOUSE_NO":"４６號","E_COORD97":170220.54000000001,"N_COORD97":2545918.7599999998,"ADDRESS":"北園街１０９巷４６號","OBJECTID":446068},"geometry":{"x":170220.54000000097,"y":2545918.7600000016}},{"attributes":{"ID":446094,"DIS_CODE":0,"TOWNNAME":"北區","LI":"開元里","LIN":"5鄰","STREET":"北園街","SECT":" ","MAREA":" ","LANE":"１０９巷","ALLEY":" ","HOUSE_NO":"４８號","E_COORD97":170217.23000000001,"N_COORD97":2545918.9199999999,"ADDRESS":"北園街１０９巷４８號","OBJECTID":446069},"geometry":{"x":170217.23000000045,"y":2545918.9199999999}},{"attributes":{"ID":446095,"DIS_CODE":0,"TOWNNAME":"北區","LI":"開元里","LIN":"5鄰","STREET":"北園街","SECT":" ","MAREA":" ","LANE":"１０９巷","ALLEY":" ","HOUSE_NO":"５０號","E_COORD97":170212.60999999999,"N_COORD97":2545919.1600000001,"ADDRESS":"北園街１０９巷５０號","OBJECTID":446070},"geometry":{"x":170212.61000000034,"y":2545919.160000002}},{"attributes":{"ID":446096,"DIS_CODE":0,"TOWNNAME":"北區","LI":"開元里","LIN":"5鄰","STREET":"北園街","SECT":" ","MAREA":" ","LANE":"１０９巷","ALLEY":" ","HOUSE_NO":"５２號","E_COORD97":170207.17999999999,"N_COORD97":2545919.6499999999,"ADDRESS":"北園街１０９巷５２號","OBJECTID":446071},"geometry":{"x":170207.18000000063,"y":2545919.6500000022}},{"attributes":{"ID":446097,"DIS_CODE":0,"TOWNNAME":"北區","LI":"開元里","LIN":"5鄰","STREET":"北園街","SECT":" ","MAREA":" ","LANE":"１０９巷","ALLEY":" ","HOUSE_NO":"５４號","E_COORD97":170203.22,"N_COORD97":2545920.0499999998,"ADDRESS":"北園街１０９巷５４號","OBJECTID":446072},"geometry":{"x":170203.21999999974,"y":2545920.0500000045}},{"attributes":{"ID":446098,"DIS_CODE":0,"TOWNNAME":"北區","LI":"開元里","LIN":"5鄰","STREET":"北園街","SECT":" ","MAREA":" ","LANE":"１０９巷","ALLEY":" ","HOUSE_NO":"５６號","E_COORD97":170199.57999999999,"N_COORD97":2545919.8900000001,"ADDRESS":"北園街１０９巷５６號","OBJECTID":446073},"geometry":{"x":170199.58000000194,"y":2545919.8900000006}},{"attributes":{"ID":446099,"DIS_CODE":0,"TOWNNAME":"北區","LI":"開元里","LIN":"5鄰","STREET":"北園街","SECT":" ","MAREA":" ","LANE":"１０９巷","ALLEY":" ","HOUSE_NO":"５８號","E_COORD97":170196.07999999999,"N_COORD97":2545920.21,"ADDRESS":"北園街１０９巷５８號","OBJECTID":446074},"geometry":{"x":170196.07999999914,"y":2545920.2100000028}},{"attributes":{"ID":446100,"DIS_CODE":0,"TOWNNAME":"北區","LI":"開元里","LIN":"5鄰","STREET":"北園街","SECT":" ","MAREA":" ","LANE":"１０９巷","ALLEY":" ","HOUSE_NO":"６０號","E_COORD97":170192.84,"N_COORD97":2545920.6200000001,"ADDRESS":"北園街１０９巷６０號","OBJECTID":446075},"geometry":{"x":170192.84000000078,"y":2545920.6200000029}},{"attributes":{"ID":446101,"DIS_CODE":0,"TOWNNAME":"北區","LI":"開元里","LIN":"5鄰","STREET":"北園街","SECT":" ","MAREA":" ","LANE":"１０９巷","ALLEY":" ","HOUSE_NO":"６２號","E_COORD97":170188.79999999999,"N_COORD97":2545920.9399999999,"ADDRESS":"北園街１０９巷６２號","OBJECTID":446076},"geometry":{"x":170188.79999999981,"y":2545920.9400000013}},{"attributes":{"ID":446102,"DIS_CODE":0,"TOWNNAME":"北區","LI":"開元里","LIN":"5鄰","STREET":"北園街","SECT":" ","MAREA":" ","LANE":"１０９巷","ALLEY":" ","HOUSE_NO":"６４號","E_COORD97":170185.14999999999,"N_COORD97":2545920.7799999998,"ADDRESS":"北園街１０９巷６４號","OBJECTID":446077},"geometry":{"x":170185.15000000037,"y":2545920.7800000012}},{"attributes":{"ID":446103,"DIS_CODE":0,"TOWNNAME":"北區","LI":"開元里","LIN":"5鄰","STREET":"北園街","SECT":" ","MAREA":" ","LANE":"１０９巷","ALLEY":" ","HOUSE_NO":"６６號","E_COORD97":170181.10999999999,"N_COORD97":2545920.9399999999,"ADDRESS":"北園街１０９巷６６號","OBJECTID":446078},"geometry":{"x":170181.1100000022,"y":2545920.9400000013}},{"attributes":{"ID":446104,"DIS_CODE":0,"TOWNNAME":"北區","LI":"開元里","LIN":"5鄰","STREET":"北園街","SECT":" ","MAREA":" ","LANE":"１０９巷","ALLEY":" ","HOUSE_NO":"６８號","E_COORD97":170178.03,"N_COORD97":2545921.3399999999,"ADDRESS":"北園街１０９巷６８號","OBJECTID":446079},"geometry":{"x":170178.02999999933,"y":2545921.3400000017}},{"attributes":{"ID":446105,"DIS_CODE":0,"TOWNNAME":"北區","LI":"開元里","LIN":"5鄰","STREET":"北園街","SECT":" ","MAREA":" ","LANE":"１０９巷","ALLEY":" ","HOUSE_NO":"７０號","E_COORD97":170174.62,"N_COORD97":2545921.27,"ADDRESS":"北園街１０９巷７０號","OBJECTID":446080},"geometry":{"x":170174.62000000104,"y":2545921.2700000014}},{"attributes":{"ID":446106,"DIS_CODE":0,"TOWNNAME":"北區","LI":"開元里","LIN":"5鄰","STREET":"北園街","SECT":" ","MAREA":" ","LANE":"１０９巷","ALLEY":" ","HOUSE_NO":"７２號","E_COORD97":170170.41,"N_COORD97":2545922.7200000002,"ADDRESS":"北園街１０９巷７２號","OBJECTID":446081},"geometry":{"x":170170.41000000201,"y":2545922.7200000025}},{"attributes":{"ID":446107,"DIS_CODE":0,"TOWNNAME":"北區","LI":"開元里","LIN":"5鄰","STREET":"北園街","SECT":" ","MAREA":" ","LANE":"１０９巷","ALLEY":" ","HOUSE_NO":"１０號","E_COORD97":170302.42000000001,"N_COORD97":2545919.4700000002,"ADDRESS":"北園街１０９巷１０號","OBJECTID":446082},"geometry":{"x":170302.42000000086,"y":2545919.4700000007}},{"attributes":{"ID":446108,"DIS_CODE":0,"TOWNNAME":"北區","LI":"開元里","LIN":"5鄰","STREET":"北園街","SECT":" ","MAREA":" ","LANE":"１０９巷","ALLEY":" ","HOUSE_NO":"１２號","E_COORD97":170298.89999999999,"N_COORD97":2545920.1800000002,"ADDRESS":"北園街１０９巷１２號","OBJECTID":446083},"geometry":{"x":170298.90000000037,"y":2545920.1799999997}},{"attributes":{"ID":446109,"DIS_CODE":0,"TOWNNAME":"北區","LI":"開元里","LIN":"5鄰","STREET":"北園街","SECT":" ","MAREA":" ","LANE":"１０９巷","ALLEY":" ","HOUSE_NO":"１４號","E_COORD97":170295.03,"N_COORD97":2545921.4100000001,"ADDRESS":"北園街１０９巷１４號","OBJECTID":446084},"geometry":{"x":170295.03000000212,"y":2545921.410000002}},{"attributes":{"ID":446110,"DIS_CODE":0,"TOWNNAME":"北區","LI":"開元里","LIN":"5鄰","STREET":"北園街","SECT":" ","MAREA":" ","LANE":"１０９巷","ALLEY":" ","HOUSE_NO":"１６號","E_COORD97":170289.67000000001,"N_COORD97":2545921.3199999998,"ADDRESS":"北園街１０９巷１６號","OBJECTID":446085},"geometry":{"x":170289.66999999993,"y":2545921.3200000022}},{"attributes":{"ID":446111,"DIS_CODE":0,"TOWNNAME":"北區","LI":"開元里","LIN":"5鄰","STREET":"北園街","SECT":" ","MAREA":" ","LANE":"１０９巷","ALLEY":" ","HOUSE_NO":"１８號","E_COORD97":170285.98999999999,"N_COORD97":2545921.6699999999,"ADDRESS":"北園街１０９巷１８號","OBJECTID":446086},"geometry":{"x":170285.99000000022,"y":2545921.6700000037}},{"attributes":{"ID":446112,"DIS_CODE":0,"TOWNNAME":"北區","LI":"開元里","LIN":"5鄰","STREET":"北園街","SECT":" ","MAREA":" ","LANE":"１０９巷","ALLEY":" ","HOUSE_NO":"２０號","E_COORD97":170281.06,"N_COORD97":2545922.02,"ADDRESS":"北園街１０９巷２０號","OBJECTID":446087},"geometry":{"x":170281.06000000052,"y":2545922.0199999977}},{"attributes":{"ID":446113,"DIS_CODE":0,"TOWNNAME":"北區","LI":"開元里","LIN":"5鄰","STREET":"北園街","SECT":" ","MAREA":" ","LANE":"１０９巷","ALLEY":" ","HOUSE_NO":"２２號","E_COORD97":170276.13,"N_COORD97":2545922.3700000001,"ADDRESS":"北園街１０９巷２２號","OBJECTID":446088},"geometry":{"x":170276.13000000082,"y":2545922.3700000029}},{"attributes":{"ID":446114,"DIS_CODE":0,"TOWNNAME":"北區","LI":"開元里","LIN":"5鄰","STREET":"北園街","SECT":" ","MAREA":" ","LANE":"１０９巷","ALLEY":" ","HOUSE_NO":"２４號","E_COORD97":170272.35000000001,"N_COORD97":2545922.9900000002,"ADDRESS":"北園街１０９巷２４號","OBJECTID":446089},"geometry":{"x":170272.35000000056,"y":2545922.9899999984}},{"attributes":{"ID":446115,"DIS_CODE":0,"TOWNNAME":"北區","LI":"開元里","LIN":"5鄰","STREET":"北園街","SECT":" ","MAREA":" ","LANE":"１０９巷","ALLEY":" ","HOUSE_NO":"２６號","E_COORD97":170267.87,"N_COORD97":2545923.3399999999,"ADDRESS":"北園街１０９巷２６號","OBJECTID":446090},"geometry":{"x":170267.87000000104,"y":2545923.3399999999}},{"attributes":{"ID":446116,"DIS_CODE":0,"TOWNNAME":"北區","LI":"開元里","LIN":"5鄰","STREET":"北園街","SECT":" ","MAREA":" ","LANE":"１０９巷","ALLEY":" ","HOUSE_NO":"２８號","E_COORD97":170264.17000000001,"N_COORD97":2545923.96,"ADDRESS":"北園街１０９巷２８號","OBJECTID":446091},"geometry":{"x":170264.16999999993,"y":2545923.9600000046}},{"attributes":{"ID":446117,"DIS_CODE":0,"TOWNNAME":"北區","LI":"開元里","LIN":"5鄰","STREET":"北園街","SECT":" ","MAREA":" ","LANE":"１０９巷","ALLEY":" ","HOUSE_NO":"２號","E_COORD97":170319.87,"N_COORD97":2545917.1800000002,"ADDRESS":"北園街１０９巷２號","OBJECTID":446092},"geometry":{"x":170319.87000000104,"y":2545917.1799999997}},{"attributes":{"ID":446118,"DIS_CODE":0,"TOWNNAME":"北區","LI":"開元里","LIN":"5鄰","STREET":"北園街","SECT":" ","MAREA":" ","LANE":"１０９巷","ALLEY":" ","HOUSE_NO":"３０號","E_COORD97":170259.85999999999,"N_COORD97":2545924.2200000002,"ADDRESS":"北園街１０９巷３０號","OBJECTID":446093},"geometry":{"x":170259.86000000034,"y":2545924.2200000007}},{"attributes":{"ID":446119,"DIS_CODE":0,"TOWNNAME":"北區","LI":"開元里","LIN":"5鄰","STREET":"北園街","SECT":" ","MAREA":" ","LANE":"１０９巷","ALLEY":" ","HOUSE_NO":"４號","E_COORD97":170315.56,"N_COORD97":2545918.23,"ADDRESS":"北園街１０９巷４號","OBJECTID":446094},"geometry":{"x":170315.55999999959,"y":2545918.2299999986}},{"attributes":{"ID":446120,"DIS_CODE":0,"TOWNNAME":"北區","LI":"開元里","LIN":"5鄰","STREET":"北園街","SECT":" ","MAREA":" ","LANE":"１０９巷","ALLEY":" ","HOUSE_NO":"６號","E_COORD97":170311.60000000001,"N_COORD97":2545918.7599999998,"ADDRESS":"北園街１０９巷６號","OBJECTID":446095},"geometry":{"x":170311.60000000056,"y":2545918.7600000016}},{"attributes":{"ID":446121,"DIS_CODE":0,"TOWNNAME":"北區","LI":"開元里","LIN":"5鄰","STREET":"北園街","SECT":" ","MAREA":" ","LANE":"１０９巷","ALLEY":" ","HOUSE_NO":"８號","E_COORD97":170307.07999999999,"N_COORD97":2545918.77,"ADDRESS":"北園街１０９巷８號","OBJECTID":446096},"geometry":{"x":170307.08000000101,"y":2545918.7700000014}},{"attributes":{"ID":446122,"DIS_CODE":0,"TOWNNAME":"新營區","LI":"民生里","LIN":"5鄰","STREET":"中華路","SECT":" ","MAREA":" ","LANE":"７６巷","ALLEY":" ","HOUSE_NO":"１０號","E_COORD97":179414.29000000001,"N_COORD97":2578257.6600000001,"ADDRESS":"中華路７６巷１０號","OBJECTID":446097},"geometry":{"x":179414.29000000004,"y":2578257.660000002}},{"attributes":{"ID":446123,"DIS_CODE":0,"TOWNNAME":"新營區","LI":"新東里","LIN":"5鄰","STREET":"東大街","SECT":" ","MAREA":" ","LANE":"５２巷","ALLEY":" ","HOUSE_NO":"３３號","E_COORD97":181101.19,"N_COORD97":2579157.8300000001,"ADDRESS":"東大街５２巷３３號","OBJECTID":446098},"geometry":{"x":181101.19000000134,"y":2579157.8300000019}},{"attributes":{"ID":446124,"DIS_CODE":0,"TOWNNAME":"新營區","LI":"民榮里","LIN":"5鄰","STREET":"復興路","SECT":" ","MAREA":" ","LANE":"１３５巷","ALLEY":" ","HOUSE_NO":"２２號","E_COORD97":179319.39999999999,"N_COORD97":2577863.8500000001,"ADDRESS":"復興路１３５巷２２號","OBJECTID":446099},"geometry":{"x":179319.40000000037,"y":2577863.8499999996}},{"attributes":{"ID":446125,"DIS_CODE":0,"TOWNNAME":"新營區","LI":"民榮里","LIN":"5鄰","STREET":"和平路","SECT":" ","MAREA":" ","LANE":"３２巷","ALLEY":" ","HOUSE_NO":"３２號","E_COORD97":179295.66,"N_COORD97":2577816.3500000001,"ADDRESS":"和平路３２巷３２號","OBJECTID":446100},"geometry":{"x":179295.66000000201,"y":2577816.3499999996}},{"attributes":{"ID":446126,"DIS_CODE":0,"TOWNNAME":"新營區","LI":"南紙里","LIN":"5鄰","STREET":"南紙街","SECT":" ","MAREA":" ","LANE":"２９巷","ALLEY":" ","HOUSE_NO":"１２號","E_COORD97":177872.26000000001,"N_COORD97":2577724.6499999999,"ADDRESS":"南紙街２９巷１２號","OBJECTID":446101},"geometry":{"x":177872.26000000164,"y":2577724.6500000022}},{"attributes":{"ID":446127,"DIS_CODE":0,"TOWNNAME":"新營區","LI":"興業里","LIN":"5鄰","STREET":"公誠街","SECT":" ","MAREA":" ","LANE":"１１巷","ALLEY":" ","HOUSE_NO":"１２之３號","E_COORD97":180346.20000000001,"N_COORD97":2577958.7200000002,"ADDRESS":"公誠街１１巷１２之３號","OBJECTID":446102},"geometry":{"x":180346.19999999925,"y":2577958.7200000025}},{"attributes":{"ID":446128,"DIS_CODE":0,"TOWNNAME":"新營區","LI":"新東里","LIN":"5鄰","STREET":"東大街","SECT":" ","MAREA":" ","LANE":"５２巷","ALLEY":" ","HOUSE_NO":"１１號","E_COORD97":181053,"N_COORD97":2579150.2999999998,"ADDRESS":"東大街５２巷１１號","OBJECTID":446103},"geometry":{"x":181053.00000000093,"y":2579150.3000000007}},{"attributes":{"ID":446129,"DIS_CODE":0,"TOWNNAME":"新營區","LI":"新東里","LIN":"5鄰","STREET":"東大街","SECT":" ","MAREA":" ","LANE":"５２巷","ALLEY":" ","HOUSE_NO":"２５號","E_COORD97":181081.70999999999,"N_COORD97":2579151.27,"ADDRESS":"東大街５２巷２５號","OBJECTID":446104},"geometry":{"x":181081.71000000183,"y":2579151.2700000014}},{"attributes":{"ID":446130,"DIS_CODE":0,"TOWNNAME":"新營區","LI":"民榮里","LIN":"5鄰","STREET":"復興路","SECT":" ","MAREA":" ","LANE":"１３５巷","ALLEY":" ","HOUSE_NO":"２４號","E_COORD97":179328.51999999999,"N_COORD97":2577847.2000000002,"ADDRESS":"復興路１３５巷２４號","OBJECTID":446105},"geometry":{"x":179328.52000000048,"y":2577847.1999999993}},{"attributes":{"ID":446131,"DIS_CODE":0,"TOWNNAME":"新營區","LI":"民榮里","LIN":"5鄰","STREET":"復興路","SECT":" ","MAREA":" ","LANE":"１３５巷","ALLEY":" ","HOUSE_NO":"１８號","E_COORD97":179321.53,"N_COORD97":2577897.0699999998,"ADDRESS":"復興路１３５巷１８號","OBJECTID":446106},"geometry":{"x":179321.53000000026,"y":2577897.0700000003}},{"attributes":{"ID":446132,"DIS_CODE":0,"TOWNNAME":"新營區","LI":"民榮里","LIN":"5鄰","STREET":"復興路","SECT":" ","MAREA":" ","LANE":"１３５巷","ALLEY":" ","HOUSE_NO":"１２號","E_COORD97":179326.76000000001,"N_COORD97":2577921.4100000001,"ADDRESS":"復興路１３５巷１２號","OBJECTID":446107},"geometry":{"x":179326.76000000164,"y":2577921.4100000001}},{"attributes":{"ID":446133,"DIS_CODE":0,"TOWNNAME":"新營區","LI":"新東里","LIN":"5鄰","STREET":"東大街","SECT":" ","MAREA":" ","LANE":"５２巷","ALLEY":" ","HOUSE_NO":"２３號","E_COORD97":181077.62,"N_COORD97":2579152.3999999999,"ADDRESS":"東大街５２巷２３號","OBJECTID":446108},"geometry":{"x":181077.62000000104,"y":2579152.4000000004}},{"attributes":{"ID":446134,"DIS_CODE":0,"TOWNNAME":"北區","LI":"光武里","LIN":"5鄰","STREET":"長榮路","SECT":"五段","MAREA":" ","LANE":"３８３巷","ALLEY":" ","HOUSE_NO":"１０號之１","E_COORD97":169523.07999999999,"N_COORD97":2545914.1099999999,"ADDRESS":"長榮路五段３８３巷１０號之１","OBJECTID":446109},"geometry":{"x":169523.08000000007,"y":2545914.1099999994}},{"attributes":{"ID":446135,"DIS_CODE":0,"TOWNNAME":"北區","LI":"光武里","LIN":"5鄰","STREET":"長榮路","SECT":"五段","MAREA":" ","LANE":"３８３巷","ALLEY":" ","HOUSE_NO":"１１號","E_COORD97":169528.39000000001,"N_COORD97":2545894.9399999999,"ADDRESS":"長榮路五段３８３巷１１號","OBJECTID":446110},"geometry":{"x":169528.38999999966,"y":2545894.9399999995}},{"attributes":{"ID":446136,"DIS_CODE":0,"TOWNNAME":"北區","LI":"光武里","LIN":"5鄰","STREET":"長榮路","SECT":"五段","MAREA":" ","LANE":"３８３巷","ALLEY":" ","HOUSE_NO":"１１號之１","E_COORD97":169545.97,"N_COORD97":2545892.8300000001,"ADDRESS":"長榮路五段３８３巷１１號之１","OBJECTID":446111},"geometry":{"x":169545.97000000067,"y":2545892.8300000001}},{"attributes":{"ID":446137,"DIS_CODE":0,"TOWNNAME":"北區","LI":"光武里","LIN":"5鄰","STREET":"長榮路","SECT":"五段","MAREA":" ","LANE":"３８３巷","ALLEY":" ","HOUSE_NO":"１１號之１０","E_COORD97":169523.32999999999,"N_COORD97":2545868.6600000001,"ADDRESS":"長榮路五段３８３巷１１號之１０","OBJECTID":446112},"geometry":{"x":169523.33000000194,"y":2545868.660000002}},{"attributes":{"ID":446138,"DIS_CODE":0,"TOWNNAME":"北區","LI":"光武里","LIN":"5鄰","STREET":"長榮路","SECT":"五段","MAREA":" ","LANE":"３８３巷","ALLEY":" ","HOUSE_NO":"１１號之４","E_COORD97":169541.70999999999,"N_COORD97":2545854.5899999999,"ADDRESS":"長榮路五段３８３巷１１號之４","OBJECTID":446113},"geometry":{"x":169541.71000000089,"y":2545854.5900000017}},{"attributes":{"ID":446139,"DIS_CODE":0,"TOWNNAME":"北區","LI":"光武里","LIN":"5鄰","STREET":"長榮路","SECT":"五段","MAREA":" ","LANE":"３８３巷","ALLEY":" ","HOUSE_NO":"１１號之９","E_COORD97":169522.60999999999,"N_COORD97":2545862.7000000002,"ADDRESS":"長榮路五段３８３巷１１號之９","OBJECTID":446114},"geometry":{"x":169522.61000000034,"y":2545862.6999999993}},{"attributes":{"ID":446140,"DIS_CODE":0,"TOWNNAME":"北區","LI":"光武里","LIN":"5鄰","STREET":"長榮路","SECT":"五段","MAREA":" ","LANE":"３８３巷","ALLEY":" ","HOUSE_NO":"１２號","E_COORD97":169521.84,"N_COORD97":2545902.8599999999,"ADDRESS":"長榮路五段３８３巷１２號","OBJECTID":446115},"geometry":{"x":169521.84000000078,"y":2545902.8600000031}},{"attributes":{"ID":446141,"DIS_CODE":0,"TOWNNAME":"北區","LI":"光武里","LIN":"5鄰","STREET":"長榮路","SECT":"五段","MAREA":" ","LANE":"３８３巷","ALLEY":" ","HOUSE_NO":"１４號","E_COORD97":169519.89000000001,"N_COORD97":2545895.6499999999,"ADDRESS":"長榮路五段３８３巷１４號","OBJECTID":446116},"geometry":{"x":169519.88999999966,"y":2545895.6500000022}},{"attributes":{"ID":446142,"DIS_CODE":0,"TOWNNAME":"北區","LI":"光武里","LIN":"5鄰","STREET":"長榮路","SECT":"五段","MAREA":" ","LANE":"３８３巷","ALLEY":" ","HOUSE_NO":"１６號","E_COORD97":169519.17999999999,"N_COORD97":2545892.4500000002,"ADDRESS":"長榮路五段３８３巷１６號","OBJECTID":446117},"geometry":{"x":169519.18000000063,"y":2545892.4500000011}},{"attributes":{"ID":446143,"DIS_CODE":0,"TOWNNAME":"北區","LI":"光武里","LIN":"5鄰","STREET":"長榮路","SECT":"五段","MAREA":" ","LANE":"３８３巷","ALLEY":" ","HOUSE_NO":"１８號","E_COORD97":169518.79000000001,"N_COORD97":2545890.3599999999,"ADDRESS":"長榮路五段３８３巷１８號","OBJECTID":446118},"geometry":{"x":169518.79000000097,"y":2545890.3600000013}},{"attributes":{"ID":446144,"DIS_CODE":0,"TOWNNAME":"北區","LI":"光武里","LIN":"5鄰","STREET":"長榮路","SECT":"五段","MAREA":" ","LANE":"３８３巷","ALLEY":" ","HOUSE_NO":"２０號","E_COORD97":169518.54999999999,"N_COORD97":2545886.7799999998,"ADDRESS":"長榮路五段３８３巷２０號","OBJECTID":446119},"geometry":{"x":169518.55000000075,"y":2545886.7800000012}},{"attributes":{"ID":446145,"DIS_CODE":0,"TOWNNAME":"北區","LI":"光武里","LIN":"5鄰","STREET":"長榮路","SECT":"五段","MAREA":" ","LANE":"３８３巷","ALLEY":" ","HOUSE_NO":"２２號","E_COORD97":169518.07999999999,"N_COORD97":2545883.9199999999,"ADDRESS":"長榮路五段３８３巷２２號","OBJECTID":446120},"geometry":{"x":169518.08000000194,"y":2545883.9200000018}},{"attributes":{"ID":446146,"DIS_CODE":0,"TOWNNAME":"北區","LI":"光武里","LIN":"5鄰","STREET":"長榮路","SECT":"五段","MAREA":" ","LANE":"３８３巷","ALLEY":" ","HOUSE_NO":"２４號","E_COORD97":169517.35999999999,"N_COORD97":2545881.0600000001,"ADDRESS":"長榮路五段３８３巷２４號","OBJECTID":446121},"geometry":{"x":169517.36000000034,"y":2545881.0600000005}},{"attributes":{"ID":446147,"DIS_CODE":0,"TOWNNAME":"北區","LI":"光武里","LIN":"5鄰","STREET":"長榮路","SECT":"五段","MAREA":" ","LANE":"３８３巷","ALLEY":" ","HOUSE_NO":"２６號","E_COORD97":169515.92999999999,"N_COORD97":2545878.2000000002,"ADDRESS":"長榮路五段３８３巷２６號","OBJECTID":446122},"geometry":{"x":169515.93000000063,"y":2545878.2000000011}},{"attributes":{"ID":446148,"DIS_CODE":0,"TOWNNAME":"北區","LI":"光武里","LIN":"5鄰","STREET":"長榮路","SECT":"五段","MAREA":" ","LANE":"３８３巷","ALLEY":" ","HOUSE_NO":"２８號","E_COORD97":169515.92999999999,"N_COORD97":2545875.1000000001,"ADDRESS":"長榮路五段３８３巷２８號","OBJECTID":446123},"geometry":{"x":169515.93000000063,"y":2545875.1000000015}},{"attributes":{"ID":446149,"DIS_CODE":0,"TOWNNAME":"北區","LI":"光武里","LIN":"5鄰","STREET":"長榮路","SECT":"五段","MAREA":" ","LANE":"３８３巷","ALLEY":" ","HOUSE_NO":"３０號","E_COORD97":169515.20999999999,"N_COORD97":2545872,"ADDRESS":"長榮路五段３８３巷３０號","OBJECTID":446124},"geometry":{"x":169515.20999999996,"y":2545872.0000000037}},{"attributes":{"ID":446150,"DIS_CODE":0,"TOWNNAME":"北區","LI":"光武里","LIN":"5鄰","STREET":"長榮路","SECT":"五段","MAREA":" ","LANE":"３８３巷","ALLEY":" ","HOUSE_NO":"３２號","E_COORD97":169514.5,"N_COORD97":2545869.1400000001,"ADDRESS":"長榮路五段３８３巷３２號","OBJECTID":446125},"geometry":{"x":169514.5,"y":2545869.1400000025}},{"attributes":{"ID":446151,"DIS_CODE":0,"TOWNNAME":"北區","LI":"光武里","LIN":"5鄰","STREET":"長榮路","SECT":"五段","MAREA":" ","LANE":"３８３巷","ALLEY":" ","HOUSE_NO":"５７號","E_COORD97":169522.60999999999,"N_COORD97":2545853.3999999999,"ADDRESS":"長榮路五段３８３巷５７號","OBJECTID":446126},"geometry":{"x":169522.61000000034,"y":2545853.4000000022}},{"attributes":{"ID":446152,"DIS_CODE":0,"TOWNNAME":"北區","LI":"光武里","LIN":"5鄰","STREET":"長榮路","SECT":"五段","MAREA":" ","LANE":"３８３巷","ALLEY":" ","HOUSE_NO":"５９號","E_COORD97":169519.26999999999,"N_COORD97":2545854.1099999999,"ADDRESS":"長榮路五段３８３巷５９號","OBJECTID":446127},"geometry":{"x":169519.26999999955,"y":2545854.1100000013}},{"attributes":{"ID":446153,"DIS_CODE":0,"TOWNNAME":"北區","LI":"長德里","LIN":"5鄰","STREET":"公園南路","SECT":" ","MAREA":" ","LANE":"２２２巷","ALLEY":" ","HOUSE_NO":"１２號","E_COORD97":168587.60999999999,"N_COORD97":2544763.6000000001,"ADDRESS":"公園南路２２２巷１２號","OBJECTID":446128},"geometry":{"x":168587.6100000022,"y":2544763.6000000015}},{"attributes":{"ID":446154,"DIS_CODE":0,"TOWNNAME":"北區","LI":"長德里","LIN":"5鄰","STREET":"公園南路","SECT":" ","MAREA":" ","LANE":"２２２巷","ALLEY":" ","HOUSE_NO":"１６號","E_COORD97":168584.82000000001,"N_COORD97":2544766.3900000001,"ADDRESS":"公園南路２２２巷１６號","OBJECTID":446129},"geometry":{"x":168584.82000000123,"y":2544766.3900000025}},{"attributes":{"ID":446155,"DIS_CODE":0,"TOWNNAME":"北區","LI":"長德里","LIN":"5鄰","STREET":"公園南路","SECT":" ","MAREA":" ","LANE":"２２２巷","ALLEY":" ","HOUSE_NO":"１８號","E_COORD97":168580.63,"N_COORD97":2544771.96,"ADDRESS":"公園南路２２２巷１８號","OBJECTID":446130},"geometry":{"x":168580.63000000082,"y":2544771.9600000028}},{"attributes":{"ID":446156,"DIS_CODE":0,"TOWNNAME":"北區","LI":"長德里","LIN":"5鄰","STREET":"公園南路","SECT":" ","MAREA":" ","LANE":"２２２巷","ALLEY":" ","HOUSE_NO":"２２號","E_COORD97":168569.47,"N_COORD97":2544778.9300000002,"ADDRESS":"公園南路２２２巷２２號","OBJECTID":446131},"geometry":{"x":168569.47000000067,"y":2544778.9299999997}},{"attributes":{"ID":446157,"DIS_CODE":0,"TOWNNAME":"北區","LI":"長德里","LIN":"5鄰","STREET":"公園南路","SECT":" ","MAREA":" ","LANE":"２２２巷","ALLEY":" ","HOUSE_NO":"２６號","E_COORD97":168568.54000000001,"N_COORD97":2544782.6499999999,"ADDRESS":"公園南路２２２巷２６號","OBJECTID":446132},"geometry":{"x":168568.54000000004,"y":2544782.6500000004}},{"attributes":{"ID":446158,"DIS_CODE":0,"TOWNNAME":"北區","LI":"長德里","LIN":"5鄰","STREET":"公園南路","SECT":" ","MAREA":" ","LANE":"２２２巷","ALLEY":" ","HOUSE_NO":"２８號","E_COORD97":168567.60999999999,"N_COORD97":2544786.8300000001,"ADDRESS":"公園南路２２２巷２８號","OBJECTID":446133},"geometry":{"x":168567.61000000127,"y":2544786.8300000001}},{"attributes":{"ID":446159,"DIS_CODE":0,"TOWNNAME":"北區","LI":"長德里","LIN":"5鄰","STREET":"公園南路","SECT":" ","MAREA":" ","LANE":"２２２巷","ALLEY":" ","HOUSE_NO":"３０號","E_COORD97":168566.22,"N_COORD97":2544790.0800000001,"ADDRESS":"公園南路２２２巷３０號","OBJECTID":446134},"geometry":{"x":168566.22000000067,"y":2544790.0800000038}},{"attributes":{"ID":446160,"DIS_CODE":0,"TOWNNAME":"北區","LI":"長德里","LIN":"5鄰","STREET":"公園南路","SECT":" ","MAREA":" ","LANE":"２２２巷","ALLEY":" ","HOUSE_NO":"８號","E_COORD97":168592.73000000001,"N_COORD97":2544752.4500000002,"ADDRESS":"公園南路２２２巷８號","OBJECTID":446135},"geometry":{"x":168592.73000000138,"y":2544752.4499999993}},{"attributes":{"ID":446161,"DIS_CODE":0,"TOWNNAME":"北區","LI":"成德里","LIN":"5鄰","STREET":"西門路","SECT":"四段","MAREA":" ","LANE":"７巷","ALLEY":" ","HOUSE_NO":"６８號","E_COORD97":168452.66,"N_COORD97":2545312.04,"ADDRESS":"西門路四段７巷６８號","OBJECTID":446136},"geometry":{"x":168452.66000000015,"y":2545312.040000001}},{"attributes":{"ID":446162,"DIS_CODE":0,"TOWNNAME":"鹽水區","LI":"中境里","LIN":"5鄰","STREET":"中山路","SECT":" ","MAREA":" ","LANE":"４巷","ALLEY":" ","HOUSE_NO":"１０號","E_COORD97":175079.51999999999,"N_COORD97":2579965.1499999999,"ADDRESS":"中山路４巷１０號","OBJECTID":446137},"geometry":{"x":175079.51999999955,"y":2579965.1500000041}},{"attributes":{"ID":446163,"DIS_CODE":0,"TOWNNAME":"關廟區","LI":"布袋里","LIN":"5鄰","STREET":"南雄南路","SECT":" ","MAREA":" ","LANE":"１７５巷","ALLEY":" ","HOUSE_NO":"１６號","E_COORD97":183200.48999999999,"N_COORD97":2535578.25,"ADDRESS":"南雄南路１７５巷１６號","OBJECTID":446138},"geometry":{"x":183200.49000000022,"y":2535578.2500000019}},{"attributes":{"ID":446164,"DIS_CODE":0,"TOWNNAME":"關廟區","LI":"松腳里","LIN":"5鄰","STREET":"中山路","SECT":"一段","MAREA":" ","LANE":"２１巷","ALLEY":" ","HOUSE_NO":"４１號","E_COORD97":182072.35999999999,"N_COORD97":2539843.2799999998,"ADDRESS":"中山路一段２１巷４１號","OBJECTID":446139},"geometry":{"x":182072.36000000034,"y":2539843.2799999993}},{"attributes":{"ID":446165,"DIS_CODE":0,"TOWNNAME":"關廟區","LI":"松腳里","LIN":"5鄰","STREET":"中山路","SECT":"一段","MAREA":" ","LANE":"２１巷","ALLEY":" ","HOUSE_NO":"３號","E_COORD97":182071.10999999999,"N_COORD97":2539926.2799999998,"ADDRESS":"中山路一段２１巷３號","OBJECTID":446140},"geometry":{"x":182071.1100000022,"y":2539926.2800000031}},{"attributes":{"ID":446166,"DIS_CODE":0,"TOWNNAME":"關廟區","LI":"山西里","LIN":"5鄰","STREET":"正義街","SECT":" ","MAREA":" ","LANE":"３９巷","ALLEY":" ","HOUSE_NO":"１號","E_COORD97":180779.35999999999,"N_COORD97":2540269.27,"ADDRESS":"正義街３９巷１號","OBJECTID":446141},"geometry":{"x":180779.3600000022,"y":2540269.2700000014}},{"attributes":{"ID":446167,"DIS_CODE":0,"TOWNNAME":"關廟區","LI":"五甲里","LIN":"5鄰","STREET":"五甲路","SECT":" ","MAREA":" ","LANE":"２１巷","ALLEY":" ","HOUSE_NO":"１５號","E_COORD97":181279.67000000001,"N_COORD97":2539033.25,"ADDRESS":"五甲路２１巷１５號","OBJECTID":446142},"geometry":{"x":181279.66999999993,"y":2539033.2500000019}},{"attributes":{"ID":446168,"DIS_CODE":0,"TOWNNAME":"關廟區","LI":"松腳里","LIN":"5鄰","STREET":"中山路","SECT":"一段","MAREA":" ","LANE":"２１巷","ALLEY":" ","HOUSE_NO":"３９號","E_COORD97":182072.35999999999,"N_COORD97":2539847.2799999998,"ADDRESS":"中山路一段２１巷３９號","OBJECTID":446143},"geometry":{"x":182072.36000000034,"y":2539847.2799999993}},{"attributes":{"ID":446169,"DIS_CODE":0,"TOWNNAME":"關廟區","LI":"北勢里","LIN":"5鄰","STREET":"中正路","SECT":" ","MAREA":" ","LANE":"７３８巷","ALLEY":" ","HOUSE_NO":"２７號","E_COORD97":181597.81,"N_COORD97":2540361.25,"ADDRESS":"中正路７３８巷２７號","OBJECTID":446144},"geometry":{"x":181597.81000000145,"y":2540361.2500000019}},{"attributes":{"ID":446170,"DIS_CODE":0,"TOWNNAME":"關廟區","LI":"松腳里","LIN":"5鄰","STREET":"中山路","SECT":"一段","MAREA":" ","LANE":"２１巷","ALLEY":" ","HOUSE_NO":"２１號","E_COORD97":182073.45999999999,"N_COORD97":2539889.2799999998,"ADDRESS":"中山路一段２１巷２１號","OBJECTID":446145},"geometry":{"x":182073.46000000183,"y":2539889.2800000012}},{"attributes":{"ID":446171,"DIS_CODE":0,"TOWNNAME":"關廟區","LI":"五甲里","LIN":"5鄰","STREET":"五甲路","SECT":" ","MAREA":" ","LANE":"５５巷","ALLEY":" ","HOUSE_NO":"８號","E_COORD97":181023.12,"N_COORD97":2538802.25,"ADDRESS":"五甲路５５巷８號","OBJECTID":446146},"geometry":{"x":181023.12000000197,"y":2538802.2500000019}},{"attributes":{"ID":446172,"DIS_CODE":0,"TOWNNAME":"關廟區","LI":"北花里","LIN":"5鄰","STREET":"園東街","SECT":" ","MAREA":" ","LANE":"１１２巷","ALLEY":" ","HOUSE_NO":"１號","E_COORD97":182050.70999999999,"N_COORD97":2540192.25,"ADDRESS":"園東街１１２巷１號","OBJECTID":446147},"geometry":{"x":182050.70999999996,"y":2540192.2500000019}},{"attributes":{"ID":446173,"DIS_CODE":0,"TOWNNAME":"關廟區","LI":"北勢里","LIN":"5鄰","STREET":"中正路","SECT":" ","MAREA":" ","LANE":"７３８巷","ALLEY":" ","HOUSE_NO":"２９號","E_COORD97":181599.70999999999,"N_COORD97":2540365.25,"ADDRESS":"中正路７３８巷２９號","OBJECTID":446148},"geometry":{"x":181599.70999999996,"y":2540365.2500000019}},{"attributes":{"ID":446174,"DIS_CODE":0,"TOWNNAME":"關廟區","LI":"深坑里","LIN":"5鄰","STREET":"深坑一街","SECT":" ","MAREA":" ","LANE":"１３巷","ALLEY":" ","HOUSE_NO":"５２號","E_COORD97":181823.17000000001,"N_COORD97":2537710.2799999998,"ADDRESS":"深坑一街１３巷５２號","OBJECTID":446149},"geometry":{"x":181823.17000000086,"y":2537710.2800000012}},{"attributes":{"ID":446175,"DIS_CODE":0,"TOWNNAME":"關廟區","LI":"深坑里","LIN":"5鄰","STREET":"深坑一街","SECT":" ","MAREA":" ","LANE":"１３巷","ALLEY":" ","HOUSE_NO":"３６號","E_COORD97":181869.17000000001,"N_COORD97":2537692.2799999998,"ADDRESS":"深坑一街１３巷３６號","OBJECTID":446150},"geometry":{"x":181869.17000000086,"y":2537692.2800000012}},{"attributes":{"ID":446176,"DIS_CODE":0,"TOWNNAME":"關廟區","LI":"布袋里","LIN":"5鄰","STREET":"長文街","SECT":" ","MAREA":" ","LANE":"６１巷","ALLEY":" ","HOUSE_NO":"７號","E_COORD97":183015.09,"N_COORD97":2535440.25,"ADDRESS":"長文街６１巷７號","OBJECTID":446151},"geometry":{"x":183015.09000000078,"y":2535440.25}},{"attributes":{"ID":446177,"DIS_CODE":0,"TOWNNAME":"關廟區","LI":"北花里","LIN":"5鄰","STREET":"園東街","SECT":" ","MAREA":" ","LANE":"１１８巷","ALLEY":" ","HOUSE_NO":"１０號","E_COORD97":182088.06,"N_COORD97":2540213.25,"ADDRESS":"園東街１１８巷１０號","OBJECTID":446152},"geometry":{"x":182088.06000000052,"y":2540213.2500000019}},{"attributes":{"ID":446178,"DIS_CODE":0,"TOWNNAME":"關廟區","LI":"北勢里","LIN":"5鄰","STREET":"中正路","SECT":" ","MAREA":" ","LANE":"７３８巷","ALLEY":" ","HOUSE_NO":"４５號","E_COORD97":181602.41,"N_COORD97":2540415.25,"ADDRESS":"中正路７３８巷４５號","OBJECTID":446153},"geometry":{"x":181602.41000000015,"y":2540415.2500000037}},{"attributes":{"ID":446179,"DIS_CODE":0,"TOWNNAME":"關廟區","LI":"北花里","LIN":"5鄰","STREET":"園東街","SECT":" ","MAREA":" ","LANE":"１１８巷","ALLEY":" ","HOUSE_NO":"２０號","E_COORD97":182072.66,"N_COORD97":2540254.25,"ADDRESS":"園東街１１８巷２０號","OBJECTID":446154},"geometry":{"x":182072.66000000108,"y":2540254.25}},{"attributes":{"ID":446180,"DIS_CODE":0,"TOWNNAME":"關廟區","LI":"松腳里","LIN":"5鄰","STREET":"旺萊路","SECT":" ","MAREA":" ","LANE":"５６２巷","ALLEY":" ","HOUSE_NO":"１３號","E_COORD97":182174.39000000001,"N_COORD97":2539997.25,"ADDRESS":"旺萊路５６２巷１３號","OBJECTID":446155},"geometry":{"x":182174.3900000006,"y":2539997.25}},{"attributes":{"ID":446181,"DIS_CODE":0,"TOWNNAME":"關廟區","LI":"南花里","LIN":"5鄰","STREET":"花園一街","SECT":" ","MAREA":" ","LANE":"７１巷","ALLEY":" ","HOUSE_NO":"１１號","E_COORD97":181982.09,"N_COORD97":2540149.25,"ADDRESS":"花園一街７１巷１１號","OBJECTID":446156},"geometry":{"x":181982.08999999985,"y":2540149.25}},{"attributes":{"ID":446182,"DIS_CODE":0,"TOWNNAME":"關廟區","LI":"埤頭里","LIN":"5鄰","STREET":"保東路","SECT":" ","MAREA":" ","LANE":"３巷","ALLEY":" ","HOUSE_NO":"３８號","E_COORD97":179020.26999999999,"N_COORD97":2543965.25,"ADDRESS":"保東路３巷３８號","OBJECTID":446157},"geometry":{"x":179020.27000000048,"y":2543965.2500000019}},{"attributes":{"ID":446183,"DIS_CODE":0,"TOWNNAME":"關廟區","LI":"松腳里","LIN":"5鄰","STREET":"旺萊路","SECT":" ","MAREA":" ","LANE":"５６２巷","ALLEY":" ","HOUSE_NO":"１５號","E_COORD97":182179.09,"N_COORD97":2539993.25,"ADDRESS":"旺萊路５６２巷１５號","OBJECTID":446158},"geometry":{"x":182179.08999999892,"y":2539993.25}},{"attributes":{"ID":446184,"DIS_CODE":0,"TOWNNAME":"關廟區","LI":"埤頭里","LIN":"5鄰","STREET":"保東路","SECT":" ","MAREA":" ","LANE":"２５巷","ALLEY":" ","HOUSE_NO":"１０號","E_COORD97":178990.57000000001,"N_COORD97":2543993.2999999998,"ADDRESS":"保東路２５巷１０號","OBJECTID":446159},"geometry":{"x":178990.5700000003,"y":2543993.3000000026}},{"attributes":{"ID":446185,"DIS_CODE":0,"TOWNNAME":"關廟區","LI":"松腳里","LIN":"5鄰","STREET":"旺萊路","SECT":" ","MAREA":" ","LANE":"５６２巷","ALLEY":" ","HOUSE_NO":"１７號","E_COORD97":182183.69,"N_COORD97":2539990.25,"ADDRESS":"旺萊路５６２巷１７號","OBJECTID":446160},"geometry":{"x":182183.69000000041,"y":2539990.25}},{"attributes":{"ID":446186,"DIS_CODE":0,"TOWNNAME":"關廟區","LI":"五甲里","LIN":"5鄰","STREET":"五福路","SECT":" ","MAREA":" ","LANE":"１２巷","ALLEY":" ","HOUSE_NO":"８號","E_COORD97":181337.92000000001,"N_COORD97":2539016.25,"ADDRESS":"五福路１２巷８號","OBJECTID":446161},"geometry":{"x":181337.92000000179,"y":2539016.2500000019}},{"attributes":{"ID":446187,"DIS_CODE":0,"TOWNNAME":"關廟區","LI":"布袋里","LIN":"5鄰","STREET":"長文街","SECT":" ","MAREA":" ","LANE":"１０５巷","ALLEY":" ","HOUSE_NO":"１７號","E_COORD97":182936.89000000001,"N_COORD97":2535382.2999999998,"ADDRESS":"長文街１０５巷１７號","OBJECTID":446162},"geometry":{"x":182936.8900000006,"y":2535382.3000000026}},{"attributes":{"ID":446188,"DIS_CODE":0,"TOWNNAME":"關廟區","LI":"布袋里","LIN":"5鄰","STREET":"長文街","SECT":" ","MAREA":" ","LANE":"１３５巷","ALLEY":" ","HOUSE_NO":"２９號","E_COORD97":182871.23999999999,"N_COORD97":2535322.2999999998,"ADDRESS":"長文街１３５巷２９號","OBJECTID":446163},"geometry":{"x":182871.24000000022,"y":2535322.3000000007}},{"attributes":{"ID":446189,"DIS_CODE":0,"TOWNNAME":"關廟區","LI":"香洋里","LIN":"5鄰","STREET":"忠孝街","SECT":" ","MAREA":" ","LANE":"１０６巷","ALLEY":" ","HOUSE_NO":"１號","E_COORD97":181040.04000000001,"N_COORD97":2540250.25,"ADDRESS":"忠孝街１０６巷１號","OBJECTID":446164},"geometry":{"x":181040.04000000004,"y":2540250.2500000019}},{"attributes":{"ID":446190,"DIS_CODE":0,"TOWNNAME":"關廟區","LI":"布袋里","LIN":"5鄰","STREET":"長文街","SECT":" ","MAREA":" ","LANE":"１０５巷","ALLEY":" ","HOUSE_NO":"２９號","E_COORD97":182944.94,"N_COORD97":2535360.2999999998,"ADDRESS":"長文街１０５巷２９號","OBJECTID":446165},"geometry":{"x":182944.94000000041,"y":2535360.3000000007}},{"attributes":{"ID":446191,"DIS_CODE":0,"TOWNNAME":"關廟區","LI":"布袋里","LIN":"5鄰","STREET":"長文街","SECT":" ","MAREA":" ","LANE":"１０５巷","ALLEY":" ","HOUSE_NO":"１５號","E_COORD97":182934.98999999999,"N_COORD97":2535386.2999999998,"ADDRESS":"長文街１０５巷１５號","OBJECTID":446166},"geometry":{"x":182934.99000000115,"y":2535386.3000000007}},{"attributes":{"ID":446192,"DIS_CODE":0,"TOWNNAME":"關廟區","LI":"南花里","LIN":"5鄰","STREET":"花園一街","SECT":" ","MAREA":" ","LANE":"７１巷","ALLEY":" ","HOUSE_NO":"９號","E_COORD97":181978.94,"N_COORD97":2540159.25,"ADDRESS":"花園一街７１巷９號","OBJECTID":446167},"geometry":{"x":181978.94000000041,"y":2540159.25}},{"attributes":{"ID":446193,"DIS_CODE":0,"TOWNNAME":"關廟區","LI":"布袋里","LIN":"5鄰","STREET":"長文街","SECT":" ","MAREA":" ","LANE":"１８１巷","ALLEY":" ","HOUSE_NO":"８號","E_COORD97":182743.44,"N_COORD97":2535278.2999999998,"ADDRESS":"長文街１８１巷８號","OBJECTID":446168},"geometry":{"x":182743.44000000041,"y":2535278.3000000007}},{"attributes":{"ID":446194,"DIS_CODE":0,"TOWNNAME":"關廟區","LI":"布袋里","LIN":"5鄰","STREET":"長文街","SECT":" ","MAREA":" ","LANE":"９５巷","ALLEY":" ","HOUSE_NO":"３５號","E_COORD97":182971.54000000001,"N_COORD97":2535362.25,"ADDRESS":"長文街９５巷３５號","OBJECTID":446169},"geometry":{"x":182971.54000000097,"y":2535362.25}},{"attributes":{"ID":446195,"DIS_CODE":0,"TOWNNAME":"關廟區","LI":"布袋里","LIN":"5鄰","STREET":"長文街","SECT":" ","MAREA":" ","LANE":"１０５巷","ALLEY":" ","HOUSE_NO":"２５號","E_COORD97":182941.84,"N_COORD97":2535368.2999999998,"ADDRESS":"長文街１０５巷２５號","OBJECTID":446170},"geometry":{"x":182941.83999999985,"y":2535368.3000000026}},{"attributes":{"ID":446196,"DIS_CODE":0,"TOWNNAME":"關廟區","LI":"關廟里","LIN":"5鄰","STREET":"中山路","SECT":"二段","MAREA":" ","LANE":"１６５巷","ALLEY":" ","HOUSE_NO":"１００號","E_COORD97":180752,"N_COORD97":2539787.1699999999,"ADDRESS":"中山路二段１６５巷１００號","OBJECTID":446171},"geometry":{"x":180752,"y":2539787.1699999999}},{"attributes":{"ID":446197,"DIS_CODE":0,"TOWNNAME":"北區","LI":"成德里","LIN":"5鄰","STREET":"西門路","SECT":"四段","MAREA":" ","LANE":"６５巷","ALLEY":" ","HOUSE_NO":"７３號","E_COORD97":168517.51999999999,"N_COORD97":2545398.5299999998,"ADDRESS":"西門路四段６５巷７３號","OBJECTID":446172},"geometry":{"x":168517.51999999955,"y":2545398.5299999993}},{"attributes":{"ID":446198,"DIS_CODE":0,"TOWNNAME":"北區","LI":"成德里","LIN":"5鄰","STREET":"西門路","SECT":"四段","MAREA":" ","LANE":"６５巷","ALLEY":" ","HOUSE_NO":"７５號","E_COORD97":168514.45999999999,"N_COORD97":2545401.5899999999,"ADDRESS":"西門路四段６５巷７５號","OBJECTID":446173},"geometry":{"x":168514.45999999996,"y":2545401.5900000017}},{"attributes":{"ID":446199,"DIS_CODE":0,"TOWNNAME":"北區","LI":"成德里","LIN":"5鄰","STREET":"西門路","SECT":"四段","MAREA":" ","LANE":"６５巷","ALLEY":" ","HOUSE_NO":"７７號","E_COORD97":168511.17000000001,"N_COORD97":2545403.46,"ADDRESS":"西門路四段６５巷７７號","OBJECTID":446174},"geometry":{"x":168511.17000000086,"y":2545403.4600000028}},{"attributes":{"ID":446200,"DIS_CODE":0,"TOWNNAME":"北區","LI":"成德里","LIN":"5鄰","STREET":"西門路","SECT":"四段","MAREA":" ","LANE":"６５巷","ALLEY":" ","HOUSE_NO":"７９號","E_COORD97":168507.41,"N_COORD97":2545406.04,"ADDRESS":"西門路四段６５巷７９號","OBJECTID":446175},"geometry":{"x":168507.41000000201,"y":2545406.0399999972}},{"attributes":{"ID":446201,"DIS_CODE":0,"TOWNNAME":"北區","LI":"成德里","LIN":"5鄰","STREET":"西門路","SECT":"四段","MAREA":" ","LANE":"６５巷","ALLEY":" ","HOUSE_NO":"８１號","E_COORD97":168503.42000000001,"N_COORD97":2545408.8599999999,"ADDRESS":"西門路四段６５巷８１號","OBJECTID":446176},"geometry":{"x":168503.41999999993,"y":2545408.8600000013}},{"attributes":{"ID":446202,"DIS_CODE":0,"TOWNNAME":"北區","LI":"成德里","LIN":"5鄰","STREET":"西門路","SECT":"四段","MAREA":" ","LANE":"６５巷","ALLEY":" ","HOUSE_NO":"８３號","E_COORD97":168499.66,"N_COORD97":2545411.4399999999,"ADDRESS":"西門路四段６５巷８３號","OBJECTID":446177},"geometry":{"x":168499.66000000108,"y":2545411.4400000013}},{"attributes":{"ID":446203,"DIS_CODE":0,"TOWNNAME":"北區","LI":"成德里","LIN":"5鄰","STREET":"西門路","SECT":"四段","MAREA":" ","LANE":"６５巷","ALLEY":" ","HOUSE_NO":"８５號","E_COORD97":168495.89999999999,"N_COORD97":2545414.2599999998,"ADDRESS":"西門路四段６５巷８５號","OBJECTID":446178},"geometry":{"x":168495.90000000224,"y":2545414.2599999998}},{"attributes":{"ID":446204,"DIS_CODE":0,"TOWNNAME":"北區","LI":"大仁里","LIN":"5鄰","STREET":"北門路","SECT":"二段","MAREA":" ","LANE":"２９１巷","ALLEY":" ","HOUSE_NO":"７號","E_COORD97":169532.42000000001,"N_COORD97":2545426.75,"ADDRESS":"北門路二段２９１巷７號","OBJECTID":446179},"geometry":{"x":169532.41999999993,"y":2545426.7500000019}},{"attributes":{"ID":446205,"DIS_CODE":0,"TOWNNAME":"北區","LI":"大仁里","LIN":"5鄰","STREET":"北門路","SECT":"二段","MAREA":" ","LANE":"２９１巷","ALLEY":" ","HOUSE_NO":"８號","E_COORD97":169533.51000000001,"N_COORD97":2545431.2599999998,"ADDRESS":"北門路二段２９１巷８號","OBJECTID":446180},"geometry":{"x":169533.51000000164,"y":2545431.2599999998}},{"attributes":{"ID":446206,"DIS_CODE":0,"TOWNNAME":"北區","LI":"大仁里","LIN":"5鄰","STREET":"北門路","SECT":"二段","MAREA":" ","LANE":"２９１巷","ALLEY":" ","HOUSE_NO":"９號","E_COORD97":169535.62,"N_COORD97":2545436.98,"ADDRESS":"北門路二段２９１巷９號","OBJECTID":446181},"geometry":{"x":169535.62000000104,"y":2545436.9800000004}},{"attributes":{"ID":446207,"DIS_CODE":0,"TOWNNAME":"北區","LI":"大仁里","LIN":"5鄰","STREET":"北門路","SECT":"二段","MAREA":" ","LANE":"２４７巷","ALLEY":" ","HOUSE_NO":"２４號","E_COORD97":169493.73999999999,"N_COORD97":2545392.2599999998,"ADDRESS":"北門路二段２４７巷２４號","OBJECTID":446182},"geometry":{"x":169493.74000000115,"y":2545392.2600000016}},{"attributes":{"ID":446208,"DIS_CODE":0,"TOWNNAME":"北區","LI":"大仁里","LIN":"5鄰","STREET":"北門路","SECT":"二段","MAREA":" ","LANE":"２９１巷","ALLEY":" ","HOUSE_NO":"１３號","E_COORD97":169517.25,"N_COORD97":2545402.3900000001,"ADDRESS":"北門路二段２９１巷１３號","OBJECTID":446183},"geometry":{"x":169517.25000000093,"y":2545402.3900000043}},{"attributes":{"ID":446209,"DIS_CODE":0,"TOWNNAME":"北區","LI":"大仁里","LIN":"5鄰","STREET":"北門路","SECT":"二段","MAREA":" ","LANE":"２９１巷","ALLEY":" ","HOUSE_NO":"１４號","E_COORD97":169518.45000000001,"N_COORD97":2545405.8300000001,"ADDRESS":"北門路二段２９１巷１４號","OBJECTID":446184},"geometry":{"x":169518.45000000019,"y":2545405.8300000019}},{"attributes":{"ID":446210,"DIS_CODE":0,"TOWNNAME":"北區","LI":"大仁里","LIN":"5鄰","STREET":"北門路","SECT":"二段","MAREA":" ","LANE":"２９１巷","ALLEY":" ","HOUSE_NO":"１５號","E_COORD97":169520.20000000001,"N_COORD97":2545409.3100000001,"ADDRESS":"北門路二段２９１巷１５號","OBJECTID":446185},"geometry":{"x":169520.20000000019,"y":2545409.3100000042}},{"attributes":{"ID":446211,"DIS_CODE":0,"TOWNNAME":"北區","LI":"大仁里","LIN":"5鄰","STREET":"北門路","SECT":"二段","MAREA":" ","LANE":"２９１巷","ALLEY":" ","HOUSE_NO":"１６號","E_COORD97":169520.91,"N_COORD97":2545412.4199999999,"ADDRESS":"北門路二段２９１巷１６號","OBJECTID":446186},"geometry":{"x":169520.91000000015,"y":2545412.4200000018}},{"attributes":{"ID":446212,"DIS_CODE":0,"TOWNNAME":"新營區","LI":"太北里","LIN":"17鄰","STREET":" ","SECT":" ","MAREA":"太子宮","LANE":" ","ALLEY":" ","HOUSE_NO":"１４７之３５號","E_COORD97":175382.86779399999,"N_COORD97":2577170.0930400002,"ADDRESS":"太子宮１４７之３５號","OBJECTID":446187},"geometry":{"x":175382.86779399961,"y":2577170.0930359997}},{"attributes":{"ID":446213,"DIS_CODE":0,"TOWNNAME":"北區","LI":"大仁里","LIN":"5鄰","STREET":"北門路","SECT":"二段","MAREA":" ","LANE":"２９１巷","ALLEY":" ","HOUSE_NO":"１７號","E_COORD97":169521.70999999999,"N_COORD97":2545415.4700000002,"ADDRESS":"北門路二段２９１巷１７號","OBJECTID":446188},"geometry":{"x":169521.70999999996,"y":2545415.4700000044}},{"attributes":{"ID":446214,"DIS_CODE":0,"TOWNNAME":"北區","LI":"大仁里","LIN":"5鄰","STREET":"北門路","SECT":"二段","MAREA":" ","LANE":"２９１巷","ALLEY":" ","HOUSE_NO":"１８號","E_COORD97":169523.07999999999,"N_COORD97":2545418.9500000002,"ADDRESS":"北門路二段２９１巷１８號","OBJECTID":446189},"geometry":{"x":169523.08000000007,"y":2545418.9499999993}},{"attributes":{"ID":446215,"DIS_CODE":0,"TOWNNAME":"北區","LI":"大仁里","LIN":"5鄰","STREET":"北門路","SECT":"二段","MAREA":" ","LANE":"２９１巷","ALLEY":" ","HOUSE_NO":"１９號","E_COORD97":169524,"N_COORD97":2545421.8100000001,"ADDRESS":"北門路二段２９１巷１９號","OBJECTID":446190},"geometry":{"x":169524.00000000093,"y":2545421.8100000005}},{"attributes":{"ID":446216,"DIS_CODE":0,"TOWNNAME":"北區","LI":"大仁里","LIN":"5鄰","STREET":"北門路","SECT":"二段","MAREA":" ","LANE":"２９１巷","ALLEY":" ","HOUSE_NO":"１號","E_COORD97":169522.23999999999,"N_COORD97":2545401.8100000001,"ADDRESS":"北門路二段２９１巷１號","OBJECTID":446191},"geometry":{"x":169522.24000000209,"y":2545401.8100000005}},{"attributes":{"ID":446217,"DIS_CODE":0,"TOWNNAME":"北區","LI":"大仁里","LIN":"5鄰","STREET":"北門路","SECT":"二段","MAREA":" ","LANE":"２９１巷","ALLEY":" ","HOUSE_NO":"２０號","E_COORD97":169525.60000000001,"N_COORD97":2545425.75,"ADDRESS":"北門路二段２９１巷２０號","OBJECTID":446192},"geometry":{"x":169525.59999999963,"y":2545425.75}},{"attributes":{"ID":446218,"DIS_CODE":0,"TOWNNAME":"北區","LI":"大仁里","LIN":"5鄰","STREET":"北門路","SECT":"二段","MAREA":" ","LANE":"２９１巷","ALLEY":" ","HOUSE_NO":"２１號","E_COORD97":169526.45999999999,"N_COORD97":2545428.73,"ADDRESS":"北門路二段２９１巷２１號","OBJECTID":446193},"geometry":{"x":169526.45999999996,"y":2545428.7300000004}},{"attributes":{"ID":446219,"DIS_CODE":0,"TOWNNAME":"北區","LI":"大仁里","LIN":"5鄰","STREET":"北門路","SECT":"二段","MAREA":" ","LANE":"２９１巷","ALLEY":" ","HOUSE_NO":"２４號","E_COORD97":169531.85000000001,"N_COORD97":2545438.46,"ADDRESS":"北門路二段２９１巷２４號","OBJECTID":446194},"geometry":{"x":169531.85000000056,"y":2545438.4600000009}},{"attributes":{"ID":446220,"DIS_CODE":0,"TOWNNAME":"北區","LI":"大仁里","LIN":"5鄰","STREET":"北門路","SECT":"二段","MAREA":" ","LANE":"２９１巷","ALLEY":" ","HOUSE_NO":"２號","E_COORD97":169524.56,"N_COORD97":2545405.3199999998,"ADDRESS":"北門路二段２９１巷２號","OBJECTID":446195},"geometry":{"x":169524.56000000145,"y":2545405.3200000003}},{"attributes":{"ID":446221,"DIS_CODE":0,"TOWNNAME":"北區","LI":"大仁里","LIN":"5鄰","STREET":"北門路","SECT":"二段","MAREA":" ","LANE":"２９１巷","ALLEY":" ","HOUSE_NO":"３號","E_COORD97":169526.13,"N_COORD97":2545408.5299999998,"ADDRESS":"北門路二段２９１巷３號","OBJECTID":446196},"geometry":{"x":169526.13000000175,"y":2545408.5299999993}},{"attributes":{"ID":446222,"DIS_CODE":0,"TOWNNAME":"北區","LI":"大仁里","LIN":"5鄰","STREET":"北門路","SECT":"二段","MAREA":" ","LANE":"２９１巷","ALLEY":" ","HOUSE_NO":"４號","E_COORD97":169527.03,"N_COORD97":2545411.2200000002,"ADDRESS":"北門路二段２９１巷４號","OBJECTID":446197},"geometry":{"x":169527.02999999933,"y":2545411.2200000025}},{"attributes":{"ID":446223,"DIS_CODE":0,"TOWNNAME":"北區","LI":"大仁里","LIN":"5鄰","STREET":"北門路","SECT":"二段","MAREA":" ","LANE":"２９１巷","ALLEY":" ","HOUSE_NO":"５號","E_COORD97":169545.48000000001,"N_COORD97":2545411.8500000001,"ADDRESS":"北門路二段２９１巷５號","OBJECTID":446198},"geometry":{"x":169545.48000000138,"y":2545411.8500000015}},{"attributes":{"ID":446224,"DIS_CODE":0,"TOWNNAME":"北區","LI":"大仁里","LIN":"5鄰","STREET":"北門路","SECT":"二段","MAREA":" ","LANE":"２９１巷","ALLEY":" ","HOUSE_NO":"６號","E_COORD97":169546.73999999999,"N_COORD97":2545415.2799999998,"ADDRESS":"北門路二段２９１巷６號","OBJECTID":446199},"geometry":{"x":169546.74000000115,"y":2545415.2800000031}},{"attributes":{"ID":446225,"DIS_CODE":0,"TOWNNAME":"安平區","LI":"平安里","LIN":"5鄰","STREET":"安平路","SECT":" ","MAREA":" ","LANE":"３３６巷","ALLEY":" ","HOUSE_NO":"１０號","E_COORD97":165663.78,"N_COORD97":2544379.7999999998,"ADDRESS":"安平路３３６巷１０號","OBJECTID":446200},"geometry":{"x":165663.78000000212,"y":2544379.8000000026}}]}