{"displayFieldName":"TOWNNAME","fieldAliases":{"ID":"ID","DIS_CODE":"DIS_CODE","TOWNNAME":"TOWNNAME","LI":"LI","LIN":"LIN","STREET":"STREET","SECT":"SECT","MAREA":"MAREA","LANE":"LANE","ALLEY":"ALLEY","HOUSE_NO":"HOUSE_NO","E_COORD97":"E_COORD97","N_COORD97":"N_COORD97","ADDRESS":"ADDRESS","OBJECTID":"OBJECTID"},"geometryType":"esriGeometryPoint","spatialReference":{"wkid":102443,"latestWkid":3826},"fields":[{"name":"ID","type":"esriFieldTypeDouble","alias":"ID"},{"name":"DIS_CODE","type":"esriFieldTypeInteger","alias":"DIS_CODE"},{"name":"TOWNNAME","type":"esriFieldTypeString","alias":"TOWNNAME","length":8},{"name":"LI","type":"esriFieldTypeString","alias":"LI","length":8},{"name":"LIN","type":"esriFieldTypeString","alias":"LIN","length":12},{"name":"STREET","type":"esriFieldTypeString","alias":"STREET","length":20},{"name":"SECT","type":"esriFieldTypeString","alias":"SECT","length":8},{"name":"MAREA","type":"esriFieldTypeString","alias":"MAREA","length":12},{"name":"LANE","type":"esriFieldTypeString","alias":"LANE","length":10},{"name":"ALLEY","type":"esriFieldTypeString","alias":"ALLEY","length":10},{"name":"HOUSE_NO","type":"esriFieldTypeString","alias":"HOUSE_NO","length":20},{"name":"E_COORD97","type":"esriFieldTypeDouble","alias":"E_COORD97"},{"name":"N_COORD97","type":"esriFieldTypeDouble","alias":"N_COORD97"},{"name":"ADDRESS","type":"esriFieldTypeString","alias":"ADDRESS","length":50},{"name":"OBJECTID","type":"esriFieldTypeOID","alias":"OBJECTID"}],"features":[{"attributes":{"ID":263605,"DIS_CODE":0,"TOWNNAME":"安南區","LI":"佃西里","LIN":"13鄰","STREET":"海佃路","SECT":"四段","MAREA":" ","LANE":"５２５巷","ALLEY":" ","HOUSE_NO":"３號","E_COORD97":165225.09,"N_COORD97":2551613.3100000001,"ADDRESS":"海佃路四段５２５巷３號","OBJECTID":263601},"geometry":{"x":165225.08999999985,"y":2551613.3100000005}},{"attributes":{"ID":263606,"DIS_CODE":0,"TOWNNAME":"安南區","LI":"佃西里","LIN":"13鄰","STREET":"海佃路","SECT":"四段","MAREA":" ","LANE":"５２５巷","ALLEY":" ","HOUSE_NO":"９號","E_COORD97":165214.29999999999,"N_COORD97":2551604.3300000001,"ADDRESS":"海佃路四段５２５巷９號","OBJECTID":263602},"geometry":{"x":165214.30000000075,"y":2551604.3300000019}},{"attributes":{"ID":263607,"DIS_CODE":0,"TOWNNAME":"安南區","LI":"\u25A0南里","LIN":"13鄰","STREET":"安昌街","SECT":" ","MAREA":" ","LANE":"１０６巷","ALLEY":" ","HOUSE_NO":"２號","E_COORD97":169975.97,"N_COORD97":2552208.3100000001,"ADDRESS":"安昌街１０６巷２號","OBJECTID":263603},"geometry":{"x":169975.96999999974,"y":2552208.3100000024}},{"attributes":{"ID":263608,"DIS_CODE":0,"TOWNNAME":"南區","LI":"郡南里","LIN":"13鄰","STREET":"永成路","SECT":"三段","MAREA":" ","LANE":"７１巷","ALLEY":" ","HOUSE_NO":"１號","E_COORD97":167474.23999999999,"N_COORD97":2540555.54,"ADDRESS":"永成路三段７１巷１號","OBJECTID":263604},"geometry":{"x":167474.24000000022,"y":2540555.540000001}},{"attributes":{"ID":263609,"DIS_CODE":0,"TOWNNAME":"後壁區","LI":"後壁里","LIN":"6鄰","STREET":" ","SECT":" ","MAREA":"後壁","LANE":" ","ALLEY":" ","HOUSE_NO":"１２４號","E_COORD97":184738.26000000001,"N_COORD97":2584954.9100000001,"ADDRESS":"後壁１２４號","OBJECTID":263605},"geometry":{"x":184738.26000000071,"y":2584954.910000002}},{"attributes":{"ID":263610,"DIS_CODE":0,"TOWNNAME":"東區","LI":"龍山里","LIN":"22鄰","STREET":"府東街","SECT":" ","MAREA":" ","LANE":" ","ALLEY":" ","HOUSE_NO":"２２號","E_COORD97":170076.51999999999,"N_COORD97":2542873.75,"ADDRESS":"府東街２２號","OBJECTID":263606},"geometry":{"x":170076.52000000048,"y":2542873.7500000019}},{"attributes":{"ID":263611,"DIS_CODE":0,"TOWNNAME":"東區","LI":"龍山里","LIN":"22鄰","STREET":"府東街","SECT":" ","MAREA":" ","LANE":" ","ALLEY":" ","HOUSE_NO":"２４號","E_COORD97":170070.72,"N_COORD97":2542875.52,"ADDRESS":"府東街２４號","OBJECTID":263607},"geometry":{"x":170070.71999999974,"y":2542875.5200000014}},{"attributes":{"ID":263612,"DIS_CODE":0,"TOWNNAME":"南區","LI":"郡南里","LIN":"13鄰","STREET":"永成路","SECT":"三段","MAREA":" ","LANE":"７１巷","ALLEY":" ","HOUSE_NO":"３號","E_COORD97":167468.45999999999,"N_COORD97":2540556.73,"ADDRESS":"永成路三段７１巷３號","OBJECTID":263608},"geometry":{"x":167468.46000000089,"y":2540556.7300000004}},{"attributes":{"ID":263613,"DIS_CODE":0,"TOWNNAME":"南區","LI":"郡南里","LIN":"13鄰","STREET":"永成路","SECT":"三段","MAREA":" ","LANE":"７１巷","ALLEY":" ","HOUSE_NO":"５號","E_COORD97":167464.87,"N_COORD97":2540555.1400000001,"ADDRESS":"永成路三段７１巷５號","OBJECTID":263609},"geometry":{"x":167464.87000000011,"y":2540555.1400000006}},{"attributes":{"ID":263614,"DIS_CODE":0,"TOWNNAME":"南區","LI":"郡南里","LIN":"13鄰","STREET":"永成路","SECT":"三段","MAREA":" ","LANE":"７１巷","ALLEY":" ","HOUSE_NO":"７號","E_COORD97":167459.09,"N_COORD97":2540554.3399999999,"ADDRESS":"永成路三段７１巷７號","OBJECTID":263610},"geometry":{"x":167459.08999999985,"y":2540554.3400000017}},{"attributes":{"ID":263615,"DIS_CODE":0,"TOWNNAME":"東區","LI":"龍山里","LIN":"22鄰","STREET":"府東街","SECT":" ","MAREA":" ","LANE":" ","ALLEY":" ","HOUSE_NO":"２６號","E_COORD97":170065.17999999999,"N_COORD97":2542876.7799999998,"ADDRESS":"府東街２６號","OBJECTID":263611},"geometry":{"x":170065.18000000063,"y":2542876.7800000012}},{"attributes":{"ID":263616,"DIS_CODE":0,"TOWNNAME":"東區","LI":"龍山里","LIN":"22鄰","STREET":"府東街","SECT":" ","MAREA":" ","LANE":" ","ALLEY":" ","HOUSE_NO":"３２號","E_COORD97":170054.07999999999,"N_COORD97":2542881.8100000001,"ADDRESS":"府東街３２號","OBJECTID":263612},"geometry":{"x":170054.08000000101,"y":2542881.8100000024}},{"attributes":{"ID":263617,"DIS_CODE":0,"TOWNNAME":"南區","LI":"郡南里","LIN":"13鄰","STREET":"永成路","SECT":"三段","MAREA":" ","LANE":"７１巷","ALLEY":" ","HOUSE_NO":"９號","E_COORD97":167454.70000000001,"N_COORD97":2540553.3500000001,"ADDRESS":"永成路三段７１巷９號","OBJECTID":263613},"geometry":{"x":167454.70000000112,"y":2540553.3500000034}},{"attributes":{"ID":263618,"DIS_CODE":0,"TOWNNAME":"東區","LI":"中西里","LIN":"22鄰","STREET":"長榮路","SECT":"二段","MAREA":" ","LANE":" ","ALLEY":" ","HOUSE_NO":"２４８號","E_COORD97":170136.88,"N_COORD97":2543450.1200000001,"ADDRESS":"長榮路二段２４８號","OBJECTID":263614},"geometry":{"x":170136.88000000082,"y":2543450.120000001}},{"attributes":{"ID":263619,"DIS_CODE":0,"TOWNNAME":"永康區","LI":"崑山里","LIN":"10鄰","STREET":"崑大路","SECT":" ","MAREA":" ","LANE":" ","ALLEY":" ","HOUSE_NO":"２５１號","E_COORD97":173231.16,"N_COORD97":2544278.5,"ADDRESS":"崑大路２５１號","OBJECTID":263615},"geometry":{"x":173231.16000000015,"y":2544278.5000000037}},{"attributes":{"ID":263620,"DIS_CODE":0,"TOWNNAME":"後壁區","LI":"後壁里","LIN":"6鄰","STREET":" ","SECT":" ","MAREA":"後壁","LANE":" ","ALLEY":" ","HOUSE_NO":"１２５號","E_COORD97":184742.66,"N_COORD97":2584953.5299999998,"ADDRESS":"後壁１２５號","OBJECTID":263616},"geometry":{"x":184742.66000000108,"y":2584953.5300000012}},{"attributes":{"ID":263621,"DIS_CODE":0,"TOWNNAME":"東區","LI":"中西里","LIN":"22鄰","STREET":"長榮路","SECT":"二段","MAREA":" ","LANE":" ","ALLEY":" ","HOUSE_NO":"１８０號","E_COORD97":170111.59,"N_COORD97":2543412.5800000001,"ADDRESS":"長榮路二段１８０號","OBJECTID":263617},"geometry":{"x":170111.59000000078,"y":2543412.5800000001}},{"attributes":{"ID":263622,"DIS_CODE":0,"TOWNNAME":"南區","LI":"國宅里","LIN":"13鄰","STREET":"金華路","SECT":"二段","MAREA":" ","LANE":"３３巷","ALLEY":" ","HOUSE_NO":"７６號","E_COORD97":166839.03,"N_COORD97":2541993.52,"ADDRESS":"金華路二段３３巷７６號","OBJECTID":263618},"geometry":{"x":166839.03000000119,"y":2541993.5200000014}},{"attributes":{"ID":263623,"DIS_CODE":0,"TOWNNAME":"南區","LI":"國宅里","LIN":"13鄰","STREET":"金華路","SECT":"二段","MAREA":" ","LANE":"３３巷","ALLEY":" ","HOUSE_NO":"７７號","E_COORD97":166832.95999999999,"N_COORD97":2541979.8799999999,"ADDRESS":"金華路二段３３巷７７號","OBJECTID":263619},"geometry":{"x":166832.95999999996,"y":2541979.8800000008}},{"attributes":{"ID":263624,"DIS_CODE":0,"TOWNNAME":"南區","LI":"國宅里","LIN":"13鄰","STREET":"金華路","SECT":"二段","MAREA":" ","LANE":"３９巷","ALLEY":" ","HOUSE_NO":"５９號","E_COORD97":166879.70000000001,"N_COORD97":2542008.8199999998,"ADDRESS":"金華路二段３９巷５９號","OBJECTID":263620},"geometry":{"x":166879.70000000205,"y":2542008.8200000022}},{"attributes":{"ID":263625,"DIS_CODE":0,"TOWNNAME":"南區","LI":"國宅里","LIN":"13鄰","STREET":"金華路","SECT":"二段","MAREA":" ","LANE":"３９巷","ALLEY":" ","HOUSE_NO":"６０號","E_COORD97":166880.26000000001,"N_COORD97":2542024.4199999999,"ADDRESS":"金華路二段３９巷６０號","OBJECTID":263621},"geometry":{"x":166880.25999999978,"y":2542024.4200000037}},{"attributes":{"ID":263626,"DIS_CODE":0,"TOWNNAME":"南區","LI":"國宅里","LIN":"13鄰","STREET":"金華路","SECT":"二段","MAREA":" ","LANE":"３９巷","ALLEY":" ","HOUSE_NO":"６１號","E_COORD97":166874.76000000001,"N_COORD97":2542009.3399999999,"ADDRESS":"金華路二段３９巷６１號","OBJECTID":263622},"geometry":{"x":166874.75999999978,"y":2542009.3400000017}},{"attributes":{"ID":263627,"DIS_CODE":0,"TOWNNAME":"南區","LI":"國宅里","LIN":"13鄰","STREET":"金華路","SECT":"二段","MAREA":" ","LANE":"３９巷","ALLEY":" ","HOUSE_NO":"６２號","E_COORD97":166875.67999999999,"N_COORD97":2542024.6899999999,"ADDRESS":"金華路二段３９巷６２號","OBJECTID":263623},"geometry":{"x":166875.6799999997,"y":2542024.6899999995}},{"attributes":{"ID":263628,"DIS_CODE":0,"TOWNNAME":"南區","LI":"喜北里","LIN":"13鄰","STREET":"喜樹路","SECT":" ","MAREA":" ","LANE":"２０６巷","ALLEY":" ","HOUSE_NO":"３１號","E_COORD97":165717.37,"N_COORD97":2538171.71,"ADDRESS":"喜樹路２０６巷３１號","OBJECTID":263624},"geometry":{"x":165717.37000000197,"y":2538171.709999999}},{"attributes":{"ID":263629,"DIS_CODE":0,"TOWNNAME":"永康區","LI":"埔園里","LIN":"33鄰","STREET":"埔園街","SECT":" ","MAREA":" ","LANE":" ","ALLEY":" ","HOUSE_NO":"１３９號","E_COORD97":173890.39000000001,"N_COORD97":2548165.2999999998,"ADDRESS":"埔園街１３９號","OBJECTID":263625},"geometry":{"x":173890.38999999966,"y":2548165.3000000007}},{"attributes":{"ID":263630,"DIS_CODE":0,"TOWNNAME":"永康區","LI":"埔園里","LIN":"28鄰","STREET":"中山路","SECT":" ","MAREA":" ","LANE":" ","ALLEY":" ","HOUSE_NO":"２９８號","E_COORD97":173689.67999999999,"N_COORD97":2548119.4900000002,"ADDRESS":"中山路２９８號","OBJECTID":263626},"geometry":{"x":173689.68000000063,"y":2548119.4900000002}},{"attributes":{"ID":263631,"DIS_CODE":0,"TOWNNAME":"永康區","LI":"勝利里","LIN":"22鄰","STREET":"勝華街","SECT":" ","MAREA":" ","LANE":" ","ALLEY":" ","HOUSE_NO":"１３號","E_COORD97":171523.42999999999,"N_COORD97":2545197.6699999999,"ADDRESS":"勝華街１３號","OBJECTID":263627},"geometry":{"x":171523.4299999997,"y":2545197.6700000018}},{"attributes":{"ID":263632,"DIS_CODE":0,"TOWNNAME":"中西區","LI":"藥王里","LIN":"22鄰","STREET":"中和街","SECT":" ","MAREA":" ","LANE":" ","ALLEY":" ","HOUSE_NO":"５５號","E_COORD97":167032.64999999999,"N_COORD97":2544571.6600000001,"ADDRESS":"中和街５５號","OBJECTID":263628},"geometry":{"x":167032.65000000037,"y":2544571.6600000001}},{"attributes":{"ID":263633,"DIS_CODE":0,"TOWNNAME":"南區","LI":"喜北里","LIN":"13鄰","STREET":"喜樹路","SECT":" ","MAREA":" ","LANE":"２０６巷","ALLEY":" ","HOUSE_NO":"３３號","E_COORD97":165716.09,"N_COORD97":2538176.02,"ADDRESS":"喜樹路２０６巷３３號","OBJECTID":263629},"geometry":{"x":165716.09000000078,"y":2538176.0200000014}},{"attributes":{"ID":263634,"DIS_CODE":0,"TOWNNAME":"南區","LI":"喜北里","LIN":"13鄰","STREET":"喜樹路","SECT":" ","MAREA":" ","LANE":"２０６巷","ALLEY":" ","HOUSE_NO":"３５號","E_COORD97":165715.48000000001,"N_COORD97":2538180.4700000002,"ADDRESS":"喜樹路２０６巷３５號","OBJECTID":263630},"geometry":{"x":165715.48000000138,"y":2538180.4700000025}},{"attributes":{"ID":263635,"DIS_CODE":0,"TOWNNAME":"南區","LI":"喜北里","LIN":"13鄰","STREET":"喜樹路","SECT":" ","MAREA":" ","LANE":"２０６巷","ALLEY":" ","HOUSE_NO":"３７號","E_COORD97":165714.12,"N_COORD97":2538184.7000000002,"ADDRESS":"喜樹路２０６巷３７號","OBJECTID":263631},"geometry":{"x":165714.12000000104,"y":2538184.7000000011}},{"attributes":{"ID":263636,"DIS_CODE":0,"TOWNNAME":"南區","LI":"喜北里","LIN":"13鄰","STREET":"喜樹路","SECT":" ","MAREA":" ","LANE":"２０６巷","ALLEY":" ","HOUSE_NO":"３９號","E_COORD97":165713.82000000001,"N_COORD97":2538189.0800000001,"ADDRESS":"喜樹路２０６巷３９號","OBJECTID":263632},"geometry":{"x":165713.8200000003,"y":2538189.0800000038}},{"attributes":{"ID":263637,"DIS_CODE":0,"TOWNNAME":"南區","LI":"喜北里","LIN":"13鄰","STREET":"喜樹路","SECT":" ","MAREA":" ","LANE":"２０６巷","ALLEY":" ","HOUSE_NO":"４１號","E_COORD97":165712.69,"N_COORD97":2538193.4500000002,"ADDRESS":"喜樹路２０６巷４１號","OBJECTID":263633},"geometry":{"x":165712.69000000134,"y":2538193.4500000011}},{"attributes":{"ID":263638,"DIS_CODE":0,"TOWNNAME":"南區","LI":"喜北里","LIN":"13鄰","STREET":"喜樹路","SECT":" ","MAREA":" ","LANE":"２０６巷","ALLEY":" ","HOUSE_NO":"４５號","E_COORD97":165710.64999999999,"N_COORD97":2538204.1600000001,"ADDRESS":"喜樹路２０６巷４５號","OBJECTID":263634},"geometry":{"x":165710.65000000224,"y":2538204.1600000001}},{"attributes":{"ID":263639,"DIS_CODE":0,"TOWNNAME":"南區","LI":"喜北里","LIN":"13鄰","STREET":"喜樹路","SECT":" ","MAREA":" ","LANE":"２０６巷","ALLEY":" ","HOUSE_NO":"４７號","E_COORD97":165709.59,"N_COORD97":2538208.6899999999,"ADDRESS":"喜樹路２０６巷４７號","OBJECTID":263635},"geometry":{"x":165709.58999999985,"y":2538208.6900000013}},{"attributes":{"ID":263640,"DIS_CODE":0,"TOWNNAME":"南區","LI":"喜北里","LIN":"13鄰","STREET":"喜樹路","SECT":" ","MAREA":" ","LANE":"２０６巷","ALLEY":" ","HOUSE_NO":"４９號","E_COORD97":165708.98000000001,"N_COORD97":2538212.6899999999,"ADDRESS":"喜樹路２０６巷４９號","OBJECTID":263636},"geometry":{"x":165708.98000000138,"y":2538212.6900000013}},{"attributes":{"ID":263641,"DIS_CODE":0,"TOWNNAME":"南區","LI":"喜北里","LIN":"13鄰","STREET":"喜樹路","SECT":" ","MAREA":" ","LANE":"２０６巷","ALLEY":" ","HOUSE_NO":"５１號","E_COORD97":165708.14999999999,"N_COORD97":2538217.3700000001,"ADDRESS":"喜樹路２０６巷５１號","OBJECTID":263637},"geometry":{"x":165708.15000000037,"y":2538217.370000001}},{"attributes":{"ID":263642,"DIS_CODE":0,"TOWNNAME":"南區","LI":"喜北里","LIN":"13鄰","STREET":"喜樹路","SECT":" ","MAREA":" ","LANE":"２０６巷","ALLEY":" ","HOUSE_NO":"５３號","E_COORD97":165707.47,"N_COORD97":2538221.8199999998,"ADDRESS":"喜樹路２０６巷５３號","OBJECTID":263638},"geometry":{"x":165707.46999999974,"y":2538221.8200000022}},{"attributes":{"ID":263643,"DIS_CODE":0,"TOWNNAME":"南區","LI":"喜北里","LIN":"13鄰","STREET":"喜樹路","SECT":" ","MAREA":" ","LANE":"２０６巷","ALLEY":" ","HOUSE_NO":"５５號","E_COORD97":165706.72,"N_COORD97":2538226.27,"ADDRESS":"喜樹路２０６巷５５號","OBJECTID":263639},"geometry":{"x":165706.72000000067,"y":2538226.2699999996}},{"attributes":{"ID":263644,"DIS_CODE":0,"TOWNNAME":"南區","LI":"喜北里","LIN":"13鄰","STREET":"喜樹路","SECT":" ","MAREA":" ","LANE":"２０６巷","ALLEY":" ","HOUSE_NO":"５９號","E_COORD97":165705.42999999999,"N_COORD97":2538236.9100000001,"ADDRESS":"喜樹路２０６巷５９號","OBJECTID":263640},"geometry":{"x":165705.43000000063,"y":2538236.9100000001}},{"attributes":{"ID":263645,"DIS_CODE":0,"TOWNNAME":"南區","LI":"喜北里","LIN":"13鄰","STREET":"喜樹路","SECT":" ","MAREA":" ","LANE":"２０６巷","ALLEY":" ","HOUSE_NO":"６１號","E_COORD97":165704.75,"N_COORD97":2538241.6699999999,"ADDRESS":"喜樹路２０６巷６１號","OBJECTID":263641},"geometry":{"x":165704.75000000093,"y":2538241.6699999999}},{"attributes":{"ID":263646,"DIS_CODE":0,"TOWNNAME":"南區","LI":"喜北里","LIN":"13鄰","STREET":"喜樹路","SECT":" ","MAREA":" ","LANE":"２０６巷","ALLEY":" ","HOUSE_NO":"６３號","E_COORD97":165703.39000000001,"N_COORD97":2538246.2000000002,"ADDRESS":"喜樹路２０６巷６３號","OBJECTID":263642},"geometry":{"x":165703.3900000006,"y":2538246.2000000011}},{"attributes":{"ID":263647,"DIS_CODE":0,"TOWNNAME":"東區","LI":"崇信里","LIN":"13鄰","STREET":"崇信街","SECT":" ","MAREA":" ","LANE":"５０巷","ALLEY":" ","HOUSE_NO":"９號","E_COORD97":170670.97,"N_COORD97":2542468.8700000001,"ADDRESS":"崇信街５０巷９號","OBJECTID":263643},"geometry":{"x":170670.96999999974,"y":2542468.870000001}},{"attributes":{"ID":263648,"DIS_CODE":0,"TOWNNAME":"南區","LI":"喜北里","LIN":"13鄰","STREET":"喜樹路","SECT":" ","MAREA":" ","LANE":"２０６巷","ALLEY":" ","HOUSE_NO":"７５號","E_COORD97":165698.01999999999,"N_COORD97":2538274.1099999999,"ADDRESS":"喜樹路２０６巷７５號","OBJECTID":263644},"geometry":{"x":165698.01999999955,"y":2538274.1100000013}},{"attributes":{"ID":263649,"DIS_CODE":0,"TOWNNAME":"南區","LI":"喜北里","LIN":"13鄰","STREET":"喜樹路","SECT":" ","MAREA":" ","LANE":"２０６巷","ALLEY":" ","HOUSE_NO":"７７號","E_COORD97":165697.10999999999,"N_COORD97":2538278.6400000001,"ADDRESS":"喜樹路２０６巷７７號","OBJECTID":263645},"geometry":{"x":165697.11000000034,"y":2538278.6400000025}},{"attributes":{"ID":263650,"DIS_CODE":0,"TOWNNAME":"安南區","LI":"鳳凰里","LIN":"22鄰","STREET":"安中路","SECT":"一段","MAREA":" ","LANE":" ","ALLEY":" ","HOUSE_NO":"８２８號","E_COORD97":167457.88,"N_COORD97":2549355.4700000002,"ADDRESS":"安中路一段８２８號","OBJECTID":263646},"geometry":{"x":167457.88000000175,"y":2549355.4700000025}},{"attributes":{"ID":263651,"DIS_CODE":0,"TOWNNAME":"南區","LI":"喜北里","LIN":"13鄰","STREET":"喜樹路","SECT":" ","MAREA":" ","LANE":"２０６巷","ALLEY":" ","HOUSE_NO":"７９號","E_COORD97":165696.35000000001,"N_COORD97":2538282.79,"ADDRESS":"喜樹路２０６巷７９號","OBJECTID":263647},"geometry":{"x":165696.34999999963,"y":2538282.790000001}},{"attributes":{"ID":263652,"DIS_CODE":0,"TOWNNAME":"南區","LI":"喜北里","LIN":"13鄰","STREET":"喜樹路","SECT":" ","MAREA":" ","LANE":"２０６巷","ALLEY":" ","HOUSE_NO":"８１號","E_COORD97":165695.51999999999,"N_COORD97":2538287.0899999999,"ADDRESS":"喜樹路２０６巷８１號","OBJECTID":263648},"geometry":{"x":165695.52000000048,"y":2538287.0900000036}},{"attributes":{"ID":263653,"DIS_CODE":0,"TOWNNAME":"南區","LI":"喜北里","LIN":"13鄰","STREET":"喜樹路","SECT":" ","MAREA":" ","LANE":"２０６巷","ALLEY":" ","HOUSE_NO":"８３號","E_COORD97":165694.84,"N_COORD97":2538291.3199999998,"ADDRESS":"喜樹路２０６巷８３號","OBJECTID":263649},"geometry":{"x":165694.83999999985,"y":2538291.3200000003}},{"attributes":{"ID":263654,"DIS_CODE":0,"TOWNNAME":"南區","LI":"喜北里","LIN":"13鄰","STREET":"喜樹路","SECT":" ","MAREA":" ","LANE":"２０６巷","ALLEY":" ","HOUSE_NO":"８５號","E_COORD97":165693.63,"N_COORD97":2538295.8500000001,"ADDRESS":"喜樹路２０６巷８５號","OBJECTID":263650},"geometry":{"x":165693.63000000082,"y":2538295.8500000015}},{"attributes":{"ID":263655,"DIS_CODE":0,"TOWNNAME":"永康區","LI":"東橋里","LIN":"13鄰","STREET":"中山南路","SECT":" ","MAREA":" ","LANE":"２３１巷","ALLEY":" ","HOUSE_NO":"６號","E_COORD97":171626.57999999999,"N_COORD97":2546260.8300000001,"ADDRESS":"中山南路２３１巷６號","OBJECTID":263651},"geometry":{"x":171626.58000000007,"y":2546260.8300000019}},{"attributes":{"ID":263656,"DIS_CODE":0,"TOWNNAME":"永康區","LI":"南灣里","LIN":"13鄰","STREET":"立興街","SECT":" ","MAREA":" ","LANE":"５７巷","ALLEY":" ","HOUSE_NO":"１８號","E_COORD97":174621.59,"N_COORD97":2544808.0800000001,"ADDRESS":"立興街５７巷１８號","OBJECTID":263652},"geometry":{"x":174621.58999999985,"y":2544808.0800000019}},{"attributes":{"ID":263657,"DIS_CODE":0,"TOWNNAME":"永康區","LI":"埔園里","LIN":"13鄰","STREET":"中山路","SECT":" ","MAREA":" ","LANE":"２０７巷","ALLEY":" ","HOUSE_NO":"９號","E_COORD97":173633.89000000001,"N_COORD97":2548085.75,"ADDRESS":"中山路２０７巷９號","OBJECTID":263653},"geometry":{"x":173633.8900000006,"y":2548085.7500000019}},{"attributes":{"ID":263658,"DIS_CODE":0,"TOWNNAME":"永康區","LI":"埔園里","LIN":"13鄰","STREET":"中山路","SECT":" ","MAREA":" ","LANE":"２３３巷","ALLEY":" ","HOUSE_NO":"３號","E_COORD97":173631.14000000001,"N_COORD97":2548141.7400000002,"ADDRESS":"中山路２３３巷３號","OBJECTID":263654},"geometry":{"x":173631.13999999966,"y":2548141.7400000002}},{"attributes":{"ID":263659,"DIS_CODE":0,"TOWNNAME":"永康區","LI":"埔園里","LIN":"13鄰","STREET":"中山路","SECT":" ","MAREA":" ","LANE":"２０７巷","ALLEY":" ","HOUSE_NO":"２號","E_COORD97":173637.54000000001,"N_COORD97":2548107.5,"ADDRESS":"中山路２０７巷２號","OBJECTID":263655},"geometry":{"x":173637.54000000004,"y":2548107.5000000019}},{"attributes":{"ID":263660,"DIS_CODE":0,"TOWNNAME":"東區","LI":"虎尾里","LIN":"13鄰","STREET":"東成街","SECT":" ","MAREA":" ","LANE":"１１１巷","ALLEY":" ","HOUSE_NO":"１０號","E_COORD97":171610.44,"N_COORD97":2542345.7799999998,"ADDRESS":"東成街１１１巷１０號","OBJECTID":263656},"geometry":{"x":171610.44000000134,"y":2542345.7799999993}},{"attributes":{"ID":263661,"DIS_CODE":0,"TOWNNAME":"東區","LI":"虎尾里","LIN":"13鄰","STREET":"東成街","SECT":" ","MAREA":" ","LANE":"１１１巷","ALLEY":" ","HOUSE_NO":"１０號之１","E_COORD97":171613.06,"N_COORD97":2542321.9500000002,"ADDRESS":"東成街１１１巷１０號之１","OBJECTID":263657},"geometry":{"x":171613.06000000145,"y":2542321.950000003}},{"attributes":{"ID":263662,"DIS_CODE":0,"TOWNNAME":"善化區","LI":"南關里","LIN":"13鄰","STREET":"復興街","SECT":" ","MAREA":" ","LANE":"５５巷","ALLEY":" ","HOUSE_NO":"６號","E_COORD97":176985.32999999999,"N_COORD97":2558980.0099999998,"ADDRESS":"復興街５５巷６號","OBJECTID":263658},"geometry":{"x":176985.32999999914,"y":2558980.0100000016}},{"attributes":{"ID":263663,"DIS_CODE":0,"TOWNNAME":"永康區","LI":"東橋里","LIN":"13鄰","STREET":"中山南路","SECT":" ","MAREA":" ","LANE":"２３１巷","ALLEY":" ","HOUSE_NO":"１８號地下室之４","E_COORD97":171615.39999999999,"N_COORD97":2546285.8799999999,"ADDRESS":"中山南路２３１巷１８號地下室之４","OBJECTID":263659},"geometry":{"x":171615.4000000013,"y":2546285.8800000008}},{"attributes":{"ID":263664,"DIS_CODE":0,"TOWNNAME":"永康區","LI":"南灣里","LIN":"13鄰","STREET":"立興街","SECT":" ","MAREA":" ","LANE":"５７巷","ALLEY":" ","HOUSE_NO":"１０號","E_COORD97":174615.54000000001,"N_COORD97":2544770.8100000001,"ADDRESS":"立興街５７巷１０號","OBJECTID":263660},"geometry":{"x":174615.54000000004,"y":2544770.8100000005}},{"attributes":{"ID":263665,"DIS_CODE":0,"TOWNNAME":"永康區","LI":"東灣里","LIN":"13鄰","STREET":"大灣二街","SECT":" ","MAREA":" ","LANE":"１１４巷","ALLEY":" ","HOUSE_NO":"２１號","E_COORD97":174778.45999999999,"N_COORD97":2544882.3500000001,"ADDRESS":"大灣二街１１４巷２１號","OBJECTID":263661},"geometry":{"x":174778.45999999996,"y":2544882.3499999996}},{"attributes":{"ID":263666,"DIS_CODE":0,"TOWNNAME":"永康區","LI":"埔園里","LIN":"13鄰","STREET":"中山路","SECT":" ","MAREA":" ","LANE":"２０７巷","ALLEY":" ","HOUSE_NO":"３７號","E_COORD97":173587.89000000001,"N_COORD97":2548120.2400000002,"ADDRESS":"中山路２０７巷３７號","OBJECTID":263662},"geometry":{"x":173587.8900000006,"y":2548120.2400000002}},{"attributes":{"ID":263667,"DIS_CODE":0,"TOWNNAME":"中西區","LI":"萬昌里","LIN":"22鄰","STREET":"北門路","SECT":"一段","MAREA":" ","LANE":" ","ALLEY":" ","HOUSE_NO":"５３號","E_COORD97":169150.88,"N_COORD97":2543420.73,"ADDRESS":"北門路一段５３號","OBJECTID":263663},"geometry":{"x":169150.87999999989,"y":2543420.7300000023}},{"attributes":{"ID":263668,"DIS_CODE":0,"TOWNNAME":"東區","LI":"和平里","LIN":"22鄰","STREET":"自由路","SECT":"二段","MAREA":" ","LANE":" ","ALLEY":" ","HOUSE_NO":"１７７號","E_COORD97":171789.87,"N_COORD97":2541651.8599999999,"ADDRESS":"自由路二段１７７號","OBJECTID":263664},"geometry":{"x":171789.87000000104,"y":2541651.8600000013}},{"attributes":{"ID":263669,"DIS_CODE":0,"TOWNNAME":"永康區","LI":"埔園里","LIN":"13鄰","STREET":"中山路","SECT":" ","MAREA":" ","LANE":"２０７巷","ALLEY":" ","HOUSE_NO":"５７號","E_COORD97":173553.66,"N_COORD97":2548144.7400000002,"ADDRESS":"中山路２０７巷５７號","OBJECTID":263665},"geometry":{"x":173553.66000000015,"y":2548144.7400000002}},{"attributes":{"ID":263670,"DIS_CODE":0,"TOWNNAME":"南區","LI":"竹溪里","LIN":"13鄰","STREET":"新都路","SECT":" ","MAREA":" ","LANE":"１４５巷","ALLEY":" ","HOUSE_NO":"４２號","E_COORD97":168346.84,"N_COORD97":2541241.1899999999,"ADDRESS":"新都路１４５巷４２號","OBJECTID":263666},"geometry":{"x":168346.84000000078,"y":2541241.1899999995}},{"attributes":{"ID":263671,"DIS_CODE":0,"TOWNNAME":"東區","LI":"大學里","LIN":"13鄰","STREET":"東寧路","SECT":" ","MAREA":" ","LANE":"９３巷","ALLEY":" ","HOUSE_NO":"２９號","E_COORD97":170337.98999999999,"N_COORD97":2543695.9199999999,"ADDRESS":"東寧路９３巷２９號","OBJECTID":263667},"geometry":{"x":170337.99000000115,"y":2543695.9200000037}},{"attributes":{"ID":263672,"DIS_CODE":0,"TOWNNAME":"東區","LI":"大學里","LIN":"13鄰","STREET":"東寧路","SECT":" ","MAREA":" ","LANE":"９３巷","ALLEY":" ","HOUSE_NO":"３１號","E_COORD97":170343.07000000001,"N_COORD97":2543697.1499999999,"ADDRESS":"東寧路９３巷３１號","OBJECTID":263668},"geometry":{"x":170343.07000000123,"y":2543697.1500000004}},{"attributes":{"ID":263673,"DIS_CODE":0,"TOWNNAME":"安南區","LI":"淵東里","LIN":"13鄰","STREET":"本原街","SECT":"三段","MAREA":" ","LANE":"１３４巷","ALLEY":" ","HOUSE_NO":"６號","E_COORD97":165593.60000000001,"N_COORD97":2550408.1800000002,"ADDRESS":"本原街三段１３４巷６號","OBJECTID":263669},"geometry":{"x":165593.60000000056,"y":2550408.1800000016}},{"attributes":{"ID":263674,"DIS_CODE":0,"TOWNNAME":"安南區","LI":"淵東里","LIN":"13鄰","STREET":"本原街","SECT":"三段","MAREA":" ","LANE":"２４巷","ALLEY":" ","HOUSE_NO":"３號","E_COORD97":165688.87,"N_COORD97":2550436.6800000002,"ADDRESS":"本原街三段２４巷３號","OBJECTID":263670},"geometry":{"x":165688.87000000104,"y":2550436.6799999997}},{"attributes":{"ID":263675,"DIS_CODE":0,"TOWNNAME":"安南區","LI":"淵東里","LIN":"13鄰","STREET":"本原街","SECT":"三段","MAREA":" ","LANE":"２４巷","ALLEY":" ","HOUSE_NO":"５號","E_COORD97":165686.92000000001,"N_COORD97":2550440.6899999999,"ADDRESS":"本原街三段２４巷５號","OBJECTID":263671},"geometry":{"x":165686.92000000086,"y":2550440.6900000013}},{"attributes":{"ID":263676,"DIS_CODE":0,"TOWNNAME":"安南區","LI":"淵東里","LIN":"13鄰","STREET":"海佃路","SECT":"四段","MAREA":" ","LANE":"５５巷","ALLEY":" ","HOUSE_NO":"７９號","E_COORD97":165502.10000000001,"N_COORD97":2550501.0800000001,"ADDRESS":"海佃路四段５５巷７９號","OBJECTID":263672},"geometry":{"x":165502.10000000056,"y":2550501.0800000019}},{"attributes":{"ID":263677,"DIS_CODE":0,"TOWNNAME":"善化區","LI":"文正里","LIN":"13鄰","STREET":"陽明路","SECT":" ","MAREA":" ","LANE":"１４２巷","ALLEY":" ","HOUSE_NO":"３９之５３號","E_COORD97":176546.51000000001,"N_COORD97":2559616.77,"ADDRESS":"陽明路１４２巷３９之５３號","OBJECTID":263673},"geometry":{"x":176546.51000000164,"y":2559616.7699999996}},{"attributes":{"ID":263678,"DIS_CODE":0,"TOWNNAME":"善化區","LI":"文正里","LIN":"13鄰","STREET":"陽明路","SECT":" ","MAREA":" ","LANE":"１４２巷","ALLEY":" ","HOUSE_NO":"３９之９０號","E_COORD97":176531.85999999999,"N_COORD97":2559630.77,"ADDRESS":"陽明路１４２巷３９之９０號","OBJECTID":263674},"geometry":{"x":176531.86000000127,"y":2559630.7699999996}},{"attributes":{"ID":263679,"DIS_CODE":0,"TOWNNAME":"善化區","LI":"文正里","LIN":"13鄰","STREET":"陽明路","SECT":" ","MAREA":" ","LANE":"１４２巷","ALLEY":" ","HOUSE_NO":"３９之６８號","E_COORD97":176524.14000000001,"N_COORD97":2559560.77,"ADDRESS":"陽明路１４２巷３９之６８號","OBJECTID":263675},"geometry":{"x":176524.1400000006,"y":2559560.7700000014}},{"attributes":{"ID":263680,"DIS_CODE":0,"TOWNNAME":"善化區","LI":"文正里","LIN":"13鄰","STREET":"陽明路","SECT":" ","MAREA":" ","LANE":"１４２巷","ALLEY":" ","HOUSE_NO":"３９之３７號","E_COORD97":176472.07999999999,"N_COORD97":2559621.52,"ADDRESS":"陽明路１４２巷３９之３７號","OBJECTID":263676},"geometry":{"x":176472.08000000101,"y":2559621.5199999996}},{"attributes":{"ID":263681,"DIS_CODE":0,"TOWNNAME":"安南區","LI":"淵東里","LIN":"13鄰","STREET":"海佃路","SECT":"四段","MAREA":" ","LANE":"５５巷","ALLEY":" ","HOUSE_NO":"６３號","E_COORD97":165515.44,"N_COORD97":2550515.8700000001,"ADDRESS":"海佃路四段５５巷６３號","OBJECTID":263677},"geometry":{"x":165515.44000000227,"y":2550515.8700000029}},{"attributes":{"ID":263682,"DIS_CODE":0,"TOWNNAME":"安南區","LI":"新順里","LIN":"13鄰","STREET":"永安路","SECT":" ","MAREA":" ","LANE":"９５巷","ALLEY":" ","HOUSE_NO":"１９號","E_COORD97":170618.53,"N_COORD97":2549477.0499999998,"ADDRESS":"永安路９５巷１９號","OBJECTID":263678},"geometry":{"x":170618.53000000026,"y":2549477.0500000026}},{"attributes":{"ID":263683,"DIS_CODE":0,"TOWNNAME":"安南區","LI":"淵東里","LIN":"13鄰","STREET":"海佃路","SECT":"四段","MAREA":" ","LANE":"５５巷","ALLEY":" ","HOUSE_NO":"５７號","E_COORD97":165531.82000000001,"N_COORD97":2550525.1200000001,"ADDRESS":"海佃路四段５５巷５７號","OBJECTID":263679},"geometry":{"x":165531.82000000123,"y":2550525.1200000029}},{"attributes":{"ID":263684,"DIS_CODE":0,"TOWNNAME":"安南區","LI":"海南里","LIN":"13鄰","STREET":"府安路","SECT":"七段","MAREA":" ","LANE":"４８巷","ALLEY":" ","HOUSE_NO":"２５號","E_COORD97":165913.17999999999,"N_COORD97":2546029.8999999999,"ADDRESS":"府安路七段４８巷２５號","OBJECTID":263680},"geometry":{"x":165913.18000000156,"y":2546029.9000000022}},{"attributes":{"ID":263685,"DIS_CODE":0,"TOWNNAME":"仁德區","LI":"土庫里","LIN":"13鄰","STREET":"土庫路","SECT":" ","MAREA":" ","LANE":"１８５巷","ALLEY":" ","HOUSE_NO":"８號","E_COORD97":174351.56,"N_COORD97":2542939.4900000002,"ADDRESS":"土庫路１８５巷８號","OBJECTID":263681},"geometry":{"x":174351.56000000052,"y":2542939.4899999984}},{"attributes":{"ID":263686,"DIS_CODE":0,"TOWNNAME":"仁德區","LI":"仁義里","LIN":"13鄰","STREET":"義林路","SECT":" ","MAREA":" ","LANE":"２００巷","ALLEY":" ","HOUSE_NO":"１２號","E_COORD97":174589.67000000001,"N_COORD97":2541241.52,"ADDRESS":"義林路２００巷１２號","OBJECTID":263682},"geometry":{"x":174589.67000000086,"y":2541241.5200000014}},{"attributes":{"ID":263687,"DIS_CODE":0,"TOWNNAME":"仁德區","LI":"上崙里","LIN":"13鄰","STREET":"德崙路","SECT":" ","MAREA":" ","LANE":"４２２巷","ALLEY":" ","HOUSE_NO":"７號","E_COORD97":174160.26000000001,"N_COORD97":2538058.27,"ADDRESS":"德崙路４２２巷７號","OBJECTID":263683},"geometry":{"x":174160.26000000071,"y":2538058.2700000033}},{"attributes":{"ID":263688,"DIS_CODE":0,"TOWNNAME":"仁德區","LI":"仁義里","LIN":"13鄰","STREET":"義林路","SECT":" ","MAREA":" ","LANE":"２００巷","ALLEY":" ","HOUSE_NO":"１０號","E_COORD97":174585.12,"N_COORD97":2541242.52,"ADDRESS":"義林路２００巷１０號","OBJECTID":263684},"geometry":{"x":174585.12000000104,"y":2541242.5199999996}},{"attributes":{"ID":263689,"DIS_CODE":0,"TOWNNAME":"永康區","LI":"網寮里","LIN":"22鄰","STREET":"永勝街","SECT":" ","MAREA":" ","LANE":" ","ALLEY":" ","HOUSE_NO":"４６號","E_COORD97":173633.20999999999,"N_COORD97":2546244.9300000002,"ADDRESS":"永勝街４６號","OBJECTID":263685},"geometry":{"x":173633.21000000089,"y":2546244.9299999978}},{"attributes":{"ID":263690,"DIS_CODE":0,"TOWNNAME":"永康區","LI":"復華里","LIN":"22鄰","STREET":"復華七街","SECT":" ","MAREA":" ","LANE":" ","ALLEY":" ","HOUSE_NO":"９３號","E_COORD97":172800.67000000001,"N_COORD97":2546122.7999999998,"ADDRESS":"復華七街９３號","OBJECTID":263686},"geometry":{"x":172800.66999999993,"y":2546122.8000000026}},{"attributes":{"ID":263691,"DIS_CODE":0,"TOWNNAME":"永康區","LI":"網寮里","LIN":"22鄰","STREET":"永勝街","SECT":" ","MAREA":" ","LANE":" ","ALLEY":" ","HOUSE_NO":"５８號","E_COORD97":173623.85999999999,"N_COORD97":2546262.9199999999,"ADDRESS":"永勝街５８號","OBJECTID":263687},"geometry":{"x":173623.8599999994,"y":2546262.9200000018}},{"attributes":{"ID":263692,"DIS_CODE":0,"TOWNNAME":"永康區","LI":"網寮里","LIN":"22鄰","STREET":"永勝街","SECT":" ","MAREA":" ","LANE":" ","ALLEY":" ","HOUSE_NO":"４０號","E_COORD97":173635.54999999999,"N_COORD97":2546236.4300000002,"ADDRESS":"永勝街４０號","OBJECTID":263688},"geometry":{"x":173635.54999999888,"y":2546236.4300000016}},{"attributes":{"ID":263693,"DIS_CODE":0,"TOWNNAME":"永康區","LI":"埔園里","LIN":"14鄰","STREET":"中山路","SECT":" ","MAREA":" ","LANE":" ","ALLEY":" ","HOUSE_NO":"３１７號之１","E_COORD97":173604.62,"N_COORD97":2548354.3199999998,"ADDRESS":"中山路３１７號之１","OBJECTID":263689},"geometry":{"x":173604.62000000011,"y":2548354.3200000003}},{"attributes":{"ID":263694,"DIS_CODE":0,"TOWNNAME":"永康區","LI":"埔園里","LIN":"28鄰","STREET":"埔園街","SECT":" ","MAREA":" ","LANE":" ","ALLEY":" ","HOUSE_NO":"２５０號","E_COORD97":173672.04000000001,"N_COORD97":2548251.9900000002,"ADDRESS":"埔園街２５０號","OBJECTID":263690},"geometry":{"x":173672.04000000097,"y":2548251.9900000002}},{"attributes":{"ID":263695,"DIS_CODE":0,"TOWNNAME":"永康區","LI":"復華里","LIN":"22鄰","STREET":"復華七街","SECT":" ","MAREA":" ","LANE":" ","ALLEY":" ","HOUSE_NO":"１２１號","E_COORD97":172851.04000000001,"N_COORD97":2546187.27,"ADDRESS":"復華七街１２１號","OBJECTID":263691},"geometry":{"x":172851.03999999911,"y":2546187.2699999996}},{"attributes":{"ID":263696,"DIS_CODE":0,"TOWNNAME":"仁德區","LI":"上崙里","LIN":"13鄰","STREET":"德崙路","SECT":" ","MAREA":" ","LANE":"４５０巷","ALLEY":" ","HOUSE_NO":"２５號","E_COORD97":174210.14000000001,"N_COORD97":2538017.02,"ADDRESS":"德崙路４５０巷２５號","OBJECTID":263692},"geometry":{"x":174210.1400000006,"y":2538017.0200000014}},{"attributes":{"ID":263697,"DIS_CODE":0,"TOWNNAME":"永康區","LI":"復華里","LIN":"22鄰","STREET":"復華七街","SECT":" ","MAREA":" ","LANE":" ","ALLEY":" ","HOUSE_NO":"１２３號","E_COORD97":172853.63,"N_COORD97":2546191.02,"ADDRESS":"復華七街１２３號","OBJECTID":263693},"geometry":{"x":172853.62999999896,"y":2546191.0200000014}},{"attributes":{"ID":263698,"DIS_CODE":0,"TOWNNAME":"安南區","LI":"安順里","LIN":"22鄰","STREET":"總安街","SECT":"一段","MAREA":" ","LANE":" ","ALLEY":" ","HOUSE_NO":"１５２號","E_COORD97":169585.73000000001,"N_COORD97":2550228.9900000002,"ADDRESS":"總安街一段１５２號","OBJECTID":263694},"geometry":{"x":169585.73000000138,"y":2550228.9900000039}},{"attributes":{"ID":263699,"DIS_CODE":0,"TOWNNAME":"安南區","LI":"安順里","LIN":"22鄰","STREET":"總安街","SECT":"一段","MAREA":" ","LANE":" ","ALLEY":" ","HOUSE_NO":"１６０號","E_COORD97":169568.94,"N_COORD97":2550234.1000000001,"ADDRESS":"總安街一段１６０號","OBJECTID":263695},"geometry":{"x":169568.94000000134,"y":2550234.0999999978}},{"attributes":{"ID":263700,"DIS_CODE":0,"TOWNNAME":"仁德區","LI":"一甲里","LIN":"13鄰","STREET":"忠義三街","SECT":" ","MAREA":" ","LANE":"２４巷","ALLEY":" ","HOUSE_NO":"５號","E_COORD97":173660.79000000001,"N_COORD97":2541745.27,"ADDRESS":"忠義三街２４巷５號","OBJECTID":263696},"geometry":{"x":173660.79000000004,"y":2541745.2700000014}},{"attributes":{"ID":263701,"DIS_CODE":0,"TOWNNAME":"北區","LI":"中樓里","LIN":"15鄰","STREET":"開元路","SECT":" ","MAREA":" ","LANE":"９０巷","ALLEY":" ","HOUSE_NO":"５６號","E_COORD97":169826.06,"N_COORD97":2545045.3500000001,"ADDRESS":"開元路９０巷５６號","OBJECTID":263697},"geometry":{"x":169826.05999999959,"y":2545045.3500000034}},{"attributes":{"ID":263702,"DIS_CODE":0,"TOWNNAME":"北區","LI":"中樓里","LIN":"15鄰","STREET":"開元路","SECT":" ","MAREA":" ","LANE":"９０巷","ALLEY":" ","HOUSE_NO":"５８號","E_COORD97":169827.81,"N_COORD97":2545035.0699999998,"ADDRESS":"開元路９０巷５８號","OBJECTID":263698},"geometry":{"x":169827.80999999959,"y":2545035.0700000022}},{"attributes":{"ID":263703,"DIS_CODE":0,"TOWNNAME":"北區","LI":"中樓里","LIN":"15鄰","STREET":"開元路","SECT":" ","MAREA":" ","LANE":"９０巷","ALLEY":" ","HOUSE_NO":"９３號","E_COORD97":169832.48000000001,"N_COORD97":2545077.98,"ADDRESS":"開元路９０巷９３號","OBJECTID":263699},"geometry":{"x":169832.48000000045,"y":2545077.9800000004}},{"attributes":{"ID":263704,"DIS_CODE":0,"TOWNNAME":"東區","LI":"東明里","LIN":"22鄰","STREET":"怡東路","SECT":" ","MAREA":" ","LANE":" ","ALLEY":" ","HOUSE_NO":"３９號","E_COORD97":170811.79000000001,"N_COORD97":2543551.3599999999,"ADDRESS":"怡東路３９號","OBJECTID":263700},"geometry":{"x":170811.7900000019,"y":2543551.3600000013}},{"attributes":{"ID":263705,"DIS_CODE":0,"TOWNNAME":"北區","LI":"中樓里","LIN":"15鄰","STREET":"開元路","SECT":" ","MAREA":" ","LANE":"９０巷","ALLEY":" ","HOUSE_NO":"９５號","E_COORD97":169834.03,"N_COORD97":2545069.96,"ADDRESS":"開元路９０巷９５號","OBJECTID":263701},"geometry":{"x":169834.03000000212,"y":2545069.9600000046}},{"attributes":{"ID":263706,"DIS_CODE":0,"TOWNNAME":"北區","LI":"中樓里","LIN":"15鄰","STREET":"開元路","SECT":" ","MAREA":" ","LANE":"９０巷","ALLEY":" ","HOUSE_NO":"９７號","E_COORD97":169835.98000000001,"N_COORD97":2545060.5899999999,"ADDRESS":"開元路９０巷９７號","OBJECTID":263702},"geometry":{"x":169835.98000000045,"y":2545060.5899999999}},{"attributes":{"ID":263707,"DIS_CODE":0,"TOWNNAME":"仁德區","LI":"上崙里","LIN":"13鄰","STREET":"德崙路","SECT":" ","MAREA":" ","LANE":"４５０巷","ALLEY":" ","HOUSE_NO":"４１號","E_COORD97":174198.42000000001,"N_COORD97":2537981.0099999998,"ADDRESS":"德崙路４５０巷４１號","OBJECTID":263703},"geometry":{"x":174198.42000000086,"y":2537981.0099999998}},{"attributes":{"ID":263708,"DIS_CODE":0,"TOWNNAME":"中西區","LI":"開山里","LIN":"13鄰","STREET":"大同路","SECT":"一段","MAREA":" ","LANE":"４６巷","ALLEY":" ","HOUSE_NO":"２３號","E_COORD97":169046.48999999999,"N_COORD97":2543141.6400000001,"ADDRESS":"大同路一段４６巷２３號","OBJECTID":263704},"geometry":{"x":169046.49000000115,"y":2543141.6400000006}},{"attributes":{"ID":263709,"DIS_CODE":0,"TOWNNAME":"東區","LI":"大德里","LIN":"13鄰","STREET":"立德十路","SECT":" ","MAREA":" ","LANE":"８０巷","ALLEY":" ","HOUSE_NO":"１６號","E_COORD97":169583.66372300001,"N_COORD97":2542007.6726099998,"ADDRESS":"立德十路８０巷１６號","OBJECTID":263705},"geometry":{"x":169583.66372300033,"y":2542007.672612004}},{"attributes":{"ID":263710,"DIS_CODE":0,"TOWNNAME":"東區","LI":"後甲里","LIN":"13鄰","STREET":"裕農路","SECT":" ","MAREA":" ","LANE":"６２１巷","ALLEY":" ","HOUSE_NO":"２１號之６","E_COORD97":171610.60000000001,"N_COORD97":2543298.5099999998,"ADDRESS":"裕農路６２１巷２１號之６","OBJECTID":263706},"geometry":{"x":171610.59999999963,"y":2543298.5100000035}},{"attributes":{"ID":263711,"DIS_CODE":0,"TOWNNAME":"東區","LI":"後甲里","LIN":"13鄰","STREET":"裕農路","SECT":" ","MAREA":" ","LANE":"６２１巷","ALLEY":" ","HOUSE_NO":"２５號","E_COORD97":171607.95000000001,"N_COORD97":2543305.98,"ADDRESS":"裕農路６２１巷２５號","OBJECTID":263707},"geometry":{"x":171607.95000000112,"y":2543305.9800000042}},{"attributes":{"ID":263712,"DIS_CODE":0,"TOWNNAME":"東區","LI":"大德里","LIN":"13鄰","STREET":"立德十路","SECT":" ","MAREA":" ","LANE":"８０巷","ALLEY":" ","HOUSE_NO":"２９號","E_COORD97":169597.89999999999,"N_COORD97":2542010.52,"ADDRESS":"立德十路８０巷２９號","OBJECTID":263708},"geometry":{"x":169597.9000000013,"y":2542010.5200000014}},{"attributes":{"ID":263713,"DIS_CODE":0,"TOWNNAME":"白河區","LI":"永安里","LIN":"7鄰","STREET":"中正路","SECT":" ","MAREA":" ","LANE":" ","ALLEY":" ","HOUSE_NO":"１４９號","E_COORD97":189796.82999999999,"N_COORD97":2583082.8399999999,"ADDRESS":"中正路１４９號","OBJECTID":263709},"geometry":{"x":189796.83000000101,"y":2583082.8400000017}},{"attributes":{"ID":263714,"DIS_CODE":0,"TOWNNAME":"東區","LI":"大德里","LIN":"13鄰","STREET":"立德十路","SECT":" ","MAREA":" ","LANE":"８０巷","ALLEY":" ","HOUSE_NO":"３１號","E_COORD97":169598.31,"N_COORD97":2542006.8199999998,"ADDRESS":"立德十路８０巷３１號","OBJECTID":263710},"geometry":{"x":169598.30999999959,"y":2542006.8200000003}},{"attributes":{"ID":263715,"DIS_CODE":0,"TOWNNAME":"東區","LI":"大德里","LIN":"13鄰","STREET":"立德十路","SECT":" ","MAREA":" ","LANE":"８０巷","ALLEY":" ","HOUSE_NO":"３３號","E_COORD97":169599.75,"N_COORD97":2542003.54,"ADDRESS":"立德十路８０巷３３號","OBJECTID":263711},"geometry":{"x":169599.75,"y":2542003.540000001}},{"attributes":{"ID":263716,"DIS_CODE":0,"TOWNNAME":"永康區","LI":"勝利里","LIN":"33鄰","STREET":"中華路","SECT":" ","MAREA":" ","LANE":" ","ALLEY":" ","HOUSE_NO":"１號之３","E_COORD97":171500.70999999999,"N_COORD97":2544353.0499999998,"ADDRESS":"中華路１號之３","OBJECTID":263712},"geometry":{"x":171500.71000000089,"y":2544353.0500000007}},{"attributes":{"ID":263717,"DIS_CODE":0,"TOWNNAME":"東區","LI":"東明里","LIN":"22鄰","STREET":"怡東路","SECT":" ","MAREA":" ","LANE":" ","ALLEY":" ","HOUSE_NO":"４１號","E_COORD97":170812.48999999999,"N_COORD97":2543556.7200000002,"ADDRESS":"怡東路４１號","OBJECTID":263713},"geometry":{"x":170812.49000000115,"y":2543556.7200000025}},{"attributes":{"ID":263718,"DIS_CODE":0,"TOWNNAME":"東區","LI":"東明里","LIN":"22鄰","STREET":"怡東路","SECT":" ","MAREA":" ","LANE":" ","ALLEY":" ","HOUSE_NO":"４３號","E_COORD97":170813.19,"N_COORD97":2543559.75,"ADDRESS":"怡東路４３號","OBJECTID":263714},"geometry":{"x":170813.19000000134,"y":2543559.7500000019}},{"attributes":{"ID":263719,"DIS_CODE":0,"TOWNNAME":"東區","LI":"大德里","LIN":"13鄰","STREET":"立德十路","SECT":" ","MAREA":" ","LANE":"８０巷","ALLEY":" ","HOUSE_NO":"３５號","E_COORD97":169600.98000000001,"N_COORD97":2542000.2599999998,"ADDRESS":"立德十路８０巷３５號","OBJECTID":263715},"geometry":{"x":169600.98000000138,"y":2542000.2599999998}},{"attributes":{"ID":263720,"DIS_CODE":0,"TOWNNAME":"東區","LI":"東明里","LIN":"22鄰","STREET":"怡東路","SECT":" ","MAREA":" ","LANE":" ","ALLEY":" ","HOUSE_NO":"４５號","E_COORD97":170813.66,"N_COORD97":2543564.4100000001,"ADDRESS":"怡東路４５號","OBJECTID":263716},"geometry":{"x":170813.66000000015,"y":2543564.410000002}},{"attributes":{"ID":263721,"DIS_CODE":0,"TOWNNAME":"東區","LI":"大德里","LIN":"13鄰","STREET":"立德十路","SECT":" ","MAREA":" ","LANE":"８０巷","ALLEY":" ","HOUSE_NO":"３７號","E_COORD97":169601.59,"N_COORD97":2541996.5699999998,"ADDRESS":"立德十路８０巷３７號","OBJECTID":263717},"geometry":{"x":169601.59000000078,"y":2541996.570000004}},{"attributes":{"ID":263722,"DIS_CODE":0,"TOWNNAME":"東區","LI":"大德里","LIN":"13鄰","STREET":"立德十路","SECT":" ","MAREA":" ","LANE":"８０巷","ALLEY":" ","HOUSE_NO":"３９號","E_COORD97":169603.03,"N_COORD97":2541992.27,"ADDRESS":"立德十路８０巷３９號","OBJECTID":263718},"geometry":{"x":169603.03000000026,"y":2541992.2700000014}},{"attributes":{"ID":263723,"DIS_CODE":0,"TOWNNAME":"東區","LI":"東明里","LIN":"22鄰","STREET":"怡東路","SECT":" ","MAREA":" ","LANE":" ","ALLEY":" ","HOUSE_NO":"４９號","E_COORD97":170814.82000000001,"N_COORD97":2543573.5099999998,"ADDRESS":"怡東路４９號","OBJECTID":263719},"geometry":{"x":170814.8200000003,"y":2543573.5100000016}},{"attributes":{"ID":263724,"DIS_CODE":0,"TOWNNAME":"安南區","LI":"溪北里","LIN":"22鄰","STREET":"敦安街","SECT":" ","MAREA":" ","LANE":" ","ALLEY":" ","HOUSE_NO":"８１號","E_COORD97":169189.85000000001,"N_COORD97":2547528.4300000002,"ADDRESS":"敦安街８１號","OBJECTID":263720},"geometry":{"x":169189.84999999963,"y":2547528.4299999997}},{"attributes":{"ID":263725,"DIS_CODE":0,"TOWNNAME":"安南區","LI":"溪北里","LIN":"22鄰","STREET":"敦安街","SECT":" ","MAREA":" ","LANE":" ","ALLEY":" ","HOUSE_NO":"６５號","E_COORD97":169224.45000000001,"N_COORD97":2547528.6000000001,"ADDRESS":"敦安街６５號","OBJECTID":263721},"geometry":{"x":169224.45000000112,"y":2547528.5999999978}},{"attributes":{"ID":263726,"DIS_CODE":0,"TOWNNAME":"安南區","LI":"溪北里","LIN":"22鄰","STREET":"敦安街","SECT":" ","MAREA":" ","LANE":" ","ALLEY":" ","HOUSE_NO":"６１號","E_COORD97":169233.76999999999,"N_COORD97":2547529.27,"ADDRESS":"敦安街６１號","OBJECTID":263722},"geometry":{"x":169233.77000000048,"y":2547529.2700000014}},{"attributes":{"ID":263727,"DIS_CODE":0,"TOWNNAME":"東區","LI":"東明里","LIN":"22鄰","STREET":"怡東路","SECT":" ","MAREA":" ","LANE":" ","ALLEY":" ","HOUSE_NO":"５３號","E_COORD97":170815.98999999999,"N_COORD97":2543581.2000000002,"ADDRESS":"怡東路５３號","OBJECTID":263723},"geometry":{"x":170815.99000000115,"y":2543581.1999999974}},{"attributes":{"ID":263728,"DIS_CODE":0,"TOWNNAME":"永康區","LI":"甲頂里","LIN":"13鄰","STREET":"大武街","SECT":" ","MAREA":" ","LANE":"１８巷","ALLEY":" ","HOUSE_NO":"３８號","E_COORD97":170387.31,"N_COORD97":2546597.7400000002,"ADDRESS":"大武街１８巷３８號","OBJECTID":263724},"geometry":{"x":170387.30999999866,"y":2546597.7400000021}},{"attributes":{"ID":263729,"DIS_CODE":0,"TOWNNAME":"永康區","LI":"甲頂里","LIN":"13鄰","STREET":"大武街","SECT":" ","MAREA":" ","LANE":"１８巷","ALLEY":" ","HOUSE_NO":"３０號","E_COORD97":170363.39000000001,"N_COORD97":2546618.3399999999,"ADDRESS":"大武街１８巷３０號","OBJECTID":263725},"geometry":{"x":170363.3900000006,"y":2546618.3399999999}},{"attributes":{"ID":263730,"DIS_CODE":0,"TOWNNAME":"永康區","LI":"甲頂里","LIN":"13鄰","STREET":"大武街","SECT":" ","MAREA":" ","LANE":"２巷","ALLEY":" ","HOUSE_NO":"３９號","E_COORD97":170390.01000000001,"N_COORD97":2546567.9900000002,"ADDRESS":"大武街２巷３９號","OBJECTID":263726},"geometry":{"x":170390.01000000071,"y":2546567.9900000021}},{"attributes":{"ID":263731,"DIS_CODE":0,"TOWNNAME":"永康區","LI":"安康里","LIN":"13鄰","STREET":"中華路","SECT":" ","MAREA":" ","LANE":"６１９巷","ALLEY":" ","HOUSE_NO":"１１２號","E_COORD97":170826.12,"N_COORD97":2545980.9900000002,"ADDRESS":"中華路６１９巷１１２號","OBJECTID":263727},"geometry":{"x":170826.12000000011,"y":2545980.9900000039}},{"attributes":{"ID":263732,"DIS_CODE":0,"TOWNNAME":"永康區","LI":"安康里","LIN":"13鄰","STREET":"中華路","SECT":" ","MAREA":" ","LANE":"６１９巷","ALLEY":" ","HOUSE_NO":"９８號","E_COORD97":170850.79000000001,"N_COORD97":2545995,"ADDRESS":"中華路６１９巷９８號","OBJECTID":263728},"geometry":{"x":170850.7900000019,"y":2545995.0000000019}},{"attributes":{"ID":263733,"DIS_CODE":0,"TOWNNAME":"永康區","LI":"甲頂里","LIN":"13鄰","STREET":"大武街","SECT":" ","MAREA":" ","LANE":"１８巷","ALLEY":" ","HOUSE_NO":"５２號","E_COORD97":170414.56,"N_COORD97":2546579.4900000002,"ADDRESS":"大武街１８巷５２號","OBJECTID":263729},"geometry":{"x":170414.56000000145,"y":2546579.4900000002}},{"attributes":{"ID":263734,"DIS_CODE":0,"TOWNNAME":"永康區","LI":"\u25A0洲里","LIN":"22鄰","STREET":"\u25A0忠街","SECT":" ","MAREA":" ","LANE":" ","ALLEY":" ","HOUSE_NO":"１２號","E_COORD97":171570.69,"N_COORD97":2548906.9500000002,"ADDRESS":"\u25A0忠街１２號","OBJECTID":263730},"geometry":{"x":171570.69000000227,"y":2548906.9500000011}},{"attributes":{"ID":263735,"DIS_CODE":0,"TOWNNAME":"永康區","LI":"\u25A0洲里","LIN":"22鄰","STREET":"國聖街","SECT":" ","MAREA":" ","LANE":" ","ALLEY":" ","HOUSE_NO":"４３７號","E_COORD97":171350.47,"N_COORD97":2548987.5099999998,"ADDRESS":"國聖街４３７號","OBJECTID":263731},"geometry":{"x":171350.46999999974,"y":2548987.5100000035}},{"attributes":{"ID":263736,"DIS_CODE":0,"TOWNNAME":"永康區","LI":"\u25A0洲里","LIN":"22鄰","STREET":"國聖街","SECT":" ","MAREA":" ","LANE":" ","ALLEY":" ","HOUSE_NO":"５７６號","E_COORD97":171419.64999999999,"N_COORD97":2548973.7400000002,"ADDRESS":"國聖街５７６號","OBJECTID":263732},"geometry":{"x":171419.65000000037,"y":2548973.7400000021}},{"attributes":{"ID":263737,"DIS_CODE":0,"TOWNNAME":"永康區","LI":"中華里","LIN":"22鄰","STREET":"華興街","SECT":" ","MAREA":" ","LANE":" ","ALLEY":" ","HOUSE_NO":"９０號","E_COORD97":171854.98000000001,"N_COORD97":2544581.7999999998,"ADDRESS":"華興街９０號","OBJECTID":263733},"geometry":{"x":171854.98000000045,"y":2544581.8000000007}},{"attributes":{"ID":263738,"DIS_CODE":0,"TOWNNAME":"新化區","LI":"豐榮里","LIN":"13鄰","STREET":"民治路","SECT":" ","MAREA":" ","LANE":"４３巷","ALLEY":" ","HOUSE_NO":"２７號","E_COORD97":178653.81,"N_COORD97":2548079.25,"ADDRESS":"民治路４３巷２７號","OBJECTID":263734},"geometry":{"x":178653.81000000052,"y":2548079.25}},{"attributes":{"ID":263739,"DIS_CODE":0,"TOWNNAME":"永康區","LI":"中華里","LIN":"22鄰","STREET":"華興街","SECT":" ","MAREA":" ","LANE":" ","ALLEY":" ","HOUSE_NO":"８４號","E_COORD97":171867.54999999999,"N_COORD97":2544582.3900000001,"ADDRESS":"華興街８４號","OBJECTID":263735},"geometry":{"x":171867.55000000168,"y":2544582.3900000025}},{"attributes":{"ID":263740,"DIS_CODE":0,"TOWNNAME":"永康區","LI":"中華里","LIN":"22鄰","STREET":"華興街","SECT":" ","MAREA":" ","LANE":" ","ALLEY":" ","HOUSE_NO":"８０號","E_COORD97":171876.48000000001,"N_COORD97":2544583.0600000001,"ADDRESS":"華興街８０號","OBJECTID":263736},"geometry":{"x":171876.48000000045,"y":2544583.0600000005}},{"attributes":{"ID":263741,"DIS_CODE":0,"TOWNNAME":"永康區","LI":"中華里","LIN":"22鄰","STREET":"忠勇街","SECT":" ","MAREA":" ","LANE":" ","ALLEY":" ","HOUSE_NO":"５７號","E_COORD97":171879.01000000001,"N_COORD97":2544603.2799999998,"ADDRESS":"忠勇街５７號","OBJECTID":263737},"geometry":{"x":171879.00999999978,"y":2544603.2799999993}},{"attributes":{"ID":263742,"DIS_CODE":0,"TOWNNAME":"永康區","LI":"中華里","LIN":"22鄰","STREET":"華興街","SECT":" ","MAREA":" ","LANE":" ","ALLEY":" ","HOUSE_NO":"２號","E_COORD97":171975.14000000001,"N_COORD97":2544587.77,"ADDRESS":"華興街２號","OBJECTID":263738},"geometry":{"x":171975.13999999966,"y":2544587.7699999996}},{"attributes":{"ID":263743,"DIS_CODE":0,"TOWNNAME":"永康區","LI":"中華里","LIN":"22鄰","STREET":"華興街","SECT":" ","MAREA":" ","LANE":" ","ALLEY":" ","HOUSE_NO":"８６號","E_COORD97":171863.73000000001,"N_COORD97":2544582.1800000002,"ADDRESS":"華興街８６號","OBJECTID":263739},"geometry":{"x":171863.73000000231,"y":2544582.1800000034}},{"attributes":{"ID":263744,"DIS_CODE":0,"TOWNNAME":"新化區","LI":"太平里","LIN":"13鄰","STREET":"太平街","SECT":" ","MAREA":" ","LANE":"４８巷","ALLEY":" ","HOUSE_NO":"１２號之３","E_COORD97":178784.12,"N_COORD97":2548875.4399999999,"ADDRESS":"太平街４８巷１２號之３","OBJECTID":263740},"geometry":{"x":178784.12000000104,"y":2548875.4399999995}},{"attributes":{"ID":263745,"DIS_CODE":0,"TOWNNAME":"安南區","LI":"城南里","LIN":"13鄰","STREET":"城西街","SECT":"二段","MAREA":" ","LANE":"２３３巷","ALLEY":" ","HOUSE_NO":"３４號","E_COORD97":159723.07000000001,"N_COORD97":2550922.1200000001,"ADDRESS":"城西街二段２３３巷３４號","OBJECTID":263741},"geometry":{"x":159723.0700000003,"y":2550922.1200000029}},{"attributes":{"ID":263746,"DIS_CODE":0,"TOWNNAME":"安南區","LI":"海南里","LIN":"13鄰","STREET":"府安路","SECT":"七段","MAREA":" ","LANE":"４８巷","ALLEY":" ","HOUSE_NO":"６號","E_COORD97":165982.01999999999,"N_COORD97":2545967.4399999999,"ADDRESS":"府安路七段４８巷６號","OBJECTID":263742},"geometry":{"x":165982.02000000048,"y":2545967.4400000013}},{"attributes":{"ID":263747,"DIS_CODE":0,"TOWNNAME":"安南區","LI":"海南里","LIN":"13鄰","STREET":"府安路","SECT":"七段","MAREA":" ","LANE":"４８巷","ALLEY":" ","HOUSE_NO":"２７號","E_COORD97":165898.45999999999,"N_COORD97":2546031.2200000002,"ADDRESS":"府安路七段４８巷２７號","OBJECTID":263743},"geometry":{"x":165898.46000000089,"y":2546031.2200000025}},{"attributes":{"ID":263748,"DIS_CODE":0,"TOWNNAME":"善化區","LI":"文正里","LIN":"13鄰","STREET":"陽明路","SECT":" ","MAREA":" ","LANE":"１４２巷","ALLEY":" ","HOUSE_NO":"３９之６５號","E_COORD97":176522.35999999999,"N_COORD97":2559577.52,"ADDRESS":"陽明路１４２巷３９之６５號","OBJECTID":263744},"geometry":{"x":176522.36000000034,"y":2559577.5199999996}},{"attributes":{"ID":263749,"DIS_CODE":0,"TOWNNAME":"東區","LI":"忠孝里","LIN":"13鄰","STREET":"榮譽街","SECT":" ","MAREA":" ","LANE":"８７巷","ALLEY":" ","HOUSE_NO":"４１號之１","E_COORD97":169766.42999999999,"N_COORD97":2541759.5099999998,"ADDRESS":"榮譽街８７巷４１號之１","OBJECTID":263745},"geometry":{"x":169766.43000000063,"y":2541759.5100000016}},{"attributes":{"ID":263750,"DIS_CODE":0,"TOWNNAME":"東區","LI":"富強里","LIN":"13鄰","STREET":"裕農路","SECT":" ","MAREA":" ","LANE":"２８８巷","ALLEY":" ","HOUSE_NO":"２５４號","E_COORD97":171061.28,"N_COORD97":2542754.7000000002,"ADDRESS":"裕農路２８８巷２５４號","OBJECTID":263746},"geometry":{"x":171061.28000000212,"y":2542754.7000000011}},{"attributes":{"ID":263751,"DIS_CODE":0,"TOWNNAME":"東區","LI":"忠孝里","LIN":"13鄰","STREET":"榮譽街","SECT":" ","MAREA":" ","LANE":"８７巷","ALLEY":" ","HOUSE_NO":"３９號之１","E_COORD97":169745.25,"N_COORD97":2541798.0499999998,"ADDRESS":"榮譽街８７巷３９號之１","OBJECTID":263747},"geometry":{"x":169745.25,"y":2541798.0500000026}},{"attributes":{"ID":263752,"DIS_CODE":0,"TOWNNAME":"東區","LI":"忠孝里","LIN":"13鄰","STREET":"榮譽街","SECT":" ","MAREA":" ","LANE":"８７巷","ALLEY":" ","HOUSE_NO":"３９號之２","E_COORD97":169750.07000000001,"N_COORD97":2541782.96,"ADDRESS":"榮譽街８７巷３９號之２","OBJECTID":263748},"geometry":{"x":169750.0700000003,"y":2541782.9600000009}},{"attributes":{"ID":263753,"DIS_CODE":0,"TOWNNAME":"東區","LI":"富裕里","LIN":"13鄰","STREET":"裕豐街","SECT":" ","MAREA":" ","LANE":"６１巷","ALLEY":" ","HOUSE_NO":"１１號","E_COORD97":170689.14000000001,"N_COORD97":2542806.1699999999,"ADDRESS":"裕豐街６１巷１１號","OBJECTID":263749},"geometry":{"x":170689.1400000006,"y":2542806.1700000018}},{"attributes":{"ID":263754,"DIS_CODE":0,"TOWNNAME":"東區","LI":"富裕里","LIN":"13鄰","STREET":"裕豐街","SECT":" ","MAREA":" ","LANE":"６１巷","ALLEY":" ","HOUSE_NO":"１３號","E_COORD97":170688.06,"N_COORD97":2542802.3900000001,"ADDRESS":"裕豐街６１巷１３號","OBJECTID":263750},"geometry":{"x":170688.06000000052,"y":2542802.3900000025}},{"attributes":{"ID":263755,"DIS_CODE":0,"TOWNNAME":"永康區","LI":"西橋里","LIN":"13鄰","STREET":"大橋三街","SECT":" ","MAREA":" ","LANE":"１０巷","ALLEY":" ","HOUSE_NO":"２號","E_COORD97":170495.76999999999,"N_COORD97":2546361.4900000002,"ADDRESS":"大橋三街１０巷２號","OBJECTID":263751},"geometry":{"x":170495.76999999955,"y":2546361.4900000021}},{"attributes":{"ID":263756,"DIS_CODE":0,"TOWNNAME":"永康區","LI":"尚頂里","LIN":"13鄰","STREET":"正南一街","SECT":" ","MAREA":" ","LANE":"１０５巷","ALLEY":" ","HOUSE_NO":"１３號","E_COORD97":171021.07999999999,"N_COORD97":2547200.4900000002,"ADDRESS":"正南一街１０５巷１３號","OBJECTID":263752},"geometry":{"x":171021.08000000007,"y":2547200.4900000002}},{"attributes":{"ID":263757,"DIS_CODE":0,"TOWNNAME":"仁德區","LI":"仁義里","LIN":"22鄰","STREET":"正義路","SECT":" ","MAREA":" ","LANE":" ","ALLEY":" ","HOUSE_NO":"１００號","E_COORD97":173651.48000000001,"N_COORD97":2541420.2599999998,"ADDRESS":"正義路１００號","OBJECTID":263753},"geometry":{"x":173651.48000000045,"y":2541420.2599999998}},{"attributes":{"ID":263758,"DIS_CODE":0,"TOWNNAME":"永康區","LI":"西灣里","LIN":"13鄰","STREET":"民族路","SECT":" ","MAREA":" ","LANE":"４８１巷","ALLEY":" ","HOUSE_NO":"１０號","E_COORD97":174571.73999999999,"N_COORD97":2545404.54,"ADDRESS":"民族路４８１巷１０號","OBJECTID":263754},"geometry":{"x":174571.74000000022,"y":2545404.540000001}},{"attributes":{"ID":263759,"DIS_CODE":0,"TOWNNAME":"仁德區","LI":"仁義里","LIN":"22鄰","STREET":"正義路","SECT":" ","MAREA":" ","LANE":" ","ALLEY":" ","HOUSE_NO":"１１０號","E_COORD97":173673.29999999999,"N_COORD97":2541416.7599999998,"ADDRESS":"正義路１１０號","OBJECTID":263755},"geometry":{"x":173673.30000000075,"y":2541416.7599999998}},{"attributes":{"ID":263760,"DIS_CODE":0,"TOWNNAME":"仁德區","LI":"仁義里","LIN":"22鄰","STREET":"中山路","SECT":" ","MAREA":" ","LANE":" ","ALLEY":" ","HOUSE_NO":"４００號","E_COORD97":173783.81,"N_COORD97":2541284.7400000002,"ADDRESS":"中山路４００號","OBJECTID":263756},"geometry":{"x":173783.80999999959,"y":2541284.7400000021}},{"attributes":{"ID":263761,"DIS_CODE":0,"TOWNNAME":"永康區","LI":"西灣里","LIN":"13鄰","STREET":"民族路","SECT":" ","MAREA":" ","LANE":"４８１巷","ALLEY":" ","HOUSE_NO":"２０號","E_COORD97":174569.09,"N_COORD97":2545388.29,"ADDRESS":"民族路４８１巷２０號","OBJECTID":263757},"geometry":{"x":174569.08999999985,"y":2545388.290000001}},{"attributes":{"ID":263762,"DIS_CODE":0,"TOWNNAME":"仁德區","LI":"仁義里","LIN":"22鄰","STREET":"中山路","SECT":" ","MAREA":" ","LANE":" ","ALLEY":" ","HOUSE_NO":"４３８號","E_COORD97":173668.70999999999,"N_COORD97":2541299.4900000002,"ADDRESS":"中山路４３８號","OBJECTID":263758},"geometry":{"x":173668.71000000183,"y":2541299.4900000021}},{"attributes":{"ID":263763,"DIS_CODE":0,"TOWNNAME":"仁德區","LI":"仁義里","LIN":"22鄰","STREET":"中山路","SECT":" ","MAREA":" ","LANE":" ","ALLEY":" ","HOUSE_NO":"４３６號","E_COORD97":173673.29999999999,"N_COORD97":2541298.9900000002,"ADDRESS":"中山路４３６號","OBJECTID":263759},"geometry":{"x":173673.30000000075,"y":2541298.9900000021}},{"attributes":{"ID":263764,"DIS_CODE":0,"TOWNNAME":"仁德區","LI":"仁義里","LIN":"22鄰","STREET":"中山路","SECT":" ","MAREA":" ","LANE":" ","ALLEY":" ","HOUSE_NO":"４０２號","E_COORD97":173778.39999999999,"N_COORD97":2541285.4900000002,"ADDRESS":"中山路４０２號","OBJECTID":263760},"geometry":{"x":173778.4000000013,"y":2541285.4900000021}},{"attributes":{"ID":263765,"DIS_CODE":0,"TOWNNAME":"永康區","LI":"西灣里","LIN":"13鄰","STREET":"民族路","SECT":" ","MAREA":" ","LANE":"４８１巷","ALLEY":" ","HOUSE_NO":"９號","E_COORD97":174582.35000000001,"N_COORD97":2545399.1499999999,"ADDRESS":"民族路４８１巷９號","OBJECTID":263761},"geometry":{"x":174582.34999999963,"y":2545399.1500000004}},{"attributes":{"ID":263766,"DIS_CODE":0,"TOWNNAME":"安南區","LI":"長安里","LIN":"22鄰","STREET":"公學路","SECT":"二段","MAREA":" ","LANE":" ","ALLEY":" ","HOUSE_NO":"４９號","E_COORD97":167788.98000000001,"N_COORD97":2552485.73,"ADDRESS":"公學路二段４９號","OBJECTID":263762},"geometry":{"x":167788.98000000138,"y":2552485.7300000042}},{"attributes":{"ID":263767,"DIS_CODE":0,"TOWNNAME":"永康區","LI":"尚頂里","LIN":"13鄰","STREET":"正南一街","SECT":" ","MAREA":" ","LANE":"１０５巷","ALLEY":" ","HOUSE_NO":"３８號","E_COORD97":171061.70000000001,"N_COORD97":2547135.25,"ADDRESS":"正南一街１０５巷３８號","OBJECTID":263763},"geometry":{"x":171061.70000000205,"y":2547135.2500000019}},{"attributes":{"ID":263768,"DIS_CODE":0,"TOWNNAME":"永康區","LI":"西勢里","LIN":"13鄰","STREET":"西勢路","SECT":" ","MAREA":" ","LANE":"１９巷","ALLEY":" ","HOUSE_NO":"５０號","E_COORD97":176160.07999999999,"N_COORD97":2546611.9100000001,"ADDRESS":"西勢路１９巷５０號","OBJECTID":263764},"geometry":{"x":176160.08000000101,"y":2546611.9100000039}},{"attributes":{"ID":263769,"DIS_CODE":0,"TOWNNAME":"永康區","LI":"尚頂里","LIN":"13鄰","STREET":"正南一街","SECT":" ","MAREA":" ","LANE":"１０５巷","ALLEY":" ","HOUSE_NO":"３０號","E_COORD97":171042.48999999999,"N_COORD97":2547149.5,"ADDRESS":"正南一街１０５巷３０號","OBJECTID":263765},"geometry":{"x":171042.49000000022,"y":2547149.5}},{"attributes":{"ID":263770,"DIS_CODE":0,"TOWNNAME":"仁德區","LI":"仁義里","LIN":"22鄰","STREET":"中山路","SECT":" ","MAREA":" ","LANE":" ","ALLEY":" ","HOUSE_NO":"４３４號","E_COORD97":173677.82000000001,"N_COORD97":2541298.4900000002,"ADDRESS":"中山路４３４號","OBJECTID":263766},"geometry":{"x":173677.8200000003,"y":2541298.4899999984}},{"attributes":{"ID":263771,"DIS_CODE":0,"TOWNNAME":"新營區","LI":"王公里","LIN":"25鄰","STREET":"中正路","SECT":" ","MAREA":" ","LANE":" ","ALLEY":" ","HOUSE_NO":"１３４號之８","E_COORD97":180146.411421,"N_COORD97":2579586.7148099998,"ADDRESS":"中正路１３４號之８","OBJECTID":263767},"geometry":{"x":180146.41142100189,"y":2579586.7148080021}},{"attributes":{"ID":263772,"DIS_CODE":0,"TOWNNAME":"東區","LI":"東光里","LIN":"22鄰","STREET":"怡東路","SECT":" ","MAREA":" ","LANE":" ","ALLEY":" ","HOUSE_NO":"１５１號","E_COORD97":170876.23999999999,"N_COORD97":2543839.3700000001,"ADDRESS":"怡東路１５１號","OBJECTID":263768},"geometry":{"x":170876.24000000022,"y":2543839.370000001}},{"attributes":{"ID":263773,"DIS_CODE":0,"TOWNNAME":"東區","LI":"東光里","LIN":"22鄰","STREET":"怡東路","SECT":" ","MAREA":" ","LANE":" ","ALLEY":" ","HOUSE_NO":"１５３號","E_COORD97":170876.95000000001,"N_COORD97":2543843.4399999999,"ADDRESS":"怡東路１５３號","OBJECTID":263769},"geometry":{"x":170876.95000000205,"y":2543843.4399999995}},{"attributes":{"ID":263774,"DIS_CODE":0,"TOWNNAME":"永康區","LI":"尚頂里","LIN":"13鄰","STREET":"正南一街","SECT":" ","MAREA":" ","LANE":"１０５巷","ALLEY":" ","HOUSE_NO":"２２號","E_COORD97":171023.73999999999,"N_COORD97":2547163.75,"ADDRESS":"正南一街１０５巷２２號","OBJECTID":263770},"geometry":{"x":171023.74000000022,"y":2547163.75}},{"attributes":{"ID":263775,"DIS_CODE":0,"TOWNNAME":"永康區","LI":"龍潭里","LIN":"13鄰","STREET":"龍橋街","SECT":" ","MAREA":" ","LANE":"５３巷","ALLEY":" ","HOUSE_NO":"１０號","E_COORD97":174774.57999999999,"N_COORD97":2548363.4399999999,"ADDRESS":"龍橋街５３巷１０號","OBJECTID":263771},"geometry":{"x":174774.58000000007,"y":2548363.4399999995}},{"attributes":{"ID":263776,"DIS_CODE":0,"TOWNNAME":"永康區","LI":"龍潭里","LIN":"13鄰","STREET":"龍橋街","SECT":" ","MAREA":" ","LANE":"６５巷","ALLEY":" ","HOUSE_NO":"１０號","E_COORD97":174747.17999999999,"N_COORD97":2548372.5600000001,"ADDRESS":"龍橋街６５巷１０號","OBJECTID":263772},"geometry":{"x":174747.18000000063,"y":2548372.5600000005}},{"attributes":{"ID":263777,"DIS_CODE":0,"TOWNNAME":"永康區","LI":"龍潭里","LIN":"13鄰","STREET":"龍橋街","SECT":" ","MAREA":" ","LANE":"５３巷","ALLEY":" ","HOUSE_NO":"６號","E_COORD97":174776.66,"N_COORD97":2548379.3700000001,"ADDRESS":"龍橋街５３巷６號","OBJECTID":263773},"geometry":{"x":174776.66000000108,"y":2548379.3700000048}},{"attributes":{"ID":263778,"DIS_CODE":0,"TOWNNAME":"東區","LI":"東光里","LIN":"22鄰","STREET":"怡東路","SECT":" ","MAREA":" ","LANE":" ","ALLEY":" ","HOUSE_NO":"１５５號","E_COORD97":170878.84,"N_COORD97":2543846.6400000001,"ADDRESS":"怡東路１５５號","OBJECTID":263774},"geometry":{"x":170878.83999999985,"y":2543846.6400000006}},{"attributes":{"ID":263779,"DIS_CODE":0,"TOWNNAME":"永康區","LI":"網寮里","LIN":"13鄰","STREET":"永二街","SECT":" ","MAREA":" ","LANE":"２４４巷","ALLEY":" ","HOUSE_NO":"３４號","E_COORD97":173286.26000000001,"N_COORD97":2546569.0699999998,"ADDRESS":"永二街２４４巷３４號","OBJECTID":263775},"geometry":{"x":173286.25999999978,"y":2546569.0700000003}},{"attributes":{"ID":263780,"DIS_CODE":0,"TOWNNAME":"永康區","LI":"網寮里","LIN":"13鄰","STREET":"永二街","SECT":" ","MAREA":" ","LANE":"２４４巷","ALLEY":" ","HOUSE_NO":"３２號","E_COORD97":173284.98000000001,"N_COORD97":2546563.8199999998,"ADDRESS":"永二街２４４巷３２號","OBJECTID":263776},"geometry":{"x":173284.98000000138,"y":2546563.8200000003}},{"attributes":{"ID":263781,"DIS_CODE":0,"TOWNNAME":"仁德區","LI":"一甲里","LIN":"13鄰","STREET":"忠義三街","SECT":" ","MAREA":" ","LANE":"２４巷","ALLEY":" ","HOUSE_NO":"１７號","E_COORD97":173686.35999999999,"N_COORD97":2541741.5099999998,"ADDRESS":"忠義三街２４巷１７號","OBJECTID":263777},"geometry":{"x":173686.36000000034,"y":2541741.5099999998}},{"attributes":{"ID":263782,"DIS_CODE":0,"TOWNNAME":"仁德區","LI":"土庫里","LIN":"13鄰","STREET":"土庫路","SECT":" ","MAREA":" ","LANE":"２１１巷","ALLEY":" ","HOUSE_NO":"１４號","E_COORD97":174317.91,"N_COORD97":2542871.52,"ADDRESS":"土庫路２１１巷１４號","OBJECTID":263778},"geometry":{"x":174317.91000000015,"y":2542871.5200000014}},{"attributes":{"ID":263783,"DIS_CODE":0,"TOWNNAME":"東區","LI":"大智里","LIN":"13鄰","STREET":"長東街","SECT":" ","MAREA":" ","LANE":"１４１巷","ALLEY":" ","HOUSE_NO":"３號","E_COORD97":171054.35000000001,"N_COORD97":2540144.5899999999,"ADDRESS":"長東街１４１巷３號","OBJECTID":263779},"geometry":{"x":171054.34999999963,"y":2540144.5899999999}},{"attributes":{"ID":263784,"DIS_CODE":0,"TOWNNAME":"安南區","LI":"安慶里","LIN":"13鄰","STREET":"培安路","SECT":" ","MAREA":" ","LANE":"２６７巷","ALLEY":" ","HOUSE_NO":"１８號","E_COORD97":169349.38,"N_COORD97":2548920.54,"ADDRESS":"培安路２６７巷１８號","OBJECTID":263780},"geometry":{"x":169349.37999999989,"y":2548920.5399999991}},{"attributes":{"ID":263785,"DIS_CODE":0,"TOWNNAME":"安南區","LI":"安慶里","LIN":"13鄰","STREET":"培安路","SECT":" ","MAREA":" ","LANE":"２６７巷","ALLEY":" ","HOUSE_NO":"２５號","E_COORD97":169374.26000000001,"N_COORD97":2548948.71,"ADDRESS":"培安路２６７巷２５號","OBJECTID":263781},"geometry":{"x":169374.26000000164,"y":2548948.7100000009}},{"attributes":{"ID":263786,"DIS_CODE":0,"TOWNNAME":"東區","LI":"後甲里","LIN":"13鄰","STREET":"裕農路","SECT":" ","MAREA":" ","LANE":"６２１巷","ALLEY":" ","HOUSE_NO":"２１號之２","E_COORD97":171613.26000000001,"N_COORD97":2543290.5600000001,"ADDRESS":"裕農路６２１巷２１號之２","OBJECTID":263782},"geometry":{"x":171613.25999999978,"y":2543290.5600000005}},{"attributes":{"ID":263787,"DIS_CODE":0,"TOWNNAME":"東區","LI":"後甲里","LIN":"13鄰","STREET":"裕農路","SECT":" ","MAREA":" ","LANE":"６２１巷","ALLEY":" ","HOUSE_NO":"１９號","E_COORD97":171614.45999999999,"N_COORD97":2543278.27,"ADDRESS":"裕農路６２１巷１９號","OBJECTID":263783},"geometry":{"x":171614.46000000089,"y":2543278.2699999996}},{"attributes":{"ID":263788,"DIS_CODE":0,"TOWNNAME":"東區","LI":"東光里","LIN":"22鄰","STREET":"怡東路","SECT":" ","MAREA":" ","LANE":" ","ALLEY":" ","HOUSE_NO":"１５７號","E_COORD97":170880.14999999999,"N_COORD97":2543851.5499999998,"ADDRESS":"怡東路１５７號","OBJECTID":263784},"geometry":{"x":170880.15000000037,"y":2543851.5499999989}},{"attributes":{"ID":263789,"DIS_CODE":0,"TOWNNAME":"東區","LI":"莊敬里","LIN":"13鄰","STREET":"東光路","SECT":"二段","MAREA":" ","LANE":"３６巷","ALLEY":" ","HOUSE_NO":"７號","E_COORD97":171261.20000000001,"N_COORD97":2544066.0600000001,"ADDRESS":"東光路二段３６巷７號","OBJECTID":263785},"geometry":{"x":171261.20000000019,"y":2544066.0600000024}},{"attributes":{"ID":263790,"DIS_CODE":0,"TOWNNAME":"永康區","LI":"崑山里","LIN":"20鄰","STREET":"崑山街","SECT":" ","MAREA":" ","LANE":"５巷","ALLEY":" ","HOUSE_NO":"３２號","E_COORD97":173847.04000000001,"N_COORD97":2544530.1099999999,"ADDRESS":"崑山街５巷３２號","OBJECTID":263786},"geometry":{"x":173847.04000000004,"y":2544530.1099999994}},{"attributes":{"ID":263791,"DIS_CODE":0,"TOWNNAME":"永康區","LI":"崑山里","LIN":"24鄰","STREET":"大仁街","SECT":" ","MAREA":" ","LANE":" ","ALLEY":" ","HOUSE_NO":"７４號","E_COORD97":173827.16,"N_COORD97":2544722.0800000001,"ADDRESS":"大仁街７４號","OBJECTID":263787},"geometry":{"x":173827.16000000108,"y":2544722.0800000038}},{"attributes":{"ID":263792,"DIS_CODE":0,"TOWNNAME":"永康區","LI":"勝利里","LIN":"33鄰","STREET":"中華路","SECT":" ","MAREA":" ","LANE":" ","ALLEY":" ","HOUSE_NO":"１號之１４４","E_COORD97":171503.13,"N_COORD97":2544353.0499999998,"ADDRESS":"中華路１號之１４４","OBJECTID":263788},"geometry":{"x":171503.13000000082,"y":2544353.0500000007}},{"attributes":{"ID":263793,"DIS_CODE":0,"TOWNNAME":"安南區","LI":"安慶里","LIN":"13鄰","STREET":"怡安路","SECT":"一段","MAREA":" ","LANE":"６１巷","ALLEY":" ","HOUSE_NO":"１號","E_COORD97":169427.20000000001,"N_COORD97":2548947.5800000001,"ADDRESS":"怡安路一段６１巷１號","OBJECTID":263789},"geometry":{"x":169427.20000000019,"y":2548947.5800000019}},{"attributes":{"ID":263794,"DIS_CODE":0,"TOWNNAME":"安南區","LI":"安慶里","LIN":"13鄰","STREET":"怡安路","SECT":"一段","MAREA":" ","LANE":"６１巷","ALLEY":" ","HOUSE_NO":"３號","E_COORD97":169423.39999999999,"N_COORD97":2548938.75,"ADDRESS":"怡安路一段６１巷３號","OBJECTID":263790},"geometry":{"x":169423.4000000013,"y":2548938.7500000037}},{"attributes":{"ID":263795,"DIS_CODE":0,"TOWNNAME":"安南區","LI":"新順里","LIN":"13鄰","STREET":"開安路","SECT":" ","MAREA":" ","LANE":"６３巷","ALLEY":" ","HOUSE_NO":"６５號","E_COORD97":170155.47,"N_COORD97":2549837.1299999999,"ADDRESS":"開安路６３巷６５號","OBJECTID":263791},"geometry":{"x":170155.46999999974,"y":2549837.1300000008}},{"attributes":{"ID":263796,"DIS_CODE":0,"TOWNNAME":"新營區","LI":"埤寮里","LIN":"12鄰","STREET":" ","SECT":" ","MAREA":"埤寮","LANE":" ","ALLEY":" ","HOUSE_NO":"１１１號","E_COORD97":180754.31227900001,"N_COORD97":2580596.5102300001,"ADDRESS":"埤寮１１１號","OBJECTID":263792},"geometry":{"x":180754.31227900088,"y":2580596.5102350004}},{"attributes":{"ID":263797,"DIS_CODE":0,"TOWNNAME":"安南區","LI":"長安里","LIN":"13鄰","STREET":"長和路","SECT":"四段","MAREA":" ","LANE":"３５６巷","ALLEY":" ","HOUSE_NO":"４６號","E_COORD97":168211.84,"N_COORD97":2551967.6400000001,"ADDRESS":"長和路四段３５６巷４６號","OBJECTID":263793},"geometry":{"x":168211.83999999985,"y":2551967.6400000043}},{"attributes":{"ID":263798,"DIS_CODE":0,"TOWNNAME":"安南區","LI":"長安里","LIN":"13鄰","STREET":"長溪路","SECT":"三段","MAREA":" ","LANE":"３８０巷","ALLEY":" ","HOUSE_NO":"７９號","E_COORD97":167931.78,"N_COORD97":2552133.6400000001,"ADDRESS":"長溪路三段３８０巷７９號","OBJECTID":263794},"geometry":{"x":167931.78000000026,"y":2552133.6400000043}},{"attributes":{"ID":263799,"DIS_CODE":0,"TOWNNAME":"學甲區","LI":"平和里","LIN":"3鄰","STREET":" ","SECT":" ","MAREA":"學甲寮","LANE":" ","ALLEY":" ","HOUSE_NO":"９號","E_COORD97":169870.29999999999,"N_COORD97":2573478.6200000001,"ADDRESS":"學甲寮９號","OBJECTID":263795},"geometry":{"x":169870.29999999981,"y":2573478.620000001}},{"attributes":{"ID":263800,"DIS_CODE":0,"TOWNNAME":"安南區","LI":"長安里","LIN":"13鄰","STREET":"長溪路","SECT":"三段","MAREA":" ","LANE":"３８０巷","ALLEY":" ","HOUSE_NO":"８１號","E_COORD97":167937.28,"N_COORD97":2552136.1800000002,"ADDRESS":"長溪路三段３８０巷８１號","OBJECTID":263796},"geometry":{"x":167937.28000000119,"y":2552136.1800000016}},{"attributes":{"ID":263801,"DIS_CODE":0,"TOWNNAME":"玉井區","LI":"三和里","LIN":"3鄰","STREET":" ","SECT":" ","MAREA":"三和","LANE":" ","ALLEY":" ","HOUSE_NO":"３５號","E_COORD97":194725.42999999999,"N_COORD97":2556878.25,"ADDRESS":"三和３５號","OBJECTID":263797},"geometry":{"x":194725.4299999997,"y":2556878.25}},{"attributes":{"ID":263802,"DIS_CODE":0,"TOWNNAME":"安南區","LI":"長安里","LIN":"13鄰","STREET":"長溪路","SECT":"三段","MAREA":" ","LANE":"３８０巷","ALLEY":" ","HOUSE_NO":"８３號","E_COORD97":167940.47,"N_COORD97":2552139.3100000001,"ADDRESS":"長溪路三段３８０巷８３號","OBJECTID":263798},"geometry":{"x":167940.47000000067,"y":2552139.3100000042}},{"attributes":{"ID":263803,"DIS_CODE":0,"TOWNNAME":"安南區","LI":"長安里","LIN":"13鄰","STREET":"長溪路","SECT":"三段","MAREA":" ","LANE":"３８０巷","ALLEY":" ","HOUSE_NO":"８３之１號","E_COORD97":167944.51999999999,"N_COORD97":2552141,"ADDRESS":"長溪路三段３８０巷８３之１號","OBJECTID":263799},"geometry":{"x":167944.51999999955,"y":2552141.0000000037}},{"attributes":{"ID":263804,"DIS_CODE":0,"TOWNNAME":"安南區","LI":"長安里","LIN":"13鄰","STREET":"長溪路","SECT":"三段","MAREA":" ","LANE":"３８０巷","ALLEY":" ","HOUSE_NO":"８３之２號","E_COORD97":167928.12,"N_COORD97":2552151.3900000001,"ADDRESS":"長溪路三段３８０巷８３之２號","OBJECTID":263800},"geometry":{"x":167928.12000000104,"y":2552151.3900000006}}]}