{"displayFieldName":"TOWNNAME","fieldAliases":{"ID":"ID","DIS_CODE":"DIS_CODE","TOWNNAME":"TOWNNAME","LI":"LI","LIN":"LIN","STREET":"STREET","SECT":"SECT","MAREA":"MAREA","LANE":"LANE","ALLEY":"ALLEY","HOUSE_NO":"HOUSE_NO","E_COORD97":"E_COORD97","N_COORD97":"N_COORD97","ADDRESS":"ADDRESS","OBJECTID":"OBJECTID"},"geometryType":"esriGeometryPoint","spatialReference":{"wkid":102443,"latestWkid":3826},"fields":[{"name":"ID","type":"esriFieldTypeDouble","alias":"ID"},{"name":"DIS_CODE","type":"esriFieldTypeInteger","alias":"DIS_CODE"},{"name":"TOWNNAME","type":"esriFieldTypeString","alias":"TOWNNAME","length":8},{"name":"LI","type":"esriFieldTypeString","alias":"LI","length":8},{"name":"LIN","type":"esriFieldTypeString","alias":"LIN","length":12},{"name":"STREET","type":"esriFieldTypeString","alias":"STREET","length":20},{"name":"SECT","type":"esriFieldTypeString","alias":"SECT","length":8},{"name":"MAREA","type":"esriFieldTypeString","alias":"MAREA","length":12},{"name":"LANE","type":"esriFieldTypeString","alias":"LANE","length":10},{"name":"ALLEY","type":"esriFieldTypeString","alias":"ALLEY","length":10},{"name":"HOUSE_NO","type":"esriFieldTypeString","alias":"HOUSE_NO","length":20},{"name":"E_COORD97","type":"esriFieldTypeDouble","alias":"E_COORD97"},{"name":"N_COORD97","type":"esriFieldTypeDouble","alias":"N_COORD97"},{"name":"ADDRESS","type":"esriFieldTypeString","alias":"ADDRESS","length":50},{"name":"OBJECTID","type":"esriFieldTypeOID","alias":"OBJECTID"}],"features":[{"attributes":{"ID":395225,"DIS_CODE":0,"TOWNNAME":"東區","LI":"新東里","LIN":"16鄰","STREET":"裕豐街","SECT":" ","MAREA":" ","LANE":"１４７巷","ALLEY":" ","HOUSE_NO":"８號","E_COORD97":170754.98000000001,"N_COORD97":2543121.6299999999,"ADDRESS":"裕豐街１４７巷８號","OBJECTID":395201},"geometry":{"x":170754.98000000231,"y":2543121.6300000008}},{"attributes":{"ID":395226,"DIS_CODE":0,"TOWNNAME":"東區","LI":"新東里","LIN":"16鄰","STREET":"裕豐街","SECT":" ","MAREA":" ","LANE":"１４７巷","ALLEY":" ","HOUSE_NO":"９號","E_COORD97":170732.16,"N_COORD97":2543095.3399999999,"ADDRESS":"裕豐街１４７巷９號","OBJECTID":395202},"geometry":{"x":170732.16000000108,"y":2543095.3399999999}},{"attributes":{"ID":395227,"DIS_CODE":0,"TOWNNAME":"永康區","LI":"西灣里","LIN":"16鄰","STREET":"民族路","SECT":" ","MAREA":" ","LANE":"４６５巷","ALLEY":" ","HOUSE_NO":"１９號","E_COORD97":174626.06,"N_COORD97":2545360.5299999998,"ADDRESS":"民族路４６５巷１９號","OBJECTID":395203},"geometry":{"x":174626.06000000052,"y":2545360.5300000012}},{"attributes":{"ID":395228,"DIS_CODE":0,"TOWNNAME":"永康區","LI":"西橋里","LIN":"16鄰","STREET":"大橋三街","SECT":" ","MAREA":" ","LANE":"１０巷","ALLEY":" ","HOUSE_NO":"７號","E_COORD97":170520.98000000001,"N_COORD97":2546355.7400000002,"ADDRESS":"大橋三街１０巷７號","OBJECTID":395204},"geometry":{"x":170520.97999999952,"y":2546355.7400000021}},{"attributes":{"ID":395229,"DIS_CODE":0,"TOWNNAME":"永康區","LI":"尚頂里","LIN":"16鄰","STREET":"中正南路","SECT":" ","MAREA":" ","LANE":"２２０巷","ALLEY":" ","HOUSE_NO":"１１號","E_COORD97":170160.14999999999,"N_COORD97":2547322.96,"ADDRESS":"中正南路２２０巷１１號","OBJECTID":395205},"geometry":{"x":170160.15000000037,"y":2547322.9600000009}},{"attributes":{"ID":395230,"DIS_CODE":0,"TOWNNAME":"永康區","LI":"西橋里","LIN":"16鄰","STREET":"大橋三街","SECT":" ","MAREA":" ","LANE":"１０巷","ALLEY":" ","HOUSE_NO":"５號","E_COORD97":170516.57000000001,"N_COORD97":2546358.7400000002,"ADDRESS":"大橋三街１０巷５號","OBJECTID":395206},"geometry":{"x":170516.5700000003,"y":2546358.7400000039}},{"attributes":{"ID":395231,"DIS_CODE":0,"TOWNNAME":"永康區","LI":"西勢里","LIN":"16鄰","STREET":"西勢路","SECT":" ","MAREA":" ","LANE":"６６巷","ALLEY":" ","HOUSE_NO":"１７號","E_COORD97":176135.03,"N_COORD97":2546808.7200000002,"ADDRESS":"西勢路６６巷１７號","OBJECTID":395207},"geometry":{"x":176135.03000000212,"y":2546808.7200000007}},{"attributes":{"ID":395232,"DIS_CODE":0,"TOWNNAME":"永康區","LI":"西勢里","LIN":"16鄰","STREET":"西勢路","SECT":" ","MAREA":" ","LANE":"６６巷","ALLEY":" ","HOUSE_NO":"１３號","E_COORD97":176134.98000000001,"N_COORD97":2546799.9700000002,"ADDRESS":"西勢路６６巷１３號","OBJECTID":395208},"geometry":{"x":176134.98000000045,"y":2546799.9700000025}},{"attributes":{"ID":395233,"DIS_CODE":0,"TOWNNAME":"永康區","LI":"西勢里","LIN":"16鄰","STREET":"西勢路","SECT":" ","MAREA":" ","LANE":"６６巷","ALLEY":" ","HOUSE_NO":"２５號","E_COORD97":176125.59,"N_COORD97":2546833.79,"ADDRESS":"西勢路６６巷２５號","OBJECTID":395209},"geometry":{"x":176125.58999999892,"y":2546833.7899999991}},{"attributes":{"ID":395234,"DIS_CODE":0,"TOWNNAME":"永康區","LI":"西灣里","LIN":"16鄰","STREET":"民族路","SECT":" ","MAREA":" ","LANE":"４６５巷","ALLEY":" ","HOUSE_NO":"７號","E_COORD97":174639.98000000001,"N_COORD97":2545394.54,"ADDRESS":"民族路４６５巷７號","OBJECTID":395210},"geometry":{"x":174639.98000000045,"y":2545394.5399999991}},{"attributes":{"ID":395235,"DIS_CODE":0,"TOWNNAME":"永康區","LI":"西勢里","LIN":"16鄰","STREET":"西勢路","SECT":" ","MAREA":" ","LANE":"６６巷","ALLEY":" ","HOUSE_NO":"１５號","E_COORD97":176134.88,"N_COORD97":2546803.9700000002,"ADDRESS":"西勢路６６巷１５號","OBJECTID":395211},"geometry":{"x":176134.87999999989,"y":2546803.9700000007}},{"attributes":{"ID":395236,"DIS_CODE":0,"TOWNNAME":"永康區","LI":"\u25A0行里","LIN":"16鄰","STREET":"中正六街","SECT":" ","MAREA":" ","LANE":"２６６巷","ALLEY":" ","HOUSE_NO":"１２號","E_COORD97":171948.07000000001,"N_COORD97":2548885.7400000002,"ADDRESS":"中正六街２６６巷１２號","OBJECTID":395212},"geometry":{"x":171948.07000000123,"y":2548885.7400000021}},{"attributes":{"ID":395237,"DIS_CODE":0,"TOWNNAME":"東區","LI":"虎尾里","LIN":"16鄰","STREET":"東成街","SECT":" ","MAREA":" ","LANE":"５６巷","ALLEY":" ","HOUSE_NO":"１６號","E_COORD97":171376.60999999999,"N_COORD97":2542211.9300000002,"ADDRESS":"東成街５６巷１６號","OBJECTID":395213},"geometry":{"x":171376.61000000127,"y":2542211.9300000016}},{"attributes":{"ID":395238,"DIS_CODE":0,"TOWNNAME":"東區","LI":"虎尾里","LIN":"16鄰","STREET":"東成街","SECT":" ","MAREA":" ","LANE":"５６巷","ALLEY":" ","HOUSE_NO":"１８號","E_COORD97":171376.60999999999,"N_COORD97":2542207.7599999998,"ADDRESS":"東成街５６巷１８號","OBJECTID":395214},"geometry":{"x":171376.61000000127,"y":2542207.7599999998}},{"attributes":{"ID":395239,"DIS_CODE":0,"TOWNNAME":"永康區","LI":"網寮里","LIN":"16鄰","STREET":"永二街","SECT":" ","MAREA":" ","LANE":"２４４巷","ALLEY":" ","HOUSE_NO":"５６號","E_COORD97":173265.03,"N_COORD97":2546688.79,"ADDRESS":"永二街２４４巷５６號","OBJECTID":395215},"geometry":{"x":173265.03000000212,"y":2546688.7899999991}},{"attributes":{"ID":395240,"DIS_CODE":0,"TOWNNAME":"東區","LI":"莊敬里","LIN":"16鄰","STREET":"莊敬路","SECT":" ","MAREA":" ","LANE":"２０５巷","ALLEY":" ","HOUSE_NO":"５號","E_COORD97":171343.17999999999,"N_COORD97":2544151.73,"ADDRESS":"莊敬路２０５巷５號","OBJECTID":395216},"geometry":{"x":171343.18000000063,"y":2544151.7299999986}},{"attributes":{"ID":395241,"DIS_CODE":0,"TOWNNAME":"東區","LI":"莊敬里","LIN":"16鄰","STREET":"莊敬路","SECT":" ","MAREA":" ","LANE":"１８１巷","ALLEY":" ","HOUSE_NO":"１０號","E_COORD97":171328.10999999999,"N_COORD97":2544112.0899999999,"ADDRESS":"莊敬路１８１巷１０號","OBJECTID":395217},"geometry":{"x":171328.11000000034,"y":2544112.0900000017}},{"attributes":{"ID":395242,"DIS_CODE":0,"TOWNNAME":"東區","LI":"莊敬里","LIN":"16鄰","STREET":"莊敬路","SECT":" ","MAREA":" ","LANE":"１８１巷","ALLEY":" ","HOUSE_NO":"１２號","E_COORD97":171323.45999999999,"N_COORD97":2544110.98,"ADDRESS":"莊敬路１８１巷１２號","OBJECTID":395218},"geometry":{"x":171323.45999999996,"y":2544110.9800000023}},{"attributes":{"ID":395243,"DIS_CODE":0,"TOWNNAME":"東區","LI":"莊敬里","LIN":"16鄰","STREET":"莊敬路","SECT":" ","MAREA":" ","LANE":"１８１巷","ALLEY":" ","HOUSE_NO":"１４號","E_COORD97":171319.54999999999,"N_COORD97":2544113.2999999998,"ADDRESS":"莊敬路１８１巷１４號","OBJECTID":395219},"geometry":{"x":171319.54999999981,"y":2544113.3000000007}},{"attributes":{"ID":395244,"DIS_CODE":0,"TOWNNAME":"東區","LI":"莊敬里","LIN":"16鄰","STREET":"莊敬路","SECT":" ","MAREA":" ","LANE":"１８１巷","ALLEY":" ","HOUSE_NO":"１８號","E_COORD97":171311.64000000001,"N_COORD97":2544115.0699999998,"ADDRESS":"莊敬路１８１巷１８號","OBJECTID":395220},"geometry":{"x":171311.6400000006,"y":2544115.0700000003}},{"attributes":{"ID":395245,"DIS_CODE":0,"TOWNNAME":"東區","LI":"莊敬里","LIN":"16鄰","STREET":"莊敬路","SECT":" ","MAREA":" ","LANE":"１８１巷","ALLEY":" ","HOUSE_NO":"２０號","E_COORD97":171307.17999999999,"N_COORD97":2544113.8599999999,"ADDRESS":"莊敬路１８１巷２０號","OBJECTID":395221},"geometry":{"x":171307.18000000156,"y":2544113.8600000013}},{"attributes":{"ID":395246,"DIS_CODE":0,"TOWNNAME":"東區","LI":"莊敬里","LIN":"16鄰","STREET":"莊敬路","SECT":" ","MAREA":" ","LANE":"１８１巷","ALLEY":" ","HOUSE_NO":"２４號","E_COORD97":171299.07999999999,"N_COORD97":2544115.0699999998,"ADDRESS":"莊敬路１８１巷２４號","OBJECTID":395222},"geometry":{"x":171299.08000000007,"y":2544115.0700000003}},{"attributes":{"ID":395247,"DIS_CODE":0,"TOWNNAME":"東區","LI":"莊敬里","LIN":"16鄰","STREET":"莊敬路","SECT":" ","MAREA":" ","LANE":"１８１巷","ALLEY":" ","HOUSE_NO":"２６號","E_COORD97":171295.26999999999,"N_COORD97":2544117.8599999999,"ADDRESS":"莊敬路１８１巷２６號","OBJECTID":395223},"geometry":{"x":171295.27000000048,"y":2544117.8599999994}},{"attributes":{"ID":395248,"DIS_CODE":0,"TOWNNAME":"東區","LI":"莊敬里","LIN":"16鄰","STREET":"莊敬路","SECT":" ","MAREA":" ","LANE":"１８１巷","ALLEY":" ","HOUSE_NO":"２８號","E_COORD97":171290.89999999999,"N_COORD97":2544116.4700000002,"ADDRESS":"莊敬路１８１巷２８號","OBJECTID":395224},"geometry":{"x":171290.90000000037,"y":2544116.4699999988}},{"attributes":{"ID":395249,"DIS_CODE":0,"TOWNNAME":"東區","LI":"莊敬里","LIN":"16鄰","STREET":"莊敬路","SECT":" ","MAREA":" ","LANE":"１８１巷","ALLEY":" ","HOUSE_NO":"３０號","E_COORD97":171287.17999999999,"N_COORD97":2544119.7200000002,"ADDRESS":"莊敬路１８１巷３０號","OBJECTID":395225},"geometry":{"x":171287.18000000063,"y":2544119.7200000025}},{"attributes":{"ID":395250,"DIS_CODE":0,"TOWNNAME":"東區","LI":"莊敬里","LIN":"16鄰","STREET":"莊敬路","SECT":" ","MAREA":" ","LANE":"１８１巷","ALLEY":" ","HOUSE_NO":"３２號","E_COORD97":171283.45999999999,"N_COORD97":2544118.5099999998,"ADDRESS":"莊敬路１８１巷３２號","OBJECTID":395226},"geometry":{"x":171283.46000000183,"y":2544118.5099999998}},{"attributes":{"ID":395251,"DIS_CODE":0,"TOWNNAME":"東區","LI":"莊敬里","LIN":"16鄰","STREET":"莊敬路","SECT":" ","MAREA":" ","LANE":"１８１巷","ALLEY":" ","HOUSE_NO":"４號","E_COORD97":171340.29000000001,"N_COORD97":2544108.1000000001,"ADDRESS":"莊敬路１８１巷４號","OBJECTID":395227},"geometry":{"x":171340.29000000004,"y":2544108.1000000034}},{"attributes":{"ID":395252,"DIS_CODE":0,"TOWNNAME":"東區","LI":"莊敬里","LIN":"16鄰","STREET":"莊敬路","SECT":" ","MAREA":" ","LANE":"１８１巷","ALLEY":" ","HOUSE_NO":"６號","E_COORD97":171336.10000000001,"N_COORD97":2544110.7000000002,"ADDRESS":"莊敬路１８１巷６號","OBJECTID":395228},"geometry":{"x":171336.09999999963,"y":2544110.7000000011}},{"attributes":{"ID":395253,"DIS_CODE":0,"TOWNNAME":"東區","LI":"莊敬里","LIN":"16鄰","STREET":"莊敬路","SECT":" ","MAREA":" ","LANE":"１８１巷","ALLEY":" ","HOUSE_NO":"８號","E_COORD97":171332.10999999999,"N_COORD97":2544109.5800000001,"ADDRESS":"莊敬路１８１巷８號","OBJECTID":395229},"geometry":{"x":171332.1100000022,"y":2544109.5800000019}},{"attributes":{"ID":395254,"DIS_CODE":0,"TOWNNAME":"東區","LI":"莊敬里","LIN":"16鄰","STREET":"莊敬路","SECT":" ","MAREA":" ","LANE":"２０５巷","ALLEY":" ","HOUSE_NO":"１１號","E_COORD97":171330.53,"N_COORD97":2544153.77,"ADDRESS":"莊敬路２０５巷１１號","OBJECTID":395230},"geometry":{"x":171330.53000000026,"y":2544153.7699999996}},{"attributes":{"ID":395255,"DIS_CODE":0,"TOWNNAME":"東區","LI":"莊敬里","LIN":"16鄰","STREET":"莊敬路","SECT":" ","MAREA":" ","LANE":"２０５巷","ALLEY":" ","HOUSE_NO":"１３號","E_COORD97":171326.44,"N_COORD97":2544155.3500000001,"ADDRESS":"莊敬路２０５巷１３號","OBJECTID":395231},"geometry":{"x":171326.43999999948,"y":2544155.3500000015}},{"attributes":{"ID":395256,"DIS_CODE":0,"TOWNNAME":"東區","LI":"莊敬里","LIN":"16鄰","STREET":"莊敬路","SECT":" ","MAREA":" ","LANE":"２０５巷","ALLEY":" ","HOUSE_NO":"１５號","E_COORD97":171321.98000000001,"N_COORD97":2544154.8900000001,"ADDRESS":"莊敬路２０５巷１５號","OBJECTID":395232},"geometry":{"x":171321.98000000138,"y":2544154.8900000025}},{"attributes":{"ID":395257,"DIS_CODE":0,"TOWNNAME":"東區","LI":"莊敬里","LIN":"16鄰","STREET":"莊敬路","SECT":" ","MAREA":" ","LANE":"２０５巷","ALLEY":" ","HOUSE_NO":"１７號","E_COORD97":171318.26000000001,"N_COORD97":2544157.21,"ADDRESS":"莊敬路２０５巷１７號","OBJECTID":395233},"geometry":{"x":171318.25999999978,"y":2544157.2100000028}},{"attributes":{"ID":395258,"DIS_CODE":0,"TOWNNAME":"東區","LI":"莊敬里","LIN":"16鄰","STREET":"莊敬路","SECT":" ","MAREA":" ","LANE":"２０５巷","ALLEY":" ","HOUSE_NO":"１９號","E_COORD97":171314.35000000001,"N_COORD97":2544156,"ADDRESS":"莊敬路２０５巷１９號","OBJECTID":395234},"geometry":{"x":171314.3499999987,"y":2544156}},{"attributes":{"ID":395259,"DIS_CODE":0,"TOWNNAME":"東區","LI":"莊敬里","LIN":"16鄰","STREET":"莊敬路","SECT":" ","MAREA":" ","LANE":"２０５巷","ALLEY":" ","HOUSE_NO":"１號","E_COORD97":171351.54999999999,"N_COORD97":2544149.96,"ADDRESS":"莊敬路２０５巷１號","OBJECTID":395235},"geometry":{"x":171351.54999999981,"y":2544149.9600000009}},{"attributes":{"ID":395260,"DIS_CODE":0,"TOWNNAME":"東區","LI":"莊敬里","LIN":"16鄰","STREET":"莊敬路","SECT":" ","MAREA":" ","LANE":"２０５巷","ALLEY":" ","HOUSE_NO":"２１號","E_COORD97":171310.07999999999,"N_COORD97":2544157.4900000002,"ADDRESS":"莊敬路２０５巷２１號","OBJECTID":395236},"geometry":{"x":171310.08000000194,"y":2544157.4900000021}},{"attributes":{"ID":395261,"DIS_CODE":0,"TOWNNAME":"東區","LI":"莊敬里","LIN":"16鄰","STREET":"莊敬路","SECT":" ","MAREA":" ","LANE":"２０５巷","ALLEY":" ","HOUSE_NO":"３號","E_COORD97":171347.26999999999,"N_COORD97":2544151.4500000002,"ADDRESS":"莊敬路２０５巷３號","OBJECTID":395237},"geometry":{"x":171347.27000000048,"y":2544151.4499999993}},{"attributes":{"ID":395262,"DIS_CODE":0,"TOWNNAME":"東區","LI":"莊敬里","LIN":"16鄰","STREET":"莊敬路","SECT":" ","MAREA":" ","LANE":"２０５巷","ALLEY":" ","HOUSE_NO":"７號","E_COORD97":171338.98999999999,"N_COORD97":2544152.29,"ADDRESS":"莊敬路２０５巷７號","OBJECTID":395238},"geometry":{"x":171338.99000000022,"y":2544152.2899999991}},{"attributes":{"ID":395263,"DIS_CODE":0,"TOWNNAME":"東區","LI":"莊敬里","LIN":"16鄰","STREET":"莊敬路","SECT":" ","MAREA":" ","LANE":"２０５巷","ALLEY":" ","HOUSE_NO":"９號","E_COORD97":171335.28,"N_COORD97":2544153.3999999999,"ADDRESS":"莊敬路２０５巷９號","OBJECTID":395239},"geometry":{"x":171335.28000000026,"y":2544153.4000000004}},{"attributes":{"ID":395264,"DIS_CODE":0,"TOWNNAME":"東區","LI":"新東里","LIN":"16鄰","STREET":"裕豐街","SECT":" ","MAREA":" ","LANE":"１４７巷","ALLEY":" ","HOUSE_NO":"５８號","E_COORD97":170661.76999999999,"N_COORD97":2543100.1600000001,"ADDRESS":"裕豐街１４７巷５８號","OBJECTID":395240},"geometry":{"x":170661.76999999955,"y":2543100.1600000001}},{"attributes":{"ID":395265,"DIS_CODE":0,"TOWNNAME":"東區","LI":"新東里","LIN":"16鄰","STREET":"裕豐街","SECT":" ","MAREA":" ","LANE":"１４７巷","ALLEY":" ","HOUSE_NO":"１０號","E_COORD97":170751.51000000001,"N_COORD97":2543120.4700000002,"ADDRESS":"裕豐街１４７巷１０號","OBJECTID":395241},"geometry":{"x":170751.51000000071,"y":2543120.4700000025}},{"attributes":{"ID":395266,"DIS_CODE":0,"TOWNNAME":"東區","LI":"莊敬里","LIN":"16鄰","STREET":"莊敬路","SECT":" ","MAREA":" ","LANE":"１８１巷","ALLEY":" ","HOUSE_NO":"２２號","E_COORD97":171303.45999999999,"N_COORD97":2544116.2799999998,"ADDRESS":"莊敬路１８１巷２２號","OBJECTID":395242},"geometry":{"x":171303.45999999996,"y":2544116.2799999993}},{"attributes":{"ID":395267,"DIS_CODE":0,"TOWNNAME":"東區","LI":"新東里","LIN":"16鄰","STREET":"裕豐街","SECT":" ","MAREA":" ","LANE":"１４７巷","ALLEY":" ","HOUSE_NO":"１４號","E_COORD97":170741.73999999999,"N_COORD97":2543118.5899999999,"ADDRESS":"裕豐街１４７巷１４號","OBJECTID":395243},"geometry":{"x":170741.74000000115,"y":2543118.5900000017}},{"attributes":{"ID":395268,"DIS_CODE":0,"TOWNNAME":"東區","LI":"大智里","LIN":"16鄰","STREET":"生產路","SECT":" ","MAREA":" ","LANE":"５５０巷","ALLEY":" ","HOUSE_NO":"５２號","E_COORD97":171125.60999999999,"N_COORD97":2540540.1200000001,"ADDRESS":"生產路５５０巷５２號","OBJECTID":395244},"geometry":{"x":171125.61000000127,"y":2540540.1200000029}},{"attributes":{"ID":395269,"DIS_CODE":0,"TOWNNAME":"東區","LI":"大智里","LIN":"16鄰","STREET":"生產路","SECT":" ","MAREA":" ","LANE":"５５０巷","ALLEY":" ","HOUSE_NO":"５５號","E_COORD97":171150.23999999999,"N_COORD97":2540479.1899999999,"ADDRESS":"生產路５５０巷５５號","OBJECTID":395245},"geometry":{"x":171150.24000000115,"y":2540479.1899999976}},{"attributes":{"ID":395270,"DIS_CODE":0,"TOWNNAME":"東區","LI":"大智里","LIN":"16鄰","STREET":"生產路","SECT":" ","MAREA":" ","LANE":"５５０巷","ALLEY":" ","HOUSE_NO":"４５號","E_COORD97":171148.14999999999,"N_COORD97":2540499.2000000002,"ADDRESS":"生產路５５０巷４５號","OBJECTID":395246},"geometry":{"x":171148.15000000037,"y":2540499.1999999993}},{"attributes":{"ID":395271,"DIS_CODE":0,"TOWNNAME":"東區","LI":"大智里","LIN":"16鄰","STREET":"生產路","SECT":" ","MAREA":" ","LANE":"５５０巷","ALLEY":" ","HOUSE_NO":"４７號","E_COORD97":171148.91,"N_COORD97":2540496.1499999999,"ADDRESS":"生產路５５０巷４７號","OBJECTID":395247},"geometry":{"x":171148.91000000108,"y":2540496.1500000004}},{"attributes":{"ID":395272,"DIS_CODE":0,"TOWNNAME":"東區","LI":"大智里","LIN":"16鄰","STREET":"生產路","SECT":" ","MAREA":" ","LANE":"５５０巷","ALLEY":" ","HOUSE_NO":"４９號","E_COORD97":171149.10000000001,"N_COORD97":2540491.5800000001,"ADDRESS":"生產路５５０巷４９號","OBJECTID":395248},"geometry":{"x":171149.10000000056,"y":2540491.5800000019}},{"attributes":{"ID":395273,"DIS_CODE":0,"TOWNNAME":"東區","LI":"大智里","LIN":"16鄰","STREET":"生產路","SECT":" ","MAREA":" ","LANE":"５５０巷","ALLEY":" ","HOUSE_NO":"５１號","E_COORD97":171148.91,"N_COORD97":2540487.2000000002,"ADDRESS":"生產路５５０巷５１號","OBJECTID":395249},"geometry":{"x":171148.91000000108,"y":2540487.2000000011}},{"attributes":{"ID":395274,"DIS_CODE":0,"TOWNNAME":"永康區","LI":"東橋里","LIN":"16鄰","STREET":"東橋二街","SECT":" ","MAREA":" ","LANE":"９７巷","ALLEY":" ","HOUSE_NO":"５號","E_COORD97":171748.04999999999,"N_COORD97":2546579,"ADDRESS":"東橋二街９７巷５號","OBJECTID":395250},"geometry":{"x":171748.05000000075,"y":2546579}},{"attributes":{"ID":395275,"DIS_CODE":0,"TOWNNAME":"東區","LI":"大智里","LIN":"16鄰","STREET":"生產路","SECT":" ","MAREA":" ","LANE":"５５０巷","ALLEY":" ","HOUSE_NO":"５４號","E_COORD97":171131.23000000001,"N_COORD97":2540495.2999999998,"ADDRESS":"生產路５５０巷５４號","OBJECTID":395251},"geometry":{"x":171131.22999999952,"y":2540495.3000000026}},{"attributes":{"ID":395276,"DIS_CODE":0,"TOWNNAME":"安平區","LI":"海頭里","LIN":"16鄰","STREET":"古堡街","SECT":" ","MAREA":" ","LANE":"９０巷","ALLEY":" ","HOUSE_NO":"８號","E_COORD97":163952.41,"N_COORD97":2544936.6299999999,"ADDRESS":"古堡街９０巷８號","OBJECTID":395252},"geometry":{"x":163952.41000000201,"y":2544936.629999999}},{"attributes":{"ID":395277,"DIS_CODE":0,"TOWNNAME":"東區","LI":"大智里","LIN":"16鄰","STREET":"生產路","SECT":" ","MAREA":" ","LANE":"５５０巷","ALLEY":" ","HOUSE_NO":"５７號","E_COORD97":171150.23999999999,"N_COORD97":2540475.3799999999,"ADDRESS":"生產路５５０巷５７號","OBJECTID":395253},"geometry":{"x":171150.24000000115,"y":2540475.3800000008}},{"attributes":{"ID":395278,"DIS_CODE":0,"TOWNNAME":"東區","LI":"大智里","LIN":"16鄰","STREET":"生產路","SECT":" ","MAREA":" ","LANE":"５５０巷","ALLEY":" ","HOUSE_NO":"６１號","E_COORD97":171151.39000000001,"N_COORD97":2540467.1899999999,"ADDRESS":"生產路５５０巷６１號","OBJECTID":395254},"geometry":{"x":171151.39000000153,"y":2540467.1900000013}},{"attributes":{"ID":395279,"DIS_CODE":0,"TOWNNAME":"東區","LI":"大智里","LIN":"16鄰","STREET":"生產路","SECT":" ","MAREA":" ","LANE":"５５０巷","ALLEY":" ","HOUSE_NO":"６３號","E_COORD97":171151.57999999999,"N_COORD97":2540463,"ADDRESS":"生產路５５０巷６３號","OBJECTID":395255},"geometry":{"x":171151.58000000007,"y":2540463}},{"attributes":{"ID":395280,"DIS_CODE":0,"TOWNNAME":"東區","LI":"大智里","LIN":"16鄰","STREET":"長東街","SECT":" ","MAREA":" ","LANE":"４１巷","ALLEY":" ","HOUSE_NO":"１９６號","E_COORD97":171193.64000000001,"N_COORD97":2540513.6899999999,"ADDRESS":"長東街４１巷１９６號","OBJECTID":395256},"geometry":{"x":171193.63999999966,"y":2540513.6900000013}},{"attributes":{"ID":395281,"DIS_CODE":0,"TOWNNAME":"東區","LI":"大智里","LIN":"16鄰","STREET":"長東街","SECT":" ","MAREA":" ","LANE":"４１巷","ALLEY":" ","HOUSE_NO":"１９８號","E_COORD97":171198.14999999999,"N_COORD97":2540516.0600000001,"ADDRESS":"長東街４１巷１９８號","OBJECTID":395257},"geometry":{"x":171198.1500000013,"y":2540516.0600000024}},{"attributes":{"ID":395282,"DIS_CODE":0,"TOWNNAME":"東區","LI":"大智里","LIN":"16鄰","STREET":"長東街","SECT":" ","MAREA":" ","LANE":"４１巷","ALLEY":" ","HOUSE_NO":"２００號","E_COORD97":171201.70999999999,"N_COORD97":2540512.7400000002,"ADDRESS":"長東街４１巷２００號","OBJECTID":395258},"geometry":{"x":171201.70999999996,"y":2540512.7400000002}},{"attributes":{"ID":395283,"DIS_CODE":0,"TOWNNAME":"東區","LI":"大智里","LIN":"16鄰","STREET":"長東街","SECT":" ","MAREA":" ","LANE":"４１巷","ALLEY":" ","HOUSE_NO":"２０２號","E_COORD97":171205.51000000001,"N_COORD97":2540517.2400000002,"ADDRESS":"長東街４１巷２０２號","OBJECTID":395259},"geometry":{"x":171205.51000000071,"y":2540517.2400000039}},{"attributes":{"ID":395284,"DIS_CODE":0,"TOWNNAME":"東區","LI":"大智里","LIN":"16鄰","STREET":"長東街","SECT":" ","MAREA":" ","LANE":"４１巷","ALLEY":" ","HOUSE_NO":"５６號","E_COORD97":171096.19,"N_COORD97":2540503.2400000002,"ADDRESS":"長東街４１巷５６號","OBJECTID":395260},"geometry":{"x":171096.19000000134,"y":2540503.2400000002}},{"attributes":{"ID":395285,"DIS_CODE":0,"TOWNNAME":"東區","LI":"大智里","LIN":"16鄰","STREET":"長東街","SECT":" ","MAREA":" ","LANE":"４１巷","ALLEY":" ","HOUSE_NO":"６２號","E_COORD97":171114.95999999999,"N_COORD97":2540503.3900000001,"ADDRESS":"長東街４１巷６２號","OBJECTID":395261},"geometry":{"x":171114.95999999996,"y":2540503.3900000025}},{"attributes":{"ID":395286,"DIS_CODE":0,"TOWNNAME":"東區","LI":"大智里","LIN":"16鄰","STREET":"長東街","SECT":" ","MAREA":" ","LANE":"４１巷","ALLEY":" ","HOUSE_NO":"６８號","E_COORD97":171128.5,"N_COORD97":2540506.0600000001,"ADDRESS":"長東街４１巷６８號","OBJECTID":395262},"geometry":{"x":171128.5,"y":2540506.0600000024}},{"attributes":{"ID":395287,"DIS_CODE":0,"TOWNNAME":"東區","LI":"大智里","LIN":"16鄰","STREET":"長東街","SECT":" ","MAREA":" ","LANE":"４１巷","ALLEY":" ","HOUSE_NO":"７２號","E_COORD97":171149.10000000001,"N_COORD97":2540505.8700000001,"ADDRESS":"長東街４１巷７２號","OBJECTID":395263},"geometry":{"x":171149.10000000056,"y":2540505.870000001}},{"attributes":{"ID":395288,"DIS_CODE":0,"TOWNNAME":"東區","LI":"大智里","LIN":"16鄰","STREET":"長東街","SECT":" ","MAREA":" ","LANE":"４１巷","ALLEY":" ","HOUSE_NO":"７４號","E_COORD97":171153.87,"N_COORD97":2540508.73,"ADDRESS":"長東街４１巷７４號","OBJECTID":395264},"geometry":{"x":171153.87000000197,"y":2540508.7300000023}},{"attributes":{"ID":395289,"DIS_CODE":0,"TOWNNAME":"東區","LI":"大智里","LIN":"16鄰","STREET":"長東街","SECT":" ","MAREA":" ","LANE":"４１巷","ALLEY":" ","HOUSE_NO":"７８號","E_COORD97":171163.20999999999,"N_COORD97":2540510.4399999999,"ADDRESS":"長東街４１巷７８號","OBJECTID":395265},"geometry":{"x":171163.21000000183,"y":2540510.4399999995}},{"attributes":{"ID":395290,"DIS_CODE":0,"TOWNNAME":"東區","LI":"大智里","LIN":"16鄰","STREET":"長東街","SECT":" ","MAREA":" ","LANE":"４１巷","ALLEY":" ","HOUSE_NO":"８０號","E_COORD97":171169.70000000001,"N_COORD97":2540507.0099999998,"ADDRESS":"長東街４１巷８０號","OBJECTID":395266},"geometry":{"x":171169.70000000019,"y":2540507.0099999998}},{"attributes":{"ID":395291,"DIS_CODE":0,"TOWNNAME":"東區","LI":"大智里","LIN":"16鄰","STREET":"長東街","SECT":" ","MAREA":" ","LANE":"４１巷","ALLEY":" ","HOUSE_NO":"８６號","E_COORD97":171182.85000000001,"N_COORD97":2540511.21,"ADDRESS":"長東街４１巷８６號","OBJECTID":395267},"geometry":{"x":171182.85000000056,"y":2540511.2100000046}},{"attributes":{"ID":395292,"DIS_CODE":0,"TOWNNAME":"東區","LI":"大智里","LIN":"16鄰","STREET":"生產路","SECT":" ","MAREA":" ","LANE":"５５０巷","ALLEY":" ","HOUSE_NO":"５６號","E_COORD97":171130.94,"N_COORD97":2540482.6800000002,"ADDRESS":"生產路５５０巷５６號","OBJECTID":395268},"geometry":{"x":171130.94000000041,"y":2540482.6799999997}},{"attributes":{"ID":395293,"DIS_CODE":0,"TOWNNAME":"東區","LI":"大智里","LIN":"16鄰","STREET":"生產路","SECT":" ","MAREA":" ","LANE":"５５０巷","ALLEY":" ","HOUSE_NO":"５９號","E_COORD97":171150.82000000001,"N_COORD97":2540471.1899999999,"ADDRESS":"生產路５５０巷５９號","OBJECTID":395269},"geometry":{"x":171150.81999999937,"y":2540471.1899999995}},{"attributes":{"ID":395294,"DIS_CODE":0,"TOWNNAME":"東區","LI":"大智里","LIN":"16鄰","STREET":"生產路","SECT":" ","MAREA":" ","LANE":"５５０巷","ALLEY":" ","HOUSE_NO":"６０號","E_COORD97":171132.26999999999,"N_COORD97":2540464.5800000001,"ADDRESS":"生產路５５０巷６０號","OBJECTID":395270},"geometry":{"x":171132.27000000048,"y":2540464.5800000019}},{"attributes":{"ID":395295,"DIS_CODE":0,"TOWNNAME":"東區","LI":"大智里","LIN":"16鄰","STREET":"長東街","SECT":" ","MAREA":" ","LANE":"４１巷","ALLEY":" ","HOUSE_NO":"７６號","E_COORD97":171158.64000000001,"N_COORD97":2540506.4399999999,"ADDRESS":"長東街４１巷７６號","OBJECTID":395271},"geometry":{"x":171158.6400000006,"y":2540506.4400000013}},{"attributes":{"ID":395296,"DIS_CODE":0,"TOWNNAME":"東區","LI":"大智里","LIN":"16鄰","STREET":"長東街","SECT":" ","MAREA":" ","LANE":"４１巷","ALLEY":" ","HOUSE_NO":"８２號","E_COORD97":171175.23000000001,"N_COORD97":2540511.3999999999,"ADDRESS":"長東街４１巷８２號","OBJECTID":395272},"geometry":{"x":171175.23000000045,"y":2540511.4000000004}},{"attributes":{"ID":395297,"DIS_CODE":0,"TOWNNAME":"安南區","LI":"海南里","LIN":"16鄰","STREET":"府安路","SECT":"七段","MAREA":" ","LANE":"９３巷","ALLEY":" ","HOUSE_NO":"１４之１號","E_COORD97":165797.14000000001,"N_COORD97":2545884.2599999998,"ADDRESS":"府安路七段９３巷１４之１號","OBJECTID":395273},"geometry":{"x":165797.1400000006,"y":2545884.2600000016}},{"attributes":{"ID":395298,"DIS_CODE":0,"TOWNNAME":"安南區","LI":"淵西里","LIN":"16鄰","STREET":"安中路","SECT":"四段","MAREA":" ","LANE":"２２５巷","ALLEY":" ","HOUSE_NO":"１００號","E_COORD97":164569.17999999999,"N_COORD97":2550058.2400000002,"ADDRESS":"安中路四段２２５巷１００號","OBJECTID":395274},"geometry":{"x":164569.18000000063,"y":2550058.2400000021}},{"attributes":{"ID":395299,"DIS_CODE":0,"TOWNNAME":"白河區","LI":"永安里","LIN":"16鄰","STREET":"一心街","SECT":" ","MAREA":" ","LANE":"２１巷","ALLEY":" ","HOUSE_NO":"１號","E_COORD97":190081.06,"N_COORD97":2583324.1600000001,"ADDRESS":"一心街２１巷１號","OBJECTID":395275},"geometry":{"x":190081.06000000052,"y":2583324.1600000001}},{"attributes":{"ID":395300,"DIS_CODE":0,"TOWNNAME":"白河區","LI":"永安里","LIN":"16鄰","STREET":"一心街","SECT":" ","MAREA":" ","LANE":"２１巷","ALLEY":" ","HOUSE_NO":"３號","E_COORD97":190080.79999999999,"N_COORD97":2583320.4500000002,"ADDRESS":"一心街２１巷３號","OBJECTID":395276},"geometry":{"x":190080.80000000168,"y":2583320.4499999993}},{"attributes":{"ID":395301,"DIS_CODE":0,"TOWNNAME":"東區","LI":"虎尾里","LIN":"16鄰","STREET":"東成街","SECT":" ","MAREA":" ","LANE":"５６巷","ALLEY":" ","HOUSE_NO":"２號","E_COORD97":171373.87,"N_COORD97":2542241.1800000002,"ADDRESS":"東成街５６巷２號","OBJECTID":395277},"geometry":{"x":171373.87000000011,"y":2542241.1799999997}},{"attributes":{"ID":395302,"DIS_CODE":0,"TOWNNAME":"安南區","LI":"城南里","LIN":"16鄰","STREET":"青砂街","SECT":"一段","MAREA":" ","LANE":"１４５巷","ALLEY":" ","HOUSE_NO":"１之２號","E_COORD97":160475.72,"N_COORD97":2551777.0499999998,"ADDRESS":"青砂街一段１４５巷１之２號","OBJECTID":395278},"geometry":{"x":160475.71999999974,"y":2551777.0500000007}},{"attributes":{"ID":395303,"DIS_CODE":0,"TOWNNAME":"安南區","LI":"安和里","LIN":"16鄰","STREET":"安和路","SECT":"一段","MAREA":" ","LANE":"１５０巷","ALLEY":" ","HOUSE_NO":"２８號","E_COORD97":169551.32999999999,"N_COORD97":2547722.8799999999,"ADDRESS":"安和路一段１５０巷２８號","OBJECTID":395279},"geometry":{"x":169551.33000000007,"y":2547722.8800000027}},{"attributes":{"ID":395304,"DIS_CODE":0,"TOWNNAME":"安南區","LI":"安和里","LIN":"16鄰","STREET":"安和路","SECT":"一段","MAREA":" ","LANE":"１５０巷","ALLEY":" ","HOUSE_NO":"３０號","E_COORD97":169554.82999999999,"N_COORD97":2547724.8700000001,"ADDRESS":"安和路一段１５０巷３０號","OBJECTID":395280},"geometry":{"x":169554.83000000007,"y":2547724.8699999992}},{"attributes":{"ID":395305,"DIS_CODE":0,"TOWNNAME":"安南區","LI":"安和里","LIN":"16鄰","STREET":"安和路","SECT":"一段","MAREA":" ","LANE":"１５０巷","ALLEY":" ","HOUSE_NO":"３２號","E_COORD97":169558.32000000001,"N_COORD97":2547726.6200000001,"ADDRESS":"安和路一段１５０巷３２號","OBJECTID":395281},"geometry":{"x":169558.3200000003,"y":2547726.6199999992}},{"attributes":{"ID":395306,"DIS_CODE":0,"TOWNNAME":"安南區","LI":"安和里","LIN":"16鄰","STREET":"安和路","SECT":"一段","MAREA":" ","LANE":"１５０巷","ALLEY":" ","HOUSE_NO":"３４號","E_COORD97":169561.82000000001,"N_COORD97":2547728.3700000001,"ADDRESS":"安和路一段１５０巷３４號","OBJECTID":395282},"geometry":{"x":169561.8200000003,"y":2547728.3699999992}},{"attributes":{"ID":395307,"DIS_CODE":0,"TOWNNAME":"安南區","LI":"安和里","LIN":"16鄰","STREET":"安和路","SECT":"一段","MAREA":" ","LANE":"１５０巷","ALLEY":" ","HOUSE_NO":"３６號","E_COORD97":169565.06,"N_COORD97":2547730.1099999999,"ADDRESS":"安和路一段１５０巷３６號","OBJECTID":395283},"geometry":{"x":169565.05999999959,"y":2547730.1100000013}},{"attributes":{"ID":395308,"DIS_CODE":0,"TOWNNAME":"安南區","LI":"安和里","LIN":"16鄰","STREET":"安和路","SECT":"一段","MAREA":" ","LANE":"１５０巷","ALLEY":" ","HOUSE_NO":"４２號","E_COORD97":169575.04999999999,"N_COORD97":2547735.6000000001,"ADDRESS":"安和路一段１５０巷４２號","OBJECTID":395284},"geometry":{"x":169575.04999999981,"y":2547735.6000000034}},{"attributes":{"ID":395309,"DIS_CODE":0,"TOWNNAME":"安南區","LI":"安和里","LIN":"16鄰","STREET":"安和路","SECT":"一段","MAREA":" ","LANE":"１５０巷","ALLEY":" ","HOUSE_NO":"４４號","E_COORD97":169578.79000000001,"N_COORD97":2547737.5899999999,"ADDRESS":"安和路一段１５０巷４４號","OBJECTID":395285},"geometry":{"x":169578.79000000004,"y":2547737.5900000017}},{"attributes":{"ID":395310,"DIS_CODE":0,"TOWNNAME":"安南區","LI":"安和里","LIN":"16鄰","STREET":"安和路","SECT":"一段","MAREA":" ","LANE":"１５０巷","ALLEY":" ","HOUSE_NO":"４８號","E_COORD97":169587.78,"N_COORD97":2547741.5800000001,"ADDRESS":"安和路一段１５０巷４８號","OBJECTID":395286},"geometry":{"x":169587.78000000026,"y":2547741.5800000001}},{"attributes":{"ID":395311,"DIS_CODE":0,"TOWNNAME":"安南區","LI":"安和里","LIN":"16鄰","STREET":"安和路","SECT":"一段","MAREA":" ","LANE":"１１８巷","ALLEY":" ","HOUSE_NO":"１２號","E_COORD97":169546.85000000001,"N_COORD97":2547641.9700000002,"ADDRESS":"安和路一段１１８巷１２號","OBJECTID":395287},"geometry":{"x":169546.85000000056,"y":2547641.9700000007}},{"attributes":{"ID":395312,"DIS_CODE":0,"TOWNNAME":"安南區","LI":"安富里","LIN":"16鄰","STREET":"海佃路","SECT":"一段","MAREA":" ","LANE":"１５８巷","ALLEY":" ","HOUSE_NO":"１９３號","E_COORD97":167703.26999999999,"N_COORD97":2547303.9700000002,"ADDRESS":"海佃路一段１５８巷１９３號","OBJECTID":395288},"geometry":{"x":167703.27000000048,"y":2547303.9700000025}},{"attributes":{"ID":395313,"DIS_CODE":0,"TOWNNAME":"安南區","LI":"安富里","LIN":"16鄰","STREET":"海佃路","SECT":"一段","MAREA":" ","LANE":"１５８巷","ALLEY":" ","HOUSE_NO":"１８７號","E_COORD97":167690.03,"N_COORD97":2547302.77,"ADDRESS":"海佃路一段１５８巷１８７號","OBJECTID":395289},"geometry":{"x":167690.03000000119,"y":2547302.7699999996}},{"attributes":{"ID":395314,"DIS_CODE":0,"TOWNNAME":"安南區","LI":"安富里","LIN":"16鄰","STREET":"海佃路","SECT":"一段","MAREA":" ","LANE":"１５８巷","ALLEY":" ","HOUSE_NO":"１７３號","E_COORD97":167658.75,"N_COORD97":2547293.46,"ADDRESS":"海佃路一段１５８巷１７３號","OBJECTID":395290},"geometry":{"x":167658.75,"y":2547293.4600000009}},{"attributes":{"ID":395315,"DIS_CODE":0,"TOWNNAME":"安南區","LI":"安富里","LIN":"16鄰","STREET":"海佃路","SECT":"一段","MAREA":" ","LANE":"１５８巷","ALLEY":" ","HOUSE_NO":"１７１號","E_COORD97":167653.94,"N_COORD97":2547295.27,"ADDRESS":"海佃路一段１５８巷１７１號","OBJECTID":395291},"geometry":{"x":167653.94000000041,"y":2547295.2700000014}},{"attributes":{"ID":395316,"DIS_CODE":0,"TOWNNAME":"安南區","LI":"安富里","LIN":"16鄰","STREET":"海佃路","SECT":"一段","MAREA":" ","LANE":"１５８巷","ALLEY":" ","HOUSE_NO":"１６９號","E_COORD97":167649.73000000001,"N_COORD97":2547293.1600000001,"ADDRESS":"海佃路一段１５８巷１６９號","OBJECTID":395292},"geometry":{"x":167649.73000000138,"y":2547293.160000002}},{"attributes":{"ID":395317,"DIS_CODE":0,"TOWNNAME":"安南區","LI":"安富里","LIN":"16鄰","STREET":"海佃路","SECT":"一段","MAREA":" ","LANE":"１５８巷","ALLEY":" ","HOUSE_NO":"１６５號","E_COORD97":167640.41,"N_COORD97":2547291.1600000001,"ADDRESS":"海佃路一段１５８巷１６５號","OBJECTID":395293},"geometry":{"x":167640.41000000015,"y":2547291.1600000001}},{"attributes":{"ID":395318,"DIS_CODE":0,"TOWNNAME":"安南區","LI":"安富里","LIN":"16鄰","STREET":"海佃路","SECT":"一段","MAREA":" ","LANE":"１５８巷","ALLEY":" ","HOUSE_NO":"１６３號","E_COORD97":167636.20000000001,"N_COORD97":2547288.46,"ADDRESS":"海佃路一段１５８巷１６３號","OBJECTID":395294},"geometry":{"x":167636.20000000112,"y":2547288.4600000028}},{"attributes":{"ID":395319,"DIS_CODE":0,"TOWNNAME":"安南區","LI":"安富里","LIN":"16鄰","STREET":"安富街","SECT":" ","MAREA":" ","LANE":"２４５巷","ALLEY":" ","HOUSE_NO":"５３號","E_COORD97":167615.14000000001,"N_COORD97":2547318.79,"ADDRESS":"安富街２４５巷５３號","OBJECTID":395295},"geometry":{"x":167615.13999999966,"y":2547318.7899999991}},{"attributes":{"ID":395320,"DIS_CODE":0,"TOWNNAME":"善化區","LI":"光文里","LIN":"16鄰","STREET":"信義路","SECT":" ","MAREA":" ","LANE":"１５５巷","ALLEY":" ","HOUSE_NO":"１４號","E_COORD97":178160.81,"N_COORD97":2559036.25,"ADDRESS":"信義路１５５巷１４號","OBJECTID":395296},"geometry":{"x":178160.80999999959,"y":2559036.2500000019}},{"attributes":{"ID":395321,"DIS_CODE":0,"TOWNNAME":"善化區","LI":"坐駕里","LIN":"16鄰","STREET":"大成路","SECT":" ","MAREA":" ","LANE":"１５巷","ALLEY":" ","HOUSE_NO":"１０號","E_COORD97":178864.79999999999,"N_COORD97":2558903.25,"ADDRESS":"大成路１５巷１０號","OBJECTID":395297},"geometry":{"x":178864.79999999981,"y":2558903.2500000019}},{"attributes":{"ID":395322,"DIS_CODE":0,"TOWNNAME":"善化區","LI":"坐駕里","LIN":"16鄰","STREET":"大成路","SECT":" ","MAREA":" ","LANE":"１５巷","ALLEY":" ","HOUSE_NO":"１６號","E_COORD97":178866.12,"N_COORD97":2558895,"ADDRESS":"大成路１５巷１６號","OBJECTID":395298},"geometry":{"x":178866.12000000011,"y":2558895.0000000019}},{"attributes":{"ID":395323,"DIS_CODE":0,"TOWNNAME":"中西區","LI":"三民里","LIN":"16鄰","STREET":"民權路","SECT":"二段","MAREA":" ","LANE":"６４巷","ALLEY":" ","HOUSE_NO":"１號","E_COORD97":168485.73999999999,"N_COORD97":2543919.4900000002,"ADDRESS":"民權路二段６４巷１號","OBJECTID":395299},"geometry":{"x":168485.74000000022,"y":2543919.4900000039}},{"attributes":{"ID":395324,"DIS_CODE":0,"TOWNNAME":"中西區","LI":"三民里","LIN":"16鄰","STREET":"民權路","SECT":"二段","MAREA":" ","LANE":"６４巷","ALLEY":" ","HOUSE_NO":"３號","E_COORD97":168486.82000000001,"N_COORD97":2543927.8300000001,"ADDRESS":"民權路二段６４巷３號","OBJECTID":395300},"geometry":{"x":168486.82000000123,"y":2543927.8300000019}},{"attributes":{"ID":395325,"DIS_CODE":0,"TOWNNAME":"中西區","LI":"三民里","LIN":"16鄰","STREET":"民權路","SECT":"二段","MAREA":" ","LANE":"６４巷","ALLEY":" ","HOUSE_NO":"３號之１０","E_COORD97":168444.04999999999,"N_COORD97":2543941.8399999999,"ADDRESS":"民權路二段６４巷３號之１０","OBJECTID":395301},"geometry":{"x":168444.05000000075,"y":2543941.8400000017}},{"attributes":{"ID":395326,"DIS_CODE":0,"TOWNNAME":"中西區","LI":"建國里","LIN":"7鄰","STREET":"民生路","SECT":"一段","MAREA":" ","LANE":"１５７巷","ALLEY":" ","HOUSE_NO":"１８號","E_COORD97":167995.88,"N_COORD97":2543776.7200000002,"ADDRESS":"民生路一段１５７巷１８號","OBJECTID":395302},"geometry":{"x":167995.88000000082,"y":2543776.7200000025}},{"attributes":{"ID":395327,"DIS_CODE":0,"TOWNNAME":"中西區","LI":"建國里","LIN":"7鄰","STREET":"民生路","SECT":"一段","MAREA":" ","LANE":"１５７巷","ALLEY":" ","HOUSE_NO":"２０號","E_COORD97":167993.67999999999,"N_COORD97":2543772.1299999999,"ADDRESS":"民生路一段１５７巷２０號","OBJECTID":395303},"geometry":{"x":167993.68000000063,"y":2543772.1300000008}},{"attributes":{"ID":395328,"DIS_CODE":0,"TOWNNAME":"中西區","LI":"建國里","LIN":"7鄰","STREET":"民生路","SECT":"一段","MAREA":" ","LANE":"１８１巷","ALLEY":" ","HOUSE_NO":"１５號","E_COORD97":167973.92000000001,"N_COORD97":2543807.73,"ADDRESS":"民生路一段１８１巷１５號","OBJECTID":395304},"geometry":{"x":167973.91999999993,"y":2543807.7300000023}},{"attributes":{"ID":395329,"DIS_CODE":0,"TOWNNAME":"中西區","LI":"建國里","LIN":"7鄰","STREET":"民生路","SECT":"一段","MAREA":" ","LANE":"１８１巷","ALLEY":" ","HOUSE_NO":"１７號","E_COORD97":167971.35000000001,"N_COORD97":2543804.73,"ADDRESS":"民生路一段１８１巷１７號","OBJECTID":395305},"geometry":{"x":167971.34999999963,"y":2543804.7300000004}},{"attributes":{"ID":395330,"DIS_CODE":0,"TOWNNAME":"中西區","LI":"建國里","LIN":"7鄰","STREET":"民生路","SECT":"一段","MAREA":" ","LANE":"１８１巷","ALLEY":" ","HOUSE_NO":"１９號","E_COORD97":167970.20000000001,"N_COORD97":2543801.73,"ADDRESS":"民生路一段１８１巷１９號","OBJECTID":395306},"geometry":{"x":167970.20000000112,"y":2543801.7300000004}},{"attributes":{"ID":395331,"DIS_CODE":0,"TOWNNAME":"中西區","LI":"建國里","LIN":"7鄰","STREET":"民生路","SECT":"一段","MAREA":" ","LANE":"１８１巷","ALLEY":" ","HOUSE_NO":"２１號","E_COORD97":167967.76999999999,"N_COORD97":2543797.8700000001,"ADDRESS":"民生路一段１８１巷２１號","OBJECTID":395307},"geometry":{"x":167967.76999999955,"y":2543797.870000001}},{"attributes":{"ID":395332,"DIS_CODE":0,"TOWNNAME":"中西區","LI":"建國里","LIN":"7鄰","STREET":"民生路","SECT":"一段","MAREA":" ","LANE":"１８１巷","ALLEY":" ","HOUSE_NO":"２５號","E_COORD97":167966.56,"N_COORD97":2543791.3500000001,"ADDRESS":"民生路一段１８１巷２５號","OBJECTID":395308},"geometry":{"x":167966.55999999866,"y":2543791.3500000015}},{"attributes":{"ID":395333,"DIS_CODE":0,"TOWNNAME":"中西區","LI":"建國里","LIN":"7鄰","STREET":"民生路","SECT":"一段","MAREA":" ","LANE":"１８１巷","ALLEY":" ","HOUSE_NO":"２７號","E_COORD97":167963.34,"N_COORD97":2543789.48,"ADDRESS":"民生路一段１８１巷２７號","OBJECTID":395309},"geometry":{"x":167963.34000000171,"y":2543789.4800000004}},{"attributes":{"ID":395334,"DIS_CODE":0,"TOWNNAME":"中西區","LI":"建國里","LIN":"7鄰","STREET":"西門路","SECT":"二段","MAREA":" ","LANE":"１３６巷","ALLEY":" ","HOUSE_NO":"１９號","E_COORD97":167968.57000000001,"N_COORD97":2543786.27,"ADDRESS":"西門路二段１３６巷１９號","OBJECTID":395310},"geometry":{"x":167968.5700000003,"y":2543786.2700000014}},{"attributes":{"ID":395335,"DIS_CODE":0,"TOWNNAME":"中西區","LI":"建國里","LIN":"7鄰","STREET":"西門路","SECT":"二段","MAREA":" ","LANE":"１３６巷","ALLEY":" ","HOUSE_NO":"２１號","E_COORD97":167973.07000000001,"N_COORD97":2543783.1899999999,"ADDRESS":"西門路二段１３６巷２１號","OBJECTID":395311},"geometry":{"x":167973.07000000123,"y":2543783.1900000013}},{"attributes":{"ID":395336,"DIS_CODE":0,"TOWNNAME":"中西區","LI":"建國里","LIN":"7鄰","STREET":"西門路","SECT":"二段","MAREA":" ","LANE":"１３６巷","ALLEY":" ","HOUSE_NO":"２３號","E_COORD97":167975.88,"N_COORD97":2543780.6899999999,"ADDRESS":"西門路二段１３６巷２３號","OBJECTID":395312},"geometry":{"x":167975.87999999989,"y":2543780.6899999995}},{"attributes":{"ID":395337,"DIS_CODE":0,"TOWNNAME":"中西區","LI":"建國里","LIN":"7鄰","STREET":"西門路","SECT":"二段","MAREA":" ","LANE":"１３６巷","ALLEY":" ","HOUSE_NO":"２５號","E_COORD97":167980.38,"N_COORD97":2543778.2000000002,"ADDRESS":"西門路二段１３６巷２５號","OBJECTID":395313},"geometry":{"x":167980.38000000082,"y":2543778.200000003}},{"attributes":{"ID":395338,"DIS_CODE":0,"TOWNNAME":"中西區","LI":"建國里","LIN":"8鄰","STREET":"西門路","SECT":"二段","MAREA":" ","LANE":"１３６巷","ALLEY":" ","HOUSE_NO":"１５號","E_COORD97":167939.53,"N_COORD97":2543800.1800000002,"ADDRESS":"西門路二段１３６巷１５號","OBJECTID":395314},"geometry":{"x":167939.53000000119,"y":2543800.1800000016}},{"attributes":{"ID":395339,"DIS_CODE":0,"TOWNNAME":"中西區","LI":"建國里","LIN":"8鄰","STREET":"西門路","SECT":"二段","MAREA":" ","LANE":"１３６巷","ALLEY":" ","HOUSE_NO":"１７號","E_COORD97":167944.39000000001,"N_COORD97":2543798.3300000001,"ADDRESS":"西門路二段１３６巷１７號","OBJECTID":395315},"geometry":{"x":167944.3900000006,"y":2543798.3300000038}},{"attributes":{"ID":395340,"DIS_CODE":0,"TOWNNAME":"中西區","LI":"建國里","LIN":"9鄰","STREET":"民生路","SECT":"一段","MAREA":" ","LANE":"２０５巷","ALLEY":" ","HOUSE_NO":"１０號","E_COORD97":167929.29000000001,"N_COORD97":2543851.9900000002,"ADDRESS":"民生路一段２０５巷１０號","OBJECTID":395316},"geometry":{"x":167929.29000000004,"y":2543851.9900000021}},{"attributes":{"ID":395341,"DIS_CODE":0,"TOWNNAME":"中西區","LI":"建國里","LIN":"9鄰","STREET":"民生路","SECT":"一段","MAREA":" ","LANE":"２０５巷","ALLEY":" ","HOUSE_NO":"１１號","E_COORD97":167931.07999999999,"N_COORD97":2543820.0499999998,"ADDRESS":"民生路一段２０５巷１１號","OBJECTID":395317},"geometry":{"x":167931.08000000007,"y":2543820.0500000007}},{"attributes":{"ID":395342,"DIS_CODE":0,"TOWNNAME":"中西區","LI":"建國里","LIN":"9鄰","STREET":"民生路","SECT":"一段","MAREA":" ","LANE":"２０５巷","ALLEY":" ","HOUSE_NO":"１２號","E_COORD97":167925.29000000001,"N_COORD97":2543847.3700000001,"ADDRESS":"民生路一段２０５巷１２號","OBJECTID":395318},"geometry":{"x":167925.29000000097,"y":2543847.3700000029}},{"attributes":{"ID":395343,"DIS_CODE":0,"TOWNNAME":"中西區","LI":"建國里","LIN":"9鄰","STREET":"民生路","SECT":"一段","MAREA":" ","LANE":"２０５巷","ALLEY":" ","HOUSE_NO":"１３號","E_COORD97":167926.35999999999,"N_COORD97":2543816.0499999998,"ADDRESS":"民生路一段２０５巷１３號","OBJECTID":395319},"geometry":{"x":167926.3600000022,"y":2543816.0500000026}},{"attributes":{"ID":395344,"DIS_CODE":0,"TOWNNAME":"中西區","LI":"建國里","LIN":"9鄰","STREET":"民生路","SECT":"一段","MAREA":" ","LANE":"２０５巷","ALLEY":" ","HOUSE_NO":"１４號","E_COORD97":167923,"N_COORD97":2543840.6600000001,"ADDRESS":"民生路一段２０５巷１４號","OBJECTID":395320},"geometry":{"x":167923,"y":2543840.660000002}},{"attributes":{"ID":395345,"DIS_CODE":0,"TOWNNAME":"中西區","LI":"建國里","LIN":"9鄰","STREET":"民生路","SECT":"一段","MAREA":" ","LANE":"２０５巷","ALLEY":" ","HOUSE_NO":"１８號","E_COORD97":167920.28,"N_COORD97":2543834.0800000001,"ADDRESS":"民生路一段２０５巷１８號","OBJECTID":395321},"geometry":{"x":167920.28000000119,"y":2543834.0800000038}},{"attributes":{"ID":395346,"DIS_CODE":0,"TOWNNAME":"中西區","LI":"建國里","LIN":"9鄰","STREET":"民生路","SECT":"一段","MAREA":" ","LANE":"２０５巷","ALLEY":" ","HOUSE_NO":"１號","E_COORD97":167945.39000000001,"N_COORD97":2543856.7799999998,"ADDRESS":"民生路一段２０５巷１號","OBJECTID":395322},"geometry":{"x":167945.38999999966,"y":2543856.7800000012}},{"attributes":{"ID":395347,"DIS_CODE":0,"TOWNNAME":"中西區","LI":"建國里","LIN":"9鄰","STREET":"民生路","SECT":"一段","MAREA":" ","LANE":"２０５巷","ALLEY":" ","HOUSE_NO":"２０號","E_COORD97":167918.70000000001,"N_COORD97":2543828.5099999998,"ADDRESS":"民生路一段２０５巷２０號","OBJECTID":395323},"geometry":{"x":167918.70000000019,"y":2543828.5100000016}},{"attributes":{"ID":395348,"DIS_CODE":0,"TOWNNAME":"中西區","LI":"建國里","LIN":"9鄰","STREET":"民生路","SECT":"一段","MAREA":" ","LANE":"２０５巷","ALLEY":" ","HOUSE_NO":"２２號","E_COORD97":167918.13,"N_COORD97":2543821.9300000002,"ADDRESS":"民生路一段２０５巷２２號","OBJECTID":395324},"geometry":{"x":167918.13000000082,"y":2543821.9300000016}},{"attributes":{"ID":395349,"DIS_CODE":0,"TOWNNAME":"中西區","LI":"建國里","LIN":"9鄰","STREET":"民生路","SECT":"一段","MAREA":" ","LANE":"２０５巷","ALLEY":" ","HOUSE_NO":"８號","E_COORD97":167930.44,"N_COORD97":2543855.2799999998,"ADDRESS":"民生路一段２０５巷８號","OBJECTID":395325},"geometry":{"x":167930.44000000041,"y":2543855.2799999975}},{"attributes":{"ID":395350,"DIS_CODE":0,"TOWNNAME":"中西區","LI":"建國里","LIN":"9鄰","STREET":"民生路","SECT":"一段","MAREA":" ","LANE":"２０５巷","ALLEY":" ","HOUSE_NO":"９號","E_COORD97":167934.51999999999,"N_COORD97":2543824.9100000001,"ADDRESS":"民生路一段２０５巷９號","OBJECTID":395326},"geometry":{"x":167934.51999999955,"y":2543824.9100000039}},{"attributes":{"ID":395351,"DIS_CODE":0,"TOWNNAME":"中西區","LI":"建國里","LIN":"9鄰","STREET":"西門路","SECT":"二段","MAREA":" ","LANE":"１３６巷","ALLEY":" ","HOUSE_NO":"１１號","E_COORD97":167930.22,"N_COORD97":2543803.7599999998,"ADDRESS":"西門路二段１３６巷１１號","OBJECTID":395327},"geometry":{"x":167930.2200000016,"y":2543803.7599999998}},{"attributes":{"ID":395352,"DIS_CODE":0,"TOWNNAME":"中西區","LI":"建國里","LIN":"9鄰","STREET":"西門路","SECT":"二段","MAREA":" ","LANE":"１３６巷","ALLEY":" ","HOUSE_NO":"１３號","E_COORD97":167934.51999999999,"N_COORD97":2543801.8999999999,"ADDRESS":"西門路二段１３６巷１３號","OBJECTID":395328},"geometry":{"x":167934.51999999955,"y":2543801.9000000022}},{"attributes":{"ID":395353,"DIS_CODE":0,"TOWNNAME":"中西區","LI":"建國里","LIN":"9鄰","STREET":"西門路","SECT":"二段","MAREA":" ","LANE":"１３６巷","ALLEY":" ","HOUSE_NO":"１號","E_COORD97":167900.67000000001,"N_COORD97":2543815.4100000001,"ADDRESS":"西門路二段１３６巷１號","OBJECTID":395329},"geometry":{"x":167900.67000000086,"y":2543815.410000002}},{"attributes":{"ID":395354,"DIS_CODE":0,"TOWNNAME":"中西區","LI":"建國里","LIN":"9鄰","STREET":"西門路","SECT":"二段","MAREA":" ","LANE":"１３６巷","ALLEY":" ","HOUSE_NO":"３號","E_COORD97":167907.26000000001,"N_COORD97":2543812.7400000002,"ADDRESS":"西門路二段１３６巷３號","OBJECTID":395330},"geometry":{"x":167907.25999999978,"y":2543812.7400000039}},{"attributes":{"ID":395355,"DIS_CODE":0,"TOWNNAME":"中西區","LI":"建國里","LIN":"9鄰","STREET":"西門路","SECT":"二段","MAREA":" ","LANE":"１３６巷","ALLEY":" ","HOUSE_NO":"５號","E_COORD97":167909.54000000001,"N_COORD97":2543810.1600000001,"ADDRESS":"西門路二段１３６巷５號","OBJECTID":395331},"geometry":{"x":167909.53999999911,"y":2543810.160000002}},{"attributes":{"ID":395356,"DIS_CODE":0,"TOWNNAME":"中西區","LI":"建國里","LIN":"9鄰","STREET":"西門路","SECT":"二段","MAREA":" ","LANE":"１３６巷","ALLEY":" ","HOUSE_NO":"７號","E_COORD97":167914.70000000001,"N_COORD97":2543811.27,"ADDRESS":"西門路二段１３６巷７號","OBJECTID":395332},"geometry":{"x":167914.70000000019,"y":2543811.2699999996}},{"attributes":{"ID":395357,"DIS_CODE":0,"TOWNNAME":"中西區","LI":"建國里","LIN":"9鄰","STREET":"西門路","SECT":"二段","MAREA":" ","LANE":"１３６巷","ALLEY":" ","HOUSE_NO":"９號","E_COORD97":167924.92999999999,"N_COORD97":2543809.4700000002,"ADDRESS":"西門路二段１３６巷９號","OBJECTID":395333},"geometry":{"x":167924.9299999997,"y":2543809.4700000025}},{"attributes":{"ID":395358,"DIS_CODE":0,"TOWNNAME":"中西區","LI":"建國里","LIN":"5鄰","STREET":"中正路","SECT":" ","MAREA":" ","LANE":"１３８巷","ALLEY":" ","HOUSE_NO":"１１號","E_COORD97":167932.04000000001,"N_COORD97":2543753.8900000001,"ADDRESS":"中正路１３８巷１１號","OBJECTID":395334},"geometry":{"x":167932.04000000097,"y":2543753.8900000006}},{"attributes":{"ID":395359,"DIS_CODE":0,"TOWNNAME":"中西區","LI":"建國里","LIN":"5鄰","STREET":"中正路","SECT":" ","MAREA":" ","LANE":"１３８巷","ALLEY":" ","HOUSE_NO":"１３號","E_COORD97":167933.81,"N_COORD97":2543758.5899999999,"ADDRESS":"中正路１３８巷１３號","OBJECTID":395335},"geometry":{"x":167933.80999999959,"y":2543758.5899999999}},{"attributes":{"ID":395360,"DIS_CODE":0,"TOWNNAME":"中西區","LI":"建國里","LIN":"5鄰","STREET":"中正路","SECT":" ","MAREA":" ","LANE":"１３８巷","ALLEY":" ","HOUSE_NO":"１５號","E_COORD97":167932.44,"N_COORD97":2543765.8300000001,"ADDRESS":"中正路１３８巷１５號","OBJECTID":395336},"geometry":{"x":167932.44000000041,"y":2543765.8300000019}},{"attributes":{"ID":395361,"DIS_CODE":0,"TOWNNAME":"中西區","LI":"建國里","LIN":"5鄰","STREET":"中正路","SECT":" ","MAREA":" ","LANE":"１３８巷","ALLEY":" ","HOUSE_NO":"１７號","E_COORD97":167937.14000000001,"N_COORD97":2543772.2999999998,"ADDRESS":"中正路１３８巷１７號","OBJECTID":395337},"geometry":{"x":167937.13999999966,"y":2543772.3000000045}},{"attributes":{"ID":395362,"DIS_CODE":0,"TOWNNAME":"中西區","LI":"建國里","LIN":"5鄰","STREET":"中正路","SECT":" ","MAREA":" ","LANE":"１３８巷","ALLEY":" ","HOUSE_NO":"１９號","E_COORD97":167923.60999999999,"N_COORD97":2543784.0499999998,"ADDRESS":"中正路１３８巷１９號","OBJECTID":395338},"geometry":{"x":167923.61000000127,"y":2543784.0500000045}},{"attributes":{"ID":395363,"DIS_CODE":0,"TOWNNAME":"中西區","LI":"建國里","LIN":"5鄰","STREET":"中正路","SECT":" ","MAREA":" ","LANE":"１３８巷","ALLEY":" ","HOUSE_NO":"２１號","E_COORD97":167921.85000000001,"N_COORD97":2543779.54,"ADDRESS":"中正路１３８巷２１號","OBJECTID":395339},"geometry":{"x":167921.84999999963,"y":2543779.540000001}},{"attributes":{"ID":395364,"DIS_CODE":0,"TOWNNAME":"東區","LI":"虎尾里","LIN":"16鄰","STREET":"東成街","SECT":" ","MAREA":" ","LANE":"５６巷","ALLEY":" ","HOUSE_NO":"３６號","E_COORD97":171379.92000000001,"N_COORD97":2542169.1099999999,"ADDRESS":"東成街５６巷３６號","OBJECTID":395340},"geometry":{"x":171379.91999999993,"y":2542169.1100000013}},{"attributes":{"ID":395365,"DIS_CODE":0,"TOWNNAME":"安平區","LI":"海頭里","LIN":"16鄰","STREET":"古堡街","SECT":" ","MAREA":" ","LANE":"９０巷","ALLEY":" ","HOUSE_NO":"９號","E_COORD97":163926.32999999999,"N_COORD97":2544936.5499999998,"ADDRESS":"古堡街９０巷９號","OBJECTID":395341},"geometry":{"x":163926.33000000101,"y":2544936.5499999989}},{"attributes":{"ID":395366,"DIS_CODE":0,"TOWNNAME":"東區","LI":"富強里","LIN":"16鄰","STREET":"裕農路","SECT":" ","MAREA":" ","LANE":"２８８巷","ALLEY":" ","HOUSE_NO":"１０２號","E_COORD97":170985.97,"N_COORD97":2542935.48,"ADDRESS":"裕農路２８８巷１０２號","OBJECTID":395342},"geometry":{"x":170985.96999999974,"y":2542935.4800000004}},{"attributes":{"ID":395367,"DIS_CODE":0,"TOWNNAME":"東區","LI":"富強里","LIN":"16鄰","STREET":"裕農路","SECT":" ","MAREA":" ","LANE":"２８８巷","ALLEY":" ","HOUSE_NO":"１０４號","E_COORD97":170989.67000000001,"N_COORD97":2542935.6699999999,"ADDRESS":"裕農路２８８巷１０４號","OBJECTID":395343},"geometry":{"x":170989.66999999993,"y":2542935.6700000018}},{"attributes":{"ID":395368,"DIS_CODE":0,"TOWNNAME":"東區","LI":"富強里","LIN":"16鄰","STREET":"裕農路","SECT":" ","MAREA":" ","LANE":"２８８巷","ALLEY":" ","HOUSE_NO":"１０６號","E_COORD97":170993.85000000001,"N_COORD97":2542936.2400000002,"ADDRESS":"裕農路２８８巷１０６號","OBJECTID":395344},"geometry":{"x":170993.84999999963,"y":2542936.2400000002}},{"attributes":{"ID":395369,"DIS_CODE":0,"TOWNNAME":"東區","LI":"富強里","LIN":"16鄰","STREET":"裕農路","SECT":" ","MAREA":" ","LANE":"２８８巷","ALLEY":" ","HOUSE_NO":"１１２號","E_COORD97":171005.89999999999,"N_COORD97":2542936.8100000001,"ADDRESS":"裕農路２８８巷１１２號","OBJECTID":395345},"geometry":{"x":171005.90000000037,"y":2542936.8100000005}},{"attributes":{"ID":395370,"DIS_CODE":0,"TOWNNAME":"東區","LI":"富強里","LIN":"16鄰","STREET":"裕農路","SECT":" ","MAREA":" ","LANE":"２８８巷","ALLEY":" ","HOUSE_NO":"１１４號","E_COORD97":171010.89999999999,"N_COORD97":2542937.5,"ADDRESS":"裕農路２８８巷１１４號","OBJECTID":395346},"geometry":{"x":171010.90000000037,"y":2542937.5000000019}},{"attributes":{"ID":395371,"DIS_CODE":0,"TOWNNAME":"東區","LI":"富強里","LIN":"16鄰","STREET":"裕農路","SECT":" ","MAREA":" ","LANE":"２８８巷","ALLEY":" ","HOUSE_NO":"１１６號","E_COORD97":171014.20000000001,"N_COORD97":2542937.6000000001,"ADDRESS":"裕農路２８８巷１１６號","OBJECTID":395347},"geometry":{"x":171014.19999999925,"y":2542937.5999999996}},{"attributes":{"ID":395372,"DIS_CODE":0,"TOWNNAME":"東區","LI":"富強里","LIN":"16鄰","STREET":"裕農路","SECT":" ","MAREA":" ","LANE":"２８８巷","ALLEY":" ","HOUSE_NO":"１１８號","E_COORD97":171017.79999999999,"N_COORD97":2542938.7999999998,"ADDRESS":"裕農路２８８巷１１８號","OBJECTID":395348},"geometry":{"x":171017.79999999981,"y":2542938.8000000026}},{"attributes":{"ID":395373,"DIS_CODE":0,"TOWNNAME":"東區","LI":"富強里","LIN":"16鄰","STREET":"裕農路","SECT":" ","MAREA":" ","LANE":"２８８巷","ALLEY":" ","HOUSE_NO":"１２０號","E_COORD97":171024.12,"N_COORD97":2542942.6800000002,"ADDRESS":"裕農路２８８巷１２０號","OBJECTID":395349},"geometry":{"x":171024.12000000011,"y":2542942.6800000016}},{"attributes":{"ID":395374,"DIS_CODE":0,"TOWNNAME":"東區","LI":"富強里","LIN":"16鄰","STREET":"裕農路","SECT":" ","MAREA":" ","LANE":"２８８巷","ALLEY":" ","HOUSE_NO":"１２２號","E_COORD97":171030.54000000001,"N_COORD97":2542942.8100000001,"ADDRESS":"裕農路２８８巷１２２號","OBJECTID":395350},"geometry":{"x":171030.5400000019,"y":2542942.8100000024}},{"attributes":{"ID":395375,"DIS_CODE":0,"TOWNNAME":"東區","LI":"富強里","LIN":"16鄰","STREET":"裕農路","SECT":" ","MAREA":" ","LANE":"２８８巷","ALLEY":" ","HOUSE_NO":"１３０號","E_COORD97":171056.37,"N_COORD97":2542940.8900000001,"ADDRESS":"裕農路２８８巷１３０號","OBJECTID":395351},"geometry":{"x":171056.37000000011,"y":2542940.8900000043}},{"attributes":{"ID":395376,"DIS_CODE":0,"TOWNNAME":"東區","LI":"富強里","LIN":"16鄰","STREET":"裕農路","SECT":" ","MAREA":" ","LANE":"２８８巷","ALLEY":" ","HOUSE_NO":"１３６號","E_COORD97":171060.82999999999,"N_COORD97":2542922.9300000002,"ADDRESS":"裕農路２８８巷１３６號","OBJECTID":395352},"geometry":{"x":171060.83000000194,"y":2542922.9300000016}},{"attributes":{"ID":395377,"DIS_CODE":0,"TOWNNAME":"東區","LI":"富強里","LIN":"16鄰","STREET":"裕農路","SECT":" ","MAREA":" ","LANE":"２８８巷","ALLEY":" ","HOUSE_NO":"１６０號","E_COORD97":171063.28,"N_COORD97":2542869.8399999999,"ADDRESS":"裕農路２８８巷１６０號","OBJECTID":395353},"geometry":{"x":171063.28000000119,"y":2542869.8400000017}},{"attributes":{"ID":395378,"DIS_CODE":0,"TOWNNAME":"東區","LI":"富強里","LIN":"16鄰","STREET":"裕農路","SECT":" ","MAREA":" ","LANE":"２８８巷","ALLEY":" ","HOUSE_NO":"１６６號","E_COORD97":171064,"N_COORD97":2542857.6800000002,"ADDRESS":"裕農路２８８巷１６６號","OBJECTID":395354},"geometry":{"x":171064,"y":2542857.6800000016}},{"attributes":{"ID":395379,"DIS_CODE":0,"TOWNNAME":"東區","LI":"富強里","LIN":"16鄰","STREET":"裕農路","SECT":" ","MAREA":" ","LANE":"２８８巷","ALLEY":" ","HOUSE_NO":"１６８號","E_COORD97":171064.35999999999,"N_COORD97":2542853.8300000001,"ADDRESS":"裕農路２８８巷１６８號","OBJECTID":395355},"geometry":{"x":171064.36000000127,"y":2542853.8300000019}},{"attributes":{"ID":395380,"DIS_CODE":0,"TOWNNAME":"東區","LI":"富強里","LIN":"16鄰","STREET":"裕農路","SECT":" ","MAREA":" ","LANE":"２８８巷","ALLEY":" ","HOUSE_NO":"１７２號","E_COORD97":171063.63,"N_COORD97":2542845.2000000002,"ADDRESS":"裕農路２８８巷１７２號","OBJECTID":395356},"geometry":{"x":171063.63000000175,"y":2542845.1999999993}},{"attributes":{"ID":395381,"DIS_CODE":0,"TOWNNAME":"東區","LI":"富強里","LIN":"16鄰","STREET":"裕農路","SECT":" ","MAREA":" ","LANE":"２８８巷","ALLEY":" ","HOUSE_NO":"６９號","E_COORD97":171031.82999999999,"N_COORD97":2542957.4100000001,"ADDRESS":"裕農路２８８巷６９號","OBJECTID":395357},"geometry":{"x":171031.82999999914,"y":2542957.410000002}},{"attributes":{"ID":395382,"DIS_CODE":0,"TOWNNAME":"東區","LI":"富強里","LIN":"16鄰","STREET":"裕農路","SECT":" ","MAREA":" ","LANE":"２８８巷","ALLEY":" ","HOUSE_NO":"７３號","E_COORD97":171040.20999999999,"N_COORD97":2542958.9900000002,"ADDRESS":"裕農路２８８巷７３號","OBJECTID":395358},"geometry":{"x":171040.21000000089,"y":2542958.9900000002}},{"attributes":{"ID":395383,"DIS_CODE":0,"TOWNNAME":"東區","LI":"富強里","LIN":"16鄰","STREET":"裕農路","SECT":" ","MAREA":" ","LANE":"２８８巷","ALLEY":" ","HOUSE_NO":"７５號","E_COORD97":171046.06,"N_COORD97":2542959.6299999999,"ADDRESS":"裕農路２８８巷７５號","OBJECTID":395359},"geometry":{"x":171046.05999999959,"y":2542959.629999999}},{"attributes":{"ID":395384,"DIS_CODE":0,"TOWNNAME":"東區","LI":"富強里","LIN":"16鄰","STREET":"裕農路","SECT":" ","MAREA":" ","LANE":"２８８巷","ALLEY":" ","HOUSE_NO":"９４號","E_COORD97":170964.57999999999,"N_COORD97":2542934.1699999999,"ADDRESS":"裕農路２８８巷９４號","OBJECTID":395360},"geometry":{"x":170964.58000000101,"y":2542934.1699999999}},{"attributes":{"ID":395385,"DIS_CODE":0,"TOWNNAME":"永康區","LI":"北灣里","LIN":"16鄰","STREET":"信義二街","SECT":" ","MAREA":" ","LANE":"１６０巷","ALLEY":" ","HOUSE_NO":"１號","E_COORD97":174850.19,"N_COORD97":2545761.27,"ADDRESS":"信義二街１６０巷１號","OBJECTID":395361},"geometry":{"x":174850.19000000041,"y":2545761.2700000033}},{"attributes":{"ID":395386,"DIS_CODE":0,"TOWNNAME":"中西區","LI":"建國里","LIN":"5鄰","STREET":"西門路","SECT":"二段","MAREA":" ","LANE":"１３６巷","ALLEY":" ","HOUSE_NO":"１４號","E_COORD97":167925.76999999999,"N_COORD97":2543788.5499999998,"ADDRESS":"西門路二段１３６巷１４號","OBJECTID":395362},"geometry":{"x":167925.76999999955,"y":2543788.5500000026}},{"attributes":{"ID":395387,"DIS_CODE":0,"TOWNNAME":"安平區","LI":"海頭里","LIN":"16鄰","STREET":"古堡街","SECT":" ","MAREA":" ","LANE":"９０巷","ALLEY":" ","HOUSE_NO":"２號","E_COORD97":163954.39000000001,"N_COORD97":2544925.8399999999,"ADDRESS":"古堡街９０巷２號","OBJECTID":395363},"geometry":{"x":163954.3900000006,"y":2544925.8399999999}},{"attributes":{"ID":395388,"DIS_CODE":0,"TOWNNAME":"中西區","LI":"建國里","LIN":"5鄰","STREET":"西門路","SECT":"二段","MAREA":" ","LANE":"１３６巷","ALLEY":" ","HOUSE_NO":"１６號","E_COORD97":167929.89000000001,"N_COORD97":2543787.1800000002,"ADDRESS":"西門路二段１３６巷１６號","OBJECTID":395364},"geometry":{"x":167929.88999999966,"y":2543787.1799999997}},{"attributes":{"ID":395389,"DIS_CODE":0,"TOWNNAME":"中西區","LI":"建國里","LIN":"5鄰","STREET":"西門路","SECT":"二段","MAREA":" ","LANE":"１３６巷","ALLEY":" ","HOUSE_NO":"１８號","E_COORD97":167934,"N_COORD97":2543784.6299999999,"ADDRESS":"西門路二段１３６巷１８號","OBJECTID":395365},"geometry":{"x":167934.00000000093,"y":2543784.629999999}},{"attributes":{"ID":395390,"DIS_CODE":0,"TOWNNAME":"中西區","LI":"建國里","LIN":"5鄰","STREET":"西門路","SECT":"二段","MAREA":" ","LANE":"１３６巷","ALLEY":" ","HOUSE_NO":"２０號","E_COORD97":167938.12,"N_COORD97":2543782.8700000001,"ADDRESS":"西門路二段１３６巷２０號","OBJECTID":395366},"geometry":{"x":167938.12000000197,"y":2543782.8700000029}},{"attributes":{"ID":395391,"DIS_CODE":0,"TOWNNAME":"東區","LI":"虎尾里","LIN":"16鄰","STREET":"東成街","SECT":" ","MAREA":" ","LANE":"４６巷","ALLEY":" ","HOUSE_NO":"１１號","E_COORD97":171362.88,"N_COORD97":2542210.6400000001,"ADDRESS":"東成街４６巷１１號","OBJECTID":395367},"geometry":{"x":171362.87999999989,"y":2542210.6400000025}},{"attributes":{"ID":395392,"DIS_CODE":0,"TOWNNAME":"東區","LI":"虎尾里","LIN":"16鄰","STREET":"東成街","SECT":" ","MAREA":" ","LANE":"４６巷","ALLEY":" ","HOUSE_NO":"１３號","E_COORD97":171363.25,"N_COORD97":2542206.3500000001,"ADDRESS":"東成街４６巷１３號","OBJECTID":395368},"geometry":{"x":171363.25000000093,"y":2542206.3499999996}},{"attributes":{"ID":395393,"DIS_CODE":0,"TOWNNAME":"東區","LI":"虎尾里","LIN":"16鄰","STREET":"東成街","SECT":" ","MAREA":" ","LANE":"４６巷","ALLEY":" ","HOUSE_NO":"１５號","E_COORD97":171363.73999999999,"N_COORD97":2542201.9399999999,"ADDRESS":"東成街４６巷１５號","OBJECTID":395369},"geometry":{"x":171363.74000000115,"y":2542201.9399999995}},{"attributes":{"ID":395394,"DIS_CODE":0,"TOWNNAME":"東區","LI":"虎尾里","LIN":"16鄰","STREET":"東成街","SECT":" ","MAREA":" ","LANE":"４６巷","ALLEY":" ","HOUSE_NO":"１７號","E_COORD97":171363.37,"N_COORD97":2542197.1000000001,"ADDRESS":"東成街４６巷１７號","OBJECTID":395370},"geometry":{"x":171363.37000000011,"y":2542197.1000000015}},{"attributes":{"ID":395395,"DIS_CODE":0,"TOWNNAME":"東區","LI":"虎尾里","LIN":"16鄰","STREET":"東成街","SECT":" ","MAREA":" ","LANE":"４６巷","ALLEY":" ","HOUSE_NO":"１９號","E_COORD97":171363.37,"N_COORD97":2542193.0600000001,"ADDRESS":"東成街４６巷１９號","OBJECTID":395371},"geometry":{"x":171363.37000000011,"y":2542193.0600000005}},{"attributes":{"ID":395396,"DIS_CODE":0,"TOWNNAME":"東區","LI":"虎尾里","LIN":"16鄰","STREET":"東成街","SECT":" ","MAREA":" ","LANE":"４６巷","ALLEY":" ","HOUSE_NO":"１號","E_COORD97":171362.88,"N_COORD97":2542234.8999999999,"ADDRESS":"東成街４６巷１號","OBJECTID":395372},"geometry":{"x":171362.87999999989,"y":2542234.9000000004}},{"attributes":{"ID":395397,"DIS_CODE":0,"TOWNNAME":"東區","LI":"虎尾里","LIN":"16鄰","STREET":"東成街","SECT":" ","MAREA":" ","LANE":"４６巷","ALLEY":" ","HOUSE_NO":"２１號","E_COORD97":171363.48999999999,"N_COORD97":2542189.1400000001,"ADDRESS":"東成街４６巷２１號","OBJECTID":395373},"geometry":{"x":171363.49000000115,"y":2542189.1400000006}},{"attributes":{"ID":395398,"DIS_CODE":0,"TOWNNAME":"安平區","LI":"海頭里","LIN":"16鄰","STREET":"古堡街","SECT":" ","MAREA":" ","LANE":"７６巷","ALLEY":" ","HOUSE_NO":"４號","E_COORD97":163991.51000000001,"N_COORD97":2544970.7799999998,"ADDRESS":"古堡街７６巷４號","OBJECTID":395374},"geometry":{"x":163991.50999999978,"y":2544970.7799999975}},{"attributes":{"ID":395399,"DIS_CODE":0,"TOWNNAME":"中西區","LI":"三合里","LIN":"16鄰","STREET":"信義街","SECT":" ","MAREA":" ","LANE":"１０８巷","ALLEY":" ","HOUSE_NO":"５９號","E_COORD97":167492.69,"N_COORD97":2544636.6499999999,"ADDRESS":"信義街１０８巷５９號","OBJECTID":395375},"geometry":{"x":167492.69000000134,"y":2544636.6500000004}},{"attributes":{"ID":395400,"DIS_CODE":0,"TOWNNAME":"中西區","LI":"三合里","LIN":"16鄰","STREET":"信義街","SECT":" ","MAREA":" ","LANE":"１０８巷","ALLEY":" ","HOUSE_NO":"６１號","E_COORD97":167492.94,"N_COORD97":2544646.3100000001,"ADDRESS":"信義街１０８巷６１號","OBJECTID":395376},"geometry":{"x":167492.94000000041,"y":2544646.3099999987}},{"attributes":{"ID":395401,"DIS_CODE":0,"TOWNNAME":"中西區","LI":"三合里","LIN":"16鄰","STREET":"信義街","SECT":" ","MAREA":" ","LANE":"１０８巷","ALLEY":" ","HOUSE_NO":"６５號","E_COORD97":167494.92000000001,"N_COORD97":2544651.1699999999,"ADDRESS":"信義街１０８巷６５號","OBJECTID":395377},"geometry":{"x":167494.91999999899,"y":2544651.1700000018}},{"attributes":{"ID":395402,"DIS_CODE":0,"TOWNNAME":"中西區","LI":"三合里","LIN":"16鄰","STREET":"信義街","SECT":" ","MAREA":" ","LANE":"１０８巷","ALLEY":" ","HOUSE_NO":"６７號","E_COORD97":167508.84,"N_COORD97":2544661.54,"ADDRESS":"信義街１０８巷６７號","OBJECTID":395378},"geometry":{"x":167508.83999999985,"y":2544661.540000001}},{"attributes":{"ID":395403,"DIS_CODE":0,"TOWNNAME":"中西區","LI":"三合里","LIN":"16鄰","STREET":"信義街","SECT":" ","MAREA":" ","LANE":"１０８巷","ALLEY":" ","HOUSE_NO":"６７號之１","E_COORD97":167511.92999999999,"N_COORD97":2544665.5099999998,"ADDRESS":"信義街１０８巷６７號之１","OBJECTID":395379},"geometry":{"x":167511.93000000063,"y":2544665.5100000016}},{"attributes":{"ID":395404,"DIS_CODE":0,"TOWNNAME":"中西區","LI":"建國里","LIN":"4鄰","STREET":"中正路","SECT":" ","MAREA":" ","LANE":"１３８巷","ALLEY":" ","HOUSE_NO":"１０號","E_COORD97":167940,"N_COORD97":2543738.0299999998,"ADDRESS":"中正路１３８巷１０號","OBJECTID":395380},"geometry":{"x":167940,"y":2543738.0299999993}},{"attributes":{"ID":395405,"DIS_CODE":0,"TOWNNAME":"中西區","LI":"三合里","LIN":"16鄰","STREET":"信義街","SECT":" ","MAREA":" ","LANE":"１０８巷","ALLEY":" ","HOUSE_NO":"６９號","E_COORD97":167508.17999999999,"N_COORD97":2544676.3300000001,"ADDRESS":"信義街１０８巷６９號","OBJECTID":395381},"geometry":{"x":167508.17999999877,"y":2544676.3300000038}},{"attributes":{"ID":395406,"DIS_CODE":0,"TOWNNAME":"中西區","LI":"三合里","LIN":"16鄰","STREET":"信義街","SECT":" ","MAREA":" ","LANE":"１０８巷","ALLEY":" ","HOUSE_NO":"７１號","E_COORD97":167517.23000000001,"N_COORD97":2544675.4500000002,"ADDRESS":"信義街１０８巷７１號","OBJECTID":395382},"geometry":{"x":167517.23000000231,"y":2544675.4500000011}},{"attributes":{"ID":395407,"DIS_CODE":0,"TOWNNAME":"中西區","LI":"三合里","LIN":"16鄰","STREET":"信義街","SECT":" ","MAREA":" ","LANE":"１０８巷","ALLEY":" ","HOUSE_NO":"７５號","E_COORD97":167522.95000000001,"N_COORD97":2544678.1000000001,"ADDRESS":"信義街１０８巷７５號","OBJECTID":395383},"geometry":{"x":167522.95000000112,"y":2544678.1000000015}},{"attributes":{"ID":395408,"DIS_CODE":0,"TOWNNAME":"永康區","LI":"龍潭里","LIN":"16鄰","STREET":"龍橋街","SECT":" ","MAREA":" ","LANE":"１６巷","ALLEY":" ","HOUSE_NO":"５號","E_COORD97":174867.47,"N_COORD97":2548350.0499999998,"ADDRESS":"龍橋街１６巷５號","OBJECTID":395384},"geometry":{"x":174867.47000000067,"y":2548350.0500000007}},{"attributes":{"ID":395409,"DIS_CODE":0,"TOWNNAME":"永康區","LI":"復華里","LIN":"16鄰","STREET":"復華七街","SECT":" ","MAREA":" ","LANE":"１０６巷","ALLEY":" ","HOUSE_NO":"１０號","E_COORD97":172884.98000000001,"N_COORD97":2546147.25,"ADDRESS":"復華七街１０６巷１０號","OBJECTID":395385},"geometry":{"x":172884.98000000138,"y":2546147.25}},{"attributes":{"ID":395410,"DIS_CODE":0,"TOWNNAME":"中西區","LI":"建國里","LIN":"1鄰","STREET":"永福路","SECT":"二段","MAREA":" ","LANE":"８１巷","ALLEY":" ","HOUSE_NO":"１２號","E_COORD97":168043.51000000001,"N_COORD97":2543748.1699999999,"ADDRESS":"永福路二段８１巷１２號","OBJECTID":395386},"geometry":{"x":168043.51000000164,"y":2543748.1699999981}},{"attributes":{"ID":395411,"DIS_CODE":0,"TOWNNAME":"中西區","LI":"建國里","LIN":"6鄰","STREET":"永福路","SECT":"二段","MAREA":" ","LANE":"９７巷","ALLEY":" ","HOUSE_NO":"１０號","E_COORD97":168043.51000000001,"N_COORD97":2543770.0699999998,"ADDRESS":"永福路二段９７巷１０號","OBJECTID":395387},"geometry":{"x":168043.51000000164,"y":2543770.070000004}},{"attributes":{"ID":395412,"DIS_CODE":0,"TOWNNAME":"中西區","LI":"建國里","LIN":"6鄰","STREET":"永福路","SECT":"二段","MAREA":" ","LANE":"９７巷","ALLEY":" ","HOUSE_NO":"１４號","E_COORD97":168036.66,"N_COORD97":2543774.2000000002,"ADDRESS":"永福路二段９７巷１４號","OBJECTID":395388},"geometry":{"x":168036.66000000108,"y":2543774.1999999993}},{"attributes":{"ID":395413,"DIS_CODE":0,"TOWNNAME":"中西區","LI":"建國里","LIN":"6鄰","STREET":"永福路","SECT":"二段","MAREA":" ","LANE":"９７巷","ALLEY":" ","HOUSE_NO":"１６號","E_COORD97":168030.29000000001,"N_COORD97":2543773.8799999999,"ADDRESS":"永福路二段９７巷１６號","OBJECTID":395389},"geometry":{"x":168030.29000000097,"y":2543773.8800000008}},{"attributes":{"ID":395414,"DIS_CODE":0,"TOWNNAME":"中西區","LI":"建國里","LIN":"6鄰","STREET":"永福路","SECT":"二段","MAREA":" ","LANE":"９７巷","ALLEY":" ","HOUSE_NO":"１８號","E_COORD97":168034.28,"N_COORD97":2543781.52,"ADDRESS":"永福路二段９７巷１８號","OBJECTID":395390},"geometry":{"x":168034.28000000119,"y":2543781.5199999996}},{"attributes":{"ID":395415,"DIS_CODE":0,"TOWNNAME":"中西區","LI":"建國里","LIN":"6鄰","STREET":"永福路","SECT":"二段","MAREA":" ","LANE":"９７巷","ALLEY":" ","HOUSE_NO":"１號","E_COORD97":168055.45000000001,"N_COORD97":2543764.3399999999,"ADDRESS":"永福路二段９７巷１號","OBJECTID":395391},"geometry":{"x":168055.45000000019,"y":2543764.3400000036}},{"attributes":{"ID":395416,"DIS_CODE":0,"TOWNNAME":"中西區","LI":"建國里","LIN":"6鄰","STREET":"永福路","SECT":"二段","MAREA":" ","LANE":"９７巷","ALLEY":" ","HOUSE_NO":"２號","E_COORD97":168069.62,"N_COORD97":2543770.2200000002,"ADDRESS":"永福路二段９７巷２號","OBJECTID":395392},"geometry":{"x":168069.62000000011,"y":2543770.2200000025}},{"attributes":{"ID":395417,"DIS_CODE":0,"TOWNNAME":"中西區","LI":"建國里","LIN":"6鄰","STREET":"永福路","SECT":"二段","MAREA":" ","LANE":"９７巷","ALLEY":" ","HOUSE_NO":"３號","E_COORD97":168052.73999999999,"N_COORD97":2543760.3700000001,"ADDRESS":"永福路二段９７巷３號","OBJECTID":395393},"geometry":{"x":168052.74000000115,"y":2543760.370000001}},{"attributes":{"ID":395418,"DIS_CODE":0,"TOWNNAME":"中西區","LI":"建國里","LIN":"6鄰","STREET":"永福路","SECT":"二段","MAREA":" ","LANE":"９７巷","ALLEY":" ","HOUSE_NO":"５號","E_COORD97":168040.32999999999,"N_COORD97":2543758.9300000002,"ADDRESS":"永福路二段９７巷５號","OBJECTID":395394},"geometry":{"x":168040.33000000101,"y":2543758.9299999997}},{"attributes":{"ID":395419,"DIS_CODE":0,"TOWNNAME":"東區","LI":"崇信里","LIN":"16鄰","STREET":"崇善路","SECT":" ","MAREA":" ","LANE":"２０５巷","ALLEY":" ","HOUSE_NO":"２０號","E_COORD97":170582.51000000001,"N_COORD97":2542296.5600000001,"ADDRESS":"崇善路２０５巷２０號","OBJECTID":395395},"geometry":{"x":170582.50999999978,"y":2542296.5600000024}},{"attributes":{"ID":395420,"DIS_CODE":0,"TOWNNAME":"東區","LI":"崇信里","LIN":"16鄰","STREET":"崇善路","SECT":" ","MAREA":" ","LANE":"２０５巷","ALLEY":" ","HOUSE_NO":"２２號","E_COORD97":170587.35000000001,"N_COORD97":2542303.8900000001,"ADDRESS":"崇善路２０５巷２２號","OBJECTID":395396},"geometry":{"x":170587.35000000056,"y":2542303.8900000025}},{"attributes":{"ID":395421,"DIS_CODE":0,"TOWNNAME":"東區","LI":"崇信里","LIN":"16鄰","STREET":"崇善路","SECT":" ","MAREA":" ","LANE":"２０５巷","ALLEY":" ","HOUSE_NO":"２４號","E_COORD97":170589.85000000001,"N_COORD97":2542314.96,"ADDRESS":"崇善路２０５巷２４號","OBJECTID":395397},"geometry":{"x":170589.84999999963,"y":2542314.9600000028}},{"attributes":{"ID":395422,"DIS_CODE":0,"TOWNNAME":"東區","LI":"崇信里","LIN":"16鄰","STREET":"崇善路","SECT":" ","MAREA":" ","LANE":"２０５巷","ALLEY":" ","HOUSE_NO":"２６號","E_COORD97":170578.20999999999,"N_COORD97":2542316.48,"ADDRESS":"崇善路２０５巷２６號","OBJECTID":395398},"geometry":{"x":170578.20999999903,"y":2542316.4800000023}},{"attributes":{"ID":395423,"DIS_CODE":0,"TOWNNAME":"東區","LI":"崇信里","LIN":"16鄰","STREET":"崇善路","SECT":" ","MAREA":" ","LANE":"２０５巷","ALLEY":" ","HOUSE_NO":"８號","E_COORD97":170543.73000000001,"N_COORD97":2542274.29,"ADDRESS":"崇善路２０５巷８號","OBJECTID":395399},"geometry":{"x":170543.73000000138,"y":2542274.2899999991}},{"attributes":{"ID":395424,"DIS_CODE":0,"TOWNNAME":"永康區","LI":"烏竹里","LIN":"16鄰","STREET":"龍橋街","SECT":" ","MAREA":" ","LANE":"１８６巷","ALLEY":" ","HOUSE_NO":"６６號","E_COORD97":174741.20999999999,"N_COORD97":2548827.25,"ADDRESS":"龍橋街１８６巷６６號","OBJECTID":395400},"geometry":{"x":174741.20999999996,"y":2548827.2500000019}}]}