{"displayFieldName":"TOWNNAME","fieldAliases":{"ID":"ID","DIS_CODE":"DIS_CODE","TOWNNAME":"TOWNNAME","LI":"LI","LIN":"LIN","STREET":"STREET","SECT":"SECT","MAREA":"MAREA","LANE":"LANE","ALLEY":"ALLEY","HOUSE_NO":"HOUSE_NO","E_COORD97":"E_COORD97","N_COORD97":"N_COORD97","ADDRESS":"ADDRESS","OBJECTID":"OBJECTID"},"geometryType":"esriGeometryPoint","spatialReference":{"wkid":102443,"latestWkid":3826},"fields":[{"name":"ID","type":"esriFieldTypeDouble","alias":"ID"},{"name":"DIS_CODE","type":"esriFieldTypeInteger","alias":"DIS_CODE"},{"name":"TOWNNAME","type":"esriFieldTypeString","alias":"TOWNNAME","length":8},{"name":"LI","type":"esriFieldTypeString","alias":"LI","length":8},{"name":"LIN","type":"esriFieldTypeString","alias":"LIN","length":12},{"name":"STREET","type":"esriFieldTypeString","alias":"STREET","length":20},{"name":"SECT","type":"esriFieldTypeString","alias":"SECT","length":8},{"name":"MAREA","type":"esriFieldTypeString","alias":"MAREA","length":12},{"name":"LANE","type":"esriFieldTypeString","alias":"LANE","length":10},{"name":"ALLEY","type":"esriFieldTypeString","alias":"ALLEY","length":10},{"name":"HOUSE_NO","type":"esriFieldTypeString","alias":"HOUSE_NO","length":20},{"name":"E_COORD97","type":"esriFieldTypeDouble","alias":"E_COORD97"},{"name":"N_COORD97","type":"esriFieldTypeDouble","alias":"N_COORD97"},{"name":"ADDRESS","type":"esriFieldTypeString","alias":"ADDRESS","length":50},{"name":"OBJECTID","type":"esriFieldTypeOID","alias":"OBJECTID"}],"features":[{"attributes":{"ID":354610,"DIS_CODE":0,"TOWNNAME":"仁德區","LI":"後壁里","LIN":"20鄰","STREET":"中正路","SECT":"二段","MAREA":" ","LANE":"１０６巷","ALLEY":" ","HOUSE_NO":"２１號","E_COORD97":173246.84,"N_COORD97":2538494.2000000002,"ADDRESS":"中正路二段１０６巷２１號","OBJECTID":354601},"geometry":{"x":173246.83999999985,"y":2538494.1999999993}},{"attributes":{"ID":354611,"DIS_CODE":0,"TOWNNAME":"白河區","LI":"仙草里","LIN":"20鄰","STREET":" ","SECT":" ","MAREA":"仙草","LANE":" ","ALLEY":" ","HOUSE_NO":"１１７號","E_COORD97":196825.57999999999,"N_COORD97":2582319.8999999999,"ADDRESS":"仙草１１７號","OBJECTID":354602},"geometry":{"x":196825.58000000007,"y":2582319.9000000041}},{"attributes":{"ID":354612,"DIS_CODE":0,"TOWNNAME":"仁德區","LI":"成功里","LIN":"20鄰","STREET":"保生路","SECT":" ","MAREA":" ","LANE":"６９巷","ALLEY":" ","HOUSE_NO":"８號","E_COORD97":170686.45999999999,"N_COORD97":2539765.4900000002,"ADDRESS":"保生路６９巷８號","OBJECTID":354603},"geometry":{"x":170686.45999999996,"y":2539765.4900000002}},{"attributes":{"ID":354613,"DIS_CODE":0,"TOWNNAME":"將軍區","LI":"鯤鯓里","LIN":"20鄰","STREET":" ","SECT":" ","MAREA":"鯤鯓","LANE":" ","ALLEY":" ","HOUSE_NO":"２０３之１１號","E_COORD97":156845.76000000001,"N_COORD97":2565477.8599999999,"ADDRESS":"鯤鯓２０３之１１號","OBJECTID":354604},"geometry":{"x":156845.76000000071,"y":2565477.8599999994}},{"attributes":{"ID":354614,"DIS_CODE":0,"TOWNNAME":"仁德區","LI":"上崙里","LIN":"6鄰","STREET":"德南路","SECT":" ","MAREA":" ","LANE":"３９９巷","ALLEY":" ","HOUSE_NO":"３２號","E_COORD97":174000.32999999999,"N_COORD97":2538273.2599999998,"ADDRESS":"德南路３９９巷３２號","OBJECTID":354605},"geometry":{"x":174000.33000000194,"y":2538273.2600000016}},{"attributes":{"ID":354615,"DIS_CODE":0,"TOWNNAME":"仁德區","LI":"上崙里","LIN":"6鄰","STREET":"德南路","SECT":" ","MAREA":" ","LANE":"３９９巷","ALLEY":" ","HOUSE_NO":"２０號","E_COORD97":173975.67999999999,"N_COORD97":2538265.52,"ADDRESS":"德南路３９９巷２０號","OBJECTID":354606},"geometry":{"x":173975.68000000063,"y":2538265.5199999996}},{"attributes":{"ID":354616,"DIS_CODE":0,"TOWNNAME":"東區","LI":"崇成里","LIN":"6鄰","STREET":"崇德十二街","SECT":" ","MAREA":" ","LANE":"７６巷","ALLEY":" ","HOUSE_NO":"９號","E_COORD97":171021.78,"N_COORD97":2541319.5899999999,"ADDRESS":"崇德十二街７６巷９號","OBJECTID":354607},"geometry":{"x":171021.78000000026,"y":2541319.5900000017}},{"attributes":{"ID":354617,"DIS_CODE":0,"TOWNNAME":"東區","LI":"中西里","LIN":"8鄰","STREET":"勝利路","SECT":" ","MAREA":" ","LANE":" ","ALLEY":" ","HOUSE_NO":"５０號四樓之１７","E_COORD97":169830.25,"N_COORD97":2543536.9100000001,"ADDRESS":"勝利路５０號四樓之１７","OBJECTID":354608},"geometry":{"x":169830.25,"y":2543536.9100000039}},{"attributes":{"ID":354618,"DIS_CODE":0,"TOWNNAME":"東區","LI":"中西里","LIN":"8鄰","STREET":"勝利路","SECT":" ","MAREA":" ","LANE":" ","ALLEY":" ","HOUSE_NO":"５０號五樓之１","E_COORD97":169830.25,"N_COORD97":2543536.9100000001,"ADDRESS":"勝利路５０號五樓之１","OBJECTID":354609},"geometry":{"x":169830.25,"y":2543536.9100000039}},{"attributes":{"ID":354619,"DIS_CODE":0,"TOWNNAME":"東區","LI":"崇成里","LIN":"6鄰","STREET":"崇德十二街","SECT":" ","MAREA":" ","LANE":"７６巷","ALLEY":" ","HOUSE_NO":"３７號","E_COORD97":171040.45000000001,"N_COORD97":2541265.8900000001,"ADDRESS":"崇德十二街７６巷３７號","OBJECTID":354610},"geometry":{"x":171040.45000000112,"y":2541265.8900000043}},{"attributes":{"ID":354620,"DIS_CODE":0,"TOWNNAME":"將軍區","LI":"鯤鯓里","LIN":"20鄰","STREET":" ","SECT":" ","MAREA":"鯤鯓","LANE":" ","ALLEY":" ","HOUSE_NO":"２２６之２３號","E_COORD97":156861.88,"N_COORD97":2565469.5,"ADDRESS":"鯤鯓２２６之２３號","OBJECTID":354611},"geometry":{"x":156861.88000000082,"y":2565469.5000000019}},{"attributes":{"ID":354621,"DIS_CODE":0,"TOWNNAME":"東區","LI":"忠孝里","LIN":"6鄰","STREET":"榮譽街","SECT":" ","MAREA":" ","LANE":"８４巷","ALLEY":" ","HOUSE_NO":"７１號","E_COORD97":169837.45999999999,"N_COORD97":2541652.4300000002,"ADDRESS":"榮譽街８４巷７１號","OBJECTID":354612},"geometry":{"x":169837.46000000183,"y":2541652.4300000016}},{"attributes":{"ID":354622,"DIS_CODE":0,"TOWNNAME":"東區","LI":"大德里","LIN":"6鄰","STREET":"立德十路","SECT":" ","MAREA":" ","LANE":"３０巷","ALLEY":" ","HOUSE_NO":"３０號","E_COORD97":169468.51999999999,"N_COORD97":2541967.7400000002,"ADDRESS":"立德十路３０巷３０號","OBJECTID":354613},"geometry":{"x":169468.51999999955,"y":2541967.7400000002}},{"attributes":{"ID":354623,"DIS_CODE":0,"TOWNNAME":"東區","LI":"大德里","LIN":"6鄰","STREET":"立德十路","SECT":" ","MAREA":" ","LANE":"３０巷","ALLEY":" ","HOUSE_NO":"２８號","E_COORD97":169467.76999999999,"N_COORD97":2541971.7400000002,"ADDRESS":"立德十路３０巷２８號","OBJECTID":354614},"geometry":{"x":169467.77000000048,"y":2541971.7400000039}},{"attributes":{"ID":354624,"DIS_CODE":0,"TOWNNAME":"東區","LI":"大德里","LIN":"6鄰","STREET":"立德十路","SECT":" ","MAREA":" ","LANE":"３０巷","ALLEY":" ","HOUSE_NO":"３３號","E_COORD97":169500.87,"N_COORD97":2541977.2799999998,"ADDRESS":"立德十路３０巷３３號","OBJECTID":354615},"geometry":{"x":169500.86999999918,"y":2541977.2800000031}},{"attributes":{"ID":354625,"DIS_CODE":0,"TOWNNAME":"東區","LI":"大德里","LIN":"6鄰","STREET":"立德十路","SECT":" ","MAREA":" ","LANE":"３０巷","ALLEY":" ","HOUSE_NO":"３４號","E_COORD97":169469.76999999999,"N_COORD97":2541959.73,"ADDRESS":"立德十路３０巷３４號","OBJECTID":354616},"geometry":{"x":169469.76999999955,"y":2541959.7300000023}},{"attributes":{"ID":354626,"DIS_CODE":0,"TOWNNAME":"東區","LI":"大德里","LIN":"6鄰","STREET":"立德十路","SECT":" ","MAREA":" ","LANE":"３０巷","ALLEY":" ","HOUSE_NO":"４號","E_COORD97":169465.09,"N_COORD97":2542024.9199999999,"ADDRESS":"立德十路３０巷４號","OBJECTID":354617},"geometry":{"x":169465.08999999985,"y":2542024.9200000018}},{"attributes":{"ID":354627,"DIS_CODE":0,"TOWNNAME":"東區","LI":"大德里","LIN":"6鄰","STREET":"立德十路","SECT":" ","MAREA":" ","LANE":"３０巷","ALLEY":" ","HOUSE_NO":"６號之１","E_COORD97":169455.70999999999,"N_COORD97":2542023.7000000002,"ADDRESS":"立德十路３０巷６號之１","OBJECTID":354618},"geometry":{"x":169455.70999999996,"y":2542023.6999999993}},{"attributes":{"ID":354628,"DIS_CODE":0,"TOWNNAME":"東區","LI":"後甲里","LIN":"6鄰","STREET":"裕農路","SECT":" ","MAREA":" ","LANE":"６２１巷","ALLEY":" ","HOUSE_NO":"５４號之１","E_COORD97":171647.48000000001,"N_COORD97":2543359.6800000002,"ADDRESS":"裕農路６２１巷５４號之１","OBJECTID":354619},"geometry":{"x":171647.48000000138,"y":2543359.6800000016}},{"attributes":{"ID":354629,"DIS_CODE":0,"TOWNNAME":"東區","LI":"後甲里","LIN":"6鄰","STREET":"裕農路","SECT":" ","MAREA":" ","LANE":"６２１巷","ALLEY":" ","HOUSE_NO":"５４號之１１","E_COORD97":171625.60999999999,"N_COORD97":2543360.52,"ADDRESS":"裕農路６２１巷５４號之１１","OBJECTID":354620},"geometry":{"x":171625.61000000127,"y":2543360.5200000014}},{"attributes":{"ID":354630,"DIS_CODE":0,"TOWNNAME":"東區","LI":"後甲里","LIN":"6鄰","STREET":"裕農路","SECT":" ","MAREA":" ","LANE":"６２１巷","ALLEY":" ","HOUSE_NO":"５４號之２","E_COORD97":171643.62,"N_COORD97":2543360.3999999999,"ADDRESS":"裕農路６２１巷５４號之２","OBJECTID":354621},"geometry":{"x":171643.62000000197,"y":2543360.4000000004}},{"attributes":{"ID":354631,"DIS_CODE":0,"TOWNNAME":"東區","LI":"後甲里","LIN":"6鄰","STREET":"裕農路","SECT":" ","MAREA":" ","LANE":"６２１巷","ALLEY":" ","HOUSE_NO":"５４號之３","E_COORD97":171639.26999999999,"N_COORD97":2543359.4399999999,"ADDRESS":"裕農路６２１巷５４號之３","OBJECTID":354622},"geometry":{"x":171639.27000000048,"y":2543359.4399999976}},{"attributes":{"ID":354632,"DIS_CODE":0,"TOWNNAME":"永康區","LI":"建國里","LIN":"1鄰","STREET":"復興路","SECT":" ","MAREA":" ","LANE":" ","ALLEY":" ","HOUSE_NO":"４６號","E_COORD97":173015.59,"N_COORD97":2544366.6000000001,"ADDRESS":"復興路４６號","OBJECTID":354623},"geometry":{"x":173015.59000000078,"y":2544366.6000000015}},{"attributes":{"ID":354633,"DIS_CODE":0,"TOWNNAME":"將軍區","LI":"鯤鯓里","LIN":"20鄰","STREET":" ","SECT":" ","MAREA":"鯤鯓","LANE":" ","ALLEY":" ","HOUSE_NO":"２２６之２４號","E_COORD97":156862.57000000001,"N_COORD97":2565465.3700000001,"ADDRESS":"鯤鯓２２６之２４號","OBJECTID":354624},"geometry":{"x":156862.57000000123,"y":2565465.370000001}},{"attributes":{"ID":354634,"DIS_CODE":0,"TOWNNAME":"將軍區","LI":"鯤鯓里","LIN":"20鄰","STREET":" ","SECT":" ","MAREA":"鯤鯓","LANE":" ","ALLEY":" ","HOUSE_NO":"２２６之２號","E_COORD97":156852.51000000001,"N_COORD97":2565598.7999999998,"ADDRESS":"鯤鯓２２６之２號","OBJECTID":354625},"geometry":{"x":156852.51000000071,"y":2565598.8000000007}},{"attributes":{"ID":354635,"DIS_CODE":0,"TOWNNAME":"將軍區","LI":"鯤鯓里","LIN":"20鄰","STREET":" ","SECT":" ","MAREA":"鯤鯓","LANE":" ","ALLEY":" ","HOUSE_NO":"２２６之３號","E_COORD97":156850.17999999999,"N_COORD97":2565573.3900000001,"ADDRESS":"鯤鯓２２６之３號","OBJECTID":354626},"geometry":{"x":156850.1799999997,"y":2565573.3900000006}},{"attributes":{"ID":354636,"DIS_CODE":0,"TOWNNAME":"龍崎區","LI":"崎頂里","LIN":"20鄰","STREET":" ","SECT":" ","MAREA":"水坑","LANE":" ","ALLEY":" ","HOUSE_NO":"１９號","E_COORD97":185646.97,"N_COORD97":2541176.2799999998,"ADDRESS":"水坑１９號","OBJECTID":354627},"geometry":{"x":185646.97000000067,"y":2541176.2799999993}},{"attributes":{"ID":354637,"DIS_CODE":0,"TOWNNAME":"西港區","LI":"港東里","LIN":"20鄰","STREET":" ","SECT":" ","MAREA":"八份","LANE":" ","ALLEY":" ","HOUSE_NO":"７８號之１","E_COORD97":170205.79999999999,"N_COORD97":2558549.4100000001,"ADDRESS":"八份７８號之１","OBJECTID":354628},"geometry":{"x":170205.79999999981,"y":2558549.4100000039}},{"attributes":{"ID":354638,"DIS_CODE":0,"TOWNNAME":"西港區","LI":"港東里","LIN":"20鄰","STREET":" ","SECT":" ","MAREA":"八份","LANE":" ","ALLEY":" ","HOUSE_NO":"７８號之２","E_COORD97":170193.07999999999,"N_COORD97":2558503.8199999998,"ADDRESS":"八份７８號之２","OBJECTID":354629},"geometry":{"x":170193.08000000101,"y":2558503.8200000022}},{"attributes":{"ID":354639,"DIS_CODE":0,"TOWNNAME":"佳里區","LI":"鎮山里","LIN":"20鄰","STREET":"勝利路","SECT":" ","MAREA":" ","LANE":"２６５巷","ALLEY":" ","HOUSE_NO":"１３號","E_COORD97":166140.39999999999,"N_COORD97":2560817.4700000002,"ADDRESS":"勝利路２６５巷１３號","OBJECTID":354630},"geometry":{"x":166140.40000000037,"y":2560817.4699999988}},{"attributes":{"ID":354640,"DIS_CODE":0,"TOWNNAME":"東區","LI":"中西里","LIN":"8鄰","STREET":"勝利路","SECT":" ","MAREA":" ","LANE":" ","ALLEY":" ","HOUSE_NO":"５０號五樓之２","E_COORD97":169830.25,"N_COORD97":2543536.9100000001,"ADDRESS":"勝利路５０號五樓之２","OBJECTID":354631},"geometry":{"x":169830.25,"y":2543536.9100000039}},{"attributes":{"ID":354641,"DIS_CODE":0,"TOWNNAME":"學甲區","LI":"大灣里","LIN":"20鄰","STREET":" ","SECT":" ","MAREA":"大灣","LANE":" ","ALLEY":" ","HOUSE_NO":"１９４號","E_COORD97":166586.60000000001,"N_COORD97":2567474.5800000001,"ADDRESS":"大灣１９４號","OBJECTID":354632},"geometry":{"x":166586.60000000149,"y":2567474.5800000001}},{"attributes":{"ID":354642,"DIS_CODE":0,"TOWNNAME":"學甲區","LI":"新達里","LIN":"20鄰","STREET":" ","SECT":" ","MAREA":"山寮","LANE":" ","ALLEY":" ","HOUSE_NO":"４１號","E_COORD97":167929.17999999999,"N_COORD97":2570477.5299999998,"ADDRESS":"山寮４１號","OBJECTID":354633},"geometry":{"x":167929.18000000063,"y":2570477.5299999993}},{"attributes":{"ID":354643,"DIS_CODE":0,"TOWNNAME":"學甲區","LI":"新達里","LIN":"20鄰","STREET":" ","SECT":" ","MAREA":"山寮","LANE":" ","ALLEY":" ","HOUSE_NO":"４２號之１３","E_COORD97":168135.92999999999,"N_COORD97":2570382.25,"ADDRESS":"山寮４２號之１３","OBJECTID":354634},"geometry":{"x":168135.93000000063,"y":2570382.25}},{"attributes":{"ID":354644,"DIS_CODE":0,"TOWNNAME":"學甲區","LI":"新達里","LIN":"20鄰","STREET":" ","SECT":" ","MAREA":"山寮","LANE":" ","ALLEY":" ","HOUSE_NO":"４２號之３０","E_COORD97":168505.19,"N_COORD97":2569957.46,"ADDRESS":"山寮４２號之３０","OBJECTID":354635},"geometry":{"x":168505.19000000041,"y":2569957.4600000009}},{"attributes":{"ID":354645,"DIS_CODE":0,"TOWNNAME":"學甲區","LI":"新達里","LIN":"20鄰","STREET":" ","SECT":" ","MAREA":"山寮","LANE":" ","ALLEY":" ","HOUSE_NO":"４２號之６０","E_COORD97":168114.53,"N_COORD97":2570076.9399999999,"ADDRESS":"山寮４２號之６０","OBJECTID":354636},"geometry":{"x":168114.53000000026,"y":2570076.9400000013}},{"attributes":{"ID":354646,"DIS_CODE":0,"TOWNNAME":"學甲區","LI":"新達里","LIN":"20鄰","STREET":" ","SECT":" ","MAREA":"山寮","LANE":" ","ALLEY":" ","HOUSE_NO":"４２號","E_COORD97":167944.45999999999,"N_COORD97":2570464.4700000002,"ADDRESS":"山寮４２號","OBJECTID":354637},"geometry":{"x":167944.46000000089,"y":2570464.4700000025}},{"attributes":{"ID":354647,"DIS_CODE":0,"TOWNNAME":"學甲區","LI":"新達里","LIN":"20鄰","STREET":" ","SECT":" ","MAREA":"山寮","LANE":" ","ALLEY":" ","HOUSE_NO":"４３號之１","E_COORD97":167921.82999999999,"N_COORD97":2570457.9700000002,"ADDRESS":"山寮４３號之１","OBJECTID":354638},"geometry":{"x":167921.83000000101,"y":2570457.9700000025}},{"attributes":{"ID":354648,"DIS_CODE":0,"TOWNNAME":"學甲區","LI":"新達里","LIN":"20鄰","STREET":" ","SECT":" ","MAREA":"山寮","LANE":" ","ALLEY":" ","HOUSE_NO":"４３號","E_COORD97":167917.62,"N_COORD97":2570452.0800000001,"ADDRESS":"山寮４３號","OBJECTID":354639},"geometry":{"x":167917.62000000197,"y":2570452.0800000019}},{"attributes":{"ID":354649,"DIS_CODE":0,"TOWNNAME":"學甲區","LI":"大灣里","LIN":"20鄰","STREET":" ","SECT":" ","MAREA":"大灣","LANE":" ","ALLEY":" ","HOUSE_NO":"２０８號","E_COORD97":166676.85000000001,"N_COORD97":2567496.9900000002,"ADDRESS":"大灣２０８號","OBJECTID":354640},"geometry":{"x":166676.85000000056,"y":2567496.9900000021}},{"attributes":{"ID":354650,"DIS_CODE":0,"TOWNNAME":"學甲區","LI":"大灣里","LIN":"20鄰","STREET":" ","SECT":" ","MAREA":"大灣","LANE":" ","ALLEY":" ","HOUSE_NO":"２０９號","E_COORD97":166677.98000000001,"N_COORD97":2567492.8700000001,"ADDRESS":"大灣２０９號","OBJECTID":354641},"geometry":{"x":166677.97999999952,"y":2567492.870000001}},{"attributes":{"ID":354651,"DIS_CODE":0,"TOWNNAME":"學甲區","LI":"大灣里","LIN":"20鄰","STREET":" ","SECT":" ","MAREA":"大灣","LANE":" ","ALLEY":" ","HOUSE_NO":"２１０號","E_COORD97":166678.35000000001,"N_COORD97":2567488.5499999998,"ADDRESS":"大灣２１０號","OBJECTID":354642},"geometry":{"x":166678.35000000056,"y":2567488.5500000007}},{"attributes":{"ID":354652,"DIS_CODE":0,"TOWNNAME":"學甲區","LI":"大灣里","LIN":"20鄰","STREET":" ","SECT":" ","MAREA":"大灣","LANE":" ","ALLEY":" ","HOUSE_NO":"２１１號","E_COORD97":166679.32999999999,"N_COORD97":2567483.9100000001,"ADDRESS":"大灣２１１號","OBJECTID":354643},"geometry":{"x":166679.33000000101,"y":2567483.910000002}},{"attributes":{"ID":354653,"DIS_CODE":0,"TOWNNAME":"學甲區","LI":"新達里","LIN":"20鄰","STREET":" ","SECT":" ","MAREA":"山寮","LANE":" ","ALLEY":" ","HOUSE_NO":"３６號之３","E_COORD97":167917.54000000001,"N_COORD97":2570549.1899999999,"ADDRESS":"山寮３６號之３","OBJECTID":354644},"geometry":{"x":167917.54000000004,"y":2570549.1900000013}},{"attributes":{"ID":354654,"DIS_CODE":0,"TOWNNAME":"學甲區","LI":"新達里","LIN":"20鄰","STREET":" ","SECT":" ","MAREA":"山寮","LANE":" ","ALLEY":" ","HOUSE_NO":"３７號之２","E_COORD97":167969.17000000001,"N_COORD97":2570517.5800000001,"ADDRESS":"山寮３７號之２","OBJECTID":354645},"geometry":{"x":167969.16999999993,"y":2570517.5800000019}},{"attributes":{"ID":354655,"DIS_CODE":0,"TOWNNAME":"學甲區","LI":"新達里","LIN":"20鄰","STREET":" ","SECT":" ","MAREA":"山寮","LANE":" ","ALLEY":" ","HOUSE_NO":"３７號","E_COORD97":167982.42000000001,"N_COORD97":2570505.2000000002,"ADDRESS":"山寮３７號","OBJECTID":354646},"geometry":{"x":167982.41999999993,"y":2570505.2000000011}},{"attributes":{"ID":354656,"DIS_CODE":0,"TOWNNAME":"學甲區","LI":"中洲里","LIN":"20鄰","STREET":" ","SECT":" ","MAREA":"中洲","LANE":" ","ALLEY":" ","HOUSE_NO":"２５５號之５","E_COORD97":163382.39999999999,"N_COORD97":2572073.8500000001,"ADDRESS":"中洲２５５號之５","OBJECTID":354647},"geometry":{"x":163382.40000000037,"y":2572073.8500000015}},{"attributes":{"ID":354657,"DIS_CODE":0,"TOWNNAME":"學甲區","LI":"中洲里","LIN":"20鄰","STREET":" ","SECT":" ","MAREA":"中洲","LANE":" ","ALLEY":" ","HOUSE_NO":"２５５號之７","E_COORD97":163454.72,"N_COORD97":2572087.2799999998,"ADDRESS":"中洲２５５號之７","OBJECTID":354648},"geometry":{"x":163454.71999999881,"y":2572087.2800000031}},{"attributes":{"ID":354658,"DIS_CODE":0,"TOWNNAME":"北區","LI":"賢北里","LIN":"20鄰","STREET":"和緯路","SECT":"五段","MAREA":" ","LANE":"２３４巷","ALLEY":" ","HOUSE_NO":"２９號","E_COORD97":166020.75,"N_COORD97":2545248.29,"ADDRESS":"和緯路五段２３４巷２９號","OBJECTID":354649},"geometry":{"x":166020.75,"y":2545248.2899999991}},{"attributes":{"ID":354659,"DIS_CODE":0,"TOWNNAME":"北區","LI":"賢北里","LIN":"20鄰","STREET":"和緯路","SECT":"五段","MAREA":" ","LANE":"２３４巷","ALLEY":" ","HOUSE_NO":"３１號","E_COORD97":166018.51000000001,"N_COORD97":2545253.1699999999,"ADDRESS":"和緯路五段２３４巷３１號","OBJECTID":354650},"geometry":{"x":166018.51000000071,"y":2545253.1699999999}},{"attributes":{"ID":354660,"DIS_CODE":0,"TOWNNAME":"北區","LI":"賢北里","LIN":"20鄰","STREET":"和緯路","SECT":"五段","MAREA":" ","LANE":"２３４巷","ALLEY":" ","HOUSE_NO":"３３號","E_COORD97":166016.84,"N_COORD97":2545257.0699999998,"ADDRESS":"和緯路五段２３４巷３３號","OBJECTID":354651},"geometry":{"x":166016.83999999985,"y":2545257.0700000003}},{"attributes":{"ID":354661,"DIS_CODE":0,"TOWNNAME":"北區","LI":"賢北里","LIN":"20鄰","STREET":"和緯路","SECT":"五段","MAREA":" ","LANE":"２３４巷","ALLEY":" ","HOUSE_NO":"３５號","E_COORD97":166014.47,"N_COORD97":2545261.5299999998,"ADDRESS":"和緯路五段２３４巷３５號","OBJECTID":354652},"geometry":{"x":166014.46999999881,"y":2545261.5300000012}},{"attributes":{"ID":354662,"DIS_CODE":0,"TOWNNAME":"東區","LI":"後甲里","LIN":"6鄰","STREET":"裕農路","SECT":" ","MAREA":" ","LANE":"６２１巷","ALLEY":" ","HOUSE_NO":"５４號之５","E_COORD97":171645.79000000001,"N_COORD97":2543348.3500000001,"ADDRESS":"裕農路６２１巷５４號之５","OBJECTID":354653},"geometry":{"x":171645.7900000019,"y":2543348.3500000015}},{"attributes":{"ID":354663,"DIS_CODE":0,"TOWNNAME":"東區","LI":"後甲里","LIN":"6鄰","STREET":"裕農路","SECT":" ","MAREA":" ","LANE":"６２１巷","ALLEY":" ","HOUSE_NO":"５４號之６","E_COORD97":171641.20000000001,"N_COORD97":2543347.3900000001,"ADDRESS":"裕農路６２１巷５４號之６","OBJECTID":354654},"geometry":{"x":171641.20000000019,"y":2543347.3899999987}},{"attributes":{"ID":354664,"DIS_CODE":0,"TOWNNAME":"東區","LI":"後甲里","LIN":"6鄰","STREET":"裕農路","SECT":" ","MAREA":" ","LANE":"６２１巷","ALLEY":" ","HOUSE_NO":"５４號之７","E_COORD97":171627.06,"N_COORD97":2543344.8599999999,"ADDRESS":"裕農路６２１巷５４號之７","OBJECTID":354655},"geometry":{"x":171627.06000000052,"y":2543344.8599999994}},{"attributes":{"ID":354665,"DIS_CODE":0,"TOWNNAME":"東區","LI":"後甲里","LIN":"6鄰","STREET":"裕農路","SECT":" ","MAREA":" ","LANE":"６２１巷","ALLEY":" ","HOUSE_NO":"５４號之４","E_COORD97":171650.60999999999,"N_COORD97":2543349.0800000001,"ADDRESS":"裕農路６２１巷５４號之４","OBJECTID":354656},"geometry":{"x":171650.61000000034,"y":2543349.0800000038}},{"attributes":{"ID":354666,"DIS_CODE":0,"TOWNNAME":"東區","LI":"後甲里","LIN":"6鄰","STREET":"裕農路","SECT":" ","MAREA":" ","LANE":"６２１巷","ALLEY":" ","HOUSE_NO":"５４號之８","E_COORD97":171626.57000000001,"N_COORD97":2543348.7200000002,"ADDRESS":"裕農路６２１巷５４號之８","OBJECTID":354657},"geometry":{"x":171626.5700000003,"y":2543348.7200000044}},{"attributes":{"ID":354667,"DIS_CODE":0,"TOWNNAME":"東區","LI":"後甲里","LIN":"6鄰","STREET":"裕農路","SECT":" ","MAREA":" ","LANE":"６２１巷","ALLEY":" ","HOUSE_NO":"５４號之９","E_COORD97":171626.09,"N_COORD97":2543352.3300000001,"ADDRESS":"裕農路６２１巷５４號之９","OBJECTID":354658},"geometry":{"x":171626.08999999985,"y":2543352.3300000019}},{"attributes":{"ID":354668,"DIS_CODE":0,"TOWNNAME":"東區","LI":"中西里","LIN":"8鄰","STREET":"勝利路","SECT":" ","MAREA":" ","LANE":" ","ALLEY":" ","HOUSE_NO":"５０號五樓之３","E_COORD97":169830.25,"N_COORD97":2543536.9100000001,"ADDRESS":"勝利路５０號五樓之３","OBJECTID":354659},"geometry":{"x":169830.25,"y":2543536.9100000039}},{"attributes":{"ID":354669,"DIS_CODE":0,"TOWNNAME":"東區","LI":"中西里","LIN":"8鄰","STREET":"勝利路","SECT":" ","MAREA":" ","LANE":" ","ALLEY":" ","HOUSE_NO":"５０號五樓之４","E_COORD97":169830.25,"N_COORD97":2543536.9100000001,"ADDRESS":"勝利路５０號五樓之４","OBJECTID":354660},"geometry":{"x":169830.25,"y":2543536.9100000039}},{"attributes":{"ID":354670,"DIS_CODE":0,"TOWNNAME":"東區","LI":"中西里","LIN":"8鄰","STREET":"勝利路","SECT":" ","MAREA":" ","LANE":" ","ALLEY":" ","HOUSE_NO":"５０號五樓之５","E_COORD97":169830.25,"N_COORD97":2543536.9100000001,"ADDRESS":"勝利路５０號五樓之５","OBJECTID":354661},"geometry":{"x":169830.25,"y":2543536.9100000039}},{"attributes":{"ID":354671,"DIS_CODE":0,"TOWNNAME":"東區","LI":"中西里","LIN":"8鄰","STREET":"勝利路","SECT":" ","MAREA":" ","LANE":" ","ALLEY":" ","HOUSE_NO":"５０號五樓之６","E_COORD97":169830.25,"N_COORD97":2543536.9100000001,"ADDRESS":"勝利路５０號五樓之６","OBJECTID":354662},"geometry":{"x":169830.25,"y":2543536.9100000039}},{"attributes":{"ID":354672,"DIS_CODE":0,"TOWNNAME":"永康區","LI":"南灣里","LIN":"1鄰","STREET":"大灣二街","SECT":" ","MAREA":" ","LANE":" ","ALLEY":" ","HOUSE_NO":"１２１號","E_COORD97":174722.59,"N_COORD97":2544797.7000000002,"ADDRESS":"大灣二街１２１號","OBJECTID":354663},"geometry":{"x":174722.59000000078,"y":2544797.6999999993}},{"attributes":{"ID":354673,"DIS_CODE":0,"TOWNNAME":"北區","LI":"賢北里","LIN":"20鄰","STREET":"和緯路","SECT":"五段","MAREA":" ","LANE":"２８４巷","ALLEY":" ","HOUSE_NO":"１８號","E_COORD97":165943.66,"N_COORD97":2545243.8199999998,"ADDRESS":"和緯路五段２８４巷１８號","OBJECTID":354664},"geometry":{"x":165943.66000000015,"y":2545243.8200000022}},{"attributes":{"ID":354674,"DIS_CODE":0,"TOWNNAME":"北區","LI":"賢北里","LIN":"20鄰","STREET":"和緯路","SECT":"五段","MAREA":" ","LANE":"２８４巷","ALLEY":" ","HOUSE_NO":"２０號","E_COORD97":165943.19,"N_COORD97":2545249.23,"ADDRESS":"和緯路五段２８４巷２０號","OBJECTID":354665},"geometry":{"x":165943.19000000134,"y":2545249.2300000004}},{"attributes":{"ID":354675,"DIS_CODE":0,"TOWNNAME":"北區","LI":"賢北里","LIN":"20鄰","STREET":"和緯路","SECT":"五段","MAREA":" ","LANE":"２８４巷","ALLEY":" ","HOUSE_NO":"２號","E_COORD97":165955.92999999999,"N_COORD97":2545203.5299999998,"ADDRESS":"和緯路五段２８４巷２號","OBJECTID":354666},"geometry":{"x":165955.93000000063,"y":2545203.5300000012}},{"attributes":{"ID":354676,"DIS_CODE":0,"TOWNNAME":"北區","LI":"賢北里","LIN":"20鄰","STREET":"和緯路","SECT":"五段","MAREA":" ","LANE":"２８４巷","ALLEY":" ","HOUSE_NO":"４號","E_COORD97":165955.92999999999,"N_COORD97":2545208.48,"ADDRESS":"和緯路五段２８４巷４號","OBJECTID":354667},"geometry":{"x":165955.93000000063,"y":2545208.4800000023}},{"attributes":{"ID":354677,"DIS_CODE":0,"TOWNNAME":"北區","LI":"賢北里","LIN":"20鄰","STREET":"和緯路","SECT":"五段","MAREA":" ","LANE":"２８４巷","ALLEY":" ","HOUSE_NO":"６號","E_COORD97":165954.04000000001,"N_COORD97":2545219.5499999998,"ADDRESS":"和緯路五段２８４巷６號","OBJECTID":354668},"geometry":{"x":165954.04000000097,"y":2545219.5500000026}},{"attributes":{"ID":354678,"DIS_CODE":0,"TOWNNAME":"北區","LI":"賢北里","LIN":"20鄰","STREET":"和緯路","SECT":"五段","MAREA":" ","LANE":"２８４巷","ALLEY":" ","HOUSE_NO":"８號","E_COORD97":165952.85999999999,"N_COORD97":2545224.2599999998,"ADDRESS":"和緯路五段２８４巷８號","OBJECTID":354669},"geometry":{"x":165952.86000000034,"y":2545224.2599999998}},{"attributes":{"ID":354679,"DIS_CODE":0,"TOWNNAME":"北區","LI":"賢北里","LIN":"20鄰","STREET":"賢北街","SECT":" ","MAREA":" ","LANE":"２７巷","ALLEY":" ","HOUSE_NO":"１２５號","E_COORD97":165998.79000000001,"N_COORD97":2545271.71,"ADDRESS":"賢北街２７巷１２５號","OBJECTID":354670},"geometry":{"x":165998.79000000004,"y":2545271.7100000028}},{"attributes":{"ID":354680,"DIS_CODE":0,"TOWNNAME":"北區","LI":"賢北里","LIN":"20鄰","STREET":"賢北街","SECT":" ","MAREA":" ","LANE":"２７巷","ALLEY":" ","HOUSE_NO":"１２７號","E_COORD97":165994.07000000001,"N_COORD97":2545270.5299999998,"ADDRESS":"賢北街２７巷１２７號","OBJECTID":354671},"geometry":{"x":165994.06999999937,"y":2545270.5299999993}},{"attributes":{"ID":354681,"DIS_CODE":0,"TOWNNAME":"北區","LI":"賢北里","LIN":"20鄰","STREET":"賢北街","SECT":" ","MAREA":" ","LANE":"２７巷","ALLEY":" ","HOUSE_NO":"１２９號","E_COORD97":165990.76999999999,"N_COORD97":2545268.8799999999,"ADDRESS":"賢北街２７巷１２９號","OBJECTID":354672},"geometry":{"x":165990.77000000048,"y":2545268.8800000008}},{"attributes":{"ID":354682,"DIS_CODE":0,"TOWNNAME":"北區","LI":"賢北里","LIN":"20鄰","STREET":"賢北街","SECT":" ","MAREA":" ","LANE":"２７巷","ALLEY":" ","HOUSE_NO":"１３１號","E_COORD97":165986.51999999999,"N_COORD97":2545267,"ADDRESS":"賢北街２７巷１３１號","OBJECTID":354673},"geometry":{"x":165986.51999999955,"y":2545267}},{"attributes":{"ID":354683,"DIS_CODE":0,"TOWNNAME":"北區","LI":"賢北里","LIN":"20鄰","STREET":"賢北街","SECT":" ","MAREA":" ","LANE":"２７巷","ALLEY":" ","HOUSE_NO":"１３３號","E_COORD97":165982.98000000001,"N_COORD97":2545265.8199999998,"ADDRESS":"賢北街２７巷１３３號","OBJECTID":354674},"geometry":{"x":165982.98000000231,"y":2545265.8200000003}},{"attributes":{"ID":354684,"DIS_CODE":0,"TOWNNAME":"北區","LI":"賢北里","LIN":"20鄰","STREET":"賢北街","SECT":" ","MAREA":" ","LANE":"２７巷","ALLEY":" ","HOUSE_NO":"１３５號","E_COORD97":165978.5,"N_COORD97":2545263.23,"ADDRESS":"賢北街２７巷１３５號","OBJECTID":354675},"geometry":{"x":165978.5,"y":2545263.2300000004}},{"attributes":{"ID":354685,"DIS_CODE":0,"TOWNNAME":"東區","LI":"後甲里","LIN":"6鄰","STREET":"裕農路","SECT":" ","MAREA":" ","LANE":"６２１巷","ALLEY":" ","HOUSE_NO":"６２號之９","E_COORD97":171618.85999999999,"N_COORD97":2543384.8599999999,"ADDRESS":"裕農路６２１巷６２號之９","OBJECTID":354676},"geometry":{"x":171618.86000000127,"y":2543384.8600000013}},{"attributes":{"ID":354686,"DIS_CODE":0,"TOWNNAME":"東區","LI":"大學里","LIN":"6鄰","STREET":"大學路","SECT":" ","MAREA":" ","LANE":"１２巷","ALLEY":" ","HOUSE_NO":"１號之１","E_COORD97":170082.85999999999,"N_COORD97":2543992.25,"ADDRESS":"大學路１２巷１號之１","OBJECTID":354677},"geometry":{"x":170082.86000000127,"y":2543992.2500000037}},{"attributes":{"ID":354687,"DIS_CODE":0,"TOWNNAME":"東區","LI":"衛國里","LIN":"6鄰","STREET":"衛國街","SECT":" ","MAREA":" ","LANE":"１１２巷","ALLEY":" ","HOUSE_NO":"３８號","E_COORD97":170576.20999999999,"N_COORD97":2543096.8500000001,"ADDRESS":"衛國街１１２巷３８號","OBJECTID":354678},"geometry":{"x":170576.20999999996,"y":2543096.8500000015}},{"attributes":{"ID":354688,"DIS_CODE":0,"TOWNNAME":"東區","LI":"中西里","LIN":"8鄰","STREET":"勝利路","SECT":" ","MAREA":" ","LANE":" ","ALLEY":" ","HOUSE_NO":"５０號五樓之７","E_COORD97":169830.25,"N_COORD97":2543536.9100000001,"ADDRESS":"勝利路５０號五樓之７","OBJECTID":354679},"geometry":{"x":169830.25,"y":2543536.9100000039}},{"attributes":{"ID":354689,"DIS_CODE":0,"TOWNNAME":"東區","LI":"中西里","LIN":"8鄰","STREET":"勝利路","SECT":" ","MAREA":" ","LANE":" ","ALLEY":" ","HOUSE_NO":"５０號五樓之８","E_COORD97":169830.25,"N_COORD97":2543536.9100000001,"ADDRESS":"勝利路５０號五樓之８","OBJECTID":354680},"geometry":{"x":169830.25,"y":2543536.9100000039}},{"attributes":{"ID":354690,"DIS_CODE":0,"TOWNNAME":"東區","LI":"中西里","LIN":"8鄰","STREET":"勝利路","SECT":" ","MAREA":" ","LANE":" ","ALLEY":" ","HOUSE_NO":"５０號五樓之９","E_COORD97":169830.25,"N_COORD97":2543536.9100000001,"ADDRESS":"勝利路５０號五樓之９","OBJECTID":354681},"geometry":{"x":169830.25,"y":2543536.9100000039}},{"attributes":{"ID":354691,"DIS_CODE":0,"TOWNNAME":"東區","LI":"中西里","LIN":"8鄰","STREET":"勝利路","SECT":" ","MAREA":" ","LANE":" ","ALLEY":" ","HOUSE_NO":"５０號五樓之１０","E_COORD97":169830.25,"N_COORD97":2543536.9100000001,"ADDRESS":"勝利路５０號五樓之１０","OBJECTID":354682},"geometry":{"x":169830.25,"y":2543536.9100000039}},{"attributes":{"ID":354692,"DIS_CODE":0,"TOWNNAME":"東區","LI":"中西里","LIN":"8鄰","STREET":"勝利路","SECT":" ","MAREA":" ","LANE":" ","ALLEY":" ","HOUSE_NO":"５０號五樓之１１","E_COORD97":169830.25,"N_COORD97":2543536.9100000001,"ADDRESS":"勝利路５０號五樓之１１","OBJECTID":354683},"geometry":{"x":169830.25,"y":2543536.9100000039}},{"attributes":{"ID":354693,"DIS_CODE":0,"TOWNNAME":"東區","LI":"中西里","LIN":"8鄰","STREET":"勝利路","SECT":" ","MAREA":" ","LANE":" ","ALLEY":" ","HOUSE_NO":"５０號五樓之１２","E_COORD97":169830.25,"N_COORD97":2543536.9100000001,"ADDRESS":"勝利路５０號五樓之１２","OBJECTID":354684},"geometry":{"x":169830.25,"y":2543536.9100000039}},{"attributes":{"ID":354694,"DIS_CODE":0,"TOWNNAME":"東區","LI":"中西里","LIN":"8鄰","STREET":"勝利路","SECT":" ","MAREA":" ","LANE":" ","ALLEY":" ","HOUSE_NO":"５０號五樓之１３","E_COORD97":169830.25,"N_COORD97":2543536.9100000001,"ADDRESS":"勝利路５０號五樓之１３","OBJECTID":354685},"geometry":{"x":169830.25,"y":2543536.9100000039}},{"attributes":{"ID":354695,"DIS_CODE":0,"TOWNNAME":"東區","LI":"中西里","LIN":"8鄰","STREET":"勝利路","SECT":" ","MAREA":" ","LANE":" ","ALLEY":" ","HOUSE_NO":"５０號五樓之１４","E_COORD97":169830.25,"N_COORD97":2543536.9100000001,"ADDRESS":"勝利路５０號五樓之１４","OBJECTID":354686},"geometry":{"x":169830.25,"y":2543536.9100000039}},{"attributes":{"ID":354696,"DIS_CODE":0,"TOWNNAME":"東區","LI":"中西里","LIN":"8鄰","STREET":"勝利路","SECT":" ","MAREA":" ","LANE":" ","ALLEY":" ","HOUSE_NO":"５０號五樓之１５","E_COORD97":169830.25,"N_COORD97":2543536.9100000001,"ADDRESS":"勝利路５０號五樓之１５","OBJECTID":354687},"geometry":{"x":169830.25,"y":2543536.9100000039}},{"attributes":{"ID":354697,"DIS_CODE":0,"TOWNNAME":"東區","LI":"中西里","LIN":"8鄰","STREET":"勝利路","SECT":" ","MAREA":" ","LANE":" ","ALLEY":" ","HOUSE_NO":"５０號五樓之１６","E_COORD97":169830.25,"N_COORD97":2543536.9100000001,"ADDRESS":"勝利路５０號五樓之１６","OBJECTID":354688},"geometry":{"x":169830.25,"y":2543536.9100000039}},{"attributes":{"ID":354698,"DIS_CODE":0,"TOWNNAME":"東區","LI":"中西里","LIN":"8鄰","STREET":"勝利路","SECT":" ","MAREA":" ","LANE":" ","ALLEY":" ","HOUSE_NO":"５０號五樓之１７","E_COORD97":169830.25,"N_COORD97":2543536.9100000001,"ADDRESS":"勝利路５０號五樓之１７","OBJECTID":354689},"geometry":{"x":169830.25,"y":2543536.9100000039}},{"attributes":{"ID":354699,"DIS_CODE":0,"TOWNNAME":"東區","LI":"中西里","LIN":"8鄰","STREET":"勝利路","SECT":" ","MAREA":" ","LANE":" ","ALLEY":" ","HOUSE_NO":"５０號六樓","E_COORD97":169830.25,"N_COORD97":2543536.9100000001,"ADDRESS":"勝利路５０號六樓","OBJECTID":354690},"geometry":{"x":169830.25,"y":2543536.9100000039}},{"attributes":{"ID":354700,"DIS_CODE":0,"TOWNNAME":"北區","LI":"賢北里","LIN":"20鄰","STREET":"賢北街","SECT":" ","MAREA":" ","LANE":"２７巷","ALLEY":" ","HOUSE_NO":"１４７號","E_COORD97":165954.44,"N_COORD97":2545253.5699999998,"ADDRESS":"賢北街２７巷１４７號","OBJECTID":354691},"geometry":{"x":165954.44000000227,"y":2545253.5700000003}},{"attributes":{"ID":354701,"DIS_CODE":0,"TOWNNAME":"東區","LI":"衛國里","LIN":"6鄰","STREET":"衛國街","SECT":" ","MAREA":" ","LANE":"１１２巷","ALLEY":" ","HOUSE_NO":"４０號","E_COORD97":170581.57999999999,"N_COORD97":2543086.8900000001,"ADDRESS":"衛國街１１２巷４０號","OBJECTID":354692},"geometry":{"x":170581.58000000101,"y":2543086.8900000025}},{"attributes":{"ID":354702,"DIS_CODE":0,"TOWNNAME":"東區","LI":"衛國里","LIN":"6鄰","STREET":"衛國街","SECT":" ","MAREA":" ","LANE":"１１２巷","ALLEY":" ","HOUSE_NO":"４２號","E_COORD97":170589.64000000001,"N_COORD97":2543088.6099999999,"ADDRESS":"衛國街１１２巷４２號","OBJECTID":354693},"geometry":{"x":170589.63999999966,"y":2543088.6100000013}},{"attributes":{"ID":354703,"DIS_CODE":0,"TOWNNAME":"東區","LI":"衛國里","LIN":"6鄰","STREET":"衛國街","SECT":" ","MAREA":" ","LANE":"１１２巷","ALLEY":" ","HOUSE_NO":"４４號之１","E_COORD97":170592.70999999999,"N_COORD97":2543099.54,"ADDRESS":"衛國街１１２巷４４號之１","OBJECTID":354694},"geometry":{"x":170592.71000000089,"y":2543099.5399999991}},{"attributes":{"ID":354704,"DIS_CODE":0,"TOWNNAME":"東區","LI":"忠孝里","LIN":"6鄰","STREET":"榮譽街","SECT":" ","MAREA":" ","LANE":"８４巷","ALLEY":" ","HOUSE_NO":"４３號","E_COORD97":169886.29000000001,"N_COORD97":2541702.7400000002,"ADDRESS":"榮譽街８４巷４３號","OBJECTID":354695},"geometry":{"x":169886.2900000019,"y":2541702.7400000002}},{"attributes":{"ID":354705,"DIS_CODE":0,"TOWNNAME":"東區","LI":"忠孝里","LIN":"6鄰","STREET":"榮譽街","SECT":" ","MAREA":" ","LANE":"８４巷","ALLEY":" ","HOUSE_NO":"４５號","E_COORD97":169890.60000000001,"N_COORD97":2541705.48,"ADDRESS":"榮譽街８４巷４５號","OBJECTID":354696},"geometry":{"x":169890.60000000149,"y":2541705.4800000004}},{"attributes":{"ID":354706,"DIS_CODE":0,"TOWNNAME":"東區","LI":"忠孝里","LIN":"6鄰","STREET":"榮譽街","SECT":" ","MAREA":" ","LANE":"８４巷","ALLEY":" ","HOUSE_NO":"４７號","E_COORD97":169896.09,"N_COORD97":2541708.6099999999,"ADDRESS":"榮譽街８４巷４７號","OBJECTID":354697},"geometry":{"x":169896.09000000078,"y":2541708.6100000013}},{"attributes":{"ID":354707,"DIS_CODE":0,"TOWNNAME":"東區","LI":"中西里","LIN":"8鄰","STREET":"勝利路","SECT":" ","MAREA":" ","LANE":" ","ALLEY":" ","HOUSE_NO":"５０號六樓之１","E_COORD97":169830.25,"N_COORD97":2543536.9100000001,"ADDRESS":"勝利路５０號六樓之１","OBJECTID":354698},"geometry":{"x":169830.25,"y":2543536.9100000039}},{"attributes":{"ID":354708,"DIS_CODE":0,"TOWNNAME":"東區","LI":"忠孝里","LIN":"6鄰","STREET":"榮譽街","SECT":" ","MAREA":" ","LANE":"８４巷","ALLEY":" ","HOUSE_NO":"４９號","E_COORD97":169900.59,"N_COORD97":2541711.3500000001,"ADDRESS":"榮譽街８４巷４９號","OBJECTID":354699},"geometry":{"x":169900.58999999985,"y":2541711.3499999996}},{"attributes":{"ID":354709,"DIS_CODE":0,"TOWNNAME":"東區","LI":"東安里","LIN":"6鄰","STREET":"長榮路","SECT":"二段","MAREA":" ","LANE":"２４巷","ALLEY":" ","HOUSE_NO":"１７號","E_COORD97":170000.85000000001,"N_COORD97":2543072.4199999999,"ADDRESS":"長榮路二段２４巷１７號","OBJECTID":354700},"geometry":{"x":170000.85000000056,"y":2543072.4200000018}},{"attributes":{"ID":354710,"DIS_CODE":0,"TOWNNAME":"東區","LI":"東安里","LIN":"6鄰","STREET":"長榮路","SECT":"二段","MAREA":" ","LANE":"２４巷","ALLEY":" ","HOUSE_NO":"１９號","E_COORD97":170005.17999999999,"N_COORD97":2543071.1000000001,"ADDRESS":"長榮路二段２４巷１９號","OBJECTID":354701},"geometry":{"x":170005.17999999877,"y":2543071.1000000015}},{"attributes":{"ID":354711,"DIS_CODE":0,"TOWNNAME":"東區","LI":"東安里","LIN":"6鄰","STREET":"長榮路","SECT":"二段","MAREA":" ","LANE":"２４巷","ALLEY":" ","HOUSE_NO":"１號","E_COORD97":169965.22,"N_COORD97":2543084.8799999999,"ADDRESS":"長榮路二段２４巷１號","OBJECTID":354702},"geometry":{"x":169965.21999999974,"y":2543084.8800000027}},{"attributes":{"ID":354712,"DIS_CODE":0,"TOWNNAME":"東區","LI":"東安里","LIN":"6鄰","STREET":"長榮路","SECT":"二段","MAREA":" ","LANE":"２４巷","ALLEY":" ","HOUSE_NO":"２１號","E_COORD97":170009.42999999999,"N_COORD97":2543070.0600000001,"ADDRESS":"長榮路二段２４巷２１號","OBJECTID":354703},"geometry":{"x":170009.43000000063,"y":2543070.0600000005}},{"attributes":{"ID":354713,"DIS_CODE":0,"TOWNNAME":"東區","LI":"東安里","LIN":"6鄰","STREET":"長榮路","SECT":"二段","MAREA":" ","LANE":"２４巷","ALLEY":" ","HOUSE_NO":"２３號","E_COORD97":170014.14000000001,"N_COORD97":2543067.7999999998,"ADDRESS":"長榮路二段２４巷２３號","OBJECTID":354704},"geometry":{"x":170014.1400000006,"y":2543067.8000000026}},{"attributes":{"ID":354714,"DIS_CODE":0,"TOWNNAME":"學甲區","LI":"平和里","LIN":"20鄰","STREET":" ","SECT":" ","MAREA":"西平寮","LANE":" ","ALLEY":" ","HOUSE_NO":"６號之１","E_COORD97":169233.54000000001,"N_COORD97":2573323.9199999999,"ADDRESS":"西平寮６號之１","OBJECTID":354705},"geometry":{"x":169233.5400000019,"y":2573323.9199999999}},{"attributes":{"ID":354715,"DIS_CODE":0,"TOWNNAME":"學甲區","LI":"平和里","LIN":"20鄰","STREET":" ","SECT":" ","MAREA":"西平寮","LANE":" ","ALLEY":" ","HOUSE_NO":"７號","E_COORD97":169254.37,"N_COORD97":2573312.5,"ADDRESS":"西平寮７號","OBJECTID":354706},"geometry":{"x":169254.37000000011,"y":2573312.5}},{"attributes":{"ID":354716,"DIS_CODE":0,"TOWNNAME":"學甲區","LI":"平和里","LIN":"20鄰","STREET":" ","SECT":" ","MAREA":"西平寮","LANE":" ","ALLEY":" ","HOUSE_NO":"１１號之１","E_COORD97":169373.73999999999,"N_COORD97":2573377.3700000001,"ADDRESS":"西平寮１１號之１","OBJECTID":354707},"geometry":{"x":169373.74000000115,"y":2573377.3700000029}},{"attributes":{"ID":354717,"DIS_CODE":0,"TOWNNAME":"學甲區","LI":"平和里","LIN":"20鄰","STREET":" ","SECT":" ","MAREA":"西平寮","LANE":" ","ALLEY":" ","HOUSE_NO":"１１號之２","E_COORD97":169380.97,"N_COORD97":2573378.71,"ADDRESS":"西平寮１１號之２","OBJECTID":354708},"geometry":{"x":169380.96999999974,"y":2573378.7100000028}},{"attributes":{"ID":354718,"DIS_CODE":0,"TOWNNAME":"學甲區","LI":"平和里","LIN":"20鄰","STREET":" ","SECT":" ","MAREA":"西平寮","LANE":" ","ALLEY":" ","HOUSE_NO":"１１號之３","E_COORD97":169390.97,"N_COORD97":2573380.6699999999,"ADDRESS":"西平寮１１號之３","OBJECTID":354709},"geometry":{"x":169390.96999999974,"y":2573380.6700000018}},{"attributes":{"ID":354719,"DIS_CODE":0,"TOWNNAME":"學甲區","LI":"平和里","LIN":"20鄰","STREET":" ","SECT":" ","MAREA":"西平寮","LANE":" ","ALLEY":" ","HOUSE_NO":"１１號之６","E_COORD97":169363.73000000001,"N_COORD97":2573354.1000000001,"ADDRESS":"西平寮１１號之６","OBJECTID":354710},"geometry":{"x":169363.73000000138,"y":2573354.1000000015}},{"attributes":{"ID":354720,"DIS_CODE":0,"TOWNNAME":"安南區","LI":"海東里","LIN":"20鄰","STREET":"海東十一街","SECT":" ","MAREA":" ","LANE":" ","ALLEY":" ","HOUSE_NO":"８８號","E_COORD97":166664.973895,"N_COORD97":2548503.4168500002,"ADDRESS":"海東十一街８８號","OBJECTID":354711},"geometry":{"x":166664.97389500216,"y":2548503.4168469999}},{"attributes":{"ID":354721,"DIS_CODE":0,"TOWNNAME":"安平區","LI":"文平里","LIN":"20鄰","STREET":"健康一街","SECT":" ","MAREA":" ","LANE":"５７巷","ALLEY":" ","HOUSE_NO":"５０號","E_COORD97":165805.32999999999,"N_COORD97":2542826.98,"ADDRESS":"健康一街５７巷５０號","OBJECTID":354712},"geometry":{"x":165805.33000000007,"y":2542826.9800000004}},{"attributes":{"ID":354722,"DIS_CODE":0,"TOWNNAME":"安平區","LI":"文平里","LIN":"20鄰","STREET":"健康一街","SECT":" ","MAREA":" ","LANE":"５７巷","ALLEY":" ","HOUSE_NO":"５２號","E_COORD97":165800.64000000001,"N_COORD97":2542827.3799999999,"ADDRESS":"健康一街５７巷５２號","OBJECTID":354713},"geometry":{"x":165800.63999999966,"y":2542827.3800000027}},{"attributes":{"ID":354723,"DIS_CODE":0,"TOWNNAME":"東區","LI":"東安里","LIN":"6鄰","STREET":"長榮路","SECT":"二段","MAREA":" ","LANE":"２４巷","ALLEY":" ","HOUSE_NO":"２５號","E_COORD97":170018.95000000001,"N_COORD97":2543068.0899999999,"ADDRESS":"長榮路二段２４巷２５號","OBJECTID":354714},"geometry":{"x":170018.95000000019,"y":2543068.0900000017}},{"attributes":{"ID":354724,"DIS_CODE":0,"TOWNNAME":"東區","LI":"東安里","LIN":"6鄰","STREET":"長榮路","SECT":"二段","MAREA":" ","LANE":"２４巷","ALLEY":" ","HOUSE_NO":"２７號","E_COORD97":170022.91,"N_COORD97":2543065.2599999998,"ADDRESS":"長榮路二段２４巷２７號","OBJECTID":354715},"geometry":{"x":170022.91000000201,"y":2543065.2599999998}},{"attributes":{"ID":354725,"DIS_CODE":0,"TOWNNAME":"東區","LI":"東安里","LIN":"6鄰","STREET":"長榮路","SECT":"二段","MAREA":" ","LANE":"２４巷","ALLEY":" ","HOUSE_NO":"２９號","E_COORD97":170027.56,"N_COORD97":2543063.8500000001,"ADDRESS":"長榮路二段２４巷２９號","OBJECTID":354716},"geometry":{"x":170027.55999999959,"y":2543063.8499999996}},{"attributes":{"ID":354726,"DIS_CODE":0,"TOWNNAME":"東區","LI":"東安里","LIN":"6鄰","STREET":"長榮路","SECT":"二段","MAREA":" ","LANE":"２４巷","ALLEY":" ","HOUSE_NO":"３１號","E_COORD97":170032.09,"N_COORD97":2543062.3300000001,"ADDRESS":"長榮路二段２４巷３１號","OBJECTID":354717},"geometry":{"x":170032.09000000078,"y":2543062.3300000001}},{"attributes":{"ID":354727,"DIS_CODE":0,"TOWNNAME":"東區","LI":"東安里","LIN":"6鄰","STREET":"長榮路","SECT":"二段","MAREA":" ","LANE":"２４巷","ALLEY":" ","HOUSE_NO":"３３號","E_COORD97":170035.60999999999,"N_COORD97":2543060.8999999999,"ADDRESS":"長榮路二段２４巷３３號","OBJECTID":354718},"geometry":{"x":170035.61000000127,"y":2543060.9000000004}},{"attributes":{"ID":354728,"DIS_CODE":0,"TOWNNAME":"東區","LI":"中西里","LIN":"8鄰","STREET":"勝利路","SECT":" ","MAREA":" ","LANE":" ","ALLEY":" ","HOUSE_NO":"５０號六樓之２","E_COORD97":169830.25,"N_COORD97":2543536.9100000001,"ADDRESS":"勝利路５０號六樓之２","OBJECTID":354719},"geometry":{"x":169830.25,"y":2543536.9100000039}},{"attributes":{"ID":354729,"DIS_CODE":0,"TOWNNAME":"東區","LI":"中西里","LIN":"8鄰","STREET":"勝利路","SECT":" ","MAREA":" ","LANE":" ","ALLEY":" ","HOUSE_NO":"５０號六樓之３","E_COORD97":169830.25,"N_COORD97":2543536.9100000001,"ADDRESS":"勝利路５０號六樓之３","OBJECTID":354720},"geometry":{"x":169830.25,"y":2543536.9100000039}},{"attributes":{"ID":354730,"DIS_CODE":0,"TOWNNAME":"學甲區","LI":"平和里","LIN":"20鄰","STREET":" ","SECT":" ","MAREA":"西平寮","LANE":" ","ALLEY":" ","HOUSE_NO":"１３號之１６","E_COORD97":169413.35000000001,"N_COORD97":2573404.1600000001,"ADDRESS":"西平寮１３號之１６","OBJECTID":354721},"geometry":{"x":169413.34999999963,"y":2573404.1599999983}},{"attributes":{"ID":354731,"DIS_CODE":0,"TOWNNAME":"學甲區","LI":"平和里","LIN":"20鄰","STREET":" ","SECT":" ","MAREA":"西平寮","LANE":" ","ALLEY":" ","HOUSE_NO":"１３號之２０","E_COORD97":169448.29999999999,"N_COORD97":2573396.3599999999,"ADDRESS":"西平寮１３號之２０","OBJECTID":354722},"geometry":{"x":169448.29999999981,"y":2573396.3600000013}},{"attributes":{"ID":354732,"DIS_CODE":0,"TOWNNAME":"學甲區","LI":"平和里","LIN":"20鄰","STREET":" ","SECT":" ","MAREA":"西平寮","LANE":" ","ALLEY":" ","HOUSE_NO":"１３號之２１","E_COORD97":169452.48999999999,"N_COORD97":2573397.4500000002,"ADDRESS":"西平寮１３號之２１","OBJECTID":354723},"geometry":{"x":169452.49000000022,"y":2573397.4499999993}},{"attributes":{"ID":354733,"DIS_CODE":0,"TOWNNAME":"學甲區","LI":"平和里","LIN":"20鄰","STREET":" ","SECT":" ","MAREA":"西平寮","LANE":" ","ALLEY":" ","HOUSE_NO":"１３號之２２","E_COORD97":169456.67000000001,"N_COORD97":2573398.5299999998,"ADDRESS":"西平寮１３號之２２","OBJECTID":354724},"geometry":{"x":169456.67000000086,"y":2573398.5300000012}},{"attributes":{"ID":354734,"DIS_CODE":0,"TOWNNAME":"學甲區","LI":"平和里","LIN":"20鄰","STREET":" ","SECT":" ","MAREA":"西平寮","LANE":" ","ALLEY":" ","HOUSE_NO":"１３號之２３","E_COORD97":169460.85999999999,"N_COORD97":2573399.6200000001,"ADDRESS":"西平寮１３號之２３","OBJECTID":354725},"geometry":{"x":169460.86000000127,"y":2573399.6200000029}},{"attributes":{"ID":354735,"DIS_CODE":0,"TOWNNAME":"學甲區","LI":"平和里","LIN":"20鄰","STREET":" ","SECT":" ","MAREA":"西平寮","LANE":" ","ALLEY":" ","HOUSE_NO":"１３號之２４","E_COORD97":169465.04999999999,"N_COORD97":2573400.71,"ADDRESS":"西平寮１３號之２４","OBJECTID":354726},"geometry":{"x":169465.04999999981,"y":2573400.7100000009}},{"attributes":{"ID":354736,"DIS_CODE":0,"TOWNNAME":"學甲區","LI":"平和里","LIN":"20鄰","STREET":" ","SECT":" ","MAREA":"西平寮","LANE":" ","ALLEY":" ","HOUSE_NO":"１３號","E_COORD97":169439.59,"N_COORD97":2573383.1400000001,"ADDRESS":"西平寮１３號","OBJECTID":354727},"geometry":{"x":169439.58999999985,"y":2573383.1400000006}},{"attributes":{"ID":354737,"DIS_CODE":0,"TOWNNAME":"學甲區","LI":"平和里","LIN":"20鄰","STREET":" ","SECT":" ","MAREA":"西平寮","LANE":" ","ALLEY":" ","HOUSE_NO":"１４號之１","E_COORD97":169443.76999999999,"N_COORD97":2573418.1200000001,"ADDRESS":"西平寮１４號之１","OBJECTID":354728},"geometry":{"x":169443.77000000048,"y":2573418.120000001}},{"attributes":{"ID":354738,"DIS_CODE":0,"TOWNNAME":"學甲區","LI":"平和里","LIN":"20鄰","STREET":" ","SECT":" ","MAREA":"西平寮","LANE":" ","ALLEY":" ","HOUSE_NO":"１４號之２","E_COORD97":169448.23000000001,"N_COORD97":2573419.2400000002,"ADDRESS":"西平寮１４號之２","OBJECTID":354729},"geometry":{"x":169448.23000000138,"y":2573419.2400000002}},{"attributes":{"ID":354739,"DIS_CODE":0,"TOWNNAME":"學甲區","LI":"平和里","LIN":"20鄰","STREET":" ","SECT":" ","MAREA":"西平寮","LANE":" ","ALLEY":" ","HOUSE_NO":"１４號之３","E_COORD97":169452.70000000001,"N_COORD97":2573420.3599999999,"ADDRESS":"西平寮１４號之３","OBJECTID":354730},"geometry":{"x":169452.70000000019,"y":2573420.3600000013}},{"attributes":{"ID":354740,"DIS_CODE":0,"TOWNNAME":"學甲區","LI":"平和里","LIN":"20鄰","STREET":" ","SECT":" ","MAREA":"西平寮","LANE":" ","ALLEY":" ","HOUSE_NO":"１號之３","E_COORD97":169163.87,"N_COORD97":2573303.4199999999,"ADDRESS":"西平寮１號之３","OBJECTID":354731},"geometry":{"x":169163.87000000104,"y":2573303.4199999999}},{"attributes":{"ID":354741,"DIS_CODE":0,"TOWNNAME":"學甲區","LI":"平和里","LIN":"20鄰","STREET":" ","SECT":" ","MAREA":"西平寮","LANE":" ","ALLEY":" ","HOUSE_NO":"１號之６","E_COORD97":169141.42000000001,"N_COORD97":2573302.3599999999,"ADDRESS":"西平寮１號之６","OBJECTID":354732},"geometry":{"x":169141.42000000086,"y":2573302.3599999994}},{"attributes":{"ID":354742,"DIS_CODE":0,"TOWNNAME":"學甲區","LI":"三慶里","LIN":"20鄰","STREET":" ","SECT":" ","MAREA":"紅茄","LANE":" ","ALLEY":" ","HOUSE_NO":"６２號之１８","E_COORD97":167447.23999999999,"N_COORD97":2576276.48,"ADDRESS":"紅茄６２號之１８","OBJECTID":354733},"geometry":{"x":167447.24000000022,"y":2576276.4800000004}},{"attributes":{"ID":354743,"DIS_CODE":0,"TOWNNAME":"東區","LI":"東安里","LIN":"6鄰","STREET":"長榮路","SECT":"二段","MAREA":" ","LANE":"２４巷","ALLEY":" ","HOUSE_NO":"３號","E_COORD97":169969.07999999999,"N_COORD97":2543083.1800000002,"ADDRESS":"長榮路二段２４巷３號","OBJECTID":354734},"geometry":{"x":169969.08000000194,"y":2543083.1799999997}},{"attributes":{"ID":354744,"DIS_CODE":0,"TOWNNAME":"東區","LI":"東安里","LIN":"6鄰","STREET":"長榮路","SECT":"二段","MAREA":" ","LANE":"２４巷","ALLEY":" ","HOUSE_NO":"４１號","E_COORD97":170055.28,"N_COORD97":2543054.0699999998,"ADDRESS":"長榮路二段２４巷４１號","OBJECTID":354735},"geometry":{"x":170055.28000000026,"y":2543054.0700000003}},{"attributes":{"ID":354745,"DIS_CODE":0,"TOWNNAME":"東區","LI":"東安里","LIN":"6鄰","STREET":"長榮路","SECT":"二段","MAREA":" ","LANE":"２４巷","ALLEY":" ","HOUSE_NO":"５號","E_COORD97":169973.14000000001,"N_COORD97":2543081.8599999999,"ADDRESS":"長榮路二段２４巷５號","OBJECTID":354736},"geometry":{"x":169973.13999999966,"y":2543081.8599999975}},{"attributes":{"ID":354746,"DIS_CODE":0,"TOWNNAME":"東區","LI":"東安里","LIN":"6鄰","STREET":"長榮路","SECT":"二段","MAREA":" ","LANE":"２４巷","ALLEY":" ","HOUSE_NO":"７號","E_COORD97":169977.76000000001,"N_COORD97":2543080.2599999998,"ADDRESS":"長榮路二段２４巷７號","OBJECTID":354737},"geometry":{"x":169977.76000000164,"y":2543080.2600000016}},{"attributes":{"ID":354747,"DIS_CODE":0,"TOWNNAME":"東區","LI":"東安里","LIN":"6鄰","STREET":"長榮路","SECT":"二段","MAREA":" ","LANE":"２４巷","ALLEY":" ","HOUSE_NO":"９號","E_COORD97":169983.13,"N_COORD97":2543078.3799999999,"ADDRESS":"長榮路二段２４巷９號","OBJECTID":354738},"geometry":{"x":169983.12999999989,"y":2543078.3800000008}},{"attributes":{"ID":354748,"DIS_CODE":0,"TOWNNAME":"東區","LI":"後甲里","LIN":"6鄰","STREET":"裕農路","SECT":" ","MAREA":" ","LANE":"６２１巷","ALLEY":" ","HOUSE_NO":"６０號","E_COORD97":171630.48000000001,"N_COORD97":2543368.6099999999,"ADDRESS":"裕農路６２１巷６０號","OBJECTID":354739},"geometry":{"x":171630.48000000138,"y":2543368.6100000031}},{"attributes":{"ID":354749,"DIS_CODE":0,"TOWNNAME":"永康區","LI":"西勢里","LIN":"6鄰","STREET":"富強路","SECT":"一段","MAREA":" ","LANE":"３２１巷","ALLEY":" ","HOUSE_NO":"１３號","E_COORD97":175641.79999999999,"N_COORD97":2546700.6400000001,"ADDRESS":"富強路一段３２１巷１３號","OBJECTID":354740},"geometry":{"x":175641.80000000075,"y":2546700.6400000006}},{"attributes":{"ID":354750,"DIS_CODE":0,"TOWNNAME":"永康區","LI":"西橋里","LIN":"6鄰","STREET":"中山南路","SECT":" ","MAREA":" ","LANE":"４３巷","ALLEY":" ","HOUSE_NO":"５１號","E_COORD97":170671.17999999999,"N_COORD97":2545974.8700000001,"ADDRESS":"中山南路４３巷５１號","OBJECTID":354741},"geometry":{"x":170671.1799999997,"y":2545974.870000001}},{"attributes":{"ID":354751,"DIS_CODE":0,"TOWNNAME":"永康區","LI":"尚頂里","LIN":"6鄰","STREET":"中正二街","SECT":" ","MAREA":" ","LANE":"９６巷","ALLEY":" ","HOUSE_NO":"７號","E_COORD97":171096.76999999999,"N_COORD97":2547476.1400000001,"ADDRESS":"中正二街９６巷７號","OBJECTID":354742},"geometry":{"x":171096.77000000048,"y":2547476.1400000025}},{"attributes":{"ID":354752,"DIS_CODE":0,"TOWNNAME":"永康區","LI":"西橋里","LIN":"6鄰","STREET":"中山南路","SECT":" ","MAREA":" ","LANE":"４３巷","ALLEY":" ","HOUSE_NO":"６１號","E_COORD97":170645.60000000001,"N_COORD97":2546017.8799999999,"ADDRESS":"中山南路４３巷６１號","OBJECTID":354743},"geometry":{"x":170645.60000000056,"y":2546017.8800000008}},{"attributes":{"ID":354753,"DIS_CODE":0,"TOWNNAME":"永康區","LI":"安康里","LIN":"6鄰","STREET":"中華路","SECT":" ","MAREA":" ","LANE":"７２７巷","ALLEY":" ","HOUSE_NO":"８號","E_COORD97":170795.04000000001,"N_COORD97":2546405.6699999999,"ADDRESS":"中華路７２７巷８號","OBJECTID":354744},"geometry":{"x":170795.04000000097,"y":2546405.6699999999}},{"attributes":{"ID":354754,"DIS_CODE":0,"TOWNNAME":"永康區","LI":"安康里","LIN":"6鄰","STREET":"中華西街","SECT":" ","MAREA":" ","LANE":"１９６巷","ALLEY":" ","HOUSE_NO":"２８號","E_COORD97":170707.66,"N_COORD97":2546387.5699999998,"ADDRESS":"中華西街１９６巷２８號","OBJECTID":354745},"geometry":{"x":170707.66000000201,"y":2546387.5700000022}},{"attributes":{"ID":354755,"DIS_CODE":0,"TOWNNAME":"永康區","LI":"安康里","LIN":"6鄰","STREET":"中華路","SECT":" ","MAREA":" ","LANE":"７２７巷","ALLEY":" ","HOUSE_NO":"１０號","E_COORD97":170792.84,"N_COORD97":2546403.4100000001,"ADDRESS":"中華路７２７巷１０號","OBJECTID":354746},"geometry":{"x":170792.84000000078,"y":2546403.4100000001}},{"attributes":{"ID":354756,"DIS_CODE":0,"TOWNNAME":"永康區","LI":"尚頂里","LIN":"6鄰","STREET":"中正二街","SECT":" ","MAREA":" ","LANE":"９６巷","ALLEY":" ","HOUSE_NO":"２號","E_COORD97":171052.23999999999,"N_COORD97":2547494.2400000002,"ADDRESS":"中正二街９６巷２號","OBJECTID":354747},"geometry":{"x":171052.24000000022,"y":2547494.2400000002}},{"attributes":{"ID":354757,"DIS_CODE":0,"TOWNNAME":"永康區","LI":"安康里","LIN":"6鄰","STREET":"中華西街","SECT":" ","MAREA":" ","LANE":"１９６巷","ALLEY":" ","HOUSE_NO":"２０號","E_COORD97":170693.67000000001,"N_COORD97":2546383,"ADDRESS":"中華西街１９６巷２０號","OBJECTID":354748},"geometry":{"x":170693.66999999993,"y":2546383}},{"attributes":{"ID":354758,"DIS_CODE":0,"TOWNNAME":"南區","LI":"府南里","LIN":"26鄰","STREET":"大成路","SECT":"二段","MAREA":" ","LANE":"８１巷","ALLEY":" ","HOUSE_NO":"５０號","E_COORD97":167364.54999999999,"N_COORD97":2541606.0099999998,"ADDRESS":"大成路二段８１巷５０號","OBJECTID":354749},"geometry":{"x":167364.54999999981,"y":2541606.0099999998}},{"attributes":{"ID":354759,"DIS_CODE":0,"TOWNNAME":"南區","LI":"府南里","LIN":"26鄰","STREET":"大成路","SECT":"二段","MAREA":" ","LANE":"８１巷","ALLEY":" ","HOUSE_NO":"５２號","E_COORD97":167357.91,"N_COORD97":2541608.0800000001,"ADDRESS":"大成路二段８１巷５２號","OBJECTID":354750},"geometry":{"x":167357.90999999922,"y":2541608.0800000019}},{"attributes":{"ID":354760,"DIS_CODE":0,"TOWNNAME":"南區","LI":"府南里","LIN":"26鄰","STREET":"大成路","SECT":"二段","MAREA":" ","LANE":"８１巷","ALLEY":" ","HOUSE_NO":"５４號","E_COORD97":167352.67999999999,"N_COORD97":2541610.8199999998,"ADDRESS":"大成路二段８１巷５４號","OBJECTID":354751},"geometry":{"x":167352.68000000063,"y":2541610.8200000003}},{"attributes":{"ID":354761,"DIS_CODE":0,"TOWNNAME":"南區","LI":"府南里","LIN":"26鄰","STREET":"大成路","SECT":"二段","MAREA":" ","LANE":"８１巷","ALLEY":" ","HOUSE_NO":"５８號","E_COORD97":167339.23999999999,"N_COORD97":2541614.2999999998,"ADDRESS":"大成路二段８１巷５８號","OBJECTID":354752},"geometry":{"x":167339.24000000115,"y":2541614.3000000007}},{"attributes":{"ID":354762,"DIS_CODE":0,"TOWNNAME":"南區","LI":"府南里","LIN":"26鄰","STREET":"大成路","SECT":"二段","MAREA":" ","LANE":"８１巷","ALLEY":" ","HOUSE_NO":"６０號","E_COORD97":167337,"N_COORD97":2541606.0899999999,"ADDRESS":"大成路二段８１巷６０號","OBJECTID":354753},"geometry":{"x":167337.00000000186,"y":2541606.0900000036}},{"attributes":{"ID":354763,"DIS_CODE":0,"TOWNNAME":"南區","LI":"府南里","LIN":"26鄰","STREET":"大成路","SECT":"二段","MAREA":" ","LANE":"８１巷","ALLEY":" ","HOUSE_NO":"６２號","E_COORD97":167343.39000000001,"N_COORD97":2541604.77,"ADDRESS":"大成路二段８１巷６２號","OBJECTID":354754},"geometry":{"x":167343.38999999966,"y":2541604.7700000033}},{"attributes":{"ID":354764,"DIS_CODE":0,"TOWNNAME":"永康區","LI":"西橋里","LIN":"6鄰","STREET":"中山南路","SECT":" ","MAREA":" ","LANE":"４３巷","ALLEY":" ","HOUSE_NO":"４７號","E_COORD97":170675.44,"N_COORD97":2545967.6200000001,"ADDRESS":"中山南路４３巷４７號","OBJECTID":354755},"geometry":{"x":170675.43999999948,"y":2545967.6200000029}},{"attributes":{"ID":354765,"DIS_CODE":0,"TOWNNAME":"永康區","LI":"安康里","LIN":"6鄰","STREET":"中華西街","SECT":" ","MAREA":" ","LANE":"１９６巷","ALLEY":" ","HOUSE_NO":"２號","E_COORD97":170653.98000000001,"N_COORD97":2546368.4900000002,"ADDRESS":"中華西街１９６巷２號","OBJECTID":354756},"geometry":{"x":170653.98000000138,"y":2546368.4900000021}},{"attributes":{"ID":354766,"DIS_CODE":0,"TOWNNAME":"永康區","LI":"安康里","LIN":"6鄰","STREET":"中華路","SECT":" ","MAREA":" ","LANE":"７２７巷","ALLEY":" ","HOUSE_NO":"７號","E_COORD97":170809.32000000001,"N_COORD97":2546388.2400000002,"ADDRESS":"中華路７２７巷７號","OBJECTID":354757},"geometry":{"x":170809.32000000123,"y":2546388.2400000002}},{"attributes":{"ID":354767,"DIS_CODE":0,"TOWNNAME":"永康區","LI":"西灣里","LIN":"6鄰","STREET":"大灣五街","SECT":" ","MAREA":" ","LANE":"９３巷","ALLEY":" ","HOUSE_NO":"４７號","E_COORD97":174592.95999999999,"N_COORD97":2545209.5,"ADDRESS":"大灣五街９３巷４７號","OBJECTID":354758},"geometry":{"x":174592.96000000089,"y":2545209.5}},{"attributes":{"ID":354768,"DIS_CODE":0,"TOWNNAME":"北區","LI":"和順里","LIN":"20鄰","STREET":"民德路","SECT":" ","MAREA":" ","LANE":"８５巷","ALLEY":" ","HOUSE_NO":"７２號","E_COORD97":168098.54999999999,"N_COORD97":2545051.1000000001,"ADDRESS":"民德路８５巷７２號","OBJECTID":354759},"geometry":{"x":168098.54999999981,"y":2545051.1000000015}},{"attributes":{"ID":354769,"DIS_CODE":0,"TOWNNAME":"北區","LI":"和順里","LIN":"20鄰","STREET":"民德路","SECT":" ","MAREA":" ","LANE":"８５巷","ALLEY":" ","HOUSE_NO":"７６號","E_COORD97":168090.92000000001,"N_COORD97":2545048.3700000001,"ADDRESS":"民德路８５巷７６號","OBJECTID":354760},"geometry":{"x":168090.91999999993,"y":2545048.3700000029}},{"attributes":{"ID":354770,"DIS_CODE":0,"TOWNNAME":"北區","LI":"和順里","LIN":"20鄰","STREET":"民德路","SECT":" ","MAREA":" ","LANE":"８５巷","ALLEY":" ","HOUSE_NO":"８號","E_COORD97":168224.48999999999,"N_COORD97":2545099.6299999999,"ADDRESS":"民德路８５巷８號","OBJECTID":354761},"geometry":{"x":168224.49000000115,"y":2545099.629999999}},{"attributes":{"ID":354771,"DIS_CODE":0,"TOWNNAME":"南區","LI":"鯤鯓里","LIN":"20鄰","STREET":"鯤鯓路","SECT":" ","MAREA":" ","LANE":"１６２巷","ALLEY":" ","HOUSE_NO":"１５號","E_COORD97":164973.81,"N_COORD97":2540200.02,"ADDRESS":"鯤鯓路１６２巷１５號","OBJECTID":354762},"geometry":{"x":164973.80999999959,"y":2540200.0200000014}},{"attributes":{"ID":354772,"DIS_CODE":0,"TOWNNAME":"南區","LI":"鯤鯓里","LIN":"20鄰","STREET":"鯤鯓路","SECT":" ","MAREA":" ","LANE":"１６２巷","ALLEY":" ","HOUSE_NO":"１７號","E_COORD97":164975.01999999999,"N_COORD97":2540209.1899999999,"ADDRESS":"鯤鯓路１６２巷１７號","OBJECTID":354763},"geometry":{"x":164975.02000000048,"y":2540209.1900000013}},{"attributes":{"ID":354773,"DIS_CODE":0,"TOWNNAME":"南區","LI":"鯤鯓里","LIN":"20鄰","STREET":"鯤鯓路","SECT":" ","MAREA":" ","LANE":"１６２巷","ALLEY":" ","HOUSE_NO":"２３號","E_COORD97":164982.62,"N_COORD97":2540219.6899999999,"ADDRESS":"鯤鯓路１６２巷２３號","OBJECTID":354764},"geometry":{"x":164982.62000000011,"y":2540219.6900000013}},{"attributes":{"ID":354774,"DIS_CODE":0,"TOWNNAME":"南區","LI":"鯤鯓里","LIN":"20鄰","STREET":"鯤鯓路","SECT":" ","MAREA":" ","LANE":"１６２巷","ALLEY":" ","HOUSE_NO":"２３號之１","E_COORD97":164996.76000000001,"N_COORD97":2540226.4500000002,"ADDRESS":"鯤鯓路１６２巷２３號之１","OBJECTID":354765},"geometry":{"x":164996.75999999978,"y":2540226.450000003}},{"attributes":{"ID":354775,"DIS_CODE":0,"TOWNNAME":"南區","LI":"鯤鯓里","LIN":"20鄰","STREET":"鯤鯓路","SECT":" ","MAREA":" ","LANE":"１８４巷","ALLEY":" ","HOUSE_NO":"２４號","E_COORD97":164983.59,"N_COORD97":2540277.7000000002,"ADDRESS":"鯤鯓路１８４巷２４號","OBJECTID":354766},"geometry":{"x":164983.59000000078,"y":2540277.6999999993}},{"attributes":{"ID":354776,"DIS_CODE":0,"TOWNNAME":"南區","LI":"鯤鯓里","LIN":"20鄰","STREET":"鯤鯓路","SECT":" ","MAREA":" ","LANE":"１８４巷","ALLEY":" ","HOUSE_NO":"２６號","E_COORD97":164997.60000000001,"N_COORD97":2540277.8199999998,"ADDRESS":"鯤鯓路１８４巷２６號","OBJECTID":354767},"geometry":{"x":164997.59999999963,"y":2540277.8200000003}},{"attributes":{"ID":354777,"DIS_CODE":0,"TOWNNAME":"楠西區","LI":"楠西里","LIN":"20鄰","STREET":"民族路","SECT":" ","MAREA":" ","LANE":"５３巷","ALLEY":" ","HOUSE_NO":"１４號","E_COORD97":197081.98999999999,"N_COORD97":2563938.29,"ADDRESS":"民族路５３巷１４號","OBJECTID":354768},"geometry":{"x":197081.99000000022,"y":2563938.2899999991}},{"attributes":{"ID":354778,"DIS_CODE":0,"TOWNNAME":"楠西區","LI":"楠西里","LIN":"20鄰","STREET":"民族路","SECT":" ","MAREA":" ","LANE":"３５巷","ALLEY":" ","HOUSE_NO":"５號","E_COORD97":197064.94,"N_COORD97":2563909.29,"ADDRESS":"民族路３５巷５號","OBJECTID":354769},"geometry":{"x":197064.94000000134,"y":2563909.2900000028}},{"attributes":{"ID":354779,"DIS_CODE":0,"TOWNNAME":"永康區","LI":"安康里","LIN":"6鄰","STREET":"中華西街","SECT":" ","MAREA":" ","LANE":"１９６巷","ALLEY":" ","HOUSE_NO":"１８號","E_COORD97":170687.62,"N_COORD97":2546380.5,"ADDRESS":"中華西街１９６巷１８號","OBJECTID":354770},"geometry":{"x":170687.62000000197,"y":2546380.5000000037}},{"attributes":{"ID":354780,"DIS_CODE":0,"TOWNNAME":"永康區","LI":"安康里","LIN":"6鄰","STREET":"中華路","SECT":" ","MAREA":" ","LANE":"７２７巷","ALLEY":" ","HOUSE_NO":"１２號","E_COORD97":170788.89999999999,"N_COORD97":2546401.4100000001,"ADDRESS":"中華路７２７巷１２號","OBJECTID":354771},"geometry":{"x":170788.90000000037,"y":2546401.4099999983}},{"attributes":{"ID":354781,"DIS_CODE":0,"TOWNNAME":"永康區","LI":"安康里","LIN":"6鄰","STREET":"中華路","SECT":" ","MAREA":" ","LANE":"７２７巷","ALLEY":" ","HOUSE_NO":"６號","E_COORD97":170798.67999999999,"N_COORD97":2546407.9199999999,"ADDRESS":"中華路７２７巷６號","OBJECTID":354772},"geometry":{"x":170798.68000000156,"y":2546407.9199999981}},{"attributes":{"ID":354782,"DIS_CODE":0,"TOWNNAME":"永康區","LI":"西橋里","LIN":"6鄰","STREET":"中山南路","SECT":" ","MAREA":" ","LANE":"４３巷","ALLEY":" ","HOUSE_NO":"５３號","E_COORD97":170669.01000000001,"N_COORD97":2545978.3700000001,"ADDRESS":"中山南路４３巷５３號","OBJECTID":354773},"geometry":{"x":170669.00999999978,"y":2545978.370000001}},{"attributes":{"ID":354783,"DIS_CODE":0,"TOWNNAME":"永康區","LI":"安康里","LIN":"6鄰","STREET":"中華西街","SECT":" ","MAREA":" ","LANE":"１９６巷","ALLEY":" ","HOUSE_NO":"８號","E_COORD97":170664.59,"N_COORD97":2546372.2400000002,"ADDRESS":"中華西街１９６巷８號","OBJECTID":354774},"geometry":{"x":170664.59000000078,"y":2546372.2399999984}},{"attributes":{"ID":354784,"DIS_CODE":0,"TOWNNAME":"永康區","LI":"西橋里","LIN":"6鄰","STREET":"中山南路","SECT":" ","MAREA":" ","LANE":"４３巷","ALLEY":" ","HOUSE_NO":"６３號","E_COORD97":170643.98999999999,"N_COORD97":2546021.3799999999,"ADDRESS":"中山南路４３巷６３號","OBJECTID":354775},"geometry":{"x":170643.99000000022,"y":2546021.3800000008}},{"attributes":{"ID":354785,"DIS_CODE":0,"TOWNNAME":"永康區","LI":"安康里","LIN":"6鄰","STREET":"中華路","SECT":" ","MAREA":" ","LANE":"７２７巷","ALLEY":" ","HOUSE_NO":"５號","E_COORD97":170810.06,"N_COORD97":2546366.1000000001,"ADDRESS":"中華路７２７巷５號","OBJECTID":354776},"geometry":{"x":170810.06000000052,"y":2546366.1000000034}},{"attributes":{"ID":354786,"DIS_CODE":0,"TOWNNAME":"東區","LI":"中西里","LIN":"8鄰","STREET":"勝利路","SECT":" ","MAREA":" ","LANE":" ","ALLEY":" ","HOUSE_NO":"５０號六樓之４","E_COORD97":169830.25,"N_COORD97":2543536.9100000001,"ADDRESS":"勝利路５０號六樓之４","OBJECTID":354777},"geometry":{"x":169830.25,"y":2543536.9100000039}},{"attributes":{"ID":354787,"DIS_CODE":0,"TOWNNAME":"東區","LI":"中西里","LIN":"8鄰","STREET":"勝利路","SECT":" ","MAREA":" ","LANE":" ","ALLEY":" ","HOUSE_NO":"５０號六樓之５","E_COORD97":169830.25,"N_COORD97":2543536.9100000001,"ADDRESS":"勝利路５０號六樓之５","OBJECTID":354778},"geometry":{"x":169830.25,"y":2543536.9100000039}},{"attributes":{"ID":354788,"DIS_CODE":0,"TOWNNAME":"東區","LI":"中西里","LIN":"8鄰","STREET":"勝利路","SECT":" ","MAREA":" ","LANE":" ","ALLEY":" ","HOUSE_NO":"５０號六樓之６","E_COORD97":169830.25,"N_COORD97":2543536.9100000001,"ADDRESS":"勝利路５０號六樓之６","OBJECTID":354779},"geometry":{"x":169830.25,"y":2543536.9100000039}},{"attributes":{"ID":354789,"DIS_CODE":0,"TOWNNAME":"東區","LI":"中西里","LIN":"8鄰","STREET":"勝利路","SECT":" ","MAREA":" ","LANE":" ","ALLEY":" ","HOUSE_NO":"５０號六樓之７","E_COORD97":169830.25,"N_COORD97":2543536.9100000001,"ADDRESS":"勝利路５０號六樓之７","OBJECTID":354780},"geometry":{"x":169830.25,"y":2543536.9100000039}},{"attributes":{"ID":354790,"DIS_CODE":0,"TOWNNAME":"東區","LI":"中西里","LIN":"8鄰","STREET":"勝利路","SECT":" ","MAREA":" ","LANE":" ","ALLEY":" ","HOUSE_NO":"５０號六樓之８","E_COORD97":169830.25,"N_COORD97":2543536.9100000001,"ADDRESS":"勝利路５０號六樓之８","OBJECTID":354781},"geometry":{"x":169830.25,"y":2543536.9100000039}},{"attributes":{"ID":354791,"DIS_CODE":0,"TOWNNAME":"東區","LI":"中西里","LIN":"8鄰","STREET":"勝利路","SECT":" ","MAREA":" ","LANE":" ","ALLEY":" ","HOUSE_NO":"５０號六樓之９","E_COORD97":169830.25,"N_COORD97":2543536.9100000001,"ADDRESS":"勝利路５０號六樓之９","OBJECTID":354782},"geometry":{"x":169830.25,"y":2543536.9100000039}},{"attributes":{"ID":354792,"DIS_CODE":0,"TOWNNAME":"東區","LI":"中西里","LIN":"8鄰","STREET":"勝利路","SECT":" ","MAREA":" ","LANE":" ","ALLEY":" ","HOUSE_NO":"５０號六樓之１０","E_COORD97":169830.25,"N_COORD97":2543536.9100000001,"ADDRESS":"勝利路５０號六樓之１０","OBJECTID":354783},"geometry":{"x":169830.25,"y":2543536.9100000039}},{"attributes":{"ID":354793,"DIS_CODE":0,"TOWNNAME":"東區","LI":"中西里","LIN":"8鄰","STREET":"勝利路","SECT":" ","MAREA":" ","LANE":" ","ALLEY":" ","HOUSE_NO":"５０號六樓之１１","E_COORD97":169830.25,"N_COORD97":2543536.9100000001,"ADDRESS":"勝利路５０號六樓之１１","OBJECTID":354784},"geometry":{"x":169830.25,"y":2543536.9100000039}},{"attributes":{"ID":354794,"DIS_CODE":0,"TOWNNAME":"東區","LI":"中西里","LIN":"8鄰","STREET":"勝利路","SECT":" ","MAREA":" ","LANE":" ","ALLEY":" ","HOUSE_NO":"５０號六樓之１２","E_COORD97":169830.25,"N_COORD97":2543536.9100000001,"ADDRESS":"勝利路５０號六樓之１２","OBJECTID":354785},"geometry":{"x":169830.25,"y":2543536.9100000039}},{"attributes":{"ID":354795,"DIS_CODE":0,"TOWNNAME":"東區","LI":"中西里","LIN":"8鄰","STREET":"勝利路","SECT":" ","MAREA":" ","LANE":" ","ALLEY":" ","HOUSE_NO":"５０號六樓之１３","E_COORD97":169830.25,"N_COORD97":2543536.9100000001,"ADDRESS":"勝利路５０號六樓之１３","OBJECTID":354786},"geometry":{"x":169830.25,"y":2543536.9100000039}},{"attributes":{"ID":354796,"DIS_CODE":0,"TOWNNAME":"新營區","LI":"太南里","LIN":"20鄰","STREET":" ","SECT":" ","MAREA":"太子宮","LANE":" ","ALLEY":" ","HOUSE_NO":"３４１號之５","E_COORD97":176349.01000000001,"N_COORD97":2576969.1699999999,"ADDRESS":"太子宮３４１號之５","OBJECTID":354787},"geometry":{"x":176349.01000000071,"y":2576969.1699999999}},{"attributes":{"ID":354797,"DIS_CODE":0,"TOWNNAME":"新營區","LI":"太北里","LIN":"20鄰","STREET":" ","SECT":" ","MAREA":"太子宮","LANE":" ","ALLEY":" ","HOUSE_NO":"１４０之６７號","E_COORD97":175170.10000000001,"N_COORD97":2576409.1699999999,"ADDRESS":"太子宮１４０之６７號","OBJECTID":354788},"geometry":{"x":175170.10000000056,"y":2576409.1700000018}},{"attributes":{"ID":354798,"DIS_CODE":0,"TOWNNAME":"新營區","LI":"太南里","LIN":"20鄰","STREET":" ","SECT":" ","MAREA":"太子宮","LANE":" ","ALLEY":" ","HOUSE_NO":"３４１號之１","E_COORD97":176374.29999999999,"N_COORD97":2576942.46,"ADDRESS":"太子宮３４１號之１","OBJECTID":354789},"geometry":{"x":176374.29999999981,"y":2576942.459999999}},{"attributes":{"ID":354799,"DIS_CODE":0,"TOWNNAME":"新營區","LI":"太北里","LIN":"20鄰","STREET":" ","SECT":" ","MAREA":"太子宮","LANE":" ","ALLEY":" ","HOUSE_NO":"１３８號","E_COORD97":175845.95999999999,"N_COORD97":2576883.02,"ADDRESS":"太子宮１３８號","OBJECTID":354790},"geometry":{"x":175845.96000000089,"y":2576883.0199999977}},{"attributes":{"ID":354800,"DIS_CODE":0,"TOWNNAME":"新營區","LI":"太南里","LIN":"20鄰","STREET":" ","SECT":" ","MAREA":"太子宮","LANE":" ","ALLEY":" ","HOUSE_NO":"１６４號","E_COORD97":176247.53,"N_COORD97":2576996.1899999999,"ADDRESS":"太子宮１６４號","OBJECTID":354791},"geometry":{"x":176247.53000000119,"y":2576996.1899999995}},{"attributes":{"ID":354801,"DIS_CODE":0,"TOWNNAME":"新營區","LI":"太北里","LIN":"20鄰","STREET":" ","SECT":" ","MAREA":"太子宮","LANE":" ","ALLEY":" ","HOUSE_NO":"１４２之８０號","E_COORD97":175554.76999999999,"N_COORD97":2577022.98,"ADDRESS":"太子宮１４２之８０號","OBJECTID":354792},"geometry":{"x":175554.77000000048,"y":2577022.9800000004}},{"attributes":{"ID":354802,"DIS_CODE":0,"TOWNNAME":"楠西區","LI":"東勢里","LIN":"20鄰","STREET":"忠孝路","SECT":" ","MAREA":" ","LANE":"７１巷","ALLEY":" ","HOUSE_NO":"１號","E_COORD97":197620.59,"N_COORD97":2564173.25,"ADDRESS":"忠孝路７１巷１號","OBJECTID":354793},"geometry":{"x":197620.58999999892,"y":2564173.2500000019}},{"attributes":{"ID":354803,"DIS_CODE":0,"TOWNNAME":"柳營區","LI":"東昇里","LIN":"20鄰","STREET":"十美街","SECT":" ","MAREA":" ","LANE":"２３２巷","ALLEY":" ","HOUSE_NO":"５號","E_COORD97":180383.23000000001,"N_COORD97":2575573.0699999998,"ADDRESS":"十美街２３２巷５號","OBJECTID":354794},"geometry":{"x":180383.23000000045,"y":2575573.0700000022}},{"attributes":{"ID":354804,"DIS_CODE":0,"TOWNNAME":"柳營區","LI":"東昇里","LIN":"20鄰","STREET":"十美街","SECT":" ","MAREA":" ","LANE":"２３２巷","ALLEY":" ","HOUSE_NO":"７號","E_COORD97":180383.29000000001,"N_COORD97":2575577.21,"ADDRESS":"十美街２３２巷７號","OBJECTID":354795},"geometry":{"x":180383.29000000097,"y":2575577.2100000009}},{"attributes":{"ID":354805,"DIS_CODE":0,"TOWNNAME":"新營區","LI":"忠政里","LIN":"20鄰","STREET":"府西路","SECT":" ","MAREA":" ","LANE":"２５７巷","ALLEY":" ","HOUSE_NO":"２號","E_COORD97":179789.12,"N_COORD97":2579682.27,"ADDRESS":"府西路２５７巷２號","OBJECTID":354796},"geometry":{"x":179789.12000000197,"y":2579682.2700000014}},{"attributes":{"ID":354806,"DIS_CODE":0,"TOWNNAME":"新營區","LI":"新北里","LIN":"20鄰","STREET":"民生路","SECT":" ","MAREA":" ","LANE":"３３６巷","ALLEY":" ","HOUSE_NO":"７０號","E_COORD97":179019.53,"N_COORD97":2579185.1499999999,"ADDRESS":"民生路３３６巷７０號","OBJECTID":354797},"geometry":{"x":179019.53000000026,"y":2579185.1500000041}},{"attributes":{"ID":354807,"DIS_CODE":0,"TOWNNAME":"新營區","LI":"忠政里","LIN":"20鄰","STREET":"府西路","SECT":" ","MAREA":" ","LANE":"２５７巷","ALLEY":" ","HOUSE_NO":"３８號","E_COORD97":179706.54000000001,"N_COORD97":2579687.1000000001,"ADDRESS":"府西路２５７巷３８號","OBJECTID":354798},"geometry":{"x":179706.5400000019,"y":2579687.1000000015}},{"attributes":{"ID":354808,"DIS_CODE":0,"TOWNNAME":"東區","LI":"中西里","LIN":"8鄰","STREET":"勝利路","SECT":" ","MAREA":" ","LANE":" ","ALLEY":" ","HOUSE_NO":"５０號六樓之１４","E_COORD97":169830.25,"N_COORD97":2543536.9100000001,"ADDRESS":"勝利路５０號六樓之１４","OBJECTID":354799},"geometry":{"x":169830.25,"y":2543536.9100000039}},{"attributes":{"ID":354809,"DIS_CODE":0,"TOWNNAME":"東區","LI":"中西里","LIN":"8鄰","STREET":"勝利路","SECT":" ","MAREA":" ","LANE":" ","ALLEY":" ","HOUSE_NO":"５０號六樓之１５","E_COORD97":169830.25,"N_COORD97":2543536.9100000001,"ADDRESS":"勝利路５０號六樓之１５","OBJECTID":354800},"geometry":{"x":169830.25,"y":2543536.9100000039}}]}