{"displayFieldName":"TOWNNAME","fieldAliases":{"ID":"ID","DIS_CODE":"DIS_CODE","TOWNNAME":"TOWNNAME","LI":"LI","LIN":"LIN","STREET":"STREET","SECT":"SECT","MAREA":"MAREA","LANE":"LANE","ALLEY":"ALLEY","HOUSE_NO":"HOUSE_NO","E_COORD97":"E_COORD97","N_COORD97":"N_COORD97","ADDRESS":"ADDRESS","OBJECTID":"OBJECTID"},"geometryType":"esriGeometryPoint","spatialReference":{"wkid":102443,"latestWkid":3826},"fields":[{"name":"ID","type":"esriFieldTypeDouble","alias":"ID"},{"name":"DIS_CODE","type":"esriFieldTypeInteger","alias":"DIS_CODE"},{"name":"TOWNNAME","type":"esriFieldTypeString","alias":"TOWNNAME","length":8},{"name":"LI","type":"esriFieldTypeString","alias":"LI","length":8},{"name":"LIN","type":"esriFieldTypeString","alias":"LIN","length":12},{"name":"STREET","type":"esriFieldTypeString","alias":"STREET","length":20},{"name":"SECT","type":"esriFieldTypeString","alias":"SECT","length":8},{"name":"MAREA","type":"esriFieldTypeString","alias":"MAREA","length":12},{"name":"LANE","type":"esriFieldTypeString","alias":"LANE","length":10},{"name":"ALLEY","type":"esriFieldTypeString","alias":"ALLEY","length":10},{"name":"HOUSE_NO","type":"esriFieldTypeString","alias":"HOUSE_NO","length":20},{"name":"E_COORD97","type":"esriFieldTypeDouble","alias":"E_COORD97"},{"name":"N_COORD97","type":"esriFieldTypeDouble","alias":"N_COORD97"},{"name":"ADDRESS","type":"esriFieldTypeString","alias":"ADDRESS","length":50},{"name":"OBJECTID","type":"esriFieldTypeOID","alias":"OBJECTID"}],"features":[{"attributes":{"ID":224205,"DIS_CODE":0,"TOWNNAME":"永康區","LI":"\u25A0行里","LIN":"45鄰","STREET":"中正南路","SECT":" ","MAREA":" ","LANE":"７２６巷","ALLEY":" ","HOUSE_NO":"１２號","E_COORD97":171817.04000000001,"N_COORD97":2548850.5899999999,"ADDRESS":"中正南路７２６巷１２號","OBJECTID":224201},"geometry":{"x":171817.0400000019,"y":2548850.5899999999}},{"attributes":{"ID":224206,"DIS_CODE":0,"TOWNNAME":"仁德區","LI":"仁義里","LIN":"1鄰","STREET":"義林六街","SECT":" ","MAREA":" ","LANE":" ","ALLEY":" ","HOUSE_NO":"９號","E_COORD97":174461.32000000001,"N_COORD97":2541047.02,"ADDRESS":"義林六街９號","OBJECTID":224202},"geometry":{"x":174461.3200000003,"y":2541047.0200000033}},{"attributes":{"ID":224207,"DIS_CODE":0,"TOWNNAME":"仁德區","LI":"仁義里","LIN":"1鄰","STREET":"義林五街","SECT":" ","MAREA":" ","LANE":" ","ALLEY":" ","HOUSE_NO":"５２號","E_COORD97":174338.79000000001,"N_COORD97":2541030.27,"ADDRESS":"義林五街５２號","OBJECTID":224203},"geometry":{"x":174338.79000000004,"y":2541030.2699999996}},{"attributes":{"ID":224208,"DIS_CODE":0,"TOWNNAME":"仁德區","LI":"仁義里","LIN":"1鄰","STREET":"義林六街","SECT":" ","MAREA":" ","LANE":" ","ALLEY":" ","HOUSE_NO":"１１１號","E_COORD97":174173.48999999999,"N_COORD97":2541080.2599999998,"ADDRESS":"義林六街１１１號","OBJECTID":224204},"geometry":{"x":174173.49000000022,"y":2541080.2600000016}},{"attributes":{"ID":224209,"DIS_CODE":0,"TOWNNAME":"仁德區","LI":"仁義里","LIN":"1鄰","STREET":"義林三街","SECT":" ","MAREA":" ","LANE":" ","ALLEY":" ","HOUSE_NO":"２０號","E_COORD97":174438.70999999999,"N_COORD97":2540963.27,"ADDRESS":"義林三街２０號","OBJECTID":224205},"geometry":{"x":174438.71000000089,"y":2540963.2699999996}},{"attributes":{"ID":224210,"DIS_CODE":0,"TOWNNAME":"仁德區","LI":"仁義里","LIN":"1鄰","STREET":"義林五街","SECT":" ","MAREA":" ","LANE":" ","ALLEY":" ","HOUSE_NO":"５４號","E_COORD97":174334.70999999999,"N_COORD97":2541030.77,"ADDRESS":"義林五街５４號","OBJECTID":224206},"geometry":{"x":174334.70999999996,"y":2541030.7699999996}},{"attributes":{"ID":224211,"DIS_CODE":0,"TOWNNAME":"仁德區","LI":"仁義里","LIN":"1鄰","STREET":"義林五街","SECT":" ","MAREA":" ","LANE":" ","ALLEY":" ","HOUSE_NO":"１８號","E_COORD97":174420.42999999999,"N_COORD97":2541020.27,"ADDRESS":"義林五街１８號","OBJECTID":224207},"geometry":{"x":174420.4299999997,"y":2541020.2699999996}},{"attributes":{"ID":224212,"DIS_CODE":0,"TOWNNAME":"仁德區","LI":"仁義里","LIN":"1鄰","STREET":"義林六街","SECT":" ","MAREA":" ","LANE":" ","ALLEY":" ","HOUSE_NO":"３３號","E_COORD97":174386.07000000001,"N_COORD97":2541059.02,"ADDRESS":"義林六街３３號","OBJECTID":224208},"geometry":{"x":174386.07000000123,"y":2541059.0199999996}},{"attributes":{"ID":224213,"DIS_CODE":0,"TOWNNAME":"永康區","LI":"中華里","LIN":"12鄰","STREET":"小東路","SECT":" ","MAREA":" ","LANE":"５９１巷","ALLEY":" ","HOUSE_NO":"１８號","E_COORD97":171842.32000000001,"N_COORD97":2544416.8599999999,"ADDRESS":"小東路５９１巷１８號","OBJECTID":224209},"geometry":{"x":171842.3200000003,"y":2544416.8599999994}},{"attributes":{"ID":224214,"DIS_CODE":0,"TOWNNAME":"南區","LI":"明德里","LIN":"14鄰","STREET":"新都路","SECT":" ","MAREA":" ","LANE":" ","ALLEY":" ","HOUSE_NO":"２４７號","E_COORD97":167946.23999999999,"N_COORD97":2541099.5600000001,"ADDRESS":"新都路２４７號","OBJECTID":224210},"geometry":{"x":167946.24000000115,"y":2541099.5600000024}},{"attributes":{"ID":224215,"DIS_CODE":0,"TOWNNAME":"永康區","LI":"\u25A0行里","LIN":"45鄰","STREET":"中正南路","SECT":" ","MAREA":" ","LANE":"７２６巷","ALLEY":" ","HOUSE_NO":"６號","E_COORD97":171765.42999999999,"N_COORD97":2548884.4900000002,"ADDRESS":"中正南路７２６巷６號","OBJECTID":224211},"geometry":{"x":171765.43000000063,"y":2548884.4900000021}},{"attributes":{"ID":224216,"DIS_CODE":0,"TOWNNAME":"永康區","LI":"三合里","LIN":"14鄰","STREET":"南工街","SECT":" ","MAREA":" ","LANE":" ","ALLEY":" ","HOUSE_NO":"１７６號","E_COORD97":172034.73999999999,"N_COORD97":2545852.23,"ADDRESS":"南工街１７６號","OBJECTID":224212},"geometry":{"x":172034.74000000115,"y":2545852.2300000023}},{"attributes":{"ID":224217,"DIS_CODE":0,"TOWNNAME":"永康區","LI":"龍潭里","LIN":"45鄰","STREET":"永平街","SECT":" ","MAREA":" ","LANE":"２３２巷","ALLEY":" ","HOUSE_NO":"３０號","E_COORD97":174658.91,"N_COORD97":2547119.9900000002,"ADDRESS":"永平街２３２巷３０號","OBJECTID":224213},"geometry":{"x":174658.91000000015,"y":2547119.9900000039}},{"attributes":{"ID":224218,"DIS_CODE":0,"TOWNNAME":"永康區","LI":"西灣里","LIN":"32鄰","STREET":"國光八街","SECT":" ","MAREA":" ","LANE":" ","ALLEY":" ","HOUSE_NO":"６８號","E_COORD97":174244.73999999999,"N_COORD97":2545773.21,"ADDRESS":"國光八街６８號","OBJECTID":224214},"geometry":{"x":174244.74000000022,"y":2545773.2100000046}},{"attributes":{"ID":224219,"DIS_CODE":0,"TOWNNAME":"永康區","LI":"龍潭里","LIN":"45鄰","STREET":"永平街","SECT":" ","MAREA":" ","LANE":"２３２巷","ALLEY":" ","HOUSE_NO":"２８號","E_COORD97":174658.91,"N_COORD97":2547119.9900000002,"ADDRESS":"永平街２３２巷２８號","OBJECTID":224215},"geometry":{"x":174658.91000000015,"y":2547119.9900000039}},{"attributes":{"ID":224220,"DIS_CODE":0,"TOWNNAME":"永康區","LI":"龍潭里","LIN":"45鄰","STREET":"永平街","SECT":" ","MAREA":" ","LANE":"２３２巷","ALLEY":" ","HOUSE_NO":"１１號","E_COORD97":174658.51000000001,"N_COORD97":2547103.7400000002,"ADDRESS":"永平街２３２巷１１號","OBJECTID":224216},"geometry":{"x":174658.51000000071,"y":2547103.7400000002}},{"attributes":{"ID":224221,"DIS_CODE":0,"TOWNNAME":"仁德區","LI":"仁義里","LIN":"45鄰","STREET":"仁義路","SECT":" ","MAREA":" ","LANE":"９８巷","ALLEY":" ","HOUSE_NO":"３８號","E_COORD97":173609.12,"N_COORD97":2540845.77,"ADDRESS":"仁義路９８巷３８號","OBJECTID":224217},"geometry":{"x":173609.12000000104,"y":2540845.7700000014}},{"attributes":{"ID":224222,"DIS_CODE":0,"TOWNNAME":"仁德區","LI":"仁義里","LIN":"45鄰","STREET":"仁義路","SECT":" ","MAREA":" ","LANE":"９８巷","ALLEY":" ","HOUSE_NO":"１２號","E_COORD97":173615.10999999999,"N_COORD97":2540920.77,"ADDRESS":"仁義路９８巷１２號","OBJECTID":224218},"geometry":{"x":173615.11000000034,"y":2540920.7700000014}},{"attributes":{"ID":224223,"DIS_CODE":0,"TOWNNAME":"仁德區","LI":"仁義里","LIN":"45鄰","STREET":"仁義路","SECT":" ","MAREA":" ","LANE":"９８巷","ALLEY":" ","HOUSE_NO":"４０號","E_COORD97":173604.91,"N_COORD97":2540845.27,"ADDRESS":"仁義路９８巷４０號","OBJECTID":224219},"geometry":{"x":173604.91000000108,"y":2540845.2700000033}},{"attributes":{"ID":224224,"DIS_CODE":0,"TOWNNAME":"東區","LI":"新東里","LIN":"4鄰","STREET":"林森路","SECT":"二段","MAREA":" ","LANE":" ","ALLEY":" ","HOUSE_NO":"３８號","E_COORD97":170342.41,"N_COORD97":2543002.0499999998,"ADDRESS":"林森路二段３８號","OBJECTID":224220},"geometry":{"x":170342.41000000015,"y":2543002.0500000026}},{"attributes":{"ID":224225,"DIS_CODE":0,"TOWNNAME":"東區","LI":"裕聖里","LIN":"4鄰","STREET":"裕信五街","SECT":" ","MAREA":" ","LANE":" ","ALLEY":" ","HOUSE_NO":"５６號","E_COORD97":172669.63,"N_COORD97":2542355.1699999999,"ADDRESS":"裕信五街５６號","OBJECTID":224221},"geometry":{"x":172669.63000000082,"y":2542355.1700000037}},{"attributes":{"ID":224226,"DIS_CODE":0,"TOWNNAME":"永康區","LI":"龍潭里","LIN":"45鄰","STREET":"永平街","SECT":" ","MAREA":" ","LANE":"２３２巷","ALLEY":" ","HOUSE_NO":"５號","E_COORD97":174657.26000000001,"N_COORD97":2547103.7400000002,"ADDRESS":"永平街２３２巷５號","OBJECTID":224222},"geometry":{"x":174657.26000000071,"y":2547103.7400000002}},{"attributes":{"ID":224227,"DIS_CODE":0,"TOWNNAME":"永康區","LI":"\u25A0行里","LIN":"45鄰","STREET":"中正南路","SECT":" ","MAREA":" ","LANE":"７２６巷","ALLEY":" ","HOUSE_NO":"１０號之１","E_COORD97":171806.44,"N_COORD97":2548861.3900000001,"ADDRESS":"中正南路７２６巷１０號之１","OBJECTID":224223},"geometry":{"x":171806.44000000134,"y":2548861.3900000025}},{"attributes":{"ID":224228,"DIS_CODE":0,"TOWNNAME":"永康區","LI":"\u25A0行里","LIN":"45鄰","STREET":"中正南路","SECT":" ","MAREA":" ","LANE":"７２６巷","ALLEY":" ","HOUSE_NO":"１１號","E_COORD97":171813.5,"N_COORD97":2548853.5899999999,"ADDRESS":"中正南路７２６巷１１號","OBJECTID":224224},"geometry":{"x":171813.5,"y":2548853.5899999999}},{"attributes":{"ID":224229,"DIS_CODE":0,"TOWNNAME":"永康區","LI":"\u25A0行里","LIN":"45鄰","STREET":"中正路","SECT":" ","MAREA":" ","LANE":"６３５巷","ALLEY":" ","HOUSE_NO":"１５號之２","E_COORD97":171723.04999999999,"N_COORD97":2548879.8300000001,"ADDRESS":"中正路６３５巷１５號之２","OBJECTID":224225},"geometry":{"x":171723.04999999981,"y":2548879.8300000001}},{"attributes":{"ID":224230,"DIS_CODE":0,"TOWNNAME":"永康區","LI":"\u25A0行里","LIN":"45鄰","STREET":"中正南路","SECT":" ","MAREA":" ","LANE":"７２６巷","ALLEY":" ","HOUSE_NO":"８號","E_COORD97":171786.25,"N_COORD97":2548889,"ADDRESS":"中正南路７２６巷８號","OBJECTID":224226},"geometry":{"x":171786.25,"y":2548889}},{"attributes":{"ID":224231,"DIS_CODE":0,"TOWNNAME":"永康區","LI":"\u25A0行里","LIN":"45鄰","STREET":"中正南路","SECT":" ","MAREA":" ","LANE":"７２６巷","ALLEY":" ","HOUSE_NO":"１０號之２","E_COORD97":171810.72,"N_COORD97":2548857.6400000001,"ADDRESS":"中正南路７２６巷１０號之２","OBJECTID":224227},"geometry":{"x":171810.72000000067,"y":2548857.6400000006}},{"attributes":{"ID":224232,"DIS_CODE":0,"TOWNNAME":"東區","LI":"裕聖里","LIN":"4鄰","STREET":"裕信五街","SECT":" ","MAREA":" ","LANE":" ","ALLEY":" ","HOUSE_NO":"５８號","E_COORD97":172677.69,"N_COORD97":2542357.4900000002,"ADDRESS":"裕信五街５８號","OBJECTID":224228},"geometry":{"x":172677.69000000227,"y":2542357.4900000021}},{"attributes":{"ID":224233,"DIS_CODE":0,"TOWNNAME":"東區","LI":"裕聖里","LIN":"4鄰","STREET":"裕信五街","SECT":" ","MAREA":" ","LANE":" ","ALLEY":" ","HOUSE_NO":"６０號","E_COORD97":172684.59,"N_COORD97":2542357.46,"ADDRESS":"裕信五街６０號","OBJECTID":224229},"geometry":{"x":172684.59000000078,"y":2542357.4600000046}},{"attributes":{"ID":224234,"DIS_CODE":0,"TOWNNAME":"東區","LI":"裕聖里","LIN":"4鄰","STREET":"裕信五街","SECT":" ","MAREA":" ","LANE":" ","ALLEY":" ","HOUSE_NO":"６２號","E_COORD97":172693.17999999999,"N_COORD97":2542355.0899999999,"ADDRESS":"裕信五街６２號","OBJECTID":224230},"geometry":{"x":172693.1799999997,"y":2542355.0899999999}},{"attributes":{"ID":224235,"DIS_CODE":0,"TOWNNAME":"東區","LI":"崇文里","LIN":"1鄰","STREET":"崇德十五街","SECT":" ","MAREA":" ","LANE":" ","ALLEY":" ","HOUSE_NO":"８２之１號","E_COORD97":171037.60999999999,"N_COORD97":2541175.0099999998,"ADDRESS":"崇德十五街８２之１號","OBJECTID":224231},"geometry":{"x":171037.61000000127,"y":2541175.0099999998}},{"attributes":{"ID":224236,"DIS_CODE":0,"TOWNNAME":"永康區","LI":"龍潭里","LIN":"45鄰","STREET":"中山北路","SECT":" ","MAREA":" ","LANE":"２６４巷","ALLEY":" ","HOUSE_NO":"２８８號之３","E_COORD97":174716.95999999999,"N_COORD97":2546888.54,"ADDRESS":"中山北路２６４巷２８８號之３","OBJECTID":224232},"geometry":{"x":174716.96000000089,"y":2546888.540000001}},{"attributes":{"ID":224237,"DIS_CODE":0,"TOWNNAME":"永康區","LI":"龍潭里","LIN":"45鄰","STREET":"永平街","SECT":" ","MAREA":" ","LANE":"２３２巷","ALLEY":" ","HOUSE_NO":"２０號","E_COORD97":174658.91,"N_COORD97":2547119.9900000002,"ADDRESS":"永平街２３２巷２０號","OBJECTID":224233},"geometry":{"x":174658.91000000015,"y":2547119.9900000039}},{"attributes":{"ID":224238,"DIS_CODE":0,"TOWNNAME":"永康區","LI":"龍潭里","LIN":"45鄰","STREET":"中山北路","SECT":" ","MAREA":" ","LANE":"２６４巷","ALLEY":" ","HOUSE_NO":"２８８號之１","E_COORD97":174716.85999999999,"N_COORD97":2546888.54,"ADDRESS":"中山北路２６４巷２８８號之１","OBJECTID":224234},"geometry":{"x":174716.86000000034,"y":2546888.540000001}},{"attributes":{"ID":224239,"DIS_CODE":0,"TOWNNAME":"永康區","LI":"龍潭里","LIN":"45鄰","STREET":"永平街","SECT":" ","MAREA":" ","LANE":"２３２巷","ALLEY":" ","HOUSE_NO":"２３號","E_COORD97":174658.91,"N_COORD97":2547119.9900000002,"ADDRESS":"永平街２３２巷２３號","OBJECTID":224235},"geometry":{"x":174658.91000000015,"y":2547119.9900000039}},{"attributes":{"ID":224240,"DIS_CODE":0,"TOWNNAME":"東區","LI":"德高里","LIN":"10鄰","STREET":"自由路","SECT":"一段","MAREA":" ","LANE":" ","ALLEY":" ","HOUSE_NO":"２７號","E_COORD97":171388.42000000001,"N_COORD97":2540843,"ADDRESS":"自由路一段２７號","OBJECTID":224236},"geometry":{"x":171388.41999999993,"y":2540843}},{"attributes":{"ID":224241,"DIS_CODE":0,"TOWNNAME":"東區","LI":"裕聖里","LIN":"4鄰","STREET":"裕信三街","SECT":" ","MAREA":" ","LANE":" ","ALLEY":" ","HOUSE_NO":"２８６號","E_COORD97":172692.67000000001,"N_COORD97":2542334.9300000002,"ADDRESS":"裕信三街２８６號","OBJECTID":224237},"geometry":{"x":172692.67000000086,"y":2542334.9299999997}},{"attributes":{"ID":224242,"DIS_CODE":0,"TOWNNAME":"東區","LI":"裕聖里","LIN":"4鄰","STREET":"裕信三街","SECT":" ","MAREA":" ","LANE":" ","ALLEY":" ","HOUSE_NO":"２８８號","E_COORD97":172685.07999999999,"N_COORD97":2542330.9500000002,"ADDRESS":"裕信三街２８８號","OBJECTID":224238},"geometry":{"x":172685.08000000101,"y":2542330.9499999993}},{"attributes":{"ID":224243,"DIS_CODE":0,"TOWNNAME":"東區","LI":"裕聖里","LIN":"4鄰","STREET":"裕信三街","SECT":" ","MAREA":" ","LANE":" ","ALLEY":" ","HOUSE_NO":"２９０號","E_COORD97":172677.57000000001,"N_COORD97":2542333.3900000001,"ADDRESS":"裕信三街２９０號","OBJECTID":224239},"geometry":{"x":172677.5700000003,"y":2542333.3900000006}},{"attributes":{"ID":224244,"DIS_CODE":0,"TOWNNAME":"安平區","LI":"育平里","LIN":"35鄰","STREET":"郡平路","SECT":" ","MAREA":" ","LANE":" ","ALLEY":" ","HOUSE_NO":"２９８號三樓","E_COORD97":164363.31,"N_COORD97":2543389.27,"ADDRESS":"郡平路２９８號三樓","OBJECTID":224240},"geometry":{"x":164363.31000000052,"y":2543389.2700000014}},{"attributes":{"ID":224245,"DIS_CODE":0,"TOWNNAME":"東區","LI":"小東里","LIN":"35鄰","STREET":"東興路","SECT":" ","MAREA":" ","LANE":" ","ALLEY":" ","HOUSE_NO":"３６７號四樓之４","E_COORD97":171012.20999999999,"N_COORD97":2544295.2400000002,"ADDRESS":"東興路３６７號四樓之４","OBJECTID":224241},"geometry":{"x":171012.20999999903,"y":2544295.2400000021}},{"attributes":{"ID":224246,"DIS_CODE":0,"TOWNNAME":"永康區","LI":"龍潭里","LIN":"45鄰","STREET":"永平街","SECT":" ","MAREA":" ","LANE":"２３２巷","ALLEY":" ","HOUSE_NO":"２５號","E_COORD97":174658.91,"N_COORD97":2547119.9900000002,"ADDRESS":"永平街２３２巷２５號","OBJECTID":224242},"geometry":{"x":174658.91000000015,"y":2547119.9900000039}},{"attributes":{"ID":224247,"DIS_CODE":0,"TOWNNAME":"永康區","LI":"龍潭里","LIN":"45鄰","STREET":"中山北路","SECT":" ","MAREA":" ","LANE":"２６４巷","ALLEY":" ","HOUSE_NO":"２９０號之１","E_COORD97":174717.01000000001,"N_COORD97":2546881.3999999999,"ADDRESS":"中山北路２６４巷２９０號之１","OBJECTID":224243},"geometry":{"x":174717.00999999978,"y":2546881.4000000022}},{"attributes":{"ID":224248,"DIS_CODE":0,"TOWNNAME":"永康區","LI":"龍潭里","LIN":"45鄰","STREET":"永平街","SECT":" ","MAREA":" ","LANE":"２３２巷","ALLEY":" ","HOUSE_NO":"２１號","E_COORD97":174658.91,"N_COORD97":2547119.9900000002,"ADDRESS":"永平街２３２巷２１號","OBJECTID":224244},"geometry":{"x":174658.91000000015,"y":2547119.9900000039}},{"attributes":{"ID":224249,"DIS_CODE":0,"TOWNNAME":"中西區","LI":"郡西里","LIN":"11鄰","STREET":"康樂街","SECT":" ","MAREA":" ","LANE":" ","ALLEY":" ","HOUSE_NO":"５號","E_COORD97":167340.10999999999,"N_COORD97":2543396.71,"ADDRESS":"康樂街５號","OBJECTID":224245},"geometry":{"x":167340.11000000127,"y":2543396.7100000046}},{"attributes":{"ID":224250,"DIS_CODE":0,"TOWNNAME":"永康區","LI":"\u25A0行里","LIN":"45鄰","STREET":"中正南路","SECT":" ","MAREA":" ","LANE":"７２６巷","ALLEY":" ","HOUSE_NO":"３號","E_COORD97":171758.73000000001,"N_COORD97":2548896.5,"ADDRESS":"中正南路７２６巷３號","OBJECTID":224246},"geometry":{"x":171758.73000000138,"y":2548896.5000000019}},{"attributes":{"ID":224251,"DIS_CODE":0,"TOWNNAME":"永康區","LI":"龍潭里","LIN":"45鄰","STREET":"中山北路","SECT":" ","MAREA":" ","LANE":"２６４巷","ALLEY":" ","HOUSE_NO":"２９０號之２","E_COORD97":174717.14000000001,"N_COORD97":2546881.3999999999,"ADDRESS":"中山北路２６４巷２９０號之２","OBJECTID":224247},"geometry":{"x":174717.1400000006,"y":2546881.4000000022}},{"attributes":{"ID":224252,"DIS_CODE":0,"TOWNNAME":"永康區","LI":"中華里","LIN":"4鄰","STREET":"忠勇街","SECT":" ","MAREA":" ","LANE":"３２巷","ALLEY":" ","HOUSE_NO":"１４號","E_COORD97":171971.48999999999,"N_COORD97":2544419.3599999999,"ADDRESS":"忠勇街３２巷１４號","OBJECTID":224248},"geometry":{"x":171971.49000000022,"y":2544419.3600000013}},{"attributes":{"ID":224253,"DIS_CODE":0,"TOWNNAME":"永康區","LI":"三合里","LIN":"14鄰","STREET":"南工街","SECT":" ","MAREA":" ","LANE":" ","ALLEY":" ","HOUSE_NO":"２１７號","E_COORD97":172022.39999999999,"N_COORD97":2545907.75,"ADDRESS":"南工街２１７號","OBJECTID":224249},"geometry":{"x":172022.4000000013,"y":2545907.7500000037}},{"attributes":{"ID":224254,"DIS_CODE":0,"TOWNNAME":"永康區","LI":"中華里","LIN":"15鄰","STREET":"忠義街","SECT":" ","MAREA":" ","LANE":"６０巷","ALLEY":" ","HOUSE_NO":"３０號","E_COORD97":171802.98000000001,"N_COORD97":2544512.2799999998,"ADDRESS":"忠義街６０巷３０號","OBJECTID":224250},"geometry":{"x":171802.98000000138,"y":2544512.2799999993}},{"attributes":{"ID":224255,"DIS_CODE":0,"TOWNNAME":"永康區","LI":"中華里","LIN":"15鄰","STREET":"忠義街","SECT":" ","MAREA":" ","LANE":"４４巷","ALLEY":" ","HOUSE_NO":"１１號","E_COORD97":171765.39000000001,"N_COORD97":2544481.79,"ADDRESS":"忠義街４４巷１１號","OBJECTID":224251},"geometry":{"x":171765.3900000006,"y":2544481.7899999991}},{"attributes":{"ID":224256,"DIS_CODE":0,"TOWNNAME":"永康區","LI":"中華里","LIN":"15鄰","STREET":"忠義街","SECT":" ","MAREA":" ","LANE":"４４巷","ALLEY":" ","HOUSE_NO":"２５號","E_COORD97":171794.89999999999,"N_COORD97":2544482.3700000001,"ADDRESS":"忠義街４４巷２５號","OBJECTID":224252},"geometry":{"x":171794.9000000013,"y":2544482.370000001}},{"attributes":{"ID":224257,"DIS_CODE":0,"TOWNNAME":"仁德區","LI":"仁義里","LIN":"45鄰","STREET":"仁義路","SECT":" ","MAREA":" ","LANE":"９８巷","ALLEY":" ","HOUSE_NO":"４號","E_COORD97":173614.20000000001,"N_COORD97":2540936.77,"ADDRESS":"仁義路９８巷４號","OBJECTID":224253},"geometry":{"x":173614.20000000019,"y":2540936.7700000033}},{"attributes":{"ID":224258,"DIS_CODE":0,"TOWNNAME":"仁德區","LI":"仁義里","LIN":"45鄰","STREET":"仁義路","SECT":" ","MAREA":" ","LANE":"９８巷","ALLEY":" ","HOUSE_NO":"２號","E_COORD97":173614.32000000001,"N_COORD97":2540940.52,"ADDRESS":"仁義路９８巷２號","OBJECTID":224254},"geometry":{"x":173614.32000000123,"y":2540940.5199999996}},{"attributes":{"ID":224259,"DIS_CODE":0,"TOWNNAME":"仁德區","LI":"仁義里","LIN":"45鄰","STREET":"仁義路","SECT":" ","MAREA":" ","LANE":"９８巷","ALLEY":" ","HOUSE_NO":"６號","E_COORD97":173614.06,"N_COORD97":2540932.52,"ADDRESS":"仁義路９８巷６號","OBJECTID":224255},"geometry":{"x":173614.06000000052,"y":2540932.5200000014}},{"attributes":{"ID":224260,"DIS_CODE":0,"TOWNNAME":"仁德區","LI":"仁義里","LIN":"45鄰","STREET":"仁義路","SECT":" ","MAREA":" ","LANE":"７０巷","ALLEY":" ","HOUSE_NO":"９號","E_COORD97":173557.23000000001,"N_COORD97":2540917.02,"ADDRESS":"仁義路７０巷９號","OBJECTID":224256},"geometry":{"x":173557.23000000231,"y":2540917.0199999996}},{"attributes":{"ID":224261,"DIS_CODE":0,"TOWNNAME":"仁德區","LI":"仁義里","LIN":"45鄰","STREET":"仁義路","SECT":" ","MAREA":" ","LANE":"７０巷","ALLEY":" ","HOUSE_NO":"１３號","E_COORD97":173560.89000000001,"N_COORD97":2540899.5099999998,"ADDRESS":"仁義路７０巷１３號","OBJECTID":224257},"geometry":{"x":173560.8900000006,"y":2540899.5100000016}},{"attributes":{"ID":224262,"DIS_CODE":0,"TOWNNAME":"仁德區","LI":"仁義里","LIN":"45鄰","STREET":"仁義路","SECT":" ","MAREA":" ","LANE":"７０巷","ALLEY":" ","HOUSE_NO":"１１號","E_COORD97":173558.28,"N_COORD97":2540913.2599999998,"ADDRESS":"仁義路７０巷１１號","OBJECTID":224258},"geometry":{"x":173558.28000000212,"y":2540913.2600000035}},{"attributes":{"ID":224263,"DIS_CODE":0,"TOWNNAME":"仁德區","LI":"仁義里","LIN":"45鄰","STREET":"仁義路","SECT":" ","MAREA":" ","LANE":"７０巷","ALLEY":" ","HOUSE_NO":"５號","E_COORD97":173557.35999999999,"N_COORD97":2540924.77,"ADDRESS":"仁義路７０巷５號","OBJECTID":224259},"geometry":{"x":173557.36000000034,"y":2540924.7700000014}},{"attributes":{"ID":224264,"DIS_CODE":0,"TOWNNAME":"仁德區","LI":"仁義里","LIN":"45鄰","STREET":"仁義路","SECT":" ","MAREA":" ","LANE":"７０巷","ALLEY":" ","HOUSE_NO":"７號","E_COORD97":173557.01000000001,"N_COORD97":2540920.77,"ADDRESS":"仁義路７０巷７號","OBJECTID":224260},"geometry":{"x":173557.01000000071,"y":2540920.7700000014}},{"attributes":{"ID":224265,"DIS_CODE":0,"TOWNNAME":"仁德區","LI":"仁義里","LIN":"45鄰","STREET":"仁義路","SECT":" ","MAREA":" ","LANE":"７０巷","ALLEY":" ","HOUSE_NO":"１５號","E_COORD97":173561.42000000001,"N_COORD97":2540890.2599999998,"ADDRESS":"仁義路７０巷１５號","OBJECTID":224261},"geometry":{"x":173561.41999999993,"y":2540890.2600000016}},{"attributes":{"ID":224266,"DIS_CODE":0,"TOWNNAME":"仁德區","LI":"太子里","LIN":"45鄰","STREET":"太子一街","SECT":" ","MAREA":" ","LANE":"２７巷","ALLEY":" ","HOUSE_NO":"１２號","E_COORD97":174846.5,"N_COORD97":2543338.5099999998,"ADDRESS":"太子一街２７巷１２號","OBJECTID":224262},"geometry":{"x":174846.49999999907,"y":2543338.5099999998}},{"attributes":{"ID":224267,"DIS_CODE":0,"TOWNNAME":"仁德區","LI":"太子里","LIN":"45鄰","STREET":"太子一街","SECT":" ","MAREA":" ","LANE":"４３巷","ALLEY":" ","HOUSE_NO":"１３號","E_COORD97":174853.35000000001,"N_COORD97":2543298.0099999998,"ADDRESS":"太子一街４３巷１３號","OBJECTID":224263},"geometry":{"x":174853.34999999963,"y":2543298.0099999998}},{"attributes":{"ID":224268,"DIS_CODE":0,"TOWNNAME":"仁德區","LI":"太子里","LIN":"45鄰","STREET":"太子一街","SECT":" ","MAREA":" ","LANE":"４３巷","ALLEY":" ","HOUSE_NO":"１７號","E_COORD97":174865.34,"N_COORD97":2543291,"ADDRESS":"太子一街４３巷１７號","OBJECTID":224264},"geometry":{"x":174865.33999999985,"y":2543291}},{"attributes":{"ID":224269,"DIS_CODE":0,"TOWNNAME":"永康區","LI":"龍潭里","LIN":"45鄰","STREET":"永平街","SECT":" ","MAREA":" ","LANE":"２３２巷","ALLEY":" ","HOUSE_NO":"９號","E_COORD97":174657.26000000001,"N_COORD97":2547103.7400000002,"ADDRESS":"永平街２３２巷９號","OBJECTID":224265},"geometry":{"x":174657.26000000071,"y":2547103.7400000002}},{"attributes":{"ID":224270,"DIS_CODE":0,"TOWNNAME":"永康區","LI":"龍潭里","LIN":"45鄰","STREET":"永平街","SECT":" ","MAREA":" ","LANE":"２３２巷","ALLEY":" ","HOUSE_NO":"１５號","E_COORD97":174658.51000000001,"N_COORD97":2547103.7400000002,"ADDRESS":"永平街２３２巷１５號","OBJECTID":224266},"geometry":{"x":174658.51000000071,"y":2547103.7400000002}},{"attributes":{"ID":224271,"DIS_CODE":0,"TOWNNAME":"永康區","LI":"\u25A0洲里","LIN":"34鄰","STREET":"洲尾街","SECT":" ","MAREA":" ","LANE":"１９１巷","ALLEY":" ","HOUSE_NO":"１３號","E_COORD97":170796.54000000001,"N_COORD97":2548990.25,"ADDRESS":"洲尾街１９１巷１３號","OBJECTID":224267},"geometry":{"x":170796.5400000019,"y":2548990.2500000019}},{"attributes":{"ID":224272,"DIS_CODE":0,"TOWNNAME":"永康區","LI":"正強里","LIN":"45鄰","STREET":"中正路","SECT":" ","MAREA":" ","LANE":"２５６巷","ALLEY":" ","HOUSE_NO":"７號之２","E_COORD97":173181.79000000001,"N_COORD97":2547985.3100000001,"ADDRESS":"中正路２５６巷７號之２","OBJECTID":224268},"geometry":{"x":173181.7900000019,"y":2547985.3100000005}},{"attributes":{"ID":224273,"DIS_CODE":0,"TOWNNAME":"永康區","LI":"三合里","LIN":"8鄰","STREET":"南工街","SECT":" ","MAREA":" ","LANE":" ","ALLEY":" ","HOUSE_NO":"１１３號","E_COORD97":172090.81,"N_COORD97":2545741.7400000002,"ADDRESS":"南工街１１３號","OBJECTID":224269},"geometry":{"x":172090.80999999959,"y":2545741.7400000039}},{"attributes":{"ID":224274,"DIS_CODE":0,"TOWNNAME":"永康區","LI":"正強里","LIN":"45鄰","STREET":"中正路","SECT":" ","MAREA":" ","LANE":"２５６巷","ALLEY":" ","HOUSE_NO":"７號之２４","E_COORD97":173182.92999999999,"N_COORD97":2547985.3100000001,"ADDRESS":"中正路２５６巷７號之２４","OBJECTID":224270},"geometry":{"x":173182.9299999997,"y":2547985.3100000005}},{"attributes":{"ID":224275,"DIS_CODE":0,"TOWNNAME":"永康區","LI":"西灣里","LIN":"45鄰","STREET":"永華路","SECT":" ","MAREA":" ","LANE":"２０１巷","ALLEY":" ","HOUSE_NO":"１２號","E_COORD97":174032.07000000001,"N_COORD97":2545637.9900000002,"ADDRESS":"永華路２０１巷１２號","OBJECTID":224271},"geometry":{"x":174032.0700000003,"y":2545637.9900000002}},{"attributes":{"ID":224276,"DIS_CODE":0,"TOWNNAME":"仁德區","LI":"太子里","LIN":"45鄰","STREET":"太子路","SECT":" ","MAREA":" ","LANE":"１０１巷","ALLEY":" ","HOUSE_NO":"３６號","E_COORD97":174901.14999999999,"N_COORD97":2543326.5099999998,"ADDRESS":"太子路１０１巷３６號","OBJECTID":224272},"geometry":{"x":174901.15000000037,"y":2543326.5100000016}},{"attributes":{"ID":224277,"DIS_CODE":0,"TOWNNAME":"仁德區","LI":"太子里","LIN":"45鄰","STREET":"太子路","SECT":" ","MAREA":" ","LANE":"１０１巷","ALLEY":" ","HOUSE_NO":"４８號","E_COORD97":174871.51999999999,"N_COORD97":2543288.75,"ADDRESS":"太子路１０１巷４８號","OBJECTID":224273},"geometry":{"x":174871.52000000142,"y":2543288.75}},{"attributes":{"ID":224278,"DIS_CODE":0,"TOWNNAME":"仁德區","LI":"太子里","LIN":"45鄰","STREET":"太子路","SECT":" ","MAREA":" ","LANE":"１０１巷","ALLEY":" ","HOUSE_NO":"４０號","E_COORD97":174891.89000000001,"N_COORD97":2543309.5099999998,"ADDRESS":"太子路１０１巷４０號","OBJECTID":224274},"geometry":{"x":174891.8900000006,"y":2543309.5100000016}},{"attributes":{"ID":224279,"DIS_CODE":0,"TOWNNAME":"永康區","LI":"中華里","LIN":"13鄰","STREET":"小東路","SECT":" ","MAREA":" ","LANE":"５９１巷","ALLEY":" ","HOUSE_NO":"１１號","E_COORD97":171823.09,"N_COORD97":2544428.2999999998,"ADDRESS":"小東路５９１巷１１號","OBJECTID":224275},"geometry":{"x":171823.08999999985,"y":2544428.3000000007}},{"attributes":{"ID":224280,"DIS_CODE":0,"TOWNNAME":"永康區","LI":"中華里","LIN":"15鄰","STREET":"小東路","SECT":" ","MAREA":" ","LANE":"５９１巷","ALLEY":" ","HOUSE_NO":"４１號","E_COORD97":171820.17999999999,"N_COORD97":2544513.2000000002,"ADDRESS":"小東路５９１巷４１號","OBJECTID":224276},"geometry":{"x":171820.1799999997,"y":2544513.1999999993}},{"attributes":{"ID":224281,"DIS_CODE":0,"TOWNNAME":"永康區","LI":"中華里","LIN":"1鄰","STREET":"小東路","SECT":" ","MAREA":" ","LANE":"６８５巷","ALLEY":" ","HOUSE_NO":"６號之２７","E_COORD97":172052.26999999999,"N_COORD97":2544383.3599999999,"ADDRESS":"小東路６８５巷６號之２７","OBJECTID":224277},"geometry":{"x":172052.27000000142,"y":2544383.3599999994}},{"attributes":{"ID":224282,"DIS_CODE":0,"TOWNNAME":"永康區","LI":"三合里","LIN":"25鄰","STREET":"中山東路","SECT":" ","MAREA":" ","LANE":" ","ALLEY":" ","HOUSE_NO":"１７５號","E_COORD97":171803.26999999999,"N_COORD97":2545725.3999999999,"ADDRESS":"中山東路１７５號","OBJECTID":224278},"geometry":{"x":171803.27000000048,"y":2545725.4000000022}},{"attributes":{"ID":224283,"DIS_CODE":0,"TOWNNAME":"永康區","LI":"大灣里","LIN":"14鄰","STREET":"民族路","SECT":" ","MAREA":" ","LANE":" ","ALLEY":" ","HOUSE_NO":"３９３號","E_COORD97":174845.87,"N_COORD97":2545312.2400000002,"ADDRESS":"民族路３９３號","OBJECTID":224279},"geometry":{"x":174845.87000000197,"y":2545312.2400000021}},{"attributes":{"ID":224284,"DIS_CODE":0,"TOWNNAME":"永康區","LI":"龍潭里","LIN":"45鄰","STREET":"永平街","SECT":" ","MAREA":" ","LANE":"２３２巷","ALLEY":" ","HOUSE_NO":"１３號","E_COORD97":174658.51000000001,"N_COORD97":2547103.7400000002,"ADDRESS":"永平街２３２巷１３號","OBJECTID":224280},"geometry":{"x":174658.51000000071,"y":2547103.7400000002}},{"attributes":{"ID":224285,"DIS_CODE":0,"TOWNNAME":"新市區","LI":"新和里","LIN":"45鄰","STREET":"信義街","SECT":" ","MAREA":" ","LANE":"１０５巷","ALLEY":" ","HOUSE_NO":"８號","E_COORD97":177177.63,"N_COORD97":2553011.52,"ADDRESS":"信義街１０５巷８號","OBJECTID":224281},"geometry":{"x":177177.62999999989,"y":2553011.5200000033}},{"attributes":{"ID":224286,"DIS_CODE":0,"TOWNNAME":"永康區","LI":"\u25A0洲里","LIN":"37鄰","STREET":"\u25A0洲二街","SECT":" ","MAREA":" ","LANE":"１９７巷","ALLEY":" ","HOUSE_NO":"９號","E_COORD97":171725.37,"N_COORD97":2549458.75,"ADDRESS":"\u25A0洲二街１９７巷９號","OBJECTID":224282},"geometry":{"x":171725.37000000104,"y":2549458.7500000019}},{"attributes":{"ID":224287,"DIS_CODE":0,"TOWNNAME":"永康區","LI":"正強里","LIN":"45鄰","STREET":"中正路","SECT":" ","MAREA":" ","LANE":"２５６巷","ALLEY":" ","HOUSE_NO":"７號之２６","E_COORD97":173183.01000000001,"N_COORD97":2547985.3100000001,"ADDRESS":"中正路２５６巷７號之２６","OBJECTID":224283},"geometry":{"x":173183.00999999978,"y":2547985.3100000005}},{"attributes":{"ID":224288,"DIS_CODE":0,"TOWNNAME":"永康區","LI":"西灣里","LIN":"45鄰","STREET":"永華路","SECT":" ","MAREA":" ","LANE":"２０１巷","ALLEY":" ","HOUSE_NO":"２號","E_COORD97":174075.51999999999,"N_COORD97":2545637.8999999999,"ADDRESS":"永華路２０１巷２號","OBJECTID":224284},"geometry":{"x":174075.51999999955,"y":2545637.9000000004}},{"attributes":{"ID":224289,"DIS_CODE":0,"TOWNNAME":"永康區","LI":"中華里","LIN":"13鄰","STREET":"小東路","SECT":" ","MAREA":" ","LANE":"５９１巷","ALLEY":" ","HOUSE_NO":"５號","E_COORD97":171823.10999999999,"N_COORD97":2544404.3500000001,"ADDRESS":"小東路５９１巷５號","OBJECTID":224285},"geometry":{"x":171823.11000000034,"y":2544404.3499999978}},{"attributes":{"ID":224290,"DIS_CODE":0,"TOWNNAME":"永康區","LI":"\u25A0洲里","LIN":"37鄰","STREET":"\u25A0洲二街","SECT":" ","MAREA":" ","LANE":"１９７巷","ALLEY":" ","HOUSE_NO":"１３號","E_COORD97":171721.01000000001,"N_COORD97":2549464.7400000002,"ADDRESS":"\u25A0洲二街１９７巷１３號","OBJECTID":224286},"geometry":{"x":171721.01000000071,"y":2549464.7400000021}},{"attributes":{"ID":224291,"DIS_CODE":0,"TOWNNAME":"永康區","LI":"三合里","LIN":"8鄰","STREET":"南工街","SECT":" ","MAREA":" ","LANE":" ","ALLEY":" ","HOUSE_NO":"１３７號","E_COORD97":172090.31,"N_COORD97":2545795.1600000001,"ADDRESS":"南工街１３７號","OBJECTID":224287},"geometry":{"x":172090.30999999959,"y":2545795.1600000001}},{"attributes":{"ID":224292,"DIS_CODE":0,"TOWNNAME":"永康區","LI":"正強里","LIN":"45鄰","STREET":"中正路","SECT":" ","MAREA":" ","LANE":"２５６巷","ALLEY":" ","HOUSE_NO":"７號之１６","E_COORD97":173183.01000000001,"N_COORD97":2547985.3100000001,"ADDRESS":"中正路２５６巷７號之１６","OBJECTID":224288},"geometry":{"x":173183.00999999978,"y":2547985.3100000005}},{"attributes":{"ID":224293,"DIS_CODE":0,"TOWNNAME":"永康區","LI":"二王里","LIN":"6鄰","STREET":"永二街","SECT":" ","MAREA":" ","LANE":" ","ALLEY":" ","HOUSE_NO":"３８４號","E_COORD97":172852.12,"N_COORD97":2546665.6699999999,"ADDRESS":"永二街３８４號","OBJECTID":224289},"geometry":{"x":172852.12000000011,"y":2546665.6700000018}},{"attributes":{"ID":224294,"DIS_CODE":0,"TOWNNAME":"永康區","LI":"二王里","LIN":"19鄰","STREET":"忠孝路","SECT":" ","MAREA":" ","LANE":" ","ALLEY":" ","HOUSE_NO":"４５５號","E_COORD97":172454.81,"N_COORD97":2546603.6499999999,"ADDRESS":"忠孝路４５５號","OBJECTID":224290},"geometry":{"x":172454.80999999959,"y":2546603.6500000041}},{"attributes":{"ID":224295,"DIS_CODE":0,"TOWNNAME":"永康區","LI":"二王里","LIN":"6鄰","STREET":"永二街","SECT":" ","MAREA":" ","LANE":" ","ALLEY":" ","HOUSE_NO":"３７０號","E_COORD97":172893.81,"N_COORD97":2546659.5499999998,"ADDRESS":"永二街３７０號","OBJECTID":224291},"geometry":{"x":172893.80999999959,"y":2546659.5500000026}},{"attributes":{"ID":224296,"DIS_CODE":0,"TOWNNAME":"歸仁區","LI":"許厝里","LIN":"29鄰","STREET":"中山路","SECT":"一段","MAREA":" ","LANE":" ","ALLEY":" ","HOUSE_NO":"５２３號","E_COORD97":177937.06,"N_COORD97":2540722.8199999998,"ADDRESS":"中山路一段５２３號","OBJECTID":224292},"geometry":{"x":177937.05999999959,"y":2540722.8200000003}},{"attributes":{"ID":224297,"DIS_CODE":0,"TOWNNAME":"永康區","LI":"正強里","LIN":"45鄰","STREET":"中正路","SECT":" ","MAREA":" ","LANE":"２５６巷","ALLEY":" ","HOUSE_NO":"７號之５２","E_COORD97":173183.04000000001,"N_COORD97":2547985.3100000001,"ADDRESS":"中正路２５６巷７號之５２","OBJECTID":224293},"geometry":{"x":173183.04000000004,"y":2547985.3100000005}},{"attributes":{"ID":224298,"DIS_CODE":0,"TOWNNAME":"永康區","LI":"正強里","LIN":"45鄰","STREET":"中正路","SECT":" ","MAREA":" ","LANE":"２５６巷","ALLEY":" ","HOUSE_NO":"７號之４４","E_COORD97":173182.92999999999,"N_COORD97":2547985.3100000001,"ADDRESS":"中正路２５６巷７號之４４","OBJECTID":224294},"geometry":{"x":173182.9299999997,"y":2547985.3100000005}},{"attributes":{"ID":224299,"DIS_CODE":0,"TOWNNAME":"永康區","LI":"正強里","LIN":"45鄰","STREET":"中正路","SECT":" ","MAREA":" ","LANE":"２５６巷","ALLEY":" ","HOUSE_NO":"７號之４３","E_COORD97":173183.01000000001,"N_COORD97":2547985.3100000001,"ADDRESS":"中正路２５６巷７號之４３","OBJECTID":224295},"geometry":{"x":173183.00999999978,"y":2547985.3100000005}},{"attributes":{"ID":224300,"DIS_CODE":0,"TOWNNAME":"永康區","LI":"正強里","LIN":"45鄰","STREET":"中正路","SECT":" ","MAREA":" ","LANE":"２５６巷","ALLEY":" ","HOUSE_NO":"７號之４８","E_COORD97":173183.06,"N_COORD97":2547985.3100000001,"ADDRESS":"中正路２５６巷７號之４８","OBJECTID":224296},"geometry":{"x":173183.06000000052,"y":2547985.3100000005}},{"attributes":{"ID":224301,"DIS_CODE":0,"TOWNNAME":"永康區","LI":"正強里","LIN":"45鄰","STREET":"中正路","SECT":" ","MAREA":" ","LANE":"２５６巷","ALLEY":" ","HOUSE_NO":"７號之４","E_COORD97":173181.67999999999,"N_COORD97":2547985.3100000001,"ADDRESS":"中正路２５６巷７號之４","OBJECTID":224297},"geometry":{"x":173181.6799999997,"y":2547985.3100000005}},{"attributes":{"ID":224302,"DIS_CODE":0,"TOWNNAME":"永康區","LI":"正強里","LIN":"45鄰","STREET":"中正路","SECT":" ","MAREA":" ","LANE":"２５６巷","ALLEY":" ","HOUSE_NO":"７號之５８","E_COORD97":173183.06,"N_COORD97":2547985.3100000001,"ADDRESS":"中正路２５６巷７號之５８","OBJECTID":224298},"geometry":{"x":173183.06000000052,"y":2547985.3100000005}},{"attributes":{"ID":224303,"DIS_CODE":0,"TOWNNAME":"永康區","LI":"正強里","LIN":"45鄰","STREET":"中正路","SECT":" ","MAREA":" ","LANE":"２５６巷","ALLEY":" ","HOUSE_NO":"７號之５１","E_COORD97":173182.91,"N_COORD97":2547985.3100000001,"ADDRESS":"中正路２５６巷７號之５１","OBJECTID":224299},"geometry":{"x":173182.91000000108,"y":2547985.3100000005}},{"attributes":{"ID":224304,"DIS_CODE":0,"TOWNNAME":"永康區","LI":"正強里","LIN":"45鄰","STREET":"中正路","SECT":" ","MAREA":" ","LANE":"２５６巷","ALLEY":" ","HOUSE_NO":"７號之５０","E_COORD97":173182.95999999999,"N_COORD97":2547985.3100000001,"ADDRESS":"中正路２５６巷７號之５０","OBJECTID":224300},"geometry":{"x":173182.96000000089,"y":2547985.3100000005}},{"attributes":{"ID":224305,"DIS_CODE":0,"TOWNNAME":"永康區","LI":"正強里","LIN":"45鄰","STREET":"中正路","SECT":" ","MAREA":" ","LANE":"２５６巷","ALLEY":" ","HOUSE_NO":"７號之５","E_COORD97":173181.81,"N_COORD97":2547985.3100000001,"ADDRESS":"中正路２５６巷７號之５","OBJECTID":224301},"geometry":{"x":173181.81000000052,"y":2547985.3100000005}},{"attributes":{"ID":224306,"DIS_CODE":0,"TOWNNAME":"永康區","LI":"正強里","LIN":"45鄰","STREET":"中正路","SECT":" ","MAREA":" ","LANE":"２５６巷","ALLEY":" ","HOUSE_NO":"７號之５７","E_COORD97":173182.98999999999,"N_COORD97":2547985.3100000001,"ADDRESS":"中正路２５６巷７號之５７","OBJECTID":224302},"geometry":{"x":173182.99000000115,"y":2547985.3100000005}},{"attributes":{"ID":224307,"DIS_CODE":0,"TOWNNAME":"永康區","LI":"正強里","LIN":"45鄰","STREET":"中正路","SECT":" ","MAREA":" ","LANE":"２５６巷","ALLEY":" ","HOUSE_NO":"７號之５９","E_COORD97":173182.98999999999,"N_COORD97":2547985.3100000001,"ADDRESS":"中正路２５６巷７號之５９","OBJECTID":224303},"geometry":{"x":173182.99000000115,"y":2547985.3100000005}},{"attributes":{"ID":224308,"DIS_CODE":0,"TOWNNAME":"永康區","LI":"西灣里","LIN":"7鄰","STREET":"大灣路","SECT":" ","MAREA":" ","LANE":"４０６巷","ALLEY":" ","HOUSE_NO":"７６號","E_COORD97":174620.01999999999,"N_COORD97":2545146.5499999998,"ADDRESS":"大灣路４０６巷７６號","OBJECTID":224304},"geometry":{"x":174620.01999999955,"y":2545146.5500000007}},{"attributes":{"ID":224309,"DIS_CODE":0,"TOWNNAME":"永康區","LI":"中華里","LIN":"6鄰","STREET":"小東路","SECT":" ","MAREA":" ","LANE":"６８５巷","ALLEY":" ","HOUSE_NO":"４７號","E_COORD97":172024.54000000001,"N_COORD97":2544537.3500000001,"ADDRESS":"小東路６８５巷４７號","OBJECTID":224305},"geometry":{"x":172024.54000000097,"y":2544537.3500000015}},{"attributes":{"ID":224310,"DIS_CODE":0,"TOWNNAME":"永康區","LI":"新樹里","LIN":" ","STREET":"富強路","SECT":"二段","MAREA":" ","LANE":"３９８巷","ALLEY":" ","HOUSE_NO":"１４６之８號","E_COORD97":176118.72,"N_COORD97":2547574.3900000001,"ADDRESS":"富強路二段３９８巷１４６之８號","OBJECTID":224306},"geometry":{"x":176118.72000000067,"y":2547574.3900000006}},{"attributes":{"ID":224311,"DIS_CODE":0,"TOWNNAME":"永康區","LI":"\u25A0洲里","LIN":"38鄰","STREET":"\u25A0行路","SECT":" ","MAREA":" ","LANE":"１７４巷","ALLEY":" ","HOUSE_NO":"３號","E_COORD97":171364.88,"N_COORD97":2549251.1600000001,"ADDRESS":"\u25A0行路１７４巷３號","OBJECTID":224307},"geometry":{"x":171364.87999999989,"y":2549251.1600000039}},{"attributes":{"ID":224312,"DIS_CODE":0,"TOWNNAME":"永康區","LI":"\u25A0洲里","LIN":"34鄰","STREET":"洲尾街","SECT":" ","MAREA":" ","LANE":"１９１巷","ALLEY":" ","HOUSE_NO":"１號","E_COORD97":170865.41,"N_COORD97":2548971.4199999999,"ADDRESS":"洲尾街１９１巷１號","OBJECTID":224308},"geometry":{"x":170865.41000000201,"y":2548971.4200000037}},{"attributes":{"ID":224313,"DIS_CODE":0,"TOWNNAME":"永康區","LI":"中華里","LIN":"15鄰","STREET":"忠義街","SECT":" ","MAREA":" ","LANE":"４４巷","ALLEY":" ","HOUSE_NO":"３１號","E_COORD97":171807.45000000001,"N_COORD97":2544482.3700000001,"ADDRESS":"忠義街４４巷３１號","OBJECTID":224309},"geometry":{"x":171807.45000000019,"y":2544482.370000001}},{"attributes":{"ID":224314,"DIS_CODE":0,"TOWNNAME":"永康區","LI":"三合里","LIN":"13鄰","STREET":"南工街","SECT":" ","MAREA":" ","LANE":" ","ALLEY":" ","HOUSE_NO":"１７９號","E_COORD97":172023.53,"N_COORD97":2545833.3199999998,"ADDRESS":"南工街１７９號","OBJECTID":224310},"geometry":{"x":172023.53000000026,"y":2545833.3200000022}},{"attributes":{"ID":224315,"DIS_CODE":0,"TOWNNAME":"永康區","LI":"中華里","LIN":"4鄰","STREET":"忠勇街","SECT":" ","MAREA":" ","LANE":"３２巷","ALLEY":" ","HOUSE_NO":"２４號","E_COORD97":171992.79000000001,"N_COORD97":2544419.7999999998,"ADDRESS":"忠勇街３２巷２４號","OBJECTID":224311},"geometry":{"x":171992.79000000004,"y":2544419.8000000045}},{"attributes":{"ID":224316,"DIS_CODE":0,"TOWNNAME":"永康區","LI":"三合里","LIN":"6鄰","STREET":"南工街","SECT":" ","MAREA":" ","LANE":" ","ALLEY":" ","HOUSE_NO":"１０４號","E_COORD97":172105.92000000001,"N_COORD97":2545734.5099999998,"ADDRESS":"南工街１０４號","OBJECTID":224312},"geometry":{"x":172105.92000000179,"y":2545734.5099999998}},{"attributes":{"ID":224317,"DIS_CODE":0,"TOWNNAME":"永康區","LI":"南灣里","LIN":" ","STREET":"大灣東路","SECT":" ","MAREA":" ","LANE":"２２巷","ALLEY":" ","HOUSE_NO":"７６之１號","E_COORD97":173908.34,"N_COORD97":2543968.3799999999,"ADDRESS":"大灣東路２２巷７６之１號","OBJECTID":224313},"geometry":{"x":173908.34000000171,"y":2543968.379999999}},{"attributes":{"ID":224318,"DIS_CODE":0,"TOWNNAME":"永康區","LI":"中華里","LIN":"13鄰","STREET":"忠義街","SECT":" ","MAREA":" ","LANE":"１０巷","ALLEY":" ","HOUSE_NO":"５號之１０","E_COORD97":171800.29999999999,"N_COORD97":2544431.3599999999,"ADDRESS":"忠義街１０巷５號之１０","OBJECTID":224314},"geometry":{"x":171800.30000000075,"y":2544431.3600000031}},{"attributes":{"ID":224319,"DIS_CODE":0,"TOWNNAME":"永康區","LI":"中華里","LIN":"15鄰","STREET":"忠義街","SECT":" ","MAREA":" ","LANE":"４４巷","ALLEY":" ","HOUSE_NO":"５號","E_COORD97":171751.82000000001,"N_COORD97":2544481.6699999999,"ADDRESS":"忠義街４４巷５號","OBJECTID":224315},"geometry":{"x":171751.82000000123,"y":2544481.6700000018}},{"attributes":{"ID":224320,"DIS_CODE":0,"TOWNNAME":"永康區","LI":"中華里","LIN":"1鄰","STREET":"小東路","SECT":" ","MAREA":" ","LANE":"６８５巷","ALLEY":" ","HOUSE_NO":"８號之３","E_COORD97":172048.59,"N_COORD97":2544401.7400000002,"ADDRESS":"小東路６８５巷８號之３","OBJECTID":224316},"geometry":{"x":172048.58999999985,"y":2544401.7400000002}},{"attributes":{"ID":224321,"DIS_CODE":0,"TOWNNAME":"永康區","LI":"中華里","LIN":"12鄰","STREET":"忠義街","SECT":" ","MAREA":" ","LANE":"１０巷","ALLEY":" ","HOUSE_NO":"１１號","E_COORD97":171863.54999999999,"N_COORD97":2544383.6600000001,"ADDRESS":"忠義街１０巷１１號","OBJECTID":224317},"geometry":{"x":171863.54999999981,"y":2544383.660000002}},{"attributes":{"ID":224322,"DIS_CODE":0,"TOWNNAME":"永康區","LI":"南灣里","LIN":" ","STREET":"大灣東路","SECT":" ","MAREA":" ","LANE":"２２巷","ALLEY":" ","HOUSE_NO":"１４０之３號","E_COORD97":173875.29000000001,"N_COORD97":2543859.9399999999,"ADDRESS":"大灣東路２２巷１４０之３號","OBJECTID":224318},"geometry":{"x":173875.29000000097,"y":2543859.9399999995}},{"attributes":{"ID":224323,"DIS_CODE":0,"TOWNNAME":"南區","LI":"府南里","LIN":"29鄰","STREET":"大成路","SECT":"二段","MAREA":" ","LANE":" ","ALLEY":" ","HOUSE_NO":"２７號","E_COORD97":167620.57999999999,"N_COORD97":2541723.2000000002,"ADDRESS":"大成路二段２７號","OBJECTID":224319},"geometry":{"x":167620.58000000007,"y":2541723.1999999974}},{"attributes":{"ID":224324,"DIS_CODE":0,"TOWNNAME":"南區","LI":"府南里","LIN":"29鄰","STREET":"大成路","SECT":"二段","MAREA":" ","LANE":" ","ALLEY":" ","HOUSE_NO":"５號","E_COORD97":167665.76000000001,"N_COORD97":2541724.2599999998,"ADDRESS":"大成路二段５號","OBJECTID":224320},"geometry":{"x":167665.76000000071,"y":2541724.2600000016}},{"attributes":{"ID":224325,"DIS_CODE":0,"TOWNNAME":"南區","LI":"府南里","LIN":"29鄰","STREET":"大成路","SECT":"二段","MAREA":" ","LANE":" ","ALLEY":" ","HOUSE_NO":"７號","E_COORD97":167661.87,"N_COORD97":2541724.5099999998,"ADDRESS":"大成路二段７號","OBJECTID":224321},"geometry":{"x":167661.87000000104,"y":2541724.5099999998}},{"attributes":{"ID":224326,"DIS_CODE":0,"TOWNNAME":"永康區","LI":"中華里","LIN":"5鄰","STREET":"小東路","SECT":" ","MAREA":" ","LANE":"６８５巷","ALLEY":" ","HOUSE_NO":"２７號","E_COORD97":172027.76999999999,"N_COORD97":2544459.0099999998,"ADDRESS":"小東路６８５巷２７號","OBJECTID":224322},"geometry":{"x":172027.76999999955,"y":2544459.0100000016}},{"attributes":{"ID":224327,"DIS_CODE":0,"TOWNNAME":"永康區","LI":"中華里","LIN":"5鄰","STREET":"小東路","SECT":" ","MAREA":" ","LANE":"６８５巷","ALLEY":" ","HOUSE_NO":"２１號","E_COORD97":172027.62,"N_COORD97":2544442.8399999999,"ADDRESS":"小東路６８５巷２１號","OBJECTID":224323},"geometry":{"x":172027.62000000104,"y":2544442.8400000017}},{"attributes":{"ID":224328,"DIS_CODE":0,"TOWNNAME":"永康區","LI":"中華里","LIN":"18鄰","STREET":"中華路","SECT":" ","MAREA":" ","LANE":"１０巷","ALLEY":" ","HOUSE_NO":"３９號","E_COORD97":171691.14999999999,"N_COORD97":2544482.0899999999,"ADDRESS":"中華路１０巷３９號","OBJECTID":224324},"geometry":{"x":171691.15000000224,"y":2544482.0900000017}},{"attributes":{"ID":224329,"DIS_CODE":0,"TOWNNAME":"永康區","LI":"中華里","LIN":"14鄰","STREET":"忠義街","SECT":" ","MAREA":" ","LANE":"４４巷","ALLEY":" ","HOUSE_NO":"２號","E_COORD97":171730.94,"N_COORD97":2544463.7000000002,"ADDRESS":"忠義街４４巷２號","OBJECTID":224325},"geometry":{"x":171730.94000000041,"y":2544463.7000000011}},{"attributes":{"ID":224330,"DIS_CODE":0,"TOWNNAME":"永康區","LI":"中華里","LIN":"1鄰","STREET":"小東路","SECT":" ","MAREA":" ","LANE":"６８５巷","ALLEY":" ","HOUSE_NO":"８號之１０","E_COORD97":172049.79000000001,"N_COORD97":2544401.7400000002,"ADDRESS":"小東路６８５巷８號之１０","OBJECTID":224326},"geometry":{"x":172049.79000000097,"y":2544401.7400000002}},{"attributes":{"ID":224331,"DIS_CODE":0,"TOWNNAME":"永康區","LI":"\u25A0行里","LIN":"45鄰","STREET":"正南五街","SECT":" ","MAREA":" ","LANE":"５２０巷","ALLEY":" ","HOUSE_NO":"８３號六樓之１","E_COORD97":171797.32999999999,"N_COORD97":2548809.0499999998,"ADDRESS":"正南五街５２０巷８３號六樓之１","OBJECTID":224327},"geometry":{"x":171797.33000000007,"y":2548809.0500000026}},{"attributes":{"ID":224332,"DIS_CODE":0,"TOWNNAME":"永康區","LI":"中華里","LIN":"23鄰","STREET":"忠勇街","SECT":" ","MAREA":" ","LANE":"６３巷","ALLEY":" ","HOUSE_NO":"３５號","E_COORD97":171743.98000000001,"N_COORD97":2544611.9399999999,"ADDRESS":"忠勇街６３巷３５號","OBJECTID":224328},"geometry":{"x":171743.98000000138,"y":2544611.9400000013}},{"attributes":{"ID":224333,"DIS_CODE":0,"TOWNNAME":"永康區","LI":"中華里","LIN":"2鄰","STREET":"小東路","SECT":" ","MAREA":" ","LANE":"６８５巷","ALLEY":" ","HOUSE_NO":"５６號","E_COORD97":172040.48999999999,"N_COORD97":2544494.02,"ADDRESS":"小東路６８５巷５６號","OBJECTID":224329},"geometry":{"x":172040.49000000115,"y":2544494.0199999996}},{"attributes":{"ID":224334,"DIS_CODE":0,"TOWNNAME":"永康區","LI":"中華里","LIN":"2鄰","STREET":"小東路","SECT":" ","MAREA":" ","LANE":"６８５巷","ALLEY":" ","HOUSE_NO":"５４號","E_COORD97":172040.35000000001,"N_COORD97":2544490.3700000001,"ADDRESS":"小東路６８５巷５４號","OBJECTID":224330},"geometry":{"x":172040.35000000056,"y":2544490.370000001}},{"attributes":{"ID":224335,"DIS_CODE":0,"TOWNNAME":"永康區","LI":"\u25A0洲里","LIN":"38鄰","STREET":"\u25A0行路","SECT":" ","MAREA":" ","LANE":"２０４巷","ALLEY":" ","HOUSE_NO":"１３號","E_COORD97":171256.12,"N_COORD97":2549210.73,"ADDRESS":"\u25A0行路２０４巷１３號","OBJECTID":224331},"geometry":{"x":171256.12000000104,"y":2549210.7300000023}},{"attributes":{"ID":224336,"DIS_CODE":0,"TOWNNAME":"永康區","LI":"大灣里","LIN":"11鄰","STREET":"大灣路","SECT":" ","MAREA":" ","LANE":" ","ALLEY":" ","HOUSE_NO":"２３０號","E_COORD97":175604.98999999999,"N_COORD97":2549849.5,"ADDRESS":"大灣路２３０號","OBJECTID":224332},"geometry":{"x":175604.99000000115,"y":2549849.5000000019}},{"attributes":{"ID":224337,"DIS_CODE":0,"TOWNNAME":"中西區","LI":"文賢里","LIN":"10鄰","STREET":"和真街","SECT":" ","MAREA":" ","LANE":" ","ALLEY":" ","HOUSE_NO":"８８號","E_COORD97":166858.59,"N_COORD97":2544656.2999999998,"ADDRESS":"和真街８８號","OBJECTID":224333},"geometry":{"x":166858.59000000078,"y":2544656.3000000007}},{"attributes":{"ID":224338,"DIS_CODE":0,"TOWNNAME":"中西區","LI":"民主里","LIN":"9鄰","STREET":"金華路","SECT":"三段","MAREA":" ","LANE":" ","ALLEY":" ","HOUSE_NO":"１２４號","E_COORD97":167272.14999999999,"N_COORD97":2543620.7400000002,"ADDRESS":"金華路三段１２４號","OBJECTID":224334},"geometry":{"x":167272.1500000013,"y":2543620.7400000021}},{"attributes":{"ID":224339,"DIS_CODE":0,"TOWNNAME":"玉井區","LI":"玉田里","LIN":"29鄰","STREET":"仁愛街","SECT":" ","MAREA":" ","LANE":" ","ALLEY":" ","HOUSE_NO":"１４６號","E_COORD97":195389.28,"N_COORD97":2557794.27,"ADDRESS":"仁愛街１４６號","OBJECTID":224335},"geometry":{"x":195389.28000000119,"y":2557794.2700000014}},{"attributes":{"ID":224340,"DIS_CODE":0,"TOWNNAME":"玉井區","LI":"玉田里","LIN":"29鄰","STREET":"中山路","SECT":" ","MAREA":" ","LANE":" ","ALLEY":" ","HOUSE_NO":"２６８號","E_COORD97":195324.75,"N_COORD97":2557829.25,"ADDRESS":"中山路２６８號","OBJECTID":224336},"geometry":{"x":195324.75000000093,"y":2557829.2500000019}},{"attributes":{"ID":224341,"DIS_CODE":0,"TOWNNAME":"永康區","LI":"\u25A0洲里","LIN":"37鄰","STREET":"\u25A0洲二街","SECT":" ","MAREA":" ","LANE":"１９７巷","ALLEY":" ","HOUSE_NO":"３１號","E_COORD97":171694.60999999999,"N_COORD97":2549490.9900000002,"ADDRESS":"\u25A0洲二街１９７巷３１號","OBJECTID":224337},"geometry":{"x":171694.61000000034,"y":2549490.9900000021}},{"attributes":{"ID":224342,"DIS_CODE":0,"TOWNNAME":"永康區","LI":"\u25A0行里","LIN":"45鄰","STREET":"正南五街","SECT":" ","MAREA":" ","LANE":"５２０巷","ALLEY":" ","HOUSE_NO":"８３號三樓之１","E_COORD97":171797.32999999999,"N_COORD97":2548809.0499999998,"ADDRESS":"正南五街５２０巷８３號三樓之１","OBJECTID":224338},"geometry":{"x":171797.33000000007,"y":2548809.0500000026}},{"attributes":{"ID":224343,"DIS_CODE":0,"TOWNNAME":"永康區","LI":"\u25A0行里","LIN":"45鄰","STREET":"正南五街","SECT":" ","MAREA":" ","LANE":"５２０巷","ALLEY":" ","HOUSE_NO":"８３號六樓之３","E_COORD97":171797.42999999999,"N_COORD97":2548809.0499999998,"ADDRESS":"正南五街５２０巷８３號六樓之３","OBJECTID":224339},"geometry":{"x":171797.43000000063,"y":2548809.0500000026}},{"attributes":{"ID":224344,"DIS_CODE":0,"TOWNNAME":"永康區","LI":"\u25A0行里","LIN":"45鄰","STREET":"正南五街","SECT":" ","MAREA":" ","LANE":"５２０巷","ALLEY":" ","HOUSE_NO":"８３號五樓之３","E_COORD97":171797.42999999999,"N_COORD97":2548809.0499999998,"ADDRESS":"正南五街５２０巷８３號五樓之３","OBJECTID":224340},"geometry":{"x":171797.43000000063,"y":2548809.0500000026}},{"attributes":{"ID":224345,"DIS_CODE":0,"TOWNNAME":"永康區","LI":"\u25A0行里","LIN":"45鄰","STREET":"正南五街","SECT":" ","MAREA":" ","LANE":"５２０巷","ALLEY":" ","HOUSE_NO":"８３號五樓之２","E_COORD97":171797.45999999999,"N_COORD97":2548809.0499999998,"ADDRESS":"正南五街５２０巷８３號五樓之２","OBJECTID":224341},"geometry":{"x":171797.46000000089,"y":2548809.0500000026}},{"attributes":{"ID":224346,"DIS_CODE":0,"TOWNNAME":"永康區","LI":"\u25A0行里","LIN":"45鄰","STREET":"正南五街","SECT":" ","MAREA":" ","LANE":"５２０巷","ALLEY":" ","HOUSE_NO":"８３號四樓之２","E_COORD97":171797.45999999999,"N_COORD97":2548809.0499999998,"ADDRESS":"正南五街５２０巷８３號四樓之２","OBJECTID":224342},"geometry":{"x":171797.46000000089,"y":2548809.0500000026}},{"attributes":{"ID":224347,"DIS_CODE":0,"TOWNNAME":"永康區","LI":"\u25A0行里","LIN":"45鄰","STREET":"正南五街","SECT":" ","MAREA":" ","LANE":"５２０巷","ALLEY":" ","HOUSE_NO":"８３號七樓之３","E_COORD97":171797.42999999999,"N_COORD97":2548809.0499999998,"ADDRESS":"正南五街５２０巷８３號七樓之３","OBJECTID":224343},"geometry":{"x":171797.43000000063,"y":2548809.0500000026}},{"attributes":{"ID":224348,"DIS_CODE":0,"TOWNNAME":"下營區","LI":"仁里里","LIN":"5鄰","STREET":"仁南街","SECT":" ","MAREA":" ","LANE":"６巷","ALLEY":" ","HOUSE_NO":"３６號","E_COORD97":174479.117035,"N_COORD97":2569743.2289499999,"ADDRESS":"仁南街６巷３６號","OBJECTID":224344},"geometry":{"x":174479.11703500152,"y":2569743.2289540004}},{"attributes":{"ID":224349,"DIS_CODE":0,"TOWNNAME":"新營區","LI":"三仙里","LIN":"29鄰","STREET":"育德七街","SECT":" ","MAREA":" ","LANE":" ","ALLEY":" ","HOUSE_NO":"９７號","E_COORD97":179454.03,"N_COORD97":2579091.3799999999,"ADDRESS":"育德七街９７號","OBJECTID":224345},"geometry":{"x":179454.03000000026,"y":2579091.3800000008}},{"attributes":{"ID":224350,"DIS_CODE":0,"TOWNNAME":"永康區","LI":"\u25A0行里","LIN":"45鄰","STREET":"正南五街","SECT":" ","MAREA":" ","LANE":"５２０巷","ALLEY":" ","HOUSE_NO":"８３號四樓之５","E_COORD97":171797.48999999999,"N_COORD97":2548809.0499999998,"ADDRESS":"正南五街５２０巷８３號四樓之５","OBJECTID":224346},"geometry":{"x":171797.49000000115,"y":2548809.0500000026}},{"attributes":{"ID":224351,"DIS_CODE":0,"TOWNNAME":"玉井區","LI":"玉田里","LIN":"29鄰","STREET":"中山路","SECT":" ","MAREA":" ","LANE":" ","ALLEY":" ","HOUSE_NO":"２５８號","E_COORD97":195320.35000000001,"N_COORD97":2557802.25,"ADDRESS":"中山路２５８號","OBJECTID":224347},"geometry":{"x":195320.35000000056,"y":2557802.2500000019}},{"attributes":{"ID":224352,"DIS_CODE":0,"TOWNNAME":"玉井區","LI":"玉田里","LIN":"29鄰","STREET":"中山路","SECT":" ","MAREA":" ","LANE":" ","ALLEY":" ","HOUSE_NO":"２７２號","E_COORD97":195326.64999999999,"N_COORD97":2557836.25,"ADDRESS":"中山路２７２號","OBJECTID":224348},"geometry":{"x":195326.65000000037,"y":2557836.2500000019}},{"attributes":{"ID":224353,"DIS_CODE":0,"TOWNNAME":"玉井區","LI":"玉田里","LIN":"29鄰","STREET":"中山路","SECT":" ","MAREA":" ","LANE":" ","ALLEY":" ","HOUSE_NO":"２４８號","E_COORD97":195309.54999999999,"N_COORD97":2557790.2400000002,"ADDRESS":"中山路２４８號","OBJECTID":224349},"geometry":{"x":195309.54999999981,"y":2557790.2400000002}},{"attributes":{"ID":224354,"DIS_CODE":0,"TOWNNAME":"六甲區","LI":"六甲里","LIN":"29鄰","STREET":"成功街","SECT":" ","MAREA":" ","LANE":" ","ALLEY":" ","HOUSE_NO":"６５號","E_COORD97":183274.13,"N_COORD97":2569230.73,"ADDRESS":"成功街６５號","OBJECTID":224350},"geometry":{"x":183274.13000000175,"y":2569230.7300000042}},{"attributes":{"ID":224355,"DIS_CODE":0,"TOWNNAME":"永康區","LI":"\u25A0行里","LIN":"45鄰","STREET":"正南五街","SECT":" ","MAREA":" ","LANE":"５２０巷","ALLEY":" ","HOUSE_NO":"８３號四樓之１","E_COORD97":171797.32999999999,"N_COORD97":2548809.0499999998,"ADDRESS":"正南五街５２０巷８３號四樓之１","OBJECTID":224351},"geometry":{"x":171797.33000000007,"y":2548809.0500000026}},{"attributes":{"ID":224356,"DIS_CODE":0,"TOWNNAME":"中西區","LI":"協進里","LIN":"1鄰","STREET":"金華路","SECT":"四段","MAREA":" ","LANE":" ","ALLEY":" ","HOUSE_NO":"１１號底一層之３","E_COORD97":167361.45999999999,"N_COORD97":2544137.6099999999,"ADDRESS":"金華路四段１１號底一層之３","OBJECTID":224352},"geometry":{"x":167361.46000000089,"y":2544137.6099999994}},{"attributes":{"ID":224357,"DIS_CODE":0,"TOWNNAME":"永康區","LI":"\u25A0行里","LIN":"45鄰","STREET":"正南五街","SECT":" ","MAREA":" ","LANE":"５２０巷","ALLEY":" ","HOUSE_NO":"８３號七樓之５","E_COORD97":171797.48999999999,"N_COORD97":2548809.0499999998,"ADDRESS":"正南五街５２０巷８３號七樓之５","OBJECTID":224353},"geometry":{"x":171797.49000000115,"y":2548809.0500000026}},{"attributes":{"ID":224358,"DIS_CODE":0,"TOWNNAME":"永康區","LI":"\u25A0行里","LIN":"45鄰","STREET":"正南五街","SECT":" ","MAREA":" ","LANE":"５２０巷","ALLEY":" ","HOUSE_NO":"８３號二樓之１","E_COORD97":171797.32999999999,"N_COORD97":2548809.0499999998,"ADDRESS":"正南五街５２０巷８３號二樓之１","OBJECTID":224354},"geometry":{"x":171797.33000000007,"y":2548809.0500000026}},{"attributes":{"ID":224359,"DIS_CODE":0,"TOWNNAME":"永康區","LI":"中華里","LIN":"4鄰","STREET":"小東路","SECT":" ","MAREA":" ","LANE":"６８５巷","ALLEY":" ","HOUSE_NO":"１７號","E_COORD97":172028.57999999999,"N_COORD97":2544419.3900000001,"ADDRESS":"小東路６８５巷１７號","OBJECTID":224355},"geometry":{"x":172028.57999999914,"y":2544419.3900000025}},{"attributes":{"ID":224360,"DIS_CODE":0,"TOWNNAME":"中西區","LI":"文賢里","LIN":"6鄰","STREET":"西和路","SECT":" ","MAREA":" ","LANE":" ","ALLEY":" ","HOUSE_NO":"２０７號","E_COORD97":167087.23999999999,"N_COORD97":2544751.27,"ADDRESS":"西和路２０７號","OBJECTID":224356},"geometry":{"x":167087.24000000022,"y":2544751.2700000014}},{"attributes":{"ID":224361,"DIS_CODE":0,"TOWNNAME":"永康區","LI":"中華里","LIN":"4鄰","STREET":"忠勇街","SECT":" ","MAREA":" ","LANE":"３２巷","ALLEY":" ","HOUSE_NO":"２８號","E_COORD97":172000.95999999999,"N_COORD97":2544420.0899999999,"ADDRESS":"忠勇街３２巷２８號","OBJECTID":224357},"geometry":{"x":172000.96000000089,"y":2544420.0900000036}},{"attributes":{"ID":224362,"DIS_CODE":0,"TOWNNAME":"永康區","LI":"中華里","LIN":"1鄰","STREET":"小東路","SECT":" ","MAREA":" ","LANE":"６８５巷","ALLEY":" ","HOUSE_NO":"８號之３６","E_COORD97":172049.85000000001,"N_COORD97":2544401.7400000002,"ADDRESS":"小東路６８５巷８號之３６","OBJECTID":224358},"geometry":{"x":172049.84999999963,"y":2544401.7400000002}},{"attributes":{"ID":224363,"DIS_CODE":0,"TOWNNAME":"中西區","LI":"文賢里","LIN":"6鄰","STREET":"西和路","SECT":" ","MAREA":" ","LANE":" ","ALLEY":" ","HOUSE_NO":"２０９號","E_COORD97":167091.34,"N_COORD97":2544753.7200000002,"ADDRESS":"西和路２０９號","OBJECTID":224359},"geometry":{"x":167091.33999999985,"y":2544753.7200000025}},{"attributes":{"ID":224364,"DIS_CODE":0,"TOWNNAME":"永康區","LI":"中華里","LIN":"1鄰","STREET":"小東路","SECT":" ","MAREA":" ","LANE":"６８５巷","ALLEY":" ","HOUSE_NO":"６號之７","E_COORD97":172051.01999999999,"N_COORD97":2544383.3599999999,"ADDRESS":"小東路６８５巷６號之７","OBJECTID":224360},"geometry":{"x":172051.02000000048,"y":2544383.3599999994}},{"attributes":{"ID":224365,"DIS_CODE":0,"TOWNNAME":"永康區","LI":"二王里","LIN":"45鄰","STREET":"南工街","SECT":" ","MAREA":" ","LANE":"２１２巷","ALLEY":" ","HOUSE_NO":"１１號","E_COORD97":172106.60000000001,"N_COORD97":2545959.8700000001,"ADDRESS":"南工街２１２巷１１號","OBJECTID":224361},"geometry":{"x":172106.60000000056,"y":2545959.8700000029}},{"attributes":{"ID":224366,"DIS_CODE":0,"TOWNNAME":"仁德區","LI":"太子里","LIN":"45鄰","STREET":"太子路","SECT":" ","MAREA":" ","LANE":"１０１巷","ALLEY":" ","HOUSE_NO":"３２號","E_COORD97":174904.95999999999,"N_COORD97":2543372.25,"ADDRESS":"太子路１０１巷３２號","OBJECTID":224362},"geometry":{"x":174904.96000000089,"y":2543372.2500000019}},{"attributes":{"ID":224367,"DIS_CODE":0,"TOWNNAME":"仁德區","LI":"太子里","LIN":"45鄰","STREET":"太子一街","SECT":" ","MAREA":" ","LANE":"４３巷","ALLEY":" ","HOUSE_NO":"９號","E_COORD97":174825.14000000001,"N_COORD97":2543315.5099999998,"ADDRESS":"太子一街４３巷９號","OBJECTID":224363},"geometry":{"x":174825.1400000006,"y":2543315.5100000035}},{"attributes":{"ID":224368,"DIS_CODE":0,"TOWNNAME":"仁德區","LI":"仁義里","LIN":"45鄰","STREET":"仁義路","SECT":" ","MAREA":" ","LANE":"９８巷","ALLEY":" ","HOUSE_NO":"４６號","E_COORD97":173595.64999999999,"N_COORD97":2540844.02,"ADDRESS":"仁義路９８巷４６號","OBJECTID":224364},"geometry":{"x":173595.6500000013,"y":2540844.0200000014}},{"attributes":{"ID":224369,"DIS_CODE":0,"TOWNNAME":"仁德區","LI":"仁義里","LIN":"45鄰","STREET":"仁義路","SECT":" ","MAREA":" ","LANE":"９８巷","ALLEY":" ","HOUSE_NO":"６４號","E_COORD97":173605.48999999999,"N_COORD97":2540818.27,"ADDRESS":"仁義路９８巷６４號","OBJECTID":224365},"geometry":{"x":173605.49000000022,"y":2540818.2700000033}},{"attributes":{"ID":224370,"DIS_CODE":0,"TOWNNAME":"永康區","LI":"中華里","LIN":"13鄰","STREET":"忠義街","SECT":" ","MAREA":" ","LANE":"１０巷","ALLEY":" ","HOUSE_NO":"７號之３","E_COORD97":171811.98999999999,"N_COORD97":2544403.6600000001,"ADDRESS":"忠義街１０巷７號之３","OBJECTID":224366},"geometry":{"x":171811.99000000022,"y":2544403.660000002}},{"attributes":{"ID":224371,"DIS_CODE":0,"TOWNNAME":"永康區","LI":"中華里","LIN":"8鄰","STREET":"小東路","SECT":" ","MAREA":" ","LANE":"６４７巷","ALLEY":" ","HOUSE_NO":"５９號","E_COORD97":171926.89999999999,"N_COORD97":2544490.3500000001,"ADDRESS":"小東路６４７巷５９號","OBJECTID":224367},"geometry":{"x":171926.90000000224,"y":2544490.3500000015}},{"attributes":{"ID":224372,"DIS_CODE":0,"TOWNNAME":"永康區","LI":"中華里","LIN":"8鄰","STREET":"小東路","SECT":" ","MAREA":" ","LANE":"６４７巷","ALLEY":" ","HOUSE_NO":"６１號","E_COORD97":171922.57000000001,"N_COORD97":2544490.3500000001,"ADDRESS":"小東路６４７巷６１號","OBJECTID":224368},"geometry":{"x":171922.57000000123,"y":2544490.3500000015}},{"attributes":{"ID":224373,"DIS_CODE":0,"TOWNNAME":"永康區","LI":"中華里","LIN":"15鄰","STREET":"忠義街","SECT":" ","MAREA":" ","LANE":"６０巷","ALLEY":" ","HOUSE_NO":"１２號","E_COORD97":171765.44,"N_COORD97":2544511,"ADDRESS":"忠義街６０巷１２號","OBJECTID":224369},"geometry":{"x":171765.43999999948,"y":2544511}},{"attributes":{"ID":224374,"DIS_CODE":0,"TOWNNAME":"永康區","LI":"崑山里","LIN":"45鄰","STREET":"永華路","SECT":" ","MAREA":" ","LANE":"３２巷","ALLEY":" ","HOUSE_NO":"１０號","E_COORD97":174116.69,"N_COORD97":2545198.1400000001,"ADDRESS":"永華路３２巷１０號","OBJECTID":224370},"geometry":{"x":174116.68999999948,"y":2545198.1400000025}},{"attributes":{"ID":224375,"DIS_CODE":0,"TOWNNAME":"永康區","LI":"崑山里","LIN":"45鄰","STREET":"永華路","SECT":" ","MAREA":" ","LANE":"３２巷","ALLEY":" ","HOUSE_NO":"２號","E_COORD97":174093,"N_COORD97":2545205.96,"ADDRESS":"永華路３２巷２號","OBJECTID":224371},"geometry":{"x":174093.00000000093,"y":2545205.9600000028}},{"attributes":{"ID":224376,"DIS_CODE":0,"TOWNNAME":"永康區","LI":"\u25A0行里","LIN":"45鄰","STREET":"中正南路","SECT":" ","MAREA":" ","LANE":"７２６巷","ALLEY":" ","HOUSE_NO":"１０號","E_COORD97":171796.04000000001,"N_COORD97":2548870.7400000002,"ADDRESS":"中正南路７２６巷１０號","OBJECTID":224372},"geometry":{"x":171796.04000000004,"y":2548870.7400000002}},{"attributes":{"ID":224377,"DIS_CODE":0,"TOWNNAME":"仁德區","LI":"太子里","LIN":"45鄰","STREET":"太子路","SECT":" ","MAREA":" ","LANE":"１０１巷","ALLEY":" ","HOUSE_NO":"９３號","E_COORD97":174915.60000000001,"N_COORD97":2543337.5099999998,"ADDRESS":"太子路１０１巷９３號","OBJECTID":224373},"geometry":{"x":174915.60000000056,"y":2543337.5099999998}},{"attributes":{"ID":224378,"DIS_CODE":0,"TOWNNAME":"仁德區","LI":"太子里","LIN":"45鄰","STREET":"太子路","SECT":" ","MAREA":" ","LANE":"１０１巷","ALLEY":" ","HOUSE_NO":"１０１號","E_COORD97":174914.98000000001,"N_COORD97":2543321.0099999998,"ADDRESS":"太子路１０１巷１０１號","OBJECTID":224374},"geometry":{"x":174914.98000000231,"y":2543321.0099999998}},{"attributes":{"ID":224379,"DIS_CODE":0,"TOWNNAME":"永康區","LI":"新樹里","LIN":" ","STREET":"富強路","SECT":"二段","MAREA":" ","LANE":"１２８巷","ALLEY":" ","HOUSE_NO":"８號","E_COORD97":175696.32999999999,"N_COORD97":2547088.6600000001,"ADDRESS":"富強路二段１２８巷８號","OBJECTID":224375},"geometry":{"x":175696.33000000007,"y":2547088.660000002}},{"attributes":{"ID":224380,"DIS_CODE":0,"TOWNNAME":"永康區","LI":"中華里","LIN":"5鄰","STREET":"忠勇街","SECT":" ","MAREA":" ","LANE":"３２巷","ALLEY":" ","HOUSE_NO":"２９號","E_COORD97":172005.19,"N_COORD97":2544433.0699999998,"ADDRESS":"忠勇街３２巷２９號","OBJECTID":224376},"geometry":{"x":172005.19000000134,"y":2544433.0700000003}},{"attributes":{"ID":224381,"DIS_CODE":0,"TOWNNAME":"永康區","LI":"中華里","LIN":"20鄰","STREET":"小東路","SECT":" ","MAREA":" ","LANE":"４７７巷","ALLEY":" ","HOUSE_NO":"２９號","E_COORD97":171610.60000000001,"N_COORD97":2544447.3399999999,"ADDRESS":"小東路４７７巷２９號","OBJECTID":224377},"geometry":{"x":171610.59999999963,"y":2544447.3399999999}},{"attributes":{"ID":224382,"DIS_CODE":0,"TOWNNAME":"新營區","LI":"三仙里","LIN":"29鄰","STREET":"育德七街","SECT":" ","MAREA":" ","LANE":" ","ALLEY":" ","HOUSE_NO":"１０８號","E_COORD97":179466.81,"N_COORD97":2579143.3799999999,"ADDRESS":"育德七街１０８號","OBJECTID":224378},"geometry":{"x":179466.81000000145,"y":2579143.379999999}},{"attributes":{"ID":224383,"DIS_CODE":0,"TOWNNAME":"新營區","LI":"民生里","LIN":"29鄰","STREET":"民治路","SECT":" ","MAREA":" ","LANE":" ","ALLEY":" ","HOUSE_NO":"２１５號","E_COORD97":178783.04999999999,"N_COORD97":2578384.7200000002,"ADDRESS":"民治路２１５號","OBJECTID":224379},"geometry":{"x":178783.05000000075,"y":2578384.7199999988}},{"attributes":{"ID":224384,"DIS_CODE":0,"TOWNNAME":"新營區","LI":"民生里","LIN":"29鄰","STREET":"民治路","SECT":" ","MAREA":" ","LANE":" ","ALLEY":" ","HOUSE_NO":"２１３號","E_COORD97":178785.12,"N_COORD97":2578389.1400000001,"ADDRESS":"民治路２１３號","OBJECTID":224380},"geometry":{"x":178785.12000000011,"y":2578389.1400000025}},{"attributes":{"ID":224385,"DIS_CODE":0,"TOWNNAME":"新營區","LI":"民生里","LIN":"29鄰","STREET":"民治路","SECT":" ","MAREA":" ","LANE":" ","ALLEY":" ","HOUSE_NO":"２１９號","E_COORD97":178779.95000000001,"N_COORD97":2578376.98,"ADDRESS":"民治路２１９號","OBJECTID":224381},"geometry":{"x":178779.95000000205,"y":2578376.9800000023}},{"attributes":{"ID":224386,"DIS_CODE":0,"TOWNNAME":"新營區","LI":"三仙里","LIN":"29鄰","STREET":"育德七街","SECT":" ","MAREA":" ","LANE":" ","ALLEY":" ","HOUSE_NO":"９６號","E_COORD97":179442.82000000001,"N_COORD97":2579100.29,"ADDRESS":"育德七街９６號","OBJECTID":224382},"geometry":{"x":179442.82000000123,"y":2579100.2899999991}},{"attributes":{"ID":224387,"DIS_CODE":0,"TOWNNAME":"新營區","LI":"民生里","LIN":"29鄰","STREET":"民治路","SECT":" ","MAREA":" ","LANE":" ","ALLEY":" ","HOUSE_NO":"２０５號","E_COORD97":178792.35999999999,"N_COORD97":2578404.6000000001,"ADDRESS":"民治路２０５號","OBJECTID":224383},"geometry":{"x":178792.36000000034,"y":2578404.5999999996}},{"attributes":{"ID":224388,"DIS_CODE":0,"TOWNNAME":"新營區","LI":"新南里","LIN":"29鄰","STREET":"長榮路","SECT":"二段","MAREA":" ","LANE":" ","ALLEY":" ","HOUSE_NO":"１１２７號","E_COORD97":177877.23999999999,"N_COORD97":2578654.8999999999,"ADDRESS":"長榮路二段１１２７號","OBJECTID":224384},"geometry":{"x":177877.24000000022,"y":2578654.9000000041}},{"attributes":{"ID":224389,"DIS_CODE":0,"TOWNNAME":"新營區","LI":"三仙里","LIN":"29鄰","STREET":"育德七街","SECT":" ","MAREA":" ","LANE":" ","ALLEY":" ","HOUSE_NO":"１０６號","E_COORD97":179468.82000000001,"N_COORD97":2579135.6200000001,"ADDRESS":"育德七街１０６號","OBJECTID":224385},"geometry":{"x":179468.8200000003,"y":2579135.6200000029}},{"attributes":{"ID":224390,"DIS_CODE":0,"TOWNNAME":"新營區","LI":"王公里","LIN":"29鄰","STREET":"大公街","SECT":" ","MAREA":" ","LANE":" ","ALLEY":" ","HOUSE_NO":"５０號","E_COORD97":180249.38,"N_COORD97":2579646.8700000001,"ADDRESS":"大公街５０號","OBJECTID":224386},"geometry":{"x":180249.37999999989,"y":2579646.8700000029}},{"attributes":{"ID":224391,"DIS_CODE":0,"TOWNNAME":"新營區","LI":"新南里","LIN":"29鄰","STREET":"長榮路","SECT":"二段","MAREA":" ","LANE":" ","ALLEY":" ","HOUSE_NO":"１０７９號","E_COORD97":177969.72,"N_COORD97":2578740.8300000001,"ADDRESS":"長榮路二段１０７９號","OBJECTID":224387},"geometry":{"x":177969.72000000067,"y":2578740.8300000019}},{"attributes":{"ID":224392,"DIS_CODE":0,"TOWNNAME":"東區","LI":"裕聖里","LIN":"4鄰","STREET":"裕信三街","SECT":" ","MAREA":" ","LANE":" ","ALLEY":" ","HOUSE_NO":"２９２號","E_COORD97":172669.79000000001,"N_COORD97":2542335.0099999998,"ADDRESS":"裕信三街２９２號","OBJECTID":224388},"geometry":{"x":172669.7900000019,"y":2542335.0099999998}},{"attributes":{"ID":224393,"DIS_CODE":0,"TOWNNAME":"東區","LI":"和平里","LIN":"18鄰","STREET":"仁和路","SECT":" ","MAREA":" ","LANE":" ","ALLEY":" ","HOUSE_NO":"７７之１９號","E_COORD97":171247.47,"N_COORD97":2541591.5,"ADDRESS":"仁和路７７之１９號","OBJECTID":224389},"geometry":{"x":171247.46999999974,"y":2541591.5000000019}},{"attributes":{"ID":224394,"DIS_CODE":0,"TOWNNAME":"新營區","LI":"新南里","LIN":"29鄰","STREET":"長榮路","SECT":"二段","MAREA":" ","LANE":" ","ALLEY":" ","HOUSE_NO":"１０６７號","E_COORD97":177993.35000000001,"N_COORD97":2578762.8599999999,"ADDRESS":"長榮路二段１０６７號","OBJECTID":224390},"geometry":{"x":177993.3499999987,"y":2578762.8600000013}},{"attributes":{"ID":224395,"DIS_CODE":0,"TOWNNAME":"歸仁區","LI":"六甲里","LIN":"29鄰","STREET":"六甲二街","SECT":" ","MAREA":" ","LANE":" ","ALLEY":" ","HOUSE_NO":"３２號","E_COORD97":175821.37,"N_COORD97":2539257.25,"ADDRESS":"六甲二街３２號","OBJECTID":224391},"geometry":{"x":175821.37000000104,"y":2539257.2500000019}},{"attributes":{"ID":224396,"DIS_CODE":0,"TOWNNAME":"歸仁區","LI":"六甲里","LIN":"29鄰","STREET":"六甲二街","SECT":" ","MAREA":" ","LANE":" ","ALLEY":" ","HOUSE_NO":"２２號","E_COORD97":175811.26999999999,"N_COORD97":2539292.25,"ADDRESS":"六甲二街２２號","OBJECTID":224392},"geometry":{"x":175811.27000000048,"y":2539292.25}},{"attributes":{"ID":224397,"DIS_CODE":0,"TOWNNAME":"歸仁區","LI":"六甲里","LIN":"29鄰","STREET":"六甲二街","SECT":" ","MAREA":" ","LANE":" ","ALLEY":" ","HOUSE_NO":"３４號","E_COORD97":175818.26999999999,"N_COORD97":2539246.25,"ADDRESS":"六甲二街３４號","OBJECTID":224393},"geometry":{"x":175818.26999999955,"y":2539246.2500000019}},{"attributes":{"ID":224398,"DIS_CODE":0,"TOWNNAME":"歸仁區","LI":"六甲里","LIN":"29鄰","STREET":"六甲二街","SECT":" ","MAREA":" ","LANE":" ","ALLEY":" ","HOUSE_NO":"４０號","E_COORD97":175842.07000000001,"N_COORD97":2539289.25,"ADDRESS":"六甲二街４０號","OBJECTID":224394},"geometry":{"x":175842.07000000123,"y":2539289.25}},{"attributes":{"ID":224399,"DIS_CODE":0,"TOWNNAME":"歸仁區","LI":"六甲里","LIN":"29鄰","STREET":"六甲二街","SECT":" ","MAREA":" ","LANE":" ","ALLEY":" ","HOUSE_NO":"３６號","E_COORD97":175819.26999999999,"N_COORD97":2539238.25,"ADDRESS":"六甲二街３６號","OBJECTID":224395},"geometry":{"x":175819.27000000048,"y":2539238.25}},{"attributes":{"ID":224400,"DIS_CODE":0,"TOWNNAME":"東區","LI":"和平里","LIN":"20鄰","STREET":"仁和路","SECT":" ","MAREA":" ","LANE":" ","ALLEY":" ","HOUSE_NO":"４９之１１號","E_COORD97":171144.12,"N_COORD97":2541865.7200000002,"ADDRESS":"仁和路４９之１１號","OBJECTID":224396},"geometry":{"x":171144.12000000104,"y":2541865.7200000007}},{"attributes":{"ID":224401,"DIS_CODE":0,"TOWNNAME":"東區","LI":"和平里","LIN":"20鄰","STREET":"仁和路","SECT":" ","MAREA":" ","LANE":" ","ALLEY":" ","HOUSE_NO":"４９之１２號","E_COORD97":171148.89999999999,"N_COORD97":2541867.1800000002,"ADDRESS":"仁和路４９之１２號","OBJECTID":224397},"geometry":{"x":171148.9000000013,"y":2541867.1800000016}},{"attributes":{"ID":224402,"DIS_CODE":0,"TOWNNAME":"東區","LI":"和平里","LIN":"20鄰","STREET":"仁和路","SECT":" ","MAREA":" ","LANE":" ","ALLEY":" ","HOUSE_NO":"４９之１３號","E_COORD97":171153.69,"N_COORD97":2541868.6499999999,"ADDRESS":"仁和路４９之１３號","OBJECTID":224398},"geometry":{"x":171153.69000000227,"y":2541868.6500000022}},{"attributes":{"ID":224403,"DIS_CODE":0,"TOWNNAME":"永康區","LI":"大灣里","LIN":"13鄰","STREET":"中灣五街","SECT":" ","MAREA":" ","LANE":" ","ALLEY":" ","HOUSE_NO":"２５號","E_COORD97":175104.07999999999,"N_COORD97":2545251.1000000001,"ADDRESS":"中灣五街２５號","OBJECTID":224399},"geometry":{"x":175104.08000000101,"y":2545251.1000000015}},{"attributes":{"ID":224404,"DIS_CODE":0,"TOWNNAME":"永康區","LI":"中華里","LIN":"20鄰","STREET":"小東路","SECT":" ","MAREA":" ","LANE":"４７７巷","ALLEY":" ","HOUSE_NO":"９號","E_COORD97":171603.12,"N_COORD97":2544404.1200000001,"ADDRESS":"小東路４７７巷９號","OBJECTID":224400},"geometry":{"x":171603.12000000197,"y":2544404.1199999992}}]}