{"displayFieldName":"TOWNNAME","fieldAliases":{"ID":"ID","DIS_CODE":"DIS_CODE","TOWNNAME":"TOWNNAME","LI":"LI","LIN":"LIN","STREET":"STREET","SECT":"SECT","MAREA":"MAREA","LANE":"LANE","ALLEY":"ALLEY","HOUSE_NO":"HOUSE_NO","E_COORD97":"E_COORD97","N_COORD97":"N_COORD97","ADDRESS":"ADDRESS","OBJECTID":"OBJECTID"},"geometryType":"esriGeometryPoint","spatialReference":{"wkid":102443,"latestWkid":3826},"fields":[{"name":"ID","type":"esriFieldTypeDouble","alias":"ID"},{"name":"DIS_CODE","type":"esriFieldTypeInteger","alias":"DIS_CODE"},{"name":"TOWNNAME","type":"esriFieldTypeString","alias":"TOWNNAME","length":8},{"name":"LI","type":"esriFieldTypeString","alias":"LI","length":8},{"name":"LIN","type":"esriFieldTypeString","alias":"LIN","length":12},{"name":"STREET","type":"esriFieldTypeString","alias":"STREET","length":20},{"name":"SECT","type":"esriFieldTypeString","alias":"SECT","length":8},{"name":"MAREA","type":"esriFieldTypeString","alias":"MAREA","length":12},{"name":"LANE","type":"esriFieldTypeString","alias":"LANE","length":10},{"name":"ALLEY","type":"esriFieldTypeString","alias":"ALLEY","length":10},{"name":"HOUSE_NO","type":"esriFieldTypeString","alias":"HOUSE_NO","length":20},{"name":"E_COORD97","type":"esriFieldTypeDouble","alias":"E_COORD97"},{"name":"N_COORD97","type":"esriFieldTypeDouble","alias":"N_COORD97"},{"name":"ADDRESS","type":"esriFieldTypeString","alias":"ADDRESS","length":50},{"name":"OBJECTID","type":"esriFieldTypeOID","alias":"OBJECTID"}],"features":[{"attributes":{"ID":620028,"DIS_CODE":0,"TOWNNAME":"中西區","LI":"民主里","LIN":"8鄰","STREET":"府前路","SECT":"二段","MAREA":" ","LANE":" ","ALLEY":" ","HOUSE_NO":"１６８號","E_COORD97":167365.45000000001,"N_COORD97":2543559.48,"ADDRESS":"府前路二段１６８號","OBJECTID":620001},"geometry":{"x":167365.45000000019,"y":2543559.4800000004}},{"attributes":{"ID":620029,"DIS_CODE":0,"TOWNNAME":"中西區","LI":"民主里","LIN":"7鄰","STREET":"南華街","SECT":" ","MAREA":" ","LANE":" ","ALLEY":" ","HOUSE_NO":"１０１號底層","E_COORD97":167125.35999999999,"N_COORD97":2543577.25,"ADDRESS":"南華街１０１號底層","OBJECTID":620002},"geometry":{"x":167125.36000000127,"y":2543577.25}},{"attributes":{"ID":620030,"DIS_CODE":0,"TOWNNAME":"中西區","LI":"民主里","LIN":"7鄰","STREET":"南華街","SECT":" ","MAREA":" ","LANE":" ","ALLEY":" ","HOUSE_NO":"９８號","E_COORD97":167143.89000000001,"N_COORD97":2543551.0099999998,"ADDRESS":"南華街９８號","OBJECTID":620003},"geometry":{"x":167143.88999999966,"y":2543551.0099999998}},{"attributes":{"ID":620031,"DIS_CODE":0,"TOWNNAME":"中西區","LI":"民主里","LIN":"7鄰","STREET":"南華街","SECT":" ","MAREA":" ","LANE":" ","ALLEY":" ","HOUSE_NO":"９９號","E_COORD97":167122.64000000001,"N_COORD97":2543564.5099999998,"ADDRESS":"南華街９９號","OBJECTID":620004},"geometry":{"x":167122.6400000006,"y":2543564.5100000016}},{"attributes":{"ID":620032,"DIS_CODE":0,"TOWNNAME":"永康區","LI":"五王里","LIN":"2鄰","STREET":"中華路","SECT":" ","MAREA":" ","LANE":" ","ALLEY":" ","HOUSE_NO":"３４６之１號","E_COORD97":171492.63,"N_COORD97":2545440.29,"ADDRESS":"中華路３４６之１號","OBJECTID":620005},"geometry":{"x":171492.63000000175,"y":2545440.2899999991}},{"attributes":{"ID":620033,"DIS_CODE":0,"TOWNNAME":"中西區","LI":"民主里","LIN":"8鄰","STREET":"康樂街","SECT":" ","MAREA":" ","LANE":" ","ALLEY":" ","HOUSE_NO":"４７號","E_COORD97":167374.76000000001,"N_COORD97":2543568.9399999999,"ADDRESS":"康樂街４７號","OBJECTID":620006},"geometry":{"x":167374.75999999978,"y":2543568.9399999995}},{"attributes":{"ID":620034,"DIS_CODE":0,"TOWNNAME":"中西區","LI":"民主里","LIN":"8鄰","STREET":"康樂街","SECT":" ","MAREA":" ","LANE":" ","ALLEY":" ","HOUSE_NO":"５３號","E_COORD97":167377.76000000001,"N_COORD97":2543580.3300000001,"ADDRESS":"康樂街５３號","OBJECTID":620007},"geometry":{"x":167377.76000000071,"y":2543580.3300000001}},{"attributes":{"ID":620035,"DIS_CODE":0,"TOWNNAME":"中西區","LI":"民主里","LIN":"8鄰","STREET":"康樂街","SECT":" ","MAREA":" ","LANE":" ","ALLEY":" ","HOUSE_NO":"５５號","E_COORD97":167381.97,"N_COORD97":2543591.1600000001,"ADDRESS":"康樂街５５號","OBJECTID":620008},"geometry":{"x":167381.96999999974,"y":2543591.1600000001}},{"attributes":{"ID":620036,"DIS_CODE":0,"TOWNNAME":"中西區","LI":"民主里","LIN":"8鄰","STREET":"康樂街","SECT":" ","MAREA":" ","LANE":" ","ALLEY":" ","HOUSE_NO":"５７號","E_COORD97":167382.64000000001,"N_COORD97":2543597.5499999998,"ADDRESS":"康樂街５７號","OBJECTID":620009},"geometry":{"x":167382.63999999966,"y":2543597.5500000045}},{"attributes":{"ID":620037,"DIS_CODE":0,"TOWNNAME":"中西區","LI":"民主里","LIN":"8鄰","STREET":"康樂街","SECT":" ","MAREA":" ","LANE":" ","ALLEY":" ","HOUSE_NO":"５９號","E_COORD97":167385.42000000001,"N_COORD97":2543603.5499999998,"ADDRESS":"康樂街５９號","OBJECTID":620010},"geometry":{"x":167385.42000000086,"y":2543603.5500000007}},{"attributes":{"ID":620038,"DIS_CODE":0,"TOWNNAME":"中西區","LI":"民主里","LIN":"8鄰","STREET":"康樂街","SECT":" ","MAREA":" ","LANE":" ","ALLEY":" ","HOUSE_NO":"６１號","E_COORD97":167386.29000000001,"N_COORD97":2543609.3100000001,"ADDRESS":"康樂街６１號","OBJECTID":620011},"geometry":{"x":167386.29000000097,"y":2543609.3100000042}},{"attributes":{"ID":620039,"DIS_CODE":0,"TOWNNAME":"中西區","LI":"民主里","LIN":"9鄰","STREET":"大智街","SECT":" ","MAREA":" ","LANE":" ","ALLEY":" ","HOUSE_NO":"４６號","E_COORD97":167314.60999999999,"N_COORD97":2543625.5099999998,"ADDRESS":"大智街４６號","OBJECTID":620012},"geometry":{"x":167314.61000000127,"y":2543625.5100000016}},{"attributes":{"ID":620040,"DIS_CODE":0,"TOWNNAME":"中西區","LI":"民主里","LIN":"9鄰","STREET":"大智街","SECT":" ","MAREA":" ","LANE":" ","ALLEY":" ","HOUSE_NO":"４８號","E_COORD97":167314.34,"N_COORD97":2543621.96,"ADDRESS":"大智街４８號","OBJECTID":620013},"geometry":{"x":167314.34000000078,"y":2543621.9600000046}},{"attributes":{"ID":620041,"DIS_CODE":0,"TOWNNAME":"中西區","LI":"民主里","LIN":"9鄰","STREET":"大智街","SECT":" ","MAREA":" ","LANE":" ","ALLEY":" ","HOUSE_NO":"５０號","E_COORD97":167313.97,"N_COORD97":2543618.1299999999,"ADDRESS":"大智街５０號","OBJECTID":620014},"geometry":{"x":167313.96999999974,"y":2543618.129999999}},{"attributes":{"ID":620042,"DIS_CODE":0,"TOWNNAME":"中西區","LI":"民主里","LIN":"9鄰","STREET":"大智街","SECT":" ","MAREA":" ","LANE":" ","ALLEY":" ","HOUSE_NO":"５２號之３","E_COORD97":167303.16,"N_COORD97":2543612.0600000001,"ADDRESS":"大智街５２號之３","OBJECTID":620015},"geometry":{"x":167303.16000000015,"y":2543612.0600000024}},{"attributes":{"ID":620043,"DIS_CODE":0,"TOWNNAME":"永康區","LI":"五王里","LIN":"2鄰","STREET":"成功路","SECT":" ","MAREA":" ","LANE":" ","ALLEY":" ","HOUSE_NO":"８０號","E_COORD97":171478.95000000001,"N_COORD97":2545556.5499999998,"ADDRESS":"成功路８０號","OBJECTID":620016},"geometry":{"x":171478.95000000112,"y":2545556.5500000007}},{"attributes":{"ID":620044,"DIS_CODE":0,"TOWNNAME":"永康區","LI":"五王里","LIN":"2鄰","STREET":"成功路","SECT":" ","MAREA":" ","LANE":" ","ALLEY":" ","HOUSE_NO":"７０號","E_COORD97":171503.92999999999,"N_COORD97":2545507.5899999999,"ADDRESS":"成功路７０號","OBJECTID":620017},"geometry":{"x":171503.93000000156,"y":2545507.5899999999}},{"attributes":{"ID":620045,"DIS_CODE":0,"TOWNNAME":"永康區","LI":"五王里","LIN":"2鄰","STREET":"中華路","SECT":" ","MAREA":" ","LANE":" ","ALLEY":" ","HOUSE_NO":"３９０號","E_COORD97":171427.37,"N_COORD97":2545544.6400000001,"ADDRESS":"中華路３９０號","OBJECTID":620018},"geometry":{"x":171427.37000000104,"y":2545544.6400000006}},{"attributes":{"ID":620046,"DIS_CODE":0,"TOWNNAME":"永康區","LI":"五王里","LIN":"2鄰","STREET":"中華路","SECT":" ","MAREA":" ","LANE":" ","ALLEY":" ","HOUSE_NO":"３８４號","E_COORD97":171437.75,"N_COORD97":2545527.3900000001,"ADDRESS":"中華路３８４號","OBJECTID":620019},"geometry":{"x":171437.75000000093,"y":2545527.3899999987}},{"attributes":{"ID":620047,"DIS_CODE":0,"TOWNNAME":"永康區","LI":"五王里","LIN":"2鄰","STREET":"中華路","SECT":" ","MAREA":" ","LANE":" ","ALLEY":" ","HOUSE_NO":"３５４號","E_COORD97":171467.82000000001,"N_COORD97":2545466.4900000002,"ADDRESS":"中華路３５４號","OBJECTID":620020},"geometry":{"x":171467.81999999937,"y":2545466.4900000021}},{"attributes":{"ID":620048,"DIS_CODE":0,"TOWNNAME":"永康區","LI":"五王里","LIN":"2鄰","STREET":"中華路","SECT":" ","MAREA":" ","LANE":" ","ALLEY":" ","HOUSE_NO":"３７２號","E_COORD97":171450.69,"N_COORD97":2545504.1499999999,"ADDRESS":"中華路３７２號","OBJECTID":620021},"geometry":{"x":171450.69000000134,"y":2545504.1500000004}},{"attributes":{"ID":620049,"DIS_CODE":0,"TOWNNAME":"永康區","LI":"五王里","LIN":"2鄰","STREET":"中華路","SECT":" ","MAREA":" ","LANE":" ","ALLEY":" ","HOUSE_NO":"３５６號","E_COORD97":171465.62,"N_COORD97":2545470.4900000002,"ADDRESS":"中華路３５６號","OBJECTID":620022},"geometry":{"x":171465.62000000197,"y":2545470.4900000021}},{"attributes":{"ID":620050,"DIS_CODE":0,"TOWNNAME":"永康區","LI":"五王里","LIN":"2鄰","STREET":"中華路","SECT":" ","MAREA":" ","LANE":" ","ALLEY":" ","HOUSE_NO":"４０６號","E_COORD97":171399.82000000001,"N_COORD97":2545583.75,"ADDRESS":"中華路４０６號","OBJECTID":620023},"geometry":{"x":171399.8200000003,"y":2545583.7500000019}},{"attributes":{"ID":620051,"DIS_CODE":0,"TOWNNAME":"永康區","LI":"五王里","LIN":"2鄰","STREET":"成功路","SECT":" ","MAREA":" ","LANE":" ","ALLEY":" ","HOUSE_NO":"３１號","E_COORD97":171513.37,"N_COORD97":2545453.3999999999,"ADDRESS":"成功路３１號","OBJECTID":620024},"geometry":{"x":171513.37000000104,"y":2545453.4000000022}},{"attributes":{"ID":620052,"DIS_CODE":0,"TOWNNAME":"永康區","LI":"五王里","LIN":"2鄰","STREET":"成功路","SECT":" ","MAREA":" ","LANE":" ","ALLEY":" ","HOUSE_NO":"４５號","E_COORD97":171497.76999999999,"N_COORD97":2545480.1600000001,"ADDRESS":"成功路４５號","OBJECTID":620025},"geometry":{"x":171497.76999999955,"y":2545480.1600000001}},{"attributes":{"ID":620053,"DIS_CODE":0,"TOWNNAME":"永康區","LI":"五王里","LIN":"2鄰","STREET":"中華路","SECT":" ","MAREA":" ","LANE":" ","ALLEY":" ","HOUSE_NO":"３８２號","E_COORD97":171439.60000000001,"N_COORD97":2545523.1499999999,"ADDRESS":"中華路３８２號","OBJECTID":620026},"geometry":{"x":171439.59999999963,"y":2545523.1500000022}},{"attributes":{"ID":620054,"DIS_CODE":0,"TOWNNAME":"東區","LI":"成大里","LIN":"26鄰","STREET":"育樂街","SECT":" ","MAREA":" ","LANE":" ","ALLEY":" ","HOUSE_NO":"７０號","E_COORD97":169590.22,"N_COORD97":2544047.7400000002,"ADDRESS":"育樂街７０號","OBJECTID":620027},"geometry":{"x":169590.22000000067,"y":2544047.7400000021}},{"attributes":{"ID":620055,"DIS_CODE":0,"TOWNNAME":"永康區","LI":"五王里","LIN":"2鄰","STREET":"中華路","SECT":" ","MAREA":" ","LANE":" ","ALLEY":" ","HOUSE_NO":"３５８號","E_COORD97":171463.44,"N_COORD97":2545474.5,"ADDRESS":"中華路３５８號","OBJECTID":620028},"geometry":{"x":171463.44000000041,"y":2545474.5}},{"attributes":{"ID":620056,"DIS_CODE":0,"TOWNNAME":"永康區","LI":"五王里","LIN":"2鄰","STREET":"中華路","SECT":" ","MAREA":" ","LANE":" ","ALLEY":" ","HOUSE_NO":"３７６號","E_COORD97":171446.42999999999,"N_COORD97":2545510.8999999999,"ADDRESS":"中華路３７６號","OBJECTID":620029},"geometry":{"x":171446.43000000063,"y":2545510.9000000022}},{"attributes":{"ID":620057,"DIS_CODE":0,"TOWNNAME":"永康區","LI":"五王里","LIN":"2鄰","STREET":"中華路","SECT":" ","MAREA":" ","LANE":" ","ALLEY":" ","HOUSE_NO":"３９４號","E_COORD97":171421.23999999999,"N_COORD97":2545555.3900000001,"ADDRESS":"中華路３９４號","OBJECTID":620030},"geometry":{"x":171421.24000000115,"y":2545555.3900000025}},{"attributes":{"ID":620058,"DIS_CODE":0,"TOWNNAME":"永康區","LI":"五王里","LIN":"2鄰","STREET":"中華路","SECT":" ","MAREA":" ","LANE":" ","ALLEY":" ","HOUSE_NO":"３９２號","E_COORD97":171424.78,"N_COORD97":2545548.8900000001,"ADDRESS":"中華路３９２號","OBJECTID":620031},"geometry":{"x":171424.78000000119,"y":2545548.8900000025}},{"attributes":{"ID":620059,"DIS_CODE":0,"TOWNNAME":"永康區","LI":"五王里","LIN":"2鄰","STREET":"中華路","SECT":" ","MAREA":" ","LANE":" ","ALLEY":" ","HOUSE_NO":"３４６之２號","E_COORD97":171481.54000000001,"N_COORD97":2545447.04,"ADDRESS":"中華路３４６之２號","OBJECTID":620032},"geometry":{"x":171481.54000000097,"y":2545447.0400000028}},{"attributes":{"ID":620060,"DIS_CODE":0,"TOWNNAME":"永康區","LI":"三民里","LIN":"2鄰","STREET":"三民街","SECT":" ","MAREA":" ","LANE":" ","ALLEY":" ","HOUSE_NO":"１０７號","E_COORD97":172773.35999999999,"N_COORD97":2550344.1800000002,"ADDRESS":"三民街１０７號","OBJECTID":620033},"geometry":{"x":172773.36000000127,"y":2550344.1799999997}},{"attributes":{"ID":620061,"DIS_CODE":0,"TOWNNAME":"永康區","LI":"大橋里","LIN":"2鄰","STREET":"中華路","SECT":" ","MAREA":" ","LANE":" ","ALLEY":" ","HOUSE_NO":"８４４號","E_COORD97":170698.64999999999,"N_COORD97":2546558.75,"ADDRESS":"中華路８４４號","OBJECTID":620034},"geometry":{"x":170698.6500000013,"y":2546558.7500000037}},{"attributes":{"ID":620062,"DIS_CODE":0,"TOWNNAME":"永康區","LI":"五王里","LIN":"2鄰","STREET":"中華路","SECT":" ","MAREA":" ","LANE":" ","ALLEY":" ","HOUSE_NO":"３７８號","E_COORD97":171444.26000000001,"N_COORD97":2545515.1499999999,"ADDRESS":"中華路３７８號","OBJECTID":620035},"geometry":{"x":171444.26000000071,"y":2545515.1499999985}},{"attributes":{"ID":620063,"DIS_CODE":0,"TOWNNAME":"永康區","LI":"二王里","LIN":"2鄰","STREET":"永二街","SECT":" ","MAREA":" ","LANE":" ","ALLEY":" ","HOUSE_NO":"２８２號","E_COORD97":173067.92000000001,"N_COORD97":2546525.73,"ADDRESS":"永二街２８２號","OBJECTID":620036},"geometry":{"x":173067.92000000086,"y":2546525.7300000023}},{"attributes":{"ID":620064,"DIS_CODE":0,"TOWNNAME":"永康區","LI":"五王里","LIN":"2鄰","STREET":"成功路","SECT":" ","MAREA":" ","LANE":" ","ALLEY":" ","HOUSE_NO":"７６號","E_COORD97":171483.75,"N_COORD97":2545548.0499999998,"ADDRESS":"成功路７６號","OBJECTID":620037},"geometry":{"x":171483.75000000093,"y":2545548.0500000026}},{"attributes":{"ID":620065,"DIS_CODE":0,"TOWNNAME":"永康區","LI":"大橋里","LIN":"2鄰","STREET":"中華路","SECT":" ","MAREA":" ","LANE":" ","ALLEY":" ","HOUSE_NO":"８５２號","E_COORD97":170682.10000000001,"N_COORD97":2546570.2400000002,"ADDRESS":"中華路８５２號","OBJECTID":620038},"geometry":{"x":170682.10000000149,"y":2546570.2400000021}},{"attributes":{"ID":620066,"DIS_CODE":0,"TOWNNAME":"永康區","LI":"五王里","LIN":"2鄰","STREET":"中華路","SECT":" ","MAREA":" ","LANE":" ","ALLEY":" ","HOUSE_NO":"３８６號","E_COORD97":171434.41,"N_COORD97":2545533.6400000001,"ADDRESS":"中華路３８６號","OBJECTID":620039},"geometry":{"x":171434.41000000015,"y":2545533.6400000025}},{"attributes":{"ID":620067,"DIS_CODE":0,"TOWNNAME":"永康區","LI":"二王里","LIN":"2鄰","STREET":"永二街","SECT":" ","MAREA":" ","LANE":" ","ALLEY":" ","HOUSE_NO":"２７４號","E_COORD97":173086.14999999999,"N_COORD97":2546513,"ADDRESS":"永二街２７４號","OBJECTID":620040},"geometry":{"x":173086.15000000037,"y":2546513.0000000037}},{"attributes":{"ID":620068,"DIS_CODE":0,"TOWNNAME":"永康區","LI":"三民里","LIN":"2鄰","STREET":"三民街","SECT":" ","MAREA":" ","LANE":" ","ALLEY":" ","HOUSE_NO":"１２２號","E_COORD97":172851.23000000001,"N_COORD97":2550355.29,"ADDRESS":"三民街１２２號","OBJECTID":620041},"geometry":{"x":172851.23000000045,"y":2550355.290000001}},{"attributes":{"ID":620069,"DIS_CODE":0,"TOWNNAME":"永康區","LI":"尚頂里","LIN":"2鄰","STREET":"中正二街","SECT":" ","MAREA":" ","LANE":" ","ALLEY":" ","HOUSE_NO":"１３６號","E_COORD97":171272.51999999999,"N_COORD97":2547636.3700000001,"ADDRESS":"中正二街１３６號","OBJECTID":620042},"geometry":{"x":171272.52000000142,"y":2547636.370000001}},{"attributes":{"ID":620070,"DIS_CODE":0,"TOWNNAME":"永康區","LI":"尚頂里","LIN":"2鄰","STREET":"中正二街","SECT":" ","MAREA":" ","LANE":" ","ALLEY":" ","HOUSE_NO":"１３８號","E_COORD97":171280,"N_COORD97":2547641.29,"ADDRESS":"中正二街１３８號","OBJECTID":620043},"geometry":{"x":171280.00000000186,"y":2547641.2899999991}},{"attributes":{"ID":620071,"DIS_CODE":0,"TOWNNAME":"永康區","LI":"尚頂里","LIN":"2鄰","STREET":"中正二街","SECT":" ","MAREA":" ","LANE":" ","ALLEY":" ","HOUSE_NO":"１４６號","E_COORD97":171287.53,"N_COORD97":2547646.5499999998,"ADDRESS":"中正二街１４６號","OBJECTID":620044},"geometry":{"x":171287.53000000119,"y":2547646.5500000026}},{"attributes":{"ID":620072,"DIS_CODE":0,"TOWNNAME":"永康區","LI":"西勢里","LIN":"2鄰","STREET":"西勢路","SECT":" ","MAREA":" ","LANE":" ","ALLEY":" ","HOUSE_NO":"４４６號","E_COORD97":175254.51999999999,"N_COORD97":2546808.0499999998,"ADDRESS":"西勢路４４６號","OBJECTID":620045},"geometry":{"x":175254.52000000142,"y":2546808.0499999989}},{"attributes":{"ID":620073,"DIS_CODE":0,"TOWNNAME":"東區","LI":"富裕里","LIN":"2鄰","STREET":"東門路","SECT":"二段","MAREA":" ","LANE":" ","ALLEY":" ","HOUSE_NO":"２５９號地下層","E_COORD97":170624.70000000001,"N_COORD97":2542713.4500000002,"ADDRESS":"東門路二段２５９號地下層","OBJECTID":620046},"geometry":{"x":170624.70000000112,"y":2542713.4499999993}},{"attributes":{"ID":620074,"DIS_CODE":0,"TOWNNAME":"東區","LI":"德高里","LIN":"2鄰","STREET":"仁和路","SECT":" ","MAREA":" ","LANE":" ","ALLEY":" ","HOUSE_NO":"１４９號","E_COORD97":171583.278066,"N_COORD97":2540955.6311499998,"ADDRESS":"仁和路１４９號","OBJECTID":620047},"geometry":{"x":171583.2780660009,"y":2540955.6311530005}},{"attributes":{"ID":620075,"DIS_CODE":0,"TOWNNAME":"東區","LI":"德高里","LIN":"2鄰","STREET":"仁和路","SECT":" ","MAREA":" ","LANE":" ","ALLEY":" ","HOUSE_NO":"１５９號","E_COORD97":171605.91,"N_COORD97":2540916.6600000001,"ADDRESS":"仁和路１５９號","OBJECTID":620048},"geometry":{"x":171605.91000000015,"y":2540916.6600000001}},{"attributes":{"ID":620076,"DIS_CODE":0,"TOWNNAME":"東區","LI":"德高里","LIN":"2鄰","STREET":"仁和路","SECT":" ","MAREA":" ","LANE":" ","ALLEY":" ","HOUSE_NO":"１６１號","E_COORD97":171607.32999999999,"N_COORD97":2540913.3999999999,"ADDRESS":"仁和路１６１號","OBJECTID":620049},"geometry":{"x":171607.33000000101,"y":2540913.4000000022}},{"attributes":{"ID":620077,"DIS_CODE":0,"TOWNNAME":"東區","LI":"德高里","LIN":"2鄰","STREET":"仁和路","SECT":" ","MAREA":" ","LANE":" ","ALLEY":" ","HOUSE_NO":"１６３號","E_COORD97":171608.89000000001,"N_COORD97":2540909.4300000002,"ADDRESS":"仁和路１６３號","OBJECTID":620050},"geometry":{"x":171608.88999999966,"y":2540909.4300000016}},{"attributes":{"ID":620078,"DIS_CODE":0,"TOWNNAME":"東區","LI":"大智里","LIN":"2鄰","STREET":"生產路","SECT":" ","MAREA":" ","LANE":" ","ALLEY":" ","HOUSE_NO":"５４２號","E_COORD97":171103.23999999999,"N_COORD97":2540652.8100000001,"ADDRESS":"生產路５４２號","OBJECTID":620051},"geometry":{"x":171103.24000000022,"y":2540652.8100000042}},{"attributes":{"ID":620079,"DIS_CODE":0,"TOWNNAME":"安南區","LI":"公親里","LIN":"2鄰","STREET":"公學路","SECT":"一段","MAREA":" ","LANE":" ","ALLEY":" ","HOUSE_NO":"２６０號","E_COORD97":167954.29000000001,"N_COORD97":2552990.0499999998,"ADDRESS":"公學路一段２６０號","OBJECTID":620052},"geometry":{"x":167954.29000000097,"y":2552990.0500000026}},{"attributes":{"ID":620080,"DIS_CODE":0,"TOWNNAME":"安南區","LI":"城西里","LIN":"2鄰","STREET":"城西街","SECT":"三段","MAREA":" ","LANE":" ","ALLEY":" ","HOUSE_NO":"４２６號之３","E_COORD97":157316.09,"N_COORD97":2550907.04,"ADDRESS":"城西街三段４２６號之３","OBJECTID":620053},"geometry":{"x":157316.09000000078,"y":2550907.040000001}},{"attributes":{"ID":620081,"DIS_CODE":0,"TOWNNAME":"白河區","LI":"永安里","LIN":"2鄰","STREET":"中正路","SECT":" ","MAREA":" ","LANE":" ","ALLEY":" ","HOUSE_NO":"１３號","E_COORD97":190258.32000000001,"N_COORD97":2583081.4900000002,"ADDRESS":"中正路１３號","OBJECTID":620054},"geometry":{"x":190258.3200000003,"y":2583081.4899999984}},{"attributes":{"ID":620082,"DIS_CODE":0,"TOWNNAME":"白河區","LI":"永安里","LIN":"2鄰","STREET":"中正路","SECT":" ","MAREA":" ","LANE":" ","ALLEY":" ","HOUSE_NO":"１７號","E_COORD97":190170.5,"N_COORD97":2583103.96,"ADDRESS":"中正路１７號","OBJECTID":620055},"geometry":{"x":190170.5,"y":2583103.9600000028}},{"attributes":{"ID":620083,"DIS_CODE":0,"TOWNNAME":"白河區","LI":"永安里","LIN":"2鄰","STREET":"中正路","SECT":" ","MAREA":" ","LANE":" ","ALLEY":" ","HOUSE_NO":"１９號","E_COORD97":190166.60999999999,"N_COORD97":2583104.8599999999,"ADDRESS":"中正路１９號","OBJECTID":620056},"geometry":{"x":190166.61000000034,"y":2583104.8599999994}},{"attributes":{"ID":620084,"DIS_CODE":0,"TOWNNAME":"白河區","LI":"永安里","LIN":"2鄰","STREET":"中正路","SECT":" ","MAREA":" ","LANE":" ","ALLEY":" ","HOUSE_NO":"２１號","E_COORD97":190162.76000000001,"N_COORD97":2583105.8100000001,"ADDRESS":"中正路２１號","OBJECTID":620057},"geometry":{"x":190162.76000000071,"y":2583105.8100000005}},{"attributes":{"ID":620085,"DIS_CODE":0,"TOWNNAME":"白河區","LI":"永安里","LIN":"2鄰","STREET":"中正路","SECT":" ","MAREA":" ","LANE":" ","ALLEY":" ","HOUSE_NO":"２３號","E_COORD97":190158.23000000001,"N_COORD97":2583106.8100000001,"ADDRESS":"中正路２３號","OBJECTID":620058},"geometry":{"x":190158.23000000231,"y":2583106.8099999987}},{"attributes":{"ID":620086,"DIS_CODE":0,"TOWNNAME":"白河區","LI":"永安里","LIN":"2鄰","STREET":"中正路","SECT":" ","MAREA":" ","LANE":" ","ALLEY":" ","HOUSE_NO":"２９號","E_COORD97":190138.20999999999,"N_COORD97":2583112.8500000001,"ADDRESS":"中正路２９號","OBJECTID":620059},"geometry":{"x":190138.21000000089,"y":2583112.8500000015}},{"attributes":{"ID":620087,"DIS_CODE":0,"TOWNNAME":"白河區","LI":"永安里","LIN":"2鄰","STREET":"中正路","SECT":" ","MAREA":" ","LANE":" ","ALLEY":" ","HOUSE_NO":"３１號","E_COORD97":190134.01000000001,"N_COORD97":2583114.7000000002,"ADDRESS":"中正路３１號","OBJECTID":620060},"geometry":{"x":190134.01000000071,"y":2583114.7000000011}},{"attributes":{"ID":620088,"DIS_CODE":0,"TOWNNAME":"白河區","LI":"永安里","LIN":"2鄰","STREET":"中正路","SECT":" ","MAREA":" ","LANE":" ","ALLEY":" ","HOUSE_NO":"３３號","E_COORD97":190130.78,"N_COORD97":2583115.54,"ADDRESS":"中正路３３號","OBJECTID":620061},"geometry":{"x":190130.78000000119,"y":2583115.540000001}},{"attributes":{"ID":620089,"DIS_CODE":0,"TOWNNAME":"白河區","LI":"永安里","LIN":"2鄰","STREET":"中正路","SECT":" ","MAREA":" ","LANE":" ","ALLEY":" ","HOUSE_NO":"３５號","E_COORD97":190127.01000000001,"N_COORD97":2583116.8300000001,"ADDRESS":"中正路３５號","OBJECTID":620062},"geometry":{"x":190127.01000000071,"y":2583116.8300000019}},{"attributes":{"ID":620090,"DIS_CODE":0,"TOWNNAME":"白河區","LI":"永安里","LIN":"2鄰","STREET":"中正路","SECT":" ","MAREA":" ","LANE":" ","ALLEY":" ","HOUSE_NO":"３７號","E_COORD97":190122.72,"N_COORD97":2583118.1099999999,"ADDRESS":"中正路３７號","OBJECTID":620063},"geometry":{"x":190122.71999999974,"y":2583118.1100000013}},{"attributes":{"ID":620091,"DIS_CODE":0,"TOWNNAME":"白河區","LI":"永安里","LIN":"2鄰","STREET":"中正路","SECT":" ","MAREA":" ","LANE":" ","ALLEY":" ","HOUSE_NO":"３９之１號","E_COORD97":190114.51999999999,"N_COORD97":2583118.0899999999,"ADDRESS":"中正路３９之１號","OBJECTID":620064},"geometry":{"x":190114.52000000142,"y":2583118.0900000036}},{"attributes":{"ID":620092,"DIS_CODE":0,"TOWNNAME":"白河區","LI":"永安里","LIN":"2鄰","STREET":"中正路","SECT":" ","MAREA":" ","LANE":" ","ALLEY":" ","HOUSE_NO":"３９號","E_COORD97":190118.26000000001,"N_COORD97":2583116.4300000002,"ADDRESS":"中正路３９號","OBJECTID":620065},"geometry":{"x":190118.26000000164,"y":2583116.4300000016}},{"attributes":{"ID":620093,"DIS_CODE":0,"TOWNNAME":"安南區","LI":"淵中里","LIN":"2鄰","STREET":"安中路","SECT":"三段","MAREA":" ","LANE":" ","ALLEY":" ","HOUSE_NO":"４３７號","E_COORD97":165313.60000000001,"N_COORD97":2550070,"ADDRESS":"安中路三段４３７號","OBJECTID":620066},"geometry":{"x":165313.60000000056,"y":2550070.0000000019}},{"attributes":{"ID":620094,"DIS_CODE":0,"TOWNNAME":"安南區","LI":"頂安里","LIN":"2鄰","STREET":"長溪路","SECT":"一段","MAREA":" ","LANE":" ","ALLEY":" ","HOUSE_NO":"３９８號","E_COORD97":168618.95000000001,"N_COORD97":2548933.1699999999,"ADDRESS":"長溪路一段３９８號","OBJECTID":620067},"geometry":{"x":168618.95000000205,"y":2548933.1700000018}},{"attributes":{"ID":620095,"DIS_CODE":0,"TOWNNAME":"安南區","LI":"頂安里","LIN":"2鄰","STREET":"長溪路","SECT":"一段","MAREA":" ","LANE":" ","ALLEY":" ","HOUSE_NO":"３９６號","E_COORD97":168623.07999999999,"N_COORD97":2548931.9900000002,"ADDRESS":"長溪路一段３９６號","OBJECTID":620068},"geometry":{"x":168623.08000000194,"y":2548931.9900000021}},{"attributes":{"ID":620096,"DIS_CODE":0,"TOWNNAME":"中西區","LI":"民主里","LIN":"13鄰","STREET":"中正路","SECT":" ","MAREA":" ","LANE":" ","ALLEY":" ","HOUSE_NO":"３５２號之６","E_COORD97":167363.28,"N_COORD97":2543828.3100000001,"ADDRESS":"中正路３５２號之６","OBJECTID":620069},"geometry":{"x":167363.28000000026,"y":2543828.3100000005}},{"attributes":{"ID":620097,"DIS_CODE":0,"TOWNNAME":"中西區","LI":"民主里","LIN":"13鄰","STREET":"中正路","SECT":" ","MAREA":" ","LANE":" ","ALLEY":" ","HOUSE_NO":"３５２號之７","E_COORD97":167357.39000000001,"N_COORD97":2543829.6600000001,"ADDRESS":"中正路３５２號之７","OBJECTID":620070},"geometry":{"x":167357.38999999966,"y":2543829.6600000001}},{"attributes":{"ID":620098,"DIS_CODE":0,"TOWNNAME":"中西區","LI":"民主里","LIN":"13鄰","STREET":"中正路","SECT":" ","MAREA":" ","LANE":" ","ALLEY":" ","HOUSE_NO":"３５２號之８","E_COORD97":167352.85000000001,"N_COORD97":2543830.52,"ADDRESS":"中正路３５２號之８","OBJECTID":620071},"geometry":{"x":167352.85000000149,"y":2543830.5200000033}},{"attributes":{"ID":620099,"DIS_CODE":0,"TOWNNAME":"中西區","LI":"民主里","LIN":"13鄰","STREET":"中正路","SECT":" ","MAREA":" ","LANE":" ","ALLEY":" ","HOUSE_NO":"３５２號之９","E_COORD97":167348.42999999999,"N_COORD97":2543831.3799999999,"ADDRESS":"中正路３５２號之９","OBJECTID":620072},"geometry":{"x":167348.4299999997,"y":2543831.3800000008}},{"attributes":{"ID":620100,"DIS_CODE":0,"TOWNNAME":"中西區","LI":"民主里","LIN":"13鄰","STREET":"友愛街","SECT":" ","MAREA":" ","LANE":" ","ALLEY":" ","HOUSE_NO":"３１４號","E_COORD97":167370.47,"N_COORD97":2543703.7599999998,"ADDRESS":"友愛街３１４號","OBJECTID":620073},"geometry":{"x":167370.46999999974,"y":2543703.7600000035}},{"attributes":{"ID":620101,"DIS_CODE":0,"TOWNNAME":"中西區","LI":"民生里","LIN":"9鄰","STREET":"南華街","SECT":" ","MAREA":" ","LANE":" ","ALLEY":" ","HOUSE_NO":"２８號","E_COORD97":167098.03,"N_COORD97":2543358.3199999998,"ADDRESS":"南華街２８號","OBJECTID":620074},"geometry":{"x":167098.03000000212,"y":2543358.3200000022}},{"attributes":{"ID":620102,"DIS_CODE":0,"TOWNNAME":"安南區","LI":"頂安里","LIN":"2鄰","STREET":"長溪路","SECT":"一段","MAREA":" ","LANE":" ","ALLEY":" ","HOUSE_NO":"３９４號","E_COORD97":168626.03,"N_COORD97":2548930.2200000002,"ADDRESS":"長溪路一段３９４號","OBJECTID":620075},"geometry":{"x":168626.03000000119,"y":2548930.2200000025}},{"attributes":{"ID":620103,"DIS_CODE":0,"TOWNNAME":"安南區","LI":"頂安里","LIN":"2鄰","STREET":"長溪路","SECT":"一段","MAREA":" ","LANE":" ","ALLEY":" ","HOUSE_NO":"３９２號","E_COORD97":168628.69,"N_COORD97":2548925.5,"ADDRESS":"長溪路一段３９２號","OBJECTID":620076},"geometry":{"x":168628.69000000041,"y":2548925.5}},{"attributes":{"ID":620104,"DIS_CODE":0,"TOWNNAME":"安南區","LI":"頂安里","LIN":"2鄰","STREET":"長溪路","SECT":"一段","MAREA":" ","LANE":" ","ALLEY":" ","HOUSE_NO":"３９０號","E_COORD97":168632.23000000001,"N_COORD97":2548923.1400000001,"ADDRESS":"長溪路一段３９０號","OBJECTID":620077},"geometry":{"x":168632.23000000045,"y":2548923.1400000043}},{"attributes":{"ID":620105,"DIS_CODE":0,"TOWNNAME":"安南區","LI":"頂安里","LIN":"2鄰","STREET":"長溪路","SECT":"一段","MAREA":" ","LANE":" ","ALLEY":" ","HOUSE_NO":"３７２號","E_COORD97":168659.98999999999,"N_COORD97":2548897.1800000002,"ADDRESS":"長溪路一段３７２號","OBJECTID":620078},"geometry":{"x":168659.99000000115,"y":2548897.1799999997}},{"attributes":{"ID":620106,"DIS_CODE":0,"TOWNNAME":"安南區","LI":"新順里","LIN":"2鄰","STREET":"安生街","SECT":" ","MAREA":" ","LANE":" ","ALLEY":" ","HOUSE_NO":"８２號","E_COORD97":169548.64999999999,"N_COORD97":2549545.3599999999,"ADDRESS":"安生街８２號","OBJECTID":620079},"geometry":{"x":169548.6500000013,"y":2549545.3600000013}},{"attributes":{"ID":620107,"DIS_CODE":0,"TOWNNAME":"安南區","LI":"溪頂里","LIN":"2鄰","STREET":"府安路","SECT":"四段","MAREA":" ","LANE":" ","ALLEY":" ","HOUSE_NO":"１０３號","E_COORD97":169064.51999999999,"N_COORD97":2547274.7400000002,"ADDRESS":"府安路四段１０３號","OBJECTID":620080},"geometry":{"x":169064.52000000048,"y":2547274.7400000021}},{"attributes":{"ID":620108,"DIS_CODE":0,"TOWNNAME":"安南區","LI":"溪頂里","LIN":"2鄰","STREET":"府安路","SECT":"四段","MAREA":" ","LANE":" ","ALLEY":" ","HOUSE_NO":"１０５號","E_COORD97":169056.72,"N_COORD97":2547274.2200000002,"ADDRESS":"府安路四段１０５號","OBJECTID":620081},"geometry":{"x":169056.71999999974,"y":2547274.2200000007}},{"attributes":{"ID":620109,"DIS_CODE":0,"TOWNNAME":"永康區","LI":"復華里","LIN":"2鄰","STREET":"復國二路","SECT":" ","MAREA":" ","LANE":" ","ALLEY":" ","HOUSE_NO":"２６６號","E_COORD97":173051.06,"N_COORD97":2545984.1200000001,"ADDRESS":"復國二路２６６號","OBJECTID":620082},"geometry":{"x":173051.06000000052,"y":2545984.1200000048}},{"attributes":{"ID":620110,"DIS_CODE":0,"TOWNNAME":"永康區","LI":"埔園里","LIN":"2鄰","STREET":"中山路","SECT":" ","MAREA":" ","LANE":" ","ALLEY":" ","HOUSE_NO":"１１４號","E_COORD97":173801.01000000001,"N_COORD97":2547701.7400000002,"ADDRESS":"中山路１１４號","OBJECTID":620083},"geometry":{"x":173801.01000000071,"y":2547701.7400000021}},{"attributes":{"ID":620111,"DIS_CODE":0,"TOWNNAME":"永康區","LI":"埔園里","LIN":"2鄰","STREET":"中山路","SECT":" ","MAREA":" ","LANE":" ","ALLEY":" ","HOUSE_NO":"９６號之１","E_COORD97":173814.48999999999,"N_COORD97":2547654.2999999998,"ADDRESS":"中山路９６號之１","OBJECTID":620084},"geometry":{"x":173814.49000000209,"y":2547654.3000000045}},{"attributes":{"ID":620112,"DIS_CODE":0,"TOWNNAME":"永康區","LI":"埔園里","LIN":"2鄰","STREET":"中山路","SECT":" ","MAREA":" ","LANE":" ","ALLEY":" ","HOUSE_NO":"１１０號","E_COORD97":173803.5,"N_COORD97":2547692.5,"ADDRESS":"中山路１１０號","OBJECTID":620085},"geometry":{"x":173803.5,"y":2547692.4999999981}},{"attributes":{"ID":620113,"DIS_CODE":0,"TOWNNAME":"永康區","LI":"埔園里","LIN":"2鄰","STREET":"中山路","SECT":" ","MAREA":" ","LANE":" ","ALLEY":" ","HOUSE_NO":"１２４號","E_COORD97":173794.63,"N_COORD97":2547729.7400000002,"ADDRESS":"中山路１２４號","OBJECTID":620086},"geometry":{"x":173794.63000000175,"y":2547729.7400000021}},{"attributes":{"ID":620114,"DIS_CODE":0,"TOWNNAME":"永康區","LI":"烏竹里","LIN":"2鄰","STREET":"烏竹北街","SECT":" ","MAREA":" ","LANE":" ","ALLEY":" ","HOUSE_NO":"１０號","E_COORD97":174655.23999999999,"N_COORD97":2549387.4900000002,"ADDRESS":"烏竹北街１０號","OBJECTID":620087},"geometry":{"x":174655.23999999929,"y":2549387.4900000002}},{"attributes":{"ID":620115,"DIS_CODE":0,"TOWNNAME":"永康區","LI":"烏竹里","LIN":"2鄰","STREET":"烏竹北街","SECT":" ","MAREA":" ","LANE":" ","ALLEY":" ","HOUSE_NO":"３３號","E_COORD97":174579.48000000001,"N_COORD97":2549423.0800000001,"ADDRESS":"烏竹北街３３號","OBJECTID":620088},"geometry":{"x":174579.48000000231,"y":2549423.0800000001}},{"attributes":{"ID":620116,"DIS_CODE":0,"TOWNNAME":"中西區","LI":"民生里","LIN":"5鄰","STREET":"永華路","SECT":"一段","MAREA":" ","LANE":" ","ALLEY":" ","HOUSE_NO":"２４６號","E_COORD97":167019.92999999999,"N_COORD97":2543246.9300000002,"ADDRESS":"永華路一段２４６號","OBJECTID":620089},"geometry":{"x":167019.92999999877,"y":2543246.9299999997}},{"attributes":{"ID":620117,"DIS_CODE":0,"TOWNNAME":"中西區","LI":"民生里","LIN":"5鄰","STREET":"永華路","SECT":"一段","MAREA":" ","LANE":" ","ALLEY":" ","HOUSE_NO":"２４８號","E_COORD97":167013.34,"N_COORD97":2543249.3900000001,"ADDRESS":"永華路一段２４８號","OBJECTID":620090},"geometry":{"x":167013.33999999985,"y":2543249.3900000043}},{"attributes":{"ID":620118,"DIS_CODE":0,"TOWNNAME":"中西區","LI":"民生里","LIN":"5鄰","STREET":"武英街","SECT":" ","MAREA":" ","LANE":" ","ALLEY":" ","HOUSE_NO":"５３號","E_COORD97":167057,"N_COORD97":2543329.1899999999,"ADDRESS":"武英街５３號","OBJECTID":620091},"geometry":{"x":167057,"y":2543329.1899999995}},{"attributes":{"ID":620119,"DIS_CODE":0,"TOWNNAME":"中西區","LI":"民生里","LIN":"5鄰","STREET":"武英街","SECT":" ","MAREA":" ","LANE":" ","ALLEY":" ","HOUSE_NO":"５９號","E_COORD97":167044.92000000001,"N_COORD97":2543326.3599999999,"ADDRESS":"武英街５９號","OBJECTID":620092},"geometry":{"x":167044.92000000086,"y":2543326.3600000031}},{"attributes":{"ID":620120,"DIS_CODE":0,"TOWNNAME":"中西區","LI":"民生里","LIN":"5鄰","STREET":"武英街","SECT":" ","MAREA":" ","LANE":" ","ALLEY":" ","HOUSE_NO":"６１號","E_COORD97":167041.62,"N_COORD97":2543326.6299999999,"ADDRESS":"武英街６１號","OBJECTID":620093},"geometry":{"x":167041.62000000104,"y":2543326.629999999}},{"attributes":{"ID":620121,"DIS_CODE":0,"TOWNNAME":"中西區","LI":"民生里","LIN":"5鄰","STREET":"武英街","SECT":" ","MAREA":" ","LANE":" ","ALLEY":" ","HOUSE_NO":"６３號","E_COORD97":167037.78,"N_COORD97":2543327.73,"ADDRESS":"武英街６３號","OBJECTID":620094},"geometry":{"x":167037.78000000026,"y":2543327.7300000004}},{"attributes":{"ID":620122,"DIS_CODE":0,"TOWNNAME":"中西區","LI":"民生里","LIN":"5鄰","STREET":"武英街","SECT":" ","MAREA":" ","LANE":" ","ALLEY":" ","HOUSE_NO":"６５號","E_COORD97":167032.29000000001,"N_COORD97":2543329.1000000001,"ADDRESS":"武英街６５號","OBJECTID":620095},"geometry":{"x":167032.29000000097,"y":2543329.1000000015}},{"attributes":{"ID":620123,"DIS_CODE":0,"TOWNNAME":"安南區","LI":"顯宮里","LIN":"2鄰","STREET":"媽祖宮路","SECT":" ","MAREA":" ","LANE":" ","ALLEY":" ","HOUSE_NO":"９１號","E_COORD97":160698.29000000001,"N_COORD97":2548870.1299999999,"ADDRESS":"媽祖宮路９１號","OBJECTID":620096},"geometry":{"x":160698.2900000019,"y":2548870.129999999}},{"attributes":{"ID":620124,"DIS_CODE":0,"TOWNNAME":"安南區","LI":"顯宮里","LIN":"2鄰","STREET":"媽祖宮路","SECT":" ","MAREA":" ","LANE":" ","ALLEY":" ","HOUSE_NO":"１３９號","E_COORD97":160545.89000000001,"N_COORD97":2548803.2000000002,"ADDRESS":"媽祖宮路１３９號","OBJECTID":620097},"geometry":{"x":160545.88999999966,"y":2548803.2000000011}},{"attributes":{"ID":620125,"DIS_CODE":0,"TOWNNAME":"安南區","LI":"總頭里","LIN":"2鄰","STREET":"總安街","SECT":"二段","MAREA":" ","LANE":" ","ALLEY":" ","HOUSE_NO":"３８號","E_COORD97":168920.39999999999,"N_COORD97":2550404.21,"ADDRESS":"總安街二段３８號","OBJECTID":620098},"geometry":{"x":168920.4000000013,"y":2550404.209999999}},{"attributes":{"ID":620126,"DIS_CODE":0,"TOWNNAME":"安南區","LI":"總頭里","LIN":"2鄰","STREET":"總安街","SECT":"二段","MAREA":" ","LANE":" ","ALLEY":" ","HOUSE_NO":"２４０號","E_COORD97":168621.95000000001,"N_COORD97":2550447.0699999998,"ADDRESS":"總安街二段２４０號","OBJECTID":620099},"geometry":{"x":168621.95000000019,"y":2550447.0700000022}},{"attributes":{"ID":620127,"DIS_CODE":0,"TOWNNAME":"安南區","LI":"總頭里","LIN":"2鄰","STREET":"總安街","SECT":"二段","MAREA":" ","LANE":" ","ALLEY":" ","HOUSE_NO":"２４２號","E_COORD97":168589.14000000001,"N_COORD97":2550457.1200000001,"ADDRESS":"總安街二段２４２號","OBJECTID":620100},"geometry":{"x":168589.1400000006,"y":2550457.1200000029}},{"attributes":{"ID":620128,"DIS_CODE":0,"TOWNNAME":"安南區","LI":"溪心里","LIN":"2鄰","STREET":"海佃路","SECT":"二段","MAREA":" ","LANE":" ","ALLEY":" ","HOUSE_NO":"６２７號","E_COORD97":166515.97,"N_COORD97":2549498.3999999999,"ADDRESS":"海佃路二段６２７號","OBJECTID":620101},"geometry":{"x":166515.96999999974,"y":2549498.4000000022}},{"attributes":{"ID":620129,"DIS_CODE":0,"TOWNNAME":"東區","LI":"大福里","LIN":"2鄰","STREET":"榮譽街","SECT":" ","MAREA":" ","LANE":" ","ALLEY":" ","HOUSE_NO":"９號","E_COORD97":169512.69,"N_COORD97":2541619.1499999999,"ADDRESS":"榮譽街９號","OBJECTID":620102},"geometry":{"x":169512.69000000227,"y":2541619.1500000004}},{"attributes":{"ID":620130,"DIS_CODE":0,"TOWNNAME":"白河區","LI":"永安里","LIN":"2鄰","STREET":"文明街","SECT":" ","MAREA":" ","LANE":" ","ALLEY":" ","HOUSE_NO":"５１號","E_COORD97":190138.32999999999,"N_COORD97":2583063.2400000002,"ADDRESS":"文明街５１號","OBJECTID":620103},"geometry":{"x":190138.32999999914,"y":2583063.2400000039}},{"attributes":{"ID":620131,"DIS_CODE":0,"TOWNNAME":"中西區","LI":"民生里","LIN":"1鄰","STREET":"武英街","SECT":" ","MAREA":" ","LANE":" ","ALLEY":" ","HOUSE_NO":"５號","E_COORD97":167225.47,"N_COORD97":2543292.54,"ADDRESS":"武英街５號","OBJECTID":620104},"geometry":{"x":167225.47000000067,"y":2543292.5399999991}},{"attributes":{"ID":620132,"DIS_CODE":0,"TOWNNAME":"中西區","LI":"民生里","LIN":"2鄰","STREET":"武英街","SECT":" ","MAREA":" ","LANE":" ","ALLEY":" ","HOUSE_NO":"９號","E_COORD97":167212.95000000001,"N_COORD97":2543297.3999999999,"ADDRESS":"武英街９號","OBJECTID":620105},"geometry":{"x":167212.95000000019,"y":2543297.4000000022}},{"attributes":{"ID":620133,"DIS_CODE":0,"TOWNNAME":"中西區","LI":"三合里","LIN":"11鄰","STREET":"文賢路","SECT":" ","MAREA":" ","LANE":" ","ALLEY":" ","HOUSE_NO":"６號","E_COORD97":167477.95999999999,"N_COORD97":2544445.2200000002,"ADDRESS":"文賢路６號","OBJECTID":620106},"geometry":{"x":167477.96000000089,"y":2544445.2200000025}},{"attributes":{"ID":620134,"DIS_CODE":0,"TOWNNAME":"中西區","LI":"安海里","LIN":"3鄰","STREET":"河中街","SECT":" ","MAREA":" ","LANE":" ","ALLEY":" ","HOUSE_NO":"２８號","E_COORD97":167298.45000000001,"N_COORD97":2543983.48,"ADDRESS":"河中街２８號","OBJECTID":620107},"geometry":{"x":167298.45000000205,"y":2543983.4800000004}},{"attributes":{"ID":620135,"DIS_CODE":0,"TOWNNAME":"仁德區","LI":"保安里","LIN":"2鄰","STREET":"文賢路","SECT":"一段","MAREA":" ","LANE":" ","ALLEY":" ","HOUSE_NO":"５３７號","E_COORD97":171128.94,"N_COORD97":2537005.5800000001,"ADDRESS":"文賢路一段５３７號","OBJECTID":620108},"geometry":{"x":171128.94000000134,"y":2537005.5800000038}},{"attributes":{"ID":620136,"DIS_CODE":0,"TOWNNAME":"仁德區","LI":"一甲里","LIN":"2鄰","STREET":"中正路","SECT":"三段","MAREA":" ","LANE":" ","ALLEY":" ","HOUSE_NO":"１６３號","E_COORD97":173466.81,"N_COORD97":2541815.27,"ADDRESS":"中正路三段１６３號","OBJECTID":620109},"geometry":{"x":173466.80999999959,"y":2541815.2700000014}},{"attributes":{"ID":620137,"DIS_CODE":0,"TOWNNAME":"仁德區","LI":"二行里","LIN":"2鄰","STREET":"二行一路","SECT":" ","MAREA":" ","LANE":" ","ALLEY":" ","HOUSE_NO":"１６３號","E_COORD97":170511.76000000001,"N_COORD97":2535573.5,"ADDRESS":"二行一路１６３號","OBJECTID":620110},"geometry":{"x":170511.76000000164,"y":2535573.5000000019}},{"attributes":{"ID":620138,"DIS_CODE":0,"TOWNNAME":"仁德區","LI":"上崙里","LIN":"2鄰","STREET":"德崙路","SECT":" ","MAREA":" ","LANE":" ","ALLEY":" ","HOUSE_NO":"２２１號","E_COORD97":173736.42999999999,"N_COORD97":2538235.77,"ADDRESS":"德崙路２２１號","OBJECTID":620111},"geometry":{"x":173736.43000000156,"y":2538235.7700000014}},{"attributes":{"ID":620139,"DIS_CODE":0,"TOWNNAME":"中西區","LI":"民生里","LIN":"6鄰","STREET":"永華路","SECT":" ","MAREA":" ","LANE":" ","ALLEY":" ","HOUSE_NO":"２５２號底一層","E_COORD97":166983.95999999999,"N_COORD97":2543260.4500000002,"ADDRESS":"永華路２５２號底一層","OBJECTID":620112},"geometry":{"x":166983.95999999996,"y":2543260.4499999993}},{"attributes":{"ID":620140,"DIS_CODE":0,"TOWNNAME":"中西區","LI":"民生里","LIN":"6鄰","STREET":"永華路","SECT":" ","MAREA":" ","LANE":" ","ALLEY":" ","HOUSE_NO":"２７２號","E_COORD97":166927.07000000001,"N_COORD97":2543272.0299999998,"ADDRESS":"永華路２７２號","OBJECTID":620113},"geometry":{"x":166927.07000000123,"y":2543272.0300000012}},{"attributes":{"ID":620141,"DIS_CODE":0,"TOWNNAME":"中西區","LI":"民生里","LIN":"6鄰","STREET":"永華路","SECT":"一段","MAREA":" ","LANE":" ","ALLEY":" ","HOUSE_NO":"２５６號","E_COORD97":166970.5,"N_COORD97":2543255.4300000002,"ADDRESS":"永華路一段２５６號","OBJECTID":620114},"geometry":{"x":166970.5,"y":2543255.4300000016}},{"attributes":{"ID":620142,"DIS_CODE":0,"TOWNNAME":"中西區","LI":"民生里","LIN":"6鄰","STREET":"永華路","SECT":"一段","MAREA":" ","LANE":" ","ALLEY":" ","HOUSE_NO":"２５８號","E_COORD97":166949.35999999999,"N_COORD97":2543266.21,"ADDRESS":"永華路一段２５８號","OBJECTID":620115},"geometry":{"x":166949.36000000034,"y":2543266.2100000009}},{"attributes":{"ID":620143,"DIS_CODE":0,"TOWNNAME":"新化區","LI":"清水里","LIN":"2鄰","STREET":"中山路","SECT":" ","MAREA":" ","LANE":" ","ALLEY":" ","HOUSE_NO":"４０３號","E_COORD97":178764.01000000001,"N_COORD97":2548345.25,"ADDRESS":"中山路４０３號","OBJECTID":620116},"geometry":{"x":178764.01000000071,"y":2548345.2500000037}},{"attributes":{"ID":620144,"DIS_CODE":0,"TOWNNAME":"新化區","LI":"唪口里","LIN":"2鄰","STREET":"大德路","SECT":" ","MAREA":" ","LANE":" ","ALLEY":" ","HOUSE_NO":"８０號之１７","E_COORD97":178271.47,"N_COORD97":2549398.2599999998,"ADDRESS":"大德路８０號之１７","OBJECTID":620117},"geometry":{"x":178271.47000000067,"y":2549398.2599999998}},{"attributes":{"ID":620145,"DIS_CODE":0,"TOWNNAME":"新化區","LI":"東榮里","LIN":"2鄰","STREET":"中興路","SECT":" ","MAREA":" ","LANE":" ","ALLEY":" ","HOUSE_NO":"１００號","E_COORD97":181879.81,"N_COORD97":2547323.25,"ADDRESS":"中興路１００號","OBJECTID":620118},"geometry":{"x":181879.81000000052,"y":2547323.25}},{"attributes":{"ID":620146,"DIS_CODE":0,"TOWNNAME":"新化區","LI":"東榮里","LIN":"2鄰","STREET":"中興路","SECT":" ","MAREA":" ","LANE":" ","ALLEY":" ","HOUSE_NO":"２６號","E_COORD97":181951.66,"N_COORD97":2547318.25,"ADDRESS":"中興路２６號","OBJECTID":620119},"geometry":{"x":181951.66000000015,"y":2547318.2500000037}},{"attributes":{"ID":620147,"DIS_CODE":0,"TOWNNAME":"新化區","LI":"清水里","LIN":"2鄰","STREET":"中山路","SECT":" ","MAREA":" ","LANE":" ","ALLEY":" ","HOUSE_NO":"４０３號之５","E_COORD97":178763.97,"N_COORD97":2548363.2599999998,"ADDRESS":"中山路４０３號之５","OBJECTID":620120},"geometry":{"x":178763.96999999881,"y":2548363.2600000016}},{"attributes":{"ID":620148,"DIS_CODE":0,"TOWNNAME":"學甲區","LI":"新達里","LIN":"2鄰","STREET":"中山路","SECT":" ","MAREA":" ","LANE":" ","ALLEY":" ","HOUSE_NO":"９０號之１","E_COORD97":166239.85999999999,"N_COORD97":2570493.8100000001,"ADDRESS":"中山路９０號之１","OBJECTID":620121},"geometry":{"x":166239.86000000127,"y":2570493.8100000005}},{"attributes":{"ID":620149,"DIS_CODE":0,"TOWNNAME":"學甲區","LI":"新達里","LIN":"2鄰","STREET":"中山路","SECT":" ","MAREA":" ","LANE":" ","ALLEY":" ","HOUSE_NO":"９０號","E_COORD97":166244.89000000001,"N_COORD97":2570492.8500000001,"ADDRESS":"中山路９０號","OBJECTID":620122},"geometry":{"x":166244.88999999966,"y":2570492.8499999996}},{"attributes":{"ID":620150,"DIS_CODE":0,"TOWNNAME":"學甲區","LI":"新達里","LIN":"2鄰","STREET":"中山路","SECT":" ","MAREA":" ","LANE":" ","ALLEY":" ","HOUSE_NO":"９２號","E_COORD97":166234.82000000001,"N_COORD97":2570494.7599999998,"ADDRESS":"中山路９２號","OBJECTID":620123},"geometry":{"x":166234.82000000216,"y":2570494.7600000016}},{"attributes":{"ID":620151,"DIS_CODE":0,"TOWNNAME":"歸仁區","LI":"後市里","LIN":"2鄰","STREET":"大順街","SECT":" ","MAREA":" ","LANE":" ","ALLEY":" ","HOUSE_NO":"１０３號","E_COORD97":177149.73999999999,"N_COORD97":2540595.6800000002,"ADDRESS":"大順街１０３號","OBJECTID":620124},"geometry":{"x":177149.74000000115,"y":2540595.6800000016}},{"attributes":{"ID":620152,"DIS_CODE":0,"TOWNNAME":"歸仁區","LI":"南保里","LIN":"2鄰","STREET":"民權二街","SECT":" ","MAREA":" ","LANE":" ","ALLEY":" ","HOUSE_NO":"４７號","E_COORD97":176943.60999999999,"N_COORD97":2541388.25,"ADDRESS":"民權二街４７號","OBJECTID":620125},"geometry":{"x":176943.61000000127,"y":2541388.2500000037}},{"attributes":{"ID":620153,"DIS_CODE":0,"TOWNNAME":"歸仁區","LI":"看東里","LIN":"2鄰","STREET":"忠孝南路","SECT":" ","MAREA":" ","LANE":" ","ALLEY":" ","HOUSE_NO":"１３８號","E_COORD97":178537.82000000001,"N_COORD97":2540307.4399999999,"ADDRESS":"忠孝南路１３８號","OBJECTID":620126},"geometry":{"x":178537.8200000003,"y":2540307.4399999995}},{"attributes":{"ID":620154,"DIS_CODE":0,"TOWNNAME":"歸仁區","LI":"新厝里","LIN":"2鄰","STREET":"中正一街","SECT":" ","MAREA":" ","LANE":" ","ALLEY":" ","HOUSE_NO":"２４號","E_COORD97":177692.14999999999,"N_COORD97":2540697.25,"ADDRESS":"中正一街２４號","OBJECTID":620127},"geometry":{"x":177692.15000000224,"y":2540697.2500000019}},{"attributes":{"ID":620155,"DIS_CODE":0,"TOWNNAME":"歸仁區","LI":"新厝里","LIN":"2鄰","STREET":"中正一街","SECT":" ","MAREA":" ","LANE":" ","ALLEY":" ","HOUSE_NO":"１８號","E_COORD97":177678.85000000001,"N_COORD97":2540698.25,"ADDRESS":"中正一街１８號","OBJECTID":620128},"geometry":{"x":177678.85000000056,"y":2540698.2500000019}},{"attributes":{"ID":620156,"DIS_CODE":0,"TOWNNAME":"歸仁區","LI":"辜厝里","LIN":"2鄰","STREET":"中山路","SECT":"二段","MAREA":" ","LANE":" ","ALLEY":" ","HOUSE_NO":"５５號","E_COORD97":177467.34,"N_COORD97":2540779.5499999998,"ADDRESS":"中山路二段５５號","OBJECTID":620129},"geometry":{"x":177467.34000000078,"y":2540779.5500000007}},{"attributes":{"ID":620157,"DIS_CODE":0,"TOWNNAME":"歸仁區","LI":"歸南里","LIN":"2鄰","STREET":"民權南路","SECT":" ","MAREA":" ","LANE":" ","ALLEY":" ","HOUSE_NO":"２２８號","E_COORD97":176943.70999999999,"N_COORD97":2540277.5,"ADDRESS":"民權南路２２８號","OBJECTID":620130},"geometry":{"x":176943.71000000183,"y":2540277.5}},{"attributes":{"ID":620158,"DIS_CODE":0,"TOWNNAME":"歸仁區","LI":"許厝里","LIN":"2鄰","STREET":"仁愛南街","SECT":" ","MAREA":" ","LANE":" ","ALLEY":" ","HOUSE_NO":"９號","E_COORD97":178280.10000000001,"N_COORD97":2540662.0099999998,"ADDRESS":"仁愛南街９號","OBJECTID":620131},"geometry":{"x":178280.10000000056,"y":2540662.0100000016}},{"attributes":{"ID":620159,"DIS_CODE":0,"TOWNNAME":"歸仁區","LI":"許厝里","LIN":"2鄰","STREET":"仁愛一街","SECT":" ","MAREA":" ","LANE":" ","ALLEY":" ","HOUSE_NO":"２７號","E_COORD97":178350.07000000001,"N_COORD97":2540644.0099999998,"ADDRESS":"仁愛一街２７號","OBJECTID":620132},"geometry":{"x":178350.0700000003,"y":2540644.0100000016}},{"attributes":{"ID":620160,"DIS_CODE":0,"TOWNNAME":"歸仁區","LI":"新厝里","LIN":"2鄰","STREET":"中正南路","SECT":"一段","MAREA":" ","LANE":" ","ALLEY":" ","HOUSE_NO":"２５號","E_COORD97":177629.95000000001,"N_COORD97":2540666.25,"ADDRESS":"中正南路一段２５號","OBJECTID":620133},"geometry":{"x":177629.95000000019,"y":2540666.2500000037}},{"attributes":{"ID":620161,"DIS_CODE":0,"TOWNNAME":"歸仁區","LI":"歸仁里","LIN":"2鄰","STREET":"和平一街","SECT":" ","MAREA":" ","LANE":" ","ALLEY":" ","HOUSE_NO":"１２號","E_COORD97":177801.48999999999,"N_COORD97":2541081.04,"ADDRESS":"和平一街１２號","OBJECTID":620134},"geometry":{"x":177801.48999999929,"y":2541081.040000001}},{"attributes":{"ID":620162,"DIS_CODE":0,"TOWNNAME":"歸仁區","LI":"許厝里","LIN":"2鄰","STREET":"仁愛南街","SECT":" ","MAREA":" ","LANE":" ","ALLEY":" ","HOUSE_NO":"１５號","E_COORD97":178278.14999999999,"N_COORD97":2540639.0099999998,"ADDRESS":"仁愛南街１５號","OBJECTID":620135},"geometry":{"x":178278.15000000037,"y":2540639.0099999998}},{"attributes":{"ID":620163,"DIS_CODE":0,"TOWNNAME":"歸仁區","LI":"崙頂里","LIN":"2鄰","STREET":"成功路","SECT":"一段","MAREA":" ","LANE":" ","ALLEY":" ","HOUSE_NO":"３１１號","E_COORD97":178241.45999999999,"N_COORD97":2539915.3700000001,"ADDRESS":"成功路一段３１１號","OBJECTID":620136},"geometry":{"x":178241.45999999996,"y":2539915.3700000029}},{"attributes":{"ID":620164,"DIS_CODE":0,"TOWNNAME":"中西區","LI":"安海里","LIN":"3鄰","STREET":"河中街","SECT":" ","MAREA":" ","LANE":" ","ALLEY":" ","HOUSE_NO":"３６號","E_COORD97":167307.66,"N_COORD97":2544021.9700000002,"ADDRESS":"河中街３６號","OBJECTID":620137},"geometry":{"x":167307.66000000108,"y":2544021.9700000044}},{"attributes":{"ID":620165,"DIS_CODE":0,"TOWNNAME":"中西區","LI":"安海里","LIN":"3鄰","STREET":"河中街","SECT":" ","MAREA":" ","LANE":" ","ALLEY":" ","HOUSE_NO":"４０號","E_COORD97":167305.95999999999,"N_COORD97":2544030.5299999998,"ADDRESS":"河中街４０號","OBJECTID":620138},"geometry":{"x":167305.95999999996,"y":2544030.5300000012}},{"attributes":{"ID":620166,"DIS_CODE":0,"TOWNNAME":"中西區","LI":"安海里","LIN":"3鄰","STREET":"河中街","SECT":" ","MAREA":" ","LANE":" ","ALLEY":" ","HOUSE_NO":"４２號","E_COORD97":167307.47,"N_COORD97":2544036.1499999999,"ADDRESS":"河中街４２號","OBJECTID":620139},"geometry":{"x":167307.46999999974,"y":2544036.1500000004}},{"attributes":{"ID":620167,"DIS_CODE":0,"TOWNNAME":"中西區","LI":"安海里","LIN":"3鄰","STREET":"河中街","SECT":" ","MAREA":" ","LANE":" ","ALLEY":" ","HOUSE_NO":"４４號","E_COORD97":167308.97,"N_COORD97":2544041.2200000002,"ADDRESS":"河中街４４號","OBJECTID":620140},"geometry":{"x":167308.96999999974,"y":2544041.2200000025}},{"attributes":{"ID":620168,"DIS_CODE":0,"TOWNNAME":"中西區","LI":"安海里","LIN":"3鄰","STREET":"金華路","SECT":"三段","MAREA":" ","LANE":" ","ALLEY":" ","HOUSE_NO":"２３５號","E_COORD97":167313.29000000001,"N_COORD97":2543965.0600000001,"ADDRESS":"金華路三段２３５號","OBJECTID":620141},"geometry":{"x":167313.29000000097,"y":2543965.0600000024}},{"attributes":{"ID":620169,"DIS_CODE":0,"TOWNNAME":"中西區","LI":"安海里","LIN":"3鄰","STREET":"金華路","SECT":"三段","MAREA":" ","LANE":" ","ALLEY":" ","HOUSE_NO":"２４１號","E_COORD97":167324.17999999999,"N_COORD97":2543977.6600000001,"ADDRESS":"金華路三段２４１號","OBJECTID":620142},"geometry":{"x":167324.18000000063,"y":2543977.6600000001}},{"attributes":{"ID":620170,"DIS_CODE":0,"TOWNNAME":"中西區","LI":"安海里","LIN":"3鄰","STREET":"金華路","SECT":"三段","MAREA":" ","LANE":" ","ALLEY":" ","HOUSE_NO":"２４３號","E_COORD97":167324.17999999999,"N_COORD97":2543980.29,"ADDRESS":"金華路三段２４３號","OBJECTID":620143},"geometry":{"x":167324.18000000063,"y":2543980.2899999991}},{"attributes":{"ID":620171,"DIS_CODE":0,"TOWNNAME":"中西區","LI":"安海里","LIN":"3鄰","STREET":"金華路","SECT":"三段","MAREA":" ","LANE":" ","ALLEY":" ","HOUSE_NO":"２４５號","E_COORD97":167324.56,"N_COORD97":2543983.48,"ADDRESS":"金華路三段２４５號","OBJECTID":620144},"geometry":{"x":167324.56000000052,"y":2543983.4800000004}},{"attributes":{"ID":620172,"DIS_CODE":0,"TOWNNAME":"中西區","LI":"安海里","LIN":"3鄰","STREET":"金華路","SECT":"三段","MAREA":" ","LANE":" ","ALLEY":" ","HOUSE_NO":"２４７號","E_COORD97":167324,"N_COORD97":2543985.9199999999,"ADDRESS":"金華路三段２４７號","OBJECTID":620145},"geometry":{"x":167324.00000000093,"y":2543985.9199999999}},{"attributes":{"ID":620173,"DIS_CODE":0,"TOWNNAME":"中西區","LI":"安海里","LIN":"3鄰","STREET":"金華路","SECT":"三段","MAREA":" ","LANE":" ","ALLEY":" ","HOUSE_NO":"２４９號","E_COORD97":167328.5,"N_COORD97":2543995.2999999998,"ADDRESS":"金華路三段２４９號","OBJECTID":620146},"geometry":{"x":167328.50000000186,"y":2543995.3000000007}},{"attributes":{"ID":620174,"DIS_CODE":0,"TOWNNAME":"中西區","LI":"安海里","LIN":"3鄰","STREET":"金華路","SECT":"三段","MAREA":" ","LANE":" ","ALLEY":" ","HOUSE_NO":"２５１號","E_COORD97":167328.32000000001,"N_COORD97":2544004.52,"ADDRESS":"金華路三段２５１號","OBJECTID":620147},"geometry":{"x":167328.32000000216,"y":2544004.5200000014}},{"attributes":{"ID":620175,"DIS_CODE":0,"TOWNNAME":"中西區","LI":"安海里","LIN":"3鄰","STREET":"金華路","SECT":"三段","MAREA":" ","LANE":" ","ALLEY":" ","HOUSE_NO":"２５３號","E_COORD97":167328.88,"N_COORD97":2544010.1499999999,"ADDRESS":"金華路三段２５３號","OBJECTID":620148},"geometry":{"x":167328.87999999989,"y":2544010.1500000041}},{"attributes":{"ID":620176,"DIS_CODE":0,"TOWNNAME":"中西區","LI":"安海里","LIN":"3鄰","STREET":"金華路","SECT":"三段","MAREA":" ","LANE":" ","ALLEY":" ","HOUSE_NO":"２５７號","E_COORD97":167327.94,"N_COORD97":2544024.71,"ADDRESS":"金華路三段２５７號","OBJECTID":620149},"geometry":{"x":167327.94000000134,"y":2544024.7100000028}},{"attributes":{"ID":620177,"DIS_CODE":0,"TOWNNAME":"中西區","LI":"安海里","LIN":"3鄰","STREET":"金華路","SECT":"三段","MAREA":" ","LANE":" ","ALLEY":" ","HOUSE_NO":"２５９號","E_COORD97":167329.63,"N_COORD97":2544031.8399999999,"ADDRESS":"金華路三段２５９號","OBJECTID":620150},"geometry":{"x":167329.63000000082,"y":2544031.8400000036}},{"attributes":{"ID":620178,"DIS_CODE":0,"TOWNNAME":"中西區","LI":"安海里","LIN":"3鄰","STREET":"金華路","SECT":"三段","MAREA":" ","LANE":" ","ALLEY":" ","HOUSE_NO":"２７５號","E_COORD97":167335.23000000001,"N_COORD97":2544042.6400000001,"ADDRESS":"金華路三段２７５號","OBJECTID":620151},"geometry":{"x":167335.23000000045,"y":2544042.6400000006}},{"attributes":{"ID":620179,"DIS_CODE":0,"TOWNNAME":"中西區","LI":"安海里","LIN":"5鄰","STREET":"金華路","SECT":"三段","MAREA":" ","LANE":" ","ALLEY":" ","HOUSE_NO":"２５２號","E_COORD97":167360.17000000001,"N_COORD97":2544002.2599999998,"ADDRESS":"金華路三段２５２號","OBJECTID":620152},"geometry":{"x":167360.17000000086,"y":2544002.2600000016}},{"attributes":{"ID":620180,"DIS_CODE":0,"TOWNNAME":"北區","LI":"永祥里","LIN":"2鄰","STREET":"大武街","SECT":" ","MAREA":" ","LANE":" ","ALLEY":" ","HOUSE_NO":"４２２號","E_COORD97":169940.45000000001,"N_COORD97":2546458.1299999999,"ADDRESS":"大武街４２２號","OBJECTID":620153},"geometry":{"x":169940.45000000019,"y":2546458.1300000008}},{"attributes":{"ID":620181,"DIS_CODE":0,"TOWNNAME":"北區","LI":"永祥里","LIN":"2鄰","STREET":"大武街","SECT":" ","MAREA":" ","LANE":" ","ALLEY":" ","HOUSE_NO":"４２４號","E_COORD97":169944.42999999999,"N_COORD97":2546456.3199999998,"ADDRESS":"大武街４２４號","OBJECTID":620154},"geometry":{"x":169944.43000000063,"y":2546456.3200000003}},{"attributes":{"ID":620182,"DIS_CODE":0,"TOWNNAME":"東區","LI":"忠孝里","LIN":"5鄰","STREET":"崇明七街","SECT":" ","MAREA":" ","LANE":" ","ALLEY":" ","HOUSE_NO":"７號","E_COORD97":169628.64000000001,"N_COORD97":2542143.2400000002,"ADDRESS":"崇明七街７號","OBJECTID":620155},"geometry":{"x":169628.63999999966,"y":2542143.2400000002}},{"attributes":{"ID":620183,"DIS_CODE":0,"TOWNNAME":"中西區","LI":"安海里","LIN":"4鄰","STREET":"金華路","SECT":"三段","MAREA":" ","LANE":" ","ALLEY":" ","HOUSE_NO":"２４８號之２","E_COORD97":167356.32000000001,"N_COORD97":2543980.96,"ADDRESS":"金華路三段２４８號之２","OBJECTID":620156},"geometry":{"x":167356.3200000003,"y":2543980.9600000009}},{"attributes":{"ID":620184,"DIS_CODE":0,"TOWNNAME":"北區","LI":"永祥里","LIN":"2鄰","STREET":"大武街","SECT":" ","MAREA":" ","LANE":" ","ALLEY":" ","HOUSE_NO":"４２６號","E_COORD97":169948.32000000001,"N_COORD97":2546454.2400000002,"ADDRESS":"大武街４２６號","OBJECTID":620157},"geometry":{"x":169948.3200000003,"y":2546454.2400000021}},{"attributes":{"ID":620185,"DIS_CODE":0,"TOWNNAME":"北區","LI":"永祥里","LIN":"2鄰","STREET":"大武街","SECT":" ","MAREA":" ","LANE":" ","ALLEY":" ","HOUSE_NO":"４２８號","E_COORD97":169952.13,"N_COORD97":2546452.4300000002,"ADDRESS":"大武街４２８號","OBJECTID":620158},"geometry":{"x":169952.13000000082,"y":2546452.4300000016}},{"attributes":{"ID":620186,"DIS_CODE":0,"TOWNNAME":"中西區","LI":"安海里","LIN":"10鄰","STREET":"河中街","SECT":" ","MAREA":" ","LANE":" ","ALLEY":" ","HOUSE_NO":"５號","E_COORD97":167256.73999999999,"N_COORD97":2543896.5899999999,"ADDRESS":"河中街５號","OBJECTID":620159},"geometry":{"x":167256.74000000022,"y":2543896.5899999999}},{"attributes":{"ID":620187,"DIS_CODE":0,"TOWNNAME":"北區","LI":"永祥里","LIN":"2鄰","STREET":"大武街","SECT":" ","MAREA":" ","LANE":" ","ALLEY":" ","HOUSE_NO":"４３０號","E_COORD97":169955.48000000001,"N_COORD97":2546451.3399999999,"ADDRESS":"大武街４３０號","OBJECTID":620160},"geometry":{"x":169955.48000000138,"y":2546451.3399999999}},{"attributes":{"ID":620188,"DIS_CODE":0,"TOWNNAME":"北區","LI":"永祥里","LIN":"2鄰","STREET":"大武街","SECT":" ","MAREA":" ","LANE":" ","ALLEY":" ","HOUSE_NO":"４３２號","E_COORD97":169959.37,"N_COORD97":2546449.9900000002,"ADDRESS":"大武街４３２號","OBJECTID":620161},"geometry":{"x":169959.37000000104,"y":2546449.9900000021}},{"attributes":{"ID":620189,"DIS_CODE":0,"TOWNNAME":"北區","LI":"永祥里","LIN":"2鄰","STREET":"大武街","SECT":" ","MAREA":" ","LANE":" ","ALLEY":" ","HOUSE_NO":"４３４號","E_COORD97":169963.35000000001,"N_COORD97":2546448.27,"ADDRESS":"大武街４３４號","OBJECTID":620162},"geometry":{"x":169963.35000000149,"y":2546448.2699999996}},{"attributes":{"ID":620190,"DIS_CODE":0,"TOWNNAME":"北區","LI":"永祥里","LIN":"2鄰","STREET":"大武街","SECT":" ","MAREA":" ","LANE":" ","ALLEY":" ","HOUSE_NO":"４３８號","E_COORD97":169971.41,"N_COORD97":2546444.5600000001,"ADDRESS":"大武街４３８號","OBJECTID":620163},"geometry":{"x":169971.41000000015,"y":2546444.5600000005}},{"attributes":{"ID":620191,"DIS_CODE":0,"TOWNNAME":"北區","LI":"永祥里","LIN":"2鄰","STREET":"大武街","SECT":" ","MAREA":" ","LANE":" ","ALLEY":" ","HOUSE_NO":"４４０號","E_COORD97":169976.29999999999,"N_COORD97":2546443.02,"ADDRESS":"大武街４４０號","OBJECTID":620164},"geometry":{"x":169976.30000000075,"y":2546443.0199999996}},{"attributes":{"ID":620192,"DIS_CODE":0,"TOWNNAME":"北區","LI":"永祥里","LIN":"2鄰","STREET":"大武街","SECT":" ","MAREA":" ","LANE":" ","ALLEY":" ","HOUSE_NO":"４４２號","E_COORD97":169980.37,"N_COORD97":2546441.6600000001,"ADDRESS":"大武街４４２號","OBJECTID":620165},"geometry":{"x":169980.37000000011,"y":2546441.660000002}},{"attributes":{"ID":620193,"DIS_CODE":0,"TOWNNAME":"北區","LI":"永祥里","LIN":"2鄰","STREET":"大武街","SECT":" ","MAREA":" ","LANE":" ","ALLEY":" ","HOUSE_NO":"４４６號","E_COORD97":169988.42999999999,"N_COORD97":2546439.2200000002,"ADDRESS":"大武街４４６號","OBJECTID":620166},"geometry":{"x":169988.43000000156,"y":2546439.2200000007}},{"attributes":{"ID":620194,"DIS_CODE":0,"TOWNNAME":"北區","LI":"永祥里","LIN":"2鄰","STREET":"大武街","SECT":" ","MAREA":" ","LANE":" ","ALLEY":" ","HOUSE_NO":"４４８號","E_COORD97":169993.32000000001,"N_COORD97":2546437.0499999998,"ADDRESS":"大武街４４８號","OBJECTID":620167},"geometry":{"x":169993.32000000123,"y":2546437.0500000007}},{"attributes":{"ID":620195,"DIS_CODE":0,"TOWNNAME":"北區","LI":"永祥里","LIN":"2鄰","STREET":"大武街","SECT":" ","MAREA":" ","LANE":" ","ALLEY":" ","HOUSE_NO":"４５０號","E_COORD97":169997.67999999999,"N_COORD97":2546435.5,"ADDRESS":"大武街４５０號","OBJECTID":620168},"geometry":{"x":169997.6799999997,"y":2546435.5000000019}},{"attributes":{"ID":620196,"DIS_CODE":0,"TOWNNAME":"北區","LI":"永祥里","LIN":"2鄰","STREET":"大武街","SECT":" ","MAREA":" ","LANE":" ","ALLEY":" ","HOUSE_NO":"４５４號","E_COORD97":170005.88,"N_COORD97":2546431.6200000001,"ADDRESS":"大武街４５４號","OBJECTID":620169},"geometry":{"x":170005.88000000175,"y":2546431.6200000048}},{"attributes":{"ID":620197,"DIS_CODE":0,"TOWNNAME":"北區","LI":"永祥里","LIN":"2鄰","STREET":"大武街","SECT":" ","MAREA":" ","LANE":" ","ALLEY":" ","HOUSE_NO":"４５８號","E_COORD97":170016.07999999999,"N_COORD97":2546429.3900000001,"ADDRESS":"大武街４５８號","OBJECTID":620170},"geometry":{"x":170016.08000000007,"y":2546429.3900000043}},{"attributes":{"ID":620198,"DIS_CODE":0,"TOWNNAME":"北區","LI":"永祥里","LIN":"2鄰","STREET":"大武街","SECT":" ","MAREA":" ","LANE":" ","ALLEY":" ","HOUSE_NO":"４６０號","E_COORD97":170019.42999999999,"N_COORD97":2546427.9399999999,"ADDRESS":"大武街４６０號","OBJECTID":620171},"geometry":{"x":170019.43000000063,"y":2546427.9400000032}},{"attributes":{"ID":620199,"DIS_CODE":0,"TOWNNAME":"北區","LI":"永祥里","LIN":"2鄰","STREET":"大武街","SECT":" ","MAREA":" ","LANE":" ","ALLEY":" ","HOUSE_NO":"４６２號","E_COORD97":170024.31,"N_COORD97":2546426.6699999999,"ADDRESS":"大武街４６２號","OBJECTID":620172},"geometry":{"x":170024.30999999959,"y":2546426.6700000037}},{"attributes":{"ID":620200,"DIS_CODE":0,"TOWNNAME":"北區","LI":"永祥里","LIN":"2鄰","STREET":"大武街","SECT":" ","MAREA":" ","LANE":" ","ALLEY":" ","HOUSE_NO":"４６４號","E_COORD97":170028.92000000001,"N_COORD97":2546425.1400000001,"ADDRESS":"大武街４６４號","OBJECTID":620173},"geometry":{"x":170028.91999999993,"y":2546425.1400000025}},{"attributes":{"ID":620201,"DIS_CODE":0,"TOWNNAME":"北區","LI":"永祥里","LIN":"2鄰","STREET":"大武街","SECT":" ","MAREA":" ","LANE":" ","ALLEY":" ","HOUSE_NO":"４６６號","E_COORD97":170033.81,"N_COORD97":2546423.6899999999,"ADDRESS":"大武街４６６號","OBJECTID":620174},"geometry":{"x":170033.81000000052,"y":2546423.6900000013}},{"attributes":{"ID":620202,"DIS_CODE":0,"TOWNNAME":"北區","LI":"永祥里","LIN":"2鄰","STREET":"大武街","SECT":" ","MAREA":" ","LANE":" ","ALLEY":" ","HOUSE_NO":"４６８號","E_COORD97":170037.42999999999,"N_COORD97":2546422.25,"ADDRESS":"大武街４６８號","OBJECTID":620175},"geometry":{"x":170037.43000000156,"y":2546422.25}},{"attributes":{"ID":620203,"DIS_CODE":0,"TOWNNAME":"北區","LI":"永祥里","LIN":"2鄰","STREET":"大武街","SECT":" ","MAREA":" ","LANE":" ","ALLEY":" ","HOUSE_NO":"４７０號","E_COORD97":170041.95000000001,"N_COORD97":2546420.98,"ADDRESS":"大武街４７０號","OBJECTID":620176},"geometry":{"x":170041.95000000112,"y":2546420.9800000004}},{"attributes":{"ID":620204,"DIS_CODE":0,"TOWNNAME":"北區","LI":"永祥里","LIN":"2鄰","STREET":"大武街","SECT":" ","MAREA":" ","LANE":" ","ALLEY":" ","HOUSE_NO":"４７２號","E_COORD97":170046.20000000001,"N_COORD97":2546419.5299999998,"ADDRESS":"大武街４７２號","OBJECTID":620177},"geometry":{"x":170046.20000000019,"y":2546419.5299999993}},{"attributes":{"ID":620205,"DIS_CODE":0,"TOWNNAME":"北區","LI":"永祥里","LIN":"2鄰","STREET":"大武街","SECT":" ","MAREA":" ","LANE":" ","ALLEY":" ","HOUSE_NO":"４７４號","E_COORD97":170050.09,"N_COORD97":2546416.6400000001,"ADDRESS":"大武街４７４號","OBJECTID":620178},"geometry":{"x":170050.09000000171,"y":2546416.6400000006}},{"attributes":{"ID":620206,"DIS_CODE":0,"TOWNNAME":"北區","LI":"永祥里","LIN":"2鄰","STREET":"大武街","SECT":" ","MAREA":" ","LANE":" ","ALLEY":" ","HOUSE_NO":"４９３號","E_COORD97":169982.63,"N_COORD97":2546452.25,"ADDRESS":"大武街４９３號","OBJECTID":620179},"geometry":{"x":169982.63000000082,"y":2546452.25}},{"attributes":{"ID":620207,"DIS_CODE":0,"TOWNNAME":"北區","LI":"永祥里","LIN":"2鄰","STREET":"大武街","SECT":" ","MAREA":" ","LANE":" ","ALLEY":" ","HOUSE_NO":"４９３號之１","E_COORD97":169960.56,"N_COORD97":2546462.1000000001,"ADDRESS":"大武街４９３號之１","OBJECTID":620180},"geometry":{"x":169960.56000000052,"y":2546462.1000000015}},{"attributes":{"ID":620208,"DIS_CODE":0,"TOWNNAME":"北區","LI":"永祥里","LIN":"2鄰","STREET":"大武街","SECT":" ","MAREA":" ","LANE":" ","ALLEY":" ","HOUSE_NO":"４９３號之２","E_COORD97":169945.82000000001,"N_COORD97":2546468.8799999999,"ADDRESS":"大武街４９３號之２","OBJECTID":620181},"geometry":{"x":169945.82000000123,"y":2546468.8800000008}},{"attributes":{"ID":620209,"DIS_CODE":0,"TOWNNAME":"北區","LI":"永祥里","LIN":"2鄰","STREET":"大武街","SECT":" ","MAREA":" ","LANE":" ","ALLEY":" ","HOUSE_NO":"４９５號","E_COORD97":169987.73000000001,"N_COORD97":2546450.6699999999,"ADDRESS":"大武街４９５號","OBJECTID":620182},"geometry":{"x":169987.73000000138,"y":2546450.6700000037}},{"attributes":{"ID":620210,"DIS_CODE":0,"TOWNNAME":"北區","LI":"永祥里","LIN":"2鄰","STREET":"大武街","SECT":" ","MAREA":" ","LANE":" ","ALLEY":" ","HOUSE_NO":"４９７號","E_COORD97":169992.16,"N_COORD97":2546449.23,"ADDRESS":"大武街４９７號","OBJECTID":620183},"geometry":{"x":169992.16000000015,"y":2546449.2300000004}},{"attributes":{"ID":620211,"DIS_CODE":0,"TOWNNAME":"安平區","LI":"國平里","LIN":"2鄰","STREET":"華平路","SECT":" ","MAREA":" ","LANE":" ","ALLEY":" ","HOUSE_NO":"１５２號","E_COORD97":165391.800449,"N_COORD97":2543186.6145600001,"ADDRESS":"華平路１５２號","OBJECTID":620184},"geometry":{"x":165391.80044900067,"y":2543186.6145639997}},{"attributes":{"ID":620212,"DIS_CODE":0,"TOWNNAME":"安平區","LI":"億載里","LIN":"2鄰","STREET":"永華十一街","SECT":" ","MAREA":" ","LANE":" ","ALLEY":" ","HOUSE_NO":"１２９號","E_COORD97":164068.98999999999,"N_COORD97":2543755.6800000002,"ADDRESS":"永華十一街１２９號","OBJECTID":620185},"geometry":{"x":164068.99000000209,"y":2543755.6800000016}},{"attributes":{"ID":620213,"DIS_CODE":0,"TOWNNAME":"安平區","LI":"億載里","LIN":"2鄰","STREET":"永華十一街","SECT":" ","MAREA":" ","LANE":" ","ALLEY":" ","HOUSE_NO":"１３１號","E_COORD97":164068.85000000001,"N_COORD97":2543761.8900000001,"ADDRESS":"永華十一街１３１號","OBJECTID":620186},"geometry":{"x":164068.84999999963,"y":2543761.8900000025}},{"attributes":{"ID":620214,"DIS_CODE":0,"TOWNNAME":"安平區","LI":"億載里","LIN":"2鄰","STREET":"永華十一街","SECT":" ","MAREA":" ","LANE":" ","ALLEY":" ","HOUSE_NO":"１３３號","E_COORD97":164067.92999999999,"N_COORD97":2543768.1099999999,"ADDRESS":"永華十一街１３３號","OBJECTID":620187},"geometry":{"x":164067.9299999997,"y":2543768.1099999994}},{"attributes":{"ID":620215,"DIS_CODE":0,"TOWNNAME":"安平區","LI":"億載里","LIN":"2鄰","STREET":"永華十一街","SECT":" ","MAREA":" ","LANE":" ","ALLEY":" ","HOUSE_NO":"１３５號","E_COORD97":164066.87,"N_COORD97":2543775.2599999998,"ADDRESS":"永華十一街１３５號","OBJECTID":620188},"geometry":{"x":164066.87000000104,"y":2543775.2600000016}},{"attributes":{"ID":620216,"DIS_CODE":0,"TOWNNAME":"安平區","LI":"億載里","LIN":"2鄰","STREET":"永華十一街","SECT":" ","MAREA":" ","LANE":" ","ALLEY":" ","HOUSE_NO":"１３７號","E_COORD97":164066.34,"N_COORD97":2543782.3999999999,"ADDRESS":"永華十一街１３７號","OBJECTID":620189},"geometry":{"x":164066.34000000078,"y":2543782.4000000022}},{"attributes":{"ID":620217,"DIS_CODE":0,"TOWNNAME":"安平區","LI":"億載里","LIN":"2鄰","STREET":"永華十一街","SECT":" ","MAREA":" ","LANE":" ","ALLEY":" ","HOUSE_NO":"１３９號","E_COORD97":164065.67999999999,"N_COORD97":2543787.6899999999,"ADDRESS":"永華十一街１３９號","OBJECTID":620190},"geometry":{"x":164065.68000000063,"y":2543787.6899999995}},{"attributes":{"ID":620218,"DIS_CODE":0,"TOWNNAME":"安平區","LI":"億載里","LIN":"2鄰","STREET":"光州七街","SECT":" ","MAREA":" ","LANE":" ","ALLEY":" ","HOUSE_NO":"７８號","E_COORD97":164049.41,"N_COORD97":2543745.0899999999,"ADDRESS":"光州七街７８號","OBJECTID":620191},"geometry":{"x":164049.41000000108,"y":2543745.0899999999}},{"attributes":{"ID":620219,"DIS_CODE":0,"TOWNNAME":"安平區","LI":"億載里","LIN":"2鄰","STREET":"光州七街","SECT":" ","MAREA":" ","LANE":" ","ALLEY":" ","HOUSE_NO":"７６號","E_COORD97":164054.82999999999,"N_COORD97":2543745.4900000002,"ADDRESS":"光州七街７６號","OBJECTID":620192},"geometry":{"x":164054.83000000101,"y":2543745.4900000002}},{"attributes":{"ID":620220,"DIS_CODE":0,"TOWNNAME":"安平區","LI":"文平里","LIN":"2鄰","STREET":"中華西路","SECT":"二段","MAREA":" ","LANE":" ","ALLEY":" ","HOUSE_NO":"２５號","E_COORD97":166593.59,"N_COORD97":2543089.5899999999,"ADDRESS":"中華西路二段２５號","OBJECTID":620193},"geometry":{"x":166593.59000000171,"y":2543089.5899999999}},{"attributes":{"ID":620221,"DIS_CODE":0,"TOWNNAME":"安平區","LI":"國平里","LIN":"2鄰","STREET":"華平路","SECT":" ","MAREA":" ","LANE":" ","ALLEY":" ","HOUSE_NO":"１８６號","E_COORD97":165411.51000000001,"N_COORD97":2543318.7999999998,"ADDRESS":"華平路１８６號","OBJECTID":620194},"geometry":{"x":165411.51000000071,"y":2543318.8000000026}},{"attributes":{"ID":620222,"DIS_CODE":0,"TOWNNAME":"新營區","LI":"三仙里","LIN":"2鄰","STREET":"復興路","SECT":" ","MAREA":" ","LANE":" ","ALLEY":" ","HOUSE_NO":"２４號之１","E_COORD97":179683.32000000001,"N_COORD97":2578013.9100000001,"ADDRESS":"復興路２４號之１","OBJECTID":620195},"geometry":{"x":179683.32000000123,"y":2578013.910000002}},{"attributes":{"ID":620223,"DIS_CODE":0,"TOWNNAME":"新營區","LI":"王公里","LIN":"2鄰","STREET":"義和街","SECT":" ","MAREA":" ","LANE":" ","ALLEY":" ","HOUSE_NO":"２３號","E_COORD97":180261.87,"N_COORD97":2579032.1899999999,"ADDRESS":"義和街２３號","OBJECTID":620196},"geometry":{"x":180261.87000000011,"y":2579032.1900000013}},{"attributes":{"ID":620224,"DIS_CODE":0,"TOWNNAME":"新營區","LI":"民生里","LIN":"2鄰","STREET":"民生路","SECT":" ","MAREA":" ","LANE":" ","ALLEY":" ","HOUSE_NO":"４號","E_COORD97":179405.13,"N_COORD97":2578086.04,"ADDRESS":"民生路４號","OBJECTID":620197},"geometry":{"x":179405.12999999989,"y":2578086.0400000028}},{"attributes":{"ID":620225,"DIS_CODE":0,"TOWNNAME":"新營區","LI":"護鎮里","LIN":"2鄰","STREET":"建國路","SECT":" ","MAREA":" ","LANE":" ","ALLEY":" ","HOUSE_NO":"２３８號","E_COORD97":179386.95000000001,"N_COORD97":2581043.04,"ADDRESS":"建國路２３８號","OBJECTID":620198},"geometry":{"x":179386.95000000205,"y":2581043.040000001}},{"attributes":{"ID":620226,"DIS_CODE":0,"TOWNNAME":"新營區","LI":"三仙里","LIN":"2鄰","STREET":"正義街","SECT":" ","MAREA":" ","LANE":" ","ALLEY":" ","HOUSE_NO":"１０之３號","E_COORD97":179707.39000000001,"N_COORD97":2578064.73,"ADDRESS":"正義街１０之３號","OBJECTID":620199},"geometry":{"x":179707.3900000006,"y":2578064.7300000004}},{"attributes":{"ID":620227,"DIS_CODE":0,"TOWNNAME":"新營區","LI":"好平里","LIN":"2鄰","STREET":"新進路","SECT":"二段","MAREA":" ","LANE":" ","ALLEY":" ","HOUSE_NO":"７３號","E_COORD97":179553.95999999999,"N_COORD97":2577724.3100000001,"ADDRESS":"新進路二段７３號","OBJECTID":620200},"geometry":{"x":179553.95999999996,"y":2577724.3100000024}}]}