{"displayFieldName":"TOWNNAME","fieldAliases":{"ID":"ID","DIS_CODE":"DIS_CODE","TOWNNAME":"TOWNNAME","LI":"LI","LIN":"LIN","STREET":"STREET","SECT":"SECT","MAREA":"MAREA","LANE":"LANE","ALLEY":"ALLEY","HOUSE_NO":"HOUSE_NO","E_COORD97":"E_COORD97","N_COORD97":"N_COORD97","ADDRESS":"ADDRESS","OBJECTID":"OBJECTID"},"geometryType":"esriGeometryPoint","spatialReference":{"wkid":102443,"latestWkid":3826},"fields":[{"name":"ID","type":"esriFieldTypeDouble","alias":"ID"},{"name":"DIS_CODE","type":"esriFieldTypeInteger","alias":"DIS_CODE"},{"name":"TOWNNAME","type":"esriFieldTypeString","alias":"TOWNNAME","length":8},{"name":"LI","type":"esriFieldTypeString","alias":"LI","length":8},{"name":"LIN","type":"esriFieldTypeString","alias":"LIN","length":12},{"name":"STREET","type":"esriFieldTypeString","alias":"STREET","length":20},{"name":"SECT","type":"esriFieldTypeString","alias":"SECT","length":8},{"name":"MAREA","type":"esriFieldTypeString","alias":"MAREA","length":12},{"name":"LANE","type":"esriFieldTypeString","alias":"LANE","length":10},{"name":"ALLEY","type":"esriFieldTypeString","alias":"ALLEY","length":10},{"name":"HOUSE_NO","type":"esriFieldTypeString","alias":"HOUSE_NO","length":20},{"name":"E_COORD97","type":"esriFieldTypeDouble","alias":"E_COORD97"},{"name":"N_COORD97","type":"esriFieldTypeDouble","alias":"N_COORD97"},{"name":"ADDRESS","type":"esriFieldTypeString","alias":"ADDRESS","length":50},{"name":"OBJECTID","type":"esriFieldTypeOID","alias":"OBJECTID"}],"features":[{"attributes":{"ID":276006,"DIS_CODE":0,"TOWNNAME":"仁德區","LI":"二行里","LIN":"15鄰","STREET":"行大街","SECT":" ","MAREA":" ","LANE":"１７２巷","ALLEY":" ","HOUSE_NO":"１０２號","E_COORD97":169738.88,"N_COORD97":2535282.4900000002,"ADDRESS":"行大街１７２巷１０２號","OBJECTID":276001},"geometry":{"x":169738.87999999989,"y":2535282.4900000002}},{"attributes":{"ID":276007,"DIS_CODE":0,"TOWNNAME":"安南區","LI":"幸福里","LIN":"15鄰","STREET":"海佃路","SECT":"一段","MAREA":" ","LANE":"９５巷","ALLEY":" ","HOUSE_NO":"６６號","E_COORD97":166906.64999999999,"N_COORD97":2546891.6899999999,"ADDRESS":"海佃路一段９５巷６６號","OBJECTID":276002},"geometry":{"x":166906.65000000037,"y":2546891.6900000013}},{"attributes":{"ID":276008,"DIS_CODE":0,"TOWNNAME":"東區","LI":"中西里","LIN":"15鄰","STREET":"長榮路","SECT":"二段","MAREA":" ","LANE":"７１巷","ALLEY":" ","HOUSE_NO":"６號之１","E_COORD97":170061.07000000001,"N_COORD97":2543430.7599999998,"ADDRESS":"長榮路二段７１巷６號之１","OBJECTID":276003},"geometry":{"x":170061.07000000123,"y":2543430.7599999998}},{"attributes":{"ID":276009,"DIS_CODE":0,"TOWNNAME":"東區","LI":"新東里","LIN":"15鄰","STREET":"裕豐街","SECT":" ","MAREA":" ","LANE":"１３３巷","ALLEY":" ","HOUSE_NO":"１號","E_COORD97":170741.57000000001,"N_COORD97":2543051.0899999999,"ADDRESS":"裕豐街１３３巷１號","OBJECTID":276004},"geometry":{"x":170741.5700000003,"y":2543051.0900000017}},{"attributes":{"ID":276010,"DIS_CODE":0,"TOWNNAME":"東區","LI":"大智里","LIN":"15鄰","STREET":"長東街","SECT":" ","MAREA":" ","LANE":"１４５巷","ALLEY":" ","HOUSE_NO":"１０號","E_COORD97":171061.32000000001,"N_COORD97":2540054.3300000001,"ADDRESS":"長東街１４５巷１０號","OBJECTID":276005},"geometry":{"x":171061.32000000123,"y":2540054.3300000001}},{"attributes":{"ID":276011,"DIS_CODE":0,"TOWNNAME":"東區","LI":"大智里","LIN":"15鄰","STREET":"長東街","SECT":" ","MAREA":" ","LANE":"１４５巷","ALLEY":" ","HOUSE_NO":"１號","E_COORD97":171040.26999999999,"N_COORD97":2540069.3199999998,"ADDRESS":"長東街１４５巷１號","OBJECTID":276006},"geometry":{"x":171040.27000000142,"y":2540069.320000004}},{"attributes":{"ID":276012,"DIS_CODE":0,"TOWNNAME":"東區","LI":"大智里","LIN":"15鄰","STREET":"長東街","SECT":" ","MAREA":" ","LANE":"１４５巷","ALLEY":" ","HOUSE_NO":"９號","E_COORD97":171055.66,"N_COORD97":2540070.71,"ADDRESS":"長東街１４５巷９號","OBJECTID":276007},"geometry":{"x":171055.66000000108,"y":2540070.7100000046}},{"attributes":{"ID":276013,"DIS_CODE":0,"TOWNNAME":"白河區","LI":"永安里","LIN":"15鄰","STREET":"三民路","SECT":" ","MAREA":" ","LANE":"４５２巷","ALLEY":" ","HOUSE_NO":"７號","E_COORD97":189898.69,"N_COORD97":2583631.3100000001,"ADDRESS":"三民路４５２巷７號","OBJECTID":276008},"geometry":{"x":189898.69000000041,"y":2583631.3100000005}},{"attributes":{"ID":276014,"DIS_CODE":0,"TOWNNAME":"白河區","LI":"永安里","LIN":"15鄰","STREET":"三民路","SECT":" ","MAREA":" ","LANE":"４６３巷","ALLEY":" ","HOUSE_NO":"２號","E_COORD97":189867.54999999999,"N_COORD97":2583364.52,"ADDRESS":"三民路４６３巷２號","OBJECTID":276009},"geometry":{"x":189867.55000000075,"y":2583364.5199999996}},{"attributes":{"ID":276015,"DIS_CODE":0,"TOWNNAME":"白河區","LI":"永安里","LIN":"15鄰","STREET":"三民路","SECT":" ","MAREA":" ","LANE":"４９７巷","ALLEY":" ","HOUSE_NO":"１０號","E_COORD97":189758.23999999999,"N_COORD97":2583447.8300000001,"ADDRESS":"三民路４９７巷１０號","OBJECTID":276010},"geometry":{"x":189758.24000000115,"y":2583447.8300000001}},{"attributes":{"ID":276016,"DIS_CODE":0,"TOWNNAME":"白河區","LI":"永安里","LIN":"15鄰","STREET":"三民路","SECT":" ","MAREA":" ","LANE":"４９７巷","ALLEY":" ","HOUSE_NO":"１１號","E_COORD97":189771.72,"N_COORD97":2583438.02,"ADDRESS":"三民路４９７巷１１號","OBJECTID":276011},"geometry":{"x":189771.72000000067,"y":2583438.0200000014}},{"attributes":{"ID":276017,"DIS_CODE":0,"TOWNNAME":"白河區","LI":"永安里","LIN":"15鄰","STREET":"三民路","SECT":" ","MAREA":" ","LANE":"４９７巷","ALLEY":" ","HOUSE_NO":"１２號","E_COORD97":189752.76000000001,"N_COORD97":2583443.0899999999,"ADDRESS":"三民路４９７巷１２號","OBJECTID":276012},"geometry":{"x":189752.76000000071,"y":2583443.0899999999}},{"attributes":{"ID":276018,"DIS_CODE":0,"TOWNNAME":"白河區","LI":"永安里","LIN":"15鄰","STREET":"三民路","SECT":" ","MAREA":" ","LANE":"５０７巷","ALLEY":" ","HOUSE_NO":"１０號","E_COORD97":189736.92999999999,"N_COORD97":2583466.7999999998,"ADDRESS":"三民路５０７巷１０號","OBJECTID":276013},"geometry":{"x":189736.9299999997,"y":2583466.8000000045}},{"attributes":{"ID":276019,"DIS_CODE":0,"TOWNNAME":"新營區","LI":"新南里","LIN":"25鄰","STREET":"隋唐街","SECT":" ","MAREA":" ","LANE":"２９５巷","ALLEY":" ","HOUSE_NO":"２之３號","E_COORD97":178171.25,"N_COORD97":2578569.3500000001,"ADDRESS":"隋唐街２９５巷２之３號","OBJECTID":276014},"geometry":{"x":178171.25000000093,"y":2578569.3500000034}},{"attributes":{"ID":276020,"DIS_CODE":0,"TOWNNAME":"安南區","LI":"學東里","LIN":"15鄰","STREET":"城北路","SECT":" ","MAREA":" ","LANE":"８００巷","ALLEY":" ","HOUSE_NO":"２０號","E_COORD97":161031.82999999999,"N_COORD97":2553213.8300000001,"ADDRESS":"城北路８００巷２０號","OBJECTID":276015},"geometry":{"x":161031.83000000007,"y":2553213.8300000019}},{"attributes":{"ID":276021,"DIS_CODE":0,"TOWNNAME":"安南區","LI":"學東里","LIN":"15鄰","STREET":"城北路","SECT":" ","MAREA":" ","LANE":"８００巷","ALLEY":" ","HOUSE_NO":"２３號","E_COORD97":161000.32000000001,"N_COORD97":2553213.7999999998,"ADDRESS":"城北路８００巷２３號","OBJECTID":276016},"geometry":{"x":161000.32000000123,"y":2553213.8000000007}},{"attributes":{"ID":276022,"DIS_CODE":0,"TOWNNAME":"安南區","LI":"學東里","LIN":"15鄰","STREET":"城北路","SECT":" ","MAREA":" ","LANE":"８００巷","ALLEY":" ","HOUSE_NO":"２５號","E_COORD97":161000.64000000001,"N_COORD97":2553217.0600000001,"ADDRESS":"城北路８００巷２５號","OBJECTID":276017},"geometry":{"x":161000.64000000153,"y":2553217.0600000024}},{"attributes":{"ID":276023,"DIS_CODE":0,"TOWNNAME":"安南區","LI":"學東里","LIN":"15鄰","STREET":"城北路","SECT":" ","MAREA":" ","LANE":"８００巷","ALLEY":" ","HOUSE_NO":"２７號","E_COORD97":161001.29000000001,"N_COORD97":2553221.6200000001,"ADDRESS":"城北路８００巷２７號","OBJECTID":276018},"geometry":{"x":161001.29000000004,"y":2553221.620000001}},{"attributes":{"ID":276024,"DIS_CODE":0,"TOWNNAME":"安南區","LI":"學東里","LIN":"15鄰","STREET":"城北路","SECT":" ","MAREA":" ","LANE":"８００巷","ALLEY":" ","HOUSE_NO":"２９號","E_COORD97":161001.62,"N_COORD97":2553225.21,"ADDRESS":"城北路８００巷２９號","OBJECTID":276019},"geometry":{"x":161001.62000000104,"y":2553225.2100000046}},{"attributes":{"ID":276025,"DIS_CODE":0,"TOWNNAME":"安南區","LI":"學東里","LIN":"15鄰","STREET":"城北路","SECT":" ","MAREA":" ","LANE":"８００巷","ALLEY":" ","HOUSE_NO":"３０號","E_COORD97":161038.92000000001,"N_COORD97":2553237.6899999999,"ADDRESS":"城北路８００巷３０號","OBJECTID":276020},"geometry":{"x":161038.91999999993,"y":2553237.6900000032}},{"attributes":{"ID":276026,"DIS_CODE":0,"TOWNNAME":"安南區","LI":"學東里","LIN":"15鄰","STREET":"城北路","SECT":" ","MAREA":" ","LANE":"８００巷","ALLEY":" ","HOUSE_NO":"３１號","E_COORD97":161002.60000000001,"N_COORD97":2553229.4500000002,"ADDRESS":"城北路８００巷３１號","OBJECTID":276021},"geometry":{"x":161002.60000000149,"y":2553229.4500000011}},{"attributes":{"ID":276027,"DIS_CODE":0,"TOWNNAME":"安南區","LI":"學東里","LIN":"15鄰","STREET":"城北路","SECT":" ","MAREA":" ","LANE":"８００巷","ALLEY":" ","HOUSE_NO":"３３號","E_COORD97":161001.62,"N_COORD97":2553234.3399999999,"ADDRESS":"城北路８００巷３３號","OBJECTID":276022},"geometry":{"x":161001.62000000104,"y":2553234.3400000017}},{"attributes":{"ID":276028,"DIS_CODE":0,"TOWNNAME":"安南區","LI":"學東里","LIN":"15鄰","STREET":"城北路","SECT":" ","MAREA":" ","LANE":"８００巷","ALLEY":" ","HOUSE_NO":"５５號","E_COORD97":161007.03,"N_COORD97":2553279.9199999999,"ADDRESS":"城北路８００巷５５號","OBJECTID":276023},"geometry":{"x":161007.02999999933,"y":2553279.9199999999}},{"attributes":{"ID":276029,"DIS_CODE":0,"TOWNNAME":"安南區","LI":"學東里","LIN":"15鄰","STREET":"城北路","SECT":" ","MAREA":" ","LANE":"８００巷","ALLEY":" ","HOUSE_NO":"５７號","E_COORD97":161008.23999999999,"N_COORD97":2553286.9399999999,"ADDRESS":"城北路８００巷５７號","OBJECTID":276024},"geometry":{"x":161008.24000000022,"y":2553286.9400000013}},{"attributes":{"ID":276030,"DIS_CODE":0,"TOWNNAME":"安南區","LI":"學東里","LIN":"15鄰","STREET":"城北路","SECT":" ","MAREA":" ","LANE":"８００巷","ALLEY":" ","HOUSE_NO":"５９號","E_COORD97":161007.70000000001,"N_COORD97":2553292.8900000001,"ADDRESS":"城北路８００巷５９號","OBJECTID":276025},"geometry":{"x":161007.70000000205,"y":2553292.8900000025}},{"attributes":{"ID":276031,"DIS_CODE":0,"TOWNNAME":"安南區","LI":"學東里","LIN":"15鄰","STREET":"城北路","SECT":" ","MAREA":" ","LANE":"８００巷","ALLEY":" ","HOUSE_NO":"６１號","E_COORD97":161006.62,"N_COORD97":2553297.48,"ADDRESS":"城北路８００巷６１號","OBJECTID":276026},"geometry":{"x":161006.62000000104,"y":2553297.4800000042}},{"attributes":{"ID":276032,"DIS_CODE":0,"TOWNNAME":"安南區","LI":"大安里","LIN":"15鄰","STREET":"義安街","SECT":" ","MAREA":" ","LANE":"１１４巷","ALLEY":" ","HOUSE_NO":"８號","E_COORD97":167515.88,"N_COORD97":2548090.9500000002,"ADDRESS":"義安街１１４巷８號","OBJECTID":276027},"geometry":{"x":167515.88000000082,"y":2548090.9499999993}},{"attributes":{"ID":276033,"DIS_CODE":0,"TOWNNAME":"安南區","LI":"溪心里","LIN":"15鄰","STREET":"仁安一街","SECT":" ","MAREA":" ","LANE":"２０７巷","ALLEY":" ","HOUSE_NO":"４０號","E_COORD97":165888.14999999999,"N_COORD97":2550472.1099999999,"ADDRESS":"仁安一街２０７巷４０號","OBJECTID":276028},"geometry":{"x":165888.15000000037,"y":2550472.1100000013}},{"attributes":{"ID":276034,"DIS_CODE":0,"TOWNNAME":"新營區","LI":"南興里","LIN":" ","STREET":"延平路","SECT":" ","MAREA":" ","LANE":"１４０巷","ALLEY":" ","HOUSE_NO":"３０之３號","E_COORD97":179646.28,"N_COORD97":2577455.9199999999,"ADDRESS":"延平路１４０巷３０之３號","OBJECTID":276029},"geometry":{"x":179646.28000000119,"y":2577455.9199999999}},{"attributes":{"ID":276035,"DIS_CODE":0,"TOWNNAME":"新營區","LI":"新南里","LIN":"25鄰","STREET":"復興路","SECT":" ","MAREA":" ","LANE":"６２０巷","ALLEY":" ","HOUSE_NO":"５４號","E_COORD97":178065.38,"N_COORD97":2578519.9700000002,"ADDRESS":"復興路６２０巷５４號","OBJECTID":276030},"geometry":{"x":178065.38000000082,"y":2578519.9700000025}},{"attributes":{"ID":276036,"DIS_CODE":0,"TOWNNAME":"永康區","LI":"復興里","LIN":"15鄰","STREET":"復興路","SECT":" ","MAREA":" ","LANE":"３５６巷","ALLEY":" ","HOUSE_NO":"２５號","E_COORD97":172260.39999999999,"N_COORD97":2544403.02,"ADDRESS":"復興路３５６巷２５號","OBJECTID":276031},"geometry":{"x":172260.40000000037,"y":2544403.0199999996}},{"attributes":{"ID":276037,"DIS_CODE":0,"TOWNNAME":"永康區","LI":"復興里","LIN":"15鄰","STREET":"復興路","SECT":" ","MAREA":" ","LANE":"３５６巷","ALLEY":" ","HOUSE_NO":"７號","E_COORD97":172222.84,"N_COORD97":2544358.0299999998,"ADDRESS":"復興路３５６巷７號","OBJECTID":276032},"geometry":{"x":172222.83999999985,"y":2544358.0299999993}},{"attributes":{"ID":276038,"DIS_CODE":0,"TOWNNAME":"永康區","LI":"龍潭里","LIN":"15鄰","STREET":"龍橋街","SECT":" ","MAREA":" ","LANE":"１６巷","ALLEY":" ","HOUSE_NO":"２號","E_COORD97":174885.60999999999,"N_COORD97":2548322.8399999999,"ADDRESS":"龍橋街１６巷２號","OBJECTID":276033},"geometry":{"x":174885.61000000127,"y":2548322.8399999999}},{"attributes":{"ID":276039,"DIS_CODE":0,"TOWNNAME":"永康區","LI":"復興里","LIN":"15鄰","STREET":"復興路","SECT":" ","MAREA":" ","LANE":"３５６巷","ALLEY":" ","HOUSE_NO":"１號","E_COORD97":172210.63,"N_COORD97":2544371.7799999998,"ADDRESS":"復興路３５６巷１號","OBJECTID":276034},"geometry":{"x":172210.62999999989,"y":2544371.7800000012}},{"attributes":{"ID":276040,"DIS_CODE":0,"TOWNNAME":"東區","LI":"富裕里","LIN":"15鄰","STREET":"東門路","SECT":"二段","MAREA":" ","LANE":"３０１巷","ALLEY":" ","HOUSE_NO":"６５號","E_COORD97":170891.09,"N_COORD97":2542735.1400000001,"ADDRESS":"東門路二段３０１巷６５號","OBJECTID":276035},"geometry":{"x":170891.09000000078,"y":2542735.1400000006}},{"attributes":{"ID":276041,"DIS_CODE":0,"TOWNNAME":"東區","LI":"富裕里","LIN":"15鄰","STREET":"東門路","SECT":"二段","MAREA":" ","LANE":"３０１巷","ALLEY":" ","HOUSE_NO":"６７號","E_COORD97":170894.94,"N_COORD97":2542735.4700000002,"ADDRESS":"東門路二段３０１巷６７號","OBJECTID":276036},"geometry":{"x":170894.94000000134,"y":2542735.4700000007}},{"attributes":{"ID":276042,"DIS_CODE":0,"TOWNNAME":"東區","LI":"富裕里","LIN":"15鄰","STREET":"東門路","SECT":"二段","MAREA":" ","LANE":"３０１巷","ALLEY":" ","HOUSE_NO":"７１號","E_COORD97":170902.76000000001,"N_COORD97":2542736.3500000001,"ADDRESS":"東門路二段３０１巷７１號","OBJECTID":276037},"geometry":{"x":170902.75999999978,"y":2542736.3499999978}},{"attributes":{"ID":276043,"DIS_CODE":0,"TOWNNAME":"新營區","LI":"新北里","LIN":"26鄰","STREET":"民治路","SECT":" ","MAREA":" ","LANE":"１５６巷","ALLEY":" ","HOUSE_NO":"２０號","E_COORD97":179162.29999999999,"N_COORD97":2578809.2599999998,"ADDRESS":"民治路１５６巷２０號","OBJECTID":276038},"geometry":{"x":179162.30000000075,"y":2578809.2599999998}},{"attributes":{"ID":276044,"DIS_CODE":0,"TOWNNAME":"新營區","LI":"民權里","LIN":"4鄰","STREET":"中正路","SECT":" ","MAREA":" ","LANE":"９巷","ALLEY":" ","HOUSE_NO":"１６號","E_COORD97":179945.89000000001,"N_COORD97":2578413.5,"ADDRESS":"中正路９巷１６號","OBJECTID":276039},"geometry":{"x":179945.88999999966,"y":2578413.5000000019}},{"attributes":{"ID":276045,"DIS_CODE":0,"TOWNNAME":"新營區","LI":"忠政里","LIN":"32鄰","STREET":"府西路","SECT":" ","MAREA":" ","LANE":"１７巷","ALLEY":" ","HOUSE_NO":"１０號","E_COORD97":179788.75,"N_COORD97":2578922.5600000001,"ADDRESS":"府西路１７巷１０號","OBJECTID":276040},"geometry":{"x":179788.75000000093,"y":2578922.5600000024}},{"attributes":{"ID":276046,"DIS_CODE":0,"TOWNNAME":"新營區","LI":"嘉芳里","LIN":"13鄰","STREET":"復興路","SECT":" ","MAREA":" ","LANE":"９７１巷","ALLEY":" ","HOUSE_NO":"１１號","E_COORD97":176808.95000000001,"N_COORD97":2578660.1299999999,"ADDRESS":"復興路９７１巷１１號","OBJECTID":276041},"geometry":{"x":176808.95000000112,"y":2578660.129999999}},{"attributes":{"ID":276047,"DIS_CODE":0,"TOWNNAME":"東區","LI":"和平里","LIN":"15鄰","STREET":"東門路","SECT":"三段","MAREA":" ","LANE":"２２６巷","ALLEY":" ","HOUSE_NO":"５２號","E_COORD97":171467.03,"N_COORD97":2541883,"ADDRESS":"東門路三段２２６巷５２號","OBJECTID":276042},"geometry":{"x":171467.03000000119,"y":2541883.0000000019}},{"attributes":{"ID":276048,"DIS_CODE":0,"TOWNNAME":"東區","LI":"和平里","LIN":"15鄰","STREET":"東門路","SECT":"三段","MAREA":" ","LANE":"２２６巷","ALLEY":" ","HOUSE_NO":"５４號","E_COORD97":171464.48000000001,"N_COORD97":2541882.4900000002,"ADDRESS":"東門路三段２２６巷５４號","OBJECTID":276043},"geometry":{"x":171464.48000000045,"y":2541882.4900000021}},{"attributes":{"ID":276049,"DIS_CODE":0,"TOWNNAME":"東區","LI":"和平里","LIN":"15鄰","STREET":"東門路","SECT":"三段","MAREA":" ","LANE":"２２６巷","ALLEY":" ","HOUSE_NO":"５６號","E_COORD97":171460.13,"N_COORD97":2541881.98,"ADDRESS":"東門路三段２２６巷５６號","OBJECTID":276044},"geometry":{"x":171460.12999999989,"y":2541881.9799999986}},{"attributes":{"ID":276050,"DIS_CODE":0,"TOWNNAME":"東區","LI":"和平里","LIN":"15鄰","STREET":"東門路","SECT":"三段","MAREA":" ","LANE":"２２６巷","ALLEY":" ","HOUSE_NO":"６６號","E_COORD97":171443.70000000001,"N_COORD97":2541881.1099999999,"ADDRESS":"東門路三段２２６巷６６號","OBJECTID":276045},"geometry":{"x":171443.70000000112,"y":2541881.1100000013}},{"attributes":{"ID":276051,"DIS_CODE":0,"TOWNNAME":"東區","LI":"富強里","LIN":"15鄰","STREET":"裕農路","SECT":" ","MAREA":" ","LANE":"３５０巷","ALLEY":" ","HOUSE_NO":"１２號","E_COORD97":171022.66,"N_COORD97":2543010.0600000001,"ADDRESS":"裕農路３５０巷１２號","OBJECTID":276046},"geometry":{"x":171022.66000000015,"y":2543010.0600000005}},{"attributes":{"ID":276052,"DIS_CODE":0,"TOWNNAME":"東區","LI":"富強里","LIN":"15鄰","STREET":"裕農路","SECT":" ","MAREA":" ","LANE":"３５０巷","ALLEY":" ","HOUSE_NO":"１４號","E_COORD97":171024.39999999999,"N_COORD97":2543005.6400000001,"ADDRESS":"裕農路３５０巷１４號","OBJECTID":276047},"geometry":{"x":171024.40000000037,"y":2543005.6400000006}},{"attributes":{"ID":276053,"DIS_CODE":0,"TOWNNAME":"新營區","LI":"新南里","LIN":"25鄰","STREET":"復興路","SECT":" ","MAREA":" ","LANE":"６２０巷","ALLEY":" ","HOUSE_NO":"５０號","E_COORD97":178087.79000000001,"N_COORD97":2578501.0299999998,"ADDRESS":"復興路６２０巷５０號","OBJECTID":276048},"geometry":{"x":178087.79000000097,"y":2578501.0300000012}},{"attributes":{"ID":276054,"DIS_CODE":0,"TOWNNAME":"東區","LI":"富強里","LIN":"15鄰","STREET":"裕農路","SECT":" ","MAREA":" ","LANE":"３５０巷","ALLEY":" ","HOUSE_NO":"１６號","E_COORD97":171026.76999999999,"N_COORD97":2543002.6400000001,"ADDRESS":"裕農路３５０巷１６號","OBJECTID":276049},"geometry":{"x":171026.77000000142,"y":2543002.6400000006}},{"attributes":{"ID":276055,"DIS_CODE":0,"TOWNNAME":"東區","LI":"富強里","LIN":"15鄰","STREET":"裕農路","SECT":" ","MAREA":" ","LANE":"３５０巷","ALLEY":" ","HOUSE_NO":"２０號","E_COORD97":171030.88,"N_COORD97":2542994.5800000001,"ADDRESS":"裕農路３５０巷２０號","OBJECTID":276050},"geometry":{"x":171030.87999999989,"y":2542994.5800000019}},{"attributes":{"ID":276056,"DIS_CODE":0,"TOWNNAME":"東區","LI":"富強里","LIN":"15鄰","STREET":"裕農路","SECT":" ","MAREA":" ","LANE":"３５０巷","ALLEY":" ","HOUSE_NO":"２２號","E_COORD97":171033.57000000001,"N_COORD97":2542989.5299999998,"ADDRESS":"裕農路３５０巷２２號","OBJECTID":276051},"geometry":{"x":171033.5700000003,"y":2542989.5300000031}},{"attributes":{"ID":276057,"DIS_CODE":0,"TOWNNAME":"中西區","LI":"普濟里","LIN":"15鄰","STREET":"成功路","SECT":" ","MAREA":" ","LANE":"３２９巷","ALLEY":" ","HOUSE_NO":"１２號","E_COORD97":167999.89999999999,"N_COORD97":2544469.7200000002,"ADDRESS":"成功路３２９巷１２號","OBJECTID":276052},"geometry":{"x":167999.9000000013,"y":2544469.7200000007}},{"attributes":{"ID":276058,"DIS_CODE":0,"TOWNNAME":"中西區","LI":"普濟里","LIN":"15鄰","STREET":"成功路","SECT":" ","MAREA":" ","LANE":"３２９巷","ALLEY":" ","HOUSE_NO":"１４號","E_COORD97":167997.66,"N_COORD97":2544472.4500000002,"ADDRESS":"成功路３２９巷１４號","OBJECTID":276053},"geometry":{"x":167997.66000000108,"y":2544472.4500000011}},{"attributes":{"ID":276059,"DIS_CODE":0,"TOWNNAME":"中西區","LI":"普濟里","LIN":"15鄰","STREET":"成功路","SECT":" ","MAREA":" ","LANE":"３２９巷","ALLEY":" ","HOUSE_NO":"１６號","E_COORD97":167993.85999999999,"N_COORD97":2544471.25,"ADDRESS":"成功路３２９巷１６號","OBJECTID":276054},"geometry":{"x":167993.86000000034,"y":2544471.2500000019}},{"attributes":{"ID":276060,"DIS_CODE":0,"TOWNNAME":"新營區","LI":"新南里","LIN":"26鄰","STREET":"復興路","SECT":" ","MAREA":" ","LANE":"６２０巷","ALLEY":" ","HOUSE_NO":"５９號","E_COORD97":178044.91,"N_COORD97":2578518.96,"ADDRESS":"復興路６２０巷５９號","OBJECTID":276055},"geometry":{"x":178044.91000000108,"y":2578518.959999999}},{"attributes":{"ID":276061,"DIS_CODE":0,"TOWNNAME":"中西區","LI":"普濟里","LIN":"15鄰","STREET":"成功路","SECT":" ","MAREA":" ","LANE":"３２９巷","ALLEY":" ","HOUSE_NO":"６號","E_COORD97":167991.85999999999,"N_COORD97":2544474.54,"ADDRESS":"成功路３２９巷６號","OBJECTID":276056},"geometry":{"x":167991.86000000034,"y":2544474.540000001}},{"attributes":{"ID":276062,"DIS_CODE":0,"TOWNNAME":"中西區","LI":"普濟里","LIN":"15鄰","STREET":"成功路","SECT":" ","MAREA":" ","LANE":"３２９巷","ALLEY":" ","HOUSE_NO":"８號","E_COORD97":168003.10999999999,"N_COORD97":2544477.5899999999,"ADDRESS":"成功路３２９巷８號","OBJECTID":276057},"geometry":{"x":168003.11000000127,"y":2544477.589999998}},{"attributes":{"ID":276063,"DIS_CODE":0,"TOWNNAME":"中西區","LI":"安海里","LIN":"15鄰","STREET":"河中街","SECT":" ","MAREA":" ","LANE":"５３巷","ALLEY":" ","HOUSE_NO":"２號","E_COORD97":167289.48999999999,"N_COORD97":2544083.2200000002,"ADDRESS":"河中街５３巷２號","OBJECTID":276058},"geometry":{"x":167289.49000000022,"y":2544083.2200000007}},{"attributes":{"ID":276064,"DIS_CODE":0,"TOWNNAME":"中西區","LI":"大涼里","LIN":"15鄰","STREET":"府前一街","SECT":" ","MAREA":" ","LANE":"９巷","ALLEY":" ","HOUSE_NO":"８號","E_COORD97":166790.34,"N_COORD97":2543736.8199999998,"ADDRESS":"府前一街９巷８號","OBJECTID":276059},"geometry":{"x":166790.34000000171,"y":2543736.8200000003}},{"attributes":{"ID":276065,"DIS_CODE":0,"TOWNNAME":"永康區","LI":"永康里","LIN":"15鄰","STREET":"永中街","SECT":" ","MAREA":" ","LANE":"１００巷","ALLEY":" ","HOUSE_NO":"２２號","E_COORD97":174026.54000000001,"N_COORD97":2547155.25,"ADDRESS":"永中街１００巷２２號","OBJECTID":276060},"geometry":{"x":174026.54000000097,"y":2547155.2500000037}},{"attributes":{"ID":276066,"DIS_CODE":0,"TOWNNAME":"永康區","LI":"埔園里","LIN":"15鄰","STREET":"龍埔街","SECT":" ","MAREA":" ","LANE":"５３６巷","ALLEY":" ","HOUSE_NO":"２號","E_COORD97":173566.22,"N_COORD97":2548401.75,"ADDRESS":"龍埔街５３６巷２號","OBJECTID":276061},"geometry":{"x":173566.21999999974,"y":2548401.75}},{"attributes":{"ID":276067,"DIS_CODE":0,"TOWNNAME":"永康區","LI":"網寮里","LIN":"15鄰","STREET":"永和街","SECT":" ","MAREA":" ","LANE":"２６０巷","ALLEY":" ","HOUSE_NO":"２０號","E_COORD97":173435.38,"N_COORD97":2546640,"ADDRESS":"永和街２６０巷２０號","OBJECTID":276062},"geometry":{"x":173435.38000000082,"y":2546640}},{"attributes":{"ID":276068,"DIS_CODE":0,"TOWNNAME":"永康區","LI":"崑山里","LIN":"15鄰","STREET":"大灣路","SECT":" ","MAREA":" ","LANE":"９６０巷","ALLEY":" ","HOUSE_NO":"１１號","E_COORD97":173579.29000000001,"N_COORD97":2544458.75,"ADDRESS":"大灣路９６０巷１１號","OBJECTID":276063},"geometry":{"x":173579.29000000004,"y":2544458.75}},{"attributes":{"ID":276069,"DIS_CODE":0,"TOWNNAME":"永康區","LI":"中華里","LIN":"15鄰","STREET":"忠義街","SECT":" ","MAREA":" ","LANE":"４４巷","ALLEY":" ","HOUSE_NO":"２９號","E_COORD97":171803.16,"N_COORD97":2544482.25,"ADDRESS":"忠義街４４巷２９號","OBJECTID":276064},"geometry":{"x":171803.16000000108,"y":2544482.25}},{"attributes":{"ID":276070,"DIS_CODE":0,"TOWNNAME":"永康區","LI":"網寮里","LIN":"15鄰","STREET":"永勝街","SECT":" ","MAREA":" ","LANE":"２４８巷","ALLEY":" ","HOUSE_NO":"５號","E_COORD97":173402.28,"N_COORD97":2546642.2599999998,"ADDRESS":"永勝街２４８巷５號","OBJECTID":276065},"geometry":{"x":173402.27999999933,"y":2546642.2599999998}},{"attributes":{"ID":276071,"DIS_CODE":0,"TOWNNAME":"東區","LI":"崇學里","LIN":"15鄰","STREET":"崇學路","SECT":" ","MAREA":" ","LANE":"２０巷","ALLEY":" ","HOUSE_NO":"２號","E_COORD97":170164.98000000001,"N_COORD97":2542003.2999999998,"ADDRESS":"崇學路２０巷２號","OBJECTID":276066},"geometry":{"x":170164.97999999952,"y":2542003.3000000026}},{"attributes":{"ID":276072,"DIS_CODE":0,"TOWNNAME":"南區","LI":"興農里","LIN":"11鄰","STREET":"明興路","SECT":" ","MAREA":" ","LANE":"１１８１巷","ALLEY":" ","HOUSE_NO":"９１號","E_COORD97":167187.72,"N_COORD97":2536674.2000000002,"ADDRESS":"明興路１１８１巷９１號","OBJECTID":276067},"geometry":{"x":167187.7200000016,"y":2536674.1999999993}},{"attributes":{"ID":276073,"DIS_CODE":0,"TOWNNAME":"東區","LI":"富強里","LIN":"25鄰","STREET":"裕農路","SECT":" ","MAREA":" ","LANE":"３５０巷","ALLEY":" ","HOUSE_NO":"１５號","E_COORD97":171043.64000000001,"N_COORD97":2543013.7999999998,"ADDRESS":"裕農路３５０巷１５號","OBJECTID":276068},"geometry":{"x":171043.6400000006,"y":2543013.8000000026}},{"attributes":{"ID":276074,"DIS_CODE":0,"TOWNNAME":"安平區","LI":"文平里","LIN":"25鄰","STREET":"建平三街","SECT":" ","MAREA":" ","LANE":"６２巷","ALLEY":" ","HOUSE_NO":"１４號四樓之１４","E_COORD97":166192.07000000001,"N_COORD97":2542943.8700000001,"ADDRESS":"建平三街６２巷１４號四樓之１４","OBJECTID":276069},"geometry":{"x":166192.0700000003,"y":2542943.870000001}},{"attributes":{"ID":276075,"DIS_CODE":0,"TOWNNAME":"安平區","LI":"文平里","LIN":"25鄰","STREET":"永華二街","SECT":" ","MAREA":" ","LANE":"４１巷","ALLEY":" ","HOUSE_NO":"９１號","E_COORD97":166187.42999999999,"N_COORD97":2542957.4500000002,"ADDRESS":"永華二街４１巷９１號","OBJECTID":276070},"geometry":{"x":166187.4299999997,"y":2542957.4500000011}},{"attributes":{"ID":276076,"DIS_CODE":0,"TOWNNAME":"安平區","LI":"怡平里","LIN":"25鄰","STREET":"永華六街","SECT":" ","MAREA":" ","LANE":"３１巷","ALLEY":" ","HOUSE_NO":"１之１號","E_COORD97":165581.51999999999,"N_COORD97":2543596,"ADDRESS":"永華六街３１巷１之１號","OBJECTID":276071},"geometry":{"x":165581.51999999955,"y":2543596}},{"attributes":{"ID":276077,"DIS_CODE":0,"TOWNNAME":"安平區","LI":"怡平里","LIN":"25鄰","STREET":"永華六街","SECT":" ","MAREA":" ","LANE":"３１巷","ALLEY":" ","HOUSE_NO":"２之１號","E_COORD97":165581.97,"N_COORD97":2543582.1000000001,"ADDRESS":"永華六街３１巷２之１號","OBJECTID":276072},"geometry":{"x":165581.96999999974,"y":2543582.0999999996}},{"attributes":{"ID":276078,"DIS_CODE":0,"TOWNNAME":"北區","LI":"和順里","LIN":"36鄰","STREET":"公園南路","SECT":" ","MAREA":" ","LANE":"３７０巷","ALLEY":" ","HOUSE_NO":"１６號","E_COORD97":168206.09,"N_COORD97":2544911.1699999999,"ADDRESS":"公園南路３７０巷１６號","OBJECTID":276073},"geometry":{"x":168206.09000000078,"y":2544911.1700000037}},{"attributes":{"ID":276079,"DIS_CODE":0,"TOWNNAME":"東區","LI":"富強里","LIN":"25鄰","STREET":"裕農路","SECT":" ","MAREA":" ","LANE":"３５０巷","ALLEY":" ","HOUSE_NO":"１７號","E_COORD97":171044.81,"N_COORD97":2543009.8599999999,"ADDRESS":"裕農路３５０巷１７號","OBJECTID":276074},"geometry":{"x":171044.80999999959,"y":2543009.8599999994}},{"attributes":{"ID":276080,"DIS_CODE":0,"TOWNNAME":"東區","LI":"富強里","LIN":"25鄰","STREET":"裕農路","SECT":" ","MAREA":" ","LANE":"３５０巷","ALLEY":" ","HOUSE_NO":"１９號","E_COORD97":171045.98000000001,"N_COORD97":2543005.1800000002,"ADDRESS":"裕農路３５０巷１９號","OBJECTID":276075},"geometry":{"x":171045.98000000045,"y":2543005.1799999997}},{"attributes":{"ID":276081,"DIS_CODE":0,"TOWNNAME":"東區","LI":"富強里","LIN":"25鄰","STREET":"裕農路","SECT":" ","MAREA":" ","LANE":"３５０巷","ALLEY":" ","HOUSE_NO":"２１號","E_COORD97":171047.59,"N_COORD97":2543000.79,"ADDRESS":"裕農路３５０巷２１號","OBJECTID":276076},"geometry":{"x":171047.59000000078,"y":2543000.7900000028}},{"attributes":{"ID":276082,"DIS_CODE":0,"TOWNNAME":"北區","LI":"和順里","LIN":"34鄰","STREET":"公園南路","SECT":" ","MAREA":" ","LANE":"３６２巷","ALLEY":" ","HOUSE_NO":"１２號","E_COORD97":168297.48000000001,"N_COORD97":2544904.6200000001,"ADDRESS":"公園南路３６２巷１２號","OBJECTID":276077},"geometry":{"x":168297.48000000138,"y":2544904.620000001}},{"attributes":{"ID":276083,"DIS_CODE":0,"TOWNNAME":"北區","LI":"和順里","LIN":"34鄰","STREET":"公園南路","SECT":" ","MAREA":" ","LANE":"３６２巷","ALLEY":" ","HOUSE_NO":"１８號","E_COORD97":168284.48999999999,"N_COORD97":2544931.5499999998,"ADDRESS":"公園南路３６２巷１８號","OBJECTID":276078},"geometry":{"x":168284.49000000022,"y":2544931.5500000026}},{"attributes":{"ID":276084,"DIS_CODE":0,"TOWNNAME":"安平區","LI":"國平里","LIN":"13鄰","STREET":"建平一街","SECT":" ","MAREA":" ","LANE":"１８９巷","ALLEY":" ","HOUSE_NO":"１３２號","E_COORD97":165403.23000000001,"N_COORD97":2542764.25,"ADDRESS":"建平一街１８９巷１３２號","OBJECTID":276079},"geometry":{"x":165403.23000000231,"y":2542764.25}},{"attributes":{"ID":276085,"DIS_CODE":0,"TOWNNAME":"安平區","LI":"國平里","LIN":"13鄰","STREET":"建平一街","SECT":" ","MAREA":" ","LANE":"１８９巷","ALLEY":" ","HOUSE_NO":"１３６號","E_COORD97":165399.26000000001,"N_COORD97":2542765.2000000002,"ADDRESS":"建平一街１８９巷１３６號","OBJECTID":276080},"geometry":{"x":165399.26000000071,"y":2542765.2000000011}},{"attributes":{"ID":276086,"DIS_CODE":0,"TOWNNAME":"安平區","LI":"國平里","LIN":"13鄰","STREET":"建平一街","SECT":" ","MAREA":" ","LANE":"１８９巷","ALLEY":" ","HOUSE_NO":"１３８號","E_COORD97":165394.03,"N_COORD97":2542767.8999999999,"ADDRESS":"建平一街１８９巷１３８號","OBJECTID":276081},"geometry":{"x":165394.03000000026,"y":2542767.9000000022}},{"attributes":{"ID":276087,"DIS_CODE":0,"TOWNNAME":"安平區","LI":"金城里","LIN":"13鄰","STREET":"安北路","SECT":" ","MAREA":" ","LANE":"７２２巷","ALLEY":" ","HOUSE_NO":"１２０號","E_COORD97":162485.76999999999,"N_COORD97":2544424.73,"ADDRESS":"安北路７２２巷１２０號","OBJECTID":276082},"geometry":{"x":162485.76999999955,"y":2544424.7300000023}},{"attributes":{"ID":276088,"DIS_CODE":0,"TOWNNAME":"安平區","LI":"金城里","LIN":"13鄰","STREET":"安北路","SECT":" ","MAREA":" ","LANE":"７２２巷","ALLEY":" ","HOUSE_NO":"１２２號","E_COORD97":162461.48000000001,"N_COORD97":2544416.79,"ADDRESS":"安北路７２２巷１２２號","OBJECTID":276083},"geometry":{"x":162461.48000000045,"y":2544416.7899999991}},{"attributes":{"ID":276089,"DIS_CODE":0,"TOWNNAME":"安平區","LI":"金城里","LIN":"13鄰","STREET":"安北路","SECT":" ","MAREA":" ","LANE":"７２２巷","ALLEY":" ","HOUSE_NO":"１２６號","E_COORD97":162438.14000000001,"N_COORD97":2544409.1699999999,"ADDRESS":"安北路７２２巷１２６號","OBJECTID":276084},"geometry":{"x":162438.14000000153,"y":2544409.1699999999}},{"attributes":{"ID":276090,"DIS_CODE":0,"TOWNNAME":"安平區","LI":"億載里","LIN":"1鄰","STREET":"平豐路","SECT":" ","MAREA":" ","LANE":"３９１巷","ALLEY":" ","HOUSE_NO":"２４號","E_COORD97":164210.16,"N_COORD97":2543818.5800000001,"ADDRESS":"平豐路３９１巷２４號","OBJECTID":276085},"geometry":{"x":164210.16000000201,"y":2543818.5800000019}},{"attributes":{"ID":276091,"DIS_CODE":0,"TOWNNAME":"安平區","LI":"億載里","LIN":"1鄰","STREET":"平豐路","SECT":" ","MAREA":" ","LANE":"３９１巷","ALLEY":" ","HOUSE_NO":"４２號","E_COORD97":164145.64999999999,"N_COORD97":2543814.8100000001,"ADDRESS":"平豐路３９１巷４２號","OBJECTID":276086},"geometry":{"x":164145.65000000037,"y":2543814.8100000005}},{"attributes":{"ID":276092,"DIS_CODE":0,"TOWNNAME":"安平區","LI":"億載里","LIN":"1鄰","STREET":"平豐路","SECT":" ","MAREA":" ","LANE":"３９１巷","ALLEY":" ","HOUSE_NO":"４９號","E_COORD97":164124.72,"N_COORD97":2543798.6899999999,"ADDRESS":"平豐路３９１巷４９號","OBJECTID":276087},"geometry":{"x":164124.72000000067,"y":2543798.6900000032}},{"attributes":{"ID":276093,"DIS_CODE":0,"TOWNNAME":"安平區","LI":"億載里","LIN":"1鄰","STREET":"平豐路","SECT":" ","MAREA":" ","LANE":"３９１巷","ALLEY":" ","HOUSE_NO":"５１號","E_COORD97":164120.60000000001,"N_COORD97":2543797.3199999998,"ADDRESS":"平豐路３９１巷５１號","OBJECTID":276088},"geometry":{"x":164120.60000000056,"y":2543797.3200000003}},{"attributes":{"ID":276094,"DIS_CODE":0,"TOWNNAME":"安平區","LI":"億載里","LIN":"1鄰","STREET":"平豐路","SECT":" ","MAREA":" ","LANE":"３９１巷","ALLEY":" ","HOUSE_NO":"５３號","E_COORD97":164115.45000000001,"N_COORD97":2543796.6299999999,"ADDRESS":"平豐路３９１巷５３號","OBJECTID":276089},"geometry":{"x":164115.45000000112,"y":2543796.6300000008}},{"attributes":{"ID":276095,"DIS_CODE":0,"TOWNNAME":"安南區","LI":"州南里","LIN":"27鄰","STREET":"長和路","SECT":"二段","MAREA":" ","LANE":"１８７巷","ALLEY":" ","HOUSE_NO":"１６號","E_COORD97":169984.29999999999,"N_COORD97":2551464.3300000001,"ADDRESS":"長和路二段１８７巷１６號","OBJECTID":276090},"geometry":{"x":169984.30000000168,"y":2551464.3300000019}},{"attributes":{"ID":276096,"DIS_CODE":0,"TOWNNAME":"安南區","LI":"州南里","LIN":"25鄰","STREET":"長和路","SECT":"二段","MAREA":" ","LANE":"１４５巷","ALLEY":" ","HOUSE_NO":"２２號","E_COORD97":170098.57999999999,"N_COORD97":2551459.5600000001,"ADDRESS":"長和路二段１４５巷２２號","OBJECTID":276091},"geometry":{"x":170098.58000000101,"y":2551459.5600000042}},{"attributes":{"ID":276097,"DIS_CODE":0,"TOWNNAME":"安平區","LI":"億載里","LIN":"1鄰","STREET":"平豐路","SECT":" ","MAREA":" ","LANE":"３９１巷","ALLEY":" ","HOUSE_NO":"５５號","E_COORD97":164111.67999999999,"N_COORD97":2543796.98,"ADDRESS":"平豐路３９１巷５５號","OBJECTID":276092},"geometry":{"x":164111.68000000063,"y":2543796.9800000004}},{"attributes":{"ID":276098,"DIS_CODE":0,"TOWNNAME":"安平區","LI":"億載里","LIN":"1鄰","STREET":"平豐路","SECT":" ","MAREA":" ","LANE":"３９１巷","ALLEY":" ","HOUSE_NO":"５９號","E_COORD97":164102.07000000001,"N_COORD97":2543795.9500000002,"ADDRESS":"平豐路３９１巷５９號","OBJECTID":276093},"geometry":{"x":164102.0700000003,"y":2543795.9499999993}},{"attributes":{"ID":276099,"DIS_CODE":0,"TOWNNAME":"北區","LI":"中樓里","LIN":"1鄰","STREET":"前鋒路","SECT":" ","MAREA":" ","LANE":"１７５巷","ALLEY":" ","HOUSE_NO":"１５號","E_COORD97":169440.72,"N_COORD97":2544719.2400000002,"ADDRESS":"前鋒路１７５巷１５號","OBJECTID":276094},"geometry":{"x":169440.72000000067,"y":2544719.2400000021}},{"attributes":{"ID":276100,"DIS_CODE":0,"TOWNNAME":"北區","LI":"正風里","LIN":"1鄰","STREET":"公園路","SECT":" ","MAREA":" ","LANE":"８９２巷","ALLEY":" ","HOUSE_NO":"２號","E_COORD97":169323.78,"N_COORD97":2546063.0099999998,"ADDRESS":"公園路８９２巷２號","OBJECTID":276095},"geometry":{"x":169323.78000000212,"y":2546063.0100000016}},{"attributes":{"ID":276101,"DIS_CODE":0,"TOWNNAME":"新化區","LI":"太平里","LIN":"3鄰","STREET":"太平街","SECT":" ","MAREA":" ","LANE":" ","ALLEY":" ","HOUSE_NO":"１３號之２四樓","E_COORD97":179022.57000000001,"N_COORD97":2548822.2599999998,"ADDRESS":"太平街１３號之２四樓","OBJECTID":276096},"geometry":{"x":179022.5700000003,"y":2548822.2599999998}},{"attributes":{"ID":276102,"DIS_CODE":0,"TOWNNAME":"東區","LI":"東光里","LIN":"3鄰","STREET":"東興路","SECT":" ","MAREA":" ","LANE":" ","ALLEY":" ","HOUSE_NO":"１００號九樓","E_COORD97":170986.32000000001,"N_COORD97":2543647.3799999999,"ADDRESS":"東興路１００號九樓","OBJECTID":276097},"geometry":{"x":170986.3200000003,"y":2543647.3799999971}},{"attributes":{"ID":276103,"DIS_CODE":0,"TOWNNAME":"歸仁區","LI":"西埔里","LIN":"1鄰","STREET":"西埔三街","SECT":" ","MAREA":" ","LANE":"７３巷","ALLEY":" ","HOUSE_NO":"１３號","E_COORD97":176847.08017900001,"N_COORD97":2543935.9744299999,"ADDRESS":"西埔三街７３巷１３號","OBJECTID":276098},"geometry":{"x":176847.08017900214,"y":2543935.9744300023}},{"attributes":{"ID":276104,"DIS_CODE":0,"TOWNNAME":"新營區","LI":"好平里","LIN":"1鄰","STREET":"武侯街","SECT":" ","MAREA":" ","LANE":"９巷","ALLEY":" ","HOUSE_NO":"１１之３號","E_COORD97":179614.60000000001,"N_COORD97":2577695.29,"ADDRESS":"武侯街９巷１１之３號","OBJECTID":276099},"geometry":{"x":179614.60000000056,"y":2577695.290000001}},{"attributes":{"ID":276105,"DIS_CODE":0,"TOWNNAME":"新化區","LI":"東榮里","LIN":"8鄰","STREET":"信義路","SECT":" ","MAREA":" ","LANE":"１１７巷","ALLEY":" ","HOUSE_NO":"２６號之１","E_COORD97":179696.60999999999,"N_COORD97":2548317.2599999998,"ADDRESS":"信義路１１７巷２６號之１","OBJECTID":276100},"geometry":{"x":179696.61000000127,"y":2548317.2599999998}},{"attributes":{"ID":276106,"DIS_CODE":0,"TOWNNAME":"北區","LI":"文元里","LIN":"1鄰","STREET":"北成路","SECT":" ","MAREA":" ","LANE":"４８１巷","ALLEY":" ","HOUSE_NO":"１號","E_COORD97":167845.51000000001,"N_COORD97":2546519.6699999999,"ADDRESS":"北成路４８１巷１號","OBJECTID":276101},"geometry":{"x":167845.51000000071,"y":2546519.6700000018}},{"attributes":{"ID":276107,"DIS_CODE":0,"TOWNNAME":"北區","LI":"振興里","LIN":"1鄰","STREET":"勝利路","SECT":" ","MAREA":" ","LANE":"２７６巷","ALLEY":" ","HOUSE_NO":"１號","E_COORD97":169935.87,"N_COORD97":2545158.8500000001,"ADDRESS":"勝利路２７６巷１號","OBJECTID":276102},"geometry":{"x":169935.87000000011,"y":2545158.8500000015}},{"attributes":{"ID":276108,"DIS_CODE":0,"TOWNNAME":"北區","LI":"振興里","LIN":"1鄰","STREET":"勝利路","SECT":" ","MAREA":" ","LANE":"２７６巷","ALLEY":" ","HOUSE_NO":"３號","E_COORD97":169938.89999999999,"N_COORD97":2545170.3100000001,"ADDRESS":"勝利路２７６巷３號","OBJECTID":276103},"geometry":{"x":169938.9000000013,"y":2545170.3100000024}},{"attributes":{"ID":276109,"DIS_CODE":0,"TOWNNAME":"北區","LI":"振興里","LIN":"1鄰","STREET":"勝利路","SECT":" ","MAREA":" ","LANE":"２７６巷","ALLEY":" ","HOUSE_NO":"３號之１","E_COORD97":169937.92999999999,"N_COORD97":2545174.9700000002,"ADDRESS":"勝利路２７６巷３號之１","OBJECTID":276104},"geometry":{"x":169937.93000000063,"y":2545174.9700000025}},{"attributes":{"ID":276110,"DIS_CODE":0,"TOWNNAME":"北區","LI":"振興里","LIN":"1鄰","STREET":"勝利路","SECT":" ","MAREA":" ","LANE":"２７６巷","ALLEY":" ","HOUSE_NO":"５號","E_COORD97":169949.19,"N_COORD97":2545172.6899999999,"ADDRESS":"勝利路２７６巷５號","OBJECTID":276105},"geometry":{"x":169949.19000000041,"y":2545172.6900000013}},{"attributes":{"ID":276111,"DIS_CODE":0,"TOWNNAME":"北區","LI":"振興里","LIN":"1鄰","STREET":"勝利路","SECT":" ","MAREA":" ","LANE":"２７６巷","ALLEY":" ","HOUSE_NO":"５號之１","E_COORD97":169948.20999999999,"N_COORD97":2545177.1299999999,"ADDRESS":"勝利路２７６巷５號之１","OBJECTID":276106},"geometry":{"x":169948.21000000089,"y":2545177.129999999}},{"attributes":{"ID":276112,"DIS_CODE":0,"TOWNNAME":"北區","LI":"振興里","LIN":"1鄰","STREET":"開元路","SECT":" ","MAREA":" ","LANE":"１４８巷","ALLEY":" ","HOUSE_NO":"１０號","E_COORD97":169994.22,"N_COORD97":2545175.6099999999,"ADDRESS":"開元路１４８巷１０號","OBJECTID":276107},"geometry":{"x":169994.21999999974,"y":2545175.6100000031}},{"attributes":{"ID":276113,"DIS_CODE":0,"TOWNNAME":"北區","LI":"振興里","LIN":"1鄰","STREET":"開元路","SECT":" ","MAREA":" ","LANE":"１４８巷","ALLEY":" ","HOUSE_NO":"８號","E_COORD97":169991.07999999999,"N_COORD97":2545186.6499999999,"ADDRESS":"開元路１４８巷８號","OBJECTID":276108},"geometry":{"x":169991.08000000194,"y":2545186.6500000041}},{"attributes":{"ID":276114,"DIS_CODE":0,"TOWNNAME":"北區","LI":"安民里","LIN":"1鄰","STREET":"海安路","SECT":"三段","MAREA":" ","LANE":"１４巷","ALLEY":" ","HOUSE_NO":"１號","E_COORD97":167910.45000000001,"N_COORD97":2544618.04,"ADDRESS":"海安路三段１４巷１號","OBJECTID":276109},"geometry":{"x":167910.45000000205,"y":2544618.040000001}},{"attributes":{"ID":276115,"DIS_CODE":0,"TOWNNAME":"南區","LI":"喜東里","LIN":"1鄰","STREET":"明興路","SECT":" ","MAREA":" ","LANE":"３２１巷","ALLEY":" ","HOUSE_NO":"１２號","E_COORD97":166772.17999999999,"N_COORD97":2539062.8300000001,"ADDRESS":"明興路３２１巷１２號","OBJECTID":276110},"geometry":{"x":166772.1799999997,"y":2539062.8300000019}},{"attributes":{"ID":276116,"DIS_CODE":0,"TOWNNAME":"南區","LI":"喜東里","LIN":"1鄰","STREET":"明興路","SECT":" ","MAREA":" ","LANE":"３２１巷","ALLEY":" ","HOUSE_NO":"１６號之２","E_COORD97":166810.59,"N_COORD97":2539028.7599999998,"ADDRESS":"明興路３２１巷１６號之２","OBJECTID":276111},"geometry":{"x":166810.59000000171,"y":2539028.7600000016}},{"attributes":{"ID":276117,"DIS_CODE":0,"TOWNNAME":"北區","LI":"安民里","LIN":"1鄰","STREET":"海安路","SECT":"三段","MAREA":" ","LANE":"１４巷","ALLEY":" ","HOUSE_NO":"９號","E_COORD97":167950.67999999999,"N_COORD97":2544618.2599999998,"ADDRESS":"海安路三段１４巷９號","OBJECTID":276112},"geometry":{"x":167950.68000000156,"y":2544618.2599999998}},{"attributes":{"ID":276118,"DIS_CODE":0,"TOWNNAME":"北區","LI":"光武里","LIN":"1鄰","STREET":"長榮路","SECT":"五段","MAREA":" ","LANE":"２５３巷","ALLEY":" ","HOUSE_NO":"１９號","E_COORD97":169881.89000000001,"N_COORD97":2545796.4100000001,"ADDRESS":"長榮路五段２５３巷１９號","OBJECTID":276113},"geometry":{"x":169881.89000000153,"y":2545796.410000002}},{"attributes":{"ID":276119,"DIS_CODE":0,"TOWNNAME":"北區","LI":"力行里","LIN":"1鄰","STREET":"開南街","SECT":" ","MAREA":" ","LANE":"２１３巷","ALLEY":" ","HOUSE_NO":"１０號","E_COORD97":170815.42000000001,"N_COORD97":2545011.6899999999,"ADDRESS":"開南街２１３巷１０號","OBJECTID":276114},"geometry":{"x":170815.41999999993,"y":2545011.6899999995}},{"attributes":{"ID":276120,"DIS_CODE":0,"TOWNNAME":"北區","LI":"振興里","LIN":"1鄰","STREET":"勝利路","SECT":" ","MAREA":" ","LANE":"２７６巷","ALLEY":" ","HOUSE_NO":"１５號","E_COORD97":169974.59,"N_COORD97":2545167.8500000001,"ADDRESS":"勝利路２７６巷１５號","OBJECTID":276115},"geometry":{"x":169974.59000000078,"y":2545167.8500000015}},{"attributes":{"ID":276121,"DIS_CODE":0,"TOWNNAME":"北區","LI":"重興里","LIN":"1鄰","STREET":"林森路","SECT":"三段","MAREA":" ","LANE":"７５巷","ALLEY":" ","HOUSE_NO":"３號","E_COORD97":170490.28,"N_COORD97":2544815.0899999999,"ADDRESS":"林森路三段７５巷３號","OBJECTID":276116},"geometry":{"x":170490.28000000119,"y":2544815.0900000017}},{"attributes":{"ID":276122,"DIS_CODE":0,"TOWNNAME":"北區","LI":"振興里","LIN":"1鄰","STREET":"勝利路","SECT":" ","MAREA":" ","LANE":"２７６巷","ALLEY":" ","HOUSE_NO":"１３號","E_COORD97":169968.56,"N_COORD97":2545166.4199999999,"ADDRESS":"勝利路２７６巷１３號","OBJECTID":276117},"geometry":{"x":169968.55999999866,"y":2545166.4199999999}},{"attributes":{"ID":276123,"DIS_CODE":0,"TOWNNAME":"北區","LI":"重興里","LIN":"1鄰","STREET":"林森路","SECT":"三段","MAREA":" ","LANE":"７５巷","ALLEY":" ","HOUSE_NO":"１號","E_COORD97":170494.88,"N_COORD97":2544813.8199999998,"ADDRESS":"林森路三段７５巷１號","OBJECTID":276118},"geometry":{"x":170494.87999999989,"y":2544813.8200000022}},{"attributes":{"ID":276124,"DIS_CODE":0,"TOWNNAME":"北區","LI":"長德里","LIN":"1鄰","STREET":"公園南路","SECT":" ","MAREA":" ","LANE":"１５２巷","ALLEY":" ","HOUSE_NO":"１２號","E_COORD97":168678.38,"N_COORD97":2544714.0499999998,"ADDRESS":"公園南路１５２巷１２號","OBJECTID":276119},"geometry":{"x":168678.37999999896,"y":2544714.0500000026}},{"attributes":{"ID":276125,"DIS_CODE":0,"TOWNNAME":"北區","LI":"三德里","LIN":"1鄰","STREET":"北華街","SECT":" ","MAREA":" ","LANE":"１７０巷","ALLEY":" ","HOUSE_NO":"２號","E_COORD97":168536.23999999999,"N_COORD97":2544638.29,"ADDRESS":"北華街１７０巷２號","OBJECTID":276120},"geometry":{"x":168536.24000000115,"y":2544638.2900000028}},{"attributes":{"ID":276126,"DIS_CODE":0,"TOWNNAME":"北區","LI":"三德里","LIN":"1鄰","STREET":"北華街","SECT":" ","MAREA":" ","LANE":"１７０巷","ALLEY":" ","HOUSE_NO":"４號","E_COORD97":168540.07999999999,"N_COORD97":2544652.8399999999,"ADDRESS":"北華街１７０巷４號","OBJECTID":276121},"geometry":{"x":168540.08000000194,"y":2544652.8400000017}},{"attributes":{"ID":276127,"DIS_CODE":0,"TOWNNAME":"新化區","LI":"\u25A0拔里","LIN":"4鄰","STREET":" ","SECT":" ","MAREA":"\u25A0拔林","LANE":" ","ALLEY":" ","HOUSE_NO":"２２３號之７","E_COORD97":183670.47,"N_COORD97":2551926.2599999998,"ADDRESS":"\u25A0拔林２２３號之７","OBJECTID":276122},"geometry":{"x":183670.47000000067,"y":2551926.2600000016}},{"attributes":{"ID":276128,"DIS_CODE":0,"TOWNNAME":"白河區","LI":"關嶺里","LIN":"3鄰","STREET":" ","SECT":" ","MAREA":"關子嶺","LANE":" ","ALLEY":" ","HOUSE_NO":"４５之１００號三樓","E_COORD97":199151.78,"N_COORD97":2581427.3199999998,"ADDRESS":"關子嶺４５之１００號三樓","OBJECTID":276123},"geometry":{"x":199151.78000000026,"y":2581427.3200000003}},{"attributes":{"ID":276129,"DIS_CODE":0,"TOWNNAME":"白河區","LI":"關嶺里","LIN":"3鄰","STREET":" ","SECT":" ","MAREA":"關子嶺","LANE":" ","ALLEY":" ","HOUSE_NO":"４５之１０１號二樓","E_COORD97":199150.25,"N_COORD97":2581428.75,"ADDRESS":"關子嶺４５之１０１號二樓","OBJECTID":276124},"geometry":{"x":199150.25,"y":2581428.7500000037}},{"attributes":{"ID":276130,"DIS_CODE":0,"TOWNNAME":"白河區","LI":"關嶺里","LIN":"3鄰","STREET":" ","SECT":" ","MAREA":"關子嶺","LANE":" ","ALLEY":" ","HOUSE_NO":"４５之１０１號三樓","E_COORD97":199150.25,"N_COORD97":2581428.75,"ADDRESS":"關子嶺４５之１０１號三樓","OBJECTID":276125},"geometry":{"x":199150.25,"y":2581428.7500000037}},{"attributes":{"ID":276131,"DIS_CODE":0,"TOWNNAME":"白河區","LI":"關嶺里","LIN":"3鄰","STREET":" ","SECT":" ","MAREA":"關子嶺","LANE":" ","ALLEY":" ","HOUSE_NO":"４５之１０１號五樓","E_COORD97":199150.25,"N_COORD97":2581428.75,"ADDRESS":"關子嶺４５之１０１號五樓","OBJECTID":276126},"geometry":{"x":199150.25,"y":2581428.7500000037}},{"attributes":{"ID":276132,"DIS_CODE":0,"TOWNNAME":"新化區","LI":"北勢里","LIN":"4鄰","STREET":" ","SECT":" ","MAREA":"北勢","LANE":" ","ALLEY":" ","HOUSE_NO":"４０號","E_COORD97":177350.82999999999,"N_COORD97":2549531.2599999998,"ADDRESS":"北勢４０號","OBJECTID":276127},"geometry":{"x":177350.83000000007,"y":2549531.2599999998}},{"attributes":{"ID":276133,"DIS_CODE":0,"TOWNNAME":"新化區","LI":"北勢里","LIN":"1鄰","STREET":" ","SECT":" ","MAREA":"北勢","LANE":" ","ALLEY":" ","HOUSE_NO":"１５２號之３","E_COORD97":177266.82999999999,"N_COORD97":2549443.2599999998,"ADDRESS":"北勢１５２號之３","OBJECTID":276128},"geometry":{"x":177266.83000000194,"y":2549443.2599999979}},{"attributes":{"ID":276134,"DIS_CODE":0,"TOWNNAME":"白河區","LI":"關嶺里","LIN":"3鄰","STREET":" ","SECT":" ","MAREA":"關子嶺","LANE":" ","ALLEY":" ","HOUSE_NO":"４５之１０１號六樓","E_COORD97":199150.25,"N_COORD97":2581428.75,"ADDRESS":"關子嶺４５之１０１號六樓","OBJECTID":276129},"geometry":{"x":199150.25,"y":2581428.7500000037}},{"attributes":{"ID":276135,"DIS_CODE":0,"TOWNNAME":"白河區","LI":"關嶺里","LIN":"3鄰","STREET":" ","SECT":" ","MAREA":"關子嶺","LANE":" ","ALLEY":" ","HOUSE_NO":"４５之１０２號二樓","E_COORD97":199148.72,"N_COORD97":2581430.1699999999,"ADDRESS":"關子嶺４５之１０２號二樓","OBJECTID":276130},"geometry":{"x":199148.7200000016,"y":2581430.1700000018}},{"attributes":{"ID":276136,"DIS_CODE":0,"TOWNNAME":"白河區","LI":"關嶺里","LIN":"3鄰","STREET":" ","SECT":" ","MAREA":"關子嶺","LANE":" ","ALLEY":" ","HOUSE_NO":"４５之１０２號三樓","E_COORD97":199148.72,"N_COORD97":2581430.1699999999,"ADDRESS":"關子嶺４５之１０２號三樓","OBJECTID":276131},"geometry":{"x":199148.7200000016,"y":2581430.1700000018}},{"attributes":{"ID":276137,"DIS_CODE":0,"TOWNNAME":"北區","LI":"三德里","LIN":"1鄰","STREET":"北華街","SECT":" ","MAREA":" ","LANE":"１７０巷","ALLEY":" ","HOUSE_NO":"４號之１","E_COORD97":168545.04999999999,"N_COORD97":2544652.6800000002,"ADDRESS":"北華街１７０巷４號之１","OBJECTID":276132},"geometry":{"x":168545.05000000168,"y":2544652.6799999997}},{"attributes":{"ID":276138,"DIS_CODE":0,"TOWNNAME":"北區","LI":"三德里","LIN":"1鄰","STREET":"北華街","SECT":" ","MAREA":" ","LANE":"１７０巷","ALLEY":" ","HOUSE_NO":"４號之１０","E_COORD97":168551.45999999999,"N_COORD97":2544680.4500000002,"ADDRESS":"北華街１７０巷４號之１０","OBJECTID":276133},"geometry":{"x":168551.46000000089,"y":2544680.4499999993}},{"attributes":{"ID":276139,"DIS_CODE":0,"TOWNNAME":"白河區","LI":"關嶺里","LIN":"3鄰","STREET":" ","SECT":" ","MAREA":"關子嶺","LANE":" ","ALLEY":" ","HOUSE_NO":"４５之１１號二樓","E_COORD97":199169.79999999999,"N_COORD97":2581529.73,"ADDRESS":"關子嶺４５之１１號二樓","OBJECTID":276134},"geometry":{"x":199169.79999999981,"y":2581529.7300000004}},{"attributes":{"ID":276140,"DIS_CODE":0,"TOWNNAME":"南區","LI":"喜東里","LIN":"3鄰","STREET":"明興路","SECT":" ","MAREA":" ","LANE":" ","ALLEY":" ","HOUSE_NO":"３２０號四樓","E_COORD97":166355.48999999999,"N_COORD97":2539038.75,"ADDRESS":"明興路３２０號四樓","OBJECTID":276135},"geometry":{"x":166355.49000000022,"y":2539038.7500000037}},{"attributes":{"ID":276141,"DIS_CODE":0,"TOWNNAME":"安南區","LI":"溪心里","LIN":"3鄰","STREET":"安中路","SECT":"二段","MAREA":" ","LANE":" ","ALLEY":" ","HOUSE_NO":"３００號一樓","E_COORD97":166495.54999999999,"N_COORD97":2549724.6600000001,"ADDRESS":"安中路二段３００號一樓","OBJECTID":276136},"geometry":{"x":166495.55000000168,"y":2549724.6600000001}},{"attributes":{"ID":276142,"DIS_CODE":0,"TOWNNAME":"新化區","LI":"北勢里","LIN":"3鄰","STREET":" ","SECT":" ","MAREA":"北勢","LANE":" ","ALLEY":" ","HOUSE_NO":"５９號","E_COORD97":177384.32999999999,"N_COORD97":2549611.2599999998,"ADDRESS":"北勢５９號","OBJECTID":276137},"geometry":{"x":177384.33000000101,"y":2549611.2600000016}},{"attributes":{"ID":276143,"DIS_CODE":0,"TOWNNAME":"北區","LI":"三德里","LIN":"1鄰","STREET":"北華街","SECT":" ","MAREA":" ","LANE":"１７０巷","ALLEY":" ","HOUSE_NO":"４號之１１","E_COORD97":168551.14000000001,"N_COORD97":2544674.3799999999,"ADDRESS":"北華街１７０巷４號之１１","OBJECTID":276138},"geometry":{"x":168551.14000000153,"y":2544674.379999999}},{"attributes":{"ID":276144,"DIS_CODE":0,"TOWNNAME":"北區","LI":"三德里","LIN":"1鄰","STREET":"北華街","SECT":" ","MAREA":" ","LANE":"１７０巷","ALLEY":" ","HOUSE_NO":"４號之１２","E_COORD97":168549.85999999999,"N_COORD97":2544669.1000000001,"ADDRESS":"北華街１７０巷４號之１２","OBJECTID":276139},"geometry":{"x":168549.86000000034,"y":2544669.0999999996}},{"attributes":{"ID":276145,"DIS_CODE":0,"TOWNNAME":"歸仁區","LI":"歸南里","LIN":"1鄰","STREET":"民權南路","SECT":" ","MAREA":" ","LANE":"１９６巷","ALLEY":" ","HOUSE_NO":"６２號","E_COORD97":176886.06,"N_COORD97":2540286.5,"ADDRESS":"民權南路１９６巷６２號","OBJECTID":276140},"geometry":{"x":176886.05999999959,"y":2540286.5}},{"attributes":{"ID":276146,"DIS_CODE":0,"TOWNNAME":"歸仁區","LI":"歸南里","LIN":"1鄰","STREET":"民權南路","SECT":" ","MAREA":" ","LANE":"１９６巷","ALLEY":" ","HOUSE_NO":"１１號","E_COORD97":176915.06,"N_COORD97":2540349.5,"ADDRESS":"民權南路１９６巷１１號","OBJECTID":276141},"geometry":{"x":176915.05999999959,"y":2540349.5000000019}},{"attributes":{"ID":276147,"DIS_CODE":0,"TOWNNAME":"歸仁區","LI":"歸南里","LIN":"1鄰","STREET":"民權南路","SECT":" ","MAREA":" ","LANE":"１９６巷","ALLEY":" ","HOUSE_NO":"４２號","E_COORD97":176887.26000000001,"N_COORD97":2540324.5,"ADDRESS":"民權南路１９６巷４２號","OBJECTID":276142},"geometry":{"x":176887.26000000164,"y":2540324.5}},{"attributes":{"ID":276148,"DIS_CODE":0,"TOWNNAME":"歸仁區","LI":"崙頂里","LIN":"1鄰","STREET":"信義南路","SECT":" ","MAREA":" ","LANE":"２２１巷","ALLEY":" ","HOUSE_NO":"３０號","E_COORD97":178227.64999999999,"N_COORD97":2540032.6800000002,"ADDRESS":"信義南路２２１巷３０號","OBJECTID":276143},"geometry":{"x":178227.65000000037,"y":2540032.6800000016}},{"attributes":{"ID":276149,"DIS_CODE":0,"TOWNNAME":"歸仁區","LI":"南保里","LIN":"1鄰","STREET":"民權北路","SECT":" ","MAREA":" ","LANE":"２６７巷","ALLEY":" ","HOUSE_NO":"３號","E_COORD97":176995.84,"N_COORD97":2541496.29,"ADDRESS":"民權北路２６７巷３號","OBJECTID":276144},"geometry":{"x":176995.84000000078,"y":2541496.290000001}},{"attributes":{"ID":276150,"DIS_CODE":0,"TOWNNAME":"新營區","LI":"忠政里","LIN":"1鄰","STREET":"中正路","SECT":" ","MAREA":" ","LANE":"３１巷","ALLEY":" ","HOUSE_NO":"６４號","E_COORD97":180070.23000000001,"N_COORD97":2578965.5299999998,"ADDRESS":"中正路３１巷６４號","OBJECTID":276145},"geometry":{"x":180070.23000000138,"y":2578965.5300000012}},{"attributes":{"ID":276151,"DIS_CODE":0,"TOWNNAME":"南區","LI":"喜東里","LIN":"1鄰","STREET":"明興路","SECT":" ","MAREA":" ","LANE":"３２１巷","ALLEY":" ","HOUSE_NO":"１６號之５","E_COORD97":166794.35000000001,"N_COORD97":2538938.8999999999,"ADDRESS":"明興路３２１巷１６號之５","OBJECTID":276146},"geometry":{"x":166794.34999999963,"y":2538938.9000000004}},{"attributes":{"ID":276152,"DIS_CODE":0,"TOWNNAME":"新化區","LI":"豐榮里","LIN":"1鄰","STREET":"大智路","SECT":" ","MAREA":" ","LANE":"２８巷","ALLEY":" ","HOUSE_NO":"２號","E_COORD97":178285.38,"N_COORD97":2548406.25,"ADDRESS":"大智路２８巷２號","OBJECTID":276147},"geometry":{"x":178285.38000000082,"y":2548406.2500000037}},{"attributes":{"ID":276153,"DIS_CODE":0,"TOWNNAME":"東區","LI":"龍山里","LIN":"1鄰","STREET":"東門路","SECT":"二段","MAREA":" ","LANE":"３１２巷","ALLEY":" ","HOUSE_NO":"１號","E_COORD97":170619.98000000001,"N_COORD97":2542646.5,"ADDRESS":"東門路二段３１２巷１號","OBJECTID":276148},"geometry":{"x":170619.98000000138,"y":2542646.5}},{"attributes":{"ID":276154,"DIS_CODE":0,"TOWNNAME":"永康區","LI":"蔦松里","LIN":"1鄰","STREET":"蔦松二街","SECT":" ","MAREA":" ","LANE":"８７巷","ALLEY":" ","HOUSE_NO":"１４號","E_COORD97":173708.41,"N_COORD97":2549365.9900000002,"ADDRESS":"蔦松二街８７巷１４號","OBJECTID":276149},"geometry":{"x":173708.41000000108,"y":2549365.9900000021}},{"attributes":{"ID":276155,"DIS_CODE":0,"TOWNNAME":"安南區","LI":"州北里","LIN":"1鄰","STREET":"安和路","SECT":"五段","MAREA":" ","LANE":"８１巷","ALLEY":" ","HOUSE_NO":"５６號","E_COORD97":169771.79000000001,"N_COORD97":2551649.6200000001,"ADDRESS":"安和路五段８１巷５６號","OBJECTID":276150},"geometry":{"x":169771.79000000097,"y":2551649.6200000048}},{"attributes":{"ID":276156,"DIS_CODE":0,"TOWNNAME":"安南區","LI":"州北里","LIN":"1鄰","STREET":"安和路","SECT":"五段","MAREA":" ","LANE":"８１巷","ALLEY":" ","HOUSE_NO":"６０號","E_COORD97":169761.29999999999,"N_COORD97":2551644.8799999999,"ADDRESS":"安和路五段８１巷６０號","OBJECTID":276151},"geometry":{"x":169761.30000000075,"y":2551644.879999999}},{"attributes":{"ID":276157,"DIS_CODE":0,"TOWNNAME":"安南區","LI":"幸福里","LIN":"1鄰","STREET":"國安街","SECT":" ","MAREA":" ","LANE":"２７巷","ALLEY":" ","HOUSE_NO":"５號","E_COORD97":167086.45999999999,"N_COORD97":2546992.1699999999,"ADDRESS":"國安街２７巷５號","OBJECTID":276152},"geometry":{"x":167086.46000000089,"y":2546992.1699999999}},{"attributes":{"ID":276158,"DIS_CODE":0,"TOWNNAME":"安南區","LI":"幸福里","LIN":"1鄰","STREET":"國安街","SECT":" ","MAREA":" ","LANE":"９巷","ALLEY":" ","HOUSE_NO":"３號","E_COORD97":167129.98999999999,"N_COORD97":2547002.04,"ADDRESS":"國安街９巷３號","OBJECTID":276153},"geometry":{"x":167129.99000000022,"y":2547002.0399999991}},{"attributes":{"ID":276159,"DIS_CODE":0,"TOWNNAME":"安南區","LI":"長安里","LIN":"1鄰","STREET":"長溪路","SECT":"三段","MAREA":" ","LANE":"４０５巷","ALLEY":" ","HOUSE_NO":"１１號","E_COORD97":167621.35000000001,"N_COORD97":2552029.0099999998,"ADDRESS":"長溪路三段４０５巷１１號","OBJECTID":276154},"geometry":{"x":167621.35000000056,"y":2552029.0100000016}},{"attributes":{"ID":276160,"DIS_CODE":0,"TOWNNAME":"安南區","LI":"城北里","LIN":"1鄰","STREET":"安中路","SECT":"六段","MAREA":" ","LANE":"５７８巷","ALLEY":" ","HOUSE_NO":"２５號","E_COORD97":160901.16,"N_COORD97":2551464.1499999999,"ADDRESS":"安中路六段５７８巷２５號","OBJECTID":276155},"geometry":{"x":160901.16000000201,"y":2551464.1500000004}},{"attributes":{"ID":276161,"DIS_CODE":0,"TOWNNAME":"安南區","LI":"城南里","LIN":"1鄰","STREET":"城西街","SECT":"一段","MAREA":" ","LANE":"６１巷","ALLEY":" ","HOUSE_NO":"８號","E_COORD97":160713.04000000001,"N_COORD97":2551385.0699999998,"ADDRESS":"城西街一段６１巷８號","OBJECTID":276156},"geometry":{"x":160713.04000000004,"y":2551385.0700000022}},{"attributes":{"ID":276162,"DIS_CODE":0,"TOWNNAME":"新化區","LI":"山\u25A0里","LIN":"1鄰","STREET":" ","SECT":" ","MAREA":"頂山\u25A0","LANE":" ","ALLEY":" ","HOUSE_NO":"８１號","E_COORD97":179631.07999999999,"N_COORD97":2546495.25,"ADDRESS":"頂山\u25A0８１號","OBJECTID":276157},"geometry":{"x":179631.08000000007,"y":2546495.2500000019}},{"attributes":{"ID":276163,"DIS_CODE":0,"TOWNNAME":"新化區","LI":"唪口里","LIN":"8鄰","STREET":" ","SECT":" ","MAREA":"唪口","LANE":" ","ALLEY":" ","HOUSE_NO":"９１號之１","E_COORD97":177990.73000000001,"N_COORD97":2549166.2599999998,"ADDRESS":"唪口９１號之１","OBJECTID":276158},"geometry":{"x":177990.73000000138,"y":2549166.2600000016}},{"attributes":{"ID":276164,"DIS_CODE":0,"TOWNNAME":"安南區","LI":"原佃里","LIN":"1鄰","STREET":"本原街","SECT":"一段","MAREA":" ","LANE":"９７巷","ALLEY":" ","HOUSE_NO":"９２號","E_COORD97":167868.07000000001,"N_COORD97":2549974.96,"ADDRESS":"本原街一段９７巷９２號","OBJECTID":276159},"geometry":{"x":167868.07000000123,"y":2549974.9600000009}},{"attributes":{"ID":276165,"DIS_CODE":0,"TOWNNAME":"安南區","LI":"原佃里","LIN":"1鄰","STREET":"本原街","SECT":"一段","MAREA":" ","LANE":"９７巷","ALLEY":" ","HOUSE_NO":"１２０號","E_COORD97":167854.64000000001,"N_COORD97":2549860.8799999999,"ADDRESS":"本原街一段９７巷１２０號","OBJECTID":276160},"geometry":{"x":167854.6400000006,"y":2549860.879999999}},{"attributes":{"ID":276166,"DIS_CODE":0,"TOWNNAME":"安南區","LI":"原佃里","LIN":"1鄰","STREET":"本原街","SECT":"一段","MAREA":" ","LANE":"９７巷","ALLEY":" ","HOUSE_NO":"１２２號","E_COORD97":167854.31,"N_COORD97":2549856.3300000001,"ADDRESS":"本原街一段９７巷１２２號","OBJECTID":276161},"geometry":{"x":167854.30999999959,"y":2549856.3300000001}},{"attributes":{"ID":276167,"DIS_CODE":0,"TOWNNAME":"東區","LI":"大福里","LIN":"3鄰","STREET":"榮譽街","SECT":" ","MAREA":" ","LANE":" ","ALLEY":" ","HOUSE_NO":"４５號二樓之１","E_COORD97":169652.79999999999,"N_COORD97":2541662.0499999998,"ADDRESS":"榮譽街４５號二樓之１","OBJECTID":276162},"geometry":{"x":169652.80000000075,"y":2541662.0500000026}},{"attributes":{"ID":276168,"DIS_CODE":0,"TOWNNAME":"安南區","LI":"長安里","LIN":"1鄰","STREET":"長溪路","SECT":"三段","MAREA":" ","LANE":"４０５巷","ALLEY":" ","HOUSE_NO":"１號","E_COORD97":167638.70000000001,"N_COORD97":2552038.9100000001,"ADDRESS":"長溪路三段４０５巷１號","OBJECTID":276163},"geometry":{"x":167638.70000000019,"y":2552038.9100000001}},{"attributes":{"ID":276169,"DIS_CODE":0,"TOWNNAME":"安南區","LI":"長安里","LIN":"1鄰","STREET":"長溪路","SECT":"三段","MAREA":" ","LANE":"４０５巷","ALLEY":" ","HOUSE_NO":"３號","E_COORD97":167636.29999999999,"N_COORD97":2552036.02,"ADDRESS":"長溪路三段４０５巷３號","OBJECTID":276164},"geometry":{"x":167636.29999999888,"y":2552036.0200000014}},{"attributes":{"ID":276170,"DIS_CODE":0,"TOWNNAME":"南區","LI":"明亮里","LIN":"7鄰","STREET":"新都路","SECT":" ","MAREA":" ","LANE":"５０６巷","ALLEY":" ","HOUSE_NO":"３６號","E_COORD97":167190.60000000001,"N_COORD97":2540976.6000000001,"ADDRESS":"新都路５０６巷３６號","OBJECTID":276165},"geometry":{"x":167190.60000000056,"y":2540976.6000000015}},{"attributes":{"ID":276171,"DIS_CODE":0,"TOWNNAME":"永康區","LI":"中華里","LIN":"1鄰","STREET":"小東路","SECT":" ","MAREA":" ","LANE":"６８５巷","ALLEY":" ","HOUSE_NO":"６號之１７","E_COORD97":172052.26999999999,"N_COORD97":2544383.3599999999,"ADDRESS":"小東路６８５巷６號之１７","OBJECTID":276166},"geometry":{"x":172052.27000000142,"y":2544383.3599999994}},{"attributes":{"ID":276172,"DIS_CODE":0,"TOWNNAME":"永康區","LI":"中華里","LIN":"1鄰","STREET":"小東路","SECT":" ","MAREA":" ","LANE":"６８５巷","ALLEY":" ","HOUSE_NO":"８號之２５","E_COORD97":172049.89999999999,"N_COORD97":2544401.7400000002,"ADDRESS":"小東路６８５巷８號之２５","OBJECTID":276167},"geometry":{"x":172049.90000000037,"y":2544401.7400000002}},{"attributes":{"ID":276173,"DIS_CODE":0,"TOWNNAME":"永康區","LI":"中華里","LIN":"1鄰","STREET":"小東路","SECT":" ","MAREA":" ","LANE":"６８５巷","ALLEY":" ","HOUSE_NO":"８號之４","E_COORD97":172048.51999999999,"N_COORD97":2544401.7400000002,"ADDRESS":"小東路６８５巷８號之４","OBJECTID":276168},"geometry":{"x":172048.51999999955,"y":2544401.7400000002}},{"attributes":{"ID":276174,"DIS_CODE":0,"TOWNNAME":"永康區","LI":"中華里","LIN":"1鄰","STREET":"小東路","SECT":" ","MAREA":" ","LANE":"６８５巷","ALLEY":" ","HOUSE_NO":"６號之１８","E_COORD97":172052.34,"N_COORD97":2544383.3599999999,"ADDRESS":"小東路６８５巷６號之１８","OBJECTID":276169},"geometry":{"x":172052.34000000078,"y":2544383.3599999994}},{"attributes":{"ID":276175,"DIS_CODE":0,"TOWNNAME":"仁德區","LI":"上崙里","LIN":"1鄰","STREET":"德崙路","SECT":" ","MAREA":" ","LANE":"１６１巷","ALLEY":" ","HOUSE_NO":"１號","E_COORD97":173579.51000000001,"N_COORD97":2538387.7599999998,"ADDRESS":"德崙路１６１巷１號","OBJECTID":276170},"geometry":{"x":173579.50999999978,"y":2538387.7600000016}},{"attributes":{"ID":276176,"DIS_CODE":0,"TOWNNAME":"仁德區","LI":"仁義里","LIN":"1鄰","STREET":"義林路","SECT":" ","MAREA":" ","LANE":"１４５巷","ALLEY":" ","HOUSE_NO":"１０號","E_COORD97":174182.85000000001,"N_COORD97":2540649.77,"ADDRESS":"義林路１４５巷１０號","OBJECTID":276171},"geometry":{"x":174182.85000000056,"y":2540649.7700000014}},{"attributes":{"ID":276177,"DIS_CODE":0,"TOWNNAME":"仁德區","LI":"仁德里","LIN":"1鄰","STREET":"中正路","SECT":"二段","MAREA":" ","LANE":"６７９巷","ALLEY":" ","HOUSE_NO":"４７號","E_COORD97":173331.19,"N_COORD97":2540081.8100000001,"ADDRESS":"中正路二段６７９巷４７號","OBJECTID":276172},"geometry":{"x":173331.19000000041,"y":2540081.8100000005}},{"attributes":{"ID":276178,"DIS_CODE":0,"TOWNNAME":"東區","LI":"虎尾里","LIN":"1鄰","STREET":"東門路","SECT":"三段","MAREA":" ","LANE":"１４１巷","ALLEY":" ","HOUSE_NO":"２號","E_COORD97":171426.76999999999,"N_COORD97":2542083.9700000002,"ADDRESS":"東門路三段１４１巷２號","OBJECTID":276173},"geometry":{"x":171426.77000000142,"y":2542083.9700000025}},{"attributes":{"ID":276179,"DIS_CODE":0,"TOWNNAME":"歸仁區","LI":"西埔里","LIN":"15鄰","STREET":"西埔二街","SECT":" ","MAREA":" ","LANE":"７０巷","ALLEY":" ","HOUSE_NO":"３４號","E_COORD97":176909.98999999999,"N_COORD97":2544867.3700000001,"ADDRESS":"西埔二街７０巷３４號","OBJECTID":276174},"geometry":{"x":176909.99000000209,"y":2544867.3700000029}},{"attributes":{"ID":276180,"DIS_CODE":0,"TOWNNAME":"東區","LI":"東明里","LIN":"1鄰","STREET":"東興路","SECT":" ","MAREA":" ","LANE":"１１巷","ALLEY":" ","HOUSE_NO":"２號","E_COORD97":170892.24842300001,"N_COORD97":2543432.9954300001,"ADDRESS":"東興路１１巷２號","OBJECTID":276175},"geometry":{"x":170892.24842299987,"y":2543432.9954269994}},{"attributes":{"ID":276181,"DIS_CODE":0,"TOWNNAME":"東區","LI":"崇德里","LIN":"1鄰","STREET":"崇善路","SECT":" ","MAREA":" ","LANE":"２３２巷","ALLEY":" ","HOUSE_NO":"１９號","E_COORD97":170734.48999999999,"N_COORD97":2541962.1499999999,"ADDRESS":"崇善路２３２巷１９號","OBJECTID":276176},"geometry":{"x":170734.49000000209,"y":2541962.1500000041}},{"attributes":{"ID":276182,"DIS_CODE":0,"TOWNNAME":"東區","LI":"崇德里","LIN":"1鄰","STREET":"崇善路","SECT":" ","MAREA":" ","LANE":"２３２巷","ALLEY":" ","HOUSE_NO":"１９號之１","E_COORD97":170731.67999999999,"N_COORD97":2541958.6499999999,"ADDRESS":"崇善路２３２巷１９號之１","OBJECTID":276177},"geometry":{"x":170731.6799999997,"y":2541958.6499999985}},{"attributes":{"ID":276183,"DIS_CODE":0,"TOWNNAME":"東區","LI":"崇德里","LIN":"1鄰","STREET":"崇善路","SECT":" ","MAREA":" ","LANE":"２３２巷","ALLEY":" ","HOUSE_NO":"１９號之２","E_COORD97":170729.57999999999,"N_COORD97":2541955.8399999999,"ADDRESS":"崇善路２３２巷１９號之２","OBJECTID":276178},"geometry":{"x":170729.58000000007,"y":2541955.8399999999}},{"attributes":{"ID":276184,"DIS_CODE":0,"TOWNNAME":"新化區","LI":"唪口里","LIN":"8鄰","STREET":" ","SECT":" ","MAREA":"唪口","LANE":" ","ALLEY":" ","HOUSE_NO":"８９號","E_COORD97":177980.39999999999,"N_COORD97":2549130.25,"ADDRESS":"唪口８９號","OBJECTID":276179},"geometry":{"x":177980.40000000224,"y":2549130.25}},{"attributes":{"ID":276185,"DIS_CODE":0,"TOWNNAME":"永康區","LI":"\u25A0行里","LIN":"3鄰","STREET":"中正七街","SECT":" ","MAREA":" ","LANE":" ","ALLEY":" ","HOUSE_NO":"１７號五樓之５","E_COORD97":172044.45000000001,"N_COORD97":2548879.54,"ADDRESS":"中正七街１７號五樓之５","OBJECTID":276180},"geometry":{"x":172044.45000000019,"y":2548879.540000001}},{"attributes":{"ID":276186,"DIS_CODE":0,"TOWNNAME":"東區","LI":"崇德里","LIN":"1鄰","STREET":"崇善路","SECT":" ","MAREA":" ","LANE":"２３２巷","ALLEY":" ","HOUSE_NO":"１９號之３","E_COORD97":170727.75,"N_COORD97":2541951.6299999999,"ADDRESS":"崇善路２３２巷１９號之３","OBJECTID":276181},"geometry":{"x":170727.75000000093,"y":2541951.6300000008}},{"attributes":{"ID":276187,"DIS_CODE":0,"TOWNNAME":"東區","LI":"崇德里","LIN":"1鄰","STREET":"崇善路","SECT":" ","MAREA":" ","LANE":"２３２巷","ALLEY":" ","HOUSE_NO":"１９號之４","E_COORD97":170723.95999999999,"N_COORD97":2541948.8199999998,"ADDRESS":"崇善路２３２巷１９號之４","OBJECTID":276182},"geometry":{"x":170723.95999999996,"y":2541948.8200000022}},{"attributes":{"ID":276188,"DIS_CODE":0,"TOWNNAME":"東區","LI":"崇德里","LIN":"1鄰","STREET":"崇善路","SECT":" ","MAREA":" ","LANE":"２３２巷","ALLEY":" ","HOUSE_NO":"１９號之５","E_COORD97":170722.54999999999,"N_COORD97":2541945.04,"ADDRESS":"崇善路２３２巷１９號之５","OBJECTID":276183},"geometry":{"x":170722.54999999981,"y":2541945.040000001}},{"attributes":{"ID":276189,"DIS_CODE":0,"TOWNNAME":"東區","LI":"崇德里","LIN":"1鄰","STREET":"崇善路","SECT":" ","MAREA":" ","LANE":"２３２巷","ALLEY":" ","HOUSE_NO":"２１號","E_COORD97":170712.44,"N_COORD97":2541940.4100000001,"ADDRESS":"崇善路２３２巷２１號","OBJECTID":276184},"geometry":{"x":170712.44000000041,"y":2541940.410000002}},{"attributes":{"ID":276190,"DIS_CODE":0,"TOWNNAME":"東區","LI":"崇德里","LIN":"1鄰","STREET":"崇善路","SECT":" ","MAREA":" ","LANE":"２３２巷","ALLEY":" ","HOUSE_NO":"２５號","E_COORD97":170699.66,"N_COORD97":2541922.5899999999,"ADDRESS":"崇善路２３２巷２５號","OBJECTID":276185},"geometry":{"x":170699.66000000108,"y":2541922.5900000017}},{"attributes":{"ID":276191,"DIS_CODE":0,"TOWNNAME":"東區","LI":"崇德里","LIN":"1鄰","STREET":"崇善路","SECT":" ","MAREA":" ","LANE":"２３２巷","ALLEY":" ","HOUSE_NO":"２７號","E_COORD97":170696.14999999999,"N_COORD97":2541920.2000000002,"ADDRESS":"崇善路２３２巷２７號","OBJECTID":276186},"geometry":{"x":170696.15000000224,"y":2541920.200000003}},{"attributes":{"ID":276192,"DIS_CODE":0,"TOWNNAME":"新化區","LI":"\u25A0拔里","LIN":"11鄰","STREET":" ","SECT":" ","MAREA":"牧場","LANE":" ","ALLEY":" ","HOUSE_NO":"１０８號","E_COORD97":182080.28,"N_COORD97":2551118.25,"ADDRESS":"牧場１０８號","OBJECTID":276187},"geometry":{"x":182080.28000000119,"y":2551118.25}},{"attributes":{"ID":276193,"DIS_CODE":0,"TOWNNAME":"東區","LI":"崇德里","LIN":"1鄰","STREET":"崇善路","SECT":" ","MAREA":" ","LANE":"２３２巷","ALLEY":" ","HOUSE_NO":"２９號","E_COORD97":170693.76999999999,"N_COORD97":2541917.1200000001,"ADDRESS":"崇善路２３２巷２９號","OBJECTID":276188},"geometry":{"x":170693.76999999955,"y":2541917.1200000029}},{"attributes":{"ID":276194,"DIS_CODE":0,"TOWNNAME":"歸仁區","LI":"大廟里","LIN":"5鄰","STREET":"和順路","SECT":"二段","MAREA":" ","LANE":"１５１巷","ALLEY":" ","HOUSE_NO":"２０號","E_COORD97":176150.75,"N_COORD97":2543549.98,"ADDRESS":"和順路二段１５１巷２０號","OBJECTID":276189},"geometry":{"x":176150.75000000093,"y":2543549.9799999986}},{"attributes":{"ID":276195,"DIS_CODE":0,"TOWNNAME":"歸仁區","LI":"西埔里","LIN":"5鄰","STREET":"保大路","SECT":"二段","MAREA":" ","LANE":"１７０巷","ALLEY":" ","HOUSE_NO":"８２號","E_COORD97":177010.82000000001,"N_COORD97":2544263.2799999998,"ADDRESS":"保大路二段１７０巷８２號","OBJECTID":276190},"geometry":{"x":177010.8200000003,"y":2544263.2800000012}},{"attributes":{"ID":276196,"DIS_CODE":0,"TOWNNAME":"新化區","LI":"大坑里","LIN":"11鄰","STREET":" ","SECT":" ","MAREA":"大坑尾","LANE":" ","ALLEY":" ","HOUSE_NO":"７號","E_COORD97":184513.13,"N_COORD97":2546105.25,"ADDRESS":"大坑尾７號","OBJECTID":276191},"geometry":{"x":184513.12999999896,"y":2546105.2500000019}},{"attributes":{"ID":276197,"DIS_CODE":0,"TOWNNAME":"安南區","LI":"國安里","LIN":"1鄰","STREET":"國安街","SECT":" ","MAREA":" ","LANE":"１５６巷","ALLEY":" ","HOUSE_NO":"１９號","E_COORD97":166711.84,"N_COORD97":2547027.1800000002,"ADDRESS":"國安街１５６巷１９號","OBJECTID":276192},"geometry":{"x":166711.83999999985,"y":2547027.1800000016}},{"attributes":{"ID":276198,"DIS_CODE":0,"TOWNNAME":"安南區","LI":"國安里","LIN":"1鄰","STREET":"國安街","SECT":" ","MAREA":" ","LANE":"１５６巷","ALLEY":" ","HOUSE_NO":"２１號","E_COORD97":166711.07999999999,"N_COORD97":2547031.2799999998,"ADDRESS":"國安街１５６巷２１號","OBJECTID":276193},"geometry":{"x":166711.08000000101,"y":2547031.2799999993}},{"attributes":{"ID":276199,"DIS_CODE":0,"TOWNNAME":"安南區","LI":"幸福里","LIN":"1鄰","STREET":"國安街","SECT":" ","MAREA":" ","LANE":"９巷","ALLEY":" ","HOUSE_NO":"１４號","E_COORD97":167112.39999999999,"N_COORD97":2546974.7599999998,"ADDRESS":"國安街９巷１４號","OBJECTID":276194},"geometry":{"x":167112.39999999944,"y":2546974.7599999998}},{"attributes":{"ID":276200,"DIS_CODE":0,"TOWNNAME":"安南區","LI":"幸福里","LIN":"1鄰","STREET":"國安街","SECT":" ","MAREA":" ","LANE":"９巷","ALLEY":" ","HOUSE_NO":"２號","E_COORD97":167106.39000000001,"N_COORD97":2547003.9700000002,"ADDRESS":"國安街９巷２號","OBJECTID":276195},"geometry":{"x":167106.38999999966,"y":2547003.9700000007}},{"attributes":{"ID":276201,"DIS_CODE":0,"TOWNNAME":"安南區","LI":"幸福里","LIN":"1鄰","STREET":"國安街","SECT":" ","MAREA":" ","LANE":"２７巷","ALLEY":" ","HOUSE_NO":"１１號","E_COORD97":167088.85999999999,"N_COORD97":2546979.6000000001,"ADDRESS":"國安街２７巷１１號","OBJECTID":276196},"geometry":{"x":167088.86000000034,"y":2546979.6000000034}},{"attributes":{"ID":276202,"DIS_CODE":0,"TOWNNAME":"安南區","LI":"幸福里","LIN":"1鄰","STREET":"國安街","SECT":" ","MAREA":" ","LANE":"２７巷","ALLEY":" ","HOUSE_NO":"１３號","E_COORD97":167088.85999999999,"N_COORD97":2546975.2599999998,"ADDRESS":"國安街２７巷１３號","OBJECTID":276197},"geometry":{"x":167088.86000000034,"y":2546975.2600000035}},{"attributes":{"ID":276203,"DIS_CODE":0,"TOWNNAME":"安南區","LI":"幸福里","LIN":"1鄰","STREET":"國安街","SECT":" ","MAREA":" ","LANE":"２７巷","ALLEY":" ","HOUSE_NO":"１號","E_COORD97":167084.85999999999,"N_COORD97":2547001.0800000001,"ADDRESS":"國安街２７巷１號","OBJECTID":276198},"geometry":{"x":167084.86000000034,"y":2547001.0800000019}},{"attributes":{"ID":276204,"DIS_CODE":0,"TOWNNAME":"東區","LI":"東明里","LIN":"3鄰","STREET":"怡東路","SECT":" ","MAREA":" ","LANE":" ","ALLEY":" ","HOUSE_NO":"６４號二樓","E_COORD97":170854.67999999999,"N_COORD97":2543609.8900000001,"ADDRESS":"怡東路６４號二樓","OBJECTID":276199},"geometry":{"x":170854.68000000156,"y":2543609.8900000025}},{"attributes":{"ID":276205,"DIS_CODE":0,"TOWNNAME":"新化區","LI":"太平里","LIN":"14鄰","STREET":"太平街","SECT":" ","MAREA":" ","LANE":" ","ALLEY":" ","HOUSE_NO":"６８號","E_COORD97":178710.17000000001,"N_COORD97":2548769.25,"ADDRESS":"太平街６８號","OBJECTID":276200},"geometry":{"x":178710.16999999993,"y":2548769.2500000037}}]}