{"displayFieldName":"TOWNNAME","fieldAliases":{"ID":"ID","DIS_CODE":"DIS_CODE","TOWNNAME":"TOWNNAME","LI":"LI","LIN":"LIN","STREET":"STREET","SECT":"SECT","MAREA":"MAREA","LANE":"LANE","ALLEY":"ALLEY","HOUSE_NO":"HOUSE_NO","E_COORD97":"E_COORD97","N_COORD97":"N_COORD97","ADDRESS":"ADDRESS","OBJECTID":"OBJECTID"},"geometryType":"esriGeometryPoint","spatialReference":{"wkid":102443,"latestWkid":3826},"fields":[{"name":"ID","type":"esriFieldTypeDouble","alias":"ID"},{"name":"DIS_CODE","type":"esriFieldTypeInteger","alias":"DIS_CODE"},{"name":"TOWNNAME","type":"esriFieldTypeString","alias":"TOWNNAME","length":8},{"name":"LI","type":"esriFieldTypeString","alias":"LI","length":8},{"name":"LIN","type":"esriFieldTypeString","alias":"LIN","length":12},{"name":"STREET","type":"esriFieldTypeString","alias":"STREET","length":20},{"name":"SECT","type":"esriFieldTypeString","alias":"SECT","length":8},{"name":"MAREA","type":"esriFieldTypeString","alias":"MAREA","length":12},{"name":"LANE","type":"esriFieldTypeString","alias":"LANE","length":10},{"name":"ALLEY","type":"esriFieldTypeString","alias":"ALLEY","length":10},{"name":"HOUSE_NO","type":"esriFieldTypeString","alias":"HOUSE_NO","length":20},{"name":"E_COORD97","type":"esriFieldTypeDouble","alias":"E_COORD97"},{"name":"N_COORD97","type":"esriFieldTypeDouble","alias":"N_COORD97"},{"name":"ADDRESS","type":"esriFieldTypeString","alias":"ADDRESS","length":50},{"name":"OBJECTID","type":"esriFieldTypeOID","alias":"OBJECTID"}],"features":[{"attributes":{"ID":582828,"DIS_CODE":0,"TOWNNAME":"永康區","LI":"龍潭里","LIN":"16鄰","STREET":"龍橋街","SECT":" ","MAREA":" ","LANE":" ","ALLEY":" ","HOUSE_NO":"３０號","E_COORD97":174855.53,"N_COORD97":2548342.6299999999,"ADDRESS":"龍橋街３０號","OBJECTID":582801},"geometry":{"x":174855.53000000119,"y":2548342.6300000008}},{"attributes":{"ID":582829,"DIS_CODE":0,"TOWNNAME":"永康區","LI":"\u25A0行里","LIN":"16鄰","STREET":"中正六街","SECT":" ","MAREA":" ","LANE":" ","ALLEY":" ","HOUSE_NO":"２０６號七樓","E_COORD97":171875.89000000001,"N_COORD97":2548839.3700000001,"ADDRESS":"中正六街２０６號七樓","OBJECTID":582802},"geometry":{"x":171875.8900000006,"y":2548839.370000001}},{"attributes":{"ID":582830,"DIS_CODE":0,"TOWNNAME":"永康區","LI":"\u25A0行里","LIN":"16鄰","STREET":"中正六街","SECT":" ","MAREA":" ","LANE":" ","ALLEY":" ","HOUSE_NO":"２０８號六樓","E_COORD97":171878.98999999999,"N_COORD97":2548843.1200000001,"ADDRESS":"中正六街２０８號六樓","OBJECTID":582803},"geometry":{"x":171878.99000000115,"y":2548843.1200000029}},{"attributes":{"ID":582831,"DIS_CODE":0,"TOWNNAME":"永康區","LI":"勝利里","LIN":"18鄰","STREET":"勝學路","SECT":" ","MAREA":" ","LANE":" ","ALLEY":" ","HOUSE_NO":"１４８號","E_COORD97":171188.60999999999,"N_COORD97":2545026.5,"ADDRESS":"勝學路１４８號","OBJECTID":582804},"geometry":{"x":171188.61000000127,"y":2545026.5}},{"attributes":{"ID":582832,"DIS_CODE":0,"TOWNNAME":"永康區","LI":"復國里","LIN":"17鄰","STREET":"國華街","SECT":" ","MAREA":" ","LANE":" ","ALLEY":" ","HOUSE_NO":"１６號","E_COORD97":172841.45999999999,"N_COORD97":2545608.5600000001,"ADDRESS":"國華街１６號","OBJECTID":582805},"geometry":{"x":172841.46000000183,"y":2545608.5600000024}},{"attributes":{"ID":582833,"DIS_CODE":0,"TOWNNAME":"永康區","LI":"中華里","LIN":"16鄰","STREET":"小東路","SECT":" ","MAREA":" ","LANE":" ","ALLEY":" ","HOUSE_NO":"５０９號十樓之１","E_COORD97":171649.45999999999,"N_COORD97":2544340.7999999998,"ADDRESS":"小東路５０９號十樓之１","OBJECTID":582806},"geometry":{"x":171649.45999999996,"y":2544340.8000000007}},{"attributes":{"ID":582834,"DIS_CODE":0,"TOWNNAME":"永康區","LI":"\u25A0行里","LIN":"16鄰","STREET":"中正六街","SECT":" ","MAREA":" ","LANE":" ","ALLEY":" ","HOUSE_NO":"２１８號四樓","E_COORD97":171890.57999999999,"N_COORD97":2548856.8700000001,"ADDRESS":"中正六街２１８號四樓","OBJECTID":582807},"geometry":{"x":171890.58000000007,"y":2548856.870000001}},{"attributes":{"ID":582835,"DIS_CODE":0,"TOWNNAME":"永康區","LI":"\u25A0行里","LIN":"16鄰","STREET":"中正六街","SECT":" ","MAREA":" ","LANE":" ","ALLEY":" ","HOUSE_NO":"２１６號四樓","E_COORD97":171887.69,"N_COORD97":2548853.3700000001,"ADDRESS":"中正六街２１６號四樓","OBJECTID":582808},"geometry":{"x":171887.69000000227,"y":2548853.370000001}},{"attributes":{"ID":582836,"DIS_CODE":0,"TOWNNAME":"永康區","LI":"\u25A0行里","LIN":"16鄰","STREET":"中正六街","SECT":" ","MAREA":" ","LANE":" ","ALLEY":" ","HOUSE_NO":"２１０號三樓","E_COORD97":171882.23999999999,"N_COORD97":2548846.8700000001,"ADDRESS":"中正六街２１０號三樓","OBJECTID":582809},"geometry":{"x":171882.24000000115,"y":2548846.870000001}},{"attributes":{"ID":582837,"DIS_CODE":0,"TOWNNAME":"永康區","LI":"\u25A0行里","LIN":"16鄰","STREET":"中正六街","SECT":" ","MAREA":" ","LANE":" ","ALLEY":" ","HOUSE_NO":"２１６號五樓","E_COORD97":171887.69,"N_COORD97":2548853.3700000001,"ADDRESS":"中正六街２１６號五樓","OBJECTID":582810},"geometry":{"x":171887.69000000227,"y":2548853.370000001}},{"attributes":{"ID":582838,"DIS_CODE":0,"TOWNNAME":"永康區","LI":"\u25A0行里","LIN":"16鄰","STREET":"中正六街","SECT":" ","MAREA":" ","LANE":" ","ALLEY":" ","HOUSE_NO":"２１８號三樓","E_COORD97":171890.57999999999,"N_COORD97":2548856.8700000001,"ADDRESS":"中正六街２１８號三樓","OBJECTID":582811},"geometry":{"x":171890.58000000007,"y":2548856.870000001}},{"attributes":{"ID":582839,"DIS_CODE":0,"TOWNNAME":"永康區","LI":"\u25A0行里","LIN":"16鄰","STREET":"中正六街","SECT":" ","MAREA":" ","LANE":" ","ALLEY":" ","HOUSE_NO":"２０６號四樓","E_COORD97":171875.89000000001,"N_COORD97":2548839.3700000001,"ADDRESS":"中正六街２０６號四樓","OBJECTID":582812},"geometry":{"x":171875.8900000006,"y":2548839.370000001}},{"attributes":{"ID":582840,"DIS_CODE":0,"TOWNNAME":"永康區","LI":"\u25A0行里","LIN":"16鄰","STREET":"中正六街","SECT":" ","MAREA":" ","LANE":" ","ALLEY":" ","HOUSE_NO":"２０６號五樓","E_COORD97":171875.89000000001,"N_COORD97":2548839.3700000001,"ADDRESS":"中正六街２０６號五樓","OBJECTID":582813},"geometry":{"x":171875.8900000006,"y":2548839.370000001}},{"attributes":{"ID":582841,"DIS_CODE":0,"TOWNNAME":"永康區","LI":"\u25A0行里","LIN":"16鄰","STREET":"中正六街","SECT":" ","MAREA":" ","LANE":" ","ALLEY":" ","HOUSE_NO":"２０６號三樓","E_COORD97":171875.89000000001,"N_COORD97":2548839.3700000001,"ADDRESS":"中正六街２０６號三樓","OBJECTID":582814},"geometry":{"x":171875.8900000006,"y":2548839.370000001}},{"attributes":{"ID":582842,"DIS_CODE":0,"TOWNNAME":"永康區","LI":"\u25A0行里","LIN":"16鄰","STREET":"中正六街","SECT":" ","MAREA":" ","LANE":" ","ALLEY":" ","HOUSE_NO":"２０８號三樓","E_COORD97":171878.98999999999,"N_COORD97":2548843.1200000001,"ADDRESS":"中正六街２０８號三樓","OBJECTID":582815},"geometry":{"x":171878.99000000115,"y":2548843.1200000029}},{"attributes":{"ID":582843,"DIS_CODE":0,"TOWNNAME":"永康區","LI":"中華里","LIN":"16鄰","STREET":"小東路","SECT":" ","MAREA":" ","LANE":" ","ALLEY":" ","HOUSE_NO":"５０９號十樓之１１","E_COORD97":171650.70999999999,"N_COORD97":2544340.7999999998,"ADDRESS":"小東路５０９號十樓之１１","OBJECTID":582816},"geometry":{"x":171650.70999999996,"y":2544340.8000000007}},{"attributes":{"ID":582844,"DIS_CODE":0,"TOWNNAME":"永康區","LI":"中華里","LIN":"16鄰","STREET":"小東路","SECT":" ","MAREA":" ","LANE":" ","ALLEY":" ","HOUSE_NO":"５０９號八樓之１０","E_COORD97":171650.76000000001,"N_COORD97":2544340.7999999998,"ADDRESS":"小東路５０９號八樓之１０","OBJECTID":582817},"geometry":{"x":171650.75999999885,"y":2544340.8000000007}},{"attributes":{"ID":582845,"DIS_CODE":0,"TOWNNAME":"永康區","LI":"中華里","LIN":"16鄰","STREET":"小東路","SECT":" ","MAREA":" ","LANE":" ","ALLEY":" ","HOUSE_NO":"５０９號十二樓之１０","E_COORD97":171652.01000000001,"N_COORD97":2544340.7999999998,"ADDRESS":"小東路５０９號十二樓之１０","OBJECTID":582818},"geometry":{"x":171652.00999999978,"y":2544340.8000000007}},{"attributes":{"ID":582846,"DIS_CODE":0,"TOWNNAME":"永康區","LI":"中華里","LIN":"16鄰","STREET":"小東路","SECT":" ","MAREA":" ","LANE":" ","ALLEY":" ","HOUSE_NO":"５０９號十二樓之１３","E_COORD97":171652.06,"N_COORD97":2544340.7999999998,"ADDRESS":"小東路５０９號十二樓之１３","OBJECTID":582819},"geometry":{"x":171652.06000000145,"y":2544340.8000000007}},{"attributes":{"ID":582847,"DIS_CODE":0,"TOWNNAME":"永康區","LI":"中華里","LIN":"16鄰","STREET":"小東路","SECT":" ","MAREA":" ","LANE":" ","ALLEY":" ","HOUSE_NO":"５０９號九樓之１１","E_COORD97":171650.70999999999,"N_COORD97":2544340.7999999998,"ADDRESS":"小東路５０９號九樓之１１","OBJECTID":582820},"geometry":{"x":171650.70999999996,"y":2544340.8000000007}},{"attributes":{"ID":582848,"DIS_CODE":0,"TOWNNAME":"永康區","LI":"中華里","LIN":"16鄰","STREET":"小東路","SECT":" ","MAREA":" ","LANE":" ","ALLEY":" ","HOUSE_NO":"５０９號十一樓之１","E_COORD97":171650.70999999999,"N_COORD97":2544340.7999999998,"ADDRESS":"小東路５０９號十一樓之１","OBJECTID":582821},"geometry":{"x":171650.70999999996,"y":2544340.8000000007}},{"attributes":{"ID":582849,"DIS_CODE":0,"TOWNNAME":"永康區","LI":"中華里","LIN":"16鄰","STREET":"小東路","SECT":" ","MAREA":" ","LANE":" ","ALLEY":" ","HOUSE_NO":"５０９號十二樓之１１","E_COORD97":171651.95999999999,"N_COORD97":2544340.7999999998,"ADDRESS":"小東路５０９號十二樓之１１","OBJECTID":582822},"geometry":{"x":171651.96000000089,"y":2544340.8000000007}},{"attributes":{"ID":582850,"DIS_CODE":0,"TOWNNAME":"永康區","LI":"勝利里","LIN":"33鄰","STREET":"中華路","SECT":" ","MAREA":" ","LANE":" ","ALLEY":" ","HOUSE_NO":"１號之６２","E_COORD97":171501.98999999999,"N_COORD97":2544353.0499999998,"ADDRESS":"中華路１號之６２","OBJECTID":582823},"geometry":{"x":171501.99000000022,"y":2544353.0500000007}},{"attributes":{"ID":582851,"DIS_CODE":0,"TOWNNAME":"永康區","LI":"中華里","LIN":"16鄰","STREET":"小東路","SECT":" ","MAREA":" ","LANE":" ","ALLEY":" ","HOUSE_NO":"５０９號十三樓之２","E_COORD97":171650.85000000001,"N_COORD97":2544340.7999999998,"ADDRESS":"小東路５０９號十三樓之２","OBJECTID":582824},"geometry":{"x":171650.85000000056,"y":2544340.8000000007}},{"attributes":{"ID":582852,"DIS_CODE":0,"TOWNNAME":"永康區","LI":"中華里","LIN":"16鄰","STREET":"小東路","SECT":" ","MAREA":" ","LANE":" ","ALLEY":" ","HOUSE_NO":"５０９號九樓之１","E_COORD97":171649.45999999999,"N_COORD97":2544340.7999999998,"ADDRESS":"小東路５０９號九樓之１","OBJECTID":582825},"geometry":{"x":171649.45999999996,"y":2544340.8000000007}},{"attributes":{"ID":582853,"DIS_CODE":0,"TOWNNAME":"永康區","LI":"中華里","LIN":"16鄰","STREET":"小東路","SECT":" ","MAREA":" ","LANE":" ","ALLEY":" ","HOUSE_NO":"５０９號十一樓之５","E_COORD97":171650.87,"N_COORD97":2544340.7999999998,"ADDRESS":"小東路５０９號十一樓之５","OBJECTID":582826},"geometry":{"x":171650.87000000104,"y":2544340.8000000007}},{"attributes":{"ID":582854,"DIS_CODE":0,"TOWNNAME":"永康區","LI":"中華里","LIN":"16鄰","STREET":"小東路","SECT":" ","MAREA":" ","LANE":" ","ALLEY":" ","HOUSE_NO":"５０９號七樓之６","E_COORD97":171649.57000000001,"N_COORD97":2544340.7999999998,"ADDRESS":"小東路５０９號七樓之６","OBJECTID":582827},"geometry":{"x":171649.57000000123,"y":2544340.8000000007}},{"attributes":{"ID":582855,"DIS_CODE":0,"TOWNNAME":"永康區","LI":"中華里","LIN":"16鄰","STREET":"小東路","SECT":" ","MAREA":" ","LANE":" ","ALLEY":" ","HOUSE_NO":"５０９號九樓之６","E_COORD97":171649.57000000001,"N_COORD97":2544340.7999999998,"ADDRESS":"小東路５０９號九樓之６","OBJECTID":582828},"geometry":{"x":171649.57000000123,"y":2544340.8000000007}},{"attributes":{"ID":582856,"DIS_CODE":0,"TOWNNAME":"永康區","LI":"中華里","LIN":"16鄰","STREET":"小東路","SECT":" ","MAREA":" ","LANE":" ","ALLEY":" ","HOUSE_NO":"５０９號九樓之８","E_COORD97":171649.60999999999,"N_COORD97":2544340.7999999998,"ADDRESS":"小東路５０９號九樓之８","OBJECTID":582829},"geometry":{"x":171649.61000000127,"y":2544340.8000000007}},{"attributes":{"ID":582857,"DIS_CODE":0,"TOWNNAME":"永康區","LI":"中華里","LIN":"16鄰","STREET":"小東路","SECT":" ","MAREA":" ","LANE":" ","ALLEY":" ","HOUSE_NO":"５０９號十三樓之３","E_COORD97":171650.81,"N_COORD97":2544340.7999999998,"ADDRESS":"小東路５０９號十三樓之３","OBJECTID":582830},"geometry":{"x":171650.81000000052,"y":2544340.8000000007}},{"attributes":{"ID":582858,"DIS_CODE":0,"TOWNNAME":"永康區","LI":"中華里","LIN":"16鄰","STREET":"小東路","SECT":" ","MAREA":" ","LANE":" ","ALLEY":" ","HOUSE_NO":"５０９號十三樓之１２","E_COORD97":171652.10000000001,"N_COORD97":2544340.7999999998,"ADDRESS":"小東路５０９號十三樓之１２","OBJECTID":582831},"geometry":{"x":171652.10000000056,"y":2544340.8000000007}},{"attributes":{"ID":582859,"DIS_CODE":0,"TOWNNAME":"永康區","LI":"中華里","LIN":"16鄰","STREET":"小東路","SECT":" ","MAREA":" ","LANE":" ","ALLEY":" ","HOUSE_NO":"５０９號九樓之１３","E_COORD97":171650.81,"N_COORD97":2544340.7999999998,"ADDRESS":"小東路５０９號九樓之１３","OBJECTID":582832},"geometry":{"x":171650.81000000052,"y":2544340.8000000007}},{"attributes":{"ID":582860,"DIS_CODE":0,"TOWNNAME":"永康區","LI":"中華里","LIN":"16鄰","STREET":"小東路","SECT":" ","MAREA":" ","LANE":" ","ALLEY":" ","HOUSE_NO":"５０９號七樓之５","E_COORD97":171649.62,"N_COORD97":2544340.7999999998,"ADDRESS":"小東路５０９號七樓之５","OBJECTID":582833},"geometry":{"x":171649.62000000011,"y":2544340.8000000007}},{"attributes":{"ID":582861,"DIS_CODE":0,"TOWNNAME":"仁德區","LI":"仁德里","LIN":"16鄰","STREET":"中山路","SECT":" ","MAREA":" ","LANE":" ","ALLEY":" ","HOUSE_NO":"６７３號","E_COORD97":173133.01000000001,"N_COORD97":2541351.75,"ADDRESS":"中山路６７３號","OBJECTID":582834},"geometry":{"x":173133.01000000071,"y":2541351.7500000019}},{"attributes":{"ID":582862,"DIS_CODE":0,"TOWNNAME":"永康區","LI":"中華里","LIN":"16鄰","STREET":"小東路","SECT":" ","MAREA":" ","LANE":" ","ALLEY":" ","HOUSE_NO":"５０９號十一樓之８","E_COORD97":171650.85999999999,"N_COORD97":2544340.7999999998,"ADDRESS":"小東路５０９號十一樓之８","OBJECTID":582835},"geometry":{"x":171650.8600000022,"y":2544340.8000000007}},{"attributes":{"ID":582863,"DIS_CODE":0,"TOWNNAME":"永康區","LI":"中華里","LIN":"16鄰","STREET":"小東路","SECT":" ","MAREA":" ","LANE":" ","ALLEY":" ","HOUSE_NO":"５０９號十一樓之２","E_COORD97":171650.85000000001,"N_COORD97":2544340.7999999998,"ADDRESS":"小東路５０９號十一樓之２","OBJECTID":582836},"geometry":{"x":171650.85000000056,"y":2544340.8000000007}},{"attributes":{"ID":582864,"DIS_CODE":0,"TOWNNAME":"永康區","LI":"中華里","LIN":"16鄰","STREET":"小東路","SECT":" ","MAREA":" ","LANE":" ","ALLEY":" ","HOUSE_NO":"５０９號十樓之９","E_COORD97":171649.54999999999,"N_COORD97":2544340.7999999998,"ADDRESS":"小東路５０９號十樓之９","OBJECTID":582837},"geometry":{"x":171649.55000000075,"y":2544340.8000000007}},{"attributes":{"ID":582865,"DIS_CODE":0,"TOWNNAME":"永康區","LI":"中華里","LIN":"16鄰","STREET":"小東路","SECT":" ","MAREA":" ","LANE":" ","ALLEY":" ","HOUSE_NO":"５０９號八樓之９","E_COORD97":171649.54999999999,"N_COORD97":2544340.7999999998,"ADDRESS":"小東路５０９號八樓之９","OBJECTID":582838},"geometry":{"x":171649.55000000075,"y":2544340.8000000007}},{"attributes":{"ID":582866,"DIS_CODE":0,"TOWNNAME":"永康區","LI":"中華里","LIN":"16鄰","STREET":"小東路","SECT":" ","MAREA":" ","LANE":" ","ALLEY":" ","HOUSE_NO":"５０９號十二樓之２","E_COORD97":171650.85000000001,"N_COORD97":2544340.7999999998,"ADDRESS":"小東路５０９號十二樓之２","OBJECTID":582839},"geometry":{"x":171650.85000000056,"y":2544340.8000000007}},{"attributes":{"ID":582867,"DIS_CODE":0,"TOWNNAME":"永康區","LI":"中華里","LIN":"16鄰","STREET":"小東路","SECT":" ","MAREA":" ","LANE":" ","ALLEY":" ","HOUSE_NO":"５０９號九樓之２","E_COORD97":171649.60000000001,"N_COORD97":2544340.7999999998,"ADDRESS":"小東路５０９號九樓之２","OBJECTID":582840},"geometry":{"x":171649.59999999963,"y":2544340.8000000007}},{"attributes":{"ID":582868,"DIS_CODE":0,"TOWNNAME":"永康區","LI":"中華里","LIN":"16鄰","STREET":"小東路","SECT":" ","MAREA":" ","LANE":" ","ALLEY":" ","HOUSE_NO":"５０９號十二樓之３","E_COORD97":171650.81,"N_COORD97":2544340.7999999998,"ADDRESS":"小東路５０９號十二樓之３","OBJECTID":582841},"geometry":{"x":171650.81000000052,"y":2544340.8000000007}},{"attributes":{"ID":582869,"DIS_CODE":0,"TOWNNAME":"永康區","LI":"中華里","LIN":"16鄰","STREET":"小東路","SECT":" ","MAREA":" ","LANE":" ","ALLEY":" ","HOUSE_NO":"５０９號十一樓之１２","E_COORD97":171652.10000000001,"N_COORD97":2544340.7999999998,"ADDRESS":"小東路５０９號十一樓之１２","OBJECTID":582842},"geometry":{"x":171652.10000000056,"y":2544340.8000000007}},{"attributes":{"ID":582870,"DIS_CODE":0,"TOWNNAME":"永康區","LI":"中華里","LIN":"16鄰","STREET":"小東路","SECT":" ","MAREA":" ","LANE":" ","ALLEY":" ","HOUSE_NO":"５０９號八樓之８","E_COORD97":171649.60999999999,"N_COORD97":2544340.7999999998,"ADDRESS":"小東路５０９號八樓之８","OBJECTID":582843},"geometry":{"x":171649.61000000127,"y":2544340.8000000007}},{"attributes":{"ID":582871,"DIS_CODE":0,"TOWNNAME":"永康區","LI":"中華里","LIN":"16鄰","STREET":"小東路","SECT":" ","MAREA":" ","LANE":" ","ALLEY":" ","HOUSE_NO":"５０９號十二樓之５","E_COORD97":171650.87,"N_COORD97":2544340.7999999998,"ADDRESS":"小東路５０９號十二樓之５","OBJECTID":582844},"geometry":{"x":171650.87000000104,"y":2544340.8000000007}},{"attributes":{"ID":582872,"DIS_CODE":0,"TOWNNAME":"永康區","LI":"中華里","LIN":"16鄰","STREET":"小東路","SECT":" ","MAREA":" ","LANE":" ","ALLEY":" ","HOUSE_NO":"５０９號十樓之７","E_COORD97":171649.54000000001,"N_COORD97":2544340.7999999998,"ADDRESS":"小東路５０９號十樓之７","OBJECTID":582845},"geometry":{"x":171649.54000000097,"y":2544340.8000000007}},{"attributes":{"ID":582873,"DIS_CODE":0,"TOWNNAME":"永康區","LI":"中華里","LIN":"16鄰","STREET":"小東路","SECT":" ","MAREA":" ","LANE":" ","ALLEY":" ","HOUSE_NO":"５０９號十一樓之３","E_COORD97":171650.81,"N_COORD97":2544340.7999999998,"ADDRESS":"小東路５０９號十一樓之３","OBJECTID":582846},"geometry":{"x":171650.81000000052,"y":2544340.8000000007}},{"attributes":{"ID":582874,"DIS_CODE":0,"TOWNNAME":"中西區","LI":"法華里","LIN":"16鄰","STREET":"五妃街","SECT":" ","MAREA":" ","LANE":" ","ALLEY":" ","HOUSE_NO":"７６號七樓之１","E_COORD97":168863.81,"N_COORD97":2542580.6800000002,"ADDRESS":"五妃街７６號七樓之１","OBJECTID":582847},"geometry":{"x":168863.81000000052,"y":2542580.6799999997}},{"attributes":{"ID":582875,"DIS_CODE":0,"TOWNNAME":"中西區","LI":"法華里","LIN":"16鄰","STREET":"五妃街","SECT":" ","MAREA":" ","LANE":" ","ALLEY":" ","HOUSE_NO":"７６號七樓之２","E_COORD97":168863.81,"N_COORD97":2542580.6800000002,"ADDRESS":"五妃街７６號七樓之２","OBJECTID":582848},"geometry":{"x":168863.81000000052,"y":2542580.6799999997}},{"attributes":{"ID":582876,"DIS_CODE":0,"TOWNNAME":"中西區","LI":"法華里","LIN":"16鄰","STREET":"五妃街","SECT":" ","MAREA":" ","LANE":" ","ALLEY":" ","HOUSE_NO":"７６號二樓","E_COORD97":168863.81,"N_COORD97":2542580.6800000002,"ADDRESS":"五妃街７６號二樓","OBJECTID":582849},"geometry":{"x":168863.81000000052,"y":2542580.6799999997}},{"attributes":{"ID":582877,"DIS_CODE":0,"TOWNNAME":"中西區","LI":"法華里","LIN":"16鄰","STREET":"五妃街","SECT":" ","MAREA":" ","LANE":" ","ALLEY":" ","HOUSE_NO":"７６號三樓之１","E_COORD97":168863.81,"N_COORD97":2542580.6800000002,"ADDRESS":"五妃街７６號三樓之１","OBJECTID":582850},"geometry":{"x":168863.81000000052,"y":2542580.6799999997}},{"attributes":{"ID":582878,"DIS_CODE":0,"TOWNNAME":"中西區","LI":"法華里","LIN":"16鄰","STREET":"五妃街","SECT":" ","MAREA":" ","LANE":" ","ALLEY":" ","HOUSE_NO":"７６號三樓之２","E_COORD97":168863.81,"N_COORD97":2542580.6800000002,"ADDRESS":"五妃街７６號三樓之２","OBJECTID":582851},"geometry":{"x":168863.81000000052,"y":2542580.6799999997}},{"attributes":{"ID":582879,"DIS_CODE":0,"TOWNNAME":"中西區","LI":"法華里","LIN":"16鄰","STREET":"五妃街","SECT":" ","MAREA":" ","LANE":" ","ALLEY":" ","HOUSE_NO":"７６號五樓","E_COORD97":168863.81,"N_COORD97":2542580.6800000002,"ADDRESS":"五妃街７６號五樓","OBJECTID":582852},"geometry":{"x":168863.81000000052,"y":2542580.6799999997}},{"attributes":{"ID":582880,"DIS_CODE":0,"TOWNNAME":"中西區","LI":"法華里","LIN":"16鄰","STREET":"五妃街","SECT":" ","MAREA":" ","LANE":" ","ALLEY":" ","HOUSE_NO":"７６號六樓之１","E_COORD97":168863.81,"N_COORD97":2542580.6800000002,"ADDRESS":"五妃街７６號六樓之１","OBJECTID":582853},"geometry":{"x":168863.81000000052,"y":2542580.6799999997}},{"attributes":{"ID":582881,"DIS_CODE":0,"TOWNNAME":"中西區","LI":"法華里","LIN":"16鄰","STREET":"五妃街","SECT":" ","MAREA":" ","LANE":" ","ALLEY":" ","HOUSE_NO":"７６號六樓之２","E_COORD97":168863.81,"N_COORD97":2542580.6800000002,"ADDRESS":"五妃街７６號六樓之２","OBJECTID":582854},"geometry":{"x":168863.81000000052,"y":2542580.6799999997}},{"attributes":{"ID":582882,"DIS_CODE":0,"TOWNNAME":"中西區","LI":"法華里","LIN":"16鄰","STREET":"五妃街","SECT":" ","MAREA":" ","LANE":" ","ALLEY":" ","HOUSE_NO":"７６號四樓","E_COORD97":168863.81,"N_COORD97":2542580.6800000002,"ADDRESS":"五妃街７６號四樓","OBJECTID":582855},"geometry":{"x":168863.81000000052,"y":2542580.6799999997}},{"attributes":{"ID":582883,"DIS_CODE":0,"TOWNNAME":"中西區","LI":"法華里","LIN":"16鄰","STREET":"五妃街","SECT":" ","MAREA":" ","LANE":" ","ALLEY":" ","HOUSE_NO":"７８號七樓之１","E_COORD97":168851.89000000001,"N_COORD97":2542581.1299999999,"ADDRESS":"五妃街７８號七樓之１","OBJECTID":582856},"geometry":{"x":168851.8900000006,"y":2542581.1299999971}},{"attributes":{"ID":582884,"DIS_CODE":0,"TOWNNAME":"中西區","LI":"法華里","LIN":"16鄰","STREET":"五妃街","SECT":" ","MAREA":" ","LANE":" ","ALLEY":" ","HOUSE_NO":"７８號七樓之２","E_COORD97":168851.89000000001,"N_COORD97":2542581.1299999999,"ADDRESS":"五妃街７８號七樓之２","OBJECTID":582857},"geometry":{"x":168851.8900000006,"y":2542581.1299999971}},{"attributes":{"ID":582885,"DIS_CODE":0,"TOWNNAME":"中西區","LI":"法華里","LIN":"16鄰","STREET":"五妃街","SECT":" ","MAREA":" ","LANE":" ","ALLEY":" ","HOUSE_NO":"７８號二樓","E_COORD97":168851.89000000001,"N_COORD97":2542581.1299999999,"ADDRESS":"五妃街７８號二樓","OBJECTID":582858},"geometry":{"x":168851.8900000006,"y":2542581.1299999971}},{"attributes":{"ID":582886,"DIS_CODE":0,"TOWNNAME":"中西區","LI":"法華里","LIN":"16鄰","STREET":"五妃街","SECT":" ","MAREA":" ","LANE":" ","ALLEY":" ","HOUSE_NO":"７８號三樓之１","E_COORD97":168851.89000000001,"N_COORD97":2542581.1299999999,"ADDRESS":"五妃街７８號三樓之１","OBJECTID":582859},"geometry":{"x":168851.8900000006,"y":2542581.1299999971}},{"attributes":{"ID":582887,"DIS_CODE":0,"TOWNNAME":"中西區","LI":"法華里","LIN":"16鄰","STREET":"五妃街","SECT":" ","MAREA":" ","LANE":" ","ALLEY":" ","HOUSE_NO":"７８號三樓之２","E_COORD97":168851.89000000001,"N_COORD97":2542581.1299999999,"ADDRESS":"五妃街７８號三樓之２","OBJECTID":582860},"geometry":{"x":168851.8900000006,"y":2542581.1299999971}},{"attributes":{"ID":582888,"DIS_CODE":0,"TOWNNAME":"佳里區","LI":"六安里","LIN":"4鄰","STREET":"青年街","SECT":" ","MAREA":" ","LANE":" ","ALLEY":" ","HOUSE_NO":"１號","E_COORD97":166236.13,"N_COORD97":2562993.5,"ADDRESS":"青年街１號","OBJECTID":582861},"geometry":{"x":166236.13000000082,"y":2562993.5000000037}},{"attributes":{"ID":582889,"DIS_CODE":0,"TOWNNAME":"中西區","LI":"法華里","LIN":"16鄰","STREET":"五妃街","SECT":" ","MAREA":" ","LANE":" ","ALLEY":" ","HOUSE_NO":"７８號五樓之１","E_COORD97":168851.89000000001,"N_COORD97":2542581.1299999999,"ADDRESS":"五妃街７８號五樓之１","OBJECTID":582862},"geometry":{"x":168851.8900000006,"y":2542581.1299999971}},{"attributes":{"ID":582890,"DIS_CODE":0,"TOWNNAME":"中西區","LI":"法華里","LIN":"16鄰","STREET":"五妃街","SECT":" ","MAREA":" ","LANE":" ","ALLEY":" ","HOUSE_NO":"７８號六樓之１","E_COORD97":168851.89000000001,"N_COORD97":2542581.1299999999,"ADDRESS":"五妃街７８號六樓之１","OBJECTID":582863},"geometry":{"x":168851.8900000006,"y":2542581.1299999971}},{"attributes":{"ID":582891,"DIS_CODE":0,"TOWNNAME":"中西區","LI":"法華里","LIN":"16鄰","STREET":"五妃街","SECT":" ","MAREA":" ","LANE":" ","ALLEY":" ","HOUSE_NO":"７８號六樓之２","E_COORD97":168851.89000000001,"N_COORD97":2542581.1299999999,"ADDRESS":"五妃街７８號六樓之２","OBJECTID":582864},"geometry":{"x":168851.8900000006,"y":2542581.1299999971}},{"attributes":{"ID":582892,"DIS_CODE":0,"TOWNNAME":"永康區","LI":"勝利里","LIN":"5鄰","STREET":"勝學路","SECT":" ","MAREA":" ","LANE":" ","ALLEY":" ","HOUSE_NO":"５３號","E_COORD97":171139.01000000001,"N_COORD97":2544719.75,"ADDRESS":"勝學路５３號","OBJECTID":582865},"geometry":{"x":171139.01000000164,"y":2544719.75}},{"attributes":{"ID":582893,"DIS_CODE":0,"TOWNNAME":"永康區","LI":"勝利里","LIN":"20鄰","STREET":"勝華街","SECT":" ","MAREA":" ","LANE":" ","ALLEY":" ","HOUSE_NO":"１２６號","E_COORD97":171262.56,"N_COORD97":2545221,"ADDRESS":"勝華街１２６號","OBJECTID":582866},"geometry":{"x":171262.56000000052,"y":2545221.0000000037}},{"attributes":{"ID":582894,"DIS_CODE":0,"TOWNNAME":"永康區","LI":"崑山里","LIN":"25鄰","STREET":"大仁街","SECT":" ","MAREA":" ","LANE":" ","ALLEY":" ","HOUSE_NO":"８３號","E_COORD97":173808.38,"N_COORD97":2544734.3700000001,"ADDRESS":"大仁街８３號","OBJECTID":582867},"geometry":{"x":173808.38000000082,"y":2544734.370000001}},{"attributes":{"ID":582895,"DIS_CODE":0,"TOWNNAME":"永康區","LI":"復國里","LIN":"6鄰","STREET":"復國一路","SECT":" ","MAREA":" ","LANE":" ","ALLEY":" ","HOUSE_NO":"９４號","E_COORD97":172718.42999999999,"N_COORD97":2544940.21,"ADDRESS":"復國一路９４號","OBJECTID":582868},"geometry":{"x":172718.4299999997,"y":2544940.2100000028}},{"attributes":{"ID":582896,"DIS_CODE":0,"TOWNNAME":"永康區","LI":"崑山里","LIN":"19鄰","STREET":"國光一街","SECT":" ","MAREA":" ","LANE":" ","ALLEY":" ","HOUSE_NO":"２１號","E_COORD97":173960.95000000001,"N_COORD97":2544589.1400000001,"ADDRESS":"國光一街２１號","OBJECTID":582869},"geometry":{"x":173960.95000000112,"y":2544589.1400000006}},{"attributes":{"ID":582897,"DIS_CODE":0,"TOWNNAME":"中西區","LI":"法華里","LIN":"16鄰","STREET":"五妃街","SECT":" ","MAREA":" ","LANE":" ","ALLEY":" ","HOUSE_NO":"７８號四樓之１","E_COORD97":168851.89000000001,"N_COORD97":2542581.1299999999,"ADDRESS":"五妃街７８號四樓之１","OBJECTID":582870},"geometry":{"x":168851.8900000006,"y":2542581.1299999971}},{"attributes":{"ID":582898,"DIS_CODE":0,"TOWNNAME":"中西區","LI":"法華里","LIN":"16鄰","STREET":"五妃街","SECT":" ","MAREA":" ","LANE":" ","ALLEY":" ","HOUSE_NO":"７８號四樓之２","E_COORD97":168851.89000000001,"N_COORD97":2542581.1299999999,"ADDRESS":"五妃街７８號四樓之２","OBJECTID":582871},"geometry":{"x":168851.8900000006,"y":2542581.1299999971}},{"attributes":{"ID":582899,"DIS_CODE":0,"TOWNNAME":"永康區","LI":"中華里","LIN":"16鄰","STREET":"小東路","SECT":" ","MAREA":" ","LANE":" ","ALLEY":" ","HOUSE_NO":"５０９號十樓之８","E_COORD97":171649.60999999999,"N_COORD97":2544340.7999999998,"ADDRESS":"小東路５０９號十樓之８","OBJECTID":582872},"geometry":{"x":171649.61000000127,"y":2544340.8000000007}},{"attributes":{"ID":582900,"DIS_CODE":0,"TOWNNAME":"永康區","LI":"中華里","LIN":"16鄰","STREET":"小東路","SECT":" ","MAREA":" ","LANE":" ","ALLEY":" ","HOUSE_NO":"５０９號六樓之１０","E_COORD97":171650.76000000001,"N_COORD97":2544340.7999999998,"ADDRESS":"小東路５０９號六樓之１０","OBJECTID":582873},"geometry":{"x":171650.75999999885,"y":2544340.8000000007}},{"attributes":{"ID":582901,"DIS_CODE":0,"TOWNNAME":"永康區","LI":"中華里","LIN":"16鄰","STREET":"小東路","SECT":" ","MAREA":" ","LANE":" ","ALLEY":" ","HOUSE_NO":"５０９號三樓之１０","E_COORD97":171650.76000000001,"N_COORD97":2544340.7999999998,"ADDRESS":"小東路５０９號三樓之１０","OBJECTID":582874},"geometry":{"x":171650.75999999885,"y":2544340.8000000007}},{"attributes":{"ID":582902,"DIS_CODE":0,"TOWNNAME":"永康區","LI":"中華里","LIN":"16鄰","STREET":"小東路","SECT":" ","MAREA":" ","LANE":" ","ALLEY":" ","HOUSE_NO":"５０９號五樓之１２","E_COORD97":171650.85000000001,"N_COORD97":2544340.7999999998,"ADDRESS":"小東路５０９號五樓之１２","OBJECTID":582875},"geometry":{"x":171650.85000000056,"y":2544340.8000000007}},{"attributes":{"ID":582903,"DIS_CODE":0,"TOWNNAME":"永康區","LI":"中華里","LIN":"16鄰","STREET":"小東路","SECT":" ","MAREA":" ","LANE":" ","ALLEY":" ","HOUSE_NO":"５０９號六樓之７","E_COORD97":171649.54000000001,"N_COORD97":2544340.7999999998,"ADDRESS":"小東路５０９號六樓之７","OBJECTID":582876},"geometry":{"x":171649.54000000097,"y":2544340.8000000007}},{"attributes":{"ID":582904,"DIS_CODE":0,"TOWNNAME":"永康區","LI":"中華里","LIN":"16鄰","STREET":"小東路","SECT":" ","MAREA":" ","LANE":" ","ALLEY":" ","HOUSE_NO":"５０９號六樓之２","E_COORD97":171649.60000000001,"N_COORD97":2544340.7999999998,"ADDRESS":"小東路５０９號六樓之２","OBJECTID":582877},"geometry":{"x":171649.59999999963,"y":2544340.8000000007}},{"attributes":{"ID":582905,"DIS_CODE":0,"TOWNNAME":"永康區","LI":"中華里","LIN":"16鄰","STREET":"小東路","SECT":" ","MAREA":" ","LANE":" ","ALLEY":" ","HOUSE_NO":"５０９號四樓之１１","E_COORD97":171650.70999999999,"N_COORD97":2544340.7999999998,"ADDRESS":"小東路５０９號四樓之１１","OBJECTID":582878},"geometry":{"x":171650.70999999996,"y":2544340.8000000007}},{"attributes":{"ID":582906,"DIS_CODE":0,"TOWNNAME":"永康區","LI":"中華里","LIN":"16鄰","STREET":"小東路","SECT":" ","MAREA":" ","LANE":" ","ALLEY":" ","HOUSE_NO":"５０９號五樓之１０","E_COORD97":171650.76000000001,"N_COORD97":2544340.7999999998,"ADDRESS":"小東路５０９號五樓之１０","OBJECTID":582879},"geometry":{"x":171650.75999999885,"y":2544340.8000000007}},{"attributes":{"ID":582907,"DIS_CODE":0,"TOWNNAME":"永康區","LI":"中華里","LIN":"16鄰","STREET":"小東路","SECT":" ","MAREA":" ","LANE":" ","ALLEY":" ","HOUSE_NO":"５０９號六樓之１","E_COORD97":171649.45999999999,"N_COORD97":2544340.7999999998,"ADDRESS":"小東路５０９號六樓之１","OBJECTID":582880},"geometry":{"x":171649.45999999996,"y":2544340.8000000007}},{"attributes":{"ID":582908,"DIS_CODE":0,"TOWNNAME":"永康區","LI":"中華里","LIN":"16鄰","STREET":"小東路","SECT":" ","MAREA":" ","LANE":" ","ALLEY":" ","HOUSE_NO":"５０９號五樓之８","E_COORD97":171649.60999999999,"N_COORD97":2544340.7999999998,"ADDRESS":"小東路５０９號五樓之８","OBJECTID":582881},"geometry":{"x":171649.61000000127,"y":2544340.8000000007}},{"attributes":{"ID":582909,"DIS_CODE":0,"TOWNNAME":"永康區","LI":"中華里","LIN":"16鄰","STREET":"小東路","SECT":" ","MAREA":" ","LANE":" ","ALLEY":" ","HOUSE_NO":"５０９號四樓之６","E_COORD97":171649.57000000001,"N_COORD97":2544340.7999999998,"ADDRESS":"小東路５０９號四樓之６","OBJECTID":582882},"geometry":{"x":171649.57000000123,"y":2544340.8000000007}},{"attributes":{"ID":582910,"DIS_CODE":0,"TOWNNAME":"永康區","LI":"中華里","LIN":"16鄰","STREET":"小東路","SECT":" ","MAREA":" ","LANE":" ","ALLEY":" ","HOUSE_NO":"５０９號五樓之１１","E_COORD97":171650.70999999999,"N_COORD97":2544340.7999999998,"ADDRESS":"小東路５０９號五樓之１１","OBJECTID":582883},"geometry":{"x":171650.70999999996,"y":2544340.8000000007}},{"attributes":{"ID":582911,"DIS_CODE":0,"TOWNNAME":"永康區","LI":"中華里","LIN":"16鄰","STREET":"小東路","SECT":" ","MAREA":" ","LANE":" ","ALLEY":" ","HOUSE_NO":"５０９號三樓之３","E_COORD97":171649.56,"N_COORD97":2544340.7999999998,"ADDRESS":"小東路５０９號三樓之３","OBJECTID":582884},"geometry":{"x":171649.55999999959,"y":2544340.8000000007}},{"attributes":{"ID":582912,"DIS_CODE":0,"TOWNNAME":"永康區","LI":"中華里","LIN":"16鄰","STREET":"小東路","SECT":" ","MAREA":" ","LANE":" ","ALLEY":" ","HOUSE_NO":"５０９號三樓之６","E_COORD97":171649.57000000001,"N_COORD97":2544340.7999999998,"ADDRESS":"小東路５０９號三樓之６","OBJECTID":582885},"geometry":{"x":171649.57000000123,"y":2544340.8000000007}},{"attributes":{"ID":582913,"DIS_CODE":0,"TOWNNAME":"永康區","LI":"中華里","LIN":"16鄰","STREET":"小東路","SECT":" ","MAREA":" ","LANE":" ","ALLEY":" ","HOUSE_NO":"５０９號四樓之７","E_COORD97":171649.54000000001,"N_COORD97":2544340.7999999998,"ADDRESS":"小東路５０９號四樓之７","OBJECTID":582886},"geometry":{"x":171649.54000000097,"y":2544340.8000000007}},{"attributes":{"ID":582914,"DIS_CODE":0,"TOWNNAME":"永康區","LI":"中華里","LIN":"16鄰","STREET":"小東路","SECT":" ","MAREA":" ","LANE":" ","ALLEY":" ","HOUSE_NO":"５０９號六樓之１２","E_COORD97":171650.85000000001,"N_COORD97":2544340.7999999998,"ADDRESS":"小東路５０９號六樓之１２","OBJECTID":582887},"geometry":{"x":171650.85000000056,"y":2544340.8000000007}},{"attributes":{"ID":582915,"DIS_CODE":0,"TOWNNAME":"永康區","LI":"中華里","LIN":"16鄰","STREET":"小東路","SECT":" ","MAREA":" ","LANE":" ","ALLEY":" ","HOUSE_NO":"５０９號六樓之１３","E_COORD97":171650.81,"N_COORD97":2544340.7999999998,"ADDRESS":"小東路５０９號六樓之１３","OBJECTID":582888},"geometry":{"x":171650.81000000052,"y":2544340.8000000007}},{"attributes":{"ID":582916,"DIS_CODE":0,"TOWNNAME":"永康區","LI":"復國里","LIN":"3鄰","STREET":"復國一路","SECT":" ","MAREA":" ","LANE":" ","ALLEY":" ","HOUSE_NO":"８號","E_COORD97":172726.35000000001,"N_COORD97":2544708.27,"ADDRESS":"復國一路８號","OBJECTID":582889},"geometry":{"x":172726.34999999963,"y":2544708.2700000014}},{"attributes":{"ID":582917,"DIS_CODE":0,"TOWNNAME":"永康區","LI":"復國里","LIN":"1鄰","STREET":"復國二路","SECT":" ","MAREA":" ","LANE":" ","ALLEY":" ","HOUSE_NO":"２６號","E_COORD97":172845.07999999999,"N_COORD97":2544889.3999999999,"ADDRESS":"復國二路２６號","OBJECTID":582890},"geometry":{"x":172845.08000000007,"y":2544889.4000000004}},{"attributes":{"ID":582918,"DIS_CODE":0,"TOWNNAME":"永康區","LI":"崑山里","LIN":"19鄰","STREET":"大灣路","SECT":" ","MAREA":" ","LANE":" ","ALLEY":" ","HOUSE_NO":"８２６號之６","E_COORD97":173944.92000000001,"N_COORD97":2544520.1699999999,"ADDRESS":"大灣路８２６號之６","OBJECTID":582891},"geometry":{"x":173944.91999999993,"y":2544520.1699999999}},{"attributes":{"ID":582919,"DIS_CODE":0,"TOWNNAME":"永康區","LI":"中華里","LIN":"16鄰","STREET":"小東路","SECT":" ","MAREA":" ","LANE":" ","ALLEY":" ","HOUSE_NO":"５０９號四樓之９","E_COORD97":171649.54999999999,"N_COORD97":2544340.7999999998,"ADDRESS":"小東路５０９號四樓之９","OBJECTID":582892},"geometry":{"x":171649.55000000075,"y":2544340.8000000007}},{"attributes":{"ID":582920,"DIS_CODE":0,"TOWNNAME":"永康區","LI":"中華里","LIN":"16鄰","STREET":"小東路","SECT":" ","MAREA":" ","LANE":" ","ALLEY":" ","HOUSE_NO":"５０９號四樓之１０","E_COORD97":171650.76000000001,"N_COORD97":2544340.7999999998,"ADDRESS":"小東路５０９號四樓之１０","OBJECTID":582893},"geometry":{"x":171650.75999999885,"y":2544340.8000000007}},{"attributes":{"ID":582921,"DIS_CODE":0,"TOWNNAME":"永康區","LI":"中華里","LIN":"16鄰","STREET":"小東路","SECT":" ","MAREA":" ","LANE":" ","ALLEY":" ","HOUSE_NO":"５０９號六樓之５","E_COORD97":171649.62,"N_COORD97":2544340.7999999998,"ADDRESS":"小東路５０９號六樓之５","OBJECTID":582894},"geometry":{"x":171649.62000000011,"y":2544340.8000000007}},{"attributes":{"ID":582922,"DIS_CODE":0,"TOWNNAME":"永康區","LI":"中華里","LIN":"16鄰","STREET":"小東路","SECT":" ","MAREA":" ","LANE":" ","ALLEY":" ","HOUSE_NO":"５０９號四樓之１２","E_COORD97":171650.85000000001,"N_COORD97":2544340.7999999998,"ADDRESS":"小東路５０９號四樓之１２","OBJECTID":582895},"geometry":{"x":171650.85000000056,"y":2544340.8000000007}},{"attributes":{"ID":582923,"DIS_CODE":0,"TOWNNAME":"永康區","LI":"中華里","LIN":"16鄰","STREET":"小東路","SECT":" ","MAREA":" ","LANE":" ","ALLEY":" ","HOUSE_NO":"５０９號六樓之９","E_COORD97":171649.54999999999,"N_COORD97":2544340.7999999998,"ADDRESS":"小東路５０９號六樓之９","OBJECTID":582896},"geometry":{"x":171649.55000000075,"y":2544340.8000000007}},{"attributes":{"ID":582924,"DIS_CODE":0,"TOWNNAME":"永康區","LI":"中華里","LIN":"16鄰","STREET":"小東路","SECT":" ","MAREA":" ","LANE":" ","ALLEY":" ","HOUSE_NO":"５０９號四樓之１３","E_COORD97":171650.81,"N_COORD97":2544340.7999999998,"ADDRESS":"小東路５０９號四樓之１３","OBJECTID":582897},"geometry":{"x":171650.81000000052,"y":2544340.8000000007}},{"attributes":{"ID":582925,"DIS_CODE":0,"TOWNNAME":"永康區","LI":"中華里","LIN":"16鄰","STREET":"小東路","SECT":" ","MAREA":" ","LANE":" ","ALLEY":" ","HOUSE_NO":"５０９號四樓之８","E_COORD97":171649.60999999999,"N_COORD97":2544340.7999999998,"ADDRESS":"小東路５０９號四樓之８","OBJECTID":582898},"geometry":{"x":171649.61000000127,"y":2544340.8000000007}},{"attributes":{"ID":582926,"DIS_CODE":0,"TOWNNAME":"永康區","LI":"中華里","LIN":"16鄰","STREET":"小東路","SECT":" ","MAREA":" ","LANE":" ","ALLEY":" ","HOUSE_NO":"５０９號六樓之８","E_COORD97":171649.60999999999,"N_COORD97":2544340.7999999998,"ADDRESS":"小東路５０９號六樓之８","OBJECTID":582899},"geometry":{"x":171649.61000000127,"y":2544340.8000000007}},{"attributes":{"ID":582927,"DIS_CODE":0,"TOWNNAME":"永康區","LI":"中華里","LIN":"16鄰","STREET":"小東路","SECT":" ","MAREA":" ","LANE":" ","ALLEY":" ","HOUSE_NO":"５０９號六樓之６","E_COORD97":171649.57000000001,"N_COORD97":2544340.7999999998,"ADDRESS":"小東路５０９號六樓之６","OBJECTID":582900},"geometry":{"x":171649.57000000123,"y":2544340.8000000007}},{"attributes":{"ID":582928,"DIS_CODE":0,"TOWNNAME":"永康區","LI":"中華里","LIN":"16鄰","STREET":"小東路","SECT":" ","MAREA":" ","LANE":" ","ALLEY":" ","HOUSE_NO":"５０９號四樓之２","E_COORD97":171649.60000000001,"N_COORD97":2544340.7999999998,"ADDRESS":"小東路５０９號四樓之２","OBJECTID":582901},"geometry":{"x":171649.59999999963,"y":2544340.8000000007}},{"attributes":{"ID":582929,"DIS_CODE":0,"TOWNNAME":"永康區","LI":"中華里","LIN":"16鄰","STREET":"小東路","SECT":" ","MAREA":" ","LANE":" ","ALLEY":" ","HOUSE_NO":"５０９號四樓之３","E_COORD97":171649.56,"N_COORD97":2544340.7999999998,"ADDRESS":"小東路５０９號四樓之３","OBJECTID":582902},"geometry":{"x":171649.55999999959,"y":2544340.8000000007}},{"attributes":{"ID":582930,"DIS_CODE":0,"TOWNNAME":"永康區","LI":"中華里","LIN":"16鄰","STREET":"小東路","SECT":" ","MAREA":" ","LANE":" ","ALLEY":" ","HOUSE_NO":"５０９號六樓之１１","E_COORD97":171650.70999999999,"N_COORD97":2544340.7999999998,"ADDRESS":"小東路５０９號六樓之１１","OBJECTID":582903},"geometry":{"x":171650.70999999996,"y":2544340.8000000007}},{"attributes":{"ID":582931,"DIS_CODE":0,"TOWNNAME":"永康區","LI":"中華里","LIN":"16鄰","STREET":"小東路","SECT":" ","MAREA":" ","LANE":" ","ALLEY":" ","HOUSE_NO":"５０９號三樓之１３","E_COORD97":171650.81,"N_COORD97":2544340.7999999998,"ADDRESS":"小東路５０９號三樓之１３","OBJECTID":582904},"geometry":{"x":171650.81000000052,"y":2544340.8000000007}},{"attributes":{"ID":582932,"DIS_CODE":0,"TOWNNAME":"永康區","LI":"中華里","LIN":"16鄰","STREET":"小東路","SECT":" ","MAREA":" ","LANE":" ","ALLEY":" ","HOUSE_NO":"５０９號三樓之２","E_COORD97":171649.60000000001,"N_COORD97":2544340.7999999998,"ADDRESS":"小東路５０９號三樓之２","OBJECTID":582905},"geometry":{"x":171649.59999999963,"y":2544340.8000000007}},{"attributes":{"ID":582933,"DIS_CODE":0,"TOWNNAME":"永康區","LI":"中華里","LIN":"16鄰","STREET":"小東路","SECT":" ","MAREA":" ","LANE":" ","ALLEY":" ","HOUSE_NO":"５０９號五樓之１３","E_COORD97":171650.81,"N_COORD97":2544340.7999999998,"ADDRESS":"小東路５０９號五樓之１３","OBJECTID":582906},"geometry":{"x":171650.81000000052,"y":2544340.8000000007}},{"attributes":{"ID":582934,"DIS_CODE":0,"TOWNNAME":"永康區","LI":"中華里","LIN":"16鄰","STREET":"小東路","SECT":" ","MAREA":" ","LANE":" ","ALLEY":" ","HOUSE_NO":"５０９號五樓之３","E_COORD97":171649.56,"N_COORD97":2544340.7999999998,"ADDRESS":"小東路５０９號五樓之３","OBJECTID":582907},"geometry":{"x":171649.55999999959,"y":2544340.8000000007}},{"attributes":{"ID":582935,"DIS_CODE":0,"TOWNNAME":"永康區","LI":"中華里","LIN":"16鄰","STREET":"小東路","SECT":" ","MAREA":" ","LANE":" ","ALLEY":" ","HOUSE_NO":"５０９號三樓之７","E_COORD97":171649.54000000001,"N_COORD97":2544340.7999999998,"ADDRESS":"小東路５０９號三樓之７","OBJECTID":582908},"geometry":{"x":171649.54000000097,"y":2544340.8000000007}},{"attributes":{"ID":582936,"DIS_CODE":0,"TOWNNAME":"永康區","LI":"中華里","LIN":"16鄰","STREET":"小東路","SECT":" ","MAREA":" ","LANE":" ","ALLEY":" ","HOUSE_NO":"５０９號五樓之７","E_COORD97":171649.54000000001,"N_COORD97":2544340.7999999998,"ADDRESS":"小東路５０９號五樓之７","OBJECTID":582909},"geometry":{"x":171649.54000000097,"y":2544340.8000000007}},{"attributes":{"ID":582937,"DIS_CODE":0,"TOWNNAME":"永康區","LI":"中華里","LIN":"16鄰","STREET":"小東路","SECT":" ","MAREA":" ","LANE":" ","ALLEY":" ","HOUSE_NO":"５０９號五樓之６","E_COORD97":171649.57000000001,"N_COORD97":2544340.7999999998,"ADDRESS":"小東路５０９號五樓之６","OBJECTID":582910},"geometry":{"x":171649.57000000123,"y":2544340.8000000007}},{"attributes":{"ID":582938,"DIS_CODE":0,"TOWNNAME":"永康區","LI":"中華里","LIN":"16鄰","STREET":"小東路","SECT":" ","MAREA":" ","LANE":" ","ALLEY":" ","HOUSE_NO":"５０９號三樓之９","E_COORD97":171649.54999999999,"N_COORD97":2544340.7999999998,"ADDRESS":"小東路５０９號三樓之９","OBJECTID":582911},"geometry":{"x":171649.55000000075,"y":2544340.8000000007}},{"attributes":{"ID":582939,"DIS_CODE":0,"TOWNNAME":"仁德區","LI":"仁德里","LIN":"16鄰","STREET":"中山路","SECT":" ","MAREA":" ","LANE":" ","ALLEY":" ","HOUSE_NO":"７９７號一樓","E_COORD97":172585.32999999999,"N_COORD97":2541485.5,"ADDRESS":"中山路７９７號一樓","OBJECTID":582912},"geometry":{"x":172585.33000000101,"y":2541485.5000000019}},{"attributes":{"ID":582940,"DIS_CODE":0,"TOWNNAME":"中西區","LI":"五妃里","LIN":"16鄰","STREET":"慶中街","SECT":" ","MAREA":" ","LANE":" ","ALLEY":" ","HOUSE_NO":"１９８號一樓","E_COORD97":168562.79999999999,"N_COORD97":2542788.71,"ADDRESS":"慶中街１９８號一樓","OBJECTID":582913},"geometry":{"x":168562.80000000075,"y":2542788.7100000009}},{"attributes":{"ID":582941,"DIS_CODE":0,"TOWNNAME":"中西區","LI":"五妃里","LIN":"16鄰","STREET":"慶中街","SECT":" ","MAREA":" ","LANE":" ","ALLEY":" ","HOUSE_NO":"１９８號二樓","E_COORD97":168562.79999999999,"N_COORD97":2542788.71,"ADDRESS":"慶中街１９８號二樓","OBJECTID":582914},"geometry":{"x":168562.80000000075,"y":2542788.7100000009}},{"attributes":{"ID":582942,"DIS_CODE":0,"TOWNNAME":"中西區","LI":"五妃里","LIN":"16鄰","STREET":"慶中街","SECT":" ","MAREA":" ","LANE":" ","ALLEY":" ","HOUSE_NO":"１９８號三樓","E_COORD97":168562.79999999999,"N_COORD97":2542788.71,"ADDRESS":"慶中街１９８號三樓","OBJECTID":582915},"geometry":{"x":168562.80000000075,"y":2542788.7100000009}},{"attributes":{"ID":582943,"DIS_CODE":0,"TOWNNAME":"中西區","LI":"五妃里","LIN":"16鄰","STREET":"慶中街","SECT":" ","MAREA":" ","LANE":" ","ALLEY":" ","HOUSE_NO":"１９８號五樓","E_COORD97":168562.79999999999,"N_COORD97":2542788.71,"ADDRESS":"慶中街１９８號五樓","OBJECTID":582916},"geometry":{"x":168562.80000000075,"y":2542788.7100000009}},{"attributes":{"ID":582944,"DIS_CODE":0,"TOWNNAME":"中西區","LI":"五妃里","LIN":"16鄰","STREET":"慶中街","SECT":" ","MAREA":" ","LANE":" ","ALLEY":" ","HOUSE_NO":"１９８號四樓","E_COORD97":168562.79999999999,"N_COORD97":2542788.71,"ADDRESS":"慶中街１９８號四樓","OBJECTID":582917},"geometry":{"x":168562.80000000075,"y":2542788.7100000009}},{"attributes":{"ID":582945,"DIS_CODE":0,"TOWNNAME":"仁德區","LI":"保安里","LIN":"16鄰","STREET":"中正路","SECT":"一段","MAREA":" ","LANE":" ","ALLEY":" ","HOUSE_NO":"１７０號","E_COORD97":171540.95999999999,"N_COORD97":2535723.02,"ADDRESS":"中正路一段１７０號","OBJECTID":582918},"geometry":{"x":171540.95999999996,"y":2535723.0199999996}},{"attributes":{"ID":582946,"DIS_CODE":0,"TOWNNAME":"永康區","LI":"復華里","LIN":"16鄰","STREET":"復華七街","SECT":" ","MAREA":" ","LANE":" ","ALLEY":" ","HOUSE_NO":"１０８號","E_COORD97":172868.12,"N_COORD97":2546176.0099999998,"ADDRESS":"復華七街１０８號","OBJECTID":582919},"geometry":{"x":172868.12000000104,"y":2546176.0099999998}},{"attributes":{"ID":582947,"DIS_CODE":0,"TOWNNAME":"永康區","LI":"龍潭里","LIN":"16鄰","STREET":"龍橋街","SECT":" ","MAREA":" ","LANE":" ","ALLEY":" ","HOUSE_NO":"３５號","E_COORD97":174821.53,"N_COORD97":2548351.3399999999,"ADDRESS":"龍橋街３５號","OBJECTID":582920},"geometry":{"x":174821.53000000119,"y":2548351.3400000036}},{"attributes":{"ID":582948,"DIS_CODE":0,"TOWNNAME":"永康區","LI":"龍潭里","LIN":"16鄰","STREET":"龍橋街","SECT":" ","MAREA":" ","LANE":" ","ALLEY":" ","HOUSE_NO":"２７號","E_COORD97":174835.69,"N_COORD97":2548344.2000000002,"ADDRESS":"龍橋街２７號","OBJECTID":582921},"geometry":{"x":174835.69000000134,"y":2548344.1999999993}},{"attributes":{"ID":582949,"DIS_CODE":0,"TOWNNAME":"永康區","LI":"龍潭里","LIN":"16鄰","STREET":"龍橋街","SECT":" ","MAREA":" ","LANE":" ","ALLEY":" ","HOUSE_NO":"３１號","E_COORD97":174831.31,"N_COORD97":2548351.4500000002,"ADDRESS":"龍橋街３１號","OBJECTID":582922},"geometry":{"x":174831.31000000052,"y":2548351.4500000011}},{"attributes":{"ID":582950,"DIS_CODE":0,"TOWNNAME":"永康區","LI":"龍潭里","LIN":"16鄰","STREET":"龍橋街","SECT":" ","MAREA":" ","LANE":" ","ALLEY":" ","HOUSE_NO":"１８號","E_COORD97":174872.82999999999,"N_COORD97":2548318.9100000001,"ADDRESS":"龍橋街１８號","OBJECTID":582923},"geometry":{"x":174872.83000000007,"y":2548318.910000002}},{"attributes":{"ID":582951,"DIS_CODE":0,"TOWNNAME":"永康區","LI":"復國里","LIN":"4鄰","STREET":"復國一路","SECT":" ","MAREA":" ","LANE":" ","ALLEY":" ","HOUSE_NO":"５０號","E_COORD97":172724.82000000001,"N_COORD97":2544824.02,"ADDRESS":"復國一路５０號","OBJECTID":582924},"geometry":{"x":172724.82000000123,"y":2544824.0200000033}},{"attributes":{"ID":582952,"DIS_CODE":0,"TOWNNAME":"永康區","LI":"三民里","LIN":"12鄰","STREET":"和平路","SECT":" ","MAREA":" ","LANE":" ","ALLEY":" ","HOUSE_NO":"２２７號","E_COORD97":174737.17000000001,"N_COORD97":2550679.75,"ADDRESS":"和平路２２７號","OBJECTID":582925},"geometry":{"x":174737.17000000086,"y":2550679.75}},{"attributes":{"ID":582953,"DIS_CODE":0,"TOWNNAME":"永康區","LI":"三合里","LIN":"21鄰","STREET":"南工街","SECT":" ","MAREA":" ","LANE":" ","ALLEY":" ","HOUSE_NO":"２８１號","E_COORD97":171881.29000000001,"N_COORD97":2546003.25,"ADDRESS":"南工街２８１號","OBJECTID":582926},"geometry":{"x":171881.29000000004,"y":2546003.2500000019}},{"attributes":{"ID":582954,"DIS_CODE":0,"TOWNNAME":"永康區","LI":"網寮里","LIN":"16鄰","STREET":"永勝街","SECT":" ","MAREA":" ","LANE":" ","ALLEY":" ","HOUSE_NO":"２４１號","E_COORD97":173398.09,"N_COORD97":2546707,"ADDRESS":"永勝街２４１號","OBJECTID":582927},"geometry":{"x":173398.09000000171,"y":2546707.0000000019}},{"attributes":{"ID":582955,"DIS_CODE":0,"TOWNNAME":"永康區","LI":"龍潭里","LIN":"16鄰","STREET":"龍橋街","SECT":" ","MAREA":" ","LANE":" ","ALLEY":" ","HOUSE_NO":"３４號","E_COORD97":174848.51000000001,"N_COORD97":2548351.1600000001,"ADDRESS":"龍橋街３４號","OBJECTID":582928},"geometry":{"x":174848.51000000071,"y":2548351.1600000001}},{"attributes":{"ID":582956,"DIS_CODE":0,"TOWNNAME":"永康區","LI":"大灣里","LIN":"16鄰","STREET":"大灣路","SECT":" ","MAREA":" ","LANE":" ","ALLEY":" ","HOUSE_NO":"３３２號","E_COORD97":174862.85999999999,"N_COORD97":2545170.2799999998,"ADDRESS":"大灣路３３２號","OBJECTID":582929},"geometry":{"x":174862.86000000034,"y":2545170.2799999993}},{"attributes":{"ID":582957,"DIS_CODE":0,"TOWNNAME":"永康區","LI":"大灣里","LIN":"16鄰","STREET":"大灣路","SECT":" ","MAREA":" ","LANE":" ","ALLEY":" ","HOUSE_NO":"３４８號","E_COORD97":174846.64999999999,"N_COORD97":2545139.98,"ADDRESS":"大灣路３４８號","OBJECTID":582930},"geometry":{"x":174846.6500000013,"y":2545139.9800000004}},{"attributes":{"ID":582958,"DIS_CODE":0,"TOWNNAME":"永康區","LI":"大灣里","LIN":"16鄰","STREET":"大灣五街","SECT":" ","MAREA":" ","LANE":" ","ALLEY":" ","HOUSE_NO":"２號","E_COORD97":174857.29000000001,"N_COORD97":2545195.5,"ADDRESS":"大灣五街２號","OBJECTID":582931},"geometry":{"x":174857.29000000097,"y":2545195.5000000019}},{"attributes":{"ID":582959,"DIS_CODE":0,"TOWNNAME":"永康區","LI":"大灣里","LIN":"16鄰","STREET":"大灣路","SECT":" ","MAREA":" ","LANE":" ","ALLEY":" ","HOUSE_NO":"３３０號","E_COORD97":174866.20000000001,"N_COORD97":2545174.5299999998,"ADDRESS":"大灣路３３０號","OBJECTID":582932},"geometry":{"x":174866.20000000112,"y":2545174.5299999993}},{"attributes":{"ID":582960,"DIS_CODE":0,"TOWNNAME":"永康區","LI":"二王里","LIN":"18鄰","STREET":"中山南路","SECT":" ","MAREA":" ","LANE":" ","ALLEY":" ","HOUSE_NO":"６８２號","E_COORD97":172477.14999999999,"N_COORD97":2546701.7000000002,"ADDRESS":"中山南路６８２號","OBJECTID":582933},"geometry":{"x":172477.15000000037,"y":2546701.7000000011}},{"attributes":{"ID":582961,"DIS_CODE":0,"TOWNNAME":"永康區","LI":"二王里","LIN":"18鄰","STREET":"中山南路","SECT":" ","MAREA":" ","LANE":" ","ALLEY":" ","HOUSE_NO":"６５２號","E_COORD97":172414.64000000001,"N_COORD97":2546692.1499999999,"ADDRESS":"中山南路６５２號","OBJECTID":582934},"geometry":{"x":172414.6400000006,"y":2546692.1500000022}},{"attributes":{"ID":582962,"DIS_CODE":0,"TOWNNAME":"永康區","LI":"二王里","LIN":"8鄰","STREET":"中山南路","SECT":" ","MAREA":" ","LANE":" ","ALLEY":" ","HOUSE_NO":"８３６號","E_COORD97":172912.48999999999,"N_COORD97":2546833.6000000001,"ADDRESS":"中山南路８３６號","OBJECTID":582935},"geometry":{"x":172912.49000000022,"y":2546833.5999999978}},{"attributes":{"ID":582963,"DIS_CODE":0,"TOWNNAME":"永康區","LI":"二王里","LIN":"33鄰","STREET":"中山南路","SECT":" ","MAREA":" ","LANE":" ","ALLEY":" ","HOUSE_NO":"４６０號","E_COORD97":171999.35999999999,"N_COORD97":2546418.3399999999,"ADDRESS":"中山南路４６０號","OBJECTID":582936},"geometry":{"x":171999.36000000034,"y":2546418.3399999999}},{"attributes":{"ID":582964,"DIS_CODE":0,"TOWNNAME":"永康區","LI":"二王里","LIN":"9鄰","STREET":"中山南路","SECT":" ","MAREA":" ","LANE":" ","ALLEY":" ","HOUSE_NO":"７１０號","E_COORD97":172611.64999999999,"N_COORD97":2546728.0299999998,"ADDRESS":"中山南路７１０號","OBJECTID":582937},"geometry":{"x":172611.65000000224,"y":2546728.0299999993}},{"attributes":{"ID":582965,"DIS_CODE":0,"TOWNNAME":"永康區","LI":"大灣里","LIN":"16鄰","STREET":"大灣路","SECT":" ","MAREA":" ","LANE":" ","ALLEY":" ","HOUSE_NO":"３３０號之１","E_COORD97":174861.44,"N_COORD97":2545178.3300000001,"ADDRESS":"大灣路３３０號之１","OBJECTID":582938},"geometry":{"x":174861.44000000134,"y":2545178.3300000038}},{"attributes":{"ID":582966,"DIS_CODE":0,"TOWNNAME":"永康區","LI":"大灣里","LIN":"16鄰","STREET":"大灣路","SECT":" ","MAREA":" ","LANE":" ","ALLEY":" ","HOUSE_NO":"３１８號","E_COORD97":174877.81,"N_COORD97":2545195.3700000001,"ADDRESS":"大灣路３１８號","OBJECTID":582939},"geometry":{"x":174877.80999999959,"y":2545195.370000001}},{"attributes":{"ID":582967,"DIS_CODE":0,"TOWNNAME":"東區","LI":"泉南里","LIN":"16鄰","STREET":"樹林街","SECT":"一段","MAREA":" ","LANE":" ","ALLEY":" ","HOUSE_NO":"１１號","E_COORD97":169681.14999999999,"N_COORD97":2542896.6400000001,"ADDRESS":"樹林街一段１１號","OBJECTID":582940},"geometry":{"x":169681.1500000013,"y":2542896.6400000006}},{"attributes":{"ID":582968,"DIS_CODE":0,"TOWNNAME":"東區","LI":"泉南里","LIN":"16鄰","STREET":"樹林街","SECT":"一段","MAREA":" ","LANE":" ","ALLEY":" ","HOUSE_NO":"１３號","E_COORD97":169678.07999999999,"N_COORD97":2542897.7599999998,"ADDRESS":"樹林街一段１３號","OBJECTID":582941},"geometry":{"x":169678.08000000101,"y":2542897.7600000016}},{"attributes":{"ID":582969,"DIS_CODE":0,"TOWNNAME":"東區","LI":"泉南里","LIN":"16鄰","STREET":"樹林街","SECT":"一段","MAREA":" ","LANE":" ","ALLEY":" ","HOUSE_NO":"１５號","E_COORD97":169674.64000000001,"N_COORD97":2542898.6899999999,"ADDRESS":"樹林街一段１５號","OBJECTID":582942},"geometry":{"x":169674.63999999966,"y":2542898.6899999995}},{"attributes":{"ID":582970,"DIS_CODE":0,"TOWNNAME":"東區","LI":"泉南里","LIN":"16鄰","STREET":"樹林街","SECT":"一段","MAREA":" ","LANE":" ","ALLEY":" ","HOUSE_NO":"１７號","E_COORD97":169671.38,"N_COORD97":2542899.8999999999,"ADDRESS":"樹林街一段１７號","OBJECTID":582943},"geometry":{"x":169671.37999999989,"y":2542899.9000000041}},{"attributes":{"ID":582971,"DIS_CODE":0,"TOWNNAME":"東區","LI":"泉南里","LIN":"16鄰","STREET":"樹林街","SECT":"一段","MAREA":" ","LANE":" ","ALLEY":" ","HOUSE_NO":"７號","E_COORD97":169690.64999999999,"N_COORD97":2542893.3900000001,"ADDRESS":"樹林街一段７號","OBJECTID":582944},"geometry":{"x":169690.65000000037,"y":2542893.3900000043}},{"attributes":{"ID":582972,"DIS_CODE":0,"TOWNNAME":"東區","LI":"龍山里","LIN":"16鄰","STREET":"府東街","SECT":" ","MAREA":" ","LANE":" ","ALLEY":" ","HOUSE_NO":"１１３號","E_COORD97":169771.54000000001,"N_COORD97":2542944.7000000002,"ADDRESS":"府東街１１３號","OBJECTID":582945},"geometry":{"x":169771.54000000097,"y":2542944.7000000011}},{"attributes":{"ID":582973,"DIS_CODE":0,"TOWNNAME":"東區","LI":"龍山里","LIN":"16鄰","STREET":"府東街","SECT":" ","MAREA":" ","LANE":" ","ALLEY":" ","HOUSE_NO":"１１４號","E_COORD97":169783.63,"N_COORD97":2542974.1099999999,"ADDRESS":"府東街１１４號","OBJECTID":582946},"geometry":{"x":169783.62999999896,"y":2542974.1099999994}},{"attributes":{"ID":582974,"DIS_CODE":0,"TOWNNAME":"東區","LI":"龍山里","LIN":"16鄰","STREET":"府東街","SECT":" ","MAREA":" ","LANE":" ","ALLEY":" ","HOUSE_NO":"１１７號","E_COORD97":169774.98999999999,"N_COORD97":2542954.8900000001,"ADDRESS":"府東街１１７號","OBJECTID":582947},"geometry":{"x":169774.99000000209,"y":2542954.8900000025}},{"attributes":{"ID":582975,"DIS_CODE":0,"TOWNNAME":"東區","LI":"泉南里","LIN":"16鄰","STREET":"樹林街","SECT":"一段","MAREA":" ","LANE":" ","ALLEY":" ","HOUSE_NO":"２１號","E_COORD97":169663.75,"N_COORD97":2542901.8799999999,"ADDRESS":"樹林街一段２１號","OBJECTID":582948},"geometry":{"x":169663.75,"y":2542901.8800000027}},{"attributes":{"ID":582976,"DIS_CODE":0,"TOWNNAME":"東區","LI":"龍山里","LIN":"16鄰","STREET":"府東街","SECT":" ","MAREA":" ","LANE":" ","ALLEY":" ","HOUSE_NO":"１１５號","E_COORD97":169773.73000000001,"N_COORD97":2542949.3999999999,"ADDRESS":"府東街１１５號","OBJECTID":582949},"geometry":{"x":169773.73000000138,"y":2542949.4000000004}},{"attributes":{"ID":582977,"DIS_CODE":0,"TOWNNAME":"永康區","LI":"大灣里","LIN":"24鄰","STREET":"民族路","SECT":" ","MAREA":" ","LANE":" ","ALLEY":" ","HOUSE_NO":"３３５號","E_COORD97":175009.17000000001,"N_COORD97":2545172.6099999999,"ADDRESS":"民族路３３５號","OBJECTID":582950},"geometry":{"x":175009.16999999993,"y":2545172.6100000013}},{"attributes":{"ID":582978,"DIS_CODE":0,"TOWNNAME":"東區","LI":"小東里","LIN":"8鄰","STREET":"東和路","SECT":" ","MAREA":" ","LANE":" ","ALLEY":" ","HOUSE_NO":"９９號","E_COORD97":170831.34,"N_COORD97":2544311.1400000001,"ADDRESS":"東和路９９號","OBJECTID":582951},"geometry":{"x":170831.33999999985,"y":2544311.1400000006}},{"attributes":{"ID":582979,"DIS_CODE":0,"TOWNNAME":"永康區","LI":"大灣里","LIN":"16鄰","STREET":"大灣路","SECT":" ","MAREA":" ","LANE":" ","ALLEY":" ","HOUSE_NO":"３５４號","E_COORD97":174840.19,"N_COORD97":2545127.4399999999,"ADDRESS":"大灣路３５４號","OBJECTID":582952},"geometry":{"x":174840.19000000041,"y":2545127.4400000013}},{"attributes":{"ID":582980,"DIS_CODE":0,"TOWNNAME":"永康區","LI":"大灣里","LIN":"16鄰","STREET":"大灣路","SECT":" ","MAREA":" ","LANE":" ","ALLEY":" ","HOUSE_NO":"３４０號","E_COORD97":174854.14000000001,"N_COORD97":2545154.23,"ADDRESS":"大灣路３４０號","OBJECTID":582953},"geometry":{"x":174854.1400000006,"y":2545154.2300000004}},{"attributes":{"ID":582981,"DIS_CODE":0,"TOWNNAME":"永康區","LI":"大灣里","LIN":"16鄰","STREET":"大灣路","SECT":" ","MAREA":" ","LANE":" ","ALLEY":" ","HOUSE_NO":"３２０號","E_COORD97":174875.51000000001,"N_COORD97":2545192.0099999998,"ADDRESS":"大灣路３２０號","OBJECTID":582954},"geometry":{"x":174875.51000000071,"y":2545192.0099999998}},{"attributes":{"ID":582982,"DIS_CODE":0,"TOWNNAME":"永康區","LI":"大灣里","LIN":"16鄰","STREET":"大灣路","SECT":" ","MAREA":" ","LANE":" ","ALLEY":" ","HOUSE_NO":"３１０號","E_COORD97":174887.29000000001,"N_COORD97":2545210.5,"ADDRESS":"大灣路３１０號","OBJECTID":582955},"geometry":{"x":174887.29000000097,"y":2545210.5}},{"attributes":{"ID":582983,"DIS_CODE":0,"TOWNNAME":"永康區","LI":"大灣里","LIN":"16鄰","STREET":"大灣路","SECT":" ","MAREA":" ","LANE":" ","ALLEY":" ","HOUSE_NO":"３１６號","E_COORD97":174880.10999999999,"N_COORD97":2545199.23,"ADDRESS":"大灣路３１６號","OBJECTID":582956},"geometry":{"x":174880.1100000022,"y":2545199.2300000004}},{"attributes":{"ID":582984,"DIS_CODE":0,"TOWNNAME":"永康區","LI":"大灣里","LIN":"16鄰","STREET":"大灣路","SECT":" ","MAREA":" ","LANE":" ","ALLEY":" ","HOUSE_NO":"３０８號","E_COORD97":174889.06,"N_COORD97":2545214.4900000002,"ADDRESS":"大灣路３０８號","OBJECTID":582957},"geometry":{"x":174889.05999999959,"y":2545214.4900000039}},{"attributes":{"ID":582985,"DIS_CODE":0,"TOWNNAME":"永康區","LI":"大橋里","LIN":"16鄰","STREET":"大橋二街","SECT":" ","MAREA":" ","LANE":" ","ALLEY":" ","HOUSE_NO":"１００號","E_COORD97":170926.98000000001,"N_COORD97":2546666.7400000002,"ADDRESS":"大橋二街１００號","OBJECTID":582958},"geometry":{"x":170926.98000000138,"y":2546666.7400000002}},{"attributes":{"ID":582986,"DIS_CODE":0,"TOWNNAME":"永康區","LI":"大橋里","LIN":"16鄰","STREET":"大橋二街","SECT":" ","MAREA":" ","LANE":" ","ALLEY":" ","HOUSE_NO":"９４號","E_COORD97":170927.98999999999,"N_COORD97":2546645,"ADDRESS":"大橋二街９４號","OBJECTID":582959},"geometry":{"x":170927.99000000115,"y":2546645.0000000037}},{"attributes":{"ID":582987,"DIS_CODE":0,"TOWNNAME":"永康區","LI":"大橋里","LIN":"16鄰","STREET":"大橋二街","SECT":" ","MAREA":" ","LANE":" ","ALLEY":" ","HOUSE_NO":"７８號","E_COORD97":170901.64000000001,"N_COORD97":2546651,"ADDRESS":"大橋二街７８號","OBJECTID":582960},"geometry":{"x":170901.63999999966,"y":2546651}},{"attributes":{"ID":582988,"DIS_CODE":0,"TOWNNAME":"永康區","LI":"大橋里","LIN":"16鄰","STREET":"大橋二街","SECT":" ","MAREA":" ","LANE":" ","ALLEY":" ","HOUSE_NO":"８４號","E_COORD97":170924.88,"N_COORD97":2546632.25,"ADDRESS":"大橋二街８４號","OBJECTID":582961},"geometry":{"x":170924.88000000082,"y":2546632.25}},{"attributes":{"ID":582989,"DIS_CODE":0,"TOWNNAME":"永康區","LI":"大橋里","LIN":"16鄰","STREET":"大橋二街","SECT":" ","MAREA":" ","LANE":" ","ALLEY":" ","HOUSE_NO":"９２號","E_COORD97":170931.17999999999,"N_COORD97":2546638.75,"ADDRESS":"大橋二街９２號","OBJECTID":582962},"geometry":{"x":170931.18000000063,"y":2546638.75}},{"attributes":{"ID":582990,"DIS_CODE":0,"TOWNNAME":"仁德區","LI":"仁德里","LIN":"16鄰","STREET":"中山路","SECT":" ","MAREA":" ","LANE":" ","ALLEY":" ","HOUSE_NO":"６７７號","E_COORD97":173125.29999999999,"N_COORD97":2541354.5,"ADDRESS":"中山路６７７號","OBJECTID":582963},"geometry":{"x":173125.29999999888,"y":2541354.5}},{"attributes":{"ID":582991,"DIS_CODE":0,"TOWNNAME":"永康區","LI":"大橋里","LIN":"15鄰","STREET":"大橋二街","SECT":" ","MAREA":" ","LANE":" ","ALLEY":" ","HOUSE_NO":"４６號","E_COORD97":170818.57999999999,"N_COORD97":2546586.8100000001,"ADDRESS":"大橋二街４６號","OBJECTID":582964},"geometry":{"x":170818.58000000101,"y":2546586.8100000024}},{"attributes":{"ID":582992,"DIS_CODE":0,"TOWNNAME":"永康區","LI":"大橋里","LIN":"9鄰","STREET":"大橋五街","SECT":" ","MAREA":" ","LANE":" ","ALLEY":" ","HOUSE_NO":"１４８號","E_COORD97":171019.51999999999,"N_COORD97":2546997.7999999998,"ADDRESS":"大橋五街１４８號","OBJECTID":582965},"geometry":{"x":171019.51999999955,"y":2546997.8000000026}},{"attributes":{"ID":582993,"DIS_CODE":0,"TOWNNAME":"仁德區","LI":"太子里","LIN":"16鄰","STREET":"太興路","SECT":" ","MAREA":" ","LANE":" ","ALLEY":" ","HOUSE_NO":"１２９號","E_COORD97":174094.26000000001,"N_COORD97":2543606.75,"ADDRESS":"太興路１２９號","OBJECTID":582966},"geometry":{"x":174094.26000000071,"y":2543606.7500000019}},{"attributes":{"ID":582994,"DIS_CODE":0,"TOWNNAME":"仁德區","LI":"仁德里","LIN":"16鄰","STREET":"中山路","SECT":" ","MAREA":" ","LANE":" ","ALLEY":" ","HOUSE_NO":"６６３號","E_COORD97":173170.70999999999,"N_COORD97":2541339.5,"ADDRESS":"中山路６６３號","OBJECTID":582967},"geometry":{"x":173170.71000000089,"y":2541339.5000000019}},{"attributes":{"ID":582995,"DIS_CODE":0,"TOWNNAME":"中西區","LI":"水仙里","LIN":"16鄰","STREET":"國華街","SECT":"三段","MAREA":" ","LANE":" ","ALLEY":" ","HOUSE_NO":"１７２號","E_COORD97":167875.92999999999,"N_COORD97":2544206.1899999999,"ADDRESS":"國華街三段１７２號","OBJECTID":582968},"geometry":{"x":167875.9299999997,"y":2544206.1900000013}},{"attributes":{"ID":582996,"DIS_CODE":0,"TOWNNAME":"中西區","LI":"水仙里","LIN":"16鄰","STREET":"國華街","SECT":"三段","MAREA":" ","LANE":" ","ALLEY":" ","HOUSE_NO":"１７４號","E_COORD97":167878.98999999999,"N_COORD97":2544210.7799999998,"ADDRESS":"國華街三段１７４號","OBJECTID":582969},"geometry":{"x":167878.99000000022,"y":2544210.7799999993}},{"attributes":{"ID":582997,"DIS_CODE":0,"TOWNNAME":"中西區","LI":"水仙里","LIN":"16鄰","STREET":"國華街","SECT":"三段","MAREA":" ","LANE":" ","ALLEY":" ","HOUSE_NO":"１７６號","E_COORD97":167879.41,"N_COORD97":2544214.3999999999,"ADDRESS":"國華街三段１７６號","OBJECTID":582970},"geometry":{"x":167879.41000000015,"y":2544214.4000000004}},{"attributes":{"ID":582998,"DIS_CODE":0,"TOWNNAME":"中西區","LI":"水仙里","LIN":"16鄰","STREET":"國華街","SECT":"三段","MAREA":" ","LANE":" ","ALLEY":" ","HOUSE_NO":"１７８號","E_COORD97":167881.91,"N_COORD97":2544218.5699999998,"ADDRESS":"國華街三段１７８號","OBJECTID":582971},"geometry":{"x":167881.91000000201,"y":2544218.5700000022}},{"attributes":{"ID":582999,"DIS_CODE":0,"TOWNNAME":"中西區","LI":"水仙里","LIN":"16鄰","STREET":"國華街","SECT":"三段","MAREA":" ","LANE":" ","ALLEY":" ","HOUSE_NO":"１８０號","E_COORD97":167884.28,"N_COORD97":2544223.4399999999,"ADDRESS":"國華街三段１８０號","OBJECTID":582972},"geometry":{"x":167884.28000000026,"y":2544223.4399999995}},{"attributes":{"ID":583000,"DIS_CODE":0,"TOWNNAME":"中西區","LI":"水仙里","LIN":"16鄰","STREET":"國華街","SECT":"三段","MAREA":" ","LANE":" ","ALLEY":" ","HOUSE_NO":"１８２號","E_COORD97":167886.51000000001,"N_COORD97":2544228.1699999999,"ADDRESS":"國華街三段１８２號","OBJECTID":582973},"geometry":{"x":167886.51000000071,"y":2544228.1699999999}},{"attributes":{"ID":583001,"DIS_CODE":0,"TOWNNAME":"永康區","LI":"三民里","LIN":"13鄰","STREET":"和平路","SECT":" ","MAREA":" ","LANE":" ","ALLEY":" ","HOUSE_NO":"２９７號","E_COORD97":174447.54000000001,"N_COORD97":2551281.04,"ADDRESS":"和平路２９７號","OBJECTID":582974},"geometry":{"x":174447.54000000004,"y":2551281.0399999991}},{"attributes":{"ID":583002,"DIS_CODE":0,"TOWNNAME":"永康區","LI":"大橋里","LIN":"6鄰","STREET":"大橋五街","SECT":" ","MAREA":" ","LANE":" ","ALLEY":" ","HOUSE_NO":"５０號","E_COORD97":170856.85999999999,"N_COORD97":2546889.5800000001,"ADDRESS":"大橋五街５０號","OBJECTID":582975},"geometry":{"x":170856.86000000034,"y":2546889.5800000019}},{"attributes":{"ID":583003,"DIS_CODE":0,"TOWNNAME":"永康區","LI":"大橋里","LIN":"28鄰","STREET":"中華路","SECT":" ","MAREA":" ","LANE":" ","ALLEY":" ","HOUSE_NO":"６４６號","E_COORD97":171091.64999999999,"N_COORD97":2546118,"ADDRESS":"中華路６４６號","OBJECTID":582976},"geometry":{"x":171091.6500000013,"y":2546118}},{"attributes":{"ID":583004,"DIS_CODE":0,"TOWNNAME":"永康區","LI":"三民里","LIN":"7鄰","STREET":"三民街","SECT":" ","MAREA":" ","LANE":" ","ALLEY":" ","HOUSE_NO":"１４６號","E_COORD97":172767.23000000001,"N_COORD97":2550384.79,"ADDRESS":"三民街１４６號","OBJECTID":582977},"geometry":{"x":172767.23000000231,"y":2550384.7899999991}},{"attributes":{"ID":583005,"DIS_CODE":0,"TOWNNAME":"永康區","LI":"大橋里","LIN":"6鄰","STREET":"大橋五街","SECT":" ","MAREA":" ","LANE":" ","ALLEY":" ","HOUSE_NO":"１１６號","E_COORD97":170957.89000000001,"N_COORD97":2546960.71,"ADDRESS":"大橋五街１１６號","OBJECTID":582978},"geometry":{"x":170957.88999999966,"y":2546960.7100000028}},{"attributes":{"ID":583006,"DIS_CODE":0,"TOWNNAME":"永康區","LI":"大橋里","LIN":"9鄰","STREET":"大橋五街","SECT":" ","MAREA":" ","LANE":" ","ALLEY":" ","HOUSE_NO":"１４６號","E_COORD97":171015.57999999999,"N_COORD97":2546995.5499999998,"ADDRESS":"大橋五街１４６號","OBJECTID":582979},"geometry":{"x":171015.58000000101,"y":2546995.5500000026}},{"attributes":{"ID":583007,"DIS_CODE":0,"TOWNNAME":"永康區","LI":"大橋里","LIN":"28鄰","STREET":"中華路","SECT":" ","MAREA":" ","LANE":" ","ALLEY":" ","HOUSE_NO":"６５４號","E_COORD97":171083.29000000001,"N_COORD97":2546132.75,"ADDRESS":"中華路６５４號","OBJECTID":582980},"geometry":{"x":171083.29000000097,"y":2546132.7500000019}},{"attributes":{"ID":583008,"DIS_CODE":0,"TOWNNAME":"善化區","LI":"東關里","LIN":"16鄰","STREET":"大信路","SECT":" ","MAREA":" ","LANE":" ","ALLEY":" ","HOUSE_NO":"１２號","E_COORD97":177486.26999999999,"N_COORD97":2559002.5,"ADDRESS":"大信路１２號","OBJECTID":582981},"geometry":{"x":177486.26999999955,"y":2559002.5}},{"attributes":{"ID":583009,"DIS_CODE":0,"TOWNNAME":"善化區","LI":"東關里","LIN":"16鄰","STREET":"中興路","SECT":" ","MAREA":" ","LANE":" ","ALLEY":" ","HOUSE_NO":"１０９號","E_COORD97":177459,"N_COORD97":2558999.25,"ADDRESS":"中興路１０９號","OBJECTID":582982},"geometry":{"x":177459.00000000186,"y":2558999.2500000019}},{"attributes":{"ID":583010,"DIS_CODE":0,"TOWNNAME":"善化區","LI":"東關里","LIN":"16鄰","STREET":"大信路","SECT":" ","MAREA":" ","LANE":" ","ALLEY":" ","HOUSE_NO":"１８號之３","E_COORD97":177500.20000000001,"N_COORD97":2558977.52,"ADDRESS":"大信路１８號之３","OBJECTID":582983},"geometry":{"x":177500.20000000205,"y":2558977.5199999996}},{"attributes":{"ID":583011,"DIS_CODE":0,"TOWNNAME":"善化區","LI":"東關里","LIN":"16鄰","STREET":"大信路","SECT":" ","MAREA":" ","LANE":" ","ALLEY":" ","HOUSE_NO":"２０號之１","E_COORD97":177505.10999999999,"N_COORD97":2558958.77,"ADDRESS":"大信路２０號之１","OBJECTID":582984},"geometry":{"x":177505.11000000034,"y":2558958.7699999996}},{"attributes":{"ID":583012,"DIS_CODE":0,"TOWNNAME":"善化區","LI":"東關里","LIN":"16鄰","STREET":"中和街","SECT":" ","MAREA":" ","LANE":" ","ALLEY":" ","HOUSE_NO":"５號之１","E_COORD97":177448.85999999999,"N_COORD97":2558968.02,"ADDRESS":"中和街５號之１","OBJECTID":582985},"geometry":{"x":177448.86000000127,"y":2558968.0199999996}},{"attributes":{"ID":583013,"DIS_CODE":0,"TOWNNAME":"善化區","LI":"坐駕里","LIN":"16鄰","STREET":"健康街","SECT":" ","MAREA":" ","LANE":" ","ALLEY":" ","HOUSE_NO":"６號","E_COORD97":178909.53,"N_COORD97":2558881.77,"ADDRESS":"健康街６號","OBJECTID":582986},"geometry":{"x":178909.53000000026,"y":2558881.7699999977}},{"attributes":{"ID":583014,"DIS_CODE":0,"TOWNNAME":"善化區","LI":"文昌里","LIN":"16鄰","STREET":"中正路","SECT":" ","MAREA":" ","LANE":" ","ALLEY":" ","HOUSE_NO":"３３８號","E_COORD97":177713.78,"N_COORD97":2558574.8300000001,"ADDRESS":"中正路３３８號","OBJECTID":582987},"geometry":{"x":177713.78000000119,"y":2558574.8300000019}},{"attributes":{"ID":583015,"DIS_CODE":0,"TOWNNAME":"善化區","LI":"東關里","LIN":"16鄰","STREET":"中和街","SECT":" ","MAREA":" ","LANE":" ","ALLEY":" ","HOUSE_NO":"７號","E_COORD97":177452.29000000001,"N_COORD97":2558953.3199999998,"ADDRESS":"中和街７號","OBJECTID":582988},"geometry":{"x":177452.29000000097,"y":2558953.3200000003}},{"attributes":{"ID":583016,"DIS_CODE":0,"TOWNNAME":"善化區","LI":"光文里","LIN":"16鄰","STREET":"民族路","SECT":" ","MAREA":" ","LANE":" ","ALLEY":" ","HOUSE_NO":"１４５號","E_COORD97":178206.57999999999,"N_COORD97":2559081.6299999999,"ADDRESS":"民族路１４５號","OBJECTID":582989},"geometry":{"x":178206.58000000101,"y":2559081.629999999}},{"attributes":{"ID":583017,"DIS_CODE":0,"TOWNNAME":"善化區","LI":"文昌里","LIN":"16鄰","STREET":"光復一街","SECT":" ","MAREA":" ","LANE":" ","ALLEY":" ","HOUSE_NO":"５１號","E_COORD97":177644.37,"N_COORD97":2558670.6299999999,"ADDRESS":"光復一街５１號","OBJECTID":582990},"geometry":{"x":177644.37000000011,"y":2558670.629999999}},{"attributes":{"ID":583018,"DIS_CODE":0,"TOWNNAME":"善化區","LI":"文昌里","LIN":"16鄰","STREET":"光復一街","SECT":" ","MAREA":" ","LANE":" ","ALLEY":" ","HOUSE_NO":"５３號","E_COORD97":177638.51000000001,"N_COORD97":2558678.3500000001,"ADDRESS":"光復一街５３號","OBJECTID":582991},"geometry":{"x":177638.51000000071,"y":2558678.3500000034}},{"attributes":{"ID":583019,"DIS_CODE":0,"TOWNNAME":"善化區","LI":"文昌里","LIN":"16鄰","STREET":"光復一街","SECT":" ","MAREA":" ","LANE":" ","ALLEY":" ","HOUSE_NO":"５５號","E_COORD97":177632.35999999999,"N_COORD97":2558685.2799999998,"ADDRESS":"光復一街５５號","OBJECTID":582992},"geometry":{"x":177632.36000000034,"y":2558685.2800000031}},{"attributes":{"ID":583020,"DIS_CODE":0,"TOWNNAME":"善化區","LI":"文昌里","LIN":"16鄰","STREET":"光復一街","SECT":" ","MAREA":" ","LANE":" ","ALLEY":" ","HOUSE_NO":"５７號","E_COORD97":177626.23999999999,"N_COORD97":2558692.96,"ADDRESS":"光復一街５７號","OBJECTID":582993},"geometry":{"x":177626.24000000022,"y":2558692.9600000028}},{"attributes":{"ID":583021,"DIS_CODE":0,"TOWNNAME":"善化區","LI":"文昌里","LIN":"16鄰","STREET":"光復二街","SECT":" ","MAREA":" ","LANE":" ","ALLEY":" ","HOUSE_NO":"６１號","E_COORD97":177629.39000000001,"N_COORD97":2558600.5899999999,"ADDRESS":"光復二街６１號","OBJECTID":582994},"geometry":{"x":177629.3900000006,"y":2558600.5899999999}},{"attributes":{"ID":583022,"DIS_CODE":0,"TOWNNAME":"善化區","LI":"文昌里","LIN":"16鄰","STREET":"光復二街","SECT":" ","MAREA":" ","LANE":" ","ALLEY":" ","HOUSE_NO":"６３號","E_COORD97":177624.07999999999,"N_COORD97":2558604.25,"ADDRESS":"光復二街６３號","OBJECTID":582995},"geometry":{"x":177624.08000000007,"y":2558604.25}},{"attributes":{"ID":583023,"DIS_CODE":0,"TOWNNAME":"善化區","LI":"文昌里","LIN":"16鄰","STREET":"光復二街","SECT":" ","MAREA":" ","LANE":" ","ALLEY":" ","HOUSE_NO":"６５號","E_COORD97":177619.45999999999,"N_COORD97":2558607.8599999999,"ADDRESS":"光復二街６５號","OBJECTID":582996},"geometry":{"x":177619.45999999996,"y":2558607.8600000013}},{"attributes":{"ID":583024,"DIS_CODE":0,"TOWNNAME":"善化區","LI":"文昌里","LIN":"16鄰","STREET":"光復二街","SECT":" ","MAREA":" ","LANE":" ","ALLEY":" ","HOUSE_NO":"６７號","E_COORD97":177614.57000000001,"N_COORD97":2558611.7000000002,"ADDRESS":"光復二街６７號","OBJECTID":582997},"geometry":{"x":177614.56999999937,"y":2558611.7000000011}},{"attributes":{"ID":583025,"DIS_CODE":0,"TOWNNAME":"善化區","LI":"文昌里","LIN":"16鄰","STREET":"光復二街","SECT":" ","MAREA":" ","LANE":" ","ALLEY":" ","HOUSE_NO":"６９號","E_COORD97":177610.09,"N_COORD97":2558615.5499999998,"ADDRESS":"光復二街６９號","OBJECTID":582998},"geometry":{"x":177610.08999999985,"y":2558615.5500000007}},{"attributes":{"ID":583026,"DIS_CODE":0,"TOWNNAME":"善化區","LI":"文昌里","LIN":"16鄰","STREET":"光復二街","SECT":" ","MAREA":" ","LANE":" ","ALLEY":" ","HOUSE_NO":"７１號","E_COORD97":177605.35999999999,"N_COORD97":2558619.5499999998,"ADDRESS":"光復二街７１號","OBJECTID":582999},"geometry":{"x":177605.36000000034,"y":2558619.5500000007}},{"attributes":{"ID":583027,"DIS_CODE":0,"TOWNNAME":"善化區","LI":"文昌里","LIN":"16鄰","STREET":"光復二街","SECT":" ","MAREA":" ","LANE":" ","ALLEY":" ","HOUSE_NO":"７３號","E_COORD97":177601.35000000001,"N_COORD97":2558623.77,"ADDRESS":"光復二街７３號","OBJECTID":583000},"geometry":{"x":177601.34999999963,"y":2558623.7699999996}}]}