{"displayFieldName":"TOWNNAME","fieldAliases":{"ID":"ID","DIS_CODE":"DIS_CODE","TOWNNAME":"TOWNNAME","LI":"LI","LIN":"LIN","STREET":"STREET","SECT":"SECT","MAREA":"MAREA","LANE":"LANE","ALLEY":"ALLEY","HOUSE_NO":"HOUSE_NO","E_COORD97":"E_COORD97","N_COORD97":"N_COORD97","ADDRESS":"ADDRESS","OBJECTID":"OBJECTID"},"geometryType":"esriGeometryPoint","spatialReference":{"wkid":102443,"latestWkid":3826},"fields":[{"name":"ID","type":"esriFieldTypeDouble","alias":"ID"},{"name":"DIS_CODE","type":"esriFieldTypeInteger","alias":"DIS_CODE"},{"name":"TOWNNAME","type":"esriFieldTypeString","alias":"TOWNNAME","length":8},{"name":"LI","type":"esriFieldTypeString","alias":"LI","length":8},{"name":"LIN","type":"esriFieldTypeString","alias":"LIN","length":12},{"name":"STREET","type":"esriFieldTypeString","alias":"STREET","length":20},{"name":"SECT","type":"esriFieldTypeString","alias":"SECT","length":8},{"name":"MAREA","type":"esriFieldTypeString","alias":"MAREA","length":12},{"name":"LANE","type":"esriFieldTypeString","alias":"LANE","length":10},{"name":"ALLEY","type":"esriFieldTypeString","alias":"ALLEY","length":10},{"name":"HOUSE_NO","type":"esriFieldTypeString","alias":"HOUSE_NO","length":20},{"name":"E_COORD97","type":"esriFieldTypeDouble","alias":"E_COORD97"},{"name":"N_COORD97","type":"esriFieldTypeDouble","alias":"N_COORD97"},{"name":"ADDRESS","type":"esriFieldTypeString","alias":"ADDRESS","length":50},{"name":"OBJECTID","type":"esriFieldTypeOID","alias":"OBJECTID"}],"features":[{"attributes":{"ID":134201,"DIS_CODE":0,"TOWNNAME":"安南區","LI":"安順里","LIN":"11鄰","STREET":"安和路","SECT":"四段","MAREA":" ","LANE":"９４巷","ALLEY":"１０弄","HOUSE_NO":"１１號","E_COORD97":170018.95000000001,"N_COORD97":2550224.3300000001,"ADDRESS":"安和路四段９４巷１０弄１１號","OBJECTID":134201},"geometry":{"x":170018.95000000019,"y":2550224.3300000019}},{"attributes":{"ID":134202,"DIS_CODE":0,"TOWNNAME":"安南區","LI":"安順里","LIN":"11鄰","STREET":"安和路","SECT":"四段","MAREA":" ","LANE":"９４巷","ALLEY":"１０弄","HOUSE_NO":"２號","E_COORD97":169985.32999999999,"N_COORD97":2550272.8599999999,"ADDRESS":"安和路四段９４巷１０弄２號","OBJECTID":134202},"geometry":{"x":169985.33000000007,"y":2550272.8599999975}},{"attributes":{"ID":134203,"DIS_CODE":0,"TOWNNAME":"安南區","LI":"安順里","LIN":"11鄰","STREET":"安和路","SECT":"四段","MAREA":" ","LANE":"９４巷","ALLEY":"１０弄","HOUSE_NO":"３號","E_COORD97":170022.67000000001,"N_COORD97":2550279.1299999999,"ADDRESS":"安和路四段９４巷１０弄３號","OBJECTID":134203},"geometry":{"x":170022.67000000179,"y":2550279.1300000008}},{"attributes":{"ID":134204,"DIS_CODE":0,"TOWNNAME":"安南區","LI":"安順里","LIN":"11鄰","STREET":"安和路","SECT":"四段","MAREA":" ","LANE":"９４巷","ALLEY":"１０弄","HOUSE_NO":"４號","E_COORD97":169990.22,"N_COORD97":2550261.52,"ADDRESS":"安和路四段９４巷１０弄４號","OBJECTID":134204},"geometry":{"x":169990.22000000067,"y":2550261.5199999996}},{"attributes":{"ID":134205,"DIS_CODE":0,"TOWNNAME":"安南區","LI":"安順里","LIN":"11鄰","STREET":"安和路","SECT":"四段","MAREA":" ","LANE":"９４巷","ALLEY":"１０弄","HOUSE_NO":"５號","E_COORD97":170025.64999999999,"N_COORD97":2550267.75,"ADDRESS":"安和路四段９４巷１０弄５號","OBJECTID":134205},"geometry":{"x":170025.6500000013,"y":2550267.7500000037}},{"attributes":{"ID":134206,"DIS_CODE":0,"TOWNNAME":"佳里區","LI":"通興里","LIN":"6鄰","STREET":" ","SECT":" ","MAREA":"東勢寮","LANE":" ","ALLEY":" ","HOUSE_NO":"２７號之５","E_COORD97":163734.25,"N_COORD97":2560348.0800000001,"ADDRESS":"東勢寮２７號之５","OBJECTID":134206},"geometry":{"x":163734.25,"y":2560348.0800000001}},{"attributes":{"ID":134207,"DIS_CODE":0,"TOWNNAME":"佳里區","LI":"通興里","LIN":"6鄰","STREET":" ","SECT":" ","MAREA":"東勢寮","LANE":" ","ALLEY":" ","HOUSE_NO":"２７號","E_COORD97":163795.07999999999,"N_COORD97":2560362.3300000001,"ADDRESS":"東勢寮２７號","OBJECTID":134207},"geometry":{"x":163795.07999999914,"y":2560362.3300000001}},{"attributes":{"ID":134208,"DIS_CODE":0,"TOWNNAME":"佳里區","LI":"通興里","LIN":"6鄰","STREET":" ","SECT":" ","MAREA":"東勢寮","LANE":" ","ALLEY":" ","HOUSE_NO":"２８號之１","E_COORD97":163796.79999999999,"N_COORD97":2560325.5299999998,"ADDRESS":"東勢寮２８號之１","OBJECTID":134208},"geometry":{"x":163796.80000000168,"y":2560325.5300000012}},{"attributes":{"ID":134209,"DIS_CODE":0,"TOWNNAME":"佳里區","LI":"通興里","LIN":"6鄰","STREET":" ","SECT":" ","MAREA":"東勢寮","LANE":" ","ALLEY":" ","HOUSE_NO":"２８號之２","E_COORD97":163801.73999999999,"N_COORD97":2560324.02,"ADDRESS":"東勢寮２８號之２","OBJECTID":134209},"geometry":{"x":163801.74000000115,"y":2560324.0199999996}},{"attributes":{"ID":134210,"DIS_CODE":0,"TOWNNAME":"佳里區","LI":"通興里","LIN":"6鄰","STREET":" ","SECT":" ","MAREA":"東勢寮","LANE":" ","ALLEY":" ","HOUSE_NO":"３０號","E_COORD97":163765.95999999999,"N_COORD97":2560312.1099999999,"ADDRESS":"東勢寮３０號","OBJECTID":134210},"geometry":{"x":163765.96000000089,"y":2560312.1099999994}},{"attributes":{"ID":134211,"DIS_CODE":0,"TOWNNAME":"佳里區","LI":"通興里","LIN":"6鄰","STREET":" ","SECT":" ","MAREA":"東勢寮","LANE":" ","ALLEY":" ","HOUSE_NO":"３７號之１","E_COORD97":163565.12,"N_COORD97":2560259.7999999998,"ADDRESS":"東勢寮３７號之１","OBJECTID":134211},"geometry":{"x":163565.12000000104,"y":2560259.8000000026}},{"attributes":{"ID":134212,"DIS_CODE":0,"TOWNNAME":"佳里區","LI":"通興里","LIN":"6鄰","STREET":" ","SECT":" ","MAREA":"東勢寮","LANE":" ","ALLEY":" ","HOUSE_NO":"３７號之２","E_COORD97":163574.42000000001,"N_COORD97":2560251.98,"ADDRESS":"東勢寮３７號之２","OBJECTID":134212},"geometry":{"x":163574.42000000086,"y":2560251.9800000023}},{"attributes":{"ID":134213,"DIS_CODE":0,"TOWNNAME":"佳里區","LI":"通興里","LIN":"6鄰","STREET":" ","SECT":" ","MAREA":"東勢寮","LANE":" ","ALLEY":" ","HOUSE_NO":"３８號","E_COORD97":163629.67000000001,"N_COORD97":2560316.46,"ADDRESS":"東勢寮３８號","OBJECTID":134213},"geometry":{"x":163629.66999999993,"y":2560316.4600000046}},{"attributes":{"ID":134214,"DIS_CODE":0,"TOWNNAME":"佳里區","LI":"通興里","LIN":"6鄰","STREET":" ","SECT":" ","MAREA":"東勢寮","LANE":" ","ALLEY":" ","HOUSE_NO":"３９號","E_COORD97":163653.54999999999,"N_COORD97":2560289.8399999999,"ADDRESS":"東勢寮３９號","OBJECTID":134214},"geometry":{"x":163653.55000000075,"y":2560289.8400000017}},{"attributes":{"ID":134215,"DIS_CODE":0,"TOWNNAME":"安南區","LI":"安順里","LIN":"11鄰","STREET":"安和路","SECT":"四段","MAREA":" ","LANE":"９４巷","ALLEY":"１０弄","HOUSE_NO":"９號","E_COORD97":170019.20000000001,"N_COORD97":2550227.7999999998,"ADDRESS":"安和路四段９４巷１０弄９號","OBJECTID":134215},"geometry":{"x":170019.20000000205,"y":2550227.8000000026}},{"attributes":{"ID":134216,"DIS_CODE":0,"TOWNNAME":"仁德區","LI":"保安里","LIN":"4鄰","STREET":"文賢路","SECT":"一段","MAREA":" ","LANE":"８３４巷","ALLEY":"１８弄","HOUSE_NO":"６號","E_COORD97":171440.01000000001,"N_COORD97":2536196.8300000001,"ADDRESS":"文賢路一段８３４巷１８弄６號","OBJECTID":134216},"geometry":{"x":171440.00999999978,"y":2536196.8299999982}},{"attributes":{"ID":134217,"DIS_CODE":0,"TOWNNAME":"仁德區","LI":"後壁里","LIN":"12鄰","STREET":"德善路","SECT":" ","MAREA":" ","LANE":"２４０巷","ALLEY":"３１弄","HOUSE_NO":"４號","E_COORD97":173826.07000000001,"N_COORD97":2538566.02,"ADDRESS":"德善路２４０巷３１弄４號","OBJECTID":134217},"geometry":{"x":173826.07000000123,"y":2538566.0200000014}},{"attributes":{"ID":134218,"DIS_CODE":0,"TOWNNAME":"仁德區","LI":"後壁里","LIN":"32鄰","STREET":"德洋路","SECT":" ","MAREA":" ","LANE":"２０５巷","ALLEY":"１０弄","HOUSE_NO":"２號","E_COORD97":172486.06,"N_COORD97":2539525.5099999998,"ADDRESS":"德洋路２０５巷１０弄２號","OBJECTID":134218},"geometry":{"x":172486.06000000145,"y":2539525.5100000016}},{"attributes":{"ID":134219,"DIS_CODE":0,"TOWNNAME":"仁德區","LI":"後壁里","LIN":"12鄰","STREET":"德善路","SECT":" ","MAREA":" ","LANE":"２４０巷","ALLEY":"３１弄","HOUSE_NO":"１１號","E_COORD97":173863.89000000001,"N_COORD97":2538562.52,"ADDRESS":"德善路２４０巷３１弄１１號","OBJECTID":134219},"geometry":{"x":173863.89000000153,"y":2538562.5200000014}},{"attributes":{"ID":134220,"DIS_CODE":0,"TOWNNAME":"將軍區","LI":"苓和里","LIN":"5鄰","STREET":" ","SECT":" ","MAREA":"苓和","LANE":" ","ALLEY":" ","HOUSE_NO":"５３號","E_COORD97":164599.85999999999,"N_COORD97":2568973.9199999999,"ADDRESS":"苓和５３號","OBJECTID":134220},"geometry":{"x":164599.86000000034,"y":2568973.9199999999}},{"attributes":{"ID":134221,"DIS_CODE":0,"TOWNNAME":"仁德區","LI":"成功里","LIN":"3鄰","STREET":"保生東路","SECT":" ","MAREA":" ","LANE":"２１８巷","ALLEY":"６６弄","HOUSE_NO":"１號","E_COORD97":171233.56,"N_COORD97":2539662.0800000001,"ADDRESS":"保生東路２１８巷６６弄１號","OBJECTID":134221},"geometry":{"x":171233.56000000052,"y":2539662.0800000001}},{"attributes":{"ID":134222,"DIS_CODE":0,"TOWNNAME":"仁德區","LI":"成功里","LIN":"18鄰","STREET":"全福路","SECT":" ","MAREA":" ","LANE":"７５巷","ALLEY":"１４弄","HOUSE_NO":"２３號","E_COORD97":171106.98999999999,"N_COORD97":2539352.7400000002,"ADDRESS":"全福路７５巷１４弄２３號","OBJECTID":134222},"geometry":{"x":171106.99000000022,"y":2539352.7400000002}},{"attributes":{"ID":134223,"DIS_CODE":0,"TOWNNAME":"仁德區","LI":"成功里","LIN":"15鄰","STREET":"全福路","SECT":" ","MAREA":" ","LANE":"８０巷","ALLEY":"１４弄","HOUSE_NO":"６號","E_COORD97":170996.87,"N_COORD97":2539276.75,"ADDRESS":"全福路８０巷１４弄６號","OBJECTID":134223},"geometry":{"x":170996.87000000104,"y":2539276.7500000019}},{"attributes":{"ID":134224,"DIS_CODE":0,"TOWNNAME":"仁德區","LI":"後壁里","LIN":"2鄰","STREET":"德安路","SECT":" ","MAREA":" ","LANE":"３２巷","ALLEY":"１３弄","HOUSE_NO":"２號","E_COORD97":173321.37,"N_COORD97":2539140.5600000001,"ADDRESS":"德安路３２巷１３弄２號","OBJECTID":134224},"geometry":{"x":173321.37000000011,"y":2539140.5600000005}},{"attributes":{"ID":134225,"DIS_CODE":0,"TOWNNAME":"北區","LI":"振興里","LIN":"11鄰","STREET":"開元路","SECT":" ","MAREA":" ","LANE":"１４８巷","ALLEY":"１０１弄","HOUSE_NO":"１１號","E_COORD97":170124.17000000001,"N_COORD97":2545024.6000000001,"ADDRESS":"開元路１４８巷１０１弄１１號","OBJECTID":134225},"geometry":{"x":170124.16999999899,"y":2545024.6000000015}},{"attributes":{"ID":134226,"DIS_CODE":0,"TOWNNAME":"北區","LI":"振興里","LIN":"11鄰","STREET":"開元路","SECT":" ","MAREA":" ","LANE":"１４８巷","ALLEY":"１０１弄","HOUSE_NO":"１３號","E_COORD97":170129.17999999999,"N_COORD97":2545025.6899999999,"ADDRESS":"開元路１４８巷１０１弄１３號","OBJECTID":134226},"geometry":{"x":170129.18000000063,"y":2545025.6899999976}},{"attributes":{"ID":134227,"DIS_CODE":0,"TOWNNAME":"北區","LI":"振興里","LIN":"11鄰","STREET":"開元路","SECT":" ","MAREA":" ","LANE":"１４８巷","ALLEY":"１０１弄","HOUSE_NO":"１５號","E_COORD97":170133.66,"N_COORD97":2545027.21,"ADDRESS":"開元路１４８巷１０１弄１５號","OBJECTID":134227},"geometry":{"x":170133.66000000108,"y":2545027.2100000046}},{"attributes":{"ID":134228,"DIS_CODE":0,"TOWNNAME":"北區","LI":"振興里","LIN":"11鄰","STREET":"開元路","SECT":" ","MAREA":" ","LANE":"１４８巷","ALLEY":"１０１弄","HOUSE_NO":"１７號","E_COORD97":170138.56,"N_COORD97":2545027.98,"ADDRESS":"開元路１４８巷１０１弄１７號","OBJECTID":134228},"geometry":{"x":170138.56000000052,"y":2545027.9800000004}},{"attributes":{"ID":134229,"DIS_CODE":0,"TOWNNAME":"北區","LI":"振興里","LIN":"11鄰","STREET":"開元路","SECT":" ","MAREA":" ","LANE":"１４８巷","ALLEY":"１０１弄","HOUSE_NO":"１９號","E_COORD97":170142.82000000001,"N_COORD97":2545028.6299999999,"ADDRESS":"開元路１４８巷１０１弄１９號","OBJECTID":134229},"geometry":{"x":170142.82000000123,"y":2545028.629999999}},{"attributes":{"ID":134230,"DIS_CODE":0,"TOWNNAME":"北區","LI":"振興里","LIN":"11鄰","STREET":"開元路","SECT":" ","MAREA":" ","LANE":"１４８巷","ALLEY":"１０１弄","HOUSE_NO":"１號","E_COORD97":170092.78,"N_COORD97":2545018.2799999998,"ADDRESS":"開元路１４８巷１０１弄１號","OBJECTID":134230},"geometry":{"x":170092.78000000026,"y":2545018.2800000031}},{"attributes":{"ID":134231,"DIS_CODE":0,"TOWNNAME":"佳里區","LI":"通興里","LIN":"6鄰","STREET":" ","SECT":" ","MAREA":"東勢寮","LANE":" ","ALLEY":" ","HOUSE_NO":"４７號","E_COORD97":163614.35999999999,"N_COORD97":2560272.75,"ADDRESS":"東勢寮４７號","OBJECTID":134231},"geometry":{"x":163614.36000000127,"y":2560272.7500000037}},{"attributes":{"ID":134232,"DIS_CODE":0,"TOWNNAME":"佳里區","LI":"通興里","LIN":"6鄰","STREET":" ","SECT":" ","MAREA":"東勢寮","LANE":" ","ALLEY":" ","HOUSE_NO":"４８號","E_COORD97":163621.04000000001,"N_COORD97":2560271.9500000002,"ADDRESS":"東勢寮４８號","OBJECTID":134232},"geometry":{"x":163621.04000000097,"y":2560271.9500000011}},{"attributes":{"ID":134233,"DIS_CODE":0,"TOWNNAME":"東山區","LI":"林安里","LIN":"7鄰","STREET":" ","SECT":" ","MAREA":"林安","LANE":" ","ALLEY":" ","HOUSE_NO":"５５號","E_COORD97":191862.78,"N_COORD97":2575839.9700000002,"ADDRESS":"林安５５號","OBJECTID":134233},"geometry":{"x":191862.78000000026,"y":2575839.9700000007}},{"attributes":{"ID":134234,"DIS_CODE":0,"TOWNNAME":"東山區","LI":"林安里","LIN":"7鄰","STREET":" ","SECT":" ","MAREA":"林安","LANE":" ","ALLEY":" ","HOUSE_NO":"５６號","E_COORD97":191827.37,"N_COORD97":2575846.8900000001,"ADDRESS":"林安５６號","OBJECTID":134234},"geometry":{"x":191827.37000000104,"y":2575846.8900000006}},{"attributes":{"ID":134235,"DIS_CODE":0,"TOWNNAME":"東山區","LI":"青山里","LIN":"14鄰","STREET":" ","SECT":" ","MAREA":"青山","LANE":" ","ALLEY":" ","HOUSE_NO":"１１５號","E_COORD97":194940.48000000001,"N_COORD97":2574318.29,"ADDRESS":"青山１１５號","OBJECTID":134235},"geometry":{"x":194940.48000000138,"y":2574318.290000001}},{"attributes":{"ID":134236,"DIS_CODE":0,"TOWNNAME":"東山區","LI":"青山里","LIN":"14鄰","STREET":" ","SECT":" ","MAREA":"青山","LANE":" ","ALLEY":" ","HOUSE_NO":"１１６號","E_COORD97":194950.97,"N_COORD97":2574343.21,"ADDRESS":"青山１１６號","OBJECTID":134236},"geometry":{"x":194950.96999999974,"y":2574343.2100000009}},{"attributes":{"ID":134237,"DIS_CODE":0,"TOWNNAME":"東山區","LI":"青山里","LIN":"14鄰","STREET":" ","SECT":" ","MAREA":"青山","LANE":" ","ALLEY":" ","HOUSE_NO":"１１７號之２","E_COORD97":194919.78,"N_COORD97":2574414.2200000002,"ADDRESS":"青山１１７號之２","OBJECTID":134237},"geometry":{"x":194919.78000000119,"y":2574414.2200000007}},{"attributes":{"ID":134238,"DIS_CODE":0,"TOWNNAME":"東山區","LI":"青山里","LIN":"14鄰","STREET":" ","SECT":" ","MAREA":"青山","LANE":" ","ALLEY":" ","HOUSE_NO":"１１７號","E_COORD97":194926.60999999999,"N_COORD97":2574366.4399999999,"ADDRESS":"青山１１７號","OBJECTID":134238},"geometry":{"x":194926.61000000034,"y":2574366.4399999995}},{"attributes":{"ID":134239,"DIS_CODE":0,"TOWNNAME":"東山區","LI":"青山里","LIN":"15鄰","STREET":" ","SECT":" ","MAREA":"青山","LANE":" ","ALLEY":" ","HOUSE_NO":"１２０號","E_COORD97":195272.97,"N_COORD97":2574992.9300000002,"ADDRESS":"青山１２０號","OBJECTID":134239},"geometry":{"x":195272.96999999974,"y":2574992.9300000016}},{"attributes":{"ID":134240,"DIS_CODE":0,"TOWNNAME":"東山區","LI":"青山里","LIN":"15鄰","STREET":" ","SECT":" ","MAREA":"青山","LANE":" ","ALLEY":" ","HOUSE_NO":"１２１號","E_COORD97":195279.54999999999,"N_COORD97":2574960.5600000001,"ADDRESS":"青山１２１號","OBJECTID":134240},"geometry":{"x":195279.54999999981,"y":2574960.5600000005}},{"attributes":{"ID":134241,"DIS_CODE":0,"TOWNNAME":"東山區","LI":"青山里","LIN":"15鄰","STREET":" ","SECT":" ","MAREA":"青山","LANE":" ","ALLEY":" ","HOUSE_NO":"１２３號","E_COORD97":195269.53,"N_COORD97":2574915.9500000002,"ADDRESS":"青山１２３號","OBJECTID":134241},"geometry":{"x":195269.53000000026,"y":2574915.9499999993}},{"attributes":{"ID":134242,"DIS_CODE":0,"TOWNNAME":"東山區","LI":"青山里","LIN":"15鄰","STREET":" ","SECT":" ","MAREA":"青山","LANE":" ","ALLEY":" ","HOUSE_NO":"１２４號","E_COORD97":195294.39000000001,"N_COORD97":2574935.3199999998,"ADDRESS":"青山１２４號","OBJECTID":134242},"geometry":{"x":195294.39000000153,"y":2574935.3200000003}},{"attributes":{"ID":134243,"DIS_CODE":0,"TOWNNAME":"東山區","LI":"青山里","LIN":"15鄰","STREET":" ","SECT":" ","MAREA":"青山","LANE":" ","ALLEY":" ","HOUSE_NO":"１２５號之１","E_COORD97":195327.07999999999,"N_COORD97":2574955.4199999999,"ADDRESS":"青山１２５號之１","OBJECTID":134243},"geometry":{"x":195327.08000000007,"y":2574955.4200000018}},{"attributes":{"ID":134244,"DIS_CODE":0,"TOWNNAME":"東山區","LI":"青山里","LIN":"15鄰","STREET":" ","SECT":" ","MAREA":"青山","LANE":" ","ALLEY":" ","HOUSE_NO":"１２５號","E_COORD97":195345.04000000001,"N_COORD97":2574932.7599999998,"ADDRESS":"青山１２５號","OBJECTID":134244},"geometry":{"x":195345.04000000097,"y":2574932.7600000016}},{"attributes":{"ID":134245,"DIS_CODE":0,"TOWNNAME":"東山區","LI":"青山里","LIN":"15鄰","STREET":" ","SECT":" ","MAREA":"青山","LANE":" ","ALLEY":" ","HOUSE_NO":"１２６號之１","E_COORD97":195395.76999999999,"N_COORD97":2574973.02,"ADDRESS":"青山１２６號之１","OBJECTID":134245},"geometry":{"x":195395.77000000048,"y":2574973.0199999996}},{"attributes":{"ID":134246,"DIS_CODE":0,"TOWNNAME":"東山區","LI":"青山里","LIN":"15鄰","STREET":" ","SECT":" ","MAREA":"青山","LANE":" ","ALLEY":" ","HOUSE_NO":"１２６號之３","E_COORD97":195291.56,"N_COORD97":2574891.5099999998,"ADDRESS":"青山１２６號之３","OBJECTID":134246},"geometry":{"x":195291.56000000052,"y":2574891.5100000016}},{"attributes":{"ID":134247,"DIS_CODE":0,"TOWNNAME":"東山區","LI":"青山里","LIN":"15鄰","STREET":" ","SECT":" ","MAREA":"青山","LANE":" ","ALLEY":" ","HOUSE_NO":"１２６號之４","E_COORD97":195295.64000000001,"N_COORD97":2574889.3599999999,"ADDRESS":"青山１２６號之４","OBJECTID":134247},"geometry":{"x":195295.63999999966,"y":2574889.3599999994}},{"attributes":{"ID":134248,"DIS_CODE":0,"TOWNNAME":"東山區","LI":"青山里","LIN":"15鄰","STREET":" ","SECT":" ","MAREA":"青山","LANE":" ","ALLEY":" ","HOUSE_NO":"１２６號之５","E_COORD97":195299.56,"N_COORD97":2574887.3599999999,"ADDRESS":"青山１２６號之５","OBJECTID":134248},"geometry":{"x":195299.55999999959,"y":2574887.3600000031}},{"attributes":{"ID":134249,"DIS_CODE":0,"TOWNNAME":"東山區","LI":"青山里","LIN":"15鄰","STREET":" ","SECT":" ","MAREA":"青山","LANE":" ","ALLEY":" ","HOUSE_NO":"１２６號之６","E_COORD97":195303.63,"N_COORD97":2574885.2799999998,"ADDRESS":"青山１２６號之６","OBJECTID":134249},"geometry":{"x":195303.63000000082,"y":2574885.2800000012}},{"attributes":{"ID":134250,"DIS_CODE":0,"TOWNNAME":"東山區","LI":"青山里","LIN":"15鄰","STREET":" ","SECT":" ","MAREA":"青山","LANE":" ","ALLEY":" ","HOUSE_NO":"１２６號之７","E_COORD97":195307.48999999999,"N_COORD97":2574883.27,"ADDRESS":"青山１２６號之７","OBJECTID":134250},"geometry":{"x":195307.49000000022,"y":2574883.2699999996}},{"attributes":{"ID":134251,"DIS_CODE":0,"TOWNNAME":"東山區","LI":"青山里","LIN":"11鄰","STREET":" ","SECT":" ","MAREA":"青山","LANE":" ","ALLEY":" ","HOUSE_NO":"１２７號","E_COORD97":196830.26999999999,"N_COORD97":2574570.6699999999,"ADDRESS":"青山１２７號","OBJECTID":134251},"geometry":{"x":196830.26999999955,"y":2574570.6700000018}},{"attributes":{"ID":134252,"DIS_CODE":0,"TOWNNAME":"東山區","LI":"青山里","LIN":"2鄰","STREET":" ","SECT":" ","MAREA":"青山","LANE":" ","ALLEY":" ","HOUSE_NO":"１１號","E_COORD97":195426.84,"N_COORD97":2575073.2400000002,"ADDRESS":"青山１１號","OBJECTID":134252},"geometry":{"x":195426.83999999985,"y":2575073.2400000021}},{"attributes":{"ID":134253,"DIS_CODE":0,"TOWNNAME":"東山區","LI":"青山里","LIN":"2鄰","STREET":" ","SECT":" ","MAREA":"青山","LANE":" ","ALLEY":" ","HOUSE_NO":"１２號","E_COORD97":195425.54000000001,"N_COORD97":2575164.4500000002,"ADDRESS":"青山１２號","OBJECTID":134253},"geometry":{"x":195425.54000000004,"y":2575164.450000003}},{"attributes":{"ID":134254,"DIS_CODE":0,"TOWNNAME":"東山區","LI":"青山里","LIN":"2鄰","STREET":" ","SECT":" ","MAREA":"青山","LANE":" ","ALLEY":" ","HOUSE_NO":"１３號","E_COORD97":195447.92000000001,"N_COORD97":2575186.4399999999,"ADDRESS":"青山１３號","OBJECTID":134254},"geometry":{"x":195447.91999999993,"y":2575186.4400000013}},{"attributes":{"ID":134255,"DIS_CODE":0,"TOWNNAME":"北區","LI":"振興里","LIN":"11鄰","STREET":"開元路","SECT":" ","MAREA":" ","LANE":"１４８巷","ALLEY":"１０１弄","HOUSE_NO":"２１號","E_COORD97":170150.56,"N_COORD97":2545029.6099999999,"ADDRESS":"開元路１４８巷１０１弄２１號","OBJECTID":134255},"geometry":{"x":170150.56000000052,"y":2545029.6099999975}},{"attributes":{"ID":134256,"DIS_CODE":0,"TOWNNAME":"東山區","LI":"青山里","LIN":"4鄰","STREET":" ","SECT":" ","MAREA":"青山","LANE":" ","ALLEY":" ","HOUSE_NO":"２０號之２","E_COORD97":195676.01999999999,"N_COORD97":2575375,"ADDRESS":"青山２０號之２","OBJECTID":134256},"geometry":{"x":195676.01999999955,"y":2575375.0000000037}},{"attributes":{"ID":134257,"DIS_CODE":0,"TOWNNAME":"北區","LI":"振興里","LIN":"11鄰","STREET":"開元路","SECT":" ","MAREA":" ","LANE":"１４８巷","ALLEY":"１０１弄","HOUSE_NO":"２３號","E_COORD97":170154.70999999999,"N_COORD97":2545030.3700000001,"ADDRESS":"開元路１４８巷１０１弄２３號","OBJECTID":134257},"geometry":{"x":170154.71000000089,"y":2545030.3700000029}},{"attributes":{"ID":134258,"DIS_CODE":0,"TOWNNAME":"北區","LI":"振興里","LIN":"11鄰","STREET":"開元路","SECT":" ","MAREA":" ","LANE":"１４８巷","ALLEY":"１０１弄","HOUSE_NO":"２５號","E_COORD97":170158.85000000001,"N_COORD97":2545031.46,"ADDRESS":"開元路１４８巷１０１弄２５號","OBJECTID":134258},"geometry":{"x":170158.85000000056,"y":2545031.4600000009}},{"attributes":{"ID":134259,"DIS_CODE":0,"TOWNNAME":"佳里區","LI":"六安里","LIN":"6鄰","STREET":"信義二街","SECT":" ","MAREA":" ","LANE":" ","ALLEY":" ","HOUSE_NO":"１３６號","E_COORD97":166086.29999999999,"N_COORD97":2562920.5800000001,"ADDRESS":"信義二街１３６號","OBJECTID":134259},"geometry":{"x":166086.29999999981,"y":2562920.5800000001}},{"attributes":{"ID":134260,"DIS_CODE":0,"TOWNNAME":"東山區","LI":"青山里","LIN":"3鄰","STREET":" ","SECT":" ","MAREA":"青山","LANE":" ","ALLEY":" ","HOUSE_NO":"１６號","E_COORD97":195559.10999999999,"N_COORD97":2575408.7799999998,"ADDRESS":"青山１６號","OBJECTID":134260},"geometry":{"x":195559.11000000034,"y":2575408.7799999993}},{"attributes":{"ID":134261,"DIS_CODE":0,"TOWNNAME":"東山區","LI":"青山里","LIN":"2鄰","STREET":" ","SECT":" ","MAREA":"青山","LANE":" ","ALLEY":" ","HOUSE_NO":"１４２號之２","E_COORD97":195302.01999999999,"N_COORD97":2575258.5499999998,"ADDRESS":"青山１４２號之２","OBJECTID":134261},"geometry":{"x":195302.02000000048,"y":2575258.5500000026}},{"attributes":{"ID":134262,"DIS_CODE":0,"TOWNNAME":"東山區","LI":"青山里","LIN":"2鄰","STREET":" ","SECT":" ","MAREA":"青山","LANE":" ","ALLEY":" ","HOUSE_NO":"１４２號","E_COORD97":195285.85999999999,"N_COORD97":2575258.73,"ADDRESS":"青山１４２號","OBJECTID":134262},"geometry":{"x":195285.86000000127,"y":2575258.7300000042}},{"attributes":{"ID":134263,"DIS_CODE":0,"TOWNNAME":"東山區","LI":"青山里","LIN":"2鄰","STREET":" ","SECT":" ","MAREA":"青山","LANE":" ","ALLEY":" ","HOUSE_NO":"１４４號","E_COORD97":195340.76999999999,"N_COORD97":2575255.9900000002,"ADDRESS":"青山１４４號","OBJECTID":134263},"geometry":{"x":195340.77000000142,"y":2575255.9900000002}},{"attributes":{"ID":134264,"DIS_CODE":0,"TOWNNAME":"佳里區","LI":"六安里","LIN":"6鄰","STREET":"信義二街","SECT":" ","MAREA":" ","LANE":" ","ALLEY":" ","HOUSE_NO":"１３８號","E_COORD97":166090.57000000001,"N_COORD97":2562920.6299999999,"ADDRESS":"信義二街１３８號","OBJECTID":134264},"geometry":{"x":166090.5700000003,"y":2562920.6300000008}},{"attributes":{"ID":134265,"DIS_CODE":0,"TOWNNAME":"佳里區","LI":"六安里","LIN":"6鄰","STREET":"信義二街","SECT":" ","MAREA":" ","LANE":" ","ALLEY":" ","HOUSE_NO":"１４０號","E_COORD97":166095.17000000001,"N_COORD97":2562920.4199999999,"ADDRESS":"信義二街１４０號","OBJECTID":134265},"geometry":{"x":166095.17000000086,"y":2562920.4200000018}},{"attributes":{"ID":134266,"DIS_CODE":0,"TOWNNAME":"北區","LI":"振興里","LIN":"11鄰","STREET":"開元路","SECT":" ","MAREA":" ","LANE":"１４８巷","ALLEY":"１０１弄","HOUSE_NO":"２７號","E_COORD97":170163.42999999999,"N_COORD97":2545032.0099999998,"ADDRESS":"開元路１４８巷１０１弄２７號","OBJECTID":134266},"geometry":{"x":170163.43000000063,"y":2545032.0100000016}},{"attributes":{"ID":134267,"DIS_CODE":0,"TOWNNAME":"北區","LI":"振興里","LIN":"11鄰","STREET":"開元路","SECT":" ","MAREA":" ","LANE":"１４８巷","ALLEY":"１０１弄","HOUSE_NO":"２９號","E_COORD97":170168.23000000001,"N_COORD97":2545032.23,"ADDRESS":"開元路１４８巷１０１弄２９號","OBJECTID":134267},"geometry":{"x":170168.23000000045,"y":2545032.2300000004}},{"attributes":{"ID":134268,"DIS_CODE":0,"TOWNNAME":"北區","LI":"振興里","LIN":"11鄰","STREET":"開元路","SECT":" ","MAREA":" ","LANE":"１４８巷","ALLEY":"１０１弄","HOUSE_NO":"３１號","E_COORD97":170171.07000000001,"N_COORD97":2545038.1099999999,"ADDRESS":"開元路１４８巷１０１弄３１號","OBJECTID":134268},"geometry":{"x":170171.07000000216,"y":2545038.1100000013}},{"attributes":{"ID":134269,"DIS_CODE":0,"TOWNNAME":"北區","LI":"振興里","LIN":"11鄰","STREET":"開元路","SECT":" ","MAREA":" ","LANE":"１４８巷","ALLEY":"１０１弄","HOUSE_NO":"３１號之１","E_COORD97":170174.98999999999,"N_COORD97":2545044.6499999999,"ADDRESS":"開元路１４８巷１０１弄３１號之１","OBJECTID":134269},"geometry":{"x":170174.99000000209,"y":2545044.6500000022}},{"attributes":{"ID":134270,"DIS_CODE":0,"TOWNNAME":"北區","LI":"振興里","LIN":"11鄰","STREET":"開元路","SECT":" ","MAREA":" ","LANE":"１４８巷","ALLEY":"１０１弄","HOUSE_NO":"３１號之２","E_COORD97":170178.26999999999,"N_COORD97":2545036.9100000001,"ADDRESS":"開元路１４８巷１０１弄３１號之２","OBJECTID":134270},"geometry":{"x":170178.26999999955,"y":2545036.910000002}},{"attributes":{"ID":134271,"DIS_CODE":0,"TOWNNAME":"佳里區","LI":"建南里","LIN":"37鄰","STREET":"成功路","SECT":" ","MAREA":" ","LANE":" ","ALLEY":" ","HOUSE_NO":"１３１號","E_COORD97":165440.82000000001,"N_COORD97":2561314.21,"ADDRESS":"成功路１３１號","OBJECTID":134271},"geometry":{"x":165440.8200000003,"y":2561314.2100000009}},{"attributes":{"ID":134272,"DIS_CODE":0,"TOWNNAME":"東山區","LI":"青山里","LIN":"2鄰","STREET":" ","SECT":" ","MAREA":"青山","LANE":" ","ALLEY":" ","HOUSE_NO":"１４５號","E_COORD97":195366.85999999999,"N_COORD97":2575234.9100000001,"ADDRESS":"青山１４５號","OBJECTID":134272},"geometry":{"x":195366.86000000127,"y":2575234.910000002}},{"attributes":{"ID":134273,"DIS_CODE":0,"TOWNNAME":"東山區","LI":"青山里","LIN":"4鄰","STREET":" ","SECT":" ","MAREA":"青山","LANE":" ","ALLEY":" ","HOUSE_NO":"１９號之２","E_COORD97":195734.81,"N_COORD97":2575385.27,"ADDRESS":"青山１９號之２","OBJECTID":134273},"geometry":{"x":195734.80999999959,"y":2575385.2699999996}},{"attributes":{"ID":134274,"DIS_CODE":0,"TOWNNAME":"東山區","LI":"青山里","LIN":"4鄰","STREET":" ","SECT":" ","MAREA":"青山","LANE":" ","ALLEY":" ","HOUSE_NO":"１９號之４","E_COORD97":195742,"N_COORD97":2575384.02,"ADDRESS":"青山１９號之４","OBJECTID":134274},"geometry":{"x":195742.00000000093,"y":2575384.0199999996}},{"attributes":{"ID":134275,"DIS_CODE":0,"TOWNNAME":"東山區","LI":"青山里","LIN":"4鄰","STREET":" ","SECT":" ","MAREA":"青山","LANE":" ","ALLEY":" ","HOUSE_NO":"２０號之１０","E_COORD97":195707.09,"N_COORD97":2575369.5,"ADDRESS":"青山２０號之１０","OBJECTID":134275},"geometry":{"x":195707.09000000078,"y":2575369.5000000019}},{"attributes":{"ID":134276,"DIS_CODE":0,"TOWNNAME":"東山區","LI":"青山里","LIN":"4鄰","STREET":" ","SECT":" ","MAREA":"青山","LANE":" ","ALLEY":" ","HOUSE_NO":"２０號之１１","E_COORD97":195711.39999999999,"N_COORD97":2575368.5800000001,"ADDRESS":"青山２０號之１１","OBJECTID":134276},"geometry":{"x":195711.40000000037,"y":2575368.5800000019}},{"attributes":{"ID":134277,"DIS_CODE":0,"TOWNNAME":"東山區","LI":"青山里","LIN":"4鄰","STREET":" ","SECT":" ","MAREA":"青山","LANE":" ","ALLEY":" ","HOUSE_NO":"２０號之１２","E_COORD97":195715.76000000001,"N_COORD97":2575367.79,"ADDRESS":"青山２０號之１２","OBJECTID":134277},"geometry":{"x":195715.76000000164,"y":2575367.7899999991}},{"attributes":{"ID":134278,"DIS_CODE":0,"TOWNNAME":"東山區","LI":"青山里","LIN":"4鄰","STREET":" ","SECT":" ","MAREA":"青山","LANE":" ","ALLEY":" ","HOUSE_NO":"２０號之１３","E_COORD97":195720.10999999999,"N_COORD97":2575366.9900000002,"ADDRESS":"青山２０號之１３","OBJECTID":134278},"geometry":{"x":195720.11000000034,"y":2575366.9900000002}},{"attributes":{"ID":134279,"DIS_CODE":0,"TOWNNAME":"東山區","LI":"青山里","LIN":"4鄰","STREET":" ","SECT":" ","MAREA":"青山","LANE":" ","ALLEY":" ","HOUSE_NO":"２０號之１４","E_COORD97":195724.47,"N_COORD97":2575366.2000000002,"ADDRESS":"青山２０號之１４","OBJECTID":134279},"geometry":{"x":195724.4700000016,"y":2575366.200000003}},{"attributes":{"ID":134280,"DIS_CODE":0,"TOWNNAME":"東山區","LI":"青山里","LIN":"4鄰","STREET":" ","SECT":" ","MAREA":"青山","LANE":" ","ALLEY":" ","HOUSE_NO":"２０號之１６","E_COORD97":195733.16,"N_COORD97":2575364.6400000001,"ADDRESS":"青山２０號之１６","OBJECTID":134280},"geometry":{"x":195733.16000000015,"y":2575364.6400000043}},{"attributes":{"ID":134281,"DIS_CODE":0,"TOWNNAME":"東山區","LI":"青山里","LIN":"4鄰","STREET":" ","SECT":" ","MAREA":"青山","LANE":" ","ALLEY":" ","HOUSE_NO":"２０號之１７","E_COORD97":195737.45000000001,"N_COORD97":2575363.7799999998,"ADDRESS":"青山２０號之１７","OBJECTID":134281},"geometry":{"x":195737.45000000112,"y":2575363.7800000012}},{"attributes":{"ID":134282,"DIS_CODE":0,"TOWNNAME":"東山區","LI":"青山里","LIN":"4鄰","STREET":" ","SECT":" ","MAREA":"青山","LANE":" ","ALLEY":" ","HOUSE_NO":"２０號之２３","E_COORD97":195728.94,"N_COORD97":2575365.3500000001,"ADDRESS":"青山２０號之２３","OBJECTID":134282},"geometry":{"x":195728.94000000134,"y":2575365.3499999978}},{"attributes":{"ID":134283,"DIS_CODE":0,"TOWNNAME":"北區","LI":"振興里","LIN":"11鄰","STREET":"開元路","SECT":" ","MAREA":" ","LANE":"１４８巷","ALLEY":"１０１弄","HOUSE_NO":"３３號","E_COORD97":170183.60999999999,"N_COORD97":2545044.1000000001,"ADDRESS":"開元路１４８巷１０１弄３３號","OBJECTID":134283},"geometry":{"x":170183.61000000034,"y":2545044.1000000015}},{"attributes":{"ID":134284,"DIS_CODE":0,"TOWNNAME":"北區","LI":"振興里","LIN":"11鄰","STREET":"開元路","SECT":" ","MAREA":" ","LANE":"１４８巷","ALLEY":"１０１弄","HOUSE_NO":"３５號","E_COORD97":170195.5,"N_COORD97":2545039.2000000002,"ADDRESS":"開元路１４８巷１０１弄３５號","OBJECTID":134284},"geometry":{"x":170195.50000000093,"y":2545039.200000003}},{"attributes":{"ID":134285,"DIS_CODE":0,"TOWNNAME":"北區","LI":"振興里","LIN":"11鄰","STREET":"開元路","SECT":" ","MAREA":" ","LANE":"１４８巷","ALLEY":"１０１弄","HOUSE_NO":"３７號","E_COORD97":170201.5,"N_COORD97":2545053.5899999999,"ADDRESS":"開元路１４８巷１０１弄３７號","OBJECTID":134285},"geometry":{"x":170201.5,"y":2545053.5899999999}},{"attributes":{"ID":134286,"DIS_CODE":0,"TOWNNAME":"北區","LI":"振興里","LIN":"11鄰","STREET":"開元路","SECT":" ","MAREA":" ","LANE":"１４８巷","ALLEY":"１０１弄","HOUSE_NO":"３號","E_COORD97":170097.35999999999,"N_COORD97":2545020.8900000001,"ADDRESS":"開元路１４８巷１０１弄３號","OBJECTID":134286},"geometry":{"x":170097.36000000034,"y":2545020.8900000006}},{"attributes":{"ID":134287,"DIS_CODE":0,"TOWNNAME":"東山區","LI":"聖賢里","LIN":"19鄰","STREET":" ","SECT":" ","MAREA":"頂窩","LANE":" ","ALLEY":" ","HOUSE_NO":"４９號之２","E_COORD97":183164.92000000001,"N_COORD97":2578624.8799999999,"ADDRESS":"頂窩４９號之２","OBJECTID":134287},"geometry":{"x":183164.91999999993,"y":2578624.879999999}},{"attributes":{"ID":134288,"DIS_CODE":0,"TOWNNAME":"北區","LI":"振興里","LIN":"11鄰","STREET":"開元路","SECT":" ","MAREA":" ","LANE":"１４８巷","ALLEY":"１０１弄","HOUSE_NO":"７號之１","E_COORD97":170115.25,"N_COORD97":2545029.3900000001,"ADDRESS":"開元路１４８巷１０１弄７號之１","OBJECTID":134288},"geometry":{"x":170115.25000000186,"y":2545029.3900000043}},{"attributes":{"ID":134289,"DIS_CODE":0,"TOWNNAME":"北區","LI":"振興里","LIN":"11鄰","STREET":"開元路","SECT":" ","MAREA":" ","LANE":"１４８巷","ALLEY":"１０１弄","HOUSE_NO":"７號之２","E_COORD97":170114.48999999999,"N_COORD97":2545032.8799999999,"ADDRESS":"開元路１４８巷１０１弄７號之２","OBJECTID":134289},"geometry":{"x":170114.49000000115,"y":2545032.879999999}},{"attributes":{"ID":134290,"DIS_CODE":0,"TOWNNAME":"北區","LI":"振興里","LIN":"11鄰","STREET":"開元路","SECT":" ","MAREA":" ","LANE":"１４８巷","ALLEY":"１０１弄","HOUSE_NO":"７號之３","E_COORD97":170113.72,"N_COORD97":2545036.9100000001,"ADDRESS":"開元路１４８巷１０１弄７號之３","OBJECTID":134290},"geometry":{"x":170113.72000000067,"y":2545036.910000002}},{"attributes":{"ID":134291,"DIS_CODE":0,"TOWNNAME":"東山區","LI":"青山里","LIN":"4鄰","STREET":" ","SECT":" ","MAREA":"青山","LANE":" ","ALLEY":" ","HOUSE_NO":"２０號之３","E_COORD97":195679.89000000001,"N_COORD97":2575374.3100000001,"ADDRESS":"青山２０號之３","OBJECTID":134291},"geometry":{"x":195679.8900000006,"y":2575374.3100000024}},{"attributes":{"ID":134292,"DIS_CODE":0,"TOWNNAME":"東山區","LI":"青山里","LIN":"4鄰","STREET":" ","SECT":" ","MAREA":"青山","LANE":" ","ALLEY":" ","HOUSE_NO":"２０號之５","E_COORD97":195687.25,"N_COORD97":2575373,"ADDRESS":"青山２０號之５","OBJECTID":134292},"geometry":{"x":195687.25000000186,"y":2575373.0000000019}},{"attributes":{"ID":134293,"DIS_CODE":0,"TOWNNAME":"東山區","LI":"青山里","LIN":"4鄰","STREET":" ","SECT":" ","MAREA":"青山","LANE":" ","ALLEY":" ","HOUSE_NO":"２０號之６","E_COORD97":195690.94,"N_COORD97":2575372.3399999999,"ADDRESS":"青山２０號之６","OBJECTID":134293},"geometry":{"x":195690.94000000041,"y":2575372.3399999999}},{"attributes":{"ID":134294,"DIS_CODE":0,"TOWNNAME":"東山區","LI":"青山里","LIN":"4鄰","STREET":" ","SECT":" ","MAREA":"青山","LANE":" ","ALLEY":" ","HOUSE_NO":"２０號之７","E_COORD97":195694.79000000001,"N_COORD97":2575371.6600000001,"ADDRESS":"青山２０號之７","OBJECTID":134294},"geometry":{"x":195694.79000000004,"y":2575371.660000002}},{"attributes":{"ID":134295,"DIS_CODE":0,"TOWNNAME":"東山區","LI":"青山里","LIN":"4鄰","STREET":" ","SECT":" ","MAREA":"青山","LANE":" ","ALLEY":" ","HOUSE_NO":"２０號之８","E_COORD97":195698.79999999999,"N_COORD97":2575370.9399999999,"ADDRESS":"青山２０號之８","OBJECTID":134295},"geometry":{"x":195698.80000000075,"y":2575370.9399999995}},{"attributes":{"ID":134296,"DIS_CODE":0,"TOWNNAME":"東山區","LI":"青山里","LIN":"4鄰","STREET":" ","SECT":" ","MAREA":"青山","LANE":" ","ALLEY":" ","HOUSE_NO":"２０號之９","E_COORD97":195703.09,"N_COORD97":2575370.1699999999,"ADDRESS":"青山２０號之９","OBJECTID":134296},"geometry":{"x":195703.08999999985,"y":2575370.1699999999}},{"attributes":{"ID":134297,"DIS_CODE":0,"TOWNNAME":"東山區","LI":"聖賢里","LIN":"17鄰","STREET":" ","SECT":" ","MAREA":"頂窩","LANE":" ","ALLEY":" ","HOUSE_NO":"３０號之３","E_COORD97":183116.84,"N_COORD97":2578510.2000000002,"ADDRESS":"頂窩３０號之３","OBJECTID":134297},"geometry":{"x":183116.84000000078,"y":2578510.2000000011}},{"attributes":{"ID":134298,"DIS_CODE":0,"TOWNNAME":"東山區","LI":"聖賢里","LIN":"17鄰","STREET":" ","SECT":" ","MAREA":"頂窩","LANE":" ","ALLEY":" ","HOUSE_NO":"３２號之３","E_COORD97":182988.95999999999,"N_COORD97":2578563.5,"ADDRESS":"頂窩３２號之３","OBJECTID":134298},"geometry":{"x":182988.96000000089,"y":2578563.5000000019}},{"attributes":{"ID":134299,"DIS_CODE":0,"TOWNNAME":"東山區","LI":"聖賢里","LIN":"17鄰","STREET":" ","SECT":" ","MAREA":"頂窩","LANE":" ","ALLEY":" ","HOUSE_NO":"３２號之４","E_COORD97":183063.31,"N_COORD97":2578528.9500000002,"ADDRESS":"頂窩３２號之４","OBJECTID":134299},"geometry":{"x":183063.30999999959,"y":2578528.9500000011}},{"attributes":{"ID":134300,"DIS_CODE":0,"TOWNNAME":"東山區","LI":"聖賢里","LIN":"17鄰","STREET":" ","SECT":" ","MAREA":"頂窩","LANE":" ","ALLEY":" ","HOUSE_NO":"３２號之５","E_COORD97":182984.69,"N_COORD97":2578514.8799999999,"ADDRESS":"頂窩３２號之５","OBJECTID":134300},"geometry":{"x":182984.69000000134,"y":2578514.8800000008}},{"attributes":{"ID":134301,"DIS_CODE":0,"TOWNNAME":"東山區","LI":"聖賢里","LIN":"17鄰","STREET":" ","SECT":" ","MAREA":"頂窩","LANE":" ","ALLEY":" ","HOUSE_NO":"３２號之８","E_COORD97":182911.85000000001,"N_COORD97":2578529.3599999999,"ADDRESS":"頂窩３２號之８","OBJECTID":134301},"geometry":{"x":182911.85000000056,"y":2578529.3600000013}},{"attributes":{"ID":134302,"DIS_CODE":0,"TOWNNAME":"北區","LI":"振興里","LIN":"11鄰","STREET":"開元路","SECT":" ","MAREA":" ","LANE":"１４８巷","ALLEY":"１０１弄","HOUSE_NO":"７號之４","E_COORD97":170113.62,"N_COORD97":2545040.9399999999,"ADDRESS":"開元路１４８巷１０１弄７號之４","OBJECTID":134302},"geometry":{"x":170113.62000000104,"y":2545040.9399999995}},{"attributes":{"ID":134303,"DIS_CODE":0,"TOWNNAME":"北區","LI":"振興里","LIN":"11鄰","STREET":"開元路","SECT":" ","MAREA":" ","LANE":"１４８巷","ALLEY":"１０１弄","HOUSE_NO":"９號","E_COORD97":170118.41,"N_COORD97":2545023.29,"ADDRESS":"開元路１４８巷１０１弄９號","OBJECTID":134303},"geometry":{"x":170118.41000000108,"y":2545023.2899999991}},{"attributes":{"ID":134304,"DIS_CODE":0,"TOWNNAME":"北區","LI":"振興里","LIN":"11鄰","STREET":"開元路","SECT":" ","MAREA":" ","LANE":"１４８巷","ALLEY":"１０１弄","HOUSE_NO":"３號之１","E_COORD97":170101.84,"N_COORD97":2545023.1800000002,"ADDRESS":"開元路１４８巷１０１弄３號之１","OBJECTID":134304},"geometry":{"x":170101.83999999985,"y":2545023.1800000016}},{"attributes":{"ID":134305,"DIS_CODE":0,"TOWNNAME":"北區","LI":"振興里","LIN":"11鄰","STREET":"開元路","SECT":" ","MAREA":" ","LANE":"１４８巷","ALLEY":"１０１弄","HOUSE_NO":"５號","E_COORD97":170106.85000000001,"N_COORD97":2545022.4199999999,"ADDRESS":"開元路１４８巷１０１弄５號","OBJECTID":134305},"geometry":{"x":170106.84999999963,"y":2545022.4200000018}},{"attributes":{"ID":134306,"DIS_CODE":0,"TOWNNAME":"東山區","LI":"聖賢里","LIN":"17鄰","STREET":" ","SECT":" ","MAREA":"頂窩","LANE":" ","ALLEY":" ","HOUSE_NO":"３２號","E_COORD97":183080.95999999999,"N_COORD97":2578550.75,"ADDRESS":"頂窩３２號","OBJECTID":134306},"geometry":{"x":183080.96000000089,"y":2578550.7500000019}},{"attributes":{"ID":134307,"DIS_CODE":0,"TOWNNAME":"東山區","LI":"聖賢里","LIN":"17鄰","STREET":" ","SECT":" ","MAREA":"頂窩","LANE":" ","ALLEY":" ","HOUSE_NO":"３３號之１","E_COORD97":182421.42000000001,"N_COORD97":2578051.2799999998,"ADDRESS":"頂窩３３號之１","OBJECTID":134307},"geometry":{"x":182421.42000000086,"y":2578051.2800000012}},{"attributes":{"ID":134308,"DIS_CODE":0,"TOWNNAME":"東山區","LI":"聖賢里","LIN":"17鄰","STREET":" ","SECT":" ","MAREA":"頂窩","LANE":" ","ALLEY":" ","HOUSE_NO":"３３號","E_COORD97":182509.60000000001,"N_COORD97":2578361,"ADDRESS":"頂窩３３號","OBJECTID":134308},"geometry":{"x":182509.60000000056,"y":2578361}},{"attributes":{"ID":134309,"DIS_CODE":0,"TOWNNAME":"佳里區","LI":"六安里","LIN":" ","STREET":"延平路","SECT":" ","MAREA":" ","LANE":" ","ALLEY":" ","HOUSE_NO":"４３１號","E_COORD97":165831.64999999999,"N_COORD97":2562903.6600000001,"ADDRESS":"延平路４３１號","OBJECTID":134309},"geometry":{"x":165831.6500000013,"y":2562903.6600000001}},{"attributes":{"ID":134310,"DIS_CODE":0,"TOWNNAME":"永康區","LI":"永康里","LIN":"26鄰","STREET":"中山北路","SECT":" ","MAREA":" ","LANE":" ","ALLEY":" ","HOUSE_NO":"７０號四樓之３","E_COORD97":174075.45000000001,"N_COORD97":2547398.25,"ADDRESS":"中山北路７０號四樓之３","OBJECTID":134310},"geometry":{"x":174075.45000000019,"y":2547398.25}},{"attributes":{"ID":134311,"DIS_CODE":0,"TOWNNAME":"佳里區","LI":"建南里","LIN":"36鄰","STREET":"成功路","SECT":" ","MAREA":" ","LANE":" ","ALLEY":" ","HOUSE_NO":"３６０號之１","E_COORD97":165218.17999999999,"N_COORD97":2560851.1699999999,"ADDRESS":"成功路３６０號之１","OBJECTID":134311},"geometry":{"x":165218.18000000156,"y":2560851.1699999999}},{"attributes":{"ID":134312,"DIS_CODE":0,"TOWNNAME":"北區","LI":"振興里","LIN":"11鄰","STREET":"開元路","SECT":" ","MAREA":" ","LANE":"１４８巷","ALLEY":"１０１弄","HOUSE_NO":"７號","E_COORD97":170114.38,"N_COORD97":2545022.4199999999,"ADDRESS":"開元路１４８巷１０１弄７號","OBJECTID":134312},"geometry":{"x":170114.38000000175,"y":2545022.4200000018}},{"attributes":{"ID":134313,"DIS_CODE":0,"TOWNNAME":"新營區","LI":"南紙里","LIN":"11鄰","STREET":"太子路","SECT":" ","MAREA":" ","LANE":"２００巷","ALLEY":"１７弄","HOUSE_NO":"９號","E_COORD97":177852.39000000001,"N_COORD97":2577898.6099999999,"ADDRESS":"太子路２００巷１７弄９號","OBJECTID":134313},"geometry":{"x":177852.38999999966,"y":2577898.6099999994}},{"attributes":{"ID":134314,"DIS_CODE":0,"TOWNNAME":"仁德區","LI":"後壁里","LIN":"12鄰","STREET":"德善路","SECT":" ","MAREA":" ","LANE":"２４０巷","ALLEY":"３１弄","HOUSE_NO":"３號","E_COORD97":173834.95999999999,"N_COORD97":2538577.52,"ADDRESS":"德善路２４０巷３１弄３號","OBJECTID":134314},"geometry":{"x":173834.96000000089,"y":2538577.5199999996}},{"attributes":{"ID":134315,"DIS_CODE":0,"TOWNNAME":"仁德區","LI":"後壁里","LIN":"36鄰","STREET":"民安路","SECT":"一段","MAREA":" ","LANE":"３１０巷","ALLEY":"２９弄","HOUSE_NO":"３號","E_COORD97":172807.73999999999,"N_COORD97":2539443.9399999999,"ADDRESS":"民安路一段３１０巷２９弄３號","OBJECTID":134315},"geometry":{"x":172807.74000000115,"y":2539443.9400000032}},{"attributes":{"ID":134316,"DIS_CODE":0,"TOWNNAME":"仁德區","LI":"成功里","LIN":"13鄰","STREET":"全福路","SECT":" ","MAREA":" ","LANE":"３巷","ALLEY":"２弄","HOUSE_NO":"３號","E_COORD97":170844.62,"N_COORD97":2539372.25,"ADDRESS":"全福路３巷２弄３號","OBJECTID":134316},"geometry":{"x":170844.62000000011,"y":2539372.2500000019}},{"attributes":{"ID":134317,"DIS_CODE":0,"TOWNNAME":"仁德區","LI":"成功里","LIN":"15鄰","STREET":"全福路","SECT":" ","MAREA":" ","LANE":"８０巷","ALLEY":"１４弄","HOUSE_NO":"４４號","E_COORD97":170917.32000000001,"N_COORD97":2539283.25,"ADDRESS":"全福路８０巷１４弄４４號","OBJECTID":134317},"geometry":{"x":170917.32000000123,"y":2539283.2500000019}},{"attributes":{"ID":134318,"DIS_CODE":0,"TOWNNAME":"新營區","LI":"嘉芳里","LIN":"11鄰","STREET":"復興路","SECT":" ","MAREA":" ","LANE":"８０３巷","ALLEY":"４弄","HOUSE_NO":"１之５號","E_COORD97":177087.76999999999,"N_COORD97":2578528.1299999999,"ADDRESS":"復興路８０３巷４弄１之５號","OBJECTID":134318},"geometry":{"x":177087.77000000048,"y":2578528.129999999}},{"attributes":{"ID":134319,"DIS_CODE":0,"TOWNNAME":"仁德區","LI":"後壁里","LIN":"12鄰","STREET":"德善路","SECT":" ","MAREA":" ","LANE":"２４０巷","ALLEY":"３１弄","HOUSE_NO":"３３號","E_COORD97":173873.12,"N_COORD97":2538549.27,"ADDRESS":"德善路２４０巷３１弄３３號","OBJECTID":134319},"geometry":{"x":173873.12000000104,"y":2538549.2699999996}},{"attributes":{"ID":134320,"DIS_CODE":0,"TOWNNAME":"仁德區","LI":"保安里","LIN":"21鄰","STREET":"文賢一街","SECT":" ","MAREA":" ","LANE":"１０巷","ALLEY":"１弄","HOUSE_NO":"１０號","E_COORD97":171053.29000000001,"N_COORD97":2536736.5699999998,"ADDRESS":"文賢一街１０巷１弄１０號","OBJECTID":134320},"geometry":{"x":171053.29000000097,"y":2536736.5700000003}},{"attributes":{"ID":134321,"DIS_CODE":0,"TOWNNAME":"東山區","LI":"聖賢里","LIN":"19鄰","STREET":" ","SECT":" ","MAREA":"頂窩","LANE":" ","ALLEY":" ","HOUSE_NO":"４９號","E_COORD97":183179,"N_COORD97":2578634.98,"ADDRESS":"頂窩４９號","OBJECTID":134321},"geometry":{"x":183179.00000000093,"y":2578634.9800000023}},{"attributes":{"ID":134322,"DIS_CODE":0,"TOWNNAME":"仁德區","LI":"成功里","LIN":"15鄰","STREET":"全福路","SECT":" ","MAREA":" ","LANE":"８０巷","ALLEY":"１４弄","HOUSE_NO":"２號","E_COORD97":171005.12,"N_COORD97":2539276.75,"ADDRESS":"全福路８０巷１４弄２號","OBJECTID":134322},"geometry":{"x":171005.12000000104,"y":2539276.7500000019}},{"attributes":{"ID":134323,"DIS_CODE":0,"TOWNNAME":"仁德區","LI":"新田里","LIN":"15鄰","STREET":"民安路","SECT":"二段","MAREA":" ","LANE":"６３巷","ALLEY":"１７弄","HOUSE_NO":"７號","E_COORD97":173442.73999999999,"N_COORD97":2539286.3199999998,"ADDRESS":"民安路二段６３巷１７弄７號","OBJECTID":134323},"geometry":{"x":173442.74000000022,"y":2539286.3200000022}},{"attributes":{"ID":134324,"DIS_CODE":0,"TOWNNAME":"佳里區","LI":"建南里","LIN":" ","STREET":"成功路","SECT":" ","MAREA":" ","LANE":" ","ALLEY":" ","HOUSE_NO":"４７３號","E_COORD97":165167.76000000001,"N_COORD97":2560508.0299999998,"ADDRESS":"成功路４７３號","OBJECTID":134324},"geometry":{"x":165167.75999999978,"y":2560508.0300000012}},{"attributes":{"ID":134325,"DIS_CODE":0,"TOWNNAME":"佳里區","LI":"六安里","LIN":" ","STREET":"佳北路","SECT":" ","MAREA":" ","LANE":" ","ALLEY":" ","HOUSE_NO":"１０７號","E_COORD97":166063.89000000001,"N_COORD97":2563374.6299999999,"ADDRESS":"佳北路１０７號","OBJECTID":134325},"geometry":{"x":166063.88999999966,"y":2563374.6300000027}},{"attributes":{"ID":134326,"DIS_CODE":0,"TOWNNAME":"佳里區","LI":"六安里","LIN":" ","STREET":"佳北路","SECT":" ","MAREA":" ","LANE":" ","ALLEY":" ","HOUSE_NO":"１６８號","E_COORD97":165886.20000000001,"N_COORD97":2563450.4100000001,"ADDRESS":"佳北路１６８號","OBJECTID":134326},"geometry":{"x":165886.20000000019,"y":2563450.4100000001}},{"attributes":{"ID":134327,"DIS_CODE":0,"TOWNNAME":"仁德區","LI":"成功里","LIN":"15鄰","STREET":"全福路","SECT":" ","MAREA":" ","LANE":"８０巷","ALLEY":"１４弄","HOUSE_NO":"２８號","E_COORD97":170950.87,"N_COORD97":2539281,"ADDRESS":"全福路８０巷１４弄２８號","OBJECTID":134327},"geometry":{"x":170950.87000000104,"y":2539281.0000000037}},{"attributes":{"ID":134328,"DIS_CODE":0,"TOWNNAME":"仁德區","LI":"後壁里","LIN":"23鄰","STREET":"中正路","SECT":"二段","MAREA":" ","LANE":"１８７巷","ALLEY":"６弄","HOUSE_NO":"２５號","E_COORD97":173066.84865599999,"N_COORD97":2538646.3745300001,"ADDRESS":"中正路二段１８７巷６弄２５號","OBJECTID":134328},"geometry":{"x":173066.84865599964,"y":2538646.3745300025}},{"attributes":{"ID":134329,"DIS_CODE":0,"TOWNNAME":"六甲區","LI":"水林里","LIN":"11鄰","STREET":"民族街","SECT":" ","MAREA":" ","LANE":"２７５巷","ALLEY":"６０弄","HOUSE_NO":"１０號","E_COORD97":182954.76000000001,"N_COORD97":2570283.4500000002,"ADDRESS":"民族街２７５巷６０弄１０號","OBJECTID":134329},"geometry":{"x":182954.76000000071,"y":2570283.4500000011}},{"attributes":{"ID":134330,"DIS_CODE":0,"TOWNNAME":"六甲區","LI":"水林里","LIN":"11鄰","STREET":"民族街","SECT":" ","MAREA":" ","LANE":"２７５巷","ALLEY":"６０弄","HOUSE_NO":"１２號","E_COORD97":182903.66,"N_COORD97":2570272.3599999999,"ADDRESS":"民族街２７５巷６０弄１２號","OBJECTID":134330},"geometry":{"x":182903.66000000108,"y":2570272.3599999994}},{"attributes":{"ID":134331,"DIS_CODE":0,"TOWNNAME":"六甲區","LI":"水林里","LIN":"11鄰","STREET":"民族街","SECT":" ","MAREA":" ","LANE":"２７５巷","ALLEY":"６０弄","HOUSE_NO":"４號","E_COORD97":182948.70000000001,"N_COORD97":2570267.52,"ADDRESS":"民族街２７５巷６０弄４號","OBJECTID":134331},"geometry":{"x":182948.70000000112,"y":2570267.5199999996}},{"attributes":{"ID":134332,"DIS_CODE":0,"TOWNNAME":"六甲區","LI":"水林里","LIN":"11鄰","STREET":"民族街","SECT":" ","MAREA":" ","LANE":"２７５巷","ALLEY":"６０弄","HOUSE_NO":"６號","E_COORD97":182935.32000000001,"N_COORD97":2570255.75,"ADDRESS":"民族街２７５巷６０弄６號","OBJECTID":134332},"geometry":{"x":182935.3200000003,"y":2570255.75}},{"attributes":{"ID":134333,"DIS_CODE":0,"TOWNNAME":"六甲區","LI":"水林里","LIN":"11鄰","STREET":"民族街","SECT":" ","MAREA":" ","LANE":"２７５巷","ALLEY":"６０弄","HOUSE_NO":"８號","E_COORD97":182924.85000000001,"N_COORD97":2570249.5499999998,"ADDRESS":"民族街２７５巷６０弄８號","OBJECTID":134333},"geometry":{"x":182924.85000000149,"y":2570249.5500000026}},{"attributes":{"ID":134334,"DIS_CODE":0,"TOWNNAME":"仁德區","LI":"後壁里","LIN":"35鄰","STREET":"德洋路","SECT":" ","MAREA":" ","LANE":"２０５巷","ALLEY":"１７弄","HOUSE_NO":"８號","E_COORD97":172429.39999999999,"N_COORD97":2539483.02,"ADDRESS":"德洋路２０５巷１７弄８號","OBJECTID":134334},"geometry":{"x":172429.4000000013,"y":2539483.0199999996}},{"attributes":{"ID":134335,"DIS_CODE":0,"TOWNNAME":"永康區","LI":"崑山里","LIN":"27鄰","STREET":"大灣路","SECT":" ","MAREA":" ","LANE":"１１０２巷","ALLEY":"１７弄","HOUSE_NO":"１號","E_COORD97":173219.70000000001,"N_COORD97":2544792,"ADDRESS":"大灣路１１０２巷１７弄１號","OBJECTID":134335},"geometry":{"x":173219.70000000205,"y":2544792.0000000019}},{"attributes":{"ID":134336,"DIS_CODE":0,"TOWNNAME":"玉井區","LI":"玉田里","LIN":"27鄰","STREET":"中山路","SECT":" ","MAREA":" ","LANE":"３巷","ALLEY":"２９弄","HOUSE_NO":"４號","E_COORD97":194848.29999999999,"N_COORD97":2557787.2400000002,"ADDRESS":"中山路３巷２９弄４號","OBJECTID":134336},"geometry":{"x":194848.30000000075,"y":2557787.2400000002}},{"attributes":{"ID":134337,"DIS_CODE":0,"TOWNNAME":"永康區","LI":"龍潭里","LIN":"27鄰","STREET":"中山北路","SECT":" ","MAREA":" ","LANE":"４６１巷","ALLEY":"２９弄","HOUSE_NO":"１９號","E_COORD97":175045.73999999999,"N_COORD97":2547847.5499999998,"ADDRESS":"中山北路４６１巷２９弄１９號","OBJECTID":134337},"geometry":{"x":175045.74000000115,"y":2547847.5500000007}},{"attributes":{"ID":134338,"DIS_CODE":0,"TOWNNAME":"仁德區","LI":"仁愛里","LIN":"28鄰","STREET":"大同路","SECT":"三段","MAREA":" ","LANE":"３５８巷","ALLEY":" ","HOUSE_NO":"６８號","E_COORD97":169717.65700000001,"N_COORD97":2539400.8300000001,"ADDRESS":"大同路三段３５８巷６８號","OBJECTID":134338},"geometry":{"x":169717.65700000059,"y":2539400.8299999982}},{"attributes":{"ID":134339,"DIS_CODE":0,"TOWNNAME":"佳里區","LI":"六安里","LIN":"21鄰","STREET":" ","SECT":" ","MAREA":"六安","LANE":" ","ALLEY":" ","HOUSE_NO":"２８１之７號","E_COORD97":165517.13,"N_COORD97":2563605.5899999999,"ADDRESS":"佳北路２８１之７號","OBJECTID":134339},"geometry":{"x":165517.13000000082,"y":2563605.5899999999}},{"attributes":{"ID":134340,"DIS_CODE":0,"TOWNNAME":"佳里區","LI":"安西里","LIN":" ","STREET":"佳北路","SECT":" ","MAREA":" ","LANE":" ","ALLEY":" ","HOUSE_NO":"４６１號","E_COORD97":165110.64000000001,"N_COORD97":2563319.5600000001,"ADDRESS":"佳北路４６１號","OBJECTID":134340},"geometry":{"x":165110.6400000006,"y":2563319.5600000024}},{"attributes":{"ID":134341,"DIS_CODE":0,"TOWNNAME":"佳里區","LI":"安西里","LIN":"13鄰","STREET":"和平街","SECT":" ","MAREA":" ","LANE":" ","ALLEY":" ","HOUSE_NO":"２４１號","E_COORD97":165322.95000000001,"N_COORD97":2562466.3999999999,"ADDRESS":"和平街２４１號","OBJECTID":134341},"geometry":{"x":165322.95000000019,"y":2562466.4000000022}},{"attributes":{"ID":134342,"DIS_CODE":0,"TOWNNAME":"佳里區","LI":"鎮山里","LIN":"2鄰","STREET":"自由街","SECT":" ","MAREA":" ","LANE":" ","ALLEY":" ","HOUSE_NO":"７５號","E_COORD97":165855.23000000001,"N_COORD97":2561775.1499999999,"ADDRESS":"自由街７５號","OBJECTID":134342},"geometry":{"x":165855.23000000045,"y":2561775.1500000004}},{"attributes":{"ID":134343,"DIS_CODE":0,"TOWNNAME":"佳里區","LI":"東寧里","LIN":" ","STREET":"佳東路","SECT":" ","MAREA":" ","LANE":" ","ALLEY":" ","HOUSE_NO":"３６３號","E_COORD97":166298.16,"N_COORD97":2562437.3100000001,"ADDRESS":"佳東路３６３號","OBJECTID":134343},"geometry":{"x":166298.16000000015,"y":2562437.3100000024}},{"attributes":{"ID":134344,"DIS_CODE":0,"TOWNNAME":"佳里區","LI":"東寧里","LIN":" ","STREET":"佳東路","SECT":" ","MAREA":" ","LANE":" ","ALLEY":" ","HOUSE_NO":"３９７號","E_COORD97":166270.5,"N_COORD97":2562525.71,"ADDRESS":"佳東路３９７號","OBJECTID":134344},"geometry":{"x":166270.49999999907,"y":2562525.7100000028}},{"attributes":{"ID":134345,"DIS_CODE":0,"TOWNNAME":"佳里區","LI":"鎮山里","LIN":" ","STREET":"佳南路","SECT":" ","MAREA":" ","LANE":" ","ALLEY":" ","HOUSE_NO":"２號","E_COORD97":166429.69,"N_COORD97":2561311.8199999998,"ADDRESS":"佳南路２號","OBJECTID":134345},"geometry":{"x":166429.69000000134,"y":2561311.8200000003}},{"attributes":{"ID":134346,"DIS_CODE":0,"TOWNNAME":"佳里區","LI":"建南里","LIN":" ","STREET":"佳南路","SECT":" ","MAREA":" ","LANE":" ","ALLEY":" ","HOUSE_NO":"４４２號","E_COORD97":165613.14999999999,"N_COORD97":2560950.46,"ADDRESS":"佳南路４４２號","OBJECTID":134346},"geometry":{"x":165613.15000000037,"y":2560950.4600000046}},{"attributes":{"ID":134347,"DIS_CODE":0,"TOWNNAME":"佳里區","LI":"建南里","LIN":" ","STREET":"佳南路","SECT":" ","MAREA":" ","LANE":" ","ALLEY":" ","HOUSE_NO":"７１７號","E_COORD97":165366.38,"N_COORD97":2560953.6000000001,"ADDRESS":"佳南路７１７號","OBJECTID":134347},"geometry":{"x":165366.38000000082,"y":2560953.5999999996}},{"attributes":{"ID":134348,"DIS_CODE":0,"TOWNNAME":"佳里區","LI":"安西里","LIN":" ","STREET":"和平街","SECT":" ","MAREA":" ","LANE":" ","ALLEY":" ","HOUSE_NO":"１２３號","E_COORD97":165672.57000000001,"N_COORD97":2562492.5699999998,"ADDRESS":"和平街１２３號","OBJECTID":134348},"geometry":{"x":165672.57000000123,"y":2562492.5700000022}},{"attributes":{"ID":134349,"DIS_CODE":0,"TOWNNAME":"佳里區","LI":"安西里","LIN":" ","STREET":"和平街","SECT":" ","MAREA":" ","LANE":" ","ALLEY":" ","HOUSE_NO":"１２５號","E_COORD97":165676.94,"N_COORD97":2562492.8999999999,"ADDRESS":"和平街１２５號","OBJECTID":134349},"geometry":{"x":165676.94000000134,"y":2562492.9000000041}},{"attributes":{"ID":134350,"DIS_CODE":0,"TOWNNAME":"永康區","LI":"龍潭里","LIN":"27鄰","STREET":"中山北路","SECT":" ","MAREA":" ","LANE":"４６１巷","ALLEY":"２９弄","HOUSE_NO":"２０號","E_COORD97":175070.01000000001,"N_COORD97":2547872.1400000001,"ADDRESS":"中山北路４６１巷２９弄２０號","OBJECTID":134350},"geometry":{"x":175070.01000000164,"y":2547872.1400000043}},{"attributes":{"ID":134351,"DIS_CODE":0,"TOWNNAME":"永康區","LI":"\u25A0行里","LIN":"27鄰","STREET":"中正南路","SECT":" ","MAREA":" ","LANE":"３６０巷","ALLEY":"１１弄","HOUSE_NO":"５號","E_COORD97":171135.84,"N_COORD97":2548205.25,"ADDRESS":"中正南路３６０巷１１弄５號","OBJECTID":134351},"geometry":{"x":171135.84000000078,"y":2548205.25}},{"attributes":{"ID":134352,"DIS_CODE":0,"TOWNNAME":"仁德區","LI":"成功里","LIN":"15鄰","STREET":"全福路","SECT":" ","MAREA":" ","LANE":"８０巷","ALLEY":"１４弄","HOUSE_NO":"１４號","E_COORD97":170980.62,"N_COORD97":2539278.25,"ADDRESS":"全福路８０巷１４弄１４號","OBJECTID":134352},"geometry":{"x":170980.62000000011,"y":2539278.25}},{"attributes":{"ID":134353,"DIS_CODE":0,"TOWNNAME":"佳里區","LI":"安西里","LIN":" ","STREET":"和平街","SECT":" ","MAREA":" ","LANE":" ","ALLEY":" ","HOUSE_NO":"１２７號","E_COORD97":165668.28,"N_COORD97":2562492.0099999998,"ADDRESS":"和平街１２７號","OBJECTID":134353},"geometry":{"x":165668.28000000026,"y":2562492.0100000016}},{"attributes":{"ID":134354,"DIS_CODE":0,"TOWNNAME":"永康區","LI":"龍潭里","LIN":"27鄰","STREET":"中山北路","SECT":" ","MAREA":" ","LANE":"４６１巷","ALLEY":"３０弄","HOUSE_NO":"１３號","E_COORD97":175135.92000000001,"N_COORD97":2547875.3599999999,"ADDRESS":"中山北路４６１巷３０弄１３號","OBJECTID":134354},"geometry":{"x":175135.92000000086,"y":2547875.3599999994}},{"attributes":{"ID":134355,"DIS_CODE":0,"TOWNNAME":"永康區","LI":"龍潭里","LIN":"27鄰","STREET":"中山北路","SECT":" ","MAREA":" ","LANE":"４６１巷","ALLEY":"１１弄","HOUSE_NO":"１８號","E_COORD97":175051.63,"N_COORD97":2547822.1200000001,"ADDRESS":"中山北路４６１巷１１弄１８號","OBJECTID":134355},"geometry":{"x":175051.62999999989,"y":2547822.1200000029}},{"attributes":{"ID":134356,"DIS_CODE":0,"TOWNNAME":"永康區","LI":"崑山里","LIN":"27鄰","STREET":"大灣路","SECT":" ","MAREA":" ","LANE":"１１０２巷","ALLEY":"１７弄","HOUSE_NO":"９１號","E_COORD97":173401.70999999999,"N_COORD97":2544738.2400000002,"ADDRESS":"大灣路１１０２巷１７弄９１號","OBJECTID":134356},"geometry":{"x":173401.70999999996,"y":2544738.2400000039}},{"attributes":{"ID":134357,"DIS_CODE":0,"TOWNNAME":"永康區","LI":"崑山里","LIN":"27鄰","STREET":"大灣路","SECT":" ","MAREA":" ","LANE":"１１０２巷","ALLEY":"１７弄","HOUSE_NO":"９５號","E_COORD97":173404.17000000001,"N_COORD97":2544745.7400000002,"ADDRESS":"大灣路１１０２巷１７弄９５號","OBJECTID":134357},"geometry":{"x":173404.16999999993,"y":2544745.7400000021}},{"attributes":{"ID":134358,"DIS_CODE":0,"TOWNNAME":"永康區","LI":"崑山里","LIN":"27鄰","STREET":"大灣路","SECT":" ","MAREA":" ","LANE":"１１０２巷","ALLEY":"１７弄","HOUSE_NO":"８７號","E_COORD97":173397.87,"N_COORD97":2544727.2400000002,"ADDRESS":"大灣路１１０２巷１７弄８７號","OBJECTID":134358},"geometry":{"x":173397.87000000011,"y":2544727.2400000002}},{"attributes":{"ID":134359,"DIS_CODE":0,"TOWNNAME":"永康區","LI":"崑山里","LIN":"27鄰","STREET":"大灣路","SECT":" ","MAREA":" ","LANE":"１１０２巷","ALLEY":"１７弄","HOUSE_NO":"４１號","E_COORD97":173305.98999999999,"N_COORD97":2544759.2000000002,"ADDRESS":"大灣路１１０２巷１７弄４１號","OBJECTID":134359},"geometry":{"x":173305.99000000209,"y":2544759.2000000011}},{"attributes":{"ID":134360,"DIS_CODE":0,"TOWNNAME":"永康區","LI":"東橋里","LIN":"27鄰","STREET":"中正路","SECT":" ","MAREA":" ","LANE":"２７９巷","ALLEY":"２１弄","HOUSE_NO":"３７號","E_COORD97":172536.54999999999,"N_COORD97":2547762.75,"ADDRESS":"中正路２７９巷２１弄３７號","OBJECTID":134360},"geometry":{"x":172536.54999999981,"y":2547762.7500000019}},{"attributes":{"ID":134361,"DIS_CODE":0,"TOWNNAME":"永康區","LI":"崑山里","LIN":"27鄰","STREET":"大灣路","SECT":" ","MAREA":" ","LANE":"１１０２巷","ALLEY":"１７弄","HOUSE_NO":"８５號","E_COORD97":173394.82000000001,"N_COORD97":2544717.9900000002,"ADDRESS":"大灣路１１０２巷１７弄８５號","OBJECTID":134361},"geometry":{"x":173394.8200000003,"y":2544717.9900000002}},{"attributes":{"ID":134362,"DIS_CODE":0,"TOWNNAME":"永康區","LI":"崑山里","LIN":"27鄰","STREET":"大灣路","SECT":" ","MAREA":" ","LANE":"１１０２巷","ALLEY":"１７弄","HOUSE_NO":"１２１號","E_COORD97":173444.17999999999,"N_COORD97":2544676.6699999999,"ADDRESS":"大灣路１１０２巷１７弄１２１號","OBJECTID":134362},"geometry":{"x":173444.1799999997,"y":2544676.6699999999}},{"attributes":{"ID":134363,"DIS_CODE":0,"TOWNNAME":"永康區","LI":"崑山里","LIN":"27鄰","STREET":"大灣路","SECT":" ","MAREA":" ","LANE":"１１０２巷","ALLEY":"１７弄","HOUSE_NO":"７５號","E_COORD97":173380.85999999999,"N_COORD97":2544692.1699999999,"ADDRESS":"大灣路１１０２巷１７弄７５號","OBJECTID":134363},"geometry":{"x":173380.86000000034,"y":2544692.1700000018}},{"attributes":{"ID":134364,"DIS_CODE":0,"TOWNNAME":"佳里區","LI":"東寧里","LIN":" ","STREET":"和平街","SECT":" ","MAREA":" ","LANE":" ","ALLEY":" ","HOUSE_NO":"１３２號","E_COORD97":165739.06,"N_COORD97":2562521.46,"ADDRESS":"和平街１３２號","OBJECTID":134364},"geometry":{"x":165739.05999999866,"y":2562521.4600000028}},{"attributes":{"ID":134365,"DIS_CODE":0,"TOWNNAME":"佳里區","LI":"安西里","LIN":" ","STREET":"和平街","SECT":" ","MAREA":" ","LANE":" ","ALLEY":" ","HOUSE_NO":"１６８號","E_COORD97":165602.91,"N_COORD97":2562505.02,"ADDRESS":"和平街１６８號","OBJECTID":134365},"geometry":{"x":165602.91000000015,"y":2562505.0200000014}},{"attributes":{"ID":134366,"DIS_CODE":0,"TOWNNAME":"佳里區","LI":"東寧里","LIN":" ","STREET":"和平街","SECT":" ","MAREA":" ","LANE":" ","ALLEY":" ","HOUSE_NO":"１７號","E_COORD97":166051.73000000001,"N_COORD97":2562504.3500000001,"ADDRESS":"和平街１７號","OBJECTID":134366},"geometry":{"x":166051.73000000045,"y":2562504.3499999996}},{"attributes":{"ID":134367,"DIS_CODE":0,"TOWNNAME":"佳里區","LI":"安西里","LIN":" ","STREET":"和平街","SECT":" ","MAREA":" ","LANE":" ","ALLEY":" ","HOUSE_NO":"１８７號","E_COORD97":165454.34,"N_COORD97":2562467.8999999999,"ADDRESS":"和平街１８７號","OBJECTID":134367},"geometry":{"x":165454.33999999892,"y":2562467.9000000004}},{"attributes":{"ID":134368,"DIS_CODE":0,"TOWNNAME":"佳里區","LI":"安西里","LIN":" ","STREET":"和平街","SECT":" ","MAREA":" ","LANE":" ","ALLEY":" ","HOUSE_NO":"２０９號","E_COORD97":165399.10000000001,"N_COORD97":2562465.8300000001,"ADDRESS":"和平街２０９號","OBJECTID":134368},"geometry":{"x":165399.09999999963,"y":2562465.8300000038}},{"attributes":{"ID":134369,"DIS_CODE":0,"TOWNNAME":"佳里區","LI":"安西里","LIN":" ","STREET":"和平街","SECT":" ","MAREA":" ","LANE":" ","ALLEY":" ","HOUSE_NO":"２１６號","E_COORD97":165402.79999999999,"N_COORD97":2562486.1800000002,"ADDRESS":"和平街２１６號","OBJECTID":134369},"geometry":{"x":165402.80000000075,"y":2562486.1799999997}},{"attributes":{"ID":134370,"DIS_CODE":0,"TOWNNAME":"佳里區","LI":"東寧里","LIN":" ","STREET":"和平街","SECT":" ","MAREA":" ","LANE":" ","ALLEY":" ","HOUSE_NO":"２８號","E_COORD97":166011.75,"N_COORD97":2562522.5099999998,"ADDRESS":"和平街２８號","OBJECTID":134370},"geometry":{"x":166011.75000000093,"y":2562522.5100000016}},{"attributes":{"ID":134371,"DIS_CODE":0,"TOWNNAME":"佳里區","LI":"安西里","LIN":" ","STREET":"和平街","SECT":" ","MAREA":" ","LANE":" ","ALLEY":" ","HOUSE_NO":"２９７號","E_COORD97":165191.01000000001,"N_COORD97":2562461.46,"ADDRESS":"和平街２９７號","OBJECTID":134371},"geometry":{"x":165191.01000000071,"y":2562461.4600000009}},{"attributes":{"ID":134372,"DIS_CODE":0,"TOWNNAME":"佳里區","LI":"安西里","LIN":" ","STREET":"和平街","SECT":" ","MAREA":" ","LANE":" ","ALLEY":" ","HOUSE_NO":"２９８號","E_COORD97":165212.69,"N_COORD97":2562496.29,"ADDRESS":"和平街２９８號","OBJECTID":134372},"geometry":{"x":165212.69000000134,"y":2562496.290000001}},{"attributes":{"ID":134373,"DIS_CODE":0,"TOWNNAME":"佳里區","LI":"東寧里","LIN":" ","STREET":"和平街","SECT":" ","MAREA":" ","LANE":" ","ALLEY":" ","HOUSE_NO":"５１號","E_COORD97":165946.70000000001,"N_COORD97":2562500.3599999999,"ADDRESS":"和平街５１號","OBJECTID":134373},"geometry":{"x":165946.70000000019,"y":2562500.3600000013}},{"attributes":{"ID":134374,"DIS_CODE":0,"TOWNNAME":"佳里區","LI":"忠仁里","LIN":" ","STREET":"延平路","SECT":" ","MAREA":" ","LANE":" ","ALLEY":" ","HOUSE_NO":"１７４號","E_COORD97":165924.54999999999,"N_COORD97":2561976.23,"ADDRESS":"延平路１７４號","OBJECTID":134374},"geometry":{"x":165924.55000000075,"y":2561976.2300000023}},{"attributes":{"ID":134375,"DIS_CODE":0,"TOWNNAME":"佳里區","LI":"忠仁里","LIN":" ","STREET":"延平路","SECT":" ","MAREA":" ","LANE":" ","ALLEY":" ","HOUSE_NO":"１７６號","E_COORD97":165924.26000000001,"N_COORD97":2561980.98,"ADDRESS":"延平路１７６號","OBJECTID":134375},"geometry":{"x":165924.25999999978,"y":2561980.9800000023}},{"attributes":{"ID":134376,"DIS_CODE":0,"TOWNNAME":"佳里區","LI":"忠仁里","LIN":" ","STREET":"延平路","SECT":" ","MAREA":" ","LANE":" ","ALLEY":" ","HOUSE_NO":"１７８號","E_COORD97":165923.60999999999,"N_COORD97":2561986.04,"ADDRESS":"延平路１７８號","OBJECTID":134376},"geometry":{"x":165923.61000000034,"y":2561986.040000001}},{"attributes":{"ID":134377,"DIS_CODE":0,"TOWNNAME":"佳里區","LI":"忠仁里","LIN":" ","STREET":"延平路","SECT":" ","MAREA":" ","LANE":" ","ALLEY":" ","HOUSE_NO":"２５９號","E_COORD97":165852.35999999999,"N_COORD97":2562290.25,"ADDRESS":"延平路２５９號","OBJECTID":134377},"geometry":{"x":165852.36000000127,"y":2562290.2500000019}},{"attributes":{"ID":134378,"DIS_CODE":0,"TOWNNAME":"永康區","LI":"崑山里","LIN":"27鄰","STREET":"大灣路","SECT":" ","MAREA":" ","LANE":"１１０２巷","ALLEY":"１７弄","HOUSE_NO":"９９號","E_COORD97":173407.87,"N_COORD97":2544755.75,"ADDRESS":"大灣路１１０２巷１７弄９９號","OBJECTID":134378},"geometry":{"x":173407.87000000011,"y":2544755.7500000019}},{"attributes":{"ID":134379,"DIS_CODE":0,"TOWNNAME":"永康區","LI":"崑山里","LIN":"27鄰","STREET":"大灣路","SECT":" ","MAREA":" ","LANE":"１１０２巷","ALLEY":"１７弄","HOUSE_NO":"９３號","E_COORD97":173403.01999999999,"N_COORD97":2544742.2400000002,"ADDRESS":"大灣路１１０２巷１７弄９３號","OBJECTID":134379},"geometry":{"x":173403.01999999955,"y":2544742.2400000021}},{"attributes":{"ID":134380,"DIS_CODE":0,"TOWNNAME":"永康區","LI":"崑山里","LIN":"27鄰","STREET":"大灣路","SECT":" ","MAREA":" ","LANE":"１１０２巷","ALLEY":"１７弄","HOUSE_NO":"１０３號","E_COORD97":173411.20000000001,"N_COORD97":2544769.25,"ADDRESS":"大灣路１１０２巷１７弄１０３號","OBJECTID":134380},"geometry":{"x":173411.19999999925,"y":2544769.2500000019}},{"attributes":{"ID":134381,"DIS_CODE":0,"TOWNNAME":"永康區","LI":"東橋里","LIN":"27鄰","STREET":"中正路","SECT":" ","MAREA":" ","LANE":"２７９巷","ALLEY":"２１弄","HOUSE_NO":"１號","E_COORD97":172558.20000000001,"N_COORD97":2547862,"ADDRESS":"中正路２７９巷２１弄１號","OBJECTID":134381},"geometry":{"x":172558.20000000019,"y":2547861.9999999981}},{"attributes":{"ID":134382,"DIS_CODE":0,"TOWNNAME":"仁德區","LI":"後壁里","LIN":"27鄰","STREET":"中正路","SECT":"二段","MAREA":" ","LANE":"３０１巷","ALLEY":"１１弄","HOUSE_NO":"１８號","E_COORD97":173180.88,"N_COORD97":2539074.48,"ADDRESS":"中正路二段３０１巷１１弄１８號","OBJECTID":134382},"geometry":{"x":173180.88000000175,"y":2539074.4800000004}},{"attributes":{"ID":134383,"DIS_CODE":0,"TOWNNAME":"仁德區","LI":"後壁里","LIN":"27鄰","STREET":"中正路","SECT":"二段","MAREA":" ","LANE":"３０１巷","ALLEY":"１９弄","HOUSE_NO":"２號","E_COORD97":173172.19,"N_COORD97":2539107.4500000002,"ADDRESS":"中正路二段３０１巷１９弄２號","OBJECTID":134383},"geometry":{"x":173172.19000000041,"y":2539107.4499999993}},{"attributes":{"ID":134384,"DIS_CODE":0,"TOWNNAME":"仁德區","LI":"後壁里","LIN":"27鄰","STREET":"中正路","SECT":"二段","MAREA":" ","LANE":"３０１巷","ALLEY":"１９弄","HOUSE_NO":"６號","E_COORD97":173167.23999999999,"N_COORD97":2539100.96,"ADDRESS":"中正路二段３０１巷１９弄６號","OBJECTID":134384},"geometry":{"x":173167.24000000115,"y":2539100.9600000009}},{"attributes":{"ID":134385,"DIS_CODE":0,"TOWNNAME":"仁德區","LI":"後壁里","LIN":"27鄰","STREET":"中正路","SECT":"二段","MAREA":" ","LANE":"３０１巷","ALLEY":"１９弄","HOUSE_NO":"１３號","E_COORD97":173163.13,"N_COORD97":2539084.46,"ADDRESS":"中正路二段３０１巷１９弄１３號","OBJECTID":134385},"geometry":{"x":173163.12999999989,"y":2539084.4600000009}},{"attributes":{"ID":134386,"DIS_CODE":0,"TOWNNAME":"仁德區","LI":"後壁里","LIN":"27鄰","STREET":"中正路","SECT":"二段","MAREA":" ","LANE":"３０１巷","ALLEY":"１９弄","HOUSE_NO":"８號","E_COORD97":173164.66,"N_COORD97":2539097.71,"ADDRESS":"中正路二段３０１巷１９弄８號","OBJECTID":134386},"geometry":{"x":173164.66000000108,"y":2539097.7100000046}},{"attributes":{"ID":134387,"DIS_CODE":0,"TOWNNAME":"仁德區","LI":"後壁里","LIN":"27鄰","STREET":"中正路","SECT":"二段","MAREA":" ","LANE":"３０１巷","ALLEY":"２０弄","HOUSE_NO":"１號","E_COORD97":173207.29000000001,"N_COORD97":2539129.3500000001,"ADDRESS":"中正路二段３０１巷２０弄１號","OBJECTID":134387},"geometry":{"x":173207.29000000097,"y":2539129.3500000034}},{"attributes":{"ID":134388,"DIS_CODE":0,"TOWNNAME":"仁德區","LI":"後壁里","LIN":"27鄰","STREET":"德洋一街","SECT":" ","MAREA":" ","LANE":"３０巷","ALLEY":"１９弄","HOUSE_NO":"１９號","E_COORD97":173196.48000000001,"N_COORD97":2539140.3399999999,"ADDRESS":"德洋一街３０巷１９弄１９號","OBJECTID":134388},"geometry":{"x":173196.48000000138,"y":2539140.3400000017}},{"attributes":{"ID":134389,"DIS_CODE":0,"TOWNNAME":"仁德區","LI":"後壁里","LIN":"27鄰","STREET":"中正路","SECT":"二段","MAREA":" ","LANE":"３０１巷","ALLEY":"１１弄","HOUSE_NO":"２號","E_COORD97":173199.34,"N_COORD97":2539101.4700000002,"ADDRESS":"中正路二段３０１巷１１弄２號","OBJECTID":134389},"geometry":{"x":173199.33999999985,"y":2539101.4700000007}},{"attributes":{"ID":134390,"DIS_CODE":0,"TOWNNAME":"仁德區","LI":"後壁里","LIN":"27鄰","STREET":"中正路","SECT":"二段","MAREA":" ","LANE":"３０１巷","ALLEY":"１１弄","HOUSE_NO":"６號","E_COORD97":173194.85000000001,"N_COORD97":2539095.73,"ADDRESS":"中正路二段３０１巷１１弄６號","OBJECTID":134390},"geometry":{"x":173194.85000000056,"y":2539095.7300000004}},{"attributes":{"ID":134391,"DIS_CODE":0,"TOWNNAME":"仁德區","LI":"後壁里","LIN":"27鄰","STREET":"中正路","SECT":"二段","MAREA":" ","LANE":"３０１巷","ALLEY":"２０弄","HOUSE_NO":"７號","E_COORD97":173215.72,"N_COORD97":2539140.1000000001,"ADDRESS":"中正路二段３０１巷２０弄７號","OBJECTID":134391},"geometry":{"x":173215.7200000016,"y":2539140.0999999996}},{"attributes":{"ID":134392,"DIS_CODE":0,"TOWNNAME":"仁德區","LI":"後壁里","LIN":"27鄰","STREET":"中正路","SECT":"二段","MAREA":" ","LANE":"３０１巷","ALLEY":"２０弄","HOUSE_NO":"９號","E_COORD97":173222.28,"N_COORD97":2539126.6400000001,"ADDRESS":"中正路二段３０１巷２０弄９號","OBJECTID":134392},"geometry":{"x":173222.28000000026,"y":2539126.6400000006}},{"attributes":{"ID":134393,"DIS_CODE":0,"TOWNNAME":"仁德區","LI":"後壁里","LIN":"27鄰","STREET":"中正路","SECT":"二段","MAREA":" ","LANE":"３０１巷","ALLEY":"１９弄","HOUSE_NO":"４號","E_COORD97":173169.73999999999,"N_COORD97":2539104.2000000002,"ADDRESS":"中正路二段３０１巷１９弄４號","OBJECTID":134393},"geometry":{"x":173169.74000000022,"y":2539104.2000000011}},{"attributes":{"ID":134394,"DIS_CODE":0,"TOWNNAME":"仁德區","LI":"後壁里","LIN":"27鄰","STREET":"中正路","SECT":"二段","MAREA":" ","LANE":"３０１巷","ALLEY":"１１弄","HOUSE_NO":"１０號","E_COORD97":173191.12,"N_COORD97":2539088.73,"ADDRESS":"中正路二段３０１巷１１弄１０號","OBJECTID":134394},"geometry":{"x":173191.12000000011,"y":2539088.7300000004}},{"attributes":{"ID":134395,"DIS_CODE":0,"TOWNNAME":"仁德區","LI":"後壁里","LIN":"27鄰","STREET":"德洋一街","SECT":" ","MAREA":" ","LANE":"３０巷","ALLEY":"１９弄","HOUSE_NO":"１２號","E_COORD97":173193.69,"N_COORD97":2539162.6000000001,"ADDRESS":"德洋一街３０巷１９弄１２號","OBJECTID":134395},"geometry":{"x":173193.69000000134,"y":2539162.6000000015}},{"attributes":{"ID":134396,"DIS_CODE":0,"TOWNNAME":"永康區","LI":"西灣里","LIN":"27鄰","STREET":"國光八街","SECT":" ","MAREA":" ","LANE":"１２巷","ALLEY":"３弄","HOUSE_NO":"１０號","E_COORD97":174407.64999999999,"N_COORD97":2545812.6299999999,"ADDRESS":"國光八街１２巷３弄１０號","OBJECTID":134396},"geometry":{"x":174407.6500000013,"y":2545812.6300000027}},{"attributes":{"ID":134397,"DIS_CODE":0,"TOWNNAME":"永康區","LI":"西灣里","LIN":"27鄰","STREET":"國光八街","SECT":" ","MAREA":" ","LANE":"１２巷","ALLEY":"３弄","HOUSE_NO":"１２號","E_COORD97":174403.14000000001,"N_COORD97":2545813.1200000001,"ADDRESS":"國光八街１２巷３弄１２號","OBJECTID":134397},"geometry":{"x":174403.1400000006,"y":2545813.120000001}},{"attributes":{"ID":134398,"DIS_CODE":0,"TOWNNAME":"永康區","LI":"西灣里","LIN":"27鄰","STREET":"國光八街","SECT":" ","MAREA":" ","LANE":"１２巷","ALLEY":"３弄","HOUSE_NO":"６號","E_COORD97":174415.62,"N_COORD97":2545811.8300000001,"ADDRESS":"國光八街１２巷３弄６號","OBJECTID":134398},"geometry":{"x":174415.62000000104,"y":2545811.8300000001}},{"attributes":{"ID":134399,"DIS_CODE":0,"TOWNNAME":"永康區","LI":"西灣里","LIN":"27鄰","STREET":"國光八街","SECT":" ","MAREA":" ","LANE":"１２巷","ALLEY":"３弄","HOUSE_NO":"８號","E_COORD97":174411.41,"N_COORD97":2545812.1400000001,"ADDRESS":"國光八街１２巷３弄８號","OBJECTID":134399},"geometry":{"x":174411.41000000015,"y":2545812.1400000025}},{"attributes":{"ID":134400,"DIS_CODE":0,"TOWNNAME":"仁德區","LI":"後壁里","LIN":"27鄰","STREET":"中正路","SECT":"二段","MAREA":" ","LANE":"３０１巷","ALLEY":"１１弄","HOUSE_NO":"１２號","E_COORD97":173188.54999999999,"N_COORD97":2539085.23,"ADDRESS":"中正路二段３０１巷１１弄１２號","OBJECTID":134400},"geometry":{"x":173188.55000000075,"y":2539085.2300000004}}]}