{"displayFieldName":"TOWNNAME","fieldAliases":{"ID":"ID","DIS_CODE":"DIS_CODE","TOWNNAME":"TOWNNAME","LI":"LI","LIN":"LIN","STREET":"STREET","SECT":"SECT","MAREA":"MAREA","LANE":"LANE","ALLEY":"ALLEY","HOUSE_NO":"HOUSE_NO","E_COORD97":"E_COORD97","N_COORD97":"N_COORD97","ADDRESS":"ADDRESS","OBJECTID":"OBJECTID"},"geometryType":"esriGeometryPoint","spatialReference":{"wkid":102443,"latestWkid":3826},"fields":[{"name":"ID","type":"esriFieldTypeDouble","alias":"ID"},{"name":"DIS_CODE","type":"esriFieldTypeInteger","alias":"DIS_CODE"},{"name":"TOWNNAME","type":"esriFieldTypeString","alias":"TOWNNAME","length":8},{"name":"LI","type":"esriFieldTypeString","alias":"LI","length":8},{"name":"LIN","type":"esriFieldTypeString","alias":"LIN","length":12},{"name":"STREET","type":"esriFieldTypeString","alias":"STREET","length":20},{"name":"SECT","type":"esriFieldTypeString","alias":"SECT","length":8},{"name":"MAREA","type":"esriFieldTypeString","alias":"MAREA","length":12},{"name":"LANE","type":"esriFieldTypeString","alias":"LANE","length":10},{"name":"ALLEY","type":"esriFieldTypeString","alias":"ALLEY","length":10},{"name":"HOUSE_NO","type":"esriFieldTypeString","alias":"HOUSE_NO","length":20},{"name":"E_COORD97","type":"esriFieldTypeDouble","alias":"E_COORD97"},{"name":"N_COORD97","type":"esriFieldTypeDouble","alias":"N_COORD97"},{"name":"ADDRESS","type":"esriFieldTypeString","alias":"ADDRESS","length":50},{"name":"OBJECTID","type":"esriFieldTypeOID","alias":"OBJECTID"}],"features":[{"attributes":{"ID":574828,"DIS_CODE":0,"TOWNNAME":"永康區","LI":"網寮里","LIN":"23鄰","STREET":"永大一路","SECT":" ","MAREA":" ","LANE":" ","ALLEY":" ","HOUSE_NO":"２０３號","E_COORD97":173791.89000000001,"N_COORD97":2546331.5499999998,"ADDRESS":"永大一路２０３號","OBJECTID":574801},"geometry":{"x":173791.88999999966,"y":2546331.5500000026}},{"attributes":{"ID":574829,"DIS_CODE":0,"TOWNNAME":"仁德區","LI":"太子里","LIN":"23鄰","STREET":"長興四街","SECT":" ","MAREA":" ","LANE":" ","ALLEY":" ","HOUSE_NO":"９６號","E_COORD97":173811.17000000001,"N_COORD97":2543569.25,"ADDRESS":"長興四街９６號","OBJECTID":574802},"geometry":{"x":173811.16999999899,"y":2543569.2500000019}},{"attributes":{"ID":574830,"DIS_CODE":0,"TOWNNAME":"仁德區","LI":"太子里","LIN":"23鄰","STREET":"長興四街","SECT":" ","MAREA":" ","LANE":" ","ALLEY":" ","HOUSE_NO":"１００號","E_COORD97":173795.84,"N_COORD97":2543552.5099999998,"ADDRESS":"長興四街１００號","OBJECTID":574803},"geometry":{"x":173795.83999999985,"y":2543552.5099999979}},{"attributes":{"ID":574831,"DIS_CODE":0,"TOWNNAME":"官田區","LI":"隆本里","LIN":"23鄰","STREET":"勝利路","SECT":" ","MAREA":" ","LANE":" ","ALLEY":" ","HOUSE_NO":"５０號","E_COORD97":179923.25,"N_COORD97":2565924.3599999999,"ADDRESS":"勝利路５０號","OBJECTID":574804},"geometry":{"x":179923.25,"y":2565924.3600000013}},{"attributes":{"ID":574832,"DIS_CODE":0,"TOWNNAME":"官田區","LI":"隆本里","LIN":"23鄰","STREET":"勝利路","SECT":" ","MAREA":" ","LANE":" ","ALLEY":" ","HOUSE_NO":"５２號","E_COORD97":179928.47,"N_COORD97":2565927.3700000001,"ADDRESS":"勝利路５２號","OBJECTID":574805},"geometry":{"x":179928.46999999974,"y":2565927.370000001}},{"attributes":{"ID":574833,"DIS_CODE":0,"TOWNNAME":"官田區","LI":"隆本里","LIN":"23鄰","STREET":"勝利路","SECT":" ","MAREA":" ","LANE":" ","ALLEY":" ","HOUSE_NO":"５６號","E_COORD97":179932.79000000001,"N_COORD97":2565930.9900000002,"ADDRESS":"勝利路５６號","OBJECTID":574806},"geometry":{"x":179932.79000000004,"y":2565930.9900000021}},{"attributes":{"ID":574834,"DIS_CODE":0,"TOWNNAME":"官田區","LI":"隆本里","LIN":"23鄰","STREET":"勝利路","SECT":" ","MAREA":" ","LANE":" ","ALLEY":" ","HOUSE_NO":"５８號","E_COORD97":179936.37,"N_COORD97":2565955.98,"ADDRESS":"勝利路５８號","OBJECTID":574807},"geometry":{"x":179936.37000000011,"y":2565955.9800000004}},{"attributes":{"ID":574835,"DIS_CODE":0,"TOWNNAME":"官田區","LI":"隆本里","LIN":"23鄰","STREET":"勝利路","SECT":" ","MAREA":" ","LANE":" ","ALLEY":" ","HOUSE_NO":"６０號","E_COORD97":179949.94,"N_COORD97":2565949.2799999998,"ADDRESS":"勝利路６０號","OBJECTID":574808},"geometry":{"x":179949.94000000227,"y":2565949.2799999993}},{"attributes":{"ID":574836,"DIS_CODE":0,"TOWNNAME":"官田區","LI":"隆本里","LIN":"23鄰","STREET":"勝利路","SECT":" ","MAREA":" ","LANE":" ","ALLEY":" ","HOUSE_NO":"６２號","E_COORD97":179954.39999999999,"N_COORD97":2565953.7000000002,"ADDRESS":"勝利路６２號","OBJECTID":574809},"geometry":{"x":179954.4000000013,"y":2565953.6999999993}},{"attributes":{"ID":574837,"DIS_CODE":0,"TOWNNAME":"永康區","LI":"復華里","LIN":"16鄰","STREET":"復華七街","SECT":" ","MAREA":" ","LANE":" ","ALLEY":" ","HOUSE_NO":"９０號","E_COORD97":172836.17000000001,"N_COORD97":2546132.6800000002,"ADDRESS":"復華七街９０號","OBJECTID":574810},"geometry":{"x":172836.16999999993,"y":2546132.6800000016}},{"attributes":{"ID":574838,"DIS_CODE":0,"TOWNNAME":"官田區","LI":"隆本里","LIN":"23鄰","STREET":"勝利路","SECT":" ","MAREA":" ","LANE":" ","ALLEY":" ","HOUSE_NO":"６６號","E_COORD97":179958.29999999999,"N_COORD97":2565956.77,"ADDRESS":"勝利路６６號","OBJECTID":574811},"geometry":{"x":179958.29999999981,"y":2565956.7699999996}},{"attributes":{"ID":574839,"DIS_CODE":0,"TOWNNAME":"永康區","LI":"復華里","LIN":"39鄰","STREET":"復國一路","SECT":" ","MAREA":" ","LANE":" ","ALLEY":" ","HOUSE_NO":"４１３號","E_COORD97":172724.98999999999,"N_COORD97":2545990.5299999998,"ADDRESS":"復國一路４１３號","OBJECTID":574812},"geometry":{"x":172724.99000000115,"y":2545990.5300000012}},{"attributes":{"ID":574840,"DIS_CODE":0,"TOWNNAME":"官田區","LI":"隆本里","LIN":"23鄰","STREET":"勝利路","SECT":" ","MAREA":" ","LANE":" ","ALLEY":" ","HOUSE_NO":"７０號","E_COORD97":179964.01000000001,"N_COORD97":2565965.1000000001,"ADDRESS":"勝利路７０號","OBJECTID":574813},"geometry":{"x":179964.01000000164,"y":2565965.0999999996}},{"attributes":{"ID":574841,"DIS_CODE":0,"TOWNNAME":"官田區","LI":"隆本里","LIN":"23鄰","STREET":"勝利路","SECT":" ","MAREA":" ","LANE":" ","ALLEY":" ","HOUSE_NO":"７２號","E_COORD97":179968.01000000001,"N_COORD97":2565967.1000000001,"ADDRESS":"勝利路７２號","OBJECTID":574814},"geometry":{"x":179968.01000000071,"y":2565967.1000000015}},{"attributes":{"ID":574842,"DIS_CODE":0,"TOWNNAME":"官田區","LI":"隆本里","LIN":"23鄰","STREET":"勝利路","SECT":" ","MAREA":" ","LANE":" ","ALLEY":" ","HOUSE_NO":"７６號","E_COORD97":179965.82999999999,"N_COORD97":2565985.2599999998,"ADDRESS":"勝利路７６號","OBJECTID":574815},"geometry":{"x":179965.83000000101,"y":2565985.2600000035}},{"attributes":{"ID":574843,"DIS_CODE":0,"TOWNNAME":"永康區","LI":"龍潭里","LIN":"25鄰","STREET":"龍昌街","SECT":" ","MAREA":" ","LANE":" ","ALLEY":" ","HOUSE_NO":"２５號","E_COORD97":175002.44,"N_COORD97":2547812.5299999998,"ADDRESS":"龍昌街２５號","OBJECTID":574816},"geometry":{"x":175002.44000000134,"y":2547812.5299999993}},{"attributes":{"ID":574844,"DIS_CODE":0,"TOWNNAME":"永康區","LI":"龍潭里","LIN":"24鄰","STREET":"中山北路","SECT":" ","MAREA":" ","LANE":" ","ALLEY":" ","HOUSE_NO":"２８６號","E_COORD97":174776.76999999999,"N_COORD97":2547654.9500000002,"ADDRESS":"中山北路２８６號","OBJECTID":574817},"geometry":{"x":174776.77000000048,"y":2547654.950000003}},{"attributes":{"ID":574845,"DIS_CODE":0,"TOWNNAME":"永康區","LI":"網寮里","LIN":"21鄰","STREET":"文化路","SECT":" ","MAREA":" ","LANE":" ","ALLEY":" ","HOUSE_NO":"２５８號","E_COORD97":173517.51000000001,"N_COORD97":2546131.6299999999,"ADDRESS":"文化路２５８號","OBJECTID":574818},"geometry":{"x":173517.51000000071,"y":2546131.6300000008}},{"attributes":{"ID":574846,"DIS_CODE":0,"TOWNNAME":"永康區","LI":"龍潭里","LIN":"29鄰","STREET":"中山北路","SECT":" ","MAREA":" ","LANE":" ","ALLEY":" ","HOUSE_NO":"３６１號","E_COORD97":174802.66,"N_COORD97":2547703.5099999998,"ADDRESS":"中山北路３６１號","OBJECTID":574819},"geometry":{"x":174802.66000000015,"y":2547703.5100000016}},{"attributes":{"ID":574847,"DIS_CODE":0,"TOWNNAME":"官田區","LI":"隆田里","LIN":"23鄰","STREET":"隆西街","SECT":" ","MAREA":" ","LANE":" ","ALLEY":" ","HOUSE_NO":"４６號","E_COORD97":178966.42999999999,"N_COORD97":2565780.8500000001,"ADDRESS":"隆西街４６號","OBJECTID":574820},"geometry":{"x":178966.43000000063,"y":2565780.8500000034}},{"attributes":{"ID":574848,"DIS_CODE":0,"TOWNNAME":"官田區","LI":"隆田里","LIN":"23鄰","STREET":"隆西街","SECT":" ","MAREA":" ","LANE":" ","ALLEY":" ","HOUSE_NO":"１０號","E_COORD97":179109.62,"N_COORD97":2565895.9700000002,"ADDRESS":"隆西街１０號","OBJECTID":574821},"geometry":{"x":179109.62000000104,"y":2565895.9700000007}},{"attributes":{"ID":574849,"DIS_CODE":0,"TOWNNAME":"官田區","LI":"隆田里","LIN":"23鄰","STREET":"隆西街","SECT":" ","MAREA":" ","LANE":" ","ALLEY":" ","HOUSE_NO":"１２號","E_COORD97":179106.25,"N_COORD97":2565892.1200000001,"ADDRESS":"隆西街１２號","OBJECTID":574822},"geometry":{"x":179106.25,"y":2565892.120000001}},{"attributes":{"ID":574850,"DIS_CODE":0,"TOWNNAME":"官田區","LI":"隆田里","LIN":"23鄰","STREET":"隆西街","SECT":" ","MAREA":" ","LANE":" ","ALLEY":" ","HOUSE_NO":"５４號","E_COORD97":178983.51999999999,"N_COORD97":2565763.8999999999,"ADDRESS":"隆西街５４號","OBJECTID":574823},"geometry":{"x":178983.51999999955,"y":2565763.9000000004}},{"attributes":{"ID":574851,"DIS_CODE":0,"TOWNNAME":"官田區","LI":"隆田里","LIN":"23鄰","STREET":"隆西街","SECT":" ","MAREA":" ","LANE":" ","ALLEY":" ","HOUSE_NO":"３４號之２０","E_COORD97":179070.88,"N_COORD97":2565862.29,"ADDRESS":"隆西街３４號之２０","OBJECTID":574824},"geometry":{"x":179070.87999999989,"y":2565862.2900000028}},{"attributes":{"ID":574852,"DIS_CODE":0,"TOWNNAME":"官田區","LI":"隆田里","LIN":"23鄰","STREET":"隆西街","SECT":" ","MAREA":" ","LANE":" ","ALLEY":" ","HOUSE_NO":"３４號之２２","E_COORD97":179064.85000000001,"N_COORD97":2565856.5,"ADDRESS":"隆西街３４號之２２","OBJECTID":574825},"geometry":{"x":179064.85000000149,"y":2565856.5000000019}},{"attributes":{"ID":574853,"DIS_CODE":0,"TOWNNAME":"官田區","LI":"隆田里","LIN":"23鄰","STREET":"隆西街","SECT":" ","MAREA":" ","LANE":" ","ALLEY":" ","HOUSE_NO":"３４號之４３","E_COORD97":179000.13,"N_COORD97":2565841.75,"ADDRESS":"隆西街３４號之４３","OBJECTID":574826},"geometry":{"x":179000.12999999989,"y":2565841.75}},{"attributes":{"ID":574854,"DIS_CODE":0,"TOWNNAME":"官田區","LI":"隆田里","LIN":"23鄰","STREET":"隆西街","SECT":" ","MAREA":" ","LANE":" ","ALLEY":" ","HOUSE_NO":"３４號","E_COORD97":179001.94,"N_COORD97":2565787.54,"ADDRESS":"隆西街３４號","OBJECTID":574827},"geometry":{"x":179001.94000000041,"y":2565787.540000001}},{"attributes":{"ID":574855,"DIS_CODE":0,"TOWNNAME":"官田區","LI":"隆田里","LIN":"23鄰","STREET":"隆西街","SECT":" ","MAREA":" ","LANE":" ","ALLEY":" ","HOUSE_NO":"３６號","E_COORD97":178998.92999999999,"N_COORD97":2565784.5099999998,"ADDRESS":"隆西街３６號","OBJECTID":574828},"geometry":{"x":178998.93000000063,"y":2565784.5100000016}},{"attributes":{"ID":574856,"DIS_CODE":0,"TOWNNAME":"官田區","LI":"隆田里","LIN":"23鄰","STREET":"隆西街","SECT":" ","MAREA":" ","LANE":" ","ALLEY":" ","HOUSE_NO":"３８號","E_COORD97":178996.10000000001,"N_COORD97":2565781.5600000001,"ADDRESS":"隆西街３８號","OBJECTID":574829},"geometry":{"x":178996.10000000056,"y":2565781.5600000024}},{"attributes":{"ID":574857,"DIS_CODE":0,"TOWNNAME":"官田區","LI":"隆田里","LIN":"23鄰","STREET":"隆西街","SECT":" ","MAREA":" ","LANE":" ","ALLEY":" ","HOUSE_NO":"４０號","E_COORD97":178993.35999999999,"N_COORD97":2565778.5099999998,"ADDRESS":"隆西街４０號","OBJECTID":574830},"geometry":{"x":178993.36000000127,"y":2565778.5099999998}},{"attributes":{"ID":574858,"DIS_CODE":0,"TOWNNAME":"官田區","LI":"隆田里","LIN":"23鄰","STREET":"隆西街","SECT":" ","MAREA":" ","LANE":" ","ALLEY":" ","HOUSE_NO":"４２號","E_COORD97":178990.38,"N_COORD97":2565775.4199999999,"ADDRESS":"隆西街４２號","OBJECTID":574831},"geometry":{"x":178990.38000000175,"y":2565775.4200000018}},{"attributes":{"ID":574859,"DIS_CODE":0,"TOWNNAME":"官田區","LI":"隆田里","LIN":"23鄰","STREET":"隆西街","SECT":" ","MAREA":" ","LANE":" ","ALLEY":" ","HOUSE_NO":"４４號","E_COORD97":178987.76999999999,"N_COORD97":2565772.3399999999,"ADDRESS":"隆西街４４號","OBJECTID":574832},"geometry":{"x":178987.77000000048,"y":2565772.3400000017}},{"attributes":{"ID":574860,"DIS_CODE":0,"TOWNNAME":"官田區","LI":"隆田里","LIN":"23鄰","STREET":"隆西街","SECT":" ","MAREA":" ","LANE":" ","ALLEY":" ","HOUSE_NO":"４８號","E_COORD97":178967.54999999999,"N_COORD97":2565785.29,"ADDRESS":"隆西街４８號","OBJECTID":574833},"geometry":{"x":178967.55000000075,"y":2565785.290000001}},{"attributes":{"ID":574861,"DIS_CODE":0,"TOWNNAME":"官田區","LI":"隆田里","LIN":"23鄰","STREET":"隆西街","SECT":" ","MAREA":" ","LANE":" ","ALLEY":" ","HOUSE_NO":"５０號","E_COORD97":178968.22,"N_COORD97":2565789.1699999999,"ADDRESS":"隆西街５０號","OBJECTID":574834},"geometry":{"x":178968.22000000067,"y":2565789.1700000037}},{"attributes":{"ID":574862,"DIS_CODE":0,"TOWNNAME":"永康區","LI":"網寮里","LIN":"4鄰","STREET":"永勝街","SECT":" ","MAREA":" ","LANE":" ","ALLEY":" ","HOUSE_NO":"１１９號","E_COORD97":173410.13,"N_COORD97":2546401.6200000001,"ADDRESS":"永勝街１１９號","OBJECTID":574835},"geometry":{"x":173410.13000000082,"y":2546401.6200000029}},{"attributes":{"ID":574863,"DIS_CODE":0,"TOWNNAME":"官田區","LI":"隆田里","LIN":"23鄰","STREET":"隆西街","SECT":" ","MAREA":" ","LANE":" ","ALLEY":" ","HOUSE_NO":"５２號","E_COORD97":178969.32000000001,"N_COORD97":2565793.8700000001,"ADDRESS":"隆西街５２號","OBJECTID":574836},"geometry":{"x":178969.32000000123,"y":2565793.8700000029}},{"attributes":{"ID":574864,"DIS_CODE":0,"TOWNNAME":"官田區","LI":"隆田里","LIN":"23鄰","STREET":"隆西街","SECT":" ","MAREA":" ","LANE":" ","ALLEY":" ","HOUSE_NO":"５８號","E_COORD97":178977.14000000001,"N_COORD97":2565757.6699999999,"ADDRESS":"隆西街５８號","OBJECTID":574837},"geometry":{"x":178977.1400000006,"y":2565757.6699999999}},{"attributes":{"ID":574865,"DIS_CODE":0,"TOWNNAME":"官田區","LI":"隆田里","LIN":"23鄰","STREET":"隆西街","SECT":" ","MAREA":" ","LANE":" ","ALLEY":" ","HOUSE_NO":"６０號","E_COORD97":178974.53,"N_COORD97":2565754.2000000002,"ADDRESS":"隆西街６０號","OBJECTID":574838},"geometry":{"x":178974.53000000212,"y":2565754.1999999974}},{"attributes":{"ID":574866,"DIS_CODE":0,"TOWNNAME":"官田區","LI":"隆田里","LIN":"23鄰","STREET":"隆西街","SECT":" ","MAREA":" ","LANE":" ","ALLEY":" ","HOUSE_NO":"６２號","E_COORD97":178971.51000000001,"N_COORD97":2565750.96,"ADDRESS":"隆西街６２號","OBJECTID":574839},"geometry":{"x":178971.51000000071,"y":2565750.9600000046}},{"attributes":{"ID":574867,"DIS_CODE":0,"TOWNNAME":"官田區","LI":"隆田里","LIN":"23鄰","STREET":"隆西街","SECT":" ","MAREA":" ","LANE":" ","ALLEY":" ","HOUSE_NO":"６４號","E_COORD97":178967.91,"N_COORD97":2565748.3599999999,"ADDRESS":"隆西街６４號","OBJECTID":574840},"geometry":{"x":178967.91000000015,"y":2565748.3600000013}},{"attributes":{"ID":574868,"DIS_CODE":0,"TOWNNAME":"官田區","LI":"隆田里","LIN":"23鄰","STREET":"隆西街","SECT":" ","MAREA":" ","LANE":" ","ALLEY":" ","HOUSE_NO":"６６號","E_COORD97":178965.41,"N_COORD97":2565745.2400000002,"ADDRESS":"隆西街６６號","OBJECTID":574841},"geometry":{"x":178965.41000000108,"y":2565745.2400000039}},{"attributes":{"ID":574869,"DIS_CODE":0,"TOWNNAME":"官田區","LI":"隆田里","LIN":"23鄰","STREET":"隆西街","SECT":" ","MAREA":" ","LANE":" ","ALLEY":" ","HOUSE_NO":"６８號","E_COORD97":178962.07000000001,"N_COORD97":2565741.7000000002,"ADDRESS":"隆西街６８號","OBJECTID":574842},"geometry":{"x":178962.0700000003,"y":2565741.7000000011}},{"attributes":{"ID":574870,"DIS_CODE":0,"TOWNNAME":"官田區","LI":"隆田里","LIN":"23鄰","STREET":"隆西街","SECT":" ","MAREA":" ","LANE":" ","ALLEY":" ","HOUSE_NO":"７０號","E_COORD97":178959.17000000001,"N_COORD97":2565738.6800000002,"ADDRESS":"隆西街７０號","OBJECTID":574843},"geometry":{"x":178959.16999999993,"y":2565738.6800000016}},{"attributes":{"ID":574871,"DIS_CODE":0,"TOWNNAME":"官田區","LI":"隆田里","LIN":"23鄰","STREET":"隆西街","SECT":" ","MAREA":" ","LANE":" ","ALLEY":" ","HOUSE_NO":"７２號","E_COORD97":178947.26000000001,"N_COORD97":2565761.6400000001,"ADDRESS":"隆西街７２號","OBJECTID":574844},"geometry":{"x":178947.26000000071,"y":2565761.6400000006}},{"attributes":{"ID":574872,"DIS_CODE":0,"TOWNNAME":"官田區","LI":"隆田里","LIN":"23鄰","STREET":"隆西街","SECT":" ","MAREA":" ","LANE":" ","ALLEY":" ","HOUSE_NO":"７４號","E_COORD97":178947.69,"N_COORD97":2565731.3599999999,"ADDRESS":"隆西街７４號","OBJECTID":574845},"geometry":{"x":178947.69000000041,"y":2565731.3600000013}},{"attributes":{"ID":574873,"DIS_CODE":0,"TOWNNAME":"官田區","LI":"隆田里","LIN":"23鄰","STREET":"隆西街","SECT":" ","MAREA":" ","LANE":" ","ALLEY":" ","HOUSE_NO":"７６號","E_COORD97":178912.07999999999,"N_COORD97":2565685.2599999998,"ADDRESS":"隆西街７６號","OBJECTID":574846},"geometry":{"x":178912.08000000007,"y":2565685.2599999998}},{"attributes":{"ID":574874,"DIS_CODE":0,"TOWNNAME":"官田區","LI":"隆田里","LIN":"23鄰","STREET":"隆西街","SECT":" ","MAREA":" ","LANE":" ","ALLEY":" ","HOUSE_NO":"７８號","E_COORD97":178898.14000000001,"N_COORD97":2565786.6699999999,"ADDRESS":"隆西街７８號","OBJECTID":574847},"geometry":{"x":178898.13999999966,"y":2565786.6700000018}},{"attributes":{"ID":574875,"DIS_CODE":0,"TOWNNAME":"官田區","LI":"隆田里","LIN":"23鄰","STREET":"隆西街","SECT":" ","MAREA":" ","LANE":" ","ALLEY":" ","HOUSE_NO":"８６號","E_COORD97":178833.35999999999,"N_COORD97":2565768.4100000001,"ADDRESS":"隆西街８６號","OBJECTID":574848},"geometry":{"x":178833.3600000022,"y":2565768.410000002}},{"attributes":{"ID":574876,"DIS_CODE":0,"TOWNNAME":"官田區","LI":"隆田里","LIN":"23鄰","STREET":"隆西街","SECT":" ","MAREA":" ","LANE":" ","ALLEY":" ","HOUSE_NO":"８號","E_COORD97":179113,"N_COORD97":2565899.8100000001,"ADDRESS":"隆西街８號","OBJECTID":574849},"geometry":{"x":179113,"y":2565899.8100000005}},{"attributes":{"ID":574877,"DIS_CODE":0,"TOWNNAME":"官田區","LI":"隆田里","LIN":"23鄰","STREET":"隆西街","SECT":" ","MAREA":" ","LANE":" ","ALLEY":" ","HOUSE_NO":"９８號","E_COORD97":178739.20000000001,"N_COORD97":2565704.27,"ADDRESS":"隆西街９８號","OBJECTID":574850},"geometry":{"x":178739.19999999925,"y":2565704.2700000014}},{"attributes":{"ID":574878,"DIS_CODE":0,"TOWNNAME":"新市區","LI":"新和里","LIN":"23鄰","STREET":"中正路","SECT":" ","MAREA":" ","LANE":" ","ALLEY":" ","HOUSE_NO":"１４５號","E_COORD97":177394.62,"N_COORD97":2552786.25,"ADDRESS":"中正路１４５號","OBJECTID":574851},"geometry":{"x":177394.62000000011,"y":2552786.25}},{"attributes":{"ID":574879,"DIS_CODE":0,"TOWNNAME":"新市區","LI":"新和里","LIN":"23鄰","STREET":"中正路","SECT":" ","MAREA":" ","LANE":" ","ALLEY":" ","HOUSE_NO":"１９３號","E_COORD97":177414.73999999999,"N_COORD97":2552930.75,"ADDRESS":"中正路１９３號","OBJECTID":574852},"geometry":{"x":177414.74000000022,"y":2552930.7500000019}},{"attributes":{"ID":574880,"DIS_CODE":0,"TOWNNAME":"新市區","LI":"新和里","LIN":"23鄰","STREET":"中正路","SECT":" ","MAREA":" ","LANE":" ","ALLEY":" ","HOUSE_NO":"１４３號","E_COORD97":177391.85000000001,"N_COORD97":2552772.25,"ADDRESS":"中正路１４３號","OBJECTID":574853},"geometry":{"x":177391.85000000056,"y":2552772.25}},{"attributes":{"ID":574881,"DIS_CODE":0,"TOWNNAME":"新市區","LI":"新和里","LIN":"23鄰","STREET":"中正路","SECT":" ","MAREA":" ","LANE":" ","ALLEY":" ","HOUSE_NO":"２１２之１號","E_COORD97":177431.82000000001,"N_COORD97":2552806.7999999998,"ADDRESS":"中正路２１２之１號","OBJECTID":574854},"geometry":{"x":177431.82000000123,"y":2552806.8000000007}},{"attributes":{"ID":574882,"DIS_CODE":0,"TOWNNAME":"新市區","LI":"港墘里","LIN":"23鄰","STREET":"南昌街","SECT":" ","MAREA":" ","LANE":" ","ALLEY":" ","HOUSE_NO":"１３之３號","E_COORD97":177990.54999999999,"N_COORD97":2552830.7999999998,"ADDRESS":"南昌街１３之３號","OBJECTID":574855},"geometry":{"x":177990.54999999888,"y":2552830.8000000007}},{"attributes":{"ID":574883,"DIS_CODE":0,"TOWNNAME":"新市區","LI":"新和里","LIN":"23鄰","STREET":"中正路","SECT":" ","MAREA":" ","LANE":" ","ALLEY":" ","HOUSE_NO":"１７３號","E_COORD97":177409.32000000001,"N_COORD97":2552877.25,"ADDRESS":"中正路１７３號","OBJECTID":574856},"geometry":{"x":177409.3200000003,"y":2552877.25}},{"attributes":{"ID":574884,"DIS_CODE":0,"TOWNNAME":"永康區","LI":"龍潭里","LIN":"25鄰","STREET":"龍昌街","SECT":" ","MAREA":" ","LANE":" ","ALLEY":" ","HOUSE_NO":"２６號","E_COORD97":175020.39000000001,"N_COORD97":2547818.5299999998,"ADDRESS":"龍昌街２６號","OBJECTID":574857},"geometry":{"x":175020.3900000006,"y":2547818.5300000012}},{"attributes":{"ID":574885,"DIS_CODE":0,"TOWNNAME":"永康區","LI":"龍潭里","LIN":"13鄰","STREET":"龍橋街","SECT":" ","MAREA":" ","LANE":" ","ALLEY":" ","HOUSE_NO":"６９號","E_COORD97":174765.17999999999,"N_COORD97":2548415.8799999999,"ADDRESS":"龍橋街６９號","OBJECTID":574858},"geometry":{"x":174765.1799999997,"y":2548415.8800000008}},{"attributes":{"ID":574886,"DIS_CODE":0,"TOWNNAME":"新市區","LI":"新和里","LIN":"23鄰","STREET":"中正路","SECT":" ","MAREA":" ","LANE":" ","ALLEY":" ","HOUSE_NO":"１３１號","E_COORD97":177387.32000000001,"N_COORD97":2552728,"ADDRESS":"中正路１３１號","OBJECTID":574859},"geometry":{"x":177387.3200000003,"y":2552728.0000000019}},{"attributes":{"ID":574887,"DIS_CODE":0,"TOWNNAME":"新市區","LI":"新和里","LIN":"23鄰","STREET":"中正路","SECT":" ","MAREA":" ","LANE":" ","ALLEY":" ","HOUSE_NO":"１７１號","E_COORD97":177408.48999999999,"N_COORD97":2552874,"ADDRESS":"中正路１７１號","OBJECTID":574860},"geometry":{"x":177408.49000000115,"y":2552874.0000000019}},{"attributes":{"ID":574888,"DIS_CODE":0,"TOWNNAME":"新市區","LI":"港墘里","LIN":"23鄰","STREET":"南昌街","SECT":" ","MAREA":" ","LANE":" ","ALLEY":" ","HOUSE_NO":"１９號","E_COORD97":177982.79000000001,"N_COORD97":2552879,"ADDRESS":"南昌街１９號","OBJECTID":574861},"geometry":{"x":177982.79000000097,"y":2552879}},{"attributes":{"ID":574889,"DIS_CODE":0,"TOWNNAME":"新市區","LI":"港墘里","LIN":"23鄰","STREET":"南昌街","SECT":" ","MAREA":" ","LANE":" ","ALLEY":" ","HOUSE_NO":"１５之３號","E_COORD97":177985.64999999999,"N_COORD97":2552870.0499999998,"ADDRESS":"南昌街１５之３號","OBJECTID":574862},"geometry":{"x":177985.6500000013,"y":2552870.0499999989}},{"attributes":{"ID":574890,"DIS_CODE":0,"TOWNNAME":"新市區","LI":"新和里","LIN":"23鄰","STREET":"中正路","SECT":" ","MAREA":" ","LANE":" ","ALLEY":" ","HOUSE_NO":"２２０號之１","E_COORD97":177431.29999999999,"N_COORD97":2552829.5499999998,"ADDRESS":"中正路２２０號之１","OBJECTID":574863},"geometry":{"x":177431.30000000168,"y":2552829.5500000045}},{"attributes":{"ID":574891,"DIS_CODE":0,"TOWNNAME":"新市區","LI":"新和里","LIN":"23鄰","STREET":"中正路","SECT":" ","MAREA":" ","LANE":" ","ALLEY":" ","HOUSE_NO":"２３２之１號","E_COORD97":177438.95999999999,"N_COORD97":2552880.0499999998,"ADDRESS":"中正路２３２之１號","OBJECTID":574864},"geometry":{"x":177438.96000000089,"y":2552880.0500000007}},{"attributes":{"ID":574892,"DIS_CODE":0,"TOWNNAME":"新市區","LI":"新和里","LIN":"23鄰","STREET":"中正路","SECT":" ","MAREA":" ","LANE":" ","ALLEY":" ","HOUSE_NO":"１８６號","E_COORD97":177415.07000000001,"N_COORD97":2552749.75,"ADDRESS":"中正路１８６號","OBJECTID":574865},"geometry":{"x":177415.07000000123,"y":2552749.7500000019}},{"attributes":{"ID":574893,"DIS_CODE":0,"TOWNNAME":"新市區","LI":"新和里","LIN":"23鄰","STREET":"中正路","SECT":" ","MAREA":" ","LANE":" ","ALLEY":" ","HOUSE_NO":"１７５號","E_COORD97":177410.42999999999,"N_COORD97":2552886,"ADDRESS":"中正路１７５號","OBJECTID":574866},"geometry":{"x":177410.43000000063,"y":2552886}},{"attributes":{"ID":574894,"DIS_CODE":0,"TOWNNAME":"新市區","LI":"新和里","LIN":"23鄰","STREET":"中正路","SECT":" ","MAREA":" ","LANE":" ","ALLEY":" ","HOUSE_NO":"１２７號","E_COORD97":177385.82000000001,"N_COORD97":2552719.75,"ADDRESS":"中正路１２７號","OBJECTID":574867},"geometry":{"x":177385.82000000216,"y":2552719.7500000019}},{"attributes":{"ID":574895,"DIS_CODE":0,"TOWNNAME":"新市區","LI":"新和里","LIN":"23鄰","STREET":"中正路","SECT":" ","MAREA":" ","LANE":" ","ALLEY":" ","HOUSE_NO":"１７９號","E_COORD97":177411.17999999999,"N_COORD97":2552894.5,"ADDRESS":"中正路１７９號","OBJECTID":574868},"geometry":{"x":177411.1799999997,"y":2552894.5000000019}},{"attributes":{"ID":574896,"DIS_CODE":0,"TOWNNAME":"新市區","LI":"新和里","LIN":"23鄰","STREET":"中正路","SECT":" ","MAREA":" ","LANE":" ","ALLEY":" ","HOUSE_NO":"１６９之１號","E_COORD97":177384.20000000001,"N_COORD97":2552850.0499999998,"ADDRESS":"中正路１６９之１號","OBJECTID":574869},"geometry":{"x":177384.20000000019,"y":2552850.0500000045}},{"attributes":{"ID":574897,"DIS_CODE":0,"TOWNNAME":"新市區","LI":"新和里","LIN":"23鄰","STREET":"中正路","SECT":" ","MAREA":" ","LANE":" ","ALLEY":" ","HOUSE_NO":"１１３號","E_COORD97":177380.51999999999,"N_COORD97":2552685.75,"ADDRESS":"中正路１１３號","OBJECTID":574870},"geometry":{"x":177380.52000000048,"y":2552685.7500000019}},{"attributes":{"ID":574898,"DIS_CODE":0,"TOWNNAME":"新市區","LI":"新和里","LIN":"23鄰","STREET":"中正路","SECT":" ","MAREA":" ","LANE":" ","ALLEY":" ","HOUSE_NO":"１８４號","E_COORD97":177414.20999999999,"N_COORD97":2552744.5,"ADDRESS":"中正路１８４號","OBJECTID":574871},"geometry":{"x":177414.20999999996,"y":2552744.5000000037}},{"attributes":{"ID":574899,"DIS_CODE":0,"TOWNNAME":"新市區","LI":"新和里","LIN":"23鄰","STREET":"中正路","SECT":" ","MAREA":" ","LANE":" ","ALLEY":" ","HOUSE_NO":"２３４之１號","E_COORD97":177439.91,"N_COORD97":2552893.5499999998,"ADDRESS":"中正路２３４之１號","OBJECTID":574872},"geometry":{"x":177439.91000000108,"y":2552893.5500000007}},{"attributes":{"ID":574900,"DIS_CODE":0,"TOWNNAME":"新市區","LI":"新和里","LIN":"23鄰","STREET":"中正路","SECT":" ","MAREA":" ","LANE":" ","ALLEY":" ","HOUSE_NO":"１３３號","E_COORD97":177387.95999999999,"N_COORD97":2552732.25,"ADDRESS":"中正路１３３號","OBJECTID":574873},"geometry":{"x":177387.96000000183,"y":2552732.2499999981}},{"attributes":{"ID":574901,"DIS_CODE":0,"TOWNNAME":"新市區","LI":"新和里","LIN":"23鄰","STREET":"中正路","SECT":" ","MAREA":" ","LANE":" ","ALLEY":" ","HOUSE_NO":"１５１號之１","E_COORD97":177399.70999999999,"N_COORD97":2552801.7999999998,"ADDRESS":"中正路１５１號之１","OBJECTID":574874},"geometry":{"x":177399.71000000183,"y":2552801.8000000026}},{"attributes":{"ID":574902,"DIS_CODE":0,"TOWNNAME":"永康區","LI":"正強里","LIN":"23鄰","STREET":"自強路","SECT":" ","MAREA":" ","LANE":" ","ALLEY":" ","HOUSE_NO":"２８５號","E_COORD97":173349.57999999999,"N_COORD97":2547661.5,"ADDRESS":"自強路２８５號","OBJECTID":574875},"geometry":{"x":173349.58000000101,"y":2547661.5}},{"attributes":{"ID":574903,"DIS_CODE":0,"TOWNNAME":"永康區","LI":"龍潭里","LIN":"44鄰","STREET":"永平街","SECT":" ","MAREA":" ","LANE":" ","ALLEY":" ","HOUSE_NO":"２８６之２號","E_COORD97":174684.25,"N_COORD97":2547069.2999999998,"ADDRESS":"永平街２８６之２號","OBJECTID":574876},"geometry":{"x":174684.25000000093,"y":2547069.3000000007}},{"attributes":{"ID":574904,"DIS_CODE":0,"TOWNNAME":"永康區","LI":"網寮里","LIN":"21鄰","STREET":"文化路","SECT":" ","MAREA":" ","LANE":" ","ALLEY":" ","HOUSE_NO":"２７３號","E_COORD97":173536.78,"N_COORD97":2546113.2799999998,"ADDRESS":"文化路２７３號","OBJECTID":574877},"geometry":{"x":173536.78000000119,"y":2546113.2799999975}},{"attributes":{"ID":574905,"DIS_CODE":0,"TOWNNAME":"永康區","LI":"龍潭里","LIN":"16鄰","STREET":"龍橋街","SECT":" ","MAREA":" ","LANE":" ","ALLEY":" ","HOUSE_NO":"２５號","E_COORD97":174837.53,"N_COORD97":2548340.9500000002,"ADDRESS":"龍橋街２５號","OBJECTID":574878},"geometry":{"x":174837.53000000026,"y":2548340.9500000011}},{"attributes":{"ID":574906,"DIS_CODE":0,"TOWNNAME":"永康區","LI":"復華里","LIN":"16鄰","STREET":"復華七街","SECT":" ","MAREA":" ","LANE":" ","ALLEY":" ","HOUSE_NO":"６４號","E_COORD97":172762.73000000001,"N_COORD97":2546062.9199999999,"ADDRESS":"復華七街６４號","OBJECTID":574879},"geometry":{"x":172762.73000000138,"y":2546062.9200000018}},{"attributes":{"ID":574907,"DIS_CODE":0,"TOWNNAME":"永康區","LI":"復國里","LIN":"26鄰","STREET":"復國一路","SECT":" ","MAREA":" ","LANE":" ","ALLEY":" ","HOUSE_NO":"３０９號","E_COORD97":172738.09,"N_COORD97":2545598.6400000001,"ADDRESS":"復國一路３０９號","OBJECTID":574880},"geometry":{"x":172738.08999999985,"y":2545598.6400000025}},{"attributes":{"ID":574908,"DIS_CODE":0,"TOWNNAME":"永康區","LI":"龍潭里","LIN":"24鄰","STREET":"中山北路","SECT":" ","MAREA":" ","LANE":" ","ALLEY":" ","HOUSE_NO":"３２６號","E_COORD97":174922.88,"N_COORD97":2547684.25,"ADDRESS":"中山北路３２６號","OBJECTID":574881},"geometry":{"x":174922.87999999989,"y":2547684.2500000037}},{"attributes":{"ID":574909,"DIS_CODE":0,"TOWNNAME":"善化區","LI":"胡厝里","LIN":"21鄰","STREET":"興農路","SECT":" ","MAREA":" ","LANE":" ","ALLEY":" ","HOUSE_NO":"４４２號","E_COORD97":175311.51000000001,"N_COORD97":2558974.7599999998,"ADDRESS":"興農路４４２號","OBJECTID":574882},"geometry":{"x":175311.51000000071,"y":2558974.7600000016}},{"attributes":{"ID":574910,"DIS_CODE":0,"TOWNNAME":"善化區","LI":"坐駕里","LIN":"11鄰","STREET":"自強路","SECT":" ","MAREA":" ","LANE":" ","ALLEY":" ","HOUSE_NO":"１４５號","E_COORD97":177905.04000000001,"N_COORD97":2558687.25,"ADDRESS":"自強路１４５號","OBJECTID":574883},"geometry":{"x":177905.04000000097,"y":2558687.2500000019}},{"attributes":{"ID":574911,"DIS_CODE":0,"TOWNNAME":"善化區","LI":"南關里","LIN":"8鄰","STREET":"光復路","SECT":" ","MAREA":" ","LANE":" ","ALLEY":" ","HOUSE_NO":"５４６號","E_COORD97":176795.64999999999,"N_COORD97":2558919.0099999998,"ADDRESS":"光復路５４６號","OBJECTID":574884},"geometry":{"x":176795.6500000013,"y":2558919.0100000016}},{"attributes":{"ID":574912,"DIS_CODE":0,"TOWNNAME":"永康區","LI":"東灣里","LIN":"23鄰","STREET":"大灣二街","SECT":" ","MAREA":" ","LANE":" ","ALLEY":" ","HOUSE_NO":"７６號","E_COORD97":174859.95999999999,"N_COORD97":2544765.7000000002,"ADDRESS":"大灣二街７６號","OBJECTID":574885},"geometry":{"x":174859.95999999996,"y":2544765.7000000011}},{"attributes":{"ID":574913,"DIS_CODE":0,"TOWNNAME":"新市區","LI":"新和里","LIN":"23鄰","STREET":"中正路","SECT":" ","MAREA":" ","LANE":" ","ALLEY":" ","HOUSE_NO":"１１５號","E_COORD97":177381.01999999999,"N_COORD97":2552690.25,"ADDRESS":"中正路１１５號","OBJECTID":574886},"geometry":{"x":177381.02000000048,"y":2552690.25}},{"attributes":{"ID":574914,"DIS_CODE":0,"TOWNNAME":"新市區","LI":"新和里","LIN":"23鄰","STREET":"中正路","SECT":" ","MAREA":" ","LANE":" ","ALLEY":" ","HOUSE_NO":"１１１號","E_COORD97":177379.91,"N_COORD97":2552681,"ADDRESS":"中正路１１１號","OBJECTID":574887},"geometry":{"x":177379.91000000201,"y":2552681.0000000019}},{"attributes":{"ID":574915,"DIS_CODE":0,"TOWNNAME":"新市區","LI":"新和里","LIN":"23鄰","STREET":"中正路","SECT":" ","MAREA":" ","LANE":" ","ALLEY":" ","HOUSE_NO":"２３０號","E_COORD97":177431.95999999999,"N_COORD97":2552867.75,"ADDRESS":"中正路２３０號","OBJECTID":574888},"geometry":{"x":177431.96000000183,"y":2552867.75}},{"attributes":{"ID":574916,"DIS_CODE":0,"TOWNNAME":"新市區","LI":"新和里","LIN":"23鄰","STREET":"中正路","SECT":" ","MAREA":" ","LANE":" ","ALLEY":" ","HOUSE_NO":"１８８號","E_COORD97":177415.62,"N_COORD97":2552754.25,"ADDRESS":"中正路１８８號","OBJECTID":574889},"geometry":{"x":177415.62000000011,"y":2552754.2500000019}},{"attributes":{"ID":574917,"DIS_CODE":0,"TOWNNAME":"新市區","LI":"新和里","LIN":"23鄰","STREET":"中正路","SECT":" ","MAREA":" ","LANE":" ","ALLEY":" ","HOUSE_NO":"１２３號","E_COORD97":177384.70999999999,"N_COORD97":2552711.25,"ADDRESS":"中正路１２３號","OBJECTID":574890},"geometry":{"x":177384.71000000089,"y":2552711.25}},{"attributes":{"ID":574918,"DIS_CODE":0,"TOWNNAME":"新市區","LI":"港墘里","LIN":"23鄰","STREET":"南昌街","SECT":" ","MAREA":" ","LANE":" ","ALLEY":" ","HOUSE_NO":"１５號","E_COORD97":177984.76000000001,"N_COORD97":2552857.5,"ADDRESS":"南昌街１５號","OBJECTID":574891},"geometry":{"x":177984.76000000071,"y":2552857.5000000019}},{"attributes":{"ID":574919,"DIS_CODE":0,"TOWNNAME":"新市區","LI":"新和里","LIN":"23鄰","STREET":"中正路","SECT":" ","MAREA":" ","LANE":" ","ALLEY":" ","HOUSE_NO":"１６３號","E_COORD97":177401.17999999999,"N_COORD97":2552826,"ADDRESS":"中正路１６３號","OBJECTID":574892},"geometry":{"x":177401.1799999997,"y":2552826.0000000019}},{"attributes":{"ID":574920,"DIS_CODE":0,"TOWNNAME":"新市區","LI":"新和里","LIN":"23鄰","STREET":"中正路","SECT":" ","MAREA":" ","LANE":" ","ALLEY":" ","HOUSE_NO":"１４９號","E_COORD97":177396.39999999999,"N_COORD97":2552794.25,"ADDRESS":"中正路１４９號","OBJECTID":574893},"geometry":{"x":177396.40000000037,"y":2552794.2500000019}},{"attributes":{"ID":574921,"DIS_CODE":0,"TOWNNAME":"新市區","LI":"新和里","LIN":"23鄰","STREET":"中正路","SECT":" ","MAREA":" ","LANE":" ","ALLEY":" ","HOUSE_NO":"１６９之２號","E_COORD97":177369.87,"N_COORD97":2552832.2999999998,"ADDRESS":"中正路１６９之２號","OBJECTID":574894},"geometry":{"x":177369.87000000011,"y":2552832.3000000026}},{"attributes":{"ID":574922,"DIS_CODE":0,"TOWNNAME":"新市區","LI":"新和里","LIN":"23鄰","STREET":"中正路","SECT":" ","MAREA":" ","LANE":" ","ALLEY":" ","HOUSE_NO":"１４３之５號","E_COORD97":177395.60000000001,"N_COORD97":2552777.0499999998,"ADDRESS":"中正路１４３之５號","OBJECTID":574895},"geometry":{"x":177395.60000000056,"y":2552777.0500000007}},{"attributes":{"ID":574923,"DIS_CODE":0,"TOWNNAME":"新市區","LI":"新和里","LIN":"23鄰","STREET":"中正路","SECT":" ","MAREA":" ","LANE":" ","ALLEY":" ","HOUSE_NO":"１６７號","E_COORD97":177403.37,"N_COORD97":2552836.25,"ADDRESS":"中正路１６７號","OBJECTID":574896},"geometry":{"x":177403.37000000011,"y":2552836.25}},{"attributes":{"ID":574924,"DIS_CODE":0,"TOWNNAME":"新市區","LI":"新和里","LIN":"23鄰","STREET":"中正路","SECT":" ","MAREA":" ","LANE":" ","ALLEY":" ","HOUSE_NO":"２１４號","E_COORD97":177429.16,"N_COORD97":2552812.25,"ADDRESS":"中正路２１４號","OBJECTID":574897},"geometry":{"x":177429.16000000201,"y":2552812.25}},{"attributes":{"ID":574925,"DIS_CODE":0,"TOWNNAME":"新市區","LI":"新和里","LIN":"23鄰","STREET":"中正路","SECT":" ","MAREA":" ","LANE":" ","ALLEY":" ","HOUSE_NO":"２１０號","E_COORD97":177430.01000000001,"N_COORD97":2552800.75,"ADDRESS":"中正路２１０號","OBJECTID":574898},"geometry":{"x":177430.01000000071,"y":2552800.7500000019}},{"attributes":{"ID":574926,"DIS_CODE":0,"TOWNNAME":"新市區","LI":"新和里","LIN":"23鄰","STREET":"中正路","SECT":" ","MAREA":" ","LANE":" ","ALLEY":" ","HOUSE_NO":"１３７號","E_COORD97":177388.95999999999,"N_COORD97":2552740.75,"ADDRESS":"中正路１３７號","OBJECTID":574899},"geometry":{"x":177388.95999999996,"y":2552740.7500000019}},{"attributes":{"ID":574927,"DIS_CODE":0,"TOWNNAME":"善化區","LI":"南關里","LIN":"8鄰","STREET":"光復路","SECT":" ","MAREA":" ","LANE":" ","ALLEY":" ","HOUSE_NO":"５２８號","E_COORD97":176807.32000000001,"N_COORD97":2558883.2599999998,"ADDRESS":"光復路５２８號","OBJECTID":574900},"geometry":{"x":176807.3200000003,"y":2558883.2600000016}},{"attributes":{"ID":574928,"DIS_CODE":0,"TOWNNAME":"新市區","LI":"新和里","LIN":"23鄰","STREET":"中正路","SECT":" ","MAREA":" ","LANE":" ","ALLEY":" ","HOUSE_NO":"１２１號","E_COORD97":177384.20999999999,"N_COORD97":2552707,"ADDRESS":"中正路１２１號","OBJECTID":574901},"geometry":{"x":177384.20999999996,"y":2552707.0000000037}},{"attributes":{"ID":574929,"DIS_CODE":0,"TOWNNAME":"新市區","LI":"新和里","LIN":"23鄰","STREET":"中正路","SECT":" ","MAREA":" ","LANE":" ","ALLEY":" ","HOUSE_NO":"１２５號","E_COORD97":177385.42999999999,"N_COORD97":2552715.5,"ADDRESS":"中正路１２５號","OBJECTID":574902},"geometry":{"x":177385.4299999997,"y":2552715.5}},{"attributes":{"ID":574930,"DIS_CODE":0,"TOWNNAME":"新市區","LI":"新和里","LIN":"23鄰","STREET":"中正路","SECT":" ","MAREA":" ","LANE":" ","ALLEY":" ","HOUSE_NO":"１９１號","E_COORD97":177414.54000000001,"N_COORD97":2552917.5,"ADDRESS":"中正路１９１號","OBJECTID":574903},"geometry":{"x":177414.5400000019,"y":2552917.5000000019}},{"attributes":{"ID":574931,"DIS_CODE":0,"TOWNNAME":"新市區","LI":"新和里","LIN":"23鄰","STREET":"中正路","SECT":" ","MAREA":" ","LANE":" ","ALLEY":" ","HOUSE_NO":"１５９號","E_COORD97":177400.32000000001,"N_COORD97":2552820,"ADDRESS":"中正路１５９號","OBJECTID":574904},"geometry":{"x":177400.3200000003,"y":2552820.0000000019}},{"attributes":{"ID":574932,"DIS_CODE":0,"TOWNNAME":"新市區","LI":"新和里","LIN":"23鄰","STREET":"中正路","SECT":" ","MAREA":" ","LANE":" ","ALLEY":" ","HOUSE_NO":"２１８號","E_COORD97":177429.01000000001,"N_COORD97":2552820.75,"ADDRESS":"中正路２１８號","OBJECTID":574905},"geometry":{"x":177429.00999999978,"y":2552820.7500000037}},{"attributes":{"ID":574933,"DIS_CODE":0,"TOWNNAME":"新市區","LI":"港墘里","LIN":"23鄰","STREET":"南昌街","SECT":" ","MAREA":" ","LANE":" ","ALLEY":" ","HOUSE_NO":"１３之６號","E_COORD97":177989.10000000001,"N_COORD97":2552843.5499999998,"ADDRESS":"南昌街１３之６號","OBJECTID":574906},"geometry":{"x":177989.10000000056,"y":2552843.5500000026}},{"attributes":{"ID":574934,"DIS_CODE":0,"TOWNNAME":"新市區","LI":"新和里","LIN":"23鄰","STREET":"中正路","SECT":" ","MAREA":" ","LANE":" ","ALLEY":" ","HOUSE_NO":"１８２號","E_COORD97":177413.16,"N_COORD97":2552734.25,"ADDRESS":"中正路１８２號","OBJECTID":574907},"geometry":{"x":177413.16000000015,"y":2552734.25}},{"attributes":{"ID":574935,"DIS_CODE":0,"TOWNNAME":"新市區","LI":"新和里","LIN":"23鄰","STREET":"中正路","SECT":" ","MAREA":" ","LANE":" ","ALLEY":" ","HOUSE_NO":"２４０號","E_COORD97":177450.32000000001,"N_COORD97":2552912.25,"ADDRESS":"中正路２４０號","OBJECTID":574908},"geometry":{"x":177450.32000000216,"y":2552912.2500000037}},{"attributes":{"ID":574936,"DIS_CODE":0,"TOWNNAME":"新市區","LI":"新和里","LIN":"23鄰","STREET":"中正路","SECT":" ","MAREA":" ","LANE":" ","ALLEY":" ","HOUSE_NO":"２３６號","E_COORD97":177439.62,"N_COORD97":2552899.75,"ADDRESS":"中正路２３６號","OBJECTID":574909},"geometry":{"x":177439.62000000197,"y":2552899.7500000019}},{"attributes":{"ID":574937,"DIS_CODE":0,"TOWNNAME":"新市區","LI":"新和里","LIN":"23鄰","STREET":"中正路","SECT":" ","MAREA":" ","LANE":" ","ALLEY":" ","HOUSE_NO":"１８５號","E_COORD97":177413.84,"N_COORD97":2552909.1400000001,"ADDRESS":"中正路１８５號","OBJECTID":574910},"geometry":{"x":177413.83999999985,"y":2552909.1400000006}},{"attributes":{"ID":574938,"DIS_CODE":0,"TOWNNAME":"善化區","LI":"東關里","LIN":"13鄰","STREET":"中和街","SECT":" ","MAREA":" ","LANE":" ","ALLEY":" ","HOUSE_NO":"１８號","E_COORD97":177420.09,"N_COORD97":2559048.75,"ADDRESS":"中和街１８號","OBJECTID":574911},"geometry":{"x":177420.08999999985,"y":2559048.7500000037}},{"attributes":{"ID":574939,"DIS_CODE":0,"TOWNNAME":"善化區","LI":"南關里","LIN":"8鄰","STREET":"光復路","SECT":" ","MAREA":" ","LANE":" ","ALLEY":" ","HOUSE_NO":"５０８號","E_COORD97":176820.12,"N_COORD97":2558849.2599999998,"ADDRESS":"光復路５０８號","OBJECTID":574912},"geometry":{"x":176820.12000000011,"y":2558849.2600000016}},{"attributes":{"ID":574940,"DIS_CODE":0,"TOWNNAME":"中西區","LI":"西賢里","LIN":"23鄰","STREET":"西賢二街","SECT":" ","MAREA":" ","LANE":" ","ALLEY":" ","HOUSE_NO":"１０１號","E_COORD97":165569.26000000001,"N_COORD97":2544576.52,"ADDRESS":"西賢二街１０１號","OBJECTID":574913},"geometry":{"x":165569.26000000071,"y":2544576.5200000033}},{"attributes":{"ID":574941,"DIS_CODE":0,"TOWNNAME":"中西區","LI":"西賢里","LIN":"23鄰","STREET":"西賢二街","SECT":" ","MAREA":" ","LANE":" ","ALLEY":" ","HOUSE_NO":"１０３號","E_COORD97":165568.48000000001,"N_COORD97":2544581.2400000002,"ADDRESS":"西賢二街１０３號","OBJECTID":574914},"geometry":{"x":165568.48000000138,"y":2544581.2400000002}},{"attributes":{"ID":574942,"DIS_CODE":0,"TOWNNAME":"中西區","LI":"西賢里","LIN":"23鄰","STREET":"西賢二街","SECT":" ","MAREA":" ","LANE":" ","ALLEY":" ","HOUSE_NO":"１０５號","E_COORD97":165568.32000000001,"N_COORD97":2544585.6400000001,"ADDRESS":"西賢二街１０５號","OBJECTID":574915},"geometry":{"x":165568.3200000003,"y":2544585.6400000006}},{"attributes":{"ID":574943,"DIS_CODE":0,"TOWNNAME":"中西區","LI":"西賢里","LIN":"23鄰","STREET":"西賢二街","SECT":" ","MAREA":" ","LANE":" ","ALLEY":" ","HOUSE_NO":"１０７號","E_COORD97":165566.89999999999,"N_COORD97":2544590.52,"ADDRESS":"西賢二街１０７號","OBJECTID":574916},"geometry":{"x":165566.9000000013,"y":2544590.5200000014}},{"attributes":{"ID":574944,"DIS_CODE":0,"TOWNNAME":"善化區","LI":"東關里","LIN":"16鄰","STREET":"中和街","SECT":" ","MAREA":" ","LANE":" ","ALLEY":" ","HOUSE_NO":"５之２號","E_COORD97":177449.82999999999,"N_COORD97":2558964.02,"ADDRESS":"中和街５之２號","OBJECTID":574917},"geometry":{"x":177449.82999999914,"y":2558964.0199999996}},{"attributes":{"ID":574945,"DIS_CODE":0,"TOWNNAME":"善化區","LI":"胡厝里","LIN":"21鄰","STREET":"興農路","SECT":" ","MAREA":" ","LANE":" ","ALLEY":" ","HOUSE_NO":"４１０號","E_COORD97":175367.89000000001,"N_COORD97":2558991.5099999998,"ADDRESS":"興農路４１０號","OBJECTID":574918},"geometry":{"x":175367.8900000006,"y":2558991.5099999998}},{"attributes":{"ID":574946,"DIS_CODE":0,"TOWNNAME":"中西區","LI":"西賢里","LIN":"23鄰","STREET":"西賢二街","SECT":" ","MAREA":" ","LANE":" ","ALLEY":" ","HOUSE_NO":"１１１號","E_COORD97":165567.85000000001,"N_COORD97":2544602.7200000002,"ADDRESS":"西賢二街１１１號","OBJECTID":574919},"geometry":{"x":165567.85000000149,"y":2544602.7200000007}},{"attributes":{"ID":574947,"DIS_CODE":0,"TOWNNAME":"中西區","LI":"西賢里","LIN":"23鄰","STREET":"西賢二街","SECT":" ","MAREA":" ","LANE":" ","ALLEY":" ","HOUSE_NO":"１１３號","E_COORD97":165568.17000000001,"N_COORD97":2544608.3799999999,"ADDRESS":"西賢二街１１３號","OBJECTID":574920},"geometry":{"x":165568.17000000086,"y":2544608.3800000008}},{"attributes":{"ID":574948,"DIS_CODE":0,"TOWNNAME":"中西區","LI":"西賢里","LIN":"23鄰","STREET":"西賢二街","SECT":" ","MAREA":" ","LANE":" ","ALLEY":" ","HOUSE_NO":"１１５號","E_COORD97":165566.59,"N_COORD97":2544612.3100000001,"ADDRESS":"西賢二街１１５號","OBJECTID":574921},"geometry":{"x":165566.59000000078,"y":2544612.3100000005}},{"attributes":{"ID":574949,"DIS_CODE":0,"TOWNNAME":"中西區","LI":"西賢里","LIN":"23鄰","STREET":"西賢二街","SECT":" ","MAREA":" ","LANE":" ","ALLEY":" ","HOUSE_NO":"１１７號","E_COORD97":165567.06,"N_COORD97":2544616.8700000001,"ADDRESS":"西賢二街１１７號","OBJECTID":574922},"geometry":{"x":165567.06000000052,"y":2544616.8700000029}},{"attributes":{"ID":574950,"DIS_CODE":0,"TOWNNAME":"中西區","LI":"西賢里","LIN":"23鄰","STREET":"西賢二街","SECT":" ","MAREA":" ","LANE":" ","ALLEY":" ","HOUSE_NO":"１１９號","E_COORD97":165565.48999999999,"N_COORD97":2544621.1200000001,"ADDRESS":"西賢二街１１９號","OBJECTID":574923},"geometry":{"x":165565.49000000022,"y":2544621.1200000048}},{"attributes":{"ID":574951,"DIS_CODE":0,"TOWNNAME":"中西區","LI":"西賢里","LIN":"23鄰","STREET":"西賢二街","SECT":" ","MAREA":" ","LANE":" ","ALLEY":" ","HOUSE_NO":"１２１號","E_COORD97":165565.95999999999,"N_COORD97":2544626.3100000001,"ADDRESS":"西賢二街１２１號","OBJECTID":574924},"geometry":{"x":165565.96000000089,"y":2544626.3100000042}},{"attributes":{"ID":574952,"DIS_CODE":0,"TOWNNAME":"中西區","LI":"西賢里","LIN":"23鄰","STREET":"西賢二街","SECT":" ","MAREA":" ","LANE":" ","ALLEY":" ","HOUSE_NO":"１２３號","E_COORD97":165565.95999999999,"N_COORD97":2544630.5600000001,"ADDRESS":"西賢二街１２３號","OBJECTID":574925},"geometry":{"x":165565.96000000089,"y":2544630.5600000005}},{"attributes":{"ID":574953,"DIS_CODE":0,"TOWNNAME":"中西區","LI":"西賢里","LIN":"23鄰","STREET":"西賢二街","SECT":" ","MAREA":" ","LANE":" ","ALLEY":" ","HOUSE_NO":"１２５號","E_COORD97":165563.13,"N_COORD97":2544634.96,"ADDRESS":"西賢二街１２５號","OBJECTID":574926},"geometry":{"x":165563.13000000082,"y":2544634.9600000009}},{"attributes":{"ID":574954,"DIS_CODE":0,"TOWNNAME":"善化區","LI":"坐駕里","LIN":"11鄰","STREET":"自強路","SECT":" ","MAREA":" ","LANE":" ","ALLEY":" ","HOUSE_NO":"１５５號","E_COORD97":177884.07000000001,"N_COORD97":2558684.25,"ADDRESS":"自強路１５５號","OBJECTID":574927},"geometry":{"x":177884.06999999937,"y":2558684.25}},{"attributes":{"ID":574955,"DIS_CODE":0,"TOWNNAME":"善化區","LI":"東關里","LIN":"13鄰","STREET":"中和街","SECT":" ","MAREA":" ","LANE":" ","ALLEY":" ","HOUSE_NO":"８號","E_COORD97":177422.34,"N_COORD97":2559072.5,"ADDRESS":"中和街８號","OBJECTID":574928},"geometry":{"x":177422.33999999985,"y":2559072.5}},{"attributes":{"ID":574956,"DIS_CODE":0,"TOWNNAME":"永康區","LI":"網寮里","LIN":"23鄰","STREET":"永華路","SECT":" ","MAREA":" ","LANE":" ","ALLEY":" ","HOUSE_NO":"５２０號","E_COORD97":173934.32999999999,"N_COORD97":2546350.7599999998,"ADDRESS":"永華路５２０號","OBJECTID":574929},"geometry":{"x":173934.33000000101,"y":2546350.7599999998}},{"attributes":{"ID":574957,"DIS_CODE":0,"TOWNNAME":"善化區","LI":"坐駕里","LIN":"14鄰","STREET":"和平路","SECT":" ","MAREA":" ","LANE":" ","ALLEY":" ","HOUSE_NO":"２２號","E_COORD97":178178.12,"N_COORD97":2558626.25,"ADDRESS":"和平路２２號","OBJECTID":574930},"geometry":{"x":178178.12000000011,"y":2558626.2500000019}},{"attributes":{"ID":574958,"DIS_CODE":0,"TOWNNAME":"善化區","LI":"南關里","LIN":"8鄰","STREET":"三民路","SECT":" ","MAREA":" ","LANE":" ","ALLEY":" ","HOUSE_NO":"１７號之２４","E_COORD97":176916.23999999999,"N_COORD97":2558760.27,"ADDRESS":"三民路１７號之２４","OBJECTID":574931},"geometry":{"x":176916.24000000022,"y":2558760.2700000014}},{"attributes":{"ID":574959,"DIS_CODE":0,"TOWNNAME":"善化區","LI":"南關里","LIN":"8鄰","STREET":"光復路","SECT":" ","MAREA":" ","LANE":" ","ALLEY":" ","HOUSE_NO":"５４２號","E_COORD97":176796.64000000001,"N_COORD97":2558915.2599999998,"ADDRESS":"光復路５４２號","OBJECTID":574932},"geometry":{"x":176796.6400000006,"y":2558915.2599999998}},{"attributes":{"ID":574960,"DIS_CODE":0,"TOWNNAME":"善化區","LI":"胡厝里","LIN":"21鄰","STREET":"興農路","SECT":" ","MAREA":" ","LANE":" ","ALLEY":" ","HOUSE_NO":"３７１號","E_COORD97":175424.16,"N_COORD97":2558977.0099999998,"ADDRESS":"興農路３７１號","OBJECTID":574933},"geometry":{"x":175424.16000000108,"y":2558977.0100000016}},{"attributes":{"ID":574961,"DIS_CODE":0,"TOWNNAME":"善化區","LI":"胡厝里","LIN":"21鄰","STREET":"興農路","SECT":" ","MAREA":" ","LANE":" ","ALLEY":" ","HOUSE_NO":"４０８號","E_COORD97":175372.01000000001,"N_COORD97":2558992.0099999998,"ADDRESS":"興農路４０８號","OBJECTID":574934},"geometry":{"x":175372.01000000071,"y":2558992.0099999998}},{"attributes":{"ID":574962,"DIS_CODE":0,"TOWNNAME":"善化區","LI":"胡厝里","LIN":"21鄰","STREET":"興農路","SECT":" ","MAREA":" ","LANE":" ","ALLEY":" ","HOUSE_NO":"４５６號","E_COORD97":175283.76999999999,"N_COORD97":2558966.7599999998,"ADDRESS":"興農路４５６號","OBJECTID":574935},"geometry":{"x":175283.77000000048,"y":2558966.7599999998}},{"attributes":{"ID":574963,"DIS_CODE":0,"TOWNNAME":"善化區","LI":"坐駕里","LIN":"13鄰","STREET":"和平路","SECT":" ","MAREA":" ","LANE":" ","ALLEY":" ","HOUSE_NO":"３０號","E_COORD97":178180.89000000001,"N_COORD97":2558685,"ADDRESS":"和平路３０號","OBJECTID":574936},"geometry":{"x":178180.88999999966,"y":2558685.0000000019}},{"attributes":{"ID":574964,"DIS_CODE":0,"TOWNNAME":"善化區","LI":"坐駕里","LIN":"14鄰","STREET":"和平路","SECT":" ","MAREA":" ","LANE":" ","ALLEY":" ","HOUSE_NO":"２０號","E_COORD97":178178.60999999999,"N_COORD97":2558622,"ADDRESS":"和平路２０號","OBJECTID":574937},"geometry":{"x":178178.61000000034,"y":2558622}},{"attributes":{"ID":574965,"DIS_CODE":0,"TOWNNAME":"安南區","LI":"溪頂里","LIN":"23鄰","STREET":"泰安街","SECT":" ","MAREA":" ","LANE":" ","ALLEY":" ","HOUSE_NO":"５號","E_COORD97":168774.20000000001,"N_COORD97":2547513.1099999999,"ADDRESS":"泰安街５號","OBJECTID":574938},"geometry":{"x":168774.20000000019,"y":2547513.1100000013}},{"attributes":{"ID":574966,"DIS_CODE":0,"TOWNNAME":"善化區","LI":"胡厝里","LIN":"21鄰","STREET":"興農路","SECT":" ","MAREA":" ","LANE":" ","ALLEY":" ","HOUSE_NO":"７１１號","E_COORD97":174395.88,"N_COORD97":2558662.5299999998,"ADDRESS":"興農路７１１號","OBJECTID":574939},"geometry":{"x":174395.87999999989,"y":2558662.5299999993}},{"attributes":{"ID":574967,"DIS_CODE":0,"TOWNNAME":"善化區","LI":"胡厝里","LIN":"21鄰","STREET":"興農路","SECT":" ","MAREA":" ","LANE":" ","ALLEY":" ","HOUSE_NO":"６４７號","E_COORD97":174558.04000000001,"N_COORD97":2558705.5099999998,"ADDRESS":"興農路６４７號","OBJECTID":574940},"geometry":{"x":174558.03999999911,"y":2558705.5100000016}},{"attributes":{"ID":574968,"DIS_CODE":0,"TOWNNAME":"善化區","LI":"胡厝里","LIN":"21鄰","STREET":"興農路","SECT":" ","MAREA":" ","LANE":" ","ALLEY":" ","HOUSE_NO":"５８８號","E_COORD97":175009.17999999999,"N_COORD97":2558881.0099999998,"ADDRESS":"興農路５８８號","OBJECTID":574941},"geometry":{"x":175009.1799999997,"y":2558881.0100000016}},{"attributes":{"ID":574969,"DIS_CODE":0,"TOWNNAME":"善化區","LI":"胡厝里","LIN":"21鄰","STREET":"興農路","SECT":" ","MAREA":" ","LANE":" ","ALLEY":" ","HOUSE_NO":"４６３號","E_COORD97":175021.67999999999,"N_COORD97":2558851.5099999998,"ADDRESS":"興農路４６３號","OBJECTID":574942},"geometry":{"x":175021.68000000063,"y":2558851.5100000016}},{"attributes":{"ID":574970,"DIS_CODE":0,"TOWNNAME":"永康區","LI":"埔園里","LIN":"23鄰","STREET":"四維街","SECT":" ","MAREA":" ","LANE":" ","ALLEY":" ","HOUSE_NO":"３２號","E_COORD97":173436.98000000001,"N_COORD97":2548001.21,"ADDRESS":"四維街３２號","OBJECTID":574943},"geometry":{"x":173436.98000000138,"y":2548001.2100000028}},{"attributes":{"ID":574971,"DIS_CODE":0,"TOWNNAME":"永康區","LI":"埔園里","LIN":"23鄰","STREET":"四維街","SECT":" ","MAREA":" ","LANE":" ","ALLEY":" ","HOUSE_NO":"３６號","E_COORD97":173435.42000000001,"N_COORD97":2548005.8199999998,"ADDRESS":"四維街３６號","OBJECTID":574944},"geometry":{"x":173435.42000000086,"y":2548005.8199999984}},{"attributes":{"ID":574972,"DIS_CODE":0,"TOWNNAME":"永康區","LI":"埔園里","LIN":"23鄰","STREET":"四維街","SECT":" ","MAREA":" ","LANE":" ","ALLEY":" ","HOUSE_NO":"３８號","E_COORD97":173432.22,"N_COORD97":2548009.3999999999,"ADDRESS":"四維街３８號","OBJECTID":574945},"geometry":{"x":173432.21999999974,"y":2548009.4000000022}},{"attributes":{"ID":574973,"DIS_CODE":0,"TOWNNAME":"永康區","LI":"埔園里","LIN":"23鄰","STREET":"四維街","SECT":" ","MAREA":" ","LANE":" ","ALLEY":" ","HOUSE_NO":"４０號","E_COORD97":173427.42000000001,"N_COORD97":2548012.8199999998,"ADDRESS":"四維街４０號","OBJECTID":574946},"geometry":{"x":173427.41999999993,"y":2548012.820000004}},{"attributes":{"ID":574974,"DIS_CODE":0,"TOWNNAME":"永康區","LI":"埔園里","LIN":"23鄰","STREET":"四維街","SECT":" ","MAREA":" ","LANE":" ","ALLEY":" ","HOUSE_NO":"４６號","E_COORD97":173421.70000000001,"N_COORD97":2548023.2200000002,"ADDRESS":"四維街４６號","OBJECTID":574947},"geometry":{"x":173421.70000000112,"y":2548023.2200000007}},{"attributes":{"ID":574975,"DIS_CODE":0,"TOWNNAME":"善化區","LI":"胡厝里","LIN":"21鄰","STREET":"興農路","SECT":" ","MAREA":" ","LANE":" ","ALLEY":" ","HOUSE_NO":"３７３號","E_COORD97":175417.67999999999,"N_COORD97":2558975.7599999998,"ADDRESS":"興農路３７３號","OBJECTID":574948},"geometry":{"x":175417.6799999997,"y":2558975.7599999998}},{"attributes":{"ID":574976,"DIS_CODE":0,"TOWNNAME":"永康區","LI":"埔園里","LIN":"23鄰","STREET":"四維街","SECT":" ","MAREA":" ","LANE":" ","ALLEY":" ","HOUSE_NO":"５０號","E_COORD97":173422.92000000001,"N_COORD97":2548028.1000000001,"ADDRESS":"四維街５０號","OBJECTID":574949},"geometry":{"x":173422.91999999993,"y":2548028.1000000015}},{"attributes":{"ID":574977,"DIS_CODE":0,"TOWNNAME":"永康區","LI":"埔園里","LIN":"23鄰","STREET":"四維街","SECT":" ","MAREA":" ","LANE":" ","ALLEY":" ","HOUSE_NO":"５０之１號","E_COORD97":173426.07000000001,"N_COORD97":2548033.54,"ADDRESS":"四維街５０之１號","OBJECTID":574950},"geometry":{"x":173426.07000000123,"y":2548033.5399999991}},{"attributes":{"ID":574978,"DIS_CODE":0,"TOWNNAME":"永康區","LI":"埔園里","LIN":"23鄰","STREET":"四維街","SECT":" ","MAREA":" ","LANE":" ","ALLEY":" ","HOUSE_NO":"５０之２號","E_COORD97":173424.69,"N_COORD97":2548037.6299999999,"ADDRESS":"四維街５０之２號","OBJECTID":574951},"geometry":{"x":173424.69000000041,"y":2548037.6300000008}},{"attributes":{"ID":574979,"DIS_CODE":0,"TOWNNAME":"永康區","LI":"埔園里","LIN":"23鄰","STREET":"四維街","SECT":" ","MAREA":" ","LANE":" ","ALLEY":" ","HOUSE_NO":"５０之３號","E_COORD97":173423.31,"N_COORD97":2548041.7400000002,"ADDRESS":"四維街５０之３號","OBJECTID":574952},"geometry":{"x":173423.30999999959,"y":2548041.7400000021}},{"attributes":{"ID":574980,"DIS_CODE":0,"TOWNNAME":"永康區","LI":"埔園里","LIN":"23鄰","STREET":"四維街","SECT":" ","MAREA":" ","LANE":" ","ALLEY":" ","HOUSE_NO":"５０之５號","E_COORD97":173421.92999999999,"N_COORD97":2548045.8599999999,"ADDRESS":"四維街５０之５號","OBJECTID":574953},"geometry":{"x":173421.93000000063,"y":2548045.8600000013}},{"attributes":{"ID":574981,"DIS_CODE":0,"TOWNNAME":"安南區","LI":"州北里","LIN":"23鄰","STREET":"安和路","SECT":"五段","MAREA":" ","LANE":" ","ALLEY":" ","HOUSE_NO":"２６７號","E_COORD97":169728.01999999999,"N_COORD97":2552018.6200000001,"ADDRESS":"安和路五段２６７號","OBJECTID":574954},"geometry":{"x":169728.01999999955,"y":2552018.620000001}},{"attributes":{"ID":574982,"DIS_CODE":0,"TOWNNAME":"安南區","LI":"州北里","LIN":"23鄰","STREET":"安和路","SECT":"五段","MAREA":" ","LANE":" ","ALLEY":" ","HOUSE_NO":"２７１號","E_COORD97":169721.35000000001,"N_COORD97":2552032.8700000001,"ADDRESS":"安和路五段２７１號","OBJECTID":574955},"geometry":{"x":169721.35000000056,"y":2552032.870000001}},{"attributes":{"ID":574983,"DIS_CODE":0,"TOWNNAME":"安南區","LI":"州北里","LIN":"23鄰","STREET":"安和路","SECT":"五段","MAREA":" ","LANE":" ","ALLEY":" ","HOUSE_NO":"２７３號","E_COORD97":169719.48000000001,"N_COORD97":2552036.6000000001,"ADDRESS":"安和路五段２７３號","OBJECTID":574956},"geometry":{"x":169719.48000000138,"y":2552036.5999999996}},{"attributes":{"ID":574984,"DIS_CODE":0,"TOWNNAME":"安南區","LI":"州北里","LIN":"23鄰","STREET":"安和路","SECT":"五段","MAREA":" ","LANE":" ","ALLEY":" ","HOUSE_NO":"２７５號","E_COORD97":169717.92000000001,"N_COORD97":2552040.8100000001,"ADDRESS":"安和路五段２７５號","OBJECTID":574957},"geometry":{"x":169717.92000000086,"y":2552040.8100000042}},{"attributes":{"ID":574985,"DIS_CODE":0,"TOWNNAME":"安南區","LI":"州北里","LIN":"23鄰","STREET":"安和路","SECT":"五段","MAREA":" ","LANE":" ","ALLEY":" ","HOUSE_NO":"２７７號","E_COORD97":169716.67999999999,"N_COORD97":2552044.8500000001,"ADDRESS":"安和路五段２７７號","OBJECTID":574958},"geometry":{"x":169716.6799999997,"y":2552044.8499999996}},{"attributes":{"ID":574986,"DIS_CODE":0,"TOWNNAME":"安南區","LI":"州北里","LIN":"23鄰","STREET":"安和路","SECT":"五段","MAREA":" ","LANE":" ","ALLEY":" ","HOUSE_NO":"２７９號","E_COORD97":169714.64999999999,"N_COORD97":2552048.8900000001,"ADDRESS":"安和路五段２７９號","OBJECTID":574959},"geometry":{"x":169714.65000000224,"y":2552048.8900000025}},{"attributes":{"ID":574987,"DIS_CODE":0,"TOWNNAME":"安南區","LI":"州北里","LIN":"23鄰","STREET":"安和路","SECT":"五段","MAREA":" ","LANE":" ","ALLEY":" ","HOUSE_NO":"２８１號","E_COORD97":169713.09,"N_COORD97":2552052.9500000002,"ADDRESS":"安和路五段２８１號","OBJECTID":574960},"geometry":{"x":169713.09000000078,"y":2552052.9500000011}},{"attributes":{"ID":574988,"DIS_CODE":0,"TOWNNAME":"安南區","LI":"州北里","LIN":"23鄰","STREET":"安和路","SECT":"五段","MAREA":" ","LANE":" ","ALLEY":" ","HOUSE_NO":"２８３號","E_COORD97":169710.59,"N_COORD97":2552056.9300000002,"ADDRESS":"安和路五段２８３號","OBJECTID":574961},"geometry":{"x":169710.58999999985,"y":2552056.9300000016}},{"attributes":{"ID":574989,"DIS_CODE":0,"TOWNNAME":"安南區","LI":"州北里","LIN":"23鄰","STREET":"安和路","SECT":"五段","MAREA":" ","LANE":" ","ALLEY":" ","HOUSE_NO":"２９１號","E_COORD97":169704.20000000001,"N_COORD97":2552072.7999999998,"ADDRESS":"安和路五段２９１號","OBJECTID":574962},"geometry":{"x":169704.20000000112,"y":2552072.8000000026}},{"attributes":{"ID":574990,"DIS_CODE":0,"TOWNNAME":"安南區","LI":"州北里","LIN":"23鄰","STREET":"安和路","SECT":"五段","MAREA":" ","LANE":" ","ALLEY":" ","HOUSE_NO":"２９３號","E_COORD97":169702.48000000001,"N_COORD97":2552076.8500000001,"ADDRESS":"安和路五段２９３號","OBJECTID":574963},"geometry":{"x":169702.48000000138,"y":2552076.8499999978}},{"attributes":{"ID":574991,"DIS_CODE":0,"TOWNNAME":"安南區","LI":"州北里","LIN":"23鄰","STREET":"安和路","SECT":"五段","MAREA":" ","LANE":" ","ALLEY":" ","HOUSE_NO":"２９５號","E_COORD97":169700.14000000001,"N_COORD97":2552080.7400000002,"ADDRESS":"安和路五段２９５號","OBJECTID":574964},"geometry":{"x":169700.13999999966,"y":2552080.7400000002}},{"attributes":{"ID":574992,"DIS_CODE":0,"TOWNNAME":"仁德區","LI":"保安里","LIN":"23鄰","STREET":"保學一街","SECT":" ","MAREA":" ","LANE":" ","ALLEY":" ","HOUSE_NO":"７號","E_COORD97":171579.13,"N_COORD97":2535587.6899999999,"ADDRESS":"保學一街７號","OBJECTID":574965},"geometry":{"x":171579.13000000082,"y":2535587.6900000013}},{"attributes":{"ID":574993,"DIS_CODE":0,"TOWNNAME":"安南區","LI":"州北里","LIN":"23鄰","STREET":"安和路","SECT":"五段","MAREA":" ","LANE":" ","ALLEY":" ","HOUSE_NO":"２９７號","E_COORD97":169698.26999999999,"N_COORD97":2552084.48,"ADDRESS":"安和路五段２９７號","OBJECTID":574966},"geometry":{"x":169698.27000000048,"y":2552084.4800000023}},{"attributes":{"ID":574994,"DIS_CODE":0,"TOWNNAME":"安南區","LI":"州北里","LIN":"23鄰","STREET":"安和路","SECT":"五段","MAREA":" ","LANE":" ","ALLEY":" ","HOUSE_NO":"２８７號","E_COORD97":169707.31,"N_COORD97":2552064.8700000001,"ADDRESS":"安和路五段２８７號","OBJECTID":574967},"geometry":{"x":169707.30999999959,"y":2552064.8700000048}},{"attributes":{"ID":574995,"DIS_CODE":0,"TOWNNAME":"安南區","LI":"溪頂里","LIN":"23鄰","STREET":"泰安街","SECT":" ","MAREA":" ","LANE":" ","ALLEY":" ","HOUSE_NO":"２１號","E_COORD97":168772.07000000001,"N_COORD97":2547545.7799999998,"ADDRESS":"泰安街２１號","OBJECTID":574968},"geometry":{"x":168772.0700000003,"y":2547545.7800000012}},{"attributes":{"ID":574996,"DIS_CODE":0,"TOWNNAME":"永康區","LI":"西灣里","LIN":"23鄰","STREET":"國光七街","SECT":" ","MAREA":" ","LANE":" ","ALLEY":" ","HOUSE_NO":"１３號","E_COORD97":174321.17000000001,"N_COORD97":2545514.4500000002,"ADDRESS":"國光七街１３號","OBJECTID":574969},"geometry":{"x":174321.16999999993,"y":2545514.4499999993}},{"attributes":{"ID":574997,"DIS_CODE":0,"TOWNNAME":"永康區","LI":"尚頂里","LIN":"23鄰","STREET":"南台街","SECT":" ","MAREA":" ","LANE":" ","ALLEY":" ","HOUSE_NO":"１７號","E_COORD97":170391.10999999999,"N_COORD97":2546942.9100000001,"ADDRESS":"南台街１７號","OBJECTID":574970},"geometry":{"x":170391.1099999994,"y":2546942.9100000001}},{"attributes":{"ID":574998,"DIS_CODE":0,"TOWNNAME":"仁德區","LI":"保安里","LIN":"23鄰","STREET":"保學路","SECT":" ","MAREA":" ","LANE":" ","ALLEY":" ","HOUSE_NO":"８８號","E_COORD97":171622.91,"N_COORD97":2535626.1200000001,"ADDRESS":"保學路８８號","OBJECTID":574971},"geometry":{"x":171622.91000000015,"y":2535626.120000001}},{"attributes":{"ID":574999,"DIS_CODE":0,"TOWNNAME":"永康區","LI":"正強里","LIN":"23鄰","STREET":"正強街","SECT":" ","MAREA":" ","LANE":" ","ALLEY":" ","HOUSE_NO":"２０７號","E_COORD97":173294.69,"N_COORD97":2547687.8300000001,"ADDRESS":"正強街２０７號","OBJECTID":574972},"geometry":{"x":173294.69000000227,"y":2547687.8300000019}},{"attributes":{"ID":575000,"DIS_CODE":0,"TOWNNAME":"仁德區","LI":"保安里","LIN":"23鄰","STREET":"保學路","SECT":" ","MAREA":" ","LANE":" ","ALLEY":" ","HOUSE_NO":"９０號","E_COORD97":171631.91,"N_COORD97":2535630.6200000001,"ADDRESS":"保學路９０號","OBJECTID":574973},"geometry":{"x":171631.91000000108,"y":2535630.6200000029}},{"attributes":{"ID":575001,"DIS_CODE":0,"TOWNNAME":"永康區","LI":"北灣里","LIN":"23鄰","STREET":"大灣路","SECT":" ","MAREA":" ","LANE":" ","ALLEY":" ","HOUSE_NO":"２號","E_COORD97":175338.85000000001,"N_COORD97":2545968.6899999999,"ADDRESS":"大灣路２號","OBJECTID":574974},"geometry":{"x":175338.85000000149,"y":2545968.6900000032}},{"attributes":{"ID":575002,"DIS_CODE":0,"TOWNNAME":"仁德區","LI":"保安里","LIN":"23鄰","STREET":"保學路","SECT":" ","MAREA":" ","LANE":" ","ALLEY":" ","HOUSE_NO":"４３號","E_COORD97":171585.04000000001,"N_COORD97":2535619.9100000001,"ADDRESS":"保學路４３號","OBJECTID":574975},"geometry":{"x":171585.04000000097,"y":2535619.9100000001}},{"attributes":{"ID":575003,"DIS_CODE":0,"TOWNNAME":"仁德區","LI":"保安里","LIN":"23鄰","STREET":"保學路","SECT":" ","MAREA":" ","LANE":" ","ALLEY":" ","HOUSE_NO":"４５號","E_COORD97":171593.62,"N_COORD97":2535624.3599999999,"ADDRESS":"保學路４５號","OBJECTID":574976},"geometry":{"x":171593.62000000104,"y":2535624.3600000013}},{"attributes":{"ID":575004,"DIS_CODE":0,"TOWNNAME":"仁德區","LI":"保安里","LIN":"23鄰","STREET":"保學路","SECT":" ","MAREA":" ","LANE":" ","ALLEY":" ","HOUSE_NO":"９６號","E_COORD97":171649.70000000001,"N_COORD97":2535639.23,"ADDRESS":"保學路９６號","OBJECTID":574977},"geometry":{"x":171649.70000000019,"y":2535639.2300000023}},{"attributes":{"ID":575005,"DIS_CODE":0,"TOWNNAME":"仁德區","LI":"保安里","LIN":"23鄰","STREET":"保學路","SECT":" ","MAREA":" ","LANE":" ","ALLEY":" ","HOUSE_NO":"２７號","E_COORD97":171536.76999999999,"N_COORD97":2535595.1000000001,"ADDRESS":"保學路２７號","OBJECTID":574978},"geometry":{"x":171536.76999999955,"y":2535595.1000000015}},{"attributes":{"ID":575006,"DIS_CODE":0,"TOWNNAME":"永康區","LI":"東灣里","LIN":"23鄰","STREET":"大灣二街","SECT":" ","MAREA":" ","LANE":" ","ALLEY":" ","HOUSE_NO":"５６號","E_COORD97":174870.63,"N_COORD97":2544746,"ADDRESS":"大灣二街５６號","OBJECTID":574979},"geometry":{"x":174870.62999999989,"y":2544746}},{"attributes":{"ID":575007,"DIS_CODE":0,"TOWNNAME":"永康區","LI":"尚頂里","LIN":"23鄰","STREET":"南台街","SECT":" ","MAREA":" ","LANE":" ","ALLEY":" ","HOUSE_NO":"６５號","E_COORD97":170268.07999999999,"N_COORD97":2546990.7400000002,"ADDRESS":"南台街６５號","OBJECTID":574980},"geometry":{"x":170268.08000000101,"y":2546990.7400000021}},{"attributes":{"ID":575008,"DIS_CODE":0,"TOWNNAME":"永康區","LI":"正強里","LIN":"23鄰","STREET":"正強街","SECT":" ","MAREA":" ","LANE":" ","ALLEY":" ","HOUSE_NO":"１８７號","E_COORD97":173299.89999999999,"N_COORD97":2547641.7400000002,"ADDRESS":"正強街１８７號","OBJECTID":574981},"geometry":{"x":173299.90000000224,"y":2547641.7400000021}},{"attributes":{"ID":575009,"DIS_CODE":0,"TOWNNAME":"仁德區","LI":"保安里","LIN":"23鄰","STREET":"保學路","SECT":" ","MAREA":" ","LANE":" ","ALLEY":" ","HOUSE_NO":"２９號","E_COORD97":171540.81,"N_COORD97":2535597.2000000002,"ADDRESS":"保學路２９號","OBJECTID":574982},"geometry":{"x":171540.81000000052,"y":2535597.200000003}},{"attributes":{"ID":575010,"DIS_CODE":0,"TOWNNAME":"仁德區","LI":"保安里","LIN":"23鄰","STREET":"保學路","SECT":" ","MAREA":" ","LANE":" ","ALLEY":" ","HOUSE_NO":"３１號","E_COORD97":171545.10000000001,"N_COORD97":2535599.2799999998,"ADDRESS":"保學路３１號","OBJECTID":574983},"geometry":{"x":171545.10000000149,"y":2535599.2799999993}},{"attributes":{"ID":575011,"DIS_CODE":0,"TOWNNAME":"安南區","LI":"溪頂里","LIN":"23鄰","STREET":"泰安街","SECT":" ","MAREA":" ","LANE":" ","ALLEY":" ","HOUSE_NO":"１１號","E_COORD97":168772.95999999999,"N_COORD97":2547525.4300000002,"ADDRESS":"泰安街１１號","OBJECTID":574984},"geometry":{"x":168772.96000000183,"y":2547525.4299999997}},{"attributes":{"ID":575012,"DIS_CODE":0,"TOWNNAME":"安南區","LI":"溪頂里","LIN":"23鄰","STREET":"泰安街","SECT":" ","MAREA":" ","LANE":" ","ALLEY":" ","HOUSE_NO":"１３號","E_COORD97":168772.60000000001,"N_COORD97":2547528.79,"ADDRESS":"泰安街１３號","OBJECTID":574985},"geometry":{"x":168772.59999999963,"y":2547528.7899999991}},{"attributes":{"ID":575013,"DIS_CODE":0,"TOWNNAME":"安南區","LI":"溪頂里","LIN":"23鄰","STREET":"泰安街","SECT":" ","MAREA":" ","LANE":" ","ALLEY":" ","HOUSE_NO":"１５號","E_COORD97":168772.42999999999,"N_COORD97":2547533.75,"ADDRESS":"泰安街１５號","OBJECTID":574986},"geometry":{"x":168772.4299999997,"y":2547533.75}},{"attributes":{"ID":575014,"DIS_CODE":0,"TOWNNAME":"安南區","LI":"溪頂里","LIN":"23鄰","STREET":"泰安街","SECT":" ","MAREA":" ","LANE":" ","ALLEY":" ","HOUSE_NO":"１７號","E_COORD97":168772.60000000001,"N_COORD97":2547537.9900000002,"ADDRESS":"泰安街１７號","OBJECTID":574987},"geometry":{"x":168772.59999999963,"y":2547537.9900000021}},{"attributes":{"ID":575015,"DIS_CODE":0,"TOWNNAME":"安南區","LI":"溪頂里","LIN":"23鄰","STREET":"泰安街","SECT":" ","MAREA":" ","LANE":" ","ALLEY":" ","HOUSE_NO":"１９號","E_COORD97":168771.72,"N_COORD97":2547541.3599999999,"ADDRESS":"泰安街１９號","OBJECTID":574988},"geometry":{"x":168771.72000000067,"y":2547541.3600000013}},{"attributes":{"ID":575016,"DIS_CODE":0,"TOWNNAME":"安南區","LI":"溪頂里","LIN":"23鄰","STREET":"泰安街","SECT":" ","MAREA":" ","LANE":" ","ALLEY":" ","HOUSE_NO":"１號","E_COORD97":168775.09,"N_COORD97":2547505.1499999999,"ADDRESS":"泰安街１號","OBJECTID":574989},"geometry":{"x":168775.08999999985,"y":2547505.1500000004}},{"attributes":{"ID":575017,"DIS_CODE":0,"TOWNNAME":"安南區","LI":"溪頂里","LIN":"23鄰","STREET":"泰安街","SECT":" ","MAREA":" ","LANE":" ","ALLEY":" ","HOUSE_NO":"２３號","E_COORD97":168771.54000000001,"N_COORD97":2547550.2000000002,"ADDRESS":"泰安街２３號","OBJECTID":574990},"geometry":{"x":168771.54000000097,"y":2547550.1999999993}},{"attributes":{"ID":575018,"DIS_CODE":0,"TOWNNAME":"安南區","LI":"溪頂里","LIN":"23鄰","STREET":"泰安街","SECT":" ","MAREA":" ","LANE":" ","ALLEY":" ","HOUSE_NO":"２５號","E_COORD97":168770.29999999999,"N_COORD97":2547554.0899999999,"ADDRESS":"泰安街２５號","OBJECTID":574991},"geometry":{"x":168770.29999999981,"y":2547554.0900000017}},{"attributes":{"ID":575019,"DIS_CODE":0,"TOWNNAME":"安南區","LI":"溪頂里","LIN":"23鄰","STREET":"泰安街","SECT":" ","MAREA":" ","LANE":" ","ALLEY":" ","HOUSE_NO":"２７號","E_COORD97":168770.48000000001,"N_COORD97":2547557.8100000001,"ADDRESS":"泰安街２７號","OBJECTID":574992},"geometry":{"x":168770.48000000138,"y":2547557.8100000005}},{"attributes":{"ID":575020,"DIS_CODE":0,"TOWNNAME":"安南區","LI":"溪頂里","LIN":"23鄰","STREET":"泰安街","SECT":" ","MAREA":" ","LANE":" ","ALLEY":" ","HOUSE_NO":"２９號","E_COORD97":168770.29999999999,"N_COORD97":2547561.8799999999,"ADDRESS":"泰安街２９號","OBJECTID":574993},"geometry":{"x":168770.29999999981,"y":2547561.879999999}},{"attributes":{"ID":575021,"DIS_CODE":0,"TOWNNAME":"安南區","LI":"溪頂里","LIN":"23鄰","STREET":"泰安街","SECT":" ","MAREA":" ","LANE":" ","ALLEY":" ","HOUSE_NO":"３１號","E_COORD97":168768.53,"N_COORD97":2547566.48,"ADDRESS":"泰安街３１號","OBJECTID":574994},"geometry":{"x":168768.53000000119,"y":2547566.4800000004}},{"attributes":{"ID":575022,"DIS_CODE":0,"TOWNNAME":"安南區","LI":"溪頂里","LIN":"23鄰","STREET":"泰安街","SECT":" ","MAREA":" ","LANE":" ","ALLEY":" ","HOUSE_NO":"３３號","E_COORD97":168769.41,"N_COORD97":2547576.7999999998,"ADDRESS":"泰安街３３號","OBJECTID":574995},"geometry":{"x":168769.41000000015,"y":2547576.8000000026}},{"attributes":{"ID":575023,"DIS_CODE":0,"TOWNNAME":"安南區","LI":"溪頂里","LIN":"23鄰","STREET":"泰安街","SECT":" ","MAREA":" ","LANE":" ","ALLEY":" ","HOUSE_NO":"３５號","E_COORD97":168768.35000000001,"N_COORD97":2547580.6899999999,"ADDRESS":"泰安街３５號","OBJECTID":574996},"geometry":{"x":168768.35000000149,"y":2547580.6899999995}},{"attributes":{"ID":575024,"DIS_CODE":0,"TOWNNAME":"安南區","LI":"溪頂里","LIN":"23鄰","STREET":"泰安街","SECT":" ","MAREA":" ","LANE":" ","ALLEY":" ","HOUSE_NO":"３７號","E_COORD97":168767.64000000001,"N_COORD97":2547585.1099999999,"ADDRESS":"泰安街３７號","OBJECTID":574997},"geometry":{"x":168767.63999999966,"y":2547585.1099999994}},{"attributes":{"ID":575025,"DIS_CODE":0,"TOWNNAME":"安南區","LI":"溪頂里","LIN":"23鄰","STREET":"泰安街","SECT":" ","MAREA":" ","LANE":" ","ALLEY":" ","HOUSE_NO":"３９號","E_COORD97":168767.64000000001,"N_COORD97":2547588.8300000001,"ADDRESS":"泰安街３９號","OBJECTID":574998},"geometry":{"x":168767.63999999966,"y":2547588.8300000038}},{"attributes":{"ID":575026,"DIS_CODE":0,"TOWNNAME":"安南區","LI":"溪頂里","LIN":"23鄰","STREET":"泰安街","SECT":" ","MAREA":" ","LANE":" ","ALLEY":" ","HOUSE_NO":"３號","E_COORD97":168774.73000000001,"N_COORD97":2547508.8599999999,"ADDRESS":"泰安街３號","OBJECTID":574999},"geometry":{"x":168774.73000000045,"y":2547508.8599999994}},{"attributes":{"ID":575027,"DIS_CODE":0,"TOWNNAME":"安南區","LI":"溪頂里","LIN":"23鄰","STREET":"泰安街","SECT":" ","MAREA":" ","LANE":" ","ALLEY":" ","HOUSE_NO":"４１號","E_COORD97":168767.98999999999,"N_COORD97":2547592.8100000001,"ADDRESS":"泰安街４１號","OBJECTID":575000},"geometry":{"x":168767.99000000209,"y":2547592.8100000042}}]}