{"displayFieldName":"TOWNNAME","fieldAliases":{"ID":"ID","DIS_CODE":"DIS_CODE","TOWNNAME":"TOWNNAME","LI":"LI","LIN":"LIN","STREET":"STREET","SECT":"SECT","MAREA":"MAREA","LANE":"LANE","ALLEY":"ALLEY","HOUSE_NO":"HOUSE_NO","E_COORD97":"E_COORD97","N_COORD97":"N_COORD97","ADDRESS":"ADDRESS","OBJECTID":"OBJECTID"},"geometryType":"esriGeometryPoint","spatialReference":{"wkid":102443,"latestWkid":3826},"fields":[{"name":"ID","type":"esriFieldTypeDouble","alias":"ID"},{"name":"DIS_CODE","type":"esriFieldTypeInteger","alias":"DIS_CODE"},{"name":"TOWNNAME","type":"esriFieldTypeString","alias":"TOWNNAME","length":8},{"name":"LI","type":"esriFieldTypeString","alias":"LI","length":8},{"name":"LIN","type":"esriFieldTypeString","alias":"LIN","length":12},{"name":"STREET","type":"esriFieldTypeString","alias":"STREET","length":20},{"name":"SECT","type":"esriFieldTypeString","alias":"SECT","length":8},{"name":"MAREA","type":"esriFieldTypeString","alias":"MAREA","length":12},{"name":"LANE","type":"esriFieldTypeString","alias":"LANE","length":10},{"name":"ALLEY","type":"esriFieldTypeString","alias":"ALLEY","length":10},{"name":"HOUSE_NO","type":"esriFieldTypeString","alias":"HOUSE_NO","length":20},{"name":"E_COORD97","type":"esriFieldTypeDouble","alias":"E_COORD97"},{"name":"N_COORD97","type":"esriFieldTypeDouble","alias":"N_COORD97"},{"name":"ADDRESS","type":"esriFieldTypeString","alias":"ADDRESS","length":50},{"name":"OBJECTID","type":"esriFieldTypeOID","alias":"OBJECTID"}],"features":[{"attributes":{"ID":365811,"DIS_CODE":0,"TOWNNAME":"七股區","LI":"大埕里","LIN":"13鄰","STREET":" ","SECT":" ","MAREA":"大埕","LANE":" ","ALLEY":" ","HOUSE_NO":"４０８號","E_COORD97":161971.66,"N_COORD97":2559913.6899999999,"ADDRESS":"大埕４０８號","OBJECTID":365801},"geometry":{"x":161971.66000000015,"y":2559913.6900000013}},{"attributes":{"ID":365812,"DIS_CODE":0,"TOWNNAME":"永康區","LI":"東灣里","LIN":"13鄰","STREET":"大灣路","SECT":" ","MAREA":" ","LANE":"３５７巷","ALLEY":" ","HOUSE_NO":"１號","E_COORD97":174778.87,"N_COORD97":2544910.1099999999,"ADDRESS":"大灣路３５７巷１號","OBJECTID":365802},"geometry":{"x":174778.87000000104,"y":2544910.1099999994}},{"attributes":{"ID":365813,"DIS_CODE":0,"TOWNNAME":"永康區","LI":"東灣里","LIN":"13鄰","STREET":"大灣路","SECT":" ","MAREA":" ","LANE":"３５７巷","ALLEY":" ","HOUSE_NO":"７號","E_COORD97":174794.13,"N_COORD97":2544898.6899999999,"ADDRESS":"大灣路３５７巷７號","OBJECTID":365803},"geometry":{"x":174794.12999999989,"y":2544898.6900000013}},{"attributes":{"ID":365814,"DIS_CODE":0,"TOWNNAME":"永康區","LI":"東橋里","LIN":"13鄰","STREET":"中山南路","SECT":" ","MAREA":" ","LANE":"２３１巷","ALLEY":" ","HOUSE_NO":"１８號地下室之５","E_COORD97":171615.53,"N_COORD97":2546285.8799999999,"ADDRESS":"中山南路２３１巷１８號地下室之５","OBJECTID":365804},"geometry":{"x":171615.52999999933,"y":2546285.8800000008}},{"attributes":{"ID":365815,"DIS_CODE":0,"TOWNNAME":"永康區","LI":"東橋里","LIN":"13鄰","STREET":"中山南路","SECT":" ","MAREA":" ","LANE":"２３１巷","ALLEY":" ","HOUSE_NO":"１８號地下室之３","E_COORD97":171615.48000000001,"N_COORD97":2546285.8799999999,"ADDRESS":"中山南路２３１巷１８號地下室之３","OBJECTID":365805},"geometry":{"x":171615.48000000045,"y":2546285.8800000008}},{"attributes":{"ID":365816,"DIS_CODE":0,"TOWNNAME":"七股區","LI":"大埕里","LIN":"13鄰","STREET":" ","SECT":" ","MAREA":"大埕","LANE":" ","ALLEY":" ","HOUSE_NO":"４０９號","E_COORD97":161984.95000000001,"N_COORD97":2559965.2200000002,"ADDRESS":"大埕４０９號","OBJECTID":365806},"geometry":{"x":161984.95000000019,"y":2559965.2200000044}},{"attributes":{"ID":365817,"DIS_CODE":0,"TOWNNAME":"安南區","LI":"溪頂里","LIN":"12鄰","STREET":"惠安街","SECT":" ","MAREA":" ","LANE":"１４５巷","ALLEY":" ","HOUSE_NO":"１號","E_COORD97":168738.89000000001,"N_COORD97":2547401.73,"ADDRESS":"惠安街１４５巷１號","OBJECTID":365807},"geometry":{"x":168738.88999999966,"y":2547401.7300000004}},{"attributes":{"ID":365818,"DIS_CODE":0,"TOWNNAME":"安南區","LI":"溪頂里","LIN":"12鄰","STREET":"惠安街","SECT":" ","MAREA":" ","LANE":"１４５巷","ALLEY":" ","HOUSE_NO":"２１號","E_COORD97":168825.19,"N_COORD97":2547400.7999999998,"ADDRESS":"惠安街１４５巷２１號","OBJECTID":365808},"geometry":{"x":168825.19000000134,"y":2547400.8000000026}},{"attributes":{"ID":365819,"DIS_CODE":0,"TOWNNAME":"南區","LI":"廣州里","LIN":"13鄰","STREET":"福吉一街","SECT":" ","MAREA":" ","LANE":" ","ALLEY":" ","HOUSE_NO":"５７號","E_COORD97":167274.54999999999,"N_COORD97":2542806.7200000002,"ADDRESS":"福吉一街５７號","OBJECTID":365809},"geometry":{"x":167274.54999999981,"y":2542806.7200000025}},{"attributes":{"ID":365820,"DIS_CODE":0,"TOWNNAME":"南區","LI":"廣州里","LIN":"13鄰","STREET":"福吉一街","SECT":" ","MAREA":" ","LANE":" ","ALLEY":" ","HOUSE_NO":"５９號","E_COORD97":167276.66,"N_COORD97":2542812.2000000002,"ADDRESS":"福吉一街５９號","OBJECTID":365810},"geometry":{"x":167276.66000000201,"y":2542812.2000000011}},{"attributes":{"ID":365821,"DIS_CODE":0,"TOWNNAME":"七股區","LI":"大埕里","LIN":"13鄰","STREET":" ","SECT":" ","MAREA":"大埕","LANE":" ","ALLEY":" ","HOUSE_NO":"４１９號","E_COORD97":162019.47,"N_COORD97":2559949.6299999999,"ADDRESS":"大埕４１９號","OBJECTID":365811},"geometry":{"x":162019.47000000067,"y":2559949.629999999}},{"attributes":{"ID":365822,"DIS_CODE":0,"TOWNNAME":"七股區","LI":"中寮里","LIN":"13鄰","STREET":" ","SECT":" ","MAREA":"中寮","LANE":" ","ALLEY":" ","HOUSE_NO":"８９號之１","E_COORD97":158874.06,"N_COORD97":2561791.1499999999,"ADDRESS":"中寮８９號之１","OBJECTID":365812},"geometry":{"x":158874.06000000052,"y":2561791.1500000004}},{"attributes":{"ID":365823,"DIS_CODE":0,"TOWNNAME":"七股區","LI":"中寮里","LIN":"13鄰","STREET":" ","SECT":" ","MAREA":"中寮","LANE":" ","ALLEY":" ","HOUSE_NO":"８９號之２","E_COORD97":158883.53,"N_COORD97":2561793.8100000001,"ADDRESS":"中寮８９號之２","OBJECTID":365813},"geometry":{"x":158883.53000000119,"y":2561793.8100000005}},{"attributes":{"ID":365824,"DIS_CODE":0,"TOWNNAME":"七股區","LI":"中寮里","LIN":"13鄰","STREET":" ","SECT":" ","MAREA":"中寮","LANE":" ","ALLEY":" ","HOUSE_NO":"８９號之３","E_COORD97":158854.89000000001,"N_COORD97":2561761.77,"ADDRESS":"中寮８９號之３","OBJECTID":365814},"geometry":{"x":158854.8900000006,"y":2561761.7700000014}},{"attributes":{"ID":365825,"DIS_CODE":0,"TOWNNAME":"七股區","LI":"中寮里","LIN":"13鄰","STREET":" ","SECT":" ","MAREA":"中寮","LANE":" ","ALLEY":" ","HOUSE_NO":"８９號","E_COORD97":158894.59,"N_COORD97":2561793.3399999999,"ADDRESS":"中寮８９號","OBJECTID":365815},"geometry":{"x":158894.59000000078,"y":2561793.3399999999}},{"attributes":{"ID":365826,"DIS_CODE":0,"TOWNNAME":"七股區","LI":"大潭里","LIN":"13鄰","STREET":" ","SECT":" ","MAREA":"台潭","LANE":" ","ALLEY":" ","HOUSE_NO":"１３４號","E_COORD97":160868.67000000001,"N_COORD97":2565453.2200000002,"ADDRESS":"台潭１３４號","OBJECTID":365816},"geometry":{"x":160868.67000000086,"y":2565453.2200000007}},{"attributes":{"ID":365827,"DIS_CODE":0,"TOWNNAME":"南區","LI":"廣州里","LIN":"13鄰","STREET":"福吉二街","SECT":" ","MAREA":" ","LANE":" ","ALLEY":" ","HOUSE_NO":"５０號","E_COORD97":167300.29999999999,"N_COORD97":2542756.1200000001,"ADDRESS":"福吉二街５０號","OBJECTID":365817},"geometry":{"x":167300.29999999981,"y":2542756.120000001}},{"attributes":{"ID":365828,"DIS_CODE":0,"TOWNNAME":"南區","LI":"廣州里","LIN":"13鄰","STREET":"福吉二街","SECT":" ","MAREA":" ","LANE":" ","ALLEY":" ","HOUSE_NO":"５２號","E_COORD97":167295.66,"N_COORD97":2542759.9100000001,"ADDRESS":"福吉二街５２號","OBJECTID":365818},"geometry":{"x":167295.66000000108,"y":2542759.9100000001}},{"attributes":{"ID":365829,"DIS_CODE":0,"TOWNNAME":"南區","LI":"廣州里","LIN":"13鄰","STREET":"福吉二街","SECT":" ","MAREA":" ","LANE":" ","ALLEY":" ","HOUSE_NO":"５６號","E_COORD97":167290.59,"N_COORD97":2542767.0800000001,"ADDRESS":"福吉二街５６號","OBJECTID":365819},"geometry":{"x":167290.59000000078,"y":2542767.0800000019}},{"attributes":{"ID":365830,"DIS_CODE":0,"TOWNNAME":"安南區","LI":"溪頂里","LIN":"12鄰","STREET":"惠安街","SECT":" ","MAREA":" ","LANE":"１４５巷","ALLEY":" ","HOUSE_NO":"２２號","E_COORD97":168825.5,"N_COORD97":2547385.9300000002,"ADDRESS":"惠安街１４５巷２２號","OBJECTID":365820},"geometry":{"x":168825.50000000093,"y":2547385.9300000016}},{"attributes":{"ID":365831,"DIS_CODE":0,"TOWNNAME":"安南區","LI":"溪頂里","LIN":"12鄰","STREET":"惠安街","SECT":" ","MAREA":" ","LANE":"１４５巷","ALLEY":" ","HOUSE_NO":"２３號","E_COORD97":168833.66,"N_COORD97":2547403.02,"ADDRESS":"惠安街１４５巷２３號","OBJECTID":365821},"geometry":{"x":168833.66000000108,"y":2547403.0199999996}},{"attributes":{"ID":365832,"DIS_CODE":0,"TOWNNAME":"安南區","LI":"溪頂里","LIN":"12鄰","STREET":"惠安街","SECT":" ","MAREA":" ","LANE":"１４５巷","ALLEY":" ","HOUSE_NO":"２４號","E_COORD97":168833.92000000001,"N_COORD97":2547386.5499999998,"ADDRESS":"惠安街１４５巷２４號","OBJECTID":365822},"geometry":{"x":168833.91999999993,"y":2547386.5500000007}},{"attributes":{"ID":365833,"DIS_CODE":0,"TOWNNAME":"安南區","LI":"溪頂里","LIN":"12鄰","STREET":"惠安街","SECT":" ","MAREA":" ","LANE":"１４５巷","ALLEY":" ","HOUSE_NO":"２５號","E_COORD97":168842.81,"N_COORD97":2547402.6400000001,"ADDRESS":"惠安街１４５巷２５號","OBJECTID":365823},"geometry":{"x":168842.80999999959,"y":2547402.6400000006}},{"attributes":{"ID":365834,"DIS_CODE":0,"TOWNNAME":"七股區","LI":"大潭里","LIN":"13鄰","STREET":" ","SECT":" ","MAREA":"台潭","LANE":" ","ALLEY":" ","HOUSE_NO":"１３５號之１","E_COORD97":160836.34,"N_COORD97":2565427.1800000002,"ADDRESS":"台潭１３５號之１","OBJECTID":365824},"geometry":{"x":160836.33999999985,"y":2565427.1800000016}},{"attributes":{"ID":365835,"DIS_CODE":0,"TOWNNAME":"新營區","LI":"新北里","LIN":"14鄰","STREET":"南新街","SECT":" ","MAREA":" ","LANE":"１３巷","ALLEY":" ","HOUSE_NO":"１號","E_COORD97":179330.76000000001,"N_COORD97":2578808.4500000002,"ADDRESS":"南新街１３巷１號","OBJECTID":365825},"geometry":{"x":179330.76000000071,"y":2578808.4499999993}},{"attributes":{"ID":365836,"DIS_CODE":0,"TOWNNAME":"新營區","LI":"新南里","LIN":"22鄰","STREET":"復興路","SECT":" ","MAREA":" ","LANE":"５２０巷","ALLEY":" ","HOUSE_NO":"３９號","E_COORD97":178172.22,"N_COORD97":2578389.8700000001,"ADDRESS":"復興路５２０巷３９號","OBJECTID":365826},"geometry":{"x":178172.21999999974,"y":2578389.870000001}},{"attributes":{"ID":365837,"DIS_CODE":0,"TOWNNAME":"安南區","LI":"溪頂里","LIN":"12鄰","STREET":"惠安街","SECT":" ","MAREA":" ","LANE":"１４５巷","ALLEY":" ","HOUSE_NO":"２６號","E_COORD97":168842.48000000001,"N_COORD97":2547386.6200000001,"ADDRESS":"惠安街１４５巷２６號","OBJECTID":365827},"geometry":{"x":168842.48000000045,"y":2547386.620000001}},{"attributes":{"ID":365838,"DIS_CODE":0,"TOWNNAME":"安南區","LI":"溪頂里","LIN":"12鄰","STREET":"惠安街","SECT":" ","MAREA":" ","LANE":"１４５巷","ALLEY":" ","HOUSE_NO":"２７號","E_COORD97":168851,"N_COORD97":2547402.0699999998,"ADDRESS":"惠安街１４５巷２７號","OBJECTID":365828},"geometry":{"x":168851.00000000093,"y":2547402.0700000022}},{"attributes":{"ID":365839,"DIS_CODE":0,"TOWNNAME":"南區","LI":"廣州里","LIN":"13鄰","STREET":"福吉二街","SECT":" ","MAREA":" ","LANE":" ","ALLEY":" ","HOUSE_NO":"５８號","E_COORD97":167287.64000000001,"N_COORD97":2542770.4500000002,"ADDRESS":"福吉二街５８號","OBJECTID":365829},"geometry":{"x":167287.63999999966,"y":2542770.4500000011}},{"attributes":{"ID":365840,"DIS_CODE":0,"TOWNNAME":"七股區","LI":"玉成里","LIN":"13鄰","STREET":" ","SECT":" ","MAREA":"玉成","LANE":" ","ALLEY":" ","HOUSE_NO":"１４４號","E_COORD97":161936.79000000001,"N_COORD97":2560241.4399999999,"ADDRESS":"玉成１４４號","OBJECTID":365830},"geometry":{"x":161936.79000000004,"y":2560241.4400000013}},{"attributes":{"ID":365841,"DIS_CODE":0,"TOWNNAME":"七股區","LI":"玉成里","LIN":"13鄰","STREET":" ","SECT":" ","MAREA":"玉成","LANE":" ","ALLEY":" ","HOUSE_NO":"１４５號之１","E_COORD97":161937.98000000001,"N_COORD97":2560254.8900000001,"ADDRESS":"玉成１４５號之１","OBJECTID":365831},"geometry":{"x":161937.98000000045,"y":2560254.8900000006}},{"attributes":{"ID":365842,"DIS_CODE":0,"TOWNNAME":"南區","LI":"廣州里","LIN":"13鄰","STREET":"福吉二街","SECT":" ","MAREA":" ","LANE":" ","ALLEY":" ","HOUSE_NO":"６０號","E_COORD97":167283.84,"N_COORD97":2542773.3999999999,"ADDRESS":"福吉二街６０號","OBJECTID":365832},"geometry":{"x":167283.84000000078,"y":2542773.4000000004}},{"attributes":{"ID":365843,"DIS_CODE":0,"TOWNNAME":"新市區","LI":"社內里","LIN":"13鄰","STREET":" ","SECT":" ","MAREA":"社內","LANE":" ","ALLEY":" ","HOUSE_NO":"１３５之６號","E_COORD97":176324.92000000001,"N_COORD97":2552746.5499999998,"ADDRESS":"社內１３５之６號","OBJECTID":365833},"geometry":{"x":176324.91999999993,"y":2552746.5500000007}},{"attributes":{"ID":365844,"DIS_CODE":0,"TOWNNAME":"新市區","LI":"豐華里","LIN":"13鄰","STREET":" ","SECT":" ","MAREA":"豐華","LANE":" ","ALLEY":" ","HOUSE_NO":"４７之１５６號","E_COORD97":174276.12,"N_COORD97":2554489.2999999998,"ADDRESS":"豐華４７之１５６號","OBJECTID":365834},"geometry":{"x":174276.12000000011,"y":2554489.3000000045}},{"attributes":{"ID":365845,"DIS_CODE":0,"TOWNNAME":"下營區","LI":"開化里","LIN":"13鄰","STREET":" ","SECT":" ","MAREA":"中營","LANE":" ","ALLEY":" ","HOUSE_NO":"６１８號","E_COORD97":176237.25,"N_COORD97":2568236.4900000002,"ADDRESS":"中營６１８號","OBJECTID":365835},"geometry":{"x":176237.25000000093,"y":2568236.4900000021}},{"attributes":{"ID":365846,"DIS_CODE":0,"TOWNNAME":"安南區","LI":"總頭里","LIN":"13鄰","STREET":"長溪路","SECT":"二段","MAREA":" ","LANE":"４８３巷","ALLEY":" ","HOUSE_NO":"３６號","E_COORD97":168157.42000000001,"N_COORD97":2550402.8199999998,"ADDRESS":"長溪路二段４８３巷３６號","OBJECTID":365836},"geometry":{"x":168157.41999999993,"y":2550402.8199999984}},{"attributes":{"ID":365847,"DIS_CODE":0,"TOWNNAME":"新市區","LI":"潭頂里","LIN":"13鄰","STREET":" ","SECT":" ","MAREA":"潭頂","LANE":" ","ALLEY":" ","HOUSE_NO":"４７４號","E_COORD97":180403.39000000001,"N_COORD97":2552810.75,"ADDRESS":"潭頂４７４號","OBJECTID":365837},"geometry":{"x":180403.38999999966,"y":2552810.7500000019}},{"attributes":{"ID":365848,"DIS_CODE":0,"TOWNNAME":"安南區","LI":"溪頂里","LIN":"12鄰","STREET":"惠安街","SECT":" ","MAREA":" ","LANE":"１４５巷","ALLEY":" ","HOUSE_NO":"２８號","E_COORD97":168850.72,"N_COORD97":2547386.9900000002,"ADDRESS":"惠安街１４５巷２８號","OBJECTID":365838},"geometry":{"x":168850.7200000016,"y":2547386.9900000002}},{"attributes":{"ID":365849,"DIS_CODE":0,"TOWNNAME":"安南區","LI":"溪頂里","LIN":"12鄰","STREET":"惠安街","SECT":" ","MAREA":" ","LANE":"１４５巷","ALLEY":" ","HOUSE_NO":"２９號","E_COORD97":168859.48000000001,"N_COORD97":2547402.3500000001,"ADDRESS":"惠安街１４５巷２９號","OBJECTID":365839},"geometry":{"x":168859.48000000045,"y":2547402.3500000015}},{"attributes":{"ID":365850,"DIS_CODE":0,"TOWNNAME":"安南區","LI":"溪頂里","LIN":"12鄰","STREET":"惠安街","SECT":" ","MAREA":" ","LANE":"１４５巷","ALLEY":" ","HOUSE_NO":"２號","E_COORD97":168740.13,"N_COORD97":2547384.4399999999,"ADDRESS":"惠安街１４５巷２號","OBJECTID":365840},"geometry":{"x":168740.13000000082,"y":2547384.4400000013}},{"attributes":{"ID":365851,"DIS_CODE":0,"TOWNNAME":"安南區","LI":"溪頂里","LIN":"12鄰","STREET":"惠安街","SECT":" ","MAREA":" ","LANE":"１４５巷","ALLEY":" ","HOUSE_NO":"３０號","E_COORD97":168859.53,"N_COORD97":2547386.7999999998,"ADDRESS":"惠安街１４５巷３０號","OBJECTID":365841},"geometry":{"x":168859.53000000119,"y":2547386.8000000026}},{"attributes":{"ID":365852,"DIS_CODE":0,"TOWNNAME":"安南區","LI":"溪頂里","LIN":"12鄰","STREET":"惠安街","SECT":" ","MAREA":" ","LANE":"１４５巷","ALLEY":" ","HOUSE_NO":"３１號","E_COORD97":168867.95000000001,"N_COORD97":2547402.1600000001,"ADDRESS":"惠安街１４５巷３１號","OBJECTID":365842},"geometry":{"x":168867.95000000019,"y":2547402.1600000001}},{"attributes":{"ID":365853,"DIS_CODE":0,"TOWNNAME":"安南區","LI":"溪頂里","LIN":"12鄰","STREET":"惠安街","SECT":" ","MAREA":" ","LANE":"１４５巷","ALLEY":" ","HOUSE_NO":"３２號","E_COORD97":168867.76999999999,"N_COORD97":2547387.1200000001,"ADDRESS":"惠安街１４５巷３２號","OBJECTID":365843},"geometry":{"x":168867.77000000048,"y":2547387.120000001}},{"attributes":{"ID":365854,"DIS_CODE":0,"TOWNNAME":"安南區","LI":"溪頂里","LIN":"12鄰","STREET":"惠安街","SECT":" ","MAREA":" ","LANE":"１４５巷","ALLEY":" ","HOUSE_NO":"３３號","E_COORD97":168876.56,"N_COORD97":2547401.9700000002,"ADDRESS":"惠安街１４５巷３３號","OBJECTID":365844},"geometry":{"x":168876.55999999959,"y":2547401.9700000044}},{"attributes":{"ID":365855,"DIS_CODE":0,"TOWNNAME":"安南區","LI":"溪頂里","LIN":"12鄰","STREET":"惠安街","SECT":" ","MAREA":" ","LANE":"１４５巷","ALLEY":" ","HOUSE_NO":"３４號","E_COORD97":168877.04000000001,"N_COORD97":2547387.1400000001,"ADDRESS":"惠安街１４５巷３４號","OBJECTID":365845},"geometry":{"x":168877.04000000004,"y":2547387.1400000043}},{"attributes":{"ID":365856,"DIS_CODE":0,"TOWNNAME":"安南區","LI":"溪頂里","LIN":"12鄰","STREET":"惠安街","SECT":" ","MAREA":" ","LANE":"１４５巷","ALLEY":" ","HOUSE_NO":"３５號","E_COORD97":168885.03,"N_COORD97":2547401.8100000001,"ADDRESS":"惠安街１４５巷３５號","OBJECTID":365846},"geometry":{"x":168885.03000000119,"y":2547401.8100000005}},{"attributes":{"ID":365857,"DIS_CODE":0,"TOWNNAME":"安南區","LI":"溪頂里","LIN":"12鄰","STREET":"惠安街","SECT":" ","MAREA":" ","LANE":"１４５巷","ALLEY":" ","HOUSE_NO":"３６號","E_COORD97":168884.92000000001,"N_COORD97":2547386.8199999998,"ADDRESS":"惠安街１４５巷３６號","OBJECTID":365847},"geometry":{"x":168884.91999999993,"y":2547386.8200000022}},{"attributes":{"ID":365858,"DIS_CODE":0,"TOWNNAME":"安南區","LI":"溪頂里","LIN":"12鄰","STREET":"惠安街","SECT":" ","MAREA":" ","LANE":"１４５巷","ALLEY":" ","HOUSE_NO":"３７號","E_COORD97":168893.42000000001,"N_COORD97":2547402.0699999998,"ADDRESS":"惠安街１４５巷３７號","OBJECTID":365848},"geometry":{"x":168893.41999999899,"y":2547402.0700000022}},{"attributes":{"ID":365859,"DIS_CODE":0,"TOWNNAME":"安南區","LI":"溪頂里","LIN":"12鄰","STREET":"惠安街","SECT":" ","MAREA":" ","LANE":"１４５巷","ALLEY":" ","HOUSE_NO":"３８號","E_COORD97":168894.41,"N_COORD97":2547387.4700000002,"ADDRESS":"惠安街１４５巷３８號","OBJECTID":365849},"geometry":{"x":168894.41000000108,"y":2547387.4700000007}},{"attributes":{"ID":365860,"DIS_CODE":0,"TOWNNAME":"安南區","LI":"溪頂里","LIN":"12鄰","STREET":"惠安街","SECT":" ","MAREA":" ","LANE":"１４５巷","ALLEY":" ","HOUSE_NO":"３９號","E_COORD97":168902.26999999999,"N_COORD97":2547401.9700000002,"ADDRESS":"惠安街１４５巷３９號","OBJECTID":365850},"geometry":{"x":168902.26999999955,"y":2547401.9700000044}},{"attributes":{"ID":365861,"DIS_CODE":0,"TOWNNAME":"安南區","LI":"溪頂里","LIN":"12鄰","STREET":"惠安街","SECT":" ","MAREA":" ","LANE":"１４５巷","ALLEY":" ","HOUSE_NO":"３號","E_COORD97":168748.37,"N_COORD97":2547401.4700000002,"ADDRESS":"惠安街１４５巷３號","OBJECTID":365851},"geometry":{"x":168748.37000000197,"y":2547401.4700000007}},{"attributes":{"ID":365862,"DIS_CODE":0,"TOWNNAME":"安南區","LI":"溪頂里","LIN":"12鄰","STREET":"惠安街","SECT":" ","MAREA":" ","LANE":"１４５巷","ALLEY":" ","HOUSE_NO":"４２號","E_COORD97":168911.14000000001,"N_COORD97":2547386.5,"ADDRESS":"惠安街１４５巷４２號","OBJECTID":365852},"geometry":{"x":168911.1400000006,"y":2547386.5}},{"attributes":{"ID":365863,"DIS_CODE":0,"TOWNNAME":"安南區","LI":"溪頂里","LIN":"12鄰","STREET":"惠安街","SECT":" ","MAREA":" ","LANE":"１４５巷","ALLEY":" ","HOUSE_NO":"４３號","E_COORD97":168919.32000000001,"N_COORD97":2547402.4500000002,"ADDRESS":"惠安街１４５巷４３號","OBJECTID":365853},"geometry":{"x":168919.3200000003,"y":2547402.4499999993}},{"attributes":{"ID":365864,"DIS_CODE":0,"TOWNNAME":"安南區","LI":"溪頂里","LIN":"12鄰","STREET":"惠安街","SECT":" ","MAREA":" ","LANE":"１４５巷","ALLEY":" ","HOUSE_NO":"４４號","E_COORD97":168919.19,"N_COORD97":2547386.98,"ADDRESS":"惠安街１４５巷４４號","OBJECTID":365854},"geometry":{"x":168919.19000000041,"y":2547386.9800000004}},{"attributes":{"ID":365865,"DIS_CODE":0,"TOWNNAME":"安南區","LI":"溪頂里","LIN":"12鄰","STREET":"惠安街","SECT":" ","MAREA":" ","LANE":"１４５巷","ALLEY":" ","HOUSE_NO":"４５號","E_COORD97":168927.95000000001,"N_COORD97":2547402.0699999998,"ADDRESS":"惠安街１４５巷４５號","OBJECTID":365855},"geometry":{"x":168927.95000000112,"y":2547402.0700000022}},{"attributes":{"ID":365866,"DIS_CODE":0,"TOWNNAME":"安南區","LI":"溪頂里","LIN":"12鄰","STREET":"惠安街","SECT":" ","MAREA":" ","LANE":"１４５巷","ALLEY":" ","HOUSE_NO":"４６號","E_COORD97":168928.19,"N_COORD97":2547387.2999999998,"ADDRESS":"惠安街１４５巷４６號","OBJECTID":365856},"geometry":{"x":168928.19000000134,"y":2547387.3000000026}},{"attributes":{"ID":365867,"DIS_CODE":0,"TOWNNAME":"南區","LI":"廣州里","LIN":"13鄰","STREET":"福吉二街","SECT":" ","MAREA":" ","LANE":" ","ALLEY":" ","HOUSE_NO":"６２號","E_COORD97":167280.88,"N_COORD97":2542776.3599999999,"ADDRESS":"福吉二街６２號","OBJECTID":365857},"geometry":{"x":167280.87999999989,"y":2542776.3599999994}},{"attributes":{"ID":365868,"DIS_CODE":0,"TOWNNAME":"南區","LI":"廣州里","LIN":"13鄰","STREET":"福吉二街","SECT":" ","MAREA":" ","LANE":" ","ALLEY":" ","HOUSE_NO":"６４號","E_COORD97":167277.92000000001,"N_COORD97":2542778.46,"ADDRESS":"福吉二街６４號","OBJECTID":365858},"geometry":{"x":167277.91999999899,"y":2542778.4600000028}},{"attributes":{"ID":365869,"DIS_CODE":0,"TOWNNAME":"安南區","LI":"溪頂里","LIN":"12鄰","STREET":"惠安街","SECT":" ","MAREA":" ","LANE":"１４５巷","ALLEY":" ","HOUSE_NO":"４７號","E_COORD97":168937.09,"N_COORD97":2547401.7799999998,"ADDRESS":"惠安街１４５巷４７號","OBJECTID":365859},"geometry":{"x":168937.09000000078,"y":2547401.7800000031}},{"attributes":{"ID":365870,"DIS_CODE":0,"TOWNNAME":"安南區","LI":"溪頂里","LIN":"12鄰","STREET":"惠安街","SECT":" ","MAREA":" ","LANE":"１４５巷","ALLEY":" ","HOUSE_NO":"４８號","E_COORD97":168936.88,"N_COORD97":2547387.2999999998,"ADDRESS":"惠安街１４５巷４８號","OBJECTID":365860},"geometry":{"x":168936.88000000082,"y":2547387.3000000026}},{"attributes":{"ID":365871,"DIS_CODE":0,"TOWNNAME":"安南區","LI":"溪頂里","LIN":"12鄰","STREET":"惠安街","SECT":" ","MAREA":" ","LANE":"１４５巷","ALLEY":" ","HOUSE_NO":"４９號","E_COORD97":168945.37,"N_COORD97":2547401.5,"ADDRESS":"惠安街１４５巷４９號","OBJECTID":365861},"geometry":{"x":168945.37000000104,"y":2547401.5000000019}},{"attributes":{"ID":365872,"DIS_CODE":0,"TOWNNAME":"安南區","LI":"溪頂里","LIN":"12鄰","STREET":"惠安街","SECT":" ","MAREA":" ","LANE":"１４５巷","ALLEY":" ","HOUSE_NO":"５０號","E_COORD97":168945.29000000001,"N_COORD97":2547387.7799999998,"ADDRESS":"惠安街１４５巷５０號","OBJECTID":365862},"geometry":{"x":168945.28999999911,"y":2547387.7799999993}},{"attributes":{"ID":365873,"DIS_CODE":0,"TOWNNAME":"安南區","LI":"溪頂里","LIN":"12鄰","STREET":"惠安街","SECT":" ","MAREA":" ","LANE":"１４５巷","ALLEY":" ","HOUSE_NO":"５１號","E_COORD97":168953.94,"N_COORD97":2547401.9700000002,"ADDRESS":"惠安街１４５巷５１號","OBJECTID":365863},"geometry":{"x":168953.94000000134,"y":2547401.9700000044}},{"attributes":{"ID":365874,"DIS_CODE":0,"TOWNNAME":"安南區","LI":"溪頂里","LIN":"12鄰","STREET":"惠安街","SECT":" ","MAREA":" ","LANE":"１４５巷","ALLEY":" ","HOUSE_NO":"５２號","E_COORD97":168953.32999999999,"N_COORD97":2547387.7799999998,"ADDRESS":"惠安街１４５巷５２號","OBJECTID":365864},"geometry":{"x":168953.33000000007,"y":2547387.7799999993}},{"attributes":{"ID":365875,"DIS_CODE":0,"TOWNNAME":"安南區","LI":"溪頂里","LIN":"12鄰","STREET":"惠安街","SECT":" ","MAREA":" ","LANE":"１４５巷","ALLEY":" ","HOUSE_NO":"５３號","E_COORD97":168962.45000000001,"N_COORD97":2547401.6899999999,"ADDRESS":"惠安街１４５巷５３號","OBJECTID":365865},"geometry":{"x":168962.45000000019,"y":2547401.6899999995}},{"attributes":{"ID":365876,"DIS_CODE":0,"TOWNNAME":"安南區","LI":"溪頂里","LIN":"12鄰","STREET":"惠安街","SECT":" ","MAREA":" ","LANE":"１４５巷","ALLEY":" ","HOUSE_NO":"５４號","E_COORD97":168962.17999999999,"N_COORD97":2547387.4700000002,"ADDRESS":"惠安街１４５巷５４號","OBJECTID":365866},"geometry":{"x":168962.1799999997,"y":2547387.4700000007}},{"attributes":{"ID":365877,"DIS_CODE":0,"TOWNNAME":"安南區","LI":"溪頂里","LIN":"12鄰","STREET":"惠安街","SECT":" ","MAREA":" ","LANE":"１４５巷","ALLEY":" ","HOUSE_NO":"５５號","E_COORD97":168970.82999999999,"N_COORD97":2547401.79,"ADDRESS":"惠安街１４５巷５５號","OBJECTID":365867},"geometry":{"x":168970.83000000101,"y":2547401.7900000028}},{"attributes":{"ID":365878,"DIS_CODE":0,"TOWNNAME":"安南區","LI":"溪頂里","LIN":"12鄰","STREET":"惠安街","SECT":" ","MAREA":" ","LANE":"１４５巷","ALLEY":" ","HOUSE_NO":"５７號","E_COORD97":168979.20999999999,"N_COORD97":2547400.8300000001,"ADDRESS":"惠安街１４５巷５７號","OBJECTID":365868},"geometry":{"x":168979.20999999996,"y":2547400.8300000001}},{"attributes":{"ID":365879,"DIS_CODE":0,"TOWNNAME":"安南區","LI":"溪頂里","LIN":"12鄰","STREET":"惠安街","SECT":" ","MAREA":" ","LANE":"１４５巷","ALLEY":" ","HOUSE_NO":"５８號","E_COORD97":168979.70999999999,"N_COORD97":2547387.7799999998,"ADDRESS":"惠安街１４５巷５８號","OBJECTID":365869},"geometry":{"x":168979.71000000183,"y":2547387.7799999993}},{"attributes":{"ID":365880,"DIS_CODE":0,"TOWNNAME":"安南區","LI":"溪頂里","LIN":"12鄰","STREET":"惠安街","SECT":" ","MAREA":" ","LANE":"１４５巷","ALLEY":" ","HOUSE_NO":"５９號","E_COORD97":168987.20999999999,"N_COORD97":2547401.5,"ADDRESS":"惠安街１４５巷５９號","OBJECTID":365870},"geometry":{"x":168987.21000000089,"y":2547401.5000000019}},{"attributes":{"ID":365881,"DIS_CODE":0,"TOWNNAME":"安南區","LI":"溪頂里","LIN":"12鄰","STREET":"惠安街","SECT":" ","MAREA":" ","LANE":"１４５巷","ALLEY":" ","HOUSE_NO":"５號","E_COORD97":168756.78,"N_COORD97":2547401.4700000002,"ADDRESS":"惠安街１４５巷５號","OBJECTID":365871},"geometry":{"x":168756.78000000026,"y":2547401.4700000007}},{"attributes":{"ID":365882,"DIS_CODE":0,"TOWNNAME":"中西區","LI":"中正里","LIN":"13鄰","STREET":"正德街","SECT":" ","MAREA":" ","LANE":" ","ALLEY":" ","HOUSE_NO":"１５號","E_COORD97":167512.04000000001,"N_COORD97":2543847.8799999999,"ADDRESS":"正德街１５號","OBJECTID":365872},"geometry":{"x":167512.04000000097,"y":2543847.8800000027}},{"attributes":{"ID":365883,"DIS_CODE":0,"TOWNNAME":"安南區","LI":"溪頂里","LIN":"12鄰","STREET":"惠安街","SECT":" ","MAREA":" ","LANE":"１４５巷","ALLEY":" ","HOUSE_NO":"６０號","E_COORD97":168987.42999999999,"N_COORD97":2547387.6299999999,"ADDRESS":"惠安街１４５巷６０號","OBJECTID":365873},"geometry":{"x":168987.4299999997,"y":2547387.629999999}},{"attributes":{"ID":365884,"DIS_CODE":0,"TOWNNAME":"安南區","LI":"溪頂里","LIN":"12鄰","STREET":"惠安街","SECT":" ","MAREA":" ","LANE":"１４５巷","ALLEY":" ","HOUSE_NO":"６１號","E_COORD97":168996.35000000001,"N_COORD97":2547401.6000000001,"ADDRESS":"惠安街１４５巷６１號","OBJECTID":365874},"geometry":{"x":168996.34999999963,"y":2547401.6000000015}},{"attributes":{"ID":365885,"DIS_CODE":0,"TOWNNAME":"安南區","LI":"溪頂里","LIN":"12鄰","STREET":"惠安街","SECT":" ","MAREA":" ","LANE":"１４５巷","ALLEY":" ","HOUSE_NO":"６２號","E_COORD97":168996.76000000001,"N_COORD97":2547387.4700000002,"ADDRESS":"惠安街１４５巷６２號","OBJECTID":365875},"geometry":{"x":168996.76000000071,"y":2547387.4700000007}},{"attributes":{"ID":365886,"DIS_CODE":0,"TOWNNAME":"安南區","LI":"溪頂里","LIN":"12鄰","STREET":"惠安街","SECT":" ","MAREA":" ","LANE":"１４５巷","ALLEY":" ","HOUSE_NO":"６３號","E_COORD97":169005.39999999999,"N_COORD97":2547401.6899999999,"ADDRESS":"惠安街１４５巷６３號","OBJECTID":365876},"geometry":{"x":169005.40000000037,"y":2547401.6899999995}},{"attributes":{"ID":365887,"DIS_CODE":0,"TOWNNAME":"安南區","LI":"溪頂里","LIN":"12鄰","STREET":"惠安街","SECT":" ","MAREA":" ","LANE":"１４５巷","ALLEY":" ","HOUSE_NO":"６４號","E_COORD97":169004.95999999999,"N_COORD97":2547387.9399999999,"ADDRESS":"惠安街１４５巷６４號","OBJECTID":365877},"geometry":{"x":169004.95999999996,"y":2547387.9400000013}},{"attributes":{"ID":365888,"DIS_CODE":0,"TOWNNAME":"安南區","LI":"溪頂里","LIN":"12鄰","STREET":"惠安街","SECT":" ","MAREA":" ","LANE":"１４５巷","ALLEY":" ","HOUSE_NO":"６號","E_COORD97":168757.85000000001,"N_COORD97":2547384.9199999999,"ADDRESS":"惠安街１４５巷６號","OBJECTID":365878},"geometry":{"x":168757.84999999963,"y":2547384.9200000018}},{"attributes":{"ID":365889,"DIS_CODE":0,"TOWNNAME":"安南區","LI":"溪頂里","LIN":"12鄰","STREET":"惠安街","SECT":" ","MAREA":" ","LANE":"１４５巷","ALLEY":" ","HOUSE_NO":"７號","E_COORD97":168766.13,"N_COORD97":2547401.4700000002,"ADDRESS":"惠安街１４５巷７號","OBJECTID":365879},"geometry":{"x":168766.12999999989,"y":2547401.4700000007}},{"attributes":{"ID":365890,"DIS_CODE":0,"TOWNNAME":"安南區","LI":"溪頂里","LIN":"12鄰","STREET":"惠安街","SECT":" ","MAREA":" ","LANE":"１４５巷","ALLEY":" ","HOUSE_NO":"８號","E_COORD97":168765.35000000001,"N_COORD97":2547385.0600000001,"ADDRESS":"惠安街１４５巷８號","OBJECTID":365880},"geometry":{"x":168765.35000000056,"y":2547385.0600000024}},{"attributes":{"ID":365891,"DIS_CODE":0,"TOWNNAME":"安南區","LI":"溪頂里","LIN":"12鄰","STREET":"惠安街","SECT":" ","MAREA":" ","LANE":"１４５巷","ALLEY":" ","HOUSE_NO":"９號","E_COORD97":168774.14000000001,"N_COORD97":2547400.9300000002,"ADDRESS":"惠安街１４５巷９號","OBJECTID":365881},"geometry":{"x":168774.13999999966,"y":2547400.9299999997}},{"attributes":{"ID":365892,"DIS_CODE":0,"TOWNNAME":"永康區","LI":"尚頂里","LIN":"12鄰","STREET":"尚頂路","SECT":" ","MAREA":" ","LANE":"５２巷","ALLEY":" ","HOUSE_NO":"１０號","E_COORD97":171245.07999999999,"N_COORD97":2547520.4500000002,"ADDRESS":"尚頂路５２巷１０號","OBJECTID":365882},"geometry":{"x":171245.08000000007,"y":2547520.4500000011}},{"attributes":{"ID":365893,"DIS_CODE":0,"TOWNNAME":"永康區","LI":"安康里","LIN":"12鄰","STREET":"中華路","SECT":" ","MAREA":" ","LANE":"６１９巷","ALLEY":" ","HOUSE_NO":"１５號","E_COORD97":171001.53,"N_COORD97":2546069.4900000002,"ADDRESS":"中華路６１９巷１５號","OBJECTID":365883},"geometry":{"x":171001.53000000026,"y":2546069.4900000021}},{"attributes":{"ID":365894,"DIS_CODE":0,"TOWNNAME":"永康區","LI":"新樹里","LIN":"12鄰","STREET":"富強路","SECT":"二段","MAREA":" ","LANE":"７７巷","ALLEY":" ","HOUSE_NO":"２９號","E_COORD97":175577.42999999999,"N_COORD97":2546937.9399999999,"ADDRESS":"富強路二段７７巷２９號","OBJECTID":365884},"geometry":{"x":175577.43000000156,"y":2546937.9400000013}},{"attributes":{"ID":365895,"DIS_CODE":0,"TOWNNAME":"永康區","LI":"三民里","LIN":"12鄰","STREET":"和平路","SECT":" ","MAREA":" ","LANE":"２１７巷","ALLEY":" ","HOUSE_NO":"１０號","E_COORD97":174676.38,"N_COORD97":2550678.8199999998,"ADDRESS":"和平路２１７巷１０號","OBJECTID":365885},"geometry":{"x":174676.38000000082,"y":2550678.8200000022}},{"attributes":{"ID":365896,"DIS_CODE":0,"TOWNNAME":"永康區","LI":"甲頂里","LIN":"12鄰","STREET":"中正南路","SECT":" ","MAREA":" ","LANE":"５２巷","ALLEY":" ","HOUSE_NO":"９６號","E_COORD97":170132.48000000001,"N_COORD97":2546796.1000000001,"ADDRESS":"中正南路５２巷９６號","OBJECTID":365886},"geometry":{"x":170132.48000000045,"y":2546796.0999999996}},{"attributes":{"ID":365897,"DIS_CODE":0,"TOWNNAME":"安南區","LI":"大安里","LIN":"13鄰","STREET":"義安街","SECT":" ","MAREA":" ","LANE":" ","ALLEY":" ","HOUSE_NO":"２７號","E_COORD97":167347.10000000001,"N_COORD97":2547944.8100000001,"ADDRESS":"義安街２７號","OBJECTID":365887},"geometry":{"x":167347.09999999963,"y":2547944.8100000005}},{"attributes":{"ID":365898,"DIS_CODE":0,"TOWNNAME":"麻豆區","LI":"磚井里","LIN":"13鄰","STREET":" ","SECT":" ","MAREA":"磚子井","LANE":" ","ALLEY":" ","HOUSE_NO":"１２７號之１","E_COORD97":172872.98000000001,"N_COORD97":2563210.3100000001,"ADDRESS":"磚子井１２７號之１","OBJECTID":365888},"geometry":{"x":172872.98000000138,"y":2563210.3100000024}},{"attributes":{"ID":365899,"DIS_CODE":0,"TOWNNAME":"麻豆區","LI":"磚井里","LIN":"13鄰","STREET":" ","SECT":" ","MAREA":"磚子井","LANE":" ","ALLEY":" ","HOUSE_NO":"１２７號","E_COORD97":172862.73000000001,"N_COORD97":2563206.2000000002,"ADDRESS":"磚子井１２７號","OBJECTID":365889},"geometry":{"x":172862.73000000138,"y":2563206.2000000011}},{"attributes":{"ID":365900,"DIS_CODE":0,"TOWNNAME":"永康區","LI":"甲頂里","LIN":"12鄰","STREET":"中正南路","SECT":" ","MAREA":" ","LANE":"５２巷","ALLEY":" ","HOUSE_NO":"９６號","E_COORD97":170125.98999999999,"N_COORD97":2546796.6000000001,"ADDRESS":"中正南路５２巷９６號","OBJECTID":365890},"geometry":{"x":170125.99000000115,"y":2546796.6000000034}},{"attributes":{"ID":365901,"DIS_CODE":0,"TOWNNAME":"麻豆區","LI":"磚井里","LIN":"13鄰","STREET":" ","SECT":" ","MAREA":"磚子井","LANE":" ","ALLEY":" ","HOUSE_NO":"１２８號之１","E_COORD97":172836.88,"N_COORD97":2563186.7799999998,"ADDRESS":"磚子井１２８號之１","OBJECTID":365891},"geometry":{"x":172836.88000000175,"y":2563186.7799999993}},{"attributes":{"ID":365902,"DIS_CODE":0,"TOWNNAME":"新營區","LI":"王公里","LIN":"22鄰","STREET":"義和街","SECT":" ","MAREA":" ","LANE":" ","ALLEY":" ","HOUSE_NO":"６０號之２","E_COORD97":180543.56,"N_COORD97":2579470.5800000001,"ADDRESS":"義和街６０號之２","OBJECTID":365892},"geometry":{"x":180543.56000000052,"y":2579470.5800000019}},{"attributes":{"ID":365903,"DIS_CODE":0,"TOWNNAME":"東區","LI":"大同里","LIN":"13鄰","STREET":"大同路","SECT":"一段","MAREA":" ","LANE":"１５５巷","ALLEY":" ","HOUSE_NO":"３８號","E_COORD97":169303.76000000001,"N_COORD97":2542896.8999999999,"ADDRESS":"大同路一段１５５巷３８號","OBJECTID":365893},"geometry":{"x":169303.76000000071,"y":2542896.9000000022}},{"attributes":{"ID":365904,"DIS_CODE":0,"TOWNNAME":"東區","LI":"大同里","LIN":"13鄰","STREET":"大同路","SECT":"一段","MAREA":" ","LANE":"１５５巷","ALLEY":" ","HOUSE_NO":"４０號","E_COORD97":169306.60000000001,"N_COORD97":2542898.9300000002,"ADDRESS":"大同路一段１５５巷４０號","OBJECTID":365894},"geometry":{"x":169306.59999999963,"y":2542898.9300000034}},{"attributes":{"ID":365905,"DIS_CODE":0,"TOWNNAME":"東區","LI":"大同里","LIN":"13鄰","STREET":"大同路","SECT":"一段","MAREA":" ","LANE":"１５５巷","ALLEY":" ","HOUSE_NO":"４２號","E_COORD97":169311.34,"N_COORD97":2542897.4399999999,"ADDRESS":"大同路一段１５５巷４２號","OBJECTID":365895},"geometry":{"x":169311.34000000078,"y":2542897.4399999995}},{"attributes":{"ID":365906,"DIS_CODE":0,"TOWNNAME":"東區","LI":"大同里","LIN":"13鄰","STREET":"大同路","SECT":"一段","MAREA":" ","LANE":"１５５巷","ALLEY":" ","HOUSE_NO":"４４號","E_COORD97":169315.54000000001,"N_COORD97":2542898.52,"ADDRESS":"大同路一段１５５巷４４號","OBJECTID":365896},"geometry":{"x":169315.54000000097,"y":2542898.5200000014}},{"attributes":{"ID":365907,"DIS_CODE":0,"TOWNNAME":"永康區","LI":"復華里","LIN":"12鄰","STREET":"國華街","SECT":" ","MAREA":" ","LANE":"１００巷","ALLEY":" ","HOUSE_NO":"９號","E_COORD97":172870.79000000001,"N_COORD97":2545995.25,"ADDRESS":"國華街１００巷９號","OBJECTID":365897},"geometry":{"x":172870.79000000004,"y":2545995.25}},{"attributes":{"ID":365908,"DIS_CODE":0,"TOWNNAME":"永康區","LI":"神洲里","LIN":"12鄰","STREET":"忠孝路","SECT":" ","MAREA":" ","LANE":"１５２巷","ALLEY":" ","HOUSE_NO":"２８號","E_COORD97":172204.23999999999,"N_COORD97":2545072.25,"ADDRESS":"忠孝路１５２巷２８號","OBJECTID":365898},"geometry":{"x":172204.24000000115,"y":2545072.25}},{"attributes":{"ID":365909,"DIS_CODE":0,"TOWNNAME":"永康區","LI":"西勢里","LIN":"12鄰","STREET":"廣興街","SECT":" ","MAREA":" ","LANE":"１４７巷","ALLEY":" ","HOUSE_NO":"１１號","E_COORD97":176120.51000000001,"N_COORD97":2546610.2400000002,"ADDRESS":"廣興街１４７巷１１號","OBJECTID":365899},"geometry":{"x":176120.50999999978,"y":2546610.2400000021}},{"attributes":{"ID":365910,"DIS_CODE":0,"TOWNNAME":"永康區","LI":"甲頂里","LIN":"12鄰","STREET":"中正南路","SECT":" ","MAREA":" ","LANE":"５２巷","ALLEY":" ","HOUSE_NO":"９６號","E_COORD97":170125.98999999999,"N_COORD97":2546796.6000000001,"ADDRESS":"中正南路５２巷９６號","OBJECTID":365900},"geometry":{"x":170125.99000000115,"y":2546796.6000000034}},{"attributes":{"ID":365911,"DIS_CODE":0,"TOWNNAME":"安南區","LI":"溪頂里","LIN":"12鄰","STREET":"惠安街","SECT":" ","MAREA":" ","LANE":"１４５巷","ALLEY":" ","HOUSE_NO":"４０號","E_COORD97":168902.62,"N_COORD97":2547386.8199999998,"ADDRESS":"惠安街１４５巷４０號","OBJECTID":365901},"geometry":{"x":168902.62000000197,"y":2547386.8200000022}},{"attributes":{"ID":365912,"DIS_CODE":0,"TOWNNAME":"安南區","LI":"安東里","LIN":"12鄰","STREET":"安和路","SECT":"一段","MAREA":" ","LANE":"２８８巷","ALLEY":" ","HOUSE_NO":"９４號","E_COORD97":169526.06,"N_COORD97":2548151.6000000001,"ADDRESS":"安和路一段２８８巷９４號","OBJECTID":365902},"geometry":{"x":169526.05999999959,"y":2548151.5999999996}},{"attributes":{"ID":365913,"DIS_CODE":0,"TOWNNAME":"安南區","LI":"安東里","LIN":"12鄰","STREET":"安和路","SECT":"一段","MAREA":" ","LANE":"２２０巷","ALLEY":" ","HOUSE_NO":"１１５號之１","E_COORD97":169555.82000000001,"N_COORD97":2548115.7799999998,"ADDRESS":"安和路一段２２０巷１１５號之１","OBJECTID":365903},"geometry":{"x":169555.82000000216,"y":2548115.7799999993}},{"attributes":{"ID":365914,"DIS_CODE":0,"TOWNNAME":"南區","LI":"廣州里","LIN":"13鄰","STREET":"福吉二街","SECT":" ","MAREA":" ","LANE":" ","ALLEY":" ","HOUSE_NO":"６６號","E_COORD97":167273.28,"N_COORD97":2542780.9900000002,"ADDRESS":"福吉二街６６號","OBJECTID":365904},"geometry":{"x":167273.28000000119,"y":2542780.9900000021}},{"attributes":{"ID":365915,"DIS_CODE":0,"TOWNNAME":"南區","LI":"廣州里","LIN":"13鄰","STREET":"福吉二街","SECT":" ","MAREA":" ","LANE":" ","ALLEY":" ","HOUSE_NO":"７２號","E_COORD97":167264.84,"N_COORD97":2542789.8500000001,"ADDRESS":"福吉二街７２號","OBJECTID":365905},"geometry":{"x":167264.83999999892,"y":2542789.8499999996}},{"attributes":{"ID":365916,"DIS_CODE":0,"TOWNNAME":"南區","LI":"廣州里","LIN":"13鄰","STREET":"福吉二街","SECT":" ","MAREA":" ","LANE":" ","ALLEY":" ","HOUSE_NO":"７４號","E_COORD97":167260.60999999999,"N_COORD97":2542792.7999999998,"ADDRESS":"福吉二街７４號","OBJECTID":365906},"geometry":{"x":167260.61000000127,"y":2542792.8000000026}},{"attributes":{"ID":365917,"DIS_CODE":0,"TOWNNAME":"南區","LI":"廣州里","LIN":"13鄰","STREET":"福吉二街","SECT":" ","MAREA":" ","LANE":" ","ALLEY":" ","HOUSE_NO":"７６號","E_COORD97":167257.66,"N_COORD97":2542796.6000000001,"ADDRESS":"福吉二街７６號","OBJECTID":365907},"geometry":{"x":167257.66000000015,"y":2542796.6000000015}},{"attributes":{"ID":365918,"DIS_CODE":0,"TOWNNAME":"南區","LI":"廣州里","LIN":"13鄰","STREET":"福吉二街","SECT":" ","MAREA":" ","LANE":" ","ALLEY":" ","HOUSE_NO":"７８號","E_COORD97":167254.28,"N_COORD97":2542799.9700000002,"ADDRESS":"福吉二街７８號","OBJECTID":365908},"geometry":{"x":167254.28000000119,"y":2542799.9700000007}},{"attributes":{"ID":365919,"DIS_CODE":0,"TOWNNAME":"南區","LI":"廣州里","LIN":"13鄰","STREET":"福吉二街","SECT":" ","MAREA":" ","LANE":" ","ALLEY":" ","HOUSE_NO":"８０號","E_COORD97":167249.20999999999,"N_COORD97":2542804.1899999999,"ADDRESS":"福吉二街８０號","OBJECTID":365909},"geometry":{"x":167249.21000000089,"y":2542804.1899999995}},{"attributes":{"ID":365920,"DIS_CODE":0,"TOWNNAME":"中西區","LI":"銀同里","LIN":"12鄰","STREET":"開山路","SECT":" ","MAREA":" ","LANE":"３巷","ALLEY":" ","HOUSE_NO":"５８號","E_COORD97":168671.34,"N_COORD97":2543592.54,"ADDRESS":"開山路３巷５８號","OBJECTID":365910},"geometry":{"x":168671.33999999985,"y":2543592.5400000028}},{"attributes":{"ID":365921,"DIS_CODE":0,"TOWNNAME":"官田區","LI":"二鎮里","LIN":"13鄰","STREET":" ","SECT":" ","MAREA":"二鎮","LANE":" ","ALLEY":" ","HOUSE_NO":"１０９號之２２","E_COORD97":181354.13,"N_COORD97":2568173.3300000001,"ADDRESS":"二鎮１０９號之２２","OBJECTID":365911},"geometry":{"x":181354.13000000082,"y":2568173.3300000019}},{"attributes":{"ID":365922,"DIS_CODE":0,"TOWNNAME":"中西區","LI":"銀同里","LIN":"12鄰","STREET":"開山路","SECT":" ","MAREA":" ","LANE":"３巷","ALLEY":" ","HOUSE_NO":"６０號","E_COORD97":168675.60000000001,"N_COORD97":2543595.1699999999,"ADDRESS":"開山路３巷６０號","OBJECTID":365912},"geometry":{"x":168675.60000000056,"y":2543595.1699999999}},{"attributes":{"ID":365923,"DIS_CODE":0,"TOWNNAME":"官田區","LI":"二鎮里","LIN":"13鄰","STREET":" ","SECT":" ","MAREA":"二鎮","LANE":" ","ALLEY":" ","HOUSE_NO":"１１０號之２","E_COORD97":181389.53,"N_COORD97":2568194.52,"ADDRESS":"二鎮１１０號之２","OBJECTID":365913},"geometry":{"x":181389.53000000026,"y":2568194.5200000014}},{"attributes":{"ID":365924,"DIS_CODE":0,"TOWNNAME":"中西區","LI":"銀同里","LIN":"12鄰","STREET":"開山路","SECT":" ","MAREA":" ","LANE":"３巷","ALLEY":" ","HOUSE_NO":"６２號","E_COORD97":168691.57000000001,"N_COORD97":2543595.1699999999,"ADDRESS":"開山路３巷６２號","OBJECTID":365914},"geometry":{"x":168691.57000000123,"y":2543595.1699999999}},{"attributes":{"ID":365925,"DIS_CODE":0,"TOWNNAME":"仁德區","LI":"後壁里","LIN":"12鄰","STREET":"德南路","SECT":" ","MAREA":" ","LANE":"１９４巷","ALLEY":" ","HOUSE_NO":"１１號","E_COORD97":173707.63,"N_COORD97":2538453.77,"ADDRESS":"德南路１９４巷１１號","OBJECTID":365915},"geometry":{"x":173707.62999999989,"y":2538453.7699999996}},{"attributes":{"ID":365926,"DIS_CODE":0,"TOWNNAME":"官田區","LI":"南\u25A0里","LIN":"13鄰","STREET":" ","SECT":" ","MAREA":"三結義","LANE":" ","ALLEY":" ","HOUSE_NO":"１５號之５２","E_COORD97":180093.59,"N_COORD97":2568008.3399999999,"ADDRESS":"三結義１５號之５２","OBJECTID":365916},"geometry":{"x":180093.58999999985,"y":2568008.3399999999}},{"attributes":{"ID":365927,"DIS_CODE":0,"TOWNNAME":"官田區","LI":"南\u25A0里","LIN":"13鄰","STREET":" ","SECT":" ","MAREA":"三結義","LANE":" ","ALLEY":" ","HOUSE_NO":"１５號之５３","E_COORD97":180091.32000000001,"N_COORD97":2568023.02,"ADDRESS":"三結義１５號之５３","OBJECTID":365917},"geometry":{"x":180091.32000000216,"y":2568023.0199999996}},{"attributes":{"ID":365928,"DIS_CODE":0,"TOWNNAME":"官田區","LI":"南\u25A0里","LIN":"13鄰","STREET":" ","SECT":" ","MAREA":"三結義","LANE":" ","ALLEY":" ","HOUSE_NO":"１５號之５４","E_COORD97":180085.12,"N_COORD97":2568021.2799999998,"ADDRESS":"三結義１５號之５４","OBJECTID":365918},"geometry":{"x":180085.12000000011,"y":2568021.2799999993}},{"attributes":{"ID":365929,"DIS_CODE":0,"TOWNNAME":"新營區","LI":"南興里","LIN":" ","STREET":"和平路","SECT":" ","MAREA":" ","LANE":"１０４巷","ALLEY":" ","HOUSE_NO":"３之１號","E_COORD97":179388.70999999999,"N_COORD97":2577547.96,"ADDRESS":"和平路１０４巷３之１號","OBJECTID":365919},"geometry":{"x":179388.71000000089,"y":2577547.9600000009}},{"attributes":{"ID":365930,"DIS_CODE":0,"TOWNNAME":"仁德區","LI":"後壁里","LIN":"12鄰","STREET":"德南路","SECT":" ","MAREA":" ","LANE":"１８７巷","ALLEY":" ","HOUSE_NO":"１號","E_COORD97":173675.32000000001,"N_COORD97":2538556.52,"ADDRESS":"德南路１８７巷１號","OBJECTID":365920},"geometry":{"x":173675.32000000123,"y":2538556.5200000014}},{"attributes":{"ID":365931,"DIS_CODE":0,"TOWNNAME":"南區","LI":"廣州里","LIN":"13鄰","STREET":"福吉二街","SECT":" ","MAREA":" ","LANE":" ","ALLEY":" ","HOUSE_NO":"８２號","E_COORD97":167249.20999999999,"N_COORD97":2542810.5099999998,"ADDRESS":"福吉二街８２號","OBJECTID":365921},"geometry":{"x":167249.21000000089,"y":2542810.5100000016}},{"attributes":{"ID":365932,"DIS_CODE":0,"TOWNNAME":"官田區","LI":"南\u25A0里","LIN":"13鄰","STREET":" ","SECT":" ","MAREA":"三結義","LANE":" ","ALLEY":" ","HOUSE_NO":"１５號之５５","E_COORD97":180078.84,"N_COORD97":2568019.1800000002,"ADDRESS":"三結義１５號之５５","OBJECTID":365922},"geometry":{"x":180078.84000000171,"y":2568019.1799999997}},{"attributes":{"ID":365933,"DIS_CODE":0,"TOWNNAME":"官田區","LI":"南\u25A0里","LIN":"13鄰","STREET":" ","SECT":" ","MAREA":"三結義","LANE":" ","ALLEY":" ","HOUSE_NO":"１６號之７","E_COORD97":180068.10000000001,"N_COORD97":2568048.2200000002,"ADDRESS":"三結義１６號之７","OBJECTID":365923},"geometry":{"x":180068.09999999963,"y":2568048.2200000025}},{"attributes":{"ID":365934,"DIS_CODE":0,"TOWNNAME":"官田區","LI":"南\u25A0里","LIN":"13鄰","STREET":" ","SECT":" ","MAREA":"三結義","LANE":" ","ALLEY":" ","HOUSE_NO":"１６號之８","E_COORD97":180068.41,"N_COORD97":2568052.2000000002,"ADDRESS":"三結義１６號之８","OBJECTID":365924},"geometry":{"x":180068.40999999922,"y":2568052.1999999993}},{"attributes":{"ID":365935,"DIS_CODE":0,"TOWNNAME":"仁德區","LI":"後壁里","LIN":"12鄰","STREET":"德南路","SECT":" ","MAREA":" ","LANE":"１６５巷","ALLEY":" ","HOUSE_NO":"１４號","E_COORD97":173653.23999999999,"N_COORD97":2538607.5099999998,"ADDRESS":"德南路１６５巷１４號","OBJECTID":365925},"geometry":{"x":173653.24000000022,"y":2538607.5100000016}},{"attributes":{"ID":365936,"DIS_CODE":0,"TOWNNAME":"官田區","LI":"南\u25A0里","LIN":"13鄰","STREET":" ","SECT":" ","MAREA":"三結義","LANE":" ","ALLEY":" ","HOUSE_NO":"１６號之９","E_COORD97":180068.94,"N_COORD97":2568056.7599999998,"ADDRESS":"三結義１６號之９","OBJECTID":365926},"geometry":{"x":180068.94000000134,"y":2568056.7600000035}},{"attributes":{"ID":365937,"DIS_CODE":0,"TOWNNAME":"仁德區","LI":"後壁里","LIN":"12鄰","STREET":"德南路","SECT":" ","MAREA":" ","LANE":"１６５巷","ALLEY":" ","HOUSE_NO":"２號","E_COORD97":173635.79999999999,"N_COORD97":2538584.2599999998,"ADDRESS":"德南路１６５巷２號","OBJECTID":365927},"geometry":{"x":173635.80000000168,"y":2538584.2600000035}},{"attributes":{"ID":365938,"DIS_CODE":0,"TOWNNAME":"仁德區","LI":"後壁里","LIN":"12鄰","STREET":"德南路","SECT":" ","MAREA":" ","LANE":"１６５巷","ALLEY":" ","HOUSE_NO":"１２號","E_COORD97":173651.14999999999,"N_COORD97":2538602.2599999998,"ADDRESS":"德南路１６５巷１２號","OBJECTID":365928},"geometry":{"x":173651.1500000013,"y":2538602.2600000016}},{"attributes":{"ID":365939,"DIS_CODE":0,"TOWNNAME":"官田區","LI":"南\u25A0里","LIN":"13鄰","STREET":" ","SECT":" ","MAREA":"三結義","LANE":" ","ALLEY":" ","HOUSE_NO":"１６號","E_COORD97":180062.37,"N_COORD97":2568027.3999999999,"ADDRESS":"三結義１６號","OBJECTID":365929},"geometry":{"x":180062.37000000104,"y":2568027.4000000022}},{"attributes":{"ID":365940,"DIS_CODE":0,"TOWNNAME":"官田區","LI":"南\u25A0里","LIN":"13鄰","STREET":" ","SECT":" ","MAREA":"三結義","LANE":" ","ALLEY":" ","HOUSE_NO":"１７號之１","E_COORD97":180002.26000000001,"N_COORD97":2568100.29,"ADDRESS":"三結義１７號之１","OBJECTID":365930},"geometry":{"x":180002.25999999978,"y":2568100.290000001}},{"attributes":{"ID":365941,"DIS_CODE":0,"TOWNNAME":"仁德區","LI":"後壁里","LIN":"12鄰","STREET":"德南路","SECT":" ","MAREA":" ","LANE":"１６５巷","ALLEY":" ","HOUSE_NO":"１６號","E_COORD97":173656.54000000001,"N_COORD97":2538612.0099999998,"ADDRESS":"德南路１６５巷１６號","OBJECTID":365931},"geometry":{"x":173656.54000000097,"y":2538612.0099999998}},{"attributes":{"ID":365942,"DIS_CODE":0,"TOWNNAME":"仁德區","LI":"新田里","LIN":"12鄰","STREET":"民安路","SECT":"一段","MAREA":" ","LANE":"３９３巷","ALLEY":" ","HOUSE_NO":"１７號","E_COORD97":172977.20999999999,"N_COORD97":2539908.3199999998,"ADDRESS":"民安路一段３９３巷１７號","OBJECTID":365932},"geometry":{"x":172977.21000000089,"y":2539908.3200000003}},{"attributes":{"ID":365943,"DIS_CODE":0,"TOWNNAME":"仁德區","LI":"後壁里","LIN":"12鄰","STREET":"德南路","SECT":" ","MAREA":" ","LANE":"１６５巷","ALLEY":" ","HOUSE_NO":"８號","E_COORD97":173644.35999999999,"N_COORD97":2538594.7599999998,"ADDRESS":"德南路１６５巷８號","OBJECTID":365933},"geometry":{"x":173644.3600000022,"y":2538594.7600000016}},{"attributes":{"ID":365944,"DIS_CODE":0,"TOWNNAME":"仁德區","LI":"後壁里","LIN":"12鄰","STREET":"德南路","SECT":" ","MAREA":" ","LANE":"１６５巷","ALLEY":" ","HOUSE_NO":"６號","E_COORD97":173641.54000000001,"N_COORD97":2538591.0099999998,"ADDRESS":"德南路１６５巷６號","OBJECTID":365934},"geometry":{"x":173641.54000000097,"y":2538591.0099999998}},{"attributes":{"ID":365945,"DIS_CODE":0,"TOWNNAME":"下營區","LI":"開化里","LIN":"13鄰","STREET":" ","SECT":" ","MAREA":"中營","LANE":" ","ALLEY":" ","HOUSE_NO":"６１５號","E_COORD97":176231.69,"N_COORD97":2568274.8900000001,"ADDRESS":"中營６１５號","OBJECTID":365935},"geometry":{"x":176231.69000000041,"y":2568274.8900000025}},{"attributes":{"ID":365946,"DIS_CODE":0,"TOWNNAME":"下營區","LI":"開化里","LIN":"13鄰","STREET":" ","SECT":" ","MAREA":"中營","LANE":" ","ALLEY":" ","HOUSE_NO":"６１９號","E_COORD97":176235.70000000001,"N_COORD97":2568263.54,"ADDRESS":"中營６１９號","OBJECTID":365936},"geometry":{"x":176235.70000000112,"y":2568263.5399999991}},{"attributes":{"ID":365947,"DIS_CODE":0,"TOWNNAME":"下營區","LI":"開化里","LIN":"13鄰","STREET":" ","SECT":" ","MAREA":"中營","LANE":" ","ALLEY":" ","HOUSE_NO":"６２０號","E_COORD97":176256.5,"N_COORD97":2568255.5699999998,"ADDRESS":"中營６２０號","OBJECTID":365937},"geometry":{"x":176256.5,"y":2568255.5700000022}},{"attributes":{"ID":365948,"DIS_CODE":0,"TOWNNAME":"下營區","LI":"開化里","LIN":"13鄰","STREET":" ","SECT":" ","MAREA":"中營","LANE":" ","ALLEY":" ","HOUSE_NO":"６２１號","E_COORD97":176277.39000000001,"N_COORD97":2568258.04,"ADDRESS":"中營６２１號","OBJECTID":365938},"geometry":{"x":176277.38999999966,"y":2568258.040000001}},{"attributes":{"ID":365949,"DIS_CODE":0,"TOWNNAME":"下營區","LI":"開化里","LIN":"13鄰","STREET":" ","SECT":" ","MAREA":"中營","LANE":" ","ALLEY":" ","HOUSE_NO":"６２２號","E_COORD97":176277.04000000001,"N_COORD97":2568291.8700000001,"ADDRESS":"中營６２２號","OBJECTID":365939},"geometry":{"x":176277.0400000019,"y":2568291.8700000029}},{"attributes":{"ID":365950,"DIS_CODE":0,"TOWNNAME":"下營區","LI":"中營里","LIN":"13鄰","STREET":" ","SECT":" ","MAREA":"中營","LANE":" ","ALLEY":" ","HOUSE_NO":"１１７４號","E_COORD97":175999.32000000001,"N_COORD97":2568282.4700000002,"ADDRESS":"中營１１７４號","OBJECTID":365940},"geometry":{"x":175999.32000000123,"y":2568282.4700000007}},{"attributes":{"ID":365951,"DIS_CODE":0,"TOWNNAME":"下營區","LI":"中營里","LIN":"13鄰","STREET":" ","SECT":" ","MAREA":"中營","LANE":" ","ALLEY":" ","HOUSE_NO":"１１９９號","E_COORD97":175954.51000000001,"N_COORD97":2568313.4700000002,"ADDRESS":"中營１１９９號","OBJECTID":365941},"geometry":{"x":175954.50999999978,"y":2568313.4700000007}},{"attributes":{"ID":365952,"DIS_CODE":0,"TOWNNAME":"歸仁區","LI":"後市里","LIN":"13鄰","STREET":"中山路","SECT":"二段","MAREA":" ","LANE":" ","ALLEY":" ","HOUSE_NO":"２３１號","E_COORD97":177073.085208,"N_COORD97":2540828.6049199998,"ADDRESS":"中山路二段２３１號","OBJECTID":365942},"geometry":{"x":177073.08520800062,"y":2540828.6049240027}},{"attributes":{"ID":365953,"DIS_CODE":0,"TOWNNAME":"永康區","LI":"南灣里","LIN":"13鄰","STREET":"立興街","SECT":" ","MAREA":" ","LANE":"５７巷","ALLEY":" ","HOUSE_NO":"８號","E_COORD97":174607.38,"N_COORD97":2544773.75,"ADDRESS":"立興街５７巷８號","OBJECTID":365943},"geometry":{"x":174607.38000000082,"y":2544773.75}},{"attributes":{"ID":365954,"DIS_CODE":0,"TOWNNAME":"永康區","LI":"東橋里","LIN":"13鄰","STREET":"中山南路","SECT":" ","MAREA":" ","LANE":"２３１巷","ALLEY":" ","HOUSE_NO":"１８號地下室之８","E_COORD97":171615.53,"N_COORD97":2546285.8799999999,"ADDRESS":"中山南路２３１巷１８號地下室之８","OBJECTID":365944},"geometry":{"x":171615.52999999933,"y":2546285.8800000008}},{"attributes":{"ID":365955,"DIS_CODE":0,"TOWNNAME":"永康區","LI":"東橋里","LIN":"13鄰","STREET":"中山南路","SECT":" ","MAREA":" ","LANE":"２３１巷","ALLEY":" ","HOUSE_NO":"１８號地下室之２","E_COORD97":171615.51000000001,"N_COORD97":2546285.8799999999,"ADDRESS":"中山南路２３１巷１８號地下室之２","OBJECTID":365945},"geometry":{"x":171615.51000000071,"y":2546285.8800000008}},{"attributes":{"ID":365956,"DIS_CODE":0,"TOWNNAME":"永康區","LI":"東橋里","LIN":"13鄰","STREET":"中山南路","SECT":" ","MAREA":" ","LANE":"２３１巷","ALLEY":" ","HOUSE_NO":"１０號","E_COORD97":171621.70000000001,"N_COORD97":2546269.3300000001,"ADDRESS":"中山南路２３１巷１０號","OBJECTID":365946},"geometry":{"x":171621.70000000112,"y":2546269.3300000001}},{"attributes":{"ID":365957,"DIS_CODE":0,"TOWNNAME":"永康區","LI":"西灣里","LIN":"13鄰","STREET":"民族路","SECT":" ","MAREA":" ","LANE":"４８１巷","ALLEY":" ","HOUSE_NO":"１２號","E_COORD97":174570.98000000001,"N_COORD97":2545400.79,"ADDRESS":"民族路４８１巷１２號","OBJECTID":365947},"geometry":{"x":174570.98000000231,"y":2545400.7899999991}},{"attributes":{"ID":365958,"DIS_CODE":0,"TOWNNAME":"永康區","LI":"西灣里","LIN":"13鄰","STREET":"永大路","SECT":"二段","MAREA":" ","LANE":"５５６巷","ALLEY":" ","HOUSE_NO":"４７號","E_COORD97":174554.32999999999,"N_COORD97":2545393.0299999998,"ADDRESS":"永大路二段５５６巷４７號","OBJECTID":365948},"geometry":{"x":174554.33000000007,"y":2545393.0300000031}},{"attributes":{"ID":365959,"DIS_CODE":0,"TOWNNAME":"永康區","LI":"東灣里","LIN":"13鄰","STREET":"大灣路","SECT":" ","MAREA":" ","LANE":"３４１巷","ALLEY":" ","HOUSE_NO":"４號","E_COORD97":174817.63,"N_COORD97":2544933.7400000002,"ADDRESS":"大灣路３４１巷４號","OBJECTID":365949},"geometry":{"x":174817.62999999989,"y":2544933.7400000002}},{"attributes":{"ID":365960,"DIS_CODE":0,"TOWNNAME":"仁德區","LI":"後壁里","LIN":"12鄰","STREET":"德南路","SECT":" ","MAREA":" ","LANE":"１６５巷","ALLEY":" ","HOUSE_NO":"２之１號","E_COORD97":173641.26000000001,"N_COORD97":2538587.79,"ADDRESS":"德南路１６５巷２之１號","OBJECTID":365950},"geometry":{"x":173641.26000000071,"y":2538587.790000001}},{"attributes":{"ID":365961,"DIS_CODE":0,"TOWNNAME":"仁德區","LI":"仁義里","LIN":"12鄰","STREET":"中山路","SECT":" ","MAREA":" ","LANE":"１０巷","ALLEY":" ","HOUSE_NO":"３９號","E_COORD97":175190.64000000001,"N_COORD97":2541221.6899999999,"ADDRESS":"中山路１０巷３９號","OBJECTID":365951},"geometry":{"x":175190.63999999966,"y":2541221.6899999976}},{"attributes":{"ID":365962,"DIS_CODE":0,"TOWNNAME":"仁德區","LI":"田厝里","LIN":"12鄰","STREET":"田厝一街","SECT":" ","MAREA":" ","LANE":"２００巷","ALLEY":" ","HOUSE_NO":"１１號","E_COORD97":172340.51000000001,"N_COORD97":2537858.1299999999,"ADDRESS":"田厝一街２００巷１１號","OBJECTID":365952},"geometry":{"x":172340.50999999978,"y":2537858.129999999}},{"attributes":{"ID":365963,"DIS_CODE":0,"TOWNNAME":"仁德區","LI":"田厝里","LIN":"12鄰","STREET":"田厝一街","SECT":" ","MAREA":" ","LANE":"２００巷","ALLEY":" ","HOUSE_NO":"１３號","E_COORD97":172340.64999999999,"N_COORD97":2537865.9500000002,"ADDRESS":"田厝一街２００巷１３號","OBJECTID":365953},"geometry":{"x":172340.6500000013,"y":2537865.9499999993}},{"attributes":{"ID":365964,"DIS_CODE":0,"TOWNNAME":"仁德區","LI":"田厝里","LIN":"12鄰","STREET":"田厝一街","SECT":" ","MAREA":" ","LANE":"２００巷","ALLEY":" ","HOUSE_NO":"１號","E_COORD97":172338.73000000001,"N_COORD97":2537817.8500000001,"ADDRESS":"田厝一街２００巷１號","OBJECTID":365954},"geometry":{"x":172338.73000000138,"y":2537817.8500000015}},{"attributes":{"ID":365965,"DIS_CODE":0,"TOWNNAME":"仁德區","LI":"田厝里","LIN":"12鄰","STREET":"田厝一街","SECT":" ","MAREA":" ","LANE":"２００巷","ALLEY":" ","HOUSE_NO":"３號","E_COORD97":172339.39000000001,"N_COORD97":2537825.77,"ADDRESS":"田厝一街２００巷３號","OBJECTID":365955},"geometry":{"x":172339.38999999966,"y":2537825.7700000014}},{"attributes":{"ID":365966,"DIS_CODE":0,"TOWNNAME":"仁德區","LI":"田厝里","LIN":"12鄰","STREET":"田厝一街","SECT":" ","MAREA":" ","LANE":"２００巷","ALLEY":" ","HOUSE_NO":"５號","E_COORD97":172339.17000000001,"N_COORD97":2537833.8100000001,"ADDRESS":"田厝一街２００巷５號","OBJECTID":365956},"geometry":{"x":172339.16999999993,"y":2537833.8100000005}},{"attributes":{"ID":365967,"DIS_CODE":0,"TOWNNAME":"仁德區","LI":"田厝里","LIN":"12鄰","STREET":"田厝一街","SECT":" ","MAREA":" ","LANE":"２００巷","ALLEY":" ","HOUSE_NO":"７號","E_COORD97":172339.10999999999,"N_COORD97":2537842.02,"ADDRESS":"田厝一街２００巷７號","OBJECTID":365957},"geometry":{"x":172339.1100000022,"y":2537842.0199999996}},{"attributes":{"ID":365968,"DIS_CODE":0,"TOWNNAME":"仁德區","LI":"田厝里","LIN":"12鄰","STREET":"田厝一街","SECT":" ","MAREA":" ","LANE":"２００巷","ALLEY":" ","HOUSE_NO":"９號","E_COORD97":172339.26000000001,"N_COORD97":2537850.1200000001,"ADDRESS":"田厝一街２００巷９號","OBJECTID":365958},"geometry":{"x":172339.26000000071,"y":2537850.120000001}},{"attributes":{"ID":365969,"DIS_CODE":0,"TOWNNAME":"南區","LI":"廣州里","LIN":"13鄰","STREET":"福吉二街","SECT":" ","MAREA":" ","LANE":" ","ALLEY":" ","HOUSE_NO":"８４號","E_COORD97":167248.37,"N_COORD97":2542815.5699999998,"ADDRESS":"福吉二街８４號","OBJECTID":365959},"geometry":{"x":167248.37000000104,"y":2542815.5700000003}},{"attributes":{"ID":365970,"DIS_CODE":0,"TOWNNAME":"南區","LI":"廣州里","LIN":"13鄰","STREET":"福吉二街","SECT":" ","MAREA":" ","LANE":" ","ALLEY":" ","HOUSE_NO":"８６號","E_COORD97":167247.95000000001,"N_COORD97":2542820.21,"ADDRESS":"福吉二街８６號","OBJECTID":365960},"geometry":{"x":167247.95000000112,"y":2542820.2100000046}},{"attributes":{"ID":365971,"DIS_CODE":0,"TOWNNAME":"南區","LI":"廣州里","LIN":"13鄰","STREET":"福吉二街","SECT":" ","MAREA":" ","LANE":" ","ALLEY":" ","HOUSE_NO":"８８號","E_COORD97":167249.20999999999,"N_COORD97":2542824,"ADDRESS":"福吉二街８８號","OBJECTID":365961},"geometry":{"x":167249.21000000089,"y":2542824.0000000037}},{"attributes":{"ID":365972,"DIS_CODE":0,"TOWNNAME":"南區","LI":"喜南里","LIN":"13鄰","STREET":"喜樹路","SECT":" ","MAREA":" ","LANE":" ","ALLEY":" ","HOUSE_NO":"１５９號","E_COORD97":165746.28,"N_COORD97":2537983.8599999999,"ADDRESS":"喜樹路１５９號","OBJECTID":365962},"geometry":{"x":165746.28000000026,"y":2537983.8600000013}},{"attributes":{"ID":365973,"DIS_CODE":0,"TOWNNAME":"南區","LI":"興農里","LIN":"13鄰","STREET":"萬年一街","SECT":" ","MAREA":" ","LANE":" ","ALLEY":" ","HOUSE_NO":"１６０號","E_COORD97":166627.62,"N_COORD97":2536762.6499999999,"ADDRESS":"萬年一街１６０號","OBJECTID":365963},"geometry":{"x":166627.62000000197,"y":2536762.6500000022}},{"attributes":{"ID":365974,"DIS_CODE":0,"TOWNNAME":"南區","LI":"喜北里","LIN":"13鄰","STREET":"喜明街","SECT":" ","MAREA":" ","LANE":" ","ALLEY":" ","HOUSE_NO":"２２號","E_COORD97":165718.48000000001,"N_COORD97":2538100.52,"ADDRESS":"喜明街２２號","OBJECTID":365964},"geometry":{"x":165718.47999999952,"y":2538100.5200000033}},{"attributes":{"ID":365975,"DIS_CODE":0,"TOWNNAME":"南區","LI":"喜北里","LIN":"13鄰","STREET":"喜明街","SECT":" ","MAREA":" ","LANE":" ","ALLEY":" ","HOUSE_NO":"２０號","E_COORD97":165720.38,"N_COORD97":2538097.02,"ADDRESS":"喜明街２０號","OBJECTID":365965},"geometry":{"x":165720.38000000175,"y":2538097.0199999977}},{"attributes":{"ID":365976,"DIS_CODE":0,"TOWNNAME":"南區","LI":"喜北里","LIN":"13鄰","STREET":"喜明街","SECT":" ","MAREA":" ","LANE":" ","ALLEY":" ","HOUSE_NO":"１８號","E_COORD97":165723.39999999999,"N_COORD97":2538093.3700000001,"ADDRESS":"喜明街１８號","OBJECTID":365966},"geometry":{"x":165723.40000000037,"y":2538093.3700000029}},{"attributes":{"ID":365977,"DIS_CODE":0,"TOWNNAME":"安南區","LI":"大安里","LIN":"13鄰","STREET":"義安街","SECT":" ","MAREA":" ","LANE":" ","ALLEY":" ","HOUSE_NO":"１４號","E_COORD97":167348.48000000001,"N_COORD97":2547905.3999999999,"ADDRESS":"義安街１４號","OBJECTID":365967},"geometry":{"x":167348.48000000138,"y":2547905.4000000022}},{"attributes":{"ID":365978,"DIS_CODE":0,"TOWNNAME":"安南區","LI":"大安里","LIN":"13鄰","STREET":"義安街","SECT":" ","MAREA":" ","LANE":" ","ALLEY":" ","HOUSE_NO":"１７號","E_COORD97":167335.01000000001,"N_COORD97":2547925.1000000001,"ADDRESS":"義安街１７號","OBJECTID":365968},"geometry":{"x":167335.01000000164,"y":2547925.0999999996}},{"attributes":{"ID":365979,"DIS_CODE":0,"TOWNNAME":"永康區","LI":"正強里","LIN":"13鄰","STREET":"正強街","SECT":" ","MAREA":" ","LANE":"１１１巷","ALLEY":" ","HOUSE_NO":"２０號","E_COORD97":173241.09,"N_COORD97":2547411.7400000002,"ADDRESS":"正強街１１１巷２０號","OBJECTID":365969},"geometry":{"x":173241.09000000078,"y":2547411.7400000002}},{"attributes":{"ID":365980,"DIS_CODE":0,"TOWNNAME":"永康區","LI":"正強里","LIN":"13鄰","STREET":"正強街","SECT":" ","MAREA":" ","LANE":"１１１巷","ALLEY":" ","HOUSE_NO":"６號","E_COORD97":173307.06,"N_COORD97":2547418.4900000002,"ADDRESS":"正強街１１１巷６號","OBJECTID":365970},"geometry":{"x":173307.06000000052,"y":2547418.4900000039}},{"attributes":{"ID":365981,"DIS_CODE":0,"TOWNNAME":"安南區","LI":"溪墘里","LIN":"13鄰","STREET":"海佃路","SECT":"一段","MAREA":" ","LANE":"３２０巷","ALLEY":" ","HOUSE_NO":"４２之１號","E_COORD97":167267.67000000001,"N_COORD97":2547496.9300000002,"ADDRESS":"海佃路一段３２０巷４２之１號","OBJECTID":365971},"geometry":{"x":167267.66999999993,"y":2547496.9300000016}},{"attributes":{"ID":365982,"DIS_CODE":0,"TOWNNAME":"新營區","LI":"埤寮里","LIN":" ","STREET":" ","SECT":" ","MAREA":"埤寮","LANE":" ","ALLEY":" ","HOUSE_NO":"１６號","E_COORD97":180334.10000000001,"N_COORD97":2580918.9399999999,"ADDRESS":"埤寮１６號","OBJECTID":365972},"geometry":{"x":180334.09999999963,"y":2580918.9400000013}},{"attributes":{"ID":365983,"DIS_CODE":0,"TOWNNAME":"安南區","LI":"新順里","LIN":"13鄰","STREET":"開安一街","SECT":" ","MAREA":" ","LANE":"８巷","ALLEY":" ","HOUSE_NO":"１７號","E_COORD97":170440.57999999999,"N_COORD97":2549620.1800000002,"ADDRESS":"開安一街８巷１７號","OBJECTID":365973},"geometry":{"x":170440.58000000101,"y":2549620.1800000034}},{"attributes":{"ID":365984,"DIS_CODE":0,"TOWNNAME":"安南區","LI":"新順里","LIN":"13鄰","STREET":"開安路","SECT":" ","MAREA":" ","LANE":"３２巷","ALLEY":" ","HOUSE_NO":"２６號","E_COORD97":170526.04999999999,"N_COORD97":2549477.5499999998,"ADDRESS":"開安路３２巷２６號","OBJECTID":365974},"geometry":{"x":170526.04999999981,"y":2549477.5500000026}},{"attributes":{"ID":365985,"DIS_CODE":0,"TOWNNAME":"仁德區","LI":"田厝里","LIN":"12鄰","STREET":"田厝二街","SECT":" ","MAREA":" ","LANE":"１１５巷","ALLEY":" ","HOUSE_NO":"５３號","E_COORD97":172266.79000000001,"N_COORD97":2537569.3999999999,"ADDRESS":"田厝二街１１５巷５３號","OBJECTID":365975},"geometry":{"x":172266.79000000097,"y":2537569.4000000004}},{"attributes":{"ID":365986,"DIS_CODE":0,"TOWNNAME":"仁德區","LI":"二行里","LIN":"12鄰","STREET":"行大街","SECT":" ","MAREA":" ","LANE":"１７２巷","ALLEY":" ","HOUSE_NO":"４０號","E_COORD97":169921.52151799999,"N_COORD97":2535156.2432599999,"ADDRESS":"行大街１７２巷４０號","OBJECTID":365976},"geometry":{"x":169921.5215180004,"y":2535156.2432630025}},{"attributes":{"ID":365987,"DIS_CODE":0,"TOWNNAME":"仁德區","LI":"一甲里","LIN":"12鄰","STREET":"忠義三街","SECT":" ","MAREA":" ","LANE":"３７巷","ALLEY":" ","HOUSE_NO":"１０號","E_COORD97":173612.09,"N_COORD97":2541781.8500000001,"ADDRESS":"忠義三街３７巷１０號","OBJECTID":365977},"geometry":{"x":173612.09000000078,"y":2541781.8500000015}},{"attributes":{"ID":365988,"DIS_CODE":0,"TOWNNAME":"仁德區","LI":"一甲里","LIN":"12鄰","STREET":"忠義三街","SECT":" ","MAREA":" ","LANE":"３７巷","ALLEY":" ","HOUSE_NO":"１１號","E_COORD97":173608.82000000001,"N_COORD97":2541777.77,"ADDRESS":"忠義三街３７巷１１號","OBJECTID":365978},"geometry":{"x":173608.81999999937,"y":2541777.7700000033}},{"attributes":{"ID":365989,"DIS_CODE":0,"TOWNNAME":"仁德區","LI":"一甲里","LIN":"12鄰","STREET":"忠義三街","SECT":" ","MAREA":" ","LANE":"３７巷","ALLEY":" ","HOUSE_NO":"１２號","E_COORD97":173609.06,"N_COORD97":2541782.8700000001,"ADDRESS":"忠義三街３７巷１２號","OBJECTID":365979},"geometry":{"x":173609.06000000052,"y":2541782.8700000029}},{"attributes":{"ID":365990,"DIS_CODE":0,"TOWNNAME":"仁德區","LI":"一甲里","LIN":"12鄰","STREET":"忠義三街","SECT":" ","MAREA":" ","LANE":"３７巷","ALLEY":" ","HOUSE_NO":"１３號","E_COORD97":173606.17000000001,"N_COORD97":2541778.6499999999,"ADDRESS":"忠義三街３７巷１３號","OBJECTID":365980},"geometry":{"x":173606.17000000179,"y":2541778.6500000004}},{"attributes":{"ID":365991,"DIS_CODE":0,"TOWNNAME":"仁德區","LI":"一甲里","LIN":"12鄰","STREET":"忠義三街","SECT":" ","MAREA":" ","LANE":"３７巷","ALLEY":" ","HOUSE_NO":"１５號","E_COORD97":173603.62,"N_COORD97":2541779.5499999998,"ADDRESS":"忠義三街３７巷１５號","OBJECTID":365981},"geometry":{"x":173603.62000000104,"y":2541779.5500000007}},{"attributes":{"ID":365992,"DIS_CODE":0,"TOWNNAME":"仁德區","LI":"一甲里","LIN":"12鄰","STREET":"忠義三街","SECT":" ","MAREA":" ","LANE":"３７巷","ALLEY":" ","HOUSE_NO":"１６號","E_COORD97":173606.32000000001,"N_COORD97":2541784.2200000002,"ADDRESS":"忠義三街３７巷１６號","OBJECTID":365982},"geometry":{"x":173606.32000000123,"y":2541784.2200000007}},{"attributes":{"ID":365993,"DIS_CODE":0,"TOWNNAME":"仁德區","LI":"一甲里","LIN":"12鄰","STREET":"忠義三街","SECT":" ","MAREA":" ","LANE":"３７巷","ALLEY":" ","HOUSE_NO":"１７號","E_COORD97":173600.69,"N_COORD97":2541780.6899999999,"ADDRESS":"忠義三街３７巷１７號","OBJECTID":365983},"geometry":{"x":173600.69000000041,"y":2541780.6899999995}},{"attributes":{"ID":365994,"DIS_CODE":0,"TOWNNAME":"仁德區","LI":"一甲里","LIN":"12鄰","STREET":"忠義三街","SECT":" ","MAREA":" ","LANE":"３７巷","ALLEY":" ","HOUSE_NO":"１８號","E_COORD97":173603.60999999999,"N_COORD97":2541785.21,"ADDRESS":"忠義三街３７巷１８號","OBJECTID":365984},"geometry":{"x":173603.6100000022,"y":2541785.2100000009}},{"attributes":{"ID":365995,"DIS_CODE":0,"TOWNNAME":"安南區","LI":"大安里","LIN":"13鄰","STREET":"義安街","SECT":" ","MAREA":" ","LANE":" ","ALLEY":" ","HOUSE_NO":"１８號","E_COORD97":167356.38,"N_COORD97":2547911.1400000001,"ADDRESS":"義安街１８號","OBJECTID":365985},"geometry":{"x":167356.38000000082,"y":2547911.1400000006}},{"attributes":{"ID":365996,"DIS_CODE":0,"TOWNNAME":"安南區","LI":"大安里","LIN":"13鄰","STREET":"義安街","SECT":" ","MAREA":" ","LANE":" ","ALLEY":" ","HOUSE_NO":"１９號","E_COORD97":167337.14000000001,"N_COORD97":2547929.6299999999,"ADDRESS":"義安街１９號","OBJECTID":365986},"geometry":{"x":167337.13999999966,"y":2547929.6300000008}},{"attributes":{"ID":365997,"DIS_CODE":0,"TOWNNAME":"安南區","LI":"大安里","LIN":"13鄰","STREET":"義安街","SECT":" ","MAREA":" ","LANE":" ","ALLEY":" ","HOUSE_NO":"２１號","E_COORD97":167339.81,"N_COORD97":2547933,"ADDRESS":"義安街２１號","OBJECTID":365987},"geometry":{"x":167339.81000000052,"y":2547933}},{"attributes":{"ID":365998,"DIS_CODE":0,"TOWNNAME":"安南區","LI":"大安里","LIN":"13鄰","STREET":"義安街","SECT":" ","MAREA":" ","LANE":" ","ALLEY":" ","HOUSE_NO":"２２號","E_COORD97":167361.39000000001,"N_COORD97":2547919.1099999999,"ADDRESS":"義安街２２號","OBJECTID":365988},"geometry":{"x":167361.3900000006,"y":2547919.1100000013}},{"attributes":{"ID":365999,"DIS_CODE":0,"TOWNNAME":"安南區","LI":"大安里","LIN":"13鄰","STREET":"義安街","SECT":" ","MAREA":" ","LANE":" ","ALLEY":" ","HOUSE_NO":"２５號","E_COORD97":167345.32000000001,"N_COORD97":2547940.46,"ADDRESS":"義安街２５號","OBJECTID":365989},"geometry":{"x":167345.32000000216,"y":2547940.4600000009}},{"attributes":{"ID":366000,"DIS_CODE":0,"TOWNNAME":"仁德區","LI":"一甲里","LIN":"12鄰","STREET":"忠義三街","SECT":" ","MAREA":" ","LANE":"３７巷","ALLEY":" ","HOUSE_NO":"１９號","E_COORD97":173598.14999999999,"N_COORD97":2541781.7999999998,"ADDRESS":"忠義三街３７巷１９號","OBJECTID":365990},"geometry":{"x":173598.15000000037,"y":2541781.7999999989}},{"attributes":{"ID":366001,"DIS_CODE":0,"TOWNNAME":"仁德區","LI":"一甲里","LIN":"12鄰","STREET":"忠義三街","SECT":" ","MAREA":" ","LANE":"３７巷","ALLEY":" ","HOUSE_NO":"１號","E_COORD97":173621.28,"N_COORD97":2541772.5299999998,"ADDRESS":"忠義三街３７巷１號","OBJECTID":365991},"geometry":{"x":173621.28000000119,"y":2541772.5300000012}},{"attributes":{"ID":366002,"DIS_CODE":0,"TOWNNAME":"仁德區","LI":"一甲里","LIN":"12鄰","STREET":"忠義三街","SECT":" ","MAREA":" ","LANE":"３７巷","ALLEY":" ","HOUSE_NO":"２０號","E_COORD97":173600.57999999999,"N_COORD97":2541786.4300000002,"ADDRESS":"忠義三街３７巷２０號","OBJECTID":365992},"geometry":{"x":173600.58000000101,"y":2541786.4299999997}},{"attributes":{"ID":366003,"DIS_CODE":0,"TOWNNAME":"仁德區","LI":"一甲里","LIN":"12鄰","STREET":"忠義三街","SECT":" ","MAREA":" ","LANE":"３７巷","ALLEY":" ","HOUSE_NO":"２號","E_COORD97":173619.64000000001,"N_COORD97":2541778.46,"ADDRESS":"忠義三街３７巷２號","OBJECTID":365993},"geometry":{"x":173619.64000000153,"y":2541778.4600000028}},{"attributes":{"ID":366004,"DIS_CODE":0,"TOWNNAME":"新營區","LI":"護鎮里","LIN":"5鄰","STREET":" ","SECT":" ","MAREA":"後鎮","LANE":" ","ALLEY":" ","HOUSE_NO":"５９號之２","E_COORD97":179083.04999999999,"N_COORD97":2581184.0899999999,"ADDRESS":"後鎮５９之２號","OBJECTID":365994},"geometry":{"x":179083.05000000075,"y":2581184.0899999999}},{"attributes":{"ID":366005,"DIS_CODE":0,"TOWNNAME":"仁德區","LI":"一甲里","LIN":"12鄰","STREET":"忠義三街","SECT":" ","MAREA":" ","LANE":"３７巷","ALLEY":" ","HOUSE_NO":"３號","E_COORD97":173618.41,"N_COORD97":2541773.6800000002,"ADDRESS":"忠義三街３７巷３號","OBJECTID":365995},"geometry":{"x":173618.41000000201,"y":2541773.6799999997}},{"attributes":{"ID":366006,"DIS_CODE":0,"TOWNNAME":"仁德區","LI":"一甲里","LIN":"12鄰","STREET":"忠義三街","SECT":" ","MAREA":" ","LANE":"３７巷","ALLEY":" ","HOUSE_NO":"５號","E_COORD97":173615.92999999999,"N_COORD97":2541774.4399999999,"ADDRESS":"忠義三街３７巷５號","OBJECTID":365996},"geometry":{"x":173615.92999999877,"y":2541774.4400000013}},{"attributes":{"ID":366007,"DIS_CODE":0,"TOWNNAME":"仁德區","LI":"一甲里","LIN":"12鄰","STREET":"忠義三街","SECT":" ","MAREA":" ","LANE":"３７巷","ALLEY":" ","HOUSE_NO":"６號","E_COORD97":173616.42000000001,"N_COORD97":2541779.3599999999,"ADDRESS":"忠義三街３７巷６號","OBJECTID":365997},"geometry":{"x":173616.42000000179,"y":2541779.3599999994}},{"attributes":{"ID":366008,"DIS_CODE":0,"TOWNNAME":"仁德區","LI":"仁義里","LIN":"12鄰","STREET":"義林路","SECT":" ","MAREA":" ","LANE":"２５６巷","ALLEY":" ","HOUSE_NO":"１６８號","E_COORD97":175122.67999999999,"N_COORD97":2541486.0099999998,"ADDRESS":"義林路２５６巷１６８號","OBJECTID":365998},"geometry":{"x":175122.6799999997,"y":2541486.0100000016}},{"attributes":{"ID":366009,"DIS_CODE":0,"TOWNNAME":"仁德區","LI":"仁義里","LIN":"12鄰","STREET":"義林路","SECT":" ","MAREA":" ","LANE":"２５６巷","ALLEY":" ","HOUSE_NO":"２３８號","E_COORD97":175201.79000000001,"N_COORD97":2541489.1699999999,"ADDRESS":"義林路２５６巷２３８號","OBJECTID":365999},"geometry":{"x":175201.79000000004,"y":2541489.1699999999}},{"attributes":{"ID":366010,"DIS_CODE":0,"TOWNNAME":"下營區","LI":"後街里","LIN":"12鄰","STREET":"大同街","SECT":" ","MAREA":" ","LANE":"４８巷","ALLEY":" ","HOUSE_NO":"３號","E_COORD97":174564.41,"N_COORD97":2570678.1000000001,"ADDRESS":"大同街４８巷３號","OBJECTID":366000},"geometry":{"x":174564.41000000108,"y":2570678.0999999978}}]}