{"displayFieldName":"TOWNNAME","fieldAliases":{"ID":"ID","DIS_CODE":"DIS_CODE","TOWNNAME":"TOWNNAME","LI":"LI","LIN":"LIN","STREET":"STREET","SECT":"SECT","MAREA":"MAREA","LANE":"LANE","ALLEY":"ALLEY","HOUSE_NO":"HOUSE_NO","E_COORD97":"E_COORD97","N_COORD97":"N_COORD97","ADDRESS":"ADDRESS","OBJECTID":"OBJECTID"},"geometryType":"esriGeometryPoint","spatialReference":{"wkid":102443,"latestWkid":3826},"fields":[{"name":"ID","type":"esriFieldTypeDouble","alias":"ID"},{"name":"DIS_CODE","type":"esriFieldTypeInteger","alias":"DIS_CODE"},{"name":"TOWNNAME","type":"esriFieldTypeString","alias":"TOWNNAME","length":8},{"name":"LI","type":"esriFieldTypeString","alias":"LI","length":8},{"name":"LIN","type":"esriFieldTypeString","alias":"LIN","length":12},{"name":"STREET","type":"esriFieldTypeString","alias":"STREET","length":20},{"name":"SECT","type":"esriFieldTypeString","alias":"SECT","length":8},{"name":"MAREA","type":"esriFieldTypeString","alias":"MAREA","length":12},{"name":"LANE","type":"esriFieldTypeString","alias":"LANE","length":10},{"name":"ALLEY","type":"esriFieldTypeString","alias":"ALLEY","length":10},{"name":"HOUSE_NO","type":"esriFieldTypeString","alias":"HOUSE_NO","length":20},{"name":"E_COORD97","type":"esriFieldTypeDouble","alias":"E_COORD97"},{"name":"N_COORD97","type":"esriFieldTypeDouble","alias":"N_COORD97"},{"name":"ADDRESS","type":"esriFieldTypeString","alias":"ADDRESS","length":50},{"name":"OBJECTID","type":"esriFieldTypeOID","alias":"OBJECTID"}],"features":[{"attributes":{"ID":635628,"DIS_CODE":0,"TOWNNAME":"東區","LI":"崇學里","LIN":"3鄰","STREET":"崇德四街","SECT":" ","MAREA":" ","LANE":" ","ALLEY":" ","HOUSE_NO":"９號五樓之１","E_COORD97":170561.67000000001,"N_COORD97":2542025.52,"ADDRESS":"崇德四街９號五樓之１","OBJECTID":635601},"geometry":{"x":170561.67000000179,"y":2542025.5199999996}},{"attributes":{"ID":635629,"DIS_CODE":0,"TOWNNAME":"東區","LI":"崇學里","LIN":"3鄰","STREET":"崇德四街","SECT":" ","MAREA":" ","LANE":" ","ALLEY":" ","HOUSE_NO":"９號五樓之１０","E_COORD97":170561.67000000001,"N_COORD97":2542025.52,"ADDRESS":"崇德四街９號五樓之１０","OBJECTID":635602},"geometry":{"x":170561.67000000179,"y":2542025.5199999996}},{"attributes":{"ID":635630,"DIS_CODE":0,"TOWNNAME":"東區","LI":"崇學里","LIN":"3鄰","STREET":"崇德四街","SECT":" ","MAREA":" ","LANE":" ","ALLEY":" ","HOUSE_NO":"９號五樓之１１","E_COORD97":170561.67000000001,"N_COORD97":2542025.52,"ADDRESS":"崇德四街９號五樓之１１","OBJECTID":635603},"geometry":{"x":170561.67000000179,"y":2542025.5199999996}},{"attributes":{"ID":635631,"DIS_CODE":0,"TOWNNAME":"東區","LI":"崇學里","LIN":"3鄰","STREET":"崇德四街","SECT":" ","MAREA":" ","LANE":" ","ALLEY":" ","HOUSE_NO":"９號五樓之１２","E_COORD97":170561.67000000001,"N_COORD97":2542025.52,"ADDRESS":"崇德四街９號五樓之１２","OBJECTID":635604},"geometry":{"x":170561.67000000179,"y":2542025.5199999996}},{"attributes":{"ID":635632,"DIS_CODE":0,"TOWNNAME":"東區","LI":"崇學里","LIN":"3鄰","STREET":"崇德四街","SECT":" ","MAREA":" ","LANE":" ","ALLEY":" ","HOUSE_NO":"９號五樓之２","E_COORD97":170561.67000000001,"N_COORD97":2542025.52,"ADDRESS":"崇德四街９號五樓之２","OBJECTID":635605},"geometry":{"x":170561.67000000179,"y":2542025.5199999996}},{"attributes":{"ID":635633,"DIS_CODE":0,"TOWNNAME":"東區","LI":"崇學里","LIN":"3鄰","STREET":"崇德四街","SECT":" ","MAREA":" ","LANE":" ","ALLEY":" ","HOUSE_NO":"９號五樓之３","E_COORD97":170561.67000000001,"N_COORD97":2542025.52,"ADDRESS":"崇德四街９號五樓之３","OBJECTID":635606},"geometry":{"x":170561.67000000179,"y":2542025.5199999996}},{"attributes":{"ID":635634,"DIS_CODE":0,"TOWNNAME":"東區","LI":"崇學里","LIN":"3鄰","STREET":"崇德四街","SECT":" ","MAREA":" ","LANE":" ","ALLEY":" ","HOUSE_NO":"９號五樓之４","E_COORD97":170561.67000000001,"N_COORD97":2542025.52,"ADDRESS":"崇德四街９號五樓之４","OBJECTID":635607},"geometry":{"x":170561.67000000179,"y":2542025.5199999996}},{"attributes":{"ID":635635,"DIS_CODE":0,"TOWNNAME":"東區","LI":"崇學里","LIN":"21鄰","STREET":"崇學路","SECT":" ","MAREA":" ","LANE":" ","ALLEY":" ","HOUSE_NO":"１８號七樓","E_COORD97":170127.32000000001,"N_COORD97":2542029.5800000001,"ADDRESS":"崇學路１８號七樓","OBJECTID":635608},"geometry":{"x":170127.32000000123,"y":2542029.5800000001}},{"attributes":{"ID":635636,"DIS_CODE":0,"TOWNNAME":"東區","LI":"崇學里","LIN":"21鄰","STREET":"崇學路","SECT":" ","MAREA":" ","LANE":" ","ALLEY":" ","HOUSE_NO":"１８號七樓之１","E_COORD97":170127.32000000001,"N_COORD97":2542029.5800000001,"ADDRESS":"崇學路１８號七樓之１","OBJECTID":635609},"geometry":{"x":170127.32000000123,"y":2542029.5800000001}},{"attributes":{"ID":635637,"DIS_CODE":0,"TOWNNAME":"東區","LI":"崇學里","LIN":"21鄰","STREET":"崇學路","SECT":" ","MAREA":" ","LANE":" ","ALLEY":" ","HOUSE_NO":"１８號七樓之２","E_COORD97":170127.32000000001,"N_COORD97":2542029.5800000001,"ADDRESS":"崇學路１８號七樓之２","OBJECTID":635610},"geometry":{"x":170127.32000000123,"y":2542029.5800000001}},{"attributes":{"ID":635638,"DIS_CODE":0,"TOWNNAME":"東區","LI":"崇學里","LIN":"21鄰","STREET":"崇學路","SECT":" ","MAREA":" ","LANE":" ","ALLEY":" ","HOUSE_NO":"１８號九樓","E_COORD97":170127.32000000001,"N_COORD97":2542029.5800000001,"ADDRESS":"崇學路１８號九樓","OBJECTID":635611},"geometry":{"x":170127.32000000123,"y":2542029.5800000001}},{"attributes":{"ID":635639,"DIS_CODE":0,"TOWNNAME":"東區","LI":"崇學里","LIN":"21鄰","STREET":"崇學路","SECT":" ","MAREA":" ","LANE":" ","ALLEY":" ","HOUSE_NO":"１８號九樓之１","E_COORD97":170127.32000000001,"N_COORD97":2542029.5800000001,"ADDRESS":"崇學路１８號九樓之１","OBJECTID":635612},"geometry":{"x":170127.32000000123,"y":2542029.5800000001}},{"attributes":{"ID":635640,"DIS_CODE":0,"TOWNNAME":"東區","LI":"崇信里","LIN":"23鄰","STREET":"崇善一街","SECT":" ","MAREA":" ","LANE":" ","ALLEY":" ","HOUSE_NO":"６６號九樓","E_COORD97":170804.41,"N_COORD97":2542259.6899999999,"ADDRESS":"崇善一街６６號九樓","OBJECTID":635613},"geometry":{"x":170804.41000000201,"y":2542259.6900000013}},{"attributes":{"ID":635641,"DIS_CODE":0,"TOWNNAME":"東區","LI":"崇信里","LIN":"24鄰","STREET":"崇善一街","SECT":" ","MAREA":" ","LANE":" ","ALLEY":" ","HOUSE_NO":"７８號九樓","E_COORD97":170831.85999999999,"N_COORD97":2542290.75,"ADDRESS":"崇善一街７８號九樓","OBJECTID":635614},"geometry":{"x":170831.8599999994,"y":2542290.7500000019}},{"attributes":{"ID":635642,"DIS_CODE":0,"TOWNNAME":"東區","LI":"莊敬里","LIN":"28鄰","STREET":"中華東路","SECT":"一段","MAREA":" ","LANE":" ","ALLEY":" ","HOUSE_NO":"８６號十二樓之１","E_COORD97":171468.88,"N_COORD97":2543966.2400000002,"ADDRESS":"中華東路一段８６號十二樓之１","OBJECTID":635615},"geometry":{"x":171468.88000000175,"y":2543966.2400000021}},{"attributes":{"ID":635643,"DIS_CODE":0,"TOWNNAME":"東區","LI":"莊敬里","LIN":"28鄰","STREET":"中華東路","SECT":"一段","MAREA":" ","LANE":" ","ALLEY":" ","HOUSE_NO":"８６號十二樓之２","E_COORD97":171468.88,"N_COORD97":2543966.2400000002,"ADDRESS":"中華東路一段８６號十二樓之２","OBJECTID":635616},"geometry":{"x":171468.88000000175,"y":2543966.2400000021}},{"attributes":{"ID":635644,"DIS_CODE":0,"TOWNNAME":"東區","LI":"莊敬里","LIN":"28鄰","STREET":"中華東路","SECT":"一段","MAREA":" ","LANE":" ","ALLEY":" ","HOUSE_NO":"８６號十二樓之３","E_COORD97":171468.88,"N_COORD97":2543966.2400000002,"ADDRESS":"中華東路一段８６號十二樓之３","OBJECTID":635617},"geometry":{"x":171468.88000000175,"y":2543966.2400000021}},{"attributes":{"ID":635645,"DIS_CODE":0,"TOWNNAME":"東區","LI":"莊敬里","LIN":"28鄰","STREET":"中華東路","SECT":"一段","MAREA":" ","LANE":" ","ALLEY":" ","HOUSE_NO":"８６號十二樓之５","E_COORD97":171468.88,"N_COORD97":2543966.2400000002,"ADDRESS":"中華東路一段８６號十二樓之５","OBJECTID":635618},"geometry":{"x":171468.88000000175,"y":2543966.2400000021}},{"attributes":{"ID":635646,"DIS_CODE":0,"TOWNNAME":"東區","LI":"莊敬里","LIN":"27鄰","STREET":"莊敬路","SECT":" ","MAREA":" ","LANE":" ","ALLEY":" ","HOUSE_NO":"１２３號七樓","E_COORD97":171335.95000000001,"N_COORD97":2543999.0099999998,"ADDRESS":"莊敬路１２３號七樓","OBJECTID":635619},"geometry":{"x":171335.95000000019,"y":2543999.0099999998}},{"attributes":{"ID":635647,"DIS_CODE":0,"TOWNNAME":"佳里區","LI":"鎮山里","LIN":"7鄰","STREET":"崇德街","SECT":" ","MAREA":" ","LANE":" ","ALLEY":" ","HOUSE_NO":"３８號四樓","E_COORD97":166192.95999999999,"N_COORD97":2561672.3399999999,"ADDRESS":"崇德街３８號四樓","OBJECTID":635620},"geometry":{"x":166192.96000000183,"y":2561672.3400000036}},{"attributes":{"ID":635648,"DIS_CODE":0,"TOWNNAME":"東區","LI":"莊敬里","LIN":"27鄰","STREET":"莊敬路","SECT":" ","MAREA":" ","LANE":" ","ALLEY":" ","HOUSE_NO":"１２３號七樓之１","E_COORD97":171335.95000000001,"N_COORD97":2543999.0099999998,"ADDRESS":"莊敬路１２３號七樓之１","OBJECTID":635621},"geometry":{"x":171335.95000000019,"y":2543999.0099999998}},{"attributes":{"ID":635649,"DIS_CODE":0,"TOWNNAME":"東區","LI":"富裕里","LIN":"4鄰","STREET":"裕農路","SECT":" ","MAREA":" ","LANE":" ","ALLEY":" ","HOUSE_NO":"５８號二樓","E_COORD97":170620.60000000001,"N_COORD97":2542820.29,"ADDRESS":"裕農路５８號二樓","OBJECTID":635622},"geometry":{"x":170620.59999999963,"y":2542820.2899999991}},{"attributes":{"ID":635650,"DIS_CODE":0,"TOWNNAME":"東區","LI":"富裕里","LIN":"4鄰","STREET":"裕農路","SECT":" ","MAREA":" ","LANE":" ","ALLEY":" ","HOUSE_NO":"５８號三樓","E_COORD97":170620.60000000001,"N_COORD97":2542820.29,"ADDRESS":"裕農路５８號三樓","OBJECTID":635623},"geometry":{"x":170620.59999999963,"y":2542820.2899999991}},{"attributes":{"ID":635651,"DIS_CODE":0,"TOWNNAME":"東區","LI":"富裕里","LIN":"4鄰","STREET":"裕農路","SECT":" ","MAREA":" ","LANE":" ","ALLEY":" ","HOUSE_NO":"５８號五樓","E_COORD97":170620.60000000001,"N_COORD97":2542820.29,"ADDRESS":"裕農路５８號五樓","OBJECTID":635624},"geometry":{"x":170620.59999999963,"y":2542820.2899999991}},{"attributes":{"ID":635652,"DIS_CODE":0,"TOWNNAME":"東區","LI":"富裕里","LIN":"4鄰","STREET":"裕農路","SECT":" ","MAREA":" ","LANE":" ","ALLEY":" ","HOUSE_NO":"５８號六樓","E_COORD97":170620.60000000001,"N_COORD97":2542820.29,"ADDRESS":"裕農路５８號六樓","OBJECTID":635625},"geometry":{"x":170620.59999999963,"y":2542820.2899999991}},{"attributes":{"ID":635653,"DIS_CODE":0,"TOWNNAME":"東區","LI":"富裕里","LIN":"4鄰","STREET":"裕農路","SECT":" ","MAREA":" ","LANE":" ","ALLEY":" ","HOUSE_NO":"５８號四樓","E_COORD97":170620.60000000001,"N_COORD97":2542820.29,"ADDRESS":"裕農路５８號四樓","OBJECTID":635626},"geometry":{"x":170620.59999999963,"y":2542820.2899999991}},{"attributes":{"ID":635654,"DIS_CODE":0,"TOWNNAME":"南區","LI":"新生里","LIN":"1鄰","STREET":"大林路","SECT":" ","MAREA":" ","LANE":" ","ALLEY":" ","HOUSE_NO":"６號四樓之５","E_COORD97":169339.28,"N_COORD97":2541879,"ADDRESS":"大林路６號四樓之５","OBJECTID":635627},"geometry":{"x":169339.28000000119,"y":2541879.0000000019}},{"attributes":{"ID":635655,"DIS_CODE":0,"TOWNNAME":"東區","LI":"新東里","LIN":"25鄰","STREET":"裕農路","SECT":" ","MAREA":" ","LANE":" ","ALLEY":" ","HOUSE_NO":"２７號之１０二樓","E_COORD97":170535.09,"N_COORD97":2542899.1000000001,"ADDRESS":"裕農路２７號之１０二樓","OBJECTID":635628},"geometry":{"x":170535.09000000078,"y":2542899.1000000015}},{"attributes":{"ID":635656,"DIS_CODE":0,"TOWNNAME":"東區","LI":"新東里","LIN":"25鄰","STREET":"裕農路","SECT":" ","MAREA":" ","LANE":" ","ALLEY":" ","HOUSE_NO":"２７號之１１七樓","E_COORD97":170544.57000000001,"N_COORD97":2542865.9900000002,"ADDRESS":"裕農路２７號之１１七樓","OBJECTID":635629},"geometry":{"x":170544.57000000123,"y":2542865.9900000021}},{"attributes":{"ID":635657,"DIS_CODE":0,"TOWNNAME":"東區","LI":"新東里","LIN":"25鄰","STREET":"裕農路","SECT":" ","MAREA":" ","LANE":" ","ALLEY":" ","HOUSE_NO":"２７號之１１七樓之１","E_COORD97":170544.57000000001,"N_COORD97":2542865.9900000002,"ADDRESS":"裕農路２７號之１１七樓之１","OBJECTID":635630},"geometry":{"x":170544.57000000123,"y":2542865.9900000021}},{"attributes":{"ID":635658,"DIS_CODE":0,"TOWNNAME":"東區","LI":"新東里","LIN":"25鄰","STREET":"裕農路","SECT":" ","MAREA":" ","LANE":" ","ALLEY":" ","HOUSE_NO":"２７號之１１九樓","E_COORD97":170544.57000000001,"N_COORD97":2542865.9900000002,"ADDRESS":"裕農路２７號之１１九樓","OBJECTID":635631},"geometry":{"x":170544.57000000123,"y":2542865.9900000021}},{"attributes":{"ID":635659,"DIS_CODE":0,"TOWNNAME":"東區","LI":"新東里","LIN":"25鄰","STREET":"裕農路","SECT":" ","MAREA":" ","LANE":" ","ALLEY":" ","HOUSE_NO":"２７號之１１九樓之１","E_COORD97":170544.57000000001,"N_COORD97":2542865.9900000002,"ADDRESS":"裕農路２７號之１１九樓之１","OBJECTID":635632},"geometry":{"x":170544.57000000123,"y":2542865.9900000021}},{"attributes":{"ID":635660,"DIS_CODE":0,"TOWNNAME":"東區","LI":"新東里","LIN":"25鄰","STREET":"裕農路","SECT":" ","MAREA":" ","LANE":" ","ALLEY":" ","HOUSE_NO":"２７號之１１八樓","E_COORD97":170544.57000000001,"N_COORD97":2542865.9900000002,"ADDRESS":"裕農路２７號之１１八樓","OBJECTID":635633},"geometry":{"x":170544.57000000123,"y":2542865.9900000021}},{"attributes":{"ID":635661,"DIS_CODE":0,"TOWNNAME":"東區","LI":"新東里","LIN":"25鄰","STREET":"裕農路","SECT":" ","MAREA":" ","LANE":" ","ALLEY":" ","HOUSE_NO":"２７號之１１八樓之１","E_COORD97":170544.57000000001,"N_COORD97":2542865.9900000002,"ADDRESS":"裕農路２７號之１１八樓之１","OBJECTID":635634},"geometry":{"x":170544.57000000123,"y":2542865.9900000021}},{"attributes":{"ID":635662,"DIS_CODE":0,"TOWNNAME":"東區","LI":"新東里","LIN":"25鄰","STREET":"裕農路","SECT":" ","MAREA":" ","LANE":" ","ALLEY":" ","HOUSE_NO":"２７號之１１十一樓","E_COORD97":170544.57000000001,"N_COORD97":2542865.9900000002,"ADDRESS":"裕農路２７號之１１十一樓","OBJECTID":635635},"geometry":{"x":170544.57000000123,"y":2542865.9900000021}},{"attributes":{"ID":635663,"DIS_CODE":0,"TOWNNAME":"東區","LI":"新東里","LIN":"25鄰","STREET":"裕農路","SECT":" ","MAREA":" ","LANE":" ","ALLEY":" ","HOUSE_NO":"２７號之１１十一樓之","E_COORD97":170544.57000000001,"N_COORD97":2542865.9900000002,"ADDRESS":"裕農路２７號之１１十一樓之１","OBJECTID":635636},"geometry":{"x":170544.57000000123,"y":2542865.9900000021}},{"attributes":{"ID":635664,"DIS_CODE":0,"TOWNNAME":"東區","LI":"新東里","LIN":"25鄰","STREET":"裕農路","SECT":" ","MAREA":" ","LANE":" ","ALLEY":" ","HOUSE_NO":"２７號之１１十二樓","E_COORD97":170544.57000000001,"N_COORD97":2542865.9900000002,"ADDRESS":"裕農路２７號之１１十二樓","OBJECTID":635637},"geometry":{"x":170544.57000000123,"y":2542865.9900000021}},{"attributes":{"ID":635665,"DIS_CODE":0,"TOWNNAME":"東區","LI":"新東里","LIN":"25鄰","STREET":"裕農路","SECT":" ","MAREA":" ","LANE":" ","ALLEY":" ","HOUSE_NO":"２７號之１１十二樓之","E_COORD97":170544.57000000001,"N_COORD97":2542865.9900000002,"ADDRESS":"裕農路２７號之１１十二樓之１","OBJECTID":635638},"geometry":{"x":170544.57000000123,"y":2542865.9900000021}},{"attributes":{"ID":635666,"DIS_CODE":0,"TOWNNAME":"永康區","LI":"復國里","LIN":"20鄰","STREET":"國華街","SECT":" ","MAREA":" ","LANE":" ","ALLEY":" ","HOUSE_NO":"５７號十二樓之１","E_COORD97":172812.31,"N_COORD97":2545757.6699999999,"ADDRESS":"國華街５７號十二樓之１","OBJECTID":635639},"geometry":{"x":172812.31000000052,"y":2545757.6699999999}},{"attributes":{"ID":635667,"DIS_CODE":0,"TOWNNAME":"永康區","LI":"烏竹里","LIN":"17鄰","STREET":"竹園一街","SECT":" ","MAREA":" ","LANE":" ","ALLEY":" ","HOUSE_NO":"６１號八樓之２","E_COORD97":174414.39000000001,"N_COORD97":2548929.3300000001,"ADDRESS":"竹園一街６１號八樓之２","OBJECTID":635640},"geometry":{"x":174414.38999999966,"y":2548929.3300000019}},{"attributes":{"ID":635668,"DIS_CODE":0,"TOWNNAME":"永康區","LI":"大橋里","LIN":"4鄰","STREET":"大橋五街","SECT":" ","MAREA":" ","LANE":" ","ALLEY":" ","HOUSE_NO":"１３７號七樓之５","E_COORD97":170961.94,"N_COORD97":2546977.6699999999,"ADDRESS":"大橋五街１３７號七樓之５","OBJECTID":635641},"geometry":{"x":170961.93999999948,"y":2546977.6700000018}},{"attributes":{"ID":635669,"DIS_CODE":0,"TOWNNAME":"永康區","LI":"正強里","LIN":"32鄰","STREET":"四維街","SECT":" ","MAREA":" ","LANE":" ","ALLEY":" ","HOUSE_NO":"３９號七樓之１","E_COORD97":173389.41,"N_COORD97":2548026.8799999999,"ADDRESS":"四維街３９號七樓之１","OBJECTID":635642},"geometry":{"x":173389.40999999922,"y":2548026.879999999}},{"attributes":{"ID":635670,"DIS_CODE":0,"TOWNNAME":"永康區","LI":"大橋里","LIN":"4鄰","STREET":"大橋五街","SECT":" ","MAREA":" ","LANE":" ","ALLEY":" ","HOUSE_NO":"１７號三樓之２","E_COORD97":170789.59,"N_COORD97":2546868.9199999999,"ADDRESS":"大橋五街１７號三樓之２","OBJECTID":635643},"geometry":{"x":170789.59000000078,"y":2546868.9199999999}},{"attributes":{"ID":635671,"DIS_CODE":0,"TOWNNAME":"永康區","LI":"龍潭里","LIN":"5鄰","STREET":"龍埔街","SECT":" ","MAREA":" ","LANE":" ","ALLEY":" ","HOUSE_NO":"８５號十二樓之３","E_COORD97":174621.04000000001,"N_COORD97":2548225.75,"ADDRESS":"龍埔街８５號十二樓之３","OBJECTID":635644},"geometry":{"x":174621.04000000097,"y":2548225.75}},{"attributes":{"ID":635672,"DIS_CODE":0,"TOWNNAME":"永康區","LI":"勝利里","LIN":"20鄰","STREET":"勝學路","SECT":" ","MAREA":" ","LANE":" ","ALLEY":" ","HOUSE_NO":"２３７號七樓之２","E_COORD97":171181.44,"N_COORD97":2545265.6699999999,"ADDRESS":"勝學路２３７號七樓之２","OBJECTID":635645},"geometry":{"x":171181.44000000134,"y":2545265.6699999999}},{"attributes":{"ID":635673,"DIS_CODE":0,"TOWNNAME":"永康區","LI":"大橋里","LIN":"4鄰","STREET":"大橋五街","SECT":" ","MAREA":" ","LANE":" ","ALLEY":" ","HOUSE_NO":"１４３號九樓之５","E_COORD97":170978.84,"N_COORD97":2546989.3599999999,"ADDRESS":"大橋五街１４３號九樓之５","OBJECTID":635646},"geometry":{"x":170978.83999999985,"y":2546989.3600000013}},{"attributes":{"ID":635674,"DIS_CODE":0,"TOWNNAME":"永康區","LI":"大橋里","LIN":"4鄰","STREET":"大橋五街","SECT":" ","MAREA":" ","LANE":" ","ALLEY":" ","HOUSE_NO":"１４３號二樓之２","E_COORD97":170978.82000000001,"N_COORD97":2546989.3599999999,"ADDRESS":"大橋五街１４３號二樓之２","OBJECTID":635647},"geometry":{"x":170978.82000000123,"y":2546989.3600000013}},{"attributes":{"ID":635675,"DIS_CODE":0,"TOWNNAME":"永康區","LI":"復國里","LIN":"26鄰","STREET":"復華三街","SECT":" ","MAREA":" ","LANE":" ","ALLEY":" ","HOUSE_NO":"６２號十四樓之１","E_COORD97":172711.72,"N_COORD97":2545562.9700000002,"ADDRESS":"復華三街６２號十四樓之１","OBJECTID":635648},"geometry":{"x":172711.71999999974,"y":2545562.9700000007}},{"attributes":{"ID":635676,"DIS_CODE":0,"TOWNNAME":"永康區","LI":"網寮里","LIN":"26鄰","STREET":"永興路","SECT":" ","MAREA":" ","LANE":" ","ALLEY":" ","HOUSE_NO":"６５號五樓之３","E_COORD97":174047.16,"N_COORD97":2546517.5499999998,"ADDRESS":"永興路６５號五樓之３","OBJECTID":635649},"geometry":{"x":174047.16000000201,"y":2546517.5500000026}},{"attributes":{"ID":635677,"DIS_CODE":0,"TOWNNAME":"永康區","LI":"正強里","LIN":"32鄰","STREET":"四維街","SECT":" ","MAREA":" ","LANE":" ","ALLEY":" ","HOUSE_NO":"３９號七樓之２","E_COORD97":173389.54000000001,"N_COORD97":2548026.8799999999,"ADDRESS":"四維街３９號七樓之２","OBJECTID":635650},"geometry":{"x":173389.54000000004,"y":2548026.879999999}},{"attributes":{"ID":635678,"DIS_CODE":0,"TOWNNAME":"永康區","LI":"正強里","LIN":"41鄰","STREET":"正強街","SECT":" ","MAREA":" ","LANE":" ","ALLEY":" ","HOUSE_NO":"２９６號十二樓之２","E_COORD97":173304.14000000001,"N_COORD97":2547949.29,"ADDRESS":"正強街２９６號十二樓之２","OBJECTID":635651},"geometry":{"x":173304.13999999966,"y":2547949.2899999991}},{"attributes":{"ID":635679,"DIS_CODE":0,"TOWNNAME":"永康區","LI":"大橋里","LIN":"4鄰","STREET":"大橋五街","SECT":" ","MAREA":" ","LANE":" ","ALLEY":" ","HOUSE_NO":"１４１號八樓之２","E_COORD97":170968.88,"N_COORD97":2547008.29,"ADDRESS":"大橋五街１４１號八樓之２","OBJECTID":635652},"geometry":{"x":170968.88000000082,"y":2547008.2900000028}},{"attributes":{"ID":635680,"DIS_CODE":0,"TOWNNAME":"永康區","LI":"埔園里","LIN":"38鄰","STREET":"龍中街","SECT":" ","MAREA":" ","LANE":" ","ALLEY":" ","HOUSE_NO":"３５９號七樓之１","E_COORD97":174402.70000000001,"N_COORD97":2547932.0800000001,"ADDRESS":"龍中街３５９號七樓之１","OBJECTID":635653},"geometry":{"x":174402.70000000019,"y":2547932.0800000001}},{"attributes":{"ID":635681,"DIS_CODE":0,"TOWNNAME":"永康區","LI":"復國里","LIN":"26鄰","STREET":"復華三街","SECT":" ","MAREA":" ","LANE":" ","ALLEY":" ","HOUSE_NO":"６４號十三樓之２","E_COORD97":172721.01000000001,"N_COORD97":2545600.2999999998,"ADDRESS":"復華三街６４號十三樓之２","OBJECTID":635654},"geometry":{"x":172721.01000000071,"y":2545600.3000000026}},{"attributes":{"ID":635682,"DIS_CODE":0,"TOWNNAME":"永康區","LI":"復國里","LIN":"26鄰","STREET":"復華三街","SECT":" ","MAREA":" ","LANE":" ","ALLEY":" ","HOUSE_NO":"６２號十七樓之１","E_COORD97":172711.72,"N_COORD97":2545562.9700000002,"ADDRESS":"復華三街６２號十七樓之１","OBJECTID":635655},"geometry":{"x":172711.71999999974,"y":2545562.9700000007}},{"attributes":{"ID":635683,"DIS_CODE":0,"TOWNNAME":"永康區","LI":"復國里","LIN":"26鄰","STREET":"復華三街","SECT":" ","MAREA":" ","LANE":" ","ALLEY":" ","HOUSE_NO":"６２號九樓之２","E_COORD97":172710.60000000001,"N_COORD97":2545562.9700000002,"ADDRESS":"復華三街６２號九樓之２","OBJECTID":635656},"geometry":{"x":172710.59999999963,"y":2545562.9700000007}},{"attributes":{"ID":635684,"DIS_CODE":0,"TOWNNAME":"永康區","LI":"\u25A0洲里","LIN":"39鄰","STREET":"\u25A0洲一街","SECT":" ","MAREA":" ","LANE":" ","ALLEY":" ","HOUSE_NO":"３９號四樓之２","E_COORD97":171585.54000000001,"N_COORD97":2549070.7999999998,"ADDRESS":"\u25A0洲一街３９號四樓之２","OBJECTID":635657},"geometry":{"x":171585.54000000097,"y":2549070.8000000007}},{"attributes":{"ID":635685,"DIS_CODE":0,"TOWNNAME":"永康區","LI":"烏竹里","LIN":"17鄰","STREET":"竹園一街","SECT":" ","MAREA":" ","LANE":" ","ALLEY":" ","HOUSE_NO":"５９號五樓之２","E_COORD97":174399.79999999999,"N_COORD97":2548923.0800000001,"ADDRESS":"竹園一街５９號五樓之２","OBJECTID":635658},"geometry":{"x":174399.79999999981,"y":2548923.0800000038}},{"attributes":{"ID":635686,"DIS_CODE":0,"TOWNNAME":"永康區","LI":"二王里","LIN":"8鄰","STREET":"二王路","SECT":" ","MAREA":" ","LANE":" ","ALLEY":" ","HOUSE_NO":"１２號十六樓之２","E_COORD97":172966.72,"N_COORD97":2546841.48,"ADDRESS":"二王路１２號十六樓之２","OBJECTID":635659},"geometry":{"x":172966.72000000067,"y":2546841.4800000004}},{"attributes":{"ID":635687,"DIS_CODE":0,"TOWNNAME":"永康區","LI":"中華里","LIN":"15鄰","STREET":"華興街","SECT":" ","MAREA":" ","LANE":" ","ALLEY":" ","HOUSE_NO":"９７號二樓之２","E_COORD97":171790.48000000001,"N_COORD97":2544563.1299999999,"ADDRESS":"華興街９７號二樓之２","OBJECTID":635660},"geometry":{"x":171790.48000000045,"y":2544563.129999999}},{"attributes":{"ID":635688,"DIS_CODE":0,"TOWNNAME":"永康區","LI":"六合里","LIN":"1鄰","STREET":"新興街","SECT":" ","MAREA":" ","LANE":" ","ALLEY":" ","HOUSE_NO":"８號二樓之１","E_COORD97":170922.57000000001,"N_COORD97":2545756.79,"ADDRESS":"新興街８號二樓之１","OBJECTID":635661},"geometry":{"x":170922.57000000123,"y":2545756.7899999991}},{"attributes":{"ID":635689,"DIS_CODE":0,"TOWNNAME":"永康區","LI":"大橋里","LIN":"4鄰","STREET":"大橋五街","SECT":" ","MAREA":" ","LANE":" ","ALLEY":" ","HOUSE_NO":"１３７號四樓之１","E_COORD97":170961.78,"N_COORD97":2546977.6699999999,"ADDRESS":"大橋五街１３７號四樓之１","OBJECTID":635662},"geometry":{"x":170961.78000000119,"y":2546977.6700000018}},{"attributes":{"ID":635690,"DIS_CODE":0,"TOWNNAME":"永康區","LI":"中華里","LIN":"20鄰","STREET":"小東路","SECT":" ","MAREA":" ","LANE":" ","ALLEY":" ","HOUSE_NO":"４７３號之４３六樓","E_COORD97":171593.10999999999,"N_COORD97":2544367.3500000001,"ADDRESS":"小東路４７３號之４３六樓","OBJECTID":635663},"geometry":{"x":171593.1100000022,"y":2544367.3500000034}},{"attributes":{"ID":635691,"DIS_CODE":0,"TOWNNAME":"永康區","LI":"勝利里","LIN":"20鄰","STREET":"勝學路","SECT":" ","MAREA":" ","LANE":" ","ALLEY":" ","HOUSE_NO":"２４１號五樓之１","E_COORD97":171167.64000000001,"N_COORD97":2545232.54,"ADDRESS":"勝學路２４１號五樓之１","OBJECTID":635664},"geometry":{"x":171167.63999999966,"y":2545232.5399999991}},{"attributes":{"ID":635692,"DIS_CODE":0,"TOWNNAME":"永康區","LI":"永康里","LIN":"26鄰","STREET":"中山北路","SECT":" ","MAREA":" ","LANE":" ","ALLEY":" ","HOUSE_NO":"１１４號十四樓之１","E_COORD97":174164.98999999999,"N_COORD97":2547447.25,"ADDRESS":"中山北路１１４號十四樓之１","OBJECTID":635665},"geometry":{"x":174164.99000000022,"y":2547447.2500000019}},{"attributes":{"ID":635693,"DIS_CODE":0,"TOWNNAME":"永康區","LI":"永康里","LIN":"24鄰","STREET":"永正路","SECT":" ","MAREA":" ","LANE":" ","ALLEY":" ","HOUSE_NO":"４５號六樓之６","E_COORD97":173556.01999999999,"N_COORD97":2547363.5499999998,"ADDRESS":"永正路４５號六樓之６","OBJECTID":635666},"geometry":{"x":173556.02000000142,"y":2547363.5500000007}},{"attributes":{"ID":635694,"DIS_CODE":0,"TOWNNAME":"永康區","LI":"永康里","LIN":"24鄰","STREET":"永正路","SECT":" ","MAREA":" ","LANE":" ","ALLEY":" ","HOUSE_NO":"６３號三樓","E_COORD97":173539.85999999999,"N_COORD97":2547426.25,"ADDRESS":"永正路６３號三樓","OBJECTID":635667},"geometry":{"x":173539.86000000127,"y":2547426.2499999981}},{"attributes":{"ID":635695,"DIS_CODE":0,"TOWNNAME":"永康區","LI":"大橋里","LIN":"4鄰","STREET":"大橋五街","SECT":" ","MAREA":" ","LANE":" ","ALLEY":" ","HOUSE_NO":"１２１號六樓之１","E_COORD97":170941.81,"N_COORD97":2546963.6299999999,"ADDRESS":"大橋五街１２１號六樓之１","OBJECTID":635668},"geometry":{"x":170941.81000000145,"y":2546963.629999999}},{"attributes":{"ID":635696,"DIS_CODE":0,"TOWNNAME":"永康區","LI":"安康里","LIN":"26鄰","STREET":"大橋一街","SECT":" ","MAREA":" ","LANE":" ","ALLEY":" ","HOUSE_NO":"５３號十二樓之１","E_COORD97":170779.98000000001,"N_COORD97":2546346.7999999998,"ADDRESS":"大橋一街５３號十二樓之１","OBJECTID":635669},"geometry":{"x":170779.98000000045,"y":2546346.8000000026}},{"attributes":{"ID":635697,"DIS_CODE":0,"TOWNNAME":"永康區","LI":"永康里","LIN":"24鄰","STREET":"永正路","SECT":" ","MAREA":" ","LANE":" ","ALLEY":" ","HOUSE_NO":"４５號八樓之３","E_COORD97":173556.01999999999,"N_COORD97":2547363.5499999998,"ADDRESS":"永正路４５號八樓之３","OBJECTID":635670},"geometry":{"x":173556.02000000142,"y":2547363.5500000007}},{"attributes":{"ID":635698,"DIS_CODE":0,"TOWNNAME":"永康區","LI":"安康里","LIN":"4鄰","STREET":"大橋一街","SECT":" ","MAREA":" ","LANE":" ","ALLEY":" ","HOUSE_NO":"４７號十四樓之１","E_COORD97":170697.39999999999,"N_COORD97":2546297.9199999999,"ADDRESS":"大橋一街４７號十四樓之１","OBJECTID":635671},"geometry":{"x":170697.40000000037,"y":2546297.9200000018}},{"attributes":{"ID":635699,"DIS_CODE":0,"TOWNNAME":"永康區","LI":"北灣里","LIN":"32鄰","STREET":"大同街","SECT":" ","MAREA":" ","LANE":" ","ALLEY":" ","HOUSE_NO":"６９號七樓之６","E_COORD97":175148.06,"N_COORD97":2545427.5699999998,"ADDRESS":"大同街６９號七樓之６","OBJECTID":635672},"geometry":{"x":175148.06000000052,"y":2545427.570000004}},{"attributes":{"ID":635700,"DIS_CODE":0,"TOWNNAME":"永康區","LI":"安康里","LIN":"4鄰","STREET":"大橋一街","SECT":" ","MAREA":" ","LANE":" ","ALLEY":" ","HOUSE_NO":"４７號十一樓之１","E_COORD97":170697.39999999999,"N_COORD97":2546297.9199999999,"ADDRESS":"大橋一街４７號十一樓之１","OBJECTID":635673},"geometry":{"x":170697.40000000037,"y":2546297.9200000018}},{"attributes":{"ID":635701,"DIS_CODE":0,"TOWNNAME":"永康區","LI":"北灣里","LIN":"32鄰","STREET":"大同街","SECT":" ","MAREA":" ","LANE":" ","ALLEY":" ","HOUSE_NO":"６３號五樓之５","E_COORD97":175159.70999999999,"N_COORD97":2545424.0099999998,"ADDRESS":"大同街６３號五樓之５","OBJECTID":635674},"geometry":{"x":175159.70999999996,"y":2545424.0099999979}},{"attributes":{"ID":635702,"DIS_CODE":0,"TOWNNAME":"永康區","LI":"網寮里","LIN":"26鄰","STREET":"永興路","SECT":" ","MAREA":" ","LANE":" ","ALLEY":" ","HOUSE_NO":"１０７號九樓之１","E_COORD97":173910.35000000001,"N_COORD97":2546555.3900000001,"ADDRESS":"永興路１０７號九樓之１","OBJECTID":635675},"geometry":{"x":173910.35000000056,"y":2546555.3900000025}},{"attributes":{"ID":635703,"DIS_CODE":0,"TOWNNAME":"永康區","LI":"網寮里","LIN":"26鄰","STREET":"永華路","SECT":" ","MAREA":" ","LANE":" ","ALLEY":" ","HOUSE_NO":"５８０號六樓之２","E_COORD97":173897.01999999999,"N_COORD97":2546572.7999999998,"ADDRESS":"永華路５８０號六樓之２","OBJECTID":635676},"geometry":{"x":173897.02000000048,"y":2546572.8000000045}},{"attributes":{"ID":635704,"DIS_CODE":0,"TOWNNAME":"佳里區","LI":"安西里","LIN":"56鄰","STREET":"佳安北街","SECT":" ","MAREA":" ","LANE":" ","ALLEY":" ","HOUSE_NO":"１７號","E_COORD97":164001.5,"N_COORD97":2562418.1600000001,"ADDRESS":"佳安北街１７號","OBJECTID":635677},"geometry":{"x":164001.50000000093,"y":2562418.1600000001}},{"attributes":{"ID":635705,"DIS_CODE":0,"TOWNNAME":"永康區","LI":"永康里","LIN":"40鄰","STREET":"永大二路","SECT":" ","MAREA":" ","LANE":" ","ALLEY":" ","HOUSE_NO":"５０號四樓之２","E_COORD97":174243.48999999999,"N_COORD97":2546574.3399999999,"ADDRESS":"永大二路５０號四樓之２","OBJECTID":635678},"geometry":{"x":174243.49000000209,"y":2546574.3399999999}},{"attributes":{"ID":635706,"DIS_CODE":0,"TOWNNAME":"永康區","LI":"網寮里","LIN":"26鄰","STREET":"永華路","SECT":" ","MAREA":" ","LANE":" ","ALLEY":" ","HOUSE_NO":"５７２號十三樓之２","E_COORD97":173894.07999999999,"N_COORD97":2546554.5499999998,"ADDRESS":"永華路５７２號十三樓之２","OBJECTID":635679},"geometry":{"x":173894.08000000101,"y":2546554.5500000026}},{"attributes":{"ID":635707,"DIS_CODE":0,"TOWNNAME":"永康區","LI":"崑山里","LIN":"47鄰","STREET":"國光五街","SECT":" ","MAREA":" ","LANE":" ","ALLEY":" ","HOUSE_NO":"２號十樓之１","E_COORD97":174237.23999999999,"N_COORD97":2545059.54,"ADDRESS":"國光五街２號十樓之１","OBJECTID":635680},"geometry":{"x":174237.24000000115,"y":2545059.5399999991}},{"attributes":{"ID":635708,"DIS_CODE":0,"TOWNNAME":"永康區","LI":"復國里","LIN":"26鄰","STREET":"復華三街","SECT":" ","MAREA":" ","LANE":" ","ALLEY":" ","HOUSE_NO":"６２號九樓之５","E_COORD97":172710.62,"N_COORD97":2545562.9700000002,"ADDRESS":"復華三街６２號九樓之５","OBJECTID":635681},"geometry":{"x":172710.62000000104,"y":2545562.9700000007}},{"attributes":{"ID":635709,"DIS_CODE":0,"TOWNNAME":"永康區","LI":"網寮里","LIN":"26鄰","STREET":"永興路","SECT":" ","MAREA":" ","LANE":" ","ALLEY":" ","HOUSE_NO":"１０７號四樓之２","E_COORD97":173910.48000000001,"N_COORD97":2546555.3900000001,"ADDRESS":"永興路１０７號四樓之２","OBJECTID":635682},"geometry":{"x":173910.48000000138,"y":2546555.3900000025}},{"attributes":{"ID":635710,"DIS_CODE":0,"TOWNNAME":"永康區","LI":"網寮里","LIN":"26鄰","STREET":"永興路","SECT":" ","MAREA":" ","LANE":" ","ALLEY":" ","HOUSE_NO":"１０７號十樓之１","E_COORD97":173910.35000000001,"N_COORD97":2546555.3900000001,"ADDRESS":"永興路１０７號十樓之１","OBJECTID":635683},"geometry":{"x":173910.35000000056,"y":2546555.3900000025}},{"attributes":{"ID":635711,"DIS_CODE":0,"TOWNNAME":"永康區","LI":"\u25A0行里","LIN":"42鄰","STREET":"永安二街","SECT":" ","MAREA":" ","LANE":" ","ALLEY":" ","HOUSE_NO":"１號三樓之２","E_COORD97":172490.22,"N_COORD97":2549594.3300000001,"ADDRESS":"永安二街１號三樓之２","OBJECTID":635684},"geometry":{"x":172490.2200000016,"y":2549594.3300000001}},{"attributes":{"ID":635712,"DIS_CODE":0,"TOWNNAME":"永康區","LI":"復國里","LIN":"20鄰","STREET":"國華街","SECT":" ","MAREA":" ","LANE":" ","ALLEY":" ","HOUSE_NO":"５５號七樓之４","E_COORD97":172799.45000000001,"N_COORD97":2545761.4199999999,"ADDRESS":"國華街５５號七樓之４","OBJECTID":635685},"geometry":{"x":172799.45000000205,"y":2545761.4200000018}},{"attributes":{"ID":635713,"DIS_CODE":0,"TOWNNAME":"永康區","LI":"網寮里","LIN":"26鄰","STREET":"永興路","SECT":" ","MAREA":" ","LANE":" ","ALLEY":" ","HOUSE_NO":"６９號十樓之２","E_COORD97":174038.95000000001,"N_COORD97":2546534.2999999998,"ADDRESS":"永興路６９號十樓之２","OBJECTID":635686},"geometry":{"x":174038.95000000112,"y":2546534.3000000007}},{"attributes":{"ID":635714,"DIS_CODE":0,"TOWNNAME":"永康區","LI":"復國里","LIN":"26鄰","STREET":"復華三街","SECT":" ","MAREA":" ","LANE":" ","ALLEY":" ","HOUSE_NO":"６４號十四樓之３","E_COORD97":172720.97,"N_COORD97":2545600.2999999998,"ADDRESS":"復華三街６４號十四樓之３","OBJECTID":635687},"geometry":{"x":172720.97000000067,"y":2545600.3000000026}},{"attributes":{"ID":635715,"DIS_CODE":0,"TOWNNAME":"永康區","LI":"復國里","LIN":"34鄰","STREET":"復華一街","SECT":" ","MAREA":" ","LANE":" ","ALLEY":" ","HOUSE_NO":"７３號六樓之１","E_COORD97":172520.01000000001,"N_COORD97":2545071.0499999998,"ADDRESS":"復華一街７３號六樓之１","OBJECTID":635688},"geometry":{"x":172520.00999999978,"y":2545071.0500000007}},{"attributes":{"ID":635716,"DIS_CODE":0,"TOWNNAME":"永康區","LI":"東灣里","LIN":"17鄰","STREET":"大灣三街","SECT":" ","MAREA":" ","LANE":" ","ALLEY":" ","HOUSE_NO":"４３號六樓之２","E_COORD97":174978.95999999999,"N_COORD97":2544922.3799999999,"ADDRESS":"大灣三街４３號六樓之２","OBJECTID":635689},"geometry":{"x":174978.95999999903,"y":2544922.3800000027}},{"attributes":{"ID":635717,"DIS_CODE":0,"TOWNNAME":"永康區","LI":"二王里","LIN":"8鄰","STREET":"二王路","SECT":" ","MAREA":" ","LANE":" ","ALLEY":" ","HOUSE_NO":"１６號十一樓之１","E_COORD97":172976.29999999999,"N_COORD97":2546819.7999999998,"ADDRESS":"二王路１６號十一樓之１","OBJECTID":635690},"geometry":{"x":172976.30000000168,"y":2546819.7999999989}},{"attributes":{"ID":635718,"DIS_CODE":0,"TOWNNAME":"永康區","LI":"六合里","LIN":"1鄰","STREET":"新興街","SECT":" ","MAREA":" ","LANE":" ","ALLEY":" ","HOUSE_NO":"２號六樓之３","E_COORD97":170911.95999999999,"N_COORD97":2545758.73,"ADDRESS":"新興街２號六樓之３","OBJECTID":635691},"geometry":{"x":170911.95999999996,"y":2545758.7300000004}},{"attributes":{"ID":635719,"DIS_CODE":0,"TOWNNAME":"永康區","LI":"復華里","LIN":"4鄰","STREET":"復國二路","SECT":" ","MAREA":" ","LANE":" ","ALLEY":" ","HOUSE_NO":"２４５號三樓之５","E_COORD97":173019.35000000001,"N_COORD97":2546116.2999999998,"ADDRESS":"復國二路２４５號三樓之５","OBJECTID":635692},"geometry":{"x":173019.34999999963,"y":2546116.3000000026}},{"attributes":{"ID":635720,"DIS_CODE":0,"TOWNNAME":"永康區","LI":"網寮里","LIN":"26鄰","STREET":"永興路","SECT":" ","MAREA":" ","LANE":" ","ALLEY":" ","HOUSE_NO":"６９號六樓之１","E_COORD97":174038.82000000001,"N_COORD97":2546534.2999999998,"ADDRESS":"永興路６９號六樓之１","OBJECTID":635693},"geometry":{"x":174038.8200000003,"y":2546534.3000000007}},{"attributes":{"ID":635721,"DIS_CODE":0,"TOWNNAME":"永康區","LI":"\u25A0洲里","LIN":"39鄰","STREET":"\u25A0洲一街","SECT":" ","MAREA":" ","LANE":" ","ALLEY":" ","HOUSE_NO":"４７號二樓之１","E_COORD97":171597.42999999999,"N_COORD97":2549085.2999999998,"ADDRESS":"\u25A0洲一街４７號二樓之１","OBJECTID":635694},"geometry":{"x":171597.43000000063,"y":2549085.3000000026}},{"attributes":{"ID":635722,"DIS_CODE":0,"TOWNNAME":"永康區","LI":"北灣里","LIN":"32鄰","STREET":"大同街","SECT":" ","MAREA":" ","LANE":" ","ALLEY":" ","HOUSE_NO":"６９號六樓之３","E_COORD97":175148.06,"N_COORD97":2545427.5699999998,"ADDRESS":"大同街６９號六樓之３","OBJECTID":635695},"geometry":{"x":175148.06000000052,"y":2545427.570000004}},{"attributes":{"ID":635723,"DIS_CODE":0,"TOWNNAME":"永康區","LI":"\u25A0行里","LIN":"42鄰","STREET":"永安二街","SECT":" ","MAREA":" ","LANE":" ","ALLEY":" ","HOUSE_NO":"１號五樓之３","E_COORD97":172490.19,"N_COORD97":2549594.3300000001,"ADDRESS":"永安二街１號五樓之３","OBJECTID":635696},"geometry":{"x":172490.19000000134,"y":2549594.3300000001}},{"attributes":{"ID":635724,"DIS_CODE":0,"TOWNNAME":"永康區","LI":"崑山里","LIN":"47鄰","STREET":"國光五街","SECT":" ","MAREA":" ","LANE":" ","ALLEY":" ","HOUSE_NO":"２號之３十四樓之３","E_COORD97":174256.06,"N_COORD97":2545100.1499999999,"ADDRESS":"國光五街２號之３十四樓之３","OBJECTID":635697},"geometry":{"x":174256.06000000052,"y":2545100.1500000004}},{"attributes":{"ID":635725,"DIS_CODE":0,"TOWNNAME":"永康區","LI":"崑山里","LIN":"38鄰","STREET":"崑山街","SECT":" ","MAREA":" ","LANE":" ","ALLEY":" ","HOUSE_NO":"１９１號七樓之１","E_COORD97":174056.89999999999,"N_COORD97":2544968.3999999999,"ADDRESS":"崑山街１９１號七樓之１","OBJECTID":635698},"geometry":{"x":174056.90000000037,"y":2544968.4000000022}},{"attributes":{"ID":635726,"DIS_CODE":0,"TOWNNAME":"永康區","LI":"網寮里","LIN":"26鄰","STREET":"永興路","SECT":" ","MAREA":" ","LANE":" ","ALLEY":" ","HOUSE_NO":"１０９號十樓之１","E_COORD97":173913.64000000001,"N_COORD97":2546579.6400000001,"ADDRESS":"永興路１０９號十樓之１","OBJECTID":635699},"geometry":{"x":173913.6400000006,"y":2546579.6400000006}},{"attributes":{"ID":635727,"DIS_CODE":0,"TOWNNAME":"永康區","LI":"龍潭里","LIN":"5鄰","STREET":"龍埔街","SECT":" ","MAREA":" ","LANE":" ","ALLEY":" ","HOUSE_NO":"８５號十樓之１０","E_COORD97":174620.98999999999,"N_COORD97":2548225.75,"ADDRESS":"龍埔街８５號十樓之１０","OBJECTID":635700},"geometry":{"x":174620.99000000022,"y":2548225.75}},{"attributes":{"ID":635728,"DIS_CODE":0,"TOWNNAME":"永康區","LI":"龍潭里","LIN":"5鄰","STREET":"龍埔街","SECT":" ","MAREA":" ","LANE":" ","ALLEY":" ","HOUSE_NO":"８５號六樓之８","E_COORD97":174619.84,"N_COORD97":2548225.75,"ADDRESS":"龍埔街８５號六樓之８","OBJECTID":635701},"geometry":{"x":174619.83999999985,"y":2548225.75}},{"attributes":{"ID":635729,"DIS_CODE":0,"TOWNNAME":"永康區","LI":"網寮里","LIN":"26鄰","STREET":"永興路","SECT":" ","MAREA":" ","LANE":" ","ALLEY":" ","HOUSE_NO":"６５號五樓之２","E_COORD97":174047.19,"N_COORD97":2546517.5499999998,"ADDRESS":"永興路６５號五樓之２","OBJECTID":635702},"geometry":{"x":174047.18999999948,"y":2546517.5500000026}},{"attributes":{"ID":635730,"DIS_CODE":0,"TOWNNAME":"永康區","LI":"正強里","LIN":"41鄰","STREET":"正強街","SECT":" ","MAREA":" ","LANE":" ","ALLEY":" ","HOUSE_NO":"２９８號十三樓之１","E_COORD97":173293.42000000001,"N_COORD97":2547971.0499999998,"ADDRESS":"正強街２９８號十三樓之１","OBJECTID":635703},"geometry":{"x":173293.41999999993,"y":2547971.0500000045}},{"attributes":{"ID":635731,"DIS_CODE":0,"TOWNNAME":"永康區","LI":"\u25A0行里","LIN":"42鄰","STREET":"永安二街","SECT":" ","MAREA":" ","LANE":" ","ALLEY":" ","HOUSE_NO":"１號三樓之３","E_COORD97":172490.19,"N_COORD97":2549594.3300000001,"ADDRESS":"永安二街１號三樓之３","OBJECTID":635704},"geometry":{"x":172490.19000000134,"y":2549594.3300000001}},{"attributes":{"ID":635732,"DIS_CODE":0,"TOWNNAME":"永康區","LI":"大橋里","LIN":"4鄰","STREET":"大橋五街","SECT":" ","MAREA":" ","LANE":" ","ALLEY":" ","HOUSE_NO":"１４３號六樓之５","E_COORD97":170978.84,"N_COORD97":2546989.3599999999,"ADDRESS":"大橋五街１４３號六樓之５","OBJECTID":635705},"geometry":{"x":170978.83999999985,"y":2546989.3600000013}},{"attributes":{"ID":635733,"DIS_CODE":0,"TOWNNAME":"永康區","LI":"大橋里","LIN":"4鄰","STREET":"大橋五街","SECT":" ","MAREA":" ","LANE":" ","ALLEY":" ","HOUSE_NO":"１４３號八樓之５","E_COORD97":170978.84,"N_COORD97":2546989.3599999999,"ADDRESS":"大橋五街１４３號八樓之５","OBJECTID":635706},"geometry":{"x":170978.83999999985,"y":2546989.3600000013}},{"attributes":{"ID":635734,"DIS_CODE":0,"TOWNNAME":"永康區","LI":"網寮里","LIN":"20鄰","STREET":"文化路","SECT":" ","MAREA":" ","LANE":" ","ALLEY":" ","HOUSE_NO":"３１５號七樓之１","E_COORD97":173450.25,"N_COORD97":2546134.21,"ADDRESS":"文化路３１５號七樓之１","OBJECTID":635707},"geometry":{"x":173450.25000000093,"y":2546134.2100000028}},{"attributes":{"ID":635735,"DIS_CODE":0,"TOWNNAME":"永康區","LI":"網寮里","LIN":"26鄰","STREET":"永興路","SECT":" ","MAREA":" ","LANE":" ","ALLEY":" ","HOUSE_NO":"１０９號十三樓之１","E_COORD97":173914.89000000001,"N_COORD97":2546579.6400000001,"ADDRESS":"永興路１０９號十三樓之１","OBJECTID":635708},"geometry":{"x":173914.8900000006,"y":2546579.6400000006}},{"attributes":{"ID":635736,"DIS_CODE":0,"TOWNNAME":"永康區","LI":"大橋里","LIN":"4鄰","STREET":"大橋五街","SECT":" ","MAREA":" ","LANE":" ","ALLEY":" ","HOUSE_NO":"１３７號七樓之１","E_COORD97":170961.78,"N_COORD97":2546977.6699999999,"ADDRESS":"大橋五街１３７號七樓之１","OBJECTID":635709},"geometry":{"x":170961.78000000119,"y":2546977.6700000018}},{"attributes":{"ID":635737,"DIS_CODE":0,"TOWNNAME":"永康區","LI":"永康里","LIN":"26鄰","STREET":"永大路","SECT":"二段","MAREA":" ","LANE":" ","ALLEY":" ","HOUSE_NO":"１１２９號十三樓之５","E_COORD97":174199.84,"N_COORD97":2547482.3599999999,"ADDRESS":"永大路二段１１２９號十三樓之５","OBJECTID":635710},"geometry":{"x":174199.83999999892,"y":2547482.3599999994}},{"attributes":{"ID":635738,"DIS_CODE":0,"TOWNNAME":"永康區","LI":"永康里","LIN":"26鄰","STREET":"中山北路","SECT":" ","MAREA":" ","LANE":" ","ALLEY":" ","HOUSE_NO":"１１４號九樓之４","E_COORD97":174163.76000000001,"N_COORD97":2547447.25,"ADDRESS":"中山北路１１４號九樓之４","OBJECTID":635711},"geometry":{"x":174163.76000000071,"y":2547447.2500000019}},{"attributes":{"ID":635739,"DIS_CODE":0,"TOWNNAME":"永康區","LI":"永康里","LIN":"26鄰","STREET":"永大路","SECT":"二段","MAREA":" ","LANE":" ","ALLEY":" ","HOUSE_NO":"１１２９號十八樓之２","E_COORD97":174199.82000000001,"N_COORD97":2547482.3599999999,"ADDRESS":"永大路二段１１２９號十八樓之２","OBJECTID":635712},"geometry":{"x":174199.8200000003,"y":2547482.3599999994}},{"attributes":{"ID":635740,"DIS_CODE":0,"TOWNNAME":"永康區","LI":"安康里","LIN":"25鄰","STREET":"中華路","SECT":" ","MAREA":" ","LANE":" ","ALLEY":" ","HOUSE_NO":"７２３號三樓","E_COORD97":170870.10000000001,"N_COORD97":2546378,"ADDRESS":"中華路７２３號三樓","OBJECTID":635713},"geometry":{"x":170870.09999999963,"y":2546378.0000000019}},{"attributes":{"ID":635741,"DIS_CODE":0,"TOWNNAME":"永康區","LI":"永康里","LIN":"26鄰","STREET":"永大路","SECT":"二段","MAREA":" ","LANE":" ","ALLEY":" ","HOUSE_NO":"１１２９號十六樓之１","E_COORD97":174199.69,"N_COORD97":2547482.3599999999,"ADDRESS":"永大路二段１１２９號十六樓之１","OBJECTID":635714},"geometry":{"x":174199.69000000041,"y":2547482.3599999994}},{"attributes":{"ID":635742,"DIS_CODE":0,"TOWNNAME":"永康區","LI":"大橋里","LIN":"4鄰","STREET":"大橋五街","SECT":" ","MAREA":" ","LANE":" ","ALLEY":" ","HOUSE_NO":"１２５號四樓","E_COORD97":170928.54000000001,"N_COORD97":2546983.3700000001,"ADDRESS":"大橋五街１２５號四樓","OBJECTID":635715},"geometry":{"x":170928.54000000004,"y":2546983.3700000029}},{"attributes":{"ID":635743,"DIS_CODE":0,"TOWNNAME":"永康區","LI":"大橋里","LIN":"5鄰","STREET":"大橋五街","SECT":" ","MAREA":" ","LANE":" ","ALLEY":" ","HOUSE_NO":"１０號六樓之２","E_COORD97":170794.63,"N_COORD97":2546814.75,"ADDRESS":"大橋五街１０號六樓之２","OBJECTID":635716},"geometry":{"x":170794.63000000082,"y":2546814.75}},{"attributes":{"ID":635744,"DIS_CODE":0,"TOWNNAME":"永康區","LI":"永康里","LIN":"26鄰","STREET":"中山北路","SECT":" ","MAREA":" ","LANE":" ","ALLEY":" ","HOUSE_NO":"１１４號十八樓之４","E_COORD97":174165.01000000001,"N_COORD97":2547447.25,"ADDRESS":"中山北路１１４號十八樓之４","OBJECTID":635717},"geometry":{"x":174165.01000000071,"y":2547447.2500000019}},{"attributes":{"ID":635745,"DIS_CODE":0,"TOWNNAME":"永康區","LI":"永康里","LIN":"39鄰","STREET":"永大一路","SECT":" ","MAREA":" ","LANE":" ","ALLEY":" ","HOUSE_NO":"６２號十一樓之４","E_COORD97":174181.82000000001,"N_COORD97":2546456.7200000002,"ADDRESS":"永大一路６２號十一樓之４","OBJECTID":635718},"geometry":{"x":174181.81999999937,"y":2546456.7200000007}},{"attributes":{"ID":635746,"DIS_CODE":0,"TOWNNAME":"永康區","LI":"五王里","LIN":"1鄰","STREET":"成功路","SECT":" ","MAREA":" ","LANE":" ","ALLEY":" ","HOUSE_NO":"６０號二樓之３","E_COORD97":171546.84,"N_COORD97":2545481.2999999998,"ADDRESS":"成功路６０號二樓之３","OBJECTID":635719},"geometry":{"x":171546.83999999892,"y":2545481.3000000026}},{"attributes":{"ID":635747,"DIS_CODE":0,"TOWNNAME":"永康區","LI":"大橋里","LIN":"4鄰","STREET":"大橋五街","SECT":" ","MAREA":" ","LANE":" ","ALLEY":" ","HOUSE_NO":"１３７號三樓之３","E_COORD97":170961.88,"N_COORD97":2546977.6699999999,"ADDRESS":"大橋五街１３７號三樓之３","OBJECTID":635720},"geometry":{"x":170961.88000000175,"y":2546977.6700000018}},{"attributes":{"ID":635748,"DIS_CODE":0,"TOWNNAME":"永康區","LI":"大橋里","LIN":"5鄰","STREET":"大橋三街","SECT":" ","MAREA":" ","LANE":" ","ALLEY":" ","HOUSE_NO":"１９１號六樓之２","E_COORD97":170843.14999999999,"N_COORD97":2546766.4100000001,"ADDRESS":"大橋三街１９１號六樓之２","OBJECTID":635721},"geometry":{"x":170843.15000000037,"y":2546766.4100000001}},{"attributes":{"ID":635749,"DIS_CODE":0,"TOWNNAME":"永康區","LI":"五王里","LIN":"42鄰","STREET":"五福街","SECT":" ","MAREA":" ","LANE":" ","ALLEY":" ","HOUSE_NO":"１８５號五樓之２","E_COORD97":171670.73000000001,"N_COORD97":2546058.6400000001,"ADDRESS":"五福街１８５號五樓之２","OBJECTID":635722},"geometry":{"x":171670.73000000138,"y":2546058.6400000025}},{"attributes":{"ID":635750,"DIS_CODE":0,"TOWNNAME":"永康區","LI":"大橋里","LIN":"4鄰","STREET":"大橋五街","SECT":" ","MAREA":" ","LANE":" ","ALLEY":" ","HOUSE_NO":"９３號二樓之１","E_COORD97":170877.06,"N_COORD97":2546938.3300000001,"ADDRESS":"大橋五街９３號二樓之１","OBJECTID":635723},"geometry":{"x":170877.05999999959,"y":2546938.3300000019}},{"attributes":{"ID":635751,"DIS_CODE":0,"TOWNNAME":"永康區","LI":"安康里","LIN":"4鄰","STREET":"大橋一街","SECT":" ","MAREA":" ","LANE":" ","ALLEY":" ","HOUSE_NO":"４７號四樓之２","E_COORD97":170696.29000000001,"N_COORD97":2546297.9199999999,"ADDRESS":"大橋一街４７號四樓之２","OBJECTID":635724},"geometry":{"x":170696.29000000004,"y":2546297.9200000018}},{"attributes":{"ID":635752,"DIS_CODE":0,"TOWNNAME":"永康區","LI":"大橋里","LIN":"18鄰","STREET":"大橋二街","SECT":" ","MAREA":" ","LANE":" ","ALLEY":" ","HOUSE_NO":"１９２號十二樓之１","E_COORD97":171135.97,"N_COORD97":2546764.96,"ADDRESS":"大橋二街１９２號十二樓之１","OBJECTID":635725},"geometry":{"x":171135.97000000067,"y":2546764.9600000046}},{"attributes":{"ID":635753,"DIS_CODE":0,"TOWNNAME":"永康區","LI":"永康里","LIN":"26鄰","STREET":"中山北路","SECT":" ","MAREA":" ","LANE":" ","ALLEY":" ","HOUSE_NO":"１１４號十五樓之３","E_COORD97":174165.09,"N_COORD97":2547447.25,"ADDRESS":"中山北路１１４號十五樓之３","OBJECTID":635726},"geometry":{"x":174165.09000000078,"y":2547447.2500000019}},{"attributes":{"ID":635754,"DIS_CODE":0,"TOWNNAME":"永康區","LI":"永康里","LIN":"26鄰","STREET":"永大路","SECT":"二段","MAREA":" ","LANE":" ","ALLEY":" ","HOUSE_NO":"１１２９號五樓之６","E_COORD97":174198.54000000001,"N_COORD97":2547482.3599999999,"ADDRESS":"永大路二段１１２９號五樓之６","OBJECTID":635727},"geometry":{"x":174198.54000000004,"y":2547482.3599999994}},{"attributes":{"ID":635755,"DIS_CODE":0,"TOWNNAME":"永康區","LI":"永康里","LIN":"26鄰","STREET":"永大路","SECT":"二段","MAREA":" ","LANE":" ","ALLEY":" ","HOUSE_NO":"１１２９號十六樓之７","E_COORD97":174199.76999999999,"N_COORD97":2547482.3599999999,"ADDRESS":"永大路二段１１２９號十六樓之７","OBJECTID":635728},"geometry":{"x":174199.76999999955,"y":2547482.3599999994}},{"attributes":{"ID":635756,"DIS_CODE":0,"TOWNNAME":"永康區","LI":"永康里","LIN":"39鄰","STREET":"永大一路","SECT":" ","MAREA":" ","LANE":" ","ALLEY":" ","HOUSE_NO":"６２號五樓之２","E_COORD97":174180.67000000001,"N_COORD97":2546456.7200000002,"ADDRESS":"永大一路６２號五樓之２","OBJECTID":635729},"geometry":{"x":174180.66999999993,"y":2546456.7200000007}},{"attributes":{"ID":635757,"DIS_CODE":0,"TOWNNAME":"永康區","LI":"永康里","LIN":"39鄰","STREET":"永大一路","SECT":" ","MAREA":" ","LANE":" ","ALLEY":" ","HOUSE_NO":"６２號九樓之４","E_COORD97":174180.57000000001,"N_COORD97":2546456.7200000002,"ADDRESS":"永大一路６２號九樓之４","OBJECTID":635730},"geometry":{"x":174180.57000000123,"y":2546456.7200000007}},{"attributes":{"ID":635758,"DIS_CODE":0,"TOWNNAME":"永康區","LI":"六合里","LIN":"1鄰","STREET":"新興街","SECT":" ","MAREA":" ","LANE":" ","ALLEY":" ","HOUSE_NO":"８號十樓之６","E_COORD97":170922.67999999999,"N_COORD97":2545756.79,"ADDRESS":"新興街８號十樓之６","OBJECTID":635731},"geometry":{"x":170922.68000000063,"y":2545756.7899999991}},{"attributes":{"ID":635759,"DIS_CODE":0,"TOWNNAME":"永康區","LI":"大橋里","LIN":"18鄰","STREET":"大橋二街","SECT":" ","MAREA":" ","LANE":" ","ALLEY":" ","HOUSE_NO":"１８６號八樓之１","E_COORD97":171107.63,"N_COORD97":2546778.8999999999,"ADDRESS":"大橋二街１８６號八樓之１","OBJECTID":635732},"geometry":{"x":171107.63000000175,"y":2546778.9000000022}},{"attributes":{"ID":635760,"DIS_CODE":0,"TOWNNAME":"永康區","LI":"永康里","LIN":"26鄰","STREET":"中山北路","SECT":" ","MAREA":" ","LANE":" ","ALLEY":" ","HOUSE_NO":"７０號二樓之１","E_COORD97":174075.35000000001,"N_COORD97":2547398.25,"ADDRESS":"中山北路７０號二樓之１","OBJECTID":635733},"geometry":{"x":174075.34999999963,"y":2547398.25}},{"attributes":{"ID":635761,"DIS_CODE":0,"TOWNNAME":"永康區","LI":"永康里","LIN":"26鄰","STREET":"中山北路","SECT":" ","MAREA":" ","LANE":" ","ALLEY":" ","HOUSE_NO":"７２號八樓","E_COORD97":174074.85000000001,"N_COORD97":2547388.7200000002,"ADDRESS":"中山北路７２號八樓","OBJECTID":635734},"geometry":{"x":174074.85000000056,"y":2547388.7200000007}},{"attributes":{"ID":635762,"DIS_CODE":0,"TOWNNAME":"永康區","LI":"安康里","LIN":"25鄰","STREET":"大橋一街","SECT":" ","MAREA":" ","LANE":" ","ALLEY":" ","HOUSE_NO":"１４４號四樓","E_COORD97":170862.06,"N_COORD97":2546356.5,"ADDRESS":"大橋一街１４４號四樓","OBJECTID":635735},"geometry":{"x":170862.06000000145,"y":2546356.5}},{"attributes":{"ID":635763,"DIS_CODE":0,"TOWNNAME":"永康區","LI":"大橋里","LIN":"5鄰","STREET":"大橋五街","SECT":" ","MAREA":" ","LANE":" ","ALLEY":" ","HOUSE_NO":"２號六樓之１","E_COORD97":170770.03,"N_COORD97":2546837.54,"ADDRESS":"大橋五街２號六樓之１","OBJECTID":635736},"geometry":{"x":170770.03000000119,"y":2546837.540000001}},{"attributes":{"ID":635764,"DIS_CODE":0,"TOWNNAME":"永康區","LI":"大橋里","LIN":"18鄰","STREET":"大橋二街","SECT":" ","MAREA":" ","LANE":" ","ALLEY":" ","HOUSE_NO":"１９２號三樓之３","E_COORD97":171134.82000000001,"N_COORD97":2546764.96,"ADDRESS":"大橋二街１９２號三樓之３","OBJECTID":635737},"geometry":{"x":171134.8200000003,"y":2546764.9600000046}},{"attributes":{"ID":635765,"DIS_CODE":0,"TOWNNAME":"永康區","LI":"永康里","LIN":"26鄰","STREET":"永大路","SECT":"二段","MAREA":" ","LANE":" ","ALLEY":" ","HOUSE_NO":"１１２９號九樓之３","E_COORD97":174198.54000000001,"N_COORD97":2547482.3599999999,"ADDRESS":"永大路二段１１２９號九樓之３","OBJECTID":635738},"geometry":{"x":174198.54000000004,"y":2547482.3599999994}},{"attributes":{"ID":635766,"DIS_CODE":0,"TOWNNAME":"永康區","LI":"永康里","LIN":"39鄰","STREET":"永大一路","SECT":" ","MAREA":" ","LANE":" ","ALLEY":" ","HOUSE_NO":"６２號十一樓之８","E_COORD97":174181.94,"N_COORD97":2546456.7200000002,"ADDRESS":"永大一路６２號十一樓之８","OBJECTID":635739},"geometry":{"x":174181.94000000134,"y":2546456.7200000007}},{"attributes":{"ID":635767,"DIS_CODE":0,"TOWNNAME":"永康區","LI":"安康里","LIN":"4鄰","STREET":"大橋一街","SECT":" ","MAREA":" ","LANE":" ","ALLEY":" ","HOUSE_NO":"４７號七樓之２","E_COORD97":170696.29000000001,"N_COORD97":2546297.9199999999,"ADDRESS":"大橋一街４７號七樓之２","OBJECTID":635740},"geometry":{"x":170696.29000000004,"y":2546297.9200000018}},{"attributes":{"ID":635768,"DIS_CODE":0,"TOWNNAME":"永康區","LI":"西灣里","LIN":"25鄰","STREET":"國光七街","SECT":" ","MAREA":" ","LANE":" ","ALLEY":" ","HOUSE_NO":"２４號三樓","E_COORD97":174297.73999999999,"N_COORD97":2545539.8900000001,"ADDRESS":"國光七街２４號三樓","OBJECTID":635741},"geometry":{"x":174297.74000000209,"y":2545539.8900000006}},{"attributes":{"ID":635769,"DIS_CODE":0,"TOWNNAME":"永康區","LI":"永康里","LIN":"26鄰","STREET":"中山北路","SECT":" ","MAREA":" ","LANE":" ","ALLEY":" ","HOUSE_NO":"１１４號十九樓之３","E_COORD97":174165.09,"N_COORD97":2547447.25,"ADDRESS":"中山北路１１４號十九樓之３","OBJECTID":635742},"geometry":{"x":174165.09000000078,"y":2547447.2500000019}},{"attributes":{"ID":635770,"DIS_CODE":0,"TOWNNAME":"永康區","LI":"大橋里","LIN":"18鄰","STREET":"大橋二街","SECT":" ","MAREA":" ","LANE":" ","ALLEY":" ","HOUSE_NO":"１８６號十二樓之１","E_COORD97":171108.88,"N_COORD97":2546778.8999999999,"ADDRESS":"大橋二街１８６號十二樓之１","OBJECTID":635743},"geometry":{"x":171108.87999999989,"y":2546778.9000000022}},{"attributes":{"ID":635771,"DIS_CODE":0,"TOWNNAME":"永康區","LI":"大橋里","LIN":"18鄰","STREET":"大橋二街","SECT":" ","MAREA":" ","LANE":" ","ALLEY":" ","HOUSE_NO":"１８６號十一樓之３","E_COORD97":171108.98000000001,"N_COORD97":2546778.8999999999,"ADDRESS":"大橋二街１８６號十一樓之３","OBJECTID":635744},"geometry":{"x":171108.98000000045,"y":2546778.9000000022}},{"attributes":{"ID":635772,"DIS_CODE":0,"TOWNNAME":"永康區","LI":"安康里","LIN":"26鄰","STREET":"大橋一街","SECT":" ","MAREA":" ","LANE":" ","ALLEY":" ","HOUSE_NO":"５３號七樓之２","E_COORD97":170778.87,"N_COORD97":2546346.7999999998,"ADDRESS":"大橋一街５３號七樓之２","OBJECTID":635745},"geometry":{"x":170778.87000000011,"y":2546346.8000000026}},{"attributes":{"ID":635773,"DIS_CODE":0,"TOWNNAME":"永康區","LI":"安康里","LIN":"25鄰","STREET":"大橋一街","SECT":" ","MAREA":" ","LANE":" ","ALLEY":" ","HOUSE_NO":"１５０號三樓之２","E_COORD97":170864.82000000001,"N_COORD97":2546376.79,"ADDRESS":"大橋一街１５０號三樓之２","OBJECTID":635746},"geometry":{"x":170864.82000000123,"y":2546376.7899999991}},{"attributes":{"ID":635774,"DIS_CODE":0,"TOWNNAME":"學甲區","LI":"慈福里","LIN":"26鄰","STREET":"中山路","SECT":" ","MAREA":" ","LANE":" ","ALLEY":" ","HOUSE_NO":"８７號八樓","E_COORD97":166250.22,"N_COORD97":2570455.1600000001,"ADDRESS":"中山路８７號八樓","OBJECTID":635747},"geometry":{"x":166250.2200000016,"y":2570455.160000002}},{"attributes":{"ID":635775,"DIS_CODE":0,"TOWNNAME":"永康區","LI":"永康里","LIN":"39鄰","STREET":"永大一路","SECT":" ","MAREA":" ","LANE":" ","ALLEY":" ","HOUSE_NO":"６２號六樓之８","E_COORD97":174180.69,"N_COORD97":2546456.7200000002,"ADDRESS":"永大一路６２號六樓之８","OBJECTID":635748},"geometry":{"x":174180.69000000041,"y":2546456.7200000007}},{"attributes":{"ID":635776,"DIS_CODE":0,"TOWNNAME":"永康區","LI":"安康里","LIN":"4鄰","STREET":"大橋一街","SECT":" ","MAREA":" ","LANE":" ","ALLEY":" ","HOUSE_NO":"４７號六樓之１","E_COORD97":170696.14999999999,"N_COORD97":2546297.9199999999,"ADDRESS":"大橋一街４７號六樓之１","OBJECTID":635749},"geometry":{"x":170696.15000000224,"y":2546297.9200000018}},{"attributes":{"ID":635777,"DIS_CODE":0,"TOWNNAME":"永康區","LI":"安康里","LIN":"4鄰","STREET":"大橋一街","SECT":" ","MAREA":" ","LANE":" ","ALLEY":" ","HOUSE_NO":"４７號十三樓之２","E_COORD97":170697.54000000001,"N_COORD97":2546297.9199999999,"ADDRESS":"大橋一街４７號十三樓之２","OBJECTID":635750},"geometry":{"x":170697.54000000004,"y":2546297.9200000018}},{"attributes":{"ID":635778,"DIS_CODE":0,"TOWNNAME":"永康區","LI":"安康里","LIN":"4鄰","STREET":"大橋一街","SECT":" ","MAREA":" ","LANE":" ","ALLEY":" ","HOUSE_NO":"４７號十二樓之２","E_COORD97":170697.54000000001,"N_COORD97":2546297.9199999999,"ADDRESS":"大橋一街４７號十二樓之２","OBJECTID":635751},"geometry":{"x":170697.54000000004,"y":2546297.9200000018}},{"attributes":{"ID":635779,"DIS_CODE":0,"TOWNNAME":"永康區","LI":"永康里","LIN":"26鄰","STREET":"中山北路","SECT":" ","MAREA":" ","LANE":" ","ALLEY":" ","HOUSE_NO":"１１４號七樓之１","E_COORD97":174163.73999999999,"N_COORD97":2547447.25,"ADDRESS":"中山北路１１４號七樓之１","OBJECTID":635752},"geometry":{"x":174163.74000000209,"y":2547447.2500000019}},{"attributes":{"ID":635780,"DIS_CODE":0,"TOWNNAME":"永康區","LI":"永康里","LIN":"39鄰","STREET":"永大一路","SECT":" ","MAREA":" ","LANE":" ","ALLEY":" ","HOUSE_NO":"６２號八樓之３","E_COORD97":174180.64000000001,"N_COORD97":2546456.7200000002,"ADDRESS":"永大一路６２號八樓之３","OBJECTID":635753},"geometry":{"x":174180.63999999873,"y":2546456.7200000007}},{"attributes":{"ID":635781,"DIS_CODE":0,"TOWNNAME":"永康區","LI":"安康里","LIN":"4鄰","STREET":"大橋一街","SECT":" ","MAREA":" ","LANE":" ","ALLEY":" ","HOUSE_NO":"４７號九樓之２","E_COORD97":170696.29000000001,"N_COORD97":2546297.9199999999,"ADDRESS":"大橋一街４７號九樓之２","OBJECTID":635754},"geometry":{"x":170696.29000000004,"y":2546297.9200000018}},{"attributes":{"ID":635782,"DIS_CODE":0,"TOWNNAME":"永康區","LI":"安康里","LIN":"26鄰","STREET":"大橋一街","SECT":" ","MAREA":" ","LANE":" ","ALLEY":" ","HOUSE_NO":"５３號九樓之１","E_COORD97":170778.73000000001,"N_COORD97":2546346.7999999998,"ADDRESS":"大橋一街５３號九樓之１","OBJECTID":635755},"geometry":{"x":170778.73000000231,"y":2546346.8000000026}},{"attributes":{"ID":635783,"DIS_CODE":0,"TOWNNAME":"永康區","LI":"安康里","LIN":"25鄰","STREET":"大橋一街","SECT":" ","MAREA":" ","LANE":" ","ALLEY":" ","HOUSE_NO":"１５０號三樓之３","E_COORD97":170864.78,"N_COORD97":2546376.79,"ADDRESS":"大橋一街１５０號三樓之３","OBJECTID":635756},"geometry":{"x":170864.78000000212,"y":2546376.7899999991}},{"attributes":{"ID":635784,"DIS_CODE":0,"TOWNNAME":"永康區","LI":"安康里","LIN":"4鄰","STREET":"大橋一街","SECT":" ","MAREA":" ","LANE":" ","ALLEY":" ","HOUSE_NO":"４７號二樓之２","E_COORD97":170696.29000000001,"N_COORD97":2546297.9199999999,"ADDRESS":"大橋一街４７號二樓之２","OBJECTID":635757},"geometry":{"x":170696.29000000004,"y":2546297.9200000018}},{"attributes":{"ID":635785,"DIS_CODE":0,"TOWNNAME":"新化區","LI":"太平里","LIN":"4鄰","STREET":"中正路","SECT":" ","MAREA":" ","LANE":" ","ALLEY":" ","HOUSE_NO":"５７８號八樓之５","E_COORD97":178895.87,"N_COORD97":2549000.2599999998,"ADDRESS":"中正路５７８號八樓之５","OBJECTID":635758},"geometry":{"x":178895.87000000104,"y":2549000.2600000016}},{"attributes":{"ID":635786,"DIS_CODE":0,"TOWNNAME":"新化區","LI":"太平里","LIN":"4鄰","STREET":"中正路","SECT":" ","MAREA":" ","LANE":" ","ALLEY":" ","HOUSE_NO":"５７８號十一樓之８","E_COORD97":178896.12,"N_COORD97":2549000.2599999998,"ADDRESS":"中正路５７８號十一樓之８","OBJECTID":635759},"geometry":{"x":178896.12000000104,"y":2549000.2600000016}},{"attributes":{"ID":635787,"DIS_CODE":0,"TOWNNAME":"中西區","LI":"大涼里","LIN":"21鄰","STREET":"府前二街","SECT":" ","MAREA":" ","LANE":" ","ALLEY":" ","HOUSE_NO":"７０號四樓之２９","E_COORD97":166684.92999999999,"N_COORD97":2543908.52,"ADDRESS":"府前二街７０號四樓之２９","OBJECTID":635760},"geometry":{"x":166684.93000000063,"y":2543908.5200000033}},{"attributes":{"ID":635788,"DIS_CODE":0,"TOWNNAME":"中西區","LI":"大涼里","LIN":"21鄰","STREET":"府前二街","SECT":" ","MAREA":" ","LANE":" ","ALLEY":" ","HOUSE_NO":"７０號四樓之３","E_COORD97":166684.92999999999,"N_COORD97":2543908.52,"ADDRESS":"府前二街７０號四樓之３","OBJECTID":635761},"geometry":{"x":166684.93000000063,"y":2543908.5200000033}},{"attributes":{"ID":635789,"DIS_CODE":0,"TOWNNAME":"中西區","LI":"大涼里","LIN":"21鄰","STREET":"府前二街","SECT":" ","MAREA":" ","LANE":" ","ALLEY":" ","HOUSE_NO":"７０號四樓之３０","E_COORD97":166684.92999999999,"N_COORD97":2543908.52,"ADDRESS":"府前二街７０號四樓之３０","OBJECTID":635762},"geometry":{"x":166684.93000000063,"y":2543908.5200000033}},{"attributes":{"ID":635790,"DIS_CODE":0,"TOWNNAME":"中西區","LI":"大涼里","LIN":"21鄰","STREET":"府前二街","SECT":" ","MAREA":" ","LANE":" ","ALLEY":" ","HOUSE_NO":"７０號四樓之３１","E_COORD97":166684.92999999999,"N_COORD97":2543908.52,"ADDRESS":"府前二街７０號四樓之３１","OBJECTID":635763},"geometry":{"x":166684.93000000063,"y":2543908.5200000033}},{"attributes":{"ID":635791,"DIS_CODE":0,"TOWNNAME":"中西區","LI":"大涼里","LIN":"21鄰","STREET":"府前二街","SECT":" ","MAREA":" ","LANE":" ","ALLEY":" ","HOUSE_NO":"７０號四樓之３２","E_COORD97":166684.92999999999,"N_COORD97":2543908.52,"ADDRESS":"府前二街７０號四樓之３２","OBJECTID":635764},"geometry":{"x":166684.93000000063,"y":2543908.5200000033}},{"attributes":{"ID":635792,"DIS_CODE":0,"TOWNNAME":"中西區","LI":"大涼里","LIN":"21鄰","STREET":"府前二街","SECT":" ","MAREA":" ","LANE":" ","ALLEY":" ","HOUSE_NO":"７０號四樓之４","E_COORD97":166684.92999999999,"N_COORD97":2543908.52,"ADDRESS":"府前二街７０號四樓之４","OBJECTID":635765},"geometry":{"x":166684.93000000063,"y":2543908.5200000033}},{"attributes":{"ID":635793,"DIS_CODE":0,"TOWNNAME":"中西區","LI":"大涼里","LIN":"21鄰","STREET":"府前二街","SECT":" ","MAREA":" ","LANE":" ","ALLEY":" ","HOUSE_NO":"７０號四樓之５","E_COORD97":166684.92999999999,"N_COORD97":2543908.52,"ADDRESS":"府前二街７０號四樓之５","OBJECTID":635766},"geometry":{"x":166684.93000000063,"y":2543908.5200000033}},{"attributes":{"ID":635794,"DIS_CODE":0,"TOWNNAME":"中西區","LI":"大涼里","LIN":"21鄰","STREET":"府前二街","SECT":" ","MAREA":" ","LANE":" ","ALLEY":" ","HOUSE_NO":"７０號四樓之６","E_COORD97":166684.92999999999,"N_COORD97":2543908.52,"ADDRESS":"府前二街７０號四樓之６","OBJECTID":635767},"geometry":{"x":166684.93000000063,"y":2543908.5200000033}},{"attributes":{"ID":635795,"DIS_CODE":0,"TOWNNAME":"中西區","LI":"大涼里","LIN":"21鄰","STREET":"府前二街","SECT":" ","MAREA":" ","LANE":" ","ALLEY":" ","HOUSE_NO":"７０號四樓之７","E_COORD97":166684.92999999999,"N_COORD97":2543908.52,"ADDRESS":"府前二街７０號四樓之７","OBJECTID":635768},"geometry":{"x":166684.93000000063,"y":2543908.5200000033}},{"attributes":{"ID":635796,"DIS_CODE":0,"TOWNNAME":"中西區","LI":"大涼里","LIN":"21鄰","STREET":"府前二街","SECT":" ","MAREA":" ","LANE":" ","ALLEY":" ","HOUSE_NO":"７０號四樓之８","E_COORD97":166684.92999999999,"N_COORD97":2543908.52,"ADDRESS":"府前二街７０號四樓之８","OBJECTID":635769},"geometry":{"x":166684.93000000063,"y":2543908.5200000033}},{"attributes":{"ID":635797,"DIS_CODE":0,"TOWNNAME":"中西區","LI":"大涼里","LIN":"21鄰","STREET":"府前二街","SECT":" ","MAREA":" ","LANE":" ","ALLEY":" ","HOUSE_NO":"７０號四樓之９","E_COORD97":166684.92999999999,"N_COORD97":2543908.52,"ADDRESS":"府前二街７０號四樓之９","OBJECTID":635770},"geometry":{"x":166684.93000000063,"y":2543908.5200000033}},{"attributes":{"ID":635798,"DIS_CODE":0,"TOWNNAME":"中西區","LI":"大涼里","LIN":"22鄰","STREET":"府前路","SECT":"二段","MAREA":" ","LANE":" ","ALLEY":" ","HOUSE_NO":"２３９號二樓","E_COORD97":167025.89999999999,"N_COORD97":2543596.25,"ADDRESS":"府前路二段２３９號二樓","OBJECTID":635771},"geometry":{"x":167025.90000000037,"y":2543596.2500000019}},{"attributes":{"ID":635799,"DIS_CODE":0,"TOWNNAME":"中西區","LI":"大涼里","LIN":"22鄰","STREET":"府前路","SECT":"二段","MAREA":" ","LANE":" ","ALLEY":" ","HOUSE_NO":"２３９號三樓","E_COORD97":167025.89999999999,"N_COORD97":2543596.25,"ADDRESS":"府前路二段２３９號三樓","OBJECTID":635772},"geometry":{"x":167025.90000000037,"y":2543596.2500000019}},{"attributes":{"ID":635800,"DIS_CODE":0,"TOWNNAME":"中西區","LI":"大涼里","LIN":"22鄰","STREET":"府前路","SECT":"二段","MAREA":" ","LANE":" ","ALLEY":" ","HOUSE_NO":"２３９號五樓","E_COORD97":167025.89999999999,"N_COORD97":2543596.25,"ADDRESS":"府前路二段２３９號五樓","OBJECTID":635773},"geometry":{"x":167025.90000000037,"y":2543596.2500000019}},{"attributes":{"ID":635801,"DIS_CODE":0,"TOWNNAME":"中西區","LI":"大涼里","LIN":"22鄰","STREET":"府前路","SECT":"二段","MAREA":" ","LANE":" ","ALLEY":" ","HOUSE_NO":"２３９號六樓","E_COORD97":167025.89999999999,"N_COORD97":2543596.25,"ADDRESS":"府前路二段２３９號六樓","OBJECTID":635774},"geometry":{"x":167025.90000000037,"y":2543596.2500000019}},{"attributes":{"ID":635802,"DIS_CODE":0,"TOWNNAME":"中西區","LI":"大涼里","LIN":"22鄰","STREET":"府前路","SECT":"二段","MAREA":" ","LANE":" ","ALLEY":" ","HOUSE_NO":"２３９號四樓","E_COORD97":167025.89999999999,"N_COORD97":2543596.25,"ADDRESS":"府前路二段２３９號四樓","OBJECTID":635775},"geometry":{"x":167025.90000000037,"y":2543596.2500000019}},{"attributes":{"ID":635803,"DIS_CODE":0,"TOWNNAME":"佳里區","LI":"鎮山里","LIN":"7鄰","STREET":"崇德街","SECT":" ","MAREA":" ","LANE":" ","ALLEY":" ","HOUSE_NO":"３８號三樓","E_COORD97":166192.95999999999,"N_COORD97":2561672.3399999999,"ADDRESS":"崇德街３８號三樓","OBJECTID":635776},"geometry":{"x":166192.96000000183,"y":2561672.3400000036}},{"attributes":{"ID":635804,"DIS_CODE":0,"TOWNNAME":"佳里區","LI":"鎮山里","LIN":"7鄰","STREET":"崇德街","SECT":" ","MAREA":" ","LANE":" ","ALLEY":" ","HOUSE_NO":"３８號五樓","E_COORD97":166192.95999999999,"N_COORD97":2561672.3399999999,"ADDRESS":"崇德街３８號五樓","OBJECTID":635777},"geometry":{"x":166192.96000000183,"y":2561672.3400000036}},{"attributes":{"ID":635805,"DIS_CODE":0,"TOWNNAME":"東區","LI":"裕農里","LIN":"29鄰","STREET":"東寧路","SECT":" ","MAREA":" ","LANE":" ","ALLEY":" ","HOUSE_NO":"５６０號十三樓之３","E_COORD97":171243.23999999999,"N_COORD97":2543206.9300000002,"ADDRESS":"東寧路５６０號十三樓之３","OBJECTID":635778},"geometry":{"x":171243.24000000115,"y":2543206.9299999997}},{"attributes":{"ID":635806,"DIS_CODE":0,"TOWNNAME":"東區","LI":"裕農里","LIN":"29鄰","STREET":"東寧路","SECT":" ","MAREA":" ","LANE":" ","ALLEY":" ","HOUSE_NO":"５６０號十四樓","E_COORD97":171243.23999999999,"N_COORD97":2543206.9300000002,"ADDRESS":"東寧路５６０號十四樓","OBJECTID":635779},"geometry":{"x":171243.24000000115,"y":2543206.9299999997}},{"attributes":{"ID":635807,"DIS_CODE":0,"TOWNNAME":"東區","LI":"裕農里","LIN":"29鄰","STREET":"東寧路","SECT":" ","MAREA":" ","LANE":" ","ALLEY":" ","HOUSE_NO":"５６０號十四樓之１","E_COORD97":171243.23999999999,"N_COORD97":2543206.9300000002,"ADDRESS":"東寧路５６０號十四樓之１","OBJECTID":635780},"geometry":{"x":171243.24000000115,"y":2543206.9299999997}},{"attributes":{"ID":635808,"DIS_CODE":0,"TOWNNAME":"東區","LI":"裕農里","LIN":"29鄰","STREET":"東寧路","SECT":" ","MAREA":" ","LANE":" ","ALLEY":" ","HOUSE_NO":"５６０號十樓","E_COORD97":171243.23999999999,"N_COORD97":2543206.9300000002,"ADDRESS":"東寧路５６０號十樓","OBJECTID":635781},"geometry":{"x":171243.24000000115,"y":2543206.9299999997}},{"attributes":{"ID":635809,"DIS_CODE":0,"TOWNNAME":"東區","LI":"裕農里","LIN":"29鄰","STREET":"東寧路","SECT":" ","MAREA":" ","LANE":" ","ALLEY":" ","HOUSE_NO":"５６０號十樓之１","E_COORD97":171243.23999999999,"N_COORD97":2543206.9300000002,"ADDRESS":"東寧路５６０號十樓之１","OBJECTID":635782},"geometry":{"x":171243.24000000115,"y":2543206.9299999997}},{"attributes":{"ID":635810,"DIS_CODE":0,"TOWNNAME":"東區","LI":"裕農里","LIN":"29鄰","STREET":"東寧路","SECT":" ","MAREA":" ","LANE":" ","ALLEY":" ","HOUSE_NO":"５６０號十樓之２","E_COORD97":171243.23999999999,"N_COORD97":2543206.9300000002,"ADDRESS":"東寧路５６０號十樓之２","OBJECTID":635783},"geometry":{"x":171243.24000000115,"y":2543206.9299999997}},{"attributes":{"ID":635811,"DIS_CODE":0,"TOWNNAME":"東區","LI":"裕農里","LIN":"29鄰","STREET":"東寧路","SECT":" ","MAREA":" ","LANE":" ","ALLEY":" ","HOUSE_NO":"５６０號十樓之３","E_COORD97":171243.23999999999,"N_COORD97":2543206.9300000002,"ADDRESS":"東寧路５６０號十樓之３","OBJECTID":635784},"geometry":{"x":171243.24000000115,"y":2543206.9299999997}},{"attributes":{"ID":635812,"DIS_CODE":0,"TOWNNAME":"東區","LI":"裕農里","LIN":"29鄰","STREET":"東寧路","SECT":" ","MAREA":" ","LANE":" ","ALLEY":" ","HOUSE_NO":"５６０號三樓","E_COORD97":171243.23999999999,"N_COORD97":2543206.9300000002,"ADDRESS":"東寧路５６０號三樓","OBJECTID":635785},"geometry":{"x":171243.24000000115,"y":2543206.9299999997}},{"attributes":{"ID":635813,"DIS_CODE":0,"TOWNNAME":"東區","LI":"裕農里","LIN":"29鄰","STREET":"東寧路","SECT":" ","MAREA":" ","LANE":" ","ALLEY":" ","HOUSE_NO":"５６０號三樓之１","E_COORD97":171243.23999999999,"N_COORD97":2543206.9300000002,"ADDRESS":"東寧路５６０號三樓之１","OBJECTID":635786},"geometry":{"x":171243.24000000115,"y":2543206.9299999997}},{"attributes":{"ID":635814,"DIS_CODE":0,"TOWNNAME":"東區","LI":"裕農里","LIN":"29鄰","STREET":"東寧路","SECT":" ","MAREA":" ","LANE":" ","ALLEY":" ","HOUSE_NO":"５６０號三樓之２","E_COORD97":171243.23999999999,"N_COORD97":2543206.9300000002,"ADDRESS":"東寧路５６０號三樓之２","OBJECTID":635787},"geometry":{"x":171243.24000000115,"y":2543206.9299999997}},{"attributes":{"ID":635815,"DIS_CODE":0,"TOWNNAME":"東區","LI":"裕農里","LIN":"29鄰","STREET":"東寧路","SECT":" ","MAREA":" ","LANE":" ","ALLEY":" ","HOUSE_NO":"５６０號三樓之３","E_COORD97":171243.23999999999,"N_COORD97":2543206.9300000002,"ADDRESS":"東寧路５６０號三樓之３","OBJECTID":635788},"geometry":{"x":171243.24000000115,"y":2543206.9299999997}},{"attributes":{"ID":635816,"DIS_CODE":0,"TOWNNAME":"東區","LI":"裕農里","LIN":"29鄰","STREET":"東寧路","SECT":" ","MAREA":" ","LANE":" ","ALLEY":" ","HOUSE_NO":"５６０號五樓","E_COORD97":171243.23999999999,"N_COORD97":2543206.9300000002,"ADDRESS":"東寧路５６０號五樓","OBJECTID":635789},"geometry":{"x":171243.24000000115,"y":2543206.9299999997}},{"attributes":{"ID":635817,"DIS_CODE":0,"TOWNNAME":"東區","LI":"裕農里","LIN":"29鄰","STREET":"東寧路","SECT":" ","MAREA":" ","LANE":" ","ALLEY":" ","HOUSE_NO":"５６０號五樓之１","E_COORD97":171243.23999999999,"N_COORD97":2543206.9300000002,"ADDRESS":"東寧路５６０號五樓之１","OBJECTID":635790},"geometry":{"x":171243.24000000115,"y":2543206.9299999997}},{"attributes":{"ID":635818,"DIS_CODE":0,"TOWNNAME":"東區","LI":"路東里","LIN":"4鄰","STREET":"大同路","SECT":"二段","MAREA":" ","LANE":" ","ALLEY":" ","HOUSE_NO":"９５號七樓","E_COORD97":169372.73000000001,"N_COORD97":2542151.4500000002,"ADDRESS":"大同路二段９５號七樓","OBJECTID":635791},"geometry":{"x":169372.73000000045,"y":2542151.4499999993}},{"attributes":{"ID":635819,"DIS_CODE":0,"TOWNNAME":"東區","LI":"路東里","LIN":"4鄰","STREET":"大同路","SECT":"二段","MAREA":" ","LANE":" ","ALLEY":" ","HOUSE_NO":"９５號七樓之１","E_COORD97":169372.73000000001,"N_COORD97":2542151.4500000002,"ADDRESS":"大同路二段９５號七樓之１","OBJECTID":635792},"geometry":{"x":169372.73000000045,"y":2542151.4499999993}},{"attributes":{"ID":635820,"DIS_CODE":0,"TOWNNAME":"東區","LI":"路東里","LIN":"4鄰","STREET":"大同路","SECT":"二段","MAREA":" ","LANE":" ","ALLEY":" ","HOUSE_NO":"９５號七樓之２","E_COORD97":169372.73000000001,"N_COORD97":2542151.4500000002,"ADDRESS":"大同路二段９５號七樓之２","OBJECTID":635793},"geometry":{"x":169372.73000000045,"y":2542151.4499999993}},{"attributes":{"ID":635821,"DIS_CODE":0,"TOWNNAME":"東區","LI":"路東里","LIN":"4鄰","STREET":"大同路","SECT":"二段","MAREA":" ","LANE":" ","ALLEY":" ","HOUSE_NO":"９５號七樓之３","E_COORD97":169372.73000000001,"N_COORD97":2542151.4500000002,"ADDRESS":"大同路二段９５號七樓之３","OBJECTID":635794},"geometry":{"x":169372.73000000045,"y":2542151.4499999993}},{"attributes":{"ID":635822,"DIS_CODE":0,"TOWNNAME":"東區","LI":"路東里","LIN":"4鄰","STREET":"大同路","SECT":"二段","MAREA":" ","LANE":" ","ALLEY":" ","HOUSE_NO":"９５號七樓之４","E_COORD97":169372.73000000001,"N_COORD97":2542151.4500000002,"ADDRESS":"大同路二段９５號七樓之４","OBJECTID":635795},"geometry":{"x":169372.73000000045,"y":2542151.4499999993}},{"attributes":{"ID":635823,"DIS_CODE":0,"TOWNNAME":"東區","LI":"路東里","LIN":"4鄰","STREET":"大同路","SECT":"二段","MAREA":" ","LANE":" ","ALLEY":" ","HOUSE_NO":"９５號七樓之５","E_COORD97":169372.73000000001,"N_COORD97":2542151.4500000002,"ADDRESS":"大同路二段９５號七樓之５","OBJECTID":635796},"geometry":{"x":169372.73000000045,"y":2542151.4499999993}},{"attributes":{"ID":635824,"DIS_CODE":0,"TOWNNAME":"東區","LI":"路東里","LIN":"4鄰","STREET":"大同路","SECT":"二段","MAREA":" ","LANE":" ","ALLEY":" ","HOUSE_NO":"９５號九樓","E_COORD97":169372.73000000001,"N_COORD97":2542151.4500000002,"ADDRESS":"大同路二段９５號九樓","OBJECTID":635797},"geometry":{"x":169372.73000000045,"y":2542151.4499999993}},{"attributes":{"ID":635825,"DIS_CODE":0,"TOWNNAME":"東區","LI":"路東里","LIN":"4鄰","STREET":"大同路","SECT":"二段","MAREA":" ","LANE":" ","ALLEY":" ","HOUSE_NO":"９５號六樓之１","E_COORD97":169372.73000000001,"N_COORD97":2542151.4500000002,"ADDRESS":"大同路二段９５號六樓之１","OBJECTID":635798},"geometry":{"x":169372.73000000045,"y":2542151.4499999993}},{"attributes":{"ID":635826,"DIS_CODE":0,"TOWNNAME":"東區","LI":"路東里","LIN":"4鄰","STREET":"大同路","SECT":"二段","MAREA":" ","LANE":" ","ALLEY":" ","HOUSE_NO":"９５號六樓之２","E_COORD97":169372.73000000001,"N_COORD97":2542151.4500000002,"ADDRESS":"大同路二段９５號六樓之２","OBJECTID":635799},"geometry":{"x":169372.73000000045,"y":2542151.4499999993}},{"attributes":{"ID":635827,"DIS_CODE":0,"TOWNNAME":"東區","LI":"路東里","LIN":"4鄰","STREET":"大同路","SECT":"二段","MAREA":" ","LANE":" ","ALLEY":" ","HOUSE_NO":"９５號六樓之３","E_COORD97":169372.73000000001,"N_COORD97":2542151.4500000002,"ADDRESS":"大同路二段９５號六樓之３","OBJECTID":635800},"geometry":{"x":169372.73000000045,"y":2542151.4499999993}}]}