{"displayFieldName":"TOWNNAME","fieldAliases":{"ID":"ID","DIS_CODE":"DIS_CODE","TOWNNAME":"TOWNNAME","LI":"LI","LIN":"LIN","STREET":"STREET","SECT":"SECT","MAREA":"MAREA","LANE":"LANE","ALLEY":"ALLEY","HOUSE_NO":"HOUSE_NO","E_COORD97":"E_COORD97","N_COORD97":"N_COORD97","ADDRESS":"ADDRESS","OBJECTID":"OBJECTID"},"geometryType":"esriGeometryPoint","spatialReference":{"wkid":102443,"latestWkid":3826},"fields":[{"name":"ID","type":"esriFieldTypeDouble","alias":"ID"},{"name":"DIS_CODE","type":"esriFieldTypeInteger","alias":"DIS_CODE"},{"name":"TOWNNAME","type":"esriFieldTypeString","alias":"TOWNNAME","length":8},{"name":"LI","type":"esriFieldTypeString","alias":"LI","length":8},{"name":"LIN","type":"esriFieldTypeString","alias":"LIN","length":12},{"name":"STREET","type":"esriFieldTypeString","alias":"STREET","length":20},{"name":"SECT","type":"esriFieldTypeString","alias":"SECT","length":8},{"name":"MAREA","type":"esriFieldTypeString","alias":"MAREA","length":12},{"name":"LANE","type":"esriFieldTypeString","alias":"LANE","length":10},{"name":"ALLEY","type":"esriFieldTypeString","alias":"ALLEY","length":10},{"name":"HOUSE_NO","type":"esriFieldTypeString","alias":"HOUSE_NO","length":20},{"name":"E_COORD97","type":"esriFieldTypeDouble","alias":"E_COORD97"},{"name":"N_COORD97","type":"esriFieldTypeDouble","alias":"N_COORD97"},{"name":"ADDRESS","type":"esriFieldTypeString","alias":"ADDRESS","length":50},{"name":"OBJECTID","type":"esriFieldTypeOID","alias":"OBJECTID"}],"features":[{"attributes":{"ID":299409,"DIS_CODE":0,"TOWNNAME":"東區","LI":"仁和里","LIN":"8鄰","STREET":"仁和路","SECT":" ","MAREA":" ","LANE":"１０９巷","ALLEY":" ","HOUSE_NO":"１５６號","E_COORD97":171764.20000000001,"N_COORD97":2541329.54,"ADDRESS":"仁和路１０９巷１５６號","OBJECTID":299401},"geometry":{"x":171764.20000000112,"y":2541329.5399999991}},{"attributes":{"ID":299410,"DIS_CODE":0,"TOWNNAME":"東區","LI":"南聖里","LIN":"14鄰","STREET":"裕農路","SECT":" ","MAREA":" ","LANE":" ","ALLEY":" ","HOUSE_NO":"１０１０號","E_COORD97":172710.17999999999,"N_COORD97":2543394.2400000002,"ADDRESS":"裕農路１０１０號","OBJECTID":299402},"geometry":{"x":172710.1799999997,"y":2543394.2400000002}},{"attributes":{"ID":299411,"DIS_CODE":0,"TOWNNAME":"仁德區","LI":"上崙里","LIN":"1鄰","STREET":"德崙路","SECT":" ","MAREA":" ","LANE":"７７巷","ALLEY":" ","HOUSE_NO":"８６號三樓之２","E_COORD97":173571.47855999999,"N_COORD97":2538453.5479799998,"ADDRESS":"德崙路７７巷８６號三樓之２","OBJECTID":299403},"geometry":{"x":173571.47856000066,"y":2538453.5479799975}},{"attributes":{"ID":299412,"DIS_CODE":0,"TOWNNAME":"永康區","LI":"二王里","LIN":"42鄰","STREET":"中山南路","SECT":" ","MAREA":" ","LANE":"３１６巷","ALLEY":" ","HOUSE_NO":"２８號","E_COORD97":172032.75,"N_COORD97":2546137.9500000002,"ADDRESS":"中山南路３１６巷２８號","OBJECTID":299404},"geometry":{"x":172032.75000000093,"y":2546137.9499999993}},{"attributes":{"ID":299413,"DIS_CODE":0,"TOWNNAME":"東區","LI":"仁和里","LIN":"8鄰","STREET":"仁和路","SECT":" ","MAREA":" ","LANE":"１０９巷","ALLEY":" ","HOUSE_NO":"１６６號","E_COORD97":171747.54999999999,"N_COORD97":2541314.8799999999,"ADDRESS":"仁和路１０９巷１６６號","OBJECTID":299405},"geometry":{"x":171747.55000000075,"y":2541314.8799999971}},{"attributes":{"ID":299414,"DIS_CODE":0,"TOWNNAME":"東區","LI":"南聖里","LIN":"14鄰","STREET":"裕農路","SECT":" ","MAREA":" ","LANE":" ","ALLEY":" ","HOUSE_NO":"１０１２號","E_COORD97":172714.76999999999,"N_COORD97":2543394.3999999999,"ADDRESS":"裕農路１０１２號","OBJECTID":299406},"geometry":{"x":172714.76999999955,"y":2543394.4000000004}},{"attributes":{"ID":299415,"DIS_CODE":0,"TOWNNAME":"東區","LI":"仁和里","LIN":"8鄰","STREET":"仁和路","SECT":" ","MAREA":" ","LANE":"１０９巷","ALLEY":" ","HOUSE_NO":"１７０號","E_COORD97":171739.14000000001,"N_COORD97":2541315.54,"ADDRESS":"仁和路１０９巷１７０號","OBJECTID":299407},"geometry":{"x":171739.13999999966,"y":2541315.540000001}},{"attributes":{"ID":299416,"DIS_CODE":0,"TOWNNAME":"中西區","LI":"藥王里","LIN":"8鄰","STREET":"大新街","SECT":" ","MAREA":" ","LANE":"７巷","ALLEY":" ","HOUSE_NO":"１８號","E_COORD97":167073.57999999999,"N_COORD97":2544356.04,"ADDRESS":"大新街７巷１８號","OBJECTID":299408},"geometry":{"x":167073.57999999914,"y":2544356.040000001}},{"attributes":{"ID":299417,"DIS_CODE":0,"TOWNNAME":"東區","LI":"仁和里","LIN":"8鄰","STREET":"仁和路","SECT":" ","MAREA":" ","LANE":"１０９巷","ALLEY":" ","HOUSE_NO":"１７２號","E_COORD97":171735.17999999999,"N_COORD97":2541316.0299999998,"ADDRESS":"仁和路１０９巷１７２號","OBJECTID":299409},"geometry":{"x":171735.18000000063,"y":2541316.0300000012}},{"attributes":{"ID":299418,"DIS_CODE":0,"TOWNNAME":"東區","LI":"仁和里","LIN":"8鄰","STREET":"仁和路","SECT":" ","MAREA":" ","LANE":"１０９巷","ALLEY":" ","HOUSE_NO":"１６２號","E_COORD97":171755.63,"N_COORD97":2541314.8799999999,"ADDRESS":"仁和路１０９巷１６２號","OBJECTID":299410},"geometry":{"x":171755.63000000082,"y":2541314.8799999971}},{"attributes":{"ID":299419,"DIS_CODE":0,"TOWNNAME":"東區","LI":"仁和里","LIN":"8鄰","STREET":"仁和路","SECT":" ","MAREA":" ","LANE":"１０９巷","ALLEY":" ","HOUSE_NO":"１６８號","E_COORD97":171742.76999999999,"N_COORD97":2541314.8799999999,"ADDRESS":"仁和路１０９巷１６８號","OBJECTID":299411},"geometry":{"x":171742.77000000048,"y":2541314.8799999971}},{"attributes":{"ID":299420,"DIS_CODE":0,"TOWNNAME":"東區","LI":"崇善里","LIN":"8鄰","STREET":"崇善七街","SECT":" ","MAREA":" ","LANE":"３０巷","ALLEY":" ","HOUSE_NO":"１０號","E_COORD97":171101.79999999999,"N_COORD97":2541439.3700000001,"ADDRESS":"崇善七街３０巷１０號","OBJECTID":299412},"geometry":{"x":171101.80000000075,"y":2541439.3700000048}},{"attributes":{"ID":299421,"DIS_CODE":0,"TOWNNAME":"東區","LI":"崇善里","LIN":"8鄰","STREET":"崇善七街","SECT":" ","MAREA":" ","LANE":"３０巷","ALLEY":" ","HOUSE_NO":"１１號","E_COORD97":171135.60000000001,"N_COORD97":2541433.2799999998,"ADDRESS":"崇善七街３０巷１１號","OBJECTID":299413},"geometry":{"x":171135.59999999963,"y":2541433.2799999993}},{"attributes":{"ID":299422,"DIS_CODE":0,"TOWNNAME":"東區","LI":"崇善里","LIN":"8鄰","STREET":"崇善七街","SECT":" ","MAREA":" ","LANE":"３０巷","ALLEY":" ","HOUSE_NO":"１２號","E_COORD97":171105.45000000001,"N_COORD97":2541433.2799999998,"ADDRESS":"崇善七街３０巷１２號","OBJECTID":299414},"geometry":{"x":171105.45000000019,"y":2541433.2799999993}},{"attributes":{"ID":299423,"DIS_CODE":0,"TOWNNAME":"東區","LI":"崇善里","LIN":"8鄰","STREET":"崇善七街","SECT":" ","MAREA":" ","LANE":"４６巷","ALLEY":" ","HOUSE_NO":"２０號","E_COORD97":171149.60999999999,"N_COORD97":2541445.1499999999,"ADDRESS":"崇善七街４６巷２０號","OBJECTID":299415},"geometry":{"x":171149.61000000127,"y":2541445.1500000022}},{"attributes":{"ID":299424,"DIS_CODE":0,"TOWNNAME":"東區","LI":"崇善里","LIN":"8鄰","STREET":"崇善七街","SECT":" ","MAREA":" ","LANE":"４６巷","ALLEY":" ","HOUSE_NO":"２４號","E_COORD97":171151.75,"N_COORD97":2541441.1899999999,"ADDRESS":"崇善七街４６巷２４號","OBJECTID":299416},"geometry":{"x":171151.75000000093,"y":2541441.1899999995}},{"attributes":{"ID":299425,"DIS_CODE":0,"TOWNNAME":"東區","LI":"崇善里","LIN":"8鄰","STREET":"崇善七街","SECT":" ","MAREA":" ","LANE":"４６巷","ALLEY":" ","HOUSE_NO":"２６號","E_COORD97":171152.95999999999,"N_COORD97":2541436.02,"ADDRESS":"崇善七街４６巷２６號","OBJECTID":299417},"geometry":{"x":171152.96000000183,"y":2541436.0199999996}},{"attributes":{"ID":299426,"DIS_CODE":0,"TOWNNAME":"北區","LI":"大和里","LIN":"6鄰","STREET":"大興街","SECT":" ","MAREA":" ","LANE":"１３２巷","ALLEY":" ","HOUSE_NO":"５５號","E_COORD97":167010.26000000001,"N_COORD97":2545894.1000000001,"ADDRESS":"大興街１３２巷５５號","OBJECTID":299418},"geometry":{"x":167010.26000000071,"y":2545894.0999999996}},{"attributes":{"ID":299427,"DIS_CODE":0,"TOWNNAME":"東區","LI":"崇善里","LIN":"8鄰","STREET":"崇善七街","SECT":" ","MAREA":" ","LANE":"４６巷","ALLEY":" ","HOUSE_NO":"２８號","E_COORD97":171154.79000000001,"N_COORD97":2541432.6699999999,"ADDRESS":"崇善七街４６巷２８號","OBJECTID":299419},"geometry":{"x":171154.79000000097,"y":2541432.6700000037}},{"attributes":{"ID":299428,"DIS_CODE":0,"TOWNNAME":"東區","LI":"崇善里","LIN":"8鄰","STREET":"崇善七街","SECT":" ","MAREA":" ","LANE":"４６巷","ALLEY":" ","HOUSE_NO":"３號","E_COORD97":171157.45000000001,"N_COORD97":2541478.5699999998,"ADDRESS":"崇善七街４６巷３號","OBJECTID":299420},"geometry":{"x":171157.45000000112,"y":2541478.5700000022}},{"attributes":{"ID":299429,"DIS_CODE":0,"TOWNNAME":"東區","LI":"崇善里","LIN":"8鄰","STREET":"崇善七街","SECT":" ","MAREA":" ","LANE":"４６巷","ALLEY":" ","HOUSE_NO":"５號","E_COORD97":171161.51999999999,"N_COORD97":2541472.0099999998,"ADDRESS":"崇善七街４６巷５號","OBJECTID":299421},"geometry":{"x":171161.51999999955,"y":2541472.0100000016}},{"attributes":{"ID":299430,"DIS_CODE":0,"TOWNNAME":"東區","LI":"崇善里","LIN":"8鄰","STREET":"崇善七街","SECT":" ","MAREA":" ","LANE":"８巷","ALLEY":" ","HOUSE_NO":"１０號","E_COORD97":171070.89999999999,"N_COORD97":2541409.4399999999,"ADDRESS":"崇善七街８巷１０號","OBJECTID":299422},"geometry":{"x":171070.90000000224,"y":2541409.4399999995}},{"attributes":{"ID":299431,"DIS_CODE":0,"TOWNNAME":"東區","LI":"崇善里","LIN":"8鄰","STREET":"崇善七街","SECT":" ","MAREA":" ","LANE":"８巷","ALLEY":" ","HOUSE_NO":"１１號","E_COORD97":171094.73999999999,"N_COORD97":2541413.54,"ADDRESS":"崇善七街８巷１１號","OBJECTID":299423},"geometry":{"x":171094.74000000022,"y":2541413.540000001}},{"attributes":{"ID":299432,"DIS_CODE":0,"TOWNNAME":"東區","LI":"崇善里","LIN":"8鄰","STREET":"崇善七街","SECT":" ","MAREA":" ","LANE":"８巷","ALLEY":" ","HOUSE_NO":"１３號","E_COORD97":171098.37,"N_COORD97":2541409.4900000002,"ADDRESS":"崇善七街８巷１３號","OBJECTID":299424},"geometry":{"x":171098.37000000104,"y":2541409.4900000002}},{"attributes":{"ID":299433,"DIS_CODE":0,"TOWNNAME":"東區","LI":"崇善里","LIN":"8鄰","STREET":"崇善七街","SECT":" ","MAREA":" ","LANE":"８巷","ALLEY":" ","HOUSE_NO":"１４號","E_COORD97":171074.67999999999,"N_COORD97":2541401.5499999998,"ADDRESS":"崇善七街８巷１４號","OBJECTID":299425},"geometry":{"x":171074.6799999997,"y":2541401.5500000026}},{"attributes":{"ID":299434,"DIS_CODE":0,"TOWNNAME":"東區","LI":"崇善里","LIN":"8鄰","STREET":"崇善七街","SECT":" ","MAREA":" ","LANE":"８巷","ALLEY":" ","HOUSE_NO":"４號","E_COORD97":171064.38,"N_COORD97":2541424.8799999999,"ADDRESS":"崇善七街８巷４號","OBJECTID":299426},"geometry":{"x":171064.38000000082,"y":2541424.8800000008}},{"attributes":{"ID":299435,"DIS_CODE":0,"TOWNNAME":"東區","LI":"崇善里","LIN":"8鄰","STREET":"崇善七街","SECT":" ","MAREA":" ","LANE":"８巷","ALLEY":" ","HOUSE_NO":"７號","E_COORD97":171092.39999999999,"N_COORD97":2541422.7000000002,"ADDRESS":"崇善七街８巷７號","OBJECTID":299427},"geometry":{"x":171092.40000000037,"y":2541422.7000000011}},{"attributes":{"ID":299436,"DIS_CODE":0,"TOWNNAME":"東區","LI":"東智里","LIN":"8鄰","STREET":"長東街","SECT":" ","MAREA":" ","LANE":"１０８巷","ALLEY":" ","HOUSE_NO":"１１號","E_COORD97":170994.41,"N_COORD97":2540196.7400000002,"ADDRESS":"長東街１０８巷１１號","OBJECTID":299428},"geometry":{"x":170994.41000000108,"y":2540196.7400000021}},{"attributes":{"ID":299437,"DIS_CODE":0,"TOWNNAME":"東區","LI":"東智里","LIN":"8鄰","STREET":"長東街","SECT":" ","MAREA":" ","LANE":"１０８巷","ALLEY":" ","HOUSE_NO":"１３號","E_COORD97":170989.19,"N_COORD97":2540196.27,"ADDRESS":"長東街１０８巷１３號","OBJECTID":299429},"geometry":{"x":170989.19000000227,"y":2540196.2699999996}},{"attributes":{"ID":299438,"DIS_CODE":0,"TOWNNAME":"東區","LI":"東智里","LIN":"8鄰","STREET":"長東街","SECT":" ","MAREA":" ","LANE":"１０８巷","ALLEY":" ","HOUSE_NO":"１５號","E_COORD97":170984.92000000001,"N_COORD97":2540195.79,"ADDRESS":"長東街１０８巷１５號","OBJECTID":299430},"geometry":{"x":170984.91999999993,"y":2540195.7899999991}},{"attributes":{"ID":299439,"DIS_CODE":0,"TOWNNAME":"東區","LI":"東智里","LIN":"8鄰","STREET":"長東街","SECT":" ","MAREA":" ","LANE":"１０８巷","ALLEY":" ","HOUSE_NO":"１７號","E_COORD97":170976.17999999999,"N_COORD97":2540195.6299999999,"ADDRESS":"長東街１０８巷１７號","OBJECTID":299431},"geometry":{"x":170976.1799999997,"y":2540195.6300000008}},{"attributes":{"ID":299440,"DIS_CODE":0,"TOWNNAME":"東區","LI":"東智里","LIN":"8鄰","STREET":"長東街","SECT":" ","MAREA":" ","LANE":"１０８巷","ALLEY":" ","HOUSE_NO":"１９號","E_COORD97":170973.01999999999,"N_COORD97":2540195.1600000001,"ADDRESS":"長東街１０８巷１９號","OBJECTID":299432},"geometry":{"x":170973.02000000048,"y":2540195.1600000001}},{"attributes":{"ID":299441,"DIS_CODE":0,"TOWNNAME":"東區","LI":"東智里","LIN":"8鄰","STREET":"長東街","SECT":" ","MAREA":" ","LANE":"１０８巷","ALLEY":" ","HOUSE_NO":"２１號","E_COORD97":170967.01000000001,"N_COORD97":2540195.1600000001,"ADDRESS":"長東街１０８巷２１號","OBJECTID":299433},"geometry":{"x":170967.00999999978,"y":2540195.1600000001}},{"attributes":{"ID":299442,"DIS_CODE":0,"TOWNNAME":"東區","LI":"東智里","LIN":"8鄰","STREET":"長東街","SECT":" ","MAREA":" ","LANE":"１０８巷","ALLEY":" ","HOUSE_NO":"２５號","E_COORD97":170958.48000000001,"N_COORD97":2540194.5299999998,"ADDRESS":"長東街１０８巷２５號","OBJECTID":299434},"geometry":{"x":170958.48000000231,"y":2540194.5299999993}},{"attributes":{"ID":299443,"DIS_CODE":0,"TOWNNAME":"東區","LI":"東智里","LIN":"8鄰","STREET":"長東街","SECT":" ","MAREA":" ","LANE":"１０８巷","ALLEY":" ","HOUSE_NO":"２７號","E_COORD97":170953.73999999999,"N_COORD97":2540194.3700000001,"ADDRESS":"長東街１０８巷２７號","OBJECTID":299435},"geometry":{"x":170953.74000000115,"y":2540194.370000001}},{"attributes":{"ID":299444,"DIS_CODE":0,"TOWNNAME":"東區","LI":"東智里","LIN":"8鄰","STREET":"長東街","SECT":" ","MAREA":" ","LANE":"１０８巷","ALLEY":" ","HOUSE_NO":"２９號","E_COORD97":170949.47,"N_COORD97":2540193.8900000001,"ADDRESS":"長東街１０８巷２９號","OBJECTID":299436},"geometry":{"x":170949.47000000067,"y":2540193.8900000006}},{"attributes":{"ID":299445,"DIS_CODE":0,"TOWNNAME":"東區","LI":"東智里","LIN":"8鄰","STREET":"長東街","SECT":" ","MAREA":" ","LANE":"１０８巷","ALLEY":" ","HOUSE_NO":"３１號","E_COORD97":170945.20000000001,"N_COORD97":2540193.8900000001,"ADDRESS":"長東街１０８巷３１號","OBJECTID":299437},"geometry":{"x":170945.20000000112,"y":2540193.8900000006}},{"attributes":{"ID":299446,"DIS_CODE":0,"TOWNNAME":"東區","LI":"東智里","LIN":"8鄰","STREET":"長東街","SECT":" ","MAREA":" ","LANE":"１０８巷","ALLEY":" ","HOUSE_NO":"３５號","E_COORD97":170934.13,"N_COORD97":2540193.7400000002,"ADDRESS":"長東街１０８巷３５號","OBJECTID":299438},"geometry":{"x":170934.12999999989,"y":2540193.7400000002}},{"attributes":{"ID":299447,"DIS_CODE":0,"TOWNNAME":"東區","LI":"東智里","LIN":"8鄰","STREET":"長東街","SECT":" ","MAREA":" ","LANE":"１０８巷","ALLEY":" ","HOUSE_NO":"３７號","E_COORD97":170930.66,"N_COORD97":2540193.8999999999,"ADDRESS":"長東街１０８巷３７號","OBJECTID":299439},"geometry":{"x":170930.66000000015,"y":2540193.9000000004}},{"attributes":{"ID":299448,"DIS_CODE":0,"TOWNNAME":"東區","LI":"東智里","LIN":"8鄰","STREET":"長東街","SECT":" ","MAREA":" ","LANE":"１０８巷","ALLEY":" ","HOUSE_NO":"３９號","E_COORD97":170926.85999999999,"N_COORD97":2540194.0499999998,"ADDRESS":"長東街１０８巷３９號","OBJECTID":299440},"geometry":{"x":170926.8600000022,"y":2540194.0500000026}},{"attributes":{"ID":299449,"DIS_CODE":0,"TOWNNAME":"南區","LI":"新生里","LIN":"4鄰","STREET":"大同路","SECT":"二段","MAREA":" ","LANE":"１８６巷","ALLEY":" ","HOUSE_NO":"９號六樓之２","E_COORD97":169272.98999999999,"N_COORD97":2541919.4399999999,"ADDRESS":"大同路二段１８６巷９號六樓之２","OBJECTID":299441},"geometry":{"x":169272.98999999929,"y":2541919.4400000013}},{"attributes":{"ID":299450,"DIS_CODE":0,"TOWNNAME":"南區","LI":"新生里","LIN":"4鄰","STREET":"大同路","SECT":"二段","MAREA":" ","LANE":"１８６巷","ALLEY":" ","HOUSE_NO":"９號六樓之３","E_COORD97":169272.98999999999,"N_COORD97":2541919.4399999999,"ADDRESS":"大同路二段１８６巷９號六樓之３","OBJECTID":299442},"geometry":{"x":169272.98999999929,"y":2541919.4400000013}},{"attributes":{"ID":299451,"DIS_CODE":0,"TOWNNAME":"東區","LI":"東智里","LIN":"8鄰","STREET":"長東街","SECT":" ","MAREA":" ","LANE":"１０８巷","ALLEY":" ","HOUSE_NO":"４１號","E_COORD97":170922.59,"N_COORD97":2540194.5299999998,"ADDRESS":"長東街１０８巷４１號","OBJECTID":299443},"geometry":{"x":170922.58999999985,"y":2540194.5299999993}},{"attributes":{"ID":299452,"DIS_CODE":0,"TOWNNAME":"東區","LI":"東智里","LIN":"8鄰","STREET":"長東街","SECT":" ","MAREA":" ","LANE":"１０８巷","ALLEY":" ","HOUSE_NO":"４３號","E_COORD97":170918.32999999999,"N_COORD97":2540194.8399999999,"ADDRESS":"長東街１０８巷４３號","OBJECTID":299444},"geometry":{"x":170918.33000000194,"y":2540194.8400000017}},{"attributes":{"ID":299453,"DIS_CODE":0,"TOWNNAME":"東區","LI":"東智里","LIN":"8鄰","STREET":"長東街","SECT":" ","MAREA":" ","LANE":"１０８巷","ALLEY":" ","HOUSE_NO":"４５號","E_COORD97":170915.16,"N_COORD97":2540195.1600000001,"ADDRESS":"長東街１０８巷４５號","OBJECTID":299445},"geometry":{"x":170915.16000000108,"y":2540195.1600000001}},{"attributes":{"ID":299454,"DIS_CODE":0,"TOWNNAME":"東區","LI":"東智里","LIN":"8鄰","STREET":"長東街","SECT":" ","MAREA":" ","LANE":"１０８巷","ALLEY":" ","HOUSE_NO":"４７號","E_COORD97":170911.69,"N_COORD97":2540195.6299999999,"ADDRESS":"長東街１０８巷４７號","OBJECTID":299446},"geometry":{"x":170911.69000000134,"y":2540195.6300000008}},{"attributes":{"ID":299455,"DIS_CODE":0,"TOWNNAME":"東區","LI":"東智里","LIN":"8鄰","STREET":"長東街","SECT":" ","MAREA":" ","LANE":"１０８巷","ALLEY":" ","HOUSE_NO":"４９號","E_COORD97":170907.26000000001,"N_COORD97":2540196.1099999999,"ADDRESS":"長東街１０８巷４９號","OBJECTID":299447},"geometry":{"x":170907.26000000071,"y":2540196.1100000013}},{"attributes":{"ID":299456,"DIS_CODE":0,"TOWNNAME":"東區","LI":"東智里","LIN":"8鄰","STREET":"長東街","SECT":" ","MAREA":" ","LANE":"１０８巷","ALLEY":" ","HOUSE_NO":"５１號","E_COORD97":170901.95999999999,"N_COORD97":2540197.6899999999,"ADDRESS":"長東街１０８巷５１號","OBJECTID":299448},"geometry":{"x":170901.95999999996,"y":2540197.6899999995}},{"attributes":{"ID":299457,"DIS_CODE":0,"TOWNNAME":"東區","LI":"東智里","LIN":"8鄰","STREET":"長東街","SECT":" ","MAREA":" ","LANE":"１０８巷","ALLEY":" ","HOUSE_NO":"５７號","E_COORD97":170882.98999999999,"N_COORD97":2540199.8999999999,"ADDRESS":"長東街１０８巷５７號","OBJECTID":299449},"geometry":{"x":170882.99000000022,"y":2540199.9000000004}},{"attributes":{"ID":299458,"DIS_CODE":0,"TOWNNAME":"東區","LI":"東智里","LIN":"8鄰","STREET":"長東街","SECT":" ","MAREA":" ","LANE":"１０８巷","ALLEY":" ","HOUSE_NO":"５號","E_COORD97":171008.16,"N_COORD97":2540197.0600000001,"ADDRESS":"長東街１０８巷５號","OBJECTID":299450},"geometry":{"x":171008.16000000108,"y":2540197.0600000024}},{"attributes":{"ID":299459,"DIS_CODE":0,"TOWNNAME":"東區","LI":"東智里","LIN":"8鄰","STREET":"長東街","SECT":" ","MAREA":" ","LANE":"１０８巷","ALLEY":" ","HOUSE_NO":"７號","E_COORD97":171003.26000000001,"N_COORD97":2540196.7400000002,"ADDRESS":"長東街１０８巷７號","OBJECTID":299451},"geometry":{"x":171003.26000000164,"y":2540196.7400000021}},{"attributes":{"ID":299460,"DIS_CODE":0,"TOWNNAME":"東區","LI":"東智里","LIN":"8鄰","STREET":"長東街","SECT":" ","MAREA":" ","LANE":"１０８巷","ALLEY":" ","HOUSE_NO":"９號","E_COORD97":170998.20000000001,"N_COORD97":2540196.7400000002,"ADDRESS":"長東街１０８巷９號","OBJECTID":299452},"geometry":{"x":170998.20000000019,"y":2540196.7400000021}},{"attributes":{"ID":299461,"DIS_CODE":0,"TOWNNAME":"永康區","LI":"大橋里","LIN":"8鄰","STREET":"大橋三街","SECT":" ","MAREA":" ","LANE":"１９９巷","ALLEY":" ","HOUSE_NO":"４４號","E_COORD97":170903.92000000001,"N_COORD97":2546857.0699999998,"ADDRESS":"大橋三街１９９巷４４號","OBJECTID":299453},"geometry":{"x":170903.91999999899,"y":2546857.0700000003}},{"attributes":{"ID":299462,"DIS_CODE":0,"TOWNNAME":"永康區","LI":"大灣里","LIN":"8鄰","STREET":"民族路","SECT":" ","MAREA":" ","LANE":"３９６巷","ALLEY":" ","HOUSE_NO":"１３號","E_COORD97":174772.17000000001,"N_COORD97":2545430.27,"ADDRESS":"民族路３９６巷１３號","OBJECTID":299454},"geometry":{"x":174772.16999999993,"y":2545430.2700000014}},{"attributes":{"ID":299463,"DIS_CODE":0,"TOWNNAME":"永康區","LI":"大灣里","LIN":"8鄰","STREET":"民族路","SECT":" ","MAREA":" ","LANE":"３９６巷","ALLEY":" ","HOUSE_NO":"９號","E_COORD97":174761.20999999999,"N_COORD97":2545413.71,"ADDRESS":"民族路３９６巷９號","OBJECTID":299455},"geometry":{"x":174761.20999999996,"y":2545413.7100000046}},{"attributes":{"ID":299464,"DIS_CODE":0,"TOWNNAME":"永康區","LI":"大灣里","LIN":"8鄰","STREET":"民族路","SECT":" ","MAREA":" ","LANE":"３９６巷","ALLEY":" ","HOUSE_NO":"２８號","E_COORD97":174784.48000000001,"N_COORD97":2545475.1699999999,"ADDRESS":"民族路３９６巷２８號","OBJECTID":299456},"geometry":{"x":174784.48000000231,"y":2545475.1700000018}},{"attributes":{"ID":299465,"DIS_CODE":0,"TOWNNAME":"永康區","LI":"大灣里","LIN":"8鄰","STREET":"民族路","SECT":" ","MAREA":" ","LANE":"３９６巷","ALLEY":" ","HOUSE_NO":"３６號","E_COORD97":174759.26999999999,"N_COORD97":2545475.9399999999,"ADDRESS":"民族路３９６巷３６號","OBJECTID":299457},"geometry":{"x":174759.26999999955,"y":2545475.9400000013}},{"attributes":{"ID":299466,"DIS_CODE":0,"TOWNNAME":"永康區","LI":"大橋里","LIN":"8鄰","STREET":"大橋三街","SECT":" ","MAREA":" ","LANE":"１９９巷","ALLEY":" ","HOUSE_NO":"７２號","E_COORD97":170960.47,"N_COORD97":2546894.6699999999,"ADDRESS":"大橋三街１９９巷７２號","OBJECTID":299458},"geometry":{"x":170960.46999999974,"y":2546894.6700000037}},{"attributes":{"ID":299467,"DIS_CODE":0,"TOWNNAME":"永康區","LI":"勝利里","LIN":"8鄰","STREET":"勝利街","SECT":" ","MAREA":" ","LANE":"２２巷","ALLEY":" ","HOUSE_NO":"４６號","E_COORD97":171277.38,"N_COORD97":2544685.7599999998,"ADDRESS":"勝利街２２巷４６號","OBJECTID":299459},"geometry":{"x":171277.38000000082,"y":2544685.7599999998}},{"attributes":{"ID":299468,"DIS_CODE":0,"TOWNNAME":"永康區","LI":"復國里","LIN":"8鄰","STREET":"復國二路","SECT":" ","MAREA":" ","LANE":"６５巷","ALLEY":" ","HOUSE_NO":"１６號","E_COORD97":172785.45000000001,"N_COORD97":2545178.7999999998,"ADDRESS":"復國二路６５巷１６號","OBJECTID":299460},"geometry":{"x":172785.45000000019,"y":2545178.8000000007}},{"attributes":{"ID":299469,"DIS_CODE":0,"TOWNNAME":"永康區","LI":"勝利里","LIN":"8鄰","STREET":"勝利街","SECT":" ","MAREA":" ","LANE":"２２巷","ALLEY":" ","HOUSE_NO":"１２號","E_COORD97":171271.85000000001,"N_COORD97":2544617.75,"ADDRESS":"勝利街２２巷１２號","OBJECTID":299461},"geometry":{"x":171271.84999999963,"y":2544617.75}},{"attributes":{"ID":299470,"DIS_CODE":0,"TOWNNAME":"永康區","LI":"勝利里","LIN":"8鄰","STREET":"勝利街","SECT":" ","MAREA":" ","LANE":"２２巷","ALLEY":" ","HOUSE_NO":"１８號","E_COORD97":171273.78,"N_COORD97":2544638.75,"ADDRESS":"勝利街２２巷１８號","OBJECTID":299462},"geometry":{"x":171273.78000000119,"y":2544638.75}},{"attributes":{"ID":299471,"DIS_CODE":0,"TOWNNAME":"永康區","LI":"勝利里","LIN":"8鄰","STREET":"勝利街","SECT":" ","MAREA":" ","LANE":"２２巷","ALLEY":" ","HOUSE_NO":"２０號","E_COORD97":171274.23000000001,"N_COORD97":2544643.25,"ADDRESS":"勝利街２２巷２０號","OBJECTID":299463},"geometry":{"x":171274.23000000138,"y":2544643.2500000037}},{"attributes":{"ID":299472,"DIS_CODE":0,"TOWNNAME":"永康區","LI":"崑山里","LIN":"8鄰","STREET":"大灣路","SECT":" ","MAREA":" ","LANE":"９５９巷","ALLEY":" ","HOUSE_NO":"６號","E_COORD97":173384.34,"N_COORD97":2544317.6299999999,"ADDRESS":"大灣路９５９巷６號","OBJECTID":299464},"geometry":{"x":173384.33999999985,"y":2544317.6300000008}},{"attributes":{"ID":299473,"DIS_CODE":0,"TOWNNAME":"永康區","LI":"復國里","LIN":"8鄰","STREET":"復國二路","SECT":" ","MAREA":" ","LANE":"６５巷","ALLEY":" ","HOUSE_NO":"１７號","E_COORD97":172779.23999999999,"N_COORD97":2545165.5299999998,"ADDRESS":"復國二路６５巷１７號","OBJECTID":299465},"geometry":{"x":172779.24000000115,"y":2545165.5299999993}},{"attributes":{"ID":299474,"DIS_CODE":0,"TOWNNAME":"永康區","LI":"復國里","LIN":"8鄰","STREET":"復國二路","SECT":" ","MAREA":" ","LANE":"６１巷","ALLEY":" ","HOUSE_NO":"２０號","E_COORD97":172777.87,"N_COORD97":2545110.4399999999,"ADDRESS":"復國二路６１巷２０號","OBJECTID":299466},"geometry":{"x":172777.87000000197,"y":2545110.4400000013}},{"attributes":{"ID":299475,"DIS_CODE":0,"TOWNNAME":"永康區","LI":"復國里","LIN":"8鄰","STREET":"復國二路","SECT":" ","MAREA":" ","LANE":"６３巷","ALLEY":" ","HOUSE_NO":"１號","E_COORD97":172830.23000000001,"N_COORD97":2545126.02,"ADDRESS":"復國二路６３巷１號","OBJECTID":299467},"geometry":{"x":172830.23000000138,"y":2545126.0200000014}},{"attributes":{"ID":299476,"DIS_CODE":0,"TOWNNAME":"永康區","LI":"復國里","LIN":"8鄰","STREET":"復國二路","SECT":" ","MAREA":" ","LANE":"６１巷","ALLEY":" ","HOUSE_NO":"１８號","E_COORD97":172785.31,"N_COORD97":2545109.52,"ADDRESS":"復國二路６１巷１８號","OBJECTID":299468},"geometry":{"x":172785.30999999959,"y":2545109.5200000014}},{"attributes":{"ID":299477,"DIS_CODE":0,"TOWNNAME":"永康區","LI":"復國里","LIN":"8鄰","STREET":"復國二路","SECT":" ","MAREA":" ","LANE":"６３巷","ALLEY":" ","HOUSE_NO":"２１號","E_COORD97":172774.38,"N_COORD97":2545130.27,"ADDRESS":"復國二路６３巷２１號","OBJECTID":299469},"geometry":{"x":172774.38000000082,"y":2545130.2699999996}},{"attributes":{"ID":299478,"DIS_CODE":0,"TOWNNAME":"東區","LI":"文聖里","LIN":"14鄰","STREET":"裕興街","SECT":" ","MAREA":" ","LANE":" ","ALLEY":" ","HOUSE_NO":"２１９號","E_COORD97":172381.03,"N_COORD97":2542656.6699999999,"ADDRESS":"裕興街２１９號","OBJECTID":299470},"geometry":{"x":172381.03000000026,"y":2542656.6700000037}},{"attributes":{"ID":299479,"DIS_CODE":0,"TOWNNAME":"東區","LI":"文聖里","LIN":"14鄰","STREET":"裕興街","SECT":" ","MAREA":" ","LANE":" ","ALLEY":" ","HOUSE_NO":"２２１號","E_COORD97":172387.09,"N_COORD97":2542656.8500000001,"ADDRESS":"裕興街２２１號","OBJECTID":299471},"geometry":{"x":172387.08999999985,"y":2542656.8500000015}},{"attributes":{"ID":299480,"DIS_CODE":0,"TOWNNAME":"東區","LI":"文聖里","LIN":"14鄰","STREET":"裕興街","SECT":" ","MAREA":" ","LANE":" ","ALLEY":" ","HOUSE_NO":"２２３號","E_COORD97":172392.79000000001,"N_COORD97":2542656.6699999999,"ADDRESS":"裕興街２２３號","OBJECTID":299472},"geometry":{"x":172392.79000000004,"y":2542656.6700000037}},{"attributes":{"ID":299481,"DIS_CODE":0,"TOWNNAME":"北區","LI":"大道里","LIN":"4鄰","STREET":"北門路","SECT":"二段","MAREA":" ","LANE":"５７６巷","ALLEY":" ","HOUSE_NO":"２號七樓之２","E_COORD97":169677.76000000001,"N_COORD97":2545660.9700000002,"ADDRESS":"北門路二段５７６巷２號七樓之２","OBJECTID":299473},"geometry":{"x":169677.76000000164,"y":2545660.9700000025}},{"attributes":{"ID":299482,"DIS_CODE":0,"TOWNNAME":"北區","LI":"大道里","LIN":"4鄰","STREET":"北門路","SECT":"二段","MAREA":" ","LANE":"５７６巷","ALLEY":" ","HOUSE_NO":"２號七樓之１","E_COORD97":169677.76000000001,"N_COORD97":2545660.9700000002,"ADDRESS":"北門路二段５７６巷２號七樓之１","OBJECTID":299474},"geometry":{"x":169677.76000000164,"y":2545660.9700000025}},{"attributes":{"ID":299483,"DIS_CODE":0,"TOWNNAME":"北區","LI":"大道里","LIN":"4鄰","STREET":"北門路","SECT":"二段","MAREA":" ","LANE":"５７６巷","ALLEY":" ","HOUSE_NO":"２號八樓之２","E_COORD97":169677.76000000001,"N_COORD97":2545660.9700000002,"ADDRESS":"北門路二段５７６巷２號八樓之２","OBJECTID":299475},"geometry":{"x":169677.76000000164,"y":2545660.9700000025}},{"attributes":{"ID":299484,"DIS_CODE":0,"TOWNNAME":"永康區","LI":"復國里","LIN":"8鄰","STREET":"復國二路","SECT":" ","MAREA":" ","LANE":"６５巷","ALLEY":" ","HOUSE_NO":"１８號","E_COORD97":172781.16,"N_COORD97":2545178.5499999998,"ADDRESS":"復國二路６５巷１８號","OBJECTID":299476},"geometry":{"x":172781.16000000108,"y":2545178.5500000026}},{"attributes":{"ID":299485,"DIS_CODE":0,"TOWNNAME":"安南區","LI":"鳳凰里","LIN":"8鄰","STREET":"安中路","SECT":"一段","MAREA":" ","LANE":"７００巷","ALLEY":" ","HOUSE_NO":"２０號之２","E_COORD97":167687.82999999999,"N_COORD97":2549263.8599999999,"ADDRESS":"安中路一段７００巷２０號之２","OBJECTID":299477},"geometry":{"x":167687.83000000101,"y":2549263.8600000013}},{"attributes":{"ID":299486,"DIS_CODE":0,"TOWNNAME":"安南區","LI":"梅花里","LIN":"8鄰","STREET":"安中路","SECT":"一段","MAREA":" ","LANE":"７０１巷","ALLEY":" ","HOUSE_NO":"２號之２","E_COORD97":167595.57000000001,"N_COORD97":2549230.4100000001,"ADDRESS":"安中路一段７０１巷２號之２","OBJECTID":299478},"geometry":{"x":167595.5700000003,"y":2549230.410000002}},{"attributes":{"ID":299487,"DIS_CODE":0,"TOWNNAME":"安南區","LI":"鳳凰里","LIN":"8鄰","STREET":"安中路","SECT":"一段","MAREA":" ","LANE":"７００巷","ALLEY":" ","HOUSE_NO":"４６號之３","E_COORD97":167788.32000000001,"N_COORD97":2549252.7799999998,"ADDRESS":"安中路一段７００巷４６號之３","OBJECTID":299479},"geometry":{"x":167788.32000000123,"y":2549252.7799999975}},{"attributes":{"ID":299488,"DIS_CODE":0,"TOWNNAME":"安南區","LI":"鳳凰里","LIN":"8鄰","STREET":"安中路","SECT":"一段","MAREA":" ","LANE":"７００巷","ALLEY":" ","HOUSE_NO":"２２號","E_COORD97":167694.89999999999,"N_COORD97":2549263.3900000001,"ADDRESS":"安中路一段７００巷２２號","OBJECTID":299480},"geometry":{"x":167694.90000000037,"y":2549263.3900000006}},{"attributes":{"ID":299489,"DIS_CODE":0,"TOWNNAME":"安南區","LI":"鳳凰里","LIN":"8鄰","STREET":"安中路","SECT":"一段","MAREA":" ","LANE":"７００巷","ALLEY":" ","HOUSE_NO":"２４號","E_COORD97":167703.85000000001,"N_COORD97":2549263.04,"ADDRESS":"安中路一段７００巷２４號","OBJECTID":299481},"geometry":{"x":167703.85000000056,"y":2549263.0399999991}},{"attributes":{"ID":299490,"DIS_CODE":0,"TOWNNAME":"安南區","LI":"鳳凰里","LIN":"8鄰","STREET":"安中路","SECT":"一段","MAREA":" ","LANE":"７００巷","ALLEY":" ","HOUSE_NO":"２６號之１","E_COORD97":167710.79999999999,"N_COORD97":2549262.7999999998,"ADDRESS":"安中路一段７００巷２６號之１","OBJECTID":299482},"geometry":{"x":167710.79999999981,"y":2549262.8000000026}},{"attributes":{"ID":299491,"DIS_CODE":0,"TOWNNAME":"安南區","LI":"鳳凰里","LIN":"8鄰","STREET":"安中路","SECT":"一段","MAREA":" ","LANE":"７００巷","ALLEY":" ","HOUSE_NO":"２８號之１","E_COORD97":167719.39999999999,"N_COORD97":2549261.6299999999,"ADDRESS":"安中路一段７００巷２８號之１","OBJECTID":299483},"geometry":{"x":167719.40000000224,"y":2549261.6300000008}},{"attributes":{"ID":299492,"DIS_CODE":0,"TOWNNAME":"安南區","LI":"鳳凰里","LIN":"8鄰","STREET":"安中路","SECT":"一段","MAREA":" ","LANE":"７００巷","ALLEY":" ","HOUSE_NO":"３０號之１","E_COORD97":167726.92999999999,"N_COORD97":2549261.1600000001,"ADDRESS":"安中路一段７００巷３０號之１","OBJECTID":299484},"geometry":{"x":167726.93000000156,"y":2549261.1600000001}},{"attributes":{"ID":299493,"DIS_CODE":0,"TOWNNAME":"安南區","LI":"鳳凰里","LIN":"8鄰","STREET":"安中路","SECT":"一段","MAREA":" ","LANE":"７００巷","ALLEY":" ","HOUSE_NO":"３２號","E_COORD97":167735.29999999999,"N_COORD97":2549260.9199999999,"ADDRESS":"安中路一段７００巷３２號","OBJECTID":299485},"geometry":{"x":167735.30000000075,"y":2549260.9200000018}},{"attributes":{"ID":299494,"DIS_CODE":0,"TOWNNAME":"安南區","LI":"鳳凰里","LIN":"8鄰","STREET":"安中路","SECT":"一段","MAREA":" ","LANE":"７００巷","ALLEY":" ","HOUSE_NO":"３４號","E_COORD97":167742.60000000001,"N_COORD97":2549260.6899999999,"ADDRESS":"安中路一段７００巷３４號","OBJECTID":299486},"geometry":{"x":167742.60000000149,"y":2549260.6900000032}},{"attributes":{"ID":299495,"DIS_CODE":0,"TOWNNAME":"安南區","LI":"鳳凰里","LIN":"8鄰","STREET":"安中路","SECT":"一段","MAREA":" ","LANE":"７００巷","ALLEY":" ","HOUSE_NO":"３８號","E_COORD97":167757.57999999999,"N_COORD97":2549254.1899999999,"ADDRESS":"安中路一段７００巷３８號","OBJECTID":299487},"geometry":{"x":167757.58000000101,"y":2549254.1900000013}},{"attributes":{"ID":299496,"DIS_CODE":0,"TOWNNAME":"安南區","LI":"鳳凰里","LIN":"8鄰","STREET":"安中路","SECT":"一段","MAREA":" ","LANE":"７００巷","ALLEY":" ","HOUSE_NO":"４０號","E_COORD97":167764.64999999999,"N_COORD97":2549254.0699999998,"ADDRESS":"安中路一段７００巷４０號","OBJECTID":299488},"geometry":{"x":167764.65000000037,"y":2549254.0700000003}},{"attributes":{"ID":299497,"DIS_CODE":0,"TOWNNAME":"安南區","LI":"鳳凰里","LIN":"8鄰","STREET":"安中路","SECT":"一段","MAREA":" ","LANE":"７００巷","ALLEY":" ","HOUSE_NO":"４２號","E_COORD97":167772.64999999999,"N_COORD97":2549253.48,"ADDRESS":"安中路一段７００巷４２號","OBJECTID":299489},"geometry":{"x":167772.6500000013,"y":2549253.4800000023}},{"attributes":{"ID":299498,"DIS_CODE":0,"TOWNNAME":"安南區","LI":"鳳凰里","LIN":"8鄰","STREET":"安中路","SECT":"一段","MAREA":" ","LANE":"７００巷","ALLEY":" ","HOUSE_NO":"４４號之１","E_COORD97":167779.48000000001,"N_COORD97":2549253.0099999998,"ADDRESS":"安中路一段７００巷４４號之１","OBJECTID":299490},"geometry":{"x":167779.48000000045,"y":2549253.0100000016}},{"attributes":{"ID":299499,"DIS_CODE":0,"TOWNNAME":"安南區","LI":"鳳凰里","LIN":"8鄰","STREET":"安中路","SECT":"一段","MAREA":" ","LANE":"７００巷","ALLEY":" ","HOUSE_NO":"４８號","E_COORD97":167795.5,"N_COORD97":2549252.5299999998,"ADDRESS":"安中路一段７００巷４８號","OBJECTID":299491},"geometry":{"x":167795.5,"y":2549252.5300000012}},{"attributes":{"ID":299500,"DIS_CODE":0,"TOWNNAME":"安南區","LI":"梅花里","LIN":"8鄰","STREET":"安中路","SECT":"一段","MAREA":" ","LANE":"７０１巷","ALLEY":" ","HOUSE_NO":"１４號","E_COORD97":167562.81,"N_COORD97":2549202.77,"ADDRESS":"安中路一段７０１巷１４號","OBJECTID":299492},"geometry":{"x":167562.80999999959,"y":2549202.7700000014}},{"attributes":{"ID":299501,"DIS_CODE":0,"TOWNNAME":"安南區","LI":"梅花里","LIN":"8鄰","STREET":"安中路","SECT":"一段","MAREA":" ","LANE":"７０１巷","ALLEY":" ","HOUSE_NO":"１６號","E_COORD97":167554.92999999999,"N_COORD97":2549193.8399999999,"ADDRESS":"安中路一段７０１巷１６號","OBJECTID":299493},"geometry":{"x":167554.9299999997,"y":2549193.8399999999}},{"attributes":{"ID":299502,"DIS_CODE":0,"TOWNNAME":"安南區","LI":"梅花里","LIN":"8鄰","STREET":"安中路","SECT":"一段","MAREA":" ","LANE":"７０１巷","ALLEY":" ","HOUSE_NO":"２０號","E_COORD97":167543.91,"N_COORD97":2549180.6800000002,"ADDRESS":"安中路一段７０１巷２０號","OBJECTID":299494},"geometry":{"x":167543.91000000015,"y":2549180.6800000016}},{"attributes":{"ID":299503,"DIS_CODE":0,"TOWNNAME":"安南區","LI":"梅花里","LIN":"8鄰","STREET":"安中路","SECT":"一段","MAREA":" ","LANE":"７０１巷","ALLEY":" ","HOUSE_NO":"４號之１","E_COORD97":167589.39999999999,"N_COORD97":2549224.46,"ADDRESS":"安中路一段７０１巷４號之１","OBJECTID":299495},"geometry":{"x":167589.4000000013,"y":2549224.4600000028}},{"attributes":{"ID":299504,"DIS_CODE":0,"TOWNNAME":"安南區","LI":"梅花里","LIN":"8鄰","STREET":"安中路","SECT":"一段","MAREA":" ","LANE":"７０１巷","ALLEY":" ","HOUSE_NO":"６號","E_COORD97":167584.92999999999,"N_COORD97":2549221.48,"ADDRESS":"安中路一段７０１巷６號","OBJECTID":299496},"geometry":{"x":167584.93000000063,"y":2549221.4800000004}},{"attributes":{"ID":299505,"DIS_CODE":0,"TOWNNAME":"仁德區","LI":"仁義里","LIN":"8鄰","STREET":"中山路","SECT":" ","MAREA":" ","LANE":"５０９巷","ALLEY":" ","HOUSE_NO":"１９號","E_COORD97":173545.70000000001,"N_COORD97":2541215.9900000002,"ADDRESS":"中山路５０９巷１９號","OBJECTID":299497},"geometry":{"x":173545.70000000112,"y":2541215.9900000002}},{"attributes":{"ID":299506,"DIS_CODE":0,"TOWNNAME":"仁德區","LI":"太子里","LIN":"8鄰","STREET":"太子路","SECT":" ","MAREA":" ","LANE":"１７２巷","ALLEY":" ","HOUSE_NO":"１２號","E_COORD97":174385.19,"N_COORD97":2543575.75,"ADDRESS":"太子路１７２巷１２號","OBJECTID":299498},"geometry":{"x":174385.19000000134,"y":2543575.7500000019}},{"attributes":{"ID":299507,"DIS_CODE":0,"TOWNNAME":"東區","LI":"關聖里","LIN":"14鄰","STREET":"裕英街","SECT":" ","MAREA":" ","LANE":" ","ALLEY":" ","HOUSE_NO":"５２號","E_COORD97":172149.98999999999,"N_COORD97":2543003.1299999999,"ADDRESS":"裕英街５２號","OBJECTID":299499},"geometry":{"x":172149.99000000115,"y":2543003.1300000008}},{"attributes":{"ID":299508,"DIS_CODE":0,"TOWNNAME":"東區","LI":"東光里","LIN":"14鄰","STREET":"東光路","SECT":"一段","MAREA":" ","LANE":" ","ALLEY":" ","HOUSE_NO":"１３０號","E_COORD97":171209.14999999999,"N_COORD97":2543902.29,"ADDRESS":"東光路一段１３０號","OBJECTID":299500},"geometry":{"x":171209.15000000037,"y":2543902.2899999991}},{"attributes":{"ID":299509,"DIS_CODE":0,"TOWNNAME":"東區","LI":"東光里","LIN":"14鄰","STREET":"東光路","SECT":"一段","MAREA":" ","LANE":" ","ALLEY":" ","HOUSE_NO":"１３２號","E_COORD97":171209.47,"N_COORD97":2543908.5099999998,"ADDRESS":"東光路一段１３２號","OBJECTID":299501},"geometry":{"x":171209.47000000067,"y":2543908.5099999979}},{"attributes":{"ID":299510,"DIS_CODE":0,"TOWNNAME":"中西區","LI":"藥王里","LIN":"8鄰","STREET":"大新街","SECT":" ","MAREA":" ","LANE":"８巷","ALLEY":" ","HOUSE_NO":"５號","E_COORD97":167167.5,"N_COORD97":2544320.1000000001,"ADDRESS":"大新街８巷５號","OBJECTID":299502},"geometry":{"x":167167.50000000186,"y":2544320.0999999996}},{"attributes":{"ID":299511,"DIS_CODE":0,"TOWNNAME":"東區","LI":"東光里","LIN":"14鄰","STREET":"東光路","SECT":"一段","MAREA":" ","LANE":" ","ALLEY":" ","HOUSE_NO":"１３６號","E_COORD97":171209.95999999999,"N_COORD97":2543913.2599999998,"ADDRESS":"東光路一段１３６號","OBJECTID":299503},"geometry":{"x":171209.95999999996,"y":2543913.2599999998}},{"attributes":{"ID":299512,"DIS_CODE":0,"TOWNNAME":"永康區","LI":"復國里","LIN":"5鄰","STREET":"復國一路","SECT":" ","MAREA":" ","LANE":"９０巷","ALLEY":" ","HOUSE_NO":"４４號","E_COORD97":172791.29000000001,"N_COORD97":2544894.5299999998,"ADDRESS":"復國一路９０巷４４號","OBJECTID":299504},"geometry":{"x":172791.29000000004,"y":2544894.5300000031}},{"attributes":{"ID":299513,"DIS_CODE":0,"TOWNNAME":"永康區","LI":"崑山里","LIN":"18鄰","STREET":"大灣路","SECT":" ","MAREA":" ","LANE":"９４２巷","ALLEY":" ","HOUSE_NO":"４號","E_COORD97":173620.45000000001,"N_COORD97":2544449.25,"ADDRESS":"大灣路９４２巷４號","OBJECTID":299505},"geometry":{"x":173620.45000000112,"y":2544449.25}},{"attributes":{"ID":299514,"DIS_CODE":0,"TOWNNAME":"仁德區","LI":"太子里","LIN":"8鄰","STREET":"太子路","SECT":" ","MAREA":" ","LANE":"１７２巷","ALLEY":" ","HOUSE_NO":"１６號","E_COORD97":174383.73999999999,"N_COORD97":2543588,"ADDRESS":"太子路１７２巷１６號","OBJECTID":299506},"geometry":{"x":174383.74000000022,"y":2543588.0000000019}},{"attributes":{"ID":299515,"DIS_CODE":0,"TOWNNAME":"仁德區","LI":"田厝里","LIN":"8鄰","STREET":"保安路","SECT":"二段","MAREA":" ","LANE":"４７７巷","ALLEY":" ","HOUSE_NO":"２２號","E_COORD97":172427.04000000001,"N_COORD97":2537580.8100000001,"ADDRESS":"保安路二段４７７巷２２號","OBJECTID":299507},"geometry":{"x":172427.04000000004,"y":2537580.8099999987}},{"attributes":{"ID":299516,"DIS_CODE":0,"TOWNNAME":"東區","LI":"東光里","LIN":"14鄰","STREET":"東光路","SECT":"一段","MAREA":" ","LANE":" ","ALLEY":" ","HOUSE_NO":"１３８號","E_COORD97":171210.62,"N_COORD97":2543918,"ADDRESS":"東光路一段１３８號","OBJECTID":299508},"geometry":{"x":171210.62000000011,"y":2543918}},{"attributes":{"ID":299517,"DIS_CODE":0,"TOWNNAME":"東區","LI":"東光里","LIN":"14鄰","STREET":"東光路","SECT":"一段","MAREA":" ","LANE":" ","ALLEY":" ","HOUSE_NO":"１４０號","E_COORD97":171211.10999999999,"N_COORD97":2543922.9199999999,"ADDRESS":"東光路一段１４０號","OBJECTID":299509},"geometry":{"x":171211.11000000034,"y":2543922.9200000037}},{"attributes":{"ID":299518,"DIS_CODE":0,"TOWNNAME":"永康區","LI":"崑山里","LIN":"20鄰","STREET":"崑山街","SECT":" ","MAREA":" ","LANE":"２１巷","ALLEY":" ","HOUSE_NO":"１０號","E_COORD97":173871.19,"N_COORD97":2544583.4199999999,"ADDRESS":"崑山街２１巷１０號","OBJECTID":299510},"geometry":{"x":173871.19000000134,"y":2544583.4199999999}},{"attributes":{"ID":299519,"DIS_CODE":0,"TOWNNAME":"東區","LI":"東智里","LIN":"8鄰","STREET":"長東街","SECT":" ","MAREA":" ","LANE":"１０８巷","ALLEY":" ","HOUSE_NO":"１號","E_COORD97":171015.75,"N_COORD97":2540198.48,"ADDRESS":"長東街１０８巷１號","OBJECTID":299511},"geometry":{"x":171015.75000000093,"y":2540198.4800000023}},{"attributes":{"ID":299520,"DIS_CODE":0,"TOWNNAME":"東區","LI":"東智里","LIN":"8鄰","STREET":"長東街","SECT":" ","MAREA":" ","LANE":"１０８巷","ALLEY":" ","HOUSE_NO":"３號","E_COORD97":171011.64000000001,"N_COORD97":2540197.6899999999,"ADDRESS":"長東街１０８巷３號","OBJECTID":299512},"geometry":{"x":171011.63999999966,"y":2540197.6899999995}},{"attributes":{"ID":299521,"DIS_CODE":0,"TOWNNAME":"東區","LI":"東智里","LIN":"8鄰","STREET":"長東街","SECT":" ","MAREA":" ","LANE":"１０８巷","ALLEY":" ","HOUSE_NO":"２３號","E_COORD97":170963.22,"N_COORD97":2540194.6800000002,"ADDRESS":"長東街１０８巷２３號","OBJECTID":299513},"geometry":{"x":170963.22000000067,"y":2540194.6799999997}},{"attributes":{"ID":299522,"DIS_CODE":0,"TOWNNAME":"東區","LI":"大智里","LIN":"8鄰","STREET":"長東街","SECT":" ","MAREA":" ","LANE":"１０３巷","ALLEY":" ","HOUSE_NO":"３５號","E_COORD97":171105.35000000001,"N_COORD97":2540347.1400000001,"ADDRESS":"長東街１０３巷３５號","OBJECTID":299514},"geometry":{"x":171105.34999999963,"y":2540347.1400000006}},{"attributes":{"ID":299523,"DIS_CODE":0,"TOWNNAME":"東區","LI":"崇善里","LIN":"8鄰","STREET":"崇善七街","SECT":" ","MAREA":" ","LANE":"８巷","ALLEY":" ","HOUSE_NO":"６號","E_COORD97":171067.13,"N_COORD97":2541420.7599999998,"ADDRESS":"崇善七街８巷６號","OBJECTID":299515},"geometry":{"x":171067.13000000175,"y":2541420.7599999998}},{"attributes":{"ID":299524,"DIS_CODE":0,"TOWNNAME":"東區","LI":"崇善里","LIN":"8鄰","STREET":"崇善七街","SECT":" ","MAREA":" ","LANE":"８巷","ALLEY":" ","HOUSE_NO":"１２號","E_COORD97":171073.64999999999,"N_COORD97":2541405.6699999999,"ADDRESS":"崇善七街８巷１２號","OBJECTID":299516},"geometry":{"x":171073.65000000037,"y":2541405.6700000037}},{"attributes":{"ID":299525,"DIS_CODE":0,"TOWNNAME":"東區","LI":"崇善里","LIN":"8鄰","STREET":"崇善七街","SECT":" ","MAREA":" ","LANE":"３０巷","ALLEY":" ","HOUSE_NO":"１８號","E_COORD97":171114.59,"N_COORD97":2541422.02,"ADDRESS":"崇善七街３０巷１８號","OBJECTID":299517},"geometry":{"x":171114.58999999892,"y":2541422.0199999996}},{"attributes":{"ID":299526,"DIS_CODE":0,"TOWNNAME":"東區","LI":"崇善里","LIN":"8鄰","STREET":"崇善七街","SECT":" ","MAREA":" ","LANE":"３０巷","ALLEY":" ","HOUSE_NO":"２２號","E_COORD97":171118.54999999999,"N_COORD97":2541414.4199999999,"ADDRESS":"崇善七街３０巷２２號","OBJECTID":299518},"geometry":{"x":171118.55000000075,"y":2541414.4200000018}},{"attributes":{"ID":299527,"DIS_CODE":0,"TOWNNAME":"東區","LI":"東光里","LIN":"14鄰","STREET":"東光路","SECT":"一段","MAREA":" ","LANE":" ","ALLEY":" ","HOUSE_NO":"１４２號","E_COORD97":171211.44,"N_COORD97":2543928.8100000001,"ADDRESS":"東光路一段１４２號","OBJECTID":299519},"geometry":{"x":171211.44000000134,"y":2543928.8100000024}},{"attributes":{"ID":299528,"DIS_CODE":0,"TOWNNAME":"東區","LI":"崇善里","LIN":"8鄰","STREET":"崇善七街","SECT":" ","MAREA":" ","LANE":"４６巷","ALLEY":" ","HOUSE_NO":"７號","E_COORD97":171163.39000000001,"N_COORD97":2541467.3199999998,"ADDRESS":"崇善七街４６巷７號","OBJECTID":299520},"geometry":{"x":171163.39000000153,"y":2541467.3200000022}},{"attributes":{"ID":299529,"DIS_CODE":0,"TOWNNAME":"仁德區","LI":"成功里","LIN":"8鄰","STREET":"保華路","SECT":" ","MAREA":" ","LANE":"１２９巷","ALLEY":" ","HOUSE_NO":"２８號","E_COORD97":171093.85000000001,"N_COORD97":2539977.9900000002,"ADDRESS":"保華路１２９巷２８號","OBJECTID":299521},"geometry":{"x":171093.84999999963,"y":2539977.9900000021}},{"attributes":{"ID":299530,"DIS_CODE":0,"TOWNNAME":"仁德區","LI":"成功里","LIN":"8鄰","STREET":"保華路","SECT":" ","MAREA":" ","LANE":"１２９巷","ALLEY":" ","HOUSE_NO":"５０號","E_COORD97":171096.58016700001,"N_COORD97":2539922.4210700002,"ADDRESS":"保華路１２９巷５０號","OBJECTID":299522},"geometry":{"x":171096.58016700204,"y":2539922.4210660011}},{"attributes":{"ID":299531,"DIS_CODE":0,"TOWNNAME":"仁德區","LI":"成功里","LIN":"8鄰","STREET":"保華路","SECT":" ","MAREA":" ","LANE":"１２９巷","ALLEY":" ","HOUSE_NO":"６２之１號","E_COORD97":171107.5,"N_COORD97":2539866.54,"ADDRESS":"保華路１２９巷６２之１號","OBJECTID":299523},"geometry":{"x":171107.50000000093,"y":2539866.5400000028}},{"attributes":{"ID":299532,"DIS_CODE":0,"TOWNNAME":"仁德區","LI":"太子里","LIN":"8鄰","STREET":"太子路","SECT":" ","MAREA":" ","LANE":"１７２巷","ALLEY":" ","HOUSE_NO":"１０號","E_COORD97":174388.37,"N_COORD97":2543559.25,"ADDRESS":"太子路１７２巷１０號","OBJECTID":299524},"geometry":{"x":174388.37000000104,"y":2543559.2500000019}},{"attributes":{"ID":299533,"DIS_CODE":0,"TOWNNAME":"仁德區","LI":"田厝里","LIN":"8鄰","STREET":"保安路","SECT":"二段","MAREA":" ","LANE":"４７７巷","ALLEY":" ","HOUSE_NO":"２０號","E_COORD97":172427.53,"N_COORD97":2537576.3100000001,"ADDRESS":"保安路二段４７７巷２０號","OBJECTID":299525},"geometry":{"x":172427.52999999933,"y":2537576.3100000005}},{"attributes":{"ID":299534,"DIS_CODE":0,"TOWNNAME":"仁德區","LI":"保安里","LIN":"8鄰","STREET":"文賢路","SECT":"一段","MAREA":" ","LANE":"７９５巷","ALLEY":" ","HOUSE_NO":"３號","E_COORD97":171563.31,"N_COORD97":2536095.3300000001,"ADDRESS":"文賢路一段７９５巷３號","OBJECTID":299526},"geometry":{"x":171563.30999999959,"y":2536095.3300000038}},{"attributes":{"ID":299535,"DIS_CODE":0,"TOWNNAME":"仁德區","LI":"成功里","LIN":"8鄰","STREET":"保華路","SECT":" ","MAREA":" ","LANE":"１２９巷","ALLEY":" ","HOUSE_NO":"２４號","E_COORD97":171092.76999999999,"N_COORD97":2539987.5,"ADDRESS":"保華路１２９巷２４號","OBJECTID":299527},"geometry":{"x":171092.77000000142,"y":2539987.5000000019}},{"attributes":{"ID":299536,"DIS_CODE":0,"TOWNNAME":"仁德區","LI":"成功里","LIN":"8鄰","STREET":"保華路","SECT":" ","MAREA":" ","LANE":"１４５巷","ALLEY":" ","HOUSE_NO":"３５號","E_COORD97":171071.65255900001,"N_COORD97":2539935.02881,"ADDRESS":"保華路１４５巷３５號","OBJECTID":299528},"geometry":{"x":171071.65255900007,"y":2539935.0288130026}},{"attributes":{"ID":299537,"DIS_CODE":0,"TOWNNAME":"仁德區","LI":"後壁里","LIN":"8鄰","STREET":"民安路","SECT":"二段","MAREA":" ","LANE":"１３８巷","ALLEY":" ","HOUSE_NO":"６號","E_COORD97":173658.98000000001,"N_COORD97":2539037.5600000001,"ADDRESS":"民安路二段１３８巷６號","OBJECTID":299529},"geometry":{"x":173658.98000000231,"y":2539037.5600000024}},{"attributes":{"ID":299538,"DIS_CODE":0,"TOWNNAME":"仁德區","LI":"後壁里","LIN":"8鄰","STREET":"民安路","SECT":"二段","MAREA":" ","LANE":"１３８巷","ALLEY":" ","HOUSE_NO":"８號","E_COORD97":173655.38,"N_COORD97":2539034.5600000001,"ADDRESS":"民安路二段１３８巷８號","OBJECTID":299530},"geometry":{"x":173655.37999999989,"y":2539034.5600000024}},{"attributes":{"ID":299539,"DIS_CODE":0,"TOWNNAME":"仁德區","LI":"後壁里","LIN":"8鄰","STREET":"民安路","SECT":"二段","MAREA":" ","LANE":"１３８巷","ALLEY":" ","HOUSE_NO":"４號","E_COORD97":173662.12,"N_COORD97":2539040.0600000001,"ADDRESS":"民安路二段１３８巷４號","OBJECTID":299531},"geometry":{"x":173662.12000000011,"y":2539040.0600000005}},{"attributes":{"ID":299540,"DIS_CODE":0,"TOWNNAME":"仁德區","LI":"後壁里","LIN":"8鄰","STREET":"民安路","SECT":"二段","MAREA":" ","LANE":"１３８巷","ALLEY":" ","HOUSE_NO":"９號","E_COORD97":173659.97,"N_COORD97":2539018.8100000001,"ADDRESS":"民安路二段１３８巷９號","OBJECTID":299532},"geometry":{"x":173659.9700000016,"y":2539018.8100000024}},{"attributes":{"ID":299541,"DIS_CODE":0,"TOWNNAME":"仁德區","LI":"後壁里","LIN":"8鄰","STREET":"民安路","SECT":"二段","MAREA":" ","LANE":"１３８巷","ALLEY":" ","HOUSE_NO":"３號","E_COORD97":173672.06,"N_COORD97":2539025.3100000001,"ADDRESS":"民安路二段１３８巷３號","OBJECTID":299533},"geometry":{"x":173672.05999999959,"y":2539025.3100000042}},{"attributes":{"ID":299542,"DIS_CODE":0,"TOWNNAME":"仁德區","LI":"後壁里","LIN":"8鄰","STREET":"民安路","SECT":"二段","MAREA":" ","LANE":"１３８巷","ALLEY":" ","HOUSE_NO":"１號","E_COORD97":173676.10000000001,"N_COORD97":2539027.3100000001,"ADDRESS":"民安路二段１３８巷１號","OBJECTID":299534},"geometry":{"x":173676.10000000056,"y":2539027.3100000005}},{"attributes":{"ID":299543,"DIS_CODE":0,"TOWNNAME":"中西區","LI":"藥王里","LIN":"8鄰","STREET":"大新街","SECT":" ","MAREA":" ","LANE":"２２巷","ALLEY":" ","HOUSE_NO":"８號","E_COORD97":167174.64000000001,"N_COORD97":2544334.9199999999,"ADDRESS":"大新街２２巷８號","OBJECTID":299535},"geometry":{"x":167174.64000000153,"y":2544334.9200000018}},{"attributes":{"ID":299544,"DIS_CODE":0,"TOWNNAME":"安南區","LI":"溪東里","LIN":"8鄰","STREET":"府安路","SECT":"五段","MAREA":" ","LANE":"３５巷","ALLEY":" ","HOUSE_NO":"１８號","E_COORD97":168365.54000000001,"N_COORD97":2547268.1099999999,"ADDRESS":"府安路五段３５巷１８號","OBJECTID":299536},"geometry":{"x":168365.53999999911,"y":2547268.1100000013}},{"attributes":{"ID":299545,"DIS_CODE":0,"TOWNNAME":"安南區","LI":"溪東里","LIN":"8鄰","STREET":"府安路","SECT":"五段","MAREA":" ","LANE":"３５巷","ALLEY":" ","HOUSE_NO":"１９號","E_COORD97":168342.79999999999,"N_COORD97":2547267.1000000001,"ADDRESS":"府安路五段３５巷１９號","OBJECTID":299537},"geometry":{"x":168342.79999999981,"y":2547267.0999999996}},{"attributes":{"ID":299546,"DIS_CODE":0,"TOWNNAME":"安南區","LI":"溪東里","LIN":"8鄰","STREET":"府安路","SECT":"五段","MAREA":" ","LANE":"３５巷","ALLEY":" ","HOUSE_NO":"１號","E_COORD97":168352.91,"N_COORD97":2547216.0099999998,"ADDRESS":"府安路五段３５巷１號","OBJECTID":299538},"geometry":{"x":168352.91000000015,"y":2547216.0099999998}},{"attributes":{"ID":299547,"DIS_CODE":0,"TOWNNAME":"安南區","LI":"溪東里","LIN":"8鄰","STREET":"府安路","SECT":"五段","MAREA":" ","LANE":"３５巷","ALLEY":" ","HOUSE_NO":"２０號","E_COORD97":168364.70999999999,"N_COORD97":2547274.21,"ADDRESS":"府安路五段３５巷２０號","OBJECTID":299539},"geometry":{"x":168364.71000000089,"y":2547274.2100000009}},{"attributes":{"ID":299548,"DIS_CODE":0,"TOWNNAME":"安南區","LI":"溪東里","LIN":"8鄰","STREET":"府安路","SECT":"五段","MAREA":" ","LANE":"３５巷","ALLEY":" ","HOUSE_NO":"２１號","E_COORD97":168342.45000000001,"N_COORD97":2547273.3799999999,"ADDRESS":"府安路五段３５巷２１號","OBJECTID":299540},"geometry":{"x":168342.45000000019,"y":2547273.3800000008}},{"attributes":{"ID":299549,"DIS_CODE":0,"TOWNNAME":"安南區","LI":"溪東里","LIN":"8鄰","STREET":"府安路","SECT":"五段","MAREA":" ","LANE":"３５巷","ALLEY":" ","HOUSE_NO":"２２號","E_COORD97":168363.06,"N_COORD97":2547279.7000000002,"ADDRESS":"府安路五段３５巷２２號","OBJECTID":299541},"geometry":{"x":168363.05999999959,"y":2547279.6999999993}},{"attributes":{"ID":299550,"DIS_CODE":0,"TOWNNAME":"安南區","LI":"溪東里","LIN":"8鄰","STREET":"府安路","SECT":"五段","MAREA":" ","LANE":"３５巷","ALLEY":" ","HOUSE_NO":"２３號","E_COORD97":168340.10000000001,"N_COORD97":2547279.4500000002,"ADDRESS":"府安路五段３５巷２３號","OBJECTID":299542},"geometry":{"x":168340.10000000056,"y":2547279.4500000011}},{"attributes":{"ID":299551,"DIS_CODE":0,"TOWNNAME":"安南區","LI":"溪東里","LIN":"8鄰","STREET":"府安路","SECT":"五段","MAREA":" ","LANE":"３５巷","ALLEY":" ","HOUSE_NO":"２４號","E_COORD97":168361.75,"N_COORD97":2547284.9300000002,"ADDRESS":"府安路五段３５巷２４號","OBJECTID":299543},"geometry":{"x":168361.75,"y":2547284.9299999997}},{"attributes":{"ID":299552,"DIS_CODE":0,"TOWNNAME":"安南區","LI":"溪東里","LIN":"8鄰","STREET":"府安路","SECT":"五段","MAREA":" ","LANE":"３５巷","ALLEY":" ","HOUSE_NO":"２５號","E_COORD97":168339.48000000001,"N_COORD97":2547285.29,"ADDRESS":"府安路五段３５巷２５號","OBJECTID":299544},"geometry":{"x":168339.48000000231,"y":2547285.2899999991}},{"attributes":{"ID":299553,"DIS_CODE":0,"TOWNNAME":"安南區","LI":"溪東里","LIN":"8鄰","STREET":"府安路","SECT":"五段","MAREA":" ","LANE":"３５巷","ALLEY":" ","HOUSE_NO":"２６號","E_COORD97":168360.85000000001,"N_COORD97":2547290.1000000001,"ADDRESS":"府安路五段３５巷２６號","OBJECTID":299545},"geometry":{"x":168360.84999999963,"y":2547290.0999999996}},{"attributes":{"ID":299554,"DIS_CODE":0,"TOWNNAME":"安南區","LI":"溪東里","LIN":"8鄰","STREET":"府安路","SECT":"五段","MAREA":" ","LANE":"３５巷","ALLEY":" ","HOUSE_NO":"２７號","E_COORD97":168338,"N_COORD97":2547290.8700000001,"ADDRESS":"府安路五段３５巷２７號","OBJECTID":299546},"geometry":{"x":168338,"y":2547290.870000001}},{"attributes":{"ID":299555,"DIS_CODE":0,"TOWNNAME":"安南區","LI":"溪東里","LIN":"8鄰","STREET":"府安路","SECT":"五段","MAREA":" ","LANE":"３５巷","ALLEY":" ","HOUSE_NO":"２８號","E_COORD97":168360.17999999999,"N_COORD97":2547297.0699999998,"ADDRESS":"府安路五段３５巷２８號","OBJECTID":299547},"geometry":{"x":168360.1799999997,"y":2547297.0700000022}},{"attributes":{"ID":299556,"DIS_CODE":0,"TOWNNAME":"安南區","LI":"溪東里","LIN":"8鄰","STREET":"府安路","SECT":"五段","MAREA":" ","LANE":"３５巷","ALLEY":" ","HOUSE_NO":"２９號","E_COORD97":168336.23000000001,"N_COORD97":2547296.0499999998,"ADDRESS":"府安路五段３５巷２９號","OBJECTID":299548},"geometry":{"x":168336.23000000138,"y":2547296.0500000007}},{"attributes":{"ID":299557,"DIS_CODE":0,"TOWNNAME":"安南區","LI":"溪東里","LIN":"8鄰","STREET":"府安路","SECT":"五段","MAREA":" ","LANE":"３５巷","ALLEY":" ","HOUSE_NO":"２號","E_COORD97":168376.42000000001,"N_COORD97":2547220.25,"ADDRESS":"府安路五段３５巷２號","OBJECTID":299549},"geometry":{"x":168376.41999999899,"y":2547220.2500000019}},{"attributes":{"ID":299558,"DIS_CODE":0,"TOWNNAME":"安南區","LI":"溪東里","LIN":"8鄰","STREET":"府安路","SECT":"五段","MAREA":" ","LANE":"３５巷","ALLEY":" ","HOUSE_NO":"３０號","E_COORD97":168358.60000000001,"N_COORD97":2547303.8100000001,"ADDRESS":"府安路五段３５巷３０號","OBJECTID":299550},"geometry":{"x":168358.60000000056,"y":2547303.8100000005}},{"attributes":{"ID":299559,"DIS_CODE":0,"TOWNNAME":"安南區","LI":"溪東里","LIN":"8鄰","STREET":"府安路","SECT":"五段","MAREA":" ","LANE":"３５巷","ALLEY":" ","HOUSE_NO":"３１號","E_COORD97":168335.39000000001,"N_COORD97":2547305.0699999998,"ADDRESS":"府安路五段３５巷３１號","OBJECTID":299551},"geometry":{"x":168335.38999999966,"y":2547305.0700000003}},{"attributes":{"ID":299560,"DIS_CODE":0,"TOWNNAME":"安南區","LI":"溪東里","LIN":"8鄰","STREET":"府安路","SECT":"五段","MAREA":" ","LANE":"３５巷","ALLEY":" ","HOUSE_NO":"３號","E_COORD97":168351.95000000001,"N_COORD97":2547222.6200000001,"ADDRESS":"府安路五段３５巷３號","OBJECTID":299552},"geometry":{"x":168351.95000000112,"y":2547222.6200000029}},{"attributes":{"ID":299561,"DIS_CODE":0,"TOWNNAME":"安南區","LI":"溪東里","LIN":"8鄰","STREET":"府安路","SECT":"五段","MAREA":" ","LANE":"３５巷","ALLEY":" ","HOUSE_NO":"４號","E_COORD97":168374.48999999999,"N_COORD97":2547225.1899999999,"ADDRESS":"府安路五段３５巷４號","OBJECTID":299553},"geometry":{"x":168374.49000000022,"y":2547225.1899999995}},{"attributes":{"ID":299562,"DIS_CODE":0,"TOWNNAME":"安南區","LI":"溪東里","LIN":"8鄰","STREET":"府安路","SECT":"五段","MAREA":" ","LANE":"３５巷","ALLEY":" ","HOUSE_NO":"５號","E_COORD97":168351.17999999999,"N_COORD97":2547228.2599999998,"ADDRESS":"府安路五段３５巷５號","OBJECTID":299554},"geometry":{"x":168351.18000000063,"y":2547228.2599999998}},{"attributes":{"ID":299563,"DIS_CODE":0,"TOWNNAME":"安南區","LI":"溪東里","LIN":"8鄰","STREET":"府安路","SECT":"五段","MAREA":" ","LANE":"３５巷","ALLEY":" ","HOUSE_NO":"６號","E_COORD97":168373.67000000001,"N_COORD97":2547231.5,"ADDRESS":"府安路五段３５巷６號","OBJECTID":299555},"geometry":{"x":168373.67000000086,"y":2547231.5000000037}},{"attributes":{"ID":299564,"DIS_CODE":0,"TOWNNAME":"安南區","LI":"溪東里","LIN":"8鄰","STREET":"府安路","SECT":"五段","MAREA":" ","LANE":"３５巷","ALLEY":" ","HOUSE_NO":"７號","E_COORD97":168349.97,"N_COORD97":2547233.48,"ADDRESS":"府安路五段３５巷７號","OBJECTID":299556},"geometry":{"x":168349.96999999974,"y":2547233.4800000023}},{"attributes":{"ID":299565,"DIS_CODE":0,"TOWNNAME":"安南區","LI":"溪東里","LIN":"8鄰","STREET":"府安路","SECT":"五段","MAREA":" ","LANE":"３５巷","ALLEY":" ","HOUSE_NO":"８號","E_COORD97":168372.16,"N_COORD97":2547237.1299999999,"ADDRESS":"府安路五段３５巷８號","OBJECTID":299557},"geometry":{"x":168372.16000000108,"y":2547237.1300000008}},{"attributes":{"ID":299566,"DIS_CODE":0,"TOWNNAME":"安南區","LI":"溪東里","LIN":"8鄰","STREET":"府安路","SECT":"五段","MAREA":" ","LANE":"３５巷","ALLEY":" ","HOUSE_NO":"９號","E_COORD97":168348.57000000001,"N_COORD97":2547238.1899999999,"ADDRESS":"府安路五段３５巷９號","OBJECTID":299558},"geometry":{"x":168348.5700000003,"y":2547238.1899999995}},{"attributes":{"ID":299567,"DIS_CODE":0,"TOWNNAME":"中西區","LI":"藥王里","LIN":"8鄰","STREET":"大新街","SECT":" ","MAREA":" ","LANE":"２２巷","ALLEY":" ","HOUSE_NO":"１０號","E_COORD97":167177.66,"N_COORD97":2544333.5499999998,"ADDRESS":"大新街２２巷１０號","OBJECTID":299559},"geometry":{"x":167177.66000000015,"y":2544333.5500000026}},{"attributes":{"ID":299568,"DIS_CODE":0,"TOWNNAME":"中西區","LI":"藥王里","LIN":"8鄰","STREET":"大新街","SECT":" ","MAREA":" ","LANE":"２２巷","ALLEY":" ","HOUSE_NO":"１２號","E_COORD97":167183.14999999999,"N_COORD97":2544331.3500000001,"ADDRESS":"大新街２２巷１２號","OBJECTID":299560},"geometry":{"x":167183.15000000037,"y":2544331.3500000015}},{"attributes":{"ID":299569,"DIS_CODE":0,"TOWNNAME":"中西區","LI":"藥王里","LIN":"8鄰","STREET":"大新街","SECT":" ","MAREA":" ","LANE":"２２巷","ALLEY":" ","HOUSE_NO":"１４號","E_COORD97":167187.54000000001,"N_COORD97":2544329.98,"ADDRESS":"大新街２２巷１４號","OBJECTID":299561},"geometry":{"x":167187.5400000019,"y":2544329.9800000042}},{"attributes":{"ID":299570,"DIS_CODE":0,"TOWNNAME":"中西區","LI":"藥王里","LIN":"8鄰","STREET":"大新街","SECT":" ","MAREA":" ","LANE":"２２巷","ALLEY":" ","HOUSE_NO":"１６號","E_COORD97":167191.66,"N_COORD97":2544327.2400000002,"ADDRESS":"大新街２２巷１６號","OBJECTID":299562},"geometry":{"x":167191.66000000015,"y":2544327.2400000002}},{"attributes":{"ID":299571,"DIS_CODE":0,"TOWNNAME":"中西區","LI":"藥王里","LIN":"8鄰","STREET":"大新街","SECT":" ","MAREA":" ","LANE":"２２巷","ALLEY":" ","HOUSE_NO":"１６號之１","E_COORD97":167196.32000000001,"N_COORD97":2544325.8599999999,"ADDRESS":"大新街２２巷１６號之１","OBJECTID":299563},"geometry":{"x":167196.32000000123,"y":2544325.8599999994}},{"attributes":{"ID":299572,"DIS_CODE":0,"TOWNNAME":"中西區","LI":"藥王里","LIN":"8鄰","STREET":"大新街","SECT":" ","MAREA":" ","LANE":"２２巷","ALLEY":" ","HOUSE_NO":"４號","E_COORD97":167163.66,"N_COORD97":2544337.1099999999,"ADDRESS":"大新街２２巷４號","OBJECTID":299564},"geometry":{"x":167163.66000000108,"y":2544337.1099999994}},{"attributes":{"ID":299573,"DIS_CODE":0,"TOWNNAME":"中西區","LI":"藥王里","LIN":"8鄰","STREET":"大新街","SECT":" ","MAREA":" ","LANE":"２２巷","ALLEY":" ","HOUSE_NO":"６號","E_COORD97":167167.78,"N_COORD97":2544334.6400000001,"ADDRESS":"大新街２２巷６號","OBJECTID":299565},"geometry":{"x":167167.78000000119,"y":2544334.6400000006}},{"attributes":{"ID":299574,"DIS_CODE":0,"TOWNNAME":"中西區","LI":"藥王里","LIN":"8鄰","STREET":"大新街","SECT":" ","MAREA":" ","LANE":"８巷","ALLEY":" ","HOUSE_NO":"１１號","E_COORD97":167182.87,"N_COORD97":2544317.9100000001,"ADDRESS":"大新街８巷１１號","OBJECTID":299566},"geometry":{"x":167182.87000000011,"y":2544317.910000002}},{"attributes":{"ID":299575,"DIS_CODE":0,"TOWNNAME":"中西區","LI":"藥王里","LIN":"8鄰","STREET":"大新街","SECT":" ","MAREA":" ","LANE":"８巷","ALLEY":" ","HOUSE_NO":"１號","E_COORD97":167158.44,"N_COORD97":2544322.8500000001,"ADDRESS":"大新街８巷１號","OBJECTID":299567},"geometry":{"x":167158.44000000134,"y":2544322.8499999996}},{"attributes":{"ID":299576,"DIS_CODE":0,"TOWNNAME":"中西區","LI":"藥王里","LIN":"8鄰","STREET":"大新街","SECT":" ","MAREA":" ","LANE":"８巷","ALLEY":" ","HOUSE_NO":"３號","E_COORD97":167163.38,"N_COORD97":2544321.2000000002,"ADDRESS":"大新街８巷３號","OBJECTID":299568},"geometry":{"x":167163.38000000082,"y":2544321.2000000011}},{"attributes":{"ID":299577,"DIS_CODE":0,"TOWNNAME":"中西區","LI":"藥王里","LIN":"8鄰","STREET":"大新街","SECT":" ","MAREA":" ","LANE":"８巷","ALLEY":" ","HOUSE_NO":"７號","E_COORD97":167172.44,"N_COORD97":2544318.46,"ADDRESS":"大新街８巷７號","OBJECTID":299569},"geometry":{"x":167172.44000000134,"y":2544318.4600000028}},{"attributes":{"ID":299578,"DIS_CODE":0,"TOWNNAME":"中西區","LI":"藥王里","LIN":"8鄰","STREET":"大新街","SECT":" ","MAREA":" ","LANE":"８巷","ALLEY":" ","HOUSE_NO":"９號","E_COORD97":167176.82999999999,"N_COORD97":2544316.54,"ADDRESS":"大新街８巷９號","OBJECTID":299570},"geometry":{"x":167176.83000000007,"y":2544316.5399999991}},{"attributes":{"ID":299579,"DIS_CODE":0,"TOWNNAME":"中西區","LI":"藥王里","LIN":"8鄰","STREET":"大新街","SECT":" ","MAREA":" ","LANE":"７巷","ALLEY":" ","HOUSE_NO":"２３號","E_COORD97":167071.92999999999,"N_COORD97":2544339.1400000001,"ADDRESS":"大新街７巷２３號","OBJECTID":299571},"geometry":{"x":167071.9299999997,"y":2544339.1400000043}},{"attributes":{"ID":299580,"DIS_CODE":0,"TOWNNAME":"中西區","LI":"藥王里","LIN":"8鄰","STREET":"大新街","SECT":" ","MAREA":" ","LANE":"７巷","ALLEY":" ","HOUSE_NO":"２５號","E_COORD97":167067.26000000001,"N_COORD97":2544340.23,"ADDRESS":"大新街７巷２５號","OBJECTID":299572},"geometry":{"x":167067.26000000071,"y":2544340.2300000004}},{"attributes":{"ID":299581,"DIS_CODE":0,"TOWNNAME":"中西區","LI":"藥王里","LIN":"8鄰","STREET":"大新街","SECT":" ","MAREA":" ","LANE":"７巷","ALLEY":" ","HOUSE_NO":"２７號","E_COORD97":167062.87,"N_COORD97":2544342.4300000002,"ADDRESS":"大新街７巷２７號","OBJECTID":299573},"geometry":{"x":167062.87000000011,"y":2544342.4299999997}},{"attributes":{"ID":299582,"DIS_CODE":0,"TOWNNAME":"中西區","LI":"藥王里","LIN":"8鄰","STREET":"大新街","SECT":" ","MAREA":" ","LANE":"７巷","ALLEY":" ","HOUSE_NO":"２９號","E_COORD97":167057.38,"N_COORD97":2544342.4300000002,"ADDRESS":"大新街７巷２９號","OBJECTID":299574},"geometry":{"x":167057.37999999989,"y":2544342.4299999997}},{"attributes":{"ID":299583,"DIS_CODE":0,"TOWNNAME":"中西區","LI":"藥王里","LIN":"8鄰","STREET":"大新街","SECT":" ","MAREA":" ","LANE":"７巷","ALLEY":" ","HOUSE_NO":"３１號","E_COORD97":167050.79000000001,"N_COORD97":2544344.3500000001,"ADDRESS":"大新街７巷３１號","OBJECTID":299575},"geometry":{"x":167050.79000000097,"y":2544344.3500000015}},{"attributes":{"ID":299584,"DIS_CODE":0,"TOWNNAME":"中西區","LI":"藥王里","LIN":"8鄰","STREET":"大新街","SECT":" ","MAREA":" ","LANE":"７巷","ALLEY":" ","HOUSE_NO":"３３號","E_COORD97":167045.03,"N_COORD97":2544349.0099999998,"ADDRESS":"大新街７巷３３號","OBJECTID":299576},"geometry":{"x":167045.03000000026,"y":2544349.0099999998}},{"attributes":{"ID":299585,"DIS_CODE":0,"TOWNNAME":"中西區","LI":"藥王里","LIN":"8鄰","STREET":"大新街","SECT":" ","MAREA":" ","LANE":"２１巷","ALLEY":" ","HOUSE_NO":"１１號","E_COORD97":167092.51999999999,"N_COORD97":2544364.54,"ADDRESS":"大新街２１巷１１號","OBJECTID":299577},"geometry":{"x":167092.52000000048,"y":2544364.5399999991}},{"attributes":{"ID":299586,"DIS_CODE":0,"TOWNNAME":"中西區","LI":"藥王里","LIN":"8鄰","STREET":"大新街","SECT":" ","MAREA":" ","LANE":"２１巷","ALLEY":" ","HOUSE_NO":"１３號","E_COORD97":167087.29999999999,"N_COORD97":2544367.0099999998,"ADDRESS":"大新街２１巷１３號","OBJECTID":299578},"geometry":{"x":167087.30000000075,"y":2544367.0100000016}},{"attributes":{"ID":299587,"DIS_CODE":0,"TOWNNAME":"中西區","LI":"藥王里","LIN":"8鄰","STREET":"大新街","SECT":" ","MAREA":" ","LANE":"２１巷","ALLEY":" ","HOUSE_NO":"１５號","E_COORD97":167083.45999999999,"N_COORD97":2544368.6600000001,"ADDRESS":"大新街２１巷１５號","OBJECTID":299579},"geometry":{"x":167083.46000000089,"y":2544368.6600000001}},{"attributes":{"ID":299588,"DIS_CODE":0,"TOWNNAME":"中西區","LI":"藥王里","LIN":"8鄰","STREET":"大新街","SECT":" ","MAREA":" ","LANE":"２１巷","ALLEY":" ","HOUSE_NO":"１７號","E_COORD97":167079.34,"N_COORD97":2544371.1299999999,"ADDRESS":"大新街２１巷１７號","OBJECTID":299580},"geometry":{"x":167079.33999999985,"y":2544371.129999999}},{"attributes":{"ID":299589,"DIS_CODE":0,"TOWNNAME":"安平區","LI":"國平里","LIN":"4鄰","STREET":"建平五街","SECT":" ","MAREA":" ","LANE":"１８４巷","ALLEY":" ","HOUSE_NO":"８號六樓之１３","E_COORD97":165592.51000000001,"N_COORD97":2543215.7200000002,"ADDRESS":"建平五街１８４巷８號六樓之１３","OBJECTID":299581},"geometry":{"x":165592.51000000071,"y":2543215.7200000007}},{"attributes":{"ID":299590,"DIS_CODE":0,"TOWNNAME":"中西區","LI":"藥王里","LIN":"8鄰","STREET":"大新街","SECT":" ","MAREA":" ","LANE":"２１巷","ALLEY":" ","HOUSE_NO":"１９號","E_COORD97":167074.13,"N_COORD97":2544372.2200000002,"ADDRESS":"大新街２１巷１９號","OBJECTID":299582},"geometry":{"x":167074.12999999989,"y":2544372.2200000007}},{"attributes":{"ID":299591,"DIS_CODE":0,"TOWNNAME":"中西區","LI":"藥王里","LIN":"8鄰","STREET":"大新街","SECT":" ","MAREA":" ","LANE":"２１巷","ALLEY":" ","HOUSE_NO":"１號","E_COORD97":167114.20000000001,"N_COORD97":2544356.3100000001,"ADDRESS":"大新街２１巷１號","OBJECTID":299583},"geometry":{"x":167114.20000000112,"y":2544356.3100000024}},{"attributes":{"ID":299592,"DIS_CODE":0,"TOWNNAME":"中西區","LI":"藥王里","LIN":"8鄰","STREET":"大新街","SECT":" ","MAREA":" ","LANE":"２１巷","ALLEY":" ","HOUSE_NO":"２１號","E_COORD97":167070.28,"N_COORD97":2544374.6899999999,"ADDRESS":"大新街２１巷２１號","OBJECTID":299584},"geometry":{"x":167070.28000000026,"y":2544374.6899999995}},{"attributes":{"ID":299593,"DIS_CODE":0,"TOWNNAME":"中西區","LI":"藥王里","LIN":"8鄰","STREET":"大新街","SECT":" ","MAREA":" ","LANE":"２１巷","ALLEY":" ","HOUSE_NO":"２３號","E_COORD97":167064.25,"N_COORD97":2544378.2599999998,"ADDRESS":"大新街２１巷２３號","OBJECTID":299585},"geometry":{"x":167064.25000000093,"y":2544378.2600000035}},{"attributes":{"ID":299594,"DIS_CODE":0,"TOWNNAME":"中西區","LI":"藥王里","LIN":"8鄰","STREET":"大新街","SECT":" ","MAREA":" ","LANE":"２１巷","ALLEY":" ","HOUSE_NO":"３號","E_COORD97":167110.91,"N_COORD97":2544358.7799999998,"ADDRESS":"大新街２１巷３號","OBJECTID":299586},"geometry":{"x":167110.91000000108,"y":2544358.7800000012}},{"attributes":{"ID":299595,"DIS_CODE":0,"TOWNNAME":"中西區","LI":"藥王里","LIN":"8鄰","STREET":"大新街","SECT":" ","MAREA":" ","LANE":"２１巷","ALLEY":" ","HOUSE_NO":"５號","E_COORD97":167106.51999999999,"N_COORD97":2544359.8799999999,"ADDRESS":"大新街２１巷５號","OBJECTID":299587},"geometry":{"x":167106.52000000048,"y":2544359.8800000008}},{"attributes":{"ID":299596,"DIS_CODE":0,"TOWNNAME":"中西區","LI":"藥王里","LIN":"8鄰","STREET":"大新街","SECT":" ","MAREA":" ","LANE":"２１巷","ALLEY":" ","HOUSE_NO":"７號","E_COORD97":167101.29999999999,"N_COORD97":2544360.7000000002,"ADDRESS":"大新街２１巷７號","OBJECTID":299588},"geometry":{"x":167101.30000000075,"y":2544360.6999999993}},{"attributes":{"ID":299597,"DIS_CODE":0,"TOWNNAME":"中西區","LI":"藥王里","LIN":"8鄰","STREET":"大新街","SECT":" ","MAREA":" ","LANE":"２１巷","ALLEY":" ","HOUSE_NO":"９號","E_COORD97":167097.45999999999,"N_COORD97":2544363.9900000002,"ADDRESS":"大新街２１巷９號","OBJECTID":299589},"geometry":{"x":167097.45999999996,"y":2544363.9900000021}},{"attributes":{"ID":299598,"DIS_CODE":0,"TOWNNAME":"中西區","LI":"藥王里","LIN":"8鄰","STREET":"大新街","SECT":" ","MAREA":" ","LANE":"７巷","ALLEY":" ","HOUSE_NO":"１０號","E_COORD97":167091.42000000001,"N_COORD97":2544349.1800000002,"ADDRESS":"大新街７巷１０號","OBJECTID":299590},"geometry":{"x":167091.41999999899,"y":2544349.1800000016}},{"attributes":{"ID":299599,"DIS_CODE":0,"TOWNNAME":"中西區","LI":"藥王里","LIN":"8鄰","STREET":"大新街","SECT":" ","MAREA":" ","LANE":"７巷","ALLEY":" ","HOUSE_NO":"１２號","E_COORD97":167086.75,"N_COORD97":2544349.46,"ADDRESS":"大新街７巷１２號","OBJECTID":299591},"geometry":{"x":167086.75000000093,"y":2544349.4600000009}},{"attributes":{"ID":299600,"DIS_CODE":0,"TOWNNAME":"中西區","LI":"藥王里","LIN":"8鄰","STREET":"大新街","SECT":" ","MAREA":" ","LANE":"７巷","ALLEY":" ","HOUSE_NO":"１４號","E_COORD97":167082.09,"N_COORD97":2544351.3799999999,"ADDRESS":"大新街７巷１４號","OBJECTID":299592},"geometry":{"x":167082.09000000078,"y":2544351.379999999}},{"attributes":{"ID":299601,"DIS_CODE":0,"TOWNNAME":"北區","LI":"裕民里","LIN":"5鄰","STREET":"臨安路","SECT":"二段","MAREA":" ","LANE":"９０巷","ALLEY":" ","HOUSE_NO":"８號","E_COORD97":167765.97,"N_COORD97":2544828.2999999998,"ADDRESS":"臨安路二段９０巷８號","OBJECTID":299593},"geometry":{"x":167765.97000000067,"y":2544828.3000000007}},{"attributes":{"ID":299602,"DIS_CODE":0,"TOWNNAME":"中西區","LI":"藥王里","LIN":"8鄰","STREET":"大新街","SECT":" ","MAREA":" ","LANE":"７巷","ALLEY":" ","HOUSE_NO":"２４號","E_COORD97":167058.76000000001,"N_COORD97":2544359.0600000001,"ADDRESS":"大新街７巷２４號","OBJECTID":299594},"geometry":{"x":167058.76000000071,"y":2544359.0600000005}},{"attributes":{"ID":299603,"DIS_CODE":0,"TOWNNAME":"中西區","LI":"藥王里","LIN":"8鄰","STREET":"大新街","SECT":" ","MAREA":" ","LANE":"７巷","ALLEY":" ","HOUSE_NO":"２６號","E_COORD97":167054.35999999999,"N_COORD97":2544360.98,"ADDRESS":"大新街７巷２６號","OBJECTID":299595},"geometry":{"x":167054.36000000034,"y":2544360.9800000023}},{"attributes":{"ID":299604,"DIS_CODE":0,"TOWNNAME":"中西區","LI":"藥王里","LIN":"8鄰","STREET":"大新街","SECT":" ","MAREA":" ","LANE":"７巷","ALLEY":" ","HOUSE_NO":"２８號","E_COORD97":167050.51999999999,"N_COORD97":2544363.7200000002,"ADDRESS":"大新街７巷２８號","OBJECTID":299596},"geometry":{"x":167050.52000000048,"y":2544363.7200000025}},{"attributes":{"ID":299605,"DIS_CODE":0,"TOWNNAME":"中西區","LI":"藥王里","LIN":"8鄰","STREET":"大新街","SECT":" ","MAREA":" ","LANE":"７巷","ALLEY":" ","HOUSE_NO":"３０號","E_COORD97":167047.23000000001,"N_COORD97":2544367.29,"ADDRESS":"大新街７巷３０號","OBJECTID":299597},"geometry":{"x":167047.23000000045,"y":2544367.2900000028}},{"attributes":{"ID":299606,"DIS_CODE":0,"TOWNNAME":"中西區","LI":"藥王里","LIN":"8鄰","STREET":"大新街","SECT":" ","MAREA":" ","LANE":"７巷","ALLEY":" ","HOUSE_NO":"３２號","E_COORD97":167042.56,"N_COORD97":2544365.0899999999,"ADDRESS":"大新街７巷３２號","OBJECTID":299598},"geometry":{"x":167042.55999999959,"y":2544365.0899999999}},{"attributes":{"ID":299607,"DIS_CODE":0,"TOWNNAME":"中西區","LI":"藥王里","LIN":"8鄰","STREET":"大新街","SECT":" ","MAREA":" ","LANE":"７巷","ALLEY":" ","HOUSE_NO":"４號","E_COORD97":167104.60000000001,"N_COORD97":2544341.77,"ADDRESS":"大新街７巷４號","OBJECTID":299599},"geometry":{"x":167104.59999999963,"y":2544341.7700000014}},{"attributes":{"ID":299608,"DIS_CODE":0,"TOWNNAME":"中西區","LI":"藥王里","LIN":"8鄰","STREET":"大新街","SECT":" ","MAREA":" ","LANE":"７巷","ALLEY":" ","HOUSE_NO":"６號","E_COORD97":167100.48000000001,"N_COORD97":2544343.7000000002,"ADDRESS":"大新街７巷６號","OBJECTID":299600},"geometry":{"x":167100.48000000138,"y":2544343.6999999993}}]}