{"displayFieldName":"TOWNNAME","fieldAliases":{"ID":"ID","DIS_CODE":"DIS_CODE","TOWNNAME":"TOWNNAME","LI":"LI","LIN":"LIN","STREET":"STREET","SECT":"SECT","MAREA":"MAREA","LANE":"LANE","ALLEY":"ALLEY","HOUSE_NO":"HOUSE_NO","E_COORD97":"E_COORD97","N_COORD97":"N_COORD97","ADDRESS":"ADDRESS","OBJECTID":"OBJECTID"},"geometryType":"esriGeometryPoint","spatialReference":{"wkid":102443,"latestWkid":3826},"fields":[{"name":"ID","type":"esriFieldTypeDouble","alias":"ID"},{"name":"DIS_CODE","type":"esriFieldTypeInteger","alias":"DIS_CODE"},{"name":"TOWNNAME","type":"esriFieldTypeString","alias":"TOWNNAME","length":8},{"name":"LI","type":"esriFieldTypeString","alias":"LI","length":8},{"name":"LIN","type":"esriFieldTypeString","alias":"LIN","length":12},{"name":"STREET","type":"esriFieldTypeString","alias":"STREET","length":20},{"name":"SECT","type":"esriFieldTypeString","alias":"SECT","length":8},{"name":"MAREA","type":"esriFieldTypeString","alias":"MAREA","length":12},{"name":"LANE","type":"esriFieldTypeString","alias":"LANE","length":10},{"name":"ALLEY","type":"esriFieldTypeString","alias":"ALLEY","length":10},{"name":"HOUSE_NO","type":"esriFieldTypeString","alias":"HOUSE_NO","length":20},{"name":"E_COORD97","type":"esriFieldTypeDouble","alias":"E_COORD97"},{"name":"N_COORD97","type":"esriFieldTypeDouble","alias":"N_COORD97"},{"name":"ADDRESS","type":"esriFieldTypeString","alias":"ADDRESS","length":50},{"name":"OBJECTID","type":"esriFieldTypeOID","alias":"OBJECTID"}],"features":[{"attributes":{"ID":590628,"DIS_CODE":0,"TOWNNAME":"永康區","LI":"永康里","LIN":"11鄰","STREET":"永二街","SECT":" ","MAREA":" ","LANE":" ","ALLEY":" ","HOUSE_NO":"２０號","E_COORD97":173775.07999999999,"N_COORD97":2547122.6600000001,"ADDRESS":"永二街２０號","OBJECTID":590601},"geometry":{"x":173775.08000000101,"y":2547122.660000002}},{"attributes":{"ID":590629,"DIS_CODE":0,"TOWNNAME":"永康區","LI":"西灣里","LIN":"11鄰","STREET":"大灣五街","SECT":" ","MAREA":" ","LANE":" ","ALLEY":" ","HOUSE_NO":"１１９號","E_COORD97":174514.41,"N_COORD97":2545286.5,"ADDRESS":"大灣五街１１９號","OBJECTID":590602},"geometry":{"x":174514.41000000015,"y":2545286.5000000019}},{"attributes":{"ID":590630,"DIS_CODE":0,"TOWNNAME":"永康區","LI":"大灣里","LIN":"11鄰","STREET":"大灣路","SECT":" ","MAREA":" ","LANE":" ","ALLEY":" ","HOUSE_NO":"２４８號","E_COORD97":174965.51999999999,"N_COORD97":2545352.71,"ADDRESS":"大灣路２４８號","OBJECTID":590603},"geometry":{"x":174965.51999999955,"y":2545352.7100000046}},{"attributes":{"ID":590631,"DIS_CODE":0,"TOWNNAME":"永康區","LI":"三民里","LIN":"11鄰","STREET":"和平路","SECT":" ","MAREA":" ","LANE":" ","ALLEY":" ","HOUSE_NO":"２５４號","E_COORD97":174751.09,"N_COORD97":2550792.5,"ADDRESS":"和平路２５４號","OBJECTID":590604},"geometry":{"x":174751.09000000078,"y":2550792.5000000019}},{"attributes":{"ID":590632,"DIS_CODE":0,"TOWNNAME":"永康區","LI":"東灣里","LIN":"11鄰","STREET":"立興街","SECT":" ","MAREA":" ","LANE":" ","ALLEY":" ","HOUSE_NO":"２號","E_COORD97":174691.69,"N_COORD97":2544837.73,"ADDRESS":"立興街２號","OBJECTID":590605},"geometry":{"x":174691.69000000134,"y":2544837.7300000023}},{"attributes":{"ID":590633,"DIS_CODE":0,"TOWNNAME":"安南區","LI":"頂安里","LIN":"11鄰","STREET":"北安路","SECT":"三段","MAREA":" ","LANE":" ","ALLEY":" ","HOUSE_NO":"２７２號","E_COORD97":168524.04999999999,"N_COORD97":2549338.23,"ADDRESS":"北安路三段２７２號","OBJECTID":590606},"geometry":{"x":168524.04999999981,"y":2549338.2300000004}},{"attributes":{"ID":590634,"DIS_CODE":0,"TOWNNAME":"安南區","LI":"頂安里","LIN":"11鄰","STREET":"北安路","SECT":"三段","MAREA":" ","LANE":" ","ALLEY":" ","HOUSE_NO":"２８８號","E_COORD97":168552.70999999999,"N_COORD97":2549356.9700000002,"ADDRESS":"北安路三段２８８號","OBJECTID":590607},"geometry":{"x":168552.71000000089,"y":2549356.9700000007}},{"attributes":{"ID":590635,"DIS_CODE":0,"TOWNNAME":"安南區","LI":"溪墘里","LIN":"11鄰","STREET":"海佃路","SECT":"一段","MAREA":" ","LANE":" ","ALLEY":" ","HOUSE_NO":"２７８號","E_COORD97":167121.16,"N_COORD97":2547420.8700000001,"ADDRESS":"海佃路一段２７８號","OBJECTID":590608},"geometry":{"x":167121.16000000108,"y":2547420.8700000029}},{"attributes":{"ID":590636,"DIS_CODE":0,"TOWNNAME":"安南區","LI":"溪墘里","LIN":"11鄰","STREET":"海佃路","SECT":"一段","MAREA":" ","LANE":" ","ALLEY":" ","HOUSE_NO":"２８０號","E_COORD97":167120.37,"N_COORD97":2547425.1499999999,"ADDRESS":"海佃路一段２８０號","OBJECTID":590609},"geometry":{"x":167120.37000000011,"y":2547425.1500000022}},{"attributes":{"ID":590637,"DIS_CODE":0,"TOWNNAME":"安南區","LI":"溪墘里","LIN":"11鄰","STREET":"海佃路","SECT":"一段","MAREA":" ","LANE":" ","ALLEY":" ","HOUSE_NO":"２８２號","E_COORD97":167119.19,"N_COORD97":2547429.0899999999,"ADDRESS":"海佃路一段２８２號","OBJECTID":590610},"geometry":{"x":167119.19000000134,"y":2547429.0900000017}},{"attributes":{"ID":590638,"DIS_CODE":0,"TOWNNAME":"安南區","LI":"安順里","LIN":"11鄰","STREET":"安和路","SECT":"四段","MAREA":" ","LANE":" ","ALLEY":" ","HOUSE_NO":"１６６號","E_COORD97":169953.95999999999,"N_COORD97":2550473.6699999999,"ADDRESS":"安和路四段１６６號","OBJECTID":590611},"geometry":{"x":169953.95999999996,"y":2550473.6699999999}},{"attributes":{"ID":590639,"DIS_CODE":0,"TOWNNAME":"安南區","LI":"安順里","LIN":"11鄰","STREET":"安和路","SECT":"四段","MAREA":" ","LANE":" ","ALLEY":" ","HOUSE_NO":"１６６號之１","E_COORD97":169953.28,"N_COORD97":2550478.98,"ADDRESS":"安和路四段１６６號之１","OBJECTID":590612},"geometry":{"x":169953.28000000119,"y":2550478.9800000004}},{"attributes":{"ID":590640,"DIS_CODE":0,"TOWNNAME":"安南區","LI":"安順里","LIN":"11鄰","STREET":"安和路","SECT":"四段","MAREA":" ","LANE":" ","ALLEY":" ","HOUSE_NO":"１６６號之２","E_COORD97":169952.59,"N_COORD97":2550484.9700000002,"ADDRESS":"安和路四段１６６號之２","OBJECTID":590613},"geometry":{"x":169952.59000000078,"y":2550484.9700000025}},{"attributes":{"ID":590641,"DIS_CODE":0,"TOWNNAME":"仁德區","LI":"後壁里","LIN":"11鄰","STREET":"德善路","SECT":" ","MAREA":" ","LANE":" ","ALLEY":" ","HOUSE_NO":"２１３號之１３","E_COORD97":173798.60999999999,"N_COORD97":2538829.79,"ADDRESS":"德善路２１３號之１３","OBJECTID":590614},"geometry":{"x":173798.6100000022,"y":2538829.7899999991}},{"attributes":{"ID":590642,"DIS_CODE":0,"TOWNNAME":"永康區","LI":"復國里","LIN":"4鄰","STREET":"復國一路","SECT":" ","MAREA":" ","LANE":" ","ALLEY":" ","HOUSE_NO":"４６號","E_COORD97":172721.67000000001,"N_COORD97":2544811.77,"ADDRESS":"復國一路４６號","OBJECTID":590615},"geometry":{"x":172721.67000000086,"y":2544811.7700000033}},{"attributes":{"ID":590643,"DIS_CODE":0,"TOWNNAME":"永康區","LI":"勝利里","LIN":"17鄰","STREET":"勝學路","SECT":" ","MAREA":" ","LANE":" ","ALLEY":" ","HOUSE_NO":"１３８號","E_COORD97":171176.22,"N_COORD97":2544963.3599999999,"ADDRESS":"勝學路１３８號","OBJECTID":590616},"geometry":{"x":171176.21999999974,"y":2544963.3599999994}},{"attributes":{"ID":590644,"DIS_CODE":0,"TOWNNAME":"永康區","LI":"崑山里","LIN":"1鄰","STREET":"大灣路","SECT":" ","MAREA":" ","LANE":" ","ALLEY":" ","HOUSE_NO":"７０５號","E_COORD97":173946.45000000001,"N_COORD97":2544467.48,"ADDRESS":"大灣路７０５號","OBJECTID":590617},"geometry":{"x":173946.45000000019,"y":2544467.4800000004}},{"attributes":{"ID":590645,"DIS_CODE":0,"TOWNNAME":"仁德區","LI":"後壁里","LIN":"11鄰","STREET":"德善路","SECT":" ","MAREA":" ","LANE":" ","ALLEY":" ","HOUSE_NO":"２１９號","E_COORD97":173768.95999999999,"N_COORD97":2538747.77,"ADDRESS":"德善路２１９號","OBJECTID":590618},"geometry":{"x":173768.96000000089,"y":2538747.7700000014}},{"attributes":{"ID":590646,"DIS_CODE":0,"TOWNNAME":"仁德區","LI":"後壁里","LIN":"11鄰","STREET":"德善路","SECT":" ","MAREA":" ","LANE":" ","ALLEY":" ","HOUSE_NO":"２３５之１號","E_COORD97":173842.76000000001,"N_COORD97":2538779.2999999998,"ADDRESS":"德善路２３５之１號","OBJECTID":590619},"geometry":{"x":173842.76000000164,"y":2538779.3000000026}},{"attributes":{"ID":590647,"DIS_CODE":0,"TOWNNAME":"仁德區","LI":"後壁里","LIN":"11鄰","STREET":"德善路","SECT":" ","MAREA":" ","LANE":" ","ALLEY":" ","HOUSE_NO":"２１３號之２","E_COORD97":173759.92999999999,"N_COORD97":2538756.2999999998,"ADDRESS":"德善路２１３號之２","OBJECTID":590620},"geometry":{"x":173759.9299999997,"y":2538756.3000000007}},{"attributes":{"ID":590648,"DIS_CODE":0,"TOWNNAME":"仁德區","LI":"新田里","LIN":"11鄰","STREET":"北保一街","SECT":" ","MAREA":" ","LANE":" ","ALLEY":" ","HOUSE_NO":"１０２號","E_COORD97":173155.06,"N_COORD97":2539587.5,"ADDRESS":"北保一街１０２號","OBJECTID":590621},"geometry":{"x":173155.05999999959,"y":2539587.5000000019}},{"attributes":{"ID":590649,"DIS_CODE":0,"TOWNNAME":"仁德區","LI":"新田里","LIN":"11鄰","STREET":"北保一街","SECT":" ","MAREA":" ","LANE":" ","ALLEY":" ","HOUSE_NO":"１１０號","E_COORD97":173128.57999999999,"N_COORD97":2539596.25,"ADDRESS":"北保一街１１０號","OBJECTID":590622},"geometry":{"x":173128.58000000007,"y":2539596.2500000019}},{"attributes":{"ID":590650,"DIS_CODE":0,"TOWNNAME":"仁德區","LI":"新田里","LIN":"11鄰","STREET":"北保路","SECT":" ","MAREA":" ","LANE":" ","ALLEY":" ","HOUSE_NO":"８２之８號","E_COORD97":173209.64999999999,"N_COORD97":2539538.54,"ADDRESS":"北保路８２之８號","OBJECTID":590623},"geometry":{"x":173209.65000000037,"y":2539538.540000001}},{"attributes":{"ID":590651,"DIS_CODE":0,"TOWNNAME":"仁德區","LI":"後壁里","LIN":"11鄰","STREET":"德善路","SECT":" ","MAREA":" ","LANE":" ","ALLEY":" ","HOUSE_NO":"２３５號","E_COORD97":173804.41,"N_COORD97":2538721.2599999998,"ADDRESS":"德善路２３５號","OBJECTID":590624},"geometry":{"x":173804.41000000015,"y":2538721.2600000016}},{"attributes":{"ID":590652,"DIS_CODE":0,"TOWNNAME":"仁德區","LI":"後壁里","LIN":"11鄰","STREET":"德善路","SECT":" ","MAREA":" ","LANE":" ","ALLEY":" ","HOUSE_NO":"２０５號","E_COORD97":173722.60000000001,"N_COORD97":2538774.52,"ADDRESS":"德善路２０５號","OBJECTID":590625},"geometry":{"x":173722.59999999963,"y":2538774.5199999996}},{"attributes":{"ID":590653,"DIS_CODE":0,"TOWNNAME":"仁德區","LI":"後壁里","LIN":"11鄰","STREET":"德善路","SECT":" ","MAREA":" ","LANE":" ","ALLEY":" ","HOUSE_NO":"２１５號","E_COORD97":173761.98999999999,"N_COORD97":2538753.27,"ADDRESS":"德善路２１５號","OBJECTID":590626},"geometry":{"x":173761.99000000209,"y":2538753.2700000033}},{"attributes":{"ID":590654,"DIS_CODE":0,"TOWNNAME":"仁德區","LI":"後壁里","LIN":"11鄰","STREET":"德善路","SECT":" ","MAREA":" ","LANE":" ","ALLEY":" ","HOUSE_NO":"２１３號之１２","E_COORD97":173796.04999999999,"N_COORD97":2538825.54,"ADDRESS":"德善路２１３號之１２","OBJECTID":590627},"geometry":{"x":173796.04999999981,"y":2538825.5400000028}},{"attributes":{"ID":590655,"DIS_CODE":0,"TOWNNAME":"仁德區","LI":"後壁里","LIN":"11鄰","STREET":"德善路","SECT":" ","MAREA":" ","LANE":" ","ALLEY":" ","HOUSE_NO":"２１３號之４","E_COORD97":173767.63,"N_COORD97":2538780.2999999998,"ADDRESS":"德善路２１３號之４","OBJECTID":590628},"geometry":{"x":173767.63000000082,"y":2538780.3000000007}},{"attributes":{"ID":590656,"DIS_CODE":0,"TOWNNAME":"仁德區","LI":"新田里","LIN":"11鄰","STREET":"北保一街","SECT":" ","MAREA":" ","LANE":" ","ALLEY":" ","HOUSE_NO":"１０６號","E_COORD97":173145.5,"N_COORD97":2539590.25,"ADDRESS":"北保一街１０６號","OBJECTID":590629},"geometry":{"x":173145.5,"y":2539590.25}},{"attributes":{"ID":590657,"DIS_CODE":0,"TOWNNAME":"仁德區","LI":"新田里","LIN":"11鄰","STREET":"北保一街","SECT":" ","MAREA":" ","LANE":" ","ALLEY":" ","HOUSE_NO":"１１４號","E_COORD97":173119.17999999999,"N_COORD97":2539600,"ADDRESS":"北保一街１１４號","OBJECTID":590630},"geometry":{"x":173119.1799999997,"y":2539600.0000000037}},{"attributes":{"ID":590658,"DIS_CODE":0,"TOWNNAME":"仁德區","LI":"新田里","LIN":"11鄰","STREET":"北保路","SECT":" ","MAREA":" ","LANE":" ","ALLEY":" ","HOUSE_NO":"９３號","E_COORD97":173228.38,"N_COORD97":2539552.3900000001,"ADDRESS":"北保路９３號","OBJECTID":590631},"geometry":{"x":173228.38000000175,"y":2539552.3900000006}},{"attributes":{"ID":590659,"DIS_CODE":0,"TOWNNAME":"仁德區","LI":"新田里","LIN":"11鄰","STREET":"北保路","SECT":" ","MAREA":" ","LANE":" ","ALLEY":" ","HOUSE_NO":"８２之２號","E_COORD97":173216.01000000001,"N_COORD97":2539526.79,"ADDRESS":"北保路８２之２號","OBJECTID":590632},"geometry":{"x":173216.01000000071,"y":2539526.790000001}},{"attributes":{"ID":590660,"DIS_CODE":0,"TOWNNAME":"仁德區","LI":"新田里","LIN":"11鄰","STREET":"北保一街","SECT":" ","MAREA":" ","LANE":" ","ALLEY":" ","HOUSE_NO":"１２８號","E_COORD97":173149.53,"N_COORD97":2539603,"ADDRESS":"北保一街１２８號","OBJECTID":590633},"geometry":{"x":173149.53000000026,"y":2539602.9999999981}},{"attributes":{"ID":590661,"DIS_CODE":0,"TOWNNAME":"仁德區","LI":"新田里","LIN":"11鄰","STREET":"北保路","SECT":" ","MAREA":" ","LANE":" ","ALLEY":" ","HOUSE_NO":"７１號","E_COORD97":173215.98999999999,"N_COORD97":2539557.4900000002,"ADDRESS":"北保路７１號","OBJECTID":590634},"geometry":{"x":173215.98999999929,"y":2539557.4900000021}},{"attributes":{"ID":590662,"DIS_CODE":0,"TOWNNAME":"仁德區","LI":"新田里","LIN":"11鄰","STREET":"北保路","SECT":" ","MAREA":" ","LANE":" ","ALLEY":" ","HOUSE_NO":"７８號","E_COORD97":173194.95999999999,"N_COORD97":2539518.3500000001,"ADDRESS":"北保路７８號","OBJECTID":590635},"geometry":{"x":173194.95999999996,"y":2539518.3499999996}},{"attributes":{"ID":590663,"DIS_CODE":0,"TOWNNAME":"仁德區","LI":"新田里","LIN":"11鄰","STREET":"北保路","SECT":" ","MAREA":" ","LANE":" ","ALLEY":" ","HOUSE_NO":"８２之７號","E_COORD97":173215.22,"N_COORD97":2539535.54,"ADDRESS":"北保路８２之７號","OBJECTID":590636},"geometry":{"x":173215.21999999974,"y":2539535.540000001}},{"attributes":{"ID":590664,"DIS_CODE":0,"TOWNNAME":"仁德區","LI":"新田里","LIN":"11鄰","STREET":"北保路","SECT":" ","MAREA":" ","LANE":" ","ALLEY":" ","HOUSE_NO":"８７號","E_COORD97":173233.17000000001,"N_COORD97":2539565.1400000001,"ADDRESS":"北保路８７號","OBJECTID":590637},"geometry":{"x":173233.17000000179,"y":2539565.1400000006}},{"attributes":{"ID":590665,"DIS_CODE":0,"TOWNNAME":"永康區","LI":"復國里","LIN":"32鄰","STREET":"復華一街","SECT":" ","MAREA":" ","LANE":" ","ALLEY":" ","HOUSE_NO":"１５號","E_COORD97":172655.51000000001,"N_COORD97":2545071.2799999998,"ADDRESS":"復華一街１５號","OBJECTID":590638},"geometry":{"x":172655.50999999978,"y":2545071.2799999993}},{"attributes":{"ID":590666,"DIS_CODE":0,"TOWNNAME":"永康區","LI":"復華里","LIN":"32鄰","STREET":"國華街","SECT":" ","MAREA":" ","LANE":" ","ALLEY":" ","HOUSE_NO":"１７４號","E_COORD97":172538.98000000001,"N_COORD97":2546350.2799999998,"ADDRESS":"國華街１７４號","OBJECTID":590639},"geometry":{"x":172538.98000000138,"y":2546350.2799999993}},{"attributes":{"ID":590667,"DIS_CODE":0,"TOWNNAME":"官田區","LI":"二鎮里","LIN":"1鄰","STREET":"建業路","SECT":" ","MAREA":" ","LANE":" ","ALLEY":" ","HOUSE_NO":"３２號","E_COORD97":180915.10000000001,"N_COORD97":2567628.3599999999,"ADDRESS":"建業路３２號","OBJECTID":590640},"geometry":{"x":180915.10000000056,"y":2567628.3600000031}},{"attributes":{"ID":590668,"DIS_CODE":0,"TOWNNAME":"永康區","LI":"復國里","LIN":"35鄰","STREET":"復國一路","SECT":" ","MAREA":" ","LANE":" ","ALLEY":" ","HOUSE_NO":"１２１號","E_COORD97":172700.20999999999,"N_COORD97":2545049.8199999998,"ADDRESS":"復國一路１２１號","OBJECTID":590641},"geometry":{"x":172700.20999999996,"y":2545049.820000004}},{"attributes":{"ID":590669,"DIS_CODE":0,"TOWNNAME":"永康區","LI":"復國里","LIN":"33鄰","STREET":"復華一街","SECT":" ","MAREA":" ","LANE":" ","ALLEY":" ","HOUSE_NO":"３４號","E_COORD97":172609.79000000001,"N_COORD97":2545090.1699999999,"ADDRESS":"復華一街３４號","OBJECTID":590642},"geometry":{"x":172609.79000000004,"y":2545090.1699999999}},{"attributes":{"ID":590670,"DIS_CODE":0,"TOWNNAME":"仁德區","LI":"新田里","LIN":"11鄰","STREET":"北保路","SECT":" ","MAREA":" ","LANE":" ","ALLEY":" ","HOUSE_NO":"９１號","E_COORD97":173230.16,"N_COORD97":2539556.3900000001,"ADDRESS":"北保路９１號","OBJECTID":590643},"geometry":{"x":173230.16000000201,"y":2539556.3900000006}},{"attributes":{"ID":590671,"DIS_CODE":0,"TOWNNAME":"仁德區","LI":"新田里","LIN":"11鄰","STREET":"北保路","SECT":" ","MAREA":" ","LANE":" ","ALLEY":" ","HOUSE_NO":"８０號","E_COORD97":173196.84,"N_COORD97":2539522.1000000001,"ADDRESS":"北保路８０號","OBJECTID":590644},"geometry":{"x":173196.84000000078,"y":2539522.1000000015}},{"attributes":{"ID":590672,"DIS_CODE":0,"TOWNNAME":"仁德區","LI":"新田里","LIN":"11鄰","STREET":"北保路","SECT":" ","MAREA":" ","LANE":" ","ALLEY":" ","HOUSE_NO":"８３號","E_COORD97":173236.64999999999,"N_COORD97":2539573.6499999999,"ADDRESS":"北保路８３號","OBJECTID":590645},"geometry":{"x":173236.65000000037,"y":2539573.6500000022}},{"attributes":{"ID":590673,"DIS_CODE":0,"TOWNNAME":"仁德區","LI":"新田里","LIN":"11鄰","STREET":"北保路","SECT":" ","MAREA":" ","LANE":" ","ALLEY":" ","HOUSE_NO":"８２之５號","E_COORD97":173224.82999999999,"N_COORD97":2539531.04,"ADDRESS":"北保路８２之５號","OBJECTID":590646},"geometry":{"x":173224.83000000007,"y":2539531.0400000028}},{"attributes":{"ID":590674,"DIS_CODE":0,"TOWNNAME":"仁德區","LI":"一甲里","LIN":"11鄰","STREET":"忠義一街","SECT":" ","MAREA":" ","LANE":" ","ALLEY":" ","HOUSE_NO":"４６號","E_COORD97":173884.07000000001,"N_COORD97":2542040.7599999998,"ADDRESS":"忠義一街４６號","OBJECTID":590647},"geometry":{"x":173884.07000000123,"y":2542040.7599999998}},{"attributes":{"ID":590675,"DIS_CODE":0,"TOWNNAME":"仁德區","LI":"保安里","LIN":"11鄰","STREET":"中正路","SECT":"一段","MAREA":" ","LANE":" ","ALLEY":" ","HOUSE_NO":"２０９號","E_COORD97":171668.47,"N_COORD97":2535890.4199999999,"ADDRESS":"中正路一段２０９號","OBJECTID":590648},"geometry":{"x":171668.47000000067,"y":2535890.4199999999}},{"attributes":{"ID":590676,"DIS_CODE":0,"TOWNNAME":"仁德區","LI":"新田里","LIN":"11鄰","STREET":"北保路","SECT":" ","MAREA":" ","LANE":" ","ALLEY":" ","HOUSE_NO":"５７號","E_COORD97":173136,"N_COORD97":2539497.0099999998,"ADDRESS":"北保路５７號","OBJECTID":590649},"geometry":{"x":173135.99999999907,"y":2539497.0099999998}},{"attributes":{"ID":590677,"DIS_CODE":0,"TOWNNAME":"仁德區","LI":"新田里","LIN":"11鄰","STREET":"北保路","SECT":" ","MAREA":" ","LANE":" ","ALLEY":" ","HOUSE_NO":"６９號","E_COORD97":173216.88,"N_COORD97":2539611.3700000001,"ADDRESS":"北保路６９號","OBJECTID":590650},"geometry":{"x":173216.88000000082,"y":2539611.370000001}},{"attributes":{"ID":590678,"DIS_CODE":0,"TOWNNAME":"仁德區","LI":"一甲里","LIN":"11鄰","STREET":"忠義一街","SECT":" ","MAREA":" ","LANE":" ","ALLEY":" ","HOUSE_NO":"５８號","E_COORD97":173850.57000000001,"N_COORD97":2541957.7000000002,"ADDRESS":"忠義一街５８號","OBJECTID":590651},"geometry":{"x":173850.5700000003,"y":2541957.7000000011}},{"attributes":{"ID":590679,"DIS_CODE":0,"TOWNNAME":"永康區","LI":"復國里","LIN":"18鄰","STREET":"復華六街","SECT":" ","MAREA":" ","LANE":" ","ALLEY":" ","HOUSE_NO":"３９號","E_COORD97":172787.63,"N_COORD97":2545833.2799999998,"ADDRESS":"復華六街３９號","OBJECTID":590652},"geometry":{"x":172787.63000000175,"y":2545833.2800000012}},{"attributes":{"ID":590680,"DIS_CODE":0,"TOWNNAME":"永康區","LI":"復國里","LIN":"28鄰","STREET":"復華二街","SECT":" ","MAREA":" ","LANE":" ","ALLEY":" ","HOUSE_NO":"２８號","E_COORD97":172607.19,"N_COORD97":2545362.52,"ADDRESS":"復華二街２８號","OBJECTID":590653},"geometry":{"x":172607.19000000134,"y":2545362.5199999996}},{"attributes":{"ID":590681,"DIS_CODE":0,"TOWNNAME":"永康區","LI":"復華里","LIN":"29鄰","STREET":"復華八街","SECT":" ","MAREA":" ","LANE":" ","ALLEY":" ","HOUSE_NO":"１３號","E_COORD97":172674.92999999999,"N_COORD97":2546173.52,"ADDRESS":"復華八街１３號","OBJECTID":590654},"geometry":{"x":172674.9299999997,"y":2546173.5200000014}},{"attributes":{"ID":590682,"DIS_CODE":0,"TOWNNAME":"下營區","LI":"新興里","LIN":"11鄰","STREET":"人和二街","SECT":" ","MAREA":" ","LANE":" ","ALLEY":" ","HOUSE_NO":"３３號","E_COORD97":174638.76000000001,"N_COORD97":2570748.71,"ADDRESS":"人和二街３３號","OBJECTID":590655},"geometry":{"x":174638.75999999978,"y":2570748.7100000009}},{"attributes":{"ID":590683,"DIS_CODE":0,"TOWNNAME":"下營區","LI":"新興里","LIN":"11鄰","STREET":"人和二街","SECT":" ","MAREA":" ","LANE":" ","ALLEY":" ","HOUSE_NO":"３９號","E_COORD97":174628.98999999999,"N_COORD97":2570752.0099999998,"ADDRESS":"人和二街３９號","OBJECTID":590656},"geometry":{"x":174628.99000000115,"y":2570752.0099999998}},{"attributes":{"ID":590684,"DIS_CODE":0,"TOWNNAME":"下營區","LI":"新興里","LIN":"11鄰","STREET":"人和二街","SECT":" ","MAREA":" ","LANE":" ","ALLEY":" ","HOUSE_NO":"４１號","E_COORD97":174623.38,"N_COORD97":2570751.52,"ADDRESS":"人和二街４１號","OBJECTID":590657},"geometry":{"x":174623.37999999896,"y":2570751.5200000014}},{"attributes":{"ID":590685,"DIS_CODE":0,"TOWNNAME":"下營區","LI":"新興里","LIN":"11鄰","STREET":"人和二街","SECT":" ","MAREA":" ","LANE":" ","ALLEY":" ","HOUSE_NO":"４３號","E_COORD97":174618.37,"N_COORD97":2570751.7400000002,"ADDRESS":"人和二街４３號","OBJECTID":590658},"geometry":{"x":174618.37000000011,"y":2570751.7400000002}},{"attributes":{"ID":590686,"DIS_CODE":0,"TOWNNAME":"下營區","LI":"新興里","LIN":"11鄰","STREET":"人和二街","SECT":" ","MAREA":" ","LANE":" ","ALLEY":" ","HOUSE_NO":"４５號","E_COORD97":174614.07999999999,"N_COORD97":2570751.96,"ADDRESS":"人和二街４５號","OBJECTID":590659},"geometry":{"x":174614.08000000101,"y":2570751.9600000046}},{"attributes":{"ID":590687,"DIS_CODE":0,"TOWNNAME":"下營區","LI":"新興里","LIN":"11鄰","STREET":"人和二街","SECT":" ","MAREA":" ","LANE":" ","ALLEY":" ","HOUSE_NO":"４９號","E_COORD97":174605.04000000001,"N_COORD97":2570751.8799999999,"ADDRESS":"人和二街４９號","OBJECTID":590660},"geometry":{"x":174605.04000000004,"y":2570751.8800000008}},{"attributes":{"ID":590688,"DIS_CODE":0,"TOWNNAME":"永康區","LI":"復興里","LIN":"7鄰","STREET":"復興路","SECT":" ","MAREA":" ","LANE":" ","ALLEY":" ","HOUSE_NO":"３４９號","E_COORD97":172197.31,"N_COORD97":2544314.02,"ADDRESS":"復興路３４９號","OBJECTID":590661},"geometry":{"x":172197.30999999959,"y":2544314.0199999996}},{"attributes":{"ID":590689,"DIS_CODE":0,"TOWNNAME":"永康區","LI":"復國里","LIN":"28鄰","STREET":"復華二街","SECT":" ","MAREA":" ","LANE":" ","ALLEY":" ","HOUSE_NO":"１６號","E_COORD97":172653.76999999999,"N_COORD97":2545360.1899999999,"ADDRESS":"復華二街１６號","OBJECTID":590662},"geometry":{"x":172653.76999999955,"y":2545360.1899999995}},{"attributes":{"ID":590690,"DIS_CODE":0,"TOWNNAME":"永康區","LI":"復華里","LIN":"29鄰","STREET":"復華八街","SECT":" ","MAREA":" ","LANE":" ","ALLEY":" ","HOUSE_NO":"２７號","E_COORD97":172692.84,"N_COORD97":2546203.2799999998,"ADDRESS":"復華八街２７號","OBJECTID":590663},"geometry":{"x":172692.83999999892,"y":2546203.2800000012}},{"attributes":{"ID":590691,"DIS_CODE":0,"TOWNNAME":"永康區","LI":"復國里","LIN":"17鄰","STREET":"國華街","SECT":" ","MAREA":" ","LANE":" ","ALLEY":" ","HOUSE_NO":"８２號","E_COORD97":172864.60000000001,"N_COORD97":2545810.7999999998,"ADDRESS":"國華街８２號","OBJECTID":590664},"geometry":{"x":172864.60000000056,"y":2545810.8000000026}},{"attributes":{"ID":590692,"DIS_CODE":0,"TOWNNAME":"永康區","LI":"復華里","LIN":"29鄰","STREET":"國華街","SECT":" ","MAREA":" ","LANE":" ","ALLEY":" ","HOUSE_NO":"１０９號","E_COORD97":172631.64999999999,"N_COORD97":2546220.8100000001,"ADDRESS":"國華街１０９號","OBJECTID":590665},"geometry":{"x":172631.65000000037,"y":2546220.8100000024}},{"attributes":{"ID":590693,"DIS_CODE":0,"TOWNNAME":"永康區","LI":"復國里","LIN":"14鄰","STREET":"復國二路","SECT":" ","MAREA":" ","LANE":" ","ALLEY":" ","HOUSE_NO":"１５８號","E_COORD97":172920.29000000001,"N_COORD97":2545660.52,"ADDRESS":"復國二路１５８號","OBJECTID":590666},"geometry":{"x":172920.29000000004,"y":2545660.5199999996}},{"attributes":{"ID":590694,"DIS_CODE":0,"TOWNNAME":"下營區","LI":"新興里","LIN":"11鄰","STREET":"大同街","SECT":" ","MAREA":" ","LANE":" ","ALLEY":" ","HOUSE_NO":"１０號","E_COORD97":174670.01000000001,"N_COORD97":2570693.1600000001,"ADDRESS":"大同街１０號","OBJECTID":590667},"geometry":{"x":174670.01000000164,"y":2570693.160000002}},{"attributes":{"ID":590695,"DIS_CODE":0,"TOWNNAME":"下營區","LI":"新興里","LIN":"11鄰","STREET":"大同街","SECT":" ","MAREA":" ","LANE":" ","ALLEY":" ","HOUSE_NO":"１２號","E_COORD97":174665.10000000001,"N_COORD97":2570691.8900000001,"ADDRESS":"大同街１２號","OBJECTID":590668},"geometry":{"x":174665.09999999963,"y":2570691.8900000025}},{"attributes":{"ID":590696,"DIS_CODE":0,"TOWNNAME":"下營區","LI":"新興里","LIN":"11鄰","STREET":"大同街","SECT":" ","MAREA":" ","LANE":" ","ALLEY":" ","HOUSE_NO":"２０號","E_COORD97":174648.76000000001,"N_COORD97":2570687.0099999998,"ADDRESS":"大同街２０號","OBJECTID":590669},"geometry":{"x":174648.76000000071,"y":2570687.0100000016}},{"attributes":{"ID":590697,"DIS_CODE":0,"TOWNNAME":"下營區","LI":"新興里","LIN":"11鄰","STREET":"大同街","SECT":" ","MAREA":" ","LANE":" ","ALLEY":" ","HOUSE_NO":"２８號","E_COORD97":174628.35999999999,"N_COORD97":2570681.3500000001,"ADDRESS":"大同街２８號","OBJECTID":590670},"geometry":{"x":174628.36000000034,"y":2570681.3500000015}},{"attributes":{"ID":590698,"DIS_CODE":0,"TOWNNAME":"永康區","LI":"復華里","LIN":"34鄰","STREET":"復國一路","SECT":" ","MAREA":" ","LANE":" ","ALLEY":" ","HOUSE_NO":"４８９號","E_COORD97":172570.84,"N_COORD97":2546179.77,"ADDRESS":"復國一路４８９號","OBJECTID":590671},"geometry":{"x":172570.84000000171,"y":2546179.7700000014}},{"attributes":{"ID":590699,"DIS_CODE":0,"TOWNNAME":"下營區","LI":"新興里","LIN":"11鄰","STREET":"大同街","SECT":" ","MAREA":" ","LANE":" ","ALLEY":" ","HOUSE_NO":"３２號","E_COORD97":174610.14999999999,"N_COORD97":2570679.4300000002,"ADDRESS":"大同街３２號","OBJECTID":590672},"geometry":{"x":174610.15000000037,"y":2570679.4300000034}},{"attributes":{"ID":590700,"DIS_CODE":0,"TOWNNAME":"下營區","LI":"新興里","LIN":"11鄰","STREET":"大同街","SECT":" ","MAREA":" ","LANE":" ","ALLEY":" ","HOUSE_NO":"３８號","E_COORD97":174601.54000000001,"N_COORD97":2570672.4399999999,"ADDRESS":"大同街３８號","OBJECTID":590673},"geometry":{"x":174601.54000000004,"y":2570672.4400000032}},{"attributes":{"ID":590701,"DIS_CODE":0,"TOWNNAME":"下營區","LI":"新興里","LIN":"11鄰","STREET":"大同街","SECT":" ","MAREA":" ","LANE":" ","ALLEY":" ","HOUSE_NO":"４０號","E_COORD97":174587.84,"N_COORD97":2570687.1499999999,"ADDRESS":"大同街４０號","OBJECTID":590674},"geometry":{"x":174587.83999999985,"y":2570687.1500000022}},{"attributes":{"ID":590702,"DIS_CODE":0,"TOWNNAME":"永康區","LI":"復興里","LIN":"13鄰","STREET":"復興路","SECT":" ","MAREA":" ","LANE":" ","ALLEY":" ","HOUSE_NO":"２６８號","E_COORD97":172395.79000000001,"N_COORD97":2544347.2799999998,"ADDRESS":"復興路２６８號","OBJECTID":590675},"geometry":{"x":172395.79000000097,"y":2544347.2800000031}},{"attributes":{"ID":590703,"DIS_CODE":0,"TOWNNAME":"永康區","LI":"復國里","LIN":"21鄰","STREET":"復華六街","SECT":" ","MAREA":" ","LANE":" ","ALLEY":" ","HOUSE_NO":"９１號","E_COORD97":172628.26999999999,"N_COORD97":2545837.4100000001,"ADDRESS":"復華六街９１號","OBJECTID":590676},"geometry":{"x":172628.26999999955,"y":2545837.4100000001}},{"attributes":{"ID":590704,"DIS_CODE":0,"TOWNNAME":"永康區","LI":"復興里","LIN":"11鄰","STREET":"復興路","SECT":" ","MAREA":" ","LANE":" ","ALLEY":" ","HOUSE_NO":"３７４號","E_COORD97":172177.23999999999,"N_COORD97":2544345.5499999998,"ADDRESS":"復興路３７４號","OBJECTID":590677},"geometry":{"x":172177.24000000115,"y":2544345.5500000007}},{"attributes":{"ID":590705,"DIS_CODE":0,"TOWNNAME":"下營區","LI":"新興里","LIN":"11鄰","STREET":"大同街","SECT":" ","MAREA":" ","LANE":" ","ALLEY":" ","HOUSE_NO":"６號","E_COORD97":174678.34,"N_COORD97":2570695.3500000001,"ADDRESS":"大同街６號","OBJECTID":590678},"geometry":{"x":174678.34000000078,"y":2570695.3499999996}},{"attributes":{"ID":590706,"DIS_CODE":0,"TOWNNAME":"下營區","LI":"新興里","LIN":"11鄰","STREET":"大同街","SECT":" ","MAREA":" ","LANE":" ","ALLEY":" ","HOUSE_NO":"８號","E_COORD97":174674.04999999999,"N_COORD97":2570694.3300000001,"ADDRESS":"大同街８號","OBJECTID":590679},"geometry":{"x":174674.04999999981,"y":2570694.3300000038}},{"attributes":{"ID":590707,"DIS_CODE":0,"TOWNNAME":"中西區","LI":"青年里","LIN":"11鄰","STREET":"民權路","SECT":"一段","MAREA":" ","LANE":" ","ALLEY":" ","HOUSE_NO":"２３０號","E_COORD97":168752.60999999999,"N_COORD97":2543688.0099999998,"ADDRESS":"民權路一段２３０號","OBJECTID":590680},"geometry":{"x":168752.61000000127,"y":2543688.0099999998}},{"attributes":{"ID":590708,"DIS_CODE":0,"TOWNNAME":"中西區","LI":"青年里","LIN":"11鄰","STREET":"民權路","SECT":"一段","MAREA":" ","LANE":" ","ALLEY":" ","HOUSE_NO":"２３２號","E_COORD97":168752.60999999999,"N_COORD97":2543696.7200000002,"ADDRESS":"民權路一段２３２號","OBJECTID":590681},"geometry":{"x":168752.61000000127,"y":2543696.7200000007}},{"attributes":{"ID":590709,"DIS_CODE":0,"TOWNNAME":"中西區","LI":"青年里","LIN":"11鄰","STREET":"民權路","SECT":"一段","MAREA":" ","LANE":" ","ALLEY":" ","HOUSE_NO":"２３２號之１","E_COORD97":168748.60000000001,"N_COORD97":2543700.4900000002,"ADDRESS":"民權路一段２３２號之１","OBJECTID":590682},"geometry":{"x":168748.60000000056,"y":2543700.4900000021}},{"attributes":{"ID":590710,"DIS_CODE":0,"TOWNNAME":"中西區","LI":"青年里","LIN":"11鄰","STREET":"民權路","SECT":"一段","MAREA":" ","LANE":" ","ALLEY":" ","HOUSE_NO":"２３４號","E_COORD97":168744.23999999999,"N_COORD97":2543706.21,"ADDRESS":"民權路一段２３４號","OBJECTID":590683},"geometry":{"x":168744.24000000209,"y":2543706.2100000028}},{"attributes":{"ID":590711,"DIS_CODE":0,"TOWNNAME":"中西區","LI":"青年里","LIN":"11鄰","STREET":"民權路","SECT":"一段","MAREA":" ","LANE":" ","ALLEY":" ","HOUSE_NO":"２３６號","E_COORD97":168738.23999999999,"N_COORD97":2543708.0099999998,"ADDRESS":"民權路一段２３６號","OBJECTID":590684},"geometry":{"x":168738.24000000115,"y":2543708.0099999998}},{"attributes":{"ID":590712,"DIS_CODE":0,"TOWNNAME":"中西區","LI":"青年里","LIN":"11鄰","STREET":"民權路","SECT":"一段","MAREA":" ","LANE":" ","ALLEY":" ","HOUSE_NO":"２３８號","E_COORD97":168736.73999999999,"N_COORD97":2543712.5,"ADDRESS":"民權路一段２３８號","OBJECTID":590685},"geometry":{"x":168736.74000000022,"y":2543712.5000000037}},{"attributes":{"ID":590713,"DIS_CODE":0,"TOWNNAME":"中西區","LI":"青年里","LIN":"11鄰","STREET":"民權路","SECT":"一段","MAREA":" ","LANE":" ","ALLEY":" ","HOUSE_NO":"２４０號","E_COORD97":168734.94,"N_COORD97":2543716.9900000002,"ADDRESS":"民權路一段２４０號","OBJECTID":590686},"geometry":{"x":168734.94000000134,"y":2543716.9900000021}},{"attributes":{"ID":590714,"DIS_CODE":0,"TOWNNAME":"永康區","LI":"網寮里","LIN":"20鄰","STREET":"文化路","SECT":" ","MAREA":" ","LANE":" ","ALLEY":" ","HOUSE_NO":"３３７號","E_COORD97":173396.10000000001,"N_COORD97":2546169.5699999998,"ADDRESS":"文化路３３７號","OBJECTID":590687},"geometry":{"x":173396.10000000149,"y":2546169.5700000003}},{"attributes":{"ID":590715,"DIS_CODE":0,"TOWNNAME":"永康區","LI":"復國里","LIN":"32鄰","STREET":"復華一街","SECT":" ","MAREA":" ","LANE":" ","ALLEY":" ","HOUSE_NO":"１８號","E_COORD97":172671.34,"N_COORD97":2545088.2599999998,"ADDRESS":"復華一街１８號","OBJECTID":590688},"geometry":{"x":172671.34000000078,"y":2545088.2600000016}},{"attributes":{"ID":590716,"DIS_CODE":0,"TOWNNAME":"永康區","LI":"復興里","LIN":"14鄰","STREET":"復興路","SECT":" ","MAREA":" ","LANE":" ","ALLEY":" ","HOUSE_NO":"２６０號","E_COORD97":172412.89999999999,"N_COORD97":2544346.5299999998,"ADDRESS":"復興路２６０號","OBJECTID":590689},"geometry":{"x":172412.90000000037,"y":2544346.5300000012}},{"attributes":{"ID":590717,"DIS_CODE":0,"TOWNNAME":"中西區","LI":"青年里","LIN":"11鄰","STREET":"民權路","SECT":"一段","MAREA":" ","LANE":" ","ALLEY":" ","HOUSE_NO":"２４２號","E_COORD97":168733.73999999999,"N_COORD97":2543720.29,"ADDRESS":"民權路一段２４２號","OBJECTID":590690},"geometry":{"x":168733.74000000022,"y":2543720.290000001}},{"attributes":{"ID":590718,"DIS_CODE":0,"TOWNNAME":"中西區","LI":"青年里","LIN":"11鄰","STREET":"民權路","SECT":"一段","MAREA":" ","LANE":" ","ALLEY":" ","HOUSE_NO":"２４４號","E_COORD97":168730.14000000001,"N_COORD97":2543723.8799999999,"ADDRESS":"民權路一段２４４號","OBJECTID":590691},"geometry":{"x":168730.13999999966,"y":2543723.8800000008}},{"attributes":{"ID":590719,"DIS_CODE":0,"TOWNNAME":"中西區","LI":"青年里","LIN":"11鄰","STREET":"民權路","SECT":"一段","MAREA":" ","LANE":" ","ALLEY":" ","HOUSE_NO":"２４６號","E_COORD97":168727.44,"N_COORD97":2543726.8799999999,"ADDRESS":"民權路一段２４６號","OBJECTID":590692},"geometry":{"x":168727.44000000041,"y":2543726.8800000008}},{"attributes":{"ID":590720,"DIS_CODE":0,"TOWNNAME":"中西區","LI":"青年里","LIN":"11鄰","STREET":"民權路","SECT":"一段","MAREA":" ","LANE":" ","ALLEY":" ","HOUSE_NO":"２４８號","E_COORD97":168725.94,"N_COORD97":2543731.0699999998,"ADDRESS":"民權路一段２４８號","OBJECTID":590693},"geometry":{"x":168725.94000000041,"y":2543731.0700000003}},{"attributes":{"ID":590721,"DIS_CODE":0,"TOWNNAME":"中西區","LI":"青年里","LIN":"11鄰","STREET":"民權路","SECT":"一段","MAREA":" ","LANE":" ","ALLEY":" ","HOUSE_NO":"２５０號","E_COORD97":168723.32999999999,"N_COORD97":2543734.6400000001,"ADDRESS":"民權路一段２５０號","OBJECTID":590694},"geometry":{"x":168723.33000000101,"y":2543734.6400000006}},{"attributes":{"ID":590722,"DIS_CODE":0,"TOWNNAME":"中西區","LI":"青年里","LIN":"11鄰","STREET":"民權路","SECT":"一段","MAREA":" ","LANE":" ","ALLEY":" ","HOUSE_NO":"２５２號","E_COORD97":168722.72,"N_COORD97":2543738.8700000001,"ADDRESS":"民權路一段２５２號","OBJECTID":590695},"geometry":{"x":168722.71999999974,"y":2543738.8700000029}},{"attributes":{"ID":590723,"DIS_CODE":0,"TOWNNAME":"中西區","LI":"青年里","LIN":"11鄰","STREET":"民權路","SECT":"一段","MAREA":" ","LANE":" ","ALLEY":" ","HOUSE_NO":"２５４號","E_COORD97":168719.09,"N_COORD97":2543741.6000000001,"ADDRESS":"民權路一段２５４號","OBJECTID":590696},"geometry":{"x":168719.08999999985,"y":2543741.5999999978}},{"attributes":{"ID":590724,"DIS_CODE":0,"TOWNNAME":"中西區","LI":"青年里","LIN":"11鄰","STREET":"民權路","SECT":"一段","MAREA":" ","LANE":" ","ALLEY":" ","HOUSE_NO":"２５６號","E_COORD97":168717.26999999999,"N_COORD97":2543745.23,"ADDRESS":"民權路一段２５６號","OBJECTID":590697},"geometry":{"x":168717.26999999955,"y":2543745.2300000042}},{"attributes":{"ID":590725,"DIS_CODE":0,"TOWNNAME":"中西區","LI":"青年里","LIN":"11鄰","STREET":"民權路","SECT":"一段","MAREA":" ","LANE":" ","ALLEY":" ","HOUSE_NO":"２５８號","E_COORD97":168714.84,"N_COORD97":2543748.5600000001,"ADDRESS":"民權路一段２５８號","OBJECTID":590698},"geometry":{"x":168714.84000000078,"y":2543748.5600000005}},{"attributes":{"ID":590726,"DIS_CODE":0,"TOWNNAME":"中西區","LI":"赤嵌里","LIN":"11鄰","STREET":"中成路","SECT":" ","MAREA":" ","LANE":" ","ALLEY":" ","HOUSE_NO":"４２號","E_COORD97":168535.16,"N_COORD97":2544238.7200000002,"ADDRESS":"中成路４２號","OBJECTID":590699},"geometry":{"x":168535.16000000108,"y":2544238.7200000025}},{"attributes":{"ID":590727,"DIS_CODE":0,"TOWNNAME":"中西區","LI":"赤嵌里","LIN":"11鄰","STREET":"成功路","SECT":" ","MAREA":" ","LANE":" ","ALLEY":" ","HOUSE_NO":"１７７號","E_COORD97":168610.51999999999,"N_COORD97":2544295.1600000001,"ADDRESS":"成功路１７７號","OBJECTID":590700},"geometry":{"x":168610.51999999955,"y":2544295.160000002}},{"attributes":{"ID":590728,"DIS_CODE":0,"TOWNNAME":"中西區","LI":"赤嵌里","LIN":"11鄰","STREET":"成功路","SECT":" ","MAREA":" ","LANE":" ","ALLEY":" ","HOUSE_NO":"１７９號","E_COORD97":168605.23000000001,"N_COORD97":2544292.52,"ADDRESS":"成功路１７９號","OBJECTID":590701},"geometry":{"x":168605.23000000045,"y":2544292.5200000014}},{"attributes":{"ID":590729,"DIS_CODE":0,"TOWNNAME":"中西區","LI":"赤嵌里","LIN":"11鄰","STREET":"成功路","SECT":" ","MAREA":" ","LANE":" ","ALLEY":" ","HOUSE_NO":"１８１號","E_COORD97":168599.94,"N_COORD97":2544292.8500000001,"ADDRESS":"成功路１８１號","OBJECTID":590702},"geometry":{"x":168599.94000000041,"y":2544292.8500000034}},{"attributes":{"ID":590730,"DIS_CODE":0,"TOWNNAME":"中西區","LI":"赤嵌里","LIN":"11鄰","STREET":"成功路","SECT":" ","MAREA":" ","LANE":" ","ALLEY":" ","HOUSE_NO":"１８３號","E_COORD97":168594.98999999999,"N_COORD97":2544295.1600000001,"ADDRESS":"成功路１８３號","OBJECTID":590703},"geometry":{"x":168594.99000000209,"y":2544295.160000002}},{"attributes":{"ID":590731,"DIS_CODE":0,"TOWNNAME":"中西區","LI":"赤嵌里","LIN":"11鄰","STREET":"成功路","SECT":" ","MAREA":" ","LANE":" ","ALLEY":" ","HOUSE_NO":"１８７號","E_COORD97":168591.35000000001,"N_COORD97":2544296.8100000001,"ADDRESS":"成功路１８７號","OBJECTID":590704},"geometry":{"x":168591.34999999963,"y":2544296.8100000005}},{"attributes":{"ID":590732,"DIS_CODE":0,"TOWNNAME":"中西區","LI":"赤嵌里","LIN":"11鄰","STREET":"成功路","SECT":" ","MAREA":" ","LANE":" ","ALLEY":" ","HOUSE_NO":"１８７號之１","E_COORD97":168584.73999999999,"N_COORD97":2544299.1200000001,"ADDRESS":"成功路１８７號之１","OBJECTID":590705},"geometry":{"x":168584.73999999929,"y":2544299.1200000048}},{"attributes":{"ID":590733,"DIS_CODE":0,"TOWNNAME":"中西區","LI":"赤嵌里","LIN":"11鄰","STREET":"成功路","SECT":" ","MAREA":" ","LANE":" ","ALLEY":" ","HOUSE_NO":"１８７號之２","E_COORD97":168580.44,"N_COORD97":2544299.7799999998,"ADDRESS":"成功路１８７號之２","OBJECTID":590706},"geometry":{"x":168580.44000000227,"y":2544299.7800000031}},{"attributes":{"ID":590734,"DIS_CODE":0,"TOWNNAME":"中西區","LI":"赤嵌里","LIN":"11鄰","STREET":"成功路","SECT":" ","MAREA":" ","LANE":" ","ALLEY":" ","HOUSE_NO":"１８７號之３","E_COORD97":168575.82000000001,"N_COORD97":2544300.77,"ADDRESS":"成功路１８７號之３","OBJECTID":590707},"geometry":{"x":168575.81999999937,"y":2544300.7700000014}},{"attributes":{"ID":590735,"DIS_CODE":0,"TOWNNAME":"中西區","LI":"赤嵌里","LIN":"11鄰","STREET":"成功路","SECT":" ","MAREA":" ","LANE":" ","ALLEY":" ","HOUSE_NO":"１８７號之４","E_COORD97":168570.85999999999,"N_COORD97":2544301.4300000002,"ADDRESS":"成功路１８７號之４","OBJECTID":590708},"geometry":{"x":168570.86000000127,"y":2544301.4299999997}},{"attributes":{"ID":590736,"DIS_CODE":0,"TOWNNAME":"中西區","LI":"赤嵌里","LIN":"11鄰","STREET":"成功路","SECT":" ","MAREA":" ","LANE":" ","ALLEY":" ","HOUSE_NO":"１８９號","E_COORD97":168563.26000000001,"N_COORD97":2544301.7599999998,"ADDRESS":"成功路１８９號","OBJECTID":590709},"geometry":{"x":168563.25999999978,"y":2544301.7600000016}},{"attributes":{"ID":590737,"DIS_CODE":0,"TOWNNAME":"永康區","LI":"復興里","LIN":"5鄰","STREET":"復興路","SECT":" ","MAREA":" ","LANE":" ","ALLEY":" ","HOUSE_NO":"４０９號","E_COORD97":172094.07000000001,"N_COORD97":2544299.3500000001,"ADDRESS":"復興路４０９號","OBJECTID":590710},"geometry":{"x":172094.07000000123,"y":2544299.3499999978}},{"attributes":{"ID":590738,"DIS_CODE":0,"TOWNNAME":"永康區","LI":"復華里","LIN":"32鄰","STREET":"國華街","SECT":" ","MAREA":" ","LANE":" ","ALLEY":" ","HOUSE_NO":"１６６號","E_COORD97":172558.42000000001,"N_COORD97":2546348.2799999998,"ADDRESS":"國華街１６６號","OBJECTID":590711},"geometry":{"x":172558.41999999899,"y":2546348.2800000012}},{"attributes":{"ID":590739,"DIS_CODE":0,"TOWNNAME":"永康區","LI":"復國里","LIN":"32鄰","STREET":"復華一街","SECT":" ","MAREA":" ","LANE":" ","ALLEY":" ","HOUSE_NO":"２０號","E_COORD97":172667.13,"N_COORD97":2545088.0099999998,"ADDRESS":"復華一街２０號","OBJECTID":590712},"geometry":{"x":172667.12999999896,"y":2545088.0099999998}},{"attributes":{"ID":590740,"DIS_CODE":0,"TOWNNAME":"永康區","LI":"復國里","LIN":"33鄰","STREET":"復華一街","SECT":" ","MAREA":" ","LANE":" ","ALLEY":" ","HOUSE_NO":"６２號","E_COORD97":172545.14000000001,"N_COORD97":2545089.8300000001,"ADDRESS":"復華一街６２號","OBJECTID":590713},"geometry":{"x":172545.1400000006,"y":2545089.8299999982}},{"attributes":{"ID":590741,"DIS_CODE":0,"TOWNNAME":"永康區","LI":"復國里","LIN":"19鄰","STREET":"復華五街","SECT":" ","MAREA":" ","LANE":" ","ALLEY":" ","HOUSE_NO":"２８號","E_COORD97":172815.06,"N_COORD97":2545712.9100000001,"ADDRESS":"復華五街２８號","OBJECTID":590714},"geometry":{"x":172815.06000000052,"y":2545712.9100000001}},{"attributes":{"ID":590742,"DIS_CODE":0,"TOWNNAME":"永康區","LI":"復國里","LIN":"21鄰","STREET":"復華六街","SECT":" ","MAREA":" ","LANE":" ","ALLEY":" ","HOUSE_NO":"５７號","E_COORD97":172722.26999999999,"N_COORD97":2545835.27,"ADDRESS":"復華六街５７號","OBJECTID":590715},"geometry":{"x":172722.27000000048,"y":2545835.2699999996}},{"attributes":{"ID":590743,"DIS_CODE":0,"TOWNNAME":"永康區","LI":"復華里","LIN":"23鄰","STREET":"復華八街","SECT":" ","MAREA":" ","LANE":" ","ALLEY":" ","HOUSE_NO":"３８號","E_COORD97":172712.56,"N_COORD97":2546204.2799999998,"ADDRESS":"復華八街３８號","OBJECTID":590716},"geometry":{"x":172712.55999999959,"y":2546204.2799999993}},{"attributes":{"ID":590744,"DIS_CODE":0,"TOWNNAME":"中西區","LI":"赤嵌里","LIN":"11鄰","STREET":"成功路","SECT":" ","MAREA":" ","LANE":" ","ALLEY":" ","HOUSE_NO":"１９１號","E_COORD97":168556.32000000001,"N_COORD97":2544301.4300000002,"ADDRESS":"成功路１９１號","OBJECTID":590717},"geometry":{"x":168556.32000000123,"y":2544301.4299999997}},{"attributes":{"ID":590745,"DIS_CODE":0,"TOWNNAME":"中西區","LI":"赤嵌里","LIN":"11鄰","STREET":"成功路","SECT":" ","MAREA":" ","LANE":" ","ALLEY":" ","HOUSE_NO":"１９３號","E_COORD97":168551.03,"N_COORD97":2544302.0899999999,"ADDRESS":"成功路１９３號","OBJECTID":590718},"geometry":{"x":168551.03000000119,"y":2544302.0900000017}},{"attributes":{"ID":590746,"DIS_CODE":0,"TOWNNAME":"中西區","LI":"赤嵌里","LIN":"11鄰","STREET":"成功路","SECT":" ","MAREA":" ","LANE":" ","ALLEY":" ","HOUSE_NO":"１９５號","E_COORD97":168539.45999999999,"N_COORD97":2544286.25,"ADDRESS":"成功路１９５號","OBJECTID":590719},"geometry":{"x":168539.46000000089,"y":2544286.25}},{"attributes":{"ID":590747,"DIS_CODE":0,"TOWNNAME":"中西區","LI":"赤嵌里","LIN":"11鄰","STREET":"成功路","SECT":" ","MAREA":" ","LANE":" ","ALLEY":" ","HOUSE_NO":"１９７號","E_COORD97":168542.10999999999,"N_COORD97":2544305.3900000001,"ADDRESS":"成功路１９７號","OBJECTID":590720},"geometry":{"x":168542.11000000127,"y":2544305.3900000006}},{"attributes":{"ID":590748,"DIS_CODE":0,"TOWNNAME":"中西區","LI":"赤嵌里","LIN":"11鄰","STREET":"成功路","SECT":" ","MAREA":" ","LANE":" ","ALLEY":" ","HOUSE_NO":"１９９號","E_COORD97":168537.20999999999,"N_COORD97":2544305.1400000001,"ADDRESS":"成功路１９９號","OBJECTID":590721},"geometry":{"x":168537.20999999903,"y":2544305.1399999987}},{"attributes":{"ID":590749,"DIS_CODE":0,"TOWNNAME":"中西區","LI":"赤嵌里","LIN":"11鄰","STREET":"觀亭街","SECT":" ","MAREA":" ","LANE":" ","ALLEY":" ","HOUSE_NO":"６１之１號","E_COORD97":168577.47,"N_COORD97":2544225.8399999999,"ADDRESS":"觀亭街６１之１號","OBJECTID":590722},"geometry":{"x":168577.46999999974,"y":2544225.8400000017}},{"attributes":{"ID":590750,"DIS_CODE":0,"TOWNNAME":"中西區","LI":"赤嵌里","LIN":"11鄰","STREET":"觀亭街","SECT":" ","MAREA":" ","LANE":" ","ALLEY":" ","HOUSE_NO":"６３號","E_COORD97":168581.42999999999,"N_COORD97":2544232.1099999999,"ADDRESS":"觀亭街６３號","OBJECTID":590723},"geometry":{"x":168581.43000000156,"y":2544232.1099999994}},{"attributes":{"ID":590751,"DIS_CODE":0,"TOWNNAME":"中西區","LI":"赤嵌里","LIN":"11鄰","STREET":"觀亭街","SECT":" ","MAREA":" ","LANE":" ","ALLEY":" ","HOUSE_NO":"６５號","E_COORD97":168582.10000000001,"N_COORD97":2544237.0699999998,"ADDRESS":"觀亭街６５號","OBJECTID":590724},"geometry":{"x":168582.10000000056,"y":2544237.0700000003}},{"attributes":{"ID":590752,"DIS_CODE":0,"TOWNNAME":"中西區","LI":"赤嵌里","LIN":"11鄰","STREET":"觀亭街","SECT":" ","MAREA":" ","LANE":" ","ALLEY":" ","HOUSE_NO":"６７號","E_COORD97":168556.64999999999,"N_COORD97":2544247.6299999999,"ADDRESS":"觀亭街６７號","OBJECTID":590725},"geometry":{"x":168556.65000000037,"y":2544247.6300000008}},{"attributes":{"ID":590753,"DIS_CODE":0,"TOWNNAME":"中西區","LI":"赤嵌里","LIN":"11鄰","STREET":"觀亭街","SECT":" ","MAREA":" ","LANE":" ","ALLEY":" ","HOUSE_NO":"６９號","E_COORD97":168541.44,"N_COORD97":2544252.25,"ADDRESS":"觀亭街６９號","OBJECTID":590726},"geometry":{"x":168541.44000000227,"y":2544252.25}},{"attributes":{"ID":590754,"DIS_CODE":0,"TOWNNAME":"中西區","LI":"赤嵌里","LIN":"11鄰","STREET":"觀亭街","SECT":" ","MAREA":" ","LANE":" ","ALLEY":" ","HOUSE_NO":"７３號","E_COORD97":168585.07000000001,"N_COORD97":2544245.6499999999,"ADDRESS":"觀亭街７３號","OBJECTID":590727},"geometry":{"x":168585.07000000123,"y":2544245.6500000022}},{"attributes":{"ID":590755,"DIS_CODE":0,"TOWNNAME":"中西區","LI":"赤嵌里","LIN":"11鄰","STREET":"觀亭街","SECT":" ","MAREA":" ","LANE":" ","ALLEY":" ","HOUSE_NO":"７５號","E_COORD97":168586.39000000001,"N_COORD97":2544249.6099999999,"ADDRESS":"觀亭街７５號","OBJECTID":590728},"geometry":{"x":168586.38999999966,"y":2544249.6099999994}},{"attributes":{"ID":590756,"DIS_CODE":0,"TOWNNAME":"中西區","LI":"赤嵌里","LIN":"11鄰","STREET":"觀亭街","SECT":" ","MAREA":" ","LANE":" ","ALLEY":" ","HOUSE_NO":"７７號","E_COORD97":168586.06,"N_COORD97":2544254.8900000001,"ADDRESS":"觀亭街７７號","OBJECTID":590729},"geometry":{"x":168586.06000000052,"y":2544254.8900000006}},{"attributes":{"ID":590757,"DIS_CODE":0,"TOWNNAME":"中西區","LI":"赤嵌里","LIN":"11鄰","STREET":"觀亭街","SECT":" ","MAREA":" ","LANE":" ","ALLEY":" ","HOUSE_NO":"７９號","E_COORD97":168586.72,"N_COORD97":2544259.1800000002,"ADDRESS":"觀亭街７９號","OBJECTID":590730},"geometry":{"x":168586.72000000067,"y":2544259.1799999997}},{"attributes":{"ID":590758,"DIS_CODE":0,"TOWNNAME":"中西區","LI":"赤嵌里","LIN":"11鄰","STREET":"觀亭街","SECT":" ","MAREA":" ","LANE":" ","ALLEY":" ","HOUSE_NO":"８１號","E_COORD97":168588.70999999999,"N_COORD97":2544266.4399999999,"ADDRESS":"觀亭街８１號","OBJECTID":590731},"geometry":{"x":168588.71000000089,"y":2544266.4400000013}},{"attributes":{"ID":590759,"DIS_CODE":0,"TOWNNAME":"中西區","LI":"赤嵌里","LIN":"11鄰","STREET":"中成路","SECT":" ","MAREA":" ","LANE":" ","ALLEY":" ","HOUSE_NO":"５０號","E_COORD97":168543.42999999999,"N_COORD97":2544267.1000000001,"ADDRESS":"中成路５０號","OBJECTID":590732},"geometry":{"x":168543.4299999997,"y":2544267.0999999978}},{"attributes":{"ID":590760,"DIS_CODE":0,"TOWNNAME":"永康區","LI":"復國里","LIN":"18鄰","STREET":"國華街","SECT":" ","MAREA":" ","LANE":" ","ALLEY":" ","HOUSE_NO":"８３號","E_COORD97":172844.17999999999,"N_COORD97":2545812.8500000001,"ADDRESS":"國華街８３號","OBJECTID":590733},"geometry":{"x":172844.1799999997,"y":2545812.8500000015}},{"attributes":{"ID":590761,"DIS_CODE":0,"TOWNNAME":"永康區","LI":"復國里","LIN":"18鄰","STREET":"復華六街","SECT":" ","MAREA":" ","LANE":" ","ALLEY":" ","HOUSE_NO":"２３號","E_COORD97":172828.20000000001,"N_COORD97":2545832.2799999998,"ADDRESS":"復華六街２３號","OBJECTID":590734},"geometry":{"x":172828.20000000205,"y":2545832.2800000031}},{"attributes":{"ID":590762,"DIS_CODE":0,"TOWNNAME":"永康區","LI":"蔦松里","LIN":"8鄰","STREET":"中正北路","SECT":" ","MAREA":" ","LANE":" ","ALLEY":" ","HOUSE_NO":"４２７號","E_COORD97":173589.31,"N_COORD97":2549149.73,"ADDRESS":"中正北路４２７號","OBJECTID":590735},"geometry":{"x":173589.30999999959,"y":2549149.7300000023}},{"attributes":{"ID":590763,"DIS_CODE":0,"TOWNNAME":"永康區","LI":"復興里","LIN":"10鄰","STREET":"復興路","SECT":" ","MAREA":" ","LANE":" ","ALLEY":" ","HOUSE_NO":"４０４號","E_COORD97":172119.19,"N_COORD97":2544340.2999999998,"ADDRESS":"復興路４０４號","OBJECTID":590736},"geometry":{"x":172119.19000000041,"y":2544340.3000000007}},{"attributes":{"ID":590764,"DIS_CODE":0,"TOWNNAME":"中西區","LI":"赤嵌里","LIN":"11鄰","STREET":"中成路","SECT":" ","MAREA":" ","LANE":" ","ALLEY":" ","HOUSE_NO":"５２號","E_COORD97":168543.42999999999,"N_COORD97":2544274.3599999999,"ADDRESS":"中成路５２號","OBJECTID":590737},"geometry":{"x":168543.4299999997,"y":2544274.3599999994}},{"attributes":{"ID":590765,"DIS_CODE":0,"TOWNNAME":"中西區","LI":"赤嵌里","LIN":"11鄰","STREET":"中成路","SECT":" ","MAREA":" ","LANE":" ","ALLEY":" ","HOUSE_NO":"５６號","E_COORD97":168542.76999999999,"N_COORD97":2544278,"ADDRESS":"中成路５６號","OBJECTID":590738},"geometry":{"x":168542.76999999955,"y":2544278}},{"attributes":{"ID":590766,"DIS_CODE":0,"TOWNNAME":"中西區","LI":"郡王里","LIN":"11鄰","STREET":"南門路","SECT":" ","MAREA":" ","LANE":" ","ALLEY":" ","HOUSE_NO":"１４５號之８","E_COORD97":168481.14000000001,"N_COORD97":2543019.8599999999,"ADDRESS":"南門路１４５號之８","OBJECTID":590739},"geometry":{"x":168481.13999999966,"y":2543019.8599999994}},{"attributes":{"ID":590767,"DIS_CODE":0,"TOWNNAME":"新市區","LI":"新市里","LIN":"11鄰","STREET":"仁愛街","SECT":" ","MAREA":" ","LANE":" ","ALLEY":" ","HOUSE_NO":"３７０號","E_COORD97":177661.78,"N_COORD97":2553220.0299999998,"ADDRESS":"仁愛街３７０號","OBJECTID":590740},"geometry":{"x":177661.78000000026,"y":2553220.0299999993}},{"attributes":{"ID":590768,"DIS_CODE":0,"TOWNNAME":"永康區","LI":"復國里","LIN":"18鄰","STREET":"國華街","SECT":" ","MAREA":" ","LANE":" ","ALLEY":" ","HOUSE_NO":"７３號","E_COORD97":172840.19,"N_COORD97":2545783.8399999999,"ADDRESS":"國華街７３號","OBJECTID":590741},"geometry":{"x":172840.18999999948,"y":2545783.8399999999}},{"attributes":{"ID":590769,"DIS_CODE":0,"TOWNNAME":"永康區","LI":"復國里","LIN":"18鄰","STREET":"復華六街","SECT":" ","MAREA":" ","LANE":" ","ALLEY":" ","HOUSE_NO":"１７號","E_COORD97":172841.69,"N_COORD97":2545832.5299999998,"ADDRESS":"復華六街１７號","OBJECTID":590742},"geometry":{"x":172841.69000000041,"y":2545832.5299999993}},{"attributes":{"ID":590770,"DIS_CODE":0,"TOWNNAME":"永康區","LI":"復華里","LIN":"23鄰","STREET":"復華八街","SECT":" ","MAREA":" ","LANE":" ","ALLEY":" ","HOUSE_NO":"２０號","E_COORD97":172689.85000000001,"N_COORD97":2546166.02,"ADDRESS":"復華八街２０號","OBJECTID":590743},"geometry":{"x":172689.85000000056,"y":2546166.0199999996}},{"attributes":{"ID":590771,"DIS_CODE":0,"TOWNNAME":"永康區","LI":"復興里","LIN":"11鄰","STREET":"復興路","SECT":" ","MAREA":" ","LANE":" ","ALLEY":" ","HOUSE_NO":"３５４號","E_COORD97":172220.53,"N_COORD97":2544343.4500000002,"ADDRESS":"復興路３５４號","OBJECTID":590744},"geometry":{"x":172220.53000000026,"y":2544343.4500000011}},{"attributes":{"ID":590772,"DIS_CODE":0,"TOWNNAME":"中西區","LI":"光賢里","LIN":"11鄰","STREET":"中華西路","SECT":"二段","MAREA":" ","LANE":" ","ALLEY":" ","HOUSE_NO":"５９８號","E_COORD97":166661.20000000001,"N_COORD97":2544972.5,"ADDRESS":"中華西路二段５９８號","OBJECTID":590745},"geometry":{"x":166661.20000000112,"y":2544972.5}},{"attributes":{"ID":590773,"DIS_CODE":0,"TOWNNAME":"安南區","LI":"總頭里","LIN":"11鄰","STREET":"長溪路","SECT":"二段","MAREA":" ","LANE":" ","ALLEY":" ","HOUSE_NO":"５４３號","E_COORD97":168243.78,"N_COORD97":2550548.5699999998,"ADDRESS":"長溪路二段５４３號","OBJECTID":590746},"geometry":{"x":168243.77999999933,"y":2550548.5700000022}},{"attributes":{"ID":590774,"DIS_CODE":0,"TOWNNAME":"安南區","LI":"安慶里","LIN":"11鄰","STREET":"長溪路","SECT":"一段","MAREA":" ","LANE":" ","ALLEY":" ","HOUSE_NO":"２４１號","E_COORD97":168870.85000000001,"N_COORD97":2548661.4399999999,"ADDRESS":"長溪路一段２４１號","OBJECTID":590747},"geometry":{"x":168870.84999999963,"y":2548661.4399999995}},{"attributes":{"ID":590775,"DIS_CODE":0,"TOWNNAME":"安南區","LI":"安西里","LIN":"11鄰","STREET":"長溪路","SECT":"一段","MAREA":" ","LANE":" ","ALLEY":" ","HOUSE_NO":"１３號","E_COORD97":169235.51999999999,"N_COORD97":2548232.9500000002,"ADDRESS":"長溪路一段１３號","OBJECTID":590748},"geometry":{"x":169235.52000000048,"y":2548232.9500000011}},{"attributes":{"ID":590776,"DIS_CODE":0,"TOWNNAME":"安南區","LI":"安西里","LIN":"11鄰","STREET":"長溪路","SECT":"一段","MAREA":" ","LANE":" ","ALLEY":" ","HOUSE_NO":"１５號","E_COORD97":169231.01000000001,"N_COORD97":2548237.0800000001,"ADDRESS":"長溪路一段１５號","OBJECTID":590749},"geometry":{"x":169231.00999999978,"y":2548237.0800000001}},{"attributes":{"ID":590777,"DIS_CODE":0,"TOWNNAME":"安南區","LI":"安西里","LIN":"11鄰","STREET":"長溪路","SECT":"一段","MAREA":" ","LANE":" ","ALLEY":" ","HOUSE_NO":"１７號","E_COORD97":169228.01000000001,"N_COORD97":2548243.46,"ADDRESS":"長溪路一段１７號","OBJECTID":590750},"geometry":{"x":169228.00999999978,"y":2548243.4600000028}},{"attributes":{"ID":590778,"DIS_CODE":0,"TOWNNAME":"安南區","LI":"安西里","LIN":"11鄰","STREET":"長溪路","SECT":"一段","MAREA":" ","LANE":" ","ALLEY":" ","HOUSE_NO":"１９號","E_COORD97":169227.25,"N_COORD97":2548246.4700000002,"ADDRESS":"長溪路一段１９號","OBJECTID":590751},"geometry":{"x":169227.25000000093,"y":2548246.4700000025}},{"attributes":{"ID":590779,"DIS_CODE":0,"TOWNNAME":"永康區","LI":"復華里","LIN":"33鄰","STREET":"復國一路","SECT":" ","MAREA":" ","LANE":" ","ALLEY":" ","HOUSE_NO":"５１９號","E_COORD97":172516.56,"N_COORD97":2546249.52,"ADDRESS":"復國一路５１９號","OBJECTID":590752},"geometry":{"x":172516.56000000145,"y":2546249.5199999996}},{"attributes":{"ID":590780,"DIS_CODE":0,"TOWNNAME":"永康區","LI":"復國里","LIN":"13鄰","STREET":"復華三街","SECT":" ","MAREA":" ","LANE":" ","ALLEY":" ","HOUSE_NO":"５７號","E_COORD97":172794.67000000001,"N_COORD97":2545538.7999999998,"ADDRESS":"復華三街５７號","OBJECTID":590753},"geometry":{"x":172794.67000000086,"y":2545538.8000000026}},{"attributes":{"ID":590781,"DIS_CODE":0,"TOWNNAME":"永康區","LI":"復興里","LIN":"13鄰","STREET":"復興路","SECT":" ","MAREA":" ","LANE":" ","ALLEY":" ","HOUSE_NO":"２８８號","E_COORD97":172353.82000000001,"N_COORD97":2544348.5299999998,"ADDRESS":"復興路２８８號","OBJECTID":590754},"geometry":{"x":172353.8200000003,"y":2544348.5299999993}},{"attributes":{"ID":590782,"DIS_CODE":0,"TOWNNAME":"永康區","LI":"復華里","LIN":"34鄰","STREET":"復國一路","SECT":" ","MAREA":" ","LANE":" ","ALLEY":" ","HOUSE_NO":"４９１號","E_COORD97":172567.94,"N_COORD97":2546183.52,"ADDRESS":"復國一路４９１號","OBJECTID":590755},"geometry":{"x":172567.94000000134,"y":2546183.5200000033}},{"attributes":{"ID":590783,"DIS_CODE":0,"TOWNNAME":"永康區","LI":"復華里","LIN":"35鄰","STREET":"復國一路","SECT":" ","MAREA":" ","LANE":" ","ALLEY":" ","HOUSE_NO":"４７３號","E_COORD97":172607.60999999999,"N_COORD97":2546134.6800000002,"ADDRESS":"復國一路４７３號","OBJECTID":590756},"geometry":{"x":172607.61000000127,"y":2546134.6799999978}},{"attributes":{"ID":590784,"DIS_CODE":0,"TOWNNAME":"永康區","LI":"復華里","LIN":"33鄰","STREET":"復國一路","SECT":" ","MAREA":" ","LANE":" ","ALLEY":" ","HOUSE_NO":"５０７號","E_COORD97":172535.14999999999,"N_COORD97":2546225.5299999998,"ADDRESS":"復國一路５０７號","OBJECTID":590757},"geometry":{"x":172535.15000000037,"y":2546225.5299999993}},{"attributes":{"ID":590785,"DIS_CODE":0,"TOWNNAME":"永康區","LI":"復國里","LIN":"17鄰","STREET":"國華街","SECT":" ","MAREA":" ","LANE":" ","ALLEY":" ","HOUSE_NO":"８８號","E_COORD97":172867.39999999999,"N_COORD97":2545823.2999999998,"ADDRESS":"國華街８８號","OBJECTID":590758},"geometry":{"x":172867.40000000037,"y":2545823.3000000045}},{"attributes":{"ID":590786,"DIS_CODE":0,"TOWNNAME":"永康區","LI":"復興里","LIN":"8鄰","STREET":"復興路","SECT":" ","MAREA":" ","LANE":" ","ALLEY":" ","HOUSE_NO":"３１５號","E_COORD97":172262.70999999999,"N_COORD97":2544315.4900000002,"ADDRESS":"復興路３１５號","OBJECTID":590759},"geometry":{"x":172262.70999999996,"y":2544315.4900000002}},{"attributes":{"ID":590787,"DIS_CODE":0,"TOWNNAME":"永康區","LI":"復國里","LIN":"19鄰","STREET":"復華五街","SECT":" ","MAREA":" ","LANE":" ","ALLEY":" ","HOUSE_NO":"３４號","E_COORD97":172802.79000000001,"N_COORD97":2545713.1600000001,"ADDRESS":"復華五街３４號","OBJECTID":590760},"geometry":{"x":172802.79000000097,"y":2545713.160000002}},{"attributes":{"ID":590788,"DIS_CODE":0,"TOWNNAME":"永康區","LI":"復華里","LIN":"23鄰","STREET":"復國一路","SECT":" ","MAREA":" ","LANE":" ","ALLEY":" ","HOUSE_NO":"４６２號","E_COORD97":172673.10999999999,"N_COORD97":2546085.71,"ADDRESS":"復國一路４６２號","OBJECTID":590761},"geometry":{"x":172673.11000000127,"y":2546085.7100000028}},{"attributes":{"ID":590789,"DIS_CODE":0,"TOWNNAME":"永康區","LI":"復國里","LIN":"18鄰","STREET":"復華六街","SECT":" ","MAREA":" ","LANE":" ","ALLEY":" ","HOUSE_NO":"１９號","E_COORD97":172837.04000000001,"N_COORD97":2545832.5299999998,"ADDRESS":"復華六街１９號","OBJECTID":590762},"geometry":{"x":172837.04000000004,"y":2545832.5299999993}},{"attributes":{"ID":590790,"DIS_CODE":0,"TOWNNAME":"永康區","LI":"復華里","LIN":"13鄰","STREET":"復國二路","SECT":" ","MAREA":" ","LANE":" ","ALLEY":" ","HOUSE_NO":"１８５號","E_COORD97":172971.67000000001,"N_COORD97":2545942.27,"ADDRESS":"復國二路１８５號","OBJECTID":590763},"geometry":{"x":172971.66999999993,"y":2545942.2700000014}},{"attributes":{"ID":590791,"DIS_CODE":0,"TOWNNAME":"永康區","LI":"復國里","LIN":"29鄰","STREET":"復華二街","SECT":" ","MAREA":" ","LANE":" ","ALLEY":" ","HOUSE_NO":"１９號","E_COORD97":172597.63,"N_COORD97":2545345.52,"ADDRESS":"復華二街１９號","OBJECTID":590764},"geometry":{"x":172597.62999999896,"y":2545345.5199999996}},{"attributes":{"ID":590792,"DIS_CODE":0,"TOWNNAME":"永康區","LI":"復華里","LIN":"29鄰","STREET":"復華八街","SECT":" ","MAREA":" ","LANE":" ","ALLEY":" ","HOUSE_NO":"７號","E_COORD97":172658.67999999999,"N_COORD97":2546151.77,"ADDRESS":"復華八街７號","OBJECTID":590765},"geometry":{"x":172658.68000000063,"y":2546151.7700000014}},{"attributes":{"ID":590793,"DIS_CODE":0,"TOWNNAME":"安南區","LI":"城南里","LIN":"11鄰","STREET":"城西街","SECT":"二段","MAREA":" ","LANE":" ","ALLEY":" ","HOUSE_NO":"６２號","E_COORD97":160113.39999999999,"N_COORD97":2551113.7200000002,"ADDRESS":"城西街二段６２號","OBJECTID":590766},"geometry":{"x":160113.4000000013,"y":2551113.7200000025}},{"attributes":{"ID":590794,"DIS_CODE":0,"TOWNNAME":"安南區","LI":"城南里","LIN":"11鄰","STREET":"城西街","SECT":"二段","MAREA":" ","LANE":" ","ALLEY":" ","HOUSE_NO":"６４號","E_COORD97":160109.17000000001,"N_COORD97":2551110.25,"ADDRESS":"城西街二段６４號","OBJECTID":590767},"geometry":{"x":160109.17000000179,"y":2551110.25}},{"attributes":{"ID":590795,"DIS_CODE":0,"TOWNNAME":"安南區","LI":"城南里","LIN":"11鄰","STREET":"城西街","SECT":"二段","MAREA":" ","LANE":" ","ALLEY":" ","HOUSE_NO":"６６號","E_COORD97":160105.44,"N_COORD97":2551107.52,"ADDRESS":"城西街二段６６號","OBJECTID":590768},"geometry":{"x":160105.44000000041,"y":2551107.5200000014}},{"attributes":{"ID":590796,"DIS_CODE":0,"TOWNNAME":"安南區","LI":"城南里","LIN":"11鄰","STREET":"城西街","SECT":"二段","MAREA":" ","LANE":" ","ALLEY":" ","HOUSE_NO":"６８號","E_COORD97":160100.95999999999,"N_COORD97":2551104.79,"ADDRESS":"城西街二段６８號","OBJECTID":590769},"geometry":{"x":160100.96000000089,"y":2551104.790000001}},{"attributes":{"ID":590797,"DIS_CODE":0,"TOWNNAME":"安南區","LI":"城南里","LIN":"11鄰","STREET":"城西街","SECT":"二段","MAREA":" ","LANE":" ","ALLEY":" ","HOUSE_NO":"７０號","E_COORD97":160096.98999999999,"N_COORD97":2551100.5699999998,"ADDRESS":"城西街二段７０號","OBJECTID":590770},"geometry":{"x":160096.99000000209,"y":2551100.5700000022}},{"attributes":{"ID":590798,"DIS_CODE":0,"TOWNNAME":"安南區","LI":"城南里","LIN":"11鄰","STREET":"城西街","SECT":"二段","MAREA":" ","LANE":" ","ALLEY":" ","HOUSE_NO":"７２號","E_COORD97":160093.01000000001,"N_COORD97":2551098.5800000001,"ADDRESS":"城西街二段７２號","OBJECTID":590771},"geometry":{"x":160093.01000000164,"y":2551098.5800000001}},{"attributes":{"ID":590799,"DIS_CODE":0,"TOWNNAME":"安南區","LI":"城南里","LIN":"11鄰","STREET":"城西街","SECT":"二段","MAREA":" ","LANE":" ","ALLEY":" ","HOUSE_NO":"７４號","E_COORD97":160088.53,"N_COORD97":2551101.8100000001,"ADDRESS":"城西街二段７４號","OBJECTID":590772},"geometry":{"x":160088.53000000119,"y":2551101.8100000042}},{"attributes":{"ID":590800,"DIS_CODE":0,"TOWNNAME":"安南區","LI":"城南里","LIN":"11鄰","STREET":"城西街","SECT":"二段","MAREA":" ","LANE":" ","ALLEY":" ","HOUSE_NO":"７６號","E_COORD97":160084.54999999999,"N_COORD97":2551097.3399999999,"ADDRESS":"城西街二段７６號","OBJECTID":590773},"geometry":{"x":160084.55000000075,"y":2551097.339999998}},{"attributes":{"ID":590801,"DIS_CODE":0,"TOWNNAME":"永康區","LI":"復國里","LIN":"18鄰","STREET":"復華六街","SECT":" ","MAREA":" ","LANE":" ","ALLEY":" ","HOUSE_NO":"３５號","E_COORD97":172800.85999999999,"N_COORD97":2545832.5299999998,"ADDRESS":"復華六街３５號","OBJECTID":590774},"geometry":{"x":172800.86000000127,"y":2545832.5299999993}},{"attributes":{"ID":590802,"DIS_CODE":0,"TOWNNAME":"永康區","LI":"復國里","LIN":"19鄰","STREET":"國華街","SECT":" ","MAREA":" ","LANE":" ","ALLEY":" ","HOUSE_NO":"７１號","E_COORD97":172839.75,"N_COORD97":2545766.8700000001,"ADDRESS":"國華街７１號","OBJECTID":590775},"geometry":{"x":172839.75000000093,"y":2545766.8700000029}},{"attributes":{"ID":590803,"DIS_CODE":0,"TOWNNAME":"永康區","LI":"復國里","LIN":"19鄰","STREET":"復華五街","SECT":" ","MAREA":" ","LANE":" ","ALLEY":" ","HOUSE_NO":"２４號","E_COORD97":172827.45000000001,"N_COORD97":2545712.4100000001,"ADDRESS":"復華五街２４號","OBJECTID":590776},"geometry":{"x":172827.45000000019,"y":2545712.4100000001}},{"attributes":{"ID":590804,"DIS_CODE":0,"TOWNNAME":"永康區","LI":"復興里","LIN":"12鄰","STREET":"復興路","SECT":" ","MAREA":" ","LANE":" ","ALLEY":" ","HOUSE_NO":"３０６號","E_COORD97":172318.29000000001,"N_COORD97":2544348.4500000002,"ADDRESS":"復興路３０６號","OBJECTID":590777},"geometry":{"x":172318.29000000004,"y":2544348.4499999993}},{"attributes":{"ID":590805,"DIS_CODE":0,"TOWNNAME":"安南區","LI":"學東里","LIN":"11鄰","STREET":"公學路","SECT":"六段","MAREA":" ","LANE":" ","ALLEY":" ","HOUSE_NO":"６６２號之２","E_COORD97":162214.85000000001,"N_COORD97":2553273.4100000001,"ADDRESS":"公學路六段６６２號之２","OBJECTID":590778},"geometry":{"x":162214.85000000056,"y":2553273.4100000001}},{"attributes":{"ID":590806,"DIS_CODE":0,"TOWNNAME":"安南區","LI":"學東里","LIN":"11鄰","STREET":"公學路","SECT":"六段","MAREA":" ","LANE":" ","ALLEY":" ","HOUSE_NO":"６６２號之１","E_COORD97":162219.97,"N_COORD97":2553273.79,"ADDRESS":"公學路六段６６２號之１","OBJECTID":590779},"geometry":{"x":162219.96999999974,"y":2553273.7900000028}},{"attributes":{"ID":590807,"DIS_CODE":0,"TOWNNAME":"永康區","LI":"復國里","LIN":"13鄰","STREET":"復華三街","SECT":" ","MAREA":" ","LANE":" ","ALLEY":" ","HOUSE_NO":"２６號","E_COORD97":172866.76000000001,"N_COORD97":2545550.77,"ADDRESS":"復華三街２６號","OBJECTID":590780},"geometry":{"x":172866.76000000071,"y":2545550.7699999977}},{"attributes":{"ID":590808,"DIS_CODE":0,"TOWNNAME":"永康區","LI":"復國里","LIN":"21鄰","STREET":"復華六街","SECT":" ","MAREA":" ","LANE":" ","ALLEY":" ","HOUSE_NO":"４５號","E_COORD97":172746.31,"N_COORD97":2545834.77,"ADDRESS":"復華六街４５號","OBJECTID":590781},"geometry":{"x":172746.30999999959,"y":2545834.7699999996}},{"attributes":{"ID":590809,"DIS_CODE":0,"TOWNNAME":"安南區","LI":"安西里","LIN":"11鄰","STREET":"長溪路","SECT":"一段","MAREA":" ","LANE":" ","ALLEY":" ","HOUSE_NO":"２１號","E_COORD97":169226.13,"N_COORD97":2548250.6000000001,"ADDRESS":"長溪路一段２１號","OBJECTID":590782},"geometry":{"x":169226.13000000175,"y":2548250.5999999996}},{"attributes":{"ID":590810,"DIS_CODE":0,"TOWNNAME":"安南區","LI":"安西里","LIN":"11鄰","STREET":"長溪路","SECT":"一段","MAREA":" ","LANE":" ","ALLEY":" ","HOUSE_NO":"２３號","E_COORD97":169224.62,"N_COORD97":2548255.1000000001,"ADDRESS":"長溪路一段２３號","OBJECTID":590783},"geometry":{"x":169224.62000000197,"y":2548255.1000000015}},{"attributes":{"ID":590811,"DIS_CODE":0,"TOWNNAME":"安南區","LI":"安西里","LIN":"11鄰","STREET":"長溪路","SECT":"一段","MAREA":" ","LANE":" ","ALLEY":" ","HOUSE_NO":"２５號","E_COORD97":169218.60999999999,"N_COORD97":2548256.6200000001,"ADDRESS":"長溪路一段２５號","OBJECTID":590784},"geometry":{"x":169218.61000000127,"y":2548256.6200000029}},{"attributes":{"ID":590812,"DIS_CODE":0,"TOWNNAME":"安南區","LI":"安西里","LIN":"11鄰","STREET":"長溪路","SECT":"一段","MAREA":" ","LANE":" ","ALLEY":" ","HOUSE_NO":"２７號","E_COORD97":169214.85000000001,"N_COORD97":2548259.25,"ADDRESS":"長溪路一段２７號","OBJECTID":590785},"geometry":{"x":169214.85000000056,"y":2548259.25}},{"attributes":{"ID":590813,"DIS_CODE":0,"TOWNNAME":"安南區","LI":"安西里","LIN":"11鄰","STREET":"長溪路","SECT":"一段","MAREA":" ","LANE":" ","ALLEY":" ","HOUSE_NO":"３１號","E_COORD97":169208.84,"N_COORD97":2548268.6299999999,"ADDRESS":"長溪路一段３１號","OBJECTID":590786},"geometry":{"x":169208.83999999985,"y":2548268.6300000008}},{"attributes":{"ID":590814,"DIS_CODE":0,"TOWNNAME":"安南區","LI":"安西里","LIN":"11鄰","STREET":"長溪路","SECT":"一段","MAREA":" ","LANE":" ","ALLEY":" ","HOUSE_NO":"３３號","E_COORD97":169206.57999999999,"N_COORD97":2548272.0099999998,"ADDRESS":"長溪路一段３３號","OBJECTID":590787},"geometry":{"x":169206.58000000101,"y":2548272.0100000035}},{"attributes":{"ID":590815,"DIS_CODE":0,"TOWNNAME":"安南區","LI":"安西里","LIN":"11鄰","STREET":"長溪路","SECT":"一段","MAREA":" ","LANE":" ","ALLEY":" ","HOUSE_NO":"５號","E_COORD97":169239.82000000001,"N_COORD97":2548217.4300000002,"ADDRESS":"長溪路一段５號","OBJECTID":590788},"geometry":{"x":169239.8200000003,"y":2548217.4299999997}},{"attributes":{"ID":590816,"DIS_CODE":0,"TOWNNAME":"安南區","LI":"安慶里","LIN":"11鄰","STREET":"長溪路","SECT":"一段","MAREA":" ","LANE":" ","ALLEY":" ","HOUSE_NO":"１６７號","E_COORD97":168991.87,"N_COORD97":2548547.1800000002,"ADDRESS":"長溪路一段１６７號","OBJECTID":590789},"geometry":{"x":168991.87000000011,"y":2548547.1799999997}},{"attributes":{"ID":590817,"DIS_CODE":0,"TOWNNAME":"永康區","LI":"復華里","LIN":"34鄰","STREET":"復國一路","SECT":" ","MAREA":" ","LANE":" ","ALLEY":" ","HOUSE_NO":"４８７號","E_COORD97":172574.14999999999,"N_COORD97":2546176.27,"ADDRESS":"復國一路４８７號","OBJECTID":590790},"geometry":{"x":172574.15000000037,"y":2546176.2700000014}},{"attributes":{"ID":590818,"DIS_CODE":0,"TOWNNAME":"永康區","LI":"復國里","LIN":"33鄰","STREET":"復華一街","SECT":" ","MAREA":" ","LANE":" ","ALLEY":" ","HOUSE_NO":"８２號","E_COORD97":172496.48000000001,"N_COORD97":2545091.5299999998,"ADDRESS":"復華一街８２號","OBJECTID":590791},"geometry":{"x":172496.48000000138,"y":2545091.5300000031}},{"attributes":{"ID":590819,"DIS_CODE":0,"TOWNNAME":"永康區","LI":"復華里","LIN":"29鄰","STREET":"復國一路","SECT":" ","MAREA":" ","LANE":" ","ALLEY":" ","HOUSE_NO":"５１２號","E_COORD97":172588.26999999999,"N_COORD97":2546188.1899999999,"ADDRESS":"復國一路５１２號","OBJECTID":590792},"geometry":{"x":172588.27000000048,"y":2546188.1899999995}},{"attributes":{"ID":590820,"DIS_CODE":0,"TOWNNAME":"新市區","LI":"新和里","LIN":"11鄰","STREET":"仁愛街","SECT":" ","MAREA":" ","LANE":" ","ALLEY":" ","HOUSE_NO":"１２６號","E_COORD97":177559,"N_COORD97":2552542.5299999998,"ADDRESS":"仁愛街１２６號","OBJECTID":590793},"geometry":{"x":177559.00000000186,"y":2552542.5299999993}},{"attributes":{"ID":590821,"DIS_CODE":0,"TOWNNAME":"新市區","LI":"新和里","LIN":"11鄰","STREET":"仁愛街","SECT":" ","MAREA":" ","LANE":" ","ALLEY":" ","HOUSE_NO":"１２１號","E_COORD97":177540.14000000001,"N_COORD97":2552581.0299999998,"ADDRESS":"仁愛街１２１號","OBJECTID":590794},"geometry":{"x":177540.13999999966,"y":2552581.0300000012}},{"attributes":{"ID":590822,"DIS_CODE":0,"TOWNNAME":"新市區","LI":"新和里","LIN":"11鄰","STREET":"仁愛街","SECT":" ","MAREA":" ","LANE":" ","ALLEY":" ","HOUSE_NO":"１４５號","E_COORD97":177562.25,"N_COORD97":2552636.2799999998,"ADDRESS":"仁愛街１４５號","OBJECTID":590795},"geometry":{"x":177562.25000000186,"y":2552636.2799999993}},{"attributes":{"ID":590823,"DIS_CODE":0,"TOWNNAME":"新市區","LI":"新和里","LIN":"11鄰","STREET":"仁愛街","SECT":" ","MAREA":" ","LANE":" ","ALLEY":" ","HOUSE_NO":"１３８號","E_COORD97":177564.70000000001,"N_COORD97":2552568.7799999998,"ADDRESS":"仁愛街１３８號","OBJECTID":590796},"geometry":{"x":177564.70000000112,"y":2552568.7800000031}},{"attributes":{"ID":590824,"DIS_CODE":0,"TOWNNAME":"新市區","LI":"新和里","LIN":"11鄰","STREET":"仁愛街","SECT":" ","MAREA":" ","LANE":" ","ALLEY":" ","HOUSE_NO":"１１４號","E_COORD97":177553.70000000001,"N_COORD97":2552515.0299999998,"ADDRESS":"仁愛街１１４號","OBJECTID":590797},"geometry":{"x":177553.70000000019,"y":2552515.0299999993}},{"attributes":{"ID":590825,"DIS_CODE":0,"TOWNNAME":"新市區","LI":"新和里","LIN":"11鄰","STREET":"仁愛街","SECT":" ","MAREA":" ","LANE":" ","ALLEY":" ","HOUSE_NO":"１３９號","E_COORD97":177558.45000000001,"N_COORD97":2552616.5299999998,"ADDRESS":"仁愛街１３９號","OBJECTID":590798},"geometry":{"x":177558.45000000112,"y":2552616.5299999993}},{"attributes":{"ID":590826,"DIS_CODE":0,"TOWNNAME":"新市區","LI":"新和里","LIN":"11鄰","STREET":"仁愛街","SECT":" ","MAREA":" ","LANE":" ","ALLEY":" ","HOUSE_NO":"１８３號","E_COORD97":177585.45000000001,"N_COORD97":2552751.5299999998,"ADDRESS":"仁愛街１８３號","OBJECTID":590799},"geometry":{"x":177585.45000000112,"y":2552751.5300000012}},{"attributes":{"ID":590827,"DIS_CODE":0,"TOWNNAME":"新市區","LI":"新和里","LIN":"11鄰","STREET":"仁愛街","SECT":" ","MAREA":" ","LANE":" ","ALLEY":" ","HOUSE_NO":"１２０號","E_COORD97":177556.89000000001,"N_COORD97":2552529.5299999998,"ADDRESS":"仁愛街１２０號","OBJECTID":590800},"geometry":{"x":177556.88999999966,"y":2552529.5299999975}}]}