{"displayFieldName":"TOWNNAME","fieldAliases":{"ID":"ID","DIS_CODE":"DIS_CODE","TOWNNAME":"TOWNNAME","LI":"LI","LIN":"LIN","STREET":"STREET","SECT":"SECT","MAREA":"MAREA","LANE":"LANE","ALLEY":"ALLEY","HOUSE_NO":"HOUSE_NO","E_COORD97":"E_COORD97","N_COORD97":"N_COORD97","ADDRESS":"ADDRESS","OBJECTID":"OBJECTID"},"geometryType":"esriGeometryPoint","spatialReference":{"wkid":102443,"latestWkid":3826},"fields":[{"name":"ID","type":"esriFieldTypeDouble","alias":"ID"},{"name":"DIS_CODE","type":"esriFieldTypeInteger","alias":"DIS_CODE"},{"name":"TOWNNAME","type":"esriFieldTypeString","alias":"TOWNNAME","length":8},{"name":"LI","type":"esriFieldTypeString","alias":"LI","length":8},{"name":"LIN","type":"esriFieldTypeString","alias":"LIN","length":12},{"name":"STREET","type":"esriFieldTypeString","alias":"STREET","length":20},{"name":"SECT","type":"esriFieldTypeString","alias":"SECT","length":8},{"name":"MAREA","type":"esriFieldTypeString","alias":"MAREA","length":12},{"name":"LANE","type":"esriFieldTypeString","alias":"LANE","length":10},{"name":"ALLEY","type":"esriFieldTypeString","alias":"ALLEY","length":10},{"name":"HOUSE_NO","type":"esriFieldTypeString","alias":"HOUSE_NO","length":20},{"name":"E_COORD97","type":"esriFieldTypeDouble","alias":"E_COORD97"},{"name":"N_COORD97","type":"esriFieldTypeDouble","alias":"N_COORD97"},{"name":"ADDRESS","type":"esriFieldTypeString","alias":"ADDRESS","length":50},{"name":"OBJECTID","type":"esriFieldTypeOID","alias":"OBJECTID"}],"features":[{"attributes":{"ID":3801,"DIS_CODE":0,"TOWNNAME":"中西區","LI":"郡西里","LIN":"13鄰","STREET":"大仁街","SECT":" ","MAREA":" ","LANE":" ","ALLEY":" ","HOUSE_NO":"３２號","E_COORD97":167407.722091,"N_COORD97":2543435.9524900001,"ADDRESS":"大仁街３２號","OBJECTID":3801},"geometry":{"x":167407.7220909996,"y":2543435.9524949994}},{"attributes":{"ID":3802,"DIS_CODE":0,"TOWNNAME":"新營區","LI":"新東里","LIN":"12鄰","STREET":"東興六街","SECT":" ","MAREA":" ","LANE":" ","ALLEY":" ","HOUSE_NO":"２２號","E_COORD97":180835.61797200001,"N_COORD97":2579213.7930399999,"ADDRESS":"東興六街２２號","OBJECTID":3802},"geometry":{"x":180835.61797199957,"y":2579213.7930430006}},{"attributes":{"ID":3803,"DIS_CODE":0,"TOWNNAME":"安南區","LI":"鳳凰里","LIN":"2鄰","STREET":"北安路","SECT":"三段","MAREA":" ","LANE":"１８１巷","ALLEY":"３７弄","HOUSE_NO":"１１號","E_COORD97":168207.46432699999,"N_COORD97":2549127.31018,"ADDRESS":"北安路三段１８１巷３７弄１１號","OBJECTID":3803},"geometry":{"x":168207.46432700008,"y":2549127.310177004}},{"attributes":{"ID":3804,"DIS_CODE":0,"TOWNNAME":"新營區","LI":"新東里","LIN":"12鄰","STREET":"東興六街","SECT":" ","MAREA":" ","LANE":" ","ALLEY":" ","HOUSE_NO":"２６號","E_COORD97":180841.550674,"N_COORD97":2579214.00471,"ADDRESS":"東興六街２６號","OBJECTID":3804},"geometry":{"x":180841.55067400169,"y":2579214.0047100019}},{"attributes":{"ID":3805,"DIS_CODE":0,"TOWNNAME":"新營區","LI":"新東里","LIN":"12鄰","STREET":"東興六街","SECT":" ","MAREA":" ","LANE":" ","ALLEY":" ","HOUSE_NO":"３０號","E_COORD97":180854.47549000001,"N_COORD97":2579214.6397099998,"ADDRESS":"東興六街３０號","OBJECTID":3805},"geometry":{"x":180854.4754900001,"y":2579214.6397090014}},{"attributes":{"ID":3806,"DIS_CODE":0,"TOWNNAME":"新營區","LI":"新東里","LIN":"12鄰","STREET":"東興六街","SECT":" ","MAREA":" ","LANE":" ","ALLEY":" ","HOUSE_NO":"３２號","E_COORD97":180859.56066300001,"N_COORD97":2579214.8513799999,"ADDRESS":"東興六街３２號","OBJECTID":3806},"geometry":{"x":180859.56066300068,"y":2579214.8513760027}},{"attributes":{"ID":3807,"DIS_CODE":0,"TOWNNAME":"新營區","LI":"新東里","LIN":"12鄰","STREET":"東興六街","SECT":" ","MAREA":" ","LANE":" ","ALLEY":" ","HOUSE_NO":"３８號","E_COORD97":180873.968654,"N_COORD97":2579216.54471,"ADDRESS":"東興六街３８號","OBJECTID":3807},"geometry":{"x":180873.96865400206,"y":2579216.5447080024}},{"attributes":{"ID":3808,"DIS_CODE":0,"TOWNNAME":"東區","LI":"富強里","LIN":"22鄰","STREET":"中華東路","SECT":"二段","MAREA":" ","LANE":"２２６巷","ALLEY":"２７弄","HOUSE_NO":"１１號二樓","E_COORD97":171034.37059899999,"N_COORD97":2542584.3586400002,"ADDRESS":"中華東路二段２２６巷２７弄１１號二樓","OBJECTID":3808},"geometry":{"x":171034.37059900071,"y":2542584.3586379997}},{"attributes":{"ID":3809,"DIS_CODE":0,"TOWNNAME":"東區","LI":"富強里","LIN":"22鄰","STREET":"中華東路","SECT":"二段","MAREA":" ","LANE":"２２６巷","ALLEY":"２７弄","HOUSE_NO":"１１號三樓","E_COORD97":171034.37059899999,"N_COORD97":2542584.3586400002,"ADDRESS":"中華東路二段２２６巷２７弄１１號三樓","OBJECTID":3809},"geometry":{"x":171034.37059900071,"y":2542584.3586379997}},{"attributes":{"ID":3810,"DIS_CODE":0,"TOWNNAME":"東區","LI":"富強里","LIN":"22鄰","STREET":"中華東路","SECT":"二段","MAREA":" ","LANE":"２２６巷","ALLEY":"２７弄","HOUSE_NO":"１１號五樓","E_COORD97":171034.37059899999,"N_COORD97":2542584.3586400002,"ADDRESS":"中華東路二段２２６巷２７弄１１號五樓","OBJECTID":3810},"geometry":{"x":171034.37059900071,"y":2542584.3586379997}},{"attributes":{"ID":3811,"DIS_CODE":0,"TOWNNAME":"東區","LI":"富強里","LIN":"22鄰","STREET":"中華東路","SECT":"二段","MAREA":" ","LANE":"２２６巷","ALLEY":"２７弄","HOUSE_NO":"１１號六樓","E_COORD97":171034.37059899999,"N_COORD97":2542584.3586400002,"ADDRESS":"中華東路二段２２６巷２７弄１１號六樓","OBJECTID":3811},"geometry":{"x":171034.37059900071,"y":2542584.3586379997}},{"attributes":{"ID":3812,"DIS_CODE":0,"TOWNNAME":"東區","LI":"富強里","LIN":"22鄰","STREET":"中華東路","SECT":"二段","MAREA":" ","LANE":"２２６巷","ALLEY":"２７弄","HOUSE_NO":"１１號七樓","E_COORD97":171034.37059899999,"N_COORD97":2542584.3586400002,"ADDRESS":"中華東路二段２２６巷２７弄１１號七樓","OBJECTID":3812},"geometry":{"x":171034.37059900071,"y":2542584.3586379997}},{"attributes":{"ID":3813,"DIS_CODE":0,"TOWNNAME":"東區","LI":"富強里","LIN":"22鄰","STREET":"中華東路","SECT":"二段","MAREA":" ","LANE":"２２６巷","ALLEY":"２７弄","HOUSE_NO":"１１號八樓","E_COORD97":171034.37059899999,"N_COORD97":2542584.3586400002,"ADDRESS":"中華東路二段２２６巷２７弄１１號八樓","OBJECTID":3813},"geometry":{"x":171034.37059900071,"y":2542584.3586379997}},{"attributes":{"ID":3814,"DIS_CODE":0,"TOWNNAME":"東區","LI":"富強里","LIN":"22鄰","STREET":"中華東路","SECT":"二段","MAREA":" ","LANE":"２２６巷","ALLEY":"２７弄","HOUSE_NO":"１１號九樓","E_COORD97":171034.37059899999,"N_COORD97":2542584.3586400002,"ADDRESS":"中華東路二段２２６巷２７弄１１號九樓","OBJECTID":3814},"geometry":{"x":171034.37059900071,"y":2542584.3586379997}},{"attributes":{"ID":3815,"DIS_CODE":0,"TOWNNAME":"東區","LI":"富強里","LIN":"22鄰","STREET":"中華東路","SECT":"二段","MAREA":" ","LANE":"２２６巷","ALLEY":"２７弄","HOUSE_NO":"１１號十樓","E_COORD97":171034.37059899999,"N_COORD97":2542584.3586400002,"ADDRESS":"中華東路二段２２６巷２７弄１１號十樓","OBJECTID":3815},"geometry":{"x":171034.37059900071,"y":2542584.3586379997}},{"attributes":{"ID":3816,"DIS_CODE":0,"TOWNNAME":"東區","LI":"富強里","LIN":"22鄰","STREET":"中華東路","SECT":"二段","MAREA":" ","LANE":"２２６巷","ALLEY":"２７弄","HOUSE_NO":"１１號十一樓","E_COORD97":171034.37059899999,"N_COORD97":2542584.3586400002,"ADDRESS":"中華東路二段２２６巷２７弄１１號十一樓","OBJECTID":3816},"geometry":{"x":171034.37059900071,"y":2542584.3586379997}},{"attributes":{"ID":3817,"DIS_CODE":0,"TOWNNAME":"東區","LI":"富強里","LIN":"22鄰","STREET":"中華東路","SECT":"二段","MAREA":" ","LANE":"２２６巷","ALLEY":"２７弄","HOUSE_NO":"１１號十二樓","E_COORD97":171034.37059899999,"N_COORD97":2542584.3586400002,"ADDRESS":"中華東路二段２２６巷２７弄１１號十二樓","OBJECTID":3817},"geometry":{"x":171034.37059900071,"y":2542584.3586379997}},{"attributes":{"ID":3818,"DIS_CODE":0,"TOWNNAME":"新營區","LI":"新東里","LIN":"12鄰","STREET":"東興六街","SECT":" ","MAREA":" ","LANE":" ","ALLEY":" ","HOUSE_NO":"７０號","E_COORD97":180919.523331,"N_COORD97":2579219.2963700001,"ADDRESS":"東興六街７０號","OBJECTID":3818},"geometry":{"x":180919.52333099954,"y":2579219.2963740025}},{"attributes":{"ID":3819,"DIS_CODE":0,"TOWNNAME":"安南區","LI":"鳳凰里","LIN":"2鄰","STREET":"北安路","SECT":"三段","MAREA":" ","LANE":"１４５巷","ALLEY":" ","HOUSE_NO":"３２號","E_COORD97":168198.88255400001,"N_COORD97":2549086.5709500001,"ADDRESS":"北安路三段１４５巷３２號","OBJECTID":3819},"geometry":{"x":168198.88255400211,"y":2549086.5709480029}},{"attributes":{"ID":3820,"DIS_CODE":0,"TOWNNAME":"安南區","LI":"鳳凰里","LIN":"27鄰","STREET":"北安路","SECT":"三段","MAREA":" ","LANE":"１４５巷","ALLEY":" ","HOUSE_NO":"３０號","E_COORD97":168199.51775299999,"N_COORD97":2549079.69178,"ADDRESS":"北安路三段１４５巷３０號","OBJECTID":3820},"geometry":{"x":168199.51775300223,"y":2549079.6917850003}},{"attributes":{"ID":3821,"DIS_CODE":0,"TOWNNAME":"楠西區","LI":"龜丹里","LIN":"9鄰","STREET":" ","SECT":" ","MAREA":"龜丹","LANE":" ","ALLEY":" ","HOUSE_NO":"１１１之８號","E_COORD97":198121.60084999999,"N_COORD97":2560483.1501799999,"ADDRESS":"龜丹１１１之８號","OBJECTID":3821},"geometry":{"x":198121.60085000005,"y":2560483.1501809992}},{"attributes":{"ID":3822,"DIS_CODE":0,"TOWNNAME":"安南區","LI":"鳳凰里","LIN":"2鄰","STREET":"北安路","SECT":"三段","MAREA":" ","LANE":"１４５巷","ALLEY":" ","HOUSE_NO":"２８號","E_COORD97":168209.25747300001,"N_COORD97":2549075.1409499999,"ADDRESS":"北安路三段１４５巷２８號","OBJECTID":3822},"geometry":{"x":168209.25747300033,"y":2549075.140953999}},{"attributes":{"ID":3823,"DIS_CODE":0,"TOWNNAME":"新營區","LI":"新東里","LIN":"13鄰","STREET":"東興六街","SECT":" ","MAREA":" ","LANE":" ","ALLEY":" ","HOUSE_NO":"１０９號","E_COORD97":181032.66843799999,"N_COORD97":2579241.3626100002,"ADDRESS":"東興六街１０９號","OBJECTID":3823},"geometry":{"x":181032.66843799874,"y":2579241.3626119997}},{"attributes":{"ID":3824,"DIS_CODE":0,"TOWNNAME":"下營區","LI":"新興里","LIN":"19鄰","STREET":"中山路","SECT":"一段","MAREA":" ","LANE":" ","ALLEY":" ","HOUSE_NO":"２５０號","E_COORD97":174936.76018799999,"N_COORD97":2570683.55797,"ADDRESS":"中山路一段２５０號","OBJECTID":3824},"geometry":{"x":174936.76018800214,"y":2570683.557965003}},{"attributes":{"ID":3825,"DIS_CODE":0,"TOWNNAME":"安南區","LI":"東和里","LIN":"7鄰","STREET":"環館北路","SECT":" ","MAREA":" ","LANE":"８４９巷","ALLEY":"５弄","HOUSE_NO":"２９號","E_COORD97":171203.552402,"N_COORD97":2551510.5729,"ADDRESS":"環館北路８４９巷５弄２９號","OBJECTID":3825},"geometry":{"x":171203.55240200181,"y":2551510.5729029998}},{"attributes":{"ID":3826,"DIS_CODE":0,"TOWNNAME":"新營區","LI":"新東里","LIN":"13鄰","STREET":"東興六街","SECT":" ","MAREA":" ","LANE":" ","ALLEY":" ","HOUSE_NO":"１１５號","E_COORD97":181046.864546,"N_COORD97":2579241.2303200001,"ADDRESS":"東興六街１１５號","OBJECTID":3826},"geometry":{"x":181046.86454600003,"y":2579241.2303200029}},{"attributes":{"ID":3827,"DIS_CODE":0,"TOWNNAME":"新營區","LI":"新東里","LIN":"13鄰","STREET":"東興六街","SECT":" ","MAREA":" ","LANE":" ","ALLEY":" ","HOUSE_NO":"１２１號","E_COORD97":181059.842332,"N_COORD97":2579241.9711500001,"ADDRESS":"東興六街１２１號","OBJECTID":3827},"geometry":{"x":181059.84233199991,"y":2579241.9711530022}},{"attributes":{"ID":3828,"DIS_CODE":0,"TOWNNAME":"安南區","LI":"鳳凰里","LIN":"2鄰","STREET":"北安路","SECT":"三段","MAREA":" ","LANE":"１４５巷","ALLEY":"２６弄","HOUSE_NO":"７號","E_COORD97":168223.86705299999,"N_COORD97":2549101.70511,"ADDRESS":"北安路三段１４５巷２６弄７號","OBJECTID":3828},"geometry":{"x":168223.86705300026,"y":2549101.7051059995}},{"attributes":{"ID":3829,"DIS_CODE":0,"TOWNNAME":"新營區","LI":"新東里","LIN":"13鄰","STREET":"東興六街","SECT":" ","MAREA":" ","LANE":" ","ALLEY":" ","HOUSE_NO":"１２６號","E_COORD97":181061.48441999999,"N_COORD97":2579229.9061599998,"ADDRESS":"東興六街１２６號","OBJECTID":3829},"geometry":{"x":181061.48441999964,"y":2579229.9061590005}},{"attributes":{"ID":3830,"DIS_CODE":0,"TOWNNAME":"下營區","LI":"新興里","LIN":"17鄰","STREET":"中華街","SECT":" ","MAREA":" ","LANE":"２０２巷","ALLEY":" ","HOUSE_NO":"１３５號","E_COORD97":175987.177635,"N_COORD97":2570790.8647699999,"ADDRESS":"中華街２０２巷１３５號","OBJECTID":3830},"geometry":{"x":175987.17763500009,"y":2570790.8647659998}},{"attributes":{"ID":3831,"DIS_CODE":0,"TOWNNAME":"楠西區","LI":"灣丘里","LIN":"13鄰","STREET":" ","SECT":" ","MAREA":"鳳興","LANE":" ","ALLEY":" ","HOUSE_NO":"２之２號","E_COORD97":198543.65038899999,"N_COORD97":2562781.2139400002,"ADDRESS":"鳳興２之２號","OBJECTID":3831},"geometry":{"x":198543.65038899984,"y":2562781.2139399983}},{"attributes":{"ID":3832,"DIS_CODE":0,"TOWNNAME":"安南區","LI":"鳳凰里","LIN":"2鄰","STREET":"北安路","SECT":"三段","MAREA":" ","LANE":"１８１巷","ALLEY":"１５弄","HOUSE_NO":"４０號","E_COORD97":168233.60677300001,"N_COORD97":2549111.28302,"ADDRESS":"北安路三段１８１巷１５弄４０號","OBJECTID":3832},"geometry":{"x":168233.60677300114,"y":2549111.2830180004}},{"attributes":{"ID":3833,"DIS_CODE":0,"TOWNNAME":"安南區","LI":"東和里","LIN":"7鄰","STREET":"環館北路","SECT":" ","MAREA":" ","LANE":"８４９巷","ALLEY":"５弄","HOUSE_NO":"１７號","E_COORD97":171173.899642,"N_COORD97":2551494.0629099999,"ADDRESS":"環館北路８４９巷５弄１７號","OBJECTID":3833},"geometry":{"x":171173.89964199997,"y":2551494.0629120022}},{"attributes":{"ID":3834,"DIS_CODE":0,"TOWNNAME":"安南區","LI":"城西里","LIN":"3鄰","STREET":"城西街","SECT":"三段","MAREA":" ","LANE":"５１０巷","ALLEY":"２５５弄","HOUSE_NO":"５２號","E_COORD97":157190.97860500001,"N_COORD97":2551304.67784,"ADDRESS":"城西街三段５１０巷２５５弄５２號","OBJECTID":3834},"geometry":{"x":157190.97860500123,"y":2551304.6778410003}},{"attributes":{"ID":3835,"DIS_CODE":0,"TOWNNAME":"下營區","LI":"後街里","LIN":"19鄰","STREET":"大和街","SECT":" ","MAREA":" ","LANE":" ","ALLEY":" ","HOUSE_NO":"６０號","E_COORD97":174602.42408999999,"N_COORD97":2571255.7838099999,"ADDRESS":"大和街６０號","OBJECTID":3835},"geometry":{"x":174602.4240900008,"y":2571255.7838129997}},{"attributes":{"ID":3836,"DIS_CODE":0,"TOWNNAME":"歸仁區","LI":"西埔里","LIN":"7鄰","STREET":"西埔一街","SECT":" ","MAREA":" ","LANE":"６５巷","ALLEY":"４０弄","HOUSE_NO":"９１號","E_COORD97":176882.29647,"N_COORD97":2544452.87408,"ADDRESS":"西埔一街６５巷４０弄９１號","OBJECTID":3836},"geometry":{"x":176882.29647000041,"y":2544452.8740800042}},{"attributes":{"ID":3837,"DIS_CODE":0,"TOWNNAME":"新市區","LI":"潭頂里","LIN":"7鄰","STREET":" ","SECT":" ","MAREA":"潭頂","LANE":" ","ALLEY":" ","HOUSE_NO":"２９８號","E_COORD97":180737.22676399999,"N_COORD97":2552822.4343900001,"ADDRESS":"潭頂２９８號","OBJECTID":3837},"geometry":{"x":180737.22676400002,"y":2552822.434386}},{"attributes":{"ID":3838,"DIS_CODE":0,"TOWNNAME":"龍崎區","LI":"楠坑里","LIN":"4鄰","STREET":" ","SECT":" ","MAREA":"樹子林","LANE":" ","ALLEY":" ","HOUSE_NO":"１４之１號","E_COORD97":184853.76143899999,"N_COORD97":2536839.21747,"ADDRESS":"樹子林１４之１號","OBJECTID":3838},"geometry":{"x":184853.76143900119,"y":2536839.2174689993}},{"attributes":{"ID":3839,"DIS_CODE":0,"TOWNNAME":"安南區","LI":"東和里","LIN":"7鄰","STREET":"長和路","SECT":"一段","MAREA":" ","LANE":" ","ALLEY":" ","HOUSE_NO":"４０６號","E_COORD97":170956.163657,"N_COORD97":2551432.8912800001,"ADDRESS":"長和路一段４０６號","OBJECTID":3839},"geometry":{"x":170956.16365700029,"y":2551432.8912790027}},{"attributes":{"ID":3840,"DIS_CODE":0,"TOWNNAME":"安南區","LI":"城西里","LIN":"5鄰","STREET":"城西街","SECT":"三段","MAREA":" ","LANE":" ","ALLEY":" ","HOUSE_NO":"７４１之１號","E_COORD97":156616.45915400001,"N_COORD97":2550735.1889800001,"ADDRESS":"城西街三段７４１之１號","OBJECTID":3840},"geometry":{"x":156616.45915400144,"y":2550735.1889820024}},{"attributes":{"ID":3841,"DIS_CODE":0,"TOWNNAME":"安南區","LI":"東和里","LIN":"7鄰","STREET":"環館北路","SECT":" ","MAREA":" ","LANE":" ","ALLEY":" ","HOUSE_NO":"８９３號","E_COORD97":170962.72962500001,"N_COORD97":2551442.62794,"ADDRESS":"環館北路８９３號","OBJECTID":3841},"geometry":{"x":170962.72962499969,"y":2551442.6279399972}},{"attributes":{"ID":3842,"DIS_CODE":0,"TOWNNAME":"歸仁區","LI":"七甲里","LIN":"12鄰","STREET":"丁厝街","SECT":" ","MAREA":" ","LANE":" ","ALLEY":" ","HOUSE_NO":"１３６號","E_COORD97":175679.56692099999,"N_COORD97":2541955.2657300001,"ADDRESS":"丁厝街１３６號","OBJECTID":3842},"geometry":{"x":175679.56692100037,"y":2541955.2657270022}},{"attributes":{"ID":3843,"DIS_CODE":0,"TOWNNAME":"新市區","LI":"潭頂里","LIN":"3鄰","STREET":" ","SECT":" ","MAREA":"潭頂","LANE":" ","ALLEY":" ","HOUSE_NO":"１６５之１號","E_COORD97":180918.04000000001,"N_COORD97":2552901,"ADDRESS":"潭頂１６５之１號","OBJECTID":3843},"geometry":{"x":180918.04000000004,"y":2552901.0000000019}},{"attributes":{"ID":3844,"DIS_CODE":0,"TOWNNAME":"歸仁區","LI":"後市里","LIN":"44鄰","STREET":"民權三街","SECT":" ","MAREA":" ","LANE":" ","ALLEY":" ","HOUSE_NO":"３２之１號","E_COORD97":177070.75466599999,"N_COORD97":2541085.14494,"ADDRESS":"民權三街３２之１號","OBJECTID":3844},"geometry":{"x":177070.7546660006,"y":2541085.1449360028}},{"attributes":{"ID":3845,"DIS_CODE":0,"TOWNNAME":"龍崎區","LI":"楠坑里","LIN":"4鄰","STREET":" ","SECT":" ","MAREA":"樹子林","LANE":" ","ALLEY":" ","HOUSE_NO":"２０之１號","E_COORD97":185064.35765399999,"N_COORD97":2536381.6969099999,"ADDRESS":"樹子林２０之１號","OBJECTID":3845},"geometry":{"x":185064.35765400063,"y":2536381.6969089992}},{"attributes":{"ID":3846,"DIS_CODE":0,"TOWNNAME":"新市區","LI":"潭頂里","LIN":"3鄰","STREET":" ","SECT":" ","MAREA":"潭頂","LANE":" ","ALLEY":" ","HOUSE_NO":"１６５號","E_COORD97":180934.612735,"N_COORD97":2552905.8310099998,"ADDRESS":"潭頂１６５號","OBJECTID":3846},"geometry":{"x":180934.61273500044,"y":2552905.8310080003}},{"attributes":{"ID":3847,"DIS_CODE":0,"TOWNNAME":"新營區","LI":"新東里","LIN":"14鄰","STREET":"東興六街","SECT":" ","MAREA":" ","LANE":"８９巷","ALLEY":"１４弄","HOUSE_NO":"１３號","E_COORD97":180998.05550799999,"N_COORD97":2579286.4624800002,"ADDRESS":"東興六街８９巷１４弄１３號","OBJECTID":3847},"geometry":{"x":180998.05550799891,"y":2579286.462478999}},{"attributes":{"ID":3848,"DIS_CODE":0,"TOWNNAME":"東區","LI":"富強里","LIN":"22鄰","STREET":"中華東路","SECT":"二段","MAREA":" ","LANE":"２２６巷","ALLEY":"２７弄","HOUSE_NO":"７號","E_COORD97":171019.53706999999,"N_COORD97":2542605.7369599999,"ADDRESS":"中華東路二段２２６巷２７弄７號","OBJECTID":3848},"geometry":{"x":171019.53706999961,"y":2542605.7369600032}},{"attributes":{"ID":3849,"DIS_CODE":0,"TOWNNAME":"東區","LI":"富強里","LIN":"22鄰","STREET":"中華東路","SECT":"二段","MAREA":" ","LANE":"２２６巷","ALLEY":"２７弄","HOUSE_NO":"１９號十三樓","E_COORD97":170992.143407,"N_COORD97":2542588.6733800001,"ADDRESS":"中華東路二段２２６巷２７弄１９號十三樓","OBJECTID":3849},"geometry":{"x":170992.14340700023,"y":2542588.6733790021}},{"attributes":{"ID":3850,"DIS_CODE":0,"TOWNNAME":"東區","LI":"富強里","LIN":"22鄰","STREET":"中華東路","SECT":"二段","MAREA":" ","LANE":"２２６巷","ALLEY":"２７弄","HOUSE_NO":"１９號十四樓","E_COORD97":170992.143407,"N_COORD97":2542588.6733800001,"ADDRESS":"中華東路二段２２６巷２７弄１９號十四樓","OBJECTID":3850},"geometry":{"x":170992.14340700023,"y":2542588.6733790021}},{"attributes":{"ID":3851,"DIS_CODE":0,"TOWNNAME":"東區","LI":"富強里","LIN":"22鄰","STREET":"中華東路","SECT":"二段","MAREA":" ","LANE":"２２６巷","ALLEY":"２７弄","HOUSE_NO":"１９號十五樓","E_COORD97":170992.143407,"N_COORD97":2542588.6733800001,"ADDRESS":"中華東路二段２２６巷２７弄１９號十五樓","OBJECTID":3851},"geometry":{"x":170992.14340700023,"y":2542588.6733790021}},{"attributes":{"ID":3852,"DIS_CODE":0,"TOWNNAME":"東區","LI":"富強里","LIN":"22鄰","STREET":"中華東路","SECT":"二段","MAREA":" ","LANE":"２２６巷","ALLEY":"２７弄","HOUSE_NO":"１９號十六樓","E_COORD97":170992.143407,"N_COORD97":2542588.6733800001,"ADDRESS":"中華東路二段２２６巷２７弄１９號十六樓","OBJECTID":3852},"geometry":{"x":170992.14340700023,"y":2542588.6733790021}},{"attributes":{"ID":3853,"DIS_CODE":0,"TOWNNAME":"東區","LI":"富強里","LIN":"22鄰","STREET":"中華東路","SECT":"二段","MAREA":" ","LANE":"２２６巷","ALLEY":"２７弄","HOUSE_NO":"１９號二樓","E_COORD97":170992.143407,"N_COORD97":2542588.6733800001,"ADDRESS":"中華東路二段２２６巷２７弄１９號二樓","OBJECTID":3853},"geometry":{"x":170992.14340700023,"y":2542588.6733790021}},{"attributes":{"ID":3854,"DIS_CODE":0,"TOWNNAME":"東區","LI":"富強里","LIN":"22鄰","STREET":"中華東路","SECT":"二段","MAREA":" ","LANE":"２２６巷","ALLEY":"２７弄","HOUSE_NO":"１９號三樓","E_COORD97":170992.143407,"N_COORD97":2542588.6733800001,"ADDRESS":"中華東路二段２２６巷２７弄１９號三樓","OBJECTID":3854},"geometry":{"x":170992.14340700023,"y":2542588.6733790021}},{"attributes":{"ID":3855,"DIS_CODE":0,"TOWNNAME":"東區","LI":"富強里","LIN":"22鄰","STREET":"中華東路","SECT":"二段","MAREA":" ","LANE":"２２６巷","ALLEY":"２７弄","HOUSE_NO":"１９號四樓","E_COORD97":170992.143407,"N_COORD97":2542588.6733800001,"ADDRESS":"中華東路二段２２６巷２７弄１９號四樓","OBJECTID":3855},"geometry":{"x":170992.14340700023,"y":2542588.6733790021}},{"attributes":{"ID":3856,"DIS_CODE":0,"TOWNNAME":"東區","LI":"富強里","LIN":"22鄰","STREET":"中華東路","SECT":"二段","MAREA":" ","LANE":"２２６巷","ALLEY":"２７弄","HOUSE_NO":"１９號五樓","E_COORD97":170992.143407,"N_COORD97":2542588.6733800001,"ADDRESS":"中華東路二段２２６巷２７弄１９號五樓","OBJECTID":3856},"geometry":{"x":170992.14340700023,"y":2542588.6733790021}},{"attributes":{"ID":3857,"DIS_CODE":0,"TOWNNAME":"東區","LI":"富強里","LIN":"22鄰","STREET":"中華東路","SECT":"二段","MAREA":" ","LANE":"２２６巷","ALLEY":"２７弄","HOUSE_NO":"１９號六樓","E_COORD97":170992.143407,"N_COORD97":2542588.6733800001,"ADDRESS":"中華東路二段２２６巷２７弄１９號六樓","OBJECTID":3857},"geometry":{"x":170992.14340700023,"y":2542588.6733790021}},{"attributes":{"ID":3858,"DIS_CODE":0,"TOWNNAME":"東區","LI":"富強里","LIN":"22鄰","STREET":"中華東路","SECT":"二段","MAREA":" ","LANE":"２２６巷","ALLEY":"２７弄","HOUSE_NO":"１９號七樓","E_COORD97":170992.143407,"N_COORD97":2542588.6733800001,"ADDRESS":"中華東路二段２２６巷２７弄１９號七樓","OBJECTID":3858},"geometry":{"x":170992.14340700023,"y":2542588.6733790021}},{"attributes":{"ID":3859,"DIS_CODE":0,"TOWNNAME":"東區","LI":"富強里","LIN":"22鄰","STREET":"中華東路","SECT":"二段","MAREA":" ","LANE":"２２６巷","ALLEY":"２７弄","HOUSE_NO":"１９號八樓","E_COORD97":170992.143407,"N_COORD97":2542588.6733800001,"ADDRESS":"中華東路二段２２６巷２７弄１９號八樓","OBJECTID":3859},"geometry":{"x":170992.14340700023,"y":2542588.6733790021}},{"attributes":{"ID":3860,"DIS_CODE":0,"TOWNNAME":"東區","LI":"富強里","LIN":"22鄰","STREET":"中華東路","SECT":"二段","MAREA":" ","LANE":"２２６巷","ALLEY":"２７弄","HOUSE_NO":"１９號九樓","E_COORD97":170992.143407,"N_COORD97":2542588.6733800001,"ADDRESS":"中華東路二段２２６巷２７弄１９號九樓","OBJECTID":3860},"geometry":{"x":170992.14340700023,"y":2542588.6733790021}},{"attributes":{"ID":3861,"DIS_CODE":0,"TOWNNAME":"東區","LI":"富強里","LIN":"22鄰","STREET":"中華東路","SECT":"二段","MAREA":" ","LANE":"２２６巷","ALLEY":"２７弄","HOUSE_NO":"１９號十樓","E_COORD97":170992.143407,"N_COORD97":2542588.6733800001,"ADDRESS":"中華東路二段２２６巷２７弄１９號十樓","OBJECTID":3861},"geometry":{"x":170992.14340700023,"y":2542588.6733790021}},{"attributes":{"ID":3862,"DIS_CODE":0,"TOWNNAME":"東區","LI":"富強里","LIN":"22鄰","STREET":"中華東路","SECT":"二段","MAREA":" ","LANE":"２２６巷","ALLEY":"２７弄","HOUSE_NO":"１９號十一樓","E_COORD97":170992.143407,"N_COORD97":2542588.6733800001,"ADDRESS":"中華東路二段２２６巷２７弄１９號十一樓","OBJECTID":3862},"geometry":{"x":170992.14340700023,"y":2542588.6733790021}},{"attributes":{"ID":3863,"DIS_CODE":0,"TOWNNAME":"東區","LI":"富強里","LIN":"22鄰","STREET":"中華東路","SECT":"二段","MAREA":" ","LANE":"２２６巷","ALLEY":"２７弄","HOUSE_NO":"１９號十二樓","E_COORD97":170992.143407,"N_COORD97":2542588.6733800001,"ADDRESS":"中華東路二段２２６巷２７弄１９號十二樓","OBJECTID":3863},"geometry":{"x":170992.14340700023,"y":2542588.6733790021}},{"attributes":{"ID":3864,"DIS_CODE":0,"TOWNNAME":"新營區","LI":"新東里","LIN":"14鄰","STREET":"東興六街","SECT":" ","MAREA":" ","LANE":"８９巷","ALLEY":"１４弄","HOUSE_NO":"２７號","E_COORD97":181028.248724,"N_COORD97":2579288.0499800001,"ADDRESS":"東興六街８９巷１４弄２７號","OBJECTID":3864},"geometry":{"x":181028.24872400053,"y":2579288.049978001}},{"attributes":{"ID":3865,"DIS_CODE":0,"TOWNNAME":"安南區","LI":"鳳凰里","LIN":"2鄰","STREET":"北安路","SECT":"三段","MAREA":" ","LANE":"１８１巷","ALLEY":" ","HOUSE_NO":"１６號","E_COORD97":168257.74434,"N_COORD97":2549159.4371600002,"ADDRESS":"北安路三段１８１巷１６號","OBJECTID":3865},"geometry":{"x":168257.74434000161,"y":2549159.4371579997}},{"attributes":{"ID":3866,"DIS_CODE":0,"TOWNNAME":"歸仁區","LI":"七甲里","LIN":"12鄰","STREET":"丁厝街","SECT":" ","MAREA":" ","LANE":" ","ALLEY":" ","HOUSE_NO":"１２５號","E_COORD97":175741.03387000001,"N_COORD97":2541911.2482699999,"ADDRESS":"丁厝街１２５號","OBJECTID":3866},"geometry":{"x":175741.03387000225,"y":2541911.2482740022}},{"attributes":{"ID":3867,"DIS_CODE":0,"TOWNNAME":"新市區","LI":"潭頂里","LIN":"7鄰","STREET":" ","SECT":" ","MAREA":"潭頂","LANE":" ","ALLEY":" ","HOUSE_NO":"２９９號","E_COORD97":180726.28,"N_COORD97":2552824.25,"ADDRESS":"潭頂２９９號","OBJECTID":3867},"geometry":{"x":180726.28000000119,"y":2552824.2500000019}},{"attributes":{"ID":3868,"DIS_CODE":0,"TOWNNAME":"歸仁區","LI":"七甲里","LIN":"12鄰","STREET":"丁厝街","SECT":" ","MAREA":" ","LANE":" ","ALLEY":" ","HOUSE_NO":"２００號","E_COORD97":175382.720187,"N_COORD97":2541952.8752899999,"ADDRESS":"丁厝街２００號","OBJECTID":3868},"geometry":{"x":175382.72018700093,"y":2541952.8752890024}},{"attributes":{"ID":3869,"DIS_CODE":0,"TOWNNAME":"新營區","LI":"新東里","LIN":"14鄰","STREET":"東興六街","SECT":" ","MAREA":" ","LANE":"８９巷","ALLEY":"１４弄","HOUSE_NO":"１９號","E_COORD97":181011.510029,"N_COORD97":2579287.6531000002,"ADDRESS":"東興六街８９巷１４弄１９號","OBJECTID":3869},"geometry":{"x":181011.51002900116,"y":2579287.6531029996}},{"attributes":{"ID":3870,"DIS_CODE":0,"TOWNNAME":"東區","LI":"富強里","LIN":"22鄰","STREET":"中華東路","SECT":"二段","MAREA":" ","LANE":"２２６巷","ALLEY":"２７弄","HOUSE_NO":"９號十三樓","E_COORD97":171018.02507,"N_COORD97":2542585.9862099998,"ADDRESS":"中華東路二段２２６巷２７弄９號十三樓","OBJECTID":3870},"geometry":{"x":171018.02507000137,"y":2542585.9862129986}},{"attributes":{"ID":3871,"DIS_CODE":0,"TOWNNAME":"東區","LI":"富強里","LIN":"22鄰","STREET":"中華東路","SECT":"二段","MAREA":" ","LANE":"２２６巷","ALLEY":"２７弄","HOUSE_NO":"９號十四樓","E_COORD97":171018.02507,"N_COORD97":2542585.9862099998,"ADDRESS":"中華東路二段２２６巷２７弄９號十四樓","OBJECTID":3871},"geometry":{"x":171018.02507000137,"y":2542585.9862129986}},{"attributes":{"ID":3872,"DIS_CODE":0,"TOWNNAME":"東區","LI":"富強里","LIN":"22鄰","STREET":"中華東路","SECT":"二段","MAREA":" ","LANE":"２２６巷","ALLEY":"２７弄","HOUSE_NO":"９號十五樓","E_COORD97":171018.02507,"N_COORD97":2542585.9862099998,"ADDRESS":"中華東路二段２２６巷２７弄９號十五樓","OBJECTID":3872},"geometry":{"x":171018.02507000137,"y":2542585.9862129986}},{"attributes":{"ID":3873,"DIS_CODE":0,"TOWNNAME":"新營區","LI":"新東里","LIN":"14鄰","STREET":"東興六街","SECT":" ","MAREA":" ","LANE":"８９巷","ALLEY":"１４弄","HOUSE_NO":"２９號","E_COORD97":181033.81063299999,"N_COORD97":2579288.3410200002,"ADDRESS":"東興六街８９巷１４弄２９號","OBJECTID":3873},"geometry":{"x":181033.81063300185,"y":2579288.3410200011}},{"attributes":{"ID":3874,"DIS_CODE":0,"TOWNNAME":"東區","LI":"富強里","LIN":"22鄰","STREET":"中華東路","SECT":"二段","MAREA":" ","LANE":"２２６巷","ALLEY":"２７弄","HOUSE_NO":"９號十六樓","E_COORD97":171018.02507,"N_COORD97":2542585.9862099998,"ADDRESS":"中華東路二段２２６巷２７弄９號十六樓","OBJECTID":3874},"geometry":{"x":171018.02507000137,"y":2542585.9862129986}},{"attributes":{"ID":3875,"DIS_CODE":0,"TOWNNAME":"東區","LI":"富強里","LIN":"22鄰","STREET":"中華東路","SECT":"二段","MAREA":" ","LANE":"２２６巷","ALLEY":"２７弄","HOUSE_NO":"９號十七樓","E_COORD97":171018.02507,"N_COORD97":2542585.9862099998,"ADDRESS":"中華東路二段２２６巷２７弄９號十七樓","OBJECTID":3875},"geometry":{"x":171018.02507000137,"y":2542585.9862129986}},{"attributes":{"ID":3876,"DIS_CODE":0,"TOWNNAME":"東區","LI":"富強里","LIN":"22鄰","STREET":"中華東路","SECT":"二段","MAREA":" ","LANE":"２２６巷","ALLEY":"２７弄","HOUSE_NO":"９號十八樓","E_COORD97":171018.02507,"N_COORD97":2542585.9862099998,"ADDRESS":"中華東路二段２２６巷２７弄９號十八樓","OBJECTID":3876},"geometry":{"x":171018.02507000137,"y":2542585.9862129986}},{"attributes":{"ID":3877,"DIS_CODE":0,"TOWNNAME":"東區","LI":"富強里","LIN":"22鄰","STREET":"中華東路","SECT":"二段","MAREA":" ","LANE":"２２６巷","ALLEY":"２７弄","HOUSE_NO":"９號二樓","E_COORD97":171018.02507,"N_COORD97":2542585.9862099998,"ADDRESS":"中華東路二段２２６巷２７弄９號二樓","OBJECTID":3877},"geometry":{"x":171018.02507000137,"y":2542585.9862129986}},{"attributes":{"ID":3878,"DIS_CODE":0,"TOWNNAME":"東區","LI":"富強里","LIN":"22鄰","STREET":"中華東路","SECT":"二段","MAREA":" ","LANE":"２２６巷","ALLEY":"２７弄","HOUSE_NO":"９號三樓","E_COORD97":171018.02507,"N_COORD97":2542585.9862099998,"ADDRESS":"中華東路二段２２６巷２７弄９號三樓","OBJECTID":3878},"geometry":{"x":171018.02507000137,"y":2542585.9862129986}},{"attributes":{"ID":3879,"DIS_CODE":0,"TOWNNAME":"東區","LI":"富強里","LIN":"22鄰","STREET":"中華東路","SECT":"二段","MAREA":" ","LANE":"２２６巷","ALLEY":"２７弄","HOUSE_NO":"９號四樓","E_COORD97":171018.02507,"N_COORD97":2542585.9862099998,"ADDRESS":"中華東路二段２２６巷２７弄９號四樓","OBJECTID":3879},"geometry":{"x":171018.02507000137,"y":2542585.9862129986}},{"attributes":{"ID":3880,"DIS_CODE":0,"TOWNNAME":"東區","LI":"富強里","LIN":"22鄰","STREET":"中華東路","SECT":"二段","MAREA":" ","LANE":"２２６巷","ALLEY":"２７弄","HOUSE_NO":"９號五樓","E_COORD97":171018.02507,"N_COORD97":2542585.9862099998,"ADDRESS":"中華東路二段２２６巷２７弄９號五樓","OBJECTID":3880},"geometry":{"x":171018.02507000137,"y":2542585.9862129986}},{"attributes":{"ID":3881,"DIS_CODE":0,"TOWNNAME":"東區","LI":"富強里","LIN":"22鄰","STREET":"中華東路","SECT":"二段","MAREA":" ","LANE":"２２６巷","ALLEY":"２７弄","HOUSE_NO":"９號六樓","E_COORD97":171018.02507,"N_COORD97":2542585.9862099998,"ADDRESS":"中華東路二段２２６巷２７弄９號六樓","OBJECTID":3881},"geometry":{"x":171018.02507000137,"y":2542585.9862129986}},{"attributes":{"ID":3882,"DIS_CODE":0,"TOWNNAME":"東區","LI":"富強里","LIN":"22鄰","STREET":"中華東路","SECT":"二段","MAREA":" ","LANE":"２２６巷","ALLEY":"２７弄","HOUSE_NO":"９號七樓","E_COORD97":171018.02507,"N_COORD97":2542585.9862099998,"ADDRESS":"中華東路二段２２６巷２７弄９號七樓","OBJECTID":3882},"geometry":{"x":171018.02507000137,"y":2542585.9862129986}},{"attributes":{"ID":3883,"DIS_CODE":0,"TOWNNAME":"東區","LI":"富強里","LIN":"22鄰","STREET":"中華東路","SECT":"二段","MAREA":" ","LANE":"２２６巷","ALLEY":"２７弄","HOUSE_NO":"９號八樓","E_COORD97":171018.02507,"N_COORD97":2542585.9862099998,"ADDRESS":"中華東路二段２２６巷２７弄９號八樓","OBJECTID":3883},"geometry":{"x":171018.02507000137,"y":2542585.9862129986}},{"attributes":{"ID":3884,"DIS_CODE":0,"TOWNNAME":"東區","LI":"富強里","LIN":"22鄰","STREET":"中華東路","SECT":"二段","MAREA":" ","LANE":"２２６巷","ALLEY":"２７弄","HOUSE_NO":"９號九樓","E_COORD97":171018.02507,"N_COORD97":2542585.9862099998,"ADDRESS":"中華東路二段２２６巷２７弄９號九樓","OBJECTID":3884},"geometry":{"x":171018.02507000137,"y":2542585.9862129986}},{"attributes":{"ID":3885,"DIS_CODE":0,"TOWNNAME":"東區","LI":"富強里","LIN":"22鄰","STREET":"中華東路","SECT":"二段","MAREA":" ","LANE":"２２６巷","ALLEY":"２７弄","HOUSE_NO":"９號十樓","E_COORD97":171018.02507,"N_COORD97":2542585.9862099998,"ADDRESS":"中華東路二段２２６巷２７弄９號十樓","OBJECTID":3885},"geometry":{"x":171018.02507000137,"y":2542585.9862129986}},{"attributes":{"ID":3886,"DIS_CODE":0,"TOWNNAME":"歸仁區","LI":"七甲里","LIN":"12鄰","STREET":"丁厝街","SECT":" ","MAREA":" ","LANE":" ","ALLEY":" ","HOUSE_NO":"１６６號","E_COORD97":175445.033348,"N_COORD97":2541954.35696,"ADDRESS":"丁厝街１６６號","OBJECTID":3886},"geometry":{"x":175445.03334800154,"y":2541954.3569549993}},{"attributes":{"ID":3887,"DIS_CODE":0,"TOWNNAME":"新營區","LI":"新東里","LIN":"14鄰","STREET":"東興六街","SECT":" ","MAREA":" ","LANE":"８９巷","ALLEY":"１４弄","HOUSE_NO":"２１號","E_COORD97":181015.48282100001,"N_COORD97":2579287.7060199999,"ADDRESS":"東興六街８９巷１４弄２１號","OBJECTID":3887},"geometry":{"x":181015.48282100074,"y":2579287.7060200013}},{"attributes":{"ID":3888,"DIS_CODE":0,"TOWNNAME":"東區","LI":"富強里","LIN":"22鄰","STREET":"中華東路","SECT":"二段","MAREA":" ","LANE":"２２６巷","ALLEY":"２７弄","HOUSE_NO":"９號十一樓","E_COORD97":171018.02507,"N_COORD97":2542585.9862099998,"ADDRESS":"中華東路二段２２６巷２７弄９號十一樓","OBJECTID":3888},"geometry":{"x":171018.02507000137,"y":2542585.9862129986}},{"attributes":{"ID":3889,"DIS_CODE":0,"TOWNNAME":"東區","LI":"富強里","LIN":"22鄰","STREET":"中華東路","SECT":"二段","MAREA":" ","LANE":"２２６巷","ALLEY":"２７弄","HOUSE_NO":"９號十二樓","E_COORD97":171018.02507,"N_COORD97":2542585.9862099998,"ADDRESS":"中華東路二段２２６巷２７弄９號十二樓","OBJECTID":3889},"geometry":{"x":171018.02507000137,"y":2542585.9862129986}},{"attributes":{"ID":3890,"DIS_CODE":0,"TOWNNAME":"歸仁區","LI":"西埔里","LIN":"12鄰","STREET":"丁厝街","SECT":" ","MAREA":" ","LANE":" ","ALLEY":" ","HOUSE_NO":"１６１號","E_COORD97":175435.07172000001,"N_COORD97":2541879.8503299998,"ADDRESS":"丁厝街１６１號","OBJECTID":3890},"geometry":{"x":175435.07172000129,"y":2541879.8503290005}},{"attributes":{"ID":3891,"DIS_CODE":0,"TOWNNAME":"楠西區","LI":"照興里","LIN":"7鄰","STREET":" ","SECT":" ","MAREA":"興北","LANE":" ","ALLEY":" ","HOUSE_NO":"９１之１５號","E_COORD97":196468.78536099999,"N_COORD97":2566091.9963199999,"ADDRESS":"興北９１之１５號","OBJECTID":3891},"geometry":{"x":196468.78536100127,"y":2566091.9963189997}},{"attributes":{"ID":3892,"DIS_CODE":0,"TOWNNAME":"新營區","LI":"新東里","LIN":"14鄰","STREET":"東興六街","SECT":" ","MAREA":" ","LANE":"８９巷","ALLEY":"２０弄","HOUSE_NO":"１６號","E_COORD97":181006.21297299999,"N_COORD97":2579310.1955900001,"ADDRESS":"東興六街８９巷２０弄１６號","OBJECTID":3892},"geometry":{"x":181006.21297300048,"y":2579310.195590999}},{"attributes":{"ID":3893,"DIS_CODE":0,"TOWNNAME":"安南區","LI":"鳳凰里","LIN":"2鄰","STREET":"怡安路","SECT":"二段","MAREA":" ","LANE":"５９巷","ALLEY":" ","HOUSE_NO":"１７號","E_COORD97":168280.50564300001,"N_COORD97":2549195.31464,"ADDRESS":"怡安路二段５９巷１７號","OBJECTID":3893},"geometry":{"x":168280.50564300083,"y":2549195.3146390002}},{"attributes":{"ID":3894,"DIS_CODE":0,"TOWNNAME":"安南區","LI":"鳳凰里","LIN":"2鄰","STREET":"怡安路","SECT":"二段","MAREA":" ","LANE":"５９巷","ALLEY":" ","HOUSE_NO":"１９號","E_COORD97":168279.870444,"N_COORD97":2549190.2346399999,"ADDRESS":"怡安路二段５９巷１９號","OBJECTID":3894},"geometry":{"x":168279.8704440007,"y":2549190.2346420009}},{"attributes":{"ID":3895,"DIS_CODE":0,"TOWNNAME":"新營區","LI":"新東里","LIN":"14鄰","STREET":"東興六街","SECT":" ","MAREA":" ","LANE":"８９巷","ALLEY":"２０弄","HOUSE_NO":"１８號","E_COORD97":181012.88726300001,"N_COORD97":2579310.1955900001,"ADDRESS":"東興六街８９巷２０弄１８號","OBJECTID":3895},"geometry":{"x":181012.88726300001,"y":2579310.195590999}},{"attributes":{"ID":3896,"DIS_CODE":0,"TOWNNAME":"安南區","LI":"鳳凰里","LIN":"2鄰","STREET":"怡安路","SECT":"二段","MAREA":" ","LANE":"５９巷","ALLEY":" ","HOUSE_NO":"２１號","E_COORD97":168278.494179,"N_COORD97":2549186.2129799998,"ADDRESS":"怡安路二段５９巷２１號","OBJECTID":3896},"geometry":{"x":168278.49417900015,"y":2549186.2129770014}},{"attributes":{"ID":3897,"DIS_CODE":0,"TOWNNAME":"東區","LI":"富強里","LIN":"22鄰","STREET":"中華東路","SECT":"二段","MAREA":" ","LANE":"２２６巷","ALLEY":"２７弄","HOUSE_NO":"１３號十二樓","E_COORD97":170991.57557300001,"N_COORD97":2542603.4281600001,"ADDRESS":"中華東路二段２２６巷２７弄１３號十二樓","OBJECTID":3897},"geometry":{"x":170991.57557299919,"y":2542603.4281610008}},{"attributes":{"ID":3898,"DIS_CODE":0,"TOWNNAME":"東區","LI":"富強里","LIN":"22鄰","STREET":"中華東路","SECT":"二段","MAREA":" ","LANE":"２２６巷","ALLEY":"２７弄","HOUSE_NO":"１３號十三樓","E_COORD97":170991.57557300001,"N_COORD97":2542603.4281600001,"ADDRESS":"中華東路二段２２６巷２７弄１３號十三樓","OBJECTID":3898},"geometry":{"x":170991.57557299919,"y":2542603.4281610008}},{"attributes":{"ID":3899,"DIS_CODE":0,"TOWNNAME":"東區","LI":"富強里","LIN":"22鄰","STREET":"中華東路","SECT":"二段","MAREA":" ","LANE":"２２６巷","ALLEY":"２７弄","HOUSE_NO":"１３號十四樓","E_COORD97":170991.57557300001,"N_COORD97":2542603.4281600001,"ADDRESS":"中華東路二段２２６巷２７弄１３號十四樓","OBJECTID":3899},"geometry":{"x":170991.57557299919,"y":2542603.4281610008}},{"attributes":{"ID":3900,"DIS_CODE":0,"TOWNNAME":"東區","LI":"富強里","LIN":"22鄰","STREET":"中華東路","SECT":"二段","MAREA":" ","LANE":"２２６巷","ALLEY":"２７弄","HOUSE_NO":"１３號十五樓","E_COORD97":170991.57557300001,"N_COORD97":2542603.4281600001,"ADDRESS":"中華東路二段２２６巷２７弄１３號十五樓","OBJECTID":3900},"geometry":{"x":170991.57557299919,"y":2542603.4281610008}},{"attributes":{"ID":3901,"DIS_CODE":0,"TOWNNAME":"東區","LI":"富強里","LIN":"22鄰","STREET":"中華東路","SECT":"二段","MAREA":" ","LANE":"２２６巷","ALLEY":"２７弄","HOUSE_NO":"１３號十六樓","E_COORD97":170991.57557300001,"N_COORD97":2542603.4281600001,"ADDRESS":"中華東路二段２２６巷２７弄１３號十六樓","OBJECTID":3901},"geometry":{"x":170991.57557299919,"y":2542603.4281610008}},{"attributes":{"ID":3902,"DIS_CODE":0,"TOWNNAME":"東區","LI":"富強里","LIN":"22鄰","STREET":"中華東路","SECT":"二段","MAREA":" ","LANE":"２２６巷","ALLEY":"２７弄","HOUSE_NO":"１３號","E_COORD97":170991.57557300001,"N_COORD97":2542603.4281600001,"ADDRESS":"中華東路二段２２６巷２７弄１３號","OBJECTID":3902},"geometry":{"x":170991.57557299919,"y":2542603.4281610008}},{"attributes":{"ID":3903,"DIS_CODE":0,"TOWNNAME":"東區","LI":"富強里","LIN":"22鄰","STREET":"中華東路","SECT":"二段","MAREA":" ","LANE":"２２６巷","ALLEY":"２７弄","HOUSE_NO":"１３號二樓","E_COORD97":170991.57557300001,"N_COORD97":2542603.4281600001,"ADDRESS":"中華東路二段２２６巷２７弄１３號二樓","OBJECTID":3903},"geometry":{"x":170991.57557299919,"y":2542603.4281610008}},{"attributes":{"ID":3904,"DIS_CODE":0,"TOWNNAME":"東區","LI":"富強里","LIN":"22鄰","STREET":"中華東路","SECT":"二段","MAREA":" ","LANE":"２２６巷","ALLEY":"２７弄","HOUSE_NO":"１３號三樓","E_COORD97":170991.57557300001,"N_COORD97":2542603.4281600001,"ADDRESS":"中華東路二段２２６巷２７弄１３號三樓","OBJECTID":3904},"geometry":{"x":170991.57557299919,"y":2542603.4281610008}},{"attributes":{"ID":3905,"DIS_CODE":0,"TOWNNAME":"東區","LI":"富強里","LIN":"22鄰","STREET":"中華東路","SECT":"二段","MAREA":" ","LANE":"２２６巷","ALLEY":"２７弄","HOUSE_NO":"１３號四樓","E_COORD97":170991.57557300001,"N_COORD97":2542603.4281600001,"ADDRESS":"中華東路二段２２６巷２７弄１３號四樓","OBJECTID":3905},"geometry":{"x":170991.57557299919,"y":2542603.4281610008}},{"attributes":{"ID":3906,"DIS_CODE":0,"TOWNNAME":"東區","LI":"富強里","LIN":"22鄰","STREET":"中華東路","SECT":"二段","MAREA":" ","LANE":"２２６巷","ALLEY":"２７弄","HOUSE_NO":"１３號五樓","E_COORD97":170991.57557300001,"N_COORD97":2542603.4281600001,"ADDRESS":"中華東路二段２２６巷２７弄１３號五樓","OBJECTID":3906},"geometry":{"x":170991.57557299919,"y":2542603.4281610008}},{"attributes":{"ID":3907,"DIS_CODE":0,"TOWNNAME":"東區","LI":"富強里","LIN":"22鄰","STREET":"中華東路","SECT":"二段","MAREA":" ","LANE":"２２６巷","ALLEY":"２７弄","HOUSE_NO":"１３號六樓","E_COORD97":170991.57557300001,"N_COORD97":2542603.4281600001,"ADDRESS":"中華東路二段２２６巷２７弄１３號六樓","OBJECTID":3907},"geometry":{"x":170991.57557299919,"y":2542603.4281610008}},{"attributes":{"ID":3908,"DIS_CODE":0,"TOWNNAME":"東區","LI":"富強里","LIN":"22鄰","STREET":"中華東路","SECT":"二段","MAREA":" ","LANE":"２２６巷","ALLEY":"２７弄","HOUSE_NO":"１３號七樓","E_COORD97":170991.57557300001,"N_COORD97":2542603.4281600001,"ADDRESS":"中華東路二段２２６巷２７弄１３號七樓","OBJECTID":3908},"geometry":{"x":170991.57557299919,"y":2542603.4281610008}},{"attributes":{"ID":3909,"DIS_CODE":0,"TOWNNAME":"東區","LI":"富強里","LIN":"22鄰","STREET":"中華東路","SECT":"二段","MAREA":" ","LANE":"２２６巷","ALLEY":"２７弄","HOUSE_NO":"１３號八樓","E_COORD97":170991.57557300001,"N_COORD97":2542603.4281600001,"ADDRESS":"中華東路二段２２６巷２７弄１３號八樓","OBJECTID":3909},"geometry":{"x":170991.57557299919,"y":2542603.4281610008}},{"attributes":{"ID":3910,"DIS_CODE":0,"TOWNNAME":"東區","LI":"富強里","LIN":"22鄰","STREET":"中華東路","SECT":"二段","MAREA":" ","LANE":"２２６巷","ALLEY":"２７弄","HOUSE_NO":"１３號九樓","E_COORD97":170991.57557300001,"N_COORD97":2542603.4281600001,"ADDRESS":"中華東路二段２２６巷２７弄１３號九樓","OBJECTID":3910},"geometry":{"x":170991.57557299919,"y":2542603.4281610008}},{"attributes":{"ID":3911,"DIS_CODE":0,"TOWNNAME":"東區","LI":"富強里","LIN":"22鄰","STREET":"中華東路","SECT":"二段","MAREA":" ","LANE":"２２６巷","ALLEY":"２７弄","HOUSE_NO":"１３號十樓","E_COORD97":170991.57557300001,"N_COORD97":2542603.4281600001,"ADDRESS":"中華東路二段２２６巷２７弄１３號十樓","OBJECTID":3911},"geometry":{"x":170991.57557299919,"y":2542603.4281610008}},{"attributes":{"ID":3912,"DIS_CODE":0,"TOWNNAME":"東區","LI":"富強里","LIN":"22鄰","STREET":"中華東路","SECT":"二段","MAREA":" ","LANE":"２２６巷","ALLEY":"２７弄","HOUSE_NO":"１３號十一樓","E_COORD97":170991.57557300001,"N_COORD97":2542603.4281600001,"ADDRESS":"中華東路二段２２６巷２７弄１３號十一樓","OBJECTID":3912},"geometry":{"x":170991.57557299919,"y":2542603.4281610008}},{"attributes":{"ID":3913,"DIS_CODE":0,"TOWNNAME":"新營區","LI":"新東里","LIN":"14鄰","STREET":"東興六街","SECT":" ","MAREA":" ","LANE":"８９巷","ALLEY":"２０弄","HOUSE_NO":"２６號","E_COORD97":181031.109134,"N_COORD97":2579310.7247600001,"ADDRESS":"東興六街８９巷２０弄２６號","OBJECTID":3913},"geometry":{"x":181031.10913400073,"y":2579310.7247570027}},{"attributes":{"ID":3914,"DIS_CODE":0,"TOWNNAME":"安南區","LI":"鳳凰里","LIN":"2鄰","STREET":"怡安路","SECT":"二段","MAREA":" ","LANE":"５９巷","ALLEY":"１２弄","HOUSE_NO":"１３號","E_COORD97":168245.357957,"N_COORD97":2549211.4013,"ADDRESS":"怡安路二段５９巷１２弄１３號","OBJECTID":3914},"geometry":{"x":168245.35795699991,"y":2549211.4012969993}},{"attributes":{"ID":3915,"DIS_CODE":0,"TOWNNAME":"新營區","LI":"新東里","LIN":"14鄰","STREET":"東興六街","SECT":" ","MAREA":" ","LANE":"８９巷","ALLEY":"２０弄","HOUSE_NO":"２８號","E_COORD97":181041.38542199999,"N_COORD97":2579311.5714199999,"ADDRESS":"東興六街８９巷２０弄２８號","OBJECTID":3915},"geometry":{"x":181041.38542200159,"y":2579311.5714240037}},{"attributes":{"ID":3916,"DIS_CODE":0,"TOWNNAME":"歸仁區","LI":"西埔里","LIN":"15鄰","STREET":"西埔二街","SECT":" ","MAREA":" ","LANE":"１１０巷","ALLEY":"３０１弄","HOUSE_NO":"２０２號","E_COORD97":176388.864577,"N_COORD97":2545377.6800299999,"ADDRESS":"西埔二街１１０巷３０１弄２０２號","OBJECTID":3916},"geometry":{"x":176388.86457700003,"y":2545377.6800319999}},{"attributes":{"ID":3917,"DIS_CODE":0,"TOWNNAME":"東區","LI":"和平里","LIN":"2鄰","STREET":"文化路","SECT":" ","MAREA":" ","LANE":" ","ALLEY":" ","HOUSE_NO":"１２２號十一樓","E_COORD97":171390.243969,"N_COORD97":2541998.0899899998,"ADDRESS":"文化路１２２號十一樓","OBJECTID":3917},"geometry":{"x":171390.24396899994,"y":2541998.0899870005}},{"attributes":{"ID":3918,"DIS_CODE":0,"TOWNNAME":"東區","LI":"和平里","LIN":"2鄰","STREET":"文化路","SECT":" ","MAREA":" ","LANE":" ","ALLEY":" ","HOUSE_NO":"１２２號十二樓","E_COORD97":171390.243969,"N_COORD97":2541998.0899899998,"ADDRESS":"文化路１２２號十二樓","OBJECTID":3918},"geometry":{"x":171390.24396899994,"y":2541998.0899870005}},{"attributes":{"ID":3919,"DIS_CODE":0,"TOWNNAME":"東區","LI":"和平里","LIN":"2鄰","STREET":"文化路","SECT":" ","MAREA":" ","LANE":" ","ALLEY":" ","HOUSE_NO":"１２２號二樓","E_COORD97":171390.243969,"N_COORD97":2541998.0899899998,"ADDRESS":"文化路１２２號二樓","OBJECTID":3919},"geometry":{"x":171390.24396899994,"y":2541998.0899870005}},{"attributes":{"ID":3920,"DIS_CODE":0,"TOWNNAME":"東區","LI":"和平里","LIN":"2鄰","STREET":"文化路","SECT":" ","MAREA":" ","LANE":" ","ALLEY":" ","HOUSE_NO":"１２２號三樓","E_COORD97":171390.243969,"N_COORD97":2541998.0899899998,"ADDRESS":"文化路１２２號三樓","OBJECTID":3920},"geometry":{"x":171390.24396899994,"y":2541998.0899870005}},{"attributes":{"ID":3921,"DIS_CODE":0,"TOWNNAME":"東區","LI":"和平里","LIN":"2鄰","STREET":"文化路","SECT":" ","MAREA":" ","LANE":" ","ALLEY":" ","HOUSE_NO":"１２２號四樓","E_COORD97":171390.243969,"N_COORD97":2541998.0899899998,"ADDRESS":"文化路１２２號四樓","OBJECTID":3921},"geometry":{"x":171390.24396899994,"y":2541998.0899870005}},{"attributes":{"ID":3922,"DIS_CODE":0,"TOWNNAME":"東區","LI":"和平里","LIN":"2鄰","STREET":"文化路","SECT":" ","MAREA":" ","LANE":" ","ALLEY":" ","HOUSE_NO":"１２２號五樓","E_COORD97":171390.243969,"N_COORD97":2541998.0899899998,"ADDRESS":"文化路１２２號五樓","OBJECTID":3922},"geometry":{"x":171390.24396899994,"y":2541998.0899870005}},{"attributes":{"ID":3923,"DIS_CODE":0,"TOWNNAME":"東區","LI":"和平里","LIN":"2鄰","STREET":"文化路","SECT":" ","MAREA":" ","LANE":" ","ALLEY":" ","HOUSE_NO":"１２２號六樓","E_COORD97":171390.243969,"N_COORD97":2541998.0899899998,"ADDRESS":"文化路１２２號六樓","OBJECTID":3923},"geometry":{"x":171390.24396899994,"y":2541998.0899870005}},{"attributes":{"ID":3924,"DIS_CODE":0,"TOWNNAME":"東區","LI":"和平里","LIN":"2鄰","STREET":"文化路","SECT":" ","MAREA":" ","LANE":" ","ALLEY":" ","HOUSE_NO":"１２２號七樓","E_COORD97":171390.243969,"N_COORD97":2541998.0899899998,"ADDRESS":"文化路１２２號七樓","OBJECTID":3924},"geometry":{"x":171390.24396899994,"y":2541998.0899870005}},{"attributes":{"ID":3925,"DIS_CODE":0,"TOWNNAME":"東區","LI":"和平里","LIN":"2鄰","STREET":"文化路","SECT":" ","MAREA":" ","LANE":" ","ALLEY":" ","HOUSE_NO":"１２２號八樓","E_COORD97":171390.243969,"N_COORD97":2541998.0899899998,"ADDRESS":"文化路１２２號八樓","OBJECTID":3925},"geometry":{"x":171390.24396899994,"y":2541998.0899870005}},{"attributes":{"ID":3926,"DIS_CODE":0,"TOWNNAME":"東區","LI":"和平里","LIN":"2鄰","STREET":"文化路","SECT":" ","MAREA":" ","LANE":" ","ALLEY":" ","HOUSE_NO":"１２２號九樓","E_COORD97":171390.243969,"N_COORD97":2541998.0899899998,"ADDRESS":"文化路１２２號九樓","OBJECTID":3926},"geometry":{"x":171390.24396899994,"y":2541998.0899870005}},{"attributes":{"ID":3927,"DIS_CODE":0,"TOWNNAME":"東區","LI":"和平里","LIN":"2鄰","STREET":"文化路","SECT":" ","MAREA":" ","LANE":" ","ALLEY":" ","HOUSE_NO":"１２２號十樓","E_COORD97":171390.243969,"N_COORD97":2541998.0899899998,"ADDRESS":"文化路１２２號十樓","OBJECTID":3927},"geometry":{"x":171390.24396899994,"y":2541998.0899870005}},{"attributes":{"ID":3928,"DIS_CODE":0,"TOWNNAME":"安南區","LI":"鳳凰里","LIN":"2鄰","STREET":"怡安路","SECT":"二段","MAREA":" ","LANE":"５９巷","ALLEY":"１２弄","HOUSE_NO":"１１號","E_COORD97":168249.910218,"N_COORD97":2549210.5546300001,"ADDRESS":"怡安路二段５９巷１２弄１１號","OBJECTID":3928},"geometry":{"x":168249.91021799948,"y":2549210.5546310022}},{"attributes":{"ID":3929,"DIS_CODE":0,"TOWNNAME":"安南區","LI":"鳳凰里","LIN":"2鄰","STREET":"怡安路","SECT":"二段","MAREA":" ","LANE":"５９巷","ALLEY":"１２弄","HOUSE_NO":"９號","E_COORD97":168254.356612,"N_COORD97":2549209.2846300001,"ADDRESS":"怡安路二段５９巷１２弄９號","OBJECTID":3929},"geometry":{"x":168254.35661200061,"y":2549209.2846320029}},{"attributes":{"ID":3930,"DIS_CODE":0,"TOWNNAME":"新營區","LI":"新東里","LIN":"14鄰","STREET":"東興六街","SECT":" ","MAREA":" ","LANE":"８９巷","ALLEY":"１４弄","HOUSE_NO":"３１號","E_COORD97":181041.65027499999,"N_COORD97":2579288.4468499999,"ADDRESS":"東興六街８９巷１４弄３１號","OBJECTID":3930},"geometry":{"x":181041.6502750013,"y":2579288.4468530025}},{"attributes":{"ID":3931,"DIS_CODE":0,"TOWNNAME":"下營區","LI":"後街里","LIN":"19鄰","STREET":"大和街","SECT":" ","MAREA":" ","LANE":" ","ALLEY":" ","HOUSE_NO":"６２號","E_COORD97":174579.545919,"N_COORD97":2571259.1704799999,"ADDRESS":"大和街６２號","OBJECTID":3931},"geometry":{"x":174579.5459190011,"y":2571259.1704780012}},{"attributes":{"ID":3932,"DIS_CODE":0,"TOWNNAME":"安南區","LI":"鳳凰里","LIN":"2鄰","STREET":"怡安路","SECT":"二段","MAREA":" ","LANE":"５９巷","ALLEY":"１２弄","HOUSE_NO":"１號","E_COORD97":168270.34245699999,"N_COORD97":2549205.0512999999,"ADDRESS":"怡安路二段５９巷１２弄１號","OBJECTID":3932},"geometry":{"x":168270.34245700203,"y":2549205.0513010006}},{"attributes":{"ID":3933,"DIS_CODE":0,"TOWNNAME":"東區","LI":"和平里","LIN":"2鄰","STREET":"文化路","SECT":" ","MAREA":" ","LANE":" ","ALLEY":" ","HOUSE_NO":"１２６號六樓","E_COORD97":171401.029201,"N_COORD97":2541992.96,"ADDRESS":"文化路１２６號六樓","OBJECTID":3933},"geometry":{"x":171401.02920100093,"y":2541992.9600029998}},{"attributes":{"ID":3934,"DIS_CODE":0,"TOWNNAME":"東區","LI":"和平里","LIN":"2鄰","STREET":"文化路","SECT":" ","MAREA":" ","LANE":" ","ALLEY":" ","HOUSE_NO":"１２６號二樓","E_COORD97":171401.029201,"N_COORD97":2541992.96,"ADDRESS":"文化路１２６號二樓","OBJECTID":3934},"geometry":{"x":171401.02920100093,"y":2541992.9600029998}},{"attributes":{"ID":3935,"DIS_CODE":0,"TOWNNAME":"東區","LI":"和平里","LIN":"2鄰","STREET":"文化路","SECT":" ","MAREA":" ","LANE":" ","ALLEY":" ","HOUSE_NO":"１２６號三樓","E_COORD97":171401.029201,"N_COORD97":2541992.96,"ADDRESS":"文化路１２６號三樓","OBJECTID":3935},"geometry":{"x":171401.02920100093,"y":2541992.9600029998}},{"attributes":{"ID":3936,"DIS_CODE":0,"TOWNNAME":"東區","LI":"和平里","LIN":"2鄰","STREET":"文化路","SECT":" ","MAREA":" ","LANE":" ","ALLEY":" ","HOUSE_NO":"１２６號四樓","E_COORD97":171401.029201,"N_COORD97":2541992.96,"ADDRESS":"文化路１２６號四樓","OBJECTID":3936},"geometry":{"x":171401.02920100093,"y":2541992.9600029998}},{"attributes":{"ID":3937,"DIS_CODE":0,"TOWNNAME":"東區","LI":"和平里","LIN":"2鄰","STREET":"文化路","SECT":" ","MAREA":" ","LANE":" ","ALLEY":" ","HOUSE_NO":"１２６號五樓","E_COORD97":171401.029201,"N_COORD97":2541992.96,"ADDRESS":"文化路１２６號五樓","OBJECTID":3937},"geometry":{"x":171401.02920100093,"y":2541992.9600029998}},{"attributes":{"ID":3938,"DIS_CODE":0,"TOWNNAME":"東區","LI":"和平里","LIN":"2鄰","STREET":"文化路","SECT":" ","MAREA":" ","LANE":" ","ALLEY":" ","HOUSE_NO":"１２６號七樓","E_COORD97":171401.029201,"N_COORD97":2541992.96,"ADDRESS":"文化路１２６號七樓","OBJECTID":3938},"geometry":{"x":171401.02920100093,"y":2541992.9600029998}},{"attributes":{"ID":3939,"DIS_CODE":0,"TOWNNAME":"東區","LI":"和平里","LIN":"2鄰","STREET":"文化路","SECT":" ","MAREA":" ","LANE":" ","ALLEY":" ","HOUSE_NO":"１２６號八樓","E_COORD97":171401.029201,"N_COORD97":2541992.96,"ADDRESS":"文化路１２６號八樓","OBJECTID":3939},"geometry":{"x":171401.02920100093,"y":2541992.9600029998}},{"attributes":{"ID":3940,"DIS_CODE":0,"TOWNNAME":"東區","LI":"和平里","LIN":"2鄰","STREET":"文化路","SECT":" ","MAREA":" ","LANE":" ","ALLEY":" ","HOUSE_NO":"１２６號九樓","E_COORD97":171401.029201,"N_COORD97":2541992.96,"ADDRESS":"文化路１２６號九樓","OBJECTID":3940},"geometry":{"x":171401.02920100093,"y":2541992.9600029998}},{"attributes":{"ID":3941,"DIS_CODE":0,"TOWNNAME":"東區","LI":"和平里","LIN":"2鄰","STREET":"文化路","SECT":" ","MAREA":" ","LANE":" ","ALLEY":" ","HOUSE_NO":"１２６號十樓","E_COORD97":171401.029201,"N_COORD97":2541992.96,"ADDRESS":"文化路１２６號十樓","OBJECTID":3941},"geometry":{"x":171401.02920100093,"y":2541992.9600029998}},{"attributes":{"ID":3942,"DIS_CODE":0,"TOWNNAME":"東區","LI":"和平里","LIN":"2鄰","STREET":"文化路","SECT":" ","MAREA":" ","LANE":" ","ALLEY":" ","HOUSE_NO":"１２６號十一樓","E_COORD97":171401.029201,"N_COORD97":2541992.96,"ADDRESS":"文化路１２６號十一樓","OBJECTID":3942},"geometry":{"x":171401.02920100093,"y":2541992.9600029998}},{"attributes":{"ID":3943,"DIS_CODE":0,"TOWNNAME":"東區","LI":"和平里","LIN":"2鄰","STREET":"文化路","SECT":" ","MAREA":" ","LANE":" ","ALLEY":" ","HOUSE_NO":"１２６號十二樓","E_COORD97":171401.029201,"N_COORD97":2541992.96,"ADDRESS":"文化路１２６號十二樓","OBJECTID":3943},"geometry":{"x":171401.02920100093,"y":2541992.9600029998}},{"attributes":{"ID":3944,"DIS_CODE":0,"TOWNNAME":"安南區","LI":"鳳凰里","LIN":"2鄰","STREET":"怡安路","SECT":"二段","MAREA":" ","LANE":"５９巷","ALLEY":"１２弄","HOUSE_NO":"２號","E_COORD97":168264.837397,"N_COORD97":2549216.0579599999,"ADDRESS":"怡安路二段５９巷１２弄２號","OBJECTID":3944},"geometry":{"x":168264.83739699982,"y":2549216.0579610001}},{"attributes":{"ID":3945,"DIS_CODE":0,"TOWNNAME":"安南區","LI":"頂安里","LIN":"17鄰","STREET":"安中二街","SECT":" ","MAREA":" ","LANE":"７０巷","ALLEY":" ","HOUSE_NO":"１０號","E_COORD97":168533.555766,"N_COORD97":2548392.4641200001,"ADDRESS":"安中二街７０巷１０號","OBJECTID":3945},"geometry":{"x":168533.55576600134,"y":2548392.4641190022}},{"attributes":{"ID":3946,"DIS_CODE":0,"TOWNNAME":"歸仁區","LI":"後市里","LIN":"44鄰","STREET":"民權三街","SECT":" ","MAREA":" ","LANE":" ","ALLEY":" ","HOUSE_NO":"３６號","E_COORD97":177073.50894199999,"N_COORD97":2541084.5099399998,"ADDRESS":"民權三街３６號","OBJECTID":3946},"geometry":{"x":177073.50894200057,"y":2541084.509936003}},{"attributes":{"ID":3947,"DIS_CODE":0,"TOWNNAME":"安南區","LI":"東和里","LIN":"7鄰","STREET":"環館北路","SECT":" ","MAREA":" ","LANE":"８４９巷","ALLEY":"１０弄","HOUSE_NO":"１０號","E_COORD97":171101.746797,"N_COORD97":2551396.09106,"ADDRESS":"環館北路８４９巷１０弄１０號","OBJECTID":3947},"geometry":{"x":171101.74679700006,"y":2551396.0910640005}},{"attributes":{"ID":3948,"DIS_CODE":0,"TOWNNAME":"東區","LI":"和平里","LIN":"2鄰","STREET":"東門路","SECT":"三段","MAREA":" ","LANE":" ","ALLEY":" ","HOUSE_NO":"１８０號","E_COORD97":171406.807004,"N_COORD97":2542046.3118400001,"ADDRESS":"東門路三段１８０號","OBJECTID":3948},"geometry":{"x":171406.80700400006,"y":2542046.3118420001}},{"attributes":{"ID":3949,"DIS_CODE":0,"TOWNNAME":"楠西區","LI":"龜丹里","LIN":"4鄰","STREET":" ","SECT":" ","MAREA":"龜丹","LANE":" ","ALLEY":" ","HOUSE_NO":"４０號之２８","E_COORD97":198317.79456099999,"N_COORD97":2559245.2183500002,"ADDRESS":"龜丹４０號之２８","OBJECTID":3949},"geometry":{"x":198317.79456099961,"y":2559245.2183490023}},{"attributes":{"ID":3950,"DIS_CODE":0,"TOWNNAME":"安南區","LI":"鳳凰里","LIN":"2鄰","STREET":"怡安路","SECT":"二段","MAREA":" ","LANE":"５９巷","ALLEY":" ","HOUSE_NO":"２號","E_COORD97":168277.96484599999,"N_COORD97":2549226.6412900002,"ADDRESS":"怡安路二段５９巷２號","OBJECTID":3950},"geometry":{"x":168277.96484600101,"y":2549226.6412890013}},{"attributes":{"ID":3951,"DIS_CODE":0,"TOWNNAME":"楠西區","LI":"龜丹里","LIN":"4鄰","STREET":" ","SECT":" ","MAREA":"龜丹","LANE":" ","ALLEY":" ","HOUSE_NO":"４０號之２７","E_COORD97":198304.65848099999,"N_COORD97":2559240.1383500001,"ADDRESS":"龜丹４０號之２７","OBJECTID":3951},"geometry":{"x":198304.65848100185,"y":2559240.1383519974}},{"attributes":{"ID":3952,"DIS_CODE":0,"TOWNNAME":"東區","LI":"和平里","LIN":"2鄰","STREET":"東門路","SECT":"三段","MAREA":" ","LANE":" ","ALLEY":" ","HOUSE_NO":"１８２號","E_COORD97":171409.374916,"N_COORD97":2542044.0033499999,"ADDRESS":"東門路三段１８２號","OBJECTID":3952},"geometry":{"x":171409.37491599936,"y":2542044.0033490006}},{"attributes":{"ID":3953,"DIS_CODE":0,"TOWNNAME":"楠西區","LI":"龜丹里","LIN":"4鄰","STREET":" ","SECT":" ","MAREA":"龜丹","LANE":" ","ALLEY":" ","HOUSE_NO":"４０之３６號","E_COORD97":198327.54068500001,"N_COORD97":2559232.0950199999,"ADDRESS":"龜丹４０之３６號","OBJECTID":3953},"geometry":{"x":198327.54068500083,"y":2559232.0950230006}},{"attributes":{"ID":3954,"DIS_CODE":0,"TOWNNAME":"歸仁區","LI":"後市里","LIN":"25鄰","STREET":"民族北街","SECT":" ","MAREA":" ","LANE":" ","ALLEY":" ","HOUSE_NO":"７２號","E_COORD97":177456.74942599999,"N_COORD97":2541028.1099800002,"ADDRESS":"民族北街７２號","OBJECTID":3954},"geometry":{"x":177456.74942600075,"y":2541028.1099760029}},{"attributes":{"ID":3955,"DIS_CODE":0,"TOWNNAME":"歸仁區","LI":"後市里","LIN":"25鄰","STREET":"民族北街","SECT":" ","MAREA":" ","LANE":" ","ALLEY":" ","HOUSE_NO":"７６號","E_COORD97":177455.32271800001,"N_COORD97":2541032.3860399998,"ADDRESS":"民族北街７６號","OBJECTID":3955},"geometry":{"x":177455.32271800004,"y":2541032.3860420007}},{"attributes":{"ID":3956,"DIS_CODE":0,"TOWNNAME":"安南區","LI":"鳳凰里","LIN":"2鄰","STREET":"安中路","SECT":"一段","MAREA":" ","LANE":"６２２巷","ALLEY":" ","HOUSE_NO":"２０３號","E_COORD97":168269.601391,"N_COORD97":2549236.4837799999,"ADDRESS":"安中路一段６２２巷２０３號","OBJECTID":3956},"geometry":{"x":168269.60139099974,"y":2549236.4837840013}},{"attributes":{"ID":3957,"DIS_CODE":0,"TOWNNAME":"歸仁區","LI":"後市里","LIN":"25鄰","STREET":"民族北街","SECT":" ","MAREA":" ","LANE":" ","ALLEY":" ","HOUSE_NO":"７８號","E_COORD97":177454.13379399999,"N_COORD97":2541035.94943,"ADDRESS":"民族北街７８號","OBJECTID":3957},"geometry":{"x":177454.13379400037,"y":2541035.9494310003}},{"attributes":{"ID":3958,"DIS_CODE":0,"TOWNNAME":"東區","LI":"和平里","LIN":"2鄰","STREET":"東門路","SECT":"三段","MAREA":" ","LANE":" ","ALLEY":" ","HOUSE_NO":"１８６號","E_COORD97":171414.125554,"N_COORD97":2542042.2078499999,"ADDRESS":"東門路三段１８６號","OBJECTID":3958},"geometry":{"x":171414.12555400003,"y":2542042.2078540027}},{"attributes":{"ID":3959,"DIS_CODE":0,"TOWNNAME":"安南區","LI":"頂安里","LIN":"17鄰","STREET":"安中二街","SECT":" ","MAREA":" ","LANE":"３２巷","ALLEY":" ","HOUSE_NO":"１０號","E_COORD97":168559.09488399999,"N_COORD97":2548315.6092699999,"ADDRESS":"安中二街３２巷１０號","OBJECTID":3959},"geometry":{"x":168559.09488399979,"y":2548315.6092720013}},{"attributes":{"ID":3960,"DIS_CODE":0,"TOWNNAME":"東區","LI":"和平里","LIN":"2鄰","STREET":"東門路","SECT":"三段","MAREA":" ","LANE":" ","ALLEY":" ","HOUSE_NO":"１８８號","E_COORD97":171417.85692799999,"N_COORD97":2542038.9808999998,"ADDRESS":"東門路三段１８８號","OBJECTID":3960},"geometry":{"x":171417.8569279993,"y":2542038.9808970019}},{"attributes":{"ID":3961,"DIS_CODE":0,"TOWNNAME":"安南區","LI":"鳳凰里","LIN":"2鄰","STREET":"安中路","SECT":"一段","MAREA":" ","LANE":"６２２巷","ALLEY":" ","HOUSE_NO":"１８５號","E_COORD97":168242.181962,"N_COORD97":2549238.1771200001,"ADDRESS":"安中路一段６２２巷１８５號","OBJECTID":3961},"geometry":{"x":168242.18196200114,"y":2549238.1771159992}},{"attributes":{"ID":3962,"DIS_CODE":0,"TOWNNAME":"東區","LI":"和平里","LIN":"2鄰","STREET":"東門路","SECT":"三段","MAREA":" ","LANE":" ","ALLEY":" ","HOUSE_NO":"１９０號","E_COORD97":171421.530253,"N_COORD97":2542035.6848399998,"ADDRESS":"東門路三段１９０號","OBJECTID":3962},"geometry":{"x":171421.53025299963,"y":2542035.6848380044}},{"attributes":{"ID":3963,"DIS_CODE":0,"TOWNNAME":"安南區","LI":"鳳凰里","LIN":"2鄰","STREET":"安中路","SECT":"一段","MAREA":" ","LANE":"６２２巷","ALLEY":" ","HOUSE_NO":"１８１號","E_COORD97":168239.74703200001,"N_COORD97":2549229.1812900002,"ADDRESS":"安中路一段６２２巷１８１號","OBJECTID":3963},"geometry":{"x":168239.74703200068,"y":2549229.1812870018}},{"attributes":{"ID":3964,"DIS_CODE":0,"TOWNNAME":"安南區","LI":"頂安里","LIN":"17鄰","STREET":"北安一街","SECT":" ","MAREA":" ","LANE":" ","ALLEY":" ","HOUSE_NO":"１８號","E_COORD97":168573.67639199999,"N_COORD97":2548299.7842100002,"ADDRESS":"北安一街１８號","OBJECTID":3964},"geometry":{"x":168573.67639200017,"y":2548299.7842080034}},{"attributes":{"ID":3965,"DIS_CODE":0,"TOWNNAME":"安南區","LI":"東和里","LIN":"7鄰","STREET":"長和路","SECT":"一段","MAREA":" ","LANE":" ","ALLEY":" ","HOUSE_NO":"５９１號","E_COORD97":171169.92498000001,"N_COORD97":2551110.63888,"ADDRESS":"長和路一段５９１號","OBJECTID":3965},"geometry":{"x":171169.92497999966,"y":2551110.6388750002}},{"attributes":{"ID":3966,"DIS_CODE":0,"TOWNNAME":"歸仁區","LI":"後市里","LIN":"25鄰","STREET":"民族北街","SECT":" ","MAREA":" ","LANE":" ","ALLEY":" ","HOUSE_NO":"８０之１號","E_COORD97":177473.869924,"N_COORD97":2541035.2367500002,"ADDRESS":"民族北街８０之１號","OBJECTID":3966},"geometry":{"x":177473.86992400046,"y":2541035.2367529999}},{"attributes":{"ID":3967,"DIS_CODE":0,"TOWNNAME":"下營區","LI":"新興里","LIN":"15鄰","STREET":"寮前二街","SECT":" ","MAREA":" ","LANE":" ","ALLEY":" ","HOUSE_NO":"２６之１號","E_COORD97":175254.129522,"N_COORD97":2570425.3313600002,"ADDRESS":"寮前二街２６之１號","OBJECTID":3967},"geometry":{"x":175254.12952200044,"y":2570425.3313630018}},{"attributes":{"ID":3968,"DIS_CODE":0,"TOWNNAME":"東區","LI":"和平里","LIN":"2鄰","STREET":"東門路","SECT":"三段","MAREA":" ","LANE":" ","ALLEY":" ","HOUSE_NO":"１９２號","E_COORD97":171424.99692899999,"N_COORD97":2542032.35035,"ADDRESS":"東門路三段１９２號","OBJECTID":3968},"geometry":{"x":171424.99692900106,"y":2542032.3503530025}},{"attributes":{"ID":3969,"DIS_CODE":0,"TOWNNAME":"歸仁區","LI":"後市里","LIN":"25鄰","STREET":"民族北街","SECT":" ","MAREA":" ","LANE":" ","ALLEY":" ","HOUSE_NO":"８０之２號","E_COORD97":177478.38783299999,"N_COORD97":2541035.2367500002,"ADDRESS":"民族北街８０之２號","OBJECTID":3969},"geometry":{"x":177478.38783300016,"y":2541035.2367529999}},{"attributes":{"ID":3970,"DIS_CODE":0,"TOWNNAME":"安南區","LI":"東和里","LIN":"7鄰","STREET":"長和路","SECT":"一段","MAREA":" ","LANE":" ","ALLEY":" ","HOUSE_NO":"５８９號","E_COORD97":171178.056323,"N_COORD97":2551104.3881000001,"ADDRESS":"長和路一段５８９號","OBJECTID":3970},"geometry":{"x":171178.05632300116,"y":2551104.3880970012}},{"attributes":{"ID":3971,"DIS_CODE":0,"TOWNNAME":"安南區","LI":"鳳凰里","LIN":"1鄰","STREET":"怡安路","SECT":"二段","MAREA":" ","LANE":" ","ALLEY":" ","HOUSE_NO":"６５號","E_COORD97":168276.21804899999,"N_COORD97":2549262.7833500002,"ADDRESS":"怡安路二段６５號","OBJECTID":3971},"geometry":{"x":168276.21804900002,"y":2549262.7833530009}},{"attributes":{"ID":3972,"DIS_CODE":0,"TOWNNAME":"歸仁區","LI":"後市里","LIN":"25鄰","STREET":"民族北街","SECT":" ","MAREA":" ","LANE":" ","ALLEY":" ","HOUSE_NO":"８０之３號","E_COORD97":177473.63213899999,"N_COORD97":2541041.4132900001,"ADDRESS":"民族北街８０之３號","OBJECTID":3972},"geometry":{"x":177473.63213900104,"y":2541041.4132940024}},{"attributes":{"ID":3973,"DIS_CODE":0,"TOWNNAME":"安南區","LI":"東和里","LIN":"7鄰","STREET":"長和路","SECT":"一段","MAREA":" ","LANE":" ","ALLEY":" ","HOUSE_NO":"５８７號","E_COORD97":171179.72429099999,"N_COORD97":2551100.4292700002,"ADDRESS":"長和路一段５８７號","OBJECTID":3973},"geometry":{"x":171179.72429099865,"y":2551100.4292709995}},{"attributes":{"ID":3974,"DIS_CODE":0,"TOWNNAME":"東區","LI":"和平里","LIN":"2鄰","STREET":"東門路","SECT":"三段","MAREA":" ","LANE":" ","ALLEY":" ","HOUSE_NO":"１９６號","E_COORD97":171429.490769,"N_COORD97":2542029.0158699998,"ADDRESS":"東門路三段１９６號","OBJECTID":3974},"geometry":{"x":171429.49076899979,"y":2542029.0158690009}},{"attributes":{"ID":3975,"DIS_CODE":0,"TOWNNAME":"安南區","LI":"頂安里","LIN":"17鄰","STREET":"安中二街","SECT":" ","MAREA":" ","LANE":"３２巷","ALLEY":" ","HOUSE_NO":"１９號","E_COORD97":168572.78759699999,"N_COORD97":2548342.0940999999,"ADDRESS":"安中二街３２巷１９號","OBJECTID":3975},"geometry":{"x":168572.78759700153,"y":2548342.094095001}},{"attributes":{"ID":3976,"DIS_CODE":0,"TOWNNAME":"安南區","LI":"東和里","LIN":"7鄰","STREET":"長和路","SECT":"一段","MAREA":" ","LANE":" ","ALLEY":" ","HOUSE_NO":"５８５號","E_COORD97":171183.47721899999,"N_COORD97":2551098.5540399998,"ADDRESS":"長和路一段５８５號","OBJECTID":3976},"geometry":{"x":171183.47721900139,"y":2551098.5540370028}},{"attributes":{"ID":3977,"DIS_CODE":0,"TOWNNAME":"東區","LI":"和平里","LIN":"2鄰","STREET":"東門路","SECT":"三段","MAREA":" ","LANE":" ","ALLEY":" ","HOUSE_NO":"１９８號","E_COORD97":171433.47102600001,"N_COORD97":2542025.9378800001,"ADDRESS":"東門路三段１９８號","OBJECTID":3977},"geometry":{"x":171433.47102600057,"y":2542025.9378830027}},{"attributes":{"ID":3978,"DIS_CODE":0,"TOWNNAME":"安南區","LI":"東和里","LIN":"7鄰","STREET":"長和路","SECT":"一段","MAREA":" ","LANE":" ","ALLEY":" ","HOUSE_NO":"５８３號","E_COORD97":171186.39616199999,"N_COORD97":2551095.01193,"ADDRESS":"長和路一段５８３號","OBJECTID":3978},"geometry":{"x":171186.39616200048,"y":2551095.0119300019}},{"attributes":{"ID":3979,"DIS_CODE":0,"TOWNNAME":"東區","LI":"和平里","LIN":"2鄰","STREET":"東門路","SECT":"三段","MAREA":" ","LANE":" ","ALLEY":" ","HOUSE_NO":"２００號","E_COORD97":171436.68091200001,"N_COORD97":2542023.3728999998,"ADDRESS":"東門路三段２００號","OBJECTID":3979},"geometry":{"x":171436.68091200013,"y":2542023.3728950024}},{"attributes":{"ID":3980,"DIS_CODE":0,"TOWNNAME":"歸仁區","LI":"後市里","LIN":"25鄰","STREET":"民族北街","SECT":" ","MAREA":" ","LANE":" ","ALLEY":" ","HOUSE_NO":"８０號","E_COORD97":177456.729375,"N_COORD97":2541037.6388699999,"ADDRESS":"民族北街８０號","OBJECTID":3980},"geometry":{"x":177456.72937500104,"y":2541037.638867002}},{"attributes":{"ID":3981,"DIS_CODE":0,"TOWNNAME":"安南區","LI":"東和里","LIN":"7鄰","STREET":"長和路","SECT":"一段","MAREA":" ","LANE":" ","ALLEY":" ","HOUSE_NO":"５８１號","E_COORD97":171188.89811400001,"N_COORD97":2551091.8865399999,"ADDRESS":"長和路一段５８１號","OBJECTID":3981},"geometry":{"x":171188.89811400138,"y":2551091.8865410015}},{"attributes":{"ID":3982,"DIS_CODE":0,"TOWNNAME":"安南區","LI":"東和里","LIN":"7鄰","STREET":"長和路","SECT":"一段","MAREA":" ","LANE":" ","ALLEY":" ","HOUSE_NO":"５７９號","E_COORD97":171192.85953700001,"N_COORD97":2551087.92772,"ADDRESS":"長和路一段５７９號","OBJECTID":3982},"geometry":{"x":171192.85953699891,"y":2551087.9277149998}},{"attributes":{"ID":3983,"DIS_CODE":0,"TOWNNAME":"安南區","LI":"頂安里","LIN":"17鄰","STREET":"安中一街","SECT":" ","MAREA":" ","LANE":" ","ALLEY":" ","HOUSE_NO":"１９號","E_COORD97":168610.016286,"N_COORD97":2548314.6196400002,"ADDRESS":"安中一街１９號","OBJECTID":3983},"geometry":{"x":168610.01628599968,"y":2548314.619640002}},{"attributes":{"ID":3984,"DIS_CODE":0,"TOWNNAME":"歸仁區","LI":"後市里","LIN":"38鄰","STREET":"民權三街","SECT":" ","MAREA":" ","LANE":" ","ALLEY":" ","HOUSE_NO":"９６號","E_COORD97":177215.91727199999,"N_COORD97":2541066.3396200002,"ADDRESS":"民權三街９６號","OBJECTID":3984},"geometry":{"x":177215.91727200057,"y":2541066.3396160007}},{"attributes":{"ID":3985,"DIS_CODE":0,"TOWNNAME":"歸仁區","LI":"後市里","LIN":"38鄰","STREET":"民權三街","SECT":" ","MAREA":" ","LANE":" ","ALLEY":" ","HOUSE_NO":"９８號","E_COORD97":177219.958312,"N_COORD97":2541065.38968,"ADDRESS":"民權三街９８號","OBJECTID":3985},"geometry":{"x":177219.95831200201,"y":2541065.389684001}},{"attributes":{"ID":3986,"DIS_CODE":0,"TOWNNAME":"下營區","LI":"新興里","LIN":"4鄰","STREET":"中山路","SECT":"一段","MAREA":" ","LANE":" ","ALLEY":" ","HOUSE_NO":"５１７號","E_COORD97":175752.143495,"N_COORD97":2571201.5753199998,"ADDRESS":"中山路一段５１７號","OBJECTID":3986},"geometry":{"x":175752.14349500183,"y":2571201.5753150042}},{"attributes":{"ID":3987,"DIS_CODE":0,"TOWNNAME":"東區","LI":"大同里","LIN":"7鄰","STREET":"大同路","SECT":"一段","MAREA":" ","LANE":"７３巷","ALLEY":" ","HOUSE_NO":"８號二樓","E_COORD97":169195.396978,"N_COORD97":2543051.5537100001,"ADDRESS":"大同路一段７３巷８號二樓","OBJECTID":3987},"geometry":{"x":169195.39697800018,"y":2543051.5537090003}},{"attributes":{"ID":3988,"DIS_CODE":0,"TOWNNAME":"東區","LI":"大同里","LIN":"7鄰","STREET":"大同路","SECT":"一段","MAREA":" ","LANE":"７３巷","ALLEY":" ","HOUSE_NO":"８號三樓","E_COORD97":169195.396978,"N_COORD97":2543051.5537100001,"ADDRESS":"大同路一段７３巷８號三樓","OBJECTID":3988},"geometry":{"x":169195.39697800018,"y":2543051.5537090003}},{"attributes":{"ID":3989,"DIS_CODE":0,"TOWNNAME":"東區","LI":"大同里","LIN":"7鄰","STREET":"大同路","SECT":"一段","MAREA":" ","LANE":"７３巷","ALLEY":" ","HOUSE_NO":"８號四樓","E_COORD97":169195.396978,"N_COORD97":2543051.5537100001,"ADDRESS":"大同路一段７３巷８號四樓","OBJECTID":3989},"geometry":{"x":169195.39697800018,"y":2543051.5537090003}},{"attributes":{"ID":3990,"DIS_CODE":0,"TOWNNAME":"東區","LI":"大同里","LIN":"7鄰","STREET":"大同路","SECT":"一段","MAREA":" ","LANE":"７３巷","ALLEY":" ","HOUSE_NO":"８號五樓","E_COORD97":169195.396978,"N_COORD97":2543051.5537100001,"ADDRESS":"大同路一段７３巷８號五樓","OBJECTID":3990},"geometry":{"x":169195.39697800018,"y":2543051.5537090003}},{"attributes":{"ID":3991,"DIS_CODE":0,"TOWNNAME":"安南區","LI":"東和里","LIN":"7鄰","STREET":"長和路","SECT":"一段","MAREA":" ","LANE":" ","ALLEY":" ","HOUSE_NO":"５７５號","E_COORD97":171202.65884799999,"N_COORD97":2551078.75991,"ADDRESS":"長和路一段５７５號","OBJECTID":3991},"geometry":{"x":171202.65884800069,"y":2551078.7599069998}},{"attributes":{"ID":3992,"DIS_CODE":0,"TOWNNAME":"下營區","LI":"新興里","LIN":"17鄰","STREET":"中山路","SECT":"一段","MAREA":" ","LANE":"４７６巷","ALLEY":" ","HOUSE_NO":"２０７號","E_COORD97":176447.97445199999,"N_COORD97":2571253.0917000002,"ADDRESS":"中山路一段４７６巷２０７號","OBJECTID":3992},"geometry":{"x":176447.97445200011,"y":2571253.0916980039}},{"attributes":{"ID":3993,"DIS_CODE":0,"TOWNNAME":"安南區","LI":"東和里","LIN":"7鄰","STREET":"長和路","SECT":"一段","MAREA":" ","LANE":" ","ALLEY":" ","HOUSE_NO":"５７３號","E_COORD97":171206.620272,"N_COORD97":2551073.75929,"ADDRESS":"長和路一段５７３號","OBJECTID":3993},"geometry":{"x":171206.62027200032,"y":2551073.7592849992}},{"attributes":{"ID":3994,"DIS_CODE":0,"TOWNNAME":"安南區","LI":"東和里","LIN":"7鄰","STREET":"長和路","SECT":"一段","MAREA":" ","LANE":" ","ALLEY":" ","HOUSE_NO":"５７１號","E_COORD97":171209.12222300001,"N_COORD97":2551070.0088200001,"ADDRESS":"長和路一段５７１號","OBJECTID":3994},"geometry":{"x":171209.12222300004,"y":2551070.0088180043}},{"attributes":{"ID":3995,"DIS_CODE":0,"TOWNNAME":"安南區","LI":"東和里","LIN":"7鄰","STREET":"長和路","SECT":"一段","MAREA":" ","LANE":" ","ALLEY":" ","HOUSE_NO":"５６９號","E_COORD97":171212.458159,"N_COORD97":2551066.6750699999,"ADDRESS":"長和路一段５６９號","OBJECTID":3995},"geometry":{"x":171212.45815900061,"y":2551066.6750700008}},{"attributes":{"ID":3996,"DIS_CODE":0,"TOWNNAME":"歸仁區","LI":"後市里","LIN":"15鄰","STREET":"民族南街","SECT":" ","MAREA":" ","LANE":"１８巷","ALLEY":" ","HOUSE_NO":"５２號","E_COORD97":177310.88170699999,"N_COORD97":2540772.8108100002,"ADDRESS":"民族南街１８巷５２號","OBJECTID":3996},"geometry":{"x":177310.88170700148,"y":2540772.8108060006}},{"attributes":{"ID":3997,"DIS_CODE":0,"TOWNNAME":"安南區","LI":"東和里","LIN":"7鄰","STREET":"長和路","SECT":"一段","MAREA":" ","LANE":" ","ALLEY":" ","HOUSE_NO":"５６５號","E_COORD97":171219.13003,"N_COORD97":2551060.42429,"ADDRESS":"長和路一段５６５號","OBJECTID":3997},"geometry":{"x":171219.13002999872,"y":2551060.4242920019}},{"attributes":{"ID":3998,"DIS_CODE":0,"TOWNNAME":"安南區","LI":"東和里","LIN":"7鄰","STREET":"長和路","SECT":"一段","MAREA":" ","LANE":" ","ALLEY":" ","HOUSE_NO":"５６３號","E_COORD97":171221.840478,"N_COORD97":2551056.6738300002,"ADDRESS":"長和路一段５６３號","OBJECTID":3998},"geometry":{"x":171221.84047800023,"y":2551056.6738260016}},{"attributes":{"ID":3999,"DIS_CODE":0,"TOWNNAME":"仁德區","LI":"太子里","LIN":"34鄰","STREET":"土庫路","SECT":" ","MAREA":" ","LANE":" ","ALLEY":" ","HOUSE_NO":"３３號","E_COORD97":174212.73164099999,"N_COORD97":2543395.16634,"ADDRESS":"土庫路３３號","OBJECTID":3999},"geometry":{"x":174212.731641002,"y":2543395.1663399991}},{"attributes":{"ID":4000,"DIS_CODE":0,"TOWNNAME":"東區","LI":"龍山里","LIN":"10鄰","STREET":"府東街","SECT":" ","MAREA":" ","LANE":" ","ALLEY":" ","HOUSE_NO":"４６號","E_COORD97":169980.34214600001,"N_COORD97":2542913.8554799999,"ADDRESS":"府東街４６號","OBJECTID":4000},"geometry":{"x":169980.34214600176,"y":2542913.8554779999}}]}