{"displayFieldName":"TOWNNAME","fieldAliases":{"ID":"ID","DIS_CODE":"DIS_CODE","TOWNNAME":"TOWNNAME","LI":"LI","LIN":"LIN","STREET":"STREET","SECT":"SECT","MAREA":"MAREA","LANE":"LANE","ALLEY":"ALLEY","HOUSE_NO":"HOUSE_NO","E_COORD97":"E_COORD97","N_COORD97":"N_COORD97","ADDRESS":"ADDRESS","OBJECTID":"OBJECTID"},"geometryType":"esriGeometryPoint","spatialReference":{"wkid":102443,"latestWkid":3826},"fields":[{"name":"ID","type":"esriFieldTypeDouble","alias":"ID"},{"name":"DIS_CODE","type":"esriFieldTypeInteger","alias":"DIS_CODE"},{"name":"TOWNNAME","type":"esriFieldTypeString","alias":"TOWNNAME","length":8},{"name":"LI","type":"esriFieldTypeString","alias":"LI","length":8},{"name":"LIN","type":"esriFieldTypeString","alias":"LIN","length":12},{"name":"STREET","type":"esriFieldTypeString","alias":"STREET","length":20},{"name":"SECT","type":"esriFieldTypeString","alias":"SECT","length":8},{"name":"MAREA","type":"esriFieldTypeString","alias":"MAREA","length":12},{"name":"LANE","type":"esriFieldTypeString","alias":"LANE","length":10},{"name":"ALLEY","type":"esriFieldTypeString","alias":"ALLEY","length":10},{"name":"HOUSE_NO","type":"esriFieldTypeString","alias":"HOUSE_NO","length":20},{"name":"E_COORD97","type":"esriFieldTypeDouble","alias":"E_COORD97"},{"name":"N_COORD97","type":"esriFieldTypeDouble","alias":"N_COORD97"},{"name":"ADDRESS","type":"esriFieldTypeString","alias":"ADDRESS","length":50},{"name":"OBJECTID","type":"esriFieldTypeOID","alias":"OBJECTID"}],"features":[{"attributes":{"ID":220002,"DIS_CODE":0,"TOWNNAME":"南區","LI":"大忠里","LIN":"23鄰","STREET":"中華南路","SECT":"一段","MAREA":" ","LANE":"１７５巷","ALLEY":"１０弄","HOUSE_NO":"２８號","E_COORD97":169075.37,"N_COORD97":2541097.0899999999,"ADDRESS":"中華南路一段１７５巷１０弄２８號","OBJECTID":220001},"geometry":{"x":169075.36999999918,"y":2541097.0899999999}},{"attributes":{"ID":220003,"DIS_CODE":0,"TOWNNAME":"永康區","LI":"東灣里","LIN":"28鄰","STREET":"民族路","SECT":" ","MAREA":" ","LANE":" ","ALLEY":" ","HOUSE_NO":"１４７號","E_COORD97":175308.53,"N_COORD97":2544819.02,"ADDRESS":"民族路１４７號","OBJECTID":220002},"geometry":{"x":175308.53000000119,"y":2544819.0199999996}},{"attributes":{"ID":220004,"DIS_CODE":0,"TOWNNAME":"南區","LI":"大忠里","LIN":"23鄰","STREET":"中華南路","SECT":"一段","MAREA":" ","LANE":"１７５巷","ALLEY":"１０弄","HOUSE_NO":"２９號","E_COORD97":169066.31,"N_COORD97":2541070.2599999998,"ADDRESS":"中華南路一段１７５巷１０弄２９號","OBJECTID":220003},"geometry":{"x":169066.30999999959,"y":2541070.2600000016}},{"attributes":{"ID":220005,"DIS_CODE":0,"TOWNNAME":"南區","LI":"大忠里","LIN":"23鄰","STREET":"中華南路","SECT":"一段","MAREA":" ","LANE":"１７５巷","ALLEY":"１０弄","HOUSE_NO":"３０號","E_COORD97":169070.32000000001,"N_COORD97":2541094.5,"ADDRESS":"中華南路一段１７５巷１０弄３０號","OBJECTID":220004},"geometry":{"x":169070.3200000003,"y":2541094.5}},{"attributes":{"ID":220006,"DIS_CODE":0,"TOWNNAME":"永康區","LI":"東灣里","LIN":"28鄰","STREET":"民族路","SECT":" ","MAREA":" ","LANE":" ","ALLEY":" ","HOUSE_NO":"１４９號","E_COORD97":175304.48000000001,"N_COORD97":2544823.77,"ADDRESS":"民族路１４９號","OBJECTID":220005},"geometry":{"x":175304.48000000045,"y":2544823.7699999996}},{"attributes":{"ID":220007,"DIS_CODE":0,"TOWNNAME":"南區","LI":"大忠里","LIN":"23鄰","STREET":"中華南路","SECT":"一段","MAREA":" ","LANE":"１７５巷","ALLEY":"１０弄","HOUSE_NO":"３２號","E_COORD97":169064,"N_COORD97":2541096.9399999999,"ADDRESS":"中華南路一段１７５巷１０弄３２號","OBJECTID":220006},"geometry":{"x":169064,"y":2541096.9399999995}},{"attributes":{"ID":220008,"DIS_CODE":0,"TOWNNAME":"安定區","LI":"中沙里","LIN":"4鄰","STREET":" ","SECT":" ","MAREA":"中崙","LANE":" ","ALLEY":" ","HOUSE_NO":"１８０號","E_COORD97":169193.81,"N_COORD97":2552980.25,"ADDRESS":"中崙１８０號","OBJECTID":220007},"geometry":{"x":169193.80999999959,"y":2552980.2500000019}},{"attributes":{"ID":220009,"DIS_CODE":0,"TOWNNAME":"安定區","LI":"港尾里","LIN":"18鄰","STREET":" ","SECT":" ","MAREA":"港子尾","LANE":" ","ALLEY":" ","HOUSE_NO":"１１２號","E_COORD97":171461.94,"N_COORD97":2556151.2599999998,"ADDRESS":"港子尾１１２號","OBJECTID":220008},"geometry":{"x":171461.94000000041,"y":2556151.2600000016}},{"attributes":{"ID":220010,"DIS_CODE":0,"TOWNNAME":"南區","LI":"大忠里","LIN":"23鄰","STREET":"中華南路","SECT":"一段","MAREA":" ","LANE":"１７５巷","ALLEY":"１０弄","HOUSE_NO":"３６號","E_COORD97":169058.48000000001,"N_COORD97":2541094.9900000002,"ADDRESS":"中華南路一段１７５巷１０弄３６號","OBJECTID":220009},"geometry":{"x":169058.48000000138,"y":2541094.9900000002}},{"attributes":{"ID":220011,"DIS_CODE":0,"TOWNNAME":"安定區","LI":"港口里","LIN":"20鄰","STREET":" ","SECT":" ","MAREA":"港口","LANE":" ","ALLEY":" ","HOUSE_NO":"３９９之４０號","E_COORD97":171530.94,"N_COORD97":2554903.2999999998,"ADDRESS":"港口３９９之４０號","OBJECTID":220010},"geometry":{"x":171530.94000000041,"y":2554903.3000000026}},{"attributes":{"ID":220012,"DIS_CODE":0,"TOWNNAME":"永康區","LI":"南灣里","LIN":"28鄰","STREET":"南灣街","SECT":" ","MAREA":" ","LANE":" ","ALLEY":" ","HOUSE_NO":"３１號","E_COORD97":174538.42000000001,"N_COORD97":2544899.1200000001,"ADDRESS":"南灣街３１號","OBJECTID":220011},"geometry":{"x":174538.41999999899,"y":2544899.1200000048}},{"attributes":{"ID":220013,"DIS_CODE":0,"TOWNNAME":"安定區","LI":"管寮里","LIN":"13鄰","STREET":" ","SECT":" ","MAREA":"管寮","LANE":" ","ALLEY":" ","HOUSE_NO":"１２３之６號","E_COORD97":170052.39000000001,"N_COORD97":2556303.2999999998,"ADDRESS":"管寮１２３之６號","OBJECTID":220012},"geometry":{"x":170052.38999999966,"y":2556303.3000000026}},{"attributes":{"ID":220014,"DIS_CODE":0,"TOWNNAME":"安定區","LI":"蘇厝里","LIN":"13鄰","STREET":" ","SECT":" ","MAREA":"蘇厝","LANE":" ","ALLEY":" ","HOUSE_NO":"４０３號","E_COORD97":173041.82000000001,"N_COORD97":2558741.25,"ADDRESS":"蘇厝４０３號","OBJECTID":220013},"geometry":{"x":173041.82000000123,"y":2558741.2500000019}},{"attributes":{"ID":220015,"DIS_CODE":0,"TOWNNAME":"永康區","LI":"東灣里","LIN":"28鄰","STREET":"民族路","SECT":" ","MAREA":" ","LANE":" ","ALLEY":" ","HOUSE_NO":"１５７號","E_COORD97":175294.03,"N_COORD97":2544835.77,"ADDRESS":"民族路１５７號","OBJECTID":220014},"geometry":{"x":175294.03000000026,"y":2544835.7700000033}},{"attributes":{"ID":220016,"DIS_CODE":0,"TOWNNAME":"南區","LI":"大忠里","LIN":"23鄰","STREET":"中華南路","SECT":"一段","MAREA":" ","LANE":"１７５巷","ALLEY":"１０弄","HOUSE_NO":"３８號","E_COORD97":169054.51999999999,"N_COORD97":2541091.04,"ADDRESS":"中華南路一段１７５巷１０弄３８號","OBJECTID":220015},"geometry":{"x":169054.51999999955,"y":2541091.040000001}},{"attributes":{"ID":220017,"DIS_CODE":0,"TOWNNAME":"永康區","LI":"東灣里","LIN":"28鄰","STREET":"民族路","SECT":" ","MAREA":" ","LANE":" ","ALLEY":" ","HOUSE_NO":"１７３號","E_COORD97":175272.48000000001,"N_COORD97":2544860.7799999998,"ADDRESS":"民族路１７３號","OBJECTID":220016},"geometry":{"x":175272.48000000045,"y":2544860.7799999993}},{"attributes":{"ID":220018,"DIS_CODE":0,"TOWNNAME":"安定區","LI":"南安里","LIN":"4鄰","STREET":" ","SECT":" ","MAREA":"油車","LANE":" ","ALLEY":" ","HOUSE_NO":"３８之１號","E_COORD97":170733.14000000001,"N_COORD97":2555539.2999999998,"ADDRESS":"油車３８之１號","OBJECTID":220017},"geometry":{"x":170733.1400000006,"y":2555539.3000000007}},{"attributes":{"ID":220019,"DIS_CODE":0,"TOWNNAME":"安定區","LI":"海寮里","LIN":"4鄰","STREET":" ","SECT":" ","MAREA":"海寮","LANE":" ","ALLEY":" ","HOUSE_NO":"４０之１號","E_COORD97":169555.09,"N_COORD97":2555335.2999999998,"ADDRESS":"海寮４０之１號","OBJECTID":220018},"geometry":{"x":169555.09000000171,"y":2555335.3000000007}},{"attributes":{"ID":220020,"DIS_CODE":0,"TOWNNAME":"永康區","LI":"東灣里","LIN":"28鄰","STREET":"民族路","SECT":" ","MAREA":" ","LANE":" ","ALLEY":" ","HOUSE_NO":"１７７號","E_COORD97":175266.95999999999,"N_COORD97":2544867.2799999998,"ADDRESS":"民族路１７７號","OBJECTID":220019},"geometry":{"x":175266.95999999996,"y":2544867.2800000012}},{"attributes":{"ID":220021,"DIS_CODE":0,"TOWNNAME":"南區","LI":"大忠里","LIN":"23鄰","STREET":"中華南路","SECT":"一段","MAREA":" ","LANE":"１７５巷","ALLEY":"１０弄","HOUSE_NO":"４０號","E_COORD97":169050.39000000001,"N_COORD97":2541086.8700000001,"ADDRESS":"中華南路一段１７５巷１０弄４０號","OBJECTID":220020},"geometry":{"x":169050.38999999966,"y":2541086.8700000048}},{"attributes":{"ID":220022,"DIS_CODE":0,"TOWNNAME":"南區","LI":"建南里","LIN":"23鄰","STREET":"永成路","SECT":"二段","MAREA":" ","LANE":"８２７巷","ALLEY":"２５弄","HOUSE_NO":"６９號","E_COORD97":167432.47,"N_COORD97":2539981.9199999999,"ADDRESS":"永成路二段８２７巷２５弄６９號","OBJECTID":220021},"geometry":{"x":167432.47000000067,"y":2539981.9199999999}},{"attributes":{"ID":220023,"DIS_CODE":0,"TOWNNAME":"南區","LI":"建南里","LIN":"23鄰","STREET":"永成路","SECT":"二段","MAREA":" ","LANE":"８２７巷","ALLEY":"２５弄","HOUSE_NO":"７１號","E_COORD97":167434.92999999999,"N_COORD97":2539975.9900000002,"ADDRESS":"永成路二段８２７巷２５弄７１號","OBJECTID":220022},"geometry":{"x":167434.9299999997,"y":2539975.9900000002}},{"attributes":{"ID":220024,"DIS_CODE":0,"TOWNNAME":"安定區","LI":"港尾里","LIN":"4鄰","STREET":" ","SECT":" ","MAREA":"港子尾","LANE":" ","ALLEY":" ","HOUSE_NO":"１８號","E_COORD97":171589.98999999999,"N_COORD97":2556090.2599999998,"ADDRESS":"港子尾１８號","OBJECTID":220023},"geometry":{"x":171589.99000000022,"y":2556090.2600000016}},{"attributes":{"ID":220025,"DIS_CODE":0,"TOWNNAME":"東區","LI":"小東里","LIN":"23鄰","STREET":"光明街","SECT":" ","MAREA":" ","LANE":"２０１巷","ALLEY":"２３弄","HOUSE_NO":"５號","E_COORD97":171006.91,"N_COORD97":2544085.6200000001,"ADDRESS":"光明街２０１巷２３弄５號","OBJECTID":220024},"geometry":{"x":171006.91000000015,"y":2544085.6200000048}},{"attributes":{"ID":220026,"DIS_CODE":0,"TOWNNAME":"永康區","LI":"東灣里","LIN":"28鄰","STREET":"民族路","SECT":" ","MAREA":" ","LANE":" ","ALLEY":" ","HOUSE_NO":"１６９號","E_COORD97":175277.64000000001,"N_COORD97":2544854.7799999998,"ADDRESS":"民族路１６９號","OBJECTID":220025},"geometry":{"x":175277.64000000153,"y":2544854.7799999993}},{"attributes":{"ID":220027,"DIS_CODE":0,"TOWNNAME":"安定區","LI":"港口里","LIN":"20鄰","STREET":" ","SECT":" ","MAREA":"港口","LANE":" ","ALLEY":" ","HOUSE_NO":"３９９之９號","E_COORD97":171596.89000000001,"N_COORD97":2554909.2999999998,"ADDRESS":"港口３９９之９號","OBJECTID":220026},"geometry":{"x":171596.88999999966,"y":2554909.2999999989}},{"attributes":{"ID":220028,"DIS_CODE":0,"TOWNNAME":"安定區","LI":"海寮里","LIN":"20鄰","STREET":" ","SECT":" ","MAREA":"海寮","LANE":" ","ALLEY":" ","HOUSE_NO":"１９０號","E_COORD97":169487.73999999999,"N_COORD97":2555500.25,"ADDRESS":"海寮１９０號","OBJECTID":220027},"geometry":{"x":169487.74000000022,"y":2555500.2500000019}},{"attributes":{"ID":220029,"DIS_CODE":0,"TOWNNAME":"安定區","LI":"港口里","LIN":"20鄰","STREET":" ","SECT":" ","MAREA":"港口","LANE":" ","ALLEY":" ","HOUSE_NO":"３９９之２２號","E_COORD97":171590.84,"N_COORD97":2554938.2999999998,"ADDRESS":"港口３９９之２２號","OBJECTID":220028},"geometry":{"x":171590.83999999985,"y":2554938.3000000026}},{"attributes":{"ID":220030,"DIS_CODE":0,"TOWNNAME":"安定區","LI":"港口里","LIN":"20鄰","STREET":" ","SECT":" ","MAREA":"港口","LANE":" ","ALLEY":" ","HOUSE_NO":"３９９之２７號","E_COORD97":171575.04000000001,"N_COORD97":2554930.2999999998,"ADDRESS":"港口３９９之２７號","OBJECTID":220029},"geometry":{"x":171575.04000000097,"y":2554930.3000000026}},{"attributes":{"ID":220031,"DIS_CODE":0,"TOWNNAME":"安定區","LI":"港口里","LIN":"14鄰","STREET":" ","SECT":" ","MAREA":"港口","LANE":" ","ALLEY":" ","HOUSE_NO":"３３４號之１","E_COORD97":171189.53,"N_COORD97":2554751.2999999998,"ADDRESS":"港口３３４號之１","OBJECTID":220030},"geometry":{"x":171189.53000000026,"y":2554751.3000000026}},{"attributes":{"ID":220032,"DIS_CODE":0,"TOWNNAME":"安南區","LI":"\u25A0南里","LIN":"28鄰","STREET":"安昌街","SECT":" ","MAREA":" ","LANE":" ","ALLEY":" ","HOUSE_NO":"３２０號","E_COORD97":170194.23999999999,"N_COORD97":2552824.8100000001,"ADDRESS":"安昌街３２０號","OBJECTID":220031},"geometry":{"x":170194.24000000115,"y":2552824.8100000024}},{"attributes":{"ID":220033,"DIS_CODE":0,"TOWNNAME":"東區","LI":"小東里","LIN":"23鄰","STREET":"光明街","SECT":" ","MAREA":" ","LANE":"２０１巷","ALLEY":"２３弄","HOUSE_NO":"７號","E_COORD97":171006.91,"N_COORD97":2544090.9500000002,"ADDRESS":"光明街２０１巷２３弄７號","OBJECTID":220032},"geometry":{"x":171006.91000000015,"y":2544090.9499999993}},{"attributes":{"ID":220034,"DIS_CODE":0,"TOWNNAME":"東區","LI":"小東里","LIN":"23鄰","STREET":"光明街","SECT":" ","MAREA":" ","LANE":"２０１巷","ALLEY":"２３弄","HOUSE_NO":"９號","E_COORD97":171006.12,"N_COORD97":2544095.3300000001,"ADDRESS":"光明街２０１巷２３弄９號","OBJECTID":220033},"geometry":{"x":171006.12000000011,"y":2544095.3300000001}},{"attributes":{"ID":220035,"DIS_CODE":0,"TOWNNAME":"東區","LI":"小東里","LIN":"23鄰","STREET":"光明街","SECT":" ","MAREA":" ","LANE":"２０１巷","ALLEY":"９弄","HOUSE_NO":"２號","E_COORD97":170974.92000000001,"N_COORD97":2544076.8500000001,"ADDRESS":"光明街２０１巷９弄２號","OBJECTID":220034},"geometry":{"x":170974.91999999993,"y":2544076.8500000015}},{"attributes":{"ID":220036,"DIS_CODE":0,"TOWNNAME":"東區","LI":"小東里","LIN":"23鄰","STREET":"光明街","SECT":" ","MAREA":" ","LANE":"２０１巷","ALLEY":"９弄","HOUSE_NO":"４號","E_COORD97":170975.54999999999,"N_COORD97":2544081.0800000001,"ADDRESS":"光明街２０１巷９弄４號","OBJECTID":220035},"geometry":{"x":170975.54999999981,"y":2544081.0800000001}},{"attributes":{"ID":220037,"DIS_CODE":0,"TOWNNAME":"東區","LI":"小東里","LIN":"23鄰","STREET":"光明街","SECT":" ","MAREA":" ","LANE":"２０１巷","ALLEY":"９弄","HOUSE_NO":"６號","E_COORD97":170975.54999999999,"N_COORD97":2544086.0899999999,"ADDRESS":"光明街２０１巷９弄６號","OBJECTID":220036},"geometry":{"x":170975.54999999981,"y":2544086.0900000017}},{"attributes":{"ID":220038,"DIS_CODE":0,"TOWNNAME":"安南區","LI":"海東里","LIN":"23鄰","STREET":"同安路","SECT":" ","MAREA":" ","LANE":"１４５巷","ALLEY":"２０弄","HOUSE_NO":"２號之１","E_COORD97":167005.57000000001,"N_COORD97":2549112.3700000001,"ADDRESS":"同安路１４５巷２０弄２號之１","OBJECTID":220037},"geometry":{"x":167005.5700000003,"y":2549112.3700000029}},{"attributes":{"ID":220039,"DIS_CODE":0,"TOWNNAME":"仁德區","LI":"土庫里","LIN":"23鄰","STREET":"太子路","SECT":" ","MAREA":" ","LANE":"１７９巷","ALLEY":"１１弄","HOUSE_NO":"１號","E_COORD97":174435.76999999999,"N_COORD97":2543450.2599999998,"ADDRESS":"太子路１７９巷１１弄１號","OBJECTID":220038},"geometry":{"x":174435.77000000142,"y":2543450.2600000016}},{"attributes":{"ID":220040,"DIS_CODE":0,"TOWNNAME":"仁德區","LI":"土庫里","LIN":"23鄰","STREET":"太子路","SECT":" ","MAREA":" ","LANE":"１７９巷","ALLEY":"１１弄","HOUSE_NO":"１６號","E_COORD97":174456.07000000001,"N_COORD97":2543363,"ADDRESS":"太子路１７９巷１１弄１６號","OBJECTID":220039},"geometry":{"x":174456.0700000003,"y":2543363.0000000037}},{"attributes":{"ID":220041,"DIS_CODE":0,"TOWNNAME":"仁德區","LI":"大甲里","LIN":"23鄰","STREET":"中正西路","SECT":" ","MAREA":" ","LANE":"１１９６巷","ALLEY":"５５０弄","HOUSE_NO":"１３０號","E_COORD97":169205.28,"N_COORD97":2536465.5,"ADDRESS":"中正西路１１９６巷５５０弄１３０號","OBJECTID":220040},"geometry":{"x":169205.28000000119,"y":2536465.5}},{"attributes":{"ID":220042,"DIS_CODE":0,"TOWNNAME":"東區","LI":"小東里","LIN":"23鄰","STREET":"光明街","SECT":" ","MAREA":" ","LANE":"２０１巷","ALLEY":"９弄","HOUSE_NO":"８號","E_COORD97":170975.85999999999,"N_COORD97":2544090.48,"ADDRESS":"光明街２０１巷９弄８號","OBJECTID":220041},"geometry":{"x":170975.86000000034,"y":2544090.4800000023}},{"attributes":{"ID":220043,"DIS_CODE":0,"TOWNNAME":"東區","LI":"小東里","LIN":"23鄰","STREET":"光明街","SECT":" ","MAREA":" ","LANE":"２０１巷","ALLEY":"９弄","HOUSE_NO":"１０號","E_COORD97":170975.54999999999,"N_COORD97":2544094.8599999999,"ADDRESS":"光明街２０１巷９弄１０號","OBJECTID":220042},"geometry":{"x":170975.54999999981,"y":2544094.8599999994}},{"attributes":{"ID":220044,"DIS_CODE":0,"TOWNNAME":"東區","LI":"小東里","LIN":"23鄰","STREET":"光明街","SECT":" ","MAREA":" ","LANE":"２０１巷","ALLEY":"９弄","HOUSE_NO":"１號","E_COORD97":170963.14999999999,"N_COORD97":2544071.6800000002,"ADDRESS":"光明街２０１巷９弄１號","OBJECTID":220043},"geometry":{"x":170963.15000000037,"y":2544071.6800000016}},{"attributes":{"ID":220045,"DIS_CODE":0,"TOWNNAME":"東區","LI":"衛國里","LIN":"23鄰","STREET":"林森路","SECT":"二段","MAREA":" ","LANE":"１９０巷","ALLEY":"１１弄","HOUSE_NO":"１０號","E_COORD97":170514.12,"N_COORD97":2543248.6600000001,"ADDRESS":"林森路二段１９０巷１１弄１０號","OBJECTID":220044},"geometry":{"x":170514.12000000011,"y":2543248.6600000001}},{"attributes":{"ID":220046,"DIS_CODE":0,"TOWNNAME":"東區","LI":"衛國里","LIN":"23鄰","STREET":"林森路","SECT":"二段","MAREA":" ","LANE":"１９０巷","ALLEY":"１１弄","HOUSE_NO":"１２號","E_COORD97":170516.04000000001,"N_COORD97":2543238.6899999999,"ADDRESS":"林森路二段１９０巷１１弄１２號","OBJECTID":220045},"geometry":{"x":170516.04000000004,"y":2543238.6899999995}},{"attributes":{"ID":220047,"DIS_CODE":0,"TOWNNAME":"東區","LI":"衛國里","LIN":"23鄰","STREET":"林森路","SECT":"二段","MAREA":" ","LANE":"１９０巷","ALLEY":"１１弄","HOUSE_NO":"１３號","E_COORD97":170526.45000000001,"N_COORD97":2543251.5299999998,"ADDRESS":"林森路二段１９０巷１１弄１３號","OBJECTID":220046},"geometry":{"x":170526.45000000112,"y":2543251.5300000012}},{"attributes":{"ID":220048,"DIS_CODE":0,"TOWNNAME":"東區","LI":"衛國里","LIN":"23鄰","STREET":"林森路","SECT":"二段","MAREA":" ","LANE":"１９０巷","ALLEY":"１１弄","HOUSE_NO":"１４號","E_COORD97":170516.81,"N_COORD97":2543234.6699999999,"ADDRESS":"林森路二段１９０巷１１弄１４號","OBJECTID":220047},"geometry":{"x":170516.81000000052,"y":2543234.6700000018}},{"attributes":{"ID":220049,"DIS_CODE":0,"TOWNNAME":"東區","LI":"衛國里","LIN":"23鄰","STREET":"林森路","SECT":"二段","MAREA":" ","LANE":"１９０巷","ALLEY":"１１弄","HOUSE_NO":"１５號","E_COORD97":170527.03,"N_COORD97":2543246.5499999998,"ADDRESS":"林森路二段１９０巷１１弄１５號","OBJECTID":220048},"geometry":{"x":170527.03000000026,"y":2543246.5500000026}},{"attributes":{"ID":220050,"DIS_CODE":0,"TOWNNAME":"東區","LI":"衛國里","LIN":"23鄰","STREET":"林森路","SECT":"二段","MAREA":" ","LANE":"１９０巷","ALLEY":"１１弄","HOUSE_NO":"１７號","E_COORD97":170527.98999999999,"N_COORD97":2543239.46,"ADDRESS":"林森路二段１９０巷１１弄１７號","OBJECTID":220049},"geometry":{"x":170527.99000000115,"y":2543239.4600000028}},{"attributes":{"ID":220051,"DIS_CODE":0,"TOWNNAME":"東區","LI":"衛國里","LIN":"23鄰","STREET":"林森路","SECT":"二段","MAREA":" ","LANE":"１９０巷","ALLEY":"１１弄","HOUSE_NO":"１９號","E_COORD97":170536.81,"N_COORD97":2543240.0299999998,"ADDRESS":"林森路二段１９０巷１１弄１９號","OBJECTID":220050},"geometry":{"x":170536.81000000052,"y":2543240.0300000031}},{"attributes":{"ID":220052,"DIS_CODE":0,"TOWNNAME":"東區","LI":"衛國里","LIN":"23鄰","STREET":"林森路","SECT":"二段","MAREA":" ","LANE":"１９０巷","ALLEY":"１１弄","HOUSE_NO":"１號","E_COORD97":170525.39999999999,"N_COORD97":2543279.0299999998,"ADDRESS":"林森路二段１９０巷１１弄１號","OBJECTID":220051},"geometry":{"x":170525.4000000013,"y":2543279.0300000012}},{"attributes":{"ID":220053,"DIS_CODE":0,"TOWNNAME":"東區","LI":"衛國里","LIN":"23鄰","STREET":"林森路","SECT":"二段","MAREA":" ","LANE":"１９０巷","ALLEY":"１１弄","HOUSE_NO":"２０號","E_COORD97":170520.84,"N_COORD97":2543209.75,"ADDRESS":"林森路二段１９０巷１１弄２０號","OBJECTID":220052},"geometry":{"x":170520.83999999985,"y":2543209.7500000019}},{"attributes":{"ID":220054,"DIS_CODE":0,"TOWNNAME":"官田區","LI":"渡頭里","LIN":"28鄰","STREET":" ","SECT":" ","MAREA":"三塊厝","LANE":" ","ALLEY":" ","HOUSE_NO":"１２８號","E_COORD97":182493.12,"N_COORD97":2561709.1899999999,"ADDRESS":"三塊厝１２８號","OBJECTID":220053},"geometry":{"x":182493.12000000104,"y":2561709.1899999995}},{"attributes":{"ID":220055,"DIS_CODE":0,"TOWNNAME":"安定區","LI":"海寮里","LIN":"14鄰","STREET":" ","SECT":" ","MAREA":"海寮","LANE":" ","ALLEY":" ","HOUSE_NO":"１３２號之９２","E_COORD97":169004.95999999999,"N_COORD97":2555363.2999999998,"ADDRESS":"海寮１３２號之９２","OBJECTID":220054},"geometry":{"x":169004.95999999996,"y":2555363.3000000007}},{"attributes":{"ID":220056,"DIS_CODE":0,"TOWNNAME":"安定區","LI":"港口里","LIN":"8鄰","STREET":" ","SECT":" ","MAREA":"港口","LANE":" ","ALLEY":" ","HOUSE_NO":"２９０號之２","E_COORD97":171431.16,"N_COORD97":2554693.2999999998,"ADDRESS":"港口２９０號之２","OBJECTID":220055},"geometry":{"x":171431.16000000015,"y":2554693.3000000026}},{"attributes":{"ID":220057,"DIS_CODE":0,"TOWNNAME":"安定區","LI":"安定里","LIN":"8鄰","STREET":" ","SECT":" ","MAREA":"安定","LANE":" ","ALLEY":" ","HOUSE_NO":"５８號之１１","E_COORD97":171924.85000000001,"N_COORD97":2558015.3199999998,"ADDRESS":"安定５８號之１１","OBJECTID":220056},"geometry":{"x":171924.85000000056,"y":2558015.3200000022}},{"attributes":{"ID":220058,"DIS_CODE":0,"TOWNNAME":"東區","LI":"衛國里","LIN":"23鄰","STREET":"林森路","SECT":"二段","MAREA":" ","LANE":"１９０巷","ALLEY":"１１弄","HOUSE_NO":"２１號","E_COORD97":170542.57000000001,"N_COORD97":2543239.27,"ADDRESS":"林森路二段１９０巷１１弄２１號","OBJECTID":220057},"geometry":{"x":170542.57000000123,"y":2543239.2700000014}},{"attributes":{"ID":220059,"DIS_CODE":0,"TOWNNAME":"安定區","LI":"安定里","LIN":"7鄰","STREET":" ","SECT":" ","MAREA":"安定","LANE":" ","ALLEY":" ","HOUSE_NO":"５２之２３號","E_COORD97":171998.05265999999,"N_COORD97":2558058.3805499999,"ADDRESS":"安定５２之２３號","OBJECTID":220058},"geometry":{"x":171998.05265999958,"y":2558058.3805490043}},{"attributes":{"ID":220060,"DIS_CODE":0,"TOWNNAME":"安定區","LI":"港尾里","LIN":"4鄰","STREET":" ","SECT":" ","MAREA":"港子尾","LANE":" ","ALLEY":" ","HOUSE_NO":"１７號之１","E_COORD97":171577.42999999999,"N_COORD97":2556106.2999999998,"ADDRESS":"港子尾１７號之１","OBJECTID":220059},"geometry":{"x":171577.43000000063,"y":2556106.3000000045}},{"attributes":{"ID":220061,"DIS_CODE":0,"TOWNNAME":"安定區","LI":"港尾里","LIN":"4鄰","STREET":" ","SECT":" ","MAREA":"港子尾","LANE":" ","ALLEY":" ","HOUSE_NO":"１６號之３","E_COORD97":171766.01999999999,"N_COORD97":2556197.2999999998,"ADDRESS":"港子尾１６號之３","OBJECTID":220060},"geometry":{"x":171766.02000000048,"y":2556197.3000000007}},{"attributes":{"ID":220062,"DIS_CODE":0,"TOWNNAME":"東區","LI":"衛國里","LIN":"23鄰","STREET":"林森路","SECT":"二段","MAREA":" ","LANE":"１９０巷","ALLEY":"１１弄","HOUSE_NO":"２３號","E_COORD97":170546.98000000001,"N_COORD97":2543239.6499999999,"ADDRESS":"林森路二段１９０巷１１弄２３號","OBJECTID":220061},"geometry":{"x":170546.98000000138,"y":2543239.6500000004}},{"attributes":{"ID":220063,"DIS_CODE":0,"TOWNNAME":"東區","LI":"成大里","LIN":"28鄰","STREET":"勝利路","SECT":" ","MAREA":" ","LANE":" ","ALLEY":" ","HOUSE_NO":"１７３號","E_COORD97":169832.76000000001,"N_COORD97":2544034.1800000002,"ADDRESS":"勝利路１７３號","OBJECTID":220062},"geometry":{"x":169832.75999999978,"y":2544034.1800000016}},{"attributes":{"ID":220064,"DIS_CODE":0,"TOWNNAME":"東區","LI":"成大里","LIN":"28鄰","STREET":"勝利路","SECT":" ","MAREA":" ","LANE":" ","ALLEY":" ","HOUSE_NO":"１５７號","E_COORD97":169829.88,"N_COORD97":2543994.77,"ADDRESS":"勝利路１５７號","OBJECTID":220063},"geometry":{"x":169829.88000000082,"y":2543994.7700000033}},{"attributes":{"ID":220065,"DIS_CODE":0,"TOWNNAME":"官田區","LI":"渡頭里","LIN":"28鄰","STREET":" ","SECT":" ","MAREA":"三塊厝","LANE":" ","ALLEY":" ","HOUSE_NO":"１２５號","E_COORD97":182433.60999999999,"N_COORD97":2561696.04,"ADDRESS":"三塊厝１２５號","OBJECTID":220064},"geometry":{"x":182433.61000000034,"y":2561696.0399999991}},{"attributes":{"ID":220066,"DIS_CODE":0,"TOWNNAME":"官田區","LI":"渡頭里","LIN":"28鄰","STREET":" ","SECT":" ","MAREA":"三塊厝","LANE":" ","ALLEY":" ","HOUSE_NO":"１２６號","E_COORD97":182508.59,"N_COORD97":2561731.1299999999,"ADDRESS":"三塊厝１２６號","OBJECTID":220065},"geometry":{"x":182508.59000000078,"y":2561731.1300000008}},{"attributes":{"ID":220067,"DIS_CODE":0,"TOWNNAME":"官田區","LI":"渡頭里","LIN":"28鄰","STREET":" ","SECT":" ","MAREA":"三塊厝","LANE":" ","ALLEY":" ","HOUSE_NO":"１２７號","E_COORD97":182528.67000000001,"N_COORD97":2561716.6699999999,"ADDRESS":"三塊厝１２７號","OBJECTID":220066},"geometry":{"x":182528.67000000086,"y":2561716.6699999999}},{"attributes":{"ID":220068,"DIS_CODE":0,"TOWNNAME":"東區","LI":"衛國里","LIN":"23鄰","STREET":"林森路","SECT":"二段","MAREA":" ","LANE":"１９０巷","ALLEY":"１１弄","HOUSE_NO":"２７號","E_COORD97":170534.51000000001,"N_COORD97":2543217.1299999999,"ADDRESS":"林森路二段１９０巷１１弄２７號","OBJECTID":220067},"geometry":{"x":170534.51000000071,"y":2543217.129999999}},{"attributes":{"ID":220069,"DIS_CODE":0,"TOWNNAME":"東區","LI":"衛國里","LIN":"23鄰","STREET":"林森路","SECT":"二段","MAREA":" ","LANE":"１９０巷","ALLEY":"１１弄","HOUSE_NO":"２９號","E_COORD97":170540.84,"N_COORD97":2543218.4700000002,"ADDRESS":"林森路二段１９０巷１１弄２９號","OBJECTID":220068},"geometry":{"x":170540.84000000078,"y":2543218.4700000044}},{"attributes":{"ID":220070,"DIS_CODE":0,"TOWNNAME":"東區","LI":"衛國里","LIN":"23鄰","STREET":"林森路","SECT":"二段","MAREA":" ","LANE":"１９０巷","ALLEY":"１１弄","HOUSE_NO":"３號","E_COORD97":170526.54999999999,"N_COORD97":2543275.5800000001,"ADDRESS":"林森路二段１９０巷１１弄３號","OBJECTID":220069},"geometry":{"x":170526.54999999981,"y":2543275.5800000019}},{"attributes":{"ID":220071,"DIS_CODE":0,"TOWNNAME":"東區","LI":"衛國里","LIN":"23鄰","STREET":"林森路","SECT":"二段","MAREA":" ","LANE":"１９０巷","ALLEY":"１１弄","HOUSE_NO":"５號","E_COORD97":170526.92999999999,"N_COORD97":2543269.6400000001,"ADDRESS":"林森路二段１９０巷１１弄５號","OBJECTID":220070},"geometry":{"x":170526.9299999997,"y":2543269.6400000006}},{"attributes":{"ID":220072,"DIS_CODE":0,"TOWNNAME":"東區","LI":"衛國里","LIN":"23鄰","STREET":"林森路","SECT":"二段","MAREA":" ","LANE":"１９０巷","ALLEY":"１１弄","HOUSE_NO":"７號","E_COORD97":170527.89000000001,"N_COORD97":2543266.1899999999,"ADDRESS":"林森路二段１９０巷１１弄７號","OBJECTID":220071},"geometry":{"x":170527.8900000006,"y":2543266.1899999976}},{"attributes":{"ID":220073,"DIS_CODE":0,"TOWNNAME":"東區","LI":"衛國里","LIN":"23鄰","STREET":"林森路","SECT":"二段","MAREA":" ","LANE":"１９０巷","ALLEY":"６弄","HOUSE_NO":"１１號","E_COORD97":170507.60000000001,"N_COORD97":2543238.1200000001,"ADDRESS":"林森路二段１９０巷６弄１１號","OBJECTID":220072},"geometry":{"x":170507.60000000149,"y":2543238.1200000048}},{"attributes":{"ID":220074,"DIS_CODE":0,"TOWNNAME":"東區","LI":"衛國里","LIN":"23鄰","STREET":"林森路","SECT":"二段","MAREA":" ","LANE":"１９０巷","ALLEY":"６弄","HOUSE_NO":"１３號","E_COORD97":170514.70000000001,"N_COORD97":2543222.98,"ADDRESS":"林森路二段１９０巷６弄１３號","OBJECTID":220073},"geometry":{"x":170514.70000000112,"y":2543222.9800000023}},{"attributes":{"ID":220075,"DIS_CODE":0,"TOWNNAME":"東區","LI":"衛國里","LIN":"23鄰","STREET":"林森路","SECT":"二段","MAREA":" ","LANE":"１９０巷","ALLEY":"６弄","HOUSE_NO":"１５號","E_COORD97":170512.78,"N_COORD97":2543209.1800000002,"ADDRESS":"林森路二段１９０巷６弄１５號","OBJECTID":220074},"geometry":{"x":170512.78000000119,"y":2543209.1800000034}},{"attributes":{"ID":220076,"DIS_CODE":0,"TOWNNAME":"東區","LI":"崇善里","LIN":"5鄰","STREET":"崇善路","SECT":" ","MAREA":" ","LANE":" ","ALLEY":" ","HOUSE_NO":"５３７號","E_COORD97":171002.37,"N_COORD97":2541566.8900000001,"ADDRESS":"崇善路５３７號","OBJECTID":220075},"geometry":{"x":171002.37000000011,"y":2541566.8900000006}},{"attributes":{"ID":220077,"DIS_CODE":0,"TOWNNAME":"東區","LI":"衛國里","LIN":"23鄰","STREET":"林森路","SECT":"二段","MAREA":" ","LANE":"１９０巷","ALLEY":"６弄","HOUSE_NO":"１７號","E_COORD97":170515.60000000001,"N_COORD97":2543198.8300000001,"ADDRESS":"林森路二段１９０巷６弄１７號","OBJECTID":220076},"geometry":{"x":170515.59999999963,"y":2543198.8300000019}},{"attributes":{"ID":220078,"DIS_CODE":0,"TOWNNAME":"東區","LI":"衛國里","LIN":"23鄰","STREET":"林森路","SECT":"二段","MAREA":" ","LANE":"１９０巷","ALLEY":"６弄","HOUSE_NO":"１９號","E_COORD97":170520.45000000001,"N_COORD97":2543186.4700000002,"ADDRESS":"林森路二段１９０巷６弄１９號","OBJECTID":220077},"geometry":{"x":170520.45000000019,"y":2543186.4700000007}},{"attributes":{"ID":220079,"DIS_CODE":0,"TOWNNAME":"東區","LI":"衛國里","LIN":"23鄰","STREET":"林森路","SECT":"二段","MAREA":" ","LANE":"１９０巷","ALLEY":"６弄","HOUSE_NO":"９號","E_COORD97":170507.60000000001,"N_COORD97":2543244.6200000001,"ADDRESS":"林森路二段１９０巷６弄９號","OBJECTID":220078},"geometry":{"x":170507.60000000149,"y":2543244.6200000048}},{"attributes":{"ID":220080,"DIS_CODE":0,"TOWNNAME":"永康區","LI":"安康里","LIN":"23鄰","STREET":"中華路","SECT":" ","MAREA":" ","LANE":"７０３巷","ALLEY":"３弄","HOUSE_NO":"４號","E_COORD97":170873.92999999999,"N_COORD97":2546294.7400000002,"ADDRESS":"中華路７０３巷３弄４號","OBJECTID":220079},"geometry":{"x":170873.93000000063,"y":2546294.7400000021}},{"attributes":{"ID":220081,"DIS_CODE":0,"TOWNNAME":"永康區","LI":"西橋里","LIN":"23鄰","STREET":"大橋三街","SECT":" ","MAREA":" ","LANE":"５７巷","ALLEY":"１９弄","HOUSE_NO":"７６號","E_COORD97":170438.09,"N_COORD97":2546490.9500000002,"ADDRESS":"大橋三街５７巷１９弄７６號","OBJECTID":220080},"geometry":{"x":170438.08999999985,"y":2546490.9499999993}},{"attributes":{"ID":220082,"DIS_CODE":0,"TOWNNAME":"永康區","LI":"西橋里","LIN":"23鄰","STREET":"大橋三街","SECT":" ","MAREA":" ","LANE":"５７巷","ALLEY":"１９弄","HOUSE_NO":"８２號","E_COORD97":170419.89999999999,"N_COORD97":2546504.4500000002,"ADDRESS":"大橋三街５７巷１９弄８２號","OBJECTID":220081},"geometry":{"x":170419.90000000224,"y":2546504.4499999993}},{"attributes":{"ID":220083,"DIS_CODE":0,"TOWNNAME":"永康區","LI":"西橋里","LIN":"23鄰","STREET":"大橋三街","SECT":" ","MAREA":" ","LANE":"５７巷","ALLEY":"１９弄","HOUSE_NO":"７８號","E_COORD97":170426.87,"N_COORD97":2546498.9500000002,"ADDRESS":"大橋三街５７巷１９弄７８號","OBJECTID":220082},"geometry":{"x":170426.87000000104,"y":2546498.950000003}},{"attributes":{"ID":220084,"DIS_CODE":0,"TOWNNAME":"永康區","LI":"安康里","LIN":"23鄰","STREET":"中華路","SECT":" ","MAREA":" ","LANE":"７０３巷","ALLEY":"７１弄","HOUSE_NO":"２６號","E_COORD97":170792.88,"N_COORD97":2546216.25,"ADDRESS":"中華路７０３巷７１弄２６號","OBJECTID":220083},"geometry":{"x":170792.88000000082,"y":2546216.2500000037}},{"attributes":{"ID":220085,"DIS_CODE":0,"TOWNNAME":"官田區","LI":"渡頭里","LIN":"28鄰","STREET":" ","SECT":" ","MAREA":"三塊厝","LANE":" ","ALLEY":" ","HOUSE_NO":"１２８號之１","E_COORD97":182540.84,"N_COORD97":2561702.6400000001,"ADDRESS":"三塊厝１２８號之１","OBJECTID":220084},"geometry":{"x":182540.84000000078,"y":2561702.6400000025}},{"attributes":{"ID":220086,"DIS_CODE":0,"TOWNNAME":"官田區","LI":"渡頭里","LIN":"28鄰","STREET":" ","SECT":" ","MAREA":"三塊厝","LANE":" ","ALLEY":" ","HOUSE_NO":"１３０號","E_COORD97":182540.63,"N_COORD97":2561748.1400000001,"ADDRESS":"三塊厝１３０號","OBJECTID":220085},"geometry":{"x":182540.63000000082,"y":2561748.1400000006}},{"attributes":{"ID":220087,"DIS_CODE":0,"TOWNNAME":"官田區","LI":"渡頭里","LIN":"28鄰","STREET":" ","SECT":" ","MAREA":"三塊厝","LANE":" ","ALLEY":" ","HOUSE_NO":"１３１號","E_COORD97":182556.07000000001,"N_COORD97":2561756.7599999998,"ADDRESS":"三塊厝１３１號","OBJECTID":220086},"geometry":{"x":182556.06999999937,"y":2561756.7599999998}},{"attributes":{"ID":220088,"DIS_CODE":0,"TOWNNAME":"永康區","LI":"安康里","LIN":"23鄰","STREET":"中華路","SECT":" ","MAREA":" ","LANE":"７０３巷","ALLEY":"７１弄","HOUSE_NO":"１６號","E_COORD97":170772.12,"N_COORD97":2546204.25,"ADDRESS":"中華路７０３巷７１弄１６號","OBJECTID":220087},"geometry":{"x":170772.12000000011,"y":2546204.2500000019}},{"attributes":{"ID":220089,"DIS_CODE":0,"TOWNNAME":"東區","LI":"富強里","LIN":"10鄰","STREET":"中華東路","SECT":"二段","MAREA":" ","LANE":" ","ALLEY":" ","HOUSE_NO":"１２６號","E_COORD97":171249.04999999999,"N_COORD97":2542753.8100000001,"ADDRESS":"中華東路二段１２６號","OBJECTID":220088},"geometry":{"x":171249.05000000075,"y":2542753.8100000005}},{"attributes":{"ID":220090,"DIS_CODE":0,"TOWNNAME":"永康區","LI":"東灣里","LIN":"28鄰","STREET":"民族路","SECT":" ","MAREA":" ","LANE":" ","ALLEY":" ","HOUSE_NO":"１５５號","E_COORD97":175296.48000000001,"N_COORD97":2544833.27,"ADDRESS":"民族路１５５號","OBJECTID":220089},"geometry":{"x":175296.48000000231,"y":2544833.2700000014}},{"attributes":{"ID":220091,"DIS_CODE":0,"TOWNNAME":"永康區","LI":"西灣里","LIN":"28鄰","STREET":"永大路","SECT":"二段","MAREA":" ","LANE":" ","ALLEY":" ","HOUSE_NO":"４３５號","E_COORD97":174502.5,"N_COORD97":2545918.4399999999,"ADDRESS":"永大路二段４３５號","OBJECTID":220090},"geometry":{"x":174502.50000000186,"y":2545918.4399999995}},{"attributes":{"ID":220092,"DIS_CODE":0,"TOWNNAME":"永康區","LI":"西灣里","LIN":"28鄰","STREET":"永大路","SECT":"二段","MAREA":" ","LANE":" ","ALLEY":" ","HOUSE_NO":"４５１號","E_COORD97":174503.12,"N_COORD97":2546066.02,"ADDRESS":"永大路二段４５１號","OBJECTID":220091},"geometry":{"x":174503.12000000011,"y":2546066.0200000014}},{"attributes":{"ID":220093,"DIS_CODE":0,"TOWNNAME":"永康區","LI":"南灣里","LIN":"28鄰","STREET":"南灣街","SECT":" ","MAREA":" ","LANE":" ","ALLEY":" ","HOUSE_NO":"２９號","E_COORD97":174550.75,"N_COORD97":2544891.52,"ADDRESS":"南灣街２９號","OBJECTID":220092},"geometry":{"x":174550.75000000093,"y":2544891.5200000033}},{"attributes":{"ID":220094,"DIS_CODE":0,"TOWNNAME":"永康區","LI":"西橋里","LIN":"23鄰","STREET":"大橋三街","SECT":" ","MAREA":" ","LANE":"５７巷","ALLEY":"１９弄","HOUSE_NO":"５６號","E_COORD97":170438.31,"N_COORD97":2546524.21,"ADDRESS":"大橋三街５７巷１９弄５６號","OBJECTID":220093},"geometry":{"x":170438.31000000145,"y":2546524.2100000009}},{"attributes":{"ID":220095,"DIS_CODE":0,"TOWNNAME":"官田區","LI":"渡頭里","LIN":"28鄰","STREET":" ","SECT":" ","MAREA":"三塊厝","LANE":" ","ALLEY":" ","HOUSE_NO":"１３３號","E_COORD97":182553.97,"N_COORD97":2561784.27,"ADDRESS":"三塊厝１３３號","OBJECTID":220094},"geometry":{"x":182553.96999999974,"y":2561784.2700000033}},{"attributes":{"ID":220096,"DIS_CODE":0,"TOWNNAME":"永康區","LI":"安康里","LIN":"23鄰","STREET":"中華路","SECT":" ","MAREA":" ","LANE":"７０３巷","ALLEY":"７１弄","HOUSE_NO":"２２號","E_COORD97":170784.67999999999,"N_COORD97":2546211.5,"ADDRESS":"中華路７０３巷７１弄２２號","OBJECTID":220095},"geometry":{"x":170784.6799999997,"y":2546211.5000000019}},{"attributes":{"ID":220097,"DIS_CODE":0,"TOWNNAME":"永康區","LI":"西橋里","LIN":"23鄰","STREET":"大橋三街","SECT":" ","MAREA":" ","LANE":"５７巷","ALLEY":"１９弄","HOUSE_NO":"７０號","E_COORD97":170443.37,"N_COORD97":2546499.2000000002,"ADDRESS":"大橋三街５７巷１９弄７０號","OBJECTID":220096},"geometry":{"x":170443.36999999918,"y":2546499.1999999993}},{"attributes":{"ID":220098,"DIS_CODE":0,"TOWNNAME":"官田區","LI":"渡頭里","LIN":"28鄰","STREET":" ","SECT":" ","MAREA":"三塊厝","LANE":" ","ALLEY":" ","HOUSE_NO":"１３４號","E_COORD97":182534.38,"N_COORD97":2561781.8999999999,"ADDRESS":"三塊厝１３４號","OBJECTID":220097},"geometry":{"x":182534.37999999989,"y":2561781.9000000022}},{"attributes":{"ID":220099,"DIS_CODE":0,"TOWNNAME":"永康區","LI":"西勢里","LIN":"23鄰","STREET":"富強路","SECT":"一段","MAREA":" ","LANE":"１９４巷","ALLEY":"９４弄","HOUSE_NO":"１２號","E_COORD97":175653.67999999999,"N_COORD97":2546182.27,"ADDRESS":"富強路一段１９４巷９４弄１２號","OBJECTID":220098},"geometry":{"x":175653.68000000156,"y":2546182.2700000014}},{"attributes":{"ID":220100,"DIS_CODE":0,"TOWNNAME":"永康區","LI":"西灣里","LIN":"28鄰","STREET":"永大路","SECT":"二段","MAREA":" ","LANE":" ","ALLEY":" ","HOUSE_NO":"４１１號","E_COORD97":174495.72,"N_COORD97":2545885.52,"ADDRESS":"永大路二段４１１號","OBJECTID":220099},"geometry":{"x":174495.7200000016,"y":2545885.5200000014}},{"attributes":{"ID":220101,"DIS_CODE":0,"TOWNNAME":"永康區","LI":"西橋里","LIN":"23鄰","STREET":"大橋三街","SECT":" ","MAREA":" ","LANE":"５７巷","ALLEY":"１９弄","HOUSE_NO":"６２號","E_COORD97":170451.51999999999,"N_COORD97":2546511.21,"ADDRESS":"大橋三街５７巷１９弄６２號","OBJECTID":220100},"geometry":{"x":170451.51999999955,"y":2546511.2100000009}},{"attributes":{"ID":220102,"DIS_CODE":0,"TOWNNAME":"永康區","LI":"安康里","LIN":"23鄰","STREET":"中華路","SECT":" ","MAREA":" ","LANE":"７０３巷","ALLEY":"３弄","HOUSE_NO":"１４號","E_COORD97":170885.98000000001,"N_COORD97":2546275.4900000002,"ADDRESS":"中華路７０３巷３弄１４號","OBJECTID":220101},"geometry":{"x":170885.98000000138,"y":2546275.4899999984}},{"attributes":{"ID":220103,"DIS_CODE":0,"TOWNNAME":"永康區","LI":"南灣里","LIN":"28鄰","STREET":"南灣街","SECT":" ","MAREA":" ","LANE":" ","ALLEY":" ","HOUSE_NO":"３５號","E_COORD97":174536.64000000001,"N_COORD97":2544915.4300000002,"ADDRESS":"南灣街３５號","OBJECTID":220102},"geometry":{"x":174536.63999999873,"y":2544915.4299999997}},{"attributes":{"ID":220104,"DIS_CODE":0,"TOWNNAME":"永康區","LI":"安康里","LIN":"23鄰","STREET":"中華路","SECT":" ","MAREA":" ","LANE":"７０３巷","ALLEY":"３弄","HOUSE_NO":"２６號","E_COORD97":170898.38,"N_COORD97":2546252.7400000002,"ADDRESS":"中華路７０３巷３弄２６號","OBJECTID":220103},"geometry":{"x":170898.37999999989,"y":2546252.7400000002}},{"attributes":{"ID":220105,"DIS_CODE":0,"TOWNNAME":"官田區","LI":"渡頭里","LIN":"28鄰","STREET":" ","SECT":" ","MAREA":"三塊厝","LANE":" ","ALLEY":" ","HOUSE_NO":"１３５號","E_COORD97":182548.73999999999,"N_COORD97":2561791.9399999999,"ADDRESS":"三塊厝１３５號","OBJECTID":220104},"geometry":{"x":182548.74000000115,"y":2561791.9399999995}},{"attributes":{"ID":220106,"DIS_CODE":0,"TOWNNAME":"永康區","LI":"西橋里","LIN":"23鄰","STREET":"大橋三街","SECT":" ","MAREA":" ","LANE":"５７巷","ALLEY":"１９弄","HOUSE_NO":"６８號","E_COORD97":170446.14000000001,"N_COORD97":2546503.4500000002,"ADDRESS":"大橋三街５７巷１９弄６８號","OBJECTID":220105},"geometry":{"x":170446.13999999873,"y":2546503.4500000011}},{"attributes":{"ID":220107,"DIS_CODE":0,"TOWNNAME":"永康區","LI":"安康里","LIN":"23鄰","STREET":"中華路","SECT":" ","MAREA":" ","LANE":"７０３巷","ALLEY":"３弄","HOUSE_NO":"２２號","E_COORD97":170894.48000000001,"N_COORD97":2546259.9900000002,"ADDRESS":"中華路７０３巷３弄２２號","OBJECTID":220106},"geometry":{"x":170894.48000000138,"y":2546259.9900000021}},{"attributes":{"ID":220108,"DIS_CODE":0,"TOWNNAME":"官田區","LI":"渡頭里","LIN":"28鄰","STREET":" ","SECT":" ","MAREA":"三塊厝","LANE":" ","ALLEY":" ","HOUSE_NO":"１４１號之２","E_COORD97":182995.10999999999,"N_COORD97":2561368.3799999999,"ADDRESS":"三塊厝１４１號之２","OBJECTID":220107},"geometry":{"x":182995.11000000127,"y":2561368.379999999}},{"attributes":{"ID":220109,"DIS_CODE":0,"TOWNNAME":"官田區","LI":"渡頭里","LIN":"28鄰","STREET":" ","SECT":" ","MAREA":"三塊厝","LANE":" ","ALLEY":" ","HOUSE_NO":"１４１號之３","E_COORD97":182979.48999999999,"N_COORD97":2561340.73,"ADDRESS":"三塊厝１４１號之３","OBJECTID":220108},"geometry":{"x":182979.49000000115,"y":2561340.7300000004}},{"attributes":{"ID":220110,"DIS_CODE":0,"TOWNNAME":"官田區","LI":"渡頭里","LIN":"28鄰","STREET":" ","SECT":" ","MAREA":"三塊厝","LANE":" ","ALLEY":" ","HOUSE_NO":"１４１號","E_COORD97":182906.48000000001,"N_COORD97":2561440.6800000002,"ADDRESS":"三塊厝１４１號","OBJECTID":220109},"geometry":{"x":182906.48000000138,"y":2561440.6800000016}},{"attributes":{"ID":220111,"DIS_CODE":0,"TOWNNAME":"永康區","LI":"建國里","LIN":"28鄰","STREET":" ","SECT":" ","MAREA":"慈光九村","LANE":" ","ALLEY":" ","HOUSE_NO":"４３號","E_COORD97":172857.17999999999,"N_COORD97":2544228.6400000001,"ADDRESS":"慈光九村４３號","OBJECTID":220110},"geometry":{"x":172857.18000000063,"y":2544228.6400000025}},{"attributes":{"ID":220112,"DIS_CODE":0,"TOWNNAME":"安定區","LI":"安加里","LIN":"4鄰","STREET":" ","SECT":" ","MAREA":"安定","LANE":" ","ALLEY":" ","HOUSE_NO":"２００之３號","E_COORD97":171775.92000000001,"N_COORD97":2557681.3199999998,"ADDRESS":"安定２００之３號","OBJECTID":220111},"geometry":{"x":171775.92000000086,"y":2557681.3200000003}},{"attributes":{"ID":220113,"DIS_CODE":0,"TOWNNAME":"安定區","LI":"南安里","LIN":"4鄰","STREET":" ","SECT":" ","MAREA":"油車","LANE":" ","ALLEY":" ","HOUSE_NO":"３８之３號","E_COORD97":170723.64000000001,"N_COORD97":2555537.2999999998,"ADDRESS":"油車３８之３號","OBJECTID":220112},"geometry":{"x":170723.63999999966,"y":2555537.3000000026}},{"attributes":{"ID":220114,"DIS_CODE":0,"TOWNNAME":"永康區","LI":"西橋里","LIN":"23鄰","STREET":"大橋三街","SECT":" ","MAREA":" ","LANE":"５７巷","ALLEY":"１９弄","HOUSE_NO":"８０號","E_COORD97":170422.85000000001,"N_COORD97":2546501.9500000002,"ADDRESS":"大橋三街５７巷１９弄８０號","OBJECTID":220113},"geometry":{"x":170422.85000000149,"y":2546501.9499999974}},{"attributes":{"ID":220115,"DIS_CODE":0,"TOWNNAME":"永康區","LI":"西橋里","LIN":"23鄰","STREET":"大橋三街","SECT":" ","MAREA":" ","LANE":"５７巷","ALLEY":"１９弄","HOUSE_NO":"６６號","E_COORD97":170448.98000000001,"N_COORD97":2546507.2000000002,"ADDRESS":"大橋三街５７巷１９弄６６號","OBJECTID":220114},"geometry":{"x":170448.98000000138,"y":2546507.200000003}},{"attributes":{"ID":220116,"DIS_CODE":0,"TOWNNAME":"永康區","LI":"西橋里","LIN":"23鄰","STREET":"大橋三街","SECT":" ","MAREA":" ","LANE":"５７巷","ALLEY":"１９弄","HOUSE_NO":"５０號","E_COORD97":170431.81,"N_COORD97":2546528.71,"ADDRESS":"大橋三街５７巷１９弄５０號","OBJECTID":220115},"geometry":{"x":170431.81000000052,"y":2546528.7100000009}},{"attributes":{"ID":220117,"DIS_CODE":0,"TOWNNAME":"永康區","LI":"西橋里","LIN":"23鄰","STREET":"大橋三街","SECT":" ","MAREA":" ","LANE":"５７巷","ALLEY":"１９弄","HOUSE_NO":"５２號","E_COORD97":170435.17000000001,"N_COORD97":2546526.21,"ADDRESS":"大橋三街５７巷１９弄５２號","OBJECTID":220116},"geometry":{"x":170435.17000000086,"y":2546526.2100000028}},{"attributes":{"ID":220118,"DIS_CODE":0,"TOWNNAME":"永康區","LI":"西橋里","LIN":"23鄰","STREET":"大橋三街","SECT":" ","MAREA":" ","LANE":"５７巷","ALLEY":"１９弄","HOUSE_NO":"９２號","E_COORD97":170425.31,"N_COORD97":2546470.4500000002,"ADDRESS":"大橋三街５７巷１９弄９２號","OBJECTID":220117},"geometry":{"x":170425.31000000052,"y":2546470.4499999993}},{"attributes":{"ID":220119,"DIS_CODE":0,"TOWNNAME":"永康區","LI":"安康里","LIN":"23鄰","STREET":"中華路","SECT":" ","MAREA":" ","LANE":"７０３巷","ALLEY":"３弄","HOUSE_NO":"１８號","E_COORD97":170890.22,"N_COORD97":2546267.4900000002,"ADDRESS":"中華路７０３巷３弄１８號","OBJECTID":220118},"geometry":{"x":170890.22000000067,"y":2546267.4900000002}},{"attributes":{"ID":220120,"DIS_CODE":0,"TOWNNAME":"永康區","LI":"安康里","LIN":"23鄰","STREET":"中華路","SECT":" ","MAREA":" ","LANE":"７０３巷","ALLEY":"７１弄","HOUSE_NO":"１５號","E_COORD97":170787.97,"N_COORD97":2546224.75,"ADDRESS":"中華路７０３巷７１弄１５號","OBJECTID":220119},"geometry":{"x":170787.96999999974,"y":2546224.75}},{"attributes":{"ID":220121,"DIS_CODE":0,"TOWNNAME":"東區","LI":"文聖里","LIN":"8鄰","STREET":"裕文路","SECT":" ","MAREA":" ","LANE":" ","ALLEY":" ","HOUSE_NO":"８５號","E_COORD97":171997.14999999999,"N_COORD97":2542597.0600000001,"ADDRESS":"裕文路８５號","OBJECTID":220120},"geometry":{"x":171997.1500000013,"y":2542597.0600000042}},{"attributes":{"ID":220122,"DIS_CODE":0,"TOWNNAME":"永康區","LI":"龍潭里","LIN":"23鄰","STREET":"自強路","SECT":" ","MAREA":" ","LANE":"７５０巷","ALLEY":"６８弄","HOUSE_NO":"４２號","E_COORD97":174549.34,"N_COORD97":2548338.98,"ADDRESS":"自強路７５０巷６８弄４２號","OBJECTID":220121},"geometry":{"x":174549.34000000078,"y":2548338.9800000023}},{"attributes":{"ID":220123,"DIS_CODE":0,"TOWNNAME":"東區","LI":"衛國里","LIN":"23鄰","STREET":"林森路","SECT":"二段","MAREA":" ","LANE":"１９０巷","ALLEY":"６弄","HOUSE_NO":"７號","E_COORD97":170505.64000000001,"N_COORD97":2543279.7999999998,"ADDRESS":"林森路二段１９０巷６弄７號","OBJECTID":220122},"geometry":{"x":170505.64000000153,"y":2543279.8000000007}},{"attributes":{"ID":220124,"DIS_CODE":0,"TOWNNAME":"東區","LI":"衛國里","LIN":"23鄰","STREET":"林森路","SECT":"二段","MAREA":" ","LANE":"１９０巷","ALLEY":"６弄","HOUSE_NO":"１１號之１","E_COORD97":170508.56,"N_COORD97":2543232.75,"ADDRESS":"林森路二段１９０巷６弄１１號之１","OBJECTID":220123},"geometry":{"x":170508.56000000052,"y":2543232.7500000037}},{"attributes":{"ID":220125,"DIS_CODE":0,"TOWNNAME":"東區","LI":"崇誨里","LIN":"23鄰","STREET":"林森路","SECT":"二段","MAREA":" ","LANE":"１９２巷","ALLEY":"３５弄","HOUSE_NO":"１０號","E_COORD97":170576.26999999999,"N_COORD97":2543393.6000000001,"ADDRESS":"林森路二段１９２巷３５弄１０號","OBJECTID":220124},"geometry":{"x":170576.27000000048,"y":2543393.6000000015}},{"attributes":{"ID":220126,"DIS_CODE":0,"TOWNNAME":"東區","LI":"崇成里","LIN":"15鄰","STREET":"崇德路","SECT":" ","MAREA":" ","LANE":" ","ALLEY":" ","HOUSE_NO":"６００號","E_COORD97":170774.92000000001,"N_COORD97":2541285.2599999998,"ADDRESS":"崇德路６００號","OBJECTID":220125},"geometry":{"x":170774.91999999993,"y":2541285.2599999998}},{"attributes":{"ID":220127,"DIS_CODE":0,"TOWNNAME":"東區","LI":"崇誨里","LIN":"23鄰","STREET":"林森路","SECT":"二段","MAREA":" ","LANE":"１９２巷","ALLEY":"３５弄","HOUSE_NO":"２３號","E_COORD97":170545.10000000001,"N_COORD97":2543446.4300000002,"ADDRESS":"林森路二段１９２巷３５弄２３號","OBJECTID":220126},"geometry":{"x":170545.10000000056,"y":2543446.4299999997}},{"attributes":{"ID":220128,"DIS_CODE":0,"TOWNNAME":"東區","LI":"崇善里","LIN":"15鄰","STREET":"崇善路","SECT":" ","MAREA":" ","LANE":" ","ALLEY":" ","HOUSE_NO":"５８３號","E_COORD97":171053.82000000001,"N_COORD97":2541406.5299999998,"ADDRESS":"崇善路５８３號","OBJECTID":220127},"geometry":{"x":171053.8200000003,"y":2541406.5300000012}},{"attributes":{"ID":220129,"DIS_CODE":0,"TOWNNAME":"東區","LI":"崇善里","LIN":"15鄰","STREET":"崇善路","SECT":" ","MAREA":" ","LANE":" ","ALLEY":" ","HOUSE_NO":"５８３之１號","E_COORD97":171054.98000000001,"N_COORD97":2541402.6400000001,"ADDRESS":"崇善路５８３之１號","OBJECTID":220128},"geometry":{"x":171054.97999999952,"y":2541402.6400000006}},{"attributes":{"ID":220130,"DIS_CODE":0,"TOWNNAME":"東區","LI":"裕農里","LIN":"14鄰","STREET":"裕豐街","SECT":" ","MAREA":" ","LANE":" ","ALLEY":" ","HOUSE_NO":"２６８之１號","E_COORD97":170818.76000000001,"N_COORD97":2543331.1899999999,"ADDRESS":"裕豐街２６８之１號","OBJECTID":220129},"geometry":{"x":170818.76000000071,"y":2543331.1900000013}},{"attributes":{"ID":220131,"DIS_CODE":0,"TOWNNAME":"東區","LI":"崇成里","LIN":"19鄰","STREET":"崇明路","SECT":" ","MAREA":" ","LANE":" ","ALLEY":" ","HOUSE_NO":"５７７號","E_COORD97":170622.04999999999,"N_COORD97":2541224.02,"ADDRESS":"崇明路５７７號","OBJECTID":220130},"geometry":{"x":170622.05000000075,"y":2541224.0200000014}},{"attributes":{"ID":220132,"DIS_CODE":0,"TOWNNAME":"東區","LI":"忠孝里","LIN":"23鄰","STREET":"崇明五街","SECT":" ","MAREA":" ","LANE":"１８巷","ALLEY":"８弄","HOUSE_NO":"１２號","E_COORD97":169706.91,"N_COORD97":2542240.6099999999,"ADDRESS":"崇明五街１８巷８弄１２號","OBJECTID":220131},"geometry":{"x":169706.91000000015,"y":2542240.6100000013}},{"attributes":{"ID":220133,"DIS_CODE":0,"TOWNNAME":"東區","LI":"忠孝里","LIN":"23鄰","STREET":"崇明五街","SECT":" ","MAREA":" ","LANE":"１８巷","ALLEY":"８弄","HOUSE_NO":"１４號","E_COORD97":169692.09,"N_COORD97":2542236.8100000001,"ADDRESS":"崇明五街１８巷８弄１４號","OBJECTID":220132},"geometry":{"x":169692.08999999985,"y":2542236.8100000024}},{"attributes":{"ID":220134,"DIS_CODE":0,"TOWNNAME":"東區","LI":"忠孝里","LIN":"23鄰","STREET":"崇明五街","SECT":" ","MAREA":" ","LANE":"１８巷","ALLEY":"８弄","HOUSE_NO":"１６號","E_COORD97":169697.47,"N_COORD97":2542234.98,"ADDRESS":"崇明五街１８巷８弄１６號","OBJECTID":220133},"geometry":{"x":169697.46999999974,"y":2542234.9800000042}},{"attributes":{"ID":220135,"DIS_CODE":0,"TOWNNAME":"東區","LI":"忠孝里","LIN":"23鄰","STREET":"崇明五街","SECT":" ","MAREA":" ","LANE":"１８巷","ALLEY":"８弄","HOUSE_NO":"１８號","E_COORD97":169707.51999999999,"N_COORD97":2542226.02,"ADDRESS":"崇明五街１８巷８弄１８號","OBJECTID":220134},"geometry":{"x":169707.51999999955,"y":2542226.0199999996}},{"attributes":{"ID":220136,"DIS_CODE":0,"TOWNNAME":"東區","LI":"忠孝里","LIN":"23鄰","STREET":"崇明五街","SECT":" ","MAREA":" ","LANE":"１８巷","ALLEY":"８弄","HOUSE_NO":"１號","E_COORD97":169682.20000000001,"N_COORD97":2542232.3999999999,"ADDRESS":"崇明五街１８巷８弄１號","OBJECTID":220135},"geometry":{"x":169682.20000000112,"y":2542232.4000000022}},{"attributes":{"ID":220137,"DIS_CODE":0,"TOWNNAME":"東區","LI":"忠孝里","LIN":"23鄰","STREET":"崇明五街","SECT":" ","MAREA":" ","LANE":"１８巷","ALLEY":"８弄","HOUSE_NO":"２號","E_COORD97":169655.42000000001,"N_COORD97":2542230.1200000001,"ADDRESS":"崇明五街１８巷８弄２號","OBJECTID":220136},"geometry":{"x":169655.42000000086,"y":2542230.120000001}},{"attributes":{"ID":220138,"DIS_CODE":0,"TOWNNAME":"東區","LI":" ","LIN":" ","STREET":"崇文二十二街","SECT":" ","MAREA":" ","LANE":" ","ALLEY":" ","HOUSE_NO":"２２號","E_COORD97":170875.92000000001,"N_COORD97":2540797.7599999998,"ADDRESS":"崇文二十二街２２號","OBJECTID":220137},"geometry":{"x":170875.92000000086,"y":2540797.7599999979}},{"attributes":{"ID":220139,"DIS_CODE":0,"TOWNNAME":"東區","LI":"忠孝里","LIN":"23鄰","STREET":"崇明五街","SECT":" ","MAREA":" ","LANE":"１８巷","ALLEY":"８弄","HOUSE_NO":"４號","E_COORD97":169673.98000000001,"N_COORD97":2542241.0699999998,"ADDRESS":"崇明五街１８巷８弄４號","OBJECTID":220138},"geometry":{"x":169673.98000000138,"y":2542241.0700000022}},{"attributes":{"ID":220140,"DIS_CODE":0,"TOWNNAME":"東區","LI":"忠孝里","LIN":"23鄰","STREET":"崇明五街","SECT":" ","MAREA":" ","LANE":"１８巷","ALLEY":"８弄","HOUSE_NO":"５號","E_COORD97":169679,"N_COORD97":2542219.79,"ADDRESS":"崇明五街１８巷８弄５號","OBJECTID":220139},"geometry":{"x":169679,"y":2542219.7899999991}},{"attributes":{"ID":220141,"DIS_CODE":0,"TOWNNAME":"東區","LI":"忠孝里","LIN":"23鄰","STREET":"崇明五街","SECT":" ","MAREA":" ","LANE":"１８巷","ALLEY":"８弄","HOUSE_NO":"６號","E_COORD97":169687.82999999999,"N_COORD97":2542238.1800000002,"ADDRESS":"崇明五街１８巷８弄６號","OBJECTID":220140},"geometry":{"x":169687.83000000101,"y":2542238.1799999997}},{"attributes":{"ID":220142,"DIS_CODE":0,"TOWNNAME":"東區","LI":"崇誨里","LIN":"23鄰","STREET":"林森路","SECT":"二段","MAREA":" ","LANE":"１９２巷","ALLEY":"３５弄","HOUSE_NO":"１１號","E_COORD97":170556.66,"N_COORD97":2543399.1600000001,"ADDRESS":"林森路二段１９２巷３５弄１１號","OBJECTID":220141},"geometry":{"x":170556.66000000015,"y":2543399.1600000001}},{"attributes":{"ID":220143,"DIS_CODE":0,"TOWNNAME":"東區","LI":"崇誨里","LIN":"23鄰","STREET":"林森路","SECT":"二段","MAREA":" ","LANE":"１９２巷","ALLEY":"３５弄","HOUSE_NO":"１２號","E_COORD97":170574.44,"N_COORD97":2543400.6499999999,"ADDRESS":"林森路二段１９２巷３５弄１２號","OBJECTID":220142},"geometry":{"x":170574.44000000134,"y":2543400.6500000022}},{"attributes":{"ID":220144,"DIS_CODE":0,"TOWNNAME":"東區","LI":" ","LIN":" ","STREET":"崇文二十二街","SECT":" ","MAREA":" ","LANE":" ","ALLEY":" ","HOUSE_NO":"２６號","E_COORD97":170882.51999999999,"N_COORD97":2540798.0699999998,"ADDRESS":"崇文二十二街２６號","OBJECTID":220143},"geometry":{"x":170882.51999999862,"y":2540798.0700000022}},{"attributes":{"ID":220145,"DIS_CODE":0,"TOWNNAME":"東區","LI":"崇誨里","LIN":"23鄰","STREET":"林森路","SECT":"二段","MAREA":" ","LANE":"１９２巷","ALLEY":"３５弄","HOUSE_NO":"１３號","E_COORD97":170554.82999999999,"N_COORD97":2543407.6800000002,"ADDRESS":"林森路二段１９２巷３５弄１３號","OBJECTID":220144},"geometry":{"x":170554.83000000007,"y":2543407.6799999997}},{"attributes":{"ID":220146,"DIS_CODE":0,"TOWNNAME":"東區","LI":"崇誨里","LIN":"23鄰","STREET":"林森路","SECT":"二段","MAREA":" ","LANE":"１９２巷","ALLEY":"３５弄","HOUSE_NO":"１５號","E_COORD97":170553.28,"N_COORD97":2543415.1499999999,"ADDRESS":"林森路二段１９２巷３５弄１５號","OBJECTID":220145},"geometry":{"x":170553.28000000119,"y":2543415.1500000004}},{"attributes":{"ID":220147,"DIS_CODE":0,"TOWNNAME":"東區","LI":"崇誨里","LIN":"23鄰","STREET":"林森路","SECT":"二段","MAREA":" ","LANE":"１９２巷","ALLEY":"３５弄","HOUSE_NO":"１７號","E_COORD97":170551.29999999999,"N_COORD97":2543423.75,"ADDRESS":"林森路二段１９２巷３５弄１７號","OBJECTID":220146},"geometry":{"x":170551.29999999981,"y":2543423.7500000019}},{"attributes":{"ID":220148,"DIS_CODE":0,"TOWNNAME":"永康區","LI":"\u25A0行里","LIN":"23鄰","STREET":"中正南路","SECT":" ","MAREA":" ","LANE":"５９２巷","ALLEY":"３８弄","HOUSE_NO":"８號","E_COORD97":171632.95000000001,"N_COORD97":2548571.2000000002,"ADDRESS":"中正南路５９２巷３８弄８號","OBJECTID":220147},"geometry":{"x":171632.94999999925,"y":2548571.1999999993}},{"attributes":{"ID":220149,"DIS_CODE":0,"TOWNNAME":"東區","LI":"崇誨里","LIN":"23鄰","STREET":"林森路","SECT":"二段","MAREA":" ","LANE":"１９２巷","ALLEY":"３５弄","HOUSE_NO":"１９號","E_COORD97":170549.60999999999,"N_COORD97":2543431.0800000001,"ADDRESS":"林森路二段１９２巷３５弄１９號","OBJECTID":220148},"geometry":{"x":170549.61000000127,"y":2543431.0800000019}},{"attributes":{"ID":220150,"DIS_CODE":0,"TOWNNAME":"東區","LI":"崇誨里","LIN":"23鄰","STREET":"林森路","SECT":"二段","MAREA":" ","LANE":"１９２巷","ALLEY":"３５弄","HOUSE_NO":"２號","E_COORD97":170584.03,"N_COORD97":2543364.0099999998,"ADDRESS":"林森路二段１９２巷３５弄２號","OBJECTID":220149},"geometry":{"x":170584.03000000119,"y":2543364.0100000016}},{"attributes":{"ID":220151,"DIS_CODE":0,"TOWNNAME":"東區","LI":"崇誨里","LIN":"23鄰","STREET":"林森路","SECT":"二段","MAREA":" ","LANE":"１９２巷","ALLEY":"３５弄","HOUSE_NO":"３號","E_COORD97":170564.70000000001,"N_COORD97":2543366.8199999998,"ADDRESS":"林森路二段１９２巷３５弄３號","OBJECTID":220150},"geometry":{"x":170564.70000000019,"y":2543366.8200000003}},{"attributes":{"ID":220152,"DIS_CODE":0,"TOWNNAME":"東區","LI":"崇誨里","LIN":"23鄰","STREET":"林森路","SECT":"二段","MAREA":" ","LANE":"１９２巷","ALLEY":"３５弄","HOUSE_NO":"４號","E_COORD97":170582.32999999999,"N_COORD97":2543370.77,"ADDRESS":"林森路二段１９２巷３５弄４號","OBJECTID":220151},"geometry":{"x":170582.33000000007,"y":2543370.7699999977}},{"attributes":{"ID":220153,"DIS_CODE":0,"TOWNNAME":"東區","LI":"崇誨里","LIN":"23鄰","STREET":"林森路","SECT":"二段","MAREA":" ","LANE":"１９２巷","ALLEY":"３５弄","HOUSE_NO":"６號","E_COORD97":170580.35999999999,"N_COORD97":2543378.6600000001,"ADDRESS":"林森路二段１９２巷３５弄６號","OBJECTID":220152},"geometry":{"x":170580.36000000034,"y":2543378.6600000001}},{"attributes":{"ID":220154,"DIS_CODE":0,"TOWNNAME":"東區","LI":"崇誨里","LIN":"23鄰","STREET":"林森路","SECT":"二段","MAREA":" ","LANE":"１９２巷","ALLEY":"３５弄","HOUSE_NO":"７號","E_COORD97":170557.81585399999,"N_COORD97":2543388.0633999999,"ADDRESS":"林森路二段１９２巷３５弄７號","OBJECTID":220153},"geometry":{"x":170557.815853999,"y":2543388.0634010024}},{"attributes":{"ID":220155,"DIS_CODE":0,"TOWNNAME":"東區","LI":"崇誨里","LIN":"23鄰","STREET":"林森路","SECT":"二段","MAREA":" ","LANE":"１９２巷","ALLEY":"３５弄","HOUSE_NO":"８號","E_COORD97":170578.38,"N_COORD97":2543385.71,"ADDRESS":"林森路二段１９２巷３５弄８號","OBJECTID":220154},"geometry":{"x":170578.37999999989,"y":2543385.7100000009}},{"attributes":{"ID":220156,"DIS_CODE":0,"TOWNNAME":"東區","LI":"崇誨里","LIN":"23鄰","STREET":"林森路","SECT":"二段","MAREA":" ","LANE":"１９２巷","ALLEY":"３５弄","HOUSE_NO":"９號","E_COORD97":170558.92000000001,"N_COORD97":2543391.8300000001,"ADDRESS":"林森路二段１９２巷３５弄９號","OBJECTID":220155},"geometry":{"x":170558.92000000086,"y":2543391.8300000019}},{"attributes":{"ID":220157,"DIS_CODE":0,"TOWNNAME":"東區","LI":"崇誨里","LIN":"23鄰","STREET":"林森路","SECT":"二段","MAREA":" ","LANE":"１９２巷","ALLEY":"３５弄","HOUSE_NO":"２１號","E_COORD97":170546.79000000001,"N_COORD97":2543438.9700000002,"ADDRESS":"林森路二段１９２巷３５弄２１號","OBJECTID":220156},"geometry":{"x":170546.79000000004,"y":2543438.9700000025}},{"attributes":{"ID":220158,"DIS_CODE":0,"TOWNNAME":"東區","LI":"忠孝里","LIN":"23鄰","STREET":"崇明五街","SECT":" ","MAREA":" ","LANE":"１８巷","ALLEY":"８弄","HOUSE_NO":"１１號","E_COORD97":169675.35000000001,"N_COORD97":2542214.3199999998,"ADDRESS":"崇明五街１８巷８弄１１號","OBJECTID":220157},"geometry":{"x":169675.35000000056,"y":2542214.3200000003}},{"attributes":{"ID":220159,"DIS_CODE":0,"TOWNNAME":"東區","LI":"崇誨里","LIN":"23鄰","STREET":"林森路","SECT":"二段","MAREA":" ","LANE":"１９２巷","ALLEY":"３５弄","HOUSE_NO":"１４號","E_COORD97":170562.59,"N_COORD97":2543439.6699999999,"ADDRESS":"林森路二段１９２巷３５弄１４號","OBJECTID":220158},"geometry":{"x":170562.59000000078,"y":2543439.6699999981}},{"attributes":{"ID":220160,"DIS_CODE":0,"TOWNNAME":"東區","LI":"崇誨里","LIN":"23鄰","STREET":"林森路","SECT":"二段","MAREA":" ","LANE":"１９２巷","ALLEY":"３５弄","HOUSE_NO":"１６號","E_COORD97":170562.59,"N_COORD97":2543447.1400000001,"ADDRESS":"林森路二段１９２巷３５弄１６號","OBJECTID":220159},"geometry":{"x":170562.59000000078,"y":2543447.1400000006}},{"attributes":{"ID":220161,"DIS_CODE":0,"TOWNNAME":"東區","LI":"崇誨里","LIN":"23鄰","STREET":"林森路","SECT":"二段","MAREA":" ","LANE":"１９２巷","ALLEY":"３５弄","HOUSE_NO":"１８號","E_COORD97":170563.14999999999,"N_COORD97":2543452.3500000001,"ADDRESS":"林森路二段１９２巷３５弄１８號","OBJECTID":220160},"geometry":{"x":170563.15000000037,"y":2543452.3500000015}},{"attributes":{"ID":220162,"DIS_CODE":0,"TOWNNAME":"永康區","LI":"西橋里","LIN":"23鄰","STREET":"大橋三街","SECT":" ","MAREA":" ","LANE":"５７巷","ALLEY":"１９弄","HOUSE_NO":"１０號","E_COORD97":170467.26999999999,"N_COORD97":2546566.4500000002,"ADDRESS":"大橋三街５７巷１９弄１０號","OBJECTID":220161},"geometry":{"x":170467.27000000142,"y":2546566.450000003}},{"attributes":{"ID":220163,"DIS_CODE":0,"TOWNNAME":"永康區","LI":"西橋里","LIN":"23鄰","STREET":"大橋三街","SECT":" ","MAREA":" ","LANE":"５７巷","ALLEY":"１９弄","HOUSE_NO":"４０號","E_COORD97":170445.73000000001,"N_COORD97":2546534.46,"ADDRESS":"大橋三街５７巷１９弄４０號","OBJECTID":220162},"geometry":{"x":170445.73000000045,"y":2546534.4600000046}},{"attributes":{"ID":220164,"DIS_CODE":0,"TOWNNAME":"永康區","LI":"\u25A0行里","LIN":"23鄰","STREET":"中正南路","SECT":" ","MAREA":" ","LANE":"５９２巷","ALLEY":"３８弄","HOUSE_NO":"２０號","E_COORD97":171651.19,"N_COORD97":2548589.21,"ADDRESS":"中正南路５９２巷３８弄２０號","OBJECTID":220163},"geometry":{"x":171651.19000000041,"y":2548589.2100000009}},{"attributes":{"ID":220165,"DIS_CODE":0,"TOWNNAME":"永康區","LI":"\u25A0行里","LIN":"23鄰","STREET":"中正南路","SECT":" ","MAREA":" ","LANE":"５９２巷","ALLEY":"３８弄","HOUSE_NO":"３２號","E_COORD97":171669.07000000001,"N_COORD97":2548605.71,"ADDRESS":"中正南路５９２巷３８弄３２號","OBJECTID":220164},"geometry":{"x":171669.0700000003,"y":2548605.7100000028}},{"attributes":{"ID":220166,"DIS_CODE":0,"TOWNNAME":"永康區","LI":"\u25A0行里","LIN":"23鄰","STREET":"中正南路","SECT":" ","MAREA":" ","LANE":"５９２巷","ALLEY":"３８弄","HOUSE_NO":"３８號","E_COORD97":171677.42999999999,"N_COORD97":2548614.46,"ADDRESS":"中正南路５９２巷３８弄３８號","OBJECTID":220165},"geometry":{"x":171677.43000000063,"y":2548614.4600000009}},{"attributes":{"ID":220167,"DIS_CODE":0,"TOWNNAME":"永康區","LI":"\u25A0行里","LIN":"23鄰","STREET":"中正南路","SECT":" ","MAREA":" ","LANE":"５９２巷","ALLEY":"２９弄","HOUSE_NO":"２０號","E_COORD97":171628.95000000001,"N_COORD97":2548624.4399999999,"ADDRESS":"中正南路５９２巷２９弄２０號","OBJECTID":220166},"geometry":{"x":171628.95000000019,"y":2548624.4399999995}},{"attributes":{"ID":220168,"DIS_CODE":0,"TOWNNAME":"白河區","LI":"白河里","LIN":"4鄰","STREET":" ","SECT":" ","MAREA":"瓦\u25A0子","LANE":" ","ALLEY":" ","HOUSE_NO":"３號","E_COORD97":190415.78,"N_COORD97":2582478.1800000002,"ADDRESS":"瓦\u25A0子３號","OBJECTID":220167},"geometry":{"x":190415.78000000119,"y":2582478.1799999997}},{"attributes":{"ID":220169,"DIS_CODE":0,"TOWNNAME":"永康區","LI":"\u25A0行里","LIN":"23鄰","STREET":"中正南路","SECT":" ","MAREA":" ","LANE":"５９２巷","ALLEY":"３８弄","HOUSE_NO":"２５號","E_COORD97":171652.95000000001,"N_COORD97":2548613.3900000001,"ADDRESS":"中正南路５９２巷３８弄２５號","OBJECTID":220168},"geometry":{"x":171652.95000000019,"y":2548613.3900000025}},{"attributes":{"ID":220170,"DIS_CODE":0,"TOWNNAME":"永康區","LI":"\u25A0行里","LIN":"23鄰","STREET":"中正南路","SECT":" ","MAREA":" ","LANE":"５９２巷","ALLEY":"３８弄","HOUSE_NO":"１３號","E_COORD97":171631.57999999999,"N_COORD97":2548593.6000000001,"ADDRESS":"中正南路５９２巷３８弄１３號","OBJECTID":220169},"geometry":{"x":171631.58000000007,"y":2548593.6000000034}},{"attributes":{"ID":220171,"DIS_CODE":0,"TOWNNAME":"永康區","LI":"\u25A0行里","LIN":"23鄰","STREET":"中正南路","SECT":" ","MAREA":" ","LANE":"５９２巷","ALLEY":"３８弄","HOUSE_NO":"１８號","E_COORD97":171648.66,"N_COORD97":2548586.21,"ADDRESS":"中正南路５９２巷３８弄１８號","OBJECTID":220170},"geometry":{"x":171648.66000000201,"y":2548586.2100000009}},{"attributes":{"ID":220172,"DIS_CODE":0,"TOWNNAME":"永康區","LI":"\u25A0行里","LIN":"23鄰","STREET":"中正南路","SECT":" ","MAREA":" ","LANE":"５９２巷","ALLEY":"２９弄","HOUSE_NO":"１０號","E_COORD97":171610.41,"N_COORD97":2548606.6899999999,"ADDRESS":"中正南路５９２巷２９弄１０號","OBJECTID":220171},"geometry":{"x":171610.41000000015,"y":2548606.6900000013}},{"attributes":{"ID":220173,"DIS_CODE":0,"TOWNNAME":"安定區","LI":"新吉里","LIN":"18鄰","STREET":" ","SECT":" ","MAREA":"新吉","LANE":" ","ALLEY":" ","HOUSE_NO":"２５３號","E_COORD97":169034.01999999999,"N_COORD97":2554056.25,"ADDRESS":"新吉２５３號","OBJECTID":220172},"geometry":{"x":169034.01999999955,"y":2554056.2500000019}},{"attributes":{"ID":220174,"DIS_CODE":0,"TOWNNAME":"永康區","LI":"\u25A0行里","LIN":"23鄰","STREET":"中正南路","SECT":" ","MAREA":" ","LANE":"５９２巷","ALLEY":"３８弄","HOUSE_NO":"２４號","E_COORD97":171657.37,"N_COORD97":2548594.46,"ADDRESS":"中正南路５９２巷３８弄２４號","OBJECTID":220173},"geometry":{"x":171657.37000000104,"y":2548594.4600000009}},{"attributes":{"ID":220175,"DIS_CODE":0,"TOWNNAME":"永康區","LI":"\u25A0行里","LIN":"23鄰","STREET":"中正南路","SECT":" ","MAREA":" ","LANE":"５９２巷","ALLEY":"２９弄","HOUSE_NO":"２號","E_COORD97":171592.04000000001,"N_COORD97":2548596.4399999999,"ADDRESS":"中正南路５９２巷２９弄２號","OBJECTID":220174},"geometry":{"x":171592.04000000097,"y":2548596.4399999995}},{"attributes":{"ID":220176,"DIS_CODE":0,"TOWNNAME":"永康區","LI":"\u25A0行里","LIN":"23鄰","STREET":"中正南路","SECT":" ","MAREA":" ","LANE":"５９２巷","ALLEY":"３８弄","HOUSE_NO":"６號","E_COORD97":171630.14999999999,"N_COORD97":2548567.9500000002,"ADDRESS":"中正南路５９２巷３８弄６號","OBJECTID":220175},"geometry":{"x":171630.15000000224,"y":2548567.9500000011}},{"attributes":{"ID":220177,"DIS_CODE":0,"TOWNNAME":"永康區","LI":"\u25A0行里","LIN":"23鄰","STREET":"中正南路","SECT":" ","MAREA":" ","LANE":"５９２巷","ALLEY":"２９弄","HOUSE_NO":"１４號","E_COORD97":171617.79999999999,"N_COORD97":2548613.9399999999,"ADDRESS":"中正南路５９２巷２９弄１４號","OBJECTID":220176},"geometry":{"x":171617.79999999981,"y":2548613.9399999995}},{"attributes":{"ID":220178,"DIS_CODE":0,"TOWNNAME":"中西區","LI":"郡西里","LIN":"11鄰","STREET":"康樂街","SECT":" ","MAREA":" ","LANE":" ","ALLEY":" ","HOUSE_NO":"７號","E_COORD97":167336.32999999999,"N_COORD97":2543402.8100000001,"ADDRESS":"康樂街７號","OBJECTID":220177},"geometry":{"x":167336.32999999914,"y":2543402.8100000024}},{"attributes":{"ID":220179,"DIS_CODE":0,"TOWNNAME":"永康區","LI":"\u25A0行里","LIN":"23鄰","STREET":"中正南路","SECT":" ","MAREA":" ","LANE":"５９２巷","ALLEY":"３８弄","HOUSE_NO":"１１號","E_COORD97":171624.04000000001,"N_COORD97":2548593.9399999999,"ADDRESS":"中正南路５９２巷３８弄１１號","OBJECTID":220178},"geometry":{"x":171624.04000000097,"y":2548593.9399999995}},{"attributes":{"ID":220180,"DIS_CODE":0,"TOWNNAME":"永康區","LI":"\u25A0行里","LIN":"23鄰","STREET":"中正南路","SECT":" ","MAREA":" ","LANE":"５９２巷","ALLEY":"３８弄","HOUSE_NO":"７號","E_COORD97":171624.66,"N_COORD97":2548583.1899999999,"ADDRESS":"中正南路５９２巷３８弄７號","OBJECTID":220179},"geometry":{"x":171624.65999999922,"y":2548583.1900000013}},{"attributes":{"ID":220181,"DIS_CODE":0,"TOWNNAME":"永康區","LI":"\u25A0行里","LIN":"23鄰","STREET":"中正南路","SECT":" ","MAREA":" ","LANE":"５９２巷","ALLEY":"２９弄","HOUSE_NO":"１２號","E_COORD97":171614.09,"N_COORD97":2548610.1899999999,"ADDRESS":"中正南路５９２巷２９弄１２號","OBJECTID":220180},"geometry":{"x":171614.08999999985,"y":2548610.1900000013}},{"attributes":{"ID":220182,"DIS_CODE":0,"TOWNNAME":"永康區","LI":"\u25A0行里","LIN":"23鄰","STREET":"中正南路","SECT":" ","MAREA":" ","LANE":"５９２巷","ALLEY":"２９弄","HOUSE_NO":"１８號","E_COORD97":171625.01000000001,"N_COORD97":2548620.9399999999,"ADDRESS":"中正南路５９２巷２９弄１８號","OBJECTID":220181},"geometry":{"x":171625.00999999978,"y":2548620.9399999995}},{"attributes":{"ID":220183,"DIS_CODE":0,"TOWNNAME":"永康區","LI":"\u25A0行里","LIN":"23鄰","STREET":"中正南路","SECT":" ","MAREA":" ","LANE":"５９２巷","ALLEY":"２９弄","HOUSE_NO":"４號","E_COORD97":171594.79999999999,"N_COORD97":2548599.1899999999,"ADDRESS":"中正南路５９２巷２９弄４號","OBJECTID":220182},"geometry":{"x":171594.80000000168,"y":2548599.1899999976}},{"attributes":{"ID":220184,"DIS_CODE":0,"TOWNNAME":"永康區","LI":"\u25A0行里","LIN":"23鄰","STREET":"中正南路","SECT":" ","MAREA":" ","LANE":"５９２巷","ALLEY":"３８弄","HOUSE_NO":"１２號","E_COORD97":171640.07999999999,"N_COORD97":2548577.4500000002,"ADDRESS":"中正南路５９２巷３８弄１２號","OBJECTID":220183},"geometry":{"x":171640.08000000007,"y":2548577.4500000011}},{"attributes":{"ID":220185,"DIS_CODE":0,"TOWNNAME":"永康區","LI":"龍潭里","LIN":"23鄰","STREET":"自強路","SECT":" ","MAREA":" ","LANE":"７５０巷","ALLEY":"６８弄","HOUSE_NO":"２８號","E_COORD97":174552.23000000001,"N_COORD97":2548381.79,"ADDRESS":"自強路７５０巷６８弄２８號","OBJECTID":220184},"geometry":{"x":174552.23000000231,"y":2548381.790000001}},{"attributes":{"ID":220186,"DIS_CODE":0,"TOWNNAME":"永康區","LI":"龍潭里","LIN":"23鄰","STREET":"自強路","SECT":" ","MAREA":" ","LANE":"７５０巷","ALLEY":"２８弄","HOUSE_NO":"７５號","E_COORD97":174503.73000000001,"N_COORD97":2548378.4100000001,"ADDRESS":"自強路７５０巷２８弄７５號","OBJECTID":220185},"geometry":{"x":174503.73000000138,"y":2548378.4100000039}},{"attributes":{"ID":220187,"DIS_CODE":0,"TOWNNAME":"永康區","LI":"龍潭里","LIN":"23鄰","STREET":"自強路","SECT":" ","MAREA":" ","LANE":"７５０巷","ALLEY":"２８弄","HOUSE_NO":"７１號","E_COORD97":174491.98999999999,"N_COORD97":2548379.2400000002,"ADDRESS":"自強路７５０巷２８弄７１號","OBJECTID":220186},"geometry":{"x":174491.99000000022,"y":2548379.2399999984}},{"attributes":{"ID":220188,"DIS_CODE":0,"TOWNNAME":"安南區","LI":"安富里","LIN":"28鄰","STREET":"府安路","SECT":"五段","MAREA":" ","LANE":" ","ALLEY":" ","HOUSE_NO":"２３１號","E_COORD97":167473.51000000001,"N_COORD97":2546891.5099999998,"ADDRESS":"府安路五段２３１號","OBJECTID":220187},"geometry":{"x":167473.50999999978,"y":2546891.5099999998}},{"attributes":{"ID":220189,"DIS_CODE":0,"TOWNNAME":"安南區","LI":"安富里","LIN":"28鄰","STREET":"府安路","SECT":"五段","MAREA":" ","LANE":" ","ALLEY":" ","HOUSE_NO":"２３２號","E_COORD97":167469.95000000001,"N_COORD97":2546889.8599999999,"ADDRESS":"府安路五段２３２號","OBJECTID":220188},"geometry":{"x":167469.95000000112,"y":2546889.8600000013}},{"attributes":{"ID":220190,"DIS_CODE":0,"TOWNNAME":"安南區","LI":"安富里","LIN":"28鄰","STREET":"府安路","SECT":"五段","MAREA":" ","LANE":" ","ALLEY":" ","HOUSE_NO":"２３３號","E_COORD97":167466.64999999999,"N_COORD97":2546888.0800000001,"ADDRESS":"府安路五段２３３號","OBJECTID":220189},"geometry":{"x":167466.65000000037,"y":2546888.0800000001}},{"attributes":{"ID":220191,"DIS_CODE":0,"TOWNNAME":"安南區","LI":"安富里","LIN":"28鄰","STREET":"府安路","SECT":"五段","MAREA":" ","LANE":" ","ALLEY":" ","HOUSE_NO":"２３５號","E_COORD97":167461.70000000001,"N_COORD97":2546884.6499999999,"ADDRESS":"府安路五段２３５號","OBJECTID":220190},"geometry":{"x":167461.70000000112,"y":2546884.6500000004}},{"attributes":{"ID":220192,"DIS_CODE":0,"TOWNNAME":"東區","LI":"崇善里","LIN":"5鄰","STREET":"崇善路","SECT":" ","MAREA":" ","LANE":" ","ALLEY":" ","HOUSE_NO":"５１７號","E_COORD97":170986.37,"N_COORD97":2541626.75,"ADDRESS":"崇善路５１７號","OBJECTID":220191},"geometry":{"x":170986.37000000104,"y":2541626.7500000019}},{"attributes":{"ID":220193,"DIS_CODE":0,"TOWNNAME":"東區","LI":"崇善里","LIN":"5鄰","STREET":"崇善路","SECT":" ","MAREA":" ","LANE":" ","ALLEY":" ","HOUSE_NO":"５１９號","E_COORD97":170986.94,"N_COORD97":2541621.8900000001,"ADDRESS":"崇善路５１９號","OBJECTID":220192},"geometry":{"x":170986.94000000041,"y":2541621.8900000043}},{"attributes":{"ID":220194,"DIS_CODE":0,"TOWNNAME":"東區","LI":"崇善里","LIN":"5鄰","STREET":"崇善路","SECT":" ","MAREA":" ","LANE":" ","ALLEY":" ","HOUSE_NO":"５２１號","E_COORD97":170989.09,"N_COORD97":2541613.46,"ADDRESS":"崇善路５２１號","OBJECTID":220193},"geometry":{"x":170989.08999999985,"y":2541613.4600000009}},{"attributes":{"ID":220195,"DIS_CODE":0,"TOWNNAME":"東區","LI":"崇善里","LIN":"5鄰","STREET":"崇善路","SECT":" ","MAREA":" ","LANE":" ","ALLEY":" ","HOUSE_NO":"５２３號","E_COORD97":170991.37,"N_COORD97":2541605.75,"ADDRESS":"崇善路５２３號","OBJECTID":220194},"geometry":{"x":170991.37000000104,"y":2541605.7500000019}},{"attributes":{"ID":220196,"DIS_CODE":0,"TOWNNAME":"東區","LI":"崇善里","LIN":"5鄰","STREET":"崇善路","SECT":" ","MAREA":" ","LANE":" ","ALLEY":" ","HOUSE_NO":"５２５號","E_COORD97":170992.66,"N_COORD97":2541601.1800000002,"ADDRESS":"崇善路５２５號","OBJECTID":220195},"geometry":{"x":170992.66000000108,"y":2541601.1799999997}},{"attributes":{"ID":220197,"DIS_CODE":0,"TOWNNAME":"東區","LI":"崇善里","LIN":"5鄰","STREET":"崇善路","SECT":" ","MAREA":" ","LANE":" ","ALLEY":" ","HOUSE_NO":"５２７號","E_COORD97":170993.79999999999,"N_COORD97":2541595.75,"ADDRESS":"崇善路５２７號","OBJECTID":220196},"geometry":{"x":170993.79999999981,"y":2541595.7500000019}},{"attributes":{"ID":220198,"DIS_CODE":0,"TOWNNAME":"東區","LI":"崇善里","LIN":"5鄰","STREET":"崇善路","SECT":" ","MAREA":" ","LANE":" ","ALLEY":" ","HOUSE_NO":"５２９號","E_COORD97":170995.37,"N_COORD97":2541589.8900000001,"ADDRESS":"崇善路５２９號","OBJECTID":220197},"geometry":{"x":170995.37000000011,"y":2541589.8900000006}},{"attributes":{"ID":220199,"DIS_CODE":0,"TOWNNAME":"東區","LI":"崇善里","LIN":"5鄰","STREET":"崇善路","SECT":" ","MAREA":" ","LANE":" ","ALLEY":" ","HOUSE_NO":"５２９號","E_COORD97":170996.94,"N_COORD97":2541583.46,"ADDRESS":"崇善路５２９號","OBJECTID":220198},"geometry":{"x":170996.94000000041,"y":2541583.4600000009}},{"attributes":{"ID":220200,"DIS_CODE":0,"TOWNNAME":"東區","LI":"崇善里","LIN":"5鄰","STREET":"崇善路","SECT":" ","MAREA":" ","LANE":" ","ALLEY":" ","HOUSE_NO":"５３３號","E_COORD97":171000.09,"N_COORD97":2541576.8900000001,"ADDRESS":"崇善路５３３號","OBJECTID":220199},"geometry":{"x":171000.09000000078,"y":2541576.8900000006}},{"attributes":{"ID":220201,"DIS_CODE":0,"TOWNNAME":"東區","LI":"崇善里","LIN":"5鄰","STREET":"崇善路","SECT":" ","MAREA":" ","LANE":" ","ALLEY":" ","HOUSE_NO":"５３５號","E_COORD97":171001.37,"N_COORD97":2541572.0299999998,"ADDRESS":"崇善路５３５號","OBJECTID":220200},"geometry":{"x":171001.37000000104,"y":2541572.0300000031}}]}