{"displayFieldName":"TOWNNAME","fieldAliases":{"ID":"ID","DIS_CODE":"DIS_CODE","TOWNNAME":"TOWNNAME","LI":"LI","LIN":"LIN","STREET":"STREET","SECT":"SECT","MAREA":"MAREA","LANE":"LANE","ALLEY":"ALLEY","HOUSE_NO":"HOUSE_NO","E_COORD97":"E_COORD97","N_COORD97":"N_COORD97","ADDRESS":"ADDRESS","OBJECTID":"OBJECTID"},"geometryType":"esriGeometryPoint","spatialReference":{"wkid":102443,"latestWkid":3826},"fields":[{"name":"ID","type":"esriFieldTypeDouble","alias":"ID"},{"name":"DIS_CODE","type":"esriFieldTypeInteger","alias":"DIS_CODE"},{"name":"TOWNNAME","type":"esriFieldTypeString","alias":"TOWNNAME","length":8},{"name":"LI","type":"esriFieldTypeString","alias":"LI","length":8},{"name":"LIN","type":"esriFieldTypeString","alias":"LIN","length":12},{"name":"STREET","type":"esriFieldTypeString","alias":"STREET","length":20},{"name":"SECT","type":"esriFieldTypeString","alias":"SECT","length":8},{"name":"MAREA","type":"esriFieldTypeString","alias":"MAREA","length":12},{"name":"LANE","type":"esriFieldTypeString","alias":"LANE","length":10},{"name":"ALLEY","type":"esriFieldTypeString","alias":"ALLEY","length":10},{"name":"HOUSE_NO","type":"esriFieldTypeString","alias":"HOUSE_NO","length":20},{"name":"E_COORD97","type":"esriFieldTypeDouble","alias":"E_COORD97"},{"name":"N_COORD97","type":"esriFieldTypeDouble","alias":"N_COORD97"},{"name":"ADDRESS","type":"esriFieldTypeString","alias":"ADDRESS","length":50},{"name":"OBJECTID","type":"esriFieldTypeOID","alias":"OBJECTID"}],"features":[{"attributes":{"ID":268806,"DIS_CODE":0,"TOWNNAME":"新市區","LI":"新和里","LIN":"17鄰","STREET":"銘傳街","SECT":" ","MAREA":" ","LANE":"１２巷","ALLEY":" ","HOUSE_NO":"７號","E_COORD97":177531.59,"N_COORD97":2552696.5,"ADDRESS":"銘傳街１２巷７號","OBJECTID":268801},"geometry":{"x":177531.59000000078,"y":2552696.5}},{"attributes":{"ID":268807,"DIS_CODE":0,"TOWNNAME":"永康區","LI":"正強里","LIN":"17鄰","STREET":"自強路","SECT":" ","MAREA":" ","LANE":"１８８巷","ALLEY":" ","HOUSE_NO":"４０號","E_COORD97":173212.60999999999,"N_COORD97":2547348.75,"ADDRESS":"自強路１８８巷４０號","OBJECTID":268802},"geometry":{"x":173212.61000000127,"y":2547348.7500000037}},{"attributes":{"ID":268808,"DIS_CODE":0,"TOWNNAME":"永康區","LI":"正強里","LIN":"17鄰","STREET":"自強路","SECT":" ","MAREA":" ","LANE":"１８８巷","ALLEY":" ","HOUSE_NO":"３８號","E_COORD97":173212.01999999999,"N_COORD97":2547353.25,"ADDRESS":"自強路１８８巷３８號","OBJECTID":268803},"geometry":{"x":173212.02000000048,"y":2547353.2500000019}},{"attributes":{"ID":268809,"DIS_CODE":0,"TOWNNAME":"永康區","LI":"安康里","LIN":"17鄰","STREET":"中華路","SECT":" ","MAREA":" ","LANE":"６６１巷","ALLEY":" ","HOUSE_NO":"７號","E_COORD97":170967.03,"N_COORD97":2546204,"ADDRESS":"中華路６６１巷７號","OBJECTID":268804},"geometry":{"x":170967.03000000119,"y":2546203.9999999981}},{"attributes":{"ID":268810,"DIS_CODE":0,"TOWNNAME":"永康區","LI":"正強里","LIN":"17鄰","STREET":"自強路","SECT":" ","MAREA":" ","LANE":"１８８巷","ALLEY":" ","HOUSE_NO":"３６號","E_COORD97":173211.92999999999,"N_COORD97":2547357.25,"ADDRESS":"自強路１８８巷３６號","OBJECTID":268805},"geometry":{"x":173211.9299999997,"y":2547357.25}},{"attributes":{"ID":268811,"DIS_CODE":0,"TOWNNAME":"仁德區","LI":"新田里","LIN":"9鄰","STREET":"北保路","SECT":" ","MAREA":" ","LANE":" ","ALLEY":" ","HOUSE_NO":"１３３號","E_COORD97":173393.12,"N_COORD97":2539487,"ADDRESS":"北保路１３３號","OBJECTID":268806},"geometry":{"x":173393.12000000197,"y":2539487}},{"attributes":{"ID":268812,"DIS_CODE":0,"TOWNNAME":"北區","LI":"賢北里","LIN":"3鄰","STREET":"賢北街","SECT":" ","MAREA":" ","LANE":" ","ALLEY":" ","HOUSE_NO":"１０８號","E_COORD97":166280.95999999999,"N_COORD97":2545462,"ADDRESS":"賢北街１０８號","OBJECTID":268807},"geometry":{"x":166280.96000000183,"y":2545462.0000000037}},{"attributes":{"ID":268813,"DIS_CODE":0,"TOWNNAME":"北區","LI":"華興里","LIN":"3鄰","STREET":"開元路","SECT":" ","MAREA":" ","LANE":" ","ALLEY":" ","HOUSE_NO":"３０６之１號","E_COORD97":170386.81,"N_COORD97":2545491.1600000001,"ADDRESS":"開元路３０６之１號","OBJECTID":268808},"geometry":{"x":170386.80999999959,"y":2545491.1599999983}},{"attributes":{"ID":268814,"DIS_CODE":0,"TOWNNAME":"永康區","LI":"正強里","LIN":"17鄰","STREET":"自強路","SECT":" ","MAREA":" ","LANE":"１８８巷","ALLEY":" ","HOUSE_NO":"３２號","E_COORD97":173210.60999999999,"N_COORD97":2547366.25,"ADDRESS":"自強路１８８巷３２號","OBJECTID":268809},"geometry":{"x":173210.61000000127,"y":2547366.2500000019}},{"attributes":{"ID":268815,"DIS_CODE":0,"TOWNNAME":"安南區","LI":"淵東里","LIN":"13鄰","STREET":"本原街","SECT":"三段","MAREA":" ","LANE":" ","ALLEY":" ","HOUSE_NO":"１３０號","E_COORD97":165591.94,"N_COORD97":2550379.7599999998,"ADDRESS":"本原街三段１３０號","OBJECTID":268810},"geometry":{"x":165591.94000000134,"y":2550379.7600000016}},{"attributes":{"ID":268816,"DIS_CODE":0,"TOWNNAME":"安南區","LI":"新順里","LIN":"12鄰","STREET":"安和路","SECT":"三段","MAREA":" ","LANE":" ","ALLEY":" ","HOUSE_NO":"５７號","E_COORD97":169767.23999999999,"N_COORD97":2549460.25,"ADDRESS":"安和路三段５７號","OBJECTID":268811},"geometry":{"x":169767.24000000115,"y":2549460.25}},{"attributes":{"ID":268817,"DIS_CODE":0,"TOWNNAME":"安南區","LI":"城北里","LIN":"8鄰","STREET":"安中路","SECT":"六段","MAREA":" ","LANE":" ","ALLEY":" ","HOUSE_NO":"３０１之１５號","E_COORD97":161270.29000000001,"N_COORD97":2551238.2799999998,"ADDRESS":"安中路六段３０１之１５號","OBJECTID":268812},"geometry":{"x":161270.29000000097,"y":2551238.2799999993}},{"attributes":{"ID":268818,"DIS_CODE":0,"TOWNNAME":"安南區","LI":"城北里","LIN":"8鄰","STREET":"安中路","SECT":"六段","MAREA":" ","LANE":" ","ALLEY":" ","HOUSE_NO":"３０１之１７號","E_COORD97":161269.60000000001,"N_COORD97":2551232.0299999998,"ADDRESS":"安中路六段３０１之１７號","OBJECTID":268813},"geometry":{"x":161269.59999999963,"y":2551232.0300000012}},{"attributes":{"ID":268819,"DIS_CODE":0,"TOWNNAME":"安南區","LI":"新順里","LIN":"13鄰","STREET":"開安一街","SECT":" ","MAREA":" ","LANE":" ","ALLEY":" ","HOUSE_NO":"１８號","E_COORD97":170526.14999999999,"N_COORD97":2549643.5299999998,"ADDRESS":"開安一街１８號","OBJECTID":268814},"geometry":{"x":170526.15000000037,"y":2549643.5299999993}},{"attributes":{"ID":268820,"DIS_CODE":0,"TOWNNAME":"安南區","LI":"鳳凰里","LIN":"13鄰","STREET":"安中路","SECT":"一段","MAREA":" ","LANE":" ","ALLEY":" ","HOUSE_NO":"８５６號之１","E_COORD97":167412.26999999999,"N_COORD97":2549387.6400000001,"ADDRESS":"安中路一段８５６號之１","OBJECTID":268815},"geometry":{"x":167412.26999999955,"y":2549387.6400000043}},{"attributes":{"ID":268821,"DIS_CODE":0,"TOWNNAME":"安南區","LI":"安慶里","LIN":"17鄰","STREET":"安中路","SECT":"一段","MAREA":" ","LANE":"１８９巷","ALLEY":" ","HOUSE_NO":"３８號","E_COORD97":168749.78,"N_COORD97":2548374.3799999999,"ADDRESS":"安中路一段１８９巷３８號","OBJECTID":268816},"geometry":{"x":168749.78000000119,"y":2548374.3800000008}},{"attributes":{"ID":268822,"DIS_CODE":0,"TOWNNAME":"安南區","LI":"安慶里","LIN":"17鄰","STREET":"安中路","SECT":"一段","MAREA":" ","LANE":"１８９巷","ALLEY":" ","HOUSE_NO":"４０號","E_COORD97":168750.37,"N_COORD97":2548370.4300000002,"ADDRESS":"安中路一段１８９巷４０號","OBJECTID":268817},"geometry":{"x":168750.37000000104,"y":2548370.4299999997}},{"attributes":{"ID":268823,"DIS_CODE":0,"TOWNNAME":"安南區","LI":"溪墘里","LIN":"17鄰","STREET":"海佃路","SECT":"一段","MAREA":" ","LANE":"３５２巷","ALLEY":" ","HOUSE_NO":"７號","E_COORD97":167135.25,"N_COORD97":2547569.8399999999,"ADDRESS":"海佃路一段３５２巷７號","OBJECTID":268818},"geometry":{"x":167135.25000000186,"y":2547569.8399999999}},{"attributes":{"ID":268824,"DIS_CODE":0,"TOWNNAME":"安南區","LI":"學東里","LIN":"17鄰","STREET":"城北路","SECT":" ","MAREA":" ","LANE":"７３６巷","ALLEY":" ","HOUSE_NO":"４０號","E_COORD97":161052.22,"N_COORD97":2553013.27,"ADDRESS":"城北路７３６巷４０號","OBJECTID":268819},"geometry":{"x":161052.21999999974,"y":2553013.2700000033}},{"attributes":{"ID":268825,"DIS_CODE":0,"TOWNNAME":"安南區","LI":"安東里","LIN":"17鄰","STREET":"安和路","SECT":"一段","MAREA":" ","LANE":"４７８巷","ALLEY":" ","HOUSE_NO":"６號","E_COORD97":169429.72,"N_COORD97":2548426.98,"ADDRESS":"安和路一段４７８巷６號","OBJECTID":268820},"geometry":{"x":169429.71999999974,"y":2548426.9800000023}},{"attributes":{"ID":268826,"DIS_CODE":0,"TOWNNAME":"安南區","LI":"州北里","LIN":"17鄰","STREET":"安和路","SECT":"六段","MAREA":" ","LANE":"２０巷","ALLEY":" ","HOUSE_NO":"６５號","E_COORD97":169664.57000000001,"N_COORD97":2552432.0600000001,"ADDRESS":"安和路六段２０巷６５號","OBJECTID":268821},"geometry":{"x":169664.57000000123,"y":2552432.0600000005}},{"attributes":{"ID":268827,"DIS_CODE":0,"TOWNNAME":"安南區","LI":"安東里","LIN":"17鄰","STREET":"安和路","SECT":"一段","MAREA":" ","LANE":"４７８巷","ALLEY":" ","HOUSE_NO":"１０號","E_COORD97":169439.22,"N_COORD97":2548427.8100000001,"ADDRESS":"安和路一段４７８巷１０號","OBJECTID":268822},"geometry":{"x":169439.22000000067,"y":2548427.8100000024}},{"attributes":{"ID":268828,"DIS_CODE":0,"TOWNNAME":"安南區","LI":"安東里","LIN":"17鄰","STREET":"安和路","SECT":"一段","MAREA":" ","LANE":"４７８巷","ALLEY":" ","HOUSE_NO":"１４號","E_COORD97":169449.56,"N_COORD97":2548428.3700000001,"ADDRESS":"安和路一段４７８巷１４號","OBJECTID":268823},"geometry":{"x":169449.55999999959,"y":2548428.3700000029}},{"attributes":{"ID":268829,"DIS_CODE":0,"TOWNNAME":"安南區","LI":"安東里","LIN":"17鄰","STREET":"安和路","SECT":"一段","MAREA":" ","LANE":"４７８巷","ALLEY":" ","HOUSE_NO":"１６號","E_COORD97":169453.89000000001,"N_COORD97":2548427.8100000001,"ADDRESS":"安和路一段４７８巷１６號","OBJECTID":268824},"geometry":{"x":169453.88999999966,"y":2548427.8100000024}},{"attributes":{"ID":268830,"DIS_CODE":0,"TOWNNAME":"安南區","LI":"安東里","LIN":"17鄰","STREET":"安和路","SECT":"一段","MAREA":" ","LANE":"４７８巷","ALLEY":" ","HOUSE_NO":"２０號","E_COORD97":169461.29999999999,"N_COORD97":2548428.5099999998,"ADDRESS":"安和路一段４７８巷２０號","OBJECTID":268825},"geometry":{"x":169461.29999999981,"y":2548428.5100000016}},{"attributes":{"ID":268831,"DIS_CODE":0,"TOWNNAME":"安南區","LI":"安東里","LIN":"17鄰","STREET":"安和路","SECT":"一段","MAREA":" ","LANE":"４７８巷","ALLEY":" ","HOUSE_NO":"４號","E_COORD97":169425.39000000001,"N_COORD97":2548427.25,"ADDRESS":"安和路一段４７８巷４號","OBJECTID":268826},"geometry":{"x":169425.38999999966,"y":2548427.2500000019}},{"attributes":{"ID":268832,"DIS_CODE":0,"TOWNNAME":"安南區","LI":"安東里","LIN":"17鄰","STREET":"安和路","SECT":"一段","MAREA":" ","LANE":"４７８巷","ALLEY":" ","HOUSE_NO":"８號","E_COORD97":169434.04999999999,"N_COORD97":2548427.25,"ADDRESS":"安和路一段４７８巷８號","OBJECTID":268827},"geometry":{"x":169434.05000000075,"y":2548427.2500000019}},{"attributes":{"ID":268833,"DIS_CODE":0,"TOWNNAME":"安南區","LI":"溪墘里","LIN":"17鄰","STREET":"海佃路","SECT":"一段","MAREA":" ","LANE":"３５２巷","ALLEY":" ","HOUSE_NO":"１３號","E_COORD97":167162.87,"N_COORD97":2547574.1000000001,"ADDRESS":"海佃路一段３５２巷１３號","OBJECTID":268828},"geometry":{"x":167162.87000000011,"y":2547574.1000000015}},{"attributes":{"ID":268834,"DIS_CODE":0,"TOWNNAME":"安南區","LI":"溪墘里","LIN":"17鄰","STREET":"海佃路","SECT":"一段","MAREA":" ","LANE":"３５２巷","ALLEY":" ","HOUSE_NO":"１４號","E_COORD97":167167.62,"N_COORD97":2547575.1600000001,"ADDRESS":"海佃路一段３５２巷１４號","OBJECTID":268829},"geometry":{"x":167167.62000000011,"y":2547575.1600000001}},{"attributes":{"ID":268835,"DIS_CODE":0,"TOWNNAME":"安南區","LI":"溪墘里","LIN":"17鄰","STREET":"海佃路","SECT":"一段","MAREA":" ","LANE":"３５２巷","ALLEY":" ","HOUSE_NO":"１５號","E_COORD97":167171.60000000001,"N_COORD97":2547575.7999999998,"ADDRESS":"海佃路一段３５２巷１５號","OBJECTID":268830},"geometry":{"x":167171.60000000056,"y":2547575.8000000007}},{"attributes":{"ID":268836,"DIS_CODE":0,"TOWNNAME":"安南區","LI":"溪墘里","LIN":"17鄰","STREET":"海佃路","SECT":"一段","MAREA":" ","LANE":"３５２巷","ALLEY":" ","HOUSE_NO":"１６號","E_COORD97":167175.92999999999,"N_COORD97":2547577.0699999998,"ADDRESS":"海佃路一段３５２巷１６號","OBJECTID":268831},"geometry":{"x":167175.92999999877,"y":2547577.070000004}},{"attributes":{"ID":268837,"DIS_CODE":0,"TOWNNAME":"安南區","LI":"溪墘里","LIN":"17鄰","STREET":"海佃路","SECT":"一段","MAREA":" ","LANE":"３５２巷","ALLEY":" ","HOUSE_NO":"１號","E_COORD97":167108.70999999999,"N_COORD97":2547563.3900000001,"ADDRESS":"海佃路一段３５２巷１號","OBJECTID":268832},"geometry":{"x":167108.71000000089,"y":2547563.3900000025}},{"attributes":{"ID":268838,"DIS_CODE":0,"TOWNNAME":"安南區","LI":"四草里","LIN":"4鄰","STREET":"大眾六街","SECT":" ","MAREA":" ","LANE":" ","ALLEY":" ","HOUSE_NO":"３８號","E_COORD97":160594.18382100001,"N_COORD97":2546476.45744,"ADDRESS":"大眾六街３８號","OBJECTID":268833},"geometry":{"x":160594.18382100016,"y":2546476.4574450031}},{"attributes":{"ID":268839,"DIS_CODE":0,"TOWNNAME":"安南區","LI":"溪墘里","LIN":"17鄰","STREET":"海佃路","SECT":"一段","MAREA":" ","LANE":"３５２巷","ALLEY":" ","HOUSE_NO":"２號","E_COORD97":167113.75,"N_COORD97":2547564.4500000002,"ADDRESS":"海佃路一段３５２巷２號","OBJECTID":268834},"geometry":{"x":167113.75000000093,"y":2547564.4500000011}},{"attributes":{"ID":268840,"DIS_CODE":0,"TOWNNAME":"安南區","LI":"溪墘里","LIN":"17鄰","STREET":"海佃路","SECT":"一段","MAREA":" ","LANE":"３５２巷","ALLEY":" ","HOUSE_NO":"３號","E_COORD97":167118.01000000001,"N_COORD97":2547564.9500000002,"ADDRESS":"海佃路一段３５２巷３號","OBJECTID":268835},"geometry":{"x":167118.01000000164,"y":2547564.9500000011}},{"attributes":{"ID":268841,"DIS_CODE":0,"TOWNNAME":"新營區","LI":"太南里","LIN":"3鄰","STREET":" ","SECT":" ","MAREA":"太子宮","LANE":" ","ALLEY":" ","HOUSE_NO":"１７２號","E_COORD97":176207.97,"N_COORD97":2577063.9500000002,"ADDRESS":"太子宮１７２號","OBJECTID":268836},"geometry":{"x":176207.97000000067,"y":2577063.9500000011}},{"attributes":{"ID":268842,"DIS_CODE":0,"TOWNNAME":"新營區","LI":"太南里","LIN":"3鄰","STREET":" ","SECT":" ","MAREA":"太子宮","LANE":" ","ALLEY":" ","HOUSE_NO":"１５７之１號","E_COORD97":176228.92999999999,"N_COORD97":2577072.7599999998,"ADDRESS":"太子宮１５７之１號","OBJECTID":268837},"geometry":{"x":176228.93000000063,"y":2577072.7600000016}},{"attributes":{"ID":268843,"DIS_CODE":0,"TOWNNAME":"新營區","LI":"太南里","LIN":"3鄰","STREET":" ","SECT":" ","MAREA":"太子宮","LANE":" ","ALLEY":" ","HOUSE_NO":"１５７之４號","E_COORD97":176240.20000000001,"N_COORD97":2577076.0299999998,"ADDRESS":"太子宮１５７之４號","OBJECTID":268838},"geometry":{"x":176240.20000000019,"y":2577076.0300000031}},{"attributes":{"ID":268844,"DIS_CODE":0,"TOWNNAME":"新營區","LI":"新東里","LIN":"3鄰","STREET":"東大街","SECT":" ","MAREA":" ","LANE":" ","ALLEY":" ","HOUSE_NO":"１８號","E_COORD97":181005.57000000001,"N_COORD97":2579069.6699999999,"ADDRESS":"東大街１８號","OBJECTID":268839},"geometry":{"x":181005.57000000123,"y":2579069.6700000018}},{"attributes":{"ID":268845,"DIS_CODE":0,"TOWNNAME":"新營區","LI":"太北里","LIN":"3鄰","STREET":" ","SECT":" ","MAREA":"太子宮","LANE":" ","ALLEY":" ","HOUSE_NO":"２３之２０號","E_COORD97":176113.44,"N_COORD97":2577284.8599999999,"ADDRESS":"太子宮２３之２０號","OBJECTID":268840},"geometry":{"x":176113.44000000041,"y":2577284.8600000013}},{"attributes":{"ID":268846,"DIS_CODE":0,"TOWNNAME":"新營區","LI":"永生里","LIN":"3鄰","STREET":"富源街","SECT":" ","MAREA":" ","LANE":" ","ALLEY":" ","HOUSE_NO":"１０之３號","E_COORD97":180048.95000000001,"N_COORD97":2578046.5099999998,"ADDRESS":"富源街１０之３號","OBJECTID":268841},"geometry":{"x":180048.95000000019,"y":2578046.5100000035}},{"attributes":{"ID":268847,"DIS_CODE":0,"TOWNNAME":"北區","LI":"振興里","LIN":"17鄰","STREET":"開元路","SECT":" ","MAREA":" ","LANE":"２１２巷","ALLEY":" ","HOUSE_NO":"１２２號","E_COORD97":170451.20999999999,"N_COORD97":2545049.54,"ADDRESS":"開元路２１２巷１２２號","OBJECTID":268842},"geometry":{"x":170451.21000000183,"y":2545049.5399999991}},{"attributes":{"ID":268848,"DIS_CODE":0,"TOWNNAME":"北區","LI":"振興里","LIN":"17鄰","STREET":"長榮路","SECT":"四段","MAREA":" ","LANE":"５８巷","ALLEY":" ","HOUSE_NO":"２１號","E_COORD97":170399.48000000001,"N_COORD97":2545009.1099999999,"ADDRESS":"長榮路四段５８巷２１號","OBJECTID":268843},"geometry":{"x":170399.48000000138,"y":2545009.1099999994}},{"attributes":{"ID":268849,"DIS_CODE":0,"TOWNNAME":"新營區","LI":"新東里","LIN":"17鄰","STREET":"東興四街","SECT":" ","MAREA":" ","LANE":"３２巷","ALLEY":" ","HOUSE_NO":"１９號","E_COORD97":180905.54000000001,"N_COORD97":2579114.4300000002,"ADDRESS":"東興四街３２巷１９號","OBJECTID":268844},"geometry":{"x":180905.54000000097,"y":2579114.4299999997}},{"attributes":{"ID":268850,"DIS_CODE":0,"TOWNNAME":"新營區","LI":"新東里","LIN":"3鄰","STREET":"東大街","SECT":" ","MAREA":" ","LANE":"１２巷","ALLEY":" ","HOUSE_NO":"１１號","E_COORD97":181046.42999999999,"N_COORD97":2579058.4100000001,"ADDRESS":"東大街１２巷１１號","OBJECTID":268845},"geometry":{"x":181046.43000000063,"y":2579058.410000002}},{"attributes":{"ID":268851,"DIS_CODE":0,"TOWNNAME":"新營區","LI":"新南里","LIN":"3鄰","STREET":"新北街","SECT":" ","MAREA":" ","LANE":" ","ALLEY":" ","HOUSE_NO":"３５號","E_COORD97":178845.67000000001,"N_COORD97":2578685.6400000001,"ADDRESS":"新北街３５號","OBJECTID":268846},"geometry":{"x":178845.66999999993,"y":2578685.6400000006}},{"attributes":{"ID":268852,"DIS_CODE":0,"TOWNNAME":"新營區","LI":"太北里","LIN":"3鄰","STREET":" ","SECT":" ","MAREA":"太子宮","LANE":" ","ALLEY":" ","HOUSE_NO":"２３號之９","E_COORD97":176133.16,"N_COORD97":2577239.3500000001,"ADDRESS":"太子宮２３號之９","OBJECTID":268847},"geometry":{"x":176133.16000000015,"y":2577239.3499999996}},{"attributes":{"ID":268853,"DIS_CODE":0,"TOWNNAME":"新營區","LI":"太北里","LIN":"3鄰","STREET":" ","SECT":" ","MAREA":"太子宮","LANE":" ","ALLEY":" ","HOUSE_NO":"２３號之７","E_COORD97":176133.20000000001,"N_COORD97":2577249.3100000001,"ADDRESS":"太子宮２３號之７","OBJECTID":268848},"geometry":{"x":176133.20000000019,"y":2577249.3100000024}},{"attributes":{"ID":268854,"DIS_CODE":0,"TOWNNAME":"新營區","LI":"太北里","LIN":"3鄰","STREET":" ","SECT":" ","MAREA":"太子宮","LANE":" ","ALLEY":" ","HOUSE_NO":"１７之２號","E_COORD97":176100.20999999999,"N_COORD97":2577154.2400000002,"ADDRESS":"太子宮１７之２號","OBJECTID":268849},"geometry":{"x":176100.21000000089,"y":2577154.2400000021}},{"attributes":{"ID":268855,"DIS_CODE":0,"TOWNNAME":"新營區","LI":"嘉芳里","LIN":"3鄰","STREET":" ","SECT":" ","MAREA":"茄苳腳","LANE":" ","ALLEY":" ","HOUSE_NO":"２８之１６號","E_COORD97":177020.32999999999,"N_COORD97":2578436.5600000001,"ADDRESS":"茄苳腳２８之１６號","OBJECTID":268850},"geometry":{"x":177020.33000000007,"y":2578436.5599999987}},{"attributes":{"ID":268856,"DIS_CODE":0,"TOWNNAME":"鹽水區","LI":"大豐里","LIN":"2鄰","STREET":" ","SECT":" ","MAREA":"大豐","LANE":" ","ALLEY":" ","HOUSE_NO":"１１號","E_COORD97":170551.98000000001,"N_COORD97":2573887.9700000002,"ADDRESS":"大豐１１號","OBJECTID":268851},"geometry":{"x":170551.98000000138,"y":2573887.9700000025}},{"attributes":{"ID":268857,"DIS_CODE":0,"TOWNNAME":"新營區","LI":"嘉芳里","LIN":"3鄰","STREET":" ","SECT":" ","MAREA":"茄苳腳","LANE":" ","ALLEY":" ","HOUSE_NO":"２８之１９號","E_COORD97":177034.69,"N_COORD97":2578444.2400000002,"ADDRESS":"茄苳腳２８之１９號","OBJECTID":268852},"geometry":{"x":177034.69000000134,"y":2578444.2400000002}},{"attributes":{"ID":268858,"DIS_CODE":0,"TOWNNAME":"新營區","LI":"嘉芳里","LIN":"3鄰","STREET":" ","SECT":" ","MAREA":"茄苳腳","LANE":" ","ALLEY":" ","HOUSE_NO":"２９之６號","E_COORD97":177055.35999999999,"N_COORD97":2578325.6299999999,"ADDRESS":"茄苳腳２９之６號","OBJECTID":268853},"geometry":{"x":177055.36000000127,"y":2578325.629999999}},{"attributes":{"ID":268859,"DIS_CODE":0,"TOWNNAME":"新營區","LI":"嘉芳里","LIN":"3鄰","STREET":" ","SECT":" ","MAREA":"茄苳腳","LANE":" ","ALLEY":" ","HOUSE_NO":"２８之１７號","E_COORD97":177024.42999999999,"N_COORD97":2578437.6400000001,"ADDRESS":"茄苳腳２８之１７號","OBJECTID":268854},"geometry":{"x":177024.4299999997,"y":2578437.6400000025}},{"attributes":{"ID":268860,"DIS_CODE":0,"TOWNNAME":"六甲區","LI":"水林里","LIN":"17鄰","STREET":"中正路","SECT":" ","MAREA":" ","LANE":"５９９巷","ALLEY":" ","HOUSE_NO":"２號","E_COORD97":183610.17000000001,"N_COORD97":2570187.0800000001,"ADDRESS":"中正路５９９巷２號","OBJECTID":268855},"geometry":{"x":183610.17000000086,"y":2570187.0799999982}},{"attributes":{"ID":268861,"DIS_CODE":0,"TOWNNAME":"六甲區","LI":"水林里","LIN":"17鄰","STREET":"中正路","SECT":" ","MAREA":" ","LANE":"５９９巷","ALLEY":" ","HOUSE_NO":"４號","E_COORD97":183562.70000000001,"N_COORD97":2570196.1600000001,"ADDRESS":"中正路５９９巷４號","OBJECTID":268856},"geometry":{"x":183562.70000000112,"y":2570196.1600000001}},{"attributes":{"ID":268862,"DIS_CODE":0,"TOWNNAME":"六甲區","LI":"水林里","LIN":"17鄰","STREET":"中正路","SECT":" ","MAREA":" ","LANE":"５９９巷","ALLEY":" ","HOUSE_NO":"６號","E_COORD97":183552.39000000001,"N_COORD97":2570201.3700000001,"ADDRESS":"中正路５９９巷６號","OBJECTID":268857},"geometry":{"x":183552.3900000006,"y":2570201.3700000029}},{"attributes":{"ID":268863,"DIS_CODE":0,"TOWNNAME":"六甲區","LI":"水林里","LIN":"17鄰","STREET":"民族街","SECT":" ","MAREA":" ","LANE":"１１巷","ALLEY":" ","HOUSE_NO":"１８號","E_COORD97":183613.92000000001,"N_COORD97":2570234.6899999999,"ADDRESS":"民族街１１巷１８號","OBJECTID":268858},"geometry":{"x":183613.91999999993,"y":2570234.6900000013}},{"attributes":{"ID":268864,"DIS_CODE":0,"TOWNNAME":"中西區","LI":"西湖里","LIN":"34鄰","STREET":"西湖街","SECT":" ","MAREA":" ","LANE":" ","ALLEY":" ","HOUSE_NO":"１６６號","E_COORD97":166343.20000000001,"N_COORD97":2544918.79,"ADDRESS":"西湖街１６６號","OBJECTID":268859},"geometry":{"x":166343.20000000019,"y":2544918.7899999991}},{"attributes":{"ID":268865,"DIS_CODE":0,"TOWNNAME":"六甲區","LI":"水林里","LIN":"17鄰","STREET":"民族街","SECT":" ","MAREA":" ","LANE":"１１巷","ALLEY":" ","HOUSE_NO":"１９號","E_COORD97":183635.35999999999,"N_COORD97":2570221.02,"ADDRESS":"民族街１１巷１９號","OBJECTID":268860},"geometry":{"x":183635.36000000034,"y":2570221.0200000033}},{"attributes":{"ID":268866,"DIS_CODE":0,"TOWNNAME":"六甲區","LI":"水林里","LIN":"17鄰","STREET":"民族街","SECT":" ","MAREA":" ","LANE":"１１巷","ALLEY":" ","HOUSE_NO":"２０號","E_COORD97":183612.98999999999,"N_COORD97":2570230.46,"ADDRESS":"民族街１１巷２０號","OBJECTID":268861},"geometry":{"x":183612.99000000115,"y":2570230.4600000028}},{"attributes":{"ID":268867,"DIS_CODE":0,"TOWNNAME":"六甲區","LI":"水林里","LIN":"17鄰","STREET":"民族街","SECT":" ","MAREA":" ","LANE":"１１巷","ALLEY":" ","HOUSE_NO":"２１號","E_COORD97":183634.39999999999,"N_COORD97":2570217.0499999998,"ADDRESS":"民族街１１巷２１號","OBJECTID":268862},"geometry":{"x":183634.4000000013,"y":2570217.0500000026}},{"attributes":{"ID":268868,"DIS_CODE":0,"TOWNNAME":"六甲區","LI":"水林里","LIN":"17鄰","STREET":"民族街","SECT":" ","MAREA":" ","LANE":"１１巷","ALLEY":" ","HOUSE_NO":"２２號","E_COORD97":183612.03,"N_COORD97":2570226.6499999999,"ADDRESS":"民族街１１巷２２號","OBJECTID":268863},"geometry":{"x":183612.03000000026,"y":2570226.6500000004}},{"attributes":{"ID":268869,"DIS_CODE":0,"TOWNNAME":"南區","LI":"府南里","LIN":"17鄰","STREET":"大成路","SECT":"二段","MAREA":" ","LANE":"１７７巷","ALLEY":" ","HOUSE_NO":"５５號","E_COORD97":167272.03,"N_COORD97":2541671.3799999999,"ADDRESS":"大成路二段１７７巷５５號","OBJECTID":268864},"geometry":{"x":167272.03000000026,"y":2541671.3800000008}},{"attributes":{"ID":268870,"DIS_CODE":0,"TOWNNAME":"南區","LI":"府南里","LIN":"17鄰","STREET":"大成路","SECT":"二段","MAREA":" ","LANE":"１７７巷","ALLEY":" ","HOUSE_NO":"８３號","E_COORD97":167250.48999999999,"N_COORD97":2541605.7000000002,"ADDRESS":"大成路二段１７７巷８３號","OBJECTID":268865},"geometry":{"x":167250.49000000022,"y":2541605.7000000011}},{"attributes":{"ID":268871,"DIS_CODE":0,"TOWNNAME":"南區","LI":"府南里","LIN":"17鄰","STREET":"大成路","SECT":"二段","MAREA":" ","LANE":"１７７巷","ALLEY":" ","HOUSE_NO":"３９號","E_COORD97":167301.60999999999,"N_COORD97":2541677.7599999998,"ADDRESS":"大成路二段１７７巷３９號","OBJECTID":268866},"geometry":{"x":167301.61000000127,"y":2541677.7600000016}},{"attributes":{"ID":268872,"DIS_CODE":0,"TOWNNAME":"南區","LI":"府南里","LIN":"17鄰","STREET":"大成路","SECT":"二段","MAREA":" ","LANE":"１７７巷","ALLEY":" ","HOUSE_NO":"４１號","E_COORD97":167299,"N_COORD97":2541662.1899999999,"ADDRESS":"大成路二段１７７巷４１號","OBJECTID":268867},"geometry":{"x":167299,"y":2541662.1899999995}},{"attributes":{"ID":268873,"DIS_CODE":0,"TOWNNAME":"南區","LI":"府南里","LIN":"17鄰","STREET":"大成路","SECT":"二段","MAREA":" ","LANE":"１７７巷","ALLEY":" ","HOUSE_NO":"４３號","E_COORD97":167294.56,"N_COORD97":2541663.4700000002,"ADDRESS":"大成路二段１７７巷４３號","OBJECTID":268868},"geometry":{"x":167294.55999999959,"y":2541663.4700000025}},{"attributes":{"ID":268874,"DIS_CODE":0,"TOWNNAME":"北區","LI":"正覺里","LIN":"17鄰","STREET":"正覺街","SECT":" ","MAREA":" ","LANE":"４４巷","ALLEY":" ","HOUSE_NO":"１號","E_COORD97":169333.23999999999,"N_COORD97":2546296.96,"ADDRESS":"正覺街４４巷１號","OBJECTID":268869},"geometry":{"x":169333.24000000115,"y":2546296.9600000046}},{"attributes":{"ID":268875,"DIS_CODE":0,"TOWNNAME":"北區","LI":"正覺里","LIN":"17鄰","STREET":"正覺街","SECT":" ","MAREA":" ","LANE":"４４巷","ALLEY":" ","HOUSE_NO":"２號","E_COORD97":169337.70999999999,"N_COORD97":2546280.5899999999,"ADDRESS":"正覺街４４巷２號","OBJECTID":268870},"geometry":{"x":169337.71000000089,"y":2546280.5899999999}},{"attributes":{"ID":268876,"DIS_CODE":0,"TOWNNAME":"北區","LI":"正覺里","LIN":"17鄰","STREET":"正覺街","SECT":" ","MAREA":" ","LANE":"４４巷","ALLEY":" ","HOUSE_NO":"４號","E_COORD97":169338.94,"N_COORD97":2546283.25,"ADDRESS":"正覺街４４巷４號","OBJECTID":268871},"geometry":{"x":169338.94000000041,"y":2546283.25}},{"attributes":{"ID":268877,"DIS_CODE":0,"TOWNNAME":"北區","LI":"正覺里","LIN":"17鄰","STREET":"正覺街","SECT":" ","MAREA":" ","LANE":"４４巷","ALLEY":" ","HOUSE_NO":"５號","E_COORD97":169341.97,"N_COORD97":2546288.6499999999,"ADDRESS":"正覺街４４巷５號","OBJECTID":268872},"geometry":{"x":169341.96999999974,"y":2546288.6500000041}},{"attributes":{"ID":268878,"DIS_CODE":0,"TOWNNAME":"北區","LI":"正覺里","LIN":"17鄰","STREET":"正覺街","SECT":" ","MAREA":" ","LANE":"４４巷","ALLEY":" ","HOUSE_NO":"６號","E_COORD97":169356.98999999999,"N_COORD97":2546267.8799999999,"ADDRESS":"正覺街４４巷６號","OBJECTID":268873},"geometry":{"x":169356.99000000115,"y":2546267.879999999}},{"attributes":{"ID":268879,"DIS_CODE":0,"TOWNNAME":"北區","LI":"成德里","LIN":"3鄰","STREET":"西門路","SECT":"四段","MAREA":" ","LANE":" ","ALLEY":" ","HOUSE_NO":"２１號","E_COORD97":168614.20000000001,"N_COORD97":2545265.79,"ADDRESS":"西門路四段２１號","OBJECTID":268874},"geometry":{"x":168614.20000000112,"y":2545265.7900000028}},{"attributes":{"ID":268880,"DIS_CODE":0,"TOWNNAME":"安平區","LI":"港仔里","LIN":"17鄰","STREET":"運河路","SECT":" ","MAREA":" ","LANE":"１３巷","ALLEY":" ","HOUSE_NO":"５號","E_COORD97":164147.17999999999,"N_COORD97":2544444.6299999999,"ADDRESS":"運河路１３巷５號","OBJECTID":268875},"geometry":{"x":164147.18000000063,"y":2544444.629999999}},{"attributes":{"ID":268881,"DIS_CODE":0,"TOWNNAME":"新營區","LI":"南興里","LIN":"17鄰","STREET":"裕民路","SECT":" ","MAREA":" ","LANE":"１４２巷","ALLEY":" ","HOUSE_NO":"１號","E_COORD97":179124.25,"N_COORD97":2577545.8300000001,"ADDRESS":"裕民路１４２巷１號","OBJECTID":268876},"geometry":{"x":179124.25000000093,"y":2577545.8300000001}},{"attributes":{"ID":268882,"DIS_CODE":0,"TOWNNAME":"鹽水區","LI":"中境里","LIN":"3鄰","STREET":"三福路","SECT":" ","MAREA":" ","LANE":" ","ALLEY":" ","HOUSE_NO":"１１號","E_COORD97":175040,"N_COORD97":2579991.6000000001,"ADDRESS":"三福路１１號","OBJECTID":268877},"geometry":{"x":175040.00000000093,"y":2579991.6000000034}},{"attributes":{"ID":268883,"DIS_CODE":0,"TOWNNAME":"鹽水區","LI":"下林里","LIN":"3鄰","STREET":" ","SECT":" ","MAREA":"下林","LANE":" ","ALLEY":" ","HOUSE_NO":"１號之５","E_COORD97":173022.92000000001,"N_COORD97":2573381.1000000001,"ADDRESS":"下林１號之５","OBJECTID":268878},"geometry":{"x":173022.91999999899,"y":2573381.1000000015}},{"attributes":{"ID":268884,"DIS_CODE":0,"TOWNNAME":"鹽水區","LI":"下林里","LIN":"3鄰","STREET":" ","SECT":" ","MAREA":"下林","LANE":" ","ALLEY":" ","HOUSE_NO":"１號之６","E_COORD97":173033.23000000001,"N_COORD97":2573385.6800000002,"ADDRESS":"下林１號之６","OBJECTID":268879},"geometry":{"x":173033.22999999952,"y":2573385.6799999997}},{"attributes":{"ID":268885,"DIS_CODE":0,"TOWNNAME":"鹽水區","LI":"下林里","LIN":"3鄰","STREET":" ","SECT":" ","MAREA":"下林","LANE":" ","ALLEY":" ","HOUSE_NO":"１號","E_COORD97":173120.23000000001,"N_COORD97":2573411.7599999998,"ADDRESS":"下林１號","OBJECTID":268880},"geometry":{"x":173120.23000000138,"y":2573411.7599999998}},{"attributes":{"ID":268886,"DIS_CODE":0,"TOWNNAME":"白河區","LI":"仙草里","LIN":"1鄰","STREET":" ","SECT":" ","MAREA":"仙草","LANE":" ","ALLEY":" ","HOUSE_NO":"５號","E_COORD97":196210.44,"N_COORD97":2583235.6299999999,"ADDRESS":"仙草５號","OBJECTID":268881},"geometry":{"x":196210.44000000134,"y":2583235.6300000027}},{"attributes":{"ID":268887,"DIS_CODE":0,"TOWNNAME":"鹽水區","LI":"下林里","LIN":"3鄰","STREET":" ","SECT":" ","MAREA":"下林","LANE":" ","ALLEY":" ","HOUSE_NO":"２號","E_COORD97":173162.95000000001,"N_COORD97":2573417.73,"ADDRESS":"下林２號","OBJECTID":268882},"geometry":{"x":173162.95000000019,"y":2573417.7300000042}},{"attributes":{"ID":268888,"DIS_CODE":0,"TOWNNAME":"鹽水區","LI":"下林里","LIN":"3鄰","STREET":" ","SECT":" ","MAREA":"下林","LANE":" ","ALLEY":" ","HOUSE_NO":"３號","E_COORD97":173186.39000000001,"N_COORD97":2573418.6499999999,"ADDRESS":"下林３號","OBJECTID":268883},"geometry":{"x":173186.3900000006,"y":2573418.6500000022}},{"attributes":{"ID":268889,"DIS_CODE":0,"TOWNNAME":"新營區","LI":"南興里","LIN":"17鄰","STREET":"興農街","SECT":" ","MAREA":" ","LANE":"１４０巷","ALLEY":" ","HOUSE_NO":"１７號","E_COORD97":179183.70999999999,"N_COORD97":2577525.6200000001,"ADDRESS":"興農街１４０巷１７號","OBJECTID":268884},"geometry":{"x":179183.71000000089,"y":2577525.6200000029}},{"attributes":{"ID":268890,"DIS_CODE":0,"TOWNNAME":"新營區","LI":"延平里","LIN":"17鄰","STREET":"長春街","SECT":" ","MAREA":" ","LANE":"１３４巷","ALLEY":" ","HOUSE_NO":"１８號","E_COORD97":179538.31664999999,"N_COORD97":2577854.5644399999,"ADDRESS":"長春街１３４巷１８號","OBJECTID":268885},"geometry":{"x":179538.3166500004,"y":2577854.5644429997}},{"attributes":{"ID":268891,"DIS_CODE":0,"TOWNNAME":"新營區","LI":"興業里","LIN":"17鄰","STREET":"中興路","SECT":" ","MAREA":" ","LANE":"１５巷","ALLEY":" ","HOUSE_NO":"１４之３號","E_COORD97":180208.94,"N_COORD97":2577918.3999999999,"ADDRESS":"中興路１５巷１４之３號","OBJECTID":268886},"geometry":{"x":180208.94000000041,"y":2577918.4000000004}},{"attributes":{"ID":268892,"DIS_CODE":0,"TOWNNAME":"新營區","LI":"延平里","LIN":"17鄰","STREET":"長春街","SECT":" ","MAREA":" ","LANE":"１３４巷","ALLEY":" ","HOUSE_NO":"３８號","E_COORD97":179520.10000000001,"N_COORD97":2577904.9900000002,"ADDRESS":"長春街１３４巷３８號","OBJECTID":268887},"geometry":{"x":179520.09999999963,"y":2577904.9900000021}},{"attributes":{"ID":268893,"DIS_CODE":0,"TOWNNAME":"新營區","LI":"延平里","LIN":"17鄰","STREET":"長春街","SECT":" ","MAREA":" ","LANE":"１３４巷","ALLEY":" ","HOUSE_NO":"２６號","E_COORD97":179506.66,"N_COORD97":2577878.46,"ADDRESS":"長春街１３４巷２６號","OBJECTID":268888},"geometry":{"x":179506.66000000015,"y":2577878.4600000046}},{"attributes":{"ID":268894,"DIS_CODE":0,"TOWNNAME":"新營區","LI":"興業里","LIN":"17鄰","STREET":"中興路","SECT":" ","MAREA":" ","LANE":"１５巷","ALLEY":" ","HOUSE_NO":"１６號","E_COORD97":180216.66,"N_COORD97":2577917.1899999999,"ADDRESS":"中興路１５巷１６號","OBJECTID":268889},"geometry":{"x":180216.66000000108,"y":2577917.1900000013}},{"attributes":{"ID":268895,"DIS_CODE":0,"TOWNNAME":"關廟區","LI":"北花里","LIN":"17鄰","STREET":"中正路","SECT":" ","MAREA":" ","LANE":"５３７巷","ALLEY":" ","HOUSE_NO":"９號","E_COORD97":182372.44,"N_COORD97":2540454.7000000002,"ADDRESS":"中正路５３７巷９號","OBJECTID":268890},"geometry":{"x":182372.44000000227,"y":2540454.6999999993}},{"attributes":{"ID":268896,"DIS_CODE":0,"TOWNNAME":"新營區","LI":"南興里","LIN":"17鄰","STREET":"興農街","SECT":" ","MAREA":" ","LANE":"１４０巷","ALLEY":" ","HOUSE_NO":"１９之４號","E_COORD97":179180.07000000001,"N_COORD97":2577525.7000000002,"ADDRESS":"興農街１４０巷１９之４號","OBJECTID":268891},"geometry":{"x":179180.07000000123,"y":2577525.700000003}},{"attributes":{"ID":268897,"DIS_CODE":0,"TOWNNAME":"歸仁區","LI":"大廟里","LIN":"17鄰","STREET":"大廟五街","SECT":" ","MAREA":" ","LANE":"７３巷","ALLEY":" ","HOUSE_NO":"２６號","E_COORD97":175950.53,"N_COORD97":2544359.0899999999,"ADDRESS":"大廟五街７３巷２６號","OBJECTID":268892},"geometry":{"x":175950.53000000119,"y":2544359.0900000036}},{"attributes":{"ID":268898,"DIS_CODE":0,"TOWNNAME":"歸仁區","LI":"八甲里","LIN":"17鄰","STREET":"大仁六街","SECT":" ","MAREA":" ","LANE":"２０巷","ALLEY":" ","HOUSE_NO":"２號","E_COORD97":178070.89000000001,"N_COORD97":2541534.25,"ADDRESS":"大仁六街２０巷２號","OBJECTID":268893},"geometry":{"x":178070.88999999966,"y":2541534.2500000037}},{"attributes":{"ID":268899,"DIS_CODE":0,"TOWNNAME":"歸仁區","LI":"大廟里","LIN":"17鄰","STREET":"大廟五街","SECT":" ","MAREA":" ","LANE":"７３巷","ALLEY":" ","HOUSE_NO":"６號","E_COORD97":176003.57999999999,"N_COORD97":2544339.0899999999,"ADDRESS":"大廟五街７３巷６號","OBJECTID":268894},"geometry":{"x":176003.58000000007,"y":2544339.0900000017}},{"attributes":{"ID":268900,"DIS_CODE":0,"TOWNNAME":"鹽水區","LI":"大莊里","LIN":"3鄰","STREET":" ","SECT":" ","MAREA":"大莊","LANE":" ","ALLEY":" ","HOUSE_NO":"７１號","E_COORD97":172867.95000000001,"N_COORD97":2576724.9199999999,"ADDRESS":"大莊７１號","OBJECTID":268895},"geometry":{"x":172867.95000000112,"y":2576724.9200000037}},{"attributes":{"ID":268901,"DIS_CODE":0,"TOWNNAME":"鹽水區","LI":"大莊里","LIN":"3鄰","STREET":" ","SECT":" ","MAREA":"大莊","LANE":" ","ALLEY":" ","HOUSE_NO":"７２號","E_COORD97":172866.25,"N_COORD97":2576710.5499999998,"ADDRESS":"大莊７２號","OBJECTID":268896},"geometry":{"x":172866.25,"y":2576710.5500000007}},{"attributes":{"ID":268902,"DIS_CODE":0,"TOWNNAME":"鹽水區","LI":"大莊里","LIN":"3鄰","STREET":" ","SECT":" ","MAREA":"大莊","LANE":" ","ALLEY":" ","HOUSE_NO":"８８號","E_COORD97":172861.79999999999,"N_COORD97":2576675.96,"ADDRESS":"大莊８８號","OBJECTID":268897},"geometry":{"x":172861.80000000075,"y":2576675.9600000028}},{"attributes":{"ID":268903,"DIS_CODE":0,"TOWNNAME":"鹽水區","LI":"大豐里","LIN":"3鄰","STREET":" ","SECT":" ","MAREA":"大豐","LANE":" ","ALLEY":" ","HOUSE_NO":"１３號","E_COORD97":170555.57000000001,"N_COORD97":2573862.6099999999,"ADDRESS":"大豐１３號","OBJECTID":268898},"geometry":{"x":170555.5700000003,"y":2573862.6100000013}},{"attributes":{"ID":268904,"DIS_CODE":0,"TOWNNAME":"鹽水區","LI":"大豐里","LIN":"3鄰","STREET":" ","SECT":" ","MAREA":"大豐","LANE":" ","ALLEY":" ","HOUSE_NO":"１９之１號","E_COORD97":170581.67000000001,"N_COORD97":2573817.4700000002,"ADDRESS":"大豐１９之１號","OBJECTID":268899},"geometry":{"x":170581.66999999993,"y":2573817.4700000025}},{"attributes":{"ID":268905,"DIS_CODE":0,"TOWNNAME":"鹽水區","LI":"大豐里","LIN":"3鄰","STREET":" ","SECT":" ","MAREA":"大豐","LANE":" ","ALLEY":" ","HOUSE_NO":"１９號","E_COORD97":170569.38,"N_COORD97":2573818.75,"ADDRESS":"大豐１９號","OBJECTID":268900},"geometry":{"x":170569.38000000082,"y":2573818.7500000019}},{"attributes":{"ID":268906,"DIS_CODE":0,"TOWNNAME":"鹽水區","LI":"大豐里","LIN":"3鄰","STREET":" ","SECT":" ","MAREA":"大豐","LANE":" ","ALLEY":" ","HOUSE_NO":"２４號","E_COORD97":170527.92999999999,"N_COORD97":2573818.7200000002,"ADDRESS":"大豐２４號","OBJECTID":268901},"geometry":{"x":170527.93000000063,"y":2573818.7200000025}},{"attributes":{"ID":268907,"DIS_CODE":0,"TOWNNAME":"鹽水區","LI":"大豐里","LIN":"3鄰","STREET":" ","SECT":" ","MAREA":"大豐","LANE":" ","ALLEY":" ","HOUSE_NO":"２５號","E_COORD97":170528.26999999999,"N_COORD97":2573845.4199999999,"ADDRESS":"大豐２５號","OBJECTID":268902},"geometry":{"x":170528.27000000142,"y":2573845.4199999999}},{"attributes":{"ID":268908,"DIS_CODE":0,"TOWNNAME":"關廟區","LI":"北花里","LIN":"3鄰","STREET":"中正路","SECT":" ","MAREA":" ","LANE":" ","ALLEY":" ","HOUSE_NO":"６５３號","E_COORD97":182052.76000000001,"N_COORD97":2540366.25,"ADDRESS":"中正路６５３號","OBJECTID":268903},"geometry":{"x":182052.76000000071,"y":2540366.25}},{"attributes":{"ID":268909,"DIS_CODE":0,"TOWNNAME":"白河區","LI":"仙草里","LIN":"7鄰","STREET":" ","SECT":" ","MAREA":"仙草","LANE":" ","ALLEY":" ","HOUSE_NO":"８９之７號","E_COORD97":197347.59,"N_COORD97":2582160.23,"ADDRESS":"仙草８９之７號","OBJECTID":268904},"geometry":{"x":197347.58999999985,"y":2582160.2300000004}},{"attributes":{"ID":268910,"DIS_CODE":0,"TOWNNAME":"白河區","LI":"仙草里","LIN":"7鄰","STREET":" ","SECT":" ","MAREA":"仙草","LANE":" ","ALLEY":" ","HOUSE_NO":"８９號","E_COORD97":197285.45000000001,"N_COORD97":2582316.3100000001,"ADDRESS":"仙草８９號","OBJECTID":268905},"geometry":{"x":197285.45000000112,"y":2582316.3100000005}},{"attributes":{"ID":268911,"DIS_CODE":0,"TOWNNAME":"白河區","LI":"仙草里","LIN":"7鄰","STREET":" ","SECT":" ","MAREA":"仙草","LANE":" ","ALLEY":" ","HOUSE_NO":"９０號","E_COORD97":197797.98000000001,"N_COORD97":2582314.6600000001,"ADDRESS":"仙草９０號","OBJECTID":268906},"geometry":{"x":197797.98000000045,"y":2582314.660000002}},{"attributes":{"ID":268912,"DIS_CODE":0,"TOWNNAME":"歸仁區","LI":"八甲里","LIN":"17鄰","STREET":"大仁六街","SECT":" ","MAREA":" ","LANE":"２０巷","ALLEY":" ","HOUSE_NO":"３號","E_COORD97":178048.29000000001,"N_COORD97":2541529.25,"ADDRESS":"大仁六街２０巷３號","OBJECTID":268907},"geometry":{"x":178048.29000000004,"y":2541529.25}},{"attributes":{"ID":268913,"DIS_CODE":0,"TOWNNAME":"歸仁區","LI":"八甲里","LIN":"17鄰","STREET":"大仁六街","SECT":" ","MAREA":" ","LANE":"２０巷","ALLEY":" ","HOUSE_NO":"１０號","E_COORD97":178054.73999999999,"N_COORD97":2541536.25,"ADDRESS":"大仁六街２０巷１０號","OBJECTID":268908},"geometry":{"x":178054.74000000115,"y":2541536.25}},{"attributes":{"ID":268914,"DIS_CODE":0,"TOWNNAME":"歸仁區","LI":"大廟里","LIN":"17鄰","STREET":"保吉路","SECT":" ","MAREA":" ","LANE":"７３巷","ALLEY":" ","HOUSE_NO":"３２號","E_COORD97":175863.26999999999,"N_COORD97":2545167.25,"ADDRESS":"保吉路７３巷３２號","OBJECTID":268909},"geometry":{"x":175863.27000000048,"y":2545167.25}},{"attributes":{"ID":268915,"DIS_CODE":0,"TOWNNAME":"歸仁區","LI":"大廟里","LIN":"17鄰","STREET":"大廟五街","SECT":" ","MAREA":" ","LANE":"７３巷","ALLEY":" ","HOUSE_NO":"２２號","E_COORD97":175960.82999999999,"N_COORD97":2544356.0899999999,"ADDRESS":"大廟五街７３巷２２號","OBJECTID":268910},"geometry":{"x":175960.83000000007,"y":2544356.0900000017}},{"attributes":{"ID":268916,"DIS_CODE":0,"TOWNNAME":"歸仁區","LI":"八甲里","LIN":"17鄰","STREET":"大仁六街","SECT":" ","MAREA":" ","LANE":"２０巷","ALLEY":" ","HOUSE_NO":"１號","E_COORD97":178071.79000000001,"N_COORD97":2541522.25,"ADDRESS":"大仁六街２０巷１號","OBJECTID":268911},"geometry":{"x":178071.79000000004,"y":2541522.25}},{"attributes":{"ID":268917,"DIS_CODE":0,"TOWNNAME":"歸仁區","LI":"大潭里","LIN":"17鄰","STREET":"中正南路","SECT":"三段","MAREA":" ","LANE":"２５０巷","ALLEY":" ","HOUSE_NO":"５３號","E_COORD97":175043.20000000001,"N_COORD97":2534779.2799999998,"ADDRESS":"中正南路三段２５０巷５３號","OBJECTID":268912},"geometry":{"x":175043.20000000019,"y":2534779.2799999975}},{"attributes":{"ID":268918,"DIS_CODE":0,"TOWNNAME":"歸仁區","LI":"大廟里","LIN":"17鄰","STREET":"大廟五街","SECT":" ","MAREA":" ","LANE":"７３巷","ALLEY":" ","HOUSE_NO":"１６號","E_COORD97":175977.13,"N_COORD97":2544349.0899999999,"ADDRESS":"大廟五街７３巷１６號","OBJECTID":268913},"geometry":{"x":175977.12999999989,"y":2544349.0900000036}},{"attributes":{"ID":268919,"DIS_CODE":0,"TOWNNAME":"歸仁區","LI":"八甲里","LIN":"17鄰","STREET":"大仁八街","SECT":" ","MAREA":" ","LANE":"５巷","ALLEY":" ","HOUSE_NO":"２號","E_COORD97":178045.04000000001,"N_COORD97":2541560.25,"ADDRESS":"大仁八街５巷２號","OBJECTID":268914},"geometry":{"x":178045.03999999911,"y":2541560.25}},{"attributes":{"ID":268920,"DIS_CODE":0,"TOWNNAME":"歸仁區","LI":"大潭里","LIN":"17鄰","STREET":"大潭二街","SECT":" ","MAREA":" ","LANE":"１２巷","ALLEY":" ","HOUSE_NO":"１５號","E_COORD97":175103.20999999999,"N_COORD97":2534730.25,"ADDRESS":"大潭二街１２巷１５號","OBJECTID":268915},"geometry":{"x":175103.21000000089,"y":2534730.2500000019}},{"attributes":{"ID":268921,"DIS_CODE":0,"TOWNNAME":"歸仁區","LI":"大潭里","LIN":"17鄰","STREET":"大潭二街","SECT":" ","MAREA":" ","LANE":"１２巷","ALLEY":" ","HOUSE_NO":"１號","E_COORD97":175092.56,"N_COORD97":2534709.25,"ADDRESS":"大潭二街１２巷１號","OBJECTID":268916},"geometry":{"x":175092.55999999959,"y":2534709.2500000037}},{"attributes":{"ID":268922,"DIS_CODE":0,"TOWNNAME":"關廟區","LI":"布袋里","LIN":"3鄰","STREET":"長文街","SECT":" ","MAREA":" ","LANE":" ","ALLEY":" ","HOUSE_NO":"２號","E_COORD97":183095.69,"N_COORD97":2535553.25,"ADDRESS":"長文街２號","OBJECTID":268917},"geometry":{"x":183095.69000000041,"y":2535553.2500000037}},{"attributes":{"ID":268923,"DIS_CODE":0,"TOWNNAME":"歸仁區","LI":"大廟里","LIN":"17鄰","STREET":"大廟五街","SECT":" ","MAREA":" ","LANE":"１８９巷","ALLEY":" ","HOUSE_NO":"５６號","E_COORD97":176249.17000000001,"N_COORD97":2544949.25,"ADDRESS":"大廟五街１８９巷５６號","OBJECTID":268918},"geometry":{"x":176249.17000000086,"y":2544949.2500000019}},{"attributes":{"ID":268924,"DIS_CODE":0,"TOWNNAME":"關廟區","LI":"五甲里","LIN":"3鄰","STREET":"光復街","SECT":" ","MAREA":" ","LANE":" ","ALLEY":" ","HOUSE_NO":"６號","E_COORD97":181408.94,"N_COORD97":2539159.2799999998,"ADDRESS":"光復街６號","OBJECTID":268919},"geometry":{"x":181408.94000000041,"y":2539159.2799999993}},{"attributes":{"ID":268925,"DIS_CODE":0,"TOWNNAME":"關廟區","LI":"香洋里","LIN":"3鄰","STREET":"忠孝街","SECT":" ","MAREA":" ","LANE":" ","ALLEY":" ","HOUSE_NO":"１７０號","E_COORD97":181089.44,"N_COORD97":2540460.25,"ADDRESS":"忠孝街１７０號","OBJECTID":268920},"geometry":{"x":181089.44000000134,"y":2540460.2500000019}},{"attributes":{"ID":268926,"DIS_CODE":0,"TOWNNAME":"關廟區","LI":"五甲里","LIN":"3鄰","STREET":"光復街","SECT":" ","MAREA":" ","LANE":" ","ALLEY":" ","HOUSE_NO":"１０號","E_COORD97":181423.59,"N_COORD97":2539169.2799999998,"ADDRESS":"光復街１０號","OBJECTID":268921},"geometry":{"x":181423.59000000078,"y":2539169.2799999993}},{"attributes":{"ID":268927,"DIS_CODE":0,"TOWNNAME":"關廟區","LI":"北勢里","LIN":"3鄰","STREET":"仁愛路","SECT":" ","MAREA":" ","LANE":" ","ALLEY":" ","HOUSE_NO":"９２號","E_COORD97":181338.04000000001,"N_COORD97":2540259.2799999998,"ADDRESS":"仁愛路９２號","OBJECTID":268922},"geometry":{"x":181338.04000000097,"y":2540259.2800000012}},{"attributes":{"ID":268928,"DIS_CODE":0,"TOWNNAME":"歸仁區","LI":"大廟里","LIN":"17鄰","STREET":"大廟五街","SECT":" ","MAREA":" ","LANE":"１８９巷","ALLEY":" ","HOUSE_NO":"４２號","E_COORD97":176273.37,"N_COORD97":2544870.25,"ADDRESS":"大廟五街１８９巷４２號","OBJECTID":268923},"geometry":{"x":176273.37000000104,"y":2544870.2500000037}},{"attributes":{"ID":268929,"DIS_CODE":0,"TOWNNAME":"柳營區","LI":"光福里","LIN":"17鄰","STREET":"建業路","SECT":" ","MAREA":" ","LANE":"１０１巷","ALLEY":" ","HOUSE_NO":"１５７號","E_COORD97":179851.95000000001,"N_COORD97":2575743.7000000002,"ADDRESS":"建業路１０１巷１５７號","OBJECTID":268924},"geometry":{"x":179851.95000000112,"y":2575743.7000000011}},{"attributes":{"ID":268930,"DIS_CODE":0,"TOWNNAME":"歸仁區","LI":"六甲里","LIN":"17鄰","STREET":"六甲路","SECT":" ","MAREA":" ","LANE":"３２１巷","ALLEY":" ","HOUSE_NO":"１３號","E_COORD97":175737.73707500001,"N_COORD97":2539190.54318,"ADDRESS":"六甲路３２１巷１３號","OBJECTID":268925},"geometry":{"x":175737.737075001,"y":2539190.5431800019}},{"attributes":{"ID":268931,"DIS_CODE":0,"TOWNNAME":"歸仁區","LI":"六甲里","LIN":"17鄰","STREET":"六甲路","SECT":" ","MAREA":" ","LANE":"３２１巷","ALLEY":" ","HOUSE_NO":"４２號","E_COORD97":175684.98208700001,"N_COORD97":2539140.0607099999,"ADDRESS":"六甲路３２１巷４２號","OBJECTID":268926},"geometry":{"x":175684.98208700214,"y":2539140.0607069992}},{"attributes":{"ID":268932,"DIS_CODE":0,"TOWNNAME":"歸仁區","LI":"大廟里","LIN":"17鄰","STREET":"保吉路","SECT":" ","MAREA":" ","LANE":"７３巷","ALLEY":" ","HOUSE_NO":"３８號","E_COORD97":175870.57000000001,"N_COORD97":2545197.25,"ADDRESS":"保吉路７３巷３８號","OBJECTID":268927},"geometry":{"x":175870.57000000123,"y":2545197.2500000019}},{"attributes":{"ID":268933,"DIS_CODE":0,"TOWNNAME":"歸仁區","LI":"六甲里","LIN":"17鄰","STREET":"六甲路","SECT":" ","MAREA":" ","LANE":"３６５巷","ALLEY":" ","HOUSE_NO":"４１號","E_COORD97":175639.21872400001,"N_COORD97":2539139.6373700001,"ADDRESS":"六甲路３６５巷４１號","OBJECTID":268928},"geometry":{"x":175639.21872400027,"y":2539139.6373740006}},{"attributes":{"ID":268934,"DIS_CODE":0,"TOWNNAME":"歸仁區","LI":"大潭里","LIN":"17鄰","STREET":"中正南路","SECT":"三段","MAREA":" ","LANE":"２５０巷","ALLEY":" ","HOUSE_NO":"３９號","E_COORD97":175082.20000000001,"N_COORD97":2534773.2799999998,"ADDRESS":"中正南路三段２５０巷３９號","OBJECTID":268929},"geometry":{"x":175082.20000000019,"y":2534773.2800000012}},{"attributes":{"ID":268935,"DIS_CODE":0,"TOWNNAME":"歸仁區","LI":"六甲里","LIN":"17鄰","STREET":"六甲路","SECT":" ","MAREA":" ","LANE":"３２１巷","ALLEY":" ","HOUSE_NO":"２號","E_COORD97":175720.07000000001,"N_COORD97":2539214.25,"ADDRESS":"六甲路３２１巷２號","OBJECTID":268930},"geometry":{"x":175720.07000000123,"y":2539214.25}},{"attributes":{"ID":268936,"DIS_CODE":0,"TOWNNAME":"歸仁區","LI":"六甲里","LIN":"17鄰","STREET":"六甲路","SECT":" ","MAREA":" ","LANE":"３４１巷","ALLEY":" ","HOUSE_NO":"９號","E_COORD97":175696.37,"N_COORD97":2539187.25,"ADDRESS":"六甲路３４１巷９號","OBJECTID":268931},"geometry":{"x":175696.37000000011,"y":2539187.25}},{"attributes":{"ID":268937,"DIS_CODE":0,"TOWNNAME":"歸仁區","LI":"六甲里","LIN":"17鄰","STREET":"六甲路","SECT":" ","MAREA":" ","LANE":"３４１巷","ALLEY":" ","HOUSE_NO":"３號","E_COORD97":175694.37,"N_COORD97":2539199.25,"ADDRESS":"六甲路３４１巷３號","OBJECTID":268932},"geometry":{"x":175694.37000000011,"y":2539199.2500000019}},{"attributes":{"ID":268938,"DIS_CODE":0,"TOWNNAME":"歸仁區","LI":"六甲里","LIN":"17鄰","STREET":"六甲路","SECT":" ","MAREA":" ","LANE":"３６５巷","ALLEY":" ","HOUSE_NO":"４３號","E_COORD97":175662.51999999999,"N_COORD97":2539144.25,"ADDRESS":"六甲路３６５巷４３號","OBJECTID":268933},"geometry":{"x":175662.51999999955,"y":2539144.2500000019}},{"attributes":{"ID":268939,"DIS_CODE":0,"TOWNNAME":"南區","LI":"金華里","LIN":"17鄰","STREET":"金華路","SECT":"二段","MAREA":" ","LANE":"６３巷","ALLEY":" ","HOUSE_NO":"８０號","E_COORD97":166746.75,"N_COORD97":2542173.77,"ADDRESS":"金華路二段６３巷８０號","OBJECTID":268934},"geometry":{"x":166746.75,"y":2542173.7699999996}},{"attributes":{"ID":268940,"DIS_CODE":0,"TOWNNAME":"南區","LI":"金華里","LIN":"17鄰","STREET":"金華路","SECT":"二段","MAREA":" ","LANE":"６３巷","ALLEY":" ","HOUSE_NO":"８２號","E_COORD97":166739.17999999999,"N_COORD97":2542175.1899999999,"ADDRESS":"金華路二段６３巷８２號","OBJECTID":268935},"geometry":{"x":166739.18000000063,"y":2542175.1900000013}},{"attributes":{"ID":268941,"DIS_CODE":0,"TOWNNAME":"南區","LI":"金華里","LIN":"17鄰","STREET":"金華路","SECT":"二段","MAREA":" ","LANE":"６３巷","ALLEY":" ","HOUSE_NO":"８４號","E_COORD97":166727.44,"N_COORD97":2542175.1899999999,"ADDRESS":"金華路二段６３巷８４號","OBJECTID":268936},"geometry":{"x":166727.44000000227,"y":2542175.1900000013}},{"attributes":{"ID":268942,"DIS_CODE":0,"TOWNNAME":"南區","LI":"金華里","LIN":"17鄰","STREET":"聖南街","SECT":" ","MAREA":" ","LANE":"１３５巷","ALLEY":" ","HOUSE_NO":"１號","E_COORD97":166731.70999999999,"N_COORD97":2542229.5,"ADDRESS":"聖南街１３５巷１號","OBJECTID":268937},"geometry":{"x":166731.70999999996,"y":2542229.5}},{"attributes":{"ID":268943,"DIS_CODE":0,"TOWNNAME":"南區","LI":"金華里","LIN":"17鄰","STREET":"聖南街","SECT":" ","MAREA":" ","LANE":"１３５巷","ALLEY":" ","HOUSE_NO":"２號","E_COORD97":166731.70999999999,"N_COORD97":2542224.04,"ADDRESS":"聖南街１３５巷２號","OBJECTID":268938},"geometry":{"x":166731.70999999996,"y":2542224.040000001}},{"attributes":{"ID":268944,"DIS_CODE":0,"TOWNNAME":"關廟區","LI":"布袋里","LIN":"3鄰","STREET":"長文街","SECT":" ","MAREA":" ","LANE":" ","ALLEY":" ","HOUSE_NO":"８０號","E_COORD97":182946.23999999999,"N_COORD97":2535476.2400000002,"ADDRESS":"長文街８０號","OBJECTID":268939},"geometry":{"x":182946.24000000022,"y":2535476.2400000021}},{"attributes":{"ID":268945,"DIS_CODE":0,"TOWNNAME":"南區","LI":"金華里","LIN":"17鄰","STREET":"聖南街","SECT":" ","MAREA":" ","LANE":"１３５巷","ALLEY":" ","HOUSE_NO":"３號","E_COORD97":166731.85999999999,"N_COORD97":2542219.8300000001,"ADDRESS":"聖南街１３５巷３號","OBJECTID":268940},"geometry":{"x":166731.86000000127,"y":2542219.8300000019}},{"attributes":{"ID":268946,"DIS_CODE":0,"TOWNNAME":"南區","LI":"金華里","LIN":"17鄰","STREET":"聖南街","SECT":" ","MAREA":" ","LANE":"１３５巷","ALLEY":" ","HOUSE_NO":"４號","E_COORD97":166732.01999999999,"N_COORD97":2542214.6800000002,"ADDRESS":"聖南街１３５巷４號","OBJECTID":268941},"geometry":{"x":166732.01999999955,"y":2542214.6799999997}},{"attributes":{"ID":268947,"DIS_CODE":0,"TOWNNAME":"關廟區","LI":"布袋里","LIN":"3鄰","STREET":"長文街","SECT":" ","MAREA":" ","LANE":" ","ALLEY":" ","HOUSE_NO":"１１０號","E_COORD97":182900.54000000001,"N_COORD97":2535481.25,"ADDRESS":"長文街１１０號","OBJECTID":268942},"geometry":{"x":182900.54000000097,"y":2535481.25}},{"attributes":{"ID":268948,"DIS_CODE":0,"TOWNNAME":"南區","LI":"金華里","LIN":"17鄰","STREET":"聖南街","SECT":" ","MAREA":" ","LANE":"１３５巷","ALLEY":" ","HOUSE_NO":"５號","E_COORD97":166731.54999999999,"N_COORD97":2542211.0899999999,"ADDRESS":"聖南街１３５巷５號","OBJECTID":268943},"geometry":{"x":166731.55000000075,"y":2542211.0900000017}},{"attributes":{"ID":268949,"DIS_CODE":0,"TOWNNAME":"南區","LI":"金華里","LIN":"17鄰","STREET":"聖南街","SECT":" ","MAREA":" ","LANE":"１３５巷","ALLEY":" ","HOUSE_NO":"６號","E_COORD97":166730.76999999999,"N_COORD97":2542205.0099999998,"ADDRESS":"聖南街１３５巷６號","OBJECTID":268944},"geometry":{"x":166730.76999999955,"y":2542205.0099999998}},{"attributes":{"ID":268950,"DIS_CODE":0,"TOWNNAME":"南區","LI":"金華里","LIN":"17鄰","STREET":"聖南街","SECT":" ","MAREA":" ","LANE":"１３５巷","ALLEY":" ","HOUSE_NO":"７號","E_COORD97":166729.51999999999,"N_COORD97":2542201.73,"ADDRESS":"聖南街１３５巷７號","OBJECTID":268945},"geometry":{"x":166729.52000000142,"y":2542201.7300000004}},{"attributes":{"ID":268951,"DIS_CODE":0,"TOWNNAME":"南區","LI":"金華里","LIN":"17鄰","STREET":"聖南街","SECT":" ","MAREA":" ","LANE":"１３５巷","ALLEY":" ","HOUSE_NO":"８號","E_COORD97":166727.17999999999,"N_COORD97":2542196.5899999999,"ADDRESS":"聖南街１３５巷８號","OBJECTID":268946},"geometry":{"x":166727.18000000063,"y":2542196.5900000017}},{"attributes":{"ID":268952,"DIS_CODE":0,"TOWNNAME":"麻豆區","LI":"莊禮里","LIN":"3鄰","STREET":" ","SECT":" ","MAREA":"莊禮寮","LANE":" ","ALLEY":" ","HOUSE_NO":"４０號","E_COORD97":169331.70000000001,"N_COORD97":2566117.6099999999,"ADDRESS":"莊禮寮４０號","OBJECTID":268947},"geometry":{"x":169331.70000000112,"y":2566117.6099999994}},{"attributes":{"ID":268953,"DIS_CODE":0,"TOWNNAME":"麻豆區","LI":"莊禮里","LIN":"3鄰","STREET":" ","SECT":" ","MAREA":"莊禮寮","LANE":" ","ALLEY":" ","HOUSE_NO":"４１號","E_COORD97":169325.19,"N_COORD97":2566160.3199999998,"ADDRESS":"莊禮寮４１號","OBJECTID":268948},"geometry":{"x":169325.19000000134,"y":2566160.3200000003}},{"attributes":{"ID":268954,"DIS_CODE":0,"TOWNNAME":"南區","LI":"金華里","LIN":"17鄰","STREET":"聖南街","SECT":" ","MAREA":" ","LANE":"１３５巷","ALLEY":" ","HOUSE_NO":"９號","E_COORD97":166726.39999999999,"N_COORD97":2542192.2999999998,"ADDRESS":"聖南街１３５巷９號","OBJECTID":268949},"geometry":{"x":166726.4000000013,"y":2542192.3000000045}},{"attributes":{"ID":268955,"DIS_CODE":0,"TOWNNAME":"麻豆區","LI":"莊禮里","LIN":"3鄰","STREET":" ","SECT":" ","MAREA":"莊禮寮","LANE":" ","ALLEY":" ","HOUSE_NO":"３９號","E_COORD97":169332.31,"N_COORD97":2566101.9199999999,"ADDRESS":"莊禮寮３９號","OBJECTID":268950},"geometry":{"x":169332.30999999959,"y":2566101.9199999999}},{"attributes":{"ID":268956,"DIS_CODE":0,"TOWNNAME":"麻豆區","LI":"麻口里","LIN":"3鄰","STREET":" ","SECT":" ","MAREA":"麻豆口","LANE":" ","ALLEY":" ","HOUSE_NO":"２號之６６","E_COORD97":170390.67999999999,"N_COORD97":2564032.3999999999,"ADDRESS":"麻豆口２號之６６","OBJECTID":268951},"geometry":{"x":170390.68000000063,"y":2564032.4000000022}},{"attributes":{"ID":268957,"DIS_CODE":0,"TOWNNAME":"關廟區","LI":"東勢里","LIN":"17鄰","STREET":"旺萊路","SECT":" ","MAREA":" ","LANE":"２６０巷","ALLEY":" ","HOUSE_NO":"１１號","E_COORD97":181947.19,"N_COORD97":2539347.25,"ADDRESS":"旺萊路２６０巷１１號","OBJECTID":268952},"geometry":{"x":181947.19000000134,"y":2539347.2500000037}},{"attributes":{"ID":268958,"DIS_CODE":0,"TOWNNAME":"關廟區","LI":"山西里","LIN":"17鄰","STREET":"崇明街","SECT":" ","MAREA":" ","LANE":"２３巷","ALLEY":" ","HOUSE_NO":"１１號","E_COORD97":181000.17000000001,"N_COORD97":2540661.25,"ADDRESS":"崇明街２３巷１１號","OBJECTID":268953},"geometry":{"x":181000.16999999993,"y":2540661.25}},{"attributes":{"ID":268959,"DIS_CODE":0,"TOWNNAME":"關廟區","LI":"山西里","LIN":"17鄰","STREET":"崇明街","SECT":" ","MAREA":" ","LANE":"３巷","ALLEY":" ","HOUSE_NO":"５號","E_COORD97":181036.47,"N_COORD97":2540615.25,"ADDRESS":"崇明街３巷５號","OBJECTID":268954},"geometry":{"x":181036.47000000067,"y":2540615.2500000037}},{"attributes":{"ID":268960,"DIS_CODE":0,"TOWNNAME":"關廟區","LI":"松腳里","LIN":"17鄰","STREET":"民族街","SECT":" ","MAREA":" ","LANE":"５巷","ALLEY":" ","HOUSE_NO":"６號","E_COORD97":181622.09,"N_COORD97":2539765.29,"ADDRESS":"民族街５巷６號","OBJECTID":268955},"geometry":{"x":181622.09000000078,"y":2539765.2899999991}},{"attributes":{"ID":268961,"DIS_CODE":0,"TOWNNAME":"關廟區","LI":"山西里","LIN":"17鄰","STREET":"崇明街","SECT":" ","MAREA":" ","LANE":"３巷","ALLEY":" ","HOUSE_NO":"７號","E_COORD97":181031.87,"N_COORD97":2540616.25,"ADDRESS":"崇明街３巷７號","OBJECTID":268956},"geometry":{"x":181031.87000000104,"y":2540616.2500000019}},{"attributes":{"ID":268962,"DIS_CODE":0,"TOWNNAME":"關廟區","LI":"東勢里","LIN":"17鄰","STREET":"旺萊路","SECT":" ","MAREA":" ","LANE":"２６０巷","ALLEY":" ","HOUSE_NO":"９號","E_COORD97":181944.44,"N_COORD97":2539350.25,"ADDRESS":"旺萊路２６０巷９號","OBJECTID":268957},"geometry":{"x":181944.44000000041,"y":2539350.25}},{"attributes":{"ID":268963,"DIS_CODE":0,"TOWNNAME":"關廟區","LI":"山西里","LIN":"17鄰","STREET":"崇明街","SECT":" ","MAREA":" ","LANE":"３巷","ALLEY":" ","HOUSE_NO":"１６號","E_COORD97":181018.12,"N_COORD97":2540633.25,"ADDRESS":"崇明街３巷１６號","OBJECTID":268958},"geometry":{"x":181018.12000000197,"y":2540633.2500000019}},{"attributes":{"ID":268964,"DIS_CODE":0,"TOWNNAME":"北區","LI":"實踐里","LIN":"5鄰","STREET":"長榮路","SECT":"五段","MAREA":" ","LANE":"２９８巷","ALLEY":" ","HOUSE_NO":"１６號","E_COORD97":169762.48999999999,"N_COORD97":2545967.0299999998,"ADDRESS":"長榮路五段２９８巷１６號","OBJECTID":268959},"geometry":{"x":169762.49000000022,"y":2545967.0300000012}},{"attributes":{"ID":268965,"DIS_CODE":0,"TOWNNAME":"關廟區","LI":"山西里","LIN":"17鄰","STREET":"崇明街","SECT":" ","MAREA":" ","LANE":"２３巷","ALLEY":" ","HOUSE_NO":"１２號","E_COORD97":180987.47,"N_COORD97":2540665.25,"ADDRESS":"崇明街２３巷１２號","OBJECTID":268960},"geometry":{"x":180987.46999999974,"y":2540665.25}},{"attributes":{"ID":268966,"DIS_CODE":0,"TOWNNAME":"關廟區","LI":"松腳里","LIN":"17鄰","STREET":"民族街","SECT":" ","MAREA":" ","LANE":"５巷","ALLEY":" ","HOUSE_NO":"２２號","E_COORD97":181621.44,"N_COORD97":2539737.29,"ADDRESS":"民族街５巷２２號","OBJECTID":268961},"geometry":{"x":181621.44000000227,"y":2539737.290000001}},{"attributes":{"ID":268967,"DIS_CODE":0,"TOWNNAME":"關廟區","LI":"北花里","LIN":"17鄰","STREET":"中正路","SECT":" ","MAREA":" ","LANE":"５３７巷","ALLEY":" ","HOUSE_NO":"６號","E_COORD97":182347.07999999999,"N_COORD97":2540449.4700000002,"ADDRESS":"中正路５３７巷６號","OBJECTID":268962},"geometry":{"x":182347.08000000007,"y":2540449.4700000025}},{"attributes":{"ID":268968,"DIS_CODE":0,"TOWNNAME":"北區","LI":"成德里","LIN":"3鄰","STREET":"西門路","SECT":"四段","MAREA":" ","LANE":" ","ALLEY":" ","HOUSE_NO":"２３號","E_COORD97":168616.66,"N_COORD97":2545269.1200000001,"ADDRESS":"西門路四段２３號","OBJECTID":268963},"geometry":{"x":168616.66000000108,"y":2545269.1200000029}},{"attributes":{"ID":268969,"DIS_CODE":0,"TOWNNAME":"北區","LI":"成德里","LIN":"3鄰","STREET":"西門路","SECT":"四段","MAREA":" ","LANE":" ","ALLEY":" ","HOUSE_NO":"２５號","E_COORD97":168618.23999999999,"N_COORD97":2545272.9900000002,"ADDRESS":"西門路四段２５號","OBJECTID":268964},"geometry":{"x":168618.24000000022,"y":2545272.9900000021}},{"attributes":{"ID":268970,"DIS_CODE":0,"TOWNNAME":"北區","LI":"成德里","LIN":"3鄰","STREET":"西門路","SECT":"四段","MAREA":" ","LANE":" ","ALLEY":" ","HOUSE_NO":"２７號","E_COORD97":168620.17999999999,"N_COORD97":2545277.21,"ADDRESS":"西門路四段２７號","OBJECTID":268965},"geometry":{"x":168620.17999999877,"y":2545277.2100000009}},{"attributes":{"ID":268971,"DIS_CODE":0,"TOWNNAME":"安南區","LI":"公親里","LIN":"7鄰","STREET":"公學路","SECT":"一段","MAREA":" ","LANE":" ","ALLEY":" ","HOUSE_NO":"１０１號","E_COORD97":168375.39000000001,"N_COORD97":2553021.1200000001,"ADDRESS":"公學路一段１０１號","OBJECTID":268966},"geometry":{"x":168375.3900000006,"y":2553021.120000001}},{"attributes":{"ID":268972,"DIS_CODE":0,"TOWNNAME":"安南區","LI":"公親里","LIN":"7鄰","STREET":"公學路","SECT":"一段","MAREA":" ","LANE":" ","ALLEY":" ","HOUSE_NO":"１０３號","E_COORD97":168371.5,"N_COORD97":2553020.4700000002,"ADDRESS":"公學路一段１０３號","OBJECTID":268967},"geometry":{"x":168371.50000000093,"y":2553020.4700000025}},{"attributes":{"ID":268973,"DIS_CODE":0,"TOWNNAME":"安南區","LI":"公親里","LIN":"7鄰","STREET":"公學路","SECT":"一段","MAREA":" ","LANE":" ","ALLEY":" ","HOUSE_NO":"１０５號","E_COORD97":168366.95999999999,"N_COORD97":2553019.8199999998,"ADDRESS":"公學路一段１０５號","OBJECTID":268968},"geometry":{"x":168366.95999999996,"y":2553019.8200000003}},{"attributes":{"ID":268974,"DIS_CODE":0,"TOWNNAME":"安南區","LI":"佃東里","LIN":"14鄰","STREET":"公學路","SECT":"四段","MAREA":" ","LANE":" ","ALLEY":" ","HOUSE_NO":"６號之１","E_COORD97":165946.14000000001,"N_COORD97":2552070.8599999999,"ADDRESS":"公學路四段６號之１","OBJECTID":268969},"geometry":{"x":165946.1400000006,"y":2552070.8600000013}},{"attributes":{"ID":268975,"DIS_CODE":0,"TOWNNAME":"關廟區","LI":"北花里","LIN":"17鄰","STREET":"中正路","SECT":" ","MAREA":" ","LANE":"５３７巷","ALLEY":" ","HOUSE_NO":"１８號","E_COORD97":182366.73000000001,"N_COORD97":2540441.4700000002,"ADDRESS":"中正路５３７巷１８號","OBJECTID":268970},"geometry":{"x":182366.73000000045,"y":2540441.4700000044}},{"attributes":{"ID":268976,"DIS_CODE":0,"TOWNNAME":"關廟區","LI":"山西里","LIN":"17鄰","STREET":"崇明街","SECT":" ","MAREA":" ","LANE":"３巷","ALLEY":" ","HOUSE_NO":"２０號","E_COORD97":181010.42000000001,"N_COORD97":2540635.25,"ADDRESS":"崇明街３巷２０號","OBJECTID":268971},"geometry":{"x":181010.41999999993,"y":2540635.25}},{"attributes":{"ID":268977,"DIS_CODE":0,"TOWNNAME":"關廟區","LI":"五甲里","LIN":"17鄰","STREET":"五甲路","SECT":" ","MAREA":" ","LANE":"１５０巷","ALLEY":" ","HOUSE_NO":"３號","E_COORD97":181092.26999999999,"N_COORD97":2539017.25,"ADDRESS":"五甲路１５０巷３號","OBJECTID":268972},"geometry":{"x":181092.26999999955,"y":2539017.25}},{"attributes":{"ID":268978,"DIS_CODE":0,"TOWNNAME":"關廟區","LI":"山西里","LIN":"17鄰","STREET":"崇明街","SECT":" ","MAREA":" ","LANE":"３巷","ALLEY":" ","HOUSE_NO":"１２號","E_COORD97":181022.32000000001,"N_COORD97":2540632.25,"ADDRESS":"崇明街３巷１２號","OBJECTID":268973},"geometry":{"x":181022.32000000123,"y":2540632.2500000037}},{"attributes":{"ID":268979,"DIS_CODE":0,"TOWNNAME":"北區","LI":"實踐里","LIN":"5鄰","STREET":"長榮路","SECT":"五段","MAREA":" ","LANE":"２９８巷","ALLEY":" ","HOUSE_NO":"２號","E_COORD97":169754.38,"N_COORD97":2545933.1200000001,"ADDRESS":"長榮路五段２９８巷２號","OBJECTID":268974},"geometry":{"x":169754.37999999989,"y":2545933.1199999992}},{"attributes":{"ID":268980,"DIS_CODE":0,"TOWNNAME":"北區","LI":"開元里","LIN":"17鄰","STREET":"北園街","SECT":" ","MAREA":" ","LANE":"８７巷","ALLEY":" ","HOUSE_NO":"１３１號","E_COORD97":170152.48999999999,"N_COORD97":2545874.2400000002,"ADDRESS":"北園街８７巷１３１號","OBJECTID":268975},"geometry":{"x":170152.49000000022,"y":2545874.2400000039}},{"attributes":{"ID":268981,"DIS_CODE":0,"TOWNNAME":"北區","LI":"開元里","LIN":"17鄰","STREET":"北園街","SECT":" ","MAREA":" ","LANE":"８７巷","ALLEY":" ","HOUSE_NO":"１３３號","E_COORD97":170154.13,"N_COORD97":2545881.21,"ADDRESS":"北園街８７巷１３３號","OBJECTID":268976},"geometry":{"x":170154.13000000082,"y":2545881.2100000009}},{"attributes":{"ID":268982,"DIS_CODE":0,"TOWNNAME":"北區","LI":"開元里","LIN":"17鄰","STREET":"北園街","SECT":" ","MAREA":" ","LANE":"８７巷","ALLEY":" ","HOUSE_NO":"１３７號","E_COORD97":170155.54999999999,"N_COORD97":2545891.0099999998,"ADDRESS":"北園街８７巷１３７號","OBJECTID":268977},"geometry":{"x":170155.55000000168,"y":2545891.0099999998}},{"attributes":{"ID":268983,"DIS_CODE":0,"TOWNNAME":"北區","LI":"開元里","LIN":"17鄰","STREET":"北園街","SECT":" ","MAREA":" ","LANE":"８７巷","ALLEY":" ","HOUSE_NO":"１４３號","E_COORD97":170156.42000000001,"N_COORD97":2545898.98,"ADDRESS":"北園街８７巷１４３號","OBJECTID":268978},"geometry":{"x":170156.42000000179,"y":2545898.9800000004}},{"attributes":{"ID":268984,"DIS_CODE":0,"TOWNNAME":"北區","LI":"開元里","LIN":"17鄰","STREET":"北園街","SECT":" ","MAREA":" ","LANE":"８７巷","ALLEY":" ","HOUSE_NO":"１４５號","E_COORD97":170156.73999999999,"N_COORD97":2545904.3199999998,"ADDRESS":"北園街８７巷１４５號","OBJECTID":268979},"geometry":{"x":170156.74000000115,"y":2545904.320000004}},{"attributes":{"ID":268985,"DIS_CODE":0,"TOWNNAME":"北區","LI":"開元里","LIN":"17鄰","STREET":"北園街","SECT":" ","MAREA":" ","LANE":"８７巷","ALLEY":" ","HOUSE_NO":"１４７號","E_COORD97":170157.79000000001,"N_COORD97":2545908.4399999999,"ADDRESS":"北園街８７巷１４７號","OBJECTID":268980},"geometry":{"x":170157.79000000097,"y":2545908.4399999995}},{"attributes":{"ID":268986,"DIS_CODE":0,"TOWNNAME":"北區","LI":"開元里","LIN":"17鄰","STREET":"北園街","SECT":" ","MAREA":" ","LANE":"８７巷","ALLEY":" ","HOUSE_NO":"１４９號","E_COORD97":170159.09,"N_COORD97":2545915.0099999998,"ADDRESS":"北園街８７巷１４９號","OBJECTID":268981},"geometry":{"x":170159.09000000078,"y":2545915.0099999998}},{"attributes":{"ID":268987,"DIS_CODE":0,"TOWNNAME":"北區","LI":"長榮里","LIN":"17鄰","STREET":"開元路","SECT":" ","MAREA":" ","LANE":"２４９巷","ALLEY":" ","HOUSE_NO":"３０號","E_COORD97":169892.39000000001,"N_COORD97":2545519.2799999998,"ADDRESS":"開元路２４９巷３０號","OBJECTID":268982},"geometry":{"x":169892.3900000006,"y":2545519.2799999993}},{"attributes":{"ID":268988,"DIS_CODE":0,"TOWNNAME":"北區","LI":"長榮里","LIN":"17鄰","STREET":"開元路","SECT":" ","MAREA":" ","LANE":"２４９巷","ALLEY":" ","HOUSE_NO":"３２號","E_COORD97":169890.01000000001,"N_COORD97":2545522.1400000001,"ADDRESS":"開元路２４９巷３２號","OBJECTID":268983},"geometry":{"x":169890.01000000071,"y":2545522.1400000006}},{"attributes":{"ID":268989,"DIS_CODE":0,"TOWNNAME":"北區","LI":"長榮里","LIN":"17鄰","STREET":"開元路","SECT":" ","MAREA":" ","LANE":"２４９巷","ALLEY":" ","HOUSE_NO":"３６號","E_COORD97":169886.51999999999,"N_COORD97":2545524.3599999999,"ADDRESS":"開元路２４９巷３６號","OBJECTID":268984},"geometry":{"x":169886.52000000048,"y":2545524.3600000013}},{"attributes":{"ID":268990,"DIS_CODE":0,"TOWNNAME":"北區","LI":"長榮里","LIN":"17鄰","STREET":"開元路","SECT":" ","MAREA":" ","LANE":"２４９巷","ALLEY":" ","HOUSE_NO":"３８號","E_COORD97":169880.17000000001,"N_COORD97":2545527.0600000001,"ADDRESS":"開元路２４９巷３８號","OBJECTID":268985},"geometry":{"x":169880.17000000179,"y":2545527.0600000024}},{"attributes":{"ID":268991,"DIS_CODE":0,"TOWNNAME":"新營區","LI":"忠政里","LIN":"17鄰","STREET":"府西路","SECT":" ","MAREA":" ","LANE":"２５８巷","ALLEY":" ","HOUSE_NO":"４１號","E_COORD97":179899.09,"N_COORD97":2579743.77,"ADDRESS":"府西路２５８巷４１號","OBJECTID":268986},"geometry":{"x":179899.08999999892,"y":2579743.7700000014}},{"attributes":{"ID":268992,"DIS_CODE":0,"TOWNNAME":"鹽水區","LI":"水正里","LIN":"17鄰","STREET":"中正路","SECT":" ","MAREA":" ","LANE":"１４２巷","ALLEY":" ","HOUSE_NO":"２號","E_COORD97":175035.97,"N_COORD97":2579696.5499999998,"ADDRESS":"中正路１４２巷２號","OBJECTID":268987},"geometry":{"x":175035.96999999974,"y":2579696.5500000026}},{"attributes":{"ID":268993,"DIS_CODE":0,"TOWNNAME":"關廟區","LI":"山西里","LIN":"17鄰","STREET":"崇明街","SECT":" ","MAREA":" ","LANE":"３巷","ALLEY":" ","HOUSE_NO":"１９號","E_COORD97":181005.42000000001,"N_COORD97":2540625.25,"ADDRESS":"崇明街３巷１９號","OBJECTID":268988},"geometry":{"x":181005.41999999993,"y":2540625.2499999981}},{"attributes":{"ID":268994,"DIS_CODE":0,"TOWNNAME":"關廟區","LI":"山西里","LIN":"17鄰","STREET":"崇明街","SECT":" ","MAREA":" ","LANE":"３巷","ALLEY":" ","HOUSE_NO":"２２號","E_COORD97":181005.12,"N_COORD97":2540636.25,"ADDRESS":"崇明街３巷２２號","OBJECTID":268989},"geometry":{"x":181005.12000000104,"y":2540636.2500000019}},{"attributes":{"ID":268995,"DIS_CODE":0,"TOWNNAME":"關廟區","LI":"山西里","LIN":"17鄰","STREET":"崇明街","SECT":" ","MAREA":" ","LANE":"３巷","ALLEY":" ","HOUSE_NO":"２８號","E_COORD97":180991.62,"N_COORD97":2540641.25,"ADDRESS":"崇明街３巷２８號","OBJECTID":268990},"geometry":{"x":180991.62000000104,"y":2540641.25}},{"attributes":{"ID":268996,"DIS_CODE":0,"TOWNNAME":"關廟區","LI":"北花里","LIN":"17鄰","STREET":"中正路","SECT":" ","MAREA":" ","LANE":"５３７巷","ALLEY":" ","HOUSE_NO":"１５號","E_COORD97":182385.53,"N_COORD97":2540454.3799999999,"ADDRESS":"中正路５３７巷１５號","OBJECTID":268991},"geometry":{"x":182385.53000000119,"y":2540454.3800000008}},{"attributes":{"ID":268997,"DIS_CODE":0,"TOWNNAME":"關廟區","LI":"北花里","LIN":"17鄰","STREET":"中正路","SECT":" ","MAREA":" ","LANE":"５３７巷","ALLEY":" ","HOUSE_NO":"１１號","E_COORD97":182377.48999999999,"N_COORD97":2540454.7000000002,"ADDRESS":"中正路５３７巷１１號","OBJECTID":268992},"geometry":{"x":182377.49000000115,"y":2540454.6999999993}},{"attributes":{"ID":268998,"DIS_CODE":0,"TOWNNAME":"關廟區","LI":"北花里","LIN":"17鄰","STREET":"中正路","SECT":" ","MAREA":" ","LANE":"５３７巷","ALLEY":" ","HOUSE_NO":"２６號","E_COORD97":182378.32999999999,"N_COORD97":2540437.4700000002,"ADDRESS":"中正路５３７巷２６號","OBJECTID":268993},"geometry":{"x":182378.33000000101,"y":2540437.4700000007}},{"attributes":{"ID":268999,"DIS_CODE":0,"TOWNNAME":"關廟區","LI":"北花里","LIN":"17鄰","STREET":"中正路","SECT":" ","MAREA":" ","LANE":"５３７巷","ALLEY":" ","HOUSE_NO":"１號","E_COORD97":182357.44,"N_COORD97":2540460.7000000002,"ADDRESS":"中正路５３７巷１號","OBJECTID":268994},"geometry":{"x":182357.44000000134,"y":2540460.6999999993}},{"attributes":{"ID":269000,"DIS_CODE":0,"TOWNNAME":"關廟區","LI":"北花里","LIN":"17鄰","STREET":"中正路","SECT":" ","MAREA":" ","LANE":"５３７巷","ALLEY":" ","HOUSE_NO":"１６號","E_COORD97":182363.32999999999,"N_COORD97":2540443.4700000002,"ADDRESS":"中正路５３７巷１６號","OBJECTID":268995},"geometry":{"x":182363.33000000101,"y":2540443.4700000007}},{"attributes":{"ID":269001,"DIS_CODE":0,"TOWNNAME":"關廟區","LI":"山西里","LIN":"17鄰","STREET":"崇明街","SECT":" ","MAREA":" ","LANE":"３巷","ALLEY":" ","HOUSE_NO":"１號","E_COORD97":181045.26999999999,"N_COORD97":2540612.25,"ADDRESS":"崇明街３巷１號","OBJECTID":268996},"geometry":{"x":181045.27000000142,"y":2540612.2500000019}},{"attributes":{"ID":269002,"DIS_CODE":0,"TOWNNAME":"關廟區","LI":"北花里","LIN":"17鄰","STREET":"中正路","SECT":" ","MAREA":" ","LANE":"５３７巷","ALLEY":" ","HOUSE_NO":"５號","E_COORD97":182365.14000000001,"N_COORD97":2540458.7000000002,"ADDRESS":"中正路５３７巷５號","OBJECTID":268997},"geometry":{"x":182365.14000000153,"y":2540458.700000003}},{"attributes":{"ID":269003,"DIS_CODE":0,"TOWNNAME":"關廟區","LI":"北花里","LIN":"17鄰","STREET":"中正路","SECT":" ","MAREA":" ","LANE":"５１３巷","ALLEY":" ","HOUSE_NO":"７號","E_COORD97":182459.85999999999,"N_COORD97":2540499.25,"ADDRESS":"中正路５１３巷７號","OBJECTID":268998},"geometry":{"x":182459.86000000127,"y":2540499.25}},{"attributes":{"ID":269004,"DIS_CODE":0,"TOWNNAME":"關廟區","LI":"北花里","LIN":"17鄰","STREET":"中正路","SECT":" ","MAREA":" ","LANE":"５３７巷","ALLEY":" ","HOUSE_NO":"７號","E_COORD97":182368.14000000001,"N_COORD97":2540456.7000000002,"ADDRESS":"中正路５３７巷７號","OBJECTID":268999},"geometry":{"x":182368.13999999966,"y":2540456.7000000011}},{"attributes":{"ID":269005,"DIS_CODE":0,"TOWNNAME":"關廟區","LI":"東勢里","LIN":"17鄰","STREET":"旺萊路","SECT":" ","MAREA":" ","LANE":"２６０巷","ALLEY":" ","HOUSE_NO":"６號","E_COORD97":181924.04000000001,"N_COORD97":2539363.25,"ADDRESS":"旺萊路２６０巷６號","OBJECTID":269000},"geometry":{"x":181924.04000000097,"y":2539363.25}}]}