{"displayFieldName":"TOWNNAME","fieldAliases":{"ID":"ID","DIS_CODE":"DIS_CODE","TOWNNAME":"TOWNNAME","LI":"LI","LIN":"LIN","STREET":"STREET","SECT":"SECT","MAREA":"MAREA","LANE":"LANE","ALLEY":"ALLEY","HOUSE_NO":"HOUSE_NO","E_COORD97":"E_COORD97","N_COORD97":"N_COORD97","ADDRESS":"ADDRESS","OBJECTID":"OBJECTID"},"geometryType":"esriGeometryPoint","spatialReference":{"wkid":102443,"latestWkid":3826},"fields":[{"name":"ID","type":"esriFieldTypeDouble","alias":"ID"},{"name":"DIS_CODE","type":"esriFieldTypeInteger","alias":"DIS_CODE"},{"name":"TOWNNAME","type":"esriFieldTypeString","alias":"TOWNNAME","length":8},{"name":"LI","type":"esriFieldTypeString","alias":"LI","length":8},{"name":"LIN","type":"esriFieldTypeString","alias":"LIN","length":12},{"name":"STREET","type":"esriFieldTypeString","alias":"STREET","length":20},{"name":"SECT","type":"esriFieldTypeString","alias":"SECT","length":8},{"name":"MAREA","type":"esriFieldTypeString","alias":"MAREA","length":12},{"name":"LANE","type":"esriFieldTypeString","alias":"LANE","length":10},{"name":"ALLEY","type":"esriFieldTypeString","alias":"ALLEY","length":10},{"name":"HOUSE_NO","type":"esriFieldTypeString","alias":"HOUSE_NO","length":20},{"name":"E_COORD97","type":"esriFieldTypeDouble","alias":"E_COORD97"},{"name":"N_COORD97","type":"esriFieldTypeDouble","alias":"N_COORD97"},{"name":"ADDRESS","type":"esriFieldTypeString","alias":"ADDRESS","length":50},{"name":"OBJECTID","type":"esriFieldTypeOID","alias":"OBJECTID"}],"features":[{"attributes":{"ID":347210,"DIS_CODE":0,"TOWNNAME":"永康區","LI":"王行里","LIN":"6鄰","STREET":"育樂街","SECT":" ","MAREA":" ","LANE":"１６６巷","ALLEY":" ","HOUSE_NO":"２２號","E_COORD97":175120.35000000001,"N_COORD97":2548412.6600000001,"ADDRESS":"育樂街１６６巷２２號","OBJECTID":347201},"geometry":{"x":175120.35000000056,"y":2548412.6600000001}},{"attributes":{"ID":347211,"DIS_CODE":0,"TOWNNAME":"永康區","LI":"安康里","LIN":"6鄰","STREET":"中華西街","SECT":" ","MAREA":" ","LANE":"１９６巷","ALLEY":" ","HOUSE_NO":"２６號","E_COORD97":170702.88,"N_COORD97":2546386.25,"ADDRESS":"中華西街１９６巷２６號","OBJECTID":347202},"geometry":{"x":170702.88000000082,"y":2546386.2500000019}},{"attributes":{"ID":347212,"DIS_CODE":0,"TOWNNAME":"永康區","LI":"西勢里","LIN":"6鄰","STREET":"富強路","SECT":"一段","MAREA":" ","LANE":"３２１巷","ALLEY":" ","HOUSE_NO":"２號","E_COORD97":175693.29000000001,"N_COORD97":2546700.96,"ADDRESS":"富強路一段３２１巷２號","OBJECTID":347203},"geometry":{"x":175693.29000000004,"y":2546700.9600000028}},{"attributes":{"ID":347213,"DIS_CODE":0,"TOWNNAME":"永康區","LI":"新樹里","LIN":"6鄰","STREET":"西勢路","SECT":" ","MAREA":" ","LANE":"２２８巷","ALLEY":" ","HOUSE_NO":"１９號","E_COORD97":175751.97,"N_COORD97":2546833.8300000001,"ADDRESS":"西勢路２２８巷１９號","OBJECTID":347204},"geometry":{"x":175751.97000000067,"y":2546833.8300000019}},{"attributes":{"ID":347214,"DIS_CODE":0,"TOWNNAME":"東區","LI":"路東里","LIN":"15鄰","STREET":"大同路","SECT":"二段","MAREA":" ","LANE":"６１巷","ALLEY":" ","HOUSE_NO":"１１１號","E_COORD97":169416.82999999999,"N_COORD97":2542373.6200000001,"ADDRESS":"大同路二段６１巷１１１號","OBJECTID":347205},"geometry":{"x":169416.83000000101,"y":2542373.6200000048}},{"attributes":{"ID":347215,"DIS_CODE":0,"TOWNNAME":"東區","LI":"路東里","LIN":"15鄰","STREET":"大同路","SECT":"二段","MAREA":" ","LANE":"６１巷","ALLEY":" ","HOUSE_NO":"１１３號","E_COORD97":169416.45999999999,"N_COORD97":2542379.8799999999,"ADDRESS":"大同路二段６１巷１１３號","OBJECTID":347206},"geometry":{"x":169416.45999999996,"y":2542379.8800000027}},{"attributes":{"ID":347216,"DIS_CODE":0,"TOWNNAME":"東區","LI":"路東里","LIN":"15鄰","STREET":"大同路","SECT":"二段","MAREA":" ","LANE":"６１巷","ALLEY":" ","HOUSE_NO":"１１５號","E_COORD97":169414.25,"N_COORD97":2542386.5,"ADDRESS":"大同路二段６１巷１１５號","OBJECTID":347207},"geometry":{"x":169414.25000000093,"y":2542386.4999999981}},{"attributes":{"ID":347217,"DIS_CODE":0,"TOWNNAME":"東區","LI":"路東里","LIN":"15鄰","STREET":"大同路","SECT":"二段","MAREA":" ","LANE":"６１巷","ALLEY":" ","HOUSE_NO":"１２３號","E_COORD97":169434.06,"N_COORD97":2542388.4700000002,"ADDRESS":"大同路二段６１巷１２３號","OBJECTID":347208},"geometry":{"x":169434.05999999959,"y":2542388.4700000025}},{"attributes":{"ID":347218,"DIS_CODE":0,"TOWNNAME":"東區","LI":"大德里","LIN":"8鄰","STREET":"立德十一路","SECT":" ","MAREA":" ","LANE":" ","ALLEY":" ","HOUSE_NO":"１號","E_COORD97":169389.28,"N_COORD97":2542093.21,"ADDRESS":"立德十一路１號","OBJECTID":347209},"geometry":{"x":169389.28000000026,"y":2542093.2100000009}},{"attributes":{"ID":347219,"DIS_CODE":0,"TOWNNAME":"永康區","LI":"大橋里","LIN":"8鄰","STREET":"大橋三街","SECT":" ","MAREA":" ","LANE":" ","ALLEY":" ","HOUSE_NO":"２４３號","E_COORD97":170975.73000000001,"N_COORD97":2546855.2799999998,"ADDRESS":"大橋三街２４３號","OBJECTID":347210},"geometry":{"x":170975.73000000138,"y":2546855.2799999993}},{"attributes":{"ID":347220,"DIS_CODE":0,"TOWNNAME":"永康區","LI":"大橋里","LIN":"8鄰","STREET":"大橋三街","SECT":" ","MAREA":" ","LANE":" ","ALLEY":" ","HOUSE_NO":"２０３號","E_COORD97":170878.95000000001,"N_COORD97":2546794.1000000001,"ADDRESS":"大橋三街２０３號","OBJECTID":347211},"geometry":{"x":170878.95000000112,"y":2546794.1000000015}},{"attributes":{"ID":347221,"DIS_CODE":0,"TOWNNAME":"永康區","LI":"大橋里","LIN":"8鄰","STREET":"大橋三街","SECT":" ","MAREA":" ","LANE":" ","ALLEY":" ","HOUSE_NO":"２１５號","E_COORD97":170902.94,"N_COORD97":2546808.7999999998,"ADDRESS":"大橋三街２１５號","OBJECTID":347212},"geometry":{"x":170902.94000000134,"y":2546808.8000000007}},{"attributes":{"ID":347222,"DIS_CODE":0,"TOWNNAME":"永康區","LI":"大灣里","LIN":"8鄰","STREET":"大安街","SECT":" ","MAREA":" ","LANE":" ","ALLEY":" ","HOUSE_NO":"２７８號","E_COORD97":174721.13,"N_COORD97":2545424.2400000002,"ADDRESS":"大安街２７８號","OBJECTID":347213},"geometry":{"x":174721.12999999989,"y":2545424.2400000021}},{"attributes":{"ID":347223,"DIS_CODE":0,"TOWNNAME":"北區","LI":"成德里","LIN":"38鄰","STREET":"育德二路","SECT":" ","MAREA":" ","LANE":"７７７巷","ALLEY":" ","HOUSE_NO":"４１號","E_COORD97":168054.42000000001,"N_COORD97":2546618.0899999999,"ADDRESS":"育德二路７７７巷４１號","OBJECTID":347214},"geometry":{"x":168054.42000000179,"y":2546618.0900000017}},{"attributes":{"ID":347224,"DIS_CODE":0,"TOWNNAME":"永康區","LI":"復國里","LIN":"18鄰","STREET":"復國一路","SECT":" ","MAREA":" ","LANE":"３３４巷","ALLEY":" ","HOUSE_NO":"１１號","E_COORD97":172811.34,"N_COORD97":2545668.77,"ADDRESS":"復國一路３３４巷１１號","OBJECTID":347215},"geometry":{"x":172811.33999999985,"y":2545668.7699999996}},{"attributes":{"ID":347225,"DIS_CODE":0,"TOWNNAME":"永康區","LI":"蔦松里","LIN":"7鄰","STREET":"蔦松一街","SECT":" ","MAREA":" ","LANE":"２２巷","ALLEY":" ","HOUSE_NO":"３０號","E_COORD97":174078.59,"N_COORD97":2549434.54,"ADDRESS":"蔦松一街２２巷３０號","OBJECTID":347216},"geometry":{"x":174078.59000000078,"y":2549434.540000001}},{"attributes":{"ID":347226,"DIS_CODE":0,"TOWNNAME":"北區","LI":"成德里","LIN":"38鄰","STREET":"育德二路","SECT":" ","MAREA":" ","LANE":"７７７巷","ALLEY":" ","HOUSE_NO":"４３號","E_COORD97":168052.51999999999,"N_COORD97":2546624.04,"ADDRESS":"育德二路７７７巷４３號","OBJECTID":347217},"geometry":{"x":168052.51999999955,"y":2546624.040000001}},{"attributes":{"ID":347227,"DIS_CODE":0,"TOWNNAME":"北區","LI":"成德里","LIN":"38鄰","STREET":"育德二路","SECT":" ","MAREA":" ","LANE":"７７７巷","ALLEY":" ","HOUSE_NO":"４５號","E_COORD97":168050.45000000001,"N_COORD97":2546630.3900000001,"ADDRESS":"育德二路７７７巷４５號","OBJECTID":347218},"geometry":{"x":168050.45000000019,"y":2546630.3900000025}},{"attributes":{"ID":347228,"DIS_CODE":0,"TOWNNAME":"東區","LI":"龍山里","LIN":"4鄰","STREET":"德光街","SECT":" ","MAREA":" ","LANE":"１５巷","ALLEY":" ","HOUSE_NO":"３９號","E_COORD97":170599.5,"N_COORD97":2542582.6899999999,"ADDRESS":"德光街１５巷３９號","OBJECTID":347219},"geometry":{"x":170599.5,"y":2542582.6900000013}},{"attributes":{"ID":347229,"DIS_CODE":0,"TOWNNAME":"東區","LI":"路東里","LIN":"15鄰","STREET":"大同路","SECT":"二段","MAREA":" ","LANE":"６１巷","ALLEY":" ","HOUSE_NO":"１２５號","E_COORD97":169434.06,"N_COORD97":2542370.9300000002,"ADDRESS":"大同路二段６１巷１２５號","OBJECTID":347220},"geometry":{"x":169434.05999999959,"y":2542370.9300000016}},{"attributes":{"ID":347230,"DIS_CODE":0,"TOWNNAME":"東區","LI":"路東里","LIN":"15鄰","STREET":"大同路","SECT":"二段","MAREA":" ","LANE":"６１巷","ALLEY":" ","HOUSE_NO":"１２７號","E_COORD97":169433.42999999999,"N_COORD97":2542362.6400000001,"ADDRESS":"大同路二段６１巷１２７號","OBJECTID":347221},"geometry":{"x":169433.4299999997,"y":2542362.6400000043}},{"attributes":{"ID":347231,"DIS_CODE":0,"TOWNNAME":"東區","LI":"路東里","LIN":"15鄰","STREET":"大同路","SECT":"二段","MAREA":" ","LANE":"６１巷","ALLEY":" ","HOUSE_NO":"１２９號","E_COORD97":169432.79000000001,"N_COORD97":2542358.8199999998,"ADDRESS":"大同路二段６１巷１２９號","OBJECTID":347222},"geometry":{"x":169432.79000000004,"y":2542358.8200000022}},{"attributes":{"ID":347232,"DIS_CODE":0,"TOWNNAME":"東區","LI":"路東里","LIN":"15鄰","STREET":"大同路","SECT":"二段","MAREA":" ","LANE":"６１巷","ALLEY":" ","HOUSE_NO":"１３１號","E_COORD97":169433.42999999999,"N_COORD97":2542355.3100000001,"ADDRESS":"大同路二段６１巷１３１號","OBJECTID":347223},"geometry":{"x":169433.4299999997,"y":2542355.3100000024}},{"attributes":{"ID":347233,"DIS_CODE":0,"TOWNNAME":"東區","LI":"路東里","LIN":"15鄰","STREET":"大同路","SECT":"二段","MAREA":" ","LANE":"６１巷","ALLEY":" ","HOUSE_NO":"１３３號","E_COORD97":169435.01999999999,"N_COORD97":2542351.7999999998,"ADDRESS":"大同路二段６１巷１３３號","OBJECTID":347224},"geometry":{"x":169435.02000000142,"y":2542351.8000000045}},{"attributes":{"ID":347234,"DIS_CODE":0,"TOWNNAME":"東區","LI":"路東里","LIN":"15鄰","STREET":"大同路","SECT":"二段","MAREA":" ","LANE":"６１巷","ALLEY":" ","HOUSE_NO":"１３５號","E_COORD97":169434.38,"N_COORD97":2542346.0600000001,"ADDRESS":"大同路二段６１巷１３５號","OBJECTID":347225},"geometry":{"x":169434.37999999989,"y":2542346.0600000042}},{"attributes":{"ID":347235,"DIS_CODE":0,"TOWNNAME":"東區","LI":"路東里","LIN":"15鄰","STREET":"大同路","SECT":"二段","MAREA":" ","LANE":"６１巷","ALLEY":" ","HOUSE_NO":"１３７號","E_COORD97":169435.34,"N_COORD97":2542344.1499999999,"ADDRESS":"大同路二段６１巷１３７號","OBJECTID":347226},"geometry":{"x":169435.34000000078,"y":2542344.1500000004}},{"attributes":{"ID":347236,"DIS_CODE":0,"TOWNNAME":"東區","LI":"路東里","LIN":"15鄰","STREET":"大同路","SECT":"二段","MAREA":" ","LANE":"６１巷","ALLEY":" ","HOUSE_NO":"１３９號","E_COORD97":169435.66,"N_COORD97":2542340.6400000001,"ADDRESS":"大同路二段６１巷１３９號","OBJECTID":347227},"geometry":{"x":169435.66000000015,"y":2542340.6400000006}},{"attributes":{"ID":347237,"DIS_CODE":0,"TOWNNAME":"東區","LI":"路東里","LIN":"15鄰","STREET":"大同路","SECT":"二段","MAREA":" ","LANE":"６１巷","ALLEY":" ","HOUSE_NO":"１４１號","E_COORD97":169435.98000000001,"N_COORD97":2542336.8100000001,"ADDRESS":"大同路二段６１巷１４１號","OBJECTID":347228},"geometry":{"x":169435.98000000045,"y":2542336.8100000005}},{"attributes":{"ID":347238,"DIS_CODE":0,"TOWNNAME":"東區","LI":"路東里","LIN":"15鄰","STREET":"大同路","SECT":"二段","MAREA":" ","LANE":"６１巷","ALLEY":" ","HOUSE_NO":"１４３號","E_COORD97":169436.29999999999,"N_COORD97":2542333.2999999998,"ADDRESS":"大同路二段６１巷１４３號","OBJECTID":347229},"geometry":{"x":169436.29999999981,"y":2542333.3000000007}},{"attributes":{"ID":347239,"DIS_CODE":0,"TOWNNAME":"東區","LI":"路東里","LIN":"15鄰","STREET":"大同路","SECT":"二段","MAREA":" ","LANE":"６１巷","ALLEY":" ","HOUSE_NO":"３９號","E_COORD97":169421.03,"N_COORD97":2542317.3399999999,"ADDRESS":"大同路二段６１巷３９號","OBJECTID":347230},"geometry":{"x":169421.03000000119,"y":2542317.3400000017}},{"attributes":{"ID":347240,"DIS_CODE":0,"TOWNNAME":"東區","LI":"路東里","LIN":"15鄰","STREET":"大同路","SECT":"二段","MAREA":" ","LANE":"６１巷","ALLEY":" ","HOUSE_NO":"４１號","E_COORD97":169415.04999999999,"N_COORD97":2542322.5,"ADDRESS":"大同路二段６１巷４１號","OBJECTID":347231},"geometry":{"x":169415.05000000075,"y":2542322.5000000037}},{"attributes":{"ID":347241,"DIS_CODE":0,"TOWNNAME":"東區","LI":"路東里","LIN":"15鄰","STREET":"大同路","SECT":"二段","MAREA":" ","LANE":"６１巷","ALLEY":" ","HOUSE_NO":"４３號","E_COORD97":169413.95999999999,"N_COORD97":2542326.5699999998,"ADDRESS":"大同路二段６１巷４３號","OBJECTID":347232},"geometry":{"x":169413.96000000089,"y":2542326.5700000022}},{"attributes":{"ID":347242,"DIS_CODE":0,"TOWNNAME":"永康區","LI":"正強里","LIN":"6鄰","STREET":"自強路","SECT":" ","MAREA":" ","LANE":"３３０巷","ALLEY":" ","HOUSE_NO":"７號","E_COORD97":173425.38,"N_COORD97":2547672.5,"ADDRESS":"自強路３３０巷７號","OBJECTID":347233},"geometry":{"x":173425.38000000082,"y":2547672.5000000037}},{"attributes":{"ID":347243,"DIS_CODE":0,"TOWNNAME":"東區","LI":"路東里","LIN":"15鄰","STREET":"大同路","SECT":"二段","MAREA":" ","LANE":"６１巷","ALLEY":" ","HOUSE_NO":"４５號","E_COORD97":169413.69,"N_COORD97":2542330.6400000001,"ADDRESS":"大同路二段６１巷４５號","OBJECTID":347234},"geometry":{"x":169413.69000000041,"y":2542330.6400000006}},{"attributes":{"ID":347244,"DIS_CODE":0,"TOWNNAME":"東區","LI":"路東里","LIN":"15鄰","STREET":"大同路","SECT":"二段","MAREA":" ","LANE":"６１巷","ALLEY":" ","HOUSE_NO":"４７號","E_COORD97":169413.42000000001,"N_COORD97":2542334.4399999999,"ADDRESS":"大同路二段６１巷４７號","OBJECTID":347235},"geometry":{"x":169413.41999999993,"y":2542334.4399999995}},{"attributes":{"ID":347245,"DIS_CODE":0,"TOWNNAME":"東區","LI":"路東里","LIN":"16鄰","STREET":"大同路","SECT":"二段","MAREA":" ","LANE":"６１巷","ALLEY":" ","HOUSE_NO":"１５９號","E_COORD97":169450.98999999999,"N_COORD97":2542366.1499999999,"ADDRESS":"大同路二段６１巷１５９號","OBJECTID":347236},"geometry":{"x":169450.98999999929,"y":2542366.1500000022}},{"attributes":{"ID":347246,"DIS_CODE":0,"TOWNNAME":"永康區","LI":"大橋里","LIN":"8鄰","STREET":"大橋三街","SECT":" ","MAREA":" ","LANE":" ","ALLEY":" ","HOUSE_NO":"２３１號","E_COORD97":170951.14000000001,"N_COORD97":2546839.7799999998,"ADDRESS":"大橋三街２３１號","OBJECTID":347237},"geometry":{"x":170951.13999999966,"y":2546839.7800000012}},{"attributes":{"ID":347247,"DIS_CODE":0,"TOWNNAME":"永康區","LI":"中興里","LIN":"8鄰","STREET":"中山東路","SECT":" ","MAREA":" ","LANE":" ","ALLEY":" ","HOUSE_NO":"４２９號","E_COORD97":171970.70999999999,"N_COORD97":2545038.9900000002,"ADDRESS":"中山東路４２９號","OBJECTID":347238},"geometry":{"x":171970.71000000089,"y":2545038.9900000021}},{"attributes":{"ID":347248,"DIS_CODE":0,"TOWNNAME":"永康區","LI":"大橋里","LIN":"8鄰","STREET":"大橋三街","SECT":" ","MAREA":" ","LANE":" ","ALLEY":" ","HOUSE_NO":"２５９號","E_COORD97":171033.94,"N_COORD97":2546902.6600000001,"ADDRESS":"大橋三街２５９號","OBJECTID":347239},"geometry":{"x":171033.94000000134,"y":2546902.660000002}},{"attributes":{"ID":347249,"DIS_CODE":0,"TOWNNAME":"永康區","LI":"大橋里","LIN":"8鄰","STREET":"大橋三街","SECT":" ","MAREA":" ","LANE":" ","ALLEY":" ","HOUSE_NO":"２４５號","E_COORD97":170979.23000000001,"N_COORD97":2546857.7799999998,"ADDRESS":"大橋三街２４５號","OBJECTID":347240},"geometry":{"x":170979.23000000138,"y":2546857.7799999993}},{"attributes":{"ID":347250,"DIS_CODE":0,"TOWNNAME":"永康區","LI":"大灣里","LIN":"8鄰","STREET":"民族路","SECT":" ","MAREA":" ","LANE":" ","ALLEY":" ","HOUSE_NO":"４００號","E_COORD97":174753.95999999999,"N_COORD97":2545380.2400000002,"ADDRESS":"民族路４００號","OBJECTID":347241},"geometry":{"x":174753.96000000089,"y":2545380.2400000021}},{"attributes":{"ID":347251,"DIS_CODE":0,"TOWNNAME":"永康區","LI":"大橋里","LIN":"8鄰","STREET":"大橋三街","SECT":" ","MAREA":" ","LANE":" ","ALLEY":" ","HOUSE_NO":"２５３號","E_COORD97":171000.60000000001,"N_COORD97":2546871.2000000002,"ADDRESS":"大橋三街２５３號","OBJECTID":347242},"geometry":{"x":171000.59999999963,"y":2546871.2000000011}},{"attributes":{"ID":347252,"DIS_CODE":0,"TOWNNAME":"永康區","LI":"復國里","LIN":"18鄰","STREET":"復國一路","SECT":" ","MAREA":" ","LANE":"３３４巷","ALLEY":" ","HOUSE_NO":"５號","E_COORD97":172796.59,"N_COORD97":2545671.02,"ADDRESS":"復國一路３３４巷５號","OBJECTID":347243},"geometry":{"x":172796.59000000078,"y":2545671.0199999996}},{"attributes":{"ID":347253,"DIS_CODE":0,"TOWNNAME":"永康區","LI":"西橋里","LIN":" ","STREET":"大橋一街","SECT":" ","MAREA":" ","LANE":"３１巷","ALLEY":" ","HOUSE_NO":"１２號","E_COORD97":170579.07999999999,"N_COORD97":2546277.2400000002,"ADDRESS":"大橋一街３１巷１２號","OBJECTID":347244},"geometry":{"x":170579.08000000007,"y":2546277.2399999984}},{"attributes":{"ID":347254,"DIS_CODE":0,"TOWNNAME":"永康區","LI":"復華里","LIN":"24鄰","STREET":"復華八街","SECT":" ","MAREA":" ","LANE":"５６巷","ALLEY":" ","HOUSE_NO":"３號","E_COORD97":172761.92000000001,"N_COORD97":2546279.27,"ADDRESS":"復華八街５６巷３號","OBJECTID":347245},"geometry":{"x":172761.92000000179,"y":2546279.2699999996}},{"attributes":{"ID":347255,"DIS_CODE":0,"TOWNNAME":"北區","LI":"成德里","LIN":"38鄰","STREET":"育德二路","SECT":" ","MAREA":" ","LANE":"８０９巷","ALLEY":" ","HOUSE_NO":"７號","E_COORD97":168015.85000000001,"N_COORD97":2546698.6499999999,"ADDRESS":"育德二路８０９巷７號","OBJECTID":347246},"geometry":{"x":168015.85000000056,"y":2546698.6500000041}},{"attributes":{"ID":347256,"DIS_CODE":0,"TOWNNAME":"歸仁區","LI":"南興里","LIN":"38鄰","STREET":"中山路","SECT":"三段","MAREA":" ","LANE":"４３６巷","ALLEY":" ","HOUSE_NO":"４９號","E_COORD97":175945.41,"N_COORD97":2541130.2799999998,"ADDRESS":"中山路三段４３６巷４９號","OBJECTID":347247},"geometry":{"x":175945.41000000015,"y":2541130.2800000012}},{"attributes":{"ID":347257,"DIS_CODE":0,"TOWNNAME":"歸仁區","LI":"許厝里","LIN":"38鄰","STREET":"公園路","SECT":" ","MAREA":" ","LANE":"６６巷","ALLEY":" ","HOUSE_NO":"８號","E_COORD97":178023.84,"N_COORD97":2540555.2799999998,"ADDRESS":"公園路６６巷８號","OBJECTID":347248},"geometry":{"x":178023.83999999985,"y":2540555.2799999993}},{"attributes":{"ID":347258,"DIS_CODE":0,"TOWNNAME":"安南區","LI":"安慶里","LIN":"6鄰","STREET":"怡安路","SECT":"一段","MAREA":" ","LANE":"２９１巷","ALLEY":" ","HOUSE_NO":"１５號","E_COORD97":168978.94,"N_COORD97":2549055.9100000001,"ADDRESS":"怡安路一段２９１巷１５號","OBJECTID":347249},"geometry":{"x":168978.94000000134,"y":2549055.9100000001}},{"attributes":{"ID":347259,"DIS_CODE":0,"TOWNNAME":"東區","LI":"路東里","LIN":"17鄰","STREET":"大同路","SECT":"二段","MAREA":" ","LANE":"６１巷","ALLEY":" ","HOUSE_NO":"１６４號","E_COORD97":169500.98000000001,"N_COORD97":2542320.4399999999,"ADDRESS":"大同路二段６１巷１６４號","OBJECTID":347250},"geometry":{"x":169500.98000000138,"y":2542320.4399999995}},{"attributes":{"ID":347260,"DIS_CODE":0,"TOWNNAME":"東區","LI":"路東里","LIN":"17鄰","STREET":"大同路","SECT":"二段","MAREA":" ","LANE":"６１巷","ALLEY":" ","HOUSE_NO":"１６８號","E_COORD97":169513.76000000001,"N_COORD97":2542322.3399999999,"ADDRESS":"大同路二段６１巷１６８號","OBJECTID":347251},"geometry":{"x":169513.76000000071,"y":2542322.3399999999}},{"attributes":{"ID":347261,"DIS_CODE":0,"TOWNNAME":"東區","LI":"路東里","LIN":"17鄰","STREET":"大同路","SECT":"二段","MAREA":" ","LANE":"６１巷","ALLEY":" ","HOUSE_NO":"１７０號","E_COORD97":169508.32999999999,"N_COORD97":2542336.1699999999,"ADDRESS":"大同路二段６１巷１７０號","OBJECTID":347252},"geometry":{"x":169508.33000000101,"y":2542336.1700000018}},{"attributes":{"ID":347262,"DIS_CODE":0,"TOWNNAME":"東區","LI":"路東里","LIN":"17鄰","STREET":"大同路","SECT":"二段","MAREA":" ","LANE":"６１巷","ALLEY":" ","HOUSE_NO":"１７２號","E_COORD97":169507.37,"N_COORD97":2542345.4199999999,"ADDRESS":"大同路二段６１巷１７２號","OBJECTID":347253},"geometry":{"x":169507.37000000011,"y":2542345.4199999999}},{"attributes":{"ID":347263,"DIS_CODE":0,"TOWNNAME":"東區","LI":"路東里","LIN":"17鄰","STREET":"大同路","SECT":"二段","MAREA":" ","LANE":"６１巷","ALLEY":" ","HOUSE_NO":"１７４號","E_COORD97":169506.73000000001,"N_COORD97":2542349.8900000001,"ADDRESS":"大同路二段６１巷１７４號","OBJECTID":347254},"geometry":{"x":169506.73000000045,"y":2542349.8900000006}},{"attributes":{"ID":347264,"DIS_CODE":0,"TOWNNAME":"東區","LI":"路東里","LIN":"17鄰","STREET":"大同路","SECT":"二段","MAREA":" ","LANE":"６１巷","ALLEY":" ","HOUSE_NO":"１７６號","E_COORD97":169505.13,"N_COORD97":2542354.3500000001,"ADDRESS":"大同路二段６１巷１７６號","OBJECTID":347255},"geometry":{"x":169505.12999999989,"y":2542354.3500000015}},{"attributes":{"ID":347265,"DIS_CODE":0,"TOWNNAME":"東區","LI":"路東里","LIN":"17鄰","STREET":"大同路","SECT":"二段","MAREA":" ","LANE":"６１巷","ALLEY":" ","HOUSE_NO":"１７８號","E_COORD97":169495.06,"N_COORD97":2542352.7599999998,"ADDRESS":"大同路二段６１巷１７８號","OBJECTID":347256},"geometry":{"x":169495.05999999959,"y":2542352.7599999998}},{"attributes":{"ID":347266,"DIS_CODE":0,"TOWNNAME":"新市區","LI":"新和里","LIN":"6鄰","STREET":"富強路","SECT":" ","MAREA":" ","LANE":"３１巷","ALLEY":" ","HOUSE_NO":"８號","E_COORD97":177333.57000000001,"N_COORD97":2552401.75,"ADDRESS":"富強路３１巷８號","OBJECTID":347257},"geometry":{"x":177333.57000000123,"y":2552401.7500000019}},{"attributes":{"ID":347267,"DIS_CODE":0,"TOWNNAME":"新市區","LI":"新和里","LIN":"6鄰","STREET":"富強路","SECT":" ","MAREA":" ","LANE":"４１巷","ALLEY":" ","HOUSE_NO":"３號","E_COORD97":177312.45999999999,"N_COORD97":2552408.25,"ADDRESS":"富強路４１巷３號","OBJECTID":347258},"geometry":{"x":177312.46000000089,"y":2552408.2500000019}},{"attributes":{"ID":347268,"DIS_CODE":0,"TOWNNAME":"中西區","LI":"三合里","LIN":"6鄰","STREET":"民族路","SECT":"三段","MAREA":" ","LANE":"１４８巷","ALLEY":" ","HOUSE_NO":"１７號","E_COORD97":167573.89999999999,"N_COORD97":2544436.8599999999,"ADDRESS":"民族路三段１４８巷１７號","OBJECTID":347259},"geometry":{"x":167573.9000000013,"y":2544436.8599999994}},{"attributes":{"ID":347269,"DIS_CODE":0,"TOWNNAME":"永康區","LI":"\u25A0洲里","LIN":"10鄰","STREET":"\u25A0行路","SECT":" ","MAREA":" ","LANE":"１２８巷","ALLEY":" ","HOUSE_NO":"４號","E_COORD97":171466.31,"N_COORD97":2549255.7400000002,"ADDRESS":"\u25A0行路１２８巷４號","OBJECTID":347260},"geometry":{"x":171466.31000000052,"y":2549255.7400000021}},{"attributes":{"ID":347270,"DIS_CODE":0,"TOWNNAME":"中西區","LI":"三合里","LIN":"6鄰","STREET":"民族路","SECT":"三段","MAREA":" ","LANE":"１４８巷","ALLEY":" ","HOUSE_NO":"１號","E_COORD97":167570.89999999999,"N_COORD97":2544407.5800000001,"ADDRESS":"民族路三段１４８巷１號","OBJECTID":347261},"geometry":{"x":167570.9000000013,"y":2544407.5800000019}},{"attributes":{"ID":347271,"DIS_CODE":0,"TOWNNAME":"永康區","LI":"大灣里","LIN":"8鄰","STREET":"大安街","SECT":" ","MAREA":" ","LANE":" ","ALLEY":" ","HOUSE_NO":"３０８號","E_COORD97":174701.20000000001,"N_COORD97":2545523.6000000001,"ADDRESS":"大安街３０８號","OBJECTID":347262},"geometry":{"x":174701.19999999925,"y":2545523.5999999996}},{"attributes":{"ID":347272,"DIS_CODE":0,"TOWNNAME":"永康區","LI":"中興里","LIN":"8鄰","STREET":"中山東路","SECT":" ","MAREA":" ","LANE":" ","ALLEY":" ","HOUSE_NO":"３９５號","E_COORD97":171955.41,"N_COORD97":2545109,"ADDRESS":"中山東路３９５號","OBJECTID":347263},"geometry":{"x":171955.41000000201,"y":2545108.9999999981}},{"attributes":{"ID":347273,"DIS_CODE":0,"TOWNNAME":"善化區","LI":"南關里","LIN":"8鄰","STREET":"三民路","SECT":" ","MAREA":" ","LANE":" ","ALLEY":" ","HOUSE_NO":"１５號之１","E_COORD97":177007.60999999999,"N_COORD97":2558819.52,"ADDRESS":"三民路１５號之１","OBJECTID":347264},"geometry":{"x":177007.6100000022,"y":2558819.5200000033}},{"attributes":{"ID":347274,"DIS_CODE":0,"TOWNNAME":"善化區","LI":"南關里","LIN":"8鄰","STREET":"三民路","SECT":" ","MAREA":" ","LANE":" ","ALLEY":" ","HOUSE_NO":"１７號之２３","E_COORD97":176921.04000000001,"N_COORD97":2558760.02,"ADDRESS":"三民路１７號之２３","OBJECTID":347265},"geometry":{"x":176921.04000000004,"y":2558760.0199999996}},{"attributes":{"ID":347275,"DIS_CODE":0,"TOWNNAME":"善化區","LI":"東關里","LIN":"8鄰","STREET":"中山路","SECT":" ","MAREA":" ","LANE":" ","ALLEY":" ","HOUSE_NO":"４５５號","E_COORD97":177279.62,"N_COORD97":2559115.5,"ADDRESS":"中山路４５５號","OBJECTID":347266},"geometry":{"x":177279.62000000011,"y":2559115.5000000019}},{"attributes":{"ID":347276,"DIS_CODE":0,"TOWNNAME":"善化區","LI":"南關里","LIN":"8鄰","STREET":"三民路","SECT":" ","MAREA":" ","LANE":" ","ALLEY":" ","HOUSE_NO":"１７號之２２","E_COORD97":176925.45000000001,"N_COORD97":2558759.77,"ADDRESS":"三民路１７號之２２","OBJECTID":347267},"geometry":{"x":176925.45000000205,"y":2558759.7699999977}},{"attributes":{"ID":347277,"DIS_CODE":0,"TOWNNAME":"永康區","LI":"大橋里","LIN":" ","STREET":"大橋三街","SECT":" ","MAREA":" ","LANE":"２１６巷","ALLEY":" ","HOUSE_NO":"１５３號","E_COORD97":171038.60999999999,"N_COORD97":2546973.4900000002,"ADDRESS":"大橋三街２１６巷１５３號","OBJECTID":347268},"geometry":{"x":171038.61000000034,"y":2546973.4900000002}},{"attributes":{"ID":347278,"DIS_CODE":0,"TOWNNAME":"永康區","LI":"西勢里","LIN":" ","STREET":"富強路","SECT":"一段","MAREA":" ","LANE":"１９４巷","ALLEY":" ","HOUSE_NO":"２１５之２號","E_COORD97":175693.13,"N_COORD97":2545855.71,"ADDRESS":"富強路一段１９４巷２１５之２號","OBJECTID":347269},"geometry":{"x":175693.13000000175,"y":2545855.7100000028}},{"attributes":{"ID":347279,"DIS_CODE":0,"TOWNNAME":"中西區","LI":"三合里","LIN":"6鄰","STREET":"民族路","SECT":"三段","MAREA":" ","LANE":"１４８巷","ALLEY":" ","HOUSE_NO":"２１號","E_COORD97":167565.64999999999,"N_COORD97":2544448.75,"ADDRESS":"民族路三段１４８巷２１號","OBJECTID":347270},"geometry":{"x":167565.6500000013,"y":2544448.75}},{"attributes":{"ID":347280,"DIS_CODE":0,"TOWNNAME":"中西區","LI":"三合里","LIN":"6鄰","STREET":"民族路","SECT":"三段","MAREA":" ","LANE":"１４８巷","ALLEY":" ","HOUSE_NO":"２３號","E_COORD97":167570.04000000001,"N_COORD97":2544446.4300000002,"ADDRESS":"民族路三段１４８巷２３號","OBJECTID":347271},"geometry":{"x":167570.04000000004,"y":2544446.4300000016}},{"attributes":{"ID":347281,"DIS_CODE":0,"TOWNNAME":"中西區","LI":"三合里","LIN":"6鄰","STREET":"民族路","SECT":"三段","MAREA":" ","LANE":"１４８巷","ALLEY":" ","HOUSE_NO":"２５號","E_COORD97":167578.95000000001,"N_COORD97":2544450.1699999999,"ADDRESS":"民族路三段１４８巷２５號","OBJECTID":347272},"geometry":{"x":167578.95000000112,"y":2544450.1700000037}},{"attributes":{"ID":347282,"DIS_CODE":0,"TOWNNAME":"中西區","LI":"三合里","LIN":"6鄰","STREET":"民族路","SECT":"三段","MAREA":" ","LANE":"１４８巷","ALLEY":" ","HOUSE_NO":"２７號","E_COORD97":167583.47,"N_COORD97":2544448.75,"ADDRESS":"民族路三段１４８巷２７號","OBJECTID":347273},"geometry":{"x":167583.46999999974,"y":2544448.75}},{"attributes":{"ID":347283,"DIS_CODE":0,"TOWNNAME":"中西區","LI":"三合里","LIN":"6鄰","STREET":"民族路","SECT":"三段","MAREA":" ","LANE":"１４８巷","ALLEY":" ","HOUSE_NO":"２９號","E_COORD97":167586.63,"N_COORD97":2544444.8100000001,"ADDRESS":"民族路三段１４８巷２９號","OBJECTID":347274},"geometry":{"x":167586.62999999989,"y":2544444.8100000005}},{"attributes":{"ID":347284,"DIS_CODE":0,"TOWNNAME":"中西區","LI":"三合里","LIN":"6鄰","STREET":"民族路","SECT":"三段","MAREA":" ","LANE":"１４８巷","ALLEY":" ","HOUSE_NO":"３１號","E_COORD97":167593.67000000001,"N_COORD97":2544448.75,"ADDRESS":"民族路三段１４８巷３１號","OBJECTID":347275},"geometry":{"x":167593.67000000086,"y":2544448.75}},{"attributes":{"ID":347285,"DIS_CODE":0,"TOWNNAME":"中西區","LI":"三合里","LIN":"6鄰","STREET":"民族路","SECT":"三段","MAREA":" ","LANE":"１４８巷","ALLEY":" ","HOUSE_NO":"３３號","E_COORD97":167638.45999999999,"N_COORD97":2544437.9199999999,"ADDRESS":"民族路三段１４８巷３３號","OBJECTID":347276},"geometry":{"x":167638.45999999996,"y":2544437.9199999999}},{"attributes":{"ID":347286,"DIS_CODE":0,"TOWNNAME":"中西區","LI":"三合里","LIN":"6鄰","STREET":"民族路","SECT":"三段","MAREA":" ","LANE":"１４８巷","ALLEY":" ","HOUSE_NO":"３５號","E_COORD97":167640.23000000001,"N_COORD97":2544440.5,"ADDRESS":"民族路三段１４８巷３５號","OBJECTID":347277},"geometry":{"x":167640.23000000045,"y":2544440.5}},{"attributes":{"ID":347287,"DIS_CODE":0,"TOWNNAME":"中西區","LI":"三合里","LIN":"6鄰","STREET":"民族路","SECT":"三段","MAREA":" ","LANE":"１４８巷","ALLEY":" ","HOUSE_NO":"３號","E_COORD97":167573.37,"N_COORD97":2544411.6400000001,"ADDRESS":"民族路三段１４８巷３號","OBJECTID":347278},"geometry":{"x":167573.37000000011,"y":2544411.6400000025}},{"attributes":{"ID":347288,"DIS_CODE":0,"TOWNNAME":"中西區","LI":"三合里","LIN":"6鄰","STREET":"民族路","SECT":"三段","MAREA":" ","LANE":"１４８巷","ALLEY":" ","HOUSE_NO":"５號","E_COORD97":167574.42999999999,"N_COORD97":2544414.8199999998,"ADDRESS":"民族路三段１４８巷５號","OBJECTID":347279},"geometry":{"x":167574.43000000156,"y":2544414.8200000003}},{"attributes":{"ID":347289,"DIS_CODE":0,"TOWNNAME":"中西區","LI":"三合里","LIN":"6鄰","STREET":"民族路","SECT":"三段","MAREA":" ","LANE":"１４８巷","ALLEY":" ","HOUSE_NO":"７號","E_COORD97":167575.14000000001,"N_COORD97":2544420.8199999998,"ADDRESS":"民族路三段１４８巷７號","OBJECTID":347280},"geometry":{"x":167575.1400000006,"y":2544420.8200000003}},{"attributes":{"ID":347290,"DIS_CODE":0,"TOWNNAME":"中西區","LI":"三合里","LIN":"6鄰","STREET":"民族路","SECT":"三段","MAREA":" ","LANE":"１４８巷","ALLEY":" ","HOUSE_NO":"９號","E_COORD97":167576.20000000001,"N_COORD97":2544425.0600000001,"ADDRESS":"民族路三段１４８巷９號","OBJECTID":347281},"geometry":{"x":167576.20000000019,"y":2544425.0600000024}},{"attributes":{"ID":347291,"DIS_CODE":0,"TOWNNAME":"中西區","LI":"三合里","LIN":"6鄰","STREET":"民族路","SECT":"三段","MAREA":" ","LANE":"１７６巷","ALLEY":" ","HOUSE_NO":"２４號","E_COORD97":167553.14999999999,"N_COORD97":2544480.0499999998,"ADDRESS":"民族路三段１７６巷２４號","OBJECTID":347282},"geometry":{"x":167553.14999999944,"y":2544480.0500000026}},{"attributes":{"ID":347292,"DIS_CODE":0,"TOWNNAME":"中西區","LI":"三合里","LIN":"6鄰","STREET":"民族路","SECT":"三段","MAREA":" ","LANE":"１４８巷","ALLEY":" ","HOUSE_NO":"１４號","E_COORD97":167592.56,"N_COORD97":2544414.2200000002,"ADDRESS":"民族路三段１４８巷１４號","OBJECTID":347283},"geometry":{"x":167592.56000000052,"y":2544414.2200000025}},{"attributes":{"ID":347293,"DIS_CODE":0,"TOWNNAME":"東區","LI":"路東里","LIN":"18鄰","STREET":"大同路","SECT":"二段","MAREA":" ","LANE":"６１巷","ALLEY":" ","HOUSE_NO":"１００號","E_COORD97":169426.20999999999,"N_COORD97":2542185.04,"ADDRESS":"大同路二段６１巷１００號","OBJECTID":347284},"geometry":{"x":169426.21000000089,"y":2542185.0399999991}},{"attributes":{"ID":347294,"DIS_CODE":0,"TOWNNAME":"東區","LI":"路東里","LIN":"18鄰","STREET":"大同路","SECT":"二段","MAREA":" ","LANE":"６１巷","ALLEY":" ","HOUSE_NO":"１０２號","E_COORD97":169426.20999999999,"N_COORD97":2542193.1000000001,"ADDRESS":"大同路二段６１巷１０２號","OBJECTID":347285},"geometry":{"x":169426.21000000089,"y":2542193.1000000015}},{"attributes":{"ID":347295,"DIS_CODE":0,"TOWNNAME":"東區","LI":"路東里","LIN":"18鄰","STREET":"大同路","SECT":"二段","MAREA":" ","LANE":"６１巷","ALLEY":" ","HOUSE_NO":"１０４號","E_COORD97":169427.89000000001,"N_COORD97":2542201.1600000001,"ADDRESS":"大同路二段６１巷１０４號","OBJECTID":347286},"geometry":{"x":169427.8900000006,"y":2542201.1600000001}},{"attributes":{"ID":347296,"DIS_CODE":0,"TOWNNAME":"東區","LI":"路東里","LIN":"7鄰","STREET":"大同路","SECT":"二段","MAREA":" ","LANE":"６１巷","ALLEY":" ","HOUSE_NO":"２５號","E_COORD97":169415.72,"N_COORD97":2542256.1299999999,"ADDRESS":"大同路二段６１巷２５號","OBJECTID":347287},"geometry":{"x":169415.72000000067,"y":2542256.1300000027}},{"attributes":{"ID":347297,"DIS_CODE":0,"TOWNNAME":"東區","LI":"路東里","LIN":"7鄰","STREET":"大同路","SECT":"二段","MAREA":" ","LANE":"６１巷","ALLEY":" ","HOUSE_NO":"２７號","E_COORD97":169417.29999999999,"N_COORD97":2542263.21,"ADDRESS":"大同路二段６１巷２７號","OBJECTID":347288},"geometry":{"x":169417.29999999981,"y":2542263.2100000009}},{"attributes":{"ID":347298,"DIS_CODE":0,"TOWNNAME":"善化區","LI":"南關里","LIN":"8鄰","STREET":"三民路","SECT":" ","MAREA":" ","LANE":" ","ALLEY":" ","HOUSE_NO":"１７之１６號","E_COORD97":176950.57000000001,"N_COORD97":2558721.52,"ADDRESS":"三民路１７之１６號","OBJECTID":347289},"geometry":{"x":176950.57000000123,"y":2558721.5200000014}},{"attributes":{"ID":347299,"DIS_CODE":0,"TOWNNAME":"善化區","LI":"南關里","LIN":"8鄰","STREET":"三民路","SECT":" ","MAREA":" ","LANE":" ","ALLEY":" ","HOUSE_NO":"１７號之２８","E_COORD97":176935.51000000001,"N_COORD97":2558722.52,"ADDRESS":"三民路１７號之２８","OBJECTID":347290},"geometry":{"x":176935.51000000071,"y":2558722.5200000014}},{"attributes":{"ID":347300,"DIS_CODE":0,"TOWNNAME":"永康區","LI":"南灣里","LIN":" ","STREET":"南興路","SECT":" ","MAREA":" ","LANE":"２巷","ALLEY":" ","HOUSE_NO":"２１之５號","E_COORD97":174503.69,"N_COORD97":2544066.0499999998,"ADDRESS":"南興路２巷２１之５號","OBJECTID":347291},"geometry":{"x":174503.69000000134,"y":2544066.0500000026}},{"attributes":{"ID":347301,"DIS_CODE":0,"TOWNNAME":"永康區","LI":"\u25A0行里","LIN":"38鄰","STREET":"仁愛街","SECT":" ","MAREA":" ","LANE":"１３６巷","ALLEY":" ","HOUSE_NO":"５５號","E_COORD97":172295.01000000001,"N_COORD97":2549611.27,"ADDRESS":"仁愛街１３６巷５５號","OBJECTID":347292},"geometry":{"x":172295.01000000164,"y":2549611.2699999996}},{"attributes":{"ID":347302,"DIS_CODE":0,"TOWNNAME":"永康區","LI":"復華里","LIN":"4鄰","STREET":"國華街","SECT":" ","MAREA":" ","LANE":"１０２巷","ALLEY":" ","HOUSE_NO":"７６號","E_COORD97":172941.75,"N_COORD97":2546162.7799999998,"ADDRESS":"國華街１０２巷７６號","OBJECTID":347293},"geometry":{"x":172941.75000000093,"y":2546162.7799999993}},{"attributes":{"ID":347303,"DIS_CODE":0,"TOWNNAME":"永康區","LI":"埔園里","LIN":"18鄰","STREET":"龍埔街","SECT":" ","MAREA":" ","LANE":"４６７巷","ALLEY":" ","HOUSE_NO":"６號","E_COORD97":173526.64999999999,"N_COORD97":2548346.9900000002,"ADDRESS":"龍埔街４６７巷６號","OBJECTID":347294},"geometry":{"x":173526.65000000037,"y":2548346.9900000002}},{"attributes":{"ID":347304,"DIS_CODE":0,"TOWNNAME":"永康區","LI":"西勢里","LIN":" ","STREET":"廣興街","SECT":" ","MAREA":" ","LANE":"２９０巷","ALLEY":" ","HOUSE_NO":"１７５號","E_COORD97":176153.10999999999,"N_COORD97":2546588.6000000001,"ADDRESS":"廣興街２９０巷１７５號","OBJECTID":347295},"geometry":{"x":176153.1100000022,"y":2546588.5999999996}},{"attributes":{"ID":347305,"DIS_CODE":0,"TOWNNAME":"永康區","LI":"南灣里","LIN":" ","STREET":"大灣一街","SECT":" ","MAREA":" ","LANE":"１３１巷","ALLEY":" ","HOUSE_NO":"１２號","E_COORD97":174592.22,"N_COORD97":2544697.8900000001,"ADDRESS":"大灣一街１３１巷１２號","OBJECTID":347296},"geometry":{"x":174592.2200000016,"y":2544697.8900000025}},{"attributes":{"ID":347306,"DIS_CODE":0,"TOWNNAME":"東區","LI":"路東里","LIN":"7鄰","STREET":"大同路","SECT":"二段","MAREA":" ","LANE":"６１巷","ALLEY":" ","HOUSE_NO":"２９號","E_COORD97":169416.66,"N_COORD97":2542276.3599999999,"ADDRESS":"大同路二段６１巷２９號","OBJECTID":347297},"geometry":{"x":169416.66000000108,"y":2542276.3600000013}},{"attributes":{"ID":347307,"DIS_CODE":0,"TOWNNAME":"東區","LI":"路東里","LIN":"7鄰","STREET":"大同路","SECT":"二段","MAREA":" ","LANE":"６１巷","ALLEY":" ","HOUSE_NO":"３１號","E_COORD97":169418.42999999999,"N_COORD97":2542288.4700000002,"ADDRESS":"大同路二段６１巷３１號","OBJECTID":347298},"geometry":{"x":169418.4299999997,"y":2542288.4700000007}},{"attributes":{"ID":347308,"DIS_CODE":0,"TOWNNAME":"東區","LI":"路東里","LIN":"7鄰","STREET":"大同路","SECT":"二段","MAREA":" ","LANE":"６１巷","ALLEY":" ","HOUSE_NO":"３３號","E_COORD97":169419.12,"N_COORD97":2542296.71,"ADDRESS":"大同路二段６１巷３３號","OBJECTID":347299},"geometry":{"x":169419.12000000011,"y":2542296.7100000009}},{"attributes":{"ID":347309,"DIS_CODE":0,"TOWNNAME":"東區","LI":"路東里","LIN":"7鄰","STREET":"大同路","SECT":"二段","MAREA":" ","LANE":"６１巷","ALLEY":" ","HOUSE_NO":"３５號","E_COORD97":169420.75,"N_COORD97":2542307.5699999998,"ADDRESS":"大同路二段６１巷３５號","OBJECTID":347300},"geometry":{"x":169420.75000000093,"y":2542307.5700000003}},{"attributes":{"ID":347310,"DIS_CODE":0,"TOWNNAME":"中西區","LI":"三合里","LIN":"6鄰","STREET":"民族路","SECT":"三段","MAREA":" ","LANE":"１４８巷","ALLEY":" ","HOUSE_NO":"１６號","E_COORD97":167602.60999999999,"N_COORD97":2544414.5,"ADDRESS":"民族路三段１４８巷１６號","OBJECTID":347301},"geometry":{"x":167602.6100000022,"y":2544414.5000000019}},{"attributes":{"ID":347311,"DIS_CODE":0,"TOWNNAME":"中西區","LI":"三合里","LIN":"6鄰","STREET":"民族路","SECT":"三段","MAREA":" ","LANE":"１４８巷","ALLEY":" ","HOUSE_NO":"１８號","E_COORD97":167604.87,"N_COORD97":2544417.6899999999,"ADDRESS":"民族路三段１４８巷１８號","OBJECTID":347302},"geometry":{"x":167604.87000000104,"y":2544417.6899999995}},{"attributes":{"ID":347312,"DIS_CODE":0,"TOWNNAME":"中西區","LI":"三合里","LIN":"6鄰","STREET":"民族路","SECT":"三段","MAREA":" ","LANE":"１４８巷","ALLEY":" ","HOUSE_NO":"２０號","E_COORD97":167607.06,"N_COORD97":2544422.2000000002,"ADDRESS":"民族路三段１４８巷２０號","OBJECTID":347303},"geometry":{"x":167607.05999999959,"y":2544422.200000003}},{"attributes":{"ID":347313,"DIS_CODE":0,"TOWNNAME":"中西區","LI":"三合里","LIN":"6鄰","STREET":"民族路","SECT":"三段","MAREA":" ","LANE":"１４８巷","ALLEY":" ","HOUSE_NO":"２２號","E_COORD97":167593.72,"N_COORD97":2544429.1899999999,"ADDRESS":"民族路三段１４８巷２２號","OBJECTID":347304},"geometry":{"x":167593.71999999974,"y":2544429.1900000032}},{"attributes":{"ID":347314,"DIS_CODE":0,"TOWNNAME":"中西區","LI":"三合里","LIN":"6鄰","STREET":"民族路","SECT":"三段","MAREA":" ","LANE":"１４８巷","ALLEY":" ","HOUSE_NO":"２４號","E_COORD97":167594.88,"N_COORD97":2544431.5099999998,"ADDRESS":"民族路三段１４８巷２４號","OBJECTID":347305},"geometry":{"x":167594.87999999989,"y":2544431.5100000016}},{"attributes":{"ID":347315,"DIS_CODE":0,"TOWNNAME":"中西區","LI":"三合里","LIN":"6鄰","STREET":"民族路","SECT":"三段","MAREA":" ","LANE":"１４８巷","ALLEY":" ","HOUSE_NO":"２６號","E_COORD97":167596.42999999999,"N_COORD97":2544434.2200000002,"ADDRESS":"民族路三段１４８巷２６號","OBJECTID":347306},"geometry":{"x":167596.43000000156,"y":2544434.2200000025}},{"attributes":{"ID":347316,"DIS_CODE":0,"TOWNNAME":"中西區","LI":"三合里","LIN":"6鄰","STREET":"民族路","SECT":"三段","MAREA":" ","LANE":"１４８巷","ALLEY":" ","HOUSE_NO":"２８號","E_COORD97":167598.10999999999,"N_COORD97":2544438.0899999999,"ADDRESS":"民族路三段１４８巷２８號","OBJECTID":347307},"geometry":{"x":167598.11000000127,"y":2544438.0900000017}},{"attributes":{"ID":347317,"DIS_CODE":0,"TOWNNAME":"中西區","LI":"三合里","LIN":"6鄰","STREET":"民族路","SECT":"三段","MAREA":" ","LANE":"１４８巷","ALLEY":" ","HOUSE_NO":"３０號","E_COORD97":167599.66,"N_COORD97":2544441.1899999999,"ADDRESS":"民族路三段１４８巷３０號","OBJECTID":347308},"geometry":{"x":167599.66000000015,"y":2544441.1899999995}},{"attributes":{"ID":347318,"DIS_CODE":0,"TOWNNAME":"中西區","LI":"三合里","LIN":"6鄰","STREET":"民族路","SECT":"三段","MAREA":" ","LANE":"１４８巷","ALLEY":" ","HOUSE_NO":"３２號","E_COORD97":167606.89000000001,"N_COORD97":2544443.8799999999,"ADDRESS":"民族路三段１４８巷３２號","OBJECTID":347309},"geometry":{"x":167606.89000000153,"y":2544443.879999999}},{"attributes":{"ID":347319,"DIS_CODE":0,"TOWNNAME":"中西區","LI":"三合里","LIN":"6鄰","STREET":"民族路","SECT":"三段","MAREA":" ","LANE":"１４８巷","ALLEY":" ","HOUSE_NO":"４號","E_COORD97":167583.09,"N_COORD97":2544400.9900000002,"ADDRESS":"民族路三段１４８巷４號","OBJECTID":347310},"geometry":{"x":167583.08999999985,"y":2544400.9900000039}},{"attributes":{"ID":347320,"DIS_CODE":0,"TOWNNAME":"中西區","LI":"三合里","LIN":"6鄰","STREET":"民族路","SECT":"三段","MAREA":" ","LANE":"１４８巷","ALLEY":" ","HOUSE_NO":"６號","E_COORD97":167584.42999999999,"N_COORD97":2544402.8399999999,"ADDRESS":"民族路三段１４８巷６號","OBJECTID":347311},"geometry":{"x":167584.42999999877,"y":2544402.8400000017}},{"attributes":{"ID":347321,"DIS_CODE":0,"TOWNNAME":"善化區","LI":"南關里","LIN":"8鄰","STREET":"光復路","SECT":" ","MAREA":" ","LANE":" ","ALLEY":" ","HOUSE_NO":"４４２號","E_COORD97":176871.14999999999,"N_COORD97":2558757.9700000002,"ADDRESS":"光復路４４２號","OBJECTID":347312},"geometry":{"x":176871.15000000037,"y":2558757.9700000025}},{"attributes":{"ID":347322,"DIS_CODE":0,"TOWNNAME":"善化區","LI":"南關里","LIN":"8鄰","STREET":"光復路","SECT":" ","MAREA":" ","LANE":" ","ALLEY":" ","HOUSE_NO":"４４６號","E_COORD97":176868.37,"N_COORD97":2558761.5600000001,"ADDRESS":"光復路４４６號","OBJECTID":347313},"geometry":{"x":176868.37000000197,"y":2558761.5600000005}},{"attributes":{"ID":347323,"DIS_CODE":0,"TOWNNAME":"善化區","LI":"南關里","LIN":"8鄰","STREET":"光復路","SECT":" ","MAREA":" ","LANE":" ","ALLEY":" ","HOUSE_NO":"４４８號","E_COORD97":176865.95999999999,"N_COORD97":2558764.54,"ADDRESS":"光復路４４８號","OBJECTID":347314},"geometry":{"x":176865.96000000089,"y":2558764.5400000028}},{"attributes":{"ID":347324,"DIS_CODE":0,"TOWNNAME":"善化區","LI":"南關里","LIN":"8鄰","STREET":"光復路","SECT":" ","MAREA":" ","LANE":" ","ALLEY":" ","HOUSE_NO":"４５０號","E_COORD97":176863.51999999999,"N_COORD97":2558768.2999999998,"ADDRESS":"光復路４５０號","OBJECTID":347315},"geometry":{"x":176863.52000000048,"y":2558768.3000000026}},{"attributes":{"ID":347325,"DIS_CODE":0,"TOWNNAME":"善化區","LI":"南關里","LIN":"8鄰","STREET":"光復路","SECT":" ","MAREA":" ","LANE":" ","ALLEY":" ","HOUSE_NO":"４５２號","E_COORD97":176861.14999999999,"N_COORD97":2558772.0099999998,"ADDRESS":"光復路４５２號","OBJECTID":347316},"geometry":{"x":176861.15000000037,"y":2558772.0100000035}},{"attributes":{"ID":347326,"DIS_CODE":0,"TOWNNAME":"善化區","LI":"南關里","LIN":"8鄰","STREET":"光復路","SECT":" ","MAREA":" ","LANE":" ","ALLEY":" ","HOUSE_NO":"４５６號","E_COORD97":176858.79999999999,"N_COORD97":2558775.7200000002,"ADDRESS":"光復路４５６號","OBJECTID":347317},"geometry":{"x":176858.80000000075,"y":2558775.7200000025}},{"attributes":{"ID":347327,"DIS_CODE":0,"TOWNNAME":"善化區","LI":"南關里","LIN":"8鄰","STREET":"光復路","SECT":" ","MAREA":" ","LANE":" ","ALLEY":" ","HOUSE_NO":"４５８號","E_COORD97":176856.28,"N_COORD97":2558779.1200000001,"ADDRESS":"光復路４５８號","OBJECTID":347318},"geometry":{"x":176856.28000000119,"y":2558779.120000001}},{"attributes":{"ID":347328,"DIS_CODE":0,"TOWNNAME":"善化區","LI":"南關里","LIN":"8鄰","STREET":"光復路","SECT":" ","MAREA":" ","LANE":" ","ALLEY":" ","HOUSE_NO":"４６０號","E_COORD97":176853.92000000001,"N_COORD97":2558782.6699999999,"ADDRESS":"光復路４６０號","OBJECTID":347319},"geometry":{"x":176853.91999999993,"y":2558782.6700000018}},{"attributes":{"ID":347329,"DIS_CODE":0,"TOWNNAME":"中西區","LI":"三合里","LIN":"6鄰","STREET":"民族路","SECT":"三段","MAREA":" ","LANE":"１４８巷","ALLEY":" ","HOUSE_NO":"８號","E_COORD97":167587.91,"N_COORD97":2544405.3199999998,"ADDRESS":"民族路三段１４８巷８號","OBJECTID":347320},"geometry":{"x":167587.91000000015,"y":2544405.3199999984}},{"attributes":{"ID":347330,"DIS_CODE":0,"TOWNNAME":"東區","LI":"路東里","LIN":"18鄰","STREET":"大同路","SECT":"二段","MAREA":" ","LANE":"６１巷","ALLEY":" ","HOUSE_NO":"６２號","E_COORD97":169421.16,"N_COORD97":2542115.73,"ADDRESS":"大同路二段６１巷６２號","OBJECTID":347321},"geometry":{"x":169421.16000000201,"y":2542115.7300000023}},{"attributes":{"ID":347331,"DIS_CODE":0,"TOWNNAME":"東區","LI":"路東里","LIN":"18鄰","STREET":"大同路","SECT":"二段","MAREA":" ","LANE":"６１巷","ALLEY":" ","HOUSE_NO":"６４號","E_COORD97":169421.16,"N_COORD97":2542119.0899999999,"ADDRESS":"大同路二段６１巷６４號","OBJECTID":347322},"geometry":{"x":169421.16000000201,"y":2542119.0900000017}},{"attributes":{"ID":347332,"DIS_CODE":0,"TOWNNAME":"東區","LI":"路東里","LIN":"18鄰","STREET":"大同路","SECT":"二段","MAREA":" ","LANE":"６１巷","ALLEY":" ","HOUSE_NO":"６６號","E_COORD97":169420.82000000001,"N_COORD97":2542122.1099999999,"ADDRESS":"大同路二段６１巷６６號","OBJECTID":347323},"geometry":{"x":169420.82000000123,"y":2542122.1100000013}},{"attributes":{"ID":347333,"DIS_CODE":0,"TOWNNAME":"東區","LI":"忠孝里","LIN":"6鄰","STREET":"榮譽街","SECT":" ","MAREA":" ","LANE":"８４巷","ALLEY":" ","HOUSE_NO":"７９號之５","E_COORD97":169757.13,"N_COORD97":2541594.1000000001,"ADDRESS":"榮譽街８４巷７９號之５","OBJECTID":347324},"geometry":{"x":169757.13000000082,"y":2541594.0999999996}},{"attributes":{"ID":347334,"DIS_CODE":0,"TOWNNAME":"東區","LI":"忠孝里","LIN":"6鄰","STREET":"榮譽街","SECT":" ","MAREA":" ","LANE":"８４巷","ALLEY":" ","HOUSE_NO":"７９號之６","E_COORD97":169759.60999999999,"N_COORD97":2541596.75,"ADDRESS":"榮譽街８４巷７９號之６","OBJECTID":347325},"geometry":{"x":169759.61000000127,"y":2541596.75}},{"attributes":{"ID":347335,"DIS_CODE":0,"TOWNNAME":"東區","LI":"德高里","LIN":"21鄰","STREET":"崇善路","SECT":" ","MAREA":" ","LANE":"８３５巷","ALLEY":" ","HOUSE_NO":"４號","E_COORD97":171332.10999999999,"N_COORD97":2540821.3199999998,"ADDRESS":"崇善路８３５巷４號","OBJECTID":347326},"geometry":{"x":171332.1100000022,"y":2540821.3200000003}},{"attributes":{"ID":347336,"DIS_CODE":0,"TOWNNAME":"東區","LI":"龍山里","LIN":"4鄰","STREET":"德光街","SECT":" ","MAREA":" ","LANE":"１５巷","ALLEY":" ","HOUSE_NO":"１２號","E_COORD97":170555.47,"N_COORD97":2542635.2999999998,"ADDRESS":"德光街１５巷１２號","OBJECTID":347327},"geometry":{"x":170555.46999999974,"y":2542635.3000000007}},{"attributes":{"ID":347337,"DIS_CODE":0,"TOWNNAME":"東區","LI":"龍山里","LIN":"4鄰","STREET":"德光街","SECT":" ","MAREA":" ","LANE":"１５巷","ALLEY":" ","HOUSE_NO":"１４號","E_COORD97":170560.69,"N_COORD97":2542631.3399999999,"ADDRESS":"德光街１５巷１４號","OBJECTID":347328},"geometry":{"x":170560.69000000134,"y":2542631.3399999999}},{"attributes":{"ID":347338,"DIS_CODE":0,"TOWNNAME":"東區","LI":"龍山里","LIN":"4鄰","STREET":"德光街","SECT":" ","MAREA":" ","LANE":"１５巷","ALLEY":" ","HOUSE_NO":"２１號","E_COORD97":170584.54999999999,"N_COORD97":2542639.3599999999,"ADDRESS":"德光街１５巷２１號","OBJECTID":347329},"geometry":{"x":170584.55000000075,"y":2542639.3600000013}},{"attributes":{"ID":347339,"DIS_CODE":0,"TOWNNAME":"下營區","LI":"營前里","LIN":"6鄰","STREET":"中正南路","SECT":" ","MAREA":" ","LANE":"１０６巷","ALLEY":" ","HOUSE_NO":"２號","E_COORD97":174611.73000000001,"N_COORD97":2570243.25,"ADDRESS":"中正南路１０６巷２號","OBJECTID":347330},"geometry":{"x":174611.73000000138,"y":2570243.25}},{"attributes":{"ID":347340,"DIS_CODE":0,"TOWNNAME":"下營區","LI":"營前里","LIN":"6鄰","STREET":"中正南路","SECT":" ","MAREA":" ","LANE":"１０６巷","ALLEY":" ","HOUSE_NO":"６號","E_COORD97":174593.54000000001,"N_COORD97":2570229.7999999998,"ADDRESS":"中正南路１０６巷６號","OBJECTID":347331},"geometry":{"x":174593.54000000004,"y":2570229.8000000007}},{"attributes":{"ID":347341,"DIS_CODE":0,"TOWNNAME":"下營區","LI":"營前里","LIN":"6鄰","STREET":"中山路","SECT":"二段","MAREA":" ","LANE":"８７巷","ALLEY":" ","HOUSE_NO":"２號","E_COORD97":174515.95000000001,"N_COORD97":2570234.4700000002,"ADDRESS":"中山路二段８７巷２號","OBJECTID":347332},"geometry":{"x":174515.95000000019,"y":2570234.4700000025}},{"attributes":{"ID":347342,"DIS_CODE":0,"TOWNNAME":"下營區","LI":"營前里","LIN":"6鄰","STREET":"中山路","SECT":"二段","MAREA":" ","LANE":"８７巷","ALLEY":" ","HOUSE_NO":"８號之１","E_COORD97":174494.66,"N_COORD97":2570251.3599999999,"ADDRESS":"中山路二段８７巷８號之１","OBJECTID":347333},"geometry":{"x":174494.65999999922,"y":2570251.3599999994}},{"attributes":{"ID":347343,"DIS_CODE":0,"TOWNNAME":"下營區","LI":"營前里","LIN":"6鄰","STREET":"中山路","SECT":"二段","MAREA":" ","LANE":"８７巷","ALLEY":" ","HOUSE_NO":"８號","E_COORD97":174514.41,"N_COORD97":2570252.8700000001,"ADDRESS":"中山路二段８７巷８號","OBJECTID":347334},"geometry":{"x":174514.41000000015,"y":2570252.870000001}},{"attributes":{"ID":347344,"DIS_CODE":0,"TOWNNAME":"東區","LI":"龍山里","LIN":"6鄰","STREET":"東門路","SECT":"二段","MAREA":" ","LANE":"１５８巷","ALLEY":" ","HOUSE_NO":"３號","E_COORD97":170169.54000000001,"N_COORD97":2542870.48,"ADDRESS":"東門路二段１５８巷３號","OBJECTID":347335},"geometry":{"x":170169.54000000097,"y":2542870.4800000004}},{"attributes":{"ID":347345,"DIS_CODE":0,"TOWNNAME":"永康區","LI":"尚頂里","LIN":"6鄰","STREET":"中正二街","SECT":" ","MAREA":" ","LANE":"１０５巷","ALLEY":" ","HOUSE_NO":"４６號","E_COORD97":170932.57000000001,"N_COORD97":2547637.02,"ADDRESS":"中正二街１０５巷４６號","OBJECTID":347336},"geometry":{"x":170932.57000000123,"y":2547637.0199999996}},{"attributes":{"ID":347346,"DIS_CODE":0,"TOWNNAME":"永康區","LI":"尚頂里","LIN":"6鄰","STREET":"中正二街","SECT":" ","MAREA":" ","LANE":"１０５巷","ALLEY":" ","HOUSE_NO":"３１號","E_COORD97":170933.70999999999,"N_COORD97":2547615.3199999998,"ADDRESS":"中正二街１０５巷３１號","OBJECTID":347337},"geometry":{"x":170933.70999999996,"y":2547615.3200000003}},{"attributes":{"ID":347347,"DIS_CODE":0,"TOWNNAME":"永康區","LI":"尚頂里","LIN":"6鄰","STREET":"中正二街","SECT":" ","MAREA":" ","LANE":"１０５巷","ALLEY":" ","HOUSE_NO":"１０號","E_COORD97":171027.70000000001,"N_COORD97":2547544.5299999998,"ADDRESS":"中正二街１０５巷１０號","OBJECTID":347338},"geometry":{"x":171027.70000000019,"y":2547544.5299999993}},{"attributes":{"ID":347348,"DIS_CODE":0,"TOWNNAME":"永康區","LI":"尚頂里","LIN":"6鄰","STREET":"中正二街","SECT":" ","MAREA":" ","LANE":"１０５巷","ALLEY":" ","HOUSE_NO":"１６號","E_COORD97":171016.23000000001,"N_COORD97":2547557.2799999998,"ADDRESS":"中正二街１０５巷１６號","OBJECTID":347339},"geometry":{"x":171016.23000000138,"y":2547557.2799999993}},{"attributes":{"ID":347349,"DIS_CODE":0,"TOWNNAME":"永康區","LI":"尚頂里","LIN":"6鄰","STREET":"中正二街","SECT":" ","MAREA":" ","LANE":"１０５巷","ALLEY":" ","HOUSE_NO":"１２號","E_COORD97":171023.73999999999,"N_COORD97":2547548.7799999998,"ADDRESS":"中正二街１０５巷１２號","OBJECTID":347340},"geometry":{"x":171023.74000000022,"y":2547548.7800000012}},{"attributes":{"ID":347350,"DIS_CODE":0,"TOWNNAME":"永康區","LI":"尚頂里","LIN":"6鄰","STREET":"中正二街","SECT":" ","MAREA":" ","LANE":"１０５巷","ALLEY":" ","HOUSE_NO":"２１號","E_COORD97":170966.32999999999,"N_COORD97":2547583.3300000001,"ADDRESS":"中正二街１０５巷２１號","OBJECTID":347341},"geometry":{"x":170966.33000000101,"y":2547583.3300000019}},{"attributes":{"ID":347351,"DIS_CODE":0,"TOWNNAME":"永康區","LI":"尚頂里","LIN":"6鄰","STREET":"中正二街","SECT":" ","MAREA":" ","LANE":"１０５巷","ALLEY":" ","HOUSE_NO":"６號","E_COORD97":171040.98999999999,"N_COORD97":2547530.77,"ADDRESS":"中正二街１０５巷６號","OBJECTID":347342},"geometry":{"x":171040.99000000022,"y":2547530.7699999977}},{"attributes":{"ID":347352,"DIS_CODE":0,"TOWNNAME":"永康區","LI":"尚頂里","LIN":"6鄰","STREET":"中正二街","SECT":" ","MAREA":" ","LANE":"１０５巷","ALLEY":" ","HOUSE_NO":"２５號","E_COORD97":170952.87,"N_COORD97":2547596.8199999998,"ADDRESS":"中正二街１０５巷２５號","OBJECTID":347343},"geometry":{"x":170952.87000000104,"y":2547596.8200000022}},{"attributes":{"ID":347353,"DIS_CODE":0,"TOWNNAME":"永康區","LI":"永康里","LIN":"6鄰","STREET":"中山南路","SECT":" ","MAREA":" ","LANE":"６５３巷","ALLEY":" ","HOUSE_NO":"２３號","E_COORD97":173782.23999999999,"N_COORD97":2547484.1099999999,"ADDRESS":"中山南路６５３巷２３號","OBJECTID":347344},"geometry":{"x":173782.24000000209,"y":2547484.1099999994}},{"attributes":{"ID":347354,"DIS_CODE":0,"TOWNNAME":"永康區","LI":"永康里","LIN":"6鄰","STREET":"中山南路","SECT":" ","MAREA":" ","LANE":"６５３巷","ALLEY":" ","HOUSE_NO":"２２號","E_COORD97":173795.37,"N_COORD97":2547494.2400000002,"ADDRESS":"中山南路６５３巷２２號","OBJECTID":347345},"geometry":{"x":173795.37000000104,"y":2547494.2400000002}},{"attributes":{"ID":347355,"DIS_CODE":0,"TOWNNAME":"永康區","LI":"永康里","LIN":"6鄰","STREET":"中山南路","SECT":" ","MAREA":" ","LANE":"６５３巷","ALLEY":" ","HOUSE_NO":"１２號","E_COORD97":173802.20000000001,"N_COORD97":2547466.75,"ADDRESS":"中山南路６５３巷１２號","OBJECTID":347346},"geometry":{"x":173802.20000000019,"y":2547466.75}},{"attributes":{"ID":347356,"DIS_CODE":0,"TOWNNAME":"永康區","LI":"北灣里","LIN":"6鄰","STREET":"大灣路","SECT":" ","MAREA":" ","LANE":"１１９巷","ALLEY":" ","HOUSE_NO":"１１號","E_COORD97":175154.89999999999,"N_COORD97":2545527.7400000002,"ADDRESS":"大灣路１１９巷１１號","OBJECTID":347347},"geometry":{"x":175154.9000000013,"y":2545527.7400000002}},{"attributes":{"ID":347357,"DIS_CODE":0,"TOWNNAME":"永康區","LI":"永康里","LIN":"6鄰","STREET":"中山南路","SECT":" ","MAREA":" ","LANE":"１１１６巷","ALLEY":" ","HOUSE_NO":"７號","E_COORD97":173894.54999999999,"N_COORD97":2547316.4900000002,"ADDRESS":"中山南路１１１６巷７號","OBJECTID":347348},"geometry":{"x":173894.54999999981,"y":2547316.4900000039}},{"attributes":{"ID":347358,"DIS_CODE":0,"TOWNNAME":"永康區","LI":"正強里","LIN":"6鄰","STREET":"自強路","SECT":" ","MAREA":" ","LANE":"３３０巷","ALLEY":" ","HOUSE_NO":"１７號","E_COORD97":173435.42999999999,"N_COORD97":2547651.5899999999,"ADDRESS":"自強路３３０巷１７號","OBJECTID":347349},"geometry":{"x":173435.43000000063,"y":2547651.5900000017}},{"attributes":{"ID":347359,"DIS_CODE":0,"TOWNNAME":"永康區","LI":"北灣里","LIN":"6鄰","STREET":"信義街","SECT":" ","MAREA":" ","LANE":"１２９巷","ALLEY":" ","HOUSE_NO":"１８號","E_COORD97":175176.89000000001,"N_COORD97":2545544.52,"ADDRESS":"信義街１２９巷１８號","OBJECTID":347350},"geometry":{"x":175176.88999999966,"y":2545544.5199999996}},{"attributes":{"ID":347360,"DIS_CODE":0,"TOWNNAME":"永康區","LI":"正強里","LIN":"6鄰","STREET":"自強路","SECT":" ","MAREA":" ","LANE":"３３０巷","ALLEY":" ","HOUSE_NO":"１３號","E_COORD97":173433.56,"N_COORD97":2547659.3399999999,"ADDRESS":"自強路３３０巷１３號","OBJECTID":347351},"geometry":{"x":173433.55999999866,"y":2547659.3399999999}},{"attributes":{"ID":347361,"DIS_CODE":0,"TOWNNAME":"安平區","LI":"育平里","LIN":"38鄰","STREET":"育平一街","SECT":" ","MAREA":" ","LANE":"１４巷","ALLEY":" ","HOUSE_NO":"２４號","E_COORD97":164476.59,"N_COORD97":2543072.1899999999,"ADDRESS":"育平一街１４巷２４號","OBJECTID":347352},"geometry":{"x":164476.59000000078,"y":2543072.1899999995}},{"attributes":{"ID":347362,"DIS_CODE":0,"TOWNNAME":"安平區","LI":"育平里","LIN":"38鄰","STREET":"育平一街","SECT":" ","MAREA":" ","LANE":"１４巷","ALLEY":" ","HOUSE_NO":"２６號","E_COORD97":164476.98999999999,"N_COORD97":2543076.3399999999,"ADDRESS":"育平一街１４巷２６號","OBJECTID":347353},"geometry":{"x":164476.99000000022,"y":2543076.3400000017}},{"attributes":{"ID":347363,"DIS_CODE":0,"TOWNNAME":"安平區","LI":"育平里","LIN":"38鄰","STREET":"育平一街","SECT":" ","MAREA":" ","LANE":"１４巷","ALLEY":" ","HOUSE_NO":"４３號","E_COORD97":164458.13,"N_COORD97":2543083.02,"ADDRESS":"育平一街１４巷４３號","OBJECTID":347354},"geometry":{"x":164458.13000000082,"y":2543083.0199999996}},{"attributes":{"ID":347364,"DIS_CODE":0,"TOWNNAME":"安平區","LI":"育平里","LIN":"38鄰","STREET":"育平一街","SECT":" ","MAREA":" ","LANE":"１４巷","ALLEY":" ","HOUSE_NO":"４５號","E_COORD97":164457.53,"N_COORD97":2543086.9700000002,"ADDRESS":"育平一街１４巷４５號","OBJECTID":347355},"geometry":{"x":164457.53000000119,"y":2543086.9700000025}},{"attributes":{"ID":347365,"DIS_CODE":0,"TOWNNAME":"安平區","LI":"育平里","LIN":"38鄰","STREET":"育平一街","SECT":" ","MAREA":" ","LANE":"１４巷","ALLEY":" ","HOUSE_NO":"８號","E_COORD97":164466.45000000001,"N_COORD97":2543015.9500000002,"ADDRESS":"育平一街１４巷８號","OBJECTID":347356},"geometry":{"x":164466.45000000112,"y":2543015.9499999993}},{"attributes":{"ID":347366,"DIS_CODE":0,"TOWNNAME":"安平區","LI":"育平里","LIN":"38鄰","STREET":"育平一街","SECT":" ","MAREA":" ","LANE":"１４巷","ALLEY":" ","HOUSE_NO":"４號","E_COORD97":164467.57000000001,"N_COORD97":2543007.27,"ADDRESS":"育平一街１４巷４號","OBJECTID":347357},"geometry":{"x":164467.57000000123,"y":2543007.2699999996}},{"attributes":{"ID":347367,"DIS_CODE":0,"TOWNNAME":"安平區","LI":"育平里","LIN":"38鄰","STREET":"育平一街","SECT":" ","MAREA":" ","LANE":"１４巷","ALLEY":" ","HOUSE_NO":"６號","E_COORD97":164468.35999999999,"N_COORD97":2543012.0299999998,"ADDRESS":"育平一街１４巷６號","OBJECTID":347358},"geometry":{"x":164468.3600000022,"y":2543012.0299999993}},{"attributes":{"ID":347368,"DIS_CODE":0,"TOWNNAME":"永康區","LI":"永康里","LIN":"6鄰","STREET":"中山南路","SECT":" ","MAREA":" ","LANE":"６５３巷","ALLEY":" ","HOUSE_NO":"１０號","E_COORD97":173803.85999999999,"N_COORD97":2547460,"ADDRESS":"中山南路６５３巷１０號","OBJECTID":347359},"geometry":{"x":173803.86000000127,"y":2547460.0000000019}},{"attributes":{"ID":347369,"DIS_CODE":0,"TOWNNAME":"永康區","LI":"永康里","LIN":"6鄰","STREET":"中山南路","SECT":" ","MAREA":" ","LANE":"６５３巷","ALLEY":" ","HOUSE_NO":"５號","E_COORD97":173799.94,"N_COORD97":2547399.2400000002,"ADDRESS":"中山南路６５３巷５號","OBJECTID":347360},"geometry":{"x":173799.94000000134,"y":2547399.2400000002}},{"attributes":{"ID":347370,"DIS_CODE":0,"TOWNNAME":"安南區","LI":"布袋里","LIN":"6鄰","STREET":"長和路","SECT":"四段","MAREA":" ","LANE":"１２０巷","ALLEY":" ","HOUSE_NO":"８１號","E_COORD97":169203.89999999999,"N_COORD97":2551991.0699999998,"ADDRESS":"長和路四段１２０巷８１號","OBJECTID":347361},"geometry":{"x":169203.90000000037,"y":2551991.0700000003}},{"attributes":{"ID":347371,"DIS_CODE":0,"TOWNNAME":"東區","LI":"崇成里","LIN":"6鄰","STREET":"崇德十二街","SECT":" ","MAREA":" ","LANE":"７６巷","ALLEY":" ","HOUSE_NO":"１５號","E_COORD97":171025.91,"N_COORD97":2541313,"ADDRESS":"崇德十二街７６巷１５號","OBJECTID":347362},"geometry":{"x":171025.91000000015,"y":2541313.0000000019}},{"attributes":{"ID":347372,"DIS_CODE":0,"TOWNNAME":"東區","LI":"崇成里","LIN":"6鄰","STREET":"崇德十二街","SECT":" ","MAREA":" ","LANE":"７６巷","ALLEY":" ","HOUSE_NO":"１８號","E_COORD97":170989.97,"N_COORD97":2541323.6699999999,"ADDRESS":"崇德十二街７６巷１８號","OBJECTID":347363},"geometry":{"x":170989.9700000016,"y":2541323.6699999999}},{"attributes":{"ID":347373,"DIS_CODE":0,"TOWNNAME":"善化區","LI":"南關里","LIN":"8鄰","STREET":"光復路","SECT":" ","MAREA":" ","LANE":" ","ALLEY":" ","HOUSE_NO":"４６２號","E_COORD97":176851.57000000001,"N_COORD97":2558786.3799999999,"ADDRESS":"光復路４６２號","OBJECTID":347364},"geometry":{"x":176851.5700000003,"y":2558786.3800000008}},{"attributes":{"ID":347374,"DIS_CODE":0,"TOWNNAME":"善化區","LI":"南關里","LIN":"8鄰","STREET":"光復路","SECT":" ","MAREA":" ","LANE":" ","ALLEY":" ","HOUSE_NO":"４６６號","E_COORD97":176849.19,"N_COORD97":2558789.8500000001,"ADDRESS":"光復路４６６號","OBJECTID":347365},"geometry":{"x":176849.19000000041,"y":2558789.8500000034}},{"attributes":{"ID":347375,"DIS_CODE":0,"TOWNNAME":"善化區","LI":"南關里","LIN":"8鄰","STREET":"光復路","SECT":" ","MAREA":" ","LANE":" ","ALLEY":" ","HOUSE_NO":"４６８號","E_COORD97":176846.84,"N_COORD97":2558793.3500000001,"ADDRESS":"光復路４６８號","OBJECTID":347366},"geometry":{"x":176846.84000000078,"y":2558793.3500000034}},{"attributes":{"ID":347376,"DIS_CODE":0,"TOWNNAME":"善化區","LI":"南關里","LIN":"8鄰","STREET":"光復路","SECT":" ","MAREA":" ","LANE":" ","ALLEY":" ","HOUSE_NO":"４７０號","E_COORD97":176844.73000000001,"N_COORD97":2558797.1299999999,"ADDRESS":"光復路４７０號","OBJECTID":347367},"geometry":{"x":176844.73000000138,"y":2558797.129999999}},{"attributes":{"ID":347377,"DIS_CODE":0,"TOWNNAME":"善化區","LI":"南關里","LIN":"8鄰","STREET":"自由路","SECT":" ","MAREA":" ","LANE":" ","ALLEY":" ","HOUSE_NO":"１７３號","E_COORD97":176939.62,"N_COORD97":2558894.4300000002,"ADDRESS":"自由路１７３號","OBJECTID":347368},"geometry":{"x":176939.62000000104,"y":2558894.4299999978}},{"attributes":{"ID":347378,"DIS_CODE":0,"TOWNNAME":"善化區","LI":"南關里","LIN":"8鄰","STREET":"自由路","SECT":" ","MAREA":" ","LANE":" ","ALLEY":" ","HOUSE_NO":"１７３號之１","E_COORD97":176937.42999999999,"N_COORD97":2558895.5600000001,"ADDRESS":"自由路１７３號之１","OBJECTID":347369},"geometry":{"x":176937.43000000063,"y":2558895.5600000024}},{"attributes":{"ID":347379,"DIS_CODE":0,"TOWNNAME":"善化區","LI":"南關里","LIN":"8鄰","STREET":"自由路","SECT":" ","MAREA":" ","LANE":" ","ALLEY":" ","HOUSE_NO":"１７３號之２","E_COORD97":176934.39000000001,"N_COORD97":2558896.5699999998,"ADDRESS":"自由路１７３號之２","OBJECTID":347370},"geometry":{"x":176934.3900000006,"y":2558896.5700000003}},{"attributes":{"ID":347380,"DIS_CODE":0,"TOWNNAME":"善化區","LI":"南關里","LIN":"8鄰","STREET":"自由路","SECT":" ","MAREA":" ","LANE":" ","ALLEY":" ","HOUSE_NO":"１７５號之１","E_COORD97":176928.35999999999,"N_COORD97":2558898.73,"ADDRESS":"自由路１７５號之１","OBJECTID":347371},"geometry":{"x":176928.36000000127,"y":2558898.7300000004}},{"attributes":{"ID":347381,"DIS_CODE":0,"TOWNNAME":"歸仁區","LI":"六甲里","LIN":"38鄰","STREET":"六甲八街","SECT":" ","MAREA":" ","LANE":"１４９巷","ALLEY":" ","HOUSE_NO":"３６號","E_COORD97":175262.094491,"N_COORD97":2539720.5299999998,"ADDRESS":"六甲八街１４９巷３６號","OBJECTID":347372},"geometry":{"x":175262.09449100029,"y":2539720.5299950019}},{"attributes":{"ID":347382,"DIS_CODE":0,"TOWNNAME":"永康區","LI":"\u25A0洲里","LIN":"38鄰","STREET":"\u25A0行路","SECT":" ","MAREA":" ","LANE":"２０４巷","ALLEY":" ","HOUSE_NO":"２２號","E_COORD97":171261.92000000001,"N_COORD97":2549228.73,"ADDRESS":"\u25A0行路２０４巷２２號","OBJECTID":347373},"geometry":{"x":171261.92000000086,"y":2549228.7300000023}},{"attributes":{"ID":347383,"DIS_CODE":0,"TOWNNAME":"歸仁區","LI":"後市里","LIN":"38鄰","STREET":"中山八街","SECT":" ","MAREA":" ","LANE":"４６巷","ALLEY":" ","HOUSE_NO":"１３號","E_COORD97":177258.98000000001,"N_COORD97":2541019.7400000002,"ADDRESS":"中山八街４６巷１３號","OBJECTID":347374},"geometry":{"x":177258.98000000045,"y":2541019.7400000021}},{"attributes":{"ID":347384,"DIS_CODE":0,"TOWNNAME":"東區","LI":"崇成里","LIN":"6鄰","STREET":"崇德十二街","SECT":" ","MAREA":" ","LANE":"７６巷","ALLEY":" ","HOUSE_NO":"１號","E_COORD97":171011.88,"N_COORD97":2541349.3700000001,"ADDRESS":"崇德十二街７６巷１號","OBJECTID":347375},"geometry":{"x":171011.88000000082,"y":2541349.3700000029}},{"attributes":{"ID":347385,"DIS_CODE":0,"TOWNNAME":"東區","LI":"崇成里","LIN":"6鄰","STREET":"崇德十二街","SECT":" ","MAREA":" ","LANE":"７６巷","ALLEY":" ","HOUSE_NO":"２０號","E_COORD97":170990.41,"N_COORD97":2541320.1000000001,"ADDRESS":"崇德十二街７６巷２０號","OBJECTID":347376},"geometry":{"x":170990.41000000015,"y":2541320.0999999996}},{"attributes":{"ID":347386,"DIS_CODE":0,"TOWNNAME":"東區","LI":"崇成里","LIN":"6鄰","STREET":"崇德十二街","SECT":" ","MAREA":" ","LANE":"７６巷","ALLEY":" ","HOUSE_NO":"２２號","E_COORD97":171003.94,"N_COORD97":2541293.9399999999,"ADDRESS":"崇德十二街７６巷２２號","OBJECTID":347377},"geometry":{"x":171003.94000000041,"y":2541293.9399999995}},{"attributes":{"ID":347387,"DIS_CODE":0,"TOWNNAME":"善化區","LI":"南關里","LIN":"8鄰","STREET":"自由路","SECT":" ","MAREA":" ","LANE":" ","ALLEY":" ","HOUSE_NO":"１７５號之２","E_COORD97":176925.51000000001,"N_COORD97":2558899.9700000002,"ADDRESS":"自由路１７５號之２","OBJECTID":347378},"geometry":{"x":176925.50999999978,"y":2558899.9700000025}},{"attributes":{"ID":347388,"DIS_CODE":0,"TOWNNAME":"善化區","LI":"南關里","LIN":"8鄰","STREET":"自由路","SECT":" ","MAREA":" ","LANE":" ","ALLEY":" ","HOUSE_NO":"１６９號","E_COORD97":176969.39999999999,"N_COORD97":2558886.21,"ADDRESS":"自由路１６９號","OBJECTID":347379},"geometry":{"x":176969.40000000037,"y":2558886.2100000009}},{"attributes":{"ID":347389,"DIS_CODE":0,"TOWNNAME":"善化區","LI":"文昌里","LIN":"8鄰","STREET":"文昌路","SECT":" ","MAREA":" ","LANE":" ","ALLEY":" ","HOUSE_NO":"２５號","E_COORD97":177447.19,"N_COORD97":2558757.23,"ADDRESS":"文昌路２５號","OBJECTID":347380},"geometry":{"x":177447.19000000041,"y":2558757.2300000004}},{"attributes":{"ID":347390,"DIS_CODE":0,"TOWNNAME":"善化區","LI":"北關里","LIN":"8鄰","STREET":"裕民街","SECT":" ","MAREA":" ","LANE":" ","ALLEY":" ","HOUSE_NO":"１１１號","E_COORD97":177367.70000000001,"N_COORD97":2559322.1499999999,"ADDRESS":"裕民街１１１號","OBJECTID":347381},"geometry":{"x":177367.70000000019,"y":2559322.1500000022}},{"attributes":{"ID":347391,"DIS_CODE":0,"TOWNNAME":"善化區","LI":"北關里","LIN":"8鄰","STREET":"裕民街","SECT":" ","MAREA":" ","LANE":" ","ALLEY":" ","HOUSE_NO":"１１３號","E_COORD97":177363.28,"N_COORD97":2559323.0099999998,"ADDRESS":"裕民街１１３號","OBJECTID":347382},"geometry":{"x":177363.28000000026,"y":2559323.0100000016}},{"attributes":{"ID":347392,"DIS_CODE":0,"TOWNNAME":"永康區","LI":"崑山里","LIN":" ","STREET":"大仁街","SECT":" ","MAREA":" ","LANE":"３１巷","ALLEY":" ","HOUSE_NO":"５號","E_COORD97":173775.5,"N_COORD97":2544609.1400000001,"ADDRESS":"大仁街３１巷５號","OBJECTID":347383},"geometry":{"x":173775.50000000093,"y":2544609.1400000006}},{"attributes":{"ID":347393,"DIS_CODE":0,"TOWNNAME":"永康區","LI":"北灣里","LIN":"38鄰","STREET":"大灣路","SECT":" ","MAREA":" ","LANE":"４０巷","ALLEY":" ","HOUSE_NO":"１６９號","E_COORD97":174860.60000000001,"N_COORD97":2546280.1099999999,"ADDRESS":"大灣路４０巷１６９號","OBJECTID":347384},"geometry":{"x":174860.59999999963,"y":2546280.1099999994}},{"attributes":{"ID":347394,"DIS_CODE":0,"TOWNNAME":"永康區","LI":"永康里","LIN":"38鄰","STREET":"西勢路","SECT":" ","MAREA":" ","LANE":"７３３巷","ALLEY":" ","HOUSE_NO":"１２號","E_COORD97":174414.70999999999,"N_COORD97":2546661.8300000001,"ADDRESS":"西勢路７３３巷１２號","OBJECTID":347385},"geometry":{"x":174414.71000000089,"y":2546661.8300000001}},{"attributes":{"ID":347395,"DIS_CODE":0,"TOWNNAME":"永康區","LI":"永康里","LIN":"38鄰","STREET":"大同街","SECT":" ","MAREA":" ","LANE":"７１５巷","ALLEY":" ","HOUSE_NO":"２１號","E_COORD97":174453.37,"N_COORD97":2546663.3799999999,"ADDRESS":"大同街７１５巷２１號","OBJECTID":347386},"geometry":{"x":174453.37000000104,"y":2546663.379999999}},{"attributes":{"ID":347396,"DIS_CODE":0,"TOWNNAME":"永康區","LI":"正強里","LIN":"38鄰","STREET":"正強街","SECT":" ","MAREA":" ","LANE":"３０７巷","ALLEY":" ","HOUSE_NO":"２９號","E_COORD97":173180.09,"N_COORD97":2548096.3799999999,"ADDRESS":"正強街３０７巷２９號","OBJECTID":347387},"geometry":{"x":173180.09000000078,"y":2548096.3800000008}},{"attributes":{"ID":347397,"DIS_CODE":0,"TOWNNAME":"永康區","LI":"永康里","LIN":"38鄰","STREET":"大同街","SECT":" ","MAREA":" ","LANE":"７１５巷","ALLEY":" ","HOUSE_NO":"２６號","E_COORD97":174439.37,"N_COORD97":2546668.9300000002,"ADDRESS":"大同街７１５巷２６號","OBJECTID":347388},"geometry":{"x":174439.37000000104,"y":2546668.9300000034}},{"attributes":{"ID":347398,"DIS_CODE":0,"TOWNNAME":"永康區","LI":"正強里","LIN":"38鄰","STREET":"正強街","SECT":" ","MAREA":" ","LANE":"３０７巷","ALLEY":" ","HOUSE_NO":"２５號","E_COORD97":173189.41,"N_COORD97":2548098.1299999999,"ADDRESS":"正強街３０７巷２５號","OBJECTID":347389},"geometry":{"x":173189.41000000201,"y":2548098.1300000008}},{"attributes":{"ID":347399,"DIS_CODE":0,"TOWNNAME":"永康區","LI":"永康里","LIN":"38鄰","STREET":"大同街","SECT":" ","MAREA":" ","LANE":"７１５巷","ALLEY":" ","HOUSE_NO":"６號","E_COORD97":174473.25,"N_COORD97":2546682.5499999998,"ADDRESS":"大同街７１５巷６號","OBJECTID":347390},"geometry":{"x":174473.25,"y":2546682.5499999989}},{"attributes":{"ID":347400,"DIS_CODE":0,"TOWNNAME":"永康區","LI":"永康里","LIN":"38鄰","STREET":"西勢路","SECT":" ","MAREA":" ","LANE":"６６９巷","ALLEY":" ","HOUSE_NO":"８號","E_COORD97":174554.60999999999,"N_COORD97":2546710.6699999999,"ADDRESS":"西勢路６６９巷８號","OBJECTID":347391},"geometry":{"x":174554.6100000022,"y":2546710.6699999999}},{"attributes":{"ID":347401,"DIS_CODE":0,"TOWNNAME":"永康區","LI":"永康里","LIN":"38鄰","STREET":"西勢路","SECT":" ","MAREA":" ","LANE":"６６９巷","ALLEY":" ","HOUSE_NO":"２號","E_COORD97":174552.48999999999,"N_COORD97":2546718.9300000002,"ADDRESS":"西勢路６６９巷２號","OBJECTID":347392},"geometry":{"x":174552.49000000115,"y":2546718.9299999997}},{"attributes":{"ID":347402,"DIS_CODE":0,"TOWNNAME":"永康區","LI":"正強里","LIN":"38鄰","STREET":"正強街","SECT":" ","MAREA":" ","LANE":"３０７巷","ALLEY":" ","HOUSE_NO":"１１號","E_COORD97":173221.60999999999,"N_COORD97":2548105.1299999999,"ADDRESS":"正強街３０７巷１１號","OBJECTID":347393},"geometry":{"x":173221.61000000034,"y":2548105.1300000008}},{"attributes":{"ID":347403,"DIS_CODE":0,"TOWNNAME":"永康區","LI":"正強里","LIN":"38鄰","STREET":"正強街","SECT":" ","MAREA":" ","LANE":"３０７巷","ALLEY":" ","HOUSE_NO":"３７號","E_COORD97":173161.60000000001,"N_COORD97":2548092.1299999999,"ADDRESS":"正強街３０７巷３７號","OBJECTID":347394},"geometry":{"x":173161.59999999963,"y":2548092.1300000008}},{"attributes":{"ID":347404,"DIS_CODE":0,"TOWNNAME":"東區","LI":"崇成里","LIN":"6鄰","STREET":"崇德十二街","SECT":" ","MAREA":" ","LANE":"７６巷","ALLEY":" ","HOUSE_NO":"２４號","E_COORD97":171005.98999999999,"N_COORD97":2541287.8900000001,"ADDRESS":"崇德十二街７６巷２４號","OBJECTID":347395},"geometry":{"x":171005.99000000115,"y":2541287.8900000025}},{"attributes":{"ID":347405,"DIS_CODE":0,"TOWNNAME":"善化區","LI":"北關里","LIN":"8鄰","STREET":"裕民街","SECT":" ","MAREA":" ","LANE":" ","ALLEY":" ","HOUSE_NO":"１１５號","E_COORD97":177358.85999999999,"N_COORD97":2559323.8599999999,"ADDRESS":"裕民街１１５號","OBJECTID":347396},"geometry":{"x":177358.86000000127,"y":2559323.8599999994}},{"attributes":{"ID":347406,"DIS_CODE":0,"TOWNNAME":"善化區","LI":"北關里","LIN":"8鄰","STREET":"裕民街","SECT":" ","MAREA":" ","LANE":" ","ALLEY":" ","HOUSE_NO":"１１７號","E_COORD97":177354.44,"N_COORD97":2559324.71,"ADDRESS":"裕民街１１７號","OBJECTID":347397},"geometry":{"x":177354.44000000041,"y":2559324.7100000046}},{"attributes":{"ID":347407,"DIS_CODE":0,"TOWNNAME":"善化區","LI":"北關里","LIN":"8鄰","STREET":"裕民街","SECT":" ","MAREA":" ","LANE":" ","ALLEY":" ","HOUSE_NO":"１１９號","E_COORD97":177350.01999999999,"N_COORD97":2559325.5600000001,"ADDRESS":"裕民街１１９號","OBJECTID":347398},"geometry":{"x":177350.02000000048,"y":2559325.5600000024}},{"attributes":{"ID":347408,"DIS_CODE":0,"TOWNNAME":"善化區","LI":"北關里","LIN":"8鄰","STREET":"裕民街","SECT":" ","MAREA":" ","LANE":" ","ALLEY":" ","HOUSE_NO":"１２１號","E_COORD97":177345.60000000001,"N_COORD97":2559326.4100000001,"ADDRESS":"裕民街１２１號","OBJECTID":347399},"geometry":{"x":177345.59999999963,"y":2559326.410000002}},{"attributes":{"ID":347409,"DIS_CODE":0,"TOWNNAME":"善化區","LI":"北關里","LIN":"8鄰","STREET":"裕民街","SECT":" ","MAREA":" ","LANE":" ","ALLEY":" ","HOUSE_NO":"１２３號","E_COORD97":177341.17999999999,"N_COORD97":2559327.2599999998,"ADDRESS":"裕民街１２３號","OBJECTID":347400},"geometry":{"x":177341.18000000063,"y":2559327.2600000016}}]}