{"displayFieldName":"TOWNNAME","fieldAliases":{"ID":"ID","DIS_CODE":"DIS_CODE","TOWNNAME":"TOWNNAME","LI":"LI","LIN":"LIN","STREET":"STREET","SECT":"SECT","MAREA":"MAREA","LANE":"LANE","ALLEY":"ALLEY","HOUSE_NO":"HOUSE_NO","E_COORD97":"E_COORD97","N_COORD97":"N_COORD97","ADDRESS":"ADDRESS","OBJECTID":"OBJECTID"},"geometryType":"esriGeometryPoint","spatialReference":{"wkid":102443,"latestWkid":3826},"fields":[{"name":"ID","type":"esriFieldTypeDouble","alias":"ID"},{"name":"DIS_CODE","type":"esriFieldTypeInteger","alias":"DIS_CODE"},{"name":"TOWNNAME","type":"esriFieldTypeString","alias":"TOWNNAME","length":8},{"name":"LI","type":"esriFieldTypeString","alias":"LI","length":8},{"name":"LIN","type":"esriFieldTypeString","alias":"LIN","length":12},{"name":"STREET","type":"esriFieldTypeString","alias":"STREET","length":20},{"name":"SECT","type":"esriFieldTypeString","alias":"SECT","length":8},{"name":"MAREA","type":"esriFieldTypeString","alias":"MAREA","length":12},{"name":"LANE","type":"esriFieldTypeString","alias":"LANE","length":10},{"name":"ALLEY","type":"esriFieldTypeString","alias":"ALLEY","length":10},{"name":"HOUSE_NO","type":"esriFieldTypeString","alias":"HOUSE_NO","length":20},{"name":"E_COORD97","type":"esriFieldTypeDouble","alias":"E_COORD97"},{"name":"N_COORD97","type":"esriFieldTypeDouble","alias":"N_COORD97"},{"name":"ADDRESS","type":"esriFieldTypeString","alias":"ADDRESS","length":50},{"name":"OBJECTID","type":"esriFieldTypeOID","alias":"OBJECTID"}],"features":[{"attributes":{"ID":172202,"DIS_CODE":0,"TOWNNAME":"永康區","LI":"永康里","LIN":"32鄰","STREET":"永大路","SECT":"二段","MAREA":" ","LANE":"１５２６巷","ALLEY":"２弄","HOUSE_NO":"３號二樓之１","E_COORD97":174315.92000000001,"N_COORD97":2547285.5600000001,"ADDRESS":"永大路二段１５２６巷２弄３號二樓之１","OBJECTID":172201},"geometry":{"x":174315.91999999993,"y":2547285.5600000005}},{"attributes":{"ID":172203,"DIS_CODE":0,"TOWNNAME":"永康區","LI":"永康里","LIN":"32鄰","STREET":"永大路","SECT":"二段","MAREA":" ","LANE":"１５２６巷","ALLEY":"２弄","HOUSE_NO":"３號二樓之５","E_COORD97":174316.07000000001,"N_COORD97":2547285.5600000001,"ADDRESS":"永大路二段１５２６巷２弄３號二樓之５","OBJECTID":172202},"geometry":{"x":174316.07000000123,"y":2547285.5600000005}},{"attributes":{"ID":172204,"DIS_CODE":0,"TOWNNAME":"永康區","LI":"永康里","LIN":"32鄰","STREET":"永大路","SECT":"二段","MAREA":" ","LANE":"１５２６巷","ALLEY":"２弄","HOUSE_NO":"３號七樓之５","E_COORD97":174316.07000000001,"N_COORD97":2547285.5600000001,"ADDRESS":"永大路二段１５２６巷２弄３號七樓之５","OBJECTID":172203},"geometry":{"x":174316.07000000123,"y":2547285.5600000005}},{"attributes":{"ID":172205,"DIS_CODE":0,"TOWNNAME":"永康區","LI":"永康里","LIN":"32鄰","STREET":"永大路","SECT":"二段","MAREA":" ","LANE":"１５２６巷","ALLEY":"２弄","HOUSE_NO":"２號八樓之９","E_COORD97":174282.70000000001,"N_COORD97":2547262.98,"ADDRESS":"永大路二段１５２６巷２弄２號八樓之９","OBJECTID":172204},"geometry":{"x":174282.70000000205,"y":2547262.9800000023}},{"attributes":{"ID":172206,"DIS_CODE":0,"TOWNNAME":"歸仁區","LI":"媽廟里","LIN":"24鄰","STREET":"保大路","SECT":"一段","MAREA":" ","LANE":"１３３巷","ALLEY":"１０弄","HOUSE_NO":"１４號","E_COORD97":177751.363923,"N_COORD97":2543987.87004,"ADDRESS":"保大路一段１３３巷１０弄１４號","OBJECTID":172205},"geometry":{"x":177751.36392300017,"y":2543987.8700390011}},{"attributes":{"ID":172207,"DIS_CODE":0,"TOWNNAME":"永康區","LI":"永康里","LIN":"32鄰","STREET":"永大路","SECT":"二段","MAREA":" ","LANE":"１５２６巷","ALLEY":"２弄","HOUSE_NO":"２號七樓之６","E_COORD97":174282.70000000001,"N_COORD97":2547262.98,"ADDRESS":"永大路二段１５２６巷２弄２號七樓之６","OBJECTID":172206},"geometry":{"x":174282.70000000205,"y":2547262.9800000023}},{"attributes":{"ID":172208,"DIS_CODE":0,"TOWNNAME":"永康區","LI":"永康里","LIN":"32鄰","STREET":"永大路","SECT":"二段","MAREA":" ","LANE":"１５２６巷","ALLEY":"２弄","HOUSE_NO":"２號六樓之１１","E_COORD97":174283.98000000001,"N_COORD97":2547262.98,"ADDRESS":"永大路二段１５２６巷２弄２號六樓之１１","OBJECTID":172207},"geometry":{"x":174283.98000000045,"y":2547262.9800000023}},{"attributes":{"ID":172209,"DIS_CODE":0,"TOWNNAME":"永康區","LI":"永康里","LIN":"32鄰","STREET":"永大路","SECT":"二段","MAREA":" ","LANE":"１５２６巷","ALLEY":"２弄","HOUSE_NO":"３號六樓之５","E_COORD97":174316.07000000001,"N_COORD97":2547285.5600000001,"ADDRESS":"永大路二段１５２６巷２弄３號六樓之５","OBJECTID":172208},"geometry":{"x":174316.07000000123,"y":2547285.5600000005}},{"attributes":{"ID":172210,"DIS_CODE":0,"TOWNNAME":"永康區","LI":"永康里","LIN":"32鄰","STREET":"永大路","SECT":"二段","MAREA":" ","LANE":"１５２６巷","ALLEY":"２弄","HOUSE_NO":"２號九樓之１","E_COORD97":174282.73000000001,"N_COORD97":2547262.98,"ADDRESS":"永大路二段１５２６巷２弄２號九樓之１","OBJECTID":172209},"geometry":{"x":174282.73000000231,"y":2547262.9800000023}},{"attributes":{"ID":172211,"DIS_CODE":0,"TOWNNAME":"永康區","LI":"永康里","LIN":"32鄰","STREET":"永大路","SECT":"二段","MAREA":" ","LANE":"１５２６巷","ALLEY":"２弄","HOUSE_NO":"２號十四樓之５","E_COORD97":174283.95000000001,"N_COORD97":2547262.98,"ADDRESS":"永大路二段１５２６巷２弄２號十四樓之５","OBJECTID":172210},"geometry":{"x":174283.95000000019,"y":2547262.9800000023}},{"attributes":{"ID":172212,"DIS_CODE":0,"TOWNNAME":"永康區","LI":"網寮里","LIN":"20鄰","STREET":"永二街","SECT":" ","MAREA":" ","LANE":"２４５巷","ALLEY":"２５弄","HOUSE_NO":"１１號三樓","E_COORD97":173359.16,"N_COORD97":2546146.3900000001,"ADDRESS":"永二街２４５巷２５弄１１號三樓","OBJECTID":172211},"geometry":{"x":173359.16000000108,"y":2546146.3900000006}},{"attributes":{"ID":172213,"DIS_CODE":0,"TOWNNAME":"永康區","LI":"\u25A0行里","LIN":"40鄰","STREET":"永安路","SECT":" ","MAREA":" ","LANE":"１０５巷","ALLEY":"４６弄","HOUSE_NO":"９號二樓之２","E_COORD97":172591.95000000001,"N_COORD97":2549333.4700000002,"ADDRESS":"永安路１０５巷４６弄９號二樓之２","OBJECTID":172212},"geometry":{"x":172591.95000000019,"y":2549333.4700000007}},{"attributes":{"ID":172214,"DIS_CODE":0,"TOWNNAME":"永康區","LI":"勝利里","LIN":"38鄰","STREET":"勝利街","SECT":" ","MAREA":" ","LANE":"１９７巷","ALLEY":"８弄","HOUSE_NO":"８號四樓之１","E_COORD97":171347.07000000001,"N_COORD97":2545178.2999999998,"ADDRESS":"勝利街１９７巷８弄８號四樓之１","OBJECTID":172213},"geometry":{"x":171347.0700000003,"y":2545178.3000000007}},{"attributes":{"ID":172215,"DIS_CODE":0,"TOWNNAME":"永康區","LI":"\u25A0行里","LIN":"40鄰","STREET":"永安路","SECT":" ","MAREA":" ","LANE":"１０５巷","ALLEY":"４６弄","HOUSE_NO":"１０號二樓之３","E_COORD97":172609.75,"N_COORD97":2549334.1800000002,"ADDRESS":"永安路１０５巷４６弄１０號二樓之３","OBJECTID":172214},"geometry":{"x":172609.75000000093,"y":2549334.1799999997}},{"attributes":{"ID":172216,"DIS_CODE":0,"TOWNNAME":"永康區","LI":"\u25A0行里","LIN":"40鄰","STREET":"永安路","SECT":" ","MAREA":" ","LANE":"１０５巷","ALLEY":"４６弄","HOUSE_NO":"１號四樓之２","E_COORD97":172593.13,"N_COORD97":2549312.1200000001,"ADDRESS":"永安路１０５巷４６弄１號四樓之２","OBJECTID":172215},"geometry":{"x":172593.13000000082,"y":2549312.120000001}},{"attributes":{"ID":172217,"DIS_CODE":0,"TOWNNAME":"永康區","LI":"\u25A0行里","LIN":"40鄰","STREET":"永安路","SECT":" ","MAREA":" ","LANE":"１０５巷","ALLEY":"４６弄","HOUSE_NO":"２３號五樓之２","E_COORD97":172576.59,"N_COORD97":2549371.8100000001,"ADDRESS":"永安路１０５巷４６弄２３號五樓之２","OBJECTID":172216},"geometry":{"x":172576.59000000078,"y":2549371.8100000005}},{"attributes":{"ID":172218,"DIS_CODE":0,"TOWNNAME":"永康區","LI":"\u25A0行里","LIN":"40鄰","STREET":"永安路","SECT":" ","MAREA":" ","LANE":"１０５巷","ALLEY":"４６弄","HOUSE_NO":"２１號四樓之２","E_COORD97":172590.79999999999,"N_COORD97":2549371.3100000001,"ADDRESS":"永安路１０５巷４６弄２１號四樓之２","OBJECTID":172217},"geometry":{"x":172590.79999999981,"y":2549371.3100000005}},{"attributes":{"ID":172219,"DIS_CODE":0,"TOWNNAME":"永康區","LI":"\u25A0行里","LIN":"40鄰","STREET":"永安路","SECT":" ","MAREA":" ","LANE":"１０５巷","ALLEY":"４６弄","HOUSE_NO":"２０號二樓之２","E_COORD97":172618.73000000001,"N_COORD97":2549360.8100000001,"ADDRESS":"永安路１０５巷４６弄２０號二樓之２","OBJECTID":172218},"geometry":{"x":172618.73000000138,"y":2549360.8100000024}},{"attributes":{"ID":172220,"DIS_CODE":0,"TOWNNAME":"永康區","LI":"\u25A0行里","LIN":"40鄰","STREET":"永安路","SECT":" ","MAREA":" ","LANE":"１０５巷","ALLEY":"４６弄","HOUSE_NO":"２號六樓之３","E_COORD97":172609.84,"N_COORD97":2549313.0800000001,"ADDRESS":"永安路１０５巷４６弄２號六樓之３","OBJECTID":172219},"geometry":{"x":172609.84000000171,"y":2549313.0800000019}},{"attributes":{"ID":172221,"DIS_CODE":0,"TOWNNAME":"永康區","LI":"光復里","LIN":"20鄰","STREET":"復國路","SECT":" ","MAREA":" ","LANE":"５３巷","ALLEY":"１４７弄","HOUSE_NO":"１３號","E_COORD97":172474.72187400001,"N_COORD97":2544374.5441399999,"ADDRESS":"復國路５３巷１４７弄１３號","OBJECTID":172220},"geometry":{"x":172474.72187399957,"y":2544374.5441359989}},{"attributes":{"ID":172222,"DIS_CODE":0,"TOWNNAME":"永康區","LI":"神洲里","LIN":"13鄰","STREET":"忠孝路","SECT":" ","MAREA":" ","LANE":"７６巷","ALLEY":"６３弄","HOUSE_NO":"１１號四樓","E_COORD97":172256.19,"N_COORD97":2544983.5899999999,"ADDRESS":"忠孝路７６巷６３弄１１號四樓","OBJECTID":172221},"geometry":{"x":172256.19000000134,"y":2544983.5900000017}},{"attributes":{"ID":172223,"DIS_CODE":0,"TOWNNAME":"永康區","LI":"\u25A0行里","LIN":"40鄰","STREET":"永安路","SECT":" ","MAREA":" ","LANE":"１０５巷","ALLEY":"４６弄","HOUSE_NO":"２１號七樓之１","E_COORD97":172590.67000000001,"N_COORD97":2549371.3100000001,"ADDRESS":"永安路１０５巷４６弄２１號七樓之１","OBJECTID":172222},"geometry":{"x":172590.66999999899,"y":2549371.3100000005}},{"attributes":{"ID":172224,"DIS_CODE":0,"TOWNNAME":"永康區","LI":"\u25A0行里","LIN":"40鄰","STREET":"永安路","SECT":" ","MAREA":" ","LANE":"１０５巷","ALLEY":"４６弄","HOUSE_NO":"２３號二樓之３","E_COORD97":172576.56,"N_COORD97":2549371.8100000001,"ADDRESS":"永安路１０５巷４６弄２３號二樓之３","OBJECTID":172223},"geometry":{"x":172576.56000000052,"y":2549371.8100000005}},{"attributes":{"ID":172225,"DIS_CODE":0,"TOWNNAME":"永康區","LI":"神洲里","LIN":"15鄰","STREET":"忠孝路","SECT":" ","MAREA":" ","LANE":"７６巷","ALLEY":"４９弄","HOUSE_NO":"６號四樓","E_COORD97":172177.64000000001,"N_COORD97":2544985.2400000002,"ADDRESS":"忠孝路７６巷４９弄６號四樓","OBJECTID":172224},"geometry":{"x":172177.6400000006,"y":2544985.2400000002}},{"attributes":{"ID":172226,"DIS_CODE":0,"TOWNNAME":"永康區","LI":"\u25A0行里","LIN":"40鄰","STREET":"永安路","SECT":" ","MAREA":" ","LANE":"１０５巷","ALLEY":"４６弄","HOUSE_NO":"２４號四樓之１","E_COORD97":172618.17000000001,"N_COORD97":2549372.0600000001,"ADDRESS":"永安路１０５巷４６弄２４號四樓之１","OBJECTID":172225},"geometry":{"x":172618.17000000086,"y":2549372.0600000024}},{"attributes":{"ID":172227,"DIS_CODE":0,"TOWNNAME":"永康區","LI":"二王里","LIN":"47鄰","STREET":"南工街","SECT":" ","MAREA":" ","LANE":"２２６巷","ALLEY":"３弄","HOUSE_NO":"１號四樓之１","E_COORD97":171977.84,"N_COORD97":2545990.6000000001,"ADDRESS":"南工街２２６巷３弄１號四樓之１","OBJECTID":172226},"geometry":{"x":171977.84000000078,"y":2545990.6000000015}},{"attributes":{"ID":172228,"DIS_CODE":0,"TOWNNAME":"永康區","LI":"二王里","LIN":"4鄰","STREET":"二王路","SECT":" ","MAREA":" ","LANE":"８６巷","ALLEY":"２２弄","HOUSE_NO":"１號二樓之２","E_COORD97":172973.62,"N_COORD97":2546673.7799999998,"ADDRESS":"二王路８６巷２２弄１號二樓之２","OBJECTID":172227},"geometry":{"x":172973.62000000011,"y":2546673.7800000012}},{"attributes":{"ID":172229,"DIS_CODE":0,"TOWNNAME":"永康區","LI":"南灣里","LIN":"32鄰","STREET":"大灣一街","SECT":" ","MAREA":" ","LANE":"３７巷","ALLEY":"７弄","HOUSE_NO":"１２號一樓之３","E_COORD97":174283.35999999999,"N_COORD97":2544862.8900000001,"ADDRESS":"大灣一街３７巷７弄１２號一樓之３","OBJECTID":172228},"geometry":{"x":174283.3600000022,"y":2544862.8899999987}},{"attributes":{"ID":172230,"DIS_CODE":0,"TOWNNAME":"永康區","LI":"西灣里","LIN":"43鄰","STREET":"大灣路","SECT":" ","MAREA":" ","LANE":"９４２巷","ALLEY":"３８８弄","HOUSE_NO":"２７號五樓之１","E_COORD97":174033.85999999999,"N_COORD97":2545504.8100000001,"ADDRESS":"大灣路９４２巷３８８弄２７號五樓之１","OBJECTID":172229},"geometry":{"x":174033.86000000034,"y":2545504.8100000024}},{"attributes":{"ID":172231,"DIS_CODE":0,"TOWNNAME":"永康區","LI":"勝利里","LIN":"38鄰","STREET":"勝利街","SECT":" ","MAREA":" ","LANE":"１９７巷","ALLEY":"８弄","HOUSE_NO":"８號六樓之３","E_COORD97":171347.17000000001,"N_COORD97":2545178.2999999998,"ADDRESS":"勝利街１９７巷８弄８號六樓之３","OBJECTID":172230},"geometry":{"x":171347.17000000086,"y":2545178.3000000007}},{"attributes":{"ID":172232,"DIS_CODE":0,"TOWNNAME":"永康區","LI":"\u25A0行里","LIN":"40鄰","STREET":"永安路","SECT":" ","MAREA":" ","LANE":"１０５巷","ALLEY":"４６弄","HOUSE_NO":"１號六樓之１","E_COORD97":172593,"N_COORD97":2549312.1200000001,"ADDRESS":"永安路１０５巷４６弄１號六樓之１","OBJECTID":172231},"geometry":{"x":172593,"y":2549312.120000001}},{"attributes":{"ID":172233,"DIS_CODE":0,"TOWNNAME":"永康區","LI":"神洲里","LIN":"17鄰","STREET":"忠孝路","SECT":" ","MAREA":" ","LANE":"７６巷","ALLEY":"４７弄","HOUSE_NO":"１３號三樓","E_COORD97":172196.64999999999,"N_COORD97":2544937.3199999998,"ADDRESS":"忠孝路７６巷４７弄１３號三樓","OBJECTID":172232},"geometry":{"x":172196.6500000013,"y":2544937.3200000003}},{"attributes":{"ID":172234,"DIS_CODE":0,"TOWNNAME":"南區","LI":"興農里","LIN":"12鄰","STREET":"萬年五街","SECT":" ","MAREA":" ","LANE":" ","ALLEY":" ","HOUSE_NO":"１２０號","E_COORD97":166664.13,"N_COORD97":2536762.96,"ADDRESS":"萬年五街１２０號","OBJECTID":172233},"geometry":{"x":166664.12999999989,"y":2536762.9600000009}},{"attributes":{"ID":172235,"DIS_CODE":0,"TOWNNAME":"南區","LI":"興農里","LIN":"12鄰","STREET":"明興路","SECT":" ","MAREA":" ","LANE":" ","ALLEY":" ","HOUSE_NO":"１０８９號","E_COORD97":166530.17000000001,"N_COORD97":2536641.5899999999,"ADDRESS":"明興路１０８９號","OBJECTID":172234},"geometry":{"x":166530.16999999993,"y":2536641.5899999999}},{"attributes":{"ID":172236,"DIS_CODE":0,"TOWNNAME":"南區","LI":"興農里","LIN":"12鄰","STREET":"明興路","SECT":" ","MAREA":" ","LANE":" ","ALLEY":" ","HOUSE_NO":"１０９１號","E_COORD97":166524.67000000001,"N_COORD97":2536635.9100000001,"ADDRESS":"明興路１０９１號","OBJECTID":172235},"geometry":{"x":166524.66999999993,"y":2536635.9100000001}},{"attributes":{"ID":172237,"DIS_CODE":0,"TOWNNAME":"南區","LI":"興農里","LIN":"12鄰","STREET":"明興路","SECT":" ","MAREA":" ","LANE":" ","ALLEY":" ","HOUSE_NO":"１１１７號","E_COORD97":166561.62,"N_COORD97":2536527.4100000001,"ADDRESS":"明興路１１１７號","OBJECTID":172236},"geometry":{"x":166561.62000000197,"y":2536527.4100000001}},{"attributes":{"ID":172238,"DIS_CODE":0,"TOWNNAME":"南區","LI":"興農里","LIN":"12鄰","STREET":"明興路","SECT":" ","MAREA":" ","LANE":" ","ALLEY":" ","HOUSE_NO":"１１１９號","E_COORD97":166561.62,"N_COORD97":2536523.0499999998,"ADDRESS":"明興路１１１９號","OBJECTID":172237},"geometry":{"x":166561.62000000197,"y":2536523.0500000026}},{"attributes":{"ID":172239,"DIS_CODE":0,"TOWNNAME":"南區","LI":"興農里","LIN":"12鄰","STREET":"明興路","SECT":" ","MAREA":" ","LANE":" ","ALLEY":" ","HOUSE_NO":"１１２１號","E_COORD97":166562.82999999999,"N_COORD97":2536518.4500000002,"ADDRESS":"明興路１１２１號","OBJECTID":172238},"geometry":{"x":166562.83000000007,"y":2536518.4500000011}},{"attributes":{"ID":172240,"DIS_CODE":0,"TOWNNAME":"南區","LI":"興農里","LIN":"12鄰","STREET":"明興路","SECT":" ","MAREA":" ","LANE":" ","ALLEY":" ","HOUSE_NO":"１１２３號","E_COORD97":166564.04000000001,"N_COORD97":2536513.3599999999,"ADDRESS":"明興路１１２３號","OBJECTID":172239},"geometry":{"x":166564.04000000097,"y":2536513.3599999994}},{"attributes":{"ID":172241,"DIS_CODE":0,"TOWNNAME":"南區","LI":"興農里","LIN":"12鄰","STREET":"明興路","SECT":" ","MAREA":" ","LANE":" ","ALLEY":" ","HOUSE_NO":"１１２５號","E_COORD97":166564.53,"N_COORD97":2536508.52,"ADDRESS":"明興路１１２５號","OBJECTID":172240},"geometry":{"x":166564.53000000119,"y":2536508.5200000014}},{"attributes":{"ID":172242,"DIS_CODE":0,"TOWNNAME":"南區","LI":"再興里","LIN":"12鄰","STREET":"三官路","SECT":" ","MAREA":" ","LANE":" ","ALLEY":" ","HOUSE_NO":"１１８號","E_COORD97":167301.59,"N_COORD97":2542120.52,"ADDRESS":"三官路１１８號","OBJECTID":172241},"geometry":{"x":167301.58999999985,"y":2542120.5199999996}},{"attributes":{"ID":172243,"DIS_CODE":0,"TOWNNAME":"永康區","LI":"二王里","LIN":"4鄰","STREET":"二王路","SECT":" ","MAREA":" ","LANE":"８６巷","ALLEY":"２２弄","HOUSE_NO":"１號四樓之１","E_COORD97":172973.48999999999,"N_COORD97":2546673.7799999998,"ADDRESS":"二王路８６巷２２弄１號四樓之１","OBJECTID":172242},"geometry":{"x":172973.49000000022,"y":2546673.7800000012}},{"attributes":{"ID":172244,"DIS_CODE":0,"TOWNNAME":"永康區","LI":"崑山里","LIN":"18鄰","STREET":"大灣路","SECT":" ","MAREA":" ","LANE":"９４２巷","ALLEY":"３４弄","HOUSE_NO":"１８號二樓","E_COORD97":173696.57000000001,"N_COORD97":2544517.9199999999,"ADDRESS":"大灣路９４２巷３４弄１８號二樓","OBJECTID":172243},"geometry":{"x":173696.5700000003,"y":2544517.9200000018}},{"attributes":{"ID":172245,"DIS_CODE":0,"TOWNNAME":"永康區","LI":"西灣里","LIN":"43鄰","STREET":"大灣路","SECT":" ","MAREA":" ","LANE":"９４２巷","ALLEY":"３８８弄","HOUSE_NO":"３１號二樓之１","E_COORD97":174050.45999999999,"N_COORD97":2545467.3300000001,"ADDRESS":"大灣路９４２巷３８８弄３１號二樓之１","OBJECTID":172244},"geometry":{"x":174050.46000000089,"y":2545467.3300000019}},{"attributes":{"ID":172246,"DIS_CODE":0,"TOWNNAME":"東區","LI":"富裕里","LIN":"19鄰","STREET":"東門路","SECT":"二段","MAREA":" ","LANE":"３０１巷","ALLEY":"５３弄","HOUSE_NO":"２０號二樓","E_COORD97":170868.42999999999,"N_COORD97":2542775.6200000001,"ADDRESS":"東門路二段３０１巷５３弄２０號二樓","OBJECTID":172245},"geometry":{"x":170868.43000000063,"y":2542775.620000001}},{"attributes":{"ID":172247,"DIS_CODE":0,"TOWNNAME":"東區","LI":"富裕里","LIN":"19鄰","STREET":"東門路","SECT":"二段","MAREA":" ","LANE":"３０１巷","ALLEY":"５３弄","HOUSE_NO":"２０號三樓","E_COORD97":170868.42999999999,"N_COORD97":2542775.6200000001,"ADDRESS":"東門路二段３０１巷５３弄２０號三樓","OBJECTID":172246},"geometry":{"x":170868.43000000063,"y":2542775.620000001}},{"attributes":{"ID":172248,"DIS_CODE":0,"TOWNNAME":"東區","LI":"富裕里","LIN":"19鄰","STREET":"東門路","SECT":"二段","MAREA":" ","LANE":"３０１巷","ALLEY":"５３弄","HOUSE_NO":"２０號五樓","E_COORD97":170868.42999999999,"N_COORD97":2542775.6200000001,"ADDRESS":"東門路二段３０１巷５３弄２０號五樓","OBJECTID":172247},"geometry":{"x":170868.43000000063,"y":2542775.620000001}},{"attributes":{"ID":172249,"DIS_CODE":0,"TOWNNAME":"東區","LI":"富裕里","LIN":"19鄰","STREET":"東門路","SECT":"二段","MAREA":" ","LANE":"３０１巷","ALLEY":"５３弄","HOUSE_NO":"２０號六樓","E_COORD97":170868.42999999999,"N_COORD97":2542775.6200000001,"ADDRESS":"東門路二段３０１巷５３弄２０號六樓","OBJECTID":172248},"geometry":{"x":170868.43000000063,"y":2542775.620000001}},{"attributes":{"ID":172250,"DIS_CODE":0,"TOWNNAME":"永康區","LI":"埔園里","LIN":"37鄰","STREET":"永大路","SECT":"三段","MAREA":" ","LANE":"３６０巷","ALLEY":"３０弄","HOUSE_NO":"１號七樓之２","E_COORD97":174207.57000000001,"N_COORD97":2548163.8300000001,"ADDRESS":"永大路三段３６０巷３０弄１號七樓之２","OBJECTID":172249},"geometry":{"x":174207.57000000123,"y":2548163.8300000001}},{"attributes":{"ID":172251,"DIS_CODE":0,"TOWNNAME":"永康區","LI":"勝利里","LIN":"7鄰","STREET":"勝利街","SECT":" ","MAREA":" ","LANE":"２２巷","ALLEY":"５弄","HOUSE_NO":"７號七樓之１","E_COORD97":171244.63,"N_COORD97":2544594.27,"ADDRESS":"勝利街２２巷５弄７號七樓之１","OBJECTID":172250},"geometry":{"x":171244.62999999989,"y":2544594.2699999996}},{"attributes":{"ID":172252,"DIS_CODE":0,"TOWNNAME":"永康區","LI":"永康里","LIN":"32鄰","STREET":"永大路","SECT":"二段","MAREA":" ","LANE":"１５２６巷","ALLEY":"２弄","HOUSE_NO":"３號六樓之１","E_COORD97":174315.92000000001,"N_COORD97":2547285.5600000001,"ADDRESS":"永大路二段１５２６巷２弄３號六樓之１","OBJECTID":172251},"geometry":{"x":174315.91999999993,"y":2547285.5600000005}},{"attributes":{"ID":172253,"DIS_CODE":0,"TOWNNAME":"南區","LI":"再興里","LIN":"12鄰","STREET":"三官路","SECT":" ","MAREA":" ","LANE":" ","ALLEY":" ","HOUSE_NO":"１２０號","E_COORD97":167299.67999999999,"N_COORD97":2542114.9300000002,"ADDRESS":"三官路１２０號","OBJECTID":172252},"geometry":{"x":167299.67999999877,"y":2542114.9299999997}},{"attributes":{"ID":172254,"DIS_CODE":0,"TOWNNAME":"永康區","LI":"網寮里","LIN":"20鄰","STREET":"永二街","SECT":" ","MAREA":" ","LANE":"２４５巷","ALLEY":"２５弄","HOUSE_NO":"１１號五樓","E_COORD97":173359.16,"N_COORD97":2546146.3900000001,"ADDRESS":"永二街２４５巷２５弄１１號五樓","OBJECTID":172253},"geometry":{"x":173359.16000000108,"y":2546146.3900000006}},{"attributes":{"ID":172255,"DIS_CODE":0,"TOWNNAME":"永康區","LI":"勝利里","LIN":"38鄰","STREET":"勝利街","SECT":" ","MAREA":" ","LANE":"１９７巷","ALLEY":"８弄","HOUSE_NO":"１０號五樓之１","E_COORD97":171351.38,"N_COORD97":2545188.0499999998,"ADDRESS":"勝利街１９７巷８弄１０號五樓之１","OBJECTID":172254},"geometry":{"x":171351.37999999989,"y":2545188.0500000026}},{"attributes":{"ID":172256,"DIS_CODE":0,"TOWNNAME":"永康區","LI":"永康里","LIN":"32鄰","STREET":"永大路","SECT":"二段","MAREA":" ","LANE":"１５２６巷","ALLEY":"２弄","HOUSE_NO":"２號六樓之１０","E_COORD97":174283.73999999999,"N_COORD97":2547262.98,"ADDRESS":"永大路二段１５２６巷２弄２號六樓之１０","OBJECTID":172255},"geometry":{"x":174283.74000000022,"y":2547262.9800000023}},{"attributes":{"ID":172257,"DIS_CODE":0,"TOWNNAME":"永康區","LI":"永康里","LIN":"32鄰","STREET":"永大路","SECT":"二段","MAREA":" ","LANE":"１５２６巷","ALLEY":"２弄","HOUSE_NO":"２號四樓之１０","E_COORD97":174283.73999999999,"N_COORD97":2547262.98,"ADDRESS":"永大路二段１５２６巷２弄２號四樓之１０","OBJECTID":172256},"geometry":{"x":174283.74000000022,"y":2547262.9800000023}},{"attributes":{"ID":172258,"DIS_CODE":0,"TOWNNAME":"永康區","LI":"神洲里","LIN":"13鄰","STREET":"忠孝路","SECT":" ","MAREA":" ","LANE":"７６巷","ALLEY":"６３弄","HOUSE_NO":"９號五樓","E_COORD97":172256.72,"N_COORD97":2544993.0099999998,"ADDRESS":"忠孝路７６巷６３弄９號五樓","OBJECTID":172257},"geometry":{"x":172256.72000000067,"y":2544993.0099999998}},{"attributes":{"ID":172259,"DIS_CODE":0,"TOWNNAME":"永康區","LI":"\u25A0行里","LIN":"40鄰","STREET":"永安路","SECT":" ","MAREA":" ","LANE":"１０５巷","ALLEY":"４６弄","HOUSE_NO":"２０號四樓之３","E_COORD97":172618.70000000001,"N_COORD97":2549360.8100000001,"ADDRESS":"永安路１０５巷４６弄２０號四樓之３","OBJECTID":172258},"geometry":{"x":172618.70000000112,"y":2549360.8100000024}},{"attributes":{"ID":172260,"DIS_CODE":0,"TOWNNAME":"新營區","LI":"嘉芳里","LIN":"15鄰","STREET":"復興路","SECT":" ","MAREA":" ","LANE":" ","ALLEY":" ","HOUSE_NO":"９４４號","E_COORD97":176607.17000000001,"N_COORD97":2578770.77,"ADDRESS":"復興路９４４號","OBJECTID":172259},"geometry":{"x":176607.17000000086,"y":2578770.7700000014}},{"attributes":{"ID":172261,"DIS_CODE":0,"TOWNNAME":"安南區","LI":"南興里","LIN":"8鄰","STREET":"安興街","SECT":" ","MAREA":" ","LANE":" ","ALLEY":" ","HOUSE_NO":"６２１號","E_COORD97":163438.07999999999,"N_COORD97":2552419.5699999998,"ADDRESS":"安興街６２１號","OBJECTID":172260},"geometry":{"x":163438.08000000101,"y":2552419.5700000022}},{"attributes":{"ID":172262,"DIS_CODE":0,"TOWNNAME":"安南區","LI":"南興里","LIN":"12鄰","STREET":"公學路","SECT":"五段","MAREA":" ","LANE":" ","ALLEY":" ","HOUSE_NO":"６２６號","E_COORD97":164058.88,"N_COORD97":2552710.3300000001,"ADDRESS":"公學路五段６２６號","OBJECTID":172261},"geometry":{"x":164058.87999999989,"y":2552710.3300000001}},{"attributes":{"ID":172263,"DIS_CODE":0,"TOWNNAME":"善化區","LI":"文昌里","LIN":"12鄰","STREET":"永福路","SECT":" ","MAREA":" ","LANE":" ","ALLEY":" ","HOUSE_NO":"７０號","E_COORD97":177458.54000000001,"N_COORD97":2558860,"ADDRESS":"永福路７０號","OBJECTID":172262},"geometry":{"x":177458.53999999911,"y":2558860}},{"attributes":{"ID":172264,"DIS_CODE":0,"TOWNNAME":"安南區","LI":"學東里","LIN":"8鄰","STREET":"公學路","SECT":"六段","MAREA":" ","LANE":" ","ALLEY":" ","HOUSE_NO":"４１８號","E_COORD97":162846.95000000001,"N_COORD97":2553240.4700000002,"ADDRESS":"公學路六段４１８號","OBJECTID":172263},"geometry":{"x":162846.95000000205,"y":2553240.4700000044}},{"attributes":{"ID":172265,"DIS_CODE":0,"TOWNNAME":"安南區","LI":"城北里","LIN":"1鄰","STREET":"安中路","SECT":"六段","MAREA":" ","LANE":" ","ALLEY":" ","HOUSE_NO":"５８４號","E_COORD97":160852.98000000001,"N_COORD97":2551454.77,"ADDRESS":"安中路六段５８４號","OBJECTID":172264},"geometry":{"x":160852.98000000045,"y":2551454.7700000014}},{"attributes":{"ID":172266,"DIS_CODE":0,"TOWNNAME":"安南區","LI":"城北里","LIN":"1鄰","STREET":"安中路","SECT":"六段","MAREA":" ","LANE":" ","ALLEY":" ","HOUSE_NO":"５８６號","E_COORD97":160849.92999999999,"N_COORD97":2551460.4399999999,"ADDRESS":"安中路六段５８６號","OBJECTID":172265},"geometry":{"x":160849.93000000063,"y":2551460.4400000013}},{"attributes":{"ID":172267,"DIS_CODE":0,"TOWNNAME":"安南區","LI":"城北里","LIN":"1鄰","STREET":"安中路","SECT":"六段","MAREA":" ","LANE":" ","ALLEY":" ","HOUSE_NO":"５８８號","E_COORD97":160847.81,"N_COORD97":2551464.8599999999,"ADDRESS":"安中路六段５８８號","OBJECTID":172266},"geometry":{"x":160847.80999999959,"y":2551464.8599999994}},{"attributes":{"ID":172268,"DIS_CODE":0,"TOWNNAME":"永康區","LI":"\u25A0行里","LIN":"40鄰","STREET":"永安路","SECT":" ","MAREA":" ","LANE":"１０５巷","ALLEY":"４６弄","HOUSE_NO":"１９號二樓之３","E_COORD97":172581.01999999999,"N_COORD97":2549358.5600000001,"ADDRESS":"永安路１０５巷４６弄１９號二樓之３","OBJECTID":172267},"geometry":{"x":172581.01999999955,"y":2549358.5600000024}},{"attributes":{"ID":172269,"DIS_CODE":0,"TOWNNAME":"永康區","LI":"\u25A0行里","LIN":"40鄰","STREET":"永安路","SECT":" ","MAREA":" ","LANE":"１０５巷","ALLEY":"４６弄","HOUSE_NO":"２４號五樓之３","E_COORD97":172618.26999999999,"N_COORD97":2549372.0600000001,"ADDRESS":"永安路１０５巷４６弄２４號五樓之３","OBJECTID":172268},"geometry":{"x":172618.26999999955,"y":2549372.0600000024}},{"attributes":{"ID":172270,"DIS_CODE":0,"TOWNNAME":"永康區","LI":"二王里","LIN":"47鄰","STREET":"南工街","SECT":" ","MAREA":" ","LANE":"２２６巷","ALLEY":"３弄","HOUSE_NO":"１０號二樓之１","E_COORD97":171943.32999999999,"N_COORD97":2546004.0299999998,"ADDRESS":"南工街２２６巷３弄１０號二樓之１","OBJECTID":172269},"geometry":{"x":171943.33000000007,"y":2546004.0300000012}},{"attributes":{"ID":172271,"DIS_CODE":0,"TOWNNAME":"永康區","LI":"勝利里","LIN":"38鄰","STREET":"勝利街","SECT":" ","MAREA":" ","LANE":"１９７巷","ALLEY":"８弄","HOUSE_NO":"１０號四樓之２","E_COORD97":171351.51999999999,"N_COORD97":2545188.0499999998,"ADDRESS":"勝利街１９７巷８弄１０號四樓之２","OBJECTID":172270},"geometry":{"x":171351.51999999955,"y":2545188.0500000026}},{"attributes":{"ID":172272,"DIS_CODE":0,"TOWNNAME":"永康區","LI":"神洲里","LIN":"20鄰","STREET":"忠孝路","SECT":" ","MAREA":" ","LANE":"７６巷","ALLEY":"６３弄","HOUSE_NO":"１８號四樓","E_COORD97":172211.87,"N_COORD97":2545050.0499999998,"ADDRESS":"忠孝路７６巷６３弄１８號四樓","OBJECTID":172271},"geometry":{"x":172211.87000000104,"y":2545050.0500000026}},{"attributes":{"ID":172273,"DIS_CODE":0,"TOWNNAME":"永康區","LI":"西灣里","LIN":"43鄰","STREET":"大灣路","SECT":" ","MAREA":" ","LANE":"９４２巷","ALLEY":"３７４弄","HOUSE_NO":"１９號四樓之２","E_COORD97":174005.45999999999,"N_COORD97":2545445.29,"ADDRESS":"大灣路９４２巷３７４弄１９號四樓之２","OBJECTID":172272},"geometry":{"x":174005.45999999996,"y":2545445.2900000028}},{"attributes":{"ID":172274,"DIS_CODE":0,"TOWNNAME":"永康區","LI":"勝利里","LIN":"38鄰","STREET":"勝利街","SECT":" ","MAREA":" ","LANE":"１９７巷","ALLEY":"８弄","HOUSE_NO":"８號一樓之１","E_COORD97":171347.07000000001,"N_COORD97":2545178.2999999998,"ADDRESS":"勝利街１９７巷８弄８號一樓之１","OBJECTID":172273},"geometry":{"x":171347.0700000003,"y":2545178.3000000007}},{"attributes":{"ID":172275,"DIS_CODE":0,"TOWNNAME":"永康區","LI":"二王里","LIN":"47鄰","STREET":"南工街","SECT":" ","MAREA":" ","LANE":"２２６巷","ALLEY":"１弄","HOUSE_NO":"６號二樓之１","E_COORD97":171965.41,"N_COORD97":2546038.2599999998,"ADDRESS":"南工街２２６巷１弄６號二樓之１","OBJECTID":172274},"geometry":{"x":171965.40999999922,"y":2546038.2599999998}},{"attributes":{"ID":172276,"DIS_CODE":0,"TOWNNAME":"永康區","LI":"\u25A0行里","LIN":"40鄰","STREET":"永安路","SECT":" ","MAREA":" ","LANE":"１０５巷","ALLEY":"４６弄","HOUSE_NO":"２號五樓之３","E_COORD97":172609.84,"N_COORD97":2549313.0800000001,"ADDRESS":"永安路１０５巷４６弄２號五樓之３","OBJECTID":172275},"geometry":{"x":172609.84000000171,"y":2549313.0800000019}},{"attributes":{"ID":172277,"DIS_CODE":0,"TOWNNAME":"永康區","LI":"二王里","LIN":"47鄰","STREET":"南工街","SECT":" ","MAREA":" ","LANE":"２２６巷","ALLEY":"１弄","HOUSE_NO":"１號五樓之２","E_COORD97":171985.04999999999,"N_COORD97":2546024.98,"ADDRESS":"南工街２２６巷１弄１號五樓之２","OBJECTID":172276},"geometry":{"x":171985.05000000075,"y":2546024.9799999986}},{"attributes":{"ID":172278,"DIS_CODE":0,"TOWNNAME":"永康區","LI":"西勢里","LIN":"18鄰","STREET":"富強路","SECT":"一段","MAREA":" ","LANE":"２巷","ALLEY":"８弄","HOUSE_NO":"４３號七樓","E_COORD97":175474.09,"N_COORD97":2546031.2799999998,"ADDRESS":"富強路一段２巷８弄４３號七樓","OBJECTID":172277},"geometry":{"x":175474.08999999985,"y":2546031.2799999993}},{"attributes":{"ID":172279,"DIS_CODE":0,"TOWNNAME":"永康區","LI":"永康里","LIN":"32鄰","STREET":"永大路","SECT":"二段","MAREA":" ","LANE":"１５２６巷","ALLEY":"２弄","HOUSE_NO":"２號七樓之１","E_COORD97":174282.73000000001,"N_COORD97":2547262.98,"ADDRESS":"永大路二段１５２６巷２弄２號七樓之１","OBJECTID":172278},"geometry":{"x":174282.73000000231,"y":2547262.9800000023}},{"attributes":{"ID":172280,"DIS_CODE":0,"TOWNNAME":"永康區","LI":"永康里","LIN":"32鄰","STREET":"永大路","SECT":"二段","MAREA":" ","LANE":"１５２６巷","ALLEY":"２弄","HOUSE_NO":"２號五樓之１１","E_COORD97":174283.98000000001,"N_COORD97":2547262.98,"ADDRESS":"永大路二段１５２６巷２弄２號五樓之１１","OBJECTID":172279},"geometry":{"x":174283.98000000045,"y":2547262.9800000023}},{"attributes":{"ID":172281,"DIS_CODE":0,"TOWNNAME":"北區","LI":"賢北里","LIN":"13鄰","STREET":"賢北街","SECT":" ","MAREA":" ","LANE":"２７巷","ALLEY":"２２弄","HOUSE_NO":"１０號二樓","E_COORD97":166184.59,"N_COORD97":2545388.6699999999,"ADDRESS":"賢北街２７巷２２弄１０號二樓","OBJECTID":172280},"geometry":{"x":166184.58999999985,"y":2545388.6699999999}},{"attributes":{"ID":172282,"DIS_CODE":0,"TOWNNAME":"北區","LI":"賢北里","LIN":"13鄰","STREET":"賢北街","SECT":" ","MAREA":" ","LANE":"２７巷","ALLEY":"２２弄","HOUSE_NO":"１０號四樓","E_COORD97":166184.59,"N_COORD97":2545388.6699999999,"ADDRESS":"賢北街２７巷２２弄１０號四樓","OBJECTID":172281},"geometry":{"x":166184.58999999985,"y":2545388.6699999999}},{"attributes":{"ID":172283,"DIS_CODE":0,"TOWNNAME":"北區","LI":"賢北里","LIN":"13鄰","STREET":"賢北街","SECT":" ","MAREA":" ","LANE":"２７巷","ALLEY":"２２弄","HOUSE_NO":"１１號二樓","E_COORD97":166166.26000000001,"N_COORD97":2545393.3799999999,"ADDRESS":"賢北街２７巷２２弄１１號二樓","OBJECTID":172282},"geometry":{"x":166166.25999999978,"y":2545393.379999999}},{"attributes":{"ID":172284,"DIS_CODE":0,"TOWNNAME":"北區","LI":"賢北里","LIN":"13鄰","STREET":"賢北街","SECT":" ","MAREA":" ","LANE":"２７巷","ALLEY":"２２弄","HOUSE_NO":"１１號四樓","E_COORD97":166166.26000000001,"N_COORD97":2545393.3799999999,"ADDRESS":"賢北街２７巷２２弄１１號四樓","OBJECTID":172283},"geometry":{"x":166166.25999999978,"y":2545393.379999999}},{"attributes":{"ID":172285,"DIS_CODE":0,"TOWNNAME":"新營區","LI":"新南里","LIN":"24鄰","STREET":"隋唐街","SECT":" ","MAREA":" ","LANE":"２９５巷","ALLEY":"４１弄","HOUSE_NO":"２５號四樓之３","E_COORD97":178238.67000000001,"N_COORD97":2578467.1499999999,"ADDRESS":"隋唐街２９５巷４１弄２５號四樓之３","OBJECTID":172284},"geometry":{"x":178238.66999999993,"y":2578467.1500000022}},{"attributes":{"ID":172286,"DIS_CODE":0,"TOWNNAME":"新營區","LI":"新南里","LIN":"26鄰","STREET":"復興路","SECT":" ","MAREA":" ","LANE":"６２０巷","ALLEY":"３９弄","HOUSE_NO":"５２號三樓之２","E_COORD97":177901.25,"N_COORD97":2578494.2599999998,"ADDRESS":"復興路６２０巷３９弄５２號三樓之２","OBJECTID":172285},"geometry":{"x":177901.25000000186,"y":2578494.2599999998}},{"attributes":{"ID":172287,"DIS_CODE":0,"TOWNNAME":"安南區","LI":"城北里","LIN":"1鄰","STREET":"安中路","SECT":"六段","MAREA":" ","LANE":" ","ALLEY":" ","HOUSE_NO":"５９２號","E_COORD97":160841.87,"N_COORD97":2551469,"ADDRESS":"安中路六段５９２號","OBJECTID":172286},"geometry":{"x":160841.87000000197,"y":2551469}},{"attributes":{"ID":172288,"DIS_CODE":0,"TOWNNAME":"安南區","LI":"城北里","LIN":"1鄰","STREET":"城北路","SECT":" ","MAREA":" ","LANE":" ","ALLEY":" ","HOUSE_NO":"８號","E_COORD97":160857.14999999999,"N_COORD97":2551477.5,"ADDRESS":"城北路８號","OBJECTID":172287},"geometry":{"x":160857.14999999944,"y":2551477.5000000019}},{"attributes":{"ID":172289,"DIS_CODE":0,"TOWNNAME":"安南區","LI":"城北里","LIN":"7鄰","STREET":"安中路","SECT":"六段","MAREA":" ","LANE":" ","ALLEY":" ","HOUSE_NO":"２０２號","E_COORD97":161625.98999999999,"N_COORD97":2551294.23,"ADDRESS":"安中路六段２０２號","OBJECTID":172288},"geometry":{"x":161625.98999999929,"y":2551294.2300000004}},{"attributes":{"ID":172290,"DIS_CODE":0,"TOWNNAME":"新化區","LI":"豐榮里","LIN":"12鄰","STREET":"正新路","SECT":" ","MAREA":" ","LANE":" ","ALLEY":" ","HOUSE_NO":"５９號","E_COORD97":178610.57000000001,"N_COORD97":2547989.25,"ADDRESS":"正新路５９號","OBJECTID":172289},"geometry":{"x":178610.57000000123,"y":2547989.2500000037}},{"attributes":{"ID":172291,"DIS_CODE":0,"TOWNNAME":"安南區","LI":"城北里","LIN":"7鄰","STREET":"安中路","SECT":"六段","MAREA":" ","LANE":" ","ALLEY":" ","HOUSE_NO":"２０６號","E_COORD97":161618.09,"N_COORD97":2551296.71,"ADDRESS":"安中路六段２０６號","OBJECTID":172290},"geometry":{"x":161618.08999999985,"y":2551296.7100000028}},{"attributes":{"ID":172292,"DIS_CODE":0,"TOWNNAME":"安南區","LI":"城北里","LIN":"7鄰","STREET":"安中路","SECT":"六段","MAREA":" ","LANE":" ","ALLEY":" ","HOUSE_NO":"３４０號","E_COORD97":161328.81,"N_COORD97":2551317.6600000001,"ADDRESS":"安中路六段３４０號","OBJECTID":172291},"geometry":{"x":161328.81000000052,"y":2551317.660000002}},{"attributes":{"ID":172293,"DIS_CODE":0,"TOWNNAME":"安南區","LI":"城北里","LIN":"7鄰","STREET":"安中路","SECT":"六段","MAREA":" ","LANE":" ","ALLEY":" ","HOUSE_NO":"３４６號","E_COORD97":161307.56,"N_COORD97":2551319.46,"ADDRESS":"安中路六段３４６號","OBJECTID":172292},"geometry":{"x":161307.55999999959,"y":2551319.4600000028}},{"attributes":{"ID":172294,"DIS_CODE":0,"TOWNNAME":"安南區","LI":"城北里","LIN":"7鄰","STREET":"安中路","SECT":"六段","MAREA":" ","LANE":" ","ALLEY":" ","HOUSE_NO":"４４６號","E_COORD97":161118.32000000001,"N_COORD97":2551330.1699999999,"ADDRESS":"安中路六段４４６號","OBJECTID":172293},"geometry":{"x":161118.3200000003,"y":2551330.1700000018}},{"attributes":{"ID":172295,"DIS_CODE":0,"TOWNNAME":"安南區","LI":"城北里","LIN":"7鄰","STREET":"安中路","SECT":"六段","MAREA":" ","LANE":" ","ALLEY":" ","HOUSE_NO":"４５０號","E_COORD97":161105.17999999999,"N_COORD97":2551350.21,"ADDRESS":"安中路六段４５０號","OBJECTID":172294},"geometry":{"x":161105.1799999997,"y":2551350.209999999}},{"attributes":{"ID":172296,"DIS_CODE":0,"TOWNNAME":"安南區","LI":"城北里","LIN":"7鄰","STREET":"安中路","SECT":"六段","MAREA":" ","LANE":" ","ALLEY":" ","HOUSE_NO":"４７０號","E_COORD97":161057.10999999999,"N_COORD97":2551337.0699999998,"ADDRESS":"安中路六段４７０號","OBJECTID":172295},"geometry":{"x":161057.11000000034,"y":2551337.070000004}},{"attributes":{"ID":172297,"DIS_CODE":0,"TOWNNAME":"新營區","LI":"新北里","LIN":"13鄰","STREET":"周武街","SECT":" ","MAREA":" ","LANE":"７９巷","ALLEY":"４６弄","HOUSE_NO":"１號二樓之２","E_COORD97":179296.85000000001,"N_COORD97":2579060.0800000001,"ADDRESS":"周武街７９巷４６弄１號二樓之２","OBJECTID":172296},"geometry":{"x":179296.84999999963,"y":2579060.0800000038}},{"attributes":{"ID":172298,"DIS_CODE":0,"TOWNNAME":"永康區","LI":"正強里","LIN":"26鄰","STREET":"中正路","SECT":" ","MAREA":" ","LANE":"１５５巷","ALLEY":"２１弄","HOUSE_NO":"５號","E_COORD97":173252.67999999999,"N_COORD97":2547760.1499999999,"ADDRESS":"中正路１５５巷２１弄５號","OBJECTID":172297},"geometry":{"x":173252.6799999997,"y":2547760.1500000022}},{"attributes":{"ID":172299,"DIS_CODE":0,"TOWNNAME":"歸仁區","LI":"媽廟里","LIN":"25鄰","STREET":"保大路","SECT":"一段","MAREA":" ","LANE":"１１７巷","ALLEY":"２６弄","HOUSE_NO":"９號","E_COORD97":177789.03,"N_COORD97":2543935.7200000002,"ADDRESS":"保大路一段１１７巷２６弄９號","OBJECTID":172298},"geometry":{"x":177789.03000000026,"y":2543935.7200000025}},{"attributes":{"ID":172300,"DIS_CODE":0,"TOWNNAME":"歸仁區","LI":"媽廟里","LIN":"25鄰","STREET":"保大路","SECT":"一段","MAREA":" ","LANE":"１１７巷","ALLEY":"２６弄","HOUSE_NO":"１１號","E_COORD97":177786.17999999999,"N_COORD97":2543935.7200000002,"ADDRESS":"保大路一段１１７巷２６弄１１號","OBJECTID":172299},"geometry":{"x":177786.18000000156,"y":2543935.7200000025}},{"attributes":{"ID":172301,"DIS_CODE":0,"TOWNNAME":"歸仁區","LI":"媽廟里","LIN":"25鄰","STREET":"保大路","SECT":"一段","MAREA":" ","LANE":"１１７巷","ALLEY":"２６弄","HOUSE_NO":"１５號","E_COORD97":177777.98000000001,"N_COORD97":2543935.7200000002,"ADDRESS":"保大路一段１１７巷２６弄１５號","OBJECTID":172300},"geometry":{"x":177777.98000000045,"y":2543935.7200000025}},{"attributes":{"ID":172302,"DIS_CODE":0,"TOWNNAME":"歸仁區","LI":"媽廟里","LIN":"24鄰","STREET":"保大路","SECT":"一段","MAREA":" ","LANE":"１３３巷","ALLEY":"１０弄","HOUSE_NO":"１０號","E_COORD97":177758.14368099999,"N_COORD97":2543988.0817100001,"ADDRESS":"保大路一段１３３巷１０弄１０號","OBJECTID":172301},"geometry":{"x":177758.14368100092,"y":2543988.0817060024}},{"attributes":{"ID":172303,"DIS_CODE":0,"TOWNNAME":"北區","LI":"振興里","LIN":"8鄰","STREET":"開元路","SECT":" ","MAREA":" ","LANE":"１４８巷","ALLEY":"４３弄","HOUSE_NO":"２９號二樓之１","E_COORD97":170155.03,"N_COORD97":2545125.1200000001,"ADDRESS":"開元路１４８巷４３弄２９號二樓之１","OBJECTID":172302},"geometry":{"x":170155.03000000119,"y":2545125.120000001}},{"attributes":{"ID":172304,"DIS_CODE":0,"TOWNNAME":"北區","LI":"振興里","LIN":"8鄰","STREET":"開元路","SECT":" ","MAREA":" ","LANE":"１４８巷","ALLEY":"４３弄","HOUSE_NO":"２９號二樓之２","E_COORD97":170155.03,"N_COORD97":2545125.1200000001,"ADDRESS":"開元路１４８巷４３弄２９號二樓之２","OBJECTID":172303},"geometry":{"x":170155.03000000119,"y":2545125.120000001}},{"attributes":{"ID":172305,"DIS_CODE":0,"TOWNNAME":"北區","LI":"振興里","LIN":"8鄰","STREET":"開元路","SECT":" ","MAREA":" ","LANE":"１４８巷","ALLEY":"４３弄","HOUSE_NO":"２９號三樓之２","E_COORD97":170155.03,"N_COORD97":2545125.1200000001,"ADDRESS":"開元路１４８巷４３弄２９號三樓之２","OBJECTID":172304},"geometry":{"x":170155.03000000119,"y":2545125.120000001}},{"attributes":{"ID":172306,"DIS_CODE":0,"TOWNNAME":"北區","LI":"振興里","LIN":"8鄰","STREET":"開元路","SECT":" ","MAREA":" ","LANE":"１４８巷","ALLEY":"４３弄","HOUSE_NO":"２９號五樓之１","E_COORD97":170155.03,"N_COORD97":2545125.1200000001,"ADDRESS":"開元路１４８巷４３弄２９號五樓之１","OBJECTID":172305},"geometry":{"x":170155.03000000119,"y":2545125.120000001}},{"attributes":{"ID":172307,"DIS_CODE":0,"TOWNNAME":"北區","LI":"振興里","LIN":"8鄰","STREET":"開元路","SECT":" ","MAREA":" ","LANE":"１４８巷","ALLEY":"４３弄","HOUSE_NO":"２９號五樓之２","E_COORD97":170155.03,"N_COORD97":2545125.1200000001,"ADDRESS":"開元路１４８巷４３弄２９號五樓之２","OBJECTID":172306},"geometry":{"x":170155.03000000119,"y":2545125.120000001}},{"attributes":{"ID":172308,"DIS_CODE":0,"TOWNNAME":"北區","LI":"振興里","LIN":"8鄰","STREET":"開元路","SECT":" ","MAREA":" ","LANE":"１４８巷","ALLEY":"４３弄","HOUSE_NO":"２９號四樓之１","E_COORD97":170155.03,"N_COORD97":2545125.1200000001,"ADDRESS":"開元路１４８巷４３弄２９號四樓之１","OBJECTID":172307},"geometry":{"x":170155.03000000119,"y":2545125.120000001}},{"attributes":{"ID":172309,"DIS_CODE":0,"TOWNNAME":"北區","LI":"振興里","LIN":"8鄰","STREET":"開元路","SECT":" ","MAREA":" ","LANE":"１４８巷","ALLEY":"４３弄","HOUSE_NO":"４８號二樓之１","E_COORD97":170158.29999999999,"N_COORD97":2545106.7000000002,"ADDRESS":"開元路１４８巷４３弄４８號二樓之１","OBJECTID":172308},"geometry":{"x":170158.29999999981,"y":2545106.6999999993}},{"attributes":{"ID":172310,"DIS_CODE":0,"TOWNNAME":"北區","LI":"振興里","LIN":"8鄰","STREET":"開元路","SECT":" ","MAREA":" ","LANE":"１４８巷","ALLEY":"４３弄","HOUSE_NO":"４８號二樓之２","E_COORD97":170158.29999999999,"N_COORD97":2545106.7000000002,"ADDRESS":"開元路１４８巷４３弄４８號二樓之２","OBJECTID":172309},"geometry":{"x":170158.29999999981,"y":2545106.6999999993}},{"attributes":{"ID":172311,"DIS_CODE":0,"TOWNNAME":"北區","LI":"振興里","LIN":"8鄰","STREET":"開元路","SECT":" ","MAREA":" ","LANE":"１４８巷","ALLEY":"４３弄","HOUSE_NO":"４８號三樓之１","E_COORD97":170158.29999999999,"N_COORD97":2545106.7000000002,"ADDRESS":"開元路１４８巷４３弄４８號三樓之１","OBJECTID":172310},"geometry":{"x":170158.29999999981,"y":2545106.6999999993}},{"attributes":{"ID":172312,"DIS_CODE":0,"TOWNNAME":"新市區","LI":"港墘里","LIN":"4鄰","STREET":"三民街","SECT":" ","MAREA":" ","LANE":" ","ALLEY":" ","HOUSE_NO":"１００號","E_COORD97":178357.20000000001,"N_COORD97":2553485.54,"ADDRESS":"三民街１００號","OBJECTID":172311},"geometry":{"x":178357.20000000019,"y":2553485.5400000028}},{"attributes":{"ID":172313,"DIS_CODE":0,"TOWNNAME":"新市區","LI":"新和里","LIN":"25鄰","STREET":"仁愛街","SECT":" ","MAREA":" ","LANE":" ","ALLEY":" ","HOUSE_NO":"２８２號","E_COORD97":177640.29000000001,"N_COORD97":2552937.7799999998,"ADDRESS":"仁愛街２８２號","OBJECTID":172312},"geometry":{"x":177640.29000000097,"y":2552937.7799999993}},{"attributes":{"ID":172314,"DIS_CODE":0,"TOWNNAME":"新市區","LI":"新市里","LIN":"5鄰","STREET":"華興街","SECT":" ","MAREA":" ","LANE":" ","ALLEY":" ","HOUSE_NO":"６４號","E_COORD97":177620.82000000001,"N_COORD97":2552988.75,"ADDRESS":"華興街６４號","OBJECTID":172313},"geometry":{"x":177620.8200000003,"y":2552988.75}},{"attributes":{"ID":172315,"DIS_CODE":0,"TOWNNAME":"新市區","LI":"新和里","LIN":"32鄰","STREET":"華興街","SECT":" ","MAREA":" ","LANE":" ","ALLEY":" ","HOUSE_NO":"３３號","E_COORD97":177746.10000000001,"N_COORD97":2552989.75,"ADDRESS":"華興街３３號","OBJECTID":172314},"geometry":{"x":177746.10000000149,"y":2552989.75}},{"attributes":{"ID":172316,"DIS_CODE":0,"TOWNNAME":"新市區","LI":"社內里","LIN":"4鄰","STREET":"富強路","SECT":" ","MAREA":" ","LANE":" ","ALLEY":" ","HOUSE_NO":"４３９號","E_COORD97":176512.88,"N_COORD97":2551707.5,"ADDRESS":"富強路４３９號","OBJECTID":172315},"geometry":{"x":176512.87999999989,"y":2551707.5000000019}},{"attributes":{"ID":172317,"DIS_CODE":0,"TOWNNAME":"新市區","LI":"社內里","LIN":"18鄰","STREET":"奇業路","SECT":" ","MAREA":" ","LANE":" ","ALLEY":" ","HOUSE_NO":"１號","E_COORD97":176319.84,"N_COORD97":2554113.5,"ADDRESS":"奇業路１號","OBJECTID":172316},"geometry":{"x":176319.83999999985,"y":2554113.5}},{"attributes":{"ID":172318,"DIS_CODE":0,"TOWNNAME":"新市區","LI":"新和里","LIN":"40鄰","STREET":"勝利街","SECT":" ","MAREA":" ","LANE":" ","ALLEY":" ","HOUSE_NO":"１４號","E_COORD97":177354.73000000001,"N_COORD97":2552962.7599999998,"ADDRESS":"勝利街１４號","OBJECTID":172317},"geometry":{"x":177354.73000000138,"y":2552962.7600000035}},{"attributes":{"ID":172319,"DIS_CODE":0,"TOWNNAME":"北區","LI":"振興里","LIN":"8鄰","STREET":"開元路","SECT":" ","MAREA":" ","LANE":"１４８巷","ALLEY":"４３弄","HOUSE_NO":"４８號三樓之２","E_COORD97":170158.29999999999,"N_COORD97":2545106.7000000002,"ADDRESS":"開元路１４８巷４３弄４８號三樓之２","OBJECTID":172318},"geometry":{"x":170158.29999999981,"y":2545106.6999999993}},{"attributes":{"ID":172320,"DIS_CODE":0,"TOWNNAME":"北區","LI":"振興里","LIN":"8鄰","STREET":"開元路","SECT":" ","MAREA":" ","LANE":"１４８巷","ALLEY":"４３弄","HOUSE_NO":"４８號五樓之１","E_COORD97":170158.29999999999,"N_COORD97":2545106.7000000002,"ADDRESS":"開元路１４８巷４３弄４８號五樓之１","OBJECTID":172319},"geometry":{"x":170158.29999999981,"y":2545106.6999999993}},{"attributes":{"ID":172321,"DIS_CODE":0,"TOWNNAME":"歸仁區","LI":"媽廟里","LIN":"24鄰","STREET":"保大路","SECT":"一段","MAREA":" ","LANE":"１３３巷","ALLEY":"１０弄","HOUSE_NO":"１２號","E_COORD97":177754.330067,"N_COORD97":2543987.87004,"ADDRESS":"保大路一段１３３巷１０弄１２號","OBJECTID":172320},"geometry":{"x":177754.33006700128,"y":2543987.8700390011}},{"attributes":{"ID":172322,"DIS_CODE":0,"TOWNNAME":"新營區","LI":"新東里","LIN":" ","STREET":"民族路","SECT":" ","MAREA":" ","LANE":"１５０巷","ALLEY":"５５弄","HOUSE_NO":"３號５樓","E_COORD97":180607.44,"N_COORD97":2579383.8500000001,"ADDRESS":"民族路１５０巷５５弄３號５樓","OBJECTID":172321},"geometry":{"x":180607.44000000041,"y":2579383.8500000015}},{"attributes":{"ID":172323,"DIS_CODE":0,"TOWNNAME":"新營區","LI":"南紙里","LIN":"24鄰","STREET":"南紙街","SECT":" ","MAREA":" ","LANE":"１１７巷","ALLEY":"４０弄","HOUSE_NO":"１號七樓之６","E_COORD97":177950.01999999999,"N_COORD97":2577430.8599999999,"ADDRESS":"南紙街１１７巷４０弄１號七樓之６","OBJECTID":172322},"geometry":{"x":177950.02000000048,"y":2577430.8600000013}},{"attributes":{"ID":172324,"DIS_CODE":0,"TOWNNAME":"新營區","LI":"南紙里","LIN":"24鄰","STREET":"南紙街","SECT":" ","MAREA":" ","LANE":"１１７巷","ALLEY":"４０弄","HOUSE_NO":"１號五樓之８","E_COORD97":177950.06,"N_COORD97":2577430.8599999999,"ADDRESS":"南紙街１１７巷４０弄１號五樓之８","OBJECTID":172323},"geometry":{"x":177950.06000000052,"y":2577430.8600000013}},{"attributes":{"ID":172325,"DIS_CODE":0,"TOWNNAME":"新營區","LI":"南紙里","LIN":"24鄰","STREET":"南紙街","SECT":" ","MAREA":" ","LANE":"１１７巷","ALLEY":"４０弄","HOUSE_NO":"１號七樓之９","E_COORD97":177950,"N_COORD97":2577430.8599999999,"ADDRESS":"南紙街１１７巷４０弄１號七樓之９","OBJECTID":172324},"geometry":{"x":177950,"y":2577430.8600000013}},{"attributes":{"ID":172326,"DIS_CODE":0,"TOWNNAME":"新營區","LI":"南紙里","LIN":"24鄰","STREET":"南紙街","SECT":" ","MAREA":" ","LANE":"１１７巷","ALLEY":"４０弄","HOUSE_NO":"１號七樓之１９","E_COORD97":177951.25,"N_COORD97":2577430.8599999999,"ADDRESS":"南紙街１１７巷４０弄１號七樓之１９","OBJECTID":172325},"geometry":{"x":177951.25000000093,"y":2577430.8600000013}},{"attributes":{"ID":172327,"DIS_CODE":0,"TOWNNAME":"新營區","LI":"南紙里","LIN":"24鄰","STREET":"南紙街","SECT":" ","MAREA":" ","LANE":"１１７巷","ALLEY":"４０弄","HOUSE_NO":"１號四樓之１１","E_COORD97":177951.17000000001,"N_COORD97":2577430.8599999999,"ADDRESS":"南紙街１１７巷４０弄１號四樓之１１","OBJECTID":172326},"geometry":{"x":177951.17000000086,"y":2577430.8600000013}},{"attributes":{"ID":172328,"DIS_CODE":0,"TOWNNAME":"白河區","LI":"河東里","LIN":"12鄰","STREET":" ","SECT":" ","MAREA":"糞箕湖","LANE":" ","ALLEY":" ","HOUSE_NO":"１５４之１１號","E_COORD97":190538.01999999999,"N_COORD97":2582010.3500000001,"ADDRESS":"糞箕湖１５４之１１號","OBJECTID":172327},"geometry":{"x":190538.01999999955,"y":2582010.3499999996}},{"attributes":{"ID":172329,"DIS_CODE":0,"TOWNNAME":"歸仁區","LI":"媽廟里","LIN":"24鄰","STREET":"保大路","SECT":"一段","MAREA":" ","LANE":"１３３巷","ALLEY":"１０弄","HOUSE_NO":"１６號","E_COORD97":177746.49097300001,"N_COORD97":2543987.87004,"ADDRESS":"保大路一段１３３巷１０弄１６號","OBJECTID":172328},"geometry":{"x":177746.49097300041,"y":2543987.8700390011}},{"attributes":{"ID":172330,"DIS_CODE":0,"TOWNNAME":"白河區","LI":"河東里","LIN":"12鄰","STREET":" ","SECT":" ","MAREA":"糞箕湖","LANE":" ","ALLEY":" ","HOUSE_NO":"１７０號","E_COORD97":190356.91,"N_COORD97":2582053.27,"ADDRESS":"糞箕湖１７０號","OBJECTID":172329},"geometry":{"x":190356.91000000108,"y":2582053.2700000014}},{"attributes":{"ID":172331,"DIS_CODE":0,"TOWNNAME":"白河區","LI":"河東里","LIN":"12鄰","STREET":" ","SECT":" ","MAREA":"糞箕湖","LANE":" ","ALLEY":" ","HOUSE_NO":"１７１號","E_COORD97":190350.04000000001,"N_COORD97":2582042.2599999998,"ADDRESS":"糞箕湖１７１號","OBJECTID":172330},"geometry":{"x":190350.04000000004,"y":2582042.2600000016}},{"attributes":{"ID":172332,"DIS_CODE":0,"TOWNNAME":"新營區","LI":"南紙里","LIN":"24鄰","STREET":"南紙街","SECT":" ","MAREA":" ","LANE":"１１７巷","ALLEY":"４０弄","HOUSE_NO":"１號二樓之６","E_COORD97":177950.01999999999,"N_COORD97":2577430.8599999999,"ADDRESS":"南紙街１１７巷４０弄１號二樓之６","OBJECTID":172331},"geometry":{"x":177950.02000000048,"y":2577430.8600000013}},{"attributes":{"ID":172333,"DIS_CODE":0,"TOWNNAME":"新營區","LI":"新南里","LIN":"26鄰","STREET":"復興路","SECT":" ","MAREA":" ","LANE":"６２０巷","ALLEY":"３９弄","HOUSE_NO":"５２號一樓之７","E_COORD97":177901.19,"N_COORD97":2578494.2599999998,"ADDRESS":"復興路６２０巷３９弄５２號一樓之７","OBJECTID":172332},"geometry":{"x":177901.19000000134,"y":2578494.2599999998}},{"attributes":{"ID":172334,"DIS_CODE":0,"TOWNNAME":"新營區","LI":"新南里","LIN":"24鄰","STREET":"隋唐街","SECT":" ","MAREA":" ","LANE":"２９５巷","ALLEY":"４１弄","HOUSE_NO":"２５號四樓之１０","E_COORD97":178239.59,"N_COORD97":2578467.1499999999,"ADDRESS":"隋唐街２９５巷４１弄２５號四樓之１０","OBJECTID":172333},"geometry":{"x":178239.59000000171,"y":2578467.1500000022}},{"attributes":{"ID":172335,"DIS_CODE":0,"TOWNNAME":"新營區","LI":"新東里","LIN":" ","STREET":"民族路","SECT":" ","MAREA":" ","LANE":"１５０巷","ALLEY":"５５弄","HOUSE_NO":"５號５樓","E_COORD97":180607.37,"N_COORD97":2579383.8500000001,"ADDRESS":"民族路１５０巷５５弄５號５樓","OBJECTID":172334},"geometry":{"x":180607.37000000011,"y":2579383.8500000015}},{"attributes":{"ID":172336,"DIS_CODE":0,"TOWNNAME":"新營區","LI":"新南里","LIN":"26鄰","STREET":"復興路","SECT":" ","MAREA":" ","LANE":"６２０巷","ALLEY":"３９弄","HOUSE_NO":"５２號二樓之４","E_COORD97":177901.14000000001,"N_COORD97":2578494.2599999998,"ADDRESS":"復興路６２０巷３９弄５２號二樓之４","OBJECTID":172335},"geometry":{"x":177901.13999999966,"y":2578494.2599999998}},{"attributes":{"ID":172337,"DIS_CODE":0,"TOWNNAME":"新營區","LI":"新南里","LIN":"26鄰","STREET":"復興路","SECT":" ","MAREA":" ","LANE":"６２０巷","ALLEY":"３９弄","HOUSE_NO":"５２號六樓之１","E_COORD97":177901.12,"N_COORD97":2578494.2599999998,"ADDRESS":"復興路６２０巷３９弄５２號六樓之１","OBJECTID":172336},"geometry":{"x":177901.12000000104,"y":2578494.2599999998}},{"attributes":{"ID":172338,"DIS_CODE":0,"TOWNNAME":"新營區","LI":"新南里","LIN":"26鄰","STREET":"復興路","SECT":" ","MAREA":" ","LANE":"６２０巷","ALLEY":"３９弄","HOUSE_NO":"５２號四樓之１","E_COORD97":177901.12,"N_COORD97":2578494.2599999998,"ADDRESS":"復興路６２０巷３９弄５２號四樓之１","OBJECTID":172337},"geometry":{"x":177901.12000000104,"y":2578494.2599999998}},{"attributes":{"ID":172339,"DIS_CODE":0,"TOWNNAME":"西港區","LI":"劉厝里","LIN":"12鄰","STREET":" ","SECT":" ","MAREA":"劉厝","LANE":" ","ALLEY":" ","HOUSE_NO":"９３號","E_COORD97":165727.63,"N_COORD97":2558902.9900000002,"ADDRESS":"劉厝９３號","OBJECTID":172338},"geometry":{"x":165727.63000000082,"y":2558902.9900000021}},{"attributes":{"ID":172340,"DIS_CODE":0,"TOWNNAME":"南區","LI":"南華里","LIN":"17鄰","STREET":"中華南路","SECT":"二段","MAREA":" ","LANE":"３０２巷","ALLEY":"６弄","HOUSE_NO":"１２號二樓","E_COORD97":166705.34,"N_COORD97":2540396.1400000001,"ADDRESS":"中華南路二段３０２巷６弄１２號二樓","OBJECTID":172339},"geometry":{"x":166705.33999999985,"y":2540396.1400000043}},{"attributes":{"ID":172341,"DIS_CODE":0,"TOWNNAME":"白河區","LI":"河東里","LIN":"12鄰","STREET":" ","SECT":" ","MAREA":"糞箕湖","LANE":" ","ALLEY":" ","HOUSE_NO":"１７２之１號","E_COORD97":190404.70999999999,"N_COORD97":2582074.7400000002,"ADDRESS":"糞箕湖１７２之１號","OBJECTID":172340},"geometry":{"x":190404.70999999996,"y":2582074.7400000021}},{"attributes":{"ID":172342,"DIS_CODE":0,"TOWNNAME":"白河區","LI":"河東里","LIN":"12鄰","STREET":" ","SECT":" ","MAREA":"糞箕湖","LANE":" ","ALLEY":" ","HOUSE_NO":"１７２之２號","E_COORD97":190418.38,"N_COORD97":2582068.5,"ADDRESS":"糞箕湖１７２之２號","OBJECTID":172341},"geometry":{"x":190418.38000000082,"y":2582068.5000000019}},{"attributes":{"ID":172343,"DIS_CODE":0,"TOWNNAME":"白河區","LI":"河東里","LIN":"12鄰","STREET":" ","SECT":" ","MAREA":"糞箕湖","LANE":" ","ALLEY":" ","HOUSE_NO":"１７２之３號","E_COORD97":190424.39999999999,"N_COORD97":2582064.6299999999,"ADDRESS":"糞箕湖１７２之３號","OBJECTID":172342},"geometry":{"x":190424.40000000037,"y":2582064.629999999}},{"attributes":{"ID":172344,"DIS_CODE":0,"TOWNNAME":"白河區","LI":"河東里","LIN":"12鄰","STREET":" ","SECT":" ","MAREA":"糞箕湖","LANE":" ","ALLEY":" ","HOUSE_NO":"１７２之５號","E_COORD97":190435.04999999999,"N_COORD97":2582077.48,"ADDRESS":"糞箕湖１７２之５號","OBJECTID":172343},"geometry":{"x":190435.05000000168,"y":2582077.4800000004}},{"attributes":{"ID":172345,"DIS_CODE":0,"TOWNNAME":"南區","LI":"南華里","LIN":"17鄰","STREET":"中華南路","SECT":"二段","MAREA":" ","LANE":"３０２巷","ALLEY":"６弄","HOUSE_NO":"５號四樓","E_COORD97":166700.59,"N_COORD97":2540422.3999999999,"ADDRESS":"中華南路二段３０２巷６弄５號四樓","OBJECTID":172344},"geometry":{"x":166700.59000000078,"y":2540422.4000000022}},{"attributes":{"ID":172346,"DIS_CODE":0,"TOWNNAME":"南區","LI":"南華里","LIN":"17鄰","STREET":"中華南路","SECT":"二段","MAREA":" ","LANE":"３０２巷","ALLEY":"６弄","HOUSE_NO":"６號二樓","E_COORD97":166677.76999999999,"N_COORD97":2540395.6600000001,"ADDRESS":"中華南路二段３０２巷６弄６號二樓","OBJECTID":172345},"geometry":{"x":166677.76999999955,"y":2540395.6600000039}},{"attributes":{"ID":172347,"DIS_CODE":0,"TOWNNAME":"南區","LI":"南華里","LIN":"17鄰","STREET":"中華南路","SECT":"二段","MAREA":" ","LANE":"３０２巷","ALLEY":"６弄","HOUSE_NO":"６號三樓","E_COORD97":166677.76999999999,"N_COORD97":2540395.6600000001,"ADDRESS":"中華南路二段３０２巷６弄６號三樓","OBJECTID":172346},"geometry":{"x":166677.76999999955,"y":2540395.6600000039}},{"attributes":{"ID":172348,"DIS_CODE":0,"TOWNNAME":"南區","LI":"南華里","LIN":"17鄰","STREET":"中華南路","SECT":"二段","MAREA":" ","LANE":"３０２巷","ALLEY":"６弄","HOUSE_NO":"６號五樓","E_COORD97":166677.76999999999,"N_COORD97":2540395.6600000001,"ADDRESS":"中華南路二段３０２巷６弄６號五樓","OBJECTID":172347},"geometry":{"x":166677.76999999955,"y":2540395.6600000039}},{"attributes":{"ID":172349,"DIS_CODE":0,"TOWNNAME":"南區","LI":"南華里","LIN":"17鄰","STREET":"中華南路","SECT":"二段","MAREA":" ","LANE":"３０２巷","ALLEY":"６弄","HOUSE_NO":"６號四樓","E_COORD97":166677.76999999999,"N_COORD97":2540395.6600000001,"ADDRESS":"中華南路二段３０２巷６弄６號四樓","OBJECTID":172348},"geometry":{"x":166677.76999999955,"y":2540395.6600000039}},{"attributes":{"ID":172350,"DIS_CODE":0,"TOWNNAME":"南區","LI":"南華里","LIN":"17鄰","STREET":"中華南路","SECT":"二段","MAREA":" ","LANE":"３０２巷","ALLEY":"６弄","HOUSE_NO":"７號二樓","E_COORD97":166709.51000000001,"N_COORD97":2540422.8799999999,"ADDRESS":"中華南路二段３０２巷６弄７號二樓","OBJECTID":172349},"geometry":{"x":166709.51000000071,"y":2540422.879999999}},{"attributes":{"ID":172351,"DIS_CODE":0,"TOWNNAME":"南區","LI":"南華里","LIN":"17鄰","STREET":"中華南路","SECT":"二段","MAREA":" ","LANE":"３０２巷","ALLEY":"６弄","HOUSE_NO":"７號三樓","E_COORD97":166709.51000000001,"N_COORD97":2540422.8799999999,"ADDRESS":"中華南路二段３０２巷６弄７號三樓","OBJECTID":172350},"geometry":{"x":166709.51000000071,"y":2540422.879999999}},{"attributes":{"ID":172352,"DIS_CODE":0,"TOWNNAME":"南區","LI":"南華里","LIN":"17鄰","STREET":"中華南路","SECT":"二段","MAREA":" ","LANE":"３０２巷","ALLEY":"６弄","HOUSE_NO":"７號五樓","E_COORD97":166709.51000000001,"N_COORD97":2540422.8799999999,"ADDRESS":"中華南路二段３０２巷６弄７號五樓","OBJECTID":172351},"geometry":{"x":166709.51000000071,"y":2540422.879999999}},{"attributes":{"ID":172353,"DIS_CODE":0,"TOWNNAME":"南區","LI":"南華里","LIN":"17鄰","STREET":"中華南路","SECT":"二段","MAREA":" ","LANE":"３０２巷","ALLEY":"６弄","HOUSE_NO":"７號四樓","E_COORD97":166709.51000000001,"N_COORD97":2540422.8799999999,"ADDRESS":"中華南路二段３０２巷６弄７號四樓","OBJECTID":172352},"geometry":{"x":166709.51000000071,"y":2540422.879999999}},{"attributes":{"ID":172354,"DIS_CODE":0,"TOWNNAME":"南區","LI":"南華里","LIN":"17鄰","STREET":"中華南路","SECT":"二段","MAREA":" ","LANE":"３０２巷","ALLEY":"６弄","HOUSE_NO":"８號二樓","E_COORD97":166686.92000000001,"N_COORD97":2540396.02,"ADDRESS":"中華南路二段３０２巷６弄８號二樓","OBJECTID":172353},"geometry":{"x":166686.92000000086,"y":2540396.0200000033}},{"attributes":{"ID":172355,"DIS_CODE":0,"TOWNNAME":"永康區","LI":"西橋里","LIN":"12鄰","STREET":"中華西街","SECT":" ","MAREA":" ","LANE":" ","ALLEY":" ","HOUSE_NO":"１４３號","E_COORD97":170639.01000000001,"N_COORD97":2546233,"ADDRESS":"中華西街１４３號","OBJECTID":172354},"geometry":{"x":170639.01000000071,"y":2546233.0000000019}},{"attributes":{"ID":172356,"DIS_CODE":0,"TOWNNAME":"南區","LI":"南華里","LIN":"17鄰","STREET":"中華南路","SECT":"二段","MAREA":" ","LANE":"３０２巷","ALLEY":"６弄","HOUSE_NO":"８號三樓","E_COORD97":166686.92000000001,"N_COORD97":2540396.02,"ADDRESS":"中華南路二段３０２巷６弄８號三樓","OBJECTID":172355},"geometry":{"x":166686.92000000086,"y":2540396.0200000033}},{"attributes":{"ID":172357,"DIS_CODE":0,"TOWNNAME":"南區","LI":"南華里","LIN":"17鄰","STREET":"中華南路","SECT":"二段","MAREA":" ","LANE":"３０２巷","ALLEY":"６弄","HOUSE_NO":"８號五樓","E_COORD97":166686.92000000001,"N_COORD97":2540396.02,"ADDRESS":"中華南路二段３０２巷６弄８號五樓","OBJECTID":172356},"geometry":{"x":166686.92000000086,"y":2540396.0200000033}},{"attributes":{"ID":172358,"DIS_CODE":0,"TOWNNAME":"南區","LI":"南華里","LIN":"17鄰","STREET":"中華南路","SECT":"二段","MAREA":" ","LANE":"３０２巷","ALLEY":"６弄","HOUSE_NO":"８號四樓","E_COORD97":166686.92000000001,"N_COORD97":2540396.02,"ADDRESS":"中華南路二段３０２巷６弄８號四樓","OBJECTID":172357},"geometry":{"x":166686.92000000086,"y":2540396.0200000033}},{"attributes":{"ID":172359,"DIS_CODE":0,"TOWNNAME":"南區","LI":"南華里","LIN":"19鄰","STREET":"中華南路","SECT":"二段","MAREA":" ","LANE":"３００巷","ALLEY":"２弄","HOUSE_NO":"１１號二樓","E_COORD97":166770.95000000001,"N_COORD97":2540305.8799999999,"ADDRESS":"中華南路二段３００巷２弄１１號二樓","OBJECTID":172358},"geometry":{"x":166770.95000000019,"y":2540305.8800000008}},{"attributes":{"ID":172360,"DIS_CODE":0,"TOWNNAME":"南區","LI":"南華里","LIN":"19鄰","STREET":"中華南路","SECT":"二段","MAREA":" ","LANE":"３００巷","ALLEY":"２弄","HOUSE_NO":"１１號三樓","E_COORD97":166770.95000000001,"N_COORD97":2540305.8799999999,"ADDRESS":"中華南路二段３００巷２弄１１號三樓","OBJECTID":172359},"geometry":{"x":166770.95000000019,"y":2540305.8800000008}},{"attributes":{"ID":172361,"DIS_CODE":0,"TOWNNAME":"南區","LI":"南華里","LIN":"19鄰","STREET":"中華南路","SECT":"二段","MAREA":" ","LANE":"３００巷","ALLEY":"２弄","HOUSE_NO":"１１號五樓","E_COORD97":166770.95000000001,"N_COORD97":2540305.8799999999,"ADDRESS":"中華南路二段３００巷２弄１１號五樓","OBJECTID":172360},"geometry":{"x":166770.95000000019,"y":2540305.8800000008}},{"attributes":{"ID":172362,"DIS_CODE":0,"TOWNNAME":"南區","LI":"南華里","LIN":"19鄰","STREET":"中華南路","SECT":"二段","MAREA":" ","LANE":"３００巷","ALLEY":"２弄","HOUSE_NO":"１１號四樓","E_COORD97":166770.95000000001,"N_COORD97":2540305.8799999999,"ADDRESS":"中華南路二段３００巷２弄１１號四樓","OBJECTID":172361},"geometry":{"x":166770.95000000019,"y":2540305.8800000008}},{"attributes":{"ID":172363,"DIS_CODE":0,"TOWNNAME":"南區","LI":"南華里","LIN":"19鄰","STREET":"中華南路","SECT":"二段","MAREA":" ","LANE":"３００巷","ALLEY":"２弄","HOUSE_NO":"１３號二樓","E_COORD97":166784.45999999999,"N_COORD97":2540303.3900000001,"ADDRESS":"中華南路二段３００巷２弄１３號二樓","OBJECTID":172362},"geometry":{"x":166784.46000000183,"y":2540303.3900000025}},{"attributes":{"ID":172364,"DIS_CODE":0,"TOWNNAME":"安南區","LI":"顯宮里","LIN":"1鄰","STREET":"顯宮二街","SECT":" ","MAREA":" ","LANE":"２１巷","ALLEY":" ","HOUSE_NO":"１６號","E_COORD97":160445.26000000001,"N_COORD97":2548676.8999999999,"ADDRESS":"顯宮二街２１巷１６號","OBJECTID":172363},"geometry":{"x":160445.25999999978,"y":2548676.9000000041}},{"attributes":{"ID":172365,"DIS_CODE":0,"TOWNNAME":"南區","LI":"省躬里","LIN":"15鄰","STREET":"明興路","SECT":" ","MAREA":" ","LANE":" ","ALLEY":" ","HOUSE_NO":"９５３號","E_COORD97":166175.04999999999,"N_COORD97":2537045,"ADDRESS":"明興路９５３號","OBJECTID":172364},"geometry":{"x":166175.04999999888,"y":2537045.0000000019}},{"attributes":{"ID":172366,"DIS_CODE":0,"TOWNNAME":"西港區","LI":"劉厝里","LIN":"12鄰","STREET":" ","SECT":" ","MAREA":"劉厝","LANE":" ","ALLEY":" ","HOUSE_NO":"９１之２號","E_COORD97":165785.06,"N_COORD97":2558838.8799999999,"ADDRESS":"劉厝９１之２號","OBJECTID":172365},"geometry":{"x":165785.06000000145,"y":2558838.879999999}},{"attributes":{"ID":172367,"DIS_CODE":0,"TOWNNAME":"西港區","LI":"劉厝里","LIN":"12鄰","STREET":" ","SECT":" ","MAREA":"劉厝","LANE":" ","ALLEY":" ","HOUSE_NO":"９１號","E_COORD97":165765.34,"N_COORD97":2558862.6099999999,"ADDRESS":"劉厝９１號","OBJECTID":172366},"geometry":{"x":165765.34000000078,"y":2558862.6100000031}},{"attributes":{"ID":172368,"DIS_CODE":0,"TOWNNAME":"西港區","LI":"劉厝里","LIN":"12鄰","STREET":" ","SECT":" ","MAREA":"劉厝","LANE":" ","ALLEY":" ","HOUSE_NO":"９２號","E_COORD97":165757.84,"N_COORD97":2558900.3700000001,"ADDRESS":"劉厝９２號","OBJECTID":172367},"geometry":{"x":165757.84000000171,"y":2558900.3700000029}},{"attributes":{"ID":172369,"DIS_CODE":0,"TOWNNAME":"西港區","LI":"劉厝里","LIN":"12鄰","STREET":" ","SECT":" ","MAREA":"劉厝","LANE":" ","ALLEY":" ","HOUSE_NO":"９６號之１","E_COORD97":165771.89999999999,"N_COORD97":2558796.73,"ADDRESS":"劉厝９６號之１","OBJECTID":172368},"geometry":{"x":165771.9000000013,"y":2558796.7300000023}},{"attributes":{"ID":172370,"DIS_CODE":0,"TOWNNAME":"西港區","LI":"劉厝里","LIN":"12鄰","STREET":" ","SECT":" ","MAREA":"劉厝","LANE":" ","ALLEY":" ","HOUSE_NO":"９６號之２","E_COORD97":165764.37,"N_COORD97":2558798.25,"ADDRESS":"劉厝９６號之２","OBJECTID":172369},"geometry":{"x":165764.37000000011,"y":2558798.2500000019}},{"attributes":{"ID":172371,"DIS_CODE":0,"TOWNNAME":"西港區","LI":"劉厝里","LIN":"12鄰","STREET":" ","SECT":" ","MAREA":"劉厝","LANE":" ","ALLEY":" ","HOUSE_NO":"９６號","E_COORD97":165749.70000000001,"N_COORD97":2558827.1099999999,"ADDRESS":"劉厝９６號","OBJECTID":172370},"geometry":{"x":165749.70000000112,"y":2558827.1099999994}},{"attributes":{"ID":172372,"DIS_CODE":0,"TOWNNAME":"西港區","LI":"劉厝里","LIN":"12鄰","STREET":" ","SECT":" ","MAREA":"劉厝","LANE":" ","ALLEY":" ","HOUSE_NO":"９７號","E_COORD97":165748.95000000001,"N_COORD97":2558806.8700000001,"ADDRESS":"劉厝９７號","OBJECTID":172371},"geometry":{"x":165748.94999999925,"y":2558806.870000001}},{"attributes":{"ID":172373,"DIS_CODE":0,"TOWNNAME":"西港區","LI":"劉厝里","LIN":"12鄰","STREET":" ","SECT":" ","MAREA":"劉厝","LANE":" ","ALLEY":" ","HOUSE_NO":"９８號之１","E_COORD97":165732.76000000001,"N_COORD97":2558814.7200000002,"ADDRESS":"劉厝９８號之１","OBJECTID":172372},"geometry":{"x":165732.75999999978,"y":2558814.7200000007}},{"attributes":{"ID":172374,"DIS_CODE":0,"TOWNNAME":"西港區","LI":"劉厝里","LIN":"12鄰","STREET":" ","SECT":" ","MAREA":"劉厝","LANE":" ","ALLEY":" ","HOUSE_NO":"９８號之２","E_COORD97":165706.03,"N_COORD97":2558826.8100000001,"ADDRESS":"劉厝９８號之２","OBJECTID":172373},"geometry":{"x":165706.03000000026,"y":2558826.8100000005}},{"attributes":{"ID":172375,"DIS_CODE":0,"TOWNNAME":"西港區","LI":"劉厝里","LIN":"12鄰","STREET":" ","SECT":" ","MAREA":"劉厝","LANE":" ","ALLEY":" ","HOUSE_NO":"９８號之３","E_COORD97":165715.32000000001,"N_COORD97":2558786.9300000002,"ADDRESS":"劉厝９８號之３","OBJECTID":172374},"geometry":{"x":165715.3200000003,"y":2558786.9300000016}},{"attributes":{"ID":172376,"DIS_CODE":0,"TOWNNAME":"白河區","LI":"白河里","LIN":"12鄰","STREET":"中山路","SECT":" ","MAREA":" ","LANE":" ","ALLEY":" ","HOUSE_NO":"７０號","E_COORD97":190217.95999999999,"N_COORD97":2583141.77,"ADDRESS":"中山路７０號","OBJECTID":172375},"geometry":{"x":190217.95999999996,"y":2583141.7700000014}},{"attributes":{"ID":172377,"DIS_CODE":0,"TOWNNAME":"南區","LI":"南華里","LIN":"19鄰","STREET":"中華南路","SECT":"二段","MAREA":" ","LANE":"３００巷","ALLEY":"２弄","HOUSE_NO":"１３號三樓","E_COORD97":166784.45999999999,"N_COORD97":2540303.3900000001,"ADDRESS":"中華南路二段３００巷２弄１３號三樓","OBJECTID":172376},"geometry":{"x":166784.46000000183,"y":2540303.3900000025}},{"attributes":{"ID":172378,"DIS_CODE":0,"TOWNNAME":"佳里區","LI":"營頂里","LIN":"10鄰","STREET":" ","SECT":" ","MAREA":"營頂","LANE":" ","ALLEY":" ","HOUSE_NO":"１１７號之１","E_COORD97":167284.56,"N_COORD97":2567040.4700000002,"ADDRESS":"營頂１１７號之１","OBJECTID":172377},"geometry":{"x":167284.55999999959,"y":2567040.4700000025}},{"attributes":{"ID":172379,"DIS_CODE":0,"TOWNNAME":"南區","LI":"南華里","LIN":"19鄰","STREET":"中華南路","SECT":"二段","MAREA":" ","LANE":"３００巷","ALLEY":"２弄","HOUSE_NO":"１３號五樓","E_COORD97":166784.45999999999,"N_COORD97":2540303.3900000001,"ADDRESS":"中華南路二段３００巷２弄１３號五樓","OBJECTID":172378},"geometry":{"x":166784.46000000183,"y":2540303.3900000025}},{"attributes":{"ID":172380,"DIS_CODE":0,"TOWNNAME":"南區","LI":"南華里","LIN":"19鄰","STREET":"中華南路","SECT":"二段","MAREA":" ","LANE":"３００巷","ALLEY":"２弄","HOUSE_NO":"１３號四樓","E_COORD97":166784.45999999999,"N_COORD97":2540303.3900000001,"ADDRESS":"中華南路二段３００巷２弄１３號四樓","OBJECTID":172379},"geometry":{"x":166784.46000000183,"y":2540303.3900000025}},{"attributes":{"ID":172381,"DIS_CODE":0,"TOWNNAME":"南區","LI":"南華里","LIN":"19鄰","STREET":"中華南路","SECT":"二段","MAREA":" ","LANE":"３００巷","ALLEY":"２弄","HOUSE_NO":"１５號二樓","E_COORD97":166792.95999999999,"N_COORD97":2540302.4700000002,"ADDRESS":"中華南路二段３００巷２弄１５號二樓","OBJECTID":172380},"geometry":{"x":166792.96000000183,"y":2540302.4700000044}},{"attributes":{"ID":172382,"DIS_CODE":0,"TOWNNAME":"南區","LI":"南華里","LIN":"19鄰","STREET":"中華南路","SECT":"二段","MAREA":" ","LANE":"３００巷","ALLEY":"２弄","HOUSE_NO":"１５號三樓","E_COORD97":166792.95999999999,"N_COORD97":2540302.4700000002,"ADDRESS":"中華南路二段３００巷２弄１５號三樓","OBJECTID":172381},"geometry":{"x":166792.96000000183,"y":2540302.4700000044}},{"attributes":{"ID":172383,"DIS_CODE":0,"TOWNNAME":"南區","LI":"南華里","LIN":"19鄰","STREET":"中華南路","SECT":"二段","MAREA":" ","LANE":"３００巷","ALLEY":"２弄","HOUSE_NO":"１５號五樓","E_COORD97":166792.95999999999,"N_COORD97":2540302.4700000002,"ADDRESS":"中華南路二段３００巷２弄１５號五樓","OBJECTID":172382},"geometry":{"x":166792.96000000183,"y":2540302.4700000044}},{"attributes":{"ID":172384,"DIS_CODE":0,"TOWNNAME":"南區","LI":"南華里","LIN":"19鄰","STREET":"中華南路","SECT":"二段","MAREA":" ","LANE":"３００巷","ALLEY":"２弄","HOUSE_NO":"１５號四樓","E_COORD97":166792.95999999999,"N_COORD97":2540302.4700000002,"ADDRESS":"中華南路二段３００巷２弄１５號四樓","OBJECTID":172383},"geometry":{"x":166792.96000000183,"y":2540302.4700000044}},{"attributes":{"ID":172385,"DIS_CODE":0,"TOWNNAME":"南區","LI":"南華里","LIN":"19鄰","STREET":"中華南路","SECT":"二段","MAREA":" ","LANE":"３００巷","ALLEY":"２弄","HOUSE_NO":"１７號二樓","E_COORD97":166801.28,"N_COORD97":2540301.73,"ADDRESS":"中華南路二段３００巷２弄１７號二樓","OBJECTID":172384},"geometry":{"x":166801.28000000212,"y":2540301.7300000023}},{"attributes":{"ID":172386,"DIS_CODE":0,"TOWNNAME":"南區","LI":"南華里","LIN":"19鄰","STREET":"中華南路","SECT":"二段","MAREA":" ","LANE":"３００巷","ALLEY":"２弄","HOUSE_NO":"１７號三樓","E_COORD97":166801.28,"N_COORD97":2540301.73,"ADDRESS":"中華南路二段３００巷２弄１７號三樓","OBJECTID":172385},"geometry":{"x":166801.28000000212,"y":2540301.7300000023}},{"attributes":{"ID":172387,"DIS_CODE":0,"TOWNNAME":"南區","LI":"南華里","LIN":"19鄰","STREET":"中華南路","SECT":"二段","MAREA":" ","LANE":"３００巷","ALLEY":"２弄","HOUSE_NO":"１７號五樓","E_COORD97":166801.28,"N_COORD97":2540301.73,"ADDRESS":"中華南路二段３００巷２弄１７號五樓","OBJECTID":172386},"geometry":{"x":166801.28000000212,"y":2540301.7300000023}},{"attributes":{"ID":172388,"DIS_CODE":0,"TOWNNAME":"南區","LI":"南都里","LIN":"4鄰","STREET":"中華南路","SECT":"二段","MAREA":" ","LANE":"３１５巷","ALLEY":"１０弄","HOUSE_NO":"１０號二樓","E_COORD97":166411.56,"N_COORD97":2540136.1000000001,"ADDRESS":"中華南路二段３１５巷１０弄１０號二樓","OBJECTID":172387},"geometry":{"x":166411.55999999959,"y":2540136.1000000015}},{"attributes":{"ID":172389,"DIS_CODE":0,"TOWNNAME":"南區","LI":"南都里","LIN":"4鄰","STREET":"中華南路","SECT":"二段","MAREA":" ","LANE":"３１５巷","ALLEY":"１０弄","HOUSE_NO":"１０號三樓","E_COORD97":166411.56,"N_COORD97":2540136.1000000001,"ADDRESS":"中華南路二段３１５巷１０弄１０號三樓","OBJECTID":172388},"geometry":{"x":166411.55999999959,"y":2540136.1000000015}},{"attributes":{"ID":172390,"DIS_CODE":0,"TOWNNAME":"南區","LI":"南都里","LIN":"4鄰","STREET":"中華南路","SECT":"二段","MAREA":" ","LANE":"３１５巷","ALLEY":"１０弄","HOUSE_NO":"１０號五樓","E_COORD97":166411.56,"N_COORD97":2540136.1000000001,"ADDRESS":"中華南路二段３１５巷１０弄１０號五樓","OBJECTID":172389},"geometry":{"x":166411.55999999959,"y":2540136.1000000015}},{"attributes":{"ID":172391,"DIS_CODE":0,"TOWNNAME":"南區","LI":"南都里","LIN":"4鄰","STREET":"中華南路","SECT":"二段","MAREA":" ","LANE":"３１５巷","ALLEY":"１０弄","HOUSE_NO":"１０號四樓","E_COORD97":166411.56,"N_COORD97":2540136.1000000001,"ADDRESS":"中華南路二段３１５巷１０弄１０號四樓","OBJECTID":172390},"geometry":{"x":166411.55999999959,"y":2540136.1000000015}},{"attributes":{"ID":172392,"DIS_CODE":0,"TOWNNAME":"南區","LI":"南都里","LIN":"4鄰","STREET":"中華南路","SECT":"二段","MAREA":" ","LANE":"３１５巷","ALLEY":"１０弄","HOUSE_NO":"１２號二樓","E_COORD97":166402.95000000001,"N_COORD97":2540135.7999999998,"ADDRESS":"中華南路二段３１５巷１０弄１２號二樓","OBJECTID":172391},"geometry":{"x":166402.95000000019,"y":2540135.8000000026}},{"attributes":{"ID":172393,"DIS_CODE":0,"TOWNNAME":"南區","LI":"南都里","LIN":"4鄰","STREET":"中華南路","SECT":"二段","MAREA":" ","LANE":"３１５巷","ALLEY":"１０弄","HOUSE_NO":"１２號三樓","E_COORD97":166402.95000000001,"N_COORD97":2540135.7999999998,"ADDRESS":"中華南路二段３１５巷１０弄１２號三樓","OBJECTID":172392},"geometry":{"x":166402.95000000019,"y":2540135.8000000026}},{"attributes":{"ID":172394,"DIS_CODE":0,"TOWNNAME":"南區","LI":"南都里","LIN":"4鄰","STREET":"中華南路","SECT":"二段","MAREA":" ","LANE":"３１５巷","ALLEY":"１０弄","HOUSE_NO":"１２號五樓","E_COORD97":166402.95000000001,"N_COORD97":2540135.7999999998,"ADDRESS":"中華南路二段３１５巷１０弄１２號五樓","OBJECTID":172393},"geometry":{"x":166402.95000000019,"y":2540135.8000000026}},{"attributes":{"ID":172395,"DIS_CODE":0,"TOWNNAME":"南區","LI":"南都里","LIN":"4鄰","STREET":"中華南路","SECT":"二段","MAREA":" ","LANE":"３１５巷","ALLEY":"１０弄","HOUSE_NO":"１２號四樓","E_COORD97":166402.95000000001,"N_COORD97":2540135.7999999998,"ADDRESS":"中華南路二段３１５巷１０弄１２號四樓","OBJECTID":172394},"geometry":{"x":166402.95000000019,"y":2540135.8000000026}},{"attributes":{"ID":172396,"DIS_CODE":0,"TOWNNAME":"南區","LI":"南都里","LIN":"4鄰","STREET":"中華南路","SECT":"二段","MAREA":" ","LANE":"３１５巷","ALLEY":"１０弄","HOUSE_NO":"１４號二樓","E_COORD97":166394.66,"N_COORD97":2540135.4900000002,"ADDRESS":"中華南路二段３１５巷１０弄１４號二樓","OBJECTID":172395},"geometry":{"x":166394.66000000015,"y":2540135.4900000002}},{"attributes":{"ID":172397,"DIS_CODE":0,"TOWNNAME":"南區","LI":"南都里","LIN":"4鄰","STREET":"中華南路","SECT":"二段","MAREA":" ","LANE":"３１５巷","ALLEY":"１０弄","HOUSE_NO":"１４號三樓","E_COORD97":166394.66,"N_COORD97":2540135.4900000002,"ADDRESS":"中華南路二段３１５巷１０弄１４號三樓","OBJECTID":172396},"geometry":{"x":166394.66000000015,"y":2540135.4900000002}},{"attributes":{"ID":172398,"DIS_CODE":0,"TOWNNAME":"南區","LI":"南都里","LIN":"4鄰","STREET":"中華南路","SECT":"二段","MAREA":" ","LANE":"３１５巷","ALLEY":"１０弄","HOUSE_NO":"１４號五樓","E_COORD97":166394.66,"N_COORD97":2540135.4900000002,"ADDRESS":"中華南路二段３１５巷１０弄１４號五樓","OBJECTID":172397},"geometry":{"x":166394.66000000015,"y":2540135.4900000002}},{"attributes":{"ID":172399,"DIS_CODE":0,"TOWNNAME":"南區","LI":"南都里","LIN":"4鄰","STREET":"中華南路","SECT":"二段","MAREA":" ","LANE":"３１５巷","ALLEY":"１０弄","HOUSE_NO":"１４號四樓","E_COORD97":166394.66,"N_COORD97":2540135.4900000002,"ADDRESS":"中華南路二段３１５巷１０弄１４號四樓","OBJECTID":172398},"geometry":{"x":166394.66000000015,"y":2540135.4900000002}},{"attributes":{"ID":172400,"DIS_CODE":0,"TOWNNAME":"南區","LI":"南都里","LIN":"4鄰","STREET":"中華南路","SECT":"二段","MAREA":" ","LANE":"３１５巷","ALLEY":"１０弄","HOUSE_NO":"１６號二樓","E_COORD97":166387.29000000001,"N_COORD97":2540135.7999999998,"ADDRESS":"中華南路二段３１５巷１０弄１６號二樓","OBJECTID":172399},"geometry":{"x":166387.2900000019,"y":2540135.8000000026}},{"attributes":{"ID":172401,"DIS_CODE":0,"TOWNNAME":"南區","LI":"南都里","LIN":"4鄰","STREET":"中華南路","SECT":"二段","MAREA":" ","LANE":"３１５巷","ALLEY":"１０弄","HOUSE_NO":"１６號三樓","E_COORD97":166387.29000000001,"N_COORD97":2540135.7999999998,"ADDRESS":"中華南路二段３１５巷１０弄１６號三樓","OBJECTID":172400},"geometry":{"x":166387.2900000019,"y":2540135.8000000026}}]}