{"displayFieldName":"TOWNNAME","fieldAliases":{"ID":"ID","DIS_CODE":"DIS_CODE","TOWNNAME":"TOWNNAME","LI":"LI","LIN":"LIN","STREET":"STREET","SECT":"SECT","MAREA":"MAREA","LANE":"LANE","ALLEY":"ALLEY","HOUSE_NO":"HOUSE_NO","E_COORD97":"E_COORD97","N_COORD97":"N_COORD97","ADDRESS":"ADDRESS","OBJECTID":"OBJECTID"},"geometryType":"esriGeometryPoint","spatialReference":{"wkid":102443,"latestWkid":3826},"fields":[{"name":"ID","type":"esriFieldTypeDouble","alias":"ID"},{"name":"DIS_CODE","type":"esriFieldTypeInteger","alias":"DIS_CODE"},{"name":"TOWNNAME","type":"esriFieldTypeString","alias":"TOWNNAME","length":8},{"name":"LI","type":"esriFieldTypeString","alias":"LI","length":8},{"name":"LIN","type":"esriFieldTypeString","alias":"LIN","length":12},{"name":"STREET","type":"esriFieldTypeString","alias":"STREET","length":20},{"name":"SECT","type":"esriFieldTypeString","alias":"SECT","length":8},{"name":"MAREA","type":"esriFieldTypeString","alias":"MAREA","length":12},{"name":"LANE","type":"esriFieldTypeString","alias":"LANE","length":10},{"name":"ALLEY","type":"esriFieldTypeString","alias":"ALLEY","length":10},{"name":"HOUSE_NO","type":"esriFieldTypeString","alias":"HOUSE_NO","length":20},{"name":"E_COORD97","type":"esriFieldTypeDouble","alias":"E_COORD97"},{"name":"N_COORD97","type":"esriFieldTypeDouble","alias":"N_COORD97"},{"name":"ADDRESS","type":"esriFieldTypeString","alias":"ADDRESS","length":50},{"name":"OBJECTID","type":"esriFieldTypeOID","alias":"OBJECTID"}],"features":[{"attributes":{"ID":442226,"DIS_CODE":0,"TOWNNAME":"中西區","LI":"光賢里","LIN":"5鄰","STREET":"武聖路","SECT":" ","MAREA":" ","LANE":"６９巷","ALLEY":" ","HOUSE_NO":"１９號","E_COORD97":167129.39999999999,"N_COORD97":2545060.6499999999,"ADDRESS":"武聖路６９巷１９號","OBJECTID":442201},"geometry":{"x":167129.40000000224,"y":2545060.6500000004}},{"attributes":{"ID":442227,"DIS_CODE":0,"TOWNNAME":"中西區","LI":"光賢里","LIN":"5鄰","STREET":"武聖路","SECT":" ","MAREA":" ","LANE":"６９巷","ALLEY":" ","HOUSE_NO":"２１號","E_COORD97":167127.63,"N_COORD97":2545057.0899999999,"ADDRESS":"武聖路６９巷２１號","OBJECTID":442202},"geometry":{"x":167127.63000000082,"y":2545057.0899999999}},{"attributes":{"ID":442228,"DIS_CODE":0,"TOWNNAME":"中西區","LI":"光賢里","LIN":"5鄰","STREET":"武聖路","SECT":" ","MAREA":" ","LANE":"６９巷","ALLEY":" ","HOUSE_NO":"２３號","E_COORD97":167125.59,"N_COORD97":2545053.0299999998,"ADDRESS":"武聖路６９巷２３號","OBJECTID":442203},"geometry":{"x":167125.58999999985,"y":2545053.0299999993}},{"attributes":{"ID":442229,"DIS_CODE":0,"TOWNNAME":"中西區","LI":"光賢里","LIN":"5鄰","STREET":"武聖路","SECT":" ","MAREA":" ","LANE":"６９巷","ALLEY":" ","HOUSE_NO":"２５號","E_COORD97":167123.56,"N_COORD97":2545049.2200000002,"ADDRESS":"武聖路６９巷２５號","OBJECTID":442204},"geometry":{"x":167123.55999999959,"y":2545049.2200000007}},{"attributes":{"ID":442230,"DIS_CODE":0,"TOWNNAME":"中西區","LI":"光賢里","LIN":"5鄰","STREET":"武聖路","SECT":" ","MAREA":" ","LANE":"６９巷","ALLEY":" ","HOUSE_NO":"２７號","E_COORD97":167122.04000000001,"N_COORD97":2545045.4100000001,"ADDRESS":"武聖路６９巷２７號","OBJECTID":442205},"geometry":{"x":167122.04000000097,"y":2545045.4100000039}},{"attributes":{"ID":442231,"DIS_CODE":0,"TOWNNAME":"中西區","LI":"光賢里","LIN":"5鄰","STREET":"武聖路","SECT":" ","MAREA":" ","LANE":"６９巷","ALLEY":" ","HOUSE_NO":"２９號","E_COORD97":167119.5,"N_COORD97":2545041.0899999999,"ADDRESS":"武聖路６９巷２９號","OBJECTID":442206},"geometry":{"x":167119.5,"y":2545041.0900000017}},{"attributes":{"ID":442232,"DIS_CODE":0,"TOWNNAME":"中西區","LI":"光賢里","LIN":"5鄰","STREET":"武聖路","SECT":" ","MAREA":" ","LANE":"６９巷","ALLEY":" ","HOUSE_NO":"３１號","E_COORD97":167117.72,"N_COORD97":2545037.2799999998,"ADDRESS":"武聖路６９巷３１號","OBJECTID":442207},"geometry":{"x":167117.71999999974,"y":2545037.2799999993}},{"attributes":{"ID":442233,"DIS_CODE":0,"TOWNNAME":"中西區","LI":"光賢里","LIN":"5鄰","STREET":"武聖路","SECT":" ","MAREA":" ","LANE":"６９巷","ALLEY":" ","HOUSE_NO":"３３號","E_COORD97":167115.42999999999,"N_COORD97":2545033.4700000002,"ADDRESS":"武聖路６９巷３３號","OBJECTID":442208},"geometry":{"x":167115.43000000063,"y":2545033.4700000025}},{"attributes":{"ID":442234,"DIS_CODE":0,"TOWNNAME":"中西區","LI":"光賢里","LIN":"5鄰","STREET":"武聖路","SECT":" ","MAREA":" ","LANE":"６９巷","ALLEY":" ","HOUSE_NO":"３５號","E_COORD97":167113.39999999999,"N_COORD97":2545029.1499999999,"ADDRESS":"武聖路６９巷３５號","OBJECTID":442209},"geometry":{"x":167113.40000000037,"y":2545029.1500000004}},{"attributes":{"ID":442235,"DIS_CODE":0,"TOWNNAME":"中西區","LI":"光賢里","LIN":"5鄰","STREET":"武聖路","SECT":" ","MAREA":" ","LANE":"６９巷","ALLEY":" ","HOUSE_NO":"３７號","E_COORD97":167111.37,"N_COORD97":2545025.3399999999,"ADDRESS":"武聖路６９巷３７號","OBJECTID":442210},"geometry":{"x":167111.37000000104,"y":2545025.3400000036}},{"attributes":{"ID":442236,"DIS_CODE":0,"TOWNNAME":"中西區","LI":"光賢里","LIN":"5鄰","STREET":"武聖路","SECT":" ","MAREA":" ","LANE":"６９巷","ALLEY":" ","HOUSE_NO":"３９號","E_COORD97":167109.07999999999,"N_COORD97":2545021.5299999998,"ADDRESS":"武聖路６９巷３９號","OBJECTID":442211},"geometry":{"x":167109.08000000007,"y":2545021.5300000012}},{"attributes":{"ID":442237,"DIS_CODE":0,"TOWNNAME":"中西區","LI":"光賢里","LIN":"5鄰","STREET":"武聖路","SECT":" ","MAREA":" ","LANE":"６９巷","ALLEY":" ","HOUSE_NO":"４１號","E_COORD97":167106.79999999999,"N_COORD97":2545017.21,"ADDRESS":"武聖路６９巷４１號","OBJECTID":442212},"geometry":{"x":167106.79999999981,"y":2545017.2100000046}},{"attributes":{"ID":442238,"DIS_CODE":0,"TOWNNAME":"中西區","LI":"光賢里","LIN":"5鄰","STREET":"武聖路","SECT":" ","MAREA":" ","LANE":"６９巷","ALLEY":" ","HOUSE_NO":"４３號","E_COORD97":167104.26000000001,"N_COORD97":2545013.1499999999,"ADDRESS":"武聖路６９巷４３號","OBJECTID":442213},"geometry":{"x":167104.25999999885,"y":2545013.1500000004}},{"attributes":{"ID":442239,"DIS_CODE":0,"TOWNNAME":"中西區","LI":"光賢里","LIN":"5鄰","STREET":"武聖路","SECT":" ","MAREA":" ","LANE":"６９巷","ALLEY":" ","HOUSE_NO":"４５號","E_COORD97":167102.23000000001,"N_COORD97":2545009.0800000001,"ADDRESS":"武聖路６９巷４５號","OBJECTID":442214},"geometry":{"x":167102.23000000138,"y":2545009.0800000001}},{"attributes":{"ID":442240,"DIS_CODE":0,"TOWNNAME":"中西區","LI":"光賢里","LIN":"5鄰","STREET":"武聖路","SECT":" ","MAREA":" ","LANE":"６９巷","ALLEY":" ","HOUSE_NO":"４７號","E_COORD97":166615.82999999999,"N_COORD97":2545201.6000000001,"ADDRESS":"武聖路６９巷４７號","OBJECTID":442215},"geometry":{"x":166615.83000000007,"y":2545201.5999999996}},{"attributes":{"ID":442241,"DIS_CODE":0,"TOWNNAME":"中西區","LI":"西湖里","LIN":"5鄰","STREET":"頂美一街","SECT":" ","MAREA":" ","LANE":"７０巷","ALLEY":" ","HOUSE_NO":"８號","E_COORD97":166351.53,"N_COORD97":2544636.5600000001,"ADDRESS":"頂美一街７０巷８號","OBJECTID":442216},"geometry":{"x":166351.53000000026,"y":2544636.5600000005}},{"attributes":{"ID":442242,"DIS_CODE":0,"TOWNNAME":"永康區","LI":"中華里","LIN":"5鄰","STREET":"小東路","SECT":" ","MAREA":" ","LANE":"４７７巷","ALLEY":" ","HOUSE_NO":"３１號","E_COORD97":171611.42999999999,"N_COORD97":2544451.7000000002,"ADDRESS":"小東路４７７巷３１號","OBJECTID":442217},"geometry":{"x":171611.43000000063,"y":2544451.6999999993}},{"attributes":{"ID":442243,"DIS_CODE":0,"TOWNNAME":"永康區","LI":"中華里","LIN":"5鄰","STREET":"小東路","SECT":" ","MAREA":" ","LANE":"６８５巷","ALLEY":" ","HOUSE_NO":"２５號","E_COORD97":172027.92000000001,"N_COORD97":2544452.1499999999,"ADDRESS":"小東路６８５巷２５號","OBJECTID":442218},"geometry":{"x":172027.92000000179,"y":2544452.1500000022}},{"attributes":{"ID":442244,"DIS_CODE":0,"TOWNNAME":"永康區","LI":"中華里","LIN":"5鄰","STREET":"小東路","SECT":" ","MAREA":" ","LANE":"６８５巷","ALLEY":" ","HOUSE_NO":"２３號","E_COORD97":172027.98999999999,"N_COORD97":2544447.9100000001,"ADDRESS":"小東路６８５巷２３號","OBJECTID":442219},"geometry":{"x":172027.99000000115,"y":2544447.9100000001}},{"attributes":{"ID":442245,"DIS_CODE":0,"TOWNNAME":"永康區","LI":"中華里","LIN":"5鄰","STREET":"忠勇街","SECT":" ","MAREA":" ","LANE":"３２巷","ALLEY":" ","HOUSE_NO":"２３號","E_COORD97":171992.64999999999,"N_COORD97":2544432.7799999998,"ADDRESS":"忠勇街３２巷２３號","OBJECTID":442220},"geometry":{"x":171992.65000000037,"y":2544432.7800000012}},{"attributes":{"ID":442246,"DIS_CODE":0,"TOWNNAME":"永康區","LI":"\u25A0洲里","LIN":"5鄰","STREET":"仁愛街","SECT":" ","MAREA":" ","LANE":"１０３巷","ALLEY":" ","HOUSE_NO":"５５號","E_COORD97":171840.42000000001,"N_COORD97":2549570.52,"ADDRESS":"仁愛街１０３巷５５號","OBJECTID":442221},"geometry":{"x":171840.42000000086,"y":2549570.5200000033}},{"attributes":{"ID":442247,"DIS_CODE":0,"TOWNNAME":"永康區","LI":"\u25A0洲里","LIN":"5鄰","STREET":"仁愛街","SECT":" ","MAREA":" ","LANE":"１０３巷","ALLEY":" ","HOUSE_NO":"５８號","E_COORD97":171927.13,"N_COORD97":2549542.5299999998,"ADDRESS":"仁愛街１０３巷５８號","OBJECTID":442222},"geometry":{"x":171927.13000000082,"y":2549542.5299999993}},{"attributes":{"ID":442248,"DIS_CODE":0,"TOWNNAME":"永康區","LI":"中華里","LIN":"5鄰","STREET":"小東路","SECT":" ","MAREA":" ","LANE":"６４７巷","ALLEY":" ","HOUSE_NO":"２８號","E_COORD97":171949.56,"N_COORD97":2544448.8100000001,"ADDRESS":"小東路６４７巷２８號","OBJECTID":442223},"geometry":{"x":171949.55999999959,"y":2544448.8100000005}},{"attributes":{"ID":442249,"DIS_CODE":0,"TOWNNAME":"永康區","LI":"中華里","LIN":"5鄰","STREET":"忠勇街","SECT":" ","MAREA":" ","LANE":"３２巷","ALLEY":" ","HOUSE_NO":"２７號","E_COORD97":172001.10999999999,"N_COORD97":2544433.2200000002,"ADDRESS":"忠勇街３２巷２７號","OBJECTID":442224},"geometry":{"x":172001.11000000034,"y":2544433.2200000007}},{"attributes":{"ID":442250,"DIS_CODE":0,"TOWNNAME":"永康區","LI":"中華里","LIN":"5鄰","STREET":"小東路","SECT":" ","MAREA":" ","LANE":"６４７巷","ALLEY":" ","HOUSE_NO":"２６號","E_COORD97":171949.56,"N_COORD97":2544443.1200000001,"ADDRESS":"小東路６４７巷２６號","OBJECTID":442225},"geometry":{"x":171949.55999999959,"y":2544443.1200000029}},{"attributes":{"ID":442251,"DIS_CODE":0,"TOWNNAME":"永康區","LI":"中華里","LIN":"5鄰","STREET":"小東路","SECT":" ","MAREA":" ","LANE":"６４７巷","ALLEY":" ","HOUSE_NO":"３４號","E_COORD97":171949.84,"N_COORD97":2544465.1600000001,"ADDRESS":"小東路６４７巷３４號","OBJECTID":442226},"geometry":{"x":171949.83999999985,"y":2544465.160000002}},{"attributes":{"ID":442252,"DIS_CODE":0,"TOWNNAME":"永康區","LI":"中華里","LIN":"5鄰","STREET":"小東路","SECT":" ","MAREA":" ","LANE":"６４７巷","ALLEY":" ","HOUSE_NO":"２４號","E_COORD97":171949.70999999999,"N_COORD97":2544437.2799999998,"ADDRESS":"小東路６４７巷２４號","OBJECTID":442227},"geometry":{"x":171949.71000000183,"y":2544437.2799999993}},{"attributes":{"ID":442253,"DIS_CODE":0,"TOWNNAME":"永康區","LI":"二王里","LIN":"5鄰","STREET":"永二街","SECT":" ","MAREA":" ","LANE":"３５８巷","ALLEY":" ","HOUSE_NO":"１１號","E_COORD97":172910.75,"N_COORD97":2546716.9500000002,"ADDRESS":"永二街３５８巷１１號","OBJECTID":442228},"geometry":{"x":172910.75000000186,"y":2546716.9500000011}},{"attributes":{"ID":442254,"DIS_CODE":0,"TOWNNAME":"永康區","LI":"三合里","LIN":"5鄰","STREET":"南工街","SECT":" ","MAREA":" ","LANE":"８２巷","ALLEY":" ","HOUSE_NO":"３號","E_COORD97":172122.48999999999,"N_COORD97":2545694,"ADDRESS":"南工街８２巷３號","OBJECTID":442229},"geometry":{"x":172122.49000000022,"y":2545694.0000000019}},{"attributes":{"ID":442255,"DIS_CODE":0,"TOWNNAME":"永康區","LI":"三合里","LIN":"5鄰","STREET":"南工街","SECT":" ","MAREA":" ","LANE":"５０巷","ALLEY":" ","HOUSE_NO":"１號","E_COORD97":172122.01999999999,"N_COORD97":2545623.6800000002,"ADDRESS":"南工街５０巷１號","OBJECTID":442230},"geometry":{"x":172122.02000000048,"y":2545623.6800000016}},{"attributes":{"ID":442256,"DIS_CODE":0,"TOWNNAME":"中西區","LI":"西湖里","LIN":"5鄰","STREET":"頂美一街","SECT":" ","MAREA":" ","LANE":"６０巷","ALLEY":" ","HOUSE_NO":"１５號","E_COORD97":166380.73000000001,"N_COORD97":2544625.3799999999,"ADDRESS":"頂美一街６０巷１５號","OBJECTID":442231},"geometry":{"x":166380.73000000045,"y":2544625.3800000008}},{"attributes":{"ID":442257,"DIS_CODE":0,"TOWNNAME":"中西區","LI":"西湖里","LIN":"5鄰","STREET":"頂美一街","SECT":" ","MAREA":" ","LANE":"６０巷","ALLEY":" ","HOUSE_NO":"１７號","E_COORD97":166386.57000000001,"N_COORD97":2544624.8999999999,"ADDRESS":"頂美一街６０巷１７號","OBJECTID":442232},"geometry":{"x":166386.57000000123,"y":2544624.9000000004}},{"attributes":{"ID":442258,"DIS_CODE":0,"TOWNNAME":"中西區","LI":"西湖里","LIN":"5鄰","STREET":"頂美一街","SECT":" ","MAREA":" ","LANE":"６０巷","ALLEY":" ","HOUSE_NO":"１９號","E_COORD97":166392.41,"N_COORD97":2544625.1400000001,"ADDRESS":"頂美一街６０巷１９號","OBJECTID":442233},"geometry":{"x":166392.41000000108,"y":2544625.1400000025}},{"attributes":{"ID":442259,"DIS_CODE":0,"TOWNNAME":"中西區","LI":"西湖里","LIN":"5鄰","STREET":"頂美一街","SECT":" ","MAREA":" ","LANE":"６０巷","ALLEY":" ","HOUSE_NO":"１號","E_COORD97":166327.44,"N_COORD97":2544623.9199999999,"ADDRESS":"頂美一街６０巷１號","OBJECTID":442234},"geometry":{"x":166327.44000000227,"y":2544623.9199999999}},{"attributes":{"ID":442260,"DIS_CODE":0,"TOWNNAME":"中西區","LI":"西湖里","LIN":"5鄰","STREET":"頂美一街","SECT":" ","MAREA":" ","LANE":"６０巷","ALLEY":" ","HOUSE_NO":"２１號","E_COORD97":166398.25,"N_COORD97":2544625.3799999999,"ADDRESS":"頂美一街６０巷２１號","OBJECTID":442235},"geometry":{"x":166398.25000000093,"y":2544625.3800000008}},{"attributes":{"ID":442261,"DIS_CODE":0,"TOWNNAME":"中西區","LI":"西湖里","LIN":"5鄰","STREET":"頂美一街","SECT":" ","MAREA":" ","LANE":"６０巷","ALLEY":" ","HOUSE_NO":"２３號","E_COORD97":166404.09,"N_COORD97":2544625.8700000001,"ADDRESS":"頂美一街６０巷２３號","OBJECTID":442236},"geometry":{"x":166404.09000000078,"y":2544625.870000001}},{"attributes":{"ID":442262,"DIS_CODE":0,"TOWNNAME":"中西區","LI":"西湖里","LIN":"5鄰","STREET":"頂美一街","SECT":" ","MAREA":" ","LANE":"６０巷","ALLEY":" ","HOUSE_NO":"３號","E_COORD97":166339.35999999999,"N_COORD97":2544624.6499999999,"ADDRESS":"頂美一街６０巷３號","OBJECTID":442237},"geometry":{"x":166339.36000000034,"y":2544624.6500000022}},{"attributes":{"ID":442263,"DIS_CODE":0,"TOWNNAME":"中西區","LI":"西湖里","LIN":"5鄰","STREET":"頂美一街","SECT":" ","MAREA":" ","LANE":"６０巷","ALLEY":" ","HOUSE_NO":"４號","E_COORD97":166342.76999999999,"N_COORD97":2544604.2400000002,"ADDRESS":"頂美一街６０巷４號","OBJECTID":442238},"geometry":{"x":166342.76999999862,"y":2544604.2400000021}},{"attributes":{"ID":442264,"DIS_CODE":0,"TOWNNAME":"中西區","LI":"西湖里","LIN":"5鄰","STREET":"頂美一街","SECT":" ","MAREA":" ","LANE":"６０巷","ALLEY":" ","HOUSE_NO":"５號","E_COORD97":166346.17999999999,"N_COORD97":2544623.6800000002,"ADDRESS":"頂美一街６０巷５號","OBJECTID":442239},"geometry":{"x":166346.18000000063,"y":2544623.6800000016}},{"attributes":{"ID":442265,"DIS_CODE":0,"TOWNNAME":"中西區","LI":"西湖里","LIN":"5鄰","STREET":"頂美一街","SECT":" ","MAREA":" ","LANE":"６０巷","ALLEY":" ","HOUSE_NO":"６號","E_COORD97":166351.76999999999,"N_COORD97":2544605.21,"ADDRESS":"頂美一街６０巷６號","OBJECTID":442240},"geometry":{"x":166351.77000000048,"y":2544605.2100000028}},{"attributes":{"ID":442266,"DIS_CODE":0,"TOWNNAME":"中西區","LI":"西湖里","LIN":"5鄰","STREET":"頂美一街","SECT":" ","MAREA":" ","LANE":"７０巷","ALLEY":" ","HOUSE_NO":"１２號","E_COORD97":166363.45000000001,"N_COORD97":2544636.7999999998,"ADDRESS":"頂美一街７０巷１２號","OBJECTID":442241},"geometry":{"x":166363.45000000112,"y":2544636.8000000045}},{"attributes":{"ID":442267,"DIS_CODE":0,"TOWNNAME":"中西區","LI":"西湖里","LIN":"5鄰","STREET":"頂美一街","SECT":" ","MAREA":" ","LANE":"７０巷","ALLEY":" ","HOUSE_NO":"１４號","E_COORD97":166369.54000000001,"N_COORD97":2544637.7799999998,"ADDRESS":"頂美一街７０巷１４號","OBJECTID":442242},"geometry":{"x":166369.54000000097,"y":2544637.7799999993}},{"attributes":{"ID":442268,"DIS_CODE":0,"TOWNNAME":"中西區","LI":"西湖里","LIN":"5鄰","STREET":"頂美一街","SECT":" ","MAREA":" ","LANE":"７０巷","ALLEY":" ","HOUSE_NO":"１６號","E_COORD97":166380.48999999999,"N_COORD97":2544638.75,"ADDRESS":"頂美一街７０巷１６號","OBJECTID":442243},"geometry":{"x":166380.49000000022,"y":2544638.75}},{"attributes":{"ID":442269,"DIS_CODE":0,"TOWNNAME":"中西區","LI":"西湖里","LIN":"5鄰","STREET":"頂美一街","SECT":" ","MAREA":" ","LANE":"７０巷","ALLEY":" ","HOUSE_NO":"１８號","E_COORD97":166387.29999999999,"N_COORD97":2544638.2599999998,"ADDRESS":"頂美一街７０巷１８號","OBJECTID":442244},"geometry":{"x":166387.30000000075,"y":2544638.2599999998}},{"attributes":{"ID":442270,"DIS_CODE":0,"TOWNNAME":"中西區","LI":"西湖里","LIN":"5鄰","STREET":"頂美一街","SECT":" ","MAREA":" ","LANE":"７０巷","ALLEY":" ","HOUSE_NO":"２０號","E_COORD97":166391.92000000001,"N_COORD97":2544638.2599999998,"ADDRESS":"頂美一街７０巷２０號","OBJECTID":442245},"geometry":{"x":166391.92000000086,"y":2544638.2599999998}},{"attributes":{"ID":442271,"DIS_CODE":0,"TOWNNAME":"中西區","LI":"西湖里","LIN":"5鄰","STREET":"頂美一街","SECT":" ","MAREA":" ","LANE":"７０巷","ALLEY":" ","HOUSE_NO":"２２號","E_COORD97":166398.01000000001,"N_COORD97":2544638.5,"ADDRESS":"頂美一街７０巷２２號","OBJECTID":442246},"geometry":{"x":166398.01000000071,"y":2544638.5000000019}},{"attributes":{"ID":442272,"DIS_CODE":0,"TOWNNAME":"中西區","LI":"西湖里","LIN":"5鄰","STREET":"頂美一街","SECT":" ","MAREA":" ","LANE":"７０巷","ALLEY":" ","HOUSE_NO":"２４號","E_COORD97":166403.60000000001,"N_COORD97":2544638.2599999998,"ADDRESS":"頂美一街７０巷２４號","OBJECTID":442247},"geometry":{"x":166403.60000000149,"y":2544638.2599999998}},{"attributes":{"ID":442273,"DIS_CODE":0,"TOWNNAME":"中西區","LI":"西湖里","LIN":"5鄰","STREET":"頂美一街","SECT":" ","MAREA":" ","LANE":"７０巷","ALLEY":" ","HOUSE_NO":"２號","E_COORD97":166328.89999999999,"N_COORD97":2544636.0699999998,"ADDRESS":"頂美一街７０巷２號","OBJECTID":442248},"geometry":{"x":166328.90000000037,"y":2544636.0700000003}},{"attributes":{"ID":442274,"DIS_CODE":0,"TOWNNAME":"中西區","LI":"西湖里","LIN":"5鄰","STREET":"頂美一街","SECT":" ","MAREA":" ","LANE":"７０巷","ALLEY":" ","HOUSE_NO":"４號","E_COORD97":166339.35999999999,"N_COORD97":2544636.3199999998,"ADDRESS":"頂美一街７０巷４號","OBJECTID":442249},"geometry":{"x":166339.36000000034,"y":2544636.320000004}},{"attributes":{"ID":442275,"DIS_CODE":0,"TOWNNAME":"中西區","LI":"西湖里","LIN":"5鄰","STREET":"頂美一街","SECT":" ","MAREA":" ","LANE":"７０巷","ALLEY":" ","HOUSE_NO":"６號","E_COORD97":166345.69,"N_COORD97":2544636.7999999998,"ADDRESS":"頂美一街７０巷６號","OBJECTID":442250},"geometry":{"x":166345.69000000041,"y":2544636.8000000045}},{"attributes":{"ID":442276,"DIS_CODE":0,"TOWNNAME":"中西區","LI":"西湖里","LIN":"5鄰","STREET":"頂美一街","SECT":" ","MAREA":" ","LANE":"４８巷","ALLEY":" ","HOUSE_NO":"１７號","E_COORD97":166394.10999999999,"N_COORD97":2544575.3199999998,"ADDRESS":"頂美一街４８巷１７號","OBJECTID":442251},"geometry":{"x":166394.11000000127,"y":2544575.3200000022}},{"attributes":{"ID":442277,"DIS_CODE":0,"TOWNNAME":"仁德區","LI":"土庫里","LIN":"5鄰","STREET":"土庫六街","SECT":" ","MAREA":" ","LANE":"７５巷","ALLEY":" ","HOUSE_NO":"６２號","E_COORD97":174116.73999999999,"N_COORD97":2543170.5,"ADDRESS":"土庫六街７５巷６２號","OBJECTID":442252},"geometry":{"x":174116.74000000115,"y":2543170.5000000019}},{"attributes":{"ID":442278,"DIS_CODE":0,"TOWNNAME":"仁德區","LI":"土庫里","LIN":"5鄰","STREET":"土庫六街","SECT":" ","MAREA":" ","LANE":"７５巷","ALLEY":" ","HOUSE_NO":"７３號","E_COORD97":174138.12,"N_COORD97":2543133.25,"ADDRESS":"土庫六街７５巷７３號","OBJECTID":442253},"geometry":{"x":174138.12000000104,"y":2543133.25}},{"attributes":{"ID":442279,"DIS_CODE":0,"TOWNNAME":"仁德區","LI":"土庫里","LIN":"5鄰","STREET":"土庫六街","SECT":" ","MAREA":" ","LANE":"７５巷","ALLEY":" ","HOUSE_NO":"８８號","E_COORD97":174117.31,"N_COORD97":2543155.5,"ADDRESS":"土庫六街７５巷８８號","OBJECTID":442254},"geometry":{"x":174117.31000000052,"y":2543155.5}},{"attributes":{"ID":442280,"DIS_CODE":0,"TOWNNAME":"仁德區","LI":"仁義里","LIN":"5鄰","STREET":"中山路","SECT":" ","MAREA":" ","LANE":"３７９巷","ALLEY":" ","HOUSE_NO":"３號","E_COORD97":173881.67999999999,"N_COORD97":2541220.2400000002,"ADDRESS":"中山路３７９巷３號","OBJECTID":442255},"geometry":{"x":173881.6799999997,"y":2541220.2400000021}},{"attributes":{"ID":442281,"DIS_CODE":0,"TOWNNAME":"仁德區","LI":"土庫里","LIN":"5鄰","STREET":"土庫六街","SECT":" ","MAREA":" ","LANE":"７５巷","ALLEY":" ","HOUSE_NO":"１０８號","E_COORD97":174122.37,"N_COORD97":2543128.0099999998,"ADDRESS":"土庫六街７５巷１０８號","OBJECTID":442256},"geometry":{"x":174122.37000000104,"y":2543128.0099999998}},{"attributes":{"ID":442282,"DIS_CODE":0,"TOWNNAME":"安南區","LI":"溪頂里","LIN":"5鄰","STREET":"府安路","SECT":"四段","MAREA":" ","LANE":"１３２巷","ALLEY":" ","HOUSE_NO":"１４號","E_COORD97":168933.29999999999,"N_COORD97":2547312.79,"ADDRESS":"府安路四段１３２巷１４號","OBJECTID":442257},"geometry":{"x":168933.30000000168,"y":2547312.7899999991}},{"attributes":{"ID":442283,"DIS_CODE":0,"TOWNNAME":"安南區","LI":"溪頂里","LIN":"5鄰","STREET":"府安路","SECT":"四段","MAREA":" ","LANE":"１３２巷","ALLEY":" ","HOUSE_NO":"１６號","E_COORD97":168931.62,"N_COORD97":2547317.21,"ADDRESS":"府安路四段１３２巷１６號","OBJECTID":442258},"geometry":{"x":168931.62000000104,"y":2547317.2100000028}},{"attributes":{"ID":442284,"DIS_CODE":0,"TOWNNAME":"安南區","LI":"溪頂里","LIN":"5鄰","STREET":"府安路","SECT":"四段","MAREA":" ","LANE":"１３２巷","ALLEY":" ","HOUSE_NO":"１８號","E_COORD97":168929.39000000001,"N_COORD97":2547321.1400000001,"ADDRESS":"府安路四段１３２巷１８號","OBJECTID":442259},"geometry":{"x":168929.3900000006,"y":2547321.1400000006}},{"attributes":{"ID":442285,"DIS_CODE":0,"TOWNNAME":"安南區","LI":"溪頂里","LIN":"5鄰","STREET":"府安路","SECT":"四段","MAREA":" ","LANE":"１３２巷","ALLEY":" ","HOUSE_NO":"２號","E_COORD97":168938.26999999999,"N_COORD97":2547287.2400000002,"ADDRESS":"府安路四段１３２巷２號","OBJECTID":442260},"geometry":{"x":168938.27000000142,"y":2547287.2400000002}},{"attributes":{"ID":442286,"DIS_CODE":0,"TOWNNAME":"安南區","LI":"溪頂里","LIN":"5鄰","STREET":"府安路","SECT":"四段","MAREA":" ","LANE":"１３２巷","ALLEY":" ","HOUSE_NO":"３號","E_COORD97":168911.76000000001,"N_COORD97":2547290.2799999998,"ADDRESS":"府安路四段１３２巷３號","OBJECTID":442261},"geometry":{"x":168911.76000000071,"y":2547290.2800000012}},{"attributes":{"ID":442287,"DIS_CODE":0,"TOWNNAME":"安南區","LI":"溪頂里","LIN":"5鄰","STREET":"府安路","SECT":"四段","MAREA":" ","LANE":"１３２巷","ALLEY":" ","HOUSE_NO":"４號","E_COORD97":168937.56,"N_COORD97":2547291.0299999998,"ADDRESS":"府安路四段１３２巷４號","OBJECTID":442262},"geometry":{"x":168937.55999999959,"y":2547291.0299999993}},{"attributes":{"ID":442288,"DIS_CODE":0,"TOWNNAME":"安南區","LI":"溪頂里","LIN":"5鄰","STREET":"府安路","SECT":"四段","MAREA":" ","LANE":"１３２巷","ALLEY":" ","HOUSE_NO":"６號","E_COORD97":168937.79000000001,"N_COORD97":2547295.6499999999,"ADDRESS":"府安路四段１３２巷６號","OBJECTID":442263},"geometry":{"x":168937.79000000004,"y":2547295.6500000022}},{"attributes":{"ID":442289,"DIS_CODE":0,"TOWNNAME":"安南區","LI":"溪頂里","LIN":"5鄰","STREET":"府安路","SECT":"四段","MAREA":" ","LANE":"１３２巷","ALLEY":" ","HOUSE_NO":"７號","E_COORD97":168910.42000000001,"N_COORD97":2547298.6699999999,"ADDRESS":"府安路四段１３２巷７號","OBJECTID":442264},"geometry":{"x":168910.41999999899,"y":2547298.6700000018}},{"attributes":{"ID":442290,"DIS_CODE":0,"TOWNNAME":"安南區","LI":"溪頂里","LIN":"5鄰","STREET":"府安路","SECT":"四段","MAREA":" ","LANE":"１３２巷","ALLEY":" ","HOUSE_NO":"８號","E_COORD97":168936.95999999999,"N_COORD97":2547299.5600000001,"ADDRESS":"府安路四段１３２巷８號","OBJECTID":442265},"geometry":{"x":168936.95999999996,"y":2547299.5600000042}},{"attributes":{"ID":442291,"DIS_CODE":0,"TOWNNAME":"安南區","LI":"溪頂里","LIN":"5鄰","STREET":"府安路","SECT":"四段","MAREA":" ","LANE":"１３２巷","ALLEY":" ","HOUSE_NO":"９號","E_COORD97":168909.23000000001,"N_COORD97":2547303.3599999999,"ADDRESS":"府安路四段１３２巷９號","OBJECTID":442266},"geometry":{"x":168909.23000000138,"y":2547303.3600000013}},{"attributes":{"ID":442292,"DIS_CODE":0,"TOWNNAME":"永康區","LI":"網寮里","LIN":"5鄰","STREET":"永勝街","SECT":" ","MAREA":" ","LANE":"１０６巷","ALLEY":" ","HOUSE_NO":"２５號地下一層之１","E_COORD97":173609.16,"N_COORD97":2546361.96,"ADDRESS":"永勝街１０６巷２５號地下一層之１","OBJECTID":442267},"geometry":{"x":173609.16000000015,"y":2546361.9600000028}},{"attributes":{"ID":442293,"DIS_CODE":0,"TOWNNAME":"永康區","LI":"網寮里","LIN":"5鄰","STREET":"永勝街","SECT":" ","MAREA":" ","LANE":"１０６巷","ALLEY":" ","HOUSE_NO":"２５號","E_COORD97":173602.01999999999,"N_COORD97":2546361.9199999999,"ADDRESS":"永勝街１０６巷２５號","OBJECTID":442268},"geometry":{"x":173602.02000000048,"y":2546361.9200000018}},{"attributes":{"ID":442294,"DIS_CODE":0,"TOWNNAME":"永康區","LI":"網寮里","LIN":"5鄰","STREET":"永二街","SECT":" ","MAREA":" ","LANE":"１４５巷","ALLEY":" ","HOUSE_NO":"１７號","E_COORD97":173573.38,"N_COORD97":2546411.23,"ADDRESS":"永二街１４５巷１７號","OBJECTID":442269},"geometry":{"x":173573.37999999989,"y":2546411.2300000023}},{"attributes":{"ID":442295,"DIS_CODE":0,"TOWNNAME":"永康區","LI":"復興里","LIN":"5鄰","STREET":"復興路","SECT":" ","MAREA":" ","LANE":"４２３巷","ALLEY":" ","HOUSE_NO":"２９號","E_COORD97":172150.42000000001,"N_COORD97":2544284.02,"ADDRESS":"復興路４２３巷２９號","OBJECTID":442270},"geometry":{"x":172150.42000000086,"y":2544284.0199999996}},{"attributes":{"ID":442296,"DIS_CODE":0,"TOWNNAME":"永康區","LI":"復國里","LIN":"5鄰","STREET":"復國一路","SECT":" ","MAREA":" ","LANE":"９０巷","ALLEY":" ","HOUSE_NO":"３號","E_COORD97":172738.70999999999,"N_COORD97":2544937.6600000001,"ADDRESS":"復國一路９０巷３號","OBJECTID":442271},"geometry":{"x":172738.71000000089,"y":2544937.6600000001}},{"attributes":{"ID":442297,"DIS_CODE":0,"TOWNNAME":"永康區","LI":"復興里","LIN":"5鄰","STREET":"復興路","SECT":" ","MAREA":" ","LANE":"４２３巷","ALLEY":" ","HOUSE_NO":"５號","E_COORD97":172119.17000000001,"N_COORD97":2544277.7799999998,"ADDRESS":"復興路４２３巷５號","OBJECTID":442272},"geometry":{"x":172119.16999999993,"y":2544277.7799999993}},{"attributes":{"ID":442298,"DIS_CODE":0,"TOWNNAME":"永康區","LI":"復興里","LIN":"5鄰","STREET":"復興路","SECT":" ","MAREA":" ","LANE":"４２３巷","ALLEY":" ","HOUSE_NO":"１９號","E_COORD97":172131.06,"N_COORD97":2544270.7799999998,"ADDRESS":"復興路４２３巷１９號","OBJECTID":442273},"geometry":{"x":172131.05999999959,"y":2544270.7800000012}},{"attributes":{"ID":442299,"DIS_CODE":0,"TOWNNAME":"善化區","LI":"坐駕里","LIN":"5鄰","STREET":"青年路","SECT":" ","MAREA":" ","LANE":"１０５巷","ALLEY":" ","HOUSE_NO":"２號","E_COORD97":177831.17000000001,"N_COORD97":2558823.5,"ADDRESS":"青年路１０５巷２號","OBJECTID":442274},"geometry":{"x":177831.17000000086,"y":2558823.5000000037}},{"attributes":{"ID":442300,"DIS_CODE":0,"TOWNNAME":"善化區","LI":"坐駕里","LIN":"5鄰","STREET":"青年路","SECT":" ","MAREA":" ","LANE":"１０５巷","ALLEY":" ","HOUSE_NO":"６號","E_COORD97":177826.20000000001,"N_COORD97":2558823,"ADDRESS":"青年路１０５巷６號","OBJECTID":442275},"geometry":{"x":177826.20000000112,"y":2558822.9999999981}},{"attributes":{"ID":442301,"DIS_CODE":0,"TOWNNAME":"安南區","LI":"幸福里","LIN":"5鄰","STREET":"國安街","SECT":" ","MAREA":" ","LANE":"１２５巷","ALLEY":" ","HOUSE_NO":"１７號","E_COORD97":166843.37,"N_COORD97":2546904.6099999999,"ADDRESS":"國安街１２５巷１７號","OBJECTID":442276},"geometry":{"x":166843.37000000104,"y":2546904.6100000031}},{"attributes":{"ID":442302,"DIS_CODE":0,"TOWNNAME":"安南區","LI":"幸福里","LIN":"5鄰","STREET":"國安街","SECT":" ","MAREA":" ","LANE":"１２５巷","ALLEY":" ","HOUSE_NO":"１８號","E_COORD97":166823.62,"N_COORD97":2546900.7999999998,"ADDRESS":"國安街１２５巷１８號","OBJECTID":442277},"geometry":{"x":166823.62000000011,"y":2546900.8000000007}},{"attributes":{"ID":442303,"DIS_CODE":0,"TOWNNAME":"安南區","LI":"幸福里","LIN":"5鄰","STREET":"國安街","SECT":" ","MAREA":" ","LANE":"１２５巷","ALLEY":" ","HOUSE_NO":"１９號","E_COORD97":166844.19,"N_COORD97":2546898.7400000002,"ADDRESS":"國安街１２５巷１９號","OBJECTID":442278},"geometry":{"x":166844.19000000041,"y":2546898.7400000021}},{"attributes":{"ID":442304,"DIS_CODE":0,"TOWNNAME":"安南區","LI":"幸福里","LIN":"5鄰","STREET":"國安街","SECT":" ","MAREA":" ","LANE":"１２５巷","ALLEY":" ","HOUSE_NO":"２０號","E_COORD97":166824.79000000001,"N_COORD97":2546894.46,"ADDRESS":"國安街１２５巷２０號","OBJECTID":442279},"geometry":{"x":166824.7900000019,"y":2546894.4600000028}},{"attributes":{"ID":442305,"DIS_CODE":0,"TOWNNAME":"安南區","LI":"幸福里","LIN":"5鄰","STREET":"國安街","SECT":" ","MAREA":" ","LANE":"１２５巷","ALLEY":" ","HOUSE_NO":"２１號","E_COORD97":166845.82999999999,"N_COORD97":2546891.8700000001,"ADDRESS":"國安街１２５巷２１號","OBJECTID":442280},"geometry":{"x":166845.83000000007,"y":2546891.8700000029}},{"attributes":{"ID":442306,"DIS_CODE":0,"TOWNNAME":"安南區","LI":"幸福里","LIN":"5鄰","STREET":"國安街","SECT":" ","MAREA":" ","LANE":"１２５巷","ALLEY":" ","HOUSE_NO":"２２號","E_COORD97":166826.35000000001,"N_COORD97":2546889,"ADDRESS":"國安街１２５巷２２號","OBJECTID":442281},"geometry":{"x":166826.35000000056,"y":2546889.0000000037}},{"attributes":{"ID":442307,"DIS_CODE":0,"TOWNNAME":"安南區","LI":"幸福里","LIN":"5鄰","STREET":"國安街","SECT":" ","MAREA":" ","LANE":"１２５巷","ALLEY":" ","HOUSE_NO":"２３號","E_COORD97":166846.79000000001,"N_COORD97":2546886.1400000001,"ADDRESS":"國安街１２５巷２３號","OBJECTID":442282},"geometry":{"x":166846.7900000019,"y":2546886.1400000025}},{"attributes":{"ID":442308,"DIS_CODE":0,"TOWNNAME":"安南區","LI":"幸福里","LIN":"5鄰","STREET":"國安街","SECT":" ","MAREA":" ","LANE":"１２５巷","ALLEY":" ","HOUSE_NO":"２４號","E_COORD97":166827.59,"N_COORD97":2546882.9500000002,"ADDRESS":"國安街１２５巷２４號","OBJECTID":442283},"geometry":{"x":166827.59000000171,"y":2546882.9500000011}},{"attributes":{"ID":442309,"DIS_CODE":0,"TOWNNAME":"安南區","LI":"幸福里","LIN":"5鄰","STREET":"國安街","SECT":" ","MAREA":" ","LANE":"１２５巷","ALLEY":" ","HOUSE_NO":"２５號","E_COORD97":166848.42999999999,"N_COORD97":2546881.6699999999,"ADDRESS":"國安街１２５巷２５號","OBJECTID":442284},"geometry":{"x":166848.4299999997,"y":2546881.6700000018}},{"attributes":{"ID":442310,"DIS_CODE":0,"TOWNNAME":"安南區","LI":"幸福里","LIN":"5鄰","STREET":"國安街","SECT":" ","MAREA":" ","LANE":"１２５巷","ALLEY":" ","HOUSE_NO":"２６號","E_COORD97":166828.45000000001,"N_COORD97":2546877.4900000002,"ADDRESS":"國安街１２５巷２６號","OBJECTID":442285},"geometry":{"x":166828.45000000019,"y":2546877.4900000021}},{"attributes":{"ID":442311,"DIS_CODE":0,"TOWNNAME":"安南區","LI":"幸福里","LIN":"5鄰","STREET":"國安街","SECT":" ","MAREA":" ","LANE":"１２５巷","ALLEY":" ","HOUSE_NO":"２７號","E_COORD97":166849.32000000001,"N_COORD97":2546874.98,"ADDRESS":"國安街１２５巷２７號","OBJECTID":442286},"geometry":{"x":166849.32000000123,"y":2546874.9800000004}},{"attributes":{"ID":442312,"DIS_CODE":0,"TOWNNAME":"安南區","LI":"幸福里","LIN":"5鄰","STREET":"國安街","SECT":" ","MAREA":" ","LANE":"１２５巷","ALLEY":" ","HOUSE_NO":"２８號","E_COORD97":166829.20000000001,"N_COORD97":2546871.5,"ADDRESS":"國安街１２５巷２８號","OBJECTID":442287},"geometry":{"x":166829.20000000112,"y":2546871.5}},{"attributes":{"ID":442313,"DIS_CODE":0,"TOWNNAME":"安南區","LI":"幸福里","LIN":"5鄰","STREET":"國安街","SECT":" ","MAREA":" ","LANE":"１２５巷","ALLEY":" ","HOUSE_NO":"２９號","E_COORD97":166851.03,"N_COORD97":2546868.8399999999,"ADDRESS":"國安街１２５巷２９號","OBJECTID":442288},"geometry":{"x":166851.03000000119,"y":2546868.8399999999}},{"attributes":{"ID":442314,"DIS_CODE":0,"TOWNNAME":"安南區","LI":"幸福里","LIN":"5鄰","STREET":"國安街","SECT":" ","MAREA":" ","LANE":"１２５巷","ALLEY":" ","HOUSE_NO":"２號","E_COORD97":166815.01000000001,"N_COORD97":2546949.1800000002,"ADDRESS":"國安街１２５巷２號","OBJECTID":442289},"geometry":{"x":166815.01000000071,"y":2546949.1800000016}},{"attributes":{"ID":442315,"DIS_CODE":0,"TOWNNAME":"安南區","LI":"幸福里","LIN":"5鄰","STREET":"國安街","SECT":" ","MAREA":" ","LANE":"１２５巷","ALLEY":" ","HOUSE_NO":"３０號","E_COORD97":166831.23999999999,"N_COORD97":2546864.75,"ADDRESS":"國安街１２５巷３０號","OBJECTID":442290},"geometry":{"x":166831.24000000022,"y":2546864.7500000019}},{"attributes":{"ID":442316,"DIS_CODE":0,"TOWNNAME":"安南區","LI":"幸福里","LIN":"5鄰","STREET":"國安街","SECT":" ","MAREA":" ","LANE":"１２５巷","ALLEY":" ","HOUSE_NO":"３號","E_COORD97":166835.5,"N_COORD97":2546946.4399999999,"ADDRESS":"國安街１２５巷３號","OBJECTID":442291},"geometry":{"x":166835.50000000093,"y":2546946.4399999976}},{"attributes":{"ID":442317,"DIS_CODE":0,"TOWNNAME":"安南區","LI":"幸福里","LIN":"5鄰","STREET":"國安街","SECT":" ","MAREA":" ","LANE":"１２５巷","ALLEY":" ","HOUSE_NO":"４號","E_COORD97":166816.19,"N_COORD97":2546943.0299999998,"ADDRESS":"國安街１２５巷４號","OBJECTID":442292},"geometry":{"x":166816.19000000134,"y":2546943.0300000012}},{"attributes":{"ID":442318,"DIS_CODE":0,"TOWNNAME":"安南區","LI":"幸福里","LIN":"5鄰","STREET":"國安街","SECT":" ","MAREA":" ","LANE":"１２５巷","ALLEY":" ","HOUSE_NO":"７號","E_COORD97":166838.01999999999,"N_COORD97":2546935,"ADDRESS":"國安街１２５巷７號","OBJECTID":442293},"geometry":{"x":166838.02000000142,"y":2546935}},{"attributes":{"ID":442319,"DIS_CODE":0,"TOWNNAME":"安南區","LI":"幸福里","LIN":"5鄰","STREET":"國安街","SECT":" ","MAREA":" ","LANE":"１２５巷","ALLEY":" ","HOUSE_NO":"８號","E_COORD97":166817.85000000001,"N_COORD97":2546931.2799999998,"ADDRESS":"國安街１２５巷８號","OBJECTID":442294},"geometry":{"x":166817.85000000056,"y":2546931.2800000012}},{"attributes":{"ID":442320,"DIS_CODE":0,"TOWNNAME":"安南區","LI":"幸福里","LIN":"5鄰","STREET":"國安街","SECT":" ","MAREA":" ","LANE":"１２５巷","ALLEY":" ","HOUSE_NO":"９號","E_COORD97":166838.78,"N_COORD97":2546929.4300000002,"ADDRESS":"國安街１２５巷９號","OBJECTID":442295},"geometry":{"x":166838.78000000119,"y":2546929.4299999997}},{"attributes":{"ID":442321,"DIS_CODE":0,"TOWNNAME":"安南區","LI":"幸福里","LIN":"5鄰","STREET":"國安街","SECT":" ","MAREA":" ","LANE":"１３９巷","ALLEY":" ","HOUSE_NO":"１１號","E_COORD97":166805.85999999999,"N_COORD97":2546917.1699999999,"ADDRESS":"國安街１３９巷１１號","OBJECTID":442296},"geometry":{"x":166805.8600000022,"y":2546917.1699999999}},{"attributes":{"ID":442322,"DIS_CODE":0,"TOWNNAME":"安南區","LI":"幸福里","LIN":"5鄰","STREET":"國安街","SECT":" ","MAREA":" ","LANE":"１３９巷","ALLEY":" ","HOUSE_NO":"１３號","E_COORD97":166806.92000000001,"N_COORD97":2546910.2599999998,"ADDRESS":"國安街１３９巷１３號","OBJECTID":442297},"geometry":{"x":166806.92000000086,"y":2546910.2599999998}},{"attributes":{"ID":442323,"DIS_CODE":0,"TOWNNAME":"安南區","LI":"幸福里","LIN":"5鄰","STREET":"國安街","SECT":" ","MAREA":" ","LANE":"１３９巷","ALLEY":" ","HOUSE_NO":"１５號","E_COORD97":166808.26999999999,"N_COORD97":2546904.25,"ADDRESS":"國安街１３９巷１５號","OBJECTID":442298},"geometry":{"x":166808.26999999955,"y":2546904.2500000037}},{"attributes":{"ID":442324,"DIS_CODE":0,"TOWNNAME":"安南區","LI":"幸福里","LIN":"5鄰","STREET":"國安街","SECT":" ","MAREA":" ","LANE":"１３９巷","ALLEY":" ","HOUSE_NO":"１７號","E_COORD97":166809.60999999999,"N_COORD97":2546898.5,"ADDRESS":"國安街１３９巷１７號","OBJECTID":442299},"geometry":{"x":166809.61000000127,"y":2546898.5}},{"attributes":{"ID":442325,"DIS_CODE":0,"TOWNNAME":"安南區","LI":"幸福里","LIN":"5鄰","STREET":"國安街","SECT":" ","MAREA":" ","LANE":"１３９巷","ALLEY":" ","HOUSE_NO":"１９號","E_COORD97":166809.89999999999,"N_COORD97":2546891.7799999998,"ADDRESS":"國安街１３９巷１９號","OBJECTID":442300},"geometry":{"x":166809.9000000013,"y":2546891.7799999993}},{"attributes":{"ID":442326,"DIS_CODE":0,"TOWNNAME":"安南區","LI":"幸福里","LIN":"5鄰","STREET":"國安街","SECT":" ","MAREA":" ","LANE":"１３９巷","ALLEY":" ","HOUSE_NO":"１號","E_COORD97":166800.57000000001,"N_COORD97":2546946.3999999999,"ADDRESS":"國安街１３９巷１號","OBJECTID":442301},"geometry":{"x":166800.5700000003,"y":2546946.4000000004}},{"attributes":{"ID":442327,"DIS_CODE":0,"TOWNNAME":"安南區","LI":"幸福里","LIN":"5鄰","STREET":"國安街","SECT":" ","MAREA":" ","LANE":"１３９巷","ALLEY":" ","HOUSE_NO":"２１號","E_COORD97":166811.14000000001,"N_COORD97":2546886.75,"ADDRESS":"國安街１３９巷２１號","OBJECTID":442302},"geometry":{"x":166811.13999999966,"y":2546886.75}},{"attributes":{"ID":442328,"DIS_CODE":0,"TOWNNAME":"安南區","LI":"幸福里","LIN":"5鄰","STREET":"國安街","SECT":" ","MAREA":" ","LANE":"１３９巷","ALLEY":" ","HOUSE_NO":"２３號","E_COORD97":166811.88,"N_COORD97":2546881.1699999999,"ADDRESS":"國安街１３９巷２３號","OBJECTID":442303},"geometry":{"x":166811.87999999989,"y":2546881.1700000037}},{"attributes":{"ID":442329,"DIS_CODE":0,"TOWNNAME":"安南區","LI":"幸福里","LIN":"5鄰","STREET":"國安街","SECT":" ","MAREA":" ","LANE":"１３９巷","ALLEY":" ","HOUSE_NO":"２５號","E_COORD97":166813.98999999999,"N_COORD97":2546874.2200000002,"ADDRESS":"國安街１３９巷２５號","OBJECTID":442304},"geometry":{"x":166813.99000000115,"y":2546874.2200000007}},{"attributes":{"ID":442330,"DIS_CODE":0,"TOWNNAME":"安南區","LI":"幸福里","LIN":"5鄰","STREET":"國安街","SECT":" ","MAREA":" ","LANE":"１３９巷","ALLEY":" ","HOUSE_NO":"２７號","E_COORD97":166815.04999999999,"N_COORD97":2546868.5899999999,"ADDRESS":"國安街１３９巷２７號","OBJECTID":442305},"geometry":{"x":166815.05000000075,"y":2546868.5900000017}},{"attributes":{"ID":442331,"DIS_CODE":0,"TOWNNAME":"安南區","LI":"幸福里","LIN":"5鄰","STREET":"國安街","SECT":" ","MAREA":" ","LANE":"１３９巷","ALLEY":" ","HOUSE_NO":"２９號","E_COORD97":166816.32000000001,"N_COORD97":2546862.79,"ADDRESS":"國安街１３９巷２９號","OBJECTID":442306},"geometry":{"x":166816.32000000216,"y":2546862.790000001}},{"attributes":{"ID":442332,"DIS_CODE":0,"TOWNNAME":"安南區","LI":"幸福里","LIN":"5鄰","STREET":"國安街","SECT":" ","MAREA":" ","LANE":"１３９巷","ALLEY":" ","HOUSE_NO":"３號","E_COORD97":166801.42999999999,"N_COORD97":2546940.3500000001,"ADDRESS":"國安街１３９巷３號","OBJECTID":442307},"geometry":{"x":166801.43000000156,"y":2546940.3499999978}},{"attributes":{"ID":442333,"DIS_CODE":0,"TOWNNAME":"安南區","LI":"幸福里","LIN":"5鄰","STREET":"國安街","SECT":" ","MAREA":" ","LANE":"１３９巷","ALLEY":" ","HOUSE_NO":"５號","E_COORD97":166802.01000000001,"N_COORD97":2546934.3100000001,"ADDRESS":"國安街１３９巷５號","OBJECTID":442308},"geometry":{"x":166802.00999999978,"y":2546934.3100000005}},{"attributes":{"ID":442334,"DIS_CODE":0,"TOWNNAME":"安南區","LI":"幸福里","LIN":"5鄰","STREET":"國安街","SECT":" ","MAREA":" ","LANE":"１３９巷","ALLEY":" ","HOUSE_NO":"７號","E_COORD97":166803.35000000001,"N_COORD97":2546927.8799999999,"ADDRESS":"國安街１３９巷７號","OBJECTID":442309},"geometry":{"x":166803.34999999963,"y":2546927.879999999}},{"attributes":{"ID":442335,"DIS_CODE":0,"TOWNNAME":"永康區","LI":"埔園里","LIN":"5鄰","STREET":"中山路","SECT":" ","MAREA":" ","LANE":"１５８巷","ALLEY":" ","HOUSE_NO":"３８號之１","E_COORD97":173901.14000000001,"N_COORD97":2547841.54,"ADDRESS":"中山路１５８巷３８號之１","OBJECTID":442310},"geometry":{"x":173901.14000000153,"y":2547841.540000001}},{"attributes":{"ID":442336,"DIS_CODE":0,"TOWNNAME":"永康區","LI":"二王里","LIN":"5鄰","STREET":"永二街","SECT":" ","MAREA":" ","LANE":"３５８巷","ALLEY":" ","HOUSE_NO":"４號","E_COORD97":172934.51999999999,"N_COORD97":2546661.2400000002,"ADDRESS":"永二街３５８巷４號","OBJECTID":442311},"geometry":{"x":172934.52000000048,"y":2546661.2400000021}},{"attributes":{"ID":442337,"DIS_CODE":0,"TOWNNAME":"永康區","LI":"二王里","LIN":"5鄰","STREET":"二王路","SECT":" ","MAREA":" ","LANE":"８６巷","ALLEY":" ","HOUSE_NO":"１０號","E_COORD97":172982.29999999999,"N_COORD97":2546645.5600000001,"ADDRESS":"二王路８６巷１０號","OBJECTID":442312},"geometry":{"x":172982.29999999981,"y":2546645.5600000024}},{"attributes":{"ID":442338,"DIS_CODE":0,"TOWNNAME":"永康區","LI":"二王里","LIN":"5鄰","STREET":"永二街","SECT":" ","MAREA":" ","LANE":"３５８巷","ALLEY":" ","HOUSE_NO":"１號","E_COORD97":172920.64999999999,"N_COORD97":2546667.48,"ADDRESS":"永二街３５８巷１號","OBJECTID":442313},"geometry":{"x":172920.6500000013,"y":2546667.4800000023}},{"attributes":{"ID":442339,"DIS_CODE":0,"TOWNNAME":"永康區","LI":"二王里","LIN":"5鄰","STREET":"二王路","SECT":" ","MAREA":" ","LANE":"８６巷","ALLEY":" ","HOUSE_NO":"１２號","E_COORD97":172980.37,"N_COORD97":2546644.6099999999,"ADDRESS":"二王路８６巷１２號","OBJECTID":442314},"geometry":{"x":172980.37000000011,"y":2546644.6100000013}},{"attributes":{"ID":442340,"DIS_CODE":0,"TOWNNAME":"永康區","LI":"三合里","LIN":"5鄰","STREET":"南工街","SECT":" ","MAREA":" ","LANE":"６６巷","ALLEY":" ","HOUSE_NO":"９號","E_COORD97":172135.98999999999,"N_COORD97":2545660.0600000001,"ADDRESS":"南工街６６巷９號","OBJECTID":442315},"geometry":{"x":172135.99000000022,"y":2545660.0600000024}},{"attributes":{"ID":442341,"DIS_CODE":0,"TOWNNAME":"永康區","LI":"東橋里","LIN":"5鄰","STREET":"中山南路","SECT":" ","MAREA":" ","LANE":"１９５巷","ALLEY":" ","HOUSE_NO":"４３號","E_COORD97":171424.79000000001,"N_COORD97":2546461.73,"ADDRESS":"中山南路１９５巷４３號","OBJECTID":442316},"geometry":{"x":171424.79000000004,"y":2546461.7300000023}},{"attributes":{"ID":442342,"DIS_CODE":0,"TOWNNAME":"永康區","LI":"西灣里","LIN":"5鄰","STREET":"大灣五街","SECT":" ","MAREA":" ","LANE":"９３巷","ALLEY":" ","HOUSE_NO":"１號","E_COORD97":174607.04999999999,"N_COORD97":2545288.25,"ADDRESS":"大灣五街９３巷１號","OBJECTID":442317},"geometry":{"x":174607.05000000168,"y":2545288.2500000019}},{"attributes":{"ID":442343,"DIS_CODE":0,"TOWNNAME":"永康區","LI":"三合里","LIN":"5鄰","STREET":"南工街","SECT":" ","MAREA":" ","LANE":"９８巷","ALLEY":" ","HOUSE_NO":"４號","E_COORD97":172121.98999999999,"N_COORD97":2545715,"ADDRESS":"南工街９８巷４號","OBJECTID":442318},"geometry":{"x":172121.99000000022,"y":2545715}},{"attributes":{"ID":442344,"DIS_CODE":0,"TOWNNAME":"永康區","LI":"三民里","LIN":"5鄰","STREET":"三民街","SECT":" ","MAREA":" ","LANE":"９０巷","ALLEY":" ","HOUSE_NO":"３９號","E_COORD97":173002.85000000001,"N_COORD97":2550365.0600000001,"ADDRESS":"三民街９０巷３９號","OBJECTID":442319},"geometry":{"x":173002.85000000149,"y":2550365.0600000024}},{"attributes":{"ID":442345,"DIS_CODE":0,"TOWNNAME":"永康區","LI":"二王里","LIN":"5鄰","STREET":"二王路","SECT":" ","MAREA":" ","LANE":"４０巷","ALLEY":" ","HOUSE_NO":"１３號","E_COORD97":172944.57999999999,"N_COORD97":2546748.3599999999,"ADDRESS":"二王路４０巷１３號","OBJECTID":442320},"geometry":{"x":172944.58000000101,"y":2546748.3600000013}},{"attributes":{"ID":442346,"DIS_CODE":0,"TOWNNAME":"永康區","LI":"二王里","LIN":"5鄰","STREET":"永二街","SECT":" ","MAREA":" ","LANE":"３５８巷","ALLEY":" ","HOUSE_NO":"３號","E_COORD97":172908.23000000001,"N_COORD97":2546678.27,"ADDRESS":"永二街３５８巷３號","OBJECTID":442321},"geometry":{"x":172908.23000000138,"y":2546678.2700000014}},{"attributes":{"ID":442347,"DIS_CODE":0,"TOWNNAME":"安南區","LI":"海佃里","LIN":"5鄰","STREET":"國安街","SECT":" ","MAREA":" ","LANE":"１５６巷","ALLEY":" ","HOUSE_NO":"６４號","E_COORD97":166721.06,"N_COORD97":2547152.5600000001,"ADDRESS":"國安街１５６巷６４號","OBJECTID":442322},"geometry":{"x":166721.06000000052,"y":2547152.5600000005}},{"attributes":{"ID":442348,"DIS_CODE":0,"TOWNNAME":"安南區","LI":"幸福里","LIN":"5鄰","STREET":"國安街","SECT":" ","MAREA":" ","LANE":"１２５巷","ALLEY":" ","HOUSE_NO":"６號","E_COORD97":166817.54999999999,"N_COORD97":2546937.48,"ADDRESS":"國安街１２５巷６號","OBJECTID":442323},"geometry":{"x":166817.54999999888,"y":2546937.4800000023}},{"attributes":{"ID":442349,"DIS_CODE":0,"TOWNNAME":"安南區","LI":"幸福里","LIN":"5鄰","STREET":"國安街","SECT":" ","MAREA":" ","LANE":"１２５巷","ALLEY":" ","HOUSE_NO":"１６號","E_COORD97":166822.73999999999,"N_COORD97":2546906.8399999999,"ADDRESS":"國安街１２５巷１６號","OBJECTID":442324},"geometry":{"x":166822.74000000022,"y":2546906.839999998}},{"attributes":{"ID":442350,"DIS_CODE":0,"TOWNNAME":"安南區","LI":"幸福里","LIN":"5鄰","STREET":"國安街","SECT":" ","MAREA":" ","LANE":"１２５巷","ALLEY":" ","HOUSE_NO":"５號","E_COORD97":166837.14000000001,"N_COORD97":2546940.6800000002,"ADDRESS":"國安街１２５巷５號","OBJECTID":442325},"geometry":{"x":166837.14000000153,"y":2546940.6799999997}},{"attributes":{"ID":442351,"DIS_CODE":0,"TOWNNAME":"安南區","LI":"海佃里","LIN":"5鄰","STREET":"國安街","SECT":" ","MAREA":" ","LANE":"１５６巷","ALLEY":" ","HOUSE_NO":"６８號","E_COORD97":166719.06,"N_COORD97":2547163.1899999999,"ADDRESS":"國安街１５６巷６８號","OBJECTID":442326},"geometry":{"x":166719.06000000145,"y":2547163.1900000013}},{"attributes":{"ID":442352,"DIS_CODE":0,"TOWNNAME":"安南區","LI":"佃西里","LIN":"5鄰","STREET":"公學路","SECT":"四段","MAREA":" ","LANE":"１２６巷","ALLEY":" ","HOUSE_NO":"１３０號","E_COORD97":165244.150069,"N_COORD97":2551902.0920799999,"ADDRESS":"公學路四段１２６巷１３０號","OBJECTID":442327},"geometry":{"x":165244.15006900113,"y":2551902.0920830034}},{"attributes":{"ID":442353,"DIS_CODE":0,"TOWNNAME":"安南區","LI":"佃西里","LIN":"5鄰","STREET":"公學路","SECT":"四段","MAREA":" ","LANE":"１２６巷","ALLEY":" ","HOUSE_NO":"１３０號之１","E_COORD97":165239.912721,"N_COORD97":2551894.6837499999,"ADDRESS":"公學路四段１２６巷１３０號之１","OBJECTID":442328},"geometry":{"x":165239.91272100154,"y":2551894.6837540008}},{"attributes":{"ID":442354,"DIS_CODE":0,"TOWNNAME":"安南區","LI":"佃西里","LIN":"5鄰","STREET":"公學路","SECT":"四段","MAREA":" ","LANE":"１２６巷","ALLEY":" ","HOUSE_NO":"１３０號之２","E_COORD97":165237.158444,"N_COORD97":2551890.02709,"ADDRESS":"公學路四段１２６巷１３０號之２","OBJECTID":442329},"geometry":{"x":165237.15844400227,"y":2551890.02709}},{"attributes":{"ID":442355,"DIS_CODE":0,"TOWNNAME":"安南區","LI":"佃西里","LIN":"5鄰","STREET":"公學路","SECT":"四段","MAREA":" ","LANE":"１２６巷","ALLEY":" ","HOUSE_NO":"１３０號之３","E_COORD97":165235.25163700001,"N_COORD97":2551884.3120900001,"ADDRESS":"公學路四段１２６巷１３０號之３","OBJECTID":442330},"geometry":{"x":165235.25163700059,"y":2551884.3120930009}},{"attributes":{"ID":442356,"DIS_CODE":0,"TOWNNAME":"安南區","LI":"佃西里","LIN":"5鄰","STREET":"公學路","SECT":"四段","MAREA":" ","LANE":"１２６巷","ALLEY":" ","HOUSE_NO":"１３０號之４","E_COORD97":165232.70922799999,"N_COORD97":2551879.02043,"ADDRESS":"公學路四段１２６巷１３０號之４","OBJECTID":442331},"geometry":{"x":165232.70922799967,"y":2551879.0204290003}},{"attributes":{"ID":442357,"DIS_CODE":0,"TOWNNAME":"安南區","LI":"佃西里","LIN":"5鄰","STREET":"公學路","SECT":"四段","MAREA":" ","LANE":"１２６巷","ALLEY":" ","HOUSE_NO":"１３０號之５","E_COORD97":165231.01428900001,"N_COORD97":2551875.21043,"ADDRESS":"公學路四段１２６巷１３０號之５","OBJECTID":442332},"geometry":{"x":165231.014289001,"y":2551875.2104310002}},{"attributes":{"ID":442358,"DIS_CODE":0,"TOWNNAME":"安南區","LI":"佃西里","LIN":"5鄰","STREET":"公學路","SECT":"四段","MAREA":" ","LANE":"１２６巷","ALLEY":" ","HOUSE_NO":"１３０號之６","E_COORD97":165228.47188,"N_COORD97":2551871.6121,"ADDRESS":"公學路四段１２６巷１３０號之６","OBJECTID":442333},"geometry":{"x":165228.47188000195,"y":2551871.6121000033}},{"attributes":{"ID":442359,"DIS_CODE":0,"TOWNNAME":"安南區","LI":"佃西里","LIN":"5鄰","STREET":"公學路","SECT":"四段","MAREA":" ","LANE":"１２６巷","ALLEY":" ","HOUSE_NO":"１３０號之７","E_COORD97":165227.41254300001,"N_COORD97":2551867.5904399999,"ADDRESS":"公學路四段１２６巷１３０號之７","OBJECTID":442334},"geometry":{"x":165227.41254300065,"y":2551867.590435002}},{"attributes":{"ID":442360,"DIS_CODE":0,"TOWNNAME":"中西區","LI":"建國里","LIN":"5鄰","STREET":"中正路","SECT":" ","MAREA":" ","LANE":"１３８巷","ALLEY":" ","HOUSE_NO":"９號","E_COORD97":167927.92999999999,"N_COORD97":2543750.9500000002,"ADDRESS":"中正路１３８巷９號","OBJECTID":442335},"geometry":{"x":167927.9299999997,"y":2543750.9499999993}},{"attributes":{"ID":442361,"DIS_CODE":0,"TOWNNAME":"中西區","LI":"建國里","LIN":"5鄰","STREET":"西門路","SECT":"二段","MAREA":" ","LANE":"１１６巷","ALLEY":" ","HOUSE_NO":"５號","E_COORD97":167907.14000000001,"N_COORD97":2543745.6899999999,"ADDRESS":"西門路二段１１６巷５號","OBJECTID":442336},"geometry":{"x":167907.1400000006,"y":2543745.6900000013}},{"attributes":{"ID":442362,"DIS_CODE":0,"TOWNNAME":"中西區","LI":"建國里","LIN":"5鄰","STREET":"西門路","SECT":"二段","MAREA":" ","LANE":"１３６巷","ALLEY":" ","HOUSE_NO":"２２號","E_COORD97":167942.63,"N_COORD97":2543780.9100000001,"ADDRESS":"西門路二段１３６巷２２號","OBJECTID":442337},"geometry":{"x":167942.62999999989,"y":2543780.9100000039}},{"attributes":{"ID":442363,"DIS_CODE":0,"TOWNNAME":"中西區","LI":"建國里","LIN":"5鄰","STREET":"西門路","SECT":"二段","MAREA":" ","LANE":"１３６巷","ALLEY":" ","HOUSE_NO":"２４號","E_COORD97":167947.34,"N_COORD97":2543778.3700000001,"ADDRESS":"西門路二段１３６巷２４號","OBJECTID":442338},"geometry":{"x":167947.33999999985,"y":2543778.370000001}},{"attributes":{"ID":442364,"DIS_CODE":0,"TOWNNAME":"中西區","LI":"郡王里","LIN":"5鄰","STREET":"大埔街","SECT":" ","MAREA":" ","LANE":"５５巷","ALLEY":" ","HOUSE_NO":"１０號","E_COORD97":168846.23000000001,"N_COORD97":2543035.9700000002,"ADDRESS":"大埔街５５巷１０號","OBJECTID":442339},"geometry":{"x":168846.23000000231,"y":2543035.9700000025}},{"attributes":{"ID":442365,"DIS_CODE":0,"TOWNNAME":"中西區","LI":"郡王里","LIN":"5鄰","STREET":"大埔街","SECT":" ","MAREA":" ","LANE":"５５巷","ALLEY":" ","HOUSE_NO":"１２號","E_COORD97":168845.51000000001,"N_COORD97":2543032.7999999998,"ADDRESS":"大埔街５５巷１２號","OBJECTID":442340},"geometry":{"x":168845.51000000071,"y":2543032.7999999989}},{"attributes":{"ID":442366,"DIS_CODE":0,"TOWNNAME":"中西區","LI":"郡王里","LIN":"5鄰","STREET":"大埔街","SECT":" ","MAREA":" ","LANE":"５５巷","ALLEY":" ","HOUSE_NO":"１４號","E_COORD97":168845.57999999999,"N_COORD97":2543028.6800000002,"ADDRESS":"大埔街５５巷１４號","OBJECTID":442341},"geometry":{"x":168845.58000000101,"y":2543028.6799999997}},{"attributes":{"ID":442367,"DIS_CODE":0,"TOWNNAME":"中西區","LI":"永華里","LIN":"5鄰","STREET":"府前路","SECT":"一段","MAREA":" ","LANE":"１９６巷","ALLEY":" ","HOUSE_NO":"１２號","E_COORD97":168536.85000000001,"N_COORD97":2543340.9900000002,"ADDRESS":"府前路一段１９６巷１２號","OBJECTID":442342},"geometry":{"x":168536.85000000056,"y":2543340.9900000021}},{"attributes":{"ID":442368,"DIS_CODE":0,"TOWNNAME":"中西區","LI":"青年里","LIN":"5鄰","STREET":"青年路","SECT":" ","MAREA":" ","LANE":"１３７巷","ALLEY":" ","HOUSE_NO":"１０號","E_COORD97":168950.67999999999,"N_COORD97":2543666.6000000001,"ADDRESS":"青年路１３７巷１０號","OBJECTID":442343},"geometry":{"x":168950.6799999997,"y":2543666.5999999996}},{"attributes":{"ID":442369,"DIS_CODE":0,"TOWNNAME":"中西區","LI":"青年里","LIN":"5鄰","STREET":"青年路","SECT":" ","MAREA":" ","LANE":"１３７巷","ALLEY":" ","HOUSE_NO":"１２號","E_COORD97":168952.25,"N_COORD97":2543668.7999999998,"ADDRESS":"青年路１３７巷１２號","OBJECTID":442344},"geometry":{"x":168952.25,"y":2543668.8000000007}},{"attributes":{"ID":442370,"DIS_CODE":0,"TOWNNAME":"中西區","LI":"青年里","LIN":"5鄰","STREET":"青年路","SECT":" ","MAREA":" ","LANE":"１３７巷","ALLEY":" ","HOUSE_NO":"１４號","E_COORD97":168947.04000000001,"N_COORD97":2543690.6099999999,"ADDRESS":"青年路１３７巷１４號","OBJECTID":442345},"geometry":{"x":168947.0400000019,"y":2543690.6100000031}},{"attributes":{"ID":442371,"DIS_CODE":0,"TOWNNAME":"中西區","LI":"青年里","LIN":"5鄰","STREET":"青年路","SECT":" ","MAREA":" ","LANE":"１３７巷","ALLEY":" ","HOUSE_NO":"１６號","E_COORD97":168938.73000000001,"N_COORD97":2543682.6099999999,"ADDRESS":"青年路１３７巷１６號","OBJECTID":442346},"geometry":{"x":168938.73000000045,"y":2543682.6099999994}},{"attributes":{"ID":442372,"DIS_CODE":0,"TOWNNAME":"中西區","LI":"青年里","LIN":"5鄰","STREET":"青年路","SECT":" ","MAREA":" ","LANE":"１３７巷","ALLEY":" ","HOUSE_NO":"２號","E_COORD97":168945.32999999999,"N_COORD97":2543635.8300000001,"ADDRESS":"青年路１３７巷２號","OBJECTID":442347},"geometry":{"x":168945.33000000101,"y":2543635.8300000038}},{"attributes":{"ID":442373,"DIS_CODE":0,"TOWNNAME":"中西區","LI":"青年里","LIN":"5鄰","STREET":"青年路","SECT":" ","MAREA":" ","LANE":"１３７巷","ALLEY":" ","HOUSE_NO":"４號","E_COORD97":168946.89999999999,"N_COORD97":2543647.1400000001,"ADDRESS":"青年路１３７巷４號","OBJECTID":442348},"geometry":{"x":168946.9000000013,"y":2543647.1400000006}},{"attributes":{"ID":442374,"DIS_CODE":0,"TOWNNAME":"仁德區","LI":"田厝里","LIN":"5鄰","STREET":"田厝三街","SECT":" ","MAREA":" ","LANE":"４１巷","ALLEY":" ","HOUSE_NO":"１５號","E_COORD97":172491.91,"N_COORD97":2537420.5,"ADDRESS":"田厝三街４１巷１５號","OBJECTID":442349},"geometry":{"x":172491.91000000015,"y":2537420.5000000019}},{"attributes":{"ID":442375,"DIS_CODE":0,"TOWNNAME":"仁德區","LI":"成功里","LIN":"5鄰","STREET":"成功三街","SECT":" ","MAREA":" ","LANE":"８１巷","ALLEY":" ","HOUSE_NO":"１３號","E_COORD97":171236.16,"N_COORD97":2539844.0099999998,"ADDRESS":"成功三街８１巷１３號","OBJECTID":442350},"geometry":{"x":171236.16000000015,"y":2539844.0100000016}},{"attributes":{"ID":442376,"DIS_CODE":0,"TOWNNAME":"仁德區","LI":"田厝里","LIN":"5鄰","STREET":"田厝三街","SECT":" ","MAREA":" ","LANE":"３５巷","ALLEY":" ","HOUSE_NO":"１號","E_COORD97":172440.38,"N_COORD97":2537426.25,"ADDRESS":"田厝三街３５巷１號","OBJECTID":442351},"geometry":{"x":172440.38000000082,"y":2537426.2500000019}},{"attributes":{"ID":442377,"DIS_CODE":0,"TOWNNAME":"仁德區","LI":"田厝里","LIN":"5鄰","STREET":"田厝三街","SECT":" ","MAREA":" ","LANE":"３５巷","ALLEY":" ","HOUSE_NO":"３號","E_COORD97":172444.97,"N_COORD97":2537425.5,"ADDRESS":"田厝三街３５巷３號","OBJECTID":442352},"geometry":{"x":172444.97000000067,"y":2537425.5}},{"attributes":{"ID":442378,"DIS_CODE":0,"TOWNNAME":"仁德區","LI":"仁德里","LIN":"5鄰","STREET":"仁德四街","SECT":" ","MAREA":" ","LANE":"１２巷","ALLEY":" ","HOUSE_NO":"９號","E_COORD97":173245.98999999999,"N_COORD97":2540875.54,"ADDRESS":"仁德四街１２巷９號","OBJECTID":442353},"geometry":{"x":173245.99000000022,"y":2540875.5399999991}},{"attributes":{"ID":442379,"DIS_CODE":0,"TOWNNAME":"新市區","LI":"新市里","LIN":"5鄰","STREET":"華興街","SECT":" ","MAREA":" ","LANE":"７２巷","ALLEY":" ","HOUSE_NO":"２０號","E_COORD97":177600.09,"N_COORD97":2553041.5,"ADDRESS":"華興街７２巷２０號","OBJECTID":442354},"geometry":{"x":177600.08999999985,"y":2553041.5}},{"attributes":{"ID":442380,"DIS_CODE":0,"TOWNNAME":"永康區","LI":"正強里","LIN":"5鄰","STREET":"中正路","SECT":" ","MAREA":" ","LANE":"５５巷","ALLEY":" ","HOUSE_NO":"３０號","E_COORD97":173544.62,"N_COORD97":2547736.9900000002,"ADDRESS":"中正路５５巷３０號","OBJECTID":442355},"geometry":{"x":173544.62000000104,"y":2547736.9900000039}},{"attributes":{"ID":442381,"DIS_CODE":0,"TOWNNAME":"永康區","LI":"正強里","LIN":"5鄰","STREET":"中正路","SECT":" ","MAREA":" ","LANE":"５５巷","ALLEY":" ","HOUSE_NO":"４０號","E_COORD97":173556.82999999999,"N_COORD97":2547694.5,"ADDRESS":"中正路５５巷４０號","OBJECTID":442356},"geometry":{"x":173556.83000000101,"y":2547694.5}},{"attributes":{"ID":442382,"DIS_CODE":0,"TOWNNAME":"永康區","LI":"正強里","LIN":"5鄰","STREET":"中正路","SECT":" ","MAREA":" ","LANE":"５５巷","ALLEY":" ","HOUSE_NO":"３４號之１","E_COORD97":173552.20999999999,"N_COORD97":2547716.54,"ADDRESS":"中正路５５巷３４號之１","OBJECTID":442357},"geometry":{"x":173552.21000000089,"y":2547716.540000001}},{"attributes":{"ID":442383,"DIS_CODE":0,"TOWNNAME":"永康區","LI":"正強里","LIN":"5鄰","STREET":"中正路","SECT":" ","MAREA":" ","LANE":"５５巷","ALLEY":" ","HOUSE_NO":"３８號","E_COORD97":173552.82999999999,"N_COORD97":2547706.9900000002,"ADDRESS":"中正路５５巷３８號","OBJECTID":442358},"geometry":{"x":173552.83000000101,"y":2547706.9900000021}},{"attributes":{"ID":442384,"DIS_CODE":0,"TOWNNAME":"永康區","LI":"正強里","LIN":"5鄰","STREET":"中正路","SECT":" ","MAREA":" ","LANE":"５５巷","ALLEY":" ","HOUSE_NO":"４８號","E_COORD97":173561.57000000001,"N_COORD97":2547676.5,"ADDRESS":"中正路５５巷４８號","OBJECTID":442359},"geometry":{"x":173561.57000000216,"y":2547676.5000000019}},{"attributes":{"ID":442385,"DIS_CODE":0,"TOWNNAME":"永康區","LI":"五王里","LIN":"5鄰","STREET":"中華二路","SECT":" ","MAREA":" ","LANE":"２０６巷","ALLEY":" ","HOUSE_NO":"６２號","E_COORD97":171603.72,"N_COORD97":2545629.3799999999,"ADDRESS":"中華二路２０６巷６２號","OBJECTID":442360},"geometry":{"x":171603.7200000016,"y":2545629.379999999}},{"attributes":{"ID":442386,"DIS_CODE":0,"TOWNNAME":"永康區","LI":"正強里","LIN":"5鄰","STREET":"中正路","SECT":" ","MAREA":" ","LANE":"５５巷","ALLEY":" ","HOUSE_NO":"３８號之１","E_COORD97":173556.56,"N_COORD97":2547702.54,"ADDRESS":"中正路５５巷３８號之１","OBJECTID":442361},"geometry":{"x":173556.55999999959,"y":2547702.540000001}},{"attributes":{"ID":442387,"DIS_CODE":0,"TOWNNAME":"永康區","LI":"正強里","LIN":"5鄰","STREET":"中正路","SECT":" ","MAREA":" ","LANE":"５５巷","ALLEY":" ","HOUSE_NO":"３４號","E_COORD97":173548.87,"N_COORD97":2547722.4900000002,"ADDRESS":"中正路５５巷３４號","OBJECTID":442362},"geometry":{"x":173548.87000000011,"y":2547722.4900000002}},{"attributes":{"ID":442388,"DIS_CODE":0,"TOWNNAME":"永康區","LI":"正強里","LIN":"5鄰","STREET":"中正路","SECT":" ","MAREA":" ","LANE":"５５巷","ALLEY":" ","HOUSE_NO":"４６號","E_COORD97":173560.62,"N_COORD97":2547681.25,"ADDRESS":"中正路５５巷４６號","OBJECTID":442363},"geometry":{"x":173560.62000000011,"y":2547681.2500000019}},{"attributes":{"ID":442389,"DIS_CODE":0,"TOWNNAME":"永康區","LI":"王行里","LIN":"5鄰","STREET":"育樂街","SECT":" ","MAREA":" ","LANE":"１８３巷","ALLEY":" ","HOUSE_NO":"３號","E_COORD97":174973.59,"N_COORD97":2548337.8599999999,"ADDRESS":"育樂街１８３巷３號","OBJECTID":442364},"geometry":{"x":174973.59000000078,"y":2548337.8600000013}},{"attributes":{"ID":442390,"DIS_CODE":0,"TOWNNAME":"永康區","LI":"王行里","LIN":"5鄰","STREET":"育樂街","SECT":" ","MAREA":" ","LANE":"１８３巷","ALLEY":" ","HOUSE_NO":"５３號","E_COORD97":175037.76000000001,"N_COORD97":2548290.9500000002,"ADDRESS":"育樂街１８３巷５３號","OBJECTID":442365},"geometry":{"x":175037.75999999885,"y":2548290.9499999993}},{"attributes":{"ID":442391,"DIS_CODE":0,"TOWNNAME":"永康區","LI":"王行里","LIN":"5鄰","STREET":"育樂街","SECT":" ","MAREA":" ","LANE":"１４３巷","ALLEY":" ","HOUSE_NO":"１４號","E_COORD97":175075.79999999999,"N_COORD97":2548285.1600000001,"ADDRESS":"育樂街１４３巷１４號","OBJECTID":442366},"geometry":{"x":175075.79999999981,"y":2548285.1600000039}},{"attributes":{"ID":442392,"DIS_CODE":0,"TOWNNAME":"永康區","LI":"正強里","LIN":"5鄰","STREET":"中正路","SECT":" ","MAREA":" ","LANE":"５５巷","ALLEY":" ","HOUSE_NO":"３６號","E_COORD97":173551.45999999999,"N_COORD97":2547711.2400000002,"ADDRESS":"中正路５５巷３６號","OBJECTID":442367},"geometry":{"x":173551.45999999996,"y":2547711.2400000002}},{"attributes":{"ID":442393,"DIS_CODE":0,"TOWNNAME":"新市區","LI":"新市里","LIN":"5鄰","STREET":"華興街","SECT":" ","MAREA":" ","LANE":"７２巷","ALLEY":" ","HOUSE_NO":"１８號","E_COORD97":177600.84,"N_COORD97":2553037.5,"ADDRESS":"華興街７２巷１８號","OBJECTID":442368},"geometry":{"x":177600.84000000078,"y":2553037.5000000019}},{"attributes":{"ID":442394,"DIS_CODE":0,"TOWNNAME":"東區","LI":"中西里","LIN":"5鄰","STREET":"勝利路","SECT":" ","MAREA":" ","LANE":"１２巷","ALLEY":" ","HOUSE_NO":"６０號","E_COORD97":169978.19,"N_COORD97":2543347.6000000001,"ADDRESS":"勝利路１２巷６０號","OBJECTID":442369},"geometry":{"x":169978.19000000041,"y":2543347.5999999996}},{"attributes":{"ID":442395,"DIS_CODE":0,"TOWNNAME":"東區","LI":"虎尾里","LIN":"5鄰","STREET":"富農街","SECT":"一段","MAREA":" ","LANE":"４８巷","ALLEY":" ","HOUSE_NO":"７號","E_COORD97":171533.54999999999,"N_COORD97":2542140.4500000002,"ADDRESS":"富農街一段４８巷７號","OBJECTID":442370},"geometry":{"x":171533.54999999888,"y":2542140.4499999993}},{"attributes":{"ID":442396,"DIS_CODE":0,"TOWNNAME":"東區","LI":"東門里","LIN":"5鄰","STREET":"青年路","SECT":" ","MAREA":" ","LANE":"２３２巷","ALLEY":" ","HOUSE_NO":"１０號","E_COORD97":169220.94,"N_COORD97":2543508.1499999999,"ADDRESS":"青年路２３２巷１０號","OBJECTID":442371},"geometry":{"x":169220.94000000041,"y":2543508.1500000041}},{"attributes":{"ID":442397,"DIS_CODE":0,"TOWNNAME":"關廟區","LI":"五甲里","LIN":"14鄰","STREET":"光復街","SECT":" ","MAREA":" ","LANE":"７巷","ALLEY":" ","HOUSE_NO":"１９號","E_COORD97":181376.19,"N_COORD97":2539216.2799999998,"ADDRESS":"光復街７巷１９號","OBJECTID":442372},"geometry":{"x":181376.19000000134,"y":2539216.2799999993}},{"attributes":{"ID":442398,"DIS_CODE":0,"TOWNNAME":"東區","LI":"東門里","LIN":"5鄰","STREET":"青年路","SECT":" ","MAREA":" ","LANE":"２３２巷","ALLEY":" ","HOUSE_NO":"１１號","E_COORD97":169220.85000000001,"N_COORD97":2543503.3599999999,"ADDRESS":"青年路２３２巷１１號","OBJECTID":442373},"geometry":{"x":169220.85000000149,"y":2543503.3600000013}},{"attributes":{"ID":442399,"DIS_CODE":0,"TOWNNAME":"東區","LI":"東門里","LIN":"5鄰","STREET":"青年路","SECT":" ","MAREA":" ","LANE":"２３２巷","ALLEY":" ","HOUSE_NO":"１２號","E_COORD97":169220.59,"N_COORD97":2543499.1000000001,"ADDRESS":"青年路２３２巷１２號","OBJECTID":442374},"geometry":{"x":169220.58999999985,"y":2543499.1000000015}},{"attributes":{"ID":442400,"DIS_CODE":0,"TOWNNAME":"東區","LI":"東門里","LIN":"5鄰","STREET":"青年路","SECT":" ","MAREA":" ","LANE":"２３２巷","ALLEY":" ","HOUSE_NO":"１３號","E_COORD97":169221.45999999999,"N_COORD97":2543493.98,"ADDRESS":"青年路２３２巷１３號","OBJECTID":442375},"geometry":{"x":169221.45999999996,"y":2543493.9800000023}},{"attributes":{"ID":442401,"DIS_CODE":0,"TOWNNAME":"東區","LI":"東門里","LIN":"5鄰","STREET":"青年路","SECT":" ","MAREA":" ","LANE":"２３２巷","ALLEY":" ","HOUSE_NO":"１４號","E_COORD97":169219.03,"N_COORD97":2543487.29,"ADDRESS":"青年路２３２巷１４號","OBJECTID":442376},"geometry":{"x":169219.03000000119,"y":2543487.290000001}},{"attributes":{"ID":442402,"DIS_CODE":0,"TOWNNAME":"東區","LI":"東門里","LIN":"5鄰","STREET":"青年路","SECT":" ","MAREA":" ","LANE":"２３２巷","ALLEY":" ","HOUSE_NO":"１５號","E_COORD97":169220.26999999999,"N_COORD97":2543481.3500000001,"ADDRESS":"青年路２３２巷１５號","OBJECTID":442377},"geometry":{"x":169220.27000000048,"y":2543481.3499999996}},{"attributes":{"ID":442403,"DIS_CODE":0,"TOWNNAME":"東區","LI":"東門里","LIN":"5鄰","STREET":"青年路","SECT":" ","MAREA":" ","LANE":"２３２巷","ALLEY":" ","HOUSE_NO":"１６號","E_COORD97":169230.60000000001,"N_COORD97":2543480.8599999999,"ADDRESS":"青年路２３２巷１６號","OBJECTID":442378},"geometry":{"x":169230.59999999963,"y":2543480.8599999994}},{"attributes":{"ID":442404,"DIS_CODE":0,"TOWNNAME":"東區","LI":"東門里","LIN":"5鄰","STREET":"青年路","SECT":" ","MAREA":" ","LANE":"２３２巷","ALLEY":" ","HOUSE_NO":"１７號","E_COORD97":169240.17000000001,"N_COORD97":2543480.25,"ADDRESS":"青年路２３２巷１７號","OBJECTID":442379},"geometry":{"x":169240.17000000086,"y":2543480.2500000037}},{"attributes":{"ID":442405,"DIS_CODE":0,"TOWNNAME":"東區","LI":"東門里","LIN":"5鄰","STREET":"青年路","SECT":" ","MAREA":" ","LANE":"２３２巷","ALLEY":" ","HOUSE_NO":"１８號","E_COORD97":169236.69,"N_COORD97":2543487.9700000002,"ADDRESS":"青年路２３２巷１８號","OBJECTID":442380},"geometry":{"x":169236.69000000134,"y":2543487.9700000007}},{"attributes":{"ID":442406,"DIS_CODE":0,"TOWNNAME":"東區","LI":"東門里","LIN":"5鄰","STREET":"青年路","SECT":" ","MAREA":" ","LANE":"２３２巷","ALLEY":" ","HOUSE_NO":"１９號","E_COORD97":169247.67000000001,"N_COORD97":2543469.5499999998,"ADDRESS":"青年路２３２巷１９號","OBJECTID":442381},"geometry":{"x":169247.66999999993,"y":2543469.5500000026}},{"attributes":{"ID":442407,"DIS_CODE":0,"TOWNNAME":"東區","LI":"東門里","LIN":"5鄰","STREET":"青年路","SECT":" ","MAREA":" ","LANE":"２３２巷","ALLEY":" ","HOUSE_NO":"１號","E_COORD97":169219.81,"N_COORD97":2543542.6400000001,"ADDRESS":"青年路２３２巷１號","OBJECTID":442382},"geometry":{"x":169219.81000000052,"y":2543542.6400000043}},{"attributes":{"ID":442408,"DIS_CODE":0,"TOWNNAME":"東區","LI":"東門里","LIN":"5鄰","STREET":"青年路","SECT":" ","MAREA":" ","LANE":"２３２巷","ALLEY":" ","HOUSE_NO":"２１號","E_COORD97":169241.28,"N_COORD97":2543456.4100000001,"ADDRESS":"青年路２３２巷２１號","OBJECTID":442383},"geometry":{"x":169241.28000000119,"y":2543456.410000002}},{"attributes":{"ID":442409,"DIS_CODE":0,"TOWNNAME":"東區","LI":"東門里","LIN":"5鄰","STREET":"青年路","SECT":" ","MAREA":" ","LANE":"２３２巷","ALLEY":" ","HOUSE_NO":"２２號","E_COORD97":169232.32999999999,"N_COORD97":2543447.4399999999,"ADDRESS":"青年路２３２巷２２號","OBJECTID":442384},"geometry":{"x":169232.33000000101,"y":2543447.4399999995}},{"attributes":{"ID":442410,"DIS_CODE":0,"TOWNNAME":"東區","LI":"東門里","LIN":"5鄰","STREET":"青年路","SECT":" ","MAREA":" ","LANE":"２３２巷","ALLEY":" ","HOUSE_NO":"２３號","E_COORD97":169244.95999999999,"N_COORD97":2543450.6000000001,"ADDRESS":"青年路２３２巷２３號","OBJECTID":442385},"geometry":{"x":169244.96000000089,"y":2543450.6000000015}},{"attributes":{"ID":442411,"DIS_CODE":0,"TOWNNAME":"東區","LI":"東門里","LIN":"5鄰","STREET":"青年路","SECT":" ","MAREA":" ","LANE":"２３２巷","ALLEY":" ","HOUSE_NO":"２４號","E_COORD97":169223.82000000001,"N_COORD97":2543444.1400000001,"ADDRESS":"青年路２３２巷２４號","OBJECTID":442386},"geometry":{"x":169223.82000000123,"y":2543444.1400000043}},{"attributes":{"ID":442412,"DIS_CODE":0,"TOWNNAME":"佳里區","LI":"建南里","LIN":"5鄰","STREET":"中和街","SECT":" ","MAREA":" ","LANE":"１０１巷","ALLEY":" ","HOUSE_NO":"７號","E_COORD97":165559.92999999999,"N_COORD97":2562340.54,"ADDRESS":"中和街１０１巷７號","OBJECTID":442387},"geometry":{"x":165559.9299999997,"y":2562340.5399999991}},{"attributes":{"ID":442413,"DIS_CODE":0,"TOWNNAME":"東區","LI":"東門里","LIN":"5鄰","STREET":"青年路","SECT":" ","MAREA":" ","LANE":"２３２巷","ALLEY":" ","HOUSE_NO":"２５號","E_COORD97":169226.97,"N_COORD97":2543430.1699999999,"ADDRESS":"青年路２３２巷２５號","OBJECTID":442388},"geometry":{"x":169226.9700000016,"y":2543430.1700000018}},{"attributes":{"ID":442414,"DIS_CODE":0,"TOWNNAME":"東區","LI":"東門里","LIN":"5鄰","STREET":"青年路","SECT":" ","MAREA":" ","LANE":"２３２巷","ALLEY":" ","HOUSE_NO":"２號","E_COORD97":169219.82000000001,"N_COORD97":2543538.79,"ADDRESS":"青年路２３２巷２號","OBJECTID":442389},"geometry":{"x":169219.8200000003,"y":2543538.7899999991}},{"attributes":{"ID":442415,"DIS_CODE":0,"TOWNNAME":"東區","LI":"東門里","LIN":"5鄰","STREET":"青年路","SECT":" ","MAREA":" ","LANE":"２３２巷","ALLEY":" ","HOUSE_NO":"３２號","E_COORD97":169236.95000000001,"N_COORD97":2543396.9399999999,"ADDRESS":"青年路２３２巷３２號","OBJECTID":442390},"geometry":{"x":169236.95000000019,"y":2543396.9400000032}},{"attributes":{"ID":442416,"DIS_CODE":0,"TOWNNAME":"東區","LI":"東門里","LIN":"5鄰","STREET":"青年路","SECT":" ","MAREA":" ","LANE":"２３２巷","ALLEY":" ","HOUSE_NO":"３２號之１","E_COORD97":169236.72,"N_COORD97":2543408.2999999998,"ADDRESS":"青年路２３２巷３２號之１","OBJECTID":442391},"geometry":{"x":169236.71999999974,"y":2543408.3000000007}},{"attributes":{"ID":442417,"DIS_CODE":0,"TOWNNAME":"東區","LI":"東門里","LIN":"5鄰","STREET":"青年路","SECT":" ","MAREA":" ","LANE":"２３２巷","ALLEY":" ","HOUSE_NO":"３２號之２","E_COORD97":169246.51999999999,"N_COORD97":2543402.7200000002,"ADDRESS":"青年路２３２巷３２號之２","OBJECTID":442392},"geometry":{"x":169246.51999999955,"y":2543402.7200000007}},{"attributes":{"ID":442418,"DIS_CODE":0,"TOWNNAME":"東區","LI":"東門里","LIN":"5鄰","STREET":"青年路","SECT":" ","MAREA":" ","LANE":"２３２巷","ALLEY":" ","HOUSE_NO":"３４之２號","E_COORD97":169249.73000000001,"N_COORD97":2543382.9900000002,"ADDRESS":"青年路２３２巷３４之２號","OBJECTID":442393},"geometry":{"x":169249.73000000231,"y":2543382.9900000002}},{"attributes":{"ID":442419,"DIS_CODE":0,"TOWNNAME":"東區","LI":"東門里","LIN":"5鄰","STREET":"青年路","SECT":" ","MAREA":" ","LANE":"２３２巷","ALLEY":" ","HOUSE_NO":"３４號","E_COORD97":169240.85000000001,"N_COORD97":2543380.2000000002,"ADDRESS":"青年路２３２巷３４號","OBJECTID":442394},"geometry":{"x":169240.84999999963,"y":2543380.1999999993}},{"attributes":{"ID":442420,"DIS_CODE":0,"TOWNNAME":"東區","LI":"東門里","LIN":"5鄰","STREET":"青年路","SECT":" ","MAREA":" ","LANE":"２３２巷","ALLEY":" ","HOUSE_NO":"３６號","E_COORD97":169239.20000000001,"N_COORD97":2543372.0699999998,"ADDRESS":"青年路２３２巷３６號","OBJECTID":442395},"geometry":{"x":169239.20000000019,"y":2543372.0700000003}},{"attributes":{"ID":442421,"DIS_CODE":0,"TOWNNAME":"東區","LI":"東門里","LIN":"5鄰","STREET":"青年路","SECT":" ","MAREA":" ","LANE":"２３２巷","ALLEY":" ","HOUSE_NO":"３號","E_COORD97":169219.73999999999,"N_COORD97":2543535.3399999999,"ADDRESS":"青年路２３２巷３號","OBJECTID":442396},"geometry":{"x":169219.74000000022,"y":2543535.3399999999}},{"attributes":{"ID":442422,"DIS_CODE":0,"TOWNNAME":"東區","LI":"東門里","LIN":"5鄰","STREET":"青年路","SECT":" ","MAREA":" ","LANE":"２３２巷","ALLEY":" ","HOUSE_NO":"４號","E_COORD97":169219.97,"N_COORD97":2543531.3700000001,"ADDRESS":"青年路２３２巷４號","OBJECTID":442397},"geometry":{"x":169219.96999999974,"y":2543531.3700000048}},{"attributes":{"ID":442423,"DIS_CODE":0,"TOWNNAME":"東區","LI":"東門里","LIN":"5鄰","STREET":"青年路","SECT":" ","MAREA":" ","LANE":"２３２巷","ALLEY":" ","HOUSE_NO":"５號","E_COORD97":169219.89000000001,"N_COORD97":2543527.3300000001,"ADDRESS":"青年路２３２巷５號","OBJECTID":442398},"geometry":{"x":169219.88999999966,"y":2543527.3300000038}},{"attributes":{"ID":442424,"DIS_CODE":0,"TOWNNAME":"東區","LI":"東門里","LIN":"5鄰","STREET":"青年路","SECT":" ","MAREA":" ","LANE":"２３２巷","ALLEY":" ","HOUSE_NO":"６號","E_COORD97":169220.26000000001,"N_COORD97":2543523.3700000001,"ADDRESS":"青年路２３２巷６號","OBJECTID":442399},"geometry":{"x":169220.26000000071,"y":2543523.370000001}},{"attributes":{"ID":442425,"DIS_CODE":0,"TOWNNAME":"東區","LI":"東門里","LIN":"5鄰","STREET":"青年路","SECT":" ","MAREA":" ","LANE":"２３２巷","ALLEY":" ","HOUSE_NO":"７號","E_COORD97":169220.10999999999,"N_COORD97":2543519.3300000001,"ADDRESS":"青年路２３２巷７號","OBJECTID":442400},"geometry":{"x":169220.11000000127,"y":2543519.3300000001}}]}