{"displayFieldName":"TOWNNAME","fieldAliases":{"ID":"ID","DIS_CODE":"DIS_CODE","TOWNNAME":"TOWNNAME","LI":"LI","LIN":"LIN","STREET":"STREET","SECT":"SECT","MAREA":"MAREA","LANE":"LANE","ALLEY":"ALLEY","HOUSE_NO":"HOUSE_NO","E_COORD97":"E_COORD97","N_COORD97":"N_COORD97","ADDRESS":"ADDRESS","OBJECTID":"OBJECTID"},"geometryType":"esriGeometryPoint","spatialReference":{"wkid":102443,"latestWkid":3826},"fields":[{"name":"ID","type":"esriFieldTypeDouble","alias":"ID"},{"name":"DIS_CODE","type":"esriFieldTypeInteger","alias":"DIS_CODE"},{"name":"TOWNNAME","type":"esriFieldTypeString","alias":"TOWNNAME","length":8},{"name":"LI","type":"esriFieldTypeString","alias":"LI","length":8},{"name":"LIN","type":"esriFieldTypeString","alias":"LIN","length":12},{"name":"STREET","type":"esriFieldTypeString","alias":"STREET","length":20},{"name":"SECT","type":"esriFieldTypeString","alias":"SECT","length":8},{"name":"MAREA","type":"esriFieldTypeString","alias":"MAREA","length":12},{"name":"LANE","type":"esriFieldTypeString","alias":"LANE","length":10},{"name":"ALLEY","type":"esriFieldTypeString","alias":"ALLEY","length":10},{"name":"HOUSE_NO","type":"esriFieldTypeString","alias":"HOUSE_NO","length":20},{"name":"E_COORD97","type":"esriFieldTypeDouble","alias":"E_COORD97"},{"name":"N_COORD97","type":"esriFieldTypeDouble","alias":"N_COORD97"},{"name":"ADDRESS","type":"esriFieldTypeString","alias":"ADDRESS","length":50},{"name":"OBJECTID","type":"esriFieldTypeOID","alias":"OBJECTID"}],"features":[{"attributes":{"ID":224605,"DIS_CODE":0,"TOWNNAME":"下營區","LI":"仁里里","LIN":"23鄰","STREET":"仁中街","SECT":" ","MAREA":" ","LANE":"４８巷","ALLEY":" ","HOUSE_NO":"２８號","E_COORD97":174513.67999999999,"N_COORD97":2569874.5800000001,"ADDRESS":"仁中街４８巷２８號","OBJECTID":224601},"geometry":{"x":174513.6799999997,"y":2569874.5800000001}},{"attributes":{"ID":224606,"DIS_CODE":0,"TOWNNAME":"下營區","LI":"仁里里","LIN":"23鄰","STREET":"仁中街","SECT":" ","MAREA":" ","LANE":"４８巷","ALLEY":" ","HOUSE_NO":"３０號","E_COORD97":174512.45999999999,"N_COORD97":2569878.2200000002,"ADDRESS":"仁中街４８巷３０號","OBJECTID":224602},"geometry":{"x":174512.45999999996,"y":2569878.2199999988}},{"attributes":{"ID":224607,"DIS_CODE":0,"TOWNNAME":"永康區","LI":"三合里","LIN":"6鄰","STREET":"南工街","SECT":" ","MAREA":" ","LANE":"１３０巷","ALLEY":" ","HOUSE_NO":"１１號","E_COORD97":172144.35999999999,"N_COORD97":2545796.5600000001,"ADDRESS":"南工街１３０巷１１號","OBJECTID":224603},"geometry":{"x":172144.36000000127,"y":2545796.5600000005}},{"attributes":{"ID":224608,"DIS_CODE":0,"TOWNNAME":"永康區","LI":"二王里","LIN":"46鄰","STREET":"南工街","SECT":" ","MAREA":" ","LANE":"２１４巷","ALLEY":" ","HOUSE_NO":"２號","E_COORD97":172042.10000000001,"N_COORD97":2545966.73,"ADDRESS":"南工街２１４巷２號","OBJECTID":224604},"geometry":{"x":172042.10000000056,"y":2545966.7300000023}},{"attributes":{"ID":224609,"DIS_CODE":0,"TOWNNAME":"歸仁區","LI":"八甲里","LIN":"23鄰","STREET":"大德路","SECT":" ","MAREA":" ","LANE":"１１４巷","ALLEY":" ","HOUSE_NO":"３６號","E_COORD97":178142.34,"N_COORD97":2541415.25,"ADDRESS":"大德路１１４巷３６號","OBJECTID":224605},"geometry":{"x":178142.33999999985,"y":2541415.2500000037}},{"attributes":{"ID":224610,"DIS_CODE":0,"TOWNNAME":"永康區","LI":"西灣里","LIN":"23鄰","STREET":"國光七街","SECT":" ","MAREA":" ","LANE":"２１巷","ALLEY":" ","HOUSE_NO":"１號六樓","E_COORD97":174301.70000000001,"N_COORD97":2545509.5099999998,"ADDRESS":"國光七街２１巷１號六樓","OBJECTID":224606},"geometry":{"x":174301.70000000112,"y":2545509.5100000016}},{"attributes":{"ID":224611,"DIS_CODE":0,"TOWNNAME":"關廟區","LI":"松腳里","LIN":"16鄰","STREET":"民族街","SECT":" ","MAREA":" ","LANE":"１６巷","ALLEY":" ","HOUSE_NO":"１０號","E_COORD97":181640.39000000001,"N_COORD97":2539801.29,"ADDRESS":"民族街１６巷１０號","OBJECTID":224607},"geometry":{"x":181640.3900000006,"y":2539801.290000001}},{"attributes":{"ID":224612,"DIS_CODE":0,"TOWNNAME":"新營區","LI":"忠政里","LIN":"16鄰","STREET":"府西路","SECT":" ","MAREA":" ","LANE":"２６１巷","ALLEY":" ","HOUSE_NO":"６號","E_COORD97":179773.17000000001,"N_COORD97":2579782.02,"ADDRESS":"府西路２６１巷６號","OBJECTID":224608},"geometry":{"x":179773.16999999899,"y":2579782.0200000033}},{"attributes":{"ID":224613,"DIS_CODE":0,"TOWNNAME":"新化區","LI":"協興里","LIN":"16鄰","STREET":"中山路","SECT":" ","MAREA":" ","LANE":"６６０巷","ALLEY":" ","HOUSE_NO":"１０號","E_COORD97":178132.95999999999,"N_COORD97":2548554.25,"ADDRESS":"中山路６６０巷１０號","OBJECTID":224609},"geometry":{"x":178132.95999999996,"y":2548554.25}},{"attributes":{"ID":224614,"DIS_CODE":0,"TOWNNAME":"善化區","LI":"坐駕里","LIN":"16鄰","STREET":"大成路","SECT":" ","MAREA":" ","LANE":"１５巷","ALLEY":" ","HOUSE_NO":"３號","E_COORD97":178880.5,"N_COORD97":2558906.5,"ADDRESS":"大成路１５巷３號","OBJECTID":224610},"geometry":{"x":178880.5,"y":2558906.5}},{"attributes":{"ID":224615,"DIS_CODE":0,"TOWNNAME":"善化區","LI":"光文里","LIN":"16鄰","STREET":"信義路","SECT":" ","MAREA":" ","LANE":"１５５巷","ALLEY":" ","HOUSE_NO":"１６號","E_COORD97":178151.91,"N_COORD97":2559035,"ADDRESS":"信義路１５５巷１６號","OBJECTID":224611},"geometry":{"x":178151.91000000108,"y":2559035.0000000019}},{"attributes":{"ID":224616,"DIS_CODE":0,"TOWNNAME":"永康區","LI":"光復里","LIN":"16鄰","STREET":"復興路","SECT":" ","MAREA":" ","LANE":"１２８巷","ALLEY":" ","HOUSE_NO":"２號","E_COORD97":172740.48000000001,"N_COORD97":2544351.0299999998,"ADDRESS":"復興路１２８巷２號","OBJECTID":224612},"geometry":{"x":172740.48000000138,"y":2544351.0299999993}},{"attributes":{"ID":224617,"DIS_CODE":0,"TOWNNAME":"永康區","LI":"安康里","LIN":"16鄰","STREET":"中華路","SECT":" ","MAREA":" ","LANE":"６６１巷","ALLEY":" ","HOUSE_NO":"７１號","E_COORD97":170867.19,"N_COORD97":2546145.2400000002,"ADDRESS":"中華路６６１巷７１號","OBJECTID":224613},"geometry":{"x":170867.19000000227,"y":2546145.2400000039}},{"attributes":{"ID":224618,"DIS_CODE":0,"TOWNNAME":"仁德區","LI":"太子里","LIN":"29鄰","STREET":"大發路","SECT":" ","MAREA":" ","LANE":"１５９巷","ALLEY":" ","HOUSE_NO":"１９號","E_COORD97":173188.39000000001,"N_COORD97":2543009.52,"ADDRESS":"大發路１５９巷１９號","OBJECTID":224614},"geometry":{"x":173188.38999999966,"y":2543009.5199999996}},{"attributes":{"ID":224619,"DIS_CODE":0,"TOWNNAME":"東區","LI":"泉南里","LIN":"16鄰","STREET":"樹林街","SECT":"一段","MAREA":" ","LANE":"５巷","ALLEY":" ","HOUSE_NO":"４號","E_COORD97":169665.04999999999,"N_COORD97":2542891.71,"ADDRESS":"樹林街一段５巷４號","OBJECTID":224615},"geometry":{"x":169665.04999999981,"y":2542891.7100000028}},{"attributes":{"ID":224620,"DIS_CODE":0,"TOWNNAME":"東區","LI":"德高里","LIN":"16鄰","STREET":"崇善路","SECT":" ","MAREA":" ","LANE":"１０８９巷","ALLEY":" ","HOUSE_NO":"２１號","E_COORD97":171584.14999999999,"N_COORD97":2540567.9399999999,"ADDRESS":"崇善路１０８９巷２１號","OBJECTID":224616},"geometry":{"x":171584.15000000037,"y":2540567.9399999995}},{"attributes":{"ID":224621,"DIS_CODE":0,"TOWNNAME":"東區","LI":"裕農里","LIN":"20鄰","STREET":"裕豐街","SECT":" ","MAREA":" ","LANE":"２２２巷","ALLEY":" ","HOUSE_NO":"１３號","E_COORD97":170837.85000000001,"N_COORD97":2543219.25,"ADDRESS":"裕豐街２２２巷１３號","OBJECTID":224617},"geometry":{"x":170837.84999999963,"y":2543219.2500000037}},{"attributes":{"ID":224622,"DIS_CODE":0,"TOWNNAME":"東區","LI":"龍山里","LIN":"6鄰","STREET":"東門路","SECT":"二段","MAREA":" ","LANE":"１５８巷","ALLEY":" ","HOUSE_NO":"９號","E_COORD97":170128.20000000001,"N_COORD97":2542826.1400000001,"ADDRESS":"東門路二段１５８巷９號","OBJECTID":224618},"geometry":{"x":170128.20000000112,"y":2542826.1400000006}},{"attributes":{"ID":224623,"DIS_CODE":0,"TOWNNAME":"北區","LI":"六甲里","LIN":"16鄰","STREET":"西門路","SECT":"四段","MAREA":" ","LANE":"３００巷","ALLEY":" ","HOUSE_NO":"８號","E_COORD97":168980.60999999999,"N_COORD97":2545911.8799999999,"ADDRESS":"西門路四段３００巷８號","OBJECTID":224619},"geometry":{"x":168980.61000000034,"y":2545911.879999999}},{"attributes":{"ID":224624,"DIS_CODE":0,"TOWNNAME":"北區","LI":"六甲里","LIN":"16鄰","STREET":"西門路","SECT":"四段","MAREA":" ","LANE":"３１６巷","ALLEY":" ","HOUSE_NO":"２號","E_COORD97":168990.57000000001,"N_COORD97":2545957.9199999999,"ADDRESS":"西門路四段３１６巷２號","OBJECTID":224620},"geometry":{"x":168990.5700000003,"y":2545957.9200000018}},{"attributes":{"ID":224625,"DIS_CODE":0,"TOWNNAME":"北區","LI":"仁愛里","LIN":"16鄰","STREET":"東豐路","SECT":" ","MAREA":" ","LANE":"２２７巷","ALLEY":" ","HOUSE_NO":"２２號之２","E_COORD97":170104.92999999999,"N_COORD97":2544960.1000000001,"ADDRESS":"東豐路２２７巷２２號之２","OBJECTID":224621},"geometry":{"x":170104.9299999997,"y":2544960.1000000015}},{"attributes":{"ID":224626,"DIS_CODE":0,"TOWNNAME":"東區","LI":"崇文里","LIN":"16鄰","STREET":"崇德十九街","SECT":" ","MAREA":" ","LANE":"１２０巷","ALLEY":" ","HOUSE_NO":"２０號","E_COORD97":171133.26000000001,"N_COORD97":2540921.3700000001,"ADDRESS":"崇德十九街１２０巷２０號","OBJECTID":224622},"geometry":{"x":171133.25999999978,"y":2540921.3700000029}},{"attributes":{"ID":224627,"DIS_CODE":0,"TOWNNAME":"永康區","LI":"安康里","LIN":"16鄰","STREET":"中華路","SECT":" ","MAREA":" ","LANE":"６６１巷","ALLEY":" ","HOUSE_NO":"９７號","E_COORD97":170821.92999999999,"N_COORD97":2546119,"ADDRESS":"中華路６６１巷９７號","OBJECTID":224623},"geometry":{"x":170821.9299999997,"y":2546119}},{"attributes":{"ID":224628,"DIS_CODE":0,"TOWNNAME":"北區","LI":"裕民里","LIN":"11鄰","STREET":"成功路","SECT":" ","MAREA":" ","LANE":"６１４巷","ALLEY":" ","HOUSE_NO":"４１號","E_COORD97":167539.10999999999,"N_COORD97":2544893.3599999999,"ADDRESS":"成功路６１４巷４１號","OBJECTID":224624},"geometry":{"x":167539.11000000034,"y":2544893.3600000013}},{"attributes":{"ID":224629,"DIS_CODE":0,"TOWNNAME":"北區","LI":"裕民里","LIN":"11鄰","STREET":"成功路","SECT":" ","MAREA":" ","LANE":"６１４巷","ALLEY":" ","HOUSE_NO":"４３號","E_COORD97":167544.59,"N_COORD97":2544895.02,"ADDRESS":"成功路６１４巷４３號","OBJECTID":224625},"geometry":{"x":167544.59000000171,"y":2544895.0200000033}},{"attributes":{"ID":224630,"DIS_CODE":0,"TOWNNAME":"新營區","LI":"新北里","LIN":"11鄰","STREET":"三興街","SECT":" ","MAREA":" ","LANE":"３０１巷","ALLEY":" ","HOUSE_NO":"４８號","E_COORD97":179204.51999999999,"N_COORD97":2579723.8199999998,"ADDRESS":"三興街３０１巷４８號","OBJECTID":224626},"geometry":{"x":179204.52000000048,"y":2579723.8200000022}},{"attributes":{"ID":224631,"DIS_CODE":0,"TOWNNAME":"新營區","LI":"王公里","LIN":"11鄰","STREET":"義和街","SECT":" ","MAREA":" ","LANE":"８巷","ALLEY":" ","HOUSE_NO":"３之５號","E_COORD97":180499.82000000001,"N_COORD97":2579118.6000000001,"ADDRESS":"義和街８巷３之５號","OBJECTID":224627},"geometry":{"x":180499.82000000216,"y":2579118.6000000015}},{"attributes":{"ID":224632,"DIS_CODE":0,"TOWNNAME":"南區","LI":"喜北里","LIN":"11鄰","STREET":"喜樹路","SECT":" ","MAREA":" ","LANE":"１６８巷","ALLEY":" ","HOUSE_NO":"１號","E_COORD97":165854.17000000001,"N_COORD97":2538219.0499999998,"ADDRESS":"喜樹路１６８巷１號","OBJECTID":224628},"geometry":{"x":165854.17000000179,"y":2538219.0500000007}},{"attributes":{"ID":224633,"DIS_CODE":0,"TOWNNAME":"仁德區","LI":"成功里","LIN":"11鄰","STREET":"成功二街","SECT":" ","MAREA":" ","LANE":"３１巷","ALLEY":" ","HOUSE_NO":"２８號","E_COORD97":170999.25,"N_COORD97":2539840.5,"ADDRESS":"成功二街３１巷２８號","OBJECTID":224629},"geometry":{"x":170999.25000000093,"y":2539840.5000000037}},{"attributes":{"ID":224634,"DIS_CODE":0,"TOWNNAME":"中西區","LI":"福安里","LIN":"11鄰","STREET":"永福路","SECT":"二段","MAREA":" ","LANE":"３５巷","ALLEY":" ","HOUSE_NO":"８號","E_COORD97":168006.92000000001,"N_COORD97":2543521.3300000001,"ADDRESS":"永福路二段３５巷８號","OBJECTID":224630},"geometry":{"x":168006.92000000179,"y":2543521.3300000019}},{"attributes":{"ID":224635,"DIS_CODE":0,"TOWNNAME":"仁德區","LI":"一甲里","LIN":"11鄰","STREET":"忠義一街","SECT":" ","MAREA":" ","LANE":"３８巷","ALLEY":" ","HOUSE_NO":"１７號","E_COORD97":174072,"N_COORD97":2542243.7599999998,"ADDRESS":"忠義一街３８巷１７號","OBJECTID":224631},"geometry":{"x":174072.00000000186,"y":2542243.7600000016}},{"attributes":{"ID":224636,"DIS_CODE":0,"TOWNNAME":"安南區","LI":"大安里","LIN":"11鄰","STREET":"大安街","SECT":" ","MAREA":" ","LANE":"２６４巷","ALLEY":" ","HOUSE_NO":"７號","E_COORD97":167522.87,"N_COORD97":2548427.0899999999,"ADDRESS":"大安街２６４巷７號","OBJECTID":224632},"geometry":{"x":167522.87000000104,"y":2548427.0899999999}},{"attributes":{"ID":224637,"DIS_CODE":0,"TOWNNAME":"安南區","LI":"大安里","LIN":"11鄰","STREET":"大安街","SECT":" ","MAREA":" ","LANE":"２６４巷","ALLEY":" ","HOUSE_NO":"９號","E_COORD97":167526.17000000001,"N_COORD97":2548423.9100000001,"ADDRESS":"大安街２６４巷９號","OBJECTID":224633},"geometry":{"x":167526.17000000086,"y":2548423.910000002}},{"attributes":{"ID":224638,"DIS_CODE":0,"TOWNNAME":"東區","LI":"東聖里","LIN":"13鄰","STREET":"中華東路","SECT":"二段","MAREA":" ","LANE":"４１巷","ALLEY":" ","HOUSE_NO":"５１號","E_COORD97":171587.51000000001,"N_COORD97":2543106.8999999999,"ADDRESS":"中華東路二段４１巷５１號","OBJECTID":224634},"geometry":{"x":171587.50999999978,"y":2543106.9000000022}},{"attributes":{"ID":224639,"DIS_CODE":0,"TOWNNAME":"東區","LI":"東聖里","LIN":"13鄰","STREET":"中華東路","SECT":"二段","MAREA":" ","LANE":"４１巷","ALLEY":" ","HOUSE_NO":"５３號","E_COORD97":171592.07999999999,"N_COORD97":2543106.8100000001,"ADDRESS":"中華東路二段４１巷５３號","OBJECTID":224635},"geometry":{"x":171592.08000000101,"y":2543106.8100000005}},{"attributes":{"ID":224640,"DIS_CODE":0,"TOWNNAME":"中西區","LI":"民主里","LIN":"11鄰","STREET":"尊王路","SECT":" ","MAREA":" ","LANE":"１３８巷","ALLEY":" ","HOUSE_NO":"７號","E_COORD97":167339.32999999999,"N_COORD97":2543669.2599999998,"ADDRESS":"尊王路１３８巷７號","OBJECTID":224636},"geometry":{"x":167339.33000000007,"y":2543669.2599999998}},{"attributes":{"ID":224641,"DIS_CODE":0,"TOWNNAME":"永康區","LI":"大橋里","LIN":"25鄰","STREET":"大橋一街","SECT":" ","MAREA":" ","LANE":"２４７巷","ALLEY":" ","HOUSE_NO":"２７號","E_COORD97":171253.82000000001,"N_COORD97":2546711.2400000002,"ADDRESS":"大橋一街２４７巷２７號","OBJECTID":224637},"geometry":{"x":171253.8200000003,"y":2546711.2399999984}},{"attributes":{"ID":224642,"DIS_CODE":0,"TOWNNAME":"永康區","LI":"二王里","LIN":"11鄰","STREET":"永二街","SECT":" ","MAREA":" ","LANE":"３８３巷","ALLEY":" ","HOUSE_NO":"４號","E_COORD97":172940.17000000001,"N_COORD97":2546588,"ADDRESS":"永二街３８３巷４號","OBJECTID":224638},"geometry":{"x":172940.17000000086,"y":2546588.0000000019}},{"attributes":{"ID":224643,"DIS_CODE":0,"TOWNNAME":"東區","LI":"富強里","LIN":"11鄰","STREET":"裕農路","SECT":" ","MAREA":" ","LANE":"２８８巷","ALLEY":" ","HOUSE_NO":"１６９號","E_COORD97":171081.89999999999,"N_COORD97":2542851.9700000002,"ADDRESS":"裕農路２８８巷１６９號","OBJECTID":224639},"geometry":{"x":171081.90000000037,"y":2542851.9700000044}},{"attributes":{"ID":224644,"DIS_CODE":0,"TOWNNAME":"永康區","LI":"王行里","LIN":"4鄰","STREET":"育樂街","SECT":" ","MAREA":" ","LANE":"１４３巷","ALLEY":" ","HOUSE_NO":"１號","E_COORD97":175089.75,"N_COORD97":2548317.6800000002,"ADDRESS":"育樂街１４３巷１號","OBJECTID":224640},"geometry":{"x":175089.75000000093,"y":2548317.6799999997}},{"attributes":{"ID":224645,"DIS_CODE":0,"TOWNNAME":"永康區","LI":"五王里","LIN":"19鄰","STREET":"成功路","SECT":" ","MAREA":" ","LANE":"１７２巷","ALLEY":" ","HOUSE_NO":"１５號","E_COORD97":171475.13,"N_COORD97":2545651.48,"ADDRESS":"成功路１７２巷１５號","OBJECTID":224641},"geometry":{"x":171475.12999999989,"y":2545651.4800000004}},{"attributes":{"ID":224646,"DIS_CODE":0,"TOWNNAME":"東區","LI":"自強里","LIN":"11鄰","STREET":"中華東路","SECT":"二段","MAREA":" ","LANE":"２９５巷","ALLEY":" ","HOUSE_NO":"３２號","E_COORD97":171224.10999999999,"N_COORD97":2542460.46,"ADDRESS":"中華東路二段２９５巷３２號","OBJECTID":224642},"geometry":{"x":171224.11000000127,"y":2542460.4600000028}},{"attributes":{"ID":224647,"DIS_CODE":0,"TOWNNAME":"永康區","LI":"崑山里","LIN":"11鄰","STREET":"大灣路","SECT":" ","MAREA":" ","LANE":"１０９０巷","ALLEY":" ","HOUSE_NO":"１７號","E_COORD97":173296.85000000001,"N_COORD97":2544473.25,"ADDRESS":"大灣路１０９０巷１７號","OBJECTID":224643},"geometry":{"x":173296.85000000056,"y":2544473.2499999981}},{"attributes":{"ID":224648,"DIS_CODE":0,"TOWNNAME":"永康區","LI":"尚頂里","LIN":"11鄰","STREET":"正南一街","SECT":" ","MAREA":" ","LANE":"５７巷","ALLEY":" ","HOUSE_NO":"２９號","E_COORD97":171258.88,"N_COORD97":2547294.2200000002,"ADDRESS":"正南一街５７巷２９號","OBJECTID":224644},"geometry":{"x":171258.88000000082,"y":2547294.2200000007}},{"attributes":{"ID":224649,"DIS_CODE":0,"TOWNNAME":"北區","LI":"和順里","LIN":"11鄰","STREET":"臨安路","SECT":"二段","MAREA":" ","LANE":"２４９巷","ALLEY":" ","HOUSE_NO":"５７號","E_COORD97":168042.17000000001,"N_COORD97":2545140.9399999999,"ADDRESS":"臨安路二段２４９巷５７號","OBJECTID":224645},"geometry":{"x":168042.16999999993,"y":2545140.9400000013}},{"attributes":{"ID":224650,"DIS_CODE":0,"TOWNNAME":"東區","LI":"後甲里","LIN":"6鄰","STREET":"建東街","SECT":" ","MAREA":" ","LANE":"４３巷","ALLEY":" ","HOUSE_NO":"４３號","E_COORD97":171643.01000000001,"N_COORD97":2543398.6200000001,"ADDRESS":"建東街４３巷４３號","OBJECTID":224646},"geometry":{"x":171643.01000000071,"y":2543398.6200000029}},{"attributes":{"ID":224651,"DIS_CODE":0,"TOWNNAME":"永康區","LI":"北灣里","LIN":"27鄰","STREET":"文賢街","SECT":" ","MAREA":" ","LANE":"１２２巷","ALLEY":" ","HOUSE_NO":"１０號","E_COORD97":175415.34,"N_COORD97":2545509.5800000001,"ADDRESS":"文賢街１２２巷１０號","OBJECTID":224647},"geometry":{"x":175415.34000000171,"y":2545509.5800000019}},{"attributes":{"ID":224652,"DIS_CODE":0,"TOWNNAME":"仁德區","LI":"成功里","LIN":"27鄰","STREET":"成功一街","SECT":" ","MAREA":" ","LANE":"２８巷","ALLEY":" ","HOUSE_NO":"１號","E_COORD97":170528.32000000001,"N_COORD97":2540100.02,"ADDRESS":"成功一街２８巷１號","OBJECTID":224648},"geometry":{"x":170528.3200000003,"y":2540100.0199999996}},{"attributes":{"ID":224653,"DIS_CODE":0,"TOWNNAME":"仁德區","LI":"太子里","LIN":"10鄰","STREET":"長興路","SECT":" ","MAREA":" ","LANE":"２０巷","ALLEY":" ","HOUSE_NO":"２號","E_COORD97":174151.84,"N_COORD97":2543580,"ADDRESS":"長興路２０巷２號","OBJECTID":224649},"geometry":{"x":174151.83999999985,"y":2543580.0000000037}},{"attributes":{"ID":224654,"DIS_CODE":0,"TOWNNAME":"仁德區","LI":"後壁里","LIN":"39鄰","STREET":"德糖路","SECT":" ","MAREA":" ","LANE":"４０７巷","ALLEY":" ","HOUSE_NO":"２７號","E_COORD97":173450.54999999999,"N_COORD97":2539030.2599999998,"ADDRESS":"德糖路４０７巷２７號","OBJECTID":224650},"geometry":{"x":173450.54999999981,"y":2539030.2599999998}},{"attributes":{"ID":224655,"DIS_CODE":0,"TOWNNAME":"仁德區","LI":"後壁里","LIN":"34鄰","STREET":"德洋二街","SECT":" ","MAREA":" ","LANE":"３１巷","ALLEY":" ","HOUSE_NO":"３號","E_COORD97":172404.44,"N_COORD97":2539393.02,"ADDRESS":"德洋二街３１巷３號","OBJECTID":224651},"geometry":{"x":172404.44000000041,"y":2539393.0200000014}},{"attributes":{"ID":224656,"DIS_CODE":0,"TOWNNAME":"仁德區","LI":"後壁里","LIN":"35鄰","STREET":"德洋路","SECT":" ","MAREA":" ","LANE":"２０５巷","ALLEY":" ","HOUSE_NO":"３７號","E_COORD97":172401.14999999999,"N_COORD97":2539514.02,"ADDRESS":"德洋路２０５巷３７號","OBJECTID":224652},"geometry":{"x":172401.15000000037,"y":2539514.0199999996}},{"attributes":{"ID":224657,"DIS_CODE":0,"TOWNNAME":"永康區","LI":"大灣里","LIN":"1鄰","STREET":"大同街","SECT":" ","MAREA":" ","LANE":"１７７巷","ALLEY":" ","HOUSE_NO":"３號","E_COORD97":174785.60999999999,"N_COORD97":2545657.3700000001,"ADDRESS":"大同街１７７巷３號","OBJECTID":224653},"geometry":{"x":174785.61000000127,"y":2545657.3700000029}},{"attributes":{"ID":224658,"DIS_CODE":0,"TOWNNAME":"新營區","LI":"南紙里","LIN":"27鄰","STREET":"太子路","SECT":" ","MAREA":" ","LANE":"２００巷","ALLEY":" ","HOUSE_NO":"３號","E_COORD97":177891.32999999999,"N_COORD97":2577888.4500000002,"ADDRESS":"太子路２００巷３號","OBJECTID":224654},"geometry":{"x":177891.33000000101,"y":2577888.4500000011}},{"attributes":{"ID":224659,"DIS_CODE":0,"TOWNNAME":"永康區","LI":"崑山里","LIN":"29鄰","STREET":"大灣路","SECT":" ","MAREA":" ","LANE":"９４２巷","ALLEY":" ","HOUSE_NO":"１３８號","E_COORD97":173758.53,"N_COORD97":2544853.3199999998,"ADDRESS":"大灣路９４２巷１３８號","OBJECTID":224655},"geometry":{"x":173758.53000000119,"y":2544853.3200000022}},{"attributes":{"ID":224660,"DIS_CODE":0,"TOWNNAME":"東區","LI":"忠孝里","LIN":"27鄰","STREET":"榮譽街","SECT":" ","MAREA":" ","LANE":"８４巷","ALLEY":" ","HOUSE_NO":"２３號之２","E_COORD97":169777.32000000001,"N_COORD97":2541659.9100000001,"ADDRESS":"榮譽街８４巷２３號之２","OBJECTID":224656},"geometry":{"x":169777.3200000003,"y":2541659.910000002}},{"attributes":{"ID":224661,"DIS_CODE":0,"TOWNNAME":"東區","LI":"忠孝里","LIN":"27鄰","STREET":"榮譽街","SECT":" ","MAREA":" ","LANE":"８４巷","ALLEY":" ","HOUSE_NO":"２３號之３","E_COORD97":169770.45000000001,"N_COORD97":2541656.8100000001,"ADDRESS":"榮譽街８４巷２３號之３","OBJECTID":224657},"geometry":{"x":169770.45000000112,"y":2541656.8100000024}},{"attributes":{"ID":224662,"DIS_CODE":0,"TOWNNAME":"東區","LI":"忠孝里","LIN":"27鄰","STREET":"榮譽街","SECT":" ","MAREA":" ","LANE":"８４巷","ALLEY":" ","HOUSE_NO":"２３號之４","E_COORD97":169766.85000000001,"N_COORD97":2541655.1699999999,"ADDRESS":"榮譽街８４巷２３號之４","OBJECTID":224658},"geometry":{"x":169766.85000000149,"y":2541655.1699999999}},{"attributes":{"ID":224663,"DIS_CODE":0,"TOWNNAME":"中西區","LI":"大涼里","LIN":"27鄰","STREET":"中華西路","SECT":"二段","MAREA":" ","LANE":"１２巷","ALLEY":" ","HOUSE_NO":"２６號","E_COORD97":166665.53,"N_COORD97":2543102.3700000001,"ADDRESS":"中華西路二段１２巷２６號","OBJECTID":224659},"geometry":{"x":166665.53000000026,"y":2543102.370000001}},{"attributes":{"ID":224664,"DIS_CODE":0,"TOWNNAME":"中西區","LI":"大涼里","LIN":"27鄰","STREET":"中華西路","SECT":"二段","MAREA":" ","LANE":"１２巷","ALLEY":" ","HOUSE_NO":"２８號","E_COORD97":166669.20999999999,"N_COORD97":2543102.1099999999,"ADDRESS":"中華西路二段１２巷２８號","OBJECTID":224660},"geometry":{"x":166669.21000000183,"y":2543102.1100000013}},{"attributes":{"ID":224665,"DIS_CODE":0,"TOWNNAME":"新市區","LI":"新和里","LIN":"27鄰","STREET":"忠孝街","SECT":" ","MAREA":" ","LANE":"１８０巷","ALLEY":" ","HOUSE_NO":"１２號","E_COORD97":177775.67999999999,"N_COORD97":2552765.75,"ADDRESS":"忠孝街１８０巷１２號","OBJECTID":224661},"geometry":{"x":177775.6799999997,"y":2552765.75}},{"attributes":{"ID":224666,"DIS_CODE":0,"TOWNNAME":"南區","LI":"建南里","LIN":"23鄰","STREET":"永成路","SECT":"二段","MAREA":" ","LANE":"７３０巷","ALLEY":" ","HOUSE_NO":"１１１號","E_COORD97":167876.63,"N_COORD97":2539473.6400000001,"ADDRESS":"永成路二段７３０巷１１１號","OBJECTID":224662},"geometry":{"x":167876.63000000175,"y":2539473.6400000006}},{"attributes":{"ID":224667,"DIS_CODE":0,"TOWNNAME":"永康區","LI":"東橋里","LIN":"14鄰","STREET":"東橋三路","SECT":" ","MAREA":" ","LANE":"１５巷","ALLEY":" ","HOUSE_NO":"１０號","E_COORD97":171619.35999999999,"N_COORD97":2546500.6699999999,"ADDRESS":"東橋三路１５巷１０號","OBJECTID":224663},"geometry":{"x":171619.36000000127,"y":2546500.6699999999}},{"attributes":{"ID":224668,"DIS_CODE":0,"TOWNNAME":"安南區","LI":"溪頂里","LIN":"22鄰","STREET":"郡安路","SECT":"四段","MAREA":" ","LANE":"２４９巷","ALLEY":" ","HOUSE_NO":"４號","E_COORD97":168718.89000000001,"N_COORD97":2547626.1299999999,"ADDRESS":"郡安路四段２４９巷４號","OBJECTID":224664},"geometry":{"x":168718.89000000153,"y":2547626.1300000027}},{"attributes":{"ID":224669,"DIS_CODE":0,"TOWNNAME":"安南區","LI":"溪墘里","LIN":"22鄰","STREET":"安寧街","SECT":" ","MAREA":" ","LANE":"７９巷","ALLEY":" ","HOUSE_NO":"３９號","E_COORD97":167279.20999999999,"N_COORD97":2547038.0699999998,"ADDRESS":"安寧街７９巷３９號","OBJECTID":224665},"geometry":{"x":167279.20999999996,"y":2547038.070000004}},{"attributes":{"ID":224670,"DIS_CODE":0,"TOWNNAME":"永康區","LI":"\u25A0洲里","LIN":"22鄰","STREET":"中正南路","SECT":" ","MAREA":" ","LANE":"６９７巷","ALLEY":" ","HOUSE_NO":"２２號","E_COORD97":171441.17000000001,"N_COORD97":2548909.75,"ADDRESS":"中正南路６９７巷２２號","OBJECTID":224666},"geometry":{"x":171441.16999999993,"y":2548909.7500000019}},{"attributes":{"ID":224671,"DIS_CODE":0,"TOWNNAME":"永康區","LI":"復國里","LIN":"22鄰","STREET":"復華六街","SECT":" ","MAREA":" ","LANE":"９３巷","ALLEY":" ","HOUSE_NO":"７號","E_COORD97":172628.70000000001,"N_COORD97":2545808.2400000002,"ADDRESS":"復華六街９３巷７號","OBJECTID":224667},"geometry":{"x":172628.70000000112,"y":2545808.2400000002}},{"attributes":{"ID":224672,"DIS_CODE":0,"TOWNNAME":"北區","LI":"成德里","LIN":"29鄰","STREET":"育德路","SECT":" ","MAREA":" ","LANE":"１９９巷","ALLEY":" ","HOUSE_NO":"１５號","E_COORD97":168544.19,"N_COORD97":2545679.0600000001,"ADDRESS":"育德路１９９巷１５號","OBJECTID":224668},"geometry":{"x":168544.19000000041,"y":2545679.0600000042}},{"attributes":{"ID":224673,"DIS_CODE":0,"TOWNNAME":"北區","LI":"成德里","LIN":"29鄰","STREET":"育德路","SECT":" ","MAREA":" ","LANE":"１９９巷","ALLEY":" ","HOUSE_NO":"１７號","E_COORD97":168535.29999999999,"N_COORD97":2545680.6400000001,"ADDRESS":"育德路１９９巷１７號","OBJECTID":224669},"geometry":{"x":168535.30000000075,"y":2545680.6400000006}},{"attributes":{"ID":224674,"DIS_CODE":0,"TOWNNAME":"北區","LI":"成德里","LIN":"29鄰","STREET":"育德路","SECT":" ","MAREA":" ","LANE":"１９９巷","ALLEY":" ","HOUSE_NO":"１９號","E_COORD97":168525.78,"N_COORD97":2545681.9100000001,"ADDRESS":"育德路１９９巷１９號","OBJECTID":224670},"geometry":{"x":168525.78000000119,"y":2545681.9100000001}},{"attributes":{"ID":224675,"DIS_CODE":0,"TOWNNAME":"關廟區","LI":"香洋里","LIN":"29鄰","STREET":"大仁街","SECT":" ","MAREA":" ","LANE":"４１６巷","ALLEY":" ","HOUSE_NO":"１１號","E_COORD97":181010.22,"N_COORD97":2539747.25,"ADDRESS":"大仁街４１６巷１１號","OBJECTID":224671},"geometry":{"x":181010.2200000016,"y":2539747.2500000037}},{"attributes":{"ID":224676,"DIS_CODE":0,"TOWNNAME":"北區","LI":"大港里","LIN":"29鄰","STREET":"賢北街","SECT":" ","MAREA":" ","LANE":"１９５巷","ALLEY":" ","HOUSE_NO":"６７號","E_COORD97":166085.85999999999,"N_COORD97":2545525.8100000001,"ADDRESS":"賢北街１９５巷６７號","OBJECTID":224672},"geometry":{"x":166085.86000000127,"y":2545525.8100000024}},{"attributes":{"ID":224677,"DIS_CODE":0,"TOWNNAME":"北區","LI":"大港里","LIN":"29鄰","STREET":"賢北街","SECT":" ","MAREA":" ","LANE":"１９５巷","ALLEY":" ","HOUSE_NO":"６９號","E_COORD97":166082.84,"N_COORD97":2545524.3799999999,"ADDRESS":"賢北街１９５巷６９號","OBJECTID":224673},"geometry":{"x":166082.83999999985,"y":2545524.379999999}},{"attributes":{"ID":224678,"DIS_CODE":0,"TOWNNAME":"北區","LI":"大港里","LIN":"29鄰","STREET":"賢北街","SECT":" ","MAREA":" ","LANE":"１９５巷","ALLEY":" ","HOUSE_NO":"７１號","E_COORD97":166079.51000000001,"N_COORD97":2545522.9500000002,"ADDRESS":"賢北街１９５巷７１號","OBJECTID":224674},"geometry":{"x":166079.51000000071,"y":2545522.9500000011}},{"attributes":{"ID":224679,"DIS_CODE":0,"TOWNNAME":"安平區","LI":"平通里","LIN":"29鄰","STREET":"育平七街","SECT":" ","MAREA":" ","LANE":"６０巷","ALLEY":" ","HOUSE_NO":"１６號","E_COORD97":164465.25,"N_COORD97":2543795.73,"ADDRESS":"育平七街６０巷１６號","OBJECTID":224675},"geometry":{"x":164465.25000000186,"y":2543795.7300000004}},{"attributes":{"ID":224680,"DIS_CODE":0,"TOWNNAME":"安平區","LI":"平通里","LIN":"29鄰","STREET":"育平七街","SECT":" ","MAREA":" ","LANE":"６０巷","ALLEY":" ","HOUSE_NO":"１６號之１","E_COORD97":164465.85000000001,"N_COORD97":2543805.1400000001,"ADDRESS":"育平七街６０巷１６號之１","OBJECTID":224676},"geometry":{"x":164465.85000000149,"y":2543805.1400000025}},{"attributes":{"ID":224681,"DIS_CODE":0,"TOWNNAME":"安平區","LI":"平通里","LIN":"29鄰","STREET":"育平七街","SECT":" ","MAREA":" ","LANE":"６０巷","ALLEY":" ","HOUSE_NO":"２０號","E_COORD97":164458.20000000001,"N_COORD97":2543819.0800000001,"ADDRESS":"育平七街６０巷２０號","OBJECTID":224677},"geometry":{"x":164458.20000000019,"y":2543819.0800000001}},{"attributes":{"ID":224682,"DIS_CODE":0,"TOWNNAME":"安平區","LI":"平通里","LIN":"29鄰","STREET":"育平七街","SECT":" ","MAREA":" ","LANE":"６０巷","ALLEY":" ","HOUSE_NO":"２３號","E_COORD97":164436.39000000001,"N_COORD97":2543830.8100000001,"ADDRESS":"育平七街６０巷２３號","OBJECTID":224678},"geometry":{"x":164436.38999999966,"y":2543830.8100000024}},{"attributes":{"ID":224683,"DIS_CODE":0,"TOWNNAME":"永康區","LI":"勝利里","LIN":"22鄰","STREET":"中華路","SECT":" ","MAREA":" ","LANE":"２３１巷","ALLEY":" ","HOUSE_NO":"１２號","E_COORD97":171561.54999999999,"N_COORD97":2545098,"ADDRESS":"中華路２３１巷１２號","OBJECTID":224679},"geometry":{"x":171561.55000000075,"y":2545098}},{"attributes":{"ID":224684,"DIS_CODE":0,"TOWNNAME":"永康區","LI":"崑山里","LIN":"22鄰","STREET":"崑山街","SECT":" ","MAREA":" ","LANE":"５６巷","ALLEY":" ","HOUSE_NO":"１７號","E_COORD97":173993.09,"N_COORD97":2544646.1699999999,"ADDRESS":"崑山街５６巷１７號","OBJECTID":224680},"geometry":{"x":173993.09000000171,"y":2544646.1699999999}},{"attributes":{"ID":224685,"DIS_CODE":0,"TOWNNAME":"永康區","LI":"崑山里","LIN":"22鄰","STREET":"大灣路","SECT":" ","MAREA":" ","LANE":"７９８巷","ALLEY":" ","HOUSE_NO":"２４號","E_COORD97":174029.29000000001,"N_COORD97":2544592.7599999998,"ADDRESS":"大灣路７９８巷２４號","OBJECTID":224681},"geometry":{"x":174029.2900000019,"y":2544592.7600000016}},{"attributes":{"ID":224686,"DIS_CODE":0,"TOWNNAME":"東區","LI":"泉南里","LIN":"34鄰","STREET":"林森路","SECT":"一段","MAREA":" ","LANE":" ","ALLEY":" ","HOUSE_NO":"１４９號二樓之１","E_COORD97":169495.73000000001,"N_COORD97":2542552.3999999999,"ADDRESS":"林森路一段１４９號二樓之１","OBJECTID":224682},"geometry":{"x":169495.73000000138,"y":2542552.4000000004}},{"attributes":{"ID":224687,"DIS_CODE":0,"TOWNNAME":"東區","LI":"泉南里","LIN":"34鄰","STREET":"林森路","SECT":"一段","MAREA":" ","LANE":" ","ALLEY":" ","HOUSE_NO":"１４９號二樓之２","E_COORD97":169495.73000000001,"N_COORD97":2542552.3999999999,"ADDRESS":"林森路一段１４９號二樓之２","OBJECTID":224683},"geometry":{"x":169495.73000000138,"y":2542552.4000000004}},{"attributes":{"ID":224688,"DIS_CODE":0,"TOWNNAME":"東區","LI":"泉南里","LIN":"34鄰","STREET":"林森路","SECT":"一段","MAREA":" ","LANE":" ","ALLEY":" ","HOUSE_NO":"１４９號二樓之３","E_COORD97":169495.73000000001,"N_COORD97":2542552.3999999999,"ADDRESS":"林森路一段１４９號二樓之３","OBJECTID":224684},"geometry":{"x":169495.73000000138,"y":2542552.4000000004}},{"attributes":{"ID":224689,"DIS_CODE":0,"TOWNNAME":"東區","LI":"泉南里","LIN":"34鄰","STREET":"林森路","SECT":"一段","MAREA":" ","LANE":" ","ALLEY":" ","HOUSE_NO":"１４９號二樓之４","E_COORD97":169495.73000000001,"N_COORD97":2542552.3999999999,"ADDRESS":"林森路一段１４９號二樓之４","OBJECTID":224685},"geometry":{"x":169495.73000000138,"y":2542552.4000000004}},{"attributes":{"ID":224690,"DIS_CODE":0,"TOWNNAME":"東區","LI":"泉南里","LIN":"34鄰","STREET":"林森路","SECT":"一段","MAREA":" ","LANE":" ","ALLEY":" ","HOUSE_NO":"１４９號二樓之５","E_COORD97":169495.73000000001,"N_COORD97":2542552.3999999999,"ADDRESS":"林森路一段１４９號二樓之５","OBJECTID":224686},"geometry":{"x":169495.73000000138,"y":2542552.4000000004}},{"attributes":{"ID":224691,"DIS_CODE":0,"TOWNNAME":"東區","LI":"泉南里","LIN":"34鄰","STREET":"林森路","SECT":"一段","MAREA":" ","LANE":" ","ALLEY":" ","HOUSE_NO":"１４９號二樓之６","E_COORD97":169495.73000000001,"N_COORD97":2542552.3999999999,"ADDRESS":"林森路一段１４９號二樓之６","OBJECTID":224687},"geometry":{"x":169495.73000000138,"y":2542552.4000000004}},{"attributes":{"ID":224692,"DIS_CODE":0,"TOWNNAME":"東區","LI":"泉南里","LIN":"34鄰","STREET":"林森路","SECT":"一段","MAREA":" ","LANE":" ","ALLEY":" ","HOUSE_NO":"１４９號三樓","E_COORD97":169495.73000000001,"N_COORD97":2542552.3999999999,"ADDRESS":"林森路一段１４９號三樓","OBJECTID":224688},"geometry":{"x":169495.73000000138,"y":2542552.4000000004}},{"attributes":{"ID":224693,"DIS_CODE":0,"TOWNNAME":"東區","LI":"泉南里","LIN":"34鄰","STREET":"林森路","SECT":"一段","MAREA":" ","LANE":" ","ALLEY":" ","HOUSE_NO":"１４９號三樓之１","E_COORD97":169495.73000000001,"N_COORD97":2542552.3999999999,"ADDRESS":"林森路一段１４９號三樓之１","OBJECTID":224689},"geometry":{"x":169495.73000000138,"y":2542552.4000000004}},{"attributes":{"ID":224694,"DIS_CODE":0,"TOWNNAME":"東區","LI":"泉南里","LIN":"34鄰","STREET":"林森路","SECT":"一段","MAREA":" ","LANE":" ","ALLEY":" ","HOUSE_NO":"１４９號三樓之２","E_COORD97":169495.73000000001,"N_COORD97":2542552.3999999999,"ADDRESS":"林森路一段１４９號三樓之２","OBJECTID":224690},"geometry":{"x":169495.73000000138,"y":2542552.4000000004}},{"attributes":{"ID":224695,"DIS_CODE":0,"TOWNNAME":"北區","LI":"正覺里","LIN":"14鄰","STREET":"西門路","SECT":"四段","MAREA":" ","LANE":" ","ALLEY":" ","HOUSE_NO":"５５０號","E_COORD97":169227.87,"N_COORD97":2546442.9500000002,"ADDRESS":"西門路四段５５０號","OBJECTID":224691},"geometry":{"x":169227.87000000011,"y":2546442.9499999993}},{"attributes":{"ID":224696,"DIS_CODE":0,"TOWNNAME":"南區","LI":"金華里","LIN":"29鄰","STREET":"新孝路","SECT":" ","MAREA":" ","LANE":"１２６巷","ALLEY":" ","HOUSE_NO":"１０號","E_COORD97":166615.89000000001,"N_COORD97":2542137.0699999998,"ADDRESS":"新孝路１２６巷１０號","OBJECTID":224692},"geometry":{"x":166615.8900000006,"y":2542137.0700000022}},{"attributes":{"ID":224697,"DIS_CODE":0,"TOWNNAME":"南區","LI":"金華里","LIN":"29鄰","STREET":"新孝路","SECT":" ","MAREA":" ","LANE":"１２６巷","ALLEY":" ","HOUSE_NO":"１２號","E_COORD97":166618.54000000001,"N_COORD97":2542142.0499999998,"ADDRESS":"新孝路１２６巷１２號","OBJECTID":224693},"geometry":{"x":166618.54000000097,"y":2542142.0500000007}},{"attributes":{"ID":224698,"DIS_CODE":0,"TOWNNAME":"南區","LI":"金華里","LIN":"29鄰","STREET":"新孝路","SECT":" ","MAREA":" ","LANE":"１２６巷","ALLEY":" ","HOUSE_NO":"１４號","E_COORD97":166619.64000000001,"N_COORD97":2542144.5299999998,"ADDRESS":"新孝路１２６巷１４號","OBJECTID":224694},"geometry":{"x":166619.63999999966,"y":2542144.5299999993}},{"attributes":{"ID":224699,"DIS_CODE":0,"TOWNNAME":"南區","LI":"金華里","LIN":"29鄰","STREET":"新孝路","SECT":" ","MAREA":" ","LANE":"１２６巷","ALLEY":" ","HOUSE_NO":"１６號","E_COORD97":166624.89000000001,"N_COORD97":2542149.2200000002,"ADDRESS":"新孝路１２６巷１６號","OBJECTID":224695},"geometry":{"x":166624.88999999966,"y":2542149.2200000025}},{"attributes":{"ID":224700,"DIS_CODE":0,"TOWNNAME":"南區","LI":"金華里","LIN":"29鄰","STREET":"新孝路","SECT":" ","MAREA":" ","LANE":"１２６巷","ALLEY":" ","HOUSE_NO":"１８號","E_COORD97":166625.72,"N_COORD97":2542154.1899999999,"ADDRESS":"新孝路１２６巷１８號","OBJECTID":224696},"geometry":{"x":166625.71999999974,"y":2542154.1900000032}},{"attributes":{"ID":224701,"DIS_CODE":0,"TOWNNAME":"南區","LI":"金華里","LIN":"29鄰","STREET":"新孝路","SECT":" ","MAREA":" ","LANE":"１２６巷","ALLEY":" ","HOUSE_NO":"２０號","E_COORD97":166622.31,"N_COORD97":2542166.3700000001,"ADDRESS":"新孝路１２６巷２０號","OBJECTID":224697},"geometry":{"x":166622.31000000145,"y":2542166.3700000029}},{"attributes":{"ID":224702,"DIS_CODE":0,"TOWNNAME":"南區","LI":"金華里","LIN":"29鄰","STREET":"新孝路","SECT":" ","MAREA":" ","LANE":"１２６巷","ALLEY":" ","HOUSE_NO":"２２號","E_COORD97":166624.79999999999,"N_COORD97":2542172.4700000002,"ADDRESS":"新孝路１２６巷２２號","OBJECTID":224698},"geometry":{"x":166624.80000000075,"y":2542172.4700000007}},{"attributes":{"ID":224703,"DIS_CODE":0,"TOWNNAME":"南區","LI":"金華里","LIN":"29鄰","STREET":"新孝路","SECT":" ","MAREA":" ","LANE":"１２６巷","ALLEY":" ","HOUSE_NO":"２６號","E_COORD97":166629.25,"N_COORD97":2542182.5,"ADDRESS":"新孝路１２６巷２６號","OBJECTID":224699},"geometry":{"x":166629.25,"y":2542182.5}},{"attributes":{"ID":224704,"DIS_CODE":0,"TOWNNAME":"南區","LI":"金華里","LIN":"29鄰","STREET":"新孝路","SECT":" ","MAREA":" ","LANE":"１２６巷","ALLEY":" ","HOUSE_NO":"２８號","E_COORD97":166631.53,"N_COORD97":2542188.3900000001,"ADDRESS":"新孝路１２６巷２８號","OBJECTID":224700},"geometry":{"x":166631.53000000026,"y":2542188.3900000025}},{"attributes":{"ID":224705,"DIS_CODE":0,"TOWNNAME":"南區","LI":"金華里","LIN":"29鄰","STREET":"新孝路","SECT":" ","MAREA":" ","LANE":"１２６巷","ALLEY":" ","HOUSE_NO":"３０號","E_COORD97":166633.45999999999,"N_COORD97":2542193.77,"ADDRESS":"新孝路１２６巷３０號","OBJECTID":224701},"geometry":{"x":166633.45999999996,"y":2542193.7699999996}},{"attributes":{"ID":224706,"DIS_CODE":0,"TOWNNAME":"永康區","LI":"五王里","LIN":"22鄰","STREET":"成功路","SECT":" ","MAREA":" ","LANE":"２２８巷","ALLEY":" ","HOUSE_NO":"６１號","E_COORD97":171489.76000000001,"N_COORD97":2545875.0099999998,"ADDRESS":"成功路２２８巷６１號","OBJECTID":224702},"geometry":{"x":171489.76000000164,"y":2545875.0100000035}},{"attributes":{"ID":224707,"DIS_CODE":0,"TOWNNAME":"中西區","LI":"三合里","LIN":"3鄰","STREET":"海安路","SECT":" ","MAREA":" ","LANE":"４３１巷","ALLEY":" ","HOUSE_NO":"１２號","E_COORD97":167769.26000000001,"N_COORD97":2544425.7799999998,"ADDRESS":"海安路４３１巷１２號","OBJECTID":224703},"geometry":{"x":167769.26000000071,"y":2544425.7800000012}},{"attributes":{"ID":224708,"DIS_CODE":0,"TOWNNAME":"歸仁區","LI":"崙頂里","LIN":"22鄰","STREET":"崙頂二街","SECT":" ","MAREA":" ","LANE":"５０巷","ALLEY":" ","HOUSE_NO":"２５號","E_COORD97":177712.64000000001,"N_COORD97":2540056.48,"ADDRESS":"崙頂二街５０巷２５號","OBJECTID":224704},"geometry":{"x":177712.6400000006,"y":2540056.4800000004}},{"attributes":{"ID":224709,"DIS_CODE":0,"TOWNNAME":"歸仁區","LI":"崙頂里","LIN":"22鄰","STREET":"崙頂二街","SECT":" ","MAREA":" ","LANE":"５０巷","ALLEY":" ","HOUSE_NO":"２９號","E_COORD97":177717.73999999999,"N_COORD97":2540050.48,"ADDRESS":"崙頂二街５０巷２９號","OBJECTID":224705},"geometry":{"x":177717.74000000022,"y":2540050.4800000004}},{"attributes":{"ID":224710,"DIS_CODE":0,"TOWNNAME":"歸仁區","LI":"崙頂里","LIN":"22鄰","STREET":"崙頂二街","SECT":" ","MAREA":" ","LANE":"５０巷","ALLEY":" ","HOUSE_NO":"２１號","E_COORD97":177707.54000000001,"N_COORD97":2540064.48,"ADDRESS":"崙頂二街５０巷２１號","OBJECTID":224706},"geometry":{"x":177707.54000000004,"y":2540064.4800000004}},{"attributes":{"ID":224711,"DIS_CODE":0,"TOWNNAME":"歸仁區","LI":"崙頂里","LIN":"22鄰","STREET":"崙頂二街","SECT":" ","MAREA":" ","LANE":"５０巷","ALLEY":" ","HOUSE_NO":"９號","E_COORD97":177729.79000000001,"N_COORD97":2540055.48,"ADDRESS":"崙頂二街５０巷９號","OBJECTID":224707},"geometry":{"x":177729.78999999911,"y":2540055.4800000023}},{"attributes":{"ID":224712,"DIS_CODE":0,"TOWNNAME":"歸仁區","LI":"看西里","LIN":"22鄰","STREET":"成功七街","SECT":" ","MAREA":" ","LANE":"６５巷","ALLEY":" ","HOUSE_NO":"６號","E_COORD97":178270.56,"N_COORD97":2539780.3599999999,"ADDRESS":"成功七街６５巷６號","OBJECTID":224708},"geometry":{"x":178270.56000000052,"y":2539780.3600000013}},{"attributes":{"ID":224713,"DIS_CODE":0,"TOWNNAME":"新營區","LI":"新南里","LIN":"22鄰","STREET":"復興路","SECT":" ","MAREA":" ","LANE":"６２０巷","ALLEY":" ","HOUSE_NO":"３２號","E_COORD97":178046.60999999999,"N_COORD97":2578432.5699999998,"ADDRESS":"復興路６２０巷３２號","OBJECTID":224709},"geometry":{"x":178046.6099999994,"y":2578432.5700000003}},{"attributes":{"ID":224714,"DIS_CODE":0,"TOWNNAME":"新營區","LI":"新東里","LIN":"22鄰","STREET":"東明街","SECT":" ","MAREA":" ","LANE":"８０巷","ALLEY":" ","HOUSE_NO":"４６號","E_COORD97":180915.89999999999,"N_COORD97":2579782.1800000002,"ADDRESS":"東明街８０巷４６號","OBJECTID":224710},"geometry":{"x":180915.90000000037,"y":2579782.1800000016}},{"attributes":{"ID":224715,"DIS_CODE":0,"TOWNNAME":"新營區","LI":"民榮里","LIN":"22鄰","STREET":"裕民路","SECT":" ","MAREA":" ","LANE":"３４巷","ALLEY":" ","HOUSE_NO":"９號","E_COORD97":179096.10999999999,"N_COORD97":2577870.4500000002,"ADDRESS":"裕民路３４巷９號","OBJECTID":224711},"geometry":{"x":179096.1100000022,"y":2577870.4500000011}},{"attributes":{"ID":224716,"DIS_CODE":0,"TOWNNAME":"新營區","LI":"民榮里","LIN":"22鄰","STREET":"裕民路","SECT":" ","MAREA":" ","LANE":"５８巷","ALLEY":" ","HOUSE_NO":"１２號","E_COORD97":179093.17000000001,"N_COORD97":2577842.79,"ADDRESS":"裕民路５８巷１２號","OBJECTID":224712},"geometry":{"x":179093.16999999993,"y":2577842.7899999991}},{"attributes":{"ID":224717,"DIS_CODE":0,"TOWNNAME":"新營區","LI":"新東里","LIN":"22鄰","STREET":"東明街","SECT":" ","MAREA":" ","LANE":"８０巷","ALLEY":" ","HOUSE_NO":"２９號","E_COORD97":180892.42999999999,"N_COORD97":2579796.6899999999,"ADDRESS":"東明街８０巷２９號","OBJECTID":224713},"geometry":{"x":180892.43000000063,"y":2579796.6899999995}},{"attributes":{"ID":224718,"DIS_CODE":0,"TOWNNAME":"東區","LI":"泉南里","LIN":"34鄰","STREET":"林森路","SECT":"一段","MAREA":" ","LANE":" ","ALLEY":" ","HOUSE_NO":"１４９號三樓之３","E_COORD97":169495.73000000001,"N_COORD97":2542552.3999999999,"ADDRESS":"林森路一段１４９號三樓之３","OBJECTID":224714},"geometry":{"x":169495.73000000138,"y":2542552.4000000004}},{"attributes":{"ID":224719,"DIS_CODE":0,"TOWNNAME":"東區","LI":"泉南里","LIN":"34鄰","STREET":"林森路","SECT":"一段","MAREA":" ","LANE":" ","ALLEY":" ","HOUSE_NO":"１４９號三樓之４","E_COORD97":169495.73000000001,"N_COORD97":2542552.3999999999,"ADDRESS":"林森路一段１４９號三樓之４","OBJECTID":224715},"geometry":{"x":169495.73000000138,"y":2542552.4000000004}},{"attributes":{"ID":224720,"DIS_CODE":0,"TOWNNAME":"東區","LI":"泉南里","LIN":"34鄰","STREET":"林森路","SECT":"一段","MAREA":" ","LANE":" ","ALLEY":" ","HOUSE_NO":"１４９號三樓之５","E_COORD97":169495.73000000001,"N_COORD97":2542552.3999999999,"ADDRESS":"林森路一段１４９號三樓之５","OBJECTID":224716},"geometry":{"x":169495.73000000138,"y":2542552.4000000004}},{"attributes":{"ID":224721,"DIS_CODE":0,"TOWNNAME":"東區","LI":"泉南里","LIN":"34鄰","STREET":"林森路","SECT":"一段","MAREA":" ","LANE":" ","ALLEY":" ","HOUSE_NO":"１４９號三樓之６","E_COORD97":169495.73000000001,"N_COORD97":2542552.3999999999,"ADDRESS":"林森路一段１４９號三樓之６","OBJECTID":224717},"geometry":{"x":169495.73000000138,"y":2542552.4000000004}},{"attributes":{"ID":224722,"DIS_CODE":0,"TOWNNAME":"東區","LI":"泉南里","LIN":"34鄰","STREET":"林森路","SECT":"一段","MAREA":" ","LANE":" ","ALLEY":" ","HOUSE_NO":"１４９號四樓","E_COORD97":169495.73000000001,"N_COORD97":2542552.3999999999,"ADDRESS":"林森路一段１４９號四樓","OBJECTID":224718},"geometry":{"x":169495.73000000138,"y":2542552.4000000004}},{"attributes":{"ID":224723,"DIS_CODE":0,"TOWNNAME":"東區","LI":"泉南里","LIN":"34鄰","STREET":"林森路","SECT":"一段","MAREA":" ","LANE":" ","ALLEY":" ","HOUSE_NO":"１４９號四樓之１","E_COORD97":169495.73000000001,"N_COORD97":2542552.3999999999,"ADDRESS":"林森路一段１４９號四樓之１","OBJECTID":224719},"geometry":{"x":169495.73000000138,"y":2542552.4000000004}},{"attributes":{"ID":224724,"DIS_CODE":0,"TOWNNAME":"東區","LI":"泉南里","LIN":"34鄰","STREET":"林森路","SECT":"一段","MAREA":" ","LANE":" ","ALLEY":" ","HOUSE_NO":"１４９號四樓之２","E_COORD97":169495.73000000001,"N_COORD97":2542552.3999999999,"ADDRESS":"林森路一段１４９號四樓之２","OBJECTID":224720},"geometry":{"x":169495.73000000138,"y":2542552.4000000004}},{"attributes":{"ID":224725,"DIS_CODE":0,"TOWNNAME":"東區","LI":"泉南里","LIN":"34鄰","STREET":"林森路","SECT":"一段","MAREA":" ","LANE":" ","ALLEY":" ","HOUSE_NO":"１４９號四樓之３","E_COORD97":169495.73000000001,"N_COORD97":2542552.3999999999,"ADDRESS":"林森路一段１４９號四樓之３","OBJECTID":224721},"geometry":{"x":169495.73000000138,"y":2542552.4000000004}},{"attributes":{"ID":224726,"DIS_CODE":0,"TOWNNAME":"南區","LI":"金華里","LIN":"29鄰","STREET":"新孝路","SECT":" ","MAREA":" ","LANE":"１２６巷","ALLEY":" ","HOUSE_NO":"６號","E_COORD97":166611.07999999999,"N_COORD97":2542129.6400000001,"ADDRESS":"新孝路１２６巷６號","OBJECTID":224722},"geometry":{"x":166611.08000000101,"y":2542129.6400000025}},{"attributes":{"ID":224727,"DIS_CODE":0,"TOWNNAME":"南區","LI":"金華里","LIN":"29鄰","STREET":"新孝路","SECT":" ","MAREA":" ","LANE":"１２６巷","ALLEY":" ","HOUSE_NO":"８號","E_COORD97":166613.01999999999,"N_COORD97":2542132.9500000002,"ADDRESS":"新孝路１２６巷８號","OBJECTID":224723},"geometry":{"x":166613.02000000048,"y":2542132.9500000011}},{"attributes":{"ID":224728,"DIS_CODE":0,"TOWNNAME":"新營區","LI":"南興里","LIN":"29鄰","STREET":"建業路","SECT":" ","MAREA":" ","LANE":"１３７巷","ALLEY":" ","HOUSE_NO":"１２號","E_COORD97":178428.38,"N_COORD97":2577442.8700000001,"ADDRESS":"建業路１３７巷１２號","OBJECTID":224724},"geometry":{"x":178428.37999999989,"y":2577442.8700000029}},{"attributes":{"ID":224729,"DIS_CODE":0,"TOWNNAME":"新營區","LI":"新東里","LIN":"22鄰","STREET":"東明街","SECT":" ","MAREA":" ","LANE":"８０巷","ALLEY":" ","HOUSE_NO":"７號","E_COORD97":180833.85999999999,"N_COORD97":2579793.6299999999,"ADDRESS":"東明街８０巷７號","OBJECTID":224725},"geometry":{"x":180833.86000000127,"y":2579793.629999999}},{"attributes":{"ID":224730,"DIS_CODE":0,"TOWNNAME":"新營區","LI":"新東里","LIN":"22鄰","STREET":"東明街","SECT":" ","MAREA":" ","LANE":"８０巷","ALLEY":" ","HOUSE_NO":"１５號","E_COORD97":180862.69,"N_COORD97":2579794.6099999999,"ADDRESS":"東明街８０巷１５號","OBJECTID":224726},"geometry":{"x":180862.69000000134,"y":2579794.6099999975}},{"attributes":{"ID":224731,"DIS_CODE":0,"TOWNNAME":"新營區","LI":"大宏里","LIN":"22鄰","STREET":"開元路","SECT":" ","MAREA":" ","LANE":"７０巷","ALLEY":" ","HOUSE_NO":"２６號","E_COORD97":181111.23000000001,"N_COORD97":2578899.7400000002,"ADDRESS":"開元路７０巷２６號","OBJECTID":224727},"geometry":{"x":181111.23000000138,"y":2578899.7400000039}},{"attributes":{"ID":224732,"DIS_CODE":0,"TOWNNAME":"新營區","LI":"新南里","LIN":"22鄰","STREET":"復興路","SECT":" ","MAREA":" ","LANE":"６２０巷","ALLEY":" ","HOUSE_NO":"２８號","E_COORD97":178045.53,"N_COORD97":2578424.8300000001,"ADDRESS":"復興路６２０巷２８號","OBJECTID":224728},"geometry":{"x":178045.53000000212,"y":2578424.8300000019}},{"attributes":{"ID":224733,"DIS_CODE":0,"TOWNNAME":"新營區","LI":"南興里","LIN":"22鄰","STREET":"延平路","SECT":" ","MAREA":" ","LANE":"１４０巷","ALLEY":" ","HOUSE_NO":"３５之４號","E_COORD97":179576.48000000001,"N_COORD97":2577403.1000000001,"ADDRESS":"延平路１４０巷３５之４號","OBJECTID":224729},"geometry":{"x":179576.48000000045,"y":2577403.1000000015}},{"attributes":{"ID":224734,"DIS_CODE":0,"TOWNNAME":"新營區","LI":"民榮里","LIN":"22鄰","STREET":"裕民路","SECT":" ","MAREA":" ","LANE":"３４巷","ALLEY":" ","HOUSE_NO":"１７號","E_COORD97":179078.98000000001,"N_COORD97":2577870.54,"ADDRESS":"裕民路３４巷１７號","OBJECTID":224730},"geometry":{"x":179078.98000000138,"y":2577870.540000001}},{"attributes":{"ID":224735,"DIS_CODE":0,"TOWNNAME":"新營區","LI":"新南里","LIN":"22鄰","STREET":"復興路","SECT":" ","MAREA":" ","LANE":"６２０巷","ALLEY":" ","HOUSE_NO":"３６之２號","E_COORD97":178052.26999999999,"N_COORD97":2578450.3300000001,"ADDRESS":"復興路６２０巷３６之２號","OBJECTID":224731},"geometry":{"x":178052.27000000048,"y":2578450.3300000001}},{"attributes":{"ID":224736,"DIS_CODE":0,"TOWNNAME":"北區","LI":"永祥里","LIN":"22鄰","STREET":"大武街","SECT":" ","MAREA":" ","LANE":"５９７巷","ALLEY":" ","HOUSE_NO":"３６號","E_COORD97":170231.98999999999,"N_COORD97":2546562.25,"ADDRESS":"大武街５９７巷３６號","OBJECTID":224732},"geometry":{"x":170231.99000000022,"y":2546562.2500000019}},{"attributes":{"ID":224737,"DIS_CODE":0,"TOWNNAME":"東區","LI":"泉南里","LIN":"34鄰","STREET":"林森路","SECT":"一段","MAREA":" ","LANE":" ","ALLEY":" ","HOUSE_NO":"１４９號四樓之４","E_COORD97":169495.73000000001,"N_COORD97":2542552.3999999999,"ADDRESS":"林森路一段１４９號四樓之４","OBJECTID":224733},"geometry":{"x":169495.73000000138,"y":2542552.4000000004}},{"attributes":{"ID":224738,"DIS_CODE":0,"TOWNNAME":"東區","LI":"泉南里","LIN":"34鄰","STREET":"林森路","SECT":"一段","MAREA":" ","LANE":" ","ALLEY":" ","HOUSE_NO":"１４９號四樓之５","E_COORD97":169495.73000000001,"N_COORD97":2542552.3999999999,"ADDRESS":"林森路一段１４９號四樓之５","OBJECTID":224734},"geometry":{"x":169495.73000000138,"y":2542552.4000000004}},{"attributes":{"ID":224739,"DIS_CODE":0,"TOWNNAME":"東區","LI":"泉南里","LIN":"34鄰","STREET":"林森路","SECT":"一段","MAREA":" ","LANE":" ","ALLEY":" ","HOUSE_NO":"１４９號四樓之６","E_COORD97":169495.73000000001,"N_COORD97":2542552.3999999999,"ADDRESS":"林森路一段１４９號四樓之６","OBJECTID":224735},"geometry":{"x":169495.73000000138,"y":2542552.4000000004}},{"attributes":{"ID":224740,"DIS_CODE":0,"TOWNNAME":"東山區","LI":"東原里","LIN":"29鄰","STREET":" ","SECT":" ","MAREA":"瓦厝子","LANE":" ","ALLEY":" ","HOUSE_NO":"２７號之１０","E_COORD97":194451.89000000001,"N_COORD97":2574861.6499999999,"ADDRESS":"瓦厝子２７號之１０","OBJECTID":224736},"geometry":{"x":194451.89000000153,"y":2574861.6500000004}},{"attributes":{"ID":224741,"DIS_CODE":0,"TOWNNAME":"東山區","LI":"東原里","LIN":"29鄰","STREET":" ","SECT":" ","MAREA":"瓦厝子","LANE":" ","ALLEY":" ","HOUSE_NO":"６９號之１","E_COORD97":194073.32000000001,"N_COORD97":2574900.8900000001,"ADDRESS":"瓦厝子６９號之１","OBJECTID":224737},"geometry":{"x":194073.32000000216,"y":2574900.8900000006}},{"attributes":{"ID":224742,"DIS_CODE":0,"TOWNNAME":"東山區","LI":"東原里","LIN":"29鄰","STREET":" ","SECT":" ","MAREA":"瓦厝子","LANE":" ","ALLEY":" ","HOUSE_NO":"６９號","E_COORD97":193762.98000000001,"N_COORD97":2574856.8599999999,"ADDRESS":"瓦厝子６９號","OBJECTID":224738},"geometry":{"x":193762.98000000045,"y":2574856.8600000031}},{"attributes":{"ID":224743,"DIS_CODE":0,"TOWNNAME":"東山區","LI":"東原里","LIN":"29鄰","STREET":" ","SECT":" ","MAREA":"瓦厝子","LANE":" ","ALLEY":" ","HOUSE_NO":"７１號","E_COORD97":193987.17000000001,"N_COORD97":2574647.23,"ADDRESS":"瓦厝子７１號","OBJECTID":224739},"geometry":{"x":193987.16999999993,"y":2574647.2300000004}},{"attributes":{"ID":224744,"DIS_CODE":0,"TOWNNAME":"新營區","LI":"忠政里","LIN":"29鄰","STREET":"府西路","SECT":" ","MAREA":" ","LANE":"８７巷","ALLEY":" ","HOUSE_NO":"５３號","E_COORD97":179698.82999999999,"N_COORD97":2579155.5600000001,"ADDRESS":"府西路８７巷５３號","OBJECTID":224740},"geometry":{"x":179698.83000000007,"y":2579155.5600000042}},{"attributes":{"ID":224745,"DIS_CODE":0,"TOWNNAME":"新營區","LI":"忠政里","LIN":"29鄰","STREET":"中正路","SECT":" ","MAREA":" ","LANE":"３９巷","ALLEY":" ","HOUSE_NO":"９４號","E_COORD97":179755.51999999999,"N_COORD97":2579256.0699999998,"ADDRESS":"中正路３９巷９４號","OBJECTID":224741},"geometry":{"x":179755.52000000048,"y":2579256.0700000003}},{"attributes":{"ID":224746,"DIS_CODE":0,"TOWNNAME":"北區","LI":"永祥里","LIN":"22鄰","STREET":"大武街","SECT":" ","MAREA":" ","LANE":"５９７巷","ALLEY":" ","HOUSE_NO":"３８號","E_COORD97":170232.51999999999,"N_COORD97":2546569.3399999999,"ADDRESS":"大武街５９７巷３８號","OBJECTID":224742},"geometry":{"x":170232.51999999955,"y":2546569.3400000017}},{"attributes":{"ID":224747,"DIS_CODE":0,"TOWNNAME":"北區","LI":"永祥里","LIN":"22鄰","STREET":"大武街","SECT":" ","MAREA":" ","LANE":"５９７巷","ALLEY":" ","HOUSE_NO":"４０號","E_COORD97":170233.70000000001,"N_COORD97":2546572.23,"ADDRESS":"大武街５９７巷４０號","OBJECTID":224743},"geometry":{"x":170233.70000000019,"y":2546572.2300000004}},{"attributes":{"ID":224748,"DIS_CODE":0,"TOWNNAME":"北區","LI":"永祥里","LIN":"22鄰","STREET":"大武街","SECT":" ","MAREA":" ","LANE":"５９７巷","ALLEY":" ","HOUSE_NO":"４２之１號","E_COORD97":170236.51000000001,"N_COORD97":2546580.2799999998,"ADDRESS":"大武街５９７巷４２之１號","OBJECTID":224744},"geometry":{"x":170236.50999999978,"y":2546580.2799999993}},{"attributes":{"ID":224749,"DIS_CODE":0,"TOWNNAME":"北區","LI":"永祥里","LIN":"22鄰","STREET":"大武街","SECT":" ","MAREA":" ","LANE":"５９７巷","ALLEY":" ","HOUSE_NO":"４２號","E_COORD97":170235.10999999999,"N_COORD97":2546576.6800000002,"ADDRESS":"大武街５９７巷４２號","OBJECTID":224745},"geometry":{"x":170235.11000000034,"y":2546576.6800000016}},{"attributes":{"ID":224750,"DIS_CODE":0,"TOWNNAME":"北區","LI":"永祥里","LIN":"22鄰","STREET":"大武街","SECT":" ","MAREA":" ","LANE":"５９７巷","ALLEY":" ","HOUSE_NO":"４６號","E_COORD97":170239.57000000001,"N_COORD97":2546583.4900000002,"ADDRESS":"大武街５９７巷４６號","OBJECTID":224746},"geometry":{"x":170239.57000000123,"y":2546583.4900000002}},{"attributes":{"ID":224751,"DIS_CODE":0,"TOWNNAME":"北區","LI":"永祥里","LIN":"22鄰","STREET":"大武街","SECT":" ","MAREA":" ","LANE":"５９７巷","ALLEY":" ","HOUSE_NO":"４８號","E_COORD97":170241.13,"N_COORD97":2546587.79,"ADDRESS":"大武街５９７巷４８號","OBJECTID":224747},"geometry":{"x":170241.12999999989,"y":2546587.7900000028}},{"attributes":{"ID":224752,"DIS_CODE":0,"TOWNNAME":"北區","LI":"永祥里","LIN":"22鄰","STREET":"大武街","SECT":" ","MAREA":" ","LANE":"５９７巷","ALLEY":" ","HOUSE_NO":"５０號","E_COORD97":170243.95000000001,"N_COORD97":2546591.7000000002,"ADDRESS":"大武街５９７巷５０號","OBJECTID":224748},"geometry":{"x":170243.95000000019,"y":2546591.6999999993}},{"attributes":{"ID":224753,"DIS_CODE":0,"TOWNNAME":"北區","LI":"永祥里","LIN":"22鄰","STREET":"大武街","SECT":" ","MAREA":" ","LANE":"５９７巷","ALLEY":" ","HOUSE_NO":"５２號","E_COORD97":170246.92000000001,"N_COORD97":2546595.6000000001,"ADDRESS":"大武街５９７巷５２號","OBJECTID":224749},"geometry":{"x":170246.92000000086,"y":2546595.5999999996}},{"attributes":{"ID":224754,"DIS_CODE":0,"TOWNNAME":"北區","LI":"永祥里","LIN":"22鄰","STREET":"大武街","SECT":" ","MAREA":" ","LANE":"５９７巷","ALLEY":" ","HOUSE_NO":"５６號","E_COORD97":170252.19,"N_COORD97":2546604.3900000001,"ADDRESS":"大武街５９７巷５６號","OBJECTID":224750},"geometry":{"x":170252.19000000134,"y":2546604.3900000006}},{"attributes":{"ID":224755,"DIS_CODE":0,"TOWNNAME":"北區","LI":"永祥里","LIN":"22鄰","STREET":"大武街","SECT":" ","MAREA":" ","LANE":"５９７巷","ALLEY":" ","HOUSE_NO":"５８號","E_COORD97":170255,"N_COORD97":2546607.9700000002,"ADDRESS":"大武街５９７巷５８號","OBJECTID":224751},"geometry":{"x":170255.00000000093,"y":2546607.9700000007}},{"attributes":{"ID":224756,"DIS_CODE":0,"TOWNNAME":"東區","LI":"泉南里","LIN":"34鄰","STREET":"林森路","SECT":"一段","MAREA":" ","LANE":" ","ALLEY":" ","HOUSE_NO":"１４９號四樓之７","E_COORD97":169495.73000000001,"N_COORD97":2542552.3999999999,"ADDRESS":"林森路一段１４９號四樓之７","OBJECTID":224752},"geometry":{"x":169495.73000000138,"y":2542552.4000000004}},{"attributes":{"ID":224757,"DIS_CODE":0,"TOWNNAME":"東區","LI":"泉南里","LIN":"34鄰","STREET":"林森路","SECT":"一段","MAREA":" ","LANE":" ","ALLEY":" ","HOUSE_NO":"１４９號四樓之８","E_COORD97":169495.73000000001,"N_COORD97":2542552.3999999999,"ADDRESS":"林森路一段１４９號四樓之８","OBJECTID":224753},"geometry":{"x":169495.73000000138,"y":2542552.4000000004}},{"attributes":{"ID":224758,"DIS_CODE":0,"TOWNNAME":"歸仁區","LI":"新厝里","LIN":"29鄰","STREET":"中正南路","SECT":"一段","MAREA":" ","LANE":"４５３巷","ALLEY":" ","HOUSE_NO":"６號","E_COORD97":176930.92000000001,"N_COORD97":2539996.79,"ADDRESS":"中正南路一段４５３巷６號","OBJECTID":224754},"geometry":{"x":176930.92000000086,"y":2539996.7899999972}},{"attributes":{"ID":224759,"DIS_CODE":0,"TOWNNAME":"歸仁區","LI":"新厝里","LIN":"29鄰","STREET":"中正南路","SECT":"一段","MAREA":" ","LANE":"４５３巷","ALLEY":" ","HOUSE_NO":"５０號","E_COORD97":176977.17000000001,"N_COORD97":2539961.79,"ADDRESS":"中正南路一段４５３巷５０號","OBJECTID":224755},"geometry":{"x":176977.16999999993,"y":2539961.7899999991}},{"attributes":{"ID":224760,"DIS_CODE":0,"TOWNNAME":"歸仁區","LI":"新厝里","LIN":"29鄰","STREET":"中正南路","SECT":"一段","MAREA":" ","LANE":"４５３巷","ALLEY":" ","HOUSE_NO":"５８號","E_COORD97":177018.66,"N_COORD97":2539943.2799999998,"ADDRESS":"中正南路一段４５３巷５８號","OBJECTID":224756},"geometry":{"x":177018.66000000015,"y":2539943.2800000031}},{"attributes":{"ID":224761,"DIS_CODE":0,"TOWNNAME":"歸仁區","LI":"新厝里","LIN":"29鄰","STREET":"中正南路","SECT":"一段","MAREA":" ","LANE":"４５３巷","ALLEY":" ","HOUSE_NO":"４２號","E_COORD97":176967.97,"N_COORD97":2539971.79,"ADDRESS":"中正南路一段４５３巷４２號","OBJECTID":224757},"geometry":{"x":176967.97000000067,"y":2539971.7899999991}},{"attributes":{"ID":224762,"DIS_CODE":0,"TOWNNAME":"歸仁區","LI":"新厝里","LIN":"29鄰","STREET":"中正南路","SECT":"一段","MAREA":" ","LANE":"４５３巷","ALLEY":" ","HOUSE_NO":"６０號","E_COORD97":177023.85999999999,"N_COORD97":2539946.2799999998,"ADDRESS":"中正南路一段４５３巷６０號","OBJECTID":224758},"geometry":{"x":177023.86000000034,"y":2539946.2800000031}},{"attributes":{"ID":224763,"DIS_CODE":0,"TOWNNAME":"歸仁區","LI":"新厝里","LIN":"29鄰","STREET":"中正南路","SECT":"一段","MAREA":" ","LANE":"４５３巷","ALLEY":" ","HOUSE_NO":"４０號","E_COORD97":176963.87,"N_COORD97":2539975.79,"ADDRESS":"中正南路一段４５３巷４０號","OBJECTID":224759},"geometry":{"x":176963.87000000104,"y":2539975.7899999991}},{"attributes":{"ID":224764,"DIS_CODE":0,"TOWNNAME":"歸仁區","LI":"新厝里","LIN":"29鄰","STREET":"中正南路","SECT":"一段","MAREA":" ","LANE":"４５３巷","ALLEY":" ","HOUSE_NO":"４８號","E_COORD97":176974.17000000001,"N_COORD97":2539965.79,"ADDRESS":"中正南路一段４５３巷４８號","OBJECTID":224760},"geometry":{"x":176974.16999999993,"y":2539965.7899999991}},{"attributes":{"ID":224765,"DIS_CODE":0,"TOWNNAME":"歸仁區","LI":"新厝里","LIN":"29鄰","STREET":"中正南路","SECT":"一段","MAREA":" ","LANE":"４５３巷","ALLEY":" ","HOUSE_NO":"３４號","E_COORD97":176952.67000000001,"N_COORD97":2539989.79,"ADDRESS":"中正南路一段４５３巷３４號","OBJECTID":224761},"geometry":{"x":176952.67000000086,"y":2539989.7899999991}},{"attributes":{"ID":224766,"DIS_CODE":0,"TOWNNAME":"歸仁區","LI":"新厝里","LIN":"29鄰","STREET":"中正南路","SECT":"一段","MAREA":" ","LANE":"４５３巷","ALLEY":" ","HOUSE_NO":"１６號","E_COORD97":176954.97,"N_COORD97":2540032.79,"ADDRESS":"中正南路一段４５３巷１６號","OBJECTID":224762},"geometry":{"x":176954.96999999974,"y":2540032.7899999991}},{"attributes":{"ID":224767,"DIS_CODE":0,"TOWNNAME":"歸仁區","LI":"新厝里","LIN":"29鄰","STREET":"中正南路","SECT":"一段","MAREA":" ","LANE":"４５３巷","ALLEY":" ","HOUSE_NO":"３６號","E_COORD97":176956.76999999999,"N_COORD97":2539985.79,"ADDRESS":"中正南路一段４５３巷３６號","OBJECTID":224763},"geometry":{"x":176956.77000000048,"y":2539985.7899999991}},{"attributes":{"ID":224768,"DIS_CODE":0,"TOWNNAME":"東區","LI":"崇誨里","LIN":"25鄰","STREET":"東寧路","SECT":" ","MAREA":" ","LANE":"２７２巷","ALLEY":" ","HOUSE_NO":"２號","E_COORD97":170627.67999999999,"N_COORD97":2543430.5699999998,"ADDRESS":"東寧路２７２巷２號","OBJECTID":224764},"geometry":{"x":170627.68000000063,"y":2543430.5699999984}},{"attributes":{"ID":224769,"DIS_CODE":0,"TOWNNAME":"歸仁區","LI":"新厝里","LIN":"29鄰","STREET":"中正南路","SECT":"一段","MAREA":" ","LANE":"４５３巷","ALLEY":" ","HOUSE_NO":"６４號","E_COORD97":177024.31,"N_COORD97":2539951.25,"ADDRESS":"中正南路一段４５３巷６４號","OBJECTID":224765},"geometry":{"x":177024.31000000052,"y":2539951.2500000019}},{"attributes":{"ID":224770,"DIS_CODE":0,"TOWNNAME":"北區","LI":"永祥里","LIN":"22鄰","STREET":"大武街","SECT":" ","MAREA":" ","LANE":"５９７巷","ALLEY":" ","HOUSE_NO":"６０號","E_COORD97":170257.94,"N_COORD97":2546611.9300000002,"ADDRESS":"大武街５９７巷６０號","OBJECTID":224766},"geometry":{"x":170257.94000000041,"y":2546611.9300000016}},{"attributes":{"ID":224771,"DIS_CODE":0,"TOWNNAME":"東區","LI":"泉南里","LIN":"34鄰","STREET":"林森路","SECT":"一段","MAREA":" ","LANE":" ","ALLEY":" ","HOUSE_NO":"１４９號五樓","E_COORD97":169495.73000000001,"N_COORD97":2542552.3999999999,"ADDRESS":"林森路一段１４９號五樓","OBJECTID":224767},"geometry":{"x":169495.73000000138,"y":2542552.4000000004}},{"attributes":{"ID":224772,"DIS_CODE":0,"TOWNNAME":"東區","LI":"泉南里","LIN":"34鄰","STREET":"林森路","SECT":"一段","MAREA":" ","LANE":" ","ALLEY":" ","HOUSE_NO":"１４９號五樓之１","E_COORD97":169495.73000000001,"N_COORD97":2542552.3999999999,"ADDRESS":"林森路一段１４９號五樓之１","OBJECTID":224768},"geometry":{"x":169495.73000000138,"y":2542552.4000000004}},{"attributes":{"ID":224773,"DIS_CODE":0,"TOWNNAME":"東區","LI":"泉南里","LIN":"34鄰","STREET":"林森路","SECT":"一段","MAREA":" ","LANE":" ","ALLEY":" ","HOUSE_NO":"１４９號五樓之２","E_COORD97":169495.73000000001,"N_COORD97":2542552.3999999999,"ADDRESS":"林森路一段１４９號五樓之２","OBJECTID":224769},"geometry":{"x":169495.73000000138,"y":2542552.4000000004}},{"attributes":{"ID":224774,"DIS_CODE":0,"TOWNNAME":"東區","LI":"泉南里","LIN":"34鄰","STREET":"林森路","SECT":"一段","MAREA":" ","LANE":" ","ALLEY":" ","HOUSE_NO":"１４９號五樓之３","E_COORD97":169495.73000000001,"N_COORD97":2542552.3999999999,"ADDRESS":"林森路一段１４９號五樓之３","OBJECTID":224770},"geometry":{"x":169495.73000000138,"y":2542552.4000000004}},{"attributes":{"ID":224775,"DIS_CODE":0,"TOWNNAME":"東區","LI":"泉南里","LIN":"34鄰","STREET":"林森路","SECT":"一段","MAREA":" ","LANE":" ","ALLEY":" ","HOUSE_NO":"１４９號五樓之４","E_COORD97":169495.73000000001,"N_COORD97":2542552.3999999999,"ADDRESS":"林森路一段１４９號五樓之４","OBJECTID":224771},"geometry":{"x":169495.73000000138,"y":2542552.4000000004}},{"attributes":{"ID":224776,"DIS_CODE":0,"TOWNNAME":"東區","LI":"泉南里","LIN":"34鄰","STREET":"林森路","SECT":"一段","MAREA":" ","LANE":" ","ALLEY":" ","HOUSE_NO":"１４９號五樓之５","E_COORD97":169495.73000000001,"N_COORD97":2542552.3999999999,"ADDRESS":"林森路一段１４９號五樓之５","OBJECTID":224772},"geometry":{"x":169495.73000000138,"y":2542552.4000000004}},{"attributes":{"ID":224777,"DIS_CODE":0,"TOWNNAME":"東區","LI":"泉南里","LIN":"34鄰","STREET":"林森路","SECT":"一段","MAREA":" ","LANE":" ","ALLEY":" ","HOUSE_NO":"１４９號五樓之６","E_COORD97":169495.73000000001,"N_COORD97":2542552.3999999999,"ADDRESS":"林森路一段１４９號五樓之６","OBJECTID":224773},"geometry":{"x":169495.73000000138,"y":2542552.4000000004}},{"attributes":{"ID":224778,"DIS_CODE":0,"TOWNNAME":"東區","LI":"泉南里","LIN":"34鄰","STREET":"林森路","SECT":"一段","MAREA":" ","LANE":" ","ALLEY":" ","HOUSE_NO":"１４９號五樓之７","E_COORD97":169495.73000000001,"N_COORD97":2542552.3999999999,"ADDRESS":"林森路一段１４９號五樓之７","OBJECTID":224774},"geometry":{"x":169495.73000000138,"y":2542552.4000000004}},{"attributes":{"ID":224779,"DIS_CODE":0,"TOWNNAME":"東區","LI":"泉南里","LIN":"34鄰","STREET":"林森路","SECT":"一段","MAREA":" ","LANE":" ","ALLEY":" ","HOUSE_NO":"１４９號五樓之８","E_COORD97":169495.73000000001,"N_COORD97":2542552.3999999999,"ADDRESS":"林森路一段１４９號五樓之８","OBJECTID":224775},"geometry":{"x":169495.73000000138,"y":2542552.4000000004}},{"attributes":{"ID":224780,"DIS_CODE":0,"TOWNNAME":"東區","LI":"泉南里","LIN":"34鄰","STREET":"林森路","SECT":"一段","MAREA":" ","LANE":" ","ALLEY":" ","HOUSE_NO":"１４９號五樓之９","E_COORD97":169495.73000000001,"N_COORD97":2542552.3999999999,"ADDRESS":"林森路一段１４９號五樓之９","OBJECTID":224776},"geometry":{"x":169495.73000000138,"y":2542552.4000000004}},{"attributes":{"ID":224781,"DIS_CODE":0,"TOWNNAME":"歸仁區","LI":"許厝里","LIN":"29鄰","STREET":"中山路","SECT":"一段","MAREA":" ","LANE":"５１５巷","ALLEY":" ","HOUSE_NO":"１２號","E_COORD97":177956.01000000001,"N_COORD97":2540681.54,"ADDRESS":"中山路一段５１５巷１２號","OBJECTID":224777},"geometry":{"x":177956.01000000071,"y":2540681.540000001}},{"attributes":{"ID":224782,"DIS_CODE":0,"TOWNNAME":"歸仁區","LI":"南保里","LIN":"29鄰","STREET":"民權北路","SECT":" ","MAREA":" ","LANE":"６１巷","ALLEY":" ","HOUSE_NO":"３１號","E_COORD97":176877.73999999999,"N_COORD97":2541034.29,"ADDRESS":"民權北路６１巷３１號","OBJECTID":224778},"geometry":{"x":176877.74000000209,"y":2541034.2900000028}},{"attributes":{"ID":224783,"DIS_CODE":0,"TOWNNAME":"歸仁區","LI":"南保里","LIN":"29鄰","STREET":"民權北路","SECT":" ","MAREA":" ","LANE":"６１巷","ALLEY":" ","HOUSE_NO":"４３號","E_COORD97":176853.14000000001,"N_COORD97":2541036.29,"ADDRESS":"民權北路６１巷４３號","OBJECTID":224779},"geometry":{"x":176853.1400000006,"y":2541036.2899999991}},{"attributes":{"ID":224784,"DIS_CODE":0,"TOWNNAME":"歸仁區","LI":"南保里","LIN":"29鄰","STREET":"民權北路","SECT":" ","MAREA":" ","LANE":"６１巷","ALLEY":" ","HOUSE_NO":"５７號","E_COORD97":176828.54000000001,"N_COORD97":2541039.29,"ADDRESS":"民權北路６１巷５７號","OBJECTID":224780},"geometry":{"x":176828.54000000097,"y":2541039.290000001}},{"attributes":{"ID":224785,"DIS_CODE":0,"TOWNNAME":"歸仁區","LI":"南保里","LIN":"29鄰","STREET":"民權北路","SECT":" ","MAREA":" ","LANE":"６１巷","ALLEY":" ","HOUSE_NO":"４５號","E_COORD97":176849.04000000001,"N_COORD97":2541036.29,"ADDRESS":"民權北路６１巷４５號","OBJECTID":224781},"geometry":{"x":176849.04000000097,"y":2541036.2899999991}},{"attributes":{"ID":224786,"DIS_CODE":0,"TOWNNAME":"歸仁區","LI":"南保里","LIN":"29鄰","STREET":"民權北路","SECT":" ","MAREA":" ","LANE":"６１巷","ALLEY":" ","HOUSE_NO":"３７號","E_COORD97":176865.44,"N_COORD97":2541035.29,"ADDRESS":"民權北路６１巷３７號","OBJECTID":224782},"geometry":{"x":176865.44000000134,"y":2541035.290000001}},{"attributes":{"ID":224787,"DIS_CODE":0,"TOWNNAME":"歸仁區","LI":"南保里","LIN":"29鄰","STREET":"民權北路","SECT":" ","MAREA":" ","LANE":"６１巷","ALLEY":" ","HOUSE_NO":"５３號","E_COORD97":176834.64000000001,"N_COORD97":2541038.29,"ADDRESS":"民權北路６１巷５３號","OBJECTID":224783},"geometry":{"x":176834.63999999966,"y":2541038.290000001}},{"attributes":{"ID":224788,"DIS_CODE":0,"TOWNNAME":"歸仁區","LI":"南保里","LIN":"29鄰","STREET":"民權北路","SECT":" ","MAREA":" ","LANE":"６１巷","ALLEY":" ","HOUSE_NO":"３５號","E_COORD97":176869.54000000001,"N_COORD97":2541034.29,"ADDRESS":"民權北路６１巷３５號","OBJECTID":224784},"geometry":{"x":176869.54000000097,"y":2541034.2900000028}},{"attributes":{"ID":224789,"DIS_CODE":0,"TOWNNAME":"歸仁區","LI":"南保里","LIN":"29鄰","STREET":"民權北路","SECT":" ","MAREA":" ","LANE":"６１巷","ALLEY":" ","HOUSE_NO":"４１號","E_COORD97":176857.23999999999,"N_COORD97":2541035.29,"ADDRESS":"民權北路６１巷４１號","OBJECTID":224785},"geometry":{"x":176857.24000000022,"y":2541035.290000001}},{"attributes":{"ID":224790,"DIS_CODE":0,"TOWNNAME":"北區","LI":"永祥里","LIN":"22鄰","STREET":"大武街","SECT":" ","MAREA":" ","LANE":"５９７巷","ALLEY":" ","HOUSE_NO":"６２號","E_COORD97":170260.44,"N_COORD97":2546615.8900000001,"ADDRESS":"大武街５９７巷６２號","OBJECTID":224786},"geometry":{"x":170260.44000000134,"y":2546615.8900000043}},{"attributes":{"ID":224791,"DIS_CODE":0,"TOWNNAME":"北區","LI":"永祥里","LIN":"22鄰","STREET":"大武街","SECT":" ","MAREA":" ","LANE":"５９７巷","ALLEY":" ","HOUSE_NO":"６４號","E_COORD97":170264.01999999999,"N_COORD97":2546619.8500000001,"ADDRESS":"大武街５９７巷６４號","OBJECTID":224787},"geometry":{"x":170264.02000000048,"y":2546619.8500000015}},{"attributes":{"ID":224792,"DIS_CODE":0,"TOWNNAME":"北區","LI":"永祥里","LIN":"22鄰","STREET":"大武街","SECT":" ","MAREA":" ","LANE":"５９７巷","ALLEY":" ","HOUSE_NO":"６６號","E_COORD97":170265.69,"N_COORD97":2546623.6499999999,"ADDRESS":"大武街５９７巷６６號","OBJECTID":224788},"geometry":{"x":170265.69000000134,"y":2546623.6500000004}},{"attributes":{"ID":224793,"DIS_CODE":0,"TOWNNAME":"北區","LI":"永祥里","LIN":"22鄰","STREET":"大武街","SECT":" ","MAREA":" ","LANE":"５９７巷","ALLEY":" ","HOUSE_NO":"７０號","E_COORD97":170272.28,"N_COORD97":2546630.23,"ADDRESS":"大武街５９７巷７０號","OBJECTID":224789},"geometry":{"x":170272.28000000026,"y":2546630.2300000042}},{"attributes":{"ID":224794,"DIS_CODE":0,"TOWNNAME":"南區","LI":"新興里","LIN":"22鄰","STREET":"金華路","SECT":"二段","MAREA":" ","LANE":"３４巷","ALLEY":" ","HOUSE_NO":"１７號","E_COORD97":167118.57999999999,"N_COORD97":2541914.6699999999,"ADDRESS":"金華路二段３４巷１７號","OBJECTID":224790},"geometry":{"x":167118.58000000101,"y":2541914.6700000018}},{"attributes":{"ID":224795,"DIS_CODE":0,"TOWNNAME":"南區","LI":"新興里","LIN":"22鄰","STREET":"金華路","SECT":"二段","MAREA":" ","LANE":"３４巷","ALLEY":" ","HOUSE_NO":"１９號","E_COORD97":167120.38,"N_COORD97":2541920.6800000002,"ADDRESS":"金華路二段３４巷１９號","OBJECTID":224791},"geometry":{"x":167120.37999999989,"y":2541920.6800000034}},{"attributes":{"ID":224796,"DIS_CODE":0,"TOWNNAME":"南區","LI":"新興里","LIN":"22鄰","STREET":"金華路","SECT":"二段","MAREA":" ","LANE":"３４巷","ALLEY":" ","HOUSE_NO":"２１號","E_COORD97":167124.79000000001,"N_COORD97":2541923.6800000002,"ADDRESS":"金華路二段３４巷２１號","OBJECTID":224792},"geometry":{"x":167124.7900000019,"y":2541923.6799999997}},{"attributes":{"ID":224797,"DIS_CODE":0,"TOWNNAME":"南區","LI":"新興里","LIN":"22鄰","STREET":"金華路","SECT":"二段","MAREA":" ","LANE":"３４巷","ALLEY":" ","HOUSE_NO":"２３號","E_COORD97":167122.98999999999,"N_COORD97":2541927.0899999999,"ADDRESS":"金華路二段３４巷２３號","OBJECTID":224793},"geometry":{"x":167122.99000000022,"y":2541927.0899999999}},{"attributes":{"ID":224798,"DIS_CODE":0,"TOWNNAME":"南區","LI":"新興里","LIN":"22鄰","STREET":"金華路","SECT":"二段","MAREA":" ","LANE":"３４巷","ALLEY":" ","HOUSE_NO":"２５號","E_COORD97":167125.79000000001,"N_COORD97":2541929.6899999999,"ADDRESS":"金華路二段３４巷２５號","OBJECTID":224794},"geometry":{"x":167125.79000000004,"y":2541929.6899999995}},{"attributes":{"ID":224799,"DIS_CODE":0,"TOWNNAME":"東區","LI":"泉南里","LIN":"34鄰","STREET":"林森路","SECT":"一段","MAREA":" ","LANE":" ","ALLEY":" ","HOUSE_NO":"１４９號五樓之１０","E_COORD97":169495.73000000001,"N_COORD97":2542552.3999999999,"ADDRESS":"林森路一段１４９號五樓之１０","OBJECTID":224795},"geometry":{"x":169495.73000000138,"y":2542552.4000000004}},{"attributes":{"ID":224800,"DIS_CODE":0,"TOWNNAME":"東區","LI":"泉南里","LIN":"34鄰","STREET":"林森路","SECT":"一段","MAREA":" ","LANE":" ","ALLEY":" ","HOUSE_NO":"１４９號五樓之１１","E_COORD97":169495.73000000001,"N_COORD97":2542552.3999999999,"ADDRESS":"林森路一段１４９號五樓之１１","OBJECTID":224796},"geometry":{"x":169495.73000000138,"y":2542552.4000000004}},{"attributes":{"ID":224801,"DIS_CODE":0,"TOWNNAME":"東區","LI":"泉南里","LIN":"34鄰","STREET":"林森路","SECT":"一段","MAREA":" ","LANE":" ","ALLEY":" ","HOUSE_NO":"１４９號五樓之１２","E_COORD97":169495.73000000001,"N_COORD97":2542552.3999999999,"ADDRESS":"林森路一段１４９號五樓之１２","OBJECTID":224797},"geometry":{"x":169495.73000000138,"y":2542552.4000000004}},{"attributes":{"ID":224802,"DIS_CODE":0,"TOWNNAME":"東區","LI":"泉南里","LIN":"34鄰","STREET":"林森路","SECT":"一段","MAREA":" ","LANE":" ","ALLEY":" ","HOUSE_NO":"１４９號六樓","E_COORD97":169495.73000000001,"N_COORD97":2542552.3999999999,"ADDRESS":"林森路一段１４９號六樓","OBJECTID":224798},"geometry":{"x":169495.73000000138,"y":2542552.4000000004}},{"attributes":{"ID":224803,"DIS_CODE":0,"TOWNNAME":"東區","LI":"泉南里","LIN":"34鄰","STREET":"林森路","SECT":"一段","MAREA":" ","LANE":" ","ALLEY":" ","HOUSE_NO":"１４９號六樓之１","E_COORD97":169495.73000000001,"N_COORD97":2542552.3999999999,"ADDRESS":"林森路一段１４９號六樓之１","OBJECTID":224799},"geometry":{"x":169495.73000000138,"y":2542552.4000000004}},{"attributes":{"ID":224804,"DIS_CODE":0,"TOWNNAME":"東區","LI":"泉南里","LIN":"34鄰","STREET":"林森路","SECT":"一段","MAREA":" ","LANE":" ","ALLEY":" ","HOUSE_NO":"１４９號六樓之２","E_COORD97":169495.73000000001,"N_COORD97":2542552.3999999999,"ADDRESS":"林森路一段１４９號六樓之２","OBJECTID":224800},"geometry":{"x":169495.73000000138,"y":2542552.4000000004}}]}