{"displayFieldName":"TOWNNAME","fieldAliases":{"ID":"ID","DIS_CODE":"DIS_CODE","TOWNNAME":"TOWNNAME","LI":"LI","LIN":"LIN","STREET":"STREET","SECT":"SECT","MAREA":"MAREA","LANE":"LANE","ALLEY":"ALLEY","HOUSE_NO":"HOUSE_NO","E_COORD97":"E_COORD97","N_COORD97":"N_COORD97","ADDRESS":"ADDRESS","OBJECTID":"OBJECTID"},"geometryType":"esriGeometryPoint","spatialReference":{"wkid":102443,"latestWkid":3826},"fields":[{"name":"ID","type":"esriFieldTypeDouble","alias":"ID"},{"name":"DIS_CODE","type":"esriFieldTypeInteger","alias":"DIS_CODE"},{"name":"TOWNNAME","type":"esriFieldTypeString","alias":"TOWNNAME","length":8},{"name":"LI","type":"esriFieldTypeString","alias":"LI","length":8},{"name":"LIN","type":"esriFieldTypeString","alias":"LIN","length":12},{"name":"STREET","type":"esriFieldTypeString","alias":"STREET","length":20},{"name":"SECT","type":"esriFieldTypeString","alias":"SECT","length":8},{"name":"MAREA","type":"esriFieldTypeString","alias":"MAREA","length":12},{"name":"LANE","type":"esriFieldTypeString","alias":"LANE","length":10},{"name":"ALLEY","type":"esriFieldTypeString","alias":"ALLEY","length":10},{"name":"HOUSE_NO","type":"esriFieldTypeString","alias":"HOUSE_NO","length":20},{"name":"E_COORD97","type":"esriFieldTypeDouble","alias":"E_COORD97"},{"name":"N_COORD97","type":"esriFieldTypeDouble","alias":"N_COORD97"},{"name":"ADDRESS","type":"esriFieldTypeString","alias":"ADDRESS","length":50},{"name":"OBJECTID","type":"esriFieldTypeOID","alias":"OBJECTID"}],"features":[{"attributes":{"ID":413025,"DIS_CODE":0,"TOWNNAME":"東區","LI":"小東里","LIN":"3鄰","STREET":"小東路","SECT":" ","MAREA":" ","LANE":"１９８巷","ALLEY":" ","HOUSE_NO":"３５號","E_COORD97":170858.07000000001,"N_COORD97":2544366.46,"ADDRESS":"小東路１９８巷３５號","OBJECTID":413001},"geometry":{"x":170858.07000000123,"y":2544366.4600000009}},{"attributes":{"ID":413026,"DIS_CODE":0,"TOWNNAME":"東區","LI":"小東里","LIN":"3鄰","STREET":"小東路","SECT":" ","MAREA":" ","LANE":"１９８巷","ALLEY":" ","HOUSE_NO":"４１號","E_COORD97":170837.73999999999,"N_COORD97":2544354.0800000001,"ADDRESS":"小東路１９８巷４１號","OBJECTID":413002},"geometry":{"x":170837.74000000209,"y":2544354.0800000019}},{"attributes":{"ID":413027,"DIS_CODE":0,"TOWNNAME":"東區","LI":"仁和里","LIN":"3鄰","STREET":"仁和路","SECT":" ","MAREA":" ","LANE":"１０９巷","ALLEY":" ","HOUSE_NO":"６號","E_COORD97":171401.51000000001,"N_COORD97":2541319.98,"ADDRESS":"仁和路１０９巷６號","OBJECTID":413003},"geometry":{"x":171401.50999999978,"y":2541319.9800000023}},{"attributes":{"ID":413028,"DIS_CODE":0,"TOWNNAME":"東區","LI":"仁和里","LIN":"3鄰","STREET":"仁和路","SECT":" ","MAREA":" ","LANE":"１０９巷","ALLEY":" ","HOUSE_NO":"８號","E_COORD97":171405.22,"N_COORD97":2541322.2000000002,"ADDRESS":"仁和路１０９巷８號","OBJECTID":413004},"geometry":{"x":171405.2200000016,"y":2541322.1999999993}},{"attributes":{"ID":413029,"DIS_CODE":0,"TOWNNAME":"東區","LI":"仁和里","LIN":"3鄰","STREET":"仁和路","SECT":" ","MAREA":" ","LANE":"１０９巷","ALLEY":" ","HOUSE_NO":"１０號","E_COORD97":171409.12,"N_COORD97":2541319.4199999999,"ADDRESS":"仁和路１０９巷１０號","OBJECTID":413005},"geometry":{"x":171409.12000000011,"y":2541319.4200000037}},{"attributes":{"ID":413030,"DIS_CODE":0,"TOWNNAME":"東區","LI":"仁和里","LIN":"3鄰","STREET":"仁和路","SECT":" ","MAREA":" ","LANE":"１０９巷","ALLEY":" ","HOUSE_NO":"１２號","E_COORD97":171412.26999999999,"N_COORD97":2541321.8300000001,"ADDRESS":"仁和路１０９巷１２號","OBJECTID":413006},"geometry":{"x":171412.27000000048,"y":2541321.8300000001}},{"attributes":{"ID":413031,"DIS_CODE":0,"TOWNNAME":"東區","LI":"仁和里","LIN":"3鄰","STREET":"仁和路","SECT":" ","MAREA":" ","LANE":"１０９巷","ALLEY":" ","HOUSE_NO":"１４號","E_COORD97":171415.98999999999,"N_COORD97":2541320.1600000001,"ADDRESS":"仁和路１０９巷１４號","OBJECTID":413007},"geometry":{"x":171415.99000000115,"y":2541320.1600000001}},{"attributes":{"ID":413032,"DIS_CODE":0,"TOWNNAME":"東區","LI":"仁和里","LIN":"3鄰","STREET":"仁和路","SECT":" ","MAREA":" ","LANE":"１０９巷","ALLEY":" ","HOUSE_NO":"１６號","E_COORD97":171419.51999999999,"N_COORD97":2541322.02,"ADDRESS":"仁和路１０９巷１６號","OBJECTID":413008},"geometry":{"x":171419.51999999955,"y":2541322.0200000014}},{"attributes":{"ID":413033,"DIS_CODE":0,"TOWNNAME":"東區","LI":"仁和里","LIN":"3鄰","STREET":"仁和路","SECT":" ","MAREA":" ","LANE":"１０９巷","ALLEY":" ","HOUSE_NO":"１８號","E_COORD97":171423.23000000001,"N_COORD97":2541319.98,"ADDRESS":"仁和路１０９巷１８號","OBJECTID":413009},"geometry":{"x":171423.23000000138,"y":2541319.9800000023}},{"attributes":{"ID":413034,"DIS_CODE":0,"TOWNNAME":"東區","LI":"仁和里","LIN":"3鄰","STREET":"仁和路","SECT":" ","MAREA":" ","LANE":"１０９巷","ALLEY":" ","HOUSE_NO":"７號","E_COORD97":171390.73999999999,"N_COORD97":2541338.1499999999,"ADDRESS":"仁和路１０９巷７號","OBJECTID":413010},"geometry":{"x":171390.74000000115,"y":2541338.1500000004}},{"attributes":{"ID":413035,"DIS_CODE":0,"TOWNNAME":"東區","LI":"仁和里","LIN":"3鄰","STREET":"仁和路","SECT":" ","MAREA":" ","LANE":"１０９巷","ALLEY":" ","HOUSE_NO":"９號","E_COORD97":171394.64000000001,"N_COORD97":2541340.0099999998,"ADDRESS":"仁和路１０９巷９號","OBJECTID":413011},"geometry":{"x":171394.6400000006,"y":2541340.0100000016}},{"attributes":{"ID":413036,"DIS_CODE":0,"TOWNNAME":"東區","LI":"仁和里","LIN":"3鄰","STREET":"仁和路","SECT":" ","MAREA":" ","LANE":"１０９巷","ALLEY":" ","HOUSE_NO":"１１號","E_COORD97":171398.54000000001,"N_COORD97":2541338.71,"ADDRESS":"仁和路１０９巷１１號","OBJECTID":413012},"geometry":{"x":171398.54000000097,"y":2541338.7100000046}},{"attributes":{"ID":413037,"DIS_CODE":0,"TOWNNAME":"東區","LI":"仁和里","LIN":"3鄰","STREET":"仁和路","SECT":" ","MAREA":" ","LANE":"１０９巷","ALLEY":" ","HOUSE_NO":"１３號","E_COORD97":171401.69,"N_COORD97":2541340.75,"ADDRESS":"仁和路１０９巷１３號","OBJECTID":413013},"geometry":{"x":171401.69000000134,"y":2541340.7500000037}},{"attributes":{"ID":413038,"DIS_CODE":0,"TOWNNAME":"東區","LI":"仁和里","LIN":"3鄰","STREET":"仁和路","SECT":" ","MAREA":" ","LANE":"１０９巷","ALLEY":" ","HOUSE_NO":"１５號","E_COORD97":171405.22,"N_COORD97":2541337.9700000002,"ADDRESS":"仁和路１０９巷１５號","OBJECTID":413014},"geometry":{"x":171405.2200000016,"y":2541337.9700000025}},{"attributes":{"ID":413039,"DIS_CODE":0,"TOWNNAME":"東區","LI":"仁和里","LIN":"3鄰","STREET":"仁和路","SECT":" ","MAREA":" ","LANE":"１０９巷","ALLEY":" ","HOUSE_NO":"１７號","E_COORD97":171408.92999999999,"N_COORD97":2541340.1899999999,"ADDRESS":"仁和路１０９巷１７號","OBJECTID":413015},"geometry":{"x":171408.93000000156,"y":2541340.1899999995}},{"attributes":{"ID":413040,"DIS_CODE":0,"TOWNNAME":"東區","LI":"仁和里","LIN":"3鄰","STREET":"仁和路","SECT":" ","MAREA":" ","LANE":"１０９巷","ALLEY":" ","HOUSE_NO":"１９號","E_COORD97":171412.82999999999,"N_COORD97":2541338.52,"ADDRESS":"仁和路１０９巷１９號","OBJECTID":413016},"geometry":{"x":171412.83000000007,"y":2541338.5200000033}},{"attributes":{"ID":413041,"DIS_CODE":0,"TOWNNAME":"東區","LI":"仁和里","LIN":"3鄰","STREET":"仁和路","SECT":" ","MAREA":" ","LANE":"１０９巷","ALLEY":" ","HOUSE_NO":"２１號","E_COORD97":171415.42999999999,"N_COORD97":2541340.5600000001,"ADDRESS":"仁和路１０９巷２１號","OBJECTID":413017},"geometry":{"x":171415.4299999997,"y":2541340.5600000024}},{"attributes":{"ID":413042,"DIS_CODE":0,"TOWNNAME":"東區","LI":"仁和里","LIN":"3鄰","STREET":"仁和路","SECT":" ","MAREA":" ","LANE":"１０９巷","ALLEY":" ","HOUSE_NO":"２３號","E_COORD97":171419.70000000001,"N_COORD97":2541338.71,"ADDRESS":"仁和路１０９巷２３號","OBJECTID":413018},"geometry":{"x":171419.70000000112,"y":2541338.7100000046}},{"attributes":{"ID":413043,"DIS_CODE":0,"TOWNNAME":"東區","LI":"仁和里","LIN":"3鄰","STREET":"仁和路","SECT":" ","MAREA":" ","LANE":"１０９巷","ALLEY":" ","HOUSE_NO":"２５號","E_COORD97":171423.97,"N_COORD97":2541340.1899999999,"ADDRESS":"仁和路１０９巷２５號","OBJECTID":413019},"geometry":{"x":171423.9700000016,"y":2541340.1899999995}},{"attributes":{"ID":413044,"DIS_CODE":0,"TOWNNAME":"東區","LI":"仁和里","LIN":"3鄰","STREET":"仁和路","SECT":" ","MAREA":" ","LANE":"１０９巷","ALLEY":" ","HOUSE_NO":"２０號","E_COORD97":171433.81,"N_COORD97":2541321.6499999999,"ADDRESS":"仁和路１０９巷２０號","OBJECTID":413020},"geometry":{"x":171433.81000000052,"y":2541321.6500000041}},{"attributes":{"ID":413045,"DIS_CODE":0,"TOWNNAME":"東區","LI":"仁和里","LIN":"3鄰","STREET":"仁和路","SECT":" ","MAREA":" ","LANE":"１０９巷","ALLEY":" ","HOUSE_NO":"２２號","E_COORD97":171437.34,"N_COORD97":2541319.6099999999,"ADDRESS":"仁和路１０９巷２２號","OBJECTID":413021},"geometry":{"x":171437.34000000078,"y":2541319.6099999994}},{"attributes":{"ID":413046,"DIS_CODE":0,"TOWNNAME":"東區","LI":"仁和里","LIN":"3鄰","STREET":"仁和路","SECT":" ","MAREA":" ","LANE":"１０９巷","ALLEY":" ","HOUSE_NO":"２４號","E_COORD97":171440.67999999999,"N_COORD97":2541322.02,"ADDRESS":"仁和路１０９巷２４號","OBJECTID":413022},"geometry":{"x":171440.6799999997,"y":2541322.0200000014}},{"attributes":{"ID":413047,"DIS_CODE":0,"TOWNNAME":"東區","LI":"仁和里","LIN":"3鄰","STREET":"仁和路","SECT":" ","MAREA":" ","LANE":"１０９巷","ALLEY":" ","HOUSE_NO":"２６號","E_COORD97":171444.20999999999,"N_COORD97":2541320.1600000001,"ADDRESS":"仁和路１０９巷２６號","OBJECTID":413023},"geometry":{"x":171444.20999999996,"y":2541320.1600000001}},{"attributes":{"ID":413048,"DIS_CODE":0,"TOWNNAME":"東區","LI":"仁和里","LIN":"3鄰","STREET":"仁和路","SECT":" ","MAREA":" ","LANE":"１０９巷","ALLEY":" ","HOUSE_NO":"２８號","E_COORD97":171447.92000000001,"N_COORD97":2541322.5699999998,"ADDRESS":"仁和路１０９巷２８號","OBJECTID":413024},"geometry":{"x":171447.91999999993,"y":2541322.5700000022}},{"attributes":{"ID":413049,"DIS_CODE":0,"TOWNNAME":"東區","LI":"仁和里","LIN":"3鄰","STREET":"仁和路","SECT":" ","MAREA":" ","LANE":"１０９巷","ALLEY":" ","HOUSE_NO":"３０號","E_COORD97":171451.45000000001,"N_COORD97":2541320.1600000001,"ADDRESS":"仁和路１０９巷３０號","OBJECTID":413025},"geometry":{"x":171451.45000000019,"y":2541320.1600000001}},{"attributes":{"ID":413050,"DIS_CODE":0,"TOWNNAME":"東區","LI":"仁和里","LIN":"3鄰","STREET":"仁和路","SECT":" ","MAREA":" ","LANE":"１０９巷","ALLEY":" ","HOUSE_NO":"３２號","E_COORD97":171455.16,"N_COORD97":2541322.7599999998,"ADDRESS":"仁和路１０９巷３２號","OBJECTID":413026},"geometry":{"x":171455.15999999922,"y":2541322.7599999998}},{"attributes":{"ID":413051,"DIS_CODE":0,"TOWNNAME":"東區","LI":"仁和里","LIN":"3鄰","STREET":"仁和路","SECT":" ","MAREA":" ","LANE":"１０９巷","ALLEY":" ","HOUSE_NO":"３４號","E_COORD97":171458.31,"N_COORD97":2541320.1600000001,"ADDRESS":"仁和路１０９巷３４號","OBJECTID":413027},"geometry":{"x":171458.30999999959,"y":2541320.1600000001}},{"attributes":{"ID":413052,"DIS_CODE":0,"TOWNNAME":"東區","LI":"仁和里","LIN":"3鄰","STREET":"仁和路","SECT":" ","MAREA":" ","LANE":"１０９巷","ALLEY":" ","HOUSE_NO":"３６號","E_COORD97":171461.84,"N_COORD97":2541322.2000000002,"ADDRESS":"仁和路１０９巷３６號","OBJECTID":413028},"geometry":{"x":171461.83999999985,"y":2541322.1999999993}},{"attributes":{"ID":413053,"DIS_CODE":0,"TOWNNAME":"東區","LI":"仁和里","LIN":"3鄰","STREET":"仁和路","SECT":" ","MAREA":" ","LANE":"１０９巷","ALLEY":" ","HOUSE_NO":"３８號","E_COORD97":171465.54999999999,"N_COORD97":2541320.1600000001,"ADDRESS":"仁和路１０９巷３８號","OBJECTID":413029},"geometry":{"x":171465.54999999981,"y":2541320.1600000001}},{"attributes":{"ID":413054,"DIS_CODE":0,"TOWNNAME":"東區","LI":"仁和里","LIN":"3鄰","STREET":"仁和路","SECT":" ","MAREA":" ","LANE":"１０９巷","ALLEY":" ","HOUSE_NO":"２７號","E_COORD97":171433.62,"N_COORD97":2541336.8500000001,"ADDRESS":"仁和路１０９巷２７號","OBJECTID":413030},"geometry":{"x":171433.62000000104,"y":2541336.8500000015}},{"attributes":{"ID":413055,"DIS_CODE":0,"TOWNNAME":"東區","LI":"仁和里","LIN":"3鄰","STREET":"仁和路","SECT":" ","MAREA":" ","LANE":"１０９巷","ALLEY":" ","HOUSE_NO":"２９號","E_COORD97":171437.34,"N_COORD97":2541338.52,"ADDRESS":"仁和路１０９巷２９號","OBJECTID":413031},"geometry":{"x":171437.34000000078,"y":2541338.5200000033}},{"attributes":{"ID":413056,"DIS_CODE":0,"TOWNNAME":"東區","LI":"莊敬里","LIN":"3鄰","STREET":"東光路","SECT":"二段","MAREA":" ","LANE":"１２１巷","ALLEY":" ","HOUSE_NO":"２２號","E_COORD97":171146.67000000001,"N_COORD97":2544228.5800000001,"ADDRESS":"東光路二段１２１巷２２號","OBJECTID":413032},"geometry":{"x":171146.67000000086,"y":2544228.5800000019}},{"attributes":{"ID":413057,"DIS_CODE":0,"TOWNNAME":"東區","LI":"莊敬里","LIN":"3鄰","STREET":"東光路","SECT":"二段","MAREA":" ","LANE":"１２１巷","ALLEY":" ","HOUSE_NO":"２４號","E_COORD97":171144,"N_COORD97":2544224.8999999999,"ADDRESS":"東光路二段１２１巷２４號","OBJECTID":413033},"geometry":{"x":171144,"y":2544224.9000000004}},{"attributes":{"ID":413058,"DIS_CODE":0,"TOWNNAME":"東區","LI":"莊敬里","LIN":"3鄰","STREET":"東光路","SECT":"二段","MAREA":" ","LANE":"１２１巷","ALLEY":" ","HOUSE_NO":"２６號","E_COORD97":171141.42999999999,"N_COORD97":2544222.1400000001,"ADDRESS":"東光路二段１２１巷２６號","OBJECTID":413034},"geometry":{"x":171141.43000000063,"y":2544222.1400000025}},{"attributes":{"ID":413059,"DIS_CODE":0,"TOWNNAME":"東區","LI":"莊敬里","LIN":"3鄰","STREET":"東光路","SECT":"二段","MAREA":" ","LANE":"１２１巷","ALLEY":" ","HOUSE_NO":"２８號","E_COORD97":171136.72,"N_COORD97":2544218.0699999998,"ADDRESS":"東光路二段１２１巷２８號","OBJECTID":413035},"geometry":{"x":171136.71999999974,"y":2544218.0700000022}},{"attributes":{"ID":413060,"DIS_CODE":0,"TOWNNAME":"東區","LI":"莊敬里","LIN":"3鄰","STREET":"東光路","SECT":"二段","MAREA":" ","LANE":"１２１巷","ALLEY":" ","HOUSE_NO":"３０號","E_COORD97":171129.35000000001,"N_COORD97":2544213.9300000002,"ADDRESS":"東光路二段１２１巷３０號","OBJECTID":413036},"geometry":{"x":171129.34999999963,"y":2544213.9299999997}},{"attributes":{"ID":413061,"DIS_CODE":0,"TOWNNAME":"東區","LI":"莊敬里","LIN":"3鄰","STREET":"東光路","SECT":"二段","MAREA":" ","LANE":"１２１巷","ALLEY":" ","HOUSE_NO":"３２號","E_COORD97":171122.98999999999,"N_COORD97":2544217.79,"ADDRESS":"東光路二段１２１巷３２號","OBJECTID":413037},"geometry":{"x":171122.99000000115,"y":2544217.7899999972}},{"attributes":{"ID":413062,"DIS_CODE":0,"TOWNNAME":"東區","LI":"莊敬里","LIN":"3鄰","STREET":"東光路","SECT":"二段","MAREA":" ","LANE":"１２１巷","ALLEY":" ","HOUSE_NO":"３４號","E_COORD97":171114.93414999999,"N_COORD97":2544216.07522,"ADDRESS":"東光路二段１２１巷３４號","OBJECTID":413038},"geometry":{"x":171114.93415000197,"y":2544216.07522}},{"attributes":{"ID":413063,"DIS_CODE":0,"TOWNNAME":"東區","LI":"莊敬里","LIN":"3鄰","STREET":"東光路","SECT":"二段","MAREA":" ","LANE":"１２１巷","ALLEY":" ","HOUSE_NO":"３６號","E_COORD97":171109.637307,"N_COORD97":2544215.0168900001,"ADDRESS":"東光路二段１２１巷３６號","OBJECTID":413039},"geometry":{"x":171109.63730700035,"y":2544215.0168870017}},{"attributes":{"ID":413064,"DIS_CODE":0,"TOWNNAME":"東區","LI":"富裕里","LIN":"3鄰","STREET":"裕農路","SECT":" ","MAREA":" ","LANE":"１６巷","ALLEY":" ","HOUSE_NO":"１號","E_COORD97":170549.34,"N_COORD97":2542820.9300000002,"ADDRESS":"裕農路１６巷１號","OBJECTID":413040},"geometry":{"x":170549.34000000078,"y":2542820.9300000034}},{"attributes":{"ID":413065,"DIS_CODE":0,"TOWNNAME":"東區","LI":"富裕里","LIN":"3鄰","STREET":"裕農路","SECT":" ","MAREA":" ","LANE":"１６巷","ALLEY":" ","HOUSE_NO":"２號","E_COORD97":170532.95000000001,"N_COORD97":2542813.6400000001,"ADDRESS":"裕農路１６巷２號","OBJECTID":413041},"geometry":{"x":170532.95000000205,"y":2542813.6400000043}},{"attributes":{"ID":413066,"DIS_CODE":0,"TOWNNAME":"東區","LI":"富裕里","LIN":"3鄰","STREET":"裕農路","SECT":" ","MAREA":" ","LANE":"１６巷","ALLEY":" ","HOUSE_NO":"３號","E_COORD97":170554.92000000001,"N_COORD97":2542817.6800000002,"ADDRESS":"裕農路１６巷３號","OBJECTID":413042},"geometry":{"x":170554.92000000179,"y":2542817.6799999997}},{"attributes":{"ID":413067,"DIS_CODE":0,"TOWNNAME":"東區","LI":"富裕里","LIN":"3鄰","STREET":"裕農路","SECT":" ","MAREA":" ","LANE":"１６巷","ALLEY":" ","HOUSE_NO":"５號","E_COORD97":170558.57999999999,"N_COORD97":2542815.0699999998,"ADDRESS":"裕農路１６巷５號","OBJECTID":413043},"geometry":{"x":170558.58000000007,"y":2542815.0700000022}},{"attributes":{"ID":413068,"DIS_CODE":0,"TOWNNAME":"東區","LI":"富裕里","LIN":"3鄰","STREET":"裕農路","SECT":" ","MAREA":" ","LANE":"１６巷","ALLEY":" ","HOUSE_NO":"６號","E_COORD97":170537.78,"N_COORD97":2542808.2999999998,"ADDRESS":"裕農路１６巷６號","OBJECTID":413044},"geometry":{"x":170537.78000000119,"y":2542808.3000000007}},{"attributes":{"ID":413069,"DIS_CODE":0,"TOWNNAME":"東區","LI":"富裕里","LIN":"3鄰","STREET":"裕農路","SECT":" ","MAREA":" ","LANE":"１６巷","ALLEY":" ","HOUSE_NO":"７號","E_COORD97":170561.82999999999,"N_COORD97":2542812.98,"ADDRESS":"裕農路１６巷７號","OBJECTID":413045},"geometry":{"x":170561.83000000007,"y":2542812.9800000004}},{"attributes":{"ID":413070,"DIS_CODE":0,"TOWNNAME":"東區","LI":"富裕里","LIN":"3鄰","STREET":"裕農路","SECT":" ","MAREA":" ","LANE":"１６巷","ALLEY":" ","HOUSE_NO":"８號","E_COORD97":170542.72,"N_COORD97":2542804.4199999999,"ADDRESS":"裕農路１６巷８號","OBJECTID":413046},"geometry":{"x":170542.72000000067,"y":2542804.4200000037}},{"attributes":{"ID":413071,"DIS_CODE":0,"TOWNNAME":"東區","LI":"富裕里","LIN":"3鄰","STREET":"裕農路","SECT":" ","MAREA":" ","LANE":"１６巷","ALLEY":" ","HOUSE_NO":"９號","E_COORD97":170565.14999999999,"N_COORD97":2542810.3700000001,"ADDRESS":"裕農路１６巷９號","OBJECTID":413047},"geometry":{"x":170565.15000000037,"y":2542810.3700000029}},{"attributes":{"ID":413072,"DIS_CODE":0,"TOWNNAME":"東區","LI":"富裕里","LIN":"3鄰","STREET":"裕農路","SECT":" ","MAREA":" ","LANE":"１６巷","ALLEY":" ","HOUSE_NO":"１０號","E_COORD97":170547.72,"N_COORD97":2542800.5299999998,"ADDRESS":"裕農路１６巷１０號","OBJECTID":413048},"geometry":{"x":170547.72000000067,"y":2542800.5300000012}},{"attributes":{"ID":413073,"DIS_CODE":0,"TOWNNAME":"東區","LI":"富裕里","LIN":"3鄰","STREET":"裕農路","SECT":" ","MAREA":" ","LANE":"１６巷","ALLEY":" ","HOUSE_NO":"１１號","E_COORD97":170569.10000000001,"N_COORD97":2542807.8700000001,"ADDRESS":"裕農路１６巷１１號","OBJECTID":413049},"geometry":{"x":170569.10000000056,"y":2542807.870000001}},{"attributes":{"ID":413074,"DIS_CODE":0,"TOWNNAME":"東區","LI":"富裕里","LIN":"3鄰","STREET":"裕農路","SECT":" ","MAREA":" ","LANE":"１６巷","ALLEY":" ","HOUSE_NO":"１２號","E_COORD97":170553.76000000001,"N_COORD97":2542797.4500000002,"ADDRESS":"裕農路１６巷１２號","OBJECTID":413050},"geometry":{"x":170553.75999999978,"y":2542797.4500000011}},{"attributes":{"ID":413075,"DIS_CODE":0,"TOWNNAME":"東區","LI":"富裕里","LIN":"3鄰","STREET":"裕農路","SECT":" ","MAREA":" ","LANE":"１６巷","ALLEY":" ","HOUSE_NO":"１３號","E_COORD97":170568.48999999999,"N_COORD97":2542824.04,"ADDRESS":"裕農路１６巷１３號","OBJECTID":413051},"geometry":{"x":170568.49000000115,"y":2542824.040000001}},{"attributes":{"ID":413076,"DIS_CODE":0,"TOWNNAME":"東區","LI":"富裕里","LIN":"3鄰","STREET":"裕農路","SECT":" ","MAREA":" ","LANE":"１６巷","ALLEY":" ","HOUSE_NO":"１４號","E_COORD97":170557.35999999999,"N_COORD97":2542793.73,"ADDRESS":"裕農路１６巷１４號","OBJECTID":413052},"geometry":{"x":170557.3600000022,"y":2542793.7300000023}},{"attributes":{"ID":413077,"DIS_CODE":0,"TOWNNAME":"東區","LI":"富裕里","LIN":"3鄰","STREET":"裕農路","SECT":" ","MAREA":" ","LANE":"１６巷","ALLEY":" ","HOUSE_NO":"１５號","E_COORD97":170573.66,"N_COORD97":2542825.0899999999,"ADDRESS":"裕農路１６巷１５號","OBJECTID":413053},"geometry":{"x":170573.65999999922,"y":2542825.0899999999}},{"attributes":{"ID":413078,"DIS_CODE":0,"TOWNNAME":"東區","LI":"富裕里","LIN":"3鄰","STREET":"裕農路","SECT":" ","MAREA":" ","LANE":"１６巷","ALLEY":" ","HOUSE_NO":"１６號","E_COORD97":170562.42000000001,"N_COORD97":2542789.3199999998,"ADDRESS":"裕農路１６巷１６號","OBJECTID":413054},"geometry":{"x":170562.42000000086,"y":2542789.3200000022}},{"attributes":{"ID":413079,"DIS_CODE":0,"TOWNNAME":"東區","LI":"富裕里","LIN":"3鄰","STREET":"裕農路","SECT":" ","MAREA":" ","LANE":"１６巷","ALLEY":" ","HOUSE_NO":"１７號","E_COORD97":170578.25,"N_COORD97":2542826.54,"ADDRESS":"裕農路１６巷１７號","OBJECTID":413055},"geometry":{"x":170578.25000000093,"y":2542826.540000001}},{"attributes":{"ID":413080,"DIS_CODE":0,"TOWNNAME":"東區","LI":"富裕里","LIN":"3鄰","STREET":"裕農路","SECT":" ","MAREA":" ","LANE":"１６巷","ALLEY":" ","HOUSE_NO":"２０號","E_COORD97":170572.23999999999,"N_COORD97":2542781.8799999999,"ADDRESS":"裕農路１６巷２０號","OBJECTID":413056},"geometry":{"x":170572.24000000115,"y":2542781.879999999}},{"attributes":{"ID":413081,"DIS_CODE":0,"TOWNNAME":"東區","LI":"富裕里","LIN":"3鄰","STREET":"裕農路","SECT":" ","MAREA":" ","LANE":"１６巷","ALLEY":" ","HOUSE_NO":"２１號","E_COORD97":170585.28,"N_COORD97":2542832.75,"ADDRESS":"裕農路１６巷２１號","OBJECTID":413057},"geometry":{"x":170585.28000000119,"y":2542832.7500000037}},{"attributes":{"ID":413082,"DIS_CODE":0,"TOWNNAME":"東區","LI":"富裕里","LIN":"3鄰","STREET":"裕農路","SECT":" ","MAREA":" ","LANE":"１６巷","ALLEY":" ","HOUSE_NO":"２２號","E_COORD97":170577.23000000001,"N_COORD97":2542777.9900000002,"ADDRESS":"裕農路１６巷２２號","OBJECTID":413058},"geometry":{"x":170577.23000000138,"y":2542777.9900000021}},{"attributes":{"ID":413083,"DIS_CODE":0,"TOWNNAME":"東區","LI":"富裕里","LIN":"3鄰","STREET":"裕農路","SECT":" ","MAREA":" ","LANE":"１６巷","ALLEY":" ","HOUSE_NO":"２３號","E_COORD97":170596.09,"N_COORD97":2542823.8799999999,"ADDRESS":"裕農路１６巷２３號","OBJECTID":413059},"geometry":{"x":170596.09000000171,"y":2542823.8800000027}},{"attributes":{"ID":413084,"DIS_CODE":0,"TOWNNAME":"東區","LI":"富裕里","LIN":"3鄰","STREET":"裕農路","SECT":" ","MAREA":" ","LANE":"１６巷","ALLEY":" ","HOUSE_NO":"２４號","E_COORD97":170583.10000000001,"N_COORD97":2542775.21,"ADDRESS":"裕農路１６巷２４號","OBJECTID":413060},"geometry":{"x":170583.09999999963,"y":2542775.2100000009}},{"attributes":{"ID":413085,"DIS_CODE":0,"TOWNNAME":"東區","LI":"富裕里","LIN":"3鄰","STREET":"裕農路","SECT":" ","MAREA":" ","LANE":"１６巷","ALLEY":" ","HOUSE_NO":"２５號","E_COORD97":170598.88,"N_COORD97":2542816.8399999999,"ADDRESS":"裕農路１６巷２５號","OBJECTID":413061},"geometry":{"x":170598.87999999989,"y":2542816.8399999999}},{"attributes":{"ID":413086,"DIS_CODE":0,"TOWNNAME":"東區","LI":"富裕里","LIN":"3鄰","STREET":"裕農路","SECT":" ","MAREA":" ","LANE":"１６巷","ALLEY":" ","HOUSE_NO":"２７號","E_COORD97":170595.79999999999,"N_COORD97":2542813.0099999998,"ADDRESS":"裕農路１６巷２７號","OBJECTID":413062},"geometry":{"x":170595.79999999981,"y":2542813.0099999998}},{"attributes":{"ID":413087,"DIS_CODE":0,"TOWNNAME":"東區","LI":"富裕里","LIN":"3鄰","STREET":"裕農路","SECT":" ","MAREA":" ","LANE":"１６巷","ALLEY":" ","HOUSE_NO":"２９號","E_COORD97":170592.54999999999,"N_COORD97":2542809.6499999999,"ADDRESS":"裕農路１６巷２９號","OBJECTID":413063},"geometry":{"x":170592.54999999981,"y":2542809.6499999985}},{"attributes":{"ID":413088,"DIS_CODE":0,"TOWNNAME":"東區","LI":"富裕里","LIN":"3鄰","STREET":"裕農路","SECT":" ","MAREA":" ","LANE":"１６巷","ALLEY":" ","HOUSE_NO":"３１號","E_COORD97":170590.75,"N_COORD97":2542806.1400000001,"ADDRESS":"裕農路１６巷３１號","OBJECTID":413064},"geometry":{"x":170590.75000000093,"y":2542806.1400000006}},{"attributes":{"ID":413089,"DIS_CODE":0,"TOWNNAME":"東區","LI":"富裕里","LIN":"3鄰","STREET":"裕農路","SECT":" ","MAREA":" ","LANE":"１６巷","ALLEY":" ","HOUSE_NO":"３３號","E_COORD97":170587.67000000001,"N_COORD97":2542802.8900000001,"ADDRESS":"裕農路１６巷３３號","OBJECTID":413065},"geometry":{"x":170587.67000000086,"y":2542802.8900000025}},{"attributes":{"ID":413090,"DIS_CODE":0,"TOWNNAME":"東區","LI":"富裕里","LIN":"3鄰","STREET":"裕農路","SECT":" ","MAREA":" ","LANE":"１６巷","ALLEY":" ","HOUSE_NO":"３５號","E_COORD97":170584.35999999999,"N_COORD97":2542799.8100000001,"ADDRESS":"裕農路１６巷３５號","OBJECTID":413066},"geometry":{"x":170584.3599999994,"y":2542799.8100000024}},{"attributes":{"ID":413091,"DIS_CODE":0,"TOWNNAME":"東區","LI":"富裕里","LIN":"3鄰","STREET":"裕農路","SECT":" ","MAREA":" ","LANE":"１６巷","ALLEY":" ","HOUSE_NO":"３７號","E_COORD97":170581.28,"N_COORD97":2542796.9700000002,"ADDRESS":"裕農路１６巷３７號","OBJECTID":413067},"geometry":{"x":170581.28000000026,"y":2542796.9700000007}},{"attributes":{"ID":413092,"DIS_CODE":0,"TOWNNAME":"東區","LI":"富裕里","LIN":"3鄰","STREET":"裕農路","SECT":" ","MAREA":" ","LANE":"１６巷","ALLEY":" ","HOUSE_NO":"３９號","E_COORD97":170578.42999999999,"N_COORD97":2542794.0099999998,"ADDRESS":"裕農路１６巷３９號","OBJECTID":413068},"geometry":{"x":170578.43000000063,"y":2542794.0100000016}},{"attributes":{"ID":413093,"DIS_CODE":0,"TOWNNAME":"東區","LI":"龍山里","LIN":"3鄰","STREET":"富德街","SECT":" ","MAREA":" ","LANE":"２５巷","ALLEY":" ","HOUSE_NO":"１６號","E_COORD97":170310.54000000001,"N_COORD97":2542836.1499999999,"ADDRESS":"富德街２５巷１６號","OBJECTID":413069},"geometry":{"x":170310.54000000097,"y":2542836.1500000004}},{"attributes":{"ID":413094,"DIS_CODE":0,"TOWNNAME":"永康區","LI":"北灣里","LIN":"3鄰","STREET":"文賢街","SECT":" ","MAREA":" ","LANE":"１３６巷","ALLEY":" ","HOUSE_NO":"８號六樓之２","E_COORD97":175428.5,"N_COORD97":2545540.3799999999,"ADDRESS":"文賢街１３６巷８號六樓之２","OBJECTID":413070},"geometry":{"x":175428.50000000093,"y":2545540.3800000008}},{"attributes":{"ID":413095,"DIS_CODE":0,"TOWNNAME":"新市區","LI":"港墘里","LIN":"3鄰","STREET":"三民街","SECT":" ","MAREA":" ","LANE":"５０巷","ALLEY":" ","HOUSE_NO":"３９號","E_COORD97":178548.20000000001,"N_COORD97":2553488.79,"ADDRESS":"三民街５０巷３９號","OBJECTID":413071},"geometry":{"x":178548.20000000112,"y":2553488.790000001}},{"attributes":{"ID":413096,"DIS_CODE":0,"TOWNNAME":"安南區","LI":"海東里","LIN":"3鄰","STREET":"海中街","SECT":" ","MAREA":" ","LANE":"１３８巷","ALLEY":" ","HOUSE_NO":"２７號","E_COORD97":166414.45999999999,"N_COORD97":2549197.79,"ADDRESS":"海中街１３８巷２７號","OBJECTID":413072},"geometry":{"x":166414.45999999996,"y":2549197.7899999991}},{"attributes":{"ID":413097,"DIS_CODE":0,"TOWNNAME":"安南區","LI":"海東里","LIN":"3鄰","STREET":"海中街","SECT":" ","MAREA":" ","LANE":"１３８巷","ALLEY":" ","HOUSE_NO":"３３號","E_COORD97":166437.29000000001,"N_COORD97":2549187.96,"ADDRESS":"海中街１３８巷３３號","OBJECTID":413073},"geometry":{"x":166437.29000000097,"y":2549187.9600000009}},{"attributes":{"ID":413098,"DIS_CODE":0,"TOWNNAME":"中西區","LI":"仙草里","LIN":"3鄰","STREET":"五妃街","SECT":" ","MAREA":" ","LANE":"３２２巷","ALLEY":" ","HOUSE_NO":"１０號","E_COORD97":167837.94,"N_COORD97":2542611.6200000001,"ADDRESS":"五妃街３２２巷１０號","OBJECTID":413074},"geometry":{"x":167837.94000000227,"y":2542611.6200000029}},{"attributes":{"ID":413099,"DIS_CODE":0,"TOWNNAME":"中西區","LI":"仙草里","LIN":"3鄰","STREET":"五妃街","SECT":" ","MAREA":" ","LANE":"３２２巷","ALLEY":" ","HOUSE_NO":"１９號","E_COORD97":167826.87,"N_COORD97":2542626.27,"ADDRESS":"五妃街３２２巷１９號","OBJECTID":413075},"geometry":{"x":167826.87000000104,"y":2542626.2700000014}},{"attributes":{"ID":413100,"DIS_CODE":0,"TOWNNAME":"中西區","LI":"仙草里","LIN":"3鄰","STREET":"五妃街","SECT":" ","MAREA":" ","LANE":"３２２巷","ALLEY":" ","HOUSE_NO":"２１號","E_COORD97":167832.81,"N_COORD97":2542624.29,"ADDRESS":"五妃街３２２巷２１號","OBJECTID":413076},"geometry":{"x":167832.81000000145,"y":2542624.2899999972}},{"attributes":{"ID":413101,"DIS_CODE":0,"TOWNNAME":"中西區","LI":"仙草里","LIN":"3鄰","STREET":"五妃街","SECT":" ","MAREA":" ","LANE":"３２２巷","ALLEY":" ","HOUSE_NO":"２３號","E_COORD97":167837.57000000001,"N_COORD97":2542626.27,"ADDRESS":"五妃街３２２巷２３號","OBJECTID":413077},"geometry":{"x":167837.57000000123,"y":2542626.2700000014}},{"attributes":{"ID":413102,"DIS_CODE":0,"TOWNNAME":"中西區","LI":"仙草里","LIN":"3鄰","STREET":"五妃街","SECT":" ","MAREA":" ","LANE":"３２２巷","ALLEY":" ","HOUSE_NO":"２５號","E_COORD97":167843.70999999999,"N_COORD97":2542627.8599999999,"ADDRESS":"五妃街３２２巷２５號","OBJECTID":413078},"geometry":{"x":167843.70999999996,"y":2542627.8600000031}},{"attributes":{"ID":413103,"DIS_CODE":0,"TOWNNAME":"中西區","LI":"仙草里","LIN":"3鄰","STREET":"五妃街","SECT":" ","MAREA":" ","LANE":"３２２巷","ALLEY":" ","HOUSE_NO":"２７號","E_COORD97":167853.42000000001,"N_COORD97":2542625.8799999999,"ADDRESS":"五妃街３２２巷２７號","OBJECTID":413079},"geometry":{"x":167853.42000000086,"y":2542625.879999999}},{"attributes":{"ID":413104,"DIS_CODE":0,"TOWNNAME":"中西區","LI":"仙草里","LIN":"3鄰","STREET":"五妃街","SECT":" ","MAREA":" ","LANE":"３２２巷","ALLEY":" ","HOUSE_NO":"２９號","E_COORD97":167858.14999999999,"N_COORD97":2542627.2599999998,"ADDRESS":"五妃街３２２巷２９號","OBJECTID":413080},"geometry":{"x":167858.15000000037,"y":2542627.2599999998}},{"attributes":{"ID":413105,"DIS_CODE":0,"TOWNNAME":"中西區","LI":"仙草里","LIN":"3鄰","STREET":"五妃街","SECT":" ","MAREA":" ","LANE":"３２２巷","ALLEY":" ","HOUSE_NO":"２號","E_COORD97":167813.76999999999,"N_COORD97":2542607.6600000001,"ADDRESS":"五妃街３２２巷２號","OBJECTID":413081},"geometry":{"x":167813.76999999955,"y":2542607.660000002}},{"attributes":{"ID":413106,"DIS_CODE":0,"TOWNNAME":"中西區","LI":"仙草里","LIN":"3鄰","STREET":"五妃街","SECT":" ","MAREA":" ","LANE":"３２２巷","ALLEY":" ","HOUSE_NO":"４號","E_COORD97":167820.5,"N_COORD97":2542609.25,"ADDRESS":"五妃街３２２巷４號","OBJECTID":413082},"geometry":{"x":167820.50000000093,"y":2542609.2500000019}},{"attributes":{"ID":413107,"DIS_CODE":0,"TOWNNAME":"中西區","LI":"仙草里","LIN":"3鄰","STREET":"五妃街","SECT":" ","MAREA":" ","LANE":"３２２巷","ALLEY":" ","HOUSE_NO":"６號","E_COORD97":167827.64000000001,"N_COORD97":2542610.4300000002,"ADDRESS":"五妃街３２２巷６號","OBJECTID":413083},"geometry":{"x":167827.6400000006,"y":2542610.4299999978}},{"attributes":{"ID":413108,"DIS_CODE":0,"TOWNNAME":"中西區","LI":"仙草里","LIN":"3鄰","STREET":"五妃街","SECT":" ","MAREA":" ","LANE":"３２２巷","ALLEY":" ","HOUSE_NO":"８號","E_COORD97":167832.98999999999,"N_COORD97":2542611.0299999998,"ADDRESS":"五妃街３２２巷８號","OBJECTID":413084},"geometry":{"x":167832.99000000115,"y":2542611.0300000012}},{"attributes":{"ID":413109,"DIS_CODE":0,"TOWNNAME":"安南區","LI":"溪心里","LIN":"3鄰","STREET":"安中路","SECT":"二段","MAREA":" ","LANE":"３３６巷","ALLEY":" ","HOUSE_NO":"１１號","E_COORD97":166399.07999999999,"N_COORD97":2549779.2599999998,"ADDRESS":"安中路二段３３６巷１１號","OBJECTID":413085},"geometry":{"x":166399.08000000194,"y":2549779.2600000035}},{"attributes":{"ID":413110,"DIS_CODE":0,"TOWNNAME":"安南區","LI":"新順里","LIN":"3鄰","STREET":"安和路","SECT":"二段","MAREA":" ","LANE":"３１８巷","ALLEY":" ","HOUSE_NO":"３６號","E_COORD97":169832.35999999999,"N_COORD97":2549277.1000000001,"ADDRESS":"安和路二段３１８巷３６號","OBJECTID":413086},"geometry":{"x":169832.36000000127,"y":2549277.0999999996}},{"attributes":{"ID":413111,"DIS_CODE":0,"TOWNNAME":"安南區","LI":"新順里","LIN":"3鄰","STREET":"安和路","SECT":"二段","MAREA":" ","LANE":"３１８巷","ALLEY":" ","HOUSE_NO":"２６號","E_COORD97":169810.62,"N_COORD97":2549281.4399999999,"ADDRESS":"安和路二段３１８巷２６號","OBJECTID":413087},"geometry":{"x":169810.62000000011,"y":2549281.4399999995}},{"attributes":{"ID":413112,"DIS_CODE":0,"TOWNNAME":"安南區","LI":"溪心里","LIN":"3鄰","STREET":"安中路","SECT":"二段","MAREA":" ","LANE":"３３６巷","ALLEY":" ","HOUSE_NO":"２３號","E_COORD97":166427.69,"N_COORD97":2549799.4500000002,"ADDRESS":"安中路二段３３６巷２３號","OBJECTID":413088},"geometry":{"x":166427.69000000134,"y":2549799.4499999993}},{"attributes":{"ID":413113,"DIS_CODE":0,"TOWNNAME":"安南區","LI":"安西里","LIN":"3鄰","STREET":"安和路","SECT":"一段","MAREA":" ","LANE":"２６３巷","ALLEY":" ","HOUSE_NO":"２８號","E_COORD97":169204.90199700001,"N_COORD97":2548016.9334399998,"ADDRESS":"安和路一段２６３巷２８號","OBJECTID":413089},"geometry":{"x":169204.90199700184,"y":2548016.9334370028}},{"attributes":{"ID":413114,"DIS_CODE":0,"TOWNNAME":"安南區","LI":"\u25A0南里","LIN":"3鄰","STREET":"環福街","SECT":" ","MAREA":" ","LANE":"６１巷","ALLEY":" ","HOUSE_NO":"１２號","E_COORD97":170283.10000000001,"N_COORD97":2552486.1400000001,"ADDRESS":"環福街６１巷１２號","OBJECTID":413090},"geometry":{"x":170283.09999999963,"y":2552486.1399999987}},{"attributes":{"ID":413115,"DIS_CODE":0,"TOWNNAME":"安南區","LI":"\u25A0南里","LIN":"3鄰","STREET":"環福街","SECT":" ","MAREA":" ","LANE":"６１巷","ALLEY":" ","HOUSE_NO":"２１號","E_COORD97":170280.34,"N_COORD97":2552505.5499999998,"ADDRESS":"環福街６１巷２１號","OBJECTID":413091},"geometry":{"x":170280.33999999985,"y":2552505.5500000026}},{"attributes":{"ID":413116,"DIS_CODE":0,"TOWNNAME":"安南區","LI":"\u25A0南里","LIN":"3鄰","STREET":"環福街","SECT":" ","MAREA":" ","LANE":"６１巷","ALLEY":" ","HOUSE_NO":"３７號","E_COORD97":170313.20000000001,"N_COORD97":2552499.1400000001,"ADDRESS":"環福街６１巷３７號","OBJECTID":413092},"geometry":{"x":170313.20000000112,"y":2552499.1400000006}},{"attributes":{"ID":413117,"DIS_CODE":0,"TOWNNAME":"安南區","LI":"\u25A0南里","LIN":"3鄰","STREET":"環福街","SECT":" ","MAREA":" ","LANE":"６１巷","ALLEY":" ","HOUSE_NO":"４１號","E_COORD97":170323.85999999999,"N_COORD97":2552493.9500000002,"ADDRESS":"環福街６１巷４１號","OBJECTID":413093},"geometry":{"x":170323.86000000127,"y":2552493.9500000011}},{"attributes":{"ID":413118,"DIS_CODE":0,"TOWNNAME":"安南區","LI":"\u25A0南里","LIN":"3鄰","STREET":"環福街","SECT":" ","MAREA":" ","LANE":"６１巷","ALLEY":" ","HOUSE_NO":"４５號","E_COORD97":170343.66,"N_COORD97":2552488.79,"ADDRESS":"環福街６１巷４５號","OBJECTID":413094},"geometry":{"x":170343.66000000108,"y":2552488.790000001}},{"attributes":{"ID":413119,"DIS_CODE":0,"TOWNNAME":"南區","LI":"國宅里","LIN":"3鄰","STREET":"金華路","SECT":"二段","MAREA":" ","LANE":"９巷","ALLEY":" ","HOUSE_NO":"２號","E_COORD97":167038.13,"N_COORD97":2541848.1299999999,"ADDRESS":"金華路二段９巷２號","OBJECTID":413095},"geometry":{"x":167038.13000000082,"y":2541848.129999999}},{"attributes":{"ID":413120,"DIS_CODE":0,"TOWNNAME":"南區","LI":"國宅里","LIN":"3鄰","STREET":"金華路","SECT":"二段","MAREA":" ","LANE":"９巷","ALLEY":" ","HOUSE_NO":"４號","E_COORD97":167025.76000000001,"N_COORD97":2541849.29,"ADDRESS":"金華路二段９巷４號","OBJECTID":413096},"geometry":{"x":167025.75999999978,"y":2541849.290000001}},{"attributes":{"ID":413121,"DIS_CODE":0,"TOWNNAME":"南區","LI":"國宅里","LIN":"3鄰","STREET":"金華路","SECT":"二段","MAREA":" ","LANE":"９巷","ALLEY":" ","HOUSE_NO":"６號","E_COORD97":167014.73999999999,"N_COORD97":2541850.25,"ADDRESS":"金華路二段９巷６號","OBJECTID":413097},"geometry":{"x":167014.74000000022,"y":2541850.2500000019}},{"attributes":{"ID":413122,"DIS_CODE":0,"TOWNNAME":"南區","LI":"國宅里","LIN":"3鄰","STREET":"金華路","SECT":"二段","MAREA":" ","LANE":"９巷","ALLEY":" ","HOUSE_NO":"８號","E_COORD97":167001.20999999999,"N_COORD97":2541850.8300000001,"ADDRESS":"金華路二段９巷８號","OBJECTID":413098},"geometry":{"x":167001.20999999996,"y":2541850.8300000001}},{"attributes":{"ID":413123,"DIS_CODE":0,"TOWNNAME":"南區","LI":"國宅里","LIN":"3鄰","STREET":"金華路","SECT":"二段","MAREA":" ","LANE":"９巷","ALLEY":" ","HOUSE_NO":"１０號","E_COORD97":166984.57999999999,"N_COORD97":2541849.6699999999,"ADDRESS":"金華路二段９巷１０號","OBJECTID":413099},"geometry":{"x":166984.58000000101,"y":2541849.6700000037}},{"attributes":{"ID":413124,"DIS_CODE":0,"TOWNNAME":"南區","LI":"國宅里","LIN":"3鄰","STREET":"金華路","SECT":"二段","MAREA":" ","LANE":"９巷","ALLEY":" ","HOUSE_NO":"１２號","E_COORD97":166980.51999999999,"N_COORD97":2541850.0600000001,"ADDRESS":"金華路二段９巷１２號","OBJECTID":413100},"geometry":{"x":166980.52000000048,"y":2541850.0600000005}},{"attributes":{"ID":413125,"DIS_CODE":0,"TOWNNAME":"南區","LI":"國宅里","LIN":"3鄰","STREET":"金華路","SECT":"二段","MAREA":" ","LANE":"９巷","ALLEY":" ","HOUSE_NO":"１４號","E_COORD97":166974.53,"N_COORD97":2541850.0600000001,"ADDRESS":"金華路二段９巷１４號","OBJECTID":413101},"geometry":{"x":166974.53000000119,"y":2541850.0600000005}},{"attributes":{"ID":413126,"DIS_CODE":0,"TOWNNAME":"南區","LI":"國宅里","LIN":"3鄰","STREET":"金華路","SECT":"二段","MAREA":" ","LANE":"９巷","ALLEY":" ","HOUSE_NO":"１６號","E_COORD97":166969.31,"N_COORD97":2541850.6400000001,"ADDRESS":"金華路二段９巷１６號","OBJECTID":413102},"geometry":{"x":166969.30999999959,"y":2541850.6400000043}},{"attributes":{"ID":413127,"DIS_CODE":0,"TOWNNAME":"南區","LI":"國宅里","LIN":"3鄰","STREET":"金華路","SECT":"二段","MAREA":" ","LANE":"９巷","ALLEY":" ","HOUSE_NO":"１８號","E_COORD97":166964.09,"N_COORD97":2541850.8300000001,"ADDRESS":"金華路二段９巷１８號","OBJECTID":413103},"geometry":{"x":166964.08999999985,"y":2541850.8300000001}},{"attributes":{"ID":413128,"DIS_CODE":0,"TOWNNAME":"南區","LI":"國宅里","LIN":"3鄰","STREET":"金華路","SECT":"二段","MAREA":" ","LANE":"９巷","ALLEY":" ","HOUSE_NO":"２０號","E_COORD97":166958.67999999999,"N_COORD97":2541851.4100000001,"ADDRESS":"金華路二段９巷２０號","OBJECTID":413104},"geometry":{"x":166958.6799999997,"y":2541851.4100000001}},{"attributes":{"ID":413129,"DIS_CODE":0,"TOWNNAME":"南區","LI":"國宅里","LIN":"3鄰","STREET":"金華路","SECT":"二段","MAREA":" ","LANE":"９巷","ALLEY":" ","HOUSE_NO":"２２號","E_COORD97":166954.23000000001,"N_COORD97":2541852.3799999999,"ADDRESS":"金華路二段９巷２２號","OBJECTID":413105},"geometry":{"x":166954.23000000045,"y":2541852.3800000008}},{"attributes":{"ID":413130,"DIS_CODE":0,"TOWNNAME":"南區","LI":"國宅里","LIN":"3鄰","STREET":"金華路","SECT":"二段","MAREA":" ","LANE":"９巷","ALLEY":" ","HOUSE_NO":"２４號","E_COORD97":166948.23999999999,"N_COORD97":2541852.7599999998,"ADDRESS":"金華路二段９巷２４號","OBJECTID":413106},"geometry":{"x":166948.24000000022,"y":2541852.7600000016}},{"attributes":{"ID":413131,"DIS_CODE":0,"TOWNNAME":"南區","LI":"國宅里","LIN":"3鄰","STREET":"金華路","SECT":"二段","MAREA":" ","LANE":"９巷","ALLEY":" ","HOUSE_NO":"２６號","E_COORD97":166943.22,"N_COORD97":2541853.3399999999,"ADDRESS":"金華路二段９巷２６號","OBJECTID":413107},"geometry":{"x":166943.21999999974,"y":2541853.3400000017}},{"attributes":{"ID":413132,"DIS_CODE":0,"TOWNNAME":"南區","LI":"國宅里","LIN":"3鄰","STREET":"金華路","SECT":"二段","MAREA":" ","LANE":"１５巷","ALLEY":" ","HOUSE_NO":"１號","E_COORD97":167038.32000000001,"N_COORD97":2541860.1000000001,"ADDRESS":"金華路二段１５巷１號","OBJECTID":413108},"geometry":{"x":167038.32000000216,"y":2541860.1000000034}},{"attributes":{"ID":413133,"DIS_CODE":0,"TOWNNAME":"南區","LI":"國宅里","LIN":"3鄰","STREET":"金華路","SECT":"二段","MAREA":" ","LANE":"１５巷","ALLEY":" ","HOUSE_NO":"３號","E_COORD97":167025.95000000001,"N_COORD97":2541862.0299999998,"ADDRESS":"金華路二段１５巷３號","OBJECTID":413109},"geometry":{"x":167025.95000000112,"y":2541862.0299999993}},{"attributes":{"ID":413134,"DIS_CODE":0,"TOWNNAME":"南區","LI":"國宅里","LIN":"3鄰","STREET":"金華路","SECT":"二段","MAREA":" ","LANE":"１５巷","ALLEY":" ","HOUSE_NO":"５號","E_COORD97":167014.92999999999,"N_COORD97":2541862.9900000002,"ADDRESS":"金華路二段１５巷５號","OBJECTID":413110},"geometry":{"x":167014.93000000156,"y":2541862.9900000021}},{"attributes":{"ID":413135,"DIS_CODE":0,"TOWNNAME":"南區","LI":"國宅里","LIN":"3鄰","STREET":"金華路","SECT":"二段","MAREA":" ","LANE":"１５巷","ALLEY":" ","HOUSE_NO":"７號","E_COORD97":167001.79000000001,"N_COORD97":2541864.1499999999,"ADDRESS":"金華路二段１５巷７號","OBJECTID":413111},"geometry":{"x":167001.79000000097,"y":2541864.1500000041}},{"attributes":{"ID":413136,"DIS_CODE":0,"TOWNNAME":"南區","LI":"國宅里","LIN":"3鄰","STREET":"金華路","SECT":"二段","MAREA":" ","LANE":"１５巷","ALLEY":" ","HOUSE_NO":"９號","E_COORD97":166985.54999999999,"N_COORD97":2541867.6299999999,"ADDRESS":"金華路二段１５巷９號","OBJECTID":413112},"geometry":{"x":166985.55000000168,"y":2541867.6300000008}},{"attributes":{"ID":413137,"DIS_CODE":0,"TOWNNAME":"南區","LI":"國宅里","LIN":"3鄰","STREET":"金華路","SECT":"二段","MAREA":" ","LANE":"１５巷","ALLEY":" ","HOUSE_NO":"１１號","E_COORD97":166980.53,"N_COORD97":2541867.0499999998,"ADDRESS":"金華路二段１５巷１１號","OBJECTID":413113},"geometry":{"x":166980.53000000026,"y":2541867.0500000007}},{"attributes":{"ID":413138,"DIS_CODE":0,"TOWNNAME":"南區","LI":"國宅里","LIN":"3鄰","STREET":"金華路","SECT":"二段","MAREA":" ","LANE":"１５巷","ALLEY":" ","HOUSE_NO":"１３號","E_COORD97":166975.31,"N_COORD97":2541868.21,"ADDRESS":"金華路二段１５巷１３號","OBJECTID":413114},"geometry":{"x":166975.31000000052,"y":2541868.2100000028}},{"attributes":{"ID":413139,"DIS_CODE":0,"TOWNNAME":"南區","LI":"國宅里","LIN":"3鄰","STREET":"金華路","SECT":"二段","MAREA":" ","LANE":"１５巷","ALLEY":" ","HOUSE_NO":"１５號","E_COORD97":166970.67000000001,"N_COORD97":2541868.3999999999,"ADDRESS":"金華路二段１５巷１５號","OBJECTID":413115},"geometry":{"x":166970.66999999993,"y":2541868.4000000004}},{"attributes":{"ID":413140,"DIS_CODE":0,"TOWNNAME":"新市區","LI":"新和里","LIN":"40鄰","STREET":"勝利街","SECT":" ","MAREA":" ","LANE":"３５巷","ALLEY":" ","HOUSE_NO":"１號","E_COORD97":177308.39999999999,"N_COORD97":2552925.5099999998,"ADDRESS":"勝利街３５巷１號","OBJECTID":413116},"geometry":{"x":177308.40000000037,"y":2552925.5099999998}},{"attributes":{"ID":413141,"DIS_CODE":0,"TOWNNAME":"南區","LI":"國宅里","LIN":"3鄰","STREET":"金華路","SECT":"二段","MAREA":" ","LANE":"１５巷","ALLEY":" ","HOUSE_NO":"１７號","E_COORD97":166965.25,"N_COORD97":2541868.3999999999,"ADDRESS":"金華路二段１５巷１７號","OBJECTID":413117},"geometry":{"x":166965.25,"y":2541868.4000000004}},{"attributes":{"ID":413142,"DIS_CODE":0,"TOWNNAME":"南區","LI":"國宅里","LIN":"3鄰","STREET":"金華路","SECT":"二段","MAREA":" ","LANE":"１５巷","ALLEY":" ","HOUSE_NO":"１９號","E_COORD97":166960.60999999999,"N_COORD97":2541868.3999999999,"ADDRESS":"金華路二段１５巷１９號","OBJECTID":413118},"geometry":{"x":166960.61000000127,"y":2541868.4000000004}},{"attributes":{"ID":413143,"DIS_CODE":0,"TOWNNAME":"南區","LI":"國宅里","LIN":"3鄰","STREET":"金華路","SECT":"二段","MAREA":" ","LANE":"１５巷","ALLEY":" ","HOUSE_NO":"２１號","E_COORD97":166955.20000000001,"N_COORD97":2541868.3999999999,"ADDRESS":"金華路二段１５巷２１號","OBJECTID":413119},"geometry":{"x":166955.20000000019,"y":2541868.4000000004}},{"attributes":{"ID":413144,"DIS_CODE":0,"TOWNNAME":"南區","LI":"國宅里","LIN":"3鄰","STREET":"金華路","SECT":"二段","MAREA":" ","LANE":"１５巷","ALLEY":" ","HOUSE_NO":"２３號","E_COORD97":166949.79000000001,"N_COORD97":2541868.79,"ADDRESS":"金華路二段１５巷２３號","OBJECTID":413120},"geometry":{"x":166949.79000000004,"y":2541868.790000001}},{"attributes":{"ID":413145,"DIS_CODE":0,"TOWNNAME":"南區","LI":"國宅里","LIN":"3鄰","STREET":"金華路","SECT":"二段","MAREA":" ","LANE":"１５巷","ALLEY":" ","HOUSE_NO":"２５號","E_COORD97":166945.73000000001,"N_COORD97":2541869.5600000001,"ADDRESS":"金華路二段１５巷２５號","OBJECTID":413121},"geometry":{"x":166945.73000000045,"y":2541869.5600000024}},{"attributes":{"ID":413146,"DIS_CODE":0,"TOWNNAME":"南區","LI":"喜北里","LIN":"3鄰","STREET":"喜樹路","SECT":" ","MAREA":" ","LANE":"５６巷","ALLEY":" ","HOUSE_NO":"１號","E_COORD97":165851.10000000001,"N_COORD97":2538544.1200000001,"ADDRESS":"喜樹路５６巷１號","OBJECTID":413122},"geometry":{"x":165851.10000000056,"y":2538544.120000001}},{"attributes":{"ID":413147,"DIS_CODE":0,"TOWNNAME":"南區","LI":"喜北里","LIN":"3鄰","STREET":"喜樹路","SECT":" ","MAREA":" ","LANE":"５６巷","ALLEY":" ","HOUSE_NO":"３號","E_COORD97":165845.54000000001,"N_COORD97":2538543.6800000002,"ADDRESS":"喜樹路５６巷３號","OBJECTID":413123},"geometry":{"x":165845.54000000097,"y":2538543.6799999978}},{"attributes":{"ID":413148,"DIS_CODE":0,"TOWNNAME":"南區","LI":"喜北里","LIN":"3鄰","STREET":"喜樹路","SECT":" ","MAREA":" ","LANE":"５６巷","ALLEY":" ","HOUSE_NO":"５號","E_COORD97":165839.89000000001,"N_COORD97":2538544.0499999998,"ADDRESS":"喜樹路５６巷５號","OBJECTID":413124},"geometry":{"x":165839.88999999966,"y":2538544.0500000026}},{"attributes":{"ID":413149,"DIS_CODE":0,"TOWNNAME":"南區","LI":"喜北里","LIN":"3鄰","STREET":"喜樹路","SECT":" ","MAREA":" ","LANE":"５６巷","ALLEY":" ","HOUSE_NO":"７號","E_COORD97":165834.51999999999,"N_COORD97":2538544.1200000001,"ADDRESS":"喜樹路５６巷７號","OBJECTID":413125},"geometry":{"x":165834.52000000048,"y":2538544.120000001}},{"attributes":{"ID":413150,"DIS_CODE":0,"TOWNNAME":"南區","LI":"喜北里","LIN":"3鄰","STREET":"喜樹路","SECT":" ","MAREA":" ","LANE":"５６巷","ALLEY":" ","HOUSE_NO":"９號","E_COORD97":165829.09,"N_COORD97":2538544.5,"ADDRESS":"喜樹路５６巷９號","OBJECTID":413126},"geometry":{"x":165829.09000000171,"y":2538544.5}},{"attributes":{"ID":413151,"DIS_CODE":0,"TOWNNAME":"南區","LI":"喜北里","LIN":"3鄰","STREET":"喜樹路","SECT":" ","MAREA":" ","LANE":"５６巷","ALLEY":" ","HOUSE_NO":"１１號","E_COORD97":165823.78,"N_COORD97":2538544.5,"ADDRESS":"喜樹路５６巷１１號","OBJECTID":413127},"geometry":{"x":165823.78000000119,"y":2538544.5}},{"attributes":{"ID":413152,"DIS_CODE":0,"TOWNNAME":"南區","LI":"喜北里","LIN":"3鄰","STREET":"喜樹路","SECT":" ","MAREA":" ","LANE":"５６巷","ALLEY":" ","HOUSE_NO":"１３號","E_COORD97":165818.35000000001,"N_COORD97":2538544.3700000001,"ADDRESS":"喜樹路５６巷１３號","OBJECTID":413128},"geometry":{"x":165818.34999999963,"y":2538544.3700000029}},{"attributes":{"ID":413153,"DIS_CODE":0,"TOWNNAME":"南區","LI":"喜北里","LIN":"3鄰","STREET":"喜樹路","SECT":" ","MAREA":" ","LANE":"５６巷","ALLEY":" ","HOUSE_NO":"１５號","E_COORD97":165812.98000000001,"N_COORD97":2538544.3100000001,"ADDRESS":"喜樹路５６巷１５號","OBJECTID":413129},"geometry":{"x":165812.98000000045,"y":2538544.3100000024}},{"attributes":{"ID":413154,"DIS_CODE":0,"TOWNNAME":"南區","LI":"喜北里","LIN":"3鄰","STREET":"喜樹路","SECT":" ","MAREA":" ","LANE":"５６巷","ALLEY":" ","HOUSE_NO":"１７號","E_COORD97":165807.60999999999,"N_COORD97":2538544.4300000002,"ADDRESS":"喜樹路５６巷１７號","OBJECTID":413130},"geometry":{"x":165807.61000000127,"y":2538544.4299999997}},{"attributes":{"ID":413155,"DIS_CODE":0,"TOWNNAME":"南區","LI":"喜北里","LIN":"3鄰","STREET":"喜樹路","SECT":" ","MAREA":" ","LANE":"５６巷","ALLEY":" ","HOUSE_NO":"１９號","E_COORD97":165802.60999999999,"N_COORD97":2538544.1800000002,"ADDRESS":"喜樹路５６巷１９號","OBJECTID":413131},"geometry":{"x":165802.61000000127,"y":2538544.1800000016}},{"attributes":{"ID":413156,"DIS_CODE":0,"TOWNNAME":"南區","LI":"喜北里","LIN":"3鄰","STREET":"喜樹路","SECT":" ","MAREA":" ","LANE":"５６巷","ALLEY":" ","HOUSE_NO":"２１號","E_COORD97":165797.23999999999,"N_COORD97":2538544.3100000001,"ADDRESS":"喜樹路５６巷２１號","OBJECTID":413132},"geometry":{"x":165797.24000000022,"y":2538544.3100000024}},{"attributes":{"ID":413157,"DIS_CODE":0,"TOWNNAME":"南區","LI":"喜北里","LIN":"3鄰","STREET":"喜樹路","SECT":" ","MAREA":" ","LANE":"５６巷","ALLEY":" ","HOUSE_NO":"２３號","E_COORD97":165791.04999999999,"N_COORD97":2538544.2400000002,"ADDRESS":"喜樹路５６巷２３號","OBJECTID":413133},"geometry":{"x":165791.05000000075,"y":2538544.2400000039}},{"attributes":{"ID":413158,"DIS_CODE":0,"TOWNNAME":"南區","LI":"喜北里","LIN":"3鄰","STREET":"喜樹路","SECT":" ","MAREA":" ","LANE":"５６巷","ALLEY":" ","HOUSE_NO":"２５號","E_COORD97":165777.91,"N_COORD97":2538544.6200000001,"ADDRESS":"喜樹路５６巷２５號","OBJECTID":413134},"geometry":{"x":165777.91000000015,"y":2538544.620000001}},{"attributes":{"ID":413159,"DIS_CODE":0,"TOWNNAME":"南區","LI":"喜北里","LIN":"3鄰","STREET":"喜樹路","SECT":" ","MAREA":" ","LANE":"５６巷","ALLEY":" ","HOUSE_NO":"２７號","E_COORD97":165772.28,"N_COORD97":2538544.6200000001,"ADDRESS":"喜樹路５６巷２７號","OBJECTID":413135},"geometry":{"x":165772.28000000212,"y":2538544.620000001}},{"attributes":{"ID":413160,"DIS_CODE":0,"TOWNNAME":"南區","LI":"喜北里","LIN":"3鄰","STREET":"喜樹路","SECT":" ","MAREA":" ","LANE":"５６巷","ALLEY":" ","HOUSE_NO":"２９號","E_COORD97":165766.72,"N_COORD97":2538544.5600000001,"ADDRESS":"喜樹路５６巷２９號","OBJECTID":413136},"geometry":{"x":165766.71999999974,"y":2538544.5600000005}},{"attributes":{"ID":413161,"DIS_CODE":0,"TOWNNAME":"南區","LI":"喜北里","LIN":"3鄰","STREET":"喜樹路","SECT":" ","MAREA":" ","LANE":"５６巷","ALLEY":" ","HOUSE_NO":"３１號","E_COORD97":165761.29000000001,"N_COORD97":2538544.5600000001,"ADDRESS":"喜樹路５６巷３１號","OBJECTID":413137},"geometry":{"x":165761.29000000004,"y":2538544.5600000005}},{"attributes":{"ID":413162,"DIS_CODE":0,"TOWNNAME":"南區","LI":"喜北里","LIN":"3鄰","STREET":"喜樹路","SECT":" ","MAREA":" ","LANE":"５６巷","ALLEY":" ","HOUSE_NO":"３３號","E_COORD97":165755.48000000001,"N_COORD97":2538544.4300000002,"ADDRESS":"喜樹路５６巷３３號","OBJECTID":413138},"geometry":{"x":165755.48000000045,"y":2538544.4299999997}},{"attributes":{"ID":413163,"DIS_CODE":0,"TOWNNAME":"南區","LI":"喜北里","LIN":"3鄰","STREET":"喜樹路","SECT":" ","MAREA":" ","LANE":"５６巷","ALLEY":" ","HOUSE_NO":"３５號","E_COORD97":165749.85000000001,"N_COORD97":2538545.0600000001,"ADDRESS":"喜樹路５６巷３５號","OBJECTID":413139},"geometry":{"x":165749.85000000056,"y":2538545.0600000005}},{"attributes":{"ID":413164,"DIS_CODE":0,"TOWNNAME":"南區","LI":"喜北里","LIN":"3鄰","STREET":"喜樹路","SECT":" ","MAREA":" ","LANE":"５６巷","ALLEY":" ","HOUSE_NO":"３７號","E_COORD97":165744.54999999999,"N_COORD97":2538545.1200000001,"ADDRESS":"喜樹路５６巷３７號","OBJECTID":413140},"geometry":{"x":165744.55000000168,"y":2538545.120000001}},{"attributes":{"ID":413165,"DIS_CODE":0,"TOWNNAME":"南區","LI":"喜北里","LIN":"3鄰","STREET":"喜樹路","SECT":" ","MAREA":" ","LANE":"５６巷","ALLEY":" ","HOUSE_NO":"３９號","E_COORD97":165738.73000000001,"N_COORD97":2538545.1200000001,"ADDRESS":"喜樹路５６巷３９號","OBJECTID":413141},"geometry":{"x":165738.73000000045,"y":2538545.120000001}},{"attributes":{"ID":413166,"DIS_CODE":0,"TOWNNAME":"南區","LI":"喜北里","LIN":"3鄰","STREET":"喜樹路","SECT":" ","MAREA":" ","LANE":"５６巷","ALLEY":" ","HOUSE_NO":"４１號","E_COORD97":165733.23999999999,"N_COORD97":2538545.0600000001,"ADDRESS":"喜樹路５６巷４１號","OBJECTID":413142},"geometry":{"x":165733.24000000022,"y":2538545.0600000005}},{"attributes":{"ID":413167,"DIS_CODE":0,"TOWNNAME":"南區","LI":"喜北里","LIN":"3鄰","STREET":"喜樹路","SECT":" ","MAREA":" ","LANE":"５６巷","ALLEY":" ","HOUSE_NO":"４３號","E_COORD97":165728.06,"N_COORD97":2538545.1899999999,"ADDRESS":"喜樹路５６巷４３號","OBJECTID":413143},"geometry":{"x":165728.06000000052,"y":2538545.1900000013}},{"attributes":{"ID":413168,"DIS_CODE":0,"TOWNNAME":"南區","LI":"喜北里","LIN":"3鄰","STREET":"喜樹路","SECT":" ","MAREA":" ","LANE":"７２巷","ALLEY":" ","HOUSE_NO":"２號","E_COORD97":165850.70999999999,"N_COORD97":2538530.6499999999,"ADDRESS":"喜樹路７２巷２號","OBJECTID":413144},"geometry":{"x":165850.71000000089,"y":2538530.6500000004}},{"attributes":{"ID":413169,"DIS_CODE":0,"TOWNNAME":"南區","LI":"喜北里","LIN":"3鄰","STREET":"喜樹路","SECT":" ","MAREA":" ","LANE":"７２巷","ALLEY":" ","HOUSE_NO":"４號","E_COORD97":165845.20999999999,"N_COORD97":2538530.3999999999,"ADDRESS":"喜樹路７２巷４號","OBJECTID":413145},"geometry":{"x":165845.20999999996,"y":2538530.4000000022}},{"attributes":{"ID":413170,"DIS_CODE":0,"TOWNNAME":"南區","LI":"喜北里","LIN":"3鄰","STREET":"喜樹路","SECT":" ","MAREA":" ","LANE":"７２巷","ALLEY":" ","HOUSE_NO":"６號","E_COORD97":165839.53,"N_COORD97":2538530.52,"ADDRESS":"喜樹路７２巷６號","OBJECTID":413146},"geometry":{"x":165839.53000000026,"y":2538530.5199999996}},{"attributes":{"ID":413171,"DIS_CODE":0,"TOWNNAME":"南區","LI":"喜北里","LIN":"3鄰","STREET":"喜樹路","SECT":" ","MAREA":" ","LANE":"７２巷","ALLEY":" ","HOUSE_NO":"８號","E_COORD97":165834.22,"N_COORD97":2538529.2000000002,"ADDRESS":"喜樹路７２巷８號","OBJECTID":413147},"geometry":{"x":165834.21999999974,"y":2538529.1999999993}},{"attributes":{"ID":413172,"DIS_CODE":0,"TOWNNAME":"南區","LI":"喜北里","LIN":"3鄰","STREET":"喜樹路","SECT":" ","MAREA":" ","LANE":"７２巷","ALLEY":" ","HOUSE_NO":"１０號","E_COORD97":165828.85000000001,"N_COORD97":2538530.7799999998,"ADDRESS":"喜樹路７２巷１０號","OBJECTID":413148},"geometry":{"x":165828.85000000149,"y":2538530.7800000012}},{"attributes":{"ID":413173,"DIS_CODE":0,"TOWNNAME":"南區","LI":"喜北里","LIN":"3鄰","STREET":"喜樹路","SECT":" ","MAREA":" ","LANE":"７２巷","ALLEY":" ","HOUSE_NO":"１２號","E_COORD97":165823.67000000001,"N_COORD97":2538530.8399999999,"ADDRESS":"喜樹路７２巷１２號","OBJECTID":413149},"geometry":{"x":165823.67000000179,"y":2538530.8400000017}},{"attributes":{"ID":413174,"DIS_CODE":0,"TOWNNAME":"北區","LI":"玉皇里","LIN":"13鄰","STREET":"公園路","SECT":" ","MAREA":" ","LANE":" ","ALLEY":" ","HOUSE_NO":"２１３號","E_COORD97":168784.41,"N_COORD97":2544456.9500000002,"ADDRESS":"公園路２１３號","OBJECTID":413150},"geometry":{"x":168784.41000000108,"y":2544456.9499999993}},{"attributes":{"ID":413175,"DIS_CODE":0,"TOWNNAME":"南區","LI":"喜北里","LIN":"3鄰","STREET":"喜樹路","SECT":" ","MAREA":" ","LANE":"７２巷","ALLEY":" ","HOUSE_NO":"１４號","E_COORD97":165818.29999999999,"N_COORD97":2538530.8399999999,"ADDRESS":"喜樹路７２巷１４號","OBJECTID":413151},"geometry":{"x":165818.30000000075,"y":2538530.8400000017}},{"attributes":{"ID":413176,"DIS_CODE":0,"TOWNNAME":"南區","LI":"喜北里","LIN":"3鄰","STREET":"喜樹路","SECT":" ","MAREA":" ","LANE":"７２巷","ALLEY":" ","HOUSE_NO":"１６號","E_COORD97":165812.87,"N_COORD97":2538530.8999999999,"ADDRESS":"喜樹路７２巷１６號","OBJECTID":413152},"geometry":{"x":165812.87000000104,"y":2538530.9000000022}},{"attributes":{"ID":413177,"DIS_CODE":0,"TOWNNAME":"南區","LI":"喜北里","LIN":"3鄰","STREET":"喜樹路","SECT":" ","MAREA":" ","LANE":"７２巷","ALLEY":" ","HOUSE_NO":"１８號","E_COORD97":165807.81,"N_COORD97":2538531.0899999999,"ADDRESS":"喜樹路７２巷１８號","OBJECTID":413153},"geometry":{"x":165807.81000000052,"y":2538531.0900000036}},{"attributes":{"ID":413178,"DIS_CODE":0,"TOWNNAME":"南區","LI":"喜北里","LIN":"3鄰","STREET":"喜樹路","SECT":" ","MAREA":" ","LANE":"７２巷","ALLEY":" ","HOUSE_NO":"２０號","E_COORD97":165802.31,"N_COORD97":2538531.0899999999,"ADDRESS":"喜樹路７２巷２０號","OBJECTID":413154},"geometry":{"x":165802.31000000052,"y":2538531.0900000036}},{"attributes":{"ID":413179,"DIS_CODE":0,"TOWNNAME":"南區","LI":"喜北里","LIN":"3鄰","STREET":"喜樹路","SECT":" ","MAREA":" ","LANE":"７２巷","ALLEY":" ","HOUSE_NO":"２２號","E_COORD97":165796.98000000001,"N_COORD97":2538531.0899999999,"ADDRESS":"喜樹路７２巷２２號","OBJECTID":413155},"geometry":{"x":165796.98000000138,"y":2538531.0900000036}},{"attributes":{"ID":413180,"DIS_CODE":0,"TOWNNAME":"南區","LI":"喜北里","LIN":"3鄰","STREET":"喜樹路","SECT":" ","MAREA":" ","LANE":"７２巷","ALLEY":" ","HOUSE_NO":"２４號","E_COORD97":165791.10999999999,"N_COORD97":2538531.4100000001,"ADDRESS":"喜樹路７２巷２４號","OBJECTID":413156},"geometry":{"x":165791.11000000127,"y":2538531.4100000001}},{"attributes":{"ID":413181,"DIS_CODE":0,"TOWNNAME":"南區","LI":"喜北里","LIN":"3鄰","STREET":"喜樹路","SECT":" ","MAREA":" ","LANE":"７２巷","ALLEY":" ","HOUSE_NO":"２６號","E_COORD97":165777.45999999999,"N_COORD97":2538530.3500000001,"ADDRESS":"喜樹路７２巷２６號","OBJECTID":413157},"geometry":{"x":165777.45999999903,"y":2538530.3500000015}},{"attributes":{"ID":413182,"DIS_CODE":0,"TOWNNAME":"南區","LI":"喜北里","LIN":"3鄰","STREET":"喜樹路","SECT":" ","MAREA":" ","LANE":"７２巷","ALLEY":" ","HOUSE_NO":"２８號","E_COORD97":165772.54000000001,"N_COORD97":2538530.6699999999,"ADDRESS":"喜樹路７２巷２８號","OBJECTID":413158},"geometry":{"x":165772.54000000097,"y":2538530.6700000037}},{"attributes":{"ID":413183,"DIS_CODE":0,"TOWNNAME":"南區","LI":"喜北里","LIN":"3鄰","STREET":"喜樹路","SECT":" ","MAREA":" ","LANE":"７２巷","ALLEY":" ","HOUSE_NO":"３０號","E_COORD97":165766.60000000001,"N_COORD97":2538530.54,"ADDRESS":"喜樹路７２巷３０號","OBJECTID":413159},"geometry":{"x":165766.60000000056,"y":2538530.5400000028}},{"attributes":{"ID":413184,"DIS_CODE":0,"TOWNNAME":"南區","LI":"喜北里","LIN":"3鄰","STREET":"喜樹路","SECT":" ","MAREA":" ","LANE":"７２巷","ALLEY":" ","HOUSE_NO":"３２號","E_COORD97":165760.72,"N_COORD97":2538530.79,"ADDRESS":"喜樹路７２巷３２號","OBJECTID":413160},"geometry":{"x":165760.72000000067,"y":2538530.7899999991}},{"attributes":{"ID":413185,"DIS_CODE":0,"TOWNNAME":"南區","LI":"喜北里","LIN":"3鄰","STREET":"喜樹路","SECT":" ","MAREA":" ","LANE":"７２巷","ALLEY":" ","HOUSE_NO":"３４號","E_COORD97":165755.54000000001,"N_COORD97":2538530.79,"ADDRESS":"喜樹路７２巷３４號","OBJECTID":413161},"geometry":{"x":165755.54000000097,"y":2538530.7899999991}},{"attributes":{"ID":413186,"DIS_CODE":0,"TOWNNAME":"南區","LI":"喜北里","LIN":"3鄰","STREET":"喜樹路","SECT":" ","MAREA":" ","LANE":"７２巷","ALLEY":" ","HOUSE_NO":"３６號","E_COORD97":165750.10999999999,"N_COORD97":2538530.8599999999,"ADDRESS":"喜樹路７２巷３６號","OBJECTID":413162},"geometry":{"x":165750.11000000127,"y":2538530.8599999994}},{"attributes":{"ID":413187,"DIS_CODE":0,"TOWNNAME":"南區","LI":"喜北里","LIN":"3鄰","STREET":"喜樹路","SECT":" ","MAREA":" ","LANE":"７２巷","ALLEY":" ","HOUSE_NO":"３８號","E_COORD97":165744.60999999999,"N_COORD97":2538530.54,"ADDRESS":"喜樹路７２巷３８號","OBJECTID":413163},"geometry":{"x":165744.6099999994,"y":2538530.5400000028}},{"attributes":{"ID":413188,"DIS_CODE":0,"TOWNNAME":"南區","LI":"喜北里","LIN":"3鄰","STREET":"喜樹路","SECT":" ","MAREA":" ","LANE":"７２巷","ALLEY":" ","HOUSE_NO":"４０號","E_COORD97":165739.10999999999,"N_COORD97":2538530.79,"ADDRESS":"喜樹路７２巷４０號","OBJECTID":413164},"geometry":{"x":165739.11000000034,"y":2538530.7899999991}},{"attributes":{"ID":413189,"DIS_CODE":0,"TOWNNAME":"南區","LI":"喜北里","LIN":"3鄰","STREET":"喜樹路","SECT":" ","MAREA":" ","LANE":"７２巷","ALLEY":" ","HOUSE_NO":"４２號","E_COORD97":165733.54999999999,"N_COORD97":2538530.98,"ADDRESS":"喜樹路７２巷４２號","OBJECTID":413165},"geometry":{"x":165733.55000000075,"y":2538530.9800000004}},{"attributes":{"ID":413190,"DIS_CODE":0,"TOWNNAME":"南區","LI":"喜北里","LIN":"3鄰","STREET":"喜樹路","SECT":" ","MAREA":" ","LANE":"７２巷","ALLEY":" ","HOUSE_NO":"４４號","E_COORD97":165727.67999999999,"N_COORD97":2538530.98,"ADDRESS":"喜樹路７２巷４４號","OBJECTID":413166},"geometry":{"x":165727.6799999997,"y":2538530.9800000004}},{"attributes":{"ID":413191,"DIS_CODE":0,"TOWNNAME":"南區","LI":"喜東里","LIN":"3鄰","STREET":"明興路","SECT":" ","MAREA":" ","LANE":"３６０巷","ALLEY":" ","HOUSE_NO":"９號","E_COORD97":166292.12,"N_COORD97":2538939.0600000001,"ADDRESS":"明興路３６０巷９號","OBJECTID":413167},"geometry":{"x":166292.12000000104,"y":2538939.0600000042}},{"attributes":{"ID":413192,"DIS_CODE":0,"TOWNNAME":"南區","LI":"喜東里","LIN":"3鄰","STREET":"明興路","SECT":" ","MAREA":" ","LANE":"３３８巷","ALLEY":" ","HOUSE_NO":"１０號","E_COORD97":166308.14999999999,"N_COORD97":2539002.9399999999,"ADDRESS":"明興路３３８巷１０號","OBJECTID":413168},"geometry":{"x":166308.15000000037,"y":2539002.9400000032}},{"attributes":{"ID":413193,"DIS_CODE":0,"TOWNNAME":"南區","LI":"喜東里","LIN":"3鄰","STREET":"明興路","SECT":" ","MAREA":" ","LANE":"３３８巷","ALLEY":" ","HOUSE_NO":"１號","E_COORD97":166319.19,"N_COORD97":2538980.29,"ADDRESS":"明興路３３８巷１號","OBJECTID":413169},"geometry":{"x":166319.19000000134,"y":2538980.290000001}},{"attributes":{"ID":413194,"DIS_CODE":0,"TOWNNAME":"南區","LI":"喜東里","LIN":"3鄰","STREET":"明興路","SECT":" ","MAREA":" ","LANE":"３３８巷","ALLEY":" ","HOUSE_NO":"２號","E_COORD97":166324.75,"N_COORD97":2538998.8599999999,"ADDRESS":"明興路３３８巷２號","OBJECTID":413170},"geometry":{"x":166324.74999999907,"y":2538998.8599999994}},{"attributes":{"ID":413195,"DIS_CODE":0,"TOWNNAME":"南區","LI":"喜東里","LIN":"3鄰","STREET":"明興路","SECT":" ","MAREA":" ","LANE":"３３８巷","ALLEY":" ","HOUSE_NO":"３號","E_COORD97":166315.23999999999,"N_COORD97":2538981.7200000002,"ADDRESS":"明興路３３８巷３號","OBJECTID":413171},"geometry":{"x":166315.24000000115,"y":2538981.7199999988}},{"attributes":{"ID":413196,"DIS_CODE":0,"TOWNNAME":"南區","LI":"喜東里","LIN":"3鄰","STREET":"明興路","SECT":" ","MAREA":" ","LANE":"３３８巷","ALLEY":" ","HOUSE_NO":"４號","E_COORD97":166320.89999999999,"N_COORD97":2538999.8199999998,"ADDRESS":"明興路３３８巷４號","OBJECTID":413172},"geometry":{"x":166320.90000000224,"y":2538999.8200000003}},{"attributes":{"ID":413197,"DIS_CODE":0,"TOWNNAME":"南區","LI":"喜東里","LIN":"3鄰","STREET":"明興路","SECT":" ","MAREA":" ","LANE":"３３８巷","ALLEY":" ","HOUSE_NO":"５號","E_COORD97":166311.19,"N_COORD97":2538982.8100000001,"ADDRESS":"明興路３３８巷５號","OBJECTID":413173},"geometry":{"x":166311.19000000134,"y":2538982.8100000024}},{"attributes":{"ID":413198,"DIS_CODE":0,"TOWNNAME":"南區","LI":"喜東里","LIN":"3鄰","STREET":"明興路","SECT":" ","MAREA":" ","LANE":"３３８巷","ALLEY":" ","HOUSE_NO":"６號","E_COORD97":166317.04999999999,"N_COORD97":2539001.02,"ADDRESS":"明興路３３８巷６號","OBJECTID":413174},"geometry":{"x":166317.04999999981,"y":2539001.0199999996}},{"attributes":{"ID":413199,"DIS_CODE":0,"TOWNNAME":"南區","LI":"喜東里","LIN":"3鄰","STREET":"明興路","SECT":" ","MAREA":" ","LANE":"３３８巷","ALLEY":" ","HOUSE_NO":"７號","E_COORD97":166306.81,"N_COORD97":2538983.25,"ADDRESS":"明興路３３８巷７號","OBJECTID":413175},"geometry":{"x":166306.80999999959,"y":2538983.25}},{"attributes":{"ID":413200,"DIS_CODE":0,"TOWNNAME":"南區","LI":"喜東里","LIN":"3鄰","STREET":"明興路","SECT":" ","MAREA":" ","LANE":"３３８巷","ALLEY":" ","HOUSE_NO":"８號","E_COORD97":166312.84,"N_COORD97":2539001.8599999999,"ADDRESS":"明興路３３８巷８號","OBJECTID":413176},"geometry":{"x":166312.84000000078,"y":2539001.8599999994}},{"attributes":{"ID":413201,"DIS_CODE":0,"TOWNNAME":"南區","LI":"喜東里","LIN":"3鄰","STREET":"明興路","SECT":" ","MAREA":" ","LANE":"３３８巷","ALLEY":" ","HOUSE_NO":"９號","E_COORD97":166302.75,"N_COORD97":2538984.7799999998,"ADDRESS":"明興路３３８巷９號","OBJECTID":413177},"geometry":{"x":166302.74999999907,"y":2538984.7800000012}},{"attributes":{"ID":413202,"DIS_CODE":0,"TOWNNAME":"南區","LI":"喜東里","LIN":"3鄰","STREET":"明興路","SECT":" ","MAREA":" ","LANE":"３６０巷","ALLEY":" ","HOUSE_NO":"３號","E_COORD97":166302.85999999999,"N_COORD97":2538936.1099999999,"ADDRESS":"明興路３６０巷３號","OBJECTID":413178},"geometry":{"x":166302.86000000127,"y":2538936.1099999994}},{"attributes":{"ID":413203,"DIS_CODE":0,"TOWNNAME":"南區","LI":"喜東里","LIN":"3鄰","STREET":"明興路","SECT":" ","MAREA":" ","LANE":"３６０巷","ALLEY":" ","HOUSE_NO":"４號","E_COORD97":166307.89999999999,"N_COORD97":2538953.7000000002,"ADDRESS":"明興路３６０巷４號","OBJECTID":413179},"geometry":{"x":166307.9000000013,"y":2538953.700000003}},{"attributes":{"ID":413204,"DIS_CODE":0,"TOWNNAME":"南區","LI":"喜東里","LIN":"3鄰","STREET":"明興路","SECT":" ","MAREA":" ","LANE":"３６０巷","ALLEY":" ","HOUSE_NO":"５號","E_COORD97":166299.25,"N_COORD97":2538937.0899999999,"ADDRESS":"明興路３６０巷５號","OBJECTID":413180},"geometry":{"x":166299.25,"y":2538937.0899999999}},{"attributes":{"ID":413205,"DIS_CODE":0,"TOWNNAME":"南區","LI":"喜東里","LIN":"3鄰","STREET":"明興路","SECT":" ","MAREA":" ","LANE":"３６０巷","ALLEY":" ","HOUSE_NO":"６號","E_COORD97":166303.85000000001,"N_COORD97":2538954.25,"ADDRESS":"明興路３６０巷６號","OBJECTID":413181},"geometry":{"x":166303.85000000056,"y":2538954.2500000019}},{"attributes":{"ID":413206,"DIS_CODE":0,"TOWNNAME":"南區","LI":"喜東里","LIN":"3鄰","STREET":"明興路","SECT":" ","MAREA":" ","LANE":"３６０巷","ALLEY":" ","HOUSE_NO":"７號","E_COORD97":166295.63,"N_COORD97":2538938.1899999999,"ADDRESS":"明興路３６０巷７號","OBJECTID":413182},"geometry":{"x":166295.63000000082,"y":2538938.1900000013}},{"attributes":{"ID":413207,"DIS_CODE":0,"TOWNNAME":"南區","LI":"喜東里","LIN":"3鄰","STREET":"明興路","SECT":" ","MAREA":" ","LANE":"３６０巷","ALLEY":" ","HOUSE_NO":"８號","E_COORD97":166300.12,"N_COORD97":2538954.9100000001,"ADDRESS":"明興路３６０巷８號","OBJECTID":413183},"geometry":{"x":166300.12000000011,"y":2538954.9100000001}},{"attributes":{"ID":413208,"DIS_CODE":0,"TOWNNAME":"南區","LI":"喜南里","LIN":"3鄰","STREET":"喜樹路","SECT":" ","MAREA":" ","LANE":"３４０巷","ALLEY":" ","HOUSE_NO":"２４號","E_COORD97":165668.04000000001,"N_COORD97":2537693.5899999999,"ADDRESS":"喜樹路３４０巷２４號","OBJECTID":413184},"geometry":{"x":165668.04000000004,"y":2537693.5900000036}},{"attributes":{"ID":413209,"DIS_CODE":0,"TOWNNAME":"南區","LI":"喜南里","LIN":"3鄰","STREET":"喜樹路","SECT":" ","MAREA":" ","LANE":"３４０巷","ALLEY":" ","HOUSE_NO":"３２號","E_COORD97":165652.48999999999,"N_COORD97":2537688.5099999998,"ADDRESS":"喜樹路３４０巷３２號","OBJECTID":413185},"geometry":{"x":165652.49000000115,"y":2537688.5100000016}},{"attributes":{"ID":413210,"DIS_CODE":0,"TOWNNAME":"南區","LI":"喜南里","LIN":"3鄰","STREET":"喜樹路","SECT":" ","MAREA":" ","LANE":"３４０巷","ALLEY":" ","HOUSE_NO":"３４號","E_COORD97":165639.13,"N_COORD97":2537702.5899999999,"ADDRESS":"喜樹路３４０巷３４號","OBJECTID":413186},"geometry":{"x":165639.13000000175,"y":2537702.5899999999}},{"attributes":{"ID":413211,"DIS_CODE":0,"TOWNNAME":"南區","LI":"喜南里","LIN":"3鄰","STREET":"喜樹路","SECT":" ","MAREA":" ","LANE":"３４０巷","ALLEY":" ","HOUSE_NO":"４０號","E_COORD97":165635.73999999999,"N_COORD97":2537684.8199999998,"ADDRESS":"喜樹路３４０巷４０號","OBJECTID":413187},"geometry":{"x":165635.74000000115,"y":2537684.8200000003}},{"attributes":{"ID":413212,"DIS_CODE":0,"TOWNNAME":"南區","LI":"喜南里","LIN":"3鄰","STREET":"喜樹路","SECT":" ","MAREA":" ","LANE":"３４０巷","ALLEY":" ","HOUSE_NO":"４２號","E_COORD97":165630.42000000001,"N_COORD97":2537682.8199999998,"ADDRESS":"喜樹路３４０巷４２號","OBJECTID":413188},"geometry":{"x":165630.42000000179,"y":2537682.8200000022}},{"attributes":{"ID":413213,"DIS_CODE":0,"TOWNNAME":"南區","LI":"喜南里","LIN":"3鄰","STREET":"喜樹路","SECT":" ","MAREA":" ","LANE":"３４０巷","ALLEY":" ","HOUSE_NO":"４６號","E_COORD97":165626.17000000001,"N_COORD97":2537681.5,"ADDRESS":"喜樹路３４０巷４６號","OBJECTID":413189},"geometry":{"x":165626.16999999993,"y":2537681.5000000019}},{"attributes":{"ID":413214,"DIS_CODE":0,"TOWNNAME":"南區","LI":"喜南里","LIN":"3鄰","STREET":"喜樹路","SECT":" ","MAREA":" ","LANE":"３４０巷","ALLEY":" ","HOUSE_NO":"５６號","E_COORD97":165610.98000000001,"N_COORD97":2537678.98,"ADDRESS":"喜樹路３４０巷５６號","OBJECTID":413190},"geometry":{"x":165610.98000000045,"y":2537678.9800000023}},{"attributes":{"ID":413215,"DIS_CODE":0,"TOWNNAME":"永康區","LI":"東橋里","LIN":"3鄰","STREET":"大橋一街","SECT":" ","MAREA":" ","LANE":"３３０巷","ALLEY":" ","HOUSE_NO":"２號","E_COORD97":171338.51999999999,"N_COORD97":2546663.5299999998,"ADDRESS":"大橋一街３３０巷２號","OBJECTID":413191},"geometry":{"x":171338.51999999862,"y":2546663.5299999993}},{"attributes":{"ID":413216,"DIS_CODE":0,"TOWNNAME":"永康區","LI":"神洲里","LIN":"3鄰","STREET":"忠孝路","SECT":" ","MAREA":" ","LANE":"３６巷","ALLEY":" ","HOUSE_NO":"１４號","E_COORD97":172145.85000000001,"N_COORD97":2544669.5,"ADDRESS":"忠孝路３６巷１４號","OBJECTID":413192},"geometry":{"x":172145.85000000056,"y":2544669.5000000019}},{"attributes":{"ID":413217,"DIS_CODE":0,"TOWNNAME":"永康區","LI":"神洲里","LIN":"3鄰","STREET":"忠孝路","SECT":" ","MAREA":" ","LANE":"３６巷","ALLEY":" ","HOUSE_NO":"４號","E_COORD97":172104.38,"N_COORD97":2544668,"ADDRESS":"忠孝路３６巷４號","OBJECTID":413193},"geometry":{"x":172104.37999999896,"y":2544668}},{"attributes":{"ID":413218,"DIS_CODE":0,"TOWNNAME":"永康區","LI":"東橋里","LIN":"3鄰","STREET":"大橋一街","SECT":" ","MAREA":" ","LANE":"３３０巷","ALLEY":" ","HOUSE_NO":"５號","E_COORD97":171354.41,"N_COORD97":2546659.29,"ADDRESS":"大橋一街３３０巷５號","OBJECTID":413194},"geometry":{"x":171354.41000000015,"y":2546659.2900000028}},{"attributes":{"ID":413219,"DIS_CODE":0,"TOWNNAME":"永康區","LI":"神洲里","LIN":"3鄰","STREET":"忠孝路","SECT":" ","MAREA":" ","LANE":"３６巷","ALLEY":" ","HOUSE_NO":"１８號","E_COORD97":172157.92000000001,"N_COORD97":2544670,"ADDRESS":"忠孝路３６巷１８號","OBJECTID":413195},"geometry":{"x":172157.91999999993,"y":2544670.0000000019}},{"attributes":{"ID":413220,"DIS_CODE":0,"TOWNNAME":"永康區","LI":"神洲里","LIN":"3鄰","STREET":"忠孝路","SECT":" ","MAREA":" ","LANE":"３６巷","ALLEY":" ","HOUSE_NO":"２號","E_COORD97":172097.39999999999,"N_COORD97":2544668.25,"ADDRESS":"忠孝路３６巷２號","OBJECTID":413196},"geometry":{"x":172097.40000000037,"y":2544668.2500000019}},{"attributes":{"ID":413221,"DIS_CODE":0,"TOWNNAME":"永康區","LI":"神洲里","LIN":"3鄰","STREET":"忠孝路","SECT":" ","MAREA":" ","LANE":"３２巷","ALLEY":" ","HOUSE_NO":"２３號","E_COORD97":172175.88,"N_COORD97":2544649.25,"ADDRESS":"忠孝路３２巷２３號","OBJECTID":413197},"geometry":{"x":172175.88000000082,"y":2544649.25}},{"attributes":{"ID":413222,"DIS_CODE":0,"TOWNNAME":"永康區","LI":"神洲里","LIN":"3鄰","STREET":"忠孝路","SECT":" ","MAREA":" ","LANE":"３６巷","ALLEY":" ","HOUSE_NO":"８號","E_COORD97":172115.79000000001,"N_COORD97":2544668.5,"ADDRESS":"忠孝路３６巷８號","OBJECTID":413198},"geometry":{"x":172115.79000000097,"y":2544668.5000000037}},{"attributes":{"ID":413223,"DIS_CODE":0,"TOWNNAME":"永康區","LI":"神洲里","LIN":"3鄰","STREET":"忠孝路","SECT":" ","MAREA":" ","LANE":"３６巷","ALLEY":" ","HOUSE_NO":"１２號","E_COORD97":172128.98000000001,"N_COORD97":2544669,"ADDRESS":"忠孝路３６巷１２號","OBJECTID":413199},"geometry":{"x":172128.98000000045,"y":2544669.0000000019}},{"attributes":{"ID":413224,"DIS_CODE":0,"TOWNNAME":"永康區","LI":"神洲里","LIN":"3鄰","STREET":"忠孝路","SECT":" ","MAREA":" ","LANE":"３２巷","ALLEY":" ","HOUSE_NO":"２１號","E_COORD97":172170.29000000001,"N_COORD97":2544649.25,"ADDRESS":"忠孝路３２巷２１號","OBJECTID":413200},"geometry":{"x":172170.29000000097,"y":2544649.25}}]}