{"displayFieldName":"TOWNNAME","fieldAliases":{"ID":"ID","DIS_CODE":"DIS_CODE","TOWNNAME":"TOWNNAME","LI":"LI","LIN":"LIN","STREET":"STREET","SECT":"SECT","MAREA":"MAREA","LANE":"LANE","ALLEY":"ALLEY","HOUSE_NO":"HOUSE_NO","E_COORD97":"E_COORD97","N_COORD97":"N_COORD97","ADDRESS":"ADDRESS","OBJECTID":"OBJECTID"},"geometryType":"esriGeometryPoint","spatialReference":{"wkid":102443,"latestWkid":3826},"fields":[{"name":"ID","type":"esriFieldTypeDouble","alias":"ID"},{"name":"DIS_CODE","type":"esriFieldTypeInteger","alias":"DIS_CODE"},{"name":"TOWNNAME","type":"esriFieldTypeString","alias":"TOWNNAME","length":8},{"name":"LI","type":"esriFieldTypeString","alias":"LI","length":8},{"name":"LIN","type":"esriFieldTypeString","alias":"LIN","length":12},{"name":"STREET","type":"esriFieldTypeString","alias":"STREET","length":20},{"name":"SECT","type":"esriFieldTypeString","alias":"SECT","length":8},{"name":"MAREA","type":"esriFieldTypeString","alias":"MAREA","length":12},{"name":"LANE","type":"esriFieldTypeString","alias":"LANE","length":10},{"name":"ALLEY","type":"esriFieldTypeString","alias":"ALLEY","length":10},{"name":"HOUSE_NO","type":"esriFieldTypeString","alias":"HOUSE_NO","length":20},{"name":"E_COORD97","type":"esriFieldTypeDouble","alias":"E_COORD97"},{"name":"N_COORD97","type":"esriFieldTypeDouble","alias":"N_COORD97"},{"name":"ADDRESS","type":"esriFieldTypeString","alias":"ADDRESS","length":50},{"name":"OBJECTID","type":"esriFieldTypeOID","alias":"OBJECTID"}],"features":[{"attributes":{"ID":194802,"DIS_CODE":0,"TOWNNAME":"南區","LI":"大忠里","LIN":"38鄰","STREET":"國民路","SECT":" ","MAREA":" ","LANE":"２７０巷","ALLEY":"７３弄","HOUSE_NO":"５５號","E_COORD97":168872.82000000001,"N_COORD97":2541407.6299999999,"ADDRESS":"國民路２７０巷７３弄５５號","OBJECTID":194801},"geometry":{"x":168872.82000000123,"y":2541407.629999999}},{"attributes":{"ID":194803,"DIS_CODE":0,"TOWNNAME":"南區","LI":"大忠里","LIN":"38鄰","STREET":"國民路","SECT":" ","MAREA":" ","LANE":"２７０巷","ALLEY":"７３弄","HOUSE_NO":"５７號","E_COORD97":168867.54000000001,"N_COORD97":2541413.7599999998,"ADDRESS":"國民路２７０巷７３弄５７號","OBJECTID":194802},"geometry":{"x":168867.5400000019,"y":2541413.7599999998}},{"attributes":{"ID":194804,"DIS_CODE":0,"TOWNNAME":"南區","LI":"大忠里","LIN":"38鄰","STREET":"國民路","SECT":" ","MAREA":" ","LANE":"２７０巷","ALLEY":"７３弄","HOUSE_NO":"５９號","E_COORD97":168863.84,"N_COORD97":2541418.0299999998,"ADDRESS":"國民路２７０巷７３弄５９號","OBJECTID":194803},"geometry":{"x":168863.84000000078,"y":2541418.0299999993}},{"attributes":{"ID":194805,"DIS_CODE":0,"TOWNNAME":"南區","LI":"大忠里","LIN":"38鄰","STREET":"國民路","SECT":" ","MAREA":" ","LANE":"２７０巷","ALLEY":"７３弄","HOUSE_NO":"５號","E_COORD97":168882.57999999999,"N_COORD97":2541386.6800000002,"ADDRESS":"國民路２７０巷７３弄５號","OBJECTID":194804},"geometry":{"x":168882.58000000101,"y":2541386.6800000016}},{"attributes":{"ID":194806,"DIS_CODE":0,"TOWNNAME":"南區","LI":"大忠里","LIN":"38鄰","STREET":"國民路","SECT":" ","MAREA":" ","LANE":"２７０巷","ALLEY":"７３弄","HOUSE_NO":"６１號","E_COORD97":168860.70000000001,"N_COORD97":2541411.21,"ADDRESS":"國民路２７０巷７３弄６１號","OBJECTID":194805},"geometry":{"x":168860.70000000019,"y":2541411.2100000028}},{"attributes":{"ID":194807,"DIS_CODE":0,"TOWNNAME":"南區","LI":"大忠里","LIN":"38鄰","STREET":"國民路","SECT":" ","MAREA":" ","LANE":"２７０巷","ALLEY":"７３弄","HOUSE_NO":"６３號","E_COORD97":168856.70999999999,"N_COORD97":2541407.79,"ADDRESS":"國民路２７０巷７３弄６３號","OBJECTID":194806},"geometry":{"x":168856.71000000089,"y":2541407.790000001}},{"attributes":{"ID":194808,"DIS_CODE":0,"TOWNNAME":"玉井區","LI":"玉田里","LIN":"21鄰","STREET":"中華路","SECT":" ","MAREA":" ","LANE":" ","ALLEY":" ","HOUSE_NO":"２４５號","E_COORD97":195224.54999999999,"N_COORD97":2557813.25,"ADDRESS":"中華路２４５號","OBJECTID":194807},"geometry":{"x":195224.55000000075,"y":2557813.25}},{"attributes":{"ID":194809,"DIS_CODE":0,"TOWNNAME":"新化區","LI":"唪口里","LIN":"4鄰","STREET":"大德路","SECT":" ","MAREA":" ","LANE":" ","ALLEY":" ","HOUSE_NO":"８６號之２１","E_COORD97":178178.26000000001,"N_COORD97":2549518.2599999998,"ADDRESS":"大德路８６號之２１","OBJECTID":194808},"geometry":{"x":178178.25999999978,"y":2549518.2600000035}},{"attributes":{"ID":194810,"DIS_CODE":0,"TOWNNAME":"新化區","LI":"東榮里","LIN":"32鄰","STREET":"中正路","SECT":" ","MAREA":" ","LANE":" ","ALLEY":" ","HOUSE_NO":"３９６號","E_COORD97":179093.10999999999,"N_COORD97":2548409.25,"ADDRESS":"中正路３９６號","OBJECTID":194809},"geometry":{"x":179093.11000000127,"y":2548409.25}},{"attributes":{"ID":194811,"DIS_CODE":0,"TOWNNAME":"新化區","LI":"東榮里","LIN":"13鄰","STREET":"中興路","SECT":" ","MAREA":" ","LANE":" ","ALLEY":" ","HOUSE_NO":"５７７號","E_COORD97":179880.54189299999,"N_COORD97":2547930.8153499998,"ADDRESS":"中興路５７７號","OBJECTID":194810},"geometry":{"x":179880.54189300071,"y":2547930.815347001}},{"attributes":{"ID":194812,"DIS_CODE":0,"TOWNNAME":"新化區","LI":"竹林里","LIN":"4鄰","STREET":"中山路","SECT":" ","MAREA":" ","LANE":" ","ALLEY":" ","HOUSE_NO":"３５２號","E_COORD97":178898.10999999999,"N_COORD97":2548427.25,"ADDRESS":"中山路３５２號","OBJECTID":194811},"geometry":{"x":178898.11000000127,"y":2548427.2500000019}},{"attributes":{"ID":194813,"DIS_CODE":0,"TOWNNAME":"新化區","LI":"竹林里","LIN":"4鄰","STREET":"中山路","SECT":" ","MAREA":" ","LANE":" ","ALLEY":" ","HOUSE_NO":"３６０號","E_COORD97":178884.10999999999,"N_COORD97":2548426.25,"ADDRESS":"中山路３６０號","OBJECTID":194812},"geometry":{"x":178884.1100000022,"y":2548426.25}},{"attributes":{"ID":194814,"DIS_CODE":0,"TOWNNAME":"南區","LI":"大忠里","LIN":"38鄰","STREET":"國民路","SECT":" ","MAREA":" ","LANE":"２７０巷","ALLEY":"７３弄","HOUSE_NO":"６５號","E_COORD97":168853,"N_COORD97":2541404.3799999999,"ADDRESS":"國民路２７０巷７３弄６５號","OBJECTID":194813},"geometry":{"x":168853.00000000093,"y":2541404.3800000008}},{"attributes":{"ID":194815,"DIS_CODE":0,"TOWNNAME":"新化區","LI":"唪口里","LIN":"4鄰","STREET":"大德路","SECT":" ","MAREA":" ","LANE":" ","ALLEY":" ","HOUSE_NO":"９０號之１３","E_COORD97":178115.67999999999,"N_COORD97":2549487.2599999998,"ADDRESS":"大德路９０號之１３","OBJECTID":194814},"geometry":{"x":178115.68000000063,"y":2549487.2599999998}},{"attributes":{"ID":194816,"DIS_CODE":0,"TOWNNAME":"新化區","LI":"太平里","LIN":"4鄰","STREET":"中正路","SECT":" ","MAREA":" ","LANE":" ","ALLEY":" ","HOUSE_NO":"５４６號之１","E_COORD97":178941.14000000001,"N_COORD97":2548910.2599999998,"ADDRESS":"中正路５４６號之１","OBJECTID":194815},"geometry":{"x":178941.1400000006,"y":2548910.2599999998}},{"attributes":{"ID":194817,"DIS_CODE":0,"TOWNNAME":"新化區","LI":"太平里","LIN":"17鄰","STREET":"太平街","SECT":" ","MAREA":" ","LANE":" ","ALLEY":" ","HOUSE_NO":"８９號之１","E_COORD97":178673.39999999999,"N_COORD97":2548743.2599999998,"ADDRESS":"太平街８９號之１","OBJECTID":194816},"geometry":{"x":178673.40000000037,"y":2548743.2600000016}},{"attributes":{"ID":194818,"DIS_CODE":0,"TOWNNAME":"新化區","LI":"觀音里","LIN":"6鄰","STREET":"中正路","SECT":" ","MAREA":" ","LANE":" ","ALLEY":" ","HOUSE_NO":"５３９號之１","E_COORD97":179004.57559399999,"N_COORD97":2548642.8090900001,"ADDRESS":"中正路５３９號之１","OBJECTID":194817},"geometry":{"x":179004.57559400052,"y":2548642.8090900015}},{"attributes":{"ID":194819,"DIS_CODE":0,"TOWNNAME":"新化區","LI":"太平里","LIN":"10鄰","STREET":"中正路","SECT":" ","MAREA":" ","LANE":" ","ALLEY":" ","HOUSE_NO":"８５５號之２","E_COORD97":178578.85999999999,"N_COORD97":2549513.2599999998,"ADDRESS":"中正路８５５號之２","OBJECTID":194818},"geometry":{"x":178578.8599999994,"y":2549513.2599999998}},{"attributes":{"ID":194820,"DIS_CODE":0,"TOWNNAME":"安南區","LI":"淵東里","LIN":"9鄰","STREET":"安中路","SECT":"三段","MAREA":" ","LANE":" ","ALLEY":" ","HOUSE_NO":"４０２號","E_COORD97":165386.12,"N_COORD97":2550033.04,"ADDRESS":"安中路三段４０２號","OBJECTID":194819},"geometry":{"x":165386.12000000011,"y":2550033.0399999991}},{"attributes":{"ID":194821,"DIS_CODE":0,"TOWNNAME":"鹽水區","LI":"歡雅里","LIN":"3鄰","STREET":" ","SECT":" ","MAREA":"歡雅","LANE":" ","ALLEY":" ","HOUSE_NO":"６３之２３號","E_COORD97":172378.56,"N_COORD97":2576630.7599999998,"ADDRESS":"歡雅６３之２３號","OBJECTID":194820},"geometry":{"x":172378.55999999959,"y":2576630.7599999979}},{"attributes":{"ID":194822,"DIS_CODE":0,"TOWNNAME":"柳營區","LI":"旭山里","LIN":"21鄰","STREET":" ","SECT":" ","MAREA":"山子腳","LANE":" ","ALLEY":" ","HOUSE_NO":"６３號","E_COORD97":186650.98999999999,"N_COORD97":2574222.9500000002,"ADDRESS":"山子腳６３號","OBJECTID":194821},"geometry":{"x":186650.99000000115,"y":2574222.9500000011}},{"attributes":{"ID":194823,"DIS_CODE":0,"TOWNNAME":"南區","LI":"大忠里","LIN":"38鄰","STREET":"國民路","SECT":" ","MAREA":" ","LANE":"２７０巷","ALLEY":"７３弄","HOUSE_NO":"６７號","E_COORD97":168849.57999999999,"N_COORD97":2541401.2599999998,"ADDRESS":"國民路２７０巷７３弄６７號","OBJECTID":194822},"geometry":{"x":168849.58000000007,"y":2541401.2599999979}},{"attributes":{"ID":194824,"DIS_CODE":0,"TOWNNAME":"南區","LI":"大忠里","LIN":"38鄰","STREET":"國民路","SECT":" ","MAREA":" ","LANE":"２７０巷","ALLEY":"７３弄","HOUSE_NO":"６９號","E_COORD97":168845.87,"N_COORD97":2541398.4100000001,"ADDRESS":"國民路２７０巷７３弄６９號","OBJECTID":194823},"geometry":{"x":168845.87000000011,"y":2541398.410000002}},{"attributes":{"ID":194825,"DIS_CODE":0,"TOWNNAME":"南區","LI":"大忠里","LIN":"38鄰","STREET":"國民路","SECT":" ","MAREA":" ","LANE":"２７０巷","ALLEY":"７３弄","HOUSE_NO":"７１號","E_COORD97":168842.17000000001,"N_COORD97":2541395.5699999998,"ADDRESS":"國民路２７０巷７３弄７１號","OBJECTID":194824},"geometry":{"x":168842.16999999993,"y":2541395.5700000003}},{"attributes":{"ID":194826,"DIS_CODE":0,"TOWNNAME":"南區","LI":"大忠里","LIN":"38鄰","STREET":"國民路","SECT":" ","MAREA":" ","LANE":"２７０巷","ALLEY":"７３弄","HOUSE_NO":"７３號","E_COORD97":168839.03,"N_COORD97":2541392.4399999999,"ADDRESS":"國民路２７０巷７３弄７３號","OBJECTID":194825},"geometry":{"x":168839.03000000212,"y":2541392.4399999995}},{"attributes":{"ID":194827,"DIS_CODE":0,"TOWNNAME":"南區","LI":"大忠里","LIN":"38鄰","STREET":"國民路","SECT":" ","MAREA":" ","LANE":"２７０巷","ALLEY":"７３弄","HOUSE_NO":"７５號","E_COORD97":168835.22,"N_COORD97":2541389.02,"ADDRESS":"國民路２７０巷７３弄７５號","OBJECTID":194826},"geometry":{"x":168835.21999999974,"y":2541389.0199999996}},{"attributes":{"ID":194828,"DIS_CODE":0,"TOWNNAME":"南區","LI":"大忠里","LIN":"38鄰","STREET":"國民路","SECT":" ","MAREA":" ","LANE":"２７０巷","ALLEY":"７３弄","HOUSE_NO":"７７號","E_COORD97":168831.42000000001,"N_COORD97":2541386.3900000001,"ADDRESS":"國民路２７０巷７３弄７７號","OBJECTID":194827},"geometry":{"x":168831.42000000086,"y":2541386.3900000006}},{"attributes":{"ID":194829,"DIS_CODE":0,"TOWNNAME":"南區","LI":"大忠里","LIN":"38鄰","STREET":"國民路","SECT":" ","MAREA":" ","LANE":"２７０巷","ALLEY":"７３弄","HOUSE_NO":"７９號","E_COORD97":168828.20999999999,"N_COORD97":2541382.8999999999,"ADDRESS":"國民路２７０巷７３弄７９號","OBJECTID":194828},"geometry":{"x":168828.20999999996,"y":2541382.9000000004}},{"attributes":{"ID":194830,"DIS_CODE":0,"TOWNNAME":"新營區","LI":"太北里","LIN":"21鄰","STREET":" ","SECT":" ","MAREA":"太子宮","LANE":" ","ALLEY":" ","HOUSE_NO":"１５２之６號","E_COORD97":175304.73000000001,"N_COORD97":2577183.71,"ADDRESS":"太子宮１５２之６號","OBJECTID":194829},"geometry":{"x":175304.73000000045,"y":2577183.7100000009}},{"attributes":{"ID":194831,"DIS_CODE":0,"TOWNNAME":"新營區","LI":"太北里","LIN":"21鄰","STREET":" ","SECT":" ","MAREA":"太子宮","LANE":" ","ALLEY":" ","HOUSE_NO":"１５２之３９號","E_COORD97":175284.85000000001,"N_COORD97":2577254.6899999999,"ADDRESS":"太子宮１５２之３９號","OBJECTID":194830},"geometry":{"x":175284.85000000056,"y":2577254.6899999976}},{"attributes":{"ID":194832,"DIS_CODE":0,"TOWNNAME":"鹽水區","LI":"歡雅里","LIN":"3鄰","STREET":" ","SECT":" ","MAREA":"歡雅","LANE":" ","ALLEY":" ","HOUSE_NO":"６３之２４號","E_COORD97":172379.51000000001,"N_COORD97":2576626.6499999999,"ADDRESS":"歡雅６３之２４號","OBJECTID":194831},"geometry":{"x":172379.50999999978,"y":2576626.6500000022}},{"attributes":{"ID":194833,"DIS_CODE":0,"TOWNNAME":"鹽水區","LI":"歡雅里","LIN":"3鄰","STREET":" ","SECT":" ","MAREA":"歡雅","LANE":" ","ALLEY":" ","HOUSE_NO":"６３號之２５","E_COORD97":172380.64000000001,"N_COORD97":2576622.71,"ADDRESS":"歡雅６３號之２５","OBJECTID":194832},"geometry":{"x":172380.6400000006,"y":2576622.7100000028}},{"attributes":{"ID":194834,"DIS_CODE":0,"TOWNNAME":"鹽水區","LI":"歡雅里","LIN":"3鄰","STREET":" ","SECT":" ","MAREA":"歡雅","LANE":" ","ALLEY":" ","HOUSE_NO":"６３之２６號","E_COORD97":172381.48000000001,"N_COORD97":2576618.96,"ADDRESS":"歡雅６３之２６號","OBJECTID":194833},"geometry":{"x":172381.48000000138,"y":2576618.9600000009}},{"attributes":{"ID":194835,"DIS_CODE":0,"TOWNNAME":"鹽水區","LI":"歡雅里","LIN":"3鄰","STREET":" ","SECT":" ","MAREA":"歡雅","LANE":" ","ALLEY":" ","HOUSE_NO":"６３號之２７","E_COORD97":172382.14000000001,"N_COORD97":2576614.9500000002,"ADDRESS":"歡雅６３號之２７","OBJECTID":194834},"geometry":{"x":172382.14000000153,"y":2576614.9499999993}},{"attributes":{"ID":194836,"DIS_CODE":0,"TOWNNAME":"鹽水區","LI":"歡雅里","LIN":"3鄰","STREET":" ","SECT":" ","MAREA":"歡雅","LANE":" ","ALLEY":" ","HOUSE_NO":"６３之２８號","E_COORD97":172383.07000000001,"N_COORD97":2576610.75,"ADDRESS":"歡雅６３之２８號","OBJECTID":194835},"geometry":{"x":172383.0700000003,"y":2576610.7500000037}},{"attributes":{"ID":194837,"DIS_CODE":0,"TOWNNAME":"鹽水區","LI":"歡雅里","LIN":"3鄰","STREET":" ","SECT":" ","MAREA":"歡雅","LANE":" ","ALLEY":" ","HOUSE_NO":"６３號之２８","E_COORD97":172383.07000000001,"N_COORD97":2576610.75,"ADDRESS":"歡雅６３號之２８","OBJECTID":194836},"geometry":{"x":172383.0700000003,"y":2576610.7500000037}},{"attributes":{"ID":194838,"DIS_CODE":0,"TOWNNAME":"鹽水區","LI":"歡雅里","LIN":"3鄰","STREET":" ","SECT":" ","MAREA":"歡雅","LANE":" ","ALLEY":" ","HOUSE_NO":"６３之２９號","E_COORD97":172385.16,"N_COORD97":2576606.7200000002,"ADDRESS":"歡雅６３之２９號","OBJECTID":194837},"geometry":{"x":172385.16000000015,"y":2576606.7200000007}},{"attributes":{"ID":194839,"DIS_CODE":0,"TOWNNAME":"鹽水區","LI":"歡雅里","LIN":"3鄰","STREET":" ","SECT":" ","MAREA":"歡雅","LANE":" ","ALLEY":" ","HOUSE_NO":"６３之３０號","E_COORD97":172385.54000000001,"N_COORD97":2576602.5800000001,"ADDRESS":"歡雅６３之３０號","OBJECTID":194838},"geometry":{"x":172385.54000000097,"y":2576602.5800000019}},{"attributes":{"ID":194840,"DIS_CODE":0,"TOWNNAME":"鹽水區","LI":"歡雅里","LIN":"3鄰","STREET":" ","SECT":" ","MAREA":"歡雅","LANE":" ","ALLEY":" ","HOUSE_NO":"６３之３１號","E_COORD97":172385.81,"N_COORD97":2576598.3599999999,"ADDRESS":"歡雅６３之３１號","OBJECTID":194839},"geometry":{"x":172385.80999999959,"y":2576598.3599999994}},{"attributes":{"ID":194841,"DIS_CODE":0,"TOWNNAME":"鹽水區","LI":"歡雅里","LIN":"3鄰","STREET":" ","SECT":" ","MAREA":"歡雅","LANE":" ","ALLEY":" ","HOUSE_NO":"６３之３２號","E_COORD97":172386.51999999999,"N_COORD97":2576594.6000000001,"ADDRESS":"歡雅６３之３２號","OBJECTID":194840},"geometry":{"x":172386.52000000048,"y":2576594.6000000034}},{"attributes":{"ID":194842,"DIS_CODE":0,"TOWNNAME":"鹽水區","LI":"歡雅里","LIN":"3鄰","STREET":" ","SECT":" ","MAREA":"歡雅","LANE":" ","ALLEY":" ","HOUSE_NO":"６３之３３號","E_COORD97":172387.16,"N_COORD97":2576590.0499999998,"ADDRESS":"歡雅６３之３３號","OBJECTID":194841},"geometry":{"x":172387.16000000015,"y":2576590.0500000026}},{"attributes":{"ID":194843,"DIS_CODE":0,"TOWNNAME":"鹽水區","LI":"歡雅里","LIN":"3鄰","STREET":" ","SECT":" ","MAREA":"歡雅","LANE":" ","ALLEY":" ","HOUSE_NO":"６３號之３４","E_COORD97":172387.5,"N_COORD97":2576586.04,"ADDRESS":"歡雅６３號之３４","OBJECTID":194842},"geometry":{"x":172387.50000000093,"y":2576586.0399999991}},{"attributes":{"ID":194844,"DIS_CODE":0,"TOWNNAME":"鹽水區","LI":"歡雅里","LIN":"3鄰","STREET":" ","SECT":" ","MAREA":"歡雅","LANE":" ","ALLEY":" ","HOUSE_NO":"６３之３５號","E_COORD97":172388.14999999999,"N_COORD97":2576582,"ADDRESS":"歡雅６３之３５號","OBJECTID":194843},"geometry":{"x":172388.1500000013,"y":2576582.0000000037}},{"attributes":{"ID":194845,"DIS_CODE":0,"TOWNNAME":"鹽水區","LI":"歡雅里","LIN":"3鄰","STREET":" ","SECT":" ","MAREA":"歡雅","LANE":" ","ALLEY":" ","HOUSE_NO":"６３之３６號","E_COORD97":172388.76999999999,"N_COORD97":2576577.5600000001,"ADDRESS":"歡雅６３之３６號","OBJECTID":194844},"geometry":{"x":172388.77000000048,"y":2576577.5600000005}},{"attributes":{"ID":194846,"DIS_CODE":0,"TOWNNAME":"鹽水區","LI":"歡雅里","LIN":"3鄰","STREET":" ","SECT":" ","MAREA":"歡雅","LANE":" ","ALLEY":" ","HOUSE_NO":"６３號之３６","E_COORD97":172388.76999999999,"N_COORD97":2576577.5600000001,"ADDRESS":"歡雅６３號之３６","OBJECTID":194845},"geometry":{"x":172388.77000000048,"y":2576577.5600000005}},{"attributes":{"ID":194847,"DIS_CODE":0,"TOWNNAME":"南區","LI":"大忠里","LIN":"38鄰","STREET":"國民路","SECT":" ","MAREA":" ","LANE":"２７０巷","ALLEY":"７３弄","HOUSE_NO":"７號","E_COORD97":168878.78,"N_COORD97":2541383.77,"ADDRESS":"國民路２７０巷７３弄７號","OBJECTID":194846},"geometry":{"x":168878.78000000026,"y":2541383.7699999996}},{"attributes":{"ID":194848,"DIS_CODE":0,"TOWNNAME":"東區","LI":"圍下里","LIN":"15鄰","STREET":"育樂街","SECT":" ","MAREA":" ","LANE":" ","ALLEY":" ","HOUSE_NO":"２３４號","E_COORD97":169467.56,"N_COORD97":2543650.9100000001,"ADDRESS":"育樂街２３４號","OBJECTID":194847},"geometry":{"x":169467.56000000052,"y":2543650.9100000001}},{"attributes":{"ID":194849,"DIS_CODE":0,"TOWNNAME":"永康區","LI":"西橋里","LIN":"15鄰","STREET":"中華西街","SECT":" ","MAREA":" ","LANE":" ","ALLEY":" ","HOUSE_NO":"２６７號","E_COORD97":170687.20999999999,"N_COORD97":2546456.4900000002,"ADDRESS":"中華西街２６７號","OBJECTID":194848},"geometry":{"x":170687.21000000089,"y":2546456.4900000021}},{"attributes":{"ID":194850,"DIS_CODE":0,"TOWNNAME":"南區","LI":"大忠里","LIN":"38鄰","STREET":"國民路","SECT":" ","MAREA":" ","LANE":"２７０巷","ALLEY":"７３弄","HOUSE_NO":"８１號","E_COORD97":168824.12,"N_COORD97":2541379.98,"ADDRESS":"國民路２７０巷７３弄８１號","OBJECTID":194849},"geometry":{"x":168824.12000000011,"y":2541379.9800000004}},{"attributes":{"ID":194851,"DIS_CODE":0,"TOWNNAME":"鹽水區","LI":"歡雅里","LIN":"3鄰","STREET":" ","SECT":" ","MAREA":"歡雅","LANE":" ","ALLEY":" ","HOUSE_NO":"６３之３７號","E_COORD97":172389.29999999999,"N_COORD97":2576573.21,"ADDRESS":"歡雅６３之３７號","OBJECTID":194850},"geometry":{"x":172389.29999999981,"y":2576573.2100000009}},{"attributes":{"ID":194852,"DIS_CODE":0,"TOWNNAME":"鹽水區","LI":"歡雅里","LIN":"3鄰","STREET":" ","SECT":" ","MAREA":"歡雅","LANE":" ","ALLEY":" ","HOUSE_NO":"６３號之３８","E_COORD97":172389.87,"N_COORD97":2576569.5099999998,"ADDRESS":"歡雅６３號之３８","OBJECTID":194851},"geometry":{"x":172389.87000000104,"y":2576569.5100000016}},{"attributes":{"ID":194853,"DIS_CODE":0,"TOWNNAME":"鹽水區","LI":"歡雅里","LIN":"3鄰","STREET":" ","SECT":" ","MAREA":"歡雅","LANE":" ","ALLEY":" ","HOUSE_NO":"６３之３９號","E_COORD97":172386.85999999999,"N_COORD97":2576560.9199999999,"ADDRESS":"歡雅６３之３９號","OBJECTID":194852},"geometry":{"x":172386.86000000127,"y":2576560.9199999999}},{"attributes":{"ID":194854,"DIS_CODE":0,"TOWNNAME":"南區","LI":"大忠里","LIN":"38鄰","STREET":"國民路","SECT":" ","MAREA":" ","LANE":"２７０巷","ALLEY":"７３弄","HOUSE_NO":"８３號","E_COORD97":168820.60999999999,"N_COORD97":2541376.7799999998,"ADDRESS":"國民路２７０巷７３弄８３號","OBJECTID":194853},"geometry":{"x":168820.61000000127,"y":2541376.7799999993}},{"attributes":{"ID":194855,"DIS_CODE":0,"TOWNNAME":"南區","LI":"大忠里","LIN":"38鄰","STREET":"國民路","SECT":" ","MAREA":" ","LANE":"２７０巷","ALLEY":"７３弄","HOUSE_NO":"８５號","E_COORD97":168807.45999999999,"N_COORD97":2541390.6800000002,"ADDRESS":"國民路２７０巷７３弄８５號","OBJECTID":194854},"geometry":{"x":168807.46000000089,"y":2541390.6799999997}},{"attributes":{"ID":194856,"DIS_CODE":0,"TOWNNAME":"南區","LI":"大忠里","LIN":"38鄰","STREET":"國民路","SECT":" ","MAREA":" ","LANE":"２７０巷","ALLEY":"７３弄","HOUSE_NO":"８７號","E_COORD97":168811.39000000001,"N_COORD97":2541393.5,"ADDRESS":"國民路２７０巷７３弄８７號","OBJECTID":194855},"geometry":{"x":168811.38999999966,"y":2541393.5000000037}},{"attributes":{"ID":194857,"DIS_CODE":0,"TOWNNAME":"南區","LI":"大忠里","LIN":"38鄰","STREET":"國民路","SECT":" ","MAREA":" ","LANE":"２７０巷","ALLEY":"７３弄","HOUSE_NO":"８９號","E_COORD97":168815.32999999999,"N_COORD97":2541396.1600000001,"ADDRESS":"國民路２７０巷７３弄８９號","OBJECTID":194856},"geometry":{"x":168815.33000000101,"y":2541396.160000002}},{"attributes":{"ID":194858,"DIS_CODE":0,"TOWNNAME":"南區","LI":"大忠里","LIN":"38鄰","STREET":"國民路","SECT":" ","MAREA":" ","LANE":"２７０巷","ALLEY":"７３弄","HOUSE_NO":"９１號","E_COORD97":168819.10000000001,"N_COORD97":2541398.8300000001,"ADDRESS":"國民路２７０巷７３弄９１號","OBJECTID":194857},"geometry":{"x":168819.10000000149,"y":2541398.8300000019}},{"attributes":{"ID":194859,"DIS_CODE":0,"TOWNNAME":"南區","LI":"大忠里","LIN":"38鄰","STREET":"國民路","SECT":" ","MAREA":" ","LANE":"２７０巷","ALLEY":"７３弄","HOUSE_NO":"９３號","E_COORD97":168823.19,"N_COORD97":2541402.2799999998,"ADDRESS":"國民路２７０巷７３弄９３號","OBJECTID":194858},"geometry":{"x":168823.19000000134,"y":2541402.2800000012}},{"attributes":{"ID":194860,"DIS_CODE":0,"TOWNNAME":"鹽水區","LI":"歡雅里","LIN":"3鄰","STREET":" ","SECT":" ","MAREA":"歡雅","LANE":" ","ALLEY":" ","HOUSE_NO":"６３號之３９","E_COORD97":172386.85999999999,"N_COORD97":2576560.9199999999,"ADDRESS":"歡雅６３號之３９","OBJECTID":194859},"geometry":{"x":172386.86000000127,"y":2576560.9199999999}},{"attributes":{"ID":194861,"DIS_CODE":0,"TOWNNAME":"鹽水區","LI":"歡雅里","LIN":"3鄰","STREET":" ","SECT":" ","MAREA":"歡雅","LANE":" ","ALLEY":" ","HOUSE_NO":"６３號之３","E_COORD97":172356.41,"N_COORD97":2576585.8399999999,"ADDRESS":"歡雅６３號之３","OBJECTID":194860},"geometry":{"x":172356.41000000015,"y":2576585.8399999999}},{"attributes":{"ID":194862,"DIS_CODE":0,"TOWNNAME":"南區","LI":"大忠里","LIN":"38鄰","STREET":"國民路","SECT":" ","MAREA":" ","LANE":"２７０巷","ALLEY":"７３弄","HOUSE_NO":"９５號","E_COORD97":168826.95999999999,"N_COORD97":2541405.5699999998,"ADDRESS":"國民路２７０巷７３弄９５號","OBJECTID":194861},"geometry":{"x":168826.95999999996,"y":2541405.5700000003}},{"attributes":{"ID":194863,"DIS_CODE":0,"TOWNNAME":"南區","LI":"大忠里","LIN":"38鄰","STREET":"國民路","SECT":" ","MAREA":" ","LANE":"２７０巷","ALLEY":"７３弄","HOUSE_NO":"９７號","E_COORD97":168828.76999999999,"N_COORD97":2541410.3500000001,"ADDRESS":"國民路２７０巷７３弄９７號","OBJECTID":194862},"geometry":{"x":168828.77000000048,"y":2541410.3499999996}},{"attributes":{"ID":194864,"DIS_CODE":0,"TOWNNAME":"南區","LI":"大忠里","LIN":"38鄰","STREET":"國民路","SECT":" ","MAREA":" ","LANE":"２７０巷","ALLEY":"７３弄","HOUSE_NO":"９９號","E_COORD97":168832.76000000001,"N_COORD97":2541413.2000000002,"ADDRESS":"國民路２７０巷７３弄９９號","OBJECTID":194863},"geometry":{"x":168832.75999999978,"y":2541413.2000000011}},{"attributes":{"ID":194865,"DIS_CODE":0,"TOWNNAME":"南區","LI":"大忠里","LIN":"38鄰","STREET":"國民路","SECT":" ","MAREA":" ","LANE":"２７０巷","ALLEY":"７３弄","HOUSE_NO":"９號","E_COORD97":168874.98000000001,"N_COORD97":2541380.8599999999,"ADDRESS":"國民路２７０巷７３弄９號","OBJECTID":194864},"geometry":{"x":168874.98000000231,"y":2541380.8600000013}},{"attributes":{"ID":194866,"DIS_CODE":0,"TOWNNAME":"安平區","LI":"育平里","LIN":"38鄰","STREET":"育平一街","SECT":" ","MAREA":" ","LANE":"１４巷","ALLEY":"２２弄","HOUSE_NO":"６號","E_COORD97":164482.13,"N_COORD97":2543046.8999999999,"ADDRESS":"育平一街１４巷２２弄６號","OBJECTID":194865},"geometry":{"x":164482.12999999989,"y":2543046.9000000022}},{"attributes":{"ID":194867,"DIS_CODE":0,"TOWNNAME":"安平區","LI":"育平里","LIN":"38鄰","STREET":"育平一街","SECT":" ","MAREA":" ","LANE":"１４巷","ALLEY":"２２弄","HOUSE_NO":"７號","E_COORD97":164489.84,"N_COORD97":2543062.1200000001,"ADDRESS":"育平一街１４巷２２弄７號","OBJECTID":194866},"geometry":{"x":164489.84000000171,"y":2543062.1200000029}},{"attributes":{"ID":194868,"DIS_CODE":0,"TOWNNAME":"安平區","LI":"育平里","LIN":"38鄰","STREET":"育平一街","SECT":" ","MAREA":" ","LANE":"１４巷","ALLEY":"２２弄","HOUSE_NO":"８號","E_COORD97":164486.67999999999,"N_COORD97":2543044.9300000002,"ADDRESS":"育平一街１４巷２２弄８號","OBJECTID":194867},"geometry":{"x":164486.6799999997,"y":2543044.9300000016}},{"attributes":{"ID":194869,"DIS_CODE":0,"TOWNNAME":"新營區","LI":"民榮里","LIN":"38鄰","STREET":"太子路","SECT":" ","MAREA":" ","LANE":"５３巷","ALLEY":"６弄","HOUSE_NO":"１７之６號","E_COORD97":178283.98000000001,"N_COORD97":2577947.52,"ADDRESS":"太子路５３巷６弄１７之６號","OBJECTID":194868},"geometry":{"x":178283.98000000138,"y":2577947.5199999977}},{"attributes":{"ID":194870,"DIS_CODE":0,"TOWNNAME":"新營區","LI":"民榮里","LIN":"38鄰","STREET":"太子路","SECT":" ","MAREA":" ","LANE":"５３巷","ALLEY":"６弄","HOUSE_NO":"１３號之３","E_COORD97":178299.09,"N_COORD97":2577954.0899999999,"ADDRESS":"太子路５３巷６弄１３號之３","OBJECTID":194869},"geometry":{"x":178299.09000000078,"y":2577954.0899999999}},{"attributes":{"ID":194871,"DIS_CODE":0,"TOWNNAME":"南區","LI":"大忠里","LIN":"38鄰","STREET":"國民路","SECT":" ","MAREA":" ","LANE":"２７０巷","ALLEY":"７５弄","HOUSE_NO":"３１號","E_COORD97":168891.07999999999,"N_COORD97":2541455.5499999998,"ADDRESS":"國民路２７０巷７５弄３１號","OBJECTID":194870},"geometry":{"x":168891.08000000101,"y":2541455.5500000026}},{"attributes":{"ID":194872,"DIS_CODE":0,"TOWNNAME":"鹽水區","LI":"歡雅里","LIN":"3鄰","STREET":" ","SECT":" ","MAREA":"歡雅","LANE":" ","ALLEY":" ","HOUSE_NO":"６３之４０號","E_COORD97":172391.20000000001,"N_COORD97":2576557.9399999999,"ADDRESS":"歡雅６３之４０號","OBJECTID":194871},"geometry":{"x":172391.20000000112,"y":2576557.9399999976}},{"attributes":{"ID":194873,"DIS_CODE":0,"TOWNNAME":"鹽水區","LI":"歡雅里","LIN":"3鄰","STREET":" ","SECT":" ","MAREA":"歡雅","LANE":" ","ALLEY":" ","HOUSE_NO":"６３號之４１","E_COORD97":172394.53,"N_COORD97":2576555.4100000001,"ADDRESS":"歡雅６３號之４１","OBJECTID":194872},"geometry":{"x":172394.53000000119,"y":2576555.4100000001}},{"attributes":{"ID":194874,"DIS_CODE":0,"TOWNNAME":"鹽水區","LI":"歡雅里","LIN":"3鄰","STREET":" ","SECT":" ","MAREA":"歡雅","LANE":" ","ALLEY":" ","HOUSE_NO":"６３之４２號","E_COORD97":172398.34,"N_COORD97":2576552.7400000002,"ADDRESS":"歡雅６３之４２號","OBJECTID":194873},"geometry":{"x":172398.34000000078,"y":2576552.7400000002}},{"attributes":{"ID":194875,"DIS_CODE":0,"TOWNNAME":"鹽水區","LI":"歡雅里","LIN":"3鄰","STREET":" ","SECT":" ","MAREA":"歡雅","LANE":" ","ALLEY":" ","HOUSE_NO":"６３之４３號","E_COORD97":172401.98999999999,"N_COORD97":2576550.5699999998,"ADDRESS":"歡雅６３之４３號","OBJECTID":194874},"geometry":{"x":172401.99000000022,"y":2576550.5700000003}},{"attributes":{"ID":194876,"DIS_CODE":0,"TOWNNAME":"鹽水區","LI":"歡雅里","LIN":"3鄰","STREET":" ","SECT":" ","MAREA":"歡雅","LANE":" ","ALLEY":" ","HOUSE_NO":"６３之４號","E_COORD97":172355.98999999999,"N_COORD97":2576590.2200000002,"ADDRESS":"歡雅６３之４號","OBJECTID":194875},"geometry":{"x":172355.99000000022,"y":2576590.2200000007}},{"attributes":{"ID":194877,"DIS_CODE":0,"TOWNNAME":"鹽水區","LI":"歡雅里","LIN":"3鄰","STREET":" ","SECT":" ","MAREA":"歡雅","LANE":" ","ALLEY":" ","HOUSE_NO":"６３號之５","E_COORD97":172354.85999999999,"N_COORD97":2576594.6299999999,"ADDRESS":"歡雅６３號之５","OBJECTID":194876},"geometry":{"x":172354.86000000127,"y":2576594.6300000008}},{"attributes":{"ID":194878,"DIS_CODE":0,"TOWNNAME":"鹽水區","LI":"歡雅里","LIN":"3鄰","STREET":" ","SECT":" ","MAREA":"歡雅","LANE":" ","ALLEY":" ","HOUSE_NO":"６３之６號","E_COORD97":172355.07000000001,"N_COORD97":2576599.6200000001,"ADDRESS":"歡雅６３之６號","OBJECTID":194877},"geometry":{"x":172355.07000000123,"y":2576599.6200000029}},{"attributes":{"ID":194879,"DIS_CODE":0,"TOWNNAME":"鹽水區","LI":"歡雅里","LIN":"3鄰","STREET":" ","SECT":" ","MAREA":"歡雅","LANE":" ","ALLEY":" ","HOUSE_NO":"６３號之６","E_COORD97":172355.07000000001,"N_COORD97":2576599.6200000001,"ADDRESS":"歡雅６３號之６","OBJECTID":194878},"geometry":{"x":172355.07000000123,"y":2576599.6200000029}},{"attributes":{"ID":194880,"DIS_CODE":0,"TOWNNAME":"鹽水區","LI":"歡雅里","LIN":"3鄰","STREET":" ","SECT":" ","MAREA":"歡雅","LANE":" ","ALLEY":" ","HOUSE_NO":"６３之７號","E_COORD97":172354.51000000001,"N_COORD97":2576604.2200000002,"ADDRESS":"歡雅６３之７號","OBJECTID":194879},"geometry":{"x":172354.51000000071,"y":2576604.2200000007}},{"attributes":{"ID":194881,"DIS_CODE":0,"TOWNNAME":"永康區","LI":"埔園里","LIN":"38鄰","STREET":"龍國街","SECT":" ","MAREA":" ","LANE":"１２８巷","ALLEY":"６弄","HOUSE_NO":"３號","E_COORD97":174197.01000000001,"N_COORD97":2547983.6200000001,"ADDRESS":"龍國街１２８巷６弄３號","OBJECTID":194880},"geometry":{"x":174197.01000000164,"y":2547983.620000001}},{"attributes":{"ID":194882,"DIS_CODE":0,"TOWNNAME":"柳營區","LI":"太康里","LIN":"21鄰","STREET":" ","SECT":" ","MAREA":"太康","LANE":" ","ALLEY":" ","HOUSE_NO":"１７４號之６","E_COORD97":181537.09,"N_COORD97":2576597.6099999999,"ADDRESS":"太康１７４號之６","OBJECTID":194881},"geometry":{"x":181537.09000000078,"y":2576597.6100000031}},{"attributes":{"ID":194883,"DIS_CODE":0,"TOWNNAME":"南區","LI":"文華里","LIN":"21鄰","STREET":"文南路","SECT":" ","MAREA":" ","LANE":" ","ALLEY":" ","HOUSE_NO":"２７１號","E_COORD97":166947.64000000001,"N_COORD97":2542979.6499999999,"ADDRESS":"文南路２７１號","OBJECTID":194882},"geometry":{"x":166947.6400000006,"y":2542979.6500000041}},{"attributes":{"ID":194884,"DIS_CODE":0,"TOWNNAME":"永康區","LI":"埔園里","LIN":"38鄰","STREET":"龍國街","SECT":" ","MAREA":" ","LANE":"１２８巷","ALLEY":"２弄","HOUSE_NO":"７號","E_COORD97":174192.72,"N_COORD97":2548019.4399999999,"ADDRESS":"龍國街１２８巷２弄７號","OBJECTID":194883},"geometry":{"x":174192.72000000067,"y":2548019.4400000013}},{"attributes":{"ID":194885,"DIS_CODE":0,"TOWNNAME":"永康區","LI":"埔園里","LIN":"38鄰","STREET":"龍國街","SECT":" ","MAREA":" ","LANE":"１２８巷","ALLEY":"６弄","HOUSE_NO":"５號","E_COORD97":174192.67999999999,"N_COORD97":2547984.1600000001,"ADDRESS":"龍國街１２８巷６弄５號","OBJECTID":194884},"geometry":{"x":174192.68000000063,"y":2547984.160000002}},{"attributes":{"ID":194886,"DIS_CODE":0,"TOWNNAME":"永康區","LI":"埔園里","LIN":"38鄰","STREET":"龍國街","SECT":" ","MAREA":" ","LANE":"１２８巷","ALLEY":"３１弄","HOUSE_NO":"２１號","E_COORD97":174269.20000000001,"N_COORD97":2547976.6699999999,"ADDRESS":"龍國街１２８巷３１弄２１號","OBJECTID":194885},"geometry":{"x":174269.20000000112,"y":2547976.6700000018}},{"attributes":{"ID":194887,"DIS_CODE":0,"TOWNNAME":"永康區","LI":"埔園里","LIN":"38鄰","STREET":"龍國街","SECT":" ","MAREA":" ","LANE":"１２８巷","ALLEY":"３１弄","HOUSE_NO":"２３號","E_COORD97":174276.12,"N_COORD97":2547975.7200000002,"ADDRESS":"龍國街１２８巷３１弄２３號","OBJECTID":194886},"geometry":{"x":174276.12000000011,"y":2547975.7200000007}},{"attributes":{"ID":194888,"DIS_CODE":0,"TOWNNAME":"永康區","LI":"埔園里","LIN":"38鄰","STREET":"龍國街","SECT":" ","MAREA":" ","LANE":"１２８巷","ALLEY":"６弄","HOUSE_NO":"１０號","E_COORD97":174190.69,"N_COORD97":2548003.54,"ADDRESS":"龍國街１２８巷６弄１０號","OBJECTID":194887},"geometry":{"x":174190.69000000041,"y":2548003.5400000028}},{"attributes":{"ID":194889,"DIS_CODE":0,"TOWNNAME":"永康區","LI":"\u25A0行里","LIN":"24鄰","STREET":"中正南路","SECT":" ","MAREA":" ","LANE":"５９２巷","ALLEY":"２２弄","HOUSE_NO":"１８號","E_COORD97":171592.70999999999,"N_COORD97":2548656.9300000002,"ADDRESS":"中正南路５９２巷２２弄１８號","OBJECTID":194888},"geometry":{"x":171592.71000000089,"y":2548656.9300000016}},{"attributes":{"ID":194890,"DIS_CODE":0,"TOWNNAME":"永康區","LI":"埔園里","LIN":"38鄰","STREET":"龍國街","SECT":" ","MAREA":" ","LANE":"１２８巷","ALLEY":"６弄","HOUSE_NO":"２號","E_COORD97":174203.76000000001,"N_COORD97":2548000.9399999999,"ADDRESS":"龍國街１２８巷６弄２號","OBJECTID":194889},"geometry":{"x":174203.76000000164,"y":2548000.9400000032}},{"attributes":{"ID":194891,"DIS_CODE":0,"TOWNNAME":"永康區","LI":"埔園里","LIN":"38鄰","STREET":"龍國街","SECT":" ","MAREA":" ","LANE":"１２８巷","ALLEY":"２弄","HOUSE_NO":"２號","E_COORD97":174207.92999999999,"N_COORD97":2548044.0600000001,"ADDRESS":"龍國街１２８巷２弄２號","OBJECTID":194890},"geometry":{"x":174207.93000000063,"y":2548044.0600000005}},{"attributes":{"ID":194892,"DIS_CODE":0,"TOWNNAME":"永康區","LI":"埔園里","LIN":"38鄰","STREET":"龍國街","SECT":" ","MAREA":" ","LANE":"１２８巷","ALLEY":"２弄","HOUSE_NO":"６號","E_COORD97":174203.59,"N_COORD97":2548044.6000000001,"ADDRESS":"龍國街１２８巷２弄６號","OBJECTID":194891},"geometry":{"x":174203.59000000078,"y":2548044.6000000015}},{"attributes":{"ID":194893,"DIS_CODE":0,"TOWNNAME":"永康區","LI":"埔園里","LIN":"38鄰","STREET":"龍國街","SECT":" ","MAREA":" ","LANE":"１２８巷","ALLEY":"２弄","HOUSE_NO":"３號","E_COORD97":174200.47,"N_COORD97":2548018.4700000002,"ADDRESS":"龍國街１２８巷２弄３號","OBJECTID":194892},"geometry":{"x":174200.46999999974,"y":2548018.4700000007}},{"attributes":{"ID":194894,"DIS_CODE":0,"TOWNNAME":"仁德區","LI":"仁義里","LIN":"38鄰","STREET":"仁義五街","SECT":" ","MAREA":" ","LANE":"２４巷","ALLEY":"２弄","HOUSE_NO":"９號","E_COORD97":173523.48000000001,"N_COORD97":2540375.3300000001,"ADDRESS":"仁義五街２４巷２弄９號","OBJECTID":194893},"geometry":{"x":173523.48000000138,"y":2540375.3300000019}},{"attributes":{"ID":194895,"DIS_CODE":0,"TOWNNAME":"永康區","LI":"永康里","LIN":"38鄰","STREET":"大同街","SECT":" ","MAREA":" ","LANE":"７１５巷","ALLEY":"２弄","HOUSE_NO":"６號","E_COORD97":174494.07000000001,"N_COORD97":2546694.96,"ADDRESS":"大同街７１５巷２弄６號","OBJECTID":194894},"geometry":{"x":174494.07000000123,"y":2546694.9600000028}},{"attributes":{"ID":194896,"DIS_CODE":0,"TOWNNAME":"永康區","LI":"東橋里","LIN":" ","STREET":"中正路","SECT":" ","MAREA":" ","LANE":"２１７巷","ALLEY":"３弄","HOUSE_NO":"６３號","E_COORD97":172851.39000000001,"N_COORD97":2547838.5,"ADDRESS":"中正路２１７巷３弄６３號","OBJECTID":194895},"geometry":{"x":172851.38999999966,"y":2547838.5000000037}},{"attributes":{"ID":194897,"DIS_CODE":0,"TOWNNAME":"永康區","LI":"埔園里","LIN":"38鄰","STREET":"龍國街","SECT":" ","MAREA":" ","LANE":"１２８巷","ALLEY":"２５弄","HOUSE_NO":"５號","E_COORD97":174221.79000000001,"N_COORD97":2547999.48,"ADDRESS":"龍國街１２８巷２５弄５號","OBJECTID":194896},"geometry":{"x":174221.79000000004,"y":2547999.4800000023}},{"attributes":{"ID":194898,"DIS_CODE":0,"TOWNNAME":"柳營區","LI":"太康里","LIN":"21鄰","STREET":" ","SECT":" ","MAREA":"太康","LANE":" ","ALLEY":" ","HOUSE_NO":"１７４號之７","E_COORD97":181537.03,"N_COORD97":2576601.6699999999,"ADDRESS":"太康１７４號之７","OBJECTID":194897},"geometry":{"x":181537.03000000026,"y":2576601.6700000018}},{"attributes":{"ID":194899,"DIS_CODE":0,"TOWNNAME":"柳營區","LI":"太康里","LIN":"21鄰","STREET":" ","SECT":" ","MAREA":"太康","LANE":" ","ALLEY":" ","HOUSE_NO":"１７４號之８","E_COORD97":181536.97,"N_COORD97":2576605.7200000002,"ADDRESS":"太康１７４號之８","OBJECTID":194898},"geometry":{"x":181536.96999999974,"y":2576605.7200000025}},{"attributes":{"ID":194900,"DIS_CODE":0,"TOWNNAME":"柳營區","LI":"太康里","LIN":"21鄰","STREET":" ","SECT":" ","MAREA":"太康","LANE":" ","ALLEY":" ","HOUSE_NO":"１７４號之９","E_COORD97":181536.91,"N_COORD97":2576609.77,"ADDRESS":"太康１７４號之９","OBJECTID":194899},"geometry":{"x":181536.91000000108,"y":2576609.7699999996}},{"attributes":{"ID":194901,"DIS_CODE":0,"TOWNNAME":"柳營區","LI":"太康里","LIN":"21鄰","STREET":" ","SECT":" ","MAREA":"太康","LANE":" ","ALLEY":" ","HOUSE_NO":"１７４號","E_COORD97":181515.75,"N_COORD97":2576588.3799999999,"ADDRESS":"太康１７４號","OBJECTID":194900},"geometry":{"x":181515.75000000093,"y":2576588.3799999971}},{"attributes":{"ID":194902,"DIS_CODE":0,"TOWNNAME":"柳營區","LI":"太康里","LIN":"21鄰","STREET":" ","SECT":" ","MAREA":"太康","LANE":" ","ALLEY":" ","HOUSE_NO":"１７６號之３","E_COORD97":181505.54999999999,"N_COORD97":2576564.5299999998,"ADDRESS":"太康１７６號之３","OBJECTID":194901},"geometry":{"x":181505.55000000075,"y":2576564.5300000012}},{"attributes":{"ID":194903,"DIS_CODE":0,"TOWNNAME":"柳營區","LI":"太康里","LIN":"21鄰","STREET":" ","SECT":" ","MAREA":"太康","LANE":" ","ALLEY":" ","HOUSE_NO":"１７６號之４","E_COORD97":181532.60000000001,"N_COORD97":2576558.8399999999,"ADDRESS":"太康１７６號之４","OBJECTID":194902},"geometry":{"x":181532.59999999963,"y":2576558.8399999999}},{"attributes":{"ID":194904,"DIS_CODE":0,"TOWNNAME":"柳營區","LI":"太康里","LIN":"21鄰","STREET":" ","SECT":" ","MAREA":"太康","LANE":" ","ALLEY":" ","HOUSE_NO":"１７６號之６","E_COORD97":181533.48000000001,"N_COORD97":2576547.0800000001,"ADDRESS":"太康１７６號之６","OBJECTID":194903},"geometry":{"x":181533.48000000138,"y":2576547.0800000001}},{"attributes":{"ID":194905,"DIS_CODE":0,"TOWNNAME":"柳營區","LI":"太康里","LIN":"21鄰","STREET":" ","SECT":" ","MAREA":"太康","LANE":" ","ALLEY":" ","HOUSE_NO":"１７６號","E_COORD97":181514.42999999999,"N_COORD97":2576545.2000000002,"ADDRESS":"太康１７６號","OBJECTID":194904},"geometry":{"x":181514.43000000063,"y":2576545.1999999993}},{"attributes":{"ID":194906,"DIS_CODE":0,"TOWNNAME":"鹽水區","LI":"歡雅里","LIN":"3鄰","STREET":" ","SECT":" ","MAREA":"歡雅","LANE":" ","ALLEY":" ","HOUSE_NO":"６３之８號","E_COORD97":172353.82999999999,"N_COORD97":2576608.7400000002,"ADDRESS":"歡雅６３之８號","OBJECTID":194905},"geometry":{"x":172353.83000000007,"y":2576608.7400000021}},{"attributes":{"ID":194907,"DIS_CODE":0,"TOWNNAME":"永康區","LI":"埔園里","LIN":"38鄰","STREET":"龍國街","SECT":" ","MAREA":" ","LANE":"１２８巷","ALLEY":"１９弄","HOUSE_NO":"２８號","E_COORD97":174268.35000000001,"N_COORD97":2548007.0899999999,"ADDRESS":"龍國街１２８巷１９弄２８號","OBJECTID":194906},"geometry":{"x":174268.34999999963,"y":2548007.0900000036}},{"attributes":{"ID":194908,"DIS_CODE":0,"TOWNNAME":"永康區","LI":"埔園里","LIN":"38鄰","STREET":"龍國街","SECT":" ","MAREA":" ","LANE":"１２８巷","ALLEY":"３１弄","HOUSE_NO":"９號","E_COORD97":174238.29000000001,"N_COORD97":2547975.7200000002,"ADDRESS":"龍國街１２８巷３１弄９號","OBJECTID":194907},"geometry":{"x":174238.29000000097,"y":2547975.7200000007}},{"attributes":{"ID":194909,"DIS_CODE":0,"TOWNNAME":"南區","LI":"郡南里","LIN":"21鄰","STREET":"新都路","SECT":" ","MAREA":" ","LANE":" ","ALLEY":" ","HOUSE_NO":"３０９號","E_COORD97":167733.87,"N_COORD97":2540884.46,"ADDRESS":"新都路３０９號","OBJECTID":194908},"geometry":{"x":167733.87000000011,"y":2540884.4600000009}},{"attributes":{"ID":194910,"DIS_CODE":0,"TOWNNAME":"歸仁區","LI":"看西里","LIN":"21鄰","STREET":"成功路","SECT":"二段","MAREA":" ","LANE":" ","ALLEY":" ","HOUSE_NO":"７３號","E_COORD97":178114.51999999999,"N_COORD97":2539812.48,"ADDRESS":"成功路二段７３號","OBJECTID":194909},"geometry":{"x":178114.52000000048,"y":2539812.4800000004}},{"attributes":{"ID":194911,"DIS_CODE":0,"TOWNNAME":"永康區","LI":"埔園里","LIN":"38鄰","STREET":"龍國街","SECT":" ","MAREA":" ","LANE":"１２８巷","ALLEY":"３１弄","HOUSE_NO":"３號","E_COORD97":174224.26000000001,"N_COORD97":2547977.71,"ADDRESS":"龍國街１２８巷３１弄３號","OBJECTID":194910},"geometry":{"x":174224.26000000164,"y":2547977.7100000028}},{"attributes":{"ID":194912,"DIS_CODE":0,"TOWNNAME":"鹽水區","LI":"歡雅里","LIN":"3鄰","STREET":" ","SECT":" ","MAREA":"歡雅","LANE":" ","ALLEY":" ","HOUSE_NO":"６３之９號","E_COORD97":172353.20000000001,"N_COORD97":2576613.3399999999,"ADDRESS":"歡雅６３之９號","OBJECTID":194911},"geometry":{"x":172353.20000000019,"y":2576613.339999998}},{"attributes":{"ID":194913,"DIS_CODE":0,"TOWNNAME":"鹽水區","LI":"歡雅里","LIN":"3鄰","STREET":" ","SECT":" ","MAREA":"歡雅","LANE":" ","ALLEY":" ","HOUSE_NO":"６３號之９","E_COORD97":172353.20000000001,"N_COORD97":2576613.3399999999,"ADDRESS":"歡雅６３號之９","OBJECTID":194912},"geometry":{"x":172353.20000000019,"y":2576613.339999998}},{"attributes":{"ID":194914,"DIS_CODE":0,"TOWNNAME":"歸仁區","LI":"看西里","LIN":"21鄰","STREET":"成功七街","SECT":" ","MAREA":" ","LANE":" ","ALLEY":" ","HOUSE_NO":"１０６號","E_COORD97":178183.20999999999,"N_COORD97":2539788.3599999999,"ADDRESS":"成功七街１０６號","OBJECTID":194913},"geometry":{"x":178183.21000000089,"y":2539788.3599999994}},{"attributes":{"ID":194915,"DIS_CODE":0,"TOWNNAME":"歸仁區","LI":"辜厝里","LIN":"21鄰","STREET":"大順一街","SECT":" ","MAREA":" ","LANE":" ","ALLEY":" ","HOUSE_NO":"５８號","E_COORD97":177419.32999999999,"N_COORD97":2540504.1499999999,"ADDRESS":"大順一街５８號","OBJECTID":194914},"geometry":{"x":177419.32999999914,"y":2540504.1499999985}},{"attributes":{"ID":194916,"DIS_CODE":0,"TOWNNAME":"鹽水區","LI":"歡雅里","LIN":"3鄰","STREET":" ","SECT":" ","MAREA":"歡雅","LANE":" ","ALLEY":" ","HOUSE_NO":"６４號","E_COORD97":172457.10000000001,"N_COORD97":2576613.1600000001,"ADDRESS":"歡雅６４號","OBJECTID":194915},"geometry":{"x":172457.10000000149,"y":2576613.160000002}},{"attributes":{"ID":194917,"DIS_CODE":0,"TOWNNAME":"鹽水區","LI":"歡雅里","LIN":"3鄰","STREET":" ","SECT":" ","MAREA":"歡雅","LANE":" ","ALLEY":" ","HOUSE_NO":"６５號之１０","E_COORD97":172486.17000000001,"N_COORD97":2576722.3900000001,"ADDRESS":"歡雅６５號之１０","OBJECTID":194916},"geometry":{"x":172486.17000000086,"y":2576722.3900000043}},{"attributes":{"ID":194918,"DIS_CODE":0,"TOWNNAME":"歸仁區","LI":"許厝里","LIN":"21鄰","STREET":"仁愛六街","SECT":" ","MAREA":" ","LANE":" ","ALLEY":" ","HOUSE_NO":"８號","E_COORD97":178278.09,"N_COORD97":2540783.5499999998,"ADDRESS":"仁愛六街８號","OBJECTID":194917},"geometry":{"x":178278.08999999985,"y":2540783.5500000045}},{"attributes":{"ID":194919,"DIS_CODE":0,"TOWNNAME":"鹽水區","LI":"歡雅里","LIN":"3鄰","STREET":" ","SECT":" ","MAREA":"歡雅","LANE":" ","ALLEY":" ","HOUSE_NO":"６５號之１４","E_COORD97":172480.39000000001,"N_COORD97":2576743.7999999998,"ADDRESS":"歡雅６５號之１４","OBJECTID":194918},"geometry":{"x":172480.38999999873,"y":2576743.8000000045}},{"attributes":{"ID":194920,"DIS_CODE":0,"TOWNNAME":"永康區","LI":"埔園里","LIN":"38鄰","STREET":"龍國街","SECT":" ","MAREA":" ","LANE":"１２８巷","ALLEY":"３１弄","HOUSE_NO":"１５號","E_COORD97":174253.89000000001,"N_COORD97":2547973.7200000002,"ADDRESS":"龍國街１２８巷３１弄１５號","OBJECTID":194919},"geometry":{"x":174253.8900000006,"y":2547973.7200000025}},{"attributes":{"ID":194921,"DIS_CODE":0,"TOWNNAME":"鹽水區","LI":"歡雅里","LIN":"3鄰","STREET":" ","SECT":" ","MAREA":"歡雅","LANE":" ","ALLEY":" ","HOUSE_NO":"６５之１號","E_COORD97":172491.32000000001,"N_COORD97":2576684.75,"ADDRESS":"歡雅６５之１號","OBJECTID":194920},"geometry":{"x":172491.3200000003,"y":2576684.75}},{"attributes":{"ID":194922,"DIS_CODE":0,"TOWNNAME":"永康區","LI":"埔園里","LIN":"38鄰","STREET":"龍國街","SECT":" ","MAREA":" ","LANE":"１２８巷","ALLEY":"２５弄","HOUSE_NO":"１８號","E_COORD97":174245.66,"N_COORD97":2547985.5299999998,"ADDRESS":"龍國街１２８巷２５弄１８號","OBJECTID":194921},"geometry":{"x":174245.66000000201,"y":2547985.5299999993}},{"attributes":{"ID":194923,"DIS_CODE":0,"TOWNNAME":"鹽水區","LI":"歡雅里","LIN":"3鄰","STREET":" ","SECT":" ","MAREA":"歡雅","LANE":" ","ALLEY":" ","HOUSE_NO":"６５號之２","E_COORD97":172490.20000000001,"N_COORD97":2576688.5099999998,"ADDRESS":"歡雅６５號之２","OBJECTID":194922},"geometry":{"x":172490.20000000019,"y":2576688.5100000016}},{"attributes":{"ID":194924,"DIS_CODE":0,"TOWNNAME":"鹽水區","LI":"歡雅里","LIN":"3鄰","STREET":" ","SECT":" ","MAREA":"歡雅","LANE":" ","ALLEY":" ","HOUSE_NO":"６５號之３","E_COORD97":172489.69,"N_COORD97":2576692.9500000002,"ADDRESS":"歡雅６５號之３","OBJECTID":194923},"geometry":{"x":172489.69000000134,"y":2576692.9499999993}},{"attributes":{"ID":194925,"DIS_CODE":0,"TOWNNAME":"永康區","LI":"埔園里","LIN":"38鄰","STREET":"龍國街","SECT":" ","MAREA":" ","LANE":"１２８巷","ALLEY":"３１弄","HOUSE_NO":"１號","E_COORD97":174219.26000000001,"N_COORD97":2547977.96,"ADDRESS":"龍國街１２８巷３１弄１號","OBJECTID":194924},"geometry":{"x":174219.26000000071,"y":2547977.9600000009}},{"attributes":{"ID":194926,"DIS_CODE":0,"TOWNNAME":"永康區","LI":"中華里","LIN":"5鄰","STREET":"小東路","SECT":" ","MAREA":" ","LANE":"６４７巷","ALLEY":"３６弄","HOUSE_NO":"２號","E_COORD97":171967.95999999999,"N_COORD97":2544466.4900000002,"ADDRESS":"小東路６４７巷３６弄２號","OBJECTID":194925},"geometry":{"x":171967.95999999996,"y":2544466.4900000021}},{"attributes":{"ID":194927,"DIS_CODE":0,"TOWNNAME":"鹽水區","LI":"歡雅里","LIN":"3鄰","STREET":" ","SECT":" ","MAREA":"歡雅","LANE":" ","ALLEY":" ","HOUSE_NO":"６５號之４","E_COORD97":172489.48000000001,"N_COORD97":2576697,"ADDRESS":"歡雅６５號之４","OBJECTID":194926},"geometry":{"x":172489.48000000138,"y":2576697}},{"attributes":{"ID":194928,"DIS_CODE":0,"TOWNNAME":"永康區","LI":"埔園里","LIN":"38鄰","STREET":"龍國街","SECT":" ","MAREA":" ","LANE":"１２８巷","ALLEY":"１９弄","HOUSE_NO":"２０號","E_COORD97":174254.38,"N_COORD97":2548009.0899999999,"ADDRESS":"龍國街１２８巷１９弄２０號","OBJECTID":194927},"geometry":{"x":174254.38000000082,"y":2548009.0899999999}},{"attributes":{"ID":194929,"DIS_CODE":0,"TOWNNAME":"鹽水區","LI":"歡雅里","LIN":"3鄰","STREET":" ","SECT":" ","MAREA":"歡雅","LANE":" ","ALLEY":" ","HOUSE_NO":"６５之５號","E_COORD97":172488.85999999999,"N_COORD97":2576701.4300000002,"ADDRESS":"歡雅６５之５號","OBJECTID":194928},"geometry":{"x":172488.86000000127,"y":2576701.4300000016}},{"attributes":{"ID":194930,"DIS_CODE":0,"TOWNNAME":"永康區","LI":"埔園里","LIN":"38鄰","STREET":"龍國街","SECT":" ","MAREA":" ","LANE":"１２８巷","ALLEY":"１９弄","HOUSE_NO":"１２號","E_COORD97":174239.88,"N_COORD97":2548011.0800000001,"ADDRESS":"龍國街１２８巷１９弄１２號","OBJECTID":194929},"geometry":{"x":174239.87999999989,"y":2548011.0800000038}},{"attributes":{"ID":194931,"DIS_CODE":0,"TOWNNAME":"鹽水區","LI":"歡雅里","LIN":"3鄰","STREET":" ","SECT":" ","MAREA":"歡雅","LANE":" ","ALLEY":" ","HOUSE_NO":"６５之６號","E_COORD97":172488.17999999999,"N_COORD97":2576705.4700000002,"ADDRESS":"歡雅６５之６號","OBJECTID":194930},"geometry":{"x":172488.1799999997,"y":2576705.4700000025}},{"attributes":{"ID":194932,"DIS_CODE":0,"TOWNNAME":"永康區","LI":"埔園里","LIN":"38鄰","STREET":"龍國街","SECT":" ","MAREA":" ","LANE":"１２８巷","ALLEY":"２５弄","HOUSE_NO":"２號","E_COORD97":174215.70000000001,"N_COORD97":2547990.73,"ADDRESS":"龍國街１２８巷２５弄２號","OBJECTID":194931},"geometry":{"x":174215.70000000019,"y":2547990.7300000023}},{"attributes":{"ID":194933,"DIS_CODE":0,"TOWNNAME":"永康區","LI":"埔園里","LIN":"38鄰","STREET":"龍國街","SECT":" ","MAREA":" ","LANE":"１２８巷","ALLEY":"２５弄","HOUSE_NO":"３號","E_COORD97":174217.57000000001,"N_COORD97":2547999.48,"ADDRESS":"龍國街１２８巷２５弄３號","OBJECTID":194932},"geometry":{"x":174217.57000000216,"y":2547999.4800000023}},{"attributes":{"ID":194934,"DIS_CODE":0,"TOWNNAME":"永康區","LI":"埔園里","LIN":"38鄰","STREET":"龍國街","SECT":" ","MAREA":" ","LANE":"１２８巷","ALLEY":"１９弄","HOUSE_NO":"２６號","E_COORD97":174263.85000000001,"N_COORD97":2548008.0899999999,"ADDRESS":"龍國街１２８巷１９弄２６號","OBJECTID":194933},"geometry":{"x":174263.84999999963,"y":2548008.0900000017}},{"attributes":{"ID":194935,"DIS_CODE":0,"TOWNNAME":"鹽水區","LI":"歡雅里","LIN":"3鄰","STREET":" ","SECT":" ","MAREA":"歡雅","LANE":" ","ALLEY":" ","HOUSE_NO":"６５號之７","E_COORD97":172487.98999999999,"N_COORD97":2576710.02,"ADDRESS":"歡雅６５號之７","OBJECTID":194934},"geometry":{"x":172487.99000000115,"y":2576710.0199999977}},{"attributes":{"ID":194936,"DIS_CODE":0,"TOWNNAME":"鹽水區","LI":"歡雅里","LIN":"3鄰","STREET":" ","SECT":" ","MAREA":"歡雅","LANE":" ","ALLEY":" ","HOUSE_NO":"６５號之８","E_COORD97":172487.12,"N_COORD97":2576714.1400000001,"ADDRESS":"歡雅６５號之８","OBJECTID":194935},"geometry":{"x":172487.12000000011,"y":2576714.1400000043}},{"attributes":{"ID":194937,"DIS_CODE":0,"TOWNNAME":"鹽水區","LI":"歡雅里","LIN":"3鄰","STREET":" ","SECT":" ","MAREA":"歡雅","LANE":" ","ALLEY":" ","HOUSE_NO":"６５號之９","E_COORD97":172487,"N_COORD97":2576718.5499999998,"ADDRESS":"歡雅６５號之９","OBJECTID":194936},"geometry":{"x":172487.00000000186,"y":2576718.5500000026}},{"attributes":{"ID":194938,"DIS_CODE":0,"TOWNNAME":"鹽水區","LI":"歡雅里","LIN":"3鄰","STREET":" ","SECT":" ","MAREA":"歡雅","LANE":" ","ALLEY":" ","HOUSE_NO":"９９之１１號","E_COORD97":172313.62,"N_COORD97":2576405.9300000002,"ADDRESS":"歡雅９９之１１號","OBJECTID":194937},"geometry":{"x":172313.62000000104,"y":2576405.9300000034}},{"attributes":{"ID":194939,"DIS_CODE":0,"TOWNNAME":"南化區","LI":"南化里","LIN":"3鄰","STREET":" ","SECT":" ","MAREA":"南化","LANE":" ","ALLEY":" ","HOUSE_NO":"３２之７號","E_COORD97":195850.09,"N_COORD97":2549364.7999999998,"ADDRESS":"南化３２之７號","OBJECTID":194938},"geometry":{"x":195850.08999999985,"y":2549364.8000000007}},{"attributes":{"ID":194940,"DIS_CODE":0,"TOWNNAME":"南化區","LI":"南化里","LIN":"3鄰","STREET":" ","SECT":" ","MAREA":"南化","LANE":" ","ALLEY":" ","HOUSE_NO":"３６號","E_COORD97":195717.89000000001,"N_COORD97":2549570.75,"ADDRESS":"南化３６號","OBJECTID":194939},"geometry":{"x":195717.88999999966,"y":2549570.7500000019}},{"attributes":{"ID":194941,"DIS_CODE":0,"TOWNNAME":"歸仁區","LI":"南保里","LIN":"21鄰","STREET":"文化七街","SECT":" ","MAREA":" ","LANE":" ","ALLEY":" ","HOUSE_NO":"３６號","E_COORD97":176730.84,"N_COORD97":2541120.3300000001,"ADDRESS":"文化七街３６號","OBJECTID":194940},"geometry":{"x":176730.84000000171,"y":2541120.3300000019}},{"attributes":{"ID":194942,"DIS_CODE":0,"TOWNNAME":"歸仁區","LI":"大潭里","LIN":"21鄰","STREET":"長榮路","SECT":"二段","MAREA":" ","LANE":" ","ALLEY":" ","HOUSE_NO":"１６號","E_COORD97":176747.22,"N_COORD97":2534517.2799999998,"ADDRESS":"長榮路二段１６號","OBJECTID":194941},"geometry":{"x":176747.22000000067,"y":2534517.2799999993}},{"attributes":{"ID":194943,"DIS_CODE":0,"TOWNNAME":"歸仁區","LI":"大潭里","LIN":"21鄰","STREET":"長榮路","SECT":"三段","MAREA":" ","LANE":" ","ALLEY":" ","HOUSE_NO":"２６２之１號","E_COORD97":179641.62,"N_COORD97":2534047.2599999998,"ADDRESS":"長榮路三段２６２之１號","OBJECTID":194942},"geometry":{"x":179641.62000000197,"y":2534047.2599999998}},{"attributes":{"ID":194944,"DIS_CODE":0,"TOWNNAME":"歸仁區","LI":"六甲里","LIN":"21鄰","STREET":"中正南路","SECT":"一段","MAREA":" ","LANE":" ","ALLEY":" ","HOUSE_NO":"７５０號","E_COORD97":176435.20507200001,"N_COORD97":2539676.1593200001,"ADDRESS":"中正南路一段７５０號","OBJECTID":194943},"geometry":{"x":176435.20507200062,"y":2539676.1593190022}},{"attributes":{"ID":194945,"DIS_CODE":0,"TOWNNAME":"永康區","LI":"埔園里","LIN":"38鄰","STREET":"龍國街","SECT":" ","MAREA":" ","LANE":"１２８巷","ALLEY":"２５弄","HOUSE_NO":"２２號","E_COORD97":174255.04000000001,"N_COORD97":2547985.23,"ADDRESS":"龍國街１２８巷２５弄２２號","OBJECTID":194944},"geometry":{"x":174255.04000000097,"y":2547985.2300000004}},{"attributes":{"ID":194946,"DIS_CODE":0,"TOWNNAME":"永康區","LI":"埔園里","LIN":"38鄰","STREET":"龍國街","SECT":" ","MAREA":" ","LANE":"１２８巷","ALLEY":"３１弄","HOUSE_NO":"１１號","E_COORD97":174244.20999999999,"N_COORD97":2547974.9700000002,"ADDRESS":"龍國街１２８巷３１弄１１號","OBJECTID":194945},"geometry":{"x":174244.20999999996,"y":2547974.9700000044}},{"attributes":{"ID":194947,"DIS_CODE":0,"TOWNNAME":"永康區","LI":"埔園里","LIN":"38鄰","STREET":"龍國街","SECT":" ","MAREA":" ","LANE":"１２８巷","ALLEY":"２５弄","HOUSE_NO":"２１號","E_COORD97":174266.23000000001,"N_COORD97":2547992.98,"ADDRESS":"龍國街１２８巷２５弄２１號","OBJECTID":194946},"geometry":{"x":174266.23000000138,"y":2547992.9800000023}},{"attributes":{"ID":194948,"DIS_CODE":0,"TOWNNAME":"永康區","LI":"埔園里","LIN":"38鄰","STREET":"龍國街","SECT":" ","MAREA":" ","LANE":"１２８巷","ALLEY":"２５弄","HOUSE_NO":"１５號","E_COORD97":174251.76000000001,"N_COORD97":2547995.4100000001,"ADDRESS":"龍國街１２８巷２５弄１５號","OBJECTID":194947},"geometry":{"x":174251.76000000071,"y":2547995.4100000039}},{"attributes":{"ID":194949,"DIS_CODE":0,"TOWNNAME":"永康區","LI":"埔園里","LIN":"38鄰","STREET":"龍國街","SECT":" ","MAREA":" ","LANE":"１２８巷","ALLEY":"２５弄","HOUSE_NO":"９號","E_COORD97":174235.45999999999,"N_COORD97":2547997.8999999999,"ADDRESS":"龍國街１２８巷２５弄９號","OBJECTID":194948},"geometry":{"x":174235.46000000089,"y":2547997.9000000004}},{"attributes":{"ID":194950,"DIS_CODE":0,"TOWNNAME":"永康區","LI":"埔園里","LIN":"38鄰","STREET":"龍國街","SECT":" ","MAREA":" ","LANE":"１２８巷","ALLEY":"２５弄","HOUSE_NO":"１６號","E_COORD97":174241.53,"N_COORD97":2547986.6499999999,"ADDRESS":"龍國街１２８巷２５弄１６號","OBJECTID":194949},"geometry":{"x":174241.53000000212,"y":2547986.6500000004}},{"attributes":{"ID":194951,"DIS_CODE":0,"TOWNNAME":"南化區","LI":"南化里","LIN":"3鄰","STREET":" ","SECT":" ","MAREA":"南化","LANE":" ","ALLEY":" ","HOUSE_NO":"３４號","E_COORD97":195641.59,"N_COORD97":2549552.75,"ADDRESS":"南化３４號","OBJECTID":194950},"geometry":{"x":195641.58999999985,"y":2549552.7500000019}},{"attributes":{"ID":194952,"DIS_CODE":0,"TOWNNAME":"南化區","LI":"南化里","LIN":"3鄰","STREET":" ","SECT":" ","MAREA":"南化","LANE":" ","ALLEY":" ","HOUSE_NO":"３１號之２８","E_COORD97":195838.12,"N_COORD97":2549334.7999999998,"ADDRESS":"南化３１號之２８","OBJECTID":194951},"geometry":{"x":195838.12000000104,"y":2549334.8000000007}},{"attributes":{"ID":194953,"DIS_CODE":0,"TOWNNAME":"南化區","LI":"南化里","LIN":"3鄰","STREET":" ","SECT":" ","MAREA":"南化","LANE":" ","ALLEY":" ","HOUSE_NO":"３２號之１２","E_COORD97":195857.70999999999,"N_COORD97":2549385.7999999998,"ADDRESS":"南化３２號之１２","OBJECTID":194952},"geometry":{"x":195857.71000000089,"y":2549385.8000000007}},{"attributes":{"ID":194954,"DIS_CODE":0,"TOWNNAME":"南化區","LI":"中坑里","LIN":"3鄰","STREET":" ","SECT":" ","MAREA":"中坑","LANE":" ","ALLEY":" ","HOUSE_NO":"２３號","E_COORD97":194082.66,"N_COORD97":2549378.7799999998,"ADDRESS":"中坑２３號","OBJECTID":194953},"geometry":{"x":194082.66000000201,"y":2549378.7800000012}},{"attributes":{"ID":194955,"DIS_CODE":0,"TOWNNAME":"南化區","LI":"中坑里","LIN":"3鄰","STREET":" ","SECT":" ","MAREA":"中坑","LANE":" ","ALLEY":" ","HOUSE_NO":"２４號","E_COORD97":194052.76000000001,"N_COORD97":2549305.7799999998,"ADDRESS":"中坑２４號","OBJECTID":194954},"geometry":{"x":194052.76000000164,"y":2549305.7799999993}},{"attributes":{"ID":194956,"DIS_CODE":0,"TOWNNAME":"南化區","LI":"南化里","LIN":"3鄰","STREET":" ","SECT":" ","MAREA":"南化","LANE":" ","ALLEY":" ","HOUSE_NO":"３１號之３３","E_COORD97":195808.97,"N_COORD97":2549374.7999999998,"ADDRESS":"南化３１號之３３","OBJECTID":194955},"geometry":{"x":195808.96999999974,"y":2549374.8000000007}},{"attributes":{"ID":194957,"DIS_CODE":0,"TOWNNAME":"南化區","LI":"南化里","LIN":"3鄰","STREET":" ","SECT":" ","MAREA":"南化","LANE":" ","ALLEY":" ","HOUSE_NO":"３９號","E_COORD97":195376.98999999999,"N_COORD97":2549843.75,"ADDRESS":"南化３９號","OBJECTID":194956},"geometry":{"x":195376.99000000022,"y":2549843.7500000037}},{"attributes":{"ID":194958,"DIS_CODE":0,"TOWNNAME":"南化區","LI":"南化里","LIN":"3鄰","STREET":" ","SECT":" ","MAREA":"南化","LANE":" ","ALLEY":" ","HOUSE_NO":"３２號之１１","E_COORD97":195857.47,"N_COORD97":2549381.7999999998,"ADDRESS":"南化３２號之１１","OBJECTID":194957},"geometry":{"x":195857.47000000067,"y":2549381.8000000007}},{"attributes":{"ID":194959,"DIS_CODE":0,"TOWNNAME":"南化區","LI":"中坑里","LIN":"3鄰","STREET":" ","SECT":" ","MAREA":"中坑","LANE":" ","ALLEY":" ","HOUSE_NO":"２３號之２","E_COORD97":194064.13,"N_COORD97":2549350.7999999998,"ADDRESS":"中坑２３號之２","OBJECTID":194958},"geometry":{"x":194064.13000000082,"y":2549350.8000000026}},{"attributes":{"ID":194960,"DIS_CODE":0,"TOWNNAME":"七股區","LI":"大埕里","LIN":"3鄰","STREET":" ","SECT":" ","MAREA":"大埕","LANE":" ","ALLEY":" ","HOUSE_NO":"８９號","E_COORD97":162909.88,"N_COORD97":2561029.3300000001,"ADDRESS":"大埕８９號","OBJECTID":194959},"geometry":{"x":162909.88000000175,"y":2561029.3300000019}},{"attributes":{"ID":194961,"DIS_CODE":0,"TOWNNAME":"南化區","LI":"南化里","LIN":"3鄰","STREET":" ","SECT":" ","MAREA":"南化","LANE":" ","ALLEY":" ","HOUSE_NO":"３１號之２１","E_COORD97":195808.37,"N_COORD97":2549335.7999999998,"ADDRESS":"南化３１號之２１","OBJECTID":194960},"geometry":{"x":195808.37000000011,"y":2549335.8000000045}},{"attributes":{"ID":194962,"DIS_CODE":0,"TOWNNAME":"南化區","LI":"南化里","LIN":"3鄰","STREET":" ","SECT":" ","MAREA":"南化","LANE":" ","ALLEY":" ","HOUSE_NO":"３２號","E_COORD97":195850.19,"N_COORD97":2549453.75,"ADDRESS":"南化３２號","OBJECTID":194961},"geometry":{"x":195850.19000000041,"y":2549453.7499999981}},{"attributes":{"ID":194963,"DIS_CODE":0,"TOWNNAME":"南化區","LI":"南化里","LIN":"3鄰","STREET":" ","SECT":" ","MAREA":"南化","LANE":" ","ALLEY":" ","HOUSE_NO":"３２號之２３","E_COORD97":195832.57000000001,"N_COORD97":2549369.7999999998,"ADDRESS":"南化３２號之２３","OBJECTID":194962},"geometry":{"x":195832.5700000003,"y":2549369.8000000045}},{"attributes":{"ID":194964,"DIS_CODE":0,"TOWNNAME":"左鎮區","LI":"左鎮里","LIN":"3鄰","STREET":" ","SECT":" ","MAREA":"左鎮","LANE":" ","ALLEY":" ","HOUSE_NO":"６１號","E_COORD97":189424.67000000001,"N_COORD97":2549953.25,"ADDRESS":"左鎮６１號","OBJECTID":194963},"geometry":{"x":189424.67000000086,"y":2549953.2500000019}},{"attributes":{"ID":194965,"DIS_CODE":0,"TOWNNAME":"左鎮區","LI":"澄山里","LIN":"3鄰","STREET":" ","SECT":" ","MAREA":"澄山","LANE":" ","ALLEY":" ","HOUSE_NO":"２１號","E_COORD97":188282.59,"N_COORD97":2548291.25,"ADDRESS":"澄山２１號","OBJECTID":194964},"geometry":{"x":188282.59000000078,"y":2548291.2500000037}},{"attributes":{"ID":194966,"DIS_CODE":0,"TOWNNAME":"左鎮區","LI":"澄山里","LIN":"3鄰","STREET":" ","SECT":" ","MAREA":"澄山","LANE":" ","ALLEY":" ","HOUSE_NO":"２７號","E_COORD97":188046.89000000001,"N_COORD97":2548111.25,"ADDRESS":"澄山２７號","OBJECTID":194965},"geometry":{"x":188046.88999999966,"y":2548111.2500000037}},{"attributes":{"ID":194967,"DIS_CODE":0,"TOWNNAME":"左鎮區","LI":"光和里","LIN":"3鄰","STREET":" ","SECT":" ","MAREA":"光和","LANE":" ","ALLEY":" ","HOUSE_NO":"３０號","E_COORD97":186421.44,"N_COORD97":2551935.25,"ADDRESS":"光和３０號","OBJECTID":194966},"geometry":{"x":186421.44000000041,"y":2551935.25}},{"attributes":{"ID":194968,"DIS_CODE":0,"TOWNNAME":"左鎮區","LI":"左鎮里","LIN":"3鄰","STREET":" ","SECT":" ","MAREA":"左鎮","LANE":" ","ALLEY":" ","HOUSE_NO":"５６號之３","E_COORD97":189385.29999999999,"N_COORD97":2549686.2999999998,"ADDRESS":"左鎮５６號之３","OBJECTID":194967},"geometry":{"x":189385.29999999981,"y":2549686.3000000026}},{"attributes":{"ID":194969,"DIS_CODE":0,"TOWNNAME":"左鎮區","LI":"草山里","LIN":"3鄰","STREET":" ","SECT":" ","MAREA":"草山","LANE":" ","ALLEY":" ","HOUSE_NO":"４４號","E_COORD97":193327.44,"N_COORD97":2544471.25,"ADDRESS":"草山４４號","OBJECTID":194968},"geometry":{"x":193327.44000000134,"y":2544471.2500000019}},{"attributes":{"ID":194970,"DIS_CODE":0,"TOWNNAME":"左鎮區","LI":"草山里","LIN":"3鄰","STREET":" ","SECT":" ","MAREA":"草山","LANE":" ","ALLEY":" ","HOUSE_NO":"４０號","E_COORD97":192577.73999999999,"N_COORD97":2543602.25,"ADDRESS":"草山４０號","OBJECTID":194969},"geometry":{"x":192577.74000000022,"y":2543602.2500000037}},{"attributes":{"ID":194971,"DIS_CODE":0,"TOWNNAME":"左鎮區","LI":"光和里","LIN":"3鄰","STREET":" ","SECT":" ","MAREA":"光和","LANE":" ","ALLEY":" ","HOUSE_NO":"２９號","E_COORD97":186422.54000000001,"N_COORD97":2551930.25,"ADDRESS":"光和２９號","OBJECTID":194970},"geometry":{"x":186422.54000000004,"y":2551930.2500000019}},{"attributes":{"ID":194972,"DIS_CODE":0,"TOWNNAME":"左鎮區","LI":"澄山里","LIN":"3鄰","STREET":" ","SECT":" ","MAREA":"澄山","LANE":" ","ALLEY":" ","HOUSE_NO":"２２號","E_COORD97":188305.39000000001,"N_COORD97":2548289.25,"ADDRESS":"澄山２２號","OBJECTID":194971},"geometry":{"x":188305.3900000006,"y":2548289.2500000019}},{"attributes":{"ID":194973,"DIS_CODE":0,"TOWNNAME":"左鎮區","LI":"中正里","LIN":"3鄰","STREET":" ","SECT":" ","MAREA":"中正","LANE":" ","ALLEY":" ","HOUSE_NO":"３９號之２","E_COORD97":189171.42999999999,"N_COORD97":2551326.2999999998,"ADDRESS":"中正３９號之２","OBJECTID":194972},"geometry":{"x":189171.43000000063,"y":2551326.3000000026}},{"attributes":{"ID":194974,"DIS_CODE":0,"TOWNNAME":"左鎮區","LI":"二寮里","LIN":"3鄰","STREET":" ","SECT":" ","MAREA":"二寮","LANE":" ","ALLEY":" ","HOUSE_NO":"２７號","E_COORD97":189458.73999999999,"N_COORD97":2543462.25,"ADDRESS":"二寮２７號","OBJECTID":194973},"geometry":{"x":189458.74000000022,"y":2543462.25}},{"attributes":{"ID":194975,"DIS_CODE":0,"TOWNNAME":"左鎮區","LI":"岡林里","LIN":"3鄰","STREET":" ","SECT":" ","MAREA":"岡林","LANE":" ","ALLEY":" ","HOUSE_NO":"２８號","E_COORD97":189937.45999999999,"N_COORD97":2545719.25,"ADDRESS":"岡林２８號","OBJECTID":194974},"geometry":{"x":189937.46000000183,"y":2545719.2500000019}},{"attributes":{"ID":194976,"DIS_CODE":0,"TOWNNAME":"左鎮區","LI":"草山里","LIN":"3鄰","STREET":" ","SECT":" ","MAREA":"草山","LANE":" ","ALLEY":" ","HOUSE_NO":"３５號","E_COORD97":192210.04000000001,"N_COORD97":2543751.25,"ADDRESS":"草山３５號","OBJECTID":194975},"geometry":{"x":192210.03999999911,"y":2543751.2500000037}},{"attributes":{"ID":194977,"DIS_CODE":0,"TOWNNAME":"左鎮區","LI":"澄山里","LIN":"3鄰","STREET":" ","SECT":" ","MAREA":"澄山","LANE":" ","ALLEY":" ","HOUSE_NO":"２６號","E_COORD97":188255.48999999999,"N_COORD97":2548230.25,"ADDRESS":"澄山２６號","OBJECTID":194976},"geometry":{"x":188255.49000000022,"y":2548230.2500000037}},{"attributes":{"ID":194978,"DIS_CODE":0,"TOWNNAME":"左鎮區","LI":"澄山里","LIN":"3鄰","STREET":" ","SECT":" ","MAREA":"澄山","LANE":" ","ALLEY":" ","HOUSE_NO":"２３號","E_COORD97":188325.59,"N_COORD97":2548296.25,"ADDRESS":"澄山２３號","OBJECTID":194977},"geometry":{"x":188325.58999999985,"y":2548296.25}},{"attributes":{"ID":194979,"DIS_CODE":0,"TOWNNAME":"左鎮區","LI":"澄山里","LIN":"3鄰","STREET":" ","SECT":" ","MAREA":"澄山","LANE":" ","ALLEY":" ","HOUSE_NO":"３０號之２","E_COORD97":187863.66,"N_COORD97":2547398.2999999998,"ADDRESS":"澄山３０號之２","OBJECTID":194978},"geometry":{"x":187863.66000000108,"y":2547398.3000000007}},{"attributes":{"ID":194980,"DIS_CODE":0,"TOWNNAME":"左鎮區","LI":"澄山里","LIN":"3鄰","STREET":" ","SECT":" ","MAREA":"澄山","LANE":" ","ALLEY":" ","HOUSE_NO":"１９號之１","E_COORD97":188281.03,"N_COORD97":2548270.2999999998,"ADDRESS":"澄山１９號之１","OBJECTID":194979},"geometry":{"x":188281.03000000212,"y":2548270.3000000007}},{"attributes":{"ID":194981,"DIS_CODE":0,"TOWNNAME":"左鎮區","LI":"澄山里","LIN":"3鄰","STREET":" ","SECT":" ","MAREA":"澄山","LANE":" ","ALLEY":" ","HOUSE_NO":"２０號","E_COORD97":188271.09,"N_COORD97":2548281.25,"ADDRESS":"澄山２０號","OBJECTID":194980},"geometry":{"x":188271.08999999985,"y":2548281.2500000019}},{"attributes":{"ID":194982,"DIS_CODE":0,"TOWNNAME":"左鎮區","LI":"澄山里","LIN":"3鄰","STREET":" ","SECT":" ","MAREA":"澄山","LANE":" ","ALLEY":" ","HOUSE_NO":"３０號","E_COORD97":187783.19,"N_COORD97":2547763.25,"ADDRESS":"澄山３０號","OBJECTID":194981},"geometry":{"x":187783.19000000041,"y":2547763.2500000019}},{"attributes":{"ID":194983,"DIS_CODE":0,"TOWNNAME":"左鎮區","LI":"睦光里","LIN":"3鄰","STREET":" ","SECT":" ","MAREA":"睦光","LANE":" ","ALLEY":" ","HOUSE_NO":"２９號","E_COORD97":190306.14000000001,"N_COORD97":2550346.25,"ADDRESS":"睦光２９號","OBJECTID":194982},"geometry":{"x":190306.1400000006,"y":2550346.2500000019}},{"attributes":{"ID":194984,"DIS_CODE":0,"TOWNNAME":"左鎮區","LI":"澄山里","LIN":"3鄰","STREET":" ","SECT":" ","MAREA":"澄山","LANE":" ","ALLEY":" ","HOUSE_NO":"３０號之３","E_COORD97":187930.92999999999,"N_COORD97":2547371.2999999998,"ADDRESS":"澄山３０號之３","OBJECTID":194983},"geometry":{"x":187930.93000000063,"y":2547371.3000000007}},{"attributes":{"ID":194985,"DIS_CODE":0,"TOWNNAME":"左鎮區","LI":"睦光里","LIN":"3鄰","STREET":" ","SECT":" ","MAREA":"睦光","LANE":" ","ALLEY":" ","HOUSE_NO":"３５號之２","E_COORD97":190475.20999999999,"N_COORD97":2550359.2999999998,"ADDRESS":"睦光３５號之２","OBJECTID":194984},"geometry":{"x":190475.21000000089,"y":2550359.3000000007}},{"attributes":{"ID":194986,"DIS_CODE":0,"TOWNNAME":"左鎮區","LI":"睦光里","LIN":"3鄰","STREET":" ","SECT":" ","MAREA":"睦光","LANE":" ","ALLEY":" ","HOUSE_NO":"３４號","E_COORD97":190377.23999999999,"N_COORD97":2550177.25,"ADDRESS":"睦光３４號","OBJECTID":194985},"geometry":{"x":190377.24000000115,"y":2550177.2500000019}},{"attributes":{"ID":194987,"DIS_CODE":0,"TOWNNAME":"左鎮區","LI":"榮和里","LIN":"3鄰","STREET":" ","SECT":" ","MAREA":"菜寮","LANE":" ","ALLEY":" ","HOUSE_NO":"２９號之３","E_COORD97":187247.76999999999,"N_COORD97":2551475.2999999998,"ADDRESS":"菜寮２９號之３","OBJECTID":194986},"geometry":{"x":187247.76999999955,"y":2551475.3000000045}},{"attributes":{"ID":194988,"DIS_CODE":0,"TOWNNAME":"左鎮區","LI":"榮和里","LIN":"3鄰","STREET":" ","SECT":" ","MAREA":"菜寮","LANE":" ","ALLEY":" ","HOUSE_NO":"２９號之２","E_COORD97":187250.10999999999,"N_COORD97":2551474.2999999998,"ADDRESS":"菜寮２９號之２","OBJECTID":194987},"geometry":{"x":187250.11000000127,"y":2551474.3000000007}},{"attributes":{"ID":194989,"DIS_CODE":0,"TOWNNAME":"左鎮區","LI":"榮和里","LIN":"3鄰","STREET":" ","SECT":" ","MAREA":"菜寮","LANE":" ","ALLEY":" ","HOUSE_NO":"２９號之１","E_COORD97":187254.98000000001,"N_COORD97":2551472.2999999998,"ADDRESS":"菜寮２９號之１","OBJECTID":194988},"geometry":{"x":187254.98000000138,"y":2551472.3000000026}},{"attributes":{"ID":194990,"DIS_CODE":0,"TOWNNAME":"左鎮區","LI":"中正里","LIN":"3鄰","STREET":" ","SECT":" ","MAREA":"中正","LANE":" ","ALLEY":" ","HOUSE_NO":"４５號","E_COORD97":189157.56,"N_COORD97":2551915.25,"ADDRESS":"中正４５號","OBJECTID":194989},"geometry":{"x":189157.55999999959,"y":2551915.2500000037}},{"attributes":{"ID":194991,"DIS_CODE":0,"TOWNNAME":"左鎮區","LI":"內庄里","LIN":"3鄰","STREET":" ","SECT":" ","MAREA":"內庄","LANE":" ","ALLEY":" ","HOUSE_NO":"２５號","E_COORD97":190707.42999999999,"N_COORD97":2548721.25,"ADDRESS":"內庄２５號","OBJECTID":194990},"geometry":{"x":190707.43000000063,"y":2548721.25}},{"attributes":{"ID":194992,"DIS_CODE":0,"TOWNNAME":"永康區","LI":"尚頂里","LIN":" ","STREET":"中正南路","SECT":" ","MAREA":" ","LANE":"２４２巷","ALLEY":"４弄","HOUSE_NO":"２８號","E_COORD97":170560.07000000001,"N_COORD97":2547334.2599999998,"ADDRESS":"中正南路２４２巷４弄２８號","OBJECTID":194991},"geometry":{"x":170560.07000000123,"y":2547334.2599999998}},{"attributes":{"ID":194993,"DIS_CODE":0,"TOWNNAME":"歸仁區","LI":"崙頂里","LIN":"21鄰","STREET":"大成路","SECT":" ","MAREA":" ","LANE":"１８２巷","ALLEY":" ","HOUSE_NO":"５１號","E_COORD97":177665.67000000001,"N_COORD97":2540121.25,"ADDRESS":"大成路１８２巷５１號","OBJECTID":194992},"geometry":{"x":177665.66999999993,"y":2540121.2500000019}},{"attributes":{"ID":194994,"DIS_CODE":0,"TOWNNAME":"左鎮區","LI":"榮和里","LIN":"3鄰","STREET":" ","SECT":" ","MAREA":"菜寮","LANE":" ","ALLEY":" ","HOUSE_NO":"２８號","E_COORD97":187268.64000000001,"N_COORD97":2551446.25,"ADDRESS":"菜寮２８號","OBJECTID":194993},"geometry":{"x":187268.63999999966,"y":2551446.25}},{"attributes":{"ID":194995,"DIS_CODE":0,"TOWNNAME":"北區","LI":"成德里","LIN":"24鄰","STREET":"海安路","SECT":"三段","MAREA":" ","LANE":" ","ALLEY":" ","HOUSE_NO":"７４２號","E_COORD97":168094.51000000001,"N_COORD97":2546185.7999999998,"ADDRESS":"海安路三段７４２號","OBJECTID":194994},"geometry":{"x":168094.51000000071,"y":2546185.7999999989}},{"attributes":{"ID":194996,"DIS_CODE":0,"TOWNNAME":"左鎮區","LI":"榮和里","LIN":"3鄰","STREET":" ","SECT":" ","MAREA":"菜寮","LANE":" ","ALLEY":" ","HOUSE_NO":"２６號","E_COORD97":187090.54000000001,"N_COORD97":2551515.25,"ADDRESS":"菜寮２６號","OBJECTID":194995},"geometry":{"x":187090.54000000004,"y":2551515.2500000037}},{"attributes":{"ID":194997,"DIS_CODE":0,"TOWNNAME":"左鎮區","LI":"岡林里","LIN":"3鄰","STREET":" ","SECT":" ","MAREA":"岡林","LANE":" ","ALLEY":" ","HOUSE_NO":"２７號之３","E_COORD97":189895.5,"N_COORD97":2545468.2999999998,"ADDRESS":"岡林２７號之３","OBJECTID":194996},"geometry":{"x":189895.50000000093,"y":2545468.3000000026}},{"attributes":{"ID":194998,"DIS_CODE":0,"TOWNNAME":"左鎮區","LI":"榮和里","LIN":"3鄰","STREET":" ","SECT":" ","MAREA":"菜寮","LANE":" ","ALLEY":" ","HOUSE_NO":"２６號之２","E_COORD97":187141.01000000001,"N_COORD97":2551511.2999999998,"ADDRESS":"菜寮２６號之２","OBJECTID":194997},"geometry":{"x":187141.00999999978,"y":2551511.3000000007}},{"attributes":{"ID":194999,"DIS_CODE":0,"TOWNNAME":"左鎮區","LI":"中正里","LIN":"3鄰","STREET":" ","SECT":" ","MAREA":"中正","LANE":" ","ALLEY":" ","HOUSE_NO":"４０號","E_COORD97":189310.56,"N_COORD97":2551316.25,"ADDRESS":"中正４０號","OBJECTID":194998},"geometry":{"x":189310.55999999959,"y":2551316.2500000019}},{"attributes":{"ID":195000,"DIS_CODE":0,"TOWNNAME":"左鎮區","LI":"內庄里","LIN":"3鄰","STREET":" ","SECT":" ","MAREA":"內庄","LANE":" ","ALLEY":" ","HOUSE_NO":"２３號之１","E_COORD97":190667.76000000001,"N_COORD97":2548723.2999999998,"ADDRESS":"內庄２３號之１","OBJECTID":194999},"geometry":{"x":190667.76000000071,"y":2548723.3000000026}},{"attributes":{"ID":195001,"DIS_CODE":0,"TOWNNAME":"左鎮區","LI":"中正里","LIN":"3鄰","STREET":" ","SECT":" ","MAREA":"中正","LANE":" ","ALLEY":" ","HOUSE_NO":"４３號","E_COORD97":189109.06,"N_COORD97":2551655.25,"ADDRESS":"中正４３號","OBJECTID":195000},"geometry":{"x":189109.06000000145,"y":2551655.2500000019}}]}