{"displayFieldName":"TOWNNAME","fieldAliases":{"ID":"ID","DIS_CODE":"DIS_CODE","TOWNNAME":"TOWNNAME","LI":"LI","LIN":"LIN","STREET":"STREET","SECT":"SECT","MAREA":"MAREA","LANE":"LANE","ALLEY":"ALLEY","HOUSE_NO":"HOUSE_NO","E_COORD97":"E_COORD97","N_COORD97":"N_COORD97","ADDRESS":"ADDRESS","OBJECTID":"OBJECTID"},"geometryType":"esriGeometryPoint","spatialReference":{"wkid":102443,"latestWkid":3826},"fields":[{"name":"ID","type":"esriFieldTypeDouble","alias":"ID"},{"name":"DIS_CODE","type":"esriFieldTypeInteger","alias":"DIS_CODE"},{"name":"TOWNNAME","type":"esriFieldTypeString","alias":"TOWNNAME","length":8},{"name":"LI","type":"esriFieldTypeString","alias":"LI","length":8},{"name":"LIN","type":"esriFieldTypeString","alias":"LIN","length":12},{"name":"STREET","type":"esriFieldTypeString","alias":"STREET","length":20},{"name":"SECT","type":"esriFieldTypeString","alias":"SECT","length":8},{"name":"MAREA","type":"esriFieldTypeString","alias":"MAREA","length":12},{"name":"LANE","type":"esriFieldTypeString","alias":"LANE","length":10},{"name":"ALLEY","type":"esriFieldTypeString","alias":"ALLEY","length":10},{"name":"HOUSE_NO","type":"esriFieldTypeString","alias":"HOUSE_NO","length":20},{"name":"E_COORD97","type":"esriFieldTypeDouble","alias":"E_COORD97"},{"name":"N_COORD97","type":"esriFieldTypeDouble","alias":"N_COORD97"},{"name":"ADDRESS","type":"esriFieldTypeString","alias":"ADDRESS","length":50},{"name":"OBJECTID","type":"esriFieldTypeOID","alias":"OBJECTID"}],"features":[{"attributes":{"ID":559828,"DIS_CODE":0,"TOWNNAME":"永康區","LI":"正強里","LIN":"9鄰","STREET":"正義街","SECT":" ","MAREA":" ","LANE":" ","ALLEY":" ","HOUSE_NO":"１２０號","E_COORD97":173390.98000000001,"N_COORD97":2547562.52,"ADDRESS":"正義街１２０號","OBJECTID":559801},"geometry":{"x":173390.98000000231,"y":2547562.5199999996}},{"attributes":{"ID":559829,"DIS_CODE":0,"TOWNNAME":"北區","LI":"裕民里","LIN":"9鄰","STREET":"臨安路","SECT":"二段","MAREA":" ","LANE":" ","ALLEY":" ","HOUSE_NO":"５３號八樓之２","E_COORD97":167621.87,"N_COORD97":2544819.21,"ADDRESS":"臨安路二段５３號八樓之２","OBJECTID":559802},"geometry":{"x":167621.87000000011,"y":2544819.2100000009}},{"attributes":{"ID":559830,"DIS_CODE":0,"TOWNNAME":"北區","LI":"裕民里","LIN":"9鄰","STREET":"臨安路","SECT":"二段","MAREA":" ","LANE":" ","ALLEY":" ","HOUSE_NO":"５３號八樓之３","E_COORD97":167621.87,"N_COORD97":2544819.21,"ADDRESS":"臨安路二段５３號八樓之３","OBJECTID":559803},"geometry":{"x":167621.87000000011,"y":2544819.2100000009}},{"attributes":{"ID":559831,"DIS_CODE":0,"TOWNNAME":"永康區","LI":"五王里","LIN":" ","STREET":"成功路","SECT":" ","MAREA":" ","LANE":" ","ALLEY":" ","HOUSE_NO":"２之４號","E_COORD97":171933.20999999999,"N_COORD97":2545464.54,"ADDRESS":"成功路２之４號","OBJECTID":559804},"geometry":{"x":171933.21000000089,"y":2545464.540000001}},{"attributes":{"ID":559832,"DIS_CODE":0,"TOWNNAME":"永康區","LI":"王行里","LIN":" ","STREET":"王行路","SECT":" ","MAREA":" ","LANE":" ","ALLEY":" ","HOUSE_NO":"１１０２之號","E_COORD97":175625.42999999999,"N_COORD97":2550238.2999999998,"ADDRESS":"王行路１１０２之號","OBJECTID":559805},"geometry":{"x":175625.43000000063,"y":2550238.3000000026}},{"attributes":{"ID":559833,"DIS_CODE":0,"TOWNNAME":"永康區","LI":"中華里","LIN":"15鄰","STREET":"華興街","SECT":" ","MAREA":" ","LANE":" ","ALLEY":" ","HOUSE_NO":"９７號底二層之４","E_COORD97":171791.62,"N_COORD97":2544563.1299999999,"ADDRESS":"華興街９７號底二層之４","OBJECTID":559806},"geometry":{"x":171791.62000000104,"y":2544563.129999999}},{"attributes":{"ID":559834,"DIS_CODE":0,"TOWNNAME":"北區","LI":"裕民里","LIN":"9鄰","STREET":"臨安路","SECT":"二段","MAREA":" ","LANE":" ","ALLEY":" ","HOUSE_NO":"５３號十一樓之１","E_COORD97":167621.87,"N_COORD97":2544819.21,"ADDRESS":"臨安路二段５３號十一樓之１","OBJECTID":559807},"geometry":{"x":167621.87000000011,"y":2544819.2100000009}},{"attributes":{"ID":559835,"DIS_CODE":0,"TOWNNAME":"北區","LI":"裕民里","LIN":"9鄰","STREET":"臨安路","SECT":"二段","MAREA":" ","LANE":" ","ALLEY":" ","HOUSE_NO":"５３號十一樓之２","E_COORD97":167621.87,"N_COORD97":2544819.21,"ADDRESS":"臨安路二段５３號十一樓之２","OBJECTID":559808},"geometry":{"x":167621.87000000011,"y":2544819.2100000009}},{"attributes":{"ID":559836,"DIS_CODE":0,"TOWNNAME":"北區","LI":"裕民里","LIN":"9鄰","STREET":"臨安路","SECT":"二段","MAREA":" ","LANE":" ","ALLEY":" ","HOUSE_NO":"５３號十一樓之３","E_COORD97":167621.87,"N_COORD97":2544819.21,"ADDRESS":"臨安路二段５３號十一樓之３","OBJECTID":559809},"geometry":{"x":167621.87000000011,"y":2544819.2100000009}},{"attributes":{"ID":559837,"DIS_CODE":0,"TOWNNAME":"北區","LI":"裕民里","LIN":"9鄰","STREET":"臨安路","SECT":"二段","MAREA":" ","LANE":" ","ALLEY":" ","HOUSE_NO":"５３號十二樓之１","E_COORD97":167621.87,"N_COORD97":2544819.21,"ADDRESS":"臨安路二段５３號十二樓之１","OBJECTID":559810},"geometry":{"x":167621.87000000011,"y":2544819.2100000009}},{"attributes":{"ID":559838,"DIS_CODE":0,"TOWNNAME":"北區","LI":"裕民里","LIN":"9鄰","STREET":"臨安路","SECT":"二段","MAREA":" ","LANE":" ","ALLEY":" ","HOUSE_NO":"５３號十二樓之２","E_COORD97":167621.87,"N_COORD97":2544819.21,"ADDRESS":"臨安路二段５３號十二樓之２","OBJECTID":559811},"geometry":{"x":167621.87000000011,"y":2544819.2100000009}},{"attributes":{"ID":559839,"DIS_CODE":0,"TOWNNAME":"北區","LI":"裕民里","LIN":"9鄰","STREET":"臨安路","SECT":"二段","MAREA":" ","LANE":" ","ALLEY":" ","HOUSE_NO":"５３號十二樓之３","E_COORD97":167621.87,"N_COORD97":2544819.21,"ADDRESS":"臨安路二段５３號十二樓之３","OBJECTID":559812},"geometry":{"x":167621.87000000011,"y":2544819.2100000009}},{"attributes":{"ID":559840,"DIS_CODE":0,"TOWNNAME":"北區","LI":"裕民里","LIN":"9鄰","STREET":"臨安路","SECT":"二段","MAREA":" ","LANE":" ","ALLEY":" ","HOUSE_NO":"５３號十三樓之１","E_COORD97":167621.87,"N_COORD97":2544819.21,"ADDRESS":"臨安路二段５３號十三樓之１","OBJECTID":559813},"geometry":{"x":167621.87000000011,"y":2544819.2100000009}},{"attributes":{"ID":559841,"DIS_CODE":0,"TOWNNAME":"北區","LI":"裕民里","LIN":"9鄰","STREET":"臨安路","SECT":"二段","MAREA":" ","LANE":" ","ALLEY":" ","HOUSE_NO":"５３號十三樓之２","E_COORD97":167621.87,"N_COORD97":2544819.21,"ADDRESS":"臨安路二段５３號十三樓之２","OBJECTID":559814},"geometry":{"x":167621.87000000011,"y":2544819.2100000009}},{"attributes":{"ID":559842,"DIS_CODE":0,"TOWNNAME":"北區","LI":"裕民里","LIN":"9鄰","STREET":"臨安路","SECT":"二段","MAREA":" ","LANE":" ","ALLEY":" ","HOUSE_NO":"５３號十三樓之３","E_COORD97":167621.87,"N_COORD97":2544819.21,"ADDRESS":"臨安路二段５３號十三樓之３","OBJECTID":559815},"geometry":{"x":167621.87000000011,"y":2544819.2100000009}},{"attributes":{"ID":559843,"DIS_CODE":0,"TOWNNAME":"北區","LI":"裕民里","LIN":"9鄰","STREET":"臨安路","SECT":"二段","MAREA":" ","LANE":" ","ALLEY":" ","HOUSE_NO":"５３號十五樓之１","E_COORD97":167621.87,"N_COORD97":2544819.21,"ADDRESS":"臨安路二段５３號十五樓之１","OBJECTID":559816},"geometry":{"x":167621.87000000011,"y":2544819.2100000009}},{"attributes":{"ID":559844,"DIS_CODE":0,"TOWNNAME":"北區","LI":"裕民里","LIN":"9鄰","STREET":"臨安路","SECT":"二段","MAREA":" ","LANE":" ","ALLEY":" ","HOUSE_NO":"５３號十五樓之２","E_COORD97":167621.87,"N_COORD97":2544819.21,"ADDRESS":"臨安路二段５３號十五樓之２","OBJECTID":559817},"geometry":{"x":167621.87000000011,"y":2544819.2100000009}},{"attributes":{"ID":559845,"DIS_CODE":0,"TOWNNAME":"北區","LI":"裕民里","LIN":"9鄰","STREET":"臨安路","SECT":"二段","MAREA":" ","LANE":" ","ALLEY":" ","HOUSE_NO":"５３號十四樓之１","E_COORD97":167621.87,"N_COORD97":2544819.21,"ADDRESS":"臨安路二段５３號十四樓之１","OBJECTID":559818},"geometry":{"x":167621.87000000011,"y":2544819.2100000009}},{"attributes":{"ID":559846,"DIS_CODE":0,"TOWNNAME":"北區","LI":"裕民里","LIN":"9鄰","STREET":"臨安路","SECT":"二段","MAREA":" ","LANE":" ","ALLEY":" ","HOUSE_NO":"５３號十四樓之２","E_COORD97":167621.87,"N_COORD97":2544819.21,"ADDRESS":"臨安路二段５３號十四樓之２","OBJECTID":559819},"geometry":{"x":167621.87000000011,"y":2544819.2100000009}},{"attributes":{"ID":559847,"DIS_CODE":0,"TOWNNAME":"北區","LI":"裕民里","LIN":"9鄰","STREET":"臨安路","SECT":"二段","MAREA":" ","LANE":" ","ALLEY":" ","HOUSE_NO":"５３號十四樓之３","E_COORD97":167621.87,"N_COORD97":2544819.21,"ADDRESS":"臨安路二段５３號十四樓之３","OBJECTID":559820},"geometry":{"x":167621.87000000011,"y":2544819.2100000009}},{"attributes":{"ID":559848,"DIS_CODE":0,"TOWNNAME":"北區","LI":"裕民里","LIN":"9鄰","STREET":"臨安路","SECT":"二段","MAREA":" ","LANE":" ","ALLEY":" ","HOUSE_NO":"５３號十樓之１","E_COORD97":167621.87,"N_COORD97":2544819.21,"ADDRESS":"臨安路二段５３號十樓之１","OBJECTID":559821},"geometry":{"x":167621.87000000011,"y":2544819.2100000009}},{"attributes":{"ID":559849,"DIS_CODE":0,"TOWNNAME":"北區","LI":"裕民里","LIN":"9鄰","STREET":"臨安路","SECT":"二段","MAREA":" ","LANE":" ","ALLEY":" ","HOUSE_NO":"５３號十樓之２","E_COORD97":167621.87,"N_COORD97":2544819.21,"ADDRESS":"臨安路二段５３號十樓之２","OBJECTID":559822},"geometry":{"x":167621.87000000011,"y":2544819.2100000009}},{"attributes":{"ID":559850,"DIS_CODE":0,"TOWNNAME":"北區","LI":"裕民里","LIN":"9鄰","STREET":"臨安路","SECT":"二段","MAREA":" ","LANE":" ","ALLEY":" ","HOUSE_NO":"５３號十樓之３","E_COORD97":167621.87,"N_COORD97":2544819.21,"ADDRESS":"臨安路二段５３號十樓之３","OBJECTID":559823},"geometry":{"x":167621.87000000011,"y":2544819.2100000009}},{"attributes":{"ID":559851,"DIS_CODE":0,"TOWNNAME":"北區","LI":"裕民里","LIN":"9鄰","STREET":"臨安路","SECT":"二段","MAREA":" ","LANE":" ","ALLEY":" ","HOUSE_NO":"５３號十樓之４","E_COORD97":167621.87,"N_COORD97":2544819.21,"ADDRESS":"臨安路二段５３號十樓之４","OBJECTID":559824},"geometry":{"x":167621.87000000011,"y":2544819.2100000009}},{"attributes":{"ID":559852,"DIS_CODE":0,"TOWNNAME":"北區","LI":"裕民里","LIN":"9鄰","STREET":"臨安路","SECT":"二段","MAREA":" ","LANE":" ","ALLEY":" ","HOUSE_NO":"５３號三樓之１","E_COORD97":167621.87,"N_COORD97":2544819.21,"ADDRESS":"臨安路二段５３號三樓之１","OBJECTID":559825},"geometry":{"x":167621.87000000011,"y":2544819.2100000009}},{"attributes":{"ID":559853,"DIS_CODE":0,"TOWNNAME":"北區","LI":"裕民里","LIN":"9鄰","STREET":"臨安路","SECT":"二段","MAREA":" ","LANE":" ","ALLEY":" ","HOUSE_NO":"５３號五樓之１","E_COORD97":167621.87,"N_COORD97":2544819.21,"ADDRESS":"臨安路二段５３號五樓之１","OBJECTID":559826},"geometry":{"x":167621.87000000011,"y":2544819.2100000009}},{"attributes":{"ID":559854,"DIS_CODE":0,"TOWNNAME":"北區","LI":"裕民里","LIN":"9鄰","STREET":"臨安路","SECT":"二段","MAREA":" ","LANE":" ","ALLEY":" ","HOUSE_NO":"５３號五樓之１０","E_COORD97":167621.87,"N_COORD97":2544819.21,"ADDRESS":"臨安路二段５３號五樓之１０","OBJECTID":559827},"geometry":{"x":167621.87000000011,"y":2544819.2100000009}},{"attributes":{"ID":559855,"DIS_CODE":0,"TOWNNAME":"北區","LI":"裕民里","LIN":"9鄰","STREET":"臨安路","SECT":"二段","MAREA":" ","LANE":" ","ALLEY":" ","HOUSE_NO":"５３號五樓之２","E_COORD97":167621.87,"N_COORD97":2544819.21,"ADDRESS":"臨安路二段５３號五樓之２","OBJECTID":559828},"geometry":{"x":167621.87000000011,"y":2544819.2100000009}},{"attributes":{"ID":559856,"DIS_CODE":0,"TOWNNAME":"北區","LI":"裕民里","LIN":"9鄰","STREET":"臨安路","SECT":"二段","MAREA":" ","LANE":" ","ALLEY":" ","HOUSE_NO":"５３號五樓之３","E_COORD97":167621.87,"N_COORD97":2544819.21,"ADDRESS":"臨安路二段５３號五樓之３","OBJECTID":559829},"geometry":{"x":167621.87000000011,"y":2544819.2100000009}},{"attributes":{"ID":559857,"DIS_CODE":0,"TOWNNAME":"北區","LI":"裕民里","LIN":"9鄰","STREET":"臨安路","SECT":"二段","MAREA":" ","LANE":" ","ALLEY":" ","HOUSE_NO":"５３號五樓之４","E_COORD97":167621.87,"N_COORD97":2544819.21,"ADDRESS":"臨安路二段５３號五樓之４","OBJECTID":559830},"geometry":{"x":167621.87000000011,"y":2544819.2100000009}},{"attributes":{"ID":559858,"DIS_CODE":0,"TOWNNAME":"北區","LI":"裕民里","LIN":"9鄰","STREET":"臨安路","SECT":"二段","MAREA":" ","LANE":" ","ALLEY":" ","HOUSE_NO":"５３號五樓之５","E_COORD97":167621.87,"N_COORD97":2544819.21,"ADDRESS":"臨安路二段５３號五樓之５","OBJECTID":559831},"geometry":{"x":167621.87000000011,"y":2544819.2100000009}},{"attributes":{"ID":559859,"DIS_CODE":0,"TOWNNAME":"北區","LI":"裕民里","LIN":"9鄰","STREET":"臨安路","SECT":"二段","MAREA":" ","LANE":" ","ALLEY":" ","HOUSE_NO":"５３號五樓之６","E_COORD97":167621.87,"N_COORD97":2544819.21,"ADDRESS":"臨安路二段５３號五樓之６","OBJECTID":559832},"geometry":{"x":167621.87000000011,"y":2544819.2100000009}},{"attributes":{"ID":559860,"DIS_CODE":0,"TOWNNAME":"北區","LI":"裕民里","LIN":"9鄰","STREET":"臨安路","SECT":"二段","MAREA":" ","LANE":" ","ALLEY":" ","HOUSE_NO":"５３號五樓之７","E_COORD97":167621.87,"N_COORD97":2544819.21,"ADDRESS":"臨安路二段５３號五樓之７","OBJECTID":559833},"geometry":{"x":167621.87000000011,"y":2544819.2100000009}},{"attributes":{"ID":559861,"DIS_CODE":0,"TOWNNAME":"北區","LI":"裕民里","LIN":"9鄰","STREET":"臨安路","SECT":"二段","MAREA":" ","LANE":" ","ALLEY":" ","HOUSE_NO":"５３號五樓之８","E_COORD97":167621.87,"N_COORD97":2544819.21,"ADDRESS":"臨安路二段５３號五樓之８","OBJECTID":559834},"geometry":{"x":167621.87000000011,"y":2544819.2100000009}},{"attributes":{"ID":559862,"DIS_CODE":0,"TOWNNAME":"北區","LI":"裕民里","LIN":"9鄰","STREET":"臨安路","SECT":"二段","MAREA":" ","LANE":" ","ALLEY":" ","HOUSE_NO":"５３號五樓之９","E_COORD97":167621.87,"N_COORD97":2544819.21,"ADDRESS":"臨安路二段５３號五樓之９","OBJECTID":559835},"geometry":{"x":167621.87000000011,"y":2544819.2100000009}},{"attributes":{"ID":559863,"DIS_CODE":0,"TOWNNAME":"北區","LI":"裕民里","LIN":"9鄰","STREET":"臨安路","SECT":"二段","MAREA":" ","LANE":" ","ALLEY":" ","HOUSE_NO":"５３號六樓之１","E_COORD97":167621.87,"N_COORD97":2544819.21,"ADDRESS":"臨安路二段５３號六樓之１","OBJECTID":559836},"geometry":{"x":167621.87000000011,"y":2544819.2100000009}},{"attributes":{"ID":559864,"DIS_CODE":0,"TOWNNAME":"北區","LI":"裕民里","LIN":"9鄰","STREET":"臨安路","SECT":"二段","MAREA":" ","LANE":" ","ALLEY":" ","HOUSE_NO":"５３號六樓之２","E_COORD97":167621.87,"N_COORD97":2544819.21,"ADDRESS":"臨安路二段５３號六樓之２","OBJECTID":559837},"geometry":{"x":167621.87000000011,"y":2544819.2100000009}},{"attributes":{"ID":559865,"DIS_CODE":0,"TOWNNAME":"北區","LI":"裕民里","LIN":"9鄰","STREET":"臨安路","SECT":"二段","MAREA":" ","LANE":" ","ALLEY":" ","HOUSE_NO":"５３號六樓之３","E_COORD97":167621.87,"N_COORD97":2544819.21,"ADDRESS":"臨安路二段５３號六樓之３","OBJECTID":559838},"geometry":{"x":167621.87000000011,"y":2544819.2100000009}},{"attributes":{"ID":559866,"DIS_CODE":0,"TOWNNAME":"北區","LI":"裕民里","LIN":"9鄰","STREET":"臨安路","SECT":"二段","MAREA":" ","LANE":" ","ALLEY":" ","HOUSE_NO":"５３號六樓之４","E_COORD97":167621.87,"N_COORD97":2544819.21,"ADDRESS":"臨安路二段５３號六樓之４","OBJECTID":559839},"geometry":{"x":167621.87000000011,"y":2544819.2100000009}},{"attributes":{"ID":559867,"DIS_CODE":0,"TOWNNAME":"北區","LI":"裕民里","LIN":"9鄰","STREET":"臨安路","SECT":"二段","MAREA":" ","LANE":" ","ALLEY":" ","HOUSE_NO":"５３號六樓之５","E_COORD97":167621.87,"N_COORD97":2544819.21,"ADDRESS":"臨安路二段５３號六樓之５","OBJECTID":559840},"geometry":{"x":167621.87000000011,"y":2544819.2100000009}},{"attributes":{"ID":559868,"DIS_CODE":0,"TOWNNAME":"北區","LI":"裕民里","LIN":"9鄰","STREET":"臨安路","SECT":"二段","MAREA":" ","LANE":" ","ALLEY":" ","HOUSE_NO":"５３號六樓之６","E_COORD97":167621.87,"N_COORD97":2544819.21,"ADDRESS":"臨安路二段５３號六樓之６","OBJECTID":559841},"geometry":{"x":167621.87000000011,"y":2544819.2100000009}},{"attributes":{"ID":559869,"DIS_CODE":0,"TOWNNAME":"北區","LI":"裕民里","LIN":"9鄰","STREET":"臨安路","SECT":"二段","MAREA":" ","LANE":" ","ALLEY":" ","HOUSE_NO":"５３號四樓之１","E_COORD97":167621.87,"N_COORD97":2544819.21,"ADDRESS":"臨安路二段５３號四樓之１","OBJECTID":559842},"geometry":{"x":167621.87000000011,"y":2544819.2100000009}},{"attributes":{"ID":559870,"DIS_CODE":0,"TOWNNAME":"北區","LI":"裕民里","LIN":"9鄰","STREET":"臨安路","SECT":"二段","MAREA":" ","LANE":" ","ALLEY":" ","HOUSE_NO":"５３號四樓之１０","E_COORD97":167621.87,"N_COORD97":2544819.21,"ADDRESS":"臨安路二段５３號四樓之１０","OBJECTID":559843},"geometry":{"x":167621.87000000011,"y":2544819.2100000009}},{"attributes":{"ID":559871,"DIS_CODE":0,"TOWNNAME":"北區","LI":"裕民里","LIN":"9鄰","STREET":"臨安路","SECT":"二段","MAREA":" ","LANE":" ","ALLEY":" ","HOUSE_NO":"５３號四樓之１１","E_COORD97":167621.87,"N_COORD97":2544819.21,"ADDRESS":"臨安路二段５３號四樓之１１","OBJECTID":559844},"geometry":{"x":167621.87000000011,"y":2544819.2100000009}},{"attributes":{"ID":559872,"DIS_CODE":0,"TOWNNAME":"北區","LI":"裕民里","LIN":"9鄰","STREET":"臨安路","SECT":"二段","MAREA":" ","LANE":" ","ALLEY":" ","HOUSE_NO":"５３號四樓之２","E_COORD97":167621.87,"N_COORD97":2544819.21,"ADDRESS":"臨安路二段５３號四樓之２","OBJECTID":559845},"geometry":{"x":167621.87000000011,"y":2544819.2100000009}},{"attributes":{"ID":559873,"DIS_CODE":0,"TOWNNAME":"北區","LI":"裕民里","LIN":"9鄰","STREET":"臨安路","SECT":"二段","MAREA":" ","LANE":" ","ALLEY":" ","HOUSE_NO":"５３號四樓之３","E_COORD97":167621.87,"N_COORD97":2544819.21,"ADDRESS":"臨安路二段５３號四樓之３","OBJECTID":559846},"geometry":{"x":167621.87000000011,"y":2544819.2100000009}},{"attributes":{"ID":559874,"DIS_CODE":0,"TOWNNAME":"北區","LI":"裕民里","LIN":"9鄰","STREET":"臨安路","SECT":"二段","MAREA":" ","LANE":" ","ALLEY":" ","HOUSE_NO":"５３號四樓之４","E_COORD97":167621.87,"N_COORD97":2544819.21,"ADDRESS":"臨安路二段５３號四樓之４","OBJECTID":559847},"geometry":{"x":167621.87000000011,"y":2544819.2100000009}},{"attributes":{"ID":559875,"DIS_CODE":0,"TOWNNAME":"北區","LI":"裕民里","LIN":"9鄰","STREET":"臨安路","SECT":"二段","MAREA":" ","LANE":" ","ALLEY":" ","HOUSE_NO":"５３號四樓之５","E_COORD97":167621.87,"N_COORD97":2544819.21,"ADDRESS":"臨安路二段５３號四樓之５","OBJECTID":559848},"geometry":{"x":167621.87000000011,"y":2544819.2100000009}},{"attributes":{"ID":559876,"DIS_CODE":0,"TOWNNAME":"北區","LI":"裕民里","LIN":"9鄰","STREET":"臨安路","SECT":"二段","MAREA":" ","LANE":" ","ALLEY":" ","HOUSE_NO":"５３號四樓之６","E_COORD97":167621.87,"N_COORD97":2544819.21,"ADDRESS":"臨安路二段５３號四樓之６","OBJECTID":559849},"geometry":{"x":167621.87000000011,"y":2544819.2100000009}},{"attributes":{"ID":559877,"DIS_CODE":0,"TOWNNAME":"北區","LI":"裕民里","LIN":"9鄰","STREET":"臨安路","SECT":"二段","MAREA":" ","LANE":" ","ALLEY":" ","HOUSE_NO":"５３號四樓之７","E_COORD97":167621.87,"N_COORD97":2544819.21,"ADDRESS":"臨安路二段５３號四樓之７","OBJECTID":559850},"geometry":{"x":167621.87000000011,"y":2544819.2100000009}},{"attributes":{"ID":559878,"DIS_CODE":0,"TOWNNAME":"北區","LI":"裕民里","LIN":"9鄰","STREET":"臨安路","SECT":"二段","MAREA":" ","LANE":" ","ALLEY":" ","HOUSE_NO":"５３號四樓之８","E_COORD97":167621.87,"N_COORD97":2544819.21,"ADDRESS":"臨安路二段５３號四樓之８","OBJECTID":559851},"geometry":{"x":167621.87000000011,"y":2544819.2100000009}},{"attributes":{"ID":559879,"DIS_CODE":0,"TOWNNAME":"北區","LI":"裕民里","LIN":"9鄰","STREET":"臨安路","SECT":"二段","MAREA":" ","LANE":" ","ALLEY":" ","HOUSE_NO":"５３號四樓之９","E_COORD97":167621.87,"N_COORD97":2544819.21,"ADDRESS":"臨安路二段５３號四樓之９","OBJECTID":559852},"geometry":{"x":167621.87000000011,"y":2544819.2100000009}},{"attributes":{"ID":559880,"DIS_CODE":0,"TOWNNAME":"北區","LI":"裕民里","LIN":"9鄰","STREET":"臨安路","SECT":"二段","MAREA":" ","LANE":" ","ALLEY":" ","HOUSE_NO":"５５號七樓之１","E_COORD97":167626.79000000001,"N_COORD97":2544821.1099999999,"ADDRESS":"臨安路二段５５號七樓之１","OBJECTID":559853},"geometry":{"x":167626.79000000097,"y":2544821.1100000013}},{"attributes":{"ID":559881,"DIS_CODE":0,"TOWNNAME":"北區","LI":"裕民里","LIN":"9鄰","STREET":"臨安路","SECT":"二段","MAREA":" ","LANE":" ","ALLEY":" ","HOUSE_NO":"５５號七樓之２","E_COORD97":167626.79000000001,"N_COORD97":2544821.1099999999,"ADDRESS":"臨安路二段５５號七樓之２","OBJECTID":559854},"geometry":{"x":167626.79000000097,"y":2544821.1100000013}},{"attributes":{"ID":559882,"DIS_CODE":0,"TOWNNAME":"北區","LI":"裕民里","LIN":"9鄰","STREET":"臨安路","SECT":"二段","MAREA":" ","LANE":" ","ALLEY":" ","HOUSE_NO":"５５號七樓之３","E_COORD97":167626.79000000001,"N_COORD97":2544821.1099999999,"ADDRESS":"臨安路二段５５號七樓之３","OBJECTID":559855},"geometry":{"x":167626.79000000097,"y":2544821.1100000013}},{"attributes":{"ID":559883,"DIS_CODE":0,"TOWNNAME":"北區","LI":"裕民里","LIN":"9鄰","STREET":"臨安路","SECT":"二段","MAREA":" ","LANE":" ","ALLEY":" ","HOUSE_NO":"５５號七樓之４","E_COORD97":167626.79000000001,"N_COORD97":2544821.1099999999,"ADDRESS":"臨安路二段５５號七樓之４","OBJECTID":559856},"geometry":{"x":167626.79000000097,"y":2544821.1100000013}},{"attributes":{"ID":559884,"DIS_CODE":0,"TOWNNAME":"北區","LI":"裕民里","LIN":"9鄰","STREET":"臨安路","SECT":"二段","MAREA":" ","LANE":" ","ALLEY":" ","HOUSE_NO":"５５號三樓之１","E_COORD97":167626.79000000001,"N_COORD97":2544821.1099999999,"ADDRESS":"臨安路二段５５號三樓之１","OBJECTID":559857},"geometry":{"x":167626.79000000097,"y":2544821.1100000013}},{"attributes":{"ID":559885,"DIS_CODE":0,"TOWNNAME":"北區","LI":"裕民里","LIN":"9鄰","STREET":"臨安路","SECT":"二段","MAREA":" ","LANE":" ","ALLEY":" ","HOUSE_NO":"５５號三樓之２","E_COORD97":167626.79000000001,"N_COORD97":2544821.1099999999,"ADDRESS":"臨安路二段５５號三樓之２","OBJECTID":559858},"geometry":{"x":167626.79000000097,"y":2544821.1100000013}},{"attributes":{"ID":559886,"DIS_CODE":0,"TOWNNAME":"北區","LI":"裕民里","LIN":"9鄰","STREET":"臨安路","SECT":"二段","MAREA":" ","LANE":" ","ALLEY":" ","HOUSE_NO":"５５號三樓之３","E_COORD97":167626.79000000001,"N_COORD97":2544821.1099999999,"ADDRESS":"臨安路二段５５號三樓之３","OBJECTID":559859},"geometry":{"x":167626.79000000097,"y":2544821.1100000013}},{"attributes":{"ID":559887,"DIS_CODE":0,"TOWNNAME":"永康區","LI":"\u25A0行里","LIN":"7鄰","STREET":"中正五街","SECT":" ","MAREA":" ","LANE":" ","ALLEY":" ","HOUSE_NO":"２０號","E_COORD97":172530.06,"N_COORD97":2548543.2400000002,"ADDRESS":"中正五街２０號","OBJECTID":559860},"geometry":{"x":172530.06000000145,"y":2548543.2400000021}},{"attributes":{"ID":559888,"DIS_CODE":0,"TOWNNAME":"北區","LI":"裕民里","LIN":"9鄰","STREET":"臨安路","SECT":"二段","MAREA":" ","LANE":" ","ALLEY":" ","HOUSE_NO":"５５號五樓之１","E_COORD97":167626.79000000001,"N_COORD97":2544821.1099999999,"ADDRESS":"臨安路二段５５號五樓之１","OBJECTID":559861},"geometry":{"x":167626.79000000097,"y":2544821.1100000013}},{"attributes":{"ID":559889,"DIS_CODE":0,"TOWNNAME":"北區","LI":"裕民里","LIN":"9鄰","STREET":"臨安路","SECT":"二段","MAREA":" ","LANE":" ","ALLEY":" ","HOUSE_NO":"５５號五樓之２","E_COORD97":167626.79000000001,"N_COORD97":2544821.1099999999,"ADDRESS":"臨安路二段５５號五樓之２","OBJECTID":559862},"geometry":{"x":167626.79000000097,"y":2544821.1100000013}},{"attributes":{"ID":559890,"DIS_CODE":0,"TOWNNAME":"中西區","LI":"協進里","LIN":"3鄰","STREET":"濟生街","SECT":" ","MAREA":" ","LANE":" ","ALLEY":" ","HOUSE_NO":"８號","E_COORD97":167152.07999999999,"N_COORD97":2544250.0600000001,"ADDRESS":"濟生街８號","OBJECTID":559863},"geometry":{"x":167152.08000000101,"y":2544250.0600000005}},{"attributes":{"ID":559891,"DIS_CODE":0,"TOWNNAME":"北區","LI":"裕民里","LIN":"9鄰","STREET":"臨安路","SECT":"二段","MAREA":" ","LANE":" ","ALLEY":" ","HOUSE_NO":"５５號五樓之３","E_COORD97":167626.79000000001,"N_COORD97":2544821.1099999999,"ADDRESS":"臨安路二段５５號五樓之３","OBJECTID":559864},"geometry":{"x":167626.79000000097,"y":2544821.1100000013}},{"attributes":{"ID":559892,"DIS_CODE":0,"TOWNNAME":"北區","LI":"裕民里","LIN":"9鄰","STREET":"臨安路","SECT":"二段","MAREA":" ","LANE":" ","ALLEY":" ","HOUSE_NO":"５５號五樓之４","E_COORD97":167626.79000000001,"N_COORD97":2544821.1099999999,"ADDRESS":"臨安路二段５５號五樓之４","OBJECTID":559865},"geometry":{"x":167626.79000000097,"y":2544821.1100000013}},{"attributes":{"ID":559893,"DIS_CODE":0,"TOWNNAME":"北區","LI":"裕民里","LIN":"9鄰","STREET":"臨安路","SECT":"二段","MAREA":" ","LANE":" ","ALLEY":" ","HOUSE_NO":"５５號六樓之１","E_COORD97":167626.79000000001,"N_COORD97":2544821.1099999999,"ADDRESS":"臨安路二段５５號六樓之１","OBJECTID":559866},"geometry":{"x":167626.79000000097,"y":2544821.1100000013}},{"attributes":{"ID":559894,"DIS_CODE":0,"TOWNNAME":"北區","LI":"裕民里","LIN":"9鄰","STREET":"臨安路","SECT":"二段","MAREA":" ","LANE":" ","ALLEY":" ","HOUSE_NO":"５５號六樓之２","E_COORD97":167626.79000000001,"N_COORD97":2544821.1099999999,"ADDRESS":"臨安路二段５５號六樓之２","OBJECTID":559867},"geometry":{"x":167626.79000000097,"y":2544821.1100000013}},{"attributes":{"ID":559895,"DIS_CODE":0,"TOWNNAME":"北區","LI":"裕民里","LIN":"9鄰","STREET":"臨安路","SECT":"二段","MAREA":" ","LANE":" ","ALLEY":" ","HOUSE_NO":"５５號六樓之３","E_COORD97":167626.79000000001,"N_COORD97":2544821.1099999999,"ADDRESS":"臨安路二段５５號六樓之３","OBJECTID":559868},"geometry":{"x":167626.79000000097,"y":2544821.1100000013}},{"attributes":{"ID":559896,"DIS_CODE":0,"TOWNNAME":"北區","LI":"裕民里","LIN":"9鄰","STREET":"臨安路","SECT":"二段","MAREA":" ","LANE":" ","ALLEY":" ","HOUSE_NO":"５５號六樓之４","E_COORD97":167626.79000000001,"N_COORD97":2544821.1099999999,"ADDRESS":"臨安路二段５５號六樓之４","OBJECTID":559869},"geometry":{"x":167626.79000000097,"y":2544821.1100000013}},{"attributes":{"ID":559897,"DIS_CODE":0,"TOWNNAME":"北區","LI":"裕民里","LIN":"9鄰","STREET":"臨安路","SECT":"二段","MAREA":" ","LANE":" ","ALLEY":" ","HOUSE_NO":"５５號四樓之１","E_COORD97":167626.79000000001,"N_COORD97":2544821.1099999999,"ADDRESS":"臨安路二段５５號四樓之１","OBJECTID":559870},"geometry":{"x":167626.79000000097,"y":2544821.1100000013}},{"attributes":{"ID":559898,"DIS_CODE":0,"TOWNNAME":"北區","LI":"裕民里","LIN":"9鄰","STREET":"臨安路","SECT":"二段","MAREA":" ","LANE":" ","ALLEY":" ","HOUSE_NO":"５５號四樓之２","E_COORD97":167626.79000000001,"N_COORD97":2544821.1099999999,"ADDRESS":"臨安路二段５５號四樓之２","OBJECTID":559871},"geometry":{"x":167626.79000000097,"y":2544821.1100000013}},{"attributes":{"ID":559899,"DIS_CODE":0,"TOWNNAME":"北區","LI":"裕民里","LIN":"9鄰","STREET":"臨安路","SECT":"二段","MAREA":" ","LANE":" ","ALLEY":" ","HOUSE_NO":"５５號四樓之３","E_COORD97":167626.79000000001,"N_COORD97":2544821.1099999999,"ADDRESS":"臨安路二段５５號四樓之３","OBJECTID":559872},"geometry":{"x":167626.79000000097,"y":2544821.1100000013}},{"attributes":{"ID":559900,"DIS_CODE":0,"TOWNNAME":"安平區","LI":"怡平里","LIN":"9鄰","STREET":"慶平路","SECT":" ","MAREA":" ","LANE":" ","ALLEY":" ","HOUSE_NO":"１９１號二樓","E_COORD97":165822.95999999999,"N_COORD97":2544167.3799999999,"ADDRESS":"慶平路１９１號二樓","OBJECTID":559873},"geometry":{"x":165822.95999999996,"y":2544167.3800000008}},{"attributes":{"ID":559901,"DIS_CODE":0,"TOWNNAME":"安平區","LI":"怡平里","LIN":"9鄰","STREET":"慶平路","SECT":" ","MAREA":" ","LANE":" ","ALLEY":" ","HOUSE_NO":"１９１號三樓之２","E_COORD97":165822.95999999999,"N_COORD97":2544167.3799999999,"ADDRESS":"慶平路１９１號三樓之２","OBJECTID":559874},"geometry":{"x":165822.95999999996,"y":2544167.3800000008}},{"attributes":{"ID":559902,"DIS_CODE":0,"TOWNNAME":"安平區","LI":"怡平里","LIN":"9鄰","STREET":"慶平路","SECT":" ","MAREA":" ","LANE":" ","ALLEY":" ","HOUSE_NO":"１９１號三樓之３","E_COORD97":165822.95999999999,"N_COORD97":2544167.3799999999,"ADDRESS":"慶平路１９１號三樓之３","OBJECTID":559875},"geometry":{"x":165822.95999999996,"y":2544167.3800000008}},{"attributes":{"ID":559903,"DIS_CODE":0,"TOWNNAME":"安平區","LI":"怡平里","LIN":"9鄰","STREET":"慶平路","SECT":" ","MAREA":" ","LANE":" ","ALLEY":" ","HOUSE_NO":"１９１號三樓之５","E_COORD97":165822.95999999999,"N_COORD97":2544167.3799999999,"ADDRESS":"慶平路１９１號三樓之５","OBJECTID":559876},"geometry":{"x":165822.95999999996,"y":2544167.3800000008}},{"attributes":{"ID":559904,"DIS_CODE":0,"TOWNNAME":"安平區","LI":"怡平里","LIN":"9鄰","STREET":"慶平路","SECT":" ","MAREA":" ","LANE":" ","ALLEY":" ","HOUSE_NO":"１９１號四樓之１","E_COORD97":165822.95999999999,"N_COORD97":2544167.3799999999,"ADDRESS":"慶平路１９１號四樓之１","OBJECTID":559877},"geometry":{"x":165822.95999999996,"y":2544167.3800000008}},{"attributes":{"ID":559905,"DIS_CODE":0,"TOWNNAME":"安平區","LI":"怡平里","LIN":"9鄰","STREET":"慶平路","SECT":" ","MAREA":" ","LANE":" ","ALLEY":" ","HOUSE_NO":"１９１號四樓之２","E_COORD97":165822.95999999999,"N_COORD97":2544167.3799999999,"ADDRESS":"慶平路１９１號四樓之２","OBJECTID":559878},"geometry":{"x":165822.95999999996,"y":2544167.3800000008}},{"attributes":{"ID":559906,"DIS_CODE":0,"TOWNNAME":"安平區","LI":"怡平里","LIN":"9鄰","STREET":"慶平路","SECT":" ","MAREA":" ","LANE":" ","ALLEY":" ","HOUSE_NO":"１９１號四樓之３","E_COORD97":165822.95999999999,"N_COORD97":2544167.3799999999,"ADDRESS":"慶平路１９１號四樓之３","OBJECTID":559879},"geometry":{"x":165822.95999999996,"y":2544167.3800000008}},{"attributes":{"ID":559907,"DIS_CODE":0,"TOWNNAME":"安平區","LI":"怡平里","LIN":"9鄰","STREET":"慶平路","SECT":" ","MAREA":" ","LANE":" ","ALLEY":" ","HOUSE_NO":"１９１號四樓之５","E_COORD97":165822.95999999999,"N_COORD97":2544167.3799999999,"ADDRESS":"慶平路１９１號四樓之５","OBJECTID":559880},"geometry":{"x":165822.95999999996,"y":2544167.3800000008}},{"attributes":{"ID":559908,"DIS_CODE":0,"TOWNNAME":"安平區","LI":"怡平里","LIN":"9鄰","STREET":"慶平路","SECT":" ","MAREA":" ","LANE":" ","ALLEY":" ","HOUSE_NO":"１９１號五樓之１","E_COORD97":165822.95999999999,"N_COORD97":2544167.3799999999,"ADDRESS":"慶平路１９１號五樓之１","OBJECTID":559881},"geometry":{"x":165822.95999999996,"y":2544167.3800000008}},{"attributes":{"ID":559909,"DIS_CODE":0,"TOWNNAME":"安平區","LI":"怡平里","LIN":"9鄰","STREET":"慶平路","SECT":" ","MAREA":" ","LANE":" ","ALLEY":" ","HOUSE_NO":"１９１號五樓之２","E_COORD97":165822.95999999999,"N_COORD97":2544167.3799999999,"ADDRESS":"慶平路１９１號五樓之２","OBJECTID":559882},"geometry":{"x":165822.95999999996,"y":2544167.3800000008}},{"attributes":{"ID":559910,"DIS_CODE":0,"TOWNNAME":"安平區","LI":"怡平里","LIN":"9鄰","STREET":"慶平路","SECT":" ","MAREA":" ","LANE":" ","ALLEY":" ","HOUSE_NO":"１９１號五樓之３","E_COORD97":165822.95999999999,"N_COORD97":2544167.3799999999,"ADDRESS":"慶平路１９１號五樓之３","OBJECTID":559883},"geometry":{"x":165822.95999999996,"y":2544167.3800000008}},{"attributes":{"ID":559911,"DIS_CODE":0,"TOWNNAME":"永康區","LI":"\u25A0洲里","LIN":" ","STREET":"鹽忠街","SECT":" ","MAREA":" ","LANE":" ","ALLEY":" ","HOUSE_NO":"５３號","E_COORD97":171338.64000000001,"N_COORD97":2549068.3399999999,"ADDRESS":"鹽忠街５３號","OBJECTID":559884},"geometry":{"x":171338.6400000006,"y":2549068.3400000017}},{"attributes":{"ID":559912,"DIS_CODE":0,"TOWNNAME":"安平區","LI":"怡平里","LIN":"9鄰","STREET":"慶平路","SECT":" ","MAREA":" ","LANE":" ","ALLEY":" ","HOUSE_NO":"１９１號五樓之５","E_COORD97":165822.95999999999,"N_COORD97":2544167.3799999999,"ADDRESS":"慶平路１９１號五樓之５","OBJECTID":559885},"geometry":{"x":165822.95999999996,"y":2544167.3800000008}},{"attributes":{"ID":559913,"DIS_CODE":0,"TOWNNAME":"安平區","LI":"怡平里","LIN":"9鄰","STREET":"慶平路","SECT":" ","MAREA":" ","LANE":" ","ALLEY":" ","HOUSE_NO":"１９１號六樓之１","E_COORD97":165822.95999999999,"N_COORD97":2544167.3799999999,"ADDRESS":"慶平路１９１號六樓之１","OBJECTID":559886},"geometry":{"x":165822.95999999996,"y":2544167.3800000008}},{"attributes":{"ID":559914,"DIS_CODE":0,"TOWNNAME":"安平區","LI":"怡平里","LIN":"9鄰","STREET":"慶平路","SECT":" ","MAREA":" ","LANE":" ","ALLEY":" ","HOUSE_NO":"１９１號六樓之２","E_COORD97":165822.95999999999,"N_COORD97":2544167.3799999999,"ADDRESS":"慶平路１９１號六樓之２","OBJECTID":559887},"geometry":{"x":165822.95999999996,"y":2544167.3800000008}},{"attributes":{"ID":559915,"DIS_CODE":0,"TOWNNAME":"安平區","LI":"怡平里","LIN":"9鄰","STREET":"慶平路","SECT":" ","MAREA":" ","LANE":" ","ALLEY":" ","HOUSE_NO":"１９１號七樓之１","E_COORD97":165822.95999999999,"N_COORD97":2544167.3799999999,"ADDRESS":"慶平路１９１號七樓之１","OBJECTID":559888},"geometry":{"x":165822.95999999996,"y":2544167.3800000008}},{"attributes":{"ID":559916,"DIS_CODE":0,"TOWNNAME":"安平區","LI":"怡平里","LIN":"9鄰","STREET":"慶平路","SECT":" ","MAREA":" ","LANE":" ","ALLEY":" ","HOUSE_NO":"１９１號七樓之２","E_COORD97":165822.95999999999,"N_COORD97":2544167.3799999999,"ADDRESS":"慶平路１９１號七樓之２","OBJECTID":559889},"geometry":{"x":165822.95999999996,"y":2544167.3800000008}},{"attributes":{"ID":559917,"DIS_CODE":0,"TOWNNAME":"安平區","LI":"怡平里","LIN":"9鄰","STREET":"慶平路","SECT":" ","MAREA":" ","LANE":" ","ALLEY":" ","HOUSE_NO":"１９１號八樓","E_COORD97":165822.95999999999,"N_COORD97":2544167.3799999999,"ADDRESS":"慶平路１９１號八樓","OBJECTID":559890},"geometry":{"x":165822.95999999996,"y":2544167.3800000008}},{"attributes":{"ID":559918,"DIS_CODE":0,"TOWNNAME":"北區","LI":"仁愛里","LIN":"9鄰","STREET":"長榮路","SECT":"四段","MAREA":" ","LANE":" ","ALLEY":" ","HOUSE_NO":"５６號十五樓之１","E_COORD97":170321.89999999999,"N_COORD97":2544950.5800000001,"ADDRESS":"長榮路四段５６號十五樓之１","OBJECTID":559891},"geometry":{"x":170321.9000000013,"y":2544950.5800000019}},{"attributes":{"ID":559919,"DIS_CODE":0,"TOWNNAME":"北區","LI":"仁愛里","LIN":"9鄰","STREET":"長榮路","SECT":"四段","MAREA":" ","LANE":" ","ALLEY":" ","HOUSE_NO":"５６號十五樓之２","E_COORD97":170321.89999999999,"N_COORD97":2544950.5800000001,"ADDRESS":"長榮路四段５６號十五樓之２","OBJECTID":559892},"geometry":{"x":170321.9000000013,"y":2544950.5800000019}},{"attributes":{"ID":559920,"DIS_CODE":0,"TOWNNAME":"北區","LI":"仁愛里","LIN":"9鄰","STREET":"長榮路","SECT":"四段","MAREA":" ","LANE":" ","ALLEY":" ","HOUSE_NO":"５６號十五樓之３","E_COORD97":170321.89999999999,"N_COORD97":2544950.5800000001,"ADDRESS":"長榮路四段５６號十五樓之３","OBJECTID":559893},"geometry":{"x":170321.9000000013,"y":2544950.5800000019}},{"attributes":{"ID":559921,"DIS_CODE":0,"TOWNNAME":"北區","LI":"仁愛里","LIN":"9鄰","STREET":"長榮路","SECT":"四段","MAREA":" ","LANE":" ","ALLEY":" ","HOUSE_NO":"５６號十五樓之５","E_COORD97":170321.89999999999,"N_COORD97":2544950.5800000001,"ADDRESS":"長榮路四段５６號十五樓之５","OBJECTID":559894},"geometry":{"x":170321.9000000013,"y":2544950.5800000019}},{"attributes":{"ID":559922,"DIS_CODE":0,"TOWNNAME":"東區","LI":"德光里","LIN":"9鄰","STREET":"崇學路","SECT":" ","MAREA":" ","LANE":" ","ALLEY":" ","HOUSE_NO":"８１號三樓","E_COORD97":170164.64000000001,"N_COORD97":2542079.8300000001,"ADDRESS":"崇學路８１號三樓","OBJECTID":559895},"geometry":{"x":170164.63999999966,"y":2542079.8300000019}},{"attributes":{"ID":559923,"DIS_CODE":0,"TOWNNAME":"北區","LI":"仁愛里","LIN":"9鄰","STREET":"長榮路","SECT":"四段","MAREA":" ","LANE":" ","ALLEY":" ","HOUSE_NO":"５６號十五樓之６","E_COORD97":170321.89999999999,"N_COORD97":2544950.5800000001,"ADDRESS":"長榮路四段５６號十五樓之６","OBJECTID":559896},"geometry":{"x":170321.9000000013,"y":2544950.5800000019}},{"attributes":{"ID":559924,"DIS_CODE":0,"TOWNNAME":"北區","LI":"仁愛里","LIN":"9鄰","STREET":"長榮路","SECT":"四段","MAREA":" ","LANE":" ","ALLEY":" ","HOUSE_NO":"５６號十五樓之７","E_COORD97":170321.89999999999,"N_COORD97":2544950.5800000001,"ADDRESS":"長榮路四段５６號十五樓之７","OBJECTID":559897},"geometry":{"x":170321.9000000013,"y":2544950.5800000019}},{"attributes":{"ID":559925,"DIS_CODE":0,"TOWNNAME":"北區","LI":"仁愛里","LIN":"9鄰","STREET":"長榮路","SECT":"四段","MAREA":" ","LANE":" ","ALLEY":" ","HOUSE_NO":"５６號十六樓之１","E_COORD97":170321.89999999999,"N_COORD97":2544950.5800000001,"ADDRESS":"長榮路四段５６號十六樓之１","OBJECTID":559898},"geometry":{"x":170321.9000000013,"y":2544950.5800000019}},{"attributes":{"ID":559926,"DIS_CODE":0,"TOWNNAME":"北區","LI":"仁愛里","LIN":"9鄰","STREET":"長榮路","SECT":"四段","MAREA":" ","LANE":" ","ALLEY":" ","HOUSE_NO":"５６號十六樓之２","E_COORD97":170321.89999999999,"N_COORD97":2544950.5800000001,"ADDRESS":"長榮路四段５６號十六樓之２","OBJECTID":559899},"geometry":{"x":170321.9000000013,"y":2544950.5800000019}},{"attributes":{"ID":559927,"DIS_CODE":0,"TOWNNAME":"北區","LI":"仁愛里","LIN":"9鄰","STREET":"長榮路","SECT":"四段","MAREA":" ","LANE":" ","ALLEY":" ","HOUSE_NO":"５６號十六樓之３","E_COORD97":170321.89999999999,"N_COORD97":2544950.5800000001,"ADDRESS":"長榮路四段５６號十六樓之３","OBJECTID":559900},"geometry":{"x":170321.9000000013,"y":2544950.5800000019}},{"attributes":{"ID":559928,"DIS_CODE":0,"TOWNNAME":"北區","LI":"仁愛里","LIN":"9鄰","STREET":"長榮路","SECT":"四段","MAREA":" ","LANE":" ","ALLEY":" ","HOUSE_NO":"５６號十六樓之５","E_COORD97":170321.89999999999,"N_COORD97":2544950.5800000001,"ADDRESS":"長榮路四段５６號十六樓之５","OBJECTID":559901},"geometry":{"x":170321.9000000013,"y":2544950.5800000019}},{"attributes":{"ID":559929,"DIS_CODE":0,"TOWNNAME":"北區","LI":"仁愛里","LIN":"9鄰","STREET":"長榮路","SECT":"四段","MAREA":" ","LANE":" ","ALLEY":" ","HOUSE_NO":"５６號十六樓之６","E_COORD97":170321.89999999999,"N_COORD97":2544950.5800000001,"ADDRESS":"長榮路四段５６號十六樓之６","OBJECTID":559902},"geometry":{"x":170321.9000000013,"y":2544950.5800000019}},{"attributes":{"ID":559930,"DIS_CODE":0,"TOWNNAME":"北區","LI":"仁愛里","LIN":"9鄰","STREET":"長榮路","SECT":"四段","MAREA":" ","LANE":" ","ALLEY":" ","HOUSE_NO":"５６號十六樓之７","E_COORD97":170321.89999999999,"N_COORD97":2544950.5800000001,"ADDRESS":"長榮路四段５６號十六樓之７","OBJECTID":559903},"geometry":{"x":170321.9000000013,"y":2544950.5800000019}},{"attributes":{"ID":559931,"DIS_CODE":0,"TOWNNAME":"北區","LI":"仁愛里","LIN":"9鄰","STREET":"長榮路","SECT":"四段","MAREA":" ","LANE":" ","ALLEY":" ","HOUSE_NO":"５６號十七樓之１","E_COORD97":170321.89999999999,"N_COORD97":2544950.5800000001,"ADDRESS":"長榮路四段５６號十七樓之１","OBJECTID":559904},"geometry":{"x":170321.9000000013,"y":2544950.5800000019}},{"attributes":{"ID":559932,"DIS_CODE":0,"TOWNNAME":"北區","LI":"仁愛里","LIN":"9鄰","STREET":"長榮路","SECT":"四段","MAREA":" ","LANE":" ","ALLEY":" ","HOUSE_NO":"５６號十七樓之２","E_COORD97":170321.89999999999,"N_COORD97":2544950.5800000001,"ADDRESS":"長榮路四段５６號十七樓之２","OBJECTID":559905},"geometry":{"x":170321.9000000013,"y":2544950.5800000019}},{"attributes":{"ID":559933,"DIS_CODE":0,"TOWNNAME":"北區","LI":"仁愛里","LIN":"9鄰","STREET":"長榮路","SECT":"四段","MAREA":" ","LANE":" ","ALLEY":" ","HOUSE_NO":"５６號十七樓之３","E_COORD97":170321.89999999999,"N_COORD97":2544950.5800000001,"ADDRESS":"長榮路四段５６號十七樓之３","OBJECTID":559906},"geometry":{"x":170321.9000000013,"y":2544950.5800000019}},{"attributes":{"ID":559934,"DIS_CODE":0,"TOWNNAME":"北區","LI":"仁愛里","LIN":"9鄰","STREET":"長榮路","SECT":"四段","MAREA":" ","LANE":" ","ALLEY":" ","HOUSE_NO":"５６號十七樓之５","E_COORD97":170321.89999999999,"N_COORD97":2544950.5800000001,"ADDRESS":"長榮路四段５６號十七樓之５","OBJECTID":559907},"geometry":{"x":170321.9000000013,"y":2544950.5800000019}},{"attributes":{"ID":559935,"DIS_CODE":0,"TOWNNAME":"北區","LI":"仁愛里","LIN":"9鄰","STREET":"長榮路","SECT":"四段","MAREA":" ","LANE":" ","ALLEY":" ","HOUSE_NO":"５６號十七樓之６","E_COORD97":170321.89999999999,"N_COORD97":2544950.5800000001,"ADDRESS":"長榮路四段５６號十七樓之６","OBJECTID":559908},"geometry":{"x":170321.9000000013,"y":2544950.5800000019}},{"attributes":{"ID":559936,"DIS_CODE":0,"TOWNNAME":"北區","LI":"仁愛里","LIN":"9鄰","STREET":"長榮路","SECT":"四段","MAREA":" ","LANE":" ","ALLEY":" ","HOUSE_NO":"５６號十七樓之７","E_COORD97":170321.89999999999,"N_COORD97":2544950.5800000001,"ADDRESS":"長榮路四段５６號十七樓之７","OBJECTID":559909},"geometry":{"x":170321.9000000013,"y":2544950.5800000019}},{"attributes":{"ID":559937,"DIS_CODE":0,"TOWNNAME":"北區","LI":"仁愛里","LIN":"9鄰","STREET":"長榮路","SECT":"四段","MAREA":" ","LANE":" ","ALLEY":" ","HOUSE_NO":"５６號十八樓之１","E_COORD97":170321.89999999999,"N_COORD97":2544950.5800000001,"ADDRESS":"長榮路四段５６號十八樓之１","OBJECTID":559910},"geometry":{"x":170321.9000000013,"y":2544950.5800000019}},{"attributes":{"ID":559938,"DIS_CODE":0,"TOWNNAME":"北區","LI":"仁愛里","LIN":"9鄰","STREET":"長榮路","SECT":"四段","MAREA":" ","LANE":" ","ALLEY":" ","HOUSE_NO":"５６號十八樓之２","E_COORD97":170321.89999999999,"N_COORD97":2544950.5800000001,"ADDRESS":"長榮路四段５６號十八樓之２","OBJECTID":559911},"geometry":{"x":170321.9000000013,"y":2544950.5800000019}},{"attributes":{"ID":559939,"DIS_CODE":0,"TOWNNAME":"北區","LI":"仁愛里","LIN":"9鄰","STREET":"長榮路","SECT":"四段","MAREA":" ","LANE":" ","ALLEY":" ","HOUSE_NO":"５６號十八樓之３","E_COORD97":170321.89999999999,"N_COORD97":2544950.5800000001,"ADDRESS":"長榮路四段５６號十八樓之３","OBJECTID":559912},"geometry":{"x":170321.9000000013,"y":2544950.5800000019}},{"attributes":{"ID":559940,"DIS_CODE":0,"TOWNNAME":"北區","LI":"仁愛里","LIN":"9鄰","STREET":"長榮路","SECT":"四段","MAREA":" ","LANE":" ","ALLEY":" ","HOUSE_NO":"５６號十八樓之５","E_COORD97":170321.89999999999,"N_COORD97":2544950.5800000001,"ADDRESS":"長榮路四段５６號十八樓之５","OBJECTID":559913},"geometry":{"x":170321.9000000013,"y":2544950.5800000019}},{"attributes":{"ID":559941,"DIS_CODE":0,"TOWNNAME":"北區","LI":"仁愛里","LIN":"9鄰","STREET":"長榮路","SECT":"四段","MAREA":" ","LANE":" ","ALLEY":" ","HOUSE_NO":"５６號十八樓之６","E_COORD97":170321.89999999999,"N_COORD97":2544950.5800000001,"ADDRESS":"長榮路四段５６號十八樓之６","OBJECTID":559914},"geometry":{"x":170321.9000000013,"y":2544950.5800000019}},{"attributes":{"ID":559942,"DIS_CODE":0,"TOWNNAME":"北區","LI":"仁愛里","LIN":"9鄰","STREET":"長榮路","SECT":"四段","MAREA":" ","LANE":" ","ALLEY":" ","HOUSE_NO":"５６號十八樓之７","E_COORD97":170321.89999999999,"N_COORD97":2544950.5800000001,"ADDRESS":"長榮路四段５６號十八樓之７","OBJECTID":559915},"geometry":{"x":170321.9000000013,"y":2544950.5800000019}},{"attributes":{"ID":559943,"DIS_CODE":0,"TOWNNAME":"北區","LI":"仁愛里","LIN":"9鄰","STREET":"長榮路","SECT":"四段","MAREA":" ","LANE":" ","ALLEY":" ","HOUSE_NO":"５６號十九樓之１","E_COORD97":170321.89999999999,"N_COORD97":2544950.5800000001,"ADDRESS":"長榮路四段５６號十九樓之１","OBJECTID":559916},"geometry":{"x":170321.9000000013,"y":2544950.5800000019}},{"attributes":{"ID":559944,"DIS_CODE":0,"TOWNNAME":"北區","LI":"仁愛里","LIN":"9鄰","STREET":"長榮路","SECT":"四段","MAREA":" ","LANE":" ","ALLEY":" ","HOUSE_NO":"５６號十九樓之２","E_COORD97":170321.89999999999,"N_COORD97":2544950.5800000001,"ADDRESS":"長榮路四段５６號十九樓之２","OBJECTID":559917},"geometry":{"x":170321.9000000013,"y":2544950.5800000019}},{"attributes":{"ID":559945,"DIS_CODE":0,"TOWNNAME":"北區","LI":"仁愛里","LIN":"9鄰","STREET":"長榮路","SECT":"四段","MAREA":" ","LANE":" ","ALLEY":" ","HOUSE_NO":"５６號十九樓之３","E_COORD97":170321.89999999999,"N_COORD97":2544950.5800000001,"ADDRESS":"長榮路四段５６號十九樓之３","OBJECTID":559918},"geometry":{"x":170321.9000000013,"y":2544950.5800000019}},{"attributes":{"ID":559946,"DIS_CODE":0,"TOWNNAME":"北區","LI":"仁愛里","LIN":"9鄰","STREET":"長榮路","SECT":"四段","MAREA":" ","LANE":" ","ALLEY":" ","HOUSE_NO":"５６號十九樓之５","E_COORD97":170321.89999999999,"N_COORD97":2544950.5800000001,"ADDRESS":"長榮路四段５６號十九樓之５","OBJECTID":559919},"geometry":{"x":170321.9000000013,"y":2544950.5800000019}},{"attributes":{"ID":559947,"DIS_CODE":0,"TOWNNAME":"北區","LI":"仁愛里","LIN":"9鄰","STREET":"長榮路","SECT":"四段","MAREA":" ","LANE":" ","ALLEY":" ","HOUSE_NO":"５６號九樓之３","E_COORD97":170321.89999999999,"N_COORD97":2544950.5800000001,"ADDRESS":"長榮路四段５６號九樓之３","OBJECTID":559920},"geometry":{"x":170321.9000000013,"y":2544950.5800000019}},{"attributes":{"ID":559948,"DIS_CODE":0,"TOWNNAME":"北區","LI":"仁愛里","LIN":"9鄰","STREET":"長榮路","SECT":"四段","MAREA":" ","LANE":" ","ALLEY":" ","HOUSE_NO":"５６號九樓之５","E_COORD97":170321.89999999999,"N_COORD97":2544950.5800000001,"ADDRESS":"長榮路四段５６號九樓之５","OBJECTID":559921},"geometry":{"x":170321.9000000013,"y":2544950.5800000019}},{"attributes":{"ID":559949,"DIS_CODE":0,"TOWNNAME":"北區","LI":"仁愛里","LIN":"9鄰","STREET":"長榮路","SECT":"四段","MAREA":" ","LANE":" ","ALLEY":" ","HOUSE_NO":"５６號九樓之６","E_COORD97":170321.89999999999,"N_COORD97":2544950.5800000001,"ADDRESS":"長榮路四段５６號九樓之６","OBJECTID":559922},"geometry":{"x":170321.9000000013,"y":2544950.5800000019}},{"attributes":{"ID":559950,"DIS_CODE":0,"TOWNNAME":"善化區","LI":"光文里","LIN":"9鄰","STREET":"四維路","SECT":" ","MAREA":" ","LANE":" ","ALLEY":" ","HOUSE_NO":"９０號","E_COORD97":178785.26000000001,"N_COORD97":2559032.2200000002,"ADDRESS":"四維路９０號","OBJECTID":559923},"geometry":{"x":178785.25999999978,"y":2559032.2200000007}},{"attributes":{"ID":559951,"DIS_CODE":0,"TOWNNAME":"北區","LI":"仁愛里","LIN":"9鄰","STREET":"長榮路","SECT":"四段","MAREA":" ","LANE":" ","ALLEY":" ","HOUSE_NO":"５６號九樓之７","E_COORD97":170321.89999999999,"N_COORD97":2544950.5800000001,"ADDRESS":"長榮路四段５６號九樓之７","OBJECTID":559924},"geometry":{"x":170321.9000000013,"y":2544950.5800000019}},{"attributes":{"ID":559952,"DIS_CODE":0,"TOWNNAME":"北區","LI":"仁愛里","LIN":"9鄰","STREET":"長榮路","SECT":"四段","MAREA":" ","LANE":" ","ALLEY":" ","HOUSE_NO":"５６號十樓之１","E_COORD97":170321.89999999999,"N_COORD97":2544950.5800000001,"ADDRESS":"長榮路四段５６號十樓之１","OBJECTID":559925},"geometry":{"x":170321.9000000013,"y":2544950.5800000019}},{"attributes":{"ID":559953,"DIS_CODE":0,"TOWNNAME":"中西區","LI":"郡西里","LIN":"3鄰","STREET":"郡西路","SECT":" ","MAREA":" ","LANE":" ","ALLEY":" ","HOUSE_NO":"９號","E_COORD97":167350.25,"N_COORD97":2543207.4500000002,"ADDRESS":"郡西路９號","OBJECTID":559926},"geometry":{"x":167350.25,"y":2543207.4500000011}},{"attributes":{"ID":559954,"DIS_CODE":0,"TOWNNAME":"北區","LI":"仁愛里","LIN":"9鄰","STREET":"長榮路","SECT":"四段","MAREA":" ","LANE":" ","ALLEY":" ","HOUSE_NO":"５６號十樓之２","E_COORD97":170321.89999999999,"N_COORD97":2544950.5800000001,"ADDRESS":"長榮路四段５６號十樓之２","OBJECTID":559927},"geometry":{"x":170321.9000000013,"y":2544950.5800000019}},{"attributes":{"ID":559955,"DIS_CODE":0,"TOWNNAME":"北區","LI":"仁愛里","LIN":"9鄰","STREET":"長榮路","SECT":"四段","MAREA":" ","LANE":" ","ALLEY":" ","HOUSE_NO":"５６號十樓之３","E_COORD97":170321.89999999999,"N_COORD97":2544950.5800000001,"ADDRESS":"長榮路四段５６號十樓之３","OBJECTID":559928},"geometry":{"x":170321.9000000013,"y":2544950.5800000019}},{"attributes":{"ID":559956,"DIS_CODE":0,"TOWNNAME":"北區","LI":"仁愛里","LIN":"9鄰","STREET":"長榮路","SECT":"四段","MAREA":" ","LANE":" ","ALLEY":" ","HOUSE_NO":"５６號十樓之５","E_COORD97":170321.89999999999,"N_COORD97":2544950.5800000001,"ADDRESS":"長榮路四段５６號十樓之５","OBJECTID":559929},"geometry":{"x":170321.9000000013,"y":2544950.5800000019}},{"attributes":{"ID":559957,"DIS_CODE":0,"TOWNNAME":"北區","LI":"仁愛里","LIN":"9鄰","STREET":"長榮路","SECT":"四段","MAREA":" ","LANE":" ","ALLEY":" ","HOUSE_NO":"５６號十樓之６","E_COORD97":170321.89999999999,"N_COORD97":2544950.5800000001,"ADDRESS":"長榮路四段５６號十樓之６","OBJECTID":559930},"geometry":{"x":170321.9000000013,"y":2544950.5800000019}},{"attributes":{"ID":559958,"DIS_CODE":0,"TOWNNAME":"北區","LI":"仁愛里","LIN":"9鄰","STREET":"長榮路","SECT":"四段","MAREA":" ","LANE":" ","ALLEY":" ","HOUSE_NO":"５６號十樓之７","E_COORD97":170321.89999999999,"N_COORD97":2544950.5800000001,"ADDRESS":"長榮路四段５６號十樓之７","OBJECTID":559931},"geometry":{"x":170321.9000000013,"y":2544950.5800000019}},{"attributes":{"ID":559959,"DIS_CODE":0,"TOWNNAME":"北區","LI":"仁愛里","LIN":"9鄰","STREET":"長榮路","SECT":"四段","MAREA":" ","LANE":" ","ALLEY":" ","HOUSE_NO":"５６號十一樓之１","E_COORD97":170321.89999999999,"N_COORD97":2544950.5800000001,"ADDRESS":"長榮路四段５６號十一樓之１","OBJECTID":559932},"geometry":{"x":170321.9000000013,"y":2544950.5800000019}},{"attributes":{"ID":559960,"DIS_CODE":0,"TOWNNAME":"北區","LI":"仁愛里","LIN":"9鄰","STREET":"長榮路","SECT":"四段","MAREA":" ","LANE":" ","ALLEY":" ","HOUSE_NO":"５６號十一樓之２","E_COORD97":170321.89999999999,"N_COORD97":2544950.5800000001,"ADDRESS":"長榮路四段５６號十一樓之２","OBJECTID":559933},"geometry":{"x":170321.9000000013,"y":2544950.5800000019}},{"attributes":{"ID":559961,"DIS_CODE":0,"TOWNNAME":"北區","LI":"仁愛里","LIN":"9鄰","STREET":"長榮路","SECT":"四段","MAREA":" ","LANE":" ","ALLEY":" ","HOUSE_NO":"５６號十一樓之３","E_COORD97":170321.89999999999,"N_COORD97":2544950.5800000001,"ADDRESS":"長榮路四段５６號十一樓之３","OBJECTID":559934},"geometry":{"x":170321.9000000013,"y":2544950.5800000019}},{"attributes":{"ID":559962,"DIS_CODE":0,"TOWNNAME":"北區","LI":"仁愛里","LIN":"9鄰","STREET":"長榮路","SECT":"四段","MAREA":" ","LANE":" ","ALLEY":" ","HOUSE_NO":"５６號十一樓之５","E_COORD97":170321.89999999999,"N_COORD97":2544950.5800000001,"ADDRESS":"長榮路四段５６號十一樓之５","OBJECTID":559935},"geometry":{"x":170321.9000000013,"y":2544950.5800000019}},{"attributes":{"ID":559963,"DIS_CODE":0,"TOWNNAME":"北區","LI":"仁愛里","LIN":"9鄰","STREET":"長榮路","SECT":"四段","MAREA":" ","LANE":" ","ALLEY":" ","HOUSE_NO":"５６號十一樓之６","E_COORD97":170321.89999999999,"N_COORD97":2544950.5800000001,"ADDRESS":"長榮路四段５６號十一樓之６","OBJECTID":559936},"geometry":{"x":170321.9000000013,"y":2544950.5800000019}},{"attributes":{"ID":559964,"DIS_CODE":0,"TOWNNAME":"北區","LI":"仁愛里","LIN":"9鄰","STREET":"長榮路","SECT":"四段","MAREA":" ","LANE":" ","ALLEY":" ","HOUSE_NO":"５６號十一樓之７","E_COORD97":170321.89999999999,"N_COORD97":2544950.5800000001,"ADDRESS":"長榮路四段５６號十一樓之７","OBJECTID":559937},"geometry":{"x":170321.9000000013,"y":2544950.5800000019}},{"attributes":{"ID":559965,"DIS_CODE":0,"TOWNNAME":"北區","LI":"仁愛里","LIN":"9鄰","STREET":"長榮路","SECT":"四段","MAREA":" ","LANE":" ","ALLEY":" ","HOUSE_NO":"５６號十二樓之１","E_COORD97":170321.89999999999,"N_COORD97":2544950.5800000001,"ADDRESS":"長榮路四段５６號十二樓之１","OBJECTID":559938},"geometry":{"x":170321.9000000013,"y":2544950.5800000019}},{"attributes":{"ID":559966,"DIS_CODE":0,"TOWNNAME":"北區","LI":"仁愛里","LIN":"9鄰","STREET":"長榮路","SECT":"四段","MAREA":" ","LANE":" ","ALLEY":" ","HOUSE_NO":"５６號十二樓之２","E_COORD97":170321.89999999999,"N_COORD97":2544950.5800000001,"ADDRESS":"長榮路四段５６號十二樓之２","OBJECTID":559939},"geometry":{"x":170321.9000000013,"y":2544950.5800000019}},{"attributes":{"ID":559967,"DIS_CODE":0,"TOWNNAME":"北區","LI":"仁愛里","LIN":"9鄰","STREET":"長榮路","SECT":"四段","MAREA":" ","LANE":" ","ALLEY":" ","HOUSE_NO":"５６號十二樓之３","E_COORD97":170321.89999999999,"N_COORD97":2544950.5800000001,"ADDRESS":"長榮路四段５６號十二樓之３","OBJECTID":559940},"geometry":{"x":170321.9000000013,"y":2544950.5800000019}},{"attributes":{"ID":559968,"DIS_CODE":0,"TOWNNAME":"北區","LI":"仁愛里","LIN":"9鄰","STREET":"長榮路","SECT":"四段","MAREA":" ","LANE":" ","ALLEY":" ","HOUSE_NO":"５６號十二樓之５","E_COORD97":170321.89999999999,"N_COORD97":2544950.5800000001,"ADDRESS":"長榮路四段５６號十二樓之５","OBJECTID":559941},"geometry":{"x":170321.9000000013,"y":2544950.5800000019}},{"attributes":{"ID":559969,"DIS_CODE":0,"TOWNNAME":"北區","LI":"仁愛里","LIN":"9鄰","STREET":"長榮路","SECT":"四段","MAREA":" ","LANE":" ","ALLEY":" ","HOUSE_NO":"５６號十二樓之６","E_COORD97":170321.89999999999,"N_COORD97":2544950.5800000001,"ADDRESS":"長榮路四段５６號十二樓之６","OBJECTID":559942},"geometry":{"x":170321.9000000013,"y":2544950.5800000019}},{"attributes":{"ID":559970,"DIS_CODE":0,"TOWNNAME":"北區","LI":"仁愛里","LIN":"9鄰","STREET":"長榮路","SECT":"四段","MAREA":" ","LANE":" ","ALLEY":" ","HOUSE_NO":"５６號十二樓之７","E_COORD97":170321.89999999999,"N_COORD97":2544950.5800000001,"ADDRESS":"長榮路四段５６號十二樓之７","OBJECTID":559943},"geometry":{"x":170321.9000000013,"y":2544950.5800000019}},{"attributes":{"ID":559971,"DIS_CODE":0,"TOWNNAME":"北區","LI":"仁愛里","LIN":"9鄰","STREET":"長榮路","SECT":"四段","MAREA":" ","LANE":" ","ALLEY":" ","HOUSE_NO":"５６號十三樓之１","E_COORD97":170321.89999999999,"N_COORD97":2544950.5800000001,"ADDRESS":"長榮路四段５６號十三樓之１","OBJECTID":559944},"geometry":{"x":170321.9000000013,"y":2544950.5800000019}},{"attributes":{"ID":559972,"DIS_CODE":0,"TOWNNAME":"北區","LI":"仁愛里","LIN":"9鄰","STREET":"長榮路","SECT":"四段","MAREA":" ","LANE":" ","ALLEY":" ","HOUSE_NO":"５６號十三樓之２","E_COORD97":170321.89999999999,"N_COORD97":2544950.5800000001,"ADDRESS":"長榮路四段５６號十三樓之２","OBJECTID":559945},"geometry":{"x":170321.9000000013,"y":2544950.5800000019}},{"attributes":{"ID":559973,"DIS_CODE":0,"TOWNNAME":"北區","LI":"仁愛里","LIN":"9鄰","STREET":"長榮路","SECT":"四段","MAREA":" ","LANE":" ","ALLEY":" ","HOUSE_NO":"５６號十三樓之３","E_COORD97":170321.89999999999,"N_COORD97":2544950.5800000001,"ADDRESS":"長榮路四段５６號十三樓之３","OBJECTID":559946},"geometry":{"x":170321.9000000013,"y":2544950.5800000019}},{"attributes":{"ID":559974,"DIS_CODE":0,"TOWNNAME":"北區","LI":"仁愛里","LIN":"9鄰","STREET":"長榮路","SECT":"四段","MAREA":" ","LANE":" ","ALLEY":" ","HOUSE_NO":"５６號十三樓之５","E_COORD97":170321.89999999999,"N_COORD97":2544950.5800000001,"ADDRESS":"長榮路四段５６號十三樓之５","OBJECTID":559947},"geometry":{"x":170321.9000000013,"y":2544950.5800000019}},{"attributes":{"ID":559975,"DIS_CODE":0,"TOWNNAME":"北區","LI":"仁愛里","LIN":"9鄰","STREET":"長榮路","SECT":"四段","MAREA":" ","LANE":" ","ALLEY":" ","HOUSE_NO":"５６號十三樓之６","E_COORD97":170321.89999999999,"N_COORD97":2544950.5800000001,"ADDRESS":"長榮路四段５６號十三樓之６","OBJECTID":559948},"geometry":{"x":170321.9000000013,"y":2544950.5800000019}},{"attributes":{"ID":559976,"DIS_CODE":0,"TOWNNAME":"北區","LI":"仁愛里","LIN":"9鄰","STREET":"長榮路","SECT":"四段","MAREA":" ","LANE":" ","ALLEY":" ","HOUSE_NO":"５６號十三樓之７","E_COORD97":170321.89999999999,"N_COORD97":2544950.5800000001,"ADDRESS":"長榮路四段５６號十三樓之７","OBJECTID":559949},"geometry":{"x":170321.9000000013,"y":2544950.5800000019}},{"attributes":{"ID":559977,"DIS_CODE":0,"TOWNNAME":"北區","LI":"仁愛里","LIN":"9鄰","STREET":"長榮路","SECT":"四段","MAREA":" ","LANE":" ","ALLEY":" ","HOUSE_NO":"５６號十四樓之１","E_COORD97":170321.89999999999,"N_COORD97":2544950.5800000001,"ADDRESS":"長榮路四段５６號十四樓之１","OBJECTID":559950},"geometry":{"x":170321.9000000013,"y":2544950.5800000019}},{"attributes":{"ID":559978,"DIS_CODE":0,"TOWNNAME":"北區","LI":"仁愛里","LIN":"9鄰","STREET":"長榮路","SECT":"四段","MAREA":" ","LANE":" ","ALLEY":" ","HOUSE_NO":"５６號十四樓之２","E_COORD97":170321.89999999999,"N_COORD97":2544950.5800000001,"ADDRESS":"長榮路四段５６號十四樓之２","OBJECTID":559951},"geometry":{"x":170321.9000000013,"y":2544950.5800000019}},{"attributes":{"ID":559979,"DIS_CODE":0,"TOWNNAME":"北區","LI":"仁愛里","LIN":"9鄰","STREET":"長榮路","SECT":"四段","MAREA":" ","LANE":" ","ALLEY":" ","HOUSE_NO":"５６號十四樓之３","E_COORD97":170321.89999999999,"N_COORD97":2544950.5800000001,"ADDRESS":"長榮路四段５６號十四樓之３","OBJECTID":559952},"geometry":{"x":170321.9000000013,"y":2544950.5800000019}},{"attributes":{"ID":559980,"DIS_CODE":0,"TOWNNAME":"北區","LI":"仁愛里","LIN":"9鄰","STREET":"長榮路","SECT":"四段","MAREA":" ","LANE":" ","ALLEY":" ","HOUSE_NO":"５６號十四樓之５","E_COORD97":170321.89999999999,"N_COORD97":2544950.5800000001,"ADDRESS":"長榮路四段５６號十四樓之５","OBJECTID":559953},"geometry":{"x":170321.9000000013,"y":2544950.5800000019}},{"attributes":{"ID":559981,"DIS_CODE":0,"TOWNNAME":"北區","LI":"仁愛里","LIN":"9鄰","STREET":"長榮路","SECT":"四段","MAREA":" ","LANE":" ","ALLEY":" ","HOUSE_NO":"５６號十四樓之６","E_COORD97":170321.89999999999,"N_COORD97":2544950.5800000001,"ADDRESS":"長榮路四段５６號十四樓之６","OBJECTID":559954},"geometry":{"x":170321.9000000013,"y":2544950.5800000019}},{"attributes":{"ID":559982,"DIS_CODE":0,"TOWNNAME":"北區","LI":"仁愛里","LIN":"9鄰","STREET":"長榮路","SECT":"四段","MAREA":" ","LANE":" ","ALLEY":" ","HOUSE_NO":"５６號十四樓之７","E_COORD97":170321.89999999999,"N_COORD97":2544950.5800000001,"ADDRESS":"長榮路四段５６號十四樓之７","OBJECTID":559955},"geometry":{"x":170321.9000000013,"y":2544950.5800000019}},{"attributes":{"ID":559983,"DIS_CODE":0,"TOWNNAME":"北區","LI":"仁愛里","LIN":"9鄰","STREET":"長榮路","SECT":"四段","MAREA":" ","LANE":" ","ALLEY":" ","HOUSE_NO":"５６號二樓之１","E_COORD97":170321.89999999999,"N_COORD97":2544950.5800000001,"ADDRESS":"長榮路四段５６號二樓之１","OBJECTID":559956},"geometry":{"x":170321.9000000013,"y":2544950.5800000019}},{"attributes":{"ID":559984,"DIS_CODE":0,"TOWNNAME":"北區","LI":"仁愛里","LIN":"9鄰","STREET":"長榮路","SECT":"四段","MAREA":" ","LANE":" ","ALLEY":" ","HOUSE_NO":"５６號二樓之２","E_COORD97":170321.89999999999,"N_COORD97":2544950.5800000001,"ADDRESS":"長榮路四段５６號二樓之２","OBJECTID":559957},"geometry":{"x":170321.9000000013,"y":2544950.5800000019}},{"attributes":{"ID":559985,"DIS_CODE":0,"TOWNNAME":"北區","LI":"仁愛里","LIN":"9鄰","STREET":"長榮路","SECT":"四段","MAREA":" ","LANE":" ","ALLEY":" ","HOUSE_NO":"５６號二樓之３","E_COORD97":170321.89999999999,"N_COORD97":2544950.5800000001,"ADDRESS":"長榮路四段５６號二樓之３","OBJECTID":559958},"geometry":{"x":170321.9000000013,"y":2544950.5800000019}},{"attributes":{"ID":559986,"DIS_CODE":0,"TOWNNAME":"北區","LI":"仁愛里","LIN":"9鄰","STREET":"長榮路","SECT":"四段","MAREA":" ","LANE":" ","ALLEY":" ","HOUSE_NO":"５６號二樓之５","E_COORD97":170321.89999999999,"N_COORD97":2544950.5800000001,"ADDRESS":"長榮路四段５６號二樓之５","OBJECTID":559959},"geometry":{"x":170321.9000000013,"y":2544950.5800000019}},{"attributes":{"ID":559987,"DIS_CODE":0,"TOWNNAME":"北區","LI":"仁愛里","LIN":"9鄰","STREET":"長榮路","SECT":"四段","MAREA":" ","LANE":" ","ALLEY":" ","HOUSE_NO":"５６號二樓之６","E_COORD97":170321.89999999999,"N_COORD97":2544950.5800000001,"ADDRESS":"長榮路四段５６號二樓之６","OBJECTID":559960},"geometry":{"x":170321.9000000013,"y":2544950.5800000019}},{"attributes":{"ID":559988,"DIS_CODE":0,"TOWNNAME":"北區","LI":"仁愛里","LIN":"9鄰","STREET":"長榮路","SECT":"四段","MAREA":" ","LANE":" ","ALLEY":" ","HOUSE_NO":"５６號二樓之７","E_COORD97":170321.89999999999,"N_COORD97":2544950.5800000001,"ADDRESS":"長榮路四段５６號二樓之７","OBJECTID":559961},"geometry":{"x":170321.9000000013,"y":2544950.5800000019}},{"attributes":{"ID":559989,"DIS_CODE":0,"TOWNNAME":"北區","LI":"仁愛里","LIN":"9鄰","STREET":"長榮路","SECT":"四段","MAREA":" ","LANE":" ","ALLEY":" ","HOUSE_NO":"５６號三樓之１","E_COORD97":170321.89999999999,"N_COORD97":2544950.5800000001,"ADDRESS":"長榮路四段５６號三樓之１","OBJECTID":559962},"geometry":{"x":170321.9000000013,"y":2544950.5800000019}},{"attributes":{"ID":559990,"DIS_CODE":0,"TOWNNAME":"北區","LI":"仁愛里","LIN":"9鄰","STREET":"長榮路","SECT":"四段","MAREA":" ","LANE":" ","ALLEY":" ","HOUSE_NO":"５６號三樓之２","E_COORD97":170321.89999999999,"N_COORD97":2544950.5800000001,"ADDRESS":"長榮路四段５６號三樓之２","OBJECTID":559963},"geometry":{"x":170321.9000000013,"y":2544950.5800000019}},{"attributes":{"ID":559991,"DIS_CODE":0,"TOWNNAME":"北區","LI":"仁愛里","LIN":"9鄰","STREET":"長榮路","SECT":"四段","MAREA":" ","LANE":" ","ALLEY":" ","HOUSE_NO":"５６號三樓之３","E_COORD97":170321.89999999999,"N_COORD97":2544950.5800000001,"ADDRESS":"長榮路四段５６號三樓之３","OBJECTID":559964},"geometry":{"x":170321.9000000013,"y":2544950.5800000019}},{"attributes":{"ID":559992,"DIS_CODE":0,"TOWNNAME":"北區","LI":"仁愛里","LIN":"9鄰","STREET":"長榮路","SECT":"四段","MAREA":" ","LANE":" ","ALLEY":" ","HOUSE_NO":"５６號三樓之５","E_COORD97":170321.89999999999,"N_COORD97":2544950.5800000001,"ADDRESS":"長榮路四段５６號三樓之５","OBJECTID":559965},"geometry":{"x":170321.9000000013,"y":2544950.5800000019}},{"attributes":{"ID":559993,"DIS_CODE":0,"TOWNNAME":"北區","LI":"仁愛里","LIN":"9鄰","STREET":"長榮路","SECT":"四段","MAREA":" ","LANE":" ","ALLEY":" ","HOUSE_NO":"５６號三樓之６","E_COORD97":170321.89999999999,"N_COORD97":2544950.5800000001,"ADDRESS":"長榮路四段５６號三樓之６","OBJECTID":559966},"geometry":{"x":170321.9000000013,"y":2544950.5800000019}},{"attributes":{"ID":559994,"DIS_CODE":0,"TOWNNAME":"北區","LI":"仁愛里","LIN":"9鄰","STREET":"長榮路","SECT":"四段","MAREA":" ","LANE":" ","ALLEY":" ","HOUSE_NO":"５６號三樓之７","E_COORD97":170321.89999999999,"N_COORD97":2544950.5800000001,"ADDRESS":"長榮路四段５６號三樓之７","OBJECTID":559967},"geometry":{"x":170321.9000000013,"y":2544950.5800000019}},{"attributes":{"ID":559995,"DIS_CODE":0,"TOWNNAME":"北區","LI":"仁愛里","LIN":"9鄰","STREET":"長榮路","SECT":"四段","MAREA":" ","LANE":" ","ALLEY":" ","HOUSE_NO":"５６號四樓之１","E_COORD97":170321.89999999999,"N_COORD97":2544950.5800000001,"ADDRESS":"長榮路四段５６號四樓之１","OBJECTID":559968},"geometry":{"x":170321.9000000013,"y":2544950.5800000019}},{"attributes":{"ID":559996,"DIS_CODE":0,"TOWNNAME":"北區","LI":"仁愛里","LIN":"9鄰","STREET":"長榮路","SECT":"四段","MAREA":" ","LANE":" ","ALLEY":" ","HOUSE_NO":"５６號四樓之２","E_COORD97":170321.89999999999,"N_COORD97":2544950.5800000001,"ADDRESS":"長榮路四段５６號四樓之２","OBJECTID":559969},"geometry":{"x":170321.9000000013,"y":2544950.5800000019}},{"attributes":{"ID":559997,"DIS_CODE":0,"TOWNNAME":"北區","LI":"仁愛里","LIN":"9鄰","STREET":"長榮路","SECT":"四段","MAREA":" ","LANE":" ","ALLEY":" ","HOUSE_NO":"５６號四樓之３","E_COORD97":170321.89999999999,"N_COORD97":2544950.5800000001,"ADDRESS":"長榮路四段５６號四樓之３","OBJECTID":559970},"geometry":{"x":170321.9000000013,"y":2544950.5800000019}},{"attributes":{"ID":559998,"DIS_CODE":0,"TOWNNAME":"北區","LI":"仁愛里","LIN":"9鄰","STREET":"長榮路","SECT":"四段","MAREA":" ","LANE":" ","ALLEY":" ","HOUSE_NO":"５６號四樓之５","E_COORD97":170321.89999999999,"N_COORD97":2544950.5800000001,"ADDRESS":"長榮路四段５６號四樓之５","OBJECTID":559971},"geometry":{"x":170321.9000000013,"y":2544950.5800000019}},{"attributes":{"ID":559999,"DIS_CODE":0,"TOWNNAME":"北區","LI":"仁愛里","LIN":"9鄰","STREET":"長榮路","SECT":"四段","MAREA":" ","LANE":" ","ALLEY":" ","HOUSE_NO":"５６號四樓之６","E_COORD97":170321.89999999999,"N_COORD97":2544950.5800000001,"ADDRESS":"長榮路四段５６號四樓之６","OBJECTID":559972},"geometry":{"x":170321.9000000013,"y":2544950.5800000019}},{"attributes":{"ID":560000,"DIS_CODE":0,"TOWNNAME":"北區","LI":"仁愛里","LIN":"9鄰","STREET":"長榮路","SECT":"四段","MAREA":" ","LANE":" ","ALLEY":" ","HOUSE_NO":"５６號四樓之７","E_COORD97":170321.89999999999,"N_COORD97":2544950.5800000001,"ADDRESS":"長榮路四段５６號四樓之７","OBJECTID":559973},"geometry":{"x":170321.9000000013,"y":2544950.5800000019}},{"attributes":{"ID":560001,"DIS_CODE":0,"TOWNNAME":"北區","LI":"仁愛里","LIN":"9鄰","STREET":"長榮路","SECT":"四段","MAREA":" ","LANE":" ","ALLEY":" ","HOUSE_NO":"５６號五樓之１","E_COORD97":170321.89999999999,"N_COORD97":2544950.5800000001,"ADDRESS":"長榮路四段５６號五樓之１","OBJECTID":559974},"geometry":{"x":170321.9000000013,"y":2544950.5800000019}},{"attributes":{"ID":560002,"DIS_CODE":0,"TOWNNAME":"北區","LI":"仁愛里","LIN":"9鄰","STREET":"長榮路","SECT":"四段","MAREA":" ","LANE":" ","ALLEY":" ","HOUSE_NO":"５６號五樓之２","E_COORD97":170321.89999999999,"N_COORD97":2544950.5800000001,"ADDRESS":"長榮路四段５６號五樓之２","OBJECTID":559975},"geometry":{"x":170321.9000000013,"y":2544950.5800000019}},{"attributes":{"ID":560003,"DIS_CODE":0,"TOWNNAME":"北區","LI":"仁愛里","LIN":"9鄰","STREET":"長榮路","SECT":"四段","MAREA":" ","LANE":" ","ALLEY":" ","HOUSE_NO":"５６號五樓之３","E_COORD97":170321.89999999999,"N_COORD97":2544950.5800000001,"ADDRESS":"長榮路四段５６號五樓之３","OBJECTID":559976},"geometry":{"x":170321.9000000013,"y":2544950.5800000019}},{"attributes":{"ID":560004,"DIS_CODE":0,"TOWNNAME":"北區","LI":"仁愛里","LIN":"9鄰","STREET":"長榮路","SECT":"四段","MAREA":" ","LANE":" ","ALLEY":" ","HOUSE_NO":"５６號五樓之５","E_COORD97":170321.89999999999,"N_COORD97":2544950.5800000001,"ADDRESS":"長榮路四段５６號五樓之５","OBJECTID":559977},"geometry":{"x":170321.9000000013,"y":2544950.5800000019}},{"attributes":{"ID":560005,"DIS_CODE":0,"TOWNNAME":"北區","LI":"仁愛里","LIN":"9鄰","STREET":"長榮路","SECT":"四段","MAREA":" ","LANE":" ","ALLEY":" ","HOUSE_NO":"５６號五樓之６","E_COORD97":170321.89999999999,"N_COORD97":2544950.5800000001,"ADDRESS":"長榮路四段５６號五樓之６","OBJECTID":559978},"geometry":{"x":170321.9000000013,"y":2544950.5800000019}},{"attributes":{"ID":560006,"DIS_CODE":0,"TOWNNAME":"北區","LI":"仁愛里","LIN":"9鄰","STREET":"長榮路","SECT":"四段","MAREA":" ","LANE":" ","ALLEY":" ","HOUSE_NO":"５６號五樓之７","E_COORD97":170321.89999999999,"N_COORD97":2544950.5800000001,"ADDRESS":"長榮路四段５６號五樓之７","OBJECTID":559979},"geometry":{"x":170321.9000000013,"y":2544950.5800000019}},{"attributes":{"ID":560007,"DIS_CODE":0,"TOWNNAME":"北區","LI":"仁愛里","LIN":"9鄰","STREET":"長榮路","SECT":"四段","MAREA":" ","LANE":" ","ALLEY":" ","HOUSE_NO":"５６號六樓之１","E_COORD97":170321.89999999999,"N_COORD97":2544950.5800000001,"ADDRESS":"長榮路四段５６號六樓之１","OBJECTID":559980},"geometry":{"x":170321.9000000013,"y":2544950.5800000019}},{"attributes":{"ID":560008,"DIS_CODE":0,"TOWNNAME":"北區","LI":"仁愛里","LIN":"9鄰","STREET":"長榮路","SECT":"四段","MAREA":" ","LANE":" ","ALLEY":" ","HOUSE_NO":"５６號六樓之２","E_COORD97":170321.89999999999,"N_COORD97":2544950.5800000001,"ADDRESS":"長榮路四段５６號六樓之２","OBJECTID":559981},"geometry":{"x":170321.9000000013,"y":2544950.5800000019}},{"attributes":{"ID":560009,"DIS_CODE":0,"TOWNNAME":"北區","LI":"仁愛里","LIN":"9鄰","STREET":"長榮路","SECT":"四段","MAREA":" ","LANE":" ","ALLEY":" ","HOUSE_NO":"５６號六樓之３","E_COORD97":170321.89999999999,"N_COORD97":2544950.5800000001,"ADDRESS":"長榮路四段５６號六樓之３","OBJECTID":559982},"geometry":{"x":170321.9000000013,"y":2544950.5800000019}},{"attributes":{"ID":560010,"DIS_CODE":0,"TOWNNAME":"北區","LI":"仁愛里","LIN":"9鄰","STREET":"長榮路","SECT":"四段","MAREA":" ","LANE":" ","ALLEY":" ","HOUSE_NO":"５６號六樓之５","E_COORD97":170321.89999999999,"N_COORD97":2544950.5800000001,"ADDRESS":"長榮路四段５６號六樓之５","OBJECTID":559983},"geometry":{"x":170321.9000000013,"y":2544950.5800000019}},{"attributes":{"ID":560011,"DIS_CODE":0,"TOWNNAME":"北區","LI":"仁愛里","LIN":"9鄰","STREET":"長榮路","SECT":"四段","MAREA":" ","LANE":" ","ALLEY":" ","HOUSE_NO":"５６號六樓之６","E_COORD97":170321.89999999999,"N_COORD97":2544950.5800000001,"ADDRESS":"長榮路四段５６號六樓之６","OBJECTID":559984},"geometry":{"x":170321.9000000013,"y":2544950.5800000019}},{"attributes":{"ID":560012,"DIS_CODE":0,"TOWNNAME":"北區","LI":"仁愛里","LIN":"9鄰","STREET":"長榮路","SECT":"四段","MAREA":" ","LANE":" ","ALLEY":" ","HOUSE_NO":"５６號六樓之７","E_COORD97":170321.89999999999,"N_COORD97":2544950.5800000001,"ADDRESS":"長榮路四段５６號六樓之７","OBJECTID":559985},"geometry":{"x":170321.9000000013,"y":2544950.5800000019}},{"attributes":{"ID":560013,"DIS_CODE":0,"TOWNNAME":"北區","LI":"仁愛里","LIN":"9鄰","STREET":"長榮路","SECT":"四段","MAREA":" ","LANE":" ","ALLEY":" ","HOUSE_NO":"５６號七樓之１","E_COORD97":170321.89999999999,"N_COORD97":2544950.5800000001,"ADDRESS":"長榮路四段５６號七樓之１","OBJECTID":559986},"geometry":{"x":170321.9000000013,"y":2544950.5800000019}},{"attributes":{"ID":560014,"DIS_CODE":0,"TOWNNAME":"北區","LI":"仁愛里","LIN":"9鄰","STREET":"長榮路","SECT":"四段","MAREA":" ","LANE":" ","ALLEY":" ","HOUSE_NO":"５６號七樓之２","E_COORD97":170321.89999999999,"N_COORD97":2544950.5800000001,"ADDRESS":"長榮路四段５６號七樓之２","OBJECTID":559987},"geometry":{"x":170321.9000000013,"y":2544950.5800000019}},{"attributes":{"ID":560015,"DIS_CODE":0,"TOWNNAME":"北區","LI":"仁愛里","LIN":"9鄰","STREET":"長榮路","SECT":"四段","MAREA":" ","LANE":" ","ALLEY":" ","HOUSE_NO":"５６號七樓之３","E_COORD97":170321.89999999999,"N_COORD97":2544950.5800000001,"ADDRESS":"長榮路四段５６號七樓之３","OBJECTID":559988},"geometry":{"x":170321.9000000013,"y":2544950.5800000019}},{"attributes":{"ID":560016,"DIS_CODE":0,"TOWNNAME":"北區","LI":"仁愛里","LIN":"9鄰","STREET":"長榮路","SECT":"四段","MAREA":" ","LANE":" ","ALLEY":" ","HOUSE_NO":"５６號七樓之５","E_COORD97":170321.89999999999,"N_COORD97":2544950.5800000001,"ADDRESS":"長榮路四段５６號七樓之５","OBJECTID":559989},"geometry":{"x":170321.9000000013,"y":2544950.5800000019}},{"attributes":{"ID":560017,"DIS_CODE":0,"TOWNNAME":"北區","LI":"仁愛里","LIN":"9鄰","STREET":"長榮路","SECT":"四段","MAREA":" ","LANE":" ","ALLEY":" ","HOUSE_NO":"５６號七樓之６","E_COORD97":170321.89999999999,"N_COORD97":2544950.5800000001,"ADDRESS":"長榮路四段５６號七樓之６","OBJECTID":559990},"geometry":{"x":170321.9000000013,"y":2544950.5800000019}},{"attributes":{"ID":560018,"DIS_CODE":0,"TOWNNAME":"北區","LI":"仁愛里","LIN":"9鄰","STREET":"長榮路","SECT":"四段","MAREA":" ","LANE":" ","ALLEY":" ","HOUSE_NO":"５６號七樓之７","E_COORD97":170321.89999999999,"N_COORD97":2544950.5800000001,"ADDRESS":"長榮路四段５６號七樓之７","OBJECTID":559991},"geometry":{"x":170321.9000000013,"y":2544950.5800000019}},{"attributes":{"ID":560019,"DIS_CODE":0,"TOWNNAME":"北區","LI":"仁愛里","LIN":"9鄰","STREET":"長榮路","SECT":"四段","MAREA":" ","LANE":" ","ALLEY":" ","HOUSE_NO":"５６號八樓之１","E_COORD97":170321.89999999999,"N_COORD97":2544950.5800000001,"ADDRESS":"長榮路四段５６號八樓之１","OBJECTID":559992},"geometry":{"x":170321.9000000013,"y":2544950.5800000019}},{"attributes":{"ID":560020,"DIS_CODE":0,"TOWNNAME":"北區","LI":"仁愛里","LIN":"9鄰","STREET":"長榮路","SECT":"四段","MAREA":" ","LANE":" ","ALLEY":" ","HOUSE_NO":"５６號八樓之２","E_COORD97":170321.89999999999,"N_COORD97":2544950.5800000001,"ADDRESS":"長榮路四段５６號八樓之２","OBJECTID":559993},"geometry":{"x":170321.9000000013,"y":2544950.5800000019}},{"attributes":{"ID":560021,"DIS_CODE":0,"TOWNNAME":"北區","LI":"仁愛里","LIN":"9鄰","STREET":"長榮路","SECT":"四段","MAREA":" ","LANE":" ","ALLEY":" ","HOUSE_NO":"５６號八樓之３","E_COORD97":170321.89999999999,"N_COORD97":2544950.5800000001,"ADDRESS":"長榮路四段５６號八樓之３","OBJECTID":559994},"geometry":{"x":170321.9000000013,"y":2544950.5800000019}},{"attributes":{"ID":560022,"DIS_CODE":0,"TOWNNAME":"北區","LI":"仁愛里","LIN":"9鄰","STREET":"長榮路","SECT":"四段","MAREA":" ","LANE":" ","ALLEY":" ","HOUSE_NO":"５６號八樓之５","E_COORD97":170321.89999999999,"N_COORD97":2544950.5800000001,"ADDRESS":"長榮路四段５６號八樓之５","OBJECTID":559995},"geometry":{"x":170321.9000000013,"y":2544950.5800000019}},{"attributes":{"ID":560023,"DIS_CODE":0,"TOWNNAME":"北區","LI":"仁愛里","LIN":"9鄰","STREET":"長榮路","SECT":"四段","MAREA":" ","LANE":" ","ALLEY":" ","HOUSE_NO":"５６號八樓之６","E_COORD97":170321.89999999999,"N_COORD97":2544950.5800000001,"ADDRESS":"長榮路四段５６號八樓之６","OBJECTID":559996},"geometry":{"x":170321.9000000013,"y":2544950.5800000019}},{"attributes":{"ID":560024,"DIS_CODE":0,"TOWNNAME":"北區","LI":"仁愛里","LIN":"9鄰","STREET":"長榮路","SECT":"四段","MAREA":" ","LANE":" ","ALLEY":" ","HOUSE_NO":"５６號八樓之７","E_COORD97":170321.89999999999,"N_COORD97":2544950.5800000001,"ADDRESS":"長榮路四段５６號八樓之７","OBJECTID":559997},"geometry":{"x":170321.9000000013,"y":2544950.5800000019}},{"attributes":{"ID":560025,"DIS_CODE":0,"TOWNNAME":"北區","LI":"仁愛里","LIN":"9鄰","STREET":"長榮路","SECT":"四段","MAREA":" ","LANE":" ","ALLEY":" ","HOUSE_NO":"５６號九樓之１","E_COORD97":170321.89999999999,"N_COORD97":2544950.5800000001,"ADDRESS":"長榮路四段５６號九樓之１","OBJECTID":559998},"geometry":{"x":170321.9000000013,"y":2544950.5800000019}},{"attributes":{"ID":560026,"DIS_CODE":0,"TOWNNAME":"北區","LI":"仁愛里","LIN":"9鄰","STREET":"長榮路","SECT":"四段","MAREA":" ","LANE":" ","ALLEY":" ","HOUSE_NO":"５６號九樓之２","E_COORD97":170321.89999999999,"N_COORD97":2544950.5800000001,"ADDRESS":"長榮路四段５６號九樓之２","OBJECTID":559999},"geometry":{"x":170321.9000000013,"y":2544950.5800000019}},{"attributes":{"ID":560027,"DIS_CODE":0,"TOWNNAME":"新營區","LI":"永生里","LIN":"9鄰","STREET":"康樂街","SECT":" ","MAREA":" ","LANE":" ","ALLEY":" ","HOUSE_NO":"１之７號七樓","E_COORD97":180073.12,"N_COORD97":2577919.04,"ADDRESS":"康樂街１之７號七樓","OBJECTID":560000},"geometry":{"x":180073.12000000011,"y":2577919.0399999991}}]}