{"displayFieldName":"TOWNNAME","fieldAliases":{"ID":"ID","DIS_CODE":"DIS_CODE","TOWNNAME":"TOWNNAME","LI":"LI","LIN":"LIN","STREET":"STREET","SECT":"SECT","MAREA":"MAREA","LANE":"LANE","ALLEY":"ALLEY","HOUSE_NO":"HOUSE_NO","E_COORD97":"E_COORD97","N_COORD97":"N_COORD97","ADDRESS":"ADDRESS","OBJECTID":"OBJECTID"},"geometryType":"esriGeometryPoint","spatialReference":{"wkid":102443,"latestWkid":3826},"fields":[{"name":"ID","type":"esriFieldTypeDouble","alias":"ID"},{"name":"DIS_CODE","type":"esriFieldTypeInteger","alias":"DIS_CODE"},{"name":"TOWNNAME","type":"esriFieldTypeString","alias":"TOWNNAME","length":8},{"name":"LI","type":"esriFieldTypeString","alias":"LI","length":8},{"name":"LIN","type":"esriFieldTypeString","alias":"LIN","length":12},{"name":"STREET","type":"esriFieldTypeString","alias":"STREET","length":20},{"name":"SECT","type":"esriFieldTypeString","alias":"SECT","length":8},{"name":"MAREA","type":"esriFieldTypeString","alias":"MAREA","length":12},{"name":"LANE","type":"esriFieldTypeString","alias":"LANE","length":10},{"name":"ALLEY","type":"esriFieldTypeString","alias":"ALLEY","length":10},{"name":"HOUSE_NO","type":"esriFieldTypeString","alias":"HOUSE_NO","length":20},{"name":"E_COORD97","type":"esriFieldTypeDouble","alias":"E_COORD97"},{"name":"N_COORD97","type":"esriFieldTypeDouble","alias":"N_COORD97"},{"name":"ADDRESS","type":"esriFieldTypeString","alias":"ADDRESS","length":50},{"name":"OBJECTID","type":"esriFieldTypeOID","alias":"OBJECTID"}],"features":[{"attributes":{"ID":160602,"DIS_CODE":0,"TOWNNAME":"官田區","LI":"西庄里","LIN":"5鄰","STREET":" ","SECT":" ","MAREA":"西庄","LANE":" ","ALLEY":" ","HOUSE_NO":"３３號之５","E_COORD97":177639.09,"N_COORD97":2565133.7999999998,"ADDRESS":"西庄３３號之５","OBJECTID":160601},"geometry":{"x":177639.08999999985,"y":2565133.8000000007}},{"attributes":{"ID":160603,"DIS_CODE":0,"TOWNNAME":"永康區","LI":"尚頂里","LIN":"24鄰","STREET":"中正南路","SECT":" ","MAREA":" ","LANE":"２１０巷","ALLEY":"３２弄","HOUSE_NO":"９號","E_COORD97":170213.73000000001,"N_COORD97":2547104.7400000002,"ADDRESS":"中正南路２１０巷３２弄９號","OBJECTID":160602},"geometry":{"x":170213.73000000045,"y":2547104.7400000039}},{"attributes":{"ID":160604,"DIS_CODE":0,"TOWNNAME":"佳里區","LI":"子龍里","LIN":"12鄰","STREET":" ","SECT":" ","MAREA":"子良廟","LANE":" ","ALLEY":" ","HOUSE_NO":"１３３號","E_COORD97":168922.51999999999,"N_COORD97":2563643.79,"ADDRESS":"子良廟１３３號","OBJECTID":160603},"geometry":{"x":168922.51999999955,"y":2563643.7899999991}},{"attributes":{"ID":160605,"DIS_CODE":0,"TOWNNAME":"永康區","LI":"尚頂里","LIN":"32鄰","STREET":"中正南路","SECT":" ","MAREA":" ","LANE":"２３５巷","ALLEY":"６弄","HOUSE_NO":"６號","E_COORD97":170095.06,"N_COORD97":2547438.3500000001,"ADDRESS":"中正南路２３５巷６弄６號","OBJECTID":160604},"geometry":{"x":170095.05999999959,"y":2547438.3499999996}},{"attributes":{"ID":160606,"DIS_CODE":0,"TOWNNAME":"新化區","LI":"知義里","LIN":"12鄰","STREET":" ","SECT":" ","MAREA":"口埤","LANE":" ","ALLEY":" ","HOUSE_NO":"１１號之２","E_COORD97":182629.64999999999,"N_COORD97":2547213.2599999998,"ADDRESS":"口埤１１號之２","OBJECTID":160605},"geometry":{"x":182629.65000000037,"y":2547213.2600000016}},{"attributes":{"ID":160607,"DIS_CODE":0,"TOWNNAME":"永康區","LI":"永康里","LIN":"12鄰","STREET":"永中街","SECT":" ","MAREA":" ","LANE":" ","ALLEY":" ","HOUSE_NO":"１０號","E_COORD97":173863.79999999999,"N_COORD97":2547044.9700000002,"ADDRESS":"永中街１０號","OBJECTID":160606},"geometry":{"x":173863.79999999981,"y":2547044.9700000007}},{"attributes":{"ID":160608,"DIS_CODE":0,"TOWNNAME":"新化區","LI":"知義里","LIN":"12鄰","STREET":" ","SECT":" ","MAREA":"口埤","LANE":" ","ALLEY":" ","HOUSE_NO":"８８號","E_COORD97":183248.60000000001,"N_COORD97":2547236.25,"ADDRESS":"口埤８８號","OBJECTID":160607},"geometry":{"x":183248.60000000149,"y":2547236.25}},{"attributes":{"ID":160609,"DIS_CODE":0,"TOWNNAME":"永康區","LI":"尚頂里","LIN":"15鄰","STREET":"中正南路","SECT":" ","MAREA":" ","LANE":"２４２巷","ALLEY":"４弄","HOUSE_NO":"９１號","E_COORD97":170583.97,"N_COORD97":2547404.5899999999,"ADDRESS":"中正南路２４２巷４弄９１號","OBJECTID":160608},"geometry":{"x":170583.96999999974,"y":2547404.5900000017}},{"attributes":{"ID":160610,"DIS_CODE":0,"TOWNNAME":"永康區","LI":"尚頂里","LIN":"25鄰","STREET":"中正南路","SECT":" ","MAREA":" ","LANE":"２１０巷","ALLEY":"１２弄","HOUSE_NO":"２號","E_COORD97":170157.13,"N_COORD97":2547112.9900000002,"ADDRESS":"中正南路２１０巷１２弄２號","OBJECTID":160609},"geometry":{"x":170157.13000000082,"y":2547112.9899999984}},{"attributes":{"ID":160611,"DIS_CODE":0,"TOWNNAME":"新化區","LI":"豐榮里","LIN":"12鄰","STREET":"正新路","SECT":" ","MAREA":" ","LANE":" ","ALLEY":" ","HOUSE_NO":"８３號","E_COORD97":178588.47,"N_COORD97":2548037.25,"ADDRESS":"正新路８３號","OBJECTID":160610},"geometry":{"x":178588.47000000067,"y":2548037.2500000019}},{"attributes":{"ID":160612,"DIS_CODE":0,"TOWNNAME":"新化區","LI":"豐榮里","LIN":"12鄰","STREET":"正新路","SECT":" ","MAREA":" ","LANE":" ","ALLEY":" ","HOUSE_NO":"１５２號","E_COORD97":178573.22,"N_COORD97":2548212.25,"ADDRESS":"正新路１５２號","OBJECTID":160611},"geometry":{"x":178573.22000000067,"y":2548212.25}},{"attributes":{"ID":160613,"DIS_CODE":0,"TOWNNAME":"新化區","LI":"豐榮里","LIN":"12鄰","STREET":"正新路","SECT":" ","MAREA":" ","LANE":" ","ALLEY":" ","HOUSE_NO":"１４６號","E_COORD97":178575.42000000001,"N_COORD97":2548196.25,"ADDRESS":"正新路１４６號","OBJECTID":160612},"geometry":{"x":178575.42000000086,"y":2548196.2500000037}},{"attributes":{"ID":160614,"DIS_CODE":0,"TOWNNAME":"新化區","LI":"豐榮里","LIN":"12鄰","STREET":"正新路","SECT":" ","MAREA":" ","LANE":" ","ALLEY":" ","HOUSE_NO":"１００號","E_COORD97":178597.22,"N_COORD97":2548095.25,"ADDRESS":"正新路１００號","OBJECTID":160613},"geometry":{"x":178597.21999999974,"y":2548095.2500000019}},{"attributes":{"ID":160615,"DIS_CODE":0,"TOWNNAME":"永康區","LI":"西灣里","LIN":"32鄰","STREET":"公園路","SECT":" ","MAREA":" ","LANE":"９３巷","ALLEY":"１２弄","HOUSE_NO":"７號","E_COORD97":174239.73000000001,"N_COORD97":2545859.5499999998,"ADDRESS":"公園路９３巷１２弄７號","OBJECTID":160614},"geometry":{"x":174239.73000000045,"y":2545859.5500000026}},{"attributes":{"ID":160616,"DIS_CODE":0,"TOWNNAME":"安南區","LI":"新順里","LIN":"12鄰","STREET":"安和路","SECT":"三段","MAREA":" ","LANE":" ","ALLEY":" ","HOUSE_NO":"１２０號","E_COORD97":169872.37,"N_COORD97":2549636.27,"ADDRESS":"安和路三段１２０號","OBJECTID":160615},"geometry":{"x":169872.37000000104,"y":2549636.2699999977}},{"attributes":{"ID":160617,"DIS_CODE":0,"TOWNNAME":"永康區","LI":"西灣里","LIN":"46鄰","STREET":"永華路","SECT":" ","MAREA":" ","LANE":"２０１巷","ALLEY":"３２弄","HOUSE_NO":"８８號","E_COORD97":173934.82999999999,"N_COORD97":2545731.9300000002,"ADDRESS":"永華路２０１巷３２弄８８號","OBJECTID":160616},"geometry":{"x":173934.83000000101,"y":2545731.9299999997}},{"attributes":{"ID":160618,"DIS_CODE":0,"TOWNNAME":"中西區","LI":"藥王里","LIN":" ","STREET":"臨安路","SECT":"一段","MAREA":" ","LANE":" ","ALLEY":" ","HOUSE_NO":"９５號","E_COORD97":167044.73000000001,"N_COORD97":2544451.4199999999,"ADDRESS":"臨安路一段９５號","OBJECTID":160617},"geometry":{"x":167044.73000000138,"y":2544451.4199999999}},{"attributes":{"ID":160619,"DIS_CODE":0,"TOWNNAME":"永康區","LI":"尚頂里","LIN":"19鄰","STREET":"南台街","SECT":" ","MAREA":" ","LANE":"３巷","ALLEY":"１４弄","HOUSE_NO":"３０號","E_COORD97":170463.98999999999,"N_COORD97":2546890.4900000002,"ADDRESS":"南台街３巷１４弄３０號","OBJECTID":160618},"geometry":{"x":170463.99000000022,"y":2546890.4900000021}},{"attributes":{"ID":160620,"DIS_CODE":0,"TOWNNAME":"永康區","LI":"尚頂里","LIN":"25鄰","STREET":"中正南路","SECT":" ","MAREA":" ","LANE":"２１０巷","ALLEY":"１２弄","HOUSE_NO":"６號","E_COORD97":170161.81,"N_COORD97":2547104.4900000002,"ADDRESS":"中正南路２１０巷１２弄６號","OBJECTID":160619},"geometry":{"x":170161.80999999866,"y":2547104.4900000021}},{"attributes":{"ID":160621,"DIS_CODE":0,"TOWNNAME":"永康區","LI":"西灣里","LIN":"53鄰","STREET":"文化路","SECT":" ","MAREA":" ","LANE":"２３５巷","ALLEY":"３弄","HOUSE_NO":"８號","E_COORD97":173679.82000000001,"N_COORD97":2546101.8700000001,"ADDRESS":"文化路２３５巷３弄８號","OBJECTID":160620},"geometry":{"x":173679.8200000003,"y":2546101.8700000029}},{"attributes":{"ID":160622,"DIS_CODE":0,"TOWNNAME":"永康區","LI":"東橋里","LIN":"8鄰","STREET":"中山南路","SECT":" ","MAREA":" ","LANE":"１９５巷","ALLEY":"２４弄","HOUSE_NO":"２９號","E_COORD97":171569.47,"N_COORD97":2546368.0800000001,"ADDRESS":"中山南路１９５巷２４弄２９號","OBJECTID":160621},"geometry":{"x":171569.46999999974,"y":2546368.0800000019}},{"attributes":{"ID":160623,"DIS_CODE":0,"TOWNNAME":"永康區","LI":"建國里","LIN":"32鄰","STREET":"復興路","SECT":" ","MAREA":" ","LANE":"１巷","ALLEY":"３０弄","HOUSE_NO":"７６號","E_COORD97":173020.72,"N_COORD97":2543914.6699999999,"ADDRESS":"復興路１巷３０弄７６號","OBJECTID":160622},"geometry":{"x":173020.7200000016,"y":2543914.6700000037}},{"attributes":{"ID":160624,"DIS_CODE":0,"TOWNNAME":"永康區","LI":"西灣里","LIN":"53鄰","STREET":"文化路","SECT":" ","MAREA":" ","LANE":"２３５巷","ALLEY":"３弄","HOUSE_NO":"１５號","E_COORD97":173697.22,"N_COORD97":2546122.54,"ADDRESS":"文化路２３５巷３弄１５號","OBJECTID":160623},"geometry":{"x":173697.2200000016,"y":2546122.540000001}},{"attributes":{"ID":160625,"DIS_CODE":0,"TOWNNAME":"永康區","LI":"建國里","LIN":"8鄰","STREET":"復國一路","SECT":" ","MAREA":" ","LANE":"６巷","ALLEY":"６６弄","HOUSE_NO":"２號","E_COORD97":172805.12,"N_COORD97":2544690.2799999998,"ADDRESS":"復國一路６巷６６弄２號","OBJECTID":160624},"geometry":{"x":172805.12000000104,"y":2544690.2800000012}},{"attributes":{"ID":160626,"DIS_CODE":0,"TOWNNAME":"永康區","LI":"尚頂里","LIN":"18鄰","STREET":"南台街","SECT":" ","MAREA":" ","LANE":"５４巷","ALLEY":"１８弄","HOUSE_NO":"１７號","E_COORD97":170377.60000000001,"N_COORD97":2547125.9900000002,"ADDRESS":"南台街５４巷１８弄１７號","OBJECTID":160625},"geometry":{"x":170377.60000000056,"y":2547125.9900000002}},{"attributes":{"ID":160627,"DIS_CODE":0,"TOWNNAME":"永康區","LI":"尚頂里","LIN":"15鄰","STREET":"中正南路","SECT":" ","MAREA":" ","LANE":"２４２巷","ALLEY":"４弄","HOUSE_NO":"２６號","E_COORD97":170542.84,"N_COORD97":2547338.1400000001,"ADDRESS":"中正南路２４２巷４弄２６號","OBJECTID":160626},"geometry":{"x":170542.83999999985,"y":2547338.1400000006}},{"attributes":{"ID":160628,"DIS_CODE":0,"TOWNNAME":"永康區","LI":"東橋里","LIN":"11鄰","STREET":"中山南路","SECT":" ","MAREA":" ","LANE":"２３１巷","ALLEY":"９弄","HOUSE_NO":"１６號","E_COORD97":171588.04000000001,"N_COORD97":2546217,"ADDRESS":"中山南路２３１巷９弄１６號","OBJECTID":160627},"geometry":{"x":171588.04000000004,"y":2546217}},{"attributes":{"ID":160629,"DIS_CODE":0,"TOWNNAME":"永康區","LI":"尚頂里","LIN":"18鄰","STREET":"南台街","SECT":" ","MAREA":" ","LANE":"５４巷","ALLEY":"１６弄","HOUSE_NO":"２號","E_COORD97":170367.26000000001,"N_COORD97":2547088.7400000002,"ADDRESS":"南台街５４巷１６弄２號","OBJECTID":160628},"geometry":{"x":170367.25999999978,"y":2547088.7400000021}},{"attributes":{"ID":160630,"DIS_CODE":0,"TOWNNAME":"永康區","LI":"尚頂里","LIN":"9鄰","STREET":"正南一街","SECT":" ","MAREA":" ","LANE":"１２９巷","ALLEY":"４６弄","HOUSE_NO":"１２號","E_COORD97":170679.01000000001,"N_COORD97":2547178.29,"ADDRESS":"正南一街１２９巷４６弄１２號","OBJECTID":160629},"geometry":{"x":170679.00999999978,"y":2547178.290000001}},{"attributes":{"ID":160631,"DIS_CODE":0,"TOWNNAME":"永康區","LI":"西灣里","LIN":"50鄰","STREET":"大灣路","SECT":" ","MAREA":" ","LANE":"９４２巷","ALLEY":"５００弄","HOUSE_NO":"２２號","E_COORD97":173958.85999999999,"N_COORD97":2545833.4100000001,"ADDRESS":"大灣路９４２巷５００弄２２號","OBJECTID":160630},"geometry":{"x":173958.86000000034,"y":2545833.410000002}},{"attributes":{"ID":160632,"DIS_CODE":0,"TOWNNAME":"中西區","LI":"郡王里","LIN":"4鄰","STREET":"開山路","SECT":" ","MAREA":" ","LANE":" ","ALLEY":" ","HOUSE_NO":"１７２號","E_COORD97":168916.42000000001,"N_COORD97":2543039.6699999999,"ADDRESS":"開山路１７２號","OBJECTID":160631},"geometry":{"x":168916.42000000086,"y":2543039.6700000037}},{"attributes":{"ID":160633,"DIS_CODE":0,"TOWNNAME":"永康區","LI":"尚頂里","LIN":"17鄰","STREET":"中正南路","SECT":" ","MAREA":" ","LANE":"２２０巷","ALLEY":"３０弄","HOUSE_NO":"３８號","E_COORD97":170222.92999999999,"N_COORD97":2547192.3900000001,"ADDRESS":"中正南路２２０巷３０弄３８號","OBJECTID":160632},"geometry":{"x":170222.93000000063,"y":2547192.3900000043}},{"attributes":{"ID":160634,"DIS_CODE":0,"TOWNNAME":"新化區","LI":"豐榮里","LIN":"12鄰","STREET":"正新路","SECT":" ","MAREA":" ","LANE":"９５巷","ALLEY":" ","HOUSE_NO":"７號","E_COORD97":178561.67000000001,"N_COORD97":2548042.25,"ADDRESS":"正新路９５巷７號","OBJECTID":160633},"geometry":{"x":178561.67000000086,"y":2548042.25}},{"attributes":{"ID":160635,"DIS_CODE":0,"TOWNNAME":"中西區","LI":"藥王里","LIN":" ","STREET":"臨安路","SECT":"一段","MAREA":" ","LANE":" ","ALLEY":" ","HOUSE_NO":"１１３號","E_COORD97":167075.48999999999,"N_COORD97":2544481.6800000002,"ADDRESS":"臨安路一段１１３號","OBJECTID":160634},"geometry":{"x":167075.49000000022,"y":2544481.6800000016}},{"attributes":{"ID":160636,"DIS_CODE":0,"TOWNNAME":"官田區","LI":"西庄里","LIN":"5鄰","STREET":" ","SECT":" ","MAREA":"西庄","LANE":" ","ALLEY":" ","HOUSE_NO":"３３號之６","E_COORD97":177589.98999999999,"N_COORD97":2565163.5,"ADDRESS":"西庄３３號之６","OBJECTID":160635},"geometry":{"x":177589.99000000115,"y":2565163.5000000037}},{"attributes":{"ID":160637,"DIS_CODE":0,"TOWNNAME":"官田區","LI":"西庄里","LIN":"5鄰","STREET":" ","SECT":" ","MAREA":"西庄","LANE":" ","ALLEY":" ","HOUSE_NO":"３３號之７","E_COORD97":177578.42999999999,"N_COORD97":2565241.96,"ADDRESS":"西庄３３號之７","OBJECTID":160636},"geometry":{"x":177578.43000000063,"y":2565241.9600000009}},{"attributes":{"ID":160638,"DIS_CODE":0,"TOWNNAME":"官田區","LI":"西庄里","LIN":"5鄰","STREET":" ","SECT":" ","MAREA":"西庄","LANE":" ","ALLEY":" ","HOUSE_NO":"３３號之８","E_COORD97":177583.95000000001,"N_COORD97":2565212.3700000001,"ADDRESS":"西庄３３號之８","OBJECTID":160637},"geometry":{"x":177583.95000000112,"y":2565212.370000001}},{"attributes":{"ID":160639,"DIS_CODE":0,"TOWNNAME":"官田區","LI":"西庄里","LIN":"5鄰","STREET":" ","SECT":" ","MAREA":"西庄","LANE":" ","ALLEY":" ","HOUSE_NO":"３３號之９","E_COORD97":177548.25,"N_COORD97":2565208.1899999999,"ADDRESS":"西庄３３號之９","OBJECTID":160638},"geometry":{"x":177548.25,"y":2565208.1899999995}},{"attributes":{"ID":160640,"DIS_CODE":0,"TOWNNAME":"永康區","LI":"尚頂里","LIN":"29鄰","STREET":"南台街","SECT":" ","MAREA":" ","LANE":"１３５巷","ALLEY":"１弄","HOUSE_NO":"１４號","E_COORD97":170140.66,"N_COORD97":2546992.6299999999,"ADDRESS":"南台街１３５巷１弄１４號","OBJECTID":160639},"geometry":{"x":170140.66000000015,"y":2546992.6300000008}},{"attributes":{"ID":160641,"DIS_CODE":0,"TOWNNAME":"佳里區","LI":"忠仁里","LIN":"10鄰","STREET":"興中街","SECT":" ","MAREA":" ","LANE":" ","ALLEY":" ","HOUSE_NO":"３２號","E_COORD97":165942.39999999999,"N_COORD97":2562204.3599999999,"ADDRESS":"興中街３２號","OBJECTID":160640},"geometry":{"x":165942.40000000037,"y":2562204.3600000013}},{"attributes":{"ID":160642,"DIS_CODE":0,"TOWNNAME":"永康區","LI":"尚頂里","LIN":"25鄰","STREET":"中正南路","SECT":" ","MAREA":" ","LANE":"２１０巷","ALLEY":"３２弄","HOUSE_NO":"６號","E_COORD97":170200.28,"N_COORD97":2547111.2400000002,"ADDRESS":"中正南路２１０巷３２弄６號","OBJECTID":160641},"geometry":{"x":170200.28000000119,"y":2547111.2399999984}},{"attributes":{"ID":160643,"DIS_CODE":0,"TOWNNAME":"仁德區","LI":"新田里","LIN":"12鄰","STREET":"北保三街","SECT":" ","MAREA":" ","LANE":" ","ALLEY":" ","HOUSE_NO":"１號","E_COORD97":173142.19,"N_COORD97":2539390,"ADDRESS":"北保三街１號","OBJECTID":160642},"geometry":{"x":173142.19000000227,"y":2539390.0000000019}},{"attributes":{"ID":160644,"DIS_CODE":0,"TOWNNAME":"永康區","LI":"尚頂里","LIN":"19鄰","STREET":"南台街","SECT":" ","MAREA":" ","LANE":"３巷","ALLEY":"１４弄","HOUSE_NO":"９號","E_COORD97":170482.59,"N_COORD97":2546853.5,"ADDRESS":"南台街３巷１４弄９號","OBJECTID":160643},"geometry":{"x":170482.59000000078,"y":2546853.5000000019}},{"attributes":{"ID":160645,"DIS_CODE":0,"TOWNNAME":"南區","LI":"府南里","LIN":"20鄰","STREET":"永成路","SECT":"三段","MAREA":" ","LANE":"４６１巷","ALLEY":"２１弄","HOUSE_NO":"４１號","E_COORD97":167430.24871399999,"N_COORD97":2541483.35757,"ADDRESS":"永成路三段４６１巷２１弄４１號","OBJECTID":160644},"geometry":{"x":167430.24871399999,"y":2541483.3575740028}},{"attributes":{"ID":160646,"DIS_CODE":0,"TOWNNAME":"永康區","LI":"西灣里","LIN":"31鄰","STREET":"公園路","SECT":" ","MAREA":" ","LANE":"９３巷","ALLEY":"１２弄","HOUSE_NO":"６號","E_COORD97":174244.01999999999,"N_COORD97":2545877.77,"ADDRESS":"公園路９３巷１２弄６號","OBJECTID":160645},"geometry":{"x":174244.01999999955,"y":2545877.7700000014}},{"attributes":{"ID":160647,"DIS_CODE":0,"TOWNNAME":"永康區","LI":"尚頂里","LIN":"4鄰","STREET":"正南一街","SECT":" ","MAREA":" ","LANE":"１９０巷","ALLEY":"２７弄","HOUSE_NO":"２２號","E_COORD97":170852.54999999999,"N_COORD97":2547481.5899999999,"ADDRESS":"正南一街１９０巷２７弄２２號","OBJECTID":160646},"geometry":{"x":170852.55000000075,"y":2547481.5900000036}},{"attributes":{"ID":160648,"DIS_CODE":0,"TOWNNAME":"永康區","LI":"西灣里","LIN":"53鄰","STREET":"文化路","SECT":" ","MAREA":" ","LANE":"１９１巷","ALLEY":"７弄","HOUSE_NO":"６號","E_COORD97":173782.67000000001,"N_COORD97":2546132.8300000001,"ADDRESS":"文化路１９１巷７弄６號","OBJECTID":160647},"geometry":{"x":173782.67000000086,"y":2546132.8300000001}},{"attributes":{"ID":160649,"DIS_CODE":0,"TOWNNAME":"永康區","LI":"北灣里","LIN":"36鄰","STREET":"大灣路","SECT":" ","MAREA":" ","LANE":"４０巷","ALLEY":"１３０弄","HOUSE_NO":"１６號","E_COORD97":174951.35000000001,"N_COORD97":2546320.8500000001,"ADDRESS":"大灣路４０巷１３０弄１６號","OBJECTID":160648},"geometry":{"x":174951.35000000056,"y":2546320.8500000015}},{"attributes":{"ID":160650,"DIS_CODE":0,"TOWNNAME":"永康區","LI":"永康里","LIN":"36鄰","STREET":"永平街","SECT":" ","MAREA":" ","LANE":"５６巷","ALLEY":"１弄","HOUSE_NO":"１５號","E_COORD97":174408.51999999999,"N_COORD97":2546846.9300000002,"ADDRESS":"永平街５６巷１弄１５號","OBJECTID":160649},"geometry":{"x":174408.51999999862,"y":2546846.9299999997}},{"attributes":{"ID":160651,"DIS_CODE":0,"TOWNNAME":"永康區","LI":"正強里","LIN":"27鄰","STREET":"中正路","SECT":" ","MAREA":" ","LANE":"１５５巷","ALLEY":"４弄","HOUSE_NO":"３號","E_COORD97":173212.95000000001,"N_COORD97":2547862,"ADDRESS":"中正路１５５巷４弄３號","OBJECTID":160650},"geometry":{"x":173212.95000000205,"y":2547861.9999999981}},{"attributes":{"ID":160652,"DIS_CODE":0,"TOWNNAME":"永康區","LI":"北灣里","LIN":"35鄰","STREET":"大灣路","SECT":" ","MAREA":" ","LANE":"４０巷","ALLEY":"５８弄","HOUSE_NO":"３０號之２","E_COORD97":175127.60000000001,"N_COORD97":2546185.77,"ADDRESS":"大灣路４０巷５８弄３０號之２","OBJECTID":160651},"geometry":{"x":175127.60000000056,"y":2546185.7700000014}},{"attributes":{"ID":160653,"DIS_CODE":0,"TOWNNAME":"永康區","LI":"正強里","LIN":"3鄰","STREET":"中正路","SECT":" ","MAREA":" ","LANE":"１巷","ALLEY":"４２弄","HOUSE_NO":"１號","E_COORD97":173624.84,"N_COORD97":2547607.5899999999,"ADDRESS":"中正路１巷４２弄１號","OBJECTID":160652},"geometry":{"x":173624.83999999985,"y":2547607.5900000017}},{"attributes":{"ID":160654,"DIS_CODE":0,"TOWNNAME":"永康區","LI":"北灣里","LIN":"24鄰","STREET":"大灣路","SECT":" ","MAREA":" ","LANE":"３７巷","ALLEY":"２０弄","HOUSE_NO":"９號","E_COORD97":175415.89000000001,"N_COORD97":2545815.25,"ADDRESS":"大灣路３７巷２０弄９號","OBJECTID":160653},"geometry":{"x":175415.88999999966,"y":2545815.25}},{"attributes":{"ID":160655,"DIS_CODE":0,"TOWNNAME":"永康區","LI":"正強里","LIN":"3鄰","STREET":"中正路","SECT":" ","MAREA":" ","LANE":"１巷","ALLEY":"２０弄","HOUSE_NO":"２１號","E_COORD97":173614.87,"N_COORD97":2547624.4199999999,"ADDRESS":"中正路１巷２０弄２１號","OBJECTID":160654},"geometry":{"x":173614.87000000011,"y":2547624.4199999999}},{"attributes":{"ID":160656,"DIS_CODE":0,"TOWNNAME":"永康區","LI":"正強里","LIN":"13鄰","STREET":"正強街","SECT":" ","MAREA":" ","LANE":"１１１巷","ALLEY":"１６弄","HOUSE_NO":"２號","E_COORD97":173284.39000000001,"N_COORD97":2547420.7400000002,"ADDRESS":"正強街１１１巷１６弄２號","OBJECTID":160655},"geometry":{"x":173284.3900000006,"y":2547420.7400000021}},{"attributes":{"ID":160657,"DIS_CODE":0,"TOWNNAME":"永康區","LI":"北灣里","LIN":"35鄰","STREET":"大灣路","SECT":" ","MAREA":" ","LANE":"４０巷","ALLEY":"５８弄","HOUSE_NO":"５１號之１","E_COORD97":175129.48999999999,"N_COORD97":2546146.6099999999,"ADDRESS":"大灣路４０巷５８弄５１號之１","OBJECTID":160656},"geometry":{"x":175129.49000000022,"y":2546146.6100000013}},{"attributes":{"ID":160658,"DIS_CODE":0,"TOWNNAME":"永康區","LI":"北灣里","LIN":"26鄰","STREET":"文賢街","SECT":" ","MAREA":" ","LANE":"７８巷","ALLEY":"１９弄","HOUSE_NO":"１９號","E_COORD97":175416.70999999999,"N_COORD97":2545360.0699999998,"ADDRESS":"文賢街７８巷１９弄１９號","OBJECTID":160657},"geometry":{"x":175416.71000000089,"y":2545360.070000004}},{"attributes":{"ID":160659,"DIS_CODE":0,"TOWNNAME":"永康區","LI":"北灣里","LIN":"24鄰","STREET":"大灣路","SECT":" ","MAREA":" ","LANE":"３７巷","ALLEY":"３０弄","HOUSE_NO":"６號","E_COORD97":175421.26999999999,"N_COORD97":2545855.1600000001,"ADDRESS":"大灣路３７巷３０弄６號","OBJECTID":160658},"geometry":{"x":175421.27000000048,"y":2545855.160000002}},{"attributes":{"ID":160660,"DIS_CODE":0,"TOWNNAME":"永康區","LI":"北灣里","LIN":"24鄰","STREET":"大灣路","SECT":" ","MAREA":" ","LANE":"３７巷","ALLEY":"３０弄","HOUSE_NO":"２６號","E_COORD97":175429.84,"N_COORD97":2545796.2200000002,"ADDRESS":"大灣路３７巷３０弄２６號","OBJECTID":160659},"geometry":{"x":175429.83999999985,"y":2545796.2200000007}},{"attributes":{"ID":160661,"DIS_CODE":0,"TOWNNAME":"永康區","LI":"北灣里","LIN":"14鄰","STREET":"大灣路","SECT":" ","MAREA":" ","LANE":"４０巷","ALLEY":"７５弄","HOUSE_NO":"１２號","E_COORD97":175094.07000000001,"N_COORD97":2546030.7400000002,"ADDRESS":"大灣路４０巷７５弄１２號","OBJECTID":160660},"geometry":{"x":175094.07000000123,"y":2546030.7400000021}},{"attributes":{"ID":160662,"DIS_CODE":0,"TOWNNAME":"永康區","LI":"北灣里","LIN":"33鄰","STREET":"大灣路","SECT":" ","MAREA":" ","LANE":"３７巷","ALLEY":"６弄","HOUSE_NO":"５號","E_COORD97":175345.85000000001,"N_COORD97":2545846.8599999999,"ADDRESS":"大灣路３７巷６弄５號","OBJECTID":160661},"geometry":{"x":175345.85000000056,"y":2545846.8600000013}},{"attributes":{"ID":160663,"DIS_CODE":0,"TOWNNAME":"永康區","LI":"正強里","LIN":"20鄰","STREET":"中山南路","SECT":" ","MAREA":" ","LANE":"４７１巷","ALLEY":"１５弄","HOUSE_NO":"１０號","E_COORD97":173122.72,"N_COORD97":2547240.25,"ADDRESS":"中山南路４７１巷１５弄１０號","OBJECTID":160662},"geometry":{"x":173122.72000000067,"y":2547240.2500000037}},{"attributes":{"ID":160664,"DIS_CODE":0,"TOWNNAME":"永康區","LI":"北灣里","LIN":"24鄰","STREET":"大灣路","SECT":" ","MAREA":" ","LANE":"３７巷","ALLEY":"３０弄","HOUSE_NO":"２５號","E_COORD97":175442.28,"N_COORD97":2545781.21,"ADDRESS":"大灣路３７巷３０弄２５號","OBJECTID":160663},"geometry":{"x":175442.28000000119,"y":2545781.2100000028}},{"attributes":{"ID":160665,"DIS_CODE":0,"TOWNNAME":"永康區","LI":"北灣里","LIN":"33鄰","STREET":"大灣路","SECT":" ","MAREA":" ","LANE":"３７巷","ALLEY":"６弄","HOUSE_NO":"８號","E_COORD97":175337.29000000001,"N_COORD97":2545838.2400000002,"ADDRESS":"大灣路３７巷６弄８號","OBJECTID":160664},"geometry":{"x":175337.29000000004,"y":2545838.2400000021}},{"attributes":{"ID":160666,"DIS_CODE":0,"TOWNNAME":"永康區","LI":"正強里","LIN":"32鄰","STREET":"四維街","SECT":" ","MAREA":" ","LANE":"２９巷","ALLEY":"３５弄","HOUSE_NO":"２號","E_COORD97":173324.45999999999,"N_COORD97":2547970.25,"ADDRESS":"四維街２９巷３５弄２號","OBJECTID":160665},"geometry":{"x":173324.45999999903,"y":2547970.2500000019}},{"attributes":{"ID":160667,"DIS_CODE":0,"TOWNNAME":"仁德區","LI":"三甲里","LIN":"5鄰","STREET":" ","SECT":" ","MAREA":"三甲子","LANE":" ","ALLEY":" ","HOUSE_NO":"４７號之１５","E_COORD97":171901.54999999999,"N_COORD97":2536669.7999999998,"ADDRESS":"三甲子４７號之１５","OBJECTID":160666},"geometry":{"x":171901.55000000168,"y":2536669.8000000026}},{"attributes":{"ID":160668,"DIS_CODE":0,"TOWNNAME":"永康區","LI":"北灣里","LIN":"35鄰","STREET":"大灣路","SECT":" ","MAREA":" ","LANE":"４０巷","ALLEY":"５８弄","HOUSE_NO":"４５號之２","E_COORD97":175111.41,"N_COORD97":2546152.3900000001,"ADDRESS":"大灣路４０巷５８弄４５號之２","OBJECTID":160667},"geometry":{"x":175111.41000000015,"y":2546152.3900000025}},{"attributes":{"ID":160669,"DIS_CODE":0,"TOWNNAME":"永康區","LI":"北灣里","LIN":"24鄰","STREET":"大灣路","SECT":" ","MAREA":" ","LANE":"３７巷","ALLEY":"８弄","HOUSE_NO":"１１號","E_COORD97":175373.17000000001,"N_COORD97":2545810.25,"ADDRESS":"大灣路３７巷８弄１１號","OBJECTID":160668},"geometry":{"x":175373.17000000086,"y":2545810.2500000019}},{"attributes":{"ID":160670,"DIS_CODE":0,"TOWNNAME":"永康區","LI":"北灣里","LIN":"24鄰","STREET":"大灣路","SECT":" ","MAREA":" ","LANE":"３７巷","ALLEY":"８弄","HOUSE_NO":"１號","E_COORD97":175368.39999999999,"N_COORD97":2545847.4900000002,"ADDRESS":"大灣路３７巷８弄１號","OBJECTID":160669},"geometry":{"x":175368.4000000013,"y":2545847.4900000002}},{"attributes":{"ID":160671,"DIS_CODE":0,"TOWNNAME":"中西區","LI":"藥王里","LIN":" ","STREET":"西和路","SECT":" ","MAREA":" ","LANE":" ","ALLEY":" ","HOUSE_NO":"１４４號","E_COORD97":166986.94,"N_COORD97":2544637.0600000001,"ADDRESS":"西和路１４４號","OBJECTID":160670},"geometry":{"x":166986.94000000227,"y":2544637.0600000005}},{"attributes":{"ID":160672,"DIS_CODE":0,"TOWNNAME":"官田區","LI":"西庄里","LIN":"5鄰","STREET":" ","SECT":" ","MAREA":"西庄","LANE":" ","ALLEY":" ","HOUSE_NO":"３３號","E_COORD97":177751.5,"N_COORD97":2565136.8199999998,"ADDRESS":"西庄３３號","OBJECTID":160671},"geometry":{"x":177751.5,"y":2565136.8200000003}},{"attributes":{"ID":160673,"DIS_CODE":0,"TOWNNAME":"官田區","LI":"西庄里","LIN":"5鄰","STREET":" ","SECT":" ","MAREA":"西庄","LANE":" ","ALLEY":" ","HOUSE_NO":"３４號之１","E_COORD97":177814.81,"N_COORD97":2565162.3399999999,"ADDRESS":"西庄３４號之１","OBJECTID":160672},"geometry":{"x":177814.81000000052,"y":2565162.3400000017}},{"attributes":{"ID":160674,"DIS_CODE":0,"TOWNNAME":"永康區","LI":"北灣里","LIN":"18鄰","STREET":"文賢街","SECT":" ","MAREA":" ","LANE":"４２２巷","ALLEY":"３０弄","HOUSE_NO":"２號","E_COORD97":174692.42000000001,"N_COORD97":2545889.8599999999,"ADDRESS":"文賢街４２２巷３０弄２號","OBJECTID":160673},"geometry":{"x":174692.41999999993,"y":2545889.8600000013}},{"attributes":{"ID":160675,"DIS_CODE":0,"TOWNNAME":"永康區","LI":"北灣里","LIN":"37鄰","STREET":"大同街","SECT":" ","MAREA":" ","LANE":"３６９巷","ALLEY":"５弄","HOUSE_NO":"１３號","E_COORD97":174671.57000000001,"N_COORD97":2546121.75,"ADDRESS":"大同街３６９巷５弄１３號","OBJECTID":160674},"geometry":{"x":174671.5700000003,"y":2546121.7500000019}},{"attributes":{"ID":160676,"DIS_CODE":0,"TOWNNAME":"永康區","LI":"北灣里","LIN":"36鄰","STREET":"大灣路","SECT":" ","MAREA":" ","LANE":"４０巷","ALLEY":"１２０弄","HOUSE_NO":"２２號","E_COORD97":174967.84,"N_COORD97":2546293.2999999998,"ADDRESS":"大灣路４０巷１２０弄２２號","OBJECTID":160675},"geometry":{"x":174967.84000000171,"y":2546293.3000000007}},{"attributes":{"ID":160677,"DIS_CODE":0,"TOWNNAME":"永康區","LI":"北灣里","LIN":"33鄰","STREET":"大灣路","SECT":" ","MAREA":" ","LANE":"３７巷","ALLEY":"６弄","HOUSE_NO":"２３號","E_COORD97":175353.67000000001,"N_COORD97":2545789.6200000001,"ADDRESS":"大灣路３７巷６弄２３號","OBJECTID":160676},"geometry":{"x":175353.66999999993,"y":2545789.620000001}},{"attributes":{"ID":160678,"DIS_CODE":0,"TOWNNAME":"永康區","LI":"正強里","LIN":"23鄰","STREET":"自強路","SECT":" ","MAREA":" ","LANE":"２５５巷","ALLEY":"６弄","HOUSE_NO":"３７號","E_COORD97":173240.07999999999,"N_COORD97":2547660,"ADDRESS":"自強路２５５巷６弄３７號","OBJECTID":160677},"geometry":{"x":173240.08000000007,"y":2547660.0000000019}},{"attributes":{"ID":160679,"DIS_CODE":0,"TOWNNAME":"永康區","LI":"北灣里","LIN":"24鄰","STREET":"大灣路","SECT":" ","MAREA":" ","LANE":"３７巷","ALLEY":"８弄","HOUSE_NO":"１３號","E_COORD97":175375.67000000001,"N_COORD97":2545797.5,"ADDRESS":"大灣路３７巷８弄１３號","OBJECTID":160678},"geometry":{"x":175375.66999999993,"y":2545797.5000000037}},{"attributes":{"ID":160680,"DIS_CODE":0,"TOWNNAME":"永康區","LI":"北灣里","LIN":"37鄰","STREET":"大同街","SECT":" ","MAREA":" ","LANE":"３６９巷","ALLEY":"５弄","HOUSE_NO":"２１號","E_COORD97":174648.73000000001,"N_COORD97":2546096.5,"ADDRESS":"大同街３６９巷５弄２１號","OBJECTID":160679},"geometry":{"x":174648.72999999952,"y":2546096.5000000019}},{"attributes":{"ID":160681,"DIS_CODE":0,"TOWNNAME":"永康區","LI":"北灣里","LIN":"28鄰","STREET":"文賢街","SECT":" ","MAREA":" ","LANE":"７８巷","ALLEY":"１９弄","HOUSE_NO":"１６號","E_COORD97":175447.84,"N_COORD97":2545334.5699999998,"ADDRESS":"文賢街７８巷１９弄１６號","OBJECTID":160680},"geometry":{"x":175447.84000000078,"y":2545334.5700000003}},{"attributes":{"ID":160682,"DIS_CODE":0,"TOWNNAME":"永康區","LI":"北灣里","LIN":"36鄰","STREET":"大灣路","SECT":" ","MAREA":" ","LANE":"４０巷","ALLEY":"１２０弄","HOUSE_NO":"２４號","E_COORD97":174970.59,"N_COORD97":2546296.2999999998,"ADDRESS":"大灣路４０巷１２０弄２４號","OBJECTID":160681},"geometry":{"x":174970.58999999985,"y":2546296.3000000007}},{"attributes":{"ID":160683,"DIS_CODE":0,"TOWNNAME":"永康區","LI":"永康里","LIN":"8鄰","STREET":"中山南路","SECT":" ","MAREA":" ","LANE":"１１１６巷","ALLEY":"４弄","HOUSE_NO":"１２號","E_COORD97":173827.95999999999,"N_COORD97":2547279.5,"ADDRESS":"中山南路１１１６巷４弄１２號","OBJECTID":160682},"geometry":{"x":173827.96000000183,"y":2547279.5000000019}},{"attributes":{"ID":160684,"DIS_CODE":0,"TOWNNAME":"永康區","LI":"正強里","LIN":"29鄰","STREET":"中正路","SECT":" ","MAREA":" ","LANE":"１５５巷","ALLEY":"８弄","HOUSE_NO":"１１號","E_COORD97":173206.53,"N_COORD97":2547780.7000000002,"ADDRESS":"中正路１５５巷８弄１１號","OBJECTID":160683},"geometry":{"x":173206.53000000119,"y":2547780.6999999993}},{"attributes":{"ID":160685,"DIS_CODE":0,"TOWNNAME":"永康區","LI":"正強里","LIN":"20鄰","STREET":"中山南路","SECT":" ","MAREA":" ","LANE":"４７１巷","ALLEY":"２７弄","HOUSE_NO":"２號","E_COORD97":173149.26000000001,"N_COORD97":2547179.6299999999,"ADDRESS":"中山南路４７１巷２７弄２號","OBJECTID":160684},"geometry":{"x":173149.25999999885,"y":2547179.6300000008}},{"attributes":{"ID":160686,"DIS_CODE":0,"TOWNNAME":"永康區","LI":"北灣里","LIN":"26鄰","STREET":"文賢街","SECT":" ","MAREA":" ","LANE":"７８巷","ALLEY":"１９弄","HOUSE_NO":"１５號","E_COORD97":175408.29999999999,"N_COORD97":2545360.3199999998,"ADDRESS":"文賢街７８巷１９弄１５號","OBJECTID":160685},"geometry":{"x":175408.29999999981,"y":2545360.3200000003}},{"attributes":{"ID":160687,"DIS_CODE":0,"TOWNNAME":"永康區","LI":"安康里","LIN":"13鄰","STREET":"中華路","SECT":" ","MAREA":" ","LANE":"６６１巷","ALLEY":"１０５弄","HOUSE_NO":"４號","E_COORD97":170815.39999999999,"N_COORD97":2546087.7400000002,"ADDRESS":"中華路６６１巷１０５弄４號","OBJECTID":160686},"geometry":{"x":170815.4000000013,"y":2546087.7400000039}},{"attributes":{"ID":160688,"DIS_CODE":0,"TOWNNAME":"永康區","LI":"北灣里","LIN":"24鄰","STREET":"大灣路","SECT":" ","MAREA":" ","LANE":"３７巷","ALLEY":"３０弄","HOUSE_NO":"２１號","E_COORD97":175441.39999999999,"N_COORD97":2545791.7200000002,"ADDRESS":"大灣路３７巷３０弄２１號","OBJECTID":160687},"geometry":{"x":175441.4000000013,"y":2545791.7200000007}},{"attributes":{"ID":160689,"DIS_CODE":0,"TOWNNAME":"安南區","LI":"州南里","LIN":"15鄰","STREET":"州南八街","SECT":" ","MAREA":" ","LANE":" ","ALLEY":" ","HOUSE_NO":"２０２號","E_COORD97":169676.60999999999,"N_COORD97":2551029.0899999999,"ADDRESS":"州南八街２０２號","OBJECTID":160688},"geometry":{"x":169676.61000000127,"y":2551029.0900000017}},{"attributes":{"ID":160690,"DIS_CODE":0,"TOWNNAME":"安南區","LI":"總頭里","LIN":"6鄰","STREET":"長溪路","SECT":"二段","MAREA":" ","LANE":"５７０巷","ALLEY":"２３弄","HOUSE_NO":"８號","E_COORD97":168344.10000000001,"N_COORD97":2550668.1200000001,"ADDRESS":"長溪路二段５７０巷２３弄８號","OBJECTID":160689},"geometry":{"x":168344.09999999963,"y":2550668.120000001}},{"attributes":{"ID":160691,"DIS_CODE":0,"TOWNNAME":"東區","LI":"成大里","LIN":"16鄰","STREET":"育樂街","SECT":" ","MAREA":" ","LANE":"１４８巷","ALLEY":"１７弄","HOUSE_NO":"１０號","E_COORD97":169408.28,"N_COORD97":2544002.9100000001,"ADDRESS":"育樂街１４８巷１７弄１０號","OBJECTID":160690},"geometry":{"x":169408.28000000026,"y":2544002.910000002}},{"attributes":{"ID":160692,"DIS_CODE":0,"TOWNNAME":"東區","LI":"成大里","LIN":"17鄰","STREET":"育樂街","SECT":" ","MAREA":" ","LANE":"１４８巷","ALLEY":"１７弄","HOUSE_NO":"４６號","E_COORD97":169424.51999999999,"N_COORD97":2543936.7000000002,"ADDRESS":"育樂街１４８巷１７弄４６號","OBJECTID":160691},"geometry":{"x":169424.51999999955,"y":2543936.6999999993}},{"attributes":{"ID":160693,"DIS_CODE":0,"TOWNNAME":"東區","LI":"成大里","LIN":"17鄰","STREET":"育樂街","SECT":" ","MAREA":" ","LANE":"１４８巷","ALLEY":"１７弄","HOUSE_NO":"４７號","E_COORD97":169424.51999999999,"N_COORD97":2543932.3500000001,"ADDRESS":"育樂街１４８巷１７弄４７號","OBJECTID":160692},"geometry":{"x":169424.51999999955,"y":2543932.3499999996}},{"attributes":{"ID":160694,"DIS_CODE":0,"TOWNNAME":"東區","LI":"成大里","LIN":"17鄰","STREET":"育樂街","SECT":" ","MAREA":" ","LANE":"１４８巷","ALLEY":"１７弄","HOUSE_NO":"４８號","E_COORD97":169424.20999999999,"N_COORD97":2543928.2999999998,"ADDRESS":"育樂街１４８巷１７弄４８號","OBJECTID":160693},"geometry":{"x":169424.21000000089,"y":2543928.3000000045}},{"attributes":{"ID":160695,"DIS_CODE":0,"TOWNNAME":"東區","LI":"成大里","LIN":"17鄰","STREET":"育樂街","SECT":" ","MAREA":" ","LANE":"１４８巷","ALLEY":"１７弄","HOUSE_NO":"４９號","E_COORD97":169423.42999999999,"N_COORD97":2543923.9500000002,"ADDRESS":"育樂街１４８巷１７弄４９號","OBJECTID":160694},"geometry":{"x":169423.4299999997,"y":2543923.9499999993}},{"attributes":{"ID":160696,"DIS_CODE":0,"TOWNNAME":"東區","LI":"成大里","LIN":"17鄰","STREET":"育樂街","SECT":" ","MAREA":" ","LANE":"１４８巷","ALLEY":"１７弄","HOUSE_NO":"５０號","E_COORD97":169423.59,"N_COORD97":2543920.0600000001,"ADDRESS":"育樂街１４８巷１７弄５０號","OBJECTID":160695},"geometry":{"x":169423.59000000078,"y":2543920.0600000024}},{"attributes":{"ID":160697,"DIS_CODE":0,"TOWNNAME":"東區","LI":"成大里","LIN":"17鄰","STREET":"育樂街","SECT":" ","MAREA":" ","LANE":"１４８巷","ALLEY":"１７弄","HOUSE_NO":"５１號","E_COORD97":169422.95999999999,"N_COORD97":2543916.02,"ADDRESS":"育樂街１４８巷１７弄５１號","OBJECTID":160696},"geometry":{"x":169422.96000000089,"y":2543916.0200000014}},{"attributes":{"ID":160698,"DIS_CODE":0,"TOWNNAME":"東區","LI":"成大里","LIN":"17鄰","STREET":"育樂街","SECT":" ","MAREA":" ","LANE":"１４８巷","ALLEY":"１７弄","HOUSE_NO":"５２號","E_COORD97":169422.34,"N_COORD97":2543911.8199999998,"ADDRESS":"育樂街１４８巷１７弄５２號","OBJECTID":160697},"geometry":{"x":169422.33999999985,"y":2543911.8200000022}},{"attributes":{"ID":160699,"DIS_CODE":0,"TOWNNAME":"東區","LI":"成大里","LIN":"17鄰","STREET":"育樂街","SECT":" ","MAREA":" ","LANE":"１４８巷","ALLEY":"１７弄","HOUSE_NO":"５３號","E_COORD97":169421.41,"N_COORD97":2543907.46,"ADDRESS":"育樂街１４８巷１７弄５３號","OBJECTID":160698},"geometry":{"x":169421.41000000108,"y":2543907.4600000028}},{"attributes":{"ID":160700,"DIS_CODE":0,"TOWNNAME":"東區","LI":"泉南里","LIN":"16鄰","STREET":"府連路","SECT":" ","MAREA":" ","LANE":"３３７巷","ALLEY":"１２弄","HOUSE_NO":"１０號","E_COORD97":169668.97,"N_COORD97":2542855.9399999999,"ADDRESS":"府連路３３７巷１２弄１０號","OBJECTID":160699},"geometry":{"x":169668.96999999974,"y":2542855.9400000013}},{"attributes":{"ID":160701,"DIS_CODE":0,"TOWNNAME":"東區","LI":"泉南里","LIN":"16鄰","STREET":"府連路","SECT":" ","MAREA":" ","LANE":"３３７巷","ALLEY":"１２弄","HOUSE_NO":"１１號","E_COORD97":169676.12,"N_COORD97":2542863.25,"ADDRESS":"府連路３３７巷１２弄１１號","OBJECTID":160700},"geometry":{"x":169676.12000000104,"y":2542863.2500000037}},{"attributes":{"ID":160702,"DIS_CODE":0,"TOWNNAME":"東區","LI":"泉南里","LIN":"16鄰","STREET":"府連路","SECT":" ","MAREA":" ","LANE":"３３７巷","ALLEY":"１２弄","HOUSE_NO":"１２號","E_COORD97":169672.29999999999,"N_COORD97":2542854.9399999999,"ADDRESS":"府連路３３７巷１２弄１２號","OBJECTID":160701},"geometry":{"x":169672.30000000168,"y":2542854.9400000013}},{"attributes":{"ID":160703,"DIS_CODE":0,"TOWNNAME":"安南區","LI":"大安里","LIN":"15鄰","STREET":"義安街","SECT":" ","MAREA":" ","LANE":" ","ALLEY":" ","HOUSE_NO":"１０８號","E_COORD97":167483.20000000001,"N_COORD97":2548109.7599999998,"ADDRESS":"義安街１０８號","OBJECTID":160702},"geometry":{"x":167483.20000000205,"y":2548109.7599999998}},{"attributes":{"ID":160704,"DIS_CODE":0,"TOWNNAME":"永康區","LI":"東灣里","LIN":"12鄰","STREET":"大灣路","SECT":" ","MAREA":" ","LANE":" ","ALLEY":" ","HOUSE_NO":"３８９號","E_COORD97":174738.22,"N_COORD97":2544859.6299999999,"ADDRESS":"大灣路３８９號","OBJECTID":160703},"geometry":{"x":174738.22000000067,"y":2544859.6300000027}},{"attributes":{"ID":160705,"DIS_CODE":0,"TOWNNAME":"東區","LI":"泉南里","LIN":"16鄰","STREET":"府連路","SECT":" ","MAREA":" ","LANE":"３３７巷","ALLEY":"１２弄","HOUSE_NO":"１３號","E_COORD97":169681.44,"N_COORD97":2542861.2599999998,"ADDRESS":"府連路３３７巷１２弄１３號","OBJECTID":160704},"geometry":{"x":169681.44000000041,"y":2542861.2599999998}},{"attributes":{"ID":160706,"DIS_CODE":0,"TOWNNAME":"永康區","LI":"永康里","LIN":"12鄰","STREET":"永二街","SECT":" ","MAREA":" ","LANE":" ","ALLEY":" ","HOUSE_NO":"３５號","E_COORD97":173782.04000000001,"N_COORD97":2547068.23,"ADDRESS":"永二街３５號","OBJECTID":160705},"geometry":{"x":173782.04000000097,"y":2547068.2300000023}},{"attributes":{"ID":160707,"DIS_CODE":0,"TOWNNAME":"永康區","LI":"西橋里","LIN":"12鄰","STREET":"大橋一街","SECT":" ","MAREA":" ","LANE":" ","ALLEY":" ","HOUSE_NO":"４０號","E_COORD97":170619.92999999999,"N_COORD97":2546237.25,"ADDRESS":"大橋一街４０號","OBJECTID":160706},"geometry":{"x":170619.9299999997,"y":2546237.2500000019}},{"attributes":{"ID":160708,"DIS_CODE":0,"TOWNNAME":"永康區","LI":"永康里","LIN":"12鄰","STREET":"永康街","SECT":" ","MAREA":" ","LANE":" ","ALLEY":" ","HOUSE_NO":"１１０號","E_COORD97":173870.01000000001,"N_COORD97":2547121.98,"ADDRESS":"永康街１１０號","OBJECTID":160707},"geometry":{"x":173870.01000000071,"y":2547121.9800000004}},{"attributes":{"ID":160709,"DIS_CODE":0,"TOWNNAME":"永康區","LI":"永康里","LIN":"12鄰","STREET":"永康街","SECT":" ","MAREA":" ","LANE":" ","ALLEY":" ","HOUSE_NO":"１００號","E_COORD97":173849.12,"N_COORD97":2547131.9900000002,"ADDRESS":"永康街１００號","OBJECTID":160708},"geometry":{"x":173849.12000000197,"y":2547131.9900000002}},{"attributes":{"ID":160710,"DIS_CODE":0,"TOWNNAME":"東區","LI":"泉南里","LIN":"16鄰","STREET":"府連路","SECT":" ","MAREA":" ","LANE":"３３７巷","ALLEY":"１２弄","HOUSE_NO":"１４號","E_COORD97":169676.95000000001,"N_COORD97":2542853.4500000002,"ADDRESS":"府連路３３７巷１２弄１４號","OBJECTID":160709},"geometry":{"x":169676.95000000112,"y":2542853.4499999993}},{"attributes":{"ID":160711,"DIS_CODE":0,"TOWNNAME":"東區","LI":"泉南里","LIN":"16鄰","STREET":"府連路","SECT":" ","MAREA":" ","LANE":"３３７巷","ALLEY":"１２弄","HOUSE_NO":"１６號","E_COORD97":169681.10999999999,"N_COORD97":2542852.4500000002,"ADDRESS":"府連路３３７巷１２弄１６號","OBJECTID":160710},"geometry":{"x":169681.11000000127,"y":2542852.4499999993}},{"attributes":{"ID":160712,"DIS_CODE":0,"TOWNNAME":"永康區","LI":"三民里","LIN":"12鄰","STREET":"民東路","SECT":" ","MAREA":" ","LANE":" ","ALLEY":" ","HOUSE_NO":"２６號","E_COORD97":174347.63,"N_COORD97":2550256.54,"ADDRESS":"民東路２６號","OBJECTID":160711},"geometry":{"x":174347.63000000082,"y":2550256.5399999991}},{"attributes":{"ID":160713,"DIS_CODE":0,"TOWNNAME":"永康區","LI":"尚頂里","LIN":"12鄰","STREET":"正南一街","SECT":" ","MAREA":" ","LANE":" ","ALLEY":" ","HOUSE_NO":"５０號","E_COORD97":171158.31,"N_COORD97":2547341.8300000001,"ADDRESS":"正南一街５０號","OBJECTID":160712},"geometry":{"x":171158.30999999959,"y":2547341.8300000019}},{"attributes":{"ID":160714,"DIS_CODE":0,"TOWNNAME":"東區","LI":"泉南里","LIN":"16鄰","STREET":"府連路","SECT":" ","MAREA":" ","LANE":"３３７巷","ALLEY":"１２弄","HOUSE_NO":"１號","E_COORD97":169655.32999999999,"N_COORD97":2542870.3999999999,"ADDRESS":"府連路３３７巷１２弄１號","OBJECTID":160713},"geometry":{"x":169655.32999999914,"y":2542870.4000000022}},{"attributes":{"ID":160715,"DIS_CODE":0,"TOWNNAME":"東區","LI":"泉南里","LIN":"16鄰","STREET":"府連路","SECT":" ","MAREA":" ","LANE":"３３７巷","ALLEY":"１２弄","HOUSE_NO":"２號","E_COORD97":169649.85000000001,"N_COORD97":2542863.25,"ADDRESS":"府連路３３７巷１２弄２號","OBJECTID":160714},"geometry":{"x":169649.85000000149,"y":2542863.2500000037}},{"attributes":{"ID":160716,"DIS_CODE":0,"TOWNNAME":"東區","LI":"泉南里","LIN":"16鄰","STREET":"府連路","SECT":" ","MAREA":" ","LANE":"３３７巷","ALLEY":"１２弄","HOUSE_NO":"３號","E_COORD97":169660.32000000001,"N_COORD97":2542869.5699999998,"ADDRESS":"府連路３３７巷１２弄３號","OBJECTID":160715},"geometry":{"x":169660.3200000003,"y":2542869.5700000022}},{"attributes":{"ID":160717,"DIS_CODE":0,"TOWNNAME":"東區","LI":"泉南里","LIN":"16鄰","STREET":"府連路","SECT":" ","MAREA":" ","LANE":"３３７巷","ALLEY":"１２弄","HOUSE_NO":"５號","E_COORD97":169664.48000000001,"N_COORD97":2542867.8999999999,"ADDRESS":"府連路３３７巷１２弄５號","OBJECTID":160716},"geometry":{"x":169664.48000000045,"y":2542867.9000000004}},{"attributes":{"ID":160718,"DIS_CODE":0,"TOWNNAME":"東區","LI":"泉南里","LIN":"16鄰","STREET":"府連路","SECT":" ","MAREA":" ","LANE":"３３７巷","ALLEY":"１２弄","HOUSE_NO":"６號","E_COORD97":169660.66,"N_COORD97":2542858.7599999998,"ADDRESS":"府連路３３７巷１２弄６號","OBJECTID":160717},"geometry":{"x":169660.66000000108,"y":2542858.7599999998}},{"attributes":{"ID":160719,"DIS_CODE":0,"TOWNNAME":"中西區","LI":"銀同里","LIN":"12鄰","STREET":"友愛東街","SECT":" ","MAREA":" ","LANE":" ","ALLEY":" ","HOUSE_NO":"２６號","E_COORD97":168651.29000000001,"N_COORD97":2543555.25,"ADDRESS":"友愛東街２６號","OBJECTID":160718},"geometry":{"x":168651.29000000004,"y":2543555.2500000019}},{"attributes":{"ID":160720,"DIS_CODE":0,"TOWNNAME":"永康區","LI":"西灣里","LIN":"12鄰","STREET":"大灣五街","SECT":" ","MAREA":" ","LANE":" ","ALLEY":" ","HOUSE_NO":"２０２號","E_COORD97":174418.25,"N_COORD97":2545347.8900000001,"ADDRESS":"大灣五街２０２號","OBJECTID":160719},"geometry":{"x":174418.25000000093,"y":2545347.8900000043}},{"attributes":{"ID":160721,"DIS_CODE":0,"TOWNNAME":"東區","LI":"泉南里","LIN":"35鄰","STREET":"林森路","SECT":"一段","MAREA":" ","LANE":"１５３巷","ALLEY":"２７弄","HOUSE_NO":"２６號","E_COORD97":169480.20000000001,"N_COORD97":2542754.6200000001,"ADDRESS":"林森路一段１５３巷２７弄２６號","OBJECTID":160720},"geometry":{"x":169480.20000000205,"y":2542754.6200000029}},{"attributes":{"ID":160722,"DIS_CODE":0,"TOWNNAME":"東區","LI":"泉南里","LIN":"35鄰","STREET":"林森路","SECT":"一段","MAREA":" ","LANE":"１５３巷","ALLEY":"２７弄","HOUSE_NO":"２８號","E_COORD97":169475.81,"N_COORD97":2542753.5099999998,"ADDRESS":"林森路一段１５３巷２７弄２８號","OBJECTID":160721},"geometry":{"x":169475.81000000052,"y":2542753.5100000016}},{"attributes":{"ID":160723,"DIS_CODE":0,"TOWNNAME":"東區","LI":"泉南里","LIN":"35鄰","STREET":"林森路","SECT":"一段","MAREA":" ","LANE":"１５３巷","ALLEY":"２７弄","HOUSE_NO":"２號","E_COORD97":169534.35999999999,"N_COORD97":2542769.77,"ADDRESS":"林森路一段１５３巷２７弄２號","OBJECTID":160722},"geometry":{"x":169534.36000000034,"y":2542769.7699999996}},{"attributes":{"ID":160724,"DIS_CODE":0,"TOWNNAME":"永康區","LI":"正強里","LIN":"12鄰","STREET":"正強街","SECT":" ","MAREA":" ","LANE":" ","ALLEY":" ","HOUSE_NO":"９６號","E_COORD97":173354.12,"N_COORD97":2547361.02,"ADDRESS":"正強街９６號","OBJECTID":160723},"geometry":{"x":173354.12000000197,"y":2547361.0200000014}},{"attributes":{"ID":160725,"DIS_CODE":0,"TOWNNAME":"永康區","LI":"南灣里","LIN":"12鄰","STREET":"立興街","SECT":" ","MAREA":" ","LANE":" ","ALLEY":" ","HOUSE_NO":"２９號","E_COORD97":174627,"N_COORD97":2544858.7200000002,"ADDRESS":"立興街２９號","OBJECTID":160724},"geometry":{"x":174627.00000000093,"y":2544858.7200000025}},{"attributes":{"ID":160726,"DIS_CODE":0,"TOWNNAME":"官田區","LI":"西庄里","LIN":"5鄰","STREET":" ","SECT":" ","MAREA":"西庄","LANE":" ","ALLEY":" ","HOUSE_NO":"３４號之２","E_COORD97":177765.85999999999,"N_COORD97":2565148.1400000001,"ADDRESS":"西庄３４號之２","OBJECTID":160725},"geometry":{"x":177765.86000000127,"y":2565148.1400000006}},{"attributes":{"ID":160727,"DIS_CODE":0,"TOWNNAME":"官田區","LI":"西庄里","LIN":"5鄰","STREET":" ","SECT":" ","MAREA":"西庄","LANE":" ","ALLEY":" ","HOUSE_NO":"３４號之３","E_COORD97":177760.03,"N_COORD97":2565161.7200000002,"ADDRESS":"西庄３４號之３","OBJECTID":160726},"geometry":{"x":177760.03000000026,"y":2565161.7200000007}},{"attributes":{"ID":160728,"DIS_CODE":0,"TOWNNAME":"官田區","LI":"西庄里","LIN":"5鄰","STREET":" ","SECT":" ","MAREA":"西庄","LANE":" ","ALLEY":" ","HOUSE_NO":"３４號之５","E_COORD97":177780.32999999999,"N_COORD97":2565156.5699999998,"ADDRESS":"西庄３４號之５","OBJECTID":160727},"geometry":{"x":177780.33000000007,"y":2565156.570000004}},{"attributes":{"ID":160729,"DIS_CODE":0,"TOWNNAME":"官田區","LI":"西庄里","LIN":"5鄰","STREET":" ","SECT":" ","MAREA":"西庄","LANE":" ","ALLEY":" ","HOUSE_NO":"３４號之６","E_COORD97":177777.70999999999,"N_COORD97":2565162.3500000001,"ADDRESS":"西庄３４號之６","OBJECTID":160728},"geometry":{"x":177777.70999999903,"y":2565162.3499999996}},{"attributes":{"ID":160730,"DIS_CODE":0,"TOWNNAME":"官田區","LI":"西庄里","LIN":"5鄰","STREET":" ","SECT":" ","MAREA":"西庄","LANE":" ","ALLEY":" ","HOUSE_NO":"３４號","E_COORD97":177801.20000000001,"N_COORD97":2565165.7000000002,"ADDRESS":"西庄３４號","OBJECTID":160729},"geometry":{"x":177801.20000000019,"y":2565165.7000000011}},{"attributes":{"ID":160731,"DIS_CODE":0,"TOWNNAME":"官田區","LI":"西庄里","LIN":"5鄰","STREET":" ","SECT":" ","MAREA":"西庄","LANE":" ","ALLEY":" ","HOUSE_NO":"３５號","E_COORD97":177797.32999999999,"N_COORD97":2565154.1600000001,"ADDRESS":"西庄３５號","OBJECTID":160730},"geometry":{"x":177797.32999999914,"y":2565154.1600000001}},{"attributes":{"ID":160732,"DIS_CODE":0,"TOWNNAME":"仁德區","LI":"中生里","LIN":"5鄰","STREET":" ","SECT":" ","MAREA":"中洲","LANE":" ","ALLEY":" ","HOUSE_NO":"１３２號之１０","E_COORD97":172006.92999999999,"N_COORD97":2534407.2999999998,"ADDRESS":"中洲１３２號之１０","OBJECTID":160731},"geometry":{"x":172006.9299999997,"y":2534407.3000000007}},{"attributes":{"ID":160733,"DIS_CODE":0,"TOWNNAME":"仁德區","LI":"中生里","LIN":"5鄰","STREET":" ","SECT":" ","MAREA":"中洲","LANE":" ","ALLEY":" ","HOUSE_NO":"１２９號之２","E_COORD97":172735.45000000001,"N_COORD97":2534241.04,"ADDRESS":"中洲１２９號之２","OBJECTID":160732},"geometry":{"x":172735.45000000112,"y":2534241.0399999991}},{"attributes":{"ID":160734,"DIS_CODE":0,"TOWNNAME":"仁德區","LI":"中生里","LIN":"5鄰","STREET":" ","SECT":" ","MAREA":"中洲","LANE":" ","ALLEY":" ","HOUSE_NO":"１２７號之１","E_COORD97":172876.60000000001,"N_COORD97":2534245.54,"ADDRESS":"中洲１２７號之１","OBJECTID":160733},"geometry":{"x":172876.59999999963,"y":2534245.540000001}},{"attributes":{"ID":160735,"DIS_CODE":0,"TOWNNAME":"永康區","LI":"三民里","LIN":"12鄰","STREET":"民東路","SECT":" ","MAREA":" ","LANE":" ","ALLEY":" ","HOUSE_NO":"３１號","E_COORD97":174422.12,"N_COORD97":2550377.4900000002,"ADDRESS":"民東路３１號","OBJECTID":160734},"geometry":{"x":174422.12000000197,"y":2550377.4900000002}},{"attributes":{"ID":160736,"DIS_CODE":0,"TOWNNAME":"永康區","LI":"東灣里","LIN":"12鄰","STREET":"大灣路","SECT":" ","MAREA":" ","LANE":" ","ALLEY":" ","HOUSE_NO":"３６９號","E_COORD97":174752.57000000001,"N_COORD97":2544885.6499999999,"ADDRESS":"大灣路３６９號","OBJECTID":160735},"geometry":{"x":174752.5700000003,"y":2544885.6500000022}},{"attributes":{"ID":160737,"DIS_CODE":0,"TOWNNAME":"東區","LI":"泉南里","LIN":"35鄰","STREET":"林森路","SECT":"一段","MAREA":" ","LANE":"１５３巷","ALLEY":"２７弄","HOUSE_NO":"３２號","E_COORD97":169467.45000000001,"N_COORD97":2542753.0899999999,"ADDRESS":"林森路一段１５３巷２７弄３２號","OBJECTID":160736},"geometry":{"x":169467.45000000019,"y":2542753.0900000017}},{"attributes":{"ID":160738,"DIS_CODE":0,"TOWNNAME":"東區","LI":"泉南里","LIN":"35鄰","STREET":"林森路","SECT":"一段","MAREA":" ","LANE":"１５３巷","ALLEY":"２７弄","HOUSE_NO":"３４號","E_COORD97":169463.04999999999,"N_COORD97":2542751.52,"ADDRESS":"林森路一段１５３巷２７弄３４號","OBJECTID":160737},"geometry":{"x":169463.04999999981,"y":2542751.5199999996}},{"attributes":{"ID":160739,"DIS_CODE":0,"TOWNNAME":"東區","LI":"泉南里","LIN":"40鄰","STREET":"林森路","SECT":"一段","MAREA":" ","LANE":"１５３巷","ALLEY":"１５弄","HOUSE_NO":"１１號","E_COORD97":169456.82999999999,"N_COORD97":2542698.3700000001,"ADDRESS":"林森路一段１５３巷１５弄１１號","OBJECTID":160738},"geometry":{"x":169456.83000000007,"y":2542698.3700000029}},{"attributes":{"ID":160740,"DIS_CODE":0,"TOWNNAME":"仁德區","LI":"中生里","LIN":"5鄰","STREET":" ","SECT":" ","MAREA":"中洲","LANE":" ","ALLEY":" ","HOUSE_NO":"１２７號之７","E_COORD97":172837.07000000001,"N_COORD97":2534263.79,"ADDRESS":"中洲１２７號之７","OBJECTID":160739},"geometry":{"x":172837.0700000003,"y":2534263.7900000028}},{"attributes":{"ID":160741,"DIS_CODE":0,"TOWNNAME":"東區","LI":"泉南里","LIN":"40鄰","STREET":"林森路","SECT":"一段","MAREA":" ","LANE":"１５３巷","ALLEY":"１５弄","HOUSE_NO":"１３號","E_COORD97":169471.47,"N_COORD97":2542701.98,"ADDRESS":"林森路一段１５３巷１５弄１３號","OBJECTID":160740},"geometry":{"x":169471.47000000067,"y":2542701.9800000004}},{"attributes":{"ID":160742,"DIS_CODE":0,"TOWNNAME":"東區","LI":"泉南里","LIN":"23鄰","STREET":"光華街","SECT":" ","MAREA":" ","LANE":"２２９巷","ALLEY":"２８弄","HOUSE_NO":"１０號","E_COORD97":169425.23999999999,"N_COORD97":2542949.6699999999,"ADDRESS":"光華街２２９巷２８弄１０號","OBJECTID":160741},"geometry":{"x":169425.24000000022,"y":2542949.6700000018}},{"attributes":{"ID":160743,"DIS_CODE":0,"TOWNNAME":"東區","LI":"泉南里","LIN":"23鄰","STREET":"光華街","SECT":" ","MAREA":" ","LANE":"２２９巷","ALLEY":"２８弄","HOUSE_NO":"１２號","E_COORD97":169420.31,"N_COORD97":2542951.4900000002,"ADDRESS":"光華街２２９巷２８弄１２號","OBJECTID":160742},"geometry":{"x":169420.30999999959,"y":2542951.4900000021}},{"attributes":{"ID":160744,"DIS_CODE":0,"TOWNNAME":"東區","LI":"泉南里","LIN":"23鄰","STREET":"光華街","SECT":" ","MAREA":" ","LANE":"２２９巷","ALLEY":"２８弄","HOUSE_NO":"１４號","E_COORD97":169414.73999999999,"N_COORD97":2542952.3399999999,"ADDRESS":"光華街２２９巷２８弄１４號","OBJECTID":160743},"geometry":{"x":169414.74000000022,"y":2542952.3399999999}},{"attributes":{"ID":160745,"DIS_CODE":0,"TOWNNAME":"仁德區","LI":"中生里","LIN":"5鄰","STREET":" ","SECT":" ","MAREA":"中洲","LANE":" ","ALLEY":" ","HOUSE_NO":"１２７號之１０","E_COORD97":172855.84,"N_COORD97":2534356.29,"ADDRESS":"中洲１２７號之１０","OBJECTID":160744},"geometry":{"x":172855.84000000078,"y":2534356.290000001}},{"attributes":{"ID":160746,"DIS_CODE":0,"TOWNNAME":"東區","LI":"泉南里","LIN":"23鄰","STREET":"光華街","SECT":" ","MAREA":" ","LANE":"２２９巷","ALLEY":"２８弄","HOUSE_NO":"１６號","E_COORD97":169410.13,"N_COORD97":2542954.27,"ADDRESS":"光華街２２９巷２８弄１６號","OBJECTID":160745},"geometry":{"x":169410.12999999989,"y":2542954.2700000014}},{"attributes":{"ID":160747,"DIS_CODE":0,"TOWNNAME":"東區","LI":"泉南里","LIN":"23鄰","STREET":"光華街","SECT":" ","MAREA":" ","LANE":"２２９巷","ALLEY":"２８弄","HOUSE_NO":"１８號","E_COORD97":169405.63,"N_COORD97":2542955.5499999998,"ADDRESS":"光華街２２９巷２８弄１８號","OBJECTID":160746},"geometry":{"x":169405.62999999896,"y":2542955.5500000007}},{"attributes":{"ID":160748,"DIS_CODE":0,"TOWNNAME":"東區","LI":"泉南里","LIN":"23鄰","STREET":"光華街","SECT":" ","MAREA":" ","LANE":"２２９巷","ALLEY":"２８弄","HOUSE_NO":"６號","E_COORD97":169435.42000000001,"N_COORD97":2542946.4500000002,"ADDRESS":"光華街２２９巷２８弄６號","OBJECTID":160747},"geometry":{"x":169435.41999999993,"y":2542946.4500000011}},{"attributes":{"ID":160749,"DIS_CODE":0,"TOWNNAME":"東區","LI":"泉南里","LIN":"23鄰","STREET":"光華街","SECT":" ","MAREA":" ","LANE":"２２９巷","ALLEY":"２８弄","HOUSE_NO":"８號","E_COORD97":169430.26999999999,"N_COORD97":2542948.5899999999,"ADDRESS":"光華街２２９巷２８弄８號","OBJECTID":160748},"geometry":{"x":169430.27000000048,"y":2542948.589999998}},{"attributes":{"ID":160750,"DIS_CODE":0,"TOWNNAME":"仁德區","LI":"中生里","LIN":"5鄰","STREET":" ","SECT":" ","MAREA":"中洲","LANE":" ","ALLEY":" ","HOUSE_NO":"１２５號之７","E_COORD97":172921.35000000001,"N_COORD97":2534259.29,"ADDRESS":"中洲１２５號之７","OBJECTID":160749},"geometry":{"x":172921.3499999987,"y":2534259.2899999991}},{"attributes":{"ID":160751,"DIS_CODE":0,"TOWNNAME":"仁德區","LI":"中生里","LIN":"5鄰","STREET":" ","SECT":" ","MAREA":"中洲","LANE":" ","ALLEY":" ","HOUSE_NO":"１２８號之１","E_COORD97":172829.95999999999,"N_COORD97":2534208.5499999998,"ADDRESS":"中洲１２８號之１","OBJECTID":160750},"geometry":{"x":172829.96000000089,"y":2534208.5500000007}},{"attributes":{"ID":160752,"DIS_CODE":0,"TOWNNAME":"仁德區","LI":"中生里","LIN":"5鄰","STREET":" ","SECT":" ","MAREA":"中洲","LANE":" ","ALLEY":" ","HOUSE_NO":"１３２號","E_COORD97":172743.29000000001,"N_COORD97":2534199.25,"ADDRESS":"中洲１３２號","OBJECTID":160751},"geometry":{"x":172743.29000000097,"y":2534199.25}},{"attributes":{"ID":160753,"DIS_CODE":0,"TOWNNAME":"仁德區","LI":"中生里","LIN":"5鄰","STREET":" ","SECT":" ","MAREA":"中洲","LANE":" ","ALLEY":" ","HOUSE_NO":"１２５號之９","E_COORD97":172912.89999999999,"N_COORD97":2534257.54,"ADDRESS":"中洲１２５號之９","OBJECTID":160752},"geometry":{"x":172912.90000000037,"y":2534257.5399999991}},{"attributes":{"ID":160754,"DIS_CODE":0,"TOWNNAME":"東區","LI":"泉南里","LIN":"39鄰","STREET":"林森路","SECT":"一段","MAREA":" ","LANE":"１５３巷","ALLEY":"１５弄","HOUSE_NO":"１５號","E_COORD97":169474.16,"N_COORD97":2542689.8799999999,"ADDRESS":"林森路一段１５３巷１５弄１５號","OBJECTID":160753},"geometry":{"x":169474.16000000108,"y":2542689.879999999}},{"attributes":{"ID":160755,"DIS_CODE":0,"TOWNNAME":"東區","LI":"泉南里","LIN":"39鄰","STREET":"林森路","SECT":"一段","MAREA":" ","LANE":"１５３巷","ALLEY":"１５弄","HOUSE_NO":"１７號","E_COORD97":169479.25,"N_COORD97":2542676.8100000001,"ADDRESS":"林森路一段１５３巷１５弄１７號","OBJECTID":160754},"geometry":{"x":169479.25,"y":2542676.8100000042}},{"attributes":{"ID":160756,"DIS_CODE":0,"TOWNNAME":"東區","LI":"泉南里","LIN":"40鄰","STREET":"林森路","SECT":"一段","MAREA":" ","LANE":"１５３巷","ALLEY":"１５弄","HOUSE_NO":"１９號","E_COORD97":169483.5,"N_COORD97":2542663.5699999998,"ADDRESS":"林森路一段１５３巷１５弄１９號","OBJECTID":160755},"geometry":{"x":169483.50000000093,"y":2542663.5700000003}},{"attributes":{"ID":160757,"DIS_CODE":0,"TOWNNAME":"仁德區","LI":"中生里","LIN":"5鄰","STREET":" ","SECT":" ","MAREA":"中洲","LANE":" ","ALLEY":" ","HOUSE_NO":"１２６號之１","E_COORD97":172921.20000000001,"N_COORD97":2534223.0499999998,"ADDRESS":"中洲１２６號之１","OBJECTID":160756},"geometry":{"x":172921.20000000019,"y":2534223.0500000045}},{"attributes":{"ID":160758,"DIS_CODE":0,"TOWNNAME":"仁德區","LI":"中生里","LIN":"5鄰","STREET":" ","SECT":" ","MAREA":"中洲","LANE":" ","ALLEY":" ","HOUSE_NO":"１２８號","E_COORD97":172821.92999999999,"N_COORD97":2534202.25,"ADDRESS":"中洲１２８號","OBJECTID":160757},"geometry":{"x":172821.9299999997,"y":2534202.2500000019}},{"attributes":{"ID":160759,"DIS_CODE":0,"TOWNNAME":"仁德區","LI":"中生里","LIN":"5鄰","STREET":" ","SECT":" ","MAREA":"中洲","LANE":" ","ALLEY":" ","HOUSE_NO":"１３０號之２","E_COORD97":172716.26999999999,"N_COORD97":2534220.2999999998,"ADDRESS":"中洲１３０號之２","OBJECTID":160758},"geometry":{"x":172716.26999999955,"y":2534220.3000000007}},{"attributes":{"ID":160760,"DIS_CODE":0,"TOWNNAME":"仁德區","LI":"中生里","LIN":"5鄰","STREET":" ","SECT":" ","MAREA":"中洲","LANE":" ","ALLEY":" ","HOUSE_NO":"１２６之７號","E_COORD97":172937.16,"N_COORD97":2534225.7999999998,"ADDRESS":"中洲１２６之７號","OBJECTID":160759},"geometry":{"x":172937.16000000108,"y":2534225.8000000026}},{"attributes":{"ID":160761,"DIS_CODE":0,"TOWNNAME":"仁德區","LI":"中生里","LIN":"5鄰","STREET":" ","SECT":" ","MAREA":"中洲","LANE":" ","ALLEY":" ","HOUSE_NO":"１３２號之１６","E_COORD97":172584.42000000001,"N_COORD97":2534105.2999999998,"ADDRESS":"中洲１３２號之１６","OBJECTID":160760},"geometry":{"x":172584.42000000086,"y":2534105.3000000007}},{"attributes":{"ID":160762,"DIS_CODE":0,"TOWNNAME":"仁德區","LI":"中生里","LIN":"5鄰","STREET":" ","SECT":" ","MAREA":"中洲","LANE":" ","ALLEY":" ","HOUSE_NO":"１３２號之１２","E_COORD97":172589.92000000001,"N_COORD97":2534501.0499999998,"ADDRESS":"中洲１３２號之１２","OBJECTID":160761},"geometry":{"x":172589.91999999993,"y":2534501.0500000045}},{"attributes":{"ID":160763,"DIS_CODE":0,"TOWNNAME":"仁德區","LI":"中生里","LIN":"5鄰","STREET":" ","SECT":" ","MAREA":"中洲","LANE":" ","ALLEY":" ","HOUSE_NO":"１３０之１８號","E_COORD97":172734.17000000001,"N_COORD97":2534442.04,"ADDRESS":"中洲１３０之１８號","OBJECTID":160762},"geometry":{"x":172734.16999999993,"y":2534442.0400000028}},{"attributes":{"ID":160764,"DIS_CODE":0,"TOWNNAME":"新市區","LI":"社內里","LIN":"7鄰","STREET":" ","SECT":" ","MAREA":"社內","LANE":" ","ALLEY":" ","HOUSE_NO":"７１之１２號","E_COORD97":176595.39000000001,"N_COORD97":2552745.7999999998,"ADDRESS":"社內７１之１２號","OBJECTID":160763},"geometry":{"x":176595.3900000006,"y":2552745.8000000007}},{"attributes":{"ID":160765,"DIS_CODE":0,"TOWNNAME":"仁德區","LI":"三甲里","LIN":"5鄰","STREET":" ","SECT":" ","MAREA":"三甲子","LANE":" ","ALLEY":" ","HOUSE_NO":"４７號之１３","E_COORD97":171888.85999999999,"N_COORD97":2536706.5499999998,"ADDRESS":"三甲子４７號之１３","OBJECTID":160764},"geometry":{"x":171888.86000000127,"y":2536706.5500000026}},{"attributes":{"ID":160766,"DIS_CODE":0,"TOWNNAME":"仁德區","LI":"三甲里","LIN":"5鄰","STREET":" ","SECT":" ","MAREA":"三甲子","LANE":" ","ALLEY":" ","HOUSE_NO":"４９號","E_COORD97":171894.04000000001,"N_COORD97":2536623.2400000002,"ADDRESS":"三甲子４９號","OBJECTID":160765},"geometry":{"x":171894.04000000097,"y":2536623.2400000021}},{"attributes":{"ID":160767,"DIS_CODE":0,"TOWNNAME":"東區","LI":"泉南里","LIN":"40鄰","STREET":"林森路","SECT":"一段","MAREA":" ","LANE":"１５３巷","ALLEY":"１５弄","HOUSE_NO":"１號","E_COORD97":169507.87,"N_COORD97":2542707.1899999999,"ADDRESS":"林森路一段１５３巷１５弄１號","OBJECTID":160766},"geometry":{"x":169507.87000000104,"y":2542707.1900000032}},{"attributes":{"ID":160768,"DIS_CODE":0,"TOWNNAME":"東區","LI":"泉南里","LIN":"40鄰","STREET":"林森路","SECT":"一段","MAREA":" ","LANE":"１５３巷","ALLEY":"１５弄","HOUSE_NO":"２１號","E_COORD97":169461.41,"N_COORD97":2542686.1499999999,"ADDRESS":"林森路一段１５３巷１５弄２１號","OBJECTID":160767},"geometry":{"x":169461.41000000015,"y":2542686.1500000004}},{"attributes":{"ID":160769,"DIS_CODE":0,"TOWNNAME":"官田區","LI":"官田里","LIN":"5鄰","STREET":" ","SECT":" ","MAREA":"官田","LANE":" ","ALLEY":" ","HOUSE_NO":"４７號之８","E_COORD97":182610.42999999999,"N_COORD97":2565115.79,"ADDRESS":"官田４７號之８","OBJECTID":160768},"geometry":{"x":182610.4299999997,"y":2565115.7899999991}},{"attributes":{"ID":160770,"DIS_CODE":0,"TOWNNAME":"東區","LI":"泉南里","LIN":"40鄰","STREET":"林森路","SECT":"一段","MAREA":" ","LANE":"１５３巷","ALLEY":"１５弄","HOUSE_NO":"３號","E_COORD97":169503.32999999999,"N_COORD97":2542704.3599999999,"ADDRESS":"林森路一段１５３巷１５弄３號","OBJECTID":160769},"geometry":{"x":169503.33000000101,"y":2542704.3599999994}},{"attributes":{"ID":160771,"DIS_CODE":0,"TOWNNAME":"官田區","LI":"官田里","LIN":"5鄰","STREET":" ","SECT":" ","MAREA":"官田","LANE":" ","ALLEY":" ","HOUSE_NO":"４７號之９","E_COORD97":182607,"N_COORD97":2565115.2400000002,"ADDRESS":"官田４７號之９","OBJECTID":160770},"geometry":{"x":182607,"y":2565115.2400000021}},{"attributes":{"ID":160772,"DIS_CODE":0,"TOWNNAME":"東區","LI":"泉南里","LIN":"40鄰","STREET":"林森路","SECT":"一段","MAREA":" ","LANE":"１５３巷","ALLEY":"１５弄","HOUSE_NO":"５號","E_COORD97":169498.04000000001,"N_COORD97":2542704.73,"ADDRESS":"林森路一段１５３巷１５弄５號","OBJECTID":160771},"geometry":{"x":169498.0400000019,"y":2542704.7300000023}},{"attributes":{"ID":160773,"DIS_CODE":0,"TOWNNAME":"官田區","LI":"官田里","LIN":"5鄰","STREET":" ","SECT":" ","MAREA":"官田","LANE":" ","ALLEY":" ","HOUSE_NO":"４７號","E_COORD97":182564.45000000001,"N_COORD97":2565131.5600000001,"ADDRESS":"官田４７號","OBJECTID":160772},"geometry":{"x":182564.45000000112,"y":2565131.5600000005}},{"attributes":{"ID":160774,"DIS_CODE":0,"TOWNNAME":"東區","LI":"泉南里","LIN":"40鄰","STREET":"林森路","SECT":"一段","MAREA":" ","LANE":"１５３巷","ALLEY":"１５弄","HOUSE_NO":"７號","E_COORD97":169494.26000000001,"N_COORD97":2542702.8399999999,"ADDRESS":"林森路一段１５３巷１５弄７號","OBJECTID":160773},"geometry":{"x":169494.25999999978,"y":2542702.8400000036}},{"attributes":{"ID":160775,"DIS_CODE":0,"TOWNNAME":"官田區","LI":"社子里","LIN":"5鄰","STREET":" ","SECT":" ","MAREA":"社子","LANE":" ","ALLEY":" ","HOUSE_NO":"３０號","E_COORD97":184834.41,"N_COORD97":2564514.79,"ADDRESS":"社子３０號","OBJECTID":160774},"geometry":{"x":184834.41000000108,"y":2564514.7899999991}},{"attributes":{"ID":160776,"DIS_CODE":0,"TOWNNAME":"東區","LI":"泉南里","LIN":"40鄰","STREET":"林森路","SECT":"一段","MAREA":" ","LANE":"１５３巷","ALLEY":"１５弄","HOUSE_NO":"９號","E_COORD97":169488.01999999999,"N_COORD97":2542701.1400000001,"ADDRESS":"林森路一段１５３巷１５弄９號","OBJECTID":160775},"geometry":{"x":169488.02000000048,"y":2542701.1400000006}},{"attributes":{"ID":160777,"DIS_CODE":0,"TOWNNAME":"官田區","LI":"社子里","LIN":"5鄰","STREET":" ","SECT":" ","MAREA":"社子","LANE":" ","ALLEY":" ","HOUSE_NO":"３１號之１","E_COORD97":184866.70000000001,"N_COORD97":2564486.8900000001,"ADDRESS":"社子３１號之１","OBJECTID":160776},"geometry":{"x":184866.70000000019,"y":2564486.8900000025}},{"attributes":{"ID":160778,"DIS_CODE":0,"TOWNNAME":"官田區","LI":"社子里","LIN":"5鄰","STREET":" ","SECT":" ","MAREA":"社子","LANE":" ","ALLEY":" ","HOUSE_NO":"３１號之２","E_COORD97":184873.31,"N_COORD97":2564460.0099999998,"ADDRESS":"社子３１號之２","OBJECTID":160777},"geometry":{"x":184873.31000000052,"y":2564460.0099999998}},{"attributes":{"ID":160779,"DIS_CODE":0,"TOWNNAME":"東區","LI":"泉南里","LIN":"36鄰","STREET":"林森路","SECT":"一段","MAREA":" ","LANE":"１５３巷","ALLEY":"１弄","HOUSE_NO":"１０號","E_COORD97":169510.13,"N_COORD97":2542575.1499999999,"ADDRESS":"林森路一段１５３巷１弄１０號","OBJECTID":160778},"geometry":{"x":169510.12999999989,"y":2542575.1500000004}},{"attributes":{"ID":160780,"DIS_CODE":0,"TOWNNAME":"東區","LI":"泉南里","LIN":"36鄰","STREET":"林森路","SECT":"一段","MAREA":" ","LANE":"１５３巷","ALLEY":"１弄","HOUSE_NO":"１２號","E_COORD97":169504.72,"N_COORD97":2542573.7599999998,"ADDRESS":"林森路一段１５３巷１弄１２號","OBJECTID":160779},"geometry":{"x":169504.71999999974,"y":2542573.7599999998}},{"attributes":{"ID":160781,"DIS_CODE":0,"TOWNNAME":"東區","LI":"泉南里","LIN":"36鄰","STREET":"林森路","SECT":"一段","MAREA":" ","LANE":"１５３巷","ALLEY":"１弄","HOUSE_NO":"１４號","E_COORD97":169499.78,"N_COORD97":2542571.29,"ADDRESS":"林森路一段１５３巷１弄１４號","OBJECTID":160780},"geometry":{"x":169499.78000000026,"y":2542571.290000001}},{"attributes":{"ID":160782,"DIS_CODE":0,"TOWNNAME":"東區","LI":"泉南里","LIN":"36鄰","STREET":"林森路","SECT":"一段","MAREA":" ","LANE":"１５３巷","ALLEY":"１弄","HOUSE_NO":"１６號","E_COORD97":169494.67999999999,"N_COORD97":2542569.8999999999,"ADDRESS":"林森路一段１５３巷１弄１６號","OBJECTID":160781},"geometry":{"x":169494.6799999997,"y":2542569.9000000004}},{"attributes":{"ID":160783,"DIS_CODE":0,"TOWNNAME":"東區","LI":"泉南里","LIN":"36鄰","STREET":"林森路","SECT":"一段","MAREA":" ","LANE":"１５３巷","ALLEY":"１弄","HOUSE_NO":"１８號","E_COORD97":169490.35000000001,"N_COORD97":2542568.6699999999,"ADDRESS":"林森路一段１５３巷１弄１８號","OBJECTID":160782},"geometry":{"x":169490.35000000149,"y":2542568.6700000037}},{"attributes":{"ID":160784,"DIS_CODE":0,"TOWNNAME":"東區","LI":"泉南里","LIN":"36鄰","STREET":"林森路","SECT":"一段","MAREA":" ","LANE":"１５３巷","ALLEY":"１弄","HOUSE_NO":"２０號","E_COORD97":169484.95000000001,"N_COORD97":2542567.4300000002,"ADDRESS":"林森路一段１５３巷１弄２０號","OBJECTID":160783},"geometry":{"x":169484.95000000019,"y":2542567.4300000016}},{"attributes":{"ID":160785,"DIS_CODE":0,"TOWNNAME":"東區","LI":"泉南里","LIN":"36鄰","STREET":"林森路","SECT":"一段","MAREA":" ","LANE":"１５３巷","ALLEY":"１弄","HOUSE_NO":"２２號","E_COORD97":169480.78,"N_COORD97":2542565.8900000001,"ADDRESS":"林森路一段１５３巷１弄２２號","OBJECTID":160784},"geometry":{"x":169480.78000000026,"y":2542565.8900000025}},{"attributes":{"ID":160786,"DIS_CODE":0,"TOWNNAME":"東區","LI":"泉南里","LIN":"36鄰","STREET":"林森路","SECT":"一段","MAREA":" ","LANE":"１５３巷","ALLEY":"１弄","HOUSE_NO":"２號","E_COORD97":169531.45000000001,"N_COORD97":2542581.48,"ADDRESS":"林森路一段１５３巷１弄２號","OBJECTID":160785},"geometry":{"x":169531.45000000112,"y":2542581.4800000023}},{"attributes":{"ID":160787,"DIS_CODE":0,"TOWNNAME":"東區","LI":"泉南里","LIN":"36鄰","STREET":"林森路","SECT":"一段","MAREA":" ","LANE":"１５３巷","ALLEY":"１弄","HOUSE_NO":"４號","E_COORD97":169525.57999999999,"N_COORD97":2542579.1600000001,"ADDRESS":"林森路一段１５３巷１弄４號","OBJECTID":160786},"geometry":{"x":169525.58000000101,"y":2542579.1600000039}},{"attributes":{"ID":160788,"DIS_CODE":0,"TOWNNAME":"東區","LI":"泉南里","LIN":"36鄰","STREET":"林森路","SECT":"一段","MAREA":" ","LANE":"１５３巷","ALLEY":"１弄","HOUSE_NO":"６號","E_COORD97":169520.94,"N_COORD97":2542577.9300000002,"ADDRESS":"林森路一段１５３巷１弄６號","OBJECTID":160787},"geometry":{"x":169520.94000000041,"y":2542577.9300000016}},{"attributes":{"ID":160789,"DIS_CODE":0,"TOWNNAME":"東區","LI":"泉南里","LIN":"36鄰","STREET":"林森路","SECT":"一段","MAREA":" ","LANE":"１５３巷","ALLEY":"１弄","HOUSE_NO":"８號","E_COORD97":169515.07000000001,"N_COORD97":2542576.3900000001,"ADDRESS":"林森路一段１５３巷１弄８號","OBJECTID":160788},"geometry":{"x":169515.07000000216,"y":2542576.3900000006}},{"attributes":{"ID":160790,"DIS_CODE":0,"TOWNNAME":"東區","LI":"泉南里","LIN":"38鄰","STREET":"林森路","SECT":"一段","MAREA":" ","LANE":"１５３巷","ALLEY":"２７弄","HOUSE_NO":"１１號","E_COORD97":169457.94,"N_COORD97":2542724.79,"ADDRESS":"林森路一段１５３巷２７弄１１號","OBJECTID":160789},"geometry":{"x":169457.94000000041,"y":2542724.7899999991}},{"attributes":{"ID":160791,"DIS_CODE":0,"TOWNNAME":"東區","LI":"泉南里","LIN":"38鄰","STREET":"林森路","SECT":"一段","MAREA":" ","LANE":"１５３巷","ALLEY":"２７弄","HOUSE_NO":"１３號","E_COORD97":169446,"N_COORD97":2542721.5,"ADDRESS":"林森路一段１５３巷２７弄１３號","OBJECTID":160790},"geometry":{"x":169446.00000000093,"y":2542721.5}},{"attributes":{"ID":160792,"DIS_CODE":0,"TOWNNAME":"東區","LI":"泉南里","LIN":"38鄰","STREET":"林森路","SECT":"一段","MAREA":" ","LANE":"１５３巷","ALLEY":"２７弄","HOUSE_NO":"３號","E_COORD97":169484.07999999999,"N_COORD97":2542733.6699999999,"ADDRESS":"林森路一段１５３巷２７弄３號","OBJECTID":160791},"geometry":{"x":169484.08000000007,"y":2542733.6699999999}},{"attributes":{"ID":160793,"DIS_CODE":0,"TOWNNAME":"東區","LI":"泉南里","LIN":"37鄰","STREET":"林森路","SECT":"一段","MAREA":" ","LANE":"１５３巷","ALLEY":"２７弄","HOUSE_NO":"１號","E_COORD97":169532.32000000001,"N_COORD97":2542755.7400000002,"ADDRESS":"林森路一段１５３巷２７弄１號","OBJECTID":160792},"geometry":{"x":169532.32000000123,"y":2542755.7400000021}},{"attributes":{"ID":160794,"DIS_CODE":0,"TOWNNAME":"東區","LI":"泉南里","LIN":"38鄰","STREET":"林森路","SECT":"一段","MAREA":" ","LANE":"１５３巷","ALLEY":"２７弄","HOUSE_NO":"５號","E_COORD97":169473.17000000001,"N_COORD97":2542731.1400000001,"ADDRESS":"林森路一段１５３巷２７弄５號","OBJECTID":160793},"geometry":{"x":169473.16999999899,"y":2542731.1400000006}},{"attributes":{"ID":160795,"DIS_CODE":0,"TOWNNAME":"東區","LI":"泉南里","LIN":"38鄰","STREET":"林森路","SECT":"一段","MAREA":" ","LANE":"１５３巷","ALLEY":"２７弄","HOUSE_NO":"７號","E_COORD97":169442.14999999999,"N_COORD97":2542736.8999999999,"ADDRESS":"林森路一段１５３巷２７弄７號","OBJECTID":160794},"geometry":{"x":169442.1500000013,"y":2542736.9000000041}},{"attributes":{"ID":160796,"DIS_CODE":0,"TOWNNAME":"東區","LI":"泉南里","LIN":"36鄰","STREET":"林森路","SECT":"一段","MAREA":" ","LANE":"１５３巷","ALLEY":"３弄","HOUSE_NO":"１０號","E_COORD97":169496.98000000001,"N_COORD97":2542614.1400000001,"ADDRESS":"林森路一段１５３巷３弄１０號","OBJECTID":160795},"geometry":{"x":169496.98000000045,"y":2542614.1400000025}},{"attributes":{"ID":160797,"DIS_CODE":0,"TOWNNAME":"東區","LI":"泉南里","LIN":"36鄰","STREET":"林森路","SECT":"一段","MAREA":" ","LANE":"１５３巷","ALLEY":"３弄","HOUSE_NO":"１１號","E_COORD97":169504.13,"N_COORD97":2542604.9300000002,"ADDRESS":"林森路一段１５３巷３弄１１號","OBJECTID":160796},"geometry":{"x":169504.13000000175,"y":2542604.9300000016}},{"attributes":{"ID":160798,"DIS_CODE":0,"TOWNNAME":"下營區","LI":"甲中里","LIN":"12鄰","STREET":" ","SECT":" ","MAREA":"十六甲","LANE":" ","ALLEY":" ","HOUSE_NO":"２５號","E_COORD97":175750.29999999999,"N_COORD97":2572239.9300000002,"ADDRESS":"十六甲２５號","OBJECTID":160797},"geometry":{"x":175750.30000000075,"y":2572239.9300000016}},{"attributes":{"ID":160799,"DIS_CODE":0,"TOWNNAME":"下營區","LI":"甲中里","LIN":"12鄰","STREET":" ","SECT":" ","MAREA":"十六甲","LANE":" ","ALLEY":" ","HOUSE_NO":"２６號","E_COORD97":175748.89999999999,"N_COORD97":2572221.0699999998,"ADDRESS":"十六甲２６號","OBJECTID":160798},"geometry":{"x":175748.90000000037,"y":2572221.0700000003}},{"attributes":{"ID":160800,"DIS_CODE":0,"TOWNNAME":"下營區","LI":"甲中里","LIN":"12鄰","STREET":" ","SECT":" ","MAREA":"十六甲","LANE":" ","ALLEY":" ","HOUSE_NO":"２９之１號","E_COORD97":175705.92999999999,"N_COORD97":2572235.5800000001,"ADDRESS":"十六甲２９之１號","OBJECTID":160799},"geometry":{"x":175705.9299999997,"y":2572235.5800000019}},{"attributes":{"ID":160801,"DIS_CODE":0,"TOWNNAME":"下營區","LI":"甲中里","LIN":"12鄰","STREET":" ","SECT":" ","MAREA":"十六甲","LANE":" ","ALLEY":" ","HOUSE_NO":"２９號","E_COORD97":175729.63,"N_COORD97":2572220.75,"ADDRESS":"十六甲２９號","OBJECTID":160800},"geometry":{"x":175729.62999999989,"y":2572220.7500000019}}]}