{"displayFieldName":"TOWNNAME","fieldAliases":{"ID":"ID","DIS_CODE":"DIS_CODE","TOWNNAME":"TOWNNAME","LI":"LI","LIN":"LIN","STREET":"STREET","SECT":"SECT","MAREA":"MAREA","LANE":"LANE","ALLEY":"ALLEY","HOUSE_NO":"HOUSE_NO","E_COORD97":"E_COORD97","N_COORD97":"N_COORD97","ADDRESS":"ADDRESS","OBJECTID":"OBJECTID"},"geometryType":"esriGeometryPoint","spatialReference":{"wkid":102443,"latestWkid":3826},"fields":[{"name":"ID","type":"esriFieldTypeDouble","alias":"ID"},{"name":"DIS_CODE","type":"esriFieldTypeInteger","alias":"DIS_CODE"},{"name":"TOWNNAME","type":"esriFieldTypeString","alias":"TOWNNAME","length":8},{"name":"LI","type":"esriFieldTypeString","alias":"LI","length":8},{"name":"LIN","type":"esriFieldTypeString","alias":"LIN","length":12},{"name":"STREET","type":"esriFieldTypeString","alias":"STREET","length":20},{"name":"SECT","type":"esriFieldTypeString","alias":"SECT","length":8},{"name":"MAREA","type":"esriFieldTypeString","alias":"MAREA","length":12},{"name":"LANE","type":"esriFieldTypeString","alias":"LANE","length":10},{"name":"ALLEY","type":"esriFieldTypeString","alias":"ALLEY","length":10},{"name":"HOUSE_NO","type":"esriFieldTypeString","alias":"HOUSE_NO","length":20},{"name":"E_COORD97","type":"esriFieldTypeDouble","alias":"E_COORD97"},{"name":"N_COORD97","type":"esriFieldTypeDouble","alias":"N_COORD97"},{"name":"ADDRESS","type":"esriFieldTypeString","alias":"ADDRESS","length":50},{"name":"OBJECTID","type":"esriFieldTypeOID","alias":"OBJECTID"}],"features":[{"attributes":{"ID":142401,"DIS_CODE":0,"TOWNNAME":"仁德區","LI":"中生里","LIN":" ","STREET":" ","SECT":" ","MAREA":"中洲","LANE":" ","ALLEY":" ","HOUSE_NO":"９４號","E_COORD97":173066.28,"N_COORD97":2534316,"ADDRESS":"中洲９４號","OBJECTID":142401},"geometry":{"x":173066.28000000026,"y":2534316}},{"attributes":{"ID":142402,"DIS_CODE":0,"TOWNNAME":"永康區","LI":"崑山里","LIN":"9鄰","STREET":"崑大路","SECT":" ","MAREA":" ","LANE":"２０１巷","ALLEY":"５８弄","HOUSE_NO":"１８號","E_COORD97":173266.17000000001,"N_COORD97":2544176.75,"ADDRESS":"崑大路２０１巷５８弄１８號","OBJECTID":142402},"geometry":{"x":173266.17000000086,"y":2544176.7500000019}},{"attributes":{"ID":142403,"DIS_CODE":0,"TOWNNAME":"仁德區","LI":"中洲里","LIN":" ","STREET":" ","SECT":" ","MAREA":"中洲","LANE":" ","ALLEY":" ","HOUSE_NO":"３５６之３號","E_COORD97":173344.76000000001,"N_COORD97":2534208.0499999998,"ADDRESS":"中洲３５６之３號","OBJECTID":142403},"geometry":{"x":173344.76000000071,"y":2534208.0500000007}},{"attributes":{"ID":142404,"DIS_CODE":0,"TOWNNAME":"安南區","LI":"佃東里","LIN":"22鄰","STREET":"公學路","SECT":"四段","MAREA":" ","LANE":"１２２巷","ALLEY":"８５弄","HOUSE_NO":"９６號","E_COORD97":165515.09,"N_COORD97":2552299.9300000002,"ADDRESS":"公學路四段１２２巷８５弄９６號","OBJECTID":142404},"geometry":{"x":165515.08999999985,"y":2552299.9299999997}},{"attributes":{"ID":142405,"DIS_CODE":0,"TOWNNAME":"西港區","LI":"港東里","LIN":"1鄰","STREET":" ","SECT":" ","MAREA":"\u25A0張\u25A0","LANE":" ","ALLEY":" ","HOUSE_NO":"６號之９","E_COORD97":169310.75,"N_COORD97":2557765.1400000001,"ADDRESS":"\u25A0張\u25A0６號之９","OBJECTID":142405},"geometry":{"x":169310.75000000093,"y":2557765.1400000043}},{"attributes":{"ID":142406,"DIS_CODE":0,"TOWNNAME":"安南區","LI":"佃東里","LIN":"22鄰","STREET":"公學路","SECT":"四段","MAREA":" ","LANE":"１２２巷","ALLEY":"８５弄","HOUSE_NO":"９８號","E_COORD97":165519.34,"N_COORD97":2552298.2000000002,"ADDRESS":"公學路四段１２２巷８５弄９８號","OBJECTID":142406},"geometry":{"x":165519.34000000078,"y":2552298.200000003}},{"attributes":{"ID":142407,"DIS_CODE":0,"TOWNNAME":"永康區","LI":"崑山里","LIN":"36鄰","STREET":"大灣路","SECT":" ","MAREA":" ","LANE":"９４２巷","ALLEY":"１９４弄","HOUSE_NO":"５號","E_COORD97":173829.01000000001,"N_COORD97":2544982.5899999999,"ADDRESS":"大灣路９４２巷１９４弄５號","OBJECTID":142407},"geometry":{"x":173829.00999999978,"y":2544982.5899999999}},{"attributes":{"ID":142408,"DIS_CODE":0,"TOWNNAME":"永康區","LI":"崑山里","LIN":"12鄰","STREET":"大灣路","SECT":" ","MAREA":" ","LANE":"１１０２巷","ALLEY":"１７弄","HOUSE_NO":"１２２號之６","E_COORD97":173378.20999999999,"N_COORD97":2544609.5600000001,"ADDRESS":"大灣路１１０２巷１７弄１２２號之６","OBJECTID":142408},"geometry":{"x":173378.20999999996,"y":2544609.5600000005}},{"attributes":{"ID":142409,"DIS_CODE":0,"TOWNNAME":"安南區","LI":"長安里","LIN":"22鄰","STREET":"公學路","SECT":"二段","MAREA":" ","LANE":"９巷","ALLEY":"２弄","HOUSE_NO":"１０號","E_COORD97":167832.12,"N_COORD97":2552539.8500000001,"ADDRESS":"公學路二段９巷２弄１０號","OBJECTID":142409},"geometry":{"x":167832.12000000011,"y":2552539.8499999996}},{"attributes":{"ID":142410,"DIS_CODE":0,"TOWNNAME":"西港區","LI":"港東里","LIN":"1鄰","STREET":" ","SECT":" ","MAREA":"\u25A0張\u25A0","LANE":" ","ALLEY":" ","HOUSE_NO":"６號","E_COORD97":169258.32000000001,"N_COORD97":2557748.9300000002,"ADDRESS":"\u25A0張\u25A0６號","OBJECTID":142410},"geometry":{"x":169258.3200000003,"y":2557748.9300000034}},{"attributes":{"ID":142411,"DIS_CODE":0,"TOWNNAME":"安南區","LI":"長安里","LIN":"22鄰","STREET":"公學路","SECT":"二段","MAREA":" ","LANE":"９巷","ALLEY":"２弄","HOUSE_NO":"１２號","E_COORD97":167830.48999999999,"N_COORD97":2552535.5699999998,"ADDRESS":"公學路二段９巷２弄１２號","OBJECTID":142411},"geometry":{"x":167830.49000000209,"y":2552535.5700000022}},{"attributes":{"ID":142412,"DIS_CODE":0,"TOWNNAME":"安南區","LI":"長安里","LIN":"22鄰","STREET":"公學路","SECT":"二段","MAREA":" ","LANE":"９巷","ALLEY":"２弄","HOUSE_NO":"１４號","E_COORD97":167828.01000000001,"N_COORD97":2552531.6299999999,"ADDRESS":"公學路二段９巷２弄１４號","OBJECTID":142412},"geometry":{"x":167828.00999999978,"y":2552531.629999999}},{"attributes":{"ID":142413,"DIS_CODE":0,"TOWNNAME":"西港區","LI":"港東里","LIN":"1鄰","STREET":" ","SECT":" ","MAREA":"\u25A0張\u25A0","LANE":" ","ALLEY":" ","HOUSE_NO":"７號之２","E_COORD97":169323.26000000001,"N_COORD97":2557757.8599999999,"ADDRESS":"\u25A0張\u25A0７號之２","OBJECTID":142413},"geometry":{"x":169323.25999999885,"y":2557757.8599999994}},{"attributes":{"ID":142414,"DIS_CODE":0,"TOWNNAME":"西港區","LI":"港東里","LIN":"1鄰","STREET":" ","SECT":" ","MAREA":"\u25A0張\u25A0","LANE":" ","ALLEY":" ","HOUSE_NO":"７號之５","E_COORD97":169335.12,"N_COORD97":2557758.0800000001,"ADDRESS":"\u25A0張\u25A0７號之５","OBJECTID":142414},"geometry":{"x":169335.12000000104,"y":2557758.0800000038}},{"attributes":{"ID":142415,"DIS_CODE":0,"TOWNNAME":"安南區","LI":"長安里","LIN":"22鄰","STREET":"公學路","SECT":"二段","MAREA":" ","LANE":"９巷","ALLEY":"２弄","HOUSE_NO":"１６號","E_COORD97":167826.54999999999,"N_COORD97":2552527.2599999998,"ADDRESS":"公學路二段９巷２弄１６號","OBJECTID":142415},"geometry":{"x":167826.55000000075,"y":2552527.2599999998}},{"attributes":{"ID":142416,"DIS_CODE":0,"TOWNNAME":"西港區","LI":"港東里","LIN":"1鄰","STREET":" ","SECT":" ","MAREA":"\u25A0張\u25A0","LANE":" ","ALLEY":" ","HOUSE_NO":"７號之６","E_COORD97":169290.76999999999,"N_COORD97":2557839.8799999999,"ADDRESS":"\u25A0張\u25A0７號之６","OBJECTID":142416},"geometry":{"x":169290.77000000142,"y":2557839.8800000027}},{"attributes":{"ID":142417,"DIS_CODE":0,"TOWNNAME":"安南區","LI":"長安里","LIN":"22鄰","STREET":"公學路","SECT":"二段","MAREA":" ","LANE":"９巷","ALLEY":"２弄","HOUSE_NO":"１８號","E_COORD97":167824.75,"N_COORD97":2552523.1499999999,"ADDRESS":"公學路二段９巷２弄１８號","OBJECTID":142417},"geometry":{"x":167824.75,"y":2552523.1499999985}},{"attributes":{"ID":142418,"DIS_CODE":0,"TOWNNAME":"安南區","LI":"長安里","LIN":"22鄰","STREET":"公學路","SECT":"二段","MAREA":" ","LANE":"９巷","ALLEY":"２弄","HOUSE_NO":"２０號","E_COORD97":167822.87,"N_COORD97":2552518.6099999999,"ADDRESS":"公學路二段９巷２弄２０號","OBJECTID":142418},"geometry":{"x":167822.87000000104,"y":2552518.6099999994}},{"attributes":{"ID":142419,"DIS_CODE":0,"TOWNNAME":"西港區","LI":"港東里","LIN":"1鄰","STREET":" ","SECT":" ","MAREA":"\u25A0張\u25A0","LANE":" ","ALLEY":" ","HOUSE_NO":"７號","E_COORD97":169322.07000000001,"N_COORD97":2557800.3599999999,"ADDRESS":"\u25A0張\u25A0７號","OBJECTID":142419},"geometry":{"x":169322.07000000123,"y":2557800.3600000013}},{"attributes":{"ID":142420,"DIS_CODE":0,"TOWNNAME":"西港區","LI":"港東里","LIN":"1鄰","STREET":" ","SECT":" ","MAREA":"\u25A0張\u25A0","LANE":" ","ALLEY":" ","HOUSE_NO":"９號之１０","E_COORD97":169264.29000000001,"N_COORD97":2557844.3700000001,"ADDRESS":"\u25A0張\u25A0９號之１０","OBJECTID":142420},"geometry":{"x":169264.29000000097,"y":2557844.370000001}},{"attributes":{"ID":142421,"DIS_CODE":0,"TOWNNAME":"西港區","LI":"港東里","LIN":"1鄰","STREET":" ","SECT":" ","MAREA":"\u25A0張\u25A0","LANE":" ","ALLEY":" ","HOUSE_NO":"９號之１１","E_COORD97":169263.87,"N_COORD97":2557849.1000000001,"ADDRESS":"\u25A0張\u25A0９號之１１","OBJECTID":142421},"geometry":{"x":169263.87000000104,"y":2557849.1000000034}},{"attributes":{"ID":142422,"DIS_CODE":0,"TOWNNAME":"西港區","LI":"港東里","LIN":"1鄰","STREET":" ","SECT":" ","MAREA":"\u25A0張\u25A0","LANE":" ","ALLEY":" ","HOUSE_NO":"９號之１２","E_COORD97":169262.97,"N_COORD97":2557853.5800000001,"ADDRESS":"\u25A0張\u25A0９號之１２","OBJECTID":142422},"geometry":{"x":169262.97000000067,"y":2557853.5800000019}},{"attributes":{"ID":142423,"DIS_CODE":0,"TOWNNAME":"安南區","LI":"長安里","LIN":"22鄰","STREET":"公學路","SECT":"二段","MAREA":" ","LANE":"９巷","ALLEY":"２弄","HOUSE_NO":"２２號","E_COORD97":167820.89999999999,"N_COORD97":2552514.7599999998,"ADDRESS":"公學路二段９巷２弄２２號","OBJECTID":142423},"geometry":{"x":167820.90000000037,"y":2552514.7599999998}},{"attributes":{"ID":142424,"DIS_CODE":0,"TOWNNAME":"安南區","LI":"長安里","LIN":"22鄰","STREET":"公學路","SECT":"二段","MAREA":" ","LANE":"９巷","ALLEY":"２弄","HOUSE_NO":"２４號","E_COORD97":167819.60000000001,"N_COORD97":2552510.4300000002,"ADDRESS":"公學路二段９巷２弄２４號","OBJECTID":142424},"geometry":{"x":167819.60000000056,"y":2552510.4300000034}},{"attributes":{"ID":142425,"DIS_CODE":0,"TOWNNAME":"安南區","LI":"長安里","LIN":"22鄰","STREET":"公學路","SECT":"二段","MAREA":" ","LANE":"９巷","ALLEY":"２弄","HOUSE_NO":"２６號","E_COORD97":167817.79999999999,"N_COORD97":2552506.1499999999,"ADDRESS":"公學路二段９巷２弄２６號","OBJECTID":142425},"geometry":{"x":167817.80000000168,"y":2552506.1499999985}},{"attributes":{"ID":142426,"DIS_CODE":0,"TOWNNAME":"西港區","LI":"港東里","LIN":"1鄰","STREET":" ","SECT":" ","MAREA":"\u25A0張\u25A0","LANE":" ","ALLEY":" ","HOUSE_NO":"９號之１３","E_COORD97":169262.31,"N_COORD97":2557858.54,"ADDRESS":"\u25A0張\u25A0９號之１３","OBJECTID":142426},"geometry":{"x":169262.31000000052,"y":2557858.5399999991}},{"attributes":{"ID":142427,"DIS_CODE":0,"TOWNNAME":"安南區","LI":"長安里","LIN":"22鄰","STREET":"公學路","SECT":"二段","MAREA":" ","LANE":"９巷","ALLEY":"２弄","HOUSE_NO":"２８號","E_COORD97":167815.82999999999,"N_COORD97":2552501.6899999999,"ADDRESS":"公學路二段９巷２弄２８號","OBJECTID":142427},"geometry":{"x":167815.83000000007,"y":2552501.6900000032}},{"attributes":{"ID":142428,"DIS_CODE":0,"TOWNNAME":"安南區","LI":"長安里","LIN":"22鄰","STREET":"公學路","SECT":"二段","MAREA":" ","LANE":"９巷","ALLEY":"２弄","HOUSE_NO":"２號","E_COORD97":167837.26000000001,"N_COORD97":2552557.5899999999,"ADDRESS":"公學路二段９巷２弄２號","OBJECTID":142428},"geometry":{"x":167837.26000000071,"y":2552557.5900000017}},{"attributes":{"ID":142429,"DIS_CODE":0,"TOWNNAME":"西港區","LI":"港東里","LIN":"1鄰","STREET":" ","SECT":" ","MAREA":"\u25A0張\u25A0","LANE":" ","ALLEY":" ","HOUSE_NO":"９號之１","E_COORD97":169270.12,"N_COORD97":2557804.2599999998,"ADDRESS":"\u25A0張\u25A0９號之１","OBJECTID":142429},"geometry":{"x":169270.12000000011,"y":2557804.2600000035}},{"attributes":{"ID":142430,"DIS_CODE":0,"TOWNNAME":"安南區","LI":"長安里","LIN":"22鄰","STREET":"公學路","SECT":"二段","MAREA":" ","LANE":"９巷","ALLEY":"２弄","HOUSE_NO":"３０號","E_COORD97":167814.29000000001,"N_COORD97":2552498.1800000002,"ADDRESS":"公學路二段９巷２弄３０號","OBJECTID":142430},"geometry":{"x":167814.29000000004,"y":2552498.1799999997}},{"attributes":{"ID":142431,"DIS_CODE":0,"TOWNNAME":"安南區","LI":"長安里","LIN":"22鄰","STREET":"公學路","SECT":"二段","MAREA":" ","LANE":"９巷","ALLEY":"２弄","HOUSE_NO":"３１號","E_COORD97":167838.17999999999,"N_COORD97":2552481.6800000002,"ADDRESS":"公學路二段９巷２弄３１號","OBJECTID":142431},"geometry":{"x":167838.1799999997,"y":2552481.6800000034}},{"attributes":{"ID":142432,"DIS_CODE":0,"TOWNNAME":"永康區","LI":"勝利里","LIN":"25鄰","STREET":"中華路","SECT":" ","MAREA":" ","LANE":"１５５巷","ALLEY":"３４弄","HOUSE_NO":"３３號","E_COORD97":171452.64000000001,"N_COORD97":2544768.9100000001,"ADDRESS":"中華路１５５巷３４弄３３號","OBJECTID":142432},"geometry":{"x":171452.63999999966,"y":2544768.910000002}},{"attributes":{"ID":142433,"DIS_CODE":0,"TOWNNAME":"永康區","LI":"崑山里","LIN":"6鄰","STREET":"崑大路","SECT":" ","MAREA":" ","LANE":"１５５巷","ALLEY":"８５弄","HOUSE_NO":"６號","E_COORD97":173616.17999999999,"N_COORD97":2544019.3799999999,"ADDRESS":"崑大路１５５巷８５弄６號","OBJECTID":142433},"geometry":{"x":173616.18000000063,"y":2544019.379999999}},{"attributes":{"ID":142434,"DIS_CODE":0,"TOWNNAME":"西港區","LI":"港東里","LIN":"1鄰","STREET":" ","SECT":" ","MAREA":"\u25A0張\u25A0","LANE":" ","ALLEY":" ","HOUSE_NO":"９號之２","E_COORD97":169269.76000000001,"N_COORD97":2557808.3700000001,"ADDRESS":"\u25A0張\u25A0９號之２","OBJECTID":142434},"geometry":{"x":169269.76000000071,"y":2557808.3700000048}},{"attributes":{"ID":142435,"DIS_CODE":0,"TOWNNAME":"安南區","LI":"長安里","LIN":"22鄰","STREET":"公學路","SECT":"二段","MAREA":" ","LANE":"９巷","ALLEY":"２弄","HOUSE_NO":"３２號","E_COORD97":167812.92999999999,"N_COORD97":2552493.3900000001,"ADDRESS":"公學路二段９巷２弄３２號","OBJECTID":142435},"geometry":{"x":167812.9299999997,"y":2552493.3900000006}},{"attributes":{"ID":142436,"DIS_CODE":0,"TOWNNAME":"西港區","LI":"港東里","LIN":"1鄰","STREET":" ","SECT":" ","MAREA":"\u25A0張\u25A0","LANE":" ","ALLEY":" ","HOUSE_NO":"９號之３","E_COORD97":169269.17999999999,"N_COORD97":2557812.46,"ADDRESS":"\u25A0張\u25A0９號之３","OBJECTID":142436},"geometry":{"x":169269.1799999997,"y":2557812.4600000009}},{"attributes":{"ID":142437,"DIS_CODE":0,"TOWNNAME":"安南區","LI":"長安里","LIN":"22鄰","STREET":"公學路","SECT":"二段","MAREA":" ","LANE":"９巷","ALLEY":"２弄","HOUSE_NO":"３３號","E_COORD97":167837.01999999999,"N_COORD97":2552476.8399999999,"ADDRESS":"公學路二段９巷２弄３３號","OBJECTID":142437},"geometry":{"x":167837.02000000048,"y":2552476.8399999999}},{"attributes":{"ID":142438,"DIS_CODE":0,"TOWNNAME":"西港區","LI":"港東里","LIN":"1鄰","STREET":" ","SECT":" ","MAREA":"\u25A0張\u25A0","LANE":" ","ALLEY":" ","HOUSE_NO":"９號之４","E_COORD97":169268.48999999999,"N_COORD97":2557817.0099999998,"ADDRESS":"\u25A0張\u25A0９號之４","OBJECTID":142438},"geometry":{"x":169268.49000000115,"y":2557817.0100000016}},{"attributes":{"ID":142439,"DIS_CODE":0,"TOWNNAME":"安南區","LI":"長安里","LIN":"22鄰","STREET":"公學路","SECT":"二段","MAREA":" ","LANE":"９巷","ALLEY":"２弄","HOUSE_NO":"３４號","E_COORD97":167811.23999999999,"N_COORD97":2552489.0899999999,"ADDRESS":"公學路二段９巷２弄３４號","OBJECTID":142439},"geometry":{"x":167811.24000000022,"y":2552489.089999998}},{"attributes":{"ID":142440,"DIS_CODE":0,"TOWNNAME":"安南區","LI":"長安里","LIN":"22鄰","STREET":"公學路","SECT":"二段","MAREA":" ","LANE":"９巷","ALLEY":"２弄","HOUSE_NO":"３６號","E_COORD97":167810.04999999999,"N_COORD97":2552484.5299999998,"ADDRESS":"公學路二段９巷２弄３６號","OBJECTID":142440},"geometry":{"x":167810.05000000075,"y":2552484.5299999993}},{"attributes":{"ID":142441,"DIS_CODE":0,"TOWNNAME":"安南區","LI":"長安里","LIN":"22鄰","STREET":"公學路","SECT":"二段","MAREA":" ","LANE":"９巷","ALLEY":"２弄","HOUSE_NO":"３７號","E_COORD97":167832.81,"N_COORD97":2552467.6600000001,"ADDRESS":"公學路二段９巷２弄３７號","OBJECTID":142441},"geometry":{"x":167832.81000000145,"y":2552467.6600000001}},{"attributes":{"ID":142442,"DIS_CODE":0,"TOWNNAME":"西港區","LI":"港東里","LIN":"1鄰","STREET":" ","SECT":" ","MAREA":"\u25A0張\u25A0","LANE":" ","ALLEY":" ","HOUSE_NO":"９號之５","E_COORD97":169268.03,"N_COORD97":2557821.3100000001,"ADDRESS":"\u25A0張\u25A0９號之５","OBJECTID":142442},"geometry":{"x":169268.03000000119,"y":2557821.3099999987}},{"attributes":{"ID":142443,"DIS_CODE":0,"TOWNNAME":"西港區","LI":"港東里","LIN":"1鄰","STREET":" ","SECT":" ","MAREA":"\u25A0張\u25A0","LANE":" ","ALLEY":" ","HOUSE_NO":"９號之６","E_COORD97":169267.17999999999,"N_COORD97":2557825.3900000001,"ADDRESS":"\u25A0張\u25A0９號之６","OBJECTID":142443},"geometry":{"x":169267.1799999997,"y":2557825.3900000025}},{"attributes":{"ID":142444,"DIS_CODE":0,"TOWNNAME":"西港區","LI":"港東里","LIN":"1鄰","STREET":" ","SECT":" ","MAREA":"\u25A0張\u25A0","LANE":" ","ALLEY":" ","HOUSE_NO":"９號之７","E_COORD97":169266.54000000001,"N_COORD97":2557829.73,"ADDRESS":"\u25A0張\u25A0９號之７","OBJECTID":142444},"geometry":{"x":169266.54000000097,"y":2557829.7300000023}},{"attributes":{"ID":142445,"DIS_CODE":0,"TOWNNAME":"西港區","LI":"港東里","LIN":"1鄰","STREET":" ","SECT":" ","MAREA":"\u25A0張\u25A0","LANE":" ","ALLEY":" ","HOUSE_NO":"９號之８","E_COORD97":169265.92000000001,"N_COORD97":2557833.8199999998,"ADDRESS":"\u25A0張\u25A0９號之８","OBJECTID":142445},"geometry":{"x":169265.91999999993,"y":2557833.8200000003}},{"attributes":{"ID":142446,"DIS_CODE":0,"TOWNNAME":"西港區","LI":"港東里","LIN":"1鄰","STREET":" ","SECT":" ","MAREA":"\u25A0張\u25A0","LANE":" ","ALLEY":" ","HOUSE_NO":"９號之９","E_COORD97":169264.92999999999,"N_COORD97":2557839.5099999998,"ADDRESS":"\u25A0張\u25A0９號之９","OBJECTID":142446},"geometry":{"x":169264.93000000063,"y":2557839.5099999979}},{"attributes":{"ID":142447,"DIS_CODE":0,"TOWNNAME":"西港區","LI":"港東里","LIN":"1鄰","STREET":" ","SECT":" ","MAREA":"\u25A0張\u25A0","LANE":" ","ALLEY":" ","HOUSE_NO":"９號","E_COORD97":169270.31,"N_COORD97":2557800.2400000002,"ADDRESS":"\u25A0張\u25A0９號","OBJECTID":142447},"geometry":{"x":169270.31000000145,"y":2557800.2400000002}},{"attributes":{"ID":142448,"DIS_CODE":0,"TOWNNAME":"安南區","LI":"長安里","LIN":"22鄰","STREET":"公學路","SECT":"二段","MAREA":" ","LANE":"９巷","ALLEY":"２弄","HOUSE_NO":"３８號","E_COORD97":167808.42000000001,"N_COORD97":2552480.1899999999,"ADDRESS":"公學路二段９巷２弄３８號","OBJECTID":142448},"geometry":{"x":167808.41999999993,"y":2552480.1899999995}},{"attributes":{"ID":142449,"DIS_CODE":0,"TOWNNAME":"官田區","LI":"社子里","LIN":"12鄰","STREET":" ","SECT":" ","MAREA":"六\u25A0","LANE":" ","ALLEY":" ","HOUSE_NO":"１６號之１","E_COORD97":185108.10999999999,"N_COORD97":2562830.1600000001,"ADDRESS":"六\u25A0１６號之１","OBJECTID":142449},"geometry":{"x":185108.11000000034,"y":2562830.160000002}},{"attributes":{"ID":142450,"DIS_CODE":0,"TOWNNAME":"西港區","LI":"港東里","LIN":" ","STREET":" ","SECT":" ","MAREA":"下面厝","LANE":" ","ALLEY":" ","HOUSE_NO":"２１之１號","E_COORD97":169731.44,"N_COORD97":2557902.8599999999,"ADDRESS":"下面厝２１之１號","OBJECTID":142450},"geometry":{"x":169731.44000000227,"y":2557902.8600000013}},{"attributes":{"ID":142451,"DIS_CODE":0,"TOWNNAME":"西港區","LI":"港東里","LIN":" ","STREET":" ","SECT":" ","MAREA":"下面厝","LANE":" ","ALLEY":" ","HOUSE_NO":"８之７號","E_COORD97":169776.12,"N_COORD97":2557733.96,"ADDRESS":"下面厝８之７號","OBJECTID":142451},"geometry":{"x":169776.12000000104,"y":2557733.9600000028}},{"attributes":{"ID":142452,"DIS_CODE":0,"TOWNNAME":"西港區","LI":"檨林里","LIN":"12鄰","STREET":" ","SECT":" ","MAREA":"檨子林","LANE":" ","ALLEY":" ","HOUSE_NO":"１００號","E_COORD97":171128.75,"N_COORD97":2559981.7799999998,"ADDRESS":"檨子林１００號","OBJECTID":142452},"geometry":{"x":171128.75,"y":2559981.7800000012}},{"attributes":{"ID":142453,"DIS_CODE":0,"TOWNNAME":"仁德區","LI":"三甲里","LIN":"5鄰","STREET":" ","SECT":" ","MAREA":"三甲子","LANE":" ","ALLEY":" ","HOUSE_NO":"４７之３號","E_COORD97":171911.12,"N_COORD97":2536709.7999999998,"ADDRESS":"三甲子４７之３號","OBJECTID":142453},"geometry":{"x":171911.12000000011,"y":2536709.7999999989}},{"attributes":{"ID":142454,"DIS_CODE":0,"TOWNNAME":"西港區","LI":"金砂里","LIN":" ","STREET":" ","SECT":" ","MAREA":"下宅子","LANE":" ","ALLEY":" ","HOUSE_NO":"５之４號","E_COORD97":167677.66,"N_COORD97":2561139.1699999999,"ADDRESS":"下宅子５之４號","OBJECTID":142454},"geometry":{"x":167677.66000000015,"y":2561139.1700000018}},{"attributes":{"ID":142455,"DIS_CODE":0,"TOWNNAME":"西港區","LI":"港東里","LIN":" ","STREET":" ","SECT":" ","MAREA":"八份","LANE":" ","ALLEY":" ","HOUSE_NO":"２４之５號","E_COORD97":170352.89000000001,"N_COORD97":2558577.4199999999,"ADDRESS":"八份２４之５號","OBJECTID":142455},"geometry":{"x":170352.88999999873,"y":2558577.4200000018}},{"attributes":{"ID":142456,"DIS_CODE":0,"TOWNNAME":"西港區","LI":"港東里","LIN":" ","STREET":" ","SECT":" ","MAREA":"八份","LANE":" ","ALLEY":" ","HOUSE_NO":"３１之１號","E_COORD97":170023.76000000001,"N_COORD97":2558636.1400000001,"ADDRESS":"八份３１之１號","OBJECTID":142456},"geometry":{"x":170023.76000000071,"y":2558636.1400000006}},{"attributes":{"ID":142457,"DIS_CODE":0,"TOWNNAME":"歸仁區","LI":"後市里","LIN":"33鄰","STREET":"文化街","SECT":"二段","MAREA":" ","LANE":" ","ALLEY":" ","HOUSE_NO":"４７號","E_COORD97":177416.89000000001,"N_COORD97":2541104.7599999998,"ADDRESS":"文化街二段４７號","OBJECTID":142457},"geometry":{"x":177416.89000000153,"y":2541104.7600000016}},{"attributes":{"ID":142458,"DIS_CODE":0,"TOWNNAME":"歸仁區","LI":"南興里","LIN":"33鄰","STREET":"文化九街","SECT":" ","MAREA":" ","LANE":" ","ALLEY":" ","HOUSE_NO":"１６號","E_COORD97":176352.64000000001,"N_COORD97":2541144.3300000001,"ADDRESS":"文化九街１６號","OBJECTID":142458},"geometry":{"x":176352.6400000006,"y":2541144.3300000019}},{"attributes":{"ID":142459,"DIS_CODE":0,"TOWNNAME":"歸仁區","LI":"六甲里","LIN":"33鄰","STREET":"六甲六街","SECT":" ","MAREA":" ","LANE":" ","ALLEY":" ","HOUSE_NO":"２號","E_COORD97":175621.12,"N_COORD97":2539248.25,"ADDRESS":"六甲六街２號","OBJECTID":142459},"geometry":{"x":175621.12000000104,"y":2539248.25}},{"attributes":{"ID":142460,"DIS_CODE":0,"TOWNNAME":"安南區","LI":"長安里","LIN":"22鄰","STREET":"公學路","SECT":"二段","MAREA":" ","LANE":"９巷","ALLEY":"２弄","HOUSE_NO":"４０號","E_COORD97":167806.78,"N_COORD97":2552476.2000000002,"ADDRESS":"公學路二段９巷２弄４０號","OBJECTID":142460},"geometry":{"x":167806.78000000119,"y":2552476.1999999993}},{"attributes":{"ID":142461,"DIS_CODE":0,"TOWNNAME":"西港區","LI":"港東里","LIN":" ","STREET":" ","SECT":" ","MAREA":"八份","LANE":" ","ALLEY":" ","HOUSE_NO":"５５號","E_COORD97":170052.41,"N_COORD97":2558561.6099999999,"ADDRESS":"八份５５號","OBJECTID":142461},"geometry":{"x":170052.41000000108,"y":2558561.6100000013}},{"attributes":{"ID":142462,"DIS_CODE":0,"TOWNNAME":"歸仁區","LI":"六甲里","LIN":"33鄰","STREET":"六甲六街","SECT":" ","MAREA":" ","LANE":" ","ALLEY":" ","HOUSE_NO":"２６號","E_COORD97":175666.54962199999,"N_COORD97":2539311.40478,"ADDRESS":"六甲六街２６號","OBJECTID":142462},"geometry":{"x":175666.5496220002,"y":2539311.4047820047}},{"attributes":{"ID":142463,"DIS_CODE":0,"TOWNNAME":"西港區","LI":"港東里","LIN":" ","STREET":" ","SECT":" ","MAREA":"八份","LANE":" ","ALLEY":" ","HOUSE_NO":"５８號","E_COORD97":170074.29000000001,"N_COORD97":2558563.27,"ADDRESS":"八份５８號","OBJECTID":142463},"geometry":{"x":170074.28999999911,"y":2558563.2700000033}},{"attributes":{"ID":142464,"DIS_CODE":0,"TOWNNAME":"安南區","LI":"長安里","LIN":"22鄰","STREET":"公學路","SECT":"二段","MAREA":" ","LANE":"９巷","ALLEY":"２弄","HOUSE_NO":"４１號","E_COORD97":167831.45000000001,"N_COORD97":2552462.73,"ADDRESS":"公學路二段９巷２弄４１號","OBJECTID":142464},"geometry":{"x":167831.45000000112,"y":2552462.7300000023}},{"attributes":{"ID":142465,"DIS_CODE":0,"TOWNNAME":"安南區","LI":"長安里","LIN":"22鄰","STREET":"公學路","SECT":"二段","MAREA":" ","LANE":"９巷","ALLEY":"２弄","HOUSE_NO":"４２號","E_COORD97":167804.98999999999,"N_COORD97":2552472.23,"ADDRESS":"公學路二段９巷２弄４２號","OBJECTID":142465},"geometry":{"x":167804.98999999929,"y":2552472.2300000042}},{"attributes":{"ID":142466,"DIS_CODE":0,"TOWNNAME":"安南區","LI":"長安里","LIN":"22鄰","STREET":"公學路","SECT":"二段","MAREA":" ","LANE":"９巷","ALLEY":"２弄","HOUSE_NO":"４３號","E_COORD97":167831.26000000001,"N_COORD97":2552457.8300000001,"ADDRESS":"公學路二段９巷２弄４３號","OBJECTID":142466},"geometry":{"x":167831.25999999978,"y":2552457.8300000019}},{"attributes":{"ID":142467,"DIS_CODE":0,"TOWNNAME":"安南區","LI":"長安里","LIN":"22鄰","STREET":"公學路","SECT":"二段","MAREA":" ","LANE":"９巷","ALLEY":"２弄","HOUSE_NO":"４４號","E_COORD97":167803.35999999999,"N_COORD97":2552467.3999999999,"ADDRESS":"公學路二段９巷２弄４４號","OBJECTID":142467},"geometry":{"x":167803.36000000127,"y":2552467.4000000041}},{"attributes":{"ID":142468,"DIS_CODE":0,"TOWNNAME":"安南區","LI":"長安里","LIN":"22鄰","STREET":"公學路","SECT":"二段","MAREA":" ","LANE":"９巷","ALLEY":"２弄","HOUSE_NO":"４５號","E_COORD97":167829.26000000001,"N_COORD97":2552453.8300000001,"ADDRESS":"公學路二段９巷２弄４５號","OBJECTID":142468},"geometry":{"x":167829.25999999978,"y":2552453.8300000038}},{"attributes":{"ID":142469,"DIS_CODE":0,"TOWNNAME":"安南區","LI":"長安里","LIN":"22鄰","STREET":"公學路","SECT":"二段","MAREA":" ","LANE":"９巷","ALLEY":"２弄","HOUSE_NO":"４６號","E_COORD97":167801.82999999999,"N_COORD97":2552463.21,"ADDRESS":"公學路二段９巷２弄４６號","OBJECTID":142469},"geometry":{"x":167801.83000000007,"y":2552463.2100000028}},{"attributes":{"ID":142470,"DIS_CODE":0,"TOWNNAME":"西港區","LI":"港東里","LIN":" ","STREET":" ","SECT":" ","MAREA":"八份","LANE":" ","ALLEY":" ","HOUSE_NO":"６３號","E_COORD97":170072.09,"N_COORD97":2558592.0600000001,"ADDRESS":"八份６３號","OBJECTID":142470},"geometry":{"x":170072.09000000171,"y":2558592.0600000005}},{"attributes":{"ID":142471,"DIS_CODE":0,"TOWNNAME":"安南區","LI":"長安里","LIN":"22鄰","STREET":"公學路","SECT":"二段","MAREA":" ","LANE":"９巷","ALLEY":"２弄","HOUSE_NO":"４７號","E_COORD97":167826.73999999999,"N_COORD97":2552450.0699999998,"ADDRESS":"公學路二段９巷２弄４７號","OBJECTID":142471},"geometry":{"x":167826.74000000022,"y":2552450.0700000022}},{"attributes":{"ID":142472,"DIS_CODE":0,"TOWNNAME":"安南區","LI":"長安里","LIN":"22鄰","STREET":"公學路","SECT":"二段","MAREA":" ","LANE":"９巷","ALLEY":"２弄","HOUSE_NO":"４８號","E_COORD97":167799.39000000001,"N_COORD97":2552459.48,"ADDRESS":"公學路二段９巷２弄４８號","OBJECTID":142472},"geometry":{"x":167799.38999999966,"y":2552459.4800000004}},{"attributes":{"ID":142473,"DIS_CODE":0,"TOWNNAME":"西港區","LI":"港東里","LIN":" ","STREET":" ","SECT":" ","MAREA":"八份","LANE":" ","ALLEY":" ","HOUSE_NO":"８５之３號","E_COORD97":170106.54000000001,"N_COORD97":2558348.0699999998,"ADDRESS":"八份８５之３號","OBJECTID":142473},"geometry":{"x":170106.5400000019,"y":2558348.0700000003}},{"attributes":{"ID":142474,"DIS_CODE":0,"TOWNNAME":"西港區","LI":"港東里","LIN":" ","STREET":" ","SECT":" ","MAREA":"八份","LANE":" ","ALLEY":" ","HOUSE_NO":"９４之１號","E_COORD97":169886.95999999999,"N_COORD97":2558640.71,"ADDRESS":"八份９４之１號","OBJECTID":142474},"geometry":{"x":169886.96000000089,"y":2558640.7100000028}},{"attributes":{"ID":142475,"DIS_CODE":0,"TOWNNAME":"西港區","LI":"檨林里","LIN":" ","STREET":" ","SECT":" ","MAREA":"三合寮","LANE":" ","ALLEY":" ","HOUSE_NO":"１９號","E_COORD97":170973.89999999999,"N_COORD97":2559484.5800000001,"ADDRESS":"三合寮１９號","OBJECTID":142475},"geometry":{"x":170973.90000000037,"y":2559484.5800000019}},{"attributes":{"ID":142476,"DIS_CODE":0,"TOWNNAME":"西港區","LI":"檨林里","LIN":" ","STREET":" ","SECT":" ","MAREA":"三合寮","LANE":" ","ALLEY":" ","HOUSE_NO":"１之２號","E_COORD97":170724.29000000001,"N_COORD97":2559543.9300000002,"ADDRESS":"三合寮１之２號","OBJECTID":142476},"geometry":{"x":170724.29000000097,"y":2559543.9299999997}},{"attributes":{"ID":142477,"DIS_CODE":0,"TOWNNAME":"西港區","LI":"金砂里","LIN":" ","STREET":" ","SECT":" ","MAREA":"下宅子","LANE":" ","ALLEY":" ","HOUSE_NO":"１６之１號","E_COORD97":167565.82999999999,"N_COORD97":2561667.3399999999,"ADDRESS":"下宅子１６之１號","OBJECTID":142477},"geometry":{"x":167565.83000000101,"y":2561667.3399999999}},{"attributes":{"ID":142478,"DIS_CODE":0,"TOWNNAME":"安南區","LI":"長安里","LIN":"22鄰","STREET":"公學路","SECT":"二段","MAREA":" ","LANE":"９巷","ALLEY":"２弄","HOUSE_NO":"４９號","E_COORD97":167824.73999999999,"N_COORD97":2552446.0099999998,"ADDRESS":"公學路二段９巷２弄４９號","OBJECTID":142478},"geometry":{"x":167824.74000000022,"y":2552446.0100000016}},{"attributes":{"ID":142479,"DIS_CODE":0,"TOWNNAME":"西港區","LI":"竹林里","LIN":" ","STREET":" ","SECT":" ","MAREA":"大竹林","LANE":" ","ALLEY":" ","HOUSE_NO":"１２８之１號","E_COORD97":166751.25,"N_COORD97":2557978.75,"ADDRESS":"大竹林１２８之１號","OBJECTID":142479},"geometry":{"x":166751.25,"y":2557978.7500000019}},{"attributes":{"ID":142480,"DIS_CODE":0,"TOWNNAME":"歸仁區","LI":"南興里","LIN":"33鄰","STREET":"文化九街","SECT":" ","MAREA":" ","LANE":" ","ALLEY":" ","HOUSE_NO":"１２號","E_COORD97":176352.64000000001,"N_COORD97":2541151.3300000001,"ADDRESS":"文化九街１２號","OBJECTID":142480},"geometry":{"x":176352.6400000006,"y":2541151.3300000019}},{"attributes":{"ID":142481,"DIS_CODE":0,"TOWNNAME":"西港區","LI":"竹林里","LIN":" ","STREET":" ","SECT":" ","MAREA":"大竹林","LANE":" ","ALLEY":" ","HOUSE_NO":"１３４之１號","E_COORD97":166813.17000000001,"N_COORD97":2558044.48,"ADDRESS":"大竹林１３４之１號","OBJECTID":142481},"geometry":{"x":166813.16999999993,"y":2558044.4800000023}},{"attributes":{"ID":142482,"DIS_CODE":0,"TOWNNAME":"西港區","LI":"竹林里","LIN":" ","STREET":" ","SECT":" ","MAREA":"大竹林","LANE":" ","ALLEY":" ","HOUSE_NO":"１４１之２號","E_COORD97":166876.10999999999,"N_COORD97":2558112.9700000002,"ADDRESS":"大竹林１４１之２號","OBJECTID":142482},"geometry":{"x":166876.11000000127,"y":2558112.9700000025}},{"attributes":{"ID":142483,"DIS_CODE":0,"TOWNNAME":"西港區","LI":"竹林里","LIN":" ","STREET":" ","SECT":" ","MAREA":"大竹林","LANE":" ","ALLEY":" ","HOUSE_NO":"１４１之６號","E_COORD97":166873.07000000001,"N_COORD97":2558129.73,"ADDRESS":"大竹林１４１之６號","OBJECTID":142483},"geometry":{"x":166873.07000000123,"y":2558129.7300000004}},{"attributes":{"ID":142484,"DIS_CODE":0,"TOWNNAME":"西港區","LI":"竹林里","LIN":" ","STREET":" ","SECT":" ","MAREA":"大竹林","LANE":" ","ALLEY":" ","HOUSE_NO":"１４６之１號","E_COORD97":166962.20000000001,"N_COORD97":2558098.3199999998,"ADDRESS":"大竹林１４６之１號","OBJECTID":142484},"geometry":{"x":166962.20000000019,"y":2558098.3200000003}},{"attributes":{"ID":142485,"DIS_CODE":0,"TOWNNAME":"西港區","LI":"竹林里","LIN":" ","STREET":" ","SECT":" ","MAREA":"大竹林","LANE":" ","ALLEY":" ","HOUSE_NO":"１４號","E_COORD97":166493.51000000001,"N_COORD97":2557915.6400000001,"ADDRESS":"大竹林１４號","OBJECTID":142485},"geometry":{"x":166493.50999999978,"y":2557915.6400000025}},{"attributes":{"ID":142486,"DIS_CODE":0,"TOWNNAME":"西港區","LI":"竹林里","LIN":" ","STREET":" ","SECT":" ","MAREA":"大竹林","LANE":" ","ALLEY":" ","HOUSE_NO":"１５１號","E_COORD97":166944.97,"N_COORD97":2558084.3999999999,"ADDRESS":"大竹林１５１號","OBJECTID":142486},"geometry":{"x":166944.96999999974,"y":2558084.4000000004}},{"attributes":{"ID":142487,"DIS_CODE":0,"TOWNNAME":"西港區","LI":"竹林里","LIN":" ","STREET":" ","SECT":" ","MAREA":"大竹林","LANE":" ","ALLEY":" ","HOUSE_NO":"１５５之１號","E_COORD97":166897.85000000001,"N_COORD97":2558034.29,"ADDRESS":"大竹林１５５之１號","OBJECTID":142487},"geometry":{"x":166897.84999999963,"y":2558034.290000001}},{"attributes":{"ID":142488,"DIS_CODE":0,"TOWNNAME":"西港區","LI":"竹林里","LIN":"18鄰","STREET":" ","SECT":" ","MAREA":"大竹林","LANE":" ","ALLEY":" ","HOUSE_NO":"１６１之１１號","E_COORD97":166866.12,"N_COORD97":2557978.5600000001,"ADDRESS":"大竹林１６１之１１號","OBJECTID":142488},"geometry":{"x":166866.12000000011,"y":2557978.5600000005}},{"attributes":{"ID":142489,"DIS_CODE":0,"TOWNNAME":"西港區","LI":"竹林里","LIN":"18鄰","STREET":" ","SECT":" ","MAREA":"大竹林","LANE":" ","ALLEY":" ","HOUSE_NO":"１６１之１２號","E_COORD97":166867.29000000001,"N_COORD97":2557973.3700000001,"ADDRESS":"大竹林１６１之１２號","OBJECTID":142489},"geometry":{"x":166867.29000000097,"y":2557973.370000001}},{"attributes":{"ID":142490,"DIS_CODE":0,"TOWNNAME":"玉井區","LI":"玉田里","LIN":"33鄰","STREET":"忠孝街","SECT":" ","MAREA":" ","LANE":" ","ALLEY":" ","HOUSE_NO":"２７６號","E_COORD97":195525.32999999999,"N_COORD97":2558112.25,"ADDRESS":"忠孝街２７６號","OBJECTID":142490},"geometry":{"x":195525.33000000007,"y":2558112.25}},{"attributes":{"ID":142491,"DIS_CODE":0,"TOWNNAME":"玉井區","LI":"玉田里","LIN":"33鄰","STREET":"忠孝街","SECT":" ","MAREA":" ","LANE":" ","ALLEY":" ","HOUSE_NO":"２８０號","E_COORD97":195525.84,"N_COORD97":2558120.25,"ADDRESS":"忠孝街２８０號","OBJECTID":142491},"geometry":{"x":195525.84000000078,"y":2558120.2500000019}},{"attributes":{"ID":142492,"DIS_CODE":0,"TOWNNAME":"玉井區","LI":"玉田里","LIN":"33鄰","STREET":"忠孝街","SECT":" ","MAREA":" ","LANE":" ","ALLEY":" ","HOUSE_NO":"３３０號","E_COORD97":195526.23000000001,"N_COORD97":2558219.25,"ADDRESS":"忠孝街３３０號","OBJECTID":142492},"geometry":{"x":195526.23000000045,"y":2558219.2500000019}},{"attributes":{"ID":142493,"DIS_CODE":0,"TOWNNAME":"玉井區","LI":"玉田里","LIN":"33鄰","STREET":"忠孝街","SECT":" ","MAREA":" ","LANE":" ","ALLEY":" ","HOUSE_NO":"３４２號","E_COORD97":195525.14000000001,"N_COORD97":2558242.25,"ADDRESS":"忠孝街３４２號","OBJECTID":142493},"geometry":{"x":195525.1400000006,"y":2558242.2500000019}},{"attributes":{"ID":142494,"DIS_CODE":0,"TOWNNAME":"安南區","LI":"長安里","LIN":"22鄰","STREET":"公學路","SECT":"二段","MAREA":" ","LANE":"９巷","ALLEY":"２弄","HOUSE_NO":"４號","E_COORD97":167836.75,"N_COORD97":2552552.7400000002,"ADDRESS":"公學路二段９巷２弄４號","OBJECTID":142494},"geometry":{"x":167836.75,"y":2552552.7400000002}},{"attributes":{"ID":142495,"DIS_CODE":0,"TOWNNAME":"安南區","LI":"長安里","LIN":"22鄰","STREET":"公學路","SECT":"二段","MAREA":" ","LANE":"９巷","ALLEY":"２弄","HOUSE_NO":"５０號","E_COORD97":167797.64000000001,"N_COORD97":2552455.3500000001,"ADDRESS":"公學路二段９巷２弄５０號","OBJECTID":142495},"geometry":{"x":167797.63999999966,"y":2552455.3499999996}},{"attributes":{"ID":142496,"DIS_CODE":0,"TOWNNAME":"安南區","LI":"長安里","LIN":"22鄰","STREET":"公學路","SECT":"二段","MAREA":" ","LANE":"９巷","ALLEY":"２弄","HOUSE_NO":"５１號","E_COORD97":167822.22,"N_COORD97":2552441.8799999999,"ADDRESS":"公學路二段９巷２弄５１號","OBJECTID":142496},"geometry":{"x":167822.22000000067,"y":2552441.879999999}},{"attributes":{"ID":142497,"DIS_CODE":0,"TOWNNAME":"安南區","LI":"長安里","LIN":"22鄰","STREET":"公學路","SECT":"二段","MAREA":" ","LANE":"９巷","ALLEY":"２弄","HOUSE_NO":"５２號","E_COORD97":167794.37,"N_COORD97":2552451.2000000002,"ADDRESS":"公學路二段９巷２弄５２號","OBJECTID":142497},"geometry":{"x":167794.37000000104,"y":2552451.2000000011}},{"attributes":{"ID":142498,"DIS_CODE":0,"TOWNNAME":"安南區","LI":"長安里","LIN":"22鄰","STREET":"公學路","SECT":"二段","MAREA":" ","LANE":"９巷","ALLEY":"２弄","HOUSE_NO":"５３號","E_COORD97":167819.25,"N_COORD97":2552437.1099999999,"ADDRESS":"公學路二段９巷２弄５３號","OBJECTID":142498},"geometry":{"x":167819.25,"y":2552437.1099999994}},{"attributes":{"ID":142499,"DIS_CODE":0,"TOWNNAME":"玉井區","LI":"玉田里","LIN":"33鄰","STREET":"忠孝街","SECT":" ","MAREA":" ","LANE":" ","ALLEY":" ","HOUSE_NO":"２８２號","E_COORD97":195525.73000000001,"N_COORD97":2558126.25,"ADDRESS":"忠孝街２８２號","OBJECTID":142499},"geometry":{"x":195525.73000000138,"y":2558126.25}},{"attributes":{"ID":142500,"DIS_CODE":0,"TOWNNAME":"歸仁區","LI":"六甲里","LIN":"33鄰","STREET":"六甲路","SECT":" ","MAREA":" ","LANE":" ","ALLEY":" ","HOUSE_NO":"３２０號","E_COORD97":175661.252936,"N_COORD97":2539237.85066,"ADDRESS":"六甲路３２０號","OBJECTID":142500},"geometry":{"x":175661.25293600187,"y":2539237.8506549988}},{"attributes":{"ID":142501,"DIS_CODE":0,"TOWNNAME":"安南區","LI":"長安里","LIN":"22鄰","STREET":"公學路","SECT":"二段","MAREA":" ","LANE":"９巷","ALLEY":"２弄","HOUSE_NO":"６號","E_COORD97":167835.13,"N_COORD97":2552548.21,"ADDRESS":"公學路二段９巷２弄６號","OBJECTID":142501},"geometry":{"x":167835.12999999989,"y":2552548.2100000028}},{"attributes":{"ID":142502,"DIS_CODE":0,"TOWNNAME":"安南區","LI":"長安里","LIN":"22鄰","STREET":"公學路","SECT":"二段","MAREA":" ","LANE":"９巷","ALLEY":"２弄","HOUSE_NO":"８號","E_COORD97":167833.5,"N_COORD97":2552544.1800000002,"ADDRESS":"公學路二段９巷２弄８號","OBJECTID":142502},"geometry":{"x":167833.49999999907,"y":2552544.1800000016}},{"attributes":{"ID":142503,"DIS_CODE":0,"TOWNNAME":"永康區","LI":"崑山里","LIN":"5鄰","STREET":"崑大路","SECT":" ","MAREA":" ","LANE":"１５５巷","ALLEY":"７９弄","HOUSE_NO":"３號","E_COORD97":173622.95999999999,"N_COORD97":2544057.3399999999,"ADDRESS":"崑大路１５５巷７９弄３號","OBJECTID":142503},"geometry":{"x":173622.96000000183,"y":2544057.3400000017}},{"attributes":{"ID":142504,"DIS_CODE":0,"TOWNNAME":"永康區","LI":"烏竹里","LIN":"13鄰","STREET":"龍橋街","SECT":" ","MAREA":" ","LANE":"３５０巷","ALLEY":"１３弄","HOUSE_NO":"２號之１","E_COORD97":174532.67999999999,"N_COORD97":2549154.7200000002,"ADDRESS":"龍橋街３５０巷１３弄２號之１","OBJECTID":142504},"geometry":{"x":174532.6799999997,"y":2549154.7200000025}},{"attributes":{"ID":142505,"DIS_CODE":0,"TOWNNAME":"歸仁區","LI":"南保里","LIN":"33鄰","STREET":"中山路","SECT":"三段","MAREA":" ","LANE":" ","ALLEY":" ","HOUSE_NO":"９６號","E_COORD97":176766.54000000001,"N_COORD97":2540899.9700000002,"ADDRESS":"中山路三段９６號","OBJECTID":142505},"geometry":{"x":176766.54000000004,"y":2540899.9700000025}},{"attributes":{"ID":142506,"DIS_CODE":0,"TOWNNAME":"西港區","LI":"竹林里","LIN":" ","STREET":" ","SECT":" ","MAREA":"大竹林","LANE":" ","ALLEY":" ","HOUSE_NO":"１６５之４號","E_COORD97":166914.51999999999,"N_COORD97":2557794.3999999999,"ADDRESS":"大竹林１６５之４號","OBJECTID":142506},"geometry":{"x":166914.52000000048,"y":2557794.4000000022}},{"attributes":{"ID":142507,"DIS_CODE":0,"TOWNNAME":"西港區","LI":"竹林里","LIN":" ","STREET":" ","SECT":" ","MAREA":"大竹林","LANE":" ","ALLEY":" ","HOUSE_NO":"２之２號","E_COORD97":166799.09,"N_COORD97":2557758.7400000002,"ADDRESS":"大竹林２之２號","OBJECTID":142507},"geometry":{"x":166799.09000000078,"y":2557758.7400000021}},{"attributes":{"ID":142508,"DIS_CODE":0,"TOWNNAME":"西港區","LI":"竹林里","LIN":" ","STREET":" ","SECT":" ","MAREA":"大竹林","LANE":" ","ALLEY":" ","HOUSE_NO":"３２之１號","E_COORD97":166602.66,"N_COORD97":2558249.4100000001,"ADDRESS":"大竹林３２之１號","OBJECTID":142508},"geometry":{"x":166602.66000000108,"y":2558249.4100000001}},{"attributes":{"ID":142509,"DIS_CODE":0,"TOWNNAME":"西港區","LI":"竹林里","LIN":" ","STREET":" ","SECT":" ","MAREA":"大竹林","LANE":" ","ALLEY":" ","HOUSE_NO":"３３之２號","E_COORD97":166507.17000000001,"N_COORD97":2558254.48,"ADDRESS":"大竹林３３之２號","OBJECTID":142509},"geometry":{"x":166507.17000000086,"y":2558254.4800000042}},{"attributes":{"ID":142510,"DIS_CODE":0,"TOWNNAME":"西港區","LI":"竹林里","LIN":" ","STREET":" ","SECT":" ","MAREA":"大竹林","LANE":" ","ALLEY":" ","HOUSE_NO":"５４號","E_COORD97":166665.57000000001,"N_COORD97":2558223.4700000002,"ADDRESS":"大竹林５４號","OBJECTID":142510},"geometry":{"x":166665.57000000216,"y":2558223.4700000007}},{"attributes":{"ID":142511,"DIS_CODE":0,"TOWNNAME":"西港區","LI":"竹林里","LIN":" ","STREET":" ","SECT":" ","MAREA":"大竹林","LANE":" ","ALLEY":" ","HOUSE_NO":"５８之１號","E_COORD97":166725.28,"N_COORD97":2558171.1499999999,"ADDRESS":"大竹林５８之１號","OBJECTID":142511},"geometry":{"x":166725.28000000119,"y":2558171.1500000004}},{"attributes":{"ID":142512,"DIS_CODE":0,"TOWNNAME":"新營區","LI":"新北里","LIN":"33鄰","STREET":"新北八街","SECT":" ","MAREA":" ","LANE":" ","ALLEY":" ","HOUSE_NO":"６０號","E_COORD97":178758.04999999999,"N_COORD97":2579198.8100000001,"ADDRESS":"新北八街６０號","OBJECTID":142512},"geometry":{"x":178758.04999999981,"y":2579198.8100000024}},{"attributes":{"ID":142513,"DIS_CODE":0,"TOWNNAME":"新營區","LI":"南興里","LIN":"33鄰","STREET":"新進路","SECT":"二段","MAREA":" ","LANE":" ","ALLEY":" ","HOUSE_NO":"２１５之５號","E_COORD97":179106.62,"N_COORD97":2577719.8700000001,"ADDRESS":"新進路二段２１５之５號","OBJECTID":142513},"geometry":{"x":179106.62000000104,"y":2577719.8700000048}},{"attributes":{"ID":142514,"DIS_CODE":0,"TOWNNAME":"永康區","LI":"神洲里","LIN":"8鄰","STREET":"忠孝路","SECT":" ","MAREA":" ","LANE":"６巷","ALLEY":"１５弄","HOUSE_NO":"８號","E_COORD97":172200.09,"N_COORD97":2544614.9900000002,"ADDRESS":"忠孝路６巷１５弄８號","OBJECTID":142514},"geometry":{"x":172200.09000000078,"y":2544614.9900000021}},{"attributes":{"ID":142515,"DIS_CODE":0,"TOWNNAME":"新營區","LI":"新北里","LIN":"33鄰","STREET":"新北八街","SECT":" ","MAREA":" ","LANE":" ","ALLEY":" ","HOUSE_NO":"５４號","E_COORD97":178745.76999999999,"N_COORD97":2579197.7599999998,"ADDRESS":"新北八街５４號","OBJECTID":142515},"geometry":{"x":178745.76999999955,"y":2579197.7600000016}},{"attributes":{"ID":142516,"DIS_CODE":0,"TOWNNAME":"西港區","LI":"竹林里","LIN":" ","STREET":" ","SECT":" ","MAREA":"大竹林","LANE":" ","ALLEY":" ","HOUSE_NO":"７９號","E_COORD97":166604.29999999999,"N_COORD97":2558137.1000000001,"ADDRESS":"大竹林７９號","OBJECTID":142516},"geometry":{"x":166604.30000000075,"y":2558137.0999999978}},{"attributes":{"ID":142517,"DIS_CODE":0,"TOWNNAME":"西港區","LI":"竹林里","LIN":" ","STREET":" ","SECT":" ","MAREA":"大竹林","LANE":" ","ALLEY":" ","HOUSE_NO":"８７之１號","E_COORD97":166656.25,"N_COORD97":2558039.27,"ADDRESS":"大竹林８７之１號","OBJECTID":142517},"geometry":{"x":166656.25000000093,"y":2558039.2700000014}},{"attributes":{"ID":142518,"DIS_CODE":0,"TOWNNAME":"西港區","LI":"竹林里","LIN":" ","STREET":" ","SECT":" ","MAREA":"大竹林","LANE":" ","ALLEY":" ","HOUSE_NO":"８８之５號","E_COORD97":166629.26000000001,"N_COORD97":2558021.4700000002,"ADDRESS":"大竹林８８之５號","OBJECTID":142518},"geometry":{"x":166629.25999999978,"y":2558021.4700000025}},{"attributes":{"ID":142519,"DIS_CODE":0,"TOWNNAME":"西港區","LI":"永樂里","LIN":" ","STREET":" ","SECT":" ","MAREA":"大塭寮","LANE":" ","ALLEY":" ","HOUSE_NO":"５９之９號","E_COORD97":165891.25,"N_COORD97":2556109.4500000002,"ADDRESS":"大塭寮５９之９號","OBJECTID":142519},"geometry":{"x":165891.25000000093,"y":2556109.4499999993}},{"attributes":{"ID":142520,"DIS_CODE":0,"TOWNNAME":"西港區","LI":"永樂里","LIN":" ","STREET":" ","SECT":" ","MAREA":"大塭寮","LANE":" ","ALLEY":" ","HOUSE_NO":"６２之１號","E_COORD97":165956.54000000001,"N_COORD97":2556179.2400000002,"ADDRESS":"大塭寮６２之１號","OBJECTID":142520},"geometry":{"x":165956.54000000004,"y":2556179.2400000002}},{"attributes":{"ID":142521,"DIS_CODE":0,"TOWNNAME":"西港區","LI":"永樂里","LIN":" ","STREET":" ","SECT":" ","MAREA":"大塭寮","LANE":" ","ALLEY":" ","HOUSE_NO":"６３號","E_COORD97":165932.98999999999,"N_COORD97":2556149.98,"ADDRESS":"大塭寮６３號","OBJECTID":142521},"geometry":{"x":165932.99000000022,"y":2556149.9800000023}},{"attributes":{"ID":142522,"DIS_CODE":0,"TOWNNAME":"西港區","LI":"永樂里","LIN":" ","STREET":" ","SECT":" ","MAREA":"大塭寮","LANE":" ","ALLEY":" ","HOUSE_NO":"６５之１５號","E_COORD97":165974.60999999999,"N_COORD97":2556220.3900000001,"ADDRESS":"大塭寮６５之１５號","OBJECTID":142522},"geometry":{"x":165974.61000000034,"y":2556220.3900000006}},{"attributes":{"ID":142523,"DIS_CODE":0,"TOWNNAME":"西港區","LI":"永樂里","LIN":" ","STREET":" ","SECT":" ","MAREA":"大塭寮","LANE":" ","ALLEY":" ","HOUSE_NO":"９０之２號","E_COORD97":165683.70000000001,"N_COORD97":2556292.1099999999,"ADDRESS":"大塭寮９０之２號","OBJECTID":142523},"geometry":{"x":165683.70000000112,"y":2556292.1099999994}},{"attributes":{"ID":142524,"DIS_CODE":0,"TOWNNAME":"西港區","LI":"永樂里","LIN":" ","STREET":" ","SECT":" ","MAREA":"大塭寮","LANE":" ","ALLEY":" ","HOUSE_NO":"９５號","E_COORD97":165746.54999999999,"N_COORD97":2556205.1000000001,"ADDRESS":"大塭寮９５號","OBJECTID":142524},"geometry":{"x":165746.55000000075,"y":2556205.1000000015}},{"attributes":{"ID":142525,"DIS_CODE":0,"TOWNNAME":"西港區","LI":"西港里","LIN":" ","STREET":" ","SECT":" ","MAREA":"西港","LANE":" ","ALLEY":" ","HOUSE_NO":"１３號","E_COORD97":168450.13,"N_COORD97":2558021.5499999998,"ADDRESS":"西港１３號","OBJECTID":142525},"geometry":{"x":168450.13000000082,"y":2558021.5500000026}},{"attributes":{"ID":142526,"DIS_CODE":0,"TOWNNAME":"永康區","LI":"烏竹里","LIN":"16鄰","STREET":"自強路","SECT":" ","MAREA":" ","LANE":"９２５巷","ALLEY":"１１弄","HOUSE_NO":"３７號","E_COORD97":174677.57999999999,"N_COORD97":2548817.25,"ADDRESS":"自強路９２５巷１１弄３７號","OBJECTID":142526},"geometry":{"x":174677.58000000007,"y":2548817.2500000019}},{"attributes":{"ID":142527,"DIS_CODE":0,"TOWNNAME":"善化區","LI":"光文里","LIN":"22鄰","STREET":"光華路","SECT":" ","MAREA":" ","LANE":"３５巷","ALLEY":"４５弄","HOUSE_NO":"９號","E_COORD97":178518.37,"N_COORD97":2559236.75,"ADDRESS":"光華路３５巷４５弄９號","OBJECTID":142527},"geometry":{"x":178518.37000000104,"y":2559236.7500000019}},{"attributes":{"ID":142528,"DIS_CODE":0,"TOWNNAME":"西港區","LI":"西港里","LIN":" ","STREET":" ","SECT":" ","MAREA":"西港","LANE":" ","ALLEY":" ","HOUSE_NO":"１４之１號","E_COORD97":168430.04999999999,"N_COORD97":2558018.29,"ADDRESS":"西港１４之１號","OBJECTID":142528},"geometry":{"x":168430.05000000075,"y":2558018.290000001}},{"attributes":{"ID":142529,"DIS_CODE":0,"TOWNNAME":"善化區","LI":"光文里","LIN":"22鄰","STREET":"光華路","SECT":" ","MAREA":" ","LANE":"３５巷","ALLEY":"４５弄","HOUSE_NO":"３號","E_COORD97":178517.54000000001,"N_COORD97":2559249.5,"ADDRESS":"光華路３５巷４５弄３號","OBJECTID":142529},"geometry":{"x":178517.54000000004,"y":2559249.5}},{"attributes":{"ID":142530,"DIS_CODE":0,"TOWNNAME":"善化區","LI":"光文里","LIN":"22鄰","STREET":"光華路","SECT":" ","MAREA":" ","LANE":"３５巷","ALLEY":"４５弄","HOUSE_NO":"８號","E_COORD97":178507.81,"N_COORD97":2559244.75,"ADDRESS":"光華路３５巷４５弄８號","OBJECTID":142530},"geometry":{"x":178507.81000000052,"y":2559244.75}},{"attributes":{"ID":142531,"DIS_CODE":0,"TOWNNAME":"西港區","LI":"西港里","LIN":" ","STREET":" ","SECT":" ","MAREA":"西港","LANE":" ","ALLEY":" ","HOUSE_NO":"１４之２號","E_COORD97":168426.32999999999,"N_COORD97":2558017.6000000001,"ADDRESS":"西港１４之２號","OBJECTID":142531},"geometry":{"x":168426.32999999914,"y":2558017.5999999996}},{"attributes":{"ID":142532,"DIS_CODE":0,"TOWNNAME":"西港區","LI":"西港里","LIN":" ","STREET":" ","SECT":" ","MAREA":"西港","LANE":" ","ALLEY":" ","HOUSE_NO":"１之６３號","E_COORD97":168102.47,"N_COORD97":2559427.8900000001,"ADDRESS":"西港１之６３號","OBJECTID":142532},"geometry":{"x":168102.46999999974,"y":2559427.8899999987}},{"attributes":{"ID":142533,"DIS_CODE":0,"TOWNNAME":"永康區","LI":"崑山里","LIN":"12鄰","STREET":"大灣路","SECT":" ","MAREA":" ","LANE":"１１０２巷","ALLEY":"１７弄","HOUSE_NO":"１１２號","E_COORD97":173346.92000000001,"N_COORD97":2544672.7599999998,"ADDRESS":"大灣路１１０２巷１７弄１１２號","OBJECTID":142533},"geometry":{"x":173346.92000000179,"y":2544672.7599999998}},{"attributes":{"ID":142534,"DIS_CODE":0,"TOWNNAME":"西港區","LI":"西港里","LIN":" ","STREET":" ","SECT":" ","MAREA":"西港","LANE":" ","ALLEY":" ","HOUSE_NO":"２８之１號","E_COORD97":168513.48999999999,"N_COORD97":2557964.8399999999,"ADDRESS":"西港２８之１號","OBJECTID":142534},"geometry":{"x":168513.49000000022,"y":2557964.8399999999}},{"attributes":{"ID":142535,"DIS_CODE":0,"TOWNNAME":"永康區","LI":"崑山里","LIN":"9鄰","STREET":"崑大路","SECT":" ","MAREA":" ","LANE":"２０１巷","ALLEY":"５８弄","HOUSE_NO":"８號","E_COORD97":173288.84,"N_COORD97":2544177.7400000002,"ADDRESS":"崑大路２０１巷５８弄８號","OBJECTID":142535},"geometry":{"x":173288.83999999985,"y":2544177.7400000002}},{"attributes":{"ID":142536,"DIS_CODE":0,"TOWNNAME":"西港區","LI":"西港里","LIN":" ","STREET":" ","SECT":" ","MAREA":"西港","LANE":" ","ALLEY":" ","HOUSE_NO":"２之５號","E_COORD97":169030.26999999999,"N_COORD97":2558565.2999999998,"ADDRESS":"西港２之５號","OBJECTID":142536},"geometry":{"x":169030.27000000048,"y":2558565.3000000026}},{"attributes":{"ID":142537,"DIS_CODE":0,"TOWNNAME":"永康區","LI":"埔園里","LIN":"23鄰","STREET":"四維街","SECT":" ","MAREA":" ","LANE":"５８巷","ALLEY":"６弄","HOUSE_NO":"１８號","E_COORD97":173463.32999999999,"N_COORD97":2548020.2400000002,"ADDRESS":"四維街５８巷６弄１８號","OBJECTID":142537},"geometry":{"x":173463.33000000101,"y":2548020.2400000039}},{"attributes":{"ID":142538,"DIS_CODE":0,"TOWNNAME":"永康區","LI":"勝利里","LIN":"16鄰","STREET":"勝利街","SECT":" ","MAREA":" ","LANE":"１０７巷","ALLEY":"６３弄","HOUSE_NO":"８號","E_COORD97":171177.16,"N_COORD97":2544906.3700000001,"ADDRESS":"勝利街１０７巷６３弄８號","OBJECTID":142538},"geometry":{"x":171177.15999999922,"y":2544906.370000001}},{"attributes":{"ID":142539,"DIS_CODE":0,"TOWNNAME":"西港區","LI":"西港里","LIN":" ","STREET":" ","SECT":" ","MAREA":"西港","LANE":" ","ALLEY":" ","HOUSE_NO":"４６號","E_COORD97":168569.45999999999,"N_COORD97":2557932.2799999998,"ADDRESS":"西港４６號","OBJECTID":142539},"geometry":{"x":168569.46000000183,"y":2557932.2800000031}},{"attributes":{"ID":142540,"DIS_CODE":0,"TOWNNAME":"西港區","LI":"西港里","LIN":" ","STREET":" ","SECT":" ","MAREA":"西港","LANE":" ","ALLEY":" ","HOUSE_NO":"４９號","E_COORD97":168622.20999999999,"N_COORD97":2557897.1699999999,"ADDRESS":"西港４９號","OBJECTID":142540},"geometry":{"x":168622.21000000183,"y":2557897.1700000018}},{"attributes":{"ID":142541,"DIS_CODE":0,"TOWNNAME":"西港區","LI":"西港里","LIN":" ","STREET":" ","SECT":" ","MAREA":"西港","LANE":" ","ALLEY":" ","HOUSE_NO":"５０號","E_COORD97":168654.48000000001,"N_COORD97":2557851.1099999999,"ADDRESS":"西港５０號","OBJECTID":142541},"geometry":{"x":168654.48000000045,"y":2557851.1099999994}},{"attributes":{"ID":142542,"DIS_CODE":0,"TOWNNAME":"永康區","LI":"崑山里","LIN":"27鄰","STREET":"大灣路","SECT":" ","MAREA":" ","LANE":"１１０２巷","ALLEY":"１７弄","HOUSE_NO":"４３號","E_COORD97":173310.98000000001,"N_COORD97":2544727.29,"ADDRESS":"大灣路１１０２巷１７弄４３號","OBJECTID":142542},"geometry":{"x":173310.98000000045,"y":2544727.290000001}},{"attributes":{"ID":142543,"DIS_CODE":0,"TOWNNAME":"西港區","LI":"檨林里","LIN":" ","STREET":" ","SECT":" ","MAREA":"東竹林","LANE":" ","ALLEY":" ","HOUSE_NO":"１９之１號","E_COORD97":170793.62,"N_COORD97":2558512.1099999999,"ADDRESS":"東竹林１９之１號","OBJECTID":142543},"geometry":{"x":170793.62000000011,"y":2558512.1099999994}},{"attributes":{"ID":142544,"DIS_CODE":0,"TOWNNAME":"西港區","LI":"檨林里","LIN":" ","STREET":" ","SECT":" ","MAREA":"東竹林","LANE":" ","ALLEY":" ","HOUSE_NO":"１之１號","E_COORD97":170781.98999999999,"N_COORD97":2558715.7200000002,"ADDRESS":"東竹林１之１號","OBJECTID":142544},"geometry":{"x":170781.99000000115,"y":2558715.7200000007}},{"attributes":{"ID":142545,"DIS_CODE":0,"TOWNNAME":"鹽水區","LI":"岸內里","LIN":"15鄰","STREET":"蔦松路","SECT":" ","MAREA":" ","LANE":" ","ALLEY":" ","HOUSE_NO":"４１號","E_COORD97":175545.69,"N_COORD97":2580445.96,"ADDRESS":"蔦松路４１號","OBJECTID":142545},"geometry":{"x":175545.69000000041,"y":2580445.9600000028}},{"attributes":{"ID":142546,"DIS_CODE":0,"TOWNNAME":"西港區","LI":"檨林里","LIN":" ","STREET":" ","SECT":" ","MAREA":"東竹林","LANE":" ","ALLEY":" ","HOUSE_NO":"２３號","E_COORD97":170789.76999999999,"N_COORD97":2558562.5800000001,"ADDRESS":"東竹林２３號","OBJECTID":142546},"geometry":{"x":170789.77000000048,"y":2558562.5800000019}},{"attributes":{"ID":142547,"DIS_CODE":0,"TOWNNAME":"西港區","LI":"檨林里","LIN":" ","STREET":" ","SECT":" ","MAREA":"東竹林","LANE":" ","ALLEY":" ","HOUSE_NO":"２５之１號","E_COORD97":170736.14000000001,"N_COORD97":2558619.9399999999,"ADDRESS":"東竹林２５之１號","OBJECTID":142547},"geometry":{"x":170736.14000000153,"y":2558619.9400000032}},{"attributes":{"ID":142548,"DIS_CODE":0,"TOWNNAME":"西港區","LI":"檨林里","LIN":" ","STREET":" ","SECT":" ","MAREA":"東竹林","LANE":" ","ALLEY":" ","HOUSE_NO":"２６號","E_COORD97":170790.20000000001,"N_COORD97":2558655.7400000002,"ADDRESS":"東竹林２６號","OBJECTID":142548},"geometry":{"x":170790.20000000019,"y":2558655.7400000039}},{"attributes":{"ID":142549,"DIS_CODE":0,"TOWNNAME":"西港區","LI":"檨林里","LIN":" ","STREET":" ","SECT":" ","MAREA":"東竹林","LANE":" ","ALLEY":" ","HOUSE_NO":"２７之１號","E_COORD97":170791.35999999999,"N_COORD97":2558627.5800000001,"ADDRESS":"東竹林２７之１號","OBJECTID":142549},"geometry":{"x":170791.3600000022,"y":2558627.5800000019}},{"attributes":{"ID":142550,"DIS_CODE":0,"TOWNNAME":"西港區","LI":"檨林里","LIN":" ","STREET":" ","SECT":" ","MAREA":"東竹林","LANE":" ","ALLEY":" ","HOUSE_NO":"３７號","E_COORD97":170810.81,"N_COORD97":2558602.3199999998,"ADDRESS":"東竹林３７號","OBJECTID":142550},"geometry":{"x":170810.80999999959,"y":2558602.3200000022}},{"attributes":{"ID":142551,"DIS_CODE":0,"TOWNNAME":"西港區","LI":"南海里","LIN":" ","STREET":" ","SECT":" ","MAREA":"東港","LANE":" ","ALLEY":" ","HOUSE_NO":"１１之２１號","E_COORD97":167000.70000000001,"N_COORD97":2556285.3399999999,"ADDRESS":"東港１１之２１號","OBJECTID":142551},"geometry":{"x":167000.70000000112,"y":2556285.3400000017}},{"attributes":{"ID":142552,"DIS_CODE":0,"TOWNNAME":"西港區","LI":"南海里","LIN":" ","STREET":" ","SECT":" ","MAREA":"東港","LANE":" ","ALLEY":" ","HOUSE_NO":"２５號","E_COORD97":167097.25,"N_COORD97":2556467.4500000002,"ADDRESS":"東港２５號","OBJECTID":142552},"geometry":{"x":167097.25,"y":2556467.4500000011}},{"attributes":{"ID":142553,"DIS_CODE":0,"TOWNNAME":"西港區","LI":"南海里","LIN":" ","STREET":" ","SECT":" ","MAREA":"東港","LANE":" ","ALLEY":" ","HOUSE_NO":"４３號","E_COORD97":166983.34,"N_COORD97":2556487.5499999998,"ADDRESS":"東港４３號","OBJECTID":142553},"geometry":{"x":166983.33999999985,"y":2556487.5499999989}},{"attributes":{"ID":142554,"DIS_CODE":0,"TOWNNAME":"西港區","LI":"南海里","LIN":" ","STREET":" ","SECT":" ","MAREA":"東港","LANE":" ","ALLEY":" ","HOUSE_NO":"７號","E_COORD97":167059.85999999999,"N_COORD97":2556333.6099999999,"ADDRESS":"東港７號","OBJECTID":142554},"geometry":{"x":167059.86000000034,"y":2556333.6100000013}},{"attributes":{"ID":142555,"DIS_CODE":0,"TOWNNAME":"西港區","LI":"南海里","LIN":" ","STREET":" ","SECT":" ","MAREA":"南海埔","LANE":" ","ALLEY":" ","HOUSE_NO":"１１３之３號","E_COORD97":167757.60000000001,"N_COORD97":2557419.0699999998,"ADDRESS":"南海埔１１３之３號","OBJECTID":142555},"geometry":{"x":167757.59999999963,"y":2557419.0700000003}},{"attributes":{"ID":142556,"DIS_CODE":0,"TOWNNAME":"西港區","LI":"南海里","LIN":" ","STREET":" ","SECT":" ","MAREA":"南海埔","LANE":" ","ALLEY":" ","HOUSE_NO":"１２２之２號","E_COORD97":167673.34,"N_COORD97":2557288.0099999998,"ADDRESS":"南海埔１２２之２號","OBJECTID":142556},"geometry":{"x":167673.33999999892,"y":2557288.0100000016}},{"attributes":{"ID":142557,"DIS_CODE":0,"TOWNNAME":"西港區","LI":"南海里","LIN":" ","STREET":" ","SECT":" ","MAREA":"南海埔","LANE":" ","ALLEY":" ","HOUSE_NO":"１２３號","E_COORD97":167634.14000000001,"N_COORD97":2557296.8599999999,"ADDRESS":"南海埔１２３號","OBJECTID":142557},"geometry":{"x":167634.1400000006,"y":2557296.8599999994}},{"attributes":{"ID":142558,"DIS_CODE":0,"TOWNNAME":"西港區","LI":"南海里","LIN":" ","STREET":" ","SECT":" ","MAREA":"南海埔","LANE":" ","ALLEY":" ","HOUSE_NO":"１２４號","E_COORD97":167614.48999999999,"N_COORD97":2557222.48,"ADDRESS":"南海埔１２４號","OBJECTID":142558},"geometry":{"x":167614.49000000022,"y":2557222.4800000004}},{"attributes":{"ID":142559,"DIS_CODE":0,"TOWNNAME":"西港區","LI":"南海里","LIN":" ","STREET":" ","SECT":" ","MAREA":"南海埔","LANE":" ","ALLEY":" ","HOUSE_NO":"１２８號","E_COORD97":167413.94,"N_COORD97":2557402.7999999998,"ADDRESS":"南海埔１２８號","OBJECTID":142559},"geometry":{"x":167413.93999999948,"y":2557402.8000000026}},{"attributes":{"ID":142560,"DIS_CODE":0,"TOWNNAME":"西港區","LI":"南海里","LIN":" ","STREET":" ","SECT":" ","MAREA":"南海埔","LANE":" ","ALLEY":" ","HOUSE_NO":"１７之１號","E_COORD97":167763.51999999999,"N_COORD97":2557382.75,"ADDRESS":"南海埔１７之１號","OBJECTID":142560},"geometry":{"x":167763.52000000142,"y":2557382.75}},{"attributes":{"ID":142561,"DIS_CODE":0,"TOWNNAME":"西港區","LI":"南海里","LIN":" ","STREET":" ","SECT":" ","MAREA":"南海埔","LANE":" ","ALLEY":" ","HOUSE_NO":"１８號","E_COORD97":167779.98000000001,"N_COORD97":2557441.9399999999,"ADDRESS":"南海埔１８號","OBJECTID":142561},"geometry":{"x":167779.98000000231,"y":2557441.9399999995}},{"attributes":{"ID":142562,"DIS_CODE":0,"TOWNNAME":"西港區","LI":"南海里","LIN":" ","STREET":" ","SECT":" ","MAREA":"南海埔","LANE":" ","ALLEY":" ","HOUSE_NO":"２０之２號","E_COORD97":167802.19,"N_COORD97":2557448.0600000001,"ADDRESS":"南海埔２０之２號","OBJECTID":142562},"geometry":{"x":167802.19000000227,"y":2557448.0600000024}},{"attributes":{"ID":142563,"DIS_CODE":0,"TOWNNAME":"西港區","LI":"南海里","LIN":" ","STREET":" ","SECT":" ","MAREA":"南海埔","LANE":" ","ALLEY":" ","HOUSE_NO":"４０號","E_COORD97":167701.22,"N_COORD97":2557473.4700000002,"ADDRESS":"南海埔４０號","OBJECTID":142563},"geometry":{"x":167701.2200000016,"y":2557473.4700000007}},{"attributes":{"ID":142564,"DIS_CODE":0,"TOWNNAME":"西港區","LI":"南海里","LIN":" ","STREET":" ","SECT":" ","MAREA":"南海埔","LANE":" ","ALLEY":" ","HOUSE_NO":"８１號","E_COORD97":167519.85999999999,"N_COORD97":2557346.4500000002,"ADDRESS":"南海埔８１號","OBJECTID":142564},"geometry":{"x":167519.86000000127,"y":2557346.4499999993}},{"attributes":{"ID":142565,"DIS_CODE":0,"TOWNNAME":"西港區","LI":"營西里","LIN":" ","STREET":" ","SECT":" ","MAREA":"後營","LANE":" ","ALLEY":" ","HOUSE_NO":"１０９號","E_COORD97":169835.23999999999,"N_COORD97":2560345.3700000001,"ADDRESS":"後營１０９號","OBJECTID":142565},"geometry":{"x":169835.24000000022,"y":2560345.3700000029}},{"attributes":{"ID":142566,"DIS_CODE":0,"TOWNNAME":"西港區","LI":"營西里","LIN":" ","STREET":" ","SECT":" ","MAREA":"後營","LANE":" ","ALLEY":" ","HOUSE_NO":"１１９號","E_COORD97":169799.97,"N_COORD97":2560455.1299999999,"ADDRESS":"後營１１９號","OBJECTID":142566},"geometry":{"x":169799.9700000016,"y":2560455.129999999}},{"attributes":{"ID":142567,"DIS_CODE":0,"TOWNNAME":"西港區","LI":"營西里","LIN":" ","STREET":" ","SECT":" ","MAREA":"後營","LANE":" ","ALLEY":" ","HOUSE_NO":"１１號","E_COORD97":169767.98000000001,"N_COORD97":2560063.1299999999,"ADDRESS":"後營１１號","OBJECTID":142567},"geometry":{"x":169767.98000000045,"y":2560063.1300000008}},{"attributes":{"ID":142568,"DIS_CODE":0,"TOWNNAME":"西港區","LI":"營西里","LIN":" ","STREET":" ","SECT":" ","MAREA":"後營","LANE":" ","ALLEY":" ","HOUSE_NO":"１２６號","E_COORD97":169813.54000000001,"N_COORD97":2560517.4300000002,"ADDRESS":"後營１２６號","OBJECTID":142568},"geometry":{"x":169813.54000000097,"y":2560517.4299999997}},{"attributes":{"ID":142569,"DIS_CODE":0,"TOWNNAME":"西港區","LI":"營西里","LIN":" ","STREET":" ","SECT":" ","MAREA":"後營","LANE":" ","ALLEY":" ","HOUSE_NO":"１２號","E_COORD97":169767.82000000001,"N_COORD97":2560066.1800000002,"ADDRESS":"後營１２號","OBJECTID":142569},"geometry":{"x":169767.82000000123,"y":2560066.1800000034}},{"attributes":{"ID":142570,"DIS_CODE":0,"TOWNNAME":"西港區","LI":"營西里","LIN":" ","STREET":" ","SECT":" ","MAREA":"後營","LANE":" ","ALLEY":" ","HOUSE_NO":"１３８之１號","E_COORD97":169711.63,"N_COORD97":2560563.3999999999,"ADDRESS":"後營１３８之１號","OBJECTID":142570},"geometry":{"x":169711.63000000082,"y":2560563.3999999985}},{"attributes":{"ID":142571,"DIS_CODE":0,"TOWNNAME":"西港區","LI":"後營里","LIN":" ","STREET":" ","SECT":" ","MAREA":"後營","LANE":" ","ALLEY":" ","HOUSE_NO":"１５１之７號","E_COORD97":169852.95999999999,"N_COORD97":2560688.3100000001,"ADDRESS":"後營１５１之７號","OBJECTID":142571},"geometry":{"x":169852.96000000089,"y":2560688.3100000005}},{"attributes":{"ID":142572,"DIS_CODE":0,"TOWNNAME":"西港區","LI":"後營里","LIN":" ","STREET":" ","SECT":" ","MAREA":"後營","LANE":" ","ALLEY":" ","HOUSE_NO":"１５７號","E_COORD97":169928.64999999999,"N_COORD97":2560658.5699999998,"ADDRESS":"後營１５７號","OBJECTID":142572},"geometry":{"x":169928.6500000013,"y":2560658.5700000022}},{"attributes":{"ID":142573,"DIS_CODE":0,"TOWNNAME":"西港區","LI":"營西里","LIN":" ","STREET":" ","SECT":" ","MAREA":"後營","LANE":" ","ALLEY":" ","HOUSE_NO":"１５號","E_COORD97":169767.79000000001,"N_COORD97":2560078.3799999999,"ADDRESS":"後營１５號","OBJECTID":142573},"geometry":{"x":169767.79000000097,"y":2560078.3800000008}},{"attributes":{"ID":142574,"DIS_CODE":0,"TOWNNAME":"西港區","LI":"後營里","LIN":" ","STREET":" ","SECT":" ","MAREA":"後營","LANE":" ","ALLEY":" ","HOUSE_NO":"１６８之１號","E_COORD97":169916.31,"N_COORD97":2560482.1499999999,"ADDRESS":"後營１６８之１號","OBJECTID":142574},"geometry":{"x":169916.31000000052,"y":2560482.1500000022}},{"attributes":{"ID":142575,"DIS_CODE":0,"TOWNNAME":"西港區","LI":"後營里","LIN":" ","STREET":" ","SECT":" ","MAREA":"後營","LANE":" ","ALLEY":" ","HOUSE_NO":"１７９之１號","E_COORD97":170026.81,"N_COORD97":2560384.7999999998,"ADDRESS":"後營１７９之１號","OBJECTID":142575},"geometry":{"x":170026.81000000052,"y":2560384.7999999989}},{"attributes":{"ID":142576,"DIS_CODE":0,"TOWNNAME":"西港區","LI":"營西里","LIN":" ","STREET":" ","SECT":" ","MAREA":"後營","LANE":" ","ALLEY":" ","HOUSE_NO":"１７之１號","E_COORD97":169759.14999999999,"N_COORD97":2560109.4199999999,"ADDRESS":"後營１７之１號","OBJECTID":142576},"geometry":{"x":169759.1500000013,"y":2560109.4200000018}},{"attributes":{"ID":142577,"DIS_CODE":0,"TOWNNAME":"永康區","LI":"崑山里","LIN":"27鄰","STREET":"大灣路","SECT":" ","MAREA":" ","LANE":"１１０２巷","ALLEY":"１７弄","HOUSE_NO":"８１號","E_COORD97":173392.17999999999,"N_COORD97":2544710.0600000001,"ADDRESS":"大灣路１１０２巷１７弄８１號","OBJECTID":142577},"geometry":{"x":173392.17999999877,"y":2544710.0600000024}},{"attributes":{"ID":142578,"DIS_CODE":0,"TOWNNAME":"西港區","LI":"後營里","LIN":" ","STREET":" ","SECT":" ","MAREA":"後營","LANE":" ","ALLEY":" ","HOUSE_NO":"１８１號","E_COORD97":169939.17000000001,"N_COORD97":2560379.8300000001,"ADDRESS":"後營１８１號","OBJECTID":142578},"geometry":{"x":169939.16999999993,"y":2560379.8300000001}},{"attributes":{"ID":142579,"DIS_CODE":0,"TOWNNAME":"善化區","LI":"光文里","LIN":"22鄰","STREET":"光華路","SECT":" ","MAREA":" ","LANE":"３５巷","ALLEY":"４５弄","HOUSE_NO":"７號","E_COORD97":178517.78,"N_COORD97":2559241,"ADDRESS":"光華路３５巷４５弄７號","OBJECTID":142579},"geometry":{"x":178517.78000000026,"y":2559241.0000000019}},{"attributes":{"ID":142580,"DIS_CODE":0,"TOWNNAME":"西港區","LI":"後營里","LIN":" ","STREET":" ","SECT":" ","MAREA":"後營","LANE":" ","ALLEY":" ","HOUSE_NO":"１９０之１號","E_COORD97":169953.53,"N_COORD97":2560302.8700000001,"ADDRESS":"後營１９０之１號","OBJECTID":142580},"geometry":{"x":169953.53000000026,"y":2560302.870000001}},{"attributes":{"ID":142581,"DIS_CODE":0,"TOWNNAME":"西港區","LI":"後營里","LIN":" ","STREET":" ","SECT":" ","MAREA":"後營","LANE":" ","ALLEY":" ","HOUSE_NO":"２０７之２號","E_COORD97":170096.48999999999,"N_COORD97":2560182,"ADDRESS":"後營２０７之２號","OBJECTID":142581},"geometry":{"x":170096.49000000022,"y":2560182}},{"attributes":{"ID":142582,"DIS_CODE":0,"TOWNNAME":"西港區","LI":"後營里","LIN":" ","STREET":" ","SECT":" ","MAREA":"後營","LANE":" ","ALLEY":" ","HOUSE_NO":"２１９號","E_COORD97":169979.81,"N_COORD97":2560152.4399999999,"ADDRESS":"後營２１９號","OBJECTID":142582},"geometry":{"x":169979.80999999959,"y":2560152.4400000013}},{"attributes":{"ID":142583,"DIS_CODE":0,"TOWNNAME":"西港區","LI":"後營里","LIN":" ","STREET":" ","SECT":" ","MAREA":"後營","LANE":" ","ALLEY":" ","HOUSE_NO":"２２３之１號","E_COORD97":169911.19,"N_COORD97":2560115.0099999998,"ADDRESS":"後營２２３之１號","OBJECTID":142583},"geometry":{"x":169911.19000000134,"y":2560115.0100000016}},{"attributes":{"ID":142584,"DIS_CODE":0,"TOWNNAME":"西港區","LI":"後營里","LIN":" ","STREET":" ","SECT":" ","MAREA":"後營","LANE":" ","ALLEY":" ","HOUSE_NO":"２２８號","E_COORD97":169930.13,"N_COORD97":2560190.9100000001,"ADDRESS":"後營２２８號","OBJECTID":142584},"geometry":{"x":169930.13000000082,"y":2560190.910000002}},{"attributes":{"ID":142585,"DIS_CODE":0,"TOWNNAME":"西港區","LI":"後營里","LIN":" ","STREET":" ","SECT":" ","MAREA":"後營","LANE":" ","ALLEY":" ","HOUSE_NO":"２４３之５號","E_COORD97":169772.37,"N_COORD97":2560253.2000000002,"ADDRESS":"後營２４３之５號","OBJECTID":142585},"geometry":{"x":169772.37000000104,"y":2560253.2000000011}},{"attributes":{"ID":142586,"DIS_CODE":0,"TOWNNAME":"西港區","LI":"後營里","LIN":" ","STREET":" ","SECT":" ","MAREA":"後營","LANE":" ","ALLEY":" ","HOUSE_NO":"２５１號","E_COORD97":169786.42000000001,"N_COORD97":2560114.0299999998,"ADDRESS":"後營２５１號","OBJECTID":142586},"geometry":{"x":169786.41999999993,"y":2560114.0300000031}},{"attributes":{"ID":142587,"DIS_CODE":0,"TOWNNAME":"西港區","LI":"後營里","LIN":" ","STREET":" ","SECT":" ","MAREA":"後營","LANE":" ","ALLEY":" ","HOUSE_NO":"２５３之１號","E_COORD97":169787.48999999999,"N_COORD97":2560135.3399999999,"ADDRESS":"後營２５３之１號","OBJECTID":142587},"geometry":{"x":169787.49000000115,"y":2560135.3399999999}},{"attributes":{"ID":142588,"DIS_CODE":0,"TOWNNAME":"西港區","LI":"後營里","LIN":" ","STREET":" ","SECT":" ","MAREA":"後營","LANE":" ","ALLEY":" ","HOUSE_NO":"２５４號","E_COORD97":169800.14000000001,"N_COORD97":2560131,"ADDRESS":"後營２５４號","OBJECTID":142588},"geometry":{"x":169800.13999999966,"y":2560131}},{"attributes":{"ID":142589,"DIS_CODE":0,"TOWNNAME":"西港區","LI":"後營里","LIN":" ","STREET":" ","SECT":" ","MAREA":"後營","LANE":" ","ALLEY":" ","HOUSE_NO":"２５８號","E_COORD97":169838.44,"N_COORD97":2560172.0099999998,"ADDRESS":"後營２５８號","OBJECTID":142589},"geometry":{"x":169838.44000000134,"y":2560172.0099999998}},{"attributes":{"ID":142590,"DIS_CODE":0,"TOWNNAME":"西港區","LI":"後營里","LIN":" ","STREET":" ","SECT":" ","MAREA":"後營","LANE":" ","ALLEY":" ","HOUSE_NO":"２６０之１號","E_COORD97":169879.67999999999,"N_COORD97":2560184.04,"ADDRESS":"後營２６０之１號","OBJECTID":142590},"geometry":{"x":169879.6799999997,"y":2560184.0399999991}},{"attributes":{"ID":142591,"DIS_CODE":0,"TOWNNAME":"西港區","LI":"營西里","LIN":" ","STREET":" ","SECT":" ","MAREA":"後營","LANE":" ","ALLEY":" ","HOUSE_NO":"２６之１號","E_COORD97":169604.04000000001,"N_COORD97":2560133.73,"ADDRESS":"後營２６之１號","OBJECTID":142591},"geometry":{"x":169604.04000000004,"y":2560133.7300000004}},{"attributes":{"ID":142592,"DIS_CODE":0,"TOWNNAME":"西港區","LI":"營西里","LIN":" ","STREET":" ","SECT":" ","MAREA":"後營","LANE":" ","ALLEY":" ","HOUSE_NO":"２６之２號","E_COORD97":169658.70999999999,"N_COORD97":2560130.4100000001,"ADDRESS":"後營２６之２號","OBJECTID":142592},"geometry":{"x":169658.70999999996,"y":2560130.410000002}},{"attributes":{"ID":142593,"DIS_CODE":0,"TOWNNAME":"仁德區","LI":"中生里","LIN":"7鄰","STREET":" ","SECT":" ","MAREA":"中洲","LANE":" ","ALLEY":" ","HOUSE_NO":"１４４之１號","E_COORD97":173059.54999999999,"N_COORD97":2534088.2999999998,"ADDRESS":"中洲１４４之１號","OBJECTID":142593},"geometry":{"x":173059.55000000075,"y":2534088.3000000007}},{"attributes":{"ID":142594,"DIS_CODE":0,"TOWNNAME":"善化區","LI":"光文里","LIN":"22鄰","STREET":"光華路","SECT":" ","MAREA":" ","LANE":"３５巷","ALLEY":"４５弄","HOUSE_NO":"１號","E_COORD97":178516.95000000001,"N_COORD97":2559254,"ADDRESS":"光華路３５巷４５弄１號","OBJECTID":142594},"geometry":{"x":178516.95000000019,"y":2559254.0000000037}},{"attributes":{"ID":142595,"DIS_CODE":0,"TOWNNAME":"永康區","LI":"埔園里","LIN":"35鄰","STREET":"永大路","SECT":"三段","MAREA":" ","LANE":"４５０巷","ALLEY":"２弄","HOUSE_NO":"１２號","E_COORD97":174145.13,"N_COORD97":2548374.25,"ADDRESS":"永大路三段４５０巷２弄１２號","OBJECTID":142595},"geometry":{"x":174145.12999999989,"y":2548374.25}},{"attributes":{"ID":142596,"DIS_CODE":0,"TOWNNAME":"永康區","LI":"崑山里","LIN":"12鄰","STREET":"大灣路","SECT":" ","MAREA":" ","LANE":"１１０２巷","ALLEY":"１７弄","HOUSE_NO":"１２２號之１","E_COORD97":173393.35999999999,"N_COORD97":2544654.5699999998,"ADDRESS":"大灣路１１０２巷１７弄１２２號之１","OBJECTID":142596},"geometry":{"x":173393.3600000022,"y":2544654.570000004}},{"attributes":{"ID":142597,"DIS_CODE":0,"TOWNNAME":"永康區","LI":"復興里","LIN":"22鄰","STREET":"復興路","SECT":" ","MAREA":" ","LANE":"２４６巷","ALLEY":"２７弄","HOUSE_NO":"２３號","E_COORD97":172348.64999999999,"N_COORD97":2544454.6099999999,"ADDRESS":"復興路２４６巷２７弄２３號","OBJECTID":142597},"geometry":{"x":172348.65000000037,"y":2544454.6100000013}},{"attributes":{"ID":142598,"DIS_CODE":0,"TOWNNAME":"永康區","LI":"復國里","LIN":"22鄰","STREET":"復華六街","SECT":" ","MAREA":" ","LANE":"９３巷","ALLEY":"２０弄","HOUSE_NO":"１４號","E_COORD97":172563.56,"N_COORD97":2545805.8399999999,"ADDRESS":"復華六街９３巷２０弄１４號","OBJECTID":142598},"geometry":{"x":172563.55999999959,"y":2545805.8400000017}},{"attributes":{"ID":142599,"DIS_CODE":0,"TOWNNAME":"永康區","LI":"復興里","LIN":"22鄰","STREET":"復興路","SECT":" ","MAREA":" ","LANE":"２４６巷","ALLEY":"２７弄","HOUSE_NO":"３９號","E_COORD97":172347.62,"N_COORD97":2544480.3700000001,"ADDRESS":"復興路２４６巷２７弄３９號","OBJECTID":142599},"geometry":{"x":172347.62000000104,"y":2544480.3699999992}},{"attributes":{"ID":142600,"DIS_CODE":0,"TOWNNAME":"安南區","LI":"海東里","LIN":"22鄰","STREET":"同安路","SECT":" ","MAREA":" ","LANE":"１７巷","ALLEY":"１弄","HOUSE_NO":"９號","E_COORD97":166810.47,"N_COORD97":2548880.5899999999,"ADDRESS":"同安路１７巷１弄９號","OBJECTID":142600},"geometry":{"x":166810.46999999974,"y":2548880.5899999999}}]}