{"displayFieldName":"TOWNNAME","fieldAliases":{"ID":"ID","DIS_CODE":"DIS_CODE","TOWNNAME":"TOWNNAME","LI":"LI","LIN":"LIN","STREET":"STREET","SECT":"SECT","MAREA":"MAREA","LANE":"LANE","ALLEY":"ALLEY","HOUSE_NO":"HOUSE_NO","E_COORD97":"E_COORD97","N_COORD97":"N_COORD97","ADDRESS":"ADDRESS","OBJECTID":"OBJECTID"},"geometryType":"esriGeometryPoint","spatialReference":{"wkid":102443,"latestWkid":3826},"fields":[{"name":"ID","type":"esriFieldTypeDouble","alias":"ID"},{"name":"DIS_CODE","type":"esriFieldTypeInteger","alias":"DIS_CODE"},{"name":"TOWNNAME","type":"esriFieldTypeString","alias":"TOWNNAME","length":8},{"name":"LI","type":"esriFieldTypeString","alias":"LI","length":8},{"name":"LIN","type":"esriFieldTypeString","alias":"LIN","length":12},{"name":"STREET","type":"esriFieldTypeString","alias":"STREET","length":20},{"name":"SECT","type":"esriFieldTypeString","alias":"SECT","length":8},{"name":"MAREA","type":"esriFieldTypeString","alias":"MAREA","length":12},{"name":"LANE","type":"esriFieldTypeString","alias":"LANE","length":10},{"name":"ALLEY","type":"esriFieldTypeString","alias":"ALLEY","length":10},{"name":"HOUSE_NO","type":"esriFieldTypeString","alias":"HOUSE_NO","length":20},{"name":"E_COORD97","type":"esriFieldTypeDouble","alias":"E_COORD97"},{"name":"N_COORD97","type":"esriFieldTypeDouble","alias":"N_COORD97"},{"name":"ADDRESS","type":"esriFieldTypeString","alias":"ADDRESS","length":50},{"name":"OBJECTID","type":"esriFieldTypeOID","alias":"OBJECTID"}],"features":[{"attributes":{"ID":615628,"DIS_CODE":0,"TOWNNAME":"北區","LI":"成功里","LIN":"2鄰","STREET":"北安路","SECT":"一段","MAREA":" ","LANE":" ","ALLEY":" ","HOUSE_NO":"１１０號","E_COORD97":169036.17000000001,"N_COORD97":2546373.75,"ADDRESS":"北安路一段１１０號","OBJECTID":615601},"geometry":{"x":169036.17000000086,"y":2546373.7500000019}},{"attributes":{"ID":615629,"DIS_CODE":0,"TOWNNAME":"北區","LI":"成功里","LIN":"2鄰","STREET":"北安路","SECT":"一段","MAREA":" ","LANE":" ","ALLEY":" ","HOUSE_NO":"１１２號","E_COORD97":169032.79999999999,"N_COORD97":2546377.1200000001,"ADDRESS":"北安路一段１１２號","OBJECTID":615602},"geometry":{"x":169032.79999999981,"y":2546377.120000001}},{"attributes":{"ID":615630,"DIS_CODE":0,"TOWNNAME":"北區","LI":"成功里","LIN":"2鄰","STREET":"北安路","SECT":"一段","MAREA":" ","LANE":" ","ALLEY":" ","HOUSE_NO":"１１４號","E_COORD97":169029.42999999999,"N_COORD97":2546380.0099999998,"ADDRESS":"北安路一段１１４號","OBJECTID":615603},"geometry":{"x":169029.43000000063,"y":2546380.0099999979}},{"attributes":{"ID":615631,"DIS_CODE":0,"TOWNNAME":"北區","LI":"成功里","LIN":"2鄰","STREET":"北安路","SECT":"一段","MAREA":" ","LANE":" ","ALLEY":" ","HOUSE_NO":"１１６號","E_COORD97":169025.57999999999,"N_COORD97":2546381.9300000002,"ADDRESS":"北安路一段１１６號","OBJECTID":615604},"geometry":{"x":169025.58000000101,"y":2546381.9300000016}},{"attributes":{"ID":615632,"DIS_CODE":0,"TOWNNAME":"北區","LI":"成功里","LIN":"2鄰","STREET":"北安路","SECT":"一段","MAREA":" ","LANE":" ","ALLEY":" ","HOUSE_NO":"１１８號","E_COORD97":169022.20000000001,"N_COORD97":2546384.3399999999,"ADDRESS":"北安路一段１１８號","OBJECTID":615605},"geometry":{"x":169022.20000000019,"y":2546384.3399999999}},{"attributes":{"ID":615633,"DIS_CODE":0,"TOWNNAME":"北區","LI":"成功里","LIN":"2鄰","STREET":"北安路","SECT":"一段","MAREA":" ","LANE":" ","ALLEY":" ","HOUSE_NO":"１２２號","E_COORD97":169015.94,"N_COORD97":2546390.5899999999,"ADDRESS":"北安路一段１２２號","OBJECTID":615606},"geometry":{"x":169015.94000000227,"y":2546390.5900000017}},{"attributes":{"ID":615634,"DIS_CODE":0,"TOWNNAME":"北區","LI":"成功里","LIN":"2鄰","STREET":"北安路","SECT":"一段","MAREA":" ","LANE":" ","ALLEY":" ","HOUSE_NO":"１２４號","E_COORD97":169013.04999999999,"N_COORD97":2546393.48,"ADDRESS":"北安路一段１２４號","OBJECTID":615607},"geometry":{"x":169013.05000000075,"y":2546393.4800000004}},{"attributes":{"ID":615635,"DIS_CODE":0,"TOWNNAME":"北區","LI":"成功里","LIN":"2鄰","STREET":"北安路","SECT":"一段","MAREA":" ","LANE":" ","ALLEY":" ","HOUSE_NO":"１２６號","E_COORD97":169007.75,"N_COORD97":2546394.9199999999,"ADDRESS":"北安路一段１２６號","OBJECTID":615608},"geometry":{"x":169007.75,"y":2546394.9200000018}},{"attributes":{"ID":615636,"DIS_CODE":0,"TOWNNAME":"北區","LI":"成功里","LIN":"2鄰","STREET":"北安路","SECT":"一段","MAREA":" ","LANE":" ","ALLEY":" ","HOUSE_NO":"１２８號","E_COORD97":169004.38,"N_COORD97":2546397.8100000001,"ADDRESS":"北安路一段１２８號","OBJECTID":615609},"geometry":{"x":169004.38000000082,"y":2546397.8100000005}},{"attributes":{"ID":615637,"DIS_CODE":0,"TOWNNAME":"北區","LI":"成功里","LIN":"2鄰","STREET":"北安路","SECT":"一段","MAREA":" ","LANE":" ","ALLEY":" ","HOUSE_NO":"１３０號","E_COORD97":169001.01000000001,"N_COORD97":2546399.73,"ADDRESS":"北安路一段１３０號","OBJECTID":615610},"geometry":{"x":169001.00999999978,"y":2546399.7300000042}},{"attributes":{"ID":615638,"DIS_CODE":0,"TOWNNAME":"北區","LI":"成功里","LIN":"2鄰","STREET":"北安路","SECT":"一段","MAREA":" ","LANE":" ","ALLEY":" ","HOUSE_NO":"１３２號","E_COORD97":168998.60000000001,"N_COORD97":2546402.6200000001,"ADDRESS":"北安路一段１３２號","OBJECTID":615611},"geometry":{"x":168998.59999999963,"y":2546402.6200000029}},{"attributes":{"ID":615639,"DIS_CODE":0,"TOWNNAME":"北區","LI":"成功里","LIN":"2鄰","STREET":"北安路","SECT":"一段","MAREA":" ","LANE":" ","ALLEY":" ","HOUSE_NO":"１３４號","E_COORD97":168994.26999999999,"N_COORD97":2546405.5099999998,"ADDRESS":"北安路一段１３４號","OBJECTID":615612},"geometry":{"x":168994.27000000142,"y":2546405.5100000016}},{"attributes":{"ID":615640,"DIS_CODE":0,"TOWNNAME":"北區","LI":"成功里","LIN":"2鄰","STREET":"北安路","SECT":"一段","MAREA":" ","LANE":" ","ALLEY":" ","HOUSE_NO":"１３６號","E_COORD97":168991.38,"N_COORD97":2546407.9100000001,"ADDRESS":"北安路一段１３６號","OBJECTID":615613},"geometry":{"x":168991.37999999989,"y":2546407.9100000001}},{"attributes":{"ID":615641,"DIS_CODE":0,"TOWNNAME":"北區","LI":"成功里","LIN":"2鄰","STREET":"北安路","SECT":"一段","MAREA":" ","LANE":" ","ALLEY":" ","HOUSE_NO":"１３８號","E_COORD97":168987.51999999999,"N_COORD97":2546409.3500000001,"ADDRESS":"北安路一段１３８號","OBJECTID":615614},"geometry":{"x":168987.52000000142,"y":2546409.3500000015}},{"attributes":{"ID":615642,"DIS_CODE":0,"TOWNNAME":"北區","LI":"成功里","LIN":"2鄰","STREET":"北安路","SECT":"一段","MAREA":" ","LANE":" ","ALLEY":" ","HOUSE_NO":"１４０號","E_COORD97":168984.14999999999,"N_COORD97":2546413.2000000002,"ADDRESS":"北安路一段１４０號","OBJECTID":615615},"geometry":{"x":168984.1500000013,"y":2546413.2000000011}},{"attributes":{"ID":615643,"DIS_CODE":0,"TOWNNAME":"北區","LI":"成功里","LIN":"2鄰","STREET":"北安路","SECT":"一段","MAREA":" ","LANE":" ","ALLEY":" ","HOUSE_NO":"９８號","E_COORD97":169057.37,"N_COORD97":2546359.3199999998,"ADDRESS":"北安路一段９８號","OBJECTID":615616},"geometry":{"x":169057.37000000104,"y":2546359.3200000022}},{"attributes":{"ID":615644,"DIS_CODE":0,"TOWNNAME":"北區","LI":"大和里","LIN":"2鄰","STREET":"大港街","SECT":" ","MAREA":" ","LANE":" ","ALLEY":" ","HOUSE_NO":"３９號","E_COORD97":167215.98000000001,"N_COORD97":2546077.4900000002,"ADDRESS":"大港街３９號","OBJECTID":615617},"geometry":{"x":167215.98000000138,"y":2546077.4900000002}},{"attributes":{"ID":615645,"DIS_CODE":0,"TOWNNAME":"北區","LI":"大和里","LIN":"2鄰","STREET":"大港街","SECT":" ","MAREA":" ","LANE":" ","ALLEY":" ","HOUSE_NO":"４１號","E_COORD97":167209.67000000001,"N_COORD97":2546074.2400000002,"ADDRESS":"大港街４１號","OBJECTID":615618},"geometry":{"x":167209.66999999993,"y":2546074.2400000039}},{"attributes":{"ID":615646,"DIS_CODE":0,"TOWNNAME":"北區","LI":"大和里","LIN":"2鄰","STREET":"大港街","SECT":" ","MAREA":" ","LANE":" ","ALLEY":" ","HOUSE_NO":"４３號","E_COORD97":167203.56,"N_COORD97":2546072.75,"ADDRESS":"大港街４３號","OBJECTID":615619},"geometry":{"x":167203.55999999959,"y":2546072.75}},{"attributes":{"ID":615647,"DIS_CODE":0,"TOWNNAME":"北區","LI":"大和里","LIN":"2鄰","STREET":"大港街","SECT":" ","MAREA":" ","LANE":" ","ALLEY":" ","HOUSE_NO":"４５號","E_COORD97":167191.44,"N_COORD97":2546063.4900000002,"ADDRESS":"大港街４５號","OBJECTID":615620},"geometry":{"x":167191.44000000041,"y":2546063.4900000021}},{"attributes":{"ID":615648,"DIS_CODE":0,"TOWNNAME":"北區","LI":"大和里","LIN":"2鄰","STREET":"大港街","SECT":" ","MAREA":" ","LANE":" ","ALLEY":" ","HOUSE_NO":"４７號","E_COORD97":167185.78,"N_COORD97":2546063.2999999998,"ADDRESS":"大港街４７號","OBJECTID":615621},"geometry":{"x":167185.78000000026,"y":2546063.3000000007}},{"attributes":{"ID":615649,"DIS_CODE":0,"TOWNNAME":"北區","LI":"大和里","LIN":"2鄰","STREET":"大港街","SECT":" ","MAREA":" ","LANE":" ","ALLEY":" ","HOUSE_NO":"４９號","E_COORD97":167178.42999999999,"N_COORD97":2546063.1000000001,"ADDRESS":"大港街４９號","OBJECTID":615622},"geometry":{"x":167178.43000000063,"y":2546063.0999999996}},{"attributes":{"ID":615650,"DIS_CODE":0,"TOWNNAME":"北區","LI":"賢北里","LIN":"2鄰","STREET":"賢北街","SECT":" ","MAREA":" ","LANE":" ","ALLEY":" ","HOUSE_NO":"６０號","E_COORD97":166312.95999999999,"N_COORD97":2545347.3999999999,"ADDRESS":"賢北街６０號","OBJECTID":615623},"geometry":{"x":166312.95999999996,"y":2545347.3999999985}},{"attributes":{"ID":615651,"DIS_CODE":0,"TOWNNAME":"北區","LI":"賢北里","LIN":"2鄰","STREET":"中華北路","SECT":"一段","MAREA":" ","LANE":" ","ALLEY":" ","HOUSE_NO":"５９號","E_COORD97":166526.06,"N_COORD97":2545405.4500000002,"ADDRESS":"中華北路一段５９號","OBJECTID":615624},"geometry":{"x":166526.06000000052,"y":2545405.4499999993}},{"attributes":{"ID":615652,"DIS_CODE":0,"TOWNNAME":"北區","LI":"賢北里","LIN":"2鄰","STREET":"中華北路","SECT":"一段","MAREA":" ","LANE":" ","ALLEY":" ","HOUSE_NO":"６５號","E_COORD97":166521.89000000001,"N_COORD97":2545418.2799999998,"ADDRESS":"中華北路一段６５號","OBJECTID":615625},"geometry":{"x":166521.89000000153,"y":2545418.2799999975}},{"attributes":{"ID":615653,"DIS_CODE":0,"TOWNNAME":"北區","LI":"賢北里","LIN":"2鄰","STREET":"中華北路","SECT":"一段","MAREA":" ","LANE":" ","ALLEY":" ","HOUSE_NO":"７１號","E_COORD97":166515.98999999999,"N_COORD97":2545434.5800000001,"ADDRESS":"中華北路一段７１號","OBJECTID":615626},"geometry":{"x":166515.99000000022,"y":2545434.5800000019}},{"attributes":{"ID":615654,"DIS_CODE":0,"TOWNNAME":"北區","LI":"賢北里","LIN":"2鄰","STREET":"中華北路","SECT":"一段","MAREA":" ","LANE":" ","ALLEY":" ","HOUSE_NO":"７３號","E_COORD97":166513.20999999999,"N_COORD97":2545442.5600000001,"ADDRESS":"中華北路一段７３號","OBJECTID":615627},"geometry":{"x":166513.21000000183,"y":2545442.5600000024}},{"attributes":{"ID":615655,"DIS_CODE":0,"TOWNNAME":"北區","LI":"賢北里","LIN":"2鄰","STREET":"中華北路","SECT":"一段","MAREA":" ","LANE":" ","ALLEY":" ","HOUSE_NO":"８１號","E_COORD97":166512.17000000001,"N_COORD97":2545452.96,"ADDRESS":"中華北路一段８１號","OBJECTID":615628},"geometry":{"x":166512.17000000086,"y":2545452.9600000046}},{"attributes":{"ID":615656,"DIS_CODE":0,"TOWNNAME":"北區","LI":"賢北里","LIN":"2鄰","STREET":"賢北街","SECT":" ","MAREA":" ","LANE":" ","ALLEY":" ","HOUSE_NO":"６４號","E_COORD97":166308.67000000001,"N_COORD97":2545358.48,"ADDRESS":"賢北街６４號","OBJECTID":615629},"geometry":{"x":166308.67000000086,"y":2545358.4800000023}},{"attributes":{"ID":615657,"DIS_CODE":0,"TOWNNAME":"北區","LI":"賢北里","LIN":"2鄰","STREET":"賢北街","SECT":" ","MAREA":" ","LANE":" ","ALLEY":" ","HOUSE_NO":"６６號","E_COORD97":166305.89999999999,"N_COORD97":2545363.02,"ADDRESS":"賢北街６６號","OBJECTID":615630},"geometry":{"x":166305.9000000013,"y":2545363.0200000033}},{"attributes":{"ID":615658,"DIS_CODE":0,"TOWNNAME":"北區","LI":"賢北里","LIN":"2鄰","STREET":"賢北街","SECT":" ","MAREA":" ","LANE":" ","ALLEY":" ","HOUSE_NO":"６８號","E_COORD97":166303.88,"N_COORD97":2545367.0499999998,"ADDRESS":"賢北街６８號","OBJECTID":615631},"geometry":{"x":166303.88000000082,"y":2545367.0499999989}},{"attributes":{"ID":615659,"DIS_CODE":0,"TOWNNAME":"北區","LI":"賢北里","LIN":"2鄰","STREET":"賢北街","SECT":" ","MAREA":" ","LANE":" ","ALLEY":" ","HOUSE_NO":"７０號","E_COORD97":166302.62,"N_COORD97":2545370.8199999998,"ADDRESS":"賢北街７０號","OBJECTID":615632},"geometry":{"x":166302.62000000104,"y":2545370.8200000003}},{"attributes":{"ID":615660,"DIS_CODE":0,"TOWNNAME":"關廟區","LI":"關廟里","LIN":"2鄰","STREET":"忠孝街","SECT":" ","MAREA":" ","LANE":" ","ALLEY":" ","HOUSE_NO":"３９號","E_COORD97":180966.89000000001,"N_COORD97":2540137.2400000002,"ADDRESS":"忠孝街３９號","OBJECTID":615633},"geometry":{"x":180966.8900000006,"y":2540137.2399999984}},{"attributes":{"ID":615661,"DIS_CODE":0,"TOWNNAME":"關廟區","LI":"布袋里","LIN":"2鄰","STREET":"長裕街","SECT":" ","MAREA":" ","LANE":" ","ALLEY":" ","HOUSE_NO":"６號","E_COORD97":182813.64000000001,"N_COORD97":2536121.2999999998,"ADDRESS":"長裕街６號","OBJECTID":615634},"geometry":{"x":182813.63999999966,"y":2536121.3000000026}},{"attributes":{"ID":615662,"DIS_CODE":0,"TOWNNAME":"關廟區","LI":"布袋里","LIN":"2鄰","STREET":"長裕街","SECT":" ","MAREA":" ","LANE":" ","ALLEY":" ","HOUSE_NO":"９８號","E_COORD97":182452.04000000001,"N_COORD97":2535943.2999999998,"ADDRESS":"長裕街９８號","OBJECTID":615635},"geometry":{"x":182452.04000000004,"y":2535943.3000000007}},{"attributes":{"ID":615663,"DIS_CODE":0,"TOWNNAME":"關廟區","LI":"埤頭里","LIN":"2鄰","STREET":"關新路","SECT":"一段","MAREA":" ","LANE":" ","ALLEY":" ","HOUSE_NO":"７７０號","E_COORD97":179142.57000000001,"N_COORD97":2543773.2999999998,"ADDRESS":"關新路一段７７０號","OBJECTID":615636},"geometry":{"x":179142.57000000123,"y":2543773.3000000026}},{"attributes":{"ID":615664,"DIS_CODE":0,"TOWNNAME":"關廟區","LI":"松腳里","LIN":"2鄰","STREET":"松柏街","SECT":" ","MAREA":" ","LANE":" ","ALLEY":" ","HOUSE_NO":"２２號","E_COORD97":181965.62,"N_COORD97":2539692.25,"ADDRESS":"松柏街２２號","OBJECTID":615637},"geometry":{"x":181965.62000000197,"y":2539692.25}},{"attributes":{"ID":615665,"DIS_CODE":0,"TOWNNAME":"關廟區","LI":"松腳里","LIN":"2鄰","STREET":"松柏街","SECT":" ","MAREA":" ","LANE":" ","ALLEY":" ","HOUSE_NO":"１７號","E_COORD97":181933.82000000001,"N_COORD97":2539683.25,"ADDRESS":"松柏街１７號","OBJECTID":615638},"geometry":{"x":181933.8200000003,"y":2539683.2500000019}},{"attributes":{"ID":615666,"DIS_CODE":0,"TOWNNAME":"關廟區","LI":"新埔里","LIN":"2鄰","STREET":"新埔二街","SECT":" ","MAREA":" ","LANE":" ","ALLEY":" ","HOUSE_NO":"９５號","E_COORD97":181317.76999999999,"N_COORD97":2540969.25,"ADDRESS":"新埔二街９５號","OBJECTID":615639},"geometry":{"x":181317.76999999955,"y":2540969.2500000019}},{"attributes":{"ID":615667,"DIS_CODE":0,"TOWNNAME":"關廟區","LI":"深坑里","LIN":"2鄰","STREET":"深坑一街","SECT":" ","MAREA":" ","LANE":" ","ALLEY":" ","HOUSE_NO":"３２號","E_COORD97":181872.26999999999,"N_COORD97":2537566.2799999998,"ADDRESS":"深坑一街３２號","OBJECTID":615640},"geometry":{"x":181872.26999999955,"y":2537566.2800000031}},{"attributes":{"ID":615668,"DIS_CODE":0,"TOWNNAME":"關廟區","LI":"深坑里","LIN":"2鄰","STREET":"南雄路","SECT":"一段","MAREA":" ","LANE":" ","ALLEY":" ","HOUSE_NO":"３１２號","E_COORD97":181852.87,"N_COORD97":2537471.2999999998,"ADDRESS":"南雄路一段３１２號","OBJECTID":615641},"geometry":{"x":181852.87000000104,"y":2537471.3000000007}},{"attributes":{"ID":615669,"DIS_CODE":0,"TOWNNAME":"關廟區","LI":"深坑里","LIN":"2鄰","STREET":"南雄路","SECT":"一段","MAREA":" ","LANE":" ","ALLEY":" ","HOUSE_NO":"２９２號","E_COORD97":181872.07000000001,"N_COORD97":2537436.2999999998,"ADDRESS":"南雄路一段２９２號","OBJECTID":615642},"geometry":{"x":181872.07000000123,"y":2537436.3000000026}},{"attributes":{"ID":615670,"DIS_CODE":0,"TOWNNAME":"關廟區","LI":"關廟里","LIN":"2鄰","STREET":"忠孝街","SECT":" ","MAREA":" ","LANE":" ","ALLEY":" ","HOUSE_NO":"４５號","E_COORD97":180970.69,"N_COORD97":2540149.25,"ADDRESS":"忠孝街４５號","OBJECTID":615643},"geometry":{"x":180970.69000000134,"y":2540149.25}},{"attributes":{"ID":615671,"DIS_CODE":0,"TOWNNAME":"關廟區","LI":"布袋里","LIN":"2鄰","STREET":"長裕街","SECT":" ","MAREA":" ","LANE":" ","ALLEY":" ","HOUSE_NO":"２６５號","E_COORD97":181851.39000000001,"N_COORD97":2535867.2999999998,"ADDRESS":"長裕街２６５號","OBJECTID":615644},"geometry":{"x":181851.38999999873,"y":2535867.3000000026}},{"attributes":{"ID":615672,"DIS_CODE":0,"TOWNNAME":"關廟區","LI":"新埔里","LIN":"2鄰","STREET":"忠孝街","SECT":" ","MAREA":" ","LANE":" ","ALLEY":" ","HOUSE_NO":"２７０號","E_COORD97":181214.14000000001,"N_COORD97":2540905.25,"ADDRESS":"忠孝街２７０號","OBJECTID":615645},"geometry":{"x":181214.14000000153,"y":2540905.25}},{"attributes":{"ID":615673,"DIS_CODE":0,"TOWNNAME":"關廟區","LI":"香洋里","LIN":"2鄰","STREET":"中正路","SECT":" ","MAREA":" ","LANE":" ","ALLEY":" ","HOUSE_NO":"９８２號","E_COORD97":181094.66,"N_COORD97":2540316.25,"ADDRESS":"中正路９８２號","OBJECTID":615646},"geometry":{"x":181094.66000000108,"y":2540316.25}},{"attributes":{"ID":615674,"DIS_CODE":0,"TOWNNAME":"關廟區","LI":"關廟里","LIN":"2鄰","STREET":"忠孝街","SECT":" ","MAREA":" ","LANE":" ","ALLEY":" ","HOUSE_NO":"５１號","E_COORD97":180972.98999999999,"N_COORD97":2540161.25,"ADDRESS":"忠孝街５１號","OBJECTID":615647},"geometry":{"x":180972.99000000022,"y":2540161.2500000019}},{"attributes":{"ID":615675,"DIS_CODE":0,"TOWNNAME":"關廟區","LI":"新埔里","LIN":"2鄰","STREET":"北新街","SECT":" ","MAREA":" ","LANE":" ","ALLEY":" ","HOUSE_NO":"２７５號","E_COORD97":181338.98999999999,"N_COORD97":2540954.25,"ADDRESS":"北新街２７５號","OBJECTID":615648},"geometry":{"x":181338.99000000022,"y":2540954.2500000037}},{"attributes":{"ID":615676,"DIS_CODE":0,"TOWNNAME":"關廟區","LI":"新光里","LIN":"2鄰","STREET":"新湖街","SECT":" ","MAREA":" ","LANE":" ","ALLEY":" ","HOUSE_NO":"２７６號","E_COORD97":182980.48999999999,"N_COORD97":2542466.25,"ADDRESS":"新湖街２７６號","OBJECTID":615649},"geometry":{"x":182980.49000000209,"y":2542466.2500000037}},{"attributes":{"ID":615677,"DIS_CODE":0,"TOWNNAME":"關廟區","LI":"埤頭里","LIN":"2鄰","STREET":"關新路","SECT":"一段","MAREA":" ","LANE":" ","ALLEY":" ","HOUSE_NO":"７５２號","E_COORD97":179195.29999999999,"N_COORD97":2543729.3599999999,"ADDRESS":"關新路一段７５２號","OBJECTID":615650},"geometry":{"x":179195.29999999981,"y":2543729.3599999975}},{"attributes":{"ID":615678,"DIS_CODE":0,"TOWNNAME":"關廟區","LI":"埤頭里","LIN":"2鄰","STREET":"關新路","SECT":"一段","MAREA":" ","LANE":" ","ALLEY":" ","HOUSE_NO":"７５６號","E_COORD97":179172.10000000001,"N_COORD97":2543758.7400000002,"ADDRESS":"關新路一段７５６號","OBJECTID":615651},"geometry":{"x":179172.10000000056,"y":2543758.7400000021}},{"attributes":{"ID":615679,"DIS_CODE":0,"TOWNNAME":"新營區","LI":"新北里","LIN":"2鄰","STREET":"三興街","SECT":" ","MAREA":" ","LANE":" ","ALLEY":" ","HOUSE_NO":"６９號","E_COORD97":179441.31,"N_COORD97":2578990.6600000001,"ADDRESS":"三興街６９號","OBJECTID":615652},"geometry":{"x":179441.30999999866,"y":2578990.6600000001}},{"attributes":{"ID":615680,"DIS_CODE":0,"TOWNNAME":"新營區","LI":"新北里","LIN":"2鄰","STREET":"三興街","SECT":" ","MAREA":" ","LANE":" ","ALLEY":" ","HOUSE_NO":"５９號之２","E_COORD97":179439.32000000001,"N_COORD97":2578951.9700000002,"ADDRESS":"三興街５９號之２","OBJECTID":615653},"geometry":{"x":179439.32000000123,"y":2578951.9700000007}},{"attributes":{"ID":615681,"DIS_CODE":0,"TOWNNAME":"新營區","LI":"新北里","LIN":"2鄰","STREET":"三興街","SECT":" ","MAREA":" ","LANE":" ","ALLEY":" ","HOUSE_NO":"５９號之７","E_COORD97":179408.57999999999,"N_COORD97":2578953.23,"ADDRESS":"三興街５９號之７","OBJECTID":615654},"geometry":{"x":179408.58000000101,"y":2578953.2300000004}},{"attributes":{"ID":615682,"DIS_CODE":0,"TOWNNAME":"新營區","LI":"大宏里","LIN":"2鄰","STREET":"民族路","SECT":" ","MAREA":" ","LANE":" ","ALLEY":" ","HOUSE_NO":"５４號","E_COORD97":180291.5,"N_COORD97":2578817.1899999999,"ADDRESS":"民族路５４號","OBJECTID":615655},"geometry":{"x":180291.50000000186,"y":2578817.1899999995}},{"attributes":{"ID":615683,"DIS_CODE":0,"TOWNNAME":"新營區","LI":"新北里","LIN":"2鄰","STREET":"三興街","SECT":" ","MAREA":" ","LANE":" ","ALLEY":" ","HOUSE_NO":"７１號之７","E_COORD97":179408.78,"N_COORD97":2578993.0899999999,"ADDRESS":"三興街７１號之７","OBJECTID":615656},"geometry":{"x":179408.78000000119,"y":2578993.0900000017}},{"attributes":{"ID":615684,"DIS_CODE":0,"TOWNNAME":"新營區","LI":"三仙里","LIN":"2鄰","STREET":"正義街","SECT":" ","MAREA":" ","LANE":" ","ALLEY":" ","HOUSE_NO":"１０之２號","E_COORD97":179702.26999999999,"N_COORD97":2578063.6499999999,"ADDRESS":"正義街１０之２號","OBJECTID":615657},"geometry":{"x":179702.26999999955,"y":2578063.6500000022}},{"attributes":{"ID":615685,"DIS_CODE":0,"TOWNNAME":"新營區","LI":"中營里","LIN":"2鄰","STREET":"中山路","SECT":" ","MAREA":" ","LANE":" ","ALLEY":" ","HOUSE_NO":"８０號","E_COORD97":180402.66,"N_COORD97":2578302.8100000001,"ADDRESS":"中山路８０號","OBJECTID":615658},"geometry":{"x":180402.66000000108,"y":2578302.8100000042}},{"attributes":{"ID":615686,"DIS_CODE":0,"TOWNNAME":"新營區","LI":"新南里","LIN":"2鄰","STREET":"新北一街","SECT":" ","MAREA":" ","LANE":" ","ALLEY":" ","HOUSE_NO":"１３號","E_COORD97":178866.73000000001,"N_COORD97":2578619.1000000001,"ADDRESS":"新北一街１３號","OBJECTID":615659},"geometry":{"x":178866.73000000138,"y":2578619.1000000015}},{"attributes":{"ID":615687,"DIS_CODE":0,"TOWNNAME":"新營區","LI":"新南里","LIN":"2鄰","STREET":"新北一街","SECT":" ","MAREA":" ","LANE":" ","ALLEY":" ","HOUSE_NO":"９３號","E_COORD97":178674.91,"N_COORD97":2578724.1200000001,"ADDRESS":"新北一街９３號","OBJECTID":615660},"geometry":{"x":178674.91000000015,"y":2578724.120000001}},{"attributes":{"ID":615688,"DIS_CODE":0,"TOWNNAME":"新營區","LI":"新南里","LIN":"2鄰","STREET":"新北一街","SECT":" ","MAREA":" ","LANE":" ","ALLEY":" ","HOUSE_NO":"４６號","E_COORD97":178731.95999999999,"N_COORD97":2578651.8599999999,"ADDRESS":"新北一街４６號","OBJECTID":615661},"geometry":{"x":178731.95999999996,"y":2578651.8600000013}},{"attributes":{"ID":615689,"DIS_CODE":0,"TOWNNAME":"新營區","LI":"大宏里","LIN":"2鄰","STREET":"民族路","SECT":" ","MAREA":" ","LANE":" ","ALLEY":" ","HOUSE_NO":"４６號","E_COORD97":180333.5,"N_COORD97":2578816.9900000002,"ADDRESS":"民族路４６號","OBJECTID":615662},"geometry":{"x":180333.5,"y":2578816.9900000021}},{"attributes":{"ID":615690,"DIS_CODE":0,"TOWNNAME":"新營區","LI":"新南里","LIN":"2鄰","STREET":"新北一街","SECT":" ","MAREA":" ","LANE":" ","ALLEY":" ","HOUSE_NO":"３３號","E_COORD97":178829.92999999999,"N_COORD97":2578602.6499999999,"ADDRESS":"新北一街３３號","OBJECTID":615663},"geometry":{"x":178829.9299999997,"y":2578602.6500000022}},{"attributes":{"ID":615691,"DIS_CODE":0,"TOWNNAME":"新營區","LI":"新北里","LIN":"2鄰","STREET":"三興街","SECT":" ","MAREA":" ","LANE":" ","ALLEY":" ","HOUSE_NO":"６５號","E_COORD97":179444.35000000001,"N_COORD97":2578982.8900000001,"ADDRESS":"三興街６５號","OBJECTID":615664},"geometry":{"x":179444.34999999963,"y":2578982.8900000006}},{"attributes":{"ID":615692,"DIS_CODE":0,"TOWNNAME":"新營區","LI":"中營里","LIN":"2鄰","STREET":"中山路","SECT":" ","MAREA":" ","LANE":" ","ALLEY":" ","HOUSE_NO":"６２之１號","E_COORD97":180446.10999999999,"N_COORD97":2578321.5,"ADDRESS":"中山路６２之１號","OBJECTID":615665},"geometry":{"x":180446.11000000127,"y":2578321.5000000037}},{"attributes":{"ID":615693,"DIS_CODE":0,"TOWNNAME":"新營區","LI":"好平里","LIN":"2鄰","STREET":"南昌街","SECT":" ","MAREA":" ","LANE":" ","ALLEY":" ","HOUSE_NO":"１８號","E_COORD97":179688.69,"N_COORD97":2577669.3999999999,"ADDRESS":"南昌街１８號","OBJECTID":615666},"geometry":{"x":179688.69000000041,"y":2577669.4000000022}},{"attributes":{"ID":615694,"DIS_CODE":0,"TOWNNAME":"新營區","LI":"好平里","LIN":"2鄰","STREET":"新進路","SECT":"二段","MAREA":" ","LANE":" ","ALLEY":" ","HOUSE_NO":"６１號","E_COORD97":179582.59,"N_COORD97":2577725.2799999998,"ADDRESS":"新進路二段６１號","OBJECTID":615667},"geometry":{"x":179582.59000000078,"y":2577725.2800000031}},{"attributes":{"ID":615695,"DIS_CODE":0,"TOWNNAME":"新營區","LI":"民生里","LIN":"2鄰","STREET":"三興街","SECT":" ","MAREA":" ","LANE":" ","ALLEY":" ","HOUSE_NO":"１號","E_COORD97":179484.79000000001,"N_COORD97":2578074.5800000001,"ADDRESS":"三興街１號","OBJECTID":615668},"geometry":{"x":179484.79000000097,"y":2578074.5800000019}},{"attributes":{"ID":615696,"DIS_CODE":0,"TOWNNAME":"新營區","LI":"延平里","LIN":"2鄰","STREET":"延平路","SECT":" ","MAREA":" ","LANE":" ","ALLEY":" ","HOUSE_NO":"３４號","E_COORD97":179781.70999999999,"N_COORD97":2577851.6899999999,"ADDRESS":"延平路３４號","OBJECTID":615669},"geometry":{"x":179781.71000000089,"y":2577851.6900000032}},{"attributes":{"ID":615697,"DIS_CODE":0,"TOWNNAME":"新營區","LI":"三仙里","LIN":"2鄰","STREET":"正義街","SECT":" ","MAREA":" ","LANE":" ","ALLEY":" ","HOUSE_NO":"１０之４號","E_COORD97":179711.48999999999,"N_COORD97":2578065.8199999998,"ADDRESS":"正義街１０之４號","OBJECTID":615670},"geometry":{"x":179711.49000000022,"y":2578065.8200000022}},{"attributes":{"ID":615698,"DIS_CODE":0,"TOWNNAME":"新營區","LI":"新北里","LIN":"2鄰","STREET":"三興街","SECT":" ","MAREA":" ","LANE":" ","ALLEY":" ","HOUSE_NO":"５９號之６","E_COORD97":179412.70999999999,"N_COORD97":2578954.3199999998,"ADDRESS":"三興街５９號之６","OBJECTID":615671},"geometry":{"x":179412.71000000089,"y":2578954.3200000022}},{"attributes":{"ID":615699,"DIS_CODE":0,"TOWNNAME":"新營區","LI":"民權里","LIN":"2鄰","STREET":"信義街","SECT":" ","MAREA":" ","LANE":" ","ALLEY":" ","HOUSE_NO":"１０號之１","E_COORD97":179964.06,"N_COORD97":2578124.4300000002,"ADDRESS":"信義街１０號之１","OBJECTID":615672},"geometry":{"x":179964.06000000052,"y":2578124.4299999997}},{"attributes":{"ID":615700,"DIS_CODE":0,"TOWNNAME":"新營區","LI":"中營里","LIN":"2鄰","STREET":"中山路","SECT":" ","MAREA":" ","LANE":" ","ALLEY":" ","HOUSE_NO":"１０４號","E_COORD97":180348.5,"N_COORD97":2578278.71,"ADDRESS":"中山路１０４號","OBJECTID":615673},"geometry":{"x":180348.5,"y":2578278.7100000009}},{"attributes":{"ID":615701,"DIS_CODE":0,"TOWNNAME":"新營區","LI":"中營里","LIN":"2鄰","STREET":"中山路","SECT":" ","MAREA":" ","LANE":" ","ALLEY":" ","HOUSE_NO":"１０２號","E_COORD97":180352.60000000001,"N_COORD97":2578279.7999999998,"ADDRESS":"中山路１０２號","OBJECTID":615674},"geometry":{"x":180352.59999999963,"y":2578279.8000000026}},{"attributes":{"ID":615702,"DIS_CODE":0,"TOWNNAME":"新營區","LI":"大宏里","LIN":"2鄰","STREET":"民族路","SECT":" ","MAREA":" ","LANE":" ","ALLEY":" ","HOUSE_NO":"５０號","E_COORD97":180327.35999999999,"N_COORD97":2578830.3199999998,"ADDRESS":"民族路５０號","OBJECTID":615675},"geometry":{"x":180327.36000000127,"y":2578830.3200000003}},{"attributes":{"ID":615703,"DIS_CODE":0,"TOWNNAME":"新營區","LI":"好平里","LIN":"2鄰","STREET":"新進路","SECT":"二段","MAREA":" ","LANE":" ","ALLEY":" ","HOUSE_NO":"５５號","E_COORD97":179607.16,"N_COORD97":2577728.48,"ADDRESS":"新進路二段５５號","OBJECTID":615676},"geometry":{"x":179607.16000000015,"y":2577728.4800000042}},{"attributes":{"ID":615704,"DIS_CODE":0,"TOWNNAME":"新營區","LI":"新北里","LIN":"2鄰","STREET":"三興街","SECT":" ","MAREA":" ","LANE":" ","ALLEY":" ","HOUSE_NO":"５９號之３","E_COORD97":179438.28,"N_COORD97":2578957.52,"ADDRESS":"三興街５９號之３","OBJECTID":615677},"geometry":{"x":179438.28000000026,"y":2578957.5199999996}},{"attributes":{"ID":615705,"DIS_CODE":0,"TOWNNAME":"新營區","LI":"民權里","LIN":"2鄰","STREET":"博愛街","SECT":" ","MAREA":" ","LANE":" ","ALLEY":" ","HOUSE_NO":"７號","E_COORD97":180028.34,"N_COORD97":2578150.6400000001,"ADDRESS":"博愛街７號","OBJECTID":615678},"geometry":{"x":180028.34000000078,"y":2578150.6400000006}},{"attributes":{"ID":615706,"DIS_CODE":0,"TOWNNAME":"新營區","LI":"新北里","LIN":"2鄰","STREET":"三興街","SECT":" ","MAREA":" ","LANE":" ","ALLEY":" ","HOUSE_NO":"５９號之１","E_COORD97":179441.20999999999,"N_COORD97":2578947.5299999998,"ADDRESS":"三興街５９號之１","OBJECTID":615679},"geometry":{"x":179441.21000000089,"y":2578947.5300000031}},{"attributes":{"ID":615707,"DIS_CODE":0,"TOWNNAME":"新營區","LI":"新北里","LIN":"2鄰","STREET":"三興街","SECT":" ","MAREA":" ","LANE":" ","ALLEY":" ","HOUSE_NO":"５９號之５","E_COORD97":179416.85000000001,"N_COORD97":2578955.3999999999,"ADDRESS":"三興街５９號之５","OBJECTID":615680},"geometry":{"x":179416.84999999963,"y":2578955.4000000004}},{"attributes":{"ID":615708,"DIS_CODE":0,"TOWNNAME":"新營區","LI":"民權里","LIN":"2鄰","STREET":"信義街","SECT":" ","MAREA":" ","LANE":" ","ALLEY":" ","HOUSE_NO":"１０號","E_COORD97":179961.89999999999,"N_COORD97":2578119.9500000002,"ADDRESS":"信義街１０號","OBJECTID":615681},"geometry":{"x":179961.90000000037,"y":2578119.9499999993}},{"attributes":{"ID":615709,"DIS_CODE":0,"TOWNNAME":"新營區","LI":"民權里","LIN":"2鄰","STREET":"信義街","SECT":" ","MAREA":" ","LANE":" ","ALLEY":" ","HOUSE_NO":"１０之２號","E_COORD97":179964.44,"N_COORD97":2578128.8599999999,"ADDRESS":"信義街１０之２號","OBJECTID":615682},"geometry":{"x":179964.44000000041,"y":2578128.8600000013}},{"attributes":{"ID":615710,"DIS_CODE":0,"TOWNNAME":"新營區","LI":"中營里","LIN":"2鄰","STREET":"中山路","SECT":" ","MAREA":" ","LANE":" ","ALLEY":" ","HOUSE_NO":"９４號","E_COORD97":180386.17000000001,"N_COORD97":2578295.1400000001,"ADDRESS":"中山路９４號","OBJECTID":615683},"geometry":{"x":180386.16999999993,"y":2578295.1400000025}},{"attributes":{"ID":615711,"DIS_CODE":0,"TOWNNAME":"新營區","LI":"中營里","LIN":"2鄰","STREET":"中山路","SECT":" ","MAREA":" ","LANE":" ","ALLEY":" ","HOUSE_NO":"１０６號","E_COORD97":180344.39000000001,"N_COORD97":2578275.4100000001,"ADDRESS":"中山路１０６號","OBJECTID":615684},"geometry":{"x":180344.38999999873,"y":2578275.410000002}},{"attributes":{"ID":615712,"DIS_CODE":0,"TOWNNAME":"新營區","LI":"中營里","LIN":"2鄰","STREET":"中山路","SECT":" ","MAREA":" ","LANE":" ","ALLEY":" ","HOUSE_NO":"９６之１號","E_COORD97":180365.09,"N_COORD97":2578285.3300000001,"ADDRESS":"中山路９６之１號","OBJECTID":615685},"geometry":{"x":180365.08999999985,"y":2578285.3300000038}},{"attributes":{"ID":615713,"DIS_CODE":0,"TOWNNAME":"新化區","LI":"協興里","LIN":"2鄰","STREET":"太平街","SECT":" ","MAREA":" ","LANE":" ","ALLEY":" ","HOUSE_NO":"１０５號","E_COORD97":178492.82000000001,"N_COORD97":2548704.25,"ADDRESS":"太平街１０５號","OBJECTID":615686},"geometry":{"x":178492.82000000216,"y":2548704.25}},{"attributes":{"ID":615714,"DIS_CODE":0,"TOWNNAME":"新化區","LI":"中央里","LIN":"2鄰","STREET":"大同街","SECT":" ","MAREA":" ","LANE":" ","ALLEY":" ","HOUSE_NO":"９０號","E_COORD97":178986.78,"N_COORD97":2548319.25,"ADDRESS":"大同街９０號","OBJECTID":615687},"geometry":{"x":178986.78000000119,"y":2548319.2500000019}},{"attributes":{"ID":615715,"DIS_CODE":0,"TOWNNAME":"新化區","LI":"東榮里","LIN":"2鄰","STREET":"中興路","SECT":" ","MAREA":" ","LANE":" ","ALLEY":" ","HOUSE_NO":"９０號","E_COORD97":181901.56,"N_COORD97":2547322.25,"ADDRESS":"中興路９０號","OBJECTID":615688},"geometry":{"x":181901.56000000052,"y":2547322.2500000019}},{"attributes":{"ID":615716,"DIS_CODE":0,"TOWNNAME":"新化區","LI":"太平里","LIN":"2鄰","STREET":"建國街","SECT":" ","MAREA":" ","LANE":" ","ALLEY":" ","HOUSE_NO":"５０號","E_COORD97":179170.88,"N_COORD97":2548774.2599999998,"ADDRESS":"建國街５０號","OBJECTID":615689},"geometry":{"x":179170.87999999989,"y":2548774.2599999998}},{"attributes":{"ID":615717,"DIS_CODE":0,"TOWNNAME":"新化區","LI":"東榮里","LIN":"2鄰","STREET":"中興路","SECT":" ","MAREA":" ","LANE":" ","ALLEY":" ","HOUSE_NO":"２２號","E_COORD97":181904.76000000001,"N_COORD97":2547374.25,"ADDRESS":"中興路２２號","OBJECTID":615690},"geometry":{"x":181904.75999999978,"y":2547374.25}},{"attributes":{"ID":615718,"DIS_CODE":0,"TOWNNAME":"新化區","LI":"觀音里","LIN":"2鄰","STREET":"中山路","SECT":" ","MAREA":" ","LANE":" ","ALLEY":" ","HOUSE_NO":"３０２號","E_COORD97":178993.20999999999,"N_COORD97":2548451.25,"ADDRESS":"中山路３０２號","OBJECTID":615691},"geometry":{"x":178993.21000000183,"y":2548451.2500000019}},{"attributes":{"ID":615719,"DIS_CODE":0,"TOWNNAME":"新化區","LI":"中央里","LIN":"2鄰","STREET":"信義路","SECT":" ","MAREA":" ","LANE":" ","ALLEY":" ","HOUSE_NO":"２８２號","E_COORD97":179009.13,"N_COORD97":2548309.25,"ADDRESS":"信義路２８２號","OBJECTID":615692},"geometry":{"x":179009.13000000082,"y":2548309.2500000019}},{"attributes":{"ID":615720,"DIS_CODE":0,"TOWNNAME":"南區","LI":"廣州里","LIN":"2鄰","STREET":"福吉路","SECT":" ","MAREA":" ","LANE":" ","ALLEY":" ","HOUSE_NO":"６９號","E_COORD97":167318.03,"N_COORD97":2542525.6699999999,"ADDRESS":"福吉路６９號","OBJECTID":615693},"geometry":{"x":167318.03000000026,"y":2542525.6700000018}},{"attributes":{"ID":615721,"DIS_CODE":0,"TOWNNAME":"南區","LI":"廣州里","LIN":"2鄰","STREET":"福吉路","SECT":" ","MAREA":" ","LANE":" ","ALLEY":" ","HOUSE_NO":"７３號","E_COORD97":167308.32000000001,"N_COORD97":2542522.71,"ADDRESS":"福吉路７３號","OBJECTID":615694},"geometry":{"x":167308.32000000123,"y":2542522.7100000028}},{"attributes":{"ID":615722,"DIS_CODE":0,"TOWNNAME":"南區","LI":"廣州里","LIN":"2鄰","STREET":"福吉路","SECT":" ","MAREA":" ","LANE":" ","ALLEY":" ","HOUSE_NO":"６５號","E_COORD97":167320.98999999999,"N_COORD97":2542532.4100000001,"ADDRESS":"福吉路６５號","OBJECTID":615695},"geometry":{"x":167320.99000000115,"y":2542532.4100000001}},{"attributes":{"ID":615723,"DIS_CODE":0,"TOWNNAME":"南區","LI":"廣州里","LIN":"2鄰","STREET":"福吉路","SECT":" ","MAREA":" ","LANE":" ","ALLEY":" ","HOUSE_NO":"７５號","E_COORD97":167306.20999999999,"N_COORD97":2542519.75,"ADDRESS":"福吉路７５號","OBJECTID":615696},"geometry":{"x":167306.20999999996,"y":2542519.75}},{"attributes":{"ID":615724,"DIS_CODE":0,"TOWNNAME":"南區","LI":"廣州里","LIN":"2鄰","STREET":"福吉路","SECT":" ","MAREA":" ","LANE":" ","ALLEY":" ","HOUSE_NO":"７７號","E_COORD97":167304.94,"N_COORD97":2542515.5499999998,"ADDRESS":"福吉路７７號","OBJECTID":615697},"geometry":{"x":167304.94000000041,"y":2542515.5500000007}},{"attributes":{"ID":615725,"DIS_CODE":0,"TOWNNAME":"南區","LI":"廣州里","LIN":"2鄰","STREET":"福吉路","SECT":" ","MAREA":" ","LANE":" ","ALLEY":" ","HOUSE_NO":"７９號","E_COORD97":167302.41,"N_COORD97":2542512.6000000001,"ADDRESS":"福吉路７９號","OBJECTID":615698},"geometry":{"x":167302.41000000108,"y":2542512.6000000015}},{"attributes":{"ID":615726,"DIS_CODE":0,"TOWNNAME":"南區","LI":"廣州里","LIN":"2鄰","STREET":"福吉路","SECT":" ","MAREA":" ","LANE":" ","ALLEY":" ","HOUSE_NO":"８１號","E_COORD97":167297.76999999999,"N_COORD97":2542508.3799999999,"ADDRESS":"福吉路８１號","OBJECTID":615699},"geometry":{"x":167297.77000000048,"y":2542508.3800000027}},{"attributes":{"ID":615727,"DIS_CODE":0,"TOWNNAME":"南區","LI":"廣州里","LIN":"2鄰","STREET":"福吉路","SECT":" ","MAREA":" ","LANE":" ","ALLEY":" ","HOUSE_NO":"８３號","E_COORD97":167297.76999999999,"N_COORD97":2542502.0499999998,"ADDRESS":"福吉路８３號","OBJECTID":615700},"geometry":{"x":167297.77000000048,"y":2542502.0500000007}},{"attributes":{"ID":615728,"DIS_CODE":0,"TOWNNAME":"南區","LI":"廣州里","LIN":"2鄰","STREET":"福吉路","SECT":" ","MAREA":" ","LANE":" ","ALLEY":" ","HOUSE_NO":"８５號","E_COORD97":167301.14000000001,"N_COORD97":2542497.4199999999,"ADDRESS":"福吉路８５號","OBJECTID":615701},"geometry":{"x":167301.13999999966,"y":2542497.4199999999}},{"attributes":{"ID":615729,"DIS_CODE":0,"TOWNNAME":"南區","LI":"廣州里","LIN":"2鄰","STREET":"福吉路","SECT":" ","MAREA":" ","LANE":" ","ALLEY":" ","HOUSE_NO":"８７號","E_COORD97":167301.14000000001,"N_COORD97":2542493.2000000002,"ADDRESS":"福吉路８７號","OBJECTID":615702},"geometry":{"x":167301.13999999966,"y":2542493.200000003}},{"attributes":{"ID":615730,"DIS_CODE":0,"TOWNNAME":"南區","LI":"文華里","LIN":"2鄰","STREET":"金華路","SECT":"二段","MAREA":" ","LANE":" ","ALLEY":" ","HOUSE_NO":"４１９號","E_COORD97":167138.85999999999,"N_COORD97":2543100.6699999999,"ADDRESS":"金華路二段４１９號","OBJECTID":615703},"geometry":{"x":167138.86000000127,"y":2543100.6699999981}},{"attributes":{"ID":615731,"DIS_CODE":0,"TOWNNAME":"南區","LI":"建南里","LIN":"2鄰","STREET":"德興路","SECT":" ","MAREA":" ","LANE":" ","ALLEY":" ","HOUSE_NO":"２０９之１號","E_COORD97":167223.42000000001,"N_COORD97":2540201.25,"ADDRESS":"德興路２０９之１號","OBJECTID":615704},"geometry":{"x":167223.41999999993,"y":2540201.25}},{"attributes":{"ID":615732,"DIS_CODE":0,"TOWNNAME":"歸仁區","LI":"崙頂里","LIN":"2鄰","STREET":"成功五街","SECT":" ","MAREA":" ","LANE":" ","ALLEY":" ","HOUSE_NO":"８號","E_COORD97":178284.38,"N_COORD97":2539923.5299999998,"ADDRESS":"成功五街８號","OBJECTID":615705},"geometry":{"x":178284.37999999989,"y":2539923.5299999993}},{"attributes":{"ID":615733,"DIS_CODE":0,"TOWNNAME":"歸仁區","LI":"大廟里","LIN":"2鄰","STREET":"大廟三街","SECT":" ","MAREA":" ","LANE":" ","ALLEY":" ","HOUSE_NO":"３４號","E_COORD97":176102.17000000001,"N_COORD97":2544005.25,"ADDRESS":"大廟三街３４號","OBJECTID":615706},"geometry":{"x":176102.17000000086,"y":2544005.25}},{"attributes":{"ID":615734,"DIS_CODE":0,"TOWNNAME":"歸仁區","LI":"文化里","LIN":"2鄰","STREET":"文化街","SECT":"二段","MAREA":" ","LANE":" ","ALLEY":" ","HOUSE_NO":"６０號","E_COORD97":177383.67000000001,"N_COORD97":2541135.2599999998,"ADDRESS":"文化街二段６０號","OBJECTID":615707},"geometry":{"x":177383.67000000086,"y":2541135.2600000016}},{"attributes":{"ID":615735,"DIS_CODE":0,"TOWNNAME":"歸仁區","LI":"大潭里","LIN":"2鄰","STREET":"大潭一街","SECT":" ","MAREA":" ","LANE":" ","ALLEY":" ","HOUSE_NO":"２３之１號","E_COORD97":175224.97,"N_COORD97":2534707.2999999998,"ADDRESS":"大潭一街２３之１號","OBJECTID":615708},"geometry":{"x":175224.97000000067,"y":2534707.3000000026}},{"attributes":{"ID":615736,"DIS_CODE":0,"TOWNNAME":"歸仁區","LI":"武東里","LIN":"2鄰","STREET":"中正南路","SECT":"二段","MAREA":" ","LANE":" ","ALLEY":" ","HOUSE_NO":"２２１號","E_COORD97":175428.20999999999,"N_COORD97":2535333.2799999998,"ADDRESS":"中正南路二段２２１號","OBJECTID":615709},"geometry":{"x":175428.21000000183,"y":2535333.2800000012}},{"attributes":{"ID":615737,"DIS_CODE":0,"TOWNNAME":"南區","LI":"再興里","LIN":"2鄰","STREET":"三和街","SECT":" ","MAREA":" ","LANE":" ","ALLEY":" ","HOUSE_NO":"２８號","E_COORD97":167252,"N_COORD97":2542414.6899999999,"ADDRESS":"三和街２８號","OBJECTID":615710},"geometry":{"x":167251.99999999907,"y":2542414.6899999995}},{"attributes":{"ID":615738,"DIS_CODE":0,"TOWNNAME":"歸仁區","LI":"辜厝里","LIN":"2鄰","STREET":"中山路","SECT":"二段","MAREA":" ","LANE":" ","ALLEY":" ","HOUSE_NO":"４７號","E_COORD97":177478.98000000001,"N_COORD97":2540778.98,"ADDRESS":"中山路二段４７號","OBJECTID":615711},"geometry":{"x":177478.98000000045,"y":2540778.9800000004}},{"attributes":{"ID":615739,"DIS_CODE":0,"TOWNNAME":"歸仁區","LI":"文化里","LIN":"2鄰","STREET":"民族北街","SECT":" ","MAREA":" ","LANE":" ","ALLEY":" ","HOUSE_NO":"１８３號","E_COORD97":177452.04000000001,"N_COORD97":2541295.23,"ADDRESS":"民族北街１８３號","OBJECTID":615712},"geometry":{"x":177452.04000000097,"y":2541295.2300000023}},{"attributes":{"ID":615740,"DIS_CODE":0,"TOWNNAME":"歸仁區","LI":"文化里","LIN":"2鄰","STREET":"民族北街","SECT":" ","MAREA":" ","LANE":" ","ALLEY":" ","HOUSE_NO":"１８５號","E_COORD97":177452.62,"N_COORD97":2541301.1299999999,"ADDRESS":"民族北街１８５號","OBJECTID":615713},"geometry":{"x":177452.62000000011,"y":2541301.1300000008}},{"attributes":{"ID":615741,"DIS_CODE":0,"TOWNNAME":"歸仁區","LI":"文化里","LIN":"2鄰","STREET":"民族北街","SECT":" ","MAREA":" ","LANE":" ","ALLEY":" ","HOUSE_NO":"２０１號","E_COORD97":177460.45999999999,"N_COORD97":2541332.9700000002,"ADDRESS":"民族北街２０１號","OBJECTID":615714},"geometry":{"x":177460.45999999996,"y":2541332.9699999988}},{"attributes":{"ID":615742,"DIS_CODE":0,"TOWNNAME":"歸仁區","LI":"南保里","LIN":"2鄰","STREET":"民權二街","SECT":" ","MAREA":" ","LANE":" ","ALLEY":" ","HOUSE_NO":"２９之１８號","E_COORD97":176867.10999999999,"N_COORD97":2541344.6099999999,"ADDRESS":"民權二街２９之１８號","OBJECTID":615715},"geometry":{"x":176867.11000000127,"y":2541344.6100000031}},{"attributes":{"ID":615743,"DIS_CODE":0,"TOWNNAME":"歸仁區","LI":"南保里","LIN":"2鄰","STREET":"民權二街","SECT":" ","MAREA":" ","LANE":" ","ALLEY":" ","HOUSE_NO":"２９之１９號","E_COORD97":176866.89000000001,"N_COORD97":2541338.7799999998,"ADDRESS":"民權二街２９之１９號","OBJECTID":615716},"geometry":{"x":176866.88999999966,"y":2541338.7799999993}},{"attributes":{"ID":615744,"DIS_CODE":0,"TOWNNAME":"歸仁區","LI":"崙頂里","LIN":"2鄰","STREET":"成功七街","SECT":" ","MAREA":" ","LANE":" ","ALLEY":" ","HOUSE_NO":"２號","E_COORD97":178284.29000000001,"N_COORD97":2539905.9100000001,"ADDRESS":"成功七街２號","OBJECTID":615717},"geometry":{"x":178284.2900000019,"y":2539905.9100000039}},{"attributes":{"ID":615745,"DIS_CODE":0,"TOWNNAME":"歸仁區","LI":"南保里","LIN":"2鄰","STREET":"民權二街","SECT":" ","MAREA":" ","LANE":" ","ALLEY":" ","HOUSE_NO":"２９之１７號","E_COORD97":176884.22821100001,"N_COORD97":2541338.80583,"ADDRESS":"民權二街２９之１７號","OBJECTID":615718},"geometry":{"x":176884.2282109987,"y":2541338.8058330007}},{"attributes":{"ID":615746,"DIS_CODE":0,"TOWNNAME":"歸仁區","LI":"南保里","LIN":"2鄰","STREET":"民權二街","SECT":" ","MAREA":" ","LANE":" ","ALLEY":" ","HOUSE_NO":"２９之１５號","E_COORD97":176859.223937,"N_COORD97":2541357.3266599998,"ADDRESS":"民權二街２９之１５號","OBJECTID":615719},"geometry":{"x":176859.22393700015,"y":2541357.3266560026}},{"attributes":{"ID":615747,"DIS_CODE":0,"TOWNNAME":"歸仁區","LI":"南保里","LIN":"2鄰","STREET":"民權二街","SECT":" ","MAREA":" ","LANE":" ","ALLEY":" ","HOUSE_NO":"２９之１３號","E_COORD97":176864.52145299999,"N_COORD97":2541357.0091599999,"ADDRESS":"民權二街２９之１３號","OBJECTID":615720},"geometry":{"x":176864.52145299967,"y":2541357.0091570001}},{"attributes":{"ID":615748,"DIS_CODE":0,"TOWNNAME":"歸仁區","LI":"南保里","LIN":"2鄰","STREET":"民權二街","SECT":" ","MAREA":" ","LANE":" ","ALLEY":" ","HOUSE_NO":"２９之１２號","E_COORD97":176869.18326699999,"N_COORD97":2541356.4799899999,"ADDRESS":"民權二街２９之１２號","OBJECTID":615721},"geometry":{"x":176869.18326700106,"y":2541356.4799900018}},{"attributes":{"ID":615749,"DIS_CODE":0,"TOWNNAME":"歸仁區","LI":"南保里","LIN":"2鄰","STREET":"民權二街","SECT":" ","MAREA":" ","LANE":" ","ALLEY":" ","HOUSE_NO":"２９之１１號","E_COORD97":176874.056981,"N_COORD97":2541356.5858200002,"ADDRESS":"民權二街２９之１１號","OBJECTID":615722},"geometry":{"x":176874.05698100012,"y":2541356.5858230032}},{"attributes":{"ID":615750,"DIS_CODE":0,"TOWNNAME":"歸仁區","LI":"南保里","LIN":"2鄰","STREET":"民權二街","SECT":" ","MAREA":" ","LANE":" ","ALLEY":" ","HOUSE_NO":"２９之９號","E_COORD97":176889.525727,"N_COORD97":2541355.2099899999,"ADDRESS":"民權二街２９之９號","OBJECTID":615723},"geometry":{"x":176889.52572700009,"y":2541355.2099910025}},{"attributes":{"ID":615751,"DIS_CODE":0,"TOWNNAME":"歸仁區","LI":"南保里","LIN":"2鄰","STREET":"民權二街","SECT":" ","MAREA":" ","LANE":" ","ALLEY":" ","HOUSE_NO":"２９之８號","E_COORD97":176894.39944099999,"N_COORD97":2541354.36332,"ADDRESS":"民權二街２９之８號","OBJECTID":615724},"geometry":{"x":176894.39944100007,"y":2541354.3633249998}},{"attributes":{"ID":615752,"DIS_CODE":0,"TOWNNAME":"歸仁區","LI":"南保里","LIN":"2鄰","STREET":"民權二街","SECT":" ","MAREA":" ","LANE":" ","ALLEY":" ","HOUSE_NO":"２９之７號","E_COORD97":176899.27315600001,"N_COORD97":2541354.2574900002,"ADDRESS":"民權二街２９之７號","OBJECTID":615725},"geometry":{"x":176899.27315600123,"y":2541354.257491}},{"attributes":{"ID":615753,"DIS_CODE":0,"TOWNNAME":"歸仁區","LI":"南保里","LIN":"2鄰","STREET":"民權二街","SECT":" ","MAREA":" ","LANE":" ","ALLEY":" ","HOUSE_NO":"２９之６號","E_COORD97":176904.570672,"N_COORD97":2541354.36332,"ADDRESS":"民權二街２９之６號","OBJECTID":615726},"geometry":{"x":176904.57067199983,"y":2541354.3633249998}},{"attributes":{"ID":615754,"DIS_CODE":0,"TOWNNAME":"歸仁區","LI":"南保里","LIN":"2鄰","STREET":"民權二街","SECT":" ","MAREA":" ","LANE":" ","ALLEY":" ","HOUSE_NO":"２９之５號","E_COORD97":176910.29198899999,"N_COORD97":2541353.62249,"ADDRESS":"民權二街２９之５號","OBJECTID":615727},"geometry":{"x":176910.29198899958,"y":2541353.6224920005}},{"attributes":{"ID":615755,"DIS_CODE":0,"TOWNNAME":"歸仁區","LI":"南保里","LIN":"2鄰","STREET":"民權二街","SECT":" ","MAREA":" ","LANE":" ","ALLEY":" ","HOUSE_NO":"２９之３號","E_COORD97":176914.3181,"N_COORD97":2541353.09332,"ADDRESS":"民權二街２９之３號","OBJECTID":615728},"geometry":{"x":176914.3180999998,"y":2541353.0933250003}},{"attributes":{"ID":615756,"DIS_CODE":0,"TOWNNAME":"歸仁區","LI":"南保里","LIN":"2鄰","STREET":"民權二街","SECT":" ","MAREA":" ","LANE":" ","ALLEY":" ","HOUSE_NO":"２９之２號","E_COORD97":176918.556113,"N_COORD97":2541353.1991599998,"ADDRESS":"民權二街２９之２號","OBJECTID":615729},"geometry":{"x":176918.55611300096,"y":2541353.1991590019}},{"attributes":{"ID":615757,"DIS_CODE":0,"TOWNNAME":"歸仁區","LI":"崙頂里","LIN":"2鄰","STREET":"成功五街","SECT":" ","MAREA":" ","LANE":" ","ALLEY":" ","HOUSE_NO":"１０號","E_COORD97":178285.98999999999,"N_COORD97":2539919.5899999999,"ADDRESS":"成功五街１０號","OBJECTID":615730},"geometry":{"x":178285.99000000022,"y":2539919.5899999999}},{"attributes":{"ID":615758,"DIS_CODE":0,"TOWNNAME":"歸仁區","LI":"崙頂里","LIN":"2鄰","STREET":"成功五街","SECT":" ","MAREA":" ","LANE":" ","ALLEY":" ","HOUSE_NO":"１２之１號","E_COORD97":178263.95999999999,"N_COORD97":2539913.8300000001,"ADDRESS":"成功五街１２之１號","OBJECTID":615731},"geometry":{"x":178263.95999999996,"y":2539913.8300000019}},{"attributes":{"ID":615759,"DIS_CODE":0,"TOWNNAME":"歸仁區","LI":"崙頂里","LIN":"2鄰","STREET":"成功五街","SECT":" ","MAREA":" ","LANE":" ","ALLEY":" ","HOUSE_NO":"１２之２號","E_COORD97":178257.53,"N_COORD97":2539911.9500000002,"ADDRESS":"成功五街１２之２號","OBJECTID":615732},"geometry":{"x":178257.53000000119,"y":2539911.9500000011}},{"attributes":{"ID":615760,"DIS_CODE":0,"TOWNNAME":"歸仁區","LI":"崙頂里","LIN":"2鄰","STREET":"成功五街","SECT":" ","MAREA":" ","LANE":" ","ALLEY":" ","HOUSE_NO":"１２之３號","E_COORD97":178250.85999999999,"N_COORD97":2539910.4500000002,"ADDRESS":"成功五街１２之３號","OBJECTID":615733},"geometry":{"x":178250.86000000127,"y":2539910.4499999993}},{"attributes":{"ID":615761,"DIS_CODE":0,"TOWNNAME":"歸仁區","LI":"崙頂里","LIN":"2鄰","STREET":"成功五街","SECT":" ","MAREA":" ","LANE":" ","ALLEY":" ","HOUSE_NO":"１２之５號","E_COORD97":178250.45000000001,"N_COORD97":2539902.29,"ADDRESS":"成功五街１２之５號","OBJECTID":615734},"geometry":{"x":178250.45000000019,"y":2539902.2900000028}},{"attributes":{"ID":615762,"DIS_CODE":0,"TOWNNAME":"歸仁區","LI":"崙頂里","LIN":"2鄰","STREET":"成功五街","SECT":" ","MAREA":" ","LANE":" ","ALLEY":" ","HOUSE_NO":"１２之６號","E_COORD97":178256.72,"N_COORD97":2539903.5099999998,"ADDRESS":"成功五街１２之６號","OBJECTID":615735},"geometry":{"x":178256.71999999974,"y":2539903.5099999998}},{"attributes":{"ID":615763,"DIS_CODE":0,"TOWNNAME":"歸仁區","LI":"崙頂里","LIN":"2鄰","STREET":"成功五街","SECT":" ","MAREA":" ","LANE":" ","ALLEY":" ","HOUSE_NO":"１２之７號","E_COORD97":178263.31,"N_COORD97":2539905.4199999999,"ADDRESS":"成功五街１２之７號","OBJECTID":615736},"geometry":{"x":178263.31000000145,"y":2539905.4200000037}},{"attributes":{"ID":615764,"DIS_CODE":0,"TOWNNAME":"歸仁區","LI":"崙頂里","LIN":"2鄰","STREET":"成功五街","SECT":" ","MAREA":" ","LANE":" ","ALLEY":" ","HOUSE_NO":"１２之８號","E_COORD97":178270.12,"N_COORD97":2539906.4900000002,"ADDRESS":"成功五街１２之８號","OBJECTID":615737},"geometry":{"x":178270.12000000197,"y":2539906.4900000021}},{"attributes":{"ID":615765,"DIS_CODE":0,"TOWNNAME":"歸仁區","LI":"崙頂里","LIN":"2鄰","STREET":"成功五街","SECT":" ","MAREA":" ","LANE":" ","ALLEY":" ","HOUSE_NO":"１２號","E_COORD97":178270.54999999999,"N_COORD97":2539915.7999999998,"ADDRESS":"成功五街１２號","OBJECTID":615738},"geometry":{"x":178270.55000000075,"y":2539915.8000000007}},{"attributes":{"ID":615766,"DIS_CODE":0,"TOWNNAME":"歸仁區","LI":"崙頂里","LIN":"2鄰","STREET":"成功五街","SECT":" ","MAREA":" ","LANE":" ","ALLEY":" ","HOUSE_NO":"２號","E_COORD97":178281.54000000001,"N_COORD97":2539932.0299999998,"ADDRESS":"成功五街２號","OBJECTID":615739},"geometry":{"x":178281.54000000097,"y":2539932.0300000012}},{"attributes":{"ID":615767,"DIS_CODE":0,"TOWNNAME":"歸仁區","LI":"崙頂里","LIN":"2鄰","STREET":"成功五街","SECT":" ","MAREA":" ","LANE":" ","ALLEY":" ","HOUSE_NO":"６號","E_COORD97":178283.26000000001,"N_COORD97":2539927.8300000001,"ADDRESS":"成功五街６號","OBJECTID":615740},"geometry":{"x":178283.26000000071,"y":2539927.8300000019}},{"attributes":{"ID":615768,"DIS_CODE":0,"TOWNNAME":"歸仁區","LI":"崙頂里","LIN":"2鄰","STREET":"成功路","SECT":"一段","MAREA":" ","LANE":" ","ALLEY":" ","HOUSE_NO":"２９７號","E_COORD97":178273.34,"N_COORD97":2539951.5600000001,"ADDRESS":"成功路一段２９７號","OBJECTID":615741},"geometry":{"x":178273.33999999985,"y":2539951.5600000005}},{"attributes":{"ID":615769,"DIS_CODE":0,"TOWNNAME":"歸仁區","LI":"崙頂里","LIN":"2鄰","STREET":"成功路","SECT":"一段","MAREA":" ","LANE":" ","ALLEY":" ","HOUSE_NO":"２９５號","E_COORD97":178277.16,"N_COORD97":2539954.46,"ADDRESS":"成功路一段２９５號","OBJECTID":615742},"geometry":{"x":178277.16000000108,"y":2539954.4600000028}},{"attributes":{"ID":615770,"DIS_CODE":0,"TOWNNAME":"歸仁區","LI":"文化里","LIN":"2鄰","STREET":"國光街","SECT":" ","MAREA":" ","LANE":" ","ALLEY":" ","HOUSE_NO":"１５８號","E_COORD97":177350.23000000001,"N_COORD97":2541198.1699999999,"ADDRESS":"國光街１５８號","OBJECTID":615743},"geometry":{"x":177350.23000000045,"y":2541198.1699999999}},{"attributes":{"ID":615771,"DIS_CODE":0,"TOWNNAME":"歸仁區","LI":"文化里","LIN":"2鄰","STREET":"國光街","SECT":" ","MAREA":" ","LANE":" ","ALLEY":" ","HOUSE_NO":"１６０號","E_COORD97":177350.67999999999,"N_COORD97":2541207.8799999999,"ADDRESS":"國光街１６０號","OBJECTID":615744},"geometry":{"x":177350.68000000063,"y":2541207.8800000008}},{"attributes":{"ID":615772,"DIS_CODE":0,"TOWNNAME":"歸仁區","LI":"文化里","LIN":"2鄰","STREET":"國光街","SECT":" ","MAREA":" ","LANE":" ","ALLEY":" ","HOUSE_NO":"１６２號","E_COORD97":177351.44,"N_COORD97":2541217.2799999998,"ADDRESS":"國光街１６２號","OBJECTID":615745},"geometry":{"x":177351.44000000134,"y":2541217.2799999993}},{"attributes":{"ID":615773,"DIS_CODE":0,"TOWNNAME":"歸仁區","LI":"文化里","LIN":"2鄰","STREET":"國光街","SECT":" ","MAREA":" ","LANE":" ","ALLEY":" ","HOUSE_NO":"１６６號","E_COORD97":177352.04999999999,"N_COORD97":2541226.0800000001,"ADDRESS":"國光街１６６號","OBJECTID":615746},"geometry":{"x":177352.05000000075,"y":2541226.0800000001}},{"attributes":{"ID":615774,"DIS_CODE":0,"TOWNNAME":"歸仁區","LI":"文化里","LIN":"2鄰","STREET":"國光街","SECT":" ","MAREA":" ","LANE":" ","ALLEY":" ","HOUSE_NO":"１６８號","E_COORD97":177353.06,"N_COORD97":2541235.0899999999,"ADDRESS":"國光街１６８號","OBJECTID":615747},"geometry":{"x":177353.06000000145,"y":2541235.0899999999}},{"attributes":{"ID":615775,"DIS_CODE":0,"TOWNNAME":"歸仁區","LI":"文化里","LIN":"2鄰","STREET":"國光街","SECT":" ","MAREA":" ","LANE":" ","ALLEY":" ","HOUSE_NO":"１７０號","E_COORD97":177353.14000000001,"N_COORD97":2541243.7799999998,"ADDRESS":"國光街１７０號","OBJECTID":615748},"geometry":{"x":177353.1400000006,"y":2541243.7799999993}},{"attributes":{"ID":615776,"DIS_CODE":0,"TOWNNAME":"歸仁區","LI":"文化里","LIN":"2鄰","STREET":"國光街","SECT":" ","MAREA":" ","LANE":" ","ALLEY":" ","HOUSE_NO":"１７２號","E_COORD97":177353.82999999999,"N_COORD97":2541252.9700000002,"ADDRESS":"國光街１７２號","OBJECTID":615749},"geometry":{"x":177353.83000000101,"y":2541252.9700000025}},{"attributes":{"ID":615777,"DIS_CODE":0,"TOWNNAME":"歸仁區","LI":"文化里","LIN":"2鄰","STREET":"國光街","SECT":" ","MAREA":" ","LANE":" ","ALLEY":" ","HOUSE_NO":"１８２之５號","E_COORD97":177380.57999999999,"N_COORD97":2541301.5099999998,"ADDRESS":"國光街１８２之５號","OBJECTID":615750},"geometry":{"x":177380.58000000101,"y":2541301.5100000035}},{"attributes":{"ID":615778,"DIS_CODE":0,"TOWNNAME":"歸仁區","LI":"文化里","LIN":"2鄰","STREET":"國光街","SECT":" ","MAREA":" ","LANE":" ","ALLEY":" ","HOUSE_NO":"１８２號","E_COORD97":177377.41,"N_COORD97":2541282.1299999999,"ADDRESS":"國光街１８２號","OBJECTID":615751},"geometry":{"x":177377.41000000108,"y":2541282.129999999}},{"attributes":{"ID":615779,"DIS_CODE":0,"TOWNNAME":"南區","LI":"再興里","LIN":"2鄰","STREET":"三和街","SECT":" ","MAREA":" ","LANE":" ","ALLEY":" ","HOUSE_NO":"３２號","E_COORD97":167243.10999999999,"N_COORD97":2542414.6899999999,"ADDRESS":"三和街３２號","OBJECTID":615752},"geometry":{"x":167243.11000000034,"y":2542414.6899999995}},{"attributes":{"ID":615780,"DIS_CODE":0,"TOWNNAME":"南區","LI":"文華里","LIN":"2鄰","STREET":"金華路","SECT":"二段","MAREA":" ","LANE":" ","ALLEY":" ","HOUSE_NO":"４０１號","E_COORD97":167136.35000000001,"N_COORD97":2543054.3999999999,"ADDRESS":"金華路二段４０１號","OBJECTID":615753},"geometry":{"x":167136.35000000056,"y":2543054.4000000004}},{"attributes":{"ID":615781,"DIS_CODE":0,"TOWNNAME":"南區","LI":"文華里","LIN":"2鄰","STREET":"金華路","SECT":"二段","MAREA":" ","LANE":" ","ALLEY":" ","HOUSE_NO":"４０３號","E_COORD97":167136.26000000001,"N_COORD97":2543059.8799999999,"ADDRESS":"金華路二段４０３號","OBJECTID":615754},"geometry":{"x":167136.25999999978,"y":2543059.879999999}},{"attributes":{"ID":615782,"DIS_CODE":0,"TOWNNAME":"南區","LI":"文華里","LIN":"2鄰","STREET":"金華路","SECT":"二段","MAREA":" ","LANE":" ","ALLEY":" ","HOUSE_NO":"４０５號","E_COORD97":167136.35000000001,"N_COORD97":2543064.3599999999,"ADDRESS":"金華路二段４０５號","OBJECTID":615755},"geometry":{"x":167136.35000000056,"y":2543064.3599999994}},{"attributes":{"ID":615783,"DIS_CODE":0,"TOWNNAME":"南區","LI":"文華里","LIN":"2鄰","STREET":"金華路","SECT":"二段","MAREA":" ","LANE":" ","ALLEY":" ","HOUSE_NO":"４０９號","E_COORD97":167136.07999999999,"N_COORD97":2543073.3399999999,"ADDRESS":"金華路二段４０９號","OBJECTID":615756},"geometry":{"x":167136.08000000007,"y":2543073.3400000017}},{"attributes":{"ID":615784,"DIS_CODE":0,"TOWNNAME":"南區","LI":"文華里","LIN":"2鄰","STREET":"金華路","SECT":"二段","MAREA":" ","LANE":" ","ALLEY":" ","HOUSE_NO":"４１１號","E_COORD97":167136.70000000001,"N_COORD97":2543078,"ADDRESS":"金華路二段４１１號","OBJECTID":615757},"geometry":{"x":167136.70000000019,"y":2543078}},{"attributes":{"ID":615785,"DIS_CODE":0,"TOWNNAME":"南區","LI":"文華里","LIN":"2鄰","STREET":"金華路","SECT":"二段","MAREA":" ","LANE":" ","ALLEY":" ","HOUSE_NO":"４１３號","E_COORD97":167136.88,"N_COORD97":2543082.4900000002,"ADDRESS":"金華路二段４１３號","OBJECTID":615758},"geometry":{"x":167136.87999999989,"y":2543082.4900000021}},{"attributes":{"ID":615786,"DIS_CODE":0,"TOWNNAME":"南區","LI":"文華里","LIN":"2鄰","STREET":"金華路","SECT":"二段","MAREA":" ","LANE":" ","ALLEY":" ","HOUSE_NO":"４１７號","E_COORD97":167138.5,"N_COORD97":2543096.2799999998,"ADDRESS":"金華路二段４１７號","OBJECTID":615759},"geometry":{"x":167138.50000000186,"y":2543096.2800000031}},{"attributes":{"ID":615787,"DIS_CODE":0,"TOWNNAME":"南區","LI":"文華里","LIN":"2鄰","STREET":"金華路","SECT":"二段","MAREA":" ","LANE":" ","ALLEY":" ","HOUSE_NO":"４２１號","E_COORD97":167138.5,"N_COORD97":2543105.52,"ADDRESS":"金華路二段４２１號","OBJECTID":615760},"geometry":{"x":167138.50000000186,"y":2543105.5200000014}},{"attributes":{"ID":615788,"DIS_CODE":0,"TOWNNAME":"南區","LI":"文華里","LIN":"2鄰","STREET":"金華路","SECT":"二段","MAREA":" ","LANE":" ","ALLEY":" ","HOUSE_NO":"４２５號","E_COORD97":167138.14000000001,"N_COORD97":2543115.5699999998,"ADDRESS":"金華路二段４２５號","OBJECTID":615761},"geometry":{"x":167138.13999999966,"y":2543115.570000004}},{"attributes":{"ID":615789,"DIS_CODE":0,"TOWNNAME":"南區","LI":"田寮里","LIN":"2鄰","STREET":"大成路","SECT":"二段","MAREA":" ","LANE":" ","ALLEY":" ","HOUSE_NO":"１７２號","E_COORD97":167252.89999999999,"N_COORD97":2541759.2400000002,"ADDRESS":"大成路二段１７２號","OBJECTID":615762},"geometry":{"x":167252.90000000037,"y":2541759.2400000021}},{"attributes":{"ID":615790,"DIS_CODE":0,"TOWNNAME":"南區","LI":"金華里","LIN":"2鄰","STREET":"金華路","SECT":"二段","MAREA":" ","LANE":" ","ALLEY":" ","HOUSE_NO":"５９號","E_COORD97":167063.13,"N_COORD97":2542119.3300000001,"ADDRESS":"金華路二段５９號","OBJECTID":615763},"geometry":{"x":167063.13000000082,"y":2542119.3300000001}},{"attributes":{"ID":615791,"DIS_CODE":0,"TOWNNAME":"南區","LI":"大恩里","LIN":"2鄰","STREET":"大同路","SECT":"二段","MAREA":" ","LANE":" ","ALLEY":" ","HOUSE_NO":"６４２號","E_COORD97":169550.67999999999,"N_COORD97":2541034.5,"ADDRESS":"大同路二段６４２號","OBJECTID":615764},"geometry":{"x":169550.6799999997,"y":2541034.5000000019}},{"attributes":{"ID":615792,"DIS_CODE":0,"TOWNNAME":"南區","LI":"大恩里","LIN":"2鄰","STREET":"大同路","SECT":"二段","MAREA":" ","LANE":" ","ALLEY":" ","HOUSE_NO":"６４２之２號","E_COORD97":169551.79000000001,"N_COORD97":2541030.2000000002,"ADDRESS":"大同路二段６４２之２號","OBJECTID":615765},"geometry":{"x":169551.79000000004,"y":2541030.1999999993}},{"attributes":{"ID":615793,"DIS_CODE":0,"TOWNNAME":"南區","LI":"大恩里","LIN":"2鄰","STREET":"大同路","SECT":"二段","MAREA":" ","LANE":" ","ALLEY":" ","HOUSE_NO":"６４６號","E_COORD97":169552.12,"N_COORD97":2541025.6699999999,"ADDRESS":"大同路二段６４６號","OBJECTID":615766},"geometry":{"x":169552.12000000104,"y":2541025.6699999981}},{"attributes":{"ID":615794,"DIS_CODE":0,"TOWNNAME":"南區","LI":"大恩里","LIN":"2鄰","STREET":"大同路","SECT":"二段","MAREA":" ","LANE":" ","ALLEY":" ","HOUSE_NO":"６４８號","E_COORD97":169552.56,"N_COORD97":2541021.9199999999,"ADDRESS":"大同路二段６４８號","OBJECTID":615767},"geometry":{"x":169552.55999999959,"y":2541021.9200000018}},{"attributes":{"ID":615795,"DIS_CODE":0,"TOWNNAME":"南區","LI":"大恩里","LIN":"2鄰","STREET":"大同路","SECT":"二段","MAREA":" ","LANE":" ","ALLEY":" ","HOUSE_NO":"６５０號","E_COORD97":169553.10999999999,"N_COORD97":2541018.2799999998,"ADDRESS":"大同路二段６５０號","OBJECTID":615768},"geometry":{"x":169553.11000000034,"y":2541018.2800000012}},{"attributes":{"ID":615796,"DIS_CODE":0,"TOWNNAME":"南區","LI":"大恩里","LIN":"2鄰","STREET":"大同路","SECT":"二段","MAREA":" ","LANE":" ","ALLEY":" ","HOUSE_NO":"６５２號","E_COORD97":169553.54999999999,"N_COORD97":2541013.9700000002,"ADDRESS":"大同路二段６５２號","OBJECTID":615769},"geometry":{"x":169553.54999999888,"y":2541013.9700000007}},{"attributes":{"ID":615797,"DIS_CODE":0,"TOWNNAME":"南區","LI":"大恩里","LIN":"2鄰","STREET":"大同路","SECT":"二段","MAREA":" ","LANE":" ","ALLEY":" ","HOUSE_NO":"６５４號","E_COORD97":169554.10000000001,"N_COORD97":2541009.5600000001,"ADDRESS":"大同路二段６５４號","OBJECTID":615770},"geometry":{"x":169554.09999999963,"y":2541009.5600000005}},{"attributes":{"ID":615798,"DIS_CODE":0,"TOWNNAME":"南區","LI":"金華里","LIN":"2鄰","STREET":"金華路","SECT":"二段","MAREA":" ","LANE":" ","ALLEY":" ","HOUSE_NO":"５５號","E_COORD97":167061.42999999999,"N_COORD97":2542098.5299999998,"ADDRESS":"金華路二段５５號","OBJECTID":615771},"geometry":{"x":167061.43000000063,"y":2542098.5300000012}},{"attributes":{"ID":615799,"DIS_CODE":0,"TOWNNAME":"南區","LI":"文華里","LIN":"2鄰","STREET":"金華路","SECT":"二段","MAREA":" ","LANE":" ","ALLEY":" ","HOUSE_NO":"４４５號","E_COORD97":167145.06,"N_COORD97":2543159.0600000001,"ADDRESS":"金華路二段４４５號","OBJECTID":615772},"geometry":{"x":167145.06000000052,"y":2543159.0600000005}},{"attributes":{"ID":615800,"DIS_CODE":0,"TOWNNAME":"南區","LI":"再興里","LIN":"2鄰","STREET":"三和街","SECT":" ","MAREA":" ","LANE":" ","ALLEY":" ","HOUSE_NO":"４８號","E_COORD97":167199.82000000001,"N_COORD97":2542416.1699999999,"ADDRESS":"三和街４８號","OBJECTID":615773},"geometry":{"x":167199.82000000123,"y":2542416.1700000037}},{"attributes":{"ID":615801,"DIS_CODE":0,"TOWNNAME":"南區","LI":"田寮里","LIN":"2鄰","STREET":"新興路","SECT":" ","MAREA":" ","LANE":" ","ALLEY":" ","HOUSE_NO":"２８５號","E_COORD97":167201.31,"N_COORD97":2541874.3300000001,"ADDRESS":"新興路２８５號","OBJECTID":615774},"geometry":{"x":167201.30999999959,"y":2541874.3300000001}},{"attributes":{"ID":615802,"DIS_CODE":0,"TOWNNAME":"南區","LI":"田寮里","LIN":"2鄰","STREET":"新興路","SECT":" ","MAREA":" ","LANE":" ","ALLEY":" ","HOUSE_NO":"２７９號","E_COORD97":167212.85999999999,"N_COORD97":2541883.0099999998,"ADDRESS":"新興路２７９號","OBJECTID":615775},"geometry":{"x":167212.8600000022,"y":2541883.0099999998}},{"attributes":{"ID":615803,"DIS_CODE":0,"TOWNNAME":"安平區","LI":"華平里","LIN":"2鄰","STREET":"國平路","SECT":" ","MAREA":" ","LANE":" ","ALLEY":" ","HOUSE_NO":"５６２號","E_COORD97":165105.25,"N_COORD97":2544167.27,"ADDRESS":"國平路５６２號","OBJECTID":615776},"geometry":{"x":165105.25,"y":2544167.2699999996}},{"attributes":{"ID":615804,"DIS_CODE":0,"TOWNNAME":"安平區","LI":"華平里","LIN":"2鄰","STREET":"國平路","SECT":" ","MAREA":" ","LANE":" ","ALLEY":" ","HOUSE_NO":"５６６號","E_COORD97":165104.29999999999,"N_COORD97":2544163.7799999998,"ADDRESS":"國平路５６６號","OBJECTID":615777},"geometry":{"x":165104.30000000075,"y":2544163.7799999975}},{"attributes":{"ID":615805,"DIS_CODE":0,"TOWNNAME":"安平區","LI":"億載里","LIN":"2鄰","STREET":"光州七街","SECT":" ","MAREA":" ","LANE":" ","ALLEY":" ","HOUSE_NO":"１００號","E_COORD97":163991.76000000001,"N_COORD97":2543738.98,"ADDRESS":"光州七街１００號","OBJECTID":615778},"geometry":{"x":163991.75999999978,"y":2543738.9800000004}},{"attributes":{"ID":615806,"DIS_CODE":0,"TOWNNAME":"安平區","LI":"億載里","LIN":"2鄰","STREET":"安億路","SECT":" ","MAREA":" ","LANE":" ","ALLEY":" ","HOUSE_NO":"３９６號","E_COORD97":164072.69,"N_COORD97":2543907.79,"ADDRESS":"安億路３９６號","OBJECTID":615779},"geometry":{"x":164072.68999999948,"y":2543907.7899999991}},{"attributes":{"ID":615807,"DIS_CODE":0,"TOWNNAME":"安平區","LI":"億載里","LIN":"2鄰","STREET":"安億路","SECT":" ","MAREA":" ","LANE":" ","ALLEY":" ","HOUSE_NO":"３０８號","E_COORD97":163878.94,"N_COORD97":2543859.8799999999,"ADDRESS":"安億路３０８號","OBJECTID":615780},"geometry":{"x":163878.94000000041,"y":2543859.879999999}},{"attributes":{"ID":615808,"DIS_CODE":0,"TOWNNAME":"安平區","LI":"億載里","LIN":"2鄰","STREET":"光州七街","SECT":" ","MAREA":" ","LANE":" ","ALLEY":" ","HOUSE_NO":"１０２號","E_COORD97":163986.60000000001,"N_COORD97":2543738.79,"ADDRESS":"光州七街１０２號","OBJECTID":615781},"geometry":{"x":163986.60000000056,"y":2543738.7899999991}},{"attributes":{"ID":615809,"DIS_CODE":0,"TOWNNAME":"安平區","LI":"億載里","LIN":"2鄰","STREET":"光州七街","SECT":" ","MAREA":" ","LANE":" ","ALLEY":" ","HOUSE_NO":"１０６號","E_COORD97":163981.89000000001,"N_COORD97":2543738.2000000002,"ADDRESS":"光州七街１０６號","OBJECTID":615782},"geometry":{"x":163981.88999999966,"y":2543738.2000000011}},{"attributes":{"ID":615810,"DIS_CODE":0,"TOWNNAME":"安平區","LI":"億載里","LIN":"2鄰","STREET":"永華十一街","SECT":" ","MAREA":" ","LANE":" ","ALLEY":" ","HOUSE_NO":"１４５號","E_COORD97":164060.47,"N_COORD97":2543837.23,"ADDRESS":"永華十一街１４５號","OBJECTID":615783},"geometry":{"x":164060.47000000067,"y":2543837.2300000023}},{"attributes":{"ID":615811,"DIS_CODE":0,"TOWNNAME":"鹽水區","LI":"福得里","LIN":"2鄰","STREET":"朝琴路","SECT":" ","MAREA":" ","LANE":" ","ALLEY":" ","HOUSE_NO":"２２號","E_COORD97":175206.04000000001,"N_COORD97":2579995.6899999999,"ADDRESS":"朝琴路２２號","OBJECTID":615784},"geometry":{"x":175206.04000000097,"y":2579995.6900000013}},{"attributes":{"ID":615812,"DIS_CODE":0,"TOWNNAME":"鹽水區","LI":"福得里","LIN":"2鄰","STREET":"朝琴路","SECT":" ","MAREA":" ","LANE":" ","ALLEY":" ","HOUSE_NO":"２４號","E_COORD97":175210.88,"N_COORD97":2579998.5299999998,"ADDRESS":"朝琴路２４號","OBJECTID":615785},"geometry":{"x":175210.88000000082,"y":2579998.5300000031}},{"attributes":{"ID":615813,"DIS_CODE":0,"TOWNNAME":"鹽水區","LI":"橋南里","LIN":"2鄰","STREET":"橋南街","SECT":" ","MAREA":" ","LANE":" ","ALLEY":" ","HOUSE_NO":"１９號","E_COORD97":175129.35999999999,"N_COORD97":2579531.5600000001,"ADDRESS":"橋南街１９號","OBJECTID":615786},"geometry":{"x":175129.3600000022,"y":2579531.5599999987}},{"attributes":{"ID":615814,"DIS_CODE":0,"TOWNNAME":"鹽水區","LI":"橋南里","LIN":"2鄰","STREET":"橋南街","SECT":" ","MAREA":" ","LANE":" ","ALLEY":" ","HOUSE_NO":"２１號","E_COORD97":175129.51000000001,"N_COORD97":2579526.1600000001,"ADDRESS":"橋南街２１號","OBJECTID":615787},"geometry":{"x":175129.51000000071,"y":2579526.1600000001}},{"attributes":{"ID":615815,"DIS_CODE":0,"TOWNNAME":"鹽水區","LI":"橋南里","LIN":"2鄰","STREET":"橋南街","SECT":" ","MAREA":" ","LANE":" ","ALLEY":" ","HOUSE_NO":"２３號","E_COORD97":175129.73999999999,"N_COORD97":2579521.7799999998,"ADDRESS":"橋南街２３號","OBJECTID":615788},"geometry":{"x":175129.74000000022,"y":2579521.7799999993}},{"attributes":{"ID":615816,"DIS_CODE":0,"TOWNNAME":"鹽水區","LI":"橋南里","LIN":"2鄰","STREET":"橋南街","SECT":" ","MAREA":" ","LANE":" ","ALLEY":" ","HOUSE_NO":"２５號","E_COORD97":175129.72,"N_COORD97":2579516.9399999999,"ADDRESS":"橋南街２５號","OBJECTID":615789},"geometry":{"x":175129.7200000016,"y":2579516.9399999995}},{"attributes":{"ID":615817,"DIS_CODE":0,"TOWNNAME":"鹽水區","LI":"橋南里","LIN":"2鄰","STREET":"橋南街","SECT":" ","MAREA":" ","LANE":" ","ALLEY":" ","HOUSE_NO":"２７號","E_COORD97":175130.35999999999,"N_COORD97":2579507.8900000001,"ADDRESS":"橋南街２７號","OBJECTID":615790},"geometry":{"x":175130.36000000034,"y":2579507.8900000006}},{"attributes":{"ID":615818,"DIS_CODE":0,"TOWNNAME":"鹽水區","LI":"橋南里","LIN":"2鄰","STREET":"橋南街","SECT":" ","MAREA":" ","LANE":" ","ALLEY":" ","HOUSE_NO":"２９號","E_COORD97":175130.75,"N_COORD97":2579502.46,"ADDRESS":"橋南街２９號","OBJECTID":615791},"geometry":{"x":175130.75,"y":2579502.4600000046}},{"attributes":{"ID":615819,"DIS_CODE":0,"TOWNNAME":"鹽水區","LI":"橋南里","LIN":"2鄰","STREET":"橋南街","SECT":" ","MAREA":" ","LANE":" ","ALLEY":" ","HOUSE_NO":"３１號","E_COORD97":175131.20000000001,"N_COORD97":2579493.1600000001,"ADDRESS":"橋南街３１號","OBJECTID":615792},"geometry":{"x":175131.20000000019,"y":2579493.1600000001}},{"attributes":{"ID":615820,"DIS_CODE":0,"TOWNNAME":"鹽水區","LI":"橋南里","LIN":"2鄰","STREET":"橋南街","SECT":" ","MAREA":" ","LANE":" ","ALLEY":" ","HOUSE_NO":"３３號","E_COORD97":175132.12,"N_COORD97":2579489.46,"ADDRESS":"橋南街３３號","OBJECTID":615793},"geometry":{"x":175132.12000000011,"y":2579489.4600000028}},{"attributes":{"ID":615821,"DIS_CODE":0,"TOWNNAME":"鹽水區","LI":"橋南里","LIN":"2鄰","STREET":"橋南街","SECT":" ","MAREA":" ","LANE":" ","ALLEY":" ","HOUSE_NO":"３７號","E_COORD97":175133.76999999999,"N_COORD97":2579483.8799999999,"ADDRESS":"橋南街３７號","OBJECTID":615794},"geometry":{"x":175133.76999999955,"y":2579483.8800000027}},{"attributes":{"ID":615822,"DIS_CODE":0,"TOWNNAME":"新市區","LI":"永就里","LIN":"9鄰","STREET":"光華街","SECT":" ","MAREA":" ","LANE":" ","ALLEY":" ","HOUSE_NO":"５號","E_COORD97":178114.62,"N_COORD97":2552387,"ADDRESS":"光華街５號","OBJECTID":615795},"geometry":{"x":178114.62000000104,"y":2552387}},{"attributes":{"ID":615823,"DIS_CODE":0,"TOWNNAME":"安平區","LI":"文平里","LIN":"2鄰","STREET":"中華西路","SECT":"二段","MAREA":" ","LANE":" ","ALLEY":" ","HOUSE_NO":"１０１號","E_COORD97":166618,"N_COORD97":2543284.4300000002,"ADDRESS":"中華西路二段１０１號","OBJECTID":615796},"geometry":{"x":166617.99999999907,"y":2543284.4299999997}},{"attributes":{"ID":615824,"DIS_CODE":0,"TOWNNAME":"安平區","LI":"育平里","LIN":"2鄰","STREET":"永華路","SECT":"二段","MAREA":" ","LANE":" ","ALLEY":" ","HOUSE_NO":"８２１號","E_COORD97":164752.14999999999,"N_COORD97":2543551.8300000001,"ADDRESS":"永華路二段８２１號","OBJECTID":615797},"geometry":{"x":164752.15000000037,"y":2543551.8300000019}},{"attributes":{"ID":615825,"DIS_CODE":0,"TOWNNAME":"安平區","LI":"建平里","LIN":"2鄰","STREET":"慶平路","SECT":" ","MAREA":" ","LANE":" ","ALLEY":" ","HOUSE_NO":"６８號","E_COORD97":166215.25,"N_COORD97":2544192.79,"ADDRESS":"慶平路６８號","OBJECTID":615798},"geometry":{"x":166215.25000000093,"y":2544192.7899999991}},{"attributes":{"ID":615826,"DIS_CODE":0,"TOWNNAME":"安平區","LI":"建平里","LIN":"2鄰","STREET":"慶平路","SECT":" ","MAREA":" ","LANE":" ","ALLEY":" ","HOUSE_NO":"７０號","E_COORD97":166210.10999999999,"N_COORD97":2544192.9399999999,"ADDRESS":"慶平路７０號","OBJECTID":615799},"geometry":{"x":166210.11000000034,"y":2544192.9399999995}},{"attributes":{"ID":615827,"DIS_CODE":0,"TOWNNAME":"安平區","LI":"建平里","LIN":"2鄰","STREET":"慶平路","SECT":" ","MAREA":" ","LANE":" ","ALLEY":" ","HOUSE_NO":"７２號","E_COORD97":166203.06,"N_COORD97":2544193.3799999999,"ADDRESS":"慶平路７２號","OBJECTID":615800},"geometry":{"x":166203.05999999959,"y":2544193.3800000027}}]}