{"displayFieldName":"TOWNNAME","fieldAliases":{"ID":"ID","DIS_CODE":"DIS_CODE","TOWNNAME":"TOWNNAME","LI":"LI","LIN":"LIN","STREET":"STREET","SECT":"SECT","MAREA":"MAREA","LANE":"LANE","ALLEY":"ALLEY","HOUSE_NO":"HOUSE_NO","E_COORD97":"E_COORD97","N_COORD97":"N_COORD97","ADDRESS":"ADDRESS","OBJECTID":"OBJECTID"},"geometryType":"esriGeometryPoint","spatialReference":{"wkid":102443,"latestWkid":3826},"fields":[{"name":"ID","type":"esriFieldTypeDouble","alias":"ID"},{"name":"DIS_CODE","type":"esriFieldTypeInteger","alias":"DIS_CODE"},{"name":"TOWNNAME","type":"esriFieldTypeString","alias":"TOWNNAME","length":8},{"name":"LI","type":"esriFieldTypeString","alias":"LI","length":8},{"name":"LIN","type":"esriFieldTypeString","alias":"LIN","length":12},{"name":"STREET","type":"esriFieldTypeString","alias":"STREET","length":20},{"name":"SECT","type":"esriFieldTypeString","alias":"SECT","length":8},{"name":"MAREA","type":"esriFieldTypeString","alias":"MAREA","length":12},{"name":"LANE","type":"esriFieldTypeString","alias":"LANE","length":10},{"name":"ALLEY","type":"esriFieldTypeString","alias":"ALLEY","length":10},{"name":"HOUSE_NO","type":"esriFieldTypeString","alias":"HOUSE_NO","length":20},{"name":"E_COORD97","type":"esriFieldTypeDouble","alias":"E_COORD97"},{"name":"N_COORD97","type":"esriFieldTypeDouble","alias":"N_COORD97"},{"name":"ADDRESS","type":"esriFieldTypeString","alias":"ADDRESS","length":50},{"name":"OBJECTID","type":"esriFieldTypeOID","alias":"OBJECTID"}],"features":[{"attributes":{"ID":445626,"DIS_CODE":0,"TOWNNAME":"柳營區","LI":"中埕里","LIN":"5鄰","STREET":"中山西路","SECT":"二段","MAREA":" ","LANE":"７９巷","ALLEY":" ","HOUSE_NO":"１８號","E_COORD97":179973.32000000001,"N_COORD97":2575049.1099999999,"ADDRESS":"中山西路二段７９巷１８號","OBJECTID":445601},"geometry":{"x":179973.32000000123,"y":2575049.1100000013}},{"attributes":{"ID":445627,"DIS_CODE":0,"TOWNNAME":"柳營區","LI":"中埕里","LIN":"5鄰","STREET":"中山西路","SECT":"二段","MAREA":" ","LANE":"７９巷","ALLEY":" ","HOUSE_NO":"２號","E_COORD97":179964.01999999999,"N_COORD97":2575072.3900000001,"ADDRESS":"中山西路二段７９巷２號","OBJECTID":445602},"geometry":{"x":179964.02000000048,"y":2575072.3900000025}},{"attributes":{"ID":445628,"DIS_CODE":0,"TOWNNAME":"柳營區","LI":"中埕里","LIN":"5鄰","STREET":"中山西路","SECT":"二段","MAREA":" ","LANE":"７９巷","ALLEY":" ","HOUSE_NO":"６號","E_COORD97":179965.57000000001,"N_COORD97":2575068.5099999998,"ADDRESS":"中山西路二段７９巷６號","OBJECTID":445603},"geometry":{"x":179965.5700000003,"y":2575068.5099999998}},{"attributes":{"ID":445629,"DIS_CODE":0,"TOWNNAME":"柳營區","LI":"中埕里","LIN":"5鄰","STREET":"中山西路","SECT":"二段","MAREA":" ","LANE":"７９巷","ALLEY":" ","HOUSE_NO":"８號","E_COORD97":179967.12,"N_COORD97":2575064.6299999999,"ADDRESS":"中山西路二段７９巷８號","OBJECTID":445604},"geometry":{"x":179967.12000000197,"y":2575064.6300000027}},{"attributes":{"ID":445630,"DIS_CODE":0,"TOWNNAME":"柳營區","LI":"東昇里","LIN":"5鄰","STREET":"成功街","SECT":" ","MAREA":" ","LANE":"１１０巷","ALLEY":" ","HOUSE_NO":"２號","E_COORD97":179960.04000000001,"N_COORD97":2575367.3799999999,"ADDRESS":"成功街１１０巷２號","OBJECTID":445605},"geometry":{"x":179960.04000000004,"y":2575367.379999999}},{"attributes":{"ID":445631,"DIS_CODE":0,"TOWNNAME":"柳營區","LI":"東昇里","LIN":"5鄰","STREET":"成功街","SECT":" ","MAREA":" ","LANE":"１１０巷","ALLEY":" ","HOUSE_NO":"６號","E_COORD97":179958.84,"N_COORD97":2575371.6499999999,"ADDRESS":"成功街１１０巷６號","OBJECTID":445606},"geometry":{"x":179958.84000000078,"y":2575371.6500000022}},{"attributes":{"ID":445632,"DIS_CODE":0,"TOWNNAME":"柳營區","LI":"東昇里","LIN":"5鄰","STREET":"成功街","SECT":" ","MAREA":" ","LANE":"７６巷","ALLEY":" ","HOUSE_NO":"１１號","E_COORD97":180011.78,"N_COORD97":2575367.9100000001,"ADDRESS":"成功街７６巷１１號","OBJECTID":445607},"geometry":{"x":180011.77999999933,"y":2575367.9100000001}},{"attributes":{"ID":445633,"DIS_CODE":0,"TOWNNAME":"柳營區","LI":"東昇里","LIN":"5鄰","STREET":"成功街","SECT":" ","MAREA":" ","LANE":"７６巷","ALLEY":" ","HOUSE_NO":"３號","E_COORD97":180018.44,"N_COORD97":2575352.1699999999,"ADDRESS":"成功街７６巷３號","OBJECTID":445608},"geometry":{"x":180018.44000000134,"y":2575352.1699999999}},{"attributes":{"ID":445634,"DIS_CODE":0,"TOWNNAME":"柳營區","LI":"東昇里","LIN":"5鄰","STREET":"成功街","SECT":" ","MAREA":" ","LANE":"７６巷","ALLEY":" ","HOUSE_NO":"５號","E_COORD97":180016.78,"N_COORD97":2575356.1099999999,"ADDRESS":"成功街７６巷５號","OBJECTID":445609},"geometry":{"x":180016.78000000026,"y":2575356.1099999994}},{"attributes":{"ID":445635,"DIS_CODE":0,"TOWNNAME":"北區","LI":"國姓里","LIN":"5鄰","STREET":"西門路","SECT":"四段","MAREA":" ","LANE":"１４０巷","ALLEY":" ","HOUSE_NO":"１１號","E_COORD97":168840.85000000001,"N_COORD97":2545478.1000000001,"ADDRESS":"西門路四段１４０巷１１號","OBJECTID":445610},"geometry":{"x":168840.84999999963,"y":2545478.1000000015}},{"attributes":{"ID":445636,"DIS_CODE":0,"TOWNNAME":"北區","LI":"國姓里","LIN":"5鄰","STREET":"西門路","SECT":"四段","MAREA":" ","LANE":"１４０巷","ALLEY":" ","HOUSE_NO":"１２號","E_COORD97":168823.12,"N_COORD97":2545467.3799999999,"ADDRESS":"西門路四段１４０巷１２號","OBJECTID":445611},"geometry":{"x":168823.12000000104,"y":2545467.379999999}},{"attributes":{"ID":445637,"DIS_CODE":0,"TOWNNAME":"北區","LI":"國姓里","LIN":"5鄰","STREET":"西門路","SECT":"四段","MAREA":" ","LANE":"１４０巷","ALLEY":" ","HOUSE_NO":"１３號","E_COORD97":168849.17999999999,"N_COORD97":2545473.3900000001,"ADDRESS":"西門路四段１４０巷１３號","OBJECTID":445612},"geometry":{"x":168849.18000000156,"y":2545473.3900000043}},{"attributes":{"ID":445638,"DIS_CODE":0,"TOWNNAME":"北區","LI":"國姓里","LIN":"5鄰","STREET":"西門路","SECT":"四段","MAREA":" ","LANE":"１４０巷","ALLEY":" ","HOUSE_NO":"１５號","E_COORD97":168854.17000000001,"N_COORD97":2545470.3399999999,"ADDRESS":"西門路四段１４０巷１５號","OBJECTID":445613},"geometry":{"x":168854.16999999993,"y":2545470.3400000017}},{"attributes":{"ID":445639,"DIS_CODE":0,"TOWNNAME":"北區","LI":"國姓里","LIN":"5鄰","STREET":"西門路","SECT":"四段","MAREA":" ","LANE":"１４０巷","ALLEY":" ","HOUSE_NO":"１６號","E_COORD97":168831.42000000001,"N_COORD97":2545461.73,"ADDRESS":"西門路四段１４０巷１６號","OBJECTID":445614},"geometry":{"x":168831.42000000086,"y":2545461.7300000023}},{"attributes":{"ID":445640,"DIS_CODE":0,"TOWNNAME":"北區","LI":"國姓里","LIN":"5鄰","STREET":"西門路","SECT":"四段","MAREA":" ","LANE":"１４０巷","ALLEY":" ","HOUSE_NO":"１７號","E_COORD97":168859.45000000001,"N_COORD97":2545468.3999999999,"ADDRESS":"西門路四段１４０巷１７號","OBJECTID":445615},"geometry":{"x":168859.45000000019,"y":2545468.4000000004}},{"attributes":{"ID":445641,"DIS_CODE":0,"TOWNNAME":"北區","LI":"國姓里","LIN":"5鄰","STREET":"西門路","SECT":"四段","MAREA":" ","LANE":"１４０巷","ALLEY":" ","HOUSE_NO":"１８號","E_COORD97":168839.47,"N_COORD97":2545457.8500000001,"ADDRESS":"西門路四段１４０巷１８號","OBJECTID":445616},"geometry":{"x":168839.47000000067,"y":2545457.8499999996}},{"attributes":{"ID":445642,"DIS_CODE":0,"TOWNNAME":"北區","LI":"國姓里","LIN":"5鄰","STREET":"西門路","SECT":"四段","MAREA":" ","LANE":"１４０巷","ALLEY":" ","HOUSE_NO":"１９號","E_COORD97":168866.10000000001,"N_COORD97":2545464.52,"ADDRESS":"西門路四段１４０巷１９號","OBJECTID":445617},"geometry":{"x":168866.09999999963,"y":2545464.5200000033}},{"attributes":{"ID":445643,"DIS_CODE":0,"TOWNNAME":"北區","LI":"國姓里","LIN":"5鄰","STREET":"西門路","SECT":"四段","MAREA":" ","LANE":"１４０巷","ALLEY":" ","HOUSE_NO":"２０號","E_COORD97":168846.95999999999,"N_COORD97":2545453.9700000002,"ADDRESS":"西門路四段１４０巷２０號","OBJECTID":445618},"geometry":{"x":168846.95999999996,"y":2545453.9700000025}},{"attributes":{"ID":445644,"DIS_CODE":0,"TOWNNAME":"北區","LI":"國姓里","LIN":"5鄰","STREET":"西門路","SECT":"四段","MAREA":" ","LANE":"１４０巷","ALLEY":" ","HOUSE_NO":"２１號","E_COORD97":168871.92999999999,"N_COORD97":2545461.4700000002,"ADDRESS":"西門路四段１４０巷２１號","OBJECTID":445619},"geometry":{"x":168871.93000000063,"y":2545461.4700000007}},{"attributes":{"ID":445645,"DIS_CODE":0,"TOWNNAME":"北區","LI":"國姓里","LIN":"5鄰","STREET":"西門路","SECT":"四段","MAREA":" ","LANE":"１４０巷","ALLEY":" ","HOUSE_NO":"２２號","E_COORD97":168850.84,"N_COORD97":2545452.5800000001,"ADDRESS":"西門路四段１４０巷２２號","OBJECTID":445620},"geometry":{"x":168850.83999999985,"y":2545452.5800000019}},{"attributes":{"ID":445646,"DIS_CODE":0,"TOWNNAME":"北區","LI":"國姓里","LIN":"5鄰","STREET":"西門路","SECT":"四段","MAREA":" ","LANE":"１４０巷","ALLEY":" ","HOUSE_NO":"２３號","E_COORD97":168878.31,"N_COORD97":2545458.7000000002,"ADDRESS":"西門路四段１４０巷２３號","OBJECTID":445621},"geometry":{"x":168878.30999999959,"y":2545458.6999999993}},{"attributes":{"ID":445647,"DIS_CODE":0,"TOWNNAME":"北區","LI":"國姓里","LIN":"5鄰","STREET":"西門路","SECT":"四段","MAREA":" ","LANE":"１４０巷","ALLEY":" ","HOUSE_NO":"２４號","E_COORD97":168855.01000000001,"N_COORD97":2545450.0899999999,"ADDRESS":"西門路四段１４０巷２４號","OBJECTID":445622},"geometry":{"x":168855.00999999978,"y":2545450.0899999999}},{"attributes":{"ID":445648,"DIS_CODE":0,"TOWNNAME":"北區","LI":"國姓里","LIN":"5鄰","STREET":"西門路","SECT":"四段","MAREA":" ","LANE":"１４０巷","ALLEY":" ","HOUSE_NO":"２５號","E_COORD97":168884.97,"N_COORD97":2545453.9900000002,"ADDRESS":"西門路四段１４０巷２５號","OBJECTID":445623},"geometry":{"x":168884.97000000067,"y":2545453.9900000002}},{"attributes":{"ID":445649,"DIS_CODE":0,"TOWNNAME":"北區","LI":"國姓里","LIN":"5鄰","STREET":"西門路","SECT":"四段","MAREA":" ","LANE":"１４０巷","ALLEY":" ","HOUSE_NO":"２６號","E_COORD97":168859.17000000001,"N_COORD97":2545448.4300000002,"ADDRESS":"西門路四段１４０巷２６號","OBJECTID":445624},"geometry":{"x":168859.16999999993,"y":2545448.4300000034}},{"attributes":{"ID":445650,"DIS_CODE":0,"TOWNNAME":"北區","LI":"國姓里","LIN":"5鄰","STREET":"西門路","SECT":"四段","MAREA":" ","LANE":"１４０巷","ALLEY":" ","HOUSE_NO":"２８號","E_COORD97":168863.60999999999,"N_COORD97":2545445.9300000002,"ADDRESS":"西門路四段１４０巷２８號","OBJECTID":445625},"geometry":{"x":168863.61000000034,"y":2545445.9300000016}},{"attributes":{"ID":445651,"DIS_CODE":0,"TOWNNAME":"北區","LI":"國姓里","LIN":"5鄰","STREET":"西門路","SECT":"四段","MAREA":" ","LANE":"１４０巷","ALLEY":" ","HOUSE_NO":"２號","E_COORD97":168789.60000000001,"N_COORD97":2545482.7200000002,"ADDRESS":"西門路四段１４０巷２號","OBJECTID":445626},"geometry":{"x":168789.59999999963,"y":2545482.7200000025}},{"attributes":{"ID":445652,"DIS_CODE":0,"TOWNNAME":"北區","LI":"國姓里","LIN":"5鄰","STREET":"西門路","SECT":"四段","MAREA":" ","LANE":"１４０巷","ALLEY":" ","HOUSE_NO":"３０號","E_COORD97":168868.60000000001,"N_COORD97":2545443.7200000002,"ADDRESS":"西門路四段１４０巷３０號","OBJECTID":445627},"geometry":{"x":168868.60000000056,"y":2545443.7200000007}},{"attributes":{"ID":445653,"DIS_CODE":0,"TOWNNAME":"北區","LI":"國姓里","LIN":"5鄰","STREET":"西門路","SECT":"四段","MAREA":" ","LANE":"１４０巷","ALLEY":" ","HOUSE_NO":"３號","E_COORD97":168807.76000000001,"N_COORD97":2545494.5800000001,"ADDRESS":"西門路四段１４０巷３號","OBJECTID":445628},"geometry":{"x":168807.75999999978,"y":2545494.5800000001}},{"attributes":{"ID":445654,"DIS_CODE":0,"TOWNNAME":"北區","LI":"國姓里","LIN":"5鄰","STREET":"西門路","SECT":"四段","MAREA":" ","LANE":"１４０巷","ALLEY":" ","HOUSE_NO":"４號","E_COORD97":168796.59,"N_COORD97":2545478.8900000001,"ADDRESS":"西門路四段１４０巷４號","OBJECTID":445629},"geometry":{"x":168796.58999999985,"y":2545478.8900000006}},{"attributes":{"ID":445655,"DIS_CODE":0,"TOWNNAME":"北區","LI":"國姓里","LIN":"5鄰","STREET":"西門路","SECT":"四段","MAREA":" ","LANE":"１４０巷","ALLEY":" ","HOUSE_NO":"５號","E_COORD97":168820.67999999999,"N_COORD97":2545489.3500000001,"ADDRESS":"西門路四段１４０巷５號","OBJECTID":445630},"geometry":{"x":168820.68000000063,"y":2545489.3499999978}},{"attributes":{"ID":445656,"DIS_CODE":0,"TOWNNAME":"北區","LI":"國姓里","LIN":"5鄰","STREET":"西門路","SECT":"四段","MAREA":" ","LANE":"１４０巷","ALLEY":" ","HOUSE_NO":"６號","E_COORD97":168803.92000000001,"N_COORD97":2545476.7999999998,"ADDRESS":"西門路四段１４０巷６號","OBJECTID":445631},"geometry":{"x":168803.92000000086,"y":2545476.8000000007}},{"attributes":{"ID":445657,"DIS_CODE":0,"TOWNNAME":"北區","LI":"國姓里","LIN":"5鄰","STREET":"西門路","SECT":"四段","MAREA":" ","LANE":"１４０巷","ALLEY":" ","HOUSE_NO":"７號","E_COORD97":168826.26999999999,"N_COORD97":2545485.1699999999,"ADDRESS":"西門路四段１４０巷７號","OBJECTID":445632},"geometry":{"x":168826.26999999862,"y":2545485.1700000018}},{"attributes":{"ID":445658,"DIS_CODE":0,"TOWNNAME":"北區","LI":"國姓里","LIN":"5鄰","STREET":"西門路","SECT":"四段","MAREA":" ","LANE":"１４０巷","ALLEY":" ","HOUSE_NO":"８號","E_COORD97":168810.54999999999,"N_COORD97":2545474.7000000002,"ADDRESS":"西門路四段１４０巷８號","OBJECTID":445633},"geometry":{"x":168810.54999999981,"y":2545474.7000000011}},{"attributes":{"ID":445659,"DIS_CODE":0,"TOWNNAME":"北區","LI":"國姓里","LIN":"5鄰","STREET":"西門路","SECT":"四段","MAREA":" ","LANE":"１４０巷","ALLEY":" ","HOUSE_NO":"９號","E_COORD97":168833.09,"N_COORD97":2545482.5299999998,"ADDRESS":"西門路四段１４０巷９號","OBJECTID":445634},"geometry":{"x":168833.09000000171,"y":2545482.5300000012}},{"attributes":{"ID":445660,"DIS_CODE":0,"TOWNNAME":"南區","LI":"明興里","LIN":"5鄰","STREET":"金華路","SECT":"一段","MAREA":" ","LANE":"２００巷","ALLEY":" ","HOUSE_NO":"４３號","E_COORD97":167049.09,"N_COORD97":2540736.2799999998,"ADDRESS":"金華路一段２００巷４３號","OBJECTID":445635},"geometry":{"x":167049.08999999985,"y":2540736.2800000031}},{"attributes":{"ID":445661,"DIS_CODE":0,"TOWNNAME":"南區","LI":"大忠里","LIN":"5鄰","STREET":"公英一街","SECT":" ","MAREA":" ","LANE":"３７巷","ALLEY":" ","HOUSE_NO":"５１號","E_COORD97":169443.16,"N_COORD97":2541130.02,"ADDRESS":"公英一街３７巷５１號","OBJECTID":445636},"geometry":{"x":169443.16000000201,"y":2541130.0199999996}},{"attributes":{"ID":445662,"DIS_CODE":0,"TOWNNAME":"南區","LI":"同安里","LIN":"5鄰","STREET":"灣裡路","SECT":" ","MAREA":" ","LANE":"３６９巷","ALLEY":" ","HOUSE_NO":"１５號","E_COORD97":166277.44,"N_COORD97":2536132.8700000001,"ADDRESS":"灣裡路３６９巷１５號","OBJECTID":445637},"geometry":{"x":166277.44000000041,"y":2536132.870000001}},{"attributes":{"ID":445663,"DIS_CODE":0,"TOWNNAME":"南區","LI":"文南里","LIN":"5鄰","STREET":"長南街","SECT":" ","MAREA":" ","LANE":"３６巷","ALLEY":" ","HOUSE_NO":"１２號","E_COORD97":166989.31,"N_COORD97":2542671.6600000001,"ADDRESS":"長南街３６巷１２號","OBJECTID":445638},"geometry":{"x":166989.31000000052,"y":2542671.660000002}},{"attributes":{"ID":445664,"DIS_CODE":0,"TOWNNAME":"南區","LI":"文南里","LIN":"5鄰","STREET":"長南街","SECT":" ","MAREA":" ","LANE":"３６巷","ALLEY":" ","HOUSE_NO":"４０號","E_COORD97":166993.91,"N_COORD97":2542734.96,"ADDRESS":"長南街３６巷４０號","OBJECTID":445639},"geometry":{"x":166993.91000000108,"y":2542734.9600000028}},{"attributes":{"ID":445665,"DIS_CODE":0,"TOWNNAME":"南區","LI":"文南里","LIN":"5鄰","STREET":"長南街","SECT":" ","MAREA":" ","LANE":"３６巷","ALLEY":" ","HOUSE_NO":"４２號","E_COORD97":166995.03,"N_COORD97":2542743.0499999998,"ADDRESS":"長南街３６巷４２號","OBJECTID":445640},"geometry":{"x":166995.03000000119,"y":2542743.0500000045}},{"attributes":{"ID":445666,"DIS_CODE":0,"TOWNNAME":"南區","LI":"文南里","LIN":"5鄰","STREET":"長南街","SECT":" ","MAREA":" ","LANE":"３６巷","ALLEY":" ","HOUSE_NO":"４４號","E_COORD97":166995.45000000001,"N_COORD97":2542748.4900000002,"ADDRESS":"長南街３６巷４４號","OBJECTID":445641},"geometry":{"x":166995.45000000112,"y":2542748.4900000002}},{"attributes":{"ID":445667,"DIS_CODE":0,"TOWNNAME":"南區","LI":"文南里","LIN":"5鄰","STREET":"長南街","SECT":" ","MAREA":" ","LANE":"３６巷","ALLEY":" ","HOUSE_NO":"４６號","E_COORD97":166995.59,"N_COORD97":2542752.6699999999,"ADDRESS":"長南街３６巷４６號","OBJECTID":445642},"geometry":{"x":166995.59000000078,"y":2542752.6700000018}},{"attributes":{"ID":445668,"DIS_CODE":0,"TOWNNAME":"南區","LI":"文南里","LIN":"5鄰","STREET":"長南街","SECT":" ","MAREA":" ","LANE":"３６巷","ALLEY":" ","HOUSE_NO":"４號","E_COORD97":166988.47,"N_COORD97":2542653.1200000001,"ADDRESS":"長南街３６巷４號","OBJECTID":445643},"geometry":{"x":166988.46999999974,"y":2542653.1200000029}},{"attributes":{"ID":445669,"DIS_CODE":0,"TOWNNAME":"南區","LI":"文南里","LIN":"5鄰","STREET":"長南街","SECT":" ","MAREA":" ","LANE":"３６巷","ALLEY":" ","HOUSE_NO":"５０號","E_COORD97":166995.59,"N_COORD97":2542760.8900000001,"ADDRESS":"長南街３６巷５０號","OBJECTID":445644},"geometry":{"x":166995.59000000078,"y":2542760.8900000043}},{"attributes":{"ID":445670,"DIS_CODE":0,"TOWNNAME":"南區","LI":"文南里","LIN":"5鄰","STREET":"長南街","SECT":" ","MAREA":" ","LANE":"３６巷","ALLEY":" ","HOUSE_NO":"５２號","E_COORD97":166996.01000000001,"N_COORD97":2542765.21,"ADDRESS":"長南街３６巷５２號","OBJECTID":445645},"geometry":{"x":166996.01000000071,"y":2542765.2100000009}},{"attributes":{"ID":445671,"DIS_CODE":0,"TOWNNAME":"南區","LI":"文南里","LIN":"5鄰","STREET":"長南街","SECT":" ","MAREA":" ","LANE":"３６巷","ALLEY":" ","HOUSE_NO":"５４號","E_COORD97":166996.56,"N_COORD97":2542768.8399999999,"ADDRESS":"長南街３６巷５４號","OBJECTID":445646},"geometry":{"x":166996.55999999959,"y":2542768.8400000017}},{"attributes":{"ID":445672,"DIS_CODE":0,"TOWNNAME":"南區","LI":"文南里","LIN":"5鄰","STREET":"長南街","SECT":" ","MAREA":" ","LANE":"３６巷","ALLEY":" ","HOUSE_NO":"６號","E_COORD97":166988.47,"N_COORD97":2542657.5800000001,"ADDRESS":"長南街３６巷６號","OBJECTID":445647},"geometry":{"x":166988.46999999974,"y":2542657.5800000038}},{"attributes":{"ID":445673,"DIS_CODE":0,"TOWNNAME":"南區","LI":"文南里","LIN":"5鄰","STREET":"長南街","SECT":" ","MAREA":" ","LANE":"３６巷","ALLEY":" ","HOUSE_NO":"８號","E_COORD97":166989.03,"N_COORD97":2542662.8799999999,"ADDRESS":"長南街３６巷８號","OBJECTID":445648},"geometry":{"x":166989.03000000026,"y":2542662.879999999}},{"attributes":{"ID":445674,"DIS_CODE":0,"TOWNNAME":"南區","LI":"明興里","LIN":"5鄰","STREET":"金華路","SECT":"一段","MAREA":" ","LANE":"２００巷","ALLEY":" ","HOUSE_NO":"２４號","E_COORD97":167031.10999999999,"N_COORD97":2540769.0899999999,"ADDRESS":"金華路一段２００巷２４號","OBJECTID":445649},"geometry":{"x":167031.11000000034,"y":2540769.0900000017}},{"attributes":{"ID":445675,"DIS_CODE":0,"TOWNNAME":"南區","LI":"明興里","LIN":"5鄰","STREET":"金華路","SECT":"一段","MAREA":" ","LANE":"２００巷","ALLEY":" ","HOUSE_NO":"１９號","E_COORD97":167019.81,"N_COORD97":2540780.6800000002,"ADDRESS":"金華路一段２００巷１９號","OBJECTID":445650},"geometry":{"x":167019.81000000052,"y":2540780.6799999997}},{"attributes":{"ID":445676,"DIS_CODE":0,"TOWNNAME":"南區","LI":"明興里","LIN":"5鄰","STREET":"金華路","SECT":"一段","MAREA":" ","LANE":"２００巷","ALLEY":" ","HOUSE_NO":"２１號","E_COORD97":167023.89000000001,"N_COORD97":2540780.3399999999,"ADDRESS":"金華路一段２００巷２１號","OBJECTID":445651},"geometry":{"x":167023.8900000006,"y":2540780.339999998}},{"attributes":{"ID":445677,"DIS_CODE":0,"TOWNNAME":"歸仁區","LI":"崙頂里","LIN":"5鄰","STREET":"信義南路","SECT":" ","MAREA":" ","LANE":"２０２巷","ALLEY":" ","HOUSE_NO":"５０號","E_COORD97":178026.57000000001,"N_COORD97":2540080.6800000002,"ADDRESS":"信義南路２０２巷５０號","OBJECTID":445652},"geometry":{"x":178026.57000000216,"y":2540080.6800000016}},{"attributes":{"ID":445678,"DIS_CODE":0,"TOWNNAME":"歸仁區","LI":"崙頂里","LIN":"5鄰","STREET":"信義南路","SECT":" ","MAREA":" ","LANE":"２０２巷","ALLEY":" ","HOUSE_NO":"６６號","E_COORD97":177995.76999999999,"N_COORD97":2540075.6800000002,"ADDRESS":"信義南路２０２巷６６號","OBJECTID":445653},"geometry":{"x":177995.77000000048,"y":2540075.6799999997}},{"attributes":{"ID":445679,"DIS_CODE":0,"TOWNNAME":"歸仁區","LI":"辜厝里","LIN":"5鄰","STREET":"大順街","SECT":" ","MAREA":" ","LANE":"７０巷","ALLEY":" ","HOUSE_NO":"１１號","E_COORD97":177333.60999999999,"N_COORD97":2540628.54,"ADDRESS":"大順街７０巷１１號","OBJECTID":445654},"geometry":{"x":177333.61000000127,"y":2540628.5399999991}},{"attributes":{"ID":445680,"DIS_CODE":0,"TOWNNAME":"歸仁區","LI":"辜厝里","LIN":"5鄰","STREET":"大順街","SECT":" ","MAREA":" ","LANE":"７０巷","ALLEY":" ","HOUSE_NO":"２９號","E_COORD97":177336.81,"N_COORD97":2540659.54,"ADDRESS":"大順街７０巷２９號","OBJECTID":445655},"geometry":{"x":177336.81000000052,"y":2540659.5399999972}},{"attributes":{"ID":445681,"DIS_CODE":0,"TOWNNAME":"歸仁區","LI":"辜厝里","LIN":"5鄰","STREET":"大順街","SECT":" ","MAREA":" ","LANE":"７０巷","ALLEY":" ","HOUSE_NO":"２５號","E_COORD97":177335.70999999999,"N_COORD97":2540650.54,"ADDRESS":"大順街７０巷２５號","OBJECTID":445656},"geometry":{"x":177335.71000000089,"y":2540650.540000001}},{"attributes":{"ID":445682,"DIS_CODE":0,"TOWNNAME":"歸仁區","LI":"許厝里","LIN":"5鄰","STREET":"仁愛一街","SECT":" ","MAREA":" ","LANE":"３８巷","ALLEY":" ","HOUSE_NO":"２１號","E_COORD97":178395.03,"N_COORD97":2540553.8799999999,"ADDRESS":"仁愛一街３８巷２１號","OBJECTID":445657},"geometry":{"x":178395.03000000119,"y":2540553.8800000008}},{"attributes":{"ID":445683,"DIS_CODE":0,"TOWNNAME":"歸仁區","LI":"看西里","LIN":"5鄰","STREET":"仁愛十街","SECT":" ","MAREA":" ","LANE":"３８巷","ALLEY":" ","HOUSE_NO":"２０號","E_COORD97":178206.45000000001,"N_COORD97":2540359.29,"ADDRESS":"仁愛十街３８巷２０號","OBJECTID":445658},"geometry":{"x":178206.45000000019,"y":2540359.2899999991}},{"attributes":{"ID":445684,"DIS_CODE":0,"TOWNNAME":"歸仁區","LI":"南保里","LIN":"5鄰","STREET":"文化街","SECT":"三段","MAREA":" ","LANE":"１８巷","ALLEY":" ","HOUSE_NO":"５號","E_COORD97":176944.59,"N_COORD97":2541276.3300000001,"ADDRESS":"文化街三段１８巷５號","OBJECTID":445659},"geometry":{"x":176944.59000000171,"y":2541276.3300000019}},{"attributes":{"ID":445685,"DIS_CODE":0,"TOWNNAME":"歸仁區","LI":"後市里","LIN":"5鄰","STREET":"大吉一街","SECT":" ","MAREA":" ","LANE":"３巷","ALLEY":" ","HOUSE_NO":"１０號","E_COORD97":177190.41,"N_COORD97":2540706.25,"ADDRESS":"大吉一街３巷１０號","OBJECTID":445660},"geometry":{"x":177190.41000000108,"y":2540706.25}},{"attributes":{"ID":445686,"DIS_CODE":0,"TOWNNAME":"歸仁區","LI":"南保里","LIN":"5鄰","STREET":"文化街","SECT":"三段","MAREA":" ","LANE":"１８巷","ALLEY":" ","HOUSE_NO":"１３號","E_COORD97":176927.34,"N_COORD97":2541277.3300000001,"ADDRESS":"文化街三段１８巷１３號","OBJECTID":445661},"geometry":{"x":176927.33999999985,"y":2541277.3300000019}},{"attributes":{"ID":445687,"DIS_CODE":0,"TOWNNAME":"歸仁區","LI":"武東里","LIN":"5鄰","STREET":"武東一街","SECT":" ","MAREA":" ","LANE":"１６巷","ALLEY":" ","HOUSE_NO":"１１號","E_COORD97":175510.98999999999,"N_COORD97":2535453.25,"ADDRESS":"武東一街１６巷１１號","OBJECTID":445662},"geometry":{"x":175510.99000000022,"y":2535453.2500000019}},{"attributes":{"ID":445688,"DIS_CODE":0,"TOWNNAME":"歸仁區","LI":"武東里","LIN":"5鄰","STREET":"武東一街","SECT":" ","MAREA":" ","LANE":"２８巷","ALLEY":" ","HOUSE_NO":"３０號","E_COORD97":175510.59,"N_COORD97":2535379.25,"ADDRESS":"武東一街２８巷３０號","OBJECTID":445663},"geometry":{"x":175510.59000000078,"y":2535379.25}},{"attributes":{"ID":445689,"DIS_CODE":0,"TOWNNAME":"歸仁區","LI":"武東里","LIN":"5鄰","STREET":"武東一街","SECT":" ","MAREA":" ","LANE":"１６巷","ALLEY":" ","HOUSE_NO":"１６號","E_COORD97":175496.59,"N_COORD97":2535450.25,"ADDRESS":"武東一街１６巷１６號","OBJECTID":445664},"geometry":{"x":175496.58999999985,"y":2535450.25}},{"attributes":{"ID":445690,"DIS_CODE":0,"TOWNNAME":"歸仁區","LI":"武東里","LIN":"5鄰","STREET":"武東一街","SECT":" ","MAREA":" ","LANE":"１６巷","ALLEY":" ","HOUSE_NO":"１８號","E_COORD97":175495.48999999999,"N_COORD97":2535445.25,"ADDRESS":"武東一街１６巷１８號","OBJECTID":445665},"geometry":{"x":175495.49000000022,"y":2535445.2500000019}},{"attributes":{"ID":445691,"DIS_CODE":0,"TOWNNAME":"歸仁區","LI":"武東里","LIN":"5鄰","STREET":"武東一街","SECT":" ","MAREA":" ","LANE":"２８巷","ALLEY":" ","HOUSE_NO":"３６號","E_COORD97":175506.39000000001,"N_COORD97":2535352.25,"ADDRESS":"武東一街２８巷３６號","OBJECTID":445666},"geometry":{"x":175506.39000000153,"y":2535352.25}},{"attributes":{"ID":445692,"DIS_CODE":0,"TOWNNAME":"歸仁區","LI":"南保里","LIN":"5鄰","STREET":"文化街","SECT":"三段","MAREA":" ","LANE":"１８巷","ALLEY":" ","HOUSE_NO":"７號","E_COORD97":176939.39000000001,"N_COORD97":2541276.3300000001,"ADDRESS":"文化街三段１８巷７號","OBJECTID":445667},"geometry":{"x":176939.3900000006,"y":2541276.3300000019}},{"attributes":{"ID":445693,"DIS_CODE":0,"TOWNNAME":"歸仁區","LI":"武東里","LIN":"5鄰","STREET":"武東一街","SECT":" ","MAREA":" ","LANE":"１６巷","ALLEY":" ","HOUSE_NO":"７號","E_COORD97":175513.84,"N_COORD97":2535463.25,"ADDRESS":"武東一街１６巷７號","OBJECTID":445668},"geometry":{"x":175513.84000000171,"y":2535463.2500000019}},{"attributes":{"ID":445694,"DIS_CODE":0,"TOWNNAME":"歸仁區","LI":"武東里","LIN":"5鄰","STREET":"武東一街","SECT":" ","MAREA":" ","LANE":"１６巷","ALLEY":" ","HOUSE_NO":"１０號","E_COORD97":175500.79000000001,"N_COORD97":2535465.25,"ADDRESS":"武東一街１６巷１０號","OBJECTID":445669},"geometry":{"x":175500.7900000019,"y":2535465.2500000037}},{"attributes":{"ID":445695,"DIS_CODE":0,"TOWNNAME":"歸仁區","LI":"武東里","LIN":"5鄰","STREET":"武東一街","SECT":" ","MAREA":" ","LANE":"１６巷","ALLEY":" ","HOUSE_NO":"３號","E_COORD97":175516.94,"N_COORD97":2535472.25,"ADDRESS":"武東一街１６巷３號","OBJECTID":445670},"geometry":{"x":175516.93999999948,"y":2535472.2500000037}},{"attributes":{"ID":445696,"DIS_CODE":0,"TOWNNAME":"歸仁區","LI":"武東里","LIN":"5鄰","STREET":"武東一街","SECT":" ","MAREA":" ","LANE":"１６巷","ALLEY":" ","HOUSE_NO":"１９號","E_COORD97":175511.89000000001,"N_COORD97":2535434.25,"ADDRESS":"武東一街１６巷１９號","OBJECTID":445671},"geometry":{"x":175511.8900000006,"y":2535434.25}},{"attributes":{"ID":445697,"DIS_CODE":0,"TOWNNAME":"歸仁區","LI":"南保里","LIN":"5鄰","STREET":"文化街","SECT":"三段","MAREA":" ","LANE":"１８巷","ALLEY":" ","HOUSE_NO":"２８之１３號","E_COORD97":176932.39000000001,"N_COORD97":2541340.3300000001,"ADDRESS":"文化街三段１８巷２８之１３號","OBJECTID":445672},"geometry":{"x":176932.3900000006,"y":2541340.3300000038}},{"attributes":{"ID":445698,"DIS_CODE":0,"TOWNNAME":"歸仁區","LI":"武東里","LIN":"5鄰","STREET":"武東一街","SECT":" ","MAREA":" ","LANE":"１６巷","ALLEY":" ","HOUSE_NO":"１４號","E_COORD97":175496.59,"N_COORD97":2535455.25,"ADDRESS":"武東一街１６巷１４號","OBJECTID":445673},"geometry":{"x":175496.58999999985,"y":2535455.2500000037}},{"attributes":{"ID":445699,"DIS_CODE":0,"TOWNNAME":"歸仁區","LI":"南保里","LIN":"5鄰","STREET":"文化街","SECT":"三段","MAREA":" ","LANE":"１８巷","ALLEY":" ","HOUSE_NO":"２７號","E_COORD97":176923.34,"N_COORD97":2541288.3300000001,"ADDRESS":"文化街三段１８巷２７號","OBJECTID":445674},"geometry":{"x":176923.33999999985,"y":2541288.3300000001}},{"attributes":{"ID":445700,"DIS_CODE":0,"TOWNNAME":"新營區","LI":"新北里","LIN":"31鄰","STREET":"新北六街","SECT":" ","MAREA":" ","LANE":" ","ALLEY":" ","HOUSE_NO":"９號","E_COORD97":178694.64000000001,"N_COORD97":2579044.0699999998,"ADDRESS":"新北六街９號","OBJECTID":445675},"geometry":{"x":178694.63999999966,"y":2579044.0700000022}},{"attributes":{"ID":445701,"DIS_CODE":0,"TOWNNAME":"歸仁區","LI":"南保里","LIN":"5鄰","STREET":"文化街","SECT":"三段","MAREA":" ","LANE":"１８巷","ALLEY":" ","HOUSE_NO":"２８之２０號","E_COORD97":176905.69,"N_COORD97":2541318.3300000001,"ADDRESS":"文化街三段１８巷２８之２０號","OBJECTID":445676},"geometry":{"x":176905.69000000134,"y":2541318.3300000001}},{"attributes":{"ID":445702,"DIS_CODE":0,"TOWNNAME":"玉井區","LI":"玉田里","LIN":"5鄰","STREET":"民族路","SECT":" ","MAREA":" ","LANE":"２７巷","ALLEY":" ","HOUSE_NO":"１５號","E_COORD97":195003.07999999999,"N_COORD97":2558161.2799999998,"ADDRESS":"民族路２７巷１５號","OBJECTID":445677},"geometry":{"x":195003.08000000007,"y":2558161.2799999993}},{"attributes":{"ID":445703,"DIS_CODE":0,"TOWNNAME":"玉井區","LI":"玉田里","LIN":"5鄰","STREET":"民族路","SECT":" ","MAREA":" ","LANE":"２７巷","ALLEY":" ","HOUSE_NO":"１１號","E_COORD97":195002.88,"N_COORD97":2558151.29,"ADDRESS":"民族路２７巷１１號","OBJECTID":445678},"geometry":{"x":195002.87999999989,"y":2558151.2899999991}},{"attributes":{"ID":445704,"DIS_CODE":0,"TOWNNAME":"玉井區","LI":"玉田里","LIN":"5鄰","STREET":"民族路","SECT":" ","MAREA":" ","LANE":"２７巷","ALLEY":" ","HOUSE_NO":"３號","E_COORD97":195002.04000000001,"N_COORD97":2558129.29,"ADDRESS":"民族路２７巷３號","OBJECTID":445679},"geometry":{"x":195002.03999999911,"y":2558129.290000001}},{"attributes":{"ID":445705,"DIS_CODE":0,"TOWNNAME":"玉井區","LI":"玉田里","LIN":"5鄰","STREET":"民族路","SECT":" ","MAREA":" ","LANE":"２７巷","ALLEY":" ","HOUSE_NO":"１號","E_COORD97":195002.13,"N_COORD97":2558125.29,"ADDRESS":"民族路２７巷１號","OBJECTID":445680},"geometry":{"x":195002.13000000082,"y":2558125.2900000028}},{"attributes":{"ID":445706,"DIS_CODE":0,"TOWNNAME":"玉井區","LI":"玉田里","LIN":"5鄰","STREET":"民族路","SECT":" ","MAREA":" ","LANE":"２７巷","ALLEY":" ","HOUSE_NO":"１３號","E_COORD97":195002.79000000001,"N_COORD97":2558156.29,"ADDRESS":"民族路２７巷１３號","OBJECTID":445681},"geometry":{"x":195002.79000000097,"y":2558156.290000001}},{"attributes":{"ID":445707,"DIS_CODE":0,"TOWNNAME":"玉井區","LI":"玉井里","LIN":"5鄰","STREET":"憲政街","SECT":" ","MAREA":" ","LANE":"９２巷","ALLEY":" ","HOUSE_NO":"１號","E_COORD97":194438.01000000001,"N_COORD97":2558037.27,"ADDRESS":"憲政街９２巷１號","OBJECTID":445682},"geometry":{"x":194438.01000000071,"y":2558037.2699999996}},{"attributes":{"ID":445708,"DIS_CODE":0,"TOWNNAME":"玉井區","LI":"中正里","LIN":"5鄰","STREET":"大成路","SECT":" ","MAREA":" ","LANE":"４６８巷","ALLEY":" ","HOUSE_NO":"８號","E_COORD97":195480.95999999999,"N_COORD97":2558679.2599999998,"ADDRESS":"大成路４６８巷８號","OBJECTID":445683},"geometry":{"x":195480.96000000089,"y":2558679.2600000016}},{"attributes":{"ID":445709,"DIS_CODE":0,"TOWNNAME":"玉井區","LI":"玉井里","LIN":"5鄰","STREET":"憲政街","SECT":" ","MAREA":" ","LANE":"９２巷","ALLEY":" ","HOUSE_NO":"１０之１號","E_COORD97":194434.45999999999,"N_COORD97":2558111.2999999998,"ADDRESS":"憲政街９２巷１０之１號","OBJECTID":445684},"geometry":{"x":194434.45999999996,"y":2558111.3000000026}},{"attributes":{"ID":445710,"DIS_CODE":0,"TOWNNAME":"玉井區","LI":"玉井里","LIN":"5鄰","STREET":"憲政街","SECT":" ","MAREA":" ","LANE":"９２巷","ALLEY":" ","HOUSE_NO":"１０號之２","E_COORD97":194434.73000000001,"N_COORD97":2558116.2999999998,"ADDRESS":"憲政街９２巷１０號之２","OBJECTID":445685},"geometry":{"x":194434.73000000045,"y":2558116.3000000007}},{"attributes":{"ID":445711,"DIS_CODE":0,"TOWNNAME":"玉井區","LI":"玉井里","LIN":"5鄰","STREET":"憲政街","SECT":" ","MAREA":" ","LANE":"９２巷","ALLEY":" ","HOUSE_NO":"４號","E_COORD97":194431.01000000001,"N_COORD97":2558049.27,"ADDRESS":"憲政街９２巷４號","OBJECTID":445686},"geometry":{"x":194431.01000000071,"y":2558049.2700000014}},{"attributes":{"ID":445712,"DIS_CODE":0,"TOWNNAME":"玉井區","LI":"玉井里","LIN":"5鄰","STREET":"憲政街","SECT":" ","MAREA":" ","LANE":"９２巷","ALLEY":" ","HOUSE_NO":"１０之４號","E_COORD97":194436.07000000001,"N_COORD97":2558126.2999999998,"ADDRESS":"憲政街９２巷１０之４號","OBJECTID":445687},"geometry":{"x":194436.07000000216,"y":2558126.3000000007}},{"attributes":{"ID":445713,"DIS_CODE":0,"TOWNNAME":"玉井區","LI":"玉井里","LIN":"5鄰","STREET":"憲政街","SECT":" ","MAREA":" ","LANE":"３５巷","ALLEY":" ","HOUSE_NO":"１１號","E_COORD97":194438.95999999999,"N_COORD97":2557929.27,"ADDRESS":"憲政街３５巷１１號","OBJECTID":445688},"geometry":{"x":194438.96000000089,"y":2557929.2700000033}},{"attributes":{"ID":445714,"DIS_CODE":0,"TOWNNAME":"玉井區","LI":"玉井里","LIN":"5鄰","STREET":"憲政街","SECT":" ","MAREA":" ","LANE":"３５巷","ALLEY":" ","HOUSE_NO":"３號","E_COORD97":194441.01000000001,"N_COORD97":2557963.2599999998,"ADDRESS":"憲政街３５巷３號","OBJECTID":445689},"geometry":{"x":194441.01000000164,"y":2557963.2599999979}},{"attributes":{"ID":445715,"DIS_CODE":0,"TOWNNAME":"玉井區","LI":"玉井里","LIN":"5鄰","STREET":"憲政街","SECT":" ","MAREA":" ","LANE":"３５巷","ALLEY":" ","HOUSE_NO":"９號","E_COORD97":194437.42000000001,"N_COORD97":2557945.27,"ADDRESS":"憲政街３５巷９號","OBJECTID":445690},"geometry":{"x":194437.42000000086,"y":2557945.2699999996}},{"attributes":{"ID":445716,"DIS_CODE":0,"TOWNNAME":"玉井區","LI":"玉井里","LIN":"5鄰","STREET":"憲政街","SECT":" ","MAREA":" ","LANE":"２３巷","ALLEY":" ","HOUSE_NO":"３號","E_COORD97":194468.01000000001,"N_COORD97":2557942.27,"ADDRESS":"憲政街２３巷３號","OBJECTID":445691},"geometry":{"x":194468.00999999885,"y":2557942.2699999996}},{"attributes":{"ID":445717,"DIS_CODE":0,"TOWNNAME":"玉井區","LI":"玉井里","LIN":"5鄰","STREET":"憲政街","SECT":" ","MAREA":" ","LANE":"３５巷","ALLEY":" ","HOUSE_NO":"１３號","E_COORD97":194437.95999999999,"N_COORD97":2557922.27,"ADDRESS":"憲政街３５巷１３號","OBJECTID":445692},"geometry":{"x":194437.95999999996,"y":2557922.2699999977}},{"attributes":{"ID":445718,"DIS_CODE":0,"TOWNNAME":"玉井區","LI":"玉井里","LIN":"5鄰","STREET":"憲政街","SECT":" ","MAREA":" ","LANE":"２９巷","ALLEY":" ","HOUSE_NO":"２號","E_COORD97":194457.70999999999,"N_COORD97":2557948.27,"ADDRESS":"憲政街２９巷２號","OBJECTID":445693},"geometry":{"x":194457.70999999996,"y":2557948.2699999996}},{"attributes":{"ID":445719,"DIS_CODE":0,"TOWNNAME":"玉井區","LI":"玉井里","LIN":"5鄰","STREET":"憲政街","SECT":" ","MAREA":" ","LANE":"３５巷","ALLEY":" ","HOUSE_NO":"１號","E_COORD97":194441.60999999999,"N_COORD97":2557972.2599999998,"ADDRESS":"憲政街３５巷１號","OBJECTID":445694},"geometry":{"x":194441.61000000127,"y":2557972.2599999998}},{"attributes":{"ID":445720,"DIS_CODE":0,"TOWNNAME":"玉井區","LI":"玉井里","LIN":"5鄰","STREET":"憲政街","SECT":" ","MAREA":" ","LANE":"３５巷","ALLEY":" ","HOUSE_NO":"１９號","E_COORD97":194436.35999999999,"N_COORD97":2557905.27,"ADDRESS":"憲政街３５巷１９號","OBJECTID":445695},"geometry":{"x":194436.36000000127,"y":2557905.2699999996}},{"attributes":{"ID":445721,"DIS_CODE":0,"TOWNNAME":"玉井區","LI":"玉田里","LIN":"5鄰","STREET":"中正路","SECT":" ","MAREA":" ","LANE":"１９０巷","ALLEY":" ","HOUSE_NO":"２號","E_COORD97":195018.64999999999,"N_COORD97":2558180.2400000002,"ADDRESS":"中正路１９０巷２號","OBJECTID":445696},"geometry":{"x":195018.65000000224,"y":2558180.2400000002}},{"attributes":{"ID":445722,"DIS_CODE":0,"TOWNNAME":"歸仁區","LI":"歸南里","LIN":"5鄰","STREET":"中正南路","SECT":"一段","MAREA":" ","LANE":"４９２巷","ALLEY":" ","HOUSE_NO":"１４號","E_COORD97":176892.09,"N_COORD97":2540101.25,"ADDRESS":"中正南路一段４９２巷１４號","OBJECTID":445697},"geometry":{"x":176892.09000000078,"y":2540101.2500000019}},{"attributes":{"ID":445723,"DIS_CODE":0,"TOWNNAME":"歸仁區","LI":"歸南里","LIN":"5鄰","STREET":"中正南路","SECT":"一段","MAREA":" ","LANE":"４９２巷","ALLEY":" ","HOUSE_NO":"１６號","E_COORD97":176892.09,"N_COORD97":2540106.25,"ADDRESS":"中正南路一段４９２巷１６號","OBJECTID":445698},"geometry":{"x":176892.09000000078,"y":2540106.25}},{"attributes":{"ID":445724,"DIS_CODE":0,"TOWNNAME":"歸仁區","LI":"歸南里","LIN":"5鄰","STREET":"中正南路","SECT":"一段","MAREA":" ","LANE":"４９２巷","ALLEY":" ","HOUSE_NO":"１０號","E_COORD97":176891.98999999999,"N_COORD97":2540094.25,"ADDRESS":"中正南路一段４９２巷１０號","OBJECTID":445699},"geometry":{"x":176891.99000000115,"y":2540094.2500000019}},{"attributes":{"ID":445725,"DIS_CODE":0,"TOWNNAME":"歸仁區","LI":"歸南里","LIN":"5鄰","STREET":"中正南路","SECT":"一段","MAREA":" ","LANE":"４９２巷","ALLEY":" ","HOUSE_NO":"１２號","E_COORD97":176892.09,"N_COORD97":2540098.25,"ADDRESS":"中正南路一段４９２巷１２號","OBJECTID":445700},"geometry":{"x":176892.09000000078,"y":2540098.25}},{"attributes":{"ID":445726,"DIS_CODE":0,"TOWNNAME":"歸仁區","LI":"歸南里","LIN":"5鄰","STREET":"中正南路","SECT":"一段","MAREA":" ","LANE":"４９２巷","ALLEY":" ","HOUSE_NO":"２４號","E_COORD97":176893.19,"N_COORD97":2540122.25,"ADDRESS":"中正南路一段４９２巷２４號","OBJECTID":445701},"geometry":{"x":176893.19000000041,"y":2540122.25}},{"attributes":{"ID":445727,"DIS_CODE":0,"TOWNNAME":"歸仁區","LI":"歸南里","LIN":"5鄰","STREET":"中正南路","SECT":"一段","MAREA":" ","LANE":"４９２巷","ALLEY":" ","HOUSE_NO":"９號","E_COORD97":176871.23999999999,"N_COORD97":2540087.25,"ADDRESS":"中正南路一段４９２巷９號","OBJECTID":445702},"geometry":{"x":176871.24000000115,"y":2540087.2500000019}},{"attributes":{"ID":445728,"DIS_CODE":0,"TOWNNAME":"南區","LI":"文南里","LIN":"5鄰","STREET":"長南街","SECT":" ","MAREA":" ","LANE":"３６巷","ALLEY":" ","HOUSE_NO":"２０號","E_COORD97":166990.84,"N_COORD97":2542689.3799999999,"ADDRESS":"長南街３６巷２０號","OBJECTID":445703},"geometry":{"x":166990.84000000078,"y":2542689.3800000008}},{"attributes":{"ID":445729,"DIS_CODE":0,"TOWNNAME":"南區","LI":"文南里","LIN":"5鄰","STREET":"長南街","SECT":" ","MAREA":" ","LANE":"３６巷","ALLEY":" ","HOUSE_NO":"３２號","E_COORD97":166992.94,"N_COORD97":2542716.98,"ADDRESS":"長南街３６巷３２號","OBJECTID":445704},"geometry":{"x":166992.94000000041,"y":2542716.9800000023}},{"attributes":{"ID":445730,"DIS_CODE":0,"TOWNNAME":"南區","LI":"文南里","LIN":"5鄰","STREET":"長南街","SECT":" ","MAREA":" ","LANE":"３６巷","ALLEY":" ","HOUSE_NO":"３４號","E_COORD97":166993.76999999999,"N_COORD97":2542721.2999999998,"ADDRESS":"長南街３６巷３４號","OBJECTID":445705},"geometry":{"x":166993.76999999862,"y":2542721.3000000045}},{"attributes":{"ID":445731,"DIS_CODE":0,"TOWNNAME":"南區","LI":"文南里","LIN":"5鄰","STREET":"長南街","SECT":" ","MAREA":" ","LANE":"３６巷","ALLEY":" ","HOUSE_NO":"３６號","E_COORD97":166993.91,"N_COORD97":2542725.6200000001,"ADDRESS":"長南街３６巷３６號","OBJECTID":445706},"geometry":{"x":166993.91000000108,"y":2542725.620000001}},{"attributes":{"ID":445732,"DIS_CODE":0,"TOWNNAME":"南區","LI":"文南里","LIN":"5鄰","STREET":"長南街","SECT":" ","MAREA":" ","LANE":"３６巷","ALLEY":" ","HOUSE_NO":"３８號","E_COORD97":166994.32999999999,"N_COORD97":2542730.0800000001,"ADDRESS":"長南街３６巷３８號","OBJECTID":445707},"geometry":{"x":166994.33000000101,"y":2542730.0800000019}},{"attributes":{"ID":445733,"DIS_CODE":0,"TOWNNAME":"麻豆區","LI":"\u25A0江里","LIN":"5鄰","STREET":"民權路","SECT":" ","MAREA":" ","LANE":"１８巷","ALLEY":" ","HOUSE_NO":"１０號","E_COORD97":173257.79000000001,"N_COORD97":2564567.3199999998,"ADDRESS":"民權路１８巷１０號","OBJECTID":445708},"geometry":{"x":173257.79000000004,"y":2564567.3200000003}},{"attributes":{"ID":445734,"DIS_CODE":0,"TOWNNAME":"麻豆區","LI":"\u25A0江里","LIN":"5鄰","STREET":"民權路","SECT":" ","MAREA":" ","LANE":"１８巷","ALLEY":" ","HOUSE_NO":"１１號","E_COORD97":173272.73999999999,"N_COORD97":2564536.8999999999,"ADDRESS":"民權路１８巷１１號","OBJECTID":445709},"geometry":{"x":173272.74000000115,"y":2564536.8999999985}},{"attributes":{"ID":445735,"DIS_CODE":0,"TOWNNAME":"麻豆區","LI":"\u25A0江里","LIN":"5鄰","STREET":"民權路","SECT":" ","MAREA":" ","LANE":"１８巷","ALLEY":" ","HOUSE_NO":"１２號之１","E_COORD97":173264.92999999999,"N_COORD97":2564592.23,"ADDRESS":"民權路１８巷１２號之１","OBJECTID":445710},"geometry":{"x":173264.9299999997,"y":2564592.2300000004}},{"attributes":{"ID":445736,"DIS_CODE":0,"TOWNNAME":"麻豆區","LI":"\u25A0江里","LIN":"5鄰","STREET":"民權路","SECT":" ","MAREA":" ","LANE":"１８巷","ALLEY":" ","HOUSE_NO":"１２號之３","E_COORD97":173266.60999999999,"N_COORD97":2564597.2799999998,"ADDRESS":"民權路１８巷１２號之３","OBJECTID":445711},"geometry":{"x":173266.61000000127,"y":2564597.2799999993}},{"attributes":{"ID":445737,"DIS_CODE":0,"TOWNNAME":"麻豆區","LI":"\u25A0江里","LIN":"5鄰","STREET":"民權路","SECT":" ","MAREA":" ","LANE":"１８巷","ALLEY":" ","HOUSE_NO":"１２號","E_COORD97":173269.22,"N_COORD97":2564581.4100000001,"ADDRESS":"民權路１８巷１２號","OBJECTID":445712},"geometry":{"x":173269.21999999974,"y":2564581.410000002}},{"attributes":{"ID":445738,"DIS_CODE":0,"TOWNNAME":"麻豆區","LI":"\u25A0江里","LIN":"5鄰","STREET":"民權路","SECT":" ","MAREA":" ","LANE":"１８巷","ALLEY":" ","HOUSE_NO":"１３號之１","E_COORD97":173253.44,"N_COORD97":2564512.5099999998,"ADDRESS":"民權路１８巷１３號之１","OBJECTID":445713},"geometry":{"x":173253.44000000041,"y":2564512.5100000016}},{"attributes":{"ID":445739,"DIS_CODE":0,"TOWNNAME":"麻豆區","LI":"\u25A0江里","LIN":"5鄰","STREET":"民權路","SECT":" ","MAREA":" ","LANE":"１８巷","ALLEY":" ","HOUSE_NO":"１３號之２","E_COORD97":173236.26999999999,"N_COORD97":2564515.71,"ADDRESS":"民權路１８巷１３號之２","OBJECTID":445714},"geometry":{"x":173236.27000000048,"y":2564515.7100000028}},{"attributes":{"ID":445740,"DIS_CODE":0,"TOWNNAME":"麻豆區","LI":"\u25A0江里","LIN":"5鄰","STREET":"民權路","SECT":" ","MAREA":" ","LANE":"１８巷","ALLEY":" ","HOUSE_NO":"１３號之５","E_COORD97":173247.85000000001,"N_COORD97":2564492.2000000002,"ADDRESS":"民權路１８巷１３號之５","OBJECTID":445715},"geometry":{"x":173247.84999999963,"y":2564492.1999999993}},{"attributes":{"ID":445741,"DIS_CODE":0,"TOWNNAME":"麻豆區","LI":"\u25A0江里","LIN":"5鄰","STREET":"民權路","SECT":" ","MAREA":" ","LANE":"１８巷","ALLEY":" ","HOUSE_NO":"１３號之６","E_COORD97":173244.53,"N_COORD97":2564488.9300000002,"ADDRESS":"民權路１８巷１３號之６","OBJECTID":445716},"geometry":{"x":173244.53000000026,"y":2564488.9300000034}},{"attributes":{"ID":445742,"DIS_CODE":0,"TOWNNAME":"麻豆區","LI":"\u25A0江里","LIN":"5鄰","STREET":"民權路","SECT":" ","MAREA":" ","LANE":"１８巷","ALLEY":" ","HOUSE_NO":"１３號之７","E_COORD97":173241.10999999999,"N_COORD97":2564486.0800000001,"ADDRESS":"民權路１８巷１３號之７","OBJECTID":445717},"geometry":{"x":173241.11000000127,"y":2564486.0800000019}},{"attributes":{"ID":445743,"DIS_CODE":0,"TOWNNAME":"麻豆區","LI":"\u25A0江里","LIN":"5鄰","STREET":"民權路","SECT":" ","MAREA":" ","LANE":"１８巷","ALLEY":" ","HOUSE_NO":"１３號之８","E_COORD97":173237.76000000001,"N_COORD97":2564483.9300000002,"ADDRESS":"民權路１８巷１３號之８","OBJECTID":445718},"geometry":{"x":173237.76000000071,"y":2564483.9299999997}},{"attributes":{"ID":445744,"DIS_CODE":0,"TOWNNAME":"麻豆區","LI":"\u25A0江里","LIN":"5鄰","STREET":"民權路","SECT":" ","MAREA":" ","LANE":"１８巷","ALLEY":" ","HOUSE_NO":"１３號","E_COORD97":173283.38,"N_COORD97":2564507.2799999998,"ADDRESS":"民權路１８巷１３號","OBJECTID":445719},"geometry":{"x":173283.38000000082,"y":2564507.2800000012}},{"attributes":{"ID":445745,"DIS_CODE":0,"TOWNNAME":"麻豆區","LI":"\u25A0江里","LIN":"5鄰","STREET":"民權路","SECT":" ","MAREA":" ","LANE":"１８巷","ALLEY":" ","HOUSE_NO":"６號之１","E_COORD97":173288.82000000001,"N_COORD97":2564564.1099999999,"ADDRESS":"民權路１８巷６號之１","OBJECTID":445720},"geometry":{"x":173288.82000000123,"y":2564564.1099999994}},{"attributes":{"ID":445746,"DIS_CODE":0,"TOWNNAME":"麻豆區","LI":"\u25A0江里","LIN":"5鄰","STREET":"民權路","SECT":" ","MAREA":" ","LANE":"１８巷","ALLEY":" ","HOUSE_NO":"６號","E_COORD97":173291.82999999999,"N_COORD97":2564492.27,"ADDRESS":"民權路１８巷６號","OBJECTID":445721},"geometry":{"x":173291.83000000101,"y":2564492.2699999996}},{"attributes":{"ID":445747,"DIS_CODE":0,"TOWNNAME":"麻豆區","LI":"\u25A0江里","LIN":"5鄰","STREET":"民權路","SECT":" ","MAREA":" ","LANE":"１８巷","ALLEY":" ","HOUSE_NO":"７號之１","E_COORD97":173293.32000000001,"N_COORD97":2564550.3500000001,"ADDRESS":"民權路１８巷７號之１","OBJECTID":445722},"geometry":{"x":173293.3200000003,"y":2564550.3500000034}},{"attributes":{"ID":445748,"DIS_CODE":0,"TOWNNAME":"麻豆區","LI":"\u25A0江里","LIN":"5鄰","STREET":"民權路","SECT":" ","MAREA":" ","LANE":"１８巷","ALLEY":" ","HOUSE_NO":"７號","E_COORD97":173287.69,"N_COORD97":2564535.8900000001,"ADDRESS":"民權路１８巷７號","OBJECTID":445723},"geometry":{"x":173287.69000000041,"y":2564535.8900000006}},{"attributes":{"ID":445749,"DIS_CODE":0,"TOWNNAME":"新營區","LI":"太北里","LIN":"17鄰","STREET":" ","SECT":" ","MAREA":"太子宮","LANE":" ","ALLEY":" ","HOUSE_NO":"１４７之３３號","E_COORD97":175390.07318800001,"N_COORD97":2577174.9613700002,"ADDRESS":"太子宮１４７之３３號","OBJECTID":445724},"geometry":{"x":175390.07318800129,"y":2577174.9613670018}},{"attributes":{"ID":445750,"DIS_CODE":0,"TOWNNAME":"麻豆區","LI":"\u25A0江里","LIN":"5鄰","STREET":"民權路","SECT":" ","MAREA":" ","LANE":"１８巷","ALLEY":" ","HOUSE_NO":"９號之１","E_COORD97":173276.95999999999,"N_COORD97":2564551.5299999998,"ADDRESS":"民權路１８巷９號之１","OBJECTID":445725},"geometry":{"x":173276.95999999903,"y":2564551.5299999993}},{"attributes":{"ID":445751,"DIS_CODE":0,"TOWNNAME":"麻豆區","LI":"\u25A0江里","LIN":"5鄰","STREET":"民權路","SECT":" ","MAREA":" ","LANE":"１８巷","ALLEY":" ","HOUSE_NO":"９號","E_COORD97":173286.13,"N_COORD97":2564549.8399999999,"ADDRESS":"民權路１８巷９號","OBJECTID":445726},"geometry":{"x":173286.13000000175,"y":2564549.8399999999}},{"attributes":{"ID":445752,"DIS_CODE":0,"TOWNNAME":"北區","LI":"公園里","LIN":"5鄰","STREET":"北門路","SECT":"二段","MAREA":" ","LANE":"１０４巷","ALLEY":" ","HOUSE_NO":"１９號","E_COORD97":169392.75,"N_COORD97":2544824.4199999999,"ADDRESS":"北門路二段１０４巷１９號","OBJECTID":445727},"geometry":{"x":169392.75,"y":2544824.4199999999}},{"attributes":{"ID":445753,"DIS_CODE":0,"TOWNNAME":"北區","LI":"公園里","LIN":"5鄰","STREET":"北門路","SECT":"二段","MAREA":" ","LANE":"１０４巷","ALLEY":" ","HOUSE_NO":"２１號","E_COORD97":169397.28,"N_COORD97":2544823.5099999998,"ADDRESS":"北門路二段１０４巷２１號","OBJECTID":445728},"geometry":{"x":169397.28000000119,"y":2544823.5099999998}},{"attributes":{"ID":445754,"DIS_CODE":0,"TOWNNAME":"北區","LI":"公園里","LIN":"5鄰","STREET":"北門路","SECT":"二段","MAREA":" ","LANE":"１０４巷","ALLEY":" ","HOUSE_NO":"２３號","E_COORD97":169414.85999999999,"N_COORD97":2544826.9500000002,"ADDRESS":"北門路二段１０４巷２３號","OBJECTID":445729},"geometry":{"x":169414.8600000022,"y":2544826.9499999993}},{"attributes":{"ID":445755,"DIS_CODE":0,"TOWNNAME":"北區","LI":"公園里","LIN":"5鄰","STREET":"北門路","SECT":"二段","MAREA":" ","LANE":"１０４巷","ALLEY":" ","HOUSE_NO":"２５號","E_COORD97":169409.23999999999,"N_COORD97":2544828.3999999999,"ADDRESS":"北門路二段１０４巷２５號","OBJECTID":445730},"geometry":{"x":169409.24000000115,"y":2544828.4000000004}},{"attributes":{"ID":445756,"DIS_CODE":0,"TOWNNAME":"北區","LI":"公園里","LIN":"5鄰","STREET":"北門路","SECT":"二段","MAREA":" ","LANE":"１０４巷","ALLEY":" ","HOUSE_NO":"２７號","E_COORD97":169398.54999999999,"N_COORD97":2544829.4900000002,"ADDRESS":"北門路二段１０４巷２７號","OBJECTID":445731},"geometry":{"x":169398.55000000075,"y":2544829.4900000021}},{"attributes":{"ID":445757,"DIS_CODE":0,"TOWNNAME":"北區","LI":"公園里","LIN":"5鄰","STREET":"北門路","SECT":"二段","MAREA":" ","LANE":"１０４巷","ALLEY":" ","HOUSE_NO":"２９號","E_COORD97":169393.10999999999,"N_COORD97":2544830.5699999998,"ADDRESS":"北門路二段１０４巷２９號","OBJECTID":445732},"geometry":{"x":169393.11000000127,"y":2544830.5700000003}},{"attributes":{"ID":445758,"DIS_CODE":0,"TOWNNAME":"北區","LI":"公園里","LIN":"5鄰","STREET":"北門路","SECT":"二段","MAREA":" ","LANE":"１０４巷","ALLEY":" ","HOUSE_NO":"３１號","E_COORD97":169396.54000000001,"N_COORD97":2544845.52,"ADDRESS":"北門路二段１０４巷３１號","OBJECTID":445733},"geometry":{"x":169396.54000000097,"y":2544845.5200000014}},{"attributes":{"ID":445759,"DIS_CODE":0,"TOWNNAME":"北區","LI":"公園里","LIN":"5鄰","STREET":"北門路","SECT":"二段","MAREA":" ","LANE":"１０４巷","ALLEY":" ","HOUSE_NO":"２號","E_COORD97":169384.95000000001,"N_COORD97":2544759.9700000002,"ADDRESS":"北門路二段１０４巷２號","OBJECTID":445734},"geometry":{"x":169384.95000000019,"y":2544759.9700000007}},{"attributes":{"ID":445760,"DIS_CODE":0,"TOWNNAME":"北區","LI":"公園里","LIN":"5鄰","STREET":"北門路","SECT":"二段","MAREA":" ","LANE":"１０４巷","ALLEY":" ","HOUSE_NO":"４號","E_COORD97":169395.10000000001,"N_COORD97":2544742.23,"ADDRESS":"北門路二段１０４巷４號","OBJECTID":445735},"geometry":{"x":169395.09999999963,"y":2544742.2300000023}},{"attributes":{"ID":445761,"DIS_CODE":0,"TOWNNAME":"北區","LI":"公園里","LIN":"5鄰","STREET":"北門路","SECT":"二段","MAREA":" ","LANE":"１０４巷","ALLEY":" ","HOUSE_NO":"６號","E_COORD97":169401.07999999999,"N_COORD97":2544749.1099999999,"ADDRESS":"北門路二段１０４巷６號","OBJECTID":445736},"geometry":{"x":169401.07999999914,"y":2544749.1100000013}},{"attributes":{"ID":445762,"DIS_CODE":0,"TOWNNAME":"北區","LI":"公園里","LIN":"5鄰","STREET":"北門路","SECT":"二段","MAREA":" ","LANE":"１０４巷","ALLEY":" ","HOUSE_NO":"８號","E_COORD97":169402.35000000001,"N_COORD97":2544755.8100000001,"ADDRESS":"北門路二段１０４巷８號","OBJECTID":445737},"geometry":{"x":169402.35000000149,"y":2544755.8100000024}},{"attributes":{"ID":445763,"DIS_CODE":0,"TOWNNAME":"北區","LI":"公園里","LIN":"5鄰","STREET":"北門路","SECT":"二段","MAREA":" ","LANE":"１０４巷","ALLEY":" ","HOUSE_NO":"１０號","E_COORD97":169401.09,"N_COORD97":2544767.1600000001,"ADDRESS":"北門路二段１０４巷１０號","OBJECTID":445738},"geometry":{"x":169401.09000000078,"y":2544767.160000002}},{"attributes":{"ID":445764,"DIS_CODE":0,"TOWNNAME":"北區","LI":"公園里","LIN":"5鄰","STREET":"北門路","SECT":"二段","MAREA":" ","LANE":"１０４巷","ALLEY":" ","HOUSE_NO":"１１號","E_COORD97":169403.45000000001,"N_COORD97":2544789.6000000001,"ADDRESS":"北門路二段１０４巷１１號","OBJECTID":445739},"geometry":{"x":169403.45000000019,"y":2544789.6000000034}},{"attributes":{"ID":445765,"DIS_CODE":0,"TOWNNAME":"北區","LI":"公園里","LIN":"5鄰","STREET":"北門路","SECT":"二段","MAREA":" ","LANE":"１０４巷","ALLEY":" ","HOUSE_NO":"１３號","E_COORD97":169409.06,"N_COORD97":2544788.5099999998,"ADDRESS":"北門路二段１０４巷１３號","OBJECTID":445740},"geometry":{"x":169409.05999999959,"y":2544788.5099999998}},{"attributes":{"ID":445766,"DIS_CODE":0,"TOWNNAME":"北區","LI":"公園里","LIN":"5鄰","STREET":"北門路","SECT":"二段","MAREA":" ","LANE":"１０４巷","ALLEY":" ","HOUSE_NO":"１５號","E_COORD97":169404.89999999999,"N_COORD97":2544778.9199999999,"ADDRESS":"北門路二段１０４巷１５號","OBJECTID":445741},"geometry":{"x":169404.9000000013,"y":2544778.9200000018}},{"attributes":{"ID":445767,"DIS_CODE":0,"TOWNNAME":"北區","LI":"公園里","LIN":"5鄰","STREET":"北門路","SECT":"二段","MAREA":" ","LANE":"１０４巷","ALLEY":" ","HOUSE_NO":"１７號","E_COORD97":169393.12,"N_COORD97":2544799.0099999998,"ADDRESS":"北門路二段１０４巷１７號","OBJECTID":445742},"geometry":{"x":169393.12000000104,"y":2544799.0099999998}},{"attributes":{"ID":445768,"DIS_CODE":0,"TOWNNAME":"北區","LI":"公園里","LIN":"5鄰","STREET":"北門路","SECT":"二段","MAREA":" ","LANE":"１０４巷","ALLEY":" ","HOUSE_NO":"３號","E_COORD97":169380.25,"N_COORD97":2544775.1200000001,"ADDRESS":"北門路二段１０４巷３號","OBJECTID":445743},"geometry":{"x":169380.25000000093,"y":2544775.1200000029}},{"attributes":{"ID":445769,"DIS_CODE":0,"TOWNNAME":"北區","LI":"公園里","LIN":"5鄰","STREET":"北門路","SECT":"二段","MAREA":" ","LANE":"１０４巷","ALLEY":" ","HOUSE_NO":"５號","E_COORD97":169385.14000000001,"N_COORD97":2544792.8599999999,"ADDRESS":"北門路二段１０４巷５號","OBJECTID":445744},"geometry":{"x":169385.14000000153,"y":2544792.8599999994}},{"attributes":{"ID":445770,"DIS_CODE":0,"TOWNNAME":"北區","LI":"公園里","LIN":"5鄰","STREET":"北門路","SECT":"二段","MAREA":" ","LANE":"１０４巷","ALLEY":" ","HOUSE_NO":"７號","E_COORD97":169391.67000000001,"N_COORD97":2544791.9500000002,"ADDRESS":"北門路二段１０４巷７號","OBJECTID":445745},"geometry":{"x":169391.66999999993,"y":2544791.9499999993}},{"attributes":{"ID":445771,"DIS_CODE":0,"TOWNNAME":"北區","LI":"公園里","LIN":"5鄰","STREET":"北門路","SECT":"二段","MAREA":" ","LANE":"１０４巷","ALLEY":" ","HOUSE_NO":"９號","E_COORD97":169398.37,"N_COORD97":2544790.5,"ADDRESS":"北門路二段１０４巷９號","OBJECTID":445746},"geometry":{"x":169398.37000000104,"y":2544790.5000000037}},{"attributes":{"ID":445772,"DIS_CODE":0,"TOWNNAME":"安平區","LI":"海頭里","LIN":"5鄰","STREET":"中興街","SECT":" ","MAREA":" ","LANE":"１８巷","ALLEY":" ","HOUSE_NO":"８號","E_COORD97":164260.89999999999,"N_COORD97":2544721.04,"ADDRESS":"中興街１８巷８號","OBJECTID":445747},"geometry":{"x":164260.90000000037,"y":2544721.0399999991}},{"attributes":{"ID":445773,"DIS_CODE":0,"TOWNNAME":"六甲區","LI":"六甲里","LIN":"5鄰","STREET":"民權街","SECT":" ","MAREA":" ","LANE":"１８巷","ALLEY":" ","HOUSE_NO":"１１號","E_COORD97":183468.79000000001,"N_COORD97":2569675.9100000001,"ADDRESS":"民權街１８巷１１號","OBJECTID":445748},"geometry":{"x":183468.79000000097,"y":2569675.9100000001}},{"attributes":{"ID":445774,"DIS_CODE":0,"TOWNNAME":"六甲區","LI":"六甲里","LIN":"5鄰","STREET":"民權街","SECT":" ","MAREA":" ","LANE":"１８巷","ALLEY":" ","HOUSE_NO":"１３號","E_COORD97":183470.04000000001,"N_COORD97":2569680.1899999999,"ADDRESS":"民權街１８巷１３號","OBJECTID":445749},"geometry":{"x":183470.04000000097,"y":2569680.1899999995}},{"attributes":{"ID":445775,"DIS_CODE":0,"TOWNNAME":"六甲區","LI":"六甲里","LIN":"5鄰","STREET":"民權街","SECT":" ","MAREA":" ","LANE":"１８巷","ALLEY":" ","HOUSE_NO":"１５號","E_COORD97":183471.37,"N_COORD97":2569683.9100000001,"ADDRESS":"民權街１８巷１５號","OBJECTID":445750},"geometry":{"x":183471.37000000104,"y":2569683.910000002}},{"attributes":{"ID":445776,"DIS_CODE":0,"TOWNNAME":"六甲區","LI":"六甲里","LIN":"5鄰","STREET":"民權街","SECT":" ","MAREA":" ","LANE":"１８巷","ALLEY":" ","HOUSE_NO":"３號","E_COORD97":183464.39999999999,"N_COORD97":2569659.23,"ADDRESS":"民權街１８巷３號","OBJECTID":445751},"geometry":{"x":183464.40000000224,"y":2569659.2300000023}},{"attributes":{"ID":445777,"DIS_CODE":0,"TOWNNAME":"六甲區","LI":"六甲里","LIN":"5鄰","STREET":"民權街","SECT":" ","MAREA":" ","LANE":"１８巷","ALLEY":" ","HOUSE_NO":"５號","E_COORD97":183465.42000000001,"N_COORD97":2569663.3799999999,"ADDRESS":"民權街１８巷５號","OBJECTID":445752},"geometry":{"x":183465.42000000179,"y":2569663.3800000008}},{"attributes":{"ID":445778,"DIS_CODE":0,"TOWNNAME":"六甲區","LI":"六甲里","LIN":"5鄰","STREET":"民權街","SECT":" ","MAREA":" ","LANE":"１８巷","ALLEY":" ","HOUSE_NO":"７號","E_COORD97":183466.57999999999,"N_COORD97":2569667.79,"ADDRESS":"民權街１８巷７號","OBJECTID":445753},"geometry":{"x":183466.58000000101,"y":2569667.790000001}},{"attributes":{"ID":445779,"DIS_CODE":0,"TOWNNAME":"六甲區","LI":"六甲里","LIN":"5鄰","STREET":"民權街","SECT":" ","MAREA":" ","LANE":"１８巷","ALLEY":" ","HOUSE_NO":"９號","E_COORD97":183467.70999999999,"N_COORD97":2569671.4500000002,"ADDRESS":"民權街１８巷９號","OBJECTID":445754},"geometry":{"x":183467.70999999996,"y":2569671.4499999993}},{"attributes":{"ID":445780,"DIS_CODE":0,"TOWNNAME":"六甲區","LI":"二甲里","LIN":"5鄰","STREET":"民權街","SECT":" ","MAREA":" ","LANE":"２２９巷","ALLEY":" ","HOUSE_NO":"１１號","E_COORD97":183030.10000000001,"N_COORD97":2569671.1499999999,"ADDRESS":"民權街２２９巷１１號","OBJECTID":445755},"geometry":{"x":183030.10000000056,"y":2569671.1500000004}},{"attributes":{"ID":445781,"DIS_CODE":0,"TOWNNAME":"六甲區","LI":"二甲里","LIN":"5鄰","STREET":"民權街","SECT":" ","MAREA":" ","LANE":"２２９巷","ALLEY":" ","HOUSE_NO":"１７之１號","E_COORD97":183012.97,"N_COORD97":2569627.4700000002,"ADDRESS":"民權街２２９巷１７之１號","OBJECTID":445756},"geometry":{"x":183012.97000000067,"y":2569627.4700000025}},{"attributes":{"ID":445782,"DIS_CODE":0,"TOWNNAME":"六甲區","LI":"二甲里","LIN":"5鄰","STREET":"民權街","SECT":" ","MAREA":" ","LANE":"２２９巷","ALLEY":" ","HOUSE_NO":"１７號","E_COORD97":183014.07000000001,"N_COORD97":2569632.0800000001,"ADDRESS":"民權街２２９巷１７號","OBJECTID":445757},"geometry":{"x":183014.07000000123,"y":2569632.0800000019}},{"attributes":{"ID":445783,"DIS_CODE":0,"TOWNNAME":"六甲區","LI":"二甲里","LIN":"5鄰","STREET":"民權街","SECT":" ","MAREA":" ","LANE":"２２９巷","ALLEY":" ","HOUSE_NO":"２３號","E_COORD97":183012.57000000001,"N_COORD97":2569606.1899999999,"ADDRESS":"民權街２２９巷２３號","OBJECTID":445758},"geometry":{"x":183012.57000000123,"y":2569606.1900000032}},{"attributes":{"ID":445784,"DIS_CODE":0,"TOWNNAME":"六甲區","LI":"二甲里","LIN":"5鄰","STREET":"民權街","SECT":" ","MAREA":" ","LANE":"２２９巷","ALLEY":" ","HOUSE_NO":"２７號","E_COORD97":182997.72,"N_COORD97":2569592.7000000002,"ADDRESS":"民權街２２９巷２７號","OBJECTID":445759},"geometry":{"x":182997.72000000067,"y":2569592.7000000011}},{"attributes":{"ID":445785,"DIS_CODE":0,"TOWNNAME":"六甲區","LI":"二甲里","LIN":"5鄰","STREET":"民權街","SECT":" ","MAREA":" ","LANE":"２２９巷","ALLEY":" ","HOUSE_NO":"４１之５號","E_COORD97":182980.28,"N_COORD97":2569538.1099999999,"ADDRESS":"民權街２２９巷４１之５號","OBJECTID":445760},"geometry":{"x":182980.28000000212,"y":2569538.1099999994}},{"attributes":{"ID":445786,"DIS_CODE":0,"TOWNNAME":"六甲區","LI":"二甲里","LIN":"5鄰","STREET":"民權街","SECT":" ","MAREA":" ","LANE":"２２９巷","ALLEY":" ","HOUSE_NO":"４１號之６","E_COORD97":182981.73999999999,"N_COORD97":2569542.46,"ADDRESS":"民權街２２９巷４１號之６","OBJECTID":445761},"geometry":{"x":182981.74000000022,"y":2569542.4600000028}},{"attributes":{"ID":445787,"DIS_CODE":0,"TOWNNAME":"六甲區","LI":"二甲里","LIN":"5鄰","STREET":"民權街","SECT":" ","MAREA":" ","LANE":"２２９巷","ALLEY":" ","HOUSE_NO":"４１號","E_COORD97":182986.79999999999,"N_COORD97":2569558.8700000001,"ADDRESS":"民權街２２９巷４１號","OBJECTID":445762},"geometry":{"x":182986.80000000075,"y":2569558.870000001}},{"attributes":{"ID":445788,"DIS_CODE":0,"TOWNNAME":"六甲區","LI":"二甲里","LIN":"5鄰","STREET":"民權街","SECT":" ","MAREA":" ","LANE":"２２９巷","ALLEY":" ","HOUSE_NO":"４３號","E_COORD97":182980.23999999999,"N_COORD97":2569527.04,"ADDRESS":"民權街２２９巷４３號","OBJECTID":445763},"geometry":{"x":182980.24000000022,"y":2569527.040000001}},{"attributes":{"ID":445789,"DIS_CODE":0,"TOWNNAME":"六甲區","LI":"二甲里","LIN":"5鄰","STREET":"民權街","SECT":" ","MAREA":" ","LANE":"２２９巷","ALLEY":" ","HOUSE_NO":"５之１號","E_COORD97":183035.51999999999,"N_COORD97":2569703.2799999998,"ADDRESS":"民權街２２９巷５之１號","OBJECTID":445764},"geometry":{"x":183035.52000000142,"y":2569703.2799999993}},{"attributes":{"ID":445790,"DIS_CODE":0,"TOWNNAME":"六甲區","LI":"二甲里","LIN":"5鄰","STREET":"民權街","SECT":" ","MAREA":" ","LANE":"２２９巷","ALLEY":" ","HOUSE_NO":"５號","E_COORD97":183036.91,"N_COORD97":2569707.2400000002,"ADDRESS":"民權街２２９巷５號","OBJECTID":445765},"geometry":{"x":183036.91000000201,"y":2569707.2400000002}},{"attributes":{"ID":445791,"DIS_CODE":0,"TOWNNAME":"六甲區","LI":"二甲里","LIN":"5鄰","STREET":"建工街","SECT":" ","MAREA":" ","LANE":"２１６巷","ALLEY":" ","HOUSE_NO":"１０號","E_COORD97":183061.32999999999,"N_COORD97":2569512.7200000002,"ADDRESS":"建工街２１６巷１０號","OBJECTID":445766},"geometry":{"x":183061.33000000101,"y":2569512.7200000025}},{"attributes":{"ID":445792,"DIS_CODE":0,"TOWNNAME":"六甲區","LI":"二甲里","LIN":"5鄰","STREET":"建工街","SECT":" ","MAREA":" ","LANE":"２１６巷","ALLEY":" ","HOUSE_NO":"１１號","E_COORD97":183052.72,"N_COORD97":2569537.0899999999,"ADDRESS":"建工街２１６巷１１號","OBJECTID":445767},"geometry":{"x":183052.71999999974,"y":2569537.0900000017}},{"attributes":{"ID":445793,"DIS_CODE":0,"TOWNNAME":"六甲區","LI":"二甲里","LIN":"5鄰","STREET":"建工街","SECT":" ","MAREA":" ","LANE":"２１６巷","ALLEY":" ","HOUSE_NO":"１２號","E_COORD97":183058.66,"N_COORD97":2569506.1800000002,"ADDRESS":"建工街２１６巷１２號","OBJECTID":445768},"geometry":{"x":183058.66000000015,"y":2569506.1800000016}},{"attributes":{"ID":445794,"DIS_CODE":0,"TOWNNAME":"六甲區","LI":"二甲里","LIN":"5鄰","STREET":"建工街","SECT":" ","MAREA":" ","LANE":"２１６巷","ALLEY":" ","HOUSE_NO":"１３號","E_COORD97":183050.56,"N_COORD97":2569530.5600000001,"ADDRESS":"建工街２１６巷１３號","OBJECTID":445769},"geometry":{"x":183050.56000000145,"y":2569530.5600000024}},{"attributes":{"ID":445795,"DIS_CODE":0,"TOWNNAME":"六甲區","LI":"二甲里","LIN":"5鄰","STREET":"建工街","SECT":" ","MAREA":" ","LANE":"２１６巷","ALLEY":" ","HOUSE_NO":"１４號","E_COORD97":183056.39000000001,"N_COORD97":2569499.6499999999,"ADDRESS":"建工街２１６巷１４號","OBJECTID":445770},"geometry":{"x":183056.38999999966,"y":2569499.6500000022}},{"attributes":{"ID":445796,"DIS_CODE":0,"TOWNNAME":"六甲區","LI":"二甲里","LIN":"5鄰","STREET":"建工街","SECT":" ","MAREA":" ","LANE":"２１６巷","ALLEY":" ","HOUSE_NO":"１５號","E_COORD97":183048.42000000001,"N_COORD97":2569524.1400000001,"ADDRESS":"建工街２１６巷１５號","OBJECTID":445771},"geometry":{"x":183048.42000000179,"y":2569524.1400000025}},{"attributes":{"ID":445797,"DIS_CODE":0,"TOWNNAME":"六甲區","LI":"二甲里","LIN":"5鄰","STREET":"建工街","SECT":" ","MAREA":" ","LANE":"２１６巷","ALLEY":" ","HOUSE_NO":"１６號","E_COORD97":183054.35999999999,"N_COORD97":2569493.6299999999,"ADDRESS":"建工街２１６巷１６號","OBJECTID":445772},"geometry":{"x":183054.3600000022,"y":2569493.629999999}},{"attributes":{"ID":445798,"DIS_CODE":0,"TOWNNAME":"六甲區","LI":"二甲里","LIN":"5鄰","STREET":"建工街","SECT":" ","MAREA":" ","LANE":"２１６巷","ALLEY":" ","HOUSE_NO":"１７號","E_COORD97":183045.85000000001,"N_COORD97":2569517.4399999999,"ADDRESS":"建工街２１６巷１７號","OBJECTID":445773},"geometry":{"x":183045.85000000056,"y":2569517.4400000013}},{"attributes":{"ID":445799,"DIS_CODE":0,"TOWNNAME":"六甲區","LI":"二甲里","LIN":"5鄰","STREET":"建工街","SECT":" ","MAREA":" ","LANE":"２１６巷","ALLEY":" ","HOUSE_NO":"１８號","E_COORD97":183051.95999999999,"N_COORD97":2569487.0299999998,"ADDRESS":"建工街２１６巷１８號","OBJECTID":445774},"geometry":{"x":183051.96000000089,"y":2569487.0299999993}},{"attributes":{"ID":445800,"DIS_CODE":0,"TOWNNAME":"六甲區","LI":"二甲里","LIN":"5鄰","STREET":"建工街","SECT":" ","MAREA":" ","LANE":"２１６巷","ALLEY":" ","HOUSE_NO":"１９號","E_COORD97":183043.60000000001,"N_COORD97":2569511.0299999998,"ADDRESS":"建工街２１６巷１９號","OBJECTID":445775},"geometry":{"x":183043.60000000056,"y":2569511.0299999993}},{"attributes":{"ID":445801,"DIS_CODE":0,"TOWNNAME":"六甲區","LI":"二甲里","LIN":"5鄰","STREET":"建工街","SECT":" ","MAREA":" ","LANE":"２１６巷","ALLEY":" ","HOUSE_NO":"１號","E_COORD97":183056.44,"N_COORD97":2569555.8700000001,"ADDRESS":"建工街２１６巷１號","OBJECTID":445776},"geometry":{"x":183056.44000000041,"y":2569555.8700000048}},{"attributes":{"ID":445802,"DIS_CODE":0,"TOWNNAME":"南區","LI":"白雪里","LIN":"5鄰","STREET":"利南街","SECT":" ","MAREA":" ","LANE":"４７巷","ALLEY":" ","HOUSE_NO":"５號","E_COORD97":166831.87,"N_COORD97":2541135.7999999998,"ADDRESS":"利南街４７巷５號","OBJECTID":445777},"geometry":{"x":166831.87000000104,"y":2541135.8000000026}},{"attributes":{"ID":445803,"DIS_CODE":0,"TOWNNAME":"六甲區","LI":"二甲里","LIN":"5鄰","STREET":"建工街","SECT":" ","MAREA":" ","LANE":"２１６巷","ALLEY":" ","HOUSE_NO":"２１號","E_COORD97":183041.41,"N_COORD97":2569505.27,"ADDRESS":"建工街２１６巷２１號","OBJECTID":445778},"geometry":{"x":183041.41000000015,"y":2569505.2700000014}},{"attributes":{"ID":445804,"DIS_CODE":0,"TOWNNAME":"六甲區","LI":"二甲里","LIN":"5鄰","STREET":"建工街","SECT":" ","MAREA":" ","LANE":"２１６巷","ALLEY":" ","HOUSE_NO":"２３號","E_COORD97":183038.79999999999,"N_COORD97":2569497.3500000001,"ADDRESS":"建工街２１６巷２３號","OBJECTID":445779},"geometry":{"x":183038.79999999888,"y":2569497.3500000015}},{"attributes":{"ID":445805,"DIS_CODE":0,"TOWNNAME":"六甲區","LI":"二甲里","LIN":"5鄰","STREET":"建工街","SECT":" ","MAREA":" ","LANE":"２１６巷","ALLEY":" ","HOUSE_NO":"２５號","E_COORD97":183035.92999999999,"N_COORD97":2569489.6499999999,"ADDRESS":"建工街２１６巷２５號","OBJECTID":445780},"geometry":{"x":183035.9299999997,"y":2569489.6500000022}},{"attributes":{"ID":445806,"DIS_CODE":0,"TOWNNAME":"六甲區","LI":"二甲里","LIN":"5鄰","STREET":"建工街","SECT":" ","MAREA":" ","LANE":"２１６巷","ALLEY":" ","HOUSE_NO":"２號","E_COORD97":183070.06,"N_COORD97":2569538.3300000001,"ADDRESS":"建工街２１６巷２號","OBJECTID":445781},"geometry":{"x":183070.05999999959,"y":2569538.3300000038}},{"attributes":{"ID":445807,"DIS_CODE":0,"TOWNNAME":"六甲區","LI":"二甲里","LIN":"5鄰","STREET":"建工街","SECT":" ","MAREA":" ","LANE":"２１６巷","ALLEY":" ","HOUSE_NO":"３號","E_COORD97":183067.62,"N_COORD97":2569551.79,"ADDRESS":"建工街２１６巷３號","OBJECTID":445782},"geometry":{"x":183067.62000000197,"y":2569551.790000001}},{"attributes":{"ID":445808,"DIS_CODE":0,"TOWNNAME":"六甲區","LI":"二甲里","LIN":"5鄰","STREET":"建工街","SECT":" ","MAREA":" ","LANE":"２１６巷","ALLEY":" ","HOUSE_NO":"４號","E_COORD97":183068.42999999999,"N_COORD97":2569531.7200000002,"ADDRESS":"建工街２１６巷４號","OBJECTID":445783},"geometry":{"x":183068.43000000156,"y":2569531.7200000007}},{"attributes":{"ID":445809,"DIS_CODE":0,"TOWNNAME":"六甲區","LI":"二甲里","LIN":"5鄰","STREET":"建工街","SECT":" ","MAREA":" ","LANE":"２１６巷","ALLEY":" ","HOUSE_NO":"５號","E_COORD97":183076.17000000001,"N_COORD97":2569553.0099999998,"ADDRESS":"建工街２１６巷５號","OBJECTID":445784},"geometry":{"x":183076.17000000086,"y":2569553.0099999998}},{"attributes":{"ID":445810,"DIS_CODE":0,"TOWNNAME":"六甲區","LI":"二甲里","LIN":"5鄰","STREET":"建工街","SECT":" ","MAREA":" ","LANE":"２１６巷","ALLEY":" ","HOUSE_NO":"６號","E_COORD97":183066.01999999999,"N_COORD97":2569525.3700000001,"ADDRESS":"建工街２１６巷６號","OBJECTID":445785},"geometry":{"x":183066.02000000142,"y":2569525.3700000048}},{"attributes":{"ID":445811,"DIS_CODE":0,"TOWNNAME":"六甲區","LI":"二甲里","LIN":"5鄰","STREET":"建工街","SECT":" ","MAREA":" ","LANE":"２１６巷","ALLEY":" ","HOUSE_NO":"７號","E_COORD97":183074.26999999999,"N_COORD97":2569546.9900000002,"ADDRESS":"建工街２１６巷７號","OBJECTID":445786},"geometry":{"x":183074.26999999955,"y":2569546.9900000002}},{"attributes":{"ID":445812,"DIS_CODE":0,"TOWNNAME":"六甲區","LI":"二甲里","LIN":"5鄰","STREET":"建工街","SECT":" ","MAREA":" ","LANE":"２１６巷","ALLEY":" ","HOUSE_NO":"８號","E_COORD97":183063.73999999999,"N_COORD97":2569519,"ADDRESS":"建工街２１６巷８號","OBJECTID":445787},"geometry":{"x":183063.74000000115,"y":2569519}},{"attributes":{"ID":445813,"DIS_CODE":0,"TOWNNAME":"六甲區","LI":"二甲里","LIN":"5鄰","STREET":"建工街","SECT":" ","MAREA":" ","LANE":"２１６巷","ALLEY":" ","HOUSE_NO":"９號","E_COORD97":183054.69,"N_COORD97":2569543.8399999999,"ADDRESS":"建工街２１６巷９號","OBJECTID":445788},"geometry":{"x":183054.69000000041,"y":2569543.8399999999}},{"attributes":{"ID":445814,"DIS_CODE":0,"TOWNNAME":"六甲區","LI":"二甲里","LIN":"5鄰","STREET":"進化街","SECT":" ","MAREA":" ","LANE":"８１巷","ALLEY":" ","HOUSE_NO":"３９號","E_COORD97":182836.54999999999,"N_COORD97":2569491.8999999999,"ADDRESS":"進化街８１巷３９號","OBJECTID":445789},"geometry":{"x":182836.54999999981,"y":2569491.9000000022}},{"attributes":{"ID":445815,"DIS_CODE":0,"TOWNNAME":"六甲區","LI":"二甲里","LIN":"5鄰","STREET":"進化街","SECT":" ","MAREA":" ","LANE":"８１巷","ALLEY":" ","HOUSE_NO":"４１號","E_COORD97":182816.44,"N_COORD97":2569486.25,"ADDRESS":"進化街８１巷４１號","OBJECTID":445790},"geometry":{"x":182816.44000000227,"y":2569486.25}},{"attributes":{"ID":445816,"DIS_CODE":0,"TOWNNAME":"新營區","LI":"民生里","LIN":"5鄰","STREET":"中華路","SECT":" ","MAREA":" ","LANE":"８０巷","ALLEY":" ","HOUSE_NO":"５號","E_COORD97":179396.57000000001,"N_COORD97":2578233.3700000001,"ADDRESS":"中華路８０巷５號","OBJECTID":445791},"geometry":{"x":179396.57000000123,"y":2578233.3700000029}},{"attributes":{"ID":445817,"DIS_CODE":0,"TOWNNAME":"新營區","LI":"興業里","LIN":"5鄰","STREET":"公誠街","SECT":" ","MAREA":" ","LANE":"１１巷","ALLEY":" ","HOUSE_NO":"１０之３號","E_COORD97":180333.92999999999,"N_COORD97":2577959.8900000001,"ADDRESS":"公誠街１１巷１０之３號","OBJECTID":445792},"geometry":{"x":180333.92999999877,"y":2577959.8900000043}},{"attributes":{"ID":445818,"DIS_CODE":0,"TOWNNAME":"新營區","LI":"新東里","LIN":"5鄰","STREET":"東大街","SECT":" ","MAREA":" ","LANE":"５２巷","ALLEY":" ","HOUSE_NO":"１７號","E_COORD97":181065.26999999999,"N_COORD97":2579151.3500000001,"ADDRESS":"東大街５２巷１７號","OBJECTID":445793},"geometry":{"x":181065.26999999955,"y":2579151.3499999996}},{"attributes":{"ID":445819,"DIS_CODE":0,"TOWNNAME":"新營區","LI":"新東里","LIN":"5鄰","STREET":"東大街","SECT":" ","MAREA":" ","LANE":"５２巷","ALLEY":" ","HOUSE_NO":"１號","E_COORD97":181030.26000000001,"N_COORD97":2579149.29,"ADDRESS":"東大街５２巷１號","OBJECTID":445794},"geometry":{"x":181030.26000000164,"y":2579149.2900000028}},{"attributes":{"ID":445820,"DIS_CODE":0,"TOWNNAME":"新營區","LI":"新東里","LIN":"5鄰","STREET":"東大街","SECT":" ","MAREA":" ","LANE":"５２巷","ALLEY":" ","HOUSE_NO":"２９號","E_COORD97":181089.89999999999,"N_COORD97":2579152.3399999999,"ADDRESS":"東大街５２巷２９號","OBJECTID":445795},"geometry":{"x":181089.9000000013,"y":2579152.3399999999}},{"attributes":{"ID":445821,"DIS_CODE":0,"TOWNNAME":"新營區","LI":"新東里","LIN":"5鄰","STREET":"東大街","SECT":" ","MAREA":" ","LANE":"５２巷","ALLEY":" ","HOUSE_NO":"１９號","E_COORD97":181069.35999999999,"N_COORD97":2579151.3300000001,"ADDRESS":"東大街５２巷１９號","OBJECTID":445796},"geometry":{"x":181069.3600000022,"y":2579151.3300000019}},{"attributes":{"ID":445822,"DIS_CODE":0,"TOWNNAME":"新營區","LI":"新東里","LIN":"5鄰","STREET":"東大街","SECT":" ","MAREA":" ","LANE":"５２巷","ALLEY":" ","HOUSE_NO":"１５號","E_COORD97":181060.16,"N_COORD97":2579151.3700000001,"ADDRESS":"東大街５２巷１５號","OBJECTID":445797},"geometry":{"x":181060.16000000201,"y":2579151.3700000029}},{"attributes":{"ID":445823,"DIS_CODE":0,"TOWNNAME":"新營區","LI":"好平里","LIN":"5鄰","STREET":"南昌街","SECT":" ","MAREA":" ","LANE":"４０巷","ALLEY":" ","HOUSE_NO":"７號","E_COORD97":179508.43878500001,"N_COORD97":2577687.6587700001,"ADDRESS":"南昌街４０巷７號","OBJECTID":445798},"geometry":{"x":179508.4387850007,"y":2577687.6587659996}},{"attributes":{"ID":445824,"DIS_CODE":0,"TOWNNAME":"新營區","LI":"民生里","LIN":"5鄰","STREET":"中華路","SECT":" ","MAREA":" ","LANE":"７６巷","ALLEY":" ","HOUSE_NO":"１３號","E_COORD97":179429.79999999999,"N_COORD97":2578294.1200000001,"ADDRESS":"中華路７６巷１３號","OBJECTID":445799},"geometry":{"x":179429.80000000168,"y":2578294.120000001}},{"attributes":{"ID":445825,"DIS_CODE":0,"TOWNNAME":"新營區","LI":"新東里","LIN":"5鄰","STREET":"東大街","SECT":" ","MAREA":" ","LANE":"５２巷","ALLEY":" ","HOUSE_NO":"３號","E_COORD97":181034.45000000001,"N_COORD97":2579150.3799999999,"ADDRESS":"東大街５２巷３號","OBJECTID":445800},"geometry":{"x":181034.44999999925,"y":2579150.379999999}}]}