{"displayFieldName":"TOWNNAME","fieldAliases":{"ID":"ID","DIS_CODE":"DIS_CODE","TOWNNAME":"TOWNNAME","LI":"LI","LIN":"LIN","STREET":"STREET","SECT":"SECT","MAREA":"MAREA","LANE":"LANE","ALLEY":"ALLEY","HOUSE_NO":"HOUSE_NO","E_COORD97":"E_COORD97","N_COORD97":"N_COORD97","ADDRESS":"ADDRESS","OBJECTID":"OBJECTID"},"geometryType":"esriGeometryPoint","spatialReference":{"wkid":102443,"latestWkid":3826},"fields":[{"name":"ID","type":"esriFieldTypeDouble","alias":"ID"},{"name":"DIS_CODE","type":"esriFieldTypeInteger","alias":"DIS_CODE"},{"name":"TOWNNAME","type":"esriFieldTypeString","alias":"TOWNNAME","length":8},{"name":"LI","type":"esriFieldTypeString","alias":"LI","length":8},{"name":"LIN","type":"esriFieldTypeString","alias":"LIN","length":12},{"name":"STREET","type":"esriFieldTypeString","alias":"STREET","length":20},{"name":"SECT","type":"esriFieldTypeString","alias":"SECT","length":8},{"name":"MAREA","type":"esriFieldTypeString","alias":"MAREA","length":12},{"name":"LANE","type":"esriFieldTypeString","alias":"LANE","length":10},{"name":"ALLEY","type":"esriFieldTypeString","alias":"ALLEY","length":10},{"name":"HOUSE_NO","type":"esriFieldTypeString","alias":"HOUSE_NO","length":20},{"name":"E_COORD97","type":"esriFieldTypeDouble","alias":"E_COORD97"},{"name":"N_COORD97","type":"esriFieldTypeDouble","alias":"N_COORD97"},{"name":"ADDRESS","type":"esriFieldTypeString","alias":"ADDRESS","length":50},{"name":"OBJECTID","type":"esriFieldTypeOID","alias":"OBJECTID"}],"features":[{"attributes":{"ID":473026,"DIS_CODE":0,"TOWNNAME":"北區","LI":"文成里","LIN":"18鄰","STREET":"文賢路","SECT":" ","MAREA":" ","LANE":" ","ALLEY":" ","HOUSE_NO":"２１０號","E_COORD97":167366.39999999999,"N_COORD97":2544919.3799999999,"ADDRESS":"文賢路２１０號","OBJECTID":473001},"geometry":{"x":167366.40000000037,"y":2544919.3800000008}},{"attributes":{"ID":473027,"DIS_CODE":0,"TOWNNAME":"北區","LI":"文成里","LIN":"18鄰","STREET":"文賢路","SECT":" ","MAREA":" ","LANE":" ","ALLEY":" ","HOUSE_NO":"２１２號","E_COORD97":167365.17000000001,"N_COORD97":2544924.04,"ADDRESS":"文賢路２１２號","OBJECTID":473002},"geometry":{"x":167365.17000000086,"y":2544924.0399999991}},{"attributes":{"ID":473028,"DIS_CODE":0,"TOWNNAME":"北區","LI":"文成里","LIN":"18鄰","STREET":"文賢路","SECT":" ","MAREA":" ","LANE":" ","ALLEY":" ","HOUSE_NO":"２１４號","E_COORD97":167362.72,"N_COORD97":2544927.9700000002,"ADDRESS":"文賢路２１４號","OBJECTID":473003},"geometry":{"x":167362.72000000067,"y":2544927.9700000025}},{"attributes":{"ID":473029,"DIS_CODE":0,"TOWNNAME":"北區","LI":"文成里","LIN":"18鄰","STREET":"文賢路","SECT":" ","MAREA":" ","LANE":" ","ALLEY":" ","HOUSE_NO":"２１６號","E_COORD97":167362.72,"N_COORD97":2544933.8599999999,"ADDRESS":"文賢路２１６號","OBJECTID":473004},"geometry":{"x":167362.72000000067,"y":2544933.8600000013}},{"attributes":{"ID":473030,"DIS_CODE":0,"TOWNNAME":"北區","LI":"成德里","LIN":"18鄰","STREET":"文成三路","SECT":" ","MAREA":" ","LANE":" ","ALLEY":" ","HOUSE_NO":"１１８號","E_COORD97":168815.32000000001,"N_COORD97":2546351.0099999998,"ADDRESS":"文成三路１１８號","OBJECTID":473005},"geometry":{"x":168815.32000000123,"y":2546351.0100000016}},{"attributes":{"ID":473031,"DIS_CODE":0,"TOWNNAME":"北區","LI":"成德里","LIN":"18鄰","STREET":"文成三路","SECT":" ","MAREA":" ","LANE":" ","ALLEY":" ","HOUSE_NO":"９２號","E_COORD97":168844.14000000001,"N_COORD97":2546336.6499999999,"ADDRESS":"文成三路９２號","OBJECTID":473006},"geometry":{"x":168844.13999999966,"y":2546336.6500000022}},{"attributes":{"ID":473032,"DIS_CODE":0,"TOWNNAME":"北區","LI":"成德里","LIN":"18鄰","STREET":"文成三路","SECT":" ","MAREA":" ","LANE":" ","ALLEY":" ","HOUSE_NO":"６０之１號","E_COORD97":168883.76999999999,"N_COORD97":2546311.1299999999,"ADDRESS":"文成三路６０之１號","OBJECTID":473007},"geometry":{"x":168883.76999999955,"y":2546311.1300000008}},{"attributes":{"ID":473033,"DIS_CODE":0,"TOWNNAME":"北區","LI":"成德里","LIN":"18鄰","STREET":"北安路","SECT":"一段","MAREA":" ","LANE":" ","ALLEY":" ","HOUSE_NO":"１４５號之１","E_COORD97":168903.53,"N_COORD97":2546418.0600000001,"ADDRESS":"北安路一段１４５號之１","OBJECTID":473008},"geometry":{"x":168903.53000000119,"y":2546418.0600000042}},{"attributes":{"ID":473034,"DIS_CODE":0,"TOWNNAME":"北區","LI":"成德里","LIN":"18鄰","STREET":"北安路","SECT":"一段","MAREA":" ","LANE":" ","ALLEY":" ","HOUSE_NO":"１７７號","E_COORD97":168876.85999999999,"N_COORD97":2546441.2400000002,"ADDRESS":"北安路一段１７７號","OBJECTID":473009},"geometry":{"x":168876.86000000034,"y":2546441.2400000021}},{"attributes":{"ID":473035,"DIS_CODE":0,"TOWNNAME":"北區","LI":"成德里","LIN":"18鄰","STREET":"北安路","SECT":"一段","MAREA":" ","LANE":" ","ALLEY":" ","HOUSE_NO":"１８５號","E_COORD97":168857.17999999999,"N_COORD97":2546458.1699999999,"ADDRESS":"北安路一段１８５號","OBJECTID":473010},"geometry":{"x":168857.1799999997,"y":2546458.1700000018}},{"attributes":{"ID":473036,"DIS_CODE":0,"TOWNNAME":"北區","LI":"成德里","LIN":"18鄰","STREET":"北安路","SECT":"一段","MAREA":" ","LANE":" ","ALLEY":" ","HOUSE_NO":"１８９號","E_COORD97":168815.69,"N_COORD97":2546491.6099999999,"ADDRESS":"北安路一段１８９號","OBJECTID":473011},"geometry":{"x":168815.69000000041,"y":2546491.6100000013}},{"attributes":{"ID":473037,"DIS_CODE":0,"TOWNNAME":"永康區","LI":"大橋里","LIN":"18鄰","STREET":"大橋二街","SECT":" ","MAREA":" ","LANE":" ","ALLEY":" ","HOUSE_NO":"１８６號六樓之１","E_COORD97":171107.63,"N_COORD97":2546778.8999999999,"ADDRESS":"大橋二街１８６號六樓之１","OBJECTID":473012},"geometry":{"x":171107.63000000175,"y":2546778.9000000022}},{"attributes":{"ID":473038,"DIS_CODE":0,"TOWNNAME":"東區","LI":"和平里","LIN":"18鄰","STREET":"仁和路","SECT":" ","MAREA":" ","LANE":" ","ALLEY":" ","HOUSE_NO":"７９號七樓","E_COORD97":171251.70000000001,"N_COORD97":2541542.7599999998,"ADDRESS":"仁和路７９號七樓","OBJECTID":473013},"geometry":{"x":171251.70000000205,"y":2541542.7599999998}},{"attributes":{"ID":473039,"DIS_CODE":0,"TOWNNAME":"永康區","LI":"大橋里","LIN":"18鄰","STREET":"大橋二街","SECT":" ","MAREA":" ","LANE":" ","ALLEY":" ","HOUSE_NO":"１６６號五樓","E_COORD97":171072.94,"N_COORD97":2546759.27,"ADDRESS":"大橋二街１６６號五樓","OBJECTID":473014},"geometry":{"x":171072.94000000134,"y":2546759.2700000014}},{"attributes":{"ID":473040,"DIS_CODE":0,"TOWNNAME":"永康區","LI":"大橋里","LIN":"18鄰","STREET":"大橋二街","SECT":" ","MAREA":" ","LANE":" ","ALLEY":" ","HOUSE_NO":"１８６號五樓之１","E_COORD97":171107.63,"N_COORD97":2546778.8999999999,"ADDRESS":"大橋二街１８６號五樓之１","OBJECTID":473015},"geometry":{"x":171107.63000000175,"y":2546778.9000000022}},{"attributes":{"ID":473041,"DIS_CODE":0,"TOWNNAME":"永康區","LI":"大橋里","LIN":"18鄰","STREET":"大橋二街","SECT":" ","MAREA":" ","LANE":" ","ALLEY":" ","HOUSE_NO":"１８６號二樓之２","E_COORD97":171107.76999999999,"N_COORD97":2546778.8999999999,"ADDRESS":"大橋二街１８６號二樓之２","OBJECTID":473016},"geometry":{"x":171107.76999999955,"y":2546778.9000000022}},{"attributes":{"ID":473042,"DIS_CODE":0,"TOWNNAME":"永康區","LI":"大橋里","LIN":"18鄰","STREET":"大橋二街","SECT":" ","MAREA":" ","LANE":" ","ALLEY":" ","HOUSE_NO":"１９２號三樓之２","E_COORD97":171134.85999999999,"N_COORD97":2546764.96,"ADDRESS":"大橋二街１９２號三樓之２","OBJECTID":473017},"geometry":{"x":171134.86000000034,"y":2546764.9600000046}},{"attributes":{"ID":473043,"DIS_CODE":0,"TOWNNAME":"永康區","LI":"大橋里","LIN":"18鄰","STREET":"大橋二街","SECT":" ","MAREA":" ","LANE":" ","ALLEY":" ","HOUSE_NO":"１８６號九樓之３","E_COORD97":171107.73000000001,"N_COORD97":2546778.8999999999,"ADDRESS":"大橋二街１８６號九樓之３","OBJECTID":473018},"geometry":{"x":171107.73000000231,"y":2546778.9000000022}},{"attributes":{"ID":473044,"DIS_CODE":0,"TOWNNAME":"永康區","LI":"大橋里","LIN":"18鄰","STREET":"大橋二街","SECT":" ","MAREA":" ","LANE":" ","ALLEY":" ","HOUSE_NO":"１６８號五樓","E_COORD97":171074.64999999999,"N_COORD97":2546755.2000000002,"ADDRESS":"大橋二街１６８號五樓","OBJECTID":473019},"geometry":{"x":171074.6500000013,"y":2546755.2000000011}},{"attributes":{"ID":473045,"DIS_CODE":0,"TOWNNAME":"永康區","LI":"大橋里","LIN":"18鄰","STREET":"大橋二街","SECT":" ","MAREA":" ","LANE":" ","ALLEY":" ","HOUSE_NO":"１７０號四樓","E_COORD97":171078.95000000001,"N_COORD97":2546760.1499999999,"ADDRESS":"大橋二街１７０號四樓","OBJECTID":473020},"geometry":{"x":171078.95000000112,"y":2546760.1500000022}},{"attributes":{"ID":473046,"DIS_CODE":0,"TOWNNAME":"永康區","LI":"大橋里","LIN":"18鄰","STREET":"大橋二街","SECT":" ","MAREA":" ","LANE":" ","ALLEY":" ","HOUSE_NO":"１８６號十樓之２","E_COORD97":171107.76999999999,"N_COORD97":2546778.8999999999,"ADDRESS":"大橋二街１８６號十樓之２","OBJECTID":473021},"geometry":{"x":171107.76999999955,"y":2546778.9000000022}},{"attributes":{"ID":473047,"DIS_CODE":0,"TOWNNAME":"永康區","LI":"大橋里","LIN":"18鄰","STREET":"大橋二街","SECT":" ","MAREA":" ","LANE":" ","ALLEY":" ","HOUSE_NO":"１８６號七樓之１","E_COORD97":171107.63,"N_COORD97":2546778.8999999999,"ADDRESS":"大橋二街１８６號七樓之１","OBJECTID":473022},"geometry":{"x":171107.63000000175,"y":2546778.9000000022}},{"attributes":{"ID":473048,"DIS_CODE":0,"TOWNNAME":"永康區","LI":"大橋里","LIN":"18鄰","STREET":"大橋二街","SECT":" ","MAREA":" ","LANE":" ","ALLEY":" ","HOUSE_NO":"１８６號七樓之２","E_COORD97":171107.76999999999,"N_COORD97":2546778.8999999999,"ADDRESS":"大橋二街１８６號七樓之２","OBJECTID":473023},"geometry":{"x":171107.76999999955,"y":2546778.9000000022}},{"attributes":{"ID":473049,"DIS_CODE":0,"TOWNNAME":"永康區","LI":"大橋里","LIN":"18鄰","STREET":"大橋二街","SECT":" ","MAREA":" ","LANE":" ","ALLEY":" ","HOUSE_NO":"１７６號二樓","E_COORD97":171089.26000000001,"N_COORD97":2546760.21,"ADDRESS":"大橋二街１７６號二樓","OBJECTID":473024},"geometry":{"x":171089.25999999978,"y":2546760.2100000028}},{"attributes":{"ID":473050,"DIS_CODE":0,"TOWNNAME":"永康區","LI":"大橋里","LIN":"18鄰","STREET":"大橋二街","SECT":" ","MAREA":" ","LANE":" ","ALLEY":" ","HOUSE_NO":"１９２號四樓之１","E_COORD97":171134.72,"N_COORD97":2546764.96,"ADDRESS":"大橋二街１９２號四樓之１","OBJECTID":473025},"geometry":{"x":171134.72000000067,"y":2546764.9600000046}},{"attributes":{"ID":473051,"DIS_CODE":0,"TOWNNAME":"永康區","LI":"大橋里","LIN":"18鄰","STREET":"大橋二街","SECT":" ","MAREA":" ","LANE":" ","ALLEY":" ","HOUSE_NO":"１９２號九樓之１","E_COORD97":171134.72,"N_COORD97":2546764.96,"ADDRESS":"大橋二街１９２號九樓之１","OBJECTID":473026},"geometry":{"x":171134.72000000067,"y":2546764.9600000046}},{"attributes":{"ID":473052,"DIS_CODE":0,"TOWNNAME":"永康區","LI":"大橋里","LIN":"18鄰","STREET":"大橋二街","SECT":" ","MAREA":" ","LANE":" ","ALLEY":" ","HOUSE_NO":"１８６號三樓之１","E_COORD97":171107.63,"N_COORD97":2546778.8999999999,"ADDRESS":"大橋二街１８６號三樓之１","OBJECTID":473027},"geometry":{"x":171107.63000000175,"y":2546778.9000000022}},{"attributes":{"ID":473053,"DIS_CODE":0,"TOWNNAME":"永康區","LI":"大橋里","LIN":"18鄰","STREET":"大橋二街","SECT":" ","MAREA":" ","LANE":" ","ALLEY":" ","HOUSE_NO":"１９２號四樓之２","E_COORD97":171134.85999999999,"N_COORD97":2546764.96,"ADDRESS":"大橋二街１９２號四樓之２","OBJECTID":473028},"geometry":{"x":171134.86000000034,"y":2546764.9600000046}},{"attributes":{"ID":473054,"DIS_CODE":0,"TOWNNAME":"永康區","LI":"大橋里","LIN":"18鄰","STREET":"大橋二街","SECT":" ","MAREA":" ","LANE":" ","ALLEY":" ","HOUSE_NO":"１７４號七樓","E_COORD97":171094.39000000001,"N_COORD97":2546743.3700000001,"ADDRESS":"大橋二街１７４號七樓","OBJECTID":473029},"geometry":{"x":171094.3900000006,"y":2546743.3700000029}},{"attributes":{"ID":473055,"DIS_CODE":0,"TOWNNAME":"永康區","LI":"大橋里","LIN":"18鄰","STREET":"大橋二街","SECT":" ","MAREA":" ","LANE":" ","ALLEY":" ","HOUSE_NO":"１９２號十一樓之２","E_COORD97":171136.10999999999,"N_COORD97":2546764.96,"ADDRESS":"大橋二街１９２號十一樓之２","OBJECTID":473030},"geometry":{"x":171136.11000000127,"y":2546764.9600000046}},{"attributes":{"ID":473056,"DIS_CODE":0,"TOWNNAME":"永康區","LI":"大橋里","LIN":"18鄰","STREET":"大橋二街","SECT":" ","MAREA":" ","LANE":" ","ALLEY":" ","HOUSE_NO":"１８６號三樓之４","E_COORD97":171107.66,"N_COORD97":2546778.8999999999,"ADDRESS":"大橋二街１８６號三樓之４","OBJECTID":473031},"geometry":{"x":171107.65999999922,"y":2546778.9000000022}},{"attributes":{"ID":473057,"DIS_CODE":0,"TOWNNAME":"永康區","LI":"大橋里","LIN":"18鄰","STREET":"大橋二街","SECT":" ","MAREA":" ","LANE":" ","ALLEY":" ","HOUSE_NO":"１８６號二樓之４","E_COORD97":171107.66,"N_COORD97":2546778.8999999999,"ADDRESS":"大橋二街１８６號二樓之４","OBJECTID":473032},"geometry":{"x":171107.65999999922,"y":2546778.9000000022}},{"attributes":{"ID":473058,"DIS_CODE":0,"TOWNNAME":"永康區","LI":"大橋里","LIN":"18鄰","STREET":"大橋二街","SECT":" ","MAREA":" ","LANE":" ","ALLEY":" ","HOUSE_NO":"１７２號七樓","E_COORD97":171084.89000000001,"N_COORD97":2546737.79,"ADDRESS":"大橋二街１７２號七樓","OBJECTID":473033},"geometry":{"x":171084.88999999966,"y":2546737.790000001}},{"attributes":{"ID":473059,"DIS_CODE":0,"TOWNNAME":"永康區","LI":"大橋里","LIN":"18鄰","STREET":"大橋二街","SECT":" ","MAREA":" ","LANE":" ","ALLEY":" ","HOUSE_NO":"１７２號二樓","E_COORD97":171084.89000000001,"N_COORD97":2546737.79,"ADDRESS":"大橋二街１７２號二樓","OBJECTID":473034},"geometry":{"x":171084.88999999966,"y":2546737.790000001}},{"attributes":{"ID":473060,"DIS_CODE":0,"TOWNNAME":"永康區","LI":"大橋里","LIN":"18鄰","STREET":"大橋二街","SECT":" ","MAREA":" ","LANE":" ","ALLEY":" ","HOUSE_NO":"１９２號七樓之４","E_COORD97":171134.75,"N_COORD97":2546764.96,"ADDRESS":"大橋二街１９２號七樓之４","OBJECTID":473035},"geometry":{"x":171134.75000000093,"y":2546764.9600000046}},{"attributes":{"ID":473061,"DIS_CODE":0,"TOWNNAME":"永康區","LI":"大橋里","LIN":"18鄰","STREET":"大橋二街","SECT":" ","MAREA":" ","LANE":" ","ALLEY":" ","HOUSE_NO":"１９２號六樓之４","E_COORD97":171134.75,"N_COORD97":2546764.96,"ADDRESS":"大橋二街１９２號六樓之４","OBJECTID":473036},"geometry":{"x":171134.75000000093,"y":2546764.9600000046}},{"attributes":{"ID":473062,"DIS_CODE":0,"TOWNNAME":"永康區","LI":"大橋里","LIN":"18鄰","STREET":"大橋二街","SECT":" ","MAREA":" ","LANE":" ","ALLEY":" ","HOUSE_NO":"１９２號二樓之４","E_COORD97":171134.75,"N_COORD97":2546764.96,"ADDRESS":"大橋二街１９２號二樓之４","OBJECTID":473037},"geometry":{"x":171134.75000000093,"y":2546764.9600000046}},{"attributes":{"ID":473063,"DIS_CODE":0,"TOWNNAME":"永康區","LI":"大橋里","LIN":"18鄰","STREET":"大橋二街","SECT":" ","MAREA":" ","LANE":" ","ALLEY":" ","HOUSE_NO":"１８６號七樓之４","E_COORD97":171107.66,"N_COORD97":2546778.8999999999,"ADDRESS":"大橋二街１８６號七樓之４","OBJECTID":473038},"geometry":{"x":171107.65999999922,"y":2546778.9000000022}},{"attributes":{"ID":473064,"DIS_CODE":0,"TOWNNAME":"永康區","LI":"大橋里","LIN":"18鄰","STREET":"大橋二街","SECT":" ","MAREA":" ","LANE":" ","ALLEY":" ","HOUSE_NO":"１９２號七樓之２","E_COORD97":171134.85999999999,"N_COORD97":2546764.96,"ADDRESS":"大橋二街１９２號七樓之２","OBJECTID":473039},"geometry":{"x":171134.86000000034,"y":2546764.9600000046}},{"attributes":{"ID":473065,"DIS_CODE":0,"TOWNNAME":"永康區","LI":"大橋里","LIN":"18鄰","STREET":"大橋二街","SECT":" ","MAREA":" ","LANE":" ","ALLEY":" ","HOUSE_NO":"１９２號四樓之３","E_COORD97":171134.82000000001,"N_COORD97":2546764.96,"ADDRESS":"大橋二街１９２號四樓之３","OBJECTID":473040},"geometry":{"x":171134.8200000003,"y":2546764.9600000046}},{"attributes":{"ID":473066,"DIS_CODE":0,"TOWNNAME":"永康區","LI":"大橋里","LIN":"18鄰","STREET":"大橋二街","SECT":" ","MAREA":" ","LANE":" ","ALLEY":" ","HOUSE_NO":"１８６號六樓之４","E_COORD97":171107.66,"N_COORD97":2546778.8999999999,"ADDRESS":"大橋二街１８６號六樓之４","OBJECTID":473041},"geometry":{"x":171107.65999999922,"y":2546778.9000000022}},{"attributes":{"ID":473067,"DIS_CODE":0,"TOWNNAME":"永康區","LI":"大橋里","LIN":"18鄰","STREET":"大橋二街","SECT":" ","MAREA":" ","LANE":" ","ALLEY":" ","HOUSE_NO":"１８６號十二樓之２","E_COORD97":171109.01999999999,"N_COORD97":2546778.8999999999,"ADDRESS":"大橋二街１８６號十二樓之２","OBJECTID":473042},"geometry":{"x":171109.01999999955,"y":2546778.9000000022}},{"attributes":{"ID":473068,"DIS_CODE":0,"TOWNNAME":"永康區","LI":"大橋里","LIN":"18鄰","STREET":"大橋二街","SECT":" ","MAREA":" ","LANE":" ","ALLEY":" ","HOUSE_NO":"１７６號三樓","E_COORD97":171089.26000000001,"N_COORD97":2546760.21,"ADDRESS":"大橋二街１７６號三樓","OBJECTID":473043},"geometry":{"x":171089.25999999978,"y":2546760.2100000028}},{"attributes":{"ID":473069,"DIS_CODE":0,"TOWNNAME":"永康區","LI":"大橋里","LIN":"18鄰","STREET":"大橋二街","SECT":" ","MAREA":" ","LANE":" ","ALLEY":" ","HOUSE_NO":"１８６號六樓之２","E_COORD97":171107.76999999999,"N_COORD97":2546778.8999999999,"ADDRESS":"大橋二街１８６號六樓之２","OBJECTID":473044},"geometry":{"x":171107.76999999955,"y":2546778.9000000022}},{"attributes":{"ID":473070,"DIS_CODE":0,"TOWNNAME":"永康區","LI":"大橋里","LIN":"18鄰","STREET":"大橋二街","SECT":" ","MAREA":" ","LANE":" ","ALLEY":" ","HOUSE_NO":"１９２號六樓之２","E_COORD97":171134.85999999999,"N_COORD97":2546764.96,"ADDRESS":"大橋二街１９２號六樓之２","OBJECTID":473045},"geometry":{"x":171134.86000000034,"y":2546764.9600000046}},{"attributes":{"ID":473071,"DIS_CODE":0,"TOWNNAME":"永康區","LI":"大橋里","LIN":"18鄰","STREET":"大橋二街","SECT":" ","MAREA":" ","LANE":" ","ALLEY":" ","HOUSE_NO":"１９２號五樓之２","E_COORD97":171134.85999999999,"N_COORD97":2546764.96,"ADDRESS":"大橋二街１９２號五樓之２","OBJECTID":473046},"geometry":{"x":171134.86000000034,"y":2546764.9600000046}},{"attributes":{"ID":473072,"DIS_CODE":0,"TOWNNAME":"永康區","LI":"大橋里","LIN":"18鄰","STREET":"大橋二街","SECT":" ","MAREA":" ","LANE":" ","ALLEY":" ","HOUSE_NO":"１９２號九樓之２","E_COORD97":171134.85999999999,"N_COORD97":2546764.96,"ADDRESS":"大橋二街１９２號九樓之２","OBJECTID":473047},"geometry":{"x":171134.86000000034,"y":2546764.9600000046}},{"attributes":{"ID":473073,"DIS_CODE":0,"TOWNNAME":"永康區","LI":"大橋里","LIN":"18鄰","STREET":"大橋二街","SECT":" ","MAREA":" ","LANE":" ","ALLEY":" ","HOUSE_NO":"１８６號二樓之３","E_COORD97":171107.73000000001,"N_COORD97":2546778.8999999999,"ADDRESS":"大橋二街１８６號二樓之３","OBJECTID":473048},"geometry":{"x":171107.73000000231,"y":2546778.9000000022}},{"attributes":{"ID":473074,"DIS_CODE":0,"TOWNNAME":"永康區","LI":"大橋里","LIN":"18鄰","STREET":"大橋二街","SECT":" ","MAREA":" ","LANE":" ","ALLEY":" ","HOUSE_NO":"１９２號五樓之３","E_COORD97":171134.82000000001,"N_COORD97":2546764.96,"ADDRESS":"大橋二街１９２號五樓之３","OBJECTID":473049},"geometry":{"x":171134.8200000003,"y":2546764.9600000046}},{"attributes":{"ID":473075,"DIS_CODE":0,"TOWNNAME":"永康區","LI":"大橋里","LIN":"18鄰","STREET":"大橋二街","SECT":" ","MAREA":" ","LANE":" ","ALLEY":" ","HOUSE_NO":"１７６號四樓","E_COORD97":171089.26000000001,"N_COORD97":2546760.21,"ADDRESS":"大橋二街１７６號四樓","OBJECTID":473050},"geometry":{"x":171089.25999999978,"y":2546760.2100000028}},{"attributes":{"ID":473076,"DIS_CODE":0,"TOWNNAME":"永康區","LI":"大橋里","LIN":"18鄰","STREET":"大橋二街","SECT":" ","MAREA":" ","LANE":" ","ALLEY":" ","HOUSE_NO":"１９２號三樓之４","E_COORD97":171134.75,"N_COORD97":2546764.96,"ADDRESS":"大橋二街１９２號三樓之４","OBJECTID":473051},"geometry":{"x":171134.75000000093,"y":2546764.9600000046}},{"attributes":{"ID":473077,"DIS_CODE":0,"TOWNNAME":"永康區","LI":"大橋里","LIN":"18鄰","STREET":"大橋二街","SECT":" ","MAREA":" ","LANE":" ","ALLEY":" ","HOUSE_NO":"１９２號二樓之３","E_COORD97":171134.82000000001,"N_COORD97":2546764.96,"ADDRESS":"大橋二街１９２號二樓之３","OBJECTID":473052},"geometry":{"x":171134.8200000003,"y":2546764.9600000046}},{"attributes":{"ID":473078,"DIS_CODE":0,"TOWNNAME":"永康區","LI":"大橋里","LIN":"18鄰","STREET":"大橋二街","SECT":" ","MAREA":" ","LANE":" ","ALLEY":" ","HOUSE_NO":"１９２號十樓之３","E_COORD97":171134.82000000001,"N_COORD97":2546764.96,"ADDRESS":"大橋二街１９２號十樓之３","OBJECTID":473053},"geometry":{"x":171134.8200000003,"y":2546764.9600000046}},{"attributes":{"ID":473079,"DIS_CODE":0,"TOWNNAME":"永康區","LI":"大橋里","LIN":"18鄰","STREET":"大橋二街","SECT":" ","MAREA":" ","LANE":" ","ALLEY":" ","HOUSE_NO":"１９２號十樓之２","E_COORD97":171134.85999999999,"N_COORD97":2546764.96,"ADDRESS":"大橋二街１９２號十樓之２","OBJECTID":473054},"geometry":{"x":171134.86000000034,"y":2546764.9600000046}},{"attributes":{"ID":473080,"DIS_CODE":0,"TOWNNAME":"永康區","LI":"大橋里","LIN":"18鄰","STREET":"大橋二街","SECT":" ","MAREA":" ","LANE":" ","ALLEY":" ","HOUSE_NO":"１８６號五樓之４","E_COORD97":171107.66,"N_COORD97":2546778.8999999999,"ADDRESS":"大橋二街１８６號五樓之４","OBJECTID":473055},"geometry":{"x":171107.65999999922,"y":2546778.9000000022}},{"attributes":{"ID":473081,"DIS_CODE":0,"TOWNNAME":"永康區","LI":"大橋里","LIN":"18鄰","STREET":"大橋二街","SECT":" ","MAREA":" ","LANE":" ","ALLEY":" ","HOUSE_NO":"１９２號十樓之１","E_COORD97":171134.72,"N_COORD97":2546764.96,"ADDRESS":"大橋二街１９２號十樓之１","OBJECTID":473056},"geometry":{"x":171134.72000000067,"y":2546764.9600000046}},{"attributes":{"ID":473082,"DIS_CODE":0,"TOWNNAME":"永康區","LI":"大橋里","LIN":"18鄰","STREET":"大橋二街","SECT":" ","MAREA":" ","LANE":" ","ALLEY":" ","HOUSE_NO":"１９２號九樓之３","E_COORD97":171134.82000000001,"N_COORD97":2546764.96,"ADDRESS":"大橋二街１９２號九樓之３","OBJECTID":473057},"geometry":{"x":171134.8200000003,"y":2546764.9600000046}},{"attributes":{"ID":473083,"DIS_CODE":0,"TOWNNAME":"永康區","LI":"大橋里","LIN":"18鄰","STREET":"大橋二街","SECT":" ","MAREA":" ","LANE":" ","ALLEY":" ","HOUSE_NO":"１９２號五樓之４","E_COORD97":171134.75,"N_COORD97":2546764.96,"ADDRESS":"大橋二街１９２號五樓之４","OBJECTID":473058},"geometry":{"x":171134.75000000093,"y":2546764.9600000046}},{"attributes":{"ID":473084,"DIS_CODE":0,"TOWNNAME":"永康區","LI":"大橋里","LIN":"18鄰","STREET":"大橋二街","SECT":" ","MAREA":" ","LANE":" ","ALLEY":" ","HOUSE_NO":"１９２號六樓之３","E_COORD97":171134.82000000001,"N_COORD97":2546764.96,"ADDRESS":"大橋二街１９２號六樓之３","OBJECTID":473059},"geometry":{"x":171134.8200000003,"y":2546764.9600000046}},{"attributes":{"ID":473085,"DIS_CODE":0,"TOWNNAME":"永康區","LI":"大橋里","LIN":"18鄰","STREET":"大橋二街","SECT":" ","MAREA":" ","LANE":" ","ALLEY":" ","HOUSE_NO":"１９２號十一樓之３","E_COORD97":171136.07000000001,"N_COORD97":2546764.96,"ADDRESS":"大橋二街１９２號十一樓之３","OBJECTID":473060},"geometry":{"x":171136.07000000123,"y":2546764.9600000046}},{"attributes":{"ID":473086,"DIS_CODE":0,"TOWNNAME":"永康區","LI":"大橋里","LIN":"18鄰","STREET":"大橋二街","SECT":" ","MAREA":" ","LANE":" ","ALLEY":" ","HOUSE_NO":"１９２號三樓之１","E_COORD97":171134.72,"N_COORD97":2546764.96,"ADDRESS":"大橋二街１９２號三樓之１","OBJECTID":473061},"geometry":{"x":171134.72000000067,"y":2546764.9600000046}},{"attributes":{"ID":473087,"DIS_CODE":0,"TOWNNAME":"永康區","LI":"大橋里","LIN":"18鄰","STREET":"大橋二街","SECT":" ","MAREA":" ","LANE":" ","ALLEY":" ","HOUSE_NO":"１９２號十二樓之２","E_COORD97":171136.10999999999,"N_COORD97":2546764.96,"ADDRESS":"大橋二街１９２號十二樓之２","OBJECTID":473062},"geometry":{"x":171136.11000000127,"y":2546764.9600000046}},{"attributes":{"ID":473088,"DIS_CODE":0,"TOWNNAME":"東區","LI":"小東里","LIN":"18鄰","STREET":"東興路","SECT":" ","MAREA":" ","LANE":" ","ALLEY":" ","HOUSE_NO":"３９９號三樓","E_COORD97":170983.14999999999,"N_COORD97":2544369.8199999998,"ADDRESS":"東興路３９９號三樓","OBJECTID":473063},"geometry":{"x":170983.1500000013,"y":2544369.8200000022}},{"attributes":{"ID":473089,"DIS_CODE":0,"TOWNNAME":"東區","LI":"小東里","LIN":"18鄰","STREET":"東興路","SECT":" ","MAREA":" ","LANE":" ","ALLEY":" ","HOUSE_NO":"３９９號七樓之１","E_COORD97":170983.14999999999,"N_COORD97":2544369.8199999998,"ADDRESS":"東興路３９９號七樓之１","OBJECTID":473064},"geometry":{"x":170983.1500000013,"y":2544369.8200000022}},{"attributes":{"ID":473090,"DIS_CODE":0,"TOWNNAME":"東區","LI":"小東里","LIN":"18鄰","STREET":"東興路","SECT":" ","MAREA":" ","LANE":" ","ALLEY":" ","HOUSE_NO":"３９９號七樓之３","E_COORD97":170983.14999999999,"N_COORD97":2544369.8199999998,"ADDRESS":"東興路３９９號七樓之３","OBJECTID":473065},"geometry":{"x":170983.1500000013,"y":2544369.8200000022}},{"attributes":{"ID":473091,"DIS_CODE":0,"TOWNNAME":"東區","LI":"小東里","LIN":"18鄰","STREET":"東興路","SECT":" ","MAREA":" ","LANE":" ","ALLEY":" ","HOUSE_NO":"３９９號七樓之５","E_COORD97":170983.14999999999,"N_COORD97":2544369.8199999998,"ADDRESS":"東興路３９９號七樓之５","OBJECTID":473066},"geometry":{"x":170983.1500000013,"y":2544369.8200000022}},{"attributes":{"ID":473092,"DIS_CODE":0,"TOWNNAME":"東區","LI":"小東里","LIN":"18鄰","STREET":"東興路","SECT":" ","MAREA":" ","LANE":" ","ALLEY":" ","HOUSE_NO":"３９９號七樓之７","E_COORD97":170983.14999999999,"N_COORD97":2544369.8199999998,"ADDRESS":"東興路３９９號七樓之７","OBJECTID":473067},"geometry":{"x":170983.1500000013,"y":2544369.8200000022}},{"attributes":{"ID":473093,"DIS_CODE":0,"TOWNNAME":"東區","LI":"小東里","LIN":"18鄰","STREET":"東興路","SECT":" ","MAREA":" ","LANE":" ","ALLEY":" ","HOUSE_NO":"３９９號七樓之８","E_COORD97":170983.14999999999,"N_COORD97":2544369.8199999998,"ADDRESS":"東興路３９９號七樓之８","OBJECTID":473068},"geometry":{"x":170983.1500000013,"y":2544369.8200000022}},{"attributes":{"ID":473094,"DIS_CODE":0,"TOWNNAME":"東區","LI":"小東里","LIN":"18鄰","STREET":"東興路","SECT":" ","MAREA":" ","LANE":" ","ALLEY":" ","HOUSE_NO":"３９９號三樓之２","E_COORD97":170983.14999999999,"N_COORD97":2544369.8199999998,"ADDRESS":"東興路３９９號三樓之２","OBJECTID":473069},"geometry":{"x":170983.1500000013,"y":2544369.8200000022}},{"attributes":{"ID":473095,"DIS_CODE":0,"TOWNNAME":"東區","LI":"小東里","LIN":"18鄰","STREET":"東興路","SECT":" ","MAREA":" ","LANE":" ","ALLEY":" ","HOUSE_NO":"３９９號三樓之６","E_COORD97":170983.14999999999,"N_COORD97":2544369.8199999998,"ADDRESS":"東興路３９９號三樓之６","OBJECTID":473070},"geometry":{"x":170983.1500000013,"y":2544369.8200000022}},{"attributes":{"ID":473096,"DIS_CODE":0,"TOWNNAME":"東區","LI":"小東里","LIN":"18鄰","STREET":"東興路","SECT":" ","MAREA":" ","LANE":" ","ALLEY":" ","HOUSE_NO":"３９９號三樓之９","E_COORD97":170983.14999999999,"N_COORD97":2544369.8199999998,"ADDRESS":"東興路３９９號三樓之９","OBJECTID":473071},"geometry":{"x":170983.1500000013,"y":2544369.8200000022}},{"attributes":{"ID":473097,"DIS_CODE":0,"TOWNNAME":"東區","LI":"小東里","LIN":"18鄰","STREET":"東興路","SECT":" ","MAREA":" ","LANE":" ","ALLEY":" ","HOUSE_NO":"３９９號五樓之１","E_COORD97":170983.14999999999,"N_COORD97":2544369.8199999998,"ADDRESS":"東興路３９９號五樓之１","OBJECTID":473072},"geometry":{"x":170983.1500000013,"y":2544369.8200000022}},{"attributes":{"ID":473098,"DIS_CODE":0,"TOWNNAME":"東區","LI":"小東里","LIN":"18鄰","STREET":"東興路","SECT":" ","MAREA":" ","LANE":" ","ALLEY":" ","HOUSE_NO":"３９９號五樓之３","E_COORD97":170983.14999999999,"N_COORD97":2544369.8199999998,"ADDRESS":"東興路３９９號五樓之３","OBJECTID":473073},"geometry":{"x":170983.1500000013,"y":2544369.8200000022}},{"attributes":{"ID":473099,"DIS_CODE":0,"TOWNNAME":"東區","LI":"小東里","LIN":"18鄰","STREET":"東興路","SECT":" ","MAREA":" ","LANE":" ","ALLEY":" ","HOUSE_NO":"３９９號五樓之７","E_COORD97":170983.14999999999,"N_COORD97":2544369.8199999998,"ADDRESS":"東興路３９９號五樓之７","OBJECTID":473074},"geometry":{"x":170983.1500000013,"y":2544369.8200000022}},{"attributes":{"ID":473100,"DIS_CODE":0,"TOWNNAME":"東區","LI":"小東里","LIN":"18鄰","STREET":"東興路","SECT":" ","MAREA":" ","LANE":" ","ALLEY":" ","HOUSE_NO":"３９９號五樓之８","E_COORD97":170983.14999999999,"N_COORD97":2544369.8199999998,"ADDRESS":"東興路３９９號五樓之８","OBJECTID":473075},"geometry":{"x":170983.1500000013,"y":2544369.8200000022}},{"attributes":{"ID":473101,"DIS_CODE":0,"TOWNNAME":"東區","LI":"小東里","LIN":"18鄰","STREET":"東興路","SECT":" ","MAREA":" ","LANE":" ","ALLEY":" ","HOUSE_NO":"３９９號六樓之１","E_COORD97":170983.14999999999,"N_COORD97":2544369.8199999998,"ADDRESS":"東興路３９９號六樓之１","OBJECTID":473076},"geometry":{"x":170983.1500000013,"y":2544369.8200000022}},{"attributes":{"ID":473102,"DIS_CODE":0,"TOWNNAME":"東區","LI":"小東里","LIN":"18鄰","STREET":"東興路","SECT":" ","MAREA":" ","LANE":" ","ALLEY":" ","HOUSE_NO":"３９９號六樓之２","E_COORD97":170983.14999999999,"N_COORD97":2544369.8199999998,"ADDRESS":"東興路３９９號六樓之２","OBJECTID":473077},"geometry":{"x":170983.1500000013,"y":2544369.8200000022}},{"attributes":{"ID":473103,"DIS_CODE":0,"TOWNNAME":"東區","LI":"小東里","LIN":"18鄰","STREET":"東興路","SECT":" ","MAREA":" ","LANE":" ","ALLEY":" ","HOUSE_NO":"３９９號六樓之５","E_COORD97":170983.14999999999,"N_COORD97":2544369.8199999998,"ADDRESS":"東興路３９９號六樓之５","OBJECTID":473078},"geometry":{"x":170983.1500000013,"y":2544369.8200000022}},{"attributes":{"ID":473104,"DIS_CODE":0,"TOWNNAME":"東區","LI":"小東里","LIN":"18鄰","STREET":"東興路","SECT":" ","MAREA":" ","LANE":" ","ALLEY":" ","HOUSE_NO":"３９９號六樓之６","E_COORD97":170983.14999999999,"N_COORD97":2544369.8199999998,"ADDRESS":"東興路３９９號六樓之６","OBJECTID":473079},"geometry":{"x":170983.1500000013,"y":2544369.8200000022}},{"attributes":{"ID":473105,"DIS_CODE":0,"TOWNNAME":"東區","LI":"小東里","LIN":"18鄰","STREET":"東興路","SECT":" ","MAREA":" ","LANE":" ","ALLEY":" ","HOUSE_NO":"３９９號六樓之８","E_COORD97":170983.14999999999,"N_COORD97":2544369.8199999998,"ADDRESS":"東興路３９９號六樓之８","OBJECTID":473080},"geometry":{"x":170983.1500000013,"y":2544369.8200000022}},{"attributes":{"ID":473106,"DIS_CODE":0,"TOWNNAME":"東區","LI":"小東里","LIN":"18鄰","STREET":"東興路","SECT":" ","MAREA":" ","LANE":" ","ALLEY":" ","HOUSE_NO":"３９９號四樓","E_COORD97":170983.14999999999,"N_COORD97":2544369.8199999998,"ADDRESS":"東興路３９９號四樓","OBJECTID":473081},"geometry":{"x":170983.1500000013,"y":2544369.8200000022}},{"attributes":{"ID":473107,"DIS_CODE":0,"TOWNNAME":"東區","LI":"小東里","LIN":"18鄰","STREET":"東興路","SECT":" ","MAREA":" ","LANE":" ","ALLEY":" ","HOUSE_NO":"３９９號四樓之１","E_COORD97":170983.14999999999,"N_COORD97":2544369.8199999998,"ADDRESS":"東興路３９９號四樓之１","OBJECTID":473082},"geometry":{"x":170983.1500000013,"y":2544369.8200000022}},{"attributes":{"ID":473108,"DIS_CODE":0,"TOWNNAME":"東區","LI":"小東里","LIN":"18鄰","STREET":"東興路","SECT":" ","MAREA":" ","LANE":" ","ALLEY":" ","HOUSE_NO":"３９９號四樓之４","E_COORD97":170983.14999999999,"N_COORD97":2544369.8199999998,"ADDRESS":"東興路３９９號四樓之４","OBJECTID":473083},"geometry":{"x":170983.1500000013,"y":2544369.8200000022}},{"attributes":{"ID":473109,"DIS_CODE":0,"TOWNNAME":"東區","LI":"小東里","LIN":"18鄰","STREET":"東興路","SECT":" ","MAREA":" ","LANE":" ","ALLEY":" ","HOUSE_NO":"３９９號四樓之６","E_COORD97":170983.14999999999,"N_COORD97":2544369.8199999998,"ADDRESS":"東興路３９９號四樓之６","OBJECTID":473084},"geometry":{"x":170983.1500000013,"y":2544369.8200000022}},{"attributes":{"ID":473110,"DIS_CODE":0,"TOWNNAME":"東區","LI":"小東里","LIN":"18鄰","STREET":"東興路","SECT":" ","MAREA":" ","LANE":" ","ALLEY":" ","HOUSE_NO":"３９９號四樓之７","E_COORD97":170983.14999999999,"N_COORD97":2544369.8199999998,"ADDRESS":"東興路３９９號四樓之７","OBJECTID":473085},"geometry":{"x":170983.1500000013,"y":2544369.8200000022}},{"attributes":{"ID":473111,"DIS_CODE":0,"TOWNNAME":"東區","LI":"小東里","LIN":"18鄰","STREET":"東興路","SECT":" ","MAREA":" ","LANE":" ","ALLEY":" ","HOUSE_NO":"３９９號七樓之４","E_COORD97":170983.14999999999,"N_COORD97":2544369.8199999998,"ADDRESS":"東興路３９９號七樓之４","OBJECTID":473086},"geometry":{"x":170983.1500000013,"y":2544369.8200000022}},{"attributes":{"ID":473112,"DIS_CODE":0,"TOWNNAME":"東區","LI":"小東里","LIN":"18鄰","STREET":"東興路","SECT":" ","MAREA":" ","LANE":" ","ALLEY":" ","HOUSE_NO":"３９９號五樓之５","E_COORD97":170983.14999999999,"N_COORD97":2544369.8199999998,"ADDRESS":"東興路３９９號五樓之５","OBJECTID":473087},"geometry":{"x":170983.1500000013,"y":2544369.8200000022}},{"attributes":{"ID":473113,"DIS_CODE":0,"TOWNNAME":"東區","LI":"小東里","LIN":"18鄰","STREET":"東興路","SECT":" ","MAREA":" ","LANE":" ","ALLEY":" ","HOUSE_NO":"３９９號六樓之３","E_COORD97":170983.14999999999,"N_COORD97":2544369.8199999998,"ADDRESS":"東興路３９９號六樓之３","OBJECTID":473088},"geometry":{"x":170983.1500000013,"y":2544369.8200000022}},{"attributes":{"ID":473114,"DIS_CODE":0,"TOWNNAME":"東區","LI":"小東里","LIN":"18鄰","STREET":"東興路","SECT":" ","MAREA":" ","LANE":" ","ALLEY":" ","HOUSE_NO":"３９９號三樓之１","E_COORD97":170983.14999999999,"N_COORD97":2544369.8199999998,"ADDRESS":"東興路３９９號三樓之１","OBJECTID":473089},"geometry":{"x":170983.1500000013,"y":2544369.8200000022}},{"attributes":{"ID":473115,"DIS_CODE":0,"TOWNNAME":"東區","LI":"小東里","LIN":"18鄰","STREET":"東興路","SECT":" ","MAREA":" ","LANE":" ","ALLEY":" ","HOUSE_NO":"３９９號三樓之３","E_COORD97":170983.14999999999,"N_COORD97":2544369.8199999998,"ADDRESS":"東興路３９９號三樓之３","OBJECTID":473090},"geometry":{"x":170983.1500000013,"y":2544369.8200000022}},{"attributes":{"ID":473116,"DIS_CODE":0,"TOWNNAME":"東區","LI":"小東里","LIN":"18鄰","STREET":"東興路","SECT":" ","MAREA":" ","LANE":" ","ALLEY":" ","HOUSE_NO":"３９９號三樓之４","E_COORD97":170983.14999999999,"N_COORD97":2544369.8199999998,"ADDRESS":"東興路３９９號三樓之４","OBJECTID":473091},"geometry":{"x":170983.1500000013,"y":2544369.8200000022}},{"attributes":{"ID":473117,"DIS_CODE":0,"TOWNNAME":"東區","LI":"小東里","LIN":"18鄰","STREET":"東興路","SECT":" ","MAREA":" ","LANE":" ","ALLEY":" ","HOUSE_NO":"３９９號三樓之５","E_COORD97":170983.14999999999,"N_COORD97":2544369.8199999998,"ADDRESS":"東興路３９９號三樓之５","OBJECTID":473092},"geometry":{"x":170983.1500000013,"y":2544369.8200000022}},{"attributes":{"ID":473118,"DIS_CODE":0,"TOWNNAME":"東區","LI":"小東里","LIN":"18鄰","STREET":"東興路","SECT":" ","MAREA":" ","LANE":" ","ALLEY":" ","HOUSE_NO":"３９９號三樓之７","E_COORD97":170983.14999999999,"N_COORD97":2544369.8199999998,"ADDRESS":"東興路３９９號三樓之７","OBJECTID":473093},"geometry":{"x":170983.1500000013,"y":2544369.8200000022}},{"attributes":{"ID":473119,"DIS_CODE":0,"TOWNNAME":"東區","LI":"小東里","LIN":"18鄰","STREET":"東興路","SECT":" ","MAREA":" ","LANE":" ","ALLEY":" ","HOUSE_NO":"３９９號五樓之６","E_COORD97":170983.14999999999,"N_COORD97":2544369.8199999998,"ADDRESS":"東興路３９９號五樓之６","OBJECTID":473094},"geometry":{"x":170983.1500000013,"y":2544369.8200000022}},{"attributes":{"ID":473120,"DIS_CODE":0,"TOWNNAME":"東區","LI":"小東里","LIN":"18鄰","STREET":"東興路","SECT":" ","MAREA":" ","LANE":" ","ALLEY":" ","HOUSE_NO":"３９９號三樓之８","E_COORD97":170983.14999999999,"N_COORD97":2544369.8199999998,"ADDRESS":"東興路３９９號三樓之８","OBJECTID":473095},"geometry":{"x":170983.1500000013,"y":2544369.8200000022}},{"attributes":{"ID":473121,"DIS_CODE":0,"TOWNNAME":"東區","LI":"小東里","LIN":"18鄰","STREET":"東興路","SECT":" ","MAREA":" ","LANE":" ","ALLEY":" ","HOUSE_NO":"３９９號四樓之２","E_COORD97":170983.14999999999,"N_COORD97":2544369.8199999998,"ADDRESS":"東興路３９９號四樓之２","OBJECTID":473096},"geometry":{"x":170983.1500000013,"y":2544369.8200000022}},{"attributes":{"ID":473122,"DIS_CODE":0,"TOWNNAME":"東區","LI":"小東里","LIN":"18鄰","STREET":"東興路","SECT":" ","MAREA":" ","LANE":" ","ALLEY":" ","HOUSE_NO":"３９９號四樓之３","E_COORD97":170983.14999999999,"N_COORD97":2544369.8199999998,"ADDRESS":"東興路３９９號四樓之３","OBJECTID":473097},"geometry":{"x":170983.1500000013,"y":2544369.8200000022}},{"attributes":{"ID":473123,"DIS_CODE":0,"TOWNNAME":"東區","LI":"小東里","LIN":"18鄰","STREET":"東興路","SECT":" ","MAREA":" ","LANE":" ","ALLEY":" ","HOUSE_NO":"３９９號四樓之５","E_COORD97":170983.14999999999,"N_COORD97":2544369.8199999998,"ADDRESS":"東興路３９９號四樓之５","OBJECTID":473098},"geometry":{"x":170983.1500000013,"y":2544369.8200000022}},{"attributes":{"ID":473124,"DIS_CODE":0,"TOWNNAME":"東區","LI":"小東里","LIN":"18鄰","STREET":"東興路","SECT":" ","MAREA":" ","LANE":" ","ALLEY":" ","HOUSE_NO":"３９９號四樓之８","E_COORD97":170983.14999999999,"N_COORD97":2544369.8199999998,"ADDRESS":"東興路３９９號四樓之８","OBJECTID":473099},"geometry":{"x":170983.1500000013,"y":2544369.8200000022}},{"attributes":{"ID":473125,"DIS_CODE":0,"TOWNNAME":"東區","LI":"小東里","LIN":"18鄰","STREET":"東興路","SECT":" ","MAREA":" ","LANE":" ","ALLEY":" ","HOUSE_NO":"３９９號五樓","E_COORD97":170983.14999999999,"N_COORD97":2544369.8199999998,"ADDRESS":"東興路３９９號五樓","OBJECTID":473100},"geometry":{"x":170983.1500000013,"y":2544369.8200000022}},{"attributes":{"ID":473126,"DIS_CODE":0,"TOWNNAME":"東區","LI":"小東里","LIN":"18鄰","STREET":"東興路","SECT":" ","MAREA":" ","LANE":" ","ALLEY":" ","HOUSE_NO":"３９９號五樓之２","E_COORD97":170983.14999999999,"N_COORD97":2544369.8199999998,"ADDRESS":"東興路３９９號五樓之２","OBJECTID":473101},"geometry":{"x":170983.1500000013,"y":2544369.8200000022}},{"attributes":{"ID":473127,"DIS_CODE":0,"TOWNNAME":"東區","LI":"小東里","LIN":"18鄰","STREET":"東興路","SECT":" ","MAREA":" ","LANE":" ","ALLEY":" ","HOUSE_NO":"３９９號五樓之４","E_COORD97":170983.14999999999,"N_COORD97":2544369.8199999998,"ADDRESS":"東興路３９９號五樓之４","OBJECTID":473102},"geometry":{"x":170983.1500000013,"y":2544369.8200000022}},{"attributes":{"ID":473128,"DIS_CODE":0,"TOWNNAME":"東區","LI":"小東里","LIN":"18鄰","STREET":"東興路","SECT":" ","MAREA":" ","LANE":" ","ALLEY":" ","HOUSE_NO":"３９９號六樓","E_COORD97":170983.14999999999,"N_COORD97":2544369.8199999998,"ADDRESS":"東興路３９９號六樓","OBJECTID":473103},"geometry":{"x":170983.1500000013,"y":2544369.8200000022}},{"attributes":{"ID":473129,"DIS_CODE":0,"TOWNNAME":"東區","LI":"小東里","LIN":"18鄰","STREET":"東興路","SECT":" ","MAREA":" ","LANE":" ","ALLEY":" ","HOUSE_NO":"３９９號六樓之４","E_COORD97":170983.14999999999,"N_COORD97":2544369.8199999998,"ADDRESS":"東興路３９９號六樓之４","OBJECTID":473104},"geometry":{"x":170983.1500000013,"y":2544369.8200000022}},{"attributes":{"ID":473130,"DIS_CODE":0,"TOWNNAME":"東區","LI":"小東里","LIN":"18鄰","STREET":"東興路","SECT":" ","MAREA":" ","LANE":" ","ALLEY":" ","HOUSE_NO":"３９９號六樓之７","E_COORD97":170983.14999999999,"N_COORD97":2544369.8199999998,"ADDRESS":"東興路３９９號六樓之７","OBJECTID":473105},"geometry":{"x":170983.1500000013,"y":2544369.8200000022}},{"attributes":{"ID":473131,"DIS_CODE":0,"TOWNNAME":"東區","LI":"小東里","LIN":"18鄰","STREET":"東興路","SECT":" ","MAREA":" ","LANE":" ","ALLEY":" ","HOUSE_NO":"３９９號七樓","E_COORD97":170983.14999999999,"N_COORD97":2544369.8199999998,"ADDRESS":"東興路３９９號七樓","OBJECTID":473106},"geometry":{"x":170983.1500000013,"y":2544369.8200000022}},{"attributes":{"ID":473132,"DIS_CODE":0,"TOWNNAME":"東區","LI":"小東里","LIN":"18鄰","STREET":"東興路","SECT":" ","MAREA":" ","LANE":" ","ALLEY":" ","HOUSE_NO":"３９９號七樓之２","E_COORD97":170983.14999999999,"N_COORD97":2544369.8199999998,"ADDRESS":"東興路３９９號七樓之２","OBJECTID":473107},"geometry":{"x":170983.1500000013,"y":2544369.8200000022}},{"attributes":{"ID":473133,"DIS_CODE":0,"TOWNNAME":"東區","LI":"小東里","LIN":"18鄰","STREET":"東興路","SECT":" ","MAREA":" ","LANE":" ","ALLEY":" ","HOUSE_NO":"３９９號七樓之６","E_COORD97":170983.14999999999,"N_COORD97":2544369.8199999998,"ADDRESS":"東興路３９９號七樓之６","OBJECTID":473108},"geometry":{"x":170983.1500000013,"y":2544369.8200000022}},{"attributes":{"ID":473134,"DIS_CODE":0,"TOWNNAME":"東區","LI":"龍山里","LIN":"18鄰","STREET":"東門路","SECT":"一段","MAREA":" ","LANE":" ","ALLEY":" ","HOUSE_NO":"２９８號二樓","E_COORD97":169698.48000000001,"N_COORD97":2543053.2000000002,"ADDRESS":"東門路一段２９８號二樓","OBJECTID":473109},"geometry":{"x":169698.48000000045,"y":2543053.2000000011}},{"attributes":{"ID":473135,"DIS_CODE":0,"TOWNNAME":"東區","LI":"龍山里","LIN":"18鄰","STREET":"東門路","SECT":"一段","MAREA":" ","LANE":" ","ALLEY":" ","HOUSE_NO":"２９８號三樓","E_COORD97":169698.48000000001,"N_COORD97":2543053.2000000002,"ADDRESS":"東門路一段２９８號三樓","OBJECTID":473110},"geometry":{"x":169698.48000000045,"y":2543053.2000000011}},{"attributes":{"ID":473136,"DIS_CODE":0,"TOWNNAME":"東區","LI":"龍山里","LIN":"18鄰","STREET":"東門路","SECT":"一段","MAREA":" ","LANE":" ","ALLEY":" ","HOUSE_NO":"２９８號三樓之１","E_COORD97":169698.48000000001,"N_COORD97":2543053.2000000002,"ADDRESS":"東門路一段２９８號三樓之１","OBJECTID":473111},"geometry":{"x":169698.48000000045,"y":2543053.2000000011}},{"attributes":{"ID":473137,"DIS_CODE":0,"TOWNNAME":"東區","LI":"龍山里","LIN":"18鄰","STREET":"東門路","SECT":"一段","MAREA":" ","LANE":" ","ALLEY":" ","HOUSE_NO":"２９８號三樓之２","E_COORD97":169698.48000000001,"N_COORD97":2543053.2000000002,"ADDRESS":"東門路一段２９８號三樓之２","OBJECTID":473112},"geometry":{"x":169698.48000000045,"y":2543053.2000000011}},{"attributes":{"ID":473138,"DIS_CODE":0,"TOWNNAME":"東區","LI":"龍山里","LIN":"18鄰","STREET":"東門路","SECT":"一段","MAREA":" ","LANE":" ","ALLEY":" ","HOUSE_NO":"２９８號三樓之３","E_COORD97":169698.48000000001,"N_COORD97":2543053.2000000002,"ADDRESS":"東門路一段２９８號三樓之３","OBJECTID":473113},"geometry":{"x":169698.48000000045,"y":2543053.2000000011}},{"attributes":{"ID":473139,"DIS_CODE":0,"TOWNNAME":"東區","LI":"龍山里","LIN":"18鄰","STREET":"東門路","SECT":"一段","MAREA":" ","LANE":" ","ALLEY":" ","HOUSE_NO":"２９８號三樓之４","E_COORD97":169698.48000000001,"N_COORD97":2543053.2000000002,"ADDRESS":"東門路一段２９８號三樓之４","OBJECTID":473114},"geometry":{"x":169698.48000000045,"y":2543053.2000000011}},{"attributes":{"ID":473140,"DIS_CODE":0,"TOWNNAME":"東區","LI":"龍山里","LIN":"18鄰","STREET":"東門路","SECT":"一段","MAREA":" ","LANE":" ","ALLEY":" ","HOUSE_NO":"２９８號三樓之５","E_COORD97":169698.48000000001,"N_COORD97":2543053.2000000002,"ADDRESS":"東門路一段２９８號三樓之５","OBJECTID":473115},"geometry":{"x":169698.48000000045,"y":2543053.2000000011}},{"attributes":{"ID":473141,"DIS_CODE":0,"TOWNNAME":"東區","LI":"龍山里","LIN":"18鄰","STREET":"東門路","SECT":"一段","MAREA":" ","LANE":" ","ALLEY":" ","HOUSE_NO":"２９８號三樓之６","E_COORD97":169698.48000000001,"N_COORD97":2543053.2000000002,"ADDRESS":"東門路一段２９８號三樓之６","OBJECTID":473116},"geometry":{"x":169698.48000000045,"y":2543053.2000000011}},{"attributes":{"ID":473142,"DIS_CODE":0,"TOWNNAME":"東區","LI":"龍山里","LIN":"18鄰","STREET":"東門路","SECT":"一段","MAREA":" ","LANE":" ","ALLEY":" ","HOUSE_NO":"２９８號三樓之７","E_COORD97":169698.48000000001,"N_COORD97":2543053.2000000002,"ADDRESS":"東門路一段２９８號三樓之７","OBJECTID":473117},"geometry":{"x":169698.48000000045,"y":2543053.2000000011}},{"attributes":{"ID":473143,"DIS_CODE":0,"TOWNNAME":"東區","LI":"龍山里","LIN":"18鄰","STREET":"東門路","SECT":"一段","MAREA":" ","LANE":" ","ALLEY":" ","HOUSE_NO":"２９８號三樓之８","E_COORD97":169698.48000000001,"N_COORD97":2543053.2000000002,"ADDRESS":"東門路一段２９８號三樓之８","OBJECTID":473118},"geometry":{"x":169698.48000000045,"y":2543053.2000000011}},{"attributes":{"ID":473144,"DIS_CODE":0,"TOWNNAME":"東區","LI":"龍山里","LIN":"18鄰","STREET":"東門路","SECT":"一段","MAREA":" ","LANE":" ","ALLEY":" ","HOUSE_NO":"２９８號三樓之９","E_COORD97":169698.48000000001,"N_COORD97":2543053.2000000002,"ADDRESS":"東門路一段２９８號三樓之９","OBJECTID":473119},"geometry":{"x":169698.48000000045,"y":2543053.2000000011}},{"attributes":{"ID":473145,"DIS_CODE":0,"TOWNNAME":"東區","LI":"龍山里","LIN":"18鄰","STREET":"東門路","SECT":"一段","MAREA":" ","LANE":" ","ALLEY":" ","HOUSE_NO":"２９８號三樓之１０","E_COORD97":169698.48000000001,"N_COORD97":2543053.2000000002,"ADDRESS":"東門路一段２９８號三樓之１０","OBJECTID":473120},"geometry":{"x":169698.48000000045,"y":2543053.2000000011}},{"attributes":{"ID":473146,"DIS_CODE":0,"TOWNNAME":"東區","LI":"龍山里","LIN":"18鄰","STREET":"東門路","SECT":"一段","MAREA":" ","LANE":" ","ALLEY":" ","HOUSE_NO":"２９８號三樓之１１","E_COORD97":169698.48000000001,"N_COORD97":2543053.2000000002,"ADDRESS":"東門路一段２９８號三樓之１１","OBJECTID":473121},"geometry":{"x":169698.48000000045,"y":2543053.2000000011}},{"attributes":{"ID":473147,"DIS_CODE":0,"TOWNNAME":"東區","LI":"龍山里","LIN":"18鄰","STREET":"東門路","SECT":"一段","MAREA":" ","LANE":" ","ALLEY":" ","HOUSE_NO":"２９８號三樓之１２","E_COORD97":169698.48000000001,"N_COORD97":2543053.2000000002,"ADDRESS":"東門路一段２９８號三樓之１２","OBJECTID":473122},"geometry":{"x":169698.48000000045,"y":2543053.2000000011}},{"attributes":{"ID":473148,"DIS_CODE":0,"TOWNNAME":"東區","LI":"龍山里","LIN":"18鄰","STREET":"東門路","SECT":"一段","MAREA":" ","LANE":" ","ALLEY":" ","HOUSE_NO":"２９８號三樓之１３","E_COORD97":169698.48000000001,"N_COORD97":2543053.2000000002,"ADDRESS":"東門路一段２９８號三樓之１３","OBJECTID":473123},"geometry":{"x":169698.48000000045,"y":2543053.2000000011}},{"attributes":{"ID":473149,"DIS_CODE":0,"TOWNNAME":"東區","LI":"龍山里","LIN":"18鄰","STREET":"東門路","SECT":"一段","MAREA":" ","LANE":" ","ALLEY":" ","HOUSE_NO":"２９８號三樓之１４","E_COORD97":169698.48000000001,"N_COORD97":2543053.2000000002,"ADDRESS":"東門路一段２９８號三樓之１４","OBJECTID":473124},"geometry":{"x":169698.48000000045,"y":2543053.2000000011}},{"attributes":{"ID":473150,"DIS_CODE":0,"TOWNNAME":"東區","LI":"龍山里","LIN":"18鄰","STREET":"東門路","SECT":"一段","MAREA":" ","LANE":" ","ALLEY":" ","HOUSE_NO":"２９８號三樓之１５","E_COORD97":169698.48000000001,"N_COORD97":2543053.2000000002,"ADDRESS":"東門路一段２９８號三樓之１５","OBJECTID":473125},"geometry":{"x":169698.48000000045,"y":2543053.2000000011}},{"attributes":{"ID":473151,"DIS_CODE":0,"TOWNNAME":"東區","LI":"龍山里","LIN":"18鄰","STREET":"東門路","SECT":"一段","MAREA":" ","LANE":" ","ALLEY":" ","HOUSE_NO":"２９８號四樓","E_COORD97":169698.48000000001,"N_COORD97":2543053.2000000002,"ADDRESS":"東門路一段２９８號四樓","OBJECTID":473126},"geometry":{"x":169698.48000000045,"y":2543053.2000000011}},{"attributes":{"ID":473152,"DIS_CODE":0,"TOWNNAME":"東區","LI":"龍山里","LIN":"18鄰","STREET":"東門路","SECT":"一段","MAREA":" ","LANE":" ","ALLEY":" ","HOUSE_NO":"２９８號四樓之１","E_COORD97":169698.48000000001,"N_COORD97":2543053.2000000002,"ADDRESS":"東門路一段２９８號四樓之１","OBJECTID":473127},"geometry":{"x":169698.48000000045,"y":2543053.2000000011}},{"attributes":{"ID":473153,"DIS_CODE":0,"TOWNNAME":"東區","LI":"龍山里","LIN":"18鄰","STREET":"東門路","SECT":"一段","MAREA":" ","LANE":" ","ALLEY":" ","HOUSE_NO":"２９８號四樓之２","E_COORD97":169698.48000000001,"N_COORD97":2543053.2000000002,"ADDRESS":"東門路一段２９８號四樓之２","OBJECTID":473128},"geometry":{"x":169698.48000000045,"y":2543053.2000000011}},{"attributes":{"ID":473154,"DIS_CODE":0,"TOWNNAME":"東區","LI":"龍山里","LIN":"18鄰","STREET":"東門路","SECT":"一段","MAREA":" ","LANE":" ","ALLEY":" ","HOUSE_NO":"２９８號四樓之３","E_COORD97":169698.48000000001,"N_COORD97":2543053.2000000002,"ADDRESS":"東門路一段２９８號四樓之３","OBJECTID":473129},"geometry":{"x":169698.48000000045,"y":2543053.2000000011}},{"attributes":{"ID":473155,"DIS_CODE":0,"TOWNNAME":"東區","LI":"龍山里","LIN":"18鄰","STREET":"東門路","SECT":"一段","MAREA":" ","LANE":" ","ALLEY":" ","HOUSE_NO":"２９８號四樓之５","E_COORD97":169698.48000000001,"N_COORD97":2543053.2000000002,"ADDRESS":"東門路一段２９８號四樓之５","OBJECTID":473130},"geometry":{"x":169698.48000000045,"y":2543053.2000000011}},{"attributes":{"ID":473156,"DIS_CODE":0,"TOWNNAME":"東區","LI":"龍山里","LIN":"18鄰","STREET":"東門路","SECT":"一段","MAREA":" ","LANE":" ","ALLEY":" ","HOUSE_NO":"２９８號四樓之６","E_COORD97":169698.48000000001,"N_COORD97":2543053.2000000002,"ADDRESS":"東門路一段２９８號四樓之６","OBJECTID":473131},"geometry":{"x":169698.48000000045,"y":2543053.2000000011}},{"attributes":{"ID":473157,"DIS_CODE":0,"TOWNNAME":"東區","LI":"龍山里","LIN":"18鄰","STREET":"東門路","SECT":"一段","MAREA":" ","LANE":" ","ALLEY":" ","HOUSE_NO":"２９８號四樓之７","E_COORD97":169698.48000000001,"N_COORD97":2543053.2000000002,"ADDRESS":"東門路一段２９８號四樓之７","OBJECTID":473132},"geometry":{"x":169698.48000000045,"y":2543053.2000000011}},{"attributes":{"ID":473158,"DIS_CODE":0,"TOWNNAME":"東區","LI":"龍山里","LIN":"18鄰","STREET":"東門路","SECT":"一段","MAREA":" ","LANE":" ","ALLEY":" ","HOUSE_NO":"２９８號四樓之８","E_COORD97":169698.48000000001,"N_COORD97":2543053.2000000002,"ADDRESS":"東門路一段２９８號四樓之８","OBJECTID":473133},"geometry":{"x":169698.48000000045,"y":2543053.2000000011}},{"attributes":{"ID":473159,"DIS_CODE":0,"TOWNNAME":"東區","LI":"龍山里","LIN":"18鄰","STREET":"東門路","SECT":"一段","MAREA":" ","LANE":" ","ALLEY":" ","HOUSE_NO":"２９８號四樓之９","E_COORD97":169698.48000000001,"N_COORD97":2543053.2000000002,"ADDRESS":"東門路一段２９８號四樓之９","OBJECTID":473134},"geometry":{"x":169698.48000000045,"y":2543053.2000000011}},{"attributes":{"ID":473160,"DIS_CODE":0,"TOWNNAME":"東區","LI":"龍山里","LIN":"18鄰","STREET":"東門路","SECT":"一段","MAREA":" ","LANE":" ","ALLEY":" ","HOUSE_NO":"２９８號四樓之１０","E_COORD97":169698.48000000001,"N_COORD97":2543053.2000000002,"ADDRESS":"東門路一段２９８號四樓之１０","OBJECTID":473135},"geometry":{"x":169698.48000000045,"y":2543053.2000000011}},{"attributes":{"ID":473161,"DIS_CODE":0,"TOWNNAME":"東區","LI":"龍山里","LIN":"18鄰","STREET":"東門路","SECT":"一段","MAREA":" ","LANE":" ","ALLEY":" ","HOUSE_NO":"２９８號四樓之１１","E_COORD97":169698.48000000001,"N_COORD97":2543053.2000000002,"ADDRESS":"東門路一段２９８號四樓之１１","OBJECTID":473136},"geometry":{"x":169698.48000000045,"y":2543053.2000000011}},{"attributes":{"ID":473162,"DIS_CODE":0,"TOWNNAME":"東區","LI":"龍山里","LIN":"18鄰","STREET":"東門路","SECT":"一段","MAREA":" ","LANE":" ","ALLEY":" ","HOUSE_NO":"２９８號四樓之１２","E_COORD97":169698.48000000001,"N_COORD97":2543053.2000000002,"ADDRESS":"東門路一段２９８號四樓之１２","OBJECTID":473137},"geometry":{"x":169698.48000000045,"y":2543053.2000000011}},{"attributes":{"ID":473163,"DIS_CODE":0,"TOWNNAME":"東區","LI":"龍山里","LIN":"18鄰","STREET":"東門路","SECT":"一段","MAREA":" ","LANE":" ","ALLEY":" ","HOUSE_NO":"２９８號四樓之１３","E_COORD97":169698.48000000001,"N_COORD97":2543053.2000000002,"ADDRESS":"東門路一段２９８號四樓之１３","OBJECTID":473138},"geometry":{"x":169698.48000000045,"y":2543053.2000000011}},{"attributes":{"ID":473164,"DIS_CODE":0,"TOWNNAME":"東區","LI":"龍山里","LIN":"18鄰","STREET":"東門路","SECT":"一段","MAREA":" ","LANE":" ","ALLEY":" ","HOUSE_NO":"２９８號五樓","E_COORD97":169698.48000000001,"N_COORD97":2543053.2000000002,"ADDRESS":"東門路一段２９８號五樓","OBJECTID":473139},"geometry":{"x":169698.48000000045,"y":2543053.2000000011}},{"attributes":{"ID":473165,"DIS_CODE":0,"TOWNNAME":"東區","LI":"龍山里","LIN":"18鄰","STREET":"東門路","SECT":"一段","MAREA":" ","LANE":" ","ALLEY":" ","HOUSE_NO":"２９８號五樓之１","E_COORD97":169698.48000000001,"N_COORD97":2543053.2000000002,"ADDRESS":"東門路一段２９８號五樓之１","OBJECTID":473140},"geometry":{"x":169698.48000000045,"y":2543053.2000000011}},{"attributes":{"ID":473166,"DIS_CODE":0,"TOWNNAME":"東區","LI":"龍山里","LIN":"18鄰","STREET":"東門路","SECT":"一段","MAREA":" ","LANE":" ","ALLEY":" ","HOUSE_NO":"２９８號五樓之２","E_COORD97":169698.48000000001,"N_COORD97":2543053.2000000002,"ADDRESS":"東門路一段２９８號五樓之２","OBJECTID":473141},"geometry":{"x":169698.48000000045,"y":2543053.2000000011}},{"attributes":{"ID":473167,"DIS_CODE":0,"TOWNNAME":"東區","LI":"龍山里","LIN":"18鄰","STREET":"東門路","SECT":"一段","MAREA":" ","LANE":" ","ALLEY":" ","HOUSE_NO":"２９８號五樓之３","E_COORD97":169698.48000000001,"N_COORD97":2543053.2000000002,"ADDRESS":"東門路一段２９８號五樓之３","OBJECTID":473142},"geometry":{"x":169698.48000000045,"y":2543053.2000000011}},{"attributes":{"ID":473168,"DIS_CODE":0,"TOWNNAME":"東區","LI":"龍山里","LIN":"18鄰","STREET":"東門路","SECT":"一段","MAREA":" ","LANE":" ","ALLEY":" ","HOUSE_NO":"２９８號五樓之４","E_COORD97":169698.48000000001,"N_COORD97":2543053.2000000002,"ADDRESS":"東門路一段２９８號五樓之４","OBJECTID":473143},"geometry":{"x":169698.48000000045,"y":2543053.2000000011}},{"attributes":{"ID":473169,"DIS_CODE":0,"TOWNNAME":"東區","LI":"龍山里","LIN":"18鄰","STREET":"東門路","SECT":"一段","MAREA":" ","LANE":" ","ALLEY":" ","HOUSE_NO":"２９８號五樓之５","E_COORD97":169698.48000000001,"N_COORD97":2543053.2000000002,"ADDRESS":"東門路一段２９８號五樓之５","OBJECTID":473144},"geometry":{"x":169698.48000000045,"y":2543053.2000000011}},{"attributes":{"ID":473170,"DIS_CODE":0,"TOWNNAME":"東區","LI":"龍山里","LIN":"18鄰","STREET":"東門路","SECT":"一段","MAREA":" ","LANE":" ","ALLEY":" ","HOUSE_NO":"２９８號五樓之６","E_COORD97":169698.48000000001,"N_COORD97":2543053.2000000002,"ADDRESS":"東門路一段２９８號五樓之６","OBJECTID":473145},"geometry":{"x":169698.48000000045,"y":2543053.2000000011}},{"attributes":{"ID":473171,"DIS_CODE":0,"TOWNNAME":"東區","LI":"龍山里","LIN":"18鄰","STREET":"東門路","SECT":"一段","MAREA":" ","LANE":" ","ALLEY":" ","HOUSE_NO":"２９８號五樓之７","E_COORD97":169698.48000000001,"N_COORD97":2543053.2000000002,"ADDRESS":"東門路一段２９８號五樓之７","OBJECTID":473146},"geometry":{"x":169698.48000000045,"y":2543053.2000000011}},{"attributes":{"ID":473172,"DIS_CODE":0,"TOWNNAME":"東區","LI":"龍山里","LIN":"18鄰","STREET":"東門路","SECT":"一段","MAREA":" ","LANE":" ","ALLEY":" ","HOUSE_NO":"２９８號五樓之８","E_COORD97":169698.48000000001,"N_COORD97":2543053.2000000002,"ADDRESS":"東門路一段２９８號五樓之８","OBJECTID":473147},"geometry":{"x":169698.48000000045,"y":2543053.2000000011}},{"attributes":{"ID":473173,"DIS_CODE":0,"TOWNNAME":"東區","LI":"龍山里","LIN":"18鄰","STREET":"東門路","SECT":"一段","MAREA":" ","LANE":" ","ALLEY":" ","HOUSE_NO":"２９８號五樓之９","E_COORD97":169698.48000000001,"N_COORD97":2543053.2000000002,"ADDRESS":"東門路一段２９８號五樓之９","OBJECTID":473148},"geometry":{"x":169698.48000000045,"y":2543053.2000000011}},{"attributes":{"ID":473174,"DIS_CODE":0,"TOWNNAME":"東區","LI":"龍山里","LIN":"18鄰","STREET":"東門路","SECT":"一段","MAREA":" ","LANE":" ","ALLEY":" ","HOUSE_NO":"２９８號五樓之１０","E_COORD97":169698.48000000001,"N_COORD97":2543053.2000000002,"ADDRESS":"東門路一段２９８號五樓之１０","OBJECTID":473149},"geometry":{"x":169698.48000000045,"y":2543053.2000000011}},{"attributes":{"ID":473175,"DIS_CODE":0,"TOWNNAME":"東區","LI":"龍山里","LIN":"18鄰","STREET":"東門路","SECT":"一段","MAREA":" ","LANE":" ","ALLEY":" ","HOUSE_NO":"２９８號五樓之１１","E_COORD97":169698.48000000001,"N_COORD97":2543053.2000000002,"ADDRESS":"東門路一段２９８號五樓之１１","OBJECTID":473150},"geometry":{"x":169698.48000000045,"y":2543053.2000000011}},{"attributes":{"ID":473176,"DIS_CODE":0,"TOWNNAME":"東區","LI":"龍山里","LIN":"18鄰","STREET":"東門路","SECT":"一段","MAREA":" ","LANE":" ","ALLEY":" ","HOUSE_NO":"２９８號五樓之１２","E_COORD97":169698.48000000001,"N_COORD97":2543053.2000000002,"ADDRESS":"東門路一段２９８號五樓之１２","OBJECTID":473151},"geometry":{"x":169698.48000000045,"y":2543053.2000000011}},{"attributes":{"ID":473177,"DIS_CODE":0,"TOWNNAME":"東區","LI":"龍山里","LIN":"18鄰","STREET":"東門路","SECT":"一段","MAREA":" ","LANE":" ","ALLEY":" ","HOUSE_NO":"２９８號五樓之１３","E_COORD97":169698.48000000001,"N_COORD97":2543053.2000000002,"ADDRESS":"東門路一段２９８號五樓之１３","OBJECTID":473152},"geometry":{"x":169698.48000000045,"y":2543053.2000000011}},{"attributes":{"ID":473178,"DIS_CODE":0,"TOWNNAME":"東區","LI":"龍山里","LIN":"18鄰","STREET":"東門路","SECT":"一段","MAREA":" ","LANE":" ","ALLEY":" ","HOUSE_NO":"２９８號五樓之１４","E_COORD97":169698.48000000001,"N_COORD97":2543053.2000000002,"ADDRESS":"東門路一段２９８號五樓之１４","OBJECTID":473153},"geometry":{"x":169698.48000000045,"y":2543053.2000000011}},{"attributes":{"ID":473179,"DIS_CODE":0,"TOWNNAME":"東區","LI":"龍山里","LIN":"18鄰","STREET":"東門路","SECT":"一段","MAREA":" ","LANE":" ","ALLEY":" ","HOUSE_NO":"２９８號五樓之１５","E_COORD97":169698.48000000001,"N_COORD97":2543053.2000000002,"ADDRESS":"東門路一段２９８號五樓之１５","OBJECTID":473154},"geometry":{"x":169698.48000000045,"y":2543053.2000000011}},{"attributes":{"ID":473180,"DIS_CODE":0,"TOWNNAME":"東區","LI":"龍山里","LIN":"18鄰","STREET":"東門路","SECT":"一段","MAREA":" ","LANE":" ","ALLEY":" ","HOUSE_NO":"２９８號六樓","E_COORD97":169698.48000000001,"N_COORD97":2543053.2000000002,"ADDRESS":"東門路一段２９８號六樓","OBJECTID":473155},"geometry":{"x":169698.48000000045,"y":2543053.2000000011}},{"attributes":{"ID":473181,"DIS_CODE":0,"TOWNNAME":"東區","LI":"龍山里","LIN":"18鄰","STREET":"東門路","SECT":"一段","MAREA":" ","LANE":" ","ALLEY":" ","HOUSE_NO":"２９８號六樓之１","E_COORD97":169698.48000000001,"N_COORD97":2543053.2000000002,"ADDRESS":"東門路一段２９８號六樓之１","OBJECTID":473156},"geometry":{"x":169698.48000000045,"y":2543053.2000000011}},{"attributes":{"ID":473182,"DIS_CODE":0,"TOWNNAME":"東區","LI":"龍山里","LIN":"18鄰","STREET":"東門路","SECT":"一段","MAREA":" ","LANE":" ","ALLEY":" ","HOUSE_NO":"２９８號六樓之２","E_COORD97":169698.48000000001,"N_COORD97":2543053.2000000002,"ADDRESS":"東門路一段２９８號六樓之２","OBJECTID":473157},"geometry":{"x":169698.48000000045,"y":2543053.2000000011}},{"attributes":{"ID":473183,"DIS_CODE":0,"TOWNNAME":"東區","LI":"龍山里","LIN":"18鄰","STREET":"東門路","SECT":"一段","MAREA":" ","LANE":" ","ALLEY":" ","HOUSE_NO":"２９８號六樓之３","E_COORD97":169698.48000000001,"N_COORD97":2543053.2000000002,"ADDRESS":"東門路一段２９８號六樓之３","OBJECTID":473158},"geometry":{"x":169698.48000000045,"y":2543053.2000000011}},{"attributes":{"ID":473184,"DIS_CODE":0,"TOWNNAME":"東區","LI":"龍山里","LIN":"18鄰","STREET":"東門路","SECT":"一段","MAREA":" ","LANE":" ","ALLEY":" ","HOUSE_NO":"２９８號六樓之４","E_COORD97":169698.48000000001,"N_COORD97":2543053.2000000002,"ADDRESS":"東門路一段２９８號六樓之４","OBJECTID":473159},"geometry":{"x":169698.48000000045,"y":2543053.2000000011}},{"attributes":{"ID":473185,"DIS_CODE":0,"TOWNNAME":"東區","LI":"龍山里","LIN":"18鄰","STREET":"東門路","SECT":"一段","MAREA":" ","LANE":" ","ALLEY":" ","HOUSE_NO":"２９８號六樓之５","E_COORD97":169698.48000000001,"N_COORD97":2543053.2000000002,"ADDRESS":"東門路一段２９８號六樓之５","OBJECTID":473160},"geometry":{"x":169698.48000000045,"y":2543053.2000000011}},{"attributes":{"ID":473186,"DIS_CODE":0,"TOWNNAME":"東區","LI":"龍山里","LIN":"18鄰","STREET":"東門路","SECT":"一段","MAREA":" ","LANE":" ","ALLEY":" ","HOUSE_NO":"２９８號六樓之６","E_COORD97":169698.48000000001,"N_COORD97":2543053.2000000002,"ADDRESS":"東門路一段２９８號六樓之６","OBJECTID":473161},"geometry":{"x":169698.48000000045,"y":2543053.2000000011}},{"attributes":{"ID":473187,"DIS_CODE":0,"TOWNNAME":"東區","LI":"龍山里","LIN":"18鄰","STREET":"東門路","SECT":"一段","MAREA":" ","LANE":" ","ALLEY":" ","HOUSE_NO":"２９８號六樓之７","E_COORD97":169698.48000000001,"N_COORD97":2543053.2000000002,"ADDRESS":"東門路一段２９８號六樓之７","OBJECTID":473162},"geometry":{"x":169698.48000000045,"y":2543053.2000000011}},{"attributes":{"ID":473188,"DIS_CODE":0,"TOWNNAME":"東區","LI":"龍山里","LIN":"18鄰","STREET":"東門路","SECT":"一段","MAREA":" ","LANE":" ","ALLEY":" ","HOUSE_NO":"２９８號六樓之８","E_COORD97":169698.48000000001,"N_COORD97":2543053.2000000002,"ADDRESS":"東門路一段２９８號六樓之８","OBJECTID":473163},"geometry":{"x":169698.48000000045,"y":2543053.2000000011}},{"attributes":{"ID":473189,"DIS_CODE":0,"TOWNNAME":"東區","LI":"龍山里","LIN":"18鄰","STREET":"東門路","SECT":"一段","MAREA":" ","LANE":" ","ALLEY":" ","HOUSE_NO":"２９８號六樓之９","E_COORD97":169698.48000000001,"N_COORD97":2543053.2000000002,"ADDRESS":"東門路一段２９８號六樓之９","OBJECTID":473164},"geometry":{"x":169698.48000000045,"y":2543053.2000000011}},{"attributes":{"ID":473190,"DIS_CODE":0,"TOWNNAME":"東區","LI":"龍山里","LIN":"18鄰","STREET":"東門路","SECT":"一段","MAREA":" ","LANE":" ","ALLEY":" ","HOUSE_NO":"２９８號六樓之１０","E_COORD97":169698.48000000001,"N_COORD97":2543053.2000000002,"ADDRESS":"東門路一段２９８號六樓之１０","OBJECTID":473165},"geometry":{"x":169698.48000000045,"y":2543053.2000000011}},{"attributes":{"ID":473191,"DIS_CODE":0,"TOWNNAME":"東區","LI":"龍山里","LIN":"18鄰","STREET":"東門路","SECT":"一段","MAREA":" ","LANE":" ","ALLEY":" ","HOUSE_NO":"２９８號六樓之１１","E_COORD97":169698.48000000001,"N_COORD97":2543053.2000000002,"ADDRESS":"東門路一段２９８號六樓之１１","OBJECTID":473166},"geometry":{"x":169698.48000000045,"y":2543053.2000000011}},{"attributes":{"ID":473192,"DIS_CODE":0,"TOWNNAME":"東區","LI":"龍山里","LIN":"18鄰","STREET":"東門路","SECT":"一段","MAREA":" ","LANE":" ","ALLEY":" ","HOUSE_NO":"２９８號六樓之１２","E_COORD97":169698.48000000001,"N_COORD97":2543053.2000000002,"ADDRESS":"東門路一段２９８號六樓之１２","OBJECTID":473167},"geometry":{"x":169698.48000000045,"y":2543053.2000000011}},{"attributes":{"ID":473193,"DIS_CODE":0,"TOWNNAME":"東區","LI":"龍山里","LIN":"18鄰","STREET":"東門路","SECT":"一段","MAREA":" ","LANE":" ","ALLEY":" ","HOUSE_NO":"２９８號六樓之１３","E_COORD97":169698.48000000001,"N_COORD97":2543053.2000000002,"ADDRESS":"東門路一段２９８號六樓之１３","OBJECTID":473168},"geometry":{"x":169698.48000000045,"y":2543053.2000000011}},{"attributes":{"ID":473194,"DIS_CODE":0,"TOWNNAME":"東區","LI":"龍山里","LIN":"18鄰","STREET":"東門路","SECT":"一段","MAREA":" ","LANE":" ","ALLEY":" ","HOUSE_NO":"２９８號六樓之１４","E_COORD97":169698.48000000001,"N_COORD97":2543053.2000000002,"ADDRESS":"東門路一段２９８號六樓之１４","OBJECTID":473169},"geometry":{"x":169698.48000000045,"y":2543053.2000000011}},{"attributes":{"ID":473195,"DIS_CODE":0,"TOWNNAME":"東區","LI":"龍山里","LIN":"18鄰","STREET":"東門路","SECT":"一段","MAREA":" ","LANE":" ","ALLEY":" ","HOUSE_NO":"２９８號七樓","E_COORD97":169698.48000000001,"N_COORD97":2543053.2000000002,"ADDRESS":"東門路一段２９８號七樓","OBJECTID":473170},"geometry":{"x":169698.48000000045,"y":2543053.2000000011}},{"attributes":{"ID":473196,"DIS_CODE":0,"TOWNNAME":"東區","LI":"龍山里","LIN":"18鄰","STREET":"東門路","SECT":"一段","MAREA":" ","LANE":" ","ALLEY":" ","HOUSE_NO":"２９８號七樓之１","E_COORD97":169698.48000000001,"N_COORD97":2543053.2000000002,"ADDRESS":"東門路一段２９８號七樓之１","OBJECTID":473171},"geometry":{"x":169698.48000000045,"y":2543053.2000000011}},{"attributes":{"ID":473197,"DIS_CODE":0,"TOWNNAME":"東區","LI":"龍山里","LIN":"18鄰","STREET":"東門路","SECT":"一段","MAREA":" ","LANE":" ","ALLEY":" ","HOUSE_NO":"２９８號七樓之２","E_COORD97":169698.48000000001,"N_COORD97":2543053.2000000002,"ADDRESS":"東門路一段２９８號七樓之２","OBJECTID":473172},"geometry":{"x":169698.48000000045,"y":2543053.2000000011}},{"attributes":{"ID":473198,"DIS_CODE":0,"TOWNNAME":"東區","LI":"龍山里","LIN":"18鄰","STREET":"東門路","SECT":"一段","MAREA":" ","LANE":" ","ALLEY":" ","HOUSE_NO":"２９８號七樓之３","E_COORD97":169698.48000000001,"N_COORD97":2543053.2000000002,"ADDRESS":"東門路一段２９８號七樓之３","OBJECTID":473173},"geometry":{"x":169698.48000000045,"y":2543053.2000000011}},{"attributes":{"ID":473199,"DIS_CODE":0,"TOWNNAME":"東區","LI":"龍山里","LIN":"18鄰","STREET":"東門路","SECT":"一段","MAREA":" ","LANE":" ","ALLEY":" ","HOUSE_NO":"２９８號七樓之４","E_COORD97":169698.48000000001,"N_COORD97":2543053.2000000002,"ADDRESS":"東門路一段２９８號七樓之４","OBJECTID":473174},"geometry":{"x":169698.48000000045,"y":2543053.2000000011}},{"attributes":{"ID":473200,"DIS_CODE":0,"TOWNNAME":"東區","LI":"龍山里","LIN":"18鄰","STREET":"東門路","SECT":"一段","MAREA":" ","LANE":" ","ALLEY":" ","HOUSE_NO":"２９８號七樓之５","E_COORD97":169698.48000000001,"N_COORD97":2543053.2000000002,"ADDRESS":"東門路一段２９８號七樓之５","OBJECTID":473175},"geometry":{"x":169698.48000000045,"y":2543053.2000000011}},{"attributes":{"ID":473201,"DIS_CODE":0,"TOWNNAME":"東區","LI":"龍山里","LIN":"18鄰","STREET":"東門路","SECT":"一段","MAREA":" ","LANE":" ","ALLEY":" ","HOUSE_NO":"２９８號七樓之６","E_COORD97":169698.48000000001,"N_COORD97":2543053.2000000002,"ADDRESS":"東門路一段２９８號七樓之６","OBJECTID":473176},"geometry":{"x":169698.48000000045,"y":2543053.2000000011}},{"attributes":{"ID":473202,"DIS_CODE":0,"TOWNNAME":"東區","LI":"龍山里","LIN":"18鄰","STREET":"東門路","SECT":"一段","MAREA":" ","LANE":" ","ALLEY":" ","HOUSE_NO":"２９８號七樓之７","E_COORD97":169698.48000000001,"N_COORD97":2543053.2000000002,"ADDRESS":"東門路一段２９８號七樓之７","OBJECTID":473177},"geometry":{"x":169698.48000000045,"y":2543053.2000000011}},{"attributes":{"ID":473203,"DIS_CODE":0,"TOWNNAME":"東區","LI":"龍山里","LIN":"18鄰","STREET":"東門路","SECT":"一段","MAREA":" ","LANE":" ","ALLEY":" ","HOUSE_NO":"２９８號七樓之８","E_COORD97":169698.48000000001,"N_COORD97":2543053.2000000002,"ADDRESS":"東門路一段２９８號七樓之８","OBJECTID":473178},"geometry":{"x":169698.48000000045,"y":2543053.2000000011}},{"attributes":{"ID":473204,"DIS_CODE":0,"TOWNNAME":"東區","LI":"龍山里","LIN":"18鄰","STREET":"東門路","SECT":"一段","MAREA":" ","LANE":" ","ALLEY":" ","HOUSE_NO":"２９８號七樓之９","E_COORD97":169698.48000000001,"N_COORD97":2543053.2000000002,"ADDRESS":"東門路一段２９８號七樓之９","OBJECTID":473179},"geometry":{"x":169698.48000000045,"y":2543053.2000000011}},{"attributes":{"ID":473205,"DIS_CODE":0,"TOWNNAME":"東區","LI":"龍山里","LIN":"18鄰","STREET":"東門路","SECT":"一段","MAREA":" ","LANE":" ","ALLEY":" ","HOUSE_NO":"２９８號七樓之１０","E_COORD97":169698.48000000001,"N_COORD97":2543053.2000000002,"ADDRESS":"東門路一段２９８號七樓之１０","OBJECTID":473180},"geometry":{"x":169698.48000000045,"y":2543053.2000000011}},{"attributes":{"ID":473206,"DIS_CODE":0,"TOWNNAME":"東區","LI":"龍山里","LIN":"18鄰","STREET":"東門路","SECT":"一段","MAREA":" ","LANE":" ","ALLEY":" ","HOUSE_NO":"２９８號七樓之１１","E_COORD97":169698.48000000001,"N_COORD97":2543053.2000000002,"ADDRESS":"東門路一段２９８號七樓之１１","OBJECTID":473181},"geometry":{"x":169698.48000000045,"y":2543053.2000000011}},{"attributes":{"ID":473207,"DIS_CODE":0,"TOWNNAME":"東區","LI":"龍山里","LIN":"18鄰","STREET":"東門路","SECT":"一段","MAREA":" ","LANE":" ","ALLEY":" ","HOUSE_NO":"２９８號七樓之１２","E_COORD97":169698.48000000001,"N_COORD97":2543053.2000000002,"ADDRESS":"東門路一段２９８號七樓之１２","OBJECTID":473182},"geometry":{"x":169698.48000000045,"y":2543053.2000000011}},{"attributes":{"ID":473208,"DIS_CODE":0,"TOWNNAME":"東區","LI":"龍山里","LIN":"18鄰","STREET":"東門路","SECT":"一段","MAREA":" ","LANE":" ","ALLEY":" ","HOUSE_NO":"２９８號七樓之１３","E_COORD97":169698.48000000001,"N_COORD97":2543053.2000000002,"ADDRESS":"東門路一段２９８號七樓之１３","OBJECTID":473183},"geometry":{"x":169698.48000000045,"y":2543053.2000000011}},{"attributes":{"ID":473209,"DIS_CODE":0,"TOWNNAME":"東區","LI":"龍山里","LIN":"18鄰","STREET":"東門路","SECT":"一段","MAREA":" ","LANE":" ","ALLEY":" ","HOUSE_NO":"２９８號七樓之１４","E_COORD97":169698.48000000001,"N_COORD97":2543053.2000000002,"ADDRESS":"東門路一段２９８號七樓之１４","OBJECTID":473184},"geometry":{"x":169698.48000000045,"y":2543053.2000000011}},{"attributes":{"ID":473210,"DIS_CODE":0,"TOWNNAME":"東區","LI":"龍山里","LIN":"18鄰","STREET":"東門路","SECT":"一段","MAREA":" ","LANE":" ","ALLEY":" ","HOUSE_NO":"２９８號八樓","E_COORD97":169698.48000000001,"N_COORD97":2543053.2000000002,"ADDRESS":"東門路一段２９８號八樓","OBJECTID":473185},"geometry":{"x":169698.48000000045,"y":2543053.2000000011}},{"attributes":{"ID":473211,"DIS_CODE":0,"TOWNNAME":"東區","LI":"龍山里","LIN":"18鄰","STREET":"東門路","SECT":"一段","MAREA":" ","LANE":" ","ALLEY":" ","HOUSE_NO":"２９８號八樓之１","E_COORD97":169698.48000000001,"N_COORD97":2543053.2000000002,"ADDRESS":"東門路一段２９８號八樓之１","OBJECTID":473186},"geometry":{"x":169698.48000000045,"y":2543053.2000000011}},{"attributes":{"ID":473212,"DIS_CODE":0,"TOWNNAME":"東區","LI":"龍山里","LIN":"18鄰","STREET":"東門路","SECT":"一段","MAREA":" ","LANE":" ","ALLEY":" ","HOUSE_NO":"２９８號八樓之２","E_COORD97":169698.48000000001,"N_COORD97":2543053.2000000002,"ADDRESS":"東門路一段２９８號八樓之２","OBJECTID":473187},"geometry":{"x":169698.48000000045,"y":2543053.2000000011}},{"attributes":{"ID":473213,"DIS_CODE":0,"TOWNNAME":"東區","LI":"龍山里","LIN":"18鄰","STREET":"東門路","SECT":"一段","MAREA":" ","LANE":" ","ALLEY":" ","HOUSE_NO":"２９８號八樓之３","E_COORD97":169698.48000000001,"N_COORD97":2543053.2000000002,"ADDRESS":"東門路一段２９８號八樓之３","OBJECTID":473188},"geometry":{"x":169698.48000000045,"y":2543053.2000000011}},{"attributes":{"ID":473214,"DIS_CODE":0,"TOWNNAME":"東區","LI":"龍山里","LIN":"18鄰","STREET":"東門路","SECT":"一段","MAREA":" ","LANE":" ","ALLEY":" ","HOUSE_NO":"２９８號八樓之４","E_COORD97":169698.48000000001,"N_COORD97":2543053.2000000002,"ADDRESS":"東門路一段２９８號八樓之４","OBJECTID":473189},"geometry":{"x":169698.48000000045,"y":2543053.2000000011}},{"attributes":{"ID":473215,"DIS_CODE":0,"TOWNNAME":"東區","LI":"龍山里","LIN":"18鄰","STREET":"東門路","SECT":"一段","MAREA":" ","LANE":" ","ALLEY":" ","HOUSE_NO":"２９８號八樓之５","E_COORD97":169698.48000000001,"N_COORD97":2543053.2000000002,"ADDRESS":"東門路一段２９８號八樓之５","OBJECTID":473190},"geometry":{"x":169698.48000000045,"y":2543053.2000000011}},{"attributes":{"ID":473216,"DIS_CODE":0,"TOWNNAME":"東區","LI":"龍山里","LIN":"18鄰","STREET":"東門路","SECT":"一段","MAREA":" ","LANE":" ","ALLEY":" ","HOUSE_NO":"２９８號八樓之６","E_COORD97":169698.48000000001,"N_COORD97":2543053.2000000002,"ADDRESS":"東門路一段２９８號八樓之６","OBJECTID":473191},"geometry":{"x":169698.48000000045,"y":2543053.2000000011}},{"attributes":{"ID":473217,"DIS_CODE":0,"TOWNNAME":"東區","LI":"龍山里","LIN":"18鄰","STREET":"東門路","SECT":"一段","MAREA":" ","LANE":" ","ALLEY":" ","HOUSE_NO":"２９８號八樓之７","E_COORD97":169698.48000000001,"N_COORD97":2543053.2000000002,"ADDRESS":"東門路一段２９８號八樓之７","OBJECTID":473192},"geometry":{"x":169698.48000000045,"y":2543053.2000000011}},{"attributes":{"ID":473218,"DIS_CODE":0,"TOWNNAME":"東區","LI":"龍山里","LIN":"18鄰","STREET":"東門路","SECT":"一段","MAREA":" ","LANE":" ","ALLEY":" ","HOUSE_NO":"２９８號八樓之８","E_COORD97":169698.48000000001,"N_COORD97":2543053.2000000002,"ADDRESS":"東門路一段２９８號八樓之８","OBJECTID":473193},"geometry":{"x":169698.48000000045,"y":2543053.2000000011}},{"attributes":{"ID":473219,"DIS_CODE":0,"TOWNNAME":"東區","LI":"龍山里","LIN":"18鄰","STREET":"東門路","SECT":"一段","MAREA":" ","LANE":" ","ALLEY":" ","HOUSE_NO":"２９８號八樓之９","E_COORD97":169698.48000000001,"N_COORD97":2543053.2000000002,"ADDRESS":"東門路一段２９８號八樓之９","OBJECTID":473194},"geometry":{"x":169698.48000000045,"y":2543053.2000000011}},{"attributes":{"ID":473220,"DIS_CODE":0,"TOWNNAME":"東區","LI":"龍山里","LIN":"18鄰","STREET":"東門路","SECT":"一段","MAREA":" ","LANE":" ","ALLEY":" ","HOUSE_NO":"２９８號八樓之１０","E_COORD97":169698.48000000001,"N_COORD97":2543053.2000000002,"ADDRESS":"東門路一段２９８號八樓之１０","OBJECTID":473195},"geometry":{"x":169698.48000000045,"y":2543053.2000000011}},{"attributes":{"ID":473221,"DIS_CODE":0,"TOWNNAME":"東區","LI":"龍山里","LIN":"18鄰","STREET":"東門路","SECT":"一段","MAREA":" ","LANE":" ","ALLEY":" ","HOUSE_NO":"２９８號八樓之１１","E_COORD97":169698.48000000001,"N_COORD97":2543053.2000000002,"ADDRESS":"東門路一段２９８號八樓之１１","OBJECTID":473196},"geometry":{"x":169698.48000000045,"y":2543053.2000000011}},{"attributes":{"ID":473222,"DIS_CODE":0,"TOWNNAME":"東區","LI":"龍山里","LIN":"18鄰","STREET":"東門路","SECT":"一段","MAREA":" ","LANE":" ","ALLEY":" ","HOUSE_NO":"２９８號八樓之１２","E_COORD97":169698.48000000001,"N_COORD97":2543053.2000000002,"ADDRESS":"東門路一段２９８號八樓之１２","OBJECTID":473197},"geometry":{"x":169698.48000000045,"y":2543053.2000000011}},{"attributes":{"ID":473223,"DIS_CODE":0,"TOWNNAME":"東區","LI":"龍山里","LIN":"18鄰","STREET":"東門路","SECT":"一段","MAREA":" ","LANE":" ","ALLEY":" ","HOUSE_NO":"２９８號八樓之１３","E_COORD97":169698.48000000001,"N_COORD97":2543053.2000000002,"ADDRESS":"東門路一段２９８號八樓之１３","OBJECTID":473198},"geometry":{"x":169698.48000000045,"y":2543053.2000000011}},{"attributes":{"ID":473224,"DIS_CODE":0,"TOWNNAME":"東區","LI":"龍山里","LIN":"18鄰","STREET":"東門路","SECT":"一段","MAREA":" ","LANE":" ","ALLEY":" ","HOUSE_NO":"２９８號九樓","E_COORD97":169698.48000000001,"N_COORD97":2543053.2000000002,"ADDRESS":"東門路一段２９８號九樓","OBJECTID":473199},"geometry":{"x":169698.48000000045,"y":2543053.2000000011}},{"attributes":{"ID":473225,"DIS_CODE":0,"TOWNNAME":"北區","LI":"永祥里","LIN":"17鄰","STREET":"大武街","SECT":" ","MAREA":" ","LANE":"５４２巷","ALLEY":" ","HOUSE_NO":"２４號","E_COORD97":170208.45999999999,"N_COORD97":2546338.5800000001,"ADDRESS":"大武街５４２巷２４號","OBJECTID":473200},"geometry":{"x":170208.45999999996,"y":2546338.5800000001}}]}