{"displayFieldName":"TOWNNAME","fieldAliases":{"ID":"ID","DIS_CODE":"DIS_CODE","TOWNNAME":"TOWNNAME","LI":"LI","LIN":"LIN","STREET":"STREET","SECT":"SECT","MAREA":"MAREA","LANE":"LANE","ALLEY":"ALLEY","HOUSE_NO":"HOUSE_NO","E_COORD97":"E_COORD97","N_COORD97":"N_COORD97","ADDRESS":"ADDRESS","OBJECTID":"OBJECTID"},"geometryType":"esriGeometryPoint","spatialReference":{"wkid":102443,"latestWkid":3826},"fields":[{"name":"ID","type":"esriFieldTypeDouble","alias":"ID"},{"name":"DIS_CODE","type":"esriFieldTypeInteger","alias":"DIS_CODE"},{"name":"TOWNNAME","type":"esriFieldTypeString","alias":"TOWNNAME","length":8},{"name":"LI","type":"esriFieldTypeString","alias":"LI","length":8},{"name":"LIN","type":"esriFieldTypeString","alias":"LIN","length":12},{"name":"STREET","type":"esriFieldTypeString","alias":"STREET","length":20},{"name":"SECT","type":"esriFieldTypeString","alias":"SECT","length":8},{"name":"MAREA","type":"esriFieldTypeString","alias":"MAREA","length":12},{"name":"LANE","type":"esriFieldTypeString","alias":"LANE","length":10},{"name":"ALLEY","type":"esriFieldTypeString","alias":"ALLEY","length":10},{"name":"HOUSE_NO","type":"esriFieldTypeString","alias":"HOUSE_NO","length":20},{"name":"E_COORD97","type":"esriFieldTypeDouble","alias":"E_COORD97"},{"name":"N_COORD97","type":"esriFieldTypeDouble","alias":"N_COORD97"},{"name":"ADDRESS","type":"esriFieldTypeString","alias":"ADDRESS","length":50},{"name":"OBJECTID","type":"esriFieldTypeOID","alias":"OBJECTID"}],"features":[{"attributes":{"ID":56201,"DIS_CODE":0,"TOWNNAME":"北門區","LI":"東壁里","LIN":"8鄰","STREET":" ","SECT":" ","MAREA":"蚵寮","LANE":" ","ALLEY":" ","HOUSE_NO":"６４１號","E_COORD97":161684.73000000001,"N_COORD97":2576383.5299999998,"ADDRESS":"蚵寮６４１號","OBJECTID":56201},"geometry":{"x":161684.73000000138,"y":2576383.5299999993}},{"attributes":{"ID":56202,"DIS_CODE":0,"TOWNNAME":"北門區","LI":"東壁里","LIN":"8鄰","STREET":" ","SECT":" ","MAREA":"蚵寮","LANE":" ","ALLEY":" ","HOUSE_NO":"６４２號","E_COORD97":161676.06,"N_COORD97":2576407.9300000002,"ADDRESS":"蚵寮６４２號","OBJECTID":56202},"geometry":{"x":161676.06000000052,"y":2576407.9299999997}},{"attributes":{"ID":56203,"DIS_CODE":0,"TOWNNAME":"新市區","LI":"大社里","LIN":"8鄰","STREET":" ","SECT":" ","MAREA":"大社","LANE":" ","ALLEY":" ","HOUSE_NO":"２７７號之５","E_COORD97":180409.81,"N_COORD97":2554496.7999999998,"ADDRESS":"大社２７７號之５","OBJECTID":56203},"geometry":{"x":180409.81000000052,"y":2554496.8000000026}},{"attributes":{"ID":56204,"DIS_CODE":0,"TOWNNAME":"新市區","LI":"大社里","LIN":"8鄰","STREET":" ","SECT":" ","MAREA":"大社","LANE":" ","ALLEY":" ","HOUSE_NO":"２７８號","E_COORD97":180447.42999999999,"N_COORD97":2554484.25,"ADDRESS":"大社２７８號","OBJECTID":56204},"geometry":{"x":180447.4299999997,"y":2554484.25}},{"attributes":{"ID":56205,"DIS_CODE":0,"TOWNNAME":"新市區","LI":"三舍里","LIN":"8鄰","STREET":" ","SECT":" ","MAREA":"三舍","LANE":" ","ALLEY":" ","HOUSE_NO":"１８２之１５號","E_COORD97":177387.95999999999,"N_COORD97":2554926.0499999998,"ADDRESS":"三舍１８２之１５號","OBJECTID":56205},"geometry":{"x":177387.96000000183,"y":2554926.0500000026}},{"attributes":{"ID":56206,"DIS_CODE":0,"TOWNNAME":"新市區","LI":"大社里","LIN":"8鄰","STREET":" ","SECT":" ","MAREA":"大社","LANE":" ","ALLEY":" ","HOUSE_NO":"２７９之３號","E_COORD97":180347.98000000001,"N_COORD97":2554530.5499999998,"ADDRESS":"大社２７９之３號","OBJECTID":56206},"geometry":{"x":180347.97999999952,"y":2554530.5500000007}},{"attributes":{"ID":56207,"DIS_CODE":0,"TOWNNAME":"安平區","LI":"國平里","LIN":"1鄰","STREET":"建平七街","SECT":" ","MAREA":" ","LANE":"３７０巷","ALLEY":"１３１弄","HOUSE_NO":"６３號","E_COORD97":165566.07000000001,"N_COORD97":2543373.2999999998,"ADDRESS":"建平七街３７０巷１３１弄６３號","OBJECTID":56207},"geometry":{"x":165566.07000000123,"y":2543373.3000000026}},{"attributes":{"ID":56208,"DIS_CODE":0,"TOWNNAME":"安平區","LI":"國平里","LIN":"1鄰","STREET":"建平七街","SECT":" ","MAREA":" ","LANE":"３７０巷","ALLEY":"１３１弄","HOUSE_NO":"６５號","E_COORD97":165551.42999999999,"N_COORD97":2543373.8700000001,"ADDRESS":"建平七街３７０巷１３１弄６５號","OBJECTID":56208},"geometry":{"x":165551.4299999997,"y":2543373.870000001}},{"attributes":{"ID":56209,"DIS_CODE":0,"TOWNNAME":"新營區","LI":"護鎮里","LIN":"1鄰","STREET":"建國路","SECT":" ","MAREA":" ","LANE":"１６９巷","ALLEY":"２６弄","HOUSE_NO":"６號","E_COORD97":179510.07999999999,"N_COORD97":2580806.5600000001,"ADDRESS":"建國路１６９巷２６弄６號","OBJECTID":56209},"geometry":{"x":179510.08000000101,"y":2580806.5600000042}},{"attributes":{"ID":56210,"DIS_CODE":0,"TOWNNAME":"新營區","LI":"護鎮里","LIN":"1鄰","STREET":"建國路","SECT":" ","MAREA":" ","LANE":"１６９巷","ALLEY":"２６弄","HOUSE_NO":"６之２號","E_COORD97":179487.25,"N_COORD97":2580855.4500000002,"ADDRESS":"建國路１６９巷２６弄６之２號","OBJECTID":56210},"geometry":{"x":179487.25,"y":2580855.4499999993}},{"attributes":{"ID":56211,"DIS_CODE":0,"TOWNNAME":"新營區","LI":"嘉芳里","LIN":"1鄰","STREET":"復興路","SECT":" ","MAREA":" ","LANE":"７００巷","ALLEY":"８９弄","HOUSE_NO":"９６號","E_COORD97":177544.60000000001,"N_COORD97":2578918.9700000002,"ADDRESS":"復興路７００巷８９弄９６號","OBJECTID":56211},"geometry":{"x":177544.60000000056,"y":2578918.9700000044}},{"attributes":{"ID":56212,"DIS_CODE":0,"TOWNNAME":"六甲區","LI":"龍湖里","LIN":"1鄰","STREET":"中正路","SECT":" ","MAREA":" ","LANE":"１６３巷","ALLEY":"１０弄","HOUSE_NO":"６號","E_COORD97":183346.89999999999,"N_COORD97":2569050.1400000001,"ADDRESS":"中正路１６３巷１０弄６號","OBJECTID":56212},"geometry":{"x":183346.90000000037,"y":2569050.1400000006}},{"attributes":{"ID":56213,"DIS_CODE":0,"TOWNNAME":"歸仁區","LI":"歸仁里","LIN":"8鄰","STREET":"大通一街","SECT":" ","MAREA":" ","LANE":" ","ALLEY":" ","HOUSE_NO":"１１７號","E_COORD97":177883.82000000001,"N_COORD97":2541009.9199999999,"ADDRESS":"大通一街１１７號","OBJECTID":56213},"geometry":{"x":177883.8200000003,"y":2541009.9199999999}},{"attributes":{"ID":56214,"DIS_CODE":0,"TOWNNAME":"柳營區","LI":"八翁里","LIN":"1鄰","STREET":"中山西路","SECT":"三段","MAREA":" ","LANE":"６０６巷","ALLEY":"３５弄","HOUSE_NO":"３６號","E_COORD97":178438.45000000001,"N_COORD97":2575168.04,"ADDRESS":"中山西路三段６０６巷３５弄３６號","OBJECTID":56214},"geometry":{"x":178438.45000000019,"y":2575168.040000001}},{"attributes":{"ID":56215,"DIS_CODE":0,"TOWNNAME":"北區","LI":"國興里","LIN":"1鄰","STREET":"開元路","SECT":" ","MAREA":" ","LANE":"３４２巷","ALLEY":"８弄","HOUSE_NO":"１０號","E_COORD97":170455.12,"N_COORD97":2545486.6699999999,"ADDRESS":"開元路３４２巷８弄１０號","OBJECTID":56215},"geometry":{"x":170455.12000000011,"y":2545486.6699999999}},{"attributes":{"ID":56216,"DIS_CODE":0,"TOWNNAME":"北區","LI":"國興里","LIN":"1鄰","STREET":"開元路","SECT":" ","MAREA":" ","LANE":"３４２巷","ALLEY":"８弄","HOUSE_NO":"１１號","E_COORD97":170473.78,"N_COORD97":2545490.1600000001,"ADDRESS":"開元路３４２巷８弄１１號","OBJECTID":56216},"geometry":{"x":170473.78000000119,"y":2545490.1600000001}},{"attributes":{"ID":56217,"DIS_CODE":0,"TOWNNAME":"北區","LI":"國興里","LIN":"1鄰","STREET":"開元路","SECT":" ","MAREA":" ","LANE":"３４２巷","ALLEY":"８弄","HOUSE_NO":"１２號","E_COORD97":170459.44,"N_COORD97":2545482.5899999999,"ADDRESS":"開元路３４２巷８弄１２號","OBJECTID":56217},"geometry":{"x":170459.44000000041,"y":2545482.5900000017}},{"attributes":{"ID":56218,"DIS_CODE":0,"TOWNNAME":"佳里區","LI":"頂\u25A0里","LIN":"1鄰","STREET":" ","SECT":" ","MAREA":"頂\u25A0","LANE":" ","ALLEY":" ","HOUSE_NO":"４號之１２","E_COORD97":163274.45999999999,"N_COORD97":2563818.2999999998,"ADDRESS":"頂\u25A0４號之１２","OBJECTID":56218},"geometry":{"x":163274.46000000089,"y":2563818.3000000007}},{"attributes":{"ID":56219,"DIS_CODE":0,"TOWNNAME":"佳里區","LI":"頂\u25A0里","LIN":"1鄰","STREET":" ","SECT":" ","MAREA":"頂\u25A0","LANE":" ","ALLEY":" ","HOUSE_NO":"４號之１３","E_COORD97":163274.39999999999,"N_COORD97":2563822.8799999999,"ADDRESS":"頂\u25A0４號之１３","OBJECTID":56219},"geometry":{"x":163274.40000000037,"y":2563822.879999999}},{"attributes":{"ID":56220,"DIS_CODE":0,"TOWNNAME":"佳里區","LI":"頂\u25A0里","LIN":"1鄰","STREET":" ","SECT":" ","MAREA":"頂\u25A0","LANE":" ","ALLEY":" ","HOUSE_NO":"４號之１５","E_COORD97":163273.42000000001,"N_COORD97":2563834.0699999998,"ADDRESS":"頂\u25A0４號之１５","OBJECTID":56220},"geometry":{"x":163273.41999999993,"y":2563834.070000004}},{"attributes":{"ID":56221,"DIS_CODE":0,"TOWNNAME":"北區","LI":"國興里","LIN":"1鄰","STREET":"開元路","SECT":" ","MAREA":" ","LANE":"３４２巷","ALLEY":"８弄","HOUSE_NO":"１３號","E_COORD97":170474.13,"N_COORD97":2545486.52,"ADDRESS":"開元路３４２巷８弄１３號","OBJECTID":56221},"geometry":{"x":170474.13000000082,"y":2545486.5200000014}},{"attributes":{"ID":56222,"DIS_CODE":0,"TOWNNAME":"北區","LI":"國興里","LIN":"1鄰","STREET":"開元路","SECT":" ","MAREA":" ","LANE":"３４２巷","ALLEY":"８弄","HOUSE_NO":"１５號","E_COORD97":170474.81,"N_COORD97":2545482.6899999999,"ADDRESS":"開元路３４２巷８弄１５號","OBJECTID":56222},"geometry":{"x":170474.80999999959,"y":2545482.6899999995}},{"attributes":{"ID":56223,"DIS_CODE":0,"TOWNNAME":"北區","LI":"國興里","LIN":"1鄰","STREET":"開元路","SECT":" ","MAREA":" ","LANE":"３４２巷","ALLEY":"８弄","HOUSE_NO":"１７號","E_COORD97":170475.29000000001,"N_COORD97":2545477.7000000002,"ADDRESS":"開元路３４２巷８弄１７號","OBJECTID":56223},"geometry":{"x":170475.29000000097,"y":2545477.7000000011}},{"attributes":{"ID":56224,"DIS_CODE":0,"TOWNNAME":"北區","LI":"國興里","LIN":"1鄰","STREET":"開元路","SECT":" ","MAREA":" ","LANE":"３４２巷","ALLEY":"８弄","HOUSE_NO":"１號","E_COORD97":170469.72,"N_COORD97":2545509.27,"ADDRESS":"開元路３４２巷８弄１號","OBJECTID":56224},"geometry":{"x":170469.72000000067,"y":2545509.2699999996}},{"attributes":{"ID":56225,"DIS_CODE":0,"TOWNNAME":"北區","LI":"國興里","LIN":"1鄰","STREET":"開元路","SECT":" ","MAREA":" ","LANE":"３４２巷","ALLEY":"８弄","HOUSE_NO":"２號","E_COORD97":170455.41,"N_COORD97":2545507.5800000001,"ADDRESS":"開元路３４２巷８弄２號","OBJECTID":56225},"geometry":{"x":170455.41000000108,"y":2545507.5800000001}},{"attributes":{"ID":56226,"DIS_CODE":0,"TOWNNAME":"北區","LI":"國興里","LIN":"1鄰","STREET":"開元路","SECT":" ","MAREA":" ","LANE":"３４２巷","ALLEY":"８弄","HOUSE_NO":"３號","E_COORD97":170469.91,"N_COORD97":2545505.0499999998,"ADDRESS":"開元路３４２巷８弄３號","OBJECTID":56226},"geometry":{"x":170469.91000000015,"y":2545505.0500000007}},{"attributes":{"ID":56227,"DIS_CODE":0,"TOWNNAME":"北區","LI":"國興里","LIN":"1鄰","STREET":"開元路","SECT":" ","MAREA":" ","LANE":"３４２巷","ALLEY":"８弄","HOUSE_NO":"４號","E_COORD97":170455.12,"N_COORD97":2545502.98,"ADDRESS":"開元路３４２巷８弄４號","OBJECTID":56227},"geometry":{"x":170455.12000000011,"y":2545502.9800000042}},{"attributes":{"ID":56228,"DIS_CODE":0,"TOWNNAME":"北區","LI":"國興里","LIN":"1鄰","STREET":"開元路","SECT":" ","MAREA":" ","LANE":"３４２巷","ALLEY":"８弄","HOUSE_NO":"５號","E_COORD97":170470.76999999999,"N_COORD97":2545501.21,"ADDRESS":"開元路３４２巷８弄５號","OBJECTID":56228},"geometry":{"x":170470.77000000142,"y":2545501.2100000009}},{"attributes":{"ID":56229,"DIS_CODE":0,"TOWNNAME":"北區","LI":"國興里","LIN":"1鄰","STREET":"開元路","SECT":" ","MAREA":" ","LANE":"３４２巷","ALLEY":"８弄","HOUSE_NO":"６號","E_COORD97":170454.84,"N_COORD97":2545496.8399999999,"ADDRESS":"開元路３４２巷８弄６號","OBJECTID":56229},"geometry":{"x":170454.83999999985,"y":2545496.8400000036}},{"attributes":{"ID":56230,"DIS_CODE":0,"TOWNNAME":"北區","LI":"國興里","LIN":"1鄰","STREET":"開元路","SECT":" ","MAREA":" ","LANE":"３４２巷","ALLEY":"８弄","HOUSE_NO":"７號","E_COORD97":170471.82999999999,"N_COORD97":2545497.6600000001,"ADDRESS":"開元路３４２巷８弄７號","OBJECTID":56230},"geometry":{"x":170471.83000000007,"y":2545497.6600000001}},{"attributes":{"ID":56231,"DIS_CODE":0,"TOWNNAME":"佳里區","LI":"頂\u25A0里","LIN":"1鄰","STREET":" ","SECT":" ","MAREA":"頂\u25A0","LANE":" ","ALLEY":" ","HOUSE_NO":"４號之１６","E_COORD97":163273.16,"N_COORD97":2563840.6099999999,"ADDRESS":"頂\u25A0４號之１６","OBJECTID":56231},"geometry":{"x":163273.16000000108,"y":2563840.6100000013}},{"attributes":{"ID":56232,"DIS_CODE":0,"TOWNNAME":"佳里區","LI":"頂\u25A0里","LIN":"1鄰","STREET":" ","SECT":" ","MAREA":"頂\u25A0","LANE":" ","ALLEY":" ","HOUSE_NO":"４號之３","E_COORD97":163278.78,"N_COORD97":2563796.9900000002,"ADDRESS":"頂\u25A0４號之３","OBJECTID":56232},"geometry":{"x":163278.78000000212,"y":2563796.9899999984}},{"attributes":{"ID":56233,"DIS_CODE":0,"TOWNNAME":"北區","LI":"國興里","LIN":"1鄰","STREET":"開元路","SECT":" ","MAREA":" ","LANE":"３４２巷","ALLEY":"８弄","HOUSE_NO":"８號","E_COORD97":170455.22,"N_COORD97":2545490.7000000002,"ADDRESS":"開元路３４２巷８弄８號","OBJECTID":56233},"geometry":{"x":170455.21999999974,"y":2545490.7000000011}},{"attributes":{"ID":56234,"DIS_CODE":0,"TOWNNAME":"北區","LI":"國興里","LIN":"1鄰","STREET":"開元路","SECT":" ","MAREA":" ","LANE":"３４２巷","ALLEY":"８弄","HOUSE_NO":"９號","E_COORD97":170472.69,"N_COORD97":2545493.73,"ADDRESS":"開元路３４２巷８弄９號","OBJECTID":56234},"geometry":{"x":170472.69000000134,"y":2545493.7300000004}},{"attributes":{"ID":56235,"DIS_CODE":0,"TOWNNAME":"南區","LI":"府南里","LIN":"1鄰","STREET":"金華路","SECT":"一段","MAREA":" ","LANE":"４８４巷","ALLEY":"３７弄","HOUSE_NO":"８號","E_COORD97":167153.45000000001,"N_COORD97":2541485.2200000002,"ADDRESS":"金華路一段４８４巷３７弄８號","OBJECTID":56235},"geometry":{"x":167153.45000000112,"y":2541485.2200000025}},{"attributes":{"ID":56236,"DIS_CODE":0,"TOWNNAME":"南區","LI":"府南里","LIN":"1鄰","STREET":"金華路","SECT":"一段","MAREA":" ","LANE":"４８４巷","ALLEY":"３７弄","HOUSE_NO":"３４號","E_COORD97":167165.04999999999,"N_COORD97":2541522.6099999999,"ADDRESS":"金華路一段４８４巷３７弄３４號","OBJECTID":56236},"geometry":{"x":167165.04999999888,"y":2541522.6099999994}},{"attributes":{"ID":56237,"DIS_CODE":0,"TOWNNAME":"南區","LI":"府南里","LIN":"1鄰","STREET":"金華路","SECT":"一段","MAREA":" ","LANE":"４８４巷","ALLEY":"３７弄","HOUSE_NO":"２２號","E_COORD97":167154.89000000001,"N_COORD97":2541504.5299999998,"ADDRESS":"金華路一段４８４巷３７弄２２號","OBJECTID":56237},"geometry":{"x":167154.8900000006,"y":2541504.5300000031}},{"attributes":{"ID":56238,"DIS_CODE":0,"TOWNNAME":"南區","LI":"府南里","LIN":"1鄰","STREET":"金華路","SECT":"一段","MAREA":" ","LANE":"４８４巷","ALLEY":"３７弄","HOUSE_NO":"２４號","E_COORD97":167149.72,"N_COORD97":2541505.6899999999,"ADDRESS":"金華路一段４８４巷３７弄２４號","OBJECTID":56238},"geometry":{"x":167149.71999999974,"y":2541505.6899999995}},{"attributes":{"ID":56239,"DIS_CODE":0,"TOWNNAME":"南區","LI":"府南里","LIN":"1鄰","STREET":"金華路","SECT":"一段","MAREA":" ","LANE":"４８４巷","ALLEY":"３７弄","HOUSE_NO":"２６號","E_COORD97":167144.89999999999,"N_COORD97":2541509.8700000001,"ADDRESS":"金華路一段４８４巷３７弄２６號","OBJECTID":56239},"geometry":{"x":167144.9000000013,"y":2541509.870000001}},{"attributes":{"ID":56240,"DIS_CODE":0,"TOWNNAME":"官田區","LI":"湖山里","LIN":"8鄰","STREET":" ","SECT":" ","MAREA":"烏山頭","LANE":" ","ALLEY":" ","HOUSE_NO":"３９號之７","E_COORD97":183348.5,"N_COORD97":2567659.8599999999,"ADDRESS":"烏山頭３９號之７","OBJECTID":56240},"geometry":{"x":183348.50000000093,"y":2567659.8600000013}},{"attributes":{"ID":56241,"DIS_CODE":0,"TOWNNAME":"南區","LI":"府南里","LIN":"1鄰","STREET":"金華路","SECT":"一段","MAREA":" ","LANE":"４８４巷","ALLEY":"３７弄","HOUSE_NO":"２８號","E_COORD97":167151.32000000001,"N_COORD97":2541527.8700000001,"ADDRESS":"金華路一段４８４巷３７弄２８號","OBJECTID":56241},"geometry":{"x":167151.3200000003,"y":2541527.8700000029}},{"attributes":{"ID":56242,"DIS_CODE":0,"TOWNNAME":"南區","LI":"府南里","LIN":"1鄰","STREET":"金華路","SECT":"一段","MAREA":" ","LANE":"４８４巷","ALLEY":"３７弄","HOUSE_NO":"２號","E_COORD97":167138.20999999999,"N_COORD97":2541490.21,"ADDRESS":"金華路一段４８４巷３７弄２號","OBJECTID":56242},"geometry":{"x":167138.20999999996,"y":2541490.2100000009}},{"attributes":{"ID":56243,"DIS_CODE":0,"TOWNNAME":"南區","LI":"府南里","LIN":"1鄰","STREET":"金華路","SECT":"一段","MAREA":" ","LANE":"４８４巷","ALLEY":"３７弄","HOUSE_NO":"２號之１","E_COORD97":167143.47,"N_COORD97":2541488.8700000001,"ADDRESS":"金華路一段４８４巷３７弄２號之１","OBJECTID":56243},"geometry":{"x":167143.46999999881,"y":2541488.870000001}},{"attributes":{"ID":56244,"DIS_CODE":0,"TOWNNAME":"南區","LI":"府南里","LIN":"1鄰","STREET":"金華路","SECT":"一段","MAREA":" ","LANE":"４８４巷","ALLEY":"３７弄","HOUSE_NO":"３０號","E_COORD97":167155.69,"N_COORD97":2541526.5299999998,"ADDRESS":"金華路一段４８４巷３７弄３０號","OBJECTID":56244},"geometry":{"x":167155.69000000041,"y":2541526.5299999993}},{"attributes":{"ID":56245,"DIS_CODE":0,"TOWNNAME":"南區","LI":"府南里","LIN":"1鄰","STREET":"金華路","SECT":"一段","MAREA":" ","LANE":"４８４巷","ALLEY":"３７弄","HOUSE_NO":"３２號","E_COORD97":167160.67999999999,"N_COORD97":2541524.8399999999,"ADDRESS":"金華路一段４８４巷３７弄３２號","OBJECTID":56245},"geometry":{"x":167160.67999999877,"y":2541524.8399999999}},{"attributes":{"ID":56246,"DIS_CODE":0,"TOWNNAME":"南區","LI":"府南里","LIN":"1鄰","STREET":"金華路","SECT":"一段","MAREA":" ","LANE":"４８４巷","ALLEY":"３７弄","HOUSE_NO":"３６號","E_COORD97":167170.67000000001,"N_COORD97":2541521.1000000001,"ADDRESS":"金華路一段４８４巷３７弄３６號","OBJECTID":56246},"geometry":{"x":167170.66999999993,"y":2541521.1000000034}},{"attributes":{"ID":56247,"DIS_CODE":0,"TOWNNAME":"南區","LI":"府南里","LIN":"1鄰","STREET":"金華路","SECT":"一段","MAREA":" ","LANE":"４８４巷","ALLEY":"３７弄","HOUSE_NO":"３８號","E_COORD97":167174.85999999999,"N_COORD97":2541519.1400000001,"ADDRESS":"金華路一段４８４巷３７弄３８號","OBJECTID":56247},"geometry":{"x":167174.86000000034,"y":2541519.1400000025}},{"attributes":{"ID":56248,"DIS_CODE":0,"TOWNNAME":"南區","LI":"府南里","LIN":"1鄰","STREET":"金華路","SECT":"一段","MAREA":" ","LANE":"４８４巷","ALLEY":"３７弄","HOUSE_NO":"４０號","E_COORD97":167179.5,"N_COORD97":2541517.71,"ADDRESS":"金華路一段４８４巷３７弄４０號","OBJECTID":56248},"geometry":{"x":167179.50000000093,"y":2541517.7100000009}},{"attributes":{"ID":56249,"DIS_CODE":0,"TOWNNAME":"南區","LI":"府南里","LIN":"1鄰","STREET":"金華路","SECT":"一段","MAREA":" ","LANE":"４８４巷","ALLEY":"３７弄","HOUSE_NO":"４２號","E_COORD97":167184.39999999999,"N_COORD97":2541515.9300000002,"ADDRESS":"金華路一段４８４巷３７弄４２號","OBJECTID":56249},"geometry":{"x":167184.4000000013,"y":2541515.9300000016}},{"attributes":{"ID":56250,"DIS_CODE":0,"TOWNNAME":"南區","LI":"府南里","LIN":"1鄰","STREET":"金華路","SECT":"一段","MAREA":" ","LANE":"４８４巷","ALLEY":"３７弄","HOUSE_NO":"４６號","E_COORD97":167191.72,"N_COORD97":2541533.4500000002,"ADDRESS":"金華路一段４８４巷３７弄４６號","OBJECTID":56250},"geometry":{"x":167191.72000000067,"y":2541533.4500000011}},{"attributes":{"ID":56251,"DIS_CODE":0,"TOWNNAME":"南區","LI":"府南里","LIN":"1鄰","STREET":"金華路","SECT":"一段","MAREA":" ","LANE":"４８４巷","ALLEY":"３７弄","HOUSE_NO":"４８號","E_COORD97":167185.03,"N_COORD97":2541533.6200000001,"ADDRESS":"金華路一段４８４巷３７弄４８號","OBJECTID":56251},"geometry":{"x":167185.03000000119,"y":2541533.6200000029}},{"attributes":{"ID":56252,"DIS_CODE":0,"TOWNNAME":"南區","LI":"府南里","LIN":"1鄰","STREET":"金華路","SECT":"一段","MAREA":" ","LANE":"４８４巷","ALLEY":"３７弄","HOUSE_NO":"５０號","E_COORD97":167180.29999999999,"N_COORD97":2541535.8500000001,"ADDRESS":"金華路一段４８４巷３７弄５０號","OBJECTID":56252},"geometry":{"x":167180.29999999888,"y":2541535.8499999996}},{"attributes":{"ID":56253,"DIS_CODE":0,"TOWNNAME":"南區","LI":"府南里","LIN":"1鄰","STREET":"金華路","SECT":"一段","MAREA":" ","LANE":"４８４巷","ALLEY":"３７弄","HOUSE_NO":"５２號","E_COORD97":167176.01999999999,"N_COORD97":2541537.6299999999,"ADDRESS":"金華路一段４８４巷３７弄５２號","OBJECTID":56253},"geometry":{"x":167176.02000000048,"y":2541537.6300000008}},{"attributes":{"ID":56254,"DIS_CODE":0,"TOWNNAME":"官田區","LI":"南\u25A0里","LIN":"8鄰","STREET":" ","SECT":" ","MAREA":"南\u25A0","LANE":" ","ALLEY":" ","HOUSE_NO":"１１１號之４","E_COORD97":178155.29999999999,"N_COORD97":2568704.3399999999,"ADDRESS":"南\u25A0１１１號之４","OBJECTID":56254},"geometry":{"x":178155.30000000075,"y":2568704.3400000017}},{"attributes":{"ID":56255,"DIS_CODE":0,"TOWNNAME":"官田區","LI":"南\u25A0里","LIN":"8鄰","STREET":" ","SECT":" ","MAREA":"南\u25A0","LANE":" ","ALLEY":" ","HOUSE_NO":"１０４號","E_COORD97":178253.44,"N_COORD97":2568340.0499999998,"ADDRESS":"南\u25A0１０４號","OBJECTID":56255},"geometry":{"x":178253.44000000134,"y":2568340.0500000007}},{"attributes":{"ID":56256,"DIS_CODE":0,"TOWNNAME":"南區","LI":"府南里","LIN":"1鄰","STREET":"金華路","SECT":"一段","MAREA":" ","LANE":"４８４巷","ALLEY":"３７弄","HOUSE_NO":"５４號","E_COORD97":167171.12,"N_COORD97":2541539.4199999999,"ADDRESS":"金華路一段４８４巷３７弄５４號","OBJECTID":56256},"geometry":{"x":167171.12000000011,"y":2541539.4199999981}},{"attributes":{"ID":56257,"DIS_CODE":0,"TOWNNAME":"官田區","LI":"南\u25A0里","LIN":"8鄰","STREET":" ","SECT":" ","MAREA":"南\u25A0","LANE":" ","ALLEY":" ","HOUSE_NO":"１０５號之１０","E_COORD97":177534.85999999999,"N_COORD97":2568508.54,"ADDRESS":"南\u25A0１０５號之１０","OBJECTID":56257},"geometry":{"x":177534.8600000022,"y":2568508.5400000028}},{"attributes":{"ID":56258,"DIS_CODE":0,"TOWNNAME":"官田區","LI":"南\u25A0里","LIN":"8鄰","STREET":" ","SECT":" ","MAREA":"南\u25A0","LANE":" ","ALLEY":" ","HOUSE_NO":"１０５號之１１","E_COORD97":177556.53,"N_COORD97":2568528.2200000002,"ADDRESS":"南\u25A0１０５號之１１","OBJECTID":56258},"geometry":{"x":177556.53000000026,"y":2568528.2200000007}},{"attributes":{"ID":56259,"DIS_CODE":0,"TOWNNAME":"官田區","LI":"南\u25A0里","LIN":"8鄰","STREET":" ","SECT":" ","MAREA":"南\u25A0","LANE":" ","ALLEY":" ","HOUSE_NO":"１０５號之１","E_COORD97":177518.54000000001,"N_COORD97":2568460.8700000001,"ADDRESS":"南\u25A0１０５號之１","OBJECTID":56259},"geometry":{"x":177518.54000000097,"y":2568460.8700000048}},{"attributes":{"ID":56260,"DIS_CODE":0,"TOWNNAME":"永康區","LI":"中興里","LIN":"8鄰","STREET":"中山東路","SECT":" ","MAREA":" ","LANE":" ","ALLEY":" ","HOUSE_NO":"４２５號","E_COORD97":171968.64999999999,"N_COORD97":2545048.7400000002,"ADDRESS":"中山東路４２５號","OBJECTID":56260},"geometry":{"x":171968.65000000037,"y":2545048.7400000002}},{"attributes":{"ID":56261,"DIS_CODE":0,"TOWNNAME":"官田區","LI":"南\u25A0里","LIN":"8鄰","STREET":" ","SECT":" ","MAREA":"南\u25A0","LANE":" ","ALLEY":" ","HOUSE_NO":"１０５號之２","E_COORD97":177505.42000000001,"N_COORD97":2568549.9300000002,"ADDRESS":"南\u25A0１０５號之２","OBJECTID":56261},"geometry":{"x":177505.42000000086,"y":2568549.9299999997}},{"attributes":{"ID":56262,"DIS_CODE":0,"TOWNNAME":"官田區","LI":"南\u25A0里","LIN":"8鄰","STREET":" ","SECT":" ","MAREA":"南\u25A0","LANE":" ","ALLEY":" ","HOUSE_NO":"１０５號之３","E_COORD97":177747.51000000001,"N_COORD97":2568404.4300000002,"ADDRESS":"南\u25A0１０５號之３","OBJECTID":56262},"geometry":{"x":177747.51000000071,"y":2568404.4299999978}},{"attributes":{"ID":56263,"DIS_CODE":0,"TOWNNAME":"官田區","LI":"南\u25A0里","LIN":"8鄰","STREET":" ","SECT":" ","MAREA":"南\u25A0","LANE":" ","ALLEY":" ","HOUSE_NO":"１０６號之１","E_COORD97":177393.60999999999,"N_COORD97":2568605.2599999998,"ADDRESS":"南\u25A0１０６號之１","OBJECTID":56263},"geometry":{"x":177393.61000000034,"y":2568605.2599999998}},{"attributes":{"ID":56264,"DIS_CODE":0,"TOWNNAME":"佳里區","LI":"頂\u25A0里","LIN":"1鄰","STREET":" ","SECT":" ","MAREA":"頂\u25A0","LANE":" ","ALLEY":" ","HOUSE_NO":"４號之６","E_COORD97":163278.69,"N_COORD97":2563800.4199999999,"ADDRESS":"頂\u25A0４號之６","OBJECTID":56264},"geometry":{"x":163278.69000000041,"y":2563800.4199999999}},{"attributes":{"ID":56265,"DIS_CODE":0,"TOWNNAME":"佳里區","LI":"頂\u25A0里","LIN":"1鄰","STREET":" ","SECT":" ","MAREA":"頂\u25A0","LANE":" ","ALLEY":" ","HOUSE_NO":"４號","E_COORD97":163279.57999999999,"N_COORD97":2563778.3300000001,"ADDRESS":"頂\u25A0４號","OBJECTID":56265},"geometry":{"x":163279.58000000007,"y":2563778.3300000019}},{"attributes":{"ID":56266,"DIS_CODE":0,"TOWNNAME":"佳里區","LI":"頂\u25A0里","LIN":"1鄰","STREET":" ","SECT":" ","MAREA":"頂\u25A0","LANE":" ","ALLEY":" ","HOUSE_NO":"５號之３","E_COORD97":163256.82999999999,"N_COORD97":2563774.7000000002,"ADDRESS":"頂\u25A0５號之３","OBJECTID":56266},"geometry":{"x":163256.83000000101,"y":2563774.700000003}},{"attributes":{"ID":56267,"DIS_CODE":0,"TOWNNAME":"南區","LI":"府南里","LIN":"1鄰","STREET":"金華路","SECT":"一段","MAREA":" ","LANE":"４８４巷","ALLEY":"３７弄","HOUSE_NO":"５６號","E_COORD97":167165.41,"N_COORD97":2541541.2000000002,"ADDRESS":"金華路一段４８４巷３７弄５６號","OBJECTID":56267},"geometry":{"x":167165.41000000108,"y":2541541.2000000011}},{"attributes":{"ID":56268,"DIS_CODE":0,"TOWNNAME":"佳里區","LI":"頂\u25A0里","LIN":"1鄰","STREET":" ","SECT":" ","MAREA":"頂\u25A0","LANE":" ","ALLEY":" ","HOUSE_NO":"５號之４","E_COORD97":163252.04999999999,"N_COORD97":2563772.52,"ADDRESS":"頂\u25A0５號之４","OBJECTID":56268},"geometry":{"x":163252.04999999981,"y":2563772.5200000033}},{"attributes":{"ID":56269,"DIS_CODE":0,"TOWNNAME":"佳里區","LI":"頂\u25A0里","LIN":"1鄰","STREET":" ","SECT":" ","MAREA":"頂\u25A0","LANE":" ","ALLEY":" ","HOUSE_NO":"５號之５","E_COORD97":163247.82000000001,"N_COORD97":2563770.46,"ADDRESS":"頂\u25A0５號之５","OBJECTID":56269},"geometry":{"x":163247.81999999937,"y":2563770.4600000009}},{"attributes":{"ID":56270,"DIS_CODE":0,"TOWNNAME":"佳里區","LI":"頂\u25A0里","LIN":"1鄰","STREET":" ","SECT":" ","MAREA":"頂\u25A0","LANE":" ","ALLEY":" ","HOUSE_NO":"９號之１","E_COORD97":163310.97,"N_COORD97":2563763.1499999999,"ADDRESS":"頂\u25A0９號之１","OBJECTID":56270},"geometry":{"x":163310.97000000067,"y":2563763.1500000022}},{"attributes":{"ID":56271,"DIS_CODE":0,"TOWNNAME":"佳里區","LI":"頂\u25A0里","LIN":"1鄰","STREET":" ","SECT":" ","MAREA":"頂\u25A0","LANE":" ","ALLEY":" ","HOUSE_NO":"９號之２","E_COORD97":163306.07000000001,"N_COORD97":2563762.8799999999,"ADDRESS":"頂\u25A0９號之２","OBJECTID":56271},"geometry":{"x":163306.07000000123,"y":2563762.8800000027}},{"attributes":{"ID":56272,"DIS_CODE":0,"TOWNNAME":"官田區","LI":"湖山里","LIN":"8鄰","STREET":" ","SECT":" ","MAREA":"烏山頭","LANE":" ","ALLEY":" ","HOUSE_NO":"４０號之１","E_COORD97":183354.16,"N_COORD97":2567683.6800000002,"ADDRESS":"烏山頭４０號之１","OBJECTID":56272},"geometry":{"x":183354.16000000108,"y":2567683.6799999997}},{"attributes":{"ID":56273,"DIS_CODE":0,"TOWNNAME":"南區","LI":"府南里","LIN":"1鄰","STREET":"金華路","SECT":"一段","MAREA":" ","LANE":"４８４巷","ALLEY":"３７弄","HOUSE_NO":"５８號","E_COORD97":167161.31,"N_COORD97":2541543.1600000001,"ADDRESS":"金華路一段４８４巷３７弄５８號","OBJECTID":56273},"geometry":{"x":167161.30999999866,"y":2541543.160000002}},{"attributes":{"ID":56274,"DIS_CODE":0,"TOWNNAME":"佳里區","LI":"頂\u25A0里","LIN":"1鄰","STREET":" ","SECT":" ","MAREA":"頂\u25A0","LANE":" ","ALLEY":" ","HOUSE_NO":"９號","E_COORD97":163311.29000000001,"N_COORD97":2563723.0299999998,"ADDRESS":"頂\u25A0９號","OBJECTID":56274},"geometry":{"x":163311.29000000097,"y":2563723.0300000012}},{"attributes":{"ID":56275,"DIS_CODE":0,"TOWNNAME":"南區","LI":"府南里","LIN":"1鄰","STREET":"金華路","SECT":"一段","MAREA":" ","LANE":"４８４巷","ALLEY":"３７弄","HOUSE_NO":"６０號","E_COORD97":167156.57999999999,"N_COORD97":2541545.0299999998,"ADDRESS":"金華路一段４８４巷３７弄６０號","OBJECTID":56275},"geometry":{"x":167156.58000000007,"y":2541545.0300000031}},{"attributes":{"ID":56276,"DIS_CODE":0,"TOWNNAME":"南區","LI":"府南里","LIN":"1鄰","STREET":"金華路","SECT":"一段","MAREA":" ","LANE":"４８４巷","ALLEY":"３７弄","HOUSE_NO":"６１號","E_COORD97":167144.70999999999,"N_COORD97":2541557.3500000001,"ADDRESS":"金華路一段４８４巷３７弄６１號","OBJECTID":56276},"geometry":{"x":167144.71000000089,"y":2541557.3500000015}},{"attributes":{"ID":56277,"DIS_CODE":0,"TOWNNAME":"佳里區","LI":"通興里","LIN":"1鄰","STREET":" ","SECT":" ","MAREA":"港墘","LANE":" ","ALLEY":" ","HOUSE_NO":"２號","E_COORD97":163928.39000000001,"N_COORD97":2559682.7000000002,"ADDRESS":"港墘２號","OBJECTID":56277},"geometry":{"x":163928.39000000153,"y":2559682.7000000011}},{"attributes":{"ID":56278,"DIS_CODE":0,"TOWNNAME":"南區","LI":"府南里","LIN":"1鄰","STREET":"金華路","SECT":"一段","MAREA":" ","LANE":"４８４巷","ALLEY":"３７弄","HOUSE_NO":"６２號","E_COORD97":167164.79999999999,"N_COORD97":2541565.8199999998,"ADDRESS":"金華路一段４８４巷３７弄６２號","OBJECTID":56278},"geometry":{"x":167164.79999999981,"y":2541565.8200000022}},{"attributes":{"ID":56279,"DIS_CODE":0,"TOWNNAME":"佳里區","LI":"通興里","LIN":"1鄰","STREET":" ","SECT":" ","MAREA":"港墘","LANE":" ","ALLEY":" ","HOUSE_NO":"３號","E_COORD97":163923.35000000001,"N_COORD97":2559719,"ADDRESS":"港墘３號","OBJECTID":56279},"geometry":{"x":163923.35000000149,"y":2559719.0000000019}},{"attributes":{"ID":56280,"DIS_CODE":0,"TOWNNAME":"南區","LI":"府南里","LIN":"1鄰","STREET":"金華路","SECT":"一段","MAREA":" ","LANE":"４８４巷","ALLEY":"３７弄","HOUSE_NO":"６３號","E_COORD97":167140.14000000001,"N_COORD97":2541559.1200000001,"ADDRESS":"金華路一段４８４巷３７弄６３號","OBJECTID":56280},"geometry":{"x":167140.13999999966,"y":2541559.120000001}},{"attributes":{"ID":56281,"DIS_CODE":0,"TOWNNAME":"南區","LI":"府南里","LIN":"1鄰","STREET":"金華路","SECT":"一段","MAREA":" ","LANE":"４８４巷","ALLEY":"３７弄","HOUSE_NO":"６４號","E_COORD97":167170.06,"N_COORD97":2541563.8599999999,"ADDRESS":"金華路一段４８４巷３７弄６４號","OBJECTID":56281},"geometry":{"x":167170.06000000052,"y":2541563.8600000013}},{"attributes":{"ID":56282,"DIS_CODE":0,"TOWNNAME":"佳里區","LI":"通興里","LIN":"1鄰","STREET":" ","SECT":" ","MAREA":"港墘","LANE":" ","ALLEY":" ","HOUSE_NO":"４號","E_COORD97":163936.67999999999,"N_COORD97":2559723.0499999998,"ADDRESS":"港墘４號","OBJECTID":56282},"geometry":{"x":163936.68000000063,"y":2559723.0500000026}},{"attributes":{"ID":56283,"DIS_CODE":0,"TOWNNAME":"南區","LI":"府南里","LIN":"1鄰","STREET":"金華路","SECT":"一段","MAREA":" ","LANE":"４８４巷","ALLEY":"３７弄","HOUSE_NO":"６５號","E_COORD97":167134.98000000001,"N_COORD97":2541561.48,"ADDRESS":"金華路一段４８４巷３７弄６５號","OBJECTID":56283},"geometry":{"x":167134.98000000045,"y":2541561.4800000023}},{"attributes":{"ID":56284,"DIS_CODE":0,"TOWNNAME":"南區","LI":"府南里","LIN":"1鄰","STREET":"金華路","SECT":"一段","MAREA":" ","LANE":"４８４巷","ALLEY":"３７弄","HOUSE_NO":"６６號","E_COORD97":167175.32999999999,"N_COORD97":2541562.6099999999,"ADDRESS":"金華路一段４８４巷３７弄６６號","OBJECTID":56284},"geometry":{"x":167175.33000000194,"y":2541562.6100000013}},{"attributes":{"ID":56285,"DIS_CODE":0,"TOWNNAME":"佳里區","LI":"通興里","LIN":"1鄰","STREET":" ","SECT":" ","MAREA":"港墘","LANE":" ","ALLEY":" ","HOUSE_NO":"５號","E_COORD97":163946.35000000001,"N_COORD97":2559719.9300000002,"ADDRESS":"港墘５號","OBJECTID":56285},"geometry":{"x":163946.34999999963,"y":2559719.9300000016}},{"attributes":{"ID":56286,"DIS_CODE":0,"TOWNNAME":"佳里區","LI":"通興里","LIN":"1鄰","STREET":" ","SECT":" ","MAREA":"港墘","LANE":" ","ALLEY":" ","HOUSE_NO":"６號之１","E_COORD97":163960.20999999999,"N_COORD97":2559742.23,"ADDRESS":"港墘６號之１","OBJECTID":56286},"geometry":{"x":163960.20999999903,"y":2559742.2300000023}},{"attributes":{"ID":56287,"DIS_CODE":0,"TOWNNAME":"佳里區","LI":"通興里","LIN":"1鄰","STREET":" ","SECT":" ","MAREA":"港墘","LANE":" ","ALLEY":" ","HOUSE_NO":"６號之２","E_COORD97":163989.82000000001,"N_COORD97":2559775.8599999999,"ADDRESS":"港墘６號之２","OBJECTID":56287},"geometry":{"x":163989.8200000003,"y":2559775.8599999994}},{"attributes":{"ID":56288,"DIS_CODE":0,"TOWNNAME":"永康區","LI":"中興里","LIN":"8鄰","STREET":"中山東路","SECT":" ","MAREA":" ","LANE":" ","ALLEY":" ","HOUSE_NO":"３９９號","E_COORD97":171957.32999999999,"N_COORD97":2545100.75,"ADDRESS":"中山東路３９９號","OBJECTID":56288},"geometry":{"x":171957.33000000007,"y":2545100.7500000037}},{"attributes":{"ID":56289,"DIS_CODE":0,"TOWNNAME":"佳里區","LI":"通興里","LIN":"1鄰","STREET":" ","SECT":" ","MAREA":"港墘","LANE":" ","ALLEY":" ","HOUSE_NO":"８號","E_COORD97":163934.26000000001,"N_COORD97":2559754.9100000001,"ADDRESS":"港墘８號","OBJECTID":56289},"geometry":{"x":163934.25999999885,"y":2559754.9100000001}},{"attributes":{"ID":56290,"DIS_CODE":0,"TOWNNAME":"佳里區","LI":"通興里","LIN":"1鄰","STREET":" ","SECT":" ","MAREA":"港墘","LANE":" ","ALLEY":" ","HOUSE_NO":"９號","E_COORD97":163919.23000000001,"N_COORD97":2559751.0299999998,"ADDRESS":"港墘９號","OBJECTID":56290},"geometry":{"x":163919.23000000045,"y":2559751.0299999975}},{"attributes":{"ID":56291,"DIS_CODE":0,"TOWNNAME":"學甲區","LI":"大灣里","LIN":"1鄰","STREET":" ","SECT":" ","MAREA":"大灣","LANE":" ","ALLEY":" ","HOUSE_NO":"５號之１６","E_COORD97":166970.70000000001,"N_COORD97":2568372.21,"ADDRESS":"大灣５號之１６","OBJECTID":56291},"geometry":{"x":166970.70000000019,"y":2568372.2100000009}},{"attributes":{"ID":56292,"DIS_CODE":0,"TOWNNAME":"學甲區","LI":"大灣里","LIN":"1鄰","STREET":" ","SECT":" ","MAREA":"大灣","LANE":" ","ALLEY":" ","HOUSE_NO":"５號之１","E_COORD97":166973.35999999999,"N_COORD97":2568448.2999999998,"ADDRESS":"大灣５號之１","OBJECTID":56292},"geometry":{"x":166973.36000000034,"y":2568448.3000000026}},{"attributes":{"ID":56293,"DIS_CODE":0,"TOWNNAME":"永康區","LI":"大橋里","LIN":"8鄰","STREET":"大橋三街","SECT":" ","MAREA":" ","LANE":" ","ALLEY":" ","HOUSE_NO":"２２９號之２","E_COORD97":170942.45999999999,"N_COORD97":2546832.3300000001,"ADDRESS":"大橋三街２２９號之２","OBJECTID":56293},"geometry":{"x":170942.45999999996,"y":2546832.3300000001}},{"attributes":{"ID":56294,"DIS_CODE":0,"TOWNNAME":"永康區","LI":"大橋里","LIN":"8鄰","STREET":"大橋三街","SECT":" ","MAREA":" ","LANE":" ","ALLEY":" ","HOUSE_NO":"２４１號","E_COORD97":170971.62,"N_COORD97":2546852.7799999998,"ADDRESS":"大橋三街２４１號","OBJECTID":56294},"geometry":{"x":170971.62000000011,"y":2546852.7800000031}},{"attributes":{"ID":56295,"DIS_CODE":0,"TOWNNAME":"永康區","LI":"中興里","LIN":"8鄰","STREET":"中山東路","SECT":" ","MAREA":" ","LANE":" ","ALLEY":" ","HOUSE_NO":"４０１號","E_COORD97":171957.95999999999,"N_COORD97":2545096.1099999999,"ADDRESS":"中山東路４０１號","OBJECTID":56295},"geometry":{"x":171957.95999999996,"y":2545096.1099999994}},{"attributes":{"ID":56296,"DIS_CODE":0,"TOWNNAME":"永康區","LI":"大橋里","LIN":"8鄰","STREET":"大橋三街","SECT":" ","MAREA":" ","LANE":" ","ALLEY":" ","HOUSE_NO":"２５３號之９","E_COORD97":171020.98000000001,"N_COORD97":2546882.75,"ADDRESS":"大橋三街２５３號之９","OBJECTID":56296},"geometry":{"x":171020.98000000045,"y":2546882.75}},{"attributes":{"ID":56297,"DIS_CODE":0,"TOWNNAME":"永康區","LI":"大橋里","LIN":"8鄰","STREET":"大橋三街","SECT":" ","MAREA":" ","LANE":" ","ALLEY":" ","HOUSE_NO":"２２９號","E_COORD97":170932.98000000001,"N_COORD97":2546827.5299999998,"ADDRESS":"大橋三街２２９號","OBJECTID":56297},"geometry":{"x":170932.98000000231,"y":2546827.5300000012}},{"attributes":{"ID":56298,"DIS_CODE":0,"TOWNNAME":"永康區","LI":"中興里","LIN":"8鄰","STREET":"中山東路","SECT":" ","MAREA":" ","LANE":" ","ALLEY":" ","HOUSE_NO":"３８５號","E_COORD97":171949.73000000001,"N_COORD97":2545136.7400000002,"ADDRESS":"中山東路３８５號","OBJECTID":56298},"geometry":{"x":171949.73000000045,"y":2545136.7400000002}},{"attributes":{"ID":56299,"DIS_CODE":0,"TOWNNAME":"永康區","LI":"大橋里","LIN":"8鄰","STREET":"大橋三街","SECT":" ","MAREA":" ","LANE":" ","ALLEY":" ","HOUSE_NO":"２５３號之３","E_COORD97":170994.10000000001,"N_COORD97":2546885.75,"ADDRESS":"大橋三街２５３號之３","OBJECTID":56299},"geometry":{"x":170994.10000000149,"y":2546885.75}},{"attributes":{"ID":56300,"DIS_CODE":0,"TOWNNAME":"學甲區","LI":"大灣里","LIN":"1鄰","STREET":" ","SECT":" ","MAREA":"大灣","LANE":" ","ALLEY":" ","HOUSE_NO":"５號之２","E_COORD97":166972.62,"N_COORD97":2568452.5600000001,"ADDRESS":"大灣５號之２","OBJECTID":56300},"geometry":{"x":166972.62000000011,"y":2568452.5600000024}},{"attributes":{"ID":56301,"DIS_CODE":0,"TOWNNAME":"南區","LI":"府南里","LIN":"1鄰","STREET":"金華路","SECT":"一段","MAREA":" ","LANE":"４８４巷","ALLEY":"３７弄","HOUSE_NO":"６７號","E_COORD97":167130.41,"N_COORD97":2541563.1000000001,"ADDRESS":"金華路一段４８４巷３７弄６７號","OBJECTID":56301},"geometry":{"x":167130.41000000015,"y":2541563.1000000015}},{"attributes":{"ID":56302,"DIS_CODE":0,"TOWNNAME":"南區","LI":"府南里","LIN":"1鄰","STREET":"金華路","SECT":"一段","MAREA":" ","LANE":"４８４巷","ALLEY":"３７弄","HOUSE_NO":"６８號","E_COORD97":167178.54000000001,"N_COORD97":2541560.3900000001,"ADDRESS":"金華路一段４８４巷３７弄６８號","OBJECTID":56302},"geometry":{"x":167178.54000000004,"y":2541560.3900000006}},{"attributes":{"ID":56303,"DIS_CODE":0,"TOWNNAME":"南區","LI":"府南里","LIN":"1鄰","STREET":"金華路","SECT":"一段","MAREA":" ","LANE":"４８４巷","ALLEY":"３７弄","HOUSE_NO":"６９號","E_COORD97":167126.28,"N_COORD97":2541564.6499999999,"ADDRESS":"金華路一段４８４巷３７弄６９號","OBJECTID":56303},"geometry":{"x":167126.28000000026,"y":2541564.6500000004}},{"attributes":{"ID":56304,"DIS_CODE":0,"TOWNNAME":"南區","LI":"府南里","LIN":"1鄰","STREET":"金華路","SECT":"一段","MAREA":" ","LANE":"４８４巷","ALLEY":"３７弄","HOUSE_NO":"６號","E_COORD97":167148.37,"N_COORD97":2541486.73,"ADDRESS":"金華路一段４８４巷３７弄６號","OBJECTID":56304},"geometry":{"x":167148.37000000104,"y":2541486.7300000004}},{"attributes":{"ID":56305,"DIS_CODE":0,"TOWNNAME":"官田區","LI":"湖山里","LIN":"8鄰","STREET":" ","SECT":" ","MAREA":"烏山頭","LANE":" ","ALLEY":" ","HOUSE_NO":"３９號之１","E_COORD97":183325.45000000001,"N_COORD97":2567710.7200000002,"ADDRESS":"烏山頭３９號之１","OBJECTID":56305},"geometry":{"x":183325.45000000112,"y":2567710.7200000007}},{"attributes":{"ID":56306,"DIS_CODE":0,"TOWNNAME":"官田區","LI":"湖山里","LIN":"8鄰","STREET":" ","SECT":" ","MAREA":"烏山頭","LANE":" ","ALLEY":" ","HOUSE_NO":"３９號之２","E_COORD97":183324.67999999999,"N_COORD97":2567688.77,"ADDRESS":"烏山頭３９號之２","OBJECTID":56306},"geometry":{"x":183324.68000000063,"y":2567688.7699999996}},{"attributes":{"ID":56307,"DIS_CODE":0,"TOWNNAME":"南區","LI":"府南里","LIN":"1鄰","STREET":"金華路","SECT":"一段","MAREA":" ","LANE":"４８４巷","ALLEY":"３７弄","HOUSE_NO":"７０號","E_COORD97":167184.69,"N_COORD97":2541557.7999999998,"ADDRESS":"金華路一段４８４巷３７弄７０號","OBJECTID":56307},"geometry":{"x":167184.69000000041,"y":2541557.8000000007}},{"attributes":{"ID":56308,"DIS_CODE":0,"TOWNNAME":"官田區","LI":"湖山里","LIN":"8鄰","STREET":" ","SECT":" ","MAREA":"烏山頭","LANE":" ","ALLEY":" ","HOUSE_NO":"４０號","E_COORD97":183361.67999999999,"N_COORD97":2567683.9900000002,"ADDRESS":"烏山頭４０號","OBJECTID":56308},"geometry":{"x":183361.68000000156,"y":2567683.9900000021}},{"attributes":{"ID":56309,"DIS_CODE":0,"TOWNNAME":"官田區","LI":"湖山里","LIN":"8鄰","STREET":" ","SECT":" ","MAREA":"烏山頭","LANE":" ","ALLEY":" ","HOUSE_NO":"４１號之２","E_COORD97":183351.16,"N_COORD97":2567752.1899999999,"ADDRESS":"烏山頭４１號之２","OBJECTID":56309},"geometry":{"x":183351.16000000108,"y":2567752.1900000013}},{"attributes":{"ID":56310,"DIS_CODE":0,"TOWNNAME":"官田區","LI":"湖山里","LIN":"8鄰","STREET":" ","SECT":" ","MAREA":"烏山頭","LANE":" ","ALLEY":" ","HOUSE_NO":"４１號之３","E_COORD97":183326.70999999999,"N_COORD97":2567753.0800000001,"ADDRESS":"烏山頭４１號之３","OBJECTID":56310},"geometry":{"x":183326.71000000089,"y":2567753.0800000038}},{"attributes":{"ID":56311,"DIS_CODE":0,"TOWNNAME":"南區","LI":"府南里","LIN":"1鄰","STREET":"金華路","SECT":"一段","MAREA":" ","LANE":"４８４巷","ALLEY":"３７弄","HOUSE_NO":"７１號","E_COORD97":167121.56,"N_COORD97":2541566.5600000001,"ADDRESS":"金華路一段４８４巷３７弄７１號","OBJECTID":56311},"geometry":{"x":167121.56000000052,"y":2541566.5600000042}},{"attributes":{"ID":56312,"DIS_CODE":0,"TOWNNAME":"南區","LI":"府南里","LIN":"1鄰","STREET":"金華路","SECT":"一段","MAREA":" ","LANE":"４８４巷","ALLEY":"３７弄","HOUSE_NO":"７２號","E_COORD97":167188.17000000001,"N_COORD97":2541555.4900000002,"ADDRESS":"金華路一段４８４巷３７弄７２號","OBJECTID":56312},"geometry":{"x":167188.17000000179,"y":2541555.4900000002}},{"attributes":{"ID":56313,"DIS_CODE":0,"TOWNNAME":"永康區","LI":"蔦松里","LIN":"8鄰","STREET":"中正北路","SECT":" ","MAREA":" ","LANE":" ","ALLEY":" ","HOUSE_NO":"４３５號","E_COORD97":173608.19,"N_COORD97":2549151.1299999999,"ADDRESS":"中正北路４３５號","OBJECTID":56313},"geometry":{"x":173608.19000000227,"y":2549151.129999999}},{"attributes":{"ID":56314,"DIS_CODE":0,"TOWNNAME":"玉井區","LI":"玉田里","LIN":" ","STREET":"大成路","SECT":" ","MAREA":" ","LANE":" ","ALLEY":" ","HOUSE_NO":"２５之２３號","E_COORD97":197083.45999999999,"N_COORD97":2558720.29,"ADDRESS":"大成路２５之２３號","OBJECTID":56314},"geometry":{"x":197083.45999999996,"y":2558720.290000001}},{"attributes":{"ID":56315,"DIS_CODE":0,"TOWNNAME":"玉井區","LI":"玉田里","LIN":" ","STREET":"神農街","SECT":" ","MAREA":" ","LANE":" ","ALLEY":" ","HOUSE_NO":"１６號","E_COORD97":194917.17999999999,"N_COORD97":2557948.2799999998,"ADDRESS":"神農街１６號","OBJECTID":56315},"geometry":{"x":194917.1799999997,"y":2557948.2799999993}},{"attributes":{"ID":56316,"DIS_CODE":0,"TOWNNAME":"玉井區","LI":"玉田里","LIN":" ","STREET":"民族路","SECT":" ","MAREA":" ","LANE":" ","ALLEY":" ","HOUSE_NO":"２４９號","E_COORD97":195607.48999999999,"N_COORD97":2558100.2799999998,"ADDRESS":"民族路２４９號","OBJECTID":56316},"geometry":{"x":195607.49000000022,"y":2558100.2799999993}},{"attributes":{"ID":56317,"DIS_CODE":0,"TOWNNAME":"南區","LI":"府南里","LIN":"1鄰","STREET":"金華路","SECT":"一段","MAREA":" ","LANE":"４８４巷","ALLEY":"３７弄","HOUSE_NO":"７３號","E_COORD97":167116.85000000001,"N_COORD97":2541568.2599999998,"ADDRESS":"金華路一段４８４巷３７弄７３號","OBJECTID":56317},"geometry":{"x":167116.84999999963,"y":2541568.2600000016}},{"attributes":{"ID":56318,"DIS_CODE":0,"TOWNNAME":"南區","LI":"府南里","LIN":"1鄰","STREET":"金華路","SECT":"一段","MAREA":" ","LANE":"４８４巷","ALLEY":"３７弄","HOUSE_NO":"７４號","E_COORD97":167193.87,"N_COORD97":2541553.3500000001,"ADDRESS":"金華路一段４８４巷３７弄７４號","OBJECTID":56318},"geometry":{"x":167193.87000000197,"y":2541553.3500000034}},{"attributes":{"ID":56319,"DIS_CODE":0,"TOWNNAME":"南區","LI":"府南里","LIN":"1鄰","STREET":"金華路","SECT":"一段","MAREA":" ","LANE":"４８４巷","ALLEY":"３７弄","HOUSE_NO":"７５號","E_COORD97":167112.72,"N_COORD97":2541570.2400000002,"ADDRESS":"金華路一段４８４巷３７弄７５號","OBJECTID":56319},"geometry":{"x":167112.71999999974,"y":2541570.2400000002}},{"attributes":{"ID":56320,"DIS_CODE":0,"TOWNNAME":"南區","LI":"府南里","LIN":"1鄰","STREET":"金華路","SECT":"一段","MAREA":" ","LANE":"４８４巷","ALLEY":"３７弄","HOUSE_NO":"７６號","E_COORD97":167202.07999999999,"N_COORD97":2541551.2999999998,"ADDRESS":"金華路一段４８４巷３７弄７６號","OBJECTID":56320},"geometry":{"x":167202.08000000007,"y":2541551.3000000045}},{"attributes":{"ID":56321,"DIS_CODE":0,"TOWNNAME":"南區","LI":"府南里","LIN":"1鄰","STREET":"金華路","SECT":"一段","MAREA":" ","LANE":"４８４巷","ALLEY":"３７弄","HOUSE_NO":"７７號","E_COORD97":167108.07000000001,"N_COORD97":2541571.9399999999,"ADDRESS":"金華路一段４８４巷３７弄７７號","OBJECTID":56321},"geometry":{"x":167108.07000000123,"y":2541571.9399999995}},{"attributes":{"ID":56322,"DIS_CODE":0,"TOWNNAME":"玉井區","LI":"玉田里","LIN":" ","STREET":"民族路","SECT":" ","MAREA":" ","LANE":" ","ALLEY":" ","HOUSE_NO":"１號","E_COORD97":194944.98999999999,"N_COORD97":2558112.29,"ADDRESS":"民族路１號","OBJECTID":56322},"geometry":{"x":194944.99000000209,"y":2558112.290000001}},{"attributes":{"ID":56323,"DIS_CODE":0,"TOWNNAME":"南區","LI":"府南里","LIN":"1鄰","STREET":"金華路","SECT":"一段","MAREA":" ","LANE":"４８４巷","ALLEY":"３７弄","HOUSE_NO":"７９號","E_COORD97":167103.13,"N_COORD97":2541573.8500000001,"ADDRESS":"金華路一段４８４巷３７弄７９號","OBJECTID":56323},"geometry":{"x":167103.12999999989,"y":2541573.8500000034}},{"attributes":{"ID":56324,"DIS_CODE":0,"TOWNNAME":"南區","LI":"府南里","LIN":"1鄰","STREET":"金華路","SECT":"一段","MAREA":" ","LANE":"４８４巷","ALLEY":"３７弄","HOUSE_NO":"８０號","E_COORD97":167209.20999999999,"N_COORD97":2541569.96,"ADDRESS":"金華路一段４８４巷３７弄８０號","OBJECTID":56324},"geometry":{"x":167209.20999999996,"y":2541569.9600000009}},{"attributes":{"ID":56325,"DIS_CODE":0,"TOWNNAME":"南區","LI":"府南里","LIN":"1鄰","STREET":"金華路","SECT":"一段","MAREA":" ","LANE":"４８４巷","ALLEY":"３７弄","HOUSE_NO":"８２號","E_COORD97":167202.35000000001,"N_COORD97":2541573.7000000002,"ADDRESS":"金華路一段４８４巷３７弄８２號","OBJECTID":56325},"geometry":{"x":167202.35000000056,"y":2541573.6999999993}},{"attributes":{"ID":56326,"DIS_CODE":0,"TOWNNAME":"玉井區","LI":"玉田里","LIN":" ","STREET":"民生路","SECT":" ","MAREA":" ","LANE":" ","ALLEY":" ","HOUSE_NO":"２５１號","E_COORD97":195174.79000000001,"N_COORD97":2558235.29,"ADDRESS":"民生路２５１號","OBJECTID":56326},"geometry":{"x":195174.79000000004,"y":2558235.290000001}},{"attributes":{"ID":56327,"DIS_CODE":0,"TOWNNAME":"玉井區","LI":"玉田里","LIN":" ","STREET":"民族路","SECT":" ","MAREA":" ","LANE":" ","ALLEY":" ","HOUSE_NO":"４號","E_COORD97":194948.07999999999,"N_COORD97":2558102.2799999998,"ADDRESS":"民族路４號","OBJECTID":56327},"geometry":{"x":194948.08000000101,"y":2558102.2800000012}},{"attributes":{"ID":56328,"DIS_CODE":0,"TOWNNAME":"學甲區","LI":"大灣里","LIN":"1鄰","STREET":" ","SECT":" ","MAREA":"大灣","LANE":" ","ALLEY":" ","HOUSE_NO":"５號之３０","E_COORD97":166880.67000000001,"N_COORD97":2568594.4100000001,"ADDRESS":"大灣５號之３０","OBJECTID":56328},"geometry":{"x":166880.66999999993,"y":2568594.4100000001}},{"attributes":{"ID":56329,"DIS_CODE":0,"TOWNNAME":"學甲區","LI":"大灣里","LIN":"1鄰","STREET":" ","SECT":" ","MAREA":"大灣","LANE":" ","ALLEY":" ","HOUSE_NO":"６號","E_COORD97":167005.67999999999,"N_COORD97":2568245.5699999998,"ADDRESS":"大灣６號","OBJECTID":56329},"geometry":{"x":167005.6799999997,"y":2568245.5700000022}},{"attributes":{"ID":56330,"DIS_CODE":0,"TOWNNAME":"後壁區","LI":"崁頂里","LIN":"8鄰","STREET":" ","SECT":" ","MAREA":"崁頂","LANE":" ","ALLEY":" ","HOUSE_NO":"８８號","E_COORD97":182970.59,"N_COORD97":2586562.54,"ADDRESS":"崁頂８８號","OBJECTID":56330},"geometry":{"x":182970.58999999985,"y":2586562.540000001}},{"attributes":{"ID":56331,"DIS_CODE":0,"TOWNNAME":"南區","LI":"府南里","LIN":"1鄰","STREET":"金華路","SECT":"一段","MAREA":" ","LANE":"４８４巷","ALLEY":"３７弄","HOUSE_NO":"８３號","E_COORD97":167108.35999999999,"N_COORD97":2541598.3700000001,"ADDRESS":"金華路一段４８４巷３７弄８３號","OBJECTID":56331},"geometry":{"x":167108.36000000127,"y":2541598.370000001}},{"attributes":{"ID":56332,"DIS_CODE":0,"TOWNNAME":"南區","LI":"府南里","LIN":"1鄰","STREET":"金華路","SECT":"一段","MAREA":" ","LANE":"４８４巷","ALLEY":"３７弄","HOUSE_NO":"８４號","E_COORD97":167195.79999999999,"N_COORD97":2541575.1400000001,"ADDRESS":"金華路一段４８４巷３７弄８４號","OBJECTID":56332},"geometry":{"x":167195.80000000075,"y":2541575.1400000006}},{"attributes":{"ID":56333,"DIS_CODE":0,"TOWNNAME":"南區","LI":"府南里","LIN":"1鄰","STREET":"金華路","SECT":"一段","MAREA":" ","LANE":"４８４巷","ALLEY":"３７弄","HOUSE_NO":"８５號","E_COORD97":167111.75,"N_COORD97":2541596.02,"ADDRESS":"金華路一段４８４巷３７弄８５號","OBJECTID":56333},"geometry":{"x":167111.75000000093,"y":2541596.0200000033}},{"attributes":{"ID":56334,"DIS_CODE":0,"TOWNNAME":"南區","LI":"府南里","LIN":"1鄰","STREET":"金華路","SECT":"一段","MAREA":" ","LANE":"４８４巷","ALLEY":"３７弄","HOUSE_NO":"８６號","E_COORD97":167192.14999999999,"N_COORD97":2541576.9199999999,"ADDRESS":"金華路一段４８４巷３７弄８６號","OBJECTID":56334},"geometry":{"x":167192.15000000224,"y":2541576.9200000037}},{"attributes":{"ID":56335,"DIS_CODE":0,"TOWNNAME":"南區","LI":"府南里","LIN":"1鄰","STREET":"金華路","SECT":"一段","MAREA":" ","LANE":"４８４巷","ALLEY":"３７弄","HOUSE_NO":"８７號","E_COORD97":167116.76999999999,"N_COORD97":2541594.3199999998,"ADDRESS":"金華路一段４８４巷３７弄８７號","OBJECTID":56335},"geometry":{"x":167116.76999999955,"y":2541594.3200000003}},{"attributes":{"ID":56336,"DIS_CODE":0,"TOWNNAME":"南區","LI":"府南里","LIN":"1鄰","STREET":"金華路","SECT":"一段","MAREA":" ","LANE":"４８４巷","ALLEY":"３７弄","HOUSE_NO":"８８號","E_COORD97":167185.82000000001,"N_COORD97":2541576.7400000002,"ADDRESS":"金華路一段４８４巷３７弄８８號","OBJECTID":56336},"geometry":{"x":167185.82000000216,"y":2541576.7400000002}},{"attributes":{"ID":56337,"DIS_CODE":0,"TOWNNAME":"南區","LI":"府南里","LIN":"1鄰","STREET":"金華路","SECT":"一段","MAREA":" ","LANE":"４８４巷","ALLEY":"３７弄","HOUSE_NO":"８９號","E_COORD97":167120.97,"N_COORD97":2541592.6299999999,"ADDRESS":"金華路一段４８４巷３７弄８９號","OBJECTID":56337},"geometry":{"x":167120.96999999974,"y":2541592.6300000008}},{"attributes":{"ID":56338,"DIS_CODE":0,"TOWNNAME":"南區","LI":"府南里","LIN":"1鄰","STREET":"金華路","SECT":"一段","MAREA":" ","LANE":"４８４巷","ALLEY":"３７弄","HOUSE_NO":"９０號","E_COORD97":167181.54000000001,"N_COORD97":2541578.7000000002,"ADDRESS":"金華路一段４８４巷３７弄９０號","OBJECTID":56338},"geometry":{"x":167181.54000000097,"y":2541578.7000000011}},{"attributes":{"ID":56339,"DIS_CODE":0,"TOWNNAME":"南區","LI":"府南里","LIN":"1鄰","STREET":"金華路","SECT":"一段","MAREA":" ","LANE":"４８４巷","ALLEY":"３７弄","HOUSE_NO":"９１號","E_COORD97":167126.35000000001,"N_COORD97":2541588.8700000001,"ADDRESS":"金華路一段４８４巷３７弄９１號","OBJECTID":56339},"geometry":{"x":167126.35000000056,"y":2541588.8700000029}},{"attributes":{"ID":56340,"DIS_CODE":0,"TOWNNAME":"南區","LI":"府南里","LIN":"1鄰","STREET":"金華路","SECT":"一段","MAREA":" ","LANE":"４８４巷","ALLEY":"３７弄","HOUSE_NO":"９２號","E_COORD97":167176.01000000001,"N_COORD97":2541580.75,"ADDRESS":"金華路一段４８４巷３７弄９２號","OBJECTID":56340},"geometry":{"x":167176.01000000071,"y":2541580.75}},{"attributes":{"ID":56341,"DIS_CODE":0,"TOWNNAME":"南區","LI":"府南里","LIN":"1鄰","STREET":"金華路","SECT":"一段","MAREA":" ","LANE":"４８４巷","ALLEY":"３７弄","HOUSE_NO":"９３號","E_COORD97":167133.5,"N_COORD97":2541586.1499999999,"ADDRESS":"金華路一段４８４巷３７弄９３號","OBJECTID":56341},"geometry":{"x":167133.50000000186,"y":2541586.1500000041}},{"attributes":{"ID":56342,"DIS_CODE":0,"TOWNNAME":"南區","LI":"府南里","LIN":"1鄰","STREET":"金華路","SECT":"一段","MAREA":" ","LANE":"４８４巷","ALLEY":"３７弄","HOUSE_NO":"９４號","E_COORD97":167171.64000000001,"N_COORD97":2541582.98,"ADDRESS":"金華路一段４８４巷３７弄９４號","OBJECTID":56342},"geometry":{"x":167171.6400000006,"y":2541582.9800000004}},{"attributes":{"ID":56343,"DIS_CODE":0,"TOWNNAME":"北區","LI":"和順里","LIN":"1鄰","STREET":"民德路","SECT":" ","MAREA":" ","LANE":"９０巷","ALLEY":"９弄","HOUSE_NO":"６號","E_COORD97":168057.23999999999,"N_COORD97":2545298.79,"ADDRESS":"民德路９０巷９弄６號","OBJECTID":56343},"geometry":{"x":168057.24000000022,"y":2545298.7899999991}},{"attributes":{"ID":56344,"DIS_CODE":0,"TOWNNAME":"學甲區","LI":"大灣里","LIN":"1鄰","STREET":" ","SECT":" ","MAREA":"大灣","LANE":" ","ALLEY":" ","HOUSE_NO":"７號","E_COORD97":167006.79000000001,"N_COORD97":2568220.4900000002,"ADDRESS":"大灣７號","OBJECTID":56344},"geometry":{"x":167006.79000000097,"y":2568220.4900000002}},{"attributes":{"ID":56345,"DIS_CODE":0,"TOWNNAME":"南區","LI":"府南里","LIN":"1鄰","STREET":"金華路","SECT":"一段","MAREA":" ","LANE":"４８４巷","ALLEY":"３７弄","HOUSE_NO":"９５號","E_COORD97":167138.75,"N_COORD97":2541582.9399999999,"ADDRESS":"金華路一段４８４巷３７弄９５號","OBJECTID":56345},"geometry":{"x":167138.75000000093,"y":2541582.9400000032}},{"attributes":{"ID":56346,"DIS_CODE":0,"TOWNNAME":"南區","LI":"府南里","LIN":"1鄰","STREET":"金華路","SECT":"一段","MAREA":" ","LANE":"４８４巷","ALLEY":"３７弄","HOUSE_NO":"９７號","E_COORD97":167143.01999999999,"N_COORD97":2541580.5800000001,"ADDRESS":"金華路一段４８４巷３７弄９７號","OBJECTID":56346},"geometry":{"x":167143.02000000142,"y":2541580.5800000019}},{"attributes":{"ID":56347,"DIS_CODE":0,"TOWNNAME":"南區","LI":"府南里","LIN":"1鄰","STREET":"金華路","SECT":"一段","MAREA":" ","LANE":"４８４巷","ALLEY":"３７弄","HOUSE_NO":"９９號","E_COORD97":167148.39999999999,"N_COORD97":2541578.2999999998,"ADDRESS":"金華路一段４８４巷３７弄９９號","OBJECTID":56347},"geometry":{"x":167148.4000000013,"y":2541578.2999999989}},{"attributes":{"ID":56348,"DIS_CODE":0,"TOWNNAME":"北區","LI":"成德里","LIN":"40鄰","STREET":"文成五街","SECT":" ","MAREA":" ","LANE":" ","ALLEY":" ","HOUSE_NO":"２２３號","E_COORD97":168142.15392000001,"N_COORD97":2546468.0544599998,"ADDRESS":"文成五街２２３號","OBJECTID":56348},"geometry":{"x":168142.15392000135,"y":2546468.0544600002}},{"attributes":{"ID":56349,"DIS_CODE":0,"TOWNNAME":"學甲區","LI":"大灣里","LIN":"1鄰","STREET":" ","SECT":" ","MAREA":"大灣","LANE":" ","ALLEY":" ","HOUSE_NO":"８號","E_COORD97":166986.48999999999,"N_COORD97":2568205.7200000002,"ADDRESS":"大灣８號","OBJECTID":56349},"geometry":{"x":166986.49000000115,"y":2568205.7200000007}},{"attributes":{"ID":56350,"DIS_CODE":0,"TOWNNAME":"學甲區","LI":"中洲里","LIN":"1鄰","STREET":" ","SECT":" ","MAREA":"中洲","LANE":" ","ALLEY":" ","HOUSE_NO":"１６號之６","E_COORD97":164050.98000000001,"N_COORD97":2571528.98,"ADDRESS":"中洲１６號之６","OBJECTID":56350},"geometry":{"x":164050.98000000138,"y":2571528.9800000023}},{"attributes":{"ID":56351,"DIS_CODE":0,"TOWNNAME":"後壁區","LI":"嘉苳里","LIN":"8鄰","STREET":" ","SECT":" ","MAREA":"下茄苳","LANE":" ","ALLEY":" ","HOUSE_NO":"１００號","E_COORD97":184820.88,"N_COORD97":2583308.4700000002,"ADDRESS":"下茄苳１００號","OBJECTID":56351},"geometry":{"x":184820.88000000082,"y":2583308.4700000007}},{"attributes":{"ID":56352,"DIS_CODE":0,"TOWNNAME":"後壁區","LI":"嘉苳里","LIN":"8鄰","STREET":" ","SECT":" ","MAREA":"下茄苳","LANE":" ","ALLEY":" ","HOUSE_NO":"１０１號","E_COORD97":184821.88,"N_COORD97":2583331.0499999998,"ADDRESS":"下茄苳１０１號","OBJECTID":56352},"geometry":{"x":184821.88000000175,"y":2583331.0500000026}},{"attributes":{"ID":56353,"DIS_CODE":0,"TOWNNAME":"學甲區","LI":"中洲里","LIN":"1鄰","STREET":" ","SECT":" ","MAREA":"中洲","LANE":" ","ALLEY":" ","HOUSE_NO":"１６號","E_COORD97":164056.69,"N_COORD97":2571511.6400000001,"ADDRESS":"中洲１６號","OBJECTID":56353},"geometry":{"x":164056.69000000134,"y":2571511.6400000006}},{"attributes":{"ID":56354,"DIS_CODE":0,"TOWNNAME":"歸仁區","LI":"看東里","LIN":"1鄰","STREET":"忠孝南路","SECT":" ","MAREA":" ","LANE":"６０巷","ALLEY":"３３弄","HOUSE_NO":"６號","E_COORD97":178422.64999999999,"N_COORD97":2540503.6699999999,"ADDRESS":"忠孝南路６０巷３３弄６號","OBJECTID":56354},"geometry":{"x":178422.65000000037,"y":2540503.6700000037}},{"attributes":{"ID":56355,"DIS_CODE":0,"TOWNNAME":"歸仁區","LI":"西埔里","LIN":"1鄰","STREET":"西埔三街","SECT":" ","MAREA":" ","LANE":"５１巷","ALLEY":"９０弄","HOUSE_NO":"６號","E_COORD97":177028.91807799999,"N_COORD97":2543957.1367299999,"ADDRESS":"西埔三街５１巷９０弄６號","OBJECTID":56355},"geometry":{"x":177028.91807800066,"y":2543957.1367259994}},{"attributes":{"ID":56356,"DIS_CODE":0,"TOWNNAME":"歸仁區","LI":"西埔里","LIN":"1鄰","STREET":"西埔三街","SECT":" ","MAREA":" ","LANE":"５１巷","ALLEY":"９０弄","HOUSE_NO":"３９號","E_COORD97":177028.01999999999,"N_COORD97":2543875.25,"ADDRESS":"西埔三街５１巷９０弄３９號","OBJECTID":56356},"geometry":{"x":177028.02000000048,"y":2543875.25}},{"attributes":{"ID":56357,"DIS_CODE":0,"TOWNNAME":"玉井區","LI":"中正里","LIN":"1鄰","STREET":"後旦街","SECT":" ","MAREA":" ","LANE":"３５巷","ALLEY":"８０弄","HOUSE_NO":"３６號","E_COORD97":195266.20999999999,"N_COORD97":2558593.3100000001,"ADDRESS":"後旦街３５巷８０弄３６號","OBJECTID":56357},"geometry":{"x":195266.21000000089,"y":2558593.3100000005}},{"attributes":{"ID":56358,"DIS_CODE":0,"TOWNNAME":"玉井區","LI":"中正里","LIN":"1鄰","STREET":"後旦街","SECT":" ","MAREA":" ","LANE":"３５巷","ALLEY":"５０弄","HOUSE_NO":"２２號","E_COORD97":195290.12,"N_COORD97":2558594.3100000001,"ADDRESS":"後旦街３５巷５０弄２２號","OBJECTID":56358},"geometry":{"x":195290.12000000104,"y":2558594.3099999987}},{"attributes":{"ID":56359,"DIS_CODE":0,"TOWNNAME":"歸仁區","LI":"歸南里","LIN":"1鄰","STREET":"民權南路","SECT":" ","MAREA":" ","LANE":"１９６巷","ALLEY":"５０弄","HOUSE_NO":"１號","E_COORD97":176865.16,"N_COORD97":2540304.5,"ADDRESS":"民權南路１９６巷５０弄１號","OBJECTID":56359},"geometry":{"x":176865.16000000108,"y":2540304.5}},{"attributes":{"ID":56360,"DIS_CODE":0,"TOWNNAME":"歸仁區","LI":"歸仁里","LIN":"1鄰","STREET":"文化街","SECT":"一段","MAREA":" ","LANE":"１１６巷","ALLEY":"２弄","HOUSE_NO":"７號","E_COORD97":177784.92000000001,"N_COORD97":2541159.2599999998,"ADDRESS":"文化街一段１１６巷２弄７號","OBJECTID":56360},"geometry":{"x":177784.92000000179,"y":2541159.2599999998}},{"attributes":{"ID":56361,"DIS_CODE":0,"TOWNNAME":"六甲區","LI":"水林里","LIN":"1鄰","STREET":"信義街","SECT":" ","MAREA":" ","LANE":"３４９巷","ALLEY":"１１弄","HOUSE_NO":"１０號","E_COORD97":183333.54999999999,"N_COORD97":2570114.4300000002,"ADDRESS":"信義街３４９巷１１弄１０號","OBJECTID":56361},"geometry":{"x":183333.54999999981,"y":2570114.4300000016}},{"attributes":{"ID":56362,"DIS_CODE":0,"TOWNNAME":"六甲區","LI":"水林里","LIN":"1鄰","STREET":"信義街","SECT":" ","MAREA":" ","LANE":"３４９巷","ALLEY":"１１弄","HOUSE_NO":"１２號","E_COORD97":183329.66,"N_COORD97":2570115.4100000001,"ADDRESS":"信義街３４９巷１１弄１２號","OBJECTID":56362},"geometry":{"x":183329.66000000015,"y":2570115.410000002}},{"attributes":{"ID":56363,"DIS_CODE":0,"TOWNNAME":"六甲區","LI":"水林里","LIN":"1鄰","STREET":"信義街","SECT":" ","MAREA":" ","LANE":"３４９巷","ALLEY":"１１弄","HOUSE_NO":"１３號","E_COORD97":183360.19,"N_COORD97":2570106.04,"ADDRESS":"信義街３４９巷１１弄１３號","OBJECTID":56363},"geometry":{"x":183360.19000000041,"y":2570106.040000001}},{"attributes":{"ID":56364,"DIS_CODE":0,"TOWNNAME":"六甲區","LI":"水林里","LIN":"1鄰","STREET":"信義街","SECT":" ","MAREA":" ","LANE":"３４９巷","ALLEY":"１１弄","HOUSE_NO":"１５號","E_COORD97":183358.64000000001,"N_COORD97":2570101.8500000001,"ADDRESS":"信義街３４９巷１１弄１５號","OBJECTID":56364},"geometry":{"x":183358.64000000153,"y":2570101.8500000015}},{"attributes":{"ID":56365,"DIS_CODE":0,"TOWNNAME":"六甲區","LI":"水林里","LIN":"1鄰","STREET":"信義街","SECT":" ","MAREA":" ","LANE":"３４９巷","ALLEY":"１１弄","HOUSE_NO":"１６號","E_COORD97":183325.95999999999,"N_COORD97":2570116.5,"ADDRESS":"信義街３４９巷１１弄１６號","OBJECTID":56365},"geometry":{"x":183325.95999999996,"y":2570116.5000000037}},{"attributes":{"ID":56366,"DIS_CODE":0,"TOWNNAME":"六甲區","LI":"水林里","LIN":"1鄰","STREET":"信義街","SECT":" ","MAREA":" ","LANE":"３４９巷","ALLEY":"１１弄","HOUSE_NO":"１７號","E_COORD97":183357.79999999999,"N_COORD97":2570097.4300000002,"ADDRESS":"信義街３４９巷１１弄１７號","OBJECTID":56366},"geometry":{"x":183357.80000000075,"y":2570097.4300000016}},{"attributes":{"ID":56367,"DIS_CODE":0,"TOWNNAME":"六甲區","LI":"水林里","LIN":"1鄰","STREET":"信義街","SECT":" ","MAREA":" ","LANE":"３４９巷","ALLEY":"１１弄","HOUSE_NO":"１８號","E_COORD97":183321.98999999999,"N_COORD97":2570117.5499999998,"ADDRESS":"信義街３４９巷１１弄１８號","OBJECTID":56367},"geometry":{"x":183321.99000000022,"y":2570117.5500000026}},{"attributes":{"ID":56368,"DIS_CODE":0,"TOWNNAME":"六甲區","LI":"水林里","LIN":"1鄰","STREET":"信義街","SECT":" ","MAREA":" ","LANE":"３４９巷","ALLEY":"１１弄","HOUSE_NO":"１９號","E_COORD97":183356.67000000001,"N_COORD97":2570092.3399999999,"ADDRESS":"信義街３４９巷１１弄１９號","OBJECTID":56368},"geometry":{"x":183356.66999999993,"y":2570092.3399999999}},{"attributes":{"ID":56369,"DIS_CODE":0,"TOWNNAME":"六甲區","LI":"水林里","LIN":"1鄰","STREET":"信義街","SECT":" ","MAREA":" ","LANE":"３４９巷","ALLEY":"１１弄","HOUSE_NO":"２０號","E_COORD97":183317.84,"N_COORD97":2570118.4900000002,"ADDRESS":"信義街３４９巷１１弄２０號","OBJECTID":56369},"geometry":{"x":183317.83999999985,"y":2570118.4900000021}},{"attributes":{"ID":56370,"DIS_CODE":0,"TOWNNAME":"六甲區","LI":"水林里","LIN":"1鄰","STREET":"信義街","SECT":" ","MAREA":" ","LANE":"３４９巷","ALLEY":"１１弄","HOUSE_NO":"２２號","E_COORD97":183314.01999999999,"N_COORD97":2570119.7799999998,"ADDRESS":"信義街３４９巷１１弄２２號","OBJECTID":56370},"geometry":{"x":183314.02000000048,"y":2570119.7799999993}},{"attributes":{"ID":56371,"DIS_CODE":0,"TOWNNAME":"六甲區","LI":"水林里","LIN":"1鄰","STREET":"信義街","SECT":" ","MAREA":" ","LANE":"３４９巷","ALLEY":"１１弄","HOUSE_NO":"２６號","E_COORD97":183309.67999999999,"N_COORD97":2570120.5,"ADDRESS":"信義街３４９巷１１弄２６號","OBJECTID":56371},"geometry":{"x":183309.68000000063,"y":2570120.5000000019}},{"attributes":{"ID":56372,"DIS_CODE":0,"TOWNNAME":"六甲區","LI":"水林里","LIN":"1鄰","STREET":"信義街","SECT":" ","MAREA":" ","LANE":"３４９巷","ALLEY":"１１弄","HOUSE_NO":"２號","E_COORD97":183345.29000000001,"N_COORD97":2570111.8300000001,"ADDRESS":"信義街３４９巷１１弄２號","OBJECTID":56372},"geometry":{"x":183345.29000000004,"y":2570111.8300000019}},{"attributes":{"ID":56373,"DIS_CODE":0,"TOWNNAME":"六甲區","LI":"水林里","LIN":"1鄰","STREET":"信義街","SECT":" ","MAREA":" ","LANE":"３４９巷","ALLEY":"１１弄","HOUSE_NO":"６號","E_COORD97":183341.42000000001,"N_COORD97":2570112.6499999999,"ADDRESS":"信義街３４９巷１１弄６號","OBJECTID":56373},"geometry":{"x":183341.41999999993,"y":2570112.6500000041}},{"attributes":{"ID":56374,"DIS_CODE":0,"TOWNNAME":"六甲區","LI":"水林里","LIN":"1鄰","STREET":"信義街","SECT":" ","MAREA":" ","LANE":"３４９巷","ALLEY":"１１弄","HOUSE_NO":"８號","E_COORD97":183337.37,"N_COORD97":2570113.52,"ADDRESS":"信義街３４９巷１１弄８號","OBJECTID":56374},"geometry":{"x":183337.37000000104,"y":2570113.5200000014}},{"attributes":{"ID":56375,"DIS_CODE":0,"TOWNNAME":"安平區","LI":"港仔里","LIN":"1鄰","STREET":"安平路","SECT":" ","MAREA":" ","LANE":"３３巷","ALLEY":"８弄","HOUSE_NO":"１２號","E_COORD97":164602.47,"N_COORD97":2544379.9100000001,"ADDRESS":"安平路３３巷８弄１２號","OBJECTID":56375},"geometry":{"x":164602.4700000016,"y":2544379.9100000001}},{"attributes":{"ID":56376,"DIS_CODE":0,"TOWNNAME":"安平區","LI":"港仔里","LIN":"1鄰","STREET":"安平路","SECT":" ","MAREA":" ","LANE":"３３巷","ALLEY":"８弄","HOUSE_NO":"１４號","E_COORD97":164594.73000000001,"N_COORD97":2544379.9100000001,"ADDRESS":"安平路３３巷８弄１４號","OBJECTID":56376},"geometry":{"x":164594.73000000231,"y":2544379.9100000001}},{"attributes":{"ID":56377,"DIS_CODE":0,"TOWNNAME":"安平區","LI":"港仔里","LIN":"1鄰","STREET":"安平路","SECT":" ","MAREA":" ","LANE":"３３巷","ALLEY":"８弄","HOUSE_NO":"１６號","E_COORD97":164591,"N_COORD97":2544378.0499999998,"ADDRESS":"安平路３３巷８弄１６號","OBJECTID":56377},"geometry":{"x":164591.00000000093,"y":2544378.0500000026}},{"attributes":{"ID":56378,"DIS_CODE":0,"TOWNNAME":"安南區","LI":"頂安里","LIN":"8鄰","STREET":"頂安街","SECT":" ","MAREA":" ","LANE":" ","ALLEY":" ","HOUSE_NO":"５５９號","E_COORD97":168527.17000000001,"N_COORD97":2549254.4100000001,"ADDRESS":"頂安街５５９號","OBJECTID":56378},"geometry":{"x":168527.16999999993,"y":2549254.410000002}},{"attributes":{"ID":56379,"DIS_CODE":0,"TOWNNAME":"安南區","LI":"溪心里","LIN":"8鄰","STREET":"安中路","SECT":"二段","MAREA":" ","LANE":" ","ALLEY":" ","HOUSE_NO":"２９９號","E_COORD97":166470.01999999999,"N_COORD97":2549694.1699999999,"ADDRESS":"安中路二段２９９號","OBJECTID":56379},"geometry":{"x":166470.02000000142,"y":2549694.1699999999}},{"attributes":{"ID":56380,"DIS_CODE":0,"TOWNNAME":"仁德區","LI":"田厝里","LIN":"8鄰","STREET":"保安路","SECT":"二段","MAREA":" ","LANE":" ","ALLEY":" ","HOUSE_NO":"４７３號","E_COORD97":172423.35000000001,"N_COORD97":2537523.3199999998,"ADDRESS":"保安路二段４７３號","OBJECTID":56380},"geometry":{"x":172423.35000000056,"y":2537523.3200000022}},{"attributes":{"ID":56381,"DIS_CODE":0,"TOWNNAME":"安平區","LI":"港仔里","LIN":"1鄰","STREET":"安平路","SECT":" ","MAREA":" ","LANE":"３３巷","ALLEY":"８弄","HOUSE_NO":"１８號","E_COORD97":164587.44,"N_COORD97":2544389.8700000001,"ADDRESS":"安平路３３巷８弄１８號","OBJECTID":56381},"geometry":{"x":164587.44000000041,"y":2544389.8700000029}},{"attributes":{"ID":56382,"DIS_CODE":0,"TOWNNAME":"安平區","LI":"港仔里","LIN":"1鄰","STREET":"安平路","SECT":" ","MAREA":" ","LANE":"３３巷","ALLEY":"８弄","HOUSE_NO":"２號","E_COORD97":164633.03,"N_COORD97":2544378.3500000001,"ADDRESS":"安平路３３巷８弄２號","OBJECTID":56382},"geometry":{"x":164633.02999999933,"y":2544378.3500000015}},{"attributes":{"ID":56383,"DIS_CODE":0,"TOWNNAME":"安平區","LI":"港仔里","LIN":"1鄰","STREET":"安平路","SECT":" ","MAREA":" ","LANE":"３３巷","ALLEY":"８弄","HOUSE_NO":"４號","E_COORD97":164626.47,"N_COORD97":2544382.04,"ADDRESS":"安平路３３巷８弄４號","OBJECTID":56383},"geometry":{"x":164626.47000000067,"y":2544382.0399999991}},{"attributes":{"ID":56384,"DIS_CODE":0,"TOWNNAME":"安平區","LI":"港仔里","LIN":"1鄰","STREET":"安平路","SECT":" ","MAREA":" ","LANE":"３３巷","ALLEY":"８弄","HOUSE_NO":"６號","E_COORD97":164621.94,"N_COORD97":2544380.3100000001,"ADDRESS":"安平路３３巷８弄６號","OBJECTID":56384},"geometry":{"x":164621.93999999948,"y":2544380.3100000024}},{"attributes":{"ID":56385,"DIS_CODE":0,"TOWNNAME":"安平區","LI":"港仔里","LIN":"1鄰","STREET":"安平路","SECT":" ","MAREA":" ","LANE":"３３巷","ALLEY":"８弄","HOUSE_NO":"８號","E_COORD97":164616.87,"N_COORD97":2544381.3799999999,"ADDRESS":"安平路３３巷８弄８號","OBJECTID":56385},"geometry":{"x":164616.87000000011,"y":2544381.3800000008}},{"attributes":{"ID":56386,"DIS_CODE":0,"TOWNNAME":"北區","LI":"六甲里","LIN":"13鄰","STREET":"公園路","SECT":" ","MAREA":" ","LANE":"５０９巷","ALLEY":"８弄","HOUSE_NO":"１號","E_COORD97":169004.07999999999,"N_COORD97":2545571.5899999999,"ADDRESS":"公園路５０９巷８弄１號","OBJECTID":56386},"geometry":{"x":169004.08000000007,"y":2545571.5899999999}},{"attributes":{"ID":56387,"DIS_CODE":0,"TOWNNAME":"北區","LI":"六甲里","LIN":"13鄰","STREET":"公園路","SECT":" ","MAREA":" ","LANE":"５０９巷","ALLEY":"８弄","HOUSE_NO":"３號","E_COORD97":169004.07999999999,"N_COORD97":2545581.1499999999,"ADDRESS":"公園路５０９巷８弄３號","OBJECTID":56387},"geometry":{"x":169004.08000000007,"y":2545581.1500000022}},{"attributes":{"ID":56388,"DIS_CODE":0,"TOWNNAME":"東區","LI":"東聖里","LIN":"8鄰","STREET":"富農街","SECT":"二段","MAREA":" ","LANE":" ","ALLEY":" ","HOUSE_NO":"４７號","E_COORD97":171629.37,"N_COORD97":2542975.8599999999,"ADDRESS":"富農街二段４７號","OBJECTID":56388},"geometry":{"x":171629.37000000011,"y":2542975.8599999994}},{"attributes":{"ID":56389,"DIS_CODE":0,"TOWNNAME":"後壁區","LI":"新嘉里","LIN":"8鄰","STREET":" ","SECT":" ","MAREA":"白沙屯","LANE":" ","ALLEY":" ","HOUSE_NO":"８４號","E_COORD97":179608.20999999999,"N_COORD97":2585653.6200000001,"ADDRESS":"白沙屯８４號","OBJECTID":56389},"geometry":{"x":179608.20999999996,"y":2585653.620000001}},{"attributes":{"ID":56390,"DIS_CODE":0,"TOWNNAME":"後壁區","LI":"新嘉里","LIN":"8鄰","STREET":" ","SECT":" ","MAREA":"白沙屯","LANE":" ","ALLEY":" ","HOUSE_NO":"８５號","E_COORD97":179609.88,"N_COORD97":2585676.0499999998,"ADDRESS":"白沙屯８５號","OBJECTID":56390},"geometry":{"x":179609.88000000082,"y":2585676.0500000026}},{"attributes":{"ID":56391,"DIS_CODE":0,"TOWNNAME":"北區","LI":"六甲里","LIN":"13鄰","STREET":"公園路","SECT":" ","MAREA":" ","LANE":"５０９巷","ALLEY":"８弄","HOUSE_NO":"５號","E_COORD97":169007.73999999999,"N_COORD97":2545585.3700000001,"ADDRESS":"公園路５０９巷８弄５號","OBJECTID":56391},"geometry":{"x":169007.74000000115,"y":2545585.370000001}},{"attributes":{"ID":56392,"DIS_CODE":0,"TOWNNAME":"北區","LI":"六甲里","LIN":"13鄰","STREET":"公園路","SECT":" ","MAREA":" ","LANE":"５０９巷","ALLEY":"８弄","HOUSE_NO":"７號","E_COORD97":169009.14999999999,"N_COORD97":2545590.1499999999,"ADDRESS":"公園路５０９巷８弄７號","OBJECTID":56392},"geometry":{"x":169009.15000000037,"y":2545590.1500000041}},{"attributes":{"ID":56393,"DIS_CODE":0,"TOWNNAME":"北區","LI":"六甲里","LIN":"13鄰","STREET":"公園路","SECT":" ","MAREA":" ","LANE":"５０９巷","ALLEY":"８弄","HOUSE_NO":"９號","E_COORD97":169006.92000000001,"N_COORD97":2545595.3999999999,"ADDRESS":"公園路５０９巷８弄９號","OBJECTID":56393},"geometry":{"x":169006.91999999993,"y":2545595.4000000022}},{"attributes":{"ID":56394,"DIS_CODE":0,"TOWNNAME":"北區","LI":"六甲里","LIN":"13鄰","STREET":"公園路","SECT":" ","MAREA":" ","LANE":"５０９巷","ALLEY":"８弄","HOUSE_NO":"１１號","E_COORD97":169009.70000000001,"N_COORD97":2545601.9700000002,"ADDRESS":"公園路５０９巷８弄１１號","OBJECTID":56394},"geometry":{"x":169009.70000000112,"y":2545601.9700000025}},{"attributes":{"ID":56395,"DIS_CODE":0,"TOWNNAME":"北區","LI":"六甲里","LIN":"13鄰","STREET":"公園路","SECT":" ","MAREA":" ","LANE":"５０９巷","ALLEY":"８弄","HOUSE_NO":"１３號","E_COORD97":169009.70000000001,"N_COORD97":2545609.2999999998,"ADDRESS":"公園路５０９巷８弄１３號","OBJECTID":56395},"geometry":{"x":169009.70000000112,"y":2545609.3000000007}},{"attributes":{"ID":56396,"DIS_CODE":0,"TOWNNAME":"北區","LI":"六甲里","LIN":"13鄰","STREET":"公園路","SECT":" ","MAREA":" ","LANE":"５０９巷","ALLEY":"８弄","HOUSE_NO":"１５號","E_COORD97":169013.75,"N_COORD97":2545616.8799999999,"ADDRESS":"公園路５０９巷８弄１５號","OBJECTID":56396},"geometry":{"x":169013.75000000093,"y":2545616.879999999}},{"attributes":{"ID":56397,"DIS_CODE":0,"TOWNNAME":"北區","LI":"六甲里","LIN":"13鄰","STREET":"公園路","SECT":" ","MAREA":" ","LANE":"５０９巷","ALLEY":"８弄","HOUSE_NO":"１７號","E_COORD97":169015.26999999999,"N_COORD97":2545622.1800000002,"ADDRESS":"公園路５０９巷８弄１７號","OBJECTID":56397},"geometry":{"x":169015.27000000048,"y":2545622.1799999997}},{"attributes":{"ID":56398,"DIS_CODE":0,"TOWNNAME":"北區","LI":"六甲里","LIN":"13鄰","STREET":"公園路","SECT":" ","MAREA":" ","LANE":"５０９巷","ALLEY":"８弄","HOUSE_NO":"１９號","E_COORD97":169016.28,"N_COORD97":2545626.73,"ADDRESS":"公園路５０９巷８弄１９號","OBJECTID":56398},"geometry":{"x":169016.28000000026,"y":2545626.7300000042}},{"attributes":{"ID":56399,"DIS_CODE":0,"TOWNNAME":"北區","LI":"六甲里","LIN":"13鄰","STREET":"公園路","SECT":" ","MAREA":" ","LANE":"５０９巷","ALLEY":"８弄","HOUSE_NO":"２３號","E_COORD97":169019.06,"N_COORD97":2545635.3199999998,"ADDRESS":"公園路５０９巷８弄２３號","OBJECTID":56399},"geometry":{"x":169019.05999999959,"y":2545635.3200000003}},{"attributes":{"ID":56400,"DIS_CODE":0,"TOWNNAME":"北區","LI":"六甲里","LIN":"13鄰","STREET":"公園路","SECT":" ","MAREA":" ","LANE":"５０９巷","ALLEY":"８弄","HOUSE_NO":"２５號","E_COORD97":169020.32999999999,"N_COORD97":2545639.8700000001,"ADDRESS":"公園路５０９巷８弄２５號","OBJECTID":56400},"geometry":{"x":169020.33000000101,"y":2545639.8699999992}}]}