{"displayFieldName":"TOWNNAME","fieldAliases":{"ID":"ID","DIS_CODE":"DIS_CODE","TOWNNAME":"TOWNNAME","LI":"LI","LIN":"LIN","STREET":"STREET","SECT":"SECT","MAREA":"MAREA","LANE":"LANE","ALLEY":"ALLEY","HOUSE_NO":"HOUSE_NO","E_COORD97":"E_COORD97","N_COORD97":"N_COORD97","ADDRESS":"ADDRESS","OBJECTID":"OBJECTID"},"geometryType":"esriGeometryPoint","spatialReference":{"wkid":102443,"latestWkid":3826},"fields":[{"name":"ID","type":"esriFieldTypeDouble","alias":"ID"},{"name":"DIS_CODE","type":"esriFieldTypeInteger","alias":"DIS_CODE"},{"name":"TOWNNAME","type":"esriFieldTypeString","alias":"TOWNNAME","length":8},{"name":"LI","type":"esriFieldTypeString","alias":"LI","length":8},{"name":"LIN","type":"esriFieldTypeString","alias":"LIN","length":12},{"name":"STREET","type":"esriFieldTypeString","alias":"STREET","length":20},{"name":"SECT","type":"esriFieldTypeString","alias":"SECT","length":8},{"name":"MAREA","type":"esriFieldTypeString","alias":"MAREA","length":12},{"name":"LANE","type":"esriFieldTypeString","alias":"LANE","length":10},{"name":"ALLEY","type":"esriFieldTypeString","alias":"ALLEY","length":10},{"name":"HOUSE_NO","type":"esriFieldTypeString","alias":"HOUSE_NO","length":20},{"name":"E_COORD97","type":"esriFieldTypeDouble","alias":"E_COORD97"},{"name":"N_COORD97","type":"esriFieldTypeDouble","alias":"N_COORD97"},{"name":"ADDRESS","type":"esriFieldTypeString","alias":"ADDRESS","length":50},{"name":"OBJECTID","type":"esriFieldTypeOID","alias":"OBJECTID"}],"features":[{"attributes":{"ID":313609,"DIS_CODE":0,"TOWNNAME":"新營區","LI":"忠政里","LIN":"7鄰","STREET":"中正路","SECT":" ","MAREA":" ","LANE":"３５巷","ALLEY":" ","HOUSE_NO":"１９號","E_COORD97":180010.48999999999,"N_COORD97":2579095.3799999999,"ADDRESS":"中正路３５巷１９號","OBJECTID":313601},"geometry":{"x":180010.49000000209,"y":2579095.3800000008}},{"attributes":{"ID":313610,"DIS_CODE":0,"TOWNNAME":"六甲區","LI":"中社里","LIN":"17鄰","STREET":" ","SECT":" ","MAREA":"林鳳營","LANE":" ","ALLEY":" ","HOUSE_NO":"１３８之１號","E_COORD97":180434.25,"N_COORD97":2571345.79,"ADDRESS":"林鳳營１３８之１號","OBJECTID":313602},"geometry":{"x":180434.25000000093,"y":2571345.790000001}},{"attributes":{"ID":313611,"DIS_CODE":0,"TOWNNAME":"六甲區","LI":"中社里","LIN":"17鄰","STREET":" ","SECT":" ","MAREA":"林鳳營","LANE":" ","ALLEY":" ","HOUSE_NO":"１３９號","E_COORD97":180443.72,"N_COORD97":2571341.1400000001,"ADDRESS":"林鳳營１３９號","OBJECTID":313603},"geometry":{"x":180443.71999999974,"y":2571341.1400000025}},{"attributes":{"ID":313612,"DIS_CODE":0,"TOWNNAME":"六甲區","LI":"中社里","LIN":"19鄰","STREET":" ","SECT":" ","MAREA":"林鳳營","LANE":" ","ALLEY":" ","HOUSE_NO":"１９１之１號","E_COORD97":180318.32999999999,"N_COORD97":2571210.2400000002,"ADDRESS":"林鳳營１９１之１號","OBJECTID":313604},"geometry":{"x":180318.33000000101,"y":2571210.2400000039}},{"attributes":{"ID":313613,"DIS_CODE":0,"TOWNNAME":"六甲區","LI":"中社里","LIN":"19鄰","STREET":" ","SECT":" ","MAREA":"林鳳營","LANE":" ","ALLEY":" ","HOUSE_NO":"１９１號","E_COORD97":180323.48999999999,"N_COORD97":2571226.5299999998,"ADDRESS":"林鳳營１９１號","OBJECTID":313605},"geometry":{"x":180323.49000000022,"y":2571226.5299999993}},{"attributes":{"ID":313614,"DIS_CODE":0,"TOWNNAME":"六甲區","LI":"中社里","LIN":"21鄰","STREET":" ","SECT":" ","MAREA":"林鳳營","LANE":" ","ALLEY":" ","HOUSE_NO":"２４０號之１０３","E_COORD97":180346.98000000001,"N_COORD97":2571084.3399999999,"ADDRESS":"林鳳營２４０號之１０３","OBJECTID":313606},"geometry":{"x":180346.98000000138,"y":2571084.3400000017}},{"attributes":{"ID":313615,"DIS_CODE":0,"TOWNNAME":"新營區","LI":"新北里","LIN":"7鄰","STREET":"三興街","SECT":" ","MAREA":" ","LANE":"３０１巷","ALLEY":" ","HOUSE_NO":"２９號","E_COORD97":179244.35999999999,"N_COORD97":2579714.77,"ADDRESS":"三興街３０１巷２９號","OBJECTID":313607},"geometry":{"x":179244.36000000034,"y":2579714.7699999996}},{"attributes":{"ID":313616,"DIS_CODE":0,"TOWNNAME":"新營區","LI":"新北里","LIN":"7鄰","STREET":"三興街","SECT":" ","MAREA":" ","LANE":"３０１巷","ALLEY":" ","HOUSE_NO":"３１號","E_COORD97":179240.29000000001,"N_COORD97":2579714.79,"ADDRESS":"三興街３０１巷３１號","OBJECTID":313608},"geometry":{"x":179240.2900000019,"y":2579714.7899999991}},{"attributes":{"ID":313617,"DIS_CODE":0,"TOWNNAME":"六甲區","LI":"中社里","LIN":"16鄰","STREET":" ","SECT":" ","MAREA":"林鳳營","LANE":" ","ALLEY":" ","HOUSE_NO":"３號","E_COORD97":180483.95999999999,"N_COORD97":2571185.73,"ADDRESS":"林鳳營３號","OBJECTID":313609},"geometry":{"x":180483.96000000089,"y":2571185.7300000004}},{"attributes":{"ID":313618,"DIS_CODE":0,"TOWNNAME":"新營區","LI":"南紙里","LIN":"7鄰","STREET":"南紙街","SECT":" ","MAREA":" ","LANE":"１１９巷","ALLEY":" ","HOUSE_NO":"２號","E_COORD97":177823.54999999999,"N_COORD97":2577417.0099999998,"ADDRESS":"南紙街１１９巷２號","OBJECTID":313610},"geometry":{"x":177823.55000000075,"y":2577417.0100000016}},{"attributes":{"ID":313619,"DIS_CODE":0,"TOWNNAME":"六甲區","LI":"二甲里","LIN":"26鄰","STREET":"建工街","SECT":" ","MAREA":" ","LANE":"５９巷","ALLEY":" ","HOUSE_NO":"１０號","E_COORD97":183160.53,"N_COORD97":2569446.7799999998,"ADDRESS":"建工街５９巷１０號","OBJECTID":313611},"geometry":{"x":183160.53000000119,"y":2569446.7800000012}},{"attributes":{"ID":313620,"DIS_CODE":0,"TOWNNAME":"六甲區","LI":"二甲里","LIN":"26鄰","STREET":"建工街","SECT":" ","MAREA":" ","LANE":"５９巷","ALLEY":" ","HOUSE_NO":"２號","E_COORD97":183156.25,"N_COORD97":2569434.6000000001,"ADDRESS":"建工街５９巷２號","OBJECTID":313612},"geometry":{"x":183156.25,"y":2569434.6000000015}},{"attributes":{"ID":313621,"DIS_CODE":0,"TOWNNAME":"六甲區","LI":"二甲里","LIN":"26鄰","STREET":"建工街","SECT":" ","MAREA":" ","LANE":"５９巷","ALLEY":" ","HOUSE_NO":"６號","E_COORD97":183157.54999999999,"N_COORD97":2569438.6499999999,"ADDRESS":"建工街５９巷６號","OBJECTID":313613},"geometry":{"x":183157.55000000168,"y":2569438.6500000022}},{"attributes":{"ID":313622,"DIS_CODE":0,"TOWNNAME":"六甲區","LI":"二甲里","LIN":"26鄰","STREET":"建工街","SECT":" ","MAREA":" ","LANE":"５９巷","ALLEY":" ","HOUSE_NO":"８號","E_COORD97":183158.82999999999,"N_COORD97":2569442.3500000001,"ADDRESS":"建工街５９巷８號","OBJECTID":313614},"geometry":{"x":183158.83000000007,"y":2569442.3499999978}},{"attributes":{"ID":313623,"DIS_CODE":0,"TOWNNAME":"歸仁區","LI":"歸南里","LIN":"5鄰","STREET":"中正南路","SECT":"一段","MAREA":" ","LANE":"４９２巷","ALLEY":" ","HOUSE_NO":"１８號","E_COORD97":176904.94,"N_COORD97":2540111.2799999998,"ADDRESS":"中正南路一段４９２巷１８號","OBJECTID":313615},"geometry":{"x":176904.94000000041,"y":2540111.2799999993}},{"attributes":{"ID":313624,"DIS_CODE":0,"TOWNNAME":"歸仁區","LI":"歸南里","LIN":"7鄰","STREET":"中正十六街","SECT":" ","MAREA":" ","LANE":"２巷","ALLEY":" ","HOUSE_NO":"３８號","E_COORD97":176585.91,"N_COORD97":2539909.9500000002,"ADDRESS":"中正十六街２巷３８號","OBJECTID":313616},"geometry":{"x":176585.91000000015,"y":2539909.9499999993}},{"attributes":{"ID":313625,"DIS_CODE":0,"TOWNNAME":"歸仁區","LI":"七甲里","LIN":"7鄰","STREET":"七甲一街","SECT":" ","MAREA":" ","LANE":"５５巷","ALLEY":" ","HOUSE_NO":"３６號","E_COORD97":177614.23999999999,"N_COORD97":2542632.6600000001,"ADDRESS":"七甲一街５５巷３６號","OBJECTID":313617},"geometry":{"x":177614.24000000115,"y":2542632.6600000001}},{"attributes":{"ID":313626,"DIS_CODE":0,"TOWNNAME":"麻豆區","LI":"安東里","LIN":"2鄰","STREET":" ","SECT":" ","MAREA":"安業","LANE":" ","ALLEY":" ","HOUSE_NO":"４７號之５","E_COORD97":172877.06,"N_COORD97":2562636.3500000001,"ADDRESS":"安業４７號之５","OBJECTID":313618},"geometry":{"x":172877.05999999959,"y":2562636.3500000015}},{"attributes":{"ID":313627,"DIS_CODE":0,"TOWNNAME":"歸仁區","LI":"武東里","LIN":"7鄰","STREET":"武東一街","SECT":" ","MAREA":" ","LANE":"４８巷","ALLEY":" ","HOUSE_NO":"２１號","E_COORD97":175601.89000000001,"N_COORD97":2535389.2400000002,"ADDRESS":"武東一街４８巷２１號","OBJECTID":313619},"geometry":{"x":175601.8900000006,"y":2535389.2400000021}},{"attributes":{"ID":313628,"DIS_CODE":0,"TOWNNAME":"歸仁區","LI":"八甲里","LIN":"7鄰","STREET":"中正北路","SECT":"一段","MAREA":" ","LANE":"２３１巷","ALLEY":" ","HOUSE_NO":"３０號","E_COORD97":177671.17999999999,"N_COORD97":2541648.4900000002,"ADDRESS":"中正北路一段２３１巷３０號","OBJECTID":313620},"geometry":{"x":177671.18000000063,"y":2541648.4900000021}},{"attributes":{"ID":313629,"DIS_CODE":0,"TOWNNAME":"新化區","LI":"太平里","LIN":"17鄰","STREET":"太平街","SECT":" ","MAREA":" ","LANE":" ","ALLEY":" ","HOUSE_NO":"９５號之７","E_COORD97":178615.72,"N_COORD97":2548732.2599999998,"ADDRESS":"太平街９５號之７","OBJECTID":313621},"geometry":{"x":178615.72000000067,"y":2548732.2600000016}},{"attributes":{"ID":313630,"DIS_CODE":0,"TOWNNAME":"佳里區","LI":"忠仁里","LIN":"17鄰","STREET":"博愛街","SECT":" ","MAREA":" ","LANE":" ","ALLEY":" ","HOUSE_NO":"３１號","E_COORD97":166096.39999999999,"N_COORD97":2562014.4100000001,"ADDRESS":"博愛街３１號","OBJECTID":313622},"geometry":{"x":166096.40000000037,"y":2562014.4100000039}},{"attributes":{"ID":313631,"DIS_CODE":0,"TOWNNAME":"佳里區","LI":"忠仁里","LIN":"17鄰","STREET":"博愛街","SECT":" ","MAREA":" ","LANE":" ","ALLEY":" ","HOUSE_NO":"３３號","E_COORD97":166090.20000000001,"N_COORD97":2562013.71,"ADDRESS":"博愛街３３號","OBJECTID":313623},"geometry":{"x":166090.20000000112,"y":2562013.7100000028}},{"attributes":{"ID":313632,"DIS_CODE":0,"TOWNNAME":"佳里區","LI":"忠仁里","LIN":"17鄰","STREET":"博愛街","SECT":" ","MAREA":" ","LANE":" ","ALLEY":" ","HOUSE_NO":"３７號","E_COORD97":166082,"N_COORD97":2562012.3199999998,"ADDRESS":"博愛街３７號","OBJECTID":313624},"geometry":{"x":166082,"y":2562012.3200000022}},{"attributes":{"ID":313633,"DIS_CODE":0,"TOWNNAME":"佳里區","LI":"忠仁里","LIN":"17鄰","STREET":"博愛街","SECT":" ","MAREA":" ","LANE":" ","ALLEY":" ","HOUSE_NO":"３９號","E_COORD97":166077.98999999999,"N_COORD97":2562011.6600000001,"ADDRESS":"博愛街３９號","OBJECTID":313625},"geometry":{"x":166077.99000000115,"y":2562011.6600000001}},{"attributes":{"ID":313634,"DIS_CODE":0,"TOWNNAME":"歸仁區","LI":"南保里","LIN":"7鄰","STREET":"文化街","SECT":"三段","MAREA":" ","LANE":"１８巷","ALLEY":" ","HOUSE_NO":"１２之１號","E_COORD97":176991.54000000001,"N_COORD97":2541304.3300000001,"ADDRESS":"文化街三段１８巷１２之１號","OBJECTID":313626},"geometry":{"x":176991.54000000097,"y":2541304.3300000019}},{"attributes":{"ID":313635,"DIS_CODE":0,"TOWNNAME":"六甲區","LI":"菁埔里","LIN":"7鄰","STREET":" ","SECT":" ","MAREA":"菁埔","LANE":" ","ALLEY":" ","HOUSE_NO":"２３４號","E_COORD97":178585.62,"N_COORD97":2569768.73,"ADDRESS":"菁埔２３４號","OBJECTID":313627},"geometry":{"x":178585.62000000104,"y":2569768.7300000004}},{"attributes":{"ID":313636,"DIS_CODE":0,"TOWNNAME":"歸仁區","LI":"許厝里","LIN":"7鄰","STREET":"仁愛八街","SECT":" ","MAREA":" ","LANE":"１７巷","ALLEY":" ","HOUSE_NO":"８號","E_COORD97":178203.56,"N_COORD97":2540603.4199999999,"ADDRESS":"仁愛八街１７巷８號","OBJECTID":313628},"geometry":{"x":178203.55999999959,"y":2540603.4199999999}},{"attributes":{"ID":313637,"DIS_CODE":0,"TOWNNAME":"關廟區","LI":"北花里","LIN":"7鄰","STREET":"四維街","SECT":" ","MAREA":" ","LANE":"３６２巷","ALLEY":" ","HOUSE_NO":"６號","E_COORD97":181890.95999999999,"N_COORD97":2540259.25,"ADDRESS":"四維街３６２巷６號","OBJECTID":313629},"geometry":{"x":181890.96000000089,"y":2540259.2500000037}},{"attributes":{"ID":313638,"DIS_CODE":0,"TOWNNAME":"關廟區","LI":"北勢里","LIN":"7鄰","STREET":"成功路","SECT":" ","MAREA":" ","LANE":"８６巷","ALLEY":" ","HOUSE_NO":"８號","E_COORD97":181730.92000000001,"N_COORD97":2540469.27,"ADDRESS":"成功路８６巷８號","OBJECTID":313630},"geometry":{"x":181730.91999999993,"y":2540469.2700000014}},{"attributes":{"ID":313639,"DIS_CODE":0,"TOWNNAME":"關廟區","LI":"北勢里","LIN":"7鄰","STREET":"成功路","SECT":" ","MAREA":" ","LANE":"４６巷","ALLEY":" ","HOUSE_NO":"１２號","E_COORD97":181771.67000000001,"N_COORD97":2540450.27,"ADDRESS":"成功路４６巷１２號","OBJECTID":313631},"geometry":{"x":181771.66999999993,"y":2540450.2699999996}},{"attributes":{"ID":313640,"DIS_CODE":0,"TOWNNAME":"關廟區","LI":"北勢里","LIN":"7鄰","STREET":"成功路","SECT":" ","MAREA":" ","LANE":"４６巷","ALLEY":" ","HOUSE_NO":"８號","E_COORD97":181767.82000000001,"N_COORD97":2540420.27,"ADDRESS":"成功路４６巷８號","OBJECTID":313632},"geometry":{"x":181767.82000000216,"y":2540420.2699999996}},{"attributes":{"ID":313641,"DIS_CODE":0,"TOWNNAME":"關廟區","LI":"北花里","LIN":"7鄰","STREET":"四維街","SECT":" ","MAREA":" ","LANE":"３８０巷","ALLEY":" ","HOUSE_NO":"１號","E_COORD97":181880.95999999999,"N_COORD97":2540297.25,"ADDRESS":"四維街３８０巷１號","OBJECTID":313633},"geometry":{"x":181880.96000000089,"y":2540297.2500000019}},{"attributes":{"ID":313642,"DIS_CODE":0,"TOWNNAME":"關廟區","LI":"北花里","LIN":"7鄰","STREET":"四維街","SECT":" ","MAREA":" ","LANE":"３６８巷","ALLEY":" ","HOUSE_NO":"８號","E_COORD97":181897.85999999999,"N_COORD97":2540266.25,"ADDRESS":"四維街３６８巷８號","OBJECTID":313634},"geometry":{"x":181897.86000000034,"y":2540266.2500000037}},{"attributes":{"ID":313643,"DIS_CODE":0,"TOWNNAME":"關廟區","LI":"北勢里","LIN":"7鄰","STREET":"成功路","SECT":" ","MAREA":" ","LANE":"８６巷","ALLEY":" ","HOUSE_NO":"１０號","E_COORD97":181750.97,"N_COORD97":2540470.27,"ADDRESS":"成功路８６巷１０號","OBJECTID":313635},"geometry":{"x":181750.9700000016,"y":2540470.2700000014}},{"attributes":{"ID":313644,"DIS_CODE":0,"TOWNNAME":"六甲區","LI":"王爺里","LIN":"8鄰","STREET":" ","SECT":" ","MAREA":"番子坑","LANE":" ","ALLEY":" ","HOUSE_NO":"３５號","E_COORD97":188642.13,"N_COORD97":2569383.77,"ADDRESS":"番子坑３５號","OBJECTID":313636},"geometry":{"x":188642.12999999989,"y":2569383.7699999996}},{"attributes":{"ID":313645,"DIS_CODE":0,"TOWNNAME":"六甲區","LI":"王爺里","LIN":"8鄰","STREET":" ","SECT":" ","MAREA":"番子坑","LANE":" ","ALLEY":" ","HOUSE_NO":"３６號","E_COORD97":188613.39999999999,"N_COORD97":2569401.98,"ADDRESS":"番子坑３６號","OBJECTID":313637},"geometry":{"x":188613.4000000013,"y":2569401.9800000042}},{"attributes":{"ID":313646,"DIS_CODE":0,"TOWNNAME":"六甲區","LI":"王爺里","LIN":"8鄰","STREET":" ","SECT":" ","MAREA":"番子坑","LANE":" ","ALLEY":" ","HOUSE_NO":"３７號","E_COORD97":188449.84,"N_COORD97":2569314.0899999999,"ADDRESS":"番子坑３７號","OBJECTID":313638},"geometry":{"x":188449.84000000171,"y":2569314.0899999999}},{"attributes":{"ID":313647,"DIS_CODE":0,"TOWNNAME":"六甲區","LI":"王爺里","LIN":"8鄰","STREET":" ","SECT":" ","MAREA":"番子坑","LANE":" ","ALLEY":" ","HOUSE_NO":"３８號","E_COORD97":188466.54999999999,"N_COORD97":2569321.5299999998,"ADDRESS":"番子坑３８號","OBJECTID":313639},"geometry":{"x":188466.54999999981,"y":2569321.5299999993}},{"attributes":{"ID":313648,"DIS_CODE":0,"TOWNNAME":"六甲區","LI":"王爺里","LIN":"8鄰","STREET":" ","SECT":" ","MAREA":"番子坑","LANE":" ","ALLEY":" ","HOUSE_NO":"４０號","E_COORD97":188463.25,"N_COORD97":2569286.5899999999,"ADDRESS":"番子坑４０號","OBJECTID":313640},"geometry":{"x":188463.25,"y":2569286.5900000017}},{"attributes":{"ID":313649,"DIS_CODE":0,"TOWNNAME":"六甲區","LI":"王爺里","LIN":"8鄰","STREET":" ","SECT":" ","MAREA":"番子坑","LANE":" ","ALLEY":" ","HOUSE_NO":"４１號","E_COORD97":188481.20000000001,"N_COORD97":2569297.8100000001,"ADDRESS":"番子坑４１號","OBJECTID":313641},"geometry":{"x":188481.20000000019,"y":2569297.8099999987}},{"attributes":{"ID":313650,"DIS_CODE":0,"TOWNNAME":"六甲區","LI":"王爺里","LIN":"8鄰","STREET":" ","SECT":" ","MAREA":"番子坑","LANE":" ","ALLEY":" ","HOUSE_NO":"４２號","E_COORD97":188523.35000000001,"N_COORD97":2569280.7400000002,"ADDRESS":"番子坑４２號","OBJECTID":313642},"geometry":{"x":188523.34999999963,"y":2569280.7400000002}},{"attributes":{"ID":313651,"DIS_CODE":0,"TOWNNAME":"六甲區","LI":"王爺里","LIN":"8鄰","STREET":" ","SECT":" ","MAREA":"番子坑","LANE":" ","ALLEY":" ","HOUSE_NO":"４３號","E_COORD97":188515.70000000001,"N_COORD97":2569266.21,"ADDRESS":"番子坑４３號","OBJECTID":313643},"geometry":{"x":188515.70000000112,"y":2569266.2100000028}},{"attributes":{"ID":313652,"DIS_CODE":0,"TOWNNAME":"關廟區","LI":"北花里","LIN":"7鄰","STREET":"四維街","SECT":" ","MAREA":" ","LANE":"３８０巷","ALLEY":" ","HOUSE_NO":"１０號","E_COORD97":181920.60999999999,"N_COORD97":2540276.25,"ADDRESS":"四維街３８０巷１０號","OBJECTID":313644},"geometry":{"x":181920.61000000127,"y":2540276.2500000037}},{"attributes":{"ID":313653,"DIS_CODE":0,"TOWNNAME":"六甲區","LI":"王爺里","LIN":"8鄰","STREET":" ","SECT":" ","MAREA":"番子坑","LANE":" ","ALLEY":" ","HOUSE_NO":"４４號","E_COORD97":188491.56,"N_COORD97":2569252.7400000002,"ADDRESS":"番子坑４４號","OBJECTID":313645},"geometry":{"x":188491.55999999959,"y":2569252.7400000002}},{"attributes":{"ID":313654,"DIS_CODE":0,"TOWNNAME":"六甲區","LI":"王爺里","LIN":"8鄰","STREET":" ","SECT":" ","MAREA":"番子坑","LANE":" ","ALLEY":" ","HOUSE_NO":"４５號","E_COORD97":188488.53,"N_COORD97":2569269.1499999999,"ADDRESS":"番子坑４５號","OBJECTID":313646},"geometry":{"x":188488.53000000119,"y":2569269.1500000022}},{"attributes":{"ID":313655,"DIS_CODE":0,"TOWNNAME":"六甲區","LI":"王爺里","LIN":"8鄰","STREET":" ","SECT":" ","MAREA":"番子坑","LANE":" ","ALLEY":" ","HOUSE_NO":"４６號","E_COORD97":188502.64999999999,"N_COORD97":2569226.9700000002,"ADDRESS":"番子坑４６號","OBJECTID":313647},"geometry":{"x":188502.6500000013,"y":2569226.9700000025}},{"attributes":{"ID":313656,"DIS_CODE":0,"TOWNNAME":"六甲區","LI":"王爺里","LIN":"8鄰","STREET":" ","SECT":" ","MAREA":"番子坑","LANE":" ","ALLEY":" ","HOUSE_NO":"４７號","E_COORD97":188493.26999999999,"N_COORD97":2569240.29,"ADDRESS":"番子坑４７號","OBJECTID":313648},"geometry":{"x":188493.26999999955,"y":2569240.290000001}},{"attributes":{"ID":313657,"DIS_CODE":0,"TOWNNAME":"六甲區","LI":"王爺里","LIN":"8鄰","STREET":" ","SECT":" ","MAREA":"番子坑","LANE":" ","ALLEY":" ","HOUSE_NO":"４８號","E_COORD97":188500.42999999999,"N_COORD97":2569232.3300000001,"ADDRESS":"番子坑４８號","OBJECTID":313649},"geometry":{"x":188500.43000000063,"y":2569232.3300000001}},{"attributes":{"ID":313658,"DIS_CODE":0,"TOWNNAME":"歸仁區","LI":"沙崙里","LIN":"1鄰","STREET":" ","SECT":" ","MAREA":"二甲","LANE":" ","ALLEY":" ","HOUSE_NO":"１３４號","E_COORD97":178485.28824699999,"N_COORD97":2539284.1261800001,"ADDRESS":"二甲１３４號","OBJECTID":313650},"geometry":{"x":178485.28824700043,"y":2539284.1261790004}},{"attributes":{"ID":313659,"DIS_CODE":0,"TOWNNAME":"六甲區","LI":"菁埔里","LIN":"7鄰","STREET":" ","SECT":" ","MAREA":"菁埔","LANE":" ","ALLEY":" ","HOUSE_NO":"２５３號","E_COORD97":178078.57000000001,"N_COORD97":2569830.0899999999,"ADDRESS":"菁埔２５３號","OBJECTID":313651},"geometry":{"x":178078.5700000003,"y":2569830.0899999999}},{"attributes":{"ID":313660,"DIS_CODE":0,"TOWNNAME":"六甲區","LI":"菁埔里","LIN":"7鄰","STREET":" ","SECT":" ","MAREA":"菁埔","LANE":" ","ALLEY":" ","HOUSE_NO":"２５５號","E_COORD97":178288.20999999999,"N_COORD97":2569697.8799999999,"ADDRESS":"菁埔２５５號","OBJECTID":313652},"geometry":{"x":178288.21000000089,"y":2569697.879999999}},{"attributes":{"ID":313661,"DIS_CODE":0,"TOWNNAME":"六甲區","LI":"菁埔里","LIN":"7鄰","STREET":" ","SECT":" ","MAREA":"菁埔","LANE":" ","ALLEY":" ","HOUSE_NO":"２５６之１號","E_COORD97":178032.20999999999,"N_COORD97":2569715.98,"ADDRESS":"菁埔２５６之１號","OBJECTID":313653},"geometry":{"x":178032.21000000089,"y":2569715.9800000004}},{"attributes":{"ID":313662,"DIS_CODE":0,"TOWNNAME":"六甲區","LI":"菁埔里","LIN":"7鄰","STREET":" ","SECT":" ","MAREA":"菁埔","LANE":" ","ALLEY":" ","HOUSE_NO":"２５６之２號","E_COORD97":178058.20999999999,"N_COORD97":2569716.3399999999,"ADDRESS":"菁埔２５６之２號","OBJECTID":313654},"geometry":{"x":178058.21000000089,"y":2569716.3399999999}},{"attributes":{"ID":313663,"DIS_CODE":0,"TOWNNAME":"麻豆區","LI":"龍泉里","LIN":"1鄰","STREET":" ","SECT":" ","MAREA":"溝子墘","LANE":" ","ALLEY":" ","HOUSE_NO":"２號之７","E_COORD97":173920.75811600001,"N_COORD97":2563729.38949,"ADDRESS":"溝子墘２號之７","OBJECTID":313655},"geometry":{"x":173920.75811600126,"y":2563729.3894890025}},{"attributes":{"ID":313664,"DIS_CODE":0,"TOWNNAME":"六甲區","LI":"菁埔里","LIN":"7鄰","STREET":" ","SECT":" ","MAREA":"菁埔","LANE":" ","ALLEY":" ","HOUSE_NO":"２５６之３號","E_COORD97":178040.39000000001,"N_COORD97":2569784.0600000001,"ADDRESS":"菁埔２５６之３號","OBJECTID":313656},"geometry":{"x":178040.38999999966,"y":2569784.0600000005}},{"attributes":{"ID":313665,"DIS_CODE":0,"TOWNNAME":"六甲區","LI":"菁埔里","LIN":"7鄰","STREET":" ","SECT":" ","MAREA":"菁埔","LANE":" ","ALLEY":" ","HOUSE_NO":"２５６之５號","E_COORD97":178045.48000000001,"N_COORD97":2569688.3399999999,"ADDRESS":"菁埔２５６之５號","OBJECTID":313657},"geometry":{"x":178045.48000000045,"y":2569688.3400000017}},{"attributes":{"ID":313666,"DIS_CODE":0,"TOWNNAME":"六甲區","LI":"菁埔里","LIN":"8鄰","STREET":" ","SECT":" ","MAREA":"菁埔寮","LANE":" ","ALLEY":" ","HOUSE_NO":"７號","E_COORD97":177854.82000000001,"N_COORD97":2570136.2400000002,"ADDRESS":"菁埔寮７號","OBJECTID":313658},"geometry":{"x":177854.8200000003,"y":2570136.2400000021}},{"attributes":{"ID":313667,"DIS_CODE":0,"TOWNNAME":"新營區","LI":"嘉芳里","LIN":"5鄰","STREET":" ","SECT":" ","MAREA":"茄苳腳","LANE":" ","ALLEY":" ","HOUSE_NO":"５７號之９","E_COORD97":176912.42999999999,"N_COORD97":2578390.5600000001,"ADDRESS":"茄苳腳５７之９號","OBJECTID":313659},"geometry":{"x":176912.4299999997,"y":2578390.5600000024}},{"attributes":{"ID":313668,"DIS_CODE":0,"TOWNNAME":"新營區","LI":"嘉芳里","LIN":"5鄰","STREET":" ","SECT":" ","MAREA":"茄苳腳","LANE":" ","ALLEY":" ","HOUSE_NO":"５７號之４１","E_COORD97":176829.06,"N_COORD97":2578447.46,"ADDRESS":"茄苳腳５７之４１號","OBJECTID":313660},"geometry":{"x":176829.06000000145,"y":2578447.4600000009}},{"attributes":{"ID":313669,"DIS_CODE":0,"TOWNNAME":"麻豆區","LI":"安西里","LIN":"3鄰","STREET":" ","SECT":" ","MAREA":"安業","LANE":" ","ALLEY":" ","HOUSE_NO":"２０７號","E_COORD97":172526.03,"N_COORD97":2562074.73,"ADDRESS":"安業２０７號","OBJECTID":313661},"geometry":{"x":172526.03000000212,"y":2562074.7300000023}},{"attributes":{"ID":313670,"DIS_CODE":0,"TOWNNAME":"新營區","LI":"大宏里","LIN":"8鄰","STREET":"民族路","SECT":" ","MAREA":" ","LANE":" ","ALLEY":" ","HOUSE_NO":"２號之１","E_COORD97":180308.97,"N_COORD97":2578340.9700000002,"ADDRESS":"民族路２號之１","OBJECTID":313662},"geometry":{"x":180308.97000000067,"y":2578340.9700000007}},{"attributes":{"ID":313671,"DIS_CODE":0,"TOWNNAME":"新營區","LI":"王公里","LIN":"14鄰","STREET":"中正路","SECT":" ","MAREA":" ","LANE":" ","ALLEY":" ","HOUSE_NO":"９６號之２","E_COORD97":180112.22,"N_COORD97":2579323.1000000001,"ADDRESS":"中正路９６號之２","OBJECTID":313663},"geometry":{"x":180112.22000000067,"y":2579323.0999999996}},{"attributes":{"ID":313672,"DIS_CODE":0,"TOWNNAME":"關廟區","LI":"北勢里","LIN":"7鄰","STREET":"成功路","SECT":" ","MAREA":" ","LANE":"３６巷","ALLEY":" ","HOUSE_NO":"１０號","E_COORD97":181779.76999999999,"N_COORD97":2540444.27,"ADDRESS":"成功路３６巷１０號","OBJECTID":313664},"geometry":{"x":181779.77000000048,"y":2540444.2699999996}},{"attributes":{"ID":313673,"DIS_CODE":0,"TOWNNAME":"關廟區","LI":"北勢里","LIN":"7鄰","STREET":"成功路","SECT":" ","MAREA":" ","LANE":"８６巷","ALLEY":" ","HOUSE_NO":"１５號","E_COORD97":181724.07000000001,"N_COORD97":2540475.27,"ADDRESS":"成功路８６巷１５號","OBJECTID":313665},"geometry":{"x":181724.07000000123,"y":2540475.2699999996}},{"attributes":{"ID":313674,"DIS_CODE":0,"TOWNNAME":"關廟區","LI":"東勢里","LIN":"7鄰","STREET":"和平路","SECT":" ","MAREA":" ","LANE":"２２巷","ALLEY":" ","HOUSE_NO":"２６號","E_COORD97":181817.34,"N_COORD97":2539375.25,"ADDRESS":"和平路２２巷２６號","OBJECTID":313666},"geometry":{"x":181817.33999999985,"y":2539375.2500000019}},{"attributes":{"ID":313675,"DIS_CODE":0,"TOWNNAME":"關廟區","LI":"五甲里","LIN":"7鄰","STREET":"五慧街","SECT":" ","MAREA":" ","LANE":"１６巷","ALLEY":" ","HOUSE_NO":"２２號","E_COORD97":181215.47,"N_COORD97":2539318.25,"ADDRESS":"五慧街１６巷２２號","OBJECTID":313667},"geometry":{"x":181215.47000000067,"y":2539318.2500000019}},{"attributes":{"ID":313676,"DIS_CODE":0,"TOWNNAME":"關廟區","LI":"香洋里","LIN":"7鄰","STREET":"南雄路","SECT":"二段","MAREA":" ","LANE":"５１巷","ALLEY":" ","HOUSE_NO":"１７號","E_COORD97":181068.14000000001,"N_COORD97":2540164.02,"ADDRESS":"南雄路二段５１巷１７號","OBJECTID":313668},"geometry":{"x":181068.13999999966,"y":2540164.0199999996}},{"attributes":{"ID":313677,"DIS_CODE":0,"TOWNNAME":"關廟區","LI":"香洋里","LIN":"7鄰","STREET":"南雄路","SECT":"二段","MAREA":" ","LANE":"５１巷","ALLEY":" ","HOUSE_NO":"９號","E_COORD97":181080.29000000001,"N_COORD97":2540160.02,"ADDRESS":"南雄路二段５１巷９號","OBJECTID":313669},"geometry":{"x":181080.29000000097,"y":2540160.0200000014}},{"attributes":{"ID":313678,"DIS_CODE":0,"TOWNNAME":"關廟區","LI":"香洋里","LIN":"7鄰","STREET":"中央路","SECT":" ","MAREA":" ","LANE":"２５２巷","ALLEY":" ","HOUSE_NO":"２號","E_COORD97":181058.70999999999,"N_COORD97":2540150.0600000001,"ADDRESS":"中央路２５２巷２號","OBJECTID":313670},"geometry":{"x":181058.71000000089,"y":2540150.0600000024}},{"attributes":{"ID":313679,"DIS_CODE":0,"TOWNNAME":"關廟區","LI":"埤頭里","LIN":"7鄰","STREET":"保東路","SECT":" ","MAREA":" ","LANE":"５８巷","ALLEY":" ","HOUSE_NO":"１９號","E_COORD97":178984.37,"N_COORD97":2544061.2999999998,"ADDRESS":"保東路５８巷１９號","OBJECTID":313671},"geometry":{"x":178984.37000000104,"y":2544061.3000000026}},{"attributes":{"ID":313680,"DIS_CODE":0,"TOWNNAME":"關廟區","LI":"龜洞里","LIN":"7鄰","STREET":"南雄南路","SECT":" ","MAREA":" ","LANE":"７０１巷","ALLEY":" ","HOUSE_NO":"６號","E_COORD97":183367.73999999999,"N_COORD97":2533442.25,"ADDRESS":"南雄南路７０１巷６號","OBJECTID":313672},"geometry":{"x":183367.74000000115,"y":2533442.2500000019}},{"attributes":{"ID":313681,"DIS_CODE":0,"TOWNNAME":"關廟區","LI":"龜洞里","LIN":"7鄰","STREET":"南雄南路","SECT":" ","MAREA":" ","LANE":"７８１巷","ALLEY":" ","HOUSE_NO":"２１號","E_COORD97":183255.23999999999,"N_COORD97":2533206.25,"ADDRESS":"南雄南路７８１巷２１號","OBJECTID":313673},"geometry":{"x":183255.24000000115,"y":2533206.25}},{"attributes":{"ID":313682,"DIS_CODE":0,"TOWNNAME":"佳里區","LI":"忠仁里","LIN":"17鄰","STREET":"博愛街","SECT":" ","MAREA":" ","LANE":" ","ALLEY":" ","HOUSE_NO":"４１號","E_COORD97":166074.01000000001,"N_COORD97":2562011.1600000001,"ADDRESS":"博愛街４１號","OBJECTID":313674},"geometry":{"x":166074.01000000071,"y":2562011.1600000001}},{"attributes":{"ID":313683,"DIS_CODE":0,"TOWNNAME":"佳里區","LI":"忠仁里","LIN":"17鄰","STREET":"博愛街","SECT":" ","MAREA":" ","LANE":" ","ALLEY":" ","HOUSE_NO":"４３號","E_COORD97":166069.95999999999,"N_COORD97":2562010.5699999998,"ADDRESS":"博愛街４３號","OBJECTID":313675},"geometry":{"x":166069.96000000089,"y":2562010.5700000022}},{"attributes":{"ID":313684,"DIS_CODE":0,"TOWNNAME":"麻豆區","LI":"東角里","LIN":"14鄰","STREET":"同仁街","SECT":" ","MAREA":" ","LANE":" ","ALLEY":" ","HOUSE_NO":"６號之１","E_COORD97":173736.10000000001,"N_COORD97":2564691.4900000002,"ADDRESS":"同仁街６號之１","OBJECTID":313676},"geometry":{"x":173736.09999999963,"y":2564691.4900000002}},{"attributes":{"ID":313685,"DIS_CODE":0,"TOWNNAME":"麻豆區","LI":"安東里","LIN":"1鄰","STREET":" ","SECT":" ","MAREA":"安業","LANE":" ","ALLEY":" ","HOUSE_NO":"２號","E_COORD97":172855.98999999999,"N_COORD97":2563032.7000000002,"ADDRESS":"安業２號","OBJECTID":313677},"geometry":{"x":172855.99000000022,"y":2563032.7000000011}},{"attributes":{"ID":313686,"DIS_CODE":0,"TOWNNAME":"麻豆區","LI":"安東里","LIN":"4鄰","STREET":" ","SECT":" ","MAREA":"安業","LANE":" ","ALLEY":" ","HOUSE_NO":"４４號","E_COORD97":172861.35999999999,"N_COORD97":2562889.5,"ADDRESS":"安業４４號","OBJECTID":313678},"geometry":{"x":172861.36000000127,"y":2562889.5000000019}},{"attributes":{"ID":313687,"DIS_CODE":0,"TOWNNAME":"麻豆區","LI":"安東里","LIN":"4鄰","STREET":" ","SECT":" ","MAREA":"安業","LANE":" ","ALLEY":" ","HOUSE_NO":"４５號之１","E_COORD97":172855.67000000001,"N_COORD97":2562930.7000000002,"ADDRESS":"安業４５號之１","OBJECTID":313679},"geometry":{"x":172855.67000000086,"y":2562930.7000000011}},{"attributes":{"ID":313688,"DIS_CODE":0,"TOWNNAME":"麻豆區","LI":"安東里","LIN":"4鄰","STREET":" ","SECT":" ","MAREA":"安業","LANE":" ","ALLEY":" ","HOUSE_NO":"４５號之２","E_COORD97":172876.04000000001,"N_COORD97":2562930.1800000002,"ADDRESS":"安業４５號之２","OBJECTID":313680},"geometry":{"x":172876.04000000004,"y":2562930.1799999997}},{"attributes":{"ID":313689,"DIS_CODE":0,"TOWNNAME":"麻豆區","LI":"安東里","LIN":"4鄰","STREET":" ","SECT":" ","MAREA":"安業","LANE":" ","ALLEY":" ","HOUSE_NO":"４５號之３","E_COORD97":172833.39000000001,"N_COORD97":2562933.6299999999,"ADDRESS":"安業４５號之３","OBJECTID":313681},"geometry":{"x":172833.3900000006,"y":2562933.6299999971}},{"attributes":{"ID":313690,"DIS_CODE":0,"TOWNNAME":"麻豆區","LI":"安東里","LIN":"4鄰","STREET":" ","SECT":" ","MAREA":"安業","LANE":" ","ALLEY":" ","HOUSE_NO":"４５號","E_COORD97":172841.88,"N_COORD97":2562910.7200000002,"ADDRESS":"安業４５號","OBJECTID":313682},"geometry":{"x":172841.88000000175,"y":2562910.7200000007}},{"attributes":{"ID":313691,"DIS_CODE":0,"TOWNNAME":"麻豆區","LI":"安東里","LIN":"1鄰","STREET":" ","SECT":" ","MAREA":"安業","LANE":" ","ALLEY":" ","HOUSE_NO":"４號之１","E_COORD97":172830.32999999999,"N_COORD97":2562983.3599999999,"ADDRESS":"安業４號之１","OBJECTID":313683},"geometry":{"x":172830.33000000007,"y":2562983.3599999975}},{"attributes":{"ID":313692,"DIS_CODE":0,"TOWNNAME":"麻豆區","LI":"安東里","LIN":"1鄰","STREET":" ","SECT":" ","MAREA":"安業","LANE":" ","ALLEY":" ","HOUSE_NO":"５號之１","E_COORD97":172825.28,"N_COORD97":2562956.4900000002,"ADDRESS":"安業５號之１","OBJECTID":313684},"geometry":{"x":172825.28000000026,"y":2562956.4900000039}},{"attributes":{"ID":313693,"DIS_CODE":0,"TOWNNAME":"麻豆區","LI":"安東里","LIN":"1鄰","STREET":" ","SECT":" ","MAREA":"安業","LANE":" ","ALLEY":" ","HOUSE_NO":"５號之２","E_COORD97":172832.51999999999,"N_COORD97":2562970.4900000002,"ADDRESS":"安業５號之２","OBJECTID":313685},"geometry":{"x":172832.52000000048,"y":2562970.4900000021}},{"attributes":{"ID":313694,"DIS_CODE":0,"TOWNNAME":"麻豆區","LI":"安東里","LIN":"1鄰","STREET":" ","SECT":" ","MAREA":"安業","LANE":" ","ALLEY":" ","HOUSE_NO":"５號","E_COORD97":172834.48999999999,"N_COORD97":2562957.5,"ADDRESS":"安業５號","OBJECTID":313686},"geometry":{"x":172834.49000000022,"y":2562957.5000000019}},{"attributes":{"ID":313695,"DIS_CODE":0,"TOWNNAME":"麻豆區","LI":"安東里","LIN":"6鄰","STREET":" ","SECT":" ","MAREA":"安業","LANE":" ","ALLEY":" ","HOUSE_NO":"５５號之１","E_COORD97":173079.17000000001,"N_COORD97":2562513.3500000001,"ADDRESS":"安業５５號之１","OBJECTID":313687},"geometry":{"x":173079.17000000086,"y":2562513.3500000015}},{"attributes":{"ID":313696,"DIS_CODE":0,"TOWNNAME":"麻豆區","LI":"安東里","LIN":"6鄰","STREET":" ","SECT":" ","MAREA":"安業","LANE":" ","ALLEY":" ","HOUSE_NO":"５５號之２","E_COORD97":173073.19,"N_COORD97":2562511.3399999999,"ADDRESS":"安業５５號之２","OBJECTID":313688},"geometry":{"x":173073.19000000134,"y":2562511.3399999999}},{"attributes":{"ID":313697,"DIS_CODE":0,"TOWNNAME":"麻豆區","LI":"安東里","LIN":"6鄰","STREET":" ","SECT":" ","MAREA":"安業","LANE":" ","ALLEY":" ","HOUSE_NO":"５５號","E_COORD97":173083.23000000001,"N_COORD97":2562514.6000000001,"ADDRESS":"安業５５號","OBJECTID":313689},"geometry":{"x":173083.23000000138,"y":2562514.6000000015}},{"attributes":{"ID":313698,"DIS_CODE":0,"TOWNNAME":"麻豆區","LI":"安東里","LIN":"6鄰","STREET":" ","SECT":" ","MAREA":"安業","LANE":" ","ALLEY":" ","HOUSE_NO":"５９號","E_COORD97":173016.34,"N_COORD97":2562487,"ADDRESS":"安業５９號","OBJECTID":313690},"geometry":{"x":173016.33999999985,"y":2562487}},{"attributes":{"ID":313699,"DIS_CODE":0,"TOWNNAME":"麻豆區","LI":"安東里","LIN":"2鄰","STREET":" ","SECT":" ","MAREA":"安業","LANE":" ","ALLEY":" ","HOUSE_NO":"４７號之２","E_COORD97":172900.62,"N_COORD97":2562567.8599999999,"ADDRESS":"安業４７號之２","OBJECTID":313691},"geometry":{"x":172900.62000000104,"y":2562567.8600000013}},{"attributes":{"ID":313700,"DIS_CODE":0,"TOWNNAME":"麻豆區","LI":"安東里","LIN":"2鄰","STREET":" ","SECT":" ","MAREA":"安業","LANE":" ","ALLEY":" ","HOUSE_NO":"４７號之４","E_COORD97":172890.39999999999,"N_COORD97":2562592,"ADDRESS":"安業４７號之４","OBJECTID":313692},"geometry":{"x":172890.4000000013,"y":2562592}},{"attributes":{"ID":313701,"DIS_CODE":0,"TOWNNAME":"新營區","LI":"土庫里","LIN":"8鄰","STREET":" ","SECT":" ","MAREA":"土庫","LANE":" ","ALLEY":" ","HOUSE_NO":"７１號之１０","E_COORD97":182790.01000000001,"N_COORD97":2579957.4500000002,"ADDRESS":"土庫７１號之１０","OBJECTID":313693},"geometry":{"x":182790.01000000164,"y":2579957.4499999993}},{"attributes":{"ID":313702,"DIS_CODE":0,"TOWNNAME":"新營區","LI":"土庫里","LIN":"13鄰","STREET":" ","SECT":" ","MAREA":"土庫","LANE":" ","ALLEY":" ","HOUSE_NO":"１１１之１號","E_COORD97":183337.17000000001,"N_COORD97":2579733.4900000002,"ADDRESS":"土庫１１１之１號","OBJECTID":313694},"geometry":{"x":183337.17000000086,"y":2579733.4900000021}},{"attributes":{"ID":313703,"DIS_CODE":0,"TOWNNAME":"新營區","LI":"土庫里","LIN":" ","STREET":" ","SECT":" ","MAREA":"土庫","LANE":" ","ALLEY":" ","HOUSE_NO":"７１之５０號","E_COORD97":182365.85999999999,"N_COORD97":2580021.3999999999,"ADDRESS":"土庫７１之５０號","OBJECTID":313695},"geometry":{"x":182365.86000000034,"y":2580021.4000000022}},{"attributes":{"ID":313704,"DIS_CODE":0,"TOWNNAME":"新營區","LI":"大宏里","LIN":"8鄰","STREET":"文昌街","SECT":" ","MAREA":" ","LANE":" ","ALLEY":" ","HOUSE_NO":"２２號之８","E_COORD97":180421.03,"N_COORD97":2578414.6499999999,"ADDRESS":"文昌街２２號之８","OBJECTID":313696},"geometry":{"x":180421.03000000119,"y":2578414.6500000004}},{"attributes":{"ID":313705,"DIS_CODE":0,"TOWNNAME":"新營區","LI":"新東里","LIN":"20鄰","STREET":"東明街","SECT":" ","MAREA":" ","LANE":"２巷","ALLEY":" ","HOUSE_NO":"５０號","E_COORD97":180889.09,"N_COORD97":2579529.7999999998,"ADDRESS":"東明街２巷５０號","OBJECTID":313697},"geometry":{"x":180889.08999999892,"y":2579529.8000000007}},{"attributes":{"ID":313706,"DIS_CODE":0,"TOWNNAME":"新營區","LI":"土庫里","LIN":" ","STREET":"開元路","SECT":" ","MAREA":" ","LANE":"２８３巷","ALLEY":" ","HOUSE_NO":"２２之１號","E_COORD97":181749.79000000001,"N_COORD97":2579979.9300000002,"ADDRESS":"開元路２８３巷２２之１號","OBJECTID":313698},"geometry":{"x":181749.79000000097,"y":2579979.9300000016}},{"attributes":{"ID":313707,"DIS_CODE":0,"TOWNNAME":"新營區","LI":"南興里","LIN":"10鄰","STREET":"和平路","SECT":" ","MAREA":" ","LANE":"１０２巷","ALLEY":" ","HOUSE_NO":"５號之１","E_COORD97":179387.82999999999,"N_COORD97":2577591.1600000001,"ADDRESS":"和平路１０２巷５之１號","OBJECTID":313699},"geometry":{"x":179387.83000000101,"y":2577591.1600000001}},{"attributes":{"ID":313708,"DIS_CODE":0,"TOWNNAME":"新營區","LI":"南興里","LIN":"18鄰","STREET":"建業路","SECT":" ","MAREA":" ","LANE":"１５７巷","ALLEY":" ","HOUSE_NO":"１８號","E_COORD97":178382.31,"N_COORD97":2577434.23,"ADDRESS":"建業路１５７巷１８號","OBJECTID":313700},"geometry":{"x":178382.31000000052,"y":2577434.2300000004}},{"attributes":{"ID":313709,"DIS_CODE":0,"TOWNNAME":"新營區","LI":"嘉芳里","LIN":" ","STREET":"復興路","SECT":" ","MAREA":" ","LANE":"１０７４巷","ALLEY":" ","HOUSE_NO":"６號","E_COORD97":176135.95999999999,"N_COORD97":2578918.1800000002,"ADDRESS":"復興路１０７４巷６號","OBJECTID":313701},"geometry":{"x":176135.96000000089,"y":2578918.1800000016}},{"attributes":{"ID":313710,"DIS_CODE":0,"TOWNNAME":"關廟區","LI":"埤頭里","LIN":"7鄰","STREET":"保東路","SECT":" ","MAREA":" ","LANE":"５８巷","ALLEY":" ","HOUSE_NO":"１１號","E_COORD97":178943.87,"N_COORD97":2544063.25,"ADDRESS":"保東路５８巷１１號","OBJECTID":313702},"geometry":{"x":178943.87000000104,"y":2544063.2500000037}},{"attributes":{"ID":313711,"DIS_CODE":0,"TOWNNAME":"佳里區","LI":"忠仁里","LIN":"17鄰","STREET":"博愛街","SECT":" ","MAREA":" ","LANE":" ","ALLEY":" ","HOUSE_NO":"４５號","E_COORD97":166047.75,"N_COORD97":2562008.6499999999,"ADDRESS":"博愛街４５號","OBJECTID":313703},"geometry":{"x":166047.75,"y":2562008.6500000004}},{"attributes":{"ID":313712,"DIS_CODE":0,"TOWNNAME":"佳里區","LI":"忠仁里","LIN":"17鄰","STREET":"博愛街","SECT":" ","MAREA":" ","LANE":" ","ALLEY":" ","HOUSE_NO":"４７號","E_COORD97":166042.04999999999,"N_COORD97":2562008.3100000001,"ADDRESS":"博愛街４７號","OBJECTID":313704},"geometry":{"x":166042.05000000075,"y":2562008.3100000005}},{"attributes":{"ID":313713,"DIS_CODE":0,"TOWNNAME":"佳里區","LI":"忠仁里","LIN":"17鄰","STREET":"博愛街","SECT":" ","MAREA":" ","LANE":" ","ALLEY":" ","HOUSE_NO":"５５號","E_COORD97":166026.10000000001,"N_COORD97":2562005.9300000002,"ADDRESS":"博愛街５５號","OBJECTID":313705},"geometry":{"x":166026.10000000056,"y":2562005.9299999997}},{"attributes":{"ID":313714,"DIS_CODE":0,"TOWNNAME":"佳里區","LI":"忠仁里","LIN":"17鄰","STREET":"博愛街","SECT":" ","MAREA":" ","LANE":" ","ALLEY":" ","HOUSE_NO":"５７號","E_COORD97":166022,"N_COORD97":2562005.25,"ADDRESS":"博愛街５７號","OBJECTID":313706},"geometry":{"x":166022.00000000093,"y":2562005.2500000037}},{"attributes":{"ID":313715,"DIS_CODE":0,"TOWNNAME":"佳里區","LI":"忠仁里","LIN":"17鄰","STREET":"博愛街","SECT":" ","MAREA":" ","LANE":" ","ALLEY":" ","HOUSE_NO":"５９號","E_COORD97":166018.04999999999,"N_COORD97":2562004.5800000001,"ADDRESS":"博愛街５９號","OBJECTID":313707},"geometry":{"x":166018.05000000075,"y":2562004.5800000019}},{"attributes":{"ID":313716,"DIS_CODE":0,"TOWNNAME":"佳里區","LI":"忠仁里","LIN":"17鄰","STREET":"博愛街","SECT":" ","MAREA":" ","LANE":" ","ALLEY":" ","HOUSE_NO":"６１號","E_COORD97":166014.14999999999,"N_COORD97":2562003.8300000001,"ADDRESS":"博愛街６１號","OBJECTID":313708},"geometry":{"x":166014.15000000224,"y":2562003.8300000001}},{"attributes":{"ID":313717,"DIS_CODE":0,"TOWNNAME":"佳里區","LI":"忠仁里","LIN":"17鄰","STREET":"博愛街","SECT":" ","MAREA":" ","LANE":" ","ALLEY":" ","HOUSE_NO":"６３號","E_COORD97":166010.01000000001,"N_COORD97":2562003.29,"ADDRESS":"博愛街６３號","OBJECTID":313709},"geometry":{"x":166010.01000000071,"y":2562003.2899999991}},{"attributes":{"ID":313718,"DIS_CODE":0,"TOWNNAME":"新營區","LI":"王公里","LIN":"6鄰","STREET":"民治路","SECT":" ","MAREA":" ","LANE":" ","ALLEY":" ","HOUSE_NO":"６號之１３","E_COORD97":180587.14000000001,"N_COORD97":2578949.8700000001,"ADDRESS":"民治路６號之１３","OBJECTID":313710},"geometry":{"x":180587.1400000006,"y":2578949.870000001}},{"attributes":{"ID":313719,"DIS_CODE":0,"TOWNNAME":"新營區","LI":"土庫里","LIN":"13鄰","STREET":" ","SECT":" ","MAREA":"土庫","LANE":" ","ALLEY":" ","HOUSE_NO":"１１２號","E_COORD97":183303.04000000001,"N_COORD97":2579750.1899999999,"ADDRESS":"土庫１１２號","OBJECTID":313711},"geometry":{"x":183303.04000000004,"y":2579750.1900000032}},{"attributes":{"ID":313720,"DIS_CODE":0,"TOWNNAME":"新營區","LI":"嘉芳里","LIN":"2鄰","STREET":" ","SECT":" ","MAREA":"茄苳腳","LANE":" ","ALLEY":" ","HOUSE_NO":"２１號之５","E_COORD97":177068.75,"N_COORD97":2578345.5,"ADDRESS":"茄苳腳２１之５號","OBJECTID":313712},"geometry":{"x":177068.75,"y":2578345.5000000019}},{"attributes":{"ID":313721,"DIS_CODE":0,"TOWNNAME":"新營區","LI":"太南里","LIN":" ","STREET":" ","SECT":" ","MAREA":"太子宮","LANE":" ","ALLEY":" ","HOUSE_NO":"２７９之３號","E_COORD97":176093.89000000001,"N_COORD97":2576647.0600000001,"ADDRESS":"太子宮２７９之３號","OBJECTID":313713},"geometry":{"x":176093.88999999966,"y":2576647.0600000024}},{"attributes":{"ID":313722,"DIS_CODE":0,"TOWNNAME":"新營區","LI":"太南里","LIN":" ","STREET":" ","SECT":" ","MAREA":"太子宮","LANE":" ","ALLEY":" ","HOUSE_NO":"２６６之４號","E_COORD97":176208.04000000001,"N_COORD97":2576766.1000000001,"ADDRESS":"太子宮２６６之４號","OBJECTID":313714},"geometry":{"x":176208.04000000097,"y":2576766.0999999996}},{"attributes":{"ID":313723,"DIS_CODE":0,"TOWNNAME":"新營區","LI":"新東里","LIN":"23鄰","STREET":"大同路","SECT":" ","MAREA":" ","LANE":"７８巷","ALLEY":" ","HOUSE_NO":"８號","E_COORD97":180739.23999999999,"N_COORD97":2579018.8599999999,"ADDRESS":"大同路７８巷８號","OBJECTID":313715},"geometry":{"x":180739.23999999929,"y":2579018.8599999994}},{"attributes":{"ID":313724,"DIS_CODE":0,"TOWNNAME":"新營區","LI":"南興里","LIN":" ","STREET":"興農街","SECT":" ","MAREA":" ","LANE":"１３６巷","ALLEY":" ","HOUSE_NO":"２１之１號","E_COORD97":179159.01999999999,"N_COORD97":2577601.1099999999,"ADDRESS":"興農街１３６巷２１之１號","OBJECTID":313716},"geometry":{"x":179159.02000000048,"y":2577601.1100000031}},{"attributes":{"ID":313725,"DIS_CODE":0,"TOWNNAME":"新營區","LI":"民生里","LIN":" ","STREET":"民生路","SECT":" ","MAREA":" ","LANE":"１６３巷","ALLEY":" ","HOUSE_NO":"１１０之７號","E_COORD97":179073.42000000001,"N_COORD97":2578489.7000000002,"ADDRESS":"民生路１６３巷１１０之７號","OBJECTID":313717},"geometry":{"x":179073.42000000086,"y":2578489.7000000011}},{"attributes":{"ID":313726,"DIS_CODE":0,"TOWNNAME":"關廟區","LI":"五甲里","LIN":"7鄰","STREET":"五慧街","SECT":" ","MAREA":" ","LANE":"１６巷","ALLEY":" ","HOUSE_NO":"９號","E_COORD97":181210.42000000001,"N_COORD97":2539301.25,"ADDRESS":"五慧街１６巷９號","OBJECTID":313718},"geometry":{"x":181210.41999999993,"y":2539301.2500000019}},{"attributes":{"ID":313727,"DIS_CODE":0,"TOWNNAME":"關廟區","LI":"香洋里","LIN":"7鄰","STREET":"南雄路","SECT":"二段","MAREA":" ","LANE":"５１巷","ALLEY":" ","HOUSE_NO":"１３號","E_COORD97":181073.14000000001,"N_COORD97":2540162.02,"ADDRESS":"南雄路二段５１巷１３號","OBJECTID":313719},"geometry":{"x":181073.13999999966,"y":2540162.0200000033}},{"attributes":{"ID":313728,"DIS_CODE":0,"TOWNNAME":"關廟區","LI":"松腳里","LIN":"7鄰","STREET":"中山路","SECT":"一段","MAREA":" ","LANE":"８９巷","ALLEY":" ","HOUSE_NO":"２０號","E_COORD97":181902.66,"N_COORD97":2539904.2799999998,"ADDRESS":"中山路一段８９巷２０號","OBJECTID":313720},"geometry":{"x":181902.66000000201,"y":2539904.2799999993}},{"attributes":{"ID":313729,"DIS_CODE":0,"TOWNNAME":"關廟區","LI":"五甲里","LIN":"7鄰","STREET":"五慧街","SECT":" ","MAREA":" ","LANE":"１６巷","ALLEY":" ","HOUSE_NO":"８號","E_COORD97":181230.01999999999,"N_COORD97":2539297.25,"ADDRESS":"五慧街１６巷８號","OBJECTID":313721},"geometry":{"x":181230.02000000142,"y":2539297.2500000019}},{"attributes":{"ID":313730,"DIS_CODE":0,"TOWNNAME":"關廟區","LI":"五甲里","LIN":"7鄰","STREET":"五慧街","SECT":" ","MAREA":" ","LANE":"１６巷","ALLEY":" ","HOUSE_NO":"５號","E_COORD97":181205.01999999999,"N_COORD97":2539290.25,"ADDRESS":"五慧街１６巷５號","OBJECTID":313722},"geometry":{"x":181205.02000000048,"y":2539290.2500000019}},{"attributes":{"ID":313731,"DIS_CODE":0,"TOWNNAME":"關廟區","LI":"松腳里","LIN":"7鄰","STREET":"中山路","SECT":"一段","MAREA":" ","LANE":"８９巷","ALLEY":" ","HOUSE_NO":"２２號","E_COORD97":181896.95999999999,"N_COORD97":2539892.2799999998,"ADDRESS":"中山路一段８９巷２２號","OBJECTID":313723},"geometry":{"x":181896.95999999996,"y":2539892.2800000031}},{"attributes":{"ID":313732,"DIS_CODE":0,"TOWNNAME":"佳里區","LI":"忠仁里","LIN":"17鄰","STREET":"博愛街","SECT":" ","MAREA":" ","LANE":" ","ALLEY":" ","HOUSE_NO":"６５號","E_COORD97":166005.60000000001,"N_COORD97":2562002.5099999998,"ADDRESS":"博愛街６５號","OBJECTID":313724},"geometry":{"x":166005.60000000056,"y":2562002.5099999998}},{"attributes":{"ID":313733,"DIS_CODE":0,"TOWNNAME":"佳里區","LI":"忠仁里","LIN":"17鄰","STREET":"博愛街","SECT":" ","MAREA":" ","LANE":" ","ALLEY":" ","HOUSE_NO":"６７號","E_COORD97":166001.89999999999,"N_COORD97":2562001.9500000002,"ADDRESS":"博愛街６７號","OBJECTID":313725},"geometry":{"x":166001.90000000037,"y":2562001.9499999993}},{"attributes":{"ID":313734,"DIS_CODE":0,"TOWNNAME":"歸仁區","LI":"大潭里","LIN":"13鄰","STREET":"長榮路","SECT":"一段","MAREA":" ","LANE":" ","ALLEY":" ","HOUSE_NO":"１６１號","E_COORD97":174974.85999999999,"N_COORD97":2534558.2799999998,"ADDRESS":"長榮路一段１６１號","OBJECTID":313726},"geometry":{"x":174974.86000000034,"y":2534558.2799999993}},{"attributes":{"ID":313735,"DIS_CODE":0,"TOWNNAME":"新營區","LI":"新南里","LIN":"30鄰","STREET":"明清三街","SECT":" ","MAREA":" ","LANE":" ","ALLEY":" ","HOUSE_NO":"４７號","E_COORD97":178213.807057,"N_COORD97":2578816.60568,"ADDRESS":"明清三街４７號","OBJECTID":313727},"geometry":{"x":178213.8070570007,"y":2578816.6056750026}},{"attributes":{"ID":313736,"DIS_CODE":0,"TOWNNAME":"學甲區","LI":"慈福里","LIN":"17鄰","STREET":"中山路","SECT":" ","MAREA":" ","LANE":" ","ALLEY":" ","HOUSE_NO":"１０１號","E_COORD97":166183.12,"N_COORD97":2570471.3799999999,"ADDRESS":"中山路１０１號","OBJECTID":313728},"geometry":{"x":166183.12000000011,"y":2570471.379999999}},{"attributes":{"ID":313737,"DIS_CODE":0,"TOWNNAME":"歸仁區","LI":"八甲里","LIN":"5鄰","STREET":"大明一街","SECT":" ","MAREA":" ","LANE":" ","ALLEY":" ","HOUSE_NO":"２７號","E_COORD97":177916.72,"N_COORD97":2541782.6000000001,"ADDRESS":"大明一街２７號","OBJECTID":313729},"geometry":{"x":177916.72000000067,"y":2541782.6000000015}},{"attributes":{"ID":313738,"DIS_CODE":0,"TOWNNAME":"新營區","LI":"太南里","LIN":" ","STREET":" ","SECT":" ","MAREA":"太子宮","LANE":" ","ALLEY":" ","HOUSE_NO":"２７９之６號","E_COORD97":176107.07999999999,"N_COORD97":2576624.8399999999,"ADDRESS":"太子宮２７９之６號","OBJECTID":313730},"geometry":{"x":176107.08000000007,"y":2576624.8400000017}},{"attributes":{"ID":313739,"DIS_CODE":0,"TOWNNAME":"新營區","LI":"姑爺里","LIN":"11鄰","STREET":" ","SECT":" ","MAREA":"挖仔","LANE":" ","ALLEY":" ","HOUSE_NO":"４３號之１２","E_COORD97":173941.69,"N_COORD97":2575485.1400000001,"ADDRESS":"挖仔４３之１２號","OBJECTID":313731},"geometry":{"x":173941.69000000041,"y":2575485.1400000006}},{"attributes":{"ID":313740,"DIS_CODE":0,"TOWNNAME":"新營區","LI":"太南里","LIN":"20鄰","STREET":" ","SECT":" ","MAREA":"太子宮","LANE":" ","ALLEY":" ","HOUSE_NO":"１６２號","E_COORD97":176284.34,"N_COORD97":2576992.6899999999,"ADDRESS":"太子宮１６２號","OBJECTID":313732},"geometry":{"x":176284.33999999985,"y":2576992.6899999995}},{"attributes":{"ID":313741,"DIS_CODE":0,"TOWNNAME":"新營區","LI":"土庫里","LIN":"13鄰","STREET":" ","SECT":" ","MAREA":"土庫","LANE":" ","ALLEY":" ","HOUSE_NO":"１０９號","E_COORD97":183401.28,"N_COORD97":2579764.1600000001,"ADDRESS":"土庫１０９號","OBJECTID":313733},"geometry":{"x":183401.28000000119,"y":2579764.1600000001}},{"attributes":{"ID":313742,"DIS_CODE":0,"TOWNNAME":"新營區","LI":"大宏里","LIN":"8鄰","STREET":"文昌街","SECT":" ","MAREA":" ","LANE":" ","ALLEY":" ","HOUSE_NO":"２２號之６","E_COORD97":180430.25,"N_COORD97":2578416.8199999998,"ADDRESS":"文昌街２２號之６","OBJECTID":313734},"geometry":{"x":180430.25,"y":2578416.8200000003}},{"attributes":{"ID":313743,"DIS_CODE":0,"TOWNNAME":"新營區","LI":"大宏里","LIN":"13鄰","STREET":"中正路","SECT":" ","MAREA":" ","LANE":" ","ALLEY":" ","HOUSE_NO":"４號之７","E_COORD97":180195.17999999999,"N_COORD97":2578287.23,"ADDRESS":"中正路４號之７","OBJECTID":313735},"geometry":{"x":180195.18000000156,"y":2578287.2300000023}},{"attributes":{"ID":313744,"DIS_CODE":0,"TOWNNAME":"新營區","LI":"王公里","LIN":"6鄰","STREET":"民治路","SECT":" ","MAREA":" ","LANE":" ","ALLEY":" ","HOUSE_NO":"８號之４","E_COORD97":180472.19,"N_COORD97":2578900.5699999998,"ADDRESS":"民治路８號之４","OBJECTID":313736},"geometry":{"x":180472.19000000227,"y":2578900.5700000003}},{"attributes":{"ID":313745,"DIS_CODE":0,"TOWNNAME":"新營區","LI":"民生里","LIN":" ","STREET":"民生路","SECT":" ","MAREA":" ","LANE":"１６３巷","ALLEY":" ","HOUSE_NO":"１０８之２號","E_COORD97":179089.87,"N_COORD97":2578508.4500000002,"ADDRESS":"民生路１６３巷１０８之２號","OBJECTID":313737},"geometry":{"x":179089.87000000011,"y":2578508.4500000011}},{"attributes":{"ID":313746,"DIS_CODE":0,"TOWNNAME":"新營區","LI":"嘉芳里","LIN":" ","STREET":"復興路","SECT":" ","MAREA":" ","LANE":"１０７４巷","ALLEY":" ","HOUSE_NO":"２６號","E_COORD97":176137.23999999999,"N_COORD97":2578918.1099999999,"ADDRESS":"復興路１０７４巷２６號","OBJECTID":313738},"geometry":{"x":176137.24000000115,"y":2578918.1100000013}},{"attributes":{"ID":313747,"DIS_CODE":0,"TOWNNAME":"新營區","LI":"民生里","LIN":"5鄰","STREET":"中華路","SECT":" ","MAREA":" ","LANE":"８０巷","ALLEY":" ","HOUSE_NO":"４號","E_COORD97":179397.60000000001,"N_COORD97":2578221.1899999999,"ADDRESS":"中華路８０巷４號","OBJECTID":313739},"geometry":{"x":179397.60000000056,"y":2578221.1900000032}},{"attributes":{"ID":313748,"DIS_CODE":0,"TOWNNAME":"關廟區","LI":"五甲里","LIN":"7鄰","STREET":"五慧街","SECT":" ","MAREA":" ","LANE":"１６巷","ALLEY":" ","HOUSE_NO":"３號","E_COORD97":181205.82000000001,"N_COORD97":2539287.25,"ADDRESS":"五慧街１６巷３號","OBJECTID":313740},"geometry":{"x":181205.82000000123,"y":2539287.2500000019}},{"attributes":{"ID":313749,"DIS_CODE":0,"TOWNNAME":"新化區","LI":"觀音里","LIN":"7鄰","STREET":"中正路","SECT":" ","MAREA":" ","LANE":"５４９巷","ALLEY":" ","HOUSE_NO":"７號之１","E_COORD97":178922.94,"N_COORD97":2548635.2599999998,"ADDRESS":"中正路５４９巷７號之１","OBJECTID":313741},"geometry":{"x":178922.94000000134,"y":2548635.2599999998}},{"attributes":{"ID":313750,"DIS_CODE":0,"TOWNNAME":"歸仁區","LI":"八甲里","LIN":"13鄰","STREET":"大明街","SECT":" ","MAREA":" ","LANE":" ","ALLEY":" ","HOUSE_NO":"９５號","E_COORD97":177987.67000000001,"N_COORD97":2541878.6099999999,"ADDRESS":"大明街９５號","OBJECTID":313742},"geometry":{"x":177987.66999999993,"y":2541878.6099999994}},{"attributes":{"ID":313751,"DIS_CODE":0,"TOWNNAME":"學甲區","LI":"明宜里","LIN":"17鄰","STREET":"天水路","SECT":" ","MAREA":" ","LANE":" ","ALLEY":" ","HOUSE_NO":"１２號","E_COORD97":166098.79999999999,"N_COORD97":2570672.3900000001,"ADDRESS":"天水路１２號","OBJECTID":313743},"geometry":{"x":166098.80000000168,"y":2570672.3900000006}},{"attributes":{"ID":313752,"DIS_CODE":0,"TOWNNAME":"學甲區","LI":"明宜里","LIN":"17鄰","STREET":"天水路","SECT":" ","MAREA":" ","LANE":" ","ALLEY":" ","HOUSE_NO":"１３號之３","E_COORD97":166062.04999999999,"N_COORD97":2570648.71,"ADDRESS":"天水路１３號之３","OBJECTID":313744},"geometry":{"x":166062.05000000075,"y":2570648.7100000028}},{"attributes":{"ID":313753,"DIS_CODE":0,"TOWNNAME":"學甲區","LI":"明宜里","LIN":"17鄰","STREET":"天水路","SECT":" ","MAREA":" ","LANE":" ","ALLEY":" ","HOUSE_NO":"１３號","E_COORD97":166070.48000000001,"N_COORD97":2570642.54,"ADDRESS":"天水路１３號","OBJECTID":313745},"geometry":{"x":166070.48000000045,"y":2570642.540000001}},{"attributes":{"ID":313754,"DIS_CODE":0,"TOWNNAME":"學甲區","LI":"明宜里","LIN":"17鄰","STREET":"天水路","SECT":" ","MAREA":" ","LANE":" ","ALLEY":" ","HOUSE_NO":"１４號","E_COORD97":166086.92000000001,"N_COORD97":2570671.3199999998,"ADDRESS":"天水路１４號","OBJECTID":313746},"geometry":{"x":166086.92000000086,"y":2570671.3200000022}},{"attributes":{"ID":313755,"DIS_CODE":0,"TOWNNAME":"學甲區","LI":"仁得里","LIN":"17鄰","STREET":"四維街","SECT":" ","MAREA":" ","LANE":" ","ALLEY":" ","HOUSE_NO":"１３０號","E_COORD97":165819.10000000001,"N_COORD97":2569850.2200000002,"ADDRESS":"四維街１３０號","OBJECTID":313747},"geometry":{"x":165819.10000000056,"y":2569850.2200000007}},{"attributes":{"ID":313756,"DIS_CODE":0,"TOWNNAME":"新營區","LI":"嘉芳里","LIN":" ","STREET":" ","SECT":" ","MAREA":"茄苳腳","LANE":" ","ALLEY":" ","HOUSE_NO":"２４之２號","E_COORD97":177086.67000000001,"N_COORD97":2578451.73,"ADDRESS":"茄苳腳２４之２號","OBJECTID":313748},"geometry":{"x":177086.67000000086,"y":2578451.7300000004}},{"attributes":{"ID":313757,"DIS_CODE":0,"TOWNNAME":"新營區","LI":"南興里","LIN":" ","STREET":"興農街","SECT":" ","MAREA":" ","LANE":"１３６巷","ALLEY":" ","HOUSE_NO":"２１之２號","E_COORD97":179159.01999999999,"N_COORD97":2577601.1099999999,"ADDRESS":"興農街１３６巷２１之２號","OBJECTID":313749},"geometry":{"x":179159.02000000048,"y":2577601.1100000031}},{"attributes":{"ID":313758,"DIS_CODE":0,"TOWNNAME":"新營區","LI":"南興里","LIN":"18鄰","STREET":"建業路","SECT":" ","MAREA":" ","LANE":"１５７巷","ALLEY":" ","HOUSE_NO":"４號","E_COORD97":178385.37,"N_COORD97":2577461.8999999999,"ADDRESS":"建業路１５７巷４號","OBJECTID":313750},"geometry":{"x":178385.36999999918,"y":2577461.9000000022}},{"attributes":{"ID":313759,"DIS_CODE":0,"TOWNNAME":"新營區","LI":"民榮里","LIN":"26鄰","STREET":"復興路","SECT":" ","MAREA":" ","LANE":"３０５巷","ALLEY":" ","HOUSE_NO":"６４號","E_COORD97":178499.85999999999,"N_COORD97":2578049.4100000001,"ADDRESS":"復興路３０５巷６４號","OBJECTID":313751},"geometry":{"x":178499.86000000127,"y":2578049.4100000001}},{"attributes":{"ID":313760,"DIS_CODE":0,"TOWNNAME":"新營區","LI":"民生里","LIN":" ","STREET":"民生路","SECT":" ","MAREA":" ","LANE":"１６３巷","ALLEY":" ","HOUSE_NO":"１１０之１號","E_COORD97":179099.01999999999,"N_COORD97":2578497.3300000001,"ADDRESS":"民生路１６３巷１１０之１號","OBJECTID":313752},"geometry":{"x":179099.01999999955,"y":2578497.3300000001}},{"attributes":{"ID":313761,"DIS_CODE":0,"TOWNNAME":"新化區","LI":"觀音里","LIN":"7鄰","STREET":"中正路","SECT":" ","MAREA":" ","LANE":"５４９巷","ALLEY":" ","HOUSE_NO":"２９號之２","E_COORD97":178954.41,"N_COORD97":2548630.2599999998,"ADDRESS":"中正路５４９巷２９號之２","OBJECTID":313753},"geometry":{"x":178954.41000000015,"y":2548630.2600000016}},{"attributes":{"ID":313762,"DIS_CODE":0,"TOWNNAME":"新化區","LI":"太平里","LIN":"7鄰","STREET":"民生路","SECT":" ","MAREA":" ","LANE":"３１４巷","ALLEY":" ","HOUSE_NO":"８６號","E_COORD97":179097.76000000001,"N_COORD97":2549195.25,"ADDRESS":"民生路３１４巷８６號","OBJECTID":313754},"geometry":{"x":179097.76000000164,"y":2549195.25}},{"attributes":{"ID":313763,"DIS_CODE":0,"TOWNNAME":"新化區","LI":"太平里","LIN":"7鄰","STREET":"民生路","SECT":" ","MAREA":" ","LANE":"３１４巷","ALLEY":" ","HOUSE_NO":"７９號","E_COORD97":179065.95999999999,"N_COORD97":2549263.25,"ADDRESS":"民生路３１４巷７９號","OBJECTID":313755},"geometry":{"x":179065.95999999996,"y":2549263.25}},{"attributes":{"ID":313764,"DIS_CODE":0,"TOWNNAME":"新化區","LI":"太平里","LIN":"7鄰","STREET":"民生路","SECT":" ","MAREA":" ","LANE":"３１４巷","ALLEY":" ","HOUSE_NO":"９０號","E_COORD97":179110.56,"N_COORD97":2549207.25,"ADDRESS":"民生路３１４巷９０號","OBJECTID":313756},"geometry":{"x":179110.55999999959,"y":2549207.2500000019}},{"attributes":{"ID":313765,"DIS_CODE":0,"TOWNNAME":"新營區","LI":"民生里","LIN":" ","STREET":"進修街","SECT":" ","MAREA":" ","LANE":"２９巷","ALLEY":" ","HOUSE_NO":"１６之１號","E_COORD97":178967.79999999999,"N_COORD97":2578482.4500000002,"ADDRESS":"進修街２９巷１６之１號","OBJECTID":313757},"geometry":{"x":178967.80000000075,"y":2578482.4499999993}},{"attributes":{"ID":313766,"DIS_CODE":0,"TOWNNAME":"歸仁區","LI":"西埔里","LIN":"10鄰","STREET":"西埔一街","SECT":" ","MAREA":" ","LANE":"３００巷","ALLEY":" ","HOUSE_NO":"５８號","E_COORD97":177260.48999999999,"N_COORD97":2544757.4199999999,"ADDRESS":"西埔一街３００巷５８號","OBJECTID":313758},"geometry":{"x":177260.49000000022,"y":2544757.4200000018}},{"attributes":{"ID":313767,"DIS_CODE":0,"TOWNNAME":"新營區","LI":"忠政里","LIN":"29鄰","STREET":"府西路","SECT":" ","MAREA":" ","LANE":"８７巷","ALLEY":" ","HOUSE_NO":"２６號","E_COORD97":179732.88,"N_COORD97":2579207.4399999999,"ADDRESS":"府西路８７巷２６號","OBJECTID":313759},"geometry":{"x":179732.88000000175,"y":2579207.4400000013}},{"attributes":{"ID":313768,"DIS_CODE":0,"TOWNNAME":"學甲區","LI":"仁得里","LIN":"17鄰","STREET":"四維街","SECT":" ","MAREA":" ","LANE":" ","ALLEY":" ","HOUSE_NO":"１３２號","E_COORD97":165815.51999999999,"N_COORD97":2569851.5099999998,"ADDRESS":"四維街１３２號","OBJECTID":313760},"geometry":{"x":165815.51999999955,"y":2569851.5099999998}},{"attributes":{"ID":313769,"DIS_CODE":0,"TOWNNAME":"學甲區","LI":"仁得里","LIN":"17鄰","STREET":"四維街","SECT":" ","MAREA":" ","LANE":" ","ALLEY":" ","HOUSE_NO":"１３４號","E_COORD97":165811.32999999999,"N_COORD97":2569853.0699999998,"ADDRESS":"四維街１３４號","OBJECTID":313761},"geometry":{"x":165811.33000000101,"y":2569853.0700000022}},{"attributes":{"ID":313770,"DIS_CODE":0,"TOWNNAME":"學甲區","LI":"仁得里","LIN":"17鄰","STREET":"四維街","SECT":" ","MAREA":" ","LANE":" ","ALLEY":" ","HOUSE_NO":"１３６號","E_COORD97":165807.82999999999,"N_COORD97":2569867.8900000001,"ADDRESS":"四維街１３６號","OBJECTID":313762},"geometry":{"x":165807.83000000101,"y":2569867.8900000025}},{"attributes":{"ID":313771,"DIS_CODE":0,"TOWNNAME":"學甲區","LI":"仁得里","LIN":"17鄰","STREET":"四維街","SECT":" ","MAREA":" ","LANE":" ","ALLEY":" ","HOUSE_NO":"１４６號","E_COORD97":165785.82000000001,"N_COORD97":2569871.1099999999,"ADDRESS":"四維街１４６號","OBJECTID":313763},"geometry":{"x":165785.82000000123,"y":2569871.1100000031}},{"attributes":{"ID":313772,"DIS_CODE":0,"TOWNNAME":"學甲區","LI":"仁得里","LIN":"17鄰","STREET":"四維街","SECT":" ","MAREA":" ","LANE":" ","ALLEY":" ","HOUSE_NO":"１４８號","E_COORD97":165781.70000000001,"N_COORD97":2569872.9399999999,"ADDRESS":"四維街１４８號","OBJECTID":313764},"geometry":{"x":165781.70000000112,"y":2569872.9400000013}},{"attributes":{"ID":313773,"DIS_CODE":0,"TOWNNAME":"新營區","LI":"護鎮里","LIN":"1鄰","STREET":"建國路","SECT":" ","MAREA":" ","LANE":" ","ALLEY":" ","HOUSE_NO":"３號","E_COORD97":179467.75758899999,"N_COORD97":2581089.2729099998,"ADDRESS":"建國路３號","OBJECTID":313765},"geometry":{"x":179467.75758900214,"y":2581089.2729130015}},{"attributes":{"ID":313774,"DIS_CODE":0,"TOWNNAME":"新營區","LI":"嘉芳里","LIN":"5鄰","STREET":" ","SECT":" ","MAREA":"茄苳腳","LANE":" ","ALLEY":" ","HOUSE_NO":"５７號之１０","E_COORD97":176909.59,"N_COORD97":2578390.5800000001,"ADDRESS":"茄苳腳５７之１０號","OBJECTID":313766},"geometry":{"x":176909.59000000078,"y":2578390.5800000001}},{"attributes":{"ID":313775,"DIS_CODE":0,"TOWNNAME":"新營區","LI":"埤寮里","LIN":"1鄰","STREET":"中正路","SECT":" ","MAREA":" ","LANE":" ","ALLEY":" ","HOUSE_NO":"５１０號之１","E_COORD97":180091.06,"N_COORD97":2580845.9500000002,"ADDRESS":"中正路５１０號之１","OBJECTID":313767},"geometry":{"x":180091.06000000052,"y":2580845.9499999993}},{"attributes":{"ID":313776,"DIS_CODE":0,"TOWNNAME":"新營區","LI":"南興里","LIN":"18鄰","STREET":"建業路","SECT":" ","MAREA":" ","LANE":"１６７巷","ALLEY":" ","HOUSE_NO":"１０號","E_COORD97":178349.70999999999,"N_COORD97":2577462.0699999998,"ADDRESS":"建業路１６７巷１０號","OBJECTID":313768},"geometry":{"x":178349.71000000089,"y":2577462.0700000003}},{"attributes":{"ID":313777,"DIS_CODE":0,"TOWNNAME":"新營區","LI":"嘉芳里","LIN":" ","STREET":" ","SECT":" ","MAREA":"茄苳腳","LANE":" ","ALLEY":" ","HOUSE_NO":"４６之１９號","E_COORD97":176855.26999999999,"N_COORD97":2578564.7200000002,"ADDRESS":"茄苳腳４６之１９號","OBJECTID":313769},"geometry":{"x":176855.27000000048,"y":2578564.7200000044}},{"attributes":{"ID":313778,"DIS_CODE":0,"TOWNNAME":"新營區","LI":"土庫里","LIN":" ","STREET":" ","SECT":" ","MAREA":"土庫","LANE":" ","ALLEY":" ","HOUSE_NO":"７１之２４號","E_COORD97":182598.03,"N_COORD97":2580021.4500000002,"ADDRESS":"土庫７１之２４號","OBJECTID":313770},"geometry":{"x":182598.03000000026,"y":2580021.4499999993}},{"attributes":{"ID":313779,"DIS_CODE":0,"TOWNNAME":"新營區","LI":"土庫里","LIN":" ","STREET":" ","SECT":" ","MAREA":"土庫","LANE":" ","ALLEY":" ","HOUSE_NO":"８１號","E_COORD97":183102.51000000001,"N_COORD97":2579771.0299999998,"ADDRESS":"土庫８１號","OBJECTID":313771},"geometry":{"x":183102.51000000071,"y":2579771.0299999993}},{"attributes":{"ID":313780,"DIS_CODE":0,"TOWNNAME":"新營區","LI":"土庫里","LIN":"13鄰","STREET":" ","SECT":" ","MAREA":"土庫","LANE":" ","ALLEY":" ","HOUSE_NO":"１１３號","E_COORD97":183302.10999999999,"N_COORD97":2579772.3500000001,"ADDRESS":"土庫１１３號","OBJECTID":313772},"geometry":{"x":183302.11000000127,"y":2579772.3499999996}},{"attributes":{"ID":313781,"DIS_CODE":0,"TOWNNAME":"新營區","LI":"舊部里","LIN":" ","STREET":" ","SECT":" ","MAREA":"舊部","LANE":" ","ALLEY":" ","HOUSE_NO":"２７之１號","E_COORD97":177103.35000000001,"N_COORD97":2575395.0600000001,"ADDRESS":"舊部２７之１號","OBJECTID":313773},"geometry":{"x":177103.34999999963,"y":2575395.0600000005}},{"attributes":{"ID":313782,"DIS_CODE":0,"TOWNNAME":"新營區","LI":"民榮里","LIN":"26鄰","STREET":"復興路","SECT":" ","MAREA":" ","LANE":"３０５巷","ALLEY":" ","HOUSE_NO":"３６號","E_COORD97":178522.54999999999,"N_COORD97":2578070.3399999999,"ADDRESS":"復興路３０５巷３６號","OBJECTID":313774},"geometry":{"x":178522.54999999981,"y":2578070.3399999999}},{"attributes":{"ID":313783,"DIS_CODE":0,"TOWNNAME":"新營區","LI":"太南里","LIN":" ","STREET":" ","SECT":" ","MAREA":"太子宮","LANE":" ","ALLEY":" ","HOUSE_NO":"２７５之２號","E_COORD97":176151.42999999999,"N_COORD97":2576697.7200000002,"ADDRESS":"太子宮２７５之２號","OBJECTID":313775},"geometry":{"x":176151.4299999997,"y":2576697.7200000025}},{"attributes":{"ID":313784,"DIS_CODE":0,"TOWNNAME":"新營區","LI":"姑爺里","LIN":"11鄰","STREET":" ","SECT":" ","MAREA":"挖仔","LANE":" ","ALLEY":" ","HOUSE_NO":"４３號之１５","E_COORD97":173954.98999999999,"N_COORD97":2575485.0800000001,"ADDRESS":"挖仔４３之１５號","OBJECTID":313776},"geometry":{"x":173954.99000000022,"y":2575485.0800000001}},{"attributes":{"ID":313785,"DIS_CODE":0,"TOWNNAME":"學甲區","LI":"仁得里","LIN":"17鄰","STREET":"四維街","SECT":" ","MAREA":" ","LANE":" ","ALLEY":" ","HOUSE_NO":"１５０號","E_COORD97":165775.39000000001,"N_COORD97":2569881.6000000001,"ADDRESS":"四維街１５０號","OBJECTID":313777},"geometry":{"x":165775.38999999966,"y":2569881.6000000034}},{"attributes":{"ID":313786,"DIS_CODE":0,"TOWNNAME":"學甲區","LI":"仁得里","LIN":"17鄰","STREET":"四維街","SECT":" ","MAREA":" ","LANE":" ","ALLEY":" ","HOUSE_NO":"１６０號","E_COORD97":165752.60000000001,"N_COORD97":2569886.3999999999,"ADDRESS":"四維街１６０號","OBJECTID":313778},"geometry":{"x":165752.60000000149,"y":2569886.4000000004}},{"attributes":{"ID":313787,"DIS_CODE":0,"TOWNNAME":"學甲區","LI":"仁得里","LIN":"17鄰","STREET":"四維街","SECT":" ","MAREA":" ","LANE":" ","ALLEY":" ","HOUSE_NO":"１６１號","E_COORD97":165802.07000000001,"N_COORD97":2569826.6600000001,"ADDRESS":"四維街１６１號","OBJECTID":313779},"geometry":{"x":165802.0700000003,"y":2569826.6600000001}},{"attributes":{"ID":313788,"DIS_CODE":0,"TOWNNAME":"學甲區","LI":"仁得里","LIN":"17鄰","STREET":"四維街","SECT":" ","MAREA":" ","LANE":" ","ALLEY":" ","HOUSE_NO":"１６５號","E_COORD97":165791.48999999999,"N_COORD97":2569829.0499999998,"ADDRESS":"四維街１６５號","OBJECTID":313780},"geometry":{"x":165791.49000000115,"y":2569829.0500000045}},{"attributes":{"ID":313789,"DIS_CODE":0,"TOWNNAME":"仁德區","LI":"仁愛里","LIN":"18鄰","STREET":" ","SECT":" ","MAREA":"仁愛","LANE":" ","ALLEY":" ","HOUSE_NO":"３７５號","E_COORD97":170181.069544,"N_COORD97":2540208.4574699998,"ADDRESS":"仁愛３７５號","OBJECTID":313781},"geometry":{"x":170181.06954400148,"y":2540208.4574670047}},{"attributes":{"ID":313790,"DIS_CODE":0,"TOWNNAME":"新營區","LI":"王公里","LIN":"6鄰","STREET":"民治路","SECT":" ","MAREA":" ","LANE":" ","ALLEY":" ","HOUSE_NO":"６號之２８","E_COORD97":180568.82999999999,"N_COORD97":2578971,"ADDRESS":"民治路６號之２８","OBJECTID":313782},"geometry":{"x":180568.83000000007,"y":2578971}},{"attributes":{"ID":313791,"DIS_CODE":0,"TOWNNAME":"新營區","LI":"護鎮里","LIN":"1鄰","STREET":"建國路","SECT":" ","MAREA":" ","LANE":" ","ALLEY":" ","HOUSE_NO":"１號","E_COORD97":179471.99523299999,"N_COORD97":2581062.6029300001,"ADDRESS":"建國路１號","OBJECTID":313783},"geometry":{"x":179471.99523300026,"y":2581062.6029280014}},{"attributes":{"ID":313792,"DIS_CODE":0,"TOWNNAME":"新營區","LI":"王公里","LIN":"14鄰","STREET":"中正路","SECT":" ","MAREA":" ","LANE":" ","ALLEY":" ","HOUSE_NO":"９４號之１","E_COORD97":180112.17000000001,"N_COORD97":2579310.9199999999,"ADDRESS":"中正路９４號之１","OBJECTID":313784},"geometry":{"x":180112.16999999899,"y":2579310.9199999999}},{"attributes":{"ID":313793,"DIS_CODE":0,"TOWNNAME":"新營區","LI":"新東里","LIN":"25鄰","STREET":"民族路","SECT":" ","MAREA":" ","LANE":"１５０巷","ALLEY":" ","HOUSE_NO":"７４號","E_COORD97":180618.03,"N_COORD97":2579304.0499999998,"ADDRESS":"民族路１５０巷７４號","OBJECTID":313785},"geometry":{"x":180618.03000000026,"y":2579304.0500000007}},{"attributes":{"ID":313794,"DIS_CODE":0,"TOWNNAME":"新營區","LI":"興業里","LIN":"5鄰","STREET":"公誠街","SECT":" ","MAREA":" ","LANE":"１１巷","ALLEY":" ","HOUSE_NO":"１２號之２","E_COORD97":180346.20000000001,"N_COORD97":2577958.7200000002,"ADDRESS":"公誠街１１巷１２號之２","OBJECTID":313786},"geometry":{"x":180346.19999999925,"y":2577958.7200000025}},{"attributes":{"ID":313795,"DIS_CODE":0,"TOWNNAME":"東山區","LI":"南勢里","LIN":"4鄰","STREET":" ","SECT":" ","MAREA":"大洋","LANE":" ","ALLEY":" ","HOUSE_NO":"３８號","E_COORD97":198132.81,"N_COORD97":2573573.0099999998,"ADDRESS":"大洋３８號","OBJECTID":313787},"geometry":{"x":198132.81000000052,"y":2573573.0099999998}},{"attributes":{"ID":313796,"DIS_CODE":0,"TOWNNAME":"鹽水區","LI":"岸內里","LIN":"8鄰","STREET":"和平路","SECT":" ","MAREA":" ","LANE":"６１０巷","ALLEY":" ","HOUSE_NO":"６號","E_COORD97":174776.03,"N_COORD97":2580598.3799999999,"ADDRESS":"和平路６１０巷６號","OBJECTID":313788},"geometry":{"x":174776.03000000119,"y":2580598.379999999}},{"attributes":{"ID":313797,"DIS_CODE":0,"TOWNNAME":"新營區","LI":"埤寮里","LIN":" ","STREET":"中正路","SECT":" ","MAREA":" ","LANE":"４３０巷","ALLEY":" ","HOUSE_NO":"１１５之１０號","E_COORD97":180564.07000000001,"N_COORD97":2580478.27,"ADDRESS":"中正路４３０巷１１５之１０號","OBJECTID":313789},"geometry":{"x":180564.0700000003,"y":2580478.2699999996}},{"attributes":{"ID":313798,"DIS_CODE":0,"TOWNNAME":"鹽水區","LI":"中境里","LIN":"7鄰","STREET":"武廟路","SECT":" ","MAREA":" ","LANE":"１０巷","ALLEY":" ","HOUSE_NO":"１４號","E_COORD97":175049.28,"N_COORD97":2579952.4199999999,"ADDRESS":"武廟路１０巷１４號","OBJECTID":313790},"geometry":{"x":175049.28000000026,"y":2579952.4200000037}},{"attributes":{"ID":313799,"DIS_CODE":0,"TOWNNAME":"鹽水區","LI":"中境里","LIN":"7鄰","STREET":"武廟路","SECT":" ","MAREA":" ","LANE":"１０巷","ALLEY":" ","HOUSE_NO":"１６號","E_COORD97":175057.85000000001,"N_COORD97":2579958.0299999998,"ADDRESS":"武廟路１０巷１６號","OBJECTID":313791},"geometry":{"x":175057.85000000056,"y":2579958.0300000031}},{"attributes":{"ID":313800,"DIS_CODE":0,"TOWNNAME":"鹽水區","LI":"橋南里","LIN":"7鄰","STREET":"忠孝路","SECT":" ","MAREA":" ","LANE":"１１７巷","ALLEY":" ","HOUSE_NO":"１２號","E_COORD97":175624.84,"N_COORD97":2578834.6200000001,"ADDRESS":"忠孝路１１７巷１２號","OBJECTID":313792},"geometry":{"x":175624.83999999985,"y":2578834.6200000029}},{"attributes":{"ID":313801,"DIS_CODE":0,"TOWNNAME":"學甲區","LI":"仁得里","LIN":"17鄰","STREET":"四維街","SECT":" ","MAREA":" ","LANE":" ","ALLEY":" ","HOUSE_NO":"１７１號","E_COORD97":165780.44,"N_COORD97":2569843.4300000002,"ADDRESS":"四維街１７１號","OBJECTID":313793},"geometry":{"x":165780.44000000134,"y":2569843.4300000016}},{"attributes":{"ID":313802,"DIS_CODE":0,"TOWNNAME":"學甲區","LI":"仁得里","LIN":"17鄰","STREET":"四維街","SECT":" ","MAREA":" ","LANE":" ","ALLEY":" ","HOUSE_NO":"１７３號","E_COORD97":165776.48000000001,"N_COORD97":2569844.6299999999,"ADDRESS":"四維街１７３號","OBJECTID":313794},"geometry":{"x":165776.48000000138,"y":2569844.6300000008}},{"attributes":{"ID":313803,"DIS_CODE":0,"TOWNNAME":"學甲區","LI":"仁得里","LIN":"17鄰","STREET":"四維街","SECT":" ","MAREA":" ","LANE":" ","ALLEY":" ","HOUSE_NO":"１７５號","E_COORD97":165771.92000000001,"N_COORD97":2569846.04,"ADDRESS":"四維街１７５號","OBJECTID":313795},"geometry":{"x":165771.91999999993,"y":2569846.0399999991}},{"attributes":{"ID":313804,"DIS_CODE":0,"TOWNNAME":"學甲區","LI":"仁得里","LIN":"17鄰","STREET":"四維街","SECT":" ","MAREA":" ","LANE":" ","ALLEY":" ","HOUSE_NO":"１７７號","E_COORD97":165767.81,"N_COORD97":2569847.8300000001,"ADDRESS":"四維街１７７號","OBJECTID":313796},"geometry":{"x":165767.80999999959,"y":2569847.8300000019}},{"attributes":{"ID":313805,"DIS_CODE":0,"TOWNNAME":"學甲區","LI":"仁得里","LIN":"17鄰","STREET":"四維街","SECT":" ","MAREA":" ","LANE":" ","ALLEY":" ","HOUSE_NO":"１７９號之１","E_COORD97":165759.64999999999,"N_COORD97":2569835.2200000002,"ADDRESS":"四維街１７９號之１","OBJECTID":313797},"geometry":{"x":165759.64999999944,"y":2569835.2200000025}},{"attributes":{"ID":313806,"DIS_CODE":0,"TOWNNAME":"學甲區","LI":"仁得里","LIN":"17鄰","STREET":"四維街","SECT":" ","MAREA":" ","LANE":" ","ALLEY":" ","HOUSE_NO":"１７９號","E_COORD97":165764,"N_COORD97":2569849.3700000001,"ADDRESS":"四維街１７９號","OBJECTID":313798},"geometry":{"x":165764.00000000093,"y":2569849.370000001}},{"attributes":{"ID":313807,"DIS_CODE":0,"TOWNNAME":"新營區","LI":"太南里","LIN":"13鄰","STREET":" ","SECT":" ","MAREA":"太子宮","LANE":" ","ALLEY":" ","HOUSE_NO":"２７２之４號","E_COORD97":176152.73999999999,"N_COORD97":2576755.2999999998,"ADDRESS":"太子宮２７２之４號","OBJECTID":313799},"geometry":{"x":176152.74000000115,"y":2576755.3000000026}},{"attributes":{"ID":313808,"DIS_CODE":0,"TOWNNAME":"新營區","LI":"大宏里","LIN":"12鄰","STREET":"開元路","SECT":" ","MAREA":" ","LANE":" ","ALLEY":" ","HOUSE_NO":"６１號之１３","E_COORD97":180896.57000000001,"N_COORD97":2578796.7000000002,"ADDRESS":"開元路６１號之１３","OBJECTID":313800},"geometry":{"x":180896.57000000216,"y":2578796.6999999993}}]}