{"displayFieldName":"TOWNNAME","fieldAliases":{"ID":"ID","DIS_CODE":"DIS_CODE","TOWNNAME":"TOWNNAME","LI":"LI","LIN":"LIN","STREET":"STREET","SECT":"SECT","MAREA":"MAREA","LANE":"LANE","ALLEY":"ALLEY","HOUSE_NO":"HOUSE_NO","E_COORD97":"E_COORD97","N_COORD97":"N_COORD97","ADDRESS":"ADDRESS","OBJECTID":"OBJECTID"},"geometryType":"esriGeometryPoint","spatialReference":{"wkid":102443,"latestWkid":3826},"fields":[{"name":"ID","type":"esriFieldTypeDouble","alias":"ID"},{"name":"DIS_CODE","type":"esriFieldTypeInteger","alias":"DIS_CODE"},{"name":"TOWNNAME","type":"esriFieldTypeString","alias":"TOWNNAME","length":8},{"name":"LI","type":"esriFieldTypeString","alias":"LI","length":8},{"name":"LIN","type":"esriFieldTypeString","alias":"LIN","length":12},{"name":"STREET","type":"esriFieldTypeString","alias":"STREET","length":20},{"name":"SECT","type":"esriFieldTypeString","alias":"SECT","length":8},{"name":"MAREA","type":"esriFieldTypeString","alias":"MAREA","length":12},{"name":"LANE","type":"esriFieldTypeString","alias":"LANE","length":10},{"name":"ALLEY","type":"esriFieldTypeString","alias":"ALLEY","length":10},{"name":"HOUSE_NO","type":"esriFieldTypeString","alias":"HOUSE_NO","length":20},{"name":"E_COORD97","type":"esriFieldTypeDouble","alias":"E_COORD97"},{"name":"N_COORD97","type":"esriFieldTypeDouble","alias":"N_COORD97"},{"name":"ADDRESS","type":"esriFieldTypeString","alias":"ADDRESS","length":50},{"name":"OBJECTID","type":"esriFieldTypeOID","alias":"OBJECTID"}],"features":[{"attributes":{"ID":32001,"DIS_CODE":0,"TOWNNAME":"北區","LI":"賢北里","LIN":"14鄰","STREET":"大興街","SECT":" ","MAREA":" ","LANE":" ","ALLEY":" ","HOUSE_NO":"４９９號","E_COORD97":166149.26999999999,"N_COORD97":2545495.6099999999,"ADDRESS":"大興街４９９號","OBJECTID":32001},"geometry":{"x":166149.26999999955,"y":2545495.6100000013}},{"attributes":{"ID":32002,"DIS_CODE":0,"TOWNNAME":"官田區","LI":"官田里","LIN":"8鄰","STREET":" ","SECT":" ","MAREA":"官田","LANE":" ","ALLEY":" ","HOUSE_NO":"６４號之１","E_COORD97":182519.45000000001,"N_COORD97":2565091.73,"ADDRESS":"官田６４號之１","OBJECTID":32002},"geometry":{"x":182519.44999999925,"y":2565091.7300000023}},{"attributes":{"ID":32003,"DIS_CODE":0,"TOWNNAME":"新化區","LI":"全興里","LIN":"8鄰","STREET":" ","SECT":" ","MAREA":"竹子\u25A0","LANE":" ","ALLEY":" ","HOUSE_NO":"１０４號","E_COORD97":177478.23000000001,"N_COORD97":2547744.25,"ADDRESS":"竹子\u25A0１０４號","OBJECTID":32003},"geometry":{"x":177478.23000000231,"y":2547744.25}},{"attributes":{"ID":32004,"DIS_CODE":0,"TOWNNAME":"新化區","LI":"全興里","LIN":"8鄰","STREET":" ","SECT":" ","MAREA":"竹子\u25A0","LANE":" ","ALLEY":" ","HOUSE_NO":"１０９號之６","E_COORD97":177527.67999999999,"N_COORD97":2547741.2599999998,"ADDRESS":"竹子\u25A0１０９號之６","OBJECTID":32004},"geometry":{"x":177527.68000000063,"y":2547741.2599999979}},{"attributes":{"ID":32005,"DIS_CODE":0,"TOWNNAME":"新化區","LI":"大坑里","LIN":"8鄰","STREET":" ","SECT":" ","MAREA":"大坑尾","LANE":" ","ALLEY":" ","HOUSE_NO":"６５號","E_COORD97":186973.60000000001,"N_COORD97":2545383.79,"ADDRESS":"大坑尾６５號","OBJECTID":32005},"geometry":{"x":186973.60000000056,"y":2545383.7899999991}},{"attributes":{"ID":32006,"DIS_CODE":0,"TOWNNAME":"新化區","LI":"全興里","LIN":"8鄰","STREET":" ","SECT":" ","MAREA":"竹子\u25A0","LANE":" ","ALLEY":" ","HOUSE_NO":"１３６號之７","E_COORD97":177367.64000000001,"N_COORD97":2547886.2599999998,"ADDRESS":"竹子\u25A0１３６號之７","OBJECTID":32006},"geometry":{"x":177367.63999999873,"y":2547886.2599999998}},{"attributes":{"ID":32007,"DIS_CODE":0,"TOWNNAME":"北區","LI":"賢北里","LIN":"14鄰","STREET":"大興街","SECT":" ","MAREA":" ","LANE":" ","ALLEY":" ","HOUSE_NO":"５０１號","E_COORD97":166145.37,"N_COORD97":2545493.8599999999,"ADDRESS":"大興街５０１號","OBJECTID":32007},"geometry":{"x":166145.37000000011,"y":2545493.8600000013}},{"attributes":{"ID":32008,"DIS_CODE":0,"TOWNNAME":"北區","LI":"賢北里","LIN":"14鄰","STREET":"大興街","SECT":" ","MAREA":" ","LANE":" ","ALLEY":" ","HOUSE_NO":"５０３號","E_COORD97":166142.14000000001,"N_COORD97":2545492.3900000001,"ADDRESS":"大興街５０３號","OBJECTID":32008},"geometry":{"x":166142.14000000153,"y":2545492.3900000006}},{"attributes":{"ID":32009,"DIS_CODE":0,"TOWNNAME":"北區","LI":"賢北里","LIN":"14鄰","STREET":"大興街","SECT":" ","MAREA":" ","LANE":" ","ALLEY":" ","HOUSE_NO":"５０５號","E_COORD97":166137.95999999999,"N_COORD97":2545490.77,"ADDRESS":"大興街５０５號","OBJECTID":32009},"geometry":{"x":166137.95999999996,"y":2545490.7700000014}},{"attributes":{"ID":32010,"DIS_CODE":0,"TOWNNAME":"新化區","LI":"崙頂里","LIN":"8鄰","STREET":" ","SECT":" ","MAREA":"崙子頂","LANE":" ","ALLEY":" ","HOUSE_NO":"３２６號之１","E_COORD97":176766.84,"N_COORD97":2546895.7599999998,"ADDRESS":"崙子頂３２６號之１","OBJECTID":32010},"geometry":{"x":176766.84000000078,"y":2546895.7599999998}},{"attributes":{"ID":32011,"DIS_CODE":0,"TOWNNAME":"新化區","LI":"豐榮里","LIN":"8鄰","STREET":" ","SECT":" ","MAREA":"洋子","LANE":" ","ALLEY":" ","HOUSE_NO":"１１號之１２","E_COORD97":178146.37,"N_COORD97":2548376.6499999999,"ADDRESS":"洋子１１號之１２","OBJECTID":32011},"geometry":{"x":178146.37000000197,"y":2548376.6499999985}},{"attributes":{"ID":32012,"DIS_CODE":0,"TOWNNAME":"永康區","LI":"建國里","LIN":"8鄰","STREET":"復國一路","SECT":" ","MAREA":" ","LANE":"６巷","ALLEY":"６６弄","HOUSE_NO":"１８號","E_COORD97":172785.14000000001,"N_COORD97":2544669.0299999998,"ADDRESS":"復國一路６巷６６弄１８號","OBJECTID":32012},"geometry":{"x":172785.13999999966,"y":2544669.0300000012}},{"attributes":{"ID":32013,"DIS_CODE":0,"TOWNNAME":"永康區","LI":"成功里","LIN":"8鄰","STREET":"忠孝路","SECT":" ","MAREA":" ","LANE":"２３９巷","ALLEY":"３７弄","HOUSE_NO":"２５號","E_COORD97":171984.64000000001,"N_COORD97":2544932.71,"ADDRESS":"忠孝路２３９巷３７弄２５號","OBJECTID":32013},"geometry":{"x":171984.6400000006,"y":2544932.7100000028}},{"attributes":{"ID":32014,"DIS_CODE":0,"TOWNNAME":"安南區","LI":"幸福里","LIN":"8鄰","STREET":"國安街","SECT":" ","MAREA":" ","LANE":"１５５巷","ALLEY":"６２弄","HOUSE_NO":"７號","E_COORD97":166731.79000000001,"N_COORD97":2546776.8199999998,"ADDRESS":"國安街１５５巷６２弄７號","OBJECTID":32014},"geometry":{"x":166731.79000000097,"y":2546776.8200000022}},{"attributes":{"ID":32015,"DIS_CODE":0,"TOWNNAME":"安南區","LI":"幸福里","LIN":"8鄰","STREET":"國安街","SECT":" ","MAREA":" ","LANE":"１５５巷","ALLEY":"６２弄","HOUSE_NO":"９號","E_COORD97":166726.38,"N_COORD97":2546772,"ADDRESS":"國安街１５５巷６２弄９號","OBJECTID":32015},"geometry":{"x":166726.38000000082,"y":2546772.0000000019}},{"attributes":{"ID":32016,"DIS_CODE":0,"TOWNNAME":"安南區","LI":"幸福里","LIN":"8鄰","STREET":"國安街","SECT":" ","MAREA":" ","LANE":"１５５巷","ALLEY":"７６弄","HOUSE_NO":"１０號","E_COORD97":166728.03,"N_COORD97":2546761.7599999998,"ADDRESS":"國安街１５５巷７６弄１０號","OBJECTID":32016},"geometry":{"x":166728.03000000026,"y":2546761.7600000035}},{"attributes":{"ID":32017,"DIS_CODE":0,"TOWNNAME":"安南區","LI":"幸福里","LIN":"8鄰","STREET":"國安街","SECT":" ","MAREA":" ","LANE":"１５５巷","ALLEY":"７６弄","HOUSE_NO":"１２號","E_COORD97":166722.32999999999,"N_COORD97":2546757.4399999999,"ADDRESS":"國安街１５５巷７６弄１２號","OBJECTID":32017},"geometry":{"x":166722.33000000007,"y":2546757.4400000013}},{"attributes":{"ID":32018,"DIS_CODE":0,"TOWNNAME":"安南區","LI":"幸福里","LIN":"8鄰","STREET":"國安街","SECT":" ","MAREA":" ","LANE":"１５５巷","ALLEY":"７６弄","HOUSE_NO":"１４號","E_COORD97":166715.54999999999,"N_COORD97":2546758.7200000002,"ADDRESS":"國安街１５５巷７６弄１４號","OBJECTID":32018},"geometry":{"x":166715.54999999981,"y":2546758.7200000007}},{"attributes":{"ID":32019,"DIS_CODE":0,"TOWNNAME":"安南區","LI":"幸福里","LIN":"8鄰","STREET":"國安街","SECT":" ","MAREA":" ","LANE":"１５５巷","ALLEY":"７６弄","HOUSE_NO":"１６號","E_COORD97":166709.70999999999,"N_COORD97":2546755.46,"ADDRESS":"國安街１５５巷７６弄１６號","OBJECTID":32019},"geometry":{"x":166709.70999999996,"y":2546755.4600000028}},{"attributes":{"ID":32020,"DIS_CODE":0,"TOWNNAME":"安南區","LI":"幸福里","LIN":"8鄰","STREET":"國安街","SECT":" ","MAREA":" ","LANE":"１５５巷","ALLEY":"７６弄","HOUSE_NO":"１８號","E_COORD97":166702.82000000001,"N_COORD97":2546757.0299999998,"ADDRESS":"國安街１５５巷７６弄１８號","OBJECTID":32020},"geometry":{"x":166702.82000000216,"y":2546757.0300000012}},{"attributes":{"ID":32021,"DIS_CODE":0,"TOWNNAME":"安南區","LI":"幸福里","LIN":"8鄰","STREET":"國安街","SECT":" ","MAREA":" ","LANE":"１５５巷","ALLEY":"７６弄","HOUSE_NO":"２號","E_COORD97":166753.60000000001,"N_COORD97":2546764.1200000001,"ADDRESS":"國安街１５５巷７６弄２號","OBJECTID":32021},"geometry":{"x":166753.59999999963,"y":2546764.1200000048}},{"attributes":{"ID":32022,"DIS_CODE":0,"TOWNNAME":"安南區","LI":"幸福里","LIN":"8鄰","STREET":"國安街","SECT":" ","MAREA":" ","LANE":"１５５巷","ALLEY":"７６弄","HOUSE_NO":"４號","E_COORD97":166747.41,"N_COORD97":2546762.25,"ADDRESS":"國安街１５５巷７６弄４號","OBJECTID":32022},"geometry":{"x":166747.41000000015,"y":2546762.2500000037}},{"attributes":{"ID":32023,"DIS_CODE":0,"TOWNNAME":"安南區","LI":"幸福里","LIN":"8鄰","STREET":"國安街","SECT":" ","MAREA":" ","LANE":"１５５巷","ALLEY":"７６弄","HOUSE_NO":"６號","E_COORD97":166740.62,"N_COORD97":2546764.4100000001,"ADDRESS":"國安街１５５巷７６弄６號","OBJECTID":32023},"geometry":{"x":166740.62000000011,"y":2546764.4100000039}},{"attributes":{"ID":32024,"DIS_CODE":0,"TOWNNAME":"安南區","LI":"幸福里","LIN":"8鄰","STREET":"國安街","SECT":" ","MAREA":" ","LANE":"１５５巷","ALLEY":"７６弄","HOUSE_NO":"８號","E_COORD97":166734.92000000001,"N_COORD97":2546760.0899999999,"ADDRESS":"國安街１５５巷７６弄８號","OBJECTID":32024},"geometry":{"x":166734.91999999993,"y":2546760.0900000017}},{"attributes":{"ID":32025,"DIS_CODE":0,"TOWNNAME":"新市區","LI":"新市里","LIN":"8鄰","STREET":"民生路","SECT":" ","MAREA":" ","LANE":"２巷","ALLEY":"１２弄","HOUSE_NO":"８號","E_COORD97":177430.25,"N_COORD97":2553164.5899999999,"ADDRESS":"民生路２巷１２弄８號","OBJECTID":32025},"geometry":{"x":177430.25000000093,"y":2553164.5900000017}},{"attributes":{"ID":32026,"DIS_CODE":0,"TOWNNAME":"安南區","LI":"幸福里","LIN":"8鄰","STREET":"國安街","SECT":" ","MAREA":" ","LANE":"１５５巷","ALLEY":"６２弄","HOUSE_NO":"３號","E_COORD97":166744.87,"N_COORD97":2546776.52,"ADDRESS":"國安街１５５巷６２弄３號","OBJECTID":32026},"geometry":{"x":166744.87000000104,"y":2546776.5200000033}},{"attributes":{"ID":32027,"DIS_CODE":0,"TOWNNAME":"安南區","LI":"安西里","LIN":"8鄰","STREET":"安和路","SECT":"一段","MAREA":" ","LANE":"３２１巷","ALLEY":"２１弄","HOUSE_NO":"１７號","E_COORD97":169149.54000000001,"N_COORD97":2548142.79,"ADDRESS":"安和路一段３２１巷２１弄１７號","OBJECTID":32027},"geometry":{"x":169149.54000000097,"y":2548142.7899999991}},{"attributes":{"ID":32028,"DIS_CODE":0,"TOWNNAME":"安南區","LI":"安西里","LIN":"8鄰","STREET":"安和路","SECT":"一段","MAREA":" ","LANE":"３２１巷","ALLEY":"２１弄","HOUSE_NO":"１９號","E_COORD97":169145.23999999999,"N_COORD97":2548140.8300000001,"ADDRESS":"安和路一段３２１巷２１弄１９號","OBJECTID":32028},"geometry":{"x":169145.24000000022,"y":2548140.8300000001}},{"attributes":{"ID":32029,"DIS_CODE":0,"TOWNNAME":"安南區","LI":"安西里","LIN":"8鄰","STREET":"安和路","SECT":"一段","MAREA":" ","LANE":"３２１巷","ALLEY":"２１弄","HOUSE_NO":"２１號","E_COORD97":169140.54000000001,"N_COORD97":2548140.0499999998,"ADDRESS":"安和路一段３２１巷２１弄２１號","OBJECTID":32029},"geometry":{"x":169140.54000000097,"y":2548140.0500000007}},{"attributes":{"ID":32030,"DIS_CODE":0,"TOWNNAME":"安南區","LI":"安西里","LIN":"8鄰","STREET":"安中路","SECT":"一段","MAREA":" ","LANE":"２９巷","ALLEY":"２９弄","HOUSE_NO":"７號","E_COORD97":169135.85000000001,"N_COORD97":2548138.4900000002,"ADDRESS":"安中路一段２９巷２９弄７號","OBJECTID":32030},"geometry":{"x":169135.84999999963,"y":2548138.4900000021}},{"attributes":{"ID":32031,"DIS_CODE":0,"TOWNNAME":"安南區","LI":"安西里","LIN":"8鄰","STREET":"安和路","SECT":"一段","MAREA":" ","LANE":"３２１巷","ALLEY":"２１弄","HOUSE_NO":"１０號","E_COORD97":169164.01999999999,"N_COORD97":2548178.3500000001,"ADDRESS":"安和路一段３２１巷２１弄１０號","OBJECTID":32031},"geometry":{"x":169164.02000000048,"y":2548178.3500000034}},{"attributes":{"ID":32032,"DIS_CODE":0,"TOWNNAME":"安南區","LI":"安西里","LIN":"8鄰","STREET":"安和路","SECT":"一段","MAREA":" ","LANE":"３２１巷","ALLEY":"２１弄","HOUSE_NO":"１２號","E_COORD97":169156.98000000001,"N_COORD97":2548175.6200000001,"ADDRESS":"安和路一段３２１巷２１弄１２號","OBJECTID":32032},"geometry":{"x":169156.98000000138,"y":2548175.6200000029}},{"attributes":{"ID":32033,"DIS_CODE":0,"TOWNNAME":"安南區","LI":"安西里","LIN":"8鄰","STREET":"安和路","SECT":"一段","MAREA":" ","LANE":"３２１巷","ALLEY":"２１弄","HOUSE_NO":"１４號","E_COORD97":169153.45999999999,"N_COORD97":2548174.4500000002,"ADDRESS":"安和路一段３２１巷２１弄１４號","OBJECTID":32033},"geometry":{"x":169153.46000000089,"y":2548174.4500000011}},{"attributes":{"ID":32034,"DIS_CODE":0,"TOWNNAME":"安南區","LI":"安西里","LIN":"8鄰","STREET":"安和路","SECT":"一段","MAREA":" ","LANE":"３２１巷","ALLEY":"２１弄","HOUSE_NO":"１６號","E_COORD97":169149.14999999999,"N_COORD97":2548172.8799999999,"ADDRESS":"安和路一段３２１巷２１弄１６號","OBJECTID":32034},"geometry":{"x":169149.1500000013,"y":2548172.879999999}},{"attributes":{"ID":32035,"DIS_CODE":0,"TOWNNAME":"北區","LI":"賢北里","LIN":"14鄰","STREET":"賢北街","SECT":" ","MAREA":" ","LANE":"５７巷","ALLEY":" ","HOUSE_NO":"３４號","E_COORD97":166157.76000000001,"N_COORD97":2545442.3100000001,"ADDRESS":"賢北街５７巷３４號","OBJECTID":32035},"geometry":{"x":166157.75999999978,"y":2545442.3100000005}},{"attributes":{"ID":32036,"DIS_CODE":0,"TOWNNAME":"歸仁區","LI":"大潭里","LIN":"3鄰","STREET":"長榮路","SECT":"一段","MAREA":" ","LANE":" ","ALLEY":" ","HOUSE_NO":"６０３號","E_COORD97":176016.97,"N_COORD97":2534514.2799999998,"ADDRESS":"長榮路一段６０３號","OBJECTID":32036},"geometry":{"x":176016.97000000067,"y":2534514.2799999993}},{"attributes":{"ID":32037,"DIS_CODE":0,"TOWNNAME":"歸仁區","LI":"六甲里","LIN":"40鄰","STREET":"民生南街","SECT":"二段","MAREA":" ","LANE":" ","ALLEY":" ","HOUSE_NO":"８３０號","E_COORD97":176071.75,"N_COORD97":2539280.29,"ADDRESS":"民生南街二段８３０號","OBJECTID":32037},"geometry":{"x":176071.75,"y":2539280.2899999991}},{"attributes":{"ID":32038,"DIS_CODE":0,"TOWNNAME":"歸仁區","LI":"六甲里","LIN":"34鄰","STREET":"六甲六街","SECT":" ","MAREA":" ","LANE":" ","ALLEY":" ","HOUSE_NO":"１９號","E_COORD97":175630.97,"N_COORD97":2539320.25,"ADDRESS":"六甲六街１９號","OBJECTID":32038},"geometry":{"x":175630.96999999974,"y":2539320.2500000037}},{"attributes":{"ID":32039,"DIS_CODE":0,"TOWNNAME":"新營區","LI":"民生里","LIN":"8鄰","STREET":"復興路","SECT":" ","MAREA":" ","LANE":" ","ALLEY":" ","HOUSE_NO":"１３０之３號","E_COORD97":179378.22,"N_COORD97":2578057.4500000002,"ADDRESS":"復興路１３０之３號","OBJECTID":32039},"geometry":{"x":179378.22000000067,"y":2578057.4500000011}},{"attributes":{"ID":32040,"DIS_CODE":0,"TOWNNAME":"安南區","LI":"安西里","LIN":"8鄰","STREET":"安和路","SECT":"一段","MAREA":" ","LANE":"３２１巷","ALLEY":"２１弄","HOUSE_NO":"１８號","E_COORD97":169144.85000000001,"N_COORD97":2548170.9300000002,"ADDRESS":"安和路一段３２１巷２１弄１８號","OBJECTID":32040},"geometry":{"x":169144.85000000056,"y":2548170.9300000034}},{"attributes":{"ID":32041,"DIS_CODE":0,"TOWNNAME":"安南區","LI":"安西里","LIN":"8鄰","STREET":"安和路","SECT":"一段","MAREA":" ","LANE":"３２１巷","ALLEY":"２１弄","HOUSE_NO":"２０號","E_COORD97":169141.32999999999,"N_COORD97":2548170.1499999999,"ADDRESS":"安和路一段３２１巷２１弄２０號","OBJECTID":32041},"geometry":{"x":169141.33000000007,"y":2548170.1500000041}},{"attributes":{"ID":32042,"DIS_CODE":0,"TOWNNAME":"安南區","LI":"安西里","LIN":"8鄰","STREET":"安和路","SECT":"一段","MAREA":" ","LANE":"３２１巷","ALLEY":"２１弄","HOUSE_NO":"２２號","E_COORD97":169135.85000000001,"N_COORD97":2548169.7599999998,"ADDRESS":"安和路一段３２１巷２１弄２２號","OBJECTID":32042},"geometry":{"x":169135.84999999963,"y":2548169.7600000016}},{"attributes":{"ID":32043,"DIS_CODE":0,"TOWNNAME":"安南區","LI":"安西里","LIN":"8鄰","STREET":"安和路","SECT":"一段","MAREA":" ","LANE":"３２１巷","ALLEY":"２１弄","HOUSE_NO":"２４號","E_COORD97":169130.76000000001,"N_COORD97":2548168.5800000001,"ADDRESS":"安和路一段３２１巷２１弄２４號","OBJECTID":32043},"geometry":{"x":169130.76000000071,"y":2548168.5800000001}},{"attributes":{"ID":32044,"DIS_CODE":0,"TOWNNAME":"安南區","LI":"安西里","LIN":"8鄰","STREET":"安和路","SECT":"一段","MAREA":" ","LANE":"３２１巷","ALLEY":"２１弄","HOUSE_NO":"４號","E_COORD97":169179.29000000001,"N_COORD97":2548184.6099999999,"ADDRESS":"安和路一段３２１巷２１弄４號","OBJECTID":32044},"geometry":{"x":169179.2900000019,"y":2548184.6099999994}},{"attributes":{"ID":32045,"DIS_CODE":0,"TOWNNAME":"安南區","LI":"安西里","LIN":"8鄰","STREET":"安和路","SECT":"一段","MAREA":" ","LANE":"３２１巷","ALLEY":"２１弄","HOUSE_NO":"６號","E_COORD97":169174.59,"N_COORD97":2548183.04,"ADDRESS":"安和路一段３２１巷２１弄６號","OBJECTID":32045},"geometry":{"x":169174.58999999985,"y":2548183.0400000028}},{"attributes":{"ID":32046,"DIS_CODE":0,"TOWNNAME":"安南區","LI":"安西里","LIN":"8鄰","STREET":"安和路","SECT":"一段","MAREA":" ","LANE":"３２１巷","ALLEY":"２１弄","HOUSE_NO":"８號","E_COORD97":169168.72,"N_COORD97":2548179.9199999999,"ADDRESS":"安和路一段３２１巷２１弄８號","OBJECTID":32046},"geometry":{"x":169168.71999999974,"y":2548179.9199999999}},{"attributes":{"ID":32047,"DIS_CODE":0,"TOWNNAME":"安南區","LI":"溪心里","LIN":"8鄰","STREET":"海佃路","SECT":"二段","MAREA":" ","LANE":"７６６巷","ALLEY":"１１弄","HOUSE_NO":"１號","E_COORD97":166504.14000000001,"N_COORD97":2549618.3399999999,"ADDRESS":"海佃路二段７６６巷１１弄１號","OBJECTID":32047},"geometry":{"x":166504.13999999966,"y":2549618.3399999999}},{"attributes":{"ID":32048,"DIS_CODE":0,"TOWNNAME":"安南區","LI":"溪心里","LIN":"8鄰","STREET":"海佃路","SECT":"二段","MAREA":" ","LANE":"７６６巷","ALLEY":"１１弄","HOUSE_NO":"３號","E_COORD97":166501.38,"N_COORD97":2549622.2000000002,"ADDRESS":"海佃路二段７６６巷１１弄３號","OBJECTID":32048},"geometry":{"x":166501.37999999989,"y":2549622.1999999993}},{"attributes":{"ID":32049,"DIS_CODE":0,"TOWNNAME":"安南區","LI":"溪心里","LIN":"8鄰","STREET":"海佃路","SECT":"二段","MAREA":" ","LANE":"７６６巷","ALLEY":"１１弄","HOUSE_NO":"５號","E_COORD97":166498.63,"N_COORD97":2549625.3599999999,"ADDRESS":"海佃路二段７６６巷１１弄５號","OBJECTID":32049},"geometry":{"x":166498.63000000082,"y":2549625.3600000031}},{"attributes":{"ID":32050,"DIS_CODE":0,"TOWNNAME":"安南區","LI":"溪心里","LIN":"8鄰","STREET":"海佃路","SECT":"二段","MAREA":" ","LANE":"７６６巷","ALLEY":"１１弄","HOUSE_NO":"７號","E_COORD97":166496.01000000001,"N_COORD97":2549629.2200000002,"ADDRESS":"海佃路二段７６６巷１１弄７號","OBJECTID":32050},"geometry":{"x":166496.01000000071,"y":2549629.2200000025}},{"attributes":{"ID":32051,"DIS_CODE":0,"TOWNNAME":"安南區","LI":"溪心里","LIN":"8鄰","STREET":"海佃路","SECT":"二段","MAREA":" ","LANE":"７６６巷","ALLEY":"１１弄","HOUSE_NO":"９號","E_COORD97":166493.94,"N_COORD97":2549632.7999999998,"ADDRESS":"海佃路二段７６６巷１１弄９號","OBJECTID":32051},"geometry":{"x":166493.94000000134,"y":2549632.8000000007}},{"attributes":{"ID":32052,"DIS_CODE":0,"TOWNNAME":"新化區","LI":"豐榮里","LIN":"8鄰","STREET":" ","SECT":" ","MAREA":"洋子","LANE":" ","ALLEY":" ","HOUSE_NO":"１９號之１","E_COORD97":178151.37,"N_COORD97":2548278.5299999998,"ADDRESS":"洋子１９號之１","OBJECTID":32052},"geometry":{"x":178151.36999999918,"y":2548278.5300000031}},{"attributes":{"ID":32053,"DIS_CODE":0,"TOWNNAME":"安南區","LI":"安慶里","LIN":"8鄰","STREET":"長溪路","SECT":"一段","MAREA":" ","LANE":"３４２巷","ALLEY":"３８弄","HOUSE_NO":"４７號","E_COORD97":168800.41,"N_COORD97":2548960.96,"ADDRESS":"長溪路一段３４２巷３８弄４７號","OBJECTID":32053},"geometry":{"x":168800.41000000015,"y":2548960.9600000009}},{"attributes":{"ID":32054,"DIS_CODE":0,"TOWNNAME":"安南區","LI":"淵中里","LIN":"8鄰","STREET":"安中路","SECT":"四段","MAREA":" ","LANE":"４巷","ALLEY":"４８弄","HOUSE_NO":"３５號","E_COORD97":165198.01000000001,"N_COORD97":2550264.25,"ADDRESS":"安中路四段４巷４８弄３５號","OBJECTID":32054},"geometry":{"x":165198.01000000071,"y":2550264.2500000037}},{"attributes":{"ID":32055,"DIS_CODE":0,"TOWNNAME":"新化區","LI":"豐榮里","LIN":"8鄰","STREET":" ","SECT":" ","MAREA":"洋子","LANE":" ","ALLEY":" ","HOUSE_NO":"２０號之１","E_COORD97":178152.12,"N_COORD97":2548306.5,"ADDRESS":"洋子２０號之１","OBJECTID":32055},"geometry":{"x":178152.12000000104,"y":2548306.5000000037}},{"attributes":{"ID":32056,"DIS_CODE":0,"TOWNNAME":"新化區","LI":"山\u25A0里","LIN":"8鄰","STREET":" ","SECT":" ","MAREA":"頂山\u25A0","LANE":" ","ALLEY":" ","HOUSE_NO":"１８２號之１","E_COORD97":179742.89999999999,"N_COORD97":2546824.3900000001,"ADDRESS":"頂山\u25A0１８２號之１","OBJECTID":32056},"geometry":{"x":179742.90000000037,"y":2546824.3900000006}},{"attributes":{"ID":32057,"DIS_CODE":0,"TOWNNAME":"新化區","LI":"山\u25A0里","LIN":"8鄰","STREET":" ","SECT":" ","MAREA":"頂山\u25A0","LANE":" ","ALLEY":" ","HOUSE_NO":"１８２號之２","E_COORD97":179757.26999999999,"N_COORD97":2546840.6600000001,"ADDRESS":"頂山\u25A0１８２號之２","OBJECTID":32057},"geometry":{"x":179757.27000000048,"y":2546840.6600000039}},{"attributes":{"ID":32058,"DIS_CODE":0,"TOWNNAME":"新化區","LI":"山\u25A0里","LIN":"8鄰","STREET":" ","SECT":" ","MAREA":"頂山\u25A0","LANE":" ","ALLEY":" ","HOUSE_NO":"１７０號","E_COORD97":180302.04999999999,"N_COORD97":2546473.3900000001,"ADDRESS":"頂山\u25A0１７０號","OBJECTID":32058},"geometry":{"x":180302.04999999981,"y":2546473.3900000043}},{"attributes":{"ID":32059,"DIS_CODE":0,"TOWNNAME":"安南區","LI":"淵中里","LIN":"8鄰","STREET":"安中路","SECT":"四段","MAREA":" ","LANE":"４巷","ALLEY":"４８弄","HOUSE_NO":"３７號","E_COORD97":165202.34,"N_COORD97":2550265.7799999998,"ADDRESS":"安中路四段４巷４８弄３７號","OBJECTID":32059},"geometry":{"x":165202.34000000078,"y":2550265.7799999993}},{"attributes":{"ID":32060,"DIS_CODE":0,"TOWNNAME":"安南區","LI":"公\u25A0里","LIN":"8鄰","STREET":"安興街","SECT":" ","MAREA":" ","LANE":"１８１巷","ALLEY":"１０７弄","HOUSE_NO":"２號","E_COORD97":163872.48999999999,"N_COORD97":2551843.3199999998,"ADDRESS":"安興街１８１巷１０７弄２號","OBJECTID":32060},"geometry":{"x":163872.49000000115,"y":2551843.3200000003}},{"attributes":{"ID":32061,"DIS_CODE":0,"TOWNNAME":"東區","LI":"富強里","LIN":"8鄰","STREET":"中華東路","SECT":"二段","MAREA":" ","LANE":"９６巷","ALLEY":"２３弄","HOUSE_NO":"１０號","E_COORD97":171201.73000000001,"N_COORD97":2542804.1699999999,"ADDRESS":"中華東路二段９６巷２３弄１０號","OBJECTID":32061},"geometry":{"x":171201.73000000045,"y":2542804.1700000018}},{"attributes":{"ID":32062,"DIS_CODE":0,"TOWNNAME":"東區","LI":"富強里","LIN":"8鄰","STREET":"中華東路","SECT":"二段","MAREA":" ","LANE":"９６巷","ALLEY":"２３弄","HOUSE_NO":"１１號","E_COORD97":171172.92000000001,"N_COORD97":2542780.3799999999,"ADDRESS":"中華東路二段９６巷２３弄１１號","OBJECTID":32062},"geometry":{"x":171172.91999999993,"y":2542780.3800000008}},{"attributes":{"ID":32063,"DIS_CODE":0,"TOWNNAME":"東區","LI":"富強里","LIN":"8鄰","STREET":"中華東路","SECT":"二段","MAREA":" ","LANE":"９６巷","ALLEY":"２３弄","HOUSE_NO":"１３號","E_COORD97":171164.48999999999,"N_COORD97":2542780.7400000002,"ADDRESS":"中華東路二段９６巷２３弄１３號","OBJECTID":32063},"geometry":{"x":171164.49000000022,"y":2542780.7400000002}},{"attributes":{"ID":32064,"DIS_CODE":0,"TOWNNAME":"東區","LI":"富強里","LIN":"8鄰","STREET":"中華東路","SECT":"二段","MAREA":" ","LANE":"９６巷","ALLEY":"２３弄","HOUSE_NO":"１６號","E_COORD97":171188.91,"N_COORD97":2542802.3399999999,"ADDRESS":"中華東路二段９６巷２３弄１６號","OBJECTID":32064},"geometry":{"x":171188.91000000015,"y":2542802.3400000017}},{"attributes":{"ID":32065,"DIS_CODE":0,"TOWNNAME":"新市區","LI":"新市里","LIN":"8鄰","STREET":"民生路","SECT":" ","MAREA":" ","LANE":"２巷","ALLEY":"１２弄","HOUSE_NO":"９號","E_COORD97":177432.48000000001,"N_COORD97":2553168.9500000002,"ADDRESS":"民生路２巷１２弄９號","OBJECTID":32065},"geometry":{"x":177432.48000000231,"y":2553168.9500000011}},{"attributes":{"ID":32066,"DIS_CODE":0,"TOWNNAME":"北區","LI":"小康里","LIN":"14鄰","STREET":"大武街","SECT":" ","MAREA":" ","LANE":" ","ALLEY":" ","HOUSE_NO":"３３０號","E_COORD97":169750.64000000001,"N_COORD97":2546359.7599999998,"ADDRESS":"大武街３３０號","OBJECTID":32066},"geometry":{"x":169750.63999999966,"y":2546359.7600000016}},{"attributes":{"ID":32067,"DIS_CODE":0,"TOWNNAME":"北區","LI":"小康里","LIN":"14鄰","STREET":"大武街","SECT":" ","MAREA":" ","LANE":" ","ALLEY":" ","HOUSE_NO":"３３２號","E_COORD97":169758.23000000001,"N_COORD97":2546361.4900000002,"ADDRESS":"大武街３３２號","OBJECTID":32067},"geometry":{"x":169758.23000000231,"y":2546361.4900000021}},{"attributes":{"ID":32068,"DIS_CODE":0,"TOWNNAME":"北區","LI":"小康里","LIN":"14鄰","STREET":"大武街","SECT":" ","MAREA":" ","LANE":" ","ALLEY":" ","HOUSE_NO":"３３４號","E_COORD97":169764.19,"N_COORD97":2546362.77,"ADDRESS":"大武街３３４號","OBJECTID":32068},"geometry":{"x":169764.19000000134,"y":2546362.7700000014}},{"attributes":{"ID":32069,"DIS_CODE":0,"TOWNNAME":"善化區","LI":"田寮里","LIN":"8鄰","STREET":" ","SECT":" ","MAREA":"六分寮","LANE":" ","ALLEY":" ","HOUSE_NO":"８７號之４","E_COORD97":178541.60999999999,"N_COORD97":2561457.52,"ADDRESS":"六分寮８７號之４","OBJECTID":32069},"geometry":{"x":178541.6099999994,"y":2561457.5200000014}},{"attributes":{"ID":32070,"DIS_CODE":0,"TOWNNAME":"善化區","LI":"六分里","LIN":"8鄰","STREET":" ","SECT":" ","MAREA":"溪底寮","LANE":" ","ALLEY":" ","HOUSE_NO":"１７號之１","E_COORD97":177819.42999999999,"N_COORD97":2561933.52,"ADDRESS":"溪底寮１７號之１","OBJECTID":32070},"geometry":{"x":177819.4299999997,"y":2561933.5199999996}},{"attributes":{"ID":32071,"DIS_CODE":0,"TOWNNAME":"善化區","LI":"六分里","LIN":"8鄰","STREET":" ","SECT":" ","MAREA":"溪底寮","LANE":" ","ALLEY":" ","HOUSE_NO":"９號之１７","E_COORD97":177913.82999999999,"N_COORD97":2561720.02,"ADDRESS":"溪底寮９號之１７","OBJECTID":32071},"geometry":{"x":177913.83000000007,"y":2561720.0199999996}},{"attributes":{"ID":32072,"DIS_CODE":0,"TOWNNAME":"善化區","LI":"什乃里","LIN":"8鄰","STREET":" ","SECT":" ","MAREA":"什乃","LANE":" ","ALLEY":" ","HOUSE_NO":"６９號","E_COORD97":176176.94,"N_COORD97":2560371.5,"ADDRESS":"什乃６９號","OBJECTID":32072},"geometry":{"x":176176.94000000134,"y":2560371.5}},{"attributes":{"ID":32073,"DIS_CODE":0,"TOWNNAME":"善化區","LI":"牛庄里","LIN":"8鄰","STREET":" ","SECT":" ","MAREA":"牛庄","LANE":" ","ALLEY":" ","HOUSE_NO":"９６之１號","E_COORD97":180035.29000000001,"N_COORD97":2560163.77,"ADDRESS":"牛庄９６之１號","OBJECTID":32073},"geometry":{"x":180035.2900000019,"y":2560163.7700000033}},{"attributes":{"ID":32074,"DIS_CODE":0,"TOWNNAME":"善化區","LI":"牛庄里","LIN":"8鄰","STREET":" ","SECT":" ","MAREA":"牛庄","LANE":" ","ALLEY":" ","HOUSE_NO":"９６之１５號","E_COORD97":180016.98000000001,"N_COORD97":2560189.52,"ADDRESS":"牛庄９６之１５號","OBJECTID":32074},"geometry":{"x":180016.98000000045,"y":2560189.5200000014}},{"attributes":{"ID":32075,"DIS_CODE":0,"TOWNNAME":"善化區","LI":"牛庄里","LIN":"8鄰","STREET":" ","SECT":" ","MAREA":"牛庄","LANE":" ","ALLEY":" ","HOUSE_NO":"９７號","E_COORD97":179986.48999999999,"N_COORD97":2560165,"ADDRESS":"牛庄９７號","OBJECTID":32075},"geometry":{"x":179986.49000000022,"y":2560165}},{"attributes":{"ID":32076,"DIS_CODE":0,"TOWNNAME":"善化區","LI":"牛庄里","LIN":"8鄰","STREET":" ","SECT":" ","MAREA":"牛庄","LANE":" ","ALLEY":" ","HOUSE_NO":"９６之１２號","E_COORD97":180016.98000000001,"N_COORD97":2560177.02,"ADDRESS":"牛庄９６之１２號","OBJECTID":32076},"geometry":{"x":180016.98000000045,"y":2560177.0200000014}},{"attributes":{"ID":32077,"DIS_CODE":0,"TOWNNAME":"善化區","LI":"牛庄里","LIN":"8鄰","STREET":" ","SECT":" ","MAREA":"牛庄","LANE":" ","ALLEY":" ","HOUSE_NO":"９６之５號","E_COORD97":180035.01999999999,"N_COORD97":2560181.02,"ADDRESS":"牛庄９６之５號","OBJECTID":32077},"geometry":{"x":180035.02000000142,"y":2560181.0199999996}},{"attributes":{"ID":32078,"DIS_CODE":0,"TOWNNAME":"善化區","LI":"牛庄里","LIN":"8鄰","STREET":" ","SECT":" ","MAREA":"牛庄","LANE":" ","ALLEY":" ","HOUSE_NO":"９６之１０號","E_COORD97":180016.89000000001,"N_COORD97":2560168.27,"ADDRESS":"牛庄９６之１０號","OBJECTID":32078},"geometry":{"x":180016.88999999966,"y":2560168.2700000014}},{"attributes":{"ID":32079,"DIS_CODE":0,"TOWNNAME":"善化區","LI":"牛庄里","LIN":"8鄰","STREET":" ","SECT":" ","MAREA":"牛庄","LANE":" ","ALLEY":" ","HOUSE_NO":"９２號之１","E_COORD97":180060.70999999999,"N_COORD97":2560165.52,"ADDRESS":"牛庄９２號之１","OBJECTID":32079},"geometry":{"x":180060.70999999996,"y":2560165.5200000014}},{"attributes":{"ID":32080,"DIS_CODE":0,"TOWNNAME":"善化區","LI":"牛庄里","LIN":"8鄰","STREET":" ","SECT":" ","MAREA":"牛庄","LANE":" ","ALLEY":" ","HOUSE_NO":"９６之２號","E_COORD97":180035.23999999999,"N_COORD97":2560168.02,"ADDRESS":"牛庄９６之２號","OBJECTID":32080},"geometry":{"x":180035.24000000022,"y":2560168.0199999996}},{"attributes":{"ID":32081,"DIS_CODE":0,"TOWNNAME":"善化區","LI":"牛庄里","LIN":"8鄰","STREET":" ","SECT":" ","MAREA":"牛庄","LANE":" ","ALLEY":" ","HOUSE_NO":"９２之４號","E_COORD97":180080.79999999999,"N_COORD97":2560185.52,"ADDRESS":"牛庄９２之４號","OBJECTID":32081},"geometry":{"x":180080.80000000168,"y":2560185.5200000033}},{"attributes":{"ID":32082,"DIS_CODE":0,"TOWNNAME":"西港區","LI":"新復里","LIN":"8鄰","STREET":" ","SECT":" ","MAREA":"溪埔寮","LANE":" ","ALLEY":" ","HOUSE_NO":"１之６１號","E_COORD97":166397.81,"N_COORD97":2554476.71,"ADDRESS":"溪埔寮１之６１號","OBJECTID":32082},"geometry":{"x":166397.80999999959,"y":2554476.7100000028}},{"attributes":{"ID":32083,"DIS_CODE":0,"TOWNNAME":"麻豆區","LI":"油車里","LIN":"8鄰","STREET":" ","SECT":" ","MAREA":"油車","LANE":" ","ALLEY":" ","HOUSE_NO":"３０號","E_COORD97":172663.79999999999,"N_COORD97":2565467.02,"ADDRESS":"油車３０號","OBJECTID":32083},"geometry":{"x":172663.79999999981,"y":2565467.0199999996}},{"attributes":{"ID":32084,"DIS_CODE":0,"TOWNNAME":"大內區","LI":"石林里","LIN":"8鄰","STREET":" ","SECT":" ","MAREA":"石子瀨","LANE":" ","ALLEY":" ","HOUSE_NO":"１９３號","E_COORD97":183959.37,"N_COORD97":2558167.25,"ADDRESS":"石子瀨１９３號","OBJECTID":32084},"geometry":{"x":183959.37000000104,"y":2558167.2500000037}},{"attributes":{"ID":32085,"DIS_CODE":0,"TOWNNAME":"大內區","LI":"曲溪里","LIN":"8鄰","STREET":" ","SECT":" ","MAREA":"二重溪","LANE":" ","ALLEY":" ","HOUSE_NO":"７７號之２","E_COORD97":187289.45999999999,"N_COORD97":2557698.3100000001,"ADDRESS":"二重溪７７號之２","OBJECTID":32085},"geometry":{"x":187289.46000000183,"y":2557698.3100000005}},{"attributes":{"ID":32086,"DIS_CODE":0,"TOWNNAME":"大內區","LI":"石城里","LIN":"8鄰","STREET":" ","SECT":" ","MAREA":"石子瀨","LANE":" ","ALLEY":" ","HOUSE_NO":"７４號之６","E_COORD97":184265.95999999999,"N_COORD97":2557750.2999999998,"ADDRESS":"石子瀨７４號之６","OBJECTID":32086},"geometry":{"x":184265.96000000089,"y":2557750.3000000007}},{"attributes":{"ID":32087,"DIS_CODE":0,"TOWNNAME":"大內區","LI":"曲溪里","LIN":"8鄰","STREET":" ","SECT":" ","MAREA":"二重溪","LANE":" ","ALLEY":" ","HOUSE_NO":"６９號之３","E_COORD97":187263.62,"N_COORD97":2557725.3100000001,"ADDRESS":"二重溪６９號之３","OBJECTID":32087},"geometry":{"x":187263.62000000104,"y":2557725.3100000005}},{"attributes":{"ID":32088,"DIS_CODE":0,"TOWNNAME":"大內區","LI":"頭社里","LIN":"8鄰","STREET":" ","SECT":" ","MAREA":"頭社","LANE":" ","ALLEY":" ","HOUSE_NO":"８４號之５","E_COORD97":186527.63,"N_COORD97":2560898.2999999998,"ADDRESS":"頭社８４號之５","OBJECTID":32088},"geometry":{"x":186527.63000000082,"y":2560898.3000000026}},{"attributes":{"ID":32089,"DIS_CODE":0,"TOWNNAME":"大內區","LI":"石湖里","LIN":"8鄰","STREET":" ","SECT":" ","MAREA":"石子瀨","LANE":" ","ALLEY":" ","HOUSE_NO":"３０５號之３","E_COORD97":183704.29999999999,"N_COORD97":2558433.2999999998,"ADDRESS":"石子瀨３０５號之３","OBJECTID":32089},"geometry":{"x":183704.29999999981,"y":2558433.3000000026}},{"attributes":{"ID":32090,"DIS_CODE":0,"TOWNNAME":"東區","LI":"富強里","LIN":"8鄰","STREET":"中華東路","SECT":"二段","MAREA":" ","LANE":"９６巷","ALLEY":"２３弄","HOUSE_NO":"１８號","E_COORD97":171184.51999999999,"N_COORD97":2542804.29,"ADDRESS":"中華東路二段９６巷２３弄１８號","OBJECTID":32090},"geometry":{"x":171184.52000000048,"y":2542804.2900000028}},{"attributes":{"ID":32091,"DIS_CODE":0,"TOWNNAME":"東區","LI":"富強里","LIN":"8鄰","STREET":"中華東路","SECT":"二段","MAREA":" ","LANE":"９６巷","ALLEY":"２３弄","HOUSE_NO":"１號","E_COORD97":171211.01000000001,"N_COORD97":2542782.21,"ADDRESS":"中華東路二段９６巷２３弄１號","OBJECTID":32091},"geometry":{"x":171211.00999999978,"y":2542782.2100000009}},{"attributes":{"ID":32092,"DIS_CODE":0,"TOWNNAME":"大內區","LI":"石城里","LIN":"8鄰","STREET":" ","SECT":" ","MAREA":"石子瀨","LANE":" ","ALLEY":" ","HOUSE_NO":"７４號","E_COORD97":184251.92000000001,"N_COORD97":2557827.25,"ADDRESS":"石子瀨７４號","OBJECTID":32092},"geometry":{"x":184251.92000000179,"y":2557827.25}},{"attributes":{"ID":32093,"DIS_CODE":0,"TOWNNAME":"大內區","LI":"頭社里","LIN":"8鄰","STREET":" ","SECT":" ","MAREA":"頭社","LANE":" ","ALLEY":" ","HOUSE_NO":"８４號之１１","E_COORD97":186574.82999999999,"N_COORD97":2560991.2999999998,"ADDRESS":"頭社８４號之１１","OBJECTID":32093},"geometry":{"x":186574.83000000007,"y":2560991.3000000007}},{"attributes":{"ID":32094,"DIS_CODE":0,"TOWNNAME":"東區","LI":"富強里","LIN":"8鄰","STREET":"中華東路","SECT":"二段","MAREA":" ","LANE":"９６巷","ALLEY":"２３弄","HOUSE_NO":"２０號","E_COORD97":171180.35999999999,"N_COORD97":2542801.9700000002,"ADDRESS":"中華東路二段９６巷２３弄２０號","OBJECTID":32094},"geometry":{"x":171180.36000000034,"y":2542801.9700000025}},{"attributes":{"ID":32095,"DIS_CODE":0,"TOWNNAME":"東區","LI":"富強里","LIN":"8鄰","STREET":"中華東路","SECT":"二段","MAREA":" ","LANE":"９６巷","ALLEY":"２３弄","HOUSE_NO":"２２號","E_COORD97":171176.57999999999,"N_COORD97":2542803.7999999998,"ADDRESS":"中華東路二段９６巷２３弄２２號","OBJECTID":32095},"geometry":{"x":171176.58000000101,"y":2542803.8000000026}},{"attributes":{"ID":32096,"DIS_CODE":0,"TOWNNAME":"東區","LI":"富強里","LIN":"8鄰","STREET":"中華東路","SECT":"二段","MAREA":" ","LANE":"９６巷","ALLEY":"２３弄","HOUSE_NO":"２４號","E_COORD97":171172.29999999999,"N_COORD97":2542802.1000000001,"ADDRESS":"中華東路二段９６巷２３弄２４號","OBJECTID":32096},"geometry":{"x":171172.29999999981,"y":2542802.0999999996}},{"attributes":{"ID":32097,"DIS_CODE":0,"TOWNNAME":"東區","LI":"富強里","LIN":"8鄰","STREET":"中華東路","SECT":"二段","MAREA":" ","LANE":"９６巷","ALLEY":"２３弄","HOUSE_NO":"３０號","E_COORD97":171159.48000000001,"N_COORD97":2542802.9500000002,"ADDRESS":"中華東路二段９６巷２３弄３０號","OBJECTID":32097},"geometry":{"x":171159.48000000045,"y":2542802.9499999993}},{"attributes":{"ID":32098,"DIS_CODE":0,"TOWNNAME":"東區","LI":"富強里","LIN":"8鄰","STREET":"中華東路","SECT":"二段","MAREA":" ","LANE":"９６巷","ALLEY":"２３弄","HOUSE_NO":"３號","E_COORD97":171203.07999999999,"N_COORD97":2542781.1099999999,"ADDRESS":"中華東路二段９６巷２３弄３號","OBJECTID":32098},"geometry":{"x":171203.07999999914,"y":2542781.1099999994}},{"attributes":{"ID":32099,"DIS_CODE":0,"TOWNNAME":"東區","LI":"富強里","LIN":"8鄰","STREET":"中華東路","SECT":"二段","MAREA":" ","LANE":"９６巷","ALLEY":"２３弄","HOUSE_NO":"５號","E_COORD97":171196.35999999999,"N_COORD97":2542780.8700000001,"ADDRESS":"中華東路二段９６巷２３弄５號","OBJECTID":32099},"geometry":{"x":171196.3599999994,"y":2542780.870000001}},{"attributes":{"ID":32100,"DIS_CODE":0,"TOWNNAME":"東區","LI":"富強里","LIN":"8鄰","STREET":"中華東路","SECT":"二段","MAREA":" ","LANE":"９６巷","ALLEY":"２３弄","HOUSE_NO":"６號","E_COORD97":171210.04000000001,"N_COORD97":2542804.1699999999,"ADDRESS":"中華東路二段９６巷２３弄６號","OBJECTID":32100},"geometry":{"x":171210.03999999911,"y":2542804.1700000018}},{"attributes":{"ID":32101,"DIS_CODE":0,"TOWNNAME":"北區","LI":"小康里","LIN":"14鄰","STREET":"大武街","SECT":" ","MAREA":" ","LANE":" ","ALLEY":" ","HOUSE_NO":"３４０號","E_COORD97":169780.57000000001,"N_COORD97":2546365.4300000002,"ADDRESS":"大武街３４０號","OBJECTID":32101},"geometry":{"x":169780.5700000003,"y":2546365.4300000016}},{"attributes":{"ID":32102,"DIS_CODE":0,"TOWNNAME":"北區","LI":"小康里","LIN":"14鄰","STREET":"大武街","SECT":" ","MAREA":" ","LANE":" ","ALLEY":" ","HOUSE_NO":"３４１號","E_COORD97":169755.26999999999,"N_COORD97":2546375.2599999998,"ADDRESS":"大武街３４１號","OBJECTID":32102},"geometry":{"x":169755.27000000142,"y":2546375.2600000035}},{"attributes":{"ID":32103,"DIS_CODE":0,"TOWNNAME":"大內區","LI":"石林里","LIN":"8鄰","STREET":" ","SECT":" ","MAREA":"石子瀨","LANE":" ","ALLEY":" ","HOUSE_NO":"１９１之１號","E_COORD97":183928.57000000001,"N_COORD97":2558200.2999999998,"ADDRESS":"石子瀨１９１之１號","OBJECTID":32103},"geometry":{"x":183928.5700000003,"y":2558200.3000000007}},{"attributes":{"ID":32104,"DIS_CODE":0,"TOWNNAME":"大內區","LI":"環湖里","LIN":"8鄰","STREET":" ","SECT":" ","MAREA":"環湖","LANE":" ","ALLEY":" ","HOUSE_NO":"１１０號之２","E_COORD97":190260.85999999999,"N_COORD97":2560681.2999999998,"ADDRESS":"環湖１１０號之２","OBJECTID":32104},"geometry":{"x":190260.86000000127,"y":2560681.3000000026}},{"attributes":{"ID":32105,"DIS_CODE":0,"TOWNNAME":"大內區","LI":"內郭里","LIN":"8鄰","STREET":" ","SECT":" ","MAREA":"後堀","LANE":" ","ALLEY":" ","HOUSE_NO":"２０之１號","E_COORD97":185706.06,"N_COORD97":2557495.3199999998,"ADDRESS":"後堀２０之１號","OBJECTID":32105},"geometry":{"x":185706.05999999959,"y":2557495.3200000003}},{"attributes":{"ID":32106,"DIS_CODE":0,"TOWNNAME":"大內區","LI":"石城里","LIN":"8鄰","STREET":" ","SECT":" ","MAREA":"石子瀨","LANE":" ","ALLEY":" ","HOUSE_NO":"７３號之５","E_COORD97":184231.01000000001,"N_COORD97":2557874.2999999998,"ADDRESS":"石子瀨７３號之５","OBJECTID":32106},"geometry":{"x":184231.01000000071,"y":2557874.3000000026}},{"attributes":{"ID":32107,"DIS_CODE":0,"TOWNNAME":"大內區","LI":"頭社里","LIN":"8鄰","STREET":" ","SECT":" ","MAREA":"頭社","LANE":" ","ALLEY":" ","HOUSE_NO":"８４之２０號","E_COORD97":186406.29000000001,"N_COORD97":2560730.2999999998,"ADDRESS":"頭社８４之２０號","OBJECTID":32107},"geometry":{"x":186406.29000000097,"y":2560730.3000000007}},{"attributes":{"ID":32108,"DIS_CODE":0,"TOWNNAME":"大內區","LI":"內郭里","LIN":"8鄰","STREET":" ","SECT":" ","MAREA":"後堀","LANE":" ","ALLEY":" ","HOUSE_NO":"１７號","E_COORD97":185630.06,"N_COORD97":2557435.3100000001,"ADDRESS":"後堀１７號","OBJECTID":32108},"geometry":{"x":185630.05999999959,"y":2557435.3100000024}},{"attributes":{"ID":32109,"DIS_CODE":0,"TOWNNAME":"大內區","LI":"曲溪里","LIN":"8鄰","STREET":" ","SECT":" ","MAREA":"二重溪","LANE":" ","ALLEY":" ","HOUSE_NO":"７４號之１","E_COORD97":187339.73000000001,"N_COORD97":2557699.3100000001,"ADDRESS":"二重溪７４號之１","OBJECTID":32109},"geometry":{"x":187339.73000000138,"y":2557699.3099999987}},{"attributes":{"ID":32110,"DIS_CODE":0,"TOWNNAME":"大內區","LI":"內江里","LIN":"8鄰","STREET":" ","SECT":" ","MAREA":"內庄","LANE":" ","ALLEY":" ","HOUSE_NO":"２９７號","E_COORD97":184541.67999999999,"N_COORD97":2557311.25,"ADDRESS":"內庄２９７號","OBJECTID":32110},"geometry":{"x":184541.68000000063,"y":2557311.25}},{"attributes":{"ID":32111,"DIS_CODE":0,"TOWNNAME":"大內區","LI":"環湖里","LIN":"8鄰","STREET":" ","SECT":" ","MAREA":"環湖","LANE":" ","ALLEY":" ","HOUSE_NO":"１１０號之５","E_COORD97":190166.07999999999,"N_COORD97":2560704.2999999998,"ADDRESS":"環湖１１０號之５","OBJECTID":32111},"geometry":{"x":190166.08000000101,"y":2560704.3000000026}},{"attributes":{"ID":32112,"DIS_CODE":0,"TOWNNAME":"東區","LI":"富強里","LIN":"8鄰","STREET":"中華東路","SECT":"二段","MAREA":" ","LANE":"９６巷","ALLEY":"２３弄","HOUSE_NO":"７號","E_COORD97":171187.45000000001,"N_COORD97":2542781.3500000001,"ADDRESS":"中華東路二段９６巷２３弄７號","OBJECTID":32112},"geometry":{"x":171187.45000000112,"y":2542781.3500000015}},{"attributes":{"ID":32113,"DIS_CODE":0,"TOWNNAME":"大內區","LI":"內郭里","LIN":"8鄰","STREET":" ","SECT":" ","MAREA":"後堀","LANE":" ","ALLEY":" ","HOUSE_NO":"２１號","E_COORD97":185705.66,"N_COORD97":2557482.3199999998,"ADDRESS":"後堀２１號","OBJECTID":32113},"geometry":{"x":185705.66000000108,"y":2557482.320000004}},{"attributes":{"ID":32114,"DIS_CODE":0,"TOWNNAME":"大內區","LI":"大內里","LIN":"8鄰","STREET":" ","SECT":" ","MAREA":"內庄","LANE":" ","ALLEY":" ","HOUSE_NO":"８９號之１","E_COORD97":184634.76000000001,"N_COORD97":2557510.2999999998,"ADDRESS":"內庄８９號之１","OBJECTID":32114},"geometry":{"x":184634.76000000071,"y":2557510.3000000026}},{"attributes":{"ID":32115,"DIS_CODE":0,"TOWNNAME":"大內區","LI":"曲溪里","LIN":"8鄰","STREET":" ","SECT":" ","MAREA":"二重溪","LANE":" ","ALLEY":" ","HOUSE_NO":"７０號之１","E_COORD97":187242.23000000001,"N_COORD97":2557761.3100000001,"ADDRESS":"二重溪７０號之１","OBJECTID":32115},"geometry":{"x":187242.23000000045,"y":2557761.3100000024}},{"attributes":{"ID":32116,"DIS_CODE":0,"TOWNNAME":"大內區","LI":"石湖里","LIN":"8鄰","STREET":" ","SECT":" ","MAREA":"石子瀨","LANE":" ","ALLEY":" ","HOUSE_NO":"３０５號之１０","E_COORD97":183792.79999999999,"N_COORD97":2558666.29,"ADDRESS":"石子瀨３０５號之１０","OBJECTID":32116},"geometry":{"x":183792.79999999981,"y":2558666.2899999991}},{"attributes":{"ID":32117,"DIS_CODE":0,"TOWNNAME":"大內區","LI":"石城里","LIN":"8鄰","STREET":" ","SECT":" ","MAREA":"石子瀨","LANE":" ","ALLEY":" ","HOUSE_NO":"７５號之５","E_COORD97":184103.51000000001,"N_COORD97":2557693.2999999998,"ADDRESS":"石子瀨７５號之５","OBJECTID":32117},"geometry":{"x":184103.50999999978,"y":2557693.3000000026}},{"attributes":{"ID":32118,"DIS_CODE":0,"TOWNNAME":"大內區","LI":"石湖里","LIN":"8鄰","STREET":" ","SECT":" ","MAREA":"石子瀨","LANE":" ","ALLEY":" ","HOUSE_NO":"３１１號","E_COORD97":183910.17000000001,"N_COORD97":2558436.25,"ADDRESS":"石子瀨３１１號","OBJECTID":32118},"geometry":{"x":183910.17000000086,"y":2558436.2500000019}},{"attributes":{"ID":32119,"DIS_CODE":0,"TOWNNAME":"大內區","LI":"石城里","LIN":"8鄰","STREET":" ","SECT":" ","MAREA":"石子瀨","LANE":" ","ALLEY":" ","HOUSE_NO":"７４號之１２","E_COORD97":184207.34,"N_COORD97":2557813.2999999998,"ADDRESS":"石子瀨７４號之１２","OBJECTID":32119},"geometry":{"x":184207.34000000078,"y":2557813.3000000026}},{"attributes":{"ID":32120,"DIS_CODE":0,"TOWNNAME":"大內區","LI":"石城里","LIN":"8鄰","STREET":" ","SECT":" ","MAREA":"石子瀨","LANE":" ","ALLEY":" ","HOUSE_NO":"７２號","E_COORD97":184223.32000000001,"N_COORD97":2557881.25,"ADDRESS":"石子瀨７２號","OBJECTID":32120},"geometry":{"x":184223.32000000123,"y":2557881.25}},{"attributes":{"ID":32121,"DIS_CODE":0,"TOWNNAME":"東區","LI":"富強里","LIN":"8鄰","STREET":"中華東路","SECT":"二段","MAREA":" ","LANE":"９６巷","ALLEY":"２３弄","HOUSE_NO":"８號","E_COORD97":171206.25,"N_COORD97":2542802.46,"ADDRESS":"中華東路二段９６巷２３弄８號","OBJECTID":32121},"geometry":{"x":171206.25,"y":2542802.4600000028}},{"attributes":{"ID":32122,"DIS_CODE":0,"TOWNNAME":"東區","LI":"富強里","LIN":"8鄰","STREET":"中華東路","SECT":"二段","MAREA":" ","LANE":"９６巷","ALLEY":"２３弄","HOUSE_NO":"９號","E_COORD97":171179.26999999999,"N_COORD97":2542780.9900000002,"ADDRESS":"中華東路二段９６巷２３弄９號","OBJECTID":32122},"geometry":{"x":171179.27000000142,"y":2542780.9900000021}},{"attributes":{"ID":32123,"DIS_CODE":0,"TOWNNAME":"東區","LI":"富強里","LIN":"8鄰","STREET":"中華東路","SECT":"二段","MAREA":" ","LANE":"９６巷","ALLEY":"２３弄","HOUSE_NO":"２號","E_COORD97":171218.34,"N_COORD97":2542803.3100000001,"ADDRESS":"中華東路二段９６巷２３弄２號","OBJECTID":32123},"geometry":{"x":171218.34000000078,"y":2542803.3100000024}},{"attributes":{"ID":32124,"DIS_CODE":0,"TOWNNAME":"大內區","LI":"頭社里","LIN":"8鄰","STREET":" ","SECT":" ","MAREA":"頭社","LANE":" ","ALLEY":" ","HOUSE_NO":"８４號之４","E_COORD97":186538.60000000001,"N_COORD97":2560778.2999999998,"ADDRESS":"頭社８４號之４","OBJECTID":32124},"geometry":{"x":186538.59999999963,"y":2560778.3000000045}},{"attributes":{"ID":32125,"DIS_CODE":0,"TOWNNAME":"大內區","LI":"曲溪里","LIN":"8鄰","STREET":" ","SECT":" ","MAREA":"二重溪","LANE":" ","ALLEY":" ","HOUSE_NO":"７２號","E_COORD97":187306.29000000001,"N_COORD97":2557774.3100000001,"ADDRESS":"二重溪７２號","OBJECTID":32125},"geometry":{"x":187306.29000000097,"y":2557774.3100000042}},{"attributes":{"ID":32126,"DIS_CODE":0,"TOWNNAME":"大內區","LI":"石城里","LIN":"8鄰","STREET":" ","SECT":" ","MAREA":"石子瀨","LANE":" ","ALLEY":" ","HOUSE_NO":"７５號之１０","E_COORD97":184073.54999999999,"N_COORD97":2557656.2999999998,"ADDRESS":"石子瀨７５號之１０","OBJECTID":32126},"geometry":{"x":184073.55000000075,"y":2557656.3000000026}},{"attributes":{"ID":32127,"DIS_CODE":0,"TOWNNAME":"東區","LI":"富強里","LIN":"8鄰","STREET":"中華東路","SECT":"二段","MAREA":" ","LANE":"９６巷","ALLEY":"２３弄","HOUSE_NO":"２８號","E_COORD97":171163.63,"N_COORD97":2542802.9500000002,"ADDRESS":"中華東路二段９６巷２３弄２８號","OBJECTID":32127},"geometry":{"x":171163.63000000175,"y":2542802.9499999993}},{"attributes":{"ID":32128,"DIS_CODE":0,"TOWNNAME":"東區","LI":"富強里","LIN":"8鄰","STREET":"中華東路","SECT":"二段","MAREA":" ","LANE":"９６巷","ALLEY":"２３弄","HOUSE_NO":"２６號","E_COORD97":171168.51999999999,"N_COORD97":2542803.5600000001,"ADDRESS":"中華東路二段９６巷２３弄２６號","OBJECTID":32128},"geometry":{"x":171168.51999999955,"y":2542803.5600000005}},{"attributes":{"ID":32129,"DIS_CODE":0,"TOWNNAME":"仁德區","LI":"太子里","LIN":"8鄰","STREET":"太子路","SECT":" ","MAREA":" ","LANE":"１７２巷","ALLEY":"３弄","HOUSE_NO":"４號","E_COORD97":174356.20999999999,"N_COORD97":2543578.75,"ADDRESS":"太子路１７２巷３弄４號","OBJECTID":32129},"geometry":{"x":174356.20999999996,"y":2543578.7500000019}},{"attributes":{"ID":32130,"DIS_CODE":0,"TOWNNAME":"仁德區","LI":"田厝里","LIN":"8鄰","STREET":"田厝二街","SECT":" ","MAREA":" ","LANE":"２８巷","ALLEY":"３２弄","HOUSE_NO":"２號","E_COORD97":172462.35999999999,"N_COORD97":2537643.75,"ADDRESS":"田厝二街２８巷３２弄２號","OBJECTID":32130},"geometry":{"x":172462.36000000034,"y":2537643.75}},{"attributes":{"ID":32131,"DIS_CODE":0,"TOWNNAME":"仁德區","LI":"田厝里","LIN":"8鄰","STREET":"田厝二街","SECT":" ","MAREA":" ","LANE":"２８巷","ALLEY":"３２弄","HOUSE_NO":"６號","E_COORD97":172455.26999999999,"N_COORD97":2537672.2400000002,"ADDRESS":"田厝二街２８巷３２弄６號","OBJECTID":32131},"geometry":{"x":172455.26999999955,"y":2537672.2400000002}},{"attributes":{"ID":32132,"DIS_CODE":0,"TOWNNAME":"仁德區","LI":"田厝里","LIN":"8鄰","STREET":"田厝二街","SECT":" ","MAREA":" ","LANE":"２８巷","ALLEY":"３２弄","HOUSE_NO":"１號","E_COORD97":172448.85999999999,"N_COORD97":2537654.9900000002,"ADDRESS":"田厝二街２８巷３２弄１號","OBJECTID":32132},"geometry":{"x":172448.86000000034,"y":2537654.9900000021}},{"attributes":{"ID":32133,"DIS_CODE":0,"TOWNNAME":"安平區","LI":"怡平里","LIN":"14鄰","STREET":"建平十二街","SECT":" ","MAREA":" ","LANE":"３９６巷","ALLEY":" ","HOUSE_NO":"７號","E_COORD97":165554.28,"N_COORD97":2544077.3300000001,"ADDRESS":"建平十二街３９６巷７號","OBJECTID":32133},"geometry":{"x":165554.28000000119,"y":2544077.3300000019}},{"attributes":{"ID":32134,"DIS_CODE":0,"TOWNNAME":"安平區","LI":"建平里","LIN":"14鄰","STREET":"建平十三街","SECT":" ","MAREA":" ","LANE":" ","ALLEY":" ","HOUSE_NO":"７８號","E_COORD97":166106.48999999999,"N_COORD97":2544031.9300000002,"ADDRESS":"建平十三街７８號","OBJECTID":32134},"geometry":{"x":166106.49000000209,"y":2544031.9300000016}},{"attributes":{"ID":32135,"DIS_CODE":0,"TOWNNAME":"仁德區","LI":"保安里","LIN":"8鄰","STREET":"文賢路","SECT":"一段","MAREA":" ","LANE":"７６３巷","ALLEY":"１８弄","HOUSE_NO":"８號之１","E_COORD97":171580.692947,"N_COORD97":2536124.0407099999,"ADDRESS":"文賢路一段７６３巷１８弄８號之１","OBJECTID":32135},"geometry":{"x":171580.69294700027,"y":2536124.0407070033}},{"attributes":{"ID":32136,"DIS_CODE":0,"TOWNNAME":"新營區","LI":"鐵線里","LIN":"14鄰","STREET":" ","SECT":" ","MAREA":"秀才","LANE":" ","ALLEY":" ","HOUSE_NO":"１２號","E_COORD97":174843.98999999999,"N_COORD97":2573808.21,"ADDRESS":"秀才１２號","OBJECTID":32136},"geometry":{"x":174843.99000000115,"y":2573808.2100000046}},{"attributes":{"ID":32137,"DIS_CODE":0,"TOWNNAME":"仁德區","LI":"保安里","LIN":"8鄰","STREET":"文賢路","SECT":"一段","MAREA":" ","LANE":"７６３巷","ALLEY":"１８弄","HOUSE_NO":"１號","E_COORD97":171609.42999999999,"N_COORD97":2536139.3199999998,"ADDRESS":"文賢路一段７６３巷１８弄１號","OBJECTID":32137},"geometry":{"x":171609.43000000063,"y":2536139.3200000003}},{"attributes":{"ID":32138,"DIS_CODE":0,"TOWNNAME":"新營區","LI":"五興里","LIN":"14鄰","STREET":" ","SECT":" ","MAREA":"五間厝","LANE":" ","ALLEY":" ","HOUSE_NO":"１５４號","E_COORD97":175353.26999999999,"N_COORD97":2574319.5099999998,"ADDRESS":"五間厝１５４號","OBJECTID":32138},"geometry":{"x":175353.27000000048,"y":2574319.5099999998}},{"attributes":{"ID":32139,"DIS_CODE":0,"TOWNNAME":"新營區","LI":"五興里","LIN":"14鄰","STREET":" ","SECT":" ","MAREA":"五間厝","LANE":" ","ALLEY":" ","HOUSE_NO":"１４７號","E_COORD97":175394.10000000001,"N_COORD97":2574298.2599999998,"ADDRESS":"五間厝１４７號","OBJECTID":32139},"geometry":{"x":175394.09999999963,"y":2574298.2600000035}},{"attributes":{"ID":32140,"DIS_CODE":0,"TOWNNAME":"將軍區","LI":"嘉昌里","LIN":"7鄰","STREET":" ","SECT":" ","MAREA":"北嘉","LANE":" ","ALLEY":" ","HOUSE_NO":"５６號","E_COORD97":163426.87,"N_COORD97":2567929.8399999999,"ADDRESS":"北嘉５６號","OBJECTID":32140},"geometry":{"x":163426.87000000011,"y":2567929.8399999999}},{"attributes":{"ID":32141,"DIS_CODE":0,"TOWNNAME":"新營區","LI":"五興里","LIN":"14鄰","STREET":" ","SECT":" ","MAREA":"五間厝","LANE":" ","ALLEY":" ","HOUSE_NO":"１５１之６號","E_COORD97":175417.64999999999,"N_COORD97":2574416.71,"ADDRESS":"五間厝１５１之６號","OBJECTID":32141},"geometry":{"x":175417.6500000013,"y":2574416.7100000028}},{"attributes":{"ID":32142,"DIS_CODE":0,"TOWNNAME":"大內區","LI":"石城里","LIN":"8鄰","STREET":" ","SECT":" ","MAREA":"石子瀨","LANE":" ","ALLEY":" ","HOUSE_NO":"７７號之８","E_COORD97":184062.89999999999,"N_COORD97":2557751.2999999998,"ADDRESS":"石子瀨７７號之８","OBJECTID":32142},"geometry":{"x":184062.9000000013,"y":2557751.3000000026}},{"attributes":{"ID":32143,"DIS_CODE":0,"TOWNNAME":"大內區","LI":"石城里","LIN":"8鄰","STREET":" ","SECT":" ","MAREA":"石子瀨","LANE":" ","ALLEY":" ","HOUSE_NO":"７３號之１３","E_COORD97":184233.60000000001,"N_COORD97":2557825.2999999998,"ADDRESS":"石子瀨７３號之１３","OBJECTID":32143},"geometry":{"x":184233.60000000149,"y":2557825.3000000045}},{"attributes":{"ID":32144,"DIS_CODE":0,"TOWNNAME":"大內區","LI":"石城里","LIN":"8鄰","STREET":" ","SECT":" ","MAREA":"石子瀨","LANE":" ","ALLEY":" ","HOUSE_NO":"７７號之１１","E_COORD97":184022.17778999999,"N_COORD97":2557744.7906800001,"ADDRESS":"石子瀨７７號之１１","OBJECTID":32144},"geometry":{"x":184022.1777900001,"y":2557744.7906759996}},{"attributes":{"ID":32145,"DIS_CODE":0,"TOWNNAME":"仁德區","LI":"新田里","LIN":"8鄰","STREET":"北保路","SECT":" ","MAREA":" ","LANE":"１８３巷","ALLEY":"２弄","HOUSE_NO":"１號","E_COORD97":173536.53,"N_COORD97":2539452.2400000002,"ADDRESS":"北保路１８３巷２弄１號","OBJECTID":32145},"geometry":{"x":173536.53000000119,"y":2539452.2400000002}},{"attributes":{"ID":32146,"DIS_CODE":0,"TOWNNAME":"仁德區","LI":"新田里","LIN":"8鄰","STREET":"北保路","SECT":" ","MAREA":" ","LANE":"１８３巷","ALLEY":"１弄","HOUSE_NO":"１２號","E_COORD97":173473.64000000001,"N_COORD97":2539481,"ADDRESS":"北保路１８３巷１弄１２號","OBJECTID":32146},"geometry":{"x":173473.63999999966,"y":2539480.9999999981}},{"attributes":{"ID":32147,"DIS_CODE":0,"TOWNNAME":"大內區","LI":"曲溪里","LIN":"8鄰","STREET":" ","SECT":" ","MAREA":"二重溪","LANE":" ","ALLEY":" ","HOUSE_NO":"６９號","E_COORD97":187249.69,"N_COORD97":2557686.3100000001,"ADDRESS":"二重溪６９號","OBJECTID":32147},"geometry":{"x":187249.69000000134,"y":2557686.3100000024}},{"attributes":{"ID":32148,"DIS_CODE":0,"TOWNNAME":"新營區","LI":"南紙里","LIN":"14鄰","STREET":"南紙街","SECT":" ","MAREA":" ","LANE":" ","ALLEY":" ","HOUSE_NO":"１１６號","E_COORD97":177794.41,"N_COORD97":2577444.8399999999,"ADDRESS":"南紙街１１６號","OBJECTID":32148},"geometry":{"x":177794.41000000108,"y":2577444.8400000017}},{"attributes":{"ID":32149,"DIS_CODE":0,"TOWNNAME":"大內區","LI":"石城里","LIN":"8鄰","STREET":" ","SECT":" ","MAREA":"石子瀨","LANE":" ","ALLEY":" ","HOUSE_NO":"７４號之１０","E_COORD97":184235.45000000001,"N_COORD97":2557768.2999999998,"ADDRESS":"石子瀨７４號之１０","OBJECTID":32149},"geometry":{"x":184235.45000000112,"y":2557768.3000000026}},{"attributes":{"ID":32150,"DIS_CODE":0,"TOWNNAME":"麻豆區","LI":"油車里","LIN":"8鄰","STREET":" ","SECT":" ","MAREA":"油車","LANE":" ","ALLEY":" ","HOUSE_NO":"３１號","E_COORD97":172612.70000000001,"N_COORD97":2565470.96,"ADDRESS":"油車３１號","OBJECTID":32150},"geometry":{"x":172612.70000000019,"y":2565470.9600000028}},{"attributes":{"ID":32151,"DIS_CODE":0,"TOWNNAME":"新營區","LI":"三仙里","LIN":"14鄰","STREET":"中華路","SECT":" ","MAREA":" ","LANE":" ","ALLEY":" ","HOUSE_NO":"６４號之１","E_COORD97":179543.98999999999,"N_COORD97":2578195.0800000001,"ADDRESS":"中華路６４號之１","OBJECTID":32151},"geometry":{"x":179543.99000000022,"y":2578195.0800000001}},{"attributes":{"ID":32152,"DIS_CODE":0,"TOWNNAME":"大內區","LI":"環湖里","LIN":"8鄰","STREET":" ","SECT":" ","MAREA":"環湖","LANE":" ","ALLEY":" ","HOUSE_NO":"１０８號","E_COORD97":190338.19,"N_COORD97":2560701.25,"ADDRESS":"環湖１０８號","OBJECTID":32152},"geometry":{"x":190338.19000000227,"y":2560701.2500000019}},{"attributes":{"ID":32153,"DIS_CODE":0,"TOWNNAME":"大內區","LI":"環湖里","LIN":"8鄰","STREET":" ","SECT":" ","MAREA":"環湖","LANE":" ","ALLEY":" ","HOUSE_NO":"１０４號","E_COORD97":190397.39000000001,"N_COORD97":2560719.25,"ADDRESS":"環湖１０４號","OBJECTID":32153},"geometry":{"x":190397.3900000006,"y":2560719.25}},{"attributes":{"ID":32154,"DIS_CODE":0,"TOWNNAME":"大內區","LI":"石城里","LIN":"8鄰","STREET":" ","SECT":" ","MAREA":"石子瀨","LANE":" ","ALLEY":" ","HOUSE_NO":"７７號之４","E_COORD97":184131.17999999999,"N_COORD97":2557768.2999999998,"ADDRESS":"石子瀨７７號之４","OBJECTID":32154},"geometry":{"x":184131.17999999877,"y":2557768.3000000026}},{"attributes":{"ID":32155,"DIS_CODE":0,"TOWNNAME":"大內區","LI":"石城里","LIN":"8鄰","STREET":" ","SECT":" ","MAREA":"石子瀨","LANE":" ","ALLEY":" ","HOUSE_NO":"７３號之１２","E_COORD97":184246.84,"N_COORD97":2557839.2999999998,"ADDRESS":"石子瀨７３號之１２","OBJECTID":32155},"geometry":{"x":184246.83999999985,"y":2557839.3000000026}},{"attributes":{"ID":32156,"DIS_CODE":0,"TOWNNAME":"大內區","LI":"曲溪里","LIN":"8鄰","STREET":" ","SECT":" ","MAREA":"二重溪","LANE":" ","ALLEY":" ","HOUSE_NO":"７７號","E_COORD97":187295.09,"N_COORD97":2557705.3100000001,"ADDRESS":"二重溪７７號","OBJECTID":32156},"geometry":{"x":187295.08999999985,"y":2557705.3100000005}},{"attributes":{"ID":32157,"DIS_CODE":0,"TOWNNAME":"大內區","LI":"曲溪里","LIN":"8鄰","STREET":" ","SECT":" ","MAREA":"二重溪","LANE":" ","ALLEY":" ","HOUSE_NO":"７８號之１","E_COORD97":187280.42999999999,"N_COORD97":2557684.3100000001,"ADDRESS":"二重溪７８號之１","OBJECTID":32157},"geometry":{"x":187280.4299999997,"y":2557684.3100000005}},{"attributes":{"ID":32158,"DIS_CODE":0,"TOWNNAME":"大內區","LI":"曲溪里","LIN":"8鄰","STREET":" ","SECT":" ","MAREA":"二重溪","LANE":" ","ALLEY":" ","HOUSE_NO":"７２號之５","E_COORD97":187308.78,"N_COORD97":2557794.3100000001,"ADDRESS":"二重溪７２號之５","OBJECTID":32158},"geometry":{"x":187308.78000000119,"y":2557794.3100000042}},{"attributes":{"ID":32159,"DIS_CODE":0,"TOWNNAME":"大內區","LI":"曲溪里","LIN":"8鄰","STREET":" ","SECT":" ","MAREA":"二重溪","LANE":" ","ALLEY":" ","HOUSE_NO":"６９號之１０","E_COORD97":187233.03,"N_COORD97":2557705.3100000001,"ADDRESS":"二重溪６９號之１０","OBJECTID":32159},"geometry":{"x":187233.03000000026,"y":2557705.3100000005}},{"attributes":{"ID":32160,"DIS_CODE":0,"TOWNNAME":"大內區","LI":"頭社里","LIN":"8鄰","STREET":" ","SECT":" ","MAREA":"頭社","LANE":" ","ALLEY":" ","HOUSE_NO":"１０７號","E_COORD97":186499.79000000001,"N_COORD97":2561099.25,"ADDRESS":"頭社１０７號","OBJECTID":32160},"geometry":{"x":186499.79000000097,"y":2561099.25}},{"attributes":{"ID":32161,"DIS_CODE":0,"TOWNNAME":"大內區","LI":"石城里","LIN":"8鄰","STREET":" ","SECT":" ","MAREA":"石子瀨","LANE":" ","ALLEY":" ","HOUSE_NO":"６９號","E_COORD97":184238.92000000001,"N_COORD97":2557919.25,"ADDRESS":"石子瀨６９號","OBJECTID":32161},"geometry":{"x":184238.92000000086,"y":2557919.25}},{"attributes":{"ID":32162,"DIS_CODE":0,"TOWNNAME":"大內區","LI":"石林里","LIN":"8鄰","STREET":" ","SECT":" ","MAREA":"石子瀨","LANE":" ","ALLEY":" ","HOUSE_NO":"１９８號","E_COORD97":183976.67000000001,"N_COORD97":2558208.25,"ADDRESS":"石子瀨１９８號","OBJECTID":32162},"geometry":{"x":183976.66999999993,"y":2558208.2500000019}},{"attributes":{"ID":32163,"DIS_CODE":0,"TOWNNAME":"大內區","LI":"曲溪里","LIN":"8鄰","STREET":" ","SECT":" ","MAREA":"二重溪","LANE":" ","ALLEY":" ","HOUSE_NO":"６９號之２","E_COORD97":187276.95999999999,"N_COORD97":2557745.3100000001,"ADDRESS":"二重溪６９號之２","OBJECTID":32163},"geometry":{"x":187276.95999999996,"y":2557745.3100000005}},{"attributes":{"ID":32164,"DIS_CODE":0,"TOWNNAME":"大內區","LI":"頭社里","LIN":"8鄰","STREET":" ","SECT":" ","MAREA":"頭社","LANE":" ","ALLEY":" ","HOUSE_NO":"１０８號","E_COORD97":186499.39000000001,"N_COORD97":2561129.25,"ADDRESS":"頭社１０８號","OBJECTID":32164},"geometry":{"x":186499.38999999966,"y":2561129.25}},{"attributes":{"ID":32165,"DIS_CODE":0,"TOWNNAME":"大內區","LI":"環湖里","LIN":"8鄰","STREET":" ","SECT":" ","MAREA":"環湖","LANE":" ","ALLEY":" ","HOUSE_NO":"１００號","E_COORD97":190437.39000000001,"N_COORD97":2560681.25,"ADDRESS":"環湖１００號","OBJECTID":32165},"geometry":{"x":190437.38999999966,"y":2560681.25}},{"attributes":{"ID":32166,"DIS_CODE":0,"TOWNNAME":"大內區","LI":"石湖里","LIN":"8鄰","STREET":" ","SECT":" ","MAREA":"石子瀨","LANE":" ","ALLEY":" ","HOUSE_NO":"３００之６號","E_COORD97":183907.57000000001,"N_COORD97":2558679.2999999998,"ADDRESS":"石子瀨３００之６號","OBJECTID":32166},"geometry":{"x":183907.57000000123,"y":2558679.3000000007}},{"attributes":{"ID":32167,"DIS_CODE":0,"TOWNNAME":"新營區","LI":"中營里","LIN":"14鄰","STREET":"東山路","SECT":" ","MAREA":" ","LANE":" ","ALLEY":" ","HOUSE_NO":"１２１號","E_COORD97":181526.82000000001,"N_COORD97":2578715.0800000001,"ADDRESS":"東山路１２１號","OBJECTID":32167},"geometry":{"x":181526.8200000003,"y":2578715.0800000019}},{"attributes":{"ID":32168,"DIS_CODE":0,"TOWNNAME":"新營區","LI":"中營里","LIN":"14鄰","STREET":"東昇街","SECT":" ","MAREA":" ","LANE":" ","ALLEY":" ","HOUSE_NO":"１８１號","E_COORD97":181943.59,"N_COORD97":2579040.98,"ADDRESS":"東昇街１８１號","OBJECTID":32168},"geometry":{"x":181943.59000000171,"y":2579040.9800000023}},{"attributes":{"ID":32169,"DIS_CODE":0,"TOWNNAME":"大內區","LI":"環湖里","LIN":"8鄰","STREET":" ","SECT":" ","MAREA":"環湖","LANE":" ","ALLEY":" ","HOUSE_NO":"１０８號之１","E_COORD97":190322.03,"N_COORD97":2560707.2999999998,"ADDRESS":"環湖１０８號之１","OBJECTID":32169},"geometry":{"x":190322.03000000212,"y":2560707.3000000045}},{"attributes":{"ID":32170,"DIS_CODE":0,"TOWNNAME":"大內區","LI":"曲溪里","LIN":"8鄰","STREET":" ","SECT":" ","MAREA":"二重溪","LANE":" ","ALLEY":" ","HOUSE_NO":"６９號之１","E_COORD97":187285.63,"N_COORD97":2557729.3100000001,"ADDRESS":"二重溪６９號之１","OBJECTID":32170},"geometry":{"x":187285.63000000082,"y":2557729.3100000005}},{"attributes":{"ID":32171,"DIS_CODE":0,"TOWNNAME":"大內區","LI":"石林里","LIN":"8鄰","STREET":" ","SECT":" ","MAREA":"石子瀨","LANE":" ","ALLEY":" ","HOUSE_NO":"１９４號","E_COORD97":183970.97,"N_COORD97":2558219.25,"ADDRESS":"石子瀨１９４號","OBJECTID":32171},"geometry":{"x":183970.96999999974,"y":2558219.2500000019}},{"attributes":{"ID":32172,"DIS_CODE":0,"TOWNNAME":"大內區","LI":"曲溪里","LIN":"8鄰","STREET":" ","SECT":" ","MAREA":"二重溪","LANE":" ","ALLEY":" ","HOUSE_NO":"７９號","E_COORD97":187270.89000000001,"N_COORD97":2557671.3100000001,"ADDRESS":"二重溪７９號","OBJECTID":32172},"geometry":{"x":187270.88999999873,"y":2557671.3100000005}},{"attributes":{"ID":32173,"DIS_CODE":0,"TOWNNAME":"大內區","LI":"環湖里","LIN":"8鄰","STREET":" ","SECT":" ","MAREA":"環湖","LANE":" ","ALLEY":" ","HOUSE_NO":"１０７號之１","E_COORD97":190359.03,"N_COORD97":2560725.2999999998,"ADDRESS":"環湖１０７號之１","OBJECTID":32173},"geometry":{"x":190359.03000000026,"y":2560725.3000000026}},{"attributes":{"ID":32174,"DIS_CODE":0,"TOWNNAME":"大內區","LI":"環湖里","LIN":"8鄰","STREET":" ","SECT":" ","MAREA":"環湖","LANE":" ","ALLEY":" ","HOUSE_NO":"１１１號之１","E_COORD97":190316.03,"N_COORD97":2560672.2999999998,"ADDRESS":"環湖１１１號之１","OBJECTID":32174},"geometry":{"x":190316.03000000119,"y":2560672.3000000007}},{"attributes":{"ID":32175,"DIS_CODE":0,"TOWNNAME":"仁德區","LI":"新田里","LIN":"8鄰","STREET":"北保路","SECT":" ","MAREA":" ","LANE":"１８３巷","ALLEY":"１弄","HOUSE_NO":"６號","E_COORD97":173492.29000000001,"N_COORD97":2539470.75,"ADDRESS":"北保路１８３巷１弄６號","OBJECTID":32175},"geometry":{"x":173492.29000000097,"y":2539470.7500000019}},{"attributes":{"ID":32176,"DIS_CODE":0,"TOWNNAME":"仁德區","LI":"新田里","LIN":"8鄰","STREET":"北保路","SECT":" ","MAREA":" ","LANE":"１８３巷","ALLEY":"１弄","HOUSE_NO":"２號","E_COORD97":173504.20000000001,"N_COORD97":2539464.2400000002,"ADDRESS":"北保路１８３巷１弄２號","OBJECTID":32176},"geometry":{"x":173504.20000000019,"y":2539464.2400000021}},{"attributes":{"ID":32177,"DIS_CODE":0,"TOWNNAME":"永康區","LI":"王行里","LIN":"8鄰","STREET":"王行路","SECT":" ","MAREA":" ","LANE":"３５１巷","ALLEY":"５５弄","HOUSE_NO":"１３號","E_COORD97":175284.95999999999,"N_COORD97":2548554.4900000002,"ADDRESS":"王行路３５１巷５５弄１３號","OBJECTID":32177},"geometry":{"x":175284.96000000089,"y":2548554.4900000021}},{"attributes":{"ID":32178,"DIS_CODE":0,"TOWNNAME":"永康區","LI":"王行里","LIN":"8鄰","STREET":"王行路","SECT":" ","MAREA":" ","LANE":"３５１巷","ALLEY":"５５弄","HOUSE_NO":"７號","E_COORD97":175309.85000000001,"N_COORD97":2548554.7400000002,"ADDRESS":"王行路３５１巷５５弄７號","OBJECTID":32178},"geometry":{"x":175309.84999999963,"y":2548554.7400000002}},{"attributes":{"ID":32179,"DIS_CODE":0,"TOWNNAME":"新市區","LI":"新市里","LIN":"8鄰","STREET":"民生路","SECT":" ","MAREA":" ","LANE":"２巷","ALLEY":"１２弄","HOUSE_NO":"１號","E_COORD97":177417.35000000001,"N_COORD97":2553164.1000000001,"ADDRESS":"民生路２巷１２弄１號","OBJECTID":32179},"geometry":{"x":177417.35000000056,"y":2553164.1000000015}},{"attributes":{"ID":32180,"DIS_CODE":0,"TOWNNAME":"南區","LI":"新興里","LIN":"14鄰","STREET":"夏林路","SECT":" ","MAREA":" ","LANE":" ","ALLEY":" ","HOUSE_NO":"１６４號","E_COORD97":167440.16,"N_COORD97":2542373.8700000001,"ADDRESS":"夏林路１６４號","OBJECTID":32180},"geometry":{"x":167440.16000000108,"y":2542373.870000001}},{"attributes":{"ID":32181,"DIS_CODE":0,"TOWNNAME":"大內區","LI":"石城里","LIN":"8鄰","STREET":" ","SECT":" ","MAREA":"石子瀨","LANE":" ","ALLEY":" ","HOUSE_NO":"７７號之６","E_COORD97":184109.76000000001,"N_COORD97":2557808.2999999998,"ADDRESS":"石子瀨７７號之６","OBJECTID":32181},"geometry":{"x":184109.75999999978,"y":2557808.3000000045}},{"attributes":{"ID":32182,"DIS_CODE":0,"TOWNNAME":"大內區","LI":"環湖里","LIN":"8鄰","STREET":" ","SECT":" ","MAREA":"環湖","LANE":" ","ALLEY":" ","HOUSE_NO":"１０７號","E_COORD97":190384.79000000001,"N_COORD97":2560711.25,"ADDRESS":"環湖１０７號","OBJECTID":32182},"geometry":{"x":190384.79000000097,"y":2560711.2500000019}},{"attributes":{"ID":32183,"DIS_CODE":0,"TOWNNAME":"大內區","LI":"環湖里","LIN":"8鄰","STREET":" ","SECT":" ","MAREA":"環湖","LANE":" ","ALLEY":" ","HOUSE_NO":"１０３號","E_COORD97":190413.48999999999,"N_COORD97":2560709.25,"ADDRESS":"環湖１０３號","OBJECTID":32183},"geometry":{"x":190413.49000000022,"y":2560709.25}},{"attributes":{"ID":32184,"DIS_CODE":0,"TOWNNAME":"大內區","LI":"石城里","LIN":"8鄰","STREET":" ","SECT":" ","MAREA":"石子瀨","LANE":" ","ALLEY":" ","HOUSE_NO":"７４號之３","E_COORD97":184283.95000000001,"N_COORD97":2557763.2999999998,"ADDRESS":"石子瀨７４號之３","OBJECTID":32184},"geometry":{"x":184283.95000000019,"y":2557763.3000000007}},{"attributes":{"ID":32185,"DIS_CODE":0,"TOWNNAME":"大內區","LI":"環湖里","LIN":"8鄰","STREET":" ","SECT":" ","MAREA":"環湖","LANE":" ","ALLEY":" ","HOUSE_NO":"１０７之２號","E_COORD97":190351.98999999999,"N_COORD97":2560722.2999999998,"ADDRESS":"環湖１０７之２號","OBJECTID":32185},"geometry":{"x":190351.99000000022,"y":2560722.3000000026}},{"attributes":{"ID":32186,"DIS_CODE":0,"TOWNNAME":"大內區","LI":"石城里","LIN":"8鄰","STREET":" ","SECT":" ","MAREA":"石子瀨","LANE":" ","ALLEY":" ","HOUSE_NO":"７４號之８","E_COORD97":184257.29999999999,"N_COORD97":2557744.2999999998,"ADDRESS":"石子瀨７４號之８","OBJECTID":32186},"geometry":{"x":184257.29999999981,"y":2557744.3000000026}},{"attributes":{"ID":32187,"DIS_CODE":0,"TOWNNAME":"大內區","LI":"環湖里","LIN":"8鄰","STREET":" ","SECT":" ","MAREA":"環湖","LANE":" ","ALLEY":" ","HOUSE_NO":"１１１號之２","E_COORD97":190270.85999999999,"N_COORD97":2560710.2999999998,"ADDRESS":"環湖１１１號之２","OBJECTID":32187},"geometry":{"x":190270.86000000127,"y":2560710.2999999989}},{"attributes":{"ID":32188,"DIS_CODE":0,"TOWNNAME":"大內區","LI":"曲溪里","LIN":"8鄰","STREET":" ","SECT":" ","MAREA":"二重溪","LANE":" ","ALLEY":" ","HOUSE_NO":"７２號之２","E_COORD97":187338.56,"N_COORD97":2557802.3100000001,"ADDRESS":"二重溪７２號之２","OBJECTID":32188},"geometry":{"x":187338.55999999959,"y":2557802.3100000024}},{"attributes":{"ID":32189,"DIS_CODE":0,"TOWNNAME":"大內區","LI":"環湖里","LIN":"8鄰","STREET":" ","SECT":" ","MAREA":"環湖","LANE":" ","ALLEY":" ","HOUSE_NO":"１０７號之３","E_COORD97":190370.01999999999,"N_COORD97":2560725.2999999998,"ADDRESS":"環湖１０７號之３","OBJECTID":32189},"geometry":{"x":190370.01999999955,"y":2560725.3000000026}},{"attributes":{"ID":32190,"DIS_CODE":0,"TOWNNAME":"大內區","LI":"曲溪里","LIN":"8鄰","STREET":" ","SECT":" ","MAREA":"二重溪","LANE":" ","ALLEY":" ","HOUSE_NO":"６９號之６","E_COORD97":187272.03,"N_COORD97":2557710.3100000001,"ADDRESS":"二重溪６９號之６","OBJECTID":32190},"geometry":{"x":187272.03000000026,"y":2557710.3100000024}},{"attributes":{"ID":32191,"DIS_CODE":0,"TOWNNAME":"大內區","LI":"曲溪里","LIN":"8鄰","STREET":" ","SECT":" ","MAREA":"二重溪","LANE":" ","ALLEY":" ","HOUSE_NO":"７１號","E_COORD97":187285.79000000001,"N_COORD97":2557768.3100000001,"ADDRESS":"二重溪７１號","OBJECTID":32191},"geometry":{"x":187285.79000000097,"y":2557768.3100000024}},{"attributes":{"ID":32192,"DIS_CODE":0,"TOWNNAME":"大內區","LI":"曲溪里","LIN":"8鄰","STREET":" ","SECT":" ","MAREA":"二重溪","LANE":" ","ALLEY":" ","HOUSE_NO":"７８號","E_COORD97":187282.39000000001,"N_COORD97":2557688.3100000001,"ADDRESS":"二重溪７８號","OBJECTID":32192},"geometry":{"x":187282.38999999966,"y":2557688.3100000005}},{"attributes":{"ID":32193,"DIS_CODE":0,"TOWNNAME":"大內區","LI":"曲溪里","LIN":"8鄰","STREET":" ","SECT":" ","MAREA":"二重溪","LANE":" ","ALLEY":" ","HOUSE_NO":"６９號之７","E_COORD97":187271,"N_COORD97":2557704.3100000001,"ADDRESS":"二重溪６９號之７","OBJECTID":32193},"geometry":{"x":187271.00000000093,"y":2557704.3100000024}},{"attributes":{"ID":32194,"DIS_CODE":0,"TOWNNAME":"大內區","LI":"曲溪里","LIN":"8鄰","STREET":" ","SECT":" ","MAREA":"二重溪","LANE":" ","ALLEY":" ","HOUSE_NO":"７９號之１","E_COORD97":187284.73000000001,"N_COORD97":2557661.3100000001,"ADDRESS":"二重溪７９號之１","OBJECTID":32194},"geometry":{"x":187284.73000000231,"y":2557661.3100000005}},{"attributes":{"ID":32195,"DIS_CODE":0,"TOWNNAME":"大內區","LI":"石湖里","LIN":"8鄰","STREET":" ","SECT":" ","MAREA":"石子瀨","LANE":" ","ALLEY":" ","HOUSE_NO":"３０５號之２","E_COORD97":183693.23999999999,"N_COORD97":2558477.2999999998,"ADDRESS":"石子瀨３０５號之２","OBJECTID":32195},"geometry":{"x":183693.24000000022,"y":2558477.3000000026}},{"attributes":{"ID":32196,"DIS_CODE":0,"TOWNNAME":"大內區","LI":"環湖里","LIN":"8鄰","STREET":" ","SECT":" ","MAREA":"環湖","LANE":" ","ALLEY":" ","HOUSE_NO":"１０５號","E_COORD97":190378.19,"N_COORD97":2560728.25,"ADDRESS":"環湖１０５號","OBJECTID":32196},"geometry":{"x":190378.19000000041,"y":2560728.2500000019}},{"attributes":{"ID":32197,"DIS_CODE":0,"TOWNNAME":"大內區","LI":"內郭里","LIN":"8鄰","STREET":" ","SECT":" ","MAREA":"後堀","LANE":" ","ALLEY":" ","HOUSE_NO":"２４號","E_COORD97":185712.95999999999,"N_COORD97":2557434.3199999998,"ADDRESS":"後堀２４號","OBJECTID":32197},"geometry":{"x":185712.96000000183,"y":2557434.3200000003}},{"attributes":{"ID":32198,"DIS_CODE":0,"TOWNNAME":"大內區","LI":"石湖里","LIN":"8鄰","STREET":" ","SECT":" ","MAREA":"石子瀨","LANE":" ","ALLEY":" ","HOUSE_NO":"３０９號","E_COORD97":183875.67000000001,"N_COORD97":2558431.25,"ADDRESS":"石子瀨３０９號","OBJECTID":32198},"geometry":{"x":183875.67000000179,"y":2558431.25}},{"attributes":{"ID":32199,"DIS_CODE":0,"TOWNNAME":"大內區","LI":"內江里","LIN":"8鄰","STREET":" ","SECT":" ","MAREA":"內庄","LANE":" ","ALLEY":" ","HOUSE_NO":"２９８號","E_COORD97":184568.38,"N_COORD97":2557309.25,"ADDRESS":"內庄２９８號","OBJECTID":32199},"geometry":{"x":184568.37999999989,"y":2557309.2499999981}},{"attributes":{"ID":32200,"DIS_CODE":0,"TOWNNAME":"大內區","LI":"石湖里","LIN":"8鄰","STREET":" ","SECT":" ","MAREA":"石子瀨","LANE":" ","ALLEY":" ","HOUSE_NO":"３０６之５號","E_COORD97":183757.47,"N_COORD97":2558398.2999999998,"ADDRESS":"石子瀨３０６之５號","OBJECTID":32200},"geometry":{"x":183757.46999999974,"y":2558398.3000000045}}]}