{"displayFieldName":"TOWNNAME","fieldAliases":{"ID":"ID","DIS_CODE":"DIS_CODE","TOWNNAME":"TOWNNAME","LI":"LI","LIN":"LIN","STREET":"STREET","SECT":"SECT","MAREA":"MAREA","LANE":"LANE","ALLEY":"ALLEY","HOUSE_NO":"HOUSE_NO","E_COORD97":"E_COORD97","N_COORD97":"N_COORD97","ADDRESS":"ADDRESS","OBJECTID":"OBJECTID"},"geometryType":"esriGeometryPoint","spatialReference":{"wkid":102443,"latestWkid":3826},"fields":[{"name":"ID","type":"esriFieldTypeDouble","alias":"ID"},{"name":"DIS_CODE","type":"esriFieldTypeInteger","alias":"DIS_CODE"},{"name":"TOWNNAME","type":"esriFieldTypeString","alias":"TOWNNAME","length":8},{"name":"LI","type":"esriFieldTypeString","alias":"LI","length":8},{"name":"LIN","type":"esriFieldTypeString","alias":"LIN","length":12},{"name":"STREET","type":"esriFieldTypeString","alias":"STREET","length":20},{"name":"SECT","type":"esriFieldTypeString","alias":"SECT","length":8},{"name":"MAREA","type":"esriFieldTypeString","alias":"MAREA","length":12},{"name":"LANE","type":"esriFieldTypeString","alias":"LANE","length":10},{"name":"ALLEY","type":"esriFieldTypeString","alias":"ALLEY","length":10},{"name":"HOUSE_NO","type":"esriFieldTypeString","alias":"HOUSE_NO","length":20},{"name":"E_COORD97","type":"esriFieldTypeDouble","alias":"E_COORD97"},{"name":"N_COORD97","type":"esriFieldTypeDouble","alias":"N_COORD97"},{"name":"ADDRESS","type":"esriFieldTypeString","alias":"ADDRESS","length":50},{"name":"OBJECTID","type":"esriFieldTypeOID","alias":"OBJECTID"}],"features":[{"attributes":{"ID":211202,"DIS_CODE":0,"TOWNNAME":"新市區","LI":"潭頂里","LIN":"2鄰","STREET":" ","SECT":" ","MAREA":"潭頂","LANE":" ","ALLEY":" ","HOUSE_NO":"９９之１９號","E_COORD97":182643.12,"N_COORD97":2554279.7999999998,"ADDRESS":"潭頂９９之１９號","OBJECTID":211201},"geometry":{"x":182643.12000000011,"y":2554279.8000000026}},{"attributes":{"ID":211203,"DIS_CODE":0,"TOWNNAME":"新營區","LI":"延平里","LIN":"7鄰","STREET":"復興路","SECT":" ","MAREA":" ","LANE":"２９巷","ALLEY":" ","HOUSE_NO":"２７之７號","E_COORD97":179677.432661,"N_COORD97":2577938.24046,"ADDRESS":"復興路２９巷２７之７號","OBJECTID":211202},"geometry":{"x":179677.43266099971,"y":2577938.2404620033}},{"attributes":{"ID":211204,"DIS_CODE":0,"TOWNNAME":"新市區","LI":"潭頂里","LIN":"2鄰","STREET":" ","SECT":" ","MAREA":"潭頂","LANE":" ","ALLEY":" ","HOUSE_NO":"９９之２０號","E_COORD97":182471.84,"N_COORD97":2554487.7999999998,"ADDRESS":"潭頂９９之２０號","OBJECTID":211203},"geometry":{"x":182471.83999999985,"y":2554487.8000000007}},{"attributes":{"ID":211205,"DIS_CODE":0,"TOWNNAME":"新市區","LI":"社內里","LIN":"2鄰","STREET":" ","SECT":" ","MAREA":"社內","LANE":" ","ALLEY":" ","HOUSE_NO":"２２之９號","E_COORD97":176849.14000000001,"N_COORD97":2552882.0499999998,"ADDRESS":"社內２２之９號","OBJECTID":211204},"geometry":{"x":176849.1400000006,"y":2552882.0500000026}},{"attributes":{"ID":211206,"DIS_CODE":0,"TOWNNAME":"佳里區","LI":"建南里","LIN":"24鄰","STREET":"祥和二街","SECT":" ","MAREA":" ","LANE":" ","ALLEY":" ","HOUSE_NO":"２８１號","E_COORD97":165422.95999999999,"N_COORD97":2561139.3199999998,"ADDRESS":"祥和二街２８１號","OBJECTID":211205},"geometry":{"x":165422.95999999996,"y":2561139.3200000003}},{"attributes":{"ID":211207,"DIS_CODE":0,"TOWNNAME":"佳里區","LI":"建南里","LIN":"24鄰","STREET":"祥和二街","SECT":" ","MAREA":" ","LANE":" ","ALLEY":" ","HOUSE_NO":"２８３號","E_COORD97":165418.79999999999,"N_COORD97":2561139.8100000001,"ADDRESS":"祥和二街２８３號","OBJECTID":211206},"geometry":{"x":165418.79999999981,"y":2561139.8100000005}},{"attributes":{"ID":211208,"DIS_CODE":0,"TOWNNAME":"佳里區","LI":"建南里","LIN":"24鄰","STREET":"祥和二街","SECT":" ","MAREA":" ","LANE":" ","ALLEY":" ","HOUSE_NO":"２８５號","E_COORD97":165414.76000000001,"N_COORD97":2561140.4900000002,"ADDRESS":"祥和二街２８５號","OBJECTID":211207},"geometry":{"x":165414.76000000071,"y":2561140.4900000021}},{"attributes":{"ID":211209,"DIS_CODE":0,"TOWNNAME":"佳里區","LI":"建南里","LIN":"24鄰","STREET":"祥和二街","SECT":" ","MAREA":" ","LANE":" ","ALLEY":" ","HOUSE_NO":"２８７號","E_COORD97":165411.06,"N_COORD97":2561141.5699999998,"ADDRESS":"祥和二街２８７號","OBJECTID":211208},"geometry":{"x":165411.06000000052,"y":2561141.5700000003}},{"attributes":{"ID":211210,"DIS_CODE":0,"TOWNNAME":"佳里區","LI":"建南里","LIN":"24鄰","STREET":"祥和二街","SECT":" ","MAREA":" ","LANE":" ","ALLEY":" ","HOUSE_NO":"２８９號","E_COORD97":165406.79999999999,"N_COORD97":2561141.96,"ADDRESS":"祥和二街２８９號","OBJECTID":211209},"geometry":{"x":165406.79999999981,"y":2561141.9600000009}},{"attributes":{"ID":211211,"DIS_CODE":0,"TOWNNAME":"歸仁區","LI":"辜厝里","LIN":"24鄰","STREET":"大順街","SECT":" ","MAREA":" ","LANE":" ","ALLEY":" ","HOUSE_NO":"５１號","E_COORD97":177394.88,"N_COORD97":2540597.1499999999,"ADDRESS":"大順街５１號","OBJECTID":211210},"geometry":{"x":177394.87999999989,"y":2540597.1500000022}},{"attributes":{"ID":211212,"DIS_CODE":0,"TOWNNAME":"歸仁區","LI":"許厝里","LIN":"24鄰","STREET":"大仁街","SECT":" ","MAREA":" ","LANE":" ","ALLEY":" ","HOUSE_NO":"１３２號","E_COORD97":178197.17000000001,"N_COORD97":2541020.1099999999,"ADDRESS":"大仁街１３２號","OBJECTID":211211},"geometry":{"x":178197.17000000086,"y":2541020.1100000013}},{"attributes":{"ID":211213,"DIS_CODE":0,"TOWNNAME":"鹽水區","LI":"福得里","LIN":"9鄰","STREET":" ","SECT":" ","MAREA":"後厝","LANE":" ","ALLEY":" ","HOUSE_NO":"５９號","E_COORD97":175430.89999999999,"N_COORD97":2579808.6899999999,"ADDRESS":"後厝５９號","OBJECTID":211212},"geometry":{"x":175430.90000000224,"y":2579808.6900000013}},{"attributes":{"ID":211214,"DIS_CODE":0,"TOWNNAME":"鹽水區","LI":"福得里","LIN":"9鄰","STREET":" ","SECT":" ","MAREA":"後厝","LANE":" ","ALLEY":" ","HOUSE_NO":"６０號","E_COORD97":175433.35999999999,"N_COORD97":2579804.8900000001,"ADDRESS":"後厝６０號","OBJECTID":211213},"geometry":{"x":175433.36000000127,"y":2579804.8900000025}},{"attributes":{"ID":211215,"DIS_CODE":0,"TOWNNAME":"鹽水區","LI":"福得里","LIN":"9鄰","STREET":" ","SECT":" ","MAREA":"後厝","LANE":" ","ALLEY":" ","HOUSE_NO":"２６號之１１","E_COORD97":175399.39000000001,"N_COORD97":2579891.29,"ADDRESS":"後厝２６號之１１","OBJECTID":211214},"geometry":{"x":175399.38999999966,"y":2579891.2899999972}},{"attributes":{"ID":211216,"DIS_CODE":0,"TOWNNAME":"仁德區","LI":"太子里","LIN":"41鄰","STREET":"太子路","SECT":" ","MAREA":" ","LANE":"６６巷","ALLEY":"４弄","HOUSE_NO":"１９號","E_COORD97":175292.56,"N_COORD97":2543647.7599999998,"ADDRESS":"太子路６６巷４弄１９號","OBJECTID":211215},"geometry":{"x":175292.55999999959,"y":2543647.7599999998}},{"attributes":{"ID":211217,"DIS_CODE":0,"TOWNNAME":"鹽水區","LI":"福得里","LIN":"9鄰","STREET":" ","SECT":" ","MAREA":"後厝","LANE":" ","ALLEY":" ","HOUSE_NO":"２６號之１２","E_COORD97":175395.60000000001,"N_COORD97":2579897.1299999999,"ADDRESS":"後厝２６號之１２","OBJECTID":211216},"geometry":{"x":175395.59999999963,"y":2579897.1300000008}},{"attributes":{"ID":211218,"DIS_CODE":0,"TOWNNAME":"鹽水區","LI":"福得里","LIN":"9鄰","STREET":" ","SECT":" ","MAREA":"後厝","LANE":" ","ALLEY":" ","HOUSE_NO":"２６號之１","E_COORD97":175414.95999999999,"N_COORD97":2579910.3700000001,"ADDRESS":"後厝２６號之１","OBJECTID":211217},"geometry":{"x":175414.96000000089,"y":2579910.3700000029}},{"attributes":{"ID":211219,"DIS_CODE":0,"TOWNNAME":"永康區","LI":"\u25A0行里","LIN":"41鄰","STREET":"永安路","SECT":" ","MAREA":" ","LANE":"１６５巷","ALLEY":"３０弄","HOUSE_NO":"１１號之２","E_COORD97":172448.82999999999,"N_COORD97":2549481.8100000001,"ADDRESS":"永安路１６５巷３０弄１１號之２","OBJECTID":211218},"geometry":{"x":172448.83000000007,"y":2549481.8100000024}},{"attributes":{"ID":211220,"DIS_CODE":0,"TOWNNAME":"鹽水區","LI":"福得里","LIN":"9鄰","STREET":" ","SECT":" ","MAREA":"後厝","LANE":" ","ALLEY":" ","HOUSE_NO":"２６號之２","E_COORD97":175419.06,"N_COORD97":2579904.8300000001,"ADDRESS":"後厝２６號之２","OBJECTID":211219},"geometry":{"x":175419.06000000052,"y":2579904.8300000001}},{"attributes":{"ID":211221,"DIS_CODE":0,"TOWNNAME":"新市區","LI":"潭頂里","LIN":"2鄰","STREET":" ","SECT":" ","MAREA":"潭頂","LANE":" ","ALLEY":" ","HOUSE_NO":"９９之１號","E_COORD97":182664.12,"N_COORD97":2554051.2999999998,"ADDRESS":"潭頂９９之１號","OBJECTID":211220},"geometry":{"x":182664.12000000197,"y":2554051.3000000007}},{"attributes":{"ID":211222,"DIS_CODE":0,"TOWNNAME":"新市區","LI":"潭頂里","LIN":"2鄰","STREET":" ","SECT":" ","MAREA":"潭頂","LANE":" ","ALLEY":" ","HOUSE_NO":"１５１號","E_COORD97":180990.92000000001,"N_COORD97":2552944.5,"ADDRESS":"潭頂１５１號","OBJECTID":211221},"geometry":{"x":180990.92000000086,"y":2552944.5000000037}},{"attributes":{"ID":211223,"DIS_CODE":0,"TOWNNAME":"新市區","LI":"潭頂里","LIN":"2鄰","STREET":" ","SECT":" ","MAREA":"潭頂","LANE":" ","ALLEY":" ","HOUSE_NO":"９９之１８號","E_COORD97":182670.64000000001,"N_COORD97":2554245.0499999998,"ADDRESS":"潭頂９９之１８號","OBJECTID":211222},"geometry":{"x":182670.6400000006,"y":2554245.0500000007}},{"attributes":{"ID":211224,"DIS_CODE":0,"TOWNNAME":"新市區","LI":"潭頂里","LIN":"2鄰","STREET":" ","SECT":" ","MAREA":"潭頂","LANE":" ","ALLEY":" ","HOUSE_NO":"９０之６２號","E_COORD97":181743.67000000001,"N_COORD97":2553510.7999999998,"ADDRESS":"潭頂９０之６２號","OBJECTID":211223},"geometry":{"x":181743.67000000086,"y":2553510.8000000026}},{"attributes":{"ID":211225,"DIS_CODE":0,"TOWNNAME":"永康區","LI":"\u25A0行里","LIN":"41鄰","STREET":"永安路","SECT":" ","MAREA":" ","LANE":"１６５巷","ALLEY":"３０弄","HOUSE_NO":"７號之４","E_COORD97":172461.32000000001,"N_COORD97":2549482.3100000001,"ADDRESS":"永安路１６５巷３０弄７號之４","OBJECTID":211224},"geometry":{"x":172461.32000000216,"y":2549482.3100000024}},{"attributes":{"ID":211226,"DIS_CODE":0,"TOWNNAME":"永康區","LI":"\u25A0行里","LIN":"41鄰","STREET":"永安路","SECT":" ","MAREA":" ","LANE":"１６５巷","ALLEY":"３０弄","HOUSE_NO":"３號之１","E_COORD97":172475.95000000001,"N_COORD97":2549483.0600000001,"ADDRESS":"永安路１６５巷３０弄３號之１","OBJECTID":211225},"geometry":{"x":172475.95000000112,"y":2549483.0600000042}},{"attributes":{"ID":211227,"DIS_CODE":0,"TOWNNAME":"永康區","LI":"\u25A0行里","LIN":"41鄰","STREET":"永安路","SECT":" ","MAREA":" ","LANE":"１６５巷","ALLEY":"３０弄","HOUSE_NO":"４號","E_COORD97":172476.75,"N_COORD97":2549507.1899999999,"ADDRESS":"永安路１６５巷３０弄４號","OBJECTID":211226},"geometry":{"x":172476.75000000186,"y":2549507.1899999995}},{"attributes":{"ID":211228,"DIS_CODE":0,"TOWNNAME":"永康區","LI":"\u25A0行里","LIN":"41鄰","STREET":"永安路","SECT":" ","MAREA":" ","LANE":"１６５巷","ALLEY":"３０弄","HOUSE_NO":"１號之２","E_COORD97":172483.81,"N_COORD97":2549487.8100000001,"ADDRESS":"永安路１６５巷３０弄１號之２","OBJECTID":211227},"geometry":{"x":172483.80999999959,"y":2549487.8099999987}},{"attributes":{"ID":211229,"DIS_CODE":0,"TOWNNAME":"永康區","LI":"\u25A0行里","LIN":"41鄰","STREET":"永安路","SECT":" ","MAREA":" ","LANE":"１６５巷","ALLEY":"３０弄","HOUSE_NO":"５號之５","E_COORD97":172468.45000000001,"N_COORD97":2549482.5600000001,"ADDRESS":"永安路１６５巷３０弄５號之５","OBJECTID":211228},"geometry":{"x":172468.45000000019,"y":2549482.5600000005}},{"attributes":{"ID":211230,"DIS_CODE":0,"TOWNNAME":"新市區","LI":"潭頂里","LIN":"2鄰","STREET":" ","SECT":" ","MAREA":"潭頂","LANE":" ","ALLEY":" ","HOUSE_NO":"１５０號","E_COORD97":181001.07999999999,"N_COORD97":2552894.75,"ADDRESS":"潭頂１５０號","OBJECTID":211229},"geometry":{"x":181001.08000000007,"y":2552894.75}},{"attributes":{"ID":211231,"DIS_CODE":0,"TOWNNAME":"新市區","LI":"潭頂里","LIN":"2鄰","STREET":" ","SECT":" ","MAREA":"潭頂","LANE":" ","ALLEY":" ","HOUSE_NO":"１４８之５號","E_COORD97":181097,"N_COORD97":2552940.5499999998,"ADDRESS":"潭頂１４８之５號","OBJECTID":211230},"geometry":{"x":181097.00000000093,"y":2552940.5500000007}},{"attributes":{"ID":211232,"DIS_CODE":0,"TOWNNAME":"新市區","LI":"潭頂里","LIN":"2鄰","STREET":" ","SECT":" ","MAREA":"潭頂","LANE":" ","ALLEY":" ","HOUSE_NO":"１４８之７號","E_COORD97":181089.06,"N_COORD97":2552934.2999999998,"ADDRESS":"潭頂１４８之７號","OBJECTID":211231},"geometry":{"x":181089.06000000145,"y":2552934.3000000026}},{"attributes":{"ID":211233,"DIS_CODE":0,"TOWNNAME":"新市區","LI":"潭頂里","LIN":"2鄰","STREET":" ","SECT":" ","MAREA":"潭頂","LANE":" ","ALLEY":" ","HOUSE_NO":"９０之６７號","E_COORD97":181721.78,"N_COORD97":2553507.7999999998,"ADDRESS":"潭頂９０之６７號","OBJECTID":211232},"geometry":{"x":181721.78000000026,"y":2553507.8000000007}},{"attributes":{"ID":211234,"DIS_CODE":0,"TOWNNAME":"新市區","LI":"潭頂里","LIN":"2鄰","STREET":" ","SECT":" ","MAREA":"潭頂","LANE":" ","ALLEY":" ","HOUSE_NO":"９０之４５號","E_COORD97":181735.42000000001,"N_COORD97":2553500.0499999998,"ADDRESS":"潭頂９０之４５號","OBJECTID":211233},"geometry":{"x":181735.42000000086,"y":2553500.0500000007}},{"attributes":{"ID":211235,"DIS_CODE":0,"TOWNNAME":"新市區","LI":"潭頂里","LIN":"2鄰","STREET":" ","SECT":" ","MAREA":"潭頂","LANE":" ","ALLEY":" ","HOUSE_NO":"１４２之１號","E_COORD97":181051.81,"N_COORD97":2553000.7999999998,"ADDRESS":"潭頂１４２之１號","OBJECTID":211234},"geometry":{"x":181051.81000000145,"y":2553000.8000000045}},{"attributes":{"ID":211236,"DIS_CODE":0,"TOWNNAME":"新市區","LI":"豐華里","LIN":"2鄰","STREET":" ","SECT":" ","MAREA":"豐華","LANE":" ","ALLEY":" ","HOUSE_NO":"１１號","E_COORD97":173835.84,"N_COORD97":2554055,"ADDRESS":"豐華１１號","OBJECTID":211235},"geometry":{"x":173835.84000000078,"y":2554055}},{"attributes":{"ID":211237,"DIS_CODE":0,"TOWNNAME":"永康區","LI":"\u25A0行里","LIN":"41鄰","STREET":"永安路","SECT":" ","MAREA":" ","LANE":"１６５巷","ALLEY":"３０弄","HOUSE_NO":"４３號","E_COORD97":172391.17000000001,"N_COORD97":2549462.4900000002,"ADDRESS":"永安路１６５巷３０弄４３號","OBJECTID":211236},"geometry":{"x":172391.17000000086,"y":2549462.4899999984}},{"attributes":{"ID":211238,"DIS_CODE":0,"TOWNNAME":"永康區","LI":"\u25A0行里","LIN":"41鄰","STREET":"永安路","SECT":" ","MAREA":" ","LANE":"１６５巷","ALLEY":"３０弄","HOUSE_NO":"３３號","E_COORD97":172407.14999999999,"N_COORD97":2549452.0699999998,"ADDRESS":"永安路１６５巷３０弄３３號","OBJECTID":211237},"geometry":{"x":172407.1500000013,"y":2549452.070000004}},{"attributes":{"ID":211239,"DIS_CODE":0,"TOWNNAME":"永康區","LI":"\u25A0行里","LIN":"35鄰","STREET":"中正北路","SECT":" ","MAREA":" ","LANE":"１７７巷","ALLEY":" ","HOUSE_NO":"５號","E_COORD97":172413.63,"N_COORD97":2549136,"ADDRESS":"中正北路１７７巷５號","OBJECTID":211238},"geometry":{"x":172413.63000000082,"y":2549136}},{"attributes":{"ID":211240,"DIS_CODE":0,"TOWNNAME":"歸仁區","LI":"歸仁里","LIN":"24鄰","STREET":"文化街","SECT":"一段","MAREA":" ","LANE":" ","ALLEY":" ","HOUSE_NO":"６０號","E_COORD97":178144.62,"N_COORD97":2541237.1299999999,"ADDRESS":"文化街一段６０號","OBJECTID":211239},"geometry":{"x":178144.61999999918,"y":2541237.129999999}},{"attributes":{"ID":211241,"DIS_CODE":0,"TOWNNAME":"歸仁區","LI":"歸仁里","LIN":"24鄰","STREET":"忠孝北路","SECT":" ","MAREA":" ","LANE":" ","ALLEY":" ","HOUSE_NO":"２１４號","E_COORD97":178102.62,"N_COORD97":2541241.1099999999,"ADDRESS":"忠孝北路２１４號","OBJECTID":211240},"geometry":{"x":178102.62000000104,"y":2541241.1099999994}},{"attributes":{"ID":211242,"DIS_CODE":0,"TOWNNAME":"永康區","LI":"\u25A0洲里","LIN":"7鄰","STREET":"三村二街","SECT":" ","MAREA":" ","LANE":" ","ALLEY":" ","HOUSE_NO":"６３號","E_COORD97":171836.5,"N_COORD97":2549461.2400000002,"ADDRESS":"三村二街６３號","OBJECTID":211241},"geometry":{"x":171836.50000000093,"y":2549461.2400000039}},{"attributes":{"ID":211243,"DIS_CODE":0,"TOWNNAME":"安平區","LI":"育平里","LIN":"34鄰","STREET":"郡平路","SECT":" ","MAREA":" ","LANE":"２７４巷","ALLEY":"２０弄","HOUSE_NO":"２２號四樓之４","E_COORD97":164481.79000000001,"N_COORD97":2543403.5099999998,"ADDRESS":"郡平路２７４巷２０弄２２號四樓之４","OBJECTID":211242},"geometry":{"x":164481.79000000004,"y":2543403.5100000035}},{"attributes":{"ID":211244,"DIS_CODE":0,"TOWNNAME":"東區","LI":"和平里","LIN":"13鄰","STREET":"東門路","SECT":"三段","MAREA":" ","LANE":"２２６巷","ALLEY":"１１７弄","HOUSE_NO":"２７號","E_COORD97":171423.25,"N_COORD97":2541791.79,"ADDRESS":"東門路三段２２６巷１１７弄２７號","OBJECTID":211243},"geometry":{"x":171423.25,"y":2541791.790000001}},{"attributes":{"ID":211245,"DIS_CODE":0,"TOWNNAME":"東區","LI":"和平里","LIN":"13鄰","STREET":"東門路","SECT":"三段","MAREA":" ","LANE":"２２６巷","ALLEY":"１１７弄","HOUSE_NO":"３３號","E_COORD97":171424.07000000001,"N_COORD97":2541779.2999999998,"ADDRESS":"東門路三段２２６巷１１７弄３３號","OBJECTID":211244},"geometry":{"x":171424.07000000123,"y":2541779.3000000026}},{"attributes":{"ID":211246,"DIS_CODE":0,"TOWNNAME":"東區","LI":"和平里","LIN":"13鄰","STREET":"東門路","SECT":"三段","MAREA":" ","LANE":"２２６巷","ALLEY":"１１７弄","HOUSE_NO":"１９號","E_COORD97":171424.28,"N_COORD97":2541810.1899999999,"ADDRESS":"東門路三段２２６巷１１７弄１９號","OBJECTID":211245},"geometry":{"x":171424.28000000119,"y":2541810.1899999995}},{"attributes":{"ID":211247,"DIS_CODE":0,"TOWNNAME":"鹽水區","LI":"福得里","LIN":"9鄰","STREET":" ","SECT":" ","MAREA":"後厝","LANE":" ","ALLEY":" ","HOUSE_NO":"２６號之３","E_COORD97":175422.70999999999,"N_COORD97":2579898.1200000001,"ADDRESS":"後厝２６號之３","OBJECTID":211246},"geometry":{"x":175422.70999999996,"y":2579898.1200000048}},{"attributes":{"ID":211248,"DIS_CODE":0,"TOWNNAME":"鹽水區","LI":"福得里","LIN":"9鄰","STREET":" ","SECT":" ","MAREA":"後厝","LANE":" ","ALLEY":" ","HOUSE_NO":"２６號之４","E_COORD97":175427.19,"N_COORD97":2579891.8199999998,"ADDRESS":"後厝２６號之４","OBJECTID":211247},"geometry":{"x":175427.19000000227,"y":2579891.8200000003}},{"attributes":{"ID":211249,"DIS_CODE":0,"TOWNNAME":"鹽水區","LI":"福得里","LIN":"9鄰","STREET":" ","SECT":" ","MAREA":"後厝","LANE":" ","ALLEY":" ","HOUSE_NO":"２６號之５","E_COORD97":175435.29000000001,"N_COORD97":2579885.5600000001,"ADDRESS":"後厝２６號之５","OBJECTID":211248},"geometry":{"x":175435.29000000097,"y":2579885.5600000024}},{"attributes":{"ID":211250,"DIS_CODE":0,"TOWNNAME":"鹽水區","LI":"福得里","LIN":"9鄰","STREET":" ","SECT":" ","MAREA":"後厝","LANE":" ","ALLEY":" ","HOUSE_NO":"２６號之６","E_COORD97":175429.64000000001,"N_COORD97":2579882.7400000002,"ADDRESS":"後厝２６號之６","OBJECTID":211249},"geometry":{"x":175429.63999999966,"y":2579882.7399999984}},{"attributes":{"ID":211251,"DIS_CODE":0,"TOWNNAME":"鹽水區","LI":"福得里","LIN":"9鄰","STREET":" ","SECT":" ","MAREA":"後厝","LANE":" ","ALLEY":" ","HOUSE_NO":"５１號之４０","E_COORD97":175471.67000000001,"N_COORD97":2579814.5699999998,"ADDRESS":"後厝５１號之４０","OBJECTID":211250},"geometry":{"x":175471.67000000086,"y":2579814.5700000022}},{"attributes":{"ID":211252,"DIS_CODE":0,"TOWNNAME":"鹽水區","LI":"福得里","LIN":"9鄰","STREET":" ","SECT":" ","MAREA":"後厝","LANE":" ","ALLEY":" ","HOUSE_NO":"５１號之４１","E_COORD97":175474.07000000001,"N_COORD97":2579810.8799999999,"ADDRESS":"後厝５１號之４１","OBJECTID":211251},"geometry":{"x":175474.07000000123,"y":2579810.8800000008}},{"attributes":{"ID":211253,"DIS_CODE":0,"TOWNNAME":"鹽水區","LI":"福得里","LIN":"9鄰","STREET":" ","SECT":" ","MAREA":"後厝","LANE":" ","ALLEY":" ","HOUSE_NO":"５１號之４２","E_COORD97":175476.47,"N_COORD97":2579807.1800000002,"ADDRESS":"後厝５１號之４２","OBJECTID":211252},"geometry":{"x":175476.46999999974,"y":2579807.1799999997}},{"attributes":{"ID":211254,"DIS_CODE":0,"TOWNNAME":"鹽水區","LI":"福得里","LIN":"9鄰","STREET":" ","SECT":" ","MAREA":"後厝","LANE":" ","ALLEY":" ","HOUSE_NO":"５１號之４３","E_COORD97":175478.87,"N_COORD97":2579803.4900000002,"ADDRESS":"後厝５１號之４３","OBJECTID":211253},"geometry":{"x":175478.87000000104,"y":2579803.4900000039}},{"attributes":{"ID":211255,"DIS_CODE":0,"TOWNNAME":"永康區","LI":"復華里","LIN":"13鄰","STREET":"國華街","SECT":" ","MAREA":" ","LANE":"９６巷","ALLEY":"１９弄","HOUSE_NO":"７號","E_COORD97":172939.09,"N_COORD97":2545949.4900000002,"ADDRESS":"國華街９６巷１９弄７號","OBJECTID":211254},"geometry":{"x":172939.09000000078,"y":2545949.4900000002}},{"attributes":{"ID":211256,"DIS_CODE":0,"TOWNNAME":"安南區","LI":"佃東里","LIN":"13鄰","STREET":"公學路","SECT":"四段","MAREA":" ","LANE":"１２２巷","ALLEY":"４８弄","HOUSE_NO":"３８號","E_COORD97":165699.26000000001,"N_COORD97":2552158.1000000001,"ADDRESS":"公學路四段１２２巷４８弄３８號","OBJECTID":211255},"geometry":{"x":165699.26000000071,"y":2552158.1000000015}},{"attributes":{"ID":211257,"DIS_CODE":0,"TOWNNAME":"鹽水區","LI":"福得里","LIN":"9鄰","STREET":" ","SECT":" ","MAREA":"後厝","LANE":" ","ALLEY":" ","HOUSE_NO":"５１號之４５","E_COORD97":175462.53,"N_COORD97":2579790.2200000002,"ADDRESS":"後厝５１號之４５","OBJECTID":211256},"geometry":{"x":175462.53000000119,"y":2579790.2200000025}},{"attributes":{"ID":211258,"DIS_CODE":0,"TOWNNAME":"鹽水區","LI":"福得里","LIN":"9鄰","STREET":" ","SECT":" ","MAREA":"後厝","LANE":" ","ALLEY":" ","HOUSE_NO":"５１號之４６","E_COORD97":175460.39999999999,"N_COORD97":2579794.1000000001,"ADDRESS":"後厝５１號之４６","OBJECTID":211257},"geometry":{"x":175460.4000000013,"y":2579794.0999999996}},{"attributes":{"ID":211259,"DIS_CODE":0,"TOWNNAME":"鹽水區","LI":"福得里","LIN":"9鄰","STREET":" ","SECT":" ","MAREA":"後厝","LANE":" ","ALLEY":" ","HOUSE_NO":"５１號之４７","E_COORD97":175458.42000000001,"N_COORD97":2579797.8900000001,"ADDRESS":"後厝５１號之４７","OBJECTID":211258},"geometry":{"x":175458.41999999993,"y":2579797.8900000025}},{"attributes":{"ID":211260,"DIS_CODE":0,"TOWNNAME":"安南區","LI":"佃東里","LIN":"13鄰","STREET":"公學路","SECT":"四段","MAREA":" ","LANE":"１２２巷","ALLEY":"４８弄","HOUSE_NO":"４０號","E_COORD97":165685.92999999999,"N_COORD97":2552159.5800000001,"ADDRESS":"公學路四段１２２巷４８弄４０號","OBJECTID":211259},"geometry":{"x":165685.93000000156,"y":2552159.5800000001}},{"attributes":{"ID":211261,"DIS_CODE":0,"TOWNNAME":"安南區","LI":"溪東里","LIN":"13鄰","STREET":"府安路","SECT":"五段","MAREA":" ","LANE":"１１巷","ALLEY":"４７弄","HOUSE_NO":"１１號","E_COORD97":168411.63,"N_COORD97":2547396.2400000002,"ADDRESS":"府安路五段１１巷４７弄１１號","OBJECTID":211260},"geometry":{"x":168411.62999999989,"y":2547396.2400000039}},{"attributes":{"ID":211262,"DIS_CODE":0,"TOWNNAME":"永康區","LI":"南灣里","LIN":" ","STREET":"立興街","SECT":" ","MAREA":" ","LANE":"１７８巷","ALLEY":" ","HOUSE_NO":"３號","E_COORD97":174281.06,"N_COORD97":2544583.6099999999,"ADDRESS":"立興街１７８巷３號","OBJECTID":211261},"geometry":{"x":174281.05999999959,"y":2544583.6100000013}},{"attributes":{"ID":211263,"DIS_CODE":0,"TOWNNAME":"歸仁區","LI":"崙頂里","LIN":"24鄰","STREET":"崙頂街","SECT":" ","MAREA":" ","LANE":" ","ALLEY":" ","HOUSE_NO":"６８號","E_COORD97":177848.07999999999,"N_COORD97":2539945.25,"ADDRESS":"崙頂街６８號","OBJECTID":211262},"geometry":{"x":177848.08000000007,"y":2539945.2500000019}},{"attributes":{"ID":211264,"DIS_CODE":0,"TOWNNAME":"歸仁區","LI":"崙頂里","LIN":"24鄰","STREET":"成功十街","SECT":" ","MAREA":" ","LANE":" ","ALLEY":" ","HOUSE_NO":"１８２號","E_COORD97":177761.17999999999,"N_COORD97":2539902.25,"ADDRESS":"成功十街１８２號","OBJECTID":211263},"geometry":{"x":177761.18000000063,"y":2539902.25}},{"attributes":{"ID":211265,"DIS_CODE":0,"TOWNNAME":"安南區","LI":"溪東里","LIN":"13鄰","STREET":"府安路","SECT":"五段","MAREA":" ","LANE":"１１巷","ALLEY":"４７弄","HOUSE_NO":"１４號","E_COORD97":168402.44,"N_COORD97":2547415.3599999999,"ADDRESS":"府安路五段１１巷４７弄１４號","OBJECTID":211264},"geometry":{"x":168402.44000000227,"y":2547415.3600000013}},{"attributes":{"ID":211266,"DIS_CODE":0,"TOWNNAME":"鹽水區","LI":"福得里","LIN":"9鄰","STREET":" ","SECT":" ","MAREA":"後厝","LANE":" ","ALLEY":" ","HOUSE_NO":"５４號","E_COORD97":175417.60999999999,"N_COORD97":2579828.2400000002,"ADDRESS":"後厝５４號","OBJECTID":211265},"geometry":{"x":175417.61000000127,"y":2579828.2400000002}},{"attributes":{"ID":211267,"DIS_CODE":0,"TOWNNAME":"安南區","LI":"溪東里","LIN":"13鄰","STREET":"府安路","SECT":"五段","MAREA":" ","LANE":"１１巷","ALLEY":"４７弄","HOUSE_NO":"１５號","E_COORD97":168398.26000000001,"N_COORD97":2547395.6000000001,"ADDRESS":"府安路五段１１巷４７弄１５號","OBJECTID":211266},"geometry":{"x":168398.26000000071,"y":2547395.5999999996}},{"attributes":{"ID":211268,"DIS_CODE":0,"TOWNNAME":"安南區","LI":"溪東里","LIN":"13鄰","STREET":"府安路","SECT":"五段","MAREA":" ","LANE":"１１巷","ALLEY":"４７弄","HOUSE_NO":"１６號","E_COORD97":168395.69,"N_COORD97":2547414.9399999999,"ADDRESS":"府安路五段１１巷４７弄１６號","OBJECTID":211267},"geometry":{"x":168395.69000000134,"y":2547414.9400000013}},{"attributes":{"ID":211269,"DIS_CODE":0,"TOWNNAME":"鹽水區","LI":"福得里","LIN":"9鄰","STREET":" ","SECT":" ","MAREA":"後厝","LANE":" ","ALLEY":" ","HOUSE_NO":"５５號","E_COORD97":175420.92999999999,"N_COORD97":2579824.2400000002,"ADDRESS":"後厝５５號","OBJECTID":211268},"geometry":{"x":175420.9299999997,"y":2579824.2400000002}},{"attributes":{"ID":211270,"DIS_CODE":0,"TOWNNAME":"鹽水區","LI":"福得里","LIN":"9鄰","STREET":" ","SECT":" ","MAREA":"後厝","LANE":" ","ALLEY":" ","HOUSE_NO":"５６號","E_COORD97":175423.51000000001,"N_COORD97":2579820.1699999999,"ADDRESS":"後厝５６號","OBJECTID":211269},"geometry":{"x":175423.50999999978,"y":2579820.1700000018}},{"attributes":{"ID":211271,"DIS_CODE":0,"TOWNNAME":"安南區","LI":"溪東里","LIN":"13鄰","STREET":"府安路","SECT":"五段","MAREA":" ","LANE":"１１巷","ALLEY":"４７弄","HOUSE_NO":"１９號","E_COORD97":168385.42999999999,"N_COORD97":2547393.9500000002,"ADDRESS":"府安路五段１１巷４７弄１９號","OBJECTID":211270},"geometry":{"x":168385.43000000063,"y":2547393.950000003}},{"attributes":{"ID":211272,"DIS_CODE":0,"TOWNNAME":"安南區","LI":"溪東里","LIN":"13鄰","STREET":"府安路","SECT":"五段","MAREA":" ","LANE":"１１巷","ALLEY":"４７弄","HOUSE_NO":"２２號","E_COORD97":168375.64999999999,"N_COORD97":2547412.8300000001,"ADDRESS":"府安路五段１１巷４７弄２２號","OBJECTID":211271},"geometry":{"x":168375.6500000013,"y":2547412.8300000019}},{"attributes":{"ID":211273,"DIS_CODE":0,"TOWNNAME":"鹽水區","LI":"孫厝里","LIN":"9鄰","STREET":" ","SECT":" ","MAREA":"孫厝寮","LANE":" ","ALLEY":" ","HOUSE_NO":"６７號","E_COORD97":170340.98999999999,"N_COORD97":2576882.6800000002,"ADDRESS":"孫厝寮６７號","OBJECTID":211272},"geometry":{"x":170340.98999999929,"y":2576882.6800000016}},{"attributes":{"ID":211274,"DIS_CODE":0,"TOWNNAME":"鹽水區","LI":"孫厝里","LIN":"9鄰","STREET":" ","SECT":" ","MAREA":"孫厝寮","LANE":" ","ALLEY":" ","HOUSE_NO":"６８號","E_COORD97":170346.37,"N_COORD97":2576930.1600000001,"ADDRESS":"孫厝寮６８號","OBJECTID":211273},"geometry":{"x":170346.37000000011,"y":2576930.1599999983}},{"attributes":{"ID":211275,"DIS_CODE":0,"TOWNNAME":"鹽水區","LI":"孫厝里","LIN":"9鄰","STREET":" ","SECT":" ","MAREA":"孫厝寮","LANE":" ","ALLEY":" ","HOUSE_NO":"７０之１號","E_COORD97":170356.38,"N_COORD97":2576888.2599999998,"ADDRESS":"孫厝寮７０之１號","OBJECTID":211274},"geometry":{"x":170356.37999999989,"y":2576888.2599999998}},{"attributes":{"ID":211276,"DIS_CODE":0,"TOWNNAME":"鹽水區","LI":"孫厝里","LIN":"9鄰","STREET":" ","SECT":" ","MAREA":"孫厝寮","LANE":" ","ALLEY":" ","HOUSE_NO":"７０之２號","E_COORD97":170360.22,"N_COORD97":2576890.02,"ADDRESS":"孫厝寮７０之２號","OBJECTID":211275},"geometry":{"x":170360.21999999974,"y":2576890.0200000033}},{"attributes":{"ID":211277,"DIS_CODE":0,"TOWNNAME":"安南區","LI":"溪東里","LIN":"13鄰","STREET":"府安路","SECT":"五段","MAREA":" ","LANE":"１１巷","ALLEY":"４７弄","HOUSE_NO":"２９號","E_COORD97":168351.25,"N_COORD97":2547390.9100000001,"ADDRESS":"府安路五段１１巷４７弄２９號","OBJECTID":211276},"geometry":{"x":168351.25000000093,"y":2547390.9100000001}},{"attributes":{"ID":211278,"DIS_CODE":0,"TOWNNAME":"鹽水區","LI":"孫厝里","LIN":"9鄰","STREET":" ","SECT":" ","MAREA":"孫厝寮","LANE":" ","ALLEY":" ","HOUSE_NO":"７０之３號","E_COORD97":170365.12,"N_COORD97":2576892.46,"ADDRESS":"孫厝寮７０之３號","OBJECTID":211277},"geometry":{"x":170365.12000000011,"y":2576892.4600000028}},{"attributes":{"ID":211279,"DIS_CODE":0,"TOWNNAME":"鹽水區","LI":"孫厝里","LIN":"9鄰","STREET":" ","SECT":" ","MAREA":"孫厝寮","LANE":" ","ALLEY":" ","HOUSE_NO":"７０號之３","E_COORD97":170365.12,"N_COORD97":2576892.46,"ADDRESS":"孫厝寮７０號之３","OBJECTID":211278},"geometry":{"x":170365.12000000011,"y":2576892.4600000028}},{"attributes":{"ID":211280,"DIS_CODE":0,"TOWNNAME":"鹽水區","LI":"孫厝里","LIN":"9鄰","STREET":" ","SECT":" ","MAREA":"孫厝寮","LANE":" ","ALLEY":" ","HOUSE_NO":"７０之４號","E_COORD97":170369.29000000001,"N_COORD97":2576894.21,"ADDRESS":"孫厝寮７０之４號","OBJECTID":211279},"geometry":{"x":170369.2900000019,"y":2576894.2100000028}},{"attributes":{"ID":211281,"DIS_CODE":0,"TOWNNAME":"鹽水區","LI":"孫厝里","LIN":"9鄰","STREET":" ","SECT":" ","MAREA":"孫厝寮","LANE":" ","ALLEY":" ","HOUSE_NO":"７０之５號","E_COORD97":170360.06,"N_COORD97":2576898.3399999999,"ADDRESS":"孫厝寮７０之５號","OBJECTID":211280},"geometry":{"x":170360.05999999959,"y":2576898.3400000036}},{"attributes":{"ID":211282,"DIS_CODE":0,"TOWNNAME":"鹽水區","LI":"孫厝里","LIN":"9鄰","STREET":" ","SECT":" ","MAREA":"孫厝寮","LANE":" ","ALLEY":" ","HOUSE_NO":"７０之６號","E_COORD97":170358.73000000001,"N_COORD97":2576902.3900000001,"ADDRESS":"孫厝寮７０之６號","OBJECTID":211281},"geometry":{"x":170358.73000000138,"y":2576902.3900000043}},{"attributes":{"ID":211283,"DIS_CODE":0,"TOWNNAME":"鹽水區","LI":"孫厝里","LIN":"9鄰","STREET":" ","SECT":" ","MAREA":"孫厝寮","LANE":" ","ALLEY":" ","HOUSE_NO":"７０之７號","E_COORD97":170356.85000000001,"N_COORD97":2576906.6699999999,"ADDRESS":"孫厝寮７０之７號","OBJECTID":211282},"geometry":{"x":170356.85000000056,"y":2576906.6700000018}},{"attributes":{"ID":211284,"DIS_CODE":0,"TOWNNAME":"安南區","LI":"溪東里","LIN":"13鄰","STREET":"府安路","SECT":"五段","MAREA":" ","LANE":"１１巷","ALLEY":"４７弄","HOUSE_NO":"３１號","E_COORD97":168344.47,"N_COORD97":2547390.71,"ADDRESS":"府安路五段１１巷４７弄３１號","OBJECTID":211283},"geometry":{"x":168344.47000000067,"y":2547390.7100000028}},{"attributes":{"ID":211285,"DIS_CODE":0,"TOWNNAME":"安南區","LI":"溪東里","LIN":"13鄰","STREET":"府安路","SECT":"五段","MAREA":" ","LANE":"１１巷","ALLEY":"４７弄","HOUSE_NO":"３２號","E_COORD97":168343.10999999999,"N_COORD97":2547412.1000000001,"ADDRESS":"府安路五段１１巷４７弄３２號","OBJECTID":211284},"geometry":{"x":168343.11000000034,"y":2547412.0999999996}},{"attributes":{"ID":211286,"DIS_CODE":0,"TOWNNAME":"安南區","LI":"溪東里","LIN":"13鄰","STREET":"府安路","SECT":"五段","MAREA":" ","LANE":"１１巷","ALLEY":"４７弄","HOUSE_NO":"３３號","E_COORD97":168338.23000000001,"N_COORD97":2547388.3500000001,"ADDRESS":"府安路五段１１巷４７弄３３號","OBJECTID":211285},"geometry":{"x":168338.23000000138,"y":2547388.3500000034}},{"attributes":{"ID":211287,"DIS_CODE":0,"TOWNNAME":"安南區","LI":"溪東里","LIN":"13鄰","STREET":"府安路","SECT":"五段","MAREA":" ","LANE":"１１巷","ALLEY":"４７弄","HOUSE_NO":"４３號","E_COORD97":168293.56,"N_COORD97":2547385.8599999999,"ADDRESS":"府安路五段１１巷４７弄４３號","OBJECTID":211286},"geometry":{"x":168293.55999999959,"y":2547385.8600000013}},{"attributes":{"ID":211288,"DIS_CODE":0,"TOWNNAME":"北區","LI":"成德里","LIN":"9鄰","STREET":"育德路","SECT":" ","MAREA":" ","LANE":"２１５巷","ALLEY":" ","HOUSE_NO":"１號","E_COORD97":168612.76999999999,"N_COORD97":2545704.0600000001,"ADDRESS":"育德路２１５巷１號","OBJECTID":211287},"geometry":{"x":168612.77000000142,"y":2545704.0600000024}},{"attributes":{"ID":211289,"DIS_CODE":0,"TOWNNAME":"歸仁區","LI":"歸仁里","LIN":"24鄰","STREET":"忠孝北路","SECT":" ","MAREA":" ","LANE":" ","ALLEY":" ","HOUSE_NO":"１９８號","E_COORD97":178128.12,"N_COORD97":2541208.1099999999,"ADDRESS":"忠孝北路１９８號","OBJECTID":211288},"geometry":{"x":178128.12000000104,"y":2541208.1099999994}},{"attributes":{"ID":211290,"DIS_CODE":0,"TOWNNAME":"仁德區","LI":"仁德里","LIN":"24鄰","STREET":"文孝路","SECT":" ","MAREA":" ","LANE":" ","ALLEY":" ","HOUSE_NO":"３７號","E_COORD97":172059.78,"N_COORD97":2541399.0699999998,"ADDRESS":"文孝路３７號","OBJECTID":211289},"geometry":{"x":172059.78000000212,"y":2541399.0700000003}},{"attributes":{"ID":211291,"DIS_CODE":0,"TOWNNAME":"安平區","LI":"文平里","LIN":"24鄰","STREET":"建平三街","SECT":" ","MAREA":" ","LANE":" ","ALLEY":" ","HOUSE_NO":"１６號","E_COORD97":166285.60000000001,"N_COORD97":2542871.0099999998,"ADDRESS":"建平三街１６號","OBJECTID":211290},"geometry":{"x":166285.60000000056,"y":2542871.0099999979}},{"attributes":{"ID":211292,"DIS_CODE":0,"TOWNNAME":"安平區","LI":"文平里","LIN":"24鄰","STREET":"建平三街","SECT":" ","MAREA":" ","LANE":" ","ALLEY":" ","HOUSE_NO":"１８號","E_COORD97":166280.67999999999,"N_COORD97":2542872.1200000001,"ADDRESS":"建平三街１８號","OBJECTID":211291},"geometry":{"x":166280.6799999997,"y":2542872.1200000029}},{"attributes":{"ID":211293,"DIS_CODE":0,"TOWNNAME":"安平區","LI":"文平里","LIN":"24鄰","STREET":"建平三街","SECT":" ","MAREA":" ","LANE":" ","ALLEY":" ","HOUSE_NO":"２０號","E_COORD97":166276.70999999999,"N_COORD97":2542871.1699999999,"ADDRESS":"建平三街２０號","OBJECTID":211292},"geometry":{"x":166276.71000000089,"y":2542871.1700000018}},{"attributes":{"ID":211294,"DIS_CODE":0,"TOWNNAME":"安南區","LI":"溪東里","LIN":"13鄰","STREET":"府安路","SECT":"五段","MAREA":" ","LANE":"１１巷","ALLEY":"４７弄","HOUSE_NO":"４４號","E_COORD97":168293.03,"N_COORD97":2547404.9500000002,"ADDRESS":"府安路五段１１巷４７弄４４號","OBJECTID":211293},"geometry":{"x":168293.03000000212,"y":2547404.9500000011}},{"attributes":{"ID":211295,"DIS_CODE":0,"TOWNNAME":"永康區","LI":"\u25A0洲里","LIN":"7鄰","STREET":"三村二街","SECT":" ","MAREA":" ","LANE":" ","ALLEY":" ","HOUSE_NO":"６０號","E_COORD97":171851.32999999999,"N_COORD97":2549479.9900000002,"ADDRESS":"三村二街６０號","OBJECTID":211294},"geometry":{"x":171851.33000000101,"y":2549479.9900000021}},{"attributes":{"ID":211296,"DIS_CODE":0,"TOWNNAME":"新營區","LI":"王公里","LIN":"9鄰","STREET":"義和街","SECT":" ","MAREA":" ","LANE":" ","ALLEY":" ","HOUSE_NO":"４６號","E_COORD97":180315.17000000001,"N_COORD97":2579051.8700000001,"ADDRESS":"義和街４６號","OBJECTID":211295},"geometry":{"x":180315.16999999993,"y":2579051.870000001}},{"attributes":{"ID":211297,"DIS_CODE":0,"TOWNNAME":"新市區","LI":"潭頂里","LIN":"2鄰","STREET":" ","SECT":" ","MAREA":"潭頂","LANE":" ","ALLEY":" ","HOUSE_NO":"９０之６９號","E_COORD97":181704.75,"N_COORD97":2553509.2999999998,"ADDRESS":"潭頂９０之６９號","OBJECTID":211296},"geometry":{"x":181704.75,"y":2553509.3000000045}},{"attributes":{"ID":211298,"DIS_CODE":0,"TOWNNAME":"仁德區","LI":"土庫里","LIN":"13鄰","STREET":"土庫路","SECT":" ","MAREA":" ","LANE":"１８５巷","ALLEY":"１４弄","HOUSE_NO":"３號","E_COORD97":174368.35000000001,"N_COORD97":2542888.25,"ADDRESS":"土庫路１８５巷１４弄３號","OBJECTID":211297},"geometry":{"x":174368.34999999963,"y":2542888.2500000019}},{"attributes":{"ID":211299,"DIS_CODE":0,"TOWNNAME":"仁德區","LI":"土庫里","LIN":"13鄰","STREET":"土庫路","SECT":" ","MAREA":" ","LANE":"１８５巷","ALLEY":"１４弄","HOUSE_NO":"１號","E_COORD97":174362.84,"N_COORD97":2542893,"ADDRESS":"土庫路１８５巷１４弄１號","OBJECTID":211298},"geometry":{"x":174362.84000000078,"y":2542893.0000000019}},{"attributes":{"ID":211300,"DIS_CODE":0,"TOWNNAME":"仁德區","LI":"太子里","LIN":"13鄰","STREET":"長興二街","SECT":" ","MAREA":" ","LANE":"７０巷","ALLEY":"６弄","HOUSE_NO":"１號","E_COORD97":174304,"N_COORD97":2543729.9199999999,"ADDRESS":"長興二街７０巷６弄１號","OBJECTID":211299},"geometry":{"x":174303.99999999907,"y":2543729.9200000037}},{"attributes":{"ID":211301,"DIS_CODE":0,"TOWNNAME":"仁德區","LI":"上崙里","LIN":"13鄰","STREET":"德崙路","SECT":" ","MAREA":" ","LANE":"３７０巷","ALLEY":"２１弄","HOUSE_NO":"４５號","E_COORD97":174194.22,"N_COORD97":2538055.52,"ADDRESS":"德崙路３７０巷２１弄４５號","OBJECTID":211300},"geometry":{"x":174194.22000000067,"y":2538055.5199999996}},{"attributes":{"ID":211302,"DIS_CODE":0,"TOWNNAME":"仁德區","LI":"太子里","LIN":"13鄰","STREET":"長興二街","SECT":" ","MAREA":" ","LANE":"７０巷","ALLEY":"６弄","HOUSE_NO":"５號","E_COORD97":174295.32999999999,"N_COORD97":2543732.1699999999,"ADDRESS":"長興二街７０巷６弄５號","OBJECTID":211301},"geometry":{"x":174295.33000000101,"y":2543732.1700000018}},{"attributes":{"ID":211303,"DIS_CODE":0,"TOWNNAME":"仁德區","LI":"成功里","LIN":"13鄰","STREET":"全福路","SECT":" ","MAREA":" ","LANE":"３巷","ALLEY":"９弄","HOUSE_NO":"４號","E_COORD97":170799.32000000001,"N_COORD97":2539386.25,"ADDRESS":"全福路３巷９弄４號","OBJECTID":211302},"geometry":{"x":170799.3200000003,"y":2539386.25}},{"attributes":{"ID":211304,"DIS_CODE":0,"TOWNNAME":"仁德區","LI":"上崙里","LIN":"13鄰","STREET":"德崙路","SECT":" ","MAREA":" ","LANE":"３７０巷","ALLEY":"２１弄","HOUSE_NO":"４６號","E_COORD97":174181.98999999999,"N_COORD97":2538031.9300000002,"ADDRESS":"德崙路３７０巷２１弄４６號","OBJECTID":211303},"geometry":{"x":174181.99000000022,"y":2538031.9299999997}},{"attributes":{"ID":211305,"DIS_CODE":0,"TOWNNAME":"安南區","LI":"溪心里","LIN":"13鄰","STREET":"安中路","SECT":"三段","MAREA":" ","LANE":"５９巷","ALLEY":"４５弄","HOUSE_NO":"１０號","E_COORD97":166222.28,"N_COORD97":2549624.96,"ADDRESS":"安中路三段５９巷４５弄１０號","OBJECTID":211304},"geometry":{"x":166222.28000000119,"y":2549624.9600000009}},{"attributes":{"ID":211306,"DIS_CODE":0,"TOWNNAME":"安南區","LI":"溪心里","LIN":"13鄰","STREET":"安中路","SECT":"三段","MAREA":" ","LANE":"５９巷","ALLEY":"４５弄","HOUSE_NO":"１１號","E_COORD97":166242.53,"N_COORD97":2549665.8100000001,"ADDRESS":"安中路三段５９巷４５弄１１號","OBJECTID":211305},"geometry":{"x":166242.53000000119,"y":2549665.8100000024}},{"attributes":{"ID":211307,"DIS_CODE":0,"TOWNNAME":"安南區","LI":"溪心里","LIN":"13鄰","STREET":"安中路","SECT":"三段","MAREA":" ","LANE":"５９巷","ALLEY":"４５弄","HOUSE_NO":"１２號","E_COORD97":166226.82999999999,"N_COORD97":2549623.2000000002,"ADDRESS":"安中路三段５９巷４５弄１２號","OBJECTID":211306},"geometry":{"x":166226.83000000101,"y":2549623.200000003}},{"attributes":{"ID":211308,"DIS_CODE":0,"TOWNNAME":"安南區","LI":"溪心里","LIN":"13鄰","STREET":"安中路","SECT":"三段","MAREA":" ","LANE":"５９巷","ALLEY":"４５弄","HOUSE_NO":"１３號","E_COORD97":166264.10999999999,"N_COORD97":2549658.77,"ADDRESS":"安中路三段５９巷４５弄１３號","OBJECTID":211307},"geometry":{"x":166264.11000000127,"y":2549658.7699999996}},{"attributes":{"ID":211309,"DIS_CODE":0,"TOWNNAME":"安南區","LI":"溪心里","LIN":"13鄰","STREET":"安中路","SECT":"三段","MAREA":" ","LANE":"５９巷","ALLEY":"４５弄","HOUSE_NO":"１４號","E_COORD97":166232.10999999999,"N_COORD97":2549623.2000000002,"ADDRESS":"安中路三段５９巷４５弄１４號","OBJECTID":211308},"geometry":{"x":166232.11000000034,"y":2549623.200000003}},{"attributes":{"ID":211310,"DIS_CODE":0,"TOWNNAME":"安南區","LI":"溪心里","LIN":"13鄰","STREET":"安中路","SECT":"三段","MAREA":" ","LANE":"５９巷","ALLEY":"４５弄","HOUSE_NO":"１５號","E_COORD97":166264.10999999999,"N_COORD97":2549653.4900000002,"ADDRESS":"安中路三段５９巷４５弄１５號","OBJECTID":211309},"geometry":{"x":166264.11000000127,"y":2549653.4900000021}},{"attributes":{"ID":211311,"DIS_CODE":0,"TOWNNAME":"安南區","LI":"溪心里","LIN":"13鄰","STREET":"安中路","SECT":"三段","MAREA":" ","LANE":"５９巷","ALLEY":"４５弄","HOUSE_NO":"１６號","E_COORD97":166239.01000000001,"N_COORD97":2549624.8199999998,"ADDRESS":"安中路三段５９巷４５弄１６號","OBJECTID":211310},"geometry":{"x":166239.00999999978,"y":2549624.8200000022}},{"attributes":{"ID":211312,"DIS_CODE":0,"TOWNNAME":"安南區","LI":"溪心里","LIN":"13鄰","STREET":"安中路","SECT":"三段","MAREA":" ","LANE":"５９巷","ALLEY":"４５弄","HOUSE_NO":"１７號","E_COORD97":166261.03,"N_COORD97":2549649.2400000002,"ADDRESS":"安中路三段５９巷４５弄１７號","OBJECTID":211311},"geometry":{"x":166261.03000000119,"y":2549649.2400000002}},{"attributes":{"ID":211313,"DIS_CODE":0,"TOWNNAME":"安南區","LI":"溪心里","LIN":"13鄰","STREET":"安中路","SECT":"三段","MAREA":" ","LANE":"５９巷","ALLEY":"４５弄","HOUSE_NO":"１９號","E_COORD97":166258.10000000001,"N_COORD97":2549644.3999999999,"ADDRESS":"安中路三段５９巷４５弄１９號","OBJECTID":211312},"geometry":{"x":166258.10000000056,"y":2549644.4000000022}},{"attributes":{"ID":211314,"DIS_CODE":0,"TOWNNAME":"安南區","LI":"溪心里","LIN":"13鄰","STREET":"安中路","SECT":"三段","MAREA":" ","LANE":"５９巷","ALLEY":"４５弄","HOUSE_NO":"１號","E_COORD97":166236.07000000001,"N_COORD97":2549641.8999999999,"ADDRESS":"安中路三段５９巷４５弄１號","OBJECTID":211313},"geometry":{"x":166236.0700000003,"y":2549641.9000000004}},{"attributes":{"ID":211315,"DIS_CODE":0,"TOWNNAME":"安南區","LI":"溪心里","LIN":"13鄰","STREET":"安中路","SECT":"三段","MAREA":" ","LANE":"５９巷","ALLEY":"４５弄","HOUSE_NO":"２１號","E_COORD97":166253.39999999999,"N_COORD97":2549638.6699999999,"ADDRESS":"安中路三段５９巷４５弄２１號","OBJECTID":211314},"geometry":{"x":166253.4000000013,"y":2549638.6700000018}},{"attributes":{"ID":211316,"DIS_CODE":0,"TOWNNAME":"安南區","LI":"溪心里","LIN":"13鄰","STREET":"安中路","SECT":"三段","MAREA":" ","LANE":"５９巷","ALLEY":"４５弄","HOUSE_NO":"２號","E_COORD97":166207.29999999999,"N_COORD97":2549629.6600000001,"ADDRESS":"安中路三段５９巷４５弄２號","OBJECTID":211315},"geometry":{"x":166207.30000000168,"y":2549629.6600000001}},{"attributes":{"ID":211317,"DIS_CODE":0,"TOWNNAME":"安南區","LI":"溪心里","LIN":"13鄰","STREET":"安中路","SECT":"三段","MAREA":" ","LANE":"５９巷","ALLEY":"４５弄","HOUSE_NO":"３號","E_COORD97":166236.66,"N_COORD97":2549646.1600000001,"ADDRESS":"安中路三段５９巷４５弄３號","OBJECTID":211316},"geometry":{"x":166236.66000000015,"y":2549646.160000002}},{"attributes":{"ID":211318,"DIS_CODE":0,"TOWNNAME":"安南區","LI":"溪心里","LIN":"13鄰","STREET":"安中路","SECT":"三段","MAREA":" ","LANE":"５９巷","ALLEY":"４５弄","HOUSE_NO":"５號","E_COORD97":166238.42000000001,"N_COORD97":2549651.5800000001,"ADDRESS":"安中路三段５９巷４５弄５號","OBJECTID":211317},"geometry":{"x":166238.41999999993,"y":2549651.5799999982}},{"attributes":{"ID":211319,"DIS_CODE":0,"TOWNNAME":"新市區","LI":"潭頂里","LIN":"2鄰","STREET":" ","SECT":" ","MAREA":"潭頂","LANE":" ","ALLEY":" ","HOUSE_NO":"９９之２號","E_COORD97":182664.32999999999,"N_COORD97":2554089.7999999998,"ADDRESS":"潭頂９９之２號","OBJECTID":211318},"geometry":{"x":182664.33000000194,"y":2554089.8000000026}},{"attributes":{"ID":211320,"DIS_CODE":0,"TOWNNAME":"新市區","LI":"潭頂里","LIN":"2鄰","STREET":" ","SECT":" ","MAREA":"潭頂","LANE":" ","ALLEY":" ","HOUSE_NO":"９０之５８號","E_COORD97":181670.37,"N_COORD97":2553495.7999999998,"ADDRESS":"潭頂９０之５８號","OBJECTID":211319},"geometry":{"x":181670.37000000011,"y":2553495.8000000045}},{"attributes":{"ID":211321,"DIS_CODE":0,"TOWNNAME":"七股區","LI":"中寮里","LIN":"1鄰","STREET":" ","SECT":" ","MAREA":"中寮","LANE":" ","ALLEY":" ","HOUSE_NO":"８號之４１","E_COORD97":158678.95000000001,"N_COORD97":2560961.7799999998,"ADDRESS":"中寮８號之４１","OBJECTID":211320},"geometry":{"x":158678.95000000112,"y":2560961.7799999993}},{"attributes":{"ID":211322,"DIS_CODE":0,"TOWNNAME":"七股區","LI":"中寮里","LIN":"1鄰","STREET":" ","SECT":" ","MAREA":"中寮","LANE":" ","ALLEY":" ","HOUSE_NO":"８號","E_COORD97":158806.97,"N_COORD97":2560839.3399999999,"ADDRESS":"中寮８號","OBJECTID":211321},"geometry":{"x":158806.97000000067,"y":2560839.3400000017}},{"attributes":{"ID":211323,"DIS_CODE":0,"TOWNNAME":"七股區","LI":"大埕里","LIN":"19鄰","STREET":" ","SECT":" ","MAREA":"大埕","LANE":" ","ALLEY":" ","HOUSE_NO":"３５２號之８","E_COORD97":161994.38,"N_COORD97":2560115.2200000002,"ADDRESS":"大埕３５２號之８","OBJECTID":211322},"geometry":{"x":161994.38000000175,"y":2560115.2200000025}},{"attributes":{"ID":211324,"DIS_CODE":0,"TOWNNAME":"七股區","LI":"大埕里","LIN":"19鄰","STREET":" ","SECT":" ","MAREA":"大埕","LANE":" ","ALLEY":" ","HOUSE_NO":"３５２號之９","E_COORD97":161993.67999999999,"N_COORD97":2560110.9100000001,"ADDRESS":"大埕３５２號之９","OBJECTID":211323},"geometry":{"x":161993.67999999877,"y":2560110.9100000001}},{"attributes":{"ID":211325,"DIS_CODE":0,"TOWNNAME":"七股區","LI":"大埕里","LIN":"19鄰","STREET":" ","SECT":" ","MAREA":"大埕","LANE":" ","ALLEY":" ","HOUSE_NO":"３５２號","E_COORD97":162001.26999999999,"N_COORD97":2560245.8500000001,"ADDRESS":"大埕３５２號","OBJECTID":211324},"geometry":{"x":162001.26999999955,"y":2560245.8500000015}},{"attributes":{"ID":211326,"DIS_CODE":0,"TOWNNAME":"七股區","LI":"大埕里","LIN":"19鄰","STREET":" ","SECT":" ","MAREA":"大埕","LANE":" ","ALLEY":" ","HOUSE_NO":"３５５號之１","E_COORD97":161993.92000000001,"N_COORD97":2560240.1200000001,"ADDRESS":"大埕３５５號之１","OBJECTID":211325},"geometry":{"x":161993.91999999993,"y":2560240.120000001}},{"attributes":{"ID":211327,"DIS_CODE":0,"TOWNNAME":"新化區","LI":"崙頂里","LIN":"9鄰","STREET":" ","SECT":" ","MAREA":"崙子頂","LANE":" ","ALLEY":" ","HOUSE_NO":"３５４號","E_COORD97":176786.13,"N_COORD97":2546850.25,"ADDRESS":"崙子頂３５４號","OBJECTID":211326},"geometry":{"x":176786.12999999989,"y":2546850.2500000037}},{"attributes":{"ID":211328,"DIS_CODE":0,"TOWNNAME":"安南區","LI":"溪心里","LIN":"13鄰","STREET":"安中路","SECT":"三段","MAREA":" ","LANE":"５９巷","ALLEY":"４５弄","HOUSE_NO":"６號","E_COORD97":166211.85000000001,"N_COORD97":2549627.6000000001,"ADDRESS":"安中路三段５９巷４５弄６號","OBJECTID":211327},"geometry":{"x":166211.85000000149,"y":2549627.6000000034}},{"attributes":{"ID":211329,"DIS_CODE":0,"TOWNNAME":"南區","LI":"建南里","LIN":"9鄰","STREET":"德興路","SECT":" ","MAREA":" ","LANE":" ","ALLEY":" ","HOUSE_NO":"２８４號","E_COORD97":167201.64999999999,"N_COORD97":2539983.5699999998,"ADDRESS":"德興路２８４號","OBJECTID":211328},"geometry":{"x":167201.65000000037,"y":2539983.5700000022}},{"attributes":{"ID":211330,"DIS_CODE":0,"TOWNNAME":"安南區","LI":"溪心里","LIN":"13鄰","STREET":"安中路","SECT":"三段","MAREA":" ","LANE":"５９巷","ALLEY":"４５弄","HOUSE_NO":"７號","E_COORD97":166239.60000000001,"N_COORD97":2549656.4199999999,"ADDRESS":"安中路三段５９巷４５弄７號","OBJECTID":211329},"geometry":{"x":166239.60000000056,"y":2549656.4200000018}},{"attributes":{"ID":211331,"DIS_CODE":0,"TOWNNAME":"新化區","LI":"崙頂里","LIN":"9鄰","STREET":" ","SECT":" ","MAREA":"崙子頂","LANE":" ","ALLEY":" ","HOUSE_NO":"３４４號","E_COORD97":176746.82999999999,"N_COORD97":2546825.25,"ADDRESS":"崙子頂３４４號","OBJECTID":211330},"geometry":{"x":176746.83000000101,"y":2546825.25}},{"attributes":{"ID":211332,"DIS_CODE":0,"TOWNNAME":"麻豆區","LI":"大埕里","LIN":"9鄰","STREET":" ","SECT":" ","MAREA":"大埕","LANE":" ","ALLEY":" ","HOUSE_NO":"２２號之１０","E_COORD97":173087.78,"N_COORD97":2565157.2000000002,"ADDRESS":"大埕２２號之１０","OBJECTID":211331},"geometry":{"x":173087.78000000119,"y":2565157.1999999993}},{"attributes":{"ID":211333,"DIS_CODE":0,"TOWNNAME":"安南區","LI":"溪心里","LIN":"13鄰","STREET":"安中路","SECT":"三段","MAREA":" ","LANE":"５９巷","ALLEY":"４５弄","HOUSE_NO":"８號","E_COORD97":166218.01999999999,"N_COORD97":2549627.8999999999,"ADDRESS":"安中路三段５９巷４５弄８號","OBJECTID":211332},"geometry":{"x":166218.02000000048,"y":2549627.9000000022}},{"attributes":{"ID":211334,"DIS_CODE":0,"TOWNNAME":"安南區","LI":"溪心里","LIN":"13鄰","STREET":"安中路","SECT":"三段","MAREA":" ","LANE":"５９巷","ALLEY":"４５弄","HOUSE_NO":"９號","E_COORD97":166242.53,"N_COORD97":2549660.9700000002,"ADDRESS":"安中路三段５９巷４５弄９號","OBJECTID":211333},"geometry":{"x":166242.53000000119,"y":2549660.9700000025}},{"attributes":{"ID":211335,"DIS_CODE":0,"TOWNNAME":"仁德區","LI":"成功里","LIN":"13鄰","STREET":"全福路","SECT":" ","MAREA":" ","LANE":"３巷","ALLEY":"９弄","HOUSE_NO":"８號","E_COORD97":170779.62,"N_COORD97":2539393.5,"ADDRESS":"全福路３巷９弄８號","OBJECTID":211334},"geometry":{"x":170779.62000000104,"y":2539393.5000000019}},{"attributes":{"ID":211336,"DIS_CODE":0,"TOWNNAME":"永康區","LI":"復華里","LIN":"13鄰","STREET":"國華街","SECT":" ","MAREA":" ","LANE":"９６巷","ALLEY":"１５弄","HOUSE_NO":"３號","E_COORD97":172902.67999999999,"N_COORD97":2545938.4900000002,"ADDRESS":"國華街９６巷１５弄３號","OBJECTID":211335},"geometry":{"x":172902.68000000063,"y":2545938.4900000002}},{"attributes":{"ID":211337,"DIS_CODE":0,"TOWNNAME":"永康區","LI":"復華里","LIN":"13鄰","STREET":"國華街","SECT":" ","MAREA":" ","LANE":"９６巷","ALLEY":"１９弄","HOUSE_NO":"３號","E_COORD97":172935.67999999999,"N_COORD97":2545936.3500000001,"ADDRESS":"國華街９６巷１９弄３號","OBJECTID":211336},"geometry":{"x":172935.6799999997,"y":2545936.3499999996}},{"attributes":{"ID":211338,"DIS_CODE":0,"TOWNNAME":"麻豆區","LI":"大埕里","LIN":"9鄰","STREET":" ","SECT":" ","MAREA":"大埕","LANE":" ","ALLEY":" ","HOUSE_NO":"２２號之１１","E_COORD97":173092.07000000001,"N_COORD97":2565156.0899999999,"ADDRESS":"大埕２２號之１１","OBJECTID":211337},"geometry":{"x":173092.07000000123,"y":2565156.0900000017}},{"attributes":{"ID":211339,"DIS_CODE":0,"TOWNNAME":"麻豆區","LI":"大埕里","LIN":"9鄰","STREET":" ","SECT":" ","MAREA":"大埕","LANE":" ","ALLEY":" ","HOUSE_NO":"２２號之１２","E_COORD97":173099.54000000001,"N_COORD97":2565152.23,"ADDRESS":"大埕２２號之１２","OBJECTID":211338},"geometry":{"x":173099.54000000004,"y":2565152.2300000042}},{"attributes":{"ID":211340,"DIS_CODE":0,"TOWNNAME":"麻豆區","LI":"大埕里","LIN":"9鄰","STREET":" ","SECT":" ","MAREA":"大埕","LANE":" ","ALLEY":" ","HOUSE_NO":"２２號之１３","E_COORD97":173104.12,"N_COORD97":2565151.8599999999,"ADDRESS":"大埕２２號之１３","OBJECTID":211339},"geometry":{"x":173104.12000000011,"y":2565151.8599999994}},{"attributes":{"ID":211341,"DIS_CODE":0,"TOWNNAME":"安南區","LI":"海佃里","LIN":"13鄰","STREET":"國安街","SECT":" ","MAREA":" ","LANE":"５６巷","ALLEY":"１３１弄","HOUSE_NO":"１０號","E_COORD97":166900.45999999999,"N_COORD97":2547428.1400000001,"ADDRESS":"國安街５６巷１３１弄１０號","OBJECTID":211340},"geometry":{"x":166900.46000000089,"y":2547428.1400000043}},{"attributes":{"ID":211342,"DIS_CODE":0,"TOWNNAME":"七股區","LI":"大埕里","LIN":"11鄰","STREET":" ","SECT":" ","MAREA":"大埕","LANE":" ","ALLEY":" ","HOUSE_NO":"３５９號","E_COORD97":161976.10000000001,"N_COORD97":2560220.9900000002,"ADDRESS":"大埕３５９號","OBJECTID":211341},"geometry":{"x":161976.10000000056,"y":2560220.9900000021}},{"attributes":{"ID":211343,"DIS_CODE":0,"TOWNNAME":"七股區","LI":"大埕里","LIN":"11鄰","STREET":" ","SECT":" ","MAREA":"大埕","LANE":" ","ALLEY":" ","HOUSE_NO":"３６０號","E_COORD97":161972.62,"N_COORD97":2560218.0699999998,"ADDRESS":"大埕３６０號","OBJECTID":211342},"geometry":{"x":161972.62000000197,"y":2560218.0700000022}},{"attributes":{"ID":211344,"DIS_CODE":0,"TOWNNAME":"七股區","LI":"大埕里","LIN":"11鄰","STREET":" ","SECT":" ","MAREA":"大埕","LANE":" ","ALLEY":" ","HOUSE_NO":"３６１號","E_COORD97":161969.20999999999,"N_COORD97":2560216.1200000001,"ADDRESS":"大埕３６１號","OBJECTID":211343},"geometry":{"x":161969.21000000089,"y":2560216.120000001}},{"attributes":{"ID":211345,"DIS_CODE":0,"TOWNNAME":"七股區","LI":"大埕里","LIN":"11鄰","STREET":" ","SECT":" ","MAREA":"大埕","LANE":" ","ALLEY":" ","HOUSE_NO":"３６３號","E_COORD97":161963.31,"N_COORD97":2560211.5800000001,"ADDRESS":"大埕３６３號","OBJECTID":211344},"geometry":{"x":161963.30999999959,"y":2560211.5800000001}},{"attributes":{"ID":211346,"DIS_CODE":0,"TOWNNAME":"安南區","LI":"海佃里","LIN":"13鄰","STREET":"國安街","SECT":" ","MAREA":" ","LANE":"５６巷","ALLEY":"１３１弄","HOUSE_NO":"１１號","E_COORD97":166901.23999999999,"N_COORD97":2547404.29,"ADDRESS":"國安街５６巷１３１弄１１號","OBJECTID":211345},"geometry":{"x":166901.24000000022,"y":2547404.2899999991}},{"attributes":{"ID":211347,"DIS_CODE":0,"TOWNNAME":"安南區","LI":"海佃里","LIN":"13鄰","STREET":"國安街","SECT":" ","MAREA":" ","LANE":"５６巷","ALLEY":"１３１弄","HOUSE_NO":"１２號","E_COORD97":166895.67999999999,"N_COORD97":2547428.1400000001,"ADDRESS":"國安街５６巷１３１弄１２號","OBJECTID":211346},"geometry":{"x":166895.6799999997,"y":2547428.1400000043}},{"attributes":{"ID":211348,"DIS_CODE":0,"TOWNNAME":"後壁區","LI":"菁寮里","LIN":"2鄰","STREET":" ","SECT":" ","MAREA":"菁寮","LANE":" ","ALLEY":" ","HOUSE_NO":"１３號","E_COORD97":181941.57000000001,"N_COORD97":2586375.9100000001,"ADDRESS":"菁寮１３號","OBJECTID":211347},"geometry":{"x":181941.57000000123,"y":2586375.910000002}},{"attributes":{"ID":211349,"DIS_CODE":0,"TOWNNAME":"安南區","LI":"海佃里","LIN":"13鄰","STREET":"國安街","SECT":" ","MAREA":" ","LANE":"５６巷","ALLEY":"１３１弄","HOUSE_NO":"１３號","E_COORD97":166895.29000000001,"N_COORD97":2547404.29,"ADDRESS":"國安街５６巷１３１弄１３號","OBJECTID":211348},"geometry":{"x":166895.29000000004,"y":2547404.2899999991}},{"attributes":{"ID":211350,"DIS_CODE":0,"TOWNNAME":"後壁區","LI":"菁寮里","LIN":"2鄰","STREET":" ","SECT":" ","MAREA":"菁寮","LANE":" ","ALLEY":" ","HOUSE_NO":"１４號","E_COORD97":181931,"N_COORD97":2586347.4399999999,"ADDRESS":"菁寮１４號","OBJECTID":211349},"geometry":{"x":181931.00000000093,"y":2586347.4400000013}},{"attributes":{"ID":211351,"DIS_CODE":0,"TOWNNAME":"安南區","LI":"海佃里","LIN":"13鄰","STREET":"國安街","SECT":" ","MAREA":" ","LANE":"５６巷","ALLEY":"１３１弄","HOUSE_NO":"１４號","E_COORD97":166891.63,"N_COORD97":2547427.04,"ADDRESS":"國安街５６巷１３１弄１４號","OBJECTID":211350},"geometry":{"x":166891.62999999896,"y":2547427.0400000028}},{"attributes":{"ID":211352,"DIS_CODE":0,"TOWNNAME":"安南區","LI":"海佃里","LIN":"13鄰","STREET":"國安街","SECT":" ","MAREA":" ","LANE":"５６巷","ALLEY":"１３１弄","HOUSE_NO":"１５號","E_COORD97":166891.23999999999,"N_COORD97":2547403.5800000001,"ADDRESS":"國安街５６巷１３１弄１５號","OBJECTID":211351},"geometry":{"x":166891.23999999929,"y":2547403.5800000001}},{"attributes":{"ID":211353,"DIS_CODE":0,"TOWNNAME":"安南區","LI":"海佃里","LIN":"13鄰","STREET":"國安街","SECT":" ","MAREA":" ","LANE":"５６巷","ALLEY":"１３１弄","HOUSE_NO":"１６號","E_COORD97":166886.85999999999,"N_COORD97":2547426.6699999999,"ADDRESS":"國安街５６巷１３１弄１６號","OBJECTID":211352},"geometry":{"x":166886.86000000034,"y":2547426.6699999999}},{"attributes":{"ID":211354,"DIS_CODE":0,"TOWNNAME":"安南區","LI":"海佃里","LIN":"13鄰","STREET":"國安街","SECT":" ","MAREA":" ","LANE":"５６巷","ALLEY":"１３１弄","HOUSE_NO":"１７號","E_COORD97":166886.01000000001,"N_COORD97":2547402.8599999999,"ADDRESS":"國安街５６巷１３１弄１７號","OBJECTID":211353},"geometry":{"x":166886.01000000071,"y":2547402.8600000013}},{"attributes":{"ID":211355,"DIS_CODE":0,"TOWNNAME":"南區","LI":"文南里","LIN":"9鄰","STREET":"長南街","SECT":" ","MAREA":" ","LANE":"３６巷","ALLEY":" ","HOUSE_NO":"３３號","E_COORD97":166978.01000000001,"N_COORD97":2542722.8300000001,"ADDRESS":"長南街３６巷３３號","OBJECTID":211354},"geometry":{"x":166978.01000000071,"y":2542722.8300000001}},{"attributes":{"ID":211356,"DIS_CODE":0,"TOWNNAME":"安平區","LI":"文平里","LIN":"24鄰","STREET":"建平三街","SECT":" ","MAREA":" ","LANE":" ","ALLEY":" ","HOUSE_NO":"２２號","E_COORD97":166272.75,"N_COORD97":2542871.4900000002,"ADDRESS":"建平三街２２號","OBJECTID":211355},"geometry":{"x":166272.75000000093,"y":2542871.4900000002}},{"attributes":{"ID":211357,"DIS_CODE":0,"TOWNNAME":"永康區","LI":"\u25A0行里","LIN":"44鄰","STREET":"\u25A0和街","SECT":" ","MAREA":" ","LANE":" ","ALLEY":" ","HOUSE_NO":"２０５號","E_COORD97":171823.19,"N_COORD97":2548054.71,"ADDRESS":"\u25A0和街２０５號","OBJECTID":211356},"geometry":{"x":171823.19000000227,"y":2548054.709999999}},{"attributes":{"ID":211358,"DIS_CODE":0,"TOWNNAME":"永康區","LI":"\u25A0洲里","LIN":"9鄰","STREET":"\u25A0行路","SECT":" ","MAREA":" ","LANE":" ","ALLEY":" ","HOUSE_NO":"８７號","E_COORD97":171526.32000000001,"N_COORD97":2549260.9900000002,"ADDRESS":"\u25A0行路８７號","OBJECTID":211357},"geometry":{"x":171526.32000000123,"y":2549260.9900000021}},{"attributes":{"ID":211359,"DIS_CODE":0,"TOWNNAME":"北區","LI":"大港里","LIN":"9鄰","STREET":"大興街","SECT":" ","MAREA":" ","LANE":" ","ALLEY":" ","HOUSE_NO":"２６６號","E_COORD97":166646.04000000001,"N_COORD97":2545674.4500000002,"ADDRESS":"大興街２６６號","OBJECTID":211358},"geometry":{"x":166646.04000000004,"y":2545674.4499999993}},{"attributes":{"ID":211360,"DIS_CODE":0,"TOWNNAME":"北區","LI":"大港里","LIN":"9鄰","STREET":"大興街","SECT":" ","MAREA":" ","LANE":" ","ALLEY":" ","HOUSE_NO":"２６８號","E_COORD97":166641.67000000001,"N_COORD97":2545673.0800000001,"ADDRESS":"大興街２６８號","OBJECTID":211359},"geometry":{"x":166641.66999999993,"y":2545673.0800000019}},{"attributes":{"ID":211361,"DIS_CODE":0,"TOWNNAME":"北區","LI":"大港里","LIN":"9鄰","STREET":"大興街","SECT":" ","MAREA":" ","LANE":" ","ALLEY":" ","HOUSE_NO":"２７０號","E_COORD97":166637.07999999999,"N_COORD97":2545672.54,"ADDRESS":"大興街２７０號","OBJECTID":211360},"geometry":{"x":166637.08000000101,"y":2545672.5399999991}},{"attributes":{"ID":211362,"DIS_CODE":0,"TOWNNAME":"北區","LI":"大港里","LIN":"9鄰","STREET":"大興街","SECT":" ","MAREA":" ","LANE":" ","ALLEY":" ","HOUSE_NO":"２７２號","E_COORD97":166633.04000000001,"N_COORD97":2545671.9700000002,"ADDRESS":"大興街２７２號","OBJECTID":211361},"geometry":{"x":166633.03999999911,"y":2545671.9700000007}},{"attributes":{"ID":211363,"DIS_CODE":0,"TOWNNAME":"西港區","LI":"慶安里","LIN":"35鄰","STREET":"新興街","SECT":" ","MAREA":" ","LANE":" ","ALLEY":" ","HOUSE_NO":"３號之１","E_COORD97":168326.89999999999,"N_COORD97":2557134.02,"ADDRESS":"新興街３號之１","OBJECTID":211362},"geometry":{"x":168326.9000000013,"y":2557134.0199999977}},{"attributes":{"ID":211364,"DIS_CODE":0,"TOWNNAME":"西港區","LI":"慶安里","LIN":"32鄰","STREET":"新興街","SECT":" ","MAREA":" ","LANE":" ","ALLEY":" ","HOUSE_NO":"８號之１００","E_COORD97":168333.67999999999,"N_COORD97":2557581.0600000001,"ADDRESS":"新興街８號之１００","OBJECTID":211363},"geometry":{"x":168333.6799999997,"y":2557581.0600000005}},{"attributes":{"ID":211365,"DIS_CODE":0,"TOWNNAME":"安南區","LI":"海佃里","LIN":"13鄰","STREET":"國安街","SECT":" ","MAREA":" ","LANE":"５６巷","ALLEY":"１３１弄","HOUSE_NO":"１８號","E_COORD97":166882.81,"N_COORD97":2547425.5699999998,"ADDRESS":"國安街５６巷１３１弄１８號","OBJECTID":211364},"geometry":{"x":166882.80999999959,"y":2547425.5700000022}},{"attributes":{"ID":211366,"DIS_CODE":0,"TOWNNAME":"安南區","LI":"海佃里","LIN":"13鄰","STREET":"國安街","SECT":" ","MAREA":" ","LANE":"５６巷","ALLEY":"１３１弄","HOUSE_NO":"１９號","E_COORD97":166881.72,"N_COORD97":2547401.2000000002,"ADDRESS":"國安街５６巷１３１弄１９號","OBJECTID":211365},"geometry":{"x":166881.71999999974,"y":2547401.1999999993}},{"attributes":{"ID":211367,"DIS_CODE":0,"TOWNNAME":"安南區","LI":"海佃里","LIN":"13鄰","STREET":"國安街","SECT":" ","MAREA":" ","LANE":"５６巷","ALLEY":"１３１弄","HOUSE_NO":"１號","E_COORD97":166922.42999999999,"N_COORD97":2547406.4300000002,"ADDRESS":"國安街５６巷１３１弄１號","OBJECTID":211366},"geometry":{"x":166922.43000000063,"y":2547406.4299999997}},{"attributes":{"ID":211368,"DIS_CODE":0,"TOWNNAME":"安南區","LI":"海佃里","LIN":"13鄰","STREET":"國安街","SECT":" ","MAREA":" ","LANE":"５６巷","ALLEY":"１３１弄","HOUSE_NO":"２０號","E_COORD97":166878.87,"N_COORD97":2547425,"ADDRESS":"國安街５６巷１３１弄２０號","OBJECTID":211367},"geometry":{"x":166878.87000000104,"y":2547425.0000000037}},{"attributes":{"ID":211369,"DIS_CODE":0,"TOWNNAME":"仁德區","LI":"上崙里","LIN":"1鄰","STREET":"德崙路","SECT":" ","MAREA":" ","LANE":"７７巷","ALLEY":" ","HOUSE_NO":"８４號一樓之３","E_COORD97":173598.74978000001,"N_COORD97":2538465.4086500001,"ADDRESS":"德崙路７７巷８４號一樓之３","OBJECTID":211368},"geometry":{"x":173598.74978000019,"y":2538465.4086499996}},{"attributes":{"ID":211370,"DIS_CODE":0,"TOWNNAME":"安南區","LI":"海佃里","LIN":"13鄰","STREET":"國安街","SECT":" ","MAREA":" ","LANE":"５６巷","ALLEY":"１３１弄","HOUSE_NO":"２１號","E_COORD97":166876.95999999999,"N_COORD97":2547400.7200000002,"ADDRESS":"國安街５６巷１３１弄２１號","OBJECTID":211369},"geometry":{"x":166876.95999999996,"y":2547400.7200000025}},{"attributes":{"ID":211371,"DIS_CODE":0,"TOWNNAME":"西港區","LI":"慶安里","LIN":"13鄰","STREET":"新興街","SECT":" ","MAREA":" ","LANE":" ","ALLEY":" ","HOUSE_NO":"４９號之３","E_COORD97":168110.98999999999,"N_COORD97":2557949.8599999999,"ADDRESS":"新興街４９號之３","OBJECTID":211370},"geometry":{"x":168110.99000000115,"y":2557949.8600000013}},{"attributes":{"ID":211372,"DIS_CODE":0,"TOWNNAME":"西港區","LI":"慶安里","LIN":"13鄰","STREET":"新興街","SECT":" ","MAREA":" ","LANE":" ","ALLEY":" ","HOUSE_NO":"４９號","E_COORD97":168111.34,"N_COORD97":2557963.5499999998,"ADDRESS":"新興街４９號","OBJECTID":211371},"geometry":{"x":168111.34000000078,"y":2557963.5500000026}},{"attributes":{"ID":211373,"DIS_CODE":0,"TOWNNAME":"西港區","LI":"慶安里","LIN":"13鄰","STREET":"新興街","SECT":" ","MAREA":" ","LANE":" ","ALLEY":" ","HOUSE_NO":"５１號","E_COORD97":168137.76999999999,"N_COORD97":2557957.6200000001,"ADDRESS":"新興街５１號","OBJECTID":211372},"geometry":{"x":168137.76999999955,"y":2557957.620000001}},{"attributes":{"ID":211374,"DIS_CODE":0,"TOWNNAME":"西港區","LI":"慶安里","LIN":"13鄰","STREET":"新興街","SECT":" ","MAREA":" ","LANE":" ","ALLEY":" ","HOUSE_NO":"５３號","E_COORD97":168148.56,"N_COORD97":2557952.4900000002,"ADDRESS":"新興街５３號","OBJECTID":211373},"geometry":{"x":168148.56000000052,"y":2557952.4900000039}},{"attributes":{"ID":211375,"DIS_CODE":0,"TOWNNAME":"西港區","LI":"慶安里","LIN":"13鄰","STREET":"新興街","SECT":" ","MAREA":" ","LANE":" ","ALLEY":" ","HOUSE_NO":"５５號","E_COORD97":168162.06,"N_COORD97":2557967.2400000002,"ADDRESS":"新興街５５號","OBJECTID":211374},"geometry":{"x":168162.06000000052,"y":2557967.2399999984}},{"attributes":{"ID":211376,"DIS_CODE":0,"TOWNNAME":"安南區","LI":"海佃里","LIN":"13鄰","STREET":"國安街","SECT":" ","MAREA":" ","LANE":"５６巷","ALLEY":"１３１弄","HOUSE_NO":"２２號","E_COORD97":166873.39000000001,"N_COORD97":2547424.6400000001,"ADDRESS":"國安街５６巷１３１弄２２號","OBJECTID":211375},"geometry":{"x":166873.3900000006,"y":2547424.6400000043}},{"attributes":{"ID":211377,"DIS_CODE":0,"TOWNNAME":"安南區","LI":"海佃里","LIN":"13鄰","STREET":"國安街","SECT":" ","MAREA":" ","LANE":"５６巷","ALLEY":"１３１弄","HOUSE_NO":"２３號","E_COORD97":166873.14999999999,"N_COORD97":2547399.5299999998,"ADDRESS":"國安街５６巷１３１弄２３號","OBJECTID":211376},"geometry":{"x":166873.15000000037,"y":2547399.5299999993}},{"attributes":{"ID":211378,"DIS_CODE":0,"TOWNNAME":"安南區","LI":"海佃里","LIN":"13鄰","STREET":"國安街","SECT":" ","MAREA":" ","LANE":"５６巷","ALLEY":"１３１弄","HOUSE_NO":"２４號","E_COORD97":166869,"N_COORD97":2547423.54,"ADDRESS":"國安街５６巷１３１弄２４號","OBJECTID":211377},"geometry":{"x":166869.00000000186,"y":2547423.5400000028}},{"attributes":{"ID":211379,"DIS_CODE":0,"TOWNNAME":"安南區","LI":"海佃里","LIN":"13鄰","STREET":"國安街","SECT":" ","MAREA":" ","LANE":"５６巷","ALLEY":"１３１弄","HOUSE_NO":"２５號","E_COORD97":166868.63,"N_COORD97":2547399.0600000001,"ADDRESS":"國安街５６巷１３１弄２５號","OBJECTID":211378},"geometry":{"x":166868.63000000082,"y":2547399.0600000024}},{"attributes":{"ID":211380,"DIS_CODE":0,"TOWNNAME":"安南區","LI":"海佃里","LIN":"13鄰","STREET":"國安街","SECT":" ","MAREA":" ","LANE":"５６巷","ALLEY":"１３１弄","HOUSE_NO":"２６號","E_COORD97":166864.98999999999,"N_COORD97":2547422.8100000001,"ADDRESS":"國安街５６巷１３１弄２６號","OBJECTID":211379},"geometry":{"x":166864.99000000115,"y":2547422.8100000005}},{"attributes":{"ID":211381,"DIS_CODE":0,"TOWNNAME":"安南區","LI":"海佃里","LIN":"13鄰","STREET":"國安街","SECT":" ","MAREA":" ","LANE":"５６巷","ALLEY":"１３１弄","HOUSE_NO":"２７號","E_COORD97":166864.10999999999,"N_COORD97":2547398.8199999998,"ADDRESS":"國安街５６巷１３１弄２７號","OBJECTID":211380},"geometry":{"x":166864.11000000127,"y":2547398.8200000003}},{"attributes":{"ID":211382,"DIS_CODE":0,"TOWNNAME":"安南區","LI":"海佃里","LIN":"13鄰","STREET":"國安街","SECT":" ","MAREA":" ","LANE":"５６巷","ALLEY":"１３１弄","HOUSE_NO":"２８號","E_COORD97":166859.14000000001,"N_COORD97":2547422.0800000001,"ADDRESS":"國安街５６巷１３１弄２８號","OBJECTID":211381},"geometry":{"x":166859.13999999873,"y":2547422.0800000019}},{"attributes":{"ID":211383,"DIS_CODE":0,"TOWNNAME":"安南區","LI":"海佃里","LIN":"13鄰","STREET":"國安街","SECT":" ","MAREA":" ","LANE":"５６巷","ALLEY":"１３１弄","HOUSE_NO":"２９號","E_COORD97":166859.57999999999,"N_COORD97":2547397.8700000001,"ADDRESS":"國安街５６巷１３１弄２９號","OBJECTID":211382},"geometry":{"x":166859.58000000007,"y":2547397.8700000029}},{"attributes":{"ID":211384,"DIS_CODE":0,"TOWNNAME":"安南區","LI":"海佃里","LIN":"13鄰","STREET":"國安街","SECT":" ","MAREA":" ","LANE":"５６巷","ALLEY":"１３１弄","HOUSE_NO":"２號","E_COORD97":166917.73000000001,"N_COORD97":2547432.5499999998,"ADDRESS":"國安街５６巷１３１弄２號","OBJECTID":211383},"geometry":{"x":166917.73000000138,"y":2547432.5500000026}},{"attributes":{"ID":211385,"DIS_CODE":0,"TOWNNAME":"西港區","LI":"慶安里","LIN":"13鄰","STREET":"新興街","SECT":" ","MAREA":" ","LANE":" ","ALLEY":" ","HOUSE_NO":"５７號","E_COORD97":168175.35000000001,"N_COORD97":2557950.0600000001,"ADDRESS":"新興街５７號","OBJECTID":211384},"geometry":{"x":168175.35000000056,"y":2557950.0600000024}},{"attributes":{"ID":211386,"DIS_CODE":0,"TOWNNAME":"後壁區","LI":"墨林里","LIN":"2鄰","STREET":" ","SECT":" ","MAREA":"菁寮","LANE":" ","ALLEY":" ","HOUSE_NO":"１５５號","E_COORD97":182141.78,"N_COORD97":2586726.2799999998,"ADDRESS":"菁寮１５５號","OBJECTID":211385},"geometry":{"x":182141.78000000119,"y":2586726.2799999993}},{"attributes":{"ID":211387,"DIS_CODE":0,"TOWNNAME":"後壁區","LI":"墨林里","LIN":"2鄰","STREET":" ","SECT":" ","MAREA":"菁寮","LANE":" ","ALLEY":" ","HOUSE_NO":"１５６號","E_COORD97":182138.07999999999,"N_COORD97":2586711.77,"ADDRESS":"菁寮１５６號","OBJECTID":211386},"geometry":{"x":182138.08000000007,"y":2586711.7700000014}},{"attributes":{"ID":211388,"DIS_CODE":0,"TOWNNAME":"後壁區","LI":"墨林里","LIN":"2鄰","STREET":" ","SECT":" ","MAREA":"菁寮","LANE":" ","ALLEY":" ","HOUSE_NO":"１５８號之１","E_COORD97":182153.26999999999,"N_COORD97":2586678.6899999999,"ADDRESS":"菁寮１５８號之１","OBJECTID":211387},"geometry":{"x":182153.26999999955,"y":2586678.6899999995}},{"attributes":{"ID":211389,"DIS_CODE":0,"TOWNNAME":"後壁區","LI":"墨林里","LIN":"2鄰","STREET":" ","SECT":" ","MAREA":"菁寮","LANE":" ","ALLEY":" ","HOUSE_NO":"１５９號","E_COORD97":182162.12,"N_COORD97":2586708.8599999999,"ADDRESS":"菁寮１５９號","OBJECTID":211388},"geometry":{"x":182162.12000000011,"y":2586708.8599999994}},{"attributes":{"ID":211390,"DIS_CODE":0,"TOWNNAME":"後壁區","LI":"墨林里","LIN":"2鄰","STREET":" ","SECT":" ","MAREA":"菁寮","LANE":" ","ALLEY":" ","HOUSE_NO":"１６０號之１附１","E_COORD97":182181.79999999999,"N_COORD97":2586669.8999999999,"ADDRESS":"菁寮１６０號之１附１","OBJECTID":211389},"geometry":{"x":182181.80000000075,"y":2586669.9000000022}},{"attributes":{"ID":211391,"DIS_CODE":0,"TOWNNAME":"北區","LI":"大港里","LIN":"9鄰","STREET":"大興街","SECT":" ","MAREA":" ","LANE":" ","ALLEY":" ","HOUSE_NO":"２７６號","E_COORD97":166624.32999999999,"N_COORD97":2545671.54,"ADDRESS":"大興街２７６號","OBJECTID":211390},"geometry":{"x":166624.32999999914,"y":2545671.540000001}},{"attributes":{"ID":211392,"DIS_CODE":0,"TOWNNAME":"北區","LI":"大港里","LIN":"9鄰","STREET":"大興街","SECT":" ","MAREA":" ","LANE":" ","ALLEY":" ","HOUSE_NO":"２７８號","E_COORD97":166619.25,"N_COORD97":2545671.8500000001,"ADDRESS":"大興街２７８號","OBJECTID":211391},"geometry":{"x":166619.25,"y":2545671.8499999996}},{"attributes":{"ID":211393,"DIS_CODE":0,"TOWNNAME":"永康區","LI":"南灣里","LIN":" ","STREET":"立興街","SECT":" ","MAREA":" ","LANE":" ","ALLEY":" ","HOUSE_NO":"６２號","E_COORD97":174577.91,"N_COORD97":2544837.1299999999,"ADDRESS":"立興街６２號","OBJECTID":211392},"geometry":{"x":174577.91000000201,"y":2544837.1300000008}},{"attributes":{"ID":211394,"DIS_CODE":0,"TOWNNAME":"西港區","LI":"慶安里","LIN":"13鄰","STREET":"新興街","SECT":" ","MAREA":" ","LANE":" ","ALLEY":" ","HOUSE_NO":"５９號","E_COORD97":168175.04999999999,"N_COORD97":2557954.9100000001,"ADDRESS":"新興街５９號","OBJECTID":211393},"geometry":{"x":168175.04999999981,"y":2557954.9100000001}},{"attributes":{"ID":211395,"DIS_CODE":0,"TOWNNAME":"西港區","LI":"慶安里","LIN":"13鄰","STREET":"新興街","SECT":" ","MAREA":" ","LANE":" ","ALLEY":" ","HOUSE_NO":"６１號","E_COORD97":168176.35999999999,"N_COORD97":2557968.6600000001,"ADDRESS":"新興街６１號","OBJECTID":211394},"geometry":{"x":168176.36000000127,"y":2557968.660000002}},{"attributes":{"ID":211396,"DIS_CODE":0,"TOWNNAME":"永康區","LI":"南灣里","LIN":"18鄰","STREET":"立興街","SECT":" ","MAREA":" ","LANE":" ","ALLEY":" ","HOUSE_NO":"１４８號之２","E_COORD97":174371,"N_COORD97":2544666.4900000002,"ADDRESS":"立興街１４８號之２","OBJECTID":211395},"geometry":{"x":174371.00000000093,"y":2544666.4900000021}},{"attributes":{"ID":211397,"DIS_CODE":0,"TOWNNAME":"永康區","LI":"東灣里","LIN":"25鄰","STREET":"大灣二街","SECT":" ","MAREA":" ","LANE":" ","ALLEY":" ","HOUSE_NO":"７９號","E_COORD97":174789.59,"N_COORD97":2544756.2000000002,"ADDRESS":"大灣二街７９號","OBJECTID":211396},"geometry":{"x":174789.58999999985,"y":2544756.1999999993}},{"attributes":{"ID":211398,"DIS_CODE":0,"TOWNNAME":"永康區","LI":"南灣里","LIN":"17鄰","STREET":"大灣路","SECT":" ","MAREA":" ","LANE":" ","ALLEY":" ","HOUSE_NO":"６６８號","E_COORD97":174425.16,"N_COORD97":2544593.3500000001,"ADDRESS":"大灣路６６８號","OBJECTID":211397},"geometry":{"x":174425.15999999922,"y":2544593.3499999996}},{"attributes":{"ID":211399,"DIS_CODE":0,"TOWNNAME":"安南區","LI":"海佃里","LIN":"13鄰","STREET":"國安街","SECT":" ","MAREA":" ","LANE":"５６巷","ALLEY":"１３１弄","HOUSE_NO":"３０號","E_COORD97":166856.59,"N_COORD97":2547421.7200000002,"ADDRESS":"國安街５６巷１３１弄３０號","OBJECTID":211398},"geometry":{"x":166856.59000000078,"y":2547421.7200000025}},{"attributes":{"ID":211400,"DIS_CODE":0,"TOWNNAME":"安南區","LI":"海佃里","LIN":"13鄰","STREET":"國安街","SECT":" ","MAREA":" ","LANE":"５６巷","ALLEY":"１３１弄","HOUSE_NO":"３１號","E_COORD97":166856.48999999999,"N_COORD97":2547397.6299999999,"ADDRESS":"國安街５６巷１３１弄３１號","OBJECTID":211399},"geometry":{"x":166856.49000000115,"y":2547397.629999999}},{"attributes":{"ID":211401,"DIS_CODE":0,"TOWNNAME":"安南區","LI":"海佃里","LIN":"13鄰","STREET":"國安街","SECT":" ","MAREA":" ","LANE":"５６巷","ALLEY":"１３１弄","HOUSE_NO":"３２號","E_COORD97":166852.20000000001,"N_COORD97":2547420.9900000002,"ADDRESS":"國安街５６巷１３１弄３２號","OBJECTID":211400},"geometry":{"x":166852.20000000019,"y":2547420.9900000002}}]}