{"displayFieldName":"TOWNNAME","fieldAliases":{"ID":"ID","DIS_CODE":"DIS_CODE","TOWNNAME":"TOWNNAME","LI":"LI","LIN":"LIN","STREET":"STREET","SECT":"SECT","MAREA":"MAREA","LANE":"LANE","ALLEY":"ALLEY","HOUSE_NO":"HOUSE_NO","E_COORD97":"E_COORD97","N_COORD97":"N_COORD97","ADDRESS":"ADDRESS","OBJECTID":"OBJECTID"},"geometryType":"esriGeometryPoint","spatialReference":{"wkid":102443,"latestWkid":3826},"fields":[{"name":"ID","type":"esriFieldTypeDouble","alias":"ID"},{"name":"DIS_CODE","type":"esriFieldTypeInteger","alias":"DIS_CODE"},{"name":"TOWNNAME","type":"esriFieldTypeString","alias":"TOWNNAME","length":8},{"name":"LI","type":"esriFieldTypeString","alias":"LI","length":8},{"name":"LIN","type":"esriFieldTypeString","alias":"LIN","length":12},{"name":"STREET","type":"esriFieldTypeString","alias":"STREET","length":20},{"name":"SECT","type":"esriFieldTypeString","alias":"SECT","length":8},{"name":"MAREA","type":"esriFieldTypeString","alias":"MAREA","length":12},{"name":"LANE","type":"esriFieldTypeString","alias":"LANE","length":10},{"name":"ALLEY","type":"esriFieldTypeString","alias":"ALLEY","length":10},{"name":"HOUSE_NO","type":"esriFieldTypeString","alias":"HOUSE_NO","length":20},{"name":"E_COORD97","type":"esriFieldTypeDouble","alias":"E_COORD97"},{"name":"N_COORD97","type":"esriFieldTypeDouble","alias":"N_COORD97"},{"name":"ADDRESS","type":"esriFieldTypeString","alias":"ADDRESS","length":50},{"name":"OBJECTID","type":"esriFieldTypeOID","alias":"OBJECTID"}],"features":[{"attributes":{"ID":67201,"DIS_CODE":0,"TOWNNAME":"大內區","LI":"二溪里","LIN":"7鄰","STREET":" ","SECT":" ","MAREA":"二重溪","LANE":" ","ALLEY":" ","HOUSE_NO":"２０５號之１","E_COORD97":189572.57999999999,"N_COORD97":2559503.3100000001,"ADDRESS":"二重溪２０５號之１","OBJECTID":67201},"geometry":{"x":189572.58000000101,"y":2559503.3100000042}},{"attributes":{"ID":67202,"DIS_CODE":0,"TOWNNAME":"大內區","LI":"內郭里","LIN":"7鄰","STREET":" ","SECT":" ","MAREA":"後堀","LANE":" ","ALLEY":" ","HOUSE_NO":"２號之１０","E_COORD97":185505.25,"N_COORD97":2557926.3199999998,"ADDRESS":"後堀２號之１０","OBJECTID":67202},"geometry":{"x":185505.25,"y":2557926.320000004}},{"attributes":{"ID":67203,"DIS_CODE":0,"TOWNNAME":"大內區","LI":"內江里","LIN":"7鄰","STREET":" ","SECT":" ","MAREA":"內庄","LANE":" ","ALLEY":" ","HOUSE_NO":"２８５號之１","E_COORD97":184420.81,"N_COORD97":2557500.2999999998,"ADDRESS":"內庄２８５號之１","OBJECTID":67203},"geometry":{"x":184420.81000000052,"y":2557500.3000000026}},{"attributes":{"ID":67204,"DIS_CODE":0,"TOWNNAME":"大內區","LI":"大內里","LIN":"7鄰","STREET":" ","SECT":" ","MAREA":"內庄","LANE":" ","ALLEY":" ","HOUSE_NO":"８２號","E_COORD97":184776.13,"N_COORD97":2557634.25,"ADDRESS":"內庄８２號","OBJECTID":67204},"geometry":{"x":184776.13000000175,"y":2557634.25}},{"attributes":{"ID":67205,"DIS_CODE":0,"TOWNNAME":"大內區","LI":"大內里","LIN":"7鄰","STREET":" ","SECT":" ","MAREA":"內庄","LANE":" ","ALLEY":" ","HOUSE_NO":"８３號","E_COORD97":184759.63,"N_COORD97":2557624.25,"ADDRESS":"內庄８３號","OBJECTID":67205},"geometry":{"x":184759.63000000082,"y":2557624.25}},{"attributes":{"ID":67206,"DIS_CODE":0,"TOWNNAME":"大內區","LI":"內江里","LIN":"7鄰","STREET":" ","SECT":" ","MAREA":"內庄","LANE":" ","ALLEY":" ","HOUSE_NO":"２８９號之１６","E_COORD97":184475.87,"N_COORD97":2557088.2999999998,"ADDRESS":"內庄２８９號之１６","OBJECTID":67206},"geometry":{"x":184475.87000000011,"y":2557088.3000000007}},{"attributes":{"ID":67207,"DIS_CODE":0,"TOWNNAME":"大內區","LI":"內江里","LIN":"7鄰","STREET":" ","SECT":" ","MAREA":"內庄","LANE":" ","ALLEY":" ","HOUSE_NO":"２８５號之３３","E_COORD97":184359.95999999999,"N_COORD97":2557456.2999999998,"ADDRESS":"內庄２８５號之３３","OBJECTID":67207},"geometry":{"x":184359.95999999996,"y":2557456.3000000026}},{"attributes":{"ID":67208,"DIS_CODE":0,"TOWNNAME":"大內區","LI":"內江里","LIN":"7鄰","STREET":" ","SECT":" ","MAREA":"內庄","LANE":" ","ALLEY":" ","HOUSE_NO":"２８６號之１","E_COORD97":184464.70999999999,"N_COORD97":2557464.2999999998,"ADDRESS":"內庄２８６號之１","OBJECTID":67208},"geometry":{"x":184464.70999999996,"y":2557464.3000000007}},{"attributes":{"ID":67209,"DIS_CODE":0,"TOWNNAME":"大內區","LI":"石城里","LIN":"7鄰","STREET":" ","SECT":" ","MAREA":"石子瀨","LANE":" ","ALLEY":" ","HOUSE_NO":"６８之３號","E_COORD97":184214.85000000001,"N_COORD97":2557942.1200000001,"ADDRESS":"石子瀨６８之３號","OBJECTID":67209},"geometry":{"x":184214.85000000149,"y":2557942.1200000048}},{"attributes":{"ID":67210,"DIS_CODE":0,"TOWNNAME":"新市區","LI":"大社里","LIN":"35鄰","STREET":" ","SECT":" ","MAREA":"大社","LANE":" ","ALLEY":" ","HOUSE_NO":"５８９之７２號","E_COORD97":179356.42999999999,"N_COORD97":2554579.7999999998,"ADDRESS":"大社５８９之７２號","OBJECTID":67210},"geometry":{"x":179356.43000000063,"y":2554579.8000000007}},{"attributes":{"ID":67211,"DIS_CODE":0,"TOWNNAME":"新市區","LI":"大社里","LIN":"35鄰","STREET":" ","SECT":" ","MAREA":"大社","LANE":" ","ALLEY":" ","HOUSE_NO":"５８９之８０號","E_COORD97":179377.79000000001,"N_COORD97":2554597.0499999998,"ADDRESS":"大社５８９之８０號","OBJECTID":67211},"geometry":{"x":179377.79000000097,"y":2554597.0500000026}},{"attributes":{"ID":67212,"DIS_CODE":0,"TOWNNAME":"新市區","LI":"大社里","LIN":"35鄰","STREET":" ","SECT":" ","MAREA":"大社","LANE":" ","ALLEY":" ","HOUSE_NO":"５８９之１０號","E_COORD97":179293.87,"N_COORD97":2554525.7999999998,"ADDRESS":"大社５８９之１０號","OBJECTID":67212},"geometry":{"x":179293.87000000011,"y":2554525.8000000007}},{"attributes":{"ID":67213,"DIS_CODE":0,"TOWNNAME":"安南區","LI":"原佃里","LIN":"6鄰","STREET":"本原街","SECT":"一段","MAREA":" ","LANE":"１９５巷","ALLEY":"８０弄","HOUSE_NO":"１８號","E_COORD97":167613.57000000001,"N_COORD97":2550200.3399999999,"ADDRESS":"本原街一段１９５巷８０弄１８號","OBJECTID":67213},"geometry":{"x":167613.57000000123,"y":2550200.3400000017}},{"attributes":{"ID":67214,"DIS_CODE":0,"TOWNNAME":"安南區","LI":"原佃里","LIN":"6鄰","STREET":"本原街","SECT":"一段","MAREA":" ","LANE":"１９５巷","ALLEY":"８０弄","HOUSE_NO":"１９號","E_COORD97":167584.35999999999,"N_COORD97":2550206.6699999999,"ADDRESS":"本原街一段１９５巷８０弄１９號","OBJECTID":67214},"geometry":{"x":167584.36000000127,"y":2550206.6699999999}},{"attributes":{"ID":67215,"DIS_CODE":0,"TOWNNAME":"中西區","LI":"文賢里","LIN":"7鄰","STREET":"文和街","SECT":" ","MAREA":" ","LANE":" ","ALLEY":" ","HOUSE_NO":"１７０號","E_COORD97":167011.01000000001,"N_COORD97":2544737.1299999999,"ADDRESS":"文和街１７０號","OBJECTID":67215},"geometry":{"x":167011.00999999885,"y":2544737.129999999}},{"attributes":{"ID":67216,"DIS_CODE":0,"TOWNNAME":"仁德區","LI":"保安里","LIN":" ","STREET":"文賢路","SECT":"一段","MAREA":" ","LANE":" ","ALLEY":" ","HOUSE_NO":"８３５號","E_COORD97":171614.35999999999,"N_COORD97":2536025.8199999998,"ADDRESS":"文賢路一段８３５號","OBJECTID":67216},"geometry":{"x":171614.36000000034,"y":2536025.8200000022}},{"attributes":{"ID":67217,"DIS_CODE":0,"TOWNNAME":"仁德區","LI":"上崙里","LIN":"23鄰","STREET":"德崙路","SECT":" ","MAREA":" ","LANE":" ","ALLEY":" ","HOUSE_NO":"１９２號","E_COORD97":173628.98999999999,"N_COORD97":2538297.54,"ADDRESS":"德崙路１９２號","OBJECTID":67217},"geometry":{"x":173628.99000000022,"y":2538297.540000001}},{"attributes":{"ID":67218,"DIS_CODE":0,"TOWNNAME":"仁德區","LI":"成功里","LIN":" ","STREET":"成功二街","SECT":" ","MAREA":" ","LANE":" ","ALLEY":" ","HOUSE_NO":"１５２之１號","E_COORD97":170897.39999999999,"N_COORD97":2539670.04,"ADDRESS":"成功二街１５２之１號","OBJECTID":67218},"geometry":{"x":170897.40000000037,"y":2539670.0400000028}},{"attributes":{"ID":67219,"DIS_CODE":0,"TOWNNAME":"仁德區","LI":"上崙里","LIN":"13鄰","STREET":"德崙路","SECT":" ","MAREA":" ","LANE":" ","ALLEY":" ","HOUSE_NO":"４１８之３號","E_COORD97":174159.73999999999,"N_COORD97":2538078.7599999998,"ADDRESS":"德崙路４１８之３號","OBJECTID":67219},"geometry":{"x":174159.74000000022,"y":2538078.7599999979}},{"attributes":{"ID":67220,"DIS_CODE":0,"TOWNNAME":"仁德區","LI":"土庫里","LIN":" ","STREET":"土庫路","SECT":" ","MAREA":" ","LANE":" ","ALLEY":" ","HOUSE_NO":"１３８號","E_COORD97":174334.44,"N_COORD97":2542970.9900000002,"ADDRESS":"土庫路１３８號","OBJECTID":67220},"geometry":{"x":174334.44000000134,"y":2542970.9900000021}},{"attributes":{"ID":67221,"DIS_CODE":0,"TOWNNAME":"仁德區","LI":"田厝里","LIN":" ","STREET":"中正路","SECT":"一段","MAREA":" ","LANE":" ","ALLEY":" ","HOUSE_NO":"５１７號","E_COORD97":172844.37,"N_COORD97":2537563.27,"ADDRESS":"中正路一段５１７號","OBJECTID":67221},"geometry":{"x":172844.37000000104,"y":2537563.2700000033}},{"attributes":{"ID":67222,"DIS_CODE":0,"TOWNNAME":"仁德區","LI":"上崙里","LIN":" ","STREET":"上崙街","SECT":" ","MAREA":" ","LANE":" ","ALLEY":" ","HOUSE_NO":"４號","E_COORD97":173794.04999999999,"N_COORD97":2538140.25,"ADDRESS":"上崙街４號","OBJECTID":67222},"geometry":{"x":173794.05000000075,"y":2538140.2500000037}},{"attributes":{"ID":67223,"DIS_CODE":0,"TOWNNAME":"仁德區","LI":"保安里","LIN":" ","STREET":"開發七路","SECT":" ","MAREA":" ","LANE":" ","ALLEY":" ","HOUSE_NO":"５號","E_COORD97":173285.73999999999,"N_COORD97":2535870.77,"ADDRESS":"開發七路５號","OBJECTID":67223},"geometry":{"x":173285.74000000209,"y":2535870.7699999996}},{"attributes":{"ID":67224,"DIS_CODE":0,"TOWNNAME":"仁德區","LI":"成功里","LIN":" ","STREET":"成功一街","SECT":" ","MAREA":" ","LANE":" ","ALLEY":" ","HOUSE_NO":"６１號","E_COORD97":170535.76000000001,"N_COORD97":2540073.7599999998,"ADDRESS":"成功一街６１號","OBJECTID":67224},"geometry":{"x":170535.76000000071,"y":2540073.7600000016}},{"attributes":{"ID":67225,"DIS_CODE":0,"TOWNNAME":"安南區","LI":"原佃里","LIN":"6鄰","STREET":"本原街","SECT":"一段","MAREA":" ","LANE":"１９５巷","ALLEY":"８０弄","HOUSE_NO":"１號","E_COORD97":167579.12,"N_COORD97":2550171.7200000002,"ADDRESS":"本原街一段１９５巷８０弄１號","OBJECTID":67225},"geometry":{"x":167579.12000000104,"y":2550171.7200000025}},{"attributes":{"ID":67226,"DIS_CODE":0,"TOWNNAME":"安南區","LI":"原佃里","LIN":"6鄰","STREET":"本原街","SECT":"一段","MAREA":" ","LANE":"１９５巷","ALLEY":"８０弄","HOUSE_NO":"２０號","E_COORD97":167614.12,"N_COORD97":2550203.6400000001,"ADDRESS":"本原街一段１９５巷８０弄２０號","OBJECTID":67226},"geometry":{"x":167614.11999999918,"y":2550203.6400000006}},{"attributes":{"ID":67227,"DIS_CODE":0,"TOWNNAME":"安南區","LI":"原佃里","LIN":"6鄰","STREET":"本原街","SECT":"一段","MAREA":" ","LANE":"１９５巷","ALLEY":"８０弄","HOUSE_NO":"２１號","E_COORD97":167585.17999999999,"N_COORD97":2550210.25,"ADDRESS":"本原街一段１９５巷８０弄２１號","OBJECTID":67227},"geometry":{"x":167585.18000000063,"y":2550210.2500000037}},{"attributes":{"ID":67228,"DIS_CODE":0,"TOWNNAME":"安南區","LI":"原佃里","LIN":"6鄰","STREET":"本原街","SECT":"一段","MAREA":" ","LANE":"１９５巷","ALLEY":"８０弄","HOUSE_NO":"２２號","E_COORD97":167614.39000000001,"N_COORD97":2550208.3199999998,"ADDRESS":"本原街一段１９５巷８０弄２２號","OBJECTID":67228},"geometry":{"x":167614.3900000006,"y":2550208.3200000003}},{"attributes":{"ID":67229,"DIS_CODE":0,"TOWNNAME":"安南區","LI":"原佃里","LIN":"6鄰","STREET":"本原街","SECT":"一段","MAREA":" ","LANE":"１９５巷","ALLEY":"８０弄","HOUSE_NO":"２４號","E_COORD97":167614.39000000001,"N_COORD97":2550211.8999999999,"ADDRESS":"本原街一段１９５巷８０弄２４號","OBJECTID":67229},"geometry":{"x":167614.3900000006,"y":2550211.9000000004}},{"attributes":{"ID":67230,"DIS_CODE":0,"TOWNNAME":"安南區","LI":"原佃里","LIN":"6鄰","STREET":"本原街","SECT":"一段","MAREA":" ","LANE":"１９５巷","ALLEY":"８０弄","HOUSE_NO":"２５號","E_COORD97":167586.01000000001,"N_COORD97":2550217.9500000002,"ADDRESS":"本原街一段１９５巷８０弄２５號","OBJECTID":67230},"geometry":{"x":167586.01000000071,"y":2550217.950000003}},{"attributes":{"ID":67231,"DIS_CODE":0,"TOWNNAME":"安南區","LI":"原佃里","LIN":"6鄰","STREET":"本原街","SECT":"一段","MAREA":" ","LANE":"１９５巷","ALLEY":"８０弄","HOUSE_NO":"２６號","E_COORD97":167615.22,"N_COORD97":2550215.2000000002,"ADDRESS":"本原街一段１９５巷８０弄２６號","OBJECTID":67231},"geometry":{"x":167615.22000000067,"y":2550215.1999999993}},{"attributes":{"ID":67232,"DIS_CODE":0,"TOWNNAME":"安南區","LI":"原佃里","LIN":"6鄰","STREET":"本原街","SECT":"一段","MAREA":" ","LANE":"１９５巷","ALLEY":"８０弄","HOUSE_NO":"２７號","E_COORD97":167586.84,"N_COORD97":2550222.3599999999,"ADDRESS":"本原街一段１９５巷８０弄２７號","OBJECTID":67232},"geometry":{"x":167586.83999999985,"y":2550222.3600000031}},{"attributes":{"ID":67233,"DIS_CODE":0,"TOWNNAME":"安南區","LI":"原佃里","LIN":"6鄰","STREET":"本原街","SECT":"一段","MAREA":" ","LANE":"１９５巷","ALLEY":"８０弄","HOUSE_NO":"２８號","E_COORD97":167614.95000000001,"N_COORD97":2550219.8799999999,"ADDRESS":"本原街一段１９５巷８０弄２８號","OBJECTID":67233},"geometry":{"x":167614.95000000019,"y":2550219.879999999}},{"attributes":{"ID":67234,"DIS_CODE":0,"TOWNNAME":"安南區","LI":"原佃里","LIN":"6鄰","STREET":"本原街","SECT":"一段","MAREA":" ","LANE":"１９５巷","ALLEY":"８０弄","HOUSE_NO":"２９號","E_COORD97":167587.67000000001,"N_COORD97":2550227.5899999999,"ADDRESS":"本原街一段１９５巷８０弄２９號","OBJECTID":67234},"geometry":{"x":167587.66999999993,"y":2550227.5899999999}},{"attributes":{"ID":67235,"DIS_CODE":0,"TOWNNAME":"安南區","LI":"原佃里","LIN":"6鄰","STREET":"本原街","SECT":"一段","MAREA":" ","LANE":"１９５巷","ALLEY":"８０弄","HOUSE_NO":"３０號","E_COORD97":167615.5,"N_COORD97":2550223.73,"ADDRESS":"本原街一段１９５巷８０弄３０號","OBJECTID":67235},"geometry":{"x":167615.50000000093,"y":2550223.7300000004}},{"attributes":{"ID":67236,"DIS_CODE":0,"TOWNNAME":"安南區","LI":"原佃里","LIN":"6鄰","STREET":"本原街","SECT":"一段","MAREA":" ","LANE":"１９５巷","ALLEY":"８０弄","HOUSE_NO":"３１號","E_COORD97":167588.22,"N_COORD97":2550230.3399999999,"ADDRESS":"本原街一段１９５巷８０弄３１號","OBJECTID":67236},"geometry":{"x":167588.22000000067,"y":2550230.3400000017}},{"attributes":{"ID":67237,"DIS_CODE":0,"TOWNNAME":"安南區","LI":"原佃里","LIN":"6鄰","STREET":"本原街","SECT":"一段","MAREA":" ","LANE":"１９５巷","ALLEY":"８０弄","HOUSE_NO":"３２號","E_COORD97":167614.67000000001,"N_COORD97":2550227.5899999999,"ADDRESS":"本原街一段１９５巷８０弄３２號","OBJECTID":67237},"geometry":{"x":167614.66999999993,"y":2550227.5899999999}},{"attributes":{"ID":67238,"DIS_CODE":0,"TOWNNAME":"安南區","LI":"原佃里","LIN":"6鄰","STREET":"本原街","SECT":"一段","MAREA":" ","LANE":"１９５巷","ALLEY":"８０弄","HOUSE_NO":"３３號","E_COORD97":167577.75,"N_COORD97":2550227.1400000001,"ADDRESS":"本原街一段１９５巷８０弄３３號","OBJECTID":67238},"geometry":{"x":167577.75000000093,"y":2550227.1400000006}},{"attributes":{"ID":67239,"DIS_CODE":0,"TOWNNAME":"新市區","LI":"新和里","LIN":"7鄰","STREET":"信義街","SECT":" ","MAREA":" ","LANE":" ","ALLEY":" ","HOUSE_NO":"９之７號","E_COORD97":177234.29000000001,"N_COORD97":2552542.8100000001,"ADDRESS":"信義街９之７號","OBJECTID":67239},"geometry":{"x":177234.29000000004,"y":2552542.8100000042}},{"attributes":{"ID":67240,"DIS_CODE":0,"TOWNNAME":"仁德區","LI":"成功里","LIN":" ","STREET":"保生路","SECT":" ","MAREA":" ","LANE":" ","ALLEY":" ","HOUSE_NO":"１１２號","E_COORD97":170606.79999999999,"N_COORD97":2539840.2400000002,"ADDRESS":"保生路１１２號","OBJECTID":67240},"geometry":{"x":170606.80000000075,"y":2539840.2400000021}},{"attributes":{"ID":67241,"DIS_CODE":0,"TOWNNAME":"仁德區","LI":"田厝里","LIN":" ","STREET":"中正路","SECT":"一段","MAREA":" ","LANE":" ","ALLEY":" ","HOUSE_NO":"５１９號","E_COORD97":172845.67999999999,"N_COORD97":2537568.27,"ADDRESS":"中正路一段５１９號","OBJECTID":67241},"geometry":{"x":172845.6799999997,"y":2537568.2700000014}},{"attributes":{"ID":67242,"DIS_CODE":0,"TOWNNAME":"仁德區","LI":"田厝里","LIN":" ","STREET":"中正路","SECT":"一段","MAREA":" ","LANE":" ","ALLEY":" ","HOUSE_NO":"５３９號","E_COORD97":172866.17999999999,"N_COORD97":2537633.7799999998,"ADDRESS":"中正路一段５３９號","OBJECTID":67242},"geometry":{"x":172866.1799999997,"y":2537633.7799999993}},{"attributes":{"ID":67243,"DIS_CODE":0,"TOWNNAME":"新市區","LI":"大社里","LIN":"35鄰","STREET":" ","SECT":" ","MAREA":"大社","LANE":" ","ALLEY":" ","HOUSE_NO":"５８９之５５號","E_COORD97":179348.70999999999,"N_COORD97":2554591.5499999998,"ADDRESS":"大社５８９之５５號","OBJECTID":67243},"geometry":{"x":179348.70999999996,"y":2554591.5500000007}},{"attributes":{"ID":67244,"DIS_CODE":0,"TOWNNAME":"安南區","LI":"原佃里","LIN":"6鄰","STREET":"本原街","SECT":"一段","MAREA":" ","LANE":"１９５巷","ALLEY":"８０弄","HOUSE_NO":"３４號","E_COORD97":167614.95000000001,"N_COORD97":2550232.2599999998,"ADDRESS":"本原街一段１９５巷８０弄３４號","OBJECTID":67244},"geometry":{"x":167614.95000000019,"y":2550232.2599999998}},{"attributes":{"ID":67245,"DIS_CODE":0,"TOWNNAME":"安南區","LI":"原佃里","LIN":"6鄰","STREET":"本原街","SECT":"一段","MAREA":" ","LANE":"１９５巷","ALLEY":"８０弄","HOUSE_NO":"３５號","E_COORD97":167573.35000000001,"N_COORD97":2550227.6899999999,"ADDRESS":"本原街一段１９５巷８０弄３５號","OBJECTID":67245},"geometry":{"x":167573.35000000056,"y":2550227.6900000013}},{"attributes":{"ID":67246,"DIS_CODE":0,"TOWNNAME":"安南區","LI":"原佃里","LIN":"6鄰","STREET":"本原街","SECT":"一段","MAREA":" ","LANE":"１９５巷","ALLEY":"８０弄","HOUSE_NO":"３６號","E_COORD97":167615.22,"N_COORD97":2550235.02,"ADDRESS":"本原街一段１９５巷８０弄３６號","OBJECTID":67246},"geometry":{"x":167615.22000000067,"y":2550235.0200000033}},{"attributes":{"ID":67247,"DIS_CODE":0,"TOWNNAME":"安南區","LI":"原佃里","LIN":"6鄰","STREET":"本原街","SECT":"一段","MAREA":" ","LANE":"１９５巷","ALLEY":"８０弄","HOUSE_NO":"３７號","E_COORD97":167576.92999999999,"N_COORD97":2550256.5899999999,"ADDRESS":"本原街一段１９５巷８０弄３７號","OBJECTID":67247},"geometry":{"x":167576.9299999997,"y":2550256.5900000017}},{"attributes":{"ID":67248,"DIS_CODE":0,"TOWNNAME":"安南區","LI":"原佃里","LIN":"6鄰","STREET":"本原街","SECT":"一段","MAREA":" ","LANE":"１９５巷","ALLEY":"８０弄","HOUSE_NO":"３８號","E_COORD97":167614.67000000001,"N_COORD97":2550239.9700000002,"ADDRESS":"本原街一段１９５巷８０弄３８號","OBJECTID":67248},"geometry":{"x":167614.66999999993,"y":2550239.9700000044}},{"attributes":{"ID":67249,"DIS_CODE":0,"TOWNNAME":"安南區","LI":"原佃里","LIN":"6鄰","STREET":"本原街","SECT":"一段","MAREA":" ","LANE":"１９５巷","ALLEY":"８０弄","HOUSE_NO":"３９號","E_COORD97":167580.79000000001,"N_COORD97":2550256.04,"ADDRESS":"本原街一段１９５巷８０弄３９號","OBJECTID":67249},"geometry":{"x":167580.7900000019,"y":2550256.040000001}},{"attributes":{"ID":67250,"DIS_CODE":0,"TOWNNAME":"安南區","LI":"原佃里","LIN":"6鄰","STREET":"本原街","SECT":"一段","MAREA":" ","LANE":"１９５巷","ALLEY":"８０弄","HOUSE_NO":"３號","E_COORD97":167580.78,"N_COORD97":2550175.2999999998,"ADDRESS":"本原街一段１９５巷８０弄３號","OBJECTID":67250},"geometry":{"x":167580.78000000026,"y":2550175.3000000007}},{"attributes":{"ID":67251,"DIS_CODE":0,"TOWNNAME":"安南區","LI":"原佃里","LIN":"6鄰","STREET":"本原街","SECT":"一段","MAREA":" ","LANE":"１９５巷","ALLEY":"８０弄","HOUSE_NO":"４０號","E_COORD97":167614.67000000001,"N_COORD97":2550243.8199999998,"ADDRESS":"本原街一段１９５巷８０弄４０號","OBJECTID":67251},"geometry":{"x":167614.66999999993,"y":2550243.820000004}},{"attributes":{"ID":67252,"DIS_CODE":0,"TOWNNAME":"安南區","LI":"原佃里","LIN":"6鄰","STREET":"本原街","SECT":"一段","MAREA":" ","LANE":"１９５巷","ALLEY":"８０弄","HOUSE_NO":"４１號","E_COORD97":167588.22,"N_COORD97":2550240.02,"ADDRESS":"本原街一段１９５巷８０弄４１號","OBJECTID":67252},"geometry":{"x":167588.22000000067,"y":2550240.0199999996}},{"attributes":{"ID":67253,"DIS_CODE":0,"TOWNNAME":"安南區","LI":"原佃里","LIN":"6鄰","STREET":"本原街","SECT":"一段","MAREA":" ","LANE":"１９５巷","ALLEY":"８０弄","HOUSE_NO":"４３號","E_COORD97":167588.76999999999,"N_COORD97":2550243.6000000001,"ADDRESS":"本原街一段１９５巷８０弄４３號","OBJECTID":67253},"geometry":{"x":167588.76999999862,"y":2550243.5999999996}},{"attributes":{"ID":67254,"DIS_CODE":0,"TOWNNAME":"安南區","LI":"原佃里","LIN":"6鄰","STREET":"本原街","SECT":"一段","MAREA":" ","LANE":"１９５巷","ALLEY":"８０弄","HOUSE_NO":"４５號","E_COORD97":167590.42000000001,"N_COORD97":2550248.2799999998,"ADDRESS":"本原街一段１９５巷８０弄４５號","OBJECTID":67254},"geometry":{"x":167590.42000000086,"y":2550248.2799999993}},{"attributes":{"ID":67255,"DIS_CODE":0,"TOWNNAME":"安南區","LI":"原佃里","LIN":"6鄰","STREET":"本原街","SECT":"一段","MAREA":" ","LANE":"１９５巷","ALLEY":"８０弄","HOUSE_NO":"４７號","E_COORD97":167589.59,"N_COORD97":2550251.8500000001,"ADDRESS":"本原街一段１９５巷８０弄４７號","OBJECTID":67255},"geometry":{"x":167589.58999999985,"y":2550251.8499999996}},{"attributes":{"ID":67256,"DIS_CODE":0,"TOWNNAME":"安南區","LI":"原佃里","LIN":"6鄰","STREET":"本原街","SECT":"一段","MAREA":" ","LANE":"１９５巷","ALLEY":"８０弄","HOUSE_NO":"４９號","E_COORD97":167590.97,"N_COORD97":2550255.1600000001,"ADDRESS":"本原街一段１９５巷８０弄４９號","OBJECTID":67256},"geometry":{"x":167590.96999999881,"y":2550255.160000002}},{"attributes":{"ID":67257,"DIS_CODE":0,"TOWNNAME":"永康區","LI":"\u25A0洲里","LIN":"7鄰","STREET":"\u25A0洲二街","SECT":" ","MAREA":" ","LANE":" ","ALLEY":" ","HOUSE_NO":"２１９號","E_COORD97":171802.23999999999,"N_COORD97":2549487.4900000002,"ADDRESS":"\u25A0洲二街２１９號","OBJECTID":67257},"geometry":{"x":171802.23999999929,"y":2549487.4900000021}},{"attributes":{"ID":67258,"DIS_CODE":0,"TOWNNAME":"永康區","LI":"\u25A0洲里","LIN":"7鄰","STREET":"\u25A0洲二街","SECT":" ","MAREA":" ","LANE":" ","ALLEY":" ","HOUSE_NO":"２２０號","E_COORD97":171814.59,"N_COORD97":2549462.2400000002,"ADDRESS":"\u25A0洲二街２２０號","OBJECTID":67258},"geometry":{"x":171814.58999999985,"y":2549462.2400000021}},{"attributes":{"ID":67259,"DIS_CODE":0,"TOWNNAME":"仁德區","LI":"保安里","LIN":" ","STREET":"文賢路","SECT":"一段","MAREA":" ","LANE":" ","ALLEY":" ","HOUSE_NO":"８６５號","E_COORD97":171659.42999999999,"N_COORD97":2535911.5699999998,"ADDRESS":"文賢路一段８６５號","OBJECTID":67259},"geometry":{"x":171659.4299999997,"y":2535911.5700000022}},{"attributes":{"ID":67260,"DIS_CODE":0,"TOWNNAME":"仁德區","LI":"保安里","LIN":" ","STREET":"文賢路","SECT":"一段","MAREA":" ","LANE":" ","ALLEY":" ","HOUSE_NO":"８３７號","E_COORD97":171616.10999999999,"N_COORD97":2536022.5699999998,"ADDRESS":"文賢路一段８３７號","OBJECTID":67260},"geometry":{"x":171616.11000000034,"y":2536022.5699999984}},{"attributes":{"ID":67261,"DIS_CODE":0,"TOWNNAME":"仁德區","LI":"上崙里","LIN":"8鄰","STREET":"德善路","SECT":" ","MAREA":" ","LANE":" ","ALLEY":" ","HOUSE_NO":"３１２號","E_COORD97":173990.78,"N_COORD97":2538365.77,"ADDRESS":"德善路３１２號","OBJECTID":67261},"geometry":{"x":173990.78000000119,"y":2538365.7699999996}},{"attributes":{"ID":67262,"DIS_CODE":0,"TOWNNAME":"仁德區","LI":"土庫里","LIN":" ","STREET":"土庫路","SECT":" ","MAREA":" ","LANE":" ","ALLEY":" ","HOUSE_NO":"３０之２號","E_COORD97":174215.63,"N_COORD97":2543318.7400000002,"ADDRESS":"土庫路３０之２號","OBJECTID":67262},"geometry":{"x":174215.63000000082,"y":2543318.7400000021}},{"attributes":{"ID":67263,"DIS_CODE":0,"TOWNNAME":"仁德區","LI":"保安里","LIN":" ","STREET":"保安路","SECT":"一段","MAREA":" ","LANE":" ","ALLEY":" ","HOUSE_NO":"９０之１１號","E_COORD97":170900.92000000001,"N_COORD97":2536377.8199999998,"ADDRESS":"保安路一段９０之１１號","OBJECTID":67263},"geometry":{"x":170900.92000000086,"y":2536377.8200000022}},{"attributes":{"ID":67264,"DIS_CODE":0,"TOWNNAME":"仁德區","LI":"保安里","LIN":" ","STREET":"開發六路","SECT":" ","MAREA":" ","LANE":" ","ALLEY":" ","HOUSE_NO":"２５號","E_COORD97":173070.23999999999,"N_COORD97":2535799.5099999998,"ADDRESS":"開發六路２５號","OBJECTID":67264},"geometry":{"x":173070.23999999929,"y":2535799.5100000016}},{"attributes":{"ID":67265,"DIS_CODE":0,"TOWNNAME":"仁德區","LI":"田厝里","LIN":" ","STREET":"保安路","SECT":"二段","MAREA":" ","LANE":" ","ALLEY":" ","HOUSE_NO":"４６１號","E_COORD97":172361.09,"N_COORD97":2537495.8100000001,"ADDRESS":"保安路二段４６１號","OBJECTID":67265},"geometry":{"x":172361.09000000078,"y":2537495.8100000005}},{"attributes":{"ID":67266,"DIS_CODE":0,"TOWNNAME":"仁德區","LI":"土庫里","LIN":" ","STREET":"土庫路","SECT":" ","MAREA":" ","LANE":" ","ALLEY":" ","HOUSE_NO":"１０７號","E_COORD97":174306.92999999999,"N_COORD97":2543166.2400000002,"ADDRESS":"土庫路１０７號","OBJECTID":67266},"geometry":{"x":174306.9299999997,"y":2543166.2400000021}},{"attributes":{"ID":67267,"DIS_CODE":0,"TOWNNAME":"仁德區","LI":"保安里","LIN":" ","STREET":"保安路","SECT":"一段","MAREA":" ","LANE":" ","ALLEY":" ","HOUSE_NO":"１６０號","E_COORD97":171171.29000000001,"N_COORD97":2536849.3100000001,"ADDRESS":"保安路一段１６０號","OBJECTID":67267},"geometry":{"x":171171.2900000019,"y":2536849.3100000024}},{"attributes":{"ID":67268,"DIS_CODE":0,"TOWNNAME":"仁德區","LI":"土庫里","LIN":" ","STREET":"土庫路","SECT":" ","MAREA":" ","LANE":" ","ALLEY":" ","HOUSE_NO":"３０之３號","E_COORD97":174214.32000000001,"N_COORD97":2543322.9900000002,"ADDRESS":"土庫路３０之３號","OBJECTID":67268},"geometry":{"x":174214.32000000123,"y":2543322.9900000039}},{"attributes":{"ID":67269,"DIS_CODE":0,"TOWNNAME":"仁德區","LI":"上崙里","LIN":" ","STREET":"德南路","SECT":" ","MAREA":" ","LANE":" ","ALLEY":" ","HOUSE_NO":"３７８號","E_COORD97":173919.60000000001,"N_COORD97":2538179.0099999998,"ADDRESS":"德南路３７８號","OBJECTID":67269},"geometry":{"x":173919.59999999963,"y":2538179.0100000035}},{"attributes":{"ID":67270,"DIS_CODE":0,"TOWNNAME":"永康區","LI":"中華里","LIN":"7鄰","STREET":"小東路","SECT":" ","MAREA":" ","LANE":" ","ALLEY":" ","HOUSE_NO":"６３７號","E_COORD97":171905.88,"N_COORD97":2544340.7999999998,"ADDRESS":"小東路６３７號","OBJECTID":67270},"geometry":{"x":171905.87999999989,"y":2544340.8000000007}},{"attributes":{"ID":67271,"DIS_CODE":0,"TOWNNAME":"新市區","LI":"大社里","LIN":"35鄰","STREET":" ","SECT":" ","MAREA":"大社","LANE":" ","ALLEY":" ","HOUSE_NO":"５８９之１０６號","E_COORD97":179415.34,"N_COORD97":2554636.7999999998,"ADDRESS":"大社５８９之１０６號","OBJECTID":67271},"geometry":{"x":179415.33999999985,"y":2554636.8000000007}},{"attributes":{"ID":67272,"DIS_CODE":0,"TOWNNAME":"新市區","LI":"大社里","LIN":"35鄰","STREET":" ","SECT":" ","MAREA":"大社","LANE":" ","ALLEY":" ","HOUSE_NO":"５８９之４０號","E_COORD97":179302.37,"N_COORD97":2554562.2999999998,"ADDRESS":"大社５８９之４０號","OBJECTID":67272},"geometry":{"x":179302.37000000011,"y":2554562.3000000007}},{"attributes":{"ID":67273,"DIS_CODE":0,"TOWNNAME":"永康區","LI":"中華里","LIN":"7鄰","STREET":"忠勇街","SECT":" ","MAREA":" ","LANE":" ","ALLEY":" ","HOUSE_NO":"８號","E_COORD97":171895.57999999999,"N_COORD97":2544369.6499999999,"ADDRESS":"忠勇街８號","OBJECTID":67273},"geometry":{"x":171895.58000000101,"y":2544369.6500000041}},{"attributes":{"ID":67274,"DIS_CODE":0,"TOWNNAME":"新市區","LI":"大社里","LIN":"35鄰","STREET":" ","SECT":" ","MAREA":"大社","LANE":" ","ALLEY":" ","HOUSE_NO":"５８９之９３號","E_COORD97":179390.82000000001,"N_COORD97":2554588.7999999998,"ADDRESS":"大社５８９之９３號","OBJECTID":67274},"geometry":{"x":179390.8200000003,"y":2554588.8000000026}},{"attributes":{"ID":67275,"DIS_CODE":0,"TOWNNAME":"安南區","LI":"原佃里","LIN":"6鄰","STREET":"本原街","SECT":"一段","MAREA":" ","LANE":"１９５巷","ALLEY":"８０弄","HOUSE_NO":"５１號","E_COORD97":167591.79999999999,"N_COORD97":2550259.5600000001,"ADDRESS":"本原街一段１９５巷８０弄５１號","OBJECTID":67275},"geometry":{"x":167591.79999999981,"y":2550259.5600000042}},{"attributes":{"ID":67276,"DIS_CODE":0,"TOWNNAME":"新市區","LI":"大社里","LIN":"35鄰","STREET":" ","SECT":" ","MAREA":"大社","LANE":" ","ALLEY":" ","HOUSE_NO":"５８９之１０３號","E_COORD97":179406.42999999999,"N_COORD97":2554603.5499999998,"ADDRESS":"大社５８９之１０３號","OBJECTID":67276},"geometry":{"x":179406.4299999997,"y":2554603.5500000026}},{"attributes":{"ID":67277,"DIS_CODE":0,"TOWNNAME":"新市區","LI":"大社里","LIN":"35鄰","STREET":" ","SECT":" ","MAREA":"大社","LANE":" ","ALLEY":" ","HOUSE_NO":"５８９之１９號","E_COORD97":179315.17999999999,"N_COORD97":2554493.7999999998,"ADDRESS":"大社５８９之１９號","OBJECTID":67277},"geometry":{"x":179315.17999999877,"y":2554493.8000000026}},{"attributes":{"ID":67278,"DIS_CODE":0,"TOWNNAME":"新市區","LI":"大社里","LIN":"35鄰","STREET":" ","SECT":" ","MAREA":"大社","LANE":" ","ALLEY":" ","HOUSE_NO":"５８９之９２號","E_COORD97":179395.82000000001,"N_COORD97":2554614.0499999998,"ADDRESS":"大社５８９之９２號","OBJECTID":67278},"geometry":{"x":179395.8200000003,"y":2554614.0500000026}},{"attributes":{"ID":67279,"DIS_CODE":0,"TOWNNAME":"新市區","LI":"大社里","LIN":"35鄰","STREET":" ","SECT":" ","MAREA":"大社","LANE":" ","ALLEY":" ","HOUSE_NO":"５８９之９０號","E_COORD97":179392.88,"N_COORD97":2554611.0499999998,"ADDRESS":"大社５８９之９０號","OBJECTID":67279},"geometry":{"x":179392.88000000082,"y":2554611.0500000026}},{"attributes":{"ID":67280,"DIS_CODE":0,"TOWNNAME":"新市區","LI":"大社里","LIN":"35鄰","STREET":" ","SECT":" ","MAREA":"大社","LANE":" ","ALLEY":" ","HOUSE_NO":"５８９之４１號","E_COORD97":179305.82000000001,"N_COORD97":2554564.5499999998,"ADDRESS":"大社５８９之４１號","OBJECTID":67280},"geometry":{"x":179305.8200000003,"y":2554564.5500000007}},{"attributes":{"ID":67281,"DIS_CODE":0,"TOWNNAME":"新市區","LI":"大社里","LIN":"35鄰","STREET":" ","SECT":" ","MAREA":"大社","LANE":" ","ALLEY":" ","HOUSE_NO":"５８９之３７號","E_COORD97":179338.92999999999,"N_COORD97":2554484.7999999998,"ADDRESS":"大社５８９之３７號","OBJECTID":67281},"geometry":{"x":179338.93000000156,"y":2554484.8000000007}},{"attributes":{"ID":67282,"DIS_CODE":0,"TOWNNAME":"新市區","LI":"大社里","LIN":"35鄰","STREET":" ","SECT":" ","MAREA":"大社","LANE":" ","ALLEY":" ","HOUSE_NO":"５８９之４２號","E_COORD97":179309.26999999999,"N_COORD97":2554566.7999999998,"ADDRESS":"大社５８９之４２號","OBJECTID":67282},"geometry":{"x":179309.26999999862,"y":2554566.8000000007}},{"attributes":{"ID":67283,"DIS_CODE":0,"TOWNNAME":"新市區","LI":"大社里","LIN":"35鄰","STREET":" ","SECT":" ","MAREA":"大社","LANE":" ","ALLEY":" ","HOUSE_NO":"５８９之７號","E_COORD97":179285.32000000001,"N_COORD97":2554536.5499999998,"ADDRESS":"大社５８９之７號","OBJECTID":67283},"geometry":{"x":179285.3200000003,"y":2554536.5500000026}},{"attributes":{"ID":67284,"DIS_CODE":0,"TOWNNAME":"安南區","LI":"原佃里","LIN":"6鄰","STREET":"本原街","SECT":"一段","MAREA":" ","LANE":"１９５巷","ALLEY":"８０弄","HOUSE_NO":"５號","E_COORD97":167580.78,"N_COORD97":2550179.1499999999,"ADDRESS":"本原街一段１９５巷８０弄５號","OBJECTID":67284},"geometry":{"x":167580.78000000026,"y":2550179.1500000004}},{"attributes":{"ID":67285,"DIS_CODE":0,"TOWNNAME":"安南區","LI":"原佃里","LIN":"6鄰","STREET":"本原街","SECT":"一段","MAREA":" ","LANE":"１９５巷","ALLEY":"８０弄","HOUSE_NO":"６號","E_COORD97":167611.64000000001,"N_COORD97":2550176.3999999999,"ADDRESS":"本原街一段１９５巷８０弄６號","OBJECTID":67285},"geometry":{"x":167611.63999999966,"y":2550176.4000000022}},{"attributes":{"ID":67286,"DIS_CODE":0,"TOWNNAME":"安南區","LI":"原佃里","LIN":"6鄰","STREET":"本原街","SECT":"一段","MAREA":" ","LANE":"１９５巷","ALLEY":"８０弄","HOUSE_NO":"７號","E_COORD97":167581.60000000001,"N_COORD97":2550183.5499999998,"ADDRESS":"本原街一段１９５巷８０弄７號","OBJECTID":67286},"geometry":{"x":167581.60000000149,"y":2550183.5500000007}},{"attributes":{"ID":67287,"DIS_CODE":0,"TOWNNAME":"安南區","LI":"原佃里","LIN":"6鄰","STREET":"本原街","SECT":"一段","MAREA":" ","LANE":"１９５巷","ALLEY":"８０弄","HOUSE_NO":"８號","E_COORD97":167611.64000000001,"N_COORD97":2550180.25,"ADDRESS":"本原街一段１９５巷８０弄８號","OBJECTID":67287},"geometry":{"x":167611.63999999966,"y":2550180.2500000019}},{"attributes":{"ID":67288,"DIS_CODE":0,"TOWNNAME":"安南區","LI":"原佃里","LIN":"6鄰","STREET":"本原街","SECT":"一段","MAREA":" ","LANE":"１９５巷","ALLEY":"８０弄","HOUSE_NO":"９號","E_COORD97":167581.60000000001,"N_COORD97":2550186.8500000001,"ADDRESS":"本原街一段１９５巷８０弄９號","OBJECTID":67288},"geometry":{"x":167581.60000000149,"y":2550186.8500000015}},{"attributes":{"ID":67289,"DIS_CODE":0,"TOWNNAME":"安南區","LI":"原佃里","LIN":"6鄰","STREET":"本原街","SECT":"一段","MAREA":" ","LANE":"１９５巷","ALLEY":"３８弄","HOUSE_NO":"１１號","E_COORD97":167679.10000000001,"N_COORD97":2550191.1600000001,"ADDRESS":"本原街一段１９５巷３８弄１１號","OBJECTID":67289},"geometry":{"x":167679.09999999963,"y":2550191.160000002}},{"attributes":{"ID":67290,"DIS_CODE":0,"TOWNNAME":"安南區","LI":"原佃里","LIN":"6鄰","STREET":"本原街","SECT":"一段","MAREA":" ","LANE":"１９５巷","ALLEY":"３８弄","HOUSE_NO":"１號","E_COORD97":167705.60999999999,"N_COORD97":2550189.02,"ADDRESS":"本原街一段１９５巷３８弄１號","OBJECTID":67290},"geometry":{"x":167705.61000000034,"y":2550189.0200000014}},{"attributes":{"ID":67291,"DIS_CODE":0,"TOWNNAME":"安南區","LI":"原佃里","LIN":"6鄰","STREET":"本原街","SECT":"一段","MAREA":" ","LANE":"１９５巷","ALLEY":"３８弄","HOUSE_NO":"３號","E_COORD97":167699.41,"N_COORD97":2550189.2400000002,"ADDRESS":"本原街一段１９５巷３８弄３號","OBJECTID":67291},"geometry":{"x":167699.41000000108,"y":2550189.2400000002}},{"attributes":{"ID":67292,"DIS_CODE":0,"TOWNNAME":"安南區","LI":"原佃里","LIN":"6鄰","STREET":"本原街","SECT":"一段","MAREA":" ","LANE":"１９５巷","ALLEY":"３８弄","HOUSE_NO":"５號","E_COORD97":167694.06,"N_COORD97":2550189.77,"ADDRESS":"本原街一段１９５巷３８弄５號","OBJECTID":67292},"geometry":{"x":167694.06000000052,"y":2550189.7700000014}},{"attributes":{"ID":67293,"DIS_CODE":0,"TOWNNAME":"安南區","LI":"原佃里","LIN":"6鄰","STREET":"本原街","SECT":"一段","MAREA":" ","LANE":"１９５巷","ALLEY":"３８弄","HOUSE_NO":"７號","E_COORD97":167688.60999999999,"N_COORD97":2550190.0899999999,"ADDRESS":"本原街一段１９５巷３８弄７號","OBJECTID":67293},"geometry":{"x":167688.61000000034,"y":2550190.0899999999}},{"attributes":{"ID":67294,"DIS_CODE":0,"TOWNNAME":"安南區","LI":"原佃里","LIN":"6鄰","STREET":"本原街","SECT":"一段","MAREA":" ","LANE":"１９５巷","ALLEY":"３８弄","HOUSE_NO":"９號","E_COORD97":167684.01000000001,"N_COORD97":2550190.3100000001,"ADDRESS":"本原街一段１９５巷３８弄９號","OBJECTID":67294},"geometry":{"x":167684.00999999885,"y":2550190.3100000024}},{"attributes":{"ID":67295,"DIS_CODE":0,"TOWNNAME":"安南區","LI":"城北里","LIN":"6鄰","STREET":"安中路","SECT":"六段","MAREA":" ","LANE":"５００巷","ALLEY":"２４弄","HOUSE_NO":"７號之１","E_COORD97":161087.31,"N_COORD97":2551432.27,"ADDRESS":"安中路六段５００巷２４弄７號之１","OBJECTID":67295},"geometry":{"x":161087.30999999959,"y":2551432.2699999996}},{"attributes":{"ID":67296,"DIS_CODE":0,"TOWNNAME":"安南區","LI":"原佃里","LIN":"6鄰","STREET":"本原街","SECT":"一段","MAREA":" ","LANE":"１９５巷","ALLEY":"１１０弄","HOUSE_NO":"１７號","E_COORD97":167511.82000000001,"N_COORD97":2550201.54,"ADDRESS":"本原街一段１９５巷１１０弄１７號","OBJECTID":67296},"geometry":{"x":167511.82000000123,"y":2550201.540000001}},{"attributes":{"ID":67297,"DIS_CODE":0,"TOWNNAME":"安南區","LI":"原佃里","LIN":"6鄰","STREET":"本原街","SECT":"一段","MAREA":" ","LANE":"１９５巷","ALLEY":"１１０弄","HOUSE_NO":"１９號","E_COORD97":167506.85999999999,"N_COORD97":2550201.8199999998,"ADDRESS":"本原街一段１９５巷１１０弄１９號","OBJECTID":67297},"geometry":{"x":167506.86000000127,"y":2550201.8200000003}},{"attributes":{"ID":67298,"DIS_CODE":0,"TOWNNAME":"安南區","LI":"原佃里","LIN":"6鄰","STREET":"本原街","SECT":"一段","MAREA":" ","LANE":"１９５巷","ALLEY":"１１０弄","HOUSE_NO":"２１號","E_COORD97":167502.17999999999,"N_COORD97":2550202.3700000001,"ADDRESS":"本原街一段１９５巷１１０弄２１號","OBJECTID":67298},"geometry":{"x":167502.18000000063,"y":2550202.370000001}},{"attributes":{"ID":67299,"DIS_CODE":0,"TOWNNAME":"安南區","LI":"原佃里","LIN":"6鄰","STREET":"本原街","SECT":"一段","MAREA":" ","LANE":"１９５巷","ALLEY":"１１０弄","HOUSE_NO":"２３號","E_COORD97":167497.48999999999,"N_COORD97":2550202.3700000001,"ADDRESS":"本原街一段１９５巷１１０弄２３號","OBJECTID":67299},"geometry":{"x":167497.49000000022,"y":2550202.370000001}},{"attributes":{"ID":67300,"DIS_CODE":0,"TOWNNAME":"安南區","LI":"原佃里","LIN":"6鄰","STREET":"本原街","SECT":"一段","MAREA":" ","LANE":"１９５巷","ALLEY":"１１０弄","HOUSE_NO":"４９號","E_COORD97":167526.48999999999,"N_COORD97":2550220.2000000002,"ADDRESS":"本原街一段１９５巷１１０弄４９號","OBJECTID":67300},"geometry":{"x":167526.49000000022,"y":2550220.2000000011}},{"attributes":{"ID":67301,"DIS_CODE":0,"TOWNNAME":"善化區","LI":"南關里","LIN":"7鄰","STREET":"大利二路","SECT":" ","MAREA":" ","LANE":" ","ALLEY":" ","HOUSE_NO":"１０號","E_COORD97":175983.98000000001,"N_COORD97":2557205,"ADDRESS":"大利二路１０號","OBJECTID":67301},"geometry":{"x":175983.98000000045,"y":2557205}},{"attributes":{"ID":67302,"DIS_CODE":0,"TOWNNAME":"安南區","LI":"原佃里","LIN":"6鄰","STREET":"本原街","SECT":"一段","MAREA":" ","LANE":"１９５巷","ALLEY":"１１０弄","HOUSE_NO":"５１號","E_COORD97":167527.32000000001,"N_COORD97":2550224.8799999999,"ADDRESS":"本原街一段１９５巷１１０弄５１號","OBJECTID":67302},"geometry":{"x":167527.32000000123,"y":2550224.8800000027}},{"attributes":{"ID":67303,"DIS_CODE":0,"TOWNNAME":"安南區","LI":"原佃里","LIN":"6鄰","STREET":"本原街","SECT":"一段","MAREA":" ","LANE":"１９５巷","ALLEY":"１１０弄","HOUSE_NO":"５３號","E_COORD97":167526.48999999999,"N_COORD97":2550229.29,"ADDRESS":"本原街一段１９５巷１１０弄５３號","OBJECTID":67303},"geometry":{"x":167526.49000000022,"y":2550229.2900000028}},{"attributes":{"ID":67304,"DIS_CODE":0,"TOWNNAME":"安南區","LI":"原佃里","LIN":"6鄰","STREET":"本原街","SECT":"一段","MAREA":" ","LANE":"１９５巷","ALLEY":"１１０弄","HOUSE_NO":"５５號","E_COORD97":167527.32000000001,"N_COORD97":2550233.4100000001,"ADDRESS":"本原街一段１９５巷１１０弄５５號","OBJECTID":67304},"geometry":{"x":167527.32000000123,"y":2550233.410000002}},{"attributes":{"ID":67305,"DIS_CODE":0,"TOWNNAME":"新市區","LI":"大社里","LIN":"35鄰","STREET":" ","SECT":" ","MAREA":"大社","LANE":" ","ALLEY":" ","HOUSE_NO":"５８９之１０７號","E_COORD97":179411.67999999999,"N_COORD97":2554609.7999999998,"ADDRESS":"大社５８９之１０７號","OBJECTID":67305},"geometry":{"x":179411.6799999997,"y":2554609.8000000007}},{"attributes":{"ID":67306,"DIS_CODE":0,"TOWNNAME":"安南區","LI":"原佃里","LIN":"6鄰","STREET":"本原街","SECT":"一段","MAREA":" ","LANE":"１９５巷","ALLEY":"１１０弄","HOUSE_NO":"５７號","E_COORD97":167527.87,"N_COORD97":2550237.8199999998,"ADDRESS":"本原街一段１９５巷１１０弄５７號","OBJECTID":67306},"geometry":{"x":167527.87000000197,"y":2550237.8200000022}},{"attributes":{"ID":67307,"DIS_CODE":0,"TOWNNAME":"安南區","LI":"原佃里","LIN":"6鄰","STREET":"本原街","SECT":"一段","MAREA":" ","LANE":"１９５巷","ALLEY":"１１０弄","HOUSE_NO":"５９號","E_COORD97":167528.42000000001,"N_COORD97":2550242.5,"ADDRESS":"本原街一段１９５巷１１０弄５９號","OBJECTID":67307},"geometry":{"x":167528.41999999993,"y":2550242.5000000019}},{"attributes":{"ID":67308,"DIS_CODE":0,"TOWNNAME":"安南區","LI":"原佃里","LIN":"6鄰","STREET":"本原街","SECT":"一段","MAREA":" ","LANE":"１９５巷","ALLEY":"１１０弄","HOUSE_NO":"６１號","E_COORD97":167529.25,"N_COORD97":2550246.6200000001,"ADDRESS":"本原街一段１９５巷１１０弄６１號","OBJECTID":67308},"geometry":{"x":167529.25000000093,"y":2550246.6200000029}},{"attributes":{"ID":67309,"DIS_CODE":0,"TOWNNAME":"安南區","LI":"原佃里","LIN":"6鄰","STREET":"本原街","SECT":"一段","MAREA":" ","LANE":"１９５巷","ALLEY":"１１０弄","HOUSE_NO":"６３號","E_COORD97":167529.25,"N_COORD97":2550251.2999999998,"ADDRESS":"本原街一段１９５巷１１０弄６３號","OBJECTID":67309},"geometry":{"x":167529.25000000093,"y":2550251.3000000045}},{"attributes":{"ID":67310,"DIS_CODE":0,"TOWNNAME":"新市區","LI":"大社里","LIN":"35鄰","STREET":" ","SECT":" ","MAREA":"大社","LANE":" ","ALLEY":" ","HOUSE_NO":"５８９之７９號","E_COORD97":179371.17999999999,"N_COORD97":2554592.2999999998,"ADDRESS":"大社５８９之７９號","OBJECTID":67310},"geometry":{"x":179371.18000000156,"y":2554592.3000000026}},{"attributes":{"ID":67311,"DIS_CODE":0,"TOWNNAME":"安南區","LI":"原佃里","LIN":"6鄰","STREET":"本原街","SECT":"一段","MAREA":" ","LANE":"１９５巷","ALLEY":"１１０弄","HOUSE_NO":"６５號","E_COORD97":167529.25,"N_COORD97":2550255.4300000002,"ADDRESS":"本原街一段１９５巷１１０弄６５號","OBJECTID":67311},"geometry":{"x":167529.25000000093,"y":2550255.4299999997}},{"attributes":{"ID":67312,"DIS_CODE":0,"TOWNNAME":"安南區","LI":"原佃里","LIN":"6鄰","STREET":"本原街","SECT":"一段","MAREA":" ","LANE":"１９５巷","ALLEY":"１１０弄","HOUSE_NO":"６７號","E_COORD97":167529.51999999999,"N_COORD97":2550260.1099999999,"ADDRESS":"本原街一段１９５巷１１０弄６７號","OBJECTID":67312},"geometry":{"x":167529.52000000142,"y":2550260.1099999994}},{"attributes":{"ID":67313,"DIS_CODE":0,"TOWNNAME":"安南區","LI":"原佃里","LIN":"6鄰","STREET":"本原街","SECT":"一段","MAREA":" ","LANE":"１９５巷","ALLEY":"１１０弄","HOUSE_NO":"６９號","E_COORD97":167530.35000000001,"N_COORD97":2550263.96,"ADDRESS":"本原街一段１９５巷１１０弄６９號","OBJECTID":67313},"geometry":{"x":167530.34999999963,"y":2550263.9600000046}},{"attributes":{"ID":67314,"DIS_CODE":0,"TOWNNAME":"安南區","LI":"原佃里","LIN":"6鄰","STREET":"本原街","SECT":"一段","MAREA":" ","LANE":"１９５巷","ALLEY":"１１０弄","HOUSE_NO":"７１號","E_COORD97":167530.62,"N_COORD97":2550268.6400000001,"ADDRESS":"本原街一段１９５巷１１０弄７１號","OBJECTID":67314},"geometry":{"x":167530.62000000011,"y":2550268.6400000006}},{"attributes":{"ID":67315,"DIS_CODE":0,"TOWNNAME":"下營區","LI":"宅內里","LIN":"6鄰","STREET":"友愛街","SECT":" ","MAREA":" ","LANE":"１８７巷","ALLEY":"１２弄","HOUSE_NO":"１８號","E_COORD97":174126.29999999999,"N_COORD97":2570951.5499999998,"ADDRESS":"友愛街１８７巷１２弄１８號","OBJECTID":67315},"geometry":{"x":174126.30000000075,"y":2570951.5500000026}},{"attributes":{"ID":67316,"DIS_CODE":0,"TOWNNAME":"下營區","LI":"宅內里","LIN":"6鄰","STREET":"友愛街","SECT":" ","MAREA":" ","LANE":"１８７巷","ALLEY":"１２弄","HOUSE_NO":"２０號","E_COORD97":174176.17999999999,"N_COORD97":2570941.73,"ADDRESS":"友愛街１８７巷１２弄２０號","OBJECTID":67316},"geometry":{"x":174176.18000000063,"y":2570941.7300000004}},{"attributes":{"ID":67317,"DIS_CODE":0,"TOWNNAME":"新市區","LI":"大社里","LIN":"35鄰","STREET":" ","SECT":" ","MAREA":"大社","LANE":" ","ALLEY":" ","HOUSE_NO":"５８９之８７號","E_COORD97":179381.12,"N_COORD97":2554580.5499999998,"ADDRESS":"大社５８９之８７號","OBJECTID":67317},"geometry":{"x":179381.12000000104,"y":2554580.5500000026}},{"attributes":{"ID":67318,"DIS_CODE":0,"TOWNNAME":"下營區","LI":"宅內里","LIN":"6鄰","STREET":"友愛街","SECT":" ","MAREA":" ","LANE":"１８７巷","ALLEY":"１２弄","HOUSE_NO":"２１號之２","E_COORD97":174102.14999999999,"N_COORD97":2570964.0800000001,"ADDRESS":"友愛街１８７巷１２弄２１號之２","OBJECTID":67318},"geometry":{"x":174102.1500000013,"y":2570964.0800000019}},{"attributes":{"ID":67319,"DIS_CODE":0,"TOWNNAME":"新市區","LI":"大社里","LIN":"35鄰","STREET":" ","SECT":" ","MAREA":"大社","LANE":" ","ALLEY":" ","HOUSE_NO":"５８９之６７號","E_COORD97":179338.64999999999,"N_COORD97":2554568.0499999998,"ADDRESS":"大社５８９之６７號","OBJECTID":67319},"geometry":{"x":179338.6500000013,"y":2554568.0500000007}},{"attributes":{"ID":67320,"DIS_CODE":0,"TOWNNAME":"下營區","LI":"宅內里","LIN":"6鄰","STREET":"友愛街","SECT":" ","MAREA":" ","LANE":"１８７巷","ALLEY":"１２弄","HOUSE_NO":"２１號","E_COORD97":174073.98999999999,"N_COORD97":2570976.29,"ADDRESS":"友愛街１８７巷１２弄２１號","OBJECTID":67320},"geometry":{"x":174073.99000000209,"y":2570976.290000001}},{"attributes":{"ID":67321,"DIS_CODE":0,"TOWNNAME":"新市區","LI":"大社里","LIN":"35鄰","STREET":" ","SECT":" ","MAREA":"大社","LANE":" ","ALLEY":" ","HOUSE_NO":"５８９之１０８號","E_COORD97":179420.57000000001,"N_COORD97":2554637.2999999998,"ADDRESS":"大社５８９之１０８號","OBJECTID":67321},"geometry":{"x":179420.57000000123,"y":2554637.3000000007}},{"attributes":{"ID":67322,"DIS_CODE":0,"TOWNNAME":"學甲區","LI":"秀昌里","LIN":"31鄰","STREET":" ","SECT":" ","MAREA":"煥昌","LANE":" ","ALLEY":" ","HOUSE_NO":"１５２號","E_COORD97":166569.60000000001,"N_COORD97":2571246.0099999998,"ADDRESS":"煥昌１５２號","OBJECTID":67322},"geometry":{"x":166569.60000000149,"y":2571246.0100000016}},{"attributes":{"ID":67323,"DIS_CODE":0,"TOWNNAME":"新市區","LI":"大社里","LIN":"35鄰","STREET":" ","SECT":" ","MAREA":"大社","LANE":" ","ALLEY":" ","HOUSE_NO":"５８９之５６號","E_COORD97":179302.51000000001,"N_COORD97":2554545.0499999998,"ADDRESS":"大社５８９之５６號","OBJECTID":67323},"geometry":{"x":179302.50999999978,"y":2554545.0500000045}},{"attributes":{"ID":67324,"DIS_CODE":0,"TOWNNAME":"下營區","LI":"宅內里","LIN":"6鄰","STREET":"友愛街","SECT":" ","MAREA":" ","LANE":"１８７巷","ALLEY":"１２弄","HOUSE_NO":"２２號","E_COORD97":174178.13,"N_COORD97":2570949.0499999998,"ADDRESS":"友愛街１８７巷１２弄２２號","OBJECTID":67324},"geometry":{"x":174178.13000000082,"y":2570949.0500000026}},{"attributes":{"ID":67325,"DIS_CODE":0,"TOWNNAME":"新市區","LI":"大社里","LIN":"35鄰","STREET":" ","SECT":" ","MAREA":"大社","LANE":" ","ALLEY":" ","HOUSE_NO":"５８９之１號","E_COORD97":179271.12,"N_COORD97":2554558.2999999998,"ADDRESS":"大社５８９之１號","OBJECTID":67325},"geometry":{"x":179271.12000000104,"y":2554558.3000000026}},{"attributes":{"ID":67326,"DIS_CODE":0,"TOWNNAME":"新市區","LI":"大社里","LIN":"35鄰","STREET":" ","SECT":" ","MAREA":"大社","LANE":" ","ALLEY":" ","HOUSE_NO":"５８９之８４號","E_COORD97":179381.04000000001,"N_COORD97":2554605.5499999998,"ADDRESS":"大社５８９之８４號","OBJECTID":67326},"geometry":{"x":179381.0400000019,"y":2554605.5500000007}},{"attributes":{"ID":67327,"DIS_CODE":0,"TOWNNAME":"仁德區","LI":"上崙里","LIN":"7鄰","STREET":"德善路","SECT":" ","MAREA":" ","LANE":" ","ALLEY":" ","HOUSE_NO":"３３２號","E_COORD97":174003.87,"N_COORD97":2538313.5099999998,"ADDRESS":"德善路３３２號","OBJECTID":67327},"geometry":{"x":174003.87000000104,"y":2538313.5099999998}},{"attributes":{"ID":67328,"DIS_CODE":0,"TOWNNAME":"仁德區","LI":"仁義里","LIN":"7鄰","STREET":"中山路","SECT":" ","MAREA":" ","LANE":" ","ALLEY":" ","HOUSE_NO":"４２３號","E_COORD97":173781.98000000001,"N_COORD97":2541256.25,"ADDRESS":"中山路４２３號","OBJECTID":67328},"geometry":{"x":173781.98000000045,"y":2541256.2500000037}},{"attributes":{"ID":67329,"DIS_CODE":0,"TOWNNAME":"新市區","LI":"大社里","LIN":"35鄰","STREET":" ","SECT":" ","MAREA":"大社","LANE":" ","ALLEY":" ","HOUSE_NO":"５８９之６５號","E_COORD97":179331.06,"N_COORD97":2554563.0499999998,"ADDRESS":"大社５８９之６５號","OBJECTID":67329},"geometry":{"x":179331.05999999959,"y":2554563.0500000026}},{"attributes":{"ID":67330,"DIS_CODE":0,"TOWNNAME":"新市區","LI":"大社里","LIN":"35鄰","STREET":" ","SECT":" ","MAREA":"大社","LANE":" ","ALLEY":" ","HOUSE_NO":"５８９之６１號","E_COORD97":179320.57000000001,"N_COORD97":2554556.2999999998,"ADDRESS":"大社５８９之６１號","OBJECTID":67330},"geometry":{"x":179320.57000000123,"y":2554556.3000000007}},{"attributes":{"ID":67331,"DIS_CODE":0,"TOWNNAME":"新市區","LI":"大社里","LIN":"35鄰","STREET":" ","SECT":" ","MAREA":"大社","LANE":" ","ALLEY":" ","HOUSE_NO":"５８９之８號","E_COORD97":179287.67999999999,"N_COORD97":2554533.2999999998,"ADDRESS":"大社５８９之８號","OBJECTID":67331},"geometry":{"x":179287.6799999997,"y":2554533.3000000045}},{"attributes":{"ID":67332,"DIS_CODE":0,"TOWNNAME":"新市區","LI":"大社里","LIN":"35鄰","STREET":" ","SECT":" ","MAREA":"大社","LANE":" ","ALLEY":" ","HOUSE_NO":"５８９之１３號","E_COORD97":179300.87,"N_COORD97":2554515.2999999998,"ADDRESS":"大社５８９之１３號","OBJECTID":67332},"geometry":{"x":179300.87000000197,"y":2554515.3000000007}},{"attributes":{"ID":67333,"DIS_CODE":0,"TOWNNAME":"新市區","LI":"大社里","LIN":"35鄰","STREET":" ","SECT":" ","MAREA":"大社","LANE":" ","ALLEY":" ","HOUSE_NO":"５８９之６０號","E_COORD97":179317.13,"N_COORD97":2554553.7999999998,"ADDRESS":"大社５８９之６０號","OBJECTID":67333},"geometry":{"x":179317.12999999989,"y":2554553.8000000026}},{"attributes":{"ID":67334,"DIS_CODE":0,"TOWNNAME":"新市區","LI":"大社里","LIN":"35鄰","STREET":" ","SECT":" ","MAREA":"大社","LANE":" ","ALLEY":" ","HOUSE_NO":"５８９之７７號","E_COORD97":179361.73000000001,"N_COORD97":2554595.7999999998,"ADDRESS":"大社５８９之７７號","OBJECTID":67334},"geometry":{"x":179361.73000000138,"y":2554595.8000000026}},{"attributes":{"ID":67335,"DIS_CODE":0,"TOWNNAME":"新市區","LI":"大社里","LIN":"35鄰","STREET":" ","SECT":" ","MAREA":"大社","LANE":" ","ALLEY":" ","HOUSE_NO":"５８９之８８號","E_COORD97":179389.98000000001,"N_COORD97":2554608.2999999998,"ADDRESS":"大社５８９之８８號","OBJECTID":67335},"geometry":{"x":179389.98000000045,"y":2554608.3000000026}},{"attributes":{"ID":67336,"DIS_CODE":0,"TOWNNAME":"新市區","LI":"大社里","LIN":"35鄰","STREET":" ","SECT":" ","MAREA":"大社","LANE":" ","ALLEY":" ","HOUSE_NO":"５８９之９５號","E_COORD97":179396.67999999999,"N_COORD97":2554588.5499999998,"ADDRESS":"大社５８９之９５號","OBJECTID":67336},"geometry":{"x":179396.68000000156,"y":2554588.5500000007}},{"attributes":{"ID":67337,"DIS_CODE":0,"TOWNNAME":"新市區","LI":"大社里","LIN":"35鄰","STREET":" ","SECT":" ","MAREA":"大社","LANE":" ","ALLEY":" ","HOUSE_NO":"５８９之２２號","E_COORD97":179322.48000000001,"N_COORD97":2554483.2999999998,"ADDRESS":"大社５８９之２２號","OBJECTID":67337},"geometry":{"x":179322.48000000231,"y":2554483.3000000026}},{"attributes":{"ID":67338,"DIS_CODE":0,"TOWNNAME":"新市區","LI":"大社里","LIN":"35鄰","STREET":" ","SECT":" ","MAREA":"大社","LANE":" ","ALLEY":" ","HOUSE_NO":"５８９之５３號","E_COORD97":179345.12,"N_COORD97":2554589.5499999998,"ADDRESS":"大社５８９之５３號","OBJECTID":67338},"geometry":{"x":179345.12000000104,"y":2554589.5500000026}},{"attributes":{"ID":67339,"DIS_CODE":0,"TOWNNAME":"下營區","LI":"宅內里","LIN":"6鄰","STREET":"友愛街","SECT":" ","MAREA":" ","LANE":"１８７巷","ALLEY":"１２弄","HOUSE_NO":"２７號","E_COORD97":174062.07000000001,"N_COORD97":2570924.46,"ADDRESS":"友愛街１８７巷１２弄２７號","OBJECTID":67339},"geometry":{"x":174062.07000000123,"y":2570924.459999999}},{"attributes":{"ID":67340,"DIS_CODE":0,"TOWNNAME":"新市區","LI":"大社里","LIN":"35鄰","STREET":" ","SECT":" ","MAREA":"大社","LANE":" ","ALLEY":" ","HOUSE_NO":"５８９之６號","E_COORD97":179283.01999999999,"N_COORD97":2554540.2999999998,"ADDRESS":"大社５８９之６號","OBJECTID":67340},"geometry":{"x":179283.02000000048,"y":2554540.3000000026}},{"attributes":{"ID":67341,"DIS_CODE":0,"TOWNNAME":"新市區","LI":"大社里","LIN":"35鄰","STREET":" ","SECT":" ","MAREA":"大社","LANE":" ","ALLEY":" ","HOUSE_NO":"５８９之９１號","E_COORD97":179387.23000000001,"N_COORD97":2554586.2999999998,"ADDRESS":"大社５８９之９１號","OBJECTID":67341},"geometry":{"x":179387.23000000138,"y":2554586.3000000007}},{"attributes":{"ID":67342,"DIS_CODE":0,"TOWNNAME":"新市區","LI":"大社里","LIN":"35鄰","STREET":" ","SECT":" ","MAREA":"大社","LANE":" ","ALLEY":" ","HOUSE_NO":"５８９之６６號","E_COORD97":179334.92000000001,"N_COORD97":2554565.7999999998,"ADDRESS":"大社５８９之６６號","OBJECTID":67342},"geometry":{"x":179334.92000000086,"y":2554565.8000000007}},{"attributes":{"ID":67343,"DIS_CODE":0,"TOWNNAME":"新市區","LI":"大社里","LIN":"35鄰","STREET":" ","SECT":" ","MAREA":"大社","LANE":" ","ALLEY":" ","HOUSE_NO":"５８９之１１９號","E_COORD97":179433.23000000001,"N_COORD97":2554624.5499999998,"ADDRESS":"大社５８９之１１９號","OBJECTID":67343},"geometry":{"x":179433.23000000138,"y":2554624.5500000026}},{"attributes":{"ID":67344,"DIS_CODE":0,"TOWNNAME":"南化區","LI":"南化里","LIN":"6鄰","STREET":" ","SECT":" ","MAREA":"南化","LANE":" ","ALLEY":" ","HOUSE_NO":"１１８之３號","E_COORD97":196338.35000000001,"N_COORD97":2549124.5899999999,"ADDRESS":"南化１１８之３號","OBJECTID":67344},"geometry":{"x":196338.34999999963,"y":2549124.5899999999}},{"attributes":{"ID":67345,"DIS_CODE":0,"TOWNNAME":"南化區","LI":"南化里","LIN":"11鄰","STREET":" ","SECT":" ","MAREA":"南化","LANE":" ","ALLEY":" ","HOUSE_NO":"２５５之５號","E_COORD97":196541.23999999999,"N_COORD97":2549307.52,"ADDRESS":"南化２５５之５號","OBJECTID":67345},"geometry":{"x":196541.24000000022,"y":2549307.5200000014}},{"attributes":{"ID":67346,"DIS_CODE":0,"TOWNNAME":"學甲區","LI":"三慶里","LIN":"35鄰","STREET":" ","SECT":" ","MAREA":"新芳","LANE":" ","ALLEY":" ","HOUSE_NO":"１１６號","E_COORD97":165360.13,"N_COORD97":2575382.3799999999,"ADDRESS":"新芳１１６號","OBJECTID":67346},"geometry":{"x":165360.13000000082,"y":2575382.3800000008}},{"attributes":{"ID":67347,"DIS_CODE":0,"TOWNNAME":"學甲區","LI":"三慶里","LIN":"35鄰","STREET":" ","SECT":" ","MAREA":"新芳","LANE":" ","ALLEY":" ","HOUSE_NO":"１１７號","E_COORD97":165348.67999999999,"N_COORD97":2575436.6699999999,"ADDRESS":"新芳１１７號","OBJECTID":67347},"geometry":{"x":165348.68000000156,"y":2575436.6699999999}},{"attributes":{"ID":67348,"DIS_CODE":0,"TOWNNAME":"新市區","LI":"大社里","LIN":"35鄰","STREET":" ","SECT":" ","MAREA":"大社","LANE":" ","ALLEY":" ","HOUSE_NO":"５８９之５２號","E_COORD97":179341.54000000001,"N_COORD97":2554587.0499999998,"ADDRESS":"大社５８９之５２號","OBJECTID":67348},"geometry":{"x":179341.54000000004,"y":2554587.0500000026}},{"attributes":{"ID":67349,"DIS_CODE":0,"TOWNNAME":"永康區","LI":"南灣里","LIN":"6鄰","STREET":"大灣路","SECT":" ","MAREA":" ","LANE":"５３７巷","ALLEY":"１６弄","HOUSE_NO":"１５號","E_COORD97":174457.64000000001,"N_COORD97":2544421.4300000002,"ADDRESS":"大灣路５３７巷１６弄１５號","OBJECTID":67349},"geometry":{"x":174457.6400000006,"y":2544421.4300000016}},{"attributes":{"ID":67350,"DIS_CODE":0,"TOWNNAME":"永康區","LI":"新樹里","LIN":"6鄰","STREET":"西勢路","SECT":" ","MAREA":" ","LANE":"１７４巷","ALLEY":"７弄","HOUSE_NO":"２８號","E_COORD97":175838.01000000001,"N_COORD97":2546845.7000000002,"ADDRESS":"西勢路１７４巷７弄２８號","OBJECTID":67350},"geometry":{"x":175838.01000000164,"y":2546845.6999999993}},{"attributes":{"ID":67351,"DIS_CODE":0,"TOWNNAME":"永康區","LI":"崑山里","LIN":"6鄰","STREET":"崑大路","SECT":" ","MAREA":" ","LANE":"１５５巷","ALLEY":"８５弄","HOUSE_NO":"１１號","E_COORD97":173666.75,"N_COORD97":2544044.4300000002,"ADDRESS":"崑大路１５５巷８５弄１１號","OBJECTID":67351},"geometry":{"x":173666.75000000186,"y":2544044.4299999997}},{"attributes":{"ID":67352,"DIS_CODE":0,"TOWNNAME":"永康區","LI":"新樹里","LIN":"6鄰","STREET":"西勢路","SECT":" ","MAREA":" ","LANE":"１７４巷","ALLEY":"７弄","HOUSE_NO":"１８號","E_COORD97":175859.60999999999,"N_COORD97":2546845.9500000002,"ADDRESS":"西勢路１７４巷７弄１８號","OBJECTID":67352},"geometry":{"x":175859.61000000034,"y":2546845.9500000011}},{"attributes":{"ID":67353,"DIS_CODE":0,"TOWNNAME":"安南區","LI":"城南里","LIN":"6鄰","STREET":"青砂街","SECT":"一段","MAREA":" ","LANE":"６５巷","ALLEY":"６１弄","HOUSE_NO":"９３之６號","E_COORD97":160337.88,"N_COORD97":2551464.75,"ADDRESS":"青砂街一段６５巷６１弄９３之６號","OBJECTID":67353},"geometry":{"x":160337.87999999989,"y":2551464.7500000019}},{"attributes":{"ID":67354,"DIS_CODE":0,"TOWNNAME":"安南區","LI":"砂崙里","LIN":"6鄰","STREET":"青砂街","SECT":"一段","MAREA":" ","LANE":"５７２巷","ALLEY":"１１６弄","HOUSE_NO":"１００號","E_COORD97":160161.17000000001,"N_COORD97":2552971.0499999998,"ADDRESS":"青砂街一段５７２巷１１６弄１００號","OBJECTID":67354},"geometry":{"x":160161.16999999993,"y":2552971.0500000007}},{"attributes":{"ID":67355,"DIS_CODE":0,"TOWNNAME":"安南區","LI":"砂崙里","LIN":"6鄰","STREET":"青砂街","SECT":"一段","MAREA":" ","LANE":"５７２巷","ALLEY":"１１６弄","HOUSE_NO":"１０４號","E_COORD97":160173.70000000001,"N_COORD97":2552962.21,"ADDRESS":"青砂街一段５７２巷１１６弄１０４號","OBJECTID":67355},"geometry":{"x":160173.70000000112,"y":2552962.2100000028}},{"attributes":{"ID":67356,"DIS_CODE":0,"TOWNNAME":"安南區","LI":"砂崙里","LIN":"6鄰","STREET":"青砂街","SECT":"一段","MAREA":" ","LANE":"５７２巷","ALLEY":"１１６弄","HOUSE_NO":"１０８號","E_COORD97":160198.69,"N_COORD97":2552965.8799999999,"ADDRESS":"青砂街一段５７２巷１１６弄１０８號","OBJECTID":67356},"geometry":{"x":160198.69000000041,"y":2552965.8800000008}},{"attributes":{"ID":67357,"DIS_CODE":0,"TOWNNAME":"安南區","LI":"砂崙里","LIN":"6鄰","STREET":"青砂街","SECT":"一段","MAREA":" ","LANE":"５７２巷","ALLEY":"１１６弄","HOUSE_NO":"１１２號","E_COORD97":160217.42999999999,"N_COORD97":2552965.9700000002,"ADDRESS":"青砂街一段５７２巷１１６弄１１２號","OBJECTID":67357},"geometry":{"x":160217.43000000063,"y":2552965.9700000025}},{"attributes":{"ID":67358,"DIS_CODE":0,"TOWNNAME":"安南區","LI":"砂崙里","LIN":"6鄰","STREET":"青砂街","SECT":"一段","MAREA":" ","LANE":"５７２巷","ALLEY":"１１６弄","HOUSE_NO":"９６號","E_COORD97":160139.76000000001,"N_COORD97":2552965.1899999999,"ADDRESS":"青砂街一段５７２巷１１６弄９６號","OBJECTID":67358},"geometry":{"x":160139.75999999978,"y":2552965.1899999995}},{"attributes":{"ID":67359,"DIS_CODE":0,"TOWNNAME":"安南區","LI":"公親里","LIN":"6鄰","STREET":"公學路","SECT":"一段","MAREA":" ","LANE":"１２巷","ALLEY":"２弄","HOUSE_NO":"１號","E_COORD97":168743.63,"N_COORD97":2553169.4399999999,"ADDRESS":"公學路一段１２巷２弄１號","OBJECTID":67359},"geometry":{"x":168743.63000000082,"y":2553169.4400000013}},{"attributes":{"ID":67360,"DIS_CODE":0,"TOWNNAME":"安南區","LI":"公親里","LIN":"6鄰","STREET":"公學路","SECT":"一段","MAREA":" ","LANE":"１２巷","ALLEY":"２弄","HOUSE_NO":"２號","E_COORD97":168744.92000000001,"N_COORD97":2553176.5600000001,"ADDRESS":"公學路一段１２巷２弄２號","OBJECTID":67360},"geometry":{"x":168744.92000000086,"y":2553176.5600000024}},{"attributes":{"ID":67361,"DIS_CODE":0,"TOWNNAME":"安南區","LI":"公親里","LIN":"6鄰","STREET":"公學路","SECT":"一段","MAREA":" ","LANE":"１２巷","ALLEY":"２弄","HOUSE_NO":"３號","E_COORD97":168742.98000000001,"N_COORD97":2553179.7999999998,"ADDRESS":"公學路一段１２巷２弄３號","OBJECTID":67361},"geometry":{"x":168742.98000000138,"y":2553179.8000000007}},{"attributes":{"ID":67362,"DIS_CODE":0,"TOWNNAME":"安南區","LI":"公親里","LIN":"6鄰","STREET":"公學路","SECT":"一段","MAREA":" ","LANE":"１２巷","ALLEY":"２弄","HOUSE_NO":"４號","E_COORD97":168742.32999999999,"N_COORD97":2553184.98,"ADDRESS":"公學路一段１２巷２弄４號","OBJECTID":67362},"geometry":{"x":168742.33000000101,"y":2553184.9800000004}},{"attributes":{"ID":67363,"DIS_CODE":0,"TOWNNAME":"安南區","LI":"公親里","LIN":"6鄰","STREET":"公學路","SECT":"一段","MAREA":" ","LANE":"１２巷","ALLEY":"２弄","HOUSE_NO":"５號","E_COORD97":168718.32999999999,"N_COORD97":2553183.04,"ADDRESS":"公學路一段１２巷２弄５號","OBJECTID":67363},"geometry":{"x":168718.33000000101,"y":2553183.0399999991}},{"attributes":{"ID":67364,"DIS_CODE":0,"TOWNNAME":"安南區","LI":"公親里","LIN":"6鄰","STREET":"公學路","SECT":"一段","MAREA":" ","LANE":"１２巷","ALLEY":"２弄","HOUSE_NO":"６號","E_COORD97":168719.63,"N_COORD97":2553177.8599999999,"ADDRESS":"公學路一段１２巷２弄６號","OBJECTID":67364},"geometry":{"x":168719.63000000082,"y":2553177.8599999994}},{"attributes":{"ID":67365,"DIS_CODE":0,"TOWNNAME":"安南區","LI":"公親里","LIN":"6鄰","STREET":"公學路","SECT":"一段","MAREA":" ","LANE":"１２巷","ALLEY":"２弄","HOUSE_NO":"７號","E_COORD97":168719.63,"N_COORD97":2553173.9700000002,"ADDRESS":"公學路一段１２巷２弄７號","OBJECTID":67365},"geometry":{"x":168719.63000000082,"y":2553173.9700000025}},{"attributes":{"ID":67366,"DIS_CODE":0,"TOWNNAME":"安南區","LI":"公親里","LIN":"6鄰","STREET":"公學路","SECT":"一段","MAREA":" ","LANE":"１２巷","ALLEY":"２弄","HOUSE_NO":"８號","E_COORD97":168720.92999999999,"N_COORD97":2553169.4399999999,"ADDRESS":"公學路一段１２巷２弄８號","OBJECTID":67366},"geometry":{"x":168720.93000000063,"y":2553169.4400000013}},{"attributes":{"ID":67367,"DIS_CODE":0,"TOWNNAME":"安南區","LI":"公親里","LIN":"6鄰","STREET":"公學路","SECT":"一段","MAREA":" ","LANE":"１２巷","ALLEY":"２弄","HOUSE_NO":"９號","E_COORD97":168721.57999999999,"N_COORD97":2553163.6099999999,"ADDRESS":"公學路一段１２巷２弄９號","OBJECTID":67367},"geometry":{"x":168721.58000000101,"y":2553163.6100000013}},{"attributes":{"ID":67368,"DIS_CODE":0,"TOWNNAME":"安南區","LI":"公\u25A0里","LIN":"6鄰","STREET":"公學路","SECT":"五段","MAREA":" ","LANE":"３６３巷","ALLEY":"３６弄","HOUSE_NO":"５５號","E_COORD97":164225.47,"N_COORD97":2552447.6899999999,"ADDRESS":"公學路五段３６３巷３６弄５５號","OBJECTID":67368},"geometry":{"x":164225.46999999974,"y":2552447.6900000032}},{"attributes":{"ID":67369,"DIS_CODE":0,"TOWNNAME":"安南區","LI":"公\u25A0里","LIN":"6鄰","STREET":"公學路","SECT":"五段","MAREA":" ","LANE":"３６３巷","ALLEY":"３６弄","HOUSE_NO":"５９號","E_COORD97":164196.42000000001,"N_COORD97":2552483.48,"ADDRESS":"公學路五段３６３巷３６弄５９號","OBJECTID":67369},"geometry":{"x":164196.42000000086,"y":2552483.4800000004}},{"attributes":{"ID":67370,"DIS_CODE":0,"TOWNNAME":"安南區","LI":"公\u25A0里","LIN":"6鄰","STREET":"公學路","SECT":"五段","MAREA":" ","LANE":"３６３巷","ALLEY":"３６弄","HOUSE_NO":"６號","E_COORD97":164309.60999999999,"N_COORD97":2552365.7200000002,"ADDRESS":"公學路五段３６３巷３６弄６號","OBJECTID":67370},"geometry":{"x":164309.61000000127,"y":2552365.7200000007}},{"attributes":{"ID":67371,"DIS_CODE":0,"TOWNNAME":"安南區","LI":"公\u25A0里","LIN":"6鄰","STREET":"公學路","SECT":"五段","MAREA":" ","LANE":"３６３巷","ALLEY":"３６弄","HOUSE_NO":"１０號","E_COORD97":164288.35999999999,"N_COORD97":2552355.27,"ADDRESS":"公學路五段３６３巷３６弄１０號","OBJECTID":67371},"geometry":{"x":164288.36000000034,"y":2552355.2699999977}},{"attributes":{"ID":67372,"DIS_CODE":0,"TOWNNAME":"安南區","LI":"公\u25A0里","LIN":"6鄰","STREET":"公學路","SECT":"五段","MAREA":" ","LANE":"３６３巷","ALLEY":"３６弄","HOUSE_NO":"１５號","E_COORD97":164260.28,"N_COORD97":2552354.77,"ADDRESS":"公學路五段３６３巷３６弄１５號","OBJECTID":67372},"geometry":{"x":164260.28000000212,"y":2552354.7699999996}},{"attributes":{"ID":67373,"DIS_CODE":0,"TOWNNAME":"安南區","LI":"公\u25A0里","LIN":"6鄰","STREET":"公學路","SECT":"五段","MAREA":" ","LANE":"３６３巷","ALLEY":"３６弄","HOUSE_NO":"２２號","E_COORD97":164292.98999999999,"N_COORD97":2552394.04,"ADDRESS":"公學路五段３６３巷３６弄２２號","OBJECTID":67373},"geometry":{"x":164292.99000000115,"y":2552394.0400000028}},{"attributes":{"ID":67374,"DIS_CODE":0,"TOWNNAME":"新市區","LI":"三舍里","LIN":"7鄰","STREET":" ","SECT":" ","MAREA":"三舍","LANE":" ","ALLEY":" ","HOUSE_NO":"１６８之９１號","E_COORD97":177466.70999999999,"N_COORD97":2554735.54,"ADDRESS":"三舍１６８之９１號","OBJECTID":67374},"geometry":{"x":177466.71000000089,"y":2554735.5399999991}},{"attributes":{"ID":67375,"DIS_CODE":0,"TOWNNAME":"安南區","LI":"公\u25A0里","LIN":"6鄰","STREET":"公學路","SECT":"五段","MAREA":" ","LANE":"３６３巷","ALLEY":"３６弄","HOUSE_NO":"３０號","E_COORD97":164270.19,"N_COORD97":2552383.8100000001,"ADDRESS":"公學路五段３６３巷３６弄３０號","OBJECTID":67375},"geometry":{"x":164270.19000000134,"y":2552383.8100000024}},{"attributes":{"ID":67376,"DIS_CODE":0,"TOWNNAME":"安南區","LI":"公\u25A0里","LIN":"6鄰","STREET":"公學路","SECT":"五段","MAREA":" ","LANE":"３６３巷","ALLEY":"３６弄","HOUSE_NO":"３０號之１","E_COORD97":164279.44,"N_COORD97":2552373.5800000001,"ADDRESS":"公學路五段３６３巷３６弄３０號之１","OBJECTID":67376},"geometry":{"x":164279.44000000041,"y":2552373.5800000001}},{"attributes":{"ID":67377,"DIS_CODE":0,"TOWNNAME":"安南區","LI":"公\u25A0里","LIN":"6鄰","STREET":"公學路","SECT":"五段","MAREA":" ","LANE":"３６３巷","ALLEY":"３６弄","HOUSE_NO":"３２號","E_COORD97":164270.85000000001,"N_COORD97":2552366.6499999999,"ADDRESS":"公學路五段３６３巷３６弄３２號","OBJECTID":67377},"geometry":{"x":164270.85000000149,"y":2552366.6500000004}},{"attributes":{"ID":67378,"DIS_CODE":0,"TOWNNAME":"安南區","LI":"公\u25A0里","LIN":"6鄰","STREET":"公學路","SECT":"五段","MAREA":" ","LANE":"３６３巷","ALLEY":"３６弄","HOUSE_NO":"３２號之１","E_COORD97":164246.14000000001,"N_COORD97":2552415.8100000001,"ADDRESS":"公學路五段３６３巷３６弄３２號之１","OBJECTID":67378},"geometry":{"x":164246.13999999966,"y":2552415.8100000005}},{"attributes":{"ID":67379,"DIS_CODE":0,"TOWNNAME":"安南區","LI":"公\u25A0里","LIN":"6鄰","STREET":"公學路","SECT":"五段","MAREA":" ","LANE":"３６３巷","ALLEY":"３６弄","HOUSE_NO":"４０號","E_COORD97":164273.82000000001,"N_COORD97":2552370.6099999999,"ADDRESS":"公學路五段３６３巷３６弄４０號","OBJECTID":67379},"geometry":{"x":164273.82000000123,"y":2552370.6100000013}},{"attributes":{"ID":67380,"DIS_CODE":0,"TOWNNAME":"安南區","LI":"公\u25A0里","LIN":"6鄰","STREET":"公學路","SECT":"五段","MAREA":" ","LANE":"３６３巷","ALLEY":"３６弄","HOUSE_NO":"４２號","E_COORD97":164271.51000000001,"N_COORD97":2552386.7799999998,"ADDRESS":"公學路五段３６３巷３６弄４２號","OBJECTID":67380},"geometry":{"x":164271.50999999978,"y":2552386.7800000012}},{"attributes":{"ID":67381,"DIS_CODE":0,"TOWNNAME":"安南區","LI":"公\u25A0里","LIN":"6鄰","STREET":"公學路","SECT":"五段","MAREA":" ","LANE":"３６３巷","ALLEY":"３６弄","HOUSE_NO":"４７號","E_COORD97":164204.98000000001,"N_COORD97":2552422.6099999999,"ADDRESS":"公學路五段３６３巷３６弄４７號","OBJECTID":67381},"geometry":{"x":164204.98000000138,"y":2552422.6099999994}},{"attributes":{"ID":67382,"DIS_CODE":0,"TOWNNAME":"安南區","LI":"公\u25A0里","LIN":"6鄰","STREET":"公學路","SECT":"五段","MAREA":" ","LANE":"３６３巷","ALLEY":"３６弄","HOUSE_NO":"５３號","E_COORD97":164214.23000000001,"N_COORD97":2552442.0800000001,"ADDRESS":"公學路五段３６３巷３６弄５３號","OBJECTID":67382},"geometry":{"x":164214.23000000045,"y":2552442.0800000038}},{"attributes":{"ID":67383,"DIS_CODE":0,"TOWNNAME":"安南區","LI":"佃西里","LIN":"6鄰","STREET":"公學路","SECT":"四段","MAREA":" ","LANE":"２３４巷","ALLEY":"５３弄","HOUSE_NO":"７號","E_COORD97":165326.5,"N_COORD97":2551815.1099999999,"ADDRESS":"公學路四段２３４巷５３弄７號","OBJECTID":67383},"geometry":{"x":165326.50000000186,"y":2551815.1100000013}},{"attributes":{"ID":67384,"DIS_CODE":0,"TOWNNAME":"安南區","LI":"長安里","LIN":"6鄰","STREET":"長溪路","SECT":"三段","MAREA":" ","LANE":"４０５巷","ALLEY":"４０弄","HOUSE_NO":"５４號","E_COORD97":167453.12,"N_COORD97":2552031.6899999999,"ADDRESS":"長溪路三段４０５巷４０弄５４號","OBJECTID":67384},"geometry":{"x":167453.12000000197,"y":2552031.6900000013}},{"attributes":{"ID":67385,"DIS_CODE":0,"TOWNNAME":"安南區","LI":"長安里","LIN":"6鄰","STREET":"長溪路","SECT":"三段","MAREA":" ","LANE":"４０５巷","ALLEY":"４０弄","HOUSE_NO":"５４號之１","E_COORD97":167450.32000000001,"N_COORD97":2552035.5699999998,"ADDRESS":"長溪路三段４０５巷４０弄５４號之１","OBJECTID":67385},"geometry":{"x":167450.32000000216,"y":2552035.570000004}},{"attributes":{"ID":67386,"DIS_CODE":0,"TOWNNAME":"安南區","LI":"長安里","LIN":"6鄰","STREET":"長溪路","SECT":"三段","MAREA":" ","LANE":"４０５巷","ALLEY":"４０弄","HOUSE_NO":"５６號","E_COORD97":167447,"N_COORD97":2552038.7200000002,"ADDRESS":"長溪路三段４０５巷４０弄５６號","OBJECTID":67386},"geometry":{"x":167446.99999999907,"y":2552038.7200000025}},{"attributes":{"ID":67387,"DIS_CODE":0,"TOWNNAME":"安南區","LI":"長安里","LIN":"6鄰","STREET":"長溪路","SECT":"三段","MAREA":" ","LANE":"４０５巷","ALLEY":"４０弄","HOUSE_NO":"５６號之１","E_COORD97":167443.81,"N_COORD97":2552041.8999999999,"ADDRESS":"長溪路三段４０５巷４０弄５６號之１","OBJECTID":67387},"geometry":{"x":167443.80999999959,"y":2552041.9000000004}},{"attributes":{"ID":67388,"DIS_CODE":0,"TOWNNAME":"新市區","LI":"大社里","LIN":"35鄰","STREET":" ","SECT":" ","MAREA":"大社","LANE":" ","ALLEY":" ","HOUSE_NO":"５８９之７６號","E_COORD97":179358.92999999999,"N_COORD97":2554599.0499999998,"ADDRESS":"大社５８９之７６號","OBJECTID":67388},"geometry":{"x":179358.9299999997,"y":2554599.0499999989}},{"attributes":{"ID":67389,"DIS_CODE":0,"TOWNNAME":"新市區","LI":"大社里","LIN":"35鄰","STREET":" ","SECT":" ","MAREA":"大社","LANE":" ","ALLEY":" ","HOUSE_NO":"５８９之７０號","E_COORD97":179349.39999999999,"N_COORD97":2554575.2999999998,"ADDRESS":"大社５８９之７０號","OBJECTID":67389},"geometry":{"x":179349.40000000037,"y":2554575.3000000026}},{"attributes":{"ID":67390,"DIS_CODE":0,"TOWNNAME":"安定區","LI":"港南里","LIN":"6鄰","STREET":" ","SECT":" ","MAREA":"港口","LANE":" ","ALLEY":" ","HOUSE_NO":"４６號","E_COORD97":171685.23999999999,"N_COORD97":2554211.25,"ADDRESS":"港口４６號","OBJECTID":67390},"geometry":{"x":171685.23999999929,"y":2554211.2500000019}},{"attributes":{"ID":67391,"DIS_CODE":0,"TOWNNAME":"安南區","LI":"長安里","LIN":"6鄰","STREET":"長溪路","SECT":"三段","MAREA":" ","LANE":"４０５巷","ALLEY":"４０弄","HOUSE_NO":"５８號","E_COORD97":167440.94,"N_COORD97":2552045.02,"ADDRESS":"長溪路三段４０５巷４０弄５８號","OBJECTID":67391},"geometry":{"x":167440.94000000041,"y":2552045.0199999977}},{"attributes":{"ID":67392,"DIS_CODE":0,"TOWNNAME":"新市區","LI":"大營里","LIN":"7鄰","STREET":" ","SECT":" ","MAREA":"大營","LANE":" ","ALLEY":" ","HOUSE_NO":"１５８之３號","E_COORD97":179351.70999999999,"N_COORD97":2555479.6600000001,"ADDRESS":"大營１５８之３號","OBJECTID":67392},"geometry":{"x":179351.71000000089,"y":2555479.6600000039}},{"attributes":{"ID":67393,"DIS_CODE":0,"TOWNNAME":"新市區","LI":"大營里","LIN":"7鄰","STREET":" ","SECT":" ","MAREA":"大營","LANE":" ","ALLEY":" ","HOUSE_NO":"１５８之２號","E_COORD97":179360.76000000001,"N_COORD97":2555477.6899999999,"ADDRESS":"大營１５８之２號","OBJECTID":67393},"geometry":{"x":179360.76000000071,"y":2555477.6899999995}},{"attributes":{"ID":67394,"DIS_CODE":0,"TOWNNAME":"新市區","LI":"大社里","LIN":"35鄰","STREET":" ","SECT":" ","MAREA":"大社","LANE":" ","ALLEY":" ","HOUSE_NO":"５８９之２５號","E_COORD97":179329.62,"N_COORD97":2554472.2999999998,"ADDRESS":"大社５８９之２５號","OBJECTID":67394},"geometry":{"x":179329.62000000197,"y":2554472.3000000045}},{"attributes":{"ID":67395,"DIS_CODE":0,"TOWNNAME":"新市區","LI":"大社里","LIN":"35鄰","STREET":" ","SECT":" ","MAREA":"大社","LANE":" ","ALLEY":" ","HOUSE_NO":"５８９之２９號","E_COORD97":179320.07000000001,"N_COORD97":2554513.0499999998,"ADDRESS":"大社５８９之２９號","OBJECTID":67395},"geometry":{"x":179320.07000000216,"y":2554513.0500000007}},{"attributes":{"ID":67396,"DIS_CODE":0,"TOWNNAME":"安南區","LI":"長安里","LIN":"6鄰","STREET":"長溪路","SECT":"三段","MAREA":" ","LANE":"４０５巷","ALLEY":"４０弄","HOUSE_NO":"５８號之１","E_COORD97":167437.69,"N_COORD97":2552048.52,"ADDRESS":"長溪路三段４０５巷４０弄５８號之１","OBJECTID":67396},"geometry":{"x":167437.69000000227,"y":2552048.5199999977}},{"attributes":{"ID":67397,"DIS_CODE":0,"TOWNNAME":"安南區","LI":"長安里","LIN":"6鄰","STREET":"長溪路","SECT":"三段","MAREA":" ","LANE":"４０５巷","ALLEY":"４０弄","HOUSE_NO":"６０之１號","E_COORD97":167418.85999999999,"N_COORD97":2552026.6499999999,"ADDRESS":"長溪路三段４０５巷４０弄６０之１號","OBJECTID":67397},"geometry":{"x":167418.86000000034,"y":2552026.6500000004}},{"attributes":{"ID":67398,"DIS_CODE":0,"TOWNNAME":"安南區","LI":"長安里","LIN":"6鄰","STREET":"長溪路","SECT":"三段","MAREA":" ","LANE":"４０５巷","ALLEY":"４０弄","HOUSE_NO":"６０號","E_COORD97":167415.64000000001,"N_COORD97":2552029.7000000002,"ADDRESS":"長溪路三段４０５巷４０弄６０號","OBJECTID":67398},"geometry":{"x":167415.6400000006,"y":2552029.6999999993}},{"attributes":{"ID":67399,"DIS_CODE":0,"TOWNNAME":"安南區","LI":"長安里","LIN":"6鄰","STREET":"長溪路","SECT":"三段","MAREA":" ","LANE":"４０５巷","ALLEY":"４０弄","HOUSE_NO":"６２號","E_COORD97":167422.23999999999,"N_COORD97":2552022.8900000001,"ADDRESS":"長溪路三段４０５巷４０弄６２號","OBJECTID":67399},"geometry":{"x":167422.24000000115,"y":2552022.8900000006}},{"attributes":{"ID":67400,"DIS_CODE":0,"TOWNNAME":"新市區","LI":"大社里","LIN":"35鄰","STREET":" ","SECT":" ","MAREA":"大社","LANE":" ","ALLEY":" ","HOUSE_NO":"５８９之１７號","E_COORD97":179310.32000000001,"N_COORD97":2554500.7999999998,"ADDRESS":"大社５８９之１７號","OBJECTID":67400},"geometry":{"x":179310.32000000123,"y":2554500.8000000026}}]}