{"displayFieldName":"TOWNNAME","fieldAliases":{"ID":"ID","DIS_CODE":"DIS_CODE","TOWNNAME":"TOWNNAME","LI":"LI","LIN":"LIN","STREET":"STREET","SECT":"SECT","MAREA":"MAREA","LANE":"LANE","ALLEY":"ALLEY","HOUSE_NO":"HOUSE_NO","E_COORD97":"E_COORD97","N_COORD97":"N_COORD97","ADDRESS":"ADDRESS","OBJECTID":"OBJECTID"},"geometryType":"esriGeometryPoint","spatialReference":{"wkid":102443,"latestWkid":3826},"fields":[{"name":"ID","type":"esriFieldTypeDouble","alias":"ID"},{"name":"DIS_CODE","type":"esriFieldTypeInteger","alias":"DIS_CODE"},{"name":"TOWNNAME","type":"esriFieldTypeString","alias":"TOWNNAME","length":8},{"name":"LI","type":"esriFieldTypeString","alias":"LI","length":8},{"name":"LIN","type":"esriFieldTypeString","alias":"LIN","length":12},{"name":"STREET","type":"esriFieldTypeString","alias":"STREET","length":20},{"name":"SECT","type":"esriFieldTypeString","alias":"SECT","length":8},{"name":"MAREA","type":"esriFieldTypeString","alias":"MAREA","length":12},{"name":"LANE","type":"esriFieldTypeString","alias":"LANE","length":10},{"name":"ALLEY","type":"esriFieldTypeString","alias":"ALLEY","length":10},{"name":"HOUSE_NO","type":"esriFieldTypeString","alias":"HOUSE_NO","length":20},{"name":"E_COORD97","type":"esriFieldTypeDouble","alias":"E_COORD97"},{"name":"N_COORD97","type":"esriFieldTypeDouble","alias":"N_COORD97"},{"name":"ADDRESS","type":"esriFieldTypeString","alias":"ADDRESS","length":50},{"name":"OBJECTID","type":"esriFieldTypeOID","alias":"OBJECTID"}],"features":[{"attributes":{"ID":283607,"DIS_CODE":0,"TOWNNAME":"仁德區","LI":"三甲里","LIN":"2鄰","STREET":" ","SECT":" ","MAREA":"三甲子","LANE":" ","ALLEY":" ","HOUSE_NO":"１７之１號","E_COORD97":172035.92000000001,"N_COORD97":2537142.04,"ADDRESS":"三甲子１７之１號","OBJECTID":283601},"geometry":{"x":172035.91999999993,"y":2537142.040000001}},{"attributes":{"ID":283608,"DIS_CODE":0,"TOWNNAME":"安南區","LI":"州北里","LIN":"19鄰","STREET":"安昌街","SECT":" ","MAREA":" ","LANE":"８５巷","ALLEY":" ","HOUSE_NO":"１９號","E_COORD97":169908.95000000001,"N_COORD97":2552238.7599999998,"ADDRESS":"安昌街８５巷１９號","OBJECTID":283602},"geometry":{"x":169908.94999999925,"y":2552238.7600000016}},{"attributes":{"ID":283609,"DIS_CODE":0,"TOWNNAME":"仁德區","LI":"三甲里","LIN":"2鄰","STREET":" ","SECT":" ","MAREA":"三甲子","LANE":" ","ALLEY":" ","HOUSE_NO":"１３之３號","E_COORD97":172012.04999999999,"N_COORD97":2537010.0499999998,"ADDRESS":"三甲子１３之３號","OBJECTID":283603},"geometry":{"x":172012.05000000075,"y":2537010.0500000045}},{"attributes":{"ID":283610,"DIS_CODE":0,"TOWNNAME":"新化區","LI":"山\u25A0里","LIN":"2鄰","STREET":" ","SECT":" ","MAREA":"頂山\u25A0","LANE":" ","ALLEY":" ","HOUSE_NO":"６４號","E_COORD97":179449.38,"N_COORD97":2546651.25,"ADDRESS":"頂山\u25A0６４號","OBJECTID":283604},"geometry":{"x":179449.37999999989,"y":2546651.2500000019}},{"attributes":{"ID":283611,"DIS_CODE":0,"TOWNNAME":"仁德區","LI":"三甲里","LIN":"2鄰","STREET":" ","SECT":" ","MAREA":"三甲子","LANE":" ","ALLEY":" ","HOUSE_NO":"１９號之４","E_COORD97":172031.66,"N_COORD97":2537180.54,"ADDRESS":"三甲子１９號之４","OBJECTID":283605},"geometry":{"x":172031.66000000201,"y":2537180.5399999991}},{"attributes":{"ID":283612,"DIS_CODE":0,"TOWNNAME":"仁德區","LI":"三甲里","LIN":"2鄰","STREET":" ","SECT":" ","MAREA":"三甲子","LANE":" ","ALLEY":" ","HOUSE_NO":"１６號之３","E_COORD97":171997.79000000001,"N_COORD97":2537176.54,"ADDRESS":"三甲子１６號之３","OBJECTID":283606},"geometry":{"x":171997.79000000004,"y":2537176.5399999991}},{"attributes":{"ID":283613,"DIS_CODE":0,"TOWNNAME":"仁德區","LI":"三甲里","LIN":"2鄰","STREET":" ","SECT":" ","MAREA":"三甲子","LANE":" ","ALLEY":" ","HOUSE_NO":"２１號之３","E_COORD97":171951.98999999999,"N_COORD97":2537161.04,"ADDRESS":"三甲子２１號之３","OBJECTID":283607},"geometry":{"x":171951.99000000115,"y":2537161.0400000028}},{"attributes":{"ID":283614,"DIS_CODE":0,"TOWNNAME":"仁德區","LI":"三甲里","LIN":"2鄰","STREET":" ","SECT":" ","MAREA":"三甲子","LANE":" ","ALLEY":" ","HOUSE_NO":"１３之２號","E_COORD97":172008.87,"N_COORD97":2537034.04,"ADDRESS":"三甲子１３之２號","OBJECTID":283608},"geometry":{"x":172008.87000000104,"y":2537034.0399999991}},{"attributes":{"ID":283615,"DIS_CODE":0,"TOWNNAME":"安南區","LI":"州北里","LIN":"19鄰","STREET":"安昌街","SECT":" ","MAREA":" ","LANE":"８５巷","ALLEY":" ","HOUSE_NO":"１號","E_COORD97":169911.14999999999,"N_COORD97":2552162.9700000002,"ADDRESS":"安昌街８５巷１號","OBJECTID":283609},"geometry":{"x":169911.14999999944,"y":2552162.9700000025}},{"attributes":{"ID":283616,"DIS_CODE":0,"TOWNNAME":"仁德區","LI":"三甲里","LIN":"2鄰","STREET":" ","SECT":" ","MAREA":"三甲子","LANE":" ","ALLEY":" ","HOUSE_NO":"２１號","E_COORD97":171951.88,"N_COORD97":2537174.2400000002,"ADDRESS":"三甲子２１號","OBJECTID":283610},"geometry":{"x":171951.88000000175,"y":2537174.2400000039}},{"attributes":{"ID":283617,"DIS_CODE":0,"TOWNNAME":"仁德區","LI":"三甲里","LIN":"2鄰","STREET":" ","SECT":" ","MAREA":"三甲子","LANE":" ","ALLEY":" ","HOUSE_NO":"１３號之１","E_COORD97":171955.62,"N_COORD97":2537114.0499999998,"ADDRESS":"三甲子１３號之１","OBJECTID":283611},"geometry":{"x":171955.62000000197,"y":2537114.0500000007}},{"attributes":{"ID":283618,"DIS_CODE":0,"TOWNNAME":"安南區","LI":"州北里","LIN":"19鄰","STREET":"安昌街","SECT":" ","MAREA":" ","LANE":"８５巷","ALLEY":" ","HOUSE_NO":"２１號","E_COORD97":169908.76999999999,"N_COORD97":2552246.3500000001,"ADDRESS":"安昌街８５巷２１號","OBJECTID":283612},"geometry":{"x":169908.76999999955,"y":2552246.3499999978}},{"attributes":{"ID":283619,"DIS_CODE":0,"TOWNNAME":"仁德區","LI":"三甲里","LIN":"2鄰","STREET":" ","SECT":" ","MAREA":"三甲子","LANE":" ","ALLEY":" ","HOUSE_NO":"１８號之１","E_COORD97":172018.82000000001,"N_COORD97":2537172.04,"ADDRESS":"三甲子１８號之１","OBJECTID":283613},"geometry":{"x":172018.82000000216,"y":2537172.040000001}},{"attributes":{"ID":283620,"DIS_CODE":0,"TOWNNAME":"仁德區","LI":"三甲里","LIN":"2鄰","STREET":" ","SECT":" ","MAREA":"三甲子","LANE":" ","ALLEY":" ","HOUSE_NO":"１６號之２","E_COORD97":171981.28,"N_COORD97":2537171.54,"ADDRESS":"三甲子１６號之２","OBJECTID":283614},"geometry":{"x":171981.28000000026,"y":2537171.540000001}},{"attributes":{"ID":283621,"DIS_CODE":0,"TOWNNAME":"仁德區","LI":"三甲里","LIN":"2鄰","STREET":" ","SECT":" ","MAREA":"三甲子","LANE":" ","ALLEY":" ","HOUSE_NO":"２１號之７","E_COORD97":171967.94,"N_COORD97":2537168.29,"ADDRESS":"三甲子２１號之７","OBJECTID":283615},"geometry":{"x":171967.94000000134,"y":2537168.2899999991}},{"attributes":{"ID":283622,"DIS_CODE":0,"TOWNNAME":"新化區","LI":"山\u25A0里","LIN":"2鄰","STREET":" ","SECT":" ","MAREA":"頂山\u25A0","LANE":" ","ALLEY":" ","HOUSE_NO":"５４號之１８５","E_COORD97":179242.84,"N_COORD97":2546200.2599999998,"ADDRESS":"頂山\u25A0５４號之１８５","OBJECTID":283616},"geometry":{"x":179242.83999999985,"y":2546200.2600000016}},{"attributes":{"ID":283623,"DIS_CODE":0,"TOWNNAME":"安南區","LI":"州北里","LIN":"19鄰","STREET":"安昌街","SECT":" ","MAREA":" ","LANE":"８５巷","ALLEY":" ","HOUSE_NO":"２３號","E_COORD97":169908.59,"N_COORD97":2552253.3500000001,"ADDRESS":"安昌街８５巷２３號","OBJECTID":283617},"geometry":{"x":169908.58999999985,"y":2552253.3500000034}},{"attributes":{"ID":283624,"DIS_CODE":0,"TOWNNAME":"安南區","LI":"州北里","LIN":"19鄰","STREET":"安昌街","SECT":" ","MAREA":" ","LANE":"８５巷","ALLEY":" ","HOUSE_NO":"２５號","E_COORD97":169908.23000000001,"N_COORD97":2552261.2599999998,"ADDRESS":"安昌街８５巷２５號","OBJECTID":283618},"geometry":{"x":169908.23000000138,"y":2552261.2600000016}},{"attributes":{"ID":283625,"DIS_CODE":0,"TOWNNAME":"安南區","LI":"州北里","LIN":"19鄰","STREET":"安昌街","SECT":" ","MAREA":" ","LANE":"８５巷","ALLEY":" ","HOUSE_NO":"２７號","E_COORD97":169908.41,"N_COORD97":2552266.1099999999,"ADDRESS":"安昌街８５巷２７號","OBJECTID":283619},"geometry":{"x":169908.41000000108,"y":2552266.1100000013}},{"attributes":{"ID":283626,"DIS_CODE":0,"TOWNNAME":"新化區","LI":"知義里","LIN":"2鄰","STREET":" ","SECT":" ","MAREA":"知母義","LANE":" ","ALLEY":" ","HOUSE_NO":"１３６號","E_COORD97":179827.32000000001,"N_COORD97":2547045.25,"ADDRESS":"知母義１３６號","OBJECTID":283620},"geometry":{"x":179827.32000000123,"y":2547045.25}},{"attributes":{"ID":283627,"DIS_CODE":0,"TOWNNAME":"安南區","LI":"州北里","LIN":"19鄰","STREET":"安昌街","SECT":" ","MAREA":" ","LANE":"８５巷","ALLEY":" ","HOUSE_NO":"２９號","E_COORD97":169909.13,"N_COORD97":2552278.3199999998,"ADDRESS":"安昌街８５巷２９號","OBJECTID":283621},"geometry":{"x":169909.13000000175,"y":2552278.3200000022}},{"attributes":{"ID":283628,"DIS_CODE":0,"TOWNNAME":"安南區","LI":"州北里","LIN":"19鄰","STREET":"安昌街","SECT":" ","MAREA":" ","LANE":"８５巷","ALLEY":" ","HOUSE_NO":"３３號","E_COORD97":169907.12,"N_COORD97":2552292.4300000002,"ADDRESS":"安昌街８５巷３３號","OBJECTID":283622},"geometry":{"x":169907.12000000011,"y":2552292.4299999997}},{"attributes":{"ID":283629,"DIS_CODE":0,"TOWNNAME":"新化區","LI":"北勢里","LIN":"2鄰","STREET":" ","SECT":" ","MAREA":"北勢","LANE":" ","ALLEY":" ","HOUSE_NO":"２７號之９","E_COORD97":177527.57999999999,"N_COORD97":2549514.2599999998,"ADDRESS":"北勢２７號之９","OBJECTID":283623},"geometry":{"x":177527.58000000007,"y":2549514.2599999998}},{"attributes":{"ID":283630,"DIS_CODE":0,"TOWNNAME":"安南區","LI":"州北里","LIN":"19鄰","STREET":"安昌街","SECT":" ","MAREA":" ","LANE":"８５巷","ALLEY":" ","HOUSE_NO":"３５號","E_COORD97":169906.60000000001,"N_COORD97":2552297.6800000002,"ADDRESS":"安昌街８５巷３５號","OBJECTID":283624},"geometry":{"x":169906.59999999963,"y":2552297.6799999997}},{"attributes":{"ID":283631,"DIS_CODE":0,"TOWNNAME":"安南區","LI":"淵中里","LIN":"19鄰","STREET":"安中路","SECT":"四段","MAREA":" ","LANE":"１９７巷","ALLEY":" ","HOUSE_NO":"３２號","E_COORD97":164733.98999999999,"N_COORD97":2550005.9700000002,"ADDRESS":"安中路四段１９７巷３２號","OBJECTID":283625},"geometry":{"x":164733.99000000115,"y":2550005.9700000044}},{"attributes":{"ID":283632,"DIS_CODE":0,"TOWNNAME":"新化區","LI":"山\u25A0里","LIN":"2鄰","STREET":" ","SECT":" ","MAREA":"頂山\u25A0","LANE":" ","ALLEY":" ","HOUSE_NO":"５２號之３","E_COORD97":179319.82999999999,"N_COORD97":2546648.2599999998,"ADDRESS":"頂山\u25A0５２號之３","OBJECTID":283626},"geometry":{"x":179319.83000000194,"y":2546648.2599999998}},{"attributes":{"ID":283633,"DIS_CODE":0,"TOWNNAME":"安南區","LI":"鳳凰里","LIN":"19鄰","STREET":"安中路","SECT":"一段","MAREA":" ","LANE":"７０２巷","ALLEY":" ","HOUSE_NO":"１０６號","E_COORD97":167914.22,"N_COORD97":2549300.8500000001,"ADDRESS":"安中路一段７０２巷１０６號","OBJECTID":283627},"geometry":{"x":167914.21999999974,"y":2549300.8500000015}},{"attributes":{"ID":283634,"DIS_CODE":0,"TOWNNAME":"安南區","LI":"淵中里","LIN":"19鄰","STREET":"安中路","SECT":"四段","MAREA":" ","LANE":"１９７巷","ALLEY":" ","HOUSE_NO":"４０號","E_COORD97":164726.41,"N_COORD97":2549990.73,"ADDRESS":"安中路四段１９７巷４０號","OBJECTID":283628},"geometry":{"x":164726.41000000015,"y":2549990.7300000023}},{"attributes":{"ID":283635,"DIS_CODE":0,"TOWNNAME":"新化區","LI":"北勢里","LIN":"2鄰","STREET":" ","SECT":" ","MAREA":"北勢","LANE":" ","ALLEY":" ","HOUSE_NO":"３８號之１","E_COORD97":177375.26000000001,"N_COORD97":2549514.2599999998,"ADDRESS":"北勢３８號之１","OBJECTID":283629},"geometry":{"x":177375.25999999978,"y":2549514.2599999998}},{"attributes":{"ID":283636,"DIS_CODE":0,"TOWNNAME":"安南區","LI":"淵中里","LIN":"19鄰","STREET":"安中路","SECT":"四段","MAREA":" ","LANE":"１９７巷","ALLEY":" ","HOUSE_NO":"４２號","E_COORD97":164724.89999999999,"N_COORD97":2549987.0299999998,"ADDRESS":"安中路四段１９７巷４２號","OBJECTID":283630},"geometry":{"x":164724.90000000037,"y":2549987.0300000031}},{"attributes":{"ID":283637,"DIS_CODE":0,"TOWNNAME":"新化區","LI":"山\u25A0里","LIN":"2鄰","STREET":" ","SECT":" ","MAREA":"頂山\u25A0","LANE":" ","ALLEY":" ","HOUSE_NO":"５２號之１","E_COORD97":179304.41,"N_COORD97":2546605.2599999998,"ADDRESS":"頂山\u25A0５２號之１","OBJECTID":283631},"geometry":{"x":179304.41000000108,"y":2546605.2599999998}},{"attributes":{"ID":283638,"DIS_CODE":0,"TOWNNAME":"安南區","LI":"淵中里","LIN":"19鄰","STREET":"安中路","SECT":"四段","MAREA":" ","LANE":"１９７巷","ALLEY":" ","HOUSE_NO":"５０號","E_COORD97":164716.45000000001,"N_COORD97":2549968.0800000001,"ADDRESS":"安中路四段１９７巷５０號","OBJECTID":283632},"geometry":{"x":164716.45000000019,"y":2549968.0800000019}},{"attributes":{"ID":283639,"DIS_CODE":0,"TOWNNAME":"安南區","LI":"淵中里","LIN":"19鄰","STREET":"安中路","SECT":"四段","MAREA":" ","LANE":"１９７巷","ALLEY":" ","HOUSE_NO":"５１號","E_COORD97":164740.94,"N_COORD97":2549957.04,"ADDRESS":"安中路四段１９７巷５１號","OBJECTID":283633},"geometry":{"x":164740.94000000134,"y":2549957.040000001}},{"attributes":{"ID":283640,"DIS_CODE":0,"TOWNNAME":"安南區","LI":"淵中里","LIN":"19鄰","STREET":"安中路","SECT":"四段","MAREA":" ","LANE":"１９７巷","ALLEY":" ","HOUSE_NO":"５２號","E_COORD97":164714.87,"N_COORD97":2549964.75,"ADDRESS":"安中路四段１９７巷５２號","OBJECTID":283634},"geometry":{"x":164714.87000000011,"y":2549964.75}},{"attributes":{"ID":283641,"DIS_CODE":0,"TOWNNAME":"安南區","LI":"淵中里","LIN":"19鄰","STREET":"安中路","SECT":"四段","MAREA":" ","LANE":"１９７巷","ALLEY":" ","HOUSE_NO":"５３號","E_COORD97":164738.35000000001,"N_COORD97":2549953.54,"ADDRESS":"安中路四段１９７巷５３號","OBJECTID":283635},"geometry":{"x":164738.34999999963,"y":2549953.540000001}},{"attributes":{"ID":283642,"DIS_CODE":0,"TOWNNAME":"安南區","LI":"淵中里","LIN":"19鄰","STREET":"安中路","SECT":"四段","MAREA":" ","LANE":"１９７巷","ALLEY":" ","HOUSE_NO":"５４號","E_COORD97":164713.45000000001,"N_COORD97":2549960.9100000001,"ADDRESS":"安中路四段１９７巷５４號","OBJECTID":283636},"geometry":{"x":164713.45000000112,"y":2549960.9100000001}},{"attributes":{"ID":283643,"DIS_CODE":0,"TOWNNAME":"安南區","LI":"淵中里","LIN":"19鄰","STREET":"安中路","SECT":"四段","MAREA":" ","LANE":"１９７巷","ALLEY":" ","HOUSE_NO":"５５號","E_COORD97":164737.26999999999,"N_COORD97":2549949.3700000001,"ADDRESS":"安中路四段１９７巷５５號","OBJECTID":283637},"geometry":{"x":164737.26999999955,"y":2549949.3700000048}},{"attributes":{"ID":283644,"DIS_CODE":0,"TOWNNAME":"安南區","LI":"淵中里","LIN":"19鄰","STREET":"安中路","SECT":"四段","MAREA":" ","LANE":"１９７巷","ALLEY":" ","HOUSE_NO":"５６號","E_COORD97":164711.95000000001,"N_COORD97":2549956.6600000001,"ADDRESS":"安中路四段１９７巷５６號","OBJECTID":283638},"geometry":{"x":164711.95000000112,"y":2549956.6600000039}},{"attributes":{"ID":283645,"DIS_CODE":0,"TOWNNAME":"安南區","LI":"淵中里","LIN":"19鄰","STREET":"安中路","SECT":"四段","MAREA":" ","LANE":"１９７巷","ALLEY":" ","HOUSE_NO":"５７號","E_COORD97":164735.76999999999,"N_COORD97":2549945.6200000001,"ADDRESS":"安中路四段１９７巷５７號","OBJECTID":283639},"geometry":{"x":164735.76999999862,"y":2549945.6200000029}},{"attributes":{"ID":283646,"DIS_CODE":0,"TOWNNAME":"永康區","LI":"五王里","LIN":"19鄰","STREET":"成功路","SECT":" ","MAREA":" ","LANE":"１７２巷","ALLEY":" ","HOUSE_NO":"２５號","E_COORD97":171495.59,"N_COORD97":2545666.48,"ADDRESS":"成功路１７２巷２５號","OBJECTID":283640},"geometry":{"x":171495.58999999985,"y":2545666.4800000023}},{"attributes":{"ID":283647,"DIS_CODE":0,"TOWNNAME":"永康區","LI":"五王里","LIN":"19鄰","STREET":"成功路","SECT":" ","MAREA":" ","LANE":"１７２巷","ALLEY":" ","HOUSE_NO":"１７號","E_COORD97":171479.29000000001,"N_COORD97":2545654.73,"ADDRESS":"成功路１７２巷１７號","OBJECTID":283641},"geometry":{"x":171479.29000000004,"y":2545654.7300000023}},{"attributes":{"ID":283648,"DIS_CODE":0,"TOWNNAME":"永康區","LI":"五王里","LIN":"19鄰","STREET":"成功路","SECT":" ","MAREA":" ","LANE":"１７２巷","ALLEY":" ","HOUSE_NO":"２７號","E_COORD97":171499.63,"N_COORD97":2545669.23,"ADDRESS":"成功路１７２巷２７號","OBJECTID":283642},"geometry":{"x":171499.63000000082,"y":2545669.2300000004}},{"attributes":{"ID":283649,"DIS_CODE":0,"TOWNNAME":"永康區","LI":"五王里","LIN":"19鄰","STREET":"成功路","SECT":" ","MAREA":" ","LANE":"１７２巷","ALLEY":" ","HOUSE_NO":"４１號","E_COORD97":171526.56,"N_COORD97":2545689.27,"ADDRESS":"成功路１７２巷４１號","OBJECTID":283643},"geometry":{"x":171526.56000000145,"y":2545689.2699999996}},{"attributes":{"ID":283650,"DIS_CODE":0,"TOWNNAME":"永康區","LI":"中興里","LIN":"19鄰","STREET":"中山東路","SECT":" ","MAREA":" ","LANE":"３６６巷","ALLEY":" ","HOUSE_NO":"４１號","E_COORD97":171785.26000000001,"N_COORD97":2545286.75,"ADDRESS":"中山東路３６６巷４１號","OBJECTID":283644},"geometry":{"x":171785.26000000071,"y":2545286.75}},{"attributes":{"ID":283651,"DIS_CODE":0,"TOWNNAME":"永康區","LI":"大灣里","LIN":"19鄰","STREET":"大灣路","SECT":" ","MAREA":" ","LANE":"３７２巷","ALLEY":" ","HOUSE_NO":"３號","E_COORD97":174792.48000000001,"N_COORD97":2545087.25,"ADDRESS":"大灣路３７２巷３號","OBJECTID":283645},"geometry":{"x":174792.48000000045,"y":2545087.2500000037}},{"attributes":{"ID":283652,"DIS_CODE":0,"TOWNNAME":"永康區","LI":"中興里","LIN":"19鄰","STREET":"中山東路","SECT":" ","MAREA":" ","LANE":"３６６巷","ALLEY":" ","HOUSE_NO":"８號","E_COORD97":171874.98999999999,"N_COORD97":2545301.5,"ADDRESS":"中山東路３６６巷８號","OBJECTID":283646},"geometry":{"x":171874.99000000022,"y":2545301.5}},{"attributes":{"ID":283653,"DIS_CODE":0,"TOWNNAME":"永康區","LI":"中興里","LIN":"19鄰","STREET":"中山東路","SECT":" ","MAREA":" ","LANE":"３６６巷","ALLEY":" ","HOUSE_NO":"２號","E_COORD97":171884.67000000001,"N_COORD97":2545301.25,"ADDRESS":"中山東路３６６巷２號","OBJECTID":283647},"geometry":{"x":171884.67000000086,"y":2545301.2500000019}},{"attributes":{"ID":283654,"DIS_CODE":0,"TOWNNAME":"永康區","LI":"中興里","LIN":"19鄰","STREET":"中山東路","SECT":" ","MAREA":" ","LANE":"３６６巷","ALLEY":" ","HOUSE_NO":"１３號","E_COORD97":171849.92000000001,"N_COORD97":2545286.4900000002,"ADDRESS":"中山東路３６６巷１３號","OBJECTID":283648},"geometry":{"x":171849.92000000179,"y":2545286.4900000021}},{"attributes":{"ID":283655,"DIS_CODE":0,"TOWNNAME":"永康區","LI":"中興里","LIN":"19鄰","STREET":"中山東路","SECT":" ","MAREA":" ","LANE":"３６６巷","ALLEY":" ","HOUSE_NO":"２１號","E_COORD97":171826.69,"N_COORD97":2545287,"ADDRESS":"中山東路３６６巷２１號","OBJECTID":283649},"geometry":{"x":171826.69000000227,"y":2545287.0000000019}},{"attributes":{"ID":283656,"DIS_CODE":0,"TOWNNAME":"永康區","LI":"勝利里","LIN":"19鄰","STREET":"中華一路","SECT":" ","MAREA":" ","LANE":"２７２巷","ALLEY":" ","HOUSE_NO":"２２號","E_COORD97":171337.44,"N_COORD97":2545039.2400000002,"ADDRESS":"中華一路２７２巷２２號","OBJECTID":283650},"geometry":{"x":171337.44000000134,"y":2545039.2400000002}},{"attributes":{"ID":283657,"DIS_CODE":0,"TOWNNAME":"永康區","LI":"崑山里","LIN":"19鄰","STREET":"崑山街","SECT":" ","MAREA":" ","LANE":"４巷","ALLEY":" ","HOUSE_NO":"９號","E_COORD97":173971.04999999999,"N_COORD97":2544546.1299999999,"ADDRESS":"崑山街４巷９號","OBJECTID":283651},"geometry":{"x":173971.04999999981,"y":2544546.129999999}},{"attributes":{"ID":283658,"DIS_CODE":0,"TOWNNAME":"永康區","LI":"勝利里","LIN":"19鄰","STREET":"中華一路","SECT":" ","MAREA":" ","LANE":"２７２巷","ALLEY":" ","HOUSE_NO":"７號","E_COORD97":171324.26999999999,"N_COORD97":2545016.2400000002,"ADDRESS":"中華一路２７２巷７號","OBJECTID":283652},"geometry":{"x":171324.26999999955,"y":2545016.2400000039}},{"attributes":{"ID":283659,"DIS_CODE":0,"TOWNNAME":"永康區","LI":"崑山里","LIN":"19鄰","STREET":"崑山街","SECT":" ","MAREA":" ","LANE":"５巷","ALLEY":" ","HOUSE_NO":"７號","E_COORD97":173864.17000000001,"N_COORD97":2544514.0499999998,"ADDRESS":"崑山街５巷７號","OBJECTID":283653},"geometry":{"x":173864.17000000086,"y":2544514.0500000026}},{"attributes":{"ID":283660,"DIS_CODE":0,"TOWNNAME":"安南區","LI":"溪東里","LIN":"19鄰","STREET":"郡安路","SECT":"五段","MAREA":" ","LANE":"１４巷","ALLEY":" ","HOUSE_NO":"１１號","E_COORD97":168321.95999999999,"N_COORD97":2547640.02,"ADDRESS":"郡安路五段１４巷１１號","OBJECTID":283654},"geometry":{"x":168321.96000000183,"y":2547640.0199999996}},{"attributes":{"ID":283661,"DIS_CODE":0,"TOWNNAME":"安南區","LI":"溪東里","LIN":"19鄰","STREET":"郡安路","SECT":"五段","MAREA":" ","LANE":"１４巷","ALLEY":" ","HOUSE_NO":"１３號","E_COORD97":168314.92999999999,"N_COORD97":2547639.54,"ADDRESS":"郡安路五段１４巷１３號","OBJECTID":283655},"geometry":{"x":168314.9299999997,"y":2547639.5399999991}},{"attributes":{"ID":283662,"DIS_CODE":0,"TOWNNAME":"安南區","LI":"溪東里","LIN":"19鄰","STREET":"郡安路","SECT":"五段","MAREA":" ","LANE":"１４巷","ALLEY":" ","HOUSE_NO":"１５號","E_COORD97":168309.92000000001,"N_COORD97":2547638.5899999999,"ADDRESS":"郡安路五段１４巷１５號","OBJECTID":283656},"geometry":{"x":168309.91999999993,"y":2547638.5900000017}},{"attributes":{"ID":283663,"DIS_CODE":0,"TOWNNAME":"安南區","LI":"溪東里","LIN":"19鄰","STREET":"郡安路","SECT":"五段","MAREA":" ","LANE":"１４巷","ALLEY":" ","HOUSE_NO":"１９號","E_COORD97":168295.85999999999,"N_COORD97":2547636.9199999999,"ADDRESS":"郡安路五段１４巷１９號","OBJECTID":283657},"geometry":{"x":168295.8599999994,"y":2547636.9200000018}},{"attributes":{"ID":283664,"DIS_CODE":0,"TOWNNAME":"永康區","LI":"崑山里","LIN":"19鄰","STREET":"崑山街","SECT":" ","MAREA":" ","LANE":"５巷","ALLEY":" ","HOUSE_NO":"１號","E_COORD97":173877.64000000001,"N_COORD97":2544516.5499999998,"ADDRESS":"崑山街５巷１號","OBJECTID":283658},"geometry":{"x":173877.6400000006,"y":2544516.5500000045}},{"attributes":{"ID":283665,"DIS_CODE":0,"TOWNNAME":"永康區","LI":"網寮里","LIN":"19鄰","STREET":"永二街","SECT":" ","MAREA":" ","LANE":"２３７巷","ALLEY":" ","HOUSE_NO":"７號","E_COORD97":173403.39000000001,"N_COORD97":2546215.1600000001,"ADDRESS":"永二街２３７巷７號","OBJECTID":283659},"geometry":{"x":173403.3900000006,"y":2546215.160000002}},{"attributes":{"ID":283666,"DIS_CODE":0,"TOWNNAME":"永康區","LI":"網寮里","LIN":"19鄰","STREET":"永二街","SECT":" ","MAREA":" ","LANE":"２３７巷","ALLEY":" ","HOUSE_NO":"８號","E_COORD97":173409.22,"N_COORD97":2546211.7599999998,"ADDRESS":"永二街２３７巷８號","OBJECTID":283660},"geometry":{"x":173409.22000000067,"y":2546211.7599999998}},{"attributes":{"ID":283667,"DIS_CODE":0,"TOWNNAME":"永康區","LI":"網寮里","LIN":"19鄰","STREET":"永二街","SECT":" ","MAREA":" ","LANE":"２３７巷","ALLEY":" ","HOUSE_NO":"９號","E_COORD97":173414.95000000001,"N_COORD97":2546208.6600000001,"ADDRESS":"永二街２３７巷９號","OBJECTID":283661},"geometry":{"x":173414.95000000112,"y":2546208.6600000001}},{"attributes":{"ID":283668,"DIS_CODE":0,"TOWNNAME":"永康區","LI":"五王里","LIN":"19鄰","STREET":"成功路","SECT":" ","MAREA":" ","LANE":"１７２巷","ALLEY":" ","HOUSE_NO":"１１號","E_COORD97":171465.26999999999,"N_COORD97":2545650.0800000001,"ADDRESS":"成功路１７２巷１１號","OBJECTID":283662},"geometry":{"x":171465.26999999955,"y":2545650.0800000001}},{"attributes":{"ID":283669,"DIS_CODE":0,"TOWNNAME":"中西區","LI":"西賢里","LIN":"19鄰","STREET":"西賢一街","SECT":" ","MAREA":" ","LANE":"９５巷","ALLEY":" ","HOUSE_NO":"２２號","E_COORD97":165638.29999999999,"N_COORD97":2544716.1299999999,"ADDRESS":"西賢一街９５巷２２號","OBJECTID":283663},"geometry":{"x":165638.30000000075,"y":2544716.129999999}},{"attributes":{"ID":283670,"DIS_CODE":0,"TOWNNAME":"中西區","LI":"西賢里","LIN":"19鄰","STREET":"西賢一街","SECT":" ","MAREA":" ","LANE":"９５巷","ALLEY":" ","HOUSE_NO":"２６號","E_COORD97":165633.67999999999,"N_COORD97":2544715.9700000002,"ADDRESS":"西賢一街９５巷２６號","OBJECTID":283664},"geometry":{"x":165633.68000000063,"y":2544715.9700000007}},{"attributes":{"ID":283671,"DIS_CODE":0,"TOWNNAME":"安南區","LI":"四草里","LIN":"4鄰","STREET":"大眾五街","SECT":" ","MAREA":" ","LANE":" ","ALLEY":" ","HOUSE_NO":"５１號","E_COORD97":160776.21121000001,"N_COORD97":2546312.1133500002,"ADDRESS":"大眾五街５１號","OBJECTID":283665},"geometry":{"x":160776.21121000126,"y":2546312.1133510005}},{"attributes":{"ID":283672,"DIS_CODE":0,"TOWNNAME":"中西區","LI":"西賢里","LIN":"19鄰","STREET":"西賢一街","SECT":" ","MAREA":" ","LANE":"９５巷","ALLEY":" ","HOUSE_NO":"２８號","E_COORD97":165630.48999999999,"N_COORD97":2544716.1299999999,"ADDRESS":"西賢一街９５巷２８號","OBJECTID":283666},"geometry":{"x":165630.49000000115,"y":2544716.129999999}},{"attributes":{"ID":283673,"DIS_CODE":0,"TOWNNAME":"仁德區","LI":"仁德里","LIN":"38鄰","STREET":"文宏路","SECT":" ","MAREA":" ","LANE":" ","ALLEY":" ","HOUSE_NO":"９２號","E_COORD97":172414.42990799999,"N_COORD97":2541744.5640400001,"ADDRESS":"文宏路９２號","OBJECTID":283667},"geometry":{"x":172414.42990799993,"y":2541744.5640390012}},{"attributes":{"ID":283674,"DIS_CODE":0,"TOWNNAME":"中西區","LI":"西賢里","LIN":"19鄰","STREET":"西賢一街","SECT":" ","MAREA":" ","LANE":"９５巷","ALLEY":" ","HOUSE_NO":"２號","E_COORD97":165671.92000000001,"N_COORD97":2544718.3599999999,"ADDRESS":"西賢一街９５巷２號","OBJECTID":283668},"geometry":{"x":165671.91999999993,"y":2544718.3599999994}},{"attributes":{"ID":283675,"DIS_CODE":0,"TOWNNAME":"中西區","LI":"西賢里","LIN":"19鄰","STREET":"西賢一街","SECT":" ","MAREA":" ","LANE":"９５巷","ALLEY":" ","HOUSE_NO":"３０號","E_COORD97":165625.63,"N_COORD97":2544717.21,"ADDRESS":"西賢一街９５巷３０號","OBJECTID":283669},"geometry":{"x":165625.63000000082,"y":2544717.2100000009}},{"attributes":{"ID":283676,"DIS_CODE":0,"TOWNNAME":"中西區","LI":"西賢里","LIN":"19鄰","STREET":"西賢一街","SECT":" ","MAREA":" ","LANE":"９５巷","ALLEY":" ","HOUSE_NO":"３２號","E_COORD97":165621.13,"N_COORD97":2544715.0099999998,"ADDRESS":"西賢一街９５巷３２號","OBJECTID":283670},"geometry":{"x":165621.13000000082,"y":2544715.0099999998}},{"attributes":{"ID":283677,"DIS_CODE":0,"TOWNNAME":"南區","LI":"新興里","LIN":"2鄰","STREET":"國華街","SECT":"一段","MAREA":" ","LANE":" ","ALLEY":" ","HOUSE_NO":"２７號","E_COORD97":167598.92999999999,"N_COORD97":2542556.0800000001,"ADDRESS":"國華街一段２７號","OBJECTID":283671},"geometry":{"x":167598.93000000063,"y":2542556.0800000019}},{"attributes":{"ID":283678,"DIS_CODE":0,"TOWNNAME":"佳里區","LI":"鎮山里","LIN":"1鄰","STREET":"四安街","SECT":" ","MAREA":" ","LANE":" ","ALLEY":" ","HOUSE_NO":"１６號","E_COORD97":165875.22,"N_COORD97":2561867.21,"ADDRESS":"四安街１６號","OBJECTID":283672},"geometry":{"x":165875.21999999974,"y":2561867.2100000046}},{"attributes":{"ID":283679,"DIS_CODE":0,"TOWNNAME":"中西區","LI":"西賢里","LIN":"19鄰","STREET":"西賢一街","SECT":" ","MAREA":" ","LANE":"９５巷","ALLEY":" ","HOUSE_NO":"３６號","E_COORD97":165617.03,"N_COORD97":2544715.6099999999,"ADDRESS":"西賢一街９５巷３６號","OBJECTID":283673},"geometry":{"x":165617.03000000119,"y":2544715.6100000013}},{"attributes":{"ID":283680,"DIS_CODE":0,"TOWNNAME":"中西區","LI":"西賢里","LIN":"19鄰","STREET":"西賢一街","SECT":" ","MAREA":" ","LANE":"９５巷","ALLEY":" ","HOUSE_NO":"３８號","E_COORD97":165613.03,"N_COORD97":2544715.71,"ADDRESS":"西賢一街９５巷３８號","OBJECTID":283674},"geometry":{"x":165613.03000000212,"y":2544715.7100000028}},{"attributes":{"ID":283681,"DIS_CODE":0,"TOWNNAME":"中西區","LI":"西賢里","LIN":"19鄰","STREET":"西賢一街","SECT":" ","MAREA":" ","LANE":"９５巷","ALLEY":" ","HOUSE_NO":"４０號","E_COORD97":165608.42999999999,"N_COORD97":2544715.71,"ADDRESS":"西賢一街９５巷４０號","OBJECTID":283675},"geometry":{"x":165608.43000000063,"y":2544715.7100000028}},{"attributes":{"ID":283682,"DIS_CODE":0,"TOWNNAME":"中西區","LI":"西賢里","LIN":"19鄰","STREET":"西賢一街","SECT":" ","MAREA":" ","LANE":"９５巷","ALLEY":" ","HOUSE_NO":"４２號","E_COORD97":165603.92999999999,"N_COORD97":2544715.71,"ADDRESS":"西賢一街９５巷４２號","OBJECTID":283676},"geometry":{"x":165603.9299999997,"y":2544715.7100000028}},{"attributes":{"ID":283683,"DIS_CODE":0,"TOWNNAME":"永康區","LI":"西橋里","LIN":"25鄰","STREET":"中華路","SECT":" ","MAREA":" ","LANE":" ","ALLEY":" ","HOUSE_NO":"７９１號","E_COORD97":170613.31,"N_COORD97":2546518.25,"ADDRESS":"中華路７９１號","OBJECTID":283677},"geometry":{"x":170613.31000000052,"y":2546518.2500000019}},{"attributes":{"ID":283684,"DIS_CODE":0,"TOWNNAME":"永康區","LI":"甲頂里","LIN":"26鄰","STREET":"小北路","SECT":" ","MAREA":" ","LANE":" ","ALLEY":" ","HOUSE_NO":"８１號","E_COORD97":169601.42000000001,"N_COORD97":2546915.2200000002,"ADDRESS":"小北路８１號","OBJECTID":283678},"geometry":{"x":169601.41999999993,"y":2546915.2199999988}},{"attributes":{"ID":283685,"DIS_CODE":0,"TOWNNAME":"永康區","LI":"西灣里","LIN":"4鄰","STREET":"大灣五街","SECT":" ","MAREA":" ","LANE":" ","ALLEY":" ","HOUSE_NO":"５７號","E_COORD97":174720.66,"N_COORD97":2545228.7599999998,"ADDRESS":"大灣五街５７號","OBJECTID":283679},"geometry":{"x":174720.66000000108,"y":2545228.7599999998}},{"attributes":{"ID":283686,"DIS_CODE":0,"TOWNNAME":"永康區","LI":"西勢里","LIN":"20鄰","STREET":"富強路","SECT":"一段","MAREA":" ","LANE":" ","ALLEY":" ","HOUSE_NO":"２１３號","E_COORD97":175615.31,"N_COORD97":2546439.9900000002,"ADDRESS":"富強路一段２１３號","OBJECTID":283680},"geometry":{"x":175615.31000000145,"y":2546439.9900000021}},{"attributes":{"ID":283687,"DIS_CODE":0,"TOWNNAME":"永康區","LI":"西橋里","LIN":"4鄰","STREET":"中華西街","SECT":" ","MAREA":" ","LANE":" ","ALLEY":" ","HOUSE_NO":"１９號","E_COORD97":170803.97,"N_COORD97":2545952.2400000002,"ADDRESS":"中華西街１９號","OBJECTID":283681},"geometry":{"x":170803.97000000067,"y":2545952.2400000039}},{"attributes":{"ID":283688,"DIS_CODE":0,"TOWNNAME":"中西區","LI":"西賢里","LIN":"19鄰","STREET":"西賢一街","SECT":" ","MAREA":" ","LANE":"９５巷","ALLEY":" ","HOUSE_NO":"４６號","E_COORD97":165600.82999999999,"N_COORD97":2544715.5099999998,"ADDRESS":"西賢一街９５巷４６號","OBJECTID":283682},"geometry":{"x":165600.83000000101,"y":2544715.5100000035}},{"attributes":{"ID":283689,"DIS_CODE":0,"TOWNNAME":"東區","LI":"大智里","LIN":"19鄰","STREET":"崇善十五街","SECT":" ","MAREA":" ","LANE":"５０巷","ALLEY":" ","HOUSE_NO":"１２號","E_COORD97":171298.09,"N_COORD97":2540594.7200000002,"ADDRESS":"崇善十五街５０巷１２號","OBJECTID":283683},"geometry":{"x":171298.09000000078,"y":2540594.7200000007}},{"attributes":{"ID":283690,"DIS_CODE":0,"TOWNNAME":"東區","LI":"德高里","LIN":"19鄰","STREET":"仁和路","SECT":" ","MAREA":" ","LANE":"１９９巷","ALLEY":" ","HOUSE_NO":"３２號","E_COORD97":171738.79999999999,"N_COORD97":2540870.0699999998,"ADDRESS":"仁和路１９９巷３２號","OBJECTID":283684},"geometry":{"x":171738.80000000168,"y":2540870.0700000003}},{"attributes":{"ID":283691,"DIS_CODE":0,"TOWNNAME":"東區","LI":"德高里","LIN":"19鄰","STREET":"仁和路","SECT":" ","MAREA":" ","LANE":"１９９巷","ALLEY":" ","HOUSE_NO":"３４號","E_COORD97":171741.17000000001,"N_COORD97":2540872.8500000001,"ADDRESS":"仁和路１９９巷３４號","OBJECTID":283685},"geometry":{"x":171741.16999999993,"y":2540872.8500000015}},{"attributes":{"ID":283692,"DIS_CODE":0,"TOWNNAME":"東區","LI":"德高里","LIN":"19鄰","STREET":"城東街","SECT":" ","MAREA":" ","LANE":"９９巷","ALLEY":" ","HOUSE_NO":"２號","E_COORD97":171722.92000000001,"N_COORD97":2540840.6299999999,"ADDRESS":"城東街９９巷２號","OBJECTID":283686},"geometry":{"x":171722.92000000179,"y":2540840.629999999}},{"attributes":{"ID":283693,"DIS_CODE":0,"TOWNNAME":"東區","LI":"德高里","LIN":"19鄰","STREET":"城東街","SECT":" ","MAREA":" ","LANE":"９９巷","ALLEY":" ","HOUSE_NO":"６號","E_COORD97":171720.69,"N_COORD97":2540848.98,"ADDRESS":"城東街９９巷６號","OBJECTID":283687},"geometry":{"x":171720.69000000041,"y":2540848.9800000023}},{"attributes":{"ID":283694,"DIS_CODE":0,"TOWNNAME":"東區","LI":"泉南里","LIN":"19鄰","STREET":"府連東路","SECT":" ","MAREA":" ","LANE":"２２巷","ALLEY":" ","HOUSE_NO":"８２號","E_COORD97":169708.79000000001,"N_COORD97":2542682.73,"ADDRESS":"府連東路２２巷８２號","OBJECTID":283688},"geometry":{"x":169708.79000000097,"y":2542682.7300000004}},{"attributes":{"ID":283695,"DIS_CODE":0,"TOWNNAME":"安南區","LI":"溪東里","LIN":"19鄰","STREET":"郡安路","SECT":"五段","MAREA":" ","LANE":"１４巷","ALLEY":" ","HOUSE_NO":"２０號","E_COORD97":168295.51000000001,"N_COORD97":2547662.1499999999,"ADDRESS":"郡安路五段１４巷２０號","OBJECTID":283689},"geometry":{"x":168295.50999999978,"y":2547662.1500000022}},{"attributes":{"ID":283696,"DIS_CODE":0,"TOWNNAME":"安南區","LI":"溪東里","LIN":"19鄰","STREET":"郡安路","SECT":"五段","MAREA":" ","LANE":"１４巷","ALLEY":" ","HOUSE_NO":"２９號","E_COORD97":168262.28,"N_COORD97":2547633.02,"ADDRESS":"郡安路五段１４巷２９號","OBJECTID":283690},"geometry":{"x":168262.28000000026,"y":2547633.0199999996}},{"attributes":{"ID":283697,"DIS_CODE":0,"TOWNNAME":"安南區","LI":"溪東里","LIN":"19鄰","STREET":"郡安路","SECT":"五段","MAREA":" ","LANE":"１４巷","ALLEY":" ","HOUSE_NO":"９號","E_COORD97":168328.75,"N_COORD97":2547640.4900000002,"ADDRESS":"郡安路五段１４巷９號","OBJECTID":283691},"geometry":{"x":168328.75000000093,"y":2547640.4900000002}},{"attributes":{"ID":283698,"DIS_CODE":0,"TOWNNAME":"中西區","LI":"萬昌里","LIN":"19鄰","STREET":"青年路","SECT":" ","MAREA":" ","LANE":"１６４巷","ALLEY":" ","HOUSE_NO":"１５號","E_COORD97":168984.32000000001,"N_COORD97":2543538.04,"ADDRESS":"青年路１６４巷１５號","OBJECTID":283692},"geometry":{"x":168984.31999999937,"y":2543538.0399999972}},{"attributes":{"ID":283699,"DIS_CODE":0,"TOWNNAME":"中西區","LI":"公正里","LIN":"19鄰","STREET":"衛民街","SECT":" ","MAREA":" ","LANE":"１２４巷","ALLEY":" ","HOUSE_NO":"２１號","E_COORD97":168829.09,"N_COORD97":2543811.73,"ADDRESS":"衛民街１２４巷２１號","OBJECTID":283693},"geometry":{"x":168829.08999999985,"y":2543811.7300000004}},{"attributes":{"ID":283700,"DIS_CODE":0,"TOWNNAME":"中西區","LI":"公正里","LIN":"19鄰","STREET":"衛民街","SECT":" ","MAREA":" ","LANE":"１２４巷","ALLEY":" ","HOUSE_NO":"２７號","E_COORD97":168834.39000000001,"N_COORD97":2543822.8300000001,"ADDRESS":"衛民街１２４巷２７號","OBJECTID":283694},"geometry":{"x":168834.3900000006,"y":2543822.8300000019}},{"attributes":{"ID":283701,"DIS_CODE":0,"TOWNNAME":"中西區","LI":"公正里","LIN":"19鄰","STREET":"衛民街","SECT":" ","MAREA":" ","LANE":"１２４巷","ALLEY":" ","HOUSE_NO":"２９號","E_COORD97":168835.25,"N_COORD97":2543826.7599999998,"ADDRESS":"衛民街１２４巷２９號","OBJECTID":283695},"geometry":{"x":168835.25,"y":2543826.7600000016}},{"attributes":{"ID":283702,"DIS_CODE":0,"TOWNNAME":"中西區","LI":"公正里","LIN":"19鄰","STREET":"衛民街","SECT":" ","MAREA":" ","LANE":"１２４巷","ALLEY":" ","HOUSE_NO":"３１號","E_COORD97":168836.45000000001,"N_COORD97":2543830.3500000001,"ADDRESS":"衛民街１２４巷３１號","OBJECTID":283696},"geometry":{"x":168836.45000000112,"y":2543830.3499999996}},{"attributes":{"ID":283703,"DIS_CODE":0,"TOWNNAME":"永康區","LI":"西橋里","LIN":"4鄰","STREET":"中華西街","SECT":" ","MAREA":" ","LANE":" ","ALLEY":" ","HOUSE_NO":"１５號","E_COORD97":170808.39000000001,"N_COORD97":2545944.7400000002,"ADDRESS":"中華西街１５號","OBJECTID":283697},"geometry":{"x":170808.38999999966,"y":2545944.7400000002}},{"attributes":{"ID":283704,"DIS_CODE":0,"TOWNNAME":"永康區","LI":"西橋里","LIN":"13鄰","STREET":"大橋三街","SECT":" ","MAREA":" ","LANE":" ","ALLEY":" ","HOUSE_NO":"８號","E_COORD97":170488.20999999999,"N_COORD97":2546347.3599999999,"ADDRESS":"大橋三街８號","OBJECTID":283698},"geometry":{"x":170488.20999999996,"y":2546347.3600000013}},{"attributes":{"ID":283705,"DIS_CODE":0,"TOWNNAME":"佳里區","LI":"建南里","LIN":"26鄰","STREET":"公園路","SECT":" ","MAREA":" ","LANE":" ","ALLEY":" ","HOUSE_NO":"７１號","E_COORD97":165328.26000000001,"N_COORD97":2561580.1499999999,"ADDRESS":"公園路７１號","OBJECTID":283699},"geometry":{"x":165328.26000000071,"y":2561580.1500000022}},{"attributes":{"ID":283706,"DIS_CODE":0,"TOWNNAME":"永康區","LI":"西橋里","LIN":"25鄰","STREET":"中華路","SECT":" ","MAREA":" ","LANE":" ","ALLEY":" ","HOUSE_NO":"８１１號","E_COORD97":170557.62,"N_COORD97":2546612.5,"ADDRESS":"中華路８１１號","OBJECTID":283700},"geometry":{"x":170557.62000000104,"y":2546612.5000000019}},{"attributes":{"ID":283707,"DIS_CODE":0,"TOWNNAME":"永康區","LI":"西勢里","LIN":"20鄰","STREET":"富強路","SECT":"一段","MAREA":" ","LANE":" ","ALLEY":" ","HOUSE_NO":"２２５號","E_COORD97":175629.38,"N_COORD97":2546463.23,"ADDRESS":"富強路一段２２５號","OBJECTID":283701},"geometry":{"x":175629.38000000082,"y":2546463.2300000004}},{"attributes":{"ID":283708,"DIS_CODE":0,"TOWNNAME":"歸仁區","LI":"新厝里","LIN":"19鄰","STREET":"大成六街","SECT":" ","MAREA":" ","LANE":"１６巷","ALLEY":" ","HOUSE_NO":"１號","E_COORD97":177609.44,"N_COORD97":2540328.1800000002,"ADDRESS":"大成六街１６巷１號","OBJECTID":283702},"geometry":{"x":177609.44000000134,"y":2540328.1800000016}},{"attributes":{"ID":283709,"DIS_CODE":0,"TOWNNAME":"中西區","LI":"公正里","LIN":"19鄰","STREET":"衛民街","SECT":" ","MAREA":" ","LANE":"１２４巷","ALLEY":" ","HOUSE_NO":"３３號","E_COORD97":168838.5,"N_COORD97":2543835.48,"ADDRESS":"衛民街１２４巷３３號","OBJECTID":283703},"geometry":{"x":168838.5,"y":2543835.4800000023}},{"attributes":{"ID":283710,"DIS_CODE":0,"TOWNNAME":"中西區","LI":"公正里","LIN":"19鄰","STREET":"衛民街","SECT":" ","MAREA":" ","LANE":"１２４巷","ALLEY":" ","HOUSE_NO":"３號","E_COORD97":168818.19,"N_COORD97":2543785.4500000002,"ADDRESS":"衛民街１２４巷３號","OBJECTID":283704},"geometry":{"x":168818.19000000134,"y":2543785.4499999993}},{"attributes":{"ID":283711,"DIS_CODE":0,"TOWNNAME":"安南區","LI":"溪墘里","LIN":"19鄰","STREET":"海佃路","SECT":"一段","MAREA":" ","LANE":"４００巷","ALLEY":" ","HOUSE_NO":"１４號","E_COORD97":167119.29999999999,"N_COORD97":2547663.9500000002,"ADDRESS":"海佃路一段４００巷１４號","OBJECTID":283705},"geometry":{"x":167119.29999999888,"y":2547663.9499999993}},{"attributes":{"ID":283712,"DIS_CODE":0,"TOWNNAME":"安南區","LI":"溪墘里","LIN":"19鄰","STREET":"海佃路","SECT":"一段","MAREA":" ","LANE":"４００巷","ALLEY":" ","HOUSE_NO":"４８號","E_COORD97":167208.92999999999,"N_COORD97":2547684.3500000001,"ADDRESS":"海佃路一段４００巷４８號","OBJECTID":283706},"geometry":{"x":167208.93000000063,"y":2547684.3500000015}},{"attributes":{"ID":283713,"DIS_CODE":0,"TOWNNAME":"永康區","LI":"\u25A0行里","LIN":"19鄰","STREET":"中正南路","SECT":" ","MAREA":" ","LANE":"６９２巷","ALLEY":" ","HOUSE_NO":"１１號","E_COORD97":171746.39000000001,"N_COORD97":2548826.25,"ADDRESS":"中正南路６９２巷１１號","OBJECTID":283707},"geometry":{"x":171746.38999999873,"y":2548826.25}},{"attributes":{"ID":283714,"DIS_CODE":0,"TOWNNAME":"永康區","LI":"\u25A0洲里","LIN":"19鄰","STREET":"\u25A0行路","SECT":" ","MAREA":" ","LANE":"２５巷","ALLEY":" ","HOUSE_NO":"２２號","E_COORD97":171641.14999999999,"N_COORD97":2549069.8399999999,"ADDRESS":"\u25A0行路２５巷２２號","OBJECTID":283708},"geometry":{"x":171641.1500000013,"y":2549069.839999998}},{"attributes":{"ID":283715,"DIS_CODE":0,"TOWNNAME":"永康區","LI":"復國里","LIN":"19鄰","STREET":"復國一路","SECT":" ","MAREA":" ","LANE":"３６２巷","ALLEY":" ","HOUSE_NO":"２２號","E_COORD97":172830.66,"N_COORD97":2545769.3999999999,"ADDRESS":"復國一路３６２巷２２號","OBJECTID":283709},"geometry":{"x":172830.66000000108,"y":2545769.4000000022}},{"attributes":{"ID":283716,"DIS_CODE":0,"TOWNNAME":"永康區","LI":"五王里","LIN":"19鄰","STREET":"成功路","SECT":" ","MAREA":" ","LANE":"１７２巷","ALLEY":" ","HOUSE_NO":"１號","E_COORD97":171447.63,"N_COORD97":2545630.0099999998,"ADDRESS":"成功路１７２巷１號","OBJECTID":283710},"geometry":{"x":171447.62999999989,"y":2545630.0099999998}},{"attributes":{"ID":283717,"DIS_CODE":0,"TOWNNAME":"永康區","LI":"崑山里","LIN":"19鄰","STREET":"崑山街","SECT":" ","MAREA":" ","LANE":"４巷","ALLEY":" ","HOUSE_NO":"１號","E_COORD97":173945.06,"N_COORD97":2544541.8799999999,"ADDRESS":"崑山街４巷１號","OBJECTID":283711},"geometry":{"x":173945.05999999959,"y":2544541.879999999}},{"attributes":{"ID":283718,"DIS_CODE":0,"TOWNNAME":"永康區","LI":"六合里","LIN":"19鄰","STREET":"中華二路","SECT":" ","MAREA":" ","LANE":"３５８巷","ALLEY":" ","HOUSE_NO":"２０號","E_COORD97":171092.84,"N_COORD97":2545516.25,"ADDRESS":"中華二路３５８巷２０號","OBJECTID":283712},"geometry":{"x":171092.84000000078,"y":2545516.25}},{"attributes":{"ID":283719,"DIS_CODE":0,"TOWNNAME":"永康區","LI":"六合里","LIN":"19鄰","STREET":"中華二路","SECT":" ","MAREA":" ","LANE":"３５８巷","ALLEY":" ","HOUSE_NO":"２２號","E_COORD97":171090.23999999999,"N_COORD97":2545525.4900000002,"ADDRESS":"中華二路３５８巷２２號","OBJECTID":283713},"geometry":{"x":171090.23999999929,"y":2545525.4900000002}},{"attributes":{"ID":283720,"DIS_CODE":0,"TOWNNAME":"永康區","LI":"六合里","LIN":"19鄰","STREET":"中華二路","SECT":" ","MAREA":" ","LANE":"３５８巷","ALLEY":" ","HOUSE_NO":"２６號","E_COORD97":171088.44,"N_COORD97":2545533.2400000002,"ADDRESS":"中華二路３５８巷２６號","OBJECTID":283714},"geometry":{"x":171088.44000000041,"y":2545533.2400000021}},{"attributes":{"ID":283721,"DIS_CODE":0,"TOWNNAME":"永康區","LI":"安康里","LIN":"19鄰","STREET":"中華西街","SECT":" ","MAREA":" ","LANE":"１２２巷","ALLEY":" ","HOUSE_NO":"１８號","E_COORD97":170749.79999999999,"N_COORD97":2546150.4399999999,"ADDRESS":"中華西街１２２巷１８號","OBJECTID":283715},"geometry":{"x":170749.79999999981,"y":2546150.4400000013}},{"attributes":{"ID":283722,"DIS_CODE":0,"TOWNNAME":"永康區","LI":"安康里","LIN":"19鄰","STREET":"中華西街","SECT":" ","MAREA":" ","LANE":"１２２巷","ALLEY":" ","HOUSE_NO":"２０號","E_COORD97":170756.59,"N_COORD97":2546154.4199999999,"ADDRESS":"中華西街１２２巷２０號","OBJECTID":283716},"geometry":{"x":170756.58999999985,"y":2546154.4200000018}},{"attributes":{"ID":283723,"DIS_CODE":0,"TOWNNAME":"永康區","LI":"龍潭里","LIN":"19鄰","STREET":"自強路","SECT":" ","MAREA":" ","LANE":"８８８巷","ALLEY":" ","HOUSE_NO":"２號","E_COORD97":174771.70999999999,"N_COORD97":2548739.8599999999,"ADDRESS":"自強路８８８巷２號","OBJECTID":283717},"geometry":{"x":174771.70999999996,"y":2548739.8599999994}},{"attributes":{"ID":283724,"DIS_CODE":0,"TOWNNAME":"永康區","LI":"龍潭里","LIN":"19鄰","STREET":"自強路","SECT":" ","MAREA":" ","LANE":"８８８巷","ALLEY":" ","HOUSE_NO":"６號","E_COORD97":174783.82000000001,"N_COORD97":2548743.5299999998,"ADDRESS":"自強路８８８巷６號","OBJECTID":283718},"geometry":{"x":174783.82000000216,"y":2548743.5300000012}},{"attributes":{"ID":283725,"DIS_CODE":0,"TOWNNAME":"永康區","LI":"西橋里","LIN":"25鄰","STREET":"中華路","SECT":" ","MAREA":" ","LANE":" ","ALLEY":" ","HOUSE_NO":"８０９號","E_COORD97":170561.17000000001,"N_COORD97":2546610.2400000002,"ADDRESS":"中華路８０９號","OBJECTID":283719},"geometry":{"x":170561.16999999993,"y":2546610.2400000021}},{"attributes":{"ID":283726,"DIS_CODE":0,"TOWNNAME":"永康區","LI":"安康里","LIN":"18鄰","STREET":"中華西街","SECT":" ","MAREA":" ","LANE":" ","ALLEY":" ","HOUSE_NO":"３２號","E_COORD97":170813.70000000001,"N_COORD97":2545975.2400000002,"ADDRESS":"中華西街３２號","OBJECTID":283720},"geometry":{"x":170813.70000000019,"y":2545975.2400000002}},{"attributes":{"ID":283727,"DIS_CODE":0,"TOWNNAME":"永康區","LI":"\u25A0洲里","LIN":"4鄰","STREET":"\u25A0洲二街","SECT":" ","MAREA":" ","LANE":" ","ALLEY":" ","HOUSE_NO":"１５７號","E_COORD97":171689.67000000001,"N_COORD97":2549379.9900000002,"ADDRESS":"\u25A0洲二街１５７號","OBJECTID":283721},"geometry":{"x":171689.67000000086,"y":2549379.9900000002}},{"attributes":{"ID":283728,"DIS_CODE":0,"TOWNNAME":"永康區","LI":"埔園里","LIN":" ","STREET":"中正路","SECT":" ","MAREA":" ","LANE":" ","ALLEY":" ","HOUSE_NO":"１３４之１號","E_COORD97":173506.78,"N_COORD97":2547897.0499999998,"ADDRESS":"中正路１３４之１號","OBJECTID":283722},"geometry":{"x":173506.78000000026,"y":2547897.0500000026}},{"attributes":{"ID":283729,"DIS_CODE":0,"TOWNNAME":"永康區","LI":"\u25A0行里","LIN":"25鄰","STREET":"\u25A0和街","SECT":" ","MAREA":" ","LANE":" ","ALLEY":" ","HOUSE_NO":"２４２號","E_COORD97":171716.44,"N_COORD97":2548245.7400000002,"ADDRESS":"\u25A0和街２４２號","OBJECTID":283723},"geometry":{"x":171716.44000000227,"y":2548245.7400000002}},{"attributes":{"ID":283730,"DIS_CODE":0,"TOWNNAME":"永康區","LI":"西橋里","LIN":"14鄰","STREET":"中華西街","SECT":" ","MAREA":" ","LANE":" ","ALLEY":" ","HOUSE_NO":"２０５號","E_COORD97":170622.35000000001,"N_COORD97":2546355.2400000002,"ADDRESS":"中華西街２０５號","OBJECTID":283724},"geometry":{"x":170622.34999999963,"y":2546355.2399999984}},{"attributes":{"ID":283731,"DIS_CODE":0,"TOWNNAME":"永康區","LI":"西灣里","LIN":"20鄰","STREET":"大安街","SECT":" ","MAREA":" ","LANE":" ","ALLEY":" ","HOUSE_NO":"３８５號","E_COORD97":174577.44,"N_COORD97":2545881.0899999999,"ADDRESS":"大安街３８５號","OBJECTID":283725},"geometry":{"x":174577.44000000041,"y":2545881.0899999999}},{"attributes":{"ID":283732,"DIS_CODE":0,"TOWNNAME":"永康區","LI":"西橋里","LIN":"25鄰","STREET":"中華路","SECT":" ","MAREA":" ","LANE":" ","ALLEY":" ","HOUSE_NO":"８０５號","E_COORD97":170567.67000000001,"N_COORD97":2546605.4900000002,"ADDRESS":"中華路８０５號","OBJECTID":283726},"geometry":{"x":170567.66999999993,"y":2546605.4900000021}},{"attributes":{"ID":283733,"DIS_CODE":0,"TOWNNAME":"永康區","LI":"西勢里","LIN":"1鄰","STREET":"富強路","SECT":"二段","MAREA":" ","LANE":" ","ALLEY":" ","HOUSE_NO":"３９號","E_COORD97":175683.13,"N_COORD97":2546887.8700000001,"ADDRESS":"富強路二段３９號","OBJECTID":283727},"geometry":{"x":175683.13000000175,"y":2546887.8700000048}},{"attributes":{"ID":283734,"DIS_CODE":0,"TOWNNAME":"永康區","LI":"埔園里","LIN":" ","STREET":"龍埔街","SECT":" ","MAREA":" ","LANE":" ","ALLEY":" ","HOUSE_NO":"５０９號","E_COORD97":173365.64000000001,"N_COORD97":2548380.7999999998,"ADDRESS":"龍埔街５０９號","OBJECTID":283728},"geometry":{"x":173365.6400000006,"y":2548380.8000000026}},{"attributes":{"ID":283735,"DIS_CODE":0,"TOWNNAME":"永康區","LI":"\u25A0洲里","LIN":"25鄰","STREET":"中正南路","SECT":" ","MAREA":" ","LANE":" ","ALLEY":" ","HOUSE_NO":"４３３號","E_COORD97":170789.04000000001,"N_COORD97":2548071.5,"ADDRESS":"中正南路４３３號","OBJECTID":283729},"geometry":{"x":170789.04000000004,"y":2548071.5}},{"attributes":{"ID":283736,"DIS_CODE":0,"TOWNNAME":"永康區","LI":"\u25A0洲里","LIN":"4鄰","STREET":"\u25A0洲二街","SECT":" ","MAREA":" ","LANE":" ","ALLEY":" ","HOUSE_NO":"１２５號","E_COORD97":171632.63,"N_COORD97":2549325.75,"ADDRESS":"\u25A0洲二街１２５號","OBJECTID":283730},"geometry":{"x":171632.62999999989,"y":2549325.7500000019}},{"attributes":{"ID":283737,"DIS_CODE":0,"TOWNNAME":"永康區","LI":"\u25A0洲里","LIN":"25鄰","STREET":"洲工街","SECT":" ","MAREA":" ","LANE":" ","ALLEY":" ","HOUSE_NO":"１９號","E_COORD97":170612.62,"N_COORD97":2548100,"ADDRESS":"洲工街１９號","OBJECTID":283731},"geometry":{"x":170612.62000000011,"y":2548100.0000000019}},{"attributes":{"ID":283738,"DIS_CODE":0,"TOWNNAME":"安南區","LI":"四草里","LIN":"1鄰","STREET":"大眾六街","SECT":" ","MAREA":" ","LANE":" ","ALLEY":" ","HOUSE_NO":"６８號","E_COORD97":160533.58362600001,"N_COORD97":2546536.5617800001,"ADDRESS":"大眾六街６８號","OBJECTID":283732},"geometry":{"x":160533.58362600021,"y":2546536.5617810022}},{"attributes":{"ID":283739,"DIS_CODE":0,"TOWNNAME":"永康區","LI":"龍潭里","LIN":"19鄰","STREET":"自強路","SECT":" ","MAREA":" ","LANE":"８７２巷","ALLEY":" ","HOUSE_NO":"１６號","E_COORD97":174751.78,"N_COORD97":2548669.0800000001,"ADDRESS":"自強路８７２巷１６號","OBJECTID":283733},"geometry":{"x":174751.78000000212,"y":2548669.0800000019}},{"attributes":{"ID":283740,"DIS_CODE":0,"TOWNNAME":"永康區","LI":"龍潭里","LIN":"19鄰","STREET":"自強路","SECT":" ","MAREA":" ","LANE":"８７２巷","ALLEY":" ","HOUSE_NO":"１８號","E_COORD97":174753.23999999999,"N_COORD97":2548664.8599999999,"ADDRESS":"自強路８７２巷１８號","OBJECTID":283734},"geometry":{"x":174753.24000000022,"y":2548664.8599999994}},{"attributes":{"ID":283741,"DIS_CODE":0,"TOWNNAME":"永康區","LI":"龍潭里","LIN":"19鄰","STREET":"自強路","SECT":" ","MAREA":" ","LANE":"８７２巷","ALLEY":" ","HOUSE_NO":"２０號","E_COORD97":174759.51000000001,"N_COORD97":2548661.5899999999,"ADDRESS":"自強路８７２巷２０號","OBJECTID":283735},"geometry":{"x":174759.50999999978,"y":2548661.5900000036}},{"attributes":{"ID":283742,"DIS_CODE":0,"TOWNNAME":"佳里區","LI":"六安里","LIN":"5鄰","STREET":"六安街","SECT":" ","MAREA":" ","LANE":" ","ALLEY":" ","HOUSE_NO":"７７號","E_COORD97":166142.67000000001,"N_COORD97":2563052.3500000001,"ADDRESS":"六安街７７號","OBJECTID":283736},"geometry":{"x":166142.67000000086,"y":2563052.3500000015}},{"attributes":{"ID":283743,"DIS_CODE":0,"TOWNNAME":"仁德區","LI":"上崙里","LIN":"19鄰","STREET":"德崙路","SECT":" ","MAREA":" ","LANE":"３１６巷","ALLEY":" ","HOUSE_NO":"２８號","E_COORD97":173890.32999999999,"N_COORD97":2538064.77,"ADDRESS":"德崙路３１６巷２８號","OBJECTID":283737},"geometry":{"x":173890.33000000101,"y":2538064.7699999996}},{"attributes":{"ID":283744,"DIS_CODE":0,"TOWNNAME":"北區","LI":"永祥里","LIN":"19鄰","STREET":"大武街","SECT":" ","MAREA":" ","LANE":"５４１巷","ALLEY":" ","HOUSE_NO":"１０號","E_COORD97":170105.85000000001,"N_COORD97":2546455.8500000001,"ADDRESS":"大武街５４１巷１０號","OBJECTID":283738},"geometry":{"x":170105.85000000149,"y":2546455.8500000034}},{"attributes":{"ID":283745,"DIS_CODE":0,"TOWNNAME":"北區","LI":"永祥里","LIN":"19鄰","STREET":"大武街","SECT":" ","MAREA":" ","LANE":"５４１巷","ALLEY":" ","HOUSE_NO":"８號","E_COORD97":170104.20000000001,"N_COORD97":2546449.6400000001,"ADDRESS":"大武街５４１巷８號","OBJECTID":283739},"geometry":{"x":170104.20000000112,"y":2546449.6400000025}},{"attributes":{"ID":283746,"DIS_CODE":0,"TOWNNAME":"新營區","LI":"王公里","LIN":"19鄰","STREET":"民族路","SECT":" ","MAREA":" ","LANE":"１１４巷","ALLEY":" ","HOUSE_NO":"１５號","E_COORD97":180400.78,"N_COORD97":2579222,"ADDRESS":"民族路１１４巷１５號","OBJECTID":283740},"geometry":{"x":180400.78000000119,"y":2579222}},{"attributes":{"ID":283747,"DIS_CODE":0,"TOWNNAME":"安南區","LI":"大安里","LIN":"2鄰","STREET":"理安街","SECT":" ","MAREA":" ","LANE":" ","ALLEY":" ","HOUSE_NO":"１３號","E_COORD97":167269.73999999999,"N_COORD97":2547909.7799999998,"ADDRESS":"理安街１３號","OBJECTID":283741},"geometry":{"x":167269.74000000115,"y":2547909.7799999993}},{"attributes":{"ID":283748,"DIS_CODE":0,"TOWNNAME":"安南區","LI":"大安里","LIN":"2鄰","STREET":"理安街","SECT":" ","MAREA":" ","LANE":" ","ALLEY":" ","HOUSE_NO":"１７號","E_COORD97":167273.79000000001,"N_COORD97":2547917.5299999998,"ADDRESS":"理安街１７號","OBJECTID":283742},"geometry":{"x":167273.79000000004,"y":2547917.5299999993}},{"attributes":{"ID":283749,"DIS_CODE":0,"TOWNNAME":"安南區","LI":"大安里","LIN":"2鄰","STREET":"理安街","SECT":" ","MAREA":" ","LANE":" ","ALLEY":" ","HOUSE_NO":"１９號","E_COORD97":167276.69,"N_COORD97":2547921.3700000001,"ADDRESS":"理安街１９號","OBJECTID":283743},"geometry":{"x":167276.69000000227,"y":2547921.370000001}},{"attributes":{"ID":283750,"DIS_CODE":0,"TOWNNAME":"安南區","LI":"大安里","LIN":"2鄰","STREET":"理安街","SECT":" ","MAREA":" ","LANE":" ","ALLEY":" ","HOUSE_NO":"２３號","E_COORD97":167281.54000000001,"N_COORD97":2547929.5800000001,"ADDRESS":"理安街２３號","OBJECTID":283744},"geometry":{"x":167281.54000000097,"y":2547929.5800000038}},{"attributes":{"ID":283751,"DIS_CODE":0,"TOWNNAME":"新化區","LI":"中央里","LIN":"2鄰","STREET":"信義路","SECT":" ","MAREA":" ","LANE":" ","ALLEY":" ","HOUSE_NO":"２８４號","E_COORD97":179005.92999999999,"N_COORD97":2548308.25,"ADDRESS":"信義路２８４號","OBJECTID":283745},"geometry":{"x":179005.9299999997,"y":2548308.2500000037}},{"attributes":{"ID":283752,"DIS_CODE":0,"TOWNNAME":"新化區","LI":"清水里","LIN":"2鄰","STREET":"中山路","SECT":" ","MAREA":" ","LANE":" ","ALLEY":" ","HOUSE_NO":"４０９號","E_COORD97":178766.41,"N_COORD97":2548395.25,"ADDRESS":"中山路４０９號","OBJECTID":283746},"geometry":{"x":178766.41000000015,"y":2548395.25}},{"attributes":{"ID":283753,"DIS_CODE":0,"TOWNNAME":"新化區","LI":"清水里","LIN":"2鄰","STREET":"中山路","SECT":" ","MAREA":" ","LANE":" ","ALLEY":" ","HOUSE_NO":"４２１號之１","E_COORD97":178746.04000000001,"N_COORD97":2548396.2599999998,"ADDRESS":"中山路４２１號之１","OBJECTID":283747},"geometry":{"x":178746.04000000097,"y":2548396.2600000016}},{"attributes":{"ID":283754,"DIS_CODE":0,"TOWNNAME":"新營區","LI":"新北里","LIN":"19鄰","STREET":"民生路","SECT":" ","MAREA":" ","LANE":"２２６巷","ALLEY":" ","HOUSE_NO":"１６之１號","E_COORD97":179113.98000000001,"N_COORD97":2579104.1400000001,"ADDRESS":"民生路２２６巷１６之１號","OBJECTID":283748},"geometry":{"x":179113.98000000231,"y":2579104.1400000043}},{"attributes":{"ID":283755,"DIS_CODE":0,"TOWNNAME":"北區","LI":"東興里","LIN":"19鄰","STREET":"小東路","SECT":" ","MAREA":" ","LANE":"３０７巷","ALLEY":" ","HOUSE_NO":"１１９號","E_COORD97":171036.79999999999,"N_COORD97":2544600.5499999998,"ADDRESS":"小東路３０７巷１１９號","OBJECTID":283749},"geometry":{"x":171036.79999999981,"y":2544600.5500000007}},{"attributes":{"ID":283756,"DIS_CODE":0,"TOWNNAME":"北區","LI":"東興里","LIN":"19鄰","STREET":"小東路","SECT":" ","MAREA":" ","LANE":"３０７巷","ALLEY":" ","HOUSE_NO":"１２１號","E_COORD97":171033.39999999999,"N_COORD97":2544602.6899999999,"ADDRESS":"小東路３０７巷１２１號","OBJECTID":283750},"geometry":{"x":171033.39999999944,"y":2544602.6900000013}},{"attributes":{"ID":283757,"DIS_CODE":0,"TOWNNAME":"北區","LI":"東興里","LIN":"19鄰","STREET":"小東路","SECT":" ","MAREA":" ","LANE":"３０７巷","ALLEY":" ","HOUSE_NO":"１２３號","E_COORD97":171029.98999999999,"N_COORD97":2544605.02,"ADDRESS":"小東路３０７巷１２３號","OBJECTID":283751},"geometry":{"x":171029.99000000115,"y":2544605.0200000014}},{"attributes":{"ID":283758,"DIS_CODE":0,"TOWNNAME":"北區","LI":"東興里","LIN":"19鄰","STREET":"小東路","SECT":" ","MAREA":" ","LANE":"３０７巷","ALLEY":" ","HOUSE_NO":"１２５號","E_COORD97":171026.98000000001,"N_COORD97":2544608.23,"ADDRESS":"小東路３０７巷１２５號","OBJECTID":283752},"geometry":{"x":171026.98000000138,"y":2544608.2300000004}},{"attributes":{"ID":283759,"DIS_CODE":0,"TOWNNAME":"北區","LI":"東興里","LIN":"19鄰","STREET":"小東路","SECT":" ","MAREA":" ","LANE":"３０７巷","ALLEY":" ","HOUSE_NO":"１２７號","E_COORD97":171023.57000000001,"N_COORD97":2544610.9500000002,"ADDRESS":"小東路３０７巷１２７號","OBJECTID":283753},"geometry":{"x":171023.5700000003,"y":2544610.9500000011}},{"attributes":{"ID":283760,"DIS_CODE":0,"TOWNNAME":"北區","LI":"東興里","LIN":"19鄰","STREET":"小東路","SECT":" ","MAREA":" ","LANE":"３０７巷","ALLEY":" ","HOUSE_NO":"９３號","E_COORD97":171077.01999999999,"N_COORD97":2544562.2999999998,"ADDRESS":"小東路３０７巷９３號","OBJECTID":283754},"geometry":{"x":171077.01999999955,"y":2544562.3000000045}},{"attributes":{"ID":283761,"DIS_CODE":0,"TOWNNAME":"安南區","LI":"大安里","LIN":"2鄰","STREET":"大安街","SECT":" ","MAREA":" ","LANE":"６８巷","ALLEY":" ","HOUSE_NO":"２號","E_COORD97":167215.81,"N_COORD97":2547967.5800000001,"ADDRESS":"大安街６８巷２號","OBJECTID":283755},"geometry":{"x":167215.81000000145,"y":2547967.5800000019}},{"attributes":{"ID":283762,"DIS_CODE":0,"TOWNNAME":"永康區","LI":"\u25A0洲里","LIN":"4鄰","STREET":"\u25A0洲二街","SECT":" ","MAREA":" ","LANE":" ","ALLEY":" ","HOUSE_NO":"１７１號","E_COORD97":171711.92999999999,"N_COORD97":2549399.7400000002,"ADDRESS":"\u25A0洲二街１７１號","OBJECTID":283756},"geometry":{"x":171711.9299999997,"y":2549399.7399999984}},{"attributes":{"ID":283763,"DIS_CODE":0,"TOWNNAME":"新化區","LI":"北勢里","LIN":"2鄰","STREET":" ","SECT":" ","MAREA":"北勢","LANE":" ","ALLEY":" ","HOUSE_NO":"１８號","E_COORD97":177426.73000000001,"N_COORD97":2549463.2599999998,"ADDRESS":"北勢１８號","OBJECTID":283757},"geometry":{"x":177426.73000000045,"y":2549463.2599999998}},{"attributes":{"ID":283764,"DIS_CODE":0,"TOWNNAME":"新化區","LI":"山\u25A0里","LIN":"2鄰","STREET":" ","SECT":" ","MAREA":"頂山\u25A0","LANE":" ","ALLEY":" ","HOUSE_NO":"３６號","E_COORD97":179440.38,"N_COORD97":2546712.25,"ADDRESS":"頂山\u25A0３６號","OBJECTID":283758},"geometry":{"x":179440.38000000082,"y":2546712.2500000019}},{"attributes":{"ID":283765,"DIS_CODE":0,"TOWNNAME":"新化區","LI":"山\u25A0里","LIN":"2鄰","STREET":" ","SECT":" ","MAREA":"頂山\u25A0","LANE":" ","ALLEY":" ","HOUSE_NO":"５３號之２０","E_COORD97":179168.67000000001,"N_COORD97":2546553.2599999998,"ADDRESS":"頂山\u25A0５３號之２０","OBJECTID":283759},"geometry":{"x":179168.67000000086,"y":2546553.2599999998}},{"attributes":{"ID":283766,"DIS_CODE":0,"TOWNNAME":"新化區","LI":"崙頂里","LIN":"2鄰","STREET":" ","SECT":" ","MAREA":"崙子頂","LANE":" ","ALLEY":" ","HOUSE_NO":"９８號","E_COORD97":176829.48000000001,"N_COORD97":2546787.25,"ADDRESS":"崙子頂９８號","OBJECTID":283760},"geometry":{"x":176829.48000000138,"y":2546787.2500000019}},{"attributes":{"ID":283767,"DIS_CODE":0,"TOWNNAME":"新化區","LI":"豐榮里","LIN":"2鄰","STREET":" ","SECT":" ","MAREA":"洋子","LANE":" ","ALLEY":" ","HOUSE_NO":"４５號之２","E_COORD97":178046.28,"N_COORD97":2548305.2599999998,"ADDRESS":"洋子４５號之２","OBJECTID":283761},"geometry":{"x":178046.28000000119,"y":2548305.2600000016}},{"attributes":{"ID":283768,"DIS_CODE":0,"TOWNNAME":"新化區","LI":"太平里","LIN":"2鄰","STREET":"忠孝路","SECT":" ","MAREA":" ","LANE":" ","ALLEY":" ","HOUSE_NO":"１２號","E_COORD97":179194.76999999999,"N_COORD97":2548742.25,"ADDRESS":"忠孝路１２號","OBJECTID":283762},"geometry":{"x":179194.77000000048,"y":2548742.2500000019}},{"attributes":{"ID":283769,"DIS_CODE":0,"TOWNNAME":"北區","LI":"東興里","LIN":"19鄰","STREET":"小東路","SECT":" ","MAREA":" ","LANE":"３０７巷","ALLEY":" ","HOUSE_NO":"９５號","E_COORD97":171073.42000000001,"N_COORD97":2544566.29,"ADDRESS":"小東路３０７巷９５號","OBJECTID":283763},"geometry":{"x":171073.41999999899,"y":2544566.2899999991}},{"attributes":{"ID":283770,"DIS_CODE":0,"TOWNNAME":"新化區","LI":"山\u25A0里","LIN":"2鄰","STREET":" ","SECT":" ","MAREA":"頂山\u25A0","LANE":" ","ALLEY":" ","HOUSE_NO":"５４號之１９５","E_COORD97":179215.14000000001,"N_COORD97":2546187.2599999998,"ADDRESS":"頂山\u25A0５４號之１９５","OBJECTID":283764},"geometry":{"x":179215.13999999966,"y":2546187.2599999998}},{"attributes":{"ID":283771,"DIS_CODE":0,"TOWNNAME":"新化區","LI":"北勢里","LIN":"2鄰","STREET":" ","SECT":" ","MAREA":"北勢","LANE":" ","ALLEY":" ","HOUSE_NO":"２７號之１１","E_COORD97":177539.81,"N_COORD97":2549518.2599999998,"ADDRESS":"北勢２７號之１１","OBJECTID":283765},"geometry":{"x":177539.81000000052,"y":2549518.2600000035}},{"attributes":{"ID":283772,"DIS_CODE":0,"TOWNNAME":"新化區","LI":"北勢里","LIN":"2鄰","STREET":" ","SECT":" ","MAREA":"北勢","LANE":" ","ALLEY":" ","HOUSE_NO":"１６號","E_COORD97":177441.63,"N_COORD97":2549437.2599999998,"ADDRESS":"北勢１６號","OBJECTID":283766},"geometry":{"x":177441.63000000082,"y":2549437.2600000016}},{"attributes":{"ID":283773,"DIS_CODE":0,"TOWNNAME":"白河區","LI":"詔安里","LIN":"2鄰","STREET":" ","SECT":" ","MAREA":"詔安厝","LANE":" ","ALLEY":" ","HOUSE_NO":"２４之１１０號","E_COORD97":190405.94,"N_COORD97":2588573.3599999999,"ADDRESS":"詔安厝２４之１１０號","OBJECTID":283767},"geometry":{"x":190405.94000000227,"y":2588573.3599999994}},{"attributes":{"ID":283774,"DIS_CODE":0,"TOWNNAME":"白河區","LI":"詔安里","LIN":"2鄰","STREET":" ","SECT":" ","MAREA":"詔安厝","LANE":" ","ALLEY":" ","HOUSE_NO":"２４之１１１號","E_COORD97":190494.04999999999,"N_COORD97":2588544.71,"ADDRESS":"詔安厝２４之１１１號","OBJECTID":283768},"geometry":{"x":190494.04999999981,"y":2588544.7100000009}},{"attributes":{"ID":283775,"DIS_CODE":0,"TOWNNAME":"北區","LI":"東興里","LIN":"19鄰","STREET":"小東路","SECT":" ","MAREA":" ","LANE":"３０７巷","ALLEY":" ","HOUSE_NO":"９７號","E_COORD97":171070.5,"N_COORD97":2544569.5,"ADDRESS":"小東路３０７巷９７號","OBJECTID":283769},"geometry":{"x":171070.50000000093,"y":2544569.5}},{"attributes":{"ID":283776,"DIS_CODE":0,"TOWNNAME":"北區","LI":"東興里","LIN":"19鄰","STREET":"小東路","SECT":" ","MAREA":" ","LANE":"３０７巷","ALLEY":" ","HOUSE_NO":"９９號","E_COORD97":171067.57999999999,"N_COORD97":2544571.6299999999,"ADDRESS":"小東路３０７巷９９號","OBJECTID":283770},"geometry":{"x":171067.58000000194,"y":2544571.6300000027}},{"attributes":{"ID":283777,"DIS_CODE":0,"TOWNNAME":"佳里區","LI":"鎮山里","LIN":"1鄰","STREET":"四安街","SECT":" ","MAREA":" ","LANE":" ","ALLEY":" ","HOUSE_NO":"４１號","E_COORD97":165849.64999999999,"N_COORD97":2561838.1400000001,"ADDRESS":"四安街４１號","OBJECTID":283771},"geometry":{"x":165849.65000000224,"y":2561838.1400000025}},{"attributes":{"ID":283778,"DIS_CODE":0,"TOWNNAME":"歸仁區","LI":"媽廟里","LIN":"19鄰","STREET":"保大路","SECT":"一段","MAREA":" ","LANE":"１３３巷","ALLEY":" ","HOUSE_NO":"４８號","E_COORD97":177753.07999999999,"N_COORD97":2543871.7200000002,"ADDRESS":"保大路一段１３３巷４８號","OBJECTID":283772},"geometry":{"x":177753.08000000007,"y":2543871.7200000025}},{"attributes":{"ID":283779,"DIS_CODE":0,"TOWNNAME":"歸仁區","LI":"新厝里","LIN":"19鄰","STREET":"大成六街","SECT":" ","MAREA":" ","LANE":"１６巷","ALLEY":" ","HOUSE_NO":"２號","E_COORD97":177618.73999999999,"N_COORD97":2540334.1800000002,"ADDRESS":"大成六街１６巷２號","OBJECTID":283773},"geometry":{"x":177618.74000000115,"y":2540334.1800000034}},{"attributes":{"ID":283780,"DIS_CODE":0,"TOWNNAME":"歸仁區","LI":"歸仁里","LIN":"19鄰","STREET":"大仁二街","SECT":" ","MAREA":" ","LANE":"１２巷","ALLEY":" ","HOUSE_NO":"３號","E_COORD97":178171.84,"N_COORD97":2541071.1099999999,"ADDRESS":"大仁二街１２巷３號","OBJECTID":283774},"geometry":{"x":178171.84000000171,"y":2541071.1100000013}},{"attributes":{"ID":283781,"DIS_CODE":0,"TOWNNAME":"北區","LI":"文元里","LIN":"19鄰","STREET":"文賢路","SECT":" ","MAREA":" ","LANE":"１０３０巷","ALLEY":" ","HOUSE_NO":"６８號","E_COORD97":167555.92000000001,"N_COORD97":2546062.5,"ADDRESS":"文賢路１０３０巷６８號","OBJECTID":283775},"geometry":{"x":167555.91999999899,"y":2546062.5000000019}},{"attributes":{"ID":283782,"DIS_CODE":0,"TOWNNAME":"白河區","LI":"詔安里","LIN":"2鄰","STREET":" ","SECT":" ","MAREA":"詔安厝","LANE":" ","ALLEY":" ","HOUSE_NO":"２４之３號","E_COORD97":189828.38,"N_COORD97":2588166.2799999998,"ADDRESS":"詔安厝２４之３號","OBJECTID":283776},"geometry":{"x":189828.38000000082,"y":2588166.2799999993}},{"attributes":{"ID":283783,"DIS_CODE":0,"TOWNNAME":"北區","LI":"文元里","LIN":"19鄰","STREET":"文賢路","SECT":" ","MAREA":" ","LANE":"１０３０巷","ALLEY":" ","HOUSE_NO":"５０號","E_COORD97":167516.67000000001,"N_COORD97":2546060.4300000002,"ADDRESS":"文賢路１０３０巷５０號","OBJECTID":283777},"geometry":{"x":167516.66999999993,"y":2546060.4299999997}},{"attributes":{"ID":283784,"DIS_CODE":0,"TOWNNAME":"北區","LI":"文元里","LIN":"19鄰","STREET":"文賢路","SECT":" ","MAREA":" ","LANE":"１０３０巷","ALLEY":" ","HOUSE_NO":"７２號","E_COORD97":167565.10999999999,"N_COORD97":2546061.5800000001,"ADDRESS":"文賢路１０３０巷７２號","OBJECTID":283778},"geometry":{"x":167565.11000000034,"y":2546061.5800000038}},{"attributes":{"ID":283785,"DIS_CODE":0,"TOWNNAME":"歸仁區","LI":"歸仁里","LIN":"19鄰","STREET":"大仁二街","SECT":" ","MAREA":" ","LANE":"１２巷","ALLEY":" ","HOUSE_NO":"８號","E_COORD97":178183.14000000001,"N_COORD97":2541063.1099999999,"ADDRESS":"大仁二街１２巷８號","OBJECTID":283779},"geometry":{"x":178183.14000000153,"y":2541063.1100000031}},{"attributes":{"ID":283786,"DIS_CODE":0,"TOWNNAME":"歸仁區","LI":"大廟里","LIN":"19鄰","STREET":"大廟一街","SECT":" ","MAREA":" ","LANE":"２８巷","ALLEY":" ","HOUSE_NO":"２６之２號","E_COORD97":175796.51999999999,"N_COORD97":2544181.2999999998,"ADDRESS":"大廟一街２８巷２６之２號","OBJECTID":283780},"geometry":{"x":175796.51999999955,"y":2544181.3000000007}},{"attributes":{"ID":283787,"DIS_CODE":0,"TOWNNAME":"歸仁區","LI":"大廟里","LIN":"19鄰","STREET":"大廟一街","SECT":" ","MAREA":" ","LANE":"２８巷","ALLEY":" ","HOUSE_NO":"１１號","E_COORD97":175796.72,"N_COORD97":2544104.25,"ADDRESS":"大廟一街２８巷１１號","OBJECTID":283781},"geometry":{"x":175796.71999999974,"y":2544104.2500000019}},{"attributes":{"ID":283788,"DIS_CODE":0,"TOWNNAME":"歸仁區","LI":"大廟里","LIN":"19鄰","STREET":"大廟一街","SECT":" ","MAREA":" ","LANE":"２８巷","ALLEY":" ","HOUSE_NO":"５０號","E_COORD97":175718.42000000001,"N_COORD97":2544228.25,"ADDRESS":"大廟一街２８巷５０號","OBJECTID":283782},"geometry":{"x":175718.42000000179,"y":2544228.25}},{"attributes":{"ID":283789,"DIS_CODE":0,"TOWNNAME":"白河區","LI":"詔安里","LIN":"2鄰","STREET":" ","SECT":" ","MAREA":"詔安厝","LANE":" ","ALLEY":" ","HOUSE_NO":"２４之４６號","E_COORD97":189770.81,"N_COORD97":2588156.3399999999,"ADDRESS":"詔安厝２４之４６號","OBJECTID":283783},"geometry":{"x":189770.81000000052,"y":2588156.3399999999}},{"attributes":{"ID":283790,"DIS_CODE":0,"TOWNNAME":"南區","LI":"鯤鯓里","LIN":"19鄰","STREET":"鯤鯓路","SECT":" ","MAREA":" ","LANE":"１０２巷","ALLEY":" ","HOUSE_NO":"４１號","E_COORD97":165080.82999999999,"N_COORD97":2540203.3999999999,"ADDRESS":"鯤鯓路１０２巷４１號","OBJECTID":283784},"geometry":{"x":165080.83000000101,"y":2540203.4000000004}},{"attributes":{"ID":283791,"DIS_CODE":0,"TOWNNAME":"南區","LI":"鯤鯓里","LIN":"19鄰","STREET":"鯤鯓路","SECT":" ","MAREA":" ","LANE":"１０２巷","ALLEY":" ","HOUSE_NO":"８０號","E_COORD97":165127.25,"N_COORD97":2540169.6099999999,"ADDRESS":"鯤鯓路１０２巷８０號","OBJECTID":283785},"geometry":{"x":165127.25,"y":2540169.6100000013}},{"attributes":{"ID":283792,"DIS_CODE":0,"TOWNNAME":"南區","LI":"鯤鯓里","LIN":"19鄰","STREET":"鯤鯓路","SECT":" ","MAREA":" ","LANE":"１０２巷","ALLEY":" ","HOUSE_NO":"８２號","E_COORD97":165121.70000000001,"N_COORD97":2540171.1800000002,"ADDRESS":"鯤鯓路１０２巷８２號","OBJECTID":283786},"geometry":{"x":165121.69999999925,"y":2540171.1800000034}},{"attributes":{"ID":283793,"DIS_CODE":0,"TOWNNAME":"南區","LI":"鯤鯓里","LIN":"19鄰","STREET":"鯤鯓路","SECT":" ","MAREA":" ","LANE":"１０２巷","ALLEY":" ","HOUSE_NO":"８４號","E_COORD97":165116.38,"N_COORD97":2540172.27,"ADDRESS":"鯤鯓路１０２巷８４號","OBJECTID":283787},"geometry":{"x":165116.37999999989,"y":2540172.2699999996}},{"attributes":{"ID":283794,"DIS_CODE":0,"TOWNNAME":"南區","LI":"鯤鯓里","LIN":"19鄰","STREET":"鯤鯓路","SECT":" ","MAREA":" ","LANE":"１０２巷","ALLEY":" ","HOUSE_NO":"８６號","E_COORD97":165109.98000000001,"N_COORD97":2540173.23,"ADDRESS":"鯤鯓路１０２巷８６號","OBJECTID":283788},"geometry":{"x":165109.98000000231,"y":2540173.2300000023}},{"attributes":{"ID":283795,"DIS_CODE":0,"TOWNNAME":"白河區","LI":"詔安里","LIN":"2鄰","STREET":" ","SECT":" ","MAREA":"詔安厝","LANE":" ","ALLEY":" ","HOUSE_NO":"２４之４７號","E_COORD97":189772.07000000001,"N_COORD97":2588159.96,"ADDRESS":"詔安厝２４之４７號","OBJECTID":283789},"geometry":{"x":189772.0700000003,"y":2588159.9600000009}},{"attributes":{"ID":283796,"DIS_CODE":0,"TOWNNAME":"白河區","LI":"庄內里","LIN":"2鄰","STREET":"愛國街","SECT":" ","MAREA":" ","LANE":" ","ALLEY":" ","HOUSE_NO":"７３號","E_COORD97":191028.79000000001,"N_COORD97":2583422.96,"ADDRESS":"愛國街７３號","OBJECTID":283790},"geometry":{"x":191028.79000000097,"y":2583422.9600000028}},{"attributes":{"ID":283797,"DIS_CODE":0,"TOWNNAME":"白河區","LI":"庄內里","LIN":"2鄰","STREET":"愛國街","SECT":" ","MAREA":" ","LANE":" ","ALLEY":" ","HOUSE_NO":"７５號","E_COORD97":191028.92000000001,"N_COORD97":2583428.29,"ADDRESS":"愛國街７５號","OBJECTID":283791},"geometry":{"x":191028.91999999993,"y":2583428.290000001}},{"attributes":{"ID":283798,"DIS_CODE":0,"TOWNNAME":"永康區","LI":"\u25A0行里","LIN":"18鄰","STREET":"中正南路","SECT":" ","MAREA":" ","LANE":" ","ALLEY":" ","HOUSE_NO":"６６０號","E_COORD97":171569.64000000001,"N_COORD97":2548807.5,"ADDRESS":"中正南路６６０號","OBJECTID":283792},"geometry":{"x":171569.63999999966,"y":2548807.5}},{"attributes":{"ID":283799,"DIS_CODE":0,"TOWNNAME":"永康區","LI":"\u25A0行里","LIN":"25鄰","STREET":"\u25A0和街","SECT":" ","MAREA":" ","LANE":" ","ALLEY":" ","HOUSE_NO":"２６２號","E_COORD97":171595.57999999999,"N_COORD97":2548376.9900000002,"ADDRESS":"\u25A0和街２６２號","OBJECTID":283793},"geometry":{"x":171595.58000000101,"y":2548376.9900000002}},{"attributes":{"ID":283800,"DIS_CODE":0,"TOWNNAME":"南區","LI":"鯤鯓里","LIN":"19鄰","STREET":"鯤鯓路","SECT":" ","MAREA":" ","LANE":"１０２巷","ALLEY":" ","HOUSE_NO":"８８號","E_COORD97":165103.34,"N_COORD97":2540174.3199999998,"ADDRESS":"鯤鯓路１０２巷８８號","OBJECTID":283794},"geometry":{"x":165103.33999999985,"y":2540174.320000004}},{"attributes":{"ID":283801,"DIS_CODE":0,"TOWNNAME":"南區","LI":"鯤鯓里","LIN":"19鄰","STREET":"鯤鯓路","SECT":" ","MAREA":" ","LANE":"１０２巷","ALLEY":" ","HOUSE_NO":"９０號","E_COORD97":165097.54000000001,"N_COORD97":2540174.7999999998,"ADDRESS":"鯤鯓路１０２巷９０號","OBJECTID":283795},"geometry":{"x":165097.54000000097,"y":2540174.8000000045}},{"attributes":{"ID":283802,"DIS_CODE":0,"TOWNNAME":"南區","LI":"鯤鯓里","LIN":"19鄰","STREET":"鯤鯓路","SECT":" ","MAREA":" ","LANE":"１０２巷","ALLEY":" ","HOUSE_NO":"９２號","E_COORD97":165093.19,"N_COORD97":2540175.77,"ADDRESS":"鯤鯓路１０２巷９２號","OBJECTID":283796},"geometry":{"x":165093.18999999948,"y":2540175.7699999996}},{"attributes":{"ID":283803,"DIS_CODE":0,"TOWNNAME":"南區","LI":"鯤鯓里","LIN":"19鄰","STREET":"鯤鯓路","SECT":" ","MAREA":" ","LANE":"１０２巷","ALLEY":" ","HOUSE_NO":"９８號","E_COORD97":165081.35999999999,"N_COORD97":2540174.9199999999,"ADDRESS":"鯤鯓路１０２巷９８號","OBJECTID":283797},"geometry":{"x":165081.36000000034,"y":2540174.9200000018}},{"attributes":{"ID":283804,"DIS_CODE":0,"TOWNNAME":"南區","LI":"府南里","LIN":"19鄰","STREET":"大成路","SECT":"二段","MAREA":" ","LANE":"１７７巷","ALLEY":" ","HOUSE_NO":"６８號","E_COORD97":167200.70000000001,"N_COORD97":2541594.4500000002,"ADDRESS":"大成路二段１７７巷６８號","OBJECTID":283798},"geometry":{"x":167200.70000000112,"y":2541594.4500000011}},{"attributes":{"ID":283805,"DIS_CODE":0,"TOWNNAME":"永康區","LI":"\u25A0洲里","LIN":"25鄰","STREET":"洲工街","SECT":" ","MAREA":" ","LANE":" ","ALLEY":" ","HOUSE_NO":"１４號","E_COORD97":170637.51000000001,"N_COORD97":2548104.6400000001,"ADDRESS":"洲工街１４號","OBJECTID":283799},"geometry":{"x":170637.51000000071,"y":2548104.6400000006}},{"attributes":{"ID":283806,"DIS_CODE":0,"TOWNNAME":"南區","LI":"大忠里","LIN":"19鄰","STREET":"大同路","SECT":"二段","MAREA":" ","LANE":"６４０巷","ALLEY":" ","HOUSE_NO":"１００號","E_COORD97":169213.23999999999,"N_COORD97":2541020.0699999998,"ADDRESS":"大同路二段６４０巷１００號","OBJECTID":283800},"geometry":{"x":169213.24000000022,"y":2541020.0699999984}}]}