{"displayFieldName":"TOWNNAME","fieldAliases":{"ID":"ID","DIS_CODE":"DIS_CODE","TOWNNAME":"TOWNNAME","LI":"LI","LIN":"LIN","STREET":"STREET","SECT":"SECT","MAREA":"MAREA","LANE":"LANE","ALLEY":"ALLEY","HOUSE_NO":"HOUSE_NO","E_COORD97":"E_COORD97","N_COORD97":"N_COORD97","ADDRESS":"ADDRESS","OBJECTID":"OBJECTID"},"geometryType":"esriGeometryPoint","spatialReference":{"wkid":102443,"latestWkid":3826},"fields":[{"name":"ID","type":"esriFieldTypeDouble","alias":"ID"},{"name":"DIS_CODE","type":"esriFieldTypeInteger","alias":"DIS_CODE"},{"name":"TOWNNAME","type":"esriFieldTypeString","alias":"TOWNNAME","length":8},{"name":"LI","type":"esriFieldTypeString","alias":"LI","length":8},{"name":"LIN","type":"esriFieldTypeString","alias":"LIN","length":12},{"name":"STREET","type":"esriFieldTypeString","alias":"STREET","length":20},{"name":"SECT","type":"esriFieldTypeString","alias":"SECT","length":8},{"name":"MAREA","type":"esriFieldTypeString","alias":"MAREA","length":12},{"name":"LANE","type":"esriFieldTypeString","alias":"LANE","length":10},{"name":"ALLEY","type":"esriFieldTypeString","alias":"ALLEY","length":10},{"name":"HOUSE_NO","type":"esriFieldTypeString","alias":"HOUSE_NO","length":20},{"name":"E_COORD97","type":"esriFieldTypeDouble","alias":"E_COORD97"},{"name":"N_COORD97","type":"esriFieldTypeDouble","alias":"N_COORD97"},{"name":"ADDRESS","type":"esriFieldTypeString","alias":"ADDRESS","length":50},{"name":"OBJECTID","type":"esriFieldTypeOID","alias":"OBJECTID"}],"features":[{"attributes":{"ID":226205,"DIS_CODE":0,"TOWNNAME":"仁德區","LI":"仁義里","LIN":"22鄰","STREET":"中山路","SECT":" ","MAREA":" ","LANE":"３９６巷","ALLEY":" ","HOUSE_NO":"１７號","E_COORD97":173779.42000000001,"N_COORD97":2541376.5,"ADDRESS":"中山路３９６巷１７號","OBJECTID":226201},"geometry":{"x":173779.42000000086,"y":2541376.5000000037}},{"attributes":{"ID":226206,"DIS_CODE":0,"TOWNNAME":"永康區","LI":"勝利里","LIN":"19鄰","STREET":"中華一路","SECT":" ","MAREA":" ","LANE":"２７２巷","ALLEY":" ","HOUSE_NO":"１５號","E_COORD97":171326.28,"N_COORD97":2545032.4900000002,"ADDRESS":"中華一路２７２巷１５號","OBJECTID":226202},"geometry":{"x":171326.28000000119,"y":2545032.4900000021}},{"attributes":{"ID":226207,"DIS_CODE":0,"TOWNNAME":"永康區","LI":"崑山里","LIN":"21鄰","STREET":"大仁街","SECT":" ","MAREA":" ","LANE":"３１巷","ALLEY":" ","HOUSE_NO":"８號","E_COORD97":173757.12,"N_COORD97":2544616.1400000001,"ADDRESS":"大仁街３１巷８號","OBJECTID":226203},"geometry":{"x":173757.12000000011,"y":2544616.1400000006}},{"attributes":{"ID":226208,"DIS_CODE":0,"TOWNNAME":"仁德區","LI":"仁義里","LIN":"22鄰","STREET":"中山路","SECT":" ","MAREA":" ","LANE":"３９６巷","ALLEY":" ","HOUSE_NO":"３號","E_COORD97":173789.14000000001,"N_COORD97":2541309.2400000002,"ADDRESS":"中山路３９６巷３號","OBJECTID":226204},"geometry":{"x":173789.14000000153,"y":2541309.2400000002}},{"attributes":{"ID":226209,"DIS_CODE":0,"TOWNNAME":"仁德區","LI":"仁德里","LIN":"22鄰","STREET":"中山路","SECT":" ","MAREA":" ","LANE":"８７５巷","ALLEY":" ","HOUSE_NO":"２號","E_COORD97":172418.92999999999,"N_COORD97":2541564.5,"ADDRESS":"中山路８７５巷２號","OBJECTID":226205},"geometry":{"x":172418.9299999997,"y":2541564.5000000019}},{"attributes":{"ID":226210,"DIS_CODE":0,"TOWNNAME":"北區","LI":"成德里","LIN":"34鄰","STREET":"文成路","SECT":" ","MAREA":" ","LANE":" ","ALLEY":" ","HOUSE_NO":"３６９號","E_COORD97":168089.57999999999,"N_COORD97":2545900.7999999998,"ADDRESS":"文成路３６９號","OBJECTID":226206},"geometry":{"x":168089.58000000101,"y":2545900.8000000007}},{"attributes":{"ID":226211,"DIS_CODE":0,"TOWNNAME":"仁德區","LI":"太子里","LIN":"29鄰","STREET":"太子四街","SECT":" ","MAREA":" ","LANE":"２１巷","ALLEY":" ","HOUSE_NO":"２２號","E_COORD97":173168.31521999999,"N_COORD97":2543124.6831100001,"ADDRESS":"太子四街２１巷２２號","OBJECTID":226207},"geometry":{"x":173168.31522000115,"y":2543124.6831130013}},{"attributes":{"ID":226212,"DIS_CODE":0,"TOWNNAME":"仁德區","LI":"太子里","LIN":"29鄰","STREET":"太子四街","SECT":" ","MAREA":" ","LANE":"２１巷","ALLEY":" ","HOUSE_NO":"８號","E_COORD97":173114.52513299999,"N_COORD97":2543147.4372700001,"ADDRESS":"太子四街２１巷８號","OBJECTID":226208},"geometry":{"x":173114.52513300069,"y":2543147.4372670017}},{"attributes":{"ID":226213,"DIS_CODE":0,"TOWNNAME":"仁德區","LI":"太子里","LIN":"29鄰","STREET":"太子四街","SECT":" ","MAREA":" ","LANE":"２５巷","ALLEY":" ","HOUSE_NO":"１號","E_COORD97":173079.37,"N_COORD97":2543116.7000000002,"ADDRESS":"太子四街２５巷１號","OBJECTID":226209},"geometry":{"x":173079.36999999918,"y":2543116.6999999974}},{"attributes":{"ID":226214,"DIS_CODE":0,"TOWNNAME":"仁德區","LI":"太子里","LIN":"29鄰","STREET":"太子四街","SECT":" ","MAREA":" ","LANE":"２５巷","ALLEY":" ","HOUSE_NO":"３號","E_COORD97":173089.25,"N_COORD97":2543111.0099999998,"ADDRESS":"太子四街２５巷３號","OBJECTID":226210},"geometry":{"x":173089.25000000093,"y":2543111.0099999998}},{"attributes":{"ID":226215,"DIS_CODE":0,"TOWNNAME":"仁德區","LI":"太子里","LIN":"29鄰","STREET":"太子四街","SECT":" ","MAREA":" ","LANE":"２５巷","ALLEY":" ","HOUSE_NO":"５號","E_COORD97":173101.63,"N_COORD97":2543108.4199999999,"ADDRESS":"太子四街２５巷５號","OBJECTID":226211},"geometry":{"x":173101.63000000082,"y":2543108.4199999999}},{"attributes":{"ID":226216,"DIS_CODE":0,"TOWNNAME":"仁德區","LI":"太子里","LIN":"29鄰","STREET":"太子四街","SECT":" ","MAREA":" ","LANE":"２５巷","ALLEY":" ","HOUSE_NO":"７號","E_COORD97":173113.20999999999,"N_COORD97":2543102.73,"ADDRESS":"太子四街２５巷７號","OBJECTID":226212},"geometry":{"x":173113.21000000089,"y":2543102.7300000004}},{"attributes":{"ID":226217,"DIS_CODE":0,"TOWNNAME":"仁德區","LI":"太子里","LIN":"29鄰","STREET":"太子四街","SECT":" ","MAREA":" ","LANE":"７３巷","ALLEY":" ","HOUSE_NO":"１０號","E_COORD97":173080.14999999999,"N_COORD97":2542853.1600000001,"ADDRESS":"太子四街７３巷１０號","OBJECTID":226213},"geometry":{"x":173080.1500000013,"y":2542853.1600000001}},{"attributes":{"ID":226218,"DIS_CODE":0,"TOWNNAME":"仁德區","LI":"太子里","LIN":"29鄰","STREET":"太子四街","SECT":" ","MAREA":" ","LANE":"７３巷","ALLEY":" ","HOUSE_NO":"１２號","E_COORD97":173092.69,"N_COORD97":2542857.9100000001,"ADDRESS":"太子四街７３巷１２號","OBJECTID":226214},"geometry":{"x":173092.69000000041,"y":2542857.9100000001}},{"attributes":{"ID":226219,"DIS_CODE":0,"TOWNNAME":"仁德區","LI":"太子里","LIN":"29鄰","STREET":"太子四街","SECT":" ","MAREA":" ","LANE":"７３巷","ALLEY":" ","HOUSE_NO":"１６號","E_COORD97":173104.48000000001,"N_COORD97":2542862.6499999999,"ADDRESS":"太子四街７３巷１６號","OBJECTID":226215},"geometry":{"x":173104.48000000231,"y":2542862.6500000004}},{"attributes":{"ID":226220,"DIS_CODE":0,"TOWNNAME":"仁德區","LI":"太子里","LIN":"29鄰","STREET":"太子四街","SECT":" ","MAREA":" ","LANE":"７３巷","ALLEY":" ","HOUSE_NO":"１８號","E_COORD97":173116.17000000001,"N_COORD97":2542867.3999999999,"ADDRESS":"太子四街７３巷１８號","OBJECTID":226216},"geometry":{"x":173116.16999999899,"y":2542867.4000000022}},{"attributes":{"ID":226221,"DIS_CODE":0,"TOWNNAME":"仁德區","LI":"太子里","LIN":"29鄰","STREET":"太子四街","SECT":" ","MAREA":" ","LANE":"７３巷","ALLEY":" ","HOUSE_NO":"１號","E_COORD97":173040.14999999999,"N_COORD97":2542846.7599999998,"ADDRESS":"太子四街７３巷１號","OBJECTID":226217},"geometry":{"x":173040.15000000037,"y":2542846.7600000016}},{"attributes":{"ID":226222,"DIS_CODE":0,"TOWNNAME":"仁德區","LI":"太子里","LIN":"29鄰","STREET":"太子四街","SECT":" ","MAREA":" ","LANE":"７３巷","ALLEY":" ","HOUSE_NO":"２號","E_COORD97":173044.19,"N_COORD97":2542838.8199999998,"ADDRESS":"太子四街７３巷２號","OBJECTID":226218},"geometry":{"x":173044.19000000134,"y":2542838.8200000003}},{"attributes":{"ID":226223,"DIS_CODE":0,"TOWNNAME":"仁德區","LI":"太子里","LIN":"22鄰","STREET":"長興四街","SECT":" ","MAREA":" ","LANE":"９０巷","ALLEY":" ","HOUSE_NO":"１０號","E_COORD97":173851.44,"N_COORD97":2543615.7599999998,"ADDRESS":"長興四街９０巷１０號","OBJECTID":226219},"geometry":{"x":173851.44000000134,"y":2543615.7600000016}},{"attributes":{"ID":226224,"DIS_CODE":0,"TOWNNAME":"東區","LI":"新東里","LIN":"22鄰","STREET":"裕農路","SECT":" ","MAREA":" ","LANE":"４３巷","ALLEY":" ","HOUSE_NO":"７號","E_COORD97":170646.04999999999,"N_COORD97":2542928.2599999998,"ADDRESS":"裕農路４３巷７號","OBJECTID":226220},"geometry":{"x":170646.05000000075,"y":2542928.2600000016}},{"attributes":{"ID":226225,"DIS_CODE":0,"TOWNNAME":"永康區","LI":"埔園里","LIN":"39鄰","STREET":"聖龍街","SECT":" ","MAREA":" ","LANE":"１７９巷","ALLEY":" ","HOUSE_NO":"３號","E_COORD97":174303.10000000001,"N_COORD97":2547879.8500000001,"ADDRESS":"聖龍街１７９巷３號","OBJECTID":226221},"geometry":{"x":174303.10000000149,"y":2547879.8500000034}},{"attributes":{"ID":226226,"DIS_CODE":0,"TOWNNAME":"永康區","LI":"勝利里","LIN":"33鄰","STREET":"中華路","SECT":" ","MAREA":" ","LANE":"７巷","ALLEY":" ","HOUSE_NO":"２８號","E_COORD97":171471.35000000001,"N_COORD97":2544395.7400000002,"ADDRESS":"中華路７巷２８號","OBJECTID":226222},"geometry":{"x":171471.34999999963,"y":2544395.7400000039}},{"attributes":{"ID":226227,"DIS_CODE":0,"TOWNNAME":"東區","LI":"新東里","LIN":"22鄰","STREET":"裕農路","SECT":" ","MAREA":" ","LANE":"４３巷","ALLEY":" ","HOUSE_NO":"１０號","E_COORD97":170658.63,"N_COORD97":2542958.1400000001,"ADDRESS":"裕農路４３巷１０號","OBJECTID":226223},"geometry":{"x":170658.63000000082,"y":2542958.1400000006}},{"attributes":{"ID":226228,"DIS_CODE":0,"TOWNNAME":"東區","LI":"新東里","LIN":"22鄰","STREET":"裕農路","SECT":" ","MAREA":" ","LANE":"４３巷","ALLEY":" ","HOUSE_NO":"１號","E_COORD97":170636.29000000001,"N_COORD97":2542923.79,"ADDRESS":"裕農路４３巷１號","OBJECTID":226224},"geometry":{"x":170636.29000000097,"y":2542923.790000001}},{"attributes":{"ID":226229,"DIS_CODE":0,"TOWNNAME":"東區","LI":"新東里","LIN":"22鄰","STREET":"裕農路","SECT":" ","MAREA":" ","LANE":"４３巷","ALLEY":" ","HOUSE_NO":"２６號","E_COORD97":170648.44,"N_COORD97":2542991.6200000001,"ADDRESS":"裕農路４３巷２６號","OBJECTID":226225},"geometry":{"x":170648.44000000227,"y":2542991.6200000029}},{"attributes":{"ID":226230,"DIS_CODE":0,"TOWNNAME":"東區","LI":"東明里","LIN":"22鄰","STREET":"東安路","SECT":" ","MAREA":" ","LANE":"４８巷","ALLEY":" ","HOUSE_NO":"３０號","E_COORD97":170784.48999999999,"N_COORD97":2543583.5299999998,"ADDRESS":"東安路４８巷３０號","OBJECTID":226226},"geometry":{"x":170784.49000000022,"y":2543583.5300000012}},{"attributes":{"ID":226231,"DIS_CODE":0,"TOWNNAME":"北區","LI":"成德里","LIN":"34鄰","STREET":"文成路","SECT":" ","MAREA":" ","LANE":" ","ALLEY":" ","HOUSE_NO":"３６７號","E_COORD97":168095.14000000001,"N_COORD97":2545901.27,"ADDRESS":"文成路３６７號","OBJECTID":226227},"geometry":{"x":168095.14000000153,"y":2545901.2700000014}},{"attributes":{"ID":226232,"DIS_CODE":0,"TOWNNAME":"北區","LI":"成德里","LIN":"34鄰","STREET":"文成路","SECT":" ","MAREA":" ","LANE":" ","ALLEY":" ","HOUSE_NO":"３６５號","E_COORD97":168101.32999999999,"N_COORD97":2545901.75,"ADDRESS":"文成路３６５號","OBJECTID":226228},"geometry":{"x":168101.33000000101,"y":2545901.7500000019}},{"attributes":{"ID":226233,"DIS_CODE":0,"TOWNNAME":"北區","LI":"成德里","LIN":"34鄰","STREET":"文成路","SECT":" ","MAREA":" ","LANE":" ","ALLEY":" ","HOUSE_NO":"３６３號","E_COORD97":168107.51999999999,"N_COORD97":2545902.3799999999,"ADDRESS":"文成路３６３號","OBJECTID":226229},"geometry":{"x":168107.51999999862,"y":2545902.3800000027}},{"attributes":{"ID":226234,"DIS_CODE":0,"TOWNNAME":"北區","LI":"成德里","LIN":"34鄰","STREET":"文成路","SECT":" ","MAREA":" ","LANE":" ","ALLEY":" ","HOUSE_NO":"３６１號","E_COORD97":168113.39000000001,"N_COORD97":2545902.54,"ADDRESS":"文成路３６１號","OBJECTID":226230},"geometry":{"x":168113.38999999966,"y":2545902.540000001}},{"attributes":{"ID":226235,"DIS_CODE":0,"TOWNNAME":"北區","LI":"成德里","LIN":"34鄰","STREET":"文成路","SECT":" ","MAREA":" ","LANE":" ","ALLEY":" ","HOUSE_NO":"３５９號","E_COORD97":168118.95000000001,"N_COORD97":2545902.7000000002,"ADDRESS":"文成路３５９號","OBJECTID":226231},"geometry":{"x":168118.95000000205,"y":2545902.6999999993}},{"attributes":{"ID":226236,"DIS_CODE":0,"TOWNNAME":"北區","LI":"成德里","LIN":"34鄰","STREET":"文成路","SECT":" ","MAREA":" ","LANE":" ","ALLEY":" ","HOUSE_NO":"３５５號","E_COORD97":168131.17000000001,"N_COORD97":2545903.4900000002,"ADDRESS":"文成路３５５號","OBJECTID":226232},"geometry":{"x":168131.17000000086,"y":2545903.4900000021}},{"attributes":{"ID":226237,"DIS_CODE":0,"TOWNNAME":"北區","LI":"成德里","LIN":"34鄰","STREET":"文成路","SECT":" ","MAREA":" ","LANE":" ","ALLEY":" ","HOUSE_NO":"３５３號","E_COORD97":168137.20999999999,"N_COORD97":2545903.8100000001,"ADDRESS":"文成路３５３號","OBJECTID":226233},"geometry":{"x":168137.21000000183,"y":2545903.8100000005}},{"attributes":{"ID":226238,"DIS_CODE":0,"TOWNNAME":"北區","LI":"成德里","LIN":"34鄰","STREET":"文成路","SECT":" ","MAREA":" ","LANE":" ","ALLEY":" ","HOUSE_NO":"３５１號","E_COORD97":168142.92000000001,"N_COORD97":2545904.29,"ADDRESS":"文成路３５１號","OBJECTID":226234},"geometry":{"x":168142.92000000086,"y":2545904.290000001}},{"attributes":{"ID":226239,"DIS_CODE":0,"TOWNNAME":"北區","LI":"成德里","LIN":"34鄰","STREET":"文成路","SECT":" ","MAREA":" ","LANE":" ","ALLEY":" ","HOUSE_NO":"３４７號","E_COORD97":168154.51000000001,"N_COORD97":2545905.2400000002,"ADDRESS":"文成路３４７號","OBJECTID":226235},"geometry":{"x":168154.51000000071,"y":2545905.2400000021}},{"attributes":{"ID":226240,"DIS_CODE":0,"TOWNNAME":"北區","LI":"成德里","LIN":"34鄰","STREET":"文成路","SECT":" ","MAREA":" ","LANE":" ","ALLEY":" ","HOUSE_NO":"３４５號","E_COORD97":168160.07000000001,"N_COORD97":2545905.7200000002,"ADDRESS":"文成路３４５號","OBJECTID":226236},"geometry":{"x":168160.0700000003,"y":2545905.7200000025}},{"attributes":{"ID":226241,"DIS_CODE":0,"TOWNNAME":"北區","LI":"成德里","LIN":"34鄰","STREET":"文成路","SECT":" ","MAREA":" ","LANE":" ","ALLEY":" ","HOUSE_NO":"３４３號","E_COORD97":168165.14999999999,"N_COORD97":2545905.7200000002,"ADDRESS":"文成路３４３號","OBJECTID":226237},"geometry":{"x":168165.15000000224,"y":2545905.7200000025}},{"attributes":{"ID":226242,"DIS_CODE":0,"TOWNNAME":"安南區","LI":"海佃里","LIN":"29鄰","STREET":"國安街","SECT":" ","MAREA":" ","LANE":"１５６巷","ALLEY":" ","HOUSE_NO":"２００號","E_COORD97":166652.07999999999,"N_COORD97":2547511.5499999998,"ADDRESS":"國安街１５６巷２００號","OBJECTID":226238},"geometry":{"x":166652.08000000101,"y":2547511.5500000026}},{"attributes":{"ID":226243,"DIS_CODE":0,"TOWNNAME":"安南區","LI":"海佃里","LIN":"29鄰","STREET":"國安街","SECT":" ","MAREA":" ","LANE":"１５６巷","ALLEY":" ","HOUSE_NO":"２０２號","E_COORD97":166649.42000000001,"N_COORD97":2547517.52,"ADDRESS":"國安街１５６巷２０２號","OBJECTID":226239},"geometry":{"x":166649.42000000086,"y":2547517.5199999996}},{"attributes":{"ID":226244,"DIS_CODE":0,"TOWNNAME":"東區","LI":"東明里","LIN":"22鄰","STREET":"東安路","SECT":" ","MAREA":" ","LANE":"４８巷","ALLEY":" ","HOUSE_NO":"３２號","E_COORD97":170788.69,"N_COORD97":2543585.8599999999,"ADDRESS":"東安路４８巷３２號","OBJECTID":226240},"geometry":{"x":170788.69000000041,"y":2543585.8599999994}},{"attributes":{"ID":226245,"DIS_CODE":0,"TOWNNAME":"東區","LI":"東明里","LIN":"22鄰","STREET":"東安路","SECT":" ","MAREA":" ","LANE":"４８巷","ALLEY":" ","HOUSE_NO":"３４號","E_COORD97":170792.66,"N_COORD97":2543582.8300000001,"ADDRESS":"東安路４８巷３４號","OBJECTID":226241},"geometry":{"x":170792.66000000108,"y":2543582.8300000019}},{"attributes":{"ID":226246,"DIS_CODE":0,"TOWNNAME":"東區","LI":"東明里","LIN":"22鄰","STREET":"東安路","SECT":" ","MAREA":" ","LANE":"４８巷","ALLEY":" ","HOUSE_NO":"３６號","E_COORD97":170797.32999999999,"N_COORD97":2543584.6899999999,"ADDRESS":"東安路４８巷３６號","OBJECTID":226242},"geometry":{"x":170797.33000000007,"y":2543584.6899999995}},{"attributes":{"ID":226247,"DIS_CODE":0,"TOWNNAME":"東區","LI":"東明里","LIN":"22鄰","STREET":"東安路","SECT":" ","MAREA":" ","LANE":"４８巷","ALLEY":" ","HOUSE_NO":"３８號","E_COORD97":170800.82000000001,"N_COORD97":2543581.8999999999,"ADDRESS":"東安路４８巷３８號","OBJECTID":226243},"geometry":{"x":170800.82000000123,"y":2543581.9000000022}},{"attributes":{"ID":226248,"DIS_CODE":0,"TOWNNAME":"東區","LI":"東明里","LIN":"22鄰","STREET":"東安路","SECT":" ","MAREA":" ","LANE":"４８巷","ALLEY":" ","HOUSE_NO":"４０號","E_COORD97":170805.48999999999,"N_COORD97":2543583.5299999998,"ADDRESS":"東安路４８巷４０號","OBJECTID":226244},"geometry":{"x":170805.49000000209,"y":2543583.5300000012}},{"attributes":{"ID":226249,"DIS_CODE":0,"TOWNNAME":"永康區","LI":"崑山里","LIN":"18鄰","STREET":"大仁街","SECT":" ","MAREA":" ","LANE":"１１巷","ALLEY":" ","HOUSE_NO":"１７號","E_COORD97":173713.51000000001,"N_COORD97":2544558.6400000001,"ADDRESS":"大仁街１１巷１７號","OBJECTID":226245},"geometry":{"x":173713.50999999978,"y":2544558.6400000006}},{"attributes":{"ID":226250,"DIS_CODE":0,"TOWNNAME":"永康區","LI":"崑山里","LIN":"14鄰","STREET":"大灣路","SECT":" ","MAREA":" ","LANE":"９７０巷","ALLEY":" ","HOUSE_NO":"８號","E_COORD97":173553.5,"N_COORD97":2544439.21,"ADDRESS":"大灣路９７０巷８號","OBJECTID":226246},"geometry":{"x":173553.50000000093,"y":2544439.2100000009}},{"attributes":{"ID":226251,"DIS_CODE":0,"TOWNNAME":"永康區","LI":"崑山里","LIN":"15鄰","STREET":"大灣路","SECT":" ","MAREA":" ","LANE":"９６０巷","ALLEY":" ","HOUSE_NO":"１９號","E_COORD97":173580.17999999999,"N_COORD97":2544483.25,"ADDRESS":"大灣路９６０巷１９號","OBJECTID":226247},"geometry":{"x":173580.1799999997,"y":2544483.25}},{"attributes":{"ID":226252,"DIS_CODE":0,"TOWNNAME":"永康區","LI":"崑山里","LIN":"20鄰","STREET":"崑山街","SECT":" ","MAREA":" ","LANE":"２１巷","ALLEY":" ","HOUSE_NO":"２７號","E_COORD97":173842.69,"N_COORD97":2544571.1699999999,"ADDRESS":"崑山街２１巷２７號","OBJECTID":226248},"geometry":{"x":173842.69000000134,"y":2544571.1699999999}},{"attributes":{"ID":226253,"DIS_CODE":0,"TOWNNAME":"永康區","LI":"崑山里","LIN":"42鄰","STREET":"大仁街","SECT":" ","MAREA":" ","LANE":"２１７巷","ALLEY":" ","HOUSE_NO":"１２號","E_COORD97":173913.31,"N_COORD97":2545117.2400000002,"ADDRESS":"大仁街２１７巷１２號","OBJECTID":226249},"geometry":{"x":173913.30999999866,"y":2545117.2400000002}},{"attributes":{"ID":226254,"DIS_CODE":0,"TOWNNAME":"永康區","LI":"崑山里","LIN":"14鄰","STREET":"大灣路","SECT":" ","MAREA":" ","LANE":"９７０巷","ALLEY":" ","HOUSE_NO":"１６號","E_COORD97":173555.41,"N_COORD97":2544453.71,"ADDRESS":"大灣路９７０巷１６號","OBJECTID":226250},"geometry":{"x":173555.41000000015,"y":2544453.7100000009}},{"attributes":{"ID":226255,"DIS_CODE":0,"TOWNNAME":"永康區","LI":"崑山里","LIN":"29鄰","STREET":"大灣路","SECT":" ","MAREA":" ","LANE":"９４２巷","ALLEY":" ","HOUSE_NO":"１２６號","E_COORD97":173744.23999999999,"N_COORD97":2544816.2400000002,"ADDRESS":"大灣路９４２巷１２６號","OBJECTID":226251},"geometry":{"x":173744.24000000022,"y":2544816.2400000039}},{"attributes":{"ID":226256,"DIS_CODE":0,"TOWNNAME":"永康區","LI":"崑山里","LIN":"29鄰","STREET":"大仁街","SECT":" ","MAREA":" ","LANE":"１０７巷","ALLEY":" ","HOUSE_NO":"９號","E_COORD97":173797.75,"N_COORD97":2544806.4300000002,"ADDRESS":"大仁街１０７巷９號","OBJECTID":226252},"geometry":{"x":173797.75000000093,"y":2544806.4299999997}},{"attributes":{"ID":226257,"DIS_CODE":0,"TOWNNAME":"永康區","LI":"崑山里","LIN":"42鄰","STREET":"大仁街","SECT":" ","MAREA":" ","LANE":"２１７巷","ALLEY":" ","HOUSE_NO":"１９號","E_COORD97":173893.54000000001,"N_COORD97":2545106,"ADDRESS":"大仁街２１７巷１９號","OBJECTID":226253},"geometry":{"x":173893.53999999911,"y":2545106.0000000037}},{"attributes":{"ID":226258,"DIS_CODE":0,"TOWNNAME":"永康區","LI":"崑山里","LIN":"40鄰","STREET":"永大路","SECT":"二段","MAREA":" ","LANE":"１１５巷","ALLEY":" ","HOUSE_NO":"１８號","E_COORD97":174170.67999999999,"N_COORD97":2544991.2599999998,"ADDRESS":"永大路二段１１５巷１８號","OBJECTID":226254},"geometry":{"x":174170.68000000063,"y":2544991.2599999998}},{"attributes":{"ID":226259,"DIS_CODE":0,"TOWNNAME":"永康區","LI":"崑山里","LIN":"26鄰","STREET":"大灣路","SECT":" ","MAREA":" ","LANE":"９４２巷","ALLEY":" ","HOUSE_NO":"１１９號","E_COORD97":173684.42000000001,"N_COORD97":2544681.6099999999,"ADDRESS":"大灣路９４２巷１１９號","OBJECTID":226255},"geometry":{"x":173684.42000000086,"y":2544681.6100000013}},{"attributes":{"ID":226260,"DIS_CODE":0,"TOWNNAME":"永康區","LI":"埔園里","LIN":"39鄰","STREET":"聖龍街","SECT":" ","MAREA":" ","LANE":"１６５巷","ALLEY":" ","HOUSE_NO":"２９號","E_COORD97":174281.70999999999,"N_COORD97":2547946.6800000002,"ADDRESS":"聖龍街１６５巷２９號","OBJECTID":226256},"geometry":{"x":174281.70999999996,"y":2547946.6800000016}},{"attributes":{"ID":226261,"DIS_CODE":0,"TOWNNAME":"永康區","LI":"崑山里","LIN":"43鄰","STREET":"大灣路","SECT":" ","MAREA":" ","LANE":"９４２巷","ALLEY":" ","HOUSE_NO":"３５９號","E_COORD97":173849.42999999999,"N_COORD97":2545157.4900000002,"ADDRESS":"大灣路９４２巷３５９號","OBJECTID":226257},"geometry":{"x":173849.4299999997,"y":2545157.4900000021}},{"attributes":{"ID":226262,"DIS_CODE":0,"TOWNNAME":"永康區","LI":"勝利里","LIN":"24鄰","STREET":"勝利街","SECT":" ","MAREA":" ","LANE":"１１６巷","ALLEY":" ","HOUSE_NO":"１３號","E_COORD97":171388.51000000001,"N_COORD97":2544871.5099999998,"ADDRESS":"勝利街１１６巷１３號","OBJECTID":226258},"geometry":{"x":171388.51000000071,"y":2544871.5100000035}},{"attributes":{"ID":226263,"DIS_CODE":0,"TOWNNAME":"永康區","LI":"勝利里","LIN":"35鄰","STREET":"勝利街","SECT":" ","MAREA":" ","LANE":"２巷","ALLEY":" ","HOUSE_NO":"１２號","E_COORD97":171116.76000000001,"N_COORD97":2544706.25,"ADDRESS":"勝利街２巷１２號","OBJECTID":226259},"geometry":{"x":171116.75999999885,"y":2544706.25}},{"attributes":{"ID":226264,"DIS_CODE":0,"TOWNNAME":"善化區","LI":"光文里","LIN":"22鄰","STREET":"光華路","SECT":" ","MAREA":" ","LANE":"１２８巷","ALLEY":" ","HOUSE_NO":"１號","E_COORD97":178646.39999999999,"N_COORD97":2559483,"ADDRESS":"光華路１２８巷１號","OBJECTID":226260},"geometry":{"x":178646.40000000037,"y":2559483}},{"attributes":{"ID":226265,"DIS_CODE":0,"TOWNNAME":"東區","LI":"泉南里","LIN":"34鄰","STREET":"林森路","SECT":"一段","MAREA":" ","LANE":" ","ALLEY":" ","HOUSE_NO":"１４９號二十一樓之６","E_COORD97":169495.73000000001,"N_COORD97":2542552.3999999999,"ADDRESS":"林森路一段１４９號二十一樓之６","OBJECTID":226261},"geometry":{"x":169495.73000000138,"y":2542552.4000000004}},{"attributes":{"ID":226266,"DIS_CODE":0,"TOWNNAME":"東區","LI":"泉南里","LIN":"34鄰","STREET":"林森路","SECT":"一段","MAREA":" ","LANE":" ","ALLEY":" ","HOUSE_NO":"１４９號二十一樓之７","E_COORD97":169495.73000000001,"N_COORD97":2542552.3999999999,"ADDRESS":"林森路一段１４９號二十一樓之７","OBJECTID":226262},"geometry":{"x":169495.73000000138,"y":2542552.4000000004}},{"attributes":{"ID":226267,"DIS_CODE":0,"TOWNNAME":"佳里區","LI":"建南里","LIN":"29鄰","STREET":"四維一街","SECT":" ","MAREA":" ","LANE":"１３３巷","ALLEY":" ","HOUSE_NO":"１０號","E_COORD97":165875.23000000001,"N_COORD97":2561090.4199999999,"ADDRESS":"四維一街１３３巷１０號","OBJECTID":226263},"geometry":{"x":165875.23000000138,"y":2561090.4199999999}},{"attributes":{"ID":226268,"DIS_CODE":0,"TOWNNAME":"佳里區","LI":"建南里","LIN":"29鄰","STREET":"四維一街","SECT":" ","MAREA":" ","LANE":"１３３巷","ALLEY":" ","HOUSE_NO":"１２號","E_COORD97":165883.14999999999,"N_COORD97":2561091.77,"ADDRESS":"四維一街１３３巷１２號","OBJECTID":226264},"geometry":{"x":165883.15000000037,"y":2561091.7699999996}},{"attributes":{"ID":226269,"DIS_CODE":0,"TOWNNAME":"佳里區","LI":"建南里","LIN":"29鄰","STREET":"四維一街","SECT":" ","MAREA":" ","LANE":"１３３巷","ALLEY":" ","HOUSE_NO":"２號","E_COORD97":165850.17000000001,"N_COORD97":2561081.2799999998,"ADDRESS":"四維一街１３３巷２號","OBJECTID":226265},"geometry":{"x":165850.16999999993,"y":2561081.2799999993}},{"attributes":{"ID":226270,"DIS_CODE":0,"TOWNNAME":"佳里區","LI":"建南里","LIN":"29鄰","STREET":"四維一街","SECT":" ","MAREA":" ","LANE":"１３３巷","ALLEY":" ","HOUSE_NO":"６號","E_COORD97":165859.41,"N_COORD97":2561087.71,"ADDRESS":"四維一街１３３巷６號","OBJECTID":226266},"geometry":{"x":165859.41000000201,"y":2561087.7100000046}},{"attributes":{"ID":226271,"DIS_CODE":0,"TOWNNAME":"佳里區","LI":"建南里","LIN":"29鄰","STREET":"四維一街","SECT":" ","MAREA":" ","LANE":"１３３巷","ALLEY":" ","HOUSE_NO":"８號","E_COORD97":165867.32000000001,"N_COORD97":2561089.0699999998,"ADDRESS":"四維一街１３３巷８號","OBJECTID":226267},"geometry":{"x":165867.32000000123,"y":2561089.0700000022}},{"attributes":{"ID":226272,"DIS_CODE":0,"TOWNNAME":"善化區","LI":"光文里","LIN":"22鄰","STREET":"光華路","SECT":" ","MAREA":" ","LANE":"５３巷","ALLEY":" ","HOUSE_NO":"２７號","E_COORD97":178555.89000000001,"N_COORD97":2559310,"ADDRESS":"光華路５３巷２７號","OBJECTID":226268},"geometry":{"x":178555.88999999966,"y":2559310}},{"attributes":{"ID":226273,"DIS_CODE":0,"TOWNNAME":"善化區","LI":"光文里","LIN":"22鄰","STREET":"光華路","SECT":" ","MAREA":" ","LANE":"３５巷","ALLEY":" ","HOUSE_NO":"８號","E_COORD97":178606.12,"N_COORD97":2559284.75,"ADDRESS":"光華路３５巷８號","OBJECTID":226269},"geometry":{"x":178606.12000000104,"y":2559284.75}},{"attributes":{"ID":226274,"DIS_CODE":0,"TOWNNAME":"東區","LI":"泉南里","LIN":"34鄰","STREET":"林森路","SECT":"一段","MAREA":" ","LANE":" ","ALLEY":" ","HOUSE_NO":"１４９號二十一樓之８","E_COORD97":169495.73000000001,"N_COORD97":2542552.3999999999,"ADDRESS":"林森路一段１４９號二十一樓之８","OBJECTID":226270},"geometry":{"x":169495.73000000138,"y":2542552.4000000004}},{"attributes":{"ID":226275,"DIS_CODE":0,"TOWNNAME":"東區","LI":"泉南里","LIN":"34鄰","STREET":"林森路","SECT":"一段","MAREA":" ","LANE":" ","ALLEY":" ","HOUSE_NO":"１４９號二十二樓","E_COORD97":169495.73000000001,"N_COORD97":2542552.3999999999,"ADDRESS":"林森路一段１４９號二十二樓","OBJECTID":226271},"geometry":{"x":169495.73000000138,"y":2542552.4000000004}},{"attributes":{"ID":226276,"DIS_CODE":0,"TOWNNAME":"東區","LI":"泉南里","LIN":"34鄰","STREET":"林森路","SECT":"一段","MAREA":" ","LANE":" ","ALLEY":" ","HOUSE_NO":"１４９號二十二樓之１","E_COORD97":169495.73000000001,"N_COORD97":2542552.3999999999,"ADDRESS":"林森路一段１４９號二十二樓之１","OBJECTID":226272},"geometry":{"x":169495.73000000138,"y":2542552.4000000004}},{"attributes":{"ID":226277,"DIS_CODE":0,"TOWNNAME":"東區","LI":"泉南里","LIN":"34鄰","STREET":"林森路","SECT":"一段","MAREA":" ","LANE":" ","ALLEY":" ","HOUSE_NO":"１４９號二十二樓之２","E_COORD97":169495.73000000001,"N_COORD97":2542552.3999999999,"ADDRESS":"林森路一段１４９號二十二樓之２","OBJECTID":226273},"geometry":{"x":169495.73000000138,"y":2542552.4000000004}},{"attributes":{"ID":226278,"DIS_CODE":0,"TOWNNAME":"永康區","LI":"建國里","LIN":"29鄰","STREET":" ","SECT":" ","MAREA":"慈光九村","LANE":" ","ALLEY":" ","HOUSE_NO":"４６號","E_COORD97":172855.85999999999,"N_COORD97":2544211.7400000002,"ADDRESS":"慈光九村４６號","OBJECTID":226274},"geometry":{"x":172855.86000000034,"y":2544211.7400000002}},{"attributes":{"ID":226279,"DIS_CODE":0,"TOWNNAME":"永康區","LI":"建國里","LIN":"29鄰","STREET":" ","SECT":" ","MAREA":"慈光九村","LANE":" ","ALLEY":" ","HOUSE_NO":"５６號","E_COORD97":172760.20000000001,"N_COORD97":2544218.7400000002,"ADDRESS":"慈光九村５６號","OBJECTID":226275},"geometry":{"x":172760.20000000019,"y":2544218.7400000002}},{"attributes":{"ID":226280,"DIS_CODE":0,"TOWNNAME":"永康區","LI":"建國里","LIN":"29鄰","STREET":" ","SECT":" ","MAREA":"慈光九村","LANE":" ","ALLEY":" ","HOUSE_NO":"５５號","E_COORD97":172770.95999999999,"N_COORD97":2544217.7400000002,"ADDRESS":"慈光九村５５號","OBJECTID":226276},"geometry":{"x":172770.96000000089,"y":2544217.7400000021}},{"attributes":{"ID":226281,"DIS_CODE":0,"TOWNNAME":"永康區","LI":"建國里","LIN":"29鄰","STREET":" ","SECT":" ","MAREA":"慈光九村","LANE":" ","ALLEY":" ","HOUSE_NO":"５１號","E_COORD97":172808.29000000001,"N_COORD97":2544214.9900000002,"ADDRESS":"慈光九村５１號","OBJECTID":226277},"geometry":{"x":172808.29000000004,"y":2544214.9900000021}},{"attributes":{"ID":226282,"DIS_CODE":0,"TOWNNAME":"永康區","LI":"建國里","LIN":"29鄰","STREET":" ","SECT":" ","MAREA":"慈光九村","LANE":" ","ALLEY":" ","HOUSE_NO":"５２號","E_COORD97":172798.56,"N_COORD97":2544215.7400000002,"ADDRESS":"慈光九村５２號","OBJECTID":226278},"geometry":{"x":172798.56000000052,"y":2544215.7400000002}},{"attributes":{"ID":226283,"DIS_CODE":0,"TOWNNAME":"永康區","LI":"建國里","LIN":"29鄰","STREET":" ","SECT":" ","MAREA":"慈光九村","LANE":" ","ALLEY":" ","HOUSE_NO":"５０號","E_COORD97":172816.85000000001,"N_COORD97":2544214.2400000002,"ADDRESS":"慈光九村５０號","OBJECTID":226279},"geometry":{"x":172816.85000000056,"y":2544214.2400000021}},{"attributes":{"ID":226284,"DIS_CODE":0,"TOWNNAME":"安南區","LI":"溪東里","LIN":"19鄰","STREET":"郡安路","SECT":"五段","MAREA":" ","LANE":"１４巷","ALLEY":" ","HOUSE_NO":"１號","E_COORD97":168355.20999999999,"N_COORD97":2547646.21,"ADDRESS":"郡安路五段１４巷１號","OBJECTID":226280},"geometry":{"x":168355.20999999996,"y":2547646.2100000028}},{"attributes":{"ID":226285,"DIS_CODE":0,"TOWNNAME":"永康區","LI":"復華里","LIN":"29鄰","STREET":"國華街","SECT":" ","MAREA":" ","LANE":"１３６巷","ALLEY":" ","HOUSE_NO":"７號","E_COORD97":172654.10999999999,"N_COORD97":2546212.5800000001,"ADDRESS":"國華街１３６巷７號","OBJECTID":226281},"geometry":{"x":172654.11000000034,"y":2546212.5800000001}},{"attributes":{"ID":226286,"DIS_CODE":0,"TOWNNAME":"善化區","LI":"光文里","LIN":"22鄰","STREET":"光華路","SECT":" ","MAREA":" ","LANE":"５３巷","ALLEY":" ","HOUSE_NO":"５５號","E_COORD97":178476.17999999999,"N_COORD97":2559295,"ADDRESS":"光華路５３巷５５號","OBJECTID":226282},"geometry":{"x":178476.18000000156,"y":2559295.0000000019}},{"attributes":{"ID":226287,"DIS_CODE":0,"TOWNNAME":"善化區","LI":"光文里","LIN":"22鄰","STREET":"光華路","SECT":" ","MAREA":" ","LANE":"５３巷","ALLEY":" ","HOUSE_NO":"１９號","E_COORD97":178572.59,"N_COORD97":2559312.5,"ADDRESS":"光華路５３巷１９號","OBJECTID":226283},"geometry":{"x":178572.59000000078,"y":2559312.5000000019}},{"attributes":{"ID":226288,"DIS_CODE":0,"TOWNNAME":"善化區","LI":"光文里","LIN":"22鄰","STREET":"光華路","SECT":" ","MAREA":" ","LANE":"９２巷","ALLEY":" ","HOUSE_NO":"５號","E_COORD97":178664.57999999999,"N_COORD97":2559409.5,"ADDRESS":"光華路９２巷５號","OBJECTID":226284},"geometry":{"x":178664.58000000007,"y":2559409.5}},{"attributes":{"ID":226289,"DIS_CODE":0,"TOWNNAME":"東區","LI":"泉南里","LIN":"34鄰","STREET":"林森路","SECT":"一段","MAREA":" ","LANE":" ","ALLEY":" ","HOUSE_NO":"１４９號二十二樓之３","E_COORD97":169495.73000000001,"N_COORD97":2542552.3999999999,"ADDRESS":"林森路一段１４９號二十二樓之３","OBJECTID":226285},"geometry":{"x":169495.73000000138,"y":2542552.4000000004}},{"attributes":{"ID":226290,"DIS_CODE":0,"TOWNNAME":"永康區","LI":"復國里","LIN":"29鄰","STREET":"復華二街","SECT":" ","MAREA":" ","LANE":" ","ALLEY":" ","HOUSE_NO":"７號","E_COORD97":172642.34,"N_COORD97":2545343.27,"ADDRESS":"復華二街７號","OBJECTID":226286},"geometry":{"x":172642.34000000078,"y":2545343.2699999996}},{"attributes":{"ID":226291,"DIS_CODE":0,"TOWNNAME":"永康區","LI":"建國里","LIN":"29鄰","STREET":" ","SECT":" ","MAREA":"慈光九村","LANE":" ","ALLEY":" ","HOUSE_NO":"４７號","E_COORD97":172846.92999999999,"N_COORD97":2544211.9900000002,"ADDRESS":"慈光九村４７號","OBJECTID":226287},"geometry":{"x":172846.93000000063,"y":2544211.9900000021}},{"attributes":{"ID":226292,"DIS_CODE":0,"TOWNNAME":"善化區","LI":"光文里","LIN":"22鄰","STREET":"光華路","SECT":" ","MAREA":" ","LANE":"１２８巷","ALLEY":" ","HOUSE_NO":"１５號","E_COORD97":178679.39999999999,"N_COORD97":2559500.5,"ADDRESS":"光華路１２８巷１５號","OBJECTID":226288},"geometry":{"x":178679.4000000013,"y":2559500.5}},{"attributes":{"ID":226293,"DIS_CODE":0,"TOWNNAME":"善化區","LI":"光文里","LIN":"22鄰","STREET":"光華路","SECT":" ","MAREA":" ","LANE":"３５巷","ALLEY":" ","HOUSE_NO":"４２號","E_COORD97":178516.95999999999,"N_COORD97":2559276.25,"ADDRESS":"光華路３５巷４２號","OBJECTID":226289},"geometry":{"x":178516.96000000183,"y":2559276.2500000019}},{"attributes":{"ID":226294,"DIS_CODE":0,"TOWNNAME":"善化區","LI":"光文里","LIN":"22鄰","STREET":"光華路","SECT":" ","MAREA":" ","LANE":"５３巷","ALLEY":" ","HOUSE_NO":"４９號","E_COORD97":178492.89999999999,"N_COORD97":2559296.5,"ADDRESS":"光華路５３巷４９號","OBJECTID":226290},"geometry":{"x":178492.9000000013,"y":2559296.5}},{"attributes":{"ID":226295,"DIS_CODE":0,"TOWNNAME":"善化區","LI":"光文里","LIN":"22鄰","STREET":"光華路","SECT":" ","MAREA":" ","LANE":"３５巷","ALLEY":" ","HOUSE_NO":"５１號","E_COORD97":178493.04000000001,"N_COORD97":2559248.25,"ADDRESS":"光華路３５巷５１號","OBJECTID":226291},"geometry":{"x":178493.04000000097,"y":2559248.25}},{"attributes":{"ID":226296,"DIS_CODE":0,"TOWNNAME":"永康區","LI":"勝利里","LIN":"18鄰","STREET":"中華一路","SECT":" ","MAREA":" ","LANE":"３２４巷","ALLEY":" ","HOUSE_NO":"２３號","E_COORD97":171219.37,"N_COORD97":2545076.6299999999,"ADDRESS":"中華一路３２４巷２３號","OBJECTID":226292},"geometry":{"x":171219.37000000011,"y":2545076.6300000027}},{"attributes":{"ID":226297,"DIS_CODE":0,"TOWNNAME":"永康區","LI":"崑山里","LIN":"25鄰","STREET":"大灣路","SECT":" ","MAREA":" ","LANE":"９４２巷","ALLEY":" ","HOUSE_NO":"８６號","E_COORD97":173709.39999999999,"N_COORD97":2544705.29,"ADDRESS":"大灣路９４２巷８６號","OBJECTID":226293},"geometry":{"x":173709.40000000037,"y":2544705.2899999991}},{"attributes":{"ID":226298,"DIS_CODE":0,"TOWNNAME":"永康區","LI":"崑山里","LIN":"43鄰","STREET":"大灣路","SECT":" ","MAREA":" ","LANE":"９４２巷","ALLEY":" ","HOUSE_NO":"３２７號","E_COORD97":173826.35000000001,"N_COORD97":2545095.25,"ADDRESS":"大灣路９４２巷３２７號","OBJECTID":226294},"geometry":{"x":173826.34999999963,"y":2545095.2500000019}},{"attributes":{"ID":226299,"DIS_CODE":0,"TOWNNAME":"善化區","LI":"光文里","LIN":"22鄰","STREET":"光華路","SECT":" ","MAREA":" ","LANE":"３５巷","ALLEY":" ","HOUSE_NO":"１９之２號","E_COORD97":178563.67999999999,"N_COORD97":2559258.27,"ADDRESS":"光華路３５巷１９之２號","OBJECTID":226295},"geometry":{"x":178563.6799999997,"y":2559258.2700000033}},{"attributes":{"ID":226300,"DIS_CODE":0,"TOWNNAME":"善化區","LI":"光文里","LIN":"22鄰","STREET":"光華路","SECT":" ","MAREA":" ","LANE":"３５巷","ALLEY":" ","HOUSE_NO":"６６號","E_COORD97":178470.39999999999,"N_COORD97":2559264.5,"ADDRESS":"光華路３５巷６６號","OBJECTID":226296},"geometry":{"x":178470.40000000224,"y":2559264.5000000019}},{"attributes":{"ID":226301,"DIS_CODE":0,"TOWNNAME":"善化區","LI":"光文里","LIN":"22鄰","STREET":"光華路","SECT":" ","MAREA":" ","LANE":"３５巷","ALLEY":" ","HOUSE_NO":"２號","E_COORD97":178614.48999999999,"N_COORD97":2559286.25,"ADDRESS":"光華路３５巷２號","OBJECTID":226297},"geometry":{"x":178614.49000000022,"y":2559286.2500000037}},{"attributes":{"ID":226302,"DIS_CODE":0,"TOWNNAME":"永康區","LI":"復國里","LIN":"22鄰","STREET":"復華六街","SECT":" ","MAREA":" ","LANE":"９３巷","ALLEY":" ","HOUSE_NO":"２２號","E_COORD97":172611.57000000001,"N_COORD97":2545778.7799999998,"ADDRESS":"復華六街９３巷２２號","OBJECTID":226298},"geometry":{"x":172611.5700000003,"y":2545778.7800000012}},{"attributes":{"ID":226303,"DIS_CODE":0,"TOWNNAME":"永康區","LI":"復國里","LIN":"22鄰","STREET":"復華六街","SECT":" ","MAREA":" ","LANE":"９３巷","ALLEY":" ","HOUSE_NO":"２號","E_COORD97":172609.07999999999,"N_COORD97":2545825.0299999998,"ADDRESS":"復華六街９３巷２號","OBJECTID":226299},"geometry":{"x":172609.08000000101,"y":2545825.0300000012}},{"attributes":{"ID":226304,"DIS_CODE":0,"TOWNNAME":"永康區","LI":"復國里","LIN":"22鄰","STREET":"復華六街","SECT":" ","MAREA":" ","LANE":"９３巷","ALLEY":" ","HOUSE_NO":"３號","E_COORD97":172629.19,"N_COORD97":2545816.4900000002,"ADDRESS":"復華六街９３巷３號","OBJECTID":226300},"geometry":{"x":172629.19000000134,"y":2545816.4900000002}},{"attributes":{"ID":226305,"DIS_CODE":0,"TOWNNAME":"永康區","LI":"復國里","LIN":"22鄰","STREET":"復華六街","SECT":" ","MAREA":" ","LANE":"９３巷","ALLEY":" ","HOUSE_NO":"５號","E_COORD97":172629,"N_COORD97":2545812.4900000002,"ADDRESS":"復華六街９３巷５號","OBJECTID":226301},"geometry":{"x":172629,"y":2545812.4900000021}},{"attributes":{"ID":226306,"DIS_CODE":0,"TOWNNAME":"永康區","LI":"網寮里","LIN":"22鄰","STREET":"永春街","SECT":" ","MAREA":" ","LANE":"１３巷","ALLEY":" ","HOUSE_NO":"１３號","E_COORD97":173740.47,"N_COORD97":2546220.1299999999,"ADDRESS":"永春街１３巷１３號","OBJECTID":226302},"geometry":{"x":173740.46999999974,"y":2546220.1300000008}},{"attributes":{"ID":226307,"DIS_CODE":0,"TOWNNAME":"永康區","LI":"復國里","LIN":"22鄰","STREET":"復華六街","SECT":" ","MAREA":" ","LANE":"９３巷","ALLEY":" ","HOUSE_NO":"１８號","E_COORD97":172606.94,"N_COORD97":2545793.4199999999,"ADDRESS":"復華六街９３巷１８號","OBJECTID":226303},"geometry":{"x":172606.94000000134,"y":2545793.4199999999}},{"attributes":{"ID":226308,"DIS_CODE":0,"TOWNNAME":"永康區","LI":"復國里","LIN":"22鄰","STREET":"復華六街","SECT":" ","MAREA":" ","LANE":"９３巷","ALLEY":" ","HOUSE_NO":"８號","E_COORD97":172607.17999999999,"N_COORD97":2545814.6699999999,"ADDRESS":"復華六街９３巷８號","OBJECTID":226304},"geometry":{"x":172607.1799999997,"y":2545814.6700000018}},{"attributes":{"ID":226309,"DIS_CODE":0,"TOWNNAME":"安南區","LI":"海佃里","LIN":"29鄰","STREET":"郡安路","SECT":"六段","MAREA":" ","LANE":"５５巷","ALLEY":" ","HOUSE_NO":"５２號","E_COORD97":166686.10000000001,"N_COORD97":2547537.5299999998,"ADDRESS":"郡安路六段５５巷５２號","OBJECTID":226305},"geometry":{"x":166686.09999999963,"y":2547537.5299999993}},{"attributes":{"ID":226310,"DIS_CODE":0,"TOWNNAME":"安南區","LI":"海佃里","LIN":"29鄰","STREET":"郡安路","SECT":"六段","MAREA":" ","LANE":"５５巷","ALLEY":" ","HOUSE_NO":"５６號","E_COORD97":166690.44,"N_COORD97":2547538.6200000001,"ADDRESS":"郡安路六段５５巷５６號","OBJECTID":226306},"geometry":{"x":166690.44000000134,"y":2547538.6200000029}},{"attributes":{"ID":226311,"DIS_CODE":0,"TOWNNAME":"安南區","LI":"海佃里","LIN":"29鄰","STREET":"郡安路","SECT":"六段","MAREA":" ","LANE":"５５巷","ALLEY":" ","HOUSE_NO":"５８號","E_COORD97":166696.42000000001,"N_COORD97":2547539.1600000001,"ADDRESS":"郡安路六段５５巷５８號","OBJECTID":226307},"geometry":{"x":166696.41999999993,"y":2547539.1600000039}},{"attributes":{"ID":226312,"DIS_CODE":0,"TOWNNAME":"永康區","LI":"網寮里","LIN":"22鄰","STREET":"永春街","SECT":" ","MAREA":" ","LANE":"１３巷","ALLEY":" ","HOUSE_NO":"９號","E_COORD97":173760.87,"N_COORD97":2546224.9300000002,"ADDRESS":"永春街１３巷９號","OBJECTID":226308},"geometry":{"x":173760.86999999918,"y":2546224.9300000034}},{"attributes":{"ID":226313,"DIS_CODE":0,"TOWNNAME":"永康區","LI":"網寮里","LIN":"22鄰","STREET":"永春街","SECT":" ","MAREA":" ","LANE":"１３巷","ALLEY":" ","HOUSE_NO":"３０號","E_COORD97":173695.70999999999,"N_COORD97":2546226.6200000001,"ADDRESS":"永春街１３巷３０號","OBJECTID":226309},"geometry":{"x":173695.71000000183,"y":2546226.620000001}},{"attributes":{"ID":226314,"DIS_CODE":0,"TOWNNAME":"永康區","LI":"復國里","LIN":"22鄰","STREET":"復華六街","SECT":" ","MAREA":" ","LANE":"９３巷","ALLEY":" ","HOUSE_NO":"２４號","E_COORD97":172609.20999999999,"N_COORD97":2545775.0299999998,"ADDRESS":"復華六街９３巷２４號","OBJECTID":226310},"geometry":{"x":172609.21000000183,"y":2545775.0299999993}},{"attributes":{"ID":226315,"DIS_CODE":0,"TOWNNAME":"永康區","LI":"崑山里","LIN":"14鄰","STREET":"大灣路","SECT":" ","MAREA":" ","LANE":"９７０巷","ALLEY":" ","HOUSE_NO":"３６號","E_COORD97":173557.20000000001,"N_COORD97":2544489.9500000002,"ADDRESS":"大灣路９７０巷３６號","OBJECTID":226311},"geometry":{"x":173557.20000000205,"y":2544489.9500000011}},{"attributes":{"ID":226316,"DIS_CODE":0,"TOWNNAME":"永康區","LI":"崑山里","LIN":"21鄰","STREET":"大仁街","SECT":" ","MAREA":" ","LANE":"３１巷","ALLEY":" ","HOUSE_NO":"１７號","E_COORD97":173752.32000000001,"N_COORD97":2544603.8500000001,"ADDRESS":"大仁街３１巷１７號","OBJECTID":226312},"geometry":{"x":173752.3200000003,"y":2544603.8499999996}},{"attributes":{"ID":226317,"DIS_CODE":0,"TOWNNAME":"永康區","LI":"網寮里","LIN":"22鄰","STREET":"永春街","SECT":" ","MAREA":" ","LANE":"１３巷","ALLEY":" ","HOUSE_NO":"２７號","E_COORD97":173712.53,"N_COORD97":2546212.1299999999,"ADDRESS":"永春街１３巷２７號","OBJECTID":226313},"geometry":{"x":173712.53000000212,"y":2546212.129999999}},{"attributes":{"ID":226318,"DIS_CODE":0,"TOWNNAME":"永康區","LI":"網寮里","LIN":"22鄰","STREET":"永春街","SECT":" ","MAREA":" ","LANE":"１３巷","ALLEY":" ","HOUSE_NO":"５號","E_COORD97":173769.75,"N_COORD97":2546226.9300000002,"ADDRESS":"永春街１３巷５號","OBJECTID":226314},"geometry":{"x":173769.75,"y":2546226.9299999997}},{"attributes":{"ID":226319,"DIS_CODE":0,"TOWNNAME":"永康區","LI":"網寮里","LIN":"22鄰","STREET":"永春街","SECT":" ","MAREA":" ","LANE":"１３巷","ALLEY":" ","HOUSE_NO":"１號","E_COORD97":173778.79999999999,"N_COORD97":2546229.1800000002,"ADDRESS":"永春街１３巷１號","OBJECTID":226315},"geometry":{"x":173778.80000000075,"y":2546229.1799999997}},{"attributes":{"ID":226320,"DIS_CODE":0,"TOWNNAME":"永康區","LI":"復國里","LIN":"22鄰","STREET":"復華六街","SECT":" ","MAREA":" ","LANE":"９３巷","ALLEY":" ","HOUSE_NO":"３２號","E_COORD97":172609.32000000001,"N_COORD97":2545749.2799999998,"ADDRESS":"復華六街９３巷３２號","OBJECTID":226316},"geometry":{"x":172609.32000000123,"y":2545749.2799999993}},{"attributes":{"ID":226321,"DIS_CODE":0,"TOWNNAME":"永康區","LI":"網寮里","LIN":"22鄰","STREET":"永春街","SECT":" ","MAREA":" ","LANE":"１３巷","ALLEY":" ","HOUSE_NO":"３３號","E_COORD97":173693.13,"N_COORD97":2546210.6899999999,"ADDRESS":"永春街１３巷３３號","OBJECTID":226317},"geometry":{"x":173693.13000000082,"y":2546210.6900000013}},{"attributes":{"ID":226322,"DIS_CODE":0,"TOWNNAME":"永康區","LI":"網寮里","LIN":"22鄰","STREET":"永春街","SECT":" ","MAREA":" ","LANE":"１３巷","ALLEY":" ","HOUSE_NO":"７號","E_COORD97":173765.31,"N_COORD97":2546225.9300000002,"ADDRESS":"永春街１３巷７號","OBJECTID":226318},"geometry":{"x":173765.30999999959,"y":2546225.9300000016}},{"attributes":{"ID":226323,"DIS_CODE":0,"TOWNNAME":"永康區","LI":"網寮里","LIN":"22鄰","STREET":"永春街","SECT":" ","MAREA":" ","LANE":"１３巷","ALLEY":" ","HOUSE_NO":"８號","E_COORD97":173733.91,"N_COORD97":2546239,"ADDRESS":"永春街１３巷８號","OBJECTID":226319},"geometry":{"x":173733.91000000108,"y":2546239.0000000019}},{"attributes":{"ID":226324,"DIS_CODE":0,"TOWNNAME":"永康區","LI":"網寮里","LIN":"22鄰","STREET":"永春街","SECT":" ","MAREA":" ","LANE":"１３巷","ALLEY":" ","HOUSE_NO":"３５號","E_COORD97":173696.17999999999,"N_COORD97":2546199.1899999999,"ADDRESS":"永春街１３巷３５號","OBJECTID":226320},"geometry":{"x":173696.18000000063,"y":2546199.1900000032}},{"attributes":{"ID":226325,"DIS_CODE":0,"TOWNNAME":"東區","LI":"泉南里","LIN":"34鄰","STREET":"林森路","SECT":"一段","MAREA":" ","LANE":" ","ALLEY":" ","HOUSE_NO":"１４９號二十二樓之４","E_COORD97":169495.73000000001,"N_COORD97":2542552.3999999999,"ADDRESS":"林森路一段１４９號二十二樓之４","OBJECTID":226321},"geometry":{"x":169495.73000000138,"y":2542552.4000000004}},{"attributes":{"ID":226326,"DIS_CODE":0,"TOWNNAME":"永康區","LI":"中興里","LIN":"22鄰","STREET":"中華路","SECT":" ","MAREA":" ","LANE":"２１２巷","ALLEY":" ","HOUSE_NO":"１３號","E_COORD97":171741.39999999999,"N_COORD97":2545018.79,"ADDRESS":"中華路２１２巷１３號","OBJECTID":226322},"geometry":{"x":171741.40000000037,"y":2545018.790000001}},{"attributes":{"ID":226327,"DIS_CODE":0,"TOWNNAME":"東區","LI":"泉南里","LIN":"34鄰","STREET":"林森路","SECT":"一段","MAREA":" ","LANE":" ","ALLEY":" ","HOUSE_NO":"１４９號二十二樓之５","E_COORD97":169495.73000000001,"N_COORD97":2542552.3999999999,"ADDRESS":"林森路一段１４９號二十二樓之５","OBJECTID":226323},"geometry":{"x":169495.73000000138,"y":2542552.4000000004}},{"attributes":{"ID":226328,"DIS_CODE":0,"TOWNNAME":"東區","LI":"泉南里","LIN":"34鄰","STREET":"林森路","SECT":"一段","MAREA":" ","LANE":" ","ALLEY":" ","HOUSE_NO":"１４９號二十二樓之６","E_COORD97":169495.73000000001,"N_COORD97":2542552.3999999999,"ADDRESS":"林森路一段１４９號二十二樓之６","OBJECTID":226324},"geometry":{"x":169495.73000000138,"y":2542552.4000000004}},{"attributes":{"ID":226329,"DIS_CODE":0,"TOWNNAME":"新市區","LI":"新市里","LIN":"29鄰","STREET":"復興路","SECT":" ","MAREA":" ","LANE":"６２巷","ALLEY":" ","HOUSE_NO":"２６號","E_COORD97":177906.79000000001,"N_COORD97":2553474.0299999998,"ADDRESS":"復興路６２巷２６號","OBJECTID":226325},"geometry":{"x":177906.79000000097,"y":2553474.0299999993}},{"attributes":{"ID":226330,"DIS_CODE":0,"TOWNNAME":"官田區","LI":"渡頭里","LIN":"29鄰","STREET":" ","SECT":" ","MAREA":"三塊厝","LANE":" ","ALLEY":" ","HOUSE_NO":"１４４號之１","E_COORD97":182736.25,"N_COORD97":2561982.4500000002,"ADDRESS":"三塊厝１４４號之１","OBJECTID":226326},"geometry":{"x":182736.25000000093,"y":2561982.4499999974}},{"attributes":{"ID":226331,"DIS_CODE":0,"TOWNNAME":"官田區","LI":"渡頭里","LIN":"29鄰","STREET":" ","SECT":" ","MAREA":"三塊厝","LANE":" ","ALLEY":" ","HOUSE_NO":"１４４號","E_COORD97":182701.48000000001,"N_COORD97":2561955.5499999998,"ADDRESS":"三塊厝１４４號","OBJECTID":226327},"geometry":{"x":182701.48000000138,"y":2561955.5500000007}},{"attributes":{"ID":226332,"DIS_CODE":0,"TOWNNAME":"新市區","LI":"新市里","LIN":"29鄰","STREET":"復興路","SECT":" ","MAREA":" ","LANE":"６２巷","ALLEY":" ","HOUSE_NO":"３６號","E_COORD97":177928.84,"N_COORD97":2553474.7799999998,"ADDRESS":"復興路６２巷３６號","OBJECTID":226328},"geometry":{"x":177928.83999999985,"y":2553474.7800000012}},{"attributes":{"ID":226333,"DIS_CODE":0,"TOWNNAME":"官田區","LI":"渡頭里","LIN":"29鄰","STREET":" ","SECT":" ","MAREA":"三塊厝","LANE":" ","ALLEY":" ","HOUSE_NO":"１４７號","E_COORD97":182766.63,"N_COORD97":2562010.3900000001,"ADDRESS":"三塊厝１４７號","OBJECTID":226329},"geometry":{"x":182766.62999999989,"y":2562010.3900000006}},{"attributes":{"ID":226334,"DIS_CODE":0,"TOWNNAME":"官田區","LI":"渡頭里","LIN":"29鄰","STREET":" ","SECT":" ","MAREA":"三塊厝","LANE":" ","ALLEY":" ","HOUSE_NO":"１４８號","E_COORD97":182766.76999999999,"N_COORD97":2562006.96,"ADDRESS":"三塊厝１４８號","OBJECTID":226330},"geometry":{"x":182766.76999999955,"y":2562006.9600000009}},{"attributes":{"ID":226335,"DIS_CODE":0,"TOWNNAME":"官田區","LI":"渡頭里","LIN":"29鄰","STREET":" ","SECT":" ","MAREA":"三塊厝","LANE":" ","ALLEY":" ","HOUSE_NO":"１４９號","E_COORD97":182767.79999999999,"N_COORD97":2562003.2599999998,"ADDRESS":"三塊厝１４９號","OBJECTID":226331},"geometry":{"x":182767.80000000075,"y":2562003.2599999998}},{"attributes":{"ID":226336,"DIS_CODE":0,"TOWNNAME":"官田區","LI":"渡頭里","LIN":"29鄰","STREET":" ","SECT":" ","MAREA":"三塊厝","LANE":" ","ALLEY":" ","HOUSE_NO":"１５０號","E_COORD97":182768.07000000001,"N_COORD97":2561999.04,"ADDRESS":"三塊厝１５０號","OBJECTID":226332},"geometry":{"x":182768.07000000216,"y":2561999.0400000028}},{"attributes":{"ID":226337,"DIS_CODE":0,"TOWNNAME":"官田區","LI":"渡頭里","LIN":"29鄰","STREET":" ","SECT":" ","MAREA":"三塊厝","LANE":" ","ALLEY":" ","HOUSE_NO":"１５１號","E_COORD97":182768.89000000001,"N_COORD97":2561994.5600000001,"ADDRESS":"三塊厝１５１號","OBJECTID":226333},"geometry":{"x":182768.8900000006,"y":2561994.5600000024}},{"attributes":{"ID":226338,"DIS_CODE":0,"TOWNNAME":"永康區","LI":"網寮里","LIN":"22鄰","STREET":"永春街","SECT":" ","MAREA":" ","LANE":"１３巷","ALLEY":" ","HOUSE_NO":"１０號","E_COORD97":173730.03,"N_COORD97":2546237.75,"ADDRESS":"永春街１３巷１０號","OBJECTID":226334},"geometry":{"x":173730.03000000119,"y":2546237.7500000019}},{"attributes":{"ID":226339,"DIS_CODE":0,"TOWNNAME":"東區","LI":"泉南里","LIN":"34鄰","STREET":"林森路","SECT":"一段","MAREA":" ","LANE":" ","ALLEY":" ","HOUSE_NO":"１４９號二十二樓之７","E_COORD97":169495.73000000001,"N_COORD97":2542552.3999999999,"ADDRESS":"林森路一段１４９號二十二樓之７","OBJECTID":226335},"geometry":{"x":169495.73000000138,"y":2542552.4000000004}},{"attributes":{"ID":226340,"DIS_CODE":0,"TOWNNAME":"東區","LI":"泉南里","LIN":"34鄰","STREET":"林森路","SECT":"一段","MAREA":" ","LANE":" ","ALLEY":" ","HOUSE_NO":"１４９號二十二樓之８","E_COORD97":169495.73000000001,"N_COORD97":2542552.3999999999,"ADDRESS":"林森路一段１４９號二十二樓之８","OBJECTID":226336},"geometry":{"x":169495.73000000138,"y":2542552.4000000004}},{"attributes":{"ID":226341,"DIS_CODE":0,"TOWNNAME":"官田區","LI":"渡頭里","LIN":"29鄰","STREET":" ","SECT":" ","MAREA":"三塊厝","LANE":" ","ALLEY":" ","HOUSE_NO":"１７７號之１４","E_COORD97":182854.32000000001,"N_COORD97":2561598.9700000002,"ADDRESS":"三塊厝１７７號之１４","OBJECTID":226337},"geometry":{"x":182854.3200000003,"y":2561598.9700000025}},{"attributes":{"ID":226342,"DIS_CODE":0,"TOWNNAME":"官田區","LI":"渡頭里","LIN":"29鄰","STREET":" ","SECT":" ","MAREA":"三塊厝","LANE":" ","ALLEY":" ","HOUSE_NO":"１７７號之１５","E_COORD97":182875.17999999999,"N_COORD97":2561584.0899999999,"ADDRESS":"三塊厝１７７號之１５","OBJECTID":226338},"geometry":{"x":182875.18000000156,"y":2561584.0899999999}},{"attributes":{"ID":226343,"DIS_CODE":0,"TOWNNAME":"官田區","LI":"渡頭里","LIN":"29鄰","STREET":" ","SECT":" ","MAREA":"三塊厝","LANE":" ","ALLEY":" ","HOUSE_NO":"１７８號之１","E_COORD97":183077.92436800001,"N_COORD97":2561466.48704,"ADDRESS":"三塊厝１７８號之１","OBJECTID":226339},"geometry":{"x":183077.92436800059,"y":2561466.4870410021}},{"attributes":{"ID":226344,"DIS_CODE":0,"TOWNNAME":"永康區","LI":"建國里","LIN":"29鄰","STREET":" ","SECT":" ","MAREA":"慈光九村","LANE":" ","ALLEY":" ","HOUSE_NO":"５４號","E_COORD97":172779.26000000001,"N_COORD97":2544217.2400000002,"ADDRESS":"慈光九村５４號","OBJECTID":226340},"geometry":{"x":172779.25999999978,"y":2544217.2400000021}},{"attributes":{"ID":226345,"DIS_CODE":0,"TOWNNAME":"永康區","LI":"建國里","LIN":"29鄰","STREET":" ","SECT":" ","MAREA":"慈光九村","LANE":" ","ALLEY":" ","HOUSE_NO":"４８號","E_COORD97":172835.42000000001,"N_COORD97":2544212.9900000002,"ADDRESS":"慈光九村４８號","OBJECTID":226341},"geometry":{"x":172835.42000000086,"y":2544212.9900000002}},{"attributes":{"ID":226346,"DIS_CODE":0,"TOWNNAME":"永康區","LI":"建國里","LIN":"29鄰","STREET":" ","SECT":" ","MAREA":"慈光九村","LANE":" ","ALLEY":" ","HOUSE_NO":"５３號","E_COORD97":172789.75,"N_COORD97":2544216.4900000002,"ADDRESS":"慈光九村５３號","OBJECTID":226342},"geometry":{"x":172789.75,"y":2544216.4900000002}},{"attributes":{"ID":226347,"DIS_CODE":0,"TOWNNAME":"永康區","LI":"西灣里","LIN":"29鄰","STREET":"公園路","SECT":" ","MAREA":" ","LANE":"６３巷","ALLEY":" ","HOUSE_NO":"７８號","E_COORD97":174345.92999999999,"N_COORD97":2545790,"ADDRESS":"公園路６３巷７８號","OBJECTID":226343},"geometry":{"x":174345.9299999997,"y":2545790}},{"attributes":{"ID":226348,"DIS_CODE":0,"TOWNNAME":"永康區","LI":"尚頂里","LIN":"29鄰","STREET":"南台街","SECT":" ","MAREA":" ","LANE":"７５巷","ALLEY":" ","HOUSE_NO":"９號","E_COORD97":170235.57999999999,"N_COORD97":2546943.75,"ADDRESS":"南台街７５巷９號","OBJECTID":226344},"geometry":{"x":170235.58000000101,"y":2546943.75}},{"attributes":{"ID":226349,"DIS_CODE":0,"TOWNNAME":"永康區","LI":"尚頂里","LIN":"29鄰","STREET":"南台街","SECT":" ","MAREA":" ","LANE":"８９巷","ALLEY":" ","HOUSE_NO":"１５號","E_COORD97":170208.53,"N_COORD97":2546941,"ADDRESS":"南台街８９巷１５號","OBJECTID":226345},"geometry":{"x":170208.52999999933,"y":2546941.0000000019}},{"attributes":{"ID":226350,"DIS_CODE":0,"TOWNNAME":"永康區","LI":"西灣里","LIN":"29鄰","STREET":"公園路","SECT":" ","MAREA":" ","LANE":"６３巷","ALLEY":" ","HOUSE_NO":"４６號","E_COORD97":174355.03,"N_COORD97":2545863.75,"ADDRESS":"公園路６３巷４６號","OBJECTID":226346},"geometry":{"x":174355.03000000212,"y":2545863.7500000037}},{"attributes":{"ID":226351,"DIS_CODE":0,"TOWNNAME":"永康區","LI":"尚頂里","LIN":"29鄰","STREET":"南台街","SECT":" ","MAREA":" ","LANE":"８９巷","ALLEY":" ","HOUSE_NO":"２４號","E_COORD97":170185.26999999999,"N_COORD97":2546956.25,"ADDRESS":"南台街８９巷２４號","OBJECTID":226347},"geometry":{"x":170185.26999999955,"y":2546956.2500000019}},{"attributes":{"ID":226352,"DIS_CODE":0,"TOWNNAME":"永康區","LI":"尚頂里","LIN":"29鄰","STREET":"南台街","SECT":" ","MAREA":" ","LANE":"７５巷","ALLEY":" ","HOUSE_NO":"１３號","E_COORD97":170237.85000000001,"N_COORD97":2546923,"ADDRESS":"南台街７５巷１３號","OBJECTID":226348},"geometry":{"x":170237.8499999987,"y":2546923.0000000037}},{"attributes":{"ID":226353,"DIS_CODE":0,"TOWNNAME":"永康區","LI":"網寮里","LIN":"22鄰","STREET":"永春街","SECT":" ","MAREA":" ","LANE":"２５巷","ALLEY":" ","HOUSE_NO":"１５號之９","E_COORD97":173701.17999999999,"N_COORD97":2546259.79,"ADDRESS":"永春街２５巷１５號之９","OBJECTID":226349},"geometry":{"x":173701.18000000063,"y":2546259.790000001}},{"attributes":{"ID":226354,"DIS_CODE":0,"TOWNNAME":"永康區","LI":"網寮里","LIN":"22鄰","STREET":"永春街","SECT":" ","MAREA":" ","LANE":"２５巷","ALLEY":" ","HOUSE_NO":"１５號之２","E_COORD97":173730.17999999999,"N_COORD97":2546268.29,"ADDRESS":"永春街２５巷１５號之２","OBJECTID":226350},"geometry":{"x":173730.18000000063,"y":2546268.2899999991}},{"attributes":{"ID":226355,"DIS_CODE":0,"TOWNNAME":"永康區","LI":"網寮里","LIN":"22鄰","STREET":"永春街","SECT":" ","MAREA":" ","LANE":"２５巷","ALLEY":" ","HOUSE_NO":"１６號","E_COORD97":173694.28,"N_COORD97":2546274.04,"ADDRESS":"永春街２５巷１６號","OBJECTID":226351},"geometry":{"x":173694.28000000119,"y":2546274.0399999972}},{"attributes":{"ID":226356,"DIS_CODE":0,"TOWNNAME":"永康區","LI":"龍潭里","LIN":"22鄰","STREET":"龍安街","SECT":" ","MAREA":" ","LANE":"２７２巷","ALLEY":" ","HOUSE_NO":"８號","E_COORD97":174773.89999999999,"N_COORD97":2548552.3100000001,"ADDRESS":"龍安街２７２巷８號","OBJECTID":226352},"geometry":{"x":174773.9000000013,"y":2548552.3100000042}},{"attributes":{"ID":226357,"DIS_CODE":0,"TOWNNAME":"東區","LI":"泉南里","LIN":"34鄰","STREET":"林森路","SECT":"一段","MAREA":" ","LANE":" ","ALLEY":" ","HOUSE_NO":"１４９號二十二樓之９","E_COORD97":169495.73000000001,"N_COORD97":2542552.3999999999,"ADDRESS":"林森路一段１４９號二十二樓之９","OBJECTID":226353},"geometry":{"x":169495.73000000138,"y":2542552.4000000004}},{"attributes":{"ID":226358,"DIS_CODE":0,"TOWNNAME":"東區","LI":"泉南里","LIN":"34鄰","STREET":"林森路","SECT":"一段","MAREA":" ","LANE":" ","ALLEY":" ","HOUSE_NO":"１５１號二樓","E_COORD97":169521.72,"N_COORD97":2542559.71,"ADDRESS":"林森路一段１５１號二樓","OBJECTID":226354},"geometry":{"x":169521.71999999974,"y":2542559.7100000028}},{"attributes":{"ID":226359,"DIS_CODE":0,"TOWNNAME":"東區","LI":"泉南里","LIN":"34鄰","STREET":"林森路","SECT":"一段","MAREA":" ","LANE":" ","ALLEY":" ","HOUSE_NO":"１５１號二樓之１","E_COORD97":169521.72,"N_COORD97":2542559.71,"ADDRESS":"林森路一段１５１號二樓之１","OBJECTID":226355},"geometry":{"x":169521.71999999974,"y":2542559.7100000028}},{"attributes":{"ID":226360,"DIS_CODE":0,"TOWNNAME":"東區","LI":"泉南里","LIN":"34鄰","STREET":"林森路","SECT":"一段","MAREA":" ","LANE":" ","ALLEY":" ","HOUSE_NO":"１５１號三樓","E_COORD97":169521.72,"N_COORD97":2542559.71,"ADDRESS":"林森路一段１５１號三樓","OBJECTID":226356},"geometry":{"x":169521.71999999974,"y":2542559.7100000028}},{"attributes":{"ID":226361,"DIS_CODE":0,"TOWNNAME":"歸仁區","LI":"大廟里","LIN":"14鄰","STREET":"大廟六街","SECT":" ","MAREA":" ","LANE":" ","ALLEY":" ","HOUSE_NO":"１３４號","E_COORD97":176222.72,"N_COORD97":2544300.25,"ADDRESS":"大廟六街１３４號","OBJECTID":226357},"geometry":{"x":176222.71999999974,"y":2544300.25}},{"attributes":{"ID":226362,"DIS_CODE":0,"TOWNNAME":"安南區","LI":"國安里","LIN":"7鄰","STREET":"國安街","SECT":" ","MAREA":" ","LANE":"２１０巷","ALLEY":" ","HOUSE_NO":"１１２號","E_COORD97":166563.39999999999,"N_COORD97":2547265.48,"ADDRESS":"國安街２１０巷１１２號","OBJECTID":226358},"geometry":{"x":166563.4000000013,"y":2547265.4800000004}},{"attributes":{"ID":226363,"DIS_CODE":0,"TOWNNAME":"官田區","LI":"隆本里","LIN":"29鄰","STREET":"中山路","SECT":"一段","MAREA":" ","LANE":"２６８巷","ALLEY":" ","HOUSE_NO":"１１號","E_COORD97":179554.81,"N_COORD97":2565908.1400000001,"ADDRESS":"中山路一段２６８巷１１號","OBJECTID":226359},"geometry":{"x":179554.80999999959,"y":2565908.1400000006}},{"attributes":{"ID":226364,"DIS_CODE":0,"TOWNNAME":"官田區","LI":"隆本里","LIN":"29鄰","STREET":"中山路","SECT":"一段","MAREA":" ","LANE":"２６８巷","ALLEY":" ","HOUSE_NO":"１３號","E_COORD97":179564.48999999999,"N_COORD97":2565907.79,"ADDRESS":"中山路一段２６８巷１３號","OBJECTID":226360},"geometry":{"x":179564.48999999929,"y":2565907.790000001}},{"attributes":{"ID":226365,"DIS_CODE":0,"TOWNNAME":"官田區","LI":"隆本里","LIN":"29鄰","STREET":"中山路","SECT":"一段","MAREA":" ","LANE":"２６８巷","ALLEY":" ","HOUSE_NO":"２號","E_COORD97":179549.92999999999,"N_COORD97":2565887.8500000001,"ADDRESS":"中山路一段２６８巷２號","OBJECTID":226361},"geometry":{"x":179549.93000000063,"y":2565887.8499999996}},{"attributes":{"ID":226366,"DIS_CODE":0,"TOWNNAME":"官田區","LI":"隆本里","LIN":"29鄰","STREET":"中山路","SECT":"一段","MAREA":" ","LANE":"２６８巷","ALLEY":" ","HOUSE_NO":"３號","E_COORD97":179533.23000000001,"N_COORD97":2565919.3100000001,"ADDRESS":"中山路一段２６８巷３號","OBJECTID":226362},"geometry":{"x":179533.23000000138,"y":2565919.3100000024}},{"attributes":{"ID":226367,"DIS_CODE":0,"TOWNNAME":"永康區","LI":"龍潭里","LIN":"22鄰","STREET":"龍安街","SECT":" ","MAREA":" ","LANE":"２７２巷","ALLEY":" ","HOUSE_NO":"１２號","E_COORD97":174781.14999999999,"N_COORD97":2548545.3100000001,"ADDRESS":"龍安街２７２巷１２號","OBJECTID":226363},"geometry":{"x":174781.15000000037,"y":2548545.3099999987}},{"attributes":{"ID":226368,"DIS_CODE":0,"TOWNNAME":"永康區","LI":"網寮里","LIN":"22鄰","STREET":"永春街","SECT":" ","MAREA":" ","LANE":"２５巷","ALLEY":" ","HOUSE_NO":"１５號之５","E_COORD97":173717.81,"N_COORD97":2546264.79,"ADDRESS":"永春街２５巷１５號之５","OBJECTID":226364},"geometry":{"x":173717.80999999959,"y":2546264.7899999991}},{"attributes":{"ID":226369,"DIS_CODE":0,"TOWNNAME":"東區","LI":"泉南里","LIN":"34鄰","STREET":"林森路","SECT":"一段","MAREA":" ","LANE":" ","ALLEY":" ","HOUSE_NO":"１５１號三樓之１","E_COORD97":169521.72,"N_COORD97":2542559.71,"ADDRESS":"林森路一段１５１號三樓之１","OBJECTID":226365},"geometry":{"x":169521.71999999974,"y":2542559.7100000028}},{"attributes":{"ID":226370,"DIS_CODE":0,"TOWNNAME":"東區","LI":"泉南里","LIN":"34鄰","STREET":"林森路","SECT":"一段","MAREA":" ","LANE":" ","ALLEY":" ","HOUSE_NO":"１５１號四樓","E_COORD97":169521.72,"N_COORD97":2542559.71,"ADDRESS":"林森路一段１５１號四樓","OBJECTID":226366},"geometry":{"x":169521.71999999974,"y":2542559.7100000028}},{"attributes":{"ID":226371,"DIS_CODE":0,"TOWNNAME":"東區","LI":"泉南里","LIN":"34鄰","STREET":"林森路","SECT":"一段","MAREA":" ","LANE":" ","ALLEY":" ","HOUSE_NO":"１５１號四樓之１","E_COORD97":169521.72,"N_COORD97":2542559.71,"ADDRESS":"林森路一段１５１號四樓之１","OBJECTID":226367},"geometry":{"x":169521.71999999974,"y":2542559.7100000028}},{"attributes":{"ID":226372,"DIS_CODE":0,"TOWNNAME":"東區","LI":"泉南里","LIN":"34鄰","STREET":"林森路","SECT":"一段","MAREA":" ","LANE":" ","ALLEY":" ","HOUSE_NO":"１５１號五樓","E_COORD97":169521.72,"N_COORD97":2542559.71,"ADDRESS":"林森路一段１５１號五樓","OBJECTID":226368},"geometry":{"x":169521.71999999974,"y":2542559.7100000028}},{"attributes":{"ID":226373,"DIS_CODE":0,"TOWNNAME":"安南區","LI":"溪墘里","LIN":"26鄰","STREET":"安寧街","SECT":" ","MAREA":" ","LANE":"５１巷","ALLEY":" ","HOUSE_NO":"２４號","E_COORD97":167333.48999999999,"N_COORD97":2546994.7999999998,"ADDRESS":"安寧街５１巷２４號","OBJECTID":226369},"geometry":{"x":167333.49000000022,"y":2546994.8000000007}},{"attributes":{"ID":226374,"DIS_CODE":0,"TOWNNAME":"安南區","LI":"安富里","LIN":"32鄰","STREET":"府安路","SECT":"五段","MAREA":" ","LANE":"１５７巷","ALLEY":" ","HOUSE_NO":"１６號","E_COORD97":167796.01999999999,"N_COORD97":2547119.5899999999,"ADDRESS":"府安路五段１５７巷１６號","OBJECTID":226370},"geometry":{"x":167796.02000000048,"y":2547119.5900000017}},{"attributes":{"ID":226375,"DIS_CODE":0,"TOWNNAME":"安南區","LI":"國安里","LIN":"7鄰","STREET":"國安街","SECT":" ","MAREA":" ","LANE":"２１０巷","ALLEY":" ","HOUSE_NO":"６８號","E_COORD97":166589.75,"N_COORD97":2547135.9300000002,"ADDRESS":"國安街２１０巷６８號","OBJECTID":226371},"geometry":{"x":166589.75000000093,"y":2547135.9299999997}},{"attributes":{"ID":226376,"DIS_CODE":0,"TOWNNAME":"永康區","LI":"網寮里","LIN":"22鄰","STREET":"永春街","SECT":" ","MAREA":" ","LANE":"２５巷","ALLEY":" ","HOUSE_NO":"９號","E_COORD97":173746.85999999999,"N_COORD97":2546274.2400000002,"ADDRESS":"永春街２５巷９號","OBJECTID":226372},"geometry":{"x":173746.86000000034,"y":2546274.2400000039}},{"attributes":{"ID":226377,"DIS_CODE":0,"TOWNNAME":"永康區","LI":"網寮里","LIN":"22鄰","STREET":"永春街","SECT":" ","MAREA":" ","LANE":"２５巷","ALLEY":" ","HOUSE_NO":"３號","E_COORD97":173761.14999999999,"N_COORD97":2546276.2400000002,"ADDRESS":"永春街２５巷３號","OBJECTID":226373},"geometry":{"x":173761.15000000224,"y":2546276.2400000002}},{"attributes":{"ID":226378,"DIS_CODE":0,"TOWNNAME":"永康區","LI":"網寮里","LIN":"22鄰","STREET":"永春街","SECT":" ","MAREA":" ","LANE":"２５巷","ALLEY":" ","HOUSE_NO":"１２之２號","E_COORD97":173720.98000000001,"N_COORD97":2546285.04,"ADDRESS":"永春街２５巷１２之２號","OBJECTID":226374},"geometry":{"x":173720.98000000045,"y":2546285.040000001}},{"attributes":{"ID":226379,"DIS_CODE":0,"TOWNNAME":"永康區","LI":"網寮里","LIN":"22鄰","STREET":"永春街","SECT":" ","MAREA":" ","LANE":"２５巷","ALLEY":" ","HOUSE_NO":"１８號","E_COORD97":173681.91,"N_COORD97":2546276.2999999998,"ADDRESS":"永春街２５巷１８號","OBJECTID":226375},"geometry":{"x":173681.91000000015,"y":2546276.3000000007}},{"attributes":{"ID":226380,"DIS_CODE":0,"TOWNNAME":"永康區","LI":"網寮里","LIN":"22鄰","STREET":"永春街","SECT":" ","MAREA":" ","LANE":"２５巷","ALLEY":" ","HOUSE_NO":"１５號之６","E_COORD97":173713.60999999999,"N_COORD97":2546263.29,"ADDRESS":"永春街２５巷１５號之６","OBJECTID":226376},"geometry":{"x":173713.61000000034,"y":2546263.290000001}},{"attributes":{"ID":226381,"DIS_CODE":0,"TOWNNAME":"善化區","LI":"坐駕里","LIN":"22鄰","STREET":"興華路","SECT":" ","MAREA":" ","LANE":"２２３巷","ALLEY":" ","HOUSE_NO":"２２號之５","E_COORD97":178166.51000000001,"N_COORD97":2558469.52,"ADDRESS":"興華路２２３巷２２號之５","OBJECTID":226377},"geometry":{"x":178166.50999999978,"y":2558469.5199999996}},{"attributes":{"ID":226382,"DIS_CODE":0,"TOWNNAME":"善化區","LI":"坐駕里","LIN":"22鄰","STREET":"興華路","SECT":" ","MAREA":" ","LANE":"２２３巷","ALLEY":" ","HOUSE_NO":"２２號之３","E_COORD97":178171.20999999999,"N_COORD97":2558470.02,"ADDRESS":"興華路２２３巷２２號之３","OBJECTID":226378},"geometry":{"x":178171.21000000183,"y":2558470.0200000033}},{"attributes":{"ID":226383,"DIS_CODE":0,"TOWNNAME":"永康區","LI":"崑山里","LIN":"40鄰","STREET":"崑山街","SECT":" ","MAREA":" ","LANE":"２２２巷","ALLEY":" ","HOUSE_NO":"８號","E_COORD97":174126.64000000001,"N_COORD97":2545026.6699999999,"ADDRESS":"崑山街２２２巷８號","OBJECTID":226379},"geometry":{"x":174126.64000000153,"y":2545026.6700000037}},{"attributes":{"ID":226384,"DIS_CODE":0,"TOWNNAME":"永康區","LI":"崑山里","LIN":"7鄰","STREET":"大灣路","SECT":" ","MAREA":" ","LANE":"８９１巷","ALLEY":" ","HOUSE_NO":"１２號","E_COORD97":173602.97,"N_COORD97":2544349.25,"ADDRESS":"大灣路８９１巷１２號","OBJECTID":226380},"geometry":{"x":173602.97000000067,"y":2544349.2500000019}},{"attributes":{"ID":226385,"DIS_CODE":0,"TOWNNAME":"永康區","LI":"二王里","LIN":"22鄰","STREET":"中山南路","SECT":" ","MAREA":" ","LANE":"６１６巷","ALLEY":" ","HOUSE_NO":"８號","E_COORD97":172322.32000000001,"N_COORD97":2546566.1800000002,"ADDRESS":"中山南路６１６巷８號","OBJECTID":226381},"geometry":{"x":172322.32000000216,"y":2546566.1800000016}},{"attributes":{"ID":226386,"DIS_CODE":0,"TOWNNAME":"永康區","LI":"二王里","LIN":"22鄰","STREET":"中山南路","SECT":" ","MAREA":" ","LANE":"６１６巷","ALLEY":" ","HOUSE_NO":"２號","E_COORD97":172322.04000000001,"N_COORD97":2546580.9300000002,"ADDRESS":"中山南路６１６巷２號","OBJECTID":226382},"geometry":{"x":172322.04000000004,"y":2546580.9300000034}},{"attributes":{"ID":226387,"DIS_CODE":0,"TOWNNAME":"永康區","LI":"二王里","LIN":"22鄰","STREET":"中山南路","SECT":" ","MAREA":" ","LANE":"５４４巷","ALLEY":" ","HOUSE_NO":"３９號","E_COORD97":172274.04000000001,"N_COORD97":2546531.52,"ADDRESS":"中山南路５４４巷３９號","OBJECTID":226383},"geometry":{"x":172274.04000000004,"y":2546531.5199999996}},{"attributes":{"ID":226388,"DIS_CODE":0,"TOWNNAME":"永康區","LI":"中興里","LIN":"22鄰","STREET":"中華路","SECT":" ","MAREA":" ","LANE":"２１２巷","ALLEY":" ","HOUSE_NO":"４號","E_COORD97":171702.34,"N_COORD97":2544997,"ADDRESS":"中華路２１２巷４號","OBJECTID":226384},"geometry":{"x":171702.33999999985,"y":2544997}},{"attributes":{"ID":226389,"DIS_CODE":0,"TOWNNAME":"永康區","LI":"勝利里","LIN":"22鄰","STREET":"中華一路","SECT":" ","MAREA":" ","LANE":"１８２巷","ALLEY":" ","HOUSE_NO":"２３號","E_COORD97":171502.26999999999,"N_COORD97":2545109.9900000002,"ADDRESS":"中華一路１８２巷２３號","OBJECTID":226385},"geometry":{"x":171502.26999999955,"y":2545109.9900000021}},{"attributes":{"ID":226390,"DIS_CODE":0,"TOWNNAME":"東區","LI":"泉南里","LIN":"34鄰","STREET":"林森路","SECT":"一段","MAREA":" ","LANE":" ","ALLEY":" ","HOUSE_NO":"１５１號五樓之１","E_COORD97":169521.72,"N_COORD97":2542559.71,"ADDRESS":"林森路一段１５１號五樓之１","OBJECTID":226386},"geometry":{"x":169521.71999999974,"y":2542559.7100000028}},{"attributes":{"ID":226391,"DIS_CODE":0,"TOWNNAME":"東區","LI":"泉南里","LIN":"34鄰","STREET":"林森路","SECT":"一段","MAREA":" ","LANE":" ","ALLEY":" ","HOUSE_NO":"１５１號六樓","E_COORD97":169521.72,"N_COORD97":2542559.71,"ADDRESS":"林森路一段１５１號六樓","OBJECTID":226387},"geometry":{"x":169521.71999999974,"y":2542559.7100000028}},{"attributes":{"ID":226392,"DIS_CODE":0,"TOWNNAME":"東區","LI":"泉南里","LIN":"34鄰","STREET":"林森路","SECT":"一段","MAREA":" ","LANE":" ","ALLEY":" ","HOUSE_NO":"１５１號六樓之１","E_COORD97":169521.72,"N_COORD97":2542559.71,"ADDRESS":"林森路一段１５１號六樓之１","OBJECTID":226388},"geometry":{"x":169521.71999999974,"y":2542559.7100000028}},{"attributes":{"ID":226393,"DIS_CODE":0,"TOWNNAME":"官田區","LI":"隆田里","LIN":"29鄰","STREET":"中山路","SECT":"二段","MAREA":" ","LANE":"１３７巷","ALLEY":" ","HOUSE_NO":"８號","E_COORD97":178732.64000000001,"N_COORD97":2566051.3999999999,"ADDRESS":"中山路二段１３７巷８號","OBJECTID":226389},"geometry":{"x":178732.6400000006,"y":2566051.4000000004}},{"attributes":{"ID":226394,"DIS_CODE":0,"TOWNNAME":"官田區","LI":"隆田里","LIN":"29鄰","STREET":"中山路","SECT":"二段","MAREA":" ","LANE":"１３７巷","ALLEY":" ","HOUSE_NO":"９號","E_COORD97":178754.98000000001,"N_COORD97":2566057.6000000001,"ADDRESS":"中山路二段１３７巷９號","OBJECTID":226390},"geometry":{"x":178754.98000000138,"y":2566057.6000000015}},{"attributes":{"ID":226395,"DIS_CODE":0,"TOWNNAME":"安南區","LI":"安富里","LIN":"15鄰","STREET":"海佃路","SECT":"一段","MAREA":" ","LANE":"１５８巷","ALLEY":" ","HOUSE_NO":"６９號","E_COORD97":167367.20999999999,"N_COORD97":2547246.1000000001,"ADDRESS":"海佃路一段１５８巷６９號","OBJECTID":226391},"geometry":{"x":167367.20999999996,"y":2547246.0999999996}},{"attributes":{"ID":226396,"DIS_CODE":0,"TOWNNAME":"永康區","LI":"北灣里","LIN":"29鄰","STREET":"文賢街","SECT":" ","MAREA":" ","LANE":"７８巷","ALLEY":" ","HOUSE_NO":"１５號","E_COORD97":175422.81,"N_COORD97":2545317.8199999998,"ADDRESS":"文賢街７８巷１５號","OBJECTID":226392},"geometry":{"x":175422.81000000052,"y":2545317.8200000022}},{"attributes":{"ID":226397,"DIS_CODE":0,"TOWNNAME":"官田區","LI":"隆田里","LIN":"29鄰","STREET":"中山路","SECT":"二段","MAREA":" ","LANE":" ","ALLEY":" ","HOUSE_NO":"１３９號","E_COORD97":178729.01999999999,"N_COORD97":2566084.9700000002,"ADDRESS":"中山路二段１３９號","OBJECTID":226393},"geometry":{"x":178729.01999999955,"y":2566084.9700000007}},{"attributes":{"ID":226398,"DIS_CODE":0,"TOWNNAME":"永康區","LI":"北灣里","LIN":"29鄰","STREET":"文賢街","SECT":" ","MAREA":" ","LANE":"７８巷","ALLEY":" ","HOUSE_NO":"１３號","E_COORD97":175418.39999999999,"N_COORD97":2545317.8199999998,"ADDRESS":"文賢街７８巷１３號","OBJECTID":226394},"geometry":{"x":175418.40000000037,"y":2545317.8200000022}},{"attributes":{"ID":226399,"DIS_CODE":0,"TOWNNAME":"永康區","LI":"永康里","LIN":"29鄰","STREET":"永康街","SECT":" ","MAREA":" ","LANE":"１９１巷","ALLEY":" ","HOUSE_NO":"５號","E_COORD97":174104.70000000001,"N_COORD97":2547034.75,"ADDRESS":"永康街１９１巷５號","OBJECTID":226395},"geometry":{"x":174104.70000000205,"y":2547034.7500000019}},{"attributes":{"ID":226400,"DIS_CODE":0,"TOWNNAME":"永康區","LI":"五王里","LIN":"22鄰","STREET":"成功路","SECT":" ","MAREA":" ","LANE":"２２８巷","ALLEY":" ","HOUSE_NO":"４０號","E_COORD97":171448.51000000001,"N_COORD97":2545829.52,"ADDRESS":"成功路２２８巷４０號","OBJECTID":226396},"geometry":{"x":171448.50999999978,"y":2545829.5199999996}},{"attributes":{"ID":226401,"DIS_CODE":0,"TOWNNAME":"官田區","LI":"隆本里","LIN":"29鄰","STREET":"中山路","SECT":"二段","MAREA":" ","LANE":" ","ALLEY":" ","HOUSE_NO":"５２號","E_COORD97":179053.89999999999,"N_COORD97":2565985.0099999998,"ADDRESS":"中山路二段５２號","OBJECTID":226397},"geometry":{"x":179053.9000000013,"y":2565985.0100000016}},{"attributes":{"ID":226402,"DIS_CODE":0,"TOWNNAME":"官田區","LI":"隆本里","LIN":"29鄰","STREET":"中山路","SECT":"二段","MAREA":" ","LANE":" ","ALLEY":" ","HOUSE_NO":"１６號","E_COORD97":179116.29999999999,"N_COORD97":2565957.77,"ADDRESS":"中山路二段１６號","OBJECTID":226398},"geometry":{"x":179116.30000000168,"y":2565957.7700000033}},{"attributes":{"ID":226403,"DIS_CODE":0,"TOWNNAME":"官田區","LI":"隆本里","LIN":"29鄰","STREET":"中山路","SECT":"二段","MAREA":" ","LANE":" ","ALLEY":" ","HOUSE_NO":"１８號","E_COORD97":179112.57999999999,"N_COORD97":2565959.1099999999,"ADDRESS":"中山路二段１８號","OBJECTID":226399},"geometry":{"x":179112.58000000007,"y":2565959.1100000013}},{"attributes":{"ID":226404,"DIS_CODE":0,"TOWNNAME":"官田區","LI":"隆本里","LIN":"29鄰","STREET":"中山路","SECT":"二段","MAREA":" ","LANE":" ","ALLEY":" ","HOUSE_NO":"２０號","E_COORD97":179108.28,"N_COORD97":2565961.3599999999,"ADDRESS":"中山路二段２０號","OBJECTID":226400},"geometry":{"x":179108.27999999933,"y":2565961.3600000013}}]}