{"displayFieldName":"TOWNNAME","fieldAliases":{"ID":"ID","DIS_CODE":"DIS_CODE","TOWNNAME":"TOWNNAME","LI":"LI","LIN":"LIN","STREET":"STREET","SECT":"SECT","MAREA":"MAREA","LANE":"LANE","ALLEY":"ALLEY","HOUSE_NO":"HOUSE_NO","E_COORD97":"E_COORD97","N_COORD97":"N_COORD97","ADDRESS":"ADDRESS","OBJECTID":"OBJECTID"},"geometryType":"esriGeometryPoint","spatialReference":{"wkid":102443,"latestWkid":3826},"fields":[{"name":"ID","type":"esriFieldTypeDouble","alias":"ID"},{"name":"DIS_CODE","type":"esriFieldTypeInteger","alias":"DIS_CODE"},{"name":"TOWNNAME","type":"esriFieldTypeString","alias":"TOWNNAME","length":8},{"name":"LI","type":"esriFieldTypeString","alias":"LI","length":8},{"name":"LIN","type":"esriFieldTypeString","alias":"LIN","length":12},{"name":"STREET","type":"esriFieldTypeString","alias":"STREET","length":20},{"name":"SECT","type":"esriFieldTypeString","alias":"SECT","length":8},{"name":"MAREA","type":"esriFieldTypeString","alias":"MAREA","length":12},{"name":"LANE","type":"esriFieldTypeString","alias":"LANE","length":10},{"name":"ALLEY","type":"esriFieldTypeString","alias":"ALLEY","length":10},{"name":"HOUSE_NO","type":"esriFieldTypeString","alias":"HOUSE_NO","length":20},{"name":"E_COORD97","type":"esriFieldTypeDouble","alias":"E_COORD97"},{"name":"N_COORD97","type":"esriFieldTypeDouble","alias":"N_COORD97"},{"name":"ADDRESS","type":"esriFieldTypeString","alias":"ADDRESS","length":50},{"name":"OBJECTID","type":"esriFieldTypeOID","alias":"OBJECTID"}],"features":[{"attributes":{"ID":39201,"DIS_CODE":0,"TOWNNAME":"東山區","LI":"東河里","LIN":"7鄰","STREET":" ","SECT":" ","MAREA":"吉貝耍","LANE":" ","ALLEY":" ","HOUSE_NO":"５６號之３","E_COORD97":187169.41,"N_COORD97":2577194.8799999999,"ADDRESS":"吉貝耍５６號之３","OBJECTID":39201},"geometry":{"x":187169.41000000015,"y":2577194.879999999}},{"attributes":{"ID":39202,"DIS_CODE":0,"TOWNNAME":"東山區","LI":"東河里","LIN":"7鄰","STREET":" ","SECT":" ","MAREA":"吉貝耍","LANE":" ","ALLEY":" ","HOUSE_NO":"５６號之４","E_COORD97":187165.34,"N_COORD97":2577195.9399999999,"ADDRESS":"吉貝耍５６號之４","OBJECTID":39202},"geometry":{"x":187165.34000000078,"y":2577195.9400000013}},{"attributes":{"ID":39203,"DIS_CODE":0,"TOWNNAME":"白河區","LI":"庄內里","LIN":"7鄰","STREET":"中山路","SECT":" ","MAREA":" ","LANE":"４４９巷","ALLEY":"１０５弄","HOUSE_NO":"２９之１號","E_COORD97":190567.97,"N_COORD97":2583906.3700000001,"ADDRESS":"中山路４４９巷１０５弄２９之１號","OBJECTID":39203},"geometry":{"x":190567.97000000067,"y":2583906.370000001}},{"attributes":{"ID":39204,"DIS_CODE":0,"TOWNNAME":"白河區","LI":"庄內里","LIN":"7鄰","STREET":"中山路","SECT":" ","MAREA":" ","LANE":"４４９巷","ALLEY":"１０５弄","HOUSE_NO":"２９之２號","E_COORD97":190572.82999999999,"N_COORD97":2583905.5800000001,"ADDRESS":"中山路４４９巷１０５弄２９之２號","OBJECTID":39204},"geometry":{"x":190572.83000000101,"y":2583905.5800000019}},{"attributes":{"ID":39205,"DIS_CODE":0,"TOWNNAME":"白河區","LI":"庄內里","LIN":"7鄰","STREET":"中山路","SECT":" ","MAREA":" ","LANE":"４４９巷","ALLEY":"１０５弄","HOUSE_NO":"２９號","E_COORD97":190552.06,"N_COORD97":2583921.7599999998,"ADDRESS":"中山路４４９巷１０５弄２９號","OBJECTID":39205},"geometry":{"x":190552.06000000052,"y":2583921.7600000016}},{"attributes":{"ID":39206,"DIS_CODE":0,"TOWNNAME":"白河區","LI":"庄內里","LIN":"7鄰","STREET":"中山路","SECT":" ","MAREA":" ","LANE":"４４９巷","ALLEY":"１０５弄","HOUSE_NO":"３１號","E_COORD97":190551.70999999999,"N_COORD97":2583916.8300000001,"ADDRESS":"中山路４４９巷１０５弄３１號","OBJECTID":39206},"geometry":{"x":190551.71000000089,"y":2583916.8300000038}},{"attributes":{"ID":39207,"DIS_CODE":0,"TOWNNAME":"白河區","LI":"庄內里","LIN":"7鄰","STREET":"中山路","SECT":" ","MAREA":" ","LANE":"４４９巷","ALLEY":"１０５弄","HOUSE_NO":"３３號","E_COORD97":190551.35999999999,"N_COORD97":2583911.8999999999,"ADDRESS":"中山路４４９巷１０５弄３３號","OBJECTID":39207},"geometry":{"x":190551.36000000034,"y":2583911.9000000004}},{"attributes":{"ID":39208,"DIS_CODE":0,"TOWNNAME":"東山區","LI":"東河里","LIN":"7鄰","STREET":" ","SECT":" ","MAREA":"吉貝耍","LANE":" ","ALLEY":" ","HOUSE_NO":"５６號","E_COORD97":187181.59,"N_COORD97":2577191.8199999998,"ADDRESS":"吉貝耍５６號","OBJECTID":39208},"geometry":{"x":187181.58999999892,"y":2577191.8200000022}},{"attributes":{"ID":39209,"DIS_CODE":0,"TOWNNAME":"東山區","LI":"東河里","LIN":"7鄰","STREET":" ","SECT":" ","MAREA":"吉貝耍","LANE":" ","ALLEY":" ","HOUSE_NO":"５７號","E_COORD97":187151.84,"N_COORD97":2577218.9100000001,"ADDRESS":"吉貝耍５７號","OBJECTID":39209},"geometry":{"x":187151.84000000078,"y":2577218.9100000001}},{"attributes":{"ID":39210,"DIS_CODE":0,"TOWNNAME":"東山區","LI":"東河里","LIN":"7鄰","STREET":" ","SECT":" ","MAREA":"吉貝耍","LANE":" ","ALLEY":" ","HOUSE_NO":"５８號","E_COORD97":187120.42999999999,"N_COORD97":2577210.1800000002,"ADDRESS":"吉貝耍５８號","OBJECTID":39210},"geometry":{"x":187120.43000000063,"y":2577210.1799999997}},{"attributes":{"ID":39211,"DIS_CODE":0,"TOWNNAME":"東山區","LI":"東河里","LIN":"7鄰","STREET":" ","SECT":" ","MAREA":"吉貝耍","LANE":" ","ALLEY":" ","HOUSE_NO":"５９號","E_COORD97":187119.01000000001,"N_COORD97":2577231.2000000002,"ADDRESS":"吉貝耍５９號","OBJECTID":39211},"geometry":{"x":187119.00999999978,"y":2577231.2000000011}},{"attributes":{"ID":39212,"DIS_CODE":0,"TOWNNAME":"東山區","LI":"東河里","LIN":"7鄰","STREET":" ","SECT":" ","MAREA":"吉貝耍","LANE":" ","ALLEY":" ","HOUSE_NO":"６０號之１","E_COORD97":187139.81,"N_COORD97":2577264.5099999998,"ADDRESS":"吉貝耍６０號之１","OBJECTID":39212},"geometry":{"x":187139.81000000052,"y":2577264.5100000016}},{"attributes":{"ID":39213,"DIS_CODE":0,"TOWNNAME":"東山區","LI":"東河里","LIN":"7鄰","STREET":" ","SECT":" ","MAREA":"吉貝耍","LANE":" ","ALLEY":" ","HOUSE_NO":"６０號之２","E_COORD97":187125.38,"N_COORD97":2577269.25,"ADDRESS":"吉貝耍６０號之２","OBJECTID":39213},"geometry":{"x":187125.37999999989,"y":2577269.2500000019}},{"attributes":{"ID":39214,"DIS_CODE":0,"TOWNNAME":"東山區","LI":"東河里","LIN":"7鄰","STREET":" ","SECT":" ","MAREA":"吉貝耍","LANE":" ","ALLEY":" ","HOUSE_NO":"６０號","E_COORD97":187113.92000000001,"N_COORD97":2577273.1400000001,"ADDRESS":"吉貝耍６０號","OBJECTID":39214},"geometry":{"x":187113.92000000086,"y":2577273.1399999987}},{"attributes":{"ID":39215,"DIS_CODE":0,"TOWNNAME":"東山區","LI":"東河里","LIN":"7鄰","STREET":" ","SECT":" ","MAREA":"吉貝耍","LANE":" ","ALLEY":" ","HOUSE_NO":"６１號之１","E_COORD97":187093.42999999999,"N_COORD97":2577294.4700000002,"ADDRESS":"吉貝耍６１號之１","OBJECTID":39215},"geometry":{"x":187093.43000000063,"y":2577294.4700000007}},{"attributes":{"ID":39216,"DIS_CODE":0,"TOWNNAME":"東山區","LI":"東河里","LIN":"7鄰","STREET":" ","SECT":" ","MAREA":"吉貝耍","LANE":" ","ALLEY":" ","HOUSE_NO":"６１號","E_COORD97":187210.70999999999,"N_COORD97":2577195.3599999999,"ADDRESS":"吉貝耍６１號","OBJECTID":39216},"geometry":{"x":187210.70999999996,"y":2577195.3599999994}},{"attributes":{"ID":39217,"DIS_CODE":0,"TOWNNAME":"東山區","LI":"東河里","LIN":"7鄰","STREET":" ","SECT":" ","MAREA":"吉貝耍","LANE":" ","ALLEY":" ","HOUSE_NO":"６２號","E_COORD97":187090.67000000001,"N_COORD97":2577265.8999999999,"ADDRESS":"吉貝耍６２號","OBJECTID":39217},"geometry":{"x":187090.66999999993,"y":2577265.9000000022}},{"attributes":{"ID":39218,"DIS_CODE":0,"TOWNNAME":"新化區","LI":"清水里","LIN":"4鄰","STREET":"民治路","SECT":" ","MAREA":" ","LANE":" ","ALLEY":" ","HOUSE_NO":"２３６號","E_COORD97":178686.81,"N_COORD97":2548465.25,"ADDRESS":"民治路２３６號","OBJECTID":39218},"geometry":{"x":178686.80999999959,"y":2548465.2500000019}},{"attributes":{"ID":39219,"DIS_CODE":0,"TOWNNAME":"新化區","LI":"東榮里","LIN":"20鄰","STREET":"民生路","SECT":" ","MAREA":" ","LANE":" ","ALLEY":" ","HOUSE_NO":"３１號","E_COORD97":179420.95999999999,"N_COORD97":2548322.25,"ADDRESS":"民生路３１號","OBJECTID":39219},"geometry":{"x":179420.96000000089,"y":2548322.2500000019}},{"attributes":{"ID":39220,"DIS_CODE":0,"TOWNNAME":"新化區","LI":"中央里","LIN":"4鄰","STREET":"中山路","SECT":" ","MAREA":" ","LANE":" ","ALLEY":" ","HOUSE_NO":"２９５號","E_COORD97":178978.20999999999,"N_COORD97":2548413.25,"ADDRESS":"中山路２９５號","OBJECTID":39220},"geometry":{"x":178978.21000000089,"y":2548413.2500000037}},{"attributes":{"ID":39221,"DIS_CODE":0,"TOWNNAME":"新化區","LI":"東榮里","LIN":"20鄰","STREET":"民生路","SECT":" ","MAREA":" ","LANE":" ","ALLEY":" ","HOUSE_NO":"３５號","E_COORD97":179420.35999999999,"N_COORD97":2548331.25,"ADDRESS":"民生路３５號","OBJECTID":39221},"geometry":{"x":179420.36000000127,"y":2548331.25}},{"attributes":{"ID":39222,"DIS_CODE":0,"TOWNNAME":"新化區","LI":"護國里","LIN":"8鄰","STREET":"信義路","SECT":" ","MAREA":" ","LANE":" ","ALLEY":" ","HOUSE_NO":"８８號","E_COORD97":179824.38,"N_COORD97":2548720.25,"ADDRESS":"信義路８８號","OBJECTID":39222},"geometry":{"x":179824.38000000175,"y":2548720.25}},{"attributes":{"ID":39223,"DIS_CODE":0,"TOWNNAME":"新化區","LI":"東榮里","LIN":"20鄰","STREET":"民生路","SECT":" ","MAREA":" ","LANE":" ","ALLEY":" ","HOUSE_NO":"５１號","E_COORD97":179415.45999999999,"N_COORD97":2548398.25,"ADDRESS":"民生路５１號","OBJECTID":39223},"geometry":{"x":179415.46000000183,"y":2548398.25}},{"attributes":{"ID":39224,"DIS_CODE":0,"TOWNNAME":"新化區","LI":"東榮里","LIN":"20鄰","STREET":"民生路","SECT":" ","MAREA":" ","LANE":" ","ALLEY":" ","HOUSE_NO":"２９號","E_COORD97":179419.95999999999,"N_COORD97":2548318.25,"ADDRESS":"民生路２９號","OBJECTID":39224},"geometry":{"x":179419.95999999996,"y":2548318.2500000037}},{"attributes":{"ID":39225,"DIS_CODE":0,"TOWNNAME":"柳營區","LI":"神農里","LIN":"15鄰","STREET":" ","SECT":" ","MAREA":"新厝","LANE":" ","ALLEY":" ","HOUSE_NO":"９號","E_COORD97":183308.37,"N_COORD97":2573191.6699999999,"ADDRESS":"新厝９號","OBJECTID":39225},"geometry":{"x":183308.37000000197,"y":2573191.6700000018}},{"attributes":{"ID":39226,"DIS_CODE":0,"TOWNNAME":"新化區","LI":"中央里","LIN":"4鄰","STREET":"中山路","SECT":" ","MAREA":" ","LANE":" ","ALLEY":" ","HOUSE_NO":"２７５號","E_COORD97":179010.20999999999,"N_COORD97":2548415.25,"ADDRESS":"中山路２７５號","OBJECTID":39226},"geometry":{"x":179010.21000000183,"y":2548415.25}},{"attributes":{"ID":39227,"DIS_CODE":0,"TOWNNAME":"新化區","LI":"唪口里","LIN":"4鄰","STREET":"大德路","SECT":" ","MAREA":" ","LANE":" ","ALLEY":" ","HOUSE_NO":"９２號之２","E_COORD97":178103.42999999999,"N_COORD97":2549486.2599999998,"ADDRESS":"大德路９２號之２","OBJECTID":39227},"geometry":{"x":178103.43000000063,"y":2549486.2599999998}},{"attributes":{"ID":39228,"DIS_CODE":0,"TOWNNAME":"新化區","LI":"中央里","LIN":"4鄰","STREET":"中山路","SECT":" ","MAREA":" ","LANE":" ","ALLEY":" ","HOUSE_NO":"２８９號","E_COORD97":178990.31,"N_COORD97":2548413.25,"ADDRESS":"中山路２８９號","OBJECTID":39228},"geometry":{"x":178990.30999999959,"y":2548413.2500000037}},{"attributes":{"ID":39229,"DIS_CODE":0,"TOWNNAME":"新化區","LI":"中央里","LIN":"4鄰","STREET":"中山路","SECT":" ","MAREA":" ","LANE":" ","ALLEY":" ","HOUSE_NO":"２７９號","E_COORD97":179006.01000000001,"N_COORD97":2548414.25,"ADDRESS":"中山路２７９號","OBJECTID":39229},"geometry":{"x":179006.00999999978,"y":2548414.2500000019}},{"attributes":{"ID":39230,"DIS_CODE":0,"TOWNNAME":"新化區","LI":"知義里","LIN":"15鄰","STREET":"中興路","SECT":" ","MAREA":" ","LANE":" ","ALLEY":" ","HOUSE_NO":"４２５號","E_COORD97":180605.91,"N_COORD97":2547509.25,"ADDRESS":"中興路４２５號","OBJECTID":39230},"geometry":{"x":180605.91000000201,"y":2547509.2500000019}},{"attributes":{"ID":39231,"DIS_CODE":0,"TOWNNAME":"白河區","LI":"庄內里","LIN":"7鄰","STREET":"中山路","SECT":" ","MAREA":" ","LANE":"４４９巷","ALLEY":"１０５弄","HOUSE_NO":"３５號","E_COORD97":190551,"N_COORD97":2583906.98,"ADDRESS":"中山路４４９巷１０５弄３５號","OBJECTID":39231},"geometry":{"x":190551.00000000093,"y":2583906.9800000023}},{"attributes":{"ID":39232,"DIS_CODE":0,"TOWNNAME":"白河區","LI":"庄內里","LIN":"7鄰","STREET":"中山路","SECT":" ","MAREA":" ","LANE":"４４９巷","ALLEY":"１０５弄","HOUSE_NO":"３７號","E_COORD97":190550.64999999999,"N_COORD97":2583902.0499999998,"ADDRESS":"中山路４４９巷１０５弄３７號","OBJECTID":39232},"geometry":{"x":190550.6500000013,"y":2583902.0500000007}},{"attributes":{"ID":39233,"DIS_CODE":0,"TOWNNAME":"安南區","LI":"安富里","LIN":"7鄰","STREET":"郡安路","SECT":"五段","MAREA":" ","LANE":"１８４巷","ALLEY":"８０弄","HOUSE_NO":"１８號","E_COORD97":167428.67999999999,"N_COORD97":2547548.1000000001,"ADDRESS":"郡安路五段１８４巷８０弄１８號","OBJECTID":39233},"geometry":{"x":167428.68000000156,"y":2547548.0999999996}},{"attributes":{"ID":39234,"DIS_CODE":0,"TOWNNAME":"安南區","LI":"安富里","LIN":"7鄰","STREET":"郡安路","SECT":"五段","MAREA":" ","LANE":"１８４巷","ALLEY":"８０弄","HOUSE_NO":"２０號","E_COORD97":167423.48000000001,"N_COORD97":2547547.23,"ADDRESS":"郡安路五段１８４巷８０弄２０號","OBJECTID":39234},"geometry":{"x":167423.48000000045,"y":2547547.2300000023}},{"attributes":{"ID":39235,"DIS_CODE":0,"TOWNNAME":"安南區","LI":"安富里","LIN":"7鄰","STREET":"郡安路","SECT":"五段","MAREA":" ","LANE":"１８４巷","ALLEY":"８０弄","HOUSE_NO":"２１號","E_COORD97":167422.17999999999,"N_COORD97":2547525.6099999999,"ADDRESS":"郡安路五段１８４巷８０弄２１號","OBJECTID":39235},"geometry":{"x":167422.18000000063,"y":2547525.6100000013}},{"attributes":{"ID":39236,"DIS_CODE":0,"TOWNNAME":"安南區","LI":"安富里","LIN":"7鄰","STREET":"郡安路","SECT":"五段","MAREA":" ","LANE":"１８４巷","ALLEY":"８０弄","HOUSE_NO":"２２號","E_COORD97":167418.28,"N_COORD97":2547546.1499999999,"ADDRESS":"郡安路五段１８４巷８０弄２２號","OBJECTID":39236},"geometry":{"x":167418.28000000212,"y":2547546.1500000041}},{"attributes":{"ID":39237,"DIS_CODE":0,"TOWNNAME":"安南區","LI":"安富里","LIN":"7鄰","STREET":"郡安路","SECT":"五段","MAREA":" ","LANE":"１８４巷","ALLEY":"８０弄","HOUSE_NO":"２３號","E_COORD97":167415.67999999999,"N_COORD97":2547525.6099999999,"ADDRESS":"郡安路五段１８４巷８０弄２３號","OBJECTID":39237},"geometry":{"x":167415.68000000063,"y":2547525.6100000013}},{"attributes":{"ID":39238,"DIS_CODE":0,"TOWNNAME":"安南區","LI":"安富里","LIN":"7鄰","STREET":"郡安路","SECT":"五段","MAREA":" ","LANE":"１８４巷","ALLEY":"８０弄","HOUSE_NO":"２４號","E_COORD97":167411.78,"N_COORD97":2547544.2000000002,"ADDRESS":"郡安路五段１８４巷８０弄２４號","OBJECTID":39238},"geometry":{"x":167411.78000000119,"y":2547544.1999999993}},{"attributes":{"ID":39239,"DIS_CODE":0,"TOWNNAME":"安南區","LI":"安富里","LIN":"7鄰","STREET":"郡安路","SECT":"五段","MAREA":" ","LANE":"１８４巷","ALLEY":"８０弄","HOUSE_NO":"２５號","E_COORD97":167410.04999999999,"N_COORD97":2547523.8700000001,"ADDRESS":"郡安路五段１８４巷８０弄２５號","OBJECTID":39239},"geometry":{"x":167410.05000000075,"y":2547523.870000001}},{"attributes":{"ID":39240,"DIS_CODE":0,"TOWNNAME":"安南區","LI":"安富里","LIN":"7鄰","STREET":"郡安路","SECT":"五段","MAREA":" ","LANE":"１８４巷","ALLEY":"８０弄","HOUSE_NO":"２７號","E_COORD97":167404.84,"N_COORD97":2547522.79,"ADDRESS":"郡安路五段１８４巷８０弄２７號","OBJECTID":39240},"geometry":{"x":167404.83999999985,"y":2547522.7899999991}},{"attributes":{"ID":39241,"DIS_CODE":0,"TOWNNAME":"安南區","LI":"安富里","LIN":"7鄰","STREET":"郡安路","SECT":"五段","MAREA":" ","LANE":"１８４巷","ALLEY":"８０弄","HOUSE_NO":"２號","E_COORD97":167482.42000000001,"N_COORD97":2547557.8300000001,"ADDRESS":"郡安路五段１８４巷８０弄２號","OBJECTID":39241},"geometry":{"x":167482.41999999993,"y":2547557.8300000001}},{"attributes":{"ID":39242,"DIS_CODE":0,"TOWNNAME":"安南區","LI":"安富里","LIN":"7鄰","STREET":"郡安路","SECT":"五段","MAREA":" ","LANE":"１８４巷","ALLEY":"８０弄","HOUSE_NO":"３２號","E_COORD97":167385.32000000001,"N_COORD97":2547538.1699999999,"ADDRESS":"郡安路五段１８４巷８０弄３２號","OBJECTID":39242},"geometry":{"x":167385.3200000003,"y":2547538.1699999999}},{"attributes":{"ID":39243,"DIS_CODE":0,"TOWNNAME":"安南區","LI":"安富里","LIN":"7鄰","STREET":"郡安路","SECT":"五段","MAREA":" ","LANE":"１８４巷","ALLEY":"８０弄","HOUSE_NO":"３４號","E_COORD97":167379.25,"N_COORD97":2547536.6600000001,"ADDRESS":"郡安路五段１８４巷８０弄３４號","OBJECTID":39243},"geometry":{"x":167379.25000000186,"y":2547536.660000002}},{"attributes":{"ID":39244,"DIS_CODE":0,"TOWNNAME":"新化區","LI":"中央里","LIN":"4鄰","STREET":"中山路","SECT":" ","MAREA":" ","LANE":" ","ALLEY":" ","HOUSE_NO":"２８３號","E_COORD97":179001.01000000001,"N_COORD97":2548413.25,"ADDRESS":"中山路２８３號","OBJECTID":39244},"geometry":{"x":179001.00999999978,"y":2548413.2500000037}},{"attributes":{"ID":39245,"DIS_CODE":0,"TOWNNAME":"新化區","LI":"協興里","LIN":"4鄰","STREET":"正新路","SECT":" ","MAREA":" ","LANE":" ","ALLEY":" ","HOUSE_NO":"２４１號","E_COORD97":178554.32000000001,"N_COORD97":2548476.25,"ADDRESS":"正新路２４１號","OBJECTID":39245},"geometry":{"x":178554.32000000123,"y":2548476.25}},{"attributes":{"ID":39246,"DIS_CODE":0,"TOWNNAME":"永康區","LI":"網寮里","LIN":"18鄰","STREET":"永勝街","SECT":" ","MAREA":" ","LANE":" ","ALLEY":" ","HOUSE_NO":"４５號","E_COORD97":173566.51000000001,"N_COORD97":2546307.5099999998,"ADDRESS":"永勝街４５號","OBJECTID":39246},"geometry":{"x":173566.51000000164,"y":2546307.5099999998}},{"attributes":{"ID":39247,"DIS_CODE":0,"TOWNNAME":"新化區","LI":"東榮里","LIN":"20鄰","STREET":"民生路","SECT":" ","MAREA":" ","LANE":" ","ALLEY":" ","HOUSE_NO":"５３號","E_COORD97":179414.85999999999,"N_COORD97":2548402.25,"ADDRESS":"民生路５３號","OBJECTID":39247},"geometry":{"x":179414.86000000127,"y":2548402.25}},{"attributes":{"ID":39248,"DIS_CODE":0,"TOWNNAME":"新化區","LI":"豐榮里","LIN":"13鄰","STREET":"正新南路","SECT":" ","MAREA":" ","LANE":" ","ALLEY":" ","HOUSE_NO":"１８５號","E_COORD97":178734.26999999999,"N_COORD97":2547934.25,"ADDRESS":"正新南路１８５號","OBJECTID":39248},"geometry":{"x":178734.26999999955,"y":2547934.25}},{"attributes":{"ID":39249,"DIS_CODE":0,"TOWNNAME":"山上區","LI":"明和里","LIN":"14鄰","STREET":" ","SECT":" ","MAREA":"明和","LANE":" ","ALLEY":" ","HOUSE_NO":"２１０號","E_COORD97":183445.54000000001,"N_COORD97":2556263.25,"ADDRESS":"明和２１０號","OBJECTID":39249},"geometry":{"x":183445.54000000004,"y":2556263.2500000019}},{"attributes":{"ID":39250,"DIS_CODE":0,"TOWNNAME":"東山區","LI":"青山里","LIN":"7鄰","STREET":" ","SECT":" ","MAREA":"青山","LANE":" ","ALLEY":" ","HOUSE_NO":"５８號之１","E_COORD97":196166.45000000001,"N_COORD97":2575461.6600000001,"ADDRESS":"青山５８號之１","OBJECTID":39250},"geometry":{"x":196166.45000000112,"y":2575461.6600000001}},{"attributes":{"ID":39251,"DIS_CODE":0,"TOWNNAME":"東山區","LI":"青山里","LIN":"7鄰","STREET":" ","SECT":" ","MAREA":"青山","LANE":" ","ALLEY":" ","HOUSE_NO":"５８之２號","E_COORD97":196130.63,"N_COORD97":2575485.02,"ADDRESS":"青山５８之２號","OBJECTID":39251},"geometry":{"x":196130.63000000082,"y":2575485.0199999996}},{"attributes":{"ID":39252,"DIS_CODE":0,"TOWNNAME":"東山區","LI":"青山里","LIN":"7鄰","STREET":" ","SECT":" ","MAREA":"青山","LANE":" ","ALLEY":" ","HOUSE_NO":"５８之３號","E_COORD97":196129.04000000001,"N_COORD97":2575498.1299999999,"ADDRESS":"青山５８之３號","OBJECTID":39252},"geometry":{"x":196129.04000000004,"y":2575498.129999999}},{"attributes":{"ID":39253,"DIS_CODE":0,"TOWNNAME":"東山區","LI":"青山里","LIN":"7鄰","STREET":" ","SECT":" ","MAREA":"青山","LANE":" ","ALLEY":" ","HOUSE_NO":"５８號","E_COORD97":195984.20999999999,"N_COORD97":2575474.6699999999,"ADDRESS":"青山５８號","OBJECTID":39253},"geometry":{"x":195984.21000000183,"y":2575474.6699999999}},{"attributes":{"ID":39254,"DIS_CODE":0,"TOWNNAME":"東山區","LI":"青山里","LIN":"7鄰","STREET":" ","SECT":" ","MAREA":"青山","LANE":" ","ALLEY":" ","HOUSE_NO":"５９號之１","E_COORD97":196329.04999999999,"N_COORD97":2575484.96,"ADDRESS":"青山５９號之１","OBJECTID":39254},"geometry":{"x":196329.04999999888,"y":2575484.9600000046}},{"attributes":{"ID":39255,"DIS_CODE":0,"TOWNNAME":"東山區","LI":"青山里","LIN":"7鄰","STREET":" ","SECT":" ","MAREA":"青山","LANE":" ","ALLEY":" ","HOUSE_NO":"５９號之２","E_COORD97":196354.85000000001,"N_COORD97":2575494.2599999998,"ADDRESS":"青山５９號之２","OBJECTID":39255},"geometry":{"x":196354.85000000056,"y":2575494.2599999998}},{"attributes":{"ID":39256,"DIS_CODE":0,"TOWNNAME":"安南區","LI":"安富里","LIN":"7鄰","STREET":"郡安路","SECT":"五段","MAREA":" ","LANE":"１８４巷","ALLEY":"８０弄","HOUSE_NO":"３５號","E_COORD97":167375.13,"N_COORD97":2547516.7599999998,"ADDRESS":"郡安路五段１８４巷８０弄３５號","OBJECTID":39256},"geometry":{"x":167375.13000000082,"y":2547516.7599999998}},{"attributes":{"ID":39257,"DIS_CODE":0,"TOWNNAME":"安南區","LI":"安富里","LIN":"7鄰","STREET":"郡安路","SECT":"五段","MAREA":" ","LANE":"１８４巷","ALLEY":"８０弄","HOUSE_NO":"３７號","E_COORD97":167369.07000000001,"N_COORD97":2547515.02,"ADDRESS":"郡安路五段１８４巷８０弄３７號","OBJECTID":39257},"geometry":{"x":167369.07000000216,"y":2547515.0199999996}},{"attributes":{"ID":39258,"DIS_CODE":0,"TOWNNAME":"安南區","LI":"安富里","LIN":"7鄰","STREET":"郡安路","SECT":"五段","MAREA":" ","LANE":"１８４巷","ALLEY":"８０弄","HOUSE_NO":"３８號","E_COORD97":167364.95000000001,"N_COORD97":2547534.2799999998,"ADDRESS":"郡安路五段１８４巷８０弄３８號","OBJECTID":39258},"geometry":{"x":167364.95000000112,"y":2547534.2800000031}},{"attributes":{"ID":39259,"DIS_CODE":0,"TOWNNAME":"安南區","LI":"安富里","LIN":"7鄰","STREET":"郡安路","SECT":"五段","MAREA":" ","LANE":"１８４巷","ALLEY":"８０弄","HOUSE_NO":"３９號","E_COORD97":167361.26000000001,"N_COORD97":2547513.29,"ADDRESS":"郡安路五段１８４巷８０弄３９號","OBJECTID":39259},"geometry":{"x":167361.25999999978,"y":2547513.2900000028}},{"attributes":{"ID":39260,"DIS_CODE":0,"TOWNNAME":"安南區","LI":"安富里","LIN":"7鄰","STREET":"郡安路","SECT":"五段","MAREA":" ","LANE":"１８４巷","ALLEY":"８０弄","HOUSE_NO":"４１號","E_COORD97":167354.32999999999,"N_COORD97":2547511.3500000001,"ADDRESS":"郡安路五段１８４巷８０弄４１號","OBJECTID":39260},"geometry":{"x":167354.33000000007,"y":2547511.3500000015}},{"attributes":{"ID":39261,"DIS_CODE":0,"TOWNNAME":"安南區","LI":"安富里","LIN":"7鄰","STREET":"郡安路","SECT":"五段","MAREA":" ","LANE":"１８４巷","ALLEY":"８０弄","HOUSE_NO":"４２號","E_COORD97":167350.20999999999,"N_COORD97":2547530.8199999998,"ADDRESS":"郡安路五段１８４巷８０弄４２號","OBJECTID":39261},"geometry":{"x":167350.20999999996,"y":2547530.8200000003}},{"attributes":{"ID":39262,"DIS_CODE":0,"TOWNNAME":"安南區","LI":"安富里","LIN":"7鄰","STREET":"郡安路","SECT":"五段","MAREA":" ","LANE":"１８４巷","ALLEY":"８０弄","HOUSE_NO":"４３號","E_COORD97":167344.79999999999,"N_COORD97":2547509.8300000001,"ADDRESS":"郡安路五段１８４巷８０弄４３號","OBJECTID":39262},"geometry":{"x":167344.80000000168,"y":2547509.8300000001}},{"attributes":{"ID":39263,"DIS_CODE":0,"TOWNNAME":"安南區","LI":"安富里","LIN":"7鄰","STREET":"郡安路","SECT":"五段","MAREA":" ","LANE":"１８４巷","ALLEY":"８０弄","HOUSE_NO":"４４號","E_COORD97":167340.67999999999,"N_COORD97":2547528.4399999999,"ADDRESS":"郡安路五段１８４巷８０弄４４號","OBJECTID":39263},"geometry":{"x":167340.68000000063,"y":2547528.4399999995}},{"attributes":{"ID":39264,"DIS_CODE":0,"TOWNNAME":"安南區","LI":"安富里","LIN":"7鄰","STREET":"郡安路","SECT":"五段","MAREA":" ","LANE":"１８４巷","ALLEY":"８０弄","HOUSE_NO":"４６號","E_COORD97":167333.73999999999,"N_COORD97":2547527.79,"ADDRESS":"郡安路五段１８４巷８０弄４６號","OBJECTID":39264},"geometry":{"x":167333.74000000209,"y":2547527.790000001}},{"attributes":{"ID":39265,"DIS_CODE":0,"TOWNNAME":"安南區","LI":"安富里","LIN":"7鄰","STREET":"郡安路","SECT":"五段","MAREA":" ","LANE":"１８４巷","ALLEY":"８０弄","HOUSE_NO":"４８號","E_COORD97":167328.54000000001,"N_COORD97":2547524.54,"ADDRESS":"郡安路五段１８４巷８０弄４８號","OBJECTID":39265},"geometry":{"x":167328.54000000097,"y":2547524.5399999991}},{"attributes":{"ID":39266,"DIS_CODE":0,"TOWNNAME":"安南區","LI":"安富里","LIN":"7鄰","STREET":"郡安路","SECT":"五段","MAREA":" ","LANE":"１８４巷","ALLEY":"８０弄","HOUSE_NO":"４號","E_COORD97":167477.01000000001,"N_COORD97":2547556.75,"ADDRESS":"郡安路五段１８４巷８０弄４號","OBJECTID":39266},"geometry":{"x":167477.00999999978,"y":2547556.7500000019}},{"attributes":{"ID":39267,"DIS_CODE":0,"TOWNNAME":"安南區","LI":"安富里","LIN":"7鄰","STREET":"郡安路","SECT":"五段","MAREA":" ","LANE":"１８４巷","ALLEY":"８０弄","HOUSE_NO":"５０號","E_COORD97":167324.64000000001,"N_COORD97":2547526.2799999998,"ADDRESS":"郡安路五段１８４巷８０弄５０號","OBJECTID":39267},"geometry":{"x":167324.63999999966,"y":2547526.2799999993}},{"attributes":{"ID":39268,"DIS_CODE":0,"TOWNNAME":"安南區","LI":"安富里","LIN":"7鄰","STREET":"郡安路","SECT":"五段","MAREA":" ","LANE":"１８４巷","ALLEY":"８０弄","HOUSE_NO":"５１號","E_COORD97":167323.13,"N_COORD97":2547505.0699999998,"ADDRESS":"郡安路五段１８４巷８０弄５１號","OBJECTID":39268},"geometry":{"x":167323.13000000082,"y":2547505.0700000003}},{"attributes":{"ID":39269,"DIS_CODE":0,"TOWNNAME":"南區","LI":"喜北里","LIN":"14鄰","STREET":"喜樹路","SECT":" ","MAREA":" ","LANE":"２２２巷","ALLEY":" ","HOUSE_NO":"２０號","E_COORD97":165675.03,"N_COORD97":2538081.6699999999,"ADDRESS":"喜樹路２２２巷２０號","OBJECTID":39269},"geometry":{"x":165675.03000000026,"y":2538081.6699999999}},{"attributes":{"ID":39270,"DIS_CODE":0,"TOWNNAME":"永康區","LI":"埔園里","LIN":"14鄰","STREET":"中山路","SECT":" ","MAREA":" ","LANE":" ","ALLEY":" ","HOUSE_NO":"２６５號","E_COORD97":173642.56,"N_COORD97":2548216.25,"ADDRESS":"中山路２６５號","OBJECTID":39270},"geometry":{"x":173642.56000000052,"y":2548216.2499999981}},{"attributes":{"ID":39271,"DIS_CODE":0,"TOWNNAME":"永康區","LI":"東橋里","LIN":"14鄰","STREET":"中山南路","SECT":" ","MAREA":" ","LANE":" ","ALLEY":" ","HOUSE_NO":"３１５號","E_COORD97":171863.39999999999,"N_COORD97":2546354.5600000001,"ADDRESS":"中山南路３１５號","OBJECTID":39271},"geometry":{"x":171863.40000000037,"y":2546354.5600000024}},{"attributes":{"ID":39272,"DIS_CODE":0,"TOWNNAME":"永康區","LI":"東橋里","LIN":"14鄰","STREET":"東橋二街","SECT":" ","MAREA":" ","LANE":" ","ALLEY":" ","HOUSE_NO":"８２號","E_COORD97":171737.23999999999,"N_COORD97":2546464.1499999999,"ADDRESS":"東橋二街８２號","OBJECTID":39272},"geometry":{"x":171737.24000000022,"y":2546464.1500000004}},{"attributes":{"ID":39273,"DIS_CODE":0,"TOWNNAME":"永康區","LI":"南灣里","LIN":"14鄰","STREET":"大灣路","SECT":" ","MAREA":" ","LANE":" ","ALLEY":" ","HOUSE_NO":"６０４號","E_COORD97":174591.70000000001,"N_COORD97":2544636.3300000001,"ADDRESS":"大灣路６０４號","OBJECTID":39273},"geometry":{"x":174591.70000000112,"y":2544636.3300000019}},{"attributes":{"ID":39274,"DIS_CODE":0,"TOWNNAME":"永康區","LI":"東橋里","LIN":"14鄰","STREET":"中山南路","SECT":" ","MAREA":" ","LANE":" ","ALLEY":" ","HOUSE_NO":"２９３號","E_COORD97":171813.94,"N_COORD97":2546320.75,"ADDRESS":"中山南路２９３號","OBJECTID":39274},"geometry":{"x":171813.94000000041,"y":2546320.75}},{"attributes":{"ID":39275,"DIS_CODE":0,"TOWNNAME":"永康區","LI":"南灣里","LIN":"14鄰","STREET":"大灣路","SECT":" ","MAREA":" ","LANE":" ","ALLEY":" ","HOUSE_NO":"６４０號之５","E_COORD97":174481.75,"N_COORD97":2544602.7999999998,"ADDRESS":"大灣路６４０號之５","OBJECTID":39275},"geometry":{"x":174481.75,"y":2544602.8000000045}},{"attributes":{"ID":39276,"DIS_CODE":0,"TOWNNAME":"永康區","LI":"東橋里","LIN":"14鄰","STREET":"中山南路","SECT":" ","MAREA":" ","LANE":" ","ALLEY":" ","HOUSE_NO":"２６３號","E_COORD97":171769.54999999999,"N_COORD97":2546290.9700000002,"ADDRESS":"中山南路２６３號","OBJECTID":39276},"geometry":{"x":171769.55000000075,"y":2546290.9700000025}},{"attributes":{"ID":39277,"DIS_CODE":0,"TOWNNAME":"新營區","LI":"大宏里","LIN":"17鄰","STREET":"三民路","SECT":" ","MAREA":" ","LANE":" ","ALLEY":" ","HOUSE_NO":"４６之１２號","E_COORD97":180346.14999999999,"N_COORD97":2578536.8199999998,"ADDRESS":"三民路４６之１２號","OBJECTID":39277},"geometry":{"x":180346.15000000037,"y":2578536.8200000022}},{"attributes":{"ID":39278,"DIS_CODE":0,"TOWNNAME":"北區","LI":"國姓里","LIN":"8鄰","STREET":"小北路","SECT":" ","MAREA":" ","LANE":" ","ALLEY":" ","HOUSE_NO":"５３號之２","E_COORD97":168837.57999999999,"N_COORD97":2545290.54,"ADDRESS":"小北路５３號之２","OBJECTID":39278},"geometry":{"x":168837.58000000007,"y":2545290.5399999991}},{"attributes":{"ID":39279,"DIS_CODE":0,"TOWNNAME":"北區","LI":"國姓里","LIN":"8鄰","STREET":"小北路","SECT":" ","MAREA":" ","LANE":" ","ALLEY":" ","HOUSE_NO":"５７號","E_COORD97":168859.32000000001,"N_COORD97":2545300.3799999999,"ADDRESS":"小北路５７號","OBJECTID":39279},"geometry":{"x":168859.32000000123,"y":2545300.3800000008}},{"attributes":{"ID":39280,"DIS_CODE":0,"TOWNNAME":"安南區","LI":"安富里","LIN":"7鄰","STREET":"郡安路","SECT":"五段","MAREA":" ","LANE":"１８４巷","ALLEY":"８０弄","HOUSE_NO":"５３號","E_COORD97":167318.57999999999,"N_COORD97":2547503.77,"ADDRESS":"郡安路五段１８４巷８０弄５３號","OBJECTID":39280},"geometry":{"x":167318.58000000101,"y":2547503.7700000033}},{"attributes":{"ID":39281,"DIS_CODE":0,"TOWNNAME":"安南區","LI":"安富里","LIN":"7鄰","STREET":"郡安路","SECT":"五段","MAREA":" ","LANE":"１８４巷","ALLEY":"８０弄","HOUSE_NO":"５６號","E_COORD97":167309.26000000001,"N_COORD97":2547522.6000000001,"ADDRESS":"郡安路五段１８４巷８０弄５６號","OBJECTID":39281},"geometry":{"x":167309.25999999978,"y":2547522.6000000015}},{"attributes":{"ID":39282,"DIS_CODE":0,"TOWNNAME":"安南區","LI":"安富里","LIN":"7鄰","STREET":"郡安路","SECT":"五段","MAREA":" ","LANE":"１８４巷","ALLEY":"８０弄","HOUSE_NO":"５８號","E_COORD97":167305.14000000001,"N_COORD97":2547521.0800000001,"ADDRESS":"郡安路五段１８４巷８０弄５８號","OBJECTID":39282},"geometry":{"x":167305.14000000153,"y":2547521.0800000001}},{"attributes":{"ID":39283,"DIS_CODE":0,"TOWNNAME":"山上區","LI":"南洲里","LIN":"14鄰","STREET":" ","SECT":" ","MAREA":"南洲","LANE":" ","ALLEY":" ","HOUSE_NO":"２４３號","E_COORD97":183733.64000000001,"N_COORD97":2555697.25,"ADDRESS":"南洲２４３號","OBJECTID":39283},"geometry":{"x":183733.6400000006,"y":2555697.2500000019}},{"attributes":{"ID":39284,"DIS_CODE":0,"TOWNNAME":"新市區","LI":"潭頂里","LIN":"14鄰","STREET":" ","SECT":" ","MAREA":"潭頂","LANE":" ","ALLEY":" ","HOUSE_NO":"５１２號","E_COORD97":180413.81,"N_COORD97":2552959,"ADDRESS":"潭頂５１２號","OBJECTID":39284},"geometry":{"x":180413.80999999959,"y":2552959.0000000019}},{"attributes":{"ID":39285,"DIS_CODE":0,"TOWNNAME":"新市區","LI":"潭頂里","LIN":"14鄰","STREET":" ","SECT":" ","MAREA":"潭頂","LANE":" ","ALLEY":" ","HOUSE_NO":"５４９之７號","E_COORD97":180079.10999999999,"N_COORD97":2552950.0499999998,"ADDRESS":"潭頂５４９之７號","OBJECTID":39285},"geometry":{"x":180079.1099999994,"y":2552950.0500000007}},{"attributes":{"ID":39286,"DIS_CODE":0,"TOWNNAME":"安南區","LI":"安富里","LIN":"7鄰","STREET":"郡安路","SECT":"五段","MAREA":" ","LANE":"１８４巷","ALLEY":"８０弄","HOUSE_NO":"５號","E_COORD97":167476.35000000001,"N_COORD97":2547534.9100000001,"ADDRESS":"郡安路五段１８４巷８０弄５號","OBJECTID":39286},"geometry":{"x":167476.34999999963,"y":2547534.910000002}},{"attributes":{"ID":39287,"DIS_CODE":0,"TOWNNAME":"安南區","LI":"安富里","LIN":"7鄰","STREET":"郡安路","SECT":"五段","MAREA":" ","LANE":"１８４巷","ALLEY":"８０弄","HOUSE_NO":"９號","E_COORD97":167462.26999999999,"N_COORD97":2547534.04,"ADDRESS":"郡安路五段１８４巷８０弄９號","OBJECTID":39287},"geometry":{"x":167462.27000000048,"y":2547534.0399999991}},{"attributes":{"ID":39288,"DIS_CODE":0,"TOWNNAME":"東區","LI":"富裕里","LIN":"7鄰","STREET":"裕農路","SECT":" ","MAREA":" ","LANE":"２８８巷","ALLEY":"６０弄","HOUSE_NO":"２９號","E_COORD97":170921.37,"N_COORD97":2542863.8500000001,"ADDRESS":"裕農路２８８巷６０弄２９號","OBJECTID":39288},"geometry":{"x":170921.37000000011,"y":2542863.8499999996}},{"attributes":{"ID":39289,"DIS_CODE":0,"TOWNNAME":"仁德區","LI":"田厝里","LIN":"7鄰","STREET":"中正路","SECT":"一段","MAREA":" ","LANE":"５９９巷","ALLEY":"３０弄","HOUSE_NO":"１２號之２","E_COORD97":172809.76000000001,"N_COORD97":2537922.2999999998,"ADDRESS":"中正路一段５９９巷３０弄１２號之２","OBJECTID":39289},"geometry":{"x":172809.75999999978,"y":2537922.3000000007}},{"attributes":{"ID":39290,"DIS_CODE":0,"TOWNNAME":"仁德區","LI":"成功里","LIN":"7鄰","STREET":"保華路","SECT":" ","MAREA":" ","LANE":"１２９巷","ALLEY":"４１弄","HOUSE_NO":"９號","E_COORD97":171144.57999999999,"N_COORD97":2539909.5,"ADDRESS":"保華路１２９巷４１弄９號","OBJECTID":39290},"geometry":{"x":171144.58000000101,"y":2539909.5000000019}},{"attributes":{"ID":39291,"DIS_CODE":0,"TOWNNAME":"仁德區","LI":"成功里","LIN":"7鄰","STREET":"保華路","SECT":" ","MAREA":" ","LANE":"１２９巷","ALLEY":"６５弄","HOUSE_NO":"１號","E_COORD97":171127.26000000001,"N_COORD97":2539845.7400000002,"ADDRESS":"保華路１２９巷６５弄１號","OBJECTID":39291},"geometry":{"x":171127.26000000071,"y":2539845.7399999984}},{"attributes":{"ID":39292,"DIS_CODE":0,"TOWNNAME":"永康區","LI":"五王里","LIN":"7鄰","STREET":"中華二路","SECT":" ","MAREA":" ","LANE":"２０６巷","ALLEY":"６８弄","HOUSE_NO":"７６號","E_COORD97":171694.32000000001,"N_COORD97":2545669,"ADDRESS":"中華二路２０６巷６８弄７６號","OBJECTID":39292},"geometry":{"x":171694.3200000003,"y":2545669.0000000019}},{"attributes":{"ID":39293,"DIS_CODE":0,"TOWNNAME":"永康區","LI":"五王里","LIN":"7鄰","STREET":"中華二路","SECT":" ","MAREA":" ","LANE":"２０６巷","ALLEY":"５２弄","HOUSE_NO":"１５號","E_COORD97":171675.87,"N_COORD97":2545634.4900000002,"ADDRESS":"中華二路２０６巷５２弄１５號","OBJECTID":39293},"geometry":{"x":171675.87000000197,"y":2545634.4900000002}},{"attributes":{"ID":39294,"DIS_CODE":0,"TOWNNAME":"永康區","LI":"五王里","LIN":"7鄰","STREET":"中華二路","SECT":" ","MAREA":" ","LANE":"２０６巷","ALLEY":"５２弄","HOUSE_NO":"１３號","E_COORD97":171669.85999999999,"N_COORD97":2545631.2400000002,"ADDRESS":"中華二路２０６巷５２弄１３號","OBJECTID":39294},"geometry":{"x":171669.86000000127,"y":2545631.2400000021}},{"attributes":{"ID":39295,"DIS_CODE":0,"TOWNNAME":"永康區","LI":"中興里","LIN":"7鄰","STREET":"中山東路","SECT":" ","MAREA":" ","LANE":"４７２巷","ALLEY":"２弄","HOUSE_NO":"２６號","E_COORD97":171935.69,"N_COORD97":2545103.75,"ADDRESS":"中山東路４７２巷２弄２６號","OBJECTID":39295},"geometry":{"x":171935.69000000134,"y":2545103.75}},{"attributes":{"ID":39296,"DIS_CODE":0,"TOWNNAME":"永康區","LI":"崑山里","LIN":"7鄰","STREET":"崑大路","SECT":" ","MAREA":" ","LANE":"１５５巷","ALLEY":"１６８弄","HOUSE_NO":"５６號","E_COORD97":173459.03,"N_COORD97":2543677.7400000002,"ADDRESS":"崑大路１５５巷１６８弄５６號","OBJECTID":39296},"geometry":{"x":173459.03000000119,"y":2543677.7400000021}},{"attributes":{"ID":39297,"DIS_CODE":0,"TOWNNAME":"永康區","LI":"勝利里","LIN":"7鄰","STREET":"勝利街","SECT":" ","MAREA":" ","LANE":"２２巷","ALLEY":"２３弄","HOUSE_NO":"２號","E_COORD97":171247.75,"N_COORD97":2544645.7599999998,"ADDRESS":"勝利街２２巷２３弄２號","OBJECTID":39297},"geometry":{"x":171247.75000000186,"y":2544645.7599999998}},{"attributes":{"ID":39298,"DIS_CODE":0,"TOWNNAME":"永康區","LI":"崑山里","LIN":"7鄰","STREET":"崑大路","SECT":" ","MAREA":" ","LANE":"２０２巷","ALLEY":" ","HOUSE_NO":"７號","E_COORD97":173535.94,"N_COORD97":2544337.2599999998,"ADDRESS":"崑大路２０２巷７號","OBJECTID":39298},"geometry":{"x":173535.94000000134,"y":2544337.2599999998}},{"attributes":{"ID":39299,"DIS_CODE":0,"TOWNNAME":"永康區","LI":"勝利里","LIN":"7鄰","STREET":"勝利街","SECT":" ","MAREA":" ","LANE":"２２巷","ALLEY":"２３弄","HOUSE_NO":"３號","E_COORD97":171243.92999999999,"N_COORD97":2544637.75,"ADDRESS":"勝利街２２巷２３弄３號","OBJECTID":39299},"geometry":{"x":171243.9299999997,"y":2544637.7500000019}},{"attributes":{"ID":39300,"DIS_CODE":0,"TOWNNAME":"新市區","LI":"潭頂里","LIN":"14鄰","STREET":" ","SECT":" ","MAREA":"潭頂","LANE":" ","ALLEY":" ","HOUSE_NO":"５０３號","E_COORD97":180499.70000000001,"N_COORD97":2552930.5,"ADDRESS":"潭頂５０３號","OBJECTID":39300},"geometry":{"x":180499.70000000112,"y":2552930.4999999981}},{"attributes":{"ID":39301,"DIS_CODE":0,"TOWNNAME":"新市區","LI":"潭頂里","LIN":"14鄰","STREET":" ","SECT":" ","MAREA":"潭頂","LANE":" ","ALLEY":" ","HOUSE_NO":"５４１號","E_COORD97":180117.34,"N_COORD97":2552859,"ADDRESS":"潭頂５４１號","OBJECTID":39301},"geometry":{"x":180117.33999999985,"y":2552859}},{"attributes":{"ID":39302,"DIS_CODE":0,"TOWNNAME":"東山區","LI":"青山里","LIN":"7鄰","STREET":" ","SECT":" ","MAREA":"青山","LANE":" ","ALLEY":" ","HOUSE_NO":"６０號","E_COORD97":196382.76999999999,"N_COORD97":2575514.9900000002,"ADDRESS":"青山６０號","OBJECTID":39302},"geometry":{"x":196382.76999999955,"y":2575514.9900000021}},{"attributes":{"ID":39303,"DIS_CODE":0,"TOWNNAME":"新市區","LI":"潭頂里","LIN":"14鄰","STREET":" ","SECT":" ","MAREA":"潭頂","LANE":" ","ALLEY":" ","HOUSE_NO":"５４９之２號","E_COORD97":180084.85999999999,"N_COORD97":2552925.5499999998,"ADDRESS":"潭頂５４９之２號","OBJECTID":39303},"geometry":{"x":180084.86000000127,"y":2552925.5500000026}},{"attributes":{"ID":39304,"DIS_CODE":0,"TOWNNAME":"新市區","LI":"潭頂里","LIN":"14鄰","STREET":" ","SECT":" ","MAREA":"潭頂","LANE":" ","ALLEY":" ","HOUSE_NO":"５３８之１０號","E_COORD97":180171.17000000001,"N_COORD97":2552859.5499999998,"ADDRESS":"潭頂５３８之１０號","OBJECTID":39304},"geometry":{"x":180171.16999999993,"y":2552859.5500000007}},{"attributes":{"ID":39305,"DIS_CODE":0,"TOWNNAME":"新市區","LI":"潭頂里","LIN":"14鄰","STREET":" ","SECT":" ","MAREA":"潭頂","LANE":" ","ALLEY":" ","HOUSE_NO":"５１１之３號","E_COORD97":180439,"N_COORD97":2552961.7999999998,"ADDRESS":"潭頂５１１之３號","OBJECTID":39305},"geometry":{"x":180439.00000000186,"y":2552961.8000000007}},{"attributes":{"ID":39306,"DIS_CODE":0,"TOWNNAME":"新市區","LI":"潭頂里","LIN":"14鄰","STREET":" ","SECT":" ","MAREA":"潭頂","LANE":" ","ALLEY":" ","HOUSE_NO":"５３７之１號","E_COORD97":180197.53,"N_COORD97":2552831.0499999998,"ADDRESS":"潭頂５３７之１號","OBJECTID":39306},"geometry":{"x":180197.53000000026,"y":2552831.0500000026}},{"attributes":{"ID":39307,"DIS_CODE":0,"TOWNNAME":"永康區","LI":"勝利里","LIN":"7鄰","STREET":"勝利街","SECT":" ","MAREA":" ","LANE":"２２巷","ALLEY":"５弄","HOUSE_NO":"９號","E_COORD97":171240,"N_COORD97":2544594.23,"ADDRESS":"勝利街２２巷５弄９號","OBJECTID":39307},"geometry":{"x":171240.00000000093,"y":2544594.2300000023}},{"attributes":{"ID":39308,"DIS_CODE":0,"TOWNNAME":"東山區","LI":"青山里","LIN":"7鄰","STREET":" ","SECT":" ","MAREA":"青山","LANE":" ","ALLEY":" ","HOUSE_NO":"６１號之１","E_COORD97":196429.28,"N_COORD97":2575510.75,"ADDRESS":"青山６１號之１","OBJECTID":39308},"geometry":{"x":196429.28000000026,"y":2575510.75}},{"attributes":{"ID":39309,"DIS_CODE":0,"TOWNNAME":"東山區","LI":"青山里","LIN":"7鄰","STREET":" ","SECT":" ","MAREA":"青山","LANE":" ","ALLEY":" ","HOUSE_NO":"６１號之３","E_COORD97":196443.60000000001,"N_COORD97":2575556.8999999999,"ADDRESS":"青山６１號之３","OBJECTID":39309},"geometry":{"x":196443.59999999963,"y":2575556.9000000022}},{"attributes":{"ID":39310,"DIS_CODE":0,"TOWNNAME":"東山區","LI":"青山里","LIN":"7鄰","STREET":" ","SECT":" ","MAREA":"青山","LANE":" ","ALLEY":" ","HOUSE_NO":"６２號","E_COORD97":196460.26999999999,"N_COORD97":2575531.4399999999,"ADDRESS":"青山６２號","OBJECTID":39310},"geometry":{"x":196460.27000000048,"y":2575531.4400000013}},{"attributes":{"ID":39311,"DIS_CODE":0,"TOWNNAME":"東山區","LI":"青山里","LIN":"7鄰","STREET":" ","SECT":" ","MAREA":"青山","LANE":" ","ALLEY":" ","HOUSE_NO":"６４號","E_COORD97":196518.94,"N_COORD97":2575598.0699999998,"ADDRESS":"青山６４號","OBJECTID":39311},"geometry":{"x":196518.94000000134,"y":2575598.0700000003}},{"attributes":{"ID":39312,"DIS_CODE":0,"TOWNNAME":"東山區","LI":"青山里","LIN":"7鄰","STREET":" ","SECT":" ","MAREA":"青山","LANE":" ","ALLEY":" ","HOUSE_NO":"６５號","E_COORD97":196613.47,"N_COORD97":2575574.96,"ADDRESS":"青山６５號","OBJECTID":39312},"geometry":{"x":196613.47000000067,"y":2575574.9600000009}},{"attributes":{"ID":39313,"DIS_CODE":0,"TOWNNAME":"東山區","LI":"青山里","LIN":"7鄰","STREET":" ","SECT":" ","MAREA":"青山","LANE":" ","ALLEY":" ","HOUSE_NO":"６６號","E_COORD97":196649.73000000001,"N_COORD97":2575620,"ADDRESS":"青山６６號","OBJECTID":39313},"geometry":{"x":196649.73000000138,"y":2575620.0000000019}},{"attributes":{"ID":39314,"DIS_CODE":0,"TOWNNAME":"東山區","LI":"青山里","LIN":"7鄰","STREET":" ","SECT":" ","MAREA":"青山","LANE":" ","ALLEY":" ","HOUSE_NO":"６７號","E_COORD97":196582.37,"N_COORD97":2575633.0499999998,"ADDRESS":"青山６７號","OBJECTID":39314},"geometry":{"x":196582.37000000104,"y":2575633.0499999989}},{"attributes":{"ID":39315,"DIS_CODE":0,"TOWNNAME":"東山區","LI":"東原里","LIN":"7鄰","STREET":" ","SECT":" ","MAREA":"前大埔","LANE":" ","ALLEY":" ","HOUSE_NO":"７５號之２","E_COORD97":193123.45999999999,"N_COORD97":2573668.8999999999,"ADDRESS":"前大埔７５號之２","OBJECTID":39315},"geometry":{"x":193123.46000000089,"y":2573668.9000000022}},{"attributes":{"ID":39316,"DIS_CODE":0,"TOWNNAME":"東山區","LI":"東原里","LIN":"7鄰","STREET":" ","SECT":" ","MAREA":"前大埔","LANE":" ","ALLEY":" ","HOUSE_NO":"７５號之４","E_COORD97":193114.69,"N_COORD97":2573673.2999999998,"ADDRESS":"前大埔７５號之４","OBJECTID":39316},"geometry":{"x":193114.68999999948,"y":2573673.3000000026}},{"attributes":{"ID":39317,"DIS_CODE":0,"TOWNNAME":"東山區","LI":"東原里","LIN":"7鄰","STREET":" ","SECT":" ","MAREA":"前大埔","LANE":" ","ALLEY":" ","HOUSE_NO":"７６號之２","E_COORD97":193144.82999999999,"N_COORD97":2573657.27,"ADDRESS":"前大埔７６號之２","OBJECTID":39317},"geometry":{"x":193144.83000000101,"y":2573657.2700000033}},{"attributes":{"ID":39318,"DIS_CODE":0,"TOWNNAME":"東山區","LI":"東原里","LIN":"7鄰","STREET":" ","SECT":" ","MAREA":"前大埔","LANE":" ","ALLEY":" ","HOUSE_NO":"７６號","E_COORD97":193156.82000000001,"N_COORD97":2573657.6899999999,"ADDRESS":"前大埔７６號","OBJECTID":39318},"geometry":{"x":193156.82000000123,"y":2573657.6900000032}},{"attributes":{"ID":39319,"DIS_CODE":0,"TOWNNAME":"東山區","LI":"東原里","LIN":"7鄰","STREET":" ","SECT":" ","MAREA":"前大埔","LANE":" ","ALLEY":" ","HOUSE_NO":"７７號","E_COORD97":193161.28,"N_COORD97":2573656.2400000002,"ADDRESS":"前大埔７７號","OBJECTID":39319},"geometry":{"x":193161.28000000026,"y":2573656.2400000021}},{"attributes":{"ID":39320,"DIS_CODE":0,"TOWNNAME":"東山區","LI":"東原里","LIN":"7鄰","STREET":" ","SECT":" ","MAREA":"前大埔","LANE":" ","ALLEY":" ","HOUSE_NO":"７８號之１","E_COORD97":193187.29000000001,"N_COORD97":2573651.7599999998,"ADDRESS":"前大埔７８號之１","OBJECTID":39320},"geometry":{"x":193187.29000000097,"y":2573651.7600000016}},{"attributes":{"ID":39321,"DIS_CODE":0,"TOWNNAME":"東山區","LI":"東原里","LIN":"7鄰","STREET":" ","SECT":" ","MAREA":"前大埔","LANE":" ","ALLEY":" ","HOUSE_NO":"７８號之２","E_COORD97":193192.17999999999,"N_COORD97":2573650.8399999999,"ADDRESS":"前大埔７８號之２","OBJECTID":39321},"geometry":{"x":193192.18000000156,"y":2573650.8400000017}},{"attributes":{"ID":39322,"DIS_CODE":0,"TOWNNAME":"東山區","LI":"東原里","LIN":"7鄰","STREET":" ","SECT":" ","MAREA":"前大埔","LANE":" ","ALLEY":" ","HOUSE_NO":"７８號之３","E_COORD97":193170.79000000001,"N_COORD97":2573660.4300000002,"ADDRESS":"前大埔７８號之３","OBJECTID":39322},"geometry":{"x":193170.79000000004,"y":2573660.4300000016}},{"attributes":{"ID":39323,"DIS_CODE":0,"TOWNNAME":"東山區","LI":"東原里","LIN":"7鄰","STREET":" ","SECT":" ","MAREA":"前大埔","LANE":" ","ALLEY":" ","HOUSE_NO":"７８號","E_COORD97":193182.12,"N_COORD97":2573652.8999999999,"ADDRESS":"前大埔７８號","OBJECTID":39323},"geometry":{"x":193182.12000000011,"y":2573652.9000000004}},{"attributes":{"ID":39324,"DIS_CODE":0,"TOWNNAME":"東山區","LI":"東原里","LIN":"7鄰","STREET":" ","SECT":" ","MAREA":"前大埔","LANE":" ","ALLEY":" ","HOUSE_NO":"８０號","E_COORD97":193202.34,"N_COORD97":2573648.7599999998,"ADDRESS":"前大埔８０號","OBJECTID":39324},"geometry":{"x":193202.33999999985,"y":2573648.7600000016}},{"attributes":{"ID":39325,"DIS_CODE":0,"TOWNNAME":"東山區","LI":"東原里","LIN":"7鄰","STREET":" ","SECT":" ","MAREA":"前大埔","LANE":" ","ALLEY":" ","HOUSE_NO":"８１號","E_COORD97":193206.73000000001,"N_COORD97":2573647.8300000001,"ADDRESS":"前大埔８１號","OBJECTID":39325},"geometry":{"x":193206.73000000138,"y":2573647.8300000019}},{"attributes":{"ID":39326,"DIS_CODE":0,"TOWNNAME":"東山區","LI":"東原里","LIN":"7鄰","STREET":" ","SECT":" ","MAREA":"前大埔","LANE":" ","ALLEY":" ","HOUSE_NO":"８２號","E_COORD97":193212.85999999999,"N_COORD97":2573647.7799999998,"ADDRESS":"前大埔８２號","OBJECTID":39326},"geometry":{"x":193212.86000000034,"y":2573647.7800000012}},{"attributes":{"ID":39327,"DIS_CODE":0,"TOWNNAME":"東山區","LI":"東原里","LIN":"7鄰","STREET":" ","SECT":" ","MAREA":"前大埔","LANE":" ","ALLEY":" ","HOUSE_NO":"８３號之１","E_COORD97":193226.47,"N_COORD97":2573645.4100000001,"ADDRESS":"前大埔８３號之１","OBJECTID":39327},"geometry":{"x":193226.47000000067,"y":2573645.4100000001}},{"attributes":{"ID":39328,"DIS_CODE":0,"TOWNNAME":"東山區","LI":"東原里","LIN":"7鄰","STREET":" ","SECT":" ","MAREA":"前大埔","LANE":" ","ALLEY":" ","HOUSE_NO":"８３號","E_COORD97":193222.38,"N_COORD97":2573646.3300000001,"ADDRESS":"前大埔８３號","OBJECTID":39328},"geometry":{"x":193222.37999999989,"y":2573646.3300000001}},{"attributes":{"ID":39329,"DIS_CODE":0,"TOWNNAME":"東山區","LI":"東原里","LIN":"7鄰","STREET":" ","SECT":" ","MAREA":"前大埔","LANE":" ","ALLEY":" ","HOUSE_NO":"８５號","E_COORD97":193236.06,"N_COORD97":2573644.5499999998,"ADDRESS":"前大埔８５號","OBJECTID":39329},"geometry":{"x":193236.05999999959,"y":2573644.5500000026}},{"attributes":{"ID":39330,"DIS_CODE":0,"TOWNNAME":"東山區","LI":"東原里","LIN":"7鄰","STREET":" ","SECT":" ","MAREA":"前大埔","LANE":" ","ALLEY":" ","HOUSE_NO":"８６號","E_COORD97":193241.32999999999,"N_COORD97":2573642.9100000001,"ADDRESS":"前大埔８６號","OBJECTID":39330},"geometry":{"x":193241.33000000101,"y":2573642.9100000001}},{"attributes":{"ID":39331,"DIS_CODE":0,"TOWNNAME":"東山區","LI":"東原里","LIN":"7鄰","STREET":" ","SECT":" ","MAREA":"前大埔","LANE":" ","ALLEY":" ","HOUSE_NO":"８７號","E_COORD97":193245.29000000001,"N_COORD97":2573639.1299999999,"ADDRESS":"前大埔８７號","OBJECTID":39331},"geometry":{"x":193245.29000000004,"y":2573639.129999999}},{"attributes":{"ID":39332,"DIS_CODE":0,"TOWNNAME":"東山區","LI":"科里里","LIN":"7鄰","STREET":" ","SECT":" ","MAREA":"科里","LANE":" ","ALLEY":" ","HOUSE_NO":"１８號","E_COORD97":189881.51999999999,"N_COORD97":2578307.5299999998,"ADDRESS":"科里１８號","OBJECTID":39332},"geometry":{"x":189881.51999999955,"y":2578307.5300000012}},{"attributes":{"ID":39333,"DIS_CODE":0,"TOWNNAME":"東山區","LI":"科里里","LIN":"7鄰","STREET":" ","SECT":" ","MAREA":"科里","LANE":" ","ALLEY":" ","HOUSE_NO":"２０號","E_COORD97":189909.92999999999,"N_COORD97":2578284.6699999999,"ADDRESS":"科里２０號","OBJECTID":39333},"geometry":{"x":189909.9299999997,"y":2578284.6699999999}},{"attributes":{"ID":39334,"DIS_CODE":0,"TOWNNAME":"東山區","LI":"科里里","LIN":"7鄰","STREET":" ","SECT":" ","MAREA":"科里","LANE":" ","ALLEY":" ","HOUSE_NO":"２２號之１","E_COORD97":189924.72,"N_COORD97":2578312.3599999999,"ADDRESS":"科里２２號之１","OBJECTID":39334},"geometry":{"x":189924.71999999974,"y":2578312.3600000013}},{"attributes":{"ID":39335,"DIS_CODE":0,"TOWNNAME":"東山區","LI":"科里里","LIN":"7鄰","STREET":" ","SECT":" ","MAREA":"科里","LANE":" ","ALLEY":" ","HOUSE_NO":"２２號","E_COORD97":189904.29999999999,"N_COORD97":2578325.6099999999,"ADDRESS":"科里２２號","OBJECTID":39335},"geometry":{"x":189904.29999999888,"y":2578325.6099999994}},{"attributes":{"ID":39336,"DIS_CODE":0,"TOWNNAME":"東山區","LI":"科里里","LIN":"7鄰","STREET":" ","SECT":" ","MAREA":"科里","LANE":" ","ALLEY":" ","HOUSE_NO":"２７號之１","E_COORD97":189951.98999999999,"N_COORD97":2578278.75,"ADDRESS":"科里２７號之１","OBJECTID":39336},"geometry":{"x":189951.99000000022,"y":2578278.7499999981}},{"attributes":{"ID":39337,"DIS_CODE":0,"TOWNNAME":"東山區","LI":"科里里","LIN":"7鄰","STREET":" ","SECT":" ","MAREA":"科里","LANE":" ","ALLEY":" ","HOUSE_NO":"２７號","E_COORD97":189934.73999999999,"N_COORD97":2578293.8999999999,"ADDRESS":"科里２７號","OBJECTID":39337},"geometry":{"x":189934.74000000115,"y":2578293.9000000004}},{"attributes":{"ID":39338,"DIS_CODE":0,"TOWNNAME":"東山區","LI":"科里里","LIN":"7鄰","STREET":" ","SECT":" ","MAREA":"科里","LANE":" ","ALLEY":" ","HOUSE_NO":"２８號","E_COORD97":189963.19,"N_COORD97":2578297.5699999998,"ADDRESS":"科里２８號","OBJECTID":39338},"geometry":{"x":189963.19000000041,"y":2578297.570000004}},{"attributes":{"ID":39339,"DIS_CODE":0,"TOWNNAME":"東山區","LI":"科里里","LIN":"7鄰","STREET":" ","SECT":" ","MAREA":"科里","LANE":" ","ALLEY":" ","HOUSE_NO":"３０號","E_COORD97":189999.28,"N_COORD97":2578294.7999999998,"ADDRESS":"科里３０號","OBJECTID":39339},"geometry":{"x":189999.28000000026,"y":2578294.8000000007}},{"attributes":{"ID":39340,"DIS_CODE":0,"TOWNNAME":"麻豆區","LI":"埤頭里","LIN":"7鄰","STREET":" ","SECT":" ","MAREA":"埤頭","LANE":" ","ALLEY":" ","HOUSE_NO":"４５號之１","E_COORD97":170924.03,"N_COORD97":2565850.1400000001,"ADDRESS":"埤頭４５號之１","OBJECTID":39340},"geometry":{"x":170924.03000000212,"y":2565850.1400000006}},{"attributes":{"ID":39341,"DIS_CODE":0,"TOWNNAME":"麻豆區","LI":"埤頭里","LIN":"7鄰","STREET":" ","SECT":" ","MAREA":"埤頭","LANE":" ","ALLEY":" ","HOUSE_NO":"４５號","E_COORD97":170912.41,"N_COORD97":2565943.8599999999,"ADDRESS":"埤頭４５號","OBJECTID":39341},"geometry":{"x":170912.41000000015,"y":2565943.8600000013}},{"attributes":{"ID":39342,"DIS_CODE":0,"TOWNNAME":"麻豆區","LI":"埤頭里","LIN":"7鄰","STREET":" ","SECT":" ","MAREA":"埤頭","LANE":" ","ALLEY":" ","HOUSE_NO":"４６號之１","E_COORD97":170933.39999999999,"N_COORD97":2565939.48,"ADDRESS":"埤頭４６號之１","OBJECTID":39342},"geometry":{"x":170933.40000000224,"y":2565939.4800000004}},{"attributes":{"ID":39343,"DIS_CODE":0,"TOWNNAME":"麻豆區","LI":"埤頭里","LIN":"7鄰","STREET":" ","SECT":" ","MAREA":"埤頭","LANE":" ","ALLEY":" ","HOUSE_NO":"４６號之５","E_COORD97":170952.95999999999,"N_COORD97":2565916.9100000001,"ADDRESS":"埤頭４６號之５","OBJECTID":39343},"geometry":{"x":170952.96000000183,"y":2565916.9100000039}},{"attributes":{"ID":39344,"DIS_CODE":0,"TOWNNAME":"麻豆區","LI":"埤頭里","LIN":"7鄰","STREET":" ","SECT":" ","MAREA":"埤頭","LANE":" ","ALLEY":" ","HOUSE_NO":"４６號之６","E_COORD97":170953.66,"N_COORD97":2565908.0299999998,"ADDRESS":"埤頭４６號之６","OBJECTID":39344},"geometry":{"x":170953.66000000108,"y":2565908.0299999975}},{"attributes":{"ID":39345,"DIS_CODE":0,"TOWNNAME":"麻豆區","LI":"埤頭里","LIN":"7鄰","STREET":" ","SECT":" ","MAREA":"埤頭","LANE":" ","ALLEY":" ","HOUSE_NO":"４７號","E_COORD97":170948.31,"N_COORD97":2565995.0099999998,"ADDRESS":"埤頭４７號","OBJECTID":39345},"geometry":{"x":170948.30999999959,"y":2565995.0100000016}},{"attributes":{"ID":39346,"DIS_CODE":0,"TOWNNAME":"麻豆區","LI":"埤頭里","LIN":"7鄰","STREET":" ","SECT":" ","MAREA":"埤頭","LANE":" ","ALLEY":" ","HOUSE_NO":"４９號","E_COORD97":170943.48000000001,"N_COORD97":2566035.5,"ADDRESS":"埤頭４９號","OBJECTID":39346},"geometry":{"x":170943.48000000138,"y":2566035.5000000019}},{"attributes":{"ID":39347,"DIS_CODE":0,"TOWNNAME":"麻豆區","LI":"埤頭里","LIN":"7鄰","STREET":" ","SECT":" ","MAREA":"埤頭","LANE":" ","ALLEY":" ","HOUSE_NO":"５０號之３","E_COORD97":170891.48000000001,"N_COORD97":2565964.5800000001,"ADDRESS":"埤頭５０號之３","OBJECTID":39347},"geometry":{"x":170891.48000000045,"y":2565964.5800000019}},{"attributes":{"ID":39348,"DIS_CODE":0,"TOWNNAME":"麻豆區","LI":"埤頭里","LIN":"7鄰","STREET":" ","SECT":" ","MAREA":"埤頭","LANE":" ","ALLEY":" ","HOUSE_NO":"５０號","E_COORD97":170900.35000000001,"N_COORD97":2565979.4199999999,"ADDRESS":"埤頭５０號","OBJECTID":39348},"geometry":{"x":170900.34999999963,"y":2565979.4199999999}},{"attributes":{"ID":39349,"DIS_CODE":0,"TOWNNAME":"麻豆區","LI":"埤頭里","LIN":"7鄰","STREET":" ","SECT":" ","MAREA":"埤頭","LANE":" ","ALLEY":" ","HOUSE_NO":"５１號之１","E_COORD97":170898.01000000001,"N_COORD97":2566030.0600000001,"ADDRESS":"埤頭５１號之１","OBJECTID":39349},"geometry":{"x":170898.00999999978,"y":2566030.0600000005}},{"attributes":{"ID":39350,"DIS_CODE":0,"TOWNNAME":"麻豆區","LI":"埤頭里","LIN":"7鄰","STREET":" ","SECT":" ","MAREA":"埤頭","LANE":" ","ALLEY":" ","HOUSE_NO":"５１號之２","E_COORD97":170892.70000000001,"N_COORD97":2566015.5600000001,"ADDRESS":"埤頭５１號之２","OBJECTID":39350},"geometry":{"x":170892.70000000112,"y":2566015.5600000024}},{"attributes":{"ID":39351,"DIS_CODE":0,"TOWNNAME":"麻豆區","LI":"埤頭里","LIN":"7鄰","STREET":" ","SECT":" ","MAREA":"埤頭","LANE":" ","ALLEY":" ","HOUSE_NO":"５１號之３","E_COORD97":170892.78,"N_COORD97":2566008.6899999999,"ADDRESS":"埤頭５１號之３","OBJECTID":39351},"geometry":{"x":170892.78000000026,"y":2566008.6899999995}},{"attributes":{"ID":39352,"DIS_CODE":0,"TOWNNAME":"麻豆區","LI":"埤頭里","LIN":"7鄰","STREET":" ","SECT":" ","MAREA":"埤頭","LANE":" ","ALLEY":" ","HOUSE_NO":"５１號之５","E_COORD97":170921.51999999999,"N_COORD97":2566014.9399999999,"ADDRESS":"埤頭５１號之５","OBJECTID":39352},"geometry":{"x":170921.51999999862,"y":2566014.9400000013}},{"attributes":{"ID":39353,"DIS_CODE":0,"TOWNNAME":"鹽水區","LI":"下中里","LIN":"7鄰","STREET":" ","SECT":" ","MAREA":"下中","LANE":" ","ALLEY":" ","HOUSE_NO":"２５號","E_COORD97":172294.66,"N_COORD97":2579901.8599999999,"ADDRESS":"下中２５號","OBJECTID":39353},"geometry":{"x":172294.66000000108,"y":2579901.8600000013}},{"attributes":{"ID":39354,"DIS_CODE":0,"TOWNNAME":"鹽水區","LI":"下中里","LIN":"7鄰","STREET":" ","SECT":" ","MAREA":"下中","LANE":" ","ALLEY":" ","HOUSE_NO":"２６號","E_COORD97":172293.39999999999,"N_COORD97":2579887.1600000001,"ADDRESS":"下中２６號","OBJECTID":39354},"geometry":{"x":172293.4000000013,"y":2579887.160000002}},{"attributes":{"ID":39355,"DIS_CODE":0,"TOWNNAME":"鹽水區","LI":"下中里","LIN":"7鄰","STREET":" ","SECT":" ","MAREA":"下中","LANE":" ","ALLEY":" ","HOUSE_NO":"２７號","E_COORD97":172274.73000000001,"N_COORD97":2579901.8300000001,"ADDRESS":"下中２７號","OBJECTID":39355},"geometry":{"x":172274.73000000138,"y":2579901.8300000001}},{"attributes":{"ID":39356,"DIS_CODE":0,"TOWNNAME":"鹽水區","LI":"下中里","LIN":"7鄰","STREET":" ","SECT":" ","MAREA":"下中","LANE":" ","ALLEY":" ","HOUSE_NO":"３０號","E_COORD97":172272.60999999999,"N_COORD97":2579856.8700000001,"ADDRESS":"下中３０號","OBJECTID":39356},"geometry":{"x":172272.61000000034,"y":2579856.8700000029}},{"attributes":{"ID":39357,"DIS_CODE":0,"TOWNNAME":"鹽水區","LI":"下中里","LIN":"7鄰","STREET":" ","SECT":" ","MAREA":"下中","LANE":" ","ALLEY":" ","HOUSE_NO":"３１號","E_COORD97":172289.16,"N_COORD97":2579855.96,"ADDRESS":"下中３１號","OBJECTID":39357},"geometry":{"x":172289.16000000015,"y":2579855.9600000028}},{"attributes":{"ID":39358,"DIS_CODE":0,"TOWNNAME":"鹽水區","LI":"下中里","LIN":"7鄰","STREET":" ","SECT":" ","MAREA":"下中","LANE":" ","ALLEY":" ","HOUSE_NO":"３２號","E_COORD97":172497.14000000001,"N_COORD97":2579935.5299999998,"ADDRESS":"下中３２號","OBJECTID":39358},"geometry":{"x":172497.13999999966,"y":2579935.5300000012}},{"attributes":{"ID":39359,"DIS_CODE":0,"TOWNNAME":"鹽水區","LI":"下中里","LIN":"7鄰","STREET":" ","SECT":" ","MAREA":"下中","LANE":" ","ALLEY":" ","HOUSE_NO":"３３號之１","E_COORD97":172317.78,"N_COORD97":2579846.3599999999,"ADDRESS":"下中３３號之１","OBJECTID":39359},"geometry":{"x":172317.78000000119,"y":2579846.3599999994}},{"attributes":{"ID":39360,"DIS_CODE":0,"TOWNNAME":"鹽水區","LI":"下中里","LIN":"7鄰","STREET":" ","SECT":" ","MAREA":"下中","LANE":" ","ALLEY":" ","HOUSE_NO":"３３號","E_COORD97":172318.23999999999,"N_COORD97":2579841.1200000001,"ADDRESS":"下中３３號","OBJECTID":39360},"geometry":{"x":172318.24000000115,"y":2579841.1200000029}},{"attributes":{"ID":39361,"DIS_CODE":0,"TOWNNAME":"鹽水區","LI":"下中里","LIN":"7鄰","STREET":" ","SECT":" ","MAREA":"下中","LANE":" ","ALLEY":" ","HOUSE_NO":"３４號","E_COORD97":172318.29000000001,"N_COORD97":2579827.8999999999,"ADDRESS":"下中３４號","OBJECTID":39361},"geometry":{"x":172318.29000000004,"y":2579827.9000000041}},{"attributes":{"ID":39362,"DIS_CODE":0,"TOWNNAME":"鹽水區","LI":"下中里","LIN":"7鄰","STREET":" ","SECT":" ","MAREA":"下中","LANE":" ","ALLEY":" ","HOUSE_NO":"４６之１０號","E_COORD97":172367.20000000001,"N_COORD97":2579807.4399999999,"ADDRESS":"下中４６之１０號","OBJECTID":39362},"geometry":{"x":172367.20000000112,"y":2579807.4400000013}},{"attributes":{"ID":39363,"DIS_CODE":0,"TOWNNAME":"鹽水區","LI":"下中里","LIN":"7鄰","STREET":" ","SECT":" ","MAREA":"下中","LANE":" ","ALLEY":" ","HOUSE_NO":"４６之１１號","E_COORD97":172380.64000000001,"N_COORD97":2579773.9500000002,"ADDRESS":"下中４６之１１號","OBJECTID":39363},"geometry":{"x":172380.6400000006,"y":2579773.9499999993}},{"attributes":{"ID":39364,"DIS_CODE":0,"TOWNNAME":"鹽水區","LI":"下中里","LIN":"7鄰","STREET":" ","SECT":" ","MAREA":"下中","LANE":" ","ALLEY":" ","HOUSE_NO":"４６之１２號","E_COORD97":172384.60999999999,"N_COORD97":2579773.5699999998,"ADDRESS":"下中４６之１２號","OBJECTID":39364},"geometry":{"x":172384.61000000034,"y":2579773.5700000022}},{"attributes":{"ID":39365,"DIS_CODE":0,"TOWNNAME":"鹽水區","LI":"下中里","LIN":"7鄰","STREET":" ","SECT":" ","MAREA":"下中","LANE":" ","ALLEY":" ","HOUSE_NO":"４６之１３號","E_COORD97":172388.39000000001,"N_COORD97":2579772.6600000001,"ADDRESS":"下中４６之１３號","OBJECTID":39365},"geometry":{"x":172388.38999999966,"y":2579772.660000002}},{"attributes":{"ID":39366,"DIS_CODE":0,"TOWNNAME":"鹽水區","LI":"下中里","LIN":"7鄰","STREET":" ","SECT":" ","MAREA":"下中","LANE":" ","ALLEY":" ","HOUSE_NO":"４６之１４號","E_COORD97":172392.87,"N_COORD97":2579772.6000000001,"ADDRESS":"下中４６之１４號","OBJECTID":39366},"geometry":{"x":172392.86999999918,"y":2579772.6000000015}},{"attributes":{"ID":39367,"DIS_CODE":0,"TOWNNAME":"鹽水區","LI":"下中里","LIN":"7鄰","STREET":" ","SECT":" ","MAREA":"下中","LANE":" ","ALLEY":" ","HOUSE_NO":"４６之１５號","E_COORD97":172396.89000000001,"N_COORD97":2579772.27,"ADDRESS":"下中４６之１５號","OBJECTID":39367},"geometry":{"x":172396.88999999966,"y":2579772.2699999996}},{"attributes":{"ID":39368,"DIS_CODE":0,"TOWNNAME":"鹽水區","LI":"下中里","LIN":"7鄰","STREET":" ","SECT":" ","MAREA":"下中","LANE":" ","ALLEY":" ","HOUSE_NO":"４６之１６號","E_COORD97":172400.62,"N_COORD97":2579771.8700000001,"ADDRESS":"下中４６之１６號","OBJECTID":39368},"geometry":{"x":172400.62000000011,"y":2579771.8700000029}},{"attributes":{"ID":39369,"DIS_CODE":0,"TOWNNAME":"鹽水區","LI":"下中里","LIN":"7鄰","STREET":" ","SECT":" ","MAREA":"下中","LANE":" ","ALLEY":" ","HOUSE_NO":"４６之１７號","E_COORD97":172404.92999999999,"N_COORD97":2579771.27,"ADDRESS":"下中４６之１７號","OBJECTID":39369},"geometry":{"x":172404.9299999997,"y":2579771.2700000014}},{"attributes":{"ID":39370,"DIS_CODE":0,"TOWNNAME":"鹽水區","LI":"下中里","LIN":"7鄰","STREET":" ","SECT":" ","MAREA":"下中","LANE":" ","ALLEY":" ","HOUSE_NO":"４６之１８號","E_COORD97":172409.31,"N_COORD97":2579770.6200000001,"ADDRESS":"下中４６之１８號","OBJECTID":39370},"geometry":{"x":172409.30999999959,"y":2579770.6200000029}},{"attributes":{"ID":39371,"DIS_CODE":0,"TOWNNAME":"鹽水區","LI":"下中里","LIN":"7鄰","STREET":" ","SECT":" ","MAREA":"下中","LANE":" ","ALLEY":" ","HOUSE_NO":"４６之１９號","E_COORD97":172413.06,"N_COORD97":2579770.4500000002,"ADDRESS":"下中４６之１９號","OBJECTID":39371},"geometry":{"x":172413.05999999866,"y":2579770.4499999993}},{"attributes":{"ID":39372,"DIS_CODE":0,"TOWNNAME":"鹽水區","LI":"下中里","LIN":"7鄰","STREET":" ","SECT":" ","MAREA":"下中","LANE":" ","ALLEY":" ","HOUSE_NO":"４６號之１","E_COORD97":172352.14999999999,"N_COORD97":2579793.5299999998,"ADDRESS":"下中４６號之１","OBJECTID":39372},"geometry":{"x":172352.15000000037,"y":2579793.5299999993}},{"attributes":{"ID":39373,"DIS_CODE":0,"TOWNNAME":"鹽水區","LI":"下中里","LIN":"7鄰","STREET":" ","SECT":" ","MAREA":"下中","LANE":" ","ALLEY":" ","HOUSE_NO":"４６之２０號","E_COORD97":172417.13,"N_COORD97":2579769.9199999999,"ADDRESS":"下中４６之２０號","OBJECTID":39373},"geometry":{"x":172417.13000000082,"y":2579769.9200000018}},{"attributes":{"ID":39374,"DIS_CODE":0,"TOWNNAME":"鹽水區","LI":"下中里","LIN":"7鄰","STREET":" ","SECT":" ","MAREA":"下中","LANE":" ","ALLEY":" ","HOUSE_NO":"４６之２１號","E_COORD97":172421.29000000001,"N_COORD97":2579769.8199999998,"ADDRESS":"下中４６之２１號","OBJECTID":39374},"geometry":{"x":172421.29000000097,"y":2579769.8200000003}},{"attributes":{"ID":39375,"DIS_CODE":0,"TOWNNAME":"鹽水區","LI":"下中里","LIN":"7鄰","STREET":" ","SECT":" ","MAREA":"下中","LANE":" ","ALLEY":" ","HOUSE_NO":"４６號之２２","E_COORD97":172424.94,"N_COORD97":2579769.4700000002,"ADDRESS":"下中４６號之２２","OBJECTID":39375},"geometry":{"x":172424.94000000227,"y":2579769.4700000007}},{"attributes":{"ID":39376,"DIS_CODE":0,"TOWNNAME":"鹽水區","LI":"下中里","LIN":"7鄰","STREET":" ","SECT":" ","MAREA":"下中","LANE":" ","ALLEY":" ","HOUSE_NO":"４６之２３號","E_COORD97":172429.07999999999,"N_COORD97":2579768.9900000002,"ADDRESS":"下中４６之２３號","OBJECTID":39376},"geometry":{"x":172429.08000000101,"y":2579768.9900000002}},{"attributes":{"ID":39377,"DIS_CODE":0,"TOWNNAME":"鹽水區","LI":"下中里","LIN":"7鄰","STREET":" ","SECT":" ","MAREA":"下中","LANE":" ","ALLEY":" ","HOUSE_NO":"４６之２４號","E_COORD97":172433.26999999999,"N_COORD97":2579769,"ADDRESS":"下中４６之２４號","OBJECTID":39377},"geometry":{"x":172433.26999999955,"y":2579769.0000000037}},{"attributes":{"ID":39378,"DIS_CODE":0,"TOWNNAME":"鹽水區","LI":"下中里","LIN":"7鄰","STREET":" ","SECT":" ","MAREA":"下中","LANE":" ","ALLEY":" ","HOUSE_NO":"４６之２５號","E_COORD97":172437.51000000001,"N_COORD97":2579767.9199999999,"ADDRESS":"下中４６之２５號","OBJECTID":39378},"geometry":{"x":172437.51000000164,"y":2579767.9199999999}},{"attributes":{"ID":39379,"DIS_CODE":0,"TOWNNAME":"鹽水區","LI":"下中里","LIN":"7鄰","STREET":" ","SECT":" ","MAREA":"下中","LANE":" ","ALLEY":" ","HOUSE_NO":"４６之２６號","E_COORD97":172442.75,"N_COORD97":2579785.27,"ADDRESS":"下中４６之２６號","OBJECTID":39379},"geometry":{"x":172442.75000000186,"y":2579785.2700000014}},{"attributes":{"ID":39380,"DIS_CODE":0,"TOWNNAME":"鹽水區","LI":"下中里","LIN":"7鄰","STREET":" ","SECT":" ","MAREA":"下中","LANE":" ","ALLEY":" ","HOUSE_NO":"４６之２８號","E_COORD97":172434.95000000001,"N_COORD97":2579786.3999999999,"ADDRESS":"下中４６之２８號","OBJECTID":39380},"geometry":{"x":172434.95000000205,"y":2579786.4000000004}},{"attributes":{"ID":39381,"DIS_CODE":0,"TOWNNAME":"鹽水區","LI":"下中里","LIN":"7鄰","STREET":" ","SECT":" ","MAREA":"下中","LANE":" ","ALLEY":" ","HOUSE_NO":"４６之２９號","E_COORD97":172431.26999999999,"N_COORD97":2579786.9500000002,"ADDRESS":"下中４６之２９號","OBJECTID":39381},"geometry":{"x":172431.26999999955,"y":2579786.9500000011}},{"attributes":{"ID":39382,"DIS_CODE":0,"TOWNNAME":"鹽水區","LI":"下中里","LIN":"7鄰","STREET":" ","SECT":" ","MAREA":"下中","LANE":" ","ALLEY":" ","HOUSE_NO":"４６之２號","E_COORD97":172349.34,"N_COORD97":2579778.9500000002,"ADDRESS":"下中４６之２號","OBJECTID":39382},"geometry":{"x":172349.34000000078,"y":2579778.950000003}},{"attributes":{"ID":39383,"DIS_CODE":0,"TOWNNAME":"鹽水區","LI":"下中里","LIN":"7鄰","STREET":" ","SECT":" ","MAREA":"下中","LANE":" ","ALLEY":" ","HOUSE_NO":"４６之３０號","E_COORD97":172426.62,"N_COORD97":2579787.0299999998,"ADDRESS":"下中４６之３０號","OBJECTID":39383},"geometry":{"x":172426.62000000011,"y":2579787.0299999993}},{"attributes":{"ID":39384,"DIS_CODE":0,"TOWNNAME":"鹽水區","LI":"下中里","LIN":"7鄰","STREET":" ","SECT":" ","MAREA":"下中","LANE":" ","ALLEY":" ","HOUSE_NO":"４６之３１號","E_COORD97":172422.48000000001,"N_COORD97":2579787.7999999998,"ADDRESS":"下中４６之３１號","OBJECTID":39384},"geometry":{"x":172422.48000000045,"y":2579787.8000000007}},{"attributes":{"ID":39385,"DIS_CODE":0,"TOWNNAME":"鹽水區","LI":"下中里","LIN":"7鄰","STREET":" ","SECT":" ","MAREA":"下中","LANE":" ","ALLEY":" ","HOUSE_NO":"４６之３２號","E_COORD97":172418.47,"N_COORD97":2579787.9199999999,"ADDRESS":"下中４６之３２號","OBJECTID":39385},"geometry":{"x":172418.46999999974,"y":2579787.9200000018}},{"attributes":{"ID":39386,"DIS_CODE":0,"TOWNNAME":"鹽水區","LI":"下中里","LIN":"7鄰","STREET":" ","SECT":" ","MAREA":"下中","LANE":" ","ALLEY":" ","HOUSE_NO":"４６號之３３","E_COORD97":172414.35999999999,"N_COORD97":2579788.3599999999,"ADDRESS":"下中４６號之３３","OBJECTID":39386},"geometry":{"x":172414.36000000127,"y":2579788.3599999994}},{"attributes":{"ID":39387,"DIS_CODE":0,"TOWNNAME":"鹽水區","LI":"下中里","LIN":"7鄰","STREET":" ","SECT":" ","MAREA":"下中","LANE":" ","ALLEY":" ","HOUSE_NO":"４６之３４號","E_COORD97":172410.29000000001,"N_COORD97":2579789,"ADDRESS":"下中４６之３４號","OBJECTID":39387},"geometry":{"x":172410.28999999911,"y":2579789}},{"attributes":{"ID":39388,"DIS_CODE":0,"TOWNNAME":"鹽水區","LI":"下中里","LIN":"7鄰","STREET":" ","SECT":" ","MAREA":"下中","LANE":" ","ALLEY":" ","HOUSE_NO":"４６號之３５","E_COORD97":172406.39000000001,"N_COORD97":2579789.2400000002,"ADDRESS":"下中４６號之３５","OBJECTID":39388},"geometry":{"x":172406.3900000006,"y":2579789.2400000021}},{"attributes":{"ID":39389,"DIS_CODE":0,"TOWNNAME":"鹽水區","LI":"下中里","LIN":"7鄰","STREET":" ","SECT":" ","MAREA":"下中","LANE":" ","ALLEY":" ","HOUSE_NO":"４６號之３６","E_COORD97":172402.54999999999,"N_COORD97":2579790.0899999999,"ADDRESS":"下中４６號之３６","OBJECTID":39389},"geometry":{"x":172402.54999999981,"y":2579790.0900000017}},{"attributes":{"ID":39390,"DIS_CODE":0,"TOWNNAME":"鹽水區","LI":"下中里","LIN":"7鄰","STREET":" ","SECT":" ","MAREA":"下中","LANE":" ","ALLEY":" ","HOUSE_NO":"４６之３７號","E_COORD97":172398.64999999999,"N_COORD97":2579790.3999999999,"ADDRESS":"下中４６之３７號","OBJECTID":39390},"geometry":{"x":172398.6500000013,"y":2579790.4000000041}},{"attributes":{"ID":39391,"DIS_CODE":0,"TOWNNAME":"鹽水區","LI":"下中里","LIN":"7鄰","STREET":" ","SECT":" ","MAREA":"下中","LANE":" ","ALLEY":" ","HOUSE_NO":"４６之３８號","E_COORD97":172394.29000000001,"N_COORD97":2579791,"ADDRESS":"下中４６之３８號","OBJECTID":39391},"geometry":{"x":172394.29000000004,"y":2579791.0000000019}},{"attributes":{"ID":39392,"DIS_CODE":0,"TOWNNAME":"鹽水區","LI":"下中里","LIN":"7鄰","STREET":" ","SECT":" ","MAREA":"下中","LANE":" ","ALLEY":" ","HOUSE_NO":"４６之３９號","E_COORD97":172390.67000000001,"N_COORD97":2579791.5600000001,"ADDRESS":"下中４６之３９號","OBJECTID":39392},"geometry":{"x":172390.67000000179,"y":2579791.5600000005}},{"attributes":{"ID":39393,"DIS_CODE":0,"TOWNNAME":"鹽水區","LI":"下中里","LIN":"7鄰","STREET":" ","SECT":" ","MAREA":"下中","LANE":" ","ALLEY":" ","HOUSE_NO":"４６之３號","E_COORD97":172353.38,"N_COORD97":2579778.4100000001,"ADDRESS":"下中４６之３號","OBJECTID":39393},"geometry":{"x":172353.37999999989,"y":2579778.4100000001}},{"attributes":{"ID":39394,"DIS_CODE":0,"TOWNNAME":"鹽水區","LI":"下中里","LIN":"7鄰","STREET":" ","SECT":" ","MAREA":"下中","LANE":" ","ALLEY":" ","HOUSE_NO":"４６之４０號","E_COORD97":172386.67999999999,"N_COORD97":2579791.5499999998,"ADDRESS":"下中４６之４０號","OBJECTID":39394},"geometry":{"x":172386.6799999997,"y":2579791.5500000007}},{"attributes":{"ID":39395,"DIS_CODE":0,"TOWNNAME":"鹽水區","LI":"下中里","LIN":"7鄰","STREET":" ","SECT":" ","MAREA":"下中","LANE":" ","ALLEY":" ","HOUSE_NO":"４６之４１號","E_COORD97":172382.60000000001,"N_COORD97":2579792.1200000001,"ADDRESS":"下中４６之４１號","OBJECTID":39395},"geometry":{"x":172382.60000000056,"y":2579792.120000001}},{"attributes":{"ID":39396,"DIS_CODE":0,"TOWNNAME":"鹽水區","LI":"下中里","LIN":"7鄰","STREET":" ","SECT":" ","MAREA":"下中","LANE":" ","ALLEY":" ","HOUSE_NO":"４６號之４２","E_COORD97":172405.92000000001,"N_COORD97":2579806.1600000001,"ADDRESS":"下中４６號之４２","OBJECTID":39396},"geometry":{"x":172405.92000000179,"y":2579806.160000002}},{"attributes":{"ID":39397,"DIS_CODE":0,"TOWNNAME":"鹽水區","LI":"下中里","LIN":"7鄰","STREET":" ","SECT":" ","MAREA":"下中","LANE":" ","ALLEY":" ","HOUSE_NO":"４６號之４３","E_COORD97":172406.26999999999,"N_COORD97":2579809.96,"ADDRESS":"下中４６號之４３","OBJECTID":39397},"geometry":{"x":172406.26999999955,"y":2579809.9600000009}},{"attributes":{"ID":39398,"DIS_CODE":0,"TOWNNAME":"鹽水區","LI":"下中里","LIN":"7鄰","STREET":" ","SECT":" ","MAREA":"下中","LANE":" ","ALLEY":" ","HOUSE_NO":"４６之４４號","E_COORD97":172407.04999999999,"N_COORD97":2579814.7599999998,"ADDRESS":"下中４６之４４號","OBJECTID":39398},"geometry":{"x":172407.05000000075,"y":2579814.7600000016}},{"attributes":{"ID":39399,"DIS_CODE":0,"TOWNNAME":"鹽水區","LI":"下中里","LIN":"7鄰","STREET":" ","SECT":" ","MAREA":"下中","LANE":" ","ALLEY":" ","HOUSE_NO":"４６之４５號","E_COORD97":172407.85000000001,"N_COORD97":2579819.54,"ADDRESS":"下中４６之４５號","OBJECTID":39399},"geometry":{"x":172407.85000000149,"y":2579819.540000001}},{"attributes":{"ID":39400,"DIS_CODE":0,"TOWNNAME":"鹽水區","LI":"下中里","LIN":"7鄰","STREET":" ","SECT":" ","MAREA":"下中","LANE":" ","ALLEY":" ","HOUSE_NO":"４６之４６號","E_COORD97":172422.91,"N_COORD97":2579803.0800000001,"ADDRESS":"下中４６之４６號","OBJECTID":39400},"geometry":{"x":172422.91000000015,"y":2579803.0800000019}}]}