{"displayFieldName":"TOWNNAME","fieldAliases":{"ID":"ID","DIS_CODE":"DIS_CODE","TOWNNAME":"TOWNNAME","LI":"LI","LIN":"LIN","STREET":"STREET","SECT":"SECT","MAREA":"MAREA","LANE":"LANE","ALLEY":"ALLEY","HOUSE_NO":"HOUSE_NO","E_COORD97":"E_COORD97","N_COORD97":"N_COORD97","ADDRESS":"ADDRESS","OBJECTID":"OBJECTID"},"geometryType":"esriGeometryPoint","spatialReference":{"wkid":102443,"latestWkid":3826},"fields":[{"name":"ID","type":"esriFieldTypeDouble","alias":"ID"},{"name":"DIS_CODE","type":"esriFieldTypeInteger","alias":"DIS_CODE"},{"name":"TOWNNAME","type":"esriFieldTypeString","alias":"TOWNNAME","length":8},{"name":"LI","type":"esriFieldTypeString","alias":"LI","length":8},{"name":"LIN","type":"esriFieldTypeString","alias":"LIN","length":12},{"name":"STREET","type":"esriFieldTypeString","alias":"STREET","length":20},{"name":"SECT","type":"esriFieldTypeString","alias":"SECT","length":8},{"name":"MAREA","type":"esriFieldTypeString","alias":"MAREA","length":12},{"name":"LANE","type":"esriFieldTypeString","alias":"LANE","length":10},{"name":"ALLEY","type":"esriFieldTypeString","alias":"ALLEY","length":10},{"name":"HOUSE_NO","type":"esriFieldTypeString","alias":"HOUSE_NO","length":20},{"name":"E_COORD97","type":"esriFieldTypeDouble","alias":"E_COORD97"},{"name":"N_COORD97","type":"esriFieldTypeDouble","alias":"N_COORD97"},{"name":"ADDRESS","type":"esriFieldTypeString","alias":"ADDRESS","length":50},{"name":"OBJECTID","type":"esriFieldTypeOID","alias":"OBJECTID"}],"features":[{"attributes":{"ID":476626,"DIS_CODE":0,"TOWNNAME":"安南區","LI":"州南里","LIN":"12鄰","STREET":"長和路","SECT":"三段","MAREA":" ","LANE":" ","ALLEY":" ","HOUSE_NO":"２４號","E_COORD97":169885.82000000001,"N_COORD97":2551523.9500000002,"ADDRESS":"長和路三段２４號","OBJECTID":476601},"geometry":{"x":169885.8200000003,"y":2551523.9500000011}},{"attributes":{"ID":476627,"DIS_CODE":0,"TOWNNAME":"安平區","LI":"文平里","LIN":"12鄰","STREET":"永華四街","SECT":" ","MAREA":" ","LANE":" ","ALLEY":" ","HOUSE_NO":"９１號三樓之１８","E_COORD97":165944.38,"N_COORD97":2543358.0600000001,"ADDRESS":"永華四街９１號三樓之１８","OBJECTID":476602},"geometry":{"x":165944.38000000082,"y":2543358.0600000024}},{"attributes":{"ID":476628,"DIS_CODE":0,"TOWNNAME":"安平區","LI":"文平里","LIN":"12鄰","STREET":"永華四街","SECT":" ","MAREA":" ","LANE":" ","ALLEY":" ","HOUSE_NO":"９１號三樓之１９","E_COORD97":165944.38,"N_COORD97":2543358.0600000001,"ADDRESS":"永華四街９１號三樓之１９","OBJECTID":476603},"geometry":{"x":165944.38000000082,"y":2543358.0600000024}},{"attributes":{"ID":476629,"DIS_CODE":0,"TOWNNAME":"安平區","LI":"文平里","LIN":"12鄰","STREET":"永華四街","SECT":" ","MAREA":" ","LANE":" ","ALLEY":" ","HOUSE_NO":"９１號三樓之２０","E_COORD97":165944.38,"N_COORD97":2543358.0600000001,"ADDRESS":"永華四街９１號三樓之２０","OBJECTID":476604},"geometry":{"x":165944.38000000082,"y":2543358.0600000024}},{"attributes":{"ID":476630,"DIS_CODE":0,"TOWNNAME":"安平區","LI":"文平里","LIN":"12鄰","STREET":"永華四街","SECT":" ","MAREA":" ","LANE":" ","ALLEY":" ","HOUSE_NO":"９１號四樓之１","E_COORD97":165944.38,"N_COORD97":2543358.0600000001,"ADDRESS":"永華四街９１號四樓之１","OBJECTID":476605},"geometry":{"x":165944.38000000082,"y":2543358.0600000024}},{"attributes":{"ID":476631,"DIS_CODE":0,"TOWNNAME":"安平區","LI":"文平里","LIN":"12鄰","STREET":"永華四街","SECT":" ","MAREA":" ","LANE":" ","ALLEY":" ","HOUSE_NO":"９１號四樓之２","E_COORD97":165944.38,"N_COORD97":2543358.0600000001,"ADDRESS":"永華四街９１號四樓之２","OBJECTID":476606},"geometry":{"x":165944.38000000082,"y":2543358.0600000024}},{"attributes":{"ID":476632,"DIS_CODE":0,"TOWNNAME":"安平區","LI":"文平里","LIN":"12鄰","STREET":"永華四街","SECT":" ","MAREA":" ","LANE":" ","ALLEY":" ","HOUSE_NO":"９１號四樓之３","E_COORD97":165944.38,"N_COORD97":2543358.0600000001,"ADDRESS":"永華四街９１號四樓之３","OBJECTID":476607},"geometry":{"x":165944.38000000082,"y":2543358.0600000024}},{"attributes":{"ID":476633,"DIS_CODE":0,"TOWNNAME":"安平區","LI":"文平里","LIN":"12鄰","STREET":"永華四街","SECT":" ","MAREA":" ","LANE":" ","ALLEY":" ","HOUSE_NO":"９１號四樓之４","E_COORD97":165944.38,"N_COORD97":2543358.0600000001,"ADDRESS":"永華四街９１號四樓之４","OBJECTID":476608},"geometry":{"x":165944.38000000082,"y":2543358.0600000024}},{"attributes":{"ID":476634,"DIS_CODE":0,"TOWNNAME":"安平區","LI":"文平里","LIN":"12鄰","STREET":"永華四街","SECT":" ","MAREA":" ","LANE":" ","ALLEY":" ","HOUSE_NO":"９１號四樓之５","E_COORD97":165944.38,"N_COORD97":2543358.0600000001,"ADDRESS":"永華四街９１號四樓之５","OBJECTID":476609},"geometry":{"x":165944.38000000082,"y":2543358.0600000024}},{"attributes":{"ID":476635,"DIS_CODE":0,"TOWNNAME":"安平區","LI":"文平里","LIN":"12鄰","STREET":"永華四街","SECT":" ","MAREA":" ","LANE":" ","ALLEY":" ","HOUSE_NO":"９１號四樓之６","E_COORD97":165944.38,"N_COORD97":2543358.0600000001,"ADDRESS":"永華四街９１號四樓之６","OBJECTID":476610},"geometry":{"x":165944.38000000082,"y":2543358.0600000024}},{"attributes":{"ID":476636,"DIS_CODE":0,"TOWNNAME":"安平區","LI":"文平里","LIN":"12鄰","STREET":"永華四街","SECT":" ","MAREA":" ","LANE":" ","ALLEY":" ","HOUSE_NO":"９１號四樓之７","E_COORD97":165944.38,"N_COORD97":2543358.0600000001,"ADDRESS":"永華四街９１號四樓之７","OBJECTID":476611},"geometry":{"x":165944.38000000082,"y":2543358.0600000024}},{"attributes":{"ID":476637,"DIS_CODE":0,"TOWNNAME":"安平區","LI":"文平里","LIN":"12鄰","STREET":"永華四街","SECT":" ","MAREA":" ","LANE":" ","ALLEY":" ","HOUSE_NO":"９１號四樓之８","E_COORD97":165944.38,"N_COORD97":2543358.0600000001,"ADDRESS":"永華四街９１號四樓之８","OBJECTID":476612},"geometry":{"x":165944.38000000082,"y":2543358.0600000024}},{"attributes":{"ID":476638,"DIS_CODE":0,"TOWNNAME":"安平區","LI":"文平里","LIN":"12鄰","STREET":"永華四街","SECT":" ","MAREA":" ","LANE":" ","ALLEY":" ","HOUSE_NO":"９１號四樓之９","E_COORD97":165944.38,"N_COORD97":2543358.0600000001,"ADDRESS":"永華四街９１號四樓之９","OBJECTID":476613},"geometry":{"x":165944.38000000082,"y":2543358.0600000024}},{"attributes":{"ID":476639,"DIS_CODE":0,"TOWNNAME":"安平區","LI":"文平里","LIN":"12鄰","STREET":"永華四街","SECT":" ","MAREA":" ","LANE":" ","ALLEY":" ","HOUSE_NO":"９１號四樓之１０","E_COORD97":165944.38,"N_COORD97":2543358.0600000001,"ADDRESS":"永華四街９１號四樓之１０","OBJECTID":476614},"geometry":{"x":165944.38000000082,"y":2543358.0600000024}},{"attributes":{"ID":476640,"DIS_CODE":0,"TOWNNAME":"安平區","LI":"文平里","LIN":"12鄰","STREET":"永華四街","SECT":" ","MAREA":" ","LANE":" ","ALLEY":" ","HOUSE_NO":"９１號四樓之１１","E_COORD97":165944.38,"N_COORD97":2543358.0600000001,"ADDRESS":"永華四街９１號四樓之１１","OBJECTID":476615},"geometry":{"x":165944.38000000082,"y":2543358.0600000024}},{"attributes":{"ID":476641,"DIS_CODE":0,"TOWNNAME":"安平區","LI":"文平里","LIN":"12鄰","STREET":"永華四街","SECT":" ","MAREA":" ","LANE":" ","ALLEY":" ","HOUSE_NO":"９１號四樓之１２","E_COORD97":165944.38,"N_COORD97":2543358.0600000001,"ADDRESS":"永華四街９１號四樓之１２","OBJECTID":476616},"geometry":{"x":165944.38000000082,"y":2543358.0600000024}},{"attributes":{"ID":476642,"DIS_CODE":0,"TOWNNAME":"安平區","LI":"文平里","LIN":"12鄰","STREET":"永華四街","SECT":" ","MAREA":" ","LANE":" ","ALLEY":" ","HOUSE_NO":"９１號四樓之１３","E_COORD97":165944.38,"N_COORD97":2543358.0600000001,"ADDRESS":"永華四街９１號四樓之１３","OBJECTID":476617},"geometry":{"x":165944.38000000082,"y":2543358.0600000024}},{"attributes":{"ID":476643,"DIS_CODE":0,"TOWNNAME":"安平區","LI":"文平里","LIN":"12鄰","STREET":"永華四街","SECT":" ","MAREA":" ","LANE":" ","ALLEY":" ","HOUSE_NO":"９１號四樓之１４","E_COORD97":165944.38,"N_COORD97":2543358.0600000001,"ADDRESS":"永華四街９１號四樓之１４","OBJECTID":476618},"geometry":{"x":165944.38000000082,"y":2543358.0600000024}},{"attributes":{"ID":476644,"DIS_CODE":0,"TOWNNAME":"安平區","LI":"文平里","LIN":"12鄰","STREET":"永華四街","SECT":" ","MAREA":" ","LANE":" ","ALLEY":" ","HOUSE_NO":"９１號四樓之１５","E_COORD97":165944.38,"N_COORD97":2543358.0600000001,"ADDRESS":"永華四街９１號四樓之１５","OBJECTID":476619},"geometry":{"x":165944.38000000082,"y":2543358.0600000024}},{"attributes":{"ID":476645,"DIS_CODE":0,"TOWNNAME":"安平區","LI":"文平里","LIN":"12鄰","STREET":"永華四街","SECT":" ","MAREA":" ","LANE":" ","ALLEY":" ","HOUSE_NO":"９１號四樓之１６","E_COORD97":165944.38,"N_COORD97":2543358.0600000001,"ADDRESS":"永華四街９１號四樓之１６","OBJECTID":476620},"geometry":{"x":165944.38000000082,"y":2543358.0600000024}},{"attributes":{"ID":476646,"DIS_CODE":0,"TOWNNAME":"安平區","LI":"文平里","LIN":"12鄰","STREET":"永華四街","SECT":" ","MAREA":" ","LANE":" ","ALLEY":" ","HOUSE_NO":"９１號四樓之１７","E_COORD97":165944.38,"N_COORD97":2543358.0600000001,"ADDRESS":"永華四街９１號四樓之１７","OBJECTID":476621},"geometry":{"x":165944.38000000082,"y":2543358.0600000024}},{"attributes":{"ID":476647,"DIS_CODE":0,"TOWNNAME":"安平區","LI":"文平里","LIN":"12鄰","STREET":"永華四街","SECT":" ","MAREA":" ","LANE":" ","ALLEY":" ","HOUSE_NO":"９１號四樓之１８","E_COORD97":165944.38,"N_COORD97":2543358.0600000001,"ADDRESS":"永華四街９１號四樓之１８","OBJECTID":476622},"geometry":{"x":165944.38000000082,"y":2543358.0600000024}},{"attributes":{"ID":476648,"DIS_CODE":0,"TOWNNAME":"安平區","LI":"文平里","LIN":"12鄰","STREET":"永華四街","SECT":" ","MAREA":" ","LANE":" ","ALLEY":" ","HOUSE_NO":"９１號五樓之１","E_COORD97":165944.38,"N_COORD97":2543358.0600000001,"ADDRESS":"永華四街９１號五樓之１","OBJECTID":476623},"geometry":{"x":165944.38000000082,"y":2543358.0600000024}},{"attributes":{"ID":476649,"DIS_CODE":0,"TOWNNAME":"安平區","LI":"文平里","LIN":"12鄰","STREET":"永華四街","SECT":" ","MAREA":" ","LANE":" ","ALLEY":" ","HOUSE_NO":"９１號五樓之２","E_COORD97":165944.38,"N_COORD97":2543358.0600000001,"ADDRESS":"永華四街９１號五樓之２","OBJECTID":476624},"geometry":{"x":165944.38000000082,"y":2543358.0600000024}},{"attributes":{"ID":476650,"DIS_CODE":0,"TOWNNAME":"安平區","LI":"文平里","LIN":"12鄰","STREET":"永華四街","SECT":" ","MAREA":" ","LANE":" ","ALLEY":" ","HOUSE_NO":"９１號五樓之３","E_COORD97":165944.38,"N_COORD97":2543358.0600000001,"ADDRESS":"永華四街９１號五樓之３","OBJECTID":476625},"geometry":{"x":165944.38000000082,"y":2543358.0600000024}},{"attributes":{"ID":476651,"DIS_CODE":0,"TOWNNAME":"安平區","LI":"文平里","LIN":"12鄰","STREET":"永華四街","SECT":" ","MAREA":" ","LANE":" ","ALLEY":" ","HOUSE_NO":"９１號五樓之４","E_COORD97":165944.38,"N_COORD97":2543358.0600000001,"ADDRESS":"永華四街９１號五樓之４","OBJECTID":476626},"geometry":{"x":165944.38000000082,"y":2543358.0600000024}},{"attributes":{"ID":476652,"DIS_CODE":0,"TOWNNAME":"安平區","LI":"文平里","LIN":"12鄰","STREET":"永華四街","SECT":" ","MAREA":" ","LANE":" ","ALLEY":" ","HOUSE_NO":"９１號五樓之５","E_COORD97":165944.38,"N_COORD97":2543358.0600000001,"ADDRESS":"永華四街９１號五樓之５","OBJECTID":476627},"geometry":{"x":165944.38000000082,"y":2543358.0600000024}},{"attributes":{"ID":476653,"DIS_CODE":0,"TOWNNAME":"安平區","LI":"文平里","LIN":"12鄰","STREET":"永華四街","SECT":" ","MAREA":" ","LANE":" ","ALLEY":" ","HOUSE_NO":"９１號五樓之６","E_COORD97":165944.38,"N_COORD97":2543358.0600000001,"ADDRESS":"永華四街９１號五樓之６","OBJECTID":476628},"geometry":{"x":165944.38000000082,"y":2543358.0600000024}},{"attributes":{"ID":476654,"DIS_CODE":0,"TOWNNAME":"安平區","LI":"文平里","LIN":"12鄰","STREET":"永華四街","SECT":" ","MAREA":" ","LANE":" ","ALLEY":" ","HOUSE_NO":"９１號五樓之７","E_COORD97":165944.38,"N_COORD97":2543358.0600000001,"ADDRESS":"永華四街９１號五樓之７","OBJECTID":476629},"geometry":{"x":165944.38000000082,"y":2543358.0600000024}},{"attributes":{"ID":476655,"DIS_CODE":0,"TOWNNAME":"安平區","LI":"文平里","LIN":"12鄰","STREET":"永華四街","SECT":" ","MAREA":" ","LANE":" ","ALLEY":" ","HOUSE_NO":"９１號五樓之８","E_COORD97":165944.38,"N_COORD97":2543358.0600000001,"ADDRESS":"永華四街９１號五樓之８","OBJECTID":476630},"geometry":{"x":165944.38000000082,"y":2543358.0600000024}},{"attributes":{"ID":476656,"DIS_CODE":0,"TOWNNAME":"安平區","LI":"文平里","LIN":"12鄰","STREET":"永華四街","SECT":" ","MAREA":" ","LANE":" ","ALLEY":" ","HOUSE_NO":"９１號五樓之９","E_COORD97":165944.38,"N_COORD97":2543358.0600000001,"ADDRESS":"永華四街９１號五樓之９","OBJECTID":476631},"geometry":{"x":165944.38000000082,"y":2543358.0600000024}},{"attributes":{"ID":476657,"DIS_CODE":0,"TOWNNAME":"安平區","LI":"文平里","LIN":"12鄰","STREET":"永華四街","SECT":" ","MAREA":" ","LANE":" ","ALLEY":" ","HOUSE_NO":"９１號五樓之１０","E_COORD97":165944.38,"N_COORD97":2543358.0600000001,"ADDRESS":"永華四街９１號五樓之１０","OBJECTID":476632},"geometry":{"x":165944.38000000082,"y":2543358.0600000024}},{"attributes":{"ID":476658,"DIS_CODE":0,"TOWNNAME":"安平區","LI":"文平里","LIN":"12鄰","STREET":"永華四街","SECT":" ","MAREA":" ","LANE":" ","ALLEY":" ","HOUSE_NO":"９１號五樓之１１","E_COORD97":165944.38,"N_COORD97":2543358.0600000001,"ADDRESS":"永華四街９１號五樓之１１","OBJECTID":476633},"geometry":{"x":165944.38000000082,"y":2543358.0600000024}},{"attributes":{"ID":476659,"DIS_CODE":0,"TOWNNAME":"安平區","LI":"文平里","LIN":"12鄰","STREET":"永華四街","SECT":" ","MAREA":" ","LANE":" ","ALLEY":" ","HOUSE_NO":"９１號五樓之１２","E_COORD97":165944.38,"N_COORD97":2543358.0600000001,"ADDRESS":"永華四街９１號五樓之１２","OBJECTID":476634},"geometry":{"x":165944.38000000082,"y":2543358.0600000024}},{"attributes":{"ID":476660,"DIS_CODE":0,"TOWNNAME":"安平區","LI":"文平里","LIN":"12鄰","STREET":"永華四街","SECT":" ","MAREA":" ","LANE":" ","ALLEY":" ","HOUSE_NO":"９１號五樓之１３","E_COORD97":165944.38,"N_COORD97":2543358.0600000001,"ADDRESS":"永華四街９１號五樓之１３","OBJECTID":476635},"geometry":{"x":165944.38000000082,"y":2543358.0600000024}},{"attributes":{"ID":476661,"DIS_CODE":0,"TOWNNAME":"安平區","LI":"文平里","LIN":"12鄰","STREET":"永華四街","SECT":" ","MAREA":" ","LANE":" ","ALLEY":" ","HOUSE_NO":"９１號五樓之１４","E_COORD97":165944.38,"N_COORD97":2543358.0600000001,"ADDRESS":"永華四街９１號五樓之１４","OBJECTID":476636},"geometry":{"x":165944.38000000082,"y":2543358.0600000024}},{"attributes":{"ID":476662,"DIS_CODE":0,"TOWNNAME":"安平區","LI":"文平里","LIN":"12鄰","STREET":"永華四街","SECT":" ","MAREA":" ","LANE":" ","ALLEY":" ","HOUSE_NO":"９１號五樓之１５","E_COORD97":165944.38,"N_COORD97":2543358.0600000001,"ADDRESS":"永華四街９１號五樓之１５","OBJECTID":476637},"geometry":{"x":165944.38000000082,"y":2543358.0600000024}},{"attributes":{"ID":476663,"DIS_CODE":0,"TOWNNAME":"安平區","LI":"文平里","LIN":"12鄰","STREET":"永華四街","SECT":" ","MAREA":" ","LANE":" ","ALLEY":" ","HOUSE_NO":"９１號五樓之１６","E_COORD97":165944.38,"N_COORD97":2543358.0600000001,"ADDRESS":"永華四街９１號五樓之１６","OBJECTID":476638},"geometry":{"x":165944.38000000082,"y":2543358.0600000024}},{"attributes":{"ID":476664,"DIS_CODE":0,"TOWNNAME":"安平區","LI":"文平里","LIN":"12鄰","STREET":"永華四街","SECT":" ","MAREA":" ","LANE":" ","ALLEY":" ","HOUSE_NO":"９１號五樓之１７","E_COORD97":165944.38,"N_COORD97":2543358.0600000001,"ADDRESS":"永華四街９１號五樓之１７","OBJECTID":476639},"geometry":{"x":165944.38000000082,"y":2543358.0600000024}},{"attributes":{"ID":476665,"DIS_CODE":0,"TOWNNAME":"安平區","LI":"文平里","LIN":"12鄰","STREET":"永華四街","SECT":" ","MAREA":" ","LANE":" ","ALLEY":" ","HOUSE_NO":"９１號五樓之１８","E_COORD97":165944.38,"N_COORD97":2543358.0600000001,"ADDRESS":"永華四街９１號五樓之１８","OBJECTID":476640},"geometry":{"x":165944.38000000082,"y":2543358.0600000024}},{"attributes":{"ID":476666,"DIS_CODE":0,"TOWNNAME":"安平區","LI":"文平里","LIN":"12鄰","STREET":"永華四街","SECT":" ","MAREA":" ","LANE":" ","ALLEY":" ","HOUSE_NO":"９１號五樓之１９","E_COORD97":165944.38,"N_COORD97":2543358.0600000001,"ADDRESS":"永華四街９１號五樓之１９","OBJECTID":476641},"geometry":{"x":165944.38000000082,"y":2543358.0600000024}},{"attributes":{"ID":476667,"DIS_CODE":0,"TOWNNAME":"安平區","LI":"文平里","LIN":"12鄰","STREET":"永華四街","SECT":" ","MAREA":" ","LANE":" ","ALLEY":" ","HOUSE_NO":"９１號六樓之１","E_COORD97":165944.38,"N_COORD97":2543358.0600000001,"ADDRESS":"永華四街９１號六樓之１","OBJECTID":476642},"geometry":{"x":165944.38000000082,"y":2543358.0600000024}},{"attributes":{"ID":476668,"DIS_CODE":0,"TOWNNAME":"安平區","LI":"文平里","LIN":"12鄰","STREET":"永華四街","SECT":" ","MAREA":" ","LANE":" ","ALLEY":" ","HOUSE_NO":"９１號六樓之２","E_COORD97":165944.38,"N_COORD97":2543358.0600000001,"ADDRESS":"永華四街９１號六樓之２","OBJECTID":476643},"geometry":{"x":165944.38000000082,"y":2543358.0600000024}},{"attributes":{"ID":476669,"DIS_CODE":0,"TOWNNAME":"安平區","LI":"文平里","LIN":"12鄰","STREET":"永華四街","SECT":" ","MAREA":" ","LANE":" ","ALLEY":" ","HOUSE_NO":"９１號六樓之３","E_COORD97":165944.38,"N_COORD97":2543358.0600000001,"ADDRESS":"永華四街９１號六樓之３","OBJECTID":476644},"geometry":{"x":165944.38000000082,"y":2543358.0600000024}},{"attributes":{"ID":476670,"DIS_CODE":0,"TOWNNAME":"安平區","LI":"文平里","LIN":"12鄰","STREET":"永華四街","SECT":" ","MAREA":" ","LANE":" ","ALLEY":" ","HOUSE_NO":"９１號六樓之４","E_COORD97":165944.38,"N_COORD97":2543358.0600000001,"ADDRESS":"永華四街９１號六樓之４","OBJECTID":476645},"geometry":{"x":165944.38000000082,"y":2543358.0600000024}},{"attributes":{"ID":476671,"DIS_CODE":0,"TOWNNAME":"安平區","LI":"文平里","LIN":"12鄰","STREET":"永華四街","SECT":" ","MAREA":" ","LANE":" ","ALLEY":" ","HOUSE_NO":"９１號六樓之５","E_COORD97":165944.38,"N_COORD97":2543358.0600000001,"ADDRESS":"永華四街９１號六樓之５","OBJECTID":476646},"geometry":{"x":165944.38000000082,"y":2543358.0600000024}},{"attributes":{"ID":476672,"DIS_CODE":0,"TOWNNAME":"安平區","LI":"文平里","LIN":"12鄰","STREET":"永華四街","SECT":" ","MAREA":" ","LANE":" ","ALLEY":" ","HOUSE_NO":"９１號六樓之６","E_COORD97":165944.38,"N_COORD97":2543358.0600000001,"ADDRESS":"永華四街９１號六樓之６","OBJECTID":476647},"geometry":{"x":165944.38000000082,"y":2543358.0600000024}},{"attributes":{"ID":476673,"DIS_CODE":0,"TOWNNAME":"安平區","LI":"文平里","LIN":"12鄰","STREET":"永華四街","SECT":" ","MAREA":" ","LANE":" ","ALLEY":" ","HOUSE_NO":"９１號六樓之８","E_COORD97":165944.38,"N_COORD97":2543358.0600000001,"ADDRESS":"永華四街９１號六樓之８","OBJECTID":476648},"geometry":{"x":165944.38000000082,"y":2543358.0600000024}},{"attributes":{"ID":476674,"DIS_CODE":0,"TOWNNAME":"安平區","LI":"文平里","LIN":"12鄰","STREET":"永華四街","SECT":" ","MAREA":" ","LANE":" ","ALLEY":" ","HOUSE_NO":"９１號六樓之９","E_COORD97":165944.38,"N_COORD97":2543358.0600000001,"ADDRESS":"永華四街９１號六樓之９","OBJECTID":476649},"geometry":{"x":165944.38000000082,"y":2543358.0600000024}},{"attributes":{"ID":476675,"DIS_CODE":0,"TOWNNAME":"安平區","LI":"文平里","LIN":"12鄰","STREET":"永華四街","SECT":" ","MAREA":" ","LANE":" ","ALLEY":" ","HOUSE_NO":"９１號六樓之１０","E_COORD97":165944.38,"N_COORD97":2543358.0600000001,"ADDRESS":"永華四街９１號六樓之１０","OBJECTID":476650},"geometry":{"x":165944.38000000082,"y":2543358.0600000024}},{"attributes":{"ID":476676,"DIS_CODE":0,"TOWNNAME":"安平區","LI":"文平里","LIN":"12鄰","STREET":"永華四街","SECT":" ","MAREA":" ","LANE":" ","ALLEY":" ","HOUSE_NO":"９１號六樓之１１","E_COORD97":165944.38,"N_COORD97":2543358.0600000001,"ADDRESS":"永華四街９１號六樓之１１","OBJECTID":476651},"geometry":{"x":165944.38000000082,"y":2543358.0600000024}},{"attributes":{"ID":476677,"DIS_CODE":0,"TOWNNAME":"安南區","LI":"佃東里","LIN":"12鄰","STREET":"海佃路","SECT":"四段","MAREA":" ","LANE":" ","ALLEY":" ","HOUSE_NO":"１２７號","E_COORD97":165641.70999999999,"N_COORD97":2550713.9199999999,"ADDRESS":"海佃路四段１２７號","OBJECTID":476652},"geometry":{"x":165641.70999999996,"y":2550713.9200000037}},{"attributes":{"ID":476678,"DIS_CODE":0,"TOWNNAME":"安平區","LI":"文平里","LIN":"12鄰","STREET":"永華四街","SECT":" ","MAREA":" ","LANE":" ","ALLEY":" ","HOUSE_NO":"９１號六樓之１２","E_COORD97":165944.38,"N_COORD97":2543358.0600000001,"ADDRESS":"永華四街９１號六樓之１２","OBJECTID":476653},"geometry":{"x":165944.38000000082,"y":2543358.0600000024}},{"attributes":{"ID":476679,"DIS_CODE":0,"TOWNNAME":"安平區","LI":"文平里","LIN":"12鄰","STREET":"永華四街","SECT":" ","MAREA":" ","LANE":" ","ALLEY":" ","HOUSE_NO":"９１號六樓之１３","E_COORD97":165944.38,"N_COORD97":2543358.0600000001,"ADDRESS":"永華四街９１號六樓之１３","OBJECTID":476654},"geometry":{"x":165944.38000000082,"y":2543358.0600000024}},{"attributes":{"ID":476680,"DIS_CODE":0,"TOWNNAME":"安平區","LI":"文平里","LIN":"12鄰","STREET":"永華四街","SECT":" ","MAREA":" ","LANE":" ","ALLEY":" ","HOUSE_NO":"９１號六樓之１４","E_COORD97":165944.38,"N_COORD97":2543358.0600000001,"ADDRESS":"永華四街９１號六樓之１４","OBJECTID":476655},"geometry":{"x":165944.38000000082,"y":2543358.0600000024}},{"attributes":{"ID":476681,"DIS_CODE":0,"TOWNNAME":"安平區","LI":"文平里","LIN":"12鄰","STREET":"永華四街","SECT":" ","MAREA":" ","LANE":" ","ALLEY":" ","HOUSE_NO":"９１號六樓之１５","E_COORD97":165944.38,"N_COORD97":2543358.0600000001,"ADDRESS":"永華四街９１號六樓之１５","OBJECTID":476656},"geometry":{"x":165944.38000000082,"y":2543358.0600000024}},{"attributes":{"ID":476682,"DIS_CODE":0,"TOWNNAME":"安平區","LI":"文平里","LIN":"12鄰","STREET":"永華四街","SECT":" ","MAREA":" ","LANE":" ","ALLEY":" ","HOUSE_NO":"９１號六樓之１６","E_COORD97":165944.38,"N_COORD97":2543358.0600000001,"ADDRESS":"永華四街９１號六樓之１６","OBJECTID":476657},"geometry":{"x":165944.38000000082,"y":2543358.0600000024}},{"attributes":{"ID":476683,"DIS_CODE":0,"TOWNNAME":"安平區","LI":"文平里","LIN":"12鄰","STREET":"永華四街","SECT":" ","MAREA":" ","LANE":" ","ALLEY":" ","HOUSE_NO":"９１號六樓之１７","E_COORD97":165944.38,"N_COORD97":2543358.0600000001,"ADDRESS":"永華四街９１號六樓之１７","OBJECTID":476658},"geometry":{"x":165944.38000000082,"y":2543358.0600000024}},{"attributes":{"ID":476684,"DIS_CODE":0,"TOWNNAME":"安平區","LI":"文平里","LIN":"12鄰","STREET":"永華四街","SECT":" ","MAREA":" ","LANE":" ","ALLEY":" ","HOUSE_NO":"９１號六樓之１８","E_COORD97":165944.38,"N_COORD97":2543358.0600000001,"ADDRESS":"永華四街９１號六樓之１８","OBJECTID":476659},"geometry":{"x":165944.38000000082,"y":2543358.0600000024}},{"attributes":{"ID":476685,"DIS_CODE":0,"TOWNNAME":"安平區","LI":"文平里","LIN":"12鄰","STREET":"永華四街","SECT":" ","MAREA":" ","LANE":" ","ALLEY":" ","HOUSE_NO":"９１號六樓之１９","E_COORD97":165944.38,"N_COORD97":2543358.0600000001,"ADDRESS":"永華四街９１號六樓之１９","OBJECTID":476660},"geometry":{"x":165944.38000000082,"y":2543358.0600000024}},{"attributes":{"ID":476686,"DIS_CODE":0,"TOWNNAME":"安平區","LI":"文平里","LIN":"12鄰","STREET":"永華四街","SECT":" ","MAREA":" ","LANE":" ","ALLEY":" ","HOUSE_NO":"９１號六樓之２０","E_COORD97":165944.38,"N_COORD97":2543358.0600000001,"ADDRESS":"永華四街９１號六樓之２０","OBJECTID":476661},"geometry":{"x":165944.38000000082,"y":2543358.0600000024}},{"attributes":{"ID":476687,"DIS_CODE":0,"TOWNNAME":"安平區","LI":"文平里","LIN":"12鄰","STREET":"永華四街","SECT":" ","MAREA":" ","LANE":" ","ALLEY":" ","HOUSE_NO":"９１號七樓之１","E_COORD97":165944.38,"N_COORD97":2543358.0600000001,"ADDRESS":"永華四街９１號七樓之１","OBJECTID":476662},"geometry":{"x":165944.38000000082,"y":2543358.0600000024}},{"attributes":{"ID":476688,"DIS_CODE":0,"TOWNNAME":"安平區","LI":"文平里","LIN":"12鄰","STREET":"永華四街","SECT":" ","MAREA":" ","LANE":" ","ALLEY":" ","HOUSE_NO":"９１號七樓之２","E_COORD97":165944.38,"N_COORD97":2543358.0600000001,"ADDRESS":"永華四街９１號七樓之２","OBJECTID":476663},"geometry":{"x":165944.38000000082,"y":2543358.0600000024}},{"attributes":{"ID":476689,"DIS_CODE":0,"TOWNNAME":"安平區","LI":"文平里","LIN":"12鄰","STREET":"永華四街","SECT":" ","MAREA":" ","LANE":" ","ALLEY":" ","HOUSE_NO":"９１號七樓之３","E_COORD97":165944.38,"N_COORD97":2543358.0600000001,"ADDRESS":"永華四街９１號七樓之３","OBJECTID":476664},"geometry":{"x":165944.38000000082,"y":2543358.0600000024}},{"attributes":{"ID":476690,"DIS_CODE":0,"TOWNNAME":"安平區","LI":"文平里","LIN":"12鄰","STREET":"永華四街","SECT":" ","MAREA":" ","LANE":" ","ALLEY":" ","HOUSE_NO":"９１號七樓之４","E_COORD97":165944.38,"N_COORD97":2543358.0600000001,"ADDRESS":"永華四街９１號七樓之４","OBJECTID":476665},"geometry":{"x":165944.38000000082,"y":2543358.0600000024}},{"attributes":{"ID":476691,"DIS_CODE":0,"TOWNNAME":"安平區","LI":"文平里","LIN":"12鄰","STREET":"永華四街","SECT":" ","MAREA":" ","LANE":" ","ALLEY":" ","HOUSE_NO":"９１號七樓之５","E_COORD97":165944.38,"N_COORD97":2543358.0600000001,"ADDRESS":"永華四街９１號七樓之５","OBJECTID":476666},"geometry":{"x":165944.38000000082,"y":2543358.0600000024}},{"attributes":{"ID":476692,"DIS_CODE":0,"TOWNNAME":"安平區","LI":"文平里","LIN":"12鄰","STREET":"永華四街","SECT":" ","MAREA":" ","LANE":" ","ALLEY":" ","HOUSE_NO":"９１號七樓之６","E_COORD97":165944.38,"N_COORD97":2543358.0600000001,"ADDRESS":"永華四街９１號七樓之６","OBJECTID":476667},"geometry":{"x":165944.38000000082,"y":2543358.0600000024}},{"attributes":{"ID":476693,"DIS_CODE":0,"TOWNNAME":"安平區","LI":"文平里","LIN":"12鄰","STREET":"永華四街","SECT":" ","MAREA":" ","LANE":" ","ALLEY":" ","HOUSE_NO":"９１號七樓之７","E_COORD97":165944.38,"N_COORD97":2543358.0600000001,"ADDRESS":"永華四街９１號七樓之７","OBJECTID":476668},"geometry":{"x":165944.38000000082,"y":2543358.0600000024}},{"attributes":{"ID":476694,"DIS_CODE":0,"TOWNNAME":"安平區","LI":"文平里","LIN":"12鄰","STREET":"永華四街","SECT":" ","MAREA":" ","LANE":" ","ALLEY":" ","HOUSE_NO":"９１號七樓之８","E_COORD97":165944.38,"N_COORD97":2543358.0600000001,"ADDRESS":"永華四街９１號七樓之８","OBJECTID":476669},"geometry":{"x":165944.38000000082,"y":2543358.0600000024}},{"attributes":{"ID":476695,"DIS_CODE":0,"TOWNNAME":"安平區","LI":"文平里","LIN":"12鄰","STREET":"永華四街","SECT":" ","MAREA":" ","LANE":" ","ALLEY":" ","HOUSE_NO":"９１號七樓之９","E_COORD97":165944.38,"N_COORD97":2543358.0600000001,"ADDRESS":"永華四街９１號七樓之９","OBJECTID":476670},"geometry":{"x":165944.38000000082,"y":2543358.0600000024}},{"attributes":{"ID":476696,"DIS_CODE":0,"TOWNNAME":"安平區","LI":"文平里","LIN":"12鄰","STREET":"永華四街","SECT":" ","MAREA":" ","LANE":" ","ALLEY":" ","HOUSE_NO":"９１號七樓之１０","E_COORD97":165944.38,"N_COORD97":2543358.0600000001,"ADDRESS":"永華四街９１號七樓之１０","OBJECTID":476671},"geometry":{"x":165944.38000000082,"y":2543358.0600000024}},{"attributes":{"ID":476697,"DIS_CODE":0,"TOWNNAME":"安平區","LI":"文平里","LIN":"12鄰","STREET":"永華四街","SECT":" ","MAREA":" ","LANE":" ","ALLEY":" ","HOUSE_NO":"９１號七樓之１１","E_COORD97":165944.38,"N_COORD97":2543358.0600000001,"ADDRESS":"永華四街９１號七樓之１１","OBJECTID":476672},"geometry":{"x":165944.38000000082,"y":2543358.0600000024}},{"attributes":{"ID":476698,"DIS_CODE":0,"TOWNNAME":"中西區","LI":"仙草里","LIN":"12鄰","STREET":"府緯街","SECT":" ","MAREA":" ","LANE":" ","ALLEY":" ","HOUSE_NO":"３０號七樓之４","E_COORD97":167889.67999999999,"N_COORD97":2542730.4900000002,"ADDRESS":"府緯街３０號七樓之４","OBJECTID":476673},"geometry":{"x":167889.68000000156,"y":2542730.4900000021}},{"attributes":{"ID":476699,"DIS_CODE":0,"TOWNNAME":"中西區","LI":"仙草里","LIN":"12鄰","STREET":"府緯街","SECT":" ","MAREA":" ","LANE":" ","ALLEY":" ","HOUSE_NO":"３０號四樓之４","E_COORD97":167889.67999999999,"N_COORD97":2542730.4900000002,"ADDRESS":"府緯街３０號四樓之４","OBJECTID":476674},"geometry":{"x":167889.68000000156,"y":2542730.4900000021}},{"attributes":{"ID":476700,"DIS_CODE":0,"TOWNNAME":"北區","LI":"六甲里","LIN":"12鄰","STREET":"和緯路","SECT":"二段","MAREA":" ","LANE":" ","ALLEY":" ","HOUSE_NO":"２號三樓之４","E_COORD97":169080.03,"N_COORD97":2545705.0699999998,"ADDRESS":"和緯路二段２號三樓之４","OBJECTID":476675},"geometry":{"x":169080.03000000119,"y":2545705.0700000003}},{"attributes":{"ID":476701,"DIS_CODE":0,"TOWNNAME":"北區","LI":"大港里","LIN":"12鄰","STREET":"中華北路","SECT":"一段","MAREA":" ","LANE":" ","ALLEY":" ","HOUSE_NO":"１６２號之５","E_COORD97":166477.20000000001,"N_COORD97":2545747.04,"ADDRESS":"中華北路一段１６２號之５","OBJECTID":476676},"geometry":{"x":166477.20000000019,"y":2545747.0399999991}},{"attributes":{"ID":476702,"DIS_CODE":0,"TOWNNAME":"安平區","LI":"國平里","LIN":"12鄰","STREET":"華平路","SECT":" ","MAREA":" ","LANE":" ","ALLEY":" ","HOUSE_NO":"９６號","E_COORD97":165355.22,"N_COORD97":2542939.4300000002,"ADDRESS":"華平路９６號","OBJECTID":476677},"geometry":{"x":165355.2200000016,"y":2542939.4300000034}},{"attributes":{"ID":476703,"DIS_CODE":0,"TOWNNAME":"安平區","LI":"國平里","LIN":"12鄰","STREET":"華平路","SECT":" ","MAREA":" ","LANE":" ","ALLEY":" ","HOUSE_NO":"９２號","E_COORD97":165354.42000000001,"N_COORD97":2542935.6200000001,"ADDRESS":"華平路９２號","OBJECTID":476678},"geometry":{"x":165354.42000000086,"y":2542935.620000001}},{"attributes":{"ID":476704,"DIS_CODE":0,"TOWNNAME":"安南區","LI":"頂安里","LIN":"12鄰","STREET":"怡安路","SECT":"一段","MAREA":" ","LANE":" ","ALLEY":" ","HOUSE_NO":"４７２號","E_COORD97":168520.26999999999,"N_COORD97":2549231.6800000002,"ADDRESS":"怡安路一段４７２號","OBJECTID":476679},"geometry":{"x":168520.27000000048,"y":2549231.6800000016}},{"attributes":{"ID":476705,"DIS_CODE":0,"TOWNNAME":"安南區","LI":"頂安里","LIN":"12鄰","STREET":"怡安路","SECT":"一段","MAREA":" ","LANE":" ","ALLEY":" ","HOUSE_NO":"４７６號","E_COORD97":168516.45999999999,"N_COORD97":2549231.6800000002,"ADDRESS":"怡安路一段４７６號","OBJECTID":476680},"geometry":{"x":168516.45999999996,"y":2549231.6800000016}},{"attributes":{"ID":476706,"DIS_CODE":0,"TOWNNAME":"南區","LI":"金華里","LIN":"12鄰","STREET":"健康路","SECT":"二段","MAREA":" ","LANE":" ","ALLEY":" ","HOUSE_NO":"２７３號","E_COORD97":166939.98000000001,"N_COORD97":2542465.7400000002,"ADDRESS":"健康路二段２７３號","OBJECTID":476681},"geometry":{"x":166939.98000000045,"y":2542465.7400000002}},{"attributes":{"ID":476707,"DIS_CODE":0,"TOWNNAME":"東區","LI":"小東里","LIN":"20鄰","STREET":"東興路","SECT":" ","MAREA":" ","LANE":" ","ALLEY":" ","HOUSE_NO":"２９４號","E_COORD97":171063.42000000001,"N_COORD97":2544042.29,"ADDRESS":"東興路２９４號","OBJECTID":476682},"geometry":{"x":171063.42000000179,"y":2544042.290000001}},{"attributes":{"ID":476708,"DIS_CODE":0,"TOWNNAME":"東區","LI":"小東里","LIN":"20鄰","STREET":"東興路","SECT":" ","MAREA":" ","LANE":" ","ALLEY":" ","HOUSE_NO":"２９４號之１","E_COORD97":171064.98000000001,"N_COORD97":2544045.9100000001,"ADDRESS":"東興路２９４號之１","OBJECTID":476683},"geometry":{"x":171064.98000000045,"y":2544045.910000002}},{"attributes":{"ID":476709,"DIS_CODE":0,"TOWNNAME":"東區","LI":"東光里","LIN":"20鄰","STREET":"凱旋路","SECT":" ","MAREA":" ","LANE":" ","ALLEY":" ","HOUSE_NO":"２５２號","E_COORD97":170858.85999999999,"N_COORD97":2543770.9300000002,"ADDRESS":"凱旋路２５２號","OBJECTID":476684},"geometry":{"x":170858.86000000034,"y":2543770.9300000016}},{"attributes":{"ID":476710,"DIS_CODE":0,"TOWNNAME":"東區","LI":"東光里","LIN":"20鄰","STREET":"凱旋路","SECT":" ","MAREA":" ","LANE":" ","ALLEY":" ","HOUSE_NO":"２５４號","E_COORD97":170854.26999999999,"N_COORD97":2543773.23,"ADDRESS":"凱旋路２５４號","OBJECTID":476685},"geometry":{"x":170854.27000000048,"y":2543773.2300000023}},{"attributes":{"ID":476711,"DIS_CODE":0,"TOWNNAME":"中西區","LI":"藥王里","LIN":"8鄰","STREET":"大新街","SECT":" ","MAREA":" ","LANE":"２２巷","ALLEY":" ","HOUSE_NO":"２號","E_COORD97":167157.89000000001,"N_COORD97":2544345.0699999998,"ADDRESS":"大新街２２巷２號","OBJECTID":476686},"geometry":{"x":167157.8900000006,"y":2544345.0700000003}},{"attributes":{"ID":476712,"DIS_CODE":0,"TOWNNAME":"東區","LI":"東光里","LIN":"20鄰","STREET":"凱旋路","SECT":" ","MAREA":" ","LANE":" ","ALLEY":" ","HOUSE_NO":"２６２號","E_COORD97":170836.94,"N_COORD97":2543774.25,"ADDRESS":"凱旋路２６２號","OBJECTID":476687},"geometry":{"x":170836.94000000134,"y":2543774.25}},{"attributes":{"ID":476713,"DIS_CODE":0,"TOWNNAME":"東區","LI":"東光里","LIN":"20鄰","STREET":"凱旋路","SECT":" ","MAREA":" ","LANE":" ","ALLEY":" ","HOUSE_NO":"２６４號","E_COORD97":170833.29999999999,"N_COORD97":2543777.5699999998,"ADDRESS":"凱旋路２６４號","OBJECTID":476688},"geometry":{"x":170833.29999999981,"y":2543777.5700000022}},{"attributes":{"ID":476714,"DIS_CODE":0,"TOWNNAME":"東區","LI":"東光里","LIN":"20鄰","STREET":"凱旋路","SECT":" ","MAREA":" ","LANE":" ","ALLEY":" ","HOUSE_NO":"２６６號","E_COORD97":170828.16,"N_COORD97":2543775.6800000002,"ADDRESS":"凱旋路２６６號","OBJECTID":476689},"geometry":{"x":170828.16000000201,"y":2543775.6800000016}},{"attributes":{"ID":476715,"DIS_CODE":0,"TOWNNAME":"安南區","LI":"州南里","LIN":"12鄰","STREET":"長和路","SECT":"三段","MAREA":" ","LANE":" ","ALLEY":" ","HOUSE_NO":"２０號","E_COORD97":169893.17999999999,"N_COORD97":2551523.2200000002,"ADDRESS":"長和路三段２０號","OBJECTID":476690},"geometry":{"x":169893.1799999997,"y":2551523.2200000044}},{"attributes":{"ID":476716,"DIS_CODE":0,"TOWNNAME":"安南區","LI":"州南里","LIN":"12鄰","STREET":"長和路","SECT":"三段","MAREA":" ","LANE":" ","ALLEY":" ","HOUSE_NO":"２２號","E_COORD97":169888.85000000001,"N_COORD97":2551523.5099999998,"ADDRESS":"長和路三段２２號","OBJECTID":476691},"geometry":{"x":169888.85000000149,"y":2551523.5100000035}},{"attributes":{"ID":476717,"DIS_CODE":0,"TOWNNAME":"東區","LI":"東光里","LIN":"20鄰","STREET":"凱旋路","SECT":" ","MAREA":" ","LANE":" ","ALLEY":" ","HOUSE_NO":"２６８號","E_COORD97":170824.84,"N_COORD97":2543779.1499999999,"ADDRESS":"凱旋路２６８號","OBJECTID":476692},"geometry":{"x":170824.84000000171,"y":2543779.1500000004}},{"attributes":{"ID":476718,"DIS_CODE":0,"TOWNNAME":"東區","LI":"東光里","LIN":"20鄰","STREET":"凱旋路","SECT":" ","MAREA":" ","LANE":" ","ALLEY":" ","HOUSE_NO":"２７０號","E_COORD97":170820.72,"N_COORD97":2543777.02,"ADDRESS":"凱旋路２７０號","OBJECTID":476693},"geometry":{"x":170820.72000000067,"y":2543777.0200000014}},{"attributes":{"ID":476719,"DIS_CODE":0,"TOWNNAME":"東區","LI":"東光里","LIN":"20鄰","STREET":"凱旋路","SECT":" ","MAREA":" ","LANE":" ","ALLEY":" ","HOUSE_NO":"２７２號","E_COORD97":170816.69,"N_COORD97":2543779.9399999999,"ADDRESS":"凱旋路２７２號","OBJECTID":476694},"geometry":{"x":170816.69000000134,"y":2543779.9400000032}},{"attributes":{"ID":476720,"DIS_CODE":0,"TOWNNAME":"東區","LI":"東光里","LIN":"20鄰","STREET":"凱旋路","SECT":" ","MAREA":" ","LANE":" ","ALLEY":" ","HOUSE_NO":"２７４號","E_COORD97":170812.97,"N_COORD97":2543777.5699999998,"ADDRESS":"凱旋路２７４號","OBJECTID":476695},"geometry":{"x":170812.96999999974,"y":2543777.5700000022}},{"attributes":{"ID":476721,"DIS_CODE":0,"TOWNNAME":"東區","LI":"東光里","LIN":"20鄰","STREET":"凱旋路","SECT":" ","MAREA":" ","LANE":" ","ALLEY":" ","HOUSE_NO":"２７６號","E_COORD97":170808.45000000001,"N_COORD97":2543778.9300000002,"ADDRESS":"凱旋路２７６號","OBJECTID":476696},"geometry":{"x":170808.45000000019,"y":2543778.9299999997}},{"attributes":{"ID":476722,"DIS_CODE":0,"TOWNNAME":"東區","LI":"東光里","LIN":"20鄰","STREET":"凱旋路","SECT":" ","MAREA":" ","LANE":" ","ALLEY":" ","HOUSE_NO":"２７８號","E_COORD97":170804.14000000001,"N_COORD97":2543781.3599999999,"ADDRESS":"凱旋路２７８號","OBJECTID":476697},"geometry":{"x":170804.1400000006,"y":2543781.3600000013}},{"attributes":{"ID":476723,"DIS_CODE":0,"TOWNNAME":"東區","LI":"東光里","LIN":"20鄰","STREET":"凱旋路","SECT":" ","MAREA":" ","LANE":" ","ALLEY":" ","HOUSE_NO":"２８０號","E_COORD97":170800.32000000001,"N_COORD97":2543779.6299999999,"ADDRESS":"凱旋路２８０號","OBJECTID":476698},"geometry":{"x":170800.32000000123,"y":2543779.6300000008}},{"attributes":{"ID":476724,"DIS_CODE":0,"TOWNNAME":"安南區","LI":"州北里","LIN":"20鄰","STREET":"安昌街","SECT":" ","MAREA":" ","LANE":" ","ALLEY":" ","HOUSE_NO":"７３號","E_COORD97":169875.19,"N_COORD97":2552090.0099999998,"ADDRESS":"安昌街７３號","OBJECTID":476699},"geometry":{"x":169875.19000000041,"y":2552090.0100000016}},{"attributes":{"ID":476725,"DIS_CODE":0,"TOWNNAME":"安南區","LI":"州北里","LIN":"20鄰","STREET":"安昌街","SECT":" ","MAREA":" ","LANE":" ","ALLEY":" ","HOUSE_NO":"８１號之１","E_COORD97":169911.97,"N_COORD97":2552149.3199999998,"ADDRESS":"安昌街８１號之１","OBJECTID":476700},"geometry":{"x":169911.97000000067,"y":2552149.320000004}},{"attributes":{"ID":476726,"DIS_CODE":0,"TOWNNAME":"仁德區","LI":"仁義里","LIN":"20鄰","STREET":"中山路","SECT":" ","MAREA":" ","LANE":" ","ALLEY":" ","HOUSE_NO":"３４２號","E_COORD97":173911.14999999999,"N_COORD97":2541268.5,"ADDRESS":"中山路３４２號","OBJECTID":476701},"geometry":{"x":173911.15000000037,"y":2541268.5000000019}},{"attributes":{"ID":476727,"DIS_CODE":0,"TOWNNAME":"仁德區","LI":"保安里","LIN":"20鄰","STREET":"保安路","SECT":"一段","MAREA":" ","LANE":" ","ALLEY":" ","HOUSE_NO":"８９號","E_COORD97":171006.14999999999,"N_COORD97":2536800.8199999998,"ADDRESS":"保安路一段８９號","OBJECTID":476702},"geometry":{"x":171006.15000000037,"y":2536800.820000004}},{"attributes":{"ID":476728,"DIS_CODE":0,"TOWNNAME":"東區","LI":"莊敬里","LIN":"20鄰","STREET":"莊敬路","SECT":" ","MAREA":" ","LANE":" ","ALLEY":" ","HOUSE_NO":"１４７號","E_COORD97":171350.22,"N_COORD97":2544006.6499999999,"ADDRESS":"莊敬路１４７號","OBJECTID":476703},"geometry":{"x":171350.21999999974,"y":2544006.6500000041}},{"attributes":{"ID":476729,"DIS_CODE":0,"TOWNNAME":"東區","LI":"莊敬里","LIN":"20鄰","STREET":"莊敬路","SECT":" ","MAREA":" ","LANE":" ","ALLEY":" ","HOUSE_NO":"１４９號","E_COORD97":171351.28,"N_COORD97":2544011.23,"ADDRESS":"莊敬路１４９號","OBJECTID":476704},"geometry":{"x":171351.28000000212,"y":2544011.2300000023}},{"attributes":{"ID":476730,"DIS_CODE":0,"TOWNNAME":"東區","LI":"莊敬里","LIN":"20鄰","STREET":"莊敬路","SECT":" ","MAREA":" ","LANE":" ","ALLEY":" ","HOUSE_NO":"１５１號","E_COORD97":171351.82999999999,"N_COORD97":2544016.8199999998,"ADDRESS":"莊敬路１５１號","OBJECTID":476705},"geometry":{"x":171351.83000000007,"y":2544016.8200000022}},{"attributes":{"ID":476731,"DIS_CODE":0,"TOWNNAME":"東區","LI":"莊敬里","LIN":"20鄰","STREET":"莊敬路","SECT":" ","MAREA":" ","LANE":" ","ALLEY":" ","HOUSE_NO":"１５３號","E_COORD97":171352.22,"N_COORD97":2544020.27,"ADDRESS":"莊敬路１５３號","OBJECTID":476706},"geometry":{"x":171352.21999999974,"y":2544020.2699999996}},{"attributes":{"ID":476732,"DIS_CODE":0,"TOWNNAME":"東區","LI":"莊敬里","LIN":"20鄰","STREET":"莊敬路","SECT":" ","MAREA":" ","LANE":" ","ALLEY":" ","HOUSE_NO":"１５５號","E_COORD97":171352.39000000001,"N_COORD97":2544026.02,"ADDRESS":"莊敬路１５５號","OBJECTID":476707},"geometry":{"x":171352.38999999966,"y":2544026.0199999996}},{"attributes":{"ID":476733,"DIS_CODE":0,"TOWNNAME":"東區","LI":"莊敬里","LIN":"20鄰","STREET":"莊敬路","SECT":" ","MAREA":" ","LANE":" ","ALLEY":" ","HOUSE_NO":"１５７號","E_COORD97":171352.67000000001,"N_COORD97":2544030.2999999998,"ADDRESS":"莊敬路１５７號","OBJECTID":476708},"geometry":{"x":171352.66999999993,"y":2544030.3000000026}},{"attributes":{"ID":476734,"DIS_CODE":0,"TOWNNAME":"東區","LI":"莊敬里","LIN":"20鄰","STREET":"莊敬路","SECT":" ","MAREA":" ","LANE":" ","ALLEY":" ","HOUSE_NO":"１５９號","E_COORD97":171353.12,"N_COORD97":2544034.2000000002,"ADDRESS":"莊敬路１５９號","OBJECTID":476709},"geometry":{"x":171353.12000000011,"y":2544034.1999999993}},{"attributes":{"ID":476735,"DIS_CODE":0,"TOWNNAME":"東區","LI":"和平里","LIN":"20鄰","STREET":"仁和路","SECT":" ","MAREA":" ","LANE":" ","ALLEY":" ","HOUSE_NO":"７３號之１","E_COORD97":171228.87,"N_COORD97":2541606.1299999999,"ADDRESS":"仁和路７３號之１","OBJECTID":476710},"geometry":{"x":171228.87000000104,"y":2541606.1300000008}},{"attributes":{"ID":476736,"DIS_CODE":0,"TOWNNAME":"東區","LI":"和平里","LIN":"20鄰","STREET":"仁和路","SECT":" ","MAREA":" ","LANE":" ","ALLEY":" ","HOUSE_NO":"７３號之１０","E_COORD97":171271.84,"N_COORD97":2541625.98,"ADDRESS":"仁和路７３號之１０","OBJECTID":476711},"geometry":{"x":171271.83999999985,"y":2541625.9800000023}},{"attributes":{"ID":476737,"DIS_CODE":0,"TOWNNAME":"東區","LI":"和平里","LIN":"20鄰","STREET":"仁和路","SECT":" ","MAREA":" ","LANE":" ","ALLEY":" ","HOUSE_NO":"７３號之１１","E_COORD97":171275.95999999999,"N_COORD97":2541627.5899999999,"ADDRESS":"仁和路７３號之１１","OBJECTID":476712},"geometry":{"x":171275.95999999996,"y":2541627.5900000017}},{"attributes":{"ID":476738,"DIS_CODE":0,"TOWNNAME":"東區","LI":"和平里","LIN":"20鄰","STREET":"仁和路","SECT":" ","MAREA":" ","LANE":" ","ALLEY":" ","HOUSE_NO":"７３號之１２","E_COORD97":171280.44,"N_COORD97":2541629.9100000001,"ADDRESS":"仁和路７３號之１２","OBJECTID":476713},"geometry":{"x":171280.44000000041,"y":2541629.9100000001}},{"attributes":{"ID":476739,"DIS_CODE":0,"TOWNNAME":"東區","LI":"和平里","LIN":"20鄰","STREET":"仁和路","SECT":" ","MAREA":" ","LANE":" ","ALLEY":" ","HOUSE_NO":"７３號之１３","E_COORD97":171285.63,"N_COORD97":2541632.2400000002,"ADDRESS":"仁和路７３號之１３","OBJECTID":476714},"geometry":{"x":171285.63000000175,"y":2541632.2400000002}},{"attributes":{"ID":476740,"DIS_CODE":0,"TOWNNAME":"東區","LI":"和平里","LIN":"20鄰","STREET":"仁和路","SECT":" ","MAREA":" ","LANE":" ","ALLEY":" ","HOUSE_NO":"７３號之１４","E_COORD97":171289.39000000001,"N_COORD97":2541634.0299999998,"ADDRESS":"仁和路７３號之１４","OBJECTID":476715},"geometry":{"x":171289.3900000006,"y":2541634.0300000012}},{"attributes":{"ID":476741,"DIS_CODE":0,"TOWNNAME":"東區","LI":"和平里","LIN":"20鄰","STREET":"仁和路","SECT":" ","MAREA":" ","LANE":" ","ALLEY":" ","HOUSE_NO":"７３號之１５","E_COORD97":171293.85999999999,"N_COORD97":2541635.9900000002,"ADDRESS":"仁和路７３號之１５","OBJECTID":476716},"geometry":{"x":171293.86000000127,"y":2541635.9900000021}},{"attributes":{"ID":476742,"DIS_CODE":0,"TOWNNAME":"東區","LI":"和平里","LIN":"20鄰","STREET":"仁和路","SECT":" ","MAREA":" ","LANE":" ","ALLEY":" ","HOUSE_NO":"７３號之１７","E_COORD97":171305.32999999999,"N_COORD97":2541642,"ADDRESS":"仁和路７３號之１７","OBJECTID":476717},"geometry":{"x":171305.33000000101,"y":2541642.0000000019}},{"attributes":{"ID":476743,"DIS_CODE":0,"TOWNNAME":"東區","LI":"和平里","LIN":"20鄰","STREET":"仁和路","SECT":" ","MAREA":" ","LANE":" ","ALLEY":" ","HOUSE_NO":"７３號之１８","E_COORD97":171318.01999999999,"N_COORD97":2541657.0299999998,"ADDRESS":"仁和路７３號之１８","OBJECTID":476718},"geometry":{"x":171318.01999999955,"y":2541657.0300000031}},{"attributes":{"ID":476744,"DIS_CODE":0,"TOWNNAME":"東區","LI":"和平里","LIN":"20鄰","STREET":"仁和路","SECT":" ","MAREA":" ","LANE":" ","ALLEY":" ","HOUSE_NO":"７３號之１９","E_COORD97":171321.54999999999,"N_COORD97":2541660.7400000002,"ADDRESS":"仁和路７３號之１９","OBJECTID":476719},"geometry":{"x":171321.54999999981,"y":2541660.7400000021}},{"attributes":{"ID":476745,"DIS_CODE":0,"TOWNNAME":"東區","LI":"和平里","LIN":"20鄰","STREET":"仁和路","SECT":" ","MAREA":" ","LANE":" ","ALLEY":" ","HOUSE_NO":"７３號之２","E_COORD97":171234.42000000001,"N_COORD97":2541608.8100000001,"ADDRESS":"仁和路７３號之２","OBJECTID":476720},"geometry":{"x":171234.41999999993,"y":2541608.8100000042}},{"attributes":{"ID":476746,"DIS_CODE":0,"TOWNNAME":"東區","LI":"和平里","LIN":"20鄰","STREET":"仁和路","SECT":" ","MAREA":" ","LANE":" ","ALLEY":" ","HOUSE_NO":"７３號之２１","E_COORD97":171329.35000000001,"N_COORD97":2541661.1600000001,"ADDRESS":"仁和路７３號之２１","OBJECTID":476721},"geometry":{"x":171329.34999999963,"y":2541661.160000002}},{"attributes":{"ID":476747,"DIS_CODE":0,"TOWNNAME":"東區","LI":"和平里","LIN":"20鄰","STREET":"仁和路","SECT":" ","MAREA":" ","LANE":" ","ALLEY":" ","HOUSE_NO":"７３號之２４","E_COORD97":171342.25,"N_COORD97":2541659.3199999998,"ADDRESS":"仁和路７３號之２４","OBJECTID":476722},"geometry":{"x":171342.25,"y":2541659.320000004}},{"attributes":{"ID":476748,"DIS_CODE":0,"TOWNNAME":"東區","LI":"和平里","LIN":"20鄰","STREET":"仁和路","SECT":" ","MAREA":" ","LANE":" ","ALLEY":" ","HOUSE_NO":"７３號之２５","E_COORD97":171345.57000000001,"N_COORD97":2541662.21,"ADDRESS":"仁和路７３號之２５","OBJECTID":476723},"geometry":{"x":171345.5700000003,"y":2541662.2100000028}},{"attributes":{"ID":476749,"DIS_CODE":0,"TOWNNAME":"東區","LI":"和平里","LIN":"20鄰","STREET":"仁和路","SECT":" ","MAREA":" ","LANE":" ","ALLEY":" ","HOUSE_NO":"７３號之２７","E_COORD97":171353.87,"N_COORD97":2541661.9399999999,"ADDRESS":"仁和路７３號之２７","OBJECTID":476724},"geometry":{"x":171353.87000000197,"y":2541661.9400000013}},{"attributes":{"ID":476750,"DIS_CODE":0,"TOWNNAME":"東區","LI":"和平里","LIN":"20鄰","STREET":"仁和路","SECT":" ","MAREA":" ","LANE":" ","ALLEY":" ","HOUSE_NO":"７３號之２８","E_COORD97":171357.97,"N_COORD97":2541658.9900000002,"ADDRESS":"仁和路７３號之２８","OBJECTID":476725},"geometry":{"x":171357.97000000067,"y":2541658.9900000021}},{"attributes":{"ID":476751,"DIS_CODE":0,"TOWNNAME":"東區","LI":"和平里","LIN":"20鄰","STREET":"仁和路","SECT":" ","MAREA":" ","LANE":" ","ALLEY":" ","HOUSE_NO":"７３號之２９","E_COORD97":171361.73000000001,"N_COORD97":2541661.7799999998,"ADDRESS":"仁和路７３號之２９","OBJECTID":476726},"geometry":{"x":171361.73000000045,"y":2541661.7799999975}},{"attributes":{"ID":476752,"DIS_CODE":0,"TOWNNAME":"東區","LI":"和平里","LIN":"20鄰","STREET":"仁和路","SECT":" ","MAREA":" ","LANE":" ","ALLEY":" ","HOUSE_NO":"７３號之３","E_COORD97":171238.72,"N_COORD97":2541610.6000000001,"ADDRESS":"仁和路７３號之３","OBJECTID":476727},"geometry":{"x":171238.71999999974,"y":2541610.6000000015}},{"attributes":{"ID":476753,"DIS_CODE":0,"TOWNNAME":"東區","LI":"和平里","LIN":"20鄰","STREET":"仁和路","SECT":" ","MAREA":" ","LANE":" ","ALLEY":" ","HOUSE_NO":"７３號之３０","E_COORD97":171366.48000000001,"N_COORD97":2541659.6499999999,"ADDRESS":"仁和路７３號之３０","OBJECTID":476728},"geometry":{"x":171366.48000000045,"y":2541659.6500000004}},{"attributes":{"ID":476754,"DIS_CODE":0,"TOWNNAME":"東區","LI":"和平里","LIN":"20鄰","STREET":"仁和路","SECT":" ","MAREA":" ","LANE":" ","ALLEY":" ","HOUSE_NO":"７３號之３１","E_COORD97":171369.92000000001,"N_COORD97":2541662.4300000002,"ADDRESS":"仁和路７３號之３１","OBJECTID":476729},"geometry":{"x":171369.91999999993,"y":2541662.4300000016}},{"attributes":{"ID":476755,"DIS_CODE":0,"TOWNNAME":"東區","LI":"和平里","LIN":"20鄰","STREET":"仁和路","SECT":" ","MAREA":" ","LANE":" ","ALLEY":" ","HOUSE_NO":"７３號之３２","E_COORD97":171373.85000000001,"N_COORD97":2541659.8100000001,"ADDRESS":"仁和路７３號之３２","OBJECTID":476730},"geometry":{"x":171373.85000000149,"y":2541659.8100000042}},{"attributes":{"ID":476756,"DIS_CODE":0,"TOWNNAME":"東區","LI":"和平里","LIN":"20鄰","STREET":"仁和路","SECT":" ","MAREA":" ","LANE":" ","ALLEY":" ","HOUSE_NO":"７３號之９","E_COORD97":171266.47,"N_COORD97":2541624.0099999998,"ADDRESS":"仁和路７３號之９","OBJECTID":476731},"geometry":{"x":171266.47000000067,"y":2541624.0100000016}},{"attributes":{"ID":476757,"DIS_CODE":0,"TOWNNAME":"東區","LI":"和平里","LIN":"20鄰","STREET":"仁和路","SECT":" ","MAREA":" ","LANE":" ","ALLEY":" ","HOUSE_NO":"７３號之４","E_COORD97":171243.54999999999,"N_COORD97":2541612.5699999998,"ADDRESS":"仁和路７３號之４","OBJECTID":476732},"geometry":{"x":171243.54999999981,"y":2541612.5700000003}},{"attributes":{"ID":476758,"DIS_CODE":0,"TOWNNAME":"東區","LI":"和平里","LIN":"20鄰","STREET":"仁和路","SECT":" ","MAREA":" ","LANE":" ","ALLEY":" ","HOUSE_NO":"７３號之５","E_COORD97":171247.67000000001,"N_COORD97":2541614.8900000001,"ADDRESS":"仁和路７３號之５","OBJECTID":476733},"geometry":{"x":171247.66999999993,"y":2541614.8899999987}},{"attributes":{"ID":476759,"DIS_CODE":0,"TOWNNAME":"東區","LI":"和平里","LIN":"20鄰","STREET":"仁和路","SECT":" ","MAREA":" ","LANE":" ","ALLEY":" ","HOUSE_NO":"７３號之７","E_COORD97":171256.79999999999,"N_COORD97":2541618.6499999999,"ADDRESS":"仁和路７３號之７","OBJECTID":476734},"geometry":{"x":171256.79999999981,"y":2541618.6500000004}},{"attributes":{"ID":476760,"DIS_CODE":0,"TOWNNAME":"東區","LI":"和平里","LIN":"20鄰","STREET":"仁和路","SECT":" ","MAREA":" ","LANE":" ","ALLEY":" ","HOUSE_NO":"７３號之１６","E_COORD97":171299.23000000001,"N_COORD97":2541638.1400000001,"ADDRESS":"仁和路７３號之１６","OBJECTID":476735},"geometry":{"x":171299.23000000231,"y":2541638.1400000025}},{"attributes":{"ID":476761,"DIS_CODE":0,"TOWNNAME":"東區","LI":"和平里","LIN":"20鄰","STREET":"仁和路","SECT":" ","MAREA":" ","LANE":" ","ALLEY":" ","HOUSE_NO":"７３號之２３","E_COORD97":171337.45999999999,"N_COORD97":2541661.2599999998,"ADDRESS":"仁和路７３號之２３","OBJECTID":476736},"geometry":{"x":171337.45999999996,"y":2541661.2599999998}},{"attributes":{"ID":476762,"DIS_CODE":0,"TOWNNAME":"東區","LI":"和平里","LIN":"20鄰","STREET":"仁和路","SECT":" ","MAREA":" ","LANE":" ","ALLEY":" ","HOUSE_NO":"７３號之２６","E_COORD97":171349.94,"N_COORD97":2541659.4900000002,"ADDRESS":"仁和路７３號之２６","OBJECTID":476737},"geometry":{"x":171349.94000000041,"y":2541659.4900000021}},{"attributes":{"ID":476763,"DIS_CODE":0,"TOWNNAME":"東區","LI":"和平里","LIN":"20鄰","STREET":"仁和路","SECT":" ","MAREA":" ","LANE":" ","ALLEY":" ","HOUSE_NO":"７３號之３３","E_COORD97":171377.94,"N_COORD97":2541662.6000000001,"ADDRESS":"仁和路７３號之３３","OBJECTID":476738},"geometry":{"x":171377.94000000134,"y":2541662.5999999996}},{"attributes":{"ID":476764,"DIS_CODE":0,"TOWNNAME":"東區","LI":"小東里","LIN":"20鄰","STREET":"東興路","SECT":" ","MAREA":" ","LANE":" ","ALLEY":" ","HOUSE_NO":"２９２號","E_COORD97":171062.39000000001,"N_COORD97":2544036.8599999999,"ADDRESS":"東興路２９２號","OBJECTID":476739},"geometry":{"x":171062.3900000006,"y":2544036.8599999994}},{"attributes":{"ID":476765,"DIS_CODE":0,"TOWNNAME":"東區","LI":"東光里","LIN":"20鄰","STREET":"凱旋路","SECT":" ","MAREA":" ","LANE":" ","ALLEY":" ","HOUSE_NO":"２９８號","E_COORD97":170788.03,"N_COORD97":2543781.3599999999,"ADDRESS":"凱旋路２９８號","OBJECTID":476740},"geometry":{"x":170788.03000000026,"y":2543781.3600000013}},{"attributes":{"ID":476766,"DIS_CODE":0,"TOWNNAME":"東區","LI":"東光里","LIN":"20鄰","STREET":"凱旋路","SECT":" ","MAREA":" ","LANE":" ","ALLEY":" ","HOUSE_NO":"３００號","E_COORD97":170784.14000000001,"N_COORD97":2543783.2999999998,"ADDRESS":"凱旋路３００號","OBJECTID":476741},"geometry":{"x":170784.1400000006,"y":2543783.3000000026}},{"attributes":{"ID":476767,"DIS_CODE":0,"TOWNNAME":"東區","LI":"東光里","LIN":"20鄰","STREET":"凱旋路","SECT":" ","MAREA":" ","LANE":" ","ALLEY":" ","HOUSE_NO":"３０２號","E_COORD97":170779.82000000001,"N_COORD97":2543785.2400000002,"ADDRESS":"凱旋路３０２號","OBJECTID":476742},"geometry":{"x":170779.82000000123,"y":2543785.2400000002}},{"attributes":{"ID":476768,"DIS_CODE":0,"TOWNNAME":"東區","LI":"東光里","LIN":"20鄰","STREET":"凱旋路","SECT":" ","MAREA":" ","LANE":" ","ALLEY":" ","HOUSE_NO":"３０４號","E_COORD97":170774.89000000001,"N_COORD97":2543783.5099999998,"ADDRESS":"凱旋路３０４號","OBJECTID":476743},"geometry":{"x":170774.88999999966,"y":2543783.5100000016}},{"attributes":{"ID":476769,"DIS_CODE":0,"TOWNNAME":"東區","LI":"東光里","LIN":"20鄰","STREET":"凱旋路","SECT":" ","MAREA":" ","LANE":" ","ALLEY":" ","HOUSE_NO":"３０６號","E_COORD97":170771.13,"N_COORD97":2543785.96,"ADDRESS":"凱旋路３０６號","OBJECTID":476744},"geometry":{"x":170771.13000000082,"y":2543785.9600000028}},{"attributes":{"ID":476770,"DIS_CODE":0,"TOWNNAME":"東區","LI":"東光里","LIN":"20鄰","STREET":"凱旋路","SECT":" ","MAREA":" ","LANE":" ","ALLEY":" ","HOUSE_NO":"３０８號","E_COORD97":170766.20999999999,"N_COORD97":2543784.52,"ADDRESS":"凱旋路３０８號","OBJECTID":476745},"geometry":{"x":170766.20999999996,"y":2543784.5200000014}},{"attributes":{"ID":476771,"DIS_CODE":0,"TOWNNAME":"東區","LI":"東光里","LIN":"20鄰","STREET":"凱旋路","SECT":" ","MAREA":" ","LANE":" ","ALLEY":" ","HOUSE_NO":"３１０號","E_COORD97":170763.17000000001,"N_COORD97":2543788.5699999998,"ADDRESS":"凱旋路３１０號","OBJECTID":476746},"geometry":{"x":170763.16999999993,"y":2543788.5700000003}},{"attributes":{"ID":476772,"DIS_CODE":0,"TOWNNAME":"東區","LI":"東光里","LIN":"20鄰","STREET":"凱旋路","SECT":" ","MAREA":" ","LANE":" ","ALLEY":" ","HOUSE_NO":"３１２號","E_COORD97":170758.97,"N_COORD97":2543786.3999999999,"ADDRESS":"凱旋路３１２號","OBJECTID":476747},"geometry":{"x":170758.96999999974,"y":2543786.4000000004}},{"attributes":{"ID":476773,"DIS_CODE":0,"TOWNNAME":"東區","LI":"東光里","LIN":"20鄰","STREET":"凱旋路","SECT":" ","MAREA":" ","LANE":" ","ALLEY":" ","HOUSE_NO":"３１４號","E_COORD97":170754.48000000001,"N_COORD97":2543790.0099999998,"ADDRESS":"凱旋路３１４號","OBJECTID":476748},"geometry":{"x":170754.48000000045,"y":2543790.0100000035}},{"attributes":{"ID":476774,"DIS_CODE":0,"TOWNNAME":"東區","LI":"東光里","LIN":"20鄰","STREET":"凱旋路","SECT":" ","MAREA":" ","LANE":" ","ALLEY":" ","HOUSE_NO":"３１６號","E_COORD97":170751.01000000001,"N_COORD97":2543787.8399999999,"ADDRESS":"凱旋路３１６號","OBJECTID":476749},"geometry":{"x":170751.01000000071,"y":2543787.8400000036}},{"attributes":{"ID":476775,"DIS_CODE":0,"TOWNNAME":"東區","LI":"東光里","LIN":"20鄰","STREET":"凱旋路","SECT":" ","MAREA":" ","LANE":" ","ALLEY":" ","HOUSE_NO":"３１８號","E_COORD97":170746.67000000001,"N_COORD97":2543790.0099999998,"ADDRESS":"凱旋路３１８號","OBJECTID":476750},"geometry":{"x":170746.67000000086,"y":2543790.0100000035}},{"attributes":{"ID":476776,"DIS_CODE":0,"TOWNNAME":"東區","LI":"東光里","LIN":"20鄰","STREET":"凱旋路","SECT":" ","MAREA":" ","LANE":" ","ALLEY":" ","HOUSE_NO":"３２０號","E_COORD97":170741.89000000001,"N_COORD97":2543789.29,"ADDRESS":"凱旋路３２０號","OBJECTID":476751},"geometry":{"x":170741.8900000006,"y":2543789.2899999991}},{"attributes":{"ID":476777,"DIS_CODE":0,"TOWNNAME":"東區","LI":"東光里","LIN":"20鄰","STREET":"凱旋路","SECT":" ","MAREA":" ","LANE":" ","ALLEY":" ","HOUSE_NO":"３２２號","E_COORD97":170736.82000000001,"N_COORD97":2543790.4500000002,"ADDRESS":"凱旋路３２２號","OBJECTID":476752},"geometry":{"x":170736.8200000003,"y":2543790.4500000011}},{"attributes":{"ID":476778,"DIS_CODE":0,"TOWNNAME":"安南區","LI":"溪北里","LIN":"20鄰","STREET":"郡安路","SECT":"四段","MAREA":" ","LANE":" ","ALLEY":" ","HOUSE_NO":"７２號","E_COORD97":169129.51999999999,"N_COORD97":2547593.1699999999,"ADDRESS":"郡安路四段７２號","OBJECTID":476753},"geometry":{"x":169129.51999999955,"y":2547593.1700000037}},{"attributes":{"ID":476779,"DIS_CODE":0,"TOWNNAME":"安南區","LI":"溪北里","LIN":"20鄰","STREET":"郡安路","SECT":"四段","MAREA":" ","LANE":" ","ALLEY":" ","HOUSE_NO":"７３號","E_COORD97":169121.45000000001,"N_COORD97":2547593.6099999999,"ADDRESS":"郡安路四段７３號","OBJECTID":476754},"geometry":{"x":169121.45000000112,"y":2547593.6100000013}},{"attributes":{"ID":476780,"DIS_CODE":0,"TOWNNAME":"安南區","LI":"溪北里","LIN":"20鄰","STREET":"郡安路","SECT":"四段","MAREA":" ","LANE":" ","ALLEY":" ","HOUSE_NO":"７４號","E_COORD97":169113.89999999999,"N_COORD97":2547594.9300000002,"ADDRESS":"郡安路四段７４號","OBJECTID":476755},"geometry":{"x":169113.90000000037,"y":2547594.9300000016}},{"attributes":{"ID":476781,"DIS_CODE":0,"TOWNNAME":"安南區","LI":"溪北里","LIN":"20鄰","STREET":"郡安路","SECT":"四段","MAREA":" ","LANE":" ","ALLEY":" ","HOUSE_NO":"７５號","E_COORD97":169109,"N_COORD97":2547594.73,"ADDRESS":"郡安路四段７５號","OBJECTID":476756},"geometry":{"x":169109.00000000093,"y":2547594.7300000023}},{"attributes":{"ID":476782,"DIS_CODE":0,"TOWNNAME":"善化區","LI":"光文里","LIN":"20鄰","STREET":"民生路","SECT":" ","MAREA":" ","LANE":" ","ALLEY":" ","HOUSE_NO":"３２９號","E_COORD97":178099.73999999999,"N_COORD97":2558889.0099999998,"ADDRESS":"民生路３２９號","OBJECTID":476757},"geometry":{"x":178099.74000000022,"y":2558889.0100000016}},{"attributes":{"ID":476783,"DIS_CODE":0,"TOWNNAME":"善化區","LI":"光文里","LIN":"20鄰","STREET":"民權路","SECT":" ","MAREA":" ","LANE":" ","ALLEY":" ","HOUSE_NO":"２５５號","E_COORD97":178042.26999999999,"N_COORD97":2558968.2599999998,"ADDRESS":"民權路２５５號","OBJECTID":476758},"geometry":{"x":178042.26999999955,"y":2558968.2600000016}},{"attributes":{"ID":476784,"DIS_CODE":0,"TOWNNAME":"善化區","LI":"光文里","LIN":"20鄰","STREET":"大成路","SECT":" ","MAREA":" ","LANE":" ","ALLEY":" ","HOUSE_NO":"３３８號","E_COORD97":178049.79999999999,"N_COORD97":2558827.25,"ADDRESS":"大成路３３８號","OBJECTID":476759},"geometry":{"x":178049.79999999981,"y":2558827.25}},{"attributes":{"ID":476785,"DIS_CODE":0,"TOWNNAME":"善化區","LI":"東關里","LIN":"20鄰","STREET":"中山路","SECT":" ","MAREA":" ","LANE":" ","ALLEY":" ","HOUSE_NO":"３５３號之１","E_COORD97":177582.82999999999,"N_COORD97":2559044.02,"ADDRESS":"中山路３５３號之１","OBJECTID":476760},"geometry":{"x":177582.83000000101,"y":2559044.0200000014}},{"attributes":{"ID":476786,"DIS_CODE":0,"TOWNNAME":"善化區","LI":"光文里","LIN":"20鄰","STREET":"民生路","SECT":" ","MAREA":" ","LANE":" ","ALLEY":" ","HOUSE_NO":"３４５號","E_COORD97":178066.45999999999,"N_COORD97":2558890.5099999998,"ADDRESS":"民生路３４５號","OBJECTID":476761},"geometry":{"x":178066.46000000089,"y":2558890.5099999979}},{"attributes":{"ID":476787,"DIS_CODE":0,"TOWNNAME":"永康區","LI":"網寮里","LIN":"20鄰","STREET":"文化路","SECT":" ","MAREA":" ","LANE":" ","ALLEY":" ","HOUSE_NO":"３２７號","E_COORD97":173414.67999999999,"N_COORD97":2546155.8199999998,"ADDRESS":"文化路３２７號","OBJECTID":476762},"geometry":{"x":173414.68000000063,"y":2546155.8200000022}},{"attributes":{"ID":476788,"DIS_CODE":0,"TOWNNAME":"善化區","LI":"東關里","LIN":"20鄰","STREET":"中山路","SECT":" ","MAREA":" ","LANE":" ","ALLEY":" ","HOUSE_NO":"３５９號","E_COORD97":177552.75,"N_COORD97":2559087.75,"ADDRESS":"中山路３５９號","OBJECTID":476763},"geometry":{"x":177552.75000000093,"y":2559087.75}},{"attributes":{"ID":476789,"DIS_CODE":0,"TOWNNAME":"善化區","LI":"東關里","LIN":"20鄰","STREET":"中山路","SECT":" ","MAREA":" ","LANE":" ","ALLEY":" ","HOUSE_NO":"３６５號之１","E_COORD97":177523.60000000001,"N_COORD97":2559089.77,"ADDRESS":"中山路３６５號之１","OBJECTID":476764},"geometry":{"x":177523.59999999963,"y":2559089.7700000014}},{"attributes":{"ID":476790,"DIS_CODE":0,"TOWNNAME":"東區","LI":"崇德里","LIN":"20鄰","STREET":"崇明十四街","SECT":" ","MAREA":" ","LANE":" ","ALLEY":" ","HOUSE_NO":"８３號","E_COORD97":170652.98000000001,"N_COORD97":2541664.1699999999,"ADDRESS":"崇明十四街８３號","OBJECTID":476765},"geometry":{"x":170652.98000000045,"y":2541664.1700000018}},{"attributes":{"ID":476791,"DIS_CODE":0,"TOWNNAME":"東區","LI":"崇德里","LIN":"20鄰","STREET":"崇明十四街","SECT":" ","MAREA":" ","LANE":" ","ALLEY":" ","HOUSE_NO":"３號","E_COORD97":170528.42000000001,"N_COORD97":2541514.46,"ADDRESS":"崇明十四街３號","OBJECTID":476766},"geometry":{"x":170528.42000000086,"y":2541514.4600000028}},{"attributes":{"ID":476792,"DIS_CODE":0,"TOWNNAME":"東區","LI":"崇德里","LIN":"20鄰","STREET":"崇明十四街","SECT":" ","MAREA":" ","LANE":" ","ALLEY":" ","HOUSE_NO":"３號之１","E_COORD97":170530.98000000001,"N_COORD97":2541517.8799999999,"ADDRESS":"崇明十四街３號之１","OBJECTID":476767},"geometry":{"x":170530.98000000045,"y":2541517.879999999}},{"attributes":{"ID":476793,"DIS_CODE":0,"TOWNNAME":"東區","LI":"崇德里","LIN":"20鄰","STREET":"崇明十四街","SECT":" ","MAREA":" ","LANE":" ","ALLEY":" ","HOUSE_NO":"３號之２","E_COORD97":170533.78,"N_COORD97":2541521.5600000001,"ADDRESS":"崇明十四街３號之２","OBJECTID":476768},"geometry":{"x":170533.78000000026,"y":2541521.5600000005}},{"attributes":{"ID":476794,"DIS_CODE":0,"TOWNNAME":"東區","LI":"崇德里","LIN":"20鄰","STREET":"崇明十四街","SECT":" ","MAREA":" ","LANE":" ","ALLEY":" ","HOUSE_NO":"３號之３","E_COORD97":170536.09,"N_COORD97":2541524.3900000001,"ADDRESS":"崇明十四街３號之３","OBJECTID":476769},"geometry":{"x":170536.08999999985,"y":2541524.3900000025}},{"attributes":{"ID":476795,"DIS_CODE":0,"TOWNNAME":"東區","LI":"崇德里","LIN":"20鄰","STREET":"崇明十四街","SECT":" ","MAREA":" ","LANE":" ","ALLEY":" ","HOUSE_NO":"５７號","E_COORD97":170616.25,"N_COORD97":2541622.1299999999,"ADDRESS":"崇明十四街５７號","OBJECTID":476770},"geometry":{"x":170616.25,"y":2541622.1300000027}},{"attributes":{"ID":476796,"DIS_CODE":0,"TOWNNAME":"東區","LI":"崇德里","LIN":"20鄰","STREET":"崇明十四街","SECT":" ","MAREA":" ","LANE":" ","ALLEY":" ","HOUSE_NO":"５８號","E_COORD97":170648.23999999999,"N_COORD97":2541627.23,"ADDRESS":"崇明十四街５８號","OBJECTID":476771},"geometry":{"x":170648.24000000115,"y":2541627.2300000023}},{"attributes":{"ID":476797,"DIS_CODE":0,"TOWNNAME":"東區","LI":"崇德里","LIN":"20鄰","STREET":"崇明十四街","SECT":" ","MAREA":" ","LANE":" ","ALLEY":" ","HOUSE_NO":"５號","E_COORD97":170538.92000000001,"N_COORD97":2541529.6499999999,"ADDRESS":"崇明十四街５號","OBJECTID":476772},"geometry":{"x":170538.91999999993,"y":2541529.6500000022}},{"attributes":{"ID":476798,"DIS_CODE":0,"TOWNNAME":"東區","LI":"崇德里","LIN":"20鄰","STREET":"崇明十四街","SECT":" ","MAREA":" ","LANE":" ","ALLEY":" ","HOUSE_NO":"６２號","E_COORD97":170664.01000000001,"N_COORD97":2541636.8900000001,"ADDRESS":"崇明十四街６２號","OBJECTID":476773},"geometry":{"x":170664.00999999978,"y":2541636.8900000025}},{"attributes":{"ID":476799,"DIS_CODE":0,"TOWNNAME":"東區","LI":"崇德里","LIN":"20鄰","STREET":"崇明十四街","SECT":" ","MAREA":" ","LANE":" ","ALLEY":" ","HOUSE_NO":"６３號","E_COORD97":170623.72,"N_COORD97":2541630.4500000002,"ADDRESS":"崇明十四街６３號","OBJECTID":476774},"geometry":{"x":170623.71999999881,"y":2541630.450000003}},{"attributes":{"ID":476800,"DIS_CODE":0,"TOWNNAME":"東區","LI":"崇德里","LIN":"20鄰","STREET":"崇明十四街","SECT":" ","MAREA":" ","LANE":" ","ALLEY":" ","HOUSE_NO":"６５號","E_COORD97":170626.5,"N_COORD97":2541633.6600000001,"ADDRESS":"崇明十四街６５號","OBJECTID":476775},"geometry":{"x":170626.5,"y":2541633.660000002}},{"attributes":{"ID":476801,"DIS_CODE":0,"TOWNNAME":"東區","LI":"崇德里","LIN":"20鄰","STREET":"崇明十四街","SECT":" ","MAREA":" ","LANE":" ","ALLEY":" ","HOUSE_NO":"６６號","E_COORD97":170670.28,"N_COORD97":2541645.71,"ADDRESS":"崇明十四街６６號","OBJECTID":476776},"geometry":{"x":170670.28000000119,"y":2541645.7100000009}},{"attributes":{"ID":476802,"DIS_CODE":0,"TOWNNAME":"東區","LI":"崇德里","LIN":"20鄰","STREET":"崇明十四街","SECT":" ","MAREA":" ","LANE":" ","ALLEY":" ","HOUSE_NO":"６７號","E_COORD97":170629.48999999999,"N_COORD97":2541636.8599999999,"ADDRESS":"崇明十四街６７號","OBJECTID":476777},"geometry":{"x":170629.49000000115,"y":2541636.8599999994}},{"attributes":{"ID":476803,"DIS_CODE":0,"TOWNNAME":"東區","LI":"崇德里","LIN":"20鄰","STREET":"崇明十四街","SECT":" ","MAREA":" ","LANE":" ","ALLEY":" ","HOUSE_NO":"６９號","E_COORD97":170632.69,"N_COORD97":2541640.0600000001,"ADDRESS":"崇明十四街６９號","OBJECTID":476778},"geometry":{"x":170632.69000000041,"y":2541640.0600000005}},{"attributes":{"ID":476804,"DIS_CODE":0,"TOWNNAME":"東區","LI":"崇德里","LIN":"20鄰","STREET":"崇明十四街","SECT":" ","MAREA":" ","LANE":" ","ALLEY":" ","HOUSE_NO":"７３號","E_COORD97":170637.60000000001,"N_COORD97":2541646.46,"ADDRESS":"崇明十四街７３號","OBJECTID":476779},"geometry":{"x":170637.59999999963,"y":2541646.4600000028}},{"attributes":{"ID":476805,"DIS_CODE":0,"TOWNNAME":"東區","LI":"崇德里","LIN":"20鄰","STREET":"崇明十四街","SECT":" ","MAREA":" ","LANE":" ","ALLEY":" ","HOUSE_NO":"７７號","E_COORD97":170645.07999999999,"N_COORD97":2541653.5,"ADDRESS":"崇明十四街７７號","OBJECTID":476780},"geometry":{"x":170645.08000000007,"y":2541653.5}},{"attributes":{"ID":476806,"DIS_CODE":0,"TOWNNAME":"東區","LI":"崇德里","LIN":"20鄰","STREET":"崇明十四街","SECT":" ","MAREA":" ","LANE":" ","ALLEY":" ","HOUSE_NO":"７９號","E_COORD97":170647.20999999999,"N_COORD97":2541656.7000000002,"ADDRESS":"崇明十四街７９號","OBJECTID":476781},"geometry":{"x":170647.20999999996,"y":2541656.7000000011}},{"attributes":{"ID":476807,"DIS_CODE":0,"TOWNNAME":"東區","LI":"崇德里","LIN":"20鄰","STREET":"崇明十四街","SECT":" ","MAREA":" ","LANE":" ","ALLEY":" ","HOUSE_NO":"７號","E_COORD97":170543.51000000001,"N_COORD97":2541533.9399999999,"ADDRESS":"崇明十四街７號","OBJECTID":476782},"geometry":{"x":170543.50999999978,"y":2541533.9399999995}},{"attributes":{"ID":476808,"DIS_CODE":0,"TOWNNAME":"東區","LI":"崇德里","LIN":"20鄰","STREET":"崇明十四街","SECT":" ","MAREA":" ","LANE":" ","ALLEY":" ","HOUSE_NO":"８１號","E_COORD97":170650.42000000001,"N_COORD97":2541660.9700000002,"ADDRESS":"崇明十四街８１號","OBJECTID":476783},"geometry":{"x":170650.42000000086,"y":2541660.9700000007}},{"attributes":{"ID":476809,"DIS_CODE":0,"TOWNNAME":"東區","LI":"崇德里","LIN":"20鄰","STREET":"崇明十四街","SECT":" ","MAREA":" ","LANE":" ","ALLEY":" ","HOUSE_NO":"８５號","E_COORD97":170655.12,"N_COORD97":2541668.4399999999,"ADDRESS":"崇明十四街８５號","OBJECTID":476784},"geometry":{"x":170655.12000000011,"y":2541668.4400000013}},{"attributes":{"ID":476810,"DIS_CODE":0,"TOWNNAME":"東區","LI":"崇德里","LIN":"20鄰","STREET":"崇明十四街","SECT":" ","MAREA":" ","LANE":" ","ALLEY":" ","HOUSE_NO":"８７號","E_COORD97":170658.32000000001,"N_COORD97":2541672.0699999998,"ADDRESS":"崇明十四街８７號","OBJECTID":476785},"geometry":{"x":170658.32000000123,"y":2541672.0700000022}},{"attributes":{"ID":476811,"DIS_CODE":0,"TOWNNAME":"東區","LI":"崇德里","LIN":"20鄰","STREET":"崇明十四街","SECT":" ","MAREA":" ","LANE":" ","ALLEY":" ","HOUSE_NO":"８９號","E_COORD97":170661.51999999999,"N_COORD97":2541675.48,"ADDRESS":"崇明十四街８９號","OBJECTID":476786},"geometry":{"x":170661.51999999955,"y":2541675.4800000042}},{"attributes":{"ID":476812,"DIS_CODE":0,"TOWNNAME":"東區","LI":"崇德里","LIN":"20鄰","STREET":"崇明十四街","SECT":" ","MAREA":" ","LANE":" ","ALLEY":" ","HOUSE_NO":"９號","E_COORD97":170546.06,"N_COORD97":2541536.8300000001,"ADDRESS":"崇明十四街９號","OBJECTID":476787},"geometry":{"x":170546.05999999959,"y":2541536.8300000038}},{"attributes":{"ID":476813,"DIS_CODE":0,"TOWNNAME":"東區","LI":"東安里","LIN":"20鄰","STREET":"林森路","SECT":"二段","MAREA":" ","LANE":" ","ALLEY":" ","HOUSE_NO":"６５號","E_COORD97":170305.26000000001,"N_COORD97":2543038.0899999999,"ADDRESS":"林森路二段６５號","OBJECTID":476788},"geometry":{"x":170305.26000000071,"y":2543038.0900000017}},{"attributes":{"ID":476814,"DIS_CODE":0,"TOWNNAME":"東區","LI":"東安里","LIN":"20鄰","STREET":"林森路","SECT":"二段","MAREA":" ","LANE":" ","ALLEY":" ","HOUSE_NO":"６７號","E_COORD97":170306.81,"N_COORD97":2543043.5299999998,"ADDRESS":"林森路二段６７號","OBJECTID":476789},"geometry":{"x":170306.81000000052,"y":2543043.5300000031}},{"attributes":{"ID":476815,"DIS_CODE":0,"TOWNNAME":"東區","LI":"東安里","LIN":"20鄰","STREET":"林森路","SECT":"二段","MAREA":" ","LANE":" ","ALLEY":" ","HOUSE_NO":"６９號","E_COORD97":170308.26000000001,"N_COORD97":2543047.3399999999,"ADDRESS":"林森路二段６９號","OBJECTID":476790},"geometry":{"x":170308.26000000164,"y":2543047.3399999999}},{"attributes":{"ID":476816,"DIS_CODE":0,"TOWNNAME":"東區","LI":"崇德里","LIN":"20鄰","STREET":"崇明十四街","SECT":" ","MAREA":" ","LANE":" ","ALLEY":" ","HOUSE_NO":"５９號","E_COORD97":170618.38,"N_COORD97":2541625.7599999998,"ADDRESS":"崇明十四街５９號","OBJECTID":476791},"geometry":{"x":170618.38000000082,"y":2541625.7600000016}},{"attributes":{"ID":476817,"DIS_CODE":0,"TOWNNAME":"東區","LI":"崇德里","LIN":"20鄰","STREET":"崇明十四街","SECT":" ","MAREA":" ","LANE":" ","ALLEY":" ","HOUSE_NO":"６１號","E_COORD97":170620.51999999999,"N_COORD97":2541627.8900000001,"ADDRESS":"崇明十四街６１號","OBJECTID":476792},"geometry":{"x":170620.52000000048,"y":2541627.8900000006}},{"attributes":{"ID":476818,"DIS_CODE":0,"TOWNNAME":"東區","LI":"崇德里","LIN":"20鄰","STREET":"崇明十四街","SECT":" ","MAREA":" ","LANE":" ","ALLEY":" ","HOUSE_NO":"７１號","E_COORD97":170634.82999999999,"N_COORD97":2541642.8300000001,"ADDRESS":"崇明十四街７１號","OBJECTID":476793},"geometry":{"x":170634.83000000007,"y":2541642.8300000019}},{"attributes":{"ID":476819,"DIS_CODE":0,"TOWNNAME":"仁德區","LI":"保安里","LIN":"20鄰","STREET":"保安路","SECT":"一段","MAREA":" ","LANE":" ","ALLEY":" ","HOUSE_NO":"３號","E_COORD97":170424.70000000001,"N_COORD97":2536000.3100000001,"ADDRESS":"保安路一段３號","OBJECTID":476794},"geometry":{"x":170424.70000000112,"y":2536000.3100000005}},{"attributes":{"ID":476820,"DIS_CODE":0,"TOWNNAME":"仁德區","LI":"成功里","LIN":"20鄰","STREET":"成功一街","SECT":" ","MAREA":" ","LANE":" ","ALLEY":" ","HOUSE_NO":"８２號","E_COORD97":170511.82999999999,"N_COORD97":2539852.2599999998,"ADDRESS":"成功一街８２號","OBJECTID":476795},"geometry":{"x":170511.83000000101,"y":2539852.2600000035}},{"attributes":{"ID":476821,"DIS_CODE":0,"TOWNNAME":"仁德區","LI":"後壁里","LIN":"20鄰","STREET":"中正路","SECT":"二段","MAREA":" ","LANE":" ","ALLEY":" ","HOUSE_NO":"１１４號","E_COORD97":173188.29999999999,"N_COORD97":2538512.02,"ADDRESS":"中正路二段１１４號","OBJECTID":476796},"geometry":{"x":173188.30000000075,"y":2538512.0200000014}},{"attributes":{"ID":476822,"DIS_CODE":0,"TOWNNAME":"永康區","LI":"\u25A0行里","LIN":"20鄰","STREET":"中正六街","SECT":" ","MAREA":" ","LANE":" ","ALLEY":" ","HOUSE_NO":"１３９號","E_COORD97":171822.38,"N_COORD97":2548793.0299999998,"ADDRESS":"中正六街１３９號","OBJECTID":476797},"geometry":{"x":171822.37999999989,"y":2548793.0299999993}},{"attributes":{"ID":476823,"DIS_CODE":0,"TOWNNAME":"仁德區","LI":"太子里","LIN":"20鄰","STREET":"長興四街","SECT":" ","MAREA":" ","LANE":" ","ALLEY":" ","HOUSE_NO":"２８號","E_COORD97":174008.88,"N_COORD97":2543633.0099999998,"ADDRESS":"長興四街２８號","OBJECTID":476798},"geometry":{"x":174008.88000000082,"y":2543633.0099999998}},{"attributes":{"ID":476824,"DIS_CODE":0,"TOWNNAME":"官田區","LI":"隆本里","LIN":"20鄰","STREET":"勝利路","SECT":" ","MAREA":" ","LANE":" ","ALLEY":" ","HOUSE_NO":"２３８號","E_COORD97":180122.04999999999,"N_COORD97":2566319.48,"ADDRESS":"勝利路２３８號","OBJECTID":476799},"geometry":{"x":180122.05000000075,"y":2566319.4800000004}},{"attributes":{"ID":476825,"DIS_CODE":0,"TOWNNAME":"官田區","LI":"隆本里","LIN":"20鄰","STREET":"勝利路","SECT":" ","MAREA":" ","LANE":" ","ALLEY":" ","HOUSE_NO":"２４２號","E_COORD97":180117.01000000001,"N_COORD97":2566325.9300000002,"ADDRESS":"勝利路２４２號","OBJECTID":476800},"geometry":{"x":180117.01000000071,"y":2566325.9299999997}}]}