{"displayFieldName":"TOWNNAME","fieldAliases":{"ID":"ID","DIS_CODE":"DIS_CODE","TOWNNAME":"TOWNNAME","LI":"LI","LIN":"LIN","STREET":"STREET","SECT":"SECT","MAREA":"MAREA","LANE":"LANE","ALLEY":"ALLEY","HOUSE_NO":"HOUSE_NO","E_COORD97":"E_COORD97","N_COORD97":"N_COORD97","ADDRESS":"ADDRESS","OBJECTID":"OBJECTID"},"geometryType":"esriGeometryPoint","spatialReference":{"wkid":102443,"latestWkid":3826},"fields":[{"name":"ID","type":"esriFieldTypeDouble","alias":"ID"},{"name":"DIS_CODE","type":"esriFieldTypeInteger","alias":"DIS_CODE"},{"name":"TOWNNAME","type":"esriFieldTypeString","alias":"TOWNNAME","length":8},{"name":"LI","type":"esriFieldTypeString","alias":"LI","length":8},{"name":"LIN","type":"esriFieldTypeString","alias":"LIN","length":12},{"name":"STREET","type":"esriFieldTypeString","alias":"STREET","length":20},{"name":"SECT","type":"esriFieldTypeString","alias":"SECT","length":8},{"name":"MAREA","type":"esriFieldTypeString","alias":"MAREA","length":12},{"name":"LANE","type":"esriFieldTypeString","alias":"LANE","length":10},{"name":"ALLEY","type":"esriFieldTypeString","alias":"ALLEY","length":10},{"name":"HOUSE_NO","type":"esriFieldTypeString","alias":"HOUSE_NO","length":20},{"name":"E_COORD97","type":"esriFieldTypeDouble","alias":"E_COORD97"},{"name":"N_COORD97","type":"esriFieldTypeDouble","alias":"N_COORD97"},{"name":"ADDRESS","type":"esriFieldTypeString","alias":"ADDRESS","length":50},{"name":"OBJECTID","type":"esriFieldTypeOID","alias":"OBJECTID"}],"features":[{"attributes":{"ID":8201,"DIS_CODE":0,"TOWNNAME":"將軍區","LI":"西和里","LIN":"13鄰","STREET":" ","SECT":" ","MAREA":"西和","LANE":" ","ALLEY":" ","HOUSE_NO":"１１１號","E_COORD97":163259.82999999999,"N_COORD97":2566180.23,"ADDRESS":"西和１１１號","OBJECTID":8201},"geometry":{"x":163259.83000000101,"y":2566180.2300000023}},{"attributes":{"ID":8202,"DIS_CODE":0,"TOWNNAME":"南區","LI":"南都里","LIN":"13鄰","STREET":"中華南路","SECT":"二段","MAREA":" ","LANE":"３１５巷","ALLEY":"３弄","HOUSE_NO":"１９號三樓","E_COORD97":166563.09,"N_COORD97":2540206.3399999999,"ADDRESS":"中華南路二段３１５巷３弄１９號三樓","OBJECTID":8202},"geometry":{"x":166563.09000000171,"y":2540206.3399999999}},{"attributes":{"ID":8203,"DIS_CODE":0,"TOWNNAME":"南區","LI":"南都里","LIN":"13鄰","STREET":"中華南路","SECT":"二段","MAREA":" ","LANE":"３１５巷","ALLEY":"３弄","HOUSE_NO":"１９號五樓","E_COORD97":166563.09,"N_COORD97":2540206.3399999999,"ADDRESS":"中華南路二段３１５巷３弄１９號五樓","OBJECTID":8203},"geometry":{"x":166563.09000000171,"y":2540206.3399999999}},{"attributes":{"ID":8204,"DIS_CODE":0,"TOWNNAME":"南區","LI":"南都里","LIN":"13鄰","STREET":"中華南路","SECT":"二段","MAREA":" ","LANE":"３１５巷","ALLEY":"３弄","HOUSE_NO":"１９號四樓","E_COORD97":166563.09,"N_COORD97":2540206.3399999999,"ADDRESS":"中華南路二段３１５巷３弄１９號四樓","OBJECTID":8204},"geometry":{"x":166563.09000000171,"y":2540206.3399999999}},{"attributes":{"ID":8205,"DIS_CODE":0,"TOWNNAME":"南區","LI":"南都里","LIN":"13鄰","STREET":"中華南路","SECT":"二段","MAREA":" ","LANE":"３１５巷","ALLEY":"３弄","HOUSE_NO":"２１號二樓","E_COORD97":166572.98999999999,"N_COORD97":2540206.9100000001,"ADDRESS":"中華南路二段３１５巷３弄２１號二樓","OBJECTID":8205},"geometry":{"x":166572.99000000115,"y":2540206.9100000001}},{"attributes":{"ID":8206,"DIS_CODE":0,"TOWNNAME":"北區","LI":"成德里","LIN":"13鄰","STREET":"立賢路","SECT":"一段","MAREA":" ","LANE":"６８２巷","ALLEY":" ","HOUSE_NO":"２６號","E_COORD97":168231.28,"N_COORD97":2545651.7599999998,"ADDRESS":"立賢路一段６８２巷２６號","OBJECTID":8206},"geometry":{"x":168231.28000000026,"y":2545651.7599999998}},{"attributes":{"ID":8207,"DIS_CODE":0,"TOWNNAME":"北區","LI":"文成里","LIN":"13鄰","STREET":"文賢一路","SECT":" ","MAREA":" ","LANE":" ","ALLEY":" ","HOUSE_NO":"１０８號","E_COORD97":167607.76999999999,"N_COORD97":2545445.1499999999,"ADDRESS":"文賢一路１０８號","OBJECTID":8207},"geometry":{"x":167607.77000000048,"y":2545445.1500000022}},{"attributes":{"ID":8208,"DIS_CODE":0,"TOWNNAME":"北區","LI":"文成里","LIN":"13鄰","STREET":"文賢一路","SECT":" ","MAREA":" ","LANE":" ","ALLEY":" ","HOUSE_NO":"１０６號","E_COORD97":167607.64999999999,"N_COORD97":2545438.04,"ADDRESS":"文賢一路１０６號","OBJECTID":8208},"geometry":{"x":167607.6500000013,"y":2545438.040000001}},{"attributes":{"ID":8209,"DIS_CODE":0,"TOWNNAME":"北區","LI":"文成里","LIN":"13鄰","STREET":"文賢一路","SECT":" ","MAREA":" ","LANE":" ","ALLEY":" ","HOUSE_NO":"１０２號","E_COORD97":167607.64999999999,"N_COORD97":2545430.4199999999,"ADDRESS":"文賢一路１０２號","OBJECTID":8209},"geometry":{"x":167607.6500000013,"y":2545430.4199999999}},{"attributes":{"ID":8210,"DIS_CODE":0,"TOWNNAME":"北區","LI":"文成里","LIN":"13鄰","STREET":"文賢一路","SECT":" ","MAREA":" ","LANE":" ","ALLEY":" ","HOUSE_NO":"１００號","E_COORD97":167607.51999999999,"N_COORD97":2545422.7999999998,"ADDRESS":"文賢一路１００號","OBJECTID":8210},"geometry":{"x":167607.52000000142,"y":2545422.8000000007}},{"attributes":{"ID":8211,"DIS_CODE":0,"TOWNNAME":"北區","LI":"文成里","LIN":"13鄰","STREET":"文賢一路","SECT":" ","MAREA":" ","LANE":" ","ALLEY":" ","HOUSE_NO":"９８號","E_COORD97":167607.14000000001,"N_COORD97":2545415.75,"ADDRESS":"文賢一路９８號","OBJECTID":8211},"geometry":{"x":167607.1400000006,"y":2545415.7499999981}},{"attributes":{"ID":8212,"DIS_CODE":0,"TOWNNAME":"北區","LI":"文成里","LIN":"13鄰","STREET":"文賢一路","SECT":" ","MAREA":" ","LANE":" ","ALLEY":" ","HOUSE_NO":"９６號","E_COORD97":167607.14000000001,"N_COORD97":2545408.6400000001,"ADDRESS":"文賢一路９６號","OBJECTID":8212},"geometry":{"x":167607.1400000006,"y":2545408.6400000025}},{"attributes":{"ID":8213,"DIS_CODE":0,"TOWNNAME":"北區","LI":"文成里","LIN":"13鄰","STREET":"文賢一路","SECT":" ","MAREA":" ","LANE":" ","ALLEY":" ","HOUSE_NO":"９２號","E_COORD97":167606.88,"N_COORD97":2545401.7799999998,"ADDRESS":"文賢一路９２號","OBJECTID":8213},"geometry":{"x":167606.87999999989,"y":2545401.7800000031}},{"attributes":{"ID":8214,"DIS_CODE":0,"TOWNNAME":"北區","LI":"文成里","LIN":"13鄰","STREET":"文賢一路","SECT":" ","MAREA":" ","LANE":" ","ALLEY":" ","HOUSE_NO":"８８號","E_COORD97":167605.87,"N_COORD97":2545387.8700000001,"ADDRESS":"文賢一路８８號","OBJECTID":8214},"geometry":{"x":167605.87000000104,"y":2545387.870000001}},{"attributes":{"ID":8215,"DIS_CODE":0,"TOWNNAME":"北區","LI":"文成里","LIN":"13鄰","STREET":"文賢一路","SECT":" ","MAREA":" ","LANE":" ","ALLEY":" ","HOUSE_NO":"８６號","E_COORD97":167605.48999999999,"N_COORD97":2545380.8900000001,"ADDRESS":"文賢一路８６號","OBJECTID":8215},"geometry":{"x":167605.49000000115,"y":2545380.8900000006}},{"attributes":{"ID":8216,"DIS_CODE":0,"TOWNNAME":"將軍區","LI":"平沙里","LIN":"13鄰","STREET":" ","SECT":" ","MAREA":"平沙","LANE":" ","ALLEY":" ","HOUSE_NO":"１１８之８號","E_COORD97":157268.98999999999,"N_COORD97":2568359.0600000001,"ADDRESS":"平沙１１８之８號","OBJECTID":8216},"geometry":{"x":157268.99000000022,"y":2568359.0600000005}},{"attributes":{"ID":8217,"DIS_CODE":0,"TOWNNAME":"南區","LI":"南都里","LIN":"13鄰","STREET":"中華南路","SECT":"二段","MAREA":" ","LANE":"３１５巷","ALLEY":"３弄","HOUSE_NO":"２１號三樓","E_COORD97":166572.98999999999,"N_COORD97":2540206.9100000001,"ADDRESS":"中華南路二段３１５巷３弄２１號三樓","OBJECTID":8217},"geometry":{"x":166572.99000000115,"y":2540206.9100000001}},{"attributes":{"ID":8218,"DIS_CODE":0,"TOWNNAME":"南區","LI":"南都里","LIN":"13鄰","STREET":"中華南路","SECT":"二段","MAREA":" ","LANE":"３１５巷","ALLEY":"３弄","HOUSE_NO":"２１號五樓","E_COORD97":166572.98999999999,"N_COORD97":2540206.9100000001,"ADDRESS":"中華南路二段３１５巷３弄２１號五樓","OBJECTID":8218},"geometry":{"x":166572.99000000115,"y":2540206.9100000001}},{"attributes":{"ID":8219,"DIS_CODE":0,"TOWNNAME":"南區","LI":"南都里","LIN":"13鄰","STREET":"中華南路","SECT":"二段","MAREA":" ","LANE":"３１５巷","ALLEY":"３弄","HOUSE_NO":"２１號四樓","E_COORD97":166572.98999999999,"N_COORD97":2540206.9100000001,"ADDRESS":"中華南路二段３１５巷３弄２１號四樓","OBJECTID":8219},"geometry":{"x":166572.99000000115,"y":2540206.9100000001}},{"attributes":{"ID":8220,"DIS_CODE":0,"TOWNNAME":"南區","LI":"南都里","LIN":"13鄰","STREET":"中華南路","SECT":"二段","MAREA":" ","LANE":"３１５巷","ALLEY":"３弄","HOUSE_NO":"２３號二樓","E_COORD97":166580.34,"N_COORD97":2540206.0600000001,"ADDRESS":"中華南路二段３１５巷３弄２３號二樓","OBJECTID":8220},"geometry":{"x":166580.34000000078,"y":2540206.0600000005}},{"attributes":{"ID":8221,"DIS_CODE":0,"TOWNNAME":"南區","LI":"南都里","LIN":"13鄰","STREET":"中華南路","SECT":"二段","MAREA":" ","LANE":"３１５巷","ALLEY":"３弄","HOUSE_NO":"２３號三樓","E_COORD97":166580.34,"N_COORD97":2540206.0600000001,"ADDRESS":"中華南路二段３１５巷３弄２３號三樓","OBJECTID":8221},"geometry":{"x":166580.34000000078,"y":2540206.0600000005}},{"attributes":{"ID":8222,"DIS_CODE":0,"TOWNNAME":"將軍區","LI":"平沙里","LIN":"13鄰","STREET":" ","SECT":" ","MAREA":"平沙","LANE":" ","ALLEY":" ","HOUSE_NO":"１１８之９號","E_COORD97":157262.63,"N_COORD97":2568366.7999999998,"ADDRESS":"平沙１１８之９號","OBJECTID":8222},"geometry":{"x":157262.62999999989,"y":2568366.8000000026}},{"attributes":{"ID":8223,"DIS_CODE":0,"TOWNNAME":"南區","LI":"南都里","LIN":"13鄰","STREET":"中華南路","SECT":"二段","MAREA":" ","LANE":"３１５巷","ALLEY":"３弄","HOUSE_NO":"２３號五樓","E_COORD97":166580.34,"N_COORD97":2540206.0600000001,"ADDRESS":"中華南路二段３１５巷３弄２３號五樓","OBJECTID":8223},"geometry":{"x":166580.34000000078,"y":2540206.0600000005}},{"attributes":{"ID":8224,"DIS_CODE":0,"TOWNNAME":"南區","LI":"南都里","LIN":"13鄰","STREET":"中華南路","SECT":"二段","MAREA":" ","LANE":"３１５巷","ALLEY":"３弄","HOUSE_NO":"２３號四樓","E_COORD97":166580.34,"N_COORD97":2540206.0600000001,"ADDRESS":"中華南路二段３１５巷３弄２３號四樓","OBJECTID":8224},"geometry":{"x":166580.34000000078,"y":2540206.0600000005}},{"attributes":{"ID":8225,"DIS_CODE":0,"TOWNNAME":"南區","LI":"南都里","LIN":"13鄰","STREET":"中華南路","SECT":"二段","MAREA":" ","LANE":"３１５巷","ALLEY":"３弄","HOUSE_NO":"２５號二樓","E_COORD97":166589.39000000001,"N_COORD97":2540206.3399999999,"ADDRESS":"中華南路二段３１５巷３弄２５號二樓","OBJECTID":8225},"geometry":{"x":166589.38999999966,"y":2540206.3399999999}},{"attributes":{"ID":8226,"DIS_CODE":0,"TOWNNAME":"將軍區","LI":"平沙里","LIN":"13鄰","STREET":" ","SECT":" ","MAREA":"平沙","LANE":" ","ALLEY":" ","HOUSE_NO":"１４０號","E_COORD97":156211.97,"N_COORD97":2568730.5899999999,"ADDRESS":"平沙１４０號","OBJECTID":8226},"geometry":{"x":156211.97000000067,"y":2568730.5900000017}},{"attributes":{"ID":8227,"DIS_CODE":0,"TOWNNAME":"將軍區","LI":"平沙里","LIN":"13鄰","STREET":" ","SECT":" ","MAREA":"平沙","LANE":" ","ALLEY":" ","HOUSE_NO":"１５０號","E_COORD97":156214.67000000001,"N_COORD97":2568193.8300000001,"ADDRESS":"平沙１５０號","OBJECTID":8227},"geometry":{"x":156214.66999999993,"y":2568193.8300000001}},{"attributes":{"ID":8228,"DIS_CODE":0,"TOWNNAME":"將軍區","LI":"平沙里","LIN":"13鄰","STREET":" ","SECT":" ","MAREA":"平沙","LANE":" ","ALLEY":" ","HOUSE_NO":"１５１號","E_COORD97":156391.07999999999,"N_COORD97":2568511.3999999999,"ADDRESS":"平沙１５１號","OBJECTID":8228},"geometry":{"x":156391.08000000101,"y":2568511.4000000022}},{"attributes":{"ID":8229,"DIS_CODE":0,"TOWNNAME":"將軍區","LI":"平沙里","LIN":"13鄰","STREET":" ","SECT":" ","MAREA":"平沙","LANE":" ","ALLEY":" ","HOUSE_NO":"１５３號","E_COORD97":156303.89000000001,"N_COORD97":2568479.48,"ADDRESS":"平沙１５３號","OBJECTID":8229},"geometry":{"x":156303.8900000006,"y":2568479.4799999986}},{"attributes":{"ID":8230,"DIS_CODE":0,"TOWNNAME":"將軍區","LI":"平沙里","LIN":"13鄰","STREET":" ","SECT":" ","MAREA":"平沙","LANE":" ","ALLEY":" ","HOUSE_NO":"１５６號","E_COORD97":156654.85999999999,"N_COORD97":2567893.96,"ADDRESS":"平沙１５６號","OBJECTID":8230},"geometry":{"x":156654.86000000034,"y":2567893.9600000046}},{"attributes":{"ID":8231,"DIS_CODE":0,"TOWNNAME":"南區","LI":"南都里","LIN":"13鄰","STREET":"中華南路","SECT":"二段","MAREA":" ","LANE":"３１５巷","ALLEY":"３弄","HOUSE_NO":"２５號三樓","E_COORD97":166589.39000000001,"N_COORD97":2540206.3399999999,"ADDRESS":"中華南路二段３１５巷３弄２５號三樓","OBJECTID":8231},"geometry":{"x":166589.38999999966,"y":2540206.3399999999}},{"attributes":{"ID":8232,"DIS_CODE":0,"TOWNNAME":"將軍區","LI":"西和里","LIN":"13鄰","STREET":" ","SECT":" ","MAREA":"西和","LANE":" ","ALLEY":" ","HOUSE_NO":"１１２號","E_COORD97":163275.19,"N_COORD97":2566181.8599999999,"ADDRESS":"西和１１２號","OBJECTID":8232},"geometry":{"x":163275.19000000134,"y":2566181.8600000013}},{"attributes":{"ID":8233,"DIS_CODE":0,"TOWNNAME":"南區","LI":"南都里","LIN":"13鄰","STREET":"中華南路","SECT":"二段","MAREA":" ","LANE":"３１５巷","ALLEY":"３弄","HOUSE_NO":"２５號五樓","E_COORD97":166589.39000000001,"N_COORD97":2540206.3399999999,"ADDRESS":"中華南路二段３１５巷３弄２５號五樓","OBJECTID":8233},"geometry":{"x":166589.38999999966,"y":2540206.3399999999}},{"attributes":{"ID":8234,"DIS_CODE":0,"TOWNNAME":"南區","LI":"南都里","LIN":"13鄰","STREET":"中華南路","SECT":"二段","MAREA":" ","LANE":"３１５巷","ALLEY":"３弄","HOUSE_NO":"２５號四樓","E_COORD97":166589.39000000001,"N_COORD97":2540206.3399999999,"ADDRESS":"中華南路二段３１５巷３弄２５號四樓","OBJECTID":8234},"geometry":{"x":166589.38999999966,"y":2540206.3399999999}},{"attributes":{"ID":8235,"DIS_CODE":0,"TOWNNAME":"南區","LI":"南都里","LIN":"13鄰","STREET":"中華南路","SECT":"二段","MAREA":" ","LANE":"３１５巷","ALLEY":"３弄","HOUSE_NO":"２７號二樓","E_COORD97":166597.29999999999,"N_COORD97":2540206.3399999999,"ADDRESS":"中華南路二段３１５巷３弄２７號二樓","OBJECTID":8235},"geometry":{"x":166597.30000000168,"y":2540206.3399999999}},{"attributes":{"ID":8236,"DIS_CODE":0,"TOWNNAME":"南區","LI":"南都里","LIN":"13鄰","STREET":"中華南路","SECT":"二段","MAREA":" ","LANE":"３１５巷","ALLEY":"３弄","HOUSE_NO":"２７號三樓","E_COORD97":166597.29999999999,"N_COORD97":2540206.3399999999,"ADDRESS":"中華南路二段３１５巷３弄２７號三樓","OBJECTID":8236},"geometry":{"x":166597.30000000168,"y":2540206.3399999999}},{"attributes":{"ID":8237,"DIS_CODE":0,"TOWNNAME":"楠西區","LI":"楠西里","LIN":"24鄰","STREET":"中興路","SECT":" ","MAREA":" ","LANE":"６３巷","ALLEY":"２弄","HOUSE_NO":"３號","E_COORD97":197187.60999999999,"N_COORD97":2564381.25,"ADDRESS":"中興路６３巷２弄３號","OBJECTID":8237},"geometry":{"x":197187.61000000127,"y":2564381.25}},{"attributes":{"ID":8238,"DIS_CODE":0,"TOWNNAME":"南區","LI":"南都里","LIN":"13鄰","STREET":"中華南路","SECT":"二段","MAREA":" ","LANE":"３１５巷","ALLEY":"３弄","HOUSE_NO":"２７號五樓","E_COORD97":166597.29999999999,"N_COORD97":2540206.3399999999,"ADDRESS":"中華南路二段３１５巷３弄２７號五樓","OBJECTID":8238},"geometry":{"x":166597.30000000168,"y":2540206.3399999999}},{"attributes":{"ID":8239,"DIS_CODE":0,"TOWNNAME":"鹽水區","LI":"歡雅里","LIN":"13鄰","STREET":" ","SECT":" ","MAREA":"尾寮","LANE":" ","ALLEY":" ","HOUSE_NO":"３號","E_COORD97":172081.20999999999,"N_COORD97":2576597.1499999999,"ADDRESS":"尾寮３號","OBJECTID":8239},"geometry":{"x":172081.20999999996,"y":2576597.1500000004}},{"attributes":{"ID":8240,"DIS_CODE":0,"TOWNNAME":"北區","LI":"文成里","LIN":"13鄰","STREET":"文賢一路","SECT":" ","MAREA":" ","LANE":"９０巷","ALLEY":" ","HOUSE_NO":"１０號","E_COORD97":167631.64999999999,"N_COORD97":2545387.1099999999,"ADDRESS":"文賢一路９０巷１０號","OBJECTID":8240},"geometry":{"x":167631.6500000013,"y":2545387.1100000013}},{"attributes":{"ID":8241,"DIS_CODE":0,"TOWNNAME":"南區","LI":"大林里","LIN":"13鄰","STREET":"國民路","SECT":" ","MAREA":" ","LANE":" ","ALLEY":" ","HOUSE_NO":"５０９號","E_COORD97":168651.45000000001,"N_COORD97":2541405.5899999999,"ADDRESS":"國民路５０９號","OBJECTID":8241},"geometry":{"x":168651.45000000112,"y":2541405.5899999999}},{"attributes":{"ID":8242,"DIS_CODE":0,"TOWNNAME":"南區","LI":"文南里","LIN":"13鄰","STREET":"健康路","SECT":"二段","MAREA":" ","LANE":" ","ALLEY":" ","HOUSE_NO":"３１２號","E_COORD97":166840.45000000001,"N_COORD97":2542515,"ADDRESS":"健康路二段３１２號","OBJECTID":8242},"geometry":{"x":166840.45000000019,"y":2542515}},{"attributes":{"ID":8243,"DIS_CODE":0,"TOWNNAME":"將軍區","LI":"平沙里","LIN":"13鄰","STREET":" ","SECT":" ","MAREA":"平沙","LANE":" ","ALLEY":" ","HOUSE_NO":"１５７號","E_COORD97":156667.25,"N_COORD97":2568019.02,"ADDRESS":"平沙１５７號","OBJECTID":8243},"geometry":{"x":156667.24999999907,"y":2568019.0200000014}},{"attributes":{"ID":8244,"DIS_CODE":0,"TOWNNAME":"將軍區","LI":"平沙里","LIN":"13鄰","STREET":" ","SECT":" ","MAREA":"平沙","LANE":" ","ALLEY":" ","HOUSE_NO":"１６１號","E_COORD97":156475.48999999999,"N_COORD97":2567616.23,"ADDRESS":"平沙１６１號","OBJECTID":8244},"geometry":{"x":156475.49000000022,"y":2567616.2300000004}},{"attributes":{"ID":8245,"DIS_CODE":0,"TOWNNAME":"將軍區","LI":"平沙里","LIN":"13鄰","STREET":" ","SECT":" ","MAREA":"平沙","LANE":" ","ALLEY":" ","HOUSE_NO":"１６８號","E_COORD97":156299.67999999999,"N_COORD97":2567920.4700000002,"ADDRESS":"平沙１６８號","OBJECTID":8245},"geometry":{"x":156299.68000000156,"y":2567920.4700000044}},{"attributes":{"ID":8246,"DIS_CODE":0,"TOWNNAME":"將軍區","LI":"平沙里","LIN":"13鄰","STREET":" ","SECT":" ","MAREA":"平沙","LANE":" ","ALLEY":" ","HOUSE_NO":"１７０號","E_COORD97":156236.04999999999,"N_COORD97":2567930.0600000001,"ADDRESS":"平沙１７０號","OBJECTID":8246},"geometry":{"x":156236.04999999981,"y":2567930.0600000042}},{"attributes":{"ID":8247,"DIS_CODE":0,"TOWNNAME":"將軍區","LI":"玉山里","LIN":"13鄰","STREET":" ","SECT":" ","MAREA":"玉山","LANE":" ","ALLEY":" ","HOUSE_NO":"１０６之２號","E_COORD97":160385.57999999999,"N_COORD97":2567959.2599999998,"ADDRESS":"玉山１０６之２號","OBJECTID":8247},"geometry":{"x":160385.58000000007,"y":2567959.2600000016}},{"attributes":{"ID":8248,"DIS_CODE":0,"TOWNNAME":"將軍區","LI":"玉山里","LIN":"13鄰","STREET":" ","SECT":" ","MAREA":"玉山","LANE":" ","ALLEY":" ","HOUSE_NO":"１０６號","E_COORD97":160441.09,"N_COORD97":2567932.9199999999,"ADDRESS":"玉山１０６號","OBJECTID":8248},"geometry":{"x":160441.08999999985,"y":2567932.9199999999}},{"attributes":{"ID":8249,"DIS_CODE":0,"TOWNNAME":"將軍區","LI":"玉山里","LIN":"13鄰","STREET":" ","SECT":" ","MAREA":"玉山","LANE":" ","ALLEY":" ","HOUSE_NO":"１０７號","E_COORD97":160469.23999999999,"N_COORD97":2567922.0499999998,"ADDRESS":"玉山１０７號","OBJECTID":8249},"geometry":{"x":160469.24000000022,"y":2567922.0500000007}},{"attributes":{"ID":8250,"DIS_CODE":0,"TOWNNAME":"將軍區","LI":"玉山里","LIN":"13鄰","STREET":" ","SECT":" ","MAREA":"玉山","LANE":" ","ALLEY":" ","HOUSE_NO":"１０８號","E_COORD97":160489.26999999999,"N_COORD97":2567911.3199999998,"ADDRESS":"玉山１０８號","OBJECTID":8250},"geometry":{"x":160489.26999999955,"y":2567911.3200000022}},{"attributes":{"ID":8251,"DIS_CODE":0,"TOWNNAME":"將軍區","LI":"玉山里","LIN":"13鄰","STREET":" ","SECT":" ","MAREA":"玉山","LANE":" ","ALLEY":" ","HOUSE_NO":"１０９號","E_COORD97":160512.64999999999,"N_COORD97":2567918.52,"ADDRESS":"玉山１０９號","OBJECTID":8251},"geometry":{"x":160512.65000000037,"y":2567918.5199999996}},{"attributes":{"ID":8252,"DIS_CODE":0,"TOWNNAME":"將軍區","LI":"玉山里","LIN":"13鄰","STREET":" ","SECT":" ","MAREA":"玉山","LANE":" ","ALLEY":" ","HOUSE_NO":"１１０號","E_COORD97":160496.17999999999,"N_COORD97":2567923.6499999999,"ADDRESS":"玉山１１０號","OBJECTID":8252},"geometry":{"x":160496.1799999997,"y":2567923.6500000022}},{"attributes":{"ID":8253,"DIS_CODE":0,"TOWNNAME":"南區","LI":"南都里","LIN":"13鄰","STREET":"中華南路","SECT":"二段","MAREA":" ","LANE":"３１５巷","ALLEY":"３弄","HOUSE_NO":"２７號四樓","E_COORD97":166597.29999999999,"N_COORD97":2540206.3399999999,"ADDRESS":"中華南路二段３１５巷３弄２７號四樓","OBJECTID":8253},"geometry":{"x":166597.30000000168,"y":2540206.3399999999}},{"attributes":{"ID":8254,"DIS_CODE":0,"TOWNNAME":"南區","LI":"南都里","LIN":"13鄰","STREET":"中華南路","SECT":"二段","MAREA":" ","LANE":"３１５巷","ALLEY":"３弄","HOUSE_NO":"２９號二樓","E_COORD97":166593.45999999999,"N_COORD97":2540181.1200000001,"ADDRESS":"中華南路二段３１５巷３弄２９號二樓","OBJECTID":8254},"geometry":{"x":166593.46000000089,"y":2540181.1200000029}},{"attributes":{"ID":8255,"DIS_CODE":0,"TOWNNAME":"南區","LI":"南都里","LIN":"13鄰","STREET":"中華南路","SECT":"二段","MAREA":" ","LANE":"３１５巷","ALLEY":"３弄","HOUSE_NO":"２９號三樓","E_COORD97":166593.45999999999,"N_COORD97":2540181.1200000001,"ADDRESS":"中華南路二段３１５巷３弄２９號三樓","OBJECTID":8255},"geometry":{"x":166593.46000000089,"y":2540181.1200000029}},{"attributes":{"ID":8256,"DIS_CODE":0,"TOWNNAME":"南區","LI":"南都里","LIN":"13鄰","STREET":"中華南路","SECT":"二段","MAREA":" ","LANE":"３１５巷","ALLEY":"３弄","HOUSE_NO":"２９號五樓","E_COORD97":166593.45999999999,"N_COORD97":2540181.1200000001,"ADDRESS":"中華南路二段３１５巷３弄２９號五樓","OBJECTID":8256},"geometry":{"x":166593.46000000089,"y":2540181.1200000029}},{"attributes":{"ID":8257,"DIS_CODE":0,"TOWNNAME":"南區","LI":"南都里","LIN":"13鄰","STREET":"中華南路","SECT":"二段","MAREA":" ","LANE":"３１５巷","ALLEY":"３弄","HOUSE_NO":"２９號四樓","E_COORD97":166593.45999999999,"N_COORD97":2540181.1200000001,"ADDRESS":"中華南路二段３１５巷３弄２９號四樓","OBJECTID":8257},"geometry":{"x":166593.46000000089,"y":2540181.1200000029}},{"attributes":{"ID":8258,"DIS_CODE":0,"TOWNNAME":"南區","LI":"南都里","LIN":"13鄰","STREET":"中華南路","SECT":"二段","MAREA":" ","LANE":"３１５巷","ALLEY":"３弄","HOUSE_NO":"３１號二樓","E_COORD97":166600.42999999999,"N_COORD97":2540181.1200000001,"ADDRESS":"中華南路二段３１５巷３弄３１號二樓","OBJECTID":8258},"geometry":{"x":166600.43000000063,"y":2540181.1200000029}},{"attributes":{"ID":8259,"DIS_CODE":0,"TOWNNAME":"南區","LI":"南都里","LIN":"13鄰","STREET":"中華南路","SECT":"二段","MAREA":" ","LANE":"３１５巷","ALLEY":"３弄","HOUSE_NO":"３１號三樓","E_COORD97":166600.42999999999,"N_COORD97":2540181.1200000001,"ADDRESS":"中華南路二段３１５巷３弄３１號三樓","OBJECTID":8259},"geometry":{"x":166600.43000000063,"y":2540181.1200000029}},{"attributes":{"ID":8260,"DIS_CODE":0,"TOWNNAME":"北區","LI":"三德里","LIN":"13鄰","STREET":"裕民街","SECT":" ","MAREA":" ","LANE":" ","ALLEY":" ","HOUSE_NO":"５號","E_COORD97":168417.29999999999,"N_COORD97":2544387.5800000001,"ADDRESS":"裕民街５號","OBJECTID":8260},"geometry":{"x":168417.29999999981,"y":2544387.5800000019}},{"attributes":{"ID":8261,"DIS_CODE":0,"TOWNNAME":"將軍區","LI":"玉山里","LIN":"13鄰","STREET":" ","SECT":" ","MAREA":"玉山","LANE":" ","ALLEY":" ","HOUSE_NO":"１１１號","E_COORD97":160471.76999999999,"N_COORD97":2567939.3100000001,"ADDRESS":"玉山１１１號","OBJECTID":8261},"geometry":{"x":160471.76999999955,"y":2567939.3100000024}},{"attributes":{"ID":8262,"DIS_CODE":0,"TOWNNAME":"將軍區","LI":"玉山里","LIN":"13鄰","STREET":" ","SECT":" ","MAREA":"玉山","LANE":" ","ALLEY":" ","HOUSE_NO":"１１２號","E_COORD97":160448.91,"N_COORD97":2567948.8799999999,"ADDRESS":"玉山１１２號","OBJECTID":8262},"geometry":{"x":160448.91000000108,"y":2567948.879999999}},{"attributes":{"ID":8263,"DIS_CODE":0,"TOWNNAME":"將軍區","LI":"玉山里","LIN":"13鄰","STREET":" ","SECT":" ","MAREA":"玉山","LANE":" ","ALLEY":" ","HOUSE_NO":"１１３號","E_COORD97":160428.64000000001,"N_COORD97":2567958.2000000002,"ADDRESS":"玉山１１３號","OBJECTID":8263},"geometry":{"x":160428.63999999966,"y":2567958.200000003}},{"attributes":{"ID":8264,"DIS_CODE":0,"TOWNNAME":"將軍區","LI":"玉山里","LIN":"13鄰","STREET":" ","SECT":" ","MAREA":"玉山","LANE":" ","ALLEY":" ","HOUSE_NO":"１１６號","E_COORD97":160503.85999999999,"N_COORD97":2567938.2999999998,"ADDRESS":"玉山１１６號","OBJECTID":8264},"geometry":{"x":160503.86000000127,"y":2567938.3000000007}},{"attributes":{"ID":8265,"DIS_CODE":0,"TOWNNAME":"將軍區","LI":"西和里","LIN":"13鄰","STREET":" ","SECT":" ","MAREA":"西和","LANE":" ","ALLEY":" ","HOUSE_NO":"１０７號","E_COORD97":163251.12,"N_COORD97":2566223.9900000002,"ADDRESS":"西和１０７號","OBJECTID":8265},"geometry":{"x":163251.12000000104,"y":2566223.9900000002}},{"attributes":{"ID":8266,"DIS_CODE":0,"TOWNNAME":"北區","LI":"三德里","LIN":"13鄰","STREET":"成功路","SECT":" ","MAREA":" ","LANE":" ","ALLEY":" ","HOUSE_NO":"１７０號","E_COORD97":168416.31,"N_COORD97":2544373.6299999999,"ADDRESS":"成功路１７０號","OBJECTID":8266},"geometry":{"x":168416.31000000052,"y":2544373.629999999}},{"attributes":{"ID":8267,"DIS_CODE":0,"TOWNNAME":"將軍區","LI":"西和里","LIN":"13鄰","STREET":" ","SECT":" ","MAREA":"西和","LANE":" ","ALLEY":" ","HOUSE_NO":"１１３之１號","E_COORD97":163287.67000000001,"N_COORD97":2566175.1699999999,"ADDRESS":"西和１１３之１號","OBJECTID":8267},"geometry":{"x":163287.67000000179,"y":2566175.1699999999}},{"attributes":{"ID":8268,"DIS_CODE":0,"TOWNNAME":"將軍區","LI":"西和里","LIN":"13鄰","STREET":" ","SECT":" ","MAREA":"西和","LANE":" ","ALLEY":" ","HOUSE_NO":"１１３之２號","E_COORD97":163288.37,"N_COORD97":2566170.5099999998,"ADDRESS":"西和１１３之２號","OBJECTID":8268},"geometry":{"x":163288.37000000104,"y":2566170.5100000016}},{"attributes":{"ID":8269,"DIS_CODE":0,"TOWNNAME":"將軍區","LI":"西和里","LIN":"13鄰","STREET":" ","SECT":" ","MAREA":"西和","LANE":" ","ALLEY":" ","HOUSE_NO":"１１３號","E_COORD97":163262.14000000001,"N_COORD97":2566168.0499999998,"ADDRESS":"西和１１３號","OBJECTID":8269},"geometry":{"x":163262.14000000153,"y":2566168.0500000026}},{"attributes":{"ID":8270,"DIS_CODE":0,"TOWNNAME":"將軍區","LI":"西和里","LIN":"13鄰","STREET":" ","SECT":" ","MAREA":"西和","LANE":" ","ALLEY":" ","HOUSE_NO":"１１４號","E_COORD97":163268.29000000001,"N_COORD97":2566155.3900000001,"ADDRESS":"西和１１４號","OBJECTID":8270},"geometry":{"x":163268.2900000019,"y":2566155.3900000025}},{"attributes":{"ID":8271,"DIS_CODE":0,"TOWNNAME":"北區","LI":"三德里","LIN":"13鄰","STREET":"成功路","SECT":" ","MAREA":" ","LANE":" ","ALLEY":" ","HOUSE_NO":"１７２號","E_COORD97":168412.39999999999,"N_COORD97":2544375.5,"ADDRESS":"成功路１７２號","OBJECTID":8271},"geometry":{"x":168412.40000000037,"y":2544375.5}},{"attributes":{"ID":8272,"DIS_CODE":0,"TOWNNAME":"北區","LI":"三德里","LIN":"13鄰","STREET":"成功路","SECT":" ","MAREA":" ","LANE":" ","ALLEY":" ","HOUSE_NO":"１７４號","E_COORD97":168408.66,"N_COORD97":2544377.1899999999,"ADDRESS":"成功路１７４號","OBJECTID":8272},"geometry":{"x":168408.66000000015,"y":2544377.1899999995}},{"attributes":{"ID":8273,"DIS_CODE":0,"TOWNNAME":"北區","LI":"三德里","LIN":"13鄰","STREET":"成功路","SECT":" ","MAREA":" ","LANE":" ","ALLEY":" ","HOUSE_NO":"１７６號","E_COORD97":168404.75,"N_COORD97":2544379.3999999999,"ADDRESS":"成功路１７６號","OBJECTID":8273},"geometry":{"x":168404.74999999907,"y":2544379.4000000022}},{"attributes":{"ID":8274,"DIS_CODE":0,"TOWNNAME":"北區","LI":"三德里","LIN":"13鄰","STREET":"成功路","SECT":" ","MAREA":" ","LANE":" ","ALLEY":" ","HOUSE_NO":"２０２號","E_COORD97":168358.97,"N_COORD97":2544434.04,"ADDRESS":"成功路２０２號","OBJECTID":8274},"geometry":{"x":168358.9700000016,"y":2544434.040000001}},{"attributes":{"ID":8275,"DIS_CODE":0,"TOWNNAME":"北區","LI":"三德里","LIN":"13鄰","STREET":"成功路","SECT":" ","MAREA":" ","LANE":" ","ALLEY":" ","HOUSE_NO":"２０２號底一層","E_COORD97":168358.97,"N_COORD97":2544434.04,"ADDRESS":"成功路２０２號底一層","OBJECTID":8275},"geometry":{"x":168358.9700000016,"y":2544434.040000001}},{"attributes":{"ID":8276,"DIS_CODE":0,"TOWNNAME":"將軍區","LI":"西和里","LIN":"13鄰","STREET":" ","SECT":" ","MAREA":"西和","LANE":" ","ALLEY":" ","HOUSE_NO":"１１５號","E_COORD97":163268.51999999999,"N_COORD97":2566134.1099999999,"ADDRESS":"西和１１５號","OBJECTID":8276},"geometry":{"x":163268.52000000048,"y":2566134.1099999994}},{"attributes":{"ID":8277,"DIS_CODE":0,"TOWNNAME":"將軍區","LI":"西華里","LIN":"13鄰","STREET":" ","SECT":" ","MAREA":"西華","LANE":" ","ALLEY":" ","HOUSE_NO":"１４４號","E_COORD97":163396.73000000001,"N_COORD97":2566228.9100000001,"ADDRESS":"西華１４４號","OBJECTID":8277},"geometry":{"x":163396.73000000138,"y":2566228.910000002}},{"attributes":{"ID":8278,"DIS_CODE":0,"TOWNNAME":"將軍區","LI":"西華里","LIN":"13鄰","STREET":" ","SECT":" ","MAREA":"西華","LANE":" ","ALLEY":" ","HOUSE_NO":"１４５號","E_COORD97":163409.54999999999,"N_COORD97":2566222.2799999998,"ADDRESS":"西華１４５號","OBJECTID":8278},"geometry":{"x":163409.54999999981,"y":2566222.2800000012}},{"attributes":{"ID":8279,"DIS_CODE":0,"TOWNNAME":"將軍區","LI":"西華里","LIN":"13鄰","STREET":" ","SECT":" ","MAREA":"西華","LANE":" ","ALLEY":" ","HOUSE_NO":"１４６號","E_COORD97":163387.95000000001,"N_COORD97":2566215.5899999999,"ADDRESS":"西華１４６號","OBJECTID":8279},"geometry":{"x":163387.95000000112,"y":2566215.5899999999}},{"attributes":{"ID":8280,"DIS_CODE":0,"TOWNNAME":"將軍區","LI":"西華里","LIN":"13鄰","STREET":" ","SECT":" ","MAREA":"西華","LANE":" ","ALLEY":" ","HOUSE_NO":"１５０之１號","E_COORD97":163456.06,"N_COORD97":2566168.23,"ADDRESS":"西華１５０之１號","OBJECTID":8280},"geometry":{"x":163456.06000000052,"y":2566168.2300000004}},{"attributes":{"ID":8281,"DIS_CODE":0,"TOWNNAME":"南區","LI":"南都里","LIN":"13鄰","STREET":"中華南路","SECT":"二段","MAREA":" ","LANE":"３１５巷","ALLEY":"３弄","HOUSE_NO":"３１號五樓","E_COORD97":166600.42999999999,"N_COORD97":2540181.1200000001,"ADDRESS":"中華南路二段３１５巷３弄３１號五樓","OBJECTID":8281},"geometry":{"x":166600.43000000063,"y":2540181.1200000029}},{"attributes":{"ID":8282,"DIS_CODE":0,"TOWNNAME":"南區","LI":"南都里","LIN":"13鄰","STREET":"中華南路","SECT":"二段","MAREA":" ","LANE":"３１５巷","ALLEY":"３弄","HOUSE_NO":"３１號四樓","E_COORD97":166600.42999999999,"N_COORD97":2540181.1200000001,"ADDRESS":"中華南路二段３１５巷３弄３１號四樓","OBJECTID":8282},"geometry":{"x":166600.43000000063,"y":2540181.1200000029}},{"attributes":{"ID":8283,"DIS_CODE":0,"TOWNNAME":"安平區","LI":"文平里","LIN":"13鄰","STREET":"建平五街","SECT":" ","MAREA":" ","LANE":"２２巷","ALLEY":"３６弄","HOUSE_NO":"３２號三樓之１","E_COORD97":166053.48000000001,"N_COORD97":2543233.8799999999,"ADDRESS":"建平五街２２巷３６弄３２號三樓之１","OBJECTID":8283},"geometry":{"x":166053.48000000045,"y":2543233.8800000027}},{"attributes":{"ID":8284,"DIS_CODE":0,"TOWNNAME":"安平區","LI":"文平里","LIN":"13鄰","STREET":"建平五街","SECT":" ","MAREA":" ","LANE":"２２巷","ALLEY":"３６弄","HOUSE_NO":"３２號三樓之２","E_COORD97":166053.48000000001,"N_COORD97":2543233.8799999999,"ADDRESS":"建平五街２２巷３６弄３２號三樓之２","OBJECTID":8284},"geometry":{"x":166053.48000000045,"y":2543233.8800000027}},{"attributes":{"ID":8285,"DIS_CODE":0,"TOWNNAME":"安平區","LI":"文平里","LIN":"13鄰","STREET":"建平五街","SECT":" ","MAREA":" ","LANE":"２２巷","ALLEY":"３６弄","HOUSE_NO":"３２號三樓之３","E_COORD97":166053.48000000001,"N_COORD97":2543233.8799999999,"ADDRESS":"建平五街２２巷３６弄３２號三樓之３","OBJECTID":8285},"geometry":{"x":166053.48000000045,"y":2543233.8800000027}},{"attributes":{"ID":8286,"DIS_CODE":0,"TOWNNAME":"安平區","LI":"文平里","LIN":"13鄰","STREET":"建平五街","SECT":" ","MAREA":" ","LANE":"２２巷","ALLEY":"３６弄","HOUSE_NO":"３２號五樓之１","E_COORD97":166053.48000000001,"N_COORD97":2543233.8799999999,"ADDRESS":"建平五街２２巷３６弄３２號五樓之１","OBJECTID":8286},"geometry":{"x":166053.48000000045,"y":2543233.8800000027}},{"attributes":{"ID":8287,"DIS_CODE":0,"TOWNNAME":"安平區","LI":"文平里","LIN":"13鄰","STREET":"建平五街","SECT":" ","MAREA":" ","LANE":"２２巷","ALLEY":"３６弄","HOUSE_NO":"３２號五樓之２","E_COORD97":166053.48000000001,"N_COORD97":2543233.8799999999,"ADDRESS":"建平五街２２巷３６弄３２號五樓之２","OBJECTID":8287},"geometry":{"x":166053.48000000045,"y":2543233.8800000027}},{"attributes":{"ID":8288,"DIS_CODE":0,"TOWNNAME":"安平區","LI":"文平里","LIN":"13鄰","STREET":"建平五街","SECT":" ","MAREA":" ","LANE":"２２巷","ALLEY":"３６弄","HOUSE_NO":"３２號五樓之３","E_COORD97":166053.48000000001,"N_COORD97":2543233.8799999999,"ADDRESS":"建平五街２２巷３６弄３２號五樓之３","OBJECTID":8288},"geometry":{"x":166053.48000000045,"y":2543233.8800000027}},{"attributes":{"ID":8289,"DIS_CODE":0,"TOWNNAME":"安平區","LI":"文平里","LIN":"13鄰","STREET":"建平五街","SECT":" ","MAREA":" ","LANE":"２２巷","ALLEY":"３６弄","HOUSE_NO":"３２號五樓之４","E_COORD97":166053.48000000001,"N_COORD97":2543233.8799999999,"ADDRESS":"建平五街２２巷３６弄３２號五樓之４","OBJECTID":8289},"geometry":{"x":166053.48000000045,"y":2543233.8800000027}},{"attributes":{"ID":8290,"DIS_CODE":0,"TOWNNAME":"安平區","LI":"文平里","LIN":"13鄰","STREET":"建平五街","SECT":" ","MAREA":" ","LANE":"２２巷","ALLEY":"３６弄","HOUSE_NO":"３２號五樓之５","E_COORD97":166053.48000000001,"N_COORD97":2543233.8799999999,"ADDRESS":"建平五街２２巷３６弄３２號五樓之５","OBJECTID":8290},"geometry":{"x":166053.48000000045,"y":2543233.8800000027}},{"attributes":{"ID":8291,"DIS_CODE":0,"TOWNNAME":"安平區","LI":"文平里","LIN":"13鄰","STREET":"建平五街","SECT":" ","MAREA":" ","LANE":"２２巷","ALLEY":"３６弄","HOUSE_NO":"３２號五樓之６","E_COORD97":166053.48000000001,"N_COORD97":2543233.8799999999,"ADDRESS":"建平五街２２巷３６弄３２號五樓之６","OBJECTID":8291},"geometry":{"x":166053.48000000045,"y":2543233.8800000027}},{"attributes":{"ID":8292,"DIS_CODE":0,"TOWNNAME":"安平區","LI":"文平里","LIN":"13鄰","STREET":"建平五街","SECT":" ","MAREA":" ","LANE":"２２巷","ALLEY":"３６弄","HOUSE_NO":"３２號五樓之７","E_COORD97":166053.48000000001,"N_COORD97":2543233.8799999999,"ADDRESS":"建平五街２２巷３６弄３２號五樓之７","OBJECTID":8292},"geometry":{"x":166053.48000000045,"y":2543233.8800000027}},{"attributes":{"ID":8293,"DIS_CODE":0,"TOWNNAME":"安平區","LI":"文平里","LIN":"13鄰","STREET":"建平五街","SECT":" ","MAREA":" ","LANE":"２２巷","ALLEY":"３６弄","HOUSE_NO":"３２號五樓之８","E_COORD97":166053.48000000001,"N_COORD97":2543233.8799999999,"ADDRESS":"建平五街２２巷３６弄３２號五樓之８","OBJECTID":8293},"geometry":{"x":166053.48000000045,"y":2543233.8800000027}},{"attributes":{"ID":8294,"DIS_CODE":0,"TOWNNAME":"安平區","LI":"文平里","LIN":"13鄰","STREET":"建平五街","SECT":" ","MAREA":" ","LANE":"２２巷","ALLEY":"３６弄","HOUSE_NO":"３２號五樓之９","E_COORD97":166053.48000000001,"N_COORD97":2543233.8799999999,"ADDRESS":"建平五街２２巷３６弄３２號五樓之９","OBJECTID":8294},"geometry":{"x":166053.48000000045,"y":2543233.8800000027}},{"attributes":{"ID":8295,"DIS_CODE":0,"TOWNNAME":"安平區","LI":"文平里","LIN":"13鄰","STREET":"建平五街","SECT":" ","MAREA":" ","LANE":"２２巷","ALLEY":"３６弄","HOUSE_NO":"３２號六樓之１","E_COORD97":166053.48000000001,"N_COORD97":2543233.8799999999,"ADDRESS":"建平五街２２巷３６弄３２號六樓之１","OBJECTID":8295},"geometry":{"x":166053.48000000045,"y":2543233.8800000027}},{"attributes":{"ID":8296,"DIS_CODE":0,"TOWNNAME":"安平區","LI":"文平里","LIN":"13鄰","STREET":"建平五街","SECT":" ","MAREA":" ","LANE":"２２巷","ALLEY":"３６弄","HOUSE_NO":"３２號六樓之２","E_COORD97":166053.48000000001,"N_COORD97":2543233.8799999999,"ADDRESS":"建平五街２２巷３６弄３２號六樓之２","OBJECTID":8296},"geometry":{"x":166053.48000000045,"y":2543233.8800000027}},{"attributes":{"ID":8297,"DIS_CODE":0,"TOWNNAME":"安平區","LI":"文平里","LIN":"13鄰","STREET":"建平五街","SECT":" ","MAREA":" ","LANE":"２２巷","ALLEY":"３６弄","HOUSE_NO":"３２號六樓之３","E_COORD97":166053.48000000001,"N_COORD97":2543233.8799999999,"ADDRESS":"建平五街２２巷３６弄３２號六樓之３","OBJECTID":8297},"geometry":{"x":166053.48000000045,"y":2543233.8800000027}},{"attributes":{"ID":8298,"DIS_CODE":0,"TOWNNAME":"安平區","LI":"文平里","LIN":"13鄰","STREET":"建平五街","SECT":" ","MAREA":" ","LANE":"２２巷","ALLEY":"３６弄","HOUSE_NO":"３２號六樓之４","E_COORD97":166053.48000000001,"N_COORD97":2543233.8799999999,"ADDRESS":"建平五街２２巷３６弄３２號六樓之４","OBJECTID":8298},"geometry":{"x":166053.48000000045,"y":2543233.8800000027}},{"attributes":{"ID":8299,"DIS_CODE":0,"TOWNNAME":"楠西區","LI":"楠西里","LIN":"24鄰","STREET":"中興路","SECT":" ","MAREA":" ","LANE":"６３巷","ALLEY":"２弄","HOUSE_NO":"１號","E_COORD97":197185.70999999999,"N_COORD97":2564368.25,"ADDRESS":"中興路６３巷２弄１號","OBJECTID":8299},"geometry":{"x":197185.70999999996,"y":2564368.2500000037}},{"attributes":{"ID":8300,"DIS_CODE":0,"TOWNNAME":"東區","LI":"富強里","LIN":"28鄰","STREET":"東門路","SECT":"二段","MAREA":" ","LANE":"３６５巷","ALLEY":"３４弄","HOUSE_NO":"７號五樓","E_COORD97":170896.53,"N_COORD97":2542689.9300000002,"ADDRESS":"東門路二段３６５巷３４弄７號五樓","OBJECTID":8300},"geometry":{"x":170896.53000000026,"y":2542689.9300000016}},{"attributes":{"ID":8301,"DIS_CODE":0,"TOWNNAME":"北區","LI":"重興里","LIN":"13鄰","STREET":"開南街","SECT":" ","MAREA":" ","LANE":" ","ALLEY":" ","HOUSE_NO":"１４９號","E_COORD97":170648.81,"N_COORD97":2545113.9500000002,"ADDRESS":"開南街１４９號","OBJECTID":8301},"geometry":{"x":170648.81000000052,"y":2545113.9499999993}},{"attributes":{"ID":8302,"DIS_CODE":0,"TOWNNAME":"北區","LI":"重興里","LIN":"13鄰","STREET":"開南街","SECT":" ","MAREA":" ","LANE":" ","ALLEY":" ","HOUSE_NO":"１５７號","E_COORD97":170663.56,"N_COORD97":2545100.2999999998,"ADDRESS":"開南街１５７號","OBJECTID":8302},"geometry":{"x":170663.55999999959,"y":2545100.3000000007}},{"attributes":{"ID":8303,"DIS_CODE":0,"TOWNNAME":"北區","LI":"重興里","LIN":"13鄰","STREET":"開南街","SECT":" ","MAREA":" ","LANE":" ","ALLEY":" ","HOUSE_NO":"１５９號","E_COORD97":170666.63,"N_COORD97":2545098.04,"ADDRESS":"開南街１５９號","OBJECTID":8303},"geometry":{"x":170666.62999999989,"y":2545098.0400000028}},{"attributes":{"ID":8304,"DIS_CODE":0,"TOWNNAME":"安平區","LI":"文平里","LIN":"13鄰","STREET":"建平五街","SECT":" ","MAREA":" ","LANE":"２２巷","ALLEY":"３６弄","HOUSE_NO":"３２號六樓之５","E_COORD97":166053.48000000001,"N_COORD97":2543233.8799999999,"ADDRESS":"建平五街２２巷３６弄３２號六樓之５","OBJECTID":8304},"geometry":{"x":166053.48000000045,"y":2543233.8800000027}},{"attributes":{"ID":8305,"DIS_CODE":0,"TOWNNAME":"安平區","LI":"文平里","LIN":"13鄰","STREET":"建平五街","SECT":" ","MAREA":" ","LANE":"２２巷","ALLEY":"３６弄","HOUSE_NO":"３２號六樓之６","E_COORD97":166053.48000000001,"N_COORD97":2543233.8799999999,"ADDRESS":"建平五街２２巷３６弄３２號六樓之６","OBJECTID":8305},"geometry":{"x":166053.48000000045,"y":2543233.8800000027}},{"attributes":{"ID":8306,"DIS_CODE":0,"TOWNNAME":"安平區","LI":"文平里","LIN":"13鄰","STREET":"建平五街","SECT":" ","MAREA":" ","LANE":"２２巷","ALLEY":"３６弄","HOUSE_NO":"３２號六樓之７","E_COORD97":166053.48000000001,"N_COORD97":2543233.8799999999,"ADDRESS":"建平五街２２巷３６弄３２號六樓之７","OBJECTID":8306},"geometry":{"x":166053.48000000045,"y":2543233.8800000027}},{"attributes":{"ID":8307,"DIS_CODE":0,"TOWNNAME":"安平區","LI":"文平里","LIN":"13鄰","STREET":"建平五街","SECT":" ","MAREA":" ","LANE":"２２巷","ALLEY":"３６弄","HOUSE_NO":"３２號六樓之８","E_COORD97":166053.48000000001,"N_COORD97":2543233.8799999999,"ADDRESS":"建平五街２２巷３６弄３２號六樓之８","OBJECTID":8307},"geometry":{"x":166053.48000000045,"y":2543233.8800000027}},{"attributes":{"ID":8308,"DIS_CODE":0,"TOWNNAME":"安平區","LI":"文平里","LIN":"13鄰","STREET":"建平五街","SECT":" ","MAREA":" ","LANE":"２２巷","ALLEY":"３６弄","HOUSE_NO":"３２號四樓之１","E_COORD97":166053.48000000001,"N_COORD97":2543233.8799999999,"ADDRESS":"建平五街２２巷３６弄３２號四樓之１","OBJECTID":8308},"geometry":{"x":166053.48000000045,"y":2543233.8800000027}},{"attributes":{"ID":8309,"DIS_CODE":0,"TOWNNAME":"安平區","LI":"文平里","LIN":"13鄰","STREET":"建平五街","SECT":" ","MAREA":" ","LANE":"２２巷","ALLEY":"３６弄","HOUSE_NO":"３２號四樓之１０","E_COORD97":166053.48000000001,"N_COORD97":2543233.8799999999,"ADDRESS":"建平五街２２巷３６弄３２號四樓之１０","OBJECTID":8309},"geometry":{"x":166053.48000000045,"y":2543233.8800000027}},{"attributes":{"ID":8310,"DIS_CODE":0,"TOWNNAME":"將軍區","LI":"西華里","LIN":"13鄰","STREET":" ","SECT":" ","MAREA":"西華","LANE":" ","ALLEY":" ","HOUSE_NO":"１５０號","E_COORD97":163445.29999999999,"N_COORD97":2566175.9700000002,"ADDRESS":"西華１５０號","OBJECTID":8310},"geometry":{"x":163445.29999999981,"y":2566175.9700000025}},{"attributes":{"ID":8311,"DIS_CODE":0,"TOWNNAME":"安平區","LI":"文平里","LIN":"13鄰","STREET":"建平五街","SECT":" ","MAREA":" ","LANE":"２２巷","ALLEY":"３６弄","HOUSE_NO":"３２號四樓之１１","E_COORD97":166053.48000000001,"N_COORD97":2543233.8799999999,"ADDRESS":"建平五街２２巷３６弄３２號四樓之１１","OBJECTID":8311},"geometry":{"x":166053.48000000045,"y":2543233.8800000027}},{"attributes":{"ID":8312,"DIS_CODE":0,"TOWNNAME":"安平區","LI":"文平里","LIN":"13鄰","STREET":"建平五街","SECT":" ","MAREA":" ","LANE":"２２巷","ALLEY":"３６弄","HOUSE_NO":"３２號四樓之１２","E_COORD97":166053.48000000001,"N_COORD97":2543233.8799999999,"ADDRESS":"建平五街２２巷３６弄３２號四樓之１２","OBJECTID":8312},"geometry":{"x":166053.48000000045,"y":2543233.8800000027}},{"attributes":{"ID":8313,"DIS_CODE":0,"TOWNNAME":"安平區","LI":"文平里","LIN":"13鄰","STREET":"建平五街","SECT":" ","MAREA":" ","LANE":"２２巷","ALLEY":"３６弄","HOUSE_NO":"３２號四樓之１３","E_COORD97":166053.48000000001,"N_COORD97":2543233.8799999999,"ADDRESS":"建平五街２２巷３６弄３２號四樓之１３","OBJECTID":8313},"geometry":{"x":166053.48000000045,"y":2543233.8800000027}},{"attributes":{"ID":8314,"DIS_CODE":0,"TOWNNAME":"安平區","LI":"文平里","LIN":"13鄰","STREET":"建平五街","SECT":" ","MAREA":" ","LANE":"２２巷","ALLEY":"３６弄","HOUSE_NO":"３２號四樓之１４","E_COORD97":166053.48000000001,"N_COORD97":2543233.8799999999,"ADDRESS":"建平五街２２巷３６弄３２號四樓之１４","OBJECTID":8314},"geometry":{"x":166053.48000000045,"y":2543233.8800000027}},{"attributes":{"ID":8315,"DIS_CODE":0,"TOWNNAME":"安平區","LI":"文平里","LIN":"13鄰","STREET":"建平五街","SECT":" ","MAREA":" ","LANE":"２２巷","ALLEY":"３６弄","HOUSE_NO":"３２號四樓之１５","E_COORD97":166053.48000000001,"N_COORD97":2543233.8799999999,"ADDRESS":"建平五街２２巷３６弄３２號四樓之１５","OBJECTID":8315},"geometry":{"x":166053.48000000045,"y":2543233.8800000027}},{"attributes":{"ID":8316,"DIS_CODE":0,"TOWNNAME":"安平區","LI":"文平里","LIN":"13鄰","STREET":"建平五街","SECT":" ","MAREA":" ","LANE":"２２巷","ALLEY":"３６弄","HOUSE_NO":"３２號四樓之１６","E_COORD97":166053.48000000001,"N_COORD97":2543233.8799999999,"ADDRESS":"建平五街２２巷３６弄３２號四樓之１６","OBJECTID":8316},"geometry":{"x":166053.48000000045,"y":2543233.8800000027}},{"attributes":{"ID":8317,"DIS_CODE":0,"TOWNNAME":"安南區","LI":"海西里","LIN":"13鄰","STREET":"海環街","SECT":" ","MAREA":" ","LANE":"３６５巷","ALLEY":"１７弄","HOUSE_NO":"３號","E_COORD97":166018.54000000001,"N_COORD97":2548855.0699999998,"ADDRESS":"海環街３６５巷１７弄３號","OBJECTID":8317},"geometry":{"x":166018.54000000097,"y":2548855.0700000003}},{"attributes":{"ID":8318,"DIS_CODE":0,"TOWNNAME":"安平區","LI":"文平里","LIN":"13鄰","STREET":"建平五街","SECT":" ","MAREA":" ","LANE":"２２巷","ALLEY":"３６弄","HOUSE_NO":"３２號四樓之１７","E_COORD97":166053.48000000001,"N_COORD97":2543233.8799999999,"ADDRESS":"建平五街２２巷３６弄３２號四樓之１７","OBJECTID":8318},"geometry":{"x":166053.48000000045,"y":2543233.8800000027}},{"attributes":{"ID":8319,"DIS_CODE":0,"TOWNNAME":"安平區","LI":"文平里","LIN":"13鄰","STREET":"建平五街","SECT":" ","MAREA":" ","LANE":"２２巷","ALLEY":"３６弄","HOUSE_NO":"３２號四樓之１８","E_COORD97":166053.48000000001,"N_COORD97":2543233.8799999999,"ADDRESS":"建平五街２２巷３６弄３２號四樓之１８","OBJECTID":8319},"geometry":{"x":166053.48000000045,"y":2543233.8800000027}},{"attributes":{"ID":8320,"DIS_CODE":0,"TOWNNAME":"安平區","LI":"文平里","LIN":"13鄰","STREET":"建平五街","SECT":" ","MAREA":" ","LANE":"２２巷","ALLEY":"３６弄","HOUSE_NO":"３２號四樓之１９","E_COORD97":166053.48000000001,"N_COORD97":2543233.8799999999,"ADDRESS":"建平五街２２巷３６弄３２號四樓之１９","OBJECTID":8320},"geometry":{"x":166053.48000000045,"y":2543233.8800000027}},{"attributes":{"ID":8321,"DIS_CODE":0,"TOWNNAME":"安平區","LI":"文平里","LIN":"13鄰","STREET":"建平五街","SECT":" ","MAREA":" ","LANE":"２２巷","ALLEY":"３６弄","HOUSE_NO":"３２號四樓之２","E_COORD97":166053.48000000001,"N_COORD97":2543233.8799999999,"ADDRESS":"建平五街２２巷３６弄３２號四樓之２","OBJECTID":8321},"geometry":{"x":166053.48000000045,"y":2543233.8800000027}},{"attributes":{"ID":8322,"DIS_CODE":0,"TOWNNAME":"安平區","LI":"文平里","LIN":"13鄰","STREET":"建平五街","SECT":" ","MAREA":" ","LANE":"２２巷","ALLEY":"３６弄","HOUSE_NO":"３２號四樓之３","E_COORD97":166053.48000000001,"N_COORD97":2543233.8799999999,"ADDRESS":"建平五街２２巷３６弄３２號四樓之３","OBJECTID":8322},"geometry":{"x":166053.48000000045,"y":2543233.8800000027}},{"attributes":{"ID":8323,"DIS_CODE":0,"TOWNNAME":"安平區","LI":"文平里","LIN":"13鄰","STREET":"建平五街","SECT":" ","MAREA":" ","LANE":"２２巷","ALLEY":"３６弄","HOUSE_NO":"３２號四樓之４","E_COORD97":166053.48000000001,"N_COORD97":2543233.8799999999,"ADDRESS":"建平五街２２巷３６弄３２號四樓之４","OBJECTID":8323},"geometry":{"x":166053.48000000045,"y":2543233.8800000027}},{"attributes":{"ID":8324,"DIS_CODE":0,"TOWNNAME":"安平區","LI":"文平里","LIN":"13鄰","STREET":"建平五街","SECT":" ","MAREA":" ","LANE":"２２巷","ALLEY":"３６弄","HOUSE_NO":"３２號四樓之５","E_COORD97":166053.48000000001,"N_COORD97":2543233.8799999999,"ADDRESS":"建平五街２２巷３６弄３２號四樓之５","OBJECTID":8324},"geometry":{"x":166053.48000000045,"y":2543233.8800000027}},{"attributes":{"ID":8325,"DIS_CODE":0,"TOWNNAME":"安平區","LI":"文平里","LIN":"13鄰","STREET":"建平五街","SECT":" ","MAREA":" ","LANE":"２２巷","ALLEY":"３６弄","HOUSE_NO":"３２號四樓之６","E_COORD97":166053.48000000001,"N_COORD97":2543233.8799999999,"ADDRESS":"建平五街２２巷３６弄３２號四樓之６","OBJECTID":8325},"geometry":{"x":166053.48000000045,"y":2543233.8800000027}},{"attributes":{"ID":8326,"DIS_CODE":0,"TOWNNAME":"安平區","LI":"文平里","LIN":"13鄰","STREET":"建平五街","SECT":" ","MAREA":" ","LANE":"２２巷","ALLEY":"３６弄","HOUSE_NO":"３２號四樓之７","E_COORD97":166053.48000000001,"N_COORD97":2543233.8799999999,"ADDRESS":"建平五街２２巷３６弄３２號四樓之７","OBJECTID":8326},"geometry":{"x":166053.48000000045,"y":2543233.8800000027}},{"attributes":{"ID":8327,"DIS_CODE":0,"TOWNNAME":"將軍區","LI":"嘉昌里","LIN":"13鄰","STREET":" ","SECT":" ","MAREA":"昌平","LANE":" ","ALLEY":" ","HOUSE_NO":"５之１０號","E_COORD97":163210.64000000001,"N_COORD97":2567308.9399999999,"ADDRESS":"昌平５之１０號","OBJECTID":8327},"geometry":{"x":163210.63999999966,"y":2567308.9399999995}},{"attributes":{"ID":8328,"DIS_CODE":0,"TOWNNAME":"安平區","LI":"文平里","LIN":"13鄰","STREET":"建平五街","SECT":" ","MAREA":" ","LANE":"２２巷","ALLEY":"３６弄","HOUSE_NO":"３２號四樓之８","E_COORD97":166053.48000000001,"N_COORD97":2543233.8799999999,"ADDRESS":"建平五街２２巷３６弄３２號四樓之８","OBJECTID":8328},"geometry":{"x":166053.48000000045,"y":2543233.8800000027}},{"attributes":{"ID":8329,"DIS_CODE":0,"TOWNNAME":"安平區","LI":"文平里","LIN":"13鄰","STREET":"建平五街","SECT":" ","MAREA":" ","LANE":"２２巷","ALLEY":"３６弄","HOUSE_NO":"３２號四樓之９","E_COORD97":166053.48000000001,"N_COORD97":2543233.8799999999,"ADDRESS":"建平五街２２巷３６弄３２號四樓之９","OBJECTID":8329},"geometry":{"x":166053.48000000045,"y":2543233.8800000027}},{"attributes":{"ID":8330,"DIS_CODE":0,"TOWNNAME":"南區","LI":"南華里","LIN":"13鄰","STREET":"中華南路","SECT":"二段","MAREA":" ","LANE":"３０２巷","ALLEY":"１弄","HOUSE_NO":"１０號二樓","E_COORD97":166604.63,"N_COORD97":2540333.9900000002,"ADDRESS":"中華南路二段３０２巷１弄１０號二樓","OBJECTID":8330},"geometry":{"x":166604.62999999989,"y":2540333.9900000021}},{"attributes":{"ID":8331,"DIS_CODE":0,"TOWNNAME":"將軍區","LI":"西華里","LIN":"13鄰","STREET":" ","SECT":" ","MAREA":"西華","LANE":" ","ALLEY":" ","HOUSE_NO":"１５１號","E_COORD97":163431.82000000001,"N_COORD97":2566192.4199999999,"ADDRESS":"西華１５１號","OBJECTID":8331},"geometry":{"x":163431.82000000123,"y":2566192.4200000018}},{"attributes":{"ID":8332,"DIS_CODE":0,"TOWNNAME":"將軍區","LI":"苓和里","LIN":"13鄰","STREET":" ","SECT":" ","MAREA":"忠寮","LANE":" ","ALLEY":" ","HOUSE_NO":"１號","E_COORD97":164350.79000000001,"N_COORD97":2569188,"ADDRESS":"忠寮１號","OBJECTID":8332},"geometry":{"x":164350.79000000004,"y":2569188.0000000019}},{"attributes":{"ID":8333,"DIS_CODE":0,"TOWNNAME":"將軍區","LI":"苓和里","LIN":"13鄰","STREET":" ","SECT":" ","MAREA":"忠寮","LANE":" ","ALLEY":" ","HOUSE_NO":"８號","E_COORD97":164346.03,"N_COORD97":2569134.6699999999,"ADDRESS":"忠寮８號","OBJECTID":8333},"geometry":{"x":164346.03000000026,"y":2569134.6699999999}},{"attributes":{"ID":8334,"DIS_CODE":0,"TOWNNAME":"將軍區","LI":"苓和里","LIN":"13鄰","STREET":" ","SECT":" ","MAREA":"忠寮","LANE":" ","ALLEY":" ","HOUSE_NO":"９號","E_COORD97":164284.54999999999,"N_COORD97":2569197,"ADDRESS":"忠寮９號","OBJECTID":8334},"geometry":{"x":164284.54999999981,"y":2569197}},{"attributes":{"ID":8335,"DIS_CODE":0,"TOWNNAME":"將軍區","LI":"忠興里","LIN":"13鄰","STREET":" ","SECT":" ","MAREA":"忠興","LANE":" ","ALLEY":" ","HOUSE_NO":"１３１之１０號","E_COORD97":163796.20999999999,"N_COORD97":2567027.4900000002,"ADDRESS":"忠興１３１之１０號","OBJECTID":8335},"geometry":{"x":163796.21000000089,"y":2567027.4900000002}},{"attributes":{"ID":8336,"DIS_CODE":0,"TOWNNAME":"將軍區","LI":"忠興里","LIN":"13鄰","STREET":" ","SECT":" ","MAREA":"忠興","LANE":" ","ALLEY":" ","HOUSE_NO":"１３１之１２號","E_COORD97":163803.14000000001,"N_COORD97":2567038.48,"ADDRESS":"忠興１３１之１２號","OBJECTID":8336},"geometry":{"x":163803.1400000006,"y":2567038.4799999986}},{"attributes":{"ID":8337,"DIS_CODE":0,"TOWNNAME":"將軍區","LI":"忠興里","LIN":"13鄰","STREET":" ","SECT":" ","MAREA":"忠興","LANE":" ","ALLEY":" ","HOUSE_NO":"１３１之１５號","E_COORD97":163821.20000000001,"N_COORD97":2567034.1600000001,"ADDRESS":"忠興１３１之１５號","OBJECTID":8337},"geometry":{"x":163821.20000000019,"y":2567034.160000002}},{"attributes":{"ID":8338,"DIS_CODE":0,"TOWNNAME":"將軍區","LI":"忠興里","LIN":"13鄰","STREET":" ","SECT":" ","MAREA":"忠興","LANE":" ","ALLEY":" ","HOUSE_NO":"１３１之４號","E_COORD97":163841.98999999999,"N_COORD97":2567051.8199999998,"ADDRESS":"忠興１３１之４號","OBJECTID":8338},"geometry":{"x":163841.99000000115,"y":2567051.8200000003}},{"attributes":{"ID":8339,"DIS_CODE":0,"TOWNNAME":"將軍區","LI":"忠興里","LIN":"13鄰","STREET":" ","SECT":" ","MAREA":"忠興","LANE":" ","ALLEY":" ","HOUSE_NO":"１３１之５號","E_COORD97":163848.47,"N_COORD97":2567066.4300000002,"ADDRESS":"忠興１３１之５號","OBJECTID":8339},"geometry":{"x":163848.47000000067,"y":2567066.4300000016}},{"attributes":{"ID":8340,"DIS_CODE":0,"TOWNNAME":"將軍區","LI":"忠興里","LIN":"13鄰","STREET":" ","SECT":" ","MAREA":"忠興","LANE":" ","ALLEY":" ","HOUSE_NO":"１３１之７號","E_COORD97":163855.42999999999,"N_COORD97":2567084.1200000001,"ADDRESS":"忠興１３１之７號","OBJECTID":8340},"geometry":{"x":163855.43000000063,"y":2567084.1200000029}},{"attributes":{"ID":8341,"DIS_CODE":0,"TOWNNAME":"南區","LI":"南華里","LIN":"13鄰","STREET":"中華南路","SECT":"二段","MAREA":" ","LANE":"３０２巷","ALLEY":"１弄","HOUSE_NO":"１０號三樓","E_COORD97":166604.63,"N_COORD97":2540333.9900000002,"ADDRESS":"中華南路二段３０２巷１弄１０號三樓","OBJECTID":8341},"geometry":{"x":166604.62999999989,"y":2540333.9900000021}},{"attributes":{"ID":8342,"DIS_CODE":0,"TOWNNAME":"楠西區","LI":"楠西里","LIN":"24鄰","STREET":"中興路","SECT":" ","MAREA":" ","LANE":"６３巷","ALLEY":"３弄","HOUSE_NO":"５號","E_COORD97":197154.92000000001,"N_COORD97":2564312.8900000001,"ADDRESS":"中興路６３巷３弄５號","OBJECTID":8342},"geometry":{"x":197154.91999999993,"y":2564312.8900000006}},{"attributes":{"ID":8343,"DIS_CODE":0,"TOWNNAME":"南區","LI":"南華里","LIN":"13鄰","STREET":"中華南路","SECT":"二段","MAREA":" ","LANE":"３０２巷","ALLEY":"１弄","HOUSE_NO":"１０號五樓","E_COORD97":166604.63,"N_COORD97":2540333.9900000002,"ADDRESS":"中華南路二段３０２巷１弄１０號五樓","OBJECTID":8343},"geometry":{"x":166604.62999999989,"y":2540333.9900000021}},{"attributes":{"ID":8344,"DIS_CODE":0,"TOWNNAME":"將軍區","LI":"忠興里","LIN":"13鄰","STREET":" ","SECT":" ","MAREA":"忠興","LANE":" ","ALLEY":" ","HOUSE_NO":"１３１之９號","E_COORD97":163859.19,"N_COORD97":2567096,"ADDRESS":"忠興１３１之９號","OBJECTID":8344},"geometry":{"x":163859.19000000227,"y":2567096.0000000037}},{"attributes":{"ID":8345,"DIS_CODE":0,"TOWNNAME":"將軍區","LI":"忠興里","LIN":"13鄰","STREET":" ","SECT":" ","MAREA":"忠興","LANE":" ","ALLEY":" ","HOUSE_NO":"１２１號","E_COORD97":163712.32000000001,"N_COORD97":2567023.8799999999,"ADDRESS":"忠興１３１號","OBJECTID":8345},"geometry":{"x":163712.31999999937,"y":2567023.879999999}},{"attributes":{"ID":8346,"DIS_CODE":0,"TOWNNAME":"將軍區","LI":"忠興里","LIN":"13鄰","STREET":" ","SECT":" ","MAREA":"忠興","LANE":" ","ALLEY":" ","HOUSE_NO":"１３２之１８號","E_COORD97":163875.85999999999,"N_COORD97":2567290.3900000001,"ADDRESS":"忠興１３２之１８號","OBJECTID":8346},"geometry":{"x":163875.86000000034,"y":2567290.3900000043}},{"attributes":{"ID":8347,"DIS_CODE":0,"TOWNNAME":"將軍區","LI":"忠興里","LIN":"13鄰","STREET":" ","SECT":" ","MAREA":"忠興","LANE":" ","ALLEY":" ","HOUSE_NO":"１３２之２４號","E_COORD97":163979.67999999999,"N_COORD97":2567392.2200000002,"ADDRESS":"忠興１３２之２４號","OBJECTID":8347},"geometry":{"x":163979.68000000063,"y":2567392.2200000007}},{"attributes":{"ID":8348,"DIS_CODE":0,"TOWNNAME":"將軍區","LI":"忠興里","LIN":"13鄰","STREET":" ","SECT":" ","MAREA":"忠興","LANE":" ","ALLEY":" ","HOUSE_NO":"１３２之２５號","E_COORD97":163990.29999999999,"N_COORD97":2567424.8900000001,"ADDRESS":"忠興１３２之２５號","OBJECTID":8348},"geometry":{"x":163990.30000000075,"y":2567424.8900000006}},{"attributes":{"ID":8349,"DIS_CODE":0,"TOWNNAME":"將軍區","LI":"忠興里","LIN":"13鄰","STREET":" ","SECT":" ","MAREA":"忠興","LANE":" ","ALLEY":" ","HOUSE_NO":"１３２之２６號","E_COORD97":163970.57000000001,"N_COORD97":2567374.8599999999,"ADDRESS":"忠興１３２之２６號","OBJECTID":8349},"geometry":{"x":163970.57000000123,"y":2567374.8600000013}},{"attributes":{"ID":8350,"DIS_CODE":0,"TOWNNAME":"將軍區","LI":"忠興里","LIN":"13鄰","STREET":" ","SECT":" ","MAREA":"忠興","LANE":" ","ALLEY":" ","HOUSE_NO":"１３２之２８號","E_COORD97":163915.13,"N_COORD97":2567396.0299999998,"ADDRESS":"忠興１３２之２８號","OBJECTID":8350},"geometry":{"x":163915.13000000175,"y":2567396.0299999993}},{"attributes":{"ID":8351,"DIS_CODE":0,"TOWNNAME":"將軍區","LI":"忠興里","LIN":"13鄰","STREET":" ","SECT":" ","MAREA":"忠興","LANE":" ","ALLEY":" ","HOUSE_NO":"１３２之３０號","E_COORD97":163828.32000000001,"N_COORD97":2567423.9199999999,"ADDRESS":"忠興１３２之３０號","OBJECTID":8351},"geometry":{"x":163828.32000000123,"y":2567423.9199999999}},{"attributes":{"ID":8352,"DIS_CODE":0,"TOWNNAME":"將軍區","LI":"忠興里","LIN":"13鄰","STREET":" ","SECT":" ","MAREA":"忠興","LANE":" ","ALLEY":" ","HOUSE_NO":"１３２之３３號","E_COORD97":163750.04000000001,"N_COORD97":2567412.1499999999,"ADDRESS":"忠興１３２之３３號","OBJECTID":8352},"geometry":{"x":163750.04000000097,"y":2567412.1500000022}},{"attributes":{"ID":8353,"DIS_CODE":0,"TOWNNAME":"將軍區","LI":"忠興里","LIN":"13鄰","STREET":" ","SECT":" ","MAREA":"忠興","LANE":" ","ALLEY":" ","HOUSE_NO":"１３２之３５號","E_COORD97":163732.79999999999,"N_COORD97":2567360.4300000002,"ADDRESS":"忠興１３２之３５號","OBJECTID":8353},"geometry":{"x":163732.80000000075,"y":2567360.4300000034}},{"attributes":{"ID":8354,"DIS_CODE":0,"TOWNNAME":"東山區","LI":"聖賢里","LIN":"13鄰","STREET":" ","SECT":" ","MAREA":"田尾","LANE":" ","ALLEY":" ","HOUSE_NO":"３０號","E_COORD97":184692.57000000001,"N_COORD97":2578277.48,"ADDRESS":"田尾３０號","OBJECTID":8354},"geometry":{"x":184692.57000000123,"y":2578277.4800000004}},{"attributes":{"ID":8355,"DIS_CODE":0,"TOWNNAME":"將軍區","LI":"忠興里","LIN":"13鄰","STREET":" ","SECT":" ","MAREA":"忠興","LANE":" ","ALLEY":" ","HOUSE_NO":"１３２之３６號","E_COORD97":163706.10000000001,"N_COORD97":2567318.96,"ADDRESS":"忠興１３２之３６號","OBJECTID":8355},"geometry":{"x":163706.09999999963,"y":2567318.9600000028}},{"attributes":{"ID":8356,"DIS_CODE":0,"TOWNNAME":"將軍區","LI":"忠興里","LIN":"13鄰","STREET":" ","SECT":" ","MAREA":"忠興","LANE":" ","ALLEY":" ","HOUSE_NO":"１３２之３８號","E_COORD97":163700.01999999999,"N_COORD97":2567361.6600000001,"ADDRESS":"忠興１３２之３８號","OBJECTID":8356},"geometry":{"x":163700.01999999862,"y":2567361.6600000001}},{"attributes":{"ID":8357,"DIS_CODE":0,"TOWNNAME":"將軍區","LI":"忠興里","LIN":"13鄰","STREET":" ","SECT":" ","MAREA":"忠興","LANE":" ","ALLEY":" ","HOUSE_NO":"１３２之６號","E_COORD97":163876.67999999999,"N_COORD97":2567167.1800000002,"ADDRESS":"忠興１３２之６號","OBJECTID":8357},"geometry":{"x":163876.6799999997,"y":2567167.1799999997}},{"attributes":{"ID":8358,"DIS_CODE":0,"TOWNNAME":"將軍區","LI":"忠興里","LIN":"13鄰","STREET":" ","SECT":" ","MAREA":"忠興","LANE":" ","ALLEY":" ","HOUSE_NO":"１３３號","E_COORD97":163804.70000000001,"N_COORD97":2567086.7599999998,"ADDRESS":"忠興１３３號","OBJECTID":8358},"geometry":{"x":163804.70000000205,"y":2567086.7599999979}},{"attributes":{"ID":8359,"DIS_CODE":0,"TOWNNAME":"將軍區","LI":"嘉昌里","LIN":"13鄰","STREET":" ","SECT":" ","MAREA":"昌平","LANE":" ","ALLEY":" ","HOUSE_NO":"１之１號","E_COORD97":163062.26000000001,"N_COORD97":2567384.7000000002,"ADDRESS":"昌平１之１號","OBJECTID":8359},"geometry":{"x":163062.25999999978,"y":2567384.6999999993}},{"attributes":{"ID":8360,"DIS_CODE":0,"TOWNNAME":"將軍區","LI":"嘉昌里","LIN":"13鄰","STREET":" ","SECT":" ","MAREA":"昌平","LANE":" ","ALLEY":" ","HOUSE_NO":"５之１１號","E_COORD97":163207.98999999999,"N_COORD97":2567314.0600000001,"ADDRESS":"昌平５之１１號","OBJECTID":8360},"geometry":{"x":163207.99000000115,"y":2567314.0600000024}},{"attributes":{"ID":8361,"DIS_CODE":0,"TOWNNAME":"將軍區","LI":"嘉昌里","LIN":"13鄰","STREET":" ","SECT":" ","MAREA":"昌平","LANE":" ","ALLEY":" ","HOUSE_NO":"５之１２號","E_COORD97":163205.73000000001,"N_COORD97":2567317.8199999998,"ADDRESS":"昌平５之１２號","OBJECTID":8361},"geometry":{"x":163205.73000000045,"y":2567317.820000004}},{"attributes":{"ID":8362,"DIS_CODE":0,"TOWNNAME":"將軍區","LI":"嘉昌里","LIN":"13鄰","STREET":" ","SECT":" ","MAREA":"昌平","LANE":" ","ALLEY":" ","HOUSE_NO":"５之３６號","E_COORD97":163223.85999999999,"N_COORD97":2567353.71,"ADDRESS":"昌平５之３６號","OBJECTID":8362},"geometry":{"x":163223.8599999994,"y":2567353.7100000028}},{"attributes":{"ID":8363,"DIS_CODE":0,"TOWNNAME":"將軍區","LI":"嘉昌里","LIN":"13鄰","STREET":" ","SECT":" ","MAREA":"昌平","LANE":" ","ALLEY":" ","HOUSE_NO":"５之３７號","E_COORD97":163223.60000000001,"N_COORD97":2567349.8100000001,"ADDRESS":"昌平５之３７號","OBJECTID":8363},"geometry":{"x":163223.60000000056,"y":2567349.8100000024}},{"attributes":{"ID":8364,"DIS_CODE":0,"TOWNNAME":"南區","LI":"南華里","LIN":"13鄰","STREET":"中華南路","SECT":"二段","MAREA":" ","LANE":"３０２巷","ALLEY":"１弄","HOUSE_NO":"１０號四樓","E_COORD97":166604.63,"N_COORD97":2540333.9900000002,"ADDRESS":"中華南路二段３０２巷１弄１０號四樓","OBJECTID":8364},"geometry":{"x":166604.62999999989,"y":2540333.9900000021}},{"attributes":{"ID":8365,"DIS_CODE":0,"TOWNNAME":"南區","LI":"南華里","LIN":"13鄰","STREET":"中華南路","SECT":"二段","MAREA":" ","LANE":"３０２巷","ALLEY":"１弄","HOUSE_NO":"１２號二樓","E_COORD97":166596.54999999999,"N_COORD97":2540334.1099999999,"ADDRESS":"中華南路二段３０２巷１弄１２號二樓","OBJECTID":8365},"geometry":{"x":166596.54999999981,"y":2540334.1100000031}},{"attributes":{"ID":8366,"DIS_CODE":0,"TOWNNAME":"南區","LI":"南華里","LIN":"13鄰","STREET":"中華南路","SECT":"二段","MAREA":" ","LANE":"３０２巷","ALLEY":"１弄","HOUSE_NO":"１２號三樓","E_COORD97":166596.54999999999,"N_COORD97":2540334.1099999999,"ADDRESS":"中華南路二段３０２巷１弄１２號三樓","OBJECTID":8366},"geometry":{"x":166596.54999999981,"y":2540334.1100000031}},{"attributes":{"ID":8367,"DIS_CODE":0,"TOWNNAME":"南區","LI":"南華里","LIN":"13鄰","STREET":"中華南路","SECT":"二段","MAREA":" ","LANE":"３０２巷","ALLEY":"１弄","HOUSE_NO":"１２號五樓","E_COORD97":166596.54999999999,"N_COORD97":2540334.1099999999,"ADDRESS":"中華南路二段３０２巷１弄１２號五樓","OBJECTID":8367},"geometry":{"x":166596.54999999981,"y":2540334.1100000031}},{"attributes":{"ID":8368,"DIS_CODE":0,"TOWNNAME":"將軍區","LI":"嘉昌里","LIN":"13鄰","STREET":" ","SECT":" ","MAREA":"昌平","LANE":" ","ALLEY":" ","HOUSE_NO":"５之３８號","E_COORD97":163223.5,"N_COORD97":2567346.1499999999,"ADDRESS":"昌平５之３８號","OBJECTID":8368},"geometry":{"x":163223.50000000093,"y":2567346.1500000041}},{"attributes":{"ID":8369,"DIS_CODE":0,"TOWNNAME":"將軍區","LI":"嘉昌里","LIN":"13鄰","STREET":" ","SECT":" ","MAREA":"昌平","LANE":" ","ALLEY":" ","HOUSE_NO":"５之３９號","E_COORD97":163223.85999999999,"N_COORD97":2567342.2000000002,"ADDRESS":"昌平５之３９號","OBJECTID":8369},"geometry":{"x":163223.8599999994,"y":2567342.2000000011}},{"attributes":{"ID":8370,"DIS_CODE":0,"TOWNNAME":"將軍區","LI":"嘉昌里","LIN":"13鄰","STREET":" ","SECT":" ","MAREA":"昌平","LANE":" ","ALLEY":" ","HOUSE_NO":"５之３號","E_COORD97":163240.57000000001,"N_COORD97":2567306.7000000002,"ADDRESS":"昌平５之３號","OBJECTID":8370},"geometry":{"x":163240.5700000003,"y":2567306.6999999993}},{"attributes":{"ID":8371,"DIS_CODE":0,"TOWNNAME":"將軍區","LI":"嘉昌里","LIN":"13鄰","STREET":" ","SECT":" ","MAREA":"昌平","LANE":" ","ALLEY":" ","HOUSE_NO":"５之４０號","E_COORD97":163223.76000000001,"N_COORD97":2567337.9300000002,"ADDRESS":"昌平５之４０號","OBJECTID":8371},"geometry":{"x":163223.75999999978,"y":2567337.9300000016}},{"attributes":{"ID":8372,"DIS_CODE":0,"TOWNNAME":"南區","LI":"南華里","LIN":"13鄰","STREET":"中華南路","SECT":"二段","MAREA":" ","LANE":"３０２巷","ALLEY":"１弄","HOUSE_NO":"１２號四樓","E_COORD97":166596.54999999999,"N_COORD97":2540334.1099999999,"ADDRESS":"中華南路二段３０２巷１弄１２號四樓","OBJECTID":8372},"geometry":{"x":166596.54999999981,"y":2540334.1100000031}},{"attributes":{"ID":8373,"DIS_CODE":0,"TOWNNAME":"南區","LI":"南華里","LIN":"13鄰","STREET":"中華南路","SECT":"二段","MAREA":" ","LANE":"３０２巷","ALLEY":"１弄","HOUSE_NO":"２號二樓","E_COORD97":166639.45999999999,"N_COORD97":2540333.8700000001,"ADDRESS":"中華南路二段３０２巷１弄２號二樓","OBJECTID":8373},"geometry":{"x":166639.46000000089,"y":2540333.8699999992}},{"attributes":{"ID":8374,"DIS_CODE":0,"TOWNNAME":"南區","LI":"南華里","LIN":"13鄰","STREET":"中華南路","SECT":"二段","MAREA":" ","LANE":"３０２巷","ALLEY":"１弄","HOUSE_NO":"２號三樓","E_COORD97":166639.45999999999,"N_COORD97":2540333.8700000001,"ADDRESS":"中華南路二段３０２巷１弄２號三樓","OBJECTID":8374},"geometry":{"x":166639.46000000089,"y":2540333.8699999992}},{"attributes":{"ID":8375,"DIS_CODE":0,"TOWNNAME":"南區","LI":"南華里","LIN":"13鄰","STREET":"中華南路","SECT":"二段","MAREA":" ","LANE":"３０２巷","ALLEY":"１弄","HOUSE_NO":"２號五樓","E_COORD97":166639.45999999999,"N_COORD97":2540333.8700000001,"ADDRESS":"中華南路二段３０２巷１弄２號五樓","OBJECTID":8375},"geometry":{"x":166639.46000000089,"y":2540333.8699999992}},{"attributes":{"ID":8376,"DIS_CODE":0,"TOWNNAME":"南區","LI":"南華里","LIN":"13鄰","STREET":"中華南路","SECT":"二段","MAREA":" ","LANE":"３０２巷","ALLEY":"１弄","HOUSE_NO":"２號四樓","E_COORD97":166639.45999999999,"N_COORD97":2540333.8700000001,"ADDRESS":"中華南路二段３０２巷１弄２號四樓","OBJECTID":8376},"geometry":{"x":166639.46000000089,"y":2540333.8699999992}},{"attributes":{"ID":8377,"DIS_CODE":0,"TOWNNAME":"南區","LI":"南華里","LIN":"13鄰","STREET":"中華南路","SECT":"二段","MAREA":" ","LANE":"３０２巷","ALLEY":"１弄","HOUSE_NO":"４號二樓","E_COORD97":166629.12,"N_COORD97":2540333.52,"ADDRESS":"中華南路二段３０２巷１弄４號二樓","OBJECTID":8377},"geometry":{"x":166629.12000000011,"y":2540333.5199999996}},{"attributes":{"ID":8378,"DIS_CODE":0,"TOWNNAME":"南區","LI":"南華里","LIN":"13鄰","STREET":"中華南路","SECT":"二段","MAREA":" ","LANE":"３０２巷","ALLEY":"１弄","HOUSE_NO":"４號三樓","E_COORD97":166629.12,"N_COORD97":2540333.52,"ADDRESS":"中華南路二段３０２巷１弄４號三樓","OBJECTID":8378},"geometry":{"x":166629.12000000011,"y":2540333.5199999996}},{"attributes":{"ID":8379,"DIS_CODE":0,"TOWNNAME":"南區","LI":"南華里","LIN":"13鄰","STREET":"中華南路","SECT":"二段","MAREA":" ","LANE":"３０２巷","ALLEY":"１弄","HOUSE_NO":"４號五樓","E_COORD97":166629.12,"N_COORD97":2540333.52,"ADDRESS":"中華南路二段３０２巷１弄４號五樓","OBJECTID":8379},"geometry":{"x":166629.12000000011,"y":2540333.5199999996}},{"attributes":{"ID":8380,"DIS_CODE":0,"TOWNNAME":"南區","LI":"南華里","LIN":"13鄰","STREET":"中華南路","SECT":"二段","MAREA":" ","LANE":"３０２巷","ALLEY":"１弄","HOUSE_NO":"４號四樓","E_COORD97":166629.12,"N_COORD97":2540333.52,"ADDRESS":"中華南路二段３０２巷１弄４號四樓","OBJECTID":8380},"geometry":{"x":166629.12000000011,"y":2540333.5199999996}},{"attributes":{"ID":8381,"DIS_CODE":0,"TOWNNAME":"南區","LI":"南華里","LIN":"13鄰","STREET":"中華南路","SECT":"二段","MAREA":" ","LANE":"３０２巷","ALLEY":"１弄","HOUSE_NO":"６號二樓","E_COORD97":166621.16,"N_COORD97":2540333.6400000001,"ADDRESS":"中華南路二段３０２巷１弄６號二樓","OBJECTID":8381},"geometry":{"x":166621.16000000108,"y":2540333.6400000006}},{"attributes":{"ID":8382,"DIS_CODE":0,"TOWNNAME":"南區","LI":"南華里","LIN":"13鄰","STREET":"中華南路","SECT":"二段","MAREA":" ","LANE":"３０２巷","ALLEY":"１弄","HOUSE_NO":"６號三樓","E_COORD97":166621.16,"N_COORD97":2540333.6400000001,"ADDRESS":"中華南路二段３０２巷１弄６號三樓","OBJECTID":8382},"geometry":{"x":166621.16000000108,"y":2540333.6400000006}},{"attributes":{"ID":8383,"DIS_CODE":0,"TOWNNAME":"南區","LI":"南華里","LIN":"13鄰","STREET":"中華南路","SECT":"二段","MAREA":" ","LANE":"３０２巷","ALLEY":"１弄","HOUSE_NO":"６號五樓","E_COORD97":166621.16,"N_COORD97":2540333.6400000001,"ADDRESS":"中華南路二段３０２巷１弄６號五樓","OBJECTID":8383},"geometry":{"x":166621.16000000108,"y":2540333.6400000006}},{"attributes":{"ID":8384,"DIS_CODE":0,"TOWNNAME":"南區","LI":"南華里","LIN":"13鄰","STREET":"中華南路","SECT":"二段","MAREA":" ","LANE":"３０２巷","ALLEY":"１弄","HOUSE_NO":"６號四樓","E_COORD97":166621.16,"N_COORD97":2540333.6400000001,"ADDRESS":"中華南路二段３０２巷１弄６號四樓","OBJECTID":8384},"geometry":{"x":166621.16000000108,"y":2540333.6400000006}},{"attributes":{"ID":8385,"DIS_CODE":0,"TOWNNAME":"南區","LI":"南華里","LIN":"13鄰","STREET":"中華南路","SECT":"二段","MAREA":" ","LANE":"３０２巷","ALLEY":"１弄","HOUSE_NO":"８號二樓","E_COORD97":166612.12,"N_COORD97":2540333.6400000001,"ADDRESS":"中華南路二段３０２巷１弄８號二樓","OBJECTID":8385},"geometry":{"x":166612.12000000011,"y":2540333.6400000006}},{"attributes":{"ID":8386,"DIS_CODE":0,"TOWNNAME":"將軍區","LI":"嘉昌里","LIN":"13鄰","STREET":" ","SECT":" ","MAREA":"昌平","LANE":" ","ALLEY":" ","HOUSE_NO":"５之９號","E_COORD97":163220.64000000001,"N_COORD97":2567306.8199999998,"ADDRESS":"昌平５之９號","OBJECTID":8386},"geometry":{"x":163220.63999999966,"y":2567306.8200000003}},{"attributes":{"ID":8387,"DIS_CODE":0,"TOWNNAME":"南區","LI":"南華里","LIN":"13鄰","STREET":"中華南路","SECT":"二段","MAREA":" ","LANE":"３０２巷","ALLEY":"１弄","HOUSE_NO":"８號三樓","E_COORD97":166612.12,"N_COORD97":2540333.6400000001,"ADDRESS":"中華南路二段３０２巷１弄８號三樓","OBJECTID":8387},"geometry":{"x":166612.12000000011,"y":2540333.6400000006}},{"attributes":{"ID":8388,"DIS_CODE":0,"TOWNNAME":"南區","LI":"南華里","LIN":"13鄰","STREET":"中華南路","SECT":"二段","MAREA":" ","LANE":"３０２巷","ALLEY":"１弄","HOUSE_NO":"８號五樓","E_COORD97":166612.12,"N_COORD97":2540333.6400000001,"ADDRESS":"中華南路二段３０２巷１弄８號五樓","OBJECTID":8388},"geometry":{"x":166612.12000000011,"y":2540333.6400000006}},{"attributes":{"ID":8389,"DIS_CODE":0,"TOWNNAME":"東區","LI":"德高里","LIN":"13鄰","STREET":"城東街","SECT":" ","MAREA":" ","LANE":" ","ALLEY":" ","HOUSE_NO":"２７號四樓","E_COORD97":171523.23999999999,"N_COORD97":2540680.6600000001,"ADDRESS":"城東街２７號四樓","OBJECTID":8389},"geometry":{"x":171523.24000000115,"y":2540680.6600000039}},{"attributes":{"ID":8390,"DIS_CODE":0,"TOWNNAME":"東區","LI":"德高里","LIN":"13鄰","STREET":"城東街","SECT":" ","MAREA":" ","LANE":" ","ALLEY":" ","HOUSE_NO":"２９號三樓","E_COORD97":171528.16,"N_COORD97":2540686.4900000002,"ADDRESS":"城東街２９號三樓","OBJECTID":8390},"geometry":{"x":171528.16000000201,"y":2540686.4900000021}},{"attributes":{"ID":8391,"DIS_CODE":0,"TOWNNAME":"東區","LI":"德高里","LIN":"13鄰","STREET":"城東街","SECT":" ","MAREA":" ","LANE":" ","ALLEY":" ","HOUSE_NO":"３５號三樓","E_COORD97":171519.59,"N_COORD97":2540707.4500000002,"ADDRESS":"城東街３５號三樓","OBJECTID":8391},"geometry":{"x":171519.58999999985,"y":2540707.4499999993}},{"attributes":{"ID":8392,"DIS_CODE":0,"TOWNNAME":"東區","LI":"德高里","LIN":"13鄰","STREET":"城東街","SECT":" ","MAREA":" ","LANE":" ","ALLEY":" ","HOUSE_NO":"３７號六樓","E_COORD97":171512.12,"N_COORD97":2540710.9100000001,"ADDRESS":"城東街３７號六樓","OBJECTID":8392},"geometry":{"x":171512.12000000104,"y":2540710.910000002}},{"attributes":{"ID":8393,"DIS_CODE":0,"TOWNNAME":"將軍區","LI":"嘉昌里","LIN":"13鄰","STREET":" ","SECT":" ","MAREA":"昌平","LANE":" ","ALLEY":" ","HOUSE_NO":"５號","E_COORD97":163274.98999999999,"N_COORD97":2567320.9399999999,"ADDRESS":"昌平５號","OBJECTID":8393},"geometry":{"x":163274.99000000022,"y":2567320.9400000013}},{"attributes":{"ID":8394,"DIS_CODE":0,"TOWNNAME":"南區","LI":"南華里","LIN":"13鄰","STREET":"中華南路","SECT":"二段","MAREA":" ","LANE":"３０２巷","ALLEY":"１弄","HOUSE_NO":"８號四樓","E_COORD97":166612.12,"N_COORD97":2540333.6400000001,"ADDRESS":"中華南路二段３０２巷１弄８號四樓","OBJECTID":8394},"geometry":{"x":166612.12000000011,"y":2540333.6400000006}},{"attributes":{"ID":8395,"DIS_CODE":0,"TOWNNAME":"將軍區","LI":"嘉昌里","LIN":"13鄰","STREET":" ","SECT":" ","MAREA":"昌平","LANE":" ","ALLEY":" ","HOUSE_NO":"６號","E_COORD97":163292.78,"N_COORD97":2567305.0800000001,"ADDRESS":"昌平６號","OBJECTID":8395},"geometry":{"x":163292.78000000119,"y":2567305.0800000001}},{"attributes":{"ID":8396,"DIS_CODE":0,"TOWNNAME":"北區","LI":"長德里","LIN":"13鄰","STREET":"長北街","SECT":" ","MAREA":" ","LANE":"２１０巷","ALLEY":"５弄","HOUSE_NO":"２號二樓","E_COORD97":168619.37,"N_COORD97":2545045.7599999998,"ADDRESS":"長北街２１０巷５弄２號二樓","OBJECTID":8396},"geometry":{"x":168619.36999999918,"y":2545045.7599999998}},{"attributes":{"ID":8397,"DIS_CODE":0,"TOWNNAME":"北區","LI":"長德里","LIN":"13鄰","STREET":"長北街","SECT":" ","MAREA":" ","LANE":"２１０巷","ALLEY":"５弄","HOUSE_NO":"２號三樓","E_COORD97":168619.37,"N_COORD97":2545045.7599999998,"ADDRESS":"長北街２１０巷５弄２號三樓","OBJECTID":8397},"geometry":{"x":168619.36999999918,"y":2545045.7599999998}},{"attributes":{"ID":8398,"DIS_CODE":0,"TOWNNAME":"北區","LI":"長德里","LIN":"13鄰","STREET":"長北街","SECT":" ","MAREA":" ","LANE":"２１０巷","ALLEY":"５弄","HOUSE_NO":"２號五樓","E_COORD97":168619.37,"N_COORD97":2545045.7599999998,"ADDRESS":"長北街２１０巷５弄２號五樓","OBJECTID":8398},"geometry":{"x":168619.36999999918,"y":2545045.7599999998}},{"attributes":{"ID":8399,"DIS_CODE":0,"TOWNNAME":"北區","LI":"長德里","LIN":"13鄰","STREET":"長北街","SECT":" ","MAREA":" ","LANE":"２１０巷","ALLEY":"５弄","HOUSE_NO":"２號四樓","E_COORD97":168619.37,"N_COORD97":2545045.7599999998,"ADDRESS":"長北街２１０巷５弄２號四樓","OBJECTID":8399},"geometry":{"x":168619.36999999918,"y":2545045.7599999998}},{"attributes":{"ID":8400,"DIS_CODE":0,"TOWNNAME":"北區","LI":"長德里","LIN":"13鄰","STREET":"長北街","SECT":" ","MAREA":" ","LANE":"２１０巷","ALLEY":"５弄","HOUSE_NO":"４號二樓","E_COORD97":168617.70999999999,"N_COORD97":2545053.6800000002,"ADDRESS":"長北街２１０巷５弄４號二樓","OBJECTID":8400},"geometry":{"x":168617.71000000089,"y":2545053.6800000016}}]}