{"displayFieldName":"TOWNNAME","fieldAliases":{"ID":"ID","DIS_CODE":"DIS_CODE","TOWNNAME":"TOWNNAME","LI":"LI","LIN":"LIN","STREET":"STREET","SECT":"SECT","MAREA":"MAREA","LANE":"LANE","ALLEY":"ALLEY","HOUSE_NO":"HOUSE_NO","E_COORD97":"E_COORD97","N_COORD97":"N_COORD97","ADDRESS":"ADDRESS","OBJECTID":"OBJECTID"},"geometryType":"esriGeometryPoint","spatialReference":{"wkid":102443,"latestWkid":3826},"fields":[{"name":"ID","type":"esriFieldTypeDouble","alias":"ID"},{"name":"DIS_CODE","type":"esriFieldTypeInteger","alias":"DIS_CODE"},{"name":"TOWNNAME","type":"esriFieldTypeString","alias":"TOWNNAME","length":8},{"name":"LI","type":"esriFieldTypeString","alias":"LI","length":8},{"name":"LIN","type":"esriFieldTypeString","alias":"LIN","length":12},{"name":"STREET","type":"esriFieldTypeString","alias":"STREET","length":20},{"name":"SECT","type":"esriFieldTypeString","alias":"SECT","length":8},{"name":"MAREA","type":"esriFieldTypeString","alias":"MAREA","length":12},{"name":"LANE","type":"esriFieldTypeString","alias":"LANE","length":10},{"name":"ALLEY","type":"esriFieldTypeString","alias":"ALLEY","length":10},{"name":"HOUSE_NO","type":"esriFieldTypeString","alias":"HOUSE_NO","length":20},{"name":"E_COORD97","type":"esriFieldTypeDouble","alias":"E_COORD97"},{"name":"N_COORD97","type":"esriFieldTypeDouble","alias":"N_COORD97"},{"name":"ADDRESS","type":"esriFieldTypeString","alias":"ADDRESS","length":50},{"name":"OBJECTID","type":"esriFieldTypeOID","alias":"OBJECTID"}],"features":[{"attributes":{"ID":363611,"DIS_CODE":0,"TOWNNAME":"南區","LI":"文華里","LIN":"13鄰","STREET":"美南街","SECT":" ","MAREA":" ","LANE":" ","ALLEY":" ","HOUSE_NO":"１４號","E_COORD97":167074.76000000001,"N_COORD97":2543102.2000000002,"ADDRESS":"美南街１４號","OBJECTID":363601},"geometry":{"x":167074.75999999978,"y":2543102.1999999993}},{"attributes":{"ID":363612,"DIS_CODE":0,"TOWNNAME":"永康區","LI":"正強里","LIN":"43鄰","STREET":"中正路","SECT":" ","MAREA":" ","LANE":"２５６巷","ALLEY":" ","HOUSE_NO":"３號之２６","E_COORD97":173149.23999999999,"N_COORD97":2547954.29,"ADDRESS":"中正路２５６巷３號之２６","OBJECTID":363602},"geometry":{"x":173149.24000000022,"y":2547954.2900000028}},{"attributes":{"ID":363613,"DIS_CODE":0,"TOWNNAME":"永康區","LI":"南灣里","LIN":"43鄰","STREET":"南興路","SECT":" ","MAREA":" ","LANE":"１１２巷","ALLEY":" ","HOUSE_NO":"１４號","E_COORD97":174417.85000000001,"N_COORD97":2544463.7400000002,"ADDRESS":"南興路１１２巷１４號","OBJECTID":363603},"geometry":{"x":174417.84999999963,"y":2544463.7400000039}},{"attributes":{"ID":363614,"DIS_CODE":0,"TOWNNAME":"永康區","LI":"崑山里","LIN":"43鄰","STREET":"大灣路","SECT":" ","MAREA":" ","LANE":"９４２巷","ALLEY":" ","HOUSE_NO":"３３７號","E_COORD97":173833.01000000001,"N_COORD97":2545115.2400000002,"ADDRESS":"大灣路９４２巷３３７號","OBJECTID":363604},"geometry":{"x":173833.01000000071,"y":2545115.2400000021}},{"attributes":{"ID":363615,"DIS_CODE":0,"TOWNNAME":"仁德區","LI":"仁德里","LIN":"43鄰","STREET":"中山路","SECT":" ","MAREA":" ","LANE":"９１０巷","ALLEY":" ","HOUSE_NO":"３６號","E_COORD97":172041.51000000001,"N_COORD97":2541812.9900000002,"ADDRESS":"中山路９１０巷３６號","OBJECTID":363605},"geometry":{"x":172041.51000000071,"y":2541812.9900000002}},{"attributes":{"ID":363616,"DIS_CODE":0,"TOWNNAME":"仁德區","LI":"仁德里","LIN":"43鄰","STREET":"中山路","SECT":" ","MAREA":" ","LANE":"９１０巷","ALLEY":" ","HOUSE_NO":"４１號","E_COORD97":172028.88,"N_COORD97":2541820.2400000002,"ADDRESS":"中山路９１０巷４１號","OBJECTID":363606},"geometry":{"x":172028.88000000082,"y":2541820.2400000021}},{"attributes":{"ID":363617,"DIS_CODE":0,"TOWNNAME":"永康區","LI":"西灣里","LIN":"43鄰","STREET":"大灣路","SECT":" ","MAREA":" ","LANE":"９４２巷","ALLEY":" ","HOUSE_NO":"３７８號","E_COORD97":173963.17000000001,"N_COORD97":2545452.2400000002,"ADDRESS":"大灣路９４２巷３７８號","OBJECTID":363607},"geometry":{"x":173963.16999999993,"y":2545452.2400000002}},{"attributes":{"ID":363618,"DIS_CODE":0,"TOWNNAME":"仁德區","LI":"仁義里","LIN":"43鄰","STREET":"中正路","SECT":"二段","MAREA":" ","LANE":"１０３４巷","ALLEY":" ","HOUSE_NO":"１６號","E_COORD97":173454.28,"N_COORD97":2540880.8500000001,"ADDRESS":"中正路二段１０３４巷１６號","OBJECTID":363608},"geometry":{"x":173454.28000000026,"y":2540880.8499999996}},{"attributes":{"ID":363619,"DIS_CODE":0,"TOWNNAME":"仁德區","LI":"仁義里","LIN":"43鄰","STREET":"中正路","SECT":"二段","MAREA":" ","LANE":"９９４巷","ALLEY":" ","HOUSE_NO":"１７號","E_COORD97":173474.10000000001,"N_COORD97":2540822.5299999998,"ADDRESS":"中正路二段９９４巷１７號","OBJECTID":363609},"geometry":{"x":173474.10000000149,"y":2540822.5299999993}},{"attributes":{"ID":363620,"DIS_CODE":0,"TOWNNAME":"仁德區","LI":"仁義里","LIN":"43鄰","STREET":"中正路","SECT":"二段","MAREA":" ","LANE":"１０３４巷","ALLEY":" ","HOUSE_NO":"２０號","E_COORD97":173462.56,"N_COORD97":2540881.6000000001,"ADDRESS":"中正路二段１０３４巷２０號","OBJECTID":363610},"geometry":{"x":173462.56000000145,"y":2540881.6000000015}},{"attributes":{"ID":363621,"DIS_CODE":0,"TOWNNAME":"仁德區","LI":"仁義里","LIN":"43鄰","STREET":"中正路","SECT":"二段","MAREA":" ","LANE":"９９４巷","ALLEY":" ","HOUSE_NO":"３９號","E_COORD97":173524.57000000001,"N_COORD97":2540804.77,"ADDRESS":"中正路二段９９４巷３９號","OBJECTID":363611},"geometry":{"x":173524.57000000123,"y":2540804.7700000014}},{"attributes":{"ID":363622,"DIS_CODE":0,"TOWNNAME":"仁德區","LI":"仁義里","LIN":"43鄰","STREET":"中正路","SECT":"二段","MAREA":" ","LANE":"９９４巷","ALLEY":" ","HOUSE_NO":"７號","E_COORD97":173458.70999999999,"N_COORD97":2540790.52,"ADDRESS":"中正路二段９９４巷７號","OBJECTID":363612},"geometry":{"x":173458.71000000089,"y":2540790.5200000014}},{"attributes":{"ID":363623,"DIS_CODE":0,"TOWNNAME":"仁德區","LI":"仁義里","LIN":"43鄰","STREET":"中正路","SECT":"二段","MAREA":" ","LANE":"１０３４巷","ALLEY":" ","HOUSE_NO":"８號","E_COORD97":173435.51999999999,"N_COORD97":2540878.6000000001,"ADDRESS":"中正路二段１０３４巷８號","OBJECTID":363613},"geometry":{"x":173435.52000000142,"y":2540878.5999999996}},{"attributes":{"ID":363624,"DIS_CODE":0,"TOWNNAME":"仁德區","LI":"仁義里","LIN":"43鄰","STREET":"中正路","SECT":"二段","MAREA":" ","LANE":"１０３４巷","ALLEY":" ","HOUSE_NO":"１４號","E_COORD97":173450.48000000001,"N_COORD97":2540880.1000000001,"ADDRESS":"中正路二段１０３４巷１４號","OBJECTID":363614},"geometry":{"x":173450.48000000231,"y":2540880.0999999978}},{"attributes":{"ID":363625,"DIS_CODE":0,"TOWNNAME":"南區","LI":"新興里","LIN":"19鄰","STREET":"新興路","SECT":" ","MAREA":" ","LANE":"１９２巷","ALLEY":" ","HOUSE_NO":"５號","E_COORD97":167297.60000000001,"N_COORD97":2542002.2200000002,"ADDRESS":"新興路１９２巷５號","OBJECTID":363615},"geometry":{"x":167297.60000000056,"y":2542002.2200000007}},{"attributes":{"ID":363626,"DIS_CODE":0,"TOWNNAME":"南區","LI":"文華里","LIN":"13鄰","STREET":"美南街","SECT":" ","MAREA":" ","LANE":" ","ALLEY":" ","HOUSE_NO":"１６號","E_COORD97":167070.63,"N_COORD97":2543102.1099999999,"ADDRESS":"美南街１６號","OBJECTID":363616},"geometry":{"x":167070.62999999989,"y":2543102.1100000013}},{"attributes":{"ID":363627,"DIS_CODE":0,"TOWNNAME":"南區","LI":"文華里","LIN":"13鄰","STREET":"美南街","SECT":" ","MAREA":" ","LANE":" ","ALLEY":" ","HOUSE_NO":"１８號","E_COORD97":167066.04999999999,"N_COORD97":2543102.9199999999,"ADDRESS":"美南街１８號","OBJECTID":363617},"geometry":{"x":167066.04999999981,"y":2543102.9200000018}},{"attributes":{"ID":363628,"DIS_CODE":0,"TOWNNAME":"南區","LI":"文華里","LIN":"13鄰","STREET":"美南街","SECT":" ","MAREA":" ","LANE":" ","ALLEY":" ","HOUSE_NO":"２０號","E_COORD97":167062.45999999999,"N_COORD97":2543103.2799999998,"ADDRESS":"美南街２０號","OBJECTID":363618},"geometry":{"x":167062.46000000183,"y":2543103.2800000012}},{"attributes":{"ID":363629,"DIS_CODE":0,"TOWNNAME":"南區","LI":"文華里","LIN":"13鄰","STREET":"美南街","SECT":" ","MAREA":" ","LANE":" ","ALLEY":" ","HOUSE_NO":"２２號","E_COORD97":167057.72,"N_COORD97":2543103.9100000001,"ADDRESS":"美南街２２號","OBJECTID":363619},"geometry":{"x":167057.72000000067,"y":2543103.910000002}},{"attributes":{"ID":363630,"DIS_CODE":0,"TOWNNAME":"南區","LI":"文華里","LIN":"13鄰","STREET":"美南街","SECT":" ","MAREA":" ","LANE":" ","ALLEY":" ","HOUSE_NO":"２４號","E_COORD97":167052.87,"N_COORD97":2543104.27,"ADDRESS":"美南街２４號","OBJECTID":363620},"geometry":{"x":167052.87000000011,"y":2543104.2700000014}},{"attributes":{"ID":363631,"DIS_CODE":0,"TOWNNAME":"南區","LI":"文華里","LIN":"13鄰","STREET":"美南街","SECT":" ","MAREA":" ","LANE":" ","ALLEY":" ","HOUSE_NO":"２６號","E_COORD97":167048.92000000001,"N_COORD97":2543104.3599999999,"ADDRESS":"美南街２６號","OBJECTID":363621},"geometry":{"x":167048.91999999993,"y":2543104.3599999994}},{"attributes":{"ID":363632,"DIS_CODE":0,"TOWNNAME":"南區","LI":"文華里","LIN":"13鄰","STREET":"美南街","SECT":" ","MAREA":" ","LANE":" ","ALLEY":" ","HOUSE_NO":"２８號","E_COORD97":167044.79000000001,"N_COORD97":2543104.71,"ADDRESS":"美南街２８號","OBJECTID":363622},"geometry":{"x":167044.79000000004,"y":2543104.709999999}},{"attributes":{"ID":363633,"DIS_CODE":0,"TOWNNAME":"南區","LI":"文華里","LIN":"13鄰","STREET":"美南街","SECT":" ","MAREA":" ","LANE":" ","ALLEY":" ","HOUSE_NO":"３０號","E_COORD97":167040.57000000001,"N_COORD97":2543105.25,"ADDRESS":"美南街３０號","OBJECTID":363623},"geometry":{"x":167040.57000000123,"y":2543105.2500000019}},{"attributes":{"ID":363634,"DIS_CODE":0,"TOWNNAME":"南區","LI":"文華里","LIN":"13鄰","STREET":"美南街","SECT":" ","MAREA":" ","LANE":" ","ALLEY":" ","HOUSE_NO":"３２號","E_COORD97":167036.44,"N_COORD97":2543105.4300000002,"ADDRESS":"美南街３２號","OBJECTID":363624},"geometry":{"x":167036.44000000134,"y":2543105.4299999978}},{"attributes":{"ID":363635,"DIS_CODE":0,"TOWNNAME":"南區","LI":"文華里","LIN":"13鄰","STREET":"美南街","SECT":" ","MAREA":" ","LANE":" ","ALLEY":" ","HOUSE_NO":"３４號","E_COORD97":167031.76000000001,"N_COORD97":2543105.79,"ADDRESS":"美南街３４號","OBJECTID":363625},"geometry":{"x":167031.76000000071,"y":2543105.7899999972}},{"attributes":{"ID":363636,"DIS_CODE":0,"TOWNNAME":"南區","LI":"文華里","LIN":"13鄰","STREET":"美南街","SECT":" ","MAREA":" ","LANE":" ","ALLEY":" ","HOUSE_NO":"３６號","E_COORD97":167027.89999999999,"N_COORD97":2543106.1499999999,"ADDRESS":"美南街３６號","OBJECTID":363626},"geometry":{"x":167027.9000000013,"y":2543106.1500000022}},{"attributes":{"ID":363637,"DIS_CODE":0,"TOWNNAME":"南區","LI":"文華里","LIN":"13鄰","STREET":"美南街","SECT":" ","MAREA":" ","LANE":" ","ALLEY":" ","HOUSE_NO":"３８號","E_COORD97":167023.5,"N_COORD97":2543106.2400000002,"ADDRESS":"美南街３８號","OBJECTID":363627},"geometry":{"x":167023.50000000093,"y":2543106.2400000002}},{"attributes":{"ID":363638,"DIS_CODE":0,"TOWNNAME":"南區","LI":"文華里","LIN":"13鄰","STREET":"美南街","SECT":" ","MAREA":" ","LANE":" ","ALLEY":" ","HOUSE_NO":"４０號","E_COORD97":167018.92000000001,"N_COORD97":2543106.6000000001,"ADDRESS":"美南街４０號","OBJECTID":363628},"geometry":{"x":167018.92000000086,"y":2543106.5999999996}},{"attributes":{"ID":363639,"DIS_CODE":0,"TOWNNAME":"南區","LI":"文華里","LIN":"13鄰","STREET":"美南街","SECT":" ","MAREA":" ","LANE":" ","ALLEY":" ","HOUSE_NO":"４２號","E_COORD97":167014.51999999999,"N_COORD97":2543106.6899999999,"ADDRESS":"美南街４２號","OBJECTID":363629},"geometry":{"x":167014.52000000048,"y":2543106.6899999995}},{"attributes":{"ID":363640,"DIS_CODE":0,"TOWNNAME":"南區","LI":"文華里","LIN":"13鄰","STREET":"美南街","SECT":" ","MAREA":" ","LANE":" ","ALLEY":" ","HOUSE_NO":"４４號","E_COORD97":167010.29999999999,"N_COORD97":2543107.3199999998,"ADDRESS":"美南街４４號","OBJECTID":363630},"geometry":{"x":167010.29999999981,"y":2543107.3200000022}},{"attributes":{"ID":363641,"DIS_CODE":0,"TOWNNAME":"南區","LI":"文華里","LIN":"13鄰","STREET":"美南街","SECT":" ","MAREA":" ","LANE":" ","ALLEY":" ","HOUSE_NO":"４８號","E_COORD97":167001.76000000001,"N_COORD97":2543108.04,"ADDRESS":"美南街４８號","OBJECTID":363631},"geometry":{"x":167001.76000000071,"y":2543108.040000001}},{"attributes":{"ID":363642,"DIS_CODE":0,"TOWNNAME":"永康區","LI":"西灣里","LIN":"43鄰","STREET":"國光六街","SECT":" ","MAREA":" ","LANE":"９０巷","ALLEY":" ","HOUSE_NO":"２５號","E_COORD97":174055.64999999999,"N_COORD97":2545433.2400000002,"ADDRESS":"國光六街９０巷２５號","OBJECTID":363632},"geometry":{"x":174055.65000000037,"y":2545433.2400000039}},{"attributes":{"ID":363643,"DIS_CODE":0,"TOWNNAME":"永康區","LI":"西灣里","LIN":"43鄰","STREET":"國光六街","SECT":" ","MAREA":" ","LANE":"９０巷","ALLEY":" ","HOUSE_NO":"２１號","E_COORD97":174052.10000000001,"N_COORD97":2545422.2400000002,"ADDRESS":"國光六街９０巷２１號","OBJECTID":363633},"geometry":{"x":174052.10000000149,"y":2545422.2400000002}},{"attributes":{"ID":363644,"DIS_CODE":0,"TOWNNAME":"永康區","LI":"\u25A0行里","LIN":"43鄰","STREET":"\u25A0和街","SECT":" ","MAREA":" ","LANE":"２６３巷","ALLEY":" ","HOUSE_NO":"１２號","E_COORD97":171414.29999999999,"N_COORD97":2548402.25,"ADDRESS":"\u25A0和街２６３巷１２號","OBJECTID":363634},"geometry":{"x":171414.29999999981,"y":2548402.25}},{"attributes":{"ID":363645,"DIS_CODE":0,"TOWNNAME":"永康區","LI":"\u25A0行里","LIN":"43鄰","STREET":"\u25A0和街","SECT":" ","MAREA":" ","LANE":"２６３巷","ALLEY":" ","HOUSE_NO":"１３號","E_COORD97":171442.76000000001,"N_COORD97":2548398.0899999999,"ADDRESS":"\u25A0和街２６３巷１３號","OBJECTID":363635},"geometry":{"x":171442.76000000071,"y":2548398.0900000017}},{"attributes":{"ID":363646,"DIS_CODE":0,"TOWNNAME":"永康區","LI":"龍潭里","LIN":"43鄰","STREET":"國民路","SECT":" ","MAREA":" ","LANE":"２３１巷","ALLEY":" ","HOUSE_NO":"４１號","E_COORD97":174606.70000000001,"N_COORD97":2547032.6299999999,"ADDRESS":"國民路２３１巷４１號","OBJECTID":363636},"geometry":{"x":174606.70000000112,"y":2547032.629999999}},{"attributes":{"ID":363647,"DIS_CODE":0,"TOWNNAME":"新營區","LI":"新東里","LIN":"19鄰","STREET":"東學路","SECT":" ","MAREA":" ","LANE":"８０巷","ALLEY":" ","HOUSE_NO":"６３號","E_COORD97":180903.29999999999,"N_COORD97":2579288.3199999998,"ADDRESS":"東學路８０巷６３號","OBJECTID":363637},"geometry":{"x":180903.30000000075,"y":2579288.3200000003}},{"attributes":{"ID":363648,"DIS_CODE":0,"TOWNNAME":"新營區","LI":"南紙里","LIN":"19鄰","STREET":"太子路","SECT":" ","MAREA":" ","LANE":"２３８巷","ALLEY":" ","HOUSE_NO":"２９號","E_COORD97":177777.07999999999,"N_COORD97":2577908.9500000002,"ADDRESS":"太子路２３８巷２９號","OBJECTID":363638},"geometry":{"x":177777.08000000194,"y":2577908.9499999993}},{"attributes":{"ID":363649,"DIS_CODE":0,"TOWNNAME":"新營區","LI":"民生里","LIN":"19鄰","STREET":"進修街","SECT":" ","MAREA":" ","LANE":"２９巷","ALLEY":" ","HOUSE_NO":"４９號","E_COORD97":178877.35000000001,"N_COORD97":2578468.4300000002,"ADDRESS":"進修街２９巷４９號","OBJECTID":363639},"geometry":{"x":178877.35000000056,"y":2578468.4300000016}},{"attributes":{"ID":363650,"DIS_CODE":0,"TOWNNAME":"新營區","LI":"忠政里","LIN":"19鄰","STREET":"長榮路","SECT":"二段","MAREA":" ","LANE":"４３巷","ALLEY":" ","HOUSE_NO":"２４號","E_COORD97":179935.06,"N_COORD97":2579782.3599999999,"ADDRESS":"長榮路二段４３巷２４號","OBJECTID":363640},"geometry":{"x":179935.06000000052,"y":2579782.3599999994}},{"attributes":{"ID":363651,"DIS_CODE":0,"TOWNNAME":"新營區","LI":"忠政里","LIN":"19鄰","STREET":"長榮路","SECT":"二段","MAREA":" ","LANE":"２５巷","ALLEY":" ","HOUSE_NO":"８號","E_COORD97":179984.09,"N_COORD97":2579817.5600000001,"ADDRESS":"長榮路二段２５巷８號","OBJECTID":363641},"geometry":{"x":179984.09000000078,"y":2579817.5600000024}},{"attributes":{"ID":363652,"DIS_CODE":0,"TOWNNAME":"南區","LI":"文南里","LIN":"19鄰","STREET":"南功街","SECT":" ","MAREA":" ","LANE":"８５巷","ALLEY":" ","HOUSE_NO":"２０號","E_COORD97":166453.39000000001,"N_COORD97":2542846.2799999998,"ADDRESS":"南功街８５巷２０號","OBJECTID":363642},"geometry":{"x":166453.38999999966,"y":2542846.2800000012}},{"attributes":{"ID":363653,"DIS_CODE":0,"TOWNNAME":"南區","LI":"文南里","LIN":"19鄰","STREET":"南功街","SECT":" ","MAREA":" ","LANE":"８５巷","ALLEY":" ","HOUSE_NO":"２２號","E_COORD97":166458.14999999999,"N_COORD97":2542852.3500000001,"ADDRESS":"南功街８５巷２２號","OBJECTID":363643},"geometry":{"x":166458.15000000224,"y":2542852.3500000015}},{"attributes":{"ID":363654,"DIS_CODE":0,"TOWNNAME":"北區","LI":"大道里","LIN":"19鄰","STREET":"北門路","SECT":"二段","MAREA":" ","LANE":"５２７巷","ALLEY":" ","HOUSE_NO":"２號","E_COORD97":169612.04000000001,"N_COORD97":2545653.5099999998,"ADDRESS":"北門路二段５２７巷２號","OBJECTID":363644},"geometry":{"x":169612.04000000097,"y":2545653.5099999998}},{"attributes":{"ID":363655,"DIS_CODE":0,"TOWNNAME":"北區","LI":"大道里","LIN":"19鄰","STREET":"北門路","SECT":"二段","MAREA":" ","LANE":"５２７巷","ALLEY":" ","HOUSE_NO":"６號","E_COORD97":169613.94,"N_COORD97":2545662.6400000001,"ADDRESS":"北門路二段５２７巷６號","OBJECTID":363645},"geometry":{"x":169613.94000000041,"y":2545662.6400000025}},{"attributes":{"ID":363656,"DIS_CODE":0,"TOWNNAME":"北區","LI":"重興里","LIN":"19鄰","STREET":"林森路","SECT":"三段","MAREA":" ","LANE":"１４０巷","ALLEY":" ","HOUSE_NO":"３９號","E_COORD97":170685.67000000001,"N_COORD97":2545047.8700000001,"ADDRESS":"林森路三段１４０巷３９號","OBJECTID":363646},"geometry":{"x":170685.67000000086,"y":2545047.8700000029}},{"attributes":{"ID":363657,"DIS_CODE":0,"TOWNNAME":"北區","LI":"重興里","LIN":"19鄰","STREET":"林森路","SECT":"三段","MAREA":" ","LANE":"１４０巷","ALLEY":" ","HOUSE_NO":"４１號","E_COORD97":170697.35999999999,"N_COORD97":2545038.23,"ADDRESS":"林森路三段１４０巷４１號","OBJECTID":363647},"geometry":{"x":170697.36000000034,"y":2545038.2300000023}},{"attributes":{"ID":363658,"DIS_CODE":0,"TOWNNAME":"南區","LI":"田寮里","LIN":"13鄰","STREET":"西門路","SECT":"一段","MAREA":" ","LANE":" ","ALLEY":" ","HOUSE_NO":"３８７號","E_COORD97":167719.73999999999,"N_COORD97":2542212.0099999998,"ADDRESS":"西門路一段３８７號","OBJECTID":363648},"geometry":{"x":167719.74000000022,"y":2542212.0099999998}},{"attributes":{"ID":363659,"DIS_CODE":0,"TOWNNAME":"南區","LI":"田寮里","LIN":"13鄰","STREET":"西門路","SECT":"一段","MAREA":" ","LANE":" ","ALLEY":" ","HOUSE_NO":"３８５號","E_COORD97":167718.89000000001,"N_COORD97":2542204.5499999998,"ADDRESS":"西門路一段３８５號","OBJECTID":363649},"geometry":{"x":167718.8900000006,"y":2542204.5500000026}},{"attributes":{"ID":363660,"DIS_CODE":0,"TOWNNAME":"南區","LI":"田寮里","LIN":"13鄰","STREET":"西門路","SECT":"一段","MAREA":" ","LANE":" ","ALLEY":" ","HOUSE_NO":"３８３號","E_COORD97":167718.60999999999,"N_COORD97":2542199.6200000001,"ADDRESS":"西門路一段３８３號","OBJECTID":363650},"geometry":{"x":167718.61000000127,"y":2542199.620000001}},{"attributes":{"ID":363661,"DIS_CODE":0,"TOWNNAME":"南區","LI":"田寮里","LIN":"13鄰","STREET":"西門路","SECT":"一段","MAREA":" ","LANE":" ","ALLEY":" ","HOUSE_NO":"３８１號","E_COORD97":167718.75,"N_COORD97":2542192.5800000001,"ADDRESS":"西門路一段３８１號","OBJECTID":363651},"geometry":{"x":167718.75000000093,"y":2542192.5800000001}},{"attributes":{"ID":363662,"DIS_CODE":0,"TOWNNAME":"仁德區","LI":"仁義里","LIN":"43鄰","STREET":"仁義路","SECT":" ","MAREA":" ","LANE":"７０巷","ALLEY":" ","HOUSE_NO":"２２號","E_COORD97":173544.59,"N_COORD97":2540868.2599999998,"ADDRESS":"仁義路７０巷２２號","OBJECTID":363652},"geometry":{"x":173544.59000000078,"y":2540868.2599999998}},{"attributes":{"ID":363663,"DIS_CODE":0,"TOWNNAME":"仁德區","LI":"仁義里","LIN":"43鄰","STREET":"仁義路","SECT":" ","MAREA":" ","LANE":"７０巷","ALLEY":" ","HOUSE_NO":"３０號","E_COORD97":173544.03,"N_COORD97":2540851.77,"ADDRESS":"仁義路７０巷３０號","OBJECTID":363653},"geometry":{"x":173544.03000000026,"y":2540851.7699999977}},{"attributes":{"ID":363664,"DIS_CODE":0,"TOWNNAME":"仁德區","LI":"太子里","LIN":"43鄰","STREET":"太子路","SECT":" ","MAREA":" ","LANE":"１０１巷","ALLEY":" ","HOUSE_NO":"１９號","E_COORD97":174959.85000000001,"N_COORD97":2543504.7599999998,"ADDRESS":"太子路１０１巷１９號","OBJECTID":363654},"geometry":{"x":174959.85000000056,"y":2543504.7600000016}},{"attributes":{"ID":363665,"DIS_CODE":0,"TOWNNAME":"永康區","LI":"\u25A0行里","LIN":"43鄰","STREET":"中正二街","SECT":" ","MAREA":" ","LANE":"２８５巷","ALLEY":" ","HOUSE_NO":"１７號","E_COORD97":171692.39000000001,"N_COORD97":2547957.4900000002,"ADDRESS":"中正二街２８５巷１７號","OBJECTID":363655},"geometry":{"x":171692.3900000006,"y":2547957.4900000039}},{"attributes":{"ID":363666,"DIS_CODE":0,"TOWNNAME":"永康區","LI":"\u25A0行里","LIN":"43鄰","STREET":"中正南路","SECT":" ","MAREA":" ","LANE":"４９０巷","ALLEY":" ","HOUSE_NO":"６４號","E_COORD97":171639.04000000001,"N_COORD97":2548115.6499999999,"ADDRESS":"中正南路４９０巷６４號","OBJECTID":363656},"geometry":{"x":171639.0400000019,"y":2548115.6499999985}},{"attributes":{"ID":363667,"DIS_CODE":0,"TOWNNAME":"永康區","LI":"\u25A0行里","LIN":"43鄰","STREET":"中正南路","SECT":" ","MAREA":" ","LANE":"４９０巷","ALLEY":" ","HOUSE_NO":"５１號之１","E_COORD97":171553.22,"N_COORD97":2548162.54,"ADDRESS":"中正南路４９０巷５１號之１","OBJECTID":363657},"geometry":{"x":171553.22000000067,"y":2548162.5399999972}},{"attributes":{"ID":363668,"DIS_CODE":0,"TOWNNAME":"永康區","LI":"\u25A0行里","LIN":"43鄰","STREET":"中正南路","SECT":" ","MAREA":" ","LANE":"４９０巷","ALLEY":" ","HOUSE_NO":"６３號之２","E_COORD97":171665.10999999999,"N_COORD97":2548147.29,"ADDRESS":"中正南路４９０巷６３號之２","OBJECTID":363658},"geometry":{"x":171665.11000000127,"y":2548147.2899999972}},{"attributes":{"ID":363669,"DIS_CODE":0,"TOWNNAME":"永康區","LI":"\u25A0行里","LIN":"43鄰","STREET":"中正二街","SECT":" ","MAREA":" ","LANE":"２８５巷","ALLEY":" ","HOUSE_NO":"２１號","E_COORD97":171676.79999999999,"N_COORD97":2547966,"ADDRESS":"中正二街２８５巷２１號","OBJECTID":363659},"geometry":{"x":171676.80000000075,"y":2547966}},{"attributes":{"ID":363670,"DIS_CODE":0,"TOWNNAME":"北區","LI":"重興里","LIN":"19鄰","STREET":"林森路","SECT":"三段","MAREA":" ","LANE":"１４０巷","ALLEY":" ","HOUSE_NO":"４３號","E_COORD97":170691.22,"N_COORD97":2545030.3500000001,"ADDRESS":"林森路三段１４０巷４３號","OBJECTID":363660},"geometry":{"x":170691.21999999974,"y":2545030.3499999996}},{"attributes":{"ID":363671,"DIS_CODE":0,"TOWNNAME":"北區","LI":"重興里","LIN":"19鄰","STREET":"林森路","SECT":"三段","MAREA":" ","LANE":"１４０巷","ALLEY":" ","HOUSE_NO":"４５號","E_COORD97":170703.92999999999,"N_COORD97":2545019.46,"ADDRESS":"林森路三段１４０巷４５號","OBJECTID":363661},"geometry":{"x":170703.93000000063,"y":2545019.4600000028}},{"attributes":{"ID":363672,"DIS_CODE":0,"TOWNNAME":"北區","LI":"重興里","LIN":"19鄰","STREET":"林森路","SECT":"三段","MAREA":" ","LANE":"１４０巷","ALLEY":" ","HOUSE_NO":"４７號","E_COORD97":170710.79999999999,"N_COORD97":2545028.4399999999,"ADDRESS":"林森路三段１４０巷４７號","OBJECTID":363662},"geometry":{"x":170710.79999999981,"y":2545028.4400000013}},{"attributes":{"ID":363673,"DIS_CODE":0,"TOWNNAME":"南區","LI":"田寮里","LIN":"13鄰","STREET":"西門路","SECT":"一段","MAREA":" ","LANE":" ","ALLEY":" ","HOUSE_NO":"３７９號","E_COORD97":167719.17000000001,"N_COORD97":2542187.6200000001,"ADDRESS":"西門路一段３７９號","OBJECTID":363663},"geometry":{"x":167719.17000000086,"y":2542187.6200000029}},{"attributes":{"ID":363674,"DIS_CODE":0,"TOWNNAME":"南區","LI":"田寮里","LIN":"13鄰","STREET":"西門路","SECT":"一段","MAREA":" ","LANE":" ","ALLEY":" ","HOUSE_NO":"３７７號","E_COORD97":167719.60000000001,"N_COORD97":2542179.6000000001,"ADDRESS":"西門路一段３７７號","OBJECTID":363664},"geometry":{"x":167719.60000000056,"y":2542179.6000000015}},{"attributes":{"ID":363675,"DIS_CODE":0,"TOWNNAME":"中西區","LI":"民生里","LIN":"13鄰","STREET":"大仁街","SECT":" ","MAREA":" ","LANE":" ","ALLEY":" ","HOUSE_NO":"１０３號","E_COORD97":167252.32000000001,"N_COORD97":2543456.02,"ADDRESS":"大仁街１０３號","OBJECTID":363665},"geometry":{"x":167252.32000000123,"y":2543456.0199999996}},{"attributes":{"ID":363676,"DIS_CODE":0,"TOWNNAME":"中西區","LI":"民生里","LIN":"13鄰","STREET":"大仁街","SECT":" ","MAREA":" ","LANE":" ","ALLEY":" ","HOUSE_NO":"１０５號","E_COORD97":167249.04000000001,"N_COORD97":2543457.3599999999,"ADDRESS":"大仁街１０５號","OBJECTID":363666},"geometry":{"x":167249.04000000097,"y":2543457.3599999994}},{"attributes":{"ID":363677,"DIS_CODE":0,"TOWNNAME":"中西區","LI":"民生里","LIN":"13鄰","STREET":"大仁街","SECT":" ","MAREA":" ","LANE":" ","ALLEY":" ","HOUSE_NO":"１０７號","E_COORD97":167244.48999999999,"N_COORD97":2543458.1099999999,"ADDRESS":"大仁街１０７號","OBJECTID":363667},"geometry":{"x":167244.49000000115,"y":2543458.1100000013}},{"attributes":{"ID":363678,"DIS_CODE":0,"TOWNNAME":"中西區","LI":"民生里","LIN":"13鄰","STREET":"大仁街","SECT":" ","MAREA":" ","LANE":" ","ALLEY":" ","HOUSE_NO":"９９號","E_COORD97":167266.45999999999,"N_COORD97":2543453.3199999998,"ADDRESS":"大仁街９９號","OBJECTID":363668},"geometry":{"x":167266.46000000089,"y":2543453.3200000022}},{"attributes":{"ID":363679,"DIS_CODE":0,"TOWNNAME":"中西區","LI":"民生里","LIN":"13鄰","STREET":"大智街","SECT":" ","MAREA":" ","LANE":" ","ALLEY":" ","HOUSE_NO":"８２號","E_COORD97":167272.76999999999,"N_COORD97":2543450.4700000002,"ADDRESS":"大智街８２號","OBJECTID":363669},"geometry":{"x":167272.76999999955,"y":2543450.4700000025}},{"attributes":{"ID":363680,"DIS_CODE":0,"TOWNNAME":"中西區","LI":"民生里","LIN":"13鄰","STREET":"大智街","SECT":" ","MAREA":" ","LANE":" ","ALLEY":" ","HOUSE_NO":"８２號之１","E_COORD97":167276.31,"N_COORD97":2543444.4199999999,"ADDRESS":"大智街８２號之１","OBJECTID":363670},"geometry":{"x":167276.30999999959,"y":2543444.4199999999}},{"attributes":{"ID":363681,"DIS_CODE":0,"TOWNNAME":"中西區","LI":"民生里","LIN":"13鄰","STREET":"大智街","SECT":" ","MAREA":" ","LANE":" ","ALLEY":" ","HOUSE_NO":"８２號之２","E_COORD97":167275.79999999999,"N_COORD97":2543440.6400000001,"ADDRESS":"大智街８２號之２","OBJECTID":363671},"geometry":{"x":167275.80000000075,"y":2543440.6399999987}},{"attributes":{"ID":363682,"DIS_CODE":0,"TOWNNAME":"永康區","LI":"\u25A0行里","LIN":"43鄰","STREET":"中正南路","SECT":" ","MAREA":" ","LANE":"４９０巷","ALLEY":" ","HOUSE_NO":"６５號","E_COORD97":171676.66,"N_COORD97":2548125.7400000002,"ADDRESS":"中正南路４９０巷６５號","OBJECTID":363672},"geometry":{"x":171676.66000000015,"y":2548125.7400000021}},{"attributes":{"ID":363683,"DIS_CODE":0,"TOWNNAME":"永康區","LI":"\u25A0行里","LIN":"43鄰","STREET":"中正南路","SECT":" ","MAREA":" ","LANE":"４９０巷","ALLEY":" ","HOUSE_NO":"３８號","E_COORD97":171477.45999999999,"N_COORD97":2548155.5800000001,"ADDRESS":"中正南路４９０巷３８號","OBJECTID":363673},"geometry":{"x":171477.46000000089,"y":2548155.5800000001}},{"attributes":{"ID":363684,"DIS_CODE":0,"TOWNNAME":"永康區","LI":"\u25A0行里","LIN":"43鄰","STREET":"中正南路","SECT":" ","MAREA":" ","LANE":"４９０巷","ALLEY":" ","HOUSE_NO":"５５號","E_COORD97":171589.67999999999,"N_COORD97":2548155.2400000002,"ADDRESS":"中正南路４９０巷５５號","OBJECTID":363674},"geometry":{"x":171589.6799999997,"y":2548155.2400000002}},{"attributes":{"ID":363685,"DIS_CODE":0,"TOWNNAME":"北區","LI":"重興里","LIN":"19鄰","STREET":"林森路","SECT":"三段","MAREA":" ","LANE":"１４０巷","ALLEY":" ","HOUSE_NO":"４９號","E_COORD97":170722.13,"N_COORD97":2545018.4199999999,"ADDRESS":"林森路三段１４０巷４９號","OBJECTID":363675},"geometry":{"x":170722.12999999989,"y":2545018.4200000018}},{"attributes":{"ID":363686,"DIS_CODE":0,"TOWNNAME":"新營區","LI":"南紙里","LIN":"19鄰","STREET":"太子路","SECT":" ","MAREA":" ","LANE":"２５６巷","ALLEY":" ","HOUSE_NO":"４號","E_COORD97":177757.01999999999,"N_COORD97":2577827.0899999999,"ADDRESS":"太子路２５６巷４號","OBJECTID":363676},"geometry":{"x":177757.02000000048,"y":2577827.0900000017}},{"attributes":{"ID":363687,"DIS_CODE":0,"TOWNNAME":"新營區","LI":"新北里","LIN":"19鄰","STREET":"民生路","SECT":" ","MAREA":" ","LANE":"２０８巷","ALLEY":" ","HOUSE_NO":"３７號","E_COORD97":179144.17999999999,"N_COORD97":2579079.5699999998,"ADDRESS":"民生路２０８巷３７號","OBJECTID":363677},"geometry":{"x":179144.18000000156,"y":2579079.5700000003}},{"attributes":{"ID":363688,"DIS_CODE":0,"TOWNNAME":"新營區","LI":"新北里","LIN":"19鄰","STREET":"民生路","SECT":" ","MAREA":" ","LANE":"２２６巷","ALLEY":" ","HOUSE_NO":"２６號","E_COORD97":179117.57999999999,"N_COORD97":2579081.9100000001,"ADDRESS":"民生路２２６巷２６號","OBJECTID":363678},"geometry":{"x":179117.58000000007,"y":2579081.910000002}},{"attributes":{"ID":363689,"DIS_CODE":0,"TOWNNAME":"新營區","LI":"民榮里","LIN":"19鄰","STREET":"裕民路","SECT":" ","MAREA":" ","LANE":"５８巷","ALLEY":" ","HOUSE_NO":"２６之２號","E_COORD97":179052.82000000001,"N_COORD97":2577853.0099999998,"ADDRESS":"裕民路５８巷２６之２號","OBJECTID":363679},"geometry":{"x":179052.82000000123,"y":2577853.0100000035}},{"attributes":{"ID":363690,"DIS_CODE":0,"TOWNNAME":"新營區","LI":"忠政里","LIN":"19鄰","STREET":"長榮路","SECT":"二段","MAREA":" ","LANE":"２５巷","ALLEY":" ","HOUSE_NO":"１２號","E_COORD97":179984.20999999999,"N_COORD97":2579808.7000000002,"ADDRESS":"長榮路二段２５巷１２號","OBJECTID":363680},"geometry":{"x":179984.20999999996,"y":2579808.7000000011}},{"attributes":{"ID":363691,"DIS_CODE":0,"TOWNNAME":"安平區","LI":"建平里","LIN":"19鄰","STREET":"怡平路","SECT":" ","MAREA":" ","LANE":"１４０巷","ALLEY":" ","HOUSE_NO":"１號","E_COORD97":165884.01000000001,"N_COORD97":2543779.04,"ADDRESS":"怡平路１４０巷１號","OBJECTID":363681},"geometry":{"x":165884.01000000071,"y":2543779.0400000028}},{"attributes":{"ID":363692,"DIS_CODE":0,"TOWNNAME":"安平區","LI":"建平里","LIN":"19鄰","STREET":"怡平路","SECT":" ","MAREA":" ","LANE":"１４０巷","ALLEY":" ","HOUSE_NO":"３號","E_COORD97":165882.70999999999,"N_COORD97":2543789.1000000001,"ADDRESS":"怡平路１４０巷３號","OBJECTID":363682},"geometry":{"x":165882.71000000183,"y":2543789.0999999978}},{"attributes":{"ID":363693,"DIS_CODE":0,"TOWNNAME":"中西區","LI":"仙草里","LIN":"14鄰","STREET":"府緯街","SECT":" ","MAREA":" ","LANE":"７２巷","ALLEY":" ","HOUSE_NO":"２號","E_COORD97":167802.73000000001,"N_COORD97":2542746.79,"ADDRESS":"府緯街７２巷２號","OBJECTID":363683},"geometry":{"x":167802.73000000138,"y":2542746.7900000028}},{"attributes":{"ID":363694,"DIS_CODE":0,"TOWNNAME":"中西區","LI":"仙草里","LIN":"14鄰","STREET":"府緯街","SECT":" ","MAREA":" ","LANE":"７２巷","ALLEY":" ","HOUSE_NO":"４號","E_COORD97":167801.85999999999,"N_COORD97":2542751.1299999999,"ADDRESS":"府緯街７２巷４號","OBJECTID":363684},"geometry":{"x":167801.86000000034,"y":2542751.1300000027}},{"attributes":{"ID":363695,"DIS_CODE":0,"TOWNNAME":"中西區","LI":"仙草里","LIN":"14鄰","STREET":"府緯街","SECT":" ","MAREA":" ","LANE":"７２巷","ALLEY":" ","HOUSE_NO":"５號","E_COORD97":167781.56,"N_COORD97":2542774.6800000002,"ADDRESS":"府緯街７２巷５號","OBJECTID":363685},"geometry":{"x":167781.55999999959,"y":2542774.6799999997}},{"attributes":{"ID":363696,"DIS_CODE":0,"TOWNNAME":"中西區","LI":"仙草里","LIN":"14鄰","STREET":"府緯街","SECT":" ","MAREA":" ","LANE":"７２巷","ALLEY":" ","HOUSE_NO":"６號","E_COORD97":167802.20999999999,"N_COORD97":2542755.98,"ADDRESS":"府緯街７２巷６號","OBJECTID":363686},"geometry":{"x":167802.21000000089,"y":2542755.9800000004}},{"attributes":{"ID":363697,"DIS_CODE":0,"TOWNNAME":"中西區","LI":"仙草里","LIN":"14鄰","STREET":"府緯街","SECT":" ","MAREA":" ","LANE":"７２巷","ALLEY":" ","HOUSE_NO":"７號","E_COORD97":167780.85999999999,"N_COORD97":2542779.1899999999,"ADDRESS":"府緯街７２巷７號","OBJECTID":363687},"geometry":{"x":167780.86000000127,"y":2542779.1900000013}},{"attributes":{"ID":363698,"DIS_CODE":0,"TOWNNAME":"中西區","LI":"仙草里","LIN":"14鄰","STREET":"府緯街","SECT":" ","MAREA":" ","LANE":"７２巷","ALLEY":" ","HOUSE_NO":"８號","E_COORD97":167802.73000000001,"N_COORD97":2542759.7999999998,"ADDRESS":"府緯街７２巷８號","OBJECTID":363688},"geometry":{"x":167802.73000000138,"y":2542759.8000000026}},{"attributes":{"ID":363699,"DIS_CODE":0,"TOWNNAME":"中西區","LI":"小西里","LIN":"5鄰","STREET":"府前路","SECT":"一段","MAREA":" ","LANE":"３７１巷","ALLEY":" ","HOUSE_NO":"２９號","E_COORD97":167868.39000000001,"N_COORD97":2543295.2200000002,"ADDRESS":"府前路一段３７１巷２９號","OBJECTID":363689},"geometry":{"x":167868.3900000006,"y":2543295.2200000025}},{"attributes":{"ID":363700,"DIS_CODE":0,"TOWNNAME":"安平區","LI":"建平里","LIN":"19鄰","STREET":"怡平路","SECT":" ","MAREA":" ","LANE":"１４０巷","ALLEY":" ","HOUSE_NO":"５號","E_COORD97":165882.53,"N_COORD97":2543796.0699999998,"ADDRESS":"怡平路１４０巷５號","OBJECTID":363690},"geometry":{"x":165882.53000000212,"y":2543796.0700000003}},{"attributes":{"ID":363701,"DIS_CODE":0,"TOWNNAME":"新營區","LI":"王公里","LIN":"19鄰","STREET":"民族路","SECT":" ","MAREA":" ","LANE":"１１４巷","ALLEY":" ","HOUSE_NO":"３７號","E_COORD97":180450.95999999999,"N_COORD97":2579217.3399999999,"ADDRESS":"民族路１１４巷３７號","OBJECTID":363691},"geometry":{"x":180450.95999999996,"y":2579217.3400000036}},{"attributes":{"ID":363702,"DIS_CODE":0,"TOWNNAME":"中西區","LI":"民生里","LIN":"13鄰","STREET":"大智街","SECT":" ","MAREA":" ","LANE":" ","ALLEY":" ","HOUSE_NO":"８６號","E_COORD97":167274.04000000001,"N_COORD97":2543428.0299999998,"ADDRESS":"大智街８６號","OBJECTID":363692},"geometry":{"x":167274.0400000019,"y":2543428.0300000012}},{"attributes":{"ID":363703,"DIS_CODE":0,"TOWNNAME":"中西區","LI":"民生里","LIN":"13鄰","STREET":"金華路","SECT":"三段","MAREA":" ","LANE":" ","ALLEY":" ","HOUSE_NO":"７８號","E_COORD97":167229.34,"N_COORD97":2543438.3700000001,"ADDRESS":"金華路三段７８號","OBJECTID":363693},"geometry":{"x":167229.34000000171,"y":2543438.370000001}},{"attributes":{"ID":363704,"DIS_CODE":0,"TOWNNAME":"中西區","LI":"民生里","LIN":"13鄰","STREET":"金華路","SECT":"三段","MAREA":" ","LANE":" ","ALLEY":" ","HOUSE_NO":"８２號","E_COORD97":167231.10999999999,"N_COORD97":2543444.9300000002,"ADDRESS":"金華路三段８２號","OBJECTID":363694},"geometry":{"x":167231.11000000034,"y":2543444.9300000016}},{"attributes":{"ID":363705,"DIS_CODE":0,"TOWNNAME":"中西區","LI":"民生里","LIN":"13鄰","STREET":"金華路","SECT":"三段","MAREA":" ","LANE":" ","ALLEY":" ","HOUSE_NO":"８４號","E_COORD97":167233.63,"N_COORD97":2543456.02,"ADDRESS":"金華路三段８４號","OBJECTID":363695},"geometry":{"x":167233.62999999989,"y":2543456.0199999996}},{"attributes":{"ID":363706,"DIS_CODE":0,"TOWNNAME":"仁德區","LI":"仁義里","LIN":"43鄰","STREET":"仁義路","SECT":" ","MAREA":" ","LANE":"７０巷","ALLEY":" ","HOUSE_NO":"２６號","E_COORD97":173544.54999999999,"N_COORD97":2540860.27,"ADDRESS":"仁義路７０巷２６號","OBJECTID":363696},"geometry":{"x":173544.55000000075,"y":2540860.2700000014}},{"attributes":{"ID":363707,"DIS_CODE":0,"TOWNNAME":"仁德區","LI":"仁義里","LIN":"43鄰","STREET":"中正路","SECT":"二段","MAREA":" ","LANE":"１０３４巷","ALLEY":" ","HOUSE_NO":"２４號","E_COORD97":173480.23000000001,"N_COORD97":2540882.52,"ADDRESS":"中正路二段１０３４巷２４號","OBJECTID":363697},"geometry":{"x":173480.23000000045,"y":2540882.5199999996}},{"attributes":{"ID":363708,"DIS_CODE":0,"TOWNNAME":"仁德區","LI":"仁義里","LIN":"43鄰","STREET":"中正路","SECT":"二段","MAREA":" ","LANE":"１０３４巷","ALLEY":" ","HOUSE_NO":"２８號","E_COORD97":173501.81,"N_COORD97":2540880.27,"ADDRESS":"中正路二段１０３４巷２８號","OBJECTID":363698},"geometry":{"x":173501.81000000052,"y":2540880.2700000014}},{"attributes":{"ID":363709,"DIS_CODE":0,"TOWNNAME":"仁德區","LI":"仁義里","LIN":"43鄰","STREET":"仁義路","SECT":" ","MAREA":" ","LANE":"７０巷","ALLEY":" ","HOUSE_NO":"２８號","E_COORD97":173544.13,"N_COORD97":2540856.02,"ADDRESS":"仁義路７０巷２８號","OBJECTID":363699},"geometry":{"x":173544.13000000082,"y":2540856.0199999996}},{"attributes":{"ID":363710,"DIS_CODE":0,"TOWNNAME":"仁德區","LI":"太子里","LIN":"43鄰","STREET":"太子路","SECT":" ","MAREA":" ","LANE":"１０１巷","ALLEY":" ","HOUSE_NO":"３３號","E_COORD97":174952.95000000001,"N_COORD97":2543474.75,"ADDRESS":"太子路１０１巷３３號","OBJECTID":363700},"geometry":{"x":174952.95000000112,"y":2543474.7500000019}},{"attributes":{"ID":363711,"DIS_CODE":0,"TOWNNAME":"仁德區","LI":"太子里","LIN":"43鄰","STREET":"太子路","SECT":" ","MAREA":" ","LANE":"３１巷","ALLEY":" ","HOUSE_NO":"８１號","E_COORD97":175218.33168500001,"N_COORD97":2543068.0887199999,"ADDRESS":"太子路３１巷８１號","OBJECTID":363701},"geometry":{"x":175218.3316850001,"y":2543068.0887200013}},{"attributes":{"ID":363712,"DIS_CODE":0,"TOWNNAME":"新營區","LI":"新北里","LIN":"19鄰","STREET":"民生路","SECT":" ","MAREA":" ","LANE":"２２６巷","ALLEY":" ","HOUSE_NO":"２２之１號","E_COORD97":179134.45000000001,"N_COORD97":2579094.0699999998,"ADDRESS":"民生路２２６巷２２之１號","OBJECTID":363702},"geometry":{"x":179134.45000000112,"y":2579094.070000004}},{"attributes":{"ID":363713,"DIS_CODE":0,"TOWNNAME":"新營區","LI":"王公里","LIN":"19鄰","STREET":"民族路","SECT":" ","MAREA":" ","LANE":"１１４巷","ALLEY":" ","HOUSE_NO":"１１號","E_COORD97":180388.57999999999,"N_COORD97":2579238.6699999999,"ADDRESS":"民族路１１４巷１１號","OBJECTID":363703},"geometry":{"x":180388.58000000007,"y":2579238.6699999981}},{"attributes":{"ID":363714,"DIS_CODE":0,"TOWNNAME":"歸仁區","LI":"崙頂里","LIN":"19鄰","STREET":"大成路","SECT":" ","MAREA":" ","LANE":"１６１巷","ALLEY":" ","HOUSE_NO":"２２號","E_COORD97":177818.32999999999,"N_COORD97":2540233.98,"ADDRESS":"大成路１６１巷２２號","OBJECTID":363704},"geometry":{"x":177818.33000000101,"y":2540233.9800000004}},{"attributes":{"ID":363715,"DIS_CODE":0,"TOWNNAME":"玉井區","LI":"玉田里","LIN":"19鄰","STREET":"民主街","SECT":" ","MAREA":" ","LANE":"６６巷","ALLEY":" ","HOUSE_NO":"８號","E_COORD97":195050.54000000001,"N_COORD97":2558016.29,"ADDRESS":"民主街６６巷８號","OBJECTID":363705},"geometry":{"x":195050.54000000004,"y":2558016.2899999991}},{"attributes":{"ID":363716,"DIS_CODE":0,"TOWNNAME":"歸仁區","LI":"新厝里","LIN":"19鄰","STREET":"大成六街","SECT":" ","MAREA":" ","LANE":"３８巷","ALLEY":" ","HOUSE_NO":"６號","E_COORD97":177575.54000000001,"N_COORD97":2540314.1800000002,"ADDRESS":"大成六街３８巷６號","OBJECTID":363706},"geometry":{"x":177575.5400000019,"y":2540314.1800000016}},{"attributes":{"ID":363717,"DIS_CODE":0,"TOWNNAME":"歸仁區","LI":"歸仁里","LIN":"19鄰","STREET":"大仁二街","SECT":" ","MAREA":" ","LANE":"１２巷","ALLEY":" ","HOUSE_NO":"６號","E_COORD97":178180.04000000001,"N_COORD97":2541061.1099999999,"ADDRESS":"大仁二街１２巷６號","OBJECTID":363707},"geometry":{"x":178180.04000000004,"y":2541061.1100000013}},{"attributes":{"ID":363718,"DIS_CODE":0,"TOWNNAME":"新營區","LI":"王公里","LIN":"19鄰","STREET":"民族路","SECT":" ","MAREA":" ","LANE":"１１４巷","ALLEY":" ","HOUSE_NO":"５號","E_COORD97":180385.25,"N_COORD97":2579225.3900000001,"ADDRESS":"民族路１１４巷５號","OBJECTID":363708},"geometry":{"x":180385.25000000093,"y":2579225.3900000025}},{"attributes":{"ID":363719,"DIS_CODE":0,"TOWNNAME":"歸仁區","LI":"大潭里","LIN":"19鄰","STREET":"中正南路","SECT":"三段","MAREA":" ","LANE":"９６巷","ALLEY":" ","HOUSE_NO":"９５號","E_COORD97":175099.51000000001,"N_COORD97":2534948.2799999998,"ADDRESS":"中正南路三段９６巷９５號","OBJECTID":363709},"geometry":{"x":175099.51000000071,"y":2534948.2799999993}},{"attributes":{"ID":363720,"DIS_CODE":0,"TOWNNAME":"歸仁區","LI":"大潭里","LIN":"19鄰","STREET":"中正南路","SECT":"三段","MAREA":" ","LANE":"９６巷","ALLEY":" ","HOUSE_NO":"７１號","E_COORD97":175106.91,"N_COORD97":2534993.2799999998,"ADDRESS":"中正南路三段９６巷７１號","OBJECTID":363710},"geometry":{"x":175106.91000000108,"y":2534993.2800000031}},{"attributes":{"ID":363721,"DIS_CODE":0,"TOWNNAME":"南區","LI":"金華里","LIN":"19鄰","STREET":"惠南街","SECT":" ","MAREA":" ","LANE":"８４巷","ALLEY":" ","HOUSE_NO":"１９號","E_COORD97":166809.5,"N_COORD97":2542313.96,"ADDRESS":"惠南街８４巷１９號","OBJECTID":363711},"geometry":{"x":166809.5,"y":2542313.9600000028}},{"attributes":{"ID":363722,"DIS_CODE":0,"TOWNNAME":"南區","LI":"金華里","LIN":"19鄰","STREET":"惠南街","SECT":" ","MAREA":" ","LANE":"８４巷","ALLEY":" ","HOUSE_NO":"２１號","E_COORD97":166800.70000000001,"N_COORD97":2542330.2400000002,"ADDRESS":"惠南街８４巷２１號","OBJECTID":363712},"geometry":{"x":166800.70000000112,"y":2542330.2400000002}},{"attributes":{"ID":363723,"DIS_CODE":0,"TOWNNAME":"南區","LI":"金華里","LIN":"19鄰","STREET":"惠南街","SECT":" ","MAREA":" ","LANE":"９８巷","ALLEY":" ","HOUSE_NO":"５號","E_COORD97":166783.97,"N_COORD97":2542345.5099999998,"ADDRESS":"惠南街９８巷５號","OBJECTID":363713},"geometry":{"x":166783.96999999974,"y":2542345.5099999979}},{"attributes":{"ID":363724,"DIS_CODE":0,"TOWNNAME":"南區","LI":"金華里","LIN":"19鄰","STREET":"惠南街","SECT":" ","MAREA":" ","LANE":"９８巷","ALLEY":" ","HOUSE_NO":"６號","E_COORD97":166786.54999999999,"N_COORD97":2542326.8799999999,"ADDRESS":"惠南街９８巷６號","OBJECTID":363714},"geometry":{"x":166786.54999999981,"y":2542326.8800000008}},{"attributes":{"ID":363725,"DIS_CODE":0,"TOWNNAME":"中西區","LI":"民生里","LIN":"13鄰","STREET":"大勇街","SECT":" ","MAREA":" ","LANE":" ","ALLEY":" ","HOUSE_NO":"７０號","E_COORD97":167259.89999999999,"N_COORD97":2543411.73,"ADDRESS":"大勇街７０號","OBJECTID":363715},"geometry":{"x":167259.89999999944,"y":2543411.7300000004}},{"attributes":{"ID":363726,"DIS_CODE":0,"TOWNNAME":"中西區","LI":"民生里","LIN":"13鄰","STREET":"大智街","SECT":" ","MAREA":" ","LANE":" ","ALLEY":" ","HOUSE_NO":"９２號之２","E_COORD97":167268.14999999999,"N_COORD97":2543404.6699999999,"ADDRESS":"大智街９２號之２","OBJECTID":363716},"geometry":{"x":167268.15000000037,"y":2543404.6699999999}},{"attributes":{"ID":363727,"DIS_CODE":0,"TOWNNAME":"中西區","LI":"民生里","LIN":"13鄰","STREET":"金華路","SECT":"三段","MAREA":" ","LANE":" ","ALLEY":" ","HOUSE_NO":"７０號","E_COORD97":167226.31,"N_COORD97":2543421.7200000002,"ADDRESS":"金華路三段７０號","OBJECTID":363717},"geometry":{"x":167226.31000000052,"y":2543421.7200000007}},{"attributes":{"ID":363728,"DIS_CODE":0,"TOWNNAME":"中西區","LI":"民生里","LIN":"13鄰","STREET":"金華路","SECT":"三段","MAREA":" ","LANE":" ","ALLEY":" ","HOUSE_NO":"７２號","E_COORD97":167224.54000000001,"N_COORD97":2543415.1699999999,"ADDRESS":"金華路三段７２號","OBJECTID":363718},"geometry":{"x":167224.54000000004,"y":2543415.1699999999}},{"attributes":{"ID":363729,"DIS_CODE":0,"TOWNNAME":"中西區","LI":"民生里","LIN":"13鄰","STREET":"金華路","SECT":"三段","MAREA":" ","LANE":" ","ALLEY":" ","HOUSE_NO":"７４號","E_COORD97":167228.64000000001,"N_COORD97":2543428.0099999998,"ADDRESS":"金華路三段７４號","OBJECTID":363719},"geometry":{"x":167228.63999999966,"y":2543428.0100000016}},{"attributes":{"ID":363730,"DIS_CODE":0,"TOWNNAME":"中西區","LI":"民生里","LIN":"13鄰","STREET":"金華路","SECT":"三段","MAREA":" ","LANE":" ","ALLEY":" ","HOUSE_NO":"７６號","E_COORD97":167228.57999999999,"N_COORD97":2543433.8300000001,"ADDRESS":"金華路三段７６號","OBJECTID":363720},"geometry":{"x":167228.58000000101,"y":2543433.8300000019}},{"attributes":{"ID":363731,"DIS_CODE":0,"TOWNNAME":"中西區","LI":"民生里","LIN":"13鄰","STREET":"大智街","SECT":" ","MAREA":" ","LANE":" ","ALLEY":" ","HOUSE_NO":"８４號","E_COORD97":167274.79000000001,"N_COORD97":2543431.8100000001,"ADDRESS":"大智街８４號","OBJECTID":363721},"geometry":{"x":167274.79000000004,"y":2543431.8100000005}},{"attributes":{"ID":363732,"DIS_CODE":0,"TOWNNAME":"仁德區","LI":"太子里","LIN":"43鄰","STREET":"太子路","SECT":" ","MAREA":" ","LANE":"１０１巷","ALLEY":" ","HOUSE_NO":"５７號","E_COORD97":174928.88,"N_COORD97":2543411.7599999998,"ADDRESS":"太子路１０１巷５７號","OBJECTID":363722},"geometry":{"x":174928.88000000082,"y":2543411.7599999979}},{"attributes":{"ID":363733,"DIS_CODE":0,"TOWNNAME":"仁德區","LI":"太子里","LIN":"43鄰","STREET":"太子路","SECT":" ","MAREA":" ","LANE":"１０１巷","ALLEY":" ","HOUSE_NO":"３５號","E_COORD97":174951.64999999999,"N_COORD97":2543470.5,"ADDRESS":"太子路１０１巷３５號","OBJECTID":363723},"geometry":{"x":174951.6500000013,"y":2543470.5}},{"attributes":{"ID":363734,"DIS_CODE":0,"TOWNNAME":"仁德區","LI":"太子里","LIN":"43鄰","STREET":"太子路","SECT":" ","MAREA":" ","LANE":"１０１巷","ALLEY":" ","HOUSE_NO":"５５之５號","E_COORD97":174944.35000000001,"N_COORD97":2543423.3399999999,"ADDRESS":"太子路１０１巷５５之５號","OBJECTID":363724},"geometry":{"x":174944.35000000056,"y":2543423.3400000017}},{"attributes":{"ID":363735,"DIS_CODE":0,"TOWNNAME":"新市區","LI":"新和里","LIN":"43鄰","STREET":"民權路","SECT":" ","MAREA":" ","LANE":"３１巷","ALLEY":" ","HOUSE_NO":"４號","E_COORD97":177374.88,"N_COORD97":2553022.04,"ADDRESS":"民權路３１巷４號","OBJECTID":363725},"geometry":{"x":177374.88000000175,"y":2553022.040000001}},{"attributes":{"ID":363736,"DIS_CODE":0,"TOWNNAME":"永康區","LI":"西灣里","LIN":"43鄰","STREET":"大灣路","SECT":" ","MAREA":" ","LANE":"９４２巷","ALLEY":" ","HOUSE_NO":"３８２號","E_COORD97":173965.87,"N_COORD97":2545460.7400000002,"ADDRESS":"大灣路９４２巷３８２號","OBJECTID":363726},"geometry":{"x":173965.87000000011,"y":2545460.7400000021}},{"attributes":{"ID":363737,"DIS_CODE":0,"TOWNNAME":"南區","LI":"金華里","LIN":"19鄰","STREET":"惠南街","SECT":" ","MAREA":" ","LANE":"９８巷","ALLEY":" ","HOUSE_NO":"７號","E_COORD97":166788.64000000001,"N_COORD97":2542346.79,"ADDRESS":"惠南街９８巷７號","OBJECTID":363727},"geometry":{"x":166788.6400000006,"y":2542346.790000001}},{"attributes":{"ID":363738,"DIS_CODE":0,"TOWNNAME":"永康區","LI":"西橋里","LIN":"13鄰","STREET":"大橋一街","SECT":" ","MAREA":" ","LANE":" ","ALLEY":" ","HOUSE_NO":"２７號","E_COORD97":170574.51999999999,"N_COORD97":2546223.5,"ADDRESS":"大橋一街２７號","OBJECTID":363728},"geometry":{"x":170574.52000000048,"y":2546223.5}},{"attributes":{"ID":363739,"DIS_CODE":0,"TOWNNAME":"永康區","LI":"西橋里","LIN":"13鄰","STREET":"大橋一街","SECT":" ","MAREA":" ","LANE":" ","ALLEY":" ","HOUSE_NO":"２９號","E_COORD97":170581.13,"N_COORD97":2546229.5,"ADDRESS":"大橋一街２９號","OBJECTID":363729},"geometry":{"x":170581.13000000082,"y":2546229.5000000019}},{"attributes":{"ID":363740,"DIS_CODE":0,"TOWNNAME":"安南區","LI":"學東里","LIN":"13鄰","STREET":"公學路","SECT":"七段","MAREA":" ","LANE":" ","ALLEY":" ","HOUSE_NO":"６７號","E_COORD97":161837.70999999999,"N_COORD97":2553354.4100000001,"ADDRESS":"公學路七段６７號","OBJECTID":363730},"geometry":{"x":161837.70999999996,"y":2553354.4100000001}},{"attributes":{"ID":363741,"DIS_CODE":0,"TOWNNAME":"安南區","LI":"學東里","LIN":"13鄰","STREET":"公學路","SECT":"七段","MAREA":" ","LANE":" ","ALLEY":" ","HOUSE_NO":"６９號","E_COORD97":161834.20000000001,"N_COORD97":2553356.1600000001,"ADDRESS":"公學路七段６９號","OBJECTID":363731},"geometry":{"x":161834.20000000019,"y":2553356.1600000001}},{"attributes":{"ID":363742,"DIS_CODE":0,"TOWNNAME":"安南區","LI":"學東里","LIN":"13鄰","STREET":"公學路","SECT":"七段","MAREA":" ","LANE":" ","ALLEY":" ","HOUSE_NO":"７１號","E_COORD97":161829.39999999999,"N_COORD97":2553357.73,"ADDRESS":"公學路七段７１號","OBJECTID":363732},"geometry":{"x":161829.4000000013,"y":2553357.7300000023}},{"attributes":{"ID":363743,"DIS_CODE":0,"TOWNNAME":"新市區","LI":"新和里","LIN":"43鄰","STREET":"民權路","SECT":" ","MAREA":" ","LANE":" ","ALLEY":" ","HOUSE_NO":"４３號","E_COORD97":177341.76999999999,"N_COORD97":2553067.79,"ADDRESS":"民權路４３號","OBJECTID":363733},"geometry":{"x":177341.77000000048,"y":2553067.790000001}},{"attributes":{"ID":363744,"DIS_CODE":0,"TOWNNAME":"佳里區","LI":"安西里","LIN":"43鄰","STREET":"文化路","SECT":" ","MAREA":" ","LANE":"４５７巷","ALLEY":" ","HOUSE_NO":"７號","E_COORD97":165017.47,"N_COORD97":2562530.1299999999,"ADDRESS":"文化路４５７巷７號","OBJECTID":363734},"geometry":{"x":165017.46999999974,"y":2562530.1299999971}},{"attributes":{"ID":363745,"DIS_CODE":0,"TOWNNAME":"佳里區","LI":"安西里","LIN":"43鄰","STREET":"文化路","SECT":" ","MAREA":" ","LANE":"４５７巷","ALLEY":" ","HOUSE_NO":"９號","E_COORD97":165017.76000000001,"N_COORD97":2562525.6600000001,"ADDRESS":"文化路４５７巷９號","OBJECTID":363735},"geometry":{"x":165017.76000000071,"y":2562525.660000002}},{"attributes":{"ID":363746,"DIS_CODE":0,"TOWNNAME":"永康區","LI":"西灣里","LIN":"43鄰","STREET":"永華路","SECT":" ","MAREA":" ","LANE":"１５９巷","ALLEY":" ","HOUSE_NO":"５號","E_COORD97":174071.54000000001,"N_COORD97":2545519.3300000001,"ADDRESS":"永華路１５９巷５號","OBJECTID":363736},"geometry":{"x":174071.53999999911,"y":2545519.3300000001}},{"attributes":{"ID":363747,"DIS_CODE":0,"TOWNNAME":"永康區","LI":"南灣里","LIN":"43鄰","STREET":"大灣路","SECT":" ","MAREA":" ","LANE":"５３７巷","ALLEY":" ","HOUSE_NO":"１０號","E_COORD97":174468.12,"N_COORD97":2544512.7400000002,"ADDRESS":"大灣路５３７巷１０號","OBJECTID":363737},"geometry":{"x":174468.12000000104,"y":2544512.7400000021}},{"attributes":{"ID":363748,"DIS_CODE":0,"TOWNNAME":"永康區","LI":"西灣里","LIN":"43鄰","STREET":"永華路","SECT":" ","MAREA":" ","LANE":"１５９巷","ALLEY":" ","HOUSE_NO":"４３號","E_COORD97":173990.98999999999,"N_COORD97":2545510.8500000001,"ADDRESS":"永華路１５９巷４３號","OBJECTID":363738},"geometry":{"x":173990.99000000115,"y":2545510.8500000015}},{"attributes":{"ID":363749,"DIS_CODE":0,"TOWNNAME":"永康區","LI":"西灣里","LIN":"43鄰","STREET":"永華路","SECT":" ","MAREA":" ","LANE":"１５９巷","ALLEY":" ","HOUSE_NO":"１３號","E_COORD97":174039.60000000001,"N_COORD97":2545516.8500000001,"ADDRESS":"永華路１５９巷１３號","OBJECTID":363739},"geometry":{"x":174039.59999999963,"y":2545516.8500000034}},{"attributes":{"ID":363750,"DIS_CODE":0,"TOWNNAME":"永康區","LI":"西灣里","LIN":"43鄰","STREET":"永華路","SECT":" ","MAREA":" ","LANE":"１５９巷","ALLEY":" ","HOUSE_NO":"１５號","E_COORD97":174030.47,"N_COORD97":2545516.6000000001,"ADDRESS":"永華路１５９巷１５號","OBJECTID":363740},"geometry":{"x":174030.46999999974,"y":2545516.6000000015}},{"attributes":{"ID":363751,"DIS_CODE":0,"TOWNNAME":"永康區","LI":"正強里","LIN":"43鄰","STREET":"中正路","SECT":" ","MAREA":" ","LANE":"２５６巷","ALLEY":" ","HOUSE_NO":"３號之１","E_COORD97":173147.89000000001,"N_COORD97":2547954.29,"ADDRESS":"中正路２５６巷３號之１","OBJECTID":363741},"geometry":{"x":173147.88999999966,"y":2547954.2900000028}},{"attributes":{"ID":363752,"DIS_CODE":0,"TOWNNAME":"永康區","LI":"正強里","LIN":"43鄰","STREET":"中正路","SECT":" ","MAREA":" ","LANE":"２５６巷","ALLEY":" ","HOUSE_NO":"３號之２１","E_COORD97":173149.14000000001,"N_COORD97":2547954.29,"ADDRESS":"中正路２５６巷３號之２１","OBJECTID":363742},"geometry":{"x":173149.1400000006,"y":2547954.2900000028}},{"attributes":{"ID":363753,"DIS_CODE":0,"TOWNNAME":"永康區","LI":"正強里","LIN":"43鄰","STREET":"中正路","SECT":" ","MAREA":" ","LANE":"２５６巷","ALLEY":" ","HOUSE_NO":"３號之１０","E_COORD97":173149.19,"N_COORD97":2547954.29,"ADDRESS":"中正路２５６巷３號之１０","OBJECTID":363743},"geometry":{"x":173149.19000000134,"y":2547954.2900000028}},{"attributes":{"ID":363754,"DIS_CODE":0,"TOWNNAME":"永康區","LI":"正強里","LIN":"43鄰","STREET":"中正路","SECT":" ","MAREA":" ","LANE":"２５６巷","ALLEY":" ","HOUSE_NO":"３號之５１","E_COORD97":173149.14000000001,"N_COORD97":2547954.29,"ADDRESS":"中正路２５６巷３號之５１","OBJECTID":363744},"geometry":{"x":173149.1400000006,"y":2547954.2900000028}},{"attributes":{"ID":363755,"DIS_CODE":0,"TOWNNAME":"永康區","LI":"正強里","LIN":"43鄰","STREET":"中正路","SECT":" ","MAREA":" ","LANE":"２５６巷","ALLEY":" ","HOUSE_NO":"３號之３７","E_COORD97":173149.22,"N_COORD97":2547954.29,"ADDRESS":"中正路２５６巷３號之３７","OBJECTID":363745},"geometry":{"x":173149.21999999974,"y":2547954.2900000028}},{"attributes":{"ID":363756,"DIS_CODE":0,"TOWNNAME":"南區","LI":"金華里","LIN":"19鄰","STREET":"惠南街","SECT":" ","MAREA":" ","LANE":"９８巷","ALLEY":" ","HOUSE_NO":"８號","E_COORD97":166791.20999999999,"N_COORD97":2542328.1600000001,"ADDRESS":"惠南街９８巷８號","OBJECTID":363746},"geometry":{"x":166791.21000000183,"y":2542328.1600000039}},{"attributes":{"ID":363757,"DIS_CODE":0,"TOWNNAME":"新營區","LI":"民榮里","LIN":"19鄰","STREET":"裕民路","SECT":" ","MAREA":" ","LANE":"３４巷","ALLEY":" ","HOUSE_NO":"２５號","E_COORD97":179054.53,"N_COORD97":2577876.1899999999,"ADDRESS":"裕民路３４巷２５號","OBJECTID":363747},"geometry":{"x":179054.53000000119,"y":2577876.1900000013}},{"attributes":{"ID":363758,"DIS_CODE":0,"TOWNNAME":"北區","LI":"成功里","LIN":"19鄰","STREET":"北成路","SECT":" ","MAREA":" ","LANE":"１２８巷","ALLEY":" ","HOUSE_NO":"４７號","E_COORD97":168963.45999999999,"N_COORD97":2546812.5,"ADDRESS":"北成路１２８巷４７號","OBJECTID":363748},"geometry":{"x":168963.46000000089,"y":2546812.5000000019}},{"attributes":{"ID":363759,"DIS_CODE":0,"TOWNNAME":"安南區","LI":"學東里","LIN":"13鄰","STREET":"公學路","SECT":"七段","MAREA":" ","LANE":" ","ALLEY":" ","HOUSE_NO":"７３號","E_COORD97":161825.23999999999,"N_COORD97":2553358.2799999998,"ADDRESS":"公學路七段７３號","OBJECTID":363749},"geometry":{"x":161825.24000000115,"y":2553358.2799999993}},{"attributes":{"ID":363760,"DIS_CODE":0,"TOWNNAME":"安南區","LI":"學東里","LIN":"13鄰","STREET":"公學路","SECT":"七段","MAREA":" ","LANE":" ","ALLEY":" ","HOUSE_NO":"７５號","E_COORD97":161819.22,"N_COORD97":2553361.0699999998,"ADDRESS":"公學路七段７５號","OBJECTID":363750},"geometry":{"x":161819.22000000067,"y":2553361.070000004}},{"attributes":{"ID":363761,"DIS_CODE":0,"TOWNNAME":"安南區","LI":"溪心里","LIN":"13鄰","STREET":"樂安一街","SECT":" ","MAREA":" ","LANE":" ","ALLEY":" ","HOUSE_NO":"１０２號","E_COORD97":165954.95000000001,"N_COORD97":2549781.8300000001,"ADDRESS":"樂安一街１０２號","OBJECTID":363751},"geometry":{"x":165954.95000000112,"y":2549781.8300000001}},{"attributes":{"ID":363762,"DIS_CODE":0,"TOWNNAME":"安南區","LI":"溪心里","LIN":"13鄰","STREET":"樂安一街","SECT":" ","MAREA":" ","LANE":" ","ALLEY":" ","HOUSE_NO":"１２３號","E_COORD97":165906.39000000001,"N_COORD97":2549762.2799999998,"ADDRESS":"樂安一街１２３號","OBJECTID":363752},"geometry":{"x":165906.38999999966,"y":2549762.2800000012}},{"attributes":{"ID":363763,"DIS_CODE":0,"TOWNNAME":"安南區","LI":"溪心里","LIN":"13鄰","STREET":"樂安一街","SECT":" ","MAREA":" ","LANE":" ","ALLEY":" ","HOUSE_NO":"１２５號","E_COORD97":165901.79999999999,"N_COORD97":2549762.7799999998,"ADDRESS":"樂安一街１２５號","OBJECTID":363753},"geometry":{"x":165901.79999999981,"y":2549762.7800000012}},{"attributes":{"ID":363764,"DIS_CODE":0,"TOWNNAME":"安南區","LI":"溪心里","LIN":"13鄰","STREET":"樂安一街","SECT":" ","MAREA":" ","LANE":" ","ALLEY":" ","HOUSE_NO":"１２７號","E_COORD97":165897.39000000001,"N_COORD97":2549763.8900000001,"ADDRESS":"樂安一街１２７號","OBJECTID":363754},"geometry":{"x":165897.38999999966,"y":2549763.8900000006}},{"attributes":{"ID":363765,"DIS_CODE":0,"TOWNNAME":"安南區","LI":"溪心里","LIN":"13鄰","STREET":"樂安一街","SECT":" ","MAREA":" ","LANE":" ","ALLEY":" ","HOUSE_NO":"１２９號","E_COORD97":165892.73999999999,"N_COORD97":2549764.6400000001,"ADDRESS":"樂安一街１２９號","OBJECTID":363755},"geometry":{"x":165892.74000000022,"y":2549764.6400000025}},{"attributes":{"ID":363766,"DIS_CODE":0,"TOWNNAME":"安南區","LI":"溪心里","LIN":"13鄰","STREET":"樂安一街","SECT":" ","MAREA":" ","LANE":" ","ALLEY":" ","HOUSE_NO":"１３１號","E_COORD97":165888.59,"N_COORD97":2549765.6899999999,"ADDRESS":"樂安一街１３１號","OBJECTID":363756},"geometry":{"x":165888.59000000078,"y":2549765.6900000032}},{"attributes":{"ID":363767,"DIS_CODE":0,"TOWNNAME":"安南區","LI":"溪心里","LIN":"13鄰","STREET":"樂安一街","SECT":" ","MAREA":" ","LANE":" ","ALLEY":" ","HOUSE_NO":"１３３號","E_COORD97":165883.75,"N_COORD97":2549766.1200000001,"ADDRESS":"樂安一街１３３號","OBJECTID":363757},"geometry":{"x":165883.75,"y":2549766.1200000029}},{"attributes":{"ID":363768,"DIS_CODE":0,"TOWNNAME":"安南區","LI":"溪心里","LIN":"13鄰","STREET":"樂安一街","SECT":" ","MAREA":" ","LANE":" ","ALLEY":" ","HOUSE_NO":"１３５號","E_COORD97":165880.09,"N_COORD97":2549767.2999999998,"ADDRESS":"樂安一街１３５號","OBJECTID":363758},"geometry":{"x":165880.09000000171,"y":2549767.3000000026}},{"attributes":{"ID":363769,"DIS_CODE":0,"TOWNNAME":"安南區","LI":"溪心里","LIN":"13鄰","STREET":"樂安一街","SECT":" ","MAREA":" ","LANE":" ","ALLEY":" ","HOUSE_NO":"１３７號","E_COORD97":165875.69,"N_COORD97":2549767.3599999999,"ADDRESS":"樂安一街１３７號","OBJECTID":363759},"geometry":{"x":165875.69000000041,"y":2549767.3599999994}},{"attributes":{"ID":363770,"DIS_CODE":0,"TOWNNAME":"安南區","LI":"新順里","LIN":"13鄰","STREET":"永安路","SECT":" ","MAREA":" ","LANE":" ","ALLEY":" ","HOUSE_NO":"１５號","E_COORD97":170042.76000000001,"N_COORD97":2549556.5699999998,"ADDRESS":"永安路１５號","OBJECTID":363760},"geometry":{"x":170042.76000000071,"y":2549556.5700000003}},{"attributes":{"ID":363771,"DIS_CODE":0,"TOWNNAME":"佳里區","LI":"安西里","LIN":"43鄰","STREET":"安西路","SECT":" ","MAREA":" ","LANE":"１４９巷","ALLEY":" ","HOUSE_NO":"１０號","E_COORD97":165084.89000000001,"N_COORD97":2562528.7799999998,"ADDRESS":"安西路１４９巷１０號","OBJECTID":363761},"geometry":{"x":165084.8900000006,"y":2562528.7799999993}},{"attributes":{"ID":363772,"DIS_CODE":0,"TOWNNAME":"佳里區","LI":"安西里","LIN":"43鄰","STREET":"安西路","SECT":" ","MAREA":" ","LANE":"１４９巷","ALLEY":" ","HOUSE_NO":"１２號","E_COORD97":165080.64999999999,"N_COORD97":2562528.9100000001,"ADDRESS":"安西路１４９巷１２號","OBJECTID":363762},"geometry":{"x":165080.6500000013,"y":2562528.9100000001}},{"attributes":{"ID":363773,"DIS_CODE":0,"TOWNNAME":"佳里區","LI":"安西里","LIN":"43鄰","STREET":"安西路","SECT":" ","MAREA":" ","LANE":"１４９巷","ALLEY":" ","HOUSE_NO":"１６號","E_COORD97":165076.82999999999,"N_COORD97":2562528.8799999999,"ADDRESS":"安西路１４９巷１６號","OBJECTID":363763},"geometry":{"x":165076.83000000194,"y":2562528.8800000027}},{"attributes":{"ID":363774,"DIS_CODE":0,"TOWNNAME":"佳里區","LI":"安西里","LIN":"43鄰","STREET":"安西路","SECT":" ","MAREA":" ","LANE":"１４９巷","ALLEY":" ","HOUSE_NO":"１８號","E_COORD97":165072.59,"N_COORD97":2562529.0800000001,"ADDRESS":"安西路１４９巷１８號","OBJECTID":363764},"geometry":{"x":165072.58999999985,"y":2562529.0800000019}},{"attributes":{"ID":363775,"DIS_CODE":0,"TOWNNAME":"佳里區","LI":"安西里","LIN":"43鄰","STREET":"安西路","SECT":" ","MAREA":" ","LANE":"１４９巷","ALLEY":" ","HOUSE_NO":"２０號","E_COORD97":165068.26000000001,"N_COORD97":2562529.25,"ADDRESS":"安西路１４９巷２０號","OBJECTID":363765},"geometry":{"x":165068.25999999978,"y":2562529.25}},{"attributes":{"ID":363776,"DIS_CODE":0,"TOWNNAME":"佳里區","LI":"安西里","LIN":"43鄰","STREET":"安西路","SECT":" ","MAREA":" ","LANE":"１４９巷","ALLEY":" ","HOUSE_NO":"２２號","E_COORD97":165064.22,"N_COORD97":2562529.1899999999,"ADDRESS":"安西路１４９巷２２號","OBJECTID":363766},"geometry":{"x":165064.22000000067,"y":2562529.1899999995}},{"attributes":{"ID":363777,"DIS_CODE":0,"TOWNNAME":"佳里區","LI":"安西里","LIN":"43鄰","STREET":"安西路","SECT":" ","MAREA":" ","LANE":"１４９巷","ALLEY":" ","HOUSE_NO":"２６號","E_COORD97":165060.12,"N_COORD97":2562529.1699999999,"ADDRESS":"安西路１４９巷２６號","OBJECTID":363767},"geometry":{"x":165060.12000000104,"y":2562529.1700000018}},{"attributes":{"ID":363778,"DIS_CODE":0,"TOWNNAME":"佳里區","LI":"安西里","LIN":"43鄰","STREET":"安西路","SECT":" ","MAREA":" ","LANE":"１４９巷","ALLEY":" ","HOUSE_NO":"２８號","E_COORD97":165056.44,"N_COORD97":2562529.0899999999,"ADDRESS":"安西路１４９巷２８號","OBJECTID":363768},"geometry":{"x":165056.44000000134,"y":2562529.0900000017}},{"attributes":{"ID":363779,"DIS_CODE":0,"TOWNNAME":"佳里區","LI":"安西里","LIN":"43鄰","STREET":"安西路","SECT":" ","MAREA":" ","LANE":"１４９巷","ALLEY":" ","HOUSE_NO":"２號","E_COORD97":165097.32000000001,"N_COORD97":2562528.7599999998,"ADDRESS":"安西路１４９巷２號","OBJECTID":363769},"geometry":{"x":165097.32000000216,"y":2562528.7599999998}},{"attributes":{"ID":363780,"DIS_CODE":0,"TOWNNAME":"北區","LI":"成功里","LIN":"19鄰","STREET":"北成路","SECT":" ","MAREA":" ","LANE":"１２８巷","ALLEY":" ","HOUSE_NO":"４９號","E_COORD97":168966.67999999999,"N_COORD97":2546818.9300000002,"ADDRESS":"北成路１２８巷４９號","OBJECTID":363770},"geometry":{"x":168966.68000000063,"y":2546818.9300000016}},{"attributes":{"ID":363781,"DIS_CODE":0,"TOWNNAME":"北區","LI":"成功里","LIN":"19鄰","STREET":"北成路","SECT":" ","MAREA":" ","LANE":"１２８巷","ALLEY":" ","HOUSE_NO":"５１號","E_COORD97":168971.37,"N_COORD97":2546825.3700000001,"ADDRESS":"北成路１２８巷５１號","OBJECTID":363771},"geometry":{"x":168971.37000000011,"y":2546825.370000001}},{"attributes":{"ID":363782,"DIS_CODE":0,"TOWNNAME":"北區","LI":"成功里","LIN":"19鄰","STREET":"北成路","SECT":" ","MAREA":" ","LANE":"１２８巷","ALLEY":" ","HOUSE_NO":"５３號","E_COORD97":168974.59,"N_COORD97":2546831.7999999998,"ADDRESS":"北成路１２８巷５３號","OBJECTID":363772},"geometry":{"x":168974.58999999985,"y":2546831.8000000026}},{"attributes":{"ID":363783,"DIS_CODE":0,"TOWNNAME":"新營區","LI":"民生里","LIN":"19鄰","STREET":"進修街","SECT":" ","MAREA":" ","LANE":"２９巷","ALLEY":" ","HOUSE_NO":"３３號","E_COORD97":178886.53,"N_COORD97":2578461.73,"ADDRESS":"進修街２９巷３３號","OBJECTID":363773},"geometry":{"x":178886.53000000119,"y":2578461.7300000004}},{"attributes":{"ID":363784,"DIS_CODE":0,"TOWNNAME":"新營區","LI":"南紙里","LIN":"19鄰","STREET":"太子路","SECT":" ","MAREA":" ","LANE":"２５６巷","ALLEY":" ","HOUSE_NO":"１２號","E_COORD97":177754.17999999999,"N_COORD97":2577843.7200000002,"ADDRESS":"太子路２５６巷１２號","OBJECTID":363774},"geometry":{"x":177754.18000000063,"y":2577843.7200000025}},{"attributes":{"ID":363785,"DIS_CODE":0,"TOWNNAME":"新營區","LI":"南紙里","LIN":"19鄰","STREET":"太子路","SECT":" ","MAREA":" ","LANE":"２５６巷","ALLEY":" ","HOUSE_NO":"１８號","E_COORD97":177751.17000000001,"N_COORD97":2577855.9100000001,"ADDRESS":"太子路２５６巷１８號","OBJECTID":363775},"geometry":{"x":177751.17000000086,"y":2577855.9100000001}},{"attributes":{"ID":363786,"DIS_CODE":0,"TOWNNAME":"新營區","LI":"民生里","LIN":"19鄰","STREET":"進修街","SECT":" ","MAREA":" ","LANE":"２９巷","ALLEY":" ","HOUSE_NO":"４５號","E_COORD97":178874.23999999999,"N_COORD97":2578460.6899999999,"ADDRESS":"進修街２９巷４５號","OBJECTID":363776},"geometry":{"x":178874.24000000022,"y":2578460.6899999995}},{"attributes":{"ID":363787,"DIS_CODE":0,"TOWNNAME":"新營區","LI":"新南里","LIN":"19鄰","STREET":"隋唐街","SECT":" ","MAREA":" ","LANE":"３１巷","ALLEY":" ","HOUSE_NO":"５０號","E_COORD97":178653.48000000001,"N_COORD97":2578297.8399999999,"ADDRESS":"隋唐街３１巷５０號","OBJECTID":363777},"geometry":{"x":178653.48000000138,"y":2578297.8399999999}},{"attributes":{"ID":363788,"DIS_CODE":0,"TOWNNAME":"中西區","LI":"福安里","LIN":"4鄰","STREET":"府前路","SECT":"一段","MAREA":" ","LANE":"３０４巷","ALLEY":" ","HOUSE_NO":"１０號","E_COORD97":167877.79000000001,"N_COORD97":2543467.8300000001,"ADDRESS":"府前路一段３０４巷１０號","OBJECTID":363778},"geometry":{"x":167877.79000000097,"y":2543467.8300000001}},{"attributes":{"ID":363789,"DIS_CODE":0,"TOWNNAME":"中西區","LI":"福安里","LIN":"4鄰","STREET":"府前路","SECT":"一段","MAREA":" ","LANE":"３０４巷","ALLEY":" ","HOUSE_NO":"１２號","E_COORD97":167878.69,"N_COORD97":2543470.6899999999,"ADDRESS":"府前路一段３０４巷１２號","OBJECTID":363779},"geometry":{"x":167878.69000000134,"y":2543470.6900000013}},{"attributes":{"ID":363790,"DIS_CODE":0,"TOWNNAME":"南區","LI":"彰南里","LIN":"18鄰","STREET":"新和一路","SECT":" ","MAREA":" ","LANE":"３巷","ALLEY":" ","HOUSE_NO":"６號","E_COORD97":166128.76999999999,"N_COORD97":2540670.1800000002,"ADDRESS":"新和一路３巷６號","OBJECTID":363780},"geometry":{"x":166128.76999999955,"y":2540670.1800000016}},{"attributes":{"ID":363791,"DIS_CODE":0,"TOWNNAME":"中西區","LI":"福安里","LIN":"4鄰","STREET":"府前路","SECT":"一段","MAREA":" ","LANE":"３０４巷","ALLEY":" ","HOUSE_NO":"１４號","E_COORD97":167879.94,"N_COORD97":2543474.27,"ADDRESS":"府前路一段３０４巷１４號","OBJECTID":363781},"geometry":{"x":167879.94000000041,"y":2543474.2700000014}},{"attributes":{"ID":363792,"DIS_CODE":0,"TOWNNAME":"中西區","LI":"福安里","LIN":"4鄰","STREET":"府前路","SECT":"一段","MAREA":" ","LANE":"３０４巷","ALLEY":" ","HOUSE_NO":"１６號","E_COORD97":167881.56,"N_COORD97":2543478.21,"ADDRESS":"府前路一段３０４巷１６號","OBJECTID":363782},"geometry":{"x":167881.55999999959,"y":2543478.2100000028}},{"attributes":{"ID":363793,"DIS_CODE":0,"TOWNNAME":"中西區","LI":"福安里","LIN":"4鄰","STREET":"府前路","SECT":"一段","MAREA":" ","LANE":"３０４巷","ALLEY":" ","HOUSE_NO":"２號","E_COORD97":167891.01999999999,"N_COORD97":2543451.8900000001,"ADDRESS":"府前路一段３０４巷２號","OBJECTID":363783},"geometry":{"x":167891.02000000048,"y":2543451.8900000006}},{"attributes":{"ID":363794,"DIS_CODE":0,"TOWNNAME":"新營區","LI":"新南里","LIN":"19鄰","STREET":"隋唐街","SECT":" ","MAREA":" ","LANE":"３１巷","ALLEY":" ","HOUSE_NO":"４４號","E_COORD97":178660.82000000001,"N_COORD97":2578322.1800000002,"ADDRESS":"隋唐街３１巷４４號","OBJECTID":363784},"geometry":{"x":178660.82000000123,"y":2578322.1799999997}},{"attributes":{"ID":363795,"DIS_CODE":0,"TOWNNAME":"安南區","LI":"新順里","LIN":"13鄰","STREET":"永安路","SECT":" ","MAREA":" ","LANE":" ","ALLEY":" ","HOUSE_NO":"９３號","E_COORD97":170513.51000000001,"N_COORD97":2549295.3599999999,"ADDRESS":"永安路９３號","OBJECTID":363785},"geometry":{"x":170513.51000000071,"y":2549295.3599999994}},{"attributes":{"ID":363796,"DIS_CODE":0,"TOWNNAME":"安南區","LI":"新順里","LIN":"13鄰","STREET":"安和路","SECT":"三段","MAREA":" ","LANE":" ","ALLEY":" ","HOUSE_NO":"１２２號","E_COORD97":169869.78,"N_COORD97":2549645.04,"ADDRESS":"安和路三段１２２號","OBJECTID":363786},"geometry":{"x":169869.78000000119,"y":2549645.040000001}},{"attributes":{"ID":363797,"DIS_CODE":0,"TOWNNAME":"安南區","LI":"新順里","LIN":"13鄰","STREET":"安和路","SECT":"三段","MAREA":" ","LANE":" ","ALLEY":" ","HOUSE_NO":"１２２號之１","E_COORD97":169870.57999999999,"N_COORD97":2549649.5899999999,"ADDRESS":"安和路三段１２２號之１","OBJECTID":363787},"geometry":{"x":169870.58000000007,"y":2549649.5900000017}},{"attributes":{"ID":363798,"DIS_CODE":0,"TOWNNAME":"安南區","LI":"新順里","LIN":"13鄰","STREET":"安和路","SECT":"三段","MAREA":" ","LANE":" ","ALLEY":" ","HOUSE_NO":"１３０號","E_COORD97":169879.16,"N_COORD97":2549663.7799999998,"ADDRESS":"安和路三段１３０號","OBJECTID":363788},"geometry":{"x":169879.16000000108,"y":2549663.7800000012}},{"attributes":{"ID":363799,"DIS_CODE":0,"TOWNNAME":"安南區","LI":"新順里","LIN":"13鄰","STREET":"安和路","SECT":"三段","MAREA":" ","LANE":" ","ALLEY":" ","HOUSE_NO":"１３２號","E_COORD97":169880.76000000001,"N_COORD97":2549668.0600000001,"ADDRESS":"安和路三段１３２號","OBJECTID":363789},"geometry":{"x":169880.75999999978,"y":2549668.0600000005}},{"attributes":{"ID":363800,"DIS_CODE":0,"TOWNNAME":"安南區","LI":"新順里","LIN":"13鄰","STREET":"開安路","SECT":" ","MAREA":" ","LANE":" ","ALLEY":" ","HOUSE_NO":"３０號","E_COORD97":170337.14000000001,"N_COORD97":2549573.9399999999,"ADDRESS":"開安路３０號","OBJECTID":363790},"geometry":{"x":170337.13999999966,"y":2549573.9399999976}},{"attributes":{"ID":363801,"DIS_CODE":0,"TOWNNAME":"安南區","LI":"新順里","LIN":"13鄰","STREET":"開安一街","SECT":" ","MAREA":" ","LANE":" ","ALLEY":" ","HOUSE_NO":"５號","E_COORD97":170466.29000000001,"N_COORD97":2549713.96,"ADDRESS":"開安一街５號","OBJECTID":363791},"geometry":{"x":170466.29000000097,"y":2549713.9600000009}},{"attributes":{"ID":363802,"DIS_CODE":0,"TOWNNAME":"安南區","LI":"新順里","LIN":"13鄰","STREET":"開安一街","SECT":" ","MAREA":" ","LANE":" ","ALLEY":" ","HOUSE_NO":"９號","E_COORD97":170500.64000000001,"N_COORD97":2549698.3900000001,"ADDRESS":"開安一街９號","OBJECTID":363792},"geometry":{"x":170500.64000000153,"y":2549698.3900000025}},{"attributes":{"ID":363803,"DIS_CODE":0,"TOWNNAME":"安南區","LI":"新順里","LIN":"13鄰","STREET":"開安路","SECT":" ","MAREA":" ","LANE":" ","ALLEY":" ","HOUSE_NO":"１２號","E_COORD97":170284.53,"N_COORD97":2549484.7599999998,"ADDRESS":"開安路１２號","OBJECTID":363793},"geometry":{"x":170284.53000000026,"y":2549484.7600000016}},{"attributes":{"ID":363804,"DIS_CODE":0,"TOWNNAME":"安南區","LI":"新順里","LIN":"13鄰","STREET":"開安路","SECT":" ","MAREA":" ","LANE":" ","ALLEY":" ","HOUSE_NO":"１６號","E_COORD97":170309.20999999999,"N_COORD97":2549501.6800000002,"ADDRESS":"開安路１６號","OBJECTID":363794},"geometry":{"x":170309.21000000089,"y":2549501.6800000034}},{"attributes":{"ID":363805,"DIS_CODE":0,"TOWNNAME":"仁德區","LI":"後壁里","LIN":"43鄰","STREET":"德崙路","SECT":" ","MAREA":" ","LANE":"２１巷","ALLEY":" ","HOUSE_NO":"２號十一樓之３","E_COORD97":173310.89999999999,"N_COORD97":2538624.79,"ADDRESS":"德崙路２１巷２號十一樓之３","OBJECTID":363795},"geometry":{"x":173310.9000000013,"y":2538624.790000001}},{"attributes":{"ID":363806,"DIS_CODE":0,"TOWNNAME":"仁德區","LI":"後壁里","LIN":"43鄰","STREET":"德崙路","SECT":" ","MAREA":" ","LANE":"２１巷","ALLEY":" ","HOUSE_NO":"６號九樓之２","E_COORD97":173294.10999999999,"N_COORD97":2538633.29,"ADDRESS":"德崙路２１巷６號九樓之２","OBJECTID":363796},"geometry":{"x":173294.11000000127,"y":2538633.2899999991}},{"attributes":{"ID":363807,"DIS_CODE":0,"TOWNNAME":"仁德區","LI":"後壁里","LIN":"43鄰","STREET":"德崙路","SECT":" ","MAREA":" ","LANE":"２１巷","ALLEY":" ","HOUSE_NO":"８號九樓之２","E_COORD97":173297.45999999999,"N_COORD97":2538622.29,"ADDRESS":"德崙路２１巷８號九樓之２","OBJECTID":363797},"geometry":{"x":173297.46000000183,"y":2538622.2899999991}},{"attributes":{"ID":363808,"DIS_CODE":0,"TOWNNAME":"仁德區","LI":"後壁里","LIN":"43鄰","STREET":"德崙路","SECT":" ","MAREA":" ","LANE":"２１巷","ALLEY":" ","HOUSE_NO":"８號六樓之３","E_COORD97":173297.42000000001,"N_COORD97":2538622.29,"ADDRESS":"德崙路２１巷８號六樓之３","OBJECTID":363798},"geometry":{"x":173297.41999999993,"y":2538622.2899999991}},{"attributes":{"ID":363809,"DIS_CODE":0,"TOWNNAME":"仁德區","LI":"後壁里","LIN":"43鄰","STREET":"德崙路","SECT":" ","MAREA":" ","LANE":"２１巷","ALLEY":" ","HOUSE_NO":"８號六樓之４","E_COORD97":173297.35000000001,"N_COORD97":2538622.29,"ADDRESS":"德崙路２１巷８號六樓之４","OBJECTID":363799},"geometry":{"x":173297.34999999963,"y":2538622.2899999991}},{"attributes":{"ID":363810,"DIS_CODE":0,"TOWNNAME":"仁德區","LI":"後壁里","LIN":"43鄰","STREET":"德崙路","SECT":" ","MAREA":" ","LANE":"２１巷","ALLEY":" ","HOUSE_NO":"２號四樓之２","E_COORD97":173309.69,"N_COORD97":2538624.79,"ADDRESS":"德崙路２１巷２號四樓之２","OBJECTID":363800},"geometry":{"x":173309.69000000041,"y":2538624.790000001}}]}