{"displayFieldName":"TOWNNAME","fieldAliases":{"ID":"ID","DIS_CODE":"DIS_CODE","TOWNNAME":"TOWNNAME","LI":"LI","LIN":"LIN","STREET":"STREET","SECT":"SECT","MAREA":"MAREA","LANE":"LANE","ALLEY":"ALLEY","HOUSE_NO":"HOUSE_NO","E_COORD97":"E_COORD97","N_COORD97":"N_COORD97","ADDRESS":"ADDRESS","OBJECTID":"OBJECTID"},"geometryType":"esriGeometryPoint","spatialReference":{"wkid":102443,"latestWkid":3826},"fields":[{"name":"ID","type":"esriFieldTypeDouble","alias":"ID"},{"name":"DIS_CODE","type":"esriFieldTypeInteger","alias":"DIS_CODE"},{"name":"TOWNNAME","type":"esriFieldTypeString","alias":"TOWNNAME","length":8},{"name":"LI","type":"esriFieldTypeString","alias":"LI","length":8},{"name":"LIN","type":"esriFieldTypeString","alias":"LIN","length":12},{"name":"STREET","type":"esriFieldTypeString","alias":"STREET","length":20},{"name":"SECT","type":"esriFieldTypeString","alias":"SECT","length":8},{"name":"MAREA","type":"esriFieldTypeString","alias":"MAREA","length":12},{"name":"LANE","type":"esriFieldTypeString","alias":"LANE","length":10},{"name":"ALLEY","type":"esriFieldTypeString","alias":"ALLEY","length":10},{"name":"HOUSE_NO","type":"esriFieldTypeString","alias":"HOUSE_NO","length":20},{"name":"E_COORD97","type":"esriFieldTypeDouble","alias":"E_COORD97"},{"name":"N_COORD97","type":"esriFieldTypeDouble","alias":"N_COORD97"},{"name":"ADDRESS","type":"esriFieldTypeString","alias":"ADDRESS","length":50},{"name":"OBJECTID","type":"esriFieldTypeOID","alias":"OBJECTID"}],"features":[{"attributes":{"ID":571428,"DIS_CODE":0,"TOWNNAME":"新營區","LI":"新南里","LIN":"29鄰","STREET":"隋唐街","SECT":" ","MAREA":" ","LANE":" ","ALLEY":" ","HOUSE_NO":"３４８號","E_COORD97":178053.88,"N_COORD97":2578618.6000000001,"ADDRESS":"隋唐街３４８號","OBJECTID":571401},"geometry":{"x":178053.87999999989,"y":2578618.6000000034}},{"attributes":{"ID":571429,"DIS_CODE":0,"TOWNNAME":"新營區","LI":"新南里","LIN":"29鄰","STREET":"明清一街","SECT":" ","MAREA":" ","LANE":" ","ALLEY":" ","HOUSE_NO":"１３８之２號","E_COORD97":178101.72,"N_COORD97":2578705.9100000001,"ADDRESS":"明清一街１３８之２號","OBJECTID":571402},"geometry":{"x":178101.72000000067,"y":2578705.910000002}},{"attributes":{"ID":571430,"DIS_CODE":0,"TOWNNAME":"新營區","LI":"新南里","LIN":"29鄰","STREET":"明清一街","SECT":" ","MAREA":" ","LANE":" ","ALLEY":" ","HOUSE_NO":"６３號","E_COORD97":178012.87,"N_COORD97":2578660.8700000001,"ADDRESS":"明清一街６３號","OBJECTID":571403},"geometry":{"x":178012.87000000104,"y":2578660.870000001}},{"attributes":{"ID":571431,"DIS_CODE":0,"TOWNNAME":"新營區","LI":"大宏里","LIN":"29鄰","STREET":"大同路","SECT":" ","MAREA":" ","LANE":" ","ALLEY":" ","HOUSE_NO":"２０號","E_COORD97":180721.76999999999,"N_COORD97":2578732.1200000001,"ADDRESS":"大同路２０號","OBJECTID":571404},"geometry":{"x":180721.77000000048,"y":2578732.1200000029}},{"attributes":{"ID":571432,"DIS_CODE":0,"TOWNNAME":"新營區","LI":"新北里","LIN":"29鄰","STREET":"金華路","SECT":"二段","MAREA":" ","LANE":" ","ALLEY":" ","HOUSE_NO":"１０５號","E_COORD97":178839.72,"N_COORD97":2578910.48,"ADDRESS":"金華路二段１０５號","OBJECTID":571405},"geometry":{"x":178839.71999999974,"y":2578910.4800000004}},{"attributes":{"ID":571433,"DIS_CODE":0,"TOWNNAME":"新營區","LI":"新北里","LIN":"29鄰","STREET":"新北二街","SECT":" ","MAREA":" ","LANE":" ","ALLEY":" ","HOUSE_NO":"１５號","E_COORD97":178864.51000000001,"N_COORD97":2578795.1800000002,"ADDRESS":"新北二街１５號","OBJECTID":571406},"geometry":{"x":178864.51000000071,"y":2578795.1800000016}},{"attributes":{"ID":571434,"DIS_CODE":0,"TOWNNAME":"仁德區","LI":"仁義里","LIN":"25鄰","STREET":"中清二街","SECT":" ","MAREA":" ","LANE":" ","ALLEY":" ","HOUSE_NO":"２０號","E_COORD97":173576.48999999999,"N_COORD97":2541401.04,"ADDRESS":"中清二街２０號","OBJECTID":571407},"geometry":{"x":173576.49000000022,"y":2541401.0399999991}},{"attributes":{"ID":571435,"DIS_CODE":0,"TOWNNAME":"仁德區","LI":"仁義里","LIN":"55鄰","STREET":"中正路","SECT":"二段","MAREA":" ","LANE":" ","ALLEY":" ","HOUSE_NO":"１１６６號","E_COORD97":173289.45000000001,"N_COORD97":2541256.2799999998,"ADDRESS":"中正路二段１１６６號","OBJECTID":571408},"geometry":{"x":173289.45000000112,"y":2541256.2800000012}},{"attributes":{"ID":571436,"DIS_CODE":0,"TOWNNAME":"新營區","LI":"新北里","LIN":"29鄰","STREET":"新北二街","SECT":" ","MAREA":" ","LANE":" ","ALLEY":" ","HOUSE_NO":"２５號","E_COORD97":178893.20999999999,"N_COORD97":2578791.73,"ADDRESS":"新北二街２５號","OBJECTID":571409},"geometry":{"x":178893.21000000183,"y":2578791.7300000042}},{"attributes":{"ID":571437,"DIS_CODE":0,"TOWNNAME":"新營區","LI":"新北里","LIN":"29鄰","STREET":"新北二街","SECT":" ","MAREA":" ","LANE":" ","ALLEY":" ","HOUSE_NO":"１７號","E_COORD97":178870.66,"N_COORD97":2578796.2599999998,"ADDRESS":"新北二街１７號","OBJECTID":571410},"geometry":{"x":178870.66000000108,"y":2578796.2599999998}},{"attributes":{"ID":571438,"DIS_CODE":0,"TOWNNAME":"南區","LI":"府南里","LIN":"29鄰","STREET":"大成路","SECT":"二段","MAREA":" ","LANE":" ","ALLEY":" ","HOUSE_NO":"１１號","E_COORD97":167653.60000000001,"N_COORD97":2541725,"ADDRESS":"大成路二段１１號","OBJECTID":571411},"geometry":{"x":167653.60000000056,"y":2541725}},{"attributes":{"ID":571439,"DIS_CODE":0,"TOWNNAME":"南區","LI":"府南里","LIN":"29鄰","STREET":"大成路","SECT":"二段","MAREA":" ","LANE":" ","ALLEY":" ","HOUSE_NO":"１３號","E_COORD97":167649.38,"N_COORD97":2541725.1699999999,"ADDRESS":"大成路二段１３號","OBJECTID":571412},"geometry":{"x":167649.37999999896,"y":2541725.1700000018}},{"attributes":{"ID":571440,"DIS_CODE":0,"TOWNNAME":"南區","LI":"府南里","LIN":"29鄰","STREET":"大成路","SECT":"二段","MAREA":" ","LANE":" ","ALLEY":" ","HOUSE_NO":"１５號","E_COORD97":167645.73999999999,"N_COORD97":2541724.6699999999,"ADDRESS":"大成路二段１５號","OBJECTID":571413},"geometry":{"x":167645.74000000209,"y":2541724.6700000018}},{"attributes":{"ID":571441,"DIS_CODE":0,"TOWNNAME":"南區","LI":"府南里","LIN":"29鄰","STREET":"大成路","SECT":"二段","MAREA":" ","LANE":" ","ALLEY":" ","HOUSE_NO":"１７號","E_COORD97":167641.69,"N_COORD97":2541724.8399999999,"ADDRESS":"大成路二段１７號","OBJECTID":571414},"geometry":{"x":167641.69000000134,"y":2541724.8399999999}},{"attributes":{"ID":571442,"DIS_CODE":0,"TOWNNAME":"南區","LI":"府南里","LIN":"29鄰","STREET":"大成路","SECT":"二段","MAREA":" ","LANE":" ","ALLEY":" ","HOUSE_NO":"１９號","E_COORD97":167637.39000000001,"N_COORD97":2541723.7599999998,"ADDRESS":"大成路二段１９號","OBJECTID":571415},"geometry":{"x":167637.39000000153,"y":2541723.7600000035}},{"attributes":{"ID":571443,"DIS_CODE":0,"TOWNNAME":"南區","LI":"府南里","LIN":"29鄰","STREET":"大成路","SECT":"二段","MAREA":" ","LANE":" ","ALLEY":" ","HOUSE_NO":"２１號","E_COORD97":167633.75,"N_COORD97":2541722.8599999999,"ADDRESS":"大成路二段２１號","OBJECTID":571416},"geometry":{"x":167633.75000000093,"y":2541722.8600000013}},{"attributes":{"ID":571444,"DIS_CODE":0,"TOWNNAME":"南區","LI":"大忠里","LIN":"29鄰","STREET":"中華南路","SECT":"一段","MAREA":" ","LANE":" ","ALLEY":" ","HOUSE_NO":"１７８號","E_COORD97":169123.23999999999,"N_COORD97":2541237.7400000002,"ADDRESS":"中華南路一段１７８號","OBJECTID":571417},"geometry":{"x":169123.24000000022,"y":2541237.7400000002}},{"attributes":{"ID":571445,"DIS_CODE":0,"TOWNNAME":"南區","LI":"大忠里","LIN":"29鄰","STREET":"中華南路","SECT":"一段","MAREA":" ","LANE":" ","ALLEY":" ","HOUSE_NO":"１３８號","E_COORD97":169194.07000000001,"N_COORD97":2541300.4700000002,"ADDRESS":"中華南路一段１３８號","OBJECTID":571418},"geometry":{"x":169194.0700000003,"y":2541300.4700000025}},{"attributes":{"ID":571446,"DIS_CODE":0,"TOWNNAME":"歸仁區","LI":"許厝里","LIN":"29鄰","STREET":"中山路","SECT":"一段","MAREA":" ","LANE":" ","ALLEY":" ","HOUSE_NO":"５１３號","E_COORD97":177966.76000000001,"N_COORD97":2540717.8199999998,"ADDRESS":"中山路一段５１３號","OBJECTID":571419},"geometry":{"x":177966.75999999978,"y":2540717.8200000022}},{"attributes":{"ID":571447,"DIS_CODE":0,"TOWNNAME":"安平區","LI":"育平里","LIN":"29鄰","STREET":"育平路","SECT":" ","MAREA":" ","LANE":" ","ALLEY":" ","HOUSE_NO":"１５６號","E_COORD97":164576.02113899999,"N_COORD97":2543220.5694599999,"ADDRESS":"育平路１５６號","OBJECTID":571420},"geometry":{"x":164576.02113900054,"y":2543220.5694620013}},{"attributes":{"ID":571448,"DIS_CODE":0,"TOWNNAME":"安平區","LI":"育平里","LIN":"29鄰","STREET":"育平路","SECT":" ","MAREA":" ","LANE":" ","ALLEY":" ","HOUSE_NO":"１５８號","E_COORD97":164576.86876899999,"N_COORD97":2543225.64946,"ADDRESS":"育平路１５８號","OBJECTID":571421},"geometry":{"x":164576.86876900122,"y":2543225.6494590007}},{"attributes":{"ID":571449,"DIS_CODE":0,"TOWNNAME":"安平區","LI":"育平里","LIN":"29鄰","STREET":"育平路","SECT":" ","MAREA":" ","LANE":" ","ALLEY":" ","HOUSE_NO":"１６０號","E_COORD97":164577.29258400001,"N_COORD97":2543230.0944599998,"ADDRESS":"育平路１６０號","OBJECTID":571422},"geometry":{"x":164577.29258400109,"y":2543230.0944560003}},{"attributes":{"ID":571450,"DIS_CODE":0,"TOWNNAME":"安平區","LI":"育平里","LIN":"29鄰","STREET":"育平路","SECT":" ","MAREA":" ","LANE":" ","ALLEY":" ","HOUSE_NO":"１６２號","E_COORD97":164578.352121,"N_COORD97":2543234.9627899998,"ADDRESS":"育平路１６２號","OBJECTID":571423},"geometry":{"x":164578.35212100204,"y":2543234.9627870023}},{"attributes":{"ID":571451,"DIS_CODE":0,"TOWNNAME":"安平區","LI":"育平里","LIN":"29鄰","STREET":"育平路","SECT":" ","MAREA":" ","LANE":" ","ALLEY":" ","HOUSE_NO":"１６４號","E_COORD97":164579.19975100001,"N_COORD97":2543239.8311200002,"ADDRESS":"育平路１６４號","OBJECTID":571424},"geometry":{"x":164579.19975100085,"y":2543239.8311179988}},{"attributes":{"ID":571452,"DIS_CODE":0,"TOWNNAME":"安平區","LI":"育平里","LIN":"29鄰","STREET":"育平路","SECT":" ","MAREA":" ","LANE":" ","ALLEY":" ","HOUSE_NO":"１６８號","E_COORD97":164580.20999999999,"N_COORD97":2543247.7000000002,"ADDRESS":"育平路１６８號","OBJECTID":571425},"geometry":{"x":164580.20999999996,"y":2543247.6999999993}},{"attributes":{"ID":571453,"DIS_CODE":0,"TOWNNAME":"安平區","LI":"育平里","LIN":"29鄰","STREET":"育平路","SECT":" ","MAREA":" ","LANE":" ","ALLEY":" ","HOUSE_NO":"１７０號","E_COORD97":164581.47,"N_COORD97":2543254.52,"ADDRESS":"育平路１７０號","OBJECTID":571426},"geometry":{"x":164581.46999999974,"y":2543254.5200000014}},{"attributes":{"ID":571454,"DIS_CODE":0,"TOWNNAME":"安平區","LI":"育平里","LIN":"29鄰","STREET":"育平路","SECT":" ","MAREA":" ","LANE":" ","ALLEY":" ","HOUSE_NO":"１７２號","E_COORD97":164582.60000000001,"N_COORD97":2543260.2000000002,"ADDRESS":"育平路１７２號","OBJECTID":571427},"geometry":{"x":164582.59999999963,"y":2543260.2000000011}},{"attributes":{"ID":571455,"DIS_CODE":0,"TOWNNAME":"安平區","LI":"育平里","LIN":"29鄰","STREET":"育平路","SECT":" ","MAREA":" ","LANE":" ","ALLEY":" ","HOUSE_NO":"１７４號","E_COORD97":164583.97,"N_COORD97":2543266.1099999999,"ADDRESS":"育平路１７４號","OBJECTID":571428},"geometry":{"x":164583.97000000067,"y":2543266.1099999994}},{"attributes":{"ID":571456,"DIS_CODE":0,"TOWNNAME":"安平區","LI":"育平里","LIN":"29鄰","STREET":"育平路","SECT":" ","MAREA":" ","LANE":" ","ALLEY":" ","HOUSE_NO":"１７６號","E_COORD97":164584.64999999999,"N_COORD97":2543272.7000000002,"ADDRESS":"育平路１７６號","OBJECTID":571429},"geometry":{"x":164584.65000000037,"y":2543272.700000003}},{"attributes":{"ID":571457,"DIS_CODE":0,"TOWNNAME":"安平區","LI":"平通里","LIN":"29鄰","STREET":"育平七街","SECT":" ","MAREA":" ","LANE":" ","ALLEY":" ","HOUSE_NO":"７２號","E_COORD97":164417.64000000001,"N_COORD97":2543781.2400000002,"ADDRESS":"育平七街７２號","OBJECTID":571430},"geometry":{"x":164417.63999999966,"y":2543781.2400000002}},{"attributes":{"ID":571458,"DIS_CODE":0,"TOWNNAME":"安平區","LI":"平通里","LIN":"29鄰","STREET":"育平七街","SECT":" ","MAREA":" ","LANE":" ","ALLEY":" ","HOUSE_NO":"７２之１號","E_COORD97":164412.69,"N_COORD97":2543781.1499999999,"ADDRESS":"育平七街７２之１號","OBJECTID":571431},"geometry":{"x":164412.69000000041,"y":2543781.1500000022}},{"attributes":{"ID":571459,"DIS_CODE":0,"TOWNNAME":"安平區","LI":"平通里","LIN":"29鄰","STREET":"育平七街","SECT":" ","MAREA":" ","LANE":" ","ALLEY":" ","HOUSE_NO":"７６號","E_COORD97":164407.89000000001,"N_COORD97":2543781.5800000001,"ADDRESS":"育平七街７６號","OBJECTID":571432},"geometry":{"x":164407.88999999873,"y":2543781.5800000001}},{"attributes":{"ID":571460,"DIS_CODE":0,"TOWNNAME":"安平區","LI":"平通里","LIN":"29鄰","STREET":"育平七街","SECT":" ","MAREA":" ","LANE":" ","ALLEY":" ","HOUSE_NO":"７８號","E_COORD97":164401.76000000001,"N_COORD97":2543782.75,"ADDRESS":"育平七街７８號","OBJECTID":571433},"geometry":{"x":164401.75999999978,"y":2543782.7500000019}},{"attributes":{"ID":571461,"DIS_CODE":0,"TOWNNAME":"新營區","LI":"大宏里","LIN":"29鄰","STREET":"新東街","SECT":" ","MAREA":" ","LANE":" ","ALLEY":" ","HOUSE_NO":"２５號","E_COORD97":180783.92000000001,"N_COORD97":2578680.8799999999,"ADDRESS":"新東街２５號","OBJECTID":571434},"geometry":{"x":180783.92000000086,"y":2578680.8800000008}},{"attributes":{"ID":571462,"DIS_CODE":0,"TOWNNAME":"新營區","LI":"大宏里","LIN":"29鄰","STREET":"新東街","SECT":" ","MAREA":" ","LANE":" ","ALLEY":" ","HOUSE_NO":"２９號","E_COORD97":180790.07999999999,"N_COORD97":2578686.3900000001,"ADDRESS":"新東街２９號","OBJECTID":571435},"geometry":{"x":180790.08000000101,"y":2578686.3900000025}},{"attributes":{"ID":571463,"DIS_CODE":0,"TOWNNAME":"新營區","LI":"大宏里","LIN":"29鄰","STREET":"新東街","SECT":" ","MAREA":" ","LANE":" ","ALLEY":" ","HOUSE_NO":"２１號","E_COORD97":180778.76999999999,"N_COORD97":2578674.2599999998,"ADDRESS":"新東街２１號","OBJECTID":571436},"geometry":{"x":180778.76999999955,"y":2578674.2599999998}},{"attributes":{"ID":571464,"DIS_CODE":0,"TOWNNAME":"新營區","LI":"大宏里","LIN":"29鄰","STREET":"綠川路","SECT":" ","MAREA":" ","LANE":" ","ALLEY":" ","HOUSE_NO":"３８號","E_COORD97":180794.45000000001,"N_COORD97":2578741.75,"ADDRESS":"綠川路３８號","OBJECTID":571437},"geometry":{"x":180794.45000000112,"y":2578741.75}},{"attributes":{"ID":571465,"DIS_CODE":0,"TOWNNAME":"新營區","LI":"大宏里","LIN":"29鄰","STREET":"大同路","SECT":" ","MAREA":" ","LANE":" ","ALLEY":" ","HOUSE_NO":"１６之７號","E_COORD97":180733.10999999999,"N_COORD97":2578671.2200000002,"ADDRESS":"大同路１６之７號","OBJECTID":571438},"geometry":{"x":180733.11000000034,"y":2578671.2200000025}},{"attributes":{"ID":571466,"DIS_CODE":0,"TOWNNAME":"新營區","LI":"大宏里","LIN":"29鄰","STREET":"大同路","SECT":" ","MAREA":" ","LANE":" ","ALLEY":" ","HOUSE_NO":"２２號之２","E_COORD97":180721.94,"N_COORD97":2578722.21,"ADDRESS":"大同路２２號之２","OBJECTID":571439},"geometry":{"x":180721.94000000134,"y":2578722.2100000028}},{"attributes":{"ID":571467,"DIS_CODE":0,"TOWNNAME":"新營區","LI":"大宏里","LIN":"29鄰","STREET":"綠川路","SECT":" ","MAREA":" ","LANE":" ","ALLEY":" ","HOUSE_NO":"４１號","E_COORD97":180787.35000000001,"N_COORD97":2578757.2799999998,"ADDRESS":"綠川路４１號","OBJECTID":571440},"geometry":{"x":180787.35000000056,"y":2578757.2800000012}},{"attributes":{"ID":571468,"DIS_CODE":0,"TOWNNAME":"新營區","LI":"新北里","LIN":"29鄰","STREET":"金華路","SECT":"二段","MAREA":" ","LANE":" ","ALLEY":" ","HOUSE_NO":"１０９號","E_COORD97":178833.56,"N_COORD97":2578904.98,"ADDRESS":"金華路二段１０９號","OBJECTID":571441},"geometry":{"x":178833.56000000052,"y":2578904.9800000042}},{"attributes":{"ID":571469,"DIS_CODE":0,"TOWNNAME":"仁德區","LI":"仁義里","LIN":"55鄰","STREET":"中正路","SECT":"二段","MAREA":" ","LANE":" ","ALLEY":" ","HOUSE_NO":"１１８４號","E_COORD97":173283.54000000001,"N_COORD97":2541295.77,"ADDRESS":"中正路二段１１８４號","OBJECTID":571442},"geometry":{"x":173283.54000000097,"y":2541295.7699999996}},{"attributes":{"ID":571470,"DIS_CODE":0,"TOWNNAME":"仁德區","LI":"仁義里","LIN":"9鄰","STREET":"仁義一街","SECT":" ","MAREA":" ","LANE":" ","ALLEY":" ","HOUSE_NO":"１２６號","E_COORD97":173597.5,"N_COORD97":2541179.7599999998,"ADDRESS":"仁義一街１２６號","OBJECTID":571443},"geometry":{"x":173597.50000000093,"y":2541179.7599999998}},{"attributes":{"ID":571471,"DIS_CODE":0,"TOWNNAME":"新營區","LI":"民榮里","LIN":"29鄰","STREET":"太子路","SECT":" ","MAREA":" ","LANE":" ","ALLEY":" ","HOUSE_NO":"５６號","E_COORD97":178254.48000000001,"N_COORD97":2578070.5299999998,"ADDRESS":"太子路５６號","OBJECTID":571444},"geometry":{"x":178254.48000000231,"y":2578070.5300000012}},{"attributes":{"ID":571472,"DIS_CODE":0,"TOWNNAME":"新營區","LI":"民榮里","LIN":"29鄰","STREET":"太子路","SECT":" ","MAREA":" ","LANE":" ","ALLEY":" ","HOUSE_NO":"６４號","E_COORD97":178223.70000000001,"N_COORD97":2578052.96,"ADDRESS":"太子路６４號","OBJECTID":571445},"geometry":{"x":178223.70000000019,"y":2578052.9600000028}},{"attributes":{"ID":571473,"DIS_CODE":0,"TOWNNAME":"新營區","LI":"新北里","LIN":"29鄰","STREET":"金華路","SECT":"二段","MAREA":" ","LANE":" ","ALLEY":" ","HOUSE_NO":"１１３號","E_COORD97":178827.39999999999,"N_COORD97":2578899.4700000002,"ADDRESS":"金華路二段１１３號","OBJECTID":571446},"geometry":{"x":178827.40000000037,"y":2578899.4700000025}},{"attributes":{"ID":571474,"DIS_CODE":0,"TOWNNAME":"新營區","LI":"新南里","LIN":"29鄰","STREET":"明清一街","SECT":" ","MAREA":" ","LANE":" ","ALLEY":" ","HOUSE_NO":"１０號","E_COORD97":178158.12,"N_COORD97":2578664.6000000001,"ADDRESS":"明清一街１０號","OBJECTID":571447},"geometry":{"x":178158.12000000011,"y":2578664.5999999996}},{"attributes":{"ID":571475,"DIS_CODE":0,"TOWNNAME":"歸仁區","LI":"六甲里","LIN":"29鄰","STREET":"六甲二街","SECT":" ","MAREA":" ","LANE":" ","ALLEY":" ","HOUSE_NO":"２號","E_COORD97":175778.01999999999,"N_COORD97":2539245.25,"ADDRESS":"六甲二街２號","OBJECTID":571448},"geometry":{"x":175778.01999999955,"y":2539245.2499999981}},{"attributes":{"ID":571476,"DIS_CODE":0,"TOWNNAME":"新營區","LI":"王公里","LIN":"29鄰","STREET":"大公街","SECT":" ","MAREA":" ","LANE":" ","ALLEY":" ","HOUSE_NO":"６６號","E_COORD97":180289.23000000001,"N_COORD97":2579641.1499999999,"ADDRESS":"大公街６６號","OBJECTID":571449},"geometry":{"x":180289.23000000138,"y":2579641.1500000022}},{"attributes":{"ID":571477,"DIS_CODE":0,"TOWNNAME":"新營區","LI":"王公里","LIN":"29鄰","STREET":"大公街","SECT":" ","MAREA":" ","LANE":" ","ALLEY":" ","HOUSE_NO":"６４號","E_COORD97":180284.12,"N_COORD97":2579641.1699999999,"ADDRESS":"大公街６４號","OBJECTID":571450},"geometry":{"x":180284.12000000197,"y":2579641.1699999999}},{"attributes":{"ID":571478,"DIS_CODE":0,"TOWNNAME":"新營區","LI":"民榮里","LIN":"29鄰","STREET":"太子路","SECT":" ","MAREA":" ","LANE":" ","ALLEY":" ","HOUSE_NO":"６４之２號","E_COORD97":178219.01000000001,"N_COORD97":2578048.6200000001,"ADDRESS":"太子路６４之２號","OBJECTID":571451},"geometry":{"x":178219.00999999978,"y":2578048.6200000029}},{"attributes":{"ID":571479,"DIS_CODE":0,"TOWNNAME":"新營區","LI":"民榮里","LIN":"29鄰","STREET":"太子路","SECT":" ","MAREA":" ","LANE":" ","ALLEY":" ","HOUSE_NO":"６６號","E_COORD97":178213.44,"N_COORD97":2578047.46,"ADDRESS":"太子路６６號","OBJECTID":571452},"geometry":{"x":178213.44000000041,"y":2578047.4600000009}},{"attributes":{"ID":571480,"DIS_CODE":0,"TOWNNAME":"新營區","LI":"新南里","LIN":"29鄰","STREET":"明清一街","SECT":" ","MAREA":" ","LANE":" ","ALLEY":" ","HOUSE_NO":"１１６號","E_COORD97":178047.13,"N_COORD97":2578720.5099999998,"ADDRESS":"明清一街１１６號","OBJECTID":571453},"geometry":{"x":178047.12999999989,"y":2578720.5099999998}},{"attributes":{"ID":571481,"DIS_CODE":0,"TOWNNAME":"新營區","LI":"新南里","LIN":"29鄰","STREET":"明清一街","SECT":" ","MAREA":" ","LANE":" ","ALLEY":" ","HOUSE_NO":"６８號","E_COORD97":178009.88,"N_COORD97":2578678.6000000001,"ADDRESS":"明清一街６８號","OBJECTID":571454},"geometry":{"x":178009.87999999989,"y":2578678.5999999996}},{"attributes":{"ID":571482,"DIS_CODE":0,"TOWNNAME":"新營區","LI":"王公里","LIN":"29鄰","STREET":"大公街","SECT":" ","MAREA":" ","LANE":" ","ALLEY":" ","HOUSE_NO":"４８號","E_COORD97":180243.31,"N_COORD97":2579648.0099999998,"ADDRESS":"大公街４８號","OBJECTID":571455},"geometry":{"x":180243.31000000145,"y":2579648.0100000016}},{"attributes":{"ID":571483,"DIS_CODE":0,"TOWNNAME":"新營區","LI":"新南里","LIN":"29鄰","STREET":"明清一街","SECT":" ","MAREA":" ","LANE":" ","ALLEY":" ","HOUSE_NO":"１１８號","E_COORD97":178060.39999999999,"N_COORD97":2578714.9100000001,"ADDRESS":"明清一街１１８號","OBJECTID":571456},"geometry":{"x":178060.4000000013,"y":2578714.9100000001}},{"attributes":{"ID":571484,"DIS_CODE":0,"TOWNNAME":"歸仁區","LI":"許厝里","LIN":"29鄰","STREET":"大智街","SECT":" ","MAREA":" ","LANE":" ","ALLEY":" ","HOUSE_NO":"３９號","E_COORD97":177928.87,"N_COORD97":2540638.5299999998,"ADDRESS":"大智街３９號","OBJECTID":571457},"geometry":{"x":177928.87000000011,"y":2540638.5299999993}},{"attributes":{"ID":571485,"DIS_CODE":0,"TOWNNAME":"歸仁區","LI":"辜厝里","LIN":"29鄰","STREET":"大順三街","SECT":" ","MAREA":" ","LANE":" ","ALLEY":" ","HOUSE_NO":"３６號","E_COORD97":177373.03,"N_COORD97":2540528.9500000002,"ADDRESS":"大順三街３６號","OBJECTID":571458},"geometry":{"x":177373.03000000119,"y":2540528.9500000011}},{"attributes":{"ID":571486,"DIS_CODE":0,"TOWNNAME":"新營區","LI":"新南里","LIN":"29鄰","STREET":"明清一街","SECT":" ","MAREA":" ","LANE":" ","ALLEY":" ","HOUSE_NO":"５１號","E_COORD97":178043.54999999999,"N_COORD97":2578657.3999999999,"ADDRESS":"明清一街５１號","OBJECTID":571459},"geometry":{"x":178043.55000000075,"y":2578657.4000000004}},{"attributes":{"ID":571487,"DIS_CODE":0,"TOWNNAME":"新化區","LI":"東榮里","LIN":"29鄰","STREET":"中興路","SECT":" ","MAREA":" ","LANE":" ","ALLEY":" ","HOUSE_NO":"７９４號","E_COORD97":179283.10999999999,"N_COORD97":2548272.25,"ADDRESS":"中興路７９４號","OBJECTID":571460},"geometry":{"x":179283.11000000127,"y":2548272.2500000019}},{"attributes":{"ID":571488,"DIS_CODE":0,"TOWNNAME":"新化區","LI":"東榮里","LIN":"29鄰","STREET":"復興路","SECT":" ","MAREA":" ","LANE":" ","ALLEY":" ","HOUSE_NO":"２５９號","E_COORD97":179355.01999999999,"N_COORD97":2548292.25,"ADDRESS":"復興路２５９號","OBJECTID":571461},"geometry":{"x":179355.01999999955,"y":2548292.2500000019}},{"attributes":{"ID":571489,"DIS_CODE":0,"TOWNNAME":"新化區","LI":"東榮里","LIN":"29鄰","STREET":"復興路","SECT":" ","MAREA":" ","LANE":" ","ALLEY":" ","HOUSE_NO":"２６５號","E_COORD97":179352.01999999999,"N_COORD97":2548304.25,"ADDRESS":"復興路２６５號","OBJECTID":571462},"geometry":{"x":179352.02000000048,"y":2548304.25}},{"attributes":{"ID":571490,"DIS_CODE":0,"TOWNNAME":"佳里區","LI":"六安里","LIN":"29鄰","STREET":"進學路","SECT":" ","MAREA":" ","LANE":" ","ALLEY":" ","HOUSE_NO":"２４２號","E_COORD97":165649.47,"N_COORD97":2562706.4300000002,"ADDRESS":"進學路２４２號","OBJECTID":571463},"geometry":{"x":165649.46999999974,"y":2562706.4300000016}},{"attributes":{"ID":571491,"DIS_CODE":0,"TOWNNAME":"永康區","LI":"西灣里","LIN":"29鄰","STREET":"大勇路","SECT":" ","MAREA":" ","LANE":" ","ALLEY":" ","HOUSE_NO":"１４２之７號","E_COORD97":174327.60000000001,"N_COORD97":2545784.29,"ADDRESS":"大勇路１４２之７號","OBJECTID":571464},"geometry":{"x":174327.60000000056,"y":2545784.2900000028}},{"attributes":{"ID":571492,"DIS_CODE":0,"TOWNNAME":"永康區","LI":"西灣里","LIN":"29鄰","STREET":"大勇路","SECT":" ","MAREA":" ","LANE":" ","ALLEY":" ","HOUSE_NO":"１５２號","E_COORD97":174317.45999999999,"N_COORD97":2545803,"ADDRESS":"大勇路１５２號","OBJECTID":571465},"geometry":{"x":174317.45999999996,"y":2545803}},{"attributes":{"ID":571493,"DIS_CODE":0,"TOWNNAME":"永康區","LI":"西灣里","LIN":"29鄰","STREET":"大勇路","SECT":" ","MAREA":" ","LANE":" ","ALLEY":" ","HOUSE_NO":"１５２號之５","E_COORD97":174320.57000000001,"N_COORD97":2545823.04,"ADDRESS":"大勇路１５２號之５","OBJECTID":571466},"geometry":{"x":174320.5700000003,"y":2545823.0399999991}},{"attributes":{"ID":571494,"DIS_CODE":0,"TOWNNAME":"永康區","LI":"西灣里","LIN":"29鄰","STREET":"大勇路","SECT":" ","MAREA":" ","LANE":" ","ALLEY":" ","HOUSE_NO":"１６０號","E_COORD97":174310.42999999999,"N_COORD97":2545907.2599999998,"ADDRESS":"大勇路１６０號","OBJECTID":571467},"geometry":{"x":174310.4299999997,"y":2545907.2600000035}},{"attributes":{"ID":571495,"DIS_CODE":0,"TOWNNAME":"永康區","LI":"西灣里","LIN":"29鄰","STREET":"大勇路","SECT":" ","MAREA":" ","LANE":" ","ALLEY":" ","HOUSE_NO":"１５８號","E_COORD97":174314.26000000001,"N_COORD97":2545884.9100000001,"ADDRESS":"大勇路１５８號","OBJECTID":571468},"geometry":{"x":174314.26000000071,"y":2545884.9100000001}},{"attributes":{"ID":571496,"DIS_CODE":0,"TOWNNAME":"永康區","LI":"永康里","LIN":"29鄰","STREET":"永康街","SECT":" ","MAREA":" ","LANE":" ","ALLEY":" ","HOUSE_NO":"１９７號","E_COORD97":174122.82999999999,"N_COORD97":2547026.8199999998,"ADDRESS":"永康街１９７號","OBJECTID":571469},"geometry":{"x":174122.83000000101,"y":2547026.8200000022}},{"attributes":{"ID":571497,"DIS_CODE":0,"TOWNNAME":"永康區","LI":"永康里","LIN":"29鄰","STREET":"永康街","SECT":" ","MAREA":" ","LANE":" ","ALLEY":" ","HOUSE_NO":"１８３號","E_COORD97":174086.60000000001,"N_COORD97":2547039.73,"ADDRESS":"永康街１８３號","OBJECTID":571470},"geometry":{"x":174086.60000000056,"y":2547039.7300000004}},{"attributes":{"ID":571498,"DIS_CODE":0,"TOWNNAME":"仁德區","LI":"仁愛里","LIN":"25鄰","STREET":"保仁路","SECT":" ","MAREA":" ","LANE":" ","ALLEY":" ","HOUSE_NO":"２９９號","E_COORD97":169809.98000000001,"N_COORD97":2540064.52,"ADDRESS":"保仁路２９９號","OBJECTID":571471},"geometry":{"x":169809.98000000045,"y":2540064.5200000014}},{"attributes":{"ID":571499,"DIS_CODE":0,"TOWNNAME":"仁德區","LI":"仁德里","LIN":"34鄰","STREET":"中山路","SECT":" ","MAREA":" ","LANE":" ","ALLEY":" ","HOUSE_NO":"７３４號","E_COORD97":172732.23999999999,"N_COORD97":2541518.7400000002,"ADDRESS":"中山路７３４號","OBJECTID":571472},"geometry":{"x":172732.24000000022,"y":2541518.7400000021}},{"attributes":{"ID":571500,"DIS_CODE":0,"TOWNNAME":"仁德區","LI":"仁義里","LIN":"34鄰","STREET":"正義二街","SECT":" ","MAREA":" ","LANE":" ","ALLEY":" ","HOUSE_NO":"３３號","E_COORD97":173482.07999999999,"N_COORD97":2541568.52,"ADDRESS":"正義二街３３號","OBJECTID":571473},"geometry":{"x":173482.08000000101,"y":2541568.5199999996}},{"attributes":{"ID":571501,"DIS_CODE":0,"TOWNNAME":"仁德區","LI":"太子里","LIN":"29鄰","STREET":"大發路","SECT":" ","MAREA":" ","LANE":" ","ALLEY":" ","HOUSE_NO":"１５１號","E_COORD97":173239.29999999999,"N_COORD97":2542997.52,"ADDRESS":"大發路１５１號","OBJECTID":571474},"geometry":{"x":173239.30000000075,"y":2542997.5200000014}},{"attributes":{"ID":571502,"DIS_CODE":0,"TOWNNAME":"永康區","LI":"埔園里","LIN":"29鄰","STREET":"埔東街","SECT":" ","MAREA":" ","LANE":" ","ALLEY":" ","HOUSE_NO":"５６號","E_COORD97":173790.98999999999,"N_COORD97":2548191.4300000002,"ADDRESS":"埔東街５６號","OBJECTID":571475},"geometry":{"x":173790.99000000115,"y":2548191.4300000034}},{"attributes":{"ID":571503,"DIS_CODE":0,"TOWNNAME":"永康區","LI":"永康里","LIN":"29鄰","STREET":"永康街","SECT":" ","MAREA":" ","LANE":" ","ALLEY":" ","HOUSE_NO":"２４２號","E_COORD97":174103.95999999999,"N_COORD97":2547012.46,"ADDRESS":"永康街２４２號","OBJECTID":571476},"geometry":{"x":174103.95999999996,"y":2547012.4600000046}},{"attributes":{"ID":571504,"DIS_CODE":0,"TOWNNAME":"永康區","LI":"東灣里","LIN":"29鄰","STREET":"民族路","SECT":" ","MAREA":" ","LANE":" ","ALLEY":" ","HOUSE_NO":"１８７號","E_COORD97":175250.39000000001,"N_COORD97":2544886.1699999999,"ADDRESS":"民族路１８７號","OBJECTID":571477},"geometry":{"x":175250.39000000153,"y":2544886.1699999999}},{"attributes":{"ID":571505,"DIS_CODE":0,"TOWNNAME":"關廟區","LI":"東勢里","LIN":"20鄰","STREET":"東昌街","SECT":" ","MAREA":" ","LANE":" ","ALLEY":" ","HOUSE_NO":"８號","E_COORD97":181962.07000000001,"N_COORD97":2539294.25,"ADDRESS":"東昌街８號","OBJECTID":571478},"geometry":{"x":181962.0700000003,"y":2539294.2500000019}},{"attributes":{"ID":571506,"DIS_CODE":0,"TOWNNAME":"永康區","LI":"勝利里","LIN":"29鄰","STREET":"勝利街","SECT":" ","MAREA":" ","LANE":" ","ALLEY":" ","HOUSE_NO":"３６號","E_COORD97":171335.82000000001,"N_COORD97":2544606.25,"ADDRESS":"勝利街３６號","OBJECTID":571479},"geometry":{"x":171335.82000000123,"y":2544606.2500000019}},{"attributes":{"ID":571507,"DIS_CODE":0,"TOWNNAME":"東區","LI":"成大里","LIN":"29鄰","STREET":"大學路","SECT":"西段","MAREA":" ","LANE":" ","ALLEY":" ","HOUSE_NO":"６５號之１","E_COORD97":169599.17356900001,"N_COORD97":2544072.9693700001,"ADDRESS":"大學路西段６５號之１","OBJECTID":571480},"geometry":{"x":169599.17356900126,"y":2544072.9693749994}},{"attributes":{"ID":571508,"DIS_CODE":0,"TOWNNAME":"東區","LI":"成大里","LIN":"29鄰","STREET":"大學路","SECT":"西段","MAREA":" ","LANE":" ","ALLEY":" ","HOUSE_NO":"６５號之２","E_COORD97":169579.84,"N_COORD97":2544080.0499999998,"ADDRESS":"大學路西段６５號之２","OBJECTID":571481},"geometry":{"x":169579.83999999985,"y":2544080.0500000026}},{"attributes":{"ID":571509,"DIS_CODE":0,"TOWNNAME":"仁德區","LI":"仁義里","LIN":"13鄰","STREET":"中山路","SECT":" ","MAREA":" ","LANE":" ","ALLEY":" ","HOUSE_NO":"１４６號","E_COORD97":174585.53,"N_COORD97":2541181.4900000002,"ADDRESS":"中山路１４６號","OBJECTID":571482},"geometry":{"x":174585.53000000212,"y":2541181.4900000021}},{"attributes":{"ID":571510,"DIS_CODE":0,"TOWNNAME":"永康區","LI":"埔園里","LIN":"29鄰","STREET":"埔東街","SECT":" ","MAREA":" ","LANE":" ","ALLEY":" ","HOUSE_NO":"８０號","E_COORD97":173835.16,"N_COORD97":2548274.4399999999,"ADDRESS":"埔東街８０號","OBJECTID":571483},"geometry":{"x":173835.16000000015,"y":2548274.4399999995}},{"attributes":{"ID":571511,"DIS_CODE":0,"TOWNNAME":"仁德區","LI":"上崙里","LIN":"29鄰","STREET":"中正路","SECT":"一段","MAREA":" ","LANE":" ","ALLEY":" ","HOUSE_NO":"６１８號","E_COORD97":172822.12,"N_COORD97":2537403.2799999998,"ADDRESS":"中正路一段６１８號","OBJECTID":571484},"geometry":{"x":172822.12000000104,"y":2537403.2799999993}},{"attributes":{"ID":571512,"DIS_CODE":0,"TOWNNAME":"東區","LI":"成大里","LIN":"29鄰","STREET":"大學路","SECT":"西段","MAREA":" ","LANE":" ","ALLEY":" ","HOUSE_NO":"６５之５號","E_COORD97":169645.5,"N_COORD97":2544092.5,"ADDRESS":"大學路西段６５之５號","OBJECTID":571485},"geometry":{"x":169645.5,"y":2544092.5000000019}},{"attributes":{"ID":571513,"DIS_CODE":0,"TOWNNAME":"永康區","LI":"甲頂里","LIN":"29鄰","STREET":"中央路","SECT":" ","MAREA":" ","LANE":" ","ALLEY":" ","HOUSE_NO":"３１號","E_COORD97":169626.98000000001,"N_COORD97":2547026.6699999999,"ADDRESS":"中央路３１號","OBJECTID":571486},"geometry":{"x":169626.98000000045,"y":2547026.6699999981}},{"attributes":{"ID":571514,"DIS_CODE":0,"TOWNNAME":"永康區","LI":"甲頂里","LIN":"29鄰","STREET":"中央路","SECT":" ","MAREA":" ","LANE":" ","ALLEY":" ","HOUSE_NO":"２７號","E_COORD97":169630.70999999999,"N_COORD97":2547019.0600000001,"ADDRESS":"中央路２７號","OBJECTID":571487},"geometry":{"x":169630.71000000183,"y":2547019.0600000024}},{"attributes":{"ID":571515,"DIS_CODE":0,"TOWNNAME":"東區","LI":"後甲里","LIN":"29鄰","STREET":"裕農路","SECT":" ","MAREA":" ","LANE":" ","ALLEY":" ","HOUSE_NO":"６６３號","E_COORD97":171733.67999999999,"N_COORD97":2543248.1800000002,"ADDRESS":"裕農路６６３號","OBJECTID":571488},"geometry":{"x":171733.6799999997,"y":2543248.1799999997}},{"attributes":{"ID":571516,"DIS_CODE":0,"TOWNNAME":"永康區","LI":"\u25A0洲里","LIN":"29鄰","STREET":"洲尾街","SECT":" ","MAREA":" ","LANE":" ","ALLEY":" ","HOUSE_NO":"１８０號","E_COORD97":171122.32000000001,"N_COORD97":2549149.1000000001,"ADDRESS":"洲尾街１８０號","OBJECTID":571489},"geometry":{"x":171122.32000000123,"y":2549149.0999999996}},{"attributes":{"ID":571517,"DIS_CODE":0,"TOWNNAME":"永康區","LI":"\u25A0行里","LIN":"29鄰","STREET":"竹林街","SECT":" ","MAREA":" ","LANE":" ","ALLEY":" ","HOUSE_NO":"１５號","E_COORD97":172791.64000000001,"N_COORD97":2548961.4900000002,"ADDRESS":"竹林街１５號","OBJECTID":571490},"geometry":{"x":172791.63999999966,"y":2548961.4900000021}},{"attributes":{"ID":571518,"DIS_CODE":0,"TOWNNAME":"永康區","LI":"龍潭里","LIN":"29鄰","STREET":"中山北路","SECT":" ","MAREA":" ","LANE":" ","ALLEY":" ","HOUSE_NO":"３４１號","E_COORD97":174737.88,"N_COORD97":2547695.2599999998,"ADDRESS":"中山北路３４１號","OBJECTID":571491},"geometry":{"x":174737.88000000082,"y":2547695.2600000016}},{"attributes":{"ID":571519,"DIS_CODE":0,"TOWNNAME":"永康區","LI":"\u25A0行里","LIN":"29鄰","STREET":"竹林街","SECT":" ","MAREA":" ","LANE":" ","ALLEY":" ","HOUSE_NO":"１３號","E_COORD97":172791.35000000001,"N_COORD97":2548966.7400000002,"ADDRESS":"竹林街１３號","OBJECTID":571492},"geometry":{"x":172791.35000000056,"y":2548966.7400000021}},{"attributes":{"ID":571520,"DIS_CODE":0,"TOWNNAME":"仁德區","LI":"仁義里","LIN":"36鄰","STREET":"勝利路","SECT":" ","MAREA":" ","LANE":" ","ALLEY":" ","HOUSE_NO":"７號","E_COORD97":173437.70999999999,"N_COORD97":2540017.7599999998,"ADDRESS":"勝利路７號","OBJECTID":571493},"geometry":{"x":173437.70999999996,"y":2540017.7599999998}},{"attributes":{"ID":571521,"DIS_CODE":0,"TOWNNAME":"仁德區","LI":"仁義里","LIN":"17鄰","STREET":"中山路","SECT":" ","MAREA":" ","LANE":" ","ALLEY":" ","HOUSE_NO":"２１８號","E_COORD97":174304.51000000001,"N_COORD97":2541220.2400000002,"ADDRESS":"中山路２１８號","OBJECTID":571494},"geometry":{"x":174304.51000000071,"y":2541220.2400000021}},{"attributes":{"ID":571522,"DIS_CODE":0,"TOWNNAME":"仁德區","LI":"仁義里","LIN":"30鄰","STREET":"中清二街","SECT":" ","MAREA":" ","LANE":" ","ALLEY":" ","HOUSE_NO":"５８號","E_COORD97":173580.84,"N_COORD97":2541539.0499999998,"ADDRESS":"中清二街５８號","OBJECTID":571495},"geometry":{"x":173580.83999999985,"y":2541539.0500000007}},{"attributes":{"ID":571523,"DIS_CODE":0,"TOWNNAME":"永康區","LI":"\u25A0洲里","LIN":"29鄰","STREET":"洲尾街","SECT":" ","MAREA":" ","LANE":" ","ALLEY":" ","HOUSE_NO":"１６０號","E_COORD97":171073.53,"N_COORD97":2549137.1499999999,"ADDRESS":"洲尾街１６０號","OBJECTID":571496},"geometry":{"x":171073.53000000119,"y":2549137.1500000022}},{"attributes":{"ID":571524,"DIS_CODE":0,"TOWNNAME":"永康區","LI":"龍潭里","LIN":"29鄰","STREET":"龍潭街","SECT":" ","MAREA":" ","LANE":" ","ALLEY":" ","HOUSE_NO":"３８號","E_COORD97":174745.73000000001,"N_COORD97":2547787.2000000002,"ADDRESS":"龍潭街３８號","OBJECTID":571497},"geometry":{"x":174745.73000000138,"y":2547787.1999999993}},{"attributes":{"ID":571525,"DIS_CODE":0,"TOWNNAME":"永康區","LI":"龍潭里","LIN":"29鄰","STREET":"龍潭街","SECT":" ","MAREA":" ","LANE":" ","ALLEY":" ","HOUSE_NO":"１０號","E_COORD97":174721.67999999999,"N_COORD97":2547726.8100000001,"ADDRESS":"龍潭街１０號","OBJECTID":571498},"geometry":{"x":174721.68000000063,"y":2547726.8100000005}},{"attributes":{"ID":571526,"DIS_CODE":0,"TOWNNAME":"永康區","LI":"龍潭里","LIN":"29鄰","STREET":"中山北路","SECT":" ","MAREA":" ","LANE":" ","ALLEY":" ","HOUSE_NO":"３３９號","E_COORD97":174733.32999999999,"N_COORD97":2547695.2599999998,"ADDRESS":"中山北路３３９號","OBJECTID":571499},"geometry":{"x":174733.33000000101,"y":2547695.2600000016}},{"attributes":{"ID":571527,"DIS_CODE":0,"TOWNNAME":"永康區","LI":"龍潭里","LIN":"29鄰","STREET":"龍潭街","SECT":" ","MAREA":" ","LANE":" ","ALLEY":" ","HOUSE_NO":"３６號","E_COORD97":174744.26000000001,"N_COORD97":2547783.4500000002,"ADDRESS":"龍潭街３６號","OBJECTID":571500},"geometry":{"x":174744.25999999978,"y":2547783.4499999993}},{"attributes":{"ID":571528,"DIS_CODE":0,"TOWNNAME":"永康區","LI":"龍潭里","LIN":"29鄰","STREET":"龍潭街","SECT":" ","MAREA":" ","LANE":" ","ALLEY":" ","HOUSE_NO":"３４號","E_COORD97":174742.97,"N_COORD97":2547779.4500000002,"ADDRESS":"龍潭街３４號","OBJECTID":571501},"geometry":{"x":174742.96999999881,"y":2547779.4499999993}},{"attributes":{"ID":571529,"DIS_CODE":0,"TOWNNAME":"永康區","LI":"龍潭里","LIN":"29鄰","STREET":"龍潭街","SECT":" ","MAREA":" ","LANE":" ","ALLEY":" ","HOUSE_NO":"６０號","E_COORD97":174774.54000000001,"N_COORD97":2547863.9500000002,"ADDRESS":"龍潭街６０號","OBJECTID":571502},"geometry":{"x":174774.54000000004,"y":2547863.9499999993}},{"attributes":{"ID":571530,"DIS_CODE":0,"TOWNNAME":"永康區","LI":"龍潭里","LIN":"29鄰","STREET":"龍潭街","SECT":" ","MAREA":" ","LANE":" ","ALLEY":" ","HOUSE_NO":"１２號","E_COORD97":174723.48000000001,"N_COORD97":2547731.3100000001,"ADDRESS":"龍潭街１２號","OBJECTID":571503},"geometry":{"x":174723.48000000231,"y":2547731.3100000005}},{"attributes":{"ID":571531,"DIS_CODE":0,"TOWNNAME":"永康區","LI":"龍潭里","LIN":"29鄰","STREET":"龍潭街","SECT":" ","MAREA":" ","LANE":" ","ALLEY":" ","HOUSE_NO":"２４號","E_COORD97":174735.09,"N_COORD97":2547757.5299999998,"ADDRESS":"龍潭街２４號","OBJECTID":571504},"geometry":{"x":174735.08999999985,"y":2547757.5300000012}},{"attributes":{"ID":571532,"DIS_CODE":0,"TOWNNAME":"仁德區","LI":"大甲里","LIN":"3鄰","STREET":"行大一街","SECT":" ","MAREA":" ","LANE":" ","ALLEY":" ","HOUSE_NO":"１３０號","E_COORD97":169906.67000000001,"N_COORD97":2534997.9900000002,"ADDRESS":"行大一街１３０號","OBJECTID":571505},"geometry":{"x":169906.66999999993,"y":2534997.9900000002}},{"attributes":{"ID":571533,"DIS_CODE":0,"TOWNNAME":"仁德區","LI":"大甲里","LIN":"24鄰","STREET":"行大二街","SECT":" ","MAREA":" ","LANE":" ","ALLEY":" ","HOUSE_NO":"１０號","E_COORD97":169718.35000000001,"N_COORD97":2535364,"ADDRESS":"行大二街１０號","OBJECTID":571506},"geometry":{"x":169718.35000000056,"y":2535364}},{"attributes":{"ID":571534,"DIS_CODE":0,"TOWNNAME":"仁德區","LI":"太子里","LIN":"27鄰","STREET":"中正路","SECT":"三段","MAREA":" ","LANE":" ","ALLEY":" ","HOUSE_NO":"６９９號","E_COORD97":173675.98999999999,"N_COORD97":2543495.77,"ADDRESS":"中正路三段６９９號","OBJECTID":571507},"geometry":{"x":173675.99000000115,"y":2543495.7699999996}},{"attributes":{"ID":571535,"DIS_CODE":0,"TOWNNAME":"仁德區","LI":"太子里","LIN":"29鄰","STREET":"大發路","SECT":" ","MAREA":" ","LANE":" ","ALLEY":" ","HOUSE_NO":"１３１號","E_COORD97":173235.34,"N_COORD97":2542940.5099999998,"ADDRESS":"大發路１３１號","OBJECTID":571508},"geometry":{"x":173235.34000000171,"y":2542940.5100000016}},{"attributes":{"ID":571536,"DIS_CODE":0,"TOWNNAME":"仁德區","LI":"仁義里","LIN":"2鄰","STREET":"義林二街","SECT":" ","MAREA":" ","LANE":" ","ALLEY":" ","HOUSE_NO":"７９號","E_COORD97":174113.01000000001,"N_COORD97":2541187.7599999998,"ADDRESS":"義林二街７９號","OBJECTID":571509},"geometry":{"x":174113.01000000071,"y":2541187.7600000035}},{"attributes":{"ID":571537,"DIS_CODE":0,"TOWNNAME":"安南區","LI":"安慶里","LIN":"29鄰","STREET":"長溪路","SECT":"一段","MAREA":" ","LANE":" ","ALLEY":" ","HOUSE_NO":"１４８號","E_COORD97":169049.92999999999,"N_COORD97":2548539.02,"ADDRESS":"長溪路一段１４８號","OBJECTID":571510},"geometry":{"x":169049.93000000063,"y":2548539.0199999996}},{"attributes":{"ID":571538,"DIS_CODE":0,"TOWNNAME":"安南區","LI":"安慶里","LIN":"29鄰","STREET":"長溪路","SECT":"一段","MAREA":" ","LANE":" ","ALLEY":" ","HOUSE_NO":"１５２號","E_COORD97":169047.57999999999,"N_COORD97":2548544.9900000002,"ADDRESS":"長溪路一段１５２號","OBJECTID":571511},"geometry":{"x":169047.58000000101,"y":2548544.9900000021}},{"attributes":{"ID":571539,"DIS_CODE":0,"TOWNNAME":"安南區","LI":"安慶里","LIN":"29鄰","STREET":"長溪路","SECT":"一段","MAREA":" ","LANE":" ","ALLEY":" ","HOUSE_NO":"１５４號","E_COORD97":169044.04999999999,"N_COORD97":2548547.2400000002,"ADDRESS":"長溪路一段１５４號","OBJECTID":571512},"geometry":{"x":169044.05000000075,"y":2548547.2400000021}},{"attributes":{"ID":571540,"DIS_CODE":0,"TOWNNAME":"安南區","LI":"安慶里","LIN":"29鄰","STREET":"長溪路","SECT":"一段","MAREA":" ","LANE":" ","ALLEY":" ","HOUSE_NO":"１５６號","E_COORD97":169041.60999999999,"N_COORD97":2548550.8599999999,"ADDRESS":"長溪路一段１５６號","OBJECTID":571513},"geometry":{"x":169041.61000000034,"y":2548550.8600000031}},{"attributes":{"ID":571541,"DIS_CODE":0,"TOWNNAME":"安南區","LI":"安慶里","LIN":"29鄰","STREET":"長溪路","SECT":"一段","MAREA":" ","LANE":" ","ALLEY":" ","HOUSE_NO":"１５８號","E_COORD97":169038.07999999999,"N_COORD97":2548552.9100000001,"ADDRESS":"長溪路一段１５８號","OBJECTID":571514},"geometry":{"x":169038.08000000007,"y":2548552.9100000001}},{"attributes":{"ID":571542,"DIS_CODE":0,"TOWNNAME":"安南區","LI":"安慶里","LIN":"29鄰","STREET":"長溪路","SECT":"一段","MAREA":" ","LANE":" ","ALLEY":" ","HOUSE_NO":"１６０號","E_COORD97":169033.87,"N_COORD97":2548555.3599999999,"ADDRESS":"長溪路一段１６０號","OBJECTID":571515},"geometry":{"x":169033.87000000104,"y":2548555.3600000013}},{"attributes":{"ID":571543,"DIS_CODE":0,"TOWNNAME":"安南區","LI":"安慶里","LIN":"29鄰","STREET":"長溪路","SECT":"一段","MAREA":" ","LANE":" ","ALLEY":" ","HOUSE_NO":"１６２號","E_COORD97":169031.03,"N_COORD97":2548558.98,"ADDRESS":"長溪路一段１６２號","OBJECTID":571516},"geometry":{"x":169031.03000000119,"y":2548558.9800000023}},{"attributes":{"ID":571544,"DIS_CODE":0,"TOWNNAME":"安南區","LI":"安慶里","LIN":"29鄰","STREET":"長溪路","SECT":"一段","MAREA":" ","LANE":" ","ALLEY":" ","HOUSE_NO":"１６４號","E_COORD97":169028.48999999999,"N_COORD97":2548562.6000000001,"ADDRESS":"長溪路一段１６４號","OBJECTID":571517},"geometry":{"x":169028.49000000022,"y":2548562.5999999996}},{"attributes":{"ID":571545,"DIS_CODE":0,"TOWNNAME":"安南區","LI":"安慶里","LIN":"29鄰","STREET":"長溪路","SECT":"一段","MAREA":" ","LANE":" ","ALLEY":" ","HOUSE_NO":"１６６號","E_COORD97":169025.48000000001,"N_COORD97":2548565.7200000002,"ADDRESS":"長溪路一段１６６號","OBJECTID":571518},"geometry":{"x":169025.48000000045,"y":2548565.7200000007}},{"attributes":{"ID":571546,"DIS_CODE":0,"TOWNNAME":"仁德區","LI":"仁義里","LIN":"4鄰","STREET":"仁義四街","SECT":" ","MAREA":" ","LANE":" ","ALLEY":" ","HOUSE_NO":"６１號","E_COORD97":173842.23999999999,"N_COORD97":2541062.27,"ADDRESS":"仁義四街６１號","OBJECTID":571519},"geometry":{"x":173842.24000000115,"y":2541062.2700000033}},{"attributes":{"ID":571547,"DIS_CODE":0,"TOWNNAME":"東區","LI":"忠孝里","LIN":"29鄰","STREET":"崇明九街","SECT":" ","MAREA":" ","LANE":" ","ALLEY":" ","HOUSE_NO":"１０號","E_COORD97":169997.14000000001,"N_COORD97":2541763.9399999999,"ADDRESS":"崇明九街１０號","OBJECTID":571520},"geometry":{"x":169997.14000000153,"y":2541763.9400000013}},{"attributes":{"ID":571548,"DIS_CODE":0,"TOWNNAME":"東區","LI":"忠孝里","LIN":"29鄰","STREET":"崇明九街","SECT":" ","MAREA":" ","LANE":" ","ALLEY":" ","HOUSE_NO":"１１號","E_COORD97":169982.66,"N_COORD97":2541781.9300000002,"ADDRESS":"崇明九街１１號","OBJECTID":571521},"geometry":{"x":169982.66000000108,"y":2541781.9299999997}},{"attributes":{"ID":571549,"DIS_CODE":0,"TOWNNAME":"東區","LI":"忠孝里","LIN":"29鄰","STREET":"崇明九街","SECT":" ","MAREA":" ","LANE":" ","ALLEY":" ","HOUSE_NO":"１２號","E_COORD97":170001.03,"N_COORD97":2541766.4399999999,"ADDRESS":"崇明九街１２號","OBJECTID":571522},"geometry":{"x":170001.03000000026,"y":2541766.4400000013}},{"attributes":{"ID":571550,"DIS_CODE":0,"TOWNNAME":"東區","LI":"忠孝里","LIN":"29鄰","STREET":"崇明九街","SECT":" ","MAREA":" ","LANE":" ","ALLEY":" ","HOUSE_NO":"１３號","E_COORD97":169986.22,"N_COORD97":2541784.02,"ADDRESS":"崇明九街１３號","OBJECTID":571523},"geometry":{"x":169986.21999999974,"y":2541784.0200000014}},{"attributes":{"ID":571551,"DIS_CODE":0,"TOWNNAME":"東區","LI":"忠孝里","LIN":"29鄰","STREET":"崇明九街","SECT":" ","MAREA":" ","LANE":" ","ALLEY":" ","HOUSE_NO":"１４號","E_COORD97":170005.69,"N_COORD97":2541769.2000000002,"ADDRESS":"崇明九街１４號","OBJECTID":571524},"geometry":{"x":170005.69000000041,"y":2541769.1999999993}},{"attributes":{"ID":571552,"DIS_CODE":0,"TOWNNAME":"東區","LI":"忠孝里","LIN":"29鄰","STREET":"崇明九街","SECT":" ","MAREA":" ","LANE":" ","ALLEY":" ","HOUSE_NO":"１６號","E_COORD97":170009.67000000001,"N_COORD97":2541771.96,"ADDRESS":"崇明九街１６號","OBJECTID":571525},"geometry":{"x":170009.67000000086,"y":2541771.9600000028}},{"attributes":{"ID":571553,"DIS_CODE":0,"TOWNNAME":"東區","LI":"忠孝里","LIN":"29鄰","STREET":"崇明九街","SECT":" ","MAREA":" ","LANE":" ","ALLEY":" ","HOUSE_NO":"１８號","E_COORD97":170013.29000000001,"N_COORD97":2541773.1699999999,"ADDRESS":"崇明九街１８號","OBJECTID":571526},"geometry":{"x":170013.28999999911,"y":2541773.1700000018}},{"attributes":{"ID":571554,"DIS_CODE":0,"TOWNNAME":"東區","LI":"忠孝里","LIN":"29鄰","STREET":"崇明九街","SECT":" ","MAREA":" ","LANE":" ","ALLEY":" ","HOUSE_NO":"２０號","E_COORD97":170016.87,"N_COORD97":2541776.2599999998,"ADDRESS":"崇明九街２０號","OBJECTID":571527},"geometry":{"x":170016.87000000104,"y":2541776.2599999998}},{"attributes":{"ID":571555,"DIS_CODE":0,"TOWNNAME":"東區","LI":"忠孝里","LIN":"29鄰","STREET":"崇明九街","SECT":" ","MAREA":" ","LANE":" ","ALLEY":" ","HOUSE_NO":"２２號","E_COORD97":170021.01999999999,"N_COORD97":2541778.5099999998,"ADDRESS":"崇明九街２２號","OBJECTID":571528},"geometry":{"x":170021.01999999955,"y":2541778.5099999998}},{"attributes":{"ID":571556,"DIS_CODE":0,"TOWNNAME":"東區","LI":"忠孝里","LIN":"29鄰","STREET":"崇明九街","SECT":" ","MAREA":" ","LANE":" ","ALLEY":" ","HOUSE_NO":"２４號","E_COORD97":170023.51999999999,"N_COORD97":2541780.3999999999,"ADDRESS":"崇明九街２４號","OBJECTID":571529},"geometry":{"x":170023.52000000048,"y":2541780.4000000004}},{"attributes":{"ID":571557,"DIS_CODE":0,"TOWNNAME":"仁德區","LI":"仁義里","LIN":"17鄰","STREET":"義林九街","SECT":" ","MAREA":" ","LANE":" ","ALLEY":" ","HOUSE_NO":"６３號","E_COORD97":174243.01000000001,"N_COORD97":2541326.0099999998,"ADDRESS":"義林九街６３號","OBJECTID":571530},"geometry":{"x":174243.01000000071,"y":2541326.0100000016}},{"attributes":{"ID":571558,"DIS_CODE":0,"TOWNNAME":"仁德區","LI":"仁義里","LIN":"1鄰","STREET":"義林五街","SECT":" ","MAREA":" ","LANE":" ","ALLEY":" ","HOUSE_NO":"３８號","E_COORD97":174359.60000000001,"N_COORD97":2541027.27,"ADDRESS":"義林五街３８號","OBJECTID":571531},"geometry":{"x":174359.60000000056,"y":2541027.2699999996}},{"attributes":{"ID":571559,"DIS_CODE":0,"TOWNNAME":"東區","LI":"忠孝里","LIN":"29鄰","STREET":"崇明九街","SECT":" ","MAREA":" ","LANE":" ","ALLEY":" ","HOUSE_NO":"２６號","E_COORD97":170027.67000000001,"N_COORD97":2541782.73,"ADDRESS":"崇明九街２６號","OBJECTID":571532},"geometry":{"x":170027.67000000179,"y":2541782.7300000023}},{"attributes":{"ID":571560,"DIS_CODE":0,"TOWNNAME":"東區","LI":"忠孝里","LIN":"29鄰","STREET":"崇明九街","SECT":" ","MAREA":" ","LANE":" ","ALLEY":" ","HOUSE_NO":"２８號","E_COORD97":170031.03,"N_COORD97":2541784.8900000001,"ADDRESS":"崇明九街２８號","OBJECTID":571533},"geometry":{"x":170031.03000000119,"y":2541784.8900000025}},{"attributes":{"ID":571561,"DIS_CODE":0,"TOWNNAME":"東區","LI":"忠孝里","LIN":"29鄰","STREET":"崇明九街","SECT":" ","MAREA":" ","LANE":" ","ALLEY":" ","HOUSE_NO":"２號","E_COORD97":169978.48000000001,"N_COORD97":2541754.02,"ADDRESS":"崇明九街２號","OBJECTID":571534},"geometry":{"x":169978.47999999952,"y":2541754.0199999996}},{"attributes":{"ID":571562,"DIS_CODE":0,"TOWNNAME":"東區","LI":"忠孝里","LIN":"29鄰","STREET":"崇明九街","SECT":" ","MAREA":" ","LANE":" ","ALLEY":" ","HOUSE_NO":"３０號","E_COORD97":170034.32000000001,"N_COORD97":2541787.1299999999,"ADDRESS":"崇明九街３０號","OBJECTID":571535},"geometry":{"x":170034.32000000123,"y":2541787.129999999}},{"attributes":{"ID":571563,"DIS_CODE":0,"TOWNNAME":"東區","LI":"忠孝里","LIN":"29鄰","STREET":"崇明九街","SECT":" ","MAREA":" ","LANE":" ","ALLEY":" ","HOUSE_NO":"３４號","E_COORD97":170041.45000000001,"N_COORD97":2541790.8700000001,"ADDRESS":"崇明九街３４號","OBJECTID":571536},"geometry":{"x":170041.45000000112,"y":2541790.870000001}},{"attributes":{"ID":571564,"DIS_CODE":0,"TOWNNAME":"東區","LI":"忠孝里","LIN":"29鄰","STREET":"崇明九街","SECT":" ","MAREA":" ","LANE":" ","ALLEY":" ","HOUSE_NO":"３８號","E_COORD97":170048.87,"N_COORD97":2541795.8799999999,"ADDRESS":"崇明九街３８號","OBJECTID":571537},"geometry":{"x":170048.87000000104,"y":2541795.879999999}},{"attributes":{"ID":571565,"DIS_CODE":0,"TOWNNAME":"東區","LI":"忠孝里","LIN":"29鄰","STREET":"崇明九街","SECT":" ","MAREA":" ","LANE":" ","ALLEY":" ","HOUSE_NO":"４０號","E_COORD97":170055.44,"N_COORD97":2541799.5,"ADDRESS":"崇明九街４０號","OBJECTID":571538},"geometry":{"x":170055.44000000134,"y":2541799.5}},{"attributes":{"ID":571566,"DIS_CODE":0,"TOWNNAME":"東區","LI":"忠孝里","LIN":"29鄰","STREET":"崇明九街","SECT":" ","MAREA":" ","LANE":" ","ALLEY":" ","HOUSE_NO":"４２號","E_COORD97":170059.67000000001,"N_COORD97":2541801.6499999999,"ADDRESS":"崇明九街４２號","OBJECTID":571539},"geometry":{"x":170059.66999999993,"y":2541801.6500000004}},{"attributes":{"ID":571567,"DIS_CODE":0,"TOWNNAME":"東區","LI":"忠孝里","LIN":"29鄰","STREET":"崇明九街","SECT":" ","MAREA":" ","LANE":" ","ALLEY":" ","HOUSE_NO":"４６號","E_COORD97":170067.53,"N_COORD97":2541806.7400000002,"ADDRESS":"崇明九街４６號","OBJECTID":571540},"geometry":{"x":170067.53000000026,"y":2541806.7400000021}},{"attributes":{"ID":571568,"DIS_CODE":0,"TOWNNAME":"東區","LI":"忠孝里","LIN":"29鄰","STREET":"崇明九街","SECT":" ","MAREA":" ","LANE":" ","ALLEY":" ","HOUSE_NO":"４８號","E_COORD97":170071.97,"N_COORD97":2541808.8500000001,"ADDRESS":"崇明九街４８號","OBJECTID":571541},"geometry":{"x":170071.97000000067,"y":2541808.8500000015}},{"attributes":{"ID":571569,"DIS_CODE":0,"TOWNNAME":"東區","LI":"忠孝里","LIN":"29鄰","STREET":"崇明九街","SECT":" ","MAREA":" ","LANE":" ","ALLEY":" ","HOUSE_NO":"４號","E_COORD97":169984.35999999999,"N_COORD97":2541758.25,"ADDRESS":"崇明九街４號","OBJECTID":571542},"geometry":{"x":169984.3600000022,"y":2541758.2500000019}},{"attributes":{"ID":571570,"DIS_CODE":0,"TOWNNAME":"東區","LI":"忠孝里","LIN":"29鄰","STREET":"崇明九街","SECT":" ","MAREA":" ","LANE":" ","ALLEY":" ","HOUSE_NO":"５０號","E_COORD97":170075.16,"N_COORD97":2541810.8300000001,"ADDRESS":"崇明九街５０號","OBJECTID":571543},"geometry":{"x":170075.16000000015,"y":2541810.8300000001}},{"attributes":{"ID":571571,"DIS_CODE":0,"TOWNNAME":"東區","LI":"忠孝里","LIN":"29鄰","STREET":"崇明九街","SECT":" ","MAREA":" ","LANE":" ","ALLEY":" ","HOUSE_NO":"５號","E_COORD97":169972.37,"N_COORD97":2541775.2200000002,"ADDRESS":"崇明九街５號","OBJECTID":571544},"geometry":{"x":169972.37000000104,"y":2541775.2200000007}},{"attributes":{"ID":571572,"DIS_CODE":0,"TOWNNAME":"東區","LI":"忠孝里","LIN":"29鄰","STREET":"崇明九街","SECT":" ","MAREA":" ","LANE":" ","ALLEY":" ","HOUSE_NO":"６號","E_COORD97":169989.54000000001,"N_COORD97":2541759.8900000001,"ADDRESS":"崇明九街６號","OBJECTID":571545},"geometry":{"x":169989.53999999911,"y":2541759.8900000006}},{"attributes":{"ID":571573,"DIS_CODE":0,"TOWNNAME":"東區","LI":"忠孝里","LIN":"29鄰","STREET":"崇明九街","SECT":" ","MAREA":" ","LANE":" ","ALLEY":" ","HOUSE_NO":"７號","E_COORD97":169976.35999999999,"N_COORD97":2541777.5299999998,"ADDRESS":"崇明九街７號","OBJECTID":571546},"geometry":{"x":169976.36000000127,"y":2541777.5299999993}},{"attributes":{"ID":571574,"DIS_CODE":0,"TOWNNAME":"東區","LI":"忠孝里","LIN":"29鄰","STREET":"崇明九街","SECT":" ","MAREA":" ","LANE":" ","ALLEY":" ","HOUSE_NO":"８號","E_COORD97":169993.34,"N_COORD97":2541762.04,"ADDRESS":"崇明九街８號","OBJECTID":571547},"geometry":{"x":169993.33999999985,"y":2541762.040000001}},{"attributes":{"ID":571575,"DIS_CODE":0,"TOWNNAME":"東區","LI":"忠孝里","LIN":"29鄰","STREET":"崇明九街","SECT":" ","MAREA":" ","LANE":" ","ALLEY":" ","HOUSE_NO":"９號","E_COORD97":169979.72,"N_COORD97":2541779.6200000001,"ADDRESS":"崇明九街９號","OBJECTID":571548},"geometry":{"x":169979.7200000016,"y":2541779.620000001}},{"attributes":{"ID":571576,"DIS_CODE":0,"TOWNNAME":"東區","LI":"東明里","LIN":"29鄰","STREET":"東寧路","SECT":" ","MAREA":" ","LANE":" ","ALLEY":" ","HOUSE_NO":"１９３號","E_COORD97":170586.14999999999,"N_COORD97":2543496.75,"ADDRESS":"東寧路１９３號","OBJECTID":571549},"geometry":{"x":170586.1500000013,"y":2543496.75}},{"attributes":{"ID":571577,"DIS_CODE":0,"TOWNNAME":"東區","LI":"東明里","LIN":"29鄰","STREET":"東寧路","SECT":" ","MAREA":" ","LANE":" ","ALLEY":" ","HOUSE_NO":"１９５號","E_COORD97":170588.78,"N_COORD97":2543494.73,"ADDRESS":"東寧路１９５號","OBJECTID":571550},"geometry":{"x":170588.78000000119,"y":2543494.7300000023}},{"attributes":{"ID":571578,"DIS_CODE":0,"TOWNNAME":"東區","LI":"東明里","LIN":"29鄰","STREET":"東寧路","SECT":" ","MAREA":" ","LANE":" ","ALLEY":" ","HOUSE_NO":"１９７號","E_COORD97":170594.23999999999,"N_COORD97":2543496.1499999999,"ADDRESS":"東寧路１９７號","OBJECTID":571551},"geometry":{"x":170594.24000000115,"y":2543496.1500000022}},{"attributes":{"ID":571579,"DIS_CODE":0,"TOWNNAME":"善化區","LI":"光文里","LIN":"29鄰","STREET":"中山路","SECT":" ","MAREA":" ","LANE":" ","ALLEY":" ","HOUSE_NO":"３１０號之１","E_COORD97":177748.63,"N_COORD97":2559095.02,"ADDRESS":"中山路３１０號之１","OBJECTID":571552},"geometry":{"x":177748.62999999989,"y":2559095.0200000014}},{"attributes":{"ID":571580,"DIS_CODE":0,"TOWNNAME":"善化區","LI":"光文里","LIN":"29鄰","STREET":"中正路","SECT":" ","MAREA":" ","LANE":" ","ALLEY":" ","HOUSE_NO":"５５０號","E_COORD97":177674.17000000001,"N_COORD97":2559287.25,"ADDRESS":"中正路５５０號","OBJECTID":571553},"geometry":{"x":177674.16999999993,"y":2559287.2500000019}},{"attributes":{"ID":571581,"DIS_CODE":0,"TOWNNAME":"善化區","LI":"光文里","LIN":"29鄰","STREET":"中正路","SECT":" ","MAREA":" ","LANE":" ","ALLEY":" ","HOUSE_NO":"５４０號","E_COORD97":177676.26000000001,"N_COORD97":2559264.75,"ADDRESS":"中正路５４０號","OBJECTID":571554},"geometry":{"x":177676.26000000071,"y":2559264.75}},{"attributes":{"ID":571582,"DIS_CODE":0,"TOWNNAME":"善化區","LI":"光文里","LIN":"29鄰","STREET":"中山路","SECT":" ","MAREA":" ","LANE":" ","ALLEY":" ","HOUSE_NO":"３２０號","E_COORD97":177724.32000000001,"N_COORD97":2559096.5,"ADDRESS":"中山路３２０號","OBJECTID":571555},"geometry":{"x":177724.3200000003,"y":2559096.5}},{"attributes":{"ID":571583,"DIS_CODE":0,"TOWNNAME":"善化區","LI":"光文里","LIN":"29鄰","STREET":"中山路","SECT":" ","MAREA":" ","LANE":" ","ALLEY":" ","HOUSE_NO":"３１６號","E_COORD97":177733.69,"N_COORD97":2559095.25,"ADDRESS":"中山路３１６號","OBJECTID":571556},"geometry":{"x":177733.69000000041,"y":2559095.25}},{"attributes":{"ID":571584,"DIS_CODE":0,"TOWNNAME":"善化區","LI":"光文里","LIN":"29鄰","STREET":"中山路","SECT":" ","MAREA":" ","LANE":" ","ALLEY":" ","HOUSE_NO":"３０６號","E_COORD97":177778.17000000001,"N_COORD97":2559127,"ADDRESS":"中山路３０６號","OBJECTID":571557},"geometry":{"x":177778.17000000086,"y":2559127}},{"attributes":{"ID":571585,"DIS_CODE":0,"TOWNNAME":"善化區","LI":"光文里","LIN":"29鄰","STREET":"中正路","SECT":" ","MAREA":" ","LANE":" ","ALLEY":" ","HOUSE_NO":"５２８號","E_COORD97":177678.14000000001,"N_COORD97":2559237,"ADDRESS":"中正路５２８號","OBJECTID":571558},"geometry":{"x":177678.1400000006,"y":2559237.0000000037}},{"attributes":{"ID":571586,"DIS_CODE":0,"TOWNNAME":"善化區","LI":"光文里","LIN":"29鄰","STREET":"中山路","SECT":" ","MAREA":" ","LANE":" ","ALLEY":" ","HOUSE_NO":"３２８號","E_COORD97":177701.66,"N_COORD97":2559097.5,"ADDRESS":"中山路３２８號","OBJECTID":571559},"geometry":{"x":177701.66000000015,"y":2559097.5}},{"attributes":{"ID":571587,"DIS_CODE":0,"TOWNNAME":"善化區","LI":"光文里","LIN":"29鄰","STREET":"中山路","SECT":" ","MAREA":" ","LANE":" ","ALLEY":" ","HOUSE_NO":"３１２號","E_COORD97":177742.82999999999,"N_COORD97":2559095,"ADDRESS":"中山路３１２號","OBJECTID":571560},"geometry":{"x":177742.83000000007,"y":2559095.0000000019}},{"attributes":{"ID":571588,"DIS_CODE":0,"TOWNNAME":"善化區","LI":"光文里","LIN":"29鄰","STREET":"中山路","SECT":" ","MAREA":" ","LANE":" ","ALLEY":" ","HOUSE_NO":"３３２號","E_COORD97":177690.89999999999,"N_COORD97":2559097.75,"ADDRESS":"中山路３３２號","OBJECTID":571561},"geometry":{"x":177690.9000000013,"y":2559097.7500000019}},{"attributes":{"ID":571589,"DIS_CODE":0,"TOWNNAME":"善化區","LI":"光文里","LIN":"29鄰","STREET":"中正路","SECT":" ","MAREA":" ","LANE":" ","ALLEY":" ","HOUSE_NO":"６３２號之１","E_COORD97":177685.32999999999,"N_COORD97":2559446.52,"ADDRESS":"中正路６３２號之１","OBJECTID":571562},"geometry":{"x":177685.33000000007,"y":2559446.5200000033}},{"attributes":{"ID":571590,"DIS_CODE":0,"TOWNNAME":"善化區","LI":"光文里","LIN":"29鄰","STREET":"中山路","SECT":" ","MAREA":" ","LANE":" ","ALLEY":" ","HOUSE_NO":"３１４號","E_COORD97":177738.03,"N_COORD97":2559095,"ADDRESS":"中山路３１４號","OBJECTID":571563},"geometry":{"x":177738.03000000026,"y":2559095.0000000019}},{"attributes":{"ID":571591,"DIS_CODE":0,"TOWNNAME":"善化區","LI":"光文里","LIN":"29鄰","STREET":"中山路","SECT":" ","MAREA":" ","LANE":" ","ALLEY":" ","HOUSE_NO":"３２０之１號","E_COORD97":177720.79999999999,"N_COORD97":2559097.02,"ADDRESS":"中山路３２０之１號","OBJECTID":571564},"geometry":{"x":177720.79999999981,"y":2559097.0199999977}},{"attributes":{"ID":571592,"DIS_CODE":0,"TOWNNAME":"善化區","LI":"光文里","LIN":"29鄰","STREET":"中正路","SECT":" ","MAREA":" ","LANE":" ","ALLEY":" ","HOUSE_NO":"５４２號","E_COORD97":177676.06,"N_COORD97":2559269.25,"ADDRESS":"中正路５４２號","OBJECTID":571565},"geometry":{"x":177676.05999999959,"y":2559269.2500000037}},{"attributes":{"ID":571593,"DIS_CODE":0,"TOWNNAME":"永康區","LI":"復華里","LIN":"29鄰","STREET":"復華八街","SECT":" ","MAREA":" ","LANE":" ","ALLEY":" ","HOUSE_NO":"３７號","E_COORD97":172705.06,"N_COORD97":2546224.2799999998,"ADDRESS":"復華八街３７號","OBJECTID":571566},"geometry":{"x":172705.06000000052,"y":2546224.2799999993}},{"attributes":{"ID":571594,"DIS_CODE":0,"TOWNNAME":"永康區","LI":"復華里","LIN":"29鄰","STREET":"復華八街","SECT":" ","MAREA":" ","LANE":" ","ALLEY":" ","HOUSE_NO":"２５號","E_COORD97":172690.04000000001,"N_COORD97":2546199.0299999998,"ADDRESS":"復華八街２５號","OBJECTID":571567},"geometry":{"x":172690.0400000019,"y":2546199.0299999993}},{"attributes":{"ID":571595,"DIS_CODE":0,"TOWNNAME":"永康區","LI":"復華里","LIN":"29鄰","STREET":"復華八街","SECT":" ","MAREA":" ","LANE":" ","ALLEY":" ","HOUSE_NO":"２１號","E_COORD97":172685.13,"N_COORD97":2546190.27,"ADDRESS":"復華八街２１號","OBJECTID":571568},"geometry":{"x":172685.12999999989,"y":2546190.2699999996}},{"attributes":{"ID":571596,"DIS_CODE":0,"TOWNNAME":"永康區","LI":"復華里","LIN":"29鄰","STREET":"復華八街","SECT":" ","MAREA":" ","LANE":" ","ALLEY":" ","HOUSE_NO":"１５號","E_COORD97":172677.42999999999,"N_COORD97":2546177.77,"ADDRESS":"復華八街１５號","OBJECTID":571569},"geometry":{"x":172677.43000000063,"y":2546177.7699999996}},{"attributes":{"ID":571597,"DIS_CODE":0,"TOWNNAME":"永康區","LI":"復華里","LIN":"29鄰","STREET":"復華八街","SECT":" ","MAREA":" ","LANE":" ","ALLEY":" ","HOUSE_NO":"２９號","E_COORD97":172695.17999999999,"N_COORD97":2546207.7799999998,"ADDRESS":"復華八街２９號","OBJECTID":571570},"geometry":{"x":172695.1799999997,"y":2546207.7799999993}},{"attributes":{"ID":571598,"DIS_CODE":0,"TOWNNAME":"永康區","LI":"復國里","LIN":"29鄰","STREET":"復華二街","SECT":" ","MAREA":" ","LANE":" ","ALLEY":" ","HOUSE_NO":"２７號","E_COORD97":172570.42999999999,"N_COORD97":2545346.02,"ADDRESS":"復華二街２７號","OBJECTID":571571},"geometry":{"x":172570.43000000063,"y":2545346.0200000033}},{"attributes":{"ID":571599,"DIS_CODE":0,"TOWNNAME":"仁德區","LI":"仁德里","LIN":"19鄰","STREET":"民安路","SECT":"一段","MAREA":" ","LANE":" ","ALLEY":" ","HOUSE_NO":"１５７號","E_COORD97":172277.79999999999,"N_COORD97":2539913.3199999998,"ADDRESS":"民安路一段１５７號","OBJECTID":571572},"geometry":{"x":172277.80000000168,"y":2539913.320000004}},{"attributes":{"ID":571600,"DIS_CODE":0,"TOWNNAME":"永康區","LI":"復華里","LIN":"29鄰","STREET":"復華八街","SECT":" ","MAREA":" ","LANE":" ","ALLEY":" ","HOUSE_NO":"９號","E_COORD97":172661.37,"N_COORD97":2546154.52,"ADDRESS":"復華八街９號","OBJECTID":571573},"geometry":{"x":172661.37000000104,"y":2546154.5199999996}},{"attributes":{"ID":571601,"DIS_CODE":0,"TOWNNAME":"永康區","LI":"復華里","LIN":"29鄰","STREET":"復華八街","SECT":" ","MAREA":" ","LANE":" ","ALLEY":" ","HOUSE_NO":"１號","E_COORD97":172648.98000000001,"N_COORD97":2546141.0299999998,"ADDRESS":"復華八街１號","OBJECTID":571574},"geometry":{"x":172648.98000000138,"y":2546141.0299999993}},{"attributes":{"ID":571602,"DIS_CODE":0,"TOWNNAME":"永康區","LI":"復華里","LIN":"29鄰","STREET":"復華八街","SECT":" ","MAREA":" ","LANE":" ","ALLEY":" ","HOUSE_NO":"３號","E_COORD97":172652.66,"N_COORD97":2546143.7799999998,"ADDRESS":"復華八街３號","OBJECTID":571575},"geometry":{"x":172652.66000000108,"y":2546143.7799999975}},{"attributes":{"ID":571603,"DIS_CODE":0,"TOWNNAME":"永康區","LI":"復華里","LIN":"29鄰","STREET":"復華八街","SECT":" ","MAREA":" ","LANE":" ","ALLEY":" ","HOUSE_NO":"３１號","E_COORD97":172697.82999999999,"N_COORD97":2546212.2799999998,"ADDRESS":"復華八街３１號","OBJECTID":571576},"geometry":{"x":172697.83000000007,"y":2546212.2800000012}},{"attributes":{"ID":571604,"DIS_CODE":0,"TOWNNAME":"永康區","LI":"\u25A0行里","LIN":"29鄰","STREET":"中正一街","SECT":" ","MAREA":" ","LANE":" ","ALLEY":" ","HOUSE_NO":"５３號","E_COORD97":172739.69,"N_COORD97":2548536.5600000001,"ADDRESS":"中正一街５３號","OBJECTID":571577},"geometry":{"x":172739.69000000041,"y":2548536.5600000005}},{"attributes":{"ID":571605,"DIS_CODE":0,"TOWNNAME":"永康區","LI":"龍潭里","LIN":"29鄰","STREET":"中山北路","SECT":" ","MAREA":" ","LANE":" ","ALLEY":" ","HOUSE_NO":"３４９號","E_COORD97":174780.62,"N_COORD97":2547700.8300000001,"ADDRESS":"中山北路３４９號","OBJECTID":571578},"geometry":{"x":174780.62000000011,"y":2547700.8300000038}},{"attributes":{"ID":571606,"DIS_CODE":0,"TOWNNAME":"永康區","LI":"西勢里","LIN":"29鄰","STREET":"西勢路","SECT":" ","MAREA":" ","LANE":" ","ALLEY":" ","HOUSE_NO":"１７２號","E_COORD97":175892.04999999999,"N_COORD97":2546770.2799999998,"ADDRESS":"西勢路１７２號","OBJECTID":571579},"geometry":{"x":175892.05000000168,"y":2546770.2799999993}},{"attributes":{"ID":571607,"DIS_CODE":0,"TOWNNAME":"永康區","LI":"大橋里","LIN":"29鄰","STREET":"大橋一街","SECT":" ","MAREA":" ","LANE":" ","ALLEY":" ","HOUSE_NO":"２４６號","E_COORD97":171063.37,"N_COORD97":2546499.7400000002,"ADDRESS":"大橋一街２４６號","OBJECTID":571580},"geometry":{"x":171063.37000000011,"y":2546499.7400000002}},{"attributes":{"ID":571608,"DIS_CODE":0,"TOWNNAME":"永康區","LI":"龍潭里","LIN":"29鄰","STREET":"中山北路","SECT":" ","MAREA":" ","LANE":" ","ALLEY":" ","HOUSE_NO":"３４３號","E_COORD97":174743.23000000001,"N_COORD97":2547695.7599999998,"ADDRESS":"中山北路３４３號","OBJECTID":571581},"geometry":{"x":174743.23000000045,"y":2547695.7599999998}},{"attributes":{"ID":571609,"DIS_CODE":0,"TOWNNAME":"永康區","LI":"南灣里","LIN":"29鄰","STREET":"大安街","SECT":" ","MAREA":" ","LANE":" ","ALLEY":" ","HOUSE_NO":"６６號","E_COORD97":174489.57999999999,"N_COORD97":2544897.0499999998,"ADDRESS":"大安街６６號","OBJECTID":571582},"geometry":{"x":174489.58000000007,"y":2544897.0500000026}},{"attributes":{"ID":571610,"DIS_CODE":0,"TOWNNAME":"永康區","LI":"東灣里","LIN":"29鄰","STREET":"民族路","SECT":" ","MAREA":" ","LANE":" ","ALLEY":" ","HOUSE_NO":"２２９號","E_COORD97":175183.17999999999,"N_COORD97":2544972.3300000001,"ADDRESS":"民族路２２９號","OBJECTID":571583},"geometry":{"x":175183.18000000063,"y":2544972.3300000019}},{"attributes":{"ID":571611,"DIS_CODE":0,"TOWNNAME":"永康區","LI":"\u25A0行里","LIN":"29鄰","STREET":"竹林街","SECT":" ","MAREA":" ","LANE":" ","ALLEY":" ","HOUSE_NO":"１８號","E_COORD97":172762.13,"N_COORD97":2548972.4900000002,"ADDRESS":"竹林街１８號","OBJECTID":571584},"geometry":{"x":172762.13000000175,"y":2548972.4900000021}},{"attributes":{"ID":571612,"DIS_CODE":0,"TOWNNAME":"永康區","LI":"東灣里","LIN":"29鄰","STREET":"民族路","SECT":" ","MAREA":" ","LANE":" ","ALLEY":" ","HOUSE_NO":"２７１號","E_COORD97":175121.89000000001,"N_COORD97":2545043.4500000002,"ADDRESS":"民族路２７１號","OBJECTID":571585},"geometry":{"x":175121.8900000006,"y":2545043.4499999993}},{"attributes":{"ID":571613,"DIS_CODE":0,"TOWNNAME":"永康區","LI":"二王里","LIN":"29鄰","STREET":"中山南路","SECT":" ","MAREA":" ","LANE":" ","ALLEY":" ","HOUSE_NO":"５６４號","E_COORD97":172210.04000000001,"N_COORD97":2546566.6800000002,"ADDRESS":"中山南路５６４號","OBJECTID":571586},"geometry":{"x":172210.04000000004,"y":2546566.6800000016}},{"attributes":{"ID":571614,"DIS_CODE":0,"TOWNNAME":"仁德區","LI":"成功里","LIN":"13鄰","STREET":"全福路","SECT":" ","MAREA":" ","LANE":" ","ALLEY":" ","HOUSE_NO":"１８號","E_COORD97":170855.62,"N_COORD97":2539306,"ADDRESS":"全福路１８號","OBJECTID":571587},"geometry":{"x":170855.62000000104,"y":2539306.0000000019}},{"attributes":{"ID":571615,"DIS_CODE":0,"TOWNNAME":"仁德區","LI":"保安里","LIN":"12鄰","STREET":"永德路","SECT":" ","MAREA":" ","LANE":" ","ALLEY":" ","HOUSE_NO":"２１號","E_COORD97":172364.62,"N_COORD97":2535843.27,"ADDRESS":"永德路２１號","OBJECTID":571588},"geometry":{"x":172364.62000000104,"y":2535843.2699999996}},{"attributes":{"ID":571616,"DIS_CODE":0,"TOWNNAME":"永康區","LI":"二王里","LIN":"29鄰","STREET":"中山南路","SECT":" ","MAREA":" ","LANE":" ","ALLEY":" ","HOUSE_NO":"５５２號","E_COORD97":172188.23999999999,"N_COORD97":2546551.1899999999,"ADDRESS":"中山南路５５２號","OBJECTID":571589},"geometry":{"x":172188.24000000022,"y":2546551.1899999995}},{"attributes":{"ID":571617,"DIS_CODE":0,"TOWNNAME":"永康區","LI":"二王里","LIN":"29鄰","STREET":"中山南路","SECT":" ","MAREA":" ","LANE":" ","ALLEY":" ","HOUSE_NO":"５５４號","E_COORD97":172191.89999999999,"N_COORD97":2546553.6899999999,"ADDRESS":"中山南路５５４號","OBJECTID":571590},"geometry":{"x":172191.9000000013,"y":2546553.6899999995}},{"attributes":{"ID":571618,"DIS_CODE":0,"TOWNNAME":"永康區","LI":"二王里","LIN":"29鄰","STREET":"中山南路","SECT":" ","MAREA":" ","LANE":" ","ALLEY":" ","HOUSE_NO":"５４６號","E_COORD97":172176.60999999999,"N_COORD97":2546543.1899999999,"ADDRESS":"中山南路５４６號","OBJECTID":571591},"geometry":{"x":172176.61000000127,"y":2546543.1899999995}},{"attributes":{"ID":571619,"DIS_CODE":0,"TOWNNAME":"永康區","LI":"二王里","LIN":"29鄰","STREET":"中山南路","SECT":" ","MAREA":" ","LANE":" ","ALLEY":" ","HOUSE_NO":"５６２號","E_COORD97":172206.54999999999,"N_COORD97":2546564.1800000002,"ADDRESS":"中山南路５６２號","OBJECTID":571592},"geometry":{"x":172206.54999999888,"y":2546564.1799999997}},{"attributes":{"ID":571620,"DIS_CODE":0,"TOWNNAME":"永康區","LI":"二王里","LIN":"29鄰","STREET":"中山南路","SECT":" ","MAREA":" ","LANE":" ","ALLEY":" ","HOUSE_NO":"５６０號","E_COORD97":172202.89000000001,"N_COORD97":2546561.4300000002,"ADDRESS":"中山南路５６０號","OBJECTID":571593},"geometry":{"x":172202.8900000006,"y":2546561.4300000016}},{"attributes":{"ID":571621,"DIS_CODE":0,"TOWNNAME":"永康區","LI":"二王里","LIN":"29鄰","STREET":"中山南路","SECT":" ","MAREA":" ","LANE":" ","ALLEY":" ","HOUSE_NO":"５５６號","E_COORD97":172195.54000000001,"N_COORD97":2546556.4399999999,"ADDRESS":"中山南路５５６號","OBJECTID":571594},"geometry":{"x":172195.54000000097,"y":2546556.4399999995}},{"attributes":{"ID":571622,"DIS_CODE":0,"TOWNNAME":"永康區","LI":"二王里","LIN":"29鄰","STREET":"中山南路","SECT":" ","MAREA":" ","LANE":" ","ALLEY":" ","HOUSE_NO":"５５８號","E_COORD97":172199.35000000001,"N_COORD97":2546558.6899999999,"ADDRESS":"中山南路５５８號","OBJECTID":571595},"geometry":{"x":172199.35000000149,"y":2546558.6900000013}},{"attributes":{"ID":571623,"DIS_CODE":0,"TOWNNAME":"永康區","LI":"二王里","LIN":"29鄰","STREET":"中山南路","SECT":" ","MAREA":" ","LANE":" ","ALLEY":" ","HOUSE_NO":"５６６號","E_COORD97":172213.73999999999,"N_COORD97":2546569.4300000002,"ADDRESS":"中山南路５６６號","OBJECTID":571596},"geometry":{"x":172213.74000000022,"y":2546569.4299999997}},{"attributes":{"ID":571624,"DIS_CODE":0,"TOWNNAME":"永康區","LI":"二王里","LIN":"29鄰","STREET":"中山南路","SECT":" ","MAREA":" ","LANE":" ","ALLEY":" ","HOUSE_NO":"５５０號","E_COORD97":172184.72,"N_COORD97":2546548.4399999999,"ADDRESS":"中山南路５５０號","OBJECTID":571597},"geometry":{"x":172184.71999999974,"y":2546548.4399999995}},{"attributes":{"ID":571625,"DIS_CODE":0,"TOWNNAME":"永康區","LI":"埔園里","LIN":"29鄰","STREET":"埔東街","SECT":" ","MAREA":" ","LANE":" ","ALLEY":" ","HOUSE_NO":"１２號之１","E_COORD97":173811.76000000001,"N_COORD97":2548056.29,"ADDRESS":"埔東街１２號之１","OBJECTID":571598},"geometry":{"x":173811.75999999978,"y":2548056.290000001}},{"attributes":{"ID":571626,"DIS_CODE":0,"TOWNNAME":"永康區","LI":"北灣里","LIN":"29鄰","STREET":"文賢街","SECT":" ","MAREA":" ","LANE":" ","ALLEY":" ","HOUSE_NO":"８６號","E_COORD97":175370.29000000001,"N_COORD97":2545359.3999999999,"ADDRESS":"文賢街８６號","OBJECTID":571599},"geometry":{"x":175370.2900000019,"y":2545359.4000000022}},{"attributes":{"ID":571627,"DIS_CODE":0,"TOWNNAME":"永康區","LI":"復華里","LIN":"29鄰","STREET":"復華八街","SECT":" ","MAREA":" ","LANE":" ","ALLEY":" ","HOUSE_NO":"１７號","E_COORD97":172680.13,"N_COORD97":2546182.02,"ADDRESS":"復華八街１７號","OBJECTID":571600},"geometry":{"x":172680.12999999989,"y":2546182.0199999996}}]}