{"displayFieldName":"TOWNNAME","fieldAliases":{"ID":"ID","DIS_CODE":"DIS_CODE","TOWNNAME":"TOWNNAME","LI":"LI","LIN":"LIN","STREET":"STREET","SECT":"SECT","MAREA":"MAREA","LANE":"LANE","ALLEY":"ALLEY","HOUSE_NO":"HOUSE_NO","E_COORD97":"E_COORD97","N_COORD97":"N_COORD97","ADDRESS":"ADDRESS","OBJECTID":"OBJECTID"},"geometryType":"esriGeometryPoint","spatialReference":{"wkid":102443,"latestWkid":3826},"fields":[{"name":"ID","type":"esriFieldTypeDouble","alias":"ID"},{"name":"DIS_CODE","type":"esriFieldTypeInteger","alias":"DIS_CODE"},{"name":"TOWNNAME","type":"esriFieldTypeString","alias":"TOWNNAME","length":8},{"name":"LI","type":"esriFieldTypeString","alias":"LI","length":8},{"name":"LIN","type":"esriFieldTypeString","alias":"LIN","length":12},{"name":"STREET","type":"esriFieldTypeString","alias":"STREET","length":20},{"name":"SECT","type":"esriFieldTypeString","alias":"SECT","length":8},{"name":"MAREA","type":"esriFieldTypeString","alias":"MAREA","length":12},{"name":"LANE","type":"esriFieldTypeString","alias":"LANE","length":10},{"name":"ALLEY","type":"esriFieldTypeString","alias":"ALLEY","length":10},{"name":"HOUSE_NO","type":"esriFieldTypeString","alias":"HOUSE_NO","length":20},{"name":"E_COORD97","type":"esriFieldTypeDouble","alias":"E_COORD97"},{"name":"N_COORD97","type":"esriFieldTypeDouble","alias":"N_COORD97"},{"name":"ADDRESS","type":"esriFieldTypeString","alias":"ADDRESS","length":50},{"name":"OBJECTID","type":"esriFieldTypeOID","alias":"OBJECTID"}],"features":[{"attributes":{"ID":436626,"DIS_CODE":0,"TOWNNAME":"南區","LI":"大忠里","LIN":"25鄰","STREET":"公英一街","SECT":" ","MAREA":" ","LANE":"７７巷","ALLEY":" ","HOUSE_NO":"１１號","E_COORD97":169282.89000000001,"N_COORD97":2541118.7200000002,"ADDRESS":"公英一街７７巷１１號","OBJECTID":436601},"geometry":{"x":169282.88999999966,"y":2541118.7200000025}},{"attributes":{"ID":436627,"DIS_CODE":0,"TOWNNAME":"南區","LI":"喜南里","LIN":"12鄰","STREET":"喜樹路","SECT":" ","MAREA":" ","LANE":"２５４巷","ALLEY":" ","HOUSE_NO":"２４號","E_COORD97":165595.64999999999,"N_COORD97":2537895.2999999998,"ADDRESS":"喜樹路２５４巷２４號","OBJECTID":436602},"geometry":{"x":165595.6500000013,"y":2537895.3000000007}},{"attributes":{"ID":436628,"DIS_CODE":0,"TOWNNAME":"北區","LI":"中樓里","LIN":" ","STREET":"開元路","SECT":" ","MAREA":" ","LANE":"９０巷","ALLEY":" ","HOUSE_NO":"４３號","E_COORD97":169808.32999999999,"N_COORD97":2545139.6499999999,"ADDRESS":"開元路９０巷４３號","OBJECTID":436603},"geometry":{"x":169808.33000000101,"y":2545139.6500000022}},{"attributes":{"ID":436629,"DIS_CODE":0,"TOWNNAME":"南區","LI":"喜南里","LIN":"12鄰","STREET":"喜樹路","SECT":" ","MAREA":" ","LANE":"２５４巷","ALLEY":" ","HOUSE_NO":"２４號之１","E_COORD97":165594.54999999999,"N_COORD97":2537898.6000000001,"ADDRESS":"喜樹路２５４巷２４號之１","OBJECTID":436604},"geometry":{"x":165594.54999999981,"y":2537898.5999999996}},{"attributes":{"ID":436630,"DIS_CODE":0,"TOWNNAME":"南區","LI":"喜南里","LIN":"12鄰","STREET":"喜樹路","SECT":" ","MAREA":" ","LANE":"２５４巷","ALLEY":" ","HOUSE_NO":"２４號之２","E_COORD97":165594.54999999999,"N_COORD97":2537901.9100000001,"ADDRESS":"喜樹路２５４巷２４號之２","OBJECTID":436605},"geometry":{"x":165594.54999999981,"y":2537901.9100000039}},{"attributes":{"ID":436631,"DIS_CODE":0,"TOWNNAME":"南區","LI":"喜南里","LIN":"12鄰","STREET":"喜樹路","SECT":" ","MAREA":" ","LANE":"２５４巷","ALLEY":" ","HOUSE_NO":"２４號之３","E_COORD97":165593.44,"N_COORD97":2537906.7599999998,"ADDRESS":"喜樹路２５４巷２４號之３","OBJECTID":436606},"geometry":{"x":165593.44000000227,"y":2537906.7600000016}},{"attributes":{"ID":436632,"DIS_CODE":0,"TOWNNAME":"南區","LI":"喜南里","LIN":"12鄰","STREET":"喜樹路","SECT":" ","MAREA":" ","LANE":"２５４巷","ALLEY":" ","HOUSE_NO":"２６號","E_COORD97":165588.37,"N_COORD97":2537913.5899999999,"ADDRESS":"喜樹路２５４巷２６號","OBJECTID":436607},"geometry":{"x":165588.36999999918,"y":2537913.5899999999}},{"attributes":{"ID":436633,"DIS_CODE":0,"TOWNNAME":"歸仁區","LI":"許厝里","LIN":"25鄰","STREET":"中山路","SECT":"一段","MAREA":" ","LANE":"４４６巷","ALLEY":" ","HOUSE_NO":"１２號","E_COORD97":178061,"N_COORD97":2540774.9300000002,"ADDRESS":"中山路一段４４６巷１２號","OBJECTID":436608},"geometry":{"x":178061.00000000093,"y":2540774.9299999997}},{"attributes":{"ID":436634,"DIS_CODE":0,"TOWNNAME":"歸仁區","LI":"後市里","LIN":"38鄰","STREET":"民權三街","SECT":" ","MAREA":" ","LANE":"１１６巷","ALLEY":" ","HOUSE_NO":"１０號","E_COORD97":177263.42999999999,"N_COORD97":2541033.75,"ADDRESS":"民權三街１１６巷１０號","OBJECTID":436609},"geometry":{"x":177263.4299999997,"y":2541033.7500000019}},{"attributes":{"ID":436635,"DIS_CODE":0,"TOWNNAME":"歸仁區","LI":"看西里","LIN":"18鄰","STREET":"成功五街","SECT":" ","MAREA":" ","LANE":"９５巷","ALLEY":" ","HOUSE_NO":"９號","E_COORD97":178406.76000000001,"N_COORD97":2539959.3599999999,"ADDRESS":"成功五街９５巷９號","OBJECTID":436610},"geometry":{"x":178406.76000000071,"y":2539959.3599999975}},{"attributes":{"ID":436636,"DIS_CODE":0,"TOWNNAME":"歸仁區","LI":"許厝里","LIN":"25鄰","STREET":"信義北路","SECT":" ","MAREA":" ","LANE":"３０巷","ALLEY":" ","HOUSE_NO":"１號","E_COORD97":178020.73000000001,"N_COORD97":2540813.23,"ADDRESS":"信義北路３０巷１號","OBJECTID":436611},"geometry":{"x":178020.73000000138,"y":2540813.2300000023}},{"attributes":{"ID":436637,"DIS_CODE":0,"TOWNNAME":"歸仁區","LI":"許厝里","LIN":"5鄰","STREET":"中山路","SECT":"一段","MAREA":" ","LANE":"３１９巷","ALLEY":" ","HOUSE_NO":"３０號","E_COORD97":178418.56,"N_COORD97":2540561.25,"ADDRESS":"中山路一段３１９巷３０號","OBJECTID":436612},"geometry":{"x":178418.55999999959,"y":2540561.2500000019}},{"attributes":{"ID":436638,"DIS_CODE":0,"TOWNNAME":"歸仁區","LI":"辜厝里","LIN":"50鄰","STREET":"中正十街","SECT":" ","MAREA":" ","LANE":"８巷","ALLEY":" ","HOUSE_NO":"１０號","E_COORD97":177065.06,"N_COORD97":2540196.5,"ADDRESS":"中正十街８巷１０號","OBJECTID":436613},"geometry":{"x":177065.06000000052,"y":2540196.5000000037}},{"attributes":{"ID":436639,"DIS_CODE":0,"TOWNNAME":"歸仁區","LI":"許厝里","LIN":"38鄰","STREET":"公園路","SECT":" ","MAREA":" ","LANE":"６６巷","ALLEY":" ","HOUSE_NO":"１６號","E_COORD97":178047.79000000001,"N_COORD97":2540572.2799999998,"ADDRESS":"公園路６６巷１６號","OBJECTID":436614},"geometry":{"x":178047.79000000004,"y":2540572.2799999993}},{"attributes":{"ID":436640,"DIS_CODE":0,"TOWNNAME":"歸仁區","LI":"崙頂里","LIN":"26鄰","STREET":"成功十街","SECT":" ","MAREA":" ","LANE":"１３３巷","ALLEY":" ","HOUSE_NO":"３９號","E_COORD97":177753.42999999999,"N_COORD97":2539824.25,"ADDRESS":"成功十街１３３巷３９號","OBJECTID":436615},"geometry":{"x":177753.4299999997,"y":2539824.25}},{"attributes":{"ID":436641,"DIS_CODE":0,"TOWNNAME":"歸仁區","LI":"看西里","LIN":"4鄰","STREET":"仁愛南街","SECT":" ","MAREA":" ","LANE":"１０２巷","ALLEY":" ","HOUSE_NO":"５號","E_COORD97":178246.45000000001,"N_COORD97":2540378.29,"ADDRESS":"仁愛南街１０２巷５號","OBJECTID":436616},"geometry":{"x":178246.45000000112,"y":2540378.290000001}},{"attributes":{"ID":436642,"DIS_CODE":0,"TOWNNAME":"歸仁區","LI":"看西里","LIN":"18鄰","STREET":"成功五街","SECT":" ","MAREA":" ","LANE":"８５巷","ALLEY":" ","HOUSE_NO":"１２號","E_COORD97":178392.60999999999,"N_COORD97":2539958.3599999999,"ADDRESS":"成功五街８５巷１２號","OBJECTID":436617},"geometry":{"x":178392.6100000022,"y":2539958.3599999994}},{"attributes":{"ID":436643,"DIS_CODE":0,"TOWNNAME":"歸仁區","LI":"看西里","LIN":"4鄰","STREET":"仁愛南街","SECT":" ","MAREA":" ","LANE":"１０２巷","ALLEY":" ","HOUSE_NO":"１８號","E_COORD97":178221.10000000001,"N_COORD97":2540385.29,"ADDRESS":"仁愛南街１０２巷１８號","OBJECTID":436618},"geometry":{"x":178221.10000000056,"y":2540385.2899999991}},{"attributes":{"ID":436644,"DIS_CODE":0,"TOWNNAME":"歸仁區","LI":"看西里","LIN":"4鄰","STREET":"仁愛南街","SECT":" ","MAREA":" ","LANE":"１０２巷","ALLEY":" ","HOUSE_NO":"３號","E_COORD97":178251.64999999999,"N_COORD97":2540380.29,"ADDRESS":"仁愛南街１０２巷３號","OBJECTID":436619},"geometry":{"x":178251.65000000224,"y":2540380.2900000028}},{"attributes":{"ID":436645,"DIS_CODE":0,"TOWNNAME":"歸仁區","LI":"南保里","LIN":"5鄰","STREET":"文化街","SECT":"三段","MAREA":" ","LANE":"１８巷","ALLEY":" ","HOUSE_NO":"２８之１６號","E_COORD97":176897.97,"N_COORD97":2541336.2599999998,"ADDRESS":"文化街三段１８巷２８之１６號","OBJECTID":436620},"geometry":{"x":176897.97000000067,"y":2541336.2599999998}},{"attributes":{"ID":436646,"DIS_CODE":0,"TOWNNAME":"歸仁區","LI":"崙頂里","LIN":"5鄰","STREET":"信義南路","SECT":" ","MAREA":" ","LANE":"２０２巷","ALLEY":" ","HOUSE_NO":"２４號","E_COORD97":178067.85000000001,"N_COORD97":2540072.6800000002,"ADDRESS":"信義南路２０２巷２４號","OBJECTID":436621},"geometry":{"x":178067.84999999963,"y":2540072.6799999978}},{"attributes":{"ID":436647,"DIS_CODE":0,"TOWNNAME":"歸仁區","LI":"辜厝里","LIN":"46鄰","STREET":"中正八街","SECT":" ","MAREA":" ","LANE":"１１巷","ALLEY":" ","HOUSE_NO":"３號","E_COORD97":177134.59,"N_COORD97":2540268.9500000002,"ADDRESS":"中正八街１１巷３號","OBJECTID":436622},"geometry":{"x":177134.59000000078,"y":2540268.9500000011}},{"attributes":{"ID":436648,"DIS_CODE":0,"TOWNNAME":"歸仁區","LI":"後市里","LIN":"41鄰","STREET":"中山路","SECT":"二段","MAREA":" ","LANE":"１９８巷","ALLEY":" ","HOUSE_NO":"１２號","E_COORD97":177112.28,"N_COORD97":2540905.7400000002,"ADDRESS":"中山路二段１９８巷１２號","OBJECTID":436623},"geometry":{"x":177112.28000000026,"y":2540905.7400000002}},{"attributes":{"ID":436649,"DIS_CODE":0,"TOWNNAME":"歸仁區","LI":"南保里","LIN":"39鄰","STREET":"中山路","SECT":"三段","MAREA":" ","LANE":"１３８巷","ALLEY":" ","HOUSE_NO":"１號","E_COORD97":176653.31,"N_COORD97":2540942.0499999998,"ADDRESS":"中山路三段１３８巷１號","OBJECTID":436624},"geometry":{"x":176653.31000000052,"y":2540942.0500000007}},{"attributes":{"ID":436650,"DIS_CODE":0,"TOWNNAME":"歸仁區","LI":"崙頂里","LIN":"5鄰","STREET":"信義南路","SECT":" ","MAREA":" ","LANE":"２０２巷","ALLEY":" ","HOUSE_NO":"２２號","E_COORD97":178072.95000000001,"N_COORD97":2540073.6800000002,"ADDRESS":"信義南路２０２巷２２號","OBJECTID":436625},"geometry":{"x":178072.94999999925,"y":2540073.6800000016}},{"attributes":{"ID":436651,"DIS_CODE":0,"TOWNNAME":"歸仁區","LI":"看西里","LIN":"4鄰","STREET":"仁愛南街","SECT":" ","MAREA":" ","LANE":"１０２巷","ALLEY":" ","HOUSE_NO":"８號","E_COORD97":178245.54999999999,"N_COORD97":2540395.29,"ADDRESS":"仁愛南街１０２巷８號","OBJECTID":436626},"geometry":{"x":178245.55000000075,"y":2540395.290000001}},{"attributes":{"ID":436652,"DIS_CODE":0,"TOWNNAME":"歸仁區","LI":"看西里","LIN":"4鄰","STREET":"仁愛南街","SECT":" ","MAREA":" ","LANE":"１０２巷","ALLEY":" ","HOUSE_NO":"２號","E_COORD97":178253.75,"N_COORD97":2540399.29,"ADDRESS":"仁愛南街１０２巷２號","OBJECTID":436627},"geometry":{"x":178253.75,"y":2540399.2899999991}},{"attributes":{"ID":436653,"DIS_CODE":0,"TOWNNAME":"歸仁區","LI":"南保里","LIN":"25鄰","STREET":"文化街","SECT":"三段","MAREA":" ","LANE":"１８５巷","ALLEY":" ","HOUSE_NO":"１０號","E_COORD97":176550.97,"N_COORD97":2541139.2599999998,"ADDRESS":"文化街三段１８５巷１０號","OBJECTID":436628},"geometry":{"x":176550.97000000067,"y":2541139.2599999998}},{"attributes":{"ID":436654,"DIS_CODE":0,"TOWNNAME":"歸仁區","LI":"後市里","LIN":"38鄰","STREET":"中山八街","SECT":" ","MAREA":" ","LANE":"４６巷","ALLEY":" ","HOUSE_NO":"９號","E_COORD97":177248.53,"N_COORD97":2541019.7400000002,"ADDRESS":"中山八街４６巷９號","OBJECTID":436629},"geometry":{"x":177248.53000000026,"y":2541019.7400000021}},{"attributes":{"ID":436655,"DIS_CODE":0,"TOWNNAME":"歸仁區","LI":"看西里","LIN":"4鄰","STREET":"仁愛南街","SECT":" ","MAREA":" ","LANE":"１０２巷","ALLEY":" ","HOUSE_NO":"１號","E_COORD97":178255.75,"N_COORD97":2540383.29,"ADDRESS":"仁愛南街１０２巷１號","OBJECTID":436630},"geometry":{"x":178255.75000000093,"y":2540383.2899999972}},{"attributes":{"ID":436656,"DIS_CODE":0,"TOWNNAME":"歸仁區","LI":"看西里","LIN":"4鄰","STREET":"仁愛南街","SECT":" ","MAREA":" ","LANE":"１０２巷","ALLEY":" ","HOUSE_NO":"１４號","E_COORD97":178230.39999999999,"N_COORD97":2540388.29,"ADDRESS":"仁愛南街１０２巷１４號","OBJECTID":436631},"geometry":{"x":178230.4000000013,"y":2540388.290000001}},{"attributes":{"ID":436657,"DIS_CODE":0,"TOWNNAME":"歸仁區","LI":"許厝里","LIN":"4鄰","STREET":"仁愛一街","SECT":" ","MAREA":" ","LANE":"１２巷","ALLEY":" ","HOUSE_NO":"１５號","E_COORD97":178344.73999999999,"N_COORD97":2540580.73,"ADDRESS":"仁愛一街１２巷１５號","OBJECTID":436632},"geometry":{"x":178344.74000000115,"y":2540580.7300000004}},{"attributes":{"ID":436658,"DIS_CODE":0,"TOWNNAME":"歸仁區","LI":"後市里","LIN":"42鄰","STREET":"中山路","SECT":"二段","MAREA":" ","LANE":"１９８巷","ALLEY":" ","HOUSE_NO":"１９號","E_COORD97":177101.07999999999,"N_COORD97":2540921.7400000002,"ADDRESS":"中山路二段１９８巷１９號","OBJECTID":436633},"geometry":{"x":177101.08000000101,"y":2540921.7400000021}},{"attributes":{"ID":436659,"DIS_CODE":0,"TOWNNAME":"歸仁區","LI":"看西里","LIN":"13鄰","STREET":"仁愛南街","SECT":" ","MAREA":" ","LANE":"２３５巷","ALLEY":" ","HOUSE_NO":"３號","E_COORD97":178326.56,"N_COORD97":2540162.1200000001,"ADDRESS":"仁愛南街２３５巷３號","OBJECTID":436634},"geometry":{"x":178326.56000000052,"y":2540162.120000001}},{"attributes":{"ID":436660,"DIS_CODE":0,"TOWNNAME":"歸仁區","LI":"辜厝里","LIN":"46鄰","STREET":"中正八街","SECT":" ","MAREA":" ","LANE":"１１巷","ALLEY":" ","HOUSE_NO":"７號","E_COORD97":177127.39000000001,"N_COORD97":2540263.9500000002,"ADDRESS":"中正八街１１巷７號","OBJECTID":436635},"geometry":{"x":177127.3900000006,"y":2540263.950000003}},{"attributes":{"ID":436661,"DIS_CODE":0,"TOWNNAME":"歸仁區","LI":"後市里","LIN":"41鄰","STREET":"國光街","SECT":" ","MAREA":" ","LANE":"６６巷","ALLEY":" ","HOUSE_NO":"１號","E_COORD97":177153.48999999999,"N_COORD97":2540925.7400000002,"ADDRESS":"國光街６６巷１號","OBJECTID":436636},"geometry":{"x":177153.49000000022,"y":2540925.7400000021}},{"attributes":{"ID":436662,"DIS_CODE":0,"TOWNNAME":"歸仁區","LI":"南保里","LIN":"5鄰","STREET":"文化街","SECT":"三段","MAREA":" ","LANE":"１８巷","ALLEY":" ","HOUSE_NO":"２８之１５號","E_COORD97":176899.07000000001,"N_COORD97":2541340.2599999998,"ADDRESS":"文化街三段１８巷２８之１５號","OBJECTID":436637},"geometry":{"x":176899.0700000003,"y":2541340.2599999979}},{"attributes":{"ID":436663,"DIS_CODE":0,"TOWNNAME":"歸仁區","LI":"南興里","LIN":"20鄰","STREET":"文化街","SECT":"三段","MAREA":" ","LANE":"５９２巷","ALLEY":" ","HOUSE_NO":"５４號","E_COORD97":175651.26999999999,"N_COORD97":2541271.2599999998,"ADDRESS":"文化街三段５９２巷５４號","OBJECTID":436638},"geometry":{"x":175651.27000000142,"y":2541271.2599999998}},{"attributes":{"ID":436664,"DIS_CODE":0,"TOWNNAME":"歸仁區","LI":"南保里","LIN":"32鄰","STREET":"民權八街","SECT":" ","MAREA":" ","LANE":"７０巷","ALLEY":" ","HOUSE_NO":"１１號","E_COORD97":176767.35999999999,"N_COORD97":2541038.25,"ADDRESS":"民權八街７０巷１１號","OBJECTID":436639},"geometry":{"x":176767.36000000127,"y":2541038.25}},{"attributes":{"ID":436665,"DIS_CODE":0,"TOWNNAME":"歸仁區","LI":"崙頂里","LIN":"5鄰","STREET":"信義南路","SECT":" ","MAREA":" ","LANE":"２０２巷","ALLEY":" ","HOUSE_NO":"２０之１號","E_COORD97":178088.85000000001,"N_COORD97":2540063.6899999999,"ADDRESS":"信義南路２０２巷２０之１號","OBJECTID":436640},"geometry":{"x":178088.85000000056,"y":2540063.6900000013}},{"attributes":{"ID":436666,"DIS_CODE":0,"TOWNNAME":"歸仁區","LI":"南保里","LIN":"20鄰","STREET":"文化街","SECT":"三段","MAREA":" ","LANE":"６１巷","ALLEY":" ","HOUSE_NO":"１６號","E_COORD97":176883.22,"N_COORD97":2541185.2599999998,"ADDRESS":"文化街三段６１巷１６號","OBJECTID":436641},"geometry":{"x":176883.22000000067,"y":2541185.2600000016}},{"attributes":{"ID":436667,"DIS_CODE":0,"TOWNNAME":"歸仁區","LI":"後市里","LIN":"43鄰","STREET":"中山八街","SECT":" ","MAREA":" ","LANE":"１５巷","ALLEY":" ","HOUSE_NO":"２０號","E_COORD97":177183.98000000001,"N_COORD97":2540980.7400000002,"ADDRESS":"中山八街１５巷２０號","OBJECTID":436642},"geometry":{"x":177183.98000000138,"y":2540980.7400000002}},{"attributes":{"ID":436668,"DIS_CODE":0,"TOWNNAME":"歸仁區","LI":"許厝里","LIN":"4鄰","STREET":"仁愛一街","SECT":" ","MAREA":" ","LANE":"１２巷","ALLEY":" ","HOUSE_NO":"２１號","E_COORD97":178344.64000000001,"N_COORD97":2540568.73,"ADDRESS":"仁愛一街１２巷２１號","OBJECTID":436643},"geometry":{"x":178344.6400000006,"y":2540568.7300000023}},{"attributes":{"ID":436669,"DIS_CODE":0,"TOWNNAME":"歸仁區","LI":"南興里","LIN":"20鄰","STREET":"文化街","SECT":"三段","MAREA":" ","LANE":"５９２巷","ALLEY":" ","HOUSE_NO":"４８號","E_COORD97":175634.87,"N_COORD97":2541260.2599999998,"ADDRESS":"文化街三段５９２巷４８號","OBJECTID":436644},"geometry":{"x":175634.87000000104,"y":2541260.2600000016}},{"attributes":{"ID":436670,"DIS_CODE":0,"TOWNNAME":"歸仁區","LI":"後市里","LIN":"42鄰","STREET":"中山路","SECT":"二段","MAREA":" ","LANE":"２１６巷","ALLEY":" ","HOUSE_NO":"９號","E_COORD97":177030.03,"N_COORD97":2540914.7400000002,"ADDRESS":"中山路二段２１６巷９號","OBJECTID":436645},"geometry":{"x":177030.03000000212,"y":2540914.7400000021}},{"attributes":{"ID":436671,"DIS_CODE":0,"TOWNNAME":"歸仁區","LI":"後市里","LIN":"43鄰","STREET":"中山八街","SECT":" ","MAREA":" ","LANE":"１５巷","ALLEY":" ","HOUSE_NO":"１８號","E_COORD97":177189.07999999999,"N_COORD97":2540979.7400000002,"ADDRESS":"中山八街１５巷１８號","OBJECTID":436646},"geometry":{"x":177189.08000000101,"y":2540979.7400000021}},{"attributes":{"ID":436672,"DIS_CODE":0,"TOWNNAME":"歸仁區","LI":"後市里","LIN":"43鄰","STREET":"中山八街","SECT":" ","MAREA":" ","LANE":"１５巷","ALLEY":" ","HOUSE_NO":"８號","E_COORD97":177208.32999999999,"N_COORD97":2540978.7400000002,"ADDRESS":"中山八街１５巷８號","OBJECTID":436647},"geometry":{"x":177208.33000000101,"y":2540978.7400000021}},{"attributes":{"ID":436673,"DIS_CODE":0,"TOWNNAME":"歸仁區","LI":"許厝里","LIN":"4鄰","STREET":"仁愛一街","SECT":" ","MAREA":" ","LANE":"１２巷","ALLEY":" ","HOUSE_NO":"７號","E_COORD97":178353,"N_COORD97":2540597.02,"ADDRESS":"仁愛一街１２巷７號","OBJECTID":436648},"geometry":{"x":178353.00000000093,"y":2540597.0200000014}},{"attributes":{"ID":436674,"DIS_CODE":0,"TOWNNAME":"北區","LI":"大豐里","LIN":"4鄰","STREET":"武聖路","SECT":" ","MAREA":" ","LANE":"３６巷","ALLEY":" ","HOUSE_NO":"３４號","E_COORD97":167184.67999999999,"N_COORD97":2545189.5499999998,"ADDRESS":"武聖路３６巷３４號","OBJECTID":436649},"geometry":{"x":167184.68000000063,"y":2545189.5500000007}},{"attributes":{"ID":436675,"DIS_CODE":0,"TOWNNAME":"北區","LI":"大豐里","LIN":"4鄰","STREET":"武聖路","SECT":" ","MAREA":" ","LANE":"３６巷","ALLEY":" ","HOUSE_NO":"３６號","E_COORD97":167180.62,"N_COORD97":2545190.96,"ADDRESS":"武聖路３６巷３６號","OBJECTID":436650},"geometry":{"x":167180.62000000104,"y":2545190.9600000009}},{"attributes":{"ID":436676,"DIS_CODE":0,"TOWNNAME":"北區","LI":"大豐里","LIN":"4鄰","STREET":"武聖路","SECT":" ","MAREA":" ","LANE":"３６巷","ALLEY":" ","HOUSE_NO":"５８號","E_COORD97":167139.57999999999,"N_COORD97":2545213.1400000001,"ADDRESS":"武聖路３６巷５８號","OBJECTID":436651},"geometry":{"x":167139.58000000007,"y":2545213.1400000006}},{"attributes":{"ID":436677,"DIS_CODE":0,"TOWNNAME":"北區","LI":"大豐里","LIN":"4鄰","STREET":"武聖路","SECT":" ","MAREA":" ","LANE":"３６巷","ALLEY":" ","HOUSE_NO":"６０號","E_COORD97":167135.98999999999,"N_COORD97":2545215.02,"ADDRESS":"武聖路３６巷６０號","OBJECTID":436652},"geometry":{"x":167135.99000000115,"y":2545215.0200000014}},{"attributes":{"ID":436678,"DIS_CODE":0,"TOWNNAME":"北區","LI":"大豐里","LIN":"4鄰","STREET":"武聖路","SECT":" ","MAREA":" ","LANE":"３６巷","ALLEY":" ","HOUSE_NO":"６２號","E_COORD97":167132.07999999999,"N_COORD97":2545216.8900000001,"ADDRESS":"武聖路３６巷６２號","OBJECTID":436653},"geometry":{"x":167132.08000000101,"y":2545216.8900000025}},{"attributes":{"ID":436679,"DIS_CODE":0,"TOWNNAME":"北區","LI":"大豐里","LIN":"4鄰","STREET":"武聖路","SECT":" ","MAREA":" ","LANE":"３６巷","ALLEY":" ","HOUSE_NO":"６４號","E_COORD97":167128.56,"N_COORD97":2545219.1600000001,"ADDRESS":"武聖路３６巷６４號","OBJECTID":436654},"geometry":{"x":167128.55999999959,"y":2545219.1600000001}},{"attributes":{"ID":436680,"DIS_CODE":0,"TOWNNAME":"北區","LI":"大豐里","LIN":"4鄰","STREET":"武聖路","SECT":" ","MAREA":" ","LANE":"３６巷","ALLEY":" ","HOUSE_NO":"６８號","E_COORD97":167119.73000000001,"N_COORD97":2545223.6499999999,"ADDRESS":"武聖路３６巷６８號","OBJECTID":436655},"geometry":{"x":167119.73000000045,"y":2545223.6499999985}},{"attributes":{"ID":436681,"DIS_CODE":0,"TOWNNAME":"北區","LI":"大豐里","LIN":"4鄰","STREET":"武聖路","SECT":" ","MAREA":" ","LANE":"１１４巷","ALLEY":" ","HOUSE_NO":"１２號","E_COORD97":167086.09,"N_COORD97":2545248,"ADDRESS":"武聖路１１４巷１２號","OBJECTID":436656},"geometry":{"x":167086.08999999985,"y":2545247.9999999981}},{"attributes":{"ID":436682,"DIS_CODE":0,"TOWNNAME":"北區","LI":"大豐里","LIN":"4鄰","STREET":"武聖路","SECT":" ","MAREA":" ","LANE":"１１４巷","ALLEY":" ","HOUSE_NO":"１４號","E_COORD97":167087.70000000001,"N_COORD97":2545252.1499999999,"ADDRESS":"武聖路１１４巷１４號","OBJECTID":436657},"geometry":{"x":167087.70000000019,"y":2545252.1500000022}},{"attributes":{"ID":436683,"DIS_CODE":0,"TOWNNAME":"北區","LI":"大豐里","LIN":"6鄰","STREET":"武聖路","SECT":" ","MAREA":" ","LANE":"１１４巷","ALLEY":" ","HOUSE_NO":"９號","E_COORD97":167068.73000000001,"N_COORD97":2545257.23,"ADDRESS":"武聖路１１４巷９號","OBJECTID":436658},"geometry":{"x":167068.73000000138,"y":2545257.2300000042}},{"attributes":{"ID":436684,"DIS_CODE":0,"TOWNNAME":"北區","LI":"大豐里","LIN":"6鄰","STREET":"武聖路","SECT":" ","MAREA":" ","LANE":"１１４巷","ALLEY":" ","HOUSE_NO":"１１號","E_COORD97":167069.70000000001,"N_COORD97":2545261.23,"ADDRESS":"武聖路１１４巷１１號","OBJECTID":436659},"geometry":{"x":167069.70000000205,"y":2545261.2300000023}},{"attributes":{"ID":436685,"DIS_CODE":0,"TOWNNAME":"北區","LI":"大豐里","LIN":" ","STREET":"武聖路","SECT":" ","MAREA":" ","LANE":"１６０巷","ALLEY":" ","HOUSE_NO":"１８號","E_COORD97":166980.32000000001,"N_COORD97":2545312.0600000001,"ADDRESS":"武聖路１６０巷１８號","OBJECTID":436660},"geometry":{"x":166980.3200000003,"y":2545312.0600000005}},{"attributes":{"ID":436686,"DIS_CODE":0,"TOWNNAME":"北區","LI":"大豐里","LIN":" ","STREET":"中華北路","SECT":"一段","MAREA":" ","LANE":"７８巷","ALLEY":" ","HOUSE_NO":"６９號","E_COORD97":166632.97,"N_COORD97":2545502.7799999998,"ADDRESS":"中華北路一段７８巷６９號","OBJECTID":436661},"geometry":{"x":166632.96999999974,"y":2545502.7799999993}},{"attributes":{"ID":436687,"DIS_CODE":0,"TOWNNAME":"北區","LI":"大豐里","LIN":"8鄰","STREET":"文賢路","SECT":" ","MAREA":" ","LANE":"３１３巷","ALLEY":" ","HOUSE_NO":"２號","E_COORD97":167299.98999999999,"N_COORD97":2545256.9300000002,"ADDRESS":"文賢路３１３巷２號","OBJECTID":436662},"geometry":{"x":167299.99000000209,"y":2545256.9299999997}},{"attributes":{"ID":436688,"DIS_CODE":0,"TOWNNAME":"北區","LI":"大豐里","LIN":"8鄰","STREET":"文賢路","SECT":" ","MAREA":" ","LANE":"３１３巷","ALLEY":" ","HOUSE_NO":"４號","E_COORD97":167295.79999999999,"N_COORD97":2545257.5800000001,"ADDRESS":"文賢路３１３巷４號","OBJECTID":436663},"geometry":{"x":167295.80000000168,"y":2545257.5800000001}},{"attributes":{"ID":436689,"DIS_CODE":0,"TOWNNAME":"北區","LI":"大豐里","LIN":"8鄰","STREET":"文賢路","SECT":" ","MAREA":" ","LANE":"３１３巷","ALLEY":" ","HOUSE_NO":"６號","E_COORD97":167291.09,"N_COORD97":2545258.29,"ADDRESS":"文賢路３１３巷６號","OBJECTID":436664},"geometry":{"x":167291.09000000078,"y":2545258.2899999991}},{"attributes":{"ID":436690,"DIS_CODE":0,"TOWNNAME":"北區","LI":"大豐里","LIN":"8鄰","STREET":"文賢路","SECT":" ","MAREA":" ","LANE":"３１３巷","ALLEY":" ","HOUSE_NO":"１０號","E_COORD97":167282.45000000001,"N_COORD97":2545259.6400000001,"ADDRESS":"文賢路３１３巷１０號","OBJECTID":436665},"geometry":{"x":167282.45000000019,"y":2545259.6400000025}},{"attributes":{"ID":436691,"DIS_CODE":0,"TOWNNAME":"北區","LI":"中樓里","LIN":" ","STREET":"開元路","SECT":" ","MAREA":" ","LANE":"９０巷","ALLEY":" ","HOUSE_NO":"９號","E_COORD97":169801.64000000001,"N_COORD97":2545157.8399999999,"ADDRESS":"開元路９０巷９號","OBJECTID":436666},"geometry":{"x":169801.63999999966,"y":2545157.8400000017}},{"attributes":{"ID":436692,"DIS_CODE":0,"TOWNNAME":"北區","LI":"中樓里","LIN":" ","STREET":"開元路","SECT":" ","MAREA":" ","LANE":"９０巷","ALLEY":" ","HOUSE_NO":"１５號","E_COORD97":169832.62,"N_COORD97":2545160,"ADDRESS":"開元路９０巷１５號","OBJECTID":436667},"geometry":{"x":169832.62000000011,"y":2545160.0000000037}},{"attributes":{"ID":436693,"DIS_CODE":0,"TOWNNAME":"北區","LI":"中樓里","LIN":" ","STREET":"開元路","SECT":" ","MAREA":" ","LANE":"９０巷","ALLEY":" ","HOUSE_NO":"２１號","E_COORD97":169848.47,"N_COORD97":2545167.2000000002,"ADDRESS":"開元路９０巷２１號","OBJECTID":436668},"geometry":{"x":169848.46999999974,"y":2545167.1999999993}},{"attributes":{"ID":436694,"DIS_CODE":0,"TOWNNAME":"北區","LI":"中樓里","LIN":" ","STREET":"開元路","SECT":" ","MAREA":" ","LANE":"９０巷","ALLEY":" ","HOUSE_NO":"２９號","E_COORD97":169860,"N_COORD97":2545169.8700000001,"ADDRESS":"開元路９０巷２９號","OBJECTID":436669},"geometry":{"x":169860.00000000093,"y":2545169.8700000029}},{"attributes":{"ID":436695,"DIS_CODE":0,"TOWNNAME":"北區","LI":"五福里","LIN":" ","STREET":"西門路","SECT":"三段","MAREA":" ","LANE":"２４巷","ALLEY":" ","HOUSE_NO":"１７號","E_COORD97":168221.04000000001,"N_COORD97":2544530.6200000001,"ADDRESS":"西門路三段２４巷１７號","OBJECTID":436670},"geometry":{"x":168221.04000000004,"y":2544530.6200000029}},{"attributes":{"ID":436696,"DIS_CODE":0,"TOWNNAME":"北區","LI":"五福里","LIN":" ","STREET":"自強街","SECT":" ","MAREA":" ","LANE":"１４６巷","ALLEY":" ","HOUSE_NO":"９號之１","E_COORD97":168399.73000000001,"N_COORD97":2544712.0600000001,"ADDRESS":"自強街１４６巷９號之１","OBJECTID":436671},"geometry":{"x":168399.73000000045,"y":2544712.0600000005}},{"attributes":{"ID":436697,"DIS_CODE":0,"TOWNNAME":"北區","LI":"五福里","LIN":" ","STREET":"自強街","SECT":" ","MAREA":" ","LANE":"３４巷","ALLEY":" ","HOUSE_NO":"４號","E_COORD97":168256.89000000001,"N_COORD97":2544497.3900000001,"ADDRESS":"自強街３４巷４號","OBJECTID":436672},"geometry":{"x":168256.8900000006,"y":2544497.3900000025}},{"attributes":{"ID":436698,"DIS_CODE":0,"TOWNNAME":"北區","LI":"仁愛里","LIN":" ","STREET":"勝利路","SECT":" ","MAREA":" ","LANE":"２０６巷","ALLEY":" ","HOUSE_NO":"２之１號","E_COORD97":169947.73999999999,"N_COORD97":2544974.46,"ADDRESS":"勝利路２０６巷２之１號","OBJECTID":436673},"geometry":{"x":169947.74000000209,"y":2544974.4600000009}},{"attributes":{"ID":436699,"DIS_CODE":0,"TOWNNAME":"北區","LI":"仁愛里","LIN":" ","STREET":"東豐路","SECT":" ","MAREA":" ","LANE":"２２７巷","ALLEY":" ","HOUSE_NO":"１０號之１","E_COORD97":170139.20999999999,"N_COORD97":2544893.8900000001,"ADDRESS":"東豐路２２７巷１０號之１","OBJECTID":436674},"geometry":{"x":170139.21000000183,"y":2544893.8900000025}},{"attributes":{"ID":436700,"DIS_CODE":0,"TOWNNAME":"北區","LI":"元寶里","LIN":" ","STREET":"北園街","SECT":" ","MAREA":" ","LANE":"１２２巷","ALLEY":" ","HOUSE_NO":"４號","E_COORD97":170369.48999999999,"N_COORD97":2545960.1699999999,"ADDRESS":"北園街１２２巷４號","OBJECTID":436675},"geometry":{"x":170369.49000000022,"y":2545960.1700000018}},{"attributes":{"ID":436701,"DIS_CODE":0,"TOWNNAME":"北區","LI":"元寶里","LIN":" ","STREET":"開元路","SECT":" ","MAREA":" ","LANE":"４８５巷","ALLEY":" ","HOUSE_NO":"２４號","E_COORD97":170515.73999999999,"N_COORD97":2545710.9300000002,"ADDRESS":"開元路４８５巷２４號","OBJECTID":436676},"geometry":{"x":170515.74000000209,"y":2545710.9300000016}},{"attributes":{"ID":436702,"DIS_CODE":0,"TOWNNAME":"北區","LI":"元寶里","LIN":" ","STREET":"開元路","SECT":" ","MAREA":" ","LANE":"４８５巷","ALLEY":" ","HOUSE_NO":"３０號","E_COORD97":170513.35000000001,"N_COORD97":2545730.46,"ADDRESS":"開元路４８５巷３０號","OBJECTID":436677},"geometry":{"x":170513.35000000056,"y":2545730.4600000009}},{"attributes":{"ID":436703,"DIS_CODE":0,"TOWNNAME":"北區","LI":"六甲里","LIN":" ","STREET":"公園路","SECT":" ","MAREA":" ","LANE":"４５１巷","ALLEY":" ","HOUSE_NO":"４６號之１","E_COORD97":168869.28,"N_COORD97":2545568.7200000002,"ADDRESS":"公園路４５１巷４６號之１","OBJECTID":436678},"geometry":{"x":168869.27999999933,"y":2545568.7200000007}},{"attributes":{"ID":436704,"DIS_CODE":0,"TOWNNAME":"北區","LI":"六甲里","LIN":" ","STREET":"公園路","SECT":" ","MAREA":" ","LANE":"４８７巷","ALLEY":" ","HOUSE_NO":"４號","E_COORD97":169014.62,"N_COORD97":2545515.52,"ADDRESS":"公園路４８７巷４號","OBJECTID":436679},"geometry":{"x":169014.62000000104,"y":2545515.5200000033}},{"attributes":{"ID":436705,"DIS_CODE":0,"TOWNNAME":"北區","LI":"六甲里","LIN":"4鄰","STREET":"公園路","SECT":" ","MAREA":" ","LANE":"４８７巷","ALLEY":" ","HOUSE_NO":"３４號","E_COORD97":168944.76000000001,"N_COORD97":2545550.1000000001,"ADDRESS":"公園路４８７巷３４號","OBJECTID":436680},"geometry":{"x":168944.75999999978,"y":2545550.1000000015}},{"attributes":{"ID":436706,"DIS_CODE":0,"TOWNNAME":"北區","LI":"六甲里","LIN":"4鄰","STREET":"公園路","SECT":" ","MAREA":" ","LANE":"４８７巷","ALLEY":" ","HOUSE_NO":"３６號","E_COORD97":168946.32000000001,"N_COORD97":2545558.8500000001,"ADDRESS":"公園路４８７巷３６號","OBJECTID":436681},"geometry":{"x":168946.3200000003,"y":2545558.8500000015}},{"attributes":{"ID":436707,"DIS_CODE":0,"TOWNNAME":"北區","LI":"六甲里","LIN":"4鄰","STREET":"公園路","SECT":" ","MAREA":" ","LANE":"４８７巷","ALLEY":" ","HOUSE_NO":"３８號","E_COORD97":168947.42000000001,"N_COORD97":2545563.54,"ADDRESS":"公園路４８７巷３８號","OBJECTID":436682},"geometry":{"x":168947.41999999993,"y":2545563.540000001}},{"attributes":{"ID":436708,"DIS_CODE":0,"TOWNNAME":"北區","LI":"六甲里","LIN":"4鄰","STREET":"公園路","SECT":" ","MAREA":" ","LANE":"５０９巷","ALLEY":" ","HOUSE_NO":"３１號","E_COORD97":168959.62,"N_COORD97":2545560.8799999999,"ADDRESS":"公園路５０９巷３１號","OBJECTID":436683},"geometry":{"x":168959.62000000011,"y":2545560.8800000008}},{"attributes":{"ID":436709,"DIS_CODE":0,"TOWNNAME":"北區","LI":"六甲里","LIN":"4鄰","STREET":"公園路","SECT":" ","MAREA":" ","LANE":"５０９巷","ALLEY":" ","HOUSE_NO":"１９號","E_COORD97":168961.48999999999,"N_COORD97":2545547.29,"ADDRESS":"公園路５０９巷１９號","OBJECTID":436684},"geometry":{"x":168961.49000000115,"y":2545547.290000001}},{"attributes":{"ID":436710,"DIS_CODE":0,"TOWNNAME":"北區","LI":"六甲里","LIN":" ","STREET":"公園路","SECT":" ","MAREA":" ","LANE":"５９３巷","ALLEY":" ","HOUSE_NO":"１３號","E_COORD97":169117.51000000001,"N_COORD97":2546005.0099999998,"ADDRESS":"公園路５９３巷１３號","OBJECTID":436685},"geometry":{"x":169117.50999999978,"y":2546005.0100000016}},{"attributes":{"ID":436711,"DIS_CODE":0,"TOWNNAME":"北區","LI":"文元里","LIN":"3鄰","STREET":"文賢路","SECT":" ","MAREA":" ","LANE":"１１２２巷","ALLEY":" ","HOUSE_NO":"１５８號","E_COORD97":167710.69,"N_COORD97":2546353.8500000001,"ADDRESS":"文賢路１１２２巷１５８號","OBJECTID":436686},"geometry":{"x":167710.69000000227,"y":2546353.8499999978}},{"attributes":{"ID":436712,"DIS_CODE":0,"TOWNNAME":"北區","LI":"正風里","LIN":"4鄰","STREET":"公園路","SECT":" ","MAREA":" ","LANE":"９１８巷","ALLEY":" ","HOUSE_NO":"５號","E_COORD97":169425.95999999999,"N_COORD97":2546161.7799999998,"ADDRESS":"公園路９１８巷５號","OBJECTID":436687},"geometry":{"x":169425.96000000089,"y":2546161.7800000012}},{"attributes":{"ID":436713,"DIS_CODE":0,"TOWNNAME":"北區","LI":"正風里","LIN":"4鄰","STREET":"公園路","SECT":" ","MAREA":" ","LANE":"９１８巷","ALLEY":" ","HOUSE_NO":"７號","E_COORD97":169429.60000000001,"N_COORD97":2546172.4300000002,"ADDRESS":"公園路９１８巷７號","OBJECTID":436688},"geometry":{"x":169429.60000000056,"y":2546172.4299999997}},{"attributes":{"ID":436714,"DIS_CODE":0,"TOWNNAME":"北區","LI":"正風里","LIN":"4鄰","STREET":"公園路","SECT":" ","MAREA":" ","LANE":"９１８巷","ALLEY":" ","HOUSE_NO":"９號","E_COORD97":169438.66,"N_COORD97":2546157.96,"ADDRESS":"公園路９１８巷９號","OBJECTID":436689},"geometry":{"x":169438.66000000108,"y":2546157.9600000046}},{"attributes":{"ID":436715,"DIS_CODE":0,"TOWNNAME":"北區","LI":"正風里","LIN":"4鄰","STREET":"公園路","SECT":" ","MAREA":" ","LANE":"９１８巷","ALLEY":" ","HOUSE_NO":"１３號","E_COORD97":169457.45999999999,"N_COORD97":2546146.8700000001,"ADDRESS":"公園路９１８巷１３號","OBJECTID":436690},"geometry":{"x":169457.45999999996,"y":2546146.8700000029}},{"attributes":{"ID":436716,"DIS_CODE":0,"TOWNNAME":"北區","LI":"正風里","LIN":"4鄰","STREET":"公園路","SECT":" ","MAREA":" ","LANE":"９１８巷","ALLEY":" ","HOUSE_NO":"１５號","E_COORD97":169464.54999999999,"N_COORD97":2546145.27,"ADDRESS":"公園路９１８巷１５號","OBJECTID":436691},"geometry":{"x":169464.55000000075,"y":2546145.2700000014}},{"attributes":{"ID":436717,"DIS_CODE":0,"TOWNNAME":"北區","LI":"正風里","LIN":"4鄰","STREET":"公園路","SECT":" ","MAREA":" ","LANE":"９１８巷","ALLEY":" ","HOUSE_NO":"１７號","E_COORD97":169471.20000000001,"N_COORD97":2546144.5699999998,"ADDRESS":"公園路９１８巷１７號","OBJECTID":436692},"geometry":{"x":169471.20000000019,"y":2546144.5700000022}},{"attributes":{"ID":436718,"DIS_CODE":0,"TOWNNAME":"北區","LI":"正風里","LIN":"4鄰","STREET":"公園路","SECT":" ","MAREA":" ","LANE":"９１８巷","ALLEY":" ","HOUSE_NO":"１９號","E_COORD97":169476.16,"N_COORD97":2546144.21,"ADDRESS":"公園路９１８巷１９號","OBJECTID":436693},"geometry":{"x":169476.16000000015,"y":2546144.2100000028}},{"attributes":{"ID":436719,"DIS_CODE":0,"TOWNNAME":"北區","LI":"正風里","LIN":"4鄰","STREET":"公園路","SECT":" ","MAREA":" ","LANE":"９１８巷","ALLEY":" ","HOUSE_NO":"２１號","E_COORD97":169484.67000000001,"N_COORD97":2546136.7599999998,"ADDRESS":"公園路９１８巷２１號","OBJECTID":436694},"geometry":{"x":169484.66999999993,"y":2546136.7599999998}},{"attributes":{"ID":436720,"DIS_CODE":0,"TOWNNAME":"北區","LI":"正風里","LIN":"4鄰","STREET":"公園路","SECT":" ","MAREA":" ","LANE":"９３４巷","ALLEY":" ","HOUSE_NO":"６號","E_COORD97":169429.69,"N_COORD97":2546191.5600000001,"ADDRESS":"公園路９３４巷６號","OBJECTID":436695},"geometry":{"x":169429.69000000227,"y":2546191.5600000024}},{"attributes":{"ID":436721,"DIS_CODE":0,"TOWNNAME":"北區","LI":"正風里","LIN":"4鄰","STREET":"公園路","SECT":" ","MAREA":" ","LANE":"９３４巷","ALLEY":" ","HOUSE_NO":"８號","E_COORD97":169433.14000000001,"N_COORD97":2546190.5,"ADDRESS":"公園路９３４巷８號","OBJECTID":436696},"geometry":{"x":169433.1400000006,"y":2546190.4999999981}},{"attributes":{"ID":436722,"DIS_CODE":0,"TOWNNAME":"北區","LI":"正風里","LIN":"4鄰","STREET":"公園路","SECT":" ","MAREA":" ","LANE":"９３４巷","ALLEY":" ","HOUSE_NO":"１０號","E_COORD97":169435.79999999999,"N_COORD97":2546189.1699999999,"ADDRESS":"公園路９３４巷１０號","OBJECTID":436697},"geometry":{"x":169435.80000000075,"y":2546189.1699999999}},{"attributes":{"ID":436723,"DIS_CODE":0,"TOWNNAME":"北區","LI":"正風里","LIN":"4鄰","STREET":"公園路","SECT":" ","MAREA":" ","LANE":"９３４巷","ALLEY":" ","HOUSE_NO":"１２號","E_COORD97":169438.72,"N_COORD97":2546188.2000000002,"ADDRESS":"公園路９３４巷１２號","OBJECTID":436698},"geometry":{"x":169438.71999999881,"y":2546188.1999999993}},{"attributes":{"ID":436724,"DIS_CODE":0,"TOWNNAME":"北區","LI":"正風里","LIN":"4鄰","STREET":"公園路","SECT":" ","MAREA":" ","LANE":"９３４巷","ALLEY":" ","HOUSE_NO":"１４號","E_COORD97":169441.03,"N_COORD97":2546186.8700000001,"ADDRESS":"公園路９３４巷１４號","OBJECTID":436699},"geometry":{"x":169441.03000000119,"y":2546186.8700000029}},{"attributes":{"ID":436725,"DIS_CODE":0,"TOWNNAME":"北區","LI":"正覺里","LIN":"1鄰","STREET":"公園路","SECT":" ","MAREA":" ","LANE":"５９３巷","ALLEY":" ","HOUSE_NO":"２號","E_COORD97":169173.82999999999,"N_COORD97":2546005,"ADDRESS":"公園路５９３巷２號","OBJECTID":436700},"geometry":{"x":169173.83000000007,"y":2546005.0000000019}},{"attributes":{"ID":436726,"DIS_CODE":0,"TOWNNAME":"北區","LI":"正覺里","LIN":"1鄰","STREET":"公園路","SECT":" ","MAREA":" ","LANE":"５９３巷","ALLEY":" ","HOUSE_NO":"４號","E_COORD97":169162.67000000001,"N_COORD97":2546005.6000000001,"ADDRESS":"公園路５９３巷４號","OBJECTID":436701},"geometry":{"x":169162.66999999993,"y":2546005.5999999996}},{"attributes":{"ID":436727,"DIS_CODE":0,"TOWNNAME":"北區","LI":"正覺里","LIN":"1鄰","STREET":"公園路","SECT":" ","MAREA":" ","LANE":"５９３巷","ALLEY":" ","HOUSE_NO":"６號","E_COORD97":169156.13,"N_COORD97":2546010.9399999999,"ADDRESS":"公園路５９３巷６號","OBJECTID":436702},"geometry":{"x":169156.12999999989,"y":2546010.9400000032}},{"attributes":{"ID":436728,"DIS_CODE":0,"TOWNNAME":"北區","LI":"正覺里","LIN":"1鄰","STREET":"公園路","SECT":" ","MAREA":" ","LANE":"５９３巷","ALLEY":" ","HOUSE_NO":"８號","E_COORD97":169149.85999999999,"N_COORD97":2546011.04,"ADDRESS":"公園路５９３巷８號","OBJECTID":436703},"geometry":{"x":169149.86000000034,"y":2546011.040000001}},{"attributes":{"ID":436729,"DIS_CODE":0,"TOWNNAME":"北區","LI":"正覺里","LIN":"1鄰","STREET":"公園路","SECT":" ","MAREA":" ","LANE":"５９３巷","ALLEY":" ","HOUSE_NO":"１０號","E_COORD97":169146.92000000001,"N_COORD97":2546011.1400000001,"ADDRESS":"公園路５９３巷１０號","OBJECTID":436704},"geometry":{"x":169146.92000000086,"y":2546011.1400000025}},{"attributes":{"ID":436730,"DIS_CODE":0,"TOWNNAME":"北區","LI":"正覺里","LIN":"1鄰","STREET":"公園路","SECT":" ","MAREA":" ","LANE":"５９３巷","ALLEY":" ","HOUSE_NO":"１２號","E_COORD97":169140.35999999999,"N_COORD97":2546012.2200000002,"ADDRESS":"公園路５９３巷１２號","OBJECTID":436705},"geometry":{"x":169140.36000000127,"y":2546012.2200000007}},{"attributes":{"ID":436731,"DIS_CODE":0,"TOWNNAME":"北區","LI":"正覺里","LIN":"1鄰","STREET":"公園路","SECT":" ","MAREA":" ","LANE":"５９３巷","ALLEY":" ","HOUSE_NO":"１２號之１","E_COORD97":169134.57000000001,"N_COORD97":2546012.8100000001,"ADDRESS":"公園路５９３巷１２號之１","OBJECTID":436706},"geometry":{"x":169134.5700000003,"y":2546012.8100000042}},{"attributes":{"ID":436732,"DIS_CODE":0,"TOWNNAME":"北區","LI":"正覺里","LIN":"1鄰","STREET":"公園路","SECT":" ","MAREA":" ","LANE":"５９３巷","ALLEY":" ","HOUSE_NO":"１４號","E_COORD97":169130.26000000001,"N_COORD97":2546013.5899999999,"ADDRESS":"公園路５９３巷１４號","OBJECTID":436707},"geometry":{"x":169130.26000000071,"y":2546013.5900000036}},{"attributes":{"ID":436733,"DIS_CODE":0,"TOWNNAME":"北區","LI":"正覺里","LIN":"1鄰","STREET":"公園路","SECT":" ","MAREA":" ","LANE":"５９３巷","ALLEY":" ","HOUSE_NO":"１８號","E_COORD97":169111.89000000001,"N_COORD97":2546014.8900000001,"ADDRESS":"公園路５９３巷１８號","OBJECTID":436708},"geometry":{"x":169111.88999999966,"y":2546014.8900000006}},{"attributes":{"ID":436734,"DIS_CODE":0,"TOWNNAME":"北區","LI":"正覺里","LIN":"1鄰","STREET":"公園路","SECT":" ","MAREA":" ","LANE":"５９３巷","ALLEY":" ","HOUSE_NO":"３０號","E_COORD97":169085.17999999999,"N_COORD97":2546019.5899999999,"ADDRESS":"公園路５９３巷３０號","OBJECTID":436709},"geometry":{"x":169085.18000000063,"y":2546019.5899999999}},{"attributes":{"ID":436735,"DIS_CODE":0,"TOWNNAME":"北區","LI":"正覺里","LIN":"1鄰","STREET":"公園路","SECT":" ","MAREA":" ","LANE":"５９３巷","ALLEY":" ","HOUSE_NO":"３２號","E_COORD97":169079.53,"N_COORD97":2546023.0099999998,"ADDRESS":"公園路５９３巷３２號","OBJECTID":436710},"geometry":{"x":169079.52999999933,"y":2546023.0099999998}},{"attributes":{"ID":436736,"DIS_CODE":0,"TOWNNAME":"北區","LI":"正覺里","LIN":"1鄰","STREET":"公園路","SECT":" ","MAREA":" ","LANE":"５９３巷","ALLEY":" ","HOUSE_NO":"３４號","E_COORD97":169077.38,"N_COORD97":2546024.0800000001,"ADDRESS":"公園路５９３巷３４號","OBJECTID":436711},"geometry":{"x":169077.38000000082,"y":2546024.0800000038}},{"attributes":{"ID":436737,"DIS_CODE":0,"TOWNNAME":"北區","LI":"正覺里","LIN":"1鄰","STREET":"公園路","SECT":" ","MAREA":" ","LANE":"５９３巷","ALLEY":" ","HOUSE_NO":"３６號","E_COORD97":169074.63,"N_COORD97":2546025.3500000001,"ADDRESS":"公園路５９３巷３６號","OBJECTID":436712},"geometry":{"x":169074.62999999989,"y":2546025.3500000034}},{"attributes":{"ID":436738,"DIS_CODE":0,"TOWNNAME":"北區","LI":"正覺里","LIN":"1鄰","STREET":"公園路","SECT":" ","MAREA":" ","LANE":"５９３巷","ALLEY":" ","HOUSE_NO":"３８號","E_COORD97":169067.88,"N_COORD97":2546029.46,"ADDRESS":"公園路５９３巷３８號","OBJECTID":436713},"geometry":{"x":169067.87999999989,"y":2546029.4600000028}},{"attributes":{"ID":436739,"DIS_CODE":0,"TOWNNAME":"北區","LI":"正覺里","LIN":"1鄰","STREET":"公園路","SECT":" ","MAREA":" ","LANE":"５９３巷","ALLEY":" ","HOUSE_NO":"４０號","E_COORD97":169064.14999999999,"N_COORD97":2546031.0299999998,"ADDRESS":"公園路５９３巷４０號","OBJECTID":436714},"geometry":{"x":169064.1500000013,"y":2546031.0300000012}},{"attributes":{"ID":436740,"DIS_CODE":0,"TOWNNAME":"北區","LI":"正覺里","LIN":"1鄰","STREET":"公園路","SECT":" ","MAREA":" ","LANE":"５９３巷","ALLEY":" ","HOUSE_NO":"５４號","E_COORD97":169059.89999999999,"N_COORD97":2546050.0800000001,"ADDRESS":"公園路５９３巷５４號","OBJECTID":436715},"geometry":{"x":169059.90000000037,"y":2546050.0800000001}},{"attributes":{"ID":436741,"DIS_CODE":0,"TOWNNAME":"北區","LI":"正覺里","LIN":"1鄰","STREET":"公園路","SECT":" ","MAREA":" ","LANE":"５９３巷","ALLEY":" ","HOUSE_NO":"５６號","E_COORD97":169057.48999999999,"N_COORD97":2546034.6499999999,"ADDRESS":"公園路５９３巷５６號","OBJECTID":436716},"geometry":{"x":169057.49000000022,"y":2546034.6500000022}},{"attributes":{"ID":436742,"DIS_CODE":0,"TOWNNAME":"北區","LI":"正覺里","LIN":"1鄰","STREET":"公園路","SECT":" ","MAREA":" ","LANE":"５９３巷","ALLEY":" ","HOUSE_NO":"５８號","E_COORD97":169055.44,"N_COORD97":2546035.5299999998,"ADDRESS":"公園路５９３巷５８號","OBJECTID":436717},"geometry":{"x":169055.44000000134,"y":2546035.5299999993}},{"attributes":{"ID":436743,"DIS_CODE":0,"TOWNNAME":"北區","LI":"正覺里","LIN":"1鄰","STREET":"公園路","SECT":" ","MAREA":" ","LANE":"５９３巷","ALLEY":" ","HOUSE_NO":"６０號","E_COORD97":169052.01000000001,"N_COORD97":2546037.6899999999,"ADDRESS":"公園路５９３巷６０號","OBJECTID":436718},"geometry":{"x":169052.00999999885,"y":2546037.6900000013}},{"attributes":{"ID":436744,"DIS_CODE":0,"TOWNNAME":"北區","LI":"正覺里","LIN":"1鄰","STREET":"公園路","SECT":" ","MAREA":" ","LANE":"５９３巷","ALLEY":" ","HOUSE_NO":"６２號","E_COORD97":169048.16,"N_COORD97":2546042.54,"ADDRESS":"公園路５９３巷６２號","OBJECTID":436719},"geometry":{"x":169048.16000000201,"y":2546042.5399999991}},{"attributes":{"ID":436745,"DIS_CODE":0,"TOWNNAME":"北區","LI":"正覺里","LIN":"1鄰","STREET":"公園路","SECT":" ","MAREA":" ","LANE":"５９３巷","ALLEY":" ","HOUSE_NO":"６４號","E_COORD97":169044.92000000001,"N_COORD97":2546044.1099999999,"ADDRESS":"公園路５９３巷６４號","OBJECTID":436720},"geometry":{"x":169044.92000000086,"y":2546044.1100000013}},{"attributes":{"ID":436746,"DIS_CODE":0,"TOWNNAME":"北區","LI":"正覺里","LIN":"1鄰","STREET":"公園路","SECT":" ","MAREA":" ","LANE":"５９３巷","ALLEY":" ","HOUSE_NO":"６８號","E_COORD97":169034.54000000001,"N_COORD97":2546045.3799999999,"ADDRESS":"公園路５９３巷６８號","OBJECTID":436721},"geometry":{"x":169034.54000000004,"y":2546045.3800000008}},{"attributes":{"ID":436747,"DIS_CODE":0,"TOWNNAME":"北區","LI":"正覺里","LIN":"1鄰","STREET":"公園路","SECT":" ","MAREA":" ","LANE":"５９３巷","ALLEY":" ","HOUSE_NO":"７０號","E_COORD97":169027.98000000001,"N_COORD97":2546045.6699999999,"ADDRESS":"公園路５９３巷７０號","OBJECTID":436722},"geometry":{"x":169027.98000000138,"y":2546045.6699999999}},{"attributes":{"ID":436748,"DIS_CODE":0,"TOWNNAME":"北區","LI":"永祥里","LIN":" ","STREET":"大武街","SECT":" ","MAREA":" ","LANE":"５９７巷","ALLEY":" ","HOUSE_NO":"１之１號","E_COORD97":170211.34,"N_COORD97":2546444.71,"ADDRESS":"大武街５９７巷１之１號","OBJECTID":436723},"geometry":{"x":170211.34000000078,"y":2546444.7100000046}},{"attributes":{"ID":436749,"DIS_CODE":0,"TOWNNAME":"北區","LI":"永祥里","LIN":" ","STREET":"實踐街","SECT":" ","MAREA":" ","LANE":"８５巷","ALLEY":" ","HOUSE_NO":"３號","E_COORD97":169986.29999999999,"N_COORD97":2546034.1699999999,"ADDRESS":"實踐街８５巷３號","OBJECTID":436724},"geometry":{"x":169986.30000000075,"y":2546034.1700000018}},{"attributes":{"ID":436750,"DIS_CODE":0,"TOWNNAME":"北區","LI":"永祥里","LIN":" ","STREET":"實踐街","SECT":" ","MAREA":" ","LANE":"８５巷","ALLEY":" ","HOUSE_NO":"５號","E_COORD97":169988.56,"N_COORD97":2546042.21,"ADDRESS":"實踐街８５巷５號","OBJECTID":436725},"geometry":{"x":169988.55999999959,"y":2546042.2100000028}},{"attributes":{"ID":436751,"DIS_CODE":0,"TOWNNAME":"北區","LI":"永祥里","LIN":" ","STREET":"實踐街","SECT":" ","MAREA":" ","LANE":"７１巷","ALLEY":" ","HOUSE_NO":"１２號","E_COORD97":169963.79000000001,"N_COORD97":2546056.73,"ADDRESS":"實踐街７１巷１２號","OBJECTID":436726},"geometry":{"x":169963.79000000004,"y":2546056.7300000004}},{"attributes":{"ID":436752,"DIS_CODE":0,"TOWNNAME":"北區","LI":"永祥里","LIN":" ","STREET":"實踐街","SECT":" ","MAREA":" ","LANE":"７１巷","ALLEY":" ","HOUSE_NO":"８９號","E_COORD97":169981.82000000001,"N_COORD97":2546281.6499999999,"ADDRESS":"實踐街７１巷８９號","OBJECTID":436727},"geometry":{"x":169981.82000000123,"y":2546281.6500000041}},{"attributes":{"ID":436753,"DIS_CODE":0,"TOWNNAME":"北區","LI":"永祥里","LIN":" ","STREET":"大武街","SECT":" ","MAREA":" ","LANE":"５９７巷","ALLEY":" ","HOUSE_NO":"６８號","E_COORD97":170268.76000000001,"N_COORD97":2546627.1699999999,"ADDRESS":"大武街５９７巷６８號","OBJECTID":436728},"geometry":{"x":170268.75999999978,"y":2546627.1700000018}},{"attributes":{"ID":436754,"DIS_CODE":0,"TOWNNAME":"北區","LI":"玉皇里","LIN":" ","STREET":"公園路","SECT":" ","MAREA":" ","LANE":"６８巷","ALLEY":" ","HOUSE_NO":"１７號","E_COORD97":168679.94,"N_COORD97":2544348.9900000002,"ADDRESS":"公園路６８巷１７號","OBJECTID":436729},"geometry":{"x":168679.94000000041,"y":2544348.9900000002}},{"attributes":{"ID":436755,"DIS_CODE":0,"TOWNNAME":"北區","LI":"成德里","LIN":" ","STREET":"西門路","SECT":"四段","MAREA":" ","LANE":"７巷","ALLEY":" ","HOUSE_NO":"５２號","E_COORD97":168491.95999999999,"N_COORD97":2545286.1699999999,"ADDRESS":"西門路四段７巷５２號","OBJECTID":436730},"geometry":{"x":168491.96000000089,"y":2545286.1699999999}},{"attributes":{"ID":436756,"DIS_CODE":0,"TOWNNAME":"北區","LI":"成德里","LIN":" ","STREET":"西門路","SECT":"四段","MAREA":" ","LANE":"１巷","ALLEY":" ","HOUSE_NO":"５０號","E_COORD97":168478.64999999999,"N_COORD97":2545242.2200000002,"ADDRESS":"西門路四段１巷５０號","OBJECTID":436731},"geometry":{"x":168478.65000000037,"y":2545242.2200000025}},{"attributes":{"ID":436757,"DIS_CODE":0,"TOWNNAME":"北區","LI":"成德里","LIN":" ","STREET":"西門路","SECT":"四段","MAREA":" ","LANE":"１巷","ALLEY":" ","HOUSE_NO":"２０之１號","E_COORD97":168529.35999999999,"N_COORD97":2545211.3100000001,"ADDRESS":"西門路四段１巷２０之１號","OBJECTID":436732},"geometry":{"x":168529.36000000034,"y":2545211.3100000005}},{"attributes":{"ID":436758,"DIS_CODE":0,"TOWNNAME":"北區","LI":"成德里","LIN":" ","STREET":"西門路","SECT":"四段","MAREA":" ","LANE":"１巷","ALLEY":" ","HOUSE_NO":"３８號","E_COORD97":168503.64999999999,"N_COORD97":2545223.8900000001,"ADDRESS":"西門路四段１巷３８號","OBJECTID":436733},"geometry":{"x":168503.65000000037,"y":2545223.8900000025}},{"attributes":{"ID":436759,"DIS_CODE":0,"TOWNNAME":"北區","LI":"成德里","LIN":" ","STREET":"育德路","SECT":" ","MAREA":" ","LANE":"１７７巷","ALLEY":" ","HOUSE_NO":"１４１號","E_COORD97":168212.60999999999,"N_COORD97":2545548.1800000002,"ADDRESS":"育德路１７７巷１４１號","OBJECTID":436734},"geometry":{"x":168212.61000000034,"y":2545548.1799999978}},{"attributes":{"ID":436760,"DIS_CODE":0,"TOWNNAME":"北區","LI":"延平里","LIN":" ","STREET":"公園路","SECT":" ","MAREA":" ","LANE":"７８８巷","ALLEY":" ","HOUSE_NO":"４１之１號","E_COORD97":169221.41,"N_COORD97":2545744.9300000002,"ADDRESS":"公園路７８８巷４１之１號","OBJECTID":436735},"geometry":{"x":169221.41000000108,"y":2545744.9300000016}},{"attributes":{"ID":436761,"DIS_CODE":0,"TOWNNAME":"北區","LI":"延平里","LIN":" ","STREET":"公園路","SECT":" ","MAREA":" ","LANE":"７５８巷","ALLEY":" ","HOUSE_NO":"５６號","E_COORD97":169281.17999999999,"N_COORD97":2545629.2400000002,"ADDRESS":"公園路７５８巷５６號","OBJECTID":436736},"geometry":{"x":169281.1799999997,"y":2545629.2400000002}},{"attributes":{"ID":436762,"DIS_CODE":0,"TOWNNAME":"北區","LI":"延平里","LIN":" ","STREET":"公園路","SECT":" ","MAREA":" ","LANE":"７５８巷","ALLEY":" ","HOUSE_NO":"２５之１號","E_COORD97":169208.79000000001,"N_COORD97":2545680.6600000001,"ADDRESS":"公園路７５８巷２５之１號","OBJECTID":436737},"geometry":{"x":169208.79000000097,"y":2545680.6600000001}},{"attributes":{"ID":436763,"DIS_CODE":0,"TOWNNAME":"北區","LI":"延平里","LIN":" ","STREET":"公園路","SECT":" ","MAREA":" ","LANE":"７５８巷","ALLEY":" ","HOUSE_NO":"２７之１號","E_COORD97":169212.01000000001,"N_COORD97":2545676.8700000001,"ADDRESS":"公園路７５８巷２７之１號","OBJECTID":436738},"geometry":{"x":169212.01000000071,"y":2545676.870000001}},{"attributes":{"ID":436764,"DIS_CODE":0,"TOWNNAME":"北區","LI":"延平里","LIN":"8鄰","STREET":"公園路","SECT":" ","MAREA":" ","LANE":"７５８巷","ALLEY":" ","HOUSE_NO":"２９號之１","E_COORD97":169216.78,"N_COORD97":2545677.9900000002,"ADDRESS":"公園路７５８巷２９之１號","OBJECTID":436739},"geometry":{"x":169216.78000000026,"y":2545677.9900000002}},{"attributes":{"ID":436765,"DIS_CODE":0,"TOWNNAME":"北區","LI":"延平里","LIN":"8鄰","STREET":"公園路","SECT":" ","MAREA":" ","LANE":"７５８巷","ALLEY":" ","HOUSE_NO":"３１號之１","E_COORD97":169219.45000000001,"N_COORD97":2545675.0499999998,"ADDRESS":"公園路７５８巷３１之１號","OBJECTID":436740},"geometry":{"x":169219.45000000112,"y":2545675.0500000007}},{"attributes":{"ID":436766,"DIS_CODE":0,"TOWNNAME":"北區","LI":"延平里","LIN":"8鄰","STREET":"公園路","SECT":" ","MAREA":" ","LANE":"７５８巷","ALLEY":" ","HOUSE_NO":"３３號之１","E_COORD97":169224.35999999999,"N_COORD97":2545673.0899999999,"ADDRESS":"公園路７５８巷３３之１號","OBJECTID":436741},"geometry":{"x":169224.36000000034,"y":2545673.0899999999}},{"attributes":{"ID":436767,"DIS_CODE":0,"TOWNNAME":"北區","LI":"延平里","LIN":" ","STREET":"公園路","SECT":" ","MAREA":" ","LANE":"７４６巷","ALLEY":" ","HOUSE_NO":"１４號","E_COORD97":169114.44,"N_COORD97":2545479.71,"ADDRESS":"公園路７４６巷１４號","OBJECTID":436742},"geometry":{"x":169114.44000000134,"y":2545479.7100000028}},{"attributes":{"ID":436768,"DIS_CODE":0,"TOWNNAME":"北區","LI":"延平里","LIN":" ","STREET":"公園路","SECT":" ","MAREA":" ","LANE":"７４６巷","ALLEY":" ","HOUSE_NO":"２７之４９號","E_COORD97":169172.10000000001,"N_COORD97":2545449.75,"ADDRESS":"公園路７４６巷２７之４９號","OBJECTID":436743},"geometry":{"x":169172.10000000056,"y":2545449.7499999981}},{"attributes":{"ID":436769,"DIS_CODE":0,"TOWNNAME":"北區","LI":"延平里","LIN":" ","STREET":"公園路","SECT":" ","MAREA":" ","LANE":"７４６巷","ALLEY":" ","HOUSE_NO":"２７之５３號","E_COORD97":169170.42000000001,"N_COORD97":2545441.48,"ADDRESS":"公園路７４６巷２７之５３號","OBJECTID":436744},"geometry":{"x":169170.42000000086,"y":2545441.4800000004}},{"attributes":{"ID":436770,"DIS_CODE":0,"TOWNNAME":"北區","LI":"延平里","LIN":" ","STREET":"公園路","SECT":" ","MAREA":" ","LANE":"７４６巷","ALLEY":" ","HOUSE_NO":"３５號","E_COORD97":169152.32000000001,"N_COORD97":2545453.3900000001,"ADDRESS":"公園路７４６巷３５號","OBJECTID":436745},"geometry":{"x":169152.32000000216,"y":2545453.3900000025}},{"attributes":{"ID":436771,"DIS_CODE":0,"TOWNNAME":"北區","LI":"延平里","LIN":" ","STREET":"公園路","SECT":" ","MAREA":" ","LANE":"７４６巷","ALLEY":" ","HOUSE_NO":"４１號","E_COORD97":169151.20000000001,"N_COORD97":2545436.29,"ADDRESS":"公園路７４６巷４１號","OBJECTID":436746},"geometry":{"x":169151.19999999925,"y":2545436.290000001}},{"attributes":{"ID":436772,"DIS_CODE":0,"TOWNNAME":"北區","LI":"延平里","LIN":" ","STREET":"公園路","SECT":" ","MAREA":" ","LANE":"７４６巷","ALLEY":" ","HOUSE_NO":"７之６號","E_COORD97":169093.95999999999,"N_COORD97":2545491.0699999998,"ADDRESS":"公園路７４６巷７之６號","OBJECTID":436747},"geometry":{"x":169093.96000000089,"y":2545491.0700000003}},{"attributes":{"ID":436773,"DIS_CODE":0,"TOWNNAME":"北區","LI":"東興里","LIN":" ","STREET":"小東路","SECT":" ","MAREA":" ","LANE":"４０１巷","ALLEY":" ","HOUSE_NO":"５０號之２","E_COORD97":171302.51000000001,"N_COORD97":2544470.5499999998,"ADDRESS":"小東路４０１巷５０號之２","OBJECTID":436748},"geometry":{"x":171302.50999999978,"y":2544470.5500000007}},{"attributes":{"ID":436774,"DIS_CODE":0,"TOWNNAME":"北區","LI":"振興里","LIN":" ","STREET":"長榮路","SECT":"四段","MAREA":" ","LANE":"７６巷","ALLEY":" ","HOUSE_NO":"１０號","E_COORD97":170357.01999999999,"N_COORD97":2545016.54,"ADDRESS":"長榮路四段７６巷１０號","OBJECTID":436749},"geometry":{"x":170357.01999999862,"y":2545016.5400000028}},{"attributes":{"ID":436775,"DIS_CODE":0,"TOWNNAME":"北區","LI":"國姓里","LIN":" ","STREET":"公園路","SECT":" ","MAREA":" ","LANE":"３７７巷","ALLEY":" ","HOUSE_NO":"６０號","E_COORD97":168794.85000000001,"N_COORD97":2545220.7599999998,"ADDRESS":"公園路３７７巷６０號","OBJECTID":436750},"geometry":{"x":168794.84999999963,"y":2545220.7599999998}},{"attributes":{"ID":436776,"DIS_CODE":0,"TOWNNAME":"北區","LI":"國姓里","LIN":" ","STREET":"公園路","SECT":" ","MAREA":" ","LANE":"４２７巷","ALLEY":" ","HOUSE_NO":"４號","E_COORD97":168970.63,"N_COORD97":2545313.2799999998,"ADDRESS":"公園路４２７巷４號","OBJECTID":436751},"geometry":{"x":168970.63000000082,"y":2545313.2800000031}},{"attributes":{"ID":436777,"DIS_CODE":0,"TOWNNAME":"北區","LI":"開元里","LIN":" ","STREET":"北園街","SECT":" ","MAREA":" ","LANE":"９９巷","ALLEY":" ","HOUSE_NO":"５１號","E_COORD97":170178.10000000001,"N_COORD97":2545877.3999999999,"ADDRESS":"北園街９９巷５１號","OBJECTID":436752},"geometry":{"x":170178.09999999963,"y":2545877.4000000022}},{"attributes":{"ID":436778,"DIS_CODE":0,"TOWNNAME":"北區","LI":"興北里","LIN":"4鄰","STREET":"公園北路","SECT":" ","MAREA":" ","LANE":"７８巷","ALLEY":" ","HOUSE_NO":"８號","E_COORD97":169175.26000000001,"N_COORD97":2545022.4199999999,"ADDRESS":"公園北路７８巷８號","OBJECTID":436753},"geometry":{"x":169175.25999999978,"y":2545022.4200000018}},{"attributes":{"ID":436779,"DIS_CODE":0,"TOWNNAME":"北區","LI":"興北里","LIN":"4鄰","STREET":"公園北路","SECT":" ","MAREA":" ","LANE":"７８巷","ALLEY":" ","HOUSE_NO":"１４號","E_COORD97":169174.41,"N_COORD97":2545044.6299999999,"ADDRESS":"公園北路７８巷１４號","OBJECTID":436754},"geometry":{"x":169174.41000000015,"y":2545044.629999999}},{"attributes":{"ID":436780,"DIS_CODE":0,"TOWNNAME":"北區","LI":"興北里","LIN":"4鄰","STREET":"公園北路","SECT":" ","MAREA":" ","LANE":"７８巷","ALLEY":" ","HOUSE_NO":"１６號","E_COORD97":169174.26999999999,"N_COORD97":2545048.6800000002,"ADDRESS":"公園北路７８巷１６號","OBJECTID":436755},"geometry":{"x":169174.27000000048,"y":2545048.6799999997}},{"attributes":{"ID":436781,"DIS_CODE":0,"TOWNNAME":"北區","LI":"興北里","LIN":"4鄰","STREET":"公園北路","SECT":" ","MAREA":" ","LANE":"７８巷","ALLEY":" ","HOUSE_NO":"１８號","E_COORD97":169172.91,"N_COORD97":2545053.23,"ADDRESS":"公園北路７８巷１８號","OBJECTID":436756},"geometry":{"x":169172.91000000015,"y":2545053.2300000004}},{"attributes":{"ID":436782,"DIS_CODE":0,"TOWNNAME":"北區","LI":"興北里","LIN":"4鄰","STREET":"公園北路","SECT":" ","MAREA":" ","LANE":"７８巷","ALLEY":" ","HOUSE_NO":"２０號","E_COORD97":169170.42000000001,"N_COORD97":2545060.96,"ADDRESS":"公園北路７８巷２０號","OBJECTID":436757},"geometry":{"x":169170.42000000086,"y":2545060.9600000028}},{"attributes":{"ID":436783,"DIS_CODE":0,"TOWNNAME":"北區","LI":"實踐里","LIN":" ","STREET":"大武街","SECT":" ","MAREA":" ","LANE":"１９９巷","ALLEY":" ","HOUSE_NO":"３號之２","E_COORD97":169596.56,"N_COORD97":2546049.6299999999,"ADDRESS":"大武街１９９巷３號之２","OBJECTID":436758},"geometry":{"x":169596.56000000052,"y":2546049.6300000027}},{"attributes":{"ID":436784,"DIS_CODE":0,"TOWNNAME":"北區","LI":"興北里","LIN":"4鄰","STREET":"公園北路","SECT":" ","MAREA":" ","LANE":"７８巷","ALLEY":" ","HOUSE_NO":"２２號","E_COORD97":169168.92000000001,"N_COORD97":2545066.5800000001,"ADDRESS":"公園北路７８巷２２號","OBJECTID":436759},"geometry":{"x":169168.92000000086,"y":2545066.5800000001}},{"attributes":{"ID":436785,"DIS_CODE":0,"TOWNNAME":"北區","LI":"興北里","LIN":"4鄰","STREET":"公園北路","SECT":" ","MAREA":" ","LANE":"７８巷","ALLEY":" ","HOUSE_NO":"２６號","E_COORD97":169157.17000000001,"N_COORD97":2545077.9700000002,"ADDRESS":"公園北路７８巷２６號","OBJECTID":436760},"geometry":{"x":169157.16999999993,"y":2545077.9700000007}},{"attributes":{"ID":436786,"DIS_CODE":0,"TOWNNAME":"北區","LI":"興北里","LIN":"4鄰","STREET":"公園北路","SECT":" ","MAREA":" ","LANE":"７８巷","ALLEY":" ","HOUSE_NO":"２８號","E_COORD97":169165.78,"N_COORD97":2545085.7799999998,"ADDRESS":"公園北路７８巷２８號","OBJECTID":436761},"geometry":{"x":169165.78000000026,"y":2545085.7799999993}},{"attributes":{"ID":436787,"DIS_CODE":0,"TOWNNAME":"北區","LI":"興北里","LIN":"4鄰","STREET":"公園北路","SECT":" ","MAREA":" ","LANE":"７８巷","ALLEY":" ","HOUSE_NO":"３０號","E_COORD97":169157.53,"N_COORD97":2545089.5499999998,"ADDRESS":"公園北路７８巷３０號","OBJECTID":436762},"geometry":{"x":169157.53000000212,"y":2545089.5500000026}},{"attributes":{"ID":436788,"DIS_CODE":0,"TOWNNAME":"北區","LI":"興北里","LIN":" ","STREET":"公園路","SECT":" ","MAREA":" ","LANE":"６２４巷","ALLEY":" ","HOUSE_NO":"１２號","E_COORD97":169068.37,"N_COORD97":2545317.2000000002,"ADDRESS":"公園路６２４巷１２號","OBJECTID":436763},"geometry":{"x":169068.37000000011,"y":2545317.200000003}},{"attributes":{"ID":436789,"DIS_CODE":0,"TOWNNAME":"北區","LI":"興北里","LIN":" ","STREET":"公園路","SECT":" ","MAREA":" ","LANE":"６２４巷","ALLEY":" ","HOUSE_NO":"２４號","E_COORD97":169117.95000000001,"N_COORD97":2545308.1099999999,"ADDRESS":"公園路６２４巷２４號","OBJECTID":436764},"geometry":{"x":169117.95000000112,"y":2545308.1100000013}},{"attributes":{"ID":436790,"DIS_CODE":0,"TOWNNAME":"北區","LI":"興北里","LIN":"5鄰","STREET":"公園北路","SECT":" ","MAREA":" ","LANE":"７８巷","ALLEY":" ","HOUSE_NO":"３５號之１","E_COORD97":169133.82569500001,"N_COORD97":2545128.5170999998,"ADDRESS":"公園北路７８巷３５號之１","OBJECTID":436765},"geometry":{"x":169133.82569499966,"y":2545128.5171030015}},{"attributes":{"ID":436791,"DIS_CODE":0,"TOWNNAME":"北區","LI":"興北里","LIN":"4鄰","STREET":"公園北路","SECT":" ","MAREA":" ","LANE":"７８巷","ALLEY":" ","HOUSE_NO":"２２號之１","E_COORD97":169167.70999999999,"N_COORD97":2545070.4900000002,"ADDRESS":"公園北路７８巷２２之１號","OBJECTID":436766},"geometry":{"x":169167.70999999996,"y":2545070.4900000002}},{"attributes":{"ID":436792,"DIS_CODE":0,"TOWNNAME":"北區","LI":"興北里","LIN":" ","STREET":"公園北路","SECT":" ","MAREA":" ","LANE":"７８巷","ALLEY":" ","HOUSE_NO":"３０之１號","E_COORD97":169155.10999999999,"N_COORD97":2545095.0099999998,"ADDRESS":"公園北路７８巷３０之１號","OBJECTID":436767},"geometry":{"x":169155.11000000034,"y":2545095.0099999998}},{"attributes":{"ID":436793,"DIS_CODE":0,"TOWNNAME":"北區","LI":"興北里","LIN":" ","STREET":"公園北路","SECT":" ","MAREA":" ","LANE":"７８巷","ALLEY":" ","HOUSE_NO":"３０之２號","E_COORD97":169155.26000000001,"N_COORD97":2545105.8100000001,"ADDRESS":"公園北路７８巷３０之２號","OBJECTID":436768},"geometry":{"x":169155.25999999978,"y":2545105.8100000024}},{"attributes":{"ID":436794,"DIS_CODE":0,"TOWNNAME":"北區","LI":"興北里","LIN":" ","STREET":"公園北路","SECT":" ","MAREA":" ","LANE":"８８巷","ALLEY":" ","HOUSE_NO":"６３號","E_COORD97":169095.87,"N_COORD97":2545188.2799999998,"ADDRESS":"公園北路８８巷６３號","OBJECTID":436769},"geometry":{"x":169095.87000000197,"y":2545188.2800000012}},{"attributes":{"ID":436795,"DIS_CODE":0,"TOWNNAME":"北區","LI":"興北里","LIN":" ","STREET":"公園北路","SECT":" ","MAREA":" ","LANE":"８８巷","ALLEY":" ","HOUSE_NO":"６３之１號","E_COORD97":169089.82999999999,"N_COORD97":2545187.98,"ADDRESS":"公園北路８８巷６３之１號","OBJECTID":436770},"geometry":{"x":169089.83000000101,"y":2545187.9800000042}},{"attributes":{"ID":436796,"DIS_CODE":0,"TOWNNAME":"北區","LI":"興南里","LIN":" ","STREET":"公園南路","SECT":" ","MAREA":" ","LANE":"９６巷","ALLEY":" ","HOUSE_NO":"５號","E_COORD97":168740.66,"N_COORD97":2544685,"ADDRESS":"公園南路９６巷５號","OBJECTID":436771},"geometry":{"x":168740.66000000015,"y":2544685}},{"attributes":{"ID":436797,"DIS_CODE":0,"TOWNNAME":"北區","LI":"興北里","LIN":"8鄰","STREET":"公園北路","SECT":" ","MAREA":" ","LANE":"８８巷","ALLEY":" ","HOUSE_NO":"７２號","E_COORD97":169114.44,"N_COORD97":2545191.5,"ADDRESS":"公園北路８８巷７２號","OBJECTID":436772},"geometry":{"x":169114.44000000134,"y":2545191.5000000019}},{"attributes":{"ID":436798,"DIS_CODE":0,"TOWNNAME":"北區","LI":"大港里","LIN":"24鄰","STREET":"中華北路","SECT":"一段","MAREA":" ","LANE":"２０３巷","ALLEY":" ","HOUSE_NO":"２７之１號","E_COORD97":166421.60000000001,"N_COORD97":2545715.1800000002,"ADDRESS":"中華北路一段２０３巷２７之１號","OBJECTID":436773},"geometry":{"x":166421.59999999963,"y":2545715.1800000016}},{"attributes":{"ID":436799,"DIS_CODE":0,"TOWNNAME":"北區","LI":"延平里","LIN":"6鄰","STREET":"公園路","SECT":" ","MAREA":" ","LANE":"７４６巷","ALLEY":" ","HOUSE_NO":"２５號之１７","E_COORD97":169194.32000000001,"N_COORD97":2545477.5299999998,"ADDRESS":"公園路７４６巷２５號之１７","OBJECTID":436774},"geometry":{"x":169194.3200000003,"y":2545477.5299999993}},{"attributes":{"ID":436800,"DIS_CODE":0,"TOWNNAME":"北區","LI":"賢北里","LIN":"1鄰","STREET":"中華北路","SECT":"一段","MAREA":" ","LANE":"５３巷","ALLEY":" ","HOUSE_NO":"２５號","E_COORD97":166461.67000000001,"N_COORD97":2545346.8399999999,"ADDRESS":"中華北路一段５３巷２５號","OBJECTID":436775},"geometry":{"x":166461.67000000086,"y":2545346.8399999999}},{"attributes":{"ID":436801,"DIS_CODE":0,"TOWNNAME":"北區","LI":"賢北里","LIN":"1鄰","STREET":"中華北路","SECT":"一段","MAREA":" ","LANE":"５３巷","ALLEY":" ","HOUSE_NO":"２７號","E_COORD97":166457.98999999999,"N_COORD97":2545345.0600000001,"ADDRESS":"中華北路一段５３巷２７號","OBJECTID":436776},"geometry":{"x":166457.99000000115,"y":2545345.0600000005}},{"attributes":{"ID":436802,"DIS_CODE":0,"TOWNNAME":"北區","LI":"賢北里","LIN":"1鄰","STREET":"中華北路","SECT":"一段","MAREA":" ","LANE":"５３巷","ALLEY":" ","HOUSE_NO":"２９號","E_COORD97":166454.04999999999,"N_COORD97":2545343.4100000001,"ADDRESS":"中華北路一段５３巷２９號","OBJECTID":436777},"geometry":{"x":166454.04999999981,"y":2545343.4100000001}},{"attributes":{"ID":436803,"DIS_CODE":0,"TOWNNAME":"北區","LI":"賢北里","LIN":"1鄰","STREET":"中華北路","SECT":"一段","MAREA":" ","LANE":"５３巷","ALLEY":" ","HOUSE_NO":"３１號","E_COORD97":166449.85999999999,"N_COORD97":2545341.6299999999,"ADDRESS":"中華北路一段５３巷３１號","OBJECTID":436778},"geometry":{"x":166449.8600000022,"y":2545341.6300000008}},{"attributes":{"ID":436804,"DIS_CODE":0,"TOWNNAME":"北區","LI":"賢北里","LIN":"1鄰","STREET":"中華北路","SECT":"一段","MAREA":" ","LANE":"５３巷","ALLEY":" ","HOUSE_NO":"３３號","E_COORD97":166446.04999999999,"N_COORD97":2545340.3599999999,"ADDRESS":"中華北路一段５３巷３３號","OBJECTID":436779},"geometry":{"x":166446.04999999981,"y":2545340.3600000013}},{"attributes":{"ID":436805,"DIS_CODE":0,"TOWNNAME":"新營區","LI":"忠政里","LIN":"26鄰","STREET":"府西路","SECT":" ","MAREA":" ","LANE":"１５９巷","ALLEY":" ","HOUSE_NO":"１４號","E_COORD97":179753.17999999999,"N_COORD97":2579403.3700000001,"ADDRESS":"府西路１５９巷１４號","OBJECTID":436780},"geometry":{"x":179753.18000000063,"y":2579403.370000001}},{"attributes":{"ID":436806,"DIS_CODE":0,"TOWNNAME":"新營區","LI":"新南里","LIN":"26鄰","STREET":"復興路","SECT":" ","MAREA":" ","LANE":"６２０巷","ALLEY":" ","HOUSE_NO":"５７號","E_COORD97":178043.88,"N_COORD97":2578514.54,"ADDRESS":"復興路６２０巷５７號","OBJECTID":436781},"geometry":{"x":178043.87999999989,"y":2578514.540000001}},{"attributes":{"ID":436807,"DIS_CODE":0,"TOWNNAME":"新營區","LI":"南興里","LIN":"26鄰","STREET":"和平路","SECT":" ","MAREA":" ","LANE":"１０４巷","ALLEY":" ","HOUSE_NO":"５之１號","E_COORD97":179385.57999999999,"N_COORD97":2577547.9700000002,"ADDRESS":"和平路１０４巷５之１號","OBJECTID":436782},"geometry":{"x":179385.58000000007,"y":2577547.9700000007}},{"attributes":{"ID":436808,"DIS_CODE":0,"TOWNNAME":"新營區","LI":"南興里","LIN":"26鄰","STREET":"和平路","SECT":" ","MAREA":" ","LANE":"１０４巷","ALLEY":" ","HOUSE_NO":"９號","E_COORD97":179372.81,"N_COORD97":2577549.0800000001,"ADDRESS":"和平路１０４巷９號","OBJECTID":436783},"geometry":{"x":179372.80999999959,"y":2577549.0800000019}},{"attributes":{"ID":436809,"DIS_CODE":0,"TOWNNAME":"新營區","LI":"南興里","LIN":"25鄰","STREET":"和平路","SECT":" ","MAREA":" ","LANE":"９５巷","ALLEY":" ","HOUSE_NO":"４０號","E_COORD97":179553.38,"N_COORD97":2577591.4199999999,"ADDRESS":"和平路９５巷４０號","OBJECTID":436784},"geometry":{"x":179553.38000000082,"y":2577591.4199999999}},{"attributes":{"ID":436810,"DIS_CODE":0,"TOWNNAME":"新營區","LI":"中營里","LIN":"14鄰","STREET":"東昇街","SECT":" ","MAREA":" ","LANE":"１７７巷","ALLEY":" ","HOUSE_NO":"２８號","E_COORD97":181919.45999999999,"N_COORD97":2579165.1099999999,"ADDRESS":"東昇街１７７巷２８號","OBJECTID":436785},"geometry":{"x":181919.46000000089,"y":2579165.1100000013}},{"attributes":{"ID":436811,"DIS_CODE":0,"TOWNNAME":"新營區","LI":"南興里","LIN":"4鄰","STREET":"和平路","SECT":" ","MAREA":" ","LANE":"９５巷","ALLEY":" ","HOUSE_NO":"３６號之１","E_COORD97":179533.39000000001,"N_COORD97":2577592.6800000002,"ADDRESS":"和平路９５巷３６之１號","OBJECTID":436786},"geometry":{"x":179533.38999999966,"y":2577592.6799999997}},{"attributes":{"ID":436812,"DIS_CODE":0,"TOWNNAME":"新營區","LI":"新北里","LIN":"24鄰","STREET":"民生路","SECT":" ","MAREA":" ","LANE":"４２０巷","ALLEY":" ","HOUSE_NO":"３１號","E_COORD97":178880.79999999999,"N_COORD97":2579397.5600000001,"ADDRESS":"民生路４２０巷３１號","OBJECTID":436787},"geometry":{"x":178880.80000000075,"y":2579397.5600000024}},{"attributes":{"ID":436813,"DIS_CODE":0,"TOWNNAME":"新營區","LI":"民榮里","LIN":"5鄰","STREET":"興農街","SECT":" ","MAREA":" ","LANE":"４７巷","ALLEY":" ","HOUSE_NO":"２１號","E_COORD97":179282.42000000001,"N_COORD97":2577831.9199999999,"ADDRESS":"興農街４７巷２１號","OBJECTID":436788},"geometry":{"x":179282.42000000086,"y":2577831.9199999999}},{"attributes":{"ID":436814,"DIS_CODE":0,"TOWNNAME":"新營區","LI":"民榮里","LIN":"5鄰","STREET":"興農街","SECT":" ","MAREA":" ","LANE":"４７巷","ALLEY":" ","HOUSE_NO":"１３號","E_COORD97":179299.89000000001,"N_COORD97":2577863.9500000002,"ADDRESS":"興農街４７巷１３號","OBJECTID":436789},"geometry":{"x":179299.88999999966,"y":2577863.9500000011}},{"attributes":{"ID":436815,"DIS_CODE":0,"TOWNNAME":"新營區","LI":"南興里","LIN":"25鄰","STREET":"和平路","SECT":" ","MAREA":" ","LANE":"９５巷","ALLEY":" ","HOUSE_NO":"４０號之３","E_COORD97":179555.60999999999,"N_COORD97":2577591.4700000002,"ADDRESS":"和平路９５巷４０號之３","OBJECTID":436790},"geometry":{"x":179555.61000000127,"y":2577591.4700000025}},{"attributes":{"ID":436816,"DIS_CODE":0,"TOWNNAME":"新營區","LI":"南興里","LIN":" ","STREET":"興農街","SECT":" ","MAREA":" ","LANE":"１４０巷","ALLEY":" ","HOUSE_NO":"７之３號","E_COORD97":179226.92000000001,"N_COORD97":2577524.3700000001,"ADDRESS":"興農街１４０巷７之３號","OBJECTID":436791},"geometry":{"x":179226.91999999993,"y":2577524.3700000029}},{"attributes":{"ID":436817,"DIS_CODE":0,"TOWNNAME":"新營區","LI":"新北里","LIN":"24鄰","STREET":"民生路","SECT":" ","MAREA":" ","LANE":"４２０巷","ALLEY":" ","HOUSE_NO":"３０號","E_COORD97":178888.85999999999,"N_COORD97":2579374.27,"ADDRESS":"民生路４２０巷３０號","OBJECTID":436792},"geometry":{"x":178888.86000000034,"y":2579374.2700000014}},{"attributes":{"ID":436818,"DIS_CODE":0,"TOWNNAME":"新營區","LI":"南興里","LIN":" ","STREET":"興農街","SECT":" ","MAREA":" ","LANE":"１４０巷","ALLEY":" ","HOUSE_NO":"９之４號","E_COORD97":179214.59,"N_COORD97":2577524.4199999999,"ADDRESS":"興農街１４０巷９之４號","OBJECTID":436793},"geometry":{"x":179214.59000000078,"y":2577524.4199999999}},{"attributes":{"ID":436819,"DIS_CODE":0,"TOWNNAME":"新營區","LI":"民生里","LIN":" ","STREET":"三民路","SECT":" ","MAREA":" ","LANE":"２０８巷","ALLEY":" ","HOUSE_NO":"１６之２號","E_COORD97":179090.79999999999,"N_COORD97":2578109.7599999998,"ADDRESS":"三民路２０８巷１６之２號","OBJECTID":436794},"geometry":{"x":179090.80000000168,"y":2578109.7600000016}},{"attributes":{"ID":436820,"DIS_CODE":0,"TOWNNAME":"新營區","LI":"民生里","LIN":" ","STREET":"三民路","SECT":" ","MAREA":" ","LANE":"１８６巷","ALLEY":" ","HOUSE_NO":"５號","E_COORD97":179190.92000000001,"N_COORD97":2578221.0699999998,"ADDRESS":"三民路１８６巷５號","OBJECTID":436795},"geometry":{"x":179190.92000000086,"y":2578221.0700000022}},{"attributes":{"ID":436821,"DIS_CODE":0,"TOWNNAME":"新營區","LI":"南興里","LIN":"4鄰","STREET":"和平路","SECT":" ","MAREA":" ","LANE":"９５巷","ALLEY":" ","HOUSE_NO":"３３號","E_COORD97":179518.69,"N_COORD97":2577607.0899999999,"ADDRESS":"和平路９５巷３３號","OBJECTID":436796},"geometry":{"x":179518.69000000041,"y":2577607.0899999999}},{"attributes":{"ID":436822,"DIS_CODE":0,"TOWNNAME":"新營區","LI":"南興里","LIN":" ","STREET":"和平路","SECT":" ","MAREA":" ","LANE":"１０４巷","ALLEY":" ","HOUSE_NO":"５之２號","E_COORD97":179385.57999999999,"N_COORD97":2577547.9700000002,"ADDRESS":"和平路１０４巷５之２號","OBJECTID":436797},"geometry":{"x":179385.58000000007,"y":2577547.9700000007}},{"attributes":{"ID":436823,"DIS_CODE":0,"TOWNNAME":"新營區","LI":"興業里","LIN":" ","STREET":"公誠街","SECT":" ","MAREA":" ","LANE":"１１巷","ALLEY":" ","HOUSE_NO":"１之３號","E_COORD97":180304.10999999999,"N_COORD97":2577975.5299999998,"ADDRESS":"公誠街１１巷１之３號","OBJECTID":436798},"geometry":{"x":180304.11000000034,"y":2577975.5300000012}},{"attributes":{"ID":436824,"DIS_CODE":0,"TOWNNAME":"新營區","LI":"興業里","LIN":" ","STREET":"公誠街","SECT":" ","MAREA":" ","LANE":"９巷","ALLEY":" ","HOUSE_NO":"１之４號","E_COORD97":180305.34,"N_COORD97":2578019.8199999998,"ADDRESS":"公誠街９巷１之４號","OBJECTID":436799},"geometry":{"x":180305.33999999985,"y":2578019.8200000003}},{"attributes":{"ID":436825,"DIS_CODE":0,"TOWNNAME":"新營區","LI":"興業里","LIN":" ","STREET":"公誠街","SECT":" ","MAREA":" ","LANE":"１１巷","ALLEY":" ","HOUSE_NO":"１之２號","E_COORD97":180304.10999999999,"N_COORD97":2577975.5299999998,"ADDRESS":"公誠街１１巷１之２號","OBJECTID":436800},"geometry":{"x":180304.11000000034,"y":2577975.5300000012}}]}