{"displayFieldName":"TOWNNAME","fieldAliases":{"ID":"ID","DIS_CODE":"DIS_CODE","TOWNNAME":"TOWNNAME","LI":"LI","LIN":"LIN","STREET":"STREET","SECT":"SECT","MAREA":"MAREA","LANE":"LANE","ALLEY":"ALLEY","HOUSE_NO":"HOUSE_NO","E_COORD97":"E_COORD97","N_COORD97":"N_COORD97","ADDRESS":"ADDRESS","OBJECTID":"OBJECTID"},"geometryType":"esriGeometryPoint","spatialReference":{"wkid":102443,"latestWkid":3826},"fields":[{"name":"ID","type":"esriFieldTypeDouble","alias":"ID"},{"name":"DIS_CODE","type":"esriFieldTypeInteger","alias":"DIS_CODE"},{"name":"TOWNNAME","type":"esriFieldTypeString","alias":"TOWNNAME","length":8},{"name":"LI","type":"esriFieldTypeString","alias":"LI","length":8},{"name":"LIN","type":"esriFieldTypeString","alias":"LIN","length":12},{"name":"STREET","type":"esriFieldTypeString","alias":"STREET","length":20},{"name":"SECT","type":"esriFieldTypeString","alias":"SECT","length":8},{"name":"MAREA","type":"esriFieldTypeString","alias":"MAREA","length":12},{"name":"LANE","type":"esriFieldTypeString","alias":"LANE","length":10},{"name":"ALLEY","type":"esriFieldTypeString","alias":"ALLEY","length":10},{"name":"HOUSE_NO","type":"esriFieldTypeString","alias":"HOUSE_NO","length":20},{"name":"E_COORD97","type":"esriFieldTypeDouble","alias":"E_COORD97"},{"name":"N_COORD97","type":"esriFieldTypeDouble","alias":"N_COORD97"},{"name":"ADDRESS","type":"esriFieldTypeString","alias":"ADDRESS","length":50},{"name":"OBJECTID","type":"esriFieldTypeOID","alias":"OBJECTID"}],"features":[{"attributes":{"ID":170402,"DIS_CODE":0,"TOWNNAME":"後壁區","LI":"長安里","LIN":"13鄰","STREET":" ","SECT":" ","MAREA":"中寮","LANE":" ","ALLEY":" ","HOUSE_NO":"２５６號","E_COORD97":184054.10999999999,"N_COORD97":2581406.7599999998,"ADDRESS":"中寮２５６號","OBJECTID":170401},"geometry":{"x":184054.11000000034,"y":2581406.7599999998}},{"attributes":{"ID":170403,"DIS_CODE":0,"TOWNNAME":"後壁區","LI":"長安里","LIN":"13鄰","STREET":" ","SECT":" ","MAREA":"中寮","LANE":" ","ALLEY":" ","HOUSE_NO":"２５８號","E_COORD97":184043.04999999999,"N_COORD97":2581404.6400000001,"ADDRESS":"中寮２５８號","OBJECTID":170402},"geometry":{"x":184043.05000000075,"y":2581404.6400000006}},{"attributes":{"ID":170404,"DIS_CODE":0,"TOWNNAME":"北區","LI":"和順里","LIN":"28鄰","STREET":"臨安路","SECT":"二段","MAREA":" ","LANE":"１４３巷","ALLEY":"１１２弄","HOUSE_NO":"５號","E_COORD97":167795.45999999999,"N_COORD97":2545181.5099999998,"ADDRESS":"臨安路二段１４３巷１１２弄５號","OBJECTID":170403},"geometry":{"x":167795.46000000089,"y":2545181.5100000016}},{"attributes":{"ID":170405,"DIS_CODE":0,"TOWNNAME":"北區","LI":"和順里","LIN":"28鄰","STREET":"臨安路","SECT":"二段","MAREA":" ","LANE":"１４３巷","ALLEY":"１１２弄","HOUSE_NO":"１６號","E_COORD97":167809.59,"N_COORD97":2545172.1499999999,"ADDRESS":"臨安路二段１４３巷１１２弄１６號","OBJECTID":170404},"geometry":{"x":167809.59000000078,"y":2545172.1500000004}},{"attributes":{"ID":170406,"DIS_CODE":0,"TOWNNAME":"北區","LI":"和順里","LIN":"28鄰","STREET":"臨安路","SECT":"二段","MAREA":" ","LANE":"１４３巷","ALLEY":"１１２弄","HOUSE_NO":"１８號","E_COORD97":167813.88,"N_COORD97":2545172.46,"ADDRESS":"臨安路二段１４３巷１１２弄１８號","OBJECTID":170405},"geometry":{"x":167813.88000000175,"y":2545172.4600000028}},{"attributes":{"ID":170407,"DIS_CODE":0,"TOWNNAME":"北區","LI":"和順里","LIN":"28鄰","STREET":"臨安路","SECT":"二段","MAREA":" ","LANE":"１４３巷","ALLEY":"１１２弄","HOUSE_NO":"２０號","E_COORD97":167818.79999999999,"N_COORD97":2545172.7799999998,"ADDRESS":"臨安路二段１４３巷１１２弄２０號","OBJECTID":170406},"geometry":{"x":167818.79999999981,"y":2545172.7799999993}},{"attributes":{"ID":170408,"DIS_CODE":0,"TOWNNAME":"後壁區","LI":"長安里","LIN":"13鄰","STREET":" ","SECT":" ","MAREA":"中寮","LANE":" ","ALLEY":" ","HOUSE_NO":"２５９號","E_COORD97":184037.89000000001,"N_COORD97":2581403.3900000001,"ADDRESS":"中寮２５９號","OBJECTID":170407},"geometry":{"x":184037.88999999966,"y":2581403.3900000006}},{"attributes":{"ID":170409,"DIS_CODE":0,"TOWNNAME":"新營區","LI":"埤寮里","LIN":"12鄰","STREET":" ","SECT":" ","MAREA":"埤寮","LANE":" ","ALLEY":" ","HOUSE_NO":"９２－８號","E_COORD97":180391.94,"N_COORD97":2580784.21,"ADDRESS":"埤寮９２－８號","OBJECTID":170408},"geometry":{"x":180391.94000000041,"y":2580784.2100000009}},{"attributes":{"ID":170410,"DIS_CODE":0,"TOWNNAME":"北區","LI":"和順里","LIN":"28鄰","STREET":"臨安路","SECT":"二段","MAREA":" ","LANE":"１４３巷","ALLEY":"１１２弄","HOUSE_NO":"２２號","E_COORD97":167823.72,"N_COORD97":2545172.7799999998,"ADDRESS":"臨安路二段１４３巷１１２弄２２號","OBJECTID":170409},"geometry":{"x":167823.72000000067,"y":2545172.7799999993}},{"attributes":{"ID":170411,"DIS_CODE":0,"TOWNNAME":"北區","LI":"和順里","LIN":"28鄰","STREET":"臨安路","SECT":"二段","MAREA":" ","LANE":"１４３巷","ALLEY":"１１２弄","HOUSE_NO":"２６號","E_COORD97":167828.16,"N_COORD97":2545173.1000000001,"ADDRESS":"臨安路二段１４３巷１１２弄２６號","OBJECTID":170410},"geometry":{"x":167828.16000000108,"y":2545173.1000000015}},{"attributes":{"ID":170412,"DIS_CODE":0,"TOWNNAME":"北區","LI":"和順里","LIN":"28鄰","STREET":"臨安路","SECT":"二段","MAREA":" ","LANE":"１４３巷","ALLEY":"１１２弄","HOUSE_NO":"２８號","E_COORD97":167833.07999999999,"N_COORD97":2545173.1000000001,"ADDRESS":"臨安路二段１４３巷１１２弄２８號","OBJECTID":170411},"geometry":{"x":167833.08000000194,"y":2545173.1000000015}},{"attributes":{"ID":170413,"DIS_CODE":0,"TOWNNAME":"北區","LI":"大港里","LIN":"17鄰","STREET":"中華北路","SECT":"一段","MAREA":" ","LANE":"３６２巷","ALLEY":"２弄","HOUSE_NO":"１２號","E_COORD97":166651.16,"N_COORD97":2546013.3300000001,"ADDRESS":"中華北路一段３６２巷２弄１２號","OBJECTID":170412},"geometry":{"x":166651.16000000201,"y":2546013.3300000019}},{"attributes":{"ID":170414,"DIS_CODE":0,"TOWNNAME":"北區","LI":"國興里","LIN":"8鄰","STREET":"南園街","SECT":" ","MAREA":" ","LANE":"１０１巷","ALLEY":"２１弄","HOUSE_NO":"６７號","E_COORD97":170722.45000000001,"N_COORD97":2545494.3399999999,"ADDRESS":"南園街１０１巷２１弄６７號","OBJECTID":170413},"geometry":{"x":170722.45000000019,"y":2545494.3400000017}},{"attributes":{"ID":170415,"DIS_CODE":0,"TOWNNAME":"玉井區","LI":"玉田里","LIN":"26鄰","STREET":"中山路","SECT":" ","MAREA":" ","LANE":"３巷","ALLEY":"２９弄","HOUSE_NO":"１１號","E_COORD97":194850.35000000001,"N_COORD97":2557757.2400000002,"ADDRESS":"中山路３巷２９弄１１號","OBJECTID":170414},"geometry":{"x":194850.3499999987,"y":2557757.2400000039}},{"attributes":{"ID":170416,"DIS_CODE":0,"TOWNNAME":"後壁區","LI":"長安里","LIN":"13鄰","STREET":" ","SECT":" ","MAREA":"中寮","LANE":" ","ALLEY":" ","HOUSE_NO":"２６０號","E_COORD97":184032.81,"N_COORD97":2581401.9500000002,"ADDRESS":"中寮２６０號","OBJECTID":170415},"geometry":{"x":184032.81000000052,"y":2581401.9499999993}},{"attributes":{"ID":170417,"DIS_CODE":0,"TOWNNAME":"後壁區","LI":"長安里","LIN":"13鄰","STREET":" ","SECT":" ","MAREA":"中寮","LANE":" ","ALLEY":" ","HOUSE_NO":"２６１號","E_COORD97":184027.14000000001,"N_COORD97":2581400.2000000002,"ADDRESS":"中寮２６１號","OBJECTID":170416},"geometry":{"x":184027.1400000006,"y":2581400.1999999993}},{"attributes":{"ID":170418,"DIS_CODE":0,"TOWNNAME":"後壁區","LI":"長安里","LIN":"13鄰","STREET":" ","SECT":" ","MAREA":"中寮","LANE":" ","ALLEY":" ","HOUSE_NO":"２６２號","E_COORD97":184021.47,"N_COORD97":2581399.1600000001,"ADDRESS":"中寮２６２號","OBJECTID":170417},"geometry":{"x":184021.47000000067,"y":2581399.160000002}},{"attributes":{"ID":170419,"DIS_CODE":0,"TOWNNAME":"後壁區","LI":"長安里","LIN":"13鄰","STREET":" ","SECT":" ","MAREA":"中寮","LANE":" ","ALLEY":" ","HOUSE_NO":"２６３號","E_COORD97":184016.42999999999,"N_COORD97":2581397.5,"ADDRESS":"中寮２６３號","OBJECTID":170418},"geometry":{"x":184016.43000000063,"y":2581397.5000000019}},{"attributes":{"ID":170420,"DIS_CODE":0,"TOWNNAME":"後壁區","LI":"長安里","LIN":"13鄰","STREET":" ","SECT":" ","MAREA":"中寮","LANE":" ","ALLEY":" ","HOUSE_NO":"２６４號","E_COORD97":184011.07999999999,"N_COORD97":2581396.3999999999,"ADDRESS":"中寮２６４號","OBJECTID":170419},"geometry":{"x":184011.08000000101,"y":2581396.4000000004}},{"attributes":{"ID":170421,"DIS_CODE":0,"TOWNNAME":"後壁區","LI":"長安里","LIN":"13鄰","STREET":" ","SECT":" ","MAREA":"中寮","LANE":" ","ALLEY":" ","HOUSE_NO":"２６５號","E_COORD97":184005.95000000001,"N_COORD97":2581395.3599999999,"ADDRESS":"中寮２６５號","OBJECTID":170420},"geometry":{"x":184005.95000000019,"y":2581395.3599999994}},{"attributes":{"ID":170422,"DIS_CODE":0,"TOWNNAME":"後壁區","LI":"長安里","LIN":"13鄰","STREET":" ","SECT":" ","MAREA":"中寮","LANE":" ","ALLEY":" ","HOUSE_NO":"２６６號","E_COORD97":184000.75,"N_COORD97":2581393.9100000001,"ADDRESS":"中寮２６６號","OBJECTID":170421},"geometry":{"x":184000.75000000093,"y":2581393.9100000039}},{"attributes":{"ID":170423,"DIS_CODE":0,"TOWNNAME":"後壁區","LI":"長安里","LIN":"13鄰","STREET":" ","SECT":" ","MAREA":"中寮","LANE":" ","ALLEY":" ","HOUSE_NO":"２６７號","E_COORD97":183995.76000000001,"N_COORD97":2581413.1299999999,"ADDRESS":"中寮２６７號","OBJECTID":170422},"geometry":{"x":183995.76000000071,"y":2581413.129999999}},{"attributes":{"ID":170424,"DIS_CODE":0,"TOWNNAME":"後壁區","LI":"長安里","LIN":"13鄰","STREET":" ","SECT":" ","MAREA":"中寮","LANE":" ","ALLEY":" ","HOUSE_NO":"２６８號","E_COORD97":184001.85999999999,"N_COORD97":2581414.7200000002,"ADDRESS":"中寮２６８號","OBJECTID":170423},"geometry":{"x":184001.8600000022,"y":2581414.7200000007}},{"attributes":{"ID":170425,"DIS_CODE":0,"TOWNNAME":"後壁區","LI":"長安里","LIN":"13鄰","STREET":" ","SECT":" ","MAREA":"中寮","LANE":" ","ALLEY":" ","HOUSE_NO":"２６９號","E_COORD97":184007.01999999999,"N_COORD97":2581415.6800000002,"ADDRESS":"中寮２６９號","OBJECTID":170424},"geometry":{"x":184007.02000000048,"y":2581415.6800000016}},{"attributes":{"ID":170426,"DIS_CODE":0,"TOWNNAME":"後壁區","LI":"長安里","LIN":"13鄰","STREET":" ","SECT":" ","MAREA":"中寮","LANE":" ","ALLEY":" ","HOUSE_NO":"２７０號","E_COORD97":184012.53,"N_COORD97":2581416.8199999998,"ADDRESS":"中寮２７０號","OBJECTID":170425},"geometry":{"x":184012.53000000212,"y":2581416.8200000003}},{"attributes":{"ID":170427,"DIS_CODE":0,"TOWNNAME":"玉井區","LI":"玉田里","LIN":"42鄰","STREET":"仁愛街","SECT":" ","MAREA":" ","LANE":"１８０巷","ALLEY":"２弄","HOUSE_NO":"２號","E_COORD97":195417.28,"N_COORD97":2557876.27,"ADDRESS":"仁愛街１８０巷２弄２號","OBJECTID":170426},"geometry":{"x":195417.28000000026,"y":2557876.2700000014}},{"attributes":{"ID":170428,"DIS_CODE":0,"TOWNNAME":"北區","LI":"成德里","LIN":"33鄰","STREET":"育成路","SECT":" ","MAREA":" ","LANE":"１９１巷","ALLEY":"３１弄","HOUSE_NO":"１號","E_COORD97":168612.73000000001,"N_COORD97":2546515.6800000002,"ADDRESS":"育成路１９１巷３１弄１號","OBJECTID":170427},"geometry":{"x":168612.73000000138,"y":2546515.6800000016}},{"attributes":{"ID":170429,"DIS_CODE":0,"TOWNNAME":"後壁區","LI":"長安里","LIN":"13鄰","STREET":" ","SECT":" ","MAREA":"中寮","LANE":" ","ALLEY":" ","HOUSE_NO":"２７１號","E_COORD97":184018.10999999999,"N_COORD97":2581418.1299999999,"ADDRESS":"中寮２７１號","OBJECTID":170428},"geometry":{"x":184018.11000000034,"y":2581418.1300000027}},{"attributes":{"ID":170430,"DIS_CODE":0,"TOWNNAME":"後壁區","LI":"長安里","LIN":"13鄰","STREET":" ","SECT":" ","MAREA":"中寮","LANE":" ","ALLEY":" ","HOUSE_NO":"２７２號","E_COORD97":184023.70999999999,"N_COORD97":2581419.6800000002,"ADDRESS":"中寮２７２號","OBJECTID":170429},"geometry":{"x":184023.71000000089,"y":2581419.6800000016}},{"attributes":{"ID":170431,"DIS_CODE":0,"TOWNNAME":"後壁區","LI":"長安里","LIN":"13鄰","STREET":" ","SECT":" ","MAREA":"中寮","LANE":" ","ALLEY":" ","HOUSE_NO":"２７３號","E_COORD97":184029.20000000001,"N_COORD97":2581421.1099999999,"ADDRESS":"中寮２７３號","OBJECTID":170430},"geometry":{"x":184029.20000000019,"y":2581421.1099999994}},{"attributes":{"ID":170432,"DIS_CODE":0,"TOWNNAME":"後壁區","LI":"長安里","LIN":"13鄰","STREET":" ","SECT":" ","MAREA":"中寮","LANE":" ","ALLEY":" ","HOUSE_NO":"２７４號","E_COORD97":184034.45999999999,"N_COORD97":2581422.6499999999,"ADDRESS":"中寮２７４號","OBJECTID":170431},"geometry":{"x":184034.45999999996,"y":2581422.6499999985}},{"attributes":{"ID":170433,"DIS_CODE":0,"TOWNNAME":"後壁區","LI":"長安里","LIN":"13鄰","STREET":" ","SECT":" ","MAREA":"中寮","LANE":" ","ALLEY":" ","HOUSE_NO":"２７５號","E_COORD97":184040.54000000001,"N_COORD97":2581424.3900000001,"ADDRESS":"中寮２７５號","OBJECTID":170432},"geometry":{"x":184040.54000000004,"y":2581424.3900000006}},{"attributes":{"ID":170434,"DIS_CODE":0,"TOWNNAME":"後壁區","LI":"長安里","LIN":"13鄰","STREET":" ","SECT":" ","MAREA":"中寮","LANE":" ","ALLEY":" ","HOUSE_NO":"２７６號","E_COORD97":184046.22,"N_COORD97":2581425.9100000001,"ADDRESS":"中寮２７６號","OBJECTID":170433},"geometry":{"x":184046.21999999881,"y":2581425.910000002}},{"attributes":{"ID":170435,"DIS_CODE":0,"TOWNNAME":"後壁區","LI":"長安里","LIN":"13鄰","STREET":" ","SECT":" ","MAREA":"中寮","LANE":" ","ALLEY":" ","HOUSE_NO":"２７７號","E_COORD97":184051.57000000001,"N_COORD97":2581427.27,"ADDRESS":"中寮２７７號","OBJECTID":170434},"geometry":{"x":184051.57000000123,"y":2581427.2699999996}},{"attributes":{"ID":170436,"DIS_CODE":0,"TOWNNAME":"後壁區","LI":"長安里","LIN":"13鄰","STREET":" ","SECT":" ","MAREA":"中寮","LANE":" ","ALLEY":" ","HOUSE_NO":"２７８號","E_COORD97":184057.48999999999,"N_COORD97":2581428.6099999999,"ADDRESS":"中寮２７８號","OBJECTID":170435},"geometry":{"x":184057.49000000115,"y":2581428.6099999994}},{"attributes":{"ID":170437,"DIS_CODE":0,"TOWNNAME":"後壁區","LI":"長安里","LIN":"13鄰","STREET":" ","SECT":" ","MAREA":"中寮","LANE":" ","ALLEY":" ","HOUSE_NO":"２７９號","E_COORD97":184064.62,"N_COORD97":2581428.3900000001,"ADDRESS":"中寮２７９號","OBJECTID":170436},"geometry":{"x":184064.62000000104,"y":2581428.3900000043}},{"attributes":{"ID":170438,"DIS_CODE":0,"TOWNNAME":"後壁區","LI":"長安里","LIN":"13鄰","STREET":" ","SECT":" ","MAREA":"中寮","LANE":" ","ALLEY":" ","HOUSE_NO":"２８２號","E_COORD97":183994.26999999999,"N_COORD97":2581423.3700000001,"ADDRESS":"中寮２８２號","OBJECTID":170437},"geometry":{"x":183994.26999999955,"y":2581423.3700000029}},{"attributes":{"ID":170439,"DIS_CODE":0,"TOWNNAME":"玉井區","LI":"玉田里","LIN":"41鄰","STREET":"民族路","SECT":" ","MAREA":" ","LANE":"１７９巷","ALLEY":"３５弄","HOUSE_NO":"２號","E_COORD97":195437.04000000001,"N_COORD97":2558200.2799999998,"ADDRESS":"民族路１７９巷３５弄２號","OBJECTID":170438},"geometry":{"x":195437.04000000004,"y":2558200.2800000031}},{"attributes":{"ID":170440,"DIS_CODE":0,"TOWNNAME":"玉井區","LI":"玉田里","LIN":"26鄰","STREET":"中山路","SECT":" ","MAREA":" ","LANE":"３巷","ALLEY":"２９弄","HOUSE_NO":"２１號","E_COORD97":194838.56,"N_COORD97":2557756.2400000002,"ADDRESS":"中山路３巷２９弄２１號","OBJECTID":170439},"geometry":{"x":194838.55999999959,"y":2557756.2400000002}},{"attributes":{"ID":170441,"DIS_CODE":0,"TOWNNAME":"玉井區","LI":"玉田里","LIN":"26鄰","STREET":"中山路","SECT":" ","MAREA":" ","LANE":"３巷","ALLEY":"２２弄","HOUSE_NO":"４號","E_COORD97":194937.81,"N_COORD97":2557790.2400000002,"ADDRESS":"中山路３巷２２弄４號","OBJECTID":170440},"geometry":{"x":194937.81000000052,"y":2557790.2400000002}},{"attributes":{"ID":170442,"DIS_CODE":0,"TOWNNAME":"玉井區","LI":"竹圍里","LIN":"4鄰","STREET":"大成路","SECT":" ","MAREA":" ","LANE":"２３０巷","ALLEY":"１０９弄","HOUSE_NO":"１號","E_COORD97":195686.64000000001,"N_COORD97":2558473.7000000002,"ADDRESS":"大成路２３０巷１０９弄１號","OBJECTID":170441},"geometry":{"x":195686.6400000006,"y":2558473.6999999993}},{"attributes":{"ID":170443,"DIS_CODE":0,"TOWNNAME":"後壁區","LI":"長安里","LIN":"13鄰","STREET":" ","SECT":" ","MAREA":"中寮","LANE":" ","ALLEY":" ","HOUSE_NO":"２８３號","E_COORD97":183995.60000000001,"N_COORD97":2581432.2000000002,"ADDRESS":"中寮２８３號","OBJECTID":170442},"geometry":{"x":183995.59999999963,"y":2581432.2000000011}},{"attributes":{"ID":170444,"DIS_CODE":0,"TOWNNAME":"玉井區","LI":"玉田里","LIN":"26鄰","STREET":"中山路","SECT":" ","MAREA":" ","LANE":"３巷","ALLEY":"２９弄","HOUSE_NO":"２９號","E_COORD97":194835.45999999999,"N_COORD97":2557773.2400000002,"ADDRESS":"中山路３巷２９弄２９號","OBJECTID":170443},"geometry":{"x":194835.46000000089,"y":2557773.2400000002}},{"attributes":{"ID":170445,"DIS_CODE":0,"TOWNNAME":"玉井區","LI":"竹圍里","LIN":"4鄰","STREET":"忠孝街","SECT":" ","MAREA":" ","LANE":"６６８巷","ALLEY":"１３弄","HOUSE_NO":"３號","E_COORD97":195770.26999999999,"N_COORD97":2558360.27,"ADDRESS":"忠孝街６６８巷１３弄３號","OBJECTID":170444},"geometry":{"x":195770.27000000048,"y":2558360.2700000014}},{"attributes":{"ID":170446,"DIS_CODE":0,"TOWNNAME":"玉井區","LI":"竹圍里","LIN":"4鄰","STREET":"忠孝街","SECT":" ","MAREA":" ","LANE":"６６８巷","ALLEY":"３３弄","HOUSE_NO":"１３號","E_COORD97":195716.98000000001,"N_COORD97":2558318.7599999998,"ADDRESS":"忠孝街６６８巷３３弄１３號","OBJECTID":170445},"geometry":{"x":195716.98000000138,"y":2558318.7599999998}},{"attributes":{"ID":170447,"DIS_CODE":0,"TOWNNAME":"玉井區","LI":"竹圍里","LIN":"4鄰","STREET":"忠孝街","SECT":" ","MAREA":" ","LANE":"６６８巷","ALLEY":"１３弄","HOUSE_NO":"７號","E_COORD97":195771.98999999999,"N_COORD97":2558353.1899999999,"ADDRESS":"忠孝街６６８巷１３弄７號","OBJECTID":170446},"geometry":{"x":195771.99000000022,"y":2558353.1899999995}},{"attributes":{"ID":170448,"DIS_CODE":0,"TOWNNAME":"南區","LI":"大忠里","LIN":"12鄰","STREET":"公英三街","SECT":" ","MAREA":" ","LANE":" ","ALLEY":" ","HOUSE_NO":"２號","E_COORD97":169383.29999999999,"N_COORD97":2541198.46,"ADDRESS":"公英三街２號","OBJECTID":170447},"geometry":{"x":169383.29999999981,"y":2541198.4600000028}},{"attributes":{"ID":170449,"DIS_CODE":0,"TOWNNAME":"南區","LI":"大忠里","LIN":"12鄰","STREET":"公英三街","SECT":" ","MAREA":" ","LANE":" ","ALLEY":" ","HOUSE_NO":"３０號","E_COORD97":169319.79999999999,"N_COORD97":2541186.4700000002,"ADDRESS":"公英三街３０號","OBJECTID":170448},"geometry":{"x":169319.80000000168,"y":2541186.4700000007}},{"attributes":{"ID":170450,"DIS_CODE":0,"TOWNNAME":"南區","LI":"大忠里","LIN":"12鄰","STREET":"公英三街","SECT":" ","MAREA":" ","LANE":" ","ALLEY":" ","HOUSE_NO":"３１號","E_COORD97":169319.51000000001,"N_COORD97":2541167.8199999998,"ADDRESS":"公英三街３１號","OBJECTID":170449},"geometry":{"x":169319.50999999978,"y":2541167.820000004}},{"attributes":{"ID":170451,"DIS_CODE":0,"TOWNNAME":"南區","LI":"大忠里","LIN":"12鄰","STREET":"公英三街","SECT":" ","MAREA":" ","LANE":" ","ALLEY":" ","HOUSE_NO":"３２號","E_COORD97":169316.26000000001,"N_COORD97":2541185.9399999999,"ADDRESS":"公英三街３２號","OBJECTID":170450},"geometry":{"x":169316.25999999978,"y":2541185.9399999995}},{"attributes":{"ID":170452,"DIS_CODE":0,"TOWNNAME":"南區","LI":"大忠里","LIN":"12鄰","STREET":"公英三街","SECT":" ","MAREA":" ","LANE":" ","ALLEY":" ","HOUSE_NO":"３３號","E_COORD97":169315.75,"N_COORD97":2541166.96,"ADDRESS":"公英三街３３號","OBJECTID":170451},"geometry":{"x":169315.75000000093,"y":2541166.9600000009}},{"attributes":{"ID":170453,"DIS_CODE":0,"TOWNNAME":"南區","LI":"大忠里","LIN":"12鄰","STREET":"公英三街","SECT":" ","MAREA":" ","LANE":" ","ALLEY":" ","HOUSE_NO":"３４號","E_COORD97":169312.72,"N_COORD97":2541185.4100000001,"ADDRESS":"公英三街３４號","OBJECTID":170452},"geometry":{"x":169312.71999999974,"y":2541185.410000002}},{"attributes":{"ID":170454,"DIS_CODE":0,"TOWNNAME":"南區","LI":"大忠里","LIN":"12鄰","STREET":"公英三街","SECT":" ","MAREA":" ","LANE":" ","ALLEY":" ","HOUSE_NO":"３５號","E_COORD97":169312.51000000001,"N_COORD97":2541166.6200000001,"ADDRESS":"公英三街３５號","OBJECTID":170453},"geometry":{"x":169312.50999999978,"y":2541166.6200000048}},{"attributes":{"ID":170455,"DIS_CODE":0,"TOWNNAME":"玉井區","LI":"竹圍里","LIN":"8鄰","STREET":"武成街","SECT":" ","MAREA":" ","LANE":"２６９巷","ALLEY":"２６弄","HOUSE_NO":"１２號","E_COORD97":196121.48000000001,"N_COORD97":2559123.2799999998,"ADDRESS":"武成街２６９巷２６弄１２號","OBJECTID":170454},"geometry":{"x":196121.48000000045,"y":2559123.2800000012}},{"attributes":{"ID":170456,"DIS_CODE":0,"TOWNNAME":"玉井區","LI":"竹圍里","LIN":"4鄰","STREET":"忠孝街","SECT":" ","MAREA":" ","LANE":"６６８巷","ALLEY":"１３弄","HOUSE_NO":"１號","E_COORD97":195769.35999999999,"N_COORD97":2558364.0299999998,"ADDRESS":"忠孝街６６８巷１３弄１號","OBJECTID":170455},"geometry":{"x":195769.36000000034,"y":2558364.0299999993}},{"attributes":{"ID":170457,"DIS_CODE":0,"TOWNNAME":"玉井區","LI":"竹圍里","LIN":"4鄰","STREET":"大成路","SECT":" ","MAREA":" ","LANE":"２３０巷","ALLEY":"７２弄","HOUSE_NO":"２６號","E_COORD97":195717.60999999999,"N_COORD97":2558455.8700000001,"ADDRESS":"大成路２３０巷７２弄２６號","OBJECTID":170456},"geometry":{"x":195717.61000000127,"y":2558455.8700000048}},{"attributes":{"ID":170458,"DIS_CODE":0,"TOWNNAME":"南區","LI":"大忠里","LIN":"12鄰","STREET":"公英三街","SECT":" ","MAREA":" ","LANE":" ","ALLEY":" ","HOUSE_NO":"３６號","E_COORD97":169309.17999999999,"N_COORD97":2541184.8799999999,"ADDRESS":"公英三街３６號","OBJECTID":170457},"geometry":{"x":169309.18000000063,"y":2541184.879999999}},{"attributes":{"ID":170459,"DIS_CODE":0,"TOWNNAME":"後壁區","LI":"長安里","LIN":"13鄰","STREET":" ","SECT":" ","MAREA":"中寮","LANE":" ","ALLEY":" ","HOUSE_NO":"２８４號","E_COORD97":183995.51999999999,"N_COORD97":2581437.52,"ADDRESS":"中寮２８４號","OBJECTID":170458},"geometry":{"x":183995.52000000048,"y":2581437.5200000014}},{"attributes":{"ID":170460,"DIS_CODE":0,"TOWNNAME":"後壁區","LI":"長安里","LIN":"13鄰","STREET":" ","SECT":" ","MAREA":"中寮","LANE":" ","ALLEY":" ","HOUSE_NO":"２８５號","E_COORD97":184012.89999999999,"N_COORD97":2581440.1600000001,"ADDRESS":"中寮２８５號","OBJECTID":170459},"geometry":{"x":184012.90000000037,"y":2581440.160000002}},{"attributes":{"ID":170461,"DIS_CODE":0,"TOWNNAME":"後壁區","LI":"嘉苳里","LIN":"13鄰","STREET":" ","SECT":" ","MAREA":"本協","LANE":" ","ALLEY":" ","HOUSE_NO":"２３號之１","E_COORD97":186988.70000000001,"N_COORD97":2583613.6400000001,"ADDRESS":"本協２３號之１","OBJECTID":170460},"geometry":{"x":186988.70000000112,"y":2583613.6400000043}},{"attributes":{"ID":170462,"DIS_CODE":0,"TOWNNAME":"後壁區","LI":"嘉苳里","LIN":"13鄰","STREET":" ","SECT":" ","MAREA":"本協","LANE":" ","ALLEY":" ","HOUSE_NO":"２３號","E_COORD97":187001.56,"N_COORD97":2583628.3900000001,"ADDRESS":"本協２３號","OBJECTID":170461},"geometry":{"x":187001.55999999959,"y":2583628.3899999987}},{"attributes":{"ID":170463,"DIS_CODE":0,"TOWNNAME":"後壁區","LI":"嘉苳里","LIN":"13鄰","STREET":" ","SECT":" ","MAREA":"本協","LANE":" ","ALLEY":" ","HOUSE_NO":"２６號之１","E_COORD97":186957.32000000001,"N_COORD97":2583652.5800000001,"ADDRESS":"本協２６號之１","OBJECTID":170462},"geometry":{"x":186957.32000000123,"y":2583652.5800000001}},{"attributes":{"ID":170464,"DIS_CODE":0,"TOWNNAME":"後壁區","LI":"嘉苳里","LIN":"13鄰","STREET":" ","SECT":" ","MAREA":"本協","LANE":" ","ALLEY":" ","HOUSE_NO":"２６號之２","E_COORD97":186955.14000000001,"N_COORD97":2583684.8799999999,"ADDRESS":"本協２６號之２","OBJECTID":170463},"geometry":{"x":186955.13999999966,"y":2583684.8800000027}},{"attributes":{"ID":170465,"DIS_CODE":0,"TOWNNAME":"歸仁區","LI":"後市里","LIN":"12鄰","STREET":"民權五街","SECT":" ","MAREA":" ","LANE":" ","ALLEY":" ","HOUSE_NO":"９號","E_COORD97":177026.94,"N_COORD97":2540787.25,"ADDRESS":"民權五街９號","OBJECTID":170464},"geometry":{"x":177026.94000000041,"y":2540787.25}},{"attributes":{"ID":170466,"DIS_CODE":0,"TOWNNAME":"玉井區","LI":"竹圍里","LIN":"4鄰","STREET":"忠孝街","SECT":" ","MAREA":" ","LANE":"６６８巷","ALLEY":"３３弄","HOUSE_NO":"１１號","E_COORD97":195722.81,"N_COORD97":2558345.7599999998,"ADDRESS":"忠孝街６６８巷３３弄１１號","OBJECTID":170465},"geometry":{"x":195722.81000000052,"y":2558345.7599999998}},{"attributes":{"ID":170467,"DIS_CODE":0,"TOWNNAME":"歸仁區","LI":"後市里","LIN":"12鄰","STREET":"民權五街","SECT":" ","MAREA":" ","LANE":" ","ALLEY":" ","HOUSE_NO":"５號","E_COORD97":177024.62,"N_COORD97":2540789.29,"ADDRESS":"民權五街５號","OBJECTID":170466},"geometry":{"x":177024.62000000104,"y":2540789.2899999991}},{"attributes":{"ID":170468,"DIS_CODE":0,"TOWNNAME":"玉井區","LI":"竹圍里","LIN":"4鄰","STREET":"忠孝街","SECT":" ","MAREA":" ","LANE":"６６８巷","ALLEY":"１３弄","HOUSE_NO":"５號","E_COORD97":195771.39999999999,"N_COORD97":2558356.6800000002,"ADDRESS":"忠孝街６６８巷１３弄５號","OBJECTID":170467},"geometry":{"x":195771.40000000224,"y":2558356.6799999997}},{"attributes":{"ID":170469,"DIS_CODE":0,"TOWNNAME":"歸仁區","LI":"後市里","LIN":"12鄰","STREET":"民權南路","SECT":" ","MAREA":" ","LANE":" ","ALLEY":" ","HOUSE_NO":"７號","E_COORD97":176991.14000000001,"N_COORD97":2540801.25,"ADDRESS":"民權南路７號","OBJECTID":170468},"geometry":{"x":176991.13999999966,"y":2540801.25}},{"attributes":{"ID":170470,"DIS_CODE":0,"TOWNNAME":"玉井區","LI":"竹圍里","LIN":"4鄰","STREET":"忠孝街","SECT":" ","MAREA":" ","LANE":"６６８巷","ALLEY":"２３弄","HOUSE_NO":"７號","E_COORD97":195739.82000000001,"N_COORD97":2558354.5499999998,"ADDRESS":"忠孝街６６８巷２３弄７號","OBJECTID":170469},"geometry":{"x":195739.82000000123,"y":2558354.5500000007}},{"attributes":{"ID":170471,"DIS_CODE":0,"TOWNNAME":"玉井區","LI":"竹圍里","LIN":"4鄰","STREET":"大成路","SECT":" ","MAREA":" ","LANE":"２３０巷","ALLEY":"５９弄","HOUSE_NO":"１１號","E_COORD97":195653.54999999999,"N_COORD97":2558388.4399999999,"ADDRESS":"大成路２３０巷５９弄１１號","OBJECTID":170470},"geometry":{"x":195653.55000000075,"y":2558388.4399999995}},{"attributes":{"ID":170472,"DIS_CODE":0,"TOWNNAME":"玉井區","LI":"竹圍里","LIN":"4鄰","STREET":"大成路","SECT":" ","MAREA":" ","LANE":"２３０巷","ALLEY":"７２弄","HOUSE_NO":"１６號","E_COORD97":195719.12,"N_COORD97":2558421.9900000002,"ADDRESS":"大成路２３０巷７２弄１６號","OBJECTID":170471},"geometry":{"x":195719.12000000104,"y":2558421.9900000002}},{"attributes":{"ID":170473,"DIS_CODE":0,"TOWNNAME":"歸仁區","LI":"崙頂里","LIN":"12鄰","STREET":"凱旋路","SECT":"一段","MAREA":" ","LANE":" ","ALLEY":" ","HOUSE_NO":"５９９號","E_COORD97":177775.67999999999,"N_COORD97":2539503.4100000001,"ADDRESS":"凱旋路一段５９９號","OBJECTID":170472},"geometry":{"x":177775.6799999997,"y":2539503.410000002}},{"attributes":{"ID":170474,"DIS_CODE":0,"TOWNNAME":"歸仁區","LI":"南興里","LIN":"12鄰","STREET":"文化十八街","SECT":" ","MAREA":" ","LANE":" ","ALLEY":" ","HOUSE_NO":"９１號","E_COORD97":175911.17000000001,"N_COORD97":2541350.2599999998,"ADDRESS":"文化十八街９１號","OBJECTID":170473},"geometry":{"x":175911.16999999993,"y":2541350.2599999998}},{"attributes":{"ID":170475,"DIS_CODE":0,"TOWNNAME":"玉井區","LI":"玉田里","LIN":"42鄰","STREET":"仁愛街","SECT":" ","MAREA":" ","LANE":"１８０巷","ALLEY":"２弄","HOUSE_NO":"１６號","E_COORD97":195417.92999999999,"N_COORD97":2557855.27,"ADDRESS":"仁愛街１８０巷２弄１６號","OBJECTID":170474},"geometry":{"x":195417.93000000156,"y":2557855.2700000014}},{"attributes":{"ID":170476,"DIS_CODE":0,"TOWNNAME":"玉井區","LI":"玉田里","LIN":"42鄰","STREET":"仁愛街","SECT":" ","MAREA":" ","LANE":"１８０巷","ALLEY":"２弄","HOUSE_NO":"１號","E_COORD97":195434.69,"N_COORD97":2557875.27,"ADDRESS":"仁愛街１８０巷２弄１號","OBJECTID":170475},"geometry":{"x":195434.69000000041,"y":2557875.2700000033}},{"attributes":{"ID":170477,"DIS_CODE":0,"TOWNNAME":"歸仁區","LI":"後市里","LIN":"12鄰","STREET":"民權南路","SECT":" ","MAREA":" ","LANE":" ","ALLEY":" ","HOUSE_NO":"３號","E_COORD97":176989.14000000001,"N_COORD97":2540817.25,"ADDRESS":"民權南路３號","OBJECTID":170476},"geometry":{"x":176989.13999999966,"y":2540817.25}},{"attributes":{"ID":170478,"DIS_CODE":0,"TOWNNAME":"玉井區","LI":"玉田里","LIN":"42鄰","STREET":"仁愛街","SECT":" ","MAREA":" ","LANE":"１８０巷","ALLEY":"２弄","HOUSE_NO":"３號","E_COORD97":195434.69,"N_COORD97":2557871.27,"ADDRESS":"仁愛街１８０巷２弄３號","OBJECTID":170477},"geometry":{"x":195434.69000000041,"y":2557871.2699999996}},{"attributes":{"ID":170479,"DIS_CODE":0,"TOWNNAME":"北區","LI":"大港里","LIN":"12鄰","STREET":"中華北路","SECT":"一段","MAREA":" ","LANE":" ","ALLEY":" ","HOUSE_NO":"１６２號","E_COORD97":166482.26999999999,"N_COORD97":2545724.1699999999,"ADDRESS":"中華北路一段１６２號","OBJECTID":170478},"geometry":{"x":166482.27000000048,"y":2545724.1699999999}},{"attributes":{"ID":170480,"DIS_CODE":0,"TOWNNAME":"玉井區","LI":"玉田里","LIN":"42鄰","STREET":"仁愛街","SECT":" ","MAREA":" ","LANE":"１８０巷","ALLEY":"２弄","HOUSE_NO":"１１號","E_COORD97":195435.53,"N_COORD97":2557855.27,"ADDRESS":"仁愛街１８０巷２弄１１號","OBJECTID":170479},"geometry":{"x":195435.53000000119,"y":2557855.2700000014}},{"attributes":{"ID":170481,"DIS_CODE":0,"TOWNNAME":"北區","LI":"振興里","LIN":"12鄰","STREET":"長榮路","SECT":"四段","MAREA":" ","LANE":" ","ALLEY":" ","HOUSE_NO":"１１３號","E_COORD97":170259.87,"N_COORD97":2545099,"ADDRESS":"長榮路四段１１３號","OBJECTID":170480},"geometry":{"x":170259.87000000011,"y":2545099.0000000037}},{"attributes":{"ID":170482,"DIS_CODE":0,"TOWNNAME":"北區","LI":"振興里","LIN":"12鄰","STREET":"長榮路","SECT":"四段","MAREA":" ","LANE":" ","ALLEY":" ","HOUSE_NO":"１０７號","E_COORD97":170266.09,"N_COORD97":2545087.7799999998,"ADDRESS":"長榮路四段１０７號","OBJECTID":170481},"geometry":{"x":170266.09000000078,"y":2545087.7800000012}},{"attributes":{"ID":170483,"DIS_CODE":0,"TOWNNAME":"鹽水區","LI":"橋南里","LIN":" ","STREET":"南門路","SECT":" ","MAREA":" ","LANE":"２０１巷","ALLEY":"３３弄","HOUSE_NO":"５６號","E_COORD97":175505.12,"N_COORD97":2579058.79,"ADDRESS":"南門路２０１巷３３弄５６號","OBJECTID":170482},"geometry":{"x":175505.12000000011,"y":2579058.790000001}},{"attributes":{"ID":170484,"DIS_CODE":0,"TOWNNAME":"永康區","LI":"東橋里","LIN":"14鄰","STREET":"東橋二街","SECT":" ","MAREA":" ","LANE":" ","ALLEY":" ","HOUSE_NO":"８０號","E_COORD97":171729.42999999999,"N_COORD97":2546457.75,"ADDRESS":"東橋二街８０號","OBJECTID":170483},"geometry":{"x":171729.43000000063,"y":2546457.7500000019}},{"attributes":{"ID":170485,"DIS_CODE":0,"TOWNNAME":"永康區","LI":"烏竹里","LIN":"5鄰","STREET":"烏竹街","SECT":" ","MAREA":" ","LANE":" ","ALLEY":" ","HOUSE_NO":"４８號","E_COORD97":174512.53,"N_COORD97":2549318.75,"ADDRESS":"烏竹街４８號","OBJECTID":170484},"geometry":{"x":174512.53000000026,"y":2549318.7500000019}},{"attributes":{"ID":170486,"DIS_CODE":0,"TOWNNAME":"永康區","LI":"東灣里","LIN":"25鄰","STREET":"大灣二街","SECT":" ","MAREA":" ","LANE":" ","ALLEY":" ","HOUSE_NO":"８３號","E_COORD97":174782.48000000001,"N_COORD97":2544759.2000000002,"ADDRESS":"大灣二街８３號","OBJECTID":170485},"geometry":{"x":174782.48000000045,"y":2544759.2000000011}},{"attributes":{"ID":170487,"DIS_CODE":0,"TOWNNAME":"鹽水區","LI":"橋南里","LIN":" ","STREET":"南門路","SECT":" ","MAREA":" ","LANE":"２０１巷","ALLEY":"３３弄","HOUSE_NO":"５７號","E_COORD97":175468.92000000001,"N_COORD97":2579079.48,"ADDRESS":"南門路２０１巷３３弄５７號","OBJECTID":170486},"geometry":{"x":175468.91999999993,"y":2579079.4800000023}},{"attributes":{"ID":170488,"DIS_CODE":0,"TOWNNAME":"學甲區","LI":"秀昌里","LIN":"12鄰","STREET":" ","SECT":" ","MAREA":"一秀","LANE":" ","ALLEY":" ","HOUSE_NO":"１３２號","E_COORD97":165780,"N_COORD97":2571006.21,"ADDRESS":"一秀１３２號","OBJECTID":170487},"geometry":{"x":165780,"y":2571006.2100000009}},{"attributes":{"ID":170489,"DIS_CODE":0,"TOWNNAME":"學甲區","LI":"秀昌里","LIN":"12鄰","STREET":" ","SECT":" ","MAREA":"一秀","LANE":" ","ALLEY":" ","HOUSE_NO":"１３３號","E_COORD97":165785.22,"N_COORD97":2571004.3799999999,"ADDRESS":"一秀１３３號","OBJECTID":170488},"geometry":{"x":165785.21999999974,"y":2571004.3799999971}},{"attributes":{"ID":170490,"DIS_CODE":0,"TOWNNAME":"學甲區","LI":"秀昌里","LIN":"12鄰","STREET":" ","SECT":" ","MAREA":"一秀","LANE":" ","ALLEY":" ","HOUSE_NO":"１３４號","E_COORD97":165799.16,"N_COORD97":2571012.75,"ADDRESS":"一秀１３４號","OBJECTID":170489},"geometry":{"x":165799.16000000108,"y":2571012.75}},{"attributes":{"ID":170491,"DIS_CODE":0,"TOWNNAME":"後壁區","LI":"嘉苳里","LIN":"13鄰","STREET":" ","SECT":" ","MAREA":"本協","LANE":" ","ALLEY":" ","HOUSE_NO":"２６號之７","E_COORD97":186971.23000000001,"N_COORD97":2583660.8700000001,"ADDRESS":"本協２６號之７","OBJECTID":170490},"geometry":{"x":186971.23000000231,"y":2583660.8700000029}},{"attributes":{"ID":170492,"DIS_CODE":0,"TOWNNAME":"後壁區","LI":"嘉苳里","LIN":"13鄰","STREET":" ","SECT":" ","MAREA":"本協","LANE":" ","ALLEY":" ","HOUSE_NO":"２６號","E_COORD97":186972.45999999999,"N_COORD97":2583613.29,"ADDRESS":"本協２６號","OBJECTID":170491},"geometry":{"x":186972.46000000183,"y":2583613.2899999991}},{"attributes":{"ID":170493,"DIS_CODE":0,"TOWNNAME":"後壁區","LI":"嘉苳里","LIN":"13鄰","STREET":" ","SECT":" ","MAREA":"本協","LANE":" ","ALLEY":" ","HOUSE_NO":"２７號","E_COORD97":186987.94,"N_COORD97":2583588.79,"ADDRESS":"本協２７號","OBJECTID":170492},"geometry":{"x":186987.94000000041,"y":2583588.7899999991}},{"attributes":{"ID":170494,"DIS_CODE":0,"TOWNNAME":"後壁區","LI":"嘉苳里","LIN":"13鄰","STREET":" ","SECT":" ","MAREA":"本協","LANE":" ","ALLEY":" ","HOUSE_NO":"２８號","E_COORD97":187000.45999999999,"N_COORD97":2583571.25,"ADDRESS":"本協２８號","OBJECTID":170493},"geometry":{"x":187000.46000000089,"y":2583571.2500000037}},{"attributes":{"ID":170495,"DIS_CODE":0,"TOWNNAME":"後壁區","LI":"嘉苳里","LIN":"13鄰","STREET":" ","SECT":" ","MAREA":"本協","LANE":" ","ALLEY":" ","HOUSE_NO":"２９號","E_COORD97":187014.54000000001,"N_COORD97":2583545.3300000001,"ADDRESS":"本協２９號","OBJECTID":170494},"geometry":{"x":187014.5400000019,"y":2583545.3300000019}},{"attributes":{"ID":170496,"DIS_CODE":0,"TOWNNAME":"學甲區","LI":"秀昌里","LIN":"12鄰","STREET":" ","SECT":" ","MAREA":"一秀","LANE":" ","ALLEY":" ","HOUSE_NO":"１３６號","E_COORD97":165830.73000000001,"N_COORD97":2571027.8300000001,"ADDRESS":"一秀１３６號","OBJECTID":170495},"geometry":{"x":165830.73000000138,"y":2571027.8300000019}},{"attributes":{"ID":170497,"DIS_CODE":0,"TOWNNAME":"新營區","LI":"五興里","LIN":"12鄰","STREET":" ","SECT":" ","MAREA":"五間厝","LANE":" ","ALLEY":" ","HOUSE_NO":"１３０號","E_COORD97":175456.63,"N_COORD97":2574322.3100000001,"ADDRESS":"五間厝１３０號","OBJECTID":170496},"geometry":{"x":175456.63000000082,"y":2574322.3099999987}},{"attributes":{"ID":170498,"DIS_CODE":0,"TOWNNAME":"新營區","LI":"埤寮里","LIN":"12鄰","STREET":" ","SECT":" ","MAREA":"埤寮","LANE":" ","ALLEY":" ","HOUSE_NO":"１３０號","E_COORD97":181008.38,"N_COORD97":2580719.77,"ADDRESS":"埤寮１３０號","OBJECTID":170497},"geometry":{"x":181008.38000000082,"y":2580719.7700000014}},{"attributes":{"ID":170499,"DIS_CODE":0,"TOWNNAME":"新營區","LI":"鐵線里","LIN":"12鄰","STREET":" ","SECT":" ","MAREA":"鐵線橋","LANE":" ","ALLEY":" ","HOUSE_NO":"１３９之３號","E_COORD97":175599.53,"N_COORD97":2573755.75,"ADDRESS":"鐵線橋１３９之３號","OBJECTID":170498},"geometry":{"x":175599.53000000119,"y":2573755.75}},{"attributes":{"ID":170500,"DIS_CODE":0,"TOWNNAME":"新營區","LI":"鐵線里","LIN":"12鄰","STREET":" ","SECT":" ","MAREA":"鐵線橋","LANE":" ","ALLEY":" ","HOUSE_NO":"１３８號","E_COORD97":175617.34,"N_COORD97":2573724.5800000001,"ADDRESS":"鐵線橋１３８號","OBJECTID":170499},"geometry":{"x":175617.34000000078,"y":2573724.5800000019}},{"attributes":{"ID":170501,"DIS_CODE":0,"TOWNNAME":"新營區","LI":"鐵線里","LIN":"12鄰","STREET":" ","SECT":" ","MAREA":"鐵線橋","LANE":" ","ALLEY":" ","HOUSE_NO":"１３９號","E_COORD97":175593.87,"N_COORD97":2573736.8799999999,"ADDRESS":"鐵線橋１３９號","OBJECTID":170500},"geometry":{"x":175593.87000000104,"y":2573736.879999999}},{"attributes":{"ID":170502,"DIS_CODE":0,"TOWNNAME":"東山區","LI":"東正里","LIN":"12鄰","STREET":" ","SECT":" ","MAREA":"東勢","LANE":" ","ALLEY":" ","HOUSE_NO":"９７號","E_COORD97":189272.60000000001,"N_COORD97":2580183.4399999999,"ADDRESS":"東勢９７號","OBJECTID":170501},"geometry":{"x":189272.59999999963,"y":2580183.4400000013}},{"attributes":{"ID":170503,"DIS_CODE":0,"TOWNNAME":"新營區","LI":"鐵線里","LIN":"12鄰","STREET":" ","SECT":" ","MAREA":"鐵線橋","LANE":" ","ALLEY":" ","HOUSE_NO":"１３９之６號","E_COORD97":175572.98000000001,"N_COORD97":2573765.8500000001,"ADDRESS":"鐵線橋１３９之６號","OBJECTID":170502},"geometry":{"x":175572.98000000138,"y":2573765.8500000015}},{"attributes":{"ID":170504,"DIS_CODE":0,"TOWNNAME":"新營區","LI":"鐵線里","LIN":"12鄰","STREET":" ","SECT":" ","MAREA":"鐵線橋","LANE":" ","ALLEY":" ","HOUSE_NO":"１３９之９號","E_COORD97":175580.20999999999,"N_COORD97":2573780.21,"ADDRESS":"鐵線橋１３９之９號","OBJECTID":170503},"geometry":{"x":175580.20999999996,"y":2573780.2100000009}},{"attributes":{"ID":170505,"DIS_CODE":0,"TOWNNAME":"北區","LI":"正風里","LIN":"4鄰","STREET":"公園路","SECT":" ","MAREA":" ","LANE":"９１８巷","ALLEY":"１１弄","HOUSE_NO":"７號","E_COORD97":169454.14000000001,"N_COORD97":2546175.1699999999,"ADDRESS":"公園路９１８巷１１弄７號","OBJECTID":170504},"geometry":{"x":169454.13999999966,"y":2546175.1699999999}},{"attributes":{"ID":170506,"DIS_CODE":0,"TOWNNAME":"新營區","LI":"鐵線里","LIN":"12鄰","STREET":" ","SECT":" ","MAREA":"鐵線橋","LANE":" ","ALLEY":" ","HOUSE_NO":"１３０之１號","E_COORD97":175740,"N_COORD97":2573812.6299999999,"ADDRESS":"鐵線橋１３０之１號","OBJECTID":170505},"geometry":{"x":175740.00000000186,"y":2573812.629999999}},{"attributes":{"ID":170507,"DIS_CODE":0,"TOWNNAME":"北區","LI":"大港里","LIN":"12鄰","STREET":"中華北路","SECT":"一段","MAREA":" ","LANE":" ","ALLEY":" ","HOUSE_NO":"１５８號","E_COORD97":166488.01999999999,"N_COORD97":2545701.25,"ADDRESS":"中華北路一段１５８號","OBJECTID":170506},"geometry":{"x":166488.01999999955,"y":2545701.2500000019}},{"attributes":{"ID":170508,"DIS_CODE":0,"TOWNNAME":"新營區","LI":"鐵線里","LIN":"12鄰","STREET":" ","SECT":" ","MAREA":"鐵線橋","LANE":" ","ALLEY":" ","HOUSE_NO":"１３２號","E_COORD97":175667.64999999999,"N_COORD97":2573759.7799999998,"ADDRESS":"鐵線橋１３２號","OBJECTID":170507},"geometry":{"x":175667.65000000037,"y":2573759.7800000012}},{"attributes":{"ID":170509,"DIS_CODE":0,"TOWNNAME":"北區","LI":"正風里","LIN":"4鄰","STREET":"公園路","SECT":" ","MAREA":" ","LANE":"９１８巷","ALLEY":"１１弄","HOUSE_NO":"１號","E_COORD97":169447.32000000001,"N_COORD97":2546165.6099999999,"ADDRESS":"公園路９１８巷１１弄１號","OBJECTID":170508},"geometry":{"x":169447.32000000216,"y":2546165.6100000031}},{"attributes":{"ID":170510,"DIS_CODE":0,"TOWNNAME":"北區","LI":"正風里","LIN":"4鄰","STREET":"公園路","SECT":" ","MAREA":" ","LANE":"９１８巷","ALLEY":"１１弄","HOUSE_NO":"３號","E_COORD97":169449.62,"N_COORD97":2546168.8900000001,"ADDRESS":"公園路９１８巷１１弄３號","OBJECTID":170509},"geometry":{"x":169449.62000000011,"y":2546168.8900000025}},{"attributes":{"ID":170511,"DIS_CODE":0,"TOWNNAME":"新營區","LI":"鐵線里","LIN":"12鄰","STREET":" ","SECT":" ","MAREA":"鐵線橋","LANE":" ","ALLEY":" ","HOUSE_NO":"１３５號","E_COORD97":175691.97,"N_COORD97":2573710.9199999999,"ADDRESS":"鐵線橋１３５號","OBJECTID":170510},"geometry":{"x":175691.96999999974,"y":2573710.9200000037}},{"attributes":{"ID":170512,"DIS_CODE":0,"TOWNNAME":"北區","LI":"正風里","LIN":"4鄰","STREET":"公園路","SECT":" ","MAREA":" ","LANE":"９１８巷","ALLEY":"１１弄","HOUSE_NO":"５號","E_COORD97":169451.92000000001,"N_COORD97":2546172.52,"ADDRESS":"公園路９１８巷１１弄５號","OBJECTID":170511},"geometry":{"x":169451.92000000086,"y":2546172.5199999996}},{"attributes":{"ID":170513,"DIS_CODE":0,"TOWNNAME":"北區","LI":"正覺里","LIN":"7鄰","STREET":"北安路","SECT":"一段","MAREA":" ","LANE":"５１巷","ALLEY":"１弄","HOUSE_NO":"１５號","E_COORD97":169221.31,"N_COORD97":2546149.98,"ADDRESS":"北安路一段５１巷１弄１５號","OBJECTID":170512},"geometry":{"x":169221.31000000052,"y":2546149.9800000004}},{"attributes":{"ID":170514,"DIS_CODE":0,"TOWNNAME":"北區","LI":"正覺里","LIN":"6鄰","STREET":"北安路","SECT":"一段","MAREA":" ","LANE":"５１巷","ALLEY":"３弄","HOUSE_NO":"１０號","E_COORD97":169179.85000000001,"N_COORD97":2546134.8700000001,"ADDRESS":"北安路一段５１巷３弄１０號","OBJECTID":170513},"geometry":{"x":169179.84999999963,"y":2546134.8699999992}},{"attributes":{"ID":170515,"DIS_CODE":0,"TOWNNAME":"北區","LI":"正覺里","LIN":"6鄰","STREET":"北安路","SECT":"一段","MAREA":" ","LANE":"５１巷","ALLEY":"３弄","HOUSE_NO":"１２號","E_COORD97":169185.04000000001,"N_COORD97":2546130.9500000002,"ADDRESS":"北安路一段５１巷３弄１２號","OBJECTID":170514},"geometry":{"x":169185.04000000097,"y":2546130.9499999993}},{"attributes":{"ID":170516,"DIS_CODE":0,"TOWNNAME":"新營區","LI":"新東里","LIN":"12鄰","STREET":"東大街","SECT":" ","MAREA":" ","LANE":" ","ALLEY":" ","HOUSE_NO":"７２號","E_COORD97":181023.66,"N_COORD97":2579212.4500000002,"ADDRESS":"東大街７２號","OBJECTID":170515},"geometry":{"x":181023.66000000108,"y":2579212.450000003}},{"attributes":{"ID":170517,"DIS_CODE":0,"TOWNNAME":"北區","LI":"正覺里","LIN":"6鄰","STREET":"北安路","SECT":"一段","MAREA":" ","LANE":"５１巷","ALLEY":"３弄","HOUSE_NO":"１４號","E_COORD97":169190.32999999999,"N_COORD97":2546126.75,"ADDRESS":"北安路一段５１巷３弄１４號","OBJECTID":170516},"geometry":{"x":169190.33000000007,"y":2546126.75}},{"attributes":{"ID":170518,"DIS_CODE":0,"TOWNNAME":"北區","LI":"正覺里","LIN":"6鄰","STREET":"北安路","SECT":"一段","MAREA":" ","LANE":"５１巷","ALLEY":"３弄","HOUSE_NO":"１６號","E_COORD97":169195.13,"N_COORD97":2546123.71,"ADDRESS":"北安路一段５１巷３弄１６號","OBJECTID":170517},"geometry":{"x":169195.12999999989,"y":2546123.7100000028}},{"attributes":{"ID":170519,"DIS_CODE":0,"TOWNNAME":"北區","LI":"正覺里","LIN":"6鄰","STREET":"北安路","SECT":"一段","MAREA":" ","LANE":"５１巷","ALLEY":"３弄","HOUSE_NO":"１８號","E_COORD97":169201.79000000001,"N_COORD97":2546117.7200000002,"ADDRESS":"北安路一段５１巷３弄１８號","OBJECTID":170518},"geometry":{"x":169201.79000000097,"y":2546117.7200000007}},{"attributes":{"ID":170520,"DIS_CODE":0,"TOWNNAME":"新營區","LI":"鐵線里","LIN":"12鄰","STREET":" ","SECT":" ","MAREA":"鐵線橋","LANE":" ","ALLEY":" ","HOUSE_NO":"１３９之８號","E_COORD97":175578.14000000001,"N_COORD97":2573775.79,"ADDRESS":"鐵線橋１３９之８號","OBJECTID":170519},"geometry":{"x":175578.1400000006,"y":2573775.790000001}},{"attributes":{"ID":170521,"DIS_CODE":0,"TOWNNAME":"北區","LI":"正覺里","LIN":"6鄰","STREET":"北安路","SECT":"一段","MAREA":" ","LANE":"５１巷","ALLEY":"３弄","HOUSE_NO":"２０號","E_COORD97":169205.22,"N_COORD97":2546116.0600000001,"ADDRESS":"北安路一段５１巷３弄２０號","OBJECTID":170520},"geometry":{"x":169205.22000000067,"y":2546116.0599999987}},{"attributes":{"ID":170522,"DIS_CODE":0,"TOWNNAME":"新營區","LI":"鐵線里","LIN":"12鄰","STREET":" ","SECT":" ","MAREA":"鐵線橋","LANE":" ","ALLEY":" ","HOUSE_NO":"１３０之６號","E_COORD97":175738.82999999999,"N_COORD97":2573783.8500000001,"ADDRESS":"鐵線橋１３０之６號","OBJECTID":170521},"geometry":{"x":175738.83000000007,"y":2573783.8500000015}},{"attributes":{"ID":170523,"DIS_CODE":0,"TOWNNAME":"北區","LI":"正覺里","LIN":"6鄰","STREET":"北安路","SECT":"一段","MAREA":" ","LANE":"５１巷","ALLEY":"３弄","HOUSE_NO":"２號","E_COORD97":169160.44,"N_COORD97":2546149.9700000002,"ADDRESS":"北安路一段５１巷３弄２號","OBJECTID":170522},"geometry":{"x":169160.44000000134,"y":2546149.9700000007}},{"attributes":{"ID":170524,"DIS_CODE":0,"TOWNNAME":"新營區","LI":"鐵線里","LIN":"12鄰","STREET":" ","SECT":" ","MAREA":"鐵線橋","LANE":" ","ALLEY":" ","HOUSE_NO":"１３０之１２號","E_COORD97":175727.73000000001,"N_COORD97":2573770.6200000001,"ADDRESS":"鐵線橋１３０之１２號","OBJECTID":170523},"geometry":{"x":175727.73000000138,"y":2573770.620000001}},{"attributes":{"ID":170525,"DIS_CODE":0,"TOWNNAME":"北區","LI":"正覺里","LIN":"6鄰","STREET":"北安路","SECT":"一段","MAREA":" ","LANE":"５１巷","ALLEY":"３弄","HOUSE_NO":"４號","E_COORD97":169166.42000000001,"N_COORD97":2546147.52,"ADDRESS":"北安路一段５１巷３弄４號","OBJECTID":170524},"geometry":{"x":169166.42000000179,"y":2546147.5200000014}},{"attributes":{"ID":170526,"DIS_CODE":0,"TOWNNAME":"北區","LI":"正覺里","LIN":"6鄰","STREET":"北安路","SECT":"一段","MAREA":" ","LANE":"５１巷","ALLEY":"３弄","HOUSE_NO":"６號","E_COORD97":169170.63,"N_COORD97":2546143.5099999998,"ADDRESS":"北安路一段５１巷３弄６號","OBJECTID":170525},"geometry":{"x":169170.63000000082,"y":2546143.5100000016}},{"attributes":{"ID":170527,"DIS_CODE":0,"TOWNNAME":"新營區","LI":"鐵線里","LIN":"12鄰","STREET":" ","SECT":" ","MAREA":"鐵線橋","LANE":" ","ALLEY":" ","HOUSE_NO":"１３０之８號","E_COORD97":175750.01999999999,"N_COORD97":2573770.5,"ADDRESS":"鐵線橋１３０之８號","OBJECTID":170526},"geometry":{"x":175750.02000000048,"y":2573770.5}},{"attributes":{"ID":170528,"DIS_CODE":0,"TOWNNAME":"新營區","LI":"鐵線里","LIN":"12鄰","STREET":" ","SECT":" ","MAREA":"鐵線橋","LANE":" ","ALLEY":" ","HOUSE_NO":"１３０之１７號","E_COORD97":175729.89999999999,"N_COORD97":2573794.9700000002,"ADDRESS":"鐵線橋１３０之１７號","OBJECTID":170527},"geometry":{"x":175729.9000000013,"y":2573794.9700000007}},{"attributes":{"ID":170529,"DIS_CODE":0,"TOWNNAME":"新營區","LI":"鐵線里","LIN":"12鄰","STREET":" ","SECT":" ","MAREA":"鐵線橋","LANE":" ","ALLEY":" ","HOUSE_NO":"１３０之９號","E_COORD97":175743.87,"N_COORD97":2573770.5299999998,"ADDRESS":"鐵線橋１３０之９號","OBJECTID":170528},"geometry":{"x":175743.87000000011,"y":2573770.5300000031}},{"attributes":{"ID":170530,"DIS_CODE":0,"TOWNNAME":"新營區","LI":"鐵線里","LIN":"12鄰","STREET":" ","SECT":" ","MAREA":"鐵線橋","LANE":" ","ALLEY":" ","HOUSE_NO":"１３０之１３號","E_COORD97":175723.64000000001,"N_COORD97":2573770.6400000001,"ADDRESS":"鐵線橋１３０之１３號","OBJECTID":170529},"geometry":{"x":175723.6400000006,"y":2573770.6400000006}},{"attributes":{"ID":170531,"DIS_CODE":0,"TOWNNAME":"新營區","LI":"鐵線里","LIN":"12鄰","STREET":" ","SECT":" ","MAREA":"鐵線橋","LANE":" ","ALLEY":" ","HOUSE_NO":"１３９之１號","E_COORD97":175597.44,"N_COORD97":2573746.8900000001,"ADDRESS":"鐵線橋１３９之１號","OBJECTID":170530},"geometry":{"x":175597.44000000134,"y":2573746.8900000025}},{"attributes":{"ID":170532,"DIS_CODE":0,"TOWNNAME":"新營區","LI":"鐵線里","LIN":"12鄰","STREET":" ","SECT":" ","MAREA":"鐵線橋","LANE":" ","ALLEY":" ","HOUSE_NO":"１３０之７號","E_COORD97":175757.17999999999,"N_COORD97":2573770.4700000002,"ADDRESS":"鐵線橋１３０之７號","OBJECTID":170531},"geometry":{"x":175757.18000000156,"y":2573770.4700000025}},{"attributes":{"ID":170533,"DIS_CODE":0,"TOWNNAME":"新營區","LI":"鐵線里","LIN":"12鄰","STREET":" ","SECT":" ","MAREA":"鐵線橋","LANE":" ","ALLEY":" ","HOUSE_NO":"１３７號","E_COORD97":175638.70000000001,"N_COORD97":2573699.0099999998,"ADDRESS":"鐵線橋１３７號","OBJECTID":170532},"geometry":{"x":175638.70000000205,"y":2573699.0099999998}},{"attributes":{"ID":170534,"DIS_CODE":0,"TOWNNAME":"新營區","LI":"好平里","LIN":"12鄰","STREET":"濟安街","SECT":" ","MAREA":" ","LANE":" ","ALLEY":" ","HOUSE_NO":"１４號","E_COORD97":179451.64000000001,"N_COORD97":2577939.6400000001,"ADDRESS":"濟安街１４號","OBJECTID":170533},"geometry":{"x":179451.6400000006,"y":2577939.6400000006}},{"attributes":{"ID":170535,"DIS_CODE":0,"TOWNNAME":"北區","LI":"正覺里","LIN":"6鄰","STREET":"北安路","SECT":"一段","MAREA":" ","LANE":"５１巷","ALLEY":"３弄","HOUSE_NO":"８號","E_COORD97":169175.82000000001,"N_COORD97":2546139,"ADDRESS":"北安路一段５１巷３弄８號","OBJECTID":170534},"geometry":{"x":169175.8200000003,"y":2546139}},{"attributes":{"ID":170536,"DIS_CODE":0,"TOWNNAME":"新營區","LI":"埤寮里","LIN":"12鄰","STREET":" ","SECT":" ","MAREA":"埤寮","LANE":" ","ALLEY":" ","HOUSE_NO":"９２之７號","E_COORD97":180400.12,"N_COORD97":2580732.6400000001,"ADDRESS":"埤寮９２之７號","OBJECTID":170535},"geometry":{"x":180400.12000000104,"y":2580732.6400000025}},{"attributes":{"ID":170537,"DIS_CODE":0,"TOWNNAME":"北區","LI":"正覺里","LIN":"7鄰","STREET":"北安路","SECT":"一段","MAREA":" ","LANE":"５１巷","ALLEY":"２弄","HOUSE_NO":"４號","E_COORD97":169179.19,"N_COORD97":2546208,"ADDRESS":"北安路一段５１巷２弄４號","OBJECTID":170536},"geometry":{"x":169179.19000000134,"y":2546208.0000000019}},{"attributes":{"ID":170538,"DIS_CODE":0,"TOWNNAME":"新營區","LI":"埤寮里","LIN":"12鄰","STREET":" ","SECT":" ","MAREA":"埤寮","LANE":" ","ALLEY":" ","HOUSE_NO":"９２－１０號","E_COORD97":180403.98000000001,"N_COORD97":2580780.5899999999,"ADDRESS":"埤寮９２－１０號","OBJECTID":170537},"geometry":{"x":180403.98000000231,"y":2580780.5899999999}},{"attributes":{"ID":170539,"DIS_CODE":0,"TOWNNAME":"北區","LI":"文元里","LIN":"14鄰","STREET":"文賢路","SECT":" ","MAREA":" ","LANE":"１０３０巷","ALLEY":"３弄","HOUSE_NO":"１７號","E_COORD97":167395.70999999999,"N_COORD97":2546134.5299999998,"ADDRESS":"文賢路１０３０巷３弄１７號","OBJECTID":170538},"geometry":{"x":167395.70999999996,"y":2546134.5299999993}},{"attributes":{"ID":170540,"DIS_CODE":0,"TOWNNAME":"新營區","LI":"埤寮里","LIN":"12鄰","STREET":" ","SECT":" ","MAREA":"埤寮","LANE":" ","ALLEY":" ","HOUSE_NO":"９２－１１號","E_COORD97":180408.37,"N_COORD97":2580779.5800000001,"ADDRESS":"埤寮９２－１１號","OBJECTID":170539},"geometry":{"x":180408.37000000104,"y":2580779.5800000019}},{"attributes":{"ID":170541,"DIS_CODE":0,"TOWNNAME":"新營區","LI":"埤寮里","LIN":"12鄰","STREET":" ","SECT":" ","MAREA":"埤寮","LANE":" ","ALLEY":" ","HOUSE_NO":"９２－１２號","E_COORD97":180419.75,"N_COORD97":2580772.73,"ADDRESS":"埤寮９２－１２號","OBJECTID":170540},"geometry":{"x":180419.75,"y":2580772.7300000023}},{"attributes":{"ID":170542,"DIS_CODE":0,"TOWNNAME":"北區","LI":"文元里","LIN":"17鄰","STREET":"文賢路","SECT":" ","MAREA":" ","LANE":"１０３０巷","ALLEY":"３５弄","HOUSE_NO":"１０號","E_COORD97":167517.51000000001,"N_COORD97":2546132.6299999999,"ADDRESS":"文賢路１０３０巷３５弄１０號","OBJECTID":170541},"geometry":{"x":167517.50999999978,"y":2546132.6300000008}},{"attributes":{"ID":170543,"DIS_CODE":0,"TOWNNAME":"北區","LI":"文元里","LIN":"17鄰","STREET":"文賢路","SECT":" ","MAREA":" ","LANE":"１０３０巷","ALLEY":"３５弄","HOUSE_NO":"８號","E_COORD97":167517,"N_COORD97":2546125.3900000001,"ADDRESS":"文賢路１０３０巷３５弄８號","OBJECTID":170542},"geometry":{"x":167517.00000000093,"y":2546125.3900000025}},{"attributes":{"ID":170544,"DIS_CODE":0,"TOWNNAME":"新化區","LI":"知義里","LIN":"12鄰","STREET":" ","SECT":" ","MAREA":"口埤","LANE":" ","ALLEY":" ","HOUSE_NO":"８４號","E_COORD97":183498,"N_COORD97":2547096.25,"ADDRESS":"口埤８４號","OBJECTID":170543},"geometry":{"x":183498,"y":2547096.25}},{"attributes":{"ID":170545,"DIS_CODE":0,"TOWNNAME":"新營區","LI":"埤寮里","LIN":"12鄰","STREET":" ","SECT":" ","MAREA":"埤寮","LANE":" ","ALLEY":" ","HOUSE_NO":"９２－９號","E_COORD97":180396.85999999999,"N_COORD97":2580783.1400000001,"ADDRESS":"埤寮９２－９號","OBJECTID":170544},"geometry":{"x":180396.86000000127,"y":2580783.1400000025}},{"attributes":{"ID":170546,"DIS_CODE":0,"TOWNNAME":"東山區","LI":"嶺南里","LIN":"12鄰","STREET":" ","SECT":" ","MAREA":"宅子內","LANE":" ","ALLEY":" ","HOUSE_NO":"５１號","E_COORD97":192774.85999999999,"N_COORD97":2571965.1699999999,"ADDRESS":"宅子內５１號","OBJECTID":170545},"geometry":{"x":192774.86000000127,"y":2571965.1699999999}},{"attributes":{"ID":170547,"DIS_CODE":0,"TOWNNAME":"北區","LI":"文元里","LIN":"17鄰","STREET":"文賢路","SECT":" ","MAREA":" ","LANE":"１０３０巷","ALLEY":"４９弄","HOUSE_NO":"５號","E_COORD97":167543.03,"N_COORD97":2546115.6099999999,"ADDRESS":"文賢路１０３０巷４９弄５號","OBJECTID":170546},"geometry":{"x":167543.03000000026,"y":2546115.6100000013}},{"attributes":{"ID":170548,"DIS_CODE":0,"TOWNNAME":"北區","LI":"文元里","LIN":"11鄰","STREET":"文賢路","SECT":" ","MAREA":" ","LANE":"１１２２巷","ALLEY":"２４弄","HOUSE_NO":"２６號","E_COORD97":167392.01999999999,"N_COORD97":2546240.3999999999,"ADDRESS":"文賢路１１２２巷２４弄２６號","OBJECTID":170547},"geometry":{"x":167392.01999999955,"y":2546240.4000000022}},{"attributes":{"ID":170549,"DIS_CODE":0,"TOWNNAME":"北區","LI":"文元里","LIN":"11鄰","STREET":"文賢路","SECT":" ","MAREA":" ","LANE":"１１２２巷","ALLEY":"２４弄","HOUSE_NO":"２８號","E_COORD97":167392.01999999999,"N_COORD97":2546244.5,"ADDRESS":"文賢路１１２２巷２４弄２８號","OBJECTID":170548},"geometry":{"x":167392.01999999955,"y":2546244.5}},{"attributes":{"ID":170550,"DIS_CODE":0,"TOWNNAME":"北區","LI":"勝安里","LIN":"7鄰","STREET":"開元路","SECT":" ","MAREA":" ","LANE":"７３巷","ALLEY":"４１弄","HOUSE_NO":"１０號","E_COORD97":169829.34,"N_COORD97":2545436.5,"ADDRESS":"開元路７３巷４１弄１０號","OBJECTID":170549},"geometry":{"x":169829.33999999985,"y":2545436.5}},{"attributes":{"ID":170551,"DIS_CODE":0,"TOWNNAME":"東山區","LI":"東中里","LIN":"12鄰","STREET":"育仁街","SECT":" ","MAREA":" ","LANE":" ","ALLEY":" ","HOUSE_NO":"６號","E_COORD97":188877.06,"N_COORD97":2579549.4900000002,"ADDRESS":"育仁街６號","OBJECTID":170550},"geometry":{"x":188877.06000000052,"y":2579549.4900000021}},{"attributes":{"ID":170552,"DIS_CODE":0,"TOWNNAME":"東山區","LI":"東山里","LIN":"12鄰","STREET":" ","SECT":" ","MAREA":"東山","LANE":" ","ALLEY":" ","HOUSE_NO":"２１９號之２","E_COORD97":188990.79999999999,"N_COORD97":2580517.7000000002,"ADDRESS":"東山２１９號之２","OBJECTID":170551},"geometry":{"x":188990.80000000168,"y":2580517.7000000011}},{"attributes":{"ID":170553,"DIS_CODE":0,"TOWNNAME":"東山區","LI":"東山里","LIN":"12鄰","STREET":" ","SECT":" ","MAREA":"東山","LANE":" ","ALLEY":" ","HOUSE_NO":"２１９號","E_COORD97":188993.01000000001,"N_COORD97":2580502.98,"ADDRESS":"東山２１９號","OBJECTID":170552},"geometry":{"x":188993.01000000071,"y":2580502.9800000023}},{"attributes":{"ID":170554,"DIS_CODE":0,"TOWNNAME":"新化區","LI":"礁坑里","LIN":"12鄰","STREET":" ","SECT":" ","MAREA":"茄冬坑","LANE":" ","ALLEY":" ","HOUSE_NO":"１７號","E_COORD97":182888.161605,"N_COORD97":2548480.9898600001,"ADDRESS":"茄冬坑１７號","OBJECTID":170553},"geometry":{"x":182888.1616050005,"y":2548480.9898600001}},{"attributes":{"ID":170555,"DIS_CODE":0,"TOWNNAME":"新化區","LI":"礁坑里","LIN":"12鄰","STREET":" ","SECT":" ","MAREA":"茄冬坑","LANE":" ","ALLEY":" ","HOUSE_NO":"１４號","E_COORD97":182854.26281799999,"N_COORD97":2548473.2640300002,"ADDRESS":"茄冬坑１４號","OBJECTID":170554},"geometry":{"x":182854.26281800214,"y":2548473.2640310004}},{"attributes":{"ID":170556,"DIS_CODE":0,"TOWNNAME":"北區","LI":"勝安里","LIN":"7鄰","STREET":"開元路","SECT":" ","MAREA":" ","LANE":"７３巷","ALLEY":"４１弄","HOUSE_NO":"１２號","E_COORD97":169823.98000000001,"N_COORD97":2545439.6499999999,"ADDRESS":"開元路７３巷４１弄１２號","OBJECTID":170555},"geometry":{"x":169823.98000000045,"y":2545439.6500000004}},{"attributes":{"ID":170557,"DIS_CODE":0,"TOWNNAME":"新化區","LI":"全興里","LIN":"12鄰","STREET":" ","SECT":" ","MAREA":"竹子\u25A0","LANE":" ","ALLEY":" ","HOUSE_NO":"２４７號之１２２","E_COORD97":178241.98999999999,"N_COORD97":2546804.2599999998,"ADDRESS":"竹子\u25A0２４７號之１２２","OBJECTID":170556},"geometry":{"x":178241.99000000022,"y":2546804.2599999998}},{"attributes":{"ID":170558,"DIS_CODE":0,"TOWNNAME":"北區","LI":"勝安里","LIN":"7鄰","STREET":"開元路","SECT":" ","MAREA":" ","LANE":"７３巷","ALLEY":"４１弄","HOUSE_NO":"１４號","E_COORD97":169823.82000000001,"N_COORD97":2545449.4300000002,"ADDRESS":"開元路７３巷４１弄１４號","OBJECTID":170557},"geometry":{"x":169823.82000000123,"y":2545449.4300000016}},{"attributes":{"ID":170559,"DIS_CODE":0,"TOWNNAME":"北區","LI":"勝安里","LIN":"7鄰","STREET":"開元路","SECT":" ","MAREA":" ","LANE":"７３巷","ALLEY":"４１弄","HOUSE_NO":"１６號","E_COORD97":169823.35000000001,"N_COORD97":2545453.21,"ADDRESS":"開元路７３巷４１弄１６號","OBJECTID":170558},"geometry":{"x":169823.35000000056,"y":2545453.2100000009}},{"attributes":{"ID":170560,"DIS_CODE":0,"TOWNNAME":"北區","LI":"勝安里","LIN":"7鄰","STREET":"開元路","SECT":" ","MAREA":" ","LANE":"７３巷","ALLEY":"４１弄","HOUSE_NO":"１８號","E_COORD97":169823.03,"N_COORD97":2545457.3100000001,"ADDRESS":"開元路７３巷４１弄１８號","OBJECTID":170559},"geometry":{"x":169823.03000000026,"y":2545457.3100000024}},{"attributes":{"ID":170561,"DIS_CODE":0,"TOWNNAME":"北區","LI":"勝安里","LIN":"7鄰","STREET":"開元路","SECT":" ","MAREA":" ","LANE":"７３巷","ALLEY":"４１弄","HOUSE_NO":"２８號","E_COORD97":169803,"N_COORD97":2545495.1299999999,"ADDRESS":"開元路７３巷４１弄２８號","OBJECTID":170560},"geometry":{"x":169803,"y":2545495.1300000008}},{"attributes":{"ID":170562,"DIS_CODE":0,"TOWNNAME":"北區","LI":"勝安里","LIN":"7鄰","STREET":"開元路","SECT":" ","MAREA":" ","LANE":"７３巷","ALLEY":"４１弄","HOUSE_NO":"２８號之１","E_COORD97":169803.31,"N_COORD97":2545491.0299999998,"ADDRESS":"開元路７３巷４１弄２８號之１","OBJECTID":170561},"geometry":{"x":169803.31000000052,"y":2545491.0299999993}},{"attributes":{"ID":170563,"DIS_CODE":0,"TOWNNAME":"北區","LI":"勝安里","LIN":"7鄰","STREET":"開元路","SECT":" ","MAREA":" ","LANE":"７３巷","ALLEY":"４１弄","HOUSE_NO":"２８號之２","E_COORD97":169803.94,"N_COORD97":2545487.5699999998,"ADDRESS":"開元路７３巷４１弄２８號之２","OBJECTID":170562},"geometry":{"x":169803.94000000041,"y":2545487.5700000003}},{"attributes":{"ID":170564,"DIS_CODE":0,"TOWNNAME":"新化區","LI":"礁坑里","LIN":"12鄰","STREET":" ","SECT":" ","MAREA":"茄冬坑","LANE":" ","ALLEY":" ","HOUSE_NO":"１１號","E_COORD97":182850.818841,"N_COORD97":2548491.94368,"ADDRESS":"茄冬坑１１號","OBJECTID":170563},"geometry":{"x":182850.81884099916,"y":2548491.9436789993}},{"attributes":{"ID":170565,"DIS_CODE":0,"TOWNNAME":"北區","LI":"勝安里","LIN":"7鄰","STREET":"開元路","SECT":" ","MAREA":" ","LANE":"７３巷","ALLEY":"４１弄","HOUSE_NO":"２８號之３","E_COORD97":169804.26000000001,"N_COORD97":2545483.6299999999,"ADDRESS":"開元路７３巷４１弄２８號之３","OBJECTID":170564},"geometry":{"x":169804.25999999978,"y":2545483.6300000027}},{"attributes":{"ID":170566,"DIS_CODE":0,"TOWNNAME":"北區","LI":"勝安里","LIN":"7鄰","STREET":"開元路","SECT":" ","MAREA":" ","LANE":"７３巷","ALLEY":"４１弄","HOUSE_NO":"２８號之４","E_COORD97":169804.42000000001,"N_COORD97":2545477.48,"ADDRESS":"開元路７３巷４１弄２８號之４","OBJECTID":170565},"geometry":{"x":169804.42000000086,"y":2545477.4800000023}},{"attributes":{"ID":170567,"DIS_CODE":0,"TOWNNAME":"北區","LI":"勝安里","LIN":"7鄰","STREET":"開元路","SECT":" ","MAREA":" ","LANE":"７３巷","ALLEY":"４１弄","HOUSE_NO":"２８號之５","E_COORD97":169804.73000000001,"N_COORD97":2545471.1699999999,"ADDRESS":"開元路７３巷４１弄２８號之５","OBJECTID":170566},"geometry":{"x":169804.73000000138,"y":2545471.1700000018}},{"attributes":{"ID":170568,"DIS_CODE":0,"TOWNNAME":"北區","LI":"勝安里","LIN":"7鄰","STREET":"開元路","SECT":" ","MAREA":" ","LANE":"７３巷","ALLEY":"４１弄","HOUSE_NO":"３０號","E_COORD97":169811.67000000001,"N_COORD97":2545452.3399999999,"ADDRESS":"開元路７３巷４１弄３０號","OBJECTID":170567},"geometry":{"x":169811.66999999993,"y":2545452.339999998}},{"attributes":{"ID":170569,"DIS_CODE":0,"TOWNNAME":"北區","LI":"大豐里","LIN":"9鄰","STREET":"文賢路","SECT":" ","MAREA":" ","LANE":"３１３巷","ALLEY":"５６弄","HOUSE_NO":"１７號","E_COORD97":167162.91,"N_COORD97":2545328.7799999998,"ADDRESS":"文賢路３１３巷５６弄１７號","OBJECTID":170568},"geometry":{"x":167162.91000000015,"y":2545328.7799999993}},{"attributes":{"ID":170570,"DIS_CODE":0,"TOWNNAME":"北區","LI":"延平里","LIN":"11鄰","STREET":"公園路","SECT":" ","MAREA":" ","LANE":"７８８巷","ALLEY":"３７弄","HOUSE_NO":"１１號","E_COORD97":169260.66,"N_COORD97":2545793.8799999999,"ADDRESS":"公園路７８８巷３７弄１１號","OBJECTID":170569},"geometry":{"x":169260.66000000108,"y":2545793.8800000027}},{"attributes":{"ID":170571,"DIS_CODE":0,"TOWNNAME":"北區","LI":"重興里","LIN":"13鄰","STREET":"開南街","SECT":" ","MAREA":" ","LANE":"１４３巷","ALLEY":"１０弄","HOUSE_NO":"３７號","E_COORD97":170764.01999999999,"N_COORD97":2545150.79,"ADDRESS":"開南街１４３巷１０弄３７號","OBJECTID":170570},"geometry":{"x":170764.02000000142,"y":2545150.790000001}},{"attributes":{"ID":170572,"DIS_CODE":0,"TOWNNAME":"歸仁區","LI":"歸南里","LIN":"20鄰","STREET":"民生八街","SECT":" ","MAREA":" ","LANE":"２８巷","ALLEY":"１弄","HOUSE_NO":"８號","E_COORD97":176098.48999999999,"N_COORD97":2540392.29,"ADDRESS":"民生八街２８巷１弄８號","OBJECTID":170571},"geometry":{"x":176098.49000000115,"y":2540392.2899999991}},{"attributes":{"ID":170573,"DIS_CODE":0,"TOWNNAME":"歸仁區","LI":"大廟里","LIN":"4鄰","STREET":"和順路","SECT":"二段","MAREA":" ","LANE":"１５１巷","ALLEY":"３９弄","HOUSE_NO":"２３號","E_COORD97":176211,"N_COORD97":2543563.98,"ADDRESS":"和順路二段１５１巷３９弄２３號","OBJECTID":170572},"geometry":{"x":176211,"y":2543563.9800000042}},{"attributes":{"ID":170574,"DIS_CODE":0,"TOWNNAME":"歸仁區","LI":"大廟里","LIN":"18鄰","STREET":"大廟五街","SECT":" ","MAREA":" ","LANE":"２７巷","ALLEY":"２弄","HOUSE_NO":"１２號","E_COORD97":175920.73000000001,"N_COORD97":2544244.0899999999,"ADDRESS":"大廟五街２７巷２弄１２號","OBJECTID":170573},"geometry":{"x":175920.73000000138,"y":2544244.0900000036}},{"attributes":{"ID":170575,"DIS_CODE":0,"TOWNNAME":"歸仁區","LI":"七甲里","LIN":"18鄰","STREET":"南潭三街","SECT":" ","MAREA":" ","LANE":"１６２巷","ALLEY":"１１弄","HOUSE_NO":"１號","E_COORD97":176449.53,"N_COORD97":2543120.0299999998,"ADDRESS":"南潭三街１６２巷１１弄１號","OBJECTID":170574},"geometry":{"x":176449.53000000026,"y":2543120.0299999993}},{"attributes":{"ID":170576,"DIS_CODE":0,"TOWNNAME":"後壁區","LI":"新嘉里","LIN":"13鄰","STREET":" ","SECT":" ","MAREA":"白沙屯","LANE":" ","ALLEY":" ","HOUSE_NO":"１３０號之１８","E_COORD97":179976.82000000001,"N_COORD97":2585181.8300000001,"ADDRESS":"白沙屯１３０號之１８","OBJECTID":170575},"geometry":{"x":179976.82000000123,"y":2585181.8300000019}},{"attributes":{"ID":170577,"DIS_CODE":0,"TOWNNAME":"後壁區","LI":"新嘉里","LIN":"13鄰","STREET":" ","SECT":" ","MAREA":"白沙屯","LANE":" ","ALLEY":" ","HOUSE_NO":"１３０號之２０","E_COORD97":180018.87,"N_COORD97":2585225.73,"ADDRESS":"白沙屯１３０號之２０","OBJECTID":170576},"geometry":{"x":180018.87000000011,"y":2585225.7300000004}},{"attributes":{"ID":170578,"DIS_CODE":0,"TOWNNAME":"新化區","LI":"太平里","LIN":"12鄰","STREET":"中正路","SECT":" ","MAREA":" ","LANE":"６３３巷","ALLEY":" ","HOUSE_NO":"２０號","E_COORD97":178774.45999999999,"N_COORD97":2548921.25,"ADDRESS":"中正路６３３巷２０號","OBJECTID":170577},"geometry":{"x":178774.45999999903,"y":2548921.25}},{"attributes":{"ID":170579,"DIS_CODE":0,"TOWNNAME":"善化區","LI":"光文里","LIN":"15鄰","STREET":"信義路","SECT":" ","MAREA":" ","LANE":" ","ALLEY":" ","HOUSE_NO":"１１８號","E_COORD97":178269.17000000001,"N_COORD97":2558904.75,"ADDRESS":"信義路１１８號","OBJECTID":170578},"geometry":{"x":178269.16999999993,"y":2558904.75}},{"attributes":{"ID":170580,"DIS_CODE":0,"TOWNNAME":"善化區","LI":"光文里","LIN":"15鄰","STREET":"信義路","SECT":" ","MAREA":" ","LANE":" ","ALLEY":" ","HOUSE_NO":"１１４號","E_COORD97":178270.70999999999,"N_COORD97":2558895.75,"ADDRESS":"信義路１１４號","OBJECTID":170579},"geometry":{"x":178270.70999999996,"y":2558895.75}},{"attributes":{"ID":170581,"DIS_CODE":0,"TOWNNAME":"歸仁區","LI":"後市里","LIN":"39鄰","STREET":"文化街","SECT":"二段","MAREA":" ","LANE":"１２１巷","ALLEY":"７弄","HOUSE_NO":"２６號","E_COORD97":177237.98999999999,"N_COORD97":2541119.7599999998,"ADDRESS":"文化街二段１２１巷７弄２６號","OBJECTID":170580},"geometry":{"x":177237.99000000022,"y":2541119.7599999998}},{"attributes":{"ID":170582,"DIS_CODE":0,"TOWNNAME":"新化區","LI":"知義里","LIN":"12鄰","STREET":" ","SECT":" ","MAREA":"口埤","LANE":" ","ALLEY":" ","HOUSE_NO":"９號","E_COORD97":182417.25,"N_COORD97":2547207.25,"ADDRESS":"口埤９號","OBJECTID":170581},"geometry":{"x":182417.25000000186,"y":2547207.2500000019}},{"attributes":{"ID":170583,"DIS_CODE":0,"TOWNNAME":"歸仁區","LI":"大廟里","LIN":"18鄰","STREET":"大廟五街","SECT":" ","MAREA":" ","LANE":"２７巷","ALLEY":"２弄","HOUSE_NO":"１號","E_COORD97":175902.98000000001,"N_COORD97":2544231.0899999999,"ADDRESS":"大廟五街２７巷２弄１號","OBJECTID":170582},"geometry":{"x":175902.98000000045,"y":2544231.0900000017}},{"attributes":{"ID":170584,"DIS_CODE":0,"TOWNNAME":"歸仁區","LI":"後市里","LIN":"46鄰","STREET":"文化街","SECT":"二段","MAREA":" ","LANE":"１２１巷","ALLEY":"７弄","HOUSE_NO":"１８號","E_COORD97":177217.48999999999,"N_COORD97":2541125.7599999998,"ADDRESS":"文化街二段１２１巷７弄１８號","OBJECTID":170583},"geometry":{"x":177217.49000000115,"y":2541125.7599999998}},{"attributes":{"ID":170585,"DIS_CODE":0,"TOWNNAME":"歸仁區","LI":"大廟里","LIN":"18鄰","STREET":"大廟五街","SECT":" ","MAREA":" ","LANE":"２７巷","ALLEY":"２弄","HOUSE_NO":"１８號","E_COORD97":175927.92999999999,"N_COORD97":2544258.0899999999,"ADDRESS":"大廟五街２７巷２弄１８號","OBJECTID":170584},"geometry":{"x":175927.9299999997,"y":2544258.0900000017}},{"attributes":{"ID":170586,"DIS_CODE":0,"TOWNNAME":"歸仁區","LI":"七甲里","LIN":"20鄰","STREET":"南潭三街","SECT":" ","MAREA":" ","LANE":"１６５巷","ALLEY":"７弄","HOUSE_NO":"５號","E_COORD97":176459.38,"N_COORD97":2543297.0299999998,"ADDRESS":"南潭三街１６５巷７弄５號","OBJECTID":170585},"geometry":{"x":176459.38000000175,"y":2543297.0299999993}},{"attributes":{"ID":170587,"DIS_CODE":0,"TOWNNAME":"歸仁區","LI":"後市里","LIN":"39鄰","STREET":"文化街","SECT":"二段","MAREA":" ","LANE":"１２１巷","ALLEY":"７弄","HOUSE_NO":"３６號","E_COORD97":177258.48999999999,"N_COORD97":2541117.7599999998,"ADDRESS":"文化街二段１２１巷７弄３６號","OBJECTID":170586},"geometry":{"x":177258.49000000022,"y":2541117.7600000016}},{"attributes":{"ID":170588,"DIS_CODE":0,"TOWNNAME":"歸仁區","LI":"大廟里","LIN":"18鄰","STREET":"大廟五街","SECT":" ","MAREA":" ","LANE":"２７巷","ALLEY":"６弄","HOUSE_NO":"８號","E_COORD97":175893.78,"N_COORD97":2544242.0899999999,"ADDRESS":"大廟五街２７巷６弄８號","OBJECTID":170587},"geometry":{"x":175893.78000000026,"y":2544242.0900000017}},{"attributes":{"ID":170589,"DIS_CODE":0,"TOWNNAME":"歸仁區","LI":"七甲里","LIN":"18鄰","STREET":"南潭三街","SECT":" ","MAREA":" ","LANE":"１６２巷","ALLEY":"８弄","HOUSE_NO":"７號","E_COORD97":176418.57999999999,"N_COORD97":2543141.02,"ADDRESS":"南潭三街１６２巷８弄７號","OBJECTID":170588},"geometry":{"x":176418.58000000007,"y":2543141.0199999996}},{"attributes":{"ID":170590,"DIS_CODE":0,"TOWNNAME":"歸仁區","LI":"大廟里","LIN":"20鄰","STREET":"大廟一街","SECT":" ","MAREA":" ","LANE":"２８巷","ALLEY":"２１弄","HOUSE_NO":"１０號","E_COORD97":175755.98999999999,"N_COORD97":2544135.1200000001,"ADDRESS":"大廟一街２８巷２１弄１０號","OBJECTID":170589},"geometry":{"x":175755.99000000115,"y":2544135.120000001}},{"attributes":{"ID":170591,"DIS_CODE":0,"TOWNNAME":"新化區","LI":"知義里","LIN":"12鄰","STREET":" ","SECT":" ","MAREA":"口埤","LANE":" ","ALLEY":" ","HOUSE_NO":"９１號之１","E_COORD97":183463.53,"N_COORD97":2547276.2599999998,"ADDRESS":"口埤９１號之１","OBJECTID":170590},"geometry":{"x":183463.53000000119,"y":2547276.2599999998}},{"attributes":{"ID":170592,"DIS_CODE":0,"TOWNNAME":"歸仁區","LI":"七甲里","LIN":"20鄰","STREET":"南潭三街","SECT":" ","MAREA":" ","LANE":"１６５巷","ALLEY":"７弄","HOUSE_NO":"８號","E_COORD97":176460.28,"N_COORD97":2543282.0299999998,"ADDRESS":"南潭三街１６５巷７弄８號","OBJECTID":170591},"geometry":{"x":176460.28000000026,"y":2543282.0300000012}},{"attributes":{"ID":170593,"DIS_CODE":0,"TOWNNAME":"歸仁區","LI":"七甲里","LIN":"18鄰","STREET":"南潭三街","SECT":" ","MAREA":" ","LANE":"１６２巷","ALLEY":"８弄","HOUSE_NO":"１０號","E_COORD97":176419.92999999999,"N_COORD97":2543151.0299999998,"ADDRESS":"南潭三街１６２巷８弄１０號","OBJECTID":170592},"geometry":{"x":176419.93000000156,"y":2543151.0299999993}},{"attributes":{"ID":170594,"DIS_CODE":0,"TOWNNAME":"新化區","LI":"知義里","LIN":"12鄰","STREET":" ","SECT":" ","MAREA":"口埤","LANE":" ","ALLEY":" ","HOUSE_NO":"８７號","E_COORD97":183308.5,"N_COORD97":2547280.25,"ADDRESS":"口埤８７號","OBJECTID":170593},"geometry":{"x":183308.5,"y":2547280.25}},{"attributes":{"ID":170595,"DIS_CODE":0,"TOWNNAME":"新化區","LI":"全興里","LIN":"12鄰","STREET":" ","SECT":" ","MAREA":"竹子\u25A0","LANE":" ","ALLEY":" ","HOUSE_NO":"２４７號之１０３","E_COORD97":178268.17999999999,"N_COORD97":2546831.2599999998,"ADDRESS":"竹子\u25A0２４７號之１０３","OBJECTID":170594},"geometry":{"x":178268.18000000063,"y":2546831.2599999998}},{"attributes":{"ID":170596,"DIS_CODE":0,"TOWNNAME":"歸仁區","LI":"七甲里","LIN":"20鄰","STREET":"南潭三街","SECT":" ","MAREA":" ","LANE":"１６５巷","ALLEY":"７弄","HOUSE_NO":"６號","E_COORD97":176454.17999999999,"N_COORD97":2543281.0299999998,"ADDRESS":"南潭三街１６５巷７弄６號","OBJECTID":170595},"geometry":{"x":176454.18000000063,"y":2543281.0300000031}},{"attributes":{"ID":170597,"DIS_CODE":0,"TOWNNAME":"歸仁區","LI":"大廟里","LIN":"20鄰","STREET":"大廟一街","SECT":" ","MAREA":" ","LANE":"２８巷","ALLEY":"２１弄","HOUSE_NO":"２６號","E_COORD97":175736.29000000001,"N_COORD97":2544100.1200000001,"ADDRESS":"大廟一街２８巷２１弄２６號","OBJECTID":170596},"geometry":{"x":175736.2900000019,"y":2544100.1200000029}},{"attributes":{"ID":170598,"DIS_CODE":0,"TOWNNAME":"歸仁區","LI":"七甲里","LIN":"18鄰","STREET":"南潭三街","SECT":" ","MAREA":" ","LANE":"１６２巷","ALLEY":"８弄","HOUSE_NO":"１２號","E_COORD97":176414.73000000001,"N_COORD97":2543151.0299999998,"ADDRESS":"南潭三街１６２巷８弄１２號","OBJECTID":170597},"geometry":{"x":176414.73000000045,"y":2543151.0299999993}},{"attributes":{"ID":170599,"DIS_CODE":0,"TOWNNAME":"新化區","LI":"知義里","LIN":"12鄰","STREET":" ","SECT":" ","MAREA":"口埤","LANE":" ","ALLEY":" ","HOUSE_NO":"１２號","E_COORD97":182938.74366899999,"N_COORD97":2547220.1445200001,"ADDRESS":"口埤１２號","OBJECTID":170598},"geometry":{"x":182938.74366900139,"y":2547220.1445210017}},{"attributes":{"ID":170600,"DIS_CODE":0,"TOWNNAME":"新化區","LI":"知義里","LIN":"12鄰","STREET":" ","SECT":" ","MAREA":"口埤","LANE":" ","ALLEY":" ","HOUSE_NO":"９３號","E_COORD97":183325.5,"N_COORD97":2547334.25,"ADDRESS":"口埤９３號","OBJECTID":170599},"geometry":{"x":183325.5,"y":2547334.25}},{"attributes":{"ID":170601,"DIS_CODE":0,"TOWNNAME":"新化區","LI":"知義里","LIN":"12鄰","STREET":" ","SECT":" ","MAREA":"口埤","LANE":" ","ALLEY":" ","HOUSE_NO":"１０２號","E_COORD97":183053.25,"N_COORD97":2547389.25,"ADDRESS":"口埤１０２號","OBJECTID":170600},"geometry":{"x":183053.25000000093,"y":2547389.2500000037}}]}