{"displayFieldName":"TOWNNAME","fieldAliases":{"ID":"ID","DIS_CODE":"DIS_CODE","TOWNNAME":"TOWNNAME","LI":"LI","LIN":"LIN","STREET":"STREET","SECT":"SECT","MAREA":"MAREA","LANE":"LANE","ALLEY":"ALLEY","HOUSE_NO":"HOUSE_NO","E_COORD97":"E_COORD97","N_COORD97":"N_COORD97","ADDRESS":"ADDRESS","OBJECTID":"OBJECTID"},"geometryType":"esriGeometryPoint","spatialReference":{"wkid":102443,"latestWkid":3826},"fields":[{"name":"ID","type":"esriFieldTypeDouble","alias":"ID"},{"name":"DIS_CODE","type":"esriFieldTypeInteger","alias":"DIS_CODE"},{"name":"TOWNNAME","type":"esriFieldTypeString","alias":"TOWNNAME","length":8},{"name":"LI","type":"esriFieldTypeString","alias":"LI","length":8},{"name":"LIN","type":"esriFieldTypeString","alias":"LIN","length":12},{"name":"STREET","type":"esriFieldTypeString","alias":"STREET","length":20},{"name":"SECT","type":"esriFieldTypeString","alias":"SECT","length":8},{"name":"MAREA","type":"esriFieldTypeString","alias":"MAREA","length":12},{"name":"LANE","type":"esriFieldTypeString","alias":"LANE","length":10},{"name":"ALLEY","type":"esriFieldTypeString","alias":"ALLEY","length":10},{"name":"HOUSE_NO","type":"esriFieldTypeString","alias":"HOUSE_NO","length":20},{"name":"E_COORD97","type":"esriFieldTypeDouble","alias":"E_COORD97"},{"name":"N_COORD97","type":"esriFieldTypeDouble","alias":"N_COORD97"},{"name":"ADDRESS","type":"esriFieldTypeString","alias":"ADDRESS","length":50},{"name":"OBJECTID","type":"esriFieldTypeOID","alias":"OBJECTID"}],"features":[{"attributes":{"ID":484826,"DIS_CODE":0,"TOWNNAME":"安南區","LI":"鳳凰里","LIN":"25鄰","STREET":"怡安路","SECT":"二段","MAREA":" ","LANE":" ","ALLEY":" ","HOUSE_NO":"５９５號十二樓之２","E_COORD97":167418.26999999999,"N_COORD97":2549469.2799999998,"ADDRESS":"怡安路二段５９５號十二樓之２","OBJECTID":484801},"geometry":{"x":167418.27000000048,"y":2549469.2799999993}},{"attributes":{"ID":484827,"DIS_CODE":0,"TOWNNAME":"安南區","LI":"鳳凰里","LIN":"25鄰","STREET":"怡安路","SECT":"二段","MAREA":" ","LANE":" ","ALLEY":" ","HOUSE_NO":"５９５號十二樓之３","E_COORD97":167418.26999999999,"N_COORD97":2549469.2799999998,"ADDRESS":"怡安路二段５９５號十二樓之３","OBJECTID":484802},"geometry":{"x":167418.27000000048,"y":2549469.2799999993}},{"attributes":{"ID":484828,"DIS_CODE":0,"TOWNNAME":"安南區","LI":"鳳凰里","LIN":"25鄰","STREET":"怡安路","SECT":"二段","MAREA":" ","LANE":" ","ALLEY":" ","HOUSE_NO":"５９５號十八樓之１","E_COORD97":167418.26999999999,"N_COORD97":2549469.2799999998,"ADDRESS":"怡安路二段５９５號十八樓之１","OBJECTID":484803},"geometry":{"x":167418.27000000048,"y":2549469.2799999993}},{"attributes":{"ID":484829,"DIS_CODE":0,"TOWNNAME":"安南區","LI":"鳳凰里","LIN":"25鄰","STREET":"怡安路","SECT":"二段","MAREA":" ","LANE":" ","ALLEY":" ","HOUSE_NO":"５９５號十八樓之２","E_COORD97":167418.26999999999,"N_COORD97":2549469.2799999998,"ADDRESS":"怡安路二段５９５號十八樓之２","OBJECTID":484804},"geometry":{"x":167418.27000000048,"y":2549469.2799999993}},{"attributes":{"ID":484830,"DIS_CODE":0,"TOWNNAME":"安南區","LI":"鳳凰里","LIN":"25鄰","STREET":"怡安路","SECT":"二段","MAREA":" ","LANE":" ","ALLEY":" ","HOUSE_NO":"５９５號十八樓之３","E_COORD97":167418.26999999999,"N_COORD97":2549469.2799999998,"ADDRESS":"怡安路二段５９５號十八樓之３","OBJECTID":484805},"geometry":{"x":167418.27000000048,"y":2549469.2799999993}},{"attributes":{"ID":484831,"DIS_CODE":0,"TOWNNAME":"安南區","LI":"鳳凰里","LIN":"25鄰","STREET":"怡安路","SECT":"二段","MAREA":" ","LANE":" ","ALLEY":" ","HOUSE_NO":"５９５號十三樓之１","E_COORD97":167418.26999999999,"N_COORD97":2549469.2799999998,"ADDRESS":"怡安路二段５９５號十三樓之１","OBJECTID":484806},"geometry":{"x":167418.27000000048,"y":2549469.2799999993}},{"attributes":{"ID":484832,"DIS_CODE":0,"TOWNNAME":"安南區","LI":"鳳凰里","LIN":"25鄰","STREET":"怡安路","SECT":"二段","MAREA":" ","LANE":" ","ALLEY":" ","HOUSE_NO":"５９５號十三樓之２","E_COORD97":167418.26999999999,"N_COORD97":2549469.2799999998,"ADDRESS":"怡安路二段５９５號十三樓之２","OBJECTID":484807},"geometry":{"x":167418.27000000048,"y":2549469.2799999993}},{"attributes":{"ID":484833,"DIS_CODE":0,"TOWNNAME":"安南區","LI":"鳳凰里","LIN":"25鄰","STREET":"怡安路","SECT":"二段","MAREA":" ","LANE":" ","ALLEY":" ","HOUSE_NO":"５９５號十三樓之３","E_COORD97":167418.26999999999,"N_COORD97":2549469.2799999998,"ADDRESS":"怡安路二段５９５號十三樓之３","OBJECTID":484808},"geometry":{"x":167418.27000000048,"y":2549469.2799999993}},{"attributes":{"ID":484834,"DIS_CODE":0,"TOWNNAME":"安南區","LI":"鳳凰里","LIN":"25鄰","STREET":"怡安路","SECT":"二段","MAREA":" ","LANE":" ","ALLEY":" ","HOUSE_NO":"５９５號十五樓之１","E_COORD97":167418.26999999999,"N_COORD97":2549469.2799999998,"ADDRESS":"怡安路二段５９５號十五樓之１","OBJECTID":484809},"geometry":{"x":167418.27000000048,"y":2549469.2799999993}},{"attributes":{"ID":484835,"DIS_CODE":0,"TOWNNAME":"安南區","LI":"鳳凰里","LIN":"25鄰","STREET":"怡安路","SECT":"二段","MAREA":" ","LANE":" ","ALLEY":" ","HOUSE_NO":"５９５號十五樓之２","E_COORD97":167418.26999999999,"N_COORD97":2549469.2799999998,"ADDRESS":"怡安路二段５９５號十五樓之２","OBJECTID":484810},"geometry":{"x":167418.27000000048,"y":2549469.2799999993}},{"attributes":{"ID":484836,"DIS_CODE":0,"TOWNNAME":"安南區","LI":"鳳凰里","LIN":"25鄰","STREET":"怡安路","SECT":"二段","MAREA":" ","LANE":" ","ALLEY":" ","HOUSE_NO":"５９５號十五樓之３","E_COORD97":167418.26999999999,"N_COORD97":2549469.2799999998,"ADDRESS":"怡安路二段５９５號十五樓之３","OBJECTID":484811},"geometry":{"x":167418.27000000048,"y":2549469.2799999993}},{"attributes":{"ID":484837,"DIS_CODE":0,"TOWNNAME":"安南區","LI":"鳳凰里","LIN":"25鄰","STREET":"怡安路","SECT":"二段","MAREA":" ","LANE":" ","ALLEY":" ","HOUSE_NO":"５９５號十六樓之１","E_COORD97":167418.26999999999,"N_COORD97":2549469.2799999998,"ADDRESS":"怡安路二段５９５號十六樓之１","OBJECTID":484812},"geometry":{"x":167418.27000000048,"y":2549469.2799999993}},{"attributes":{"ID":484838,"DIS_CODE":0,"TOWNNAME":"安南區","LI":"鳳凰里","LIN":"25鄰","STREET":"怡安路","SECT":"二段","MAREA":" ","LANE":" ","ALLEY":" ","HOUSE_NO":"５９５號十六樓之２","E_COORD97":167418.26999999999,"N_COORD97":2549469.2799999998,"ADDRESS":"怡安路二段５９５號十六樓之２","OBJECTID":484813},"geometry":{"x":167418.27000000048,"y":2549469.2799999993}},{"attributes":{"ID":484839,"DIS_CODE":0,"TOWNNAME":"安南區","LI":"鳳凰里","LIN":"25鄰","STREET":"怡安路","SECT":"二段","MAREA":" ","LANE":" ","ALLEY":" ","HOUSE_NO":"５９５號十六樓之３","E_COORD97":167418.26999999999,"N_COORD97":2549469.2799999998,"ADDRESS":"怡安路二段５９５號十六樓之３","OBJECTID":484814},"geometry":{"x":167418.27000000048,"y":2549469.2799999993}},{"attributes":{"ID":484840,"DIS_CODE":0,"TOWNNAME":"安南區","LI":"鳳凰里","LIN":"25鄰","STREET":"怡安路","SECT":"二段","MAREA":" ","LANE":" ","ALLEY":" ","HOUSE_NO":"５９５號十四樓之１","E_COORD97":167418.26999999999,"N_COORD97":2549469.2799999998,"ADDRESS":"怡安路二段５９５號十四樓之１","OBJECTID":484815},"geometry":{"x":167418.27000000048,"y":2549469.2799999993}},{"attributes":{"ID":484841,"DIS_CODE":0,"TOWNNAME":"安南區","LI":"鳳凰里","LIN":"25鄰","STREET":"怡安路","SECT":"二段","MAREA":" ","LANE":" ","ALLEY":" ","HOUSE_NO":"５９５號十四樓之２","E_COORD97":167418.26999999999,"N_COORD97":2549469.2799999998,"ADDRESS":"怡安路二段５９５號十四樓之２","OBJECTID":484816},"geometry":{"x":167418.27000000048,"y":2549469.2799999993}},{"attributes":{"ID":484842,"DIS_CODE":0,"TOWNNAME":"永康區","LI":"北灣里","LIN":"39鄰","STREET":"大同街","SECT":" ","MAREA":" ","LANE":" ","ALLEY":" ","HOUSE_NO":"６４０號","E_COORD97":174631.63,"N_COORD97":2546340.1299999999,"ADDRESS":"大同街６４０號","OBJECTID":484817},"geometry":{"x":174631.62999999989,"y":2546340.129999999}},{"attributes":{"ID":484843,"DIS_CODE":0,"TOWNNAME":"永康區","LI":"北灣里","LIN":"39鄰","STREET":"大同街","SECT":" ","MAREA":" ","LANE":" ","ALLEY":" ","HOUSE_NO":"６４９號","E_COORD97":174557.82999999999,"N_COORD97":2546505.48,"ADDRESS":"大同街６４９號","OBJECTID":484818},"geometry":{"x":174557.82999999914,"y":2546505.4800000004}},{"attributes":{"ID":484844,"DIS_CODE":0,"TOWNNAME":"永康區","LI":"正強里","LIN":"39鄰","STREET":"中正路","SECT":" ","MAREA":" ","LANE":" ","ALLEY":" ","HOUSE_NO":"２４２號","E_COORD97":173225.76999999999,"N_COORD97":2547918.9900000002,"ADDRESS":"中正路２４２號","OBJECTID":484819},"geometry":{"x":173225.77000000048,"y":2547918.9900000002}},{"attributes":{"ID":484845,"DIS_CODE":0,"TOWNNAME":"永康區","LI":"北灣里","LIN":"39鄰","STREET":"大同街","SECT":" ","MAREA":" ","LANE":" ","ALLEY":" ","HOUSE_NO":"６４５號","E_COORD97":174560.32999999999,"N_COORD97":2546498.23,"ADDRESS":"大同街６４５號","OBJECTID":484820},"geometry":{"x":174560.33000000101,"y":2546498.2300000042}},{"attributes":{"ID":484846,"DIS_CODE":0,"TOWNNAME":"永康區","LI":"北灣里","LIN":"39鄰","STREET":"大同街","SECT":" ","MAREA":" ","LANE":" ","ALLEY":" ","HOUSE_NO":"６４２號","E_COORD97":174630.51999999999,"N_COORD97":2546344.3799999999,"ADDRESS":"大同街６４２號","OBJECTID":484821},"geometry":{"x":174630.51999999955,"y":2546344.3800000008}},{"attributes":{"ID":484847,"DIS_CODE":0,"TOWNNAME":"永康區","LI":"正強里","LIN":"39鄰","STREET":"中正路","SECT":" ","MAREA":" ","LANE":" ","ALLEY":" ","HOUSE_NO":"２４６號","E_COORD97":173213.17000000001,"N_COORD97":2547923.2400000002,"ADDRESS":"中正路２４６號","OBJECTID":484822},"geometry":{"x":173213.17000000086,"y":2547923.2400000021}},{"attributes":{"ID":484848,"DIS_CODE":0,"TOWNNAME":"永康區","LI":"永康里","LIN":"39鄰","STREET":"永大一路","SECT":" ","MAREA":" ","LANE":" ","ALLEY":" ","HOUSE_NO":"８號","E_COORD97":174356.94,"N_COORD97":2546505.0499999998,"ADDRESS":"永大一路８號","OBJECTID":484823},"geometry":{"x":174356.94000000041,"y":2546505.0500000007}},{"attributes":{"ID":484849,"DIS_CODE":0,"TOWNNAME":"永康區","LI":"埔園里","LIN":"39鄰","STREET":"永大路","SECT":"三段","MAREA":" ","LANE":" ","ALLEY":" ","HOUSE_NO":"２４７號","E_COORD97":174111.67999999999,"N_COORD97":2548151.6899999999,"ADDRESS":"永大路三段２４７號","OBJECTID":484824},"geometry":{"x":174111.68000000063,"y":2548151.6899999976}},{"attributes":{"ID":484850,"DIS_CODE":0,"TOWNNAME":"新市區","LI":"新和里","LIN":"39鄰","STREET":"中正路","SECT":" ","MAREA":" ","LANE":" ","ALLEY":" ","HOUSE_NO":"２０５號","E_COORD97":177425.14999999999,"N_COORD97":2552998.5,"ADDRESS":"中正路２０５號","OBJECTID":484825},"geometry":{"x":177425.1500000013,"y":2552998.5000000037}},{"attributes":{"ID":484851,"DIS_CODE":0,"TOWNNAME":"新市區","LI":"新和里","LIN":"39鄰","STREET":"中正路","SECT":" ","MAREA":" ","LANE":" ","ALLEY":" ","HOUSE_NO":"２５６號","E_COORD97":177450.10999999999,"N_COORD97":2552999.8399999999,"ADDRESS":"中正路２５６號","OBJECTID":484826},"geometry":{"x":177450.1100000022,"y":2552999.8400000017}},{"attributes":{"ID":484852,"DIS_CODE":0,"TOWNNAME":"新市區","LI":"新和里","LIN":"39鄰","STREET":"中正路","SECT":" ","MAREA":" ","LANE":" ","ALLEY":" ","HOUSE_NO":"２６０號","E_COORD97":177450.64000000001,"N_COORD97":2553002.9900000002,"ADDRESS":"中正路２６０號","OBJECTID":484827},"geometry":{"x":177450.63999999966,"y":2553002.9900000021}},{"attributes":{"ID":484853,"DIS_CODE":0,"TOWNNAME":"新市區","LI":"新和里","LIN":"39鄰","STREET":"中正路","SECT":" ","MAREA":" ","LANE":" ","ALLEY":" ","HOUSE_NO":"２６２號","E_COORD97":177451.19,"N_COORD97":2553006.4300000002,"ADDRESS":"中正路２６２號","OBJECTID":484828},"geometry":{"x":177451.19000000227,"y":2553006.4300000016}},{"attributes":{"ID":484854,"DIS_CODE":0,"TOWNNAME":"永康區","LI":"北灣里","LIN":"39鄰","STREET":"大同街","SECT":" ","MAREA":" ","LANE":" ","ALLEY":" ","HOUSE_NO":"６５８號","E_COORD97":174600.94,"N_COORD97":2546378.1200000001,"ADDRESS":"大同街６５８號","OBJECTID":484829},"geometry":{"x":174600.94000000041,"y":2546378.1200000029}},{"attributes":{"ID":484855,"DIS_CODE":0,"TOWNNAME":"永康區","LI":"復華里","LIN":"39鄰","STREET":"復國一路","SECT":" ","MAREA":" ","LANE":" ","ALLEY":" ","HOUSE_NO":"３５９號","E_COORD97":172746.79000000001,"N_COORD97":2545852.8700000001,"ADDRESS":"復國一路３５９號","OBJECTID":484830},"geometry":{"x":172746.79000000097,"y":2545852.870000001}},{"attributes":{"ID":484856,"DIS_CODE":0,"TOWNNAME":"永康區","LI":"復華里","LIN":"39鄰","STREET":"復國一路","SECT":" ","MAREA":" ","LANE":" ","ALLEY":" ","HOUSE_NO":"３６１號","E_COORD97":172745.26000000001,"N_COORD97":2545860.77,"ADDRESS":"復國一路３６１號","OBJECTID":484831},"geometry":{"x":172745.25999999978,"y":2545860.7700000014}},{"attributes":{"ID":484857,"DIS_CODE":0,"TOWNNAME":"永康區","LI":"復華里","LIN":"39鄰","STREET":"復國一路","SECT":" ","MAREA":" ","LANE":" ","ALLEY":" ","HOUSE_NO":"３６３號","E_COORD97":172745.47,"N_COORD97":2545865.1099999999,"ADDRESS":"復國一路３６３號","OBJECTID":484832},"geometry":{"x":172745.46999999974,"y":2545865.1100000013}},{"attributes":{"ID":484858,"DIS_CODE":0,"TOWNNAME":"永康區","LI":"復華里","LIN":"39鄰","STREET":"復國一路","SECT":" ","MAREA":" ","LANE":" ","ALLEY":" ","HOUSE_NO":"３６５號","E_COORD97":172741.84,"N_COORD97":2545869.3199999998,"ADDRESS":"復國一路３６５號","OBJECTID":484833},"geometry":{"x":172741.83999999985,"y":2545869.3200000003}},{"attributes":{"ID":484859,"DIS_CODE":0,"TOWNNAME":"永康區","LI":"復華里","LIN":"39鄰","STREET":"復國一路","SECT":" ","MAREA":" ","LANE":" ","ALLEY":" ","HOUSE_NO":"３６７號","E_COORD97":172743.04000000001,"N_COORD97":2545873.8900000001,"ADDRESS":"復國一路３６７號","OBJECTID":484834},"geometry":{"x":172743.04000000097,"y":2545873.8900000025}},{"attributes":{"ID":484860,"DIS_CODE":0,"TOWNNAME":"永康區","LI":"復華里","LIN":"39鄰","STREET":"復國一路","SECT":" ","MAREA":" ","LANE":" ","ALLEY":" ","HOUSE_NO":"３６９號","E_COORD97":172742.48000000001,"N_COORD97":2545878.77,"ADDRESS":"復國一路３６９號","OBJECTID":484835},"geometry":{"x":172742.48000000138,"y":2545878.7699999996}},{"attributes":{"ID":484861,"DIS_CODE":0,"TOWNNAME":"永康區","LI":"復華里","LIN":"39鄰","STREET":"復國一路","SECT":" ","MAREA":" ","LANE":" ","ALLEY":" ","HOUSE_NO":"３７１號","E_COORD97":172751.82999999999,"N_COORD97":2545886.3300000001,"ADDRESS":"復國一路３７１號","OBJECTID":484836},"geometry":{"x":172751.83000000007,"y":2545886.3300000001}},{"attributes":{"ID":484862,"DIS_CODE":0,"TOWNNAME":"永康區","LI":"復華里","LIN":"39鄰","STREET":"復國一路","SECT":" ","MAREA":" ","LANE":" ","ALLEY":" ","HOUSE_NO":"３７３號","E_COORD97":172748.04000000001,"N_COORD97":2545896.5600000001,"ADDRESS":"復國一路３７３號","OBJECTID":484837},"geometry":{"x":172748.04000000097,"y":2545896.5600000024}},{"attributes":{"ID":484863,"DIS_CODE":0,"TOWNNAME":"永康區","LI":"復華里","LIN":"39鄰","STREET":"復國一路","SECT":" ","MAREA":" ","LANE":" ","ALLEY":" ","HOUSE_NO":"３７５號","E_COORD97":172747.57000000001,"N_COORD97":2545904.8700000001,"ADDRESS":"復國一路３７５號","OBJECTID":484838},"geometry":{"x":172747.5700000003,"y":2545904.8700000029}},{"attributes":{"ID":484864,"DIS_CODE":0,"TOWNNAME":"永康區","LI":"復華里","LIN":"39鄰","STREET":"復華六街","SECT":" ","MAREA":" ","LANE":" ","ALLEY":" ","HOUSE_NO":"５８號","E_COORD97":172730.67999999999,"N_COORD97":2545861.1299999999,"ADDRESS":"復華六街５８號","OBJECTID":484839},"geometry":{"x":172730.6799999997,"y":2545861.1300000008}},{"attributes":{"ID":484865,"DIS_CODE":0,"TOWNNAME":"永康區","LI":"龍潭里","LIN":"39鄰","STREET":"永明街","SECT":" ","MAREA":" ","LANE":" ","ALLEY":" ","HOUSE_NO":"２４７號","E_COORD97":174583.59,"N_COORD97":2547220.8999999999,"ADDRESS":"永明街２４７號","OBJECTID":484840},"geometry":{"x":174583.59000000078,"y":2547220.9000000004}},{"attributes":{"ID":484866,"DIS_CODE":0,"TOWNNAME":"永康區","LI":"龍潭里","LIN":"39鄰","STREET":"永明街","SECT":" ","MAREA":" ","LANE":" ","ALLEY":" ","HOUSE_NO":"２５１號","E_COORD97":174591.66,"N_COORD97":2547219.3599999999,"ADDRESS":"永明街２５１號","OBJECTID":484841},"geometry":{"x":174591.66000000108,"y":2547219.3600000013}},{"attributes":{"ID":484867,"DIS_CODE":0,"TOWNNAME":"永康區","LI":"埔園里","LIN":"39鄰","STREET":"自強路","SECT":" ","MAREA":" ","LANE":" ","ALLEY":" ","HOUSE_NO":"６００號","E_COORD97":174046.23000000001,"N_COORD97":2548176.0600000001,"ADDRESS":"自強路６００號","OBJECTID":484842},"geometry":{"x":174046.23000000045,"y":2548176.0600000005}},{"attributes":{"ID":484868,"DIS_CODE":0,"TOWNNAME":"永康區","LI":"埔園里","LIN":"39鄰","STREET":"自強路","SECT":" ","MAREA":" ","LANE":" ","ALLEY":" ","HOUSE_NO":"６０２號","E_COORD97":174052.56,"N_COORD97":2548178.6699999999,"ADDRESS":"自強路６０２號","OBJECTID":484843},"geometry":{"x":174052.56000000052,"y":2548178.6699999999}},{"attributes":{"ID":484869,"DIS_CODE":0,"TOWNNAME":"永康區","LI":"埔園里","LIN":"39鄰","STREET":"自強路","SECT":" ","MAREA":" ","LANE":" ","ALLEY":" ","HOUSE_NO":"６０６號","E_COORD97":174057.82999999999,"N_COORD97":2548180.4900000002,"ADDRESS":"自強路６０６號","OBJECTID":484844},"geometry":{"x":174057.83000000194,"y":2548180.4900000002}},{"attributes":{"ID":484870,"DIS_CODE":0,"TOWNNAME":"永康區","LI":"埔園里","LIN":"39鄰","STREET":"自強路","SECT":" ","MAREA":" ","LANE":" ","ALLEY":" ","HOUSE_NO":"６０８號","E_COORD97":174062.23999999999,"N_COORD97":2548190.8700000001,"ADDRESS":"自強路６０８號","OBJECTID":484845},"geometry":{"x":174062.24000000115,"y":2548190.8700000029}},{"attributes":{"ID":484871,"DIS_CODE":0,"TOWNNAME":"永康區","LI":"埔園里","LIN":"39鄰","STREET":"龍國街","SECT":" ","MAREA":" ","LANE":" ","ALLEY":" ","HOUSE_NO":"２１號","E_COORD97":174037.73000000001,"N_COORD97":2548111.02,"ADDRESS":"龍國街２１號","OBJECTID":484846},"geometry":{"x":174037.73000000138,"y":2548111.0199999996}},{"attributes":{"ID":484872,"DIS_CODE":0,"TOWNNAME":"永康區","LI":"埔園里","LIN":"39鄰","STREET":"龍國街","SECT":" ","MAREA":" ","LANE":" ","ALLEY":" ","HOUSE_NO":"２３號","E_COORD97":174043.89999999999,"N_COORD97":2548111.3100000001,"ADDRESS":"龍國街２３號","OBJECTID":484847},"geometry":{"x":174043.90000000037,"y":2548111.3099999987}},{"attributes":{"ID":484873,"DIS_CODE":0,"TOWNNAME":"永康區","LI":"埔園里","LIN":"39鄰","STREET":"龍國街","SECT":" ","MAREA":" ","LANE":" ","ALLEY":" ","HOUSE_NO":"２５號","E_COORD97":174051.95999999999,"N_COORD97":2548105.8500000001,"ADDRESS":"龍國街２５號","OBJECTID":484848},"geometry":{"x":174051.96000000089,"y":2548105.8499999996}},{"attributes":{"ID":484874,"DIS_CODE":0,"TOWNNAME":"永康區","LI":"正強里","LIN":"39鄰","STREET":"中正路","SECT":" ","MAREA":" ","LANE":" ","ALLEY":" ","HOUSE_NO":"２４８號","E_COORD97":173207.29999999999,"N_COORD97":2547925.2400000002,"ADDRESS":"中正路２４８號","OBJECTID":484849},"geometry":{"x":173207.30000000075,"y":2547925.2400000039}},{"attributes":{"ID":484875,"DIS_CODE":0,"TOWNNAME":"永康區","LI":"北灣里","LIN":"39鄰","STREET":"永大路","SECT":"二段","MAREA":" ","LANE":" ","ALLEY":" ","HOUSE_NO":"９６６號","E_COORD97":174478.29999999999,"N_COORD97":2546320.8999999999,"ADDRESS":"永大路二段９６６號","OBJECTID":484850},"geometry":{"x":174478.30000000168,"y":2546320.9000000022}},{"attributes":{"ID":484876,"DIS_CODE":0,"TOWNNAME":"永康區","LI":"西灣里","LIN":"39鄰","STREET":"國光七街","SECT":" ","MAREA":" ","LANE":" ","ALLEY":" ","HOUSE_NO":"６５號之１","E_COORD97":174170.01999999999,"N_COORD97":2545520.3100000001,"ADDRESS":"國光七街６５號之１","OBJECTID":484851},"geometry":{"x":174170.02000000048,"y":2545520.3100000005}},{"attributes":{"ID":484877,"DIS_CODE":0,"TOWNNAME":"麻豆區","LI":"大埕里","LIN":"8鄰","STREET":" ","SECT":" ","MAREA":"大埕","LANE":" ","ALLEY":" ","HOUSE_NO":"１５號之２２","E_COORD97":173172.15762000001,"N_COORD97":2565352.8946600002,"ADDRESS":"大埕１５號之２２","OBJECTID":484852},"geometry":{"x":173172.15761999972,"y":2565352.8946599998}},{"attributes":{"ID":484878,"DIS_CODE":0,"TOWNNAME":"永康區","LI":"復華里","LIN":"39鄰","STREET":"復華六街","SECT":" ","MAREA":" ","LANE":" ","ALLEY":" ","HOUSE_NO":"７０號","E_COORD97":172710.32999999999,"N_COORD97":2545856.8799999999,"ADDRESS":"復華六街７０號","OBJECTID":484853},"geometry":{"x":172710.33000000101,"y":2545856.879999999}},{"attributes":{"ID":484879,"DIS_CODE":0,"TOWNNAME":"仁德區","LI":"後壁里","LIN":"39鄰","STREET":"德善一街","SECT":" ","MAREA":" ","LANE":" ","ALLEY":" ","HOUSE_NO":"３７號","E_COORD97":173445.98999999999,"N_COORD97":2539001.7599999998,"ADDRESS":"德善一街３７號","OBJECTID":484854},"geometry":{"x":173445.99000000022,"y":2539001.7600000016}},{"attributes":{"ID":484880,"DIS_CODE":0,"TOWNNAME":"中西區","LI":"西湖里","LIN":"39鄰","STREET":"中華西路","SECT":"二段","MAREA":" ","LANE":" ","ALLEY":" ","HOUSE_NO":"７７５號","E_COORD97":166621.20999999999,"N_COORD97":2544982.3900000001,"ADDRESS":"中華西路二段７７５號","OBJECTID":484855},"geometry":{"x":166621.20999999996,"y":2544982.3900000025}},{"attributes":{"ID":484881,"DIS_CODE":0,"TOWNNAME":"中西區","LI":"西湖里","LIN":"39鄰","STREET":"中華西路","SECT":"二段","MAREA":" ","LANE":" ","ALLEY":" ","HOUSE_NO":"７７７號","E_COORD97":166619.17999999999,"N_COORD97":2544989.7599999998,"ADDRESS":"中華西路二段７７７號","OBJECTID":484856},"geometry":{"x":166619.1799999997,"y":2544989.7600000016}},{"attributes":{"ID":484882,"DIS_CODE":0,"TOWNNAME":"中西區","LI":"西湖里","LIN":"39鄰","STREET":"中華西路","SECT":"二段","MAREA":" ","LANE":" ","ALLEY":" ","HOUSE_NO":"７７９號","E_COORD97":166619.42999999999,"N_COORD97":2544996.3599999999,"ADDRESS":"中華西路二段７７９號","OBJECTID":484857},"geometry":{"x":166619.4299999997,"y":2544996.3599999994}},{"attributes":{"ID":484883,"DIS_CODE":0,"TOWNNAME":"中西區","LI":"西湖里","LIN":"39鄰","STREET":"中華西路","SECT":"二段","MAREA":" ","LANE":" ","ALLEY":" ","HOUSE_NO":"７８１號","E_COORD97":166617.01999999999,"N_COORD97":2545002.46,"ADDRESS":"中華西路二段７８１號","OBJECTID":484858},"geometry":{"x":166617.01999999955,"y":2545002.4600000028}},{"attributes":{"ID":484884,"DIS_CODE":0,"TOWNNAME":"中西區","LI":"西湖里","LIN":"39鄰","STREET":"中華西路","SECT":"二段","MAREA":" ","LANE":" ","ALLEY":" ","HOUSE_NO":"７８３號","E_COORD97":166616.76000000001,"N_COORD97":2545008.6800000002,"ADDRESS":"中華西路二段７８３號","OBJECTID":484859},"geometry":{"x":166616.76000000071,"y":2545008.6799999997}},{"attributes":{"ID":484885,"DIS_CODE":0,"TOWNNAME":"中西區","LI":"西湖里","LIN":"39鄰","STREET":"中華西路","SECT":"二段","MAREA":" ","LANE":" ","ALLEY":" ","HOUSE_NO":"７８５號","E_COORD97":166615.62,"N_COORD97":2545014.0099999998,"ADDRESS":"中華西路二段７８５號","OBJECTID":484860},"geometry":{"x":166615.61999999918,"y":2545014.0100000035}},{"attributes":{"ID":484886,"DIS_CODE":0,"TOWNNAME":"中西區","LI":"西湖里","LIN":"39鄰","STREET":"中華西路","SECT":"二段","MAREA":" ","LANE":" ","ALLEY":" ","HOUSE_NO":"７８７號","E_COORD97":166614.35000000001,"N_COORD97":2545021.6299999999,"ADDRESS":"中華西路二段７８７號","OBJECTID":484861},"geometry":{"x":166614.35000000056,"y":2545021.629999999}},{"attributes":{"ID":484887,"DIS_CODE":0,"TOWNNAME":"中西區","LI":"西湖里","LIN":"39鄰","STREET":"中華西路","SECT":"二段","MAREA":" ","LANE":" ","ALLEY":" ","HOUSE_NO":"７８９號","E_COORD97":166612.19,"N_COORD97":2545029,"ADDRESS":"中華西路二段７８９號","OBJECTID":484862},"geometry":{"x":166612.19000000227,"y":2545029.0000000019}},{"attributes":{"ID":484888,"DIS_CODE":0,"TOWNNAME":"中西區","LI":"西湖里","LIN":"39鄰","STREET":"頂美三街","SECT":" ","MAREA":" ","LANE":" ","ALLEY":" ","HOUSE_NO":"２４６號","E_COORD97":166555.10000000001,"N_COORD97":2545055,"ADDRESS":"頂美三街２４６號","OBJECTID":484863},"geometry":{"x":166555.10000000056,"y":2545055.0000000037}},{"attributes":{"ID":484889,"DIS_CODE":0,"TOWNNAME":"永康區","LI":"龍潭里","LIN":"39鄰","STREET":"永明街","SECT":" ","MAREA":" ","LANE":" ","ALLEY":" ","HOUSE_NO":"２６１之１１號","E_COORD97":174627.89000000001,"N_COORD97":2547230.27,"ADDRESS":"永明街２６１之１１號","OBJECTID":484864},"geometry":{"x":174627.88999999966,"y":2547230.2700000014}},{"attributes":{"ID":484890,"DIS_CODE":0,"TOWNNAME":"永康區","LI":"埔園里","LIN":"39鄰","STREET":"自強路","SECT":" ","MAREA":" ","LANE":" ","ALLEY":" ","HOUSE_NO":"５７６號","E_COORD97":174013.60999999999,"N_COORD97":2548144.7999999998,"ADDRESS":"自強路５７６號","OBJECTID":484865},"geometry":{"x":174013.61000000034,"y":2548144.8000000007}},{"attributes":{"ID":484891,"DIS_CODE":0,"TOWNNAME":"永康區","LI":"北灣里","LIN":"39鄰","STREET":"永大路","SECT":"二段","MAREA":" ","LANE":" ","ALLEY":" ","HOUSE_NO":"９６８號","E_COORD97":174477,"N_COORD97":2546325.0299999998,"ADDRESS":"永大路二段９６８號","OBJECTID":484866},"geometry":{"x":174477.00000000186,"y":2546325.0299999993}},{"attributes":{"ID":484892,"DIS_CODE":0,"TOWNNAME":"永康區","LI":"西灣里","LIN":"39鄰","STREET":"國光七街","SECT":" ","MAREA":" ","LANE":" ","ALLEY":" ","HOUSE_NO":"６７號","E_COORD97":174156.78,"N_COORD97":2545518.6800000002,"ADDRESS":"國光七街６７號","OBJECTID":484867},"geometry":{"x":174156.78000000212,"y":2545518.6800000016}},{"attributes":{"ID":484893,"DIS_CODE":0,"TOWNNAME":"永康區","LI":"西灣里","LIN":"39鄰","STREET":"永華路","SECT":" ","MAREA":" ","LANE":" ","ALLEY":" ","HOUSE_NO":"２０６號","E_COORD97":174115.04000000001,"N_COORD97":2545466.29,"ADDRESS":"永華路２０６號","OBJECTID":484868},"geometry":{"x":174115.04000000004,"y":2545466.290000001}},{"attributes":{"ID":484894,"DIS_CODE":0,"TOWNNAME":"永康區","LI":"西灣里","LIN":"39鄰","STREET":"永華路","SECT":" ","MAREA":" ","LANE":" ","ALLEY":" ","HOUSE_NO":"１９４號","E_COORD97":174115.56,"N_COORD97":2545438.54,"ADDRESS":"永華路１９４號","OBJECTID":484869},"geometry":{"x":174115.56000000052,"y":2545438.5399999991}},{"attributes":{"ID":484895,"DIS_CODE":0,"TOWNNAME":"永康區","LI":"西灣里","LIN":"39鄰","STREET":"永華路","SECT":" ","MAREA":" ","LANE":" ","ALLEY":" ","HOUSE_NO":"２０８號","E_COORD97":174115.85999999999,"N_COORD97":2545470.2999999998,"ADDRESS":"永華路２０８號","OBJECTID":484870},"geometry":{"x":174115.86000000127,"y":2545470.3000000007}},{"attributes":{"ID":484896,"DIS_CODE":0,"TOWNNAME":"永康區","LI":"西灣里","LIN":"39鄰","STREET":"國光七街","SECT":" ","MAREA":" ","LANE":" ","ALLEY":" ","HOUSE_NO":"７７號","E_COORD97":174134.94,"N_COORD97":2545518.7400000002,"ADDRESS":"國光七街７７號","OBJECTID":484871},"geometry":{"x":174134.94000000041,"y":2545518.7400000021}},{"attributes":{"ID":484897,"DIS_CODE":0,"TOWNNAME":"永康區","LI":"西灣里","LIN":"39鄰","STREET":"國光七街","SECT":" ","MAREA":" ","LANE":" ","ALLEY":" ","HOUSE_NO":"８１號","E_COORD97":174126.35000000001,"N_COORD97":2545518.4900000002,"ADDRESS":"國光七街８１號","OBJECTID":484872},"geometry":{"x":174126.34999999963,"y":2545518.4900000002}},{"attributes":{"ID":484898,"DIS_CODE":0,"TOWNNAME":"永康區","LI":"西灣里","LIN":"39鄰","STREET":"永華路","SECT":" ","MAREA":" ","LANE":" ","ALLEY":" ","HOUSE_NO":"２１０號","E_COORD97":174116.98000000001,"N_COORD97":2545474.2999999998,"ADDRESS":"永華路２１０號","OBJECTID":484873},"geometry":{"x":174116.98000000138,"y":2545474.3000000045}},{"attributes":{"ID":484899,"DIS_CODE":0,"TOWNNAME":"永康區","LI":"永康里","LIN":"39鄰","STREET":"永大路","SECT":"二段","MAREA":" ","LANE":" ","ALLEY":" ","HOUSE_NO":"６６５號","E_COORD97":174383.42000000001,"N_COORD97":2546514.0299999998,"ADDRESS":"永大路二段６６５號","OBJECTID":484874},"geometry":{"x":174383.41999999993,"y":2546514.0299999993}},{"attributes":{"ID":484900,"DIS_CODE":0,"TOWNNAME":"永康區","LI":"正強里","LIN":"39鄰","STREET":"正強街","SECT":" ","MAREA":" ","LANE":" ","ALLEY":" ","HOUSE_NO":"２８５號","E_COORD97":173260.98999999999,"N_COORD97":2547962.25,"ADDRESS":"正強街２８５號","OBJECTID":484875},"geometry":{"x":173260.99000000115,"y":2547962.2500000037}},{"attributes":{"ID":484901,"DIS_CODE":0,"TOWNNAME":"佳里區","LI":"安西里","LIN":"39鄰","STREET":"育善街","SECT":" ","MAREA":" ","LANE":" ","ALLEY":" ","HOUSE_NO":"２３７號","E_COORD97":164917.32000000001,"N_COORD97":2562708.3300000001,"ADDRESS":"育善街２３７號","OBJECTID":484876},"geometry":{"x":164917.3200000003,"y":2562708.3300000001}},{"attributes":{"ID":484902,"DIS_CODE":0,"TOWNNAME":"佳里區","LI":"安西里","LIN":"39鄰","STREET":"育善街","SECT":" ","MAREA":" ","LANE":" ","ALLEY":" ","HOUSE_NO":"２３９號","E_COORD97":164916.42000000001,"N_COORD97":2562712.96,"ADDRESS":"育善街２３９號","OBJECTID":484877},"geometry":{"x":164916.41999999993,"y":2562712.959999999}},{"attributes":{"ID":484903,"DIS_CODE":0,"TOWNNAME":"佳里區","LI":"安西里","LIN":"39鄰","STREET":"育善街","SECT":" ","MAREA":" ","LANE":" ","ALLEY":" ","HOUSE_NO":"２４１號","E_COORD97":164914.23999999999,"N_COORD97":2562717.8900000001,"ADDRESS":"育善街２４１號","OBJECTID":484878},"geometry":{"x":164914.24000000022,"y":2562717.8900000025}},{"attributes":{"ID":484904,"DIS_CODE":0,"TOWNNAME":"佳里區","LI":"安西里","LIN":"39鄰","STREET":"育善街","SECT":" ","MAREA":" ","LANE":" ","ALLEY":" ","HOUSE_NO":"２４３號","E_COORD97":164913.28,"N_COORD97":2562721.9100000001,"ADDRESS":"育善街２４３號","OBJECTID":484879},"geometry":{"x":164913.28000000119,"y":2562721.9100000001}},{"attributes":{"ID":484905,"DIS_CODE":0,"TOWNNAME":"佳里區","LI":"安西里","LIN":"39鄰","STREET":"育善街","SECT":" ","MAREA":" ","LANE":" ","ALLEY":" ","HOUSE_NO":"２４５號","E_COORD97":164910.72,"N_COORD97":2562726.2000000002,"ADDRESS":"育善街２４５號","OBJECTID":484880},"geometry":{"x":164910.71999999974,"y":2562726.1999999993}},{"attributes":{"ID":484906,"DIS_CODE":0,"TOWNNAME":"佳里區","LI":"安西里","LIN":"39鄰","STREET":"育善街","SECT":" ","MAREA":" ","LANE":" ","ALLEY":" ","HOUSE_NO":"２６２號","E_COORD97":164945.19,"N_COORD97":2562693.23,"ADDRESS":"育善街２６２號","OBJECTID":484881},"geometry":{"x":164945.19000000041,"y":2562693.2300000004}},{"attributes":{"ID":484907,"DIS_CODE":0,"TOWNNAME":"佳里區","LI":"安西里","LIN":"39鄰","STREET":"育善街","SECT":" ","MAREA":" ","LANE":" ","ALLEY":" ","HOUSE_NO":"２６６號","E_COORD97":164940.64000000001,"N_COORD97":2562707.1099999999,"ADDRESS":"育善街２６６號","OBJECTID":484882},"geometry":{"x":164940.6400000006,"y":2562707.1099999975}},{"attributes":{"ID":484908,"DIS_CODE":0,"TOWNNAME":"中西區","LI":"西湖里","LIN":"39鄰","STREET":"中華西路","SECT":"二段","MAREA":" ","LANE":" ","ALLEY":" ","HOUSE_NO":"８３９之１號","E_COORD97":166581.54999999999,"N_COORD97":2545179.1800000002,"ADDRESS":"中華西路二段８３９之１號","OBJECTID":484883},"geometry":{"x":166581.54999999981,"y":2545179.1800000016}},{"attributes":{"ID":484909,"DIS_CODE":0,"TOWNNAME":"仁德區","LI":"仁德里","LIN":"39鄰","STREET":"文宏路","SECT":" ","MAREA":" ","LANE":" ","ALLEY":" ","HOUSE_NO":"１３１號","E_COORD97":172425.45000000001,"N_COORD97":2541789.3300000001,"ADDRESS":"文宏路１３１號","OBJECTID":484884},"geometry":{"x":172425.45000000112,"y":2541789.3300000019}},{"attributes":{"ID":484910,"DIS_CODE":0,"TOWNNAME":"中西區","LI":"西湖里","LIN":"39鄰","STREET":"中華西路","SECT":"二段","MAREA":" ","LANE":" ","ALLEY":" ","HOUSE_NO":"８３５號","E_COORD97":166583.29999999999,"N_COORD97":2545171.3999999999,"ADDRESS":"中華西路二段８３５號","OBJECTID":484885},"geometry":{"x":166583.29999999981,"y":2545171.4000000041}},{"attributes":{"ID":484911,"DIS_CODE":0,"TOWNNAME":"麻豆區","LI":"大埕里","LIN":"8鄰","STREET":" ","SECT":" ","MAREA":"大埕","LANE":" ","ALLEY":" ","HOUSE_NO":"１５號之２３","E_COORD97":173171.73378000001,"N_COORD97":2565356.4929900002,"ADDRESS":"大埕１５號之２３","OBJECTID":484886},"geometry":{"x":173171.73378000222,"y":2565356.4929900039}},{"attributes":{"ID":484912,"DIS_CODE":0,"TOWNNAME":"中西區","LI":"西湖里","LIN":"39鄰","STREET":"中華西路","SECT":"二段","MAREA":" ","LANE":" ","ALLEY":" ","HOUSE_NO":"８３３號","E_COORD97":166583.92999999999,"N_COORD97":2545168.7000000002,"ADDRESS":"中華西路二段８３３號","OBJECTID":484887},"geometry":{"x":166583.9299999997,"y":2545168.7000000011}},{"attributes":{"ID":484913,"DIS_CODE":0,"TOWNNAME":"中西區","LI":"西湖里","LIN":"39鄰","STREET":"中華西路","SECT":"二段","MAREA":" ","LANE":" ","ALLEY":" ","HOUSE_NO":"８３１號","E_COORD97":166584.57000000001,"N_COORD97":2545166.1600000001,"ADDRESS":"中華西路二段８３１號","OBJECTID":484888},"geometry":{"x":166584.57000000123,"y":2545166.160000002}},{"attributes":{"ID":484914,"DIS_CODE":0,"TOWNNAME":"中西區","LI":"西湖里","LIN":"39鄰","STREET":"中華西路","SECT":"二段","MAREA":" ","LANE":" ","ALLEY":" ","HOUSE_NO":"８２９號","E_COORD97":166585.20000000001,"N_COORD97":2545163.2999999998,"ADDRESS":"中華西路二段８２９號","OBJECTID":484889},"geometry":{"x":166585.20000000112,"y":2545163.3000000026}},{"attributes":{"ID":484915,"DIS_CODE":0,"TOWNNAME":"中西區","LI":"西湖里","LIN":"39鄰","STREET":"中華西路","SECT":"二段","MAREA":" ","LANE":" ","ALLEY":" ","HOUSE_NO":"８２７號","E_COORD97":166585.67999999999,"N_COORD97":2545160.4500000002,"ADDRESS":"中華西路二段８２７號","OBJECTID":484890},"geometry":{"x":166585.6799999997,"y":2545160.4500000011}},{"attributes":{"ID":484916,"DIS_CODE":0,"TOWNNAME":"永康區","LI":"永康里","LIN":"39鄰","STREET":"永大路","SECT":"二段","MAREA":" ","LANE":" ","ALLEY":" ","HOUSE_NO":"５９７號","E_COORD97":174424.76000000001,"N_COORD97":2546362.0699999998,"ADDRESS":"永大路二段５９７號","OBJECTID":484891},"geometry":{"x":174424.76000000071,"y":2546362.0700000003}},{"attributes":{"ID":484917,"DIS_CODE":0,"TOWNNAME":"永康區","LI":"永康里","LIN":"39鄰","STREET":"永大一路","SECT":" ","MAREA":" ","LANE":" ","ALLEY":" ","HOUSE_NO":"６號","E_COORD97":174361.69,"N_COORD97":2546506.2999999998,"ADDRESS":"永大一路６號","OBJECTID":484892},"geometry":{"x":174361.69000000134,"y":2546506.3000000026}},{"attributes":{"ID":484918,"DIS_CODE":0,"TOWNNAME":"永康區","LI":"正強里","LIN":"39鄰","STREET":"正強街","SECT":" ","MAREA":" ","LANE":" ","ALLEY":" ","HOUSE_NO":"２７９號","E_COORD97":173262.35000000001,"N_COORD97":2547948.9900000002,"ADDRESS":"正強街２７９號","OBJECTID":484893},"geometry":{"x":173262.35000000056,"y":2547948.9900000002}},{"attributes":{"ID":484919,"DIS_CODE":0,"TOWNNAME":"永康區","LI":"永康里","LIN":"39鄰","STREET":"永大路","SECT":"二段","MAREA":" ","LANE":" ","ALLEY":" ","HOUSE_NO":"６１９號","E_COORD97":174411.17000000001,"N_COORD97":2546400.02,"ADDRESS":"永大路二段６１９號","OBJECTID":484894},"geometry":{"x":174411.16999999993,"y":2546400.0199999996}},{"attributes":{"ID":484920,"DIS_CODE":0,"TOWNNAME":"安平區","LI":"育平里","LIN":"39鄰","STREET":"健康路","SECT":"三段","MAREA":" ","LANE":" ","ALLEY":" ","HOUSE_NO":"６９６之１號三樓之２","E_COORD97":164417.85999999999,"N_COORD97":2542890.1099999999,"ADDRESS":"健康路三段６９６之１號三樓之２","OBJECTID":484895},"geometry":{"x":164417.86000000127,"y":2542890.1099999994}},{"attributes":{"ID":484921,"DIS_CODE":0,"TOWNNAME":"安平區","LI":"育平里","LIN":"39鄰","STREET":"健康路","SECT":"三段","MAREA":" ","LANE":" ","ALLEY":" ","HOUSE_NO":"６９６之１號三樓之１","E_COORD97":164417.85999999999,"N_COORD97":2542890.1099999999,"ADDRESS":"健康路三段６９６之１號三樓之１","OBJECTID":484896},"geometry":{"x":164417.86000000127,"y":2542890.1099999994}},{"attributes":{"ID":484922,"DIS_CODE":0,"TOWNNAME":"安平區","LI":"育平里","LIN":"39鄰","STREET":"健康路","SECT":"三段","MAREA":" ","LANE":" ","ALLEY":" ","HOUSE_NO":"６９６之１號四樓之３","E_COORD97":164417.85999999999,"N_COORD97":2542890.1099999999,"ADDRESS":"健康路三段６９６之１號四樓之３","OBJECTID":484897},"geometry":{"x":164417.86000000127,"y":2542890.1099999994}},{"attributes":{"ID":484923,"DIS_CODE":0,"TOWNNAME":"安平區","LI":"育平里","LIN":"39鄰","STREET":"健康路","SECT":"三段","MAREA":" ","LANE":" ","ALLEY":" ","HOUSE_NO":"６９６之１號四樓之２","E_COORD97":164417.85999999999,"N_COORD97":2542890.1099999999,"ADDRESS":"健康路三段６９６之１號四樓之２","OBJECTID":484898},"geometry":{"x":164417.86000000127,"y":2542890.1099999994}},{"attributes":{"ID":484924,"DIS_CODE":0,"TOWNNAME":"安平區","LI":"育平里","LIN":"39鄰","STREET":"健康路","SECT":"三段","MAREA":" ","LANE":" ","ALLEY":" ","HOUSE_NO":"６９６之１號四樓之１","E_COORD97":164417.85999999999,"N_COORD97":2542890.1099999999,"ADDRESS":"健康路三段６９６之１號四樓之１","OBJECTID":484899},"geometry":{"x":164417.86000000127,"y":2542890.1099999994}},{"attributes":{"ID":484925,"DIS_CODE":0,"TOWNNAME":"安平區","LI":"育平里","LIN":"39鄰","STREET":"健康路","SECT":"三段","MAREA":" ","LANE":" ","ALLEY":" ","HOUSE_NO":"６９６之１號五樓之３","E_COORD97":164417.85999999999,"N_COORD97":2542890.1099999999,"ADDRESS":"健康路三段６９６之１號五樓之３","OBJECTID":484900},"geometry":{"x":164417.86000000127,"y":2542890.1099999994}},{"attributes":{"ID":484926,"DIS_CODE":0,"TOWNNAME":"安平區","LI":"育平里","LIN":"39鄰","STREET":"健康路","SECT":"三段","MAREA":" ","LANE":" ","ALLEY":" ","HOUSE_NO":"６９６之１號五樓之２","E_COORD97":164417.85999999999,"N_COORD97":2542890.1099999999,"ADDRESS":"健康路三段６９６之１號五樓之２","OBJECTID":484901},"geometry":{"x":164417.86000000127,"y":2542890.1099999994}},{"attributes":{"ID":484927,"DIS_CODE":0,"TOWNNAME":"安平區","LI":"育平里","LIN":"39鄰","STREET":"健康路","SECT":"三段","MAREA":" ","LANE":" ","ALLEY":" ","HOUSE_NO":"６９６之１號五樓之１","E_COORD97":164417.85999999999,"N_COORD97":2542890.1099999999,"ADDRESS":"健康路三段６９６之１號五樓之１","OBJECTID":484902},"geometry":{"x":164417.86000000127,"y":2542890.1099999994}},{"attributes":{"ID":484928,"DIS_CODE":0,"TOWNNAME":"安平區","LI":"育平里","LIN":"39鄰","STREET":"健康路","SECT":"三段","MAREA":" ","LANE":" ","ALLEY":" ","HOUSE_NO":"６９６之１號六樓之３","E_COORD97":164417.85999999999,"N_COORD97":2542890.1099999999,"ADDRESS":"健康路三段６９６之１號六樓之３","OBJECTID":484903},"geometry":{"x":164417.86000000127,"y":2542890.1099999994}},{"attributes":{"ID":484929,"DIS_CODE":0,"TOWNNAME":"安平區","LI":"育平里","LIN":"39鄰","STREET":"健康路","SECT":"三段","MAREA":" ","LANE":" ","ALLEY":" ","HOUSE_NO":"６９６之１號六樓之２","E_COORD97":164417.85999999999,"N_COORD97":2542890.1099999999,"ADDRESS":"健康路三段６９６之１號六樓之２","OBJECTID":484904},"geometry":{"x":164417.86000000127,"y":2542890.1099999994}},{"attributes":{"ID":484930,"DIS_CODE":0,"TOWNNAME":"安平區","LI":"育平里","LIN":"39鄰","STREET":"健康路","SECT":"三段","MAREA":" ","LANE":" ","ALLEY":" ","HOUSE_NO":"６９６之１號六樓之１","E_COORD97":164417.85999999999,"N_COORD97":2542890.1099999999,"ADDRESS":"健康路三段６９６之１號六樓之１","OBJECTID":484905},"geometry":{"x":164417.86000000127,"y":2542890.1099999994}},{"attributes":{"ID":484931,"DIS_CODE":0,"TOWNNAME":"安平區","LI":"育平里","LIN":"39鄰","STREET":"健康路","SECT":"三段","MAREA":" ","LANE":" ","ALLEY":" ","HOUSE_NO":"６９６之１號七樓之３","E_COORD97":164417.85999999999,"N_COORD97":2542890.1099999999,"ADDRESS":"健康路三段６９６之１號七樓之３","OBJECTID":484906},"geometry":{"x":164417.86000000127,"y":2542890.1099999994}},{"attributes":{"ID":484932,"DIS_CODE":0,"TOWNNAME":"安平區","LI":"育平里","LIN":"39鄰","STREET":"健康路","SECT":"三段","MAREA":" ","LANE":" ","ALLEY":" ","HOUSE_NO":"６９６之１號七樓之２","E_COORD97":164417.85999999999,"N_COORD97":2542890.1099999999,"ADDRESS":"健康路三段６９６之１號七樓之２","OBJECTID":484907},"geometry":{"x":164417.86000000127,"y":2542890.1099999994}},{"attributes":{"ID":484933,"DIS_CODE":0,"TOWNNAME":"安平區","LI":"育平里","LIN":"39鄰","STREET":"健康路","SECT":"三段","MAREA":" ","LANE":" ","ALLEY":" ","HOUSE_NO":"６９６之１號三樓之３","E_COORD97":164417.85999999999,"N_COORD97":2542890.1099999999,"ADDRESS":"健康路三段６９６之１號三樓之３","OBJECTID":484908},"geometry":{"x":164417.86000000127,"y":2542890.1099999994}},{"attributes":{"ID":484934,"DIS_CODE":0,"TOWNNAME":"安平區","LI":"育平里","LIN":"39鄰","STREET":"健康路","SECT":"三段","MAREA":" ","LANE":" ","ALLEY":" ","HOUSE_NO":"６９６之１號七樓之１","E_COORD97":164417.85999999999,"N_COORD97":2542890.1099999999,"ADDRESS":"健康路三段６９６之１號七樓之１","OBJECTID":484909},"geometry":{"x":164417.86000000127,"y":2542890.1099999994}},{"attributes":{"ID":484935,"DIS_CODE":0,"TOWNNAME":"永康區","LI":"永康里","LIN":"39鄰","STREET":"永大一路","SECT":" ","MAREA":" ","LANE":" ","ALLEY":" ","HOUSE_NO":"６２號四樓之１","E_COORD97":174180.54000000001,"N_COORD97":2546456.7200000002,"ADDRESS":"永大一路６２號四樓之１","OBJECTID":484910},"geometry":{"x":174180.54000000097,"y":2546456.7200000007}},{"attributes":{"ID":484936,"DIS_CODE":0,"TOWNNAME":"永康區","LI":"永康里","LIN":"39鄰","STREET":"永大一路","SECT":" ","MAREA":" ","LANE":" ","ALLEY":" ","HOUSE_NO":"６２號十一樓之５","E_COORD97":174181.95000000001,"N_COORD97":2546456.7200000002,"ADDRESS":"永大一路６２號十一樓之５","OBJECTID":484911},"geometry":{"x":174181.95000000019,"y":2546456.7200000007}},{"attributes":{"ID":484937,"DIS_CODE":0,"TOWNNAME":"永康區","LI":"永康里","LIN":"39鄰","STREET":"永大一路","SECT":" ","MAREA":" ","LANE":" ","ALLEY":" ","HOUSE_NO":"６２號七樓之４","E_COORD97":174180.57000000001,"N_COORD97":2546456.7200000002,"ADDRESS":"永大一路６２號七樓之４","OBJECTID":484912},"geometry":{"x":174180.57000000123,"y":2546456.7200000007}},{"attributes":{"ID":484938,"DIS_CODE":0,"TOWNNAME":"永康區","LI":"永康里","LIN":"39鄰","STREET":"永大一路","SECT":" ","MAREA":" ","LANE":" ","ALLEY":" ","HOUSE_NO":"６２號十樓之３","E_COORD97":174180.64000000001,"N_COORD97":2546456.7200000002,"ADDRESS":"永大一路６２號十樓之３","OBJECTID":484913},"geometry":{"x":174180.63999999873,"y":2546456.7200000007}},{"attributes":{"ID":484939,"DIS_CODE":0,"TOWNNAME":"永康區","LI":"永康里","LIN":"39鄰","STREET":"永大一路","SECT":" ","MAREA":" ","LANE":" ","ALLEY":" ","HOUSE_NO":"６２號六樓之６","E_COORD97":174180.64000000001,"N_COORD97":2546456.7200000002,"ADDRESS":"永大一路６２號六樓之６","OBJECTID":484914},"geometry":{"x":174180.63999999873,"y":2546456.7200000007}},{"attributes":{"ID":484940,"DIS_CODE":0,"TOWNNAME":"麻豆區","LI":"大埕里","LIN":"8鄰","STREET":" ","SECT":" ","MAREA":"大埕","LANE":" ","ALLEY":" ","HOUSE_NO":"１５號之２５","E_COORD97":173170.88610999999,"N_COORD97":2565360.93799,"ADDRESS":"大埕１５號之２５","OBJECTID":484915},"geometry":{"x":173170.88611000217,"y":2565360.9379900005}},{"attributes":{"ID":484941,"DIS_CODE":0,"TOWNNAME":"永康區","LI":"永康里","LIN":"39鄰","STREET":"永大一路","SECT":" ","MAREA":" ","LANE":" ","ALLEY":" ","HOUSE_NO":"６２號四樓之４","E_COORD97":174180.57000000001,"N_COORD97":2546456.7200000002,"ADDRESS":"永大一路６２號四樓之４","OBJECTID":484916},"geometry":{"x":174180.57000000123,"y":2546456.7200000007}},{"attributes":{"ID":484942,"DIS_CODE":0,"TOWNNAME":"永康區","LI":"永康里","LIN":"39鄰","STREET":"永大一路","SECT":" ","MAREA":" ","LANE":" ","ALLEY":" ","HOUSE_NO":"６２號八樓之１","E_COORD97":174180.54000000001,"N_COORD97":2546456.7200000002,"ADDRESS":"永大一路６２號八樓之１","OBJECTID":484917},"geometry":{"x":174180.54000000097,"y":2546456.7200000007}},{"attributes":{"ID":484943,"DIS_CODE":0,"TOWNNAME":"永康區","LI":"永康里","LIN":"39鄰","STREET":"永大一路","SECT":" ","MAREA":" ","LANE":" ","ALLEY":" ","HOUSE_NO":"６２號八樓之６","E_COORD97":174180.64000000001,"N_COORD97":2546456.7200000002,"ADDRESS":"永大一路６２號八樓之６","OBJECTID":484918},"geometry":{"x":174180.63999999873,"y":2546456.7200000007}},{"attributes":{"ID":484944,"DIS_CODE":0,"TOWNNAME":"仁德區","LI":"後壁里","LIN":"39鄰","STREET":"德安路","SECT":" ","MAREA":" ","LANE":" ","ALLEY":" ","HOUSE_NO":"８８之１號六樓之２","E_COORD97":173468.01000000001,"N_COORD97":2539065.5699999998,"ADDRESS":"德安路８８之１號六樓之２","OBJECTID":484919},"geometry":{"x":173468.00999999885,"y":2539065.5700000022}},{"attributes":{"ID":484945,"DIS_CODE":0,"TOWNNAME":"仁德區","LI":"後壁里","LIN":"39鄰","STREET":"德安路","SECT":" ","MAREA":" ","LANE":" ","ALLEY":" ","HOUSE_NO":"８８之１號三樓之２","E_COORD97":173468.01000000001,"N_COORD97":2539065.5699999998,"ADDRESS":"德安路８８之１號三樓之２","OBJECTID":484920},"geometry":{"x":173468.00999999885,"y":2539065.5700000022}},{"attributes":{"ID":484946,"DIS_CODE":0,"TOWNNAME":"仁德區","LI":"後壁里","LIN":"39鄰","STREET":"德安路","SECT":" ","MAREA":" ","LANE":" ","ALLEY":" ","HOUSE_NO":"８８之１號五樓之３","E_COORD97":173467.97,"N_COORD97":2539065.5699999998,"ADDRESS":"德安路８８之１號五樓之３","OBJECTID":484921},"geometry":{"x":173467.96999999974,"y":2539065.5700000022}},{"attributes":{"ID":484947,"DIS_CODE":0,"TOWNNAME":"永康區","LI":"永康里","LIN":"39鄰","STREET":"永大一路","SECT":" ","MAREA":" ","LANE":" ","ALLEY":" ","HOUSE_NO":"６２號十二樓之２","E_COORD97":174181.92000000001,"N_COORD97":2546456.7200000002,"ADDRESS":"永大一路６２號十二樓之２","OBJECTID":484922},"geometry":{"x":174181.91999999993,"y":2546456.7200000007}},{"attributes":{"ID":484948,"DIS_CODE":0,"TOWNNAME":"永康區","LI":"永康里","LIN":"39鄰","STREET":"永大一路","SECT":" ","MAREA":" ","LANE":" ","ALLEY":" ","HOUSE_NO":"６２號九樓之６","E_COORD97":174180.64000000001,"N_COORD97":2546456.7200000002,"ADDRESS":"永大一路６２號九樓之６","OBJECTID":484923},"geometry":{"x":174180.63999999873,"y":2546456.7200000007}},{"attributes":{"ID":484949,"DIS_CODE":0,"TOWNNAME":"永康區","LI":"永康里","LIN":"39鄰","STREET":"永大一路","SECT":" ","MAREA":" ","LANE":" ","ALLEY":" ","HOUSE_NO":"６２號十一樓之９","E_COORD97":174181.87,"N_COORD97":2546456.7200000002,"ADDRESS":"永大一路６２號十一樓之９","OBJECTID":484924},"geometry":{"x":174181.87000000104,"y":2546456.7200000007}},{"attributes":{"ID":484950,"DIS_CODE":0,"TOWNNAME":"永康區","LI":"永康里","LIN":"39鄰","STREET":"永大一路","SECT":" ","MAREA":" ","LANE":" ","ALLEY":" ","HOUSE_NO":"６２號十二樓之４","E_COORD97":174181.82000000001,"N_COORD97":2546456.7200000002,"ADDRESS":"永大一路６２號十二樓之４","OBJECTID":484925},"geometry":{"x":174181.81999999937,"y":2546456.7200000007}},{"attributes":{"ID":484951,"DIS_CODE":0,"TOWNNAME":"永康區","LI":"永康里","LIN":"39鄰","STREET":"永大一路","SECT":" ","MAREA":" ","LANE":" ","ALLEY":" ","HOUSE_NO":"６２號七樓之７","E_COORD97":174180.62,"N_COORD97":2546456.7200000002,"ADDRESS":"永大一路６２號七樓之７","OBJECTID":484926},"geometry":{"x":174180.62000000011,"y":2546456.7200000007}},{"attributes":{"ID":484952,"DIS_CODE":0,"TOWNNAME":"永康區","LI":"永康里","LIN":"39鄰","STREET":"永大一路","SECT":" ","MAREA":" ","LANE":" ","ALLEY":" ","HOUSE_NO":"６２號八樓之５","E_COORD97":174180.70000000001,"N_COORD97":2546456.7200000002,"ADDRESS":"永大一路６２號八樓之５","OBJECTID":484927},"geometry":{"x":174180.70000000019,"y":2546456.7200000007}},{"attributes":{"ID":484953,"DIS_CODE":0,"TOWNNAME":"永康區","LI":"\u25A0洲里","LIN":"39鄰","STREET":"\u25A0洲一街","SECT":" ","MAREA":" ","LANE":" ","ALLEY":" ","HOUSE_NO":"３９號三樓之２","E_COORD97":171585.54000000001,"N_COORD97":2549070.7999999998,"ADDRESS":"\u25A0洲一街３９號三樓之２","OBJECTID":484928},"geometry":{"x":171585.54000000097,"y":2549070.8000000007}},{"attributes":{"ID":484954,"DIS_CODE":0,"TOWNNAME":"永康區","LI":"復華里","LIN":"39鄰","STREET":"復國一路","SECT":" ","MAREA":" ","LANE":" ","ALLEY":" ","HOUSE_NO":"３９１號","E_COORD97":172750.72,"N_COORD97":2545939.0099999998,"ADDRESS":"復國一路３９１號","OBJECTID":484929},"geometry":{"x":172750.71999999974,"y":2545939.0099999998}},{"attributes":{"ID":484955,"DIS_CODE":0,"TOWNNAME":"永康區","LI":"復華里","LIN":"39鄰","STREET":"復國一路","SECT":" ","MAREA":" ","LANE":" ","ALLEY":" ","HOUSE_NO":"３８９號","E_COORD97":172752.07000000001,"N_COORD97":2545935.02,"ADDRESS":"復國一路３８９號","OBJECTID":484930},"geometry":{"x":172752.0700000003,"y":2545935.0199999996}},{"attributes":{"ID":484956,"DIS_CODE":0,"TOWNNAME":"永康區","LI":"復華里","LIN":"39鄰","STREET":"復國一路","SECT":" ","MAREA":" ","LANE":" ","ALLEY":" ","HOUSE_NO":"４１７號","E_COORD97":172716.07999999999,"N_COORD97":2546002.5299999998,"ADDRESS":"復國一路４１７號","OBJECTID":484931},"geometry":{"x":172716.08000000101,"y":2546002.5299999993}},{"attributes":{"ID":484957,"DIS_CODE":0,"TOWNNAME":"仁德區","LI":"仁德里","LIN":"39鄰","STREET":"文華路","SECT":"三段","MAREA":" ","LANE":" ","ALLEY":" ","HOUSE_NO":"５６８號","E_COORD97":172541.12,"N_COORD97":2541761.0800000001,"ADDRESS":"文華路三段５６８號","OBJECTID":484932},"geometry":{"x":172541.12000000104,"y":2541761.0800000001}},{"attributes":{"ID":484958,"DIS_CODE":0,"TOWNNAME":"仁德區","LI":"仁德里","LIN":"39鄰","STREET":"文山路","SECT":" ","MAREA":" ","LANE":" ","ALLEY":" ","HOUSE_NO":"１７８號","E_COORD97":172702.32999999999,"N_COORD97":2541820.5699999998,"ADDRESS":"文山路１７８號","OBJECTID":484933},"geometry":{"x":172702.33000000101,"y":2541820.570000004}},{"attributes":{"ID":484959,"DIS_CODE":0,"TOWNNAME":"仁德區","LI":"仁德里","LIN":"39鄰","STREET":"文山路","SECT":" ","MAREA":" ","LANE":" ","ALLEY":" ","HOUSE_NO":"１７６號","E_COORD97":172706.51999999999,"N_COORD97":2541819.0699999998,"ADDRESS":"文山路１７６號","OBJECTID":484934},"geometry":{"x":172706.51999999862,"y":2541819.0700000003}},{"attributes":{"ID":484960,"DIS_CODE":0,"TOWNNAME":"仁德區","LI":"仁德里","LIN":"39鄰","STREET":"文山路","SECT":" ","MAREA":" ","LANE":" ","ALLEY":" ","HOUSE_NO":"１５２號","E_COORD97":172715.60999999999,"N_COORD97":2541828.5699999998,"ADDRESS":"文山路１５２號","OBJECTID":484935},"geometry":{"x":172715.61000000127,"y":2541828.5700000022}},{"attributes":{"ID":484961,"DIS_CODE":0,"TOWNNAME":"仁德區","LI":"仁德里","LIN":"39鄰","STREET":"文宏路","SECT":" ","MAREA":" ","LANE":" ","ALLEY":" ","HOUSE_NO":"１２７號","E_COORD97":172396.45999999999,"N_COORD97":2541794.0800000001,"ADDRESS":"文宏路１２７號","OBJECTID":484936},"geometry":{"x":172396.45999999996,"y":2541794.0800000019}},{"attributes":{"ID":484962,"DIS_CODE":0,"TOWNNAME":"新市區","LI":"新和里","LIN":"39鄰","STREET":"中正路","SECT":" ","MAREA":" ","LANE":" ","ALLEY":" ","HOUSE_NO":"２５８號","E_COORD97":177453.01000000001,"N_COORD97":2552991.75,"ADDRESS":"中正路２５８號","OBJECTID":484937},"geometry":{"x":177453.00999999978,"y":2552991.7500000019}},{"attributes":{"ID":484963,"DIS_CODE":0,"TOWNNAME":"永康區","LI":"北灣里","LIN":"39鄰","STREET":"大同街","SECT":" ","MAREA":" ","LANE":" ","ALLEY":" ","HOUSE_NO":"４３３號","E_COORD97":174607.39000000001,"N_COORD97":2546349.5499999998,"ADDRESS":"大同街４３３號","OBJECTID":484938},"geometry":{"x":174607.38999999966,"y":2546349.5500000007}},{"attributes":{"ID":484964,"DIS_CODE":0,"TOWNNAME":"永康區","LI":"復華里","LIN":"39鄰","STREET":"復華六街","SECT":" ","MAREA":" ","LANE":" ","ALLEY":" ","HOUSE_NO":"６８號","E_COORD97":172714.17000000001,"N_COORD97":2545856.8799999999,"ADDRESS":"復華六街６８號","OBJECTID":484939},"geometry":{"x":172714.16999999993,"y":2545856.879999999}},{"attributes":{"ID":484965,"DIS_CODE":0,"TOWNNAME":"永康區","LI":"勝利里","LIN":"39鄰","STREET":"勝華街","SECT":" ","MAREA":" ","LANE":" ","ALLEY":" ","HOUSE_NO":"４５號","E_COORD97":171411.57999999999,"N_COORD97":2545203.0099999998,"ADDRESS":"勝華街４５號","OBJECTID":484940},"geometry":{"x":171411.57999999914,"y":2545203.0099999998}},{"attributes":{"ID":484966,"DIS_CODE":0,"TOWNNAME":"永康區","LI":"崑山里","LIN":"39鄰","STREET":"崑山街","SECT":" ","MAREA":" ","LANE":" ","ALLEY":" ","HOUSE_NO":"１６０號","E_COORD97":174053.47,"N_COORD97":2544911.23,"ADDRESS":"崑山街１６０號","OBJECTID":484941},"geometry":{"x":174053.47000000067,"y":2544911.2299999986}},{"attributes":{"ID":484967,"DIS_CODE":0,"TOWNNAME":"仁德區","LI":"仁德里","LIN":"39鄰","STREET":"文宏路","SECT":" ","MAREA":" ","LANE":" ","ALLEY":" ","HOUSE_NO":"１４６號","E_COORD97":172428.04000000001,"N_COORD97":2541816.0699999998,"ADDRESS":"文宏路１４６號","OBJECTID":484942},"geometry":{"x":172428.04000000097,"y":2541816.0700000003}},{"attributes":{"ID":484968,"DIS_CODE":0,"TOWNNAME":"仁德區","LI":"仁德里","LIN":"39鄰","STREET":"文宏路","SECT":" ","MAREA":" ","LANE":" ","ALLEY":" ","HOUSE_NO":"１５０號","E_COORD97":172428.73000000001,"N_COORD97":2541824.0699999998,"ADDRESS":"文宏路１５０號","OBJECTID":484943},"geometry":{"x":172428.73000000138,"y":2541824.0700000022}},{"attributes":{"ID":484969,"DIS_CODE":0,"TOWNNAME":"仁德區","LI":"仁德里","LIN":"39鄰","STREET":"文山路","SECT":" ","MAREA":" ","LANE":" ","ALLEY":" ","HOUSE_NO":"１８６號","E_COORD97":172716.97,"N_COORD97":2541788.8300000001,"ADDRESS":"文山路１８６號","OBJECTID":484944},"geometry":{"x":172716.96999999974,"y":2541788.8300000019}},{"attributes":{"ID":484970,"DIS_CODE":0,"TOWNNAME":"仁德區","LI":"仁德里","LIN":"39鄰","STREET":"文華路","SECT":"三段","MAREA":" ","LANE":" ","ALLEY":" ","HOUSE_NO":"５７２號","E_COORD97":172565.57000000001,"N_COORD97":2541778.5800000001,"ADDRESS":"文華路三段５７２號","OBJECTID":484945},"geometry":{"x":172565.5700000003,"y":2541778.5800000001}},{"attributes":{"ID":484971,"DIS_CODE":0,"TOWNNAME":"仁德區","LI":"後壁里","LIN":"39鄰","STREET":"德安路","SECT":" ","MAREA":" ","LANE":" ","ALLEY":" ","HOUSE_NO":"４１號","E_COORD97":173477.20000000001,"N_COORD97":2539108.8100000001,"ADDRESS":"德安路４１號","OBJECTID":484946},"geometry":{"x":173477.20000000019,"y":2539108.8100000005}},{"attributes":{"ID":484972,"DIS_CODE":0,"TOWNNAME":"仁德區","LI":"後壁里","LIN":"39鄰","STREET":"德善一街","SECT":" ","MAREA":" ","LANE":" ","ALLEY":" ","HOUSE_NO":"３１號","E_COORD97":173437.23999999999,"N_COORD97":2538993.77,"ADDRESS":"德善一街３１號","OBJECTID":484947},"geometry":{"x":173437.24000000115,"y":2538993.7699999977}},{"attributes":{"ID":484973,"DIS_CODE":0,"TOWNNAME":"永康區","LI":"北灣里","LIN":"39鄰","STREET":"大同街","SECT":" ","MAREA":" ","LANE":" ","ALLEY":" ","HOUSE_NO":"４２７號","E_COORD97":174611,"N_COORD97":2546335.5499999998,"ADDRESS":"大同街４２７號","OBJECTID":484948},"geometry":{"x":174611.00000000186,"y":2546335.5500000007}},{"attributes":{"ID":484974,"DIS_CODE":0,"TOWNNAME":"永康區","LI":"北灣里","LIN":"39鄰","STREET":"大同街","SECT":" ","MAREA":" ","LANE":" ","ALLEY":" ","HOUSE_NO":"４５１號","E_COORD97":174603.03,"N_COORD97":2546357.3100000001,"ADDRESS":"大同街４５１號","OBJECTID":484949},"geometry":{"x":174603.03000000119,"y":2546357.3100000005}},{"attributes":{"ID":484975,"DIS_CODE":0,"TOWNNAME":"永康區","LI":"北灣里","LIN":"39鄰","STREET":"大同街","SECT":" ","MAREA":" ","LANE":" ","ALLEY":" ","HOUSE_NO":"４５３號","E_COORD97":174601.98000000001,"N_COORD97":2546361.7599999998,"ADDRESS":"大同街４５３號","OBJECTID":484950},"geometry":{"x":174601.98000000138,"y":2546361.7600000035}},{"attributes":{"ID":484976,"DIS_CODE":0,"TOWNNAME":"永康區","LI":"北灣里","LIN":"39鄰","STREET":"大同街","SECT":" ","MAREA":" ","LANE":" ","ALLEY":" ","HOUSE_NO":"４５５號","E_COORD97":174600.94,"N_COORD97":2546366.5899999999,"ADDRESS":"大同街４５５號","OBJECTID":484951},"geometry":{"x":174600.94000000041,"y":2546366.5900000017}},{"attributes":{"ID":484977,"DIS_CODE":0,"TOWNNAME":"永康區","LI":"北灣里","LIN":"39鄰","STREET":"大同街","SECT":" ","MAREA":" ","LANE":" ","ALLEY":" ","HOUSE_NO":"４５７號","E_COORD97":174600.67999999999,"N_COORD97":2546371.2999999998,"ADDRESS":"大同街４５７號","OBJECTID":484952},"geometry":{"x":174600.6799999997,"y":2546371.3000000007}},{"attributes":{"ID":484978,"DIS_CODE":0,"TOWNNAME":"永康區","LI":"北灣里","LIN":"39鄰","STREET":"大同街","SECT":" ","MAREA":" ","LANE":" ","ALLEY":" ","HOUSE_NO":"４５９號","E_COORD97":174599.10999999999,"N_COORD97":2546375.48,"ADDRESS":"大同街４５９號","OBJECTID":484953},"geometry":{"x":174599.11000000127,"y":2546375.4800000023}},{"attributes":{"ID":484979,"DIS_CODE":0,"TOWNNAME":"永康區","LI":"北灣里","LIN":"39鄰","STREET":"大同街","SECT":" ","MAREA":" ","LANE":" ","ALLEY":" ","HOUSE_NO":"４６１號","E_COORD97":174598.01000000001,"N_COORD97":2546380.4300000002,"ADDRESS":"大同街４６１號","OBJECTID":484954},"geometry":{"x":174598.00999999978,"y":2546380.4299999997}},{"attributes":{"ID":484980,"DIS_CODE":0,"TOWNNAME":"永康區","LI":"北灣里","LIN":"39鄰","STREET":"大同街","SECT":" ","MAREA":" ","LANE":" ","ALLEY":" ","HOUSE_NO":"６６７號","E_COORD97":174548.56,"N_COORD97":2546550.3799999999,"ADDRESS":"大同街６６７號","OBJECTID":484955},"geometry":{"x":174548.55999999959,"y":2546550.3800000008}},{"attributes":{"ID":484981,"DIS_CODE":0,"TOWNNAME":"永康區","LI":"北灣里","LIN":"39鄰","STREET":"大同街","SECT":" ","MAREA":" ","LANE":" ","ALLEY":" ","HOUSE_NO":"６６９號","E_COORD97":174548.01999999999,"N_COORD97":2546553.75,"ADDRESS":"大同街６６９號","OBJECTID":484956},"geometry":{"x":174548.02000000048,"y":2546553.75}},{"attributes":{"ID":484982,"DIS_CODE":0,"TOWNNAME":"永康區","LI":"北灣里","LIN":"39鄰","STREET":"永大路","SECT":"二段","MAREA":" ","LANE":" ","ALLEY":" ","HOUSE_NO":"１０１２號","E_COORD97":174452.57999999999,"N_COORD97":2546416.2200000002,"ADDRESS":"永大路二段１０１２號","OBJECTID":484957},"geometry":{"x":174452.58000000007,"y":2546416.2200000007}},{"attributes":{"ID":484983,"DIS_CODE":0,"TOWNNAME":"永康區","LI":"北灣里","LIN":"39鄰","STREET":"永大路","SECT":"二段","MAREA":" ","LANE":" ","ALLEY":" ","HOUSE_NO":"１０６２號","E_COORD97":174441.85999999999,"N_COORD97":2546471.52,"ADDRESS":"永大路二段１０６２號","OBJECTID":484958},"geometry":{"x":174441.86000000127,"y":2546471.5200000033}},{"attributes":{"ID":484984,"DIS_CODE":0,"TOWNNAME":"永康區","LI":"北灣里","LIN":"39鄰","STREET":"永大路","SECT":"二段","MAREA":" ","LANE":" ","ALLEY":" ","HOUSE_NO":"１０７８號","E_COORD97":174428.56,"N_COORD97":2546503.5600000001,"ADDRESS":"永大路二段１０７８號","OBJECTID":484959},"geometry":{"x":174428.55999999959,"y":2546503.5600000024}},{"attributes":{"ID":484985,"DIS_CODE":0,"TOWNNAME":"永康區","LI":"北灣里","LIN":"39鄰","STREET":"永大路","SECT":"二段","MAREA":" ","LANE":" ","ALLEY":" ","HOUSE_NO":"９３６號","E_COORD97":174490.38,"N_COORD97":2546272.7000000002,"ADDRESS":"永大路二段９３６號","OBJECTID":484960},"geometry":{"x":174490.38000000082,"y":2546272.6999999993}},{"attributes":{"ID":484986,"DIS_CODE":0,"TOWNNAME":"永康區","LI":"埔園里","LIN":"39鄰","STREET":"永大路","SECT":"三段","MAREA":" ","LANE":" ","ALLEY":" ","HOUSE_NO":"２６７號","E_COORD97":174099.45999999999,"N_COORD97":2548210.27,"ADDRESS":"永大路三段２６７號","OBJECTID":484961},"geometry":{"x":174099.46000000089,"y":2548210.2700000014}},{"attributes":{"ID":484987,"DIS_CODE":0,"TOWNNAME":"東區","LI":"大智里","LIN":"39鄰","STREET":"德東街","SECT":" ","MAREA":" ","LANE":" ","ALLEY":" ","HOUSE_NO":"３４３號","E_COORD97":171640.42000000001,"N_COORD97":2540268.8700000001,"ADDRESS":"德東街３４３號","OBJECTID":484962},"geometry":{"x":171640.42000000086,"y":2540268.870000001}},{"attributes":{"ID":484988,"DIS_CODE":0,"TOWNNAME":"永康區","LI":"崑山里","LIN":"39鄰","STREET":"崑山街","SECT":" ","MAREA":" ","LANE":" ","ALLEY":" ","HOUSE_NO":"１５８號","E_COORD97":174051.82000000001,"N_COORD97":2544906.73,"ADDRESS":"崑山街１５８號","OBJECTID":484963},"geometry":{"x":174051.82000000123,"y":2544906.7300000004}},{"attributes":{"ID":484989,"DIS_CODE":0,"TOWNNAME":"永康區","LI":"龍潭里","LIN":"39鄰","STREET":"永明街","SECT":" ","MAREA":" ","LANE":" ","ALLEY":" ","HOUSE_NO":"２６３之３號","E_COORD97":174632.28,"N_COORD97":2547243.6200000001,"ADDRESS":"永明街２６３之３號","OBJECTID":484964},"geometry":{"x":174632.28000000026,"y":2547243.6200000029}},{"attributes":{"ID":484990,"DIS_CODE":0,"TOWNNAME":"永康區","LI":"龍潭里","LIN":"39鄰","STREET":"永明街","SECT":" ","MAREA":" ","LANE":" ","ALLEY":" ","HOUSE_NO":"２６５之８號","E_COORD97":174628.12,"N_COORD97":2547263.5499999998,"ADDRESS":"永明街２６５之８號","OBJECTID":484965},"geometry":{"x":174628.12000000011,"y":2547263.5500000026}},{"attributes":{"ID":484991,"DIS_CODE":0,"TOWNNAME":"永康區","LI":"埔園里","LIN":"39鄰","STREET":"永大路","SECT":"三段","MAREA":" ","LANE":" ","ALLEY":" ","HOUSE_NO":"２３３號","E_COORD97":174115,"N_COORD97":2548115.9500000002,"ADDRESS":"永大路三段２３３號","OBJECTID":484966},"geometry":{"x":174115.00000000093,"y":2548115.950000003}},{"attributes":{"ID":484992,"DIS_CODE":0,"TOWNNAME":"永康區","LI":"埔園里","LIN":"39鄰","STREET":"聖龍街","SECT":" ","MAREA":" ","LANE":" ","ALLEY":" ","HOUSE_NO":"１０５號","E_COORD97":174090.17999999999,"N_COORD97":2547860.8199999998,"ADDRESS":"聖龍街１０５號","OBJECTID":484967},"geometry":{"x":174090.1799999997,"y":2547860.8200000022}},{"attributes":{"ID":484993,"DIS_CODE":0,"TOWNNAME":"永康區","LI":"埔園里","LIN":"39鄰","STREET":"聖龍街","SECT":" ","MAREA":" ","LANE":" ","ALLEY":" ","HOUSE_NO":"１０７號","E_COORD97":174094.57000000001,"N_COORD97":2547861.5699999998,"ADDRESS":"聖龍街１０７號","OBJECTID":484968},"geometry":{"x":174094.57000000123,"y":2547861.5700000003}},{"attributes":{"ID":484994,"DIS_CODE":0,"TOWNNAME":"永康區","LI":"埔園里","LIN":"39鄰","STREET":"聖龍街","SECT":" ","MAREA":" ","LANE":" ","ALLEY":" ","HOUSE_NO":"１７５號","E_COORD97":174297.73999999999,"N_COORD97":2547857.8500000001,"ADDRESS":"聖龍街１７５號","OBJECTID":484969},"geometry":{"x":174297.74000000209,"y":2547857.8499999996}},{"attributes":{"ID":484995,"DIS_CODE":0,"TOWNNAME":"永康區","LI":"崑山里","LIN":"39鄰","STREET":"永大路","SECT":"二段","MAREA":" ","LANE":" ","ALLEY":" ","HOUSE_NO":"７１號","E_COORD97":174180.54000000001,"N_COORD97":2544872.5,"ADDRESS":"永大路二段７１號","OBJECTID":484970},"geometry":{"x":174180.54000000097,"y":2544872.5000000019}},{"attributes":{"ID":484996,"DIS_CODE":0,"TOWNNAME":"永康區","LI":"埔園里","LIN":"39鄰","STREET":"聖龍街","SECT":" ","MAREA":" ","LANE":" ","ALLEY":" ","HOUSE_NO":"１８７號","E_COORD97":174328.87,"N_COORD97":2547851.9300000002,"ADDRESS":"聖龍街１８７號","OBJECTID":484971},"geometry":{"x":174328.87000000197,"y":2547851.9299999978}},{"attributes":{"ID":484997,"DIS_CODE":0,"TOWNNAME":"永康區","LI":"埔園里","LIN":"39鄰","STREET":"永大路","SECT":"三段","MAREA":" ","LANE":" ","ALLEY":" ","HOUSE_NO":"２４１號","E_COORD97":174114.85999999999,"N_COORD97":2548136.6899999999,"ADDRESS":"永大路三段２４１號","OBJECTID":484972},"geometry":{"x":174114.86000000034,"y":2548136.6899999995}},{"attributes":{"ID":484998,"DIS_CODE":0,"TOWNNAME":"永康區","LI":"埔園里","LIN":"39鄰","STREET":"埔園街","SECT":" ","MAREA":" ","LANE":" ","ALLEY":" ","HOUSE_NO":"６號","E_COORD97":174068.51000000001,"N_COORD97":2547873.54,"ADDRESS":"埔園街６號","OBJECTID":484973},"geometry":{"x":174068.51000000071,"y":2547873.5399999991}},{"attributes":{"ID":484999,"DIS_CODE":0,"TOWNNAME":"永康區","LI":"埔園里","LIN":"39鄰","STREET":"聖龍街","SECT":" ","MAREA":" ","LANE":" ","ALLEY":" ","HOUSE_NO":"１８５號","E_COORD97":174324.48000000001,"N_COORD97":2547852.6800000002,"ADDRESS":"聖龍街１８５號","OBJECTID":484974},"geometry":{"x":174324.48000000045,"y":2547852.6799999997}},{"attributes":{"ID":485000,"DIS_CODE":0,"TOWNNAME":"永康區","LI":"埔園里","LIN":"39鄰","STREET":"永大路","SECT":"三段","MAREA":" ","LANE":" ","ALLEY":" ","HOUSE_NO":"２５３號","E_COORD97":174110.04000000001,"N_COORD97":2548170.4500000002,"ADDRESS":"永大路三段２５３號","OBJECTID":484975},"geometry":{"x":174110.04000000004,"y":2548170.450000003}},{"attributes":{"ID":485001,"DIS_CODE":0,"TOWNNAME":"永康區","LI":"埔園里","LIN":"39鄰","STREET":"永大路","SECT":"三段","MAREA":" ","LANE":" ","ALLEY":" ","HOUSE_NO":"２２３號","E_COORD97":174122.69,"N_COORD97":2548054.23,"ADDRESS":"永大路三段２２３號","OBJECTID":484976},"geometry":{"x":174122.69000000134,"y":2548054.2300000042}},{"attributes":{"ID":485002,"DIS_CODE":0,"TOWNNAME":"永康區","LI":"崑山里","LIN":"39鄰","STREET":"永大路","SECT":"二段","MAREA":" ","LANE":" ","ALLEY":" ","HOUSE_NO":"７７號","E_COORD97":174186.10000000001,"N_COORD97":2544887.9300000002,"ADDRESS":"永大路二段７７號","OBJECTID":484977},"geometry":{"x":174186.10000000149,"y":2544887.9299999997}},{"attributes":{"ID":485003,"DIS_CODE":0,"TOWNNAME":"永康區","LI":"埔園里","LIN":"39鄰","STREET":"聖龍街","SECT":" ","MAREA":" ","LANE":" ","ALLEY":" ","HOUSE_NO":"１７３號","E_COORD97":174293.10000000001,"N_COORD97":2547858.3500000001,"ADDRESS":"聖龍街１７３號","OBJECTID":484978},"geometry":{"x":174293.10000000056,"y":2547858.3499999996}},{"attributes":{"ID":485004,"DIS_CODE":0,"TOWNNAME":"永康區","LI":"崑山里","LIN":"39鄰","STREET":"永大路","SECT":"二段","MAREA":" ","LANE":" ","ALLEY":" ","HOUSE_NO":"６９號","E_COORD97":174178.87,"N_COORD97":2544867.75,"ADDRESS":"永大路二段６９號","OBJECTID":484979},"geometry":{"x":174178.87000000011,"y":2544867.7500000019}},{"attributes":{"ID":485005,"DIS_CODE":0,"TOWNNAME":"永康區","LI":"埔園里","LIN":"39鄰","STREET":"埔園街","SECT":" ","MAREA":" ","LANE":" ","ALLEY":" ","HOUSE_NO":"２號","E_COORD97":174069.98999999999,"N_COORD97":2547864.3700000001,"ADDRESS":"埔園街２號","OBJECTID":484980},"geometry":{"x":174069.99000000022,"y":2547864.3700000048}},{"attributes":{"ID":485006,"DIS_CODE":0,"TOWNNAME":"永康區","LI":"埔園里","LIN":"39鄰","STREET":"聖龍街","SECT":" ","MAREA":" ","LANE":" ","ALLEY":" ","HOUSE_NO":"１８１號","E_COORD97":174314.48000000001,"N_COORD97":2547855.02,"ADDRESS":"聖龍街１８１號","OBJECTID":484981},"geometry":{"x":174314.48000000045,"y":2547855.0200000033}},{"attributes":{"ID":485007,"DIS_CODE":0,"TOWNNAME":"永康區","LI":"埔園里","LIN":"39鄰","STREET":"永大路","SECT":"三段","MAREA":" ","LANE":" ","ALLEY":" ","HOUSE_NO":"２４５號","E_COORD97":174112.5,"N_COORD97":2548146.6899999999,"ADDRESS":"永大路三段２４５號","OBJECTID":484982},"geometry":{"x":174112.50000000186,"y":2548146.6900000013}},{"attributes":{"ID":485008,"DIS_CODE":0,"TOWNNAME":"永康區","LI":"埔園里","LIN":"39鄰","STREET":"埔園街","SECT":" ","MAREA":" ","LANE":" ","ALLEY":" ","HOUSE_NO":"１００號","E_COORD97":173994.35000000001,"N_COORD97":2548079.8799999999,"ADDRESS":"埔園街１００號","OBJECTID":484983},"geometry":{"x":173994.34999999963,"y":2548079.8800000008}},{"attributes":{"ID":485009,"DIS_CODE":0,"TOWNNAME":"永康區","LI":"埔園里","LIN":"39鄰","STREET":"埔園街","SECT":" ","MAREA":" ","LANE":" ","ALLEY":" ","HOUSE_NO":"１０２號","E_COORD97":173992.01999999999,"N_COORD97":2548083.8999999999,"ADDRESS":"埔園街１０２號","OBJECTID":484984},"geometry":{"x":173992.02000000048,"y":2548083.9000000022}},{"attributes":{"ID":485010,"DIS_CODE":0,"TOWNNAME":"永康區","LI":"埔園里","LIN":"39鄰","STREET":"埔園街","SECT":" ","MAREA":" ","LANE":" ","ALLEY":" ","HOUSE_NO":"１０８號","E_COORD97":173989.25,"N_COORD97":2548087.4700000002,"ADDRESS":"埔園街１０８號","OBJECTID":484985},"geometry":{"x":173989.25000000093,"y":2548087.4700000025}},{"attributes":{"ID":485011,"DIS_CODE":0,"TOWNNAME":"永康區","LI":"埔園里","LIN":"39鄰","STREET":"埔園街","SECT":" ","MAREA":" ","LANE":" ","ALLEY":" ","HOUSE_NO":"１０８號","E_COORD97":173986.75,"N_COORD97":2548091.3999999999,"ADDRESS":"埔園街１０８號","OBJECTID":484986},"geometry":{"x":173986.75,"y":2548091.4000000022}},{"attributes":{"ID":485012,"DIS_CODE":0,"TOWNNAME":"永康區","LI":"埔園里","LIN":"39鄰","STREET":"埔園街","SECT":" ","MAREA":" ","LANE":" ","ALLEY":" ","HOUSE_NO":"１１０號","E_COORD97":173981.12,"N_COORD97":2548094.1699999999,"ADDRESS":"埔園街１１０號","OBJECTID":484987},"geometry":{"x":173981.12000000011,"y":2548094.1699999999}},{"attributes":{"ID":485013,"DIS_CODE":0,"TOWNNAME":"永康區","LI":"埔園里","LIN":"39鄰","STREET":"埔園街","SECT":" ","MAREA":" ","LANE":" ","ALLEY":" ","HOUSE_NO":"４７號","E_COORD97":174003.32000000001,"N_COORD97":2548008.6600000001,"ADDRESS":"埔園街４７號","OBJECTID":484988},"geometry":{"x":174003.3200000003,"y":2548008.660000002}},{"attributes":{"ID":485014,"DIS_CODE":0,"TOWNNAME":"永康區","LI":"埔園里","LIN":"39鄰","STREET":"埔園街","SECT":" ","MAREA":" ","LANE":" ","ALLEY":" ","HOUSE_NO":"４９號","E_COORD97":174000.51000000001,"N_COORD97":2548012.6699999999,"ADDRESS":"埔園街４９號","OBJECTID":484989},"geometry":{"x":174000.51000000164,"y":2548012.6699999999}},{"attributes":{"ID":485015,"DIS_CODE":0,"TOWNNAME":"永康區","LI":"埔園里","LIN":"39鄰","STREET":"埔園街","SECT":" ","MAREA":" ","LANE":" ","ALLEY":" ","HOUSE_NO":"５１號","E_COORD97":173997.98000000001,"N_COORD97":2548016.6800000002,"ADDRESS":"埔園街５１號","OBJECTID":484990},"geometry":{"x":173997.98000000231,"y":2548016.6800000034}},{"attributes":{"ID":485016,"DIS_CODE":0,"TOWNNAME":"永康區","LI":"埔園里","LIN":"39鄰","STREET":"埔園街","SECT":" ","MAREA":" ","LANE":" ","ALLEY":" ","HOUSE_NO":"８２號","E_COORD97":174010.29000000001,"N_COORD97":2548049.1400000001,"ADDRESS":"埔園街８２號","OBJECTID":484991},"geometry":{"x":174010.29000000004,"y":2548049.1400000025}},{"attributes":{"ID":485017,"DIS_CODE":0,"TOWNNAME":"永康區","LI":"埔園里","LIN":"39鄰","STREET":"埔園街","SECT":" ","MAREA":" ","LANE":" ","ALLEY":" ","HOUSE_NO":"８６號","E_COORD97":174008.20000000001,"N_COORD97":2548052.9399999999,"ADDRESS":"埔園街８６號","OBJECTID":484992},"geometry":{"x":174008.20000000112,"y":2548052.9400000013}},{"attributes":{"ID":485018,"DIS_CODE":0,"TOWNNAME":"永康區","LI":"埔園里","LIN":"39鄰","STREET":"埔園街","SECT":" ","MAREA":" ","LANE":" ","ALLEY":" ","HOUSE_NO":"８８號","E_COORD97":174006.03,"N_COORD97":2548057.21,"ADDRESS":"埔園街８８號","OBJECTID":484993},"geometry":{"x":174006.03000000119,"y":2548057.2100000009}},{"attributes":{"ID":485019,"DIS_CODE":0,"TOWNNAME":"永康區","LI":"埔園里","LIN":"39鄰","STREET":"埔園街","SECT":" ","MAREA":" ","LANE":" ","ALLEY":" ","HOUSE_NO":"９０號","E_COORD97":174003.94,"N_COORD97":2548060.8300000001,"ADDRESS":"埔園街９０號","OBJECTID":484994},"geometry":{"x":174003.94000000134,"y":2548060.8300000019}},{"attributes":{"ID":485020,"DIS_CODE":0,"TOWNNAME":"永康區","LI":"埔園里","LIN":"39鄰","STREET":"埔園街","SECT":" ","MAREA":" ","LANE":" ","ALLEY":" ","HOUSE_NO":"９６號","E_COORD97":173999.26000000001,"N_COORD97":2548073,"ADDRESS":"埔園街９６號","OBJECTID":484995},"geometry":{"x":173999.26000000071,"y":2548073.0000000019}},{"attributes":{"ID":485021,"DIS_CODE":0,"TOWNNAME":"永康區","LI":"埔園里","LIN":"39鄰","STREET":"埔園街","SECT":" ","MAREA":" ","LANE":" ","ALLEY":" ","HOUSE_NO":"９８號","E_COORD97":173995.78,"N_COORD97":2548076.1299999999,"ADDRESS":"埔園街９８號","OBJECTID":484996},"geometry":{"x":173995.78000000212,"y":2548076.129999999}},{"attributes":{"ID":485022,"DIS_CODE":0,"TOWNNAME":"歸仁區","LI":"許厝里","LIN":"39鄰","STREET":"公園路","SECT":" ","MAREA":" ","LANE":" ","ALLEY":" ","HOUSE_NO":"１００號","E_COORD97":177961.89000000001,"N_COORD97":2540510.2799999998,"ADDRESS":"公園路１００號","OBJECTID":484997},"geometry":{"x":177961.88999999966,"y":2540510.2800000012}},{"attributes":{"ID":485023,"DIS_CODE":0,"TOWNNAME":"歸仁區","LI":"後市里","LIN":"39鄰","STREET":"國光街","SECT":" ","MAREA":" ","LANE":" ","ALLEY":" ","HOUSE_NO":"１１１號","E_COORD97":177333.44,"N_COORD97":2541089.7400000002,"ADDRESS":"國光街１１１號","OBJECTID":484998},"geometry":{"x":177333.44000000041,"y":2541089.7400000002}},{"attributes":{"ID":485024,"DIS_CODE":0,"TOWNNAME":"新營區","LI":"民榮里","LIN":"39鄰","STREET":"公園路","SECT":"二段","MAREA":" ","LANE":" ","ALLEY":" ","HOUSE_NO":"１５６號","E_COORD97":178343.57999999999,"N_COORD97":2577838.6499999999,"ADDRESS":"公園路二段１５６號","OBJECTID":484999},"geometry":{"x":178343.58000000101,"y":2577838.6500000004}},{"attributes":{"ID":485025,"DIS_CODE":0,"TOWNNAME":"歸仁區","LI":"後市里","LIN":"39鄰","STREET":"文化街","SECT":"二段","MAREA":" ","LANE":" ","ALLEY":" ","HOUSE_NO":"５７號","E_COORD97":177333.89000000001,"N_COORD97":2541130.7599999998,"ADDRESS":"文化街二段５７號","OBJECTID":485000},"geometry":{"x":177333.89000000153,"y":2541130.7600000016}}]}