{"displayFieldName":"TOWNNAME","fieldAliases":{"ID":"ID","DIS_CODE":"DIS_CODE","TOWNNAME":"TOWNNAME","LI":"LI","LIN":"LIN","STREET":"STREET","SECT":"SECT","MAREA":"MAREA","LANE":"LANE","ALLEY":"ALLEY","HOUSE_NO":"HOUSE_NO","E_COORD97":"E_COORD97","N_COORD97":"N_COORD97","ADDRESS":"ADDRESS","OBJECTID":"OBJECTID"},"geometryType":"esriGeometryPoint","spatialReference":{"wkid":102443,"latestWkid":3826},"fields":[{"name":"ID","type":"esriFieldTypeDouble","alias":"ID"},{"name":"DIS_CODE","type":"esriFieldTypeInteger","alias":"DIS_CODE"},{"name":"TOWNNAME","type":"esriFieldTypeString","alias":"TOWNNAME","length":8},{"name":"LI","type":"esriFieldTypeString","alias":"LI","length":8},{"name":"LIN","type":"esriFieldTypeString","alias":"LIN","length":12},{"name":"STREET","type":"esriFieldTypeString","alias":"STREET","length":20},{"name":"SECT","type":"esriFieldTypeString","alias":"SECT","length":8},{"name":"MAREA","type":"esriFieldTypeString","alias":"MAREA","length":12},{"name":"LANE","type":"esriFieldTypeString","alias":"LANE","length":10},{"name":"ALLEY","type":"esriFieldTypeString","alias":"ALLEY","length":10},{"name":"HOUSE_NO","type":"esriFieldTypeString","alias":"HOUSE_NO","length":20},{"name":"E_COORD97","type":"esriFieldTypeDouble","alias":"E_COORD97"},{"name":"N_COORD97","type":"esriFieldTypeDouble","alias":"N_COORD97"},{"name":"ADDRESS","type":"esriFieldTypeString","alias":"ADDRESS","length":50},{"name":"OBJECTID","type":"esriFieldTypeOID","alias":"OBJECTID"}],"features":[{"attributes":{"ID":659628,"DIS_CODE":0,"TOWNNAME":"新營區","LI":"土庫里","LIN":"18鄰","STREET":"開元路","SECT":" ","MAREA":" ","LANE":" ","ALLEY":" ","HOUSE_NO":"１４２號","E_COORD97":181823.278945,"N_COORD97":2579617.2234399999,"ADDRESS":"開元路１４２號","OBJECTID":659601},"geometry":{"x":181823.27894499991,"y":2579617.223438004}},{"attributes":{"ID":659629,"DIS_CODE":0,"TOWNNAME":"新營區","LI":"土庫里","LIN":"18鄰","STREET":"開元路","SECT":" ","MAREA":" ","LANE":" ","ALLEY":" ","HOUSE_NO":"３６５號","E_COORD97":182171.61331700001,"N_COORD97":2580073.7881900002,"ADDRESS":"開元路３６５號","OBJECTID":659602},"geometry":{"x":182171.61331699975,"y":2580073.7881910019}},{"attributes":{"ID":659630,"DIS_CODE":0,"TOWNNAME":"新營區","LI":"土庫里","LIN":"18鄰","STREET":"開元路","SECT":" ","MAREA":" ","LANE":" ","ALLEY":" ","HOUSE_NO":"３６３號","E_COORD97":182163.56179199999,"N_COORD97":2580061.0882000001,"ADDRESS":"開元路３６３號","OBJECTID":659603},"geometry":{"x":182163.56179200113,"y":2580061.0881980006}},{"attributes":{"ID":659631,"DIS_CODE":0,"TOWNNAME":"善化區","LI":"田寮里","LIN":"4鄰","STREET":" ","SECT":" ","MAREA":"六分寮","LANE":" ","ALLEY":" ","HOUSE_NO":"５４之３７號","E_COORD97":178590.08326300001,"N_COORD97":2560903.9090100001,"ADDRESS":"六分寮５４之３７號","OBJECTID":659604},"geometry":{"x":178590.08326300047,"y":2560903.9090100005}},{"attributes":{"ID":659632,"DIS_CODE":0,"TOWNNAME":"善化區","LI":"田寮里","LIN":"7鄰","STREET":" ","SECT":" ","MAREA":"六分寮","LANE":" ","ALLEY":" ","HOUSE_NO":"７４號之２","E_COORD97":178430.29561999999,"N_COORD97":2561396.0564899999,"ADDRESS":"六分寮７４號之２","OBJECTID":659605},"geometry":{"x":178430.29561999999,"y":2561396.0564900041}},{"attributes":{"ID":659633,"DIS_CODE":0,"TOWNNAME":"善化區","LI":"田寮里","LIN":"3鄰","STREET":" ","SECT":" ","MAREA":"六分寮","LANE":" ","ALLEY":" ","HOUSE_NO":"３９號之３２","E_COORD97":178298.69753999999,"N_COORD97":2560828.3668,"ADDRESS":"六分寮３９號之３２","OBJECTID":659606},"geometry":{"x":178298.69754000101,"y":2560828.366799999}},{"attributes":{"ID":659634,"DIS_CODE":0,"TOWNNAME":"安南區","LI":"大安里","LIN":"16鄰","STREET":"義吉街","SECT":" ","MAREA":" ","LANE":"１１２巷","ALLEY":" ","HOUSE_NO":"１號","E_COORD97":167581.381685,"N_COORD97":2548076.6592799998,"ADDRESS":"義吉街１１２巷１號","OBJECTID":659607},"geometry":{"x":167581.38168499991,"y":2548076.6592800003}},{"attributes":{"ID":659635,"DIS_CODE":0,"TOWNNAME":"安南區","LI":"大安里","LIN":"16鄰","STREET":"義吉街","SECT":" ","MAREA":" ","LANE":"１１２巷","ALLEY":" ","HOUSE_NO":"３號","E_COORD97":167588.33656900001,"N_COORD97":2548077.03791,"ADDRESS":"義吉街１１２巷３號","OBJECTID":659608},"geometry":{"x":167588.33656900004,"y":2548077.0379090011}},{"attributes":{"ID":659636,"DIS_CODE":0,"TOWNNAME":"善化區","LI":"田寮里","LIN":"16鄰","STREET":" ","SECT":" ","MAREA":"六分寮","LANE":" ","ALLEY":" ","HOUSE_NO":"１９１號之１３","E_COORD97":178961.56194000001,"N_COORD97":2561391.6115000001,"ADDRESS":"六分寮１９１號之１３","OBJECTID":659609},"geometry":{"x":178961.56194000039,"y":2561391.6115000043}},{"attributes":{"ID":659637,"DIS_CODE":0,"TOWNNAME":"安南區","LI":"大安里","LIN":"16鄰","STREET":"義吉街","SECT":" ","MAREA":" ","LANE":"１１２巷","ALLEY":" ","HOUSE_NO":"５號","E_COORD97":167591.301527,"N_COORD97":2548073.65124,"ADDRESS":"義吉街１１２巷５號","OBJECTID":659610},"geometry":{"x":167591.30152700003,"y":2548073.6512440015}},{"attributes":{"ID":659638,"DIS_CODE":0,"TOWNNAME":"安南區","LI":"大安里","LIN":"16鄰","STREET":"義吉街","SECT":" ","MAREA":" ","LANE":"１１２巷","ALLEY":" ","HOUSE_NO":"７號","E_COORD97":167594.79594099999,"N_COORD97":2548067.7245800002,"ADDRESS":"義吉街１１２巷７號","OBJECTID":659611},"geometry":{"x":167594.7959410008,"y":2548067.7245809995}},{"attributes":{"ID":659639,"DIS_CODE":0,"TOWNNAME":"安南區","LI":"大安里","LIN":"16鄰","STREET":"義吉街","SECT":" ","MAREA":" ","LANE":"１１２巷","ALLEY":" ","HOUSE_NO":"９號","E_COORD97":167597.33733400001,"N_COORD97":2548066.03125,"ADDRESS":"義吉街１１２巷９號","OBJECTID":659612},"geometry":{"x":167597.33733400051,"y":2548066.0312480014}},{"attributes":{"ID":659640,"DIS_CODE":0,"TOWNNAME":"善化區","LI":"田寮里","LIN":"16鄰","STREET":" ","SECT":" ","MAREA":"六分寮","LANE":" ","ALLEY":" ","HOUSE_NO":"１９８號之１８","E_COORD97":179042.93659,"N_COORD97":2561585.9213899998,"ADDRESS":"六分寮１９８號之１８","OBJECTID":659613},"geometry":{"x":179042.93659000099,"y":2561585.9213900007}},{"attributes":{"ID":659641,"DIS_CODE":0,"TOWNNAME":"安南區","LI":"大安里","LIN":"16鄰","STREET":"義吉街","SECT":" ","MAREA":" ","LANE":"１１６巷","ALLEY":" ","HOUSE_NO":"１號","E_COORD97":167601.04353200001,"N_COORD97":2548108.3645600001,"ADDRESS":"義吉街１１６巷１號","OBJECTID":659614},"geometry":{"x":167601.04353200085,"y":2548108.3645590022}},{"attributes":{"ID":659642,"DIS_CODE":0,"TOWNNAME":"善化區","LI":"田寮里","LIN":"16鄰","STREET":" ","SECT":" ","MAREA":"六分寮","LANE":" ","ALLEY":" ","HOUSE_NO":"１９８號之１９","E_COORD97":179048.65825000001,"N_COORD97":2561573.6447299998,"ADDRESS":"六分寮１９８號之１９","OBJECTID":659615},"geometry":{"x":179048.65825000126,"y":2561573.6447300017}},{"attributes":{"ID":659643,"DIS_CODE":0,"TOWNNAME":"安南區","LI":"大安里","LIN":"16鄰","STREET":"義吉街","SECT":" ","MAREA":" ","LANE":"１１６巷","ALLEY":" ","HOUSE_NO":"２號","E_COORD97":167589.21985200001,"N_COORD97":2548095.70927,"ADDRESS":"義吉街１１６巷２號","OBJECTID":659616},"geometry":{"x":167589.21985200141,"y":2548095.7092690021}},{"attributes":{"ID":659644,"DIS_CODE":0,"TOWNNAME":"安南區","LI":"大安里","LIN":"16鄰","STREET":"義吉街","SECT":" ","MAREA":" ","LANE":"１１６巷","ALLEY":" ","HOUSE_NO":"３號","E_COORD97":167609.726623,"N_COORD97":2548102.6495599998,"ADDRESS":"義吉街１１６巷３號","OBJECTID":659617},"geometry":{"x":167609.72662299965,"y":2548102.6495619994}},{"attributes":{"ID":659645,"DIS_CODE":0,"TOWNNAME":"善化區","LI":"田寮里","LIN":"16鄰","STREET":" ","SECT":" ","MAREA":"六分寮","LANE":" ","ALLEY":" ","HOUSE_NO":"１９８號之２０","E_COORD97":179105.66289000001,"N_COORD97":2561450.0314699998,"ADDRESS":"六分寮１９８號之２０","OBJECTID":659618},"geometry":{"x":179105.6628900012,"y":2561450.0314700007}},{"attributes":{"ID":659646,"DIS_CODE":0,"TOWNNAME":"安南區","LI":"大安里","LIN":"16鄰","STREET":"義吉街","SECT":" ","MAREA":" ","LANE":"１１６巷","ALLEY":" ","HOUSE_NO":"５號","E_COORD97":167614.385843,"N_COORD97":2548097.9929,"ADDRESS":"義吉街１１６巷５號","OBJECTID":659619},"geometry":{"x":167614.38584300131,"y":2548097.9928980023}},{"attributes":{"ID":659647,"DIS_CODE":0,"TOWNNAME":"安南區","LI":"大安里","LIN":"16鄰","STREET":"義吉街","SECT":" ","MAREA":" ","LANE":"１１６巷","ALLEY":" ","HOUSE_NO":"６號","E_COORD97":167598.50213899999,"N_COORD97":2548087.4095700001,"ADDRESS":"義吉街１１６巷６號","OBJECTID":659620},"geometry":{"x":167598.50213900115,"y":2548087.4095700011}},{"attributes":{"ID":659648,"DIS_CODE":0,"TOWNNAME":"安南區","LI":"大安里","LIN":"16鄰","STREET":"義吉街","SECT":" ","MAREA":" ","LANE":"１１６巷","ALLEY":" ","HOUSE_NO":"８號","E_COORD97":167603.37314099999,"N_COORD97":2548084.2345699999,"ADDRESS":"義吉街１１６巷８號","OBJECTID":659621},"geometry":{"x":167603.37314100005,"y":2548084.2345720008}},{"attributes":{"ID":659649,"DIS_CODE":0,"TOWNNAME":"安南區","LI":"大安里","LIN":"16鄰","STREET":"義吉街","SECT":" ","MAREA":" ","LANE":"１１６巷","ALLEY":" ","HOUSE_NO":"７號","E_COORD97":167618.83327999999,"N_COORD97":2548093.7595700002,"ADDRESS":"義吉街１１６巷７號","OBJECTID":659622},"geometry":{"x":167618.8332799999,"y":2548093.759567}},{"attributes":{"ID":659650,"DIS_CODE":0,"TOWNNAME":"善化區","LI":"田寮里","LIN":"16鄰","STREET":" ","SECT":" ","MAREA":"六分寮","LANE":" ","ALLEY":" ","HOUSE_NO":"１９８號之２１","E_COORD97":179285.57717,"N_COORD97":2561060.9883400002,"ADDRESS":"六分寮１９８號之２１","OBJECTID":659623},"geometry":{"x":179285.57717000134,"y":2561060.9883400016}},{"attributes":{"ID":659651,"DIS_CODE":0,"TOWNNAME":"安南區","LI":"大安里","LIN":"16鄰","STREET":"義吉街","SECT":" ","MAREA":" ","LANE":"１１６巷","ALLEY":" ","HOUSE_NO":"１０號","E_COORD97":167607.39701300001,"N_COORD97":2548082.11791,"ADDRESS":"義吉街１１６巷１０號","OBJECTID":659624},"geometry":{"x":167607.39701300021,"y":2548082.1179060005}},{"attributes":{"ID":659652,"DIS_CODE":0,"TOWNNAME":"安南區","LI":"大安里","LIN":"16鄰","STREET":"義吉街","SECT":" ","MAREA":" ","LANE":"１１８巷","ALLEY":" ","HOUSE_NO":"６號","E_COORD97":167617.56258299999,"N_COORD97":2548114.07956,"ADDRESS":"義吉街１１８巷６號","OBJECTID":659625},"geometry":{"x":167617.56258300133,"y":2548114.0795560014}},{"attributes":{"ID":659653,"DIS_CODE":0,"TOWNNAME":"安南區","LI":"大安里","LIN":"16鄰","STREET":"義吉街","SECT":" ","MAREA":" ","LANE":"１１８巷","ALLEY":" ","HOUSE_NO":"８號","E_COORD97":167621.58645500001,"N_COORD97":2548113.02122,"ADDRESS":"義吉街１１８巷８號","OBJECTID":659626},"geometry":{"x":167621.58645499963,"y":2548113.0212229975}},{"attributes":{"ID":659654,"DIS_CODE":0,"TOWNNAME":"安南區","LI":"大安里","LIN":"16鄰","STREET":"義吉街","SECT":" ","MAREA":" ","LANE":"１１８巷","ALLEY":" ","HOUSE_NO":"１０號","E_COORD97":167622.645368,"N_COORD97":2548109.8462299998,"ADDRESS":"義吉街１１８巷１０號","OBJECTID":659627},"geometry":{"x":167622.64536799956,"y":2548109.8462250028}},{"attributes":{"ID":659655,"DIS_CODE":0,"TOWNNAME":"安南區","LI":"大安里","LIN":"16鄰","STREET":"義吉街","SECT":" ","MAREA":" ","LANE":"１１８巷","ALLEY":" ","HOUSE_NO":"２號","E_COORD97":167609.344878,"N_COORD97":2548123.8609199999,"ADDRESS":"義吉街１１８巷２號","OBJECTID":659628},"geometry":{"x":167609.34487800021,"y":2548123.8609210029}},{"attributes":{"ID":659656,"DIS_CODE":0,"TOWNNAME":"安南區","LI":"大安里","LIN":"16鄰","STREET":"義吉街","SECT":" ","MAREA":" ","LANE":"１１８巷","ALLEY":" ","HOUSE_NO":"１２號","E_COORD97":167627.93993600001,"N_COORD97":2548107.7295599999,"ADDRESS":"義吉街１１８巷１２號","OBJECTID":659629},"geometry":{"x":167627.93993600085,"y":2548107.7295590024}},{"attributes":{"ID":659657,"DIS_CODE":0,"TOWNNAME":"善化區","LI":"田寮里","LIN":"16鄰","STREET":" ","SECT":" ","MAREA":"六分寮","LANE":" ","ALLEY":" ","HOUSE_NO":"１７９之６號","E_COORD97":178903.497734,"N_COORD97":2561649.2097,"ADDRESS":"六分寮１７９之６號","OBJECTID":659630},"geometry":{"x":178903.49773399998,"y":2561649.2096950021}},{"attributes":{"ID":659658,"DIS_CODE":0,"TOWNNAME":"善化區","LI":"田寮里","LIN":"16鄰","STREET":" ","SECT":" ","MAREA":"六分寮","LANE":" ","ALLEY":" ","HOUSE_NO":"１８２號","E_COORD97":178909.855129,"N_COORD97":2561599.4680599999,"ADDRESS":"六分寮１８２號","OBJECTID":659631},"geometry":{"x":178909.8551289998,"y":2561599.4680560008}},{"attributes":{"ID":659659,"DIS_CODE":0,"TOWNNAME":"善化區","LI":"田寮里","LIN":"16鄰","STREET":" ","SECT":" ","MAREA":"六分寮","LANE":" ","ALLEY":" ","HOUSE_NO":"１８７號","E_COORD97":178897.56416499999,"N_COORD97":2561551.63142,"ADDRESS":"六分寮１８７號","OBJECTID":659632},"geometry":{"x":178897.5641650008,"y":2561551.631415002}},{"attributes":{"ID":659660,"DIS_CODE":0,"TOWNNAME":"善化區","LI":"嘉南里","LIN":"2鄰","STREET":" ","SECT":" ","MAREA":"茄拔","LANE":" ","ALLEY":" ","HOUSE_NO":"６４號之４","E_COORD97":181325.74007999999,"N_COORD97":2559128.5107800001,"ADDRESS":"茄拔６４號之４","OBJECTID":659633},"geometry":{"x":181325.7400799999,"y":2559128.5107800029}},{"attributes":{"ID":659661,"DIS_CODE":0,"TOWNNAME":"善化區","LI":"嘉南里","LIN":"2鄰","STREET":" ","SECT":" ","MAREA":"茄拔","LANE":" ","ALLEY":" ","HOUSE_NO":"６２號之１２","E_COORD97":181044.10748000001,"N_COORD97":2558640.1960399998,"ADDRESS":"茄拔６２號之１２","OBJECTID":659634},"geometry":{"x":181044.10747999977,"y":2558640.1960400026}},{"attributes":{"ID":659662,"DIS_CODE":0,"TOWNNAME":"善化區","LI":"嘉南里","LIN":"12鄰","STREET":" ","SECT":" ","MAREA":"茄拔","LANE":" ","ALLEY":" ","HOUSE_NO":"３５０號之５２","E_COORD97":180617.52627,"N_COORD97":2559636.72217,"ADDRESS":"茄拔３５０號之５２","OBJECTID":659635},"geometry":{"x":180617.5262700012,"y":2559636.722169999}},{"attributes":{"ID":659663,"DIS_CODE":0,"TOWNNAME":"善化區","LI":"嘉南里","LIN":"1鄰","STREET":" ","SECT":" ","MAREA":"茄拔","LANE":" ","ALLEY":" ","HOUSE_NO":"６０號之２４","E_COORD97":181406.69091,"N_COORD97":2559209.3673999999,"ADDRESS":"茄拔６０號之２４","OBJECTID":659636},"geometry":{"x":181406.69091000035,"y":2559209.3674000017}},{"attributes":{"ID":659664,"DIS_CODE":0,"TOWNNAME":"新營區","LI":"太南里","LIN":"1鄰","STREET":" ","SECT":" ","MAREA":"太子宮","LANE":" ","ALLEY":" ","HOUSE_NO":"１９２號","E_COORD97":176152.06051000001,"N_COORD97":2576963.32919,"ADDRESS":"太子宮１９２號","OBJECTID":659637},"geometry":{"x":176152.06051000115,"y":2576963.3291919995}},{"attributes":{"ID":659665,"DIS_CODE":0,"TOWNNAME":"新營區","LI":"太南里","LIN":"1鄰","STREET":" ","SECT":" ","MAREA":"太子宮","LANE":" ","ALLEY":" ","HOUSE_NO":"１９３號","E_COORD97":176115.39878600001,"N_COORD97":2576972.8541899999,"ADDRESS":"太子宮１９３號","OBJECTID":659638},"geometry":{"x":176115.39878599998,"y":2576972.8541870024}},{"attributes":{"ID":659666,"DIS_CODE":0,"TOWNNAME":"新營區","LI":"太南里","LIN":"1鄰","STREET":" ","SECT":" ","MAREA":"太子宮","LANE":" ","ALLEY":" ","HOUSE_NO":"１９５之４號","E_COORD97":176111.31937400001,"N_COORD97":2576993.5710499999,"ADDRESS":"太子宮１９５之４號","OBJECTID":659639},"geometry":{"x":176111.31937399972,"y":2576993.5710510015}},{"attributes":{"ID":659667,"DIS_CODE":0,"TOWNNAME":"新營區","LI":"太南里","LIN":"1鄰","STREET":" ","SECT":" ","MAREA":"太子宮","LANE":" ","ALLEY":" ","HOUSE_NO":"１９８之３號","E_COORD97":176106.49825100001,"N_COORD97":2577049.0809399998,"ADDRESS":"太子宮１９８之３號","OBJECTID":659640},"geometry":{"x":176106.49825100135,"y":2577049.0809360016}},{"attributes":{"ID":659668,"DIS_CODE":0,"TOWNNAME":"新營區","LI":"太南里","LIN":"1鄰","STREET":" ","SECT":" ","MAREA":"太子宮","LANE":" ","ALLEY":" ","HOUSE_NO":"２００號","E_COORD97":176106.92208600001,"N_COORD97":2577031.5126100001,"ADDRESS":"太子宮２００號","OBJECTID":659641},"geometry":{"x":176106.92208600231,"y":2577031.512612002}},{"attributes":{"ID":659669,"DIS_CODE":0,"TOWNNAME":"善化區","LI":"嘉南里","LIN":"2鄰","STREET":" ","SECT":" ","MAREA":"茄拔","LANE":" ","ALLEY":" ","HOUSE_NO":"３５６號之７","E_COORD97":181234.61742,"N_COORD97":2558247.9120100001,"ADDRESS":"茄拔３５６號之７","OBJECTID":659642},"geometry":{"x":181234.61742000002,"y":2558247.9120099992}},{"attributes":{"ID":659670,"DIS_CODE":0,"TOWNNAME":"善化區","LI":"嘉南里","LIN":"2鄰","STREET":" ","SECT":" ","MAREA":"茄拔","LANE":" ","ALLEY":" ","HOUSE_NO":"６２號之３","E_COORD97":181039.55134999999,"N_COORD97":2559299.3656000001,"ADDRESS":"茄拔６２號之３","OBJECTID":659643},"geometry":{"x":181039.55135000031,"y":2559299.3656000011}},{"attributes":{"ID":659671,"DIS_CODE":0,"TOWNNAME":"新營區","LI":"太南里","LIN":"2鄰","STREET":" ","SECT":" ","MAREA":"太子宮","LANE":" ","ALLEY":" ","HOUSE_NO":"１８６號","E_COORD97":176187.02689400001,"N_COORD97":2576978.3843100001,"ADDRESS":"太子宮１８６號","OBJECTID":659644},"geometry":{"x":176187.02689400036,"y":2576978.3843070008}},{"attributes":{"ID":659672,"DIS_CODE":0,"TOWNNAME":"新營區","LI":"忠政里","LIN":"27鄰","STREET":"中正路","SECT":" ","MAREA":" ","LANE":"３９巷","ALLEY":" ","HOUSE_NO":"９９號","E_COORD97":179902.66408300001,"N_COORD97":2579301.8876800002,"ADDRESS":"中正路３９巷９９號","OBJECTID":659645},"geometry":{"x":179902.66408300027,"y":2579301.8876790013}},{"attributes":{"ID":659673,"DIS_CODE":0,"TOWNNAME":"新營區","LI":"太南里","LIN":"2鄰","STREET":" ","SECT":" ","MAREA":"太子宮","LANE":" ","ALLEY":" ","HOUSE_NO":"１８７號","E_COORD97":176162.02063099999,"N_COORD97":2576969.0709799998,"ADDRESS":"太子宮１８７號","OBJECTID":659646},"geometry":{"x":176162.0206310004,"y":2576969.0709789991}},{"attributes":{"ID":659674,"DIS_CODE":0,"TOWNNAME":"善化區","LI":"嘉南里","LIN":"1鄰","STREET":" ","SECT":" ","MAREA":"茄拔","LANE":" ","ALLEY":" ","HOUSE_NO":"６０號之３０","E_COORD97":181400.22756,"N_COORD97":2559418.5338699999,"ADDRESS":"茄拔６０號之３０","OBJECTID":659647},"geometry":{"x":181400.22755999956,"y":2559418.5338700004}},{"attributes":{"ID":659675,"DIS_CODE":0,"TOWNNAME":"新營區","LI":"太南里","LIN":"2鄰","STREET":" ","SECT":" ","MAREA":"太子宮","LANE":" ","ALLEY":" ","HOUSE_NO":"１９０號","E_COORD97":176140.82888300001,"N_COORD97":2576996.58763,"ADDRESS":"太子宮１９０號","OBJECTID":659648},"geometry":{"x":176140.82888299972,"y":2576996.5876310002}},{"attributes":{"ID":659676,"DIS_CODE":0,"TOWNNAME":"善化區","LI":"嘉南里","LIN":"1鄰","STREET":" ","SECT":" ","MAREA":"茄拔","LANE":" ","ALLEY":" ","HOUSE_NO":"６０號之２９","E_COORD97":181389.41998999999,"N_COORD97":2559418.9572100001,"ADDRESS":"茄拔６０號之２９","OBJECTID":659649},"geometry":{"x":181389.41999000125,"y":2559418.9572100025}},{"attributes":{"ID":659677,"DIS_CODE":0,"TOWNNAME":"新營區","LI":"忠政里","LIN":"27鄰","STREET":"中正路","SECT":" ","MAREA":" ","LANE":"３９巷","ALLEY":" ","HOUSE_NO":"６２號","E_COORD97":179882.11150699999,"N_COORD97":2579276.3818600001,"ADDRESS":"中正路３９巷６２號","OBJECTID":659650},"geometry":{"x":179882.1115070004,"y":2579276.3818590008}},{"attributes":{"ID":659678,"DIS_CODE":0,"TOWNNAME":"善化區","LI":"嘉南里","LIN":"2鄰","STREET":" ","SECT":" ","MAREA":"茄拔","LANE":" ","ALLEY":" ","HOUSE_NO":"６４號之５","E_COORD97":181146.99132,"N_COORD97":2559170.8840100002,"ADDRESS":"茄拔６４號之５","OBJECTID":659651},"geometry":{"x":181146.99132000096,"y":2559170.884010002}},{"attributes":{"ID":659679,"DIS_CODE":0,"TOWNNAME":"善化區","LI":"嘉南里","LIN":"2鄰","STREET":" ","SECT":" ","MAREA":"茄拔","LANE":" ","ALLEY":" ","HOUSE_NO":"６２號之１５","E_COORD97":180753.04474000001,"N_COORD97":2558879.2075,"ADDRESS":"茄拔６２號之１５","OBJECTID":659652},"geometry":{"x":180753.04473999981,"y":2558879.2075000014}},{"attributes":{"ID":659680,"DIS_CODE":0,"TOWNNAME":"新營區","LI":"忠政里","LIN":"27鄰","STREET":"中正路","SECT":" ","MAREA":" ","LANE":"３９巷","ALLEY":" ","HOUSE_NO":"７４之１５號","E_COORD97":179860.71140299999,"N_COORD97":2579295.1143499999,"ADDRESS":"中正路３９巷７４之１５號","OBJECTID":659653},"geometry":{"x":179860.7114030011,"y":2579295.1143490002}},{"attributes":{"ID":659681,"DIS_CODE":0,"TOWNNAME":"新化區","LI":"東榮里","LIN":"34鄰","STREET":"中山路","SECT":" ","MAREA":" ","LANE":" ","ALLEY":" ","HOUSE_NO":"２２１號之２四樓","E_COORD97":179167.93934700001,"N_COORD97":2548440.6314599998,"ADDRESS":"中山路２２１號之２四樓","OBJECTID":659654},"geometry":{"x":179167.93934699986,"y":2548440.6314620022}},{"attributes":{"ID":659682,"DIS_CODE":0,"TOWNNAME":"新化區","LI":"東榮里","LIN":"1鄰","STREET":"中興路","SECT":" ","MAREA":" ","LANE":"１０４巷","ALLEY":" ","HOUSE_NO":"１１１號","E_COORD97":182011.716961,"N_COORD97":2547785.4436400002,"ADDRESS":"中興路１０４巷１１１號","OBJECTID":659655},"geometry":{"x":182011.71696100011,"y":2547785.4436419997}},{"attributes":{"ID":659683,"DIS_CODE":0,"TOWNNAME":"新營區","LI":"忠政里","LIN":"28鄰","STREET":"中正路","SECT":" ","MAREA":" ","LANE":"３９巷","ALLEY":" ","HOUSE_NO":"７４之２０號","E_COORD97":179858.80446300001,"N_COORD97":2579317.6568399998,"ADDRESS":"中正路３９巷７４之２０號","OBJECTID":659656},"geometry":{"x":179858.80446300004,"y":2579317.6568370033}},{"attributes":{"ID":659684,"DIS_CODE":0,"TOWNNAME":"麻豆區","LI":"海埔里","LIN":"6鄰","STREET":" ","SECT":" ","MAREA":"海埔","LANE":" ","ALLEY":" ","HOUSE_NO":"１６號","E_COORD97":169414.07233900001,"N_COORD97":2566652.2798100002,"ADDRESS":"海埔１６號","OBJECTID":659657},"geometry":{"x":169414.07233900111,"y":2566652.2798129991}},{"attributes":{"ID":659685,"DIS_CODE":0,"TOWNNAME":"新營區","LI":"忠政里","LIN":"28鄰","STREET":"中正路","SECT":" ","MAREA":" ","LANE":"３９巷","ALLEY":" ","HOUSE_NO":"７５號","E_COORD97":179883.382801,"N_COORD97":2579263.89353,"ADDRESS":"中正路３９巷７５號","OBJECTID":659658},"geometry":{"x":179883.38280100096,"y":2579263.8935329989}},{"attributes":{"ID":659686,"DIS_CODE":0,"TOWNNAME":"麻豆區","LI":"海埔里","LIN":"6鄰","STREET":" ","SECT":" ","MAREA":"莊禮寮","LANE":" ","ALLEY":" ","HOUSE_NO":"１號之１２","E_COORD97":169427.208419,"N_COORD97":2566388.9666200001,"ADDRESS":"莊禮寮１號之１２","OBJECTID":659659},"geometry":{"x":169427.20841900073,"y":2566388.9666220006}},{"attributes":{"ID":659687,"DIS_CODE":0,"TOWNNAME":"麻豆區","LI":"海埔里","LIN":"6鄰","STREET":" ","SECT":" ","MAREA":"莊禮寮","LANE":" ","ALLEY":" ","HOUSE_NO":"１號之１５","E_COORD97":169546.916245,"N_COORD97":2566350.7608099999,"ADDRESS":"莊禮寮１號之１５","OBJECTID":659660},"geometry":{"x":169546.9162450023,"y":2566350.7608100008}},{"attributes":{"ID":659688,"DIS_CODE":0,"TOWNNAME":"麻豆區","LI":"海埔里","LIN":"7鄰","STREET":" ","SECT":" ","MAREA":"海埔","LANE":" ","ALLEY":" ","HOUSE_NO":"２２號之１","E_COORD97":169102.597305,"N_COORD97":2566880.9024800002,"ADDRESS":"海埔２２號之１","OBJECTID":659661},"geometry":{"x":169102.59730499983,"y":2566880.9024810009}},{"attributes":{"ID":659689,"DIS_CODE":0,"TOWNNAME":"新營區","LI":"忠政里","LIN":"29鄰","STREET":"中正路","SECT":" ","MAREA":" ","LANE":"３９巷","ALLEY":" ","HOUSE_NO":"１４１號","E_COORD97":179760.702995,"N_COORD97":2579270.56103,"ADDRESS":"中正路３９巷１４１號","OBJECTID":659662},"geometry":{"x":179760.70299500134,"y":2579270.5610290002}},{"attributes":{"ID":659690,"DIS_CODE":0,"TOWNNAME":"麻豆區","LI":"海埔里","LIN":"7鄰","STREET":" ","SECT":" ","MAREA":"海埔","LANE":" ","ALLEY":" ","HOUSE_NO":"２２號之２","E_COORD97":169111.28406800001,"N_COORD97":2566861.0058200001,"ADDRESS":"海埔２２號之２","OBJECTID":659663},"geometry":{"x":169111.2840680005,"y":2566861.0058249999}},{"attributes":{"ID":659691,"DIS_CODE":0,"TOWNNAME":"麻豆區","LI":"海埔里","LIN":"7鄰","STREET":" ","SECT":" ","MAREA":"海埔","LANE":" ","ALLEY":" ","HOUSE_NO":"２２號之５","E_COORD97":169116.36900199999,"N_COORD97":2566830.3141700001,"ADDRESS":"海埔２２號之５","OBJECTID":659664},"geometry":{"x":169116.36900200136,"y":2566830.3141750023}},{"attributes":{"ID":659692,"DIS_CODE":0,"TOWNNAME":"新營區","LI":"忠政里","LIN":"29鄰","STREET":"中正路","SECT":" ","MAREA":" ","LANE":"３９巷","ALLEY":" ","HOUSE_NO":"１３５號","E_COORD97":179774.687221,"N_COORD97":2579270.56103,"ADDRESS":"中正路３９巷１３５號","OBJECTID":659665},"geometry":{"x":179774.68722099997,"y":2579270.5610290002}},{"attributes":{"ID":659693,"DIS_CODE":0,"TOWNNAME":"東山區","LI":"東山里","LIN":"17鄰","STREET":" ","SECT":" ","MAREA":"東山","LANE":" ","ALLEY":" ","HOUSE_NO":"２６２號之１","E_COORD97":189080.83652400001,"N_COORD97":2580693.05797,"ADDRESS":"東山２６２號之１","OBJECTID":659666},"geometry":{"x":189080.83652400039,"y":2580693.0579750035}},{"attributes":{"ID":659694,"DIS_CODE":0,"TOWNNAME":"新營區","LI":"忠政里","LIN":"29鄰","STREET":"中正路","SECT":" ","MAREA":" ","LANE":"３９巷","ALLEY":" ","HOUSE_NO":"１３７號","E_COORD97":179769.602048,"N_COORD97":2579270.1376999998,"ADDRESS":"中正路３９巷１３７號","OBJECTID":659667},"geometry":{"x":179769.60204800032,"y":2579270.1376960017}},{"attributes":{"ID":659695,"DIS_CODE":0,"TOWNNAME":"麻豆區","LI":"海埔里","LIN":"7鄰","STREET":" ","SECT":" ","MAREA":"海埔","LANE":" ","ALLEY":" ","HOUSE_NO":"３２號之１","E_COORD97":169510.45140300001,"N_COORD97":2566927.3103700001,"ADDRESS":"海埔３２號之１","OBJECTID":659668},"geometry":{"x":169510.45140300039,"y":2566927.3103720006}},{"attributes":{"ID":659696,"DIS_CODE":0,"TOWNNAME":"東山區","LI":"東山里","LIN":"17鄰","STREET":" ","SECT":" ","MAREA":"東山","LANE":" ","ALLEY":" ","HOUSE_NO":"２６６號","E_COORD97":189008.80160100001,"N_COORD97":2580709.6738,"ADDRESS":"東山２６６號","OBJECTID":659669},"geometry":{"x":189008.80160100013,"y":2580709.6737990007}},{"attributes":{"ID":659697,"DIS_CODE":0,"TOWNNAME":"麻豆區","LI":"海埔里","LIN":"7鄰","STREET":" ","SECT":" ","MAREA":"海埔","LANE":" ","ALLEY":" ","HOUSE_NO":"３３號","E_COORD97":169537.14730800001,"N_COORD97":2566900.0053900001,"ADDRESS":"海埔３３號","OBJECTID":659670},"geometry":{"x":169537.14730800036,"y":2566900.0053870007}},{"attributes":{"ID":659698,"DIS_CODE":0,"TOWNNAME":"新營區","LI":"忠政里","LIN":"29鄰","STREET":"中正路","SECT":" ","MAREA":" ","LANE":"３９巷","ALLEY":" ","HOUSE_NO":"１３５號之４","E_COORD97":179706.67302799999,"N_COORD97":2579291.8335199999,"ADDRESS":"中正路３９巷１３５號之４","OBJECTID":659671},"geometry":{"x":179706.6730279997,"y":2579291.833518004}},{"attributes":{"ID":659699,"DIS_CODE":0,"TOWNNAME":"麻豆區","LI":"海埔里","LIN":"7鄰","STREET":" ","SECT":" ","MAREA":"海埔","LANE":" ","ALLEY":" ","HOUSE_NO":"３４號","E_COORD97":169517.019443,"N_COORD97":2566946.25453,"ADDRESS":"海埔３４號","OBJECTID":659672},"geometry":{"x":169517.01944299974,"y":2566946.2545290012}},{"attributes":{"ID":659700,"DIS_CODE":0,"TOWNNAME":"善化區","LI":"嘉南里","LIN":"6鄰","STREET":" ","SECT":" ","MAREA":"茄拔","LANE":" ","ALLEY":" ","HOUSE_NO":"１０３號之３","E_COORD97":181053.00782999999,"N_COORD97":2559504.1529899999,"ADDRESS":"茄拔１０３號之３","OBJECTID":659673},"geometry":{"x":181053.00782999955,"y":2559504.1529900022}},{"attributes":{"ID":659701,"DIS_CODE":0,"TOWNNAME":"麻豆區","LI":"海埔里","LIN":"7鄰","STREET":" ","SECT":" ","MAREA":"海埔","LANE":" ","ALLEY":" ","HOUSE_NO":"３４號之１２","E_COORD97":169359.17461099999,"N_COORD97":2566976.94618,"ADDRESS":"海埔３４號之１２","OBJECTID":659674},"geometry":{"x":169359.17461100128,"y":2566976.9461790025}},{"attributes":{"ID":659702,"DIS_CODE":0,"TOWNNAME":"麻豆區","LI":"海埔里","LIN":"7鄰","STREET":" ","SECT":" ","MAREA":"海埔","LANE":" ","ALLEY":" ","HOUSE_NO":"３４號之１３","E_COORD97":169346.038531,"N_COORD97":2566978.8511800002,"ADDRESS":"海埔３４號之１３","OBJECTID":659675},"geometry":{"x":169346.03853100073,"y":2566978.8511780016}},{"attributes":{"ID":659703,"DIS_CODE":0,"TOWNNAME":"新營區","LI":"忠政里","LIN":"29鄰","STREET":"中正路","SECT":" ","MAREA":" ","LANE":"３９巷","ALLEY":" ","HOUSE_NO":"９０號","E_COORD97":179763.88122800001,"N_COORD97":2579258.28437,"ADDRESS":"中正路３９巷９０號","OBJECTID":659676},"geometry":{"x":179763.88122799993,"y":2579258.2843690012}},{"attributes":{"ID":659704,"DIS_CODE":0,"TOWNNAME":"麻豆區","LI":"海埔里","LIN":"8鄰","STREET":" ","SECT":" ","MAREA":"海埔","LANE":" ","ALLEY":" ","HOUSE_NO":"３９號","E_COORD97":169598.80213500001,"N_COORD97":2566869.63124,"ADDRESS":"海埔３９號","OBJECTID":659677},"geometry":{"x":169598.80213500094,"y":2566869.6312370021}},{"attributes":{"ID":659705,"DIS_CODE":0,"TOWNNAME":"善化區","LI":"嘉南里","LIN":"8鄰","STREET":" ","SECT":" ","MAREA":"茄拔","LANE":" ","ALLEY":" ","HOUSE_NO":"１１９號之１","E_COORD97":180961.88516999999,"N_COORD97":2559617.6062699999,"ADDRESS":"茄拔１１９號之１","OBJECTID":659678},"geometry":{"x":180961.88516999967,"y":2559617.6062700041}},{"attributes":{"ID":659706,"DIS_CODE":0,"TOWNNAME":"安定區","LI":"六嘉里","LIN":"8鄰","STREET":" ","SECT":" ","MAREA":"六塊寮","LANE":" ","ALLEY":" ","HOUSE_NO":"６７之２５號","E_COORD97":169920.77897399999,"N_COORD97":2553128.2011600002,"ADDRESS":"六塊寮６７之２５號","OBJECTID":659679},"geometry":{"x":169920.77897400036,"y":2553128.2011580002}},{"attributes":{"ID":659707,"DIS_CODE":0,"TOWNNAME":"新營區","LI":"忠政里","LIN":"29鄰","STREET":"府西路","SECT":" ","MAREA":" ","LANE":"８７巷","ALLEY":"２８弄","HOUSE_NO":"６號","E_COORD97":179718.32655,"N_COORD97":2579229.8152200002,"ADDRESS":"府西路８７巷２８弄６號","OBJECTID":659680},"geometry":{"x":179718.32655000128,"y":2579229.8152180016}},{"attributes":{"ID":659708,"DIS_CODE":0,"TOWNNAME":"善化區","LI":"嘉南里","LIN":"8鄰","STREET":" ","SECT":" ","MAREA":"茄拔","LANE":" ","ALLEY":" ","HOUSE_NO":"１１９號之２","E_COORD97":180969.51405,"N_COORD97":2559616.1246000002,"ADDRESS":"茄拔１１９號之２","OBJECTID":659681},"geometry":{"x":180969.51405000035,"y":2559616.1246000007}},{"attributes":{"ID":659709,"DIS_CODE":0,"TOWNNAME":"麻豆區","LI":"海埔里","LIN":"9鄰","STREET":" ","SECT":" ","MAREA":"海埔","LANE":" ","ALLEY":" ","HOUSE_NO":"４４號之２","E_COORD97":169747.748333,"N_COORD97":2567397.42178,"ADDRESS":"海埔４４號之２","OBJECTID":659682},"geometry":{"x":169747.74833299965,"y":2567397.4217850044}},{"attributes":{"ID":659710,"DIS_CODE":0,"TOWNNAME":"新營區","LI":"忠政里","LIN":"29鄰","STREET":"府西路","SECT":" ","MAREA":" ","LANE":"８７巷","ALLEY":" ","HOUSE_NO":"４１號","E_COORD97":179707.30867500001,"N_COORD97":2579194.5727400002,"ADDRESS":"府西路８７巷４１號","OBJECTID":659683},"geometry":{"x":179707.30867499951,"y":2579194.5727370009}},{"attributes":{"ID":659711,"DIS_CODE":0,"TOWNNAME":"安定區","LI":"中榮里","LIN":"9鄰","STREET":" ","SECT":" ","MAREA":"許中營","LANE":" ","ALLEY":" ","HOUSE_NO":"７７之４３號","E_COORD97":172972.02710599999,"N_COORD97":2555268.9172899998,"ADDRESS":"許中營７７之４３號","OBJECTID":659684},"geometry":{"x":172972.02710600011,"y":2555268.9172940012}},{"attributes":{"ID":659712,"DIS_CODE":0,"TOWNNAME":"新營區","LI":"忠政里","LIN":"29鄰","STREET":"府西路","SECT":" ","MAREA":" ","LANE":"８７巷","ALLEY":" ","HOUSE_NO":"４５號","E_COORD97":179696.926446,"N_COORD97":2579194.9960699999,"ADDRESS":"府西路８７巷４５號","OBJECTID":659685},"geometry":{"x":179696.92644600198,"y":2579194.9960699994}},{"attributes":{"ID":659713,"DIS_CODE":0,"TOWNNAME":"善化區","LI":"嘉南里","LIN":"10鄰","STREET":" ","SECT":" ","MAREA":"茄拔","LANE":" ","ALLEY":" ","HOUSE_NO":"１４２號","E_COORD97":180969.30213600001,"N_COORD97":2559656.3412500001,"ADDRESS":"茄拔１４２號","OBJECTID":659686},"geometry":{"x":180969.30213600118,"y":2559656.3412490021}},{"attributes":{"ID":659714,"DIS_CODE":0,"TOWNNAME":"麻豆區","LI":"海埔里","LIN":"9鄰","STREET":" ","SECT":" ","MAREA":"海埔","LANE":" ","ALLEY":" ","HOUSE_NO":"５０號之３","E_COORD97":169533.75735199999,"N_COORD97":2566984.56617,"ADDRESS":"海埔５０號之３","OBJECTID":659687},"geometry":{"x":169533.75735200103,"y":2566984.5661750007}},{"attributes":{"ID":659715,"DIS_CODE":0,"TOWNNAME":"善化區","LI":"嘉南里","LIN":"12鄰","STREET":" ","SECT":" ","MAREA":"茄拔","LANE":" ","ALLEY":" ","HOUSE_NO":"３１２號之５","E_COORD97":180910.60217999999,"N_COORD97":2559587.3379500001,"ADDRESS":"茄拔３１２號之５","OBJECTID":659688},"geometry":{"x":180910.60218000039,"y":2559587.3379500043}},{"attributes":{"ID":659716,"DIS_CODE":0,"TOWNNAME":"新營區","LI":"忠政里","LIN":"29鄰","STREET":"府西路","SECT":" ","MAREA":" ","LANE":"８７巷","ALLEY":" ","HOUSE_NO":"３０號","E_COORD97":179723.62360600001,"N_COORD97":2579206.5318999998,"ADDRESS":"府西路８７巷３０號","OBJECTID":659689},"geometry":{"x":179723.6236060001,"y":2579206.5318970028}},{"attributes":{"ID":659717,"DIS_CODE":0,"TOWNNAME":"善化區","LI":"嘉南里","LIN":"12鄰","STREET":" ","SECT":" ","MAREA":"茄拔","LANE":" ","ALLEY":" ","HOUSE_NO":"３５０號之１６","E_COORD97":180512.62925,"N_COORD97":2559528.4946499998,"ADDRESS":"茄拔３５０號之１６","OBJECTID":659690},"geometry":{"x":180512.62925000116,"y":2559528.4946500007}},{"attributes":{"ID":659718,"DIS_CODE":0,"TOWNNAME":"新營區","LI":"忠政里","LIN":"29鄰","STREET":"府西路","SECT":" ","MAREA":" ","LANE":"８７巷","ALLEY":" ","HOUSE_NO":"３２號","E_COORD97":179720.445373,"N_COORD97":2579207.8018999998,"ADDRESS":"府西路８７巷３２號","OBJECTID":659691},"geometry":{"x":179720.44537300058,"y":2579207.801896004}},{"attributes":{"ID":659719,"DIS_CODE":0,"TOWNNAME":"麻豆區","LI":"海埔里","LIN":"11鄰","STREET":" ","SECT":" ","MAREA":"海埔","LANE":" ","ALLEY":" ","HOUSE_NO":"６０號之５","E_COORD97":169659.397601,"N_COORD97":2567550.5625399998,"ADDRESS":"海埔６０號之５","OBJECTID":659692},"geometry":{"x":169659.39760100003,"y":2567550.5625360012}},{"attributes":{"ID":659720,"DIS_CODE":0,"TOWNNAME":"善化區","LI":"嘉南里","LIN":"12鄰","STREET":" ","SECT":" ","MAREA":"茄拔","LANE":" ","ALLEY":" ","HOUSE_NO":"３６１號","E_COORD97":180602.26852700001,"N_COORD97":2559480.86968,"ADDRESS":"茄拔３６１號","OBJECTID":659693},"geometry":{"x":180602.26852700021,"y":2559480.8696769979}},{"attributes":{"ID":659721,"DIS_CODE":0,"TOWNNAME":"麻豆區","LI":"海埔里","LIN":"11鄰","STREET":" ","SECT":" ","MAREA":"海埔","LANE":" ","ALLEY":" ","HOUSE_NO":"６６號","E_COORD97":169442.44040799999,"N_COORD97":2567068.5978000001,"ADDRESS":"海埔６６號","OBJECTID":659694},"geometry":{"x":169442.44040799886,"y":2567068.5977960024}},{"attributes":{"ID":659722,"DIS_CODE":0,"TOWNNAME":"麻豆區","LI":"海埔里","LIN":"11鄰","STREET":" ","SECT":" ","MAREA":"海埔","LANE":" ","ALLEY":" ","HOUSE_NO":"６８號","E_COORD97":169484.81486000001,"N_COORD97":2567160.4610799998,"ADDRESS":"海埔６８號","OBJECTID":659695},"geometry":{"x":169484.81486000028,"y":2567160.4610800017}},{"attributes":{"ID":659723,"DIS_CODE":0,"TOWNNAME":"安定區","LI":"安定里","LIN":"9鄰","STREET":" ","SECT":" ","MAREA":"安定","LANE":" ","ALLEY":" ","HOUSE_NO":"７３之７號","E_COORD97":171840.036452,"N_COORD97":2557870.7490099999,"ADDRESS":"安定７３之７號","OBJECTID":659696},"geometry":{"x":171840.03645200096,"y":2557870.7490140013}},{"attributes":{"ID":659724,"DIS_CODE":0,"TOWNNAME":"安定區","LI":"新吉里","LIN":"3鄰","STREET":" ","SECT":" ","MAREA":"新吉","LANE":" ","ALLEY":" ","HOUSE_NO":"１９之３９號","E_COORD97":169781.33238400001,"N_COORD97":2554451.2758599999,"ADDRESS":"新吉１９之３９號","OBJECTID":659697},"geometry":{"x":169781.33238400053,"y":2554451.2758600004}},{"attributes":{"ID":659725,"DIS_CODE":0,"TOWNNAME":"安定區","LI":"港南里","LIN":"2鄰","STREET":" ","SECT":" ","MAREA":"港口","LANE":" ","ALLEY":" ","HOUSE_NO":"１１之３號","E_COORD97":171328.85586800001,"N_COORD97":2554234.31764,"ADDRESS":"港口１１之３號","OBJECTID":659698},"geometry":{"x":171328.85586800054,"y":2554234.3176440019}},{"attributes":{"ID":659726,"DIS_CODE":0,"TOWNNAME":"安定區","LI":"海寮里","LIN":"1鄰","STREET":" ","SECT":" ","MAREA":"海寮","LANE":" ","ALLEY":" ","HOUSE_NO":"５之５５號","E_COORD97":168390.78561600001,"N_COORD97":2554569.4916300001,"ADDRESS":"海寮５之５５號","OBJECTID":659699},"geometry":{"x":168390.78561600205,"y":2554569.4916300029}},{"attributes":{"ID":659727,"DIS_CODE":0,"TOWNNAME":"安定區","LI":"安定里","LIN":"8鄰","STREET":" ","SECT":" ","MAREA":"安定","LANE":" ","ALLEY":" ","HOUSE_NO":"７１之３號","E_COORD97":171821.44710399999,"N_COORD97":2557888.18505,"ADDRESS":"安定７１之３號","OBJECTID":659700},"geometry":{"x":171821.44710399956,"y":2557888.1850460041}},{"attributes":{"ID":659728,"DIS_CODE":0,"TOWNNAME":"安定區","LI":"安定里","LIN":"8鄰","STREET":" ","SECT":" ","MAREA":"安定","LANE":" ","ALLEY":" ","HOUSE_NO":"７１之５號","E_COORD97":171820.176037,"N_COORD97":2557882.78755,"ADDRESS":"安定７１之５號","OBJECTID":659701},"geometry":{"x":171820.17603700049,"y":2557882.7875490021}},{"attributes":{"ID":659729,"DIS_CODE":0,"TOWNNAME":"下營區","LI":"大屯里","LIN":"1鄰","STREET":" ","SECT":" ","MAREA":"大屯寮","LANE":" ","ALLEY":" ","HOUSE_NO":"４號之１５","E_COORD97":172384.99231100001,"N_COORD97":2569700.36809,"ADDRESS":"大屯寮４號之１５","OBJECTID":659702},"geometry":{"x":172384.99231100176,"y":2569700.3680889998}},{"attributes":{"ID":659730,"DIS_CODE":0,"TOWNNAME":"下營區","LI":"大屯里","LIN":"1鄰","STREET":" ","SECT":" ","MAREA":"大屯寮","LANE":" ","ALLEY":" ","HOUSE_NO":"４號之１１","E_COORD97":172354.71289600001,"N_COORD97":2569696.5580899999,"ADDRESS":"大屯寮４號之１１","OBJECTID":659703},"geometry":{"x":172354.71289599966,"y":2569696.5580909997}},{"attributes":{"ID":659731,"DIS_CODE":0,"TOWNNAME":"安南區","LI":"新順里","LIN":"25鄰","STREET":"培安路","SECT":" ","MAREA":" ","LANE":"２２９巷","ALLEY":" ","HOUSE_NO":"３２號","E_COORD97":169380.74625200001,"N_COORD97":2549047.54427,"ADDRESS":"培安路２２９巷３２號","OBJECTID":659704},"geometry":{"x":169380.74625200126,"y":2549047.5442740005}},{"attributes":{"ID":659732,"DIS_CODE":0,"TOWNNAME":"善化區","LI":"溪美里","LIN":"1鄰","STREET":" ","SECT":" ","MAREA":"溪尾","LANE":" ","ALLEY":" ","HOUSE_NO":"６７９號之６","E_COORD97":177168.29772,"N_COORD97":2560848.9379500002,"ADDRESS":"溪尾６７９號之６","OBJECTID":659705},"geometry":{"x":177168.29772000108,"y":2560848.937950002}},{"attributes":{"ID":659733,"DIS_CODE":0,"TOWNNAME":"西港區","LI":"劉厝里","LIN":"3鄰","STREET":" ","SECT":" ","MAREA":"劉厝","LANE":" ","ALLEY":" ","HOUSE_NO":"１５號之２","E_COORD97":165863.66161000001,"N_COORD97":2558583.6215599999,"ADDRESS":"劉厝１５號之２","OBJECTID":659706},"geometry":{"x":165863.66161000077,"y":2558583.6215600017}},{"attributes":{"ID":659734,"DIS_CODE":0,"TOWNNAME":"西港區","LI":"劉厝里","LIN":"3鄰","STREET":" ","SECT":" ","MAREA":"劉厝","LANE":" ","ALLEY":" ","HOUSE_NO":"１５號之１","E_COORD97":165861.75505000001,"N_COORD97":2558596.1098799999,"ADDRESS":"劉厝１５號之１","OBJECTID":659707},"geometry":{"x":165861.75505000073,"y":2558596.1098800041}},{"attributes":{"ID":659735,"DIS_CODE":0,"TOWNNAME":"安南區","LI":"新順里","LIN":"13鄰","STREET":"開安路","SECT":" ","MAREA":" ","LANE":"６３巷","ALLEY":" ","HOUSE_NO":"３５號","E_COORD97":170276.203954,"N_COORD97":2549778.7463799999,"ADDRESS":"開安路６３巷３５號","OBJECTID":659708},"geometry":{"x":170276.20395399909,"y":2549778.7463799994}},{"attributes":{"ID":659736,"DIS_CODE":0,"TOWNNAME":"安定區","LI":"港口里","LIN":"2鄰","STREET":" ","SECT":" ","MAREA":"港口","LANE":" ","ALLEY":" ","HOUSE_NO":"２４５之２１號","E_COORD97":171643.07410299999,"N_COORD97":2554641.6831499999,"ADDRESS":"港口２４５之２１號","OBJECTID":659709},"geometry":{"x":171643.07410299964,"y":2554641.6831530016}},{"attributes":{"ID":659737,"DIS_CODE":0,"TOWNNAME":"西港區","LI":"劉厝里","LIN":"3鄰","STREET":" ","SECT":" ","MAREA":"劉厝","LANE":" ","ALLEY":" ","HOUSE_NO":"１６號","E_COORD97":165884.84552500001,"N_COORD97":2558590.6065600002,"ADDRESS":"劉厝１６號","OBJECTID":659710},"geometry":{"x":165884.84552500118,"y":2558590.6065560021}},{"attributes":{"ID":659738,"DIS_CODE":0,"TOWNNAME":"安定區","LI":"港口里","LIN":"8鄰","STREET":" ","SECT":" ","MAREA":"港口","LANE":" ","ALLEY":" ","HOUSE_NO":"２８６之１號","E_COORD97":171431.971139,"N_COORD97":2554714.3112400002,"ADDRESS":"港口２８６之１號","OBJECTID":659711},"geometry":{"x":171431.97113900073,"y":2554714.3112390004}},{"attributes":{"ID":659739,"DIS_CODE":0,"TOWNNAME":"安定區","LI":"港口里","LIN":"8鄰","STREET":" ","SECT":" ","MAREA":"港口","LANE":" ","ALLEY":" ","HOUSE_NO":"２８６之２號","E_COORD97":171432.28890499999,"N_COORD97":2554721.8254,"ADDRESS":"港口２８６之２號","OBJECTID":659712},"geometry":{"x":171432.28890500125,"y":2554721.8254020028}},{"attributes":{"ID":659740,"DIS_CODE":0,"TOWNNAME":"善化區","LI":"東隆里","LIN":"10鄰","STREET":" ","SECT":" ","MAREA":"東勢寮","LANE":" ","ALLEY":" ","HOUSE_NO":"２９３號之５（該建物","E_COORD97":179806.57678999999,"N_COORD97":2561149.6438099998,"ADDRESS":"東勢寮２９３號之５（該建物係為農業設施不得設籍）","OBJECTID":659713},"geometry":{"x":179806.57679000031,"y":2561149.6438100003}},{"attributes":{"ID":659741,"DIS_CODE":0,"TOWNNAME":"安定區","LI":"港口里","LIN":"8鄰","STREET":" ","SECT":" ","MAREA":"港口","LANE":" ","ALLEY":" ","HOUSE_NO":"２９０之１號","E_COORD97":171430.80598999999,"N_COORD97":2554688.3291699998,"ADDRESS":"港口２９０號之１","OBJECTID":659714},"geometry":{"x":171430.80599000212,"y":2554688.3291700017}},{"attributes":{"ID":659742,"DIS_CODE":0,"TOWNNAME":"安定區","LI":"中沙里","LIN":"5鄰","STREET":" ","SECT":" ","MAREA":"沙崙","LANE":" ","ALLEY":" ","HOUSE_NO":"５之１０號","E_COORD97":168784.70833299999,"N_COORD97":2552465.8048999999,"ADDRESS":"沙崙５之１０號","OBJECTID":659715},"geometry":{"x":168784.70833300054,"y":2552465.8049010001}},{"attributes":{"ID":659743,"DIS_CODE":0,"TOWNNAME":"安定區","LI":"蘇林里","LIN":"1鄰","STREET":" ","SECT":" ","MAREA":"蘇厝","LANE":" ","ALLEY":" ","HOUSE_NO":"１之４７號","E_COORD97":174315.75427800001,"N_COORD97":2558832.84063,"ADDRESS":"蘇厝１之４７號","OBJECTID":659716},"geometry":{"x":174315.75427800231,"y":2558832.8406290021}},{"attributes":{"ID":659744,"DIS_CODE":0,"TOWNNAME":"安定區","LI":"蘇林里","LIN":"1鄰","STREET":" ","SECT":" ","MAREA":"蘇厝","LANE":" ","ALLEY":" ","HOUSE_NO":"１號之１６","E_COORD97":174341.59929000001,"N_COORD97":2558838.5556200002,"ADDRESS":"蘇厝１之１６號","OBJECTID":659717},"geometry":{"x":174341.59929000027,"y":2558838.5556200016}},{"attributes":{"ID":659745,"DIS_CODE":0,"TOWNNAME":"安定區","LI":"海寮里","LIN":"1鄰","STREET":" ","SECT":" ","MAREA":"海寮","LANE":" ","ALLEY":" ","HOUSE_NO":"５之５６號","E_COORD97":169029.17679299999,"N_COORD97":2554960.3481399999,"ADDRESS":"海寮５之５６號","OBJECTID":659718},"geometry":{"x":169029.17679299973,"y":2554960.3481370024}},{"attributes":{"ID":659746,"DIS_CODE":0,"TOWNNAME":"安定區","LI":"安加里","LIN":"10鄰","STREET":" ","SECT":" ","MAREA":"安定","LANE":" ","ALLEY":" ","HOUSE_NO":"２５８之７６號","E_COORD97":171891.088976,"N_COORD97":2557169.5648599998,"ADDRESS":"安定２５８之７６號","OBJECTID":659719},"geometry":{"x":171891.08897600137,"y":2557169.5648610014}},{"attributes":{"ID":659747,"DIS_CODE":0,"TOWNNAME":"安定區","LI":"大同里","LIN":"10鄰","STREET":" ","SECT":" ","MAREA":"大同","LANE":" ","ALLEY":" ","HOUSE_NO":"１１５之１３號","E_COORD97":170133.098062,"N_COORD97":2553869.3658099999,"ADDRESS":"大同１１５之１３號","OBJECTID":659720},"geometry":{"x":170133.09806200024,"y":2553869.3658099994}},{"attributes":{"ID":659748,"DIS_CODE":0,"TOWNNAME":"安定區","LI":"港南里","LIN":"1鄰","STREET":" ","SECT":" ","MAREA":"港口","LANE":" ","ALLEY":" ","HOUSE_NO":"１之８９號","E_COORD97":171087.81791700001,"N_COORD97":2554028.18138,"ADDRESS":"港口１之８９號","OBJECTID":659721},"geometry":{"x":171087.81791699957,"y":2554028.1813750006}},{"attributes":{"ID":659749,"DIS_CODE":0,"TOWNNAME":"安定區","LI":"大同里","LIN":"14鄰","STREET":" ","SECT":" ","MAREA":"\u25A0財","LANE":" ","ALLEY":" ","HOUSE_NO":"２７號","E_COORD97":171434.72313599999,"N_COORD97":2552494.2548099998,"ADDRESS":"\u25A0財２７號","OBJECTID":659722},"geometry":{"x":171434.72313600127,"y":2552494.2548069991}},{"attributes":{"ID":659750,"DIS_CODE":0,"TOWNNAME":"安定區","LI":"新吉里","LIN":"18鄰","STREET":" ","SECT":" ","MAREA":"新吉","LANE":" ","ALLEY":" ","HOUSE_NO":"２８２之６號","E_COORD97":168269.97935499999,"N_COORD97":2554068.9481199998,"ADDRESS":"新吉２８２之６號","OBJECTID":659723},"geometry":{"x":168269.97935499996,"y":2554068.9481230006}},{"attributes":{"ID":659751,"DIS_CODE":0,"TOWNNAME":"官田區","LI":"東庄里","LIN":"3鄰","STREET":" ","SECT":" ","MAREA":"西庄","LANE":" ","ALLEY":" ","HOUSE_NO":"１２０號之１","E_COORD97":177863.84400000001,"N_COORD97":2565268.0780000002,"ADDRESS":"西庄１２０號之１","OBJECTID":659724},"geometry":{"x":177863.84399999864,"y":2565268.0779999997}},{"attributes":{"ID":659752,"DIS_CODE":0,"TOWNNAME":"官田區","LI":"東庄里","LIN":"3鄰","STREET":" ","SECT":" ","MAREA":"西庄","LANE":" ","ALLEY":" ","HOUSE_NO":"１２４號","E_COORD97":177934.41800000001,"N_COORD97":2565254.4470000002,"ADDRESS":"西庄１２４號","OBJECTID":659725},"geometry":{"x":177934.41800000053,"y":2565254.4470000006}},{"attributes":{"ID":659753,"DIS_CODE":0,"TOWNNAME":"官田區","LI":"東庄里","LIN":"5鄰","STREET":" ","SECT":" ","MAREA":"西庄","LANE":" ","ALLEY":" ","HOUSE_NO":"１３９號之１５","E_COORD97":178097.06565999999,"N_COORD97":2565345.93347,"ADDRESS":"西庄１３９號之１５","OBJECTID":659726},"geometry":{"x":178097.06566000078,"y":2565345.9334740024}},{"attributes":{"ID":659754,"DIS_CODE":0,"TOWNNAME":"官田區","LI":"東庄里","LIN":"5鄰","STREET":" ","SECT":" ","MAREA":"西庄","LANE":" ","ALLEY":" ","HOUSE_NO":"１３９號之１８","E_COORD97":178166.438624,"N_COORD97":2565440.9717600001,"ADDRESS":"西庄１３９號之１８","OBJECTID":659727},"geometry":{"x":178166.43862400018,"y":2565440.9717560038}},{"attributes":{"ID":659755,"DIS_CODE":0,"TOWNNAME":"官田區","LI":"東庄里","LIN":"6鄰","STREET":" ","SECT":" ","MAREA":"西庄","LANE":" ","ALLEY":" ","HOUSE_NO":"１３９號之２６","E_COORD97":178191.751812,"N_COORD97":2565190.9935599999,"ADDRESS":"西庄１３９號之２６","OBJECTID":659728},"geometry":{"x":178191.75181199983,"y":2565190.9935570024}},{"attributes":{"ID":659756,"DIS_CODE":0,"TOWNNAME":"官田區","LI":"東庄里","LIN":"6鄰","STREET":" ","SECT":" ","MAREA":"西庄","LANE":" ","ALLEY":" ","HOUSE_NO":"１３９號之３６","E_COORD97":178179.042261,"N_COORD97":2565207.7152100001,"ADDRESS":"西庄１３９號之３６","OBJECTID":659729},"geometry":{"x":178179.04226099979,"y":2565207.7152150013}},{"attributes":{"ID":659757,"DIS_CODE":0,"TOWNNAME":"新營區","LI":"忠政里","LIN":"1鄰","STREET":"中正路","SECT":" ","MAREA":" ","LANE":"３１巷","ALLEY":" ","HOUSE_NO":"８號","E_COORD97":180055.47255599999,"N_COORD97":2579002.93181,"ADDRESS":"中正路３１巷８號","OBJECTID":659730},"geometry":{"x":180055.47255600058,"y":2579002.9318070002}},{"attributes":{"ID":659758,"DIS_CODE":0,"TOWNNAME":"永康區","LI":"\u25A0行里","LIN":"32鄰","STREET":"仁愛街","SECT":" ","MAREA":" ","LANE":"１０８巷","ALLEY":" ","HOUSE_NO":"５１號","E_COORD97":172258.40233499999,"N_COORD97":2549396.4178900002,"ADDRESS":"仁愛街１０８巷５１號","OBJECTID":659731},"geometry":{"x":172258.40233500116,"y":2549396.4178920016}},{"attributes":{"ID":659759,"DIS_CODE":0,"TOWNNAME":"永康區","LI":"\u25A0行里","LIN":"32鄰","STREET":"仁愛街","SECT":" ","MAREA":" ","LANE":"１０８巷","ALLEY":" ","HOUSE_NO":"５３號","E_COORD97":172261.58160500001,"N_COORD97":2549394.72456,"ADDRESS":"仁愛街１０８巷５３號","OBJECTID":659732},"geometry":{"x":172261.58160500042,"y":2549394.72456}},{"attributes":{"ID":659760,"DIS_CODE":0,"TOWNNAME":"永康區","LI":"\u25A0行里","LIN":"32鄰","STREET":"仁愛街","SECT":" ","MAREA":" ","LANE":"１０８巷","ALLEY":" ","HOUSE_NO":"５５號","E_COORD97":172264.54892299999,"N_COORD97":2549392.3962300001,"ADDRESS":"仁愛街１０８巷５５號","OBJECTID":659733},"geometry":{"x":172264.54892299976,"y":2549392.3962280005}},{"attributes":{"ID":659761,"DIS_CODE":0,"TOWNNAME":"永康區","LI":"\u25A0行里","LIN":"32鄰","STREET":"仁愛街","SECT":" ","MAREA":" ","LANE":"１０８巷","ALLEY":" ","HOUSE_NO":"５７號","E_COORD97":172267.092339,"N_COORD97":2549390.9145599999,"ADDRESS":"仁愛街１０８巷５７號","OBJECTID":659734},"geometry":{"x":172267.09233899973,"y":2549390.914562}},{"attributes":{"ID":659762,"DIS_CODE":0,"TOWNNAME":"永康區","LI":"\u25A0行里","LIN":"32鄰","STREET":"仁愛街","SECT":" ","MAREA":" ","LANE":"１０８巷","ALLEY":" ","HOUSE_NO":"５９號","E_COORD97":172270.27160800001,"N_COORD97":2549389.6445599999,"ADDRESS":"仁愛街１０８巷５９號","OBJECTID":659735},"geometry":{"x":172270.27160799969,"y":2549389.6445620004}},{"attributes":{"ID":659763,"DIS_CODE":0,"TOWNNAME":"永康區","LI":"\u25A0行里","LIN":"32鄰","STREET":"仁愛街","SECT":" ","MAREA":" ","LANE":"１０８巷","ALLEY":" ","HOUSE_NO":"６１號","E_COORD97":172272.603072,"N_COORD97":2549387.7395600001,"ADDRESS":"仁愛街１０８巷６１號","OBJECTID":659736},"geometry":{"x":172272.60307199974,"y":2549387.7395630013}},{"attributes":{"ID":659764,"DIS_CODE":0,"TOWNNAME":"永康區","LI":"\u25A0行里","LIN":"32鄰","STREET":"仁愛街","SECT":" ","MAREA":" ","LANE":"１０８巷","ALLEY":" ","HOUSE_NO":"６３號","E_COORD97":172275.358439,"N_COORD97":2549386.6812300002,"ADDRESS":"仁愛街１０８巷６３號","OBJECTID":659737},"geometry":{"x":172275.35843900032,"y":2549386.6812310014}},{"attributes":{"ID":659765,"DIS_CODE":0,"TOWNNAME":"永康區","LI":"\u25A0行里","LIN":"32鄰","STREET":"仁愛街","SECT":" ","MAREA":" ","LANE":"１０８巷","ALLEY":" ","HOUSE_NO":"６５號","E_COORD97":172278.32575700001,"N_COORD97":2549385.8345599999,"ADDRESS":"仁愛街１０８巷６５號","OBJECTID":659738},"geometry":{"x":172278.32575699966,"y":2549385.8345640004}},{"attributes":{"ID":659766,"DIS_CODE":0,"TOWNNAME":"永康區","LI":"\u25A0行里","LIN":"32鄰","STREET":"仁愛街","SECT":" ","MAREA":" ","LANE":"１０８巷","ALLEY":" ","HOUSE_NO":"６７號","E_COORD97":172280.02136799999,"N_COORD97":2549384.9879000001,"ADDRESS":"仁愛街１０８巷６７號","OBJECTID":659739},"geometry":{"x":172280.02136800159,"y":2549384.9878979996}},{"attributes":{"ID":659767,"DIS_CODE":0,"TOWNNAME":"永康區","LI":"\u25A0行里","LIN":"32鄰","STREET":"仁愛街","SECT":" ","MAREA":" ","LANE":"１０８巷","ALLEY":" ","HOUSE_NO":"６９號","E_COORD97":172283.62453999999,"N_COORD97":2549387.31623,"ADDRESS":"仁愛街１０８巷６９號","OBJECTID":659740},"geometry":{"x":172283.62454000022,"y":2549387.3162300028}},{"attributes":{"ID":659768,"DIS_CODE":0,"TOWNNAME":"永康區","LI":"\u25A0行里","LIN":"32鄰","STREET":"仁愛街","SECT":" ","MAREA":" ","LANE":"１０８巷","ALLEY":"７１弄","HOUSE_NO":"２號","E_COORD97":172293.16234800001,"N_COORD97":2549400.4395599999,"ADDRESS":"仁愛街１０８巷７１弄２號","OBJECTID":659741},"geometry":{"x":172293.16234800126,"y":2549400.4395570029}},{"attributes":{"ID":659769,"DIS_CODE":0,"TOWNNAME":"永康區","LI":"\u25A0行里","LIN":"32鄰","STREET":"仁愛街","SECT":" ","MAREA":" ","LANE":"１０８巷","ALLEY":"７１弄","HOUSE_NO":"６號","E_COORD97":172288.71137100001,"N_COORD97":2549401.9212199999,"ADDRESS":"仁愛街１０８巷７１弄６號","OBJECTID":659742},"geometry":{"x":172288.71137099992,"y":2549401.9212219995}},{"attributes":{"ID":659770,"DIS_CODE":0,"TOWNNAME":"永康區","LI":"\u25A0行里","LIN":"32鄰","STREET":"仁愛街","SECT":" ","MAREA":" ","LANE":"１０８巷","ALLEY":"７１弄","HOUSE_NO":"８號","E_COORD97":172284.048442,"N_COORD97":2549403.40289,"ADDRESS":"仁愛街１０８巷７１弄８號","OBJECTID":659743},"geometry":{"x":172284.04844199866,"y":2549403.4028880019}},{"attributes":{"ID":659771,"DIS_CODE":0,"TOWNNAME":"永康區","LI":"\u25A0行里","LIN":"32鄰","STREET":"仁愛街","SECT":" ","MAREA":" ","LANE":"１０８巷","ALLEY":"７１弄","HOUSE_NO":"１０號","E_COORD97":172280.23331899999,"N_COORD97":2549405.0962200002,"ADDRESS":"仁愛街１０８巷７１弄１０號","OBJECTID":659744},"geometry":{"x":172280.2333190022,"y":2549405.0962209981}},{"attributes":{"ID":659772,"DIS_CODE":0,"TOWNNAME":"永康區","LI":"\u25A0行里","LIN":"32鄰","STREET":"仁愛街","SECT":" ","MAREA":" ","LANE":"１０８巷","ALLEY":"７１弄","HOUSE_NO":"１２號","E_COORD97":172277.26600100001,"N_COORD97":2549406.3662200002,"ADDRESS":"仁愛街１０８巷７１弄１２號","OBJECTID":659745},"geometry":{"x":172277.26600100007,"y":2549406.366220003}},{"attributes":{"ID":659773,"DIS_CODE":0,"TOWNNAME":"永康區","LI":"\u25A0行里","LIN":"32鄰","STREET":"仁愛街","SECT":" ","MAREA":" ","LANE":"１０８巷","ALLEY":"７１弄","HOUSE_NO":"１６號","E_COORD97":172274.72258500001,"N_COORD97":2549407.8478899999,"ADDRESS":"仁愛街１０８巷７１弄１６號","OBJECTID":659746},"geometry":{"x":172274.7225850001,"y":2549407.8478859998}},{"attributes":{"ID":659774,"DIS_CODE":0,"TOWNNAME":"永康區","LI":"\u25A0行里","LIN":"32鄰","STREET":"仁愛街","SECT":" ","MAREA":" ","LANE":"１０８巷","ALLEY":"７１弄","HOUSE_NO":"１８號","E_COORD97":172272.39112099999,"N_COORD97":2549408.6945500001,"ADDRESS":"仁愛街１０８巷７１弄１８號","OBJECTID":659747},"geometry":{"x":172272.39112100098,"y":2549408.6945520025}},{"attributes":{"ID":659775,"DIS_CODE":0,"TOWNNAME":"永康區","LI":"\u25A0行里","LIN":"32鄰","STREET":"仁愛街","SECT":" ","MAREA":" ","LANE":"１０８巷","ALLEY":"７１弄","HOUSE_NO":"２０號","E_COORD97":172270.27160800001,"N_COORD97":2549409.75288,"ADDRESS":"仁愛街１０８巷７１弄２０號","OBJECTID":659748},"geometry":{"x":172270.27160799969,"y":2549409.7528849989}},{"attributes":{"ID":659776,"DIS_CODE":0,"TOWNNAME":"永康區","LI":"\u25A0行里","LIN":"32鄰","STREET":"仁愛街","SECT":" ","MAREA":" ","LANE":"１０８巷","ALLEY":"７１弄","HOUSE_NO":"２２號","E_COORD97":172267.72819200001,"N_COORD97":2549410.5995499999,"ADDRESS":"仁愛街１０８巷７１弄２２號","OBJECTID":659749},"geometry":{"x":172267.72819199972,"y":2549410.5995510016}},{"attributes":{"ID":659777,"DIS_CODE":0,"TOWNNAME":"永康區","LI":"\u25A0行里","LIN":"32鄰","STREET":"仁愛街","SECT":" ","MAREA":" ","LANE":"１０８巷","ALLEY":"７１弄","HOUSE_NO":"２６號","E_COORD97":172265.82063100001,"N_COORD97":2549411.8695499999,"ADDRESS":"仁愛街１０８巷７１弄２６號","OBJECTID":659750},"geometry":{"x":172265.82063100021,"y":2549411.8695500009}},{"attributes":{"ID":659778,"DIS_CODE":0,"TOWNNAME":"永康區","LI":"\u25A0行里","LIN":"32鄰","STREET":"仁愛街","SECT":" ","MAREA":" ","LANE":"１０８巷","ALLEY":"７１弄","HOUSE_NO":"２８號","E_COORD97":172263.913069,"N_COORD97":2549413.3512200001,"ADDRESS":"仁愛街１０８巷７１弄２８號","OBJECTID":659751},"geometry":{"x":172263.91306900047,"y":2549413.3512160033}},{"attributes":{"ID":659779,"DIS_CODE":0,"TOWNNAME":"永康區","LI":"\u25A0洲里","LIN":"25鄰","STREET":"洲工街","SECT":" ","MAREA":" ","LANE":" ","ALLEY":" ","HOUSE_NO":"１０１號","E_COORD97":170571.48198400001,"N_COORD97":2548402.74926,"ADDRESS":"洲工街１０１號","OBJECTID":659752},"geometry":{"x":170571.48198400065,"y":2548402.7492620014}},{"attributes":{"ID":659780,"DIS_CODE":0,"TOWNNAME":"永康區","LI":"\u25A0洲里","LIN":"25鄰","STREET":"洲工街","SECT":" ","MAREA":" ","LANE":" ","ALLEY":" ","HOUSE_NO":"１０３號","E_COORD97":170573.38954599999,"N_COORD97":2548407.6175899999,"ADDRESS":"洲工街１０３號","OBJECTID":659753},"geometry":{"x":170573.38954600133,"y":2548407.6175929997}},{"attributes":{"ID":659781,"DIS_CODE":0,"TOWNNAME":"新營區","LI":"太南里","LIN":"3鄰","STREET":" ","SECT":" ","MAREA":"太子宮","LANE":" ","ALLEY":" ","HOUSE_NO":"１８５之１號","E_COORD97":176223.900536,"N_COORD97":2576969.4675199999,"ADDRESS":"太子宮１８５之１號","OBJECTID":659754},"geometry":{"x":176223.90053600166,"y":2576969.4675220028}},{"attributes":{"ID":659782,"DIS_CODE":0,"TOWNNAME":"新營區","LI":"太南里","LIN":"3鄰","STREET":" ","SECT":" ","MAREA":"太子宮","LANE":" ","ALLEY":" ","HOUSE_NO":"１８５之１號","E_COORD97":176223.900536,"N_COORD97":2576969.4675199999,"ADDRESS":"太子宮１８５之１號","OBJECTID":659755},"geometry":{"x":176223.90053600166,"y":2576969.4675220028}},{"attributes":{"ID":659783,"DIS_CODE":0,"TOWNNAME":"永康區","LI":"\u25A0洲里","LIN":"9鄰","STREET":"\u25A0行路","SECT":" ","MAREA":" ","LANE":"６９巷","ALLEY":" ","HOUSE_NO":"１０號","E_COORD97":171568.07696999999,"N_COORD97":2549219.0413199998,"ADDRESS":"\u25A0行路６９巷１０號","OBJECTID":659756},"geometry":{"x":171568.07696999982,"y":2549219.0413210001}},{"attributes":{"ID":659784,"DIS_CODE":0,"TOWNNAME":"永康區","LI":"\u25A0洲里","LIN":"9鄰","STREET":"\u25A0行路","SECT":" ","MAREA":" ","LANE":"６９巷","ALLEY":" ","HOUSE_NO":"１２號","E_COORD97":171564.685749,"N_COORD97":2549216.5013199998,"ADDRESS":"\u25A0行路６９巷１２號","OBJECTID":659757},"geometry":{"x":171564.68574899994,"y":2549216.5013229996}},{"attributes":{"ID":659785,"DIS_CODE":0,"TOWNNAME":"新營區","LI":"太南里","LIN":"3鄰","STREET":" ","SECT":" ","MAREA":"太子宮","LANE":" ","ALLEY":" ","HOUSE_NO":"１５７之８號","E_COORD97":176253.78090099999,"N_COORD97":2577081.7566300002,"ADDRESS":"太子宮１５７之８號","OBJECTID":659758},"geometry":{"x":176253.7809009999,"y":2577081.7566280011}},{"attributes":{"ID":659786,"DIS_CODE":0,"TOWNNAME":"永康區","LI":"\u25A0洲里","LIN":"25鄰","STREET":"國聖街","SECT":" ","MAREA":" ","LANE":" ","ALLEY":" ","HOUSE_NO":"１８６號","E_COORD97":170578.052474,"N_COORD97":2548150.2310600001,"ADDRESS":"國聖街１８６號","OBJECTID":659759},"geometry":{"x":170578.05247400049,"y":2548150.2310650013}},{"attributes":{"ID":659787,"DIS_CODE":0,"TOWNNAME":"永康區","LI":"\u25A0洲里","LIN":"25鄰","STREET":"國聖街","SECT":" ","MAREA":" ","LANE":" ","ALLEY":" ","HOUSE_NO":"１８２號","E_COORD97":170574.02540000001,"N_COORD97":2548147.6910700002,"ADDRESS":"國聖街１８２號","OBJECTID":659760},"geometry":{"x":170574.02540000062,"y":2548147.6910660025}},{"attributes":{"ID":659788,"DIS_CODE":0,"TOWNNAME":"永康區","LI":"\u25A0洲里","LIN":"25鄰","STREET":"國聖街","SECT":" ","MAREA":" ","LANE":" ","ALLEY":" ","HOUSE_NO":"１８０號","E_COORD97":170569.99832499999,"N_COORD97":2548144.9394,"ADDRESS":"國聖街１８０號","OBJECTID":659761},"geometry":{"x":170569.99832500145,"y":2548144.9394010007}},{"attributes":{"ID":659789,"DIS_CODE":0,"TOWNNAME":"永康區","LI":"\u25A0洲里","LIN":"25鄰","STREET":"國聖街","SECT":" ","MAREA":" ","LANE":" ","ALLEY":" ","HOUSE_NO":"１７８號","E_COORD97":170567.87881200001,"N_COORD97":2548141.9760699999,"ADDRESS":"國聖街１７８號","OBJECTID":659762},"geometry":{"x":170567.87881200016,"y":2548141.9760690033}},{"attributes":{"ID":659790,"DIS_CODE":0,"TOWNNAME":"新營區","LI":"太南里","LIN":"3鄰","STREET":" ","SECT":" ","MAREA":"太子宮","LANE":" ","ALLEY":" ","HOUSE_NO":"１５７之３號","E_COORD97":176236.40366700001,"N_COORD97":2577074.0307999998,"ADDRESS":"太子宮１５７之３號","OBJECTID":659763},"geometry":{"x":176236.40366700105,"y":2577074.0307990015}},{"attributes":{"ID":659791,"DIS_CODE":0,"TOWNNAME":"七股區","LI":"十份里","LIN":"10鄰","STREET":" ","SECT":" ","MAREA":"海埔","LANE":" ","ALLEY":" ","HOUSE_NO":"３３號之３","E_COORD97":151745.15392099999,"N_COORD97":2555883.20468,"ADDRESS":"海埔３３號之３","OBJECTID":659764},"geometry":{"x":151745.15392099973,"y":2555883.204675002}},{"attributes":{"ID":659792,"DIS_CODE":0,"TOWNNAME":"新營區","LI":"忠政里","LIN":"1鄰","STREET":"中正路","SECT":" ","MAREA":" ","LANE":"３１巷","ALLEY":" ","HOUSE_NO":"１８號","E_COORD97":180041.700212,"N_COORD97":2578985.6809800002,"ADDRESS":"中正路３１巷１８號","OBJECTID":659765},"geometry":{"x":180041.7002120018,"y":2578985.6809829976}},{"attributes":{"ID":659793,"DIS_CODE":0,"TOWNNAME":"新營區","LI":"太南里","LIN":"4鄰","STREET":" ","SECT":" ","MAREA":"太子宮","LANE":" ","ALLEY":" ","HOUSE_NO":"３４８號","E_COORD97":176452.13566299999,"N_COORD97":2577044.0799799999,"ADDRESS":"太子宮３４８號","OBJECTID":659766},"geometry":{"x":176452.13566299994,"y":2577044.0799820013}},{"attributes":{"ID":659794,"DIS_CODE":0,"TOWNNAME":"永康區","LI":"\u25A0洲里","LIN":"9鄰","STREET":"\u25A0行路","SECT":" ","MAREA":" ","LANE":"６９巷","ALLEY":" ","HOUSE_NO":"１號","E_COORD97":171576.978924,"N_COORD97":2549225.1796499998,"ADDRESS":"\u25A0行路６９巷１號","OBJECTID":659767},"geometry":{"x":171576.9789239997,"y":2549225.1796510015}},{"attributes":{"ID":659795,"DIS_CODE":0,"TOWNNAME":"新營區","LI":"太南里","LIN":"4鄰","STREET":" ","SECT":" ","MAREA":"太子宮","LANE":" ","ALLEY":" ","HOUSE_NO":"３２８之５號","E_COORD97":176432.427337,"N_COORD97":2577059.5316400002,"ADDRESS":"太子宮３２８之５號","OBJECTID":659768},"geometry":{"x":176432.42733699922,"y":2577059.5316399988}},{"attributes":{"ID":659796,"DIS_CODE":0,"TOWNNAME":"永康區","LI":"\u25A0洲里","LIN":"9鄰","STREET":"\u25A0行路","SECT":" ","MAREA":" ","LANE":"６９巷","ALLEY":" ","HOUSE_NO":"２號","E_COORD97":171574.30598999999,"N_COORD97":2549227.4227300002,"ADDRESS":"\u25A0行路６９巷２號","OBJECTID":659769},"geometry":{"x":171574.30599000026,"y":2549227.4227300026}},{"attributes":{"ID":659797,"DIS_CODE":0,"TOWNNAME":"永康區","LI":"\u25A0洲里","LIN":"9鄰","STREET":"\u25A0行路","SECT":" ","MAREA":" ","LANE":"６９巷","ALLEY":" ","HOUSE_NO":"３號","E_COORD97":171574.72989300001,"N_COORD97":2549222.5543999998,"ADDRESS":"\u25A0行路６９巷３號","OBJECTID":659770},"geometry":{"x":171574.7298930008,"y":2549222.5544000044}},{"attributes":{"ID":659798,"DIS_CODE":0,"TOWNNAME":"永康區","LI":"\u25A0洲里","LIN":"9鄰","STREET":"\u25A0行路","SECT":" ","MAREA":" ","LANE":"６９巷","ALLEY":" ","HOUSE_NO":"５號","E_COORD97":171572.61038,"N_COORD97":2549220.2260699999,"ADDRESS":"\u25A0行路６９巷５號","OBJECTID":659771},"geometry":{"x":171572.61038000043,"y":2549220.2260680012}},{"attributes":{"ID":659799,"DIS_CODE":0,"TOWNNAME":"永康區","LI":"\u25A0洲里","LIN":"9鄰","STREET":"\u25A0行路","SECT":" ","MAREA":" ","LANE":"６９巷","ALLEY":" ","HOUSE_NO":"６號","E_COORD97":171571.97452600001,"N_COORD97":2549225.7294000001,"ADDRESS":"\u25A0行路６９巷６號","OBJECTID":659772},"geometry":{"x":171571.97452600021,"y":2549225.7293980028}},{"attributes":{"ID":659800,"DIS_CODE":0,"TOWNNAME":"永康區","LI":"\u25A0洲里","LIN":"9鄰","STREET":"\u25A0行路","SECT":" ","MAREA":" ","LANE":"６９巷","ALLEY":" ","HOUSE_NO":"８號","E_COORD97":171569.85501299999,"N_COORD97":2549222.7660699999,"ADDRESS":"\u25A0行路６９巷８號","OBJECTID":659773},"geometry":{"x":171569.85501299892,"y":2549222.7660660017}},{"attributes":{"ID":659801,"DIS_CODE":0,"TOWNNAME":"永康區","LI":"\u25A0洲里","LIN":"9鄰","STREET":"\u25A0行路","SECT":" ","MAREA":" ","LANE":"６９巷","ALLEY":" ","HOUSE_NO":"７號","E_COORD97":171571.12672100001,"N_COORD97":2549218.1094,"ADDRESS":"\u25A0行路６９巷７號","OBJECTID":659774},"geometry":{"x":171571.1267210003,"y":2549218.1094020009}},{"attributes":{"ID":659802,"DIS_CODE":0,"TOWNNAME":"永康區","LI":"\u25A0洲里","LIN":"9鄰","STREET":"\u25A0行路","SECT":" ","MAREA":" ","LANE":"６９巷","ALLEY":" ","HOUSE_NO":"９號","E_COORD97":171569.007208,"N_COORD97":2549214.9344000001,"ADDRESS":"\u25A0行路６９巷９號","OBJECTID":659775},"geometry":{"x":171569.00720800087,"y":2549214.9344040006}},{"attributes":{"ID":659803,"DIS_CODE":0,"TOWNNAME":"永康區","LI":"\u25A0洲里","LIN":"10鄰","STREET":"\u25A0行路","SECT":" ","MAREA":" ","LANE":"１４６巷","ALLEY":"６弄","HOUSE_NO":"５０號","E_COORD97":171481.04741999999,"N_COORD97":2549311.34852,"ADDRESS":"\u25A0行路１４６巷６弄５０號","OBJECTID":659776},"geometry":{"x":171481.04742000159,"y":2549311.3485180009}},{"attributes":{"ID":659804,"DIS_CODE":0,"TOWNNAME":"善化區","LI":"溪美里","LIN":"1鄰","STREET":" ","SECT":" ","MAREA":"溪尾","LANE":" ","ALLEY":" ","HOUSE_NO":"８５９之１號","E_COORD97":177153.19771000001,"N_COORD97":2560391.57907,"ADDRESS":"溪尾８５９之１號","OBJECTID":659777},"geometry":{"x":177153.19771000091,"y":2560391.5790730044}},{"attributes":{"ID":659805,"DIS_CODE":0,"TOWNNAME":"善化區","LI":"溪美里","LIN":"18鄰","STREET":" ","SECT":" ","MAREA":"溪尾","LANE":" ","ALLEY":" ","HOUSE_NO":"２１７號之１","E_COORD97":177268.22336,"N_COORD97":2561200.1985900002,"ADDRESS":"溪尾２１７號之１","OBJECTID":659778},"geometry":{"x":177268.22336000018,"y":2561200.1985899992}},{"attributes":{"ID":659806,"DIS_CODE":0,"TOWNNAME":"善化區","LI":"溪美里","LIN":"20鄰","STREET":" ","SECT":" ","MAREA":"溪尾","LANE":" ","ALLEY":" ","HOUSE_NO":"１７８號","E_COORD97":176888.91969000001,"N_COORD97":2561330.37353,"ADDRESS":"溪尾１７８號","OBJECTID":659779},"geometry":{"x":176888.91969000082,"y":2561330.3735270035}},{"attributes":{"ID":659807,"DIS_CODE":0,"TOWNNAME":"善化區","LI":"溪美里","LIN":"21鄰","STREET":" ","SECT":" ","MAREA":"溪尾","LANE":" ","ALLEY":" ","HOUSE_NO":"１８３號之１","E_COORD97":177007.17720999999,"N_COORD97":2561228.4560799999,"ADDRESS":"溪尾１８３號之１","OBJECTID":659780},"geometry":{"x":177007.17721000034,"y":2561228.4560800008}},{"attributes":{"ID":659808,"DIS_CODE":0,"TOWNNAME":"善化區","LI":"溪美里","LIN":"22鄰","STREET":" ","SECT":" ","MAREA":"溪尾","LANE":" ","ALLEY":" ","HOUSE_NO":"１９６號之３","E_COORD97":176990.91143000001,"N_COORD97":2561073.1458200002,"ADDRESS":"溪尾１９６號之３","OBJECTID":659781},"geometry":{"x":176990.91143000126,"y":2561073.1458199993}},{"attributes":{"ID":659809,"DIS_CODE":0,"TOWNNAME":"善化區","LI":"溪美里","LIN":"22鄰","STREET":" ","SECT":" ","MAREA":"溪尾","LANE":" ","ALLEY":" ","HOUSE_NO":"６０９號","E_COORD97":177065.93502400001,"N_COORD97":2561084.99915,"ADDRESS":"溪尾６０９號","OBJECTID":659782},"geometry":{"x":177065.93502399977,"y":2561084.9991510008}},{"attributes":{"ID":659810,"DIS_CODE":0,"TOWNNAME":"山上區","LI":"玉\u25A0里","LIN":"6鄰","STREET":" ","SECT":" ","MAREA":"中坑","LANE":" ","ALLEY":" ","HOUSE_NO":"２２號","E_COORD97":186507.20658200001,"N_COORD97":2555136.2491199998,"ADDRESS":"中坑２２號","OBJECTID":659783},"geometry":{"x":186507.20658200048,"y":2555136.2491200007}},{"attributes":{"ID":659811,"DIS_CODE":0,"TOWNNAME":"西港區","LI":"竹林里","LIN":"18鄰","STREET":" ","SECT":" ","MAREA":"大竹林","LANE":" ","ALLEY":" ","HOUSE_NO":"１６９號","E_COORD97":167180.44377499999,"N_COORD97":2557908.8472600002,"ADDRESS":"大竹林１６９號","OBJECTID":659784},"geometry":{"x":167180.44377499912,"y":2557908.8472579997}},{"attributes":{"ID":659812,"DIS_CODE":0,"TOWNNAME":"山上區","LI":"玉\u25A0里","LIN":"8鄰","STREET":" ","SECT":" ","MAREA":"埔\u25A0坑","LANE":" ","ALLEY":" ","HOUSE_NO":"７號之１","E_COORD97":187481.254242,"N_COORD97":2553442.6404499998,"ADDRESS":"埔\u25A0坑７號之１","OBJECTID":659785},"geometry":{"x":187481.2542420011,"y":2553442.6404499989}},{"attributes":{"ID":659813,"DIS_CODE":0,"TOWNNAME":"山上區","LI":"玉\u25A0里","LIN":"8鄰","STREET":" ","SECT":" ","MAREA":"埔\u25A0坑","LANE":" ","ALLEY":" ","HOUSE_NO":"８號","E_COORD97":187506.25933,"N_COORD97":2553460.42044,"ADDRESS":"埔\u25A0坑８號","OBJECTID":659786},"geometry":{"x":187506.25933000073,"y":2553460.4204409998}},{"attributes":{"ID":659814,"DIS_CODE":0,"TOWNNAME":"山上區","LI":"玉\u25A0里","LIN":"8鄰","STREET":" ","SECT":" ","MAREA":"埔\u25A0坑","LANE":" ","ALLEY":" ","HOUSE_NO":"８號之１","E_COORD97":187526.48177300001,"N_COORD97":2553472.2737699999,"ADDRESS":"埔\u25A0坑８號之１","OBJECTID":659787},"geometry":{"x":187526.48177300021,"y":2553472.2737680022}},{"attributes":{"ID":659815,"DIS_CODE":0,"TOWNNAME":"山上區","LI":"玉\u25A0里","LIN":"8鄰","STREET":" ","SECT":" ","MAREA":"埔\u25A0坑","LANE":" ","ALLEY":" ","HOUSE_NO":"１０號","E_COORD97":187565.47275799999,"N_COORD97":2553533.0220699999,"ADDRESS":"埔\u25A0坑１０號","OBJECTID":659788},"geometry":{"x":187565.47275800072,"y":2553533.0220679995}},{"attributes":{"ID":659816,"DIS_CODE":0,"TOWNNAME":"山上區","LI":"玉\u25A0里","LIN":"8鄰","STREET":" ","SECT":" ","MAREA":"埔\u25A0坑","LANE":" ","ALLEY":" ","HOUSE_NO":"９號","E_COORD97":187533.686629,"N_COORD97":2553502.54208,"ADDRESS":"埔\u25A0坑９號","OBJECTID":659789},"geometry":{"x":187533.68662900105,"y":2553502.5420849994}},{"attributes":{"ID":659817,"DIS_CODE":0,"TOWNNAME":"永康區","LI":"\u25A0洲里","LIN":"23鄰","STREET":"中正南路","SECT":" ","MAREA":" ","LANE":" ","ALLEY":" ","HOUSE_NO":"６５９號","E_COORD97":171395.672265,"N_COORD97":2548684.3481000001,"ADDRESS":"中正南路６５９號","OBJECTID":659790},"geometry":{"x":171395.67226500157,"y":2548684.3480980024}},{"attributes":{"ID":659818,"DIS_CODE":0,"TOWNNAME":"西港區","LI":"南海里","LIN":"4鄰","STREET":"慶安路","SECT":" ","MAREA":" ","LANE":" ","ALLEY":" ","HOUSE_NO":"２４２之８號","E_COORD97":167371.09944600001,"N_COORD97":2557619.5076000001,"ADDRESS":"慶安路２４２之８號","OBJECTID":659791},"geometry":{"x":167371.0994459996,"y":2557619.5076050013}},{"attributes":{"ID":659819,"DIS_CODE":0,"TOWNNAME":"西港區","LI":"南海里","LIN":"4鄰","STREET":"慶安路","SECT":" ","MAREA":" ","LANE":" ","ALLEY":" ","HOUSE_NO":"２４２之２號","E_COORD97":167406.48293699999,"N_COORD97":2557635.8059299998,"ADDRESS":"慶安路２４２之２號","OBJECTID":659792},"geometry":{"x":167406.48293700069,"y":2557635.8059290014}},{"attributes":{"ID":659820,"DIS_CODE":0,"TOWNNAME":"永康區","LI":"大灣里","LIN":"31鄰","STREET":"文賢街","SECT":" ","MAREA":" ","LANE":"６８巷","ALLEY":"３６弄","HOUSE_NO":"５６號","E_COORD97":175405.91140400001,"N_COORD97":2545037.4686699999,"ADDRESS":"文賢街６８巷３６弄５６號","OBJECTID":659793},"geometry":{"x":175405.9114040006,"y":2545037.4686699994}},{"attributes":{"ID":659821,"DIS_CODE":0,"TOWNNAME":"永康區","LI":"大灣里","LIN":"31鄰","STREET":"文賢街","SECT":" ","MAREA":" ","LANE":"６８巷","ALLEY":"３６弄","HOUSE_NO":"５８號","E_COORD97":175408.030917,"N_COORD97":2545038.42117,"ADDRESS":"文賢街６８巷３６弄５８號","OBJECTID":659794},"geometry":{"x":175408.03091700003,"y":2545038.42117}},{"attributes":{"ID":659822,"DIS_CODE":0,"TOWNNAME":"永康區","LI":"大灣里","LIN":"31鄰","STREET":"文賢街","SECT":" ","MAREA":" ","LANE":"６８巷","ALLEY":"３６弄","HOUSE_NO":"６０號","E_COORD97":175409.72652699999,"N_COORD97":2545039.3736700001,"ADDRESS":"文賢街６８巷３６弄６０號","OBJECTID":659795},"geometry":{"x":175409.72652700078,"y":2545039.3736690022}},{"attributes":{"ID":659823,"DIS_CODE":0,"TOWNNAME":"永康區","LI":"大灣里","LIN":"31鄰","STREET":"文賢街","SECT":" ","MAREA":" ","LANE":"６８巷","ALLEY":"３６弄","HOUSE_NO":"６２號","E_COORD97":175411.634089,"N_COORD97":2545039.9028400001,"ADDRESS":"文賢街６８巷３６弄６２號","OBJECTID":659796},"geometry":{"x":175411.63408900052,"y":2545039.9028360024}},{"attributes":{"ID":659824,"DIS_CODE":0,"TOWNNAME":"永康區","LI":"大灣里","LIN":"31鄰","STREET":"文賢街","SECT":" ","MAREA":" ","LANE":"６８巷","ALLEY":"３６弄","HOUSE_NO":"６６號","E_COORD97":175413.54165100001,"N_COORD97":2545041.2786699999,"ADDRESS":"文賢街６８巷３６弄６６號","OBJECTID":659797},"geometry":{"x":175413.5416510012,"y":2545041.2786680032}},{"attributes":{"ID":659825,"DIS_CODE":0,"TOWNNAME":"永康區","LI":"大灣里","LIN":"31鄰","STREET":"文賢街","SECT":" ","MAREA":" ","LANE":"６８巷","ALLEY":"３６弄","HOUSE_NO":"６８號","E_COORD97":175415.66116399999,"N_COORD97":2545042.0194999999,"ADDRESS":"文賢街６８巷３６弄６８號","OBJECTID":659798},"geometry":{"x":175415.66116400063,"y":2545042.0195010025}},{"attributes":{"ID":659826,"DIS_CODE":0,"TOWNNAME":"永康區","LI":"大灣里","LIN":"31鄰","STREET":"文賢街","SECT":" ","MAREA":" ","LANE":"６８巷","ALLEY":"３６弄","HOUSE_NO":"７０號","E_COORD97":175417.780677,"N_COORD97":2545042.5486699999,"ADDRESS":"文賢街６８巷３６弄７０號","OBJECTID":659799},"geometry":{"x":175417.78067700192,"y":2545042.5486680027}},{"attributes":{"ID":659827,"DIS_CODE":0,"TOWNNAME":"永康區","LI":"大灣里","LIN":"31鄰","STREET":"文賢街","SECT":" ","MAREA":" ","LANE":"６８巷","ALLEY":"３６弄","HOUSE_NO":"７２號","E_COORD97":175419.90018999999,"N_COORD97":2545043.5011700001,"ADDRESS":"文賢街６８巷３６弄７２號","OBJECTID":659800},"geometry":{"x":175419.90019000042,"y":2545043.5011669993}}]}