{"displayFieldName":"TOWNNAME","fieldAliases":{"ID":"ID","DIS_CODE":"DIS_CODE","TOWNNAME":"TOWNNAME","LI":"LI","LIN":"LIN","STREET":"STREET","SECT":"SECT","MAREA":"MAREA","LANE":"LANE","ALLEY":"ALLEY","HOUSE_NO":"HOUSE_NO","E_COORD97":"E_COORD97","N_COORD97":"N_COORD97","ADDRESS":"ADDRESS","OBJECTID":"OBJECTID"},"geometryType":"esriGeometryPoint","spatialReference":{"wkid":102443,"latestWkid":3826},"fields":[{"name":"ID","type":"esriFieldTypeDouble","alias":"ID"},{"name":"DIS_CODE","type":"esriFieldTypeInteger","alias":"DIS_CODE"},{"name":"TOWNNAME","type":"esriFieldTypeString","alias":"TOWNNAME","length":8},{"name":"LI","type":"esriFieldTypeString","alias":"LI","length":8},{"name":"LIN","type":"esriFieldTypeString","alias":"LIN","length":12},{"name":"STREET","type":"esriFieldTypeString","alias":"STREET","length":20},{"name":"SECT","type":"esriFieldTypeString","alias":"SECT","length":8},{"name":"MAREA","type":"esriFieldTypeString","alias":"MAREA","length":12},{"name":"LANE","type":"esriFieldTypeString","alias":"LANE","length":10},{"name":"ALLEY","type":"esriFieldTypeString","alias":"ALLEY","length":10},{"name":"HOUSE_NO","type":"esriFieldTypeString","alias":"HOUSE_NO","length":20},{"name":"E_COORD97","type":"esriFieldTypeDouble","alias":"E_COORD97"},{"name":"N_COORD97","type":"esriFieldTypeDouble","alias":"N_COORD97"},{"name":"ADDRESS","type":"esriFieldTypeString","alias":"ADDRESS","length":50},{"name":"OBJECTID","type":"esriFieldTypeOID","alias":"OBJECTID"}],"features":[{"attributes":{"ID":424426,"DIS_CODE":0,"TOWNNAME":"安南區","LI":"城南里","LIN":"11鄰","STREET":"城西街","SECT":"二段","MAREA":" ","LANE":"８０巷","ALLEY":" ","HOUSE_NO":"１６號","E_COORD97":160074.01000000001,"N_COORD97":2551140.27,"ADDRESS":"城西街二段８０巷１６號","OBJECTID":424401},"geometry":{"x":160074.00999999978,"y":2551140.2699999996}},{"attributes":{"ID":424427,"DIS_CODE":0,"TOWNNAME":"安南區","LI":"城南里","LIN":"11鄰","STREET":"城西街","SECT":"二段","MAREA":" ","LANE":"８０巷","ALLEY":" ","HOUSE_NO":"１０號","E_COORD97":160076.67999999999,"N_COORD97":2551119.9500000002,"ADDRESS":"城西街二段８０巷１０號","OBJECTID":424402},"geometry":{"x":160076.68000000156,"y":2551119.950000003}},{"attributes":{"ID":424428,"DIS_CODE":0,"TOWNNAME":"安南區","LI":"城南里","LIN":"11鄰","STREET":"城西街","SECT":"二段","MAREA":" ","LANE":"８０巷","ALLEY":" ","HOUSE_NO":"８號","E_COORD97":160078.45999999999,"N_COORD97":2551109.1499999999,"ADDRESS":"城西街二段８０巷８號","OBJECTID":424403},"geometry":{"x":160078.46000000089,"y":2551109.1500000004}},{"attributes":{"ID":424429,"DIS_CODE":0,"TOWNNAME":"安南區","LI":"城南里","LIN":"11鄰","STREET":"城西街","SECT":"二段","MAREA":" ","LANE":"８０巷","ALLEY":" ","HOUSE_NO":"１２號","E_COORD97":160075.41,"N_COORD97":2551131.1200000001,"ADDRESS":"城西街二段８０巷１２號","OBJECTID":424404},"geometry":{"x":160075.41000000201,"y":2551131.1200000029}},{"attributes":{"ID":424430,"DIS_CODE":0,"TOWNNAME":"安南區","LI":"梅花里","LIN":"18鄰","STREET":"同安路","SECT":" ","MAREA":" ","LANE":"３４４巷","ALLEY":" ","HOUSE_NO":"２號之１","E_COORD97":167283.54999999999,"N_COORD97":2549255.54,"ADDRESS":"同安路３４４巷２號之１","OBJECTID":424405},"geometry":{"x":167283.54999999981,"y":2549255.540000001}},{"attributes":{"ID":424431,"DIS_CODE":0,"TOWNNAME":"安南區","LI":"安富里","LIN":"32鄰","STREET":"府安路","SECT":"五段","MAREA":" ","LANE":"１６２巷","ALLEY":" ","HOUSE_NO":"５６號","E_COORD97":167762.32999999999,"N_COORD97":2547146.3900000001,"ADDRESS":"府安路五段１６２巷５６號","OBJECTID":424406},"geometry":{"x":167762.33000000101,"y":2547146.3900000025}},{"attributes":{"ID":424432,"DIS_CODE":0,"TOWNNAME":"安南區","LI":"溪心里","LIN":"14鄰","STREET":"本原街","SECT":"二段","MAREA":" ","LANE":"５３２巷","ALLEY":" ","HOUSE_NO":"１５號","E_COORD97":165761.17000000001,"N_COORD97":2550601.2599999998,"ADDRESS":"本原街二段５３２巷１５號","OBJECTID":424407},"geometry":{"x":165761.17000000086,"y":2550601.2600000016}},{"attributes":{"ID":424433,"DIS_CODE":0,"TOWNNAME":"安南區","LI":"溪心里","LIN":"14鄰","STREET":"本原街","SECT":"二段","MAREA":" ","LANE":"５３２巷","ALLEY":" ","HOUSE_NO":"１６號","E_COORD97":165815.32000000001,"N_COORD97":2550556.9399999999,"ADDRESS":"本原街二段５３２巷１６號","OBJECTID":424408},"geometry":{"x":165815.3200000003,"y":2550556.9399999995}},{"attributes":{"ID":424434,"DIS_CODE":0,"TOWNNAME":"安南區","LI":"溪心里","LIN":"14鄰","STREET":"本原街","SECT":"二段","MAREA":" ","LANE":"５３２巷","ALLEY":" ","HOUSE_NO":"１８號","E_COORD97":165811.03,"N_COORD97":2550561.8700000001,"ADDRESS":"本原街二段５３２巷１８號","OBJECTID":424409},"geometry":{"x":165811.03000000026,"y":2550561.870000001}},{"attributes":{"ID":424435,"DIS_CODE":0,"TOWNNAME":"安南區","LI":"溪心里","LIN":"14鄰","STREET":"本原街","SECT":"二段","MAREA":" ","LANE":"５３２巷","ALLEY":" ","HOUSE_NO":"２０號","E_COORD97":165808.97,"N_COORD97":2550565.2000000002,"ADDRESS":"本原街二段５３２巷２０號","OBJECTID":424410},"geometry":{"x":165808.96999999974,"y":2550565.1999999993}},{"attributes":{"ID":424436,"DIS_CODE":0,"TOWNNAME":"安南區","LI":"溪心里","LIN":"14鄰","STREET":"本原街","SECT":"二段","MAREA":" ","LANE":"５３２巷","ALLEY":" ","HOUSE_NO":"２２號","E_COORD97":165806.26999999999,"N_COORD97":2550568.3799999999,"ADDRESS":"本原街二段５３２巷２２號","OBJECTID":424411},"geometry":{"x":165806.27000000048,"y":2550568.3800000008}},{"attributes":{"ID":424437,"DIS_CODE":0,"TOWNNAME":"安南區","LI":"溪心里","LIN":"14鄰","STREET":"本原街","SECT":"二段","MAREA":" ","LANE":"５３２巷","ALLEY":" ","HOUSE_NO":"２６號","E_COORD97":165803.73000000001,"N_COORD97":2550572.0299999998,"ADDRESS":"本原街二段５３２巷２６號","OBJECTID":424412},"geometry":{"x":165803.73000000138,"y":2550572.0299999993}},{"attributes":{"ID":424438,"DIS_CODE":0,"TOWNNAME":"安南區","LI":"溪心里","LIN":"14鄰","STREET":"本原街","SECT":"二段","MAREA":" ","LANE":"５３２巷","ALLEY":" ","HOUSE_NO":"２８號","E_COORD97":165801.51000000001,"N_COORD97":2550574.5699999998,"ADDRESS":"本原街二段５３２巷２８號","OBJECTID":424413},"geometry":{"x":165801.51000000071,"y":2550574.570000004}},{"attributes":{"ID":424439,"DIS_CODE":0,"TOWNNAME":"安南區","LI":"溪心里","LIN":"14鄰","STREET":"本原街","SECT":"二段","MAREA":" ","LANE":"５３２巷","ALLEY":" ","HOUSE_NO":"３０號","E_COORD97":165799.29000000001,"N_COORD97":2550578.3799999999,"ADDRESS":"本原街二段５３２巷３０號","OBJECTID":424414},"geometry":{"x":165799.29000000097,"y":2550578.3800000008}},{"attributes":{"ID":424440,"DIS_CODE":0,"TOWNNAME":"安南區","LI":"頂安里","LIN":"4鄰","STREET":"長溪路","SECT":"一段","MAREA":" ","LANE":"４９０巷","ALLEY":" ","HOUSE_NO":"１８號","E_COORD97":168553.07000000001,"N_COORD97":2549104.8700000001,"ADDRESS":"長溪路一段４９０巷１８號","OBJECTID":424415},"geometry":{"x":168553.0700000003,"y":2549104.8699999992}},{"attributes":{"ID":424441,"DIS_CODE":0,"TOWNNAME":"安南區","LI":"頂安里","LIN":"4鄰","STREET":"長溪路","SECT":"一段","MAREA":" ","LANE":"４９０巷","ALLEY":" ","HOUSE_NO":"２０號","E_COORD97":168558.01999999999,"N_COORD97":2549106.3900000001,"ADDRESS":"長溪路一段４９０巷２０號","OBJECTID":424416},"geometry":{"x":168558.01999999955,"y":2549106.3900000006}},{"attributes":{"ID":424442,"DIS_CODE":0,"TOWNNAME":"安南區","LI":"頂安里","LIN":"4鄰","STREET":"長溪路","SECT":"一段","MAREA":" ","LANE":"４９０巷","ALLEY":" ","HOUSE_NO":"２２號","E_COORD97":168562.98000000001,"N_COORD97":2549111.3399999999,"ADDRESS":"長溪路一段４９０巷２２號","OBJECTID":424417},"geometry":{"x":168562.98000000045,"y":2549111.3400000017}},{"attributes":{"ID":424443,"DIS_CODE":0,"TOWNNAME":"安南區","LI":"頂安里","LIN":"4鄰","STREET":"長溪路","SECT":"一段","MAREA":" ","LANE":"４７６巷","ALLEY":" ","HOUSE_NO":"２１號","E_COORD97":168557.26000000001,"N_COORD97":2549075.5299999998,"ADDRESS":"長溪路一段４７６巷２１號","OBJECTID":424418},"geometry":{"x":168557.26000000071,"y":2549075.5300000012}},{"attributes":{"ID":424444,"DIS_CODE":0,"TOWNNAME":"東區","LI":"東門里","LIN":"17鄰","STREET":"東門路","SECT":"一段","MAREA":" ","LANE":"１３５巷","ALLEY":" ","HOUSE_NO":"１號","E_COORD97":169481.92999999999,"N_COORD97":2543194.1299999999,"ADDRESS":"東門路一段１３５巷１號","OBJECTID":424419},"geometry":{"x":169481.93000000063,"y":2543194.129999999}},{"attributes":{"ID":424445,"DIS_CODE":0,"TOWNNAME":"仁德區","LI":"後壁里","LIN":"40鄰","STREET":"德安路","SECT":" ","MAREA":" ","LANE":" ","ALLEY":" ","HOUSE_NO":"１２０號","E_COORD97":173545.04999999999,"N_COORD97":2538955.0699999998,"ADDRESS":"德安路１２０號","OBJECTID":424420},"geometry":{"x":173545.04999999981,"y":2538955.0700000003}},{"attributes":{"ID":424446,"DIS_CODE":0,"TOWNNAME":"東區","LI":"東門里","LIN":"17鄰","STREET":"東門路","SECT":"一段","MAREA":" ","LANE":"１３５巷","ALLEY":" ","HOUSE_NO":"２號","E_COORD97":169487.98000000001,"N_COORD97":2543233.3399999999,"ADDRESS":"東門路一段１３５巷２號","OBJECTID":424421},"geometry":{"x":169487.98000000045,"y":2543233.3400000017}},{"attributes":{"ID":424447,"DIS_CODE":0,"TOWNNAME":"東區","LI":"東門里","LIN":"22鄰","STREET":"東榮街","SECT":" ","MAREA":" ","LANE":"１１５巷","ALLEY":" ","HOUSE_NO":"１２號","E_COORD97":169588.60999999999,"N_COORD97":2543206.0299999998,"ADDRESS":"東榮街１１５巷１２號","OBJECTID":424422},"geometry":{"x":169588.61000000034,"y":2543206.0299999975}},{"attributes":{"ID":424448,"DIS_CODE":0,"TOWNNAME":"東區","LI":"東門里","LIN":"22鄰","STREET":"東榮街","SECT":" ","MAREA":" ","LANE":"１１５巷","ALLEY":" ","HOUSE_NO":"１３號","E_COORD97":169568.04000000001,"N_COORD97":2543259.7799999998,"ADDRESS":"東榮街１１５巷１３號","OBJECTID":424423},"geometry":{"x":169568.04000000097,"y":2543259.7800000012}},{"attributes":{"ID":424449,"DIS_CODE":0,"TOWNNAME":"東區","LI":"東門里","LIN":"22鄰","STREET":"東榮街","SECT":" ","MAREA":" ","LANE":"１１５巷","ALLEY":" ","HOUSE_NO":"１４號","E_COORD97":169592.57000000001,"N_COORD97":2543205.1699999999,"ADDRESS":"東榮街１１５巷１４號","OBJECTID":424424},"geometry":{"x":169592.5700000003,"y":2543205.1699999999}},{"attributes":{"ID":424450,"DIS_CODE":0,"TOWNNAME":"東區","LI":"東門里","LIN":"22鄰","STREET":"東榮街","SECT":" ","MAREA":" ","LANE":"１１５巷","ALLEY":" ","HOUSE_NO":"１５號","E_COORD97":169568.64000000001,"N_COORD97":2543263.7400000002,"ADDRESS":"東榮街１１５巷１５號","OBJECTID":424425},"geometry":{"x":169568.6400000006,"y":2543263.7400000021}},{"attributes":{"ID":424451,"DIS_CODE":0,"TOWNNAME":"東區","LI":"東門里","LIN":"22鄰","STREET":"東榮街","SECT":" ","MAREA":" ","LANE":"１１５巷","ALLEY":" ","HOUSE_NO":"１６號","E_COORD97":169601.17000000001,"N_COORD97":2543204.1400000001,"ADDRESS":"東榮街１１５巷１６號","OBJECTID":424426},"geometry":{"x":169601.17000000086,"y":2543204.1400000025}},{"attributes":{"ID":424452,"DIS_CODE":0,"TOWNNAME":"東區","LI":"東門里","LIN":"22鄰","STREET":"東榮街","SECT":" ","MAREA":" ","LANE":"１１５巷","ALLEY":" ","HOUSE_NO":"１７號","E_COORD97":169569.67000000001,"N_COORD97":2543268.04,"ADDRESS":"東榮街１１５巷１７號","OBJECTID":424427},"geometry":{"x":169569.66999999993,"y":2543268.040000001}},{"attributes":{"ID":424453,"DIS_CODE":0,"TOWNNAME":"東區","LI":"東門里","LIN":"22鄰","STREET":"東榮街","SECT":" ","MAREA":" ","LANE":"１１５巷","ALLEY":" ","HOUSE_NO":"１８號","E_COORD97":169603.39999999999,"N_COORD97":2543213.6299999999,"ADDRESS":"東榮街１１５巷１８號","OBJECTID":424428},"geometry":{"x":169603.4000000013,"y":2543213.6300000008}},{"attributes":{"ID":424454,"DIS_CODE":0,"TOWNNAME":"東區","LI":"東門里","LIN":"22鄰","STREET":"東榮街","SECT":" ","MAREA":" ","LANE":"１１５巷","ALLEY":" ","HOUSE_NO":"１９號","E_COORD97":169570.95999999999,"N_COORD97":2543271.6600000001,"ADDRESS":"東榮街１１５巷１９號","OBJECTID":424429},"geometry":{"x":169570.95999999996,"y":2543271.660000002}},{"attributes":{"ID":424455,"DIS_CODE":0,"TOWNNAME":"東區","LI":"東門里","LIN":"22鄰","STREET":"東榮街","SECT":" ","MAREA":" ","LANE":"１１５巷","ALLEY":" ","HOUSE_NO":"２１號","E_COORD97":169571.64999999999,"N_COORD97":2543275.7000000002,"ADDRESS":"東榮街１１５巷２１號","OBJECTID":424430},"geometry":{"x":169571.65000000037,"y":2543275.6999999993}},{"attributes":{"ID":424456,"DIS_CODE":0,"TOWNNAME":"東區","LI":"東門里","LIN":"22鄰","STREET":"東榮街","SECT":" ","MAREA":" ","LANE":"１１５巷","ALLEY":" ","HOUSE_NO":"２３號","E_COORD97":169572.67999999999,"N_COORD97":2543279.1400000001,"ADDRESS":"東榮街１１５巷２３號","OBJECTID":424431},"geometry":{"x":169572.6799999997,"y":2543279.1400000025}},{"attributes":{"ID":424457,"DIS_CODE":0,"TOWNNAME":"東區","LI":"東門里","LIN":"25鄰","STREET":"東門路","SECT":"一段","MAREA":" ","LANE":"１３１巷","ALLEY":" ","HOUSE_NO":"１６號","E_COORD97":169454.60999999999,"N_COORD97":2543318.6400000001,"ADDRESS":"東門路一段１３１巷１６號","OBJECTID":424432},"geometry":{"x":169454.61000000127,"y":2543318.6400000043}},{"attributes":{"ID":424458,"DIS_CODE":0,"TOWNNAME":"東區","LI":"泉南里","LIN":"17鄰","STREET":"光華街","SECT":" ","MAREA":" ","LANE":"１１９巷","ALLEY":" ","HOUSE_NO":"６０號","E_COORD97":169707.89999999999,"N_COORD97":2542819.73,"ADDRESS":"光華街１１９巷６０號","OBJECTID":424433},"geometry":{"x":169707.90000000224,"y":2542819.7300000042}},{"attributes":{"ID":424459,"DIS_CODE":0,"TOWNNAME":"仁德區","LI":"田厝里","LIN":"4鄰","STREET":"田厝三街","SECT":" ","MAREA":" ","LANE":"９３巷","ALLEY":" ","HOUSE_NO":"３號","E_COORD97":172564,"N_COORD97":2537460.4900000002,"ADDRESS":"田厝三街９３巷３號","OBJECTID":424434},"geometry":{"x":172564.00000000093,"y":2537460.4900000002}},{"attributes":{"ID":424460,"DIS_CODE":0,"TOWNNAME":"官田區","LI":"隆田里","LIN":"12鄰","STREET":"大同街","SECT":" ","MAREA":" ","LANE":"１４巷","ALLEY":" ","HOUSE_NO":"１５號","E_COORD97":180180.07000000001,"N_COORD97":2565971.6200000001,"ADDRESS":"大同街１４巷１５號","OBJECTID":424435},"geometry":{"x":180180.07000000123,"y":2565971.6200000029}},{"attributes":{"ID":424461,"DIS_CODE":0,"TOWNNAME":"官田區","LI":"隆田里","LIN":"12鄰","STREET":"大同街","SECT":" ","MAREA":" ","LANE":"１４巷","ALLEY":" ","HOUSE_NO":"１６號","E_COORD97":180161.35000000001,"N_COORD97":2565970.9199999999,"ADDRESS":"大同街１４巷１６號","OBJECTID":424436},"geometry":{"x":180161.34999999963,"y":2565970.9200000018}},{"attributes":{"ID":424462,"DIS_CODE":0,"TOWNNAME":"官田區","LI":"隆田里","LIN":"12鄰","STREET":"大同街","SECT":" ","MAREA":" ","LANE":"１４巷","ALLEY":" ","HOUSE_NO":"１７號","E_COORD97":180179.64999999999,"N_COORD97":2565975.73,"ADDRESS":"大同街１４巷１７號","OBJECTID":424437},"geometry":{"x":180179.6500000013,"y":2565975.7300000042}},{"attributes":{"ID":424463,"DIS_CODE":0,"TOWNNAME":"官田區","LI":"隆田里","LIN":"12鄰","STREET":"大同街","SECT":" ","MAREA":" ","LANE":"１４巷","ALLEY":" ","HOUSE_NO":"１８號","E_COORD97":180161.51000000001,"N_COORD97":2565975.2999999998,"ADDRESS":"大同街１４巷１８號","OBJECTID":424438},"geometry":{"x":180161.51000000071,"y":2565975.3000000007}},{"attributes":{"ID":424464,"DIS_CODE":0,"TOWNNAME":"官田區","LI":"二鎮里","LIN":"25鄰","STREET":"工社西街","SECT":" ","MAREA":" ","LANE":"２５巷","ALLEY":" ","HOUSE_NO":"１３號之１","E_COORD97":180926.81,"N_COORD97":2568765.1400000001,"ADDRESS":"工社西街２５巷１３號之１","OBJECTID":424439},"geometry":{"x":180926.81000000052,"y":2568765.1400000025}},{"attributes":{"ID":424465,"DIS_CODE":0,"TOWNNAME":"官田區","LI":"二鎮里","LIN":"25鄰","STREET":"工社西街","SECT":" ","MAREA":" ","LANE":"２５巷","ALLEY":" ","HOUSE_NO":"１３號","E_COORD97":180919.92000000001,"N_COORD97":2568778.1400000001,"ADDRESS":"工社西街２５巷１３號","OBJECTID":424440},"geometry":{"x":180919.92000000086,"y":2568778.1400000025}},{"attributes":{"ID":424466,"DIS_CODE":0,"TOWNNAME":"官田區","LI":"二鎮里","LIN":"25鄰","STREET":"工社西街","SECT":" ","MAREA":" ","LANE":"２５巷","ALLEY":" ","HOUSE_NO":"１４號","E_COORD97":180951.14000000001,"N_COORD97":2568771.8599999999,"ADDRESS":"工社西街２５巷１４號","OBJECTID":424441},"geometry":{"x":180951.13999999966,"y":2568771.8600000013}},{"attributes":{"ID":424467,"DIS_CODE":0,"TOWNNAME":"官田區","LI":"二鎮里","LIN":"25鄰","STREET":"工社西街","SECT":" ","MAREA":" ","LANE":"２５巷","ALLEY":" ","HOUSE_NO":"１５號","E_COORD97":180958.98999999999,"N_COORD97":2568773.8100000001,"ADDRESS":"工社西街２５巷１５號","OBJECTID":424442},"geometry":{"x":180958.99000000022,"y":2568773.8100000024}},{"attributes":{"ID":424468,"DIS_CODE":0,"TOWNNAME":"官田區","LI":"二鎮里","LIN":"25鄰","STREET":"工社西街","SECT":" ","MAREA":" ","LANE":"２５巷","ALLEY":" ","HOUSE_NO":"１９號","E_COORD97":180985.59,"N_COORD97":2568786.3500000001,"ADDRESS":"工社西街２５巷１９號","OBJECTID":424443},"geometry":{"x":180985.58999999985,"y":2568786.3500000015}},{"attributes":{"ID":424469,"DIS_CODE":0,"TOWNNAME":"官田區","LI":"二鎮里","LIN":"25鄰","STREET":"工社西街","SECT":" ","MAREA":" ","LANE":"２５巷","ALLEY":" ","HOUSE_NO":"２１號","E_COORD97":181000.5,"N_COORD97":2568789.6299999999,"ADDRESS":"工社西街２５巷２１號","OBJECTID":424444},"geometry":{"x":181000.50000000093,"y":2568789.6300000008}},{"attributes":{"ID":424470,"DIS_CODE":0,"TOWNNAME":"官田區","LI":"二鎮里","LIN":"25鄰","STREET":"工社西街","SECT":" ","MAREA":" ","LANE":"２５巷","ALLEY":" ","HOUSE_NO":"２２號","E_COORD97":181008.82999999999,"N_COORD97":2568791.75,"ADDRESS":"工社西街２５巷２２號","OBJECTID":424445},"geometry":{"x":181008.83000000101,"y":2568791.75}},{"attributes":{"ID":424471,"DIS_CODE":0,"TOWNNAME":"官田區","LI":"二鎮里","LIN":"25鄰","STREET":"工社西街","SECT":" ","MAREA":" ","LANE":"２５巷","ALLEY":" ","HOUSE_NO":"２３號","E_COORD97":181018.09,"N_COORD97":2568793.6000000001,"ADDRESS":"工社西街２５巷２３號","OBJECTID":424446},"geometry":{"x":181018.09000000171,"y":2568793.6000000015}},{"attributes":{"ID":424472,"DIS_CODE":0,"TOWNNAME":"官田區","LI":"二鎮里","LIN":"25鄰","STREET":"工社西街","SECT":" ","MAREA":" ","LANE":"２５巷","ALLEY":" ","HOUSE_NO":"３２號","E_COORD97":181066,"N_COORD97":2568805.75,"ADDRESS":"工社西街２５巷３２號","OBJECTID":424447},"geometry":{"x":181066,"y":2568805.75}},{"attributes":{"ID":424473,"DIS_CODE":0,"TOWNNAME":"官田區","LI":"二鎮里","LIN":"25鄰","STREET":"工社西街","SECT":" ","MAREA":" ","LANE":"２５巷","ALLEY":" ","HOUSE_NO":"３號","E_COORD97":180841.57000000001,"N_COORD97":2568747.0099999998,"ADDRESS":"工社西街２５巷３號","OBJECTID":424448},"geometry":{"x":180841.5700000003,"y":2568747.0100000016}},{"attributes":{"ID":424474,"DIS_CODE":0,"TOWNNAME":"官田區","LI":"隆田里","LIN":"4鄰","STREET":"中山路","SECT":"一段","MAREA":" ","LANE":"４１巷","ALLEY":" ","HOUSE_NO":"１號","E_COORD97":180178.20000000001,"N_COORD97":2565752.1400000001,"ADDRESS":"中山路一段４１巷１號","OBJECTID":424449},"geometry":{"x":180178.20000000019,"y":2565752.1400000006}},{"attributes":{"ID":424475,"DIS_CODE":0,"TOWNNAME":"官田區","LI":"隆田里","LIN":"10鄰","STREET":"中山路","SECT":"一段","MAREA":" ","LANE":"６２巷","ALLEY":" ","HOUSE_NO":"１０號","E_COORD97":180165.94,"N_COORD97":2565844.98,"ADDRESS":"中山路一段６２巷１０號","OBJECTID":424450},"geometry":{"x":180165.94000000134,"y":2565844.9800000004}},{"attributes":{"ID":424476,"DIS_CODE":0,"TOWNNAME":"官田區","LI":"隆田里","LIN":"10鄰","STREET":"中山路","SECT":"一段","MAREA":" ","LANE":"６２巷","ALLEY":" ","HOUSE_NO":"１１號","E_COORD97":180183.98000000001,"N_COORD97":2565843.9199999999,"ADDRESS":"中山路一段６２巷１１號","OBJECTID":424451},"geometry":{"x":180183.98000000138,"y":2565843.9199999999}},{"attributes":{"ID":424477,"DIS_CODE":0,"TOWNNAME":"官田區","LI":"隆田里","LIN":"10鄰","STREET":"中山路","SECT":"一段","MAREA":" ","LANE":"６２巷","ALLEY":" ","HOUSE_NO":"１２號","E_COORD97":180166.04999999999,"N_COORD97":2565848.9100000001,"ADDRESS":"中山路一段６２巷１２號","OBJECTID":424452},"geometry":{"x":180166.05000000075,"y":2565848.9100000039}},{"attributes":{"ID":424478,"DIS_CODE":0,"TOWNNAME":"官田區","LI":"隆田里","LIN":"10鄰","STREET":"中山路","SECT":"一段","MAREA":" ","LANE":"６２巷","ALLEY":" ","HOUSE_NO":"１３號","E_COORD97":180184.07999999999,"N_COORD97":2565848.3100000001,"ADDRESS":"中山路一段６２巷１３號","OBJECTID":424453},"geometry":{"x":180184.08000000007,"y":2565848.3100000005}},{"attributes":{"ID":424479,"DIS_CODE":0,"TOWNNAME":"官田區","LI":"隆田里","LIN":"10鄰","STREET":"中山路","SECT":"一段","MAREA":" ","LANE":"６２巷","ALLEY":" ","HOUSE_NO":"１４號","E_COORD97":180165.97,"N_COORD97":2565853.5499999998,"ADDRESS":"中山路一段６２巷１４號","OBJECTID":424454},"geometry":{"x":180165.9700000016,"y":2565853.5500000026}},{"attributes":{"ID":424480,"DIS_CODE":0,"TOWNNAME":"官田區","LI":"隆田里","LIN":"10鄰","STREET":"中山路","SECT":"一段","MAREA":" ","LANE":"６２巷","ALLEY":" ","HOUSE_NO":"１５號","E_COORD97":180184.12,"N_COORD97":2565852.8399999999,"ADDRESS":"中山路一段６２巷１５號","OBJECTID":424455},"geometry":{"x":180184.12000000197,"y":2565852.8400000017}},{"attributes":{"ID":424481,"DIS_CODE":0,"TOWNNAME":"官田區","LI":"隆田里","LIN":"10鄰","STREET":"中山路","SECT":"一段","MAREA":" ","LANE":"６２巷","ALLEY":" ","HOUSE_NO":"１６號","E_COORD97":180165.92000000001,"N_COORD97":2565857.7000000002,"ADDRESS":"中山路一段６２巷１６號","OBJECTID":424456},"geometry":{"x":180165.91999999993,"y":2565857.7000000011}},{"attributes":{"ID":424482,"DIS_CODE":0,"TOWNNAME":"官田區","LI":"隆田里","LIN":"10鄰","STREET":"中山路","SECT":"一段","MAREA":" ","LANE":"６２巷","ALLEY":" ","HOUSE_NO":"１７號","E_COORD97":180184.12,"N_COORD97":2565856.8599999999,"ADDRESS":"中山路一段６２巷１７號","OBJECTID":424457},"geometry":{"x":180184.12000000197,"y":2565856.8600000013}},{"attributes":{"ID":424483,"DIS_CODE":0,"TOWNNAME":"官田區","LI":"隆田里","LIN":"10鄰","STREET":"中山路","SECT":"一段","MAREA":" ","LANE":"６２巷","ALLEY":" ","HOUSE_NO":"１８號","E_COORD97":180165.92000000001,"N_COORD97":2565861.6600000001,"ADDRESS":"中山路一段６２巷１８號","OBJECTID":424458},"geometry":{"x":180165.91999999993,"y":2565861.660000002}},{"attributes":{"ID":424484,"DIS_CODE":0,"TOWNNAME":"官田區","LI":"隆田里","LIN":"10鄰","STREET":"中山路","SECT":"一段","MAREA":" ","LANE":"６２巷","ALLEY":" ","HOUSE_NO":"１９號","E_COORD97":180184.01999999999,"N_COORD97":2565861.52,"ADDRESS":"中山路一段６２巷１９號","OBJECTID":424459},"geometry":{"x":180184.01999999862,"y":2565861.5200000014}},{"attributes":{"ID":424485,"DIS_CODE":0,"TOWNNAME":"官田區","LI":"隆田里","LIN":"10鄰","STREET":"中山路","SECT":"一段","MAREA":" ","LANE":"６２巷","ALLEY":" ","HOUSE_NO":"１號","E_COORD97":180183.92999999999,"N_COORD97":2565822.1699999999,"ADDRESS":"中山路一段６２巷１號","OBJECTID":424460},"geometry":{"x":180183.93000000063,"y":2565822.1699999999}},{"attributes":{"ID":424486,"DIS_CODE":0,"TOWNNAME":"官田區","LI":"隆田里","LIN":"10鄰","STREET":"中山路","SECT":"一段","MAREA":" ","LANE":"６２巷","ALLEY":" ","HOUSE_NO":"２號","E_COORD97":180164.39999999999,"N_COORD97":2565827.3199999998,"ADDRESS":"中山路一段６２巷２號","OBJECTID":424461},"geometry":{"x":180164.4000000013,"y":2565827.3200000022}},{"attributes":{"ID":424487,"DIS_CODE":0,"TOWNNAME":"中西區","LI":"西湖里","LIN":"38鄰","STREET":"中華西路","SECT":"二段","MAREA":" ","LANE":"８５１巷","ALLEY":" ","HOUSE_NO":"１４０號","E_COORD97":166288.72,"N_COORD97":2545061.7400000002,"ADDRESS":"中華西路二段８５１巷１４０號","OBJECTID":424462},"geometry":{"x":166288.71999999974,"y":2545061.7400000021}},{"attributes":{"ID":424488,"DIS_CODE":0,"TOWNNAME":"官田區","LI":"隆田里","LIN":"25鄰","STREET":"中山路","SECT":"二段","MAREA":" ","LANE":"５３巷","ALLEY":" ","HOUSE_NO":"３號","E_COORD97":179018.14999999999,"N_COORD97":2565945.0600000001,"ADDRESS":"中山路二段５３巷３號","OBJECTID":424463},"geometry":{"x":179018.1500000013,"y":2565945.0600000005}},{"attributes":{"ID":424489,"DIS_CODE":0,"TOWNNAME":"中西區","LI":"西湖里","LIN":"34鄰","STREET":"湖美二街","SECT":" ","MAREA":" ","LANE":"１０６巷","ALLEY":" ","HOUSE_NO":"３５號","E_COORD97":166234.75,"N_COORD97":2544857.5,"ADDRESS":"湖美二街１０６巷３５號","OBJECTID":424464},"geometry":{"x":166234.75,"y":2544857.5}},{"attributes":{"ID":424490,"DIS_CODE":0,"TOWNNAME":"中西區","LI":"西湖里","LIN":"34鄰","STREET":"湖美二街","SECT":" ","MAREA":" ","LANE":"１０６巷","ALLEY":" ","HOUSE_NO":"３７號","E_COORD97":166239.82999999999,"N_COORD97":2544857.1800000002,"ADDRESS":"湖美二街１０６巷３７號","OBJECTID":424465},"geometry":{"x":166239.83000000101,"y":2544857.1800000016}},{"attributes":{"ID":424491,"DIS_CODE":0,"TOWNNAME":"中西區","LI":" ","LIN":" ","STREET":"湖美二街","SECT":" ","MAREA":" ","LANE":"１４２巷","ALLEY":" ","HOUSE_NO":"３２號","E_COORD97":166292.5,"N_COORD97":2545030.2400000002,"ADDRESS":"湖美二街１４２巷３２號","OBJECTID":424466},"geometry":{"x":166292.5,"y":2545030.2400000021}},{"attributes":{"ID":424492,"DIS_CODE":0,"TOWNNAME":"安南區","LI":"新順里","LIN":"24鄰","STREET":"修安街","SECT":" ","MAREA":" ","LANE":"６６巷","ALLEY":" ","HOUSE_NO":"９號","E_COORD97":169402.73000000001,"N_COORD97":2549218.79,"ADDRESS":"修安街６６巷９號","OBJECTID":424467},"geometry":{"x":169402.73000000138,"y":2549218.7900000028}},{"attributes":{"ID":424493,"DIS_CODE":0,"TOWNNAME":"中西區","LI":"西賢里","LIN":"8鄰","STREET":"西賢一街","SECT":" ","MAREA":" ","LANE":"５６巷","ALLEY":" ","HOUSE_NO":"１號","E_COORD97":165733.28,"N_COORD97":2544564.9100000001,"ADDRESS":"西賢一街５６巷１號","OBJECTID":424468},"geometry":{"x":165733.28000000212,"y":2544564.910000002}},{"attributes":{"ID":424494,"DIS_CODE":0,"TOWNNAME":"中西區","LI":" ","LIN":" ","STREET":"健康路","SECT":"一段","MAREA":" ","LANE":"３１０巷","ALLEY":" ","HOUSE_NO":"中西區６號","E_COORD97":168267.84,"N_COORD97":2542470.2400000002,"ADDRESS":"健康路一段３１０巷中西區６號","OBJECTID":424469},"geometry":{"x":168267.83999999985,"y":2542470.2400000039}},{"attributes":{"ID":424495,"DIS_CODE":0,"TOWNNAME":"新營區","LI":"永生里","LIN":" ","STREET":"康樂街","SECT":" ","MAREA":" ","LANE":"１巷","ALLEY":" ","HOUSE_NO":"２號２樓","E_COORD97":180078.88,"N_COORD97":2577920.0699999998,"ADDRESS":"康樂街１巷２號２樓","OBJECTID":424470},"geometry":{"x":180078.88000000082,"y":2577920.0700000003}},{"attributes":{"ID":424496,"DIS_CODE":0,"TOWNNAME":"中西區","LI":" ","LIN":" ","STREET":"健康路","SECT":"一段","MAREA":" ","LANE":"３１０巷","ALLEY":" ","HOUSE_NO":"１０號","E_COORD97":168268.60000000001,"N_COORD97":2542489.7999999998,"ADDRESS":"健康路一段３１０巷１０號","OBJECTID":424471},"geometry":{"x":168268.60000000056,"y":2542489.8000000007}},{"attributes":{"ID":424497,"DIS_CODE":0,"TOWNNAME":"中西區","LI":" ","LIN":" ","STREET":"中華西路","SECT":"二段","MAREA":" ","LANE":"７９１巷","ALLEY":" ","HOUSE_NO":"３３號","E_COORD97":166518.16,"N_COORD97":2545024.8100000001,"ADDRESS":"中華西路二段７９１巷３３號","OBJECTID":424472},"geometry":{"x":166518.16000000015,"y":2545024.8100000005}},{"attributes":{"ID":424498,"DIS_CODE":0,"TOWNNAME":"中西區","LI":"協和里","LIN":"12鄰","STREET":"中華西路","SECT":"二段","MAREA":" ","LANE":"８５１巷","ALLEY":" ","HOUSE_NO":"１１５號","E_COORD97":166351.79000000001,"N_COORD97":2545073.23,"ADDRESS":"中華西路二段８５１巷１１５號","OBJECTID":424473},"geometry":{"x":166351.7900000019,"y":2545073.2300000004}},{"attributes":{"ID":424499,"DIS_CODE":0,"TOWNNAME":"中西區","LI":"協和里","LIN":"9鄰","STREET":"臨安路","SECT":"一段","MAREA":" ","LANE":"二六七巷","ALLEY":" ","HOUSE_NO":"２之１號","E_COORD97":167368.56,"N_COORD97":2544741.0699999998,"ADDRESS":"臨安路一段二六七巷２之１號","OBJECTID":424474},"geometry":{"x":167368.56000000052,"y":2544741.0700000022}},{"attributes":{"ID":424500,"DIS_CODE":0,"TOWNNAME":"中西區","LI":"仙草里","LIN":"19鄰","STREET":"健康路","SECT":"一段","MAREA":" ","LANE":"三九０巷","ALLEY":" ","HOUSE_NO":"２之１號","E_COORD97":167850.91,"N_COORD97":2542474.9300000002,"ADDRESS":"健康路一段三九０巷２之１號","OBJECTID":424475},"geometry":{"x":167850.91000000015,"y":2542474.9300000034}},{"attributes":{"ID":424501,"DIS_CODE":0,"TOWNNAME":"中西區","LI":"郡王里","LIN":"18鄰","STREET":"府前路","SECT":"一段","MAREA":" ","LANE":"十七五巷","ALLEY":" ","HOUSE_NO":"２２號","E_COORD97":168632.42000000001,"N_COORD97":2543195.7400000002,"ADDRESS":"府前路一段十七五巷２２號","OBJECTID":424476},"geometry":{"x":168632.42000000179,"y":2543195.7400000039}},{"attributes":{"ID":424502,"DIS_CODE":0,"TOWNNAME":"中西區","LI":"郡王里","LIN":"18鄰","STREET":"府前路","SECT":"一段","MAREA":" ","LANE":"十七五巷","ALLEY":" ","HOUSE_NO":"１號","E_COORD97":168563.75,"N_COORD97":2543234.9500000002,"ADDRESS":"府前路一段十七五巷１號","OBJECTID":424477},"geometry":{"x":168563.75,"y":2543234.9500000011}},{"attributes":{"ID":424503,"DIS_CODE":0,"TOWNNAME":"中西區","LI":"西湖里","LIN":"33鄰","STREET":"和緯路","SECT":"五段","MAREA":" ","LANE":"８９巷","ALLEY":" ","HOUSE_NO":"９０號","E_COORD97":166386.5,"N_COORD97":2545006.73,"ADDRESS":"和緯路五段８９巷９０號","OBJECTID":424478},"geometry":{"x":166386.50000000093,"y":2545006.7300000023}},{"attributes":{"ID":424504,"DIS_CODE":0,"TOWNNAME":"中西區","LI":"西賢里","LIN":"20鄰","STREET":"西賢一街","SECT":" ","MAREA":" ","LANE":"１３７巷","ALLEY":" ","HOUSE_NO":"２８號","E_COORD97":165638.5,"N_COORD97":2544823.2000000002,"ADDRESS":"西賢一街１３７巷２８號","OBJECTID":424479},"geometry":{"x":165638.50000000093,"y":2544823.2000000011}},{"attributes":{"ID":424505,"DIS_CODE":0,"TOWNNAME":"中西區","LI":"西賢里","LIN":"20鄰","STREET":"西賢一街","SECT":" ","MAREA":" ","LANE":"１３７巷","ALLEY":" ","HOUSE_NO":"３０號","E_COORD97":165632.14999999999,"N_COORD97":2544822.3999999999,"ADDRESS":"西賢一街１３７巷３０號","OBJECTID":424480},"geometry":{"x":165632.15000000037,"y":2544822.4000000022}},{"attributes":{"ID":424506,"DIS_CODE":0,"TOWNNAME":"中西區","LI":"西賢里","LIN":"20鄰","STREET":"西賢一街","SECT":" ","MAREA":" ","LANE":"１３７巷","ALLEY":" ","HOUSE_NO":"３２號","E_COORD97":165623.95000000001,"N_COORD97":2544822.3999999999,"ADDRESS":"西賢一街１３７巷３２號","OBJECTID":424481},"geometry":{"x":165623.95000000112,"y":2544822.4000000022}},{"attributes":{"ID":424507,"DIS_CODE":0,"TOWNNAME":"中西區","LI":"西賢里","LIN":"20鄰","STREET":"西賢一街","SECT":" ","MAREA":" ","LANE":"１３７巷","ALLEY":" ","HOUSE_NO":"３６號","E_COORD97":165615.75,"N_COORD97":2544822.6699999999,"ADDRESS":"西賢一街１３７巷３６號","OBJECTID":424482},"geometry":{"x":165615.75,"y":2544822.6699999999}},{"attributes":{"ID":424508,"DIS_CODE":0,"TOWNNAME":"中西區","LI":"西賢里","LIN":"20鄰","STREET":"西賢一街","SECT":" ","MAREA":" ","LANE":"１３７巷","ALLEY":" ","HOUSE_NO":"３８號","E_COORD97":165603.84,"N_COORD97":2544823.2000000002,"ADDRESS":"西賢一街１３７巷３８號","OBJECTID":424483},"geometry":{"x":165603.84000000078,"y":2544823.2000000011}},{"attributes":{"ID":424509,"DIS_CODE":0,"TOWNNAME":"中西區","LI":"西賢里","LIN":"20鄰","STREET":"西賢一街","SECT":" ","MAREA":" ","LANE":"１３７巷","ALLEY":" ","HOUSE_NO":"４０號","E_COORD97":165592.45999999999,"N_COORD97":2544824.2599999998,"ADDRESS":"西賢一街１３７巷４０號","OBJECTID":424484},"geometry":{"x":165592.45999999996,"y":2544824.2599999998}},{"attributes":{"ID":424510,"DIS_CODE":0,"TOWNNAME":"中西區","LI":"西賢里","LIN":"20鄰","STREET":"西賢一街","SECT":" ","MAREA":" ","LANE":"１３７巷","ALLEY":" ","HOUSE_NO":"４２號","E_COORD97":165580.56,"N_COORD97":2544824.7799999998,"ADDRESS":"西賢一街１３７巷４２號","OBJECTID":424485},"geometry":{"x":165580.56000000052,"y":2544824.7799999993}},{"attributes":{"ID":424511,"DIS_CODE":0,"TOWNNAME":"中西區","LI":"西賢里","LIN":"20鄰","STREET":"西賢一街","SECT":" ","MAREA":" ","LANE":"１５９巷","ALLEY":" ","HOUSE_NO":"１７號","E_COORD97":165644.32000000001,"N_COORD97":2544875.3199999998,"ADDRESS":"西賢一街１５９巷１７號","OBJECTID":424486},"geometry":{"x":165644.3200000003,"y":2544875.3200000003}},{"attributes":{"ID":424512,"DIS_CODE":0,"TOWNNAME":"中西區","LI":"西賢里","LIN":"20鄰","STREET":"西賢一街","SECT":" ","MAREA":" ","LANE":"１５９巷","ALLEY":" ","HOUSE_NO":"１９號","E_COORD97":165637.17999999999,"N_COORD97":2544874.5299999998,"ADDRESS":"西賢一街１５９巷１９號","OBJECTID":424487},"geometry":{"x":165637.18000000063,"y":2544874.5300000031}},{"attributes":{"ID":424513,"DIS_CODE":0,"TOWNNAME":"中西區","LI":"西賢里","LIN":"20鄰","STREET":"西賢一街","SECT":" ","MAREA":" ","LANE":"１５９巷","ALLEY":" ","HOUSE_NO":"２１號","E_COORD97":165630.03,"N_COORD97":2544875.3199999998,"ADDRESS":"西賢一街１５９巷２１號","OBJECTID":424488},"geometry":{"x":165630.03000000212,"y":2544875.3200000003}},{"attributes":{"ID":424514,"DIS_CODE":0,"TOWNNAME":"中西區","LI":"西賢里","LIN":"20鄰","STREET":"西賢一街","SECT":" ","MAREA":" ","LANE":"１５９巷","ALLEY":" ","HOUSE_NO":"２３號","E_COORD97":165622.62,"N_COORD97":2544874,"ADDRESS":"西賢一街１５９巷２３號","OBJECTID":424489},"geometry":{"x":165622.62000000104,"y":2544874}},{"attributes":{"ID":424515,"DIS_CODE":0,"TOWNNAME":"中西區","LI":"西賢里","LIN":"20鄰","STREET":"西賢一街","SECT":" ","MAREA":" ","LANE":"１５９巷","ALLEY":" ","HOUSE_NO":"２５號","E_COORD97":165615.75,"N_COORD97":2544874.79,"ADDRESS":"西賢一街１５９巷２５號","OBJECTID":424490},"geometry":{"x":165615.75,"y":2544874.7899999991}},{"attributes":{"ID":424516,"DIS_CODE":0,"TOWNNAME":"中西區","LI":"西賢里","LIN":"20鄰","STREET":"西賢一街","SECT":" ","MAREA":" ","LANE":"１５９巷","ALLEY":" ","HOUSE_NO":"２７號","E_COORD97":165607.01000000001,"N_COORD97":2544874.79,"ADDRESS":"西賢一街１５９巷２７號","OBJECTID":424491},"geometry":{"x":165607.00999999978,"y":2544874.7899999991}},{"attributes":{"ID":424517,"DIS_CODE":0,"TOWNNAME":"中西區","LI":"西賢里","LIN":"20鄰","STREET":"西賢一街","SECT":" ","MAREA":" ","LANE":"１５９巷","ALLEY":" ","HOUSE_NO":"３１號","E_COORD97":165590.07999999999,"N_COORD97":2544875.0600000001,"ADDRESS":"西賢一街１５９巷３１號","OBJECTID":424492},"geometry":{"x":165590.08000000007,"y":2544875.0600000005}},{"attributes":{"ID":424518,"DIS_CODE":0,"TOWNNAME":"中西區","LI":"西賢里","LIN":"20鄰","STREET":"西賢一街","SECT":" ","MAREA":" ","LANE":"１５９巷","ALLEY":" ","HOUSE_NO":"３３號","E_COORD97":165580.82000000001,"N_COORD97":2544876.1099999999,"ADDRESS":"西賢一街１５９巷３３號","OBJECTID":424493},"geometry":{"x":165580.82000000123,"y":2544876.1099999994}},{"attributes":{"ID":424519,"DIS_CODE":0,"TOWNNAME":"中西區","LI":"西賢里","LIN":"20鄰","STREET":"西賢一街","SECT":" ","MAREA":" ","LANE":"１５９巷","ALLEY":" ","HOUSE_NO":"３５號","E_COORD97":165575,"N_COORD97":2544875.8500000001,"ADDRESS":"西賢一街１５９巷３５號","OBJECTID":424494},"geometry":{"x":165575,"y":2544875.8500000034}},{"attributes":{"ID":424520,"DIS_CODE":0,"TOWNNAME":"中西區","LI":"法華里","LIN":"2鄰","STREET":"五妃街","SECT":" ","MAREA":" ","LANE":"４０巷","ALLEY":" ","HOUSE_NO":"５號","E_COORD97":169038.67999999999,"N_COORD97":2542592.3900000001,"ADDRESS":"五妃街４０巷５號","OBJECTID":424495},"geometry":{"x":169038.6799999997,"y":2542592.3900000025}},{"attributes":{"ID":424521,"DIS_CODE":0,"TOWNNAME":"中西區","LI":"法華里","LIN":"2鄰","STREET":"五妃街","SECT":" ","MAREA":" ","LANE":"４０巷","ALLEY":" ","HOUSE_NO":"２３號","E_COORD97":169070.95999999999,"N_COORD97":2542634.7200000002,"ADDRESS":"五妃街４０巷２３號","OBJECTID":424496},"geometry":{"x":169070.95999999996,"y":2542634.7200000025}},{"attributes":{"ID":424522,"DIS_CODE":0,"TOWNNAME":"中西區","LI":"西賢里","LIN":"4鄰","STREET":"湖美街","SECT":" ","MAREA":" ","LANE":"１７７巷","ALLEY":" ","HOUSE_NO":"１號","E_COORD97":165905.92000000001,"N_COORD97":2544831.9700000002,"ADDRESS":"湖美街１７７巷１號","OBJECTID":424497},"geometry":{"x":165905.91999999993,"y":2544831.9700000044}},{"attributes":{"ID":424523,"DIS_CODE":0,"TOWNNAME":"北區","LI":"中樓里","LIN":"13鄰","STREET":"開元路","SECT":" ","MAREA":" ","LANE":" ","ALLEY":" ","HOUSE_NO":"１０６號","E_COORD97":169826.89999999999,"N_COORD97":2545204.6800000002,"ADDRESS":"開元路１０６號","OBJECTID":424498},"geometry":{"x":169826.9000000013,"y":2545204.6799999997}},{"attributes":{"ID":424524,"DIS_CODE":0,"TOWNNAME":"中西區","LI":"西賢里","LIN":"4鄰","STREET":"湖美街","SECT":" ","MAREA":" ","LANE":"１７７巷","ALLEY":" ","HOUSE_NO":"３號","E_COORD97":165900.23999999999,"N_COORD97":2544832.77,"ADDRESS":"湖美街１７７巷３號","OBJECTID":424499},"geometry":{"x":165900.24000000115,"y":2544832.7700000014}},{"attributes":{"ID":424525,"DIS_CODE":0,"TOWNNAME":"安南區","LI":"安西里","LIN":"5鄰","STREET":"安通一街","SECT":" ","MAREA":" ","LANE":"１１６巷","ALLEY":" ","HOUSE_NO":"１１號","E_COORD97":168847.52980300001,"N_COORD97":2548089.5044300002,"ADDRESS":"安通一街１１６巷１１號","OBJECTID":424500},"geometry":{"x":168847.52980300225,"y":2548089.5044320039}},{"attributes":{"ID":424526,"DIS_CODE":0,"TOWNNAME":"中西區","LI":"西湖里","LIN":"32鄰","STREET":"湖美二街","SECT":" ","MAREA":" ","LANE":"１４２巷","ALLEY":" ","HOUSE_NO":"４８號","E_COORD97":166235.92000000001,"N_COORD97":2544999.46,"ADDRESS":"湖美二街１４２巷４８號","OBJECTID":424501},"geometry":{"x":166235.92000000086,"y":2544999.4600000028}},{"attributes":{"ID":424527,"DIS_CODE":0,"TOWNNAME":"安南區","LI":"佃東里","LIN":"18鄰","STREET":"安吉路","SECT":"二段","MAREA":" ","LANE":"５１１巷","ALLEY":" ","HOUSE_NO":"４９８號","E_COORD97":166518.70000000001,"N_COORD97":2551517.3999999999,"ADDRESS":"安吉路二段５１１巷４９８號","OBJECTID":424502},"geometry":{"x":166518.70000000205,"y":2551517.4000000004}},{"attributes":{"ID":424528,"DIS_CODE":0,"TOWNNAME":"安南區","LI":"溪墘里","LIN":"26鄰","STREET":"安寧街","SECT":" ","MAREA":" ","LANE":"５１巷","ALLEY":" ","HOUSE_NO":"３５之１號","E_COORD97":167300.38,"N_COORD97":2546960.54,"ADDRESS":"安寧街５１巷３５之１號","OBJECTID":424503},"geometry":{"x":167300.38000000175,"y":2546960.540000001}},{"attributes":{"ID":424529,"DIS_CODE":0,"TOWNNAME":"安南區","LI":"學東里","LIN":"4鄰","STREET":"公學路","SECT":"六段","MAREA":" ","LANE":"４６９巷","ALLEY":" ","HOUSE_NO":"１０之２號","E_COORD97":162672.73999999999,"N_COORD97":2553165.4199999999,"ADDRESS":"公學路六段４６９巷１０之２號","OBJECTID":424504},"geometry":{"x":162672.74000000115,"y":2553165.4200000037}},{"attributes":{"ID":424530,"DIS_CODE":0,"TOWNNAME":"安南區","LI":"淵東里","LIN":"4鄰","STREET":"智安二街","SECT":" ","MAREA":" ","LANE":"５０巷","ALLEY":" ","HOUSE_NO":"３３號","E_COORD97":165800.89999999999,"N_COORD97":2550264.0800000001,"ADDRESS":"智安二街５０巷３３號","OBJECTID":424505},"geometry":{"x":165800.9000000013,"y":2550264.0800000001}},{"attributes":{"ID":424531,"DIS_CODE":0,"TOWNNAME":"安南區","LI":"安慶里","LIN":"25鄰","STREET":"北安二街","SECT":" ","MAREA":" ","LANE":"１巷","ALLEY":" ","HOUSE_NO":"１８號","E_COORD97":168640.97,"N_COORD97":2548422.1200000001,"ADDRESS":"北安二街１巷１８號","OBJECTID":424506},"geometry":{"x":168640.97000000067,"y":2548422.1200000048}},{"attributes":{"ID":424532,"DIS_CODE":0,"TOWNNAME":"安南區","LI":"淵東里","LIN":"15鄰","STREET":"本原街","SECT":"三段","MAREA":" ","LANE":"１６９巷","ALLEY":" ","HOUSE_NO":"１６之１號","E_COORD97":165495.59,"N_COORD97":2550267.77,"ADDRESS":"本原街三段１６９巷１６之１號","OBJECTID":424507},"geometry":{"x":165495.59000000078,"y":2550267.7700000014}},{"attributes":{"ID":424533,"DIS_CODE":0,"TOWNNAME":"安南區","LI":"安慶里","LIN":"25鄰","STREET":"北安二街","SECT":" ","MAREA":" ","LANE":"１巷","ALLEY":" ","HOUSE_NO":"２號","E_COORD97":168657.26999999999,"N_COORD97":2548444.71,"ADDRESS":"北安二街１巷２號","OBJECTID":424508},"geometry":{"x":168657.27000000048,"y":2548444.7100000046}},{"attributes":{"ID":424534,"DIS_CODE":0,"TOWNNAME":"安南區","LI":"安慶里","LIN":"25鄰","STREET":"北安二街","SECT":" ","MAREA":" ","LANE":"１巷","ALLEY":" ","HOUSE_NO":"６號","E_COORD97":168657.07999999999,"N_COORD97":2548441.1899999999,"ADDRESS":"北安二街１巷６號","OBJECTID":424509},"geometry":{"x":168657.08000000194,"y":2548441.1900000013}},{"attributes":{"ID":424535,"DIS_CODE":0,"TOWNNAME":"安南區","LI":"安慶里","LIN":"25鄰","STREET":"北安二街","SECT":" ","MAREA":" ","LANE":"１巷","ALLEY":" ","HOUSE_NO":"８號","E_COORD97":168656.89999999999,"N_COORD97":2548438.04,"ADDRESS":"北安二街１巷８號","OBJECTID":424510},"geometry":{"x":168656.90000000224,"y":2548438.040000001}},{"attributes":{"ID":424536,"DIS_CODE":0,"TOWNNAME":"安南區","LI":"安慶里","LIN":"25鄰","STREET":"北安二街","SECT":" ","MAREA":" ","LANE":"１巷","ALLEY":" ","HOUSE_NO":"１０號","E_COORD97":168656.70999999999,"N_COORD97":2548435.0800000001,"ADDRESS":"北安二街１巷１０號","OBJECTID":424511},"geometry":{"x":168656.71000000089,"y":2548435.0800000019}},{"attributes":{"ID":424537,"DIS_CODE":0,"TOWNNAME":"安南區","LI":"東和里","LIN":"4鄰","STREET":"長和路","SECT":"一段","MAREA":" ","LANE":"８２３巷","ALLEY":" ","HOUSE_NO":"４１３號","E_COORD97":170874.09460499999,"N_COORD97":2550317.6178799998,"ADDRESS":"長和路一段８２３巷４１３號","OBJECTID":424512},"geometry":{"x":170874.09460499976,"y":2550317.6178780012}},{"attributes":{"ID":424538,"DIS_CODE":0,"TOWNNAME":"安南區","LI":"海西里","LIN":"13鄰","STREET":"海尾路","SECT":" ","MAREA":" ","LANE":" ","ALLEY":" ","HOUSE_NO":"３６５號","E_COORD97":166402.611229,"N_COORD97":2548494.01028,"ADDRESS":"海尾路３６５號","OBJECTID":424513},"geometry":{"x":166402.61122900061,"y":2548494.0102810021}},{"attributes":{"ID":424539,"DIS_CODE":0,"TOWNNAME":"安南區","LI":"東和里","LIN":"4鄰","STREET":"長和路","SECT":"一段","MAREA":" ","LANE":"８２３巷","ALLEY":" ","HOUSE_NO":"３９９之１２號","E_COORD97":170845.29425400001,"N_COORD97":2550383.0228400002,"ADDRESS":"長和路一段８２３巷３９９之１２號","OBJECTID":424514},"geometry":{"x":170845.29425400123,"y":2550383.0228419993}},{"attributes":{"ID":424540,"DIS_CODE":0,"TOWNNAME":"安南區","LI":"安慶里","LIN":"25鄰","STREET":"北安二街","SECT":" ","MAREA":" ","LANE":"１巷","ALLEY":" ","HOUSE_NO":"１２號","E_COORD97":168647.45000000001,"N_COORD97":2548436.3799999999,"ADDRESS":"北安二街１巷１２號","OBJECTID":424515},"geometry":{"x":168647.45000000019,"y":2548436.3800000008}},{"attributes":{"ID":424541,"DIS_CODE":0,"TOWNNAME":"安南區","LI":"安慶里","LIN":"25鄰","STREET":"北安二街","SECT":" ","MAREA":" ","LANE":"１巷","ALLEY":" ","HOUSE_NO":"２２號","E_COORD97":168656.70999999999,"N_COORD97":2548423.4100000001,"ADDRESS":"北安二街１巷２２號","OBJECTID":424516},"geometry":{"x":168656.71000000089,"y":2548423.410000002}},{"attributes":{"ID":424542,"DIS_CODE":0,"TOWNNAME":"安南區","LI":"安慶里","LIN":"25鄰","STREET":"北安二街","SECT":" ","MAREA":" ","LANE":"１巷","ALLEY":" ","HOUSE_NO":"２６號","E_COORD97":168656.70999999999,"N_COORD97":2548418.9700000002,"ADDRESS":"北安二街１巷２６號","OBJECTID":424517},"geometry":{"x":168656.71000000089,"y":2548418.9700000044}},{"attributes":{"ID":424543,"DIS_CODE":0,"TOWNNAME":"安南區","LI":"安慶里","LIN":"25鄰","STREET":"北安二街","SECT":" ","MAREA":" ","LANE":"１巷","ALLEY":" ","HOUSE_NO":"２８號","E_COORD97":168656.70999999999,"N_COORD97":2548414.52,"ADDRESS":"北安二街１巷２８號","OBJECTID":424518},"geometry":{"x":168656.71000000089,"y":2548414.5200000014}},{"attributes":{"ID":424544,"DIS_CODE":0,"TOWNNAME":"安南區","LI":"安慶里","LIN":"25鄰","STREET":"北安二街","SECT":" ","MAREA":" ","LANE":"１巷","ALLEY":" ","HOUSE_NO":"３０號","E_COORD97":168656.16,"N_COORD97":2548409.3399999999,"ADDRESS":"北安二街１巷３０號","OBJECTID":424519},"geometry":{"x":168656.16000000015,"y":2548409.3400000017}},{"attributes":{"ID":424545,"DIS_CODE":0,"TOWNNAME":"安南區","LI":"安慶里","LIN":"25鄰","STREET":"北安二街","SECT":" ","MAREA":" ","LANE":"１巷","ALLEY":" ","HOUSE_NO":"３２號","E_COORD97":168655.42000000001,"N_COORD97":2548384.7000000002,"ADDRESS":"北安二街１巷３２號","OBJECTID":424520},"geometry":{"x":168655.41999999993,"y":2548384.6999999993}},{"attributes":{"ID":424546,"DIS_CODE":0,"TOWNNAME":"安南區","LI":"安慶里","LIN":"13鄰","STREET":"培安路","SECT":" ","MAREA":" ","LANE":"４８６巷","ALLEY":" ","HOUSE_NO":"１７號","E_COORD97":169325.37,"N_COORD97":2548580.2599999998,"ADDRESS":"培安路４８６巷１７號","OBJECTID":424521},"geometry":{"x":169325.37000000104,"y":2548580.2600000016}},{"attributes":{"ID":424547,"DIS_CODE":0,"TOWNNAME":"安南區","LI":"安順里","LIN":"8鄰","STREET":"安和路","SECT":"四段","MAREA":" ","LANE":"７５巷","ALLEY":" ","HOUSE_NO":"１４號","E_COORD97":169893.67999999999,"N_COORD97":2550259.1299999999,"ADDRESS":"安和路四段７５巷１４號","OBJECTID":424522},"geometry":{"x":169893.68000000063,"y":2550259.129999999}},{"attributes":{"ID":424548,"DIS_CODE":0,"TOWNNAME":"安南區","LI":"州南里","LIN":"5鄰","STREET":"安和路","SECT":"四段","MAREA":" ","LANE":"５３７巷","ALLEY":" ","HOUSE_NO":"７０號","E_COORD97":169833.10999999999,"N_COORD97":2551435.6899999999,"ADDRESS":"安和路四段５３７巷７０號","OBJECTID":424523},"geometry":{"x":169833.11000000034,"y":2551435.6899999995}},{"attributes":{"ID":424549,"DIS_CODE":0,"TOWNNAME":"麻豆區","LI":"大埕里","LIN":"4鄰","STREET":"興中路","SECT":" ","MAREA":" ","LANE":"５５巷","ALLEY":" ","HOUSE_NO":"１０號","E_COORD97":173202.67000000001,"N_COORD97":2564900.1099999999,"ADDRESS":"興中路５５巷１０號","OBJECTID":424524},"geometry":{"x":173202.67000000179,"y":2564900.1099999994}},{"attributes":{"ID":424550,"DIS_CODE":0,"TOWNNAME":"麻豆區","LI":"大埕里","LIN":"4鄰","STREET":"興中路","SECT":" ","MAREA":" ","LANE":"５５巷","ALLEY":" ","HOUSE_NO":"１８號","E_COORD97":173201.67999999999,"N_COORD97":2564909.5699999998,"ADDRESS":"興中路５５巷１８號","OBJECTID":424525},"geometry":{"x":173201.6799999997,"y":2564909.5700000022}},{"attributes":{"ID":424551,"DIS_CODE":0,"TOWNNAME":"麻豆區","LI":"大埕里","LIN":"4鄰","STREET":"興中路","SECT":" ","MAREA":" ","LANE":"５５巷","ALLEY":" ","HOUSE_NO":"２０號","E_COORD97":173201.70000000001,"N_COORD97":2564914.1699999999,"ADDRESS":"興中路５５巷２０號","OBJECTID":424526},"geometry":{"x":173201.70000000112,"y":2564914.1699999999}},{"attributes":{"ID":424552,"DIS_CODE":0,"TOWNNAME":"麻豆區","LI":"大埕里","LIN":"4鄰","STREET":"興中路","SECT":" ","MAREA":" ","LANE":"５５巷","ALLEY":" ","HOUSE_NO":"２２號","E_COORD97":173201.51999999999,"N_COORD97":2564918.5899999999,"ADDRESS":"興中路５５巷２２號","OBJECTID":424527},"geometry":{"x":173201.51999999862,"y":2564918.5900000036}},{"attributes":{"ID":424553,"DIS_CODE":0,"TOWNNAME":"麻豆區","LI":"大埕里","LIN":"4鄰","STREET":"興中路","SECT":" ","MAREA":" ","LANE":"５５巷","ALLEY":" ","HOUSE_NO":"２４號","E_COORD97":173201.48000000001,"N_COORD97":2564923.2200000002,"ADDRESS":"興中路５５巷２４號","OBJECTID":424528},"geometry":{"x":173201.48000000138,"y":2564923.2200000025}},{"attributes":{"ID":424554,"DIS_CODE":0,"TOWNNAME":"麻豆區","LI":"大埕里","LIN":"4鄰","STREET":"興中路","SECT":" ","MAREA":" ","LANE":"５５巷","ALLEY":" ","HOUSE_NO":"２６號","E_COORD97":173200.82000000001,"N_COORD97":2564927.6800000002,"ADDRESS":"興中路５５巷２６號","OBJECTID":424529},"geometry":{"x":173200.82000000123,"y":2564927.6800000034}},{"attributes":{"ID":424555,"DIS_CODE":0,"TOWNNAME":"麻豆區","LI":"大埕里","LIN":"4鄰","STREET":"興中路","SECT":" ","MAREA":" ","LANE":"５５巷","ALLEY":" ","HOUSE_NO":"２８號","E_COORD97":173200.82999999999,"N_COORD97":2564932.0800000001,"ADDRESS":"興中路５５巷２８號","OBJECTID":424530},"geometry":{"x":173200.83000000101,"y":2564932.0799999982}},{"attributes":{"ID":424556,"DIS_CODE":0,"TOWNNAME":"麻豆區","LI":"保安里","LIN":"4鄰","STREET":"興中路","SECT":" ","MAREA":" ","LANE":"５５巷","ALLEY":" ","HOUSE_NO":"３號","E_COORD97":173177.13,"N_COORD97":2564867.1800000002,"ADDRESS":"興中路５５巷３號","OBJECTID":424531},"geometry":{"x":173177.12999999989,"y":2564867.1800000016}},{"attributes":{"ID":424557,"DIS_CODE":0,"TOWNNAME":"麻豆區","LI":"大埕里","LIN":"4鄰","STREET":"興中路","SECT":" ","MAREA":" ","LANE":"５５巷","ALLEY":" ","HOUSE_NO":"４０號之１","E_COORD97":173199.75,"N_COORD97":2564961.48,"ADDRESS":"興中路５５巷４０號之１","OBJECTID":424532},"geometry":{"x":173199.75,"y":2564961.4800000023}},{"attributes":{"ID":424558,"DIS_CODE":0,"TOWNNAME":"麻豆區","LI":"大埕里","LIN":"4鄰","STREET":"興中路","SECT":" ","MAREA":" ","LANE":"５５巷","ALLEY":" ","HOUSE_NO":"４０號","E_COORD97":173199.79999999999,"N_COORD97":2564956.5699999998,"ADDRESS":"興中路５５巷４０號","OBJECTID":424533},"geometry":{"x":173199.79999999981,"y":2564956.5700000022}},{"attributes":{"ID":424559,"DIS_CODE":0,"TOWNNAME":"麻豆區","LI":"大埕里","LIN":"4鄰","STREET":"興中路","SECT":" ","MAREA":" ","LANE":"５５巷","ALLEY":" ","HOUSE_NO":"４２號","E_COORD97":173199.48000000001,"N_COORD97":2564966.27,"ADDRESS":"興中路５５巷４２號","OBJECTID":424534},"geometry":{"x":173199.48000000231,"y":2564966.2699999996}},{"attributes":{"ID":424560,"DIS_CODE":0,"TOWNNAME":"麻豆區","LI":"大埕里","LIN":"4鄰","STREET":"興中路","SECT":" ","MAREA":" ","LANE":"５５巷","ALLEY":" ","HOUSE_NO":"４號","E_COORD97":173203.53,"N_COORD97":2564882.02,"ADDRESS":"興中路５５巷４號","OBJECTID":424535},"geometry":{"x":173203.53000000026,"y":2564882.0200000014}},{"attributes":{"ID":424561,"DIS_CODE":0,"TOWNNAME":"麻豆區","LI":"大埕里","LIN":"4鄰","STREET":"興中路","SECT":" ","MAREA":" ","LANE":"５５巷","ALLEY":" ","HOUSE_NO":"６號","E_COORD97":173202.60999999999,"N_COORD97":2564888.48,"ADDRESS":"興中路５５巷６號","OBJECTID":424536},"geometry":{"x":173202.61000000127,"y":2564888.4800000004}},{"attributes":{"ID":424562,"DIS_CODE":0,"TOWNNAME":"麻豆區","LI":"大埕里","LIN":"4鄰","STREET":"興中路","SECT":" ","MAREA":" ","LANE":"５５巷","ALLEY":" ","HOUSE_NO":"８號","E_COORD97":173203.19,"N_COORD97":2564895.3100000001,"ADDRESS":"興中路５５巷８號","OBJECTID":424537},"geometry":{"x":173203.19000000227,"y":2564895.3100000024}},{"attributes":{"ID":424563,"DIS_CODE":0,"TOWNNAME":"白河區","LI":"庄內里","LIN":"13鄰","STREET":"光華路","SECT":" ","MAREA":" ","LANE":"１１８巷","ALLEY":" ","HOUSE_NO":"１５號","E_COORD97":190770.07000000001,"N_COORD97":2583607.3999999999,"ADDRESS":"光華路１１８巷１５號","OBJECTID":424538},"geometry":{"x":190770.07000000123,"y":2583607.4000000004}},{"attributes":{"ID":424564,"DIS_CODE":0,"TOWNNAME":"白河區","LI":"庄內里","LIN":"13鄰","STREET":"光華路","SECT":" ","MAREA":" ","LANE":"１１８巷","ALLEY":" ","HOUSE_NO":"１６號","E_COORD97":190769.16,"N_COORD97":2583595.48,"ADDRESS":"光華路１１８巷１６號","OBJECTID":424539},"geometry":{"x":190769.16000000108,"y":2583595.4800000023}},{"attributes":{"ID":424565,"DIS_CODE":0,"TOWNNAME":"白河區","LI":"庄內里","LIN":"13鄰","STREET":"光華路","SECT":" ","MAREA":" ","LANE":"１１８巷","ALLEY":" ","HOUSE_NO":"１８號","E_COORD97":190772.76999999999,"N_COORD97":2583595.7400000002,"ADDRESS":"光華路１１８巷１８號","OBJECTID":424540},"geometry":{"x":190772.77000000048,"y":2583595.7400000021}},{"attributes":{"ID":424566,"DIS_CODE":0,"TOWNNAME":"永康區","LI":"正強里","LIN":"4鄰","STREET":"正義街","SECT":" ","MAREA":" ","LANE":"２２巷","ALLEY":" ","HOUSE_NO":"６號","E_COORD97":173594.19,"N_COORD97":2547728.0499999998,"ADDRESS":"正義街２２巷６號","OBJECTID":424541},"geometry":{"x":173594.19000000041,"y":2547728.0500000026}},{"attributes":{"ID":424567,"DIS_CODE":0,"TOWNNAME":"永康區","LI":"正強里","LIN":"4鄰","STREET":"正義街","SECT":" ","MAREA":" ","LANE":"２２巷","ALLEY":" ","HOUSE_NO":"１０號","E_COORD97":173589.95000000001,"N_COORD97":2547733.7999999998,"ADDRESS":"正義街２２巷１０號","OBJECTID":424542},"geometry":{"x":173589.95000000112,"y":2547733.8000000007}},{"attributes":{"ID":424568,"DIS_CODE":0,"TOWNNAME":"永康區","LI":"正強里","LIN":"43鄰","STREET":"中正路","SECT":" ","MAREA":" ","LANE":"２５６巷","ALLEY":" ","HOUSE_NO":"３號之５５","E_COORD97":173149.29000000001,"N_COORD97":2547954.29,"ADDRESS":"中正路２５６巷３號之５５","OBJECTID":424543},"geometry":{"x":173149.29000000004,"y":2547954.2900000028}},{"attributes":{"ID":424569,"DIS_CODE":0,"TOWNNAME":"永康區","LI":"正強里","LIN":"43鄰","STREET":"中正路","SECT":" ","MAREA":" ","LANE":"２５６巷","ALLEY":" ","HOUSE_NO":"３號之３３","E_COORD97":173149.23999999999,"N_COORD97":2547954.29,"ADDRESS":"中正路２５６巷３號之３３","OBJECTID":424544},"geometry":{"x":173149.24000000022,"y":2547954.2900000028}},{"attributes":{"ID":424570,"DIS_CODE":0,"TOWNNAME":"永康區","LI":"正強里","LIN":"4鄰","STREET":"正義街","SECT":" ","MAREA":" ","LANE":"２２巷","ALLEY":" ","HOUSE_NO":"１２號","E_COORD97":173586.92999999999,"N_COORD97":2547736.5499999998,"ADDRESS":"正義街２２巷１２號","OBJECTID":424545},"geometry":{"x":173586.9299999997,"y":2547736.5500000007}},{"attributes":{"ID":424571,"DIS_CODE":0,"TOWNNAME":"永康區","LI":"正強里","LIN":"42鄰","STREET":"中正路","SECT":" ","MAREA":" ","LANE":"２５６巷","ALLEY":" ","HOUSE_NO":"１號之２５","E_COORD97":173178.20999999999,"N_COORD97":2547946.8999999999,"ADDRESS":"中正路２５６巷１號之２５","OBJECTID":424546},"geometry":{"x":173178.20999999996,"y":2547946.9000000004}},{"attributes":{"ID":424572,"DIS_CODE":0,"TOWNNAME":"永康區","LI":"正強里","LIN":"46鄰","STREET":"中正路","SECT":" ","MAREA":" ","LANE":"２５６巷","ALLEY":" ","HOUSE_NO":"９號之５","E_COORD97":173205.95999999999,"N_COORD97":2547991.8799999999,"ADDRESS":"中正路２５６巷９號之５","OBJECTID":424547},"geometry":{"x":173205.96000000183,"y":2547991.8800000008}},{"attributes":{"ID":424573,"DIS_CODE":0,"TOWNNAME":"永康區","LI":"正強里","LIN":"46鄰","STREET":"中正路","SECT":" ","MAREA":" ","LANE":"２５６巷","ALLEY":" ","HOUSE_NO":"９號之２","E_COORD97":173205.94,"N_COORD97":2547991.8799999999,"ADDRESS":"中正路２５６巷９號之２","OBJECTID":424548},"geometry":{"x":173205.94000000041,"y":2547991.8800000008}},{"attributes":{"ID":424574,"DIS_CODE":0,"TOWNNAME":"永康區","LI":"安康里","LIN":"13鄰","STREET":"中華路","SECT":" ","MAREA":" ","LANE":"６６１巷","ALLEY":" ","HOUSE_NO":"１０７號","E_COORD97":170802.51000000001,"N_COORD97":2546106.25,"ADDRESS":"中華路６６１巷１０７號","OBJECTID":424549},"geometry":{"x":170802.50999999978,"y":2546106.25}},{"attributes":{"ID":424575,"DIS_CODE":0,"TOWNNAME":"永康區","LI":"正強里","LIN":"38鄰","STREET":"正強街","SECT":" ","MAREA":" ","LANE":"３０５巷","ALLEY":" ","HOUSE_NO":"１２號","E_COORD97":173230.31,"N_COORD97":2548078.7400000002,"ADDRESS":"正強街３０５巷１２號","OBJECTID":424550},"geometry":{"x":173230.31000000145,"y":2548078.7400000021}},{"attributes":{"ID":424576,"DIS_CODE":0,"TOWNNAME":"永康區","LI":"正強里","LIN":"13鄰","STREET":"正強街","SECT":" ","MAREA":" ","LANE":"１２５巷","ALLEY":" ","HOUSE_NO":"２號","E_COORD97":173307.82999999999,"N_COORD97":2547453.2200000002,"ADDRESS":"正強街１２５巷２號","OBJECTID":424551},"geometry":{"x":173307.83000000007,"y":2547453.2200000007}},{"attributes":{"ID":424577,"DIS_CODE":0,"TOWNNAME":"永康區","LI":"正強里","LIN":"8鄰","STREET":"正義街","SECT":" ","MAREA":" ","LANE":"７９巷","ALLEY":" ","HOUSE_NO":"２號","E_COORD97":173480.51000000001,"N_COORD97":2547565.02,"ADDRESS":"正義街７９巷２號","OBJECTID":424552},"geometry":{"x":173480.51000000071,"y":2547565.0199999996}},{"attributes":{"ID":424578,"DIS_CODE":0,"TOWNNAME":"永康區","LI":"正強里","LIN":"15鄰","STREET":"中山南路","SECT":" ","MAREA":" ","LANE":"４７１巷","ALLEY":" ","HOUSE_NO":"８５號","E_COORD97":173314.67999999999,"N_COORD97":2547208.2400000002,"ADDRESS":"中山南路４７１巷８５號","OBJECTID":424553},"geometry":{"x":173314.68000000063,"y":2547208.2400000002}},{"attributes":{"ID":424579,"DIS_CODE":0,"TOWNNAME":"永康區","LI":"正強里","LIN":"15鄰","STREET":"自強路","SECT":" ","MAREA":" ","LANE":"１８８巷","ALLEY":" ","HOUSE_NO":"８１號","E_COORD97":173247.25,"N_COORD97":2547255.5,"ADDRESS":"自強路１８８巷８１號","OBJECTID":424554},"geometry":{"x":173247.25,"y":2547255.5000000037}},{"attributes":{"ID":424580,"DIS_CODE":0,"TOWNNAME":"佳里區","LI":"建南里","LIN":"24鄰","STREET":"成功路","SECT":" ","MAREA":" ","LANE":"２３１巷","ALLEY":" ","HOUSE_NO":"５號","E_COORD97":165388.48000000001,"N_COORD97":2561077.6800000002,"ADDRESS":"成功路２３１巷５號","OBJECTID":424555},"geometry":{"x":165388.48000000138,"y":2561077.6800000016}},{"attributes":{"ID":424581,"DIS_CODE":0,"TOWNNAME":"永康區","LI":"正強里","LIN":"4鄰","STREET":"正義街","SECT":" ","MAREA":" ","LANE":"２２巷","ALLEY":" ","HOUSE_NO":"８號","E_COORD97":173591.5,"N_COORD97":2547731.0499999998,"ADDRESS":"正義街２２巷８號","OBJECTID":424556},"geometry":{"x":173591.5,"y":2547731.0500000026}},{"attributes":{"ID":424582,"DIS_CODE":0,"TOWNNAME":"永康區","LI":"永康里","LIN":"24鄰","STREET":"中山南路","SECT":" ","MAREA":" ","LANE":"５９７巷","ALLEY":" ","HOUSE_NO":"１２號","E_COORD97":173518.54999999999,"N_COORD97":2547267.75,"ADDRESS":"中山南路５９７巷１２號","OBJECTID":424557},"geometry":{"x":173518.54999999981,"y":2547267.7500000019}},{"attributes":{"ID":424583,"DIS_CODE":0,"TOWNNAME":"永康區","LI":"安康里","LIN":"24鄰","STREET":"中華路","SECT":" ","MAREA":" ","LANE":"７０３巷","ALLEY":" ","HOUSE_NO":"５０號","E_COORD97":170770.01999999999,"N_COORD97":2546270.9900000002,"ADDRESS":"中華路７０３巷５０號","OBJECTID":424558},"geometry":{"x":170770.01999999955,"y":2546270.9900000002}},{"attributes":{"ID":424584,"DIS_CODE":0,"TOWNNAME":"永康區","LI":"永康里","LIN":"5鄰","STREET":"中山北路","SECT":" ","MAREA":" ","LANE":"１８巷","ALLEY":" ","HOUSE_NO":"２０號","E_COORD97":173955.64000000001,"N_COORD97":2547295.7400000002,"ADDRESS":"中山北路１８巷２０號","OBJECTID":424559},"geometry":{"x":173955.6400000006,"y":2547295.7400000021}},{"attributes":{"ID":424585,"DIS_CODE":0,"TOWNNAME":"永康區","LI":"永康里","LIN":"32鄰","STREET":"大同街","SECT":" ","MAREA":" ","LANE":"９７６巷","ALLEY":" ","HOUSE_NO":"１號","E_COORD97":174389.88,"N_COORD97":2547120.9900000002,"ADDRESS":"大同街９７６巷１號","OBJECTID":424560},"geometry":{"x":174389.88000000082,"y":2547120.9900000021}},{"attributes":{"ID":424586,"DIS_CODE":0,"TOWNNAME":"永康區","LI":"北灣里","LIN":"4鄰","STREET":"信義街","SECT":" ","MAREA":" ","LANE":"６２巷","ALLEY":" ","HOUSE_NO":"２９號","E_COORD97":175416.89000000001,"N_COORD97":2545749.48,"ADDRESS":"信義街６２巷２９號","OBJECTID":424561},"geometry":{"x":175416.8900000006,"y":2545749.4800000004}},{"attributes":{"ID":424587,"DIS_CODE":0,"TOWNNAME":"永康區","LI":"永康里","LIN":"26鄰","STREET":"中山北路","SECT":" ","MAREA":" ","LANE":"１０４巷","ALLEY":" ","HOUSE_NO":"７號","E_COORD97":174177.20000000001,"N_COORD97":2547468.73,"ADDRESS":"中山北路１０４巷７號","OBJECTID":424562},"geometry":{"x":174177.20000000019,"y":2547468.7300000023}},{"attributes":{"ID":424588,"DIS_CODE":0,"TOWNNAME":"永康區","LI":"永康里","LIN":"39鄰","STREET":"永福街","SECT":" ","MAREA":" ","LANE":"２１巷","ALLEY":" ","HOUSE_NO":"２２號","E_COORD97":174284.67000000001,"N_COORD97":2546437.52,"ADDRESS":"永福街２１巷２２號","OBJECTID":424563},"geometry":{"x":174284.67000000086,"y":2546437.5200000033}},{"attributes":{"ID":424589,"DIS_CODE":0,"TOWNNAME":"永康區","LI":"正強里","LIN":"20鄰","STREET":"中山南路","SECT":" ","MAREA":" ","LANE":"４７１巷","ALLEY":" ","HOUSE_NO":"１９號","E_COORD97":173132.51000000001,"N_COORD97":2547163.5699999998,"ADDRESS":"中山南路４７１巷１９號","OBJECTID":424564},"geometry":{"x":173132.51000000164,"y":2547163.570000004}},{"attributes":{"ID":424590,"DIS_CODE":0,"TOWNNAME":"永康區","LI":"永康里","LIN":"39鄰","STREET":"永福街","SECT":" ","MAREA":" ","LANE":"１１巷","ALLEY":" ","HOUSE_NO":"２６號","E_COORD97":174280.03,"N_COORD97":2546404.2000000002,"ADDRESS":"永福街１１巷２６號","OBJECTID":424565},"geometry":{"x":174280.03000000026,"y":2546404.1999999993}},{"attributes":{"ID":424591,"DIS_CODE":0,"TOWNNAME":"永康區","LI":"正強里","LIN":"32鄰","STREET":"四維街","SECT":" ","MAREA":" ","LANE":"２９巷","ALLEY":" ","HOUSE_NO":"３３號","E_COORD97":173334.06,"N_COORD97":2547979.25,"ADDRESS":"四維街２９巷３３號","OBJECTID":424566},"geometry":{"x":173334.06000000052,"y":2547979.2500000037}},{"attributes":{"ID":424592,"DIS_CODE":0,"TOWNNAME":"永康區","LI":"正強里","LIN":"20鄰","STREET":"中山南路","SECT":" ","MAREA":" ","LANE":"４７１巷","ALLEY":" ","HOUSE_NO":"３３號","E_COORD97":173162.06,"N_COORD97":2547169.8100000001,"ADDRESS":"中山南路４７１巷３３號","OBJECTID":424567},"geometry":{"x":173162.05999999959,"y":2547169.8100000024}},{"attributes":{"ID":424593,"DIS_CODE":0,"TOWNNAME":"永康區","LI":"正強里","LIN":"20鄰","STREET":"中山南路","SECT":" ","MAREA":" ","LANE":"４７１巷","ALLEY":" ","HOUSE_NO":"２５號","E_COORD97":173144.37,"N_COORD97":2547166.0699999998,"ADDRESS":"中山南路４７１巷２５號","OBJECTID":424568},"geometry":{"x":173144.37000000104,"y":2547166.0700000003}},{"attributes":{"ID":424594,"DIS_CODE":0,"TOWNNAME":"永康區","LI":"北灣里","LIN":"4鄰","STREET":"信義街","SECT":" ","MAREA":" ","LANE":"４４巷","ALLEY":" ","HOUSE_NO":"２８號","E_COORD97":175484.13,"N_COORD97":2545743.9100000001,"ADDRESS":"信義街４４巷２８號","OBJECTID":424569},"geometry":{"x":175484.12999999989,"y":2545743.9100000039}},{"attributes":{"ID":424595,"DIS_CODE":0,"TOWNNAME":"新營區","LI":"新東里","LIN":"25鄰","STREET":"東興三街","SECT":" ","MAREA":" ","LANE":"２２巷","ALLEY":" ","HOUSE_NO":"５號二樓","E_COORD97":180703.47,"N_COORD97":2579374.54,"ADDRESS":"東興三街２２巷５號二樓","OBJECTID":424570},"geometry":{"x":180703.4700000016,"y":2579374.5400000028}},{"attributes":{"ID":424596,"DIS_CODE":0,"TOWNNAME":"新營區","LI":"新東里","LIN":"25鄰","STREET":"東興三街","SECT":" ","MAREA":" ","LANE":"２２巷","ALLEY":" ","HOUSE_NO":"５號九樓","E_COORD97":180703.47,"N_COORD97":2579374.54,"ADDRESS":"東興三街２２巷５號九樓","OBJECTID":424571},"geometry":{"x":180703.4700000016,"y":2579374.5400000028}},{"attributes":{"ID":424597,"DIS_CODE":0,"TOWNNAME":"新營區","LI":"新東里","LIN":"25鄰","STREET":"東興三街","SECT":" ","MAREA":" ","LANE":"２２巷","ALLEY":" ","HOUSE_NO":"９號十三樓","E_COORD97":180703.73999999999,"N_COORD97":2579395.5899999999,"ADDRESS":"東興三街２２巷９號十三樓","OBJECTID":424572},"geometry":{"x":180703.74000000209,"y":2579395.5900000017}},{"attributes":{"ID":424598,"DIS_CODE":0,"TOWNNAME":"新營區","LI":"新東里","LIN":"25鄰","STREET":"東興三街","SECT":" ","MAREA":" ","LANE":"２２巷","ALLEY":" ","HOUSE_NO":"９號九樓","E_COORD97":180702.48999999999,"N_COORD97":2579395.5899999999,"ADDRESS":"東興三街２２巷９號九樓","OBJECTID":424573},"geometry":{"x":180702.49000000115,"y":2579395.5900000017}},{"attributes":{"ID":424599,"DIS_CODE":0,"TOWNNAME":"新營區","LI":"新南里","LIN":"25鄰","STREET":"復興路","SECT":" ","MAREA":" ","LANE":"６２０巷","ALLEY":" ","HOUSE_NO":"６６號三樓之５","E_COORD97":178065.16,"N_COORD97":2578543.2999999998,"ADDRESS":"復興路６２０巷６６號三樓之５","OBJECTID":424574},"geometry":{"x":178065.16000000108,"y":2578543.3000000007}},{"attributes":{"ID":424600,"DIS_CODE":0,"TOWNNAME":"新營區","LI":"新南里","LIN":"25鄰","STREET":"復興路","SECT":" ","MAREA":" ","LANE":"６２０巷","ALLEY":" ","HOUSE_NO":"６６號四樓之３","E_COORD97":178065.10000000001,"N_COORD97":2578543.2999999998,"ADDRESS":"復興路６２０巷６６號四樓之３","OBJECTID":424575},"geometry":{"x":178065.10000000056,"y":2578543.3000000007}},{"attributes":{"ID":424601,"DIS_CODE":0,"TOWNNAME":"新營區","LI":"新南里","LIN":"25鄰","STREET":"復興路","SECT":" ","MAREA":" ","LANE":"６２０巷","ALLEY":" ","HOUSE_NO":"６６號三樓之１","E_COORD97":178065,"N_COORD97":2578543.2999999998,"ADDRESS":"復興路６２０巷６６號三樓之１","OBJECTID":424576},"geometry":{"x":178065,"y":2578543.3000000007}},{"attributes":{"ID":424602,"DIS_CODE":0,"TOWNNAME":"新營區","LI":"永生里","LIN":" ","STREET":"康樂街","SECT":" ","MAREA":" ","LANE":"１巷","ALLEY":" ","HOUSE_NO":"１號２樓","E_COORD97":180070.62,"N_COORD97":2577919,"ADDRESS":"康樂街１巷１號２樓","OBJECTID":424577},"geometry":{"x":180070.62000000104,"y":2577919.0000000019}},{"attributes":{"ID":424603,"DIS_CODE":0,"TOWNNAME":"新營區","LI":"永生里","LIN":" ","STREET":"康樂街","SECT":" ","MAREA":" ","LANE":"１巷","ALLEY":" ","HOUSE_NO":"１號５樓","E_COORD97":180070.62,"N_COORD97":2577919,"ADDRESS":"康樂街１巷１號５樓","OBJECTID":424578},"geometry":{"x":180070.62000000104,"y":2577919.0000000019}},{"attributes":{"ID":424604,"DIS_CODE":0,"TOWNNAME":"新營區","LI":"新南里","LIN":"25鄰","STREET":"復興路","SECT":" ","MAREA":" ","LANE":"６２０巷","ALLEY":" ","HOUSE_NO":"６６號二樓之２","E_COORD97":178065.13,"N_COORD97":2578543.2999999998,"ADDRESS":"復興路６２０巷６６號二樓之２","OBJECTID":424579},"geometry":{"x":178065.13000000082,"y":2578543.3000000007}},{"attributes":{"ID":424605,"DIS_CODE":0,"TOWNNAME":"歸仁區","LI":"文化里","LIN":"5鄰","STREET":"民權一街","SECT":" ","MAREA":" ","LANE":"３８巷","ALLEY":" ","HOUSE_NO":"１號三樓之１","E_COORD97":177297.54000000001,"N_COORD97":2541326.2599999998,"ADDRESS":"民權一街３８巷１號三樓之１","OBJECTID":424580},"geometry":{"x":177297.5400000019,"y":2541326.2599999998}},{"attributes":{"ID":424606,"DIS_CODE":0,"TOWNNAME":"歸仁區","LI":"辜厝里","LIN":"38鄰","STREET":"中正南路","SECT":"一段","MAREA":" ","LANE":"２１８巷","ALLEY":" ","HOUSE_NO":"２５號四樓之８","E_COORD97":177261.97,"N_COORD97":2540344.2599999998,"ADDRESS":"中正南路一段２１８巷２５號四樓之８","OBJECTID":424581},"geometry":{"x":177261.96999999974,"y":2540344.2600000016}},{"attributes":{"ID":424607,"DIS_CODE":0,"TOWNNAME":"新營區","LI":"新南里","LIN":"25鄰","STREET":"復興路","SECT":" ","MAREA":" ","LANE":"６２０巷","ALLEY":" ","HOUSE_NO":"６６號二樓之６","E_COORD97":178065.10999999999,"N_COORD97":2578543.2999999998,"ADDRESS":"復興路６２０巷６６號二樓之６","OBJECTID":424582},"geometry":{"x":178065.11000000034,"y":2578543.3000000007}},{"attributes":{"ID":424608,"DIS_CODE":0,"TOWNNAME":"歸仁區","LI":"文化里","LIN":"5鄰","STREET":"民權一街","SECT":" ","MAREA":" ","LANE":"３８巷","ALLEY":" ","HOUSE_NO":"１號七樓之２","E_COORD97":177297.57000000001,"N_COORD97":2541326.2599999998,"ADDRESS":"民權一街３８巷１號七樓之２","OBJECTID":424583},"geometry":{"x":177297.56999999937,"y":2541326.2599999998}},{"attributes":{"ID":424609,"DIS_CODE":0,"TOWNNAME":"歸仁區","LI":"文化里","LIN":"5鄰","STREET":"民權一街","SECT":" ","MAREA":" ","LANE":"３８巷","ALLEY":" ","HOUSE_NO":"１號七樓之３","E_COORD97":177297.56,"N_COORD97":2541326.2599999998,"ADDRESS":"民權一街３８巷１號七樓之３","OBJECTID":424584},"geometry":{"x":177297.56000000052,"y":2541326.2599999998}},{"attributes":{"ID":424610,"DIS_CODE":0,"TOWNNAME":"歸仁區","LI":"辜厝里","LIN":"38鄰","STREET":"中正南路","SECT":"一段","MAREA":" ","LANE":"２１８巷","ALLEY":" ","HOUSE_NO":"２５號一樓之８","E_COORD97":177261.97,"N_COORD97":2540344.2599999998,"ADDRESS":"中正南路一段２１８巷２５號一樓之８","OBJECTID":424585},"geometry":{"x":177261.96999999974,"y":2540344.2600000016}},{"attributes":{"ID":424611,"DIS_CODE":0,"TOWNNAME":"北區","LI":"中樓里","LIN":"13鄰","STREET":"開元路","SECT":" ","MAREA":" ","LANE":" ","ALLEY":" ","HOUSE_NO":"１０８號","E_COORD97":169830.29999999999,"N_COORD97":2545206.2200000002,"ADDRESS":"開元路１０８號","OBJECTID":424586},"geometry":{"x":169830.30000000075,"y":2545206.2200000007}},{"attributes":{"ID":424612,"DIS_CODE":0,"TOWNNAME":"關廟區","LI":"埤頭里","LIN":"4鄰","STREET":"保東路","SECT":" ","MAREA":" ","LANE":"１１５巷","ALLEY":" ","HOUSE_NO":"１９號四樓","E_COORD97":178809.32000000001,"N_COORD97":2543951.2999999998,"ADDRESS":"保東路１１５巷１９號四樓","OBJECTID":424587},"geometry":{"x":178809.3200000003,"y":2543951.3000000007}},{"attributes":{"ID":424613,"DIS_CODE":0,"TOWNNAME":"關廟區","LI":"埤頭里","LIN":"4鄰","STREET":"保東路","SECT":" ","MAREA":" ","LANE":"１１５巷","ALLEY":" ","HOUSE_NO":"１３號三樓","E_COORD97":178810.42000000001,"N_COORD97":2543974.2999999998,"ADDRESS":"保東路１１５巷１３號三樓","OBJECTID":424588},"geometry":{"x":178810.42000000179,"y":2543974.3000000007}},{"attributes":{"ID":424614,"DIS_CODE":0,"TOWNNAME":"關廟區","LI":"埤頭里","LIN":"4鄰","STREET":"保東路","SECT":" ","MAREA":" ","LANE":"１１５巷","ALLEY":" ","HOUSE_NO":"１３號四樓","E_COORD97":178810.42000000001,"N_COORD97":2543974.2999999998,"ADDRESS":"保東路１１５巷１３號四樓","OBJECTID":424589},"geometry":{"x":178810.42000000179,"y":2543974.3000000007}},{"attributes":{"ID":424615,"DIS_CODE":0,"TOWNNAME":"關廟區","LI":"埤頭里","LIN":"4鄰","STREET":"保東路","SECT":" ","MAREA":" ","LANE":"１１５巷","ALLEY":" ","HOUSE_NO":"１７號四樓","E_COORD97":178810.82000000001,"N_COORD97":2543959.2999999998,"ADDRESS":"保東路１１５巷１７號四樓","OBJECTID":424590},"geometry":{"x":178810.8200000003,"y":2543959.3000000026}},{"attributes":{"ID":424616,"DIS_CODE":0,"TOWNNAME":"關廟區","LI":"埤頭里","LIN":"4鄰","STREET":"保東路","SECT":" ","MAREA":" ","LANE":"１１５巷","ALLEY":" ","HOUSE_NO":"２１號三樓","E_COORD97":178808.51999999999,"N_COORD97":2543945.2999999998,"ADDRESS":"保東路１１５巷２１號三樓","OBJECTID":424591},"geometry":{"x":178808.51999999955,"y":2543945.3000000026}},{"attributes":{"ID":424617,"DIS_CODE":0,"TOWNNAME":"關廟區","LI":"埤頭里","LIN":"4鄰","STREET":"保東路","SECT":" ","MAREA":" ","LANE":"１１５巷","ALLEY":" ","HOUSE_NO":"１５號四樓","E_COORD97":178819.62,"N_COORD97":2543966.2999999998,"ADDRESS":"保東路１１５巷１５號四樓","OBJECTID":424592},"geometry":{"x":178819.62000000104,"y":2543966.3000000026}},{"attributes":{"ID":424618,"DIS_CODE":0,"TOWNNAME":"關廟區","LI":"埤頭里","LIN":"4鄰","STREET":"保東路","SECT":" ","MAREA":" ","LANE":"１１５巷","ALLEY":" ","HOUSE_NO":"２１號二樓","E_COORD97":178808.51999999999,"N_COORD97":2543945.2999999998,"ADDRESS":"保東路１１５巷２１號二樓","OBJECTID":424593},"geometry":{"x":178808.51999999955,"y":2543945.3000000026}},{"attributes":{"ID":424619,"DIS_CODE":0,"TOWNNAME":"關廟區","LI":"埤頭里","LIN":"4鄰","STREET":"保東路","SECT":" ","MAREA":" ","LANE":"１１５巷","ALLEY":" ","HOUSE_NO":"１９號二樓","E_COORD97":178809.32000000001,"N_COORD97":2543951.2999999998,"ADDRESS":"保東路１１５巷１９號二樓","OBJECTID":424594},"geometry":{"x":178809.3200000003,"y":2543951.3000000007}},{"attributes":{"ID":424620,"DIS_CODE":0,"TOWNNAME":"關廟區","LI":"埤頭里","LIN":"4鄰","STREET":"保東路","SECT":" ","MAREA":" ","LANE":"１１５巷","ALLEY":" ","HOUSE_NO":"１１號三樓","E_COORD97":178810.82000000001,"N_COORD97":2543980.2999999998,"ADDRESS":"保東路１１５巷１１號三樓","OBJECTID":424595},"geometry":{"x":178810.8200000003,"y":2543980.3000000026}},{"attributes":{"ID":424621,"DIS_CODE":0,"TOWNNAME":"關廟區","LI":"埤頭里","LIN":"4鄰","STREET":"保東路","SECT":" ","MAREA":" ","LANE":"１１５巷","ALLEY":" ","HOUSE_NO":"２１號四樓","E_COORD97":178808.51999999999,"N_COORD97":2543945.2999999998,"ADDRESS":"保東路１１５巷２１號四樓","OBJECTID":424596},"geometry":{"x":178808.51999999955,"y":2543945.3000000026}},{"attributes":{"ID":424622,"DIS_CODE":0,"TOWNNAME":"關廟區","LI":"山西里","LIN":"14鄰","STREET":"文衡路","SECT":" ","MAREA":" ","LANE":"２２０巷","ALLEY":" ","HOUSE_NO":"２號二樓","E_COORD97":180965.84,"N_COORD97":2540575.3300000001,"ADDRESS":"文衡路２２０巷２號二樓","OBJECTID":424597},"geometry":{"x":180965.84000000078,"y":2540575.3300000019}},{"attributes":{"ID":424623,"DIS_CODE":0,"TOWNNAME":"關廟區","LI":"山西里","LIN":"14鄰","STREET":"文衡路","SECT":" ","MAREA":" ","LANE":"２２０巷","ALLEY":" ","HOUSE_NO":"２號三樓","E_COORD97":180965.84,"N_COORD97":2540575.3300000001,"ADDRESS":"文衡路２２０巷２號三樓","OBJECTID":424598},"geometry":{"x":180965.84000000078,"y":2540575.3300000019}},{"attributes":{"ID":424624,"DIS_CODE":0,"TOWNNAME":"關廟區","LI":"埤頭里","LIN":"4鄰","STREET":"保東路","SECT":" ","MAREA":" ","LANE":"１１５巷","ALLEY":" ","HOUSE_NO":"１３號二樓","E_COORD97":178810.42000000001,"N_COORD97":2543974.2999999998,"ADDRESS":"保東路１１５巷１３號二樓","OBJECTID":424599},"geometry":{"x":178810.42000000179,"y":2543974.3000000007}},{"attributes":{"ID":424625,"DIS_CODE":0,"TOWNNAME":"南區","LI":"郡南里","LIN":"13鄰","STREET":"永成路","SECT":"三段","MAREA":" ","LANE":"７１巷","ALLEY":" ","HOUSE_NO":"２７號二樓之１","E_COORD97":167402.87,"N_COORD97":2540552.0800000001,"ADDRESS":"永成路三段７１巷２７號二樓之１","OBJECTID":424600},"geometry":{"x":167402.87000000104,"y":2540552.0800000038}}]}