{"displayFieldName":"TOWNNAME","fieldAliases":{"ID":"ID","DIS_CODE":"DIS_CODE","TOWNNAME":"TOWNNAME","LI":"LI","LIN":"LIN","STREET":"STREET","SECT":"SECT","MAREA":"MAREA","LANE":"LANE","ALLEY":"ALLEY","HOUSE_NO":"HOUSE_NO","E_COORD97":"E_COORD97","N_COORD97":"N_COORD97","ADDRESS":"ADDRESS","OBJECTID":"OBJECTID"},"geometryType":"esriGeometryPoint","spatialReference":{"wkid":102443,"latestWkid":3826},"fields":[{"name":"ID","type":"esriFieldTypeDouble","alias":"ID"},{"name":"DIS_CODE","type":"esriFieldTypeInteger","alias":"DIS_CODE"},{"name":"TOWNNAME","type":"esriFieldTypeString","alias":"TOWNNAME","length":8},{"name":"LI","type":"esriFieldTypeString","alias":"LI","length":8},{"name":"LIN","type":"esriFieldTypeString","alias":"LIN","length":12},{"name":"STREET","type":"esriFieldTypeString","alias":"STREET","length":20},{"name":"SECT","type":"esriFieldTypeString","alias":"SECT","length":8},{"name":"MAREA","type":"esriFieldTypeString","alias":"MAREA","length":12},{"name":"LANE","type":"esriFieldTypeString","alias":"LANE","length":10},{"name":"ALLEY","type":"esriFieldTypeString","alias":"ALLEY","length":10},{"name":"HOUSE_NO","type":"esriFieldTypeString","alias":"HOUSE_NO","length":20},{"name":"E_COORD97","type":"esriFieldTypeDouble","alias":"E_COORD97"},{"name":"N_COORD97","type":"esriFieldTypeDouble","alias":"N_COORD97"},{"name":"ADDRESS","type":"esriFieldTypeString","alias":"ADDRESS","length":50},{"name":"OBJECTID","type":"esriFieldTypeOID","alias":"OBJECTID"}],"features":[{"attributes":{"ID":657228,"DIS_CODE":0,"TOWNNAME":"仁德區","LI":"仁德里","LIN":"19鄰","STREET":"文華路","SECT":"三段","MAREA":" ","LANE":" ","ALLEY":" ","HOUSE_NO":"２５６號","E_COORD97":172276.70861199999,"N_COORD97":2540614.0990900001,"ADDRESS":"文華路三段２５６號","OBJECTID":657201},"geometry":{"x":172276.70861199964,"y":2540614.0990900025}},{"attributes":{"ID":657229,"DIS_CODE":0,"TOWNNAME":"麻豆區","LI":"南勢里","LIN":"23鄰","STREET":" ","SECT":" ","MAREA":"南勢","LANE":" ","ALLEY":" ","HOUSE_NO":"７３號之１９","E_COORD97":174757.85907800001,"N_COORD97":2564760.7561900001,"ADDRESS":"南勢７３號之１９","OBJECTID":657202},"geometry":{"x":174757.8590780003,"y":2564760.7561920043}},{"attributes":{"ID":657230,"DIS_CODE":0,"TOWNNAME":"楠西區","LI":"照興里","LIN":"2鄰","STREET":" ","SECT":" ","MAREA":"興北","LANE":" ","ALLEY":" ","HOUSE_NO":"２４號","E_COORD97":196138,"N_COORD97":2566702,"ADDRESS":"興北２４號","OBJECTID":657203},"geometry":{"x":196138,"y":2566702}},{"attributes":{"ID":657231,"DIS_CODE":0,"TOWNNAME":"新市區","LI":"港墘里","LIN":"1鄰","STREET":"中山路","SECT":" ","MAREA":" ","LANE":"１３巷","ALLEY":" ","HOUSE_NO":"５號","E_COORD97":178954.627775,"N_COORD97":2553776.7840300002,"ADDRESS":"中山路１３巷５號","OBJECTID":657204},"geometry":{"x":178954.62777500134,"y":2553776.7840289995}},{"attributes":{"ID":657232,"DIS_CODE":0,"TOWNNAME":"麻豆區","LI":"南勢里","LIN":"23鄰","STREET":" ","SECT":" ","MAREA":"南勢","LANE":" ","ALLEY":" ","HOUSE_NO":"７３號之９","E_COORD97":174814.00688100001,"N_COORD97":2564827.0078199999,"ADDRESS":"南勢７３號之９","OBJECTID":657205},"geometry":{"x":174814.00688100234,"y":2564827.0078230035}},{"attributes":{"ID":657233,"DIS_CODE":0,"TOWNNAME":"仁德區","LI":"仁義里","LIN":"25鄰","STREET":"正義一街","SECT":" ","MAREA":" ","LANE":" ","ALLEY":" ","HOUSE_NO":"７６之１號","E_COORD97":173519.69286899999,"N_COORD97":2541369.79703,"ADDRESS":"正義一街７６之１號","OBJECTID":657206},"geometry":{"x":173519.69286900107,"y":2541369.7970250007}},{"attributes":{"ID":657234,"DIS_CODE":0,"TOWNNAME":"楠西區","LI":"照興里","LIN":"3鄰","STREET":" ","SECT":" ","MAREA":"興北","LANE":" ","ALLEY":" ","HOUSE_NO":"２６號之１８","E_COORD97":197083,"N_COORD97":2567702,"ADDRESS":"興北２６號之１８","OBJECTID":657207},"geometry":{"x":197083.00000000093,"y":2567702}},{"attributes":{"ID":657235,"DIS_CODE":0,"TOWNNAME":"楠西區","LI":"照興里","LIN":"3鄰","STREET":" ","SECT":" ","MAREA":"興北","LANE":" ","ALLEY":" ","HOUSE_NO":"２８號","E_COORD97":195534,"N_COORD97":2563278,"ADDRESS":"興北２８號","OBJECTID":657208},"geometry":{"x":195534,"y":2563277.9999999981}},{"attributes":{"ID":657236,"DIS_CODE":0,"TOWNNAME":"楠西區","LI":"照興里","LIN":"3鄰","STREET":" ","SECT":" ","MAREA":"興北","LANE":" ","ALLEY":" ","HOUSE_NO":"３７號之１","E_COORD97":197200,"N_COORD97":2567218,"ADDRESS":"興北３７號之１","OBJECTID":657209},"geometry":{"x":197200.00000000093,"y":2567218.0000000037}},{"attributes":{"ID":657237,"DIS_CODE":0,"TOWNNAME":"麻豆區","LI":"南勢里","LIN":"24鄰","STREET":" ","SECT":" ","MAREA":"南勢","LANE":" ","ALLEY":" ","HOUSE_NO":"８４號之１４","E_COORD97":174637.08833200001,"N_COORD97":2565174.5643000002,"ADDRESS":"南勢８４號之１４","OBJECTID":657210},"geometry":{"x":174637.08833200112,"y":2565174.564302003}},{"attributes":{"ID":657238,"DIS_CODE":0,"TOWNNAME":"麻豆區","LI":"南勢里","LIN":"24鄰","STREET":" ","SECT":" ","MAREA":"南勢","LANE":" ","ALLEY":" ","HOUSE_NO":"８４號之２","E_COORD97":174652.555463,"N_COORD97":2565183.4542999999,"ADDRESS":"南勢８４號之２","OBJECTID":657211},"geometry":{"x":174652.5554630002,"y":2565183.4542970024}},{"attributes":{"ID":657239,"DIS_CODE":0,"TOWNNAME":"楠西區","LI":"照興里","LIN":"5鄰","STREET":" ","SECT":" ","MAREA":"興北","LANE":" ","ALLEY":" ","HOUSE_NO":"５３號之１","E_COORD97":197800,"N_COORD97":2567051,"ADDRESS":"興北５３號之１","OBJECTID":657212},"geometry":{"x":197800.00000000093,"y":2567051}},{"attributes":{"ID":657240,"DIS_CODE":0,"TOWNNAME":"楠西區","LI":"照興里","LIN":"5鄰","STREET":" ","SECT":" ","MAREA":"興北","LANE":" ","ALLEY":" ","HOUSE_NO":"５３號之６","E_COORD97":197767,"N_COORD97":2567062,"ADDRESS":"興北５３號之６","OBJECTID":657213},"geometry":{"x":197767,"y":2567062.0000000037}},{"attributes":{"ID":657241,"DIS_CODE":0,"TOWNNAME":"仁德區","LI":"仁義里","LIN":"23鄰","STREET":"中清路","SECT":" ","MAREA":" ","LANE":"１６０巷","ALLEY":"２弄","HOUSE_NO":"５號","E_COORD97":173780.95908599999,"N_COORD97":2541476.9002999999,"ADDRESS":"中清路１６０巷２弄５號","OBJECTID":657214},"geometry":{"x":173780.95908599999,"y":2541476.9003010038}},{"attributes":{"ID":657242,"DIS_CODE":0,"TOWNNAME":"仁德區","LI":"仁義里","LIN":"23鄰","STREET":"中清路","SECT":" ","MAREA":" ","LANE":"１６０巷","ALLEY":"２弄","HOUSE_NO":"７號","E_COORD97":173780.95908599999,"N_COORD97":2541484.3086299999,"ADDRESS":"中清路１６０巷２弄７號","OBJECTID":657215},"geometry":{"x":173780.95908599999,"y":2541484.3086300008}},{"attributes":{"ID":657243,"DIS_CODE":0,"TOWNNAME":"楠西區","LI":"照興里","LIN":"5鄰","STREET":" ","SECT":" ","MAREA":"興北","LANE":" ","ALLEY":" ","HOUSE_NO":"５６號之５","E_COORD97":197841,"N_COORD97":2567018,"ADDRESS":"興北５６號之５","OBJECTID":657216},"geometry":{"x":197841,"y":2567018.0000000037}},{"attributes":{"ID":657244,"DIS_CODE":0,"TOWNNAME":"仁德區","LI":"仁德里","LIN":"20鄰","STREET":"中山路","SECT":" ","MAREA":" ","LANE":"８７５巷","ALLEY":" ","HOUSE_NO":"３９號","E_COORD97":172388.78664899999,"N_COORD97":2541422.0303199999,"ADDRESS":"中山路８７５巷３９號","OBJECTID":657217},"geometry":{"x":172388.78664900176,"y":2541422.0303199999}},{"attributes":{"ID":657245,"DIS_CODE":0,"TOWNNAME":"新營區","LI":"延平里","LIN":"13鄰","STREET":"中原街","SECT":" ","MAREA":" ","LANE":" ","ALLEY":" ","HOUSE_NO":"１１號","E_COORD97":179540.053358,"N_COORD97":2577964.9898199998,"ADDRESS":"中原街１１號","OBJECTID":657218},"geometry":{"x":179540.0533580007,"y":2577964.9898230024}},{"attributes":{"ID":657246,"DIS_CODE":0,"TOWNNAME":"新營區","LI":"延平里","LIN":"13鄰","STREET":"中原街","SECT":" ","MAREA":" ","LANE":" ","ALLEY":" ","HOUSE_NO":"１５號","E_COORD97":179543.656055,"N_COORD97":2577957.47566,"ADDRESS":"中原街１５號","OBJECTID":657219},"geometry":{"x":179543.65605499968,"y":2577957.47566}},{"attributes":{"ID":657247,"DIS_CODE":0,"TOWNNAME":"仁德區","LI":"上崙里","LIN":"2鄰","STREET":"德崙路","SECT":" ","MAREA":" ","LANE":"２９１巷","ALLEY":" ","HOUSE_NO":"９２號","E_COORD97":173827.738515,"N_COORD97":2538287.3239899999,"ADDRESS":"德崙路２９１巷９２號","OBJECTID":657220},"geometry":{"x":173827.73851499986,"y":2538287.3239910044}},{"attributes":{"ID":657248,"DIS_CODE":0,"TOWNNAME":"新營區","LI":"延平里","LIN":"13鄰","STREET":"中原街","SECT":" ","MAREA":" ","LANE":" ","ALLEY":" ","HOUSE_NO":"１７號","E_COORD97":179545.35144200001,"N_COORD97":2577954.3006600002,"ADDRESS":"中原街１７號","OBJECTID":657221},"geometry":{"x":179545.35144200083,"y":2577954.3006619997}},{"attributes":{"ID":657249,"DIS_CODE":0,"TOWNNAME":"東區","LI":"中西里","LIN":"9鄰","STREET":"勝利路","SECT":" ","MAREA":" ","LANE":"５２巷","ALLEY":" ","HOUSE_NO":"１號之２","E_COORD97":169838.50799700001,"N_COORD97":2543563.0312399999,"ADDRESS":"勝利路５２巷１號之２","OBJECTID":657222},"geometry":{"x":169838.50799700152,"y":2543563.031235002}},{"attributes":{"ID":657250,"DIS_CODE":0,"TOWNNAME":"楠西區","LI":"照興里","LIN":"5鄰","STREET":" ","SECT":" ","MAREA":"興北","LANE":" ","ALLEY":" ","HOUSE_NO":"７２號之１２","E_COORD97":198149,"N_COORD97":2566636,"ADDRESS":"興北７２號之１２","OBJECTID":657223},"geometry":{"x":198149.00000000093,"y":2566636.0000000019}},{"attributes":{"ID":657251,"DIS_CODE":0,"TOWNNAME":"新營區","LI":"新東里","LIN":"16鄰","STREET":"東泰路","SECT":" ","MAREA":" ","LANE":" ","ALLEY":" ","HOUSE_NO":"９１號","E_COORD97":181111.35952599999,"N_COORD97":2579795.5123000001,"ADDRESS":"東泰路９１號","OBJECTID":657224},"geometry":{"x":181111.35952599999,"y":2579795.5122960024}},{"attributes":{"ID":657252,"DIS_CODE":0,"TOWNNAME":"楠西區","LI":"照興里","LIN":"5鄰","STREET":" ","SECT":" ","MAREA":"興北","LANE":" ","ALLEY":" ","HOUSE_NO":"７３號之１０","E_COORD97":197688,"N_COORD97":2566329,"ADDRESS":"興北７３號之１０","OBJECTID":657225},"geometry":{"x":197688.00000000093,"y":2566329}},{"attributes":{"ID":657253,"DIS_CODE":0,"TOWNNAME":"新營區","LI":"新東里","LIN":"16鄰","STREET":"東泰路","SECT":" ","MAREA":" ","LANE":" ","ALLEY":" ","HOUSE_NO":"８９號","E_COORD97":181110.51199699999,"N_COORD97":2579788.1039700001,"ADDRESS":"東泰路８９號","OBJECTID":657226},"geometry":{"x":181110.51199700125,"y":2579788.1039659996}},{"attributes":{"ID":657254,"DIS_CODE":0,"TOWNNAME":"新營區","LI":"新東里","LIN":"16鄰","STREET":"東泰路","SECT":" ","MAREA":" ","LANE":" ","ALLEY":" ","HOUSE_NO":"８７號","E_COORD97":181110.30011499999,"N_COORD97":2579782.1773000001,"ADDRESS":"東泰路８７號","OBJECTID":657227},"geometry":{"x":181110.30011500139,"y":2579782.1773029994}},{"attributes":{"ID":657255,"DIS_CODE":0,"TOWNNAME":"楠西區","LI":"照興里","LIN":"5鄰","STREET":" ","SECT":" ","MAREA":"興北","LANE":" ","ALLEY":" ","HOUSE_NO":"７３號之３","E_COORD97":197455,"N_COORD97":2566460,"ADDRESS":"興北７３號之３","OBJECTID":657228},"geometry":{"x":197455,"y":2566460.0000000019}},{"attributes":{"ID":657256,"DIS_CODE":0,"TOWNNAME":"新營區","LI":"新東里","LIN":"11鄰","STREET":"東泰路","SECT":" ","MAREA":" ","LANE":" ","ALLEY":" ","HOUSE_NO":"７０號","E_COORD97":181131.91210099999,"N_COORD97":2579753.0731500001,"ADDRESS":"東泰路７０號","OBJECTID":657229},"geometry":{"x":181131.91210100055,"y":2579753.0731520001}},{"attributes":{"ID":657257,"DIS_CODE":0,"TOWNNAME":"楠西區","LI":"照興里","LIN":"5鄰","STREET":" ","SECT":" ","MAREA":"興北","LANE":" ","ALLEY":" ","HOUSE_NO":"７３號之７","E_COORD97":197406,"N_COORD97":2566450,"ADDRESS":"興北７３號之７","OBJECTID":657230},"geometry":{"x":197406,"y":2566450}},{"attributes":{"ID":657258,"DIS_CODE":0,"TOWNNAME":"新營區","LI":"新東里","LIN":"11鄰","STREET":"東泰路","SECT":" ","MAREA":" ","LANE":" ","ALLEY":" ","HOUSE_NO":"７２號","E_COORD97":181130.00516100001,"N_COORD97":2579763.33898,"ADDRESS":"東泰路７２號","OBJECTID":657231},"geometry":{"x":181130.00516099948,"y":2579763.3389800005}},{"attributes":{"ID":657259,"DIS_CODE":0,"TOWNNAME":"新營區","LI":"新東里","LIN":"11鄰","STREET":"東泰路","SECT":" ","MAREA":" ","LANE":" ","ALLEY":" ","HOUSE_NO":"７６號","E_COORD97":181129.793279,"N_COORD97":2579770.5356399999,"ADDRESS":"東泰路７６號","OBJECTID":657232},"geometry":{"x":181129.79327900056,"y":2579770.5356419999}},{"attributes":{"ID":657260,"DIS_CODE":0,"TOWNNAME":"新營區","LI":"新東里","LIN":"11鄰","STREET":"東泰路","SECT":" ","MAREA":" ","LANE":" ","ALLEY":" ","HOUSE_NO":"７８號","E_COORD97":181129.15763199999,"N_COORD97":2579778.15564,"ADDRESS":"東泰路７８號","OBJECTID":657233},"geometry":{"x":181129.15763200074,"y":2579778.155638}},{"attributes":{"ID":657261,"DIS_CODE":0,"TOWNNAME":"新營區","LI":"新東里","LIN":"11鄰","STREET":"東泰路","SECT":" ","MAREA":" ","LANE":" ","ALLEY":" ","HOUSE_NO":"８０號","E_COORD97":181128.94575000001,"N_COORD97":2579784.7173000001,"ADDRESS":"東泰路８０號","OBJECTID":657234},"geometry":{"x":181128.94575000089,"y":2579784.7173009999}},{"attributes":{"ID":657262,"DIS_CODE":0,"TOWNNAME":"仁德區","LI":"仁德里","LIN":"19鄰","STREET":"民安路","SECT":"一段","MAREA":" ","LANE":" ","ALLEY":" ","HOUSE_NO":"１２１號","E_COORD97":172185.81735,"N_COORD97":2539957.8269400001,"ADDRESS":"民安路一段１２１號","OBJECTID":657235},"geometry":{"x":172185.81735000014,"y":2539957.8269440029}},{"attributes":{"ID":657263,"DIS_CODE":0,"TOWNNAME":"新營區","LI":"新東里","LIN":"11鄰","STREET":"東泰路","SECT":" ","MAREA":" ","LANE":" ","ALLEY":" ","HOUSE_NO":"８２號","E_COORD97":181128.73386800001,"N_COORD97":2579791.2789599998,"ADDRESS":"東泰路８２號","OBJECTID":657236},"geometry":{"x":181128.73386800103,"y":2579791.2789639998}},{"attributes":{"ID":657264,"DIS_CODE":0,"TOWNNAME":"新營區","LI":"新東里","LIN":"11鄰","STREET":"東泰路","SECT":" ","MAREA":" ","LANE":" ","ALLEY":" ","HOUSE_NO":"８６號","E_COORD97":181128.52198600001,"N_COORD97":2579796.9939600001,"ADDRESS":"東泰路８６號","OBJECTID":657237},"geometry":{"x":181128.52198599931,"y":2579796.993960999}},{"attributes":{"ID":657265,"DIS_CODE":0,"TOWNNAME":"仁德區","LI":"仁德里","LIN":"19鄰","STREET":"文華路","SECT":"三段","MAREA":" ","LANE":" ","ALLEY":" ","HOUSE_NO":"６６號","E_COORD97":172168.23232700001,"N_COORD97":2540087.5785400001,"ADDRESS":"文華路三段６６號","OBJECTID":657238},"geometry":{"x":172168.23232699931,"y":2540087.5785410013}},{"attributes":{"ID":657266,"DIS_CODE":0,"TOWNNAME":"新營區","LI":"新東里","LIN":"11鄰","STREET":"東泰八街","SECT":" ","MAREA":" ","LANE":" ","ALLEY":" ","HOUSE_NO":"１號","E_COORD97":181143.141859,"N_COORD97":2579753.7081499998,"ADDRESS":"東泰八街１號","OBJECTID":657239},"geometry":{"x":181143.14185900055,"y":2579753.7081510015}},{"attributes":{"ID":657267,"DIS_CODE":0,"TOWNNAME":"歸仁區","LI":"七甲里","LIN":"3鄰","STREET":"中正北路","SECT":"二段","MAREA":" ","LANE":"５０１巷","ALLEY":" ","HOUSE_NO":"５７號","E_COORD97":177296.158578,"N_COORD97":2543210.68194,"ADDRESS":"中正北路二段５０１巷５７號","OBJECTID":657240},"geometry":{"x":177296.15857800096,"y":2543210.6819440015}},{"attributes":{"ID":657268,"DIS_CODE":0,"TOWNNAME":"新營區","LI":"新東里","LIN":"16鄰","STREET":"東泰九街","SECT":" ","MAREA":" ","LANE":" ","ALLEY":" ","HOUSE_NO":"５號","E_COORD97":181091.86636099999,"N_COORD97":2579794.5597999999,"ADDRESS":"東泰九街５號","OBJECTID":657241},"geometry":{"x":181091.86636099964,"y":2579794.5597959999}},{"attributes":{"ID":657269,"DIS_CODE":0,"TOWNNAME":"仁德區","LI":"仁德里","LIN":"21鄰","STREET":"中山路","SECT":" ","MAREA":" ","LANE":"８７５巷","ALLEY":" ","HOUSE_NO":"１０３號","E_COORD97":172373.28,"N_COORD97":2541238.2999999998,"ADDRESS":"中山路８７５巷１０３號","OBJECTID":657242},"geometry":{"x":172373.27999999933,"y":2541238.3000000007}},{"attributes":{"ID":657270,"DIS_CODE":0,"TOWNNAME":"新營區","LI":"新東里","LIN":"16鄰","STREET":"東泰九街","SECT":" ","MAREA":" ","LANE":" ","ALLEY":" ","HOUSE_NO":"７號","E_COORD97":181081.27225000001,"N_COORD97":2579793.5014599999,"ADDRESS":"東泰九街７號","OBJECTID":657243},"geometry":{"x":181081.27225000225,"y":2579793.5014630016}},{"attributes":{"ID":657271,"DIS_CODE":0,"TOWNNAME":"仁德區","LI":"仁德里","LIN":"21鄰","STREET":"中山路","SECT":" ","MAREA":" ","LANE":"８７５巷","ALLEY":" ","HOUSE_NO":"１０３號之１","E_COORD97":172373.28,"N_COORD97":2541238.2999999998,"ADDRESS":"中山路８７５巷１０３號之１","OBJECTID":657244},"geometry":{"x":172373.27999999933,"y":2541238.3000000007}},{"attributes":{"ID":657272,"DIS_CODE":0,"TOWNNAME":"仁德區","LI":"仁德里","LIN":"21鄰","STREET":"中山路","SECT":" ","MAREA":" ","LANE":"８７５巷","ALLEY":" ","HOUSE_NO":"１０３號之２","E_COORD97":172373.28,"N_COORD97":2541238.2999999998,"ADDRESS":"中山路８７５巷１０３號之２","OBJECTID":657245},"geometry":{"x":172373.27999999933,"y":2541238.3000000007}},{"attributes":{"ID":657273,"DIS_CODE":0,"TOWNNAME":"新營區","LI":"新東里","LIN":"16鄰","STREET":"東泰九街","SECT":" ","MAREA":" ","LANE":" ","ALLEY":" ","HOUSE_NO":"９號","E_COORD97":181069.83061,"N_COORD97":2579793.1839600001,"ADDRESS":"東泰九街９號","OBJECTID":657246},"geometry":{"x":181069.8306099996,"y":2579793.1839629989}},{"attributes":{"ID":657274,"DIS_CODE":0,"TOWNNAME":"仁德區","LI":"仁德里","LIN":"21鄰","STREET":"中山路","SECT":" ","MAREA":" ","LANE":"８７５巷","ALLEY":" ","HOUSE_NO":"１０３號之３","E_COORD97":172373.28,"N_COORD97":2541238.2999999998,"ADDRESS":"中山路８７５巷１０３號之３","OBJECTID":657247},"geometry":{"x":172373.27999999933,"y":2541238.3000000007}},{"attributes":{"ID":657275,"DIS_CODE":0,"TOWNNAME":"歸仁區","LI":"七甲里","LIN":"3鄰","STREET":"中正北路","SECT":"二段","MAREA":" ","LANE":"５０１巷","ALLEY":" ","HOUSE_NO":"３５號","E_COORD97":177364.79570399999,"N_COORD97":2543219.9952699998,"ADDRESS":"中正北路二段５０１巷３５號","OBJECTID":657248},"geometry":{"x":177364.79570400063,"y":2543219.9952719994}},{"attributes":{"ID":657276,"DIS_CODE":0,"TOWNNAME":"仁德區","LI":"仁德里","LIN":"21鄰","STREET":"中山路","SECT":" ","MAREA":" ","LANE":"８７５巷","ALLEY":" ","HOUSE_NO":"１０３號底一層之１","E_COORD97":172373.28,"N_COORD97":2541238.2999999998,"ADDRESS":"中山路８７５巷１０３號底一層之１","OBJECTID":657249},"geometry":{"x":172373.27999999933,"y":2541238.3000000007}},{"attributes":{"ID":657277,"DIS_CODE":0,"TOWNNAME":"仁德區","LI":"仁德里","LIN":"21鄰","STREET":"中山路","SECT":" ","MAREA":" ","LANE":"８７５巷","ALLEY":" ","HOUSE_NO":"１０３號底一層之２","E_COORD97":172373.28,"N_COORD97":2541238.2999999998,"ADDRESS":"中山路８７５巷１０３號底一層之２","OBJECTID":657250},"geometry":{"x":172373.27999999933,"y":2541238.3000000007}},{"attributes":{"ID":657278,"DIS_CODE":0,"TOWNNAME":"仁德區","LI":"仁德里","LIN":"21鄰","STREET":"中山路","SECT":" ","MAREA":" ","LANE":"８７５巷","ALLEY":" ","HOUSE_NO":"１０３號底一層之３","E_COORD97":172373.28,"N_COORD97":2541238.2999999998,"ADDRESS":"中山路８７５巷１０３號底一層之３","OBJECTID":657251},"geometry":{"x":172373.27999999933,"y":2541238.3000000007}},{"attributes":{"ID":657279,"DIS_CODE":0,"TOWNNAME":"新營區","LI":"新東里","LIN":"16鄰","STREET":"東泰七街","SECT":" ","MAREA":" ","LANE":" ","ALLEY":" ","HOUSE_NO":"１６號","E_COORD97":181093.98518399999,"N_COORD97":2579763.3919000002,"ADDRESS":"東泰七街１６號","OBJECTID":657252},"geometry":{"x":181093.98518400174,"y":2579763.391896002}},{"attributes":{"ID":657280,"DIS_CODE":0,"TOWNNAME":"新營區","LI":"新東里","LIN":"16鄰","STREET":"東泰七街","SECT":" ","MAREA":" ","LANE":" ","ALLEY":" ","HOUSE_NO":"１８號","E_COORD97":181088.05248099999,"N_COORD97":2579763.3919000002,"ADDRESS":"東泰七街１８號","OBJECTID":657253},"geometry":{"x":181088.05248100031,"y":2579763.391896002}},{"attributes":{"ID":657281,"DIS_CODE":0,"TOWNNAME":"新營區","LI":"新東里","LIN":"16鄰","STREET":"東泰七街","SECT":" ","MAREA":" ","LANE":" ","ALLEY":" ","HOUSE_NO":"２０號","E_COORD97":181080.636604,"N_COORD97":2579762.8627300002,"ADDRESS":"東泰七街２０號","OBJECTID":657254},"geometry":{"x":181080.63660400081,"y":2579762.8627300039}},{"attributes":{"ID":657282,"DIS_CODE":0,"TOWNNAME":"新營區","LI":"新東里","LIN":"16鄰","STREET":"東泰七街","SECT":" ","MAREA":" ","LANE":" ","ALLEY":" ","HOUSE_NO":"２２號","E_COORD97":181070.890021,"N_COORD97":2579762.0425200001,"ADDRESS":"東泰七街２２號","OBJECTID":657255},"geometry":{"x":181070.89002100099,"y":2579762.0425220039}},{"attributes":{"ID":657283,"DIS_CODE":0,"TOWNNAME":"仁德區","LI":"田厝里","LIN":"12鄰","STREET":"文華路","SECT":"二段","MAREA":" ","LANE":"３５８巷","ALLEY":"２０１弄","HOUSE_NO":"２９號","E_COORD97":171340.37114199999,"N_COORD97":2538279.7456800002,"ADDRESS":"文華路二段３５８巷２０１弄２９號","OBJECTID":657256},"geometry":{"x":171340.37114199996,"y":2538279.7456790004}},{"attributes":{"ID":657284,"DIS_CODE":0,"TOWNNAME":"楠西區","LI":"照興里","LIN":"4鄰","STREET":" ","SECT":" ","MAREA":"興北","LANE":" ","ALLEY":" ","HOUSE_NO":"４７號","E_COORD97":198477,"N_COORD97":2567660,"ADDRESS":"興北４７號","OBJECTID":657257},"geometry":{"x":198477,"y":2567660.0000000019}},{"attributes":{"ID":657285,"DIS_CODE":0,"TOWNNAME":"楠西區","LI":"照興里","LIN":"4鄰","STREET":" ","SECT":" ","MAREA":"興北","LANE":" ","ALLEY":" ","HOUSE_NO":"４７號之１","E_COORD97":198474,"N_COORD97":2567649,"ADDRESS":"興北４７號之１","OBJECTID":657258},"geometry":{"x":198473.99999999907,"y":2567649.0000000019}},{"attributes":{"ID":657286,"DIS_CODE":0,"TOWNNAME":"仁德區","LI":"一甲里","LIN":"11鄰","STREET":"忠義一街","SECT":" ","MAREA":" ","LANE":"３８巷","ALLEY":" ","HOUSE_NO":"１０號","E_COORD97":174077.717183,"N_COORD97":2542180.56024,"ADDRESS":"忠義一街３８巷１０號","OBJECTID":657259},"geometry":{"x":174077.71718300134,"y":2542180.5602450036}},{"attributes":{"ID":657287,"DIS_CODE":0,"TOWNNAME":"仁德區","LI":"一甲里","LIN":"11鄰","STREET":"忠義一街","SECT":" ","MAREA":" ","LANE":"３８巷","ALLEY":" ","HOUSE_NO":"１１號","E_COORD97":174060.34071300001,"N_COORD97":2542175.6919100001,"ADDRESS":"忠義一街３８巷１１號","OBJECTID":657260},"geometry":{"x":174060.34071300179,"y":2542175.6919140015}},{"attributes":{"ID":657288,"DIS_CODE":0,"TOWNNAME":"仁德區","LI":"一甲里","LIN":"11鄰","STREET":"忠義一街","SECT":" ","MAREA":" ","LANE":"３８巷","ALLEY":" ","HOUSE_NO":"２８號","E_COORD97":174126.24415400001,"N_COORD97":2542213.79189,"ADDRESS":"忠義一街３８巷２８號","OBJECTID":657261},"geometry":{"x":174126.24415400065,"y":2542213.7918940037}},{"attributes":{"ID":657289,"DIS_CODE":0,"TOWNNAME":"善化區","LI":"溪美里","LIN":"5鄰","STREET":" ","SECT":" ","MAREA":"溪尾","LANE":" ","ALLEY":" ","HOUSE_NO":"４４號之１","E_COORD97":176692.24737,"N_COORD97":2561194.9069300001,"ADDRESS":"溪尾４４號之１","OBJECTID":657262},"geometry":{"x":176692.24737000093,"y":2561194.9069299996}},{"attributes":{"ID":657290,"DIS_CODE":0,"TOWNNAME":"仁德區","LI":"仁德里","LIN":"21鄰","STREET":"中山路","SECT":" ","MAREA":" ","LANE":"８７５巷","ALLEY":" ","HOUSE_NO":"１０５號","E_COORD97":172371.79000000001,"N_COORD97":2541231.2999999998,"ADDRESS":"中山路８７５巷１０５號","OBJECTID":657263},"geometry":{"x":172371.79000000097,"y":2541231.3000000007}},{"attributes":{"ID":657291,"DIS_CODE":0,"TOWNNAME":"仁德區","LI":"仁德里","LIN":"21鄰","STREET":"中山路","SECT":" ","MAREA":" ","LANE":"８７５巷","ALLEY":" ","HOUSE_NO":"１０５號之１","E_COORD97":172371.79000000001,"N_COORD97":2541231.2999999998,"ADDRESS":"中山路８７５巷１０５號之１","OBJECTID":657264},"geometry":{"x":172371.79000000097,"y":2541231.3000000007}},{"attributes":{"ID":657292,"DIS_CODE":0,"TOWNNAME":"仁德區","LI":"仁德里","LIN":"21鄰","STREET":"中山路","SECT":" ","MAREA":" ","LANE":"８７５巷","ALLEY":" ","HOUSE_NO":"１０５號之２","E_COORD97":172371.79000000001,"N_COORD97":2541231.2999999998,"ADDRESS":"中山路８７５巷１０５號之２","OBJECTID":657265},"geometry":{"x":172371.79000000097,"y":2541231.3000000007}},{"attributes":{"ID":657293,"DIS_CODE":0,"TOWNNAME":"仁德區","LI":"仁德里","LIN":"21鄰","STREET":"中山路","SECT":" ","MAREA":" ","LANE":"８７５巷","ALLEY":" ","HOUSE_NO":"１０５號之４","E_COORD97":172371.79000000001,"N_COORD97":2541231.2999999998,"ADDRESS":"中山路８７５巷１０５號之４","OBJECTID":657266},"geometry":{"x":172371.79000000097,"y":2541231.3000000007}},{"attributes":{"ID":657294,"DIS_CODE":0,"TOWNNAME":"仁德區","LI":"仁德里","LIN":"21鄰","STREET":"中山路","SECT":" ","MAREA":" ","LANE":"８７５巷","ALLEY":" ","HOUSE_NO":"１０７號","E_COORD97":172370.20000000001,"N_COORD97":2541224.04,"ADDRESS":"中山路８７５巷１０７號","OBJECTID":657267},"geometry":{"x":172370.20000000019,"y":2541224.040000001}},{"attributes":{"ID":657295,"DIS_CODE":0,"TOWNNAME":"仁德區","LI":"仁德里","LIN":"21鄰","STREET":"中山路","SECT":" ","MAREA":" ","LANE":"８７５巷","ALLEY":" ","HOUSE_NO":"１０７號之１","E_COORD97":172370.20000000001,"N_COORD97":2541224.04,"ADDRESS":"中山路８７５巷１０７號之１","OBJECTID":657268},"geometry":{"x":172370.20000000019,"y":2541224.040000001}},{"attributes":{"ID":657296,"DIS_CODE":0,"TOWNNAME":"仁德區","LI":"仁德里","LIN":"21鄰","STREET":"中山路","SECT":" ","MAREA":" ","LANE":"８７５巷","ALLEY":" ","HOUSE_NO":"１０７號之３","E_COORD97":172370.20000000001,"N_COORD97":2541224.04,"ADDRESS":"中山路８７５巷１０７號之３","OBJECTID":657269},"geometry":{"x":172370.20000000019,"y":2541224.040000001}},{"attributes":{"ID":657297,"DIS_CODE":0,"TOWNNAME":"仁德區","LI":"仁德里","LIN":"21鄰","STREET":"中山路","SECT":" ","MAREA":" ","LANE":"８７５巷","ALLEY":" ","HOUSE_NO":"１０７號之４","E_COORD97":172370.20000000001,"N_COORD97":2541224.04,"ADDRESS":"中山路８７５巷１０７號之４","OBJECTID":657270},"geometry":{"x":172370.20000000019,"y":2541224.040000001}},{"attributes":{"ID":657298,"DIS_CODE":0,"TOWNNAME":"仁德區","LI":"一甲里","LIN":"19鄰","STREET":"太乙路","SECT":" ","MAREA":" ","LANE":" ","ALLEY":" ","HOUSE_NO":"５１號之１","E_COORD97":173464.66685199999,"N_COORD97":2542470.8951900001,"ADDRESS":"太乙路５１號之１","OBJECTID":657271},"geometry":{"x":173464.6668520011,"y":2542470.8951909989}},{"attributes":{"ID":657299,"DIS_CODE":0,"TOWNNAME":"仁德區","LI":"仁德里","LIN":"21鄰","STREET":"中山路","SECT":" ","MAREA":" ","LANE":"８７５巷","ALLEY":" ","HOUSE_NO":"１０９號","E_COORD97":172368.66,"N_COORD97":2541217.04,"ADDRESS":"中山路８７５巷１０９號","OBJECTID":657272},"geometry":{"x":172368.66000000015,"y":2541217.040000001}},{"attributes":{"ID":657300,"DIS_CODE":0,"TOWNNAME":"仁德區","LI":"一甲里","LIN":"19鄰","STREET":"太新路","SECT":" ","MAREA":" ","LANE":" ","ALLEY":" ","HOUSE_NO":"８０號","E_COORD97":173399.82295199999,"N_COORD97":2542298.2811199999,"ADDRESS":"太新路８０號","OBJECTID":657273},"geometry":{"x":173399.82295200136,"y":2542298.2811170015}},{"attributes":{"ID":657301,"DIS_CODE":0,"TOWNNAME":"仁德區","LI":"仁德里","LIN":"21鄰","STREET":"中山路","SECT":" ","MAREA":" ","LANE":"８７５巷","ALLEY":" ","HOUSE_NO":"１０９號之２","E_COORD97":172368.66,"N_COORD97":2541217.04,"ADDRESS":"中山路８７５巷１０９號之２","OBJECTID":657274},"geometry":{"x":172368.66000000015,"y":2541217.040000001}},{"attributes":{"ID":657302,"DIS_CODE":0,"TOWNNAME":"仁德區","LI":"仁德里","LIN":"21鄰","STREET":"中山路","SECT":" ","MAREA":" ","LANE":"８７５巷","ALLEY":" ","HOUSE_NO":"１０９號之３","E_COORD97":172368.66,"N_COORD97":2541217.04,"ADDRESS":"中山路８７５巷１０９號之３","OBJECTID":657275},"geometry":{"x":172368.66000000015,"y":2541217.040000001}},{"attributes":{"ID":657303,"DIS_CODE":0,"TOWNNAME":"仁德區","LI":"仁德里","LIN":"21鄰","STREET":"中山路","SECT":" ","MAREA":" ","LANE":"８７５巷","ALLEY":" ","HOUSE_NO":"１０９號之４","E_COORD97":172368.66,"N_COORD97":2541217.04,"ADDRESS":"中山路８７５巷１０９號之４","OBJECTID":657276},"geometry":{"x":172368.66000000015,"y":2541217.040000001}},{"attributes":{"ID":657304,"DIS_CODE":0,"TOWNNAME":"仁德區","LI":"一甲里","LIN":"20鄰","STREET":"太乙六街","SECT":" ","MAREA":" ","LANE":" ","ALLEY":" ","HOUSE_NO":"４５號","E_COORD97":173215.25093800001,"N_COORD97":2542401.0452299998,"ADDRESS":"太乙六街４５號","OBJECTID":657277},"geometry":{"x":173215.25093799923,"y":2542401.045229001}},{"attributes":{"ID":657305,"DIS_CODE":0,"TOWNNAME":"仁德區","LI":"一甲里","LIN":"20鄰","STREET":"太乙六街","SECT":" ","MAREA":" ","LANE":" ","ALLEY":" ","HOUSE_NO":"６２號","E_COORD97":173190.66959,"N_COORD97":2542303.2552800002,"ADDRESS":"太乙六街６２號","OBJECTID":657278},"geometry":{"x":173190.66959000006,"y":2542303.2552810013}},{"attributes":{"ID":657306,"DIS_CODE":0,"TOWNNAME":"仁德區","LI":"一甲里","LIN":"20鄰","STREET":"太新路","SECT":" ","MAREA":" ","LANE":" ","ALLEY":" ","HOUSE_NO":"４０號","E_COORD97":173322.264563,"N_COORD97":2542295.3177899998,"ADDRESS":"太新路４０號","OBJECTID":657279},"geometry":{"x":173322.26456300076,"y":2542295.3177860044}},{"attributes":{"ID":657307,"DIS_CODE":0,"TOWNNAME":"仁德區","LI":"仁德里","LIN":"24鄰","STREET":"文心路","SECT":" ","MAREA":" ","LANE":" ","ALLEY":" ","HOUSE_NO":"１號","E_COORD97":172122.25702600001,"N_COORD97":2541312.5153299998,"ADDRESS":"文心路１號","OBJECTID":657280},"geometry":{"x":172122.25702599902,"y":2541312.5153320041}},{"attributes":{"ID":657308,"DIS_CODE":0,"TOWNNAME":"鹽水區","LI":"橋南里","LIN":"18鄰","STREET":"治水路","SECT":" ","MAREA":" ","LANE":" ","ALLEY":" ","HOUSE_NO":"２６６號","E_COORD97":174604.40325999999,"N_COORD97":2579841.0293700001,"ADDRESS":"治水路２６６號","OBJECTID":657281},"geometry":{"x":174604.40326000098,"y":2579841.0293710027}},{"attributes":{"ID":657309,"DIS_CODE":0,"TOWNNAME":"麻豆區","LI":"埤頭里","LIN":"9鄰","STREET":" ","SECT":" ","MAREA":"埤頭","LANE":" ","ALLEY":" ","HOUSE_NO":"７５號","E_COORD97":170734.05275999999,"N_COORD97":2566083.0172899999,"ADDRESS":"埤頭７５號","OBJECTID":657282},"geometry":{"x":170734.05276000127,"y":2566083.0172899999}},{"attributes":{"ID":657310,"DIS_CODE":0,"TOWNNAME":"麻豆區","LI":"埤頭里","LIN":"11鄰","STREET":" ","SECT":" ","MAREA":"埤頭","LANE":" ","ALLEY":" ","HOUSE_NO":"９２號","E_COORD97":170679.81346899999,"N_COORD97":2565946.2579100002,"ADDRESS":"埤頭９２號","OBJECTID":657283},"geometry":{"x":170679.81346900016,"y":2565946.2579069994}},{"attributes":{"ID":657311,"DIS_CODE":0,"TOWNNAME":"龍崎區","LI":"土崎里","LIN":"6鄰","STREET":" ","SECT":" ","MAREA":"紅水子","LANE":" ","ALLEY":" ","HOUSE_NO":"１號","E_COORD97":185924.47415299999,"N_COORD97":2544931.1672499999,"ADDRESS":"紅水子１號","OBJECTID":657284},"geometry":{"x":185924.47415300086,"y":2544931.1672470011}},{"attributes":{"ID":657312,"DIS_CODE":0,"TOWNNAME":"龍崎區","LI":"土崎里","LIN":"6鄰","STREET":" ","SECT":" ","MAREA":"紅水子","LANE":" ","ALLEY":" ","HOUSE_NO":"３之１號","E_COORD97":185930.82799399999,"N_COORD97":2544938.5755799999,"ADDRESS":"紅水子３之１號","OBJECTID":657285},"geometry":{"x":185930.8279940011,"y":2544938.575577002}},{"attributes":{"ID":657313,"DIS_CODE":0,"TOWNNAME":"仁德區","LI":"後壁里","LIN":"16鄰","STREET":"德善路","SECT":" ","MAREA":" ","LANE":"３２巷","ALLEY":"１７弄","HOUSE_NO":"１１號","E_COORD97":173328.79688800001,"N_COORD97":2538871.3232900002,"ADDRESS":"德善路３２巷１７弄１１號","OBJECTID":657286},"geometry":{"x":173328.79688800126,"y":2538871.3232900016}},{"attributes":{"ID":657314,"DIS_CODE":0,"TOWNNAME":"麻豆區","LI":"埤頭里","LIN":"12鄰","STREET":" ","SECT":" ","MAREA":"埤頭","LANE":" ","ALLEY":" ","HOUSE_NO":"１０２號之２","E_COORD97":170877.30122699999,"N_COORD97":2566135.9339299998,"ADDRESS":"埤頭１０２號之２","OBJECTID":657287},"geometry":{"x":170877.30122699961,"y":2566135.933929}},{"attributes":{"ID":657315,"DIS_CODE":0,"TOWNNAME":"麻豆區","LI":"埤頭里","LIN":"13鄰","STREET":" ","SECT":" ","MAREA":"埤頭","LANE":" ","ALLEY":" ","HOUSE_NO":"１２０號","E_COORD97":170928.362441,"N_COORD97":2566694.82479,"ADDRESS":"埤頭１２０號","OBJECTID":657288},"geometry":{"x":170928.36244100053,"y":2566694.8247900009}},{"attributes":{"ID":657316,"DIS_CODE":0,"TOWNNAME":"麻豆區","LI":"埤頭里","LIN":"17鄰","STREET":" ","SECT":" ","MAREA":"埤頭","LANE":" ","ALLEY":" ","HOUSE_NO":"１５６號之７","E_COORD97":171111.46569899999,"N_COORD97":2567514.7233000002,"ADDRESS":"埤頭１５６號之７","OBJECTID":657289},"geometry":{"x":171111.46569900028,"y":2567514.723302003}},{"attributes":{"ID":657317,"DIS_CODE":0,"TOWNNAME":"龍崎區","LI":"土崎里","LIN":"6鄰","STREET":" ","SECT":" ","MAREA":"紅水子","LANE":" ","ALLEY":" ","HOUSE_NO":"４號","E_COORD97":185895.12649,"N_COORD97":2544987.0472200001,"ADDRESS":"紅水子４號","OBJECTID":657290},"geometry":{"x":185895.12649000064,"y":2544987.0472170003}},{"attributes":{"ID":657318,"DIS_CODE":0,"TOWNNAME":"龍崎區","LI":"土崎里","LIN":"6鄰","STREET":" ","SECT":" ","MAREA":"紅水子","LANE":" ","ALLEY":" ","HOUSE_NO":"７號","E_COORD97":186410.211232,"N_COORD97":2544773.8990000002,"ADDRESS":"紅水子７號","OBJECTID":657291},"geometry":{"x":186410.21123200003,"y":2544773.8989990018}},{"attributes":{"ID":657319,"DIS_CODE":0,"TOWNNAME":"龍崎區","LI":"土崎里","LIN":"6鄰","STREET":" ","SECT":" ","MAREA":"紅水子","LANE":" ","ALLEY":" ","HOUSE_NO":"８號","E_COORD97":186399.83329099999,"N_COORD97":2544714.20903,"ADDRESS":"紅水子８號","OBJECTID":657292},"geometry":{"x":186399.83329100162,"y":2544714.2090310026}},{"attributes":{"ID":657320,"DIS_CODE":0,"TOWNNAME":"龍崎區","LI":"土崎里","LIN":"6鄰","STREET":" ","SECT":" ","MAREA":"紅水子","LANE":" ","ALLEY":" ","HOUSE_NO":"１０號","E_COORD97":186353.66204299999,"N_COORD97":2544598.6390900002,"ADDRESS":"紅水子１０號","OBJECTID":657293},"geometry":{"x":186353.66204299964,"y":2544598.6390930004}},{"attributes":{"ID":657321,"DIS_CODE":0,"TOWNNAME":"龍崎區","LI":"土崎里","LIN":"6鄰","STREET":" ","SECT":" ","MAREA":"紅水子","LANE":" ","ALLEY":" ","HOUSE_NO":"１２號","E_COORD97":186415.92968900001,"N_COORD97":2544578.5307700001,"ADDRESS":"紅水子１２號","OBJECTID":657294},"geometry":{"x":186415.92968900129,"y":2544578.5307710003}},{"attributes":{"ID":657322,"DIS_CODE":0,"TOWNNAME":"新市區","LI":"港墘里","LIN":"5鄰","STREET":"民族路","SECT":" ","MAREA":" ","LANE":"１２０巷","ALLEY":" ","HOUSE_NO":"３０號","E_COORD97":178168.65223800001,"N_COORD97":2553640.3119399999,"ADDRESS":"民族路１２０巷３０號","OBJECTID":657295},"geometry":{"x":178168.65223800018,"y":2553640.3119440023}},{"attributes":{"ID":657323,"DIS_CODE":0,"TOWNNAME":"官田區","LI":"南\u25A0里","LIN":"1鄰","STREET":" ","SECT":" ","MAREA":"南\u25A0","LANE":" ","ALLEY":" ","HOUSE_NO":"４號","E_COORD97":178811.23534499999,"N_COORD97":2567074.69887,"ADDRESS":"南\u25A0４號","OBJECTID":657296},"geometry":{"x":178811.2353450004,"y":2567074.698869003}},{"attributes":{"ID":657324,"DIS_CODE":0,"TOWNNAME":"安定區","LI":"港南里","LIN":"18鄰","STREET":" ","SECT":" ","MAREA":"港口","LANE":" ","ALLEY":" ","HOUSE_NO":"２４４之３０號","E_COORD97":171821.442568,"N_COORD97":2554700.9226899999,"ADDRESS":"港口２４４之３０號","OBJECTID":657297},"geometry":{"x":171821.44256800134,"y":2554700.9226859994}},{"attributes":{"ID":657325,"DIS_CODE":0,"TOWNNAME":"麻豆區","LI":"大埕里","LIN":"10鄰","STREET":" ","SECT":" ","MAREA":"\u25A0祖\u25A0","LANE":" ","ALLEY":" ","HOUSE_NO":"４號之５","E_COORD97":173057.770445,"N_COORD97":2565204.2296600002,"ADDRESS":"\u25A0祖\u25A0４號之５","OBJECTID":657298},"geometry":{"x":173057.77044500038,"y":2565204.229662003}},{"attributes":{"ID":657326,"DIS_CODE":0,"TOWNNAME":"西港區","LI":"慶安里","LIN":"2鄰","STREET":" ","SECT":" ","MAREA":"中州","LANE":" ","ALLEY":" ","HOUSE_NO":"２０號","E_COORD97":167131.80574000001,"N_COORD97":2559786.1024099998,"ADDRESS":"中州２０號","OBJECTID":657299},"geometry":{"x":167131.80574000068,"y":2559786.1024100017}},{"attributes":{"ID":657327,"DIS_CODE":0,"TOWNNAME":"麻豆區","LI":"安正里","LIN":"4鄰","STREET":" ","SECT":" ","MAREA":"方厝寮","LANE":" ","ALLEY":" ","HOUSE_NO":"２號之７","E_COORD97":171556.12435200001,"N_COORD97":2561887.2410400002,"ADDRESS":"方厝寮２號之７","OBJECTID":657300},"geometry":{"x":171556.12435200065,"y":2561887.2410429996}},{"attributes":{"ID":657328,"DIS_CODE":0,"TOWNNAME":"仁德區","LI":"後壁里","LIN":"33鄰","STREET":"德洋二街","SECT":" ","MAREA":" ","LANE":" ","ALLEY":" ","HOUSE_NO":"６５之２號","E_COORD97":172144.05609299999,"N_COORD97":2539594.4241599999,"ADDRESS":"德洋二街６５之２號","OBJECTID":657301},"geometry":{"x":172144.05609299988,"y":2539594.4241560008}},{"attributes":{"ID":657329,"DIS_CODE":0,"TOWNNAME":"麻豆區","LI":"安正里","LIN":"4鄰","STREET":" ","SECT":" ","MAREA":"方厝寮","LANE":" ","ALLEY":" ","HOUSE_NO":"３６號之２０","E_COORD97":170180.87942499999,"N_COORD97":2562579.3906700001,"ADDRESS":"方厝寮３６號之２０","OBJECTID":657302},"geometry":{"x":170180.87942500226,"y":2562579.3906690031}},{"attributes":{"ID":657330,"DIS_CODE":0,"TOWNNAME":"仁德區","LI":"後壁里","LIN":"41鄰","STREET":"德善路","SECT":" ","MAREA":" ","LANE":" ","ALLEY":" ","HOUSE_NO":"２４９號","E_COORD97":173850.92181999999,"N_COORD97":2538688.7116200002,"ADDRESS":"德善路２４９號","OBJECTID":657303},"geometry":{"x":173850.92182000075,"y":2538688.7116219997}},{"attributes":{"ID":657331,"DIS_CODE":0,"TOWNNAME":"麻豆區","LI":"安正里","LIN":"9鄰","STREET":" ","SECT":" ","MAREA":"社子","LANE":" ","ALLEY":" ","HOUSE_NO":"２８號之５","E_COORD97":172077.523411,"N_COORD97":2562326.3169999998,"ADDRESS":"社子２８號之５","OBJECTID":657304},"geometry":{"x":172077.52341100201,"y":2562326.3169950023}},{"attributes":{"ID":657332,"DIS_CODE":0,"TOWNNAME":"麻豆區","LI":"安正里","LIN":"2鄰","STREET":" ","SECT":" ","MAREA":"前班","LANE":" ","ALLEY":" ","HOUSE_NO":"２２號之３","E_COORD97":171883.82992700001,"N_COORD97":2563669.1296000001,"ADDRESS":"前班２２號之３","OBJECTID":657305},"geometry":{"x":171883.82992699929,"y":2563669.1296030004}},{"attributes":{"ID":657333,"DIS_CODE":0,"TOWNNAME":"麻豆區","LI":"安正里","LIN":"4鄰","STREET":" ","SECT":" ","MAREA":"方厝寮","LANE":" ","ALLEY":" ","HOUSE_NO":"１號之２６","E_COORD97":172110.317106,"N_COORD97":2562018.4481899999,"ADDRESS":"方厝寮１號之２６","OBJECTID":657306},"geometry":{"x":172110.31710600015,"y":2562018.4481899999}},{"attributes":{"ID":657334,"DIS_CODE":0,"TOWNNAME":"麻豆區","LI":"安正里","LIN":"4鄰","STREET":" ","SECT":" ","MAREA":"方厝寮","LANE":" ","ALLEY":" ","HOUSE_NO":"２號之１２","E_COORD97":171770.823714,"N_COORD97":2561849.3266199999,"ADDRESS":"方厝寮２號之１２","OBJECTID":657307},"geometry":{"x":171770.82371400017,"y":2561849.3266150001}},{"attributes":{"ID":657335,"DIS_CODE":0,"TOWNNAME":"大內區","LI":"二溪里","LIN":"7鄰","STREET":" ","SECT":" ","MAREA":"二重溪","LANE":" ","ALLEY":" ","HOUSE_NO":"２０３之２０號","E_COORD97":189121.82196199999,"N_COORD97":2558854.67319,"ADDRESS":"二重溪２０３之２０號","OBJECTID":657308},"geometry":{"x":189121.82196200173,"y":2558854.6731940005}},{"attributes":{"ID":657336,"DIS_CODE":0,"TOWNNAME":"官田區","LI":"南\u25A0里","LIN":"8鄰","STREET":" ","SECT":" ","MAREA":"南\u25A0","LANE":" ","ALLEY":" ","HOUSE_NO":"１０５號","E_COORD97":177517.44971399999,"N_COORD97":2568548.0065199998,"ADDRESS":"南\u25A0１０５號","OBJECTID":657309},"geometry":{"x":177517.44971400034,"y":2568548.006515}},{"attributes":{"ID":657337,"DIS_CODE":0,"TOWNNAME":"山上區","LI":"新莊里","LIN":"5鄰","STREET":" ","SECT":" ","MAREA":"新庄","LANE":" ","ALLEY":" ","HOUSE_NO":"５８之１號","E_COORD97":184769.73870399999,"N_COORD97":2555131.0485800002,"ADDRESS":"新庄５８之１號","OBJECTID":657310},"geometry":{"x":184769.73870400153,"y":2555131.0485820007}},{"attributes":{"ID":657338,"DIS_CODE":0,"TOWNNAME":"大內區","LI":"二溪里","LIN":"7鄰","STREET":" ","SECT":" ","MAREA":"二重溪","LANE":" ","ALLEY":" ","HOUSE_NO":"２０５之３號","E_COORD97":189321.32862799999,"N_COORD97":2559304.5439900002,"ADDRESS":"二重溪２０５之３號","OBJECTID":657311},"geometry":{"x":189321.32862800173,"y":2559304.5439920034}},{"attributes":{"ID":657339,"DIS_CODE":0,"TOWNNAME":"麻豆區","LI":"南勢里","LIN":"10鄰","STREET":" ","SECT":" ","MAREA":"南勢","LANE":" ","ALLEY":" ","HOUSE_NO":"１號之３８","E_COORD97":175090.76744699999,"N_COORD97":2566619.4053400001,"ADDRESS":"南勢１號之３８","OBJECTID":657312},"geometry":{"x":175090.7674470013,"y":2566619.4053360019}},{"attributes":{"ID":657340,"DIS_CODE":0,"TOWNNAME":"麻豆區","LI":"南勢里","LIN":"10鄰","STREET":" ","SECT":" ","MAREA":"南勢","LANE":" ","ALLEY":" ","HOUSE_NO":"１號之４５","E_COORD97":175236.11609900001,"N_COORD97":2566798.4223199999,"ADDRESS":"南勢１號之４５","OBJECTID":657313},"geometry":{"x":175236.11609900091,"y":2566798.4223220013}},{"attributes":{"ID":657341,"DIS_CODE":0,"TOWNNAME":"麻豆區","LI":"南勢里","LIN":"10鄰","STREET":" ","SECT":" ","MAREA":"南勢","LANE":" ","ALLEY":" ","HOUSE_NO":"１號之２６","E_COORD97":174643.915687,"N_COORD97":2565874.4978200002,"ADDRESS":"南勢１號之２６","OBJECTID":657314},"geometry":{"x":174643.91568700038,"y":2565874.4978210013}},{"attributes":{"ID":657342,"DIS_CODE":0,"TOWNNAME":"麻豆區","LI":"南勢里","LIN":"10鄰","STREET":" ","SECT":" ","MAREA":"南勢","LANE":" ","ALLEY":" ","HOUSE_NO":"１號之２７","E_COORD97":174528.86566099999,"N_COORD97":2565816.7128499998,"ADDRESS":"南勢１號之２７","OBJECTID":657315},"geometry":{"x":174528.86566099897,"y":2565816.7128530014}},{"attributes":{"ID":657343,"DIS_CODE":0,"TOWNNAME":"麻豆區","LI":"南勢里","LIN":"10鄰","STREET":" ","SECT":" ","MAREA":"南勢","LANE":" ","ALLEY":" ","HOUSE_NO":"１號之２９","E_COORD97":174603.87065,"N_COORD97":2565867.7244899999,"ADDRESS":"南勢１號之２９","OBJECTID":657316},"geometry":{"x":174603.87064999901,"y":2565867.7244920023}},{"attributes":{"ID":657344,"DIS_CODE":0,"TOWNNAME":"麻豆區","LI":"南勢里","LIN":"20鄰","STREET":" ","SECT":" ","MAREA":"南勢","LANE":" ","ALLEY":" ","HOUSE_NO":"３８號之７","E_COORD97":174459.369512,"N_COORD97":2564826.1133900001,"ADDRESS":"南勢３８號之７","OBJECTID":657317},"geometry":{"x":174459.36951200012,"y":2564826.1133869998}},{"attributes":{"ID":657345,"DIS_CODE":0,"TOWNNAME":"麻豆區","LI":"南勢里","LIN":"24鄰","STREET":" ","SECT":" ","MAREA":"南勢","LANE":" ","ALLEY":" ","HOUSE_NO":"７９號之２","E_COORD97":174724.53545699999,"N_COORD97":2564970.1524800002,"ADDRESS":"南勢７９號之２","OBJECTID":657318},"geometry":{"x":174724.53545700014,"y":2564970.1524760015}},{"attributes":{"ID":657346,"DIS_CODE":0,"TOWNNAME":"山上區","LI":"新莊里","LIN":"5鄰","STREET":" ","SECT":" ","MAREA":"新庄","LANE":" ","ALLEY":" ","HOUSE_NO":"５８號之２","E_COORD97":184687.12437000001,"N_COORD97":2555008.0061699999,"ADDRESS":"新庄５８號之２","OBJECTID":657319},"geometry":{"x":184687.12437000219,"y":2555008.0061700009}},{"attributes":{"ID":657347,"DIS_CODE":0,"TOWNNAME":"山上區","LI":"新莊里","LIN":"5鄰","STREET":" ","SECT":" ","MAREA":"新庄","LANE":" ","ALLEY":" ","HOUSE_NO":"５９號","E_COORD97":184274.44261299999,"N_COORD97":2554823.4329400002,"ADDRESS":"新庄５９號","OBJECTID":657320},"geometry":{"x":184274.44261300191,"y":2554823.4329419993}},{"attributes":{"ID":657348,"DIS_CODE":0,"TOWNNAME":"山上區","LI":"新莊里","LIN":"9鄰","STREET":" ","SECT":" ","MAREA":"大庄","LANE":" ","ALLEY":" ","HOUSE_NO":"５５之６號","E_COORD97":183091.43823,"N_COORD97":2554520.33635,"ADDRESS":"大庄５５之６號","OBJECTID":657321},"geometry":{"x":183091.43823000044,"y":2554520.3363530003}},{"attributes":{"ID":657349,"DIS_CODE":0,"TOWNNAME":"山上區","LI":"新莊里","LIN":"6鄰","STREET":" ","SECT":" ","MAREA":"大庄","LANE":" ","ALLEY":" ","HOUSE_NO":"１之１００號","E_COORD97":184227.951367,"N_COORD97":2555041.5649100002,"ADDRESS":"大庄１之１００號","OBJECTID":657322},"geometry":{"x":184227.95136700105,"y":2555041.564914003}},{"attributes":{"ID":657350,"DIS_CODE":0,"TOWNNAME":"山上區","LI":"新莊里","LIN":"6鄰","STREET":" ","SECT":" ","MAREA":"大庄","LANE":" ","ALLEY":" ","HOUSE_NO":"１號之２０","E_COORD97":184129.550728,"N_COORD97":2555022.1910299999,"ADDRESS":"大庄１號之２０","OBJECTID":657323},"geometry":{"x":184129.5507280007,"y":2555022.1910310015}},{"attributes":{"ID":657351,"DIS_CODE":0,"TOWNNAME":"山上區","LI":"新莊里","LIN":"6鄰","STREET":" ","SECT":" ","MAREA":"大庄","LANE":" ","ALLEY":" ","HOUSE_NO":"１號之２８","E_COORD97":184175.3101,"N_COORD97":2555027.3768600002,"ADDRESS":"大庄１號之２８","OBJECTID":657324},"geometry":{"x":184175.31009999942,"y":2555027.3768600021}},{"attributes":{"ID":657352,"DIS_CODE":0,"TOWNNAME":"山上區","LI":"新莊里","LIN":"6鄰","STREET":" ","SECT":" ","MAREA":"大庄","LANE":" ","ALLEY":" ","HOUSE_NO":"１號之３３","E_COORD97":184156.03184000001,"N_COORD97":2555011.5018699998,"ADDRESS":"大庄１號之３３","OBJECTID":657325},"geometry":{"x":184156.0318400003,"y":2555011.5018699989}},{"attributes":{"ID":657353,"DIS_CODE":0,"TOWNNAME":"山上區","LI":"新莊里","LIN":"9鄰","STREET":" ","SECT":" ","MAREA":"大庄","LANE":" ","ALLEY":" ","HOUSE_NO":"６２號","E_COORD97":183023.48735099999,"N_COORD97":2554434.7105100001,"ADDRESS":"大庄６２號","OBJECTID":657326},"geometry":{"x":183023.48735100124,"y":2554434.7105150018}},{"attributes":{"ID":657354,"DIS_CODE":0,"TOWNNAME":"山上區","LI":"新莊里","LIN":"6鄰","STREET":" ","SECT":" ","MAREA":"大庄","LANE":" ","ALLEY":" ","HOUSE_NO":"１之５１號","E_COORD97":184183.14851299999,"N_COORD97":2555129.6118100001,"ADDRESS":"大庄１之５１號","OBJECTID":657327},"geometry":{"x":184183.14851300139,"y":2555129.6118069999}},{"attributes":{"ID":657355,"DIS_CODE":0,"TOWNNAME":"山上區","LI":"新莊里","LIN":"8鄰","STREET":" ","SECT":" ","MAREA":"大庄","LANE":" ","ALLEY":" ","HOUSE_NO":"２８之２號","E_COORD97":183822.793446,"N_COORD97":2554832.9611300002,"ADDRESS":"大庄２８之２號","OBJECTID":657328},"geometry":{"x":183822.79344599973,"y":2554832.9611330014}},{"attributes":{"ID":657356,"DIS_CODE":0,"TOWNNAME":"山上區","LI":"新莊里","LIN":"5鄰","STREET":" ","SECT":" ","MAREA":"新庄","LANE":" ","ALLEY":" ","HOUSE_NO":"６３號","E_COORD97":184352.839523,"N_COORD97":2554993.4043800002,"ADDRESS":"新庄６３號","OBJECTID":657329},"geometry":{"x":184352.83952300064,"y":2554993.4043800049}},{"attributes":{"ID":657357,"DIS_CODE":0,"TOWNNAME":"山上區","LI":"新莊里","LIN":"1鄰","STREET":" ","SECT":" ","MAREA":"新庄","LANE":" ","ALLEY":" ","HOUSE_NO":"８號之６","E_COORD97":184975.651622,"N_COORD97":2555072.8354099998,"ADDRESS":"新庄８號之６","OBJECTID":657330},"geometry":{"x":184975.65162200201,"y":2555072.8354060017}},{"attributes":{"ID":657358,"DIS_CODE":0,"TOWNNAME":"山上區","LI":"新莊里","LIN":"5鄰","STREET":" ","SECT":" ","MAREA":"新庄","LANE":" ","ALLEY":" ","HOUSE_NO":"５９之１號","E_COORD97":184340.31483799999,"N_COORD97":2554758.98367,"ADDRESS":"新庄５９之１號","OBJECTID":657331},"geometry":{"x":184340.31483799964,"y":2554758.9836729988}},{"attributes":{"ID":657359,"DIS_CODE":0,"TOWNNAME":"山上區","LI":"新莊里","LIN":"9鄰","STREET":" ","SECT":" ","MAREA":"大庄","LANE":" ","ALLEY":" ","HOUSE_NO":"３１之１５號","E_COORD97":183816.41237999999,"N_COORD97":2554924.5069200001,"ADDRESS":"大庄３１之１５號","OBJECTID":657332},"geometry":{"x":183816.41238000058,"y":2554924.5069169998}},{"attributes":{"ID":657360,"DIS_CODE":0,"TOWNNAME":"山上區","LI":"新莊里","LIN":"9鄰","STREET":" ","SECT":" ","MAREA":"大庄","LANE":" ","ALLEY":" ","HOUSE_NO":"３１之１４號","E_COORD97":183817.895323,"N_COORD97":2554920.4852499999,"ADDRESS":"大庄３１之１４號","OBJECTID":657333},"geometry":{"x":183817.89532299992,"y":2554920.4852530044}},{"attributes":{"ID":657361,"DIS_CODE":0,"TOWNNAME":"山上區","LI":"新莊里","LIN":"9鄰","STREET":" ","SECT":" ","MAREA":"大庄","LANE":" ","ALLEY":" ","HOUSE_NO":"６０號","E_COORD97":182995.70954099999,"N_COORD97":2554434.07552,"ADDRESS":"大庄６０號","OBJECTID":657334},"geometry":{"x":182995.70954100043,"y":2554434.075515002}},{"attributes":{"ID":657362,"DIS_CODE":0,"TOWNNAME":"麻豆區","LI":"南勢里","LIN":"13鄰","STREET":" ","SECT":" ","MAREA":"南勢","LANE":" ","ALLEY":" ","HOUSE_NO":"２４號之１５","E_COORD97":174415.88717,"N_COORD97":2565143.4046900002,"ADDRESS":"南勢２４號之１５","OBJECTID":657335},"geometry":{"x":174415.88717000093,"y":2565143.4046899993}},{"attributes":{"ID":657363,"DIS_CODE":0,"TOWNNAME":"麻豆區","LI":"南勢里","LIN":"15鄰","STREET":" ","SECT":" ","MAREA":"南勢","LANE":" ","ALLEY":" ","HOUSE_NO":"３５號之７５","E_COORD97":174216.448233,"N_COORD97":2564892.1705100001,"ADDRESS":"南勢３５號之７５","OBJECTID":657336},"geometry":{"x":174216.44823300093,"y":2564892.1705150008}},{"attributes":{"ID":657364,"DIS_CODE":0,"TOWNNAME":"麻豆區","LI":"南勢里","LIN":"26鄰","STREET":" ","SECT":" ","MAREA":"南勢","LANE":" ","ALLEY":" ","HOUSE_NO":"８９號之２２","E_COORD97":174858.54603299999,"N_COORD97":2565026.1554399999,"ADDRESS":"南勢８９號之２２","OBJECTID":657337},"geometry":{"x":174858.54603299964,"y":2565026.1554430015}},{"attributes":{"ID":657365,"DIS_CODE":0,"TOWNNAME":"麻豆區","LI":"南勢里","LIN":"26鄰","STREET":" ","SECT":" ","MAREA":"南勢","LANE":" ","ALLEY":" ","HOUSE_NO":"８９號","E_COORD97":174833.75624799999,"N_COORD97":2564945.08715,"ADDRESS":"南勢８９號","OBJECTID":657338},"geometry":{"x":174833.75624800194,"y":2564945.0871529989}},{"attributes":{"ID":657366,"DIS_CODE":0,"TOWNNAME":"麻豆區","LI":"南勢里","LIN":"26鄰","STREET":" ","SECT":" ","MAREA":"南勢","LANE":" ","ALLEY":" ","HOUSE_NO":"９７號之１","E_COORD97":174962.393469,"N_COORD97":2564866.8553499999,"ADDRESS":"南勢９７號之１","OBJECTID":657339},"geometry":{"x":174962.39346900117,"y":2564866.8553540017}},{"attributes":{"ID":657367,"DIS_CODE":0,"TOWNNAME":"麻豆區","LI":"南勢里","LIN":"22鄰","STREET":" ","SECT":" ","MAREA":"南勢","LANE":" ","ALLEY":" ","HOUSE_NO":"６１號之３","E_COORD97":174501.79245499999,"N_COORD97":2564877.8549899999,"ADDRESS":"南勢６１號之３","OBJECTID":657340},"geometry":{"x":174501.79245499987,"y":2564877.854991002}},{"attributes":{"ID":657368,"DIS_CODE":0,"TOWNNAME":"麻豆區","LI":"南勢里","LIN":"22鄰","STREET":" ","SECT":" ","MAREA":"南勢","LANE":" ","ALLEY":" ","HOUSE_NO":"６０號之２","E_COORD97":174491.410409,"N_COORD97":2564894.4708199999,"ADDRESS":"南勢６０號之２","OBJECTID":657341},"geometry":{"x":174491.41040899977,"y":2564894.4708149992}},{"attributes":{"ID":657369,"DIS_CODE":0,"TOWNNAME":"麻豆區","LI":"南勢里","LIN":"25鄰","STREET":" ","SECT":" ","MAREA":"南勢","LANE":" ","ALLEY":" ","HOUSE_NO":"８６號之７","E_COORD97":175585.97474899999,"N_COORD97":2565261.3947800002,"ADDRESS":"南勢８６號之７","OBJECTID":657342},"geometry":{"x":175585.97474900074,"y":2565261.3947839998}},{"attributes":{"ID":657370,"DIS_CODE":0,"TOWNNAME":"仁德區","LI":"三甲里","LIN":"6鄰","STREET":" ","SECT":" ","MAREA":"三甲子","LANE":" ","ALLEY":" ","HOUSE_NO":"５７之１２號","E_COORD97":172156.13281099999,"N_COORD97":2536486.8775599999,"ADDRESS":"三甲子５７之１２號","OBJECTID":657343},"geometry":{"x":172156.1328110015,"y":2536486.8775559999}},{"attributes":{"ID":657371,"DIS_CODE":0,"TOWNNAME":"仁德區","LI":"三甲里","LIN":"6鄰","STREET":" ","SECT":" ","MAREA":"三甲子","LANE":" ","ALLEY":" ","HOUSE_NO":"５７之１０號","E_COORD97":172388.80473,"N_COORD97":2536488.35427,"ADDRESS":"三甲子５７之１０號","OBJECTID":657344},"geometry":{"x":172388.80472999997,"y":2536488.3542720024}},{"attributes":{"ID":657372,"DIS_CODE":0,"TOWNNAME":"官田區","LI":"隆本里","LIN":"4鄰","STREET":"中華路","SECT":"二段","MAREA":" ","LANE":"１０８巷","ALLEY":" ","HOUSE_NO":"２號","E_COORD97":180093.426492,"N_COORD97":2566520.1713100001,"ADDRESS":"中華路二段１０８巷２號","OBJECTID":657345},"geometry":{"x":180093.42649200093,"y":2566520.1713089999}},{"attributes":{"ID":657373,"DIS_CODE":0,"TOWNNAME":"關廟區","LI":"東勢里","LIN":"25鄰","STREET":"光復街","SECT":" ","MAREA":" ","LANE":"１４２巷","ALLEY":" ","HOUSE_NO":"１９號","E_COORD97":181559.28088400001,"N_COORD97":2539493.83696,"ADDRESS":"光復街１４２巷１９號","OBJECTID":657346},"geometry":{"x":181559.28088399954,"y":2539493.8369619995}},{"attributes":{"ID":657374,"DIS_CODE":0,"TOWNNAME":"善化區","LI":"溪美里","LIN":"7鄰","STREET":" ","SECT":" ","MAREA":"溪尾","LANE":" ","ALLEY":" ","HOUSE_NO":"５８號","E_COORD97":176755.34992000001,"N_COORD97":2561238.56323,"ADDRESS":"溪尾５８號","OBJECTID":657347},"geometry":{"x":176755.34991999902,"y":2561238.5632350016}},{"attributes":{"ID":657375,"DIS_CODE":0,"TOWNNAME":"關廟區","LI":"東勢里","LIN":"28鄰","STREET":"東榮街","SECT":" ","MAREA":" ","LANE":"２９３巷","ALLEY":" ","HOUSE_NO":"１１號","E_COORD97":182456.696777,"N_COORD97":2538904.7836199999,"ADDRESS":"東榮街２９３巷１１號","OBJECTID":657348},"geometry":{"x":182456.69677700102,"y":2538904.783617001}},{"attributes":{"ID":657376,"DIS_CODE":0,"TOWNNAME":"仁德區","LI":"一甲里","LIN":"9鄰","STREET":"中正路","SECT":"三段","MAREA":" ","LANE":"２４２巷","ALLEY":" ","HOUSE_NO":"１９號","E_COORD97":173666.27359200001,"N_COORD97":2541993.9523200002,"ADDRESS":"中正路三段２４２巷１９號","OBJECTID":657349},"geometry":{"x":173666.27359200083,"y":2541993.952324003}},{"attributes":{"ID":657377,"DIS_CODE":0,"TOWNNAME":"仁德區","LI":"一甲里","LIN":"9鄰","STREET":"中正路","SECT":"三段","MAREA":" ","LANE":"１６２巷","ALLEY":" ","HOUSE_NO":"２６號","E_COORD97":173517.514058,"N_COORD97":2541714.7641400001,"ADDRESS":"中正路三段１６２巷２６號","OBJECTID":657350},"geometry":{"x":173517.51405800134,"y":2541714.764142001}},{"attributes":{"ID":657378,"DIS_CODE":0,"TOWNNAME":"仁德區","LI":"一甲里","LIN":"11鄰","STREET":"忠義路","SECT":" ","MAREA":" ","LANE":"１２６巷","ALLEY":" ","HOUSE_NO":"２１號","E_COORD97":174257.285474,"N_COORD97":2541913.9423699998,"ADDRESS":"忠義路１２６巷２１號","OBJECTID":657351},"geometry":{"x":174257.2854740005,"y":2541913.9423680026}},{"attributes":{"ID":657379,"DIS_CODE":0,"TOWNNAME":"七股區","LI":"義合里","LIN":"1鄰","STREET":" ","SECT":" ","MAREA":"義合","LANE":" ","ALLEY":" ","HOUSE_NO":"２號","E_COORD97":163071.953783,"N_COORD97":2556407.9940800001,"ADDRESS":"義合２號","OBJECTID":657352},"geometry":{"x":163071.95378300175,"y":2556407.9940790012}},{"attributes":{"ID":657380,"DIS_CODE":0,"TOWNNAME":"佳里區","LI":"六安里","LIN":"3鄰","STREET":"林園街","SECT":" ","MAREA":" ","LANE":" ","ALLEY":" ","HOUSE_NO":"９號","E_COORD97":166215.56271599999,"N_COORD97":2562854.69111,"ADDRESS":"林園街９號","OBJECTID":657353},"geometry":{"x":166215.56271600071,"y":2562854.6911070012}},{"attributes":{"ID":657381,"DIS_CODE":0,"TOWNNAME":"佳里區","LI":"六安里","LIN":"3鄰","STREET":"林園街","SECT":" ","MAREA":" ","LANE":" ","ALLEY":" ","HOUSE_NO":"１１號","E_COORD97":166210.90163199999,"N_COORD97":2562853.42111,"ADDRESS":"林園街１１號","OBJECTID":657354},"geometry":{"x":166210.90163200069,"y":2562853.421108}},{"attributes":{"ID":657382,"DIS_CODE":0,"TOWNNAME":"佳里區","LI":"六安里","LIN":"3鄰","STREET":"林園街","SECT":" ","MAREA":" ","LANE":" ","ALLEY":" ","HOUSE_NO":"１３號","E_COORD97":166206.664284,"N_COORD97":2562852.36277,"ADDRESS":"林園街１３號","OBJECTID":657355},"geometry":{"x":166206.66428400017,"y":2562852.3627750017}},{"attributes":{"ID":657383,"DIS_CODE":0,"TOWNNAME":"七股區","LI":"義合里","LIN":"4鄰","STREET":" ","SECT":" ","MAREA":"義合","LANE":" ","ALLEY":" ","HOUSE_NO":"３１號之６","E_COORD97":162654.732426,"N_COORD97":2556638.2872899999,"ADDRESS":"義合３１號之６","OBJECTID":657356},"geometry":{"x":162654.73242600076,"y":2556638.2872880008}},{"attributes":{"ID":657384,"DIS_CODE":0,"TOWNNAME":"佳里區","LI":"六安里","LIN":"3鄰","STREET":"進學路","SECT":" ","MAREA":" ","LANE":" ","ALLEY":" ","HOUSE_NO":"１１０號","E_COORD97":166153.061827,"N_COORD97":2562682.6061999998,"ADDRESS":"進學路１１０號","OBJECTID":657357},"geometry":{"x":166153.06182700023,"y":2562682.6062000021}},{"attributes":{"ID":657385,"DIS_CODE":0,"TOWNNAME":"佳里區","LI":"六安里","LIN":"3鄰","STREET":"進學路","SECT":" ","MAREA":" ","LANE":" ","ALLEY":" ","HOUSE_NO":"６８號","E_COORD97":166169.79935300001,"N_COORD97":2562681.9712,"ADDRESS":"進學路６８號","OBJECTID":657358},"geometry":{"x":166169.79935300164,"y":2562681.9712009989}},{"attributes":{"ID":657386,"DIS_CODE":0,"TOWNNAME":"七股區","LI":"義合里","LIN":"4鄰","STREET":" ","SECT":" ","MAREA":"義合","LANE":" ","ALLEY":" ","HOUSE_NO":"３３號之５","E_COORD97":162741.84778000001,"N_COORD97":2556423.2472999999,"ADDRESS":"義合３３號之５","OBJECTID":657359},"geometry":{"x":162741.84778000135,"y":2556423.2473000009}},{"attributes":{"ID":657387,"DIS_CODE":0,"TOWNNAME":"七股區","LI":"義合里","LIN":"4鄰","STREET":" ","SECT":" ","MAREA":"義合","LANE":" ","ALLEY":" ","HOUSE_NO":"３３號之１０","E_COORD97":162738.457459,"N_COORD97":2556452.0339500001,"ADDRESS":"義合３３號之１０","OBJECTID":657360},"geometry":{"x":162738.45745900087,"y":2556452.0339510012}},{"attributes":{"ID":657388,"DIS_CODE":0,"TOWNNAME":"佳里區","LI":"六安里","LIN":"4鄰","STREET":" ","SECT":" ","MAREA":"六安","LANE":" ","ALLEY":" ","HOUSE_NO":"１９號","E_COORD97":166242.04614300001,"N_COORD97":2562900.3052500002,"ADDRESS":"六安１９號","OBJECTID":657361},"geometry":{"x":166242.04614300095,"y":2562900.3052490018}},{"attributes":{"ID":657389,"DIS_CODE":0,"TOWNNAME":"仁德區","LI":"仁德里","LIN":"24鄰","STREET":"中山路","SECT":" ","MAREA":" ","LANE":" ","ALLEY":" ","HOUSE_NO":"９５７號","E_COORD97":172172.600939,"N_COORD97":2541644.9526200001,"ADDRESS":"中山路９５７號","OBJECTID":657362},"geometry":{"x":172172.60093900003,"y":2541644.9526200015}},{"attributes":{"ID":657390,"DIS_CODE":0,"TOWNNAME":"佳里區","LI":"六安里","LIN":"4鄰","STREET":" ","SECT":" ","MAREA":"六安","LANE":" ","ALLEY":" ","HOUSE_NO":"２２號之２７","E_COORD97":166513.87203999999,"N_COORD97":2563396.1341400002,"ADDRESS":"六安２２號之２７","OBJECTID":657363},"geometry":{"x":166513.87204000168,"y":2563396.1341400016}},{"attributes":{"ID":657391,"DIS_CODE":0,"TOWNNAME":"七股區","LI":"義合里","LIN":"9鄰","STREET":" ","SECT":" ","MAREA":"義合","LANE":" ","ALLEY":" ","HOUSE_NO":"６６號","E_COORD97":162263.997951,"N_COORD97":2555808.40888,"ADDRESS":"義合６６號","OBJECTID":657364},"geometry":{"x":162263.99795100093,"y":2555808.4088819996}},{"attributes":{"ID":657392,"DIS_CODE":0,"TOWNNAME":"歸仁區","LI":"六甲里","LIN":"18鄰","STREET":"凱旋路","SECT":"三段","MAREA":" ","LANE":" ","ALLEY":" ","HOUSE_NO":"３５６號","E_COORD97":175449.86206700001,"N_COORD97":2539025.0993900001,"ADDRESS":"凱旋路三段３５６號","OBJECTID":657365},"geometry":{"x":175449.86206700001,"y":2539025.099386001}},{"attributes":{"ID":657393,"DIS_CODE":0,"TOWNNAME":"七股區","LI":"義合里","LIN":"11鄰","STREET":" ","SECT":" ","MAREA":"義合","LANE":" ","ALLEY":" ","HOUSE_NO":"８６號","E_COORD97":161746.974025,"N_COORD97":2555789.78223,"ADDRESS":"義合８６號","OBJECTID":657366},"geometry":{"x":161746.97402500175,"y":2555789.7822250016}},{"attributes":{"ID":657394,"DIS_CODE":0,"TOWNNAME":"佳里區","LI":"六安里","LIN":"4鄰","STREET":" ","SECT":" ","MAREA":"六安","LANE":" ","ALLEY":" ","HOUSE_NO":"２５號","E_COORD97":166154.86285100001,"N_COORD97":2563226.8012100002,"ADDRESS":"六安２５號","OBJECTID":657367},"geometry":{"x":166154.86285100225,"y":2563226.8012080006}},{"attributes":{"ID":657395,"DIS_CODE":0,"TOWNNAME":"七股區","LI":"七股里","LIN":"11鄰","STREET":" ","SECT":" ","MAREA":"七股","LANE":" ","ALLEY":" ","HOUSE_NO":"１００號","E_COORD97":160558.66657500001,"N_COORD97":2559451.8252500002,"ADDRESS":"七股１００號","OBJECTID":657368},"geometry":{"x":160558.66657499969,"y":2559451.8252480011}},{"attributes":{"ID":657396,"DIS_CODE":0,"TOWNNAME":"仁德區","LI":"仁德里","LIN":"23鄰","STREET":"文善街","SECT":" ","MAREA":" ","LANE":" ","ALLEY":" ","HOUSE_NO":"２５號","E_COORD97":172288.14947,"N_COORD97":2541331.53254,"ADDRESS":"文善街２５號","OBJECTID":657369},"geometry":{"x":172288.14947000053,"y":2541331.5325380024}},{"attributes":{"ID":657397,"DIS_CODE":0,"TOWNNAME":"仁德區","LI":"仁德里","LIN":"23鄰","STREET":"文善街","SECT":" ","MAREA":" ","LANE":" ","ALLEY":" ","HOUSE_NO":"２７號","E_COORD97":172288.891007,"N_COORD97":2541335.8187899999,"ADDRESS":"文善街２７號","OBJECTID":657370},"geometry":{"x":172288.89100699965,"y":2541335.818785999}},{"attributes":{"ID":657398,"DIS_CODE":0,"TOWNNAME":"仁德區","LI":"仁德里","LIN":"23鄰","STREET":"文善街","SECT":" ","MAREA":" ","LANE":" ","ALLEY":" ","HOUSE_NO":"２９號","E_COORD97":172290.16221400001,"N_COORD97":2541340.4754499998,"ADDRESS":"文善街２９號","OBJECTID":657371},"geometry":{"x":172290.16221399978,"y":2541340.4754499998}},{"attributes":{"ID":657399,"DIS_CODE":0,"TOWNNAME":"仁德區","LI":"仁德里","LIN":"23鄰","STREET":"文善街","SECT":" ","MAREA":" ","LANE":" ","ALLEY":" ","HOUSE_NO":"３１號","E_COORD97":172291.645288,"N_COORD97":2541344.70878,"ADDRESS":"文善街３１號","OBJECTID":657372},"geometry":{"x":172291.64528800081,"y":2541344.7087810021}},{"attributes":{"ID":657400,"DIS_CODE":0,"TOWNNAME":"仁德區","LI":"仁德里","LIN":"23鄰","STREET":"文善街","SECT":" ","MAREA":" ","LANE":" ","ALLEY":" ","HOUSE_NO":"３３號","E_COORD97":172292.280891,"N_COORD97":2541348.9421100002,"ADDRESS":"文善街３３號","OBJECTID":657373},"geometry":{"x":172292.28089100029,"y":2541348.9421120044}},{"attributes":{"ID":657401,"DIS_CODE":0,"TOWNNAME":"仁德區","LI":"仁德里","LIN":"23鄰","STREET":"文善街","SECT":" ","MAREA":" ","LANE":" ","ALLEY":" ","HOUSE_NO":"３５號","E_COORD97":172293.34023,"N_COORD97":2541353.5987800001,"ADDRESS":"文善街３５號","OBJECTID":657374},"geometry":{"x":172293.34023000021,"y":2541353.5987759996}},{"attributes":{"ID":657402,"DIS_CODE":0,"TOWNNAME":"仁德區","LI":"仁德里","LIN":"23鄰","STREET":"文善街","SECT":" ","MAREA":" ","LANE":" ","ALLEY":" ","HOUSE_NO":"３７號","E_COORD97":172294.82330399999,"N_COORD97":2541358.0437699999,"ADDRESS":"文善街３７號","OBJECTID":657375},"geometry":{"x":172294.82330400124,"y":2541358.0437739994}},{"attributes":{"ID":657403,"DIS_CODE":0,"TOWNNAME":"仁德區","LI":"仁德里","LIN":"23鄰","STREET":"文善街","SECT":" ","MAREA":" ","LANE":" ","ALLEY":" ","HOUSE_NO":"３９號","E_COORD97":172296.094511,"N_COORD97":2541362.3829399999,"ADDRESS":"文善街３９號","OBJECTID":657376},"geometry":{"x":172296.09451100044,"y":2541362.3829380013}},{"attributes":{"ID":657404,"DIS_CODE":0,"TOWNNAME":"七股區","LI":"七股里","LIN":"11鄰","STREET":" ","SECT":" ","MAREA":"七股","LANE":" ","ALLEY":" ","HOUSE_NO":"１０４號之１０","E_COORD97":160646.814916,"N_COORD97":2559494.7935600001,"ADDRESS":"七股１０４號之１０","OBJECTID":657377},"geometry":{"x":160646.8149160007,"y":2559494.7935580015}},{"attributes":{"ID":657405,"DIS_CODE":0,"TOWNNAME":"西港區","LI":"慶安里","LIN":"32鄰","STREET":"新興街","SECT":" ","MAREA":" ","LANE":" ","ALLEY":" ","HOUSE_NO":"６之７５號","E_COORD97":168280.57924600001,"N_COORD97":2557639.5096999998,"ADDRESS":"新興街６之７５號","OBJECTID":657378},"geometry":{"x":168280.57924600225,"y":2557639.5097000021}},{"attributes":{"ID":657406,"DIS_CODE":0,"TOWNNAME":"西港區","LI":"慶安里","LIN":"32鄰","STREET":"新興街","SECT":" ","MAREA":" ","LANE":" ","ALLEY":" ","HOUSE_NO":"６之７６號","E_COORD97":168284.60500800001,"N_COORD97":2557641.7322,"ADDRESS":"新興街６之７６號","OBJECTID":657379},"geometry":{"x":168284.60500800051,"y":2557641.732198}},{"attributes":{"ID":657407,"DIS_CODE":0,"TOWNNAME":"西港區","LI":"慶安里","LIN":"32鄰","STREET":"新興街","SECT":" ","MAREA":" ","LANE":" ","ALLEY":" ","HOUSE_NO":"６之７７號","E_COORD97":168289.26641700001,"N_COORD97":2557642.8963600001,"ADDRESS":"新興街６之７７號","OBJECTID":657380},"geometry":{"x":168289.26641700137,"y":2557642.8963640034}},{"attributes":{"ID":657408,"DIS_CODE":0,"TOWNNAME":"西港區","LI":"慶安里","LIN":"32鄰","STREET":"新興街","SECT":" ","MAREA":" ","LANE":" ","ALLEY":" ","HOUSE_NO":"６之７８號","E_COORD97":168293.92782499999,"N_COORD97":2557644.3780299998,"ADDRESS":"新興街６之７８號","OBJECTID":657381},"geometry":{"x":168293.92782500107,"y":2557644.3780300003}},{"attributes":{"ID":657409,"DIS_CODE":0,"TOWNNAME":"西港區","LI":"慶安里","LIN":"32鄰","STREET":"新興街","SECT":" ","MAREA":" ","LANE":" ","ALLEY":" ","HOUSE_NO":"６之７９號","E_COORD97":168299.012999,"N_COORD97":2557646.0713599999,"ADDRESS":"新興街６之７９號","OBJECTID":657382},"geometry":{"x":168299.01299900003,"y":2557646.0713630021}},{"attributes":{"ID":657410,"DIS_CODE":0,"TOWNNAME":"西港區","LI":"慶安里","LIN":"32鄰","STREET":"新興街","SECT":" ","MAREA":" ","LANE":" ","ALLEY":" ","HOUSE_NO":"６之８０號","E_COORD97":168303.88628999999,"N_COORD97":2557647.1296999999,"ADDRESS":"新興街６之８０號","OBJECTID":657383},"geometry":{"x":168303.88628999982,"y":2557647.1296960004}},{"attributes":{"ID":657411,"DIS_CODE":0,"TOWNNAME":"西港區","LI":"慶安里","LIN":"32鄰","STREET":"新興街","SECT":" ","MAREA":" ","LANE":" ","ALLEY":" ","HOUSE_NO":"６之８１號","E_COORD97":168308.123934,"N_COORD97":2557648.7171999998,"ADDRESS":"新興街６之８１號","OBJECTID":657384},"geometry":{"x":168308.12393400073,"y":2557648.7171950024}},{"attributes":{"ID":657412,"DIS_CODE":0,"TOWNNAME":"西港區","LI":"慶安里","LIN":"32鄰","STREET":"新興街","SECT":" ","MAREA":" ","LANE":" ","ALLEY":" ","HOUSE_NO":"６之８２號","E_COORD97":168313.42099000001,"N_COORD97":2557649.6696899999,"ADDRESS":"新興街６之８２號","OBJECTID":657385},"geometry":{"x":168313.42098999862,"y":2557649.669693999}},{"attributes":{"ID":657413,"DIS_CODE":0,"TOWNNAME":"西港區","LI":"慶安里","LIN":"32鄰","STREET":"新興街","SECT":" ","MAREA":" ","LANE":" ","ALLEY":" ","HOUSE_NO":"６之８３號","E_COORD97":168317.23486999999,"N_COORD97":2557650.41053,"ADDRESS":"新興街６之８３號","OBJECTID":657386},"geometry":{"x":168317.23487000074,"y":2557650.4105270002}},{"attributes":{"ID":657414,"DIS_CODE":0,"TOWNNAME":"西港區","LI":"慶安里","LIN":"32鄰","STREET":"新興街","SECT":" ","MAREA":" ","LANE":" ","ALLEY":" ","HOUSE_NO":"６之８５號","E_COORD97":168322.32004300001,"N_COORD97":2557650.9396899999,"ADDRESS":"新興街６之８５號","OBJECTID":657387},"geometry":{"x":168322.32004300039,"y":2557650.9396930002}},{"attributes":{"ID":657415,"DIS_CODE":0,"TOWNNAME":"西港區","LI":"慶安里","LIN":"32鄰","STREET":"新興街","SECT":" ","MAREA":" ","LANE":" ","ALLEY":" ","HOUSE_NO":"６之８６號","E_COORD97":168326.55768699999,"N_COORD97":2557651.89219,"ADDRESS":"新興街６之８６號","OBJECTID":657388},"geometry":{"x":168326.55768700037,"y":2557651.8921930008}},{"attributes":{"ID":657416,"DIS_CODE":0,"TOWNNAME":"西港區","LI":"慶安里","LIN":"32鄰","STREET":"新興街","SECT":" ","MAREA":" ","LANE":" ","ALLEY":" ","HOUSE_NO":"６之８７號","E_COORD97":168331.430979,"N_COORD97":2557652.2096899999,"ADDRESS":"新興街６之８７號","OBJECTID":657389},"geometry":{"x":168331.4309790004,"y":2557652.2096929997}},{"attributes":{"ID":657417,"DIS_CODE":0,"TOWNNAME":"西港區","LI":"慶安里","LIN":"32鄰","STREET":"新興街","SECT":" ","MAREA":" ","LANE":" ","ALLEY":" ","HOUSE_NO":"６之８８號","E_COORD97":168336.09238700001,"N_COORD97":2557654.6438600002,"ADDRESS":"新興街６之８８號","OBJECTID":657390},"geometry":{"x":168336.09238700196,"y":2557654.6438580025}},{"attributes":{"ID":657418,"DIS_CODE":0,"TOWNNAME":"西港區","LI":"慶安里","LIN":"32鄰","STREET":"新興街","SECT":" ","MAREA":" ","LANE":" ","ALLEY":" ","HOUSE_NO":"６之８９號","E_COORD97":168339.90626700001,"N_COORD97":2557654.5380299999,"ADDRESS":"新興街６之８９號","OBJECTID":657391},"geometry":{"x":168339.90626700129,"y":2557654.5380250011}},{"attributes":{"ID":657419,"DIS_CODE":0,"TOWNNAME":"西港區","LI":"慶安里","LIN":"32鄰","STREET":"新興街","SECT":" ","MAREA":" ","LANE":" ","ALLEY":" ","HOUSE_NO":"６之９０號","E_COORD97":168343.50826500001,"N_COORD97":2557655.7021900001,"ADDRESS":"新興街６之９０號","OBJECTID":657392},"geometry":{"x":168343.50826500077,"y":2557655.7021910008}},{"attributes":{"ID":657420,"DIS_CODE":0,"TOWNNAME":"西港區","LI":"慶安里","LIN":"32鄰","STREET":"新興街","SECT":" ","MAREA":" ","LANE":" ","ALLEY":" ","HOUSE_NO":"６之９１號","E_COORD97":168347.957792,"N_COORD97":2557655.3846900002,"ADDRESS":"新興街６之９１號","OBJECTID":657393},"geometry":{"x":168347.95779199991,"y":2557655.3846910037}},{"attributes":{"ID":657421,"DIS_CODE":0,"TOWNNAME":"善化區","LI":"溪美里","LIN":"12鄰","STREET":" ","SECT":" ","MAREA":"溪尾","LANE":" ","ALLEY":" ","HOUSE_NO":"１１３號","E_COORD97":176743.90564300001,"N_COORD97":2561563.3655599998,"ADDRESS":"溪尾１１３號","OBJECTID":657394},"geometry":{"x":176743.9056430012,"y":2561563.3655590024}},{"attributes":{"ID":657422,"DIS_CODE":0,"TOWNNAME":"善化區","LI":"溪美里","LIN":"14鄰","STREET":" ","SECT":" ","MAREA":"溪尾","LANE":" ","ALLEY":" ","HOUSE_NO":"１１７號","E_COORD97":176852.62627199999,"N_COORD97":2561423.77147,"ADDRESS":"溪尾１１７號","OBJECTID":657395},"geometry":{"x":176852.62627200037,"y":2561423.7714680005}},{"attributes":{"ID":657423,"DIS_CODE":0,"TOWNNAME":"西港區","LI":"慶安里","LIN":"7鄰","STREET":"新興街","SECT":" ","MAREA":" ","LANE":" ","ALLEY":" ","HOUSE_NO":"１１０號","E_COORD97":168234.60080399999,"N_COORD97":2558321.6051699999,"ADDRESS":"新興街１１０號","OBJECTID":657396},"geometry":{"x":168234.60080400202,"y":2558321.6051650029}},{"attributes":{"ID":657424,"DIS_CODE":0,"TOWNNAME":"山上區","LI":"新莊里","LIN":"5鄰","STREET":" ","SECT":" ","MAREA":"新庄","LANE":" ","ALLEY":" ","HOUSE_NO":"５８之１６號","E_COORD97":184648.35601300001,"N_COORD97":2555000.1745099998,"ADDRESS":"新庄５８之１６號","OBJECTID":657397},"geometry":{"x":184648.35601300001,"y":2555000.1745130029}},{"attributes":{"ID":657425,"DIS_CODE":0,"TOWNNAME":"山上區","LI":"新莊里","LIN":"5鄰","STREET":" ","SECT":" ","MAREA":"新庄","LANE":" ","ALLEY":" ","HOUSE_NO":"５８之１７號","E_COORD97":184651.53374700001,"N_COORD97":2554997.6345099998,"ADDRESS":"新庄５８之１７號","OBJECTID":657398},"geometry":{"x":184651.53374699969,"y":2554997.6345140021}},{"attributes":{"ID":657426,"DIS_CODE":0,"TOWNNAME":"山上區","LI":"新莊里","LIN":"5鄰","STREET":" ","SECT":" ","MAREA":"新庄","LANE":" ","ALLEY":" ","HOUSE_NO":"５８之１８號","E_COORD97":184640.30575199999,"N_COORD97":2554986.2045200001,"ADDRESS":"新庄５８之１８號","OBJECTID":657399},"geometry":{"x":184640.30575200077,"y":2554986.2045200001}},{"attributes":{"ID":657427,"DIS_CODE":0,"TOWNNAME":"山上區","LI":"新莊里","LIN":"5鄰","STREET":" ","SECT":" ","MAREA":"新庄","LANE":" ","ALLEY":" ","HOUSE_NO":"５８之１９號","E_COORD97":184637.02529300001,"N_COORD97":2554978.0585599998,"ADDRESS":"新庄５８之１９號","OBJECTID":657400},"geometry":{"x":184637.02529300097,"y":2554978.0585550014}}]}