{"displayFieldName":"TOWNNAME","fieldAliases":{"ID":"ID","DIS_CODE":"DIS_CODE","TOWNNAME":"TOWNNAME","LI":"LI","LIN":"LIN","STREET":"STREET","SECT":"SECT","MAREA":"MAREA","LANE":"LANE","ALLEY":"ALLEY","HOUSE_NO":"HOUSE_NO","E_COORD97":"E_COORD97","N_COORD97":"N_COORD97","ADDRESS":"ADDRESS","OBJECTID":"OBJECTID"},"geometryType":"esriGeometryPoint","spatialReference":{"wkid":102443,"latestWkid":3826},"fields":[{"name":"ID","type":"esriFieldTypeDouble","alias":"ID"},{"name":"DIS_CODE","type":"esriFieldTypeInteger","alias":"DIS_CODE"},{"name":"TOWNNAME","type":"esriFieldTypeString","alias":"TOWNNAME","length":8},{"name":"LI","type":"esriFieldTypeString","alias":"LI","length":8},{"name":"LIN","type":"esriFieldTypeString","alias":"LIN","length":12},{"name":"STREET","type":"esriFieldTypeString","alias":"STREET","length":20},{"name":"SECT","type":"esriFieldTypeString","alias":"SECT","length":8},{"name":"MAREA","type":"esriFieldTypeString","alias":"MAREA","length":12},{"name":"LANE","type":"esriFieldTypeString","alias":"LANE","length":10},{"name":"ALLEY","type":"esriFieldTypeString","alias":"ALLEY","length":10},{"name":"HOUSE_NO","type":"esriFieldTypeString","alias":"HOUSE_NO","length":20},{"name":"E_COORD97","type":"esriFieldTypeDouble","alias":"E_COORD97"},{"name":"N_COORD97","type":"esriFieldTypeDouble","alias":"N_COORD97"},{"name":"ADDRESS","type":"esriFieldTypeString","alias":"ADDRESS","length":50},{"name":"OBJECTID","type":"esriFieldTypeOID","alias":"OBJECTID"}],"features":[{"attributes":{"ID":446826,"DIS_CODE":0,"TOWNNAME":"永康區","LI":"東橋里","LIN":"5鄰","STREET":"中山南路","SECT":" ","MAREA":" ","LANE":"１９５巷","ALLEY":" ","HOUSE_NO":"４８號","E_COORD97":171402.25,"N_COORD97":2546453.9900000002,"ADDRESS":"中山南路１９５巷４８號","OBJECTID":446801},"geometry":{"x":171402.25000000093,"y":2546453.9900000002}},{"attributes":{"ID":446827,"DIS_CODE":0,"TOWNNAME":"永康區","LI":"埔園里","LIN":"5鄰","STREET":"中山路","SECT":" ","MAREA":" ","LANE":"１５８巷","ALLEY":" ","HOUSE_NO":"６號","E_COORD97":173796.54000000001,"N_COORD97":2547808.2400000002,"ADDRESS":"中山路１５８巷６號","OBJECTID":446802},"geometry":{"x":173796.54000000004,"y":2547808.2400000002}},{"attributes":{"ID":446828,"DIS_CODE":0,"TOWNNAME":"永康區","LI":"埔園里","LIN":"5鄰","STREET":"中山路","SECT":" ","MAREA":" ","LANE":"１５８巷","ALLEY":" ","HOUSE_NO":"３２號之１","E_COORD97":173891.17999999999,"N_COORD97":2547839.29,"ADDRESS":"中山路１５８巷３２號之１","OBJECTID":446803},"geometry":{"x":173891.18000000063,"y":2547839.290000001}},{"attributes":{"ID":446829,"DIS_CODE":0,"TOWNNAME":"永康區","LI":"埔園里","LIN":"5鄰","STREET":"中山路","SECT":" ","MAREA":" ","LANE":"１５８巷","ALLEY":" ","HOUSE_NO":"１６號","E_COORD97":173805.70000000001,"N_COORD97":2547821.4900000002,"ADDRESS":"中山路１５８巷１６號","OBJECTID":446804},"geometry":{"x":173805.70000000019,"y":2547821.4900000002}},{"attributes":{"ID":446830,"DIS_CODE":0,"TOWNNAME":"永康區","LI":"埔園里","LIN":"5鄰","STREET":"中山路","SECT":" ","MAREA":" ","LANE":"１５８巷","ALLEY":" ","HOUSE_NO":"３８號","E_COORD97":173893.64999999999,"N_COORD97":2547840.2400000002,"ADDRESS":"中山路１５８巷３８號","OBJECTID":446805},"geometry":{"x":173893.6500000013,"y":2547840.2399999984}},{"attributes":{"ID":446831,"DIS_CODE":0,"TOWNNAME":"永康區","LI":"埔園里","LIN":"5鄰","STREET":"中山路","SECT":" ","MAREA":" ","LANE":"１５８巷","ALLEY":" ","HOUSE_NO":"３４號","E_COORD97":173874.76000000001,"N_COORD97":2547819.9900000002,"ADDRESS":"中山路１５８巷３４號","OBJECTID":446806},"geometry":{"x":173874.75999999978,"y":2547819.9900000021}},{"attributes":{"ID":446832,"DIS_CODE":0,"TOWNNAME":"安南區","LI":"海東里","LIN":"5鄰","STREET":"海佃路","SECT":"二段","MAREA":" ","LANE":"５０９巷","ALLEY":" ","HOUSE_NO":"２之３號","E_COORD97":166671.37,"N_COORD97":2549236.46,"ADDRESS":"海佃路二段５０９巷２之３號","OBJECTID":446807},"geometry":{"x":166671.37000000011,"y":2549236.4600000046}},{"attributes":{"ID":446833,"DIS_CODE":0,"TOWNNAME":"安南區","LI":"安西里","LIN":"5鄰","STREET":"安西一街","SECT":" ","MAREA":" ","LANE":"６８巷","ALLEY":" ","HOUSE_NO":"５號","E_COORD97":168683.86676800001,"N_COORD97":2547963.8829000001,"ADDRESS":"安西一街６８巷５號","OBJECTID":446808},"geometry":{"x":168683.86676799972,"y":2547963.8828990012}},{"attributes":{"ID":446834,"DIS_CODE":0,"TOWNNAME":"安南區","LI":"安西里","LIN":"5鄰","STREET":"安西一街","SECT":" ","MAREA":" ","LANE":"６８巷","ALLEY":" ","HOUSE_NO":"７號","E_COORD97":168683.86676800001,"N_COORD97":2547968.3278999999,"ADDRESS":"安西一街６８巷７號","OBJECTID":446809},"geometry":{"x":168683.86676799972,"y":2547968.3278960008}},{"attributes":{"ID":446835,"DIS_CODE":0,"TOWNNAME":"安南區","LI":"安西里","LIN":"5鄰","STREET":"安西一街","SECT":" ","MAREA":" ","LANE":"６８巷","ALLEY":" ","HOUSE_NO":"９號","E_COORD97":168684.07874299999,"N_COORD97":2547972.5612300001,"ADDRESS":"安西一街６８巷９號","OBJECTID":446810},"geometry":{"x":168684.07874299958,"y":2547972.5612269994}},{"attributes":{"ID":446836,"DIS_CODE":0,"TOWNNAME":"安南區","LI":"安西里","LIN":"5鄰","STREET":"安西一街","SECT":" ","MAREA":" ","LANE":"６８巷","ALLEY":" ","HOUSE_NO":"１１號","E_COORD97":168683.86676800001,"N_COORD97":2547976.5828900002,"ADDRESS":"安西一街６８巷１１號","OBJECTID":446811},"geometry":{"x":168683.86676799972,"y":2547976.5828920007}},{"attributes":{"ID":446837,"DIS_CODE":0,"TOWNNAME":"安南區","LI":"安西里","LIN":"5鄰","STREET":"安西一街","SECT":" ","MAREA":" ","LANE":"６８巷","ALLEY":" ","HOUSE_NO":"１３號","E_COORD97":168683.86676800001,"N_COORD97":2547981.6628899998,"ADDRESS":"安西一街６８巷１３號","OBJECTID":446812},"geometry":{"x":168683.86676799972,"y":2547981.662889}},{"attributes":{"ID":446838,"DIS_CODE":0,"TOWNNAME":"安南區","LI":"原佃里","LIN":"5鄰","STREET":"本原街","SECT":"一段","MAREA":" ","LANE":"２５０巷","ALLEY":" ","HOUSE_NO":"２７７號","E_COORD97":168018.56,"N_COORD97":2551002.0800000001,"ADDRESS":"本原街一段２５０巷２７７號","OBJECTID":446813},"geometry":{"x":168018.55999999959,"y":2551002.0800000019}},{"attributes":{"ID":446839,"DIS_CODE":0,"TOWNNAME":"安南區","LI":"原佃里","LIN":"5鄰","STREET":"本原街","SECT":"一段","MAREA":" ","LANE":"２５０巷","ALLEY":" ","HOUSE_NO":"２７５號","E_COORD97":168036.01999999999,"N_COORD97":2551010.3399999999,"ADDRESS":"本原街一段２５０巷２７５號","OBJECTID":446814},"geometry":{"x":168036.01999999955,"y":2551010.3400000017}},{"attributes":{"ID":446840,"DIS_CODE":0,"TOWNNAME":"安南區","LI":"溪心里","LIN":"5鄰","STREET":"本原街","SECT":"二段","MAREA":" ","LANE":"１０６巷","ALLEY":" ","HOUSE_NO":"２６之１號","E_COORD97":166841.48000000001,"N_COORD97":2550842.1600000001,"ADDRESS":"本原街二段１０６巷２６之１號","OBJECTID":446815},"geometry":{"x":166841.48000000138,"y":2550842.160000002}},{"attributes":{"ID":446841,"DIS_CODE":0,"TOWNNAME":"安南區","LI":"布袋里","LIN":"5鄰","STREET":"長溪路","SECT":"三段","MAREA":" ","LANE":"４０巷","ALLEY":" ","HOUSE_NO":"３１號","E_COORD97":168138.57000000001,"N_COORD97":2551258.9199999999,"ADDRESS":"長溪路三段４０巷３１號","OBJECTID":446816},"geometry":{"x":168138.57000000216,"y":2551258.9199999999}},{"attributes":{"ID":446842,"DIS_CODE":0,"TOWNNAME":"安南區","LI":"布袋里","LIN":"5鄰","STREET":"長和路","SECT":"四段","MAREA":" ","LANE":"２５３巷","ALLEY":" ","HOUSE_NO":"５０號","E_COORD97":168595.14000000001,"N_COORD97":2551640.75,"ADDRESS":"長和路四段２５３巷５０號","OBJECTID":446817},"geometry":{"x":168595.14000000153,"y":2551640.7500000037}},{"attributes":{"ID":446843,"DIS_CODE":0,"TOWNNAME":"安南區","LI":"原佃里","LIN":"5鄰","STREET":"本原街","SECT":"一段","MAREA":" ","LANE":"２５０巷","ALLEY":" ","HOUSE_NO":"１０１之５１號","E_COORD97":167929.66,"N_COORD97":2550849.8700000001,"ADDRESS":"本原街一段２５０巷１０１之５１號","OBJECTID":446818},"geometry":{"x":167929.66000000108,"y":2550849.870000001}},{"attributes":{"ID":446844,"DIS_CODE":0,"TOWNNAME":"南區","LI":"明德里","LIN":"5鄰","STREET":"大成路","SECT":"一段","MAREA":" ","LANE":"６１巷","ALLEY":" ","HOUSE_NO":"１０號","E_COORD97":168065.67000000001,"N_COORD97":2541720.9700000002,"ADDRESS":"大成路一段６１巷１０號","OBJECTID":446819},"geometry":{"x":168065.66999999993,"y":2541720.9700000025}},{"attributes":{"ID":446845,"DIS_CODE":0,"TOWNNAME":"南區","LI":"明德里","LIN":"5鄰","STREET":"大成路","SECT":"一段","MAREA":" ","LANE":"６１巷","ALLEY":" ","HOUSE_NO":"１１號","E_COORD97":168103.51000000001,"N_COORD97":2541689,"ADDRESS":"大成路一段６１巷１１號","OBJECTID":446820},"geometry":{"x":168103.51000000071,"y":2541689.0000000019}},{"attributes":{"ID":446846,"DIS_CODE":0,"TOWNNAME":"南區","LI":"明德里","LIN":"5鄰","STREET":"大成路","SECT":"一段","MAREA":" ","LANE":"６１巷","ALLEY":" ","HOUSE_NO":"１２號","E_COORD97":168060.45000000001,"N_COORD97":2541723.3199999998,"ADDRESS":"大成路一段６１巷１２號","OBJECTID":446821},"geometry":{"x":168060.45000000019,"y":2541723.3200000003}},{"attributes":{"ID":446847,"DIS_CODE":0,"TOWNNAME":"南區","LI":"明德里","LIN":"5鄰","STREET":"大成路","SECT":"一段","MAREA":" ","LANE":"６１巷","ALLEY":" ","HOUSE_NO":"１４號","E_COORD97":168054.19,"N_COORD97":2541723.5800000001,"ADDRESS":"大成路一段６１巷１４號","OBJECTID":446822},"geometry":{"x":168054.19000000041,"y":2541723.5800000001}},{"attributes":{"ID":446848,"DIS_CODE":0,"TOWNNAME":"南區","LI":"明德里","LIN":"5鄰","STREET":"大成路","SECT":"一段","MAREA":" ","LANE":"６１巷","ALLEY":" ","HOUSE_NO":"２０號","E_COORD97":168082.10999999999,"N_COORD97":2541707.6800000002,"ADDRESS":"大成路一段６１巷２０號","OBJECTID":446823},"geometry":{"x":168082.11000000034,"y":2541707.6800000016}},{"attributes":{"ID":446849,"DIS_CODE":0,"TOWNNAME":"南區","LI":"明德里","LIN":"5鄰","STREET":"大成路","SECT":"一段","MAREA":" ","LANE":"６１巷","ALLEY":" ","HOUSE_NO":"２２號","E_COORD97":168081.85000000001,"N_COORD97":2541704.0299999998,"ADDRESS":"大成路一段６１巷２２號","OBJECTID":446824},"geometry":{"x":168081.85000000056,"y":2541704.0299999993}},{"attributes":{"ID":446850,"DIS_CODE":0,"TOWNNAME":"南區","LI":"明德里","LIN":"5鄰","STREET":"大成路","SECT":"一段","MAREA":" ","LANE":"６１巷","ALLEY":" ","HOUSE_NO":"２４號","E_COORD97":168074.54000000001,"N_COORD97":2541684.3100000001,"ADDRESS":"大成路一段６１巷２４號","OBJECTID":446825},"geometry":{"x":168074.54000000097,"y":2541684.3100000024}},{"attributes":{"ID":446851,"DIS_CODE":0,"TOWNNAME":"南區","LI":"明德里","LIN":"5鄰","STREET":"大成路","SECT":"一段","MAREA":" ","LANE":"６１巷","ALLEY":" ","HOUSE_NO":"２６號","E_COORD97":168068.54000000001,"N_COORD97":2541684.5699999998,"ADDRESS":"大成路一段６１巷２６號","OBJECTID":446826},"geometry":{"x":168068.54000000004,"y":2541684.5699999984}},{"attributes":{"ID":446852,"DIS_CODE":0,"TOWNNAME":"南區","LI":"明德里","LIN":"5鄰","STREET":"大成路","SECT":"一段","MAREA":" ","LANE":"６１巷","ALLEY":" ","HOUSE_NO":"２８號","E_COORD97":168063.32000000001,"N_COORD97":2541685.3599999999,"ADDRESS":"大成路一段６１巷２８號","OBJECTID":446827},"geometry":{"x":168063.3200000003,"y":2541685.3600000031}},{"attributes":{"ID":446853,"DIS_CODE":0,"TOWNNAME":"南區","LI":"明德里","LIN":"5鄰","STREET":"大成路","SECT":"一段","MAREA":" ","LANE":"６１巷","ALLEY":" ","HOUSE_NO":"３０號","E_COORD97":168055.5,"N_COORD97":2541685.6200000001,"ADDRESS":"大成路一段６１巷３０號","OBJECTID":446828},"geometry":{"x":168055.5,"y":2541685.6200000029}},{"attributes":{"ID":446854,"DIS_CODE":0,"TOWNNAME":"南區","LI":"明德里","LIN":"5鄰","STREET":"大成路","SECT":"一段","MAREA":" ","LANE":"６１巷","ALLEY":" ","HOUSE_NO":"４２號","E_COORD97":168086.29000000001,"N_COORD97":2541672.0600000001,"ADDRESS":"大成路一段６１巷４２號","OBJECTID":446829},"geometry":{"x":168086.29000000097,"y":2541672.0600000024}},{"attributes":{"ID":446855,"DIS_CODE":0,"TOWNNAME":"南區","LI":"明德里","LIN":"5鄰","STREET":"大成路","SECT":"一段","MAREA":" ","LANE":"６１巷","ALLEY":" ","HOUSE_NO":"４６號","E_COORD97":168089.16,"N_COORD97":2541662.4199999999,"ADDRESS":"大成路一段６１巷４６號","OBJECTID":446830},"geometry":{"x":168089.16000000108,"y":2541662.4200000018}},{"attributes":{"ID":446856,"DIS_CODE":0,"TOWNNAME":"南區","LI":"明德里","LIN":"5鄰","STREET":"大成路","SECT":"一段","MAREA":" ","LANE":"６１巷","ALLEY":" ","HOUSE_NO":"４８號","E_COORD97":168086.03,"N_COORD97":2541661.8999999999,"ADDRESS":"大成路一段６１巷４８號","OBJECTID":446831},"geometry":{"x":168086.03000000026,"y":2541661.9000000004}},{"attributes":{"ID":446857,"DIS_CODE":0,"TOWNNAME":"南區","LI":"明德里","LIN":"5鄰","STREET":"大成路","SECT":"一段","MAREA":" ","LANE":"６１巷","ALLEY":" ","HOUSE_NO":"５０號","E_COORD97":168082.89000000001,"N_COORD97":2541662.4199999999,"ADDRESS":"大成路一段６１巷５０號","OBJECTID":446832},"geometry":{"x":168082.88999999966,"y":2541662.4200000018}},{"attributes":{"ID":446858,"DIS_CODE":0,"TOWNNAME":"南區","LI":"明興里","LIN":"5鄰","STREET":"金華路","SECT":"一段","MAREA":" ","LANE":"２００巷","ALLEY":" ","HOUSE_NO":"１號","E_COORD97":166971.97,"N_COORD97":2540782.98,"ADDRESS":"金華路一段２００巷１號","OBJECTID":446833},"geometry":{"x":166971.96999999974,"y":2540782.9800000004}},{"attributes":{"ID":446859,"DIS_CODE":0,"TOWNNAME":"南區","LI":"明興里","LIN":"5鄰","STREET":"金華路","SECT":"一段","MAREA":" ","LANE":"２００巷","ALLEY":" ","HOUSE_NO":"２號","E_COORD97":166969.85000000001,"N_COORD97":2540771.6400000001,"ADDRESS":"金華路一段２００巷２號","OBJECTID":446834},"geometry":{"x":166969.85000000056,"y":2540771.6400000006}},{"attributes":{"ID":446860,"DIS_CODE":0,"TOWNNAME":"南區","LI":"明興里","LIN":"5鄰","STREET":"金華路","SECT":"一段","MAREA":" ","LANE":"２００巷","ALLEY":" ","HOUSE_NO":"３號","E_COORD97":166976.82000000001,"N_COORD97":2540782.7200000002,"ADDRESS":"金華路一段２００巷３號","OBJECTID":446835},"geometry":{"x":166976.8200000003,"y":2540782.7200000025}},{"attributes":{"ID":446861,"DIS_CODE":0,"TOWNNAME":"南區","LI":"明興里","LIN":"5鄰","STREET":"金華路","SECT":"一段","MAREA":" ","LANE":"２００巷","ALLEY":" ","HOUSE_NO":"４號","E_COORD97":166973.84,"N_COORD97":2540771.2999999998,"ADDRESS":"金華路一段２００巷４號","OBJECTID":446836},"geometry":{"x":166973.84000000078,"y":2540771.3000000007}},{"attributes":{"ID":446862,"DIS_CODE":0,"TOWNNAME":"南區","LI":"明興里","LIN":"5鄰","STREET":"金華路","SECT":"一段","MAREA":" ","LANE":"２００巷","ALLEY":" ","HOUSE_NO":"５號","E_COORD97":166980.64000000001,"N_COORD97":2540782.7200000002,"ADDRESS":"金華路一段２００巷５號","OBJECTID":446837},"geometry":{"x":166980.63999999966,"y":2540782.7200000025}},{"attributes":{"ID":446863,"DIS_CODE":0,"TOWNNAME":"南區","LI":"明興里","LIN":"5鄰","STREET":"金華路","SECT":"一段","MAREA":" ","LANE":"２００巷","ALLEY":" ","HOUSE_NO":"６號","E_COORD97":166979.28,"N_COORD97":2540771.04,"ADDRESS":"金華路一段２００巷６號","OBJECTID":446838},"geometry":{"x":166979.28000000212,"y":2540771.0399999991}},{"attributes":{"ID":446864,"DIS_CODE":0,"TOWNNAME":"南區","LI":"明興里","LIN":"5鄰","STREET":"金華路","SECT":"一段","MAREA":" ","LANE":"２００巷","ALLEY":" ","HOUSE_NO":"７號","E_COORD97":166987.26999999999,"N_COORD97":2540781.7000000002,"ADDRESS":"金華路一段２００巷７號","OBJECTID":446839},"geometry":{"x":166987.27000000048,"y":2540781.7000000011}},{"attributes":{"ID":446865,"DIS_CODE":0,"TOWNNAME":"南區","LI":"明興里","LIN":"5鄰","STREET":"金華路","SECT":"一段","MAREA":" ","LANE":"２００巷","ALLEY":" ","HOUSE_NO":"８號","E_COORD97":166990.59,"N_COORD97":2540770.6200000001,"ADDRESS":"金華路一段２００巷８號","OBJECTID":446840},"geometry":{"x":166990.59000000078,"y":2540770.6200000029}},{"attributes":{"ID":446866,"DIS_CODE":0,"TOWNNAME":"南區","LI":"明興里","LIN":"5鄰","STREET":"金華路","SECT":"一段","MAREA":" ","LANE":"２００巷","ALLEY":" ","HOUSE_NO":"９號","E_COORD97":166991.94,"N_COORD97":2540781.1099999999,"ADDRESS":"金華路一段２００巷９號","OBJECTID":446841},"geometry":{"x":166991.94000000227,"y":2540781.1099999994}},{"attributes":{"ID":446867,"DIS_CODE":0,"TOWNNAME":"南區","LI":"明興里","LIN":"5鄰","STREET":"金華路","SECT":"一段","MAREA":" ","LANE":"２００巷","ALLEY":" ","HOUSE_NO":"１０號","E_COORD97":166994.66,"N_COORD97":2540770.2799999998,"ADDRESS":"金華路一段２００巷１０號","OBJECTID":446842},"geometry":{"x":166994.66000000015,"y":2540770.2800000031}},{"attributes":{"ID":446868,"DIS_CODE":0,"TOWNNAME":"南區","LI":"喜北里","LIN":"5鄰","STREET":"喜樹路","SECT":" ","MAREA":" ","LANE":"８４巷","ALLEY":" ","HOUSE_NO":"８號","E_COORD97":165833.32999999999,"N_COORD97":2538456.1600000001,"ADDRESS":"喜樹路８４巷８號","OBJECTID":446843},"geometry":{"x":165833.33000000101,"y":2538456.1599999983}},{"attributes":{"ID":446869,"DIS_CODE":0,"TOWNNAME":"南區","LI":"明興里","LIN":"5鄰","STREET":"金華路","SECT":"一段","MAREA":" ","LANE":"２００巷","ALLEY":" ","HOUSE_NO":"１１號","E_COORD97":166998.64999999999,"N_COORD97":2540781.02,"ADDRESS":"金華路一段２００巷１１號","OBJECTID":446844},"geometry":{"x":166998.65000000037,"y":2540781.0199999996}},{"attributes":{"ID":446870,"DIS_CODE":0,"TOWNNAME":"南區","LI":"明興里","LIN":"5鄰","STREET":"金華路","SECT":"一段","MAREA":" ","LANE":"２００巷","ALLEY":" ","HOUSE_NO":"１２號","E_COORD97":166998.39999999999,"N_COORD97":2540769.6000000001,"ADDRESS":"金華路一段２００巷１２號","OBJECTID":446845},"geometry":{"x":166998.40000000037,"y":2540769.6000000015}},{"attributes":{"ID":446871,"DIS_CODE":0,"TOWNNAME":"南區","LI":"明興里","LIN":"5鄰","STREET":"金華路","SECT":"一段","MAREA":" ","LANE":"２００巷","ALLEY":" ","HOUSE_NO":"１３號","E_COORD97":167003.41,"N_COORD97":2540781.1899999999,"ADDRESS":"金華路一段２００巷１３號","OBJECTID":446846},"geometry":{"x":167003.41000000015,"y":2540781.1900000032}},{"attributes":{"ID":446872,"DIS_CODE":0,"TOWNNAME":"南區","LI":"明興里","LIN":"5鄰","STREET":"金華路","SECT":"一段","MAREA":" ","LANE":"２００巷","ALLEY":" ","HOUSE_NO":"１４號","E_COORD97":167002.39999999999,"N_COORD97":2540768.9199999999,"ADDRESS":"金華路一段２００巷１４號","OBJECTID":446847},"geometry":{"x":167002.40000000224,"y":2540768.9199999999}},{"attributes":{"ID":446873,"DIS_CODE":0,"TOWNNAME":"南區","LI":"明興里","LIN":"5鄰","STREET":"金華路","SECT":"一段","MAREA":" ","LANE":"２００巷","ALLEY":" ","HOUSE_NO":"１５號","E_COORD97":167009.44,"N_COORD97":2540781.3599999999,"ADDRESS":"金華路一段２００巷１５號","OBJECTID":446848},"geometry":{"x":167009.44000000134,"y":2540781.3600000013}},{"attributes":{"ID":446874,"DIS_CODE":0,"TOWNNAME":"南區","LI":"明興里","LIN":"5鄰","STREET":"金華路","SECT":"一段","MAREA":" ","LANE":"２００巷","ALLEY":" ","HOUSE_NO":"１６號","E_COORD97":167006.64999999999,"N_COORD97":2540770.02,"ADDRESS":"金華路一段２００巷１６號","OBJECTID":446849},"geometry":{"x":167006.65000000037,"y":2540770.0200000014}},{"attributes":{"ID":446875,"DIS_CODE":0,"TOWNNAME":"南區","LI":"明興里","LIN":"5鄰","STREET":"金華路","SECT":"一段","MAREA":" ","LANE":"２００巷","ALLEY":" ","HOUSE_NO":"１７號","E_COORD97":167015.31,"N_COORD97":2540780.77,"ADDRESS":"金華路一段２００巷１７號","OBJECTID":446850},"geometry":{"x":167015.30999999959,"y":2540780.7700000033}},{"attributes":{"ID":446876,"DIS_CODE":0,"TOWNNAME":"南區","LI":"明興里","LIN":"5鄰","STREET":"金華路","SECT":"一段","MAREA":" ","LANE":"２００巷","ALLEY":" ","HOUSE_NO":"２０號","E_COORD97":167019.29999999999,"N_COORD97":2540769.0099999998,"ADDRESS":"金華路一段２００巷２０號","OBJECTID":446851},"geometry":{"x":167019.30000000168,"y":2540769.0099999979}},{"attributes":{"ID":446877,"DIS_CODE":0,"TOWNNAME":"南區","LI":"明興里","LIN":"5鄰","STREET":"金華路","SECT":"一段","MAREA":" ","LANE":"２００巷","ALLEY":" ","HOUSE_NO":"２３號","E_COORD97":167028.60999999999,"N_COORD97":2540779.6699999999,"ADDRESS":"金華路一段２００巷２３號","OBJECTID":446852},"geometry":{"x":167028.61000000127,"y":2540779.6700000018}},{"attributes":{"ID":446878,"DIS_CODE":0,"TOWNNAME":"南區","LI":"明興里","LIN":"5鄰","STREET":"金華路","SECT":"一段","MAREA":" ","LANE":"２００巷","ALLEY":" ","HOUSE_NO":"２５號","E_COORD97":167032.44,"N_COORD97":2540779.0699999998,"ADDRESS":"金華路一段２００巷２５號","OBJECTID":446853},"geometry":{"x":167032.44000000041,"y":2540779.0700000003}},{"attributes":{"ID":446879,"DIS_CODE":0,"TOWNNAME":"西港區","LI":"西港里","LIN":"5鄰","STREET":"文化路","SECT":" ","MAREA":" ","LANE":"８３巷","ALLEY":" ","HOUSE_NO":"８號","E_COORD97":168842,"N_COORD97":2558421.0099999998,"ADDRESS":"文化路８３巷８號","OBJECTID":446854},"geometry":{"x":168842,"y":2558421.0100000016}},{"attributes":{"ID":446880,"DIS_CODE":0,"TOWNNAME":"南區","LI":"明興里","LIN":"5鄰","STREET":"金華路","SECT":"一段","MAREA":" ","LANE":"２００巷","ALLEY":" ","HOUSE_NO":"２６號","E_COORD97":167036.54999999999,"N_COORD97":2540767.9900000002,"ADDRESS":"金華路一段２００巷２６號","OBJECTID":446855},"geometry":{"x":167036.55000000075,"y":2540767.9900000021}},{"attributes":{"ID":446881,"DIS_CODE":0,"TOWNNAME":"南區","LI":"明興里","LIN":"5鄰","STREET":"金華路","SECT":"一段","MAREA":" ","LANE":"２００巷","ALLEY":" ","HOUSE_NO":"４９號","E_COORD97":167049.26000000001,"N_COORD97":2540723.0499999998,"ADDRESS":"金華路一段２００巷４９號","OBJECTID":446856},"geometry":{"x":167049.25999999978,"y":2540723.0500000026}},{"attributes":{"ID":446882,"DIS_CODE":0,"TOWNNAME":"南區","LI":"明興里","LIN":"5鄰","STREET":"金華路","SECT":"一段","MAREA":" ","LANE":"２００巷","ALLEY":" ","HOUSE_NO":"５１號","E_COORD97":167048.23999999999,"N_COORD97":2540719.0600000001,"ADDRESS":"金華路一段２００巷５１號","OBJECTID":446857},"geometry":{"x":167048.24000000022,"y":2540719.0600000024}},{"attributes":{"ID":446883,"DIS_CODE":0,"TOWNNAME":"南區","LI":"明興里","LIN":"5鄰","STREET":"金華路","SECT":"一段","MAREA":" ","LANE":"２００巷","ALLEY":" ","HOUSE_NO":"５３號","E_COORD97":167047.73000000001,"N_COORD97":2540715.1600000001,"ADDRESS":"金華路一段２００巷５３號","OBJECTID":446858},"geometry":{"x":167047.73000000231,"y":2540715.160000002}},{"attributes":{"ID":446884,"DIS_CODE":0,"TOWNNAME":"新化區","LI":"東榮里","LIN":"5鄰","STREET":"信義路","SECT":" ","MAREA":" ","LANE":"１１１巷","ALLEY":" ","HOUSE_NO":"２９號之１","E_COORD97":179898.70999999999,"N_COORD97":2548574.2599999998,"ADDRESS":"信義路１１１巷２９號之１","OBJECTID":446859},"geometry":{"x":179898.71000000089,"y":2548574.2599999998}},{"attributes":{"ID":446885,"DIS_CODE":0,"TOWNNAME":"新化區","LI":"東榮里","LIN":"5鄰","STREET":"信義路","SECT":" ","MAREA":" ","LANE":"１１１巷","ALLEY":" ","HOUSE_NO":"１號之１","E_COORD97":179771.76000000001,"N_COORD97":2548604.2599999998,"ADDRESS":"信義路１１１巷１號之１","OBJECTID":446860},"geometry":{"x":179771.75999999978,"y":2548604.2600000016}},{"attributes":{"ID":446886,"DIS_CODE":0,"TOWNNAME":"新化區","LI":"東榮里","LIN":"5鄰","STREET":"信義路","SECT":" ","MAREA":" ","LANE":"１１１巷","ALLEY":" ","HOUSE_NO":"２１號之３","E_COORD97":179879.63,"N_COORD97":2548581.2599999998,"ADDRESS":"信義路１１１巷２１號之３","OBJECTID":446861},"geometry":{"x":179879.62999999989,"y":2548581.2599999998}},{"attributes":{"ID":446887,"DIS_CODE":0,"TOWNNAME":"新化區","LI":"東榮里","LIN":"5鄰","STREET":"信義路","SECT":" ","MAREA":" ","LANE":"１１１巷","ALLEY":" ","HOUSE_NO":"１號之２","E_COORD97":179775.78,"N_COORD97":2548603.2599999998,"ADDRESS":"信義路１１１巷１號之２","OBJECTID":446862},"geometry":{"x":179775.78000000026,"y":2548603.2600000016}},{"attributes":{"ID":446888,"DIS_CODE":0,"TOWNNAME":"新化區","LI":"東榮里","LIN":"5鄰","STREET":"信義路","SECT":" ","MAREA":" ","LANE":"９３巷","ALLEY":" ","HOUSE_NO":"２號","E_COORD97":179785.28,"N_COORD97":2548652.25,"ADDRESS":"信義路９３巷２號","OBJECTID":446863},"geometry":{"x":179785.28000000119,"y":2548652.25}},{"attributes":{"ID":446889,"DIS_CODE":0,"TOWNNAME":"新化區","LI":"東榮里","LIN":"5鄰","STREET":"信義路","SECT":" ","MAREA":" ","LANE":"１１１巷","ALLEY":" ","HOUSE_NO":"２號","E_COORD97":179788.53,"N_COORD97":2548583.25,"ADDRESS":"信義路１１１巷２號","OBJECTID":446864},"geometry":{"x":179788.53000000119,"y":2548583.2500000019}},{"attributes":{"ID":446890,"DIS_CODE":0,"TOWNNAME":"新化區","LI":"東榮里","LIN":"5鄰","STREET":"信義路","SECT":" ","MAREA":" ","LANE":"１１１巷","ALLEY":" ","HOUSE_NO":"３１號之１","E_COORD97":179895.01000000001,"N_COORD97":2548615.2599999998,"ADDRESS":"信義路１１１巷３１號之１","OBJECTID":446865},"geometry":{"x":179895.01000000071,"y":2548615.2599999998}},{"attributes":{"ID":446891,"DIS_CODE":0,"TOWNNAME":"新化區","LI":"東榮里","LIN":"5鄰","STREET":"信義路","SECT":" ","MAREA":" ","LANE":"１１１巷","ALLEY":" ","HOUSE_NO":"２１號之２","E_COORD97":179875.42999999999,"N_COORD97":2548581.2599999998,"ADDRESS":"信義路１１１巷２１號之２","OBJECTID":446866},"geometry":{"x":179875.43000000063,"y":2548581.2599999998}},{"attributes":{"ID":446892,"DIS_CODE":0,"TOWNNAME":"新化區","LI":"東榮里","LIN":"5鄰","STREET":"信義路","SECT":" ","MAREA":" ","LANE":"９３巷","ALLEY":" ","HOUSE_NO":"１８號","E_COORD97":179847.13,"N_COORD97":2548620.25,"ADDRESS":"信義路９３巷１８號","OBJECTID":446867},"geometry":{"x":179847.13000000082,"y":2548620.2500000019}},{"attributes":{"ID":446893,"DIS_CODE":0,"TOWNNAME":"新化區","LI":"東榮里","LIN":"5鄰","STREET":"信義路","SECT":" ","MAREA":" ","LANE":"９３巷","ALLEY":" ","HOUSE_NO":"２號之３","E_COORD97":179806.63,"N_COORD97":2548649.2599999998,"ADDRESS":"信義路９３巷２號之３","OBJECTID":446868},"geometry":{"x":179806.62999999989,"y":2548649.2599999998}},{"attributes":{"ID":446894,"DIS_CODE":0,"TOWNNAME":"新化區","LI":"協興里","LIN":"5鄰","STREET":"忠孝路","SECT":" ","MAREA":" ","LANE":"２６９巷","ALLEY":" ","HOUSE_NO":"８號","E_COORD97":178401.72,"N_COORD97":2548522.25,"ADDRESS":"忠孝路２６９巷８號","OBJECTID":446869},"geometry":{"x":178401.72000000067,"y":2548522.2500000019}},{"attributes":{"ID":446895,"DIS_CODE":0,"TOWNNAME":"西港區","LI":"西港里","LIN":"5鄰","STREET":"文化路","SECT":" ","MAREA":" ","LANE":"６９巷","ALLEY":" ","HOUSE_NO":"６號","E_COORD97":168742.54999999999,"N_COORD97":2558466.73,"ADDRESS":"文化路６９巷６號","OBJECTID":446870},"geometry":{"x":168742.54999999981,"y":2558466.7300000023}},{"attributes":{"ID":446896,"DIS_CODE":0,"TOWNNAME":"西港區","LI":"西港里","LIN":"5鄰","STREET":"文化路","SECT":" ","MAREA":" ","LANE":"６９巷","ALLEY":" ","HOUSE_NO":"７號","E_COORD97":168596.45999999999,"N_COORD97":2558669.2200000002,"ADDRESS":"文化路６９巷７號","OBJECTID":446871},"geometry":{"x":168596.45999999996,"y":2558669.2200000007}},{"attributes":{"ID":446897,"DIS_CODE":0,"TOWNNAME":"西港區","LI":"西港里","LIN":"5鄰","STREET":"文化路","SECT":" ","MAREA":" ","LANE":"８３巷","ALLEY":" ","HOUSE_NO":"１０號","E_COORD97":168839.76000000001,"N_COORD97":2558428.3900000001,"ADDRESS":"文化路８３巷１０號","OBJECTID":446872},"geometry":{"x":168839.75999999978,"y":2558428.3900000025}},{"attributes":{"ID":446898,"DIS_CODE":0,"TOWNNAME":"西港區","LI":"西港里","LIN":"5鄰","STREET":"文化路","SECT":" ","MAREA":" ","LANE":"８３巷","ALLEY":" ","HOUSE_NO":"１２號","E_COORD97":168838.10000000001,"N_COORD97":2558435.5499999998,"ADDRESS":"文化路８３巷１２號","OBJECTID":446873},"geometry":{"x":168838.10000000056,"y":2558435.5500000007}},{"attributes":{"ID":446899,"DIS_CODE":0,"TOWNNAME":"西港區","LI":"西港里","LIN":"5鄰","STREET":"文化路","SECT":" ","MAREA":" ","LANE":"８３巷","ALLEY":" ","HOUSE_NO":"１４號","E_COORD97":168836.26999999999,"N_COORD97":2558443.8300000001,"ADDRESS":"文化路８３巷１４號","OBJECTID":446874},"geometry":{"x":168836.26999999955,"y":2558443.8300000001}},{"attributes":{"ID":446900,"DIS_CODE":0,"TOWNNAME":"西港區","LI":"西港里","LIN":"5鄰","STREET":"文化路","SECT":" ","MAREA":" ","LANE":"８３巷","ALLEY":" ","HOUSE_NO":"１６號","E_COORD97":168834.31,"N_COORD97":2558450.04,"ADDRESS":"文化路８３巷１６號","OBJECTID":446875},"geometry":{"x":168834.30999999959,"y":2558450.040000001}},{"attributes":{"ID":446901,"DIS_CODE":0,"TOWNNAME":"西港區","LI":"西港里","LIN":"5鄰","STREET":"文化路","SECT":" ","MAREA":" ","LANE":"８３巷","ALLEY":" ","HOUSE_NO":"１８號","E_COORD97":168831.98999999999,"N_COORD97":2558457.9399999999,"ADDRESS":"文化路８３巷１８號","OBJECTID":446876},"geometry":{"x":168831.99000000022,"y":2558457.9400000013}},{"attributes":{"ID":446902,"DIS_CODE":0,"TOWNNAME":"西港區","LI":"西港里","LIN":"5鄰","STREET":"文化路","SECT":" ","MAREA":" ","LANE":"８３巷","ALLEY":" ","HOUSE_NO":"１號","E_COORD97":168831.84,"N_COORD97":2558373.6200000001,"ADDRESS":"文化路８３巷１號","OBJECTID":446877},"geometry":{"x":168831.84000000078,"y":2558373.6200000029}},{"attributes":{"ID":446903,"DIS_CODE":0,"TOWNNAME":"西港區","LI":"西港里","LIN":"5鄰","STREET":"文化路","SECT":" ","MAREA":" ","LANE":"８３巷","ALLEY":" ","HOUSE_NO":"２０號","E_COORD97":168830.53,"N_COORD97":2558465.0499999998,"ADDRESS":"文化路８３巷２０號","OBJECTID":446878},"geometry":{"x":168830.53000000212,"y":2558465.0500000026}},{"attributes":{"ID":446904,"DIS_CODE":0,"TOWNNAME":"西港區","LI":"西港里","LIN":"5鄰","STREET":"文化路","SECT":" ","MAREA":" ","LANE":"８３巷","ALLEY":" ","HOUSE_NO":"２２號","E_COORD97":168828.37,"N_COORD97":2558472.7000000002,"ADDRESS":"文化路８３巷２２號","OBJECTID":446879},"geometry":{"x":168828.37000000104,"y":2558472.7000000011}},{"attributes":{"ID":446905,"DIS_CODE":0,"TOWNNAME":"西港區","LI":"西港里","LIN":"5鄰","STREET":"文化路","SECT":" ","MAREA":" ","LANE":"８３巷","ALLEY":" ","HOUSE_NO":"２４號","E_COORD97":168826.60000000001,"N_COORD97":2558478.9900000002,"ADDRESS":"文化路８３巷２４號","OBJECTID":446880},"geometry":{"x":168826.60000000056,"y":2558478.9900000021}},{"attributes":{"ID":446906,"DIS_CODE":0,"TOWNNAME":"西港區","LI":"西港里","LIN":"5鄰","STREET":"文化路","SECT":" ","MAREA":" ","LANE":"８３巷","ALLEY":" ","HOUSE_NO":"２６號","E_COORD97":168824.35999999999,"N_COORD97":2558485.75,"ADDRESS":"文化路８３巷２６號","OBJECTID":446881},"geometry":{"x":168824.36000000034,"y":2558485.7499999981}},{"attributes":{"ID":446907,"DIS_CODE":0,"TOWNNAME":"西港區","LI":"西港里","LIN":"5鄰","STREET":"文化路","SECT":" ","MAREA":" ","LANE":"８３巷","ALLEY":" ","HOUSE_NO":"２８號","E_COORD97":168822.69,"N_COORD97":2558493.8399999999,"ADDRESS":"文化路８３巷２８號","OBJECTID":446882},"geometry":{"x":168822.69000000227,"y":2558493.8399999999}},{"attributes":{"ID":446908,"DIS_CODE":0,"TOWNNAME":"西港區","LI":"西港里","LIN":"5鄰","STREET":"文化路","SECT":" ","MAREA":" ","LANE":"８３巷","ALLEY":" ","HOUSE_NO":"２號","E_COORD97":168844.81,"N_COORD97":2558395.6000000001,"ADDRESS":"文化路８３巷２號","OBJECTID":446883},"geometry":{"x":168844.81000000145,"y":2558395.6000000015}},{"attributes":{"ID":446909,"DIS_CODE":0,"TOWNNAME":"西港區","LI":"西港里","LIN":"5鄰","STREET":"文化路","SECT":" ","MAREA":" ","LANE":"８３巷","ALLEY":" ","HOUSE_NO":"３號","E_COORD97":168829.60999999999,"N_COORD97":2558381.4199999999,"ADDRESS":"文化路８３巷３號","OBJECTID":446884},"geometry":{"x":168829.61000000034,"y":2558381.4199999999}},{"attributes":{"ID":446910,"DIS_CODE":0,"TOWNNAME":"西港區","LI":"西港里","LIN":"5鄰","STREET":"文化路","SECT":" ","MAREA":" ","LANE":"８３巷","ALLEY":" ","HOUSE_NO":"４號","E_COORD97":168843.51000000001,"N_COORD97":2558402.8100000001,"ADDRESS":"文化路８３巷４號","OBJECTID":446885},"geometry":{"x":168843.50999999885,"y":2558402.8100000024}},{"attributes":{"ID":446911,"DIS_CODE":0,"TOWNNAME":"西港區","LI":"西港里","LIN":"5鄰","STREET":"文化路","SECT":" ","MAREA":" ","LANE":"８３巷","ALLEY":" ","HOUSE_NO":"５號","E_COORD97":168827.79999999999,"N_COORD97":2558390.73,"ADDRESS":"文化路８３巷５號","OBJECTID":446886},"geometry":{"x":168827.79999999981,"y":2558390.7300000004}},{"attributes":{"ID":446912,"DIS_CODE":0,"TOWNNAME":"西港區","LI":"西港里","LIN":"5鄰","STREET":"文化路","SECT":" ","MAREA":" ","LANE":"８３巷","ALLEY":" ","HOUSE_NO":"６號","E_COORD97":168844.14999999999,"N_COORD97":2558413.6499999999,"ADDRESS":"文化路８３巷６號","OBJECTID":446887},"geometry":{"x":168844.15000000037,"y":2558413.6500000022}},{"attributes":{"ID":446913,"DIS_CODE":0,"TOWNNAME":"西港區","LI":"西港里","LIN":"5鄰","STREET":"文化路","SECT":" ","MAREA":" ","LANE":"８３巷","ALLEY":" ","HOUSE_NO":"７號","E_COORD97":168825.87,"N_COORD97":2558399.3900000001,"ADDRESS":"文化路８３巷７號","OBJECTID":446888},"geometry":{"x":168825.87000000011,"y":2558399.3900000006}},{"attributes":{"ID":446914,"DIS_CODE":0,"TOWNNAME":"歸仁區","LI":"沙崙里","LIN":"10鄰","STREET":" ","SECT":" ","MAREA":"沙崙","LANE":" ","ALLEY":" ","HOUSE_NO":"５２０號","E_COORD97":180654.38741699999,"N_COORD97":2537680.4604000002,"ADDRESS":"沙崙５２０號","OBJECTID":446889},"geometry":{"x":180654.38741700165,"y":2537680.4604010005}},{"attributes":{"ID":446915,"DIS_CODE":0,"TOWNNAME":"東區","LI":"仁和里","LIN":"5鄰","STREET":"仁和路","SECT":" ","MAREA":" ","LANE":"１１１巷","ALLEY":" ","HOUSE_NO":"４０號","E_COORD97":171466.78,"N_COORD97":2541292.1299999999,"ADDRESS":"仁和路１１１巷４０號","OBJECTID":446890},"geometry":{"x":171466.78000000119,"y":2541292.129999999}},{"attributes":{"ID":446916,"DIS_CODE":0,"TOWNNAME":"東區","LI":"仁和里","LIN":"5鄰","STREET":"仁和路","SECT":" ","MAREA":" ","LANE":"１１１巷","ALLEY":" ","HOUSE_NO":"３８號","E_COORD97":171462.72,"N_COORD97":2541291.2799999998,"ADDRESS":"仁和路１１１巷３８號","OBJECTID":446891},"geometry":{"x":171462.71999999974,"y":2541291.2799999993}},{"attributes":{"ID":446917,"DIS_CODE":0,"TOWNNAME":"東區","LI":"仁和里","LIN":"5鄰","STREET":"仁和路","SECT":" ","MAREA":" ","LANE":"１１１巷","ALLEY":" ","HOUSE_NO":"３６號","E_COORD97":171458.88,"N_COORD97":2541291.71,"ADDRESS":"仁和路１１１巷３６號","OBJECTID":446892},"geometry":{"x":171458.88000000082,"y":2541291.7100000028}},{"attributes":{"ID":446918,"DIS_CODE":0,"TOWNNAME":"東區","LI":"仁和里","LIN":"5鄰","STREET":"仁和路","SECT":" ","MAREA":" ","LANE":"１１１巷","ALLEY":" ","HOUSE_NO":"３４號","E_COORD97":171455.67999999999,"N_COORD97":2541291.4900000002,"ADDRESS":"仁和路１１１巷３４號","OBJECTID":446893},"geometry":{"x":171455.6799999997,"y":2541291.4900000002}},{"attributes":{"ID":446919,"DIS_CODE":0,"TOWNNAME":"東區","LI":"仁和里","LIN":"5鄰","STREET":"仁和路","SECT":" ","MAREA":" ","LANE":"１１１巷","ALLEY":" ","HOUSE_NO":"３２號","E_COORD97":171452.26000000001,"N_COORD97":2541291.9199999999,"ADDRESS":"仁和路１１１巷３２號","OBJECTID":446894},"geometry":{"x":171452.25999999978,"y":2541291.9199999981}},{"attributes":{"ID":446920,"DIS_CODE":0,"TOWNNAME":"東區","LI":"仁和里","LIN":"5鄰","STREET":"仁和路","SECT":" ","MAREA":" ","LANE":"１１１巷","ALLEY":" ","HOUSE_NO":"３０號","E_COORD97":171448.20999999999,"N_COORD97":2541291.9199999999,"ADDRESS":"仁和路１１１巷３０號","OBJECTID":446895},"geometry":{"x":171448.21000000089,"y":2541291.9199999981}},{"attributes":{"ID":446921,"DIS_CODE":0,"TOWNNAME":"東區","LI":"仁和里","LIN":"5鄰","STREET":"仁和路","SECT":" ","MAREA":" ","LANE":"１１１巷","ALLEY":" ","HOUSE_NO":"２８號","E_COORD97":171445.22,"N_COORD97":2541291.4900000002,"ADDRESS":"仁和路１１１巷２８號","OBJECTID":446896},"geometry":{"x":171445.21999999974,"y":2541291.4900000002}},{"attributes":{"ID":446922,"DIS_CODE":0,"TOWNNAME":"東區","LI":"仁和里","LIN":"5鄰","STREET":"仁和路","SECT":" ","MAREA":" ","LANE":"１１１巷","ALLEY":" ","HOUSE_NO":"２６號","E_COORD97":171441.38,"N_COORD97":2541291.9199999999,"ADDRESS":"仁和路１１１巷２６號","OBJECTID":446897},"geometry":{"x":171441.37999999989,"y":2541291.9199999981}},{"attributes":{"ID":446923,"DIS_CODE":0,"TOWNNAME":"東區","LI":"仁和里","LIN":"5鄰","STREET":"仁和路","SECT":" ","MAREA":" ","LANE":"１１１巷","ALLEY":" ","HOUSE_NO":"２４號","E_COORD97":171437.32999999999,"N_COORD97":2541292.1299999999,"ADDRESS":"仁和路１１１巷２４號","OBJECTID":446898},"geometry":{"x":171437.33000000101,"y":2541292.129999999}},{"attributes":{"ID":446924,"DIS_CODE":0,"TOWNNAME":"東區","LI":"仁和里","LIN":"5鄰","STREET":"仁和路","SECT":" ","MAREA":" ","LANE":"１１１巷","ALLEY":" ","HOUSE_NO":"２２號","E_COORD97":171434.12,"N_COORD97":2541292.1299999999,"ADDRESS":"仁和路１１１巷２２號","OBJECTID":446899},"geometry":{"x":171434.12000000104,"y":2541292.129999999}},{"attributes":{"ID":446925,"DIS_CODE":0,"TOWNNAME":"東區","LI":"仁和里","LIN":"5鄰","STREET":"仁和路","SECT":" ","MAREA":" ","LANE":"１１１巷","ALLEY":" ","HOUSE_NO":"４３號","E_COORD97":171466.48000000001,"N_COORD97":2541305.3300000001,"ADDRESS":"仁和路１１１巷４３號","OBJECTID":446900},"geometry":{"x":171466.48000000045,"y":2541305.3300000001}},{"attributes":{"ID":446926,"DIS_CODE":0,"TOWNNAME":"東區","LI":"仁和里","LIN":"5鄰","STREET":"仁和路","SECT":" ","MAREA":" ","LANE":"１１１巷","ALLEY":" ","HOUSE_NO":"３９號","E_COORD97":171459.42999999999,"N_COORD97":2541310.1499999999,"ADDRESS":"仁和路１１１巷３９號","OBJECTID":446901},"geometry":{"x":171459.4299999997,"y":2541310.1500000004}},{"attributes":{"ID":446927,"DIS_CODE":0,"TOWNNAME":"東區","LI":"仁和里","LIN":"5鄰","STREET":"仁和路","SECT":" ","MAREA":" ","LANE":"１１１巷","ALLEY":" ","HOUSE_NO":"３７號","E_COORD97":171455.53,"N_COORD97":2541307.7400000002,"ADDRESS":"仁和路１１１巷３７號","OBJECTID":446902},"geometry":{"x":171455.53000000026,"y":2541307.7400000021}},{"attributes":{"ID":446928,"DIS_CODE":0,"TOWNNAME":"東區","LI":"仁和里","LIN":"5鄰","STREET":"仁和路","SECT":" ","MAREA":" ","LANE":"１１１巷","ALLEY":" ","HOUSE_NO":"３５號","E_COORD97":171451.45000000001,"N_COORD97":2541309.96,"ADDRESS":"仁和路１１１巷３５號","OBJECTID":446903},"geometry":{"x":171451.45000000019,"y":2541309.9600000046}},{"attributes":{"ID":446929,"DIS_CODE":0,"TOWNNAME":"東區","LI":"仁和里","LIN":"5鄰","STREET":"仁和路","SECT":" ","MAREA":" ","LANE":"１１１巷","ALLEY":" ","HOUSE_NO":"３３號","E_COORD97":171448.10000000001,"N_COORD97":2541307.5499999998,"ADDRESS":"仁和路１１１巷３３號","OBJECTID":446904},"geometry":{"x":171448.09999999963,"y":2541307.5500000007}},{"attributes":{"ID":446930,"DIS_CODE":0,"TOWNNAME":"東區","LI":"仁和里","LIN":"5鄰","STREET":"仁和路","SECT":" ","MAREA":" ","LANE":"１１１巷","ALLEY":" ","HOUSE_NO":"３１號","E_COORD97":171444.57999999999,"N_COORD97":2541309.2200000002,"ADDRESS":"仁和路１１１巷３１號","OBJECTID":446905},"geometry":{"x":171444.58000000101,"y":2541309.2200000025}},{"attributes":{"ID":446931,"DIS_CODE":0,"TOWNNAME":"東區","LI":"仁和里","LIN":"5鄰","STREET":"仁和路","SECT":" ","MAREA":" ","LANE":"１１１巷","ALLEY":" ","HOUSE_NO":"２９號","E_COORD97":171441.23999999999,"N_COORD97":2541307.5499999998,"ADDRESS":"仁和路１１１巷２９號","OBJECTID":446906},"geometry":{"x":171441.24000000209,"y":2541307.5500000007}},{"attributes":{"ID":446932,"DIS_CODE":0,"TOWNNAME":"東區","LI":"仁和里","LIN":"5鄰","STREET":"仁和路","SECT":" ","MAREA":" ","LANE":"１１１巷","ALLEY":" ","HOUSE_NO":"２７號","E_COORD97":171437.34,"N_COORD97":2541308.6600000001,"ADDRESS":"仁和路１１１巷２７號","OBJECTID":446907},"geometry":{"x":171437.34000000078,"y":2541308.660000002}},{"attributes":{"ID":446933,"DIS_CODE":0,"TOWNNAME":"東區","LI":"仁和里","LIN":"5鄰","STREET":"仁和路","SECT":" ","MAREA":" ","LANE":"１１１巷","ALLEY":" ","HOUSE_NO":"２５號","E_COORD97":171433.44,"N_COORD97":2541307.1800000002,"ADDRESS":"仁和路１１１巷２５號","OBJECTID":446908},"geometry":{"x":171433.44000000227,"y":2541307.1800000034}},{"attributes":{"ID":446934,"DIS_CODE":0,"TOWNNAME":"東區","LI":"仁和里","LIN":"5鄰","STREET":"仁和路","SECT":" ","MAREA":" ","LANE":"１１１巷","ALLEY":" ","HOUSE_NO":"２０號","E_COORD97":171423.45000000001,"N_COORD97":2541292.77,"ADDRESS":"仁和路１１１巷２０號","OBJECTID":446909},"geometry":{"x":171423.45000000112,"y":2541292.7700000033}},{"attributes":{"ID":446935,"DIS_CODE":0,"TOWNNAME":"東區","LI":"仁和里","LIN":"5鄰","STREET":"仁和路","SECT":" ","MAREA":" ","LANE":"１１１巷","ALLEY":" ","HOUSE_NO":"１８號","E_COORD97":171419.60999999999,"N_COORD97":2541292.3500000001,"ADDRESS":"仁和路１１１巷１８號","OBJECTID":446910},"geometry":{"x":171419.61000000034,"y":2541292.3500000034}},{"attributes":{"ID":446936,"DIS_CODE":0,"TOWNNAME":"東區","LI":"仁和里","LIN":"5鄰","STREET":"仁和路","SECT":" ","MAREA":" ","LANE":"１１１巷","ALLEY":" ","HOUSE_NO":"１６號","E_COORD97":171416.63,"N_COORD97":2541291.9199999999,"ADDRESS":"仁和路１１１巷１６號","OBJECTID":446911},"geometry":{"x":171416.63000000082,"y":2541291.9199999981}},{"attributes":{"ID":446937,"DIS_CODE":0,"TOWNNAME":"東區","LI":"仁和里","LIN":"5鄰","STREET":"仁和路","SECT":" ","MAREA":" ","LANE":"１１１巷","ALLEY":" ","HOUSE_NO":"１４號","E_COORD97":171412.57000000001,"N_COORD97":2541291.9199999999,"ADDRESS":"仁和路１１１巷１４號","OBJECTID":446912},"geometry":{"x":171412.57000000123,"y":2541291.9199999981}},{"attributes":{"ID":446938,"DIS_CODE":0,"TOWNNAME":"東區","LI":"仁和里","LIN":"5鄰","STREET":"仁和路","SECT":" ","MAREA":" ","LANE":"１１１巷","ALLEY":" ","HOUSE_NO":"１２號","E_COORD97":171409.16,"N_COORD97":2541291.9199999999,"ADDRESS":"仁和路１１１巷１２號","OBJECTID":446913},"geometry":{"x":171409.16000000015,"y":2541291.9199999981}},{"attributes":{"ID":446939,"DIS_CODE":0,"TOWNNAME":"東區","LI":"仁和里","LIN":"5鄰","STREET":"仁和路","SECT":" ","MAREA":" ","LANE":"１１１巷","ALLEY":" ","HOUSE_NO":"１０號","E_COORD97":171405.10000000001,"N_COORD97":2541292.1299999999,"ADDRESS":"仁和路１１１巷１０號","OBJECTID":446914},"geometry":{"x":171405.10000000056,"y":2541292.129999999}},{"attributes":{"ID":446940,"DIS_CODE":0,"TOWNNAME":"東區","LI":"仁和里","LIN":"5鄰","STREET":"仁和路","SECT":" ","MAREA":" ","LANE":"１１１巷","ALLEY":" ","HOUSE_NO":"８號","E_COORD97":171401.69,"N_COORD97":2541292.3500000001,"ADDRESS":"仁和路１１１巷８號","OBJECTID":446915},"geometry":{"x":171401.69000000134,"y":2541292.3500000034}},{"attributes":{"ID":446941,"DIS_CODE":0,"TOWNNAME":"東區","LI":"仁和里","LIN":"5鄰","STREET":"仁和路","SECT":" ","MAREA":" ","LANE":"１１１巷","ALLEY":" ","HOUSE_NO":"６號","E_COORD97":171398.06,"N_COORD97":2541292.77,"ADDRESS":"仁和路１１１巷６號","OBJECTID":446916},"geometry":{"x":171398.06000000052,"y":2541292.7700000033}},{"attributes":{"ID":446942,"DIS_CODE":0,"TOWNNAME":"東區","LI":"仁和里","LIN":"5鄰","STREET":"仁和路","SECT":" ","MAREA":" ","LANE":"１１１巷","ALLEY":" ","HOUSE_NO":"４號","E_COORD97":171394.22,"N_COORD97":2541292.3500000001,"ADDRESS":"仁和路１１１巷４號","OBJECTID":446917},"geometry":{"x":171394.22000000067,"y":2541292.3500000034}},{"attributes":{"ID":446943,"DIS_CODE":0,"TOWNNAME":"東區","LI":"仁和里","LIN":"5鄰","STREET":"仁和路","SECT":" ","MAREA":" ","LANE":"１１１巷","ALLEY":" ","HOUSE_NO":"２號","E_COORD97":171388.23999999999,"N_COORD97":2541291.5,"ADDRESS":"仁和路１１１巷２號","OBJECTID":446918},"geometry":{"x":171388.24000000022,"y":2541291.5000000037}},{"attributes":{"ID":446944,"DIS_CODE":0,"TOWNNAME":"東區","LI":"仁和里","LIN":"5鄰","STREET":"仁和路","SECT":" ","MAREA":" ","LANE":"１１１巷","ALLEY":" ","HOUSE_NO":"２３號","E_COORD97":171422.67000000001,"N_COORD97":2541308.48,"ADDRESS":"仁和路１１１巷２３號","OBJECTID":446919},"geometry":{"x":171422.66999999899,"y":2541308.4800000004}},{"attributes":{"ID":446945,"DIS_CODE":0,"TOWNNAME":"東區","LI":"仁和里","LIN":"5鄰","STREET":"仁和路","SECT":" ","MAREA":" ","LANE":"１１１巷","ALLEY":" ","HOUSE_NO":"２１號","E_COORD97":171419.32999999999,"N_COORD97":2541309.96,"ADDRESS":"仁和路１１１巷２１號","OBJECTID":446920},"geometry":{"x":171419.33000000007,"y":2541309.9600000046}},{"attributes":{"ID":446946,"DIS_CODE":0,"TOWNNAME":"東區","LI":"仁和里","LIN":"5鄰","STREET":"仁和路","SECT":" ","MAREA":" ","LANE":"１１１巷","ALLEY":" ","HOUSE_NO":"１９號","E_COORD97":171415.25,"N_COORD97":2541307.9199999999,"ADDRESS":"仁和路１１１巷１９號","OBJECTID":446921},"geometry":{"x":171415.25,"y":2541307.9199999999}},{"attributes":{"ID":446947,"DIS_CODE":0,"TOWNNAME":"東區","LI":"仁和里","LIN":"5鄰","STREET":"仁和路","SECT":" ","MAREA":" ","LANE":"１１１巷","ALLEY":" ","HOUSE_NO":"１７號","E_COORD97":171411.72,"N_COORD97":2541309.5899999999,"ADDRESS":"仁和路１１１巷１７號","OBJECTID":446922},"geometry":{"x":171411.71999999974,"y":2541309.5899999999}},{"attributes":{"ID":446948,"DIS_CODE":0,"TOWNNAME":"東區","LI":"仁和里","LIN":"5鄰","STREET":"仁和路","SECT":" ","MAREA":" ","LANE":"１１１巷","ALLEY":" ","HOUSE_NO":"１５號","E_COORD97":171407.82000000001,"N_COORD97":2541307.5499999998,"ADDRESS":"仁和路１１１巷１５號","OBJECTID":446923},"geometry":{"x":171407.8200000003,"y":2541307.5500000007}},{"attributes":{"ID":446949,"DIS_CODE":0,"TOWNNAME":"東區","LI":"仁和里","LIN":"5鄰","STREET":"仁和路","SECT":" ","MAREA":" ","LANE":"１１１巷","ALLEY":" ","HOUSE_NO":"１３號","E_COORD97":171404.48000000001,"N_COORD97":2541309.4100000001,"ADDRESS":"仁和路１１１巷１３號","OBJECTID":446924},"geometry":{"x":171404.48000000138,"y":2541309.4100000039}},{"attributes":{"ID":446950,"DIS_CODE":0,"TOWNNAME":"東區","LI":"仁和里","LIN":"5鄰","STREET":"仁和路","SECT":" ","MAREA":" ","LANE":"１１１巷","ALLEY":" ","HOUSE_NO":"１１號","E_COORD97":171400.76000000001,"N_COORD97":2541306.4399999999,"ADDRESS":"仁和路１１１巷１１號","OBJECTID":446925},"geometry":{"x":171400.76000000071,"y":2541306.4400000013}},{"attributes":{"ID":446951,"DIS_CODE":0,"TOWNNAME":"東區","LI":"仁和里","LIN":"5鄰","STREET":"仁和路","SECT":" ","MAREA":" ","LANE":"１１１巷","ALLEY":" ","HOUSE_NO":"９號","E_COORD97":171397.42000000001,"N_COORD97":2541308.6600000001,"ADDRESS":"仁和路１１１巷９號","OBJECTID":446926},"geometry":{"x":171397.42000000179,"y":2541308.660000002}},{"attributes":{"ID":446952,"DIS_CODE":0,"TOWNNAME":"東區","LI":"仁和里","LIN":"5鄰","STREET":"仁和路","SECT":" ","MAREA":" ","LANE":"１１１巷","ALLEY":" ","HOUSE_NO":"７號","E_COORD97":171394.07999999999,"N_COORD97":2541306.6200000001,"ADDRESS":"仁和路１１１巷７號","OBJECTID":446927},"geometry":{"x":171394.08000000007,"y":2541306.6200000029}},{"attributes":{"ID":446953,"DIS_CODE":0,"TOWNNAME":"東區","LI":"仁和里","LIN":"5鄰","STREET":"仁和路","SECT":" ","MAREA":" ","LANE":"１１１巷","ALLEY":" ","HOUSE_NO":"５號","E_COORD97":171389.81,"N_COORD97":2541308.8500000001,"ADDRESS":"仁和路１１１巷５號","OBJECTID":446928},"geometry":{"x":171389.81000000052,"y":2541308.8499999996}},{"attributes":{"ID":446954,"DIS_CODE":0,"TOWNNAME":"東區","LI":"仁和里","LIN":"5鄰","STREET":"仁和路","SECT":" ","MAREA":" ","LANE":"１１１巷","ALLEY":" ","HOUSE_NO":"３號","E_COORD97":171386.47,"N_COORD97":2541307,"ADDRESS":"仁和路１１１巷３號","OBJECTID":446929},"geometry":{"x":171386.46999999974,"y":2541307}},{"attributes":{"ID":446955,"DIS_CODE":0,"TOWNNAME":"東區","LI":"莊敬里","LIN":"5鄰","STREET":"東光路","SECT":"二段","MAREA":" ","LANE":"１２１巷","ALLEY":" ","HOUSE_NO":"４號","E_COORD97":171204.45999999999,"N_COORD97":2544263.8199999998,"ADDRESS":"東光路二段１２１巷４號","OBJECTID":446930},"geometry":{"x":171204.46000000089,"y":2544263.8200000022}},{"attributes":{"ID":446956,"DIS_CODE":0,"TOWNNAME":"東區","LI":"莊敬里","LIN":"5鄰","STREET":"東光路","SECT":"二段","MAREA":" ","LANE":"１２１巷","ALLEY":" ","HOUSE_NO":"６號","E_COORD97":171198.87,"N_COORD97":2544264.6699999999,"ADDRESS":"東光路二段１２１巷６號","OBJECTID":446931},"geometry":{"x":171198.87000000011,"y":2544264.6700000018}},{"attributes":{"ID":446957,"DIS_CODE":0,"TOWNNAME":"東區","LI":"莊敬里","LIN":"5鄰","STREET":"東光路","SECT":"二段","MAREA":" ","LANE":"１２１巷","ALLEY":" ","HOUSE_NO":"８號","E_COORD97":171189.57999999999,"N_COORD97":2544263.8999999999,"ADDRESS":"東光路二段１２１巷８號","OBJECTID":446932},"geometry":{"x":171189.58000000194,"y":2544263.9000000022}},{"attributes":{"ID":446958,"DIS_CODE":0,"TOWNNAME":"東區","LI":"莊敬里","LIN":"5鄰","STREET":"東光路","SECT":"二段","MAREA":" ","LANE":"１２１巷","ALLEY":" ","HOUSE_NO":"１０號","E_COORD97":171182.70000000001,"N_COORD97":2544264.0699999998,"ADDRESS":"東光路二段１２１巷１０號","OBJECTID":446933},"geometry":{"x":171182.70000000112,"y":2544264.0700000003}},{"attributes":{"ID":446959,"DIS_CODE":0,"TOWNNAME":"永康區","LI":"尚頂里","LIN":"1鄰","STREET":"中正南路","SECT":" ","MAREA":" ","LANE":" ","ALLEY":" ","HOUSE_NO":"３０８號","E_COORD97":170693.03,"N_COORD97":2547901.0299999998,"ADDRESS":"中正南路３０８號","OBJECTID":446934},"geometry":{"x":170693.03000000026,"y":2547901.0299999993}},{"attributes":{"ID":446960,"DIS_CODE":0,"TOWNNAME":"東區","LI":"富裕里","LIN":"5鄰","STREET":"裕農路","SECT":" ","MAREA":" ","LANE":"９０巷","ALLEY":" ","HOUSE_NO":"１５號","E_COORD97":170715.19,"N_COORD97":2542855.04,"ADDRESS":"裕農路９０巷１５號","OBJECTID":446935},"geometry":{"x":170715.19000000134,"y":2542855.040000001}},{"attributes":{"ID":446961,"DIS_CODE":0,"TOWNNAME":"東區","LI":"富裕里","LIN":"5鄰","STREET":"裕農路","SECT":" ","MAREA":" ","LANE":"９０巷","ALLEY":" ","HOUSE_NO":"１６號","E_COORD97":170700.88,"N_COORD97":2542851.9500000002,"ADDRESS":"裕農路９０巷１６號","OBJECTID":446936},"geometry":{"x":170700.88000000175,"y":2542851.9500000011}},{"attributes":{"ID":446962,"DIS_CODE":0,"TOWNNAME":"東區","LI":"富裕里","LIN":"5鄰","STREET":"裕農路","SECT":" ","MAREA":" ","LANE":"９０巷","ALLEY":" ","HOUSE_NO":"１８號","E_COORD97":170703.23999999999,"N_COORD97":2542848.23,"ADDRESS":"裕農路９０巷１８號","OBJECTID":446937},"geometry":{"x":170703.24000000022,"y":2542848.2300000023}},{"attributes":{"ID":446963,"DIS_CODE":0,"TOWNNAME":"新市區","LI":"港墘里","LIN":"5鄰","STREET":"民族路","SECT":" ","MAREA":" ","LANE":"１２１巷","ALLEY":" ","HOUSE_NO":"６號","E_COORD97":178312.98999999999,"N_COORD97":2553554.54,"ADDRESS":"民族路１２１巷６號","OBJECTID":446938},"geometry":{"x":178312.99000000022,"y":2553554.540000001}},{"attributes":{"ID":446964,"DIS_CODE":0,"TOWNNAME":"新市區","LI":"港墘里","LIN":"5鄰","STREET":"民族路","SECT":" ","MAREA":" ","LANE":"１２１巷","ALLEY":" ","HOUSE_NO":"７號","E_COORD97":178318.44,"N_COORD97":2553566.29,"ADDRESS":"民族路１２１巷７號","OBJECTID":446939},"geometry":{"x":178318.44000000041,"y":2553566.290000001}},{"attributes":{"ID":446965,"DIS_CODE":0,"TOWNNAME":"安南區","LI":"溪墘里","LIN":"5鄰","STREET":"海佃路","SECT":"一段","MAREA":" ","LANE":"２４６巷","ALLEY":" ","HOUSE_NO":"５６號","E_COORD97":167293.31,"N_COORD97":2547342.3199999998,"ADDRESS":"海佃路一段２４６巷５６號","OBJECTID":446940},"geometry":{"x":167293.30999999959,"y":2547342.3200000022}},{"attributes":{"ID":446966,"DIS_CODE":0,"TOWNNAME":"安南區","LI":"溪墘里","LIN":"5鄰","STREET":"海佃路","SECT":"一段","MAREA":" ","LANE":"２４６巷","ALLEY":" ","HOUSE_NO":"４４號","E_COORD97":167266.09,"N_COORD97":2547336.4900000002,"ADDRESS":"海佃路一段２４６巷４４號","OBJECTID":446941},"geometry":{"x":167266.08999999985,"y":2547336.4900000002}},{"attributes":{"ID":446967,"DIS_CODE":0,"TOWNNAME":"安南區","LI":"原佃里","LIN":"5鄰","STREET":"本原街","SECT":"一段","MAREA":" ","LANE":"１４０巷","ALLEY":" ","HOUSE_NO":"１１號","E_COORD97":167873.28,"N_COORD97":2550201.04,"ADDRESS":"本原街一段１４０巷１１號","OBJECTID":446942},"geometry":{"x":167873.28000000119,"y":2550201.040000001}},{"attributes":{"ID":446968,"DIS_CODE":0,"TOWNNAME":"安南區","LI":"原佃里","LIN":"5鄰","STREET":"本原街","SECT":"一段","MAREA":" ","LANE":"１４０巷","ALLEY":" ","HOUSE_NO":"１７號","E_COORD97":167890.20000000001,"N_COORD97":2550206.0899999999,"ADDRESS":"本原街一段１４０巷１７號","OBJECTID":446943},"geometry":{"x":167890.20000000112,"y":2550206.0899999999}},{"attributes":{"ID":446969,"DIS_CODE":0,"TOWNNAME":"安南區","LI":"原佃里","LIN":"5鄰","STREET":"本原街","SECT":"一段","MAREA":" ","LANE":"１４０巷","ALLEY":" ","HOUSE_NO":"２３號","E_COORD97":167912.69,"N_COORD97":2550202.4500000002,"ADDRESS":"本原街一段１４０巷２３號","OBJECTID":446944},"geometry":{"x":167912.69000000134,"y":2550202.4500000011}},{"attributes":{"ID":446970,"DIS_CODE":0,"TOWNNAME":"安南區","LI":"原佃里","LIN":"5鄰","STREET":"本原街","SECT":"一段","MAREA":" ","LANE":"１９５巷","ALLEY":" ","HOUSE_NO":"１２號","E_COORD97":167756.14000000001,"N_COORD97":2550201.1800000002,"ADDRESS":"本原街一段１９５巷１２號","OBJECTID":446945},"geometry":{"x":167756.1400000006,"y":2550201.1800000016}},{"attributes":{"ID":446971,"DIS_CODE":0,"TOWNNAME":"安南區","LI":"原佃里","LIN":"5鄰","STREET":"本原街","SECT":"一段","MAREA":" ","LANE":"１９５巷","ALLEY":" ","HOUSE_NO":"１５號","E_COORD97":167735.29000000001,"N_COORD97":2550174.9399999999,"ADDRESS":"本原街一段１９５巷１５號","OBJECTID":446946},"geometry":{"x":167735.29000000097,"y":2550174.9400000013}},{"attributes":{"ID":446972,"DIS_CODE":0,"TOWNNAME":"安南區","LI":"原佃里","LIN":"5鄰","STREET":"本原街","SECT":"一段","MAREA":" ","LANE":"１９５巷","ALLEY":" ","HOUSE_NO":"１６號","E_COORD97":167734.97,"N_COORD97":2550207.7999999998,"ADDRESS":"本原街一段１９５巷１６號","OBJECTID":446947},"geometry":{"x":167734.96999999974,"y":2550207.8000000026}},{"attributes":{"ID":446973,"DIS_CODE":0,"TOWNNAME":"安南區","LI":"原佃里","LIN":"5鄰","STREET":"本原街","SECT":"一段","MAREA":" ","LANE":"１９５巷","ALLEY":" ","HOUSE_NO":"１９號","E_COORD97":167720.73999999999,"N_COORD97":2550166.6699999999,"ADDRESS":"本原街一段１９５巷１９號","OBJECTID":446948},"geometry":{"x":167720.74000000115,"y":2550166.6700000018}},{"attributes":{"ID":446974,"DIS_CODE":0,"TOWNNAME":"安南區","LI":"原佃里","LIN":"5鄰","STREET":"本原街","SECT":"一段","MAREA":" ","LANE":"１９５巷","ALLEY":" ","HOUSE_NO":"２號","E_COORD97":167783.87,"N_COORD97":2550209.6099999999,"ADDRESS":"本原街一段１９５巷２號","OBJECTID":446949},"geometry":{"x":167783.87000000104,"y":2550209.6099999994}},{"attributes":{"ID":446975,"DIS_CODE":0,"TOWNNAME":"安南區","LI":"原佃里","LIN":"5鄰","STREET":"本原街","SECT":"一段","MAREA":" ","LANE":"１９５巷","ALLEY":" ","HOUSE_NO":"６號","E_COORD97":167773.82000000001,"N_COORD97":2550206.8399999999,"ADDRESS":"本原街一段１９５巷６號","OBJECTID":446950},"geometry":{"x":167773.8200000003,"y":2550206.8400000017}},{"attributes":{"ID":446976,"DIS_CODE":0,"TOWNNAME":"安南區","LI":"海東里","LIN":"5鄰","STREET":"海中街","SECT":" ","MAREA":" ","LANE":"１３０巷","ALLEY":" ","HOUSE_NO":"６６號","E_COORD97":166529.64999999999,"N_COORD97":2549166.3100000001,"ADDRESS":"海中街１３０巷６６號","OBJECTID":446951},"geometry":{"x":166529.6500000013,"y":2549166.3100000024}},{"attributes":{"ID":446977,"DIS_CODE":0,"TOWNNAME":"安南區","LI":"海東里","LIN":"5鄰","STREET":"海中街","SECT":" ","MAREA":" ","LANE":"１３０巷","ALLEY":" ","HOUSE_NO":"６８號","E_COORD97":166538.67999999999,"N_COORD97":2549173.8399999999,"ADDRESS":"海中街１３０巷６８號","OBJECTID":446952},"geometry":{"x":166538.68000000156,"y":2549173.8399999999}},{"attributes":{"ID":446978,"DIS_CODE":0,"TOWNNAME":"安南區","LI":"海東里","LIN":"5鄰","STREET":"海中街","SECT":" ","MAREA":" ","LANE":"１３０巷","ALLEY":" ","HOUSE_NO":"７６號","E_COORD97":166558.84,"N_COORD97":2549182.73,"ADDRESS":"海中街１３０巷７６號","OBJECTID":446953},"geometry":{"x":166558.84000000078,"y":2549182.7300000004}},{"attributes":{"ID":446979,"DIS_CODE":0,"TOWNNAME":"安南區","LI":"海東里","LIN":"5鄰","STREET":"海佃路","SECT":"二段","MAREA":" ","LANE":"５０９巷","ALLEY":" ","HOUSE_NO":"２６號","E_COORD97":166602.95999999999,"N_COORD97":2549188.1000000001,"ADDRESS":"海佃路二段５０９巷２６號","OBJECTID":446954},"geometry":{"x":166602.95999999996,"y":2549188.1000000015}},{"attributes":{"ID":446980,"DIS_CODE":0,"TOWNNAME":"安南區","LI":"海東里","LIN":"5鄰","STREET":"海佃路","SECT":"二段","MAREA":" ","LANE":"５０９巷","ALLEY":" ","HOUSE_NO":"２號","E_COORD97":166653.67999999999,"N_COORD97":2549233.6499999999,"ADDRESS":"海佃路二段５０９巷２號","OBJECTID":446955},"geometry":{"x":166653.6799999997,"y":2549233.6500000004}},{"attributes":{"ID":446981,"DIS_CODE":0,"TOWNNAME":"安南區","LI":"海東里","LIN":"5鄰","STREET":"海佃路","SECT":"二段","MAREA":" ","LANE":"５０９巷","ALLEY":" ","HOUSE_NO":"３２號","E_COORD97":166579.39999999999,"N_COORD97":2549173.96,"ADDRESS":"海佃路二段５０９巷３２號","OBJECTID":446956},"geometry":{"x":166579.40000000037,"y":2549173.9600000009}},{"attributes":{"ID":446982,"DIS_CODE":0,"TOWNNAME":"安南區","LI":"海東里","LIN":"5鄰","STREET":"海佃路","SECT":"二段","MAREA":" ","LANE":"５０９巷","ALLEY":" ","HOUSE_NO":"４２號","E_COORD97":166570.04999999999,"N_COORD97":2549157.3599999999,"ADDRESS":"海佃路二段５０９巷４２號","OBJECTID":446957},"geometry":{"x":166570.04999999888,"y":2549157.3599999975}},{"attributes":{"ID":446983,"DIS_CODE":0,"TOWNNAME":"安南區","LI":"海東里","LIN":"5鄰","STREET":"海佃路","SECT":"二段","MAREA":" ","LANE":"５０９巷","ALLEY":" ","HOUSE_NO":"４４號","E_COORD97":166565.51999999999,"N_COORD97":2549156.8799999999,"ADDRESS":"海佃路二段５０９巷４４號","OBJECTID":446958},"geometry":{"x":166565.52000000048,"y":2549156.8800000027}},{"attributes":{"ID":446984,"DIS_CODE":0,"TOWNNAME":"安南區","LI":"海東里","LIN":"5鄰","STREET":"海佃路","SECT":"二段","MAREA":" ","LANE":"５０９巷","ALLEY":" ","HOUSE_NO":"５２號","E_COORD97":166545.32000000001,"N_COORD97":2549139.6299999999,"ADDRESS":"海佃路二段５０９巷５２號","OBJECTID":446959},"geometry":{"x":166545.32000000123,"y":2549139.6300000008}},{"attributes":{"ID":446985,"DIS_CODE":0,"TOWNNAME":"安南區","LI":"海東里","LIN":"5鄰","STREET":"海佃路","SECT":"二段","MAREA":" ","LANE":"５０９巷","ALLEY":" ","HOUSE_NO":"６號","E_COORD97":166647.45000000001,"N_COORD97":2549220.0499999998,"ADDRESS":"海佃路二段５０９巷６號","OBJECTID":446960},"geometry":{"x":166647.45000000205,"y":2549220.0500000026}},{"attributes":{"ID":446986,"DIS_CODE":0,"TOWNNAME":"中西區","LI":"郡西里","LIN":"5鄰","STREET":"永華路","SECT":"一段","MAREA":" ","LANE":"１４４巷","ALLEY":" ","HOUSE_NO":"１號","E_COORD97":167268.89999999999,"N_COORD97":2543206.8999999999,"ADDRESS":"永華路一段１４４巷１號","OBJECTID":446961},"geometry":{"x":167268.9000000013,"y":2543206.9000000004}},{"attributes":{"ID":446987,"DIS_CODE":0,"TOWNNAME":"中西區","LI":"福安里","LIN":"5鄰","STREET":"友愛街","SECT":" ","MAREA":" ","LANE":"１１５巷","ALLEY":" ","HOUSE_NO":"１０號","E_COORD97":167933.66,"N_COORD97":2543516.4100000001,"ADDRESS":"友愛街１１５巷１０號","OBJECTID":446962},"geometry":{"x":167933.66000000015,"y":2543516.4100000039}},{"attributes":{"ID":446988,"DIS_CODE":0,"TOWNNAME":"中西區","LI":"福安里","LIN":"5鄰","STREET":"友愛街","SECT":" ","MAREA":" ","LANE":"１１５巷","ALLEY":" ","HOUSE_NO":"１０號之１０","E_COORD97":167918.51000000001,"N_COORD97":2543520.5299999998,"ADDRESS":"友愛街１１５巷１０號之１０","OBJECTID":446963},"geometry":{"x":167918.51000000071,"y":2543520.5299999993}},{"attributes":{"ID":446989,"DIS_CODE":0,"TOWNNAME":"中西區","LI":"福安里","LIN":"5鄰","STREET":"友愛街","SECT":" ","MAREA":" ","LANE":"１１５巷","ALLEY":" ","HOUSE_NO":"１０號之１２","E_COORD97":167911.73000000001,"N_COORD97":2543522.3900000001,"ADDRESS":"友愛街１１５巷１０號之１２","OBJECTID":446964},"geometry":{"x":167911.73000000045,"y":2543522.3900000006}},{"attributes":{"ID":446990,"DIS_CODE":0,"TOWNNAME":"中西區","LI":"福安里","LIN":"5鄰","STREET":"友愛街","SECT":" ","MAREA":" ","LANE":"１１５巷","ALLEY":" ","HOUSE_NO":"１０號之４","E_COORD97":167927.01999999999,"N_COORD97":2543518.3999999999,"ADDRESS":"友愛街１１５巷１０號之４","OBJECTID":446965},"geometry":{"x":167927.02000000048,"y":2543518.4000000022}},{"attributes":{"ID":446991,"DIS_CODE":0,"TOWNNAME":"中西區","LI":"福安里","LIN":"5鄰","STREET":"友愛街","SECT":" ","MAREA":" ","LANE":"１１５巷","ALLEY":" ","HOUSE_NO":"１２號","E_COORD97":167929.94,"N_COORD97":2543506.4500000002,"ADDRESS":"友愛街１１５巷１２號","OBJECTID":446966},"geometry":{"x":167929.94000000134,"y":2543506.4500000011}},{"attributes":{"ID":446992,"DIS_CODE":0,"TOWNNAME":"中西區","LI":"福安里","LIN":"5鄰","STREET":"友愛街","SECT":" ","MAREA":" ","LANE":"１１５巷","ALLEY":" ","HOUSE_NO":"１２號之１","E_COORD97":167922.76000000001,"N_COORD97":2543508.1699999999,"ADDRESS":"友愛街１１５巷１２號之１","OBJECTID":446967},"geometry":{"x":167922.75999999978,"y":2543508.1700000018}},{"attributes":{"ID":446993,"DIS_CODE":0,"TOWNNAME":"中西區","LI":"大南里","LIN":"5鄰","STREET":"南門路","SECT":" ","MAREA":" ","LANE":"６８巷","ALLEY":" ","HOUSE_NO":"１６號","E_COORD97":168261.59,"N_COORD97":2542528.4199999999,"ADDRESS":"南門路６８巷１６號","OBJECTID":446968},"geometry":{"x":168261.58999999892,"y":2542528.4199999999}},{"attributes":{"ID":446994,"DIS_CODE":0,"TOWNNAME":"中西區","LI":"大南里","LIN":"5鄰","STREET":"南門路","SECT":" ","MAREA":" ","LANE":"６８巷","ALLEY":" ","HOUSE_NO":"１８號","E_COORD97":168255.60000000001,"N_COORD97":2542528.77,"ADDRESS":"南門路６８巷１８號","OBJECTID":446969},"geometry":{"x":168255.59999999963,"y":2542528.7699999996}},{"attributes":{"ID":446995,"DIS_CODE":0,"TOWNNAME":"中西區","LI":"大南里","LIN":"5鄰","STREET":"南門路","SECT":" ","MAREA":" ","LANE":"６８巷","ALLEY":" ","HOUSE_NO":"１８號之１","E_COORD97":168250.31,"N_COORD97":2542527.3700000001,"ADDRESS":"南門路６８巷１８號之１","OBJECTID":446970},"geometry":{"x":168250.31000000052,"y":2542527.370000001}},{"attributes":{"ID":446996,"DIS_CODE":0,"TOWNNAME":"中西區","LI":"大南里","LIN":"5鄰","STREET":"南門路","SECT":" ","MAREA":" ","LANE":"６８巷","ALLEY":" ","HOUSE_NO":"１８號之２","E_COORD97":168236.92999999999,"N_COORD97":2542527.3700000001,"ADDRESS":"南門路６８巷１８號之２","OBJECTID":446971},"geometry":{"x":168236.9299999997,"y":2542527.370000001}},{"attributes":{"ID":446997,"DIS_CODE":0,"TOWNNAME":"中西區","LI":"大南里","LIN":"5鄰","STREET":"南門路","SECT":" ","MAREA":" ","LANE":"６８巷","ALLEY":" ","HOUSE_NO":"２０號","E_COORD97":168223.54000000001,"N_COORD97":2542527.3700000001,"ADDRESS":"南門路６８巷２０號","OBJECTID":446972},"geometry":{"x":168223.54000000097,"y":2542527.370000001}},{"attributes":{"ID":446998,"DIS_CODE":0,"TOWNNAME":"中西區","LI":"仙草里","LIN":"5鄰","STREET":"五妃街","SECT":" ","MAREA":" ","LANE":"２８０巷","ALLEY":" ","HOUSE_NO":"１２號","E_COORD97":167906.20999999999,"N_COORD97":2542635.6699999999,"ADDRESS":"五妃街２８０巷１２號","OBJECTID":446973},"geometry":{"x":167906.20999999996,"y":2542635.6699999999}},{"attributes":{"ID":446999,"DIS_CODE":0,"TOWNNAME":"中西區","LI":"仙草里","LIN":"5鄰","STREET":"五妃街","SECT":" ","MAREA":" ","LANE":"２８０巷","ALLEY":" ","HOUSE_NO":"１３號","E_COORD97":167887.04000000001,"N_COORD97":2542637.1600000001,"ADDRESS":"五妃街２８０巷１３號","OBJECTID":446974},"geometry":{"x":167887.04000000004,"y":2542637.160000002}},{"attributes":{"ID":447000,"DIS_CODE":0,"TOWNNAME":"中西區","LI":"仙草里","LIN":"5鄰","STREET":"五妃街","SECT":" ","MAREA":" ","LANE":"２８０巷","ALLEY":" ","HOUSE_NO":"１４號","E_COORD97":167906.20999999999,"N_COORD97":2542641.5,"ADDRESS":"五妃街２８０巷１４號","OBJECTID":446975},"geometry":{"x":167906.20999999996,"y":2542641.5000000019}},{"attributes":{"ID":447001,"DIS_CODE":0,"TOWNNAME":"中西區","LI":"仙草里","LIN":"5鄰","STREET":"五妃街","SECT":" ","MAREA":" ","LANE":"２８０巷","ALLEY":" ","HOUSE_NO":"１５號","E_COORD97":167887.04000000001,"N_COORD97":2542641.7999999998,"ADDRESS":"五妃街２８０巷１５號","OBJECTID":446976},"geometry":{"x":167887.04000000004,"y":2542641.8000000007}},{"attributes":{"ID":447002,"DIS_CODE":0,"TOWNNAME":"中西區","LI":"仙草里","LIN":"5鄰","STREET":"五妃街","SECT":" ","MAREA":" ","LANE":"２８０巷","ALLEY":" ","HOUSE_NO":"１６號","E_COORD97":167903.56,"N_COORD97":2542647,"ADDRESS":"五妃街２８０巷１６號","OBJECTID":446977},"geometry":{"x":167903.55999999959,"y":2542647}},{"attributes":{"ID":447003,"DIS_CODE":0,"TOWNNAME":"中西區","LI":"仙草里","LIN":"5鄰","STREET":"五妃街","SECT":" ","MAREA":" ","LANE":"２８０巷","ALLEY":" ","HOUSE_NO":"１７號","E_COORD97":167886.78,"N_COORD97":2542645.6400000001,"ADDRESS":"五妃街２８０巷１７號","OBJECTID":446978},"geometry":{"x":167886.78000000119,"y":2542645.6400000025}},{"attributes":{"ID":447004,"DIS_CODE":0,"TOWNNAME":"中西區","LI":"仙草里","LIN":"5鄰","STREET":"五妃街","SECT":" ","MAREA":" ","LANE":"２８０巷","ALLEY":" ","HOUSE_NO":"１９號","E_COORD97":167886.45000000001,"N_COORD97":2542648.8900000001,"ADDRESS":"五妃街２８０巷１９號","OBJECTID":446979},"geometry":{"x":167886.45000000019,"y":2542648.8899999987}},{"attributes":{"ID":447005,"DIS_CODE":0,"TOWNNAME":"中西區","LI":"小西里","LIN":"5鄰","STREET":"府前路","SECT":"一段","MAREA":" ","LANE":"３７１巷","ALLEY":" ","HOUSE_NO":"２５號","E_COORD97":167876.91,"N_COORD97":2543307.5499999998,"ADDRESS":"府前路一段３７１巷２５號","OBJECTID":446980},"geometry":{"x":167876.91000000108,"y":2543307.5500000026}},{"attributes":{"ID":447006,"DIS_CODE":0,"TOWNNAME":"中西區","LI":"小西里","LIN":"5鄰","STREET":"府前路","SECT":"一段","MAREA":" ","LANE":"３７１巷","ALLEY":" ","HOUSE_NO":"２７號","E_COORD97":167870.84,"N_COORD97":2543301.75,"ADDRESS":"府前路一段３７１巷２７號","OBJECTID":446981},"geometry":{"x":167870.84000000078,"y":2543301.7500000019}},{"attributes":{"ID":447007,"DIS_CODE":0,"TOWNNAME":"中西區","LI":"仙草里","LIN":"5鄰","STREET":"西門路","SECT":"一段","MAREA":" ","LANE":"４８２巷","ALLEY":" ","HOUSE_NO":"２９號","E_COORD97":167847.25,"N_COORD97":2542661.2599999998,"ADDRESS":"西門路一段４８２巷２９號","OBJECTID":446982},"geometry":{"x":167847.25000000186,"y":2542661.2599999998}},{"attributes":{"ID":447008,"DIS_CODE":0,"TOWNNAME":"中西區","LI":"仙草里","LIN":"5鄰","STREET":"西門路","SECT":"一段","MAREA":" ","LANE":"４８２巷","ALLEY":" ","HOUSE_NO":"３１號","E_COORD97":167853.59,"N_COORD97":2542654.8599999999,"ADDRESS":"西門路一段４８２巷３１號","OBJECTID":446983},"geometry":{"x":167853.59000000078,"y":2542654.8600000031}},{"attributes":{"ID":447009,"DIS_CODE":0,"TOWNNAME":"中西區","LI":"仙草里","LIN":"5鄰","STREET":"西門路","SECT":"一段","MAREA":" ","LANE":"４８２巷","ALLEY":" ","HOUSE_NO":"３３號","E_COORD97":167859.73000000001,"N_COORD97":2542650.7000000002,"ADDRESS":"西門路一段４８２巷３３號","OBJECTID":446984},"geometry":{"x":167859.73000000231,"y":2542650.6999999993}},{"attributes":{"ID":447010,"DIS_CODE":0,"TOWNNAME":"中西區","LI":"仙草里","LIN":"5鄰","STREET":"西門路","SECT":"一段","MAREA":" ","LANE":"４８２巷","ALLEY":" ","HOUSE_NO":"３５號","E_COORD97":167866.47,"N_COORD97":2542646.1499999999,"ADDRESS":"西門路一段４８２巷３５號","OBJECTID":446985},"geometry":{"x":167866.47000000067,"y":2542646.1500000004}},{"attributes":{"ID":447011,"DIS_CODE":0,"TOWNNAME":"南區","LI":"廣州里","LIN":"5鄰","STREET":"大德街","SECT":" ","MAREA":" ","LANE":"１６０巷","ALLEY":" ","HOUSE_NO":"２號","E_COORD97":167528.76000000001,"N_COORD97":2543047.2000000002,"ADDRESS":"大德街１６０巷２號","OBJECTID":446986},"geometry":{"x":167528.76000000071,"y":2543047.2000000011}},{"attributes":{"ID":447012,"DIS_CODE":0,"TOWNNAME":"中西區","LI":"仙草里","LIN":"5鄰","STREET":"西門路","SECT":"一段","MAREA":" ","LANE":"４８２巷","ALLEY":" ","HOUSE_NO":"３７號","E_COORD97":167869.04000000001,"N_COORD97":2542642.1899999999,"ADDRESS":"西門路一段４８２巷３７號","OBJECTID":446987},"geometry":{"x":167869.0400000019,"y":2542642.1899999995}},{"attributes":{"ID":447013,"DIS_CODE":0,"TOWNNAME":"中西區","LI":"仙草里","LIN":"5鄰","STREET":"西門路","SECT":"一段","MAREA":" ","LANE":"４８２巷","ALLEY":" ","HOUSE_NO":"３９號","E_COORD97":167871.22,"N_COORD97":2542638.0299999998,"ADDRESS":"西門路一段４８２巷３９號","OBJECTID":446988},"geometry":{"x":167871.22000000067,"y":2542638.0300000012}},{"attributes":{"ID":447014,"DIS_CODE":0,"TOWNNAME":"中西區","LI":"大南里","LIN":"5鄰","STREET":"健康路","SECT":"一段","MAREA":" ","LANE":"３２８巷","ALLEY":" ","HOUSE_NO":"１８號","E_COORD97":168240.79999999999,"N_COORD97":2542551.29,"ADDRESS":"健康路一段３２８巷１８號","OBJECTID":446989},"geometry":{"x":168240.79999999981,"y":2542551.290000001}},{"attributes":{"ID":447015,"DIS_CODE":0,"TOWNNAME":"南區","LI":"喜北里","LIN":"5鄰","STREET":"喜樹路","SECT":" ","MAREA":" ","LANE":"７４巷","ALLEY":" ","HOUSE_NO":"９號","E_COORD97":165828.20000000001,"N_COORD97":2538469.48,"ADDRESS":"喜樹路７４巷９號","OBJECTID":446990},"geometry":{"x":165828.20000000019,"y":2538469.4800000023}},{"attributes":{"ID":447016,"DIS_CODE":0,"TOWNNAME":"中西區","LI":"大南里","LIN":"5鄰","STREET":"健康路","SECT":"一段","MAREA":" ","LANE":"３１０巷","ALLEY":" ","HOUSE_NO":"１１號","E_COORD97":168258.41,"N_COORD97":2542540.3799999999,"ADDRESS":"健康路一段３１０巷１１號","OBJECTID":446991},"geometry":{"x":168258.41000000108,"y":2542540.3800000008}},{"attributes":{"ID":447017,"DIS_CODE":0,"TOWNNAME":"中西區","LI":"大南里","LIN":"5鄰","STREET":"健康路","SECT":"一段","MAREA":" ","LANE":"３１０巷","ALLEY":" ","HOUSE_NO":"１３號","E_COORD97":168246.09,"N_COORD97":2542540.3799999999,"ADDRESS":"健康路一段３１０巷１３號","OBJECTID":446992},"geometry":{"x":168246.08999999985,"y":2542540.3800000008}},{"attributes":{"ID":447018,"DIS_CODE":0,"TOWNNAME":"中西區","LI":"大南里","LIN":"5鄰","STREET":"健康路","SECT":"一段","MAREA":" ","LANE":"３１０巷","ALLEY":" ","HOUSE_NO":"１５號","E_COORD97":168247.85000000001,"N_COORD97":2542548.8300000001,"ADDRESS":"健康路一段３１０巷１５號","OBJECTID":446993},"geometry":{"x":168247.85000000149,"y":2542548.8300000019}},{"attributes":{"ID":447019,"DIS_CODE":0,"TOWNNAME":"安南區","LI":"淵中里","LIN":"5鄰","STREET":"安中路","SECT":"四段","MAREA":" ","LANE":"９４巷","ALLEY":" ","HOUSE_NO":"４３號","E_COORD97":165239.85000000001,"N_COORD97":2550123.3900000001,"ADDRESS":"安中路四段９４巷４３號","OBJECTID":446994},"geometry":{"x":165239.84999999963,"y":2550123.3900000006}},{"attributes":{"ID":447020,"DIS_CODE":0,"TOWNNAME":"南區","LI":"國宅里","LIN":"5鄰","STREET":"金華路","SECT":"二段","MAREA":" ","LANE":"２１巷","ALLEY":" ","HOUSE_NO":"２號","E_COORD97":167043.03,"N_COORD97":2541915.9199999999,"ADDRESS":"金華路二段２１巷２號","OBJECTID":446995},"geometry":{"x":167043.03000000026,"y":2541915.9200000037}},{"attributes":{"ID":447021,"DIS_CODE":0,"TOWNNAME":"南區","LI":"國宅里","LIN":"5鄰","STREET":"金華路","SECT":"二段","MAREA":" ","LANE":"２１巷","ALLEY":" ","HOUSE_NO":"４號","E_COORD97":167030.85999999999,"N_COORD97":2541916.3799999999,"ADDRESS":"金華路二段２１巷４號","OBJECTID":446996},"geometry":{"x":167030.86000000034,"y":2541916.3800000008}},{"attributes":{"ID":447022,"DIS_CODE":0,"TOWNNAME":"南區","LI":"國宅里","LIN":"5鄰","STREET":"金華路","SECT":"二段","MAREA":" ","LANE":"２１巷","ALLEY":" ","HOUSE_NO":"６號","E_COORD97":167017.73999999999,"N_COORD97":2541917.5499999998,"ADDRESS":"金華路二段２１巷６號","OBJECTID":446997},"geometry":{"x":167017.74000000022,"y":2541917.5500000026}},{"attributes":{"ID":447023,"DIS_CODE":0,"TOWNNAME":"南區","LI":"國宅里","LIN":"5鄰","STREET":"金華路","SECT":"二段","MAREA":" ","LANE":"２１巷","ALLEY":" ","HOUSE_NO":"８號","E_COORD97":167007.44,"N_COORD97":2541918.4900000002,"ADDRESS":"金華路二段２１巷８號","OBJECTID":446998},"geometry":{"x":167007.44000000134,"y":2541918.4900000002}},{"attributes":{"ID":447024,"DIS_CODE":0,"TOWNNAME":"南區","LI":"國宅里","LIN":"5鄰","STREET":"金華路","SECT":"二段","MAREA":" ","LANE":"２１巷","ALLEY":" ","HOUSE_NO":"１０號","E_COORD97":166990.57999999999,"N_COORD97":2541916.3799999999,"ADDRESS":"金華路二段２１巷１０號","OBJECTID":446999},"geometry":{"x":166990.58000000194,"y":2541916.3800000008}},{"attributes":{"ID":447025,"DIS_CODE":0,"TOWNNAME":"南區","LI":"國宅里","LIN":"5鄰","STREET":"金華路","SECT":"二段","MAREA":" ","LANE":"２１巷","ALLEY":" ","HOUSE_NO":"１２號","E_COORD97":166984.48999999999,"N_COORD97":2541916.8500000001,"ADDRESS":"金華路二段２１巷１２號","OBJECTID":447000},"geometry":{"x":166984.48999999929,"y":2541916.8500000015}}]}