{"displayFieldName":"TOWNNAME","fieldAliases":{"ID":"ID","DIS_CODE":"DIS_CODE","TOWNNAME":"TOWNNAME","LI":"LI","LIN":"LIN","STREET":"STREET","SECT":"SECT","MAREA":"MAREA","LANE":"LANE","ALLEY":"ALLEY","HOUSE_NO":"HOUSE_NO","E_COORD97":"E_COORD97","N_COORD97":"N_COORD97","ADDRESS":"ADDRESS","OBJECTID":"OBJECTID"},"geometryType":"esriGeometryPoint","spatialReference":{"wkid":102443,"latestWkid":3826},"fields":[{"name":"ID","type":"esriFieldTypeDouble","alias":"ID"},{"name":"DIS_CODE","type":"esriFieldTypeInteger","alias":"DIS_CODE"},{"name":"TOWNNAME","type":"esriFieldTypeString","alias":"TOWNNAME","length":8},{"name":"LI","type":"esriFieldTypeString","alias":"LI","length":8},{"name":"LIN","type":"esriFieldTypeString","alias":"LIN","length":12},{"name":"STREET","type":"esriFieldTypeString","alias":"STREET","length":20},{"name":"SECT","type":"esriFieldTypeString","alias":"SECT","length":8},{"name":"MAREA","type":"esriFieldTypeString","alias":"MAREA","length":12},{"name":"LANE","type":"esriFieldTypeString","alias":"LANE","length":10},{"name":"ALLEY","type":"esriFieldTypeString","alias":"ALLEY","length":10},{"name":"HOUSE_NO","type":"esriFieldTypeString","alias":"HOUSE_NO","length":20},{"name":"E_COORD97","type":"esriFieldTypeDouble","alias":"E_COORD97"},{"name":"N_COORD97","type":"esriFieldTypeDouble","alias":"N_COORD97"},{"name":"ADDRESS","type":"esriFieldTypeString","alias":"ADDRESS","length":50},{"name":"OBJECTID","type":"esriFieldTypeOID","alias":"OBJECTID"}],"features":[{"attributes":{"ID":422826,"DIS_CODE":0,"TOWNNAME":"東區","LI":"裕農里","LIN":"26鄰","STREET":"東寧路","SECT":" ","MAREA":" ","LANE":"４２８巷","ALLEY":" ","HOUSE_NO":"１７號","E_COORD97":170974.14999999999,"N_COORD97":2543283.7200000002,"ADDRESS":"東寧路４２８巷１７號","OBJECTID":422801},"geometry":{"x":170974.15000000224,"y":2543283.7200000007}},{"attributes":{"ID":422827,"DIS_CODE":0,"TOWNNAME":"東區","LI":"泉南里","LIN":"33鄰","STREET":"府連路","SECT":" ","MAREA":" ","LANE":"３２６巷","ALLEY":" ","HOUSE_NO":"１１號","E_COORD97":169581.89999999999,"N_COORD97":2542761.8100000001,"ADDRESS":"府連路３２６巷１１號","OBJECTID":422802},"geometry":{"x":169581.90000000037,"y":2542761.8100000024}},{"attributes":{"ID":422828,"DIS_CODE":0,"TOWNNAME":"東區","LI":"泉南里","LIN":"33鄰","STREET":"府連路","SECT":" ","MAREA":" ","LANE":"３２６巷","ALLEY":" ","HOUSE_NO":"１３號","E_COORD97":169581.45999999999,"N_COORD97":2542756.3100000001,"ADDRESS":"府連路３２６巷１３號","OBJECTID":422803},"geometry":{"x":169581.45999999903,"y":2542756.3100000024}},{"attributes":{"ID":422829,"DIS_CODE":0,"TOWNNAME":"安南區","LI":"國安里","LIN":"4鄰","STREET":"國安街","SECT":" ","MAREA":" ","LANE":"１５６巷","ALLEY":" ","HOUSE_NO":"１６９號","E_COORD97":166637.26000000001,"N_COORD97":2547414.9100000001,"ADDRESS":"國安街１５６巷１６９號","OBJECTID":422804},"geometry":{"x":166637.26000000071,"y":2547414.9100000001}},{"attributes":{"ID":422830,"DIS_CODE":0,"TOWNNAME":"安南區","LI":"淵西里","LIN":"15鄰","STREET":"本原街","SECT":"三段","MAREA":" ","LANE":"２３４巷","ALLEY":" ","HOUSE_NO":"１０１號","E_COORD97":165255.39999999999,"N_COORD97":2550502.8700000001,"ADDRESS":"本原街三段２３４巷１０１號","OBJECTID":422805},"geometry":{"x":165255.4000000013,"y":2550502.8700000029}},{"attributes":{"ID":422831,"DIS_CODE":0,"TOWNNAME":"安南區","LI":"淵西里","LIN":"15鄰","STREET":"本原街","SECT":"三段","MAREA":" ","LANE":"２３４巷","ALLEY":" ","HOUSE_NO":"１２９號","E_COORD97":165192.17999999999,"N_COORD97":2550635.52,"ADDRESS":"本原街三段２３４巷１２９號","OBJECTID":422806},"geometry":{"x":165192.1799999997,"y":2550635.5200000014}},{"attributes":{"ID":422832,"DIS_CODE":0,"TOWNNAME":"安南區","LI":"淵西里","LIN":"15鄰","STREET":"本原街","SECT":"三段","MAREA":" ","LANE":"２３４巷","ALLEY":" ","HOUSE_NO":"１３１號","E_COORD97":165189.01000000001,"N_COORD97":2550640.2599999998,"ADDRESS":"本原街三段２３４巷１３１號","OBJECTID":422807},"geometry":{"x":165189.01000000071,"y":2550640.2600000035}},{"attributes":{"ID":422833,"DIS_CODE":0,"TOWNNAME":"安南區","LI":"淵西里","LIN":"15鄰","STREET":"本原街","SECT":"三段","MAREA":" ","LANE":"２３４巷","ALLEY":" ","HOUSE_NO":"１３３號","E_COORD97":165185.62,"N_COORD97":2550645.2200000002,"ADDRESS":"本原街三段２３４巷１３３號","OBJECTID":422808},"geometry":{"x":165185.62000000104,"y":2550645.2200000025}},{"attributes":{"ID":422834,"DIS_CODE":0,"TOWNNAME":"安南區","LI":"淵西里","LIN":"15鄰","STREET":"本原街","SECT":"三段","MAREA":" ","LANE":"２３４巷","ALLEY":" ","HOUSE_NO":"１３５號","E_COORD97":165182.23000000001,"N_COORD97":2550649.7400000002,"ADDRESS":"本原街三段２３４巷１３５號","OBJECTID":422809},"geometry":{"x":165182.23000000045,"y":2550649.7400000002}},{"attributes":{"ID":422835,"DIS_CODE":0,"TOWNNAME":"安南區","LI":"淵西里","LIN":"15鄰","STREET":"本原街","SECT":"三段","MAREA":" ","LANE":"２３４巷","ALLEY":" ","HOUSE_NO":"１３７號","E_COORD97":165178.84,"N_COORD97":2550654.0299999998,"ADDRESS":"本原街三段２３４巷１３７號","OBJECTID":422810},"geometry":{"x":165178.84000000078,"y":2550654.0299999993}},{"attributes":{"ID":422836,"DIS_CODE":0,"TOWNNAME":"安南區","LI":"淵西里","LIN":"14鄰","STREET":"安中路","SECT":"四段","MAREA":" ","LANE":"３８１巷","ALLEY":" ","HOUSE_NO":"１２９號之１０","E_COORD97":163742.26000000001,"N_COORD97":2550108.6699999999,"ADDRESS":"安中路四段３８１巷１２９號之１０","OBJECTID":422811},"geometry":{"x":163742.25999999978,"y":2550108.6700000037}},{"attributes":{"ID":422837,"DIS_CODE":0,"TOWNNAME":"新市區","LI":"港墘里","LIN":"4鄰","STREET":"三民街","SECT":" ","MAREA":" ","LANE":"１１２巷","ALLEY":" ","HOUSE_NO":"１６號","E_COORD97":178349.60999999999,"N_COORD97":2553540.3700000001,"ADDRESS":"三民街１１２巷１６號","OBJECTID":422812},"geometry":{"x":178349.61000000034,"y":2553540.3700000029}},{"attributes":{"ID":422838,"DIS_CODE":0,"TOWNNAME":"麻豆區","LI":"中興里","LIN":"13鄰","STREET":"三民路","SECT":" ","MAREA":" ","LANE":"２０巷","ALLEY":" ","HOUSE_NO":"２號","E_COORD97":172708.60000000001,"N_COORD97":2564680.4100000001,"ADDRESS":"三民路２０巷２號","OBJECTID":422813},"geometry":{"x":172708.60000000056,"y":2564680.410000002}},{"attributes":{"ID":422839,"DIS_CODE":0,"TOWNNAME":"麻豆區","LI":"油車里","LIN":"4鄰","STREET":"大同街","SECT":" ","MAREA":" ","LANE":"７巷","ALLEY":" ","HOUSE_NO":"４號","E_COORD97":172749.95000000001,"N_COORD97":2565224.4700000002,"ADDRESS":"大同街７巷４號","OBJECTID":422814},"geometry":{"x":172749.95000000019,"y":2565224.4700000007}},{"attributes":{"ID":422840,"DIS_CODE":0,"TOWNNAME":"麻豆區","LI":"油車里","LIN":"4鄰","STREET":"大同街","SECT":" ","MAREA":" ","LANE":"７巷","ALLEY":" ","HOUSE_NO":"６號","E_COORD97":172722.76999999999,"N_COORD97":2565264.0499999998,"ADDRESS":"大同街７巷６號","OBJECTID":422815},"geometry":{"x":172722.76999999955,"y":2565264.0500000007}},{"attributes":{"ID":422841,"DIS_CODE":0,"TOWNNAME":"安南區","LI":"溪頂里","LIN":"6鄰","STREET":"府安路","SECT":"四段","MAREA":" ","LANE":"１６２巷","ALLEY":" ","HOUSE_NO":"１０號","E_COORD97":168799.73000000001,"N_COORD97":2547289,"ADDRESS":"府安路四段１６２巷１０號","OBJECTID":422816},"geometry":{"x":168799.73000000045,"y":2547288.9999999981}},{"attributes":{"ID":422842,"DIS_CODE":0,"TOWNNAME":"安南區","LI":"溪頂里","LIN":"6鄰","STREET":"府安路","SECT":"四段","MAREA":" ","LANE":"１６２巷","ALLEY":" ","HOUSE_NO":"１１號","E_COORD97":168776.54000000001,"N_COORD97":2547293.1699999999,"ADDRESS":"府安路四段１６２巷１１號","OBJECTID":422817},"geometry":{"x":168776.54000000097,"y":2547293.1699999999}},{"attributes":{"ID":422843,"DIS_CODE":0,"TOWNNAME":"安南區","LI":"溪頂里","LIN":"6鄰","STREET":"府安路","SECT":"四段","MAREA":" ","LANE":"１６２巷","ALLEY":" ","HOUSE_NO":"１２號","E_COORD97":168798.89000000001,"N_COORD97":2547295.4100000001,"ADDRESS":"府安路四段１６２巷１２號","OBJECTID":422818},"geometry":{"x":168798.8900000006,"y":2547295.4100000001}},{"attributes":{"ID":422844,"DIS_CODE":0,"TOWNNAME":"安南區","LI":"溪頂里","LIN":"6鄰","STREET":"府安路","SECT":"四段","MAREA":" ","LANE":"１６２巷","ALLEY":" ","HOUSE_NO":"１３號","E_COORD97":168776.26999999999,"N_COORD97":2547299.1699999999,"ADDRESS":"府安路四段１６２巷１３號","OBJECTID":422819},"geometry":{"x":168776.27000000048,"y":2547299.1700000018}},{"attributes":{"ID":422845,"DIS_CODE":0,"TOWNNAME":"安南區","LI":"溪頂里","LIN":"6鄰","STREET":"府安路","SECT":"四段","MAREA":" ","LANE":"１６２巷","ALLEY":" ","HOUSE_NO":"１４號","E_COORD97":168797.63,"N_COORD97":2547301.6899999999,"ADDRESS":"府安路四段１６２巷１４號","OBJECTID":422820},"geometry":{"x":168797.63000000082,"y":2547301.6900000013}},{"attributes":{"ID":422846,"DIS_CODE":0,"TOWNNAME":"安南區","LI":"溪頂里","LIN":"6鄰","STREET":"府安路","SECT":"四段","MAREA":" ","LANE":"１６２巷","ALLEY":" ","HOUSE_NO":"１５號","E_COORD97":168775.14999999999,"N_COORD97":2547305.02,"ADDRESS":"府安路四段１６２巷１５號","OBJECTID":422821},"geometry":{"x":168775.15000000037,"y":2547305.0199999996}},{"attributes":{"ID":422847,"DIS_CODE":0,"TOWNNAME":"安南區","LI":"溪頂里","LIN":"6鄰","STREET":"府安路","SECT":"四段","MAREA":" ","LANE":"１６２巷","ALLEY":" ","HOUSE_NO":"１６號","E_COORD97":168797.07000000001,"N_COORD97":2547307.3999999999,"ADDRESS":"府安路四段１６２巷１６號","OBJECTID":422822},"geometry":{"x":168797.07000000123,"y":2547307.4000000041}},{"attributes":{"ID":422848,"DIS_CODE":0,"TOWNNAME":"安南區","LI":"溪頂里","LIN":"6鄰","STREET":"府安路","SECT":"四段","MAREA":" ","LANE":"１６２巷","ALLEY":" ","HOUSE_NO":"１８號","E_COORD97":168796.79999999999,"N_COORD97":2547313.96,"ADDRESS":"府安路四段１６２巷１８號","OBJECTID":422823},"geometry":{"x":168796.79999999981,"y":2547313.959999999}},{"attributes":{"ID":422849,"DIS_CODE":0,"TOWNNAME":"安南區","LI":"溪頂里","LIN":"6鄰","STREET":"府安路","SECT":"四段","MAREA":" ","LANE":"１６２巷","ALLEY":" ","HOUSE_NO":"１號","E_COORD97":168780.03,"N_COORD97":2547261.7999999998,"ADDRESS":"府安路四段１６２巷１號","OBJECTID":422824},"geometry":{"x":168780.03000000119,"y":2547261.8000000026}},{"attributes":{"ID":422850,"DIS_CODE":0,"TOWNNAME":"安南區","LI":"溪頂里","LIN":"6鄰","STREET":"府安路","SECT":"四段","MAREA":" ","LANE":"１６２巷","ALLEY":" ","HOUSE_NO":"２號","E_COORD97":168801.26000000001,"N_COORD97":2547264.04,"ADDRESS":"府安路四段１６２巷２號","OBJECTID":422825},"geometry":{"x":168801.26000000164,"y":2547264.0399999972}},{"attributes":{"ID":422851,"DIS_CODE":0,"TOWNNAME":"善化區","LI":"光文里","LIN":"22鄰","STREET":"光華路","SECT":" ","MAREA":" ","LANE":"９２巷","ALLEY":" ","HOUSE_NO":"６號","E_COORD97":178663.34,"N_COORD97":2559421.5,"ADDRESS":"光華路９２巷６號","OBJECTID":422826},"geometry":{"x":178663.34000000171,"y":2559421.5000000019}},{"attributes":{"ID":422852,"DIS_CODE":0,"TOWNNAME":"安南區","LI":"海佃里","LIN":"4鄰","STREET":"國安街","SECT":" ","MAREA":" ","LANE":"１４０巷","ALLEY":" ","HOUSE_NO":"１０號","E_COORD97":166786.23000000001,"N_COORD97":2547024.5800000001,"ADDRESS":"國安街１４０巷１０號","OBJECTID":422827},"geometry":{"x":166786.23000000045,"y":2547024.5800000019}},{"attributes":{"ID":422853,"DIS_CODE":0,"TOWNNAME":"安南區","LI":"海佃里","LIN":"4鄰","STREET":"國安街","SECT":" ","MAREA":" ","LANE":"１４０巷","ALLEY":" ","HOUSE_NO":"１１號","E_COORD97":166763.62,"N_COORD97":2547030.5600000001,"ADDRESS":"國安街１４０巷１１號","OBJECTID":422828},"geometry":{"x":166763.62000000104,"y":2547030.5600000005}},{"attributes":{"ID":422854,"DIS_CODE":0,"TOWNNAME":"安南區","LI":"海佃里","LIN":"4鄰","STREET":"國安街","SECT":" ","MAREA":" ","LANE":"１４０巷","ALLEY":" ","HOUSE_NO":"１２號","E_COORD97":166783.57000000001,"N_COORD97":2547033.2200000002,"ADDRESS":"國安街１４０巷１２號","OBJECTID":422829},"geometry":{"x":166783.5700000003,"y":2547033.2200000007}},{"attributes":{"ID":422855,"DIS_CODE":0,"TOWNNAME":"安南區","LI":"海佃里","LIN":"4鄰","STREET":"國安街","SECT":" ","MAREA":" ","LANE":"１４０巷","ALLEY":" ","HOUSE_NO":"１３號","E_COORD97":166762.95000000001,"N_COORD97":2547036.54,"ADDRESS":"國安街１４０巷１３號","OBJECTID":422830},"geometry":{"x":166762.95000000112,"y":2547036.5399999991}},{"attributes":{"ID":422856,"DIS_CODE":0,"TOWNNAME":"安南區","LI":"海佃里","LIN":"4鄰","STREET":"國安街","SECT":" ","MAREA":" ","LANE":"１４０巷","ALLEY":" ","HOUSE_NO":"１４號","E_COORD97":166784.23000000001,"N_COORD97":2547039.8599999999,"ADDRESS":"國安街１４０巷１４號","OBJECTID":422831},"geometry":{"x":166784.23000000045,"y":2547039.8600000013}},{"attributes":{"ID":422857,"DIS_CODE":0,"TOWNNAME":"安南區","LI":"海佃里","LIN":"4鄰","STREET":"國安街","SECT":" ","MAREA":" ","LANE":"１４０巷","ALLEY":" ","HOUSE_NO":"１５號","E_COORD97":166762.29000000001,"N_COORD97":2547042.52,"ADDRESS":"國安街１４０巷１５號","OBJECTID":422832},"geometry":{"x":166762.29000000097,"y":2547042.5200000014}},{"attributes":{"ID":422858,"DIS_CODE":0,"TOWNNAME":"安南區","LI":"海佃里","LIN":"4鄰","STREET":"國安街","SECT":" ","MAREA":" ","LANE":"１４０巷","ALLEY":" ","HOUSE_NO":"１６號","E_COORD97":166783.57000000001,"N_COORD97":2547046.5099999998,"ADDRESS":"國安街１４０巷１６號","OBJECTID":422833},"geometry":{"x":166783.5700000003,"y":2547046.5099999998}},{"attributes":{"ID":422859,"DIS_CODE":0,"TOWNNAME":"北區","LI":"五福里","LIN":"13鄰","STREET":"成功路","SECT":" ","MAREA":" ","LANE":" ","ALLEY":" ","HOUSE_NO":"２９２號","E_COORD97":168160.75,"N_COORD97":2544470.0699999998,"ADDRESS":"成功路２９２號","OBJECTID":422834},"geometry":{"x":168160.75000000186,"y":2544470.0700000003}},{"attributes":{"ID":422860,"DIS_CODE":0,"TOWNNAME":"安南區","LI":"海佃里","LIN":"4鄰","STREET":"國安街","SECT":" ","MAREA":" ","LANE":"１４０巷","ALLEY":" ","HOUSE_NO":"１７號","E_COORD97":166760.29000000001,"N_COORD97":2547047.8300000001,"ADDRESS":"國安街１４０巷１７號","OBJECTID":422835},"geometry":{"x":166760.2900000019,"y":2547047.8300000019}},{"attributes":{"ID":422861,"DIS_CODE":0,"TOWNNAME":"安南區","LI":"海佃里","LIN":"4鄰","STREET":"國安街","SECT":" ","MAREA":" ","LANE":"１４０巷","ALLEY":" ","HOUSE_NO":"１８號","E_COORD97":166782.89999999999,"N_COORD97":2547051.8199999998,"ADDRESS":"國安街１４０巷１８號","OBJECTID":422836},"geometry":{"x":166782.90000000037,"y":2547051.8200000003}},{"attributes":{"ID":422862,"DIS_CODE":0,"TOWNNAME":"安南區","LI":"海佃里","LIN":"4鄰","STREET":"國安街","SECT":" ","MAREA":" ","LANE":"１４０巷","ALLEY":" ","HOUSE_NO":"１９號","E_COORD97":166760.29000000001,"N_COORD97":2547054.48,"ADDRESS":"國安街１４０巷１９號","OBJECTID":422837},"geometry":{"x":166760.2900000019,"y":2547054.4800000004}},{"attributes":{"ID":422863,"DIS_CODE":0,"TOWNNAME":"安南區","LI":"海佃里","LIN":"4鄰","STREET":"國安街","SECT":" ","MAREA":" ","LANE":"１４０巷","ALLEY":" ","HOUSE_NO":"２０號","E_COORD97":166780.91,"N_COORD97":2547058.46,"ADDRESS":"國安街１４０巷２０號","OBJECTID":422838},"geometry":{"x":166780.91000000015,"y":2547058.4600000009}},{"attributes":{"ID":422864,"DIS_CODE":0,"TOWNNAME":"安南區","LI":"海佃里","LIN":"4鄰","STREET":"國安街","SECT":" ","MAREA":" ","LANE":"１４０巷","ALLEY":" ","HOUSE_NO":"２１號","E_COORD97":166758.95999999999,"N_COORD97":2547059.79,"ADDRESS":"國安街１４０巷２１號","OBJECTID":422839},"geometry":{"x":166758.95999999903,"y":2547059.790000001}},{"attributes":{"ID":422865,"DIS_CODE":0,"TOWNNAME":"安南區","LI":"海佃里","LIN":"4鄰","STREET":"國安街","SECT":" ","MAREA":" ","LANE":"１４０巷","ALLEY":" ","HOUSE_NO":"２３號","E_COORD97":166756.29999999999,"N_COORD97":2547065.77,"ADDRESS":"國安街１４０巷２３號","OBJECTID":422840},"geometry":{"x":166756.29999999981,"y":2547065.7699999996}},{"attributes":{"ID":422866,"DIS_CODE":0,"TOWNNAME":"安南區","LI":"海佃里","LIN":"4鄰","STREET":"國安街","SECT":" ","MAREA":" ","LANE":"１４０巷","ALLEY":" ","HOUSE_NO":"２４號","E_COORD97":166779.57999999999,"N_COORD97":2547070.4199999999,"ADDRESS":"國安街１４０巷２４號","OBJECTID":422841},"geometry":{"x":166779.58000000007,"y":2547070.4200000018}},{"attributes":{"ID":422867,"DIS_CODE":0,"TOWNNAME":"安南區","LI":"海佃里","LIN":"4鄰","STREET":"國安街","SECT":" ","MAREA":" ","LANE":"１４０巷","ALLEY":" ","HOUSE_NO":"２５號","E_COORD97":166754.97,"N_COORD97":2547073.0800000001,"ADDRESS":"國安街１４０巷２５號","OBJECTID":422842},"geometry":{"x":166754.96999999974,"y":2547073.0800000019}},{"attributes":{"ID":422868,"DIS_CODE":0,"TOWNNAME":"安南區","LI":"海佃里","LIN":"4鄰","STREET":"國安街","SECT":" ","MAREA":" ","LANE":"１４０巷","ALLEY":" ","HOUSE_NO":"２６號","E_COORD97":166776.92000000001,"N_COORD97":2547076.3999999999,"ADDRESS":"國安街１４０巷２６號","OBJECTID":422843},"geometry":{"x":166776.92000000086,"y":2547076.3999999985}},{"attributes":{"ID":422869,"DIS_CODE":0,"TOWNNAME":"安南區","LI":"海佃里","LIN":"4鄰","STREET":"國安街","SECT":" ","MAREA":" ","LANE":"１４０巷","ALLEY":" ","HOUSE_NO":"２７號","E_COORD97":166754.31,"N_COORD97":2547078.3900000001,"ADDRESS":"國安街１４０巷２７號","OBJECTID":422844},"geometry":{"x":166754.30999999959,"y":2547078.3900000025}},{"attributes":{"ID":422870,"DIS_CODE":0,"TOWNNAME":"安南區","LI":"海佃里","LIN":"4鄰","STREET":"國安街","SECT":" ","MAREA":" ","LANE":"１４０巷","ALLEY":" ","HOUSE_NO":"２８號","E_COORD97":166776.92000000001,"N_COORD97":2547082.3799999999,"ADDRESS":"國安街１４０巷２８號","OBJECTID":422845},"geometry":{"x":166776.92000000086,"y":2547082.3800000008}},{"attributes":{"ID":422871,"DIS_CODE":0,"TOWNNAME":"安南區","LI":"海佃里","LIN":"4鄰","STREET":"國安街","SECT":" ","MAREA":" ","LANE":"１４０巷","ALLEY":" ","HOUSE_NO":"２號","E_COORD97":166792.20999999999,"N_COORD97":2547000.0099999998,"ADDRESS":"國安街１４０巷２號","OBJECTID":422846},"geometry":{"x":166792.20999999996,"y":2547000.0099999998}},{"attributes":{"ID":422872,"DIS_CODE":0,"TOWNNAME":"善化區","LI":"文昌里","LIN":"20鄰","STREET":"中正路","SECT":" ","MAREA":" ","LANE":"２１２巷","ALLEY":" ","HOUSE_NO":"３６號","E_COORD97":177791.39000000001,"N_COORD97":2558271.5,"ADDRESS":"中正路２１２巷３６號","OBJECTID":422847},"geometry":{"x":177791.38999999873,"y":2558271.5000000019}},{"attributes":{"ID":422873,"DIS_CODE":0,"TOWNNAME":"善化區","LI":"光文里","LIN":"26鄰","STREET":"中山路","SECT":" ","MAREA":" ","LANE":"２４０巷","ALLEY":" ","HOUSE_NO":"１號之２７","E_COORD97":178109.23000000001,"N_COORD97":2559240.27,"ADDRESS":"中山路２４０巷１號之２７","OBJECTID":422848},"geometry":{"x":178109.23000000138,"y":2559240.2699999996}},{"attributes":{"ID":422874,"DIS_CODE":0,"TOWNNAME":"善化區","LI":"光文里","LIN":"18鄰","STREET":"和平路","SECT":" ","MAREA":" ","LANE":"１３６巷","ALLEY":" ","HOUSE_NO":"３號","E_COORD97":178150.73000000001,"N_COORD97":2558953.25,"ADDRESS":"和平路１３６巷３號","OBJECTID":422849},"geometry":{"x":178150.73000000045,"y":2558953.25}},{"attributes":{"ID":422875,"DIS_CODE":0,"TOWNNAME":"善化區","LI":"光文里","LIN":"20鄰","STREET":"民權路","SECT":" ","MAREA":" ","LANE":"２４５巷","ALLEY":" ","HOUSE_NO":"９號","E_COORD97":178089.62,"N_COORD97":2558950.0099999998,"ADDRESS":"民權路２４５巷９號","OBJECTID":422850},"geometry":{"x":178089.62000000104,"y":2558950.0100000016}},{"attributes":{"ID":422876,"DIS_CODE":0,"TOWNNAME":"善化區","LI":"光文里","LIN":"26鄰","STREET":"中山路","SECT":" ","MAREA":" ","LANE":"２４０巷","ALLEY":" ","HOUSE_NO":"１號之３１","E_COORD97":178126.72,"N_COORD97":2559242.77,"ADDRESS":"中山路２４０巷１號之３１","OBJECTID":422851},"geometry":{"x":178126.7200000016,"y":2559242.7700000014}},{"attributes":{"ID":422877,"DIS_CODE":0,"TOWNNAME":"善化區","LI":"光文里","LIN":"26鄰","STREET":"中山路","SECT":" ","MAREA":" ","LANE":"２４０巷","ALLEY":" ","HOUSE_NO":"１號之３４","E_COORD97":178140,"N_COORD97":2559245.02,"ADDRESS":"中山路２４０巷１號之３４","OBJECTID":422852},"geometry":{"x":178140,"y":2559245.0199999996}},{"attributes":{"ID":422878,"DIS_CODE":0,"TOWNNAME":"善化區","LI":"西關里","LIN":"4鄰","STREET":"中華路","SECT":" ","MAREA":" ","LANE":"１５７巷","ALLEY":" ","HOUSE_NO":"１６號","E_COORD97":177156.48000000001,"N_COORD97":2559102.75,"ADDRESS":"中華路１５７巷１６號","OBJECTID":422853},"geometry":{"x":177156.48000000138,"y":2559102.7499999981}},{"attributes":{"ID":422879,"DIS_CODE":0,"TOWNNAME":"善化區","LI":"光文里","LIN":"26鄰","STREET":"中山路","SECT":" ","MAREA":" ","LANE":"２４０巷","ALLEY":" ","HOUSE_NO":"１號之３８","E_COORD97":178157.12,"N_COORD97":2559247.27,"ADDRESS":"中山路２４０巷１號之３８","OBJECTID":422854},"geometry":{"x":178157.12000000104,"y":2559247.2699999996}},{"attributes":{"ID":422880,"DIS_CODE":0,"TOWNNAME":"善化區","LI":"光文里","LIN":"26鄰","STREET":"中山路","SECT":" ","MAREA":" ","LANE":"２４０巷","ALLEY":" ","HOUSE_NO":"１號之３０","E_COORD97":178122.31,"N_COORD97":2559242.02,"ADDRESS":"中山路２４０巷１號之３０","OBJECTID":422855},"geometry":{"x":178122.30999999959,"y":2559242.0199999996}},{"attributes":{"ID":422881,"DIS_CODE":0,"TOWNNAME":"善化區","LI":"光文里","LIN":"20鄰","STREET":"大成路","SECT":" ","MAREA":" ","LANE":"３１６巷","ALLEY":" ","HOUSE_NO":"６號","E_COORD97":178070.42000000001,"N_COORD97":2558868.75,"ADDRESS":"大成路３１６巷６號","OBJECTID":422856},"geometry":{"x":178070.42000000086,"y":2558868.7499999981}},{"attributes":{"ID":422882,"DIS_CODE":0,"TOWNNAME":"善化區","LI":"光文里","LIN":"26鄰","STREET":"中山路","SECT":" ","MAREA":" ","LANE":"２４０巷","ALLEY":" ","HOUSE_NO":"１號之６０","E_COORD97":178159.89000000001,"N_COORD97":2559262.02,"ADDRESS":"中山路２４０巷１號之６０","OBJECTID":422857},"geometry":{"x":178159.8900000006,"y":2559262.0199999996}},{"attributes":{"ID":422883,"DIS_CODE":0,"TOWNNAME":"善化區","LI":"坐駕里","LIN":"14鄰","STREET":"大成路","SECT":" ","MAREA":" ","LANE":"３６７巷","ALLEY":" ","HOUSE_NO":"４３號","E_COORD97":178260.5,"N_COORD97":2558633.25,"ADDRESS":"大成路３６７巷４３號","OBJECTID":422858},"geometry":{"x":178260.5,"y":2558633.2500000019}},{"attributes":{"ID":422884,"DIS_CODE":0,"TOWNNAME":"善化區","LI":"坐駕里","LIN":"17鄰","STREET":"文化路","SECT":" ","MAREA":" ","LANE":"８２巷","ALLEY":" ","HOUSE_NO":"１０號","E_COORD97":177948.20000000001,"N_COORD97":2558430.2799999998,"ADDRESS":"文化路８２巷１０號","OBJECTID":422859},"geometry":{"x":177948.20000000112,"y":2558430.2799999993}},{"attributes":{"ID":422885,"DIS_CODE":0,"TOWNNAME":"善化區","LI":"西關里","LIN":"4鄰","STREET":"中華路","SECT":" ","MAREA":" ","LANE":"１５７巷","ALLEY":" ","HOUSE_NO":"２２號","E_COORD97":177150.73999999999,"N_COORD97":2559083.25,"ADDRESS":"中華路１５７巷２２號","OBJECTID":422860},"geometry":{"x":177150.74000000209,"y":2559083.2500000019}},{"attributes":{"ID":422886,"DIS_CODE":0,"TOWNNAME":"善化區","LI":"西關里","LIN":"4鄰","STREET":"中華路","SECT":" ","MAREA":" ","LANE":"１５７巷","ALLEY":" ","HOUSE_NO":"１４號","E_COORD97":177160.48000000001,"N_COORD97":2559098.25,"ADDRESS":"中華路１５７巷１４號","OBJECTID":422861},"geometry":{"x":177160.48000000045,"y":2559098.25}},{"attributes":{"ID":422887,"DIS_CODE":0,"TOWNNAME":"善化區","LI":"光文里","LIN":"26鄰","STREET":"中山路","SECT":" ","MAREA":" ","LANE":"２４０巷","ALLEY":" ","HOUSE_NO":"１號之２８","E_COORD97":178113.88,"N_COORD97":2559240.77,"ADDRESS":"中山路２４０巷１號之２８","OBJECTID":422862},"geometry":{"x":178113.88000000175,"y":2559240.7699999996}},{"attributes":{"ID":422888,"DIS_CODE":0,"TOWNNAME":"善化區","LI":"坐駕里","LIN":"13鄰","STREET":"大成路","SECT":" ","MAREA":" ","LANE":"３６７巷","ALLEY":" ","HOUSE_NO":"２７號","E_COORD97":178110.14999999999,"N_COORD97":2558678.7400000002,"ADDRESS":"大成路３６７巷２７號","OBJECTID":422863},"geometry":{"x":178110.15000000037,"y":2558678.7400000002}},{"attributes":{"ID":422889,"DIS_CODE":0,"TOWNNAME":"善化區","LI":"光文里","LIN":"26鄰","STREET":"中山路","SECT":" ","MAREA":" ","LANE":"２４０巷","ALLEY":" ","HOUSE_NO":"１號之２６","E_COORD97":178093.78,"N_COORD97":2559239.52,"ADDRESS":"中山路２４０巷１號之２６","OBJECTID":422864},"geometry":{"x":178093.78000000119,"y":2559239.5199999977}},{"attributes":{"ID":422890,"DIS_CODE":0,"TOWNNAME":"善化區","LI":"光文里","LIN":"26鄰","STREET":"中山路","SECT":" ","MAREA":" ","LANE":"２４０巷","ALLEY":" ","HOUSE_NO":"１號之４３","E_COORD97":178180.84,"N_COORD97":2559250.27,"ADDRESS":"中山路２４０巷１號之４３","OBJECTID":422865},"geometry":{"x":178180.84000000078,"y":2559250.2699999996}},{"attributes":{"ID":422891,"DIS_CODE":0,"TOWNNAME":"善化區","LI":"光文里","LIN":"26鄰","STREET":"中山路","SECT":" ","MAREA":" ","LANE":"２４０巷","ALLEY":" ","HOUSE_NO":"１號之５９","E_COORD97":178155.54999999999,"N_COORD97":2559261.02,"ADDRESS":"中山路２４０巷１號之５９","OBJECTID":422866},"geometry":{"x":178155.55000000075,"y":2559261.0200000014}},{"attributes":{"ID":422892,"DIS_CODE":0,"TOWNNAME":"善化區","LI":"坐駕里","LIN":"14鄰","STREET":"大成路","SECT":" ","MAREA":" ","LANE":"３６７巷","ALLEY":" ","HOUSE_NO":"５０號","E_COORD97":178273.64000000001,"N_COORD97":2558627.75,"ADDRESS":"大成路３６７巷５０號","OBJECTID":422867},"geometry":{"x":178273.6400000006,"y":2558627.75}},{"attributes":{"ID":422893,"DIS_CODE":0,"TOWNNAME":"善化區","LI":"光文里","LIN":"14鄰","STREET":"民生路","SECT":" ","MAREA":" ","LANE":"１８３巷","ALLEY":" ","HOUSE_NO":"７號","E_COORD97":178456.23999999999,"N_COORD97":2558915.0099999998,"ADDRESS":"民生路１８３巷７號","OBJECTID":422868},"geometry":{"x":178456.24000000115,"y":2558915.0100000016}},{"attributes":{"ID":422894,"DIS_CODE":0,"TOWNNAME":"善化區","LI":"北關里","LIN":" ","STREET":"中山路","SECT":" ","MAREA":" ","LANE":"５２４巷","ALLEY":" ","HOUSE_NO":"１之１號","E_COORD97":177084.51000000001,"N_COORD97":2559212.52,"ADDRESS":"中山路５２４巷１之１號","OBJECTID":422869},"geometry":{"x":177084.51000000071,"y":2559212.5200000033}},{"attributes":{"ID":422895,"DIS_CODE":0,"TOWNNAME":"善化區","LI":"坐駕里","LIN":"13鄰","STREET":"大成路","SECT":" ","MAREA":" ","LANE":"３６７巷","ALLEY":" ","HOUSE_NO":"１８號","E_COORD97":178105.64999999999,"N_COORD97":2558700,"ADDRESS":"大成路３６７巷１８號","OBJECTID":422870},"geometry":{"x":178105.65000000037,"y":2558700}},{"attributes":{"ID":422896,"DIS_CODE":0,"TOWNNAME":"善化區","LI":"光文里","LIN":"20鄰","STREET":"大成路","SECT":" ","MAREA":" ","LANE":"３１６巷","ALLEY":" ","HOUSE_NO":"８號","E_COORD97":178080.76000000001,"N_COORD97":2558870.5,"ADDRESS":"大成路３１６巷８號","OBJECTID":422871},"geometry":{"x":178080.76000000164,"y":2558870.4999999981}},{"attributes":{"ID":422897,"DIS_CODE":0,"TOWNNAME":"善化區","LI":"光文里","LIN":"26鄰","STREET":"中山路","SECT":" ","MAREA":" ","LANE":"２４０巷","ALLEY":" ","HOUSE_NO":"１號之５１","E_COORD97":178125.29000000001,"N_COORD97":2559256.02,"ADDRESS":"中山路２４０巷１號之５１","OBJECTID":422872},"geometry":{"x":178125.29000000097,"y":2559256.0199999996}},{"attributes":{"ID":422898,"DIS_CODE":0,"TOWNNAME":"善化區","LI":"光文里","LIN":"20鄰","STREET":"民權路","SECT":" ","MAREA":" ","LANE":"２４５巷","ALLEY":" ","HOUSE_NO":"５號","E_COORD97":178081.32000000001,"N_COORD97":2558948.7599999998,"ADDRESS":"民權路２４５巷５號","OBJECTID":422873},"geometry":{"x":178081.32000000123,"y":2558948.7599999998}},{"attributes":{"ID":422899,"DIS_CODE":0,"TOWNNAME":"善化區","LI":"光文里","LIN":"26鄰","STREET":"中山路","SECT":" ","MAREA":" ","LANE":"２４０巷","ALLEY":" ","HOUSE_NO":"１號之２９","E_COORD97":178118.28,"N_COORD97":2559241.52,"ADDRESS":"中山路２４０巷１號之２９","OBJECTID":422874},"geometry":{"x":178118.27999999933,"y":2559241.5199999996}},{"attributes":{"ID":422900,"DIS_CODE":0,"TOWNNAME":"永康區","LI":"復華里","LIN":"24鄰","STREET":"復華八街","SECT":" ","MAREA":" ","LANE":"５６巷","ALLEY":" ","HOUSE_NO":"１２號","E_COORD97":172768.59,"N_COORD97":2546259.8999999999,"ADDRESS":"復華八街５６巷１２號","OBJECTID":422875},"geometry":{"x":172768.58999999985,"y":2546259.9000000022}},{"attributes":{"ID":422901,"DIS_CODE":0,"TOWNNAME":"善化區","LI":"光文里","LIN":"13鄰","STREET":"民權路","SECT":" ","MAREA":" ","LANE":"１１４巷","ALLEY":" ","HOUSE_NO":"４號","E_COORD97":178464.42000000001,"N_COORD97":2559077.2599999998,"ADDRESS":"民權路１１４巷４號","OBJECTID":422876},"geometry":{"x":178464.41999999993,"y":2559077.2599999998}},{"attributes":{"ID":422902,"DIS_CODE":0,"TOWNNAME":"善化區","LI":"光文里","LIN":"18鄰","STREET":"和平路","SECT":" ","MAREA":" ","LANE":"１２６巷","ALLEY":" ","HOUSE_NO":"９號","E_COORD97":178177.73000000001,"N_COORD97":2558948,"ADDRESS":"和平路１２６巷９號","OBJECTID":422877},"geometry":{"x":178177.73000000045,"y":2558948}},{"attributes":{"ID":422903,"DIS_CODE":0,"TOWNNAME":"善化區","LI":"坐駕里","LIN":"13鄰","STREET":"信義路","SECT":" ","MAREA":" ","LANE":"７１巷","ALLEY":" ","HOUSE_NO":"１６號","E_COORD97":178244.94,"N_COORD97":2558717,"ADDRESS":"信義路７１巷１６號","OBJECTID":422878},"geometry":{"x":178244.94000000134,"y":2558717}},{"attributes":{"ID":422904,"DIS_CODE":0,"TOWNNAME":"善化區","LI":"坐駕里","LIN":"13鄰","STREET":"信義路","SECT":" ","MAREA":" ","LANE":"７１巷","ALLEY":" ","HOUSE_NO":"１３號","E_COORD97":178246.95999999999,"N_COORD97":2558703.75,"ADDRESS":"信義路７１巷１３號","OBJECTID":422879},"geometry":{"x":178246.95999999996,"y":2558703.7500000019}},{"attributes":{"ID":422905,"DIS_CODE":0,"TOWNNAME":"永康區","LI":"復興里","LIN":"4鄰","STREET":"復興路","SECT":" ","MAREA":" ","LANE":"４２３巷","ALLEY":" ","HOUSE_NO":"６８號","E_COORD97":172225,"N_COORD97":2544102.52,"ADDRESS":"復興路４２３巷６８號","OBJECTID":422880},"geometry":{"x":172225,"y":2544102.5200000014}},{"attributes":{"ID":422906,"DIS_CODE":0,"TOWNNAME":"永康區","LI":"網寮里","LIN":"13鄰","STREET":"永和街","SECT":" ","MAREA":" ","LANE":"２４９巷","ALLEY":" ","HOUSE_NO":"１０號","E_COORD97":173307.67000000001,"N_COORD97":2546573.1800000002,"ADDRESS":"永和街２４９巷１０號","OBJECTID":422881},"geometry":{"x":173307.66999999993,"y":2546573.1800000016}},{"attributes":{"ID":422907,"DIS_CODE":0,"TOWNNAME":"永康區","LI":"復興里","LIN":"4鄰","STREET":"復興路","SECT":" ","MAREA":" ","LANE":"４２３巷","ALLEY":" ","HOUSE_NO":"７３號","E_COORD97":172222.64999999999,"N_COORD97":2544250.0299999998,"ADDRESS":"復興路４２３巷７３號","OBJECTID":422882},"geometry":{"x":172222.65000000037,"y":2544250.0299999993}},{"attributes":{"ID":422908,"DIS_CODE":0,"TOWNNAME":"永康區","LI":"網寮里","LIN":"5鄰","STREET":"永二街","SECT":" ","MAREA":" ","LANE":"１４５巷","ALLEY":" ","HOUSE_NO":"１０號","E_COORD97":173537.62,"N_COORD97":2546411.8399999999,"ADDRESS":"永二街１４５巷１０號","OBJECTID":422883},"geometry":{"x":173537.62000000104,"y":2546411.839999998}},{"attributes":{"ID":422909,"DIS_CODE":0,"TOWNNAME":"永康區","LI":"網寮里","LIN":"20鄰","STREET":"文化路","SECT":" ","MAREA":" ","LANE":"３２３巷","ALLEY":" ","HOUSE_NO":"１６號","E_COORD97":173387.98999999999,"N_COORD97":2546137.0800000001,"ADDRESS":"文化路３２３巷１６號","OBJECTID":422884},"geometry":{"x":173387.99000000115,"y":2546137.0800000019}},{"attributes":{"ID":422910,"DIS_CODE":0,"TOWNNAME":"永康區","LI":"復興里","LIN":"4鄰","STREET":"復興路","SECT":" ","MAREA":" ","LANE":"４２３巷","ALLEY":" ","HOUSE_NO":"６４號","E_COORD97":172222.04000000001,"N_COORD97":2544120.27,"ADDRESS":"復興路４２３巷６４號","OBJECTID":422885},"geometry":{"x":172222.04000000004,"y":2544120.2700000033}},{"attributes":{"ID":422911,"DIS_CODE":0,"TOWNNAME":"永康區","LI":"復興里","LIN":"4鄰","STREET":"復興路","SECT":" ","MAREA":" ","LANE":"４２３巷","ALLEY":" ","HOUSE_NO":"５７號","E_COORD97":172224.42000000001,"N_COORD97":2544279.0299999998,"ADDRESS":"復興路４２３巷５７號","OBJECTID":422886},"geometry":{"x":172224.41999999993,"y":2544279.0300000012}},{"attributes":{"ID":422912,"DIS_CODE":0,"TOWNNAME":"永康區","LI":"復華里","LIN":"38鄰","STREET":"復華七街","SECT":" ","MAREA":" ","LANE":"３２巷","ALLEY":" ","HOUSE_NO":"４５號","E_COORD97":172717.92999999999,"N_COORD97":2545891.2799999998,"ADDRESS":"復華七街３２巷４５號","OBJECTID":422887},"geometry":{"x":172717.93000000063,"y":2545891.2800000012}},{"attributes":{"ID":422913,"DIS_CODE":0,"TOWNNAME":"永康區","LI":"復興里","LIN":"25鄰","STREET":"復興路","SECT":" ","MAREA":" ","LANE":"４２３巷","ALLEY":" ","HOUSE_NO":"７２號","E_COORD97":172226.54000000001,"N_COORD97":2544090.27,"ADDRESS":"復興路４２３巷７２號","OBJECTID":422888},"geometry":{"x":172226.54000000004,"y":2544090.2700000014}},{"attributes":{"ID":422914,"DIS_CODE":0,"TOWNNAME":"永康區","LI":"網寮里","LIN":"25鄰","STREET":"永大一路","SECT":" ","MAREA":" ","LANE":"１６０巷","ALLEY":" ","HOUSE_NO":"５６號","E_COORD97":173834.13,"N_COORD97":2546538.7400000002,"ADDRESS":"永大一路１６０巷５６號","OBJECTID":422889},"geometry":{"x":173834.13000000082,"y":2546538.7400000039}},{"attributes":{"ID":422915,"DIS_CODE":0,"TOWNNAME":"永康區","LI":"網寮里","LIN":"25鄰","STREET":"永大一路","SECT":" ","MAREA":" ","LANE":"１６０巷","ALLEY":" ","HOUSE_NO":"７２號","E_COORD97":173818.14999999999,"N_COORD97":2546575.9900000002,"ADDRESS":"永大一路１６０巷７２號","OBJECTID":422890},"geometry":{"x":173818.15000000037,"y":2546575.9900000002}},{"attributes":{"ID":422916,"DIS_CODE":0,"TOWNNAME":"永康區","LI":"復華里","LIN":"34鄰","STREET":"復國一路","SECT":" ","MAREA":" ","LANE":"４７５巷","ALLEY":" ","HOUSE_NO":"５８號","E_COORD97":172543.28,"N_COORD97":2546000.0299999998,"ADDRESS":"復國一路４７５巷５８號","OBJECTID":422891},"geometry":{"x":172543.28000000119,"y":2546000.0300000031}},{"attributes":{"ID":422917,"DIS_CODE":0,"TOWNNAME":"永康區","LI":"復興里","LIN":"4鄰","STREET":"復興路","SECT":" ","MAREA":" ","LANE":"４２３巷","ALLEY":" ","HOUSE_NO":"５９號","E_COORD97":172223.22,"N_COORD97":2544274.0299999998,"ADDRESS":"復興路４２３巷５９號","OBJECTID":422892},"geometry":{"x":172223.21999999974,"y":2544274.0299999975}},{"attributes":{"ID":422918,"DIS_CODE":0,"TOWNNAME":"永康區","LI":"復華里","LIN":"38鄰","STREET":"復華七街","SECT":" ","MAREA":" ","LANE":"３２巷","ALLEY":" ","HOUSE_NO":"３９號","E_COORD97":172742.35999999999,"N_COORD97":2545899.2799999998,"ADDRESS":"復華七街３２巷３９號","OBJECTID":422893},"geometry":{"x":172742.3599999994,"y":2545899.2799999993}},{"attributes":{"ID":422919,"DIS_CODE":0,"TOWNNAME":"永康區","LI":"復國里","LIN":"18鄰","STREET":"復國一路","SECT":" ","MAREA":" ","LANE":"３６４巷","ALLEY":" ","HOUSE_NO":"１３號","E_COORD97":172826.29999999999,"N_COORD97":2545806.2400000002,"ADDRESS":"復國一路３６４巷１３號","OBJECTID":422894},"geometry":{"x":172826.29999999981,"y":2545806.2400000039}},{"attributes":{"ID":422920,"DIS_CODE":0,"TOWNNAME":"永康區","LI":"網寮里","LIN":"25鄰","STREET":"永大一路","SECT":" ","MAREA":" ","LANE":"１６０巷","ALLEY":" ","HOUSE_NO":"４１號","E_COORD97":173787.73000000001,"N_COORD97":2546582.2400000002,"ADDRESS":"永大一路１６０巷４１號","OBJECTID":422895},"geometry":{"x":173787.73000000231,"y":2546582.2400000002}},{"attributes":{"ID":422921,"DIS_CODE":0,"TOWNNAME":"永康區","LI":"復華里","LIN":"32鄰","STREET":"復華十街","SECT":" ","MAREA":" ","LANE":"４５巷","ALLEY":" ","HOUSE_NO":"２３號","E_COORD97":172570.67999999999,"N_COORD97":2546373.0800000001,"ADDRESS":"復華十街４５巷２３號","OBJECTID":422896},"geometry":{"x":172570.68000000063,"y":2546373.0799999982}},{"attributes":{"ID":422922,"DIS_CODE":0,"TOWNNAME":"永康區","LI":"網寮里","LIN":"25鄰","STREET":"永大一路","SECT":" ","MAREA":" ","LANE":"１６０巷","ALLEY":" ","HOUSE_NO":"７６號","E_COORD97":173819.12,"N_COORD97":2546581.9900000002,"ADDRESS":"永大一路１６０巷７６號","OBJECTID":422897},"geometry":{"x":173819.12000000104,"y":2546581.9900000021}},{"attributes":{"ID":422923,"DIS_CODE":0,"TOWNNAME":"永康區","LI":"復華里","LIN":"32鄰","STREET":"復華十街","SECT":" ","MAREA":" ","LANE":"３９巷","ALLEY":" ","HOUSE_NO":"９號","E_COORD97":172607.57000000001,"N_COORD97":2546351.5299999998,"ADDRESS":"復華十街３９巷９號","OBJECTID":422898},"geometry":{"x":172607.57000000123,"y":2546351.5299999993}},{"attributes":{"ID":422924,"DIS_CODE":0,"TOWNNAME":"永康區","LI":"勝利里","LIN":"5鄰","STREET":"勝學路","SECT":" ","MAREA":" ","LANE":"６１巷","ALLEY":" ","HOUSE_NO":"６號","E_COORD97":171125.92999999999,"N_COORD97":2544745.5,"ADDRESS":"勝學路６１巷６號","OBJECTID":422899},"geometry":{"x":171125.93000000156,"y":2544745.5}},{"attributes":{"ID":422925,"DIS_CODE":0,"TOWNNAME":"永康區","LI":"復國里","LIN":"5鄰","STREET":"復國一路","SECT":" ","MAREA":" ","LANE":"９０巷","ALLEY":" ","HOUSE_NO":"２８號","E_COORD97":172771.31,"N_COORD97":2544923.52,"ADDRESS":"復國一路９０巷２８號","OBJECTID":422900},"geometry":{"x":172771.31000000052,"y":2544923.5200000014}},{"attributes":{"ID":422926,"DIS_CODE":0,"TOWNNAME":"永康區","LI":"復國里","LIN":"18鄰","STREET":"復國一路","SECT":" ","MAREA":" ","LANE":"３６４巷","ALLEY":" ","HOUSE_NO":"１５號","E_COORD97":172831.67999999999,"N_COORD97":2545805.9900000002,"ADDRESS":"復國一路３６４巷１５號","OBJECTID":422901},"geometry":{"x":172831.68000000063,"y":2545805.9900000021}},{"attributes":{"ID":422927,"DIS_CODE":0,"TOWNNAME":"永康區","LI":"復國里","LIN":"18鄰","STREET":"復國一路","SECT":" ","MAREA":" ","LANE":"３６４巷","ALLEY":" ","HOUSE_NO":"７號","E_COORD97":172811.51000000001,"N_COORD97":2545806.7400000002,"ADDRESS":"復國一路３６４巷７號","OBJECTID":422902},"geometry":{"x":172811.50999999978,"y":2545806.7400000021}},{"attributes":{"ID":422928,"DIS_CODE":0,"TOWNNAME":"永康區","LI":"復華里","LIN":"39鄰","STREET":"復華七街","SECT":" ","MAREA":" ","LANE":"３２巷","ALLEY":" ","HOUSE_NO":"５１號","E_COORD97":172703.70999999999,"N_COORD97":2545907.5299999998,"ADDRESS":"復華七街３２巷５１號","OBJECTID":422903},"geometry":{"x":172703.70999999996,"y":2545907.5299999993}},{"attributes":{"ID":422929,"DIS_CODE":0,"TOWNNAME":"永康區","LI":"復華里","LIN":"39鄰","STREET":"復華七街","SECT":" ","MAREA":" ","LANE":"３２巷","ALLEY":" ","HOUSE_NO":"５３號","E_COORD97":172705.32000000001,"N_COORD97":2545904.0299999998,"ADDRESS":"復華七街３２巷５３號","OBJECTID":422904},"geometry":{"x":172705.31999999937,"y":2545904.0299999993}},{"attributes":{"ID":422930,"DIS_CODE":0,"TOWNNAME":"永康區","LI":"復華里","LIN":"32鄰","STREET":"復華十街","SECT":" ","MAREA":" ","LANE":"４５巷","ALLEY":" ","HOUSE_NO":"５號","E_COORD97":172611.76000000001,"N_COORD97":2546372.0800000001,"ADDRESS":"復華十街４５巷５號","OBJECTID":422905},"geometry":{"x":172611.75999999978,"y":2546372.0800000001}},{"attributes":{"ID":422931,"DIS_CODE":0,"TOWNNAME":"永康區","LI":"復國里","LIN":"18鄰","STREET":"復國一路","SECT":" ","MAREA":" ","LANE":"３６２巷","ALLEY":" ","HOUSE_NO":"１９號","E_COORD97":172829.22,"N_COORD97":2545785.7799999998,"ADDRESS":"復國一路３６２巷１９號","OBJECTID":422906},"geometry":{"x":172829.2200000016,"y":2545785.7800000012}},{"attributes":{"ID":422932,"DIS_CODE":0,"TOWNNAME":"永康區","LI":"網寮里","LIN":"20鄰","STREET":"文化路","SECT":" ","MAREA":" ","LANE":"３２３巷","ALLEY":" ","HOUSE_NO":"８號","E_COORD97":173403.73000000001,"N_COORD97":2546130.5800000001,"ADDRESS":"文化路３２３巷８號","OBJECTID":422907},"geometry":{"x":173403.73000000138,"y":2546130.5800000019}},{"attributes":{"ID":422933,"DIS_CODE":0,"TOWNNAME":"永康區","LI":"復華里","LIN":"32鄰","STREET":"國華街","SECT":" ","MAREA":" ","LANE":"１２７巷","ALLEY":" ","HOUSE_NO":"９號","E_COORD97":172544.13,"N_COORD97":2546290.9500000002,"ADDRESS":"國華街１２７巷９號","OBJECTID":422908},"geometry":{"x":172544.13000000082,"y":2546290.9499999993}},{"attributes":{"ID":422934,"DIS_CODE":0,"TOWNNAME":"永康區","LI":"復興里","LIN":"4鄰","STREET":"復興路","SECT":" ","MAREA":" ","LANE":"４２３巷","ALLEY":" ","HOUSE_NO":"４７之１號","E_COORD97":172195.98000000001,"N_COORD97":2544286.4100000001,"ADDRESS":"復興路４２３巷４７之１號","OBJECTID":422909},"geometry":{"x":172195.98000000231,"y":2544286.410000002}},{"attributes":{"ID":422935,"DIS_CODE":0,"TOWNNAME":"永康區","LI":"網寮里","LIN":"25鄰","STREET":"永春街","SECT":" ","MAREA":" ","LANE":"１０８巷","ALLEY":" ","HOUSE_NO":"７號","E_COORD97":173769.10999999999,"N_COORD97":2546616.29,"ADDRESS":"永春街１０８巷７號","OBJECTID":422910},"geometry":{"x":173769.11000000034,"y":2546616.290000001}},{"attributes":{"ID":422936,"DIS_CODE":0,"TOWNNAME":"永康區","LI":"復興里","LIN":"25鄰","STREET":"復興路","SECT":" ","MAREA":" ","LANE":"４２９巷","ALLEY":" ","HOUSE_NO":"８８號","E_COORD97":172272.38,"N_COORD97":2543799.1099999999,"ADDRESS":"復興路４２９巷８８號","OBJECTID":422911},"geometry":{"x":172272.38000000175,"y":2543799.1100000031}},{"attributes":{"ID":422937,"DIS_CODE":0,"TOWNNAME":"永康區","LI":"網寮里","LIN":"25鄰","STREET":"永春街","SECT":" ","MAREA":" ","LANE":"９６巷","ALLEY":" ","HOUSE_NO":"２５號","E_COORD97":173797.51000000001,"N_COORD97":2546552.1499999999,"ADDRESS":"永春街９６巷２５號","OBJECTID":422912},"geometry":{"x":173797.51000000071,"y":2546552.1500000004}},{"attributes":{"ID":422938,"DIS_CODE":0,"TOWNNAME":"永康區","LI":"復興里","LIN":"4鄰","STREET":"復興路","SECT":" ","MAREA":" ","LANE":"４２３巷","ALLEY":" ","HOUSE_NO":"９０號","E_COORD97":172222.06,"N_COORD97":2544006.02,"ADDRESS":"復興路４２３巷９０號","OBJECTID":422913},"geometry":{"x":172222.06000000052,"y":2544006.0199999996}},{"attributes":{"ID":422939,"DIS_CODE":0,"TOWNNAME":"永康區","LI":"網寮里","LIN":"5鄰","STREET":"永二街","SECT":" ","MAREA":" ","LANE":"１４５巷","ALLEY":" ","HOUSE_NO":"１１號","E_COORD97":173575.64999999999,"N_COORD97":2546428.2400000002,"ADDRESS":"永二街１４５巷１１號","OBJECTID":422914},"geometry":{"x":173575.65000000037,"y":2546428.2400000021}},{"attributes":{"ID":422940,"DIS_CODE":0,"TOWNNAME":"永康區","LI":"網寮里","LIN":"26鄰","STREET":"永興路","SECT":" ","MAREA":" ","LANE":"１０５巷","ALLEY":" ","HOUSE_NO":"１３號","E_COORD97":173930.62,"N_COORD97":2546532.3100000001,"ADDRESS":"永興路１０５巷１３號","OBJECTID":422915},"geometry":{"x":173930.62000000104,"y":2546532.3100000024}},{"attributes":{"ID":422941,"DIS_CODE":0,"TOWNNAME":"永康區","LI":"網寮里","LIN":"5鄰","STREET":"永二街","SECT":" ","MAREA":" ","LANE":"１４５巷","ALLEY":" ","HOUSE_NO":"９號之１","E_COORD97":173548.45999999999,"N_COORD97":2546423.27,"ADDRESS":"永二街１４５巷９號之１","OBJECTID":422916},"geometry":{"x":173548.46000000089,"y":2546423.2700000014}},{"attributes":{"ID":422942,"DIS_CODE":0,"TOWNNAME":"永康區","LI":"龍潭里","LIN":"38鄰","STREET":"中山北路","SECT":" ","MAREA":" ","LANE":"１６４巷","ALLEY":" ","HOUSE_NO":"６２號","E_COORD97":174382.81,"N_COORD97":2547394.5499999998,"ADDRESS":"中山北路１６４巷６２號","OBJECTID":422917},"geometry":{"x":174382.80999999959,"y":2547394.5499999989}},{"attributes":{"ID":422943,"DIS_CODE":0,"TOWNNAME":"永康區","LI":"網寮里","LIN":"20鄰","STREET":"永二街","SECT":" ","MAREA":" ","LANE":"２４５巷","ALLEY":" ","HOUSE_NO":"２０號之５","E_COORD97":173312.92000000001,"N_COORD97":2546181.21,"ADDRESS":"永二街２４５巷２０號之５","OBJECTID":422918},"geometry":{"x":173312.92000000179,"y":2546181.2100000028}},{"attributes":{"ID":422944,"DIS_CODE":0,"TOWNNAME":"永康區","LI":"復興里","LIN":"25鄰","STREET":"復興路","SECT":" ","MAREA":" ","LANE":"４２９巷","ALLEY":" ","HOUSE_NO":"８６號","E_COORD97":172260.10000000001,"N_COORD97":2543842.3399999999,"ADDRESS":"復興路４２９巷８６號","OBJECTID":422919},"geometry":{"x":172260.09999999963,"y":2543842.3400000036}},{"attributes":{"ID":422945,"DIS_CODE":0,"TOWNNAME":"永康區","LI":"復興里","LIN":"4鄰","STREET":"復興路","SECT":" ","MAREA":" ","LANE":"４２３巷","ALLEY":" ","HOUSE_NO":"８１號","E_COORD97":172220.67999999999,"N_COORD97":2544227.5699999998,"ADDRESS":"復興路４２３巷８１號","OBJECTID":422920},"geometry":{"x":172220.6799999997,"y":2544227.570000004}},{"attributes":{"ID":422946,"DIS_CODE":0,"TOWNNAME":"永康區","LI":"復興里","LIN":"18鄰","STREET":"復興路","SECT":" ","MAREA":" ","LANE":"３５６巷","ALLEY":" ","HOUSE_NO":"８１號","E_COORD97":172335.81,"N_COORD97":2544513.3300000001,"ADDRESS":"復興路３５６巷８１號","OBJECTID":422921},"geometry":{"x":172335.81000000052,"y":2544513.3300000001}},{"attributes":{"ID":422947,"DIS_CODE":0,"TOWNNAME":"永康區","LI":"網寮里","LIN":"25鄰","STREET":"永春街","SECT":" ","MAREA":" ","LANE":"９６巷","ALLEY":" ","HOUSE_NO":"７號","E_COORD97":173746,"N_COORD97":2546559.5499999998,"ADDRESS":"永春街９６巷７號","OBJECTID":422922},"geometry":{"x":173746,"y":2546559.5500000007}},{"attributes":{"ID":422948,"DIS_CODE":0,"TOWNNAME":"永康區","LI":"復興里","LIN":"25鄰","STREET":"復興路","SECT":" ","MAREA":" ","LANE":"４２９巷","ALLEY":" ","HOUSE_NO":"９９號","E_COORD97":172290.54000000001,"N_COORD97":2543855.21,"ADDRESS":"復興路４２９巷９９號","OBJECTID":422923},"geometry":{"x":172290.54000000097,"y":2543855.2100000028}},{"attributes":{"ID":422949,"DIS_CODE":0,"TOWNNAME":"永康區","LI":"龍潭里","LIN":"38鄰","STREET":"中山北路","SECT":" ","MAREA":" ","LANE":"１６４巷","ALLEY":" ","HOUSE_NO":"６０之５號","E_COORD97":174375.28,"N_COORD97":2547390.8300000001,"ADDRESS":"中山北路１６４巷６０之５號","OBJECTID":422924},"geometry":{"x":174375.27999999933,"y":2547390.8300000001}},{"attributes":{"ID":422950,"DIS_CODE":0,"TOWNNAME":"永康區","LI":"網寮里","LIN":"20鄰","STREET":"永二街","SECT":" ","MAREA":" ","LANE":"２４５巷","ALLEY":" ","HOUSE_NO":"２０號之６","E_COORD97":173310.95000000001,"N_COORD97":2546176.96,"ADDRESS":"永二街２４５巷２０號之６","OBJECTID":422925},"geometry":{"x":173310.95000000019,"y":2546176.9600000009}},{"attributes":{"ID":422951,"DIS_CODE":0,"TOWNNAME":"永康區","LI":"復興里","LIN":"25鄰","STREET":"復興路","SECT":" ","MAREA":" ","LANE":"４２９巷","ALLEY":" ","HOUSE_NO":"１００號","E_COORD97":172288.60000000001,"N_COORD97":2543843.9199999999,"ADDRESS":"復興路４２９巷１００號","OBJECTID":422926},"geometry":{"x":172288.59999999963,"y":2543843.9199999999}},{"attributes":{"ID":422952,"DIS_CODE":0,"TOWNNAME":"永康區","LI":"新樹里","LIN":"4鄰","STREET":"富強路","SECT":"二段","MAREA":" ","LANE":"３９８巷","ALLEY":" ","HOUSE_NO":"１９３號之１７","E_COORD97":176095.79999999999,"N_COORD97":2547714.1000000001,"ADDRESS":"富強路二段３９８巷１９３號之１７","OBJECTID":422927},"geometry":{"x":176095.80000000075,"y":2547714.0999999996}},{"attributes":{"ID":422953,"DIS_CODE":0,"TOWNNAME":"永康區","LI":"網寮里","LIN":"5鄰","STREET":"永勝街","SECT":" ","MAREA":" ","LANE":"１０６巷","ALLEY":" ","HOUSE_NO":"２１號","E_COORD97":173592.22,"N_COORD97":2546361.4199999999,"ADDRESS":"永勝街１０６巷２１號","OBJECTID":422928},"geometry":{"x":173592.22000000067,"y":2546361.4200000018}},{"attributes":{"ID":422954,"DIS_CODE":0,"TOWNNAME":"永康區","LI":"復興里","LIN":"4鄰","STREET":"復興路","SECT":" ","MAREA":" ","LANE":"４２３巷","ALLEY":" ","HOUSE_NO":"８２號","E_COORD97":172224.62,"N_COORD97":2544022.0299999998,"ADDRESS":"復興路４２３巷８２號","OBJECTID":422929},"geometry":{"x":172224.62000000011,"y":2544022.0299999993}},{"attributes":{"ID":422955,"DIS_CODE":0,"TOWNNAME":"永康區","LI":"網寮里","LIN":"5鄰","STREET":"永勝街","SECT":" ","MAREA":" ","LANE":"１０６巷","ALLEY":" ","HOUSE_NO":"１７號","E_COORD97":173582.62,"N_COORD97":2546361.1699999999,"ADDRESS":"永勝街１０６巷１７號","OBJECTID":422930},"geometry":{"x":173582.62000000011,"y":2546361.1699999999}},{"attributes":{"ID":422956,"DIS_CODE":0,"TOWNNAME":"永康區","LI":"網寮里","LIN":"20鄰","STREET":"永二街","SECT":" ","MAREA":" ","LANE":"２４５巷","ALLEY":" ","HOUSE_NO":"２７號之８","E_COORD97":173329.94,"N_COORD97":2546121.3799999999,"ADDRESS":"永二街２４５巷２７號之８","OBJECTID":422931},"geometry":{"x":173329.94000000041,"y":2546121.379999999}},{"attributes":{"ID":422957,"DIS_CODE":0,"TOWNNAME":"永康區","LI":"復華里","LIN":"32鄰","STREET":"復華十街","SECT":" ","MAREA":" ","LANE":"４５巷","ALLEY":" ","HOUSE_NO":"３號","E_COORD97":172616.23999999999,"N_COORD97":2546372.3300000001,"ADDRESS":"復華十街４５巷３號","OBJECTID":422932},"geometry":{"x":172616.24000000115,"y":2546372.3300000019}},{"attributes":{"ID":422958,"DIS_CODE":0,"TOWNNAME":"永康區","LI":"龍潭里","LIN":"5鄰","STREET":"龍潭街","SECT":" ","MAREA":" ","LANE":"１２１巷","ALLEY":" ","HOUSE_NO":"１１號","E_COORD97":174803.64000000001,"N_COORD97":2548172.7599999998,"ADDRESS":"龍潭街１２１巷１１號","OBJECTID":422933},"geometry":{"x":174803.6400000006,"y":2548172.7600000016}},{"attributes":{"ID":422959,"DIS_CODE":0,"TOWNNAME":"永康區","LI":"龍潭里","LIN":"38鄰","STREET":"中山北路","SECT":" ","MAREA":" ","LANE":"１６４巷","ALLEY":" ","HOUSE_NO":"７６號","E_COORD97":174423.76000000001,"N_COORD97":2547397.0499999998,"ADDRESS":"中山北路１６４巷７６號","OBJECTID":422934},"geometry":{"x":174423.75999999978,"y":2547397.0500000007}},{"attributes":{"ID":422960,"DIS_CODE":0,"TOWNNAME":"永康區","LI":"網寮里","LIN":"20鄰","STREET":"永二街","SECT":" ","MAREA":" ","LANE":"２４５巷","ALLEY":" ","HOUSE_NO":"１５號","E_COORD97":173316.87,"N_COORD97":2546163.4900000002,"ADDRESS":"永二街２４５巷１５號","OBJECTID":422935},"geometry":{"x":173316.87000000197,"y":2546163.4900000002}},{"attributes":{"ID":422961,"DIS_CODE":0,"TOWNNAME":"永康區","LI":"復興里","LIN":"25鄰","STREET":"復興路","SECT":" ","MAREA":" ","LANE":"４２９巷","ALLEY":" ","HOUSE_NO":"１０６號","E_COORD97":172294.69,"N_COORD97":2543822.1699999999,"ADDRESS":"復興路４２９巷１０６號","OBJECTID":422936},"geometry":{"x":172294.69000000134,"y":2543822.1699999999}},{"attributes":{"ID":422962,"DIS_CODE":0,"TOWNNAME":"永康區","LI":"網寮里","LIN":"24鄰","STREET":"永春街","SECT":" ","MAREA":" ","LANE":"４５巷","ALLEY":" ","HOUSE_NO":"１６號","E_COORD97":173707.75,"N_COORD97":2546380.3900000001,"ADDRESS":"永春街４５巷１６號","OBJECTID":422937},"geometry":{"x":173707.75000000093,"y":2546380.3900000006}},{"attributes":{"ID":422963,"DIS_CODE":0,"TOWNNAME":"永康區","LI":"復興里","LIN":"17鄰","STREET":"復興路","SECT":" ","MAREA":" ","LANE":"３５６巷","ALLEY":" ","HOUSE_NO":"４７號","E_COORD97":172307.04000000001,"N_COORD97":2544450.2799999998,"ADDRESS":"復興路３５６巷４７號","OBJECTID":422938},"geometry":{"x":172307.0400000019,"y":2544450.2800000012}},{"attributes":{"ID":422964,"DIS_CODE":0,"TOWNNAME":"永康區","LI":"復華里","LIN":"41鄰","STREET":"復華六街","SECT":" ","MAREA":" ","LANE":"１０６巷","ALLEY":" ","HOUSE_NO":"１２號","E_COORD97":172633.57000000001,"N_COORD97":2545890.1699999999,"ADDRESS":"復華六街１０６巷１２號","OBJECTID":422939},"geometry":{"x":172633.5700000003,"y":2545890.1699999999}},{"attributes":{"ID":422965,"DIS_CODE":0,"TOWNNAME":"善化區","LI":"坐駕里","LIN":"13鄰","STREET":"信義路","SECT":" ","MAREA":" ","LANE":"７１巷","ALLEY":" ","HOUSE_NO":"９號","E_COORD97":178256.98999999999,"N_COORD97":2558705.25,"ADDRESS":"信義路７１巷９號","OBJECTID":422940},"geometry":{"x":178256.99000000022,"y":2558705.25}},{"attributes":{"ID":422966,"DIS_CODE":0,"TOWNNAME":"善化區","LI":"南關里","LIN":"13鄰","STREET":"復興街","SECT":" ","MAREA":" ","LANE":"５５巷","ALLEY":" ","HOUSE_NO":"８之２號","E_COORD97":176967.62,"N_COORD97":2559001.77,"ADDRESS":"復興街５５巷８之２號","OBJECTID":422941},"geometry":{"x":176967.62000000011,"y":2559001.7700000014}},{"attributes":{"ID":422967,"DIS_CODE":0,"TOWNNAME":"善化區","LI":"南關里","LIN":"8鄰","STREET":"光復路","SECT":" ","MAREA":" ","LANE":"５１０巷","ALLEY":" ","HOUSE_NO":"７號","E_COORD97":176836.67999999999,"N_COORD97":2558883.2599999998,"ADDRESS":"光復路５１０巷７號","OBJECTID":422942},"geometry":{"x":176836.6799999997,"y":2558883.2600000016}},{"attributes":{"ID":422968,"DIS_CODE":0,"TOWNNAME":"善化區","LI":"坐駕里","LIN":"13鄰","STREET":"信義路","SECT":" ","MAREA":" ","LANE":"７１巷","ALLEY":" ","HOUSE_NO":"２４號","E_COORD97":178223.51000000001,"N_COORD97":2558713.75,"ADDRESS":"信義路７１巷２４號","OBJECTID":422943},"geometry":{"x":178223.51000000071,"y":2558713.7500000019}},{"attributes":{"ID":422969,"DIS_CODE":0,"TOWNNAME":"善化區","LI":"坐駕里","LIN":"13鄰","STREET":"信義路","SECT":" ","MAREA":" ","LANE":"７１巷","ALLEY":" ","HOUSE_NO":"１２號","E_COORD97":178255.34,"N_COORD97":2558718.5,"ADDRESS":"信義路７１巷１２號","OBJECTID":422944},"geometry":{"x":178255.34000000078,"y":2558718.5000000019}},{"attributes":{"ID":422970,"DIS_CODE":0,"TOWNNAME":"善化區","LI":"南關里","LIN":"5鄰","STREET":"永安路","SECT":" ","MAREA":" ","LANE":"５７巷","ALLEY":" ","HOUSE_NO":"５號","E_COORD97":177144.01000000001,"N_COORD97":2558709.27,"ADDRESS":"永安路５７巷５號","OBJECTID":422945},"geometry":{"x":177144.01000000071,"y":2558709.2700000033}},{"attributes":{"ID":422971,"DIS_CODE":0,"TOWNNAME":"善化區","LI":"坐駕里","LIN":"18鄰","STREET":"興華路","SECT":" ","MAREA":" ","LANE":"２２３巷","ALLEY":" ","HOUSE_NO":"７號","E_COORD97":178214.91,"N_COORD97":2558517.25,"ADDRESS":"興華路２２３巷７號","OBJECTID":422946},"geometry":{"x":178214.91000000015,"y":2558517.2500000019}},{"attributes":{"ID":422972,"DIS_CODE":0,"TOWNNAME":"善化區","LI":"坐駕里","LIN":"13鄰","STREET":"信義路","SECT":" ","MAREA":" ","LANE":"７１巷","ALLEY":" ","HOUSE_NO":"６號","E_COORD97":178271.79000000001,"N_COORD97":2558721.25,"ADDRESS":"信義路７１巷６號","OBJECTID":422947},"geometry":{"x":178271.79000000004,"y":2558721.2500000019}},{"attributes":{"ID":422973,"DIS_CODE":0,"TOWNNAME":"善化區","LI":"坐駕里","LIN":"13鄰","STREET":"信義路","SECT":" ","MAREA":" ","LANE":"７１巷","ALLEY":" ","HOUSE_NO":"１號","E_COORD97":178280.45000000001,"N_COORD97":2558708.75,"ADDRESS":"信義路７１巷１號","OBJECTID":422948},"geometry":{"x":178280.45000000112,"y":2558708.75}},{"attributes":{"ID":422974,"DIS_CODE":0,"TOWNNAME":"善化區","LI":"坐駕里","LIN":"17鄰","STREET":"興華路","SECT":" ","MAREA":" ","LANE":"３０７巷","ALLEY":" ","HOUSE_NO":"７號","E_COORD97":177791.10000000001,"N_COORD97":2558451,"ADDRESS":"興華路３０７巷７號","OBJECTID":422949},"geometry":{"x":177791.09999999963,"y":2558451.0000000019}},{"attributes":{"ID":422975,"DIS_CODE":0,"TOWNNAME":"善化區","LI":"坐駕里","LIN":" ","STREET":"青年路","SECT":" ","MAREA":" ","LANE":"３１３巷","ALLEY":" ","HOUSE_NO":"１２號","E_COORD97":177812.45000000001,"N_COORD97":2559013,"ADDRESS":"青年路３１３巷１２號","OBJECTID":422950},"geometry":{"x":177812.45000000112,"y":2559013.0000000037}},{"attributes":{"ID":422976,"DIS_CODE":0,"TOWNNAME":"善化區","LI":"坐駕里","LIN":"18鄰","STREET":"興華路","SECT":" ","MAREA":" ","LANE":"２２３巷","ALLEY":" ","HOUSE_NO":"６號","E_COORD97":178210.01000000001,"N_COORD97":2558516.25,"ADDRESS":"興華路２２３巷６號","OBJECTID":422951},"geometry":{"x":178210.01000000071,"y":2558516.2499999981}},{"attributes":{"ID":422977,"DIS_CODE":0,"TOWNNAME":"安南區","LI":"海佃里","LIN":"4鄰","STREET":"國安街","SECT":" ","MAREA":" ","LANE":"１４０巷","ALLEY":" ","HOUSE_NO":"３號","E_COORD97":166768.26999999999,"N_COORD97":2547002,"ADDRESS":"國安街１４０巷３號","OBJECTID":422952},"geometry":{"x":166768.26999999862,"y":2547002.0000000019}},{"attributes":{"ID":422978,"DIS_CODE":0,"TOWNNAME":"安南區","LI":"海佃里","LIN":"4鄰","STREET":"國安街","SECT":" ","MAREA":" ","LANE":"１４０巷","ALLEY":" ","HOUSE_NO":"４號","E_COORD97":166788.89000000001,"N_COORD97":2547006.6499999999,"ADDRESS":"國安街１４０巷４號","OBJECTID":422953},"geometry":{"x":166788.88999999966,"y":2547006.6500000004}},{"attributes":{"ID":422979,"DIS_CODE":0,"TOWNNAME":"歸仁區","LI":"沙崙里","LIN":"4鄰","STREET":" ","SECT":" ","MAREA":"沙崙","LANE":" ","ALLEY":" ","HOUSE_NO":"３５７號","E_COORD97":179221.792892,"N_COORD97":2538148.95786,"ADDRESS":"沙崙３５７號","OBJECTID":422954},"geometry":{"x":179221.79289199971,"y":2538148.9578559995}},{"attributes":{"ID":422980,"DIS_CODE":0,"TOWNNAME":"安南區","LI":"海佃里","LIN":"4鄰","STREET":"國安街","SECT":" ","MAREA":" ","LANE":"１４０巷","ALLEY":" ","HOUSE_NO":"５號","E_COORD97":166766.94,"N_COORD97":2547008.6400000001,"ADDRESS":"國安街１４０巷５號","OBJECTID":422955},"geometry":{"x":166766.94000000134,"y":2547008.6400000025}},{"attributes":{"ID":422981,"DIS_CODE":0,"TOWNNAME":"安南區","LI":"海佃里","LIN":"4鄰","STREET":"國安街","SECT":" ","MAREA":" ","LANE":"１４０巷","ALLEY":" ","HOUSE_NO":"６號","E_COORD97":166788.89000000001,"N_COORD97":2547011.96,"ADDRESS":"國安街１４０巷６號","OBJECTID":422956},"geometry":{"x":166788.88999999966,"y":2547011.9600000009}},{"attributes":{"ID":422982,"DIS_CODE":0,"TOWNNAME":"安南區","LI":"海佃里","LIN":"4鄰","STREET":"國安街","SECT":" ","MAREA":" ","LANE":"１４０巷","ALLEY":" ","HOUSE_NO":"７號","E_COORD97":166766.28,"N_COORD97":2547015.2799999998,"ADDRESS":"國安街１４０巷７號","OBJECTID":422957},"geometry":{"x":166766.28000000119,"y":2547015.2800000031}},{"attributes":{"ID":422983,"DIS_CODE":0,"TOWNNAME":"安南區","LI":"海佃里","LIN":"4鄰","STREET":"國安街","SECT":" ","MAREA":" ","LANE":"１４０巷","ALLEY":" ","HOUSE_NO":"８號","E_COORD97":166787.56,"N_COORD97":2547018.6099999999,"ADDRESS":"國安街１４０巷８號","OBJECTID":422958},"geometry":{"x":166787.56000000052,"y":2547018.6099999994}},{"attributes":{"ID":422984,"DIS_CODE":0,"TOWNNAME":"安南區","LI":"海佃里","LIN":"4鄰","STREET":"國安街","SECT":" ","MAREA":" ","LANE":"１４０巷","ALLEY":" ","HOUSE_NO":"９號","E_COORD97":166766.28,"N_COORD97":2547021.2599999998,"ADDRESS":"國安街１４０巷９號","OBJECTID":422959},"geometry":{"x":166766.28000000119,"y":2547021.2599999998}},{"attributes":{"ID":422985,"DIS_CODE":0,"TOWNNAME":"善化區","LI":"坐駕里","LIN":"13鄰","STREET":"信義路","SECT":" ","MAREA":" ","LANE":"７１巷","ALLEY":" ","HOUSE_NO":"１９號","E_COORD97":178231,"N_COORD97":2558701.25,"ADDRESS":"信義路７１巷１９號","OBJECTID":422960},"geometry":{"x":178231.00000000093,"y":2558701.25}},{"attributes":{"ID":422986,"DIS_CODE":0,"TOWNNAME":"安南區","LI":"海佃里","LIN":"4鄰","STREET":"國安街","SECT":" ","MAREA":" ","LANE":"１５６巷","ALLEY":" ","HOUSE_NO":"１０號","E_COORD97":166748.98999999999,"N_COORD97":2547010.6299999999,"ADDRESS":"國安街１５６巷１０號","OBJECTID":422961},"geometry":{"x":166748.99000000209,"y":2547010.6300000008}},{"attributes":{"ID":422987,"DIS_CODE":0,"TOWNNAME":"安南區","LI":"海佃里","LIN":"4鄰","STREET":"國安街","SECT":" ","MAREA":" ","LANE":"１５６巷","ALLEY":" ","HOUSE_NO":"１２號","E_COORD97":166749.64999999999,"N_COORD97":2547014.6200000001,"ADDRESS":"國安街１５６巷１２號","OBJECTID":422962},"geometry":{"x":166749.64999999944,"y":2547014.6199999992}},{"attributes":{"ID":422988,"DIS_CODE":0,"TOWNNAME":"安南區","LI":"海佃里","LIN":"4鄰","STREET":"國安街","SECT":" ","MAREA":" ","LANE":"１５６巷","ALLEY":" ","HOUSE_NO":"１４號","E_COORD97":166747.66,"N_COORD97":2547017.9399999999,"ADDRESS":"國安街１５６巷１４號","OBJECTID":422963},"geometry":{"x":166747.65999999922,"y":2547017.9400000032}},{"attributes":{"ID":422989,"DIS_CODE":0,"TOWNNAME":"安南區","LI":"海佃里","LIN":"4鄰","STREET":"國安街","SECT":" ","MAREA":" ","LANE":"１５６巷","ALLEY":" ","HOUSE_NO":"１６號","E_COORD97":166745,"N_COORD97":2547024.5800000001,"ADDRESS":"國安街１５６巷１６號","OBJECTID":422964},"geometry":{"x":166745,"y":2547024.5800000019}},{"attributes":{"ID":422990,"DIS_CODE":0,"TOWNNAME":"安南區","LI":"海佃里","LIN":"4鄰","STREET":"國安街","SECT":" ","MAREA":" ","LANE":"１５６巷","ALLEY":" ","HOUSE_NO":"１８號","E_COORD97":166744.32999999999,"N_COORD97":2547030.5600000001,"ADDRESS":"國安街１５６巷１８號","OBJECTID":422965},"geometry":{"x":166744.33000000007,"y":2547030.5600000005}},{"attributes":{"ID":422991,"DIS_CODE":0,"TOWNNAME":"安南區","LI":"海佃里","LIN":"4鄰","STREET":"國安街","SECT":" ","MAREA":" ","LANE":"１５６巷","ALLEY":" ","HOUSE_NO":"２０號","E_COORD97":166743.67000000001,"N_COORD97":2547035.8799999999,"ADDRESS":"國安街１５６巷２０號","OBJECTID":422966},"geometry":{"x":166743.66999999993,"y":2547035.8800000008}},{"attributes":{"ID":422992,"DIS_CODE":0,"TOWNNAME":"安南區","LI":"海佃里","LIN":"4鄰","STREET":"國安街","SECT":" ","MAREA":" ","LANE":"１５６巷","ALLEY":" ","HOUSE_NO":"２２號","E_COORD97":166743,"N_COORD97":2547039.8599999999,"ADDRESS":"國安街１５６巷２２號","OBJECTID":422967},"geometry":{"x":166743,"y":2547039.8600000013}},{"attributes":{"ID":422993,"DIS_CODE":0,"TOWNNAME":"安南區","LI":"海佃里","LIN":"4鄰","STREET":"國安街","SECT":" ","MAREA":" ","LANE":"１５６巷","ALLEY":" ","HOUSE_NO":"２４號","E_COORD97":166741.01000000001,"N_COORD97":2547044.5099999998,"ADDRESS":"國安街１５６巷２４號","OBJECTID":422968},"geometry":{"x":166741.00999999978,"y":2547044.5099999979}},{"attributes":{"ID":422994,"DIS_CODE":0,"TOWNNAME":"安南區","LI":"幸福里","LIN":"1鄰","STREET":"國安街","SECT":" ","MAREA":" ","LANE":"９巷","ALLEY":" ","HOUSE_NO":"４號","E_COORD97":167107.67000000001,"N_COORD97":2546999.7200000002,"ADDRESS":"國安街９巷４號","OBJECTID":422969},"geometry":{"x":167107.66999999993,"y":2546999.7200000007}},{"attributes":{"ID":422995,"DIS_CODE":0,"TOWNNAME":"安南區","LI":"海佃里","LIN":"6鄰","STREET":"國安街","SECT":" ","MAREA":" ","LANE":"５６巷","ALLEY":" ","HOUSE_NO":"１３號","E_COORD97":166976.13,"N_COORD97":2547070.1899999999,"ADDRESS":"國安街５６巷１３號","OBJECTID":422970},"geometry":{"x":166976.12999999989,"y":2547070.1899999976}},{"attributes":{"ID":422996,"DIS_CODE":0,"TOWNNAME":"安南區","LI":"幸福里","LIN":"4鄰","STREET":"國安街","SECT":" ","MAREA":" ","LANE":"１０９巷","ALLEY":" ","HOUSE_NO":"１０號","E_COORD97":166856.01000000001,"N_COORD97":2546939.71,"ADDRESS":"國安街１０９巷１０號","OBJECTID":422971},"geometry":{"x":166856.00999999978,"y":2546939.7100000046}},{"attributes":{"ID":422997,"DIS_CODE":0,"TOWNNAME":"安南區","LI":"幸福里","LIN":"4鄰","STREET":"國安街","SECT":" ","MAREA":" ","LANE":"１０９巷","ALLEY":" ","HOUSE_NO":"１１號","E_COORD97":166884.25,"N_COORD97":2546937.29,"ADDRESS":"國安街１０９巷１１號","OBJECTID":422972},"geometry":{"x":166884.25000000186,"y":2546937.2900000028}},{"attributes":{"ID":422998,"DIS_CODE":0,"TOWNNAME":"安南區","LI":"幸福里","LIN":"4鄰","STREET":"國安街","SECT":" ","MAREA":" ","LANE":"１０９巷","ALLEY":" ","HOUSE_NO":"１２號","E_COORD97":166856.85000000001,"N_COORD97":2546931.5600000001,"ADDRESS":"國安街１０９巷１２號","OBJECTID":422973},"geometry":{"x":166856.85000000056,"y":2546931.5600000024}},{"attributes":{"ID":422999,"DIS_CODE":0,"TOWNNAME":"安南區","LI":"幸福里","LIN":"4鄰","STREET":"國安街","SECT":" ","MAREA":" ","LANE":"１０９巷","ALLEY":" ","HOUSE_NO":"１３號","E_COORD97":166885.57999999999,"N_COORD97":2546931.5800000001,"ADDRESS":"國安街１０９巷１３號","OBJECTID":422974},"geometry":{"x":166885.58000000194,"y":2546931.5800000001}},{"attributes":{"ID":423000,"DIS_CODE":0,"TOWNNAME":"安南區","LI":"幸福里","LIN":"4鄰","STREET":"國安街","SECT":" ","MAREA":" ","LANE":"１０９巷","ALLEY":" ","HOUSE_NO":"１４號","E_COORD97":166858.56,"N_COORD97":2546927.0699999998,"ADDRESS":"國安街１０９巷１４號","OBJECTID":422975},"geometry":{"x":166858.56000000052,"y":2546927.0700000022}},{"attributes":{"ID":423001,"DIS_CODE":0,"TOWNNAME":"安南區","LI":"幸福里","LIN":"4鄰","STREET":"國安街","SECT":" ","MAREA":" ","LANE":"１０９巷","ALLEY":" ","HOUSE_NO":"１５號","E_COORD97":166886.23000000001,"N_COORD97":2546927.3700000001,"ADDRESS":"國安街１０９巷１５號","OBJECTID":422976},"geometry":{"x":166886.23000000045,"y":2546927.370000001}},{"attributes":{"ID":423002,"DIS_CODE":0,"TOWNNAME":"安南區","LI":"幸福里","LIN":"4鄰","STREET":"國安街","SECT":" ","MAREA":" ","LANE":"１０９巷","ALLEY":" ","HOUSE_NO":"１６號","E_COORD97":166860.07999999999,"N_COORD97":2546922.3500000001,"ADDRESS":"國安街１０９巷１６號","OBJECTID":422977},"geometry":{"x":166860.08000000194,"y":2546922.3499999996}},{"attributes":{"ID":423003,"DIS_CODE":0,"TOWNNAME":"安南區","LI":"幸福里","LIN":"4鄰","STREET":"國安街","SECT":" ","MAREA":" ","LANE":"１０９巷","ALLEY":" ","HOUSE_NO":"１７號","E_COORD97":166887.47,"N_COORD97":2546922.6299999999,"ADDRESS":"國安街１０９巷１７號","OBJECTID":422978},"geometry":{"x":166887.46999999881,"y":2546922.6300000008}},{"attributes":{"ID":423004,"DIS_CODE":0,"TOWNNAME":"安南區","LI":"幸福里","LIN":"4鄰","STREET":"國安街","SECT":" ","MAREA":" ","LANE":"１０９巷","ALLEY":" ","HOUSE_NO":"１８號","E_COORD97":166861.20000000001,"N_COORD97":2546917.7799999998,"ADDRESS":"國安街１０９巷１８號","OBJECTID":422979},"geometry":{"x":166861.20000000205,"y":2546917.7800000012}},{"attributes":{"ID":423005,"DIS_CODE":0,"TOWNNAME":"安南區","LI":"幸福里","LIN":"4鄰","STREET":"國安街","SECT":" ","MAREA":" ","LANE":"９１巷","ALLEY":" ","HOUSE_NO":"１０號","E_COORD97":166901.26000000001,"N_COORD97":2546945.3799999999,"ADDRESS":"國安街９１巷１０號","OBJECTID":422980},"geometry":{"x":166901.26000000071,"y":2546945.379999999}},{"attributes":{"ID":423006,"DIS_CODE":0,"TOWNNAME":"安南區","LI":"幸福里","LIN":"4鄰","STREET":"國安街","SECT":" ","MAREA":" ","LANE":"９１巷","ALLEY":" ","HOUSE_NO":"１４號","E_COORD97":166904.10000000001,"N_COORD97":2546936.46,"ADDRESS":"國安街９１巷１４號","OBJECTID":422981},"geometry":{"x":166904.10000000056,"y":2546936.4600000009}},{"attributes":{"ID":423007,"DIS_CODE":0,"TOWNNAME":"安南區","LI":"幸福里","LIN":"4鄰","STREET":"國安街","SECT":" ","MAREA":" ","LANE":"９１巷","ALLEY":" ","HOUSE_NO":"１６號","E_COORD97":166905.35999999999,"N_COORD97":2546931.5299999998,"ADDRESS":"國安街９１巷１６號","OBJECTID":422982},"geometry":{"x":166905.36000000034,"y":2546931.5299999993}},{"attributes":{"ID":423008,"DIS_CODE":0,"TOWNNAME":"安南區","LI":"幸福里","LIN":"4鄰","STREET":"國安街","SECT":" ","MAREA":" ","LANE":"９１巷","ALLEY":" ","HOUSE_NO":"２０號","E_COORD97":166907.14999999999,"N_COORD97":2546921.3100000001,"ADDRESS":"國安街９１巷２０號","OBJECTID":422983},"geometry":{"x":166907.15000000037,"y":2546921.3099999987}},{"attributes":{"ID":423009,"DIS_CODE":0,"TOWNNAME":"安南區","LI":"幸福里","LIN":"4鄰","STREET":"國安街","SECT":" ","MAREA":" ","LANE":"９１巷","ALLEY":" ","HOUSE_NO":"２號","E_COORD97":166897.26000000001,"N_COORD97":2546965.2799999998,"ADDRESS":"國安街９１巷２號","OBJECTID":422984},"geometry":{"x":166897.25999999978,"y":2546965.2800000012}},{"attributes":{"ID":423010,"DIS_CODE":0,"TOWNNAME":"安南區","LI":"幸福里","LIN":"4鄰","STREET":"國安街","SECT":" ","MAREA":" ","LANE":"９１巷","ALLEY":" ","HOUSE_NO":"４號","E_COORD97":166898.51999999999,"N_COORD97":2546960.0299999998,"ADDRESS":"國安街９１巷４號","OBJECTID":422985},"geometry":{"x":166898.51999999955,"y":2546960.0300000012}},{"attributes":{"ID":423011,"DIS_CODE":0,"TOWNNAME":"安南區","LI":"幸福里","LIN":"4鄰","STREET":"國安街","SECT":" ","MAREA":" ","LANE":"９１巷","ALLEY":" ","HOUSE_NO":"６號","E_COORD97":166899.98999999999,"N_COORD97":2546955.6200000001,"ADDRESS":"國安街９１巷６號","OBJECTID":422986},"geometry":{"x":166899.99000000115,"y":2546955.620000001}},{"attributes":{"ID":423012,"DIS_CODE":0,"TOWNNAME":"安南區","LI":"幸福里","LIN":"4鄰","STREET":"國安街","SECT":" ","MAREA":" ","LANE":"９１巷","ALLEY":" ","HOUSE_NO":"８號","E_COORD97":166900.94,"N_COORD97":2546950.3799999999,"ADDRESS":"國安街９１巷８號","OBJECTID":422987},"geometry":{"x":166900.94000000134,"y":2546950.3800000008}},{"attributes":{"ID":423013,"DIS_CODE":0,"TOWNNAME":"安南區","LI":"幸福里","LIN":"6鄰","STREET":"國安街","SECT":" ","MAREA":" ","LANE":"１３９巷","ALLEY":" ","HOUSE_NO":"１０號","E_COORD97":166782.37,"N_COORD97":2546916.8300000001,"ADDRESS":"國安街１３９巷１０號","OBJECTID":422988},"geometry":{"x":166782.37000000104,"y":2546916.8300000001}},{"attributes":{"ID":423014,"DIS_CODE":0,"TOWNNAME":"安南區","LI":"幸福里","LIN":"6鄰","STREET":"國安街","SECT":" ","MAREA":" ","LANE":"１３９巷","ALLEY":" ","HOUSE_NO":"１２號","E_COORD97":166783.04999999999,"N_COORD97":2546911.2200000002,"ADDRESS":"國安街１３９巷１２號","OBJECTID":422989},"geometry":{"x":166783.04999999981,"y":2546911.2200000007}},{"attributes":{"ID":423015,"DIS_CODE":0,"TOWNNAME":"安南區","LI":"幸福里","LIN":"6鄰","STREET":"國安街","SECT":" ","MAREA":" ","LANE":"１３９巷","ALLEY":" ","HOUSE_NO":"１４號","E_COORD97":166784.06,"N_COORD97":2546907.0099999998,"ADDRESS":"國安街１３９巷１４號","OBJECTID":422990},"geometry":{"x":166784.06000000052,"y":2546907.0100000016}},{"attributes":{"ID":423016,"DIS_CODE":0,"TOWNNAME":"安南區","LI":"幸福里","LIN":"6鄰","STREET":"國安街","SECT":" ","MAREA":" ","LANE":"１３９巷","ALLEY":" ","HOUSE_NO":"１８號","E_COORD97":166786.5,"N_COORD97":2546894.6400000001,"ADDRESS":"國安街１３９巷１８號","OBJECTID":422991},"geometry":{"x":166786.50000000093,"y":2546894.6400000006}},{"attributes":{"ID":423017,"DIS_CODE":0,"TOWNNAME":"安南區","LI":"幸福里","LIN":"6鄰","STREET":"國安街","SECT":" ","MAREA":" ","LANE":"１３９巷","ALLEY":" ","HOUSE_NO":"２０號","E_COORD97":166787.69,"N_COORD97":2546887.7599999998,"ADDRESS":"國安街１３９巷２０號","OBJECTID":422992},"geometry":{"x":166787.69000000041,"y":2546887.7600000016}},{"attributes":{"ID":423018,"DIS_CODE":0,"TOWNNAME":"安南區","LI":"幸福里","LIN":"6鄰","STREET":"國安街","SECT":" ","MAREA":" ","LANE":"１３９巷","ALLEY":" ","HOUSE_NO":"２２號","E_COORD97":166788.87,"N_COORD97":2546882.2000000002,"ADDRESS":"國安街１３９巷２２號","OBJECTID":422993},"geometry":{"x":166788.87000000104,"y":2546882.1999999993}},{"attributes":{"ID":423019,"DIS_CODE":0,"TOWNNAME":"安南區","LI":"幸福里","LIN":"6鄰","STREET":"國安街","SECT":" ","MAREA":" ","LANE":"１３９巷","ALLEY":" ","HOUSE_NO":"２４號","E_COORD97":166790.04999999999,"N_COORD97":2546875.7999999998,"ADDRESS":"國安街１３９巷２４號","OBJECTID":422994},"geometry":{"x":166790.04999999981,"y":2546875.8000000026}},{"attributes":{"ID":423020,"DIS_CODE":0,"TOWNNAME":"安南區","LI":"幸福里","LIN":"6鄰","STREET":"國安街","SECT":" ","MAREA":" ","LANE":"１３９巷","ALLEY":" ","HOUSE_NO":"２８號","E_COORD97":166791.57000000001,"N_COORD97":2546864.4700000002,"ADDRESS":"國安街１３９巷２８號","OBJECTID":422995},"geometry":{"x":166791.57000000123,"y":2546864.4700000025}},{"attributes":{"ID":423021,"DIS_CODE":0,"TOWNNAME":"安南區","LI":"幸福里","LIN":"6鄰","STREET":"國安街","SECT":" ","MAREA":" ","LANE":"１３９巷","ALLEY":" ","HOUSE_NO":"３０號","E_COORD97":166794.94,"N_COORD97":2546858.6600000001,"ADDRESS":"國安街１３９巷３０號","OBJECTID":422996},"geometry":{"x":166794.94000000041,"y":2546858.660000002}},{"attributes":{"ID":423022,"DIS_CODE":0,"TOWNNAME":"安南區","LI":"幸福里","LIN":"6鄰","STREET":"國安街","SECT":" ","MAREA":" ","LANE":"１３９巷","ALLEY":" ","HOUSE_NO":"６號","E_COORD97":166779.57999999999,"N_COORD97":2546930.3100000001,"ADDRESS":"國安街１３９巷６號","OBJECTID":422997},"geometry":{"x":166779.58000000007,"y":2546930.3100000005}},{"attributes":{"ID":423023,"DIS_CODE":0,"TOWNNAME":"安南區","LI":"幸福里","LIN":"6鄰","STREET":"國安街","SECT":" ","MAREA":" ","LANE":"１３９巷","ALLEY":" ","HOUSE_NO":"８號","E_COORD97":166781.10000000001,"N_COORD97":2546924.5,"ADDRESS":"國安街１３９巷８號","OBJECTID":422998},"geometry":{"x":166781.09999999963,"y":2546924.5000000019}},{"attributes":{"ID":423024,"DIS_CODE":0,"TOWNNAME":"永康區","LI":"大橋里","LIN":"18鄰","STREET":"大橋一街","SECT":" ","MAREA":" ","LANE":"１３９巷","ALLEY":" ","HOUSE_NO":"５４號","E_COORD97":170963.22,"N_COORD97":2546647.75,"ADDRESS":"大橋一街１３９巷５４號","OBJECTID":422999},"geometry":{"x":170963.22000000067,"y":2546647.7500000019}},{"attributes":{"ID":423025,"DIS_CODE":0,"TOWNNAME":"永康區","LI":"三合里","LIN":"18鄰","STREET":"南工街","SECT":" ","MAREA":" ","LANE":"２６７巷","ALLEY":" ","HOUSE_NO":"１５號","E_COORD97":171889.45000000001,"N_COORD97":2545911,"ADDRESS":"南工街２６７巷１５號","OBJECTID":423000},"geometry":{"x":171889.45000000112,"y":2545911}}]}