{"displayFieldName":"TOWNNAME","fieldAliases":{"ID":"ID","DIS_CODE":"DIS_CODE","TOWNNAME":"TOWNNAME","LI":"LI","LIN":"LIN","STREET":"STREET","SECT":"SECT","MAREA":"MAREA","LANE":"LANE","ALLEY":"ALLEY","HOUSE_NO":"HOUSE_NO","E_COORD97":"E_COORD97","N_COORD97":"N_COORD97","ADDRESS":"ADDRESS","OBJECTID":"OBJECTID"},"geometryType":"esriGeometryPoint","spatialReference":{"wkid":102443,"latestWkid":3826},"fields":[{"name":"ID","type":"esriFieldTypeDouble","alias":"ID"},{"name":"DIS_CODE","type":"esriFieldTypeInteger","alias":"DIS_CODE"},{"name":"TOWNNAME","type":"esriFieldTypeString","alias":"TOWNNAME","length":8},{"name":"LI","type":"esriFieldTypeString","alias":"LI","length":8},{"name":"LIN","type":"esriFieldTypeString","alias":"LIN","length":12},{"name":"STREET","type":"esriFieldTypeString","alias":"STREET","length":20},{"name":"SECT","type":"esriFieldTypeString","alias":"SECT","length":8},{"name":"MAREA","type":"esriFieldTypeString","alias":"MAREA","length":12},{"name":"LANE","type":"esriFieldTypeString","alias":"LANE","length":10},{"name":"ALLEY","type":"esriFieldTypeString","alias":"ALLEY","length":10},{"name":"HOUSE_NO","type":"esriFieldTypeString","alias":"HOUSE_NO","length":20},{"name":"E_COORD97","type":"esriFieldTypeDouble","alias":"E_COORD97"},{"name":"N_COORD97","type":"esriFieldTypeDouble","alias":"N_COORD97"},{"name":"ADDRESS","type":"esriFieldTypeString","alias":"ADDRESS","length":50},{"name":"OBJECTID","type":"esriFieldTypeOID","alias":"OBJECTID"}],"features":[{"attributes":{"ID":567028,"DIS_CODE":0,"TOWNNAME":"永康區","LI":"埔園里","LIN":"37鄰","STREET":"龍中街","SECT":" ","MAREA":" ","LANE":" ","ALLEY":" ","HOUSE_NO":"４４３號三樓","E_COORD97":174396.85999999999,"N_COORD97":2548168.3799999999,"ADDRESS":"龍中街４４３號三樓","OBJECTID":567001},"geometry":{"x":174396.8599999994,"y":2548168.3800000008}},{"attributes":{"ID":567029,"DIS_CODE":0,"TOWNNAME":"永康區","LI":"崑山里","LIN":"37鄰","STREET":"大仁街","SECT":" ","MAREA":" ","LANE":" ","ALLEY":" ","HOUSE_NO":"１９２號","E_COORD97":173944.22,"N_COORD97":2545056.3799999999,"ADDRESS":"大仁街１９２號","OBJECTID":567002},"geometry":{"x":173944.21999999974,"y":2545056.379999999}},{"attributes":{"ID":567030,"DIS_CODE":0,"TOWNNAME":"永康區","LI":"埔園里","LIN":"37鄰","STREET":"龍中街","SECT":" ","MAREA":" ","LANE":" ","ALLEY":" ","HOUSE_NO":"４４３號五樓","E_COORD97":174396.85999999999,"N_COORD97":2548168.3799999999,"ADDRESS":"龍中街４４３號五樓","OBJECTID":567003},"geometry":{"x":174396.8599999994,"y":2548168.3800000008}},{"attributes":{"ID":567031,"DIS_CODE":0,"TOWNNAME":"永康區","LI":"西灣里","LIN":"37鄰","STREET":"國光七街","SECT":" ","MAREA":" ","LANE":" ","ALLEY":" ","HOUSE_NO":"５８號三樓之２","E_COORD97":174154.42000000001,"N_COORD97":2545535.29,"ADDRESS":"國光七街５８號三樓之２","OBJECTID":567004},"geometry":{"x":174154.42000000086,"y":2545535.2899999991}},{"attributes":{"ID":567032,"DIS_CODE":0,"TOWNNAME":"永康區","LI":"西灣里","LIN":"37鄰","STREET":"國光七街","SECT":" ","MAREA":" ","LANE":" ","ALLEY":" ","HOUSE_NO":"４８號五樓之２","E_COORD97":174180.47,"N_COORD97":2545536.29,"ADDRESS":"國光七街４８號五樓之２","OBJECTID":567005},"geometry":{"x":174180.47000000067,"y":2545536.2899999991}},{"attributes":{"ID":567033,"DIS_CODE":0,"TOWNNAME":"永康區","LI":"\u25A0行里","LIN":"37鄰","STREET":"仁愛街","SECT":" ","MAREA":" ","LANE":" ","ALLEY":" ","HOUSE_NO":"７６號五樓","E_COORD97":172041.20000000001,"N_COORD97":2549399.8999999999,"ADDRESS":"仁愛街７６號五樓","OBJECTID":567006},"geometry":{"x":172041.20000000019,"y":2549399.9000000022}},{"attributes":{"ID":567034,"DIS_CODE":0,"TOWNNAME":"永康區","LI":"\u25A0行里","LIN":"37鄰","STREET":"仁愛街","SECT":" ","MAREA":" ","LANE":" ","ALLEY":" ","HOUSE_NO":"７６號七樓","E_COORD97":172041.20000000001,"N_COORD97":2549399.8999999999,"ADDRESS":"仁愛街７６號七樓","OBJECTID":567007},"geometry":{"x":172041.20000000019,"y":2549399.9000000022}},{"attributes":{"ID":567035,"DIS_CODE":0,"TOWNNAME":"永康區","LI":"\u25A0行里","LIN":"37鄰","STREET":"仁愛街","SECT":" ","MAREA":" ","LANE":" ","ALLEY":" ","HOUSE_NO":"９０號五樓","E_COORD97":172053.09,"N_COORD97":2549427.4100000001,"ADDRESS":"仁愛街９０號五樓","OBJECTID":567008},"geometry":{"x":172053.08999999985,"y":2549427.410000002}},{"attributes":{"ID":567036,"DIS_CODE":0,"TOWNNAME":"永康區","LI":"東灣里","LIN":"37鄰","STREET":"大灣三街","SECT":" ","MAREA":" ","LANE":" ","ALLEY":" ","HOUSE_NO":"７號二樓之１","E_COORD97":175070.07999999999,"N_COORD97":2544843.54,"ADDRESS":"大灣三街７號二樓之１","OBJECTID":567009},"geometry":{"x":175070.08000000101,"y":2544843.5400000028}},{"attributes":{"ID":567037,"DIS_CODE":0,"TOWNNAME":"永康區","LI":"\u25A0行里","LIN":"37鄰","STREET":"仁愛街","SECT":" ","MAREA":" ","LANE":" ","ALLEY":" ","HOUSE_NO":"９２號七樓","E_COORD97":172054.64000000001,"N_COORD97":2549430.9100000001,"ADDRESS":"仁愛街９２號七樓","OBJECTID":567010},"geometry":{"x":172054.63999999966,"y":2549430.910000002}},{"attributes":{"ID":567038,"DIS_CODE":0,"TOWNNAME":"永康區","LI":"西灣里","LIN":"37鄰","STREET":"國光七街","SECT":" ","MAREA":" ","LANE":" ","ALLEY":" ","HOUSE_NO":"４８號七樓之２","E_COORD97":174180.47,"N_COORD97":2545536.29,"ADDRESS":"國光七街４８號七樓之２","OBJECTID":567011},"geometry":{"x":174180.47000000067,"y":2545536.2899999991}},{"attributes":{"ID":567039,"DIS_CODE":0,"TOWNNAME":"永康區","LI":"龍潭里","LIN":"20鄰","STREET":"龍潭街","SECT":" ","MAREA":" ","LANE":" ","ALLEY":" ","HOUSE_NO":"２０５號","E_COORD97":174948.23000000001,"N_COORD97":2548411.5,"ADDRESS":"龍潭街２０５號","OBJECTID":567012},"geometry":{"x":174948.23000000045,"y":2548411.5000000037}},{"attributes":{"ID":567040,"DIS_CODE":0,"TOWNNAME":"永康區","LI":"龍潭里","LIN":"39鄰","STREET":"永明街","SECT":" ","MAREA":" ","LANE":" ","ALLEY":" ","HOUSE_NO":"２６３之７號","E_COORD97":174632.28,"N_COORD97":2547243.6200000001,"ADDRESS":"永明街２６３之７號","OBJECTID":567013},"geometry":{"x":174632.28000000026,"y":2547243.6200000029}},{"attributes":{"ID":567041,"DIS_CODE":0,"TOWNNAME":"永康區","LI":"\u25A0行里","LIN":"39鄰","STREET":"永安路","SECT":" ","MAREA":" ","LANE":" ","ALLEY":" ","HOUSE_NO":"２５號","E_COORD97":172756.07000000001,"N_COORD97":2549245.29,"ADDRESS":"永安路２５號","OBJECTID":567014},"geometry":{"x":172756.0700000003,"y":2549245.2899999991}},{"attributes":{"ID":567042,"DIS_CODE":0,"TOWNNAME":"永康區","LI":"\u25A0行里","LIN":"34鄰","STREET":"中正北路","SECT":" ","MAREA":" ","LANE":" ","ALLEY":" ","HOUSE_NO":"１２５號","E_COORD97":172210.57000000001,"N_COORD97":2549105,"ADDRESS":"中正北路１２５號","OBJECTID":567015},"geometry":{"x":172210.57000000123,"y":2549105}},{"attributes":{"ID":567043,"DIS_CODE":0,"TOWNNAME":"中西區","LI":"永福里","LIN":"7鄰","STREET":"中正路","SECT":" ","MAREA":" ","LANE":" ","ALLEY":" ","HOUSE_NO":"６９號","E_COORD97":168140.31,"N_COORD97":2543623.71,"ADDRESS":"中正路６９號","OBJECTID":567016},"geometry":{"x":168140.31000000052,"y":2543623.7100000046}},{"attributes":{"ID":567044,"DIS_CODE":0,"TOWNNAME":"永康區","LI":"西灣里","LIN":"37鄰","STREET":"國光七街","SECT":" ","MAREA":" ","LANE":" ","ALLEY":" ","HOUSE_NO":"５６號六樓之１","E_COORD97":174160.54000000001,"N_COORD97":2545535.29,"ADDRESS":"國光七街５６號六樓之１","OBJECTID":567017},"geometry":{"x":174160.54000000097,"y":2545535.2899999991}},{"attributes":{"ID":567045,"DIS_CODE":0,"TOWNNAME":"新營區","LI":"民榮里","LIN":"37鄰","STREET":"太子路","SECT":" ","MAREA":" ","LANE":" ","ALLEY":" ","HOUSE_NO":"３２之１０號二樓","E_COORD97":178263.35000000001,"N_COORD97":2578174.6699999999,"ADDRESS":"太子路３２之１０號二樓","OBJECTID":567018},"geometry":{"x":178263.35000000056,"y":2578174.6700000018}},{"attributes":{"ID":567046,"DIS_CODE":0,"TOWNNAME":"永康區","LI":"龍潭里","LIN":"44鄰","STREET":"永平街","SECT":" ","MAREA":" ","LANE":" ","ALLEY":" ","HOUSE_NO":"２７６之３號","E_COORD97":174682.84,"N_COORD97":2547014.79,"ADDRESS":"永平街２７６之３號","OBJECTID":567019},"geometry":{"x":174682.83999999985,"y":2547014.7899999972}},{"attributes":{"ID":567047,"DIS_CODE":0,"TOWNNAME":"新營區","LI":"民榮里","LIN":"37鄰","STREET":"太子路","SECT":" ","MAREA":" ","LANE":" ","ALLEY":" ","HOUSE_NO":"３２號之１０七樓","E_COORD97":178263.35000000001,"N_COORD97":2578174.6699999999,"ADDRESS":"太子路３２號之１０七樓","OBJECTID":567020},"geometry":{"x":178263.35000000056,"y":2578174.6700000018}},{"attributes":{"ID":567048,"DIS_CODE":0,"TOWNNAME":"北區","LI":"成德里","LIN":"37鄰","STREET":"北成路","SECT":" ","MAREA":" ","LANE":" ","ALLEY":" ","HOUSE_NO":"４０１號八樓之１２","E_COORD97":168054.41,"N_COORD97":2546565.4100000001,"ADDRESS":"北成路４０１號八樓之１２","OBJECTID":567021},"geometry":{"x":168054.41000000015,"y":2546565.410000002}},{"attributes":{"ID":567049,"DIS_CODE":0,"TOWNNAME":"北區","LI":"成德里","LIN":"37鄰","STREET":"北成路","SECT":" ","MAREA":" ","LANE":" ","ALLEY":" ","HOUSE_NO":"４０１號八樓之１３","E_COORD97":168054.41,"N_COORD97":2546565.4100000001,"ADDRESS":"北成路４０１號八樓之１３","OBJECTID":567022},"geometry":{"x":168054.41000000015,"y":2546565.410000002}},{"attributes":{"ID":567050,"DIS_CODE":0,"TOWNNAME":"北區","LI":"成德里","LIN":"37鄰","STREET":"北成路","SECT":" ","MAREA":" ","LANE":" ","ALLEY":" ","HOUSE_NO":"４０１號九樓之１","E_COORD97":168054.41,"N_COORD97":2546565.4100000001,"ADDRESS":"北成路４０１號九樓之１","OBJECTID":567023},"geometry":{"x":168054.41000000015,"y":2546565.410000002}},{"attributes":{"ID":567051,"DIS_CODE":0,"TOWNNAME":"北區","LI":"成德里","LIN":"37鄰","STREET":"北成路","SECT":" ","MAREA":" ","LANE":" ","ALLEY":" ","HOUSE_NO":"４０１號九樓之２","E_COORD97":168054.41,"N_COORD97":2546565.4100000001,"ADDRESS":"北成路４０１號九樓之２","OBJECTID":567024},"geometry":{"x":168054.41000000015,"y":2546565.410000002}},{"attributes":{"ID":567052,"DIS_CODE":0,"TOWNNAME":"北區","LI":"成德里","LIN":"37鄰","STREET":"北成路","SECT":" ","MAREA":" ","LANE":" ","ALLEY":" ","HOUSE_NO":"４０１號九樓之３","E_COORD97":168054.41,"N_COORD97":2546565.4100000001,"ADDRESS":"北成路４０１號九樓之３","OBJECTID":567025},"geometry":{"x":168054.41000000015,"y":2546565.410000002}},{"attributes":{"ID":567053,"DIS_CODE":0,"TOWNNAME":"北區","LI":"成德里","LIN":"37鄰","STREET":"北成路","SECT":" ","MAREA":" ","LANE":" ","ALLEY":" ","HOUSE_NO":"４０１號九樓之５","E_COORD97":168054.41,"N_COORD97":2546565.4100000001,"ADDRESS":"北成路４０１號九樓之５","OBJECTID":567026},"geometry":{"x":168054.41000000015,"y":2546565.410000002}},{"attributes":{"ID":567054,"DIS_CODE":0,"TOWNNAME":"北區","LI":"成德里","LIN":"37鄰","STREET":"北成路","SECT":" ","MAREA":" ","LANE":" ","ALLEY":" ","HOUSE_NO":"４０１號九樓之６","E_COORD97":168054.41,"N_COORD97":2546565.4100000001,"ADDRESS":"北成路４０１號九樓之６","OBJECTID":567027},"geometry":{"x":168054.41000000015,"y":2546565.410000002}},{"attributes":{"ID":567055,"DIS_CODE":0,"TOWNNAME":"北區","LI":"成德里","LIN":"37鄰","STREET":"北成路","SECT":" ","MAREA":" ","LANE":" ","ALLEY":" ","HOUSE_NO":"４０１號九樓之７","E_COORD97":168054.41,"N_COORD97":2546565.4100000001,"ADDRESS":"北成路４０１號九樓之７","OBJECTID":567028},"geometry":{"x":168054.41000000015,"y":2546565.410000002}},{"attributes":{"ID":567056,"DIS_CODE":0,"TOWNNAME":"北區","LI":"成德里","LIN":"37鄰","STREET":"北成路","SECT":" ","MAREA":" ","LANE":" ","ALLEY":" ","HOUSE_NO":"４０１號九樓之８","E_COORD97":168054.41,"N_COORD97":2546565.4100000001,"ADDRESS":"北成路４０１號九樓之８","OBJECTID":567029},"geometry":{"x":168054.41000000015,"y":2546565.410000002}},{"attributes":{"ID":567057,"DIS_CODE":0,"TOWNNAME":"北區","LI":"成德里","LIN":"37鄰","STREET":"北成路","SECT":" ","MAREA":" ","LANE":" ","ALLEY":" ","HOUSE_NO":"４０１號九樓之９","E_COORD97":168054.41,"N_COORD97":2546565.4100000001,"ADDRESS":"北成路４０１號九樓之９","OBJECTID":567030},"geometry":{"x":168054.41000000015,"y":2546565.410000002}},{"attributes":{"ID":567058,"DIS_CODE":0,"TOWNNAME":"北區","LI":"成德里","LIN":"37鄰","STREET":"北成路","SECT":" ","MAREA":" ","LANE":" ","ALLEY":" ","HOUSE_NO":"４０１號九樓之１０","E_COORD97":168054.41,"N_COORD97":2546565.4100000001,"ADDRESS":"北成路４０１號九樓之１０","OBJECTID":567031},"geometry":{"x":168054.41000000015,"y":2546565.410000002}},{"attributes":{"ID":567059,"DIS_CODE":0,"TOWNNAME":"北區","LI":"成德里","LIN":"37鄰","STREET":"北成路","SECT":" ","MAREA":" ","LANE":" ","ALLEY":" ","HOUSE_NO":"４０１號九樓之１１","E_COORD97":168054.41,"N_COORD97":2546565.4100000001,"ADDRESS":"北成路４０１號九樓之１１","OBJECTID":567032},"geometry":{"x":168054.41000000015,"y":2546565.410000002}},{"attributes":{"ID":567060,"DIS_CODE":0,"TOWNNAME":"永康區","LI":"龍潭里","LIN":"44鄰","STREET":"永平街","SECT":" ","MAREA":" ","LANE":" ","ALLEY":" ","HOUSE_NO":"２９０之７號","E_COORD97":174656.98000000001,"N_COORD97":2547049.7999999998,"ADDRESS":"永平街２９０之７號","OBJECTID":567033},"geometry":{"x":174656.98000000045,"y":2547049.8000000007}},{"attributes":{"ID":567061,"DIS_CODE":0,"TOWNNAME":"北區","LI":"成德里","LIN":"37鄰","STREET":"北成路","SECT":" ","MAREA":" ","LANE":" ","ALLEY":" ","HOUSE_NO":"４０１號九樓之１２","E_COORD97":168054.41,"N_COORD97":2546565.4100000001,"ADDRESS":"北成路４０１號九樓之１２","OBJECTID":567034},"geometry":{"x":168054.41000000015,"y":2546565.410000002}},{"attributes":{"ID":567062,"DIS_CODE":0,"TOWNNAME":"北區","LI":"成德里","LIN":"37鄰","STREET":"北成路","SECT":" ","MAREA":" ","LANE":" ","ALLEY":" ","HOUSE_NO":"４０１號九樓之１３","E_COORD97":168054.41,"N_COORD97":2546565.4100000001,"ADDRESS":"北成路４０１號九樓之１３","OBJECTID":567035},"geometry":{"x":168054.41000000015,"y":2546565.410000002}},{"attributes":{"ID":567063,"DIS_CODE":0,"TOWNNAME":"北區","LI":"成德里","LIN":"37鄰","STREET":"北成路","SECT":" ","MAREA":" ","LANE":" ","ALLEY":" ","HOUSE_NO":"４０１號十樓之１","E_COORD97":168054.41,"N_COORD97":2546565.4100000001,"ADDRESS":"北成路４０１號十樓之１","OBJECTID":567036},"geometry":{"x":168054.41000000015,"y":2546565.410000002}},{"attributes":{"ID":567064,"DIS_CODE":0,"TOWNNAME":"北區","LI":"成德里","LIN":"37鄰","STREET":"北成路","SECT":" ","MAREA":" ","LANE":" ","ALLEY":" ","HOUSE_NO":"４０１號十樓之２","E_COORD97":168054.41,"N_COORD97":2546565.4100000001,"ADDRESS":"北成路４０１號十樓之２","OBJECTID":567037},"geometry":{"x":168054.41000000015,"y":2546565.410000002}},{"attributes":{"ID":567065,"DIS_CODE":0,"TOWNNAME":"北區","LI":"成德里","LIN":"37鄰","STREET":"北成路","SECT":" ","MAREA":" ","LANE":" ","ALLEY":" ","HOUSE_NO":"４０１號十樓之３","E_COORD97":168054.41,"N_COORD97":2546565.4100000001,"ADDRESS":"北成路４０１號十樓之３","OBJECTID":567038},"geometry":{"x":168054.41000000015,"y":2546565.410000002}},{"attributes":{"ID":567066,"DIS_CODE":0,"TOWNNAME":"北區","LI":"成德里","LIN":"37鄰","STREET":"北成路","SECT":" ","MAREA":" ","LANE":" ","ALLEY":" ","HOUSE_NO":"４０１號十樓之５","E_COORD97":168054.41,"N_COORD97":2546565.4100000001,"ADDRESS":"北成路４０１號十樓之５","OBJECTID":567039},"geometry":{"x":168054.41000000015,"y":2546565.410000002}},{"attributes":{"ID":567067,"DIS_CODE":0,"TOWNNAME":"北區","LI":"成德里","LIN":"37鄰","STREET":"北成路","SECT":" ","MAREA":" ","LANE":" ","ALLEY":" ","HOUSE_NO":"４０１號十樓之６","E_COORD97":168054.41,"N_COORD97":2546565.4100000001,"ADDRESS":"北成路４０１號十樓之６","OBJECTID":567040},"geometry":{"x":168054.41000000015,"y":2546565.410000002}},{"attributes":{"ID":567068,"DIS_CODE":0,"TOWNNAME":"北區","LI":"成德里","LIN":"37鄰","STREET":"北成路","SECT":" ","MAREA":" ","LANE":" ","ALLEY":" ","HOUSE_NO":"４０１號十樓之７","E_COORD97":168054.41,"N_COORD97":2546565.4100000001,"ADDRESS":"北成路４０１號十樓之７","OBJECTID":567041},"geometry":{"x":168054.41000000015,"y":2546565.410000002}},{"attributes":{"ID":567069,"DIS_CODE":0,"TOWNNAME":"北區","LI":"成德里","LIN":"37鄰","STREET":"北成路","SECT":" ","MAREA":" ","LANE":" ","ALLEY":" ","HOUSE_NO":"４０１號十樓之８","E_COORD97":168054.41,"N_COORD97":2546565.4100000001,"ADDRESS":"北成路４０１號十樓之８","OBJECTID":567042},"geometry":{"x":168054.41000000015,"y":2546565.410000002}},{"attributes":{"ID":567070,"DIS_CODE":0,"TOWNNAME":"北區","LI":"成德里","LIN":"37鄰","STREET":"北成路","SECT":" ","MAREA":" ","LANE":" ","ALLEY":" ","HOUSE_NO":"４０１號十樓之９","E_COORD97":168054.41,"N_COORD97":2546565.4100000001,"ADDRESS":"北成路４０１號十樓之９","OBJECTID":567043},"geometry":{"x":168054.41000000015,"y":2546565.410000002}},{"attributes":{"ID":567071,"DIS_CODE":0,"TOWNNAME":"北區","LI":"成德里","LIN":"37鄰","STREET":"北成路","SECT":" ","MAREA":" ","LANE":" ","ALLEY":" ","HOUSE_NO":"４０１號十樓之１０","E_COORD97":168054.41,"N_COORD97":2546565.4100000001,"ADDRESS":"北成路４０１號十樓之１０","OBJECTID":567044},"geometry":{"x":168054.41000000015,"y":2546565.410000002}},{"attributes":{"ID":567072,"DIS_CODE":0,"TOWNNAME":"北區","LI":"成德里","LIN":"37鄰","STREET":"北成路","SECT":" ","MAREA":" ","LANE":" ","ALLEY":" ","HOUSE_NO":"４０１號十樓之１１","E_COORD97":168054.41,"N_COORD97":2546565.4100000001,"ADDRESS":"北成路４０１號十樓之１１","OBJECTID":567045},"geometry":{"x":168054.41000000015,"y":2546565.410000002}},{"attributes":{"ID":567073,"DIS_CODE":0,"TOWNNAME":"北區","LI":"成德里","LIN":"37鄰","STREET":"北成路","SECT":" ","MAREA":" ","LANE":" ","ALLEY":" ","HOUSE_NO":"４０１號十樓之１２","E_COORD97":168054.41,"N_COORD97":2546565.4100000001,"ADDRESS":"北成路４０１號十樓之１２","OBJECTID":567046},"geometry":{"x":168054.41000000015,"y":2546565.410000002}},{"attributes":{"ID":567074,"DIS_CODE":0,"TOWNNAME":"北區","LI":"成德里","LIN":"37鄰","STREET":"北成路","SECT":" ","MAREA":" ","LANE":" ","ALLEY":" ","HOUSE_NO":"４０１號十樓之１３","E_COORD97":168054.41,"N_COORD97":2546565.4100000001,"ADDRESS":"北成路４０１號十樓之１３","OBJECTID":567047},"geometry":{"x":168054.41000000015,"y":2546565.410000002}},{"attributes":{"ID":567075,"DIS_CODE":0,"TOWNNAME":"北區","LI":"成德里","LIN":"37鄰","STREET":"北成路","SECT":" ","MAREA":" ","LANE":" ","ALLEY":" ","HOUSE_NO":"４０１號十一樓之１","E_COORD97":168054.41,"N_COORD97":2546565.4100000001,"ADDRESS":"北成路４０１號十一樓之１","OBJECTID":567048},"geometry":{"x":168054.41000000015,"y":2546565.410000002}},{"attributes":{"ID":567076,"DIS_CODE":0,"TOWNNAME":"北區","LI":"成德里","LIN":"37鄰","STREET":"北成路","SECT":" ","MAREA":" ","LANE":" ","ALLEY":" ","HOUSE_NO":"４０１號十一樓之２","E_COORD97":168054.41,"N_COORD97":2546565.4100000001,"ADDRESS":"北成路４０１號十一樓之２","OBJECTID":567049},"geometry":{"x":168054.41000000015,"y":2546565.410000002}},{"attributes":{"ID":567077,"DIS_CODE":0,"TOWNNAME":"北區","LI":"成德里","LIN":"37鄰","STREET":"北成路","SECT":" ","MAREA":" ","LANE":" ","ALLEY":" ","HOUSE_NO":"４０１號十一樓之３","E_COORD97":168054.41,"N_COORD97":2546565.4100000001,"ADDRESS":"北成路４０１號十一樓之３","OBJECTID":567050},"geometry":{"x":168054.41000000015,"y":2546565.410000002}},{"attributes":{"ID":567078,"DIS_CODE":0,"TOWNNAME":"北區","LI":"成德里","LIN":"37鄰","STREET":"北成路","SECT":" ","MAREA":" ","LANE":" ","ALLEY":" ","HOUSE_NO":"４０１號十一樓之５","E_COORD97":168054.41,"N_COORD97":2546565.4100000001,"ADDRESS":"北成路４０１號十一樓之５","OBJECTID":567051},"geometry":{"x":168054.41000000015,"y":2546565.410000002}},{"attributes":{"ID":567079,"DIS_CODE":0,"TOWNNAME":"北區","LI":"成德里","LIN":"37鄰","STREET":"北成路","SECT":" ","MAREA":" ","LANE":" ","ALLEY":" ","HOUSE_NO":"４０１號十一樓之６","E_COORD97":168054.41,"N_COORD97":2546565.4100000001,"ADDRESS":"北成路４０１號十一樓之６","OBJECTID":567052},"geometry":{"x":168054.41000000015,"y":2546565.410000002}},{"attributes":{"ID":567080,"DIS_CODE":0,"TOWNNAME":"北區","LI":"成德里","LIN":"37鄰","STREET":"北成路","SECT":" ","MAREA":" ","LANE":" ","ALLEY":" ","HOUSE_NO":"４０１號十四樓之９","E_COORD97":168054.41,"N_COORD97":2546565.4100000001,"ADDRESS":"北成路４０１號十四樓之９","OBJECTID":567053},"geometry":{"x":168054.41000000015,"y":2546565.410000002}},{"attributes":{"ID":567081,"DIS_CODE":0,"TOWNNAME":"北區","LI":"成德里","LIN":"37鄰","STREET":"北成路","SECT":" ","MAREA":" ","LANE":" ","ALLEY":" ","HOUSE_NO":"４０１號十四樓之１０","E_COORD97":168054.41,"N_COORD97":2546565.4100000001,"ADDRESS":"北成路４０１號十四樓之１０","OBJECTID":567054},"geometry":{"x":168054.41000000015,"y":2546565.410000002}},{"attributes":{"ID":567082,"DIS_CODE":0,"TOWNNAME":"北區","LI":"成德里","LIN":"37鄰","STREET":"北成路","SECT":" ","MAREA":" ","LANE":" ","ALLEY":" ","HOUSE_NO":"４０１號十四樓之１１","E_COORD97":168054.41,"N_COORD97":2546565.4100000001,"ADDRESS":"北成路４０１號十四樓之１１","OBJECTID":567055},"geometry":{"x":168054.41000000015,"y":2546565.410000002}},{"attributes":{"ID":567083,"DIS_CODE":0,"TOWNNAME":"北區","LI":"成德里","LIN":"37鄰","STREET":"北成路","SECT":" ","MAREA":" ","LANE":" ","ALLEY":" ","HOUSE_NO":"４０１號十四樓之１２","E_COORD97":168054.41,"N_COORD97":2546565.4100000001,"ADDRESS":"北成路４０１號十四樓之１２","OBJECTID":567056},"geometry":{"x":168054.41000000015,"y":2546565.410000002}},{"attributes":{"ID":567084,"DIS_CODE":0,"TOWNNAME":"北區","LI":"成德里","LIN":"37鄰","STREET":"北成路","SECT":" ","MAREA":" ","LANE":" ","ALLEY":" ","HOUSE_NO":"４０１號十四樓之１３","E_COORD97":168054.41,"N_COORD97":2546565.4100000001,"ADDRESS":"北成路４０１號十四樓之１３","OBJECTID":567057},"geometry":{"x":168054.41000000015,"y":2546565.410000002}},{"attributes":{"ID":567085,"DIS_CODE":0,"TOWNNAME":"北區","LI":"成德里","LIN":"37鄰","STREET":"北成路","SECT":" ","MAREA":" ","LANE":" ","ALLEY":" ","HOUSE_NO":"４０１號十一樓之７","E_COORD97":168054.41,"N_COORD97":2546565.4100000001,"ADDRESS":"北成路４０１號十一樓之７","OBJECTID":567058},"geometry":{"x":168054.41000000015,"y":2546565.410000002}},{"attributes":{"ID":567086,"DIS_CODE":0,"TOWNNAME":"北區","LI":"成德里","LIN":"37鄰","STREET":"北成路","SECT":" ","MAREA":" ","LANE":" ","ALLEY":" ","HOUSE_NO":"４０１號十一樓之８","E_COORD97":168054.41,"N_COORD97":2546565.4100000001,"ADDRESS":"北成路４０１號十一樓之８","OBJECTID":567059},"geometry":{"x":168054.41000000015,"y":2546565.410000002}},{"attributes":{"ID":567087,"DIS_CODE":0,"TOWNNAME":"北區","LI":"成德里","LIN":"37鄰","STREET":"北成路","SECT":" ","MAREA":" ","LANE":" ","ALLEY":" ","HOUSE_NO":"４０１號十一樓之９","E_COORD97":168054.41,"N_COORD97":2546565.4100000001,"ADDRESS":"北成路４０１號十一樓之９","OBJECTID":567060},"geometry":{"x":168054.41000000015,"y":2546565.410000002}},{"attributes":{"ID":567088,"DIS_CODE":0,"TOWNNAME":"永康區","LI":"龍潭里","LIN":"34鄰","STREET":"龍埔街","SECT":" ","MAREA":" ","LANE":" ","ALLEY":" ","HOUSE_NO":"１５５號","E_COORD97":174505.32999999999,"N_COORD97":2548237.77,"ADDRESS":"龍埔街１５５號","OBJECTID":567061},"geometry":{"x":174505.33000000194,"y":2548237.7700000014}},{"attributes":{"ID":567089,"DIS_CODE":0,"TOWNNAME":"永康區","LI":"\u25A0行里","LIN":"10鄰","STREET":"新中街","SECT":" ","MAREA":" ","LANE":" ","ALLEY":" ","HOUSE_NO":"１２７號","E_COORD97":172242.09,"N_COORD97":2548568.0299999998,"ADDRESS":"新中街１２７號","OBJECTID":567062},"geometry":{"x":172242.09000000171,"y":2548568.0300000012}},{"attributes":{"ID":567090,"DIS_CODE":0,"TOWNNAME":"北區","LI":"成德里","LIN":"37鄰","STREET":"北成路","SECT":" ","MAREA":" ","LANE":" ","ALLEY":" ","HOUSE_NO":"４０１號十一樓之１０","E_COORD97":168054.41,"N_COORD97":2546565.4100000001,"ADDRESS":"北成路４０１號十一樓之１０","OBJECTID":567063},"geometry":{"x":168054.41000000015,"y":2546565.410000002}},{"attributes":{"ID":567091,"DIS_CODE":0,"TOWNNAME":"北區","LI":"成德里","LIN":"37鄰","STREET":"北成路","SECT":" ","MAREA":" ","LANE":" ","ALLEY":" ","HOUSE_NO":"４０１號十一樓之１１","E_COORD97":168054.41,"N_COORD97":2546565.4100000001,"ADDRESS":"北成路４０１號十一樓之１１","OBJECTID":567064},"geometry":{"x":168054.41000000015,"y":2546565.410000002}},{"attributes":{"ID":567092,"DIS_CODE":0,"TOWNNAME":"北區","LI":"成德里","LIN":"37鄰","STREET":"北成路","SECT":" ","MAREA":" ","LANE":" ","ALLEY":" ","HOUSE_NO":"４０１號十一樓之１２","E_COORD97":168054.41,"N_COORD97":2546565.4100000001,"ADDRESS":"北成路４０１號十一樓之１２","OBJECTID":567065},"geometry":{"x":168054.41000000015,"y":2546565.410000002}},{"attributes":{"ID":567093,"DIS_CODE":0,"TOWNNAME":"北區","LI":"成德里","LIN":"37鄰","STREET":"北成路","SECT":" ","MAREA":" ","LANE":" ","ALLEY":" ","HOUSE_NO":"４０１號十一樓之１３","E_COORD97":168054.41,"N_COORD97":2546565.4100000001,"ADDRESS":"北成路４０１號十一樓之１３","OBJECTID":567066},"geometry":{"x":168054.41000000015,"y":2546565.410000002}},{"attributes":{"ID":567094,"DIS_CODE":0,"TOWNNAME":"北區","LI":"成德里","LIN":"37鄰","STREET":"北成路","SECT":" ","MAREA":" ","LANE":" ","ALLEY":" ","HOUSE_NO":"４０１號十二樓之１","E_COORD97":168054.41,"N_COORD97":2546565.4100000001,"ADDRESS":"北成路４０１號十二樓之１","OBJECTID":567067},"geometry":{"x":168054.41000000015,"y":2546565.410000002}},{"attributes":{"ID":567095,"DIS_CODE":0,"TOWNNAME":"北區","LI":"成德里","LIN":"37鄰","STREET":"北成路","SECT":" ","MAREA":" ","LANE":" ","ALLEY":" ","HOUSE_NO":"４０１號十二樓之２","E_COORD97":168054.41,"N_COORD97":2546565.4100000001,"ADDRESS":"北成路４０１號十二樓之２","OBJECTID":567068},"geometry":{"x":168054.41000000015,"y":2546565.410000002}},{"attributes":{"ID":567096,"DIS_CODE":0,"TOWNNAME":"北區","LI":"成德里","LIN":"37鄰","STREET":"北成路","SECT":" ","MAREA":" ","LANE":" ","ALLEY":" ","HOUSE_NO":"４０１號十二樓之３","E_COORD97":168054.41,"N_COORD97":2546565.4100000001,"ADDRESS":"北成路４０１號十二樓之３","OBJECTID":567069},"geometry":{"x":168054.41000000015,"y":2546565.410000002}},{"attributes":{"ID":567097,"DIS_CODE":0,"TOWNNAME":"北區","LI":"成德里","LIN":"37鄰","STREET":"北成路","SECT":" ","MAREA":" ","LANE":" ","ALLEY":" ","HOUSE_NO":"４０１號十二樓之５","E_COORD97":168054.41,"N_COORD97":2546565.4100000001,"ADDRESS":"北成路４０１號十二樓之５","OBJECTID":567070},"geometry":{"x":168054.41000000015,"y":2546565.410000002}},{"attributes":{"ID":567098,"DIS_CODE":0,"TOWNNAME":"北區","LI":"成德里","LIN":"37鄰","STREET":"北成路","SECT":" ","MAREA":" ","LANE":" ","ALLEY":" ","HOUSE_NO":"４０１號十二樓之６","E_COORD97":168054.41,"N_COORD97":2546565.4100000001,"ADDRESS":"北成路４０１號十二樓之６","OBJECTID":567071},"geometry":{"x":168054.41000000015,"y":2546565.410000002}},{"attributes":{"ID":567099,"DIS_CODE":0,"TOWNNAME":"北區","LI":"成德里","LIN":"37鄰","STREET":"北成路","SECT":" ","MAREA":" ","LANE":" ","ALLEY":" ","HOUSE_NO":"４０１號十二樓之７","E_COORD97":168054.41,"N_COORD97":2546565.4100000001,"ADDRESS":"北成路４０１號十二樓之７","OBJECTID":567072},"geometry":{"x":168054.41000000015,"y":2546565.410000002}},{"attributes":{"ID":567100,"DIS_CODE":0,"TOWNNAME":"北區","LI":"成德里","LIN":"37鄰","STREET":"北成路","SECT":" ","MAREA":" ","LANE":" ","ALLEY":" ","HOUSE_NO":"４０１號十二樓之８","E_COORD97":168054.41,"N_COORD97":2546565.4100000001,"ADDRESS":"北成路４０１號十二樓之８","OBJECTID":567073},"geometry":{"x":168054.41000000015,"y":2546565.410000002}},{"attributes":{"ID":567101,"DIS_CODE":0,"TOWNNAME":"北區","LI":"成德里","LIN":"37鄰","STREET":"北成路","SECT":" ","MAREA":" ","LANE":" ","ALLEY":" ","HOUSE_NO":"４０１號十二樓之１０","E_COORD97":168054.41,"N_COORD97":2546565.4100000001,"ADDRESS":"北成路４０１號十二樓之１０","OBJECTID":567074},"geometry":{"x":168054.41000000015,"y":2546565.410000002}},{"attributes":{"ID":567102,"DIS_CODE":0,"TOWNNAME":"北區","LI":"成德里","LIN":"37鄰","STREET":"北成路","SECT":" ","MAREA":" ","LANE":" ","ALLEY":" ","HOUSE_NO":"４０１號十二樓之１１","E_COORD97":168054.41,"N_COORD97":2546565.4100000001,"ADDRESS":"北成路４０１號十二樓之１１","OBJECTID":567075},"geometry":{"x":168054.41000000015,"y":2546565.410000002}},{"attributes":{"ID":567103,"DIS_CODE":0,"TOWNNAME":"北區","LI":"成德里","LIN":"37鄰","STREET":"北成路","SECT":" ","MAREA":" ","LANE":" ","ALLEY":" ","HOUSE_NO":"４０１號十二樓之１２","E_COORD97":168054.41,"N_COORD97":2546565.4100000001,"ADDRESS":"北成路４０１號十二樓之１２","OBJECTID":567076},"geometry":{"x":168054.41000000015,"y":2546565.410000002}},{"attributes":{"ID":567104,"DIS_CODE":0,"TOWNNAME":"北區","LI":"成德里","LIN":"37鄰","STREET":"北成路","SECT":" ","MAREA":" ","LANE":" ","ALLEY":" ","HOUSE_NO":"４０１號十二樓之１３","E_COORD97":168054.41,"N_COORD97":2546565.4100000001,"ADDRESS":"北成路４０１號十二樓之１３","OBJECTID":567077},"geometry":{"x":168054.41000000015,"y":2546565.410000002}},{"attributes":{"ID":567105,"DIS_CODE":0,"TOWNNAME":"北區","LI":"成德里","LIN":"37鄰","STREET":"北成路","SECT":" ","MAREA":" ","LANE":" ","ALLEY":" ","HOUSE_NO":"４０１號十三樓之１","E_COORD97":168054.41,"N_COORD97":2546565.4100000001,"ADDRESS":"北成路４０１號十三樓之１","OBJECTID":567078},"geometry":{"x":168054.41000000015,"y":2546565.410000002}},{"attributes":{"ID":567106,"DIS_CODE":0,"TOWNNAME":"北區","LI":"成德里","LIN":"37鄰","STREET":"北成路","SECT":" ","MAREA":" ","LANE":" ","ALLEY":" ","HOUSE_NO":"４０１號十三樓之２","E_COORD97":168054.41,"N_COORD97":2546565.4100000001,"ADDRESS":"北成路４０１號十三樓之２","OBJECTID":567079},"geometry":{"x":168054.41000000015,"y":2546565.410000002}},{"attributes":{"ID":567107,"DIS_CODE":0,"TOWNNAME":"北區","LI":"成德里","LIN":"37鄰","STREET":"北成路","SECT":" ","MAREA":" ","LANE":" ","ALLEY":" ","HOUSE_NO":"４０１號十三樓之３","E_COORD97":168054.41,"N_COORD97":2546565.4100000001,"ADDRESS":"北成路４０１號十三樓之３","OBJECTID":567080},"geometry":{"x":168054.41000000015,"y":2546565.410000002}},{"attributes":{"ID":567108,"DIS_CODE":0,"TOWNNAME":"北區","LI":"成德里","LIN":"37鄰","STREET":"北成路","SECT":" ","MAREA":" ","LANE":" ","ALLEY":" ","HOUSE_NO":"４０１號十三樓之５","E_COORD97":168054.41,"N_COORD97":2546565.4100000001,"ADDRESS":"北成路４０１號十三樓之５","OBJECTID":567081},"geometry":{"x":168054.41000000015,"y":2546565.410000002}},{"attributes":{"ID":567109,"DIS_CODE":0,"TOWNNAME":"北區","LI":"成德里","LIN":"37鄰","STREET":"北成路","SECT":" ","MAREA":" ","LANE":" ","ALLEY":" ","HOUSE_NO":"４０１號十三樓之６","E_COORD97":168054.41,"N_COORD97":2546565.4100000001,"ADDRESS":"北成路４０１號十三樓之６","OBJECTID":567082},"geometry":{"x":168054.41000000015,"y":2546565.410000002}},{"attributes":{"ID":567110,"DIS_CODE":0,"TOWNNAME":"北區","LI":"成德里","LIN":"37鄰","STREET":"北成路","SECT":" ","MAREA":" ","LANE":" ","ALLEY":" ","HOUSE_NO":"４０１號十三樓之７","E_COORD97":168054.41,"N_COORD97":2546565.4100000001,"ADDRESS":"北成路４０１號十三樓之７","OBJECTID":567083},"geometry":{"x":168054.41000000015,"y":2546565.410000002}},{"attributes":{"ID":567111,"DIS_CODE":0,"TOWNNAME":"北區","LI":"成德里","LIN":"37鄰","STREET":"北成路","SECT":" ","MAREA":" ","LANE":" ","ALLEY":" ","HOUSE_NO":"４０１號十三樓之８","E_COORD97":168054.41,"N_COORD97":2546565.4100000001,"ADDRESS":"北成路４０１號十三樓之８","OBJECTID":567084},"geometry":{"x":168054.41000000015,"y":2546565.410000002}},{"attributes":{"ID":567112,"DIS_CODE":0,"TOWNNAME":"北區","LI":"成德里","LIN":"37鄰","STREET":"北成路","SECT":" ","MAREA":" ","LANE":" ","ALLEY":" ","HOUSE_NO":"４０１號十三樓之９","E_COORD97":168054.41,"N_COORD97":2546565.4100000001,"ADDRESS":"北成路４０１號十三樓之９","OBJECTID":567085},"geometry":{"x":168054.41000000015,"y":2546565.410000002}},{"attributes":{"ID":567113,"DIS_CODE":0,"TOWNNAME":"北區","LI":"成德里","LIN":"37鄰","STREET":"北成路","SECT":" ","MAREA":" ","LANE":" ","ALLEY":" ","HOUSE_NO":"４０１號十三樓之１０","E_COORD97":168054.41,"N_COORD97":2546565.4100000001,"ADDRESS":"北成路４０１號十三樓之１０","OBJECTID":567086},"geometry":{"x":168054.41000000015,"y":2546565.410000002}},{"attributes":{"ID":567114,"DIS_CODE":0,"TOWNNAME":"北區","LI":"成德里","LIN":"37鄰","STREET":"北成路","SECT":" ","MAREA":" ","LANE":" ","ALLEY":" ","HOUSE_NO":"４０１號十三樓之１１","E_COORD97":168054.41,"N_COORD97":2546565.4100000001,"ADDRESS":"北成路４０１號十三樓之１１","OBJECTID":567087},"geometry":{"x":168054.41000000015,"y":2546565.410000002}},{"attributes":{"ID":567115,"DIS_CODE":0,"TOWNNAME":"永康區","LI":"\u25A0行里","LIN":"4鄰","STREET":"新行街","SECT":" ","MAREA":" ","LANE":" ","ALLEY":" ","HOUSE_NO":"１８號","E_COORD97":172235.12,"N_COORD97":2548771.7400000002,"ADDRESS":"新行街１８號","OBJECTID":567088},"geometry":{"x":172235.12000000011,"y":2548771.7400000002}},{"attributes":{"ID":567116,"DIS_CODE":0,"TOWNNAME":"北區","LI":"成德里","LIN":"37鄰","STREET":"北成路","SECT":" ","MAREA":" ","LANE":" ","ALLEY":" ","HOUSE_NO":"４０１號十三樓之１２","E_COORD97":168054.41,"N_COORD97":2546565.4100000001,"ADDRESS":"北成路４０１號十三樓之１２","OBJECTID":567089},"geometry":{"x":168054.41000000015,"y":2546565.410000002}},{"attributes":{"ID":567117,"DIS_CODE":0,"TOWNNAME":"北區","LI":"成德里","LIN":"37鄰","STREET":"北成路","SECT":" ","MAREA":" ","LANE":" ","ALLEY":" ","HOUSE_NO":"４０１號十三樓之１３","E_COORD97":168054.41,"N_COORD97":2546565.4100000001,"ADDRESS":"北成路４０１號十三樓之１３","OBJECTID":567090},"geometry":{"x":168054.41000000015,"y":2546565.410000002}},{"attributes":{"ID":567118,"DIS_CODE":0,"TOWNNAME":"北區","LI":"成德里","LIN":"37鄰","STREET":"北成路","SECT":" ","MAREA":" ","LANE":" ","ALLEY":" ","HOUSE_NO":"４０１號十四樓之１","E_COORD97":168054.41,"N_COORD97":2546565.4100000001,"ADDRESS":"北成路４０１號十四樓之１","OBJECTID":567091},"geometry":{"x":168054.41000000015,"y":2546565.410000002}},{"attributes":{"ID":567119,"DIS_CODE":0,"TOWNNAME":"北區","LI":"成德里","LIN":"37鄰","STREET":"北成路","SECT":" ","MAREA":" ","LANE":" ","ALLEY":" ","HOUSE_NO":"４０１號十四樓之２","E_COORD97":168054.41,"N_COORD97":2546565.4100000001,"ADDRESS":"北成路４０１號十四樓之２","OBJECTID":567092},"geometry":{"x":168054.41000000015,"y":2546565.410000002}},{"attributes":{"ID":567120,"DIS_CODE":0,"TOWNNAME":"北區","LI":"成德里","LIN":"37鄰","STREET":"北成路","SECT":" ","MAREA":" ","LANE":" ","ALLEY":" ","HOUSE_NO":"４０１號十四樓之３","E_COORD97":168054.41,"N_COORD97":2546565.4100000001,"ADDRESS":"北成路４０１號十四樓之３","OBJECTID":567093},"geometry":{"x":168054.41000000015,"y":2546565.410000002}},{"attributes":{"ID":567121,"DIS_CODE":0,"TOWNNAME":"北區","LI":"成德里","LIN":"37鄰","STREET":"北成路","SECT":" ","MAREA":" ","LANE":" ","ALLEY":" ","HOUSE_NO":"４０１號十四樓之５","E_COORD97":168054.41,"N_COORD97":2546565.4100000001,"ADDRESS":"北成路４０１號十四樓之５","OBJECTID":567094},"geometry":{"x":168054.41000000015,"y":2546565.410000002}},{"attributes":{"ID":567122,"DIS_CODE":0,"TOWNNAME":"北區","LI":"成德里","LIN":"37鄰","STREET":"北成路","SECT":" ","MAREA":" ","LANE":" ","ALLEY":" ","HOUSE_NO":"４０１號十四樓之６","E_COORD97":168054.41,"N_COORD97":2546565.4100000001,"ADDRESS":"北成路４０１號十四樓之６","OBJECTID":567095},"geometry":{"x":168054.41000000015,"y":2546565.410000002}},{"attributes":{"ID":567123,"DIS_CODE":0,"TOWNNAME":"北區","LI":"成德里","LIN":"37鄰","STREET":"北成路","SECT":" ","MAREA":" ","LANE":" ","ALLEY":" ","HOUSE_NO":"４０１號十四樓之７","E_COORD97":168054.41,"N_COORD97":2546565.4100000001,"ADDRESS":"北成路４０１號十四樓之７","OBJECTID":567096},"geometry":{"x":168054.41000000015,"y":2546565.410000002}},{"attributes":{"ID":567124,"DIS_CODE":0,"TOWNNAME":"北區","LI":"成德里","LIN":"37鄰","STREET":"北成路","SECT":" ","MAREA":" ","LANE":" ","ALLEY":" ","HOUSE_NO":"４０１號十四樓之８","E_COORD97":168054.41,"N_COORD97":2546565.4100000001,"ADDRESS":"北成路４０１號十四樓之８","OBJECTID":567097},"geometry":{"x":168054.41000000015,"y":2546565.410000002}},{"attributes":{"ID":567125,"DIS_CODE":0,"TOWNNAME":"新營區","LI":"民榮里","LIN":"37鄰","STREET":"太子路","SECT":" ","MAREA":" ","LANE":" ","ALLEY":" ","HOUSE_NO":"３２之１０號四樓","E_COORD97":178263.35000000001,"N_COORD97":2578174.6699999999,"ADDRESS":"太子路３２之１０號四樓","OBJECTID":567098},"geometry":{"x":178263.35000000056,"y":2578174.6700000018}},{"attributes":{"ID":567126,"DIS_CODE":0,"TOWNNAME":"新營區","LI":"民榮里","LIN":"37鄰","STREET":"太子路","SECT":" ","MAREA":" ","LANE":" ","ALLEY":" ","HOUSE_NO":"３２之１３號十一樓","E_COORD97":178264.60000000001,"N_COORD97":2578174.6699999999,"ADDRESS":"太子路３２之１３號十一樓","OBJECTID":567099},"geometry":{"x":178264.5999999987,"y":2578174.6700000018}},{"attributes":{"ID":567127,"DIS_CODE":0,"TOWNNAME":"新營區","LI":"民榮里","LIN":"37鄰","STREET":"太子路","SECT":" ","MAREA":" ","LANE":" ","ALLEY":" ","HOUSE_NO":"３２號之１１三樓","E_COORD97":178263.35000000001,"N_COORD97":2578174.6699999999,"ADDRESS":"太子路３２號之１１三樓","OBJECTID":567100},"geometry":{"x":178263.35000000056,"y":2578174.6700000018}},{"attributes":{"ID":567128,"DIS_CODE":0,"TOWNNAME":"新營區","LI":"民榮里","LIN":"37鄰","STREET":"太子路","SECT":" ","MAREA":" ","LANE":" ","ALLEY":" ","HOUSE_NO":"３２之９號十樓","E_COORD97":178262.10000000001,"N_COORD97":2578174.6699999999,"ADDRESS":"太子路３２之９號十樓","OBJECTID":567101},"geometry":{"x":178262.10000000056,"y":2578174.6700000018}},{"attributes":{"ID":567129,"DIS_CODE":0,"TOWNNAME":"新營區","LI":"民榮里","LIN":"37鄰","STREET":"太子路","SECT":" ","MAREA":" ","LANE":" ","ALLEY":" ","HOUSE_NO":"３２之８號九樓","E_COORD97":178262.10000000001,"N_COORD97":2578174.6699999999,"ADDRESS":"太子路３２之８號九樓","OBJECTID":567102},"geometry":{"x":178262.10000000056,"y":2578174.6700000018}},{"attributes":{"ID":567130,"DIS_CODE":0,"TOWNNAME":"新營區","LI":"民榮里","LIN":"37鄰","STREET":"太子路","SECT":" ","MAREA":" ","LANE":" ","ALLEY":" ","HOUSE_NO":"３２之１２號四樓","E_COORD97":178263.35000000001,"N_COORD97":2578174.6699999999,"ADDRESS":"太子路３２之１２號四樓","OBJECTID":567103},"geometry":{"x":178263.35000000056,"y":2578174.6700000018}},{"attributes":{"ID":567131,"DIS_CODE":0,"TOWNNAME":"新營區","LI":"民榮里","LIN":"37鄰","STREET":"太子路","SECT":" ","MAREA":" ","LANE":" ","ALLEY":" ","HOUSE_NO":"３２號之８二樓","E_COORD97":178262.10000000001,"N_COORD97":2578174.6699999999,"ADDRESS":"太子路３２號之８二樓","OBJECTID":567104},"geometry":{"x":178262.10000000056,"y":2578174.6700000018}},{"attributes":{"ID":567132,"DIS_CODE":0,"TOWNNAME":"新營區","LI":"民榮里","LIN":"37鄰","STREET":"太子路","SECT":" ","MAREA":" ","LANE":" ","ALLEY":" ","HOUSE_NO":"３２之１１號七樓","E_COORD97":178263.35000000001,"N_COORD97":2578174.6699999999,"ADDRESS":"太子路３２之１１號七樓","OBJECTID":567105},"geometry":{"x":178263.35000000056,"y":2578174.6700000018}},{"attributes":{"ID":567133,"DIS_CODE":0,"TOWNNAME":"新營區","LI":"民榮里","LIN":"37鄰","STREET":"太子路","SECT":" ","MAREA":" ","LANE":" ","ALLEY":" ","HOUSE_NO":"３２號之６八樓","E_COORD97":178262.10000000001,"N_COORD97":2578174.6699999999,"ADDRESS":"太子路３２號之６八樓","OBJECTID":567106},"geometry":{"x":178262.10000000056,"y":2578174.6700000018}},{"attributes":{"ID":567134,"DIS_CODE":0,"TOWNNAME":"新營區","LI":"民榮里","LIN":"37鄰","STREET":"太子路","SECT":" ","MAREA":" ","LANE":" ","ALLEY":" ","HOUSE_NO":"３２號之７五樓","E_COORD97":178262.10000000001,"N_COORD97":2578174.6699999999,"ADDRESS":"太子路３２號之７五樓","OBJECTID":567107},"geometry":{"x":178262.10000000056,"y":2578174.6700000018}},{"attributes":{"ID":567135,"DIS_CODE":0,"TOWNNAME":"新營區","LI":"民榮里","LIN":"37鄰","STREET":"太子路","SECT":" ","MAREA":" ","LANE":" ","ALLEY":" ","HOUSE_NO":"３２之１２號二樓","E_COORD97":178263.35000000001,"N_COORD97":2578174.6699999999,"ADDRESS":"太子路３２之１２號二樓","OBJECTID":567108},"geometry":{"x":178263.35000000056,"y":2578174.6700000018}},{"attributes":{"ID":567136,"DIS_CODE":0,"TOWNNAME":"新營區","LI":"民榮里","LIN":"37鄰","STREET":"太子路","SECT":" ","MAREA":" ","LANE":" ","ALLEY":" ","HOUSE_NO":"３２之１２號七樓","E_COORD97":178263.35000000001,"N_COORD97":2578174.6699999999,"ADDRESS":"太子路３２之１２號七樓","OBJECTID":567109},"geometry":{"x":178263.35000000056,"y":2578174.6700000018}},{"attributes":{"ID":567137,"DIS_CODE":0,"TOWNNAME":"新營區","LI":"民榮里","LIN":"37鄰","STREET":"太子路","SECT":" ","MAREA":" ","LANE":" ","ALLEY":" ","HOUSE_NO":"３２之６號五樓","E_COORD97":178262.10000000001,"N_COORD97":2578174.6699999999,"ADDRESS":"太子路３２之６號五樓","OBJECTID":567110},"geometry":{"x":178262.10000000056,"y":2578174.6700000018}},{"attributes":{"ID":567138,"DIS_CODE":0,"TOWNNAME":"新營區","LI":"民榮里","LIN":"37鄰","STREET":"太子路","SECT":" ","MAREA":" ","LANE":" ","ALLEY":" ","HOUSE_NO":"３２之１１號六樓","E_COORD97":178263.35000000001,"N_COORD97":2578174.6699999999,"ADDRESS":"太子路３２之１１號六樓","OBJECTID":567111},"geometry":{"x":178263.35000000056,"y":2578174.6700000018}},{"attributes":{"ID":567139,"DIS_CODE":0,"TOWNNAME":"新營區","LI":"民榮里","LIN":"37鄰","STREET":"太子路","SECT":" ","MAREA":" ","LANE":" ","ALLEY":" ","HOUSE_NO":"３２之６號二樓","E_COORD97":178262.10000000001,"N_COORD97":2578174.6699999999,"ADDRESS":"太子路３２之６號二樓","OBJECTID":567112},"geometry":{"x":178262.10000000056,"y":2578174.6700000018}},{"attributes":{"ID":567140,"DIS_CODE":0,"TOWNNAME":"新營區","LI":"民榮里","LIN":"37鄰","STREET":"太子路","SECT":" ","MAREA":" ","LANE":" ","ALLEY":" ","HOUSE_NO":"３２之７號九樓","E_COORD97":178262.10000000001,"N_COORD97":2578174.6699999999,"ADDRESS":"太子路３２之７號九樓","OBJECTID":567113},"geometry":{"x":178262.10000000056,"y":2578174.6700000018}},{"attributes":{"ID":567141,"DIS_CODE":0,"TOWNNAME":"新營區","LI":"民榮里","LIN":"37鄰","STREET":"太子路","SECT":" ","MAREA":" ","LANE":" ","ALLEY":" ","HOUSE_NO":"３２之１３號四樓","E_COORD97":178263.35000000001,"N_COORD97":2578174.6699999999,"ADDRESS":"太子路３２之１３號四樓","OBJECTID":567114},"geometry":{"x":178263.35000000056,"y":2578174.6700000018}},{"attributes":{"ID":567142,"DIS_CODE":0,"TOWNNAME":"新營區","LI":"民榮里","LIN":"37鄰","STREET":"太子路","SECT":" ","MAREA":" ","LANE":" ","ALLEY":" ","HOUSE_NO":"３２號之７七樓","E_COORD97":178262.10000000001,"N_COORD97":2578174.6699999999,"ADDRESS":"太子路３２號之７七樓","OBJECTID":567115},"geometry":{"x":178262.10000000056,"y":2578174.6700000018}},{"attributes":{"ID":567143,"DIS_CODE":0,"TOWNNAME":"永康區","LI":"蔦松里","LIN":"4鄰","STREET":"蔦松二街","SECT":" ","MAREA":" ","LANE":" ","ALLEY":" ","HOUSE_NO":"１３４號","E_COORD97":173815.48999999999,"N_COORD97":2549390.8100000001,"ADDRESS":"蔦松二街１３４號","OBJECTID":567116},"geometry":{"x":173815.49000000022,"y":2549390.8100000024}},{"attributes":{"ID":567144,"DIS_CODE":0,"TOWNNAME":"永康區","LI":"蔦松里","LIN":"1鄰","STREET":"蔦松二街","SECT":" ","MAREA":" ","LANE":" ","ALLEY":" ","HOUSE_NO":"４３號","E_COORD97":173671.38,"N_COORD97":2549232.5,"ADDRESS":"蔦松二街４３號","OBJECTID":567117},"geometry":{"x":173671.38000000082,"y":2549232.5000000019}},{"attributes":{"ID":567145,"DIS_CODE":0,"TOWNNAME":"永康區","LI":"蔦松里","LIN":"1鄰","STREET":"蔦松二街","SECT":" ","MAREA":" ","LANE":" ","ALLEY":" ","HOUSE_NO":"４４號","E_COORD97":173669.12,"N_COORD97":2549185.9399999999,"ADDRESS":"蔦松二街４４號","OBJECTID":567118},"geometry":{"x":173669.12000000011,"y":2549185.9400000013}},{"attributes":{"ID":567146,"DIS_CODE":0,"TOWNNAME":"永康區","LI":"龍潭里","LIN":"44鄰","STREET":"永平街","SECT":" ","MAREA":" ","LANE":" ","ALLEY":" ","HOUSE_NO":"２７６之２號","E_COORD97":174682.84,"N_COORD97":2547014.79,"ADDRESS":"永平街２７６之２號","OBJECTID":567119},"geometry":{"x":174682.83999999985,"y":2547014.7899999972}},{"attributes":{"ID":567147,"DIS_CODE":0,"TOWNNAME":"新營區","LI":"民榮里","LIN":"37鄰","STREET":"太子路","SECT":" ","MAREA":" ","LANE":" ","ALLEY":" ","HOUSE_NO":"３２號之６六樓","E_COORD97":178262.10000000001,"N_COORD97":2578174.6699999999,"ADDRESS":"太子路３２號之６六樓","OBJECTID":567120},"geometry":{"x":178262.10000000056,"y":2578174.6700000018}},{"attributes":{"ID":567148,"DIS_CODE":0,"TOWNNAME":"新營區","LI":"民榮里","LIN":"37鄰","STREET":"太子路","SECT":" ","MAREA":" ","LANE":" ","ALLEY":" ","HOUSE_NO":"３２之１２號五樓","E_COORD97":178263.35000000001,"N_COORD97":2578174.6699999999,"ADDRESS":"太子路３２之１２號五樓","OBJECTID":567121},"geometry":{"x":178263.35000000056,"y":2578174.6700000018}},{"attributes":{"ID":567149,"DIS_CODE":0,"TOWNNAME":"新營區","LI":"民榮里","LIN":"37鄰","STREET":"太子路","SECT":" ","MAREA":" ","LANE":" ","ALLEY":" ","HOUSE_NO":"３２號之８四樓","E_COORD97":178262.10000000001,"N_COORD97":2578174.6699999999,"ADDRESS":"太子路３２號之８四樓","OBJECTID":567122},"geometry":{"x":178262.10000000056,"y":2578174.6700000018}},{"attributes":{"ID":567150,"DIS_CODE":0,"TOWNNAME":"新營區","LI":"民榮里","LIN":"37鄰","STREET":"太子路","SECT":" ","MAREA":" ","LANE":" ","ALLEY":" ","HOUSE_NO":"３２號之７三樓","E_COORD97":178262.10000000001,"N_COORD97":2578174.6699999999,"ADDRESS":"太子路３２號之７三樓","OBJECTID":567123},"geometry":{"x":178262.10000000056,"y":2578174.6700000018}},{"attributes":{"ID":567151,"DIS_CODE":0,"TOWNNAME":"新營區","LI":"民榮里","LIN":"37鄰","STREET":"太子路","SECT":" ","MAREA":" ","LANE":" ","ALLEY":" ","HOUSE_NO":"３２號之９十一樓","E_COORD97":178263.35000000001,"N_COORD97":2578174.6699999999,"ADDRESS":"太子路３２號之９十一樓","OBJECTID":567124},"geometry":{"x":178263.35000000056,"y":2578174.6700000018}},{"attributes":{"ID":567152,"DIS_CODE":0,"TOWNNAME":"新營區","LI":"民榮里","LIN":"37鄰","STREET":"太子路","SECT":" ","MAREA":" ","LANE":" ","ALLEY":" ","HOUSE_NO":"３２號之６十樓","E_COORD97":178262.10000000001,"N_COORD97":2578174.6699999999,"ADDRESS":"太子路３２號之６十樓","OBJECTID":567125},"geometry":{"x":178262.10000000056,"y":2578174.6700000018}},{"attributes":{"ID":567153,"DIS_CODE":0,"TOWNNAME":"新營區","LI":"民榮里","LIN":"37鄰","STREET":"太子路","SECT":" ","MAREA":" ","LANE":" ","ALLEY":" ","HOUSE_NO":"３２之７號六樓","E_COORD97":178262.10000000001,"N_COORD97":2578174.6699999999,"ADDRESS":"太子路３２之７號六樓","OBJECTID":567126},"geometry":{"x":178262.10000000056,"y":2578174.6700000018}},{"attributes":{"ID":567154,"DIS_CODE":0,"TOWNNAME":"新營區","LI":"民榮里","LIN":"37鄰","STREET":"太子路","SECT":" ","MAREA":" ","LANE":" ","ALLEY":" ","HOUSE_NO":"３２之１３號三樓","E_COORD97":178263.35000000001,"N_COORD97":2578174.6699999999,"ADDRESS":"太子路３２之１３號三樓","OBJECTID":567127},"geometry":{"x":178263.35000000056,"y":2578174.6700000018}},{"attributes":{"ID":567155,"DIS_CODE":0,"TOWNNAME":"新營區","LI":"民榮里","LIN":"37鄰","STREET":"太子路","SECT":" ","MAREA":" ","LANE":" ","ALLEY":" ","HOUSE_NO":"３２號之７二樓","E_COORD97":178262.10000000001,"N_COORD97":2578174.6699999999,"ADDRESS":"太子路３２號之７二樓","OBJECTID":567128},"geometry":{"x":178262.10000000056,"y":2578174.6700000018}},{"attributes":{"ID":567156,"DIS_CODE":0,"TOWNNAME":"新營區","LI":"民榮里","LIN":"37鄰","STREET":"太子路","SECT":" ","MAREA":" ","LANE":" ","ALLEY":" ","HOUSE_NO":"３２之１０號十一樓","E_COORD97":178264.60000000001,"N_COORD97":2578174.6699999999,"ADDRESS":"太子路３２之１０號十一樓","OBJECTID":567129},"geometry":{"x":178264.5999999987,"y":2578174.6700000018}},{"attributes":{"ID":567157,"DIS_CODE":0,"TOWNNAME":"新營區","LI":"民榮里","LIN":"37鄰","STREET":"太子路","SECT":" ","MAREA":" ","LANE":" ","ALLEY":" ","HOUSE_NO":"３２之１０號九樓","E_COORD97":178263.35000000001,"N_COORD97":2578174.6699999999,"ADDRESS":"太子路３２之１０號九樓","OBJECTID":567130},"geometry":{"x":178263.35000000056,"y":2578174.6700000018}},{"attributes":{"ID":567158,"DIS_CODE":0,"TOWNNAME":"新營區","LI":"民榮里","LIN":"37鄰","STREET":"太子路","SECT":" ","MAREA":" ","LANE":" ","ALLEY":" ","HOUSE_NO":"３２號之９七樓","E_COORD97":178262.10000000001,"N_COORD97":2578174.6699999999,"ADDRESS":"太子路３２號之９七樓","OBJECTID":567131},"geometry":{"x":178262.10000000056,"y":2578174.6700000018}},{"attributes":{"ID":567159,"DIS_CODE":0,"TOWNNAME":"永康區","LI":"龍潭里","LIN":"5鄰","STREET":"龍埔街","SECT":" ","MAREA":" ","LANE":" ","ALLEY":" ","HOUSE_NO":"４７號","E_COORD97":174753.32000000001,"N_COORD97":2548202.1600000001,"ADDRESS":"龍埔街４７號","OBJECTID":567132},"geometry":{"x":174753.32000000216,"y":2548202.1600000001}},{"attributes":{"ID":567160,"DIS_CODE":0,"TOWNNAME":"新營區","LI":"民榮里","LIN":"37鄰","STREET":"太子路","SECT":" ","MAREA":" ","LANE":" ","ALLEY":" ","HOUSE_NO":"３２之１３號十樓","E_COORD97":178263.35000000001,"N_COORD97":2578174.6699999999,"ADDRESS":"太子路３２之１３號十樓","OBJECTID":567133},"geometry":{"x":178263.35000000056,"y":2578174.6700000018}},{"attributes":{"ID":567161,"DIS_CODE":0,"TOWNNAME":"新營區","LI":"民榮里","LIN":"37鄰","STREET":"太子路","SECT":" ","MAREA":" ","LANE":" ","ALLEY":" ","HOUSE_NO":"３２號之９三樓","E_COORD97":178262.10000000001,"N_COORD97":2578174.6699999999,"ADDRESS":"太子路３２號之９三樓","OBJECTID":567134},"geometry":{"x":178262.10000000056,"y":2578174.6700000018}},{"attributes":{"ID":567162,"DIS_CODE":0,"TOWNNAME":"新營區","LI":"民榮里","LIN":"37鄰","STREET":"太子路","SECT":" ","MAREA":" ","LANE":" ","ALLEY":" ","HOUSE_NO":"３２之１０號五樓","E_COORD97":178263.35000000001,"N_COORD97":2578174.6699999999,"ADDRESS":"太子路３２之１０號五樓","OBJECTID":567135},"geometry":{"x":178263.35000000056,"y":2578174.6700000018}},{"attributes":{"ID":567163,"DIS_CODE":0,"TOWNNAME":"新營區","LI":"民榮里","LIN":"37鄰","STREET":"太子路","SECT":" ","MAREA":" ","LANE":" ","ALLEY":" ","HOUSE_NO":"３２之１１號十一樓","E_COORD97":178264.60000000001,"N_COORD97":2578174.6699999999,"ADDRESS":"太子路３２之１１號十一樓","OBJECTID":567136},"geometry":{"x":178264.5999999987,"y":2578174.6700000018}},{"attributes":{"ID":567164,"DIS_CODE":0,"TOWNNAME":"新營區","LI":"民榮里","LIN":"37鄰","STREET":"太子路","SECT":" ","MAREA":" ","LANE":" ","ALLEY":" ","HOUSE_NO":"３２號之８七樓","E_COORD97":178262.10000000001,"N_COORD97":2578174.6699999999,"ADDRESS":"太子路３２號之８七樓","OBJECTID":567137},"geometry":{"x":178262.10000000056,"y":2578174.6700000018}},{"attributes":{"ID":567165,"DIS_CODE":0,"TOWNNAME":"新營區","LI":"民榮里","LIN":"37鄰","STREET":"太子路","SECT":" ","MAREA":" ","LANE":" ","ALLEY":" ","HOUSE_NO":"３２號之８六樓","E_COORD97":178262.10000000001,"N_COORD97":2578174.6699999999,"ADDRESS":"太子路３２號之８六樓","OBJECTID":567138},"geometry":{"x":178262.10000000056,"y":2578174.6700000018}},{"attributes":{"ID":567166,"DIS_CODE":0,"TOWNNAME":"新營區","LI":"民榮里","LIN":"37鄰","STREET":"太子路","SECT":" ","MAREA":" ","LANE":" ","ALLEY":" ","HOUSE_NO":"３２之１１號四樓","E_COORD97":178263.35000000001,"N_COORD97":2578174.6699999999,"ADDRESS":"太子路３２之１１號四樓","OBJECTID":567139},"geometry":{"x":178263.35000000056,"y":2578174.6700000018}},{"attributes":{"ID":567167,"DIS_CODE":0,"TOWNNAME":"新營區","LI":"民榮里","LIN":"37鄰","STREET":"太子路","SECT":" ","MAREA":" ","LANE":" ","ALLEY":" ","HOUSE_NO":"３２號之８十樓","E_COORD97":178262.10000000001,"N_COORD97":2578174.6699999999,"ADDRESS":"太子路３２號之８十樓","OBJECTID":567140},"geometry":{"x":178262.10000000056,"y":2578174.6700000018}},{"attributes":{"ID":567168,"DIS_CODE":0,"TOWNNAME":"新營區","LI":"民榮里","LIN":"37鄰","STREET":"太子路","SECT":" ","MAREA":" ","LANE":" ","ALLEY":" ","HOUSE_NO":"３２之１１號十樓","E_COORD97":178263.35000000001,"N_COORD97":2578174.6699999999,"ADDRESS":"太子路３２之１１號十樓","OBJECTID":567141},"geometry":{"x":178263.35000000056,"y":2578174.6700000018}},{"attributes":{"ID":567169,"DIS_CODE":0,"TOWNNAME":"新營區","LI":"民榮里","LIN":"37鄰","STREET":"太子路","SECT":" ","MAREA":" ","LANE":" ","ALLEY":" ","HOUSE_NO":"３２之９號五樓","E_COORD97":178262.10000000001,"N_COORD97":2578174.6699999999,"ADDRESS":"太子路３２之９號五樓","OBJECTID":567142},"geometry":{"x":178262.10000000056,"y":2578174.6700000018}},{"attributes":{"ID":567170,"DIS_CODE":0,"TOWNNAME":"新營區","LI":"民榮里","LIN":"37鄰","STREET":"太子路","SECT":" ","MAREA":" ","LANE":" ","ALLEY":" ","HOUSE_NO":"３２號之６四樓","E_COORD97":178262.10000000001,"N_COORD97":2578174.6699999999,"ADDRESS":"太子路３２號之６四樓","OBJECTID":567143},"geometry":{"x":178262.10000000056,"y":2578174.6700000018}},{"attributes":{"ID":567171,"DIS_CODE":0,"TOWNNAME":"新營區","LI":"民榮里","LIN":"37鄰","STREET":"太子路","SECT":" ","MAREA":" ","LANE":" ","ALLEY":" ","HOUSE_NO":"３２號之７一樓","E_COORD97":178262.10000000001,"N_COORD97":2578174.6699999999,"ADDRESS":"太子路３２號之７一樓","OBJECTID":567144},"geometry":{"x":178262.10000000056,"y":2578174.6700000018}},{"attributes":{"ID":567172,"DIS_CODE":0,"TOWNNAME":"新營區","LI":"民榮里","LIN":"37鄰","STREET":"太子路","SECT":" ","MAREA":" ","LANE":" ","ALLEY":" ","HOUSE_NO":"３２號之９八樓","E_COORD97":178262.10000000001,"N_COORD97":2578174.6699999999,"ADDRESS":"太子路３２號之９八樓","OBJECTID":567145},"geometry":{"x":178262.10000000056,"y":2578174.6700000018}},{"attributes":{"ID":567173,"DIS_CODE":0,"TOWNNAME":"新營區","LI":"民榮里","LIN":"37鄰","STREET":"太子路","SECT":" ","MAREA":" ","LANE":" ","ALLEY":" ","HOUSE_NO":"３２之９號二樓","E_COORD97":178262.10000000001,"N_COORD97":2578174.6699999999,"ADDRESS":"太子路３２之９號二樓","OBJECTID":567146},"geometry":{"x":178262.10000000056,"y":2578174.6700000018}},{"attributes":{"ID":567174,"DIS_CODE":0,"TOWNNAME":"新營區","LI":"民榮里","LIN":"37鄰","STREET":"太子路","SECT":" ","MAREA":" ","LANE":" ","ALLEY":" ","HOUSE_NO":"３２之１１號八樓","E_COORD97":178263.35000000001,"N_COORD97":2578174.6699999999,"ADDRESS":"太子路３２之１１號八樓","OBJECTID":567147},"geometry":{"x":178263.35000000056,"y":2578174.6700000018}},{"attributes":{"ID":567175,"DIS_CODE":0,"TOWNNAME":"新營區","LI":"民榮里","LIN":"37鄰","STREET":"太子路","SECT":" ","MAREA":" ","LANE":" ","ALLEY":" ","HOUSE_NO":"３２號之６三樓","E_COORD97":178262.10000000001,"N_COORD97":2578174.6699999999,"ADDRESS":"太子路３２號之６三樓","OBJECTID":567148},"geometry":{"x":178262.10000000056,"y":2578174.6700000018}},{"attributes":{"ID":567176,"DIS_CODE":0,"TOWNNAME":"永康區","LI":"龍潭里","LIN":"29鄰","STREET":"龍潭街","SECT":" ","MAREA":" ","LANE":" ","ALLEY":" ","HOUSE_NO":"６２號","E_COORD97":174776.98000000001,"N_COORD97":2547869.71,"ADDRESS":"龍潭街６２號","OBJECTID":567149},"geometry":{"x":174776.98000000045,"y":2547869.7100000028}},{"attributes":{"ID":567177,"DIS_CODE":0,"TOWNNAME":"永康區","LI":"龍潭里","LIN":"38鄰","STREET":"國民路","SECT":" ","MAREA":" ","LANE":" ","ALLEY":" ","HOUSE_NO":"６３號","E_COORD97":174324.19,"N_COORD97":2547366,"ADDRESS":"國民路６３號","OBJECTID":567150},"geometry":{"x":174324.19000000134,"y":2547366}},{"attributes":{"ID":567178,"DIS_CODE":0,"TOWNNAME":"永康區","LI":"龍潭里","LIN":"30鄰","STREET":"龍潭街","SECT":" ","MAREA":" ","LANE":" ","ALLEY":" ","HOUSE_NO":"８６號","E_COORD97":174798.34,"N_COORD97":2547948.7799999998,"ADDRESS":"龍潭街８６號","OBJECTID":567151},"geometry":{"x":174798.34000000171,"y":2547948.7800000012}},{"attributes":{"ID":567179,"DIS_CODE":0,"TOWNNAME":"永康區","LI":"龍潭里","LIN":"44鄰","STREET":"永平街","SECT":" ","MAREA":" ","LANE":" ","ALLEY":" ","HOUSE_NO":"２７６之１２號","E_COORD97":174684.09,"N_COORD97":2547014.79,"ADDRESS":"永平街２７６之１２號","OBJECTID":567152},"geometry":{"x":174684.08999999985,"y":2547014.7899999972}},{"attributes":{"ID":567180,"DIS_CODE":0,"TOWNNAME":"新營區","LI":"民榮里","LIN":"37鄰","STREET":"太子路","SECT":" ","MAREA":" ","LANE":" ","ALLEY":" ","HOUSE_NO":"３２號之１２八樓","E_COORD97":178263.35000000001,"N_COORD97":2578174.6699999999,"ADDRESS":"太子路３２號之１２八樓","OBJECTID":567153},"geometry":{"x":178263.35000000056,"y":2578174.6700000018}},{"attributes":{"ID":567181,"DIS_CODE":0,"TOWNNAME":"新營區","LI":"民榮里","LIN":"37鄰","STREET":"太子路","SECT":" ","MAREA":" ","LANE":" ","ALLEY":" ","HOUSE_NO":"３２之１０號八樓","E_COORD97":178263.35000000001,"N_COORD97":2578174.6699999999,"ADDRESS":"太子路３２之１０號八樓","OBJECTID":567154},"geometry":{"x":178263.35000000056,"y":2578174.6700000018}},{"attributes":{"ID":567182,"DIS_CODE":0,"TOWNNAME":"新營區","LI":"民榮里","LIN":"37鄰","STREET":"太子路","SECT":" ","MAREA":" ","LANE":" ","ALLEY":" ","HOUSE_NO":"３２號之８五樓","E_COORD97":178262.10000000001,"N_COORD97":2578174.6699999999,"ADDRESS":"太子路３２號之８五樓","OBJECTID":567155},"geometry":{"x":178262.10000000056,"y":2578174.6700000018}},{"attributes":{"ID":567183,"DIS_CODE":0,"TOWNNAME":"新營區","LI":"民榮里","LIN":"37鄰","STREET":"太子路","SECT":" ","MAREA":" ","LANE":" ","ALLEY":" ","HOUSE_NO":"３２之１０號三樓","E_COORD97":178263.35000000001,"N_COORD97":2578174.6699999999,"ADDRESS":"太子路３２之１０號三樓","OBJECTID":567156},"geometry":{"x":178263.35000000056,"y":2578174.6700000018}},{"attributes":{"ID":567184,"DIS_CODE":0,"TOWNNAME":"新營區","LI":"民榮里","LIN":"37鄰","STREET":"太子路","SECT":" ","MAREA":" ","LANE":" ","ALLEY":" ","HOUSE_NO":"３２號之１１九樓","E_COORD97":178263.35000000001,"N_COORD97":2578174.6699999999,"ADDRESS":"太子路３２號之１１九樓","OBJECTID":567157},"geometry":{"x":178263.35000000056,"y":2578174.6700000018}},{"attributes":{"ID":567185,"DIS_CODE":0,"TOWNNAME":"新營區","LI":"民榮里","LIN":"37鄰","STREET":"太子路","SECT":" ","MAREA":" ","LANE":" ","ALLEY":" ","HOUSE_NO":"３２之１２號十一樓","E_COORD97":178264.60000000001,"N_COORD97":2578174.6699999999,"ADDRESS":"太子路３２之１２號十一樓","OBJECTID":567158},"geometry":{"x":178264.5999999987,"y":2578174.6700000018}},{"attributes":{"ID":567186,"DIS_CODE":0,"TOWNNAME":"新營區","LI":"民榮里","LIN":"37鄰","STREET":"太子路","SECT":" ","MAREA":" ","LANE":" ","ALLEY":" ","HOUSE_NO":"３２之１０號十樓","E_COORD97":178263.35000000001,"N_COORD97":2578174.6699999999,"ADDRESS":"太子路３２之１０號十樓","OBJECTID":567159},"geometry":{"x":178263.35000000056,"y":2578174.6700000018}},{"attributes":{"ID":567187,"DIS_CODE":0,"TOWNNAME":"新營區","LI":"民榮里","LIN":"37鄰","STREET":"太子路","SECT":" ","MAREA":" ","LANE":" ","ALLEY":" ","HOUSE_NO":"３２之８號一樓","E_COORD97":178262.10000000001,"N_COORD97":2578174.6699999999,"ADDRESS":"太子路３２之８號一樓","OBJECTID":567160},"geometry":{"x":178262.10000000056,"y":2578174.6700000018}},{"attributes":{"ID":567188,"DIS_CODE":0,"TOWNNAME":"新營區","LI":"民榮里","LIN":"37鄰","STREET":"太子路","SECT":" ","MAREA":" ","LANE":" ","ALLEY":" ","HOUSE_NO":"３２號之１２六樓","E_COORD97":178263.35000000001,"N_COORD97":2578174.6699999999,"ADDRESS":"太子路３２號之１２六樓","OBJECTID":567161},"geometry":{"x":178263.35000000056,"y":2578174.6700000018}},{"attributes":{"ID":567189,"DIS_CODE":0,"TOWNNAME":"新營區","LI":"民榮里","LIN":"37鄰","STREET":"太子路","SECT":" ","MAREA":" ","LANE":" ","ALLEY":" ","HOUSE_NO":"３２之７號十樓","E_COORD97":178262.10000000001,"N_COORD97":2578174.6699999999,"ADDRESS":"太子路３２之７號十樓","OBJECTID":567162},"geometry":{"x":178262.10000000056,"y":2578174.6700000018}},{"attributes":{"ID":567190,"DIS_CODE":0,"TOWNNAME":"新營區","LI":"民榮里","LIN":"37鄰","STREET":"太子路","SECT":" ","MAREA":" ","LANE":" ","ALLEY":" ","HOUSE_NO":"３２之９號四樓","E_COORD97":178262.10000000001,"N_COORD97":2578174.6699999999,"ADDRESS":"太子路３２之９號四樓","OBJECTID":567163},"geometry":{"x":178262.10000000056,"y":2578174.6700000018}},{"attributes":{"ID":567191,"DIS_CODE":0,"TOWNNAME":"北區","LI":"成德里","LIN":"37鄰","STREET":"育德三街","SECT":" ","MAREA":" ","LANE":" ","ALLEY":" ","HOUSE_NO":"２８５號","E_COORD97":168090.89000000001,"N_COORD97":2546561.2799999998,"ADDRESS":"育德三街２８５號","OBJECTID":567164},"geometry":{"x":168090.88999999966,"y":2546561.2800000031}},{"attributes":{"ID":567192,"DIS_CODE":0,"TOWNNAME":"新營區","LI":"民榮里","LIN":"37鄰","STREET":"太子路","SECT":" ","MAREA":" ","LANE":" ","ALLEY":" ","HOUSE_NO":"３２號之１１五樓","E_COORD97":178263.35000000001,"N_COORD97":2578174.6699999999,"ADDRESS":"太子路３２號之１１五樓","OBJECTID":567165},"geometry":{"x":178263.35000000056,"y":2578174.6700000018}},{"attributes":{"ID":567193,"DIS_CODE":0,"TOWNNAME":"新營區","LI":"民榮里","LIN":"37鄰","STREET":"太子路","SECT":" ","MAREA":" ","LANE":" ","ALLEY":" ","HOUSE_NO":"３２之８號三樓","E_COORD97":178262.10000000001,"N_COORD97":2578174.6699999999,"ADDRESS":"太子路３２之８號三樓","OBJECTID":567166},"geometry":{"x":178262.10000000056,"y":2578174.6700000018}},{"attributes":{"ID":567194,"DIS_CODE":0,"TOWNNAME":"永康區","LI":"龍潭里","LIN":"44鄰","STREET":"永平街","SECT":" ","MAREA":" ","LANE":" ","ALLEY":" ","HOUSE_NO":"２９２之１８號","E_COORD97":174655.56,"N_COORD97":2547068.5499999998,"ADDRESS":"永平街２９２之１８號","OBJECTID":567167},"geometry":{"x":174655.55999999959,"y":2547068.5500000007}},{"attributes":{"ID":567195,"DIS_CODE":0,"TOWNNAME":"永康區","LI":"\u25A0行里","LIN":"9鄰","STREET":"中正路","SECT":" ","MAREA":" ","LANE":" ","ALLEY":" ","HOUSE_NO":"４０３號","E_COORD97":172327.35999999999,"N_COORD97":2548394.6299999999,"ADDRESS":"中正路４０３號","OBJECTID":567168},"geometry":{"x":172327.36000000127,"y":2548394.629999999}},{"attributes":{"ID":567196,"DIS_CODE":0,"TOWNNAME":"新營區","LI":"民榮里","LIN":"37鄰","STREET":"太子路","SECT":" ","MAREA":" ","LANE":" ","ALLEY":" ","HOUSE_NO":"３２號之１３六樓","E_COORD97":178263.35000000001,"N_COORD97":2578174.6699999999,"ADDRESS":"太子路３２號之１３六樓","OBJECTID":567169},"geometry":{"x":178263.35000000056,"y":2578174.6700000018}},{"attributes":{"ID":567197,"DIS_CODE":0,"TOWNNAME":"新營區","LI":"民榮里","LIN":"37鄰","STREET":"太子路","SECT":" ","MAREA":" ","LANE":" ","ALLEY":" ","HOUSE_NO":"３２之８號十一樓","E_COORD97":178263.35000000001,"N_COORD97":2578174.6699999999,"ADDRESS":"太子路３２之８號十一樓","OBJECTID":567170},"geometry":{"x":178263.35000000056,"y":2578174.6700000018}},{"attributes":{"ID":567198,"DIS_CODE":0,"TOWNNAME":"新營區","LI":"民榮里","LIN":"37鄰","STREET":"太子路","SECT":" ","MAREA":" ","LANE":" ","ALLEY":" ","HOUSE_NO":"３２之８號二樓","E_COORD97":178262.10000000001,"N_COORD97":2578174.6699999999,"ADDRESS":"太子路３２之８號二樓","OBJECTID":567171},"geometry":{"x":178262.10000000056,"y":2578174.6700000018}},{"attributes":{"ID":567199,"DIS_CODE":0,"TOWNNAME":"新營區","LI":"民榮里","LIN":"37鄰","STREET":"太子路","SECT":" ","MAREA":" ","LANE":" ","ALLEY":" ","HOUSE_NO":"３２號之１３七樓","E_COORD97":178263.35000000001,"N_COORD97":2578174.6699999999,"ADDRESS":"太子路３２號之１３七樓","OBJECTID":567172},"geometry":{"x":178263.35000000056,"y":2578174.6700000018}},{"attributes":{"ID":567200,"DIS_CODE":0,"TOWNNAME":"安平區","LI":"育平里","LIN":"37鄰","STREET":"育平三街","SECT":" ","MAREA":" ","LANE":" ","ALLEY":" ","HOUSE_NO":"６３號七樓之２","E_COORD97":164380.64000000001,"N_COORD97":2543185.1099999999,"ADDRESS":"育平三街６３號七樓之２","OBJECTID":567173},"geometry":{"x":164380.63999999966,"y":2543185.1099999994}},{"attributes":{"ID":567201,"DIS_CODE":0,"TOWNNAME":"安平區","LI":"育平里","LIN":"37鄰","STREET":"育平三街","SECT":" ","MAREA":" ","LANE":" ","ALLEY":" ","HOUSE_NO":"６３號七樓之１","E_COORD97":164380.64000000001,"N_COORD97":2543185.1099999999,"ADDRESS":"育平三街６３號七樓之１","OBJECTID":567174},"geometry":{"x":164380.63999999966,"y":2543185.1099999994}},{"attributes":{"ID":567202,"DIS_CODE":0,"TOWNNAME":"安平區","LI":"育平里","LIN":"37鄰","STREET":"育平三街","SECT":" ","MAREA":" ","LANE":" ","ALLEY":" ","HOUSE_NO":"６３號七樓之３","E_COORD97":164380.64000000001,"N_COORD97":2543185.1099999999,"ADDRESS":"育平三街６３號七樓之３","OBJECTID":567175},"geometry":{"x":164380.63999999966,"y":2543185.1099999994}},{"attributes":{"ID":567203,"DIS_CODE":0,"TOWNNAME":"安平區","LI":"育平里","LIN":"37鄰","STREET":"育平三街","SECT":" ","MAREA":" ","LANE":" ","ALLEY":" ","HOUSE_NO":"６３號二樓","E_COORD97":164380.64000000001,"N_COORD97":2543185.1099999999,"ADDRESS":"育平三街６３號二樓","OBJECTID":567176},"geometry":{"x":164380.63999999966,"y":2543185.1099999994}},{"attributes":{"ID":567204,"DIS_CODE":0,"TOWNNAME":"安平區","LI":"育平里","LIN":"37鄰","STREET":"育平三街","SECT":" ","MAREA":" ","LANE":" ","ALLEY":" ","HOUSE_NO":"６３號三樓","E_COORD97":164380.64000000001,"N_COORD97":2543185.1099999999,"ADDRESS":"育平三街６３號三樓","OBJECTID":567177},"geometry":{"x":164380.63999999966,"y":2543185.1099999994}},{"attributes":{"ID":567205,"DIS_CODE":0,"TOWNNAME":"安平區","LI":"育平里","LIN":"37鄰","STREET":"育平三街","SECT":" ","MAREA":" ","LANE":" ","ALLEY":" ","HOUSE_NO":"６３號五樓之１","E_COORD97":164380.64000000001,"N_COORD97":2543185.1099999999,"ADDRESS":"育平三街６３號五樓之１","OBJECTID":567178},"geometry":{"x":164380.63999999966,"y":2543185.1099999994}},{"attributes":{"ID":567206,"DIS_CODE":0,"TOWNNAME":"安平區","LI":"育平里","LIN":"37鄰","STREET":"育平三街","SECT":" ","MAREA":" ","LANE":" ","ALLEY":" ","HOUSE_NO":"６３號五樓之２","E_COORD97":164380.64000000001,"N_COORD97":2543185.1099999999,"ADDRESS":"育平三街６３號五樓之２","OBJECTID":567179},"geometry":{"x":164380.63999999966,"y":2543185.1099999994}},{"attributes":{"ID":567207,"DIS_CODE":0,"TOWNNAME":"安平區","LI":"育平里","LIN":"37鄰","STREET":"育平三街","SECT":" ","MAREA":" ","LANE":" ","ALLEY":" ","HOUSE_NO":"６３號五樓之３","E_COORD97":164380.64000000001,"N_COORD97":2543185.1099999999,"ADDRESS":"育平三街６３號五樓之３","OBJECTID":567180},"geometry":{"x":164380.63999999966,"y":2543185.1099999994}},{"attributes":{"ID":567208,"DIS_CODE":0,"TOWNNAME":"安平區","LI":"育平里","LIN":"37鄰","STREET":"育平三街","SECT":" ","MAREA":" ","LANE":" ","ALLEY":" ","HOUSE_NO":"６３號六樓之１","E_COORD97":164380.64000000001,"N_COORD97":2543185.1099999999,"ADDRESS":"育平三街６３號六樓之１","OBJECTID":567181},"geometry":{"x":164380.63999999966,"y":2543185.1099999994}},{"attributes":{"ID":567209,"DIS_CODE":0,"TOWNNAME":"安平區","LI":"育平里","LIN":"37鄰","STREET":"育平三街","SECT":" ","MAREA":" ","LANE":" ","ALLEY":" ","HOUSE_NO":"６３號六樓之２","E_COORD97":164380.64000000001,"N_COORD97":2543185.1099999999,"ADDRESS":"育平三街６３號六樓之２","OBJECTID":567182},"geometry":{"x":164380.63999999966,"y":2543185.1099999994}},{"attributes":{"ID":567210,"DIS_CODE":0,"TOWNNAME":"安平區","LI":"育平里","LIN":"37鄰","STREET":"育平三街","SECT":" ","MAREA":" ","LANE":" ","ALLEY":" ","HOUSE_NO":"６３號六樓之３","E_COORD97":164380.64000000001,"N_COORD97":2543185.1099999999,"ADDRESS":"育平三街６３號六樓之３","OBJECTID":567183},"geometry":{"x":164380.63999999966,"y":2543185.1099999994}},{"attributes":{"ID":567211,"DIS_CODE":0,"TOWNNAME":"安平區","LI":"育平里","LIN":"37鄰","STREET":"育平三街","SECT":" ","MAREA":" ","LANE":" ","ALLEY":" ","HOUSE_NO":"６３號四樓之１","E_COORD97":164380.64000000001,"N_COORD97":2543185.1099999999,"ADDRESS":"育平三街６３號四樓之１","OBJECTID":567184},"geometry":{"x":164380.63999999966,"y":2543185.1099999994}},{"attributes":{"ID":567212,"DIS_CODE":0,"TOWNNAME":"安平區","LI":"育平里","LIN":"37鄰","STREET":"育平三街","SECT":" ","MAREA":" ","LANE":" ","ALLEY":" ","HOUSE_NO":"６３號四樓之２","E_COORD97":164380.64000000001,"N_COORD97":2543185.1099999999,"ADDRESS":"育平三街６３號四樓之２","OBJECTID":567185},"geometry":{"x":164380.63999999966,"y":2543185.1099999994}},{"attributes":{"ID":567213,"DIS_CODE":0,"TOWNNAME":"安平區","LI":"育平里","LIN":"37鄰","STREET":"育平三街","SECT":" ","MAREA":" ","LANE":" ","ALLEY":" ","HOUSE_NO":"６３號四樓之３","E_COORD97":164380.64000000001,"N_COORD97":2543185.1099999999,"ADDRESS":"育平三街６３號四樓之３","OBJECTID":567186},"geometry":{"x":164380.63999999966,"y":2543185.1099999994}},{"attributes":{"ID":567214,"DIS_CODE":0,"TOWNNAME":"永康區","LI":"龍潭里","LIN":"5鄰","STREET":"龍埔街","SECT":" ","MAREA":" ","LANE":" ","ALLEY":" ","HOUSE_NO":"２１號","E_COORD97":174819,"N_COORD97":2548187.4300000002,"ADDRESS":"龍埔街２１號","OBJECTID":567187},"geometry":{"x":174819,"y":2548187.4299999997}},{"attributes":{"ID":567215,"DIS_CODE":0,"TOWNNAME":"永康區","LI":"\u25A0行里","LIN":"41鄰","STREET":"永安路","SECT":" ","MAREA":" ","LANE":" ","ALLEY":" ","HOUSE_NO":"１９７號","E_COORD97":172520.17999999999,"N_COORD97":2549559.2799999998,"ADDRESS":"永安路１９７號","OBJECTID":567188},"geometry":{"x":172520.1799999997,"y":2549559.2800000012}},{"attributes":{"ID":567216,"DIS_CODE":0,"TOWNNAME":"永康區","LI":"龍潭里","LIN":"1鄰","STREET":"龍潭街","SECT":" ","MAREA":" ","LANE":" ","ALLEY":" ","HOUSE_NO":"１５號","E_COORD97":174739.34,"N_COORD97":2547853.7200000002,"ADDRESS":"龍潭街１５號","OBJECTID":567189},"geometry":{"x":174739.34000000078,"y":2547853.7200000007}},{"attributes":{"ID":567217,"DIS_CODE":0,"TOWNNAME":"永康區","LI":"龍潭里","LIN":"35鄰","STREET":"自強路","SECT":" ","MAREA":" ","LANE":" ","ALLEY":" ","HOUSE_NO":"７７４號","E_COORD97":174512.03,"N_COORD97":2548553.7999999998,"ADDRESS":"自強路７７４號","OBJECTID":567190},"geometry":{"x":174512.03000000026,"y":2548553.8000000026}},{"attributes":{"ID":567218,"DIS_CODE":0,"TOWNNAME":"永康區","LI":"埔園里","LIN":"37鄰","STREET":"龍國街","SECT":" ","MAREA":" ","LANE":" ","ALLEY":" ","HOUSE_NO":"１２９號","E_COORD97":174301.95999999999,"N_COORD97":2548071.8999999999,"ADDRESS":"龍國街１２９號","OBJECTID":567191},"geometry":{"x":174301.95999999996,"y":2548071.9000000004}},{"attributes":{"ID":567219,"DIS_CODE":0,"TOWNNAME":"永康區","LI":"埔園里","LIN":"37鄰","STREET":"龍中街","SECT":" ","MAREA":" ","LANE":" ","ALLEY":" ","HOUSE_NO":"４４９號","E_COORD97":174392.70000000001,"N_COORD97":2548181.6200000001,"ADDRESS":"龍中街４４９號","OBJECTID":567192},"geometry":{"x":174392.69999999925,"y":2548181.6200000029}},{"attributes":{"ID":567220,"DIS_CODE":0,"TOWNNAME":"永康區","LI":"永康里","LIN":"37鄰","STREET":"西勢路","SECT":" ","MAREA":" ","LANE":" ","ALLEY":" ","HOUSE_NO":"７７６號","E_COORD97":174472.98999999999,"N_COORD97":2546737.3199999998,"ADDRESS":"西勢路７７６號","OBJECTID":567193},"geometry":{"x":174472.99000000115,"y":2546737.3200000003}},{"attributes":{"ID":567221,"DIS_CODE":0,"TOWNNAME":"新營區","LI":"民榮里","LIN":"37鄰","STREET":"太子路","SECT":" ","MAREA":" ","LANE":" ","ALLEY":" ","HOUSE_NO":"３２號之９","E_COORD97":178259.32000000001,"N_COORD97":2578174.6699999999,"ADDRESS":"太子路３２號之９","OBJECTID":567194},"geometry":{"x":178259.32000000123,"y":2578174.6700000018}},{"attributes":{"ID":567222,"DIS_CODE":0,"TOWNNAME":"歸仁區","LI":"許厝里","LIN":"37鄰","STREET":"信義南路","SECT":" ","MAREA":" ","LANE":" ","ALLEY":" ","HOUSE_NO":"２６號","E_COORD97":178027.09,"N_COORD97":2540633.29,"ADDRESS":"信義南路２６號","OBJECTID":567195},"geometry":{"x":178027.08999999985,"y":2540633.2899999991}},{"attributes":{"ID":567223,"DIS_CODE":0,"TOWNNAME":"歸仁區","LI":"六甲里","LIN":"37鄰","STREET":"六甲八街","SECT":" ","MAREA":" ","LANE":" ","ALLEY":" ","HOUSE_NO":"２４８號","E_COORD97":175301.23707,"N_COORD97":2539827.9506899999,"ADDRESS":"六甲八街２４８號","OBJECTID":567196},"geometry":{"x":175301.23707000073,"y":2539827.9506899994}},{"attributes":{"ID":567224,"DIS_CODE":0,"TOWNNAME":"歸仁區","LI":"六甲里","LIN":"37鄰","STREET":"六甲八街","SECT":" ","MAREA":" ","LANE":" ","ALLEY":" ","HOUSE_NO":"１７８號","E_COORD97":175343.51999999999,"N_COORD97":2539641.25,"ADDRESS":"六甲八街１７８號","OBJECTID":567197},"geometry":{"x":175343.51999999955,"y":2539641.25}},{"attributes":{"ID":567225,"DIS_CODE":0,"TOWNNAME":"永康區","LI":"龍潭里","LIN":"39鄰","STREET":"永明街","SECT":" ","MAREA":" ","LANE":" ","ALLEY":" ","HOUSE_NO":"２６３之１１號","E_COORD97":174633.53,"N_COORD97":2547243.6200000001,"ADDRESS":"永明街２６３之１１號","OBJECTID":567198},"geometry":{"x":174633.53000000119,"y":2547243.6200000029}},{"attributes":{"ID":567226,"DIS_CODE":0,"TOWNNAME":"歸仁區","LI":"六甲里","LIN":"37鄰","STREET":"六甲八街","SECT":" ","MAREA":" ","LANE":" ","ALLEY":" ","HOUSE_NO":"１８６號","E_COORD97":175332.32000000001,"N_COORD97":2539655.25,"ADDRESS":"六甲八街１８６號","OBJECTID":567199},"geometry":{"x":175332.3200000003,"y":2539655.25}},{"attributes":{"ID":567227,"DIS_CODE":0,"TOWNNAME":"歸仁區","LI":"六甲里","LIN":"37鄰","STREET":"六甲八街","SECT":" ","MAREA":" ","LANE":" ","ALLEY":" ","HOUSE_NO":"１８８號","E_COORD97":175331.32000000001,"N_COORD97":2539659.25,"ADDRESS":"六甲八街１８８號","OBJECTID":567200},"geometry":{"x":175331.32000000216,"y":2539659.2500000037}}]}