{"displayFieldName":"TOWNNAME","fieldAliases":{"ID":"ID","DIS_CODE":"DIS_CODE","TOWNNAME":"TOWNNAME","LI":"LI","LIN":"LIN","STREET":"STREET","SECT":"SECT","MAREA":"MAREA","LANE":"LANE","ALLEY":"ALLEY","HOUSE_NO":"HOUSE_NO","E_COORD97":"E_COORD97","N_COORD97":"N_COORD97","ADDRESS":"ADDRESS","OBJECTID":"OBJECTID"},"geometryType":"esriGeometryPoint","spatialReference":{"wkid":102443,"latestWkid":3826},"fields":[{"name":"ID","type":"esriFieldTypeDouble","alias":"ID"},{"name":"DIS_CODE","type":"esriFieldTypeInteger","alias":"DIS_CODE"},{"name":"TOWNNAME","type":"esriFieldTypeString","alias":"TOWNNAME","length":8},{"name":"LI","type":"esriFieldTypeString","alias":"LI","length":8},{"name":"LIN","type":"esriFieldTypeString","alias":"LIN","length":12},{"name":"STREET","type":"esriFieldTypeString","alias":"STREET","length":20},{"name":"SECT","type":"esriFieldTypeString","alias":"SECT","length":8},{"name":"MAREA","type":"esriFieldTypeString","alias":"MAREA","length":12},{"name":"LANE","type":"esriFieldTypeString","alias":"LANE","length":10},{"name":"ALLEY","type":"esriFieldTypeString","alias":"ALLEY","length":10},{"name":"HOUSE_NO","type":"esriFieldTypeString","alias":"HOUSE_NO","length":20},{"name":"E_COORD97","type":"esriFieldTypeDouble","alias":"E_COORD97"},{"name":"N_COORD97","type":"esriFieldTypeDouble","alias":"N_COORD97"},{"name":"ADDRESS","type":"esriFieldTypeString","alias":"ADDRESS","length":50},{"name":"OBJECTID","type":"esriFieldTypeOID","alias":"OBJECTID"}],"features":[{"attributes":{"ID":255605,"DIS_CODE":0,"TOWNNAME":"新營區","LI":"南紙里","LIN":"27鄰","STREET":"太子路","SECT":" ","MAREA":" ","LANE":"２００巷","ALLEY":" ","HOUSE_NO":"１０７號","E_COORD97":177835.39999999999,"N_COORD97":2578091.3999999999,"ADDRESS":"太子路２００巷１０７號","OBJECTID":255601},"geometry":{"x":177835.4000000013,"y":2578091.4000000004}},{"attributes":{"ID":255606,"DIS_CODE":0,"TOWNNAME":"新營區","LI":"南紙里","LIN":"27鄰","STREET":"太子路","SECT":" ","MAREA":" ","LANE":"２００巷","ALLEY":" ","HOUSE_NO":"９３號","E_COORD97":177844.17999999999,"N_COORD97":2578055.9100000001,"ADDRESS":"太子路２００巷９３號","OBJECTID":255602},"geometry":{"x":177844.18000000063,"y":2578055.910000002}},{"attributes":{"ID":255607,"DIS_CODE":0,"TOWNNAME":"新營區","LI":"南紙里","LIN":"27鄰","STREET":"太子路","SECT":" ","MAREA":" ","LANE":"２００巷","ALLEY":" ","HOUSE_NO":"１０９號之１","E_COORD97":177833.51000000001,"N_COORD97":2578102.5499999998,"ADDRESS":"太子路２００巷１０９號之１","OBJECTID":255603},"geometry":{"x":177833.51000000071,"y":2578102.5500000026}},{"attributes":{"ID":255608,"DIS_CODE":0,"TOWNNAME":"新營區","LI":"南紙里","LIN":"27鄰","STREET":"太子路","SECT":" ","MAREA":" ","LANE":"２００巷","ALLEY":" ","HOUSE_NO":"１０３號","E_COORD97":177836.37,"N_COORD97":2578081.4199999999,"ADDRESS":"太子路２００巷１０３號","OBJECTID":255604},"geometry":{"x":177836.37000000104,"y":2578081.4200000018}},{"attributes":{"ID":255609,"DIS_CODE":0,"TOWNNAME":"新營區","LI":"忠政里","LIN":"27鄰","STREET":"中正路","SECT":" ","MAREA":" ","LANE":"３９巷","ALLEY":" ","HOUSE_NO":"１０１號","E_COORD97":179901.32999999999,"N_COORD97":2579322.9300000002,"ADDRESS":"中正路３９巷１０１號","OBJECTID":255605},"geometry":{"x":179901.33000000101,"y":2579322.9300000016}},{"attributes":{"ID":255610,"DIS_CODE":0,"TOWNNAME":"新營區","LI":"忠政里","LIN":"27鄰","STREET":"中正路","SECT":" ","MAREA":" ","LANE":"３９巷","ALLEY":" ","HOUSE_NO":"１０３號","E_COORD97":179901.35000000001,"N_COORD97":2579327.3599999999,"ADDRESS":"中正路３９巷１０３號","OBJECTID":255606},"geometry":{"x":179901.35000000056,"y":2579327.3599999994}},{"attributes":{"ID":255611,"DIS_CODE":0,"TOWNNAME":"新營區","LI":"忠政里","LIN":"27鄰","STREET":"中正路","SECT":" ","MAREA":" ","LANE":"３９巷","ALLEY":" ","HOUSE_NO":"１１５號","E_COORD97":179874.75,"N_COORD97":2579324.1600000001,"ADDRESS":"中正路３９巷１１５號","OBJECTID":255607},"geometry":{"x":179874.75000000093,"y":2579324.1600000039}},{"attributes":{"ID":255612,"DIS_CODE":0,"TOWNNAME":"永康區","LI":"大灣里","LIN":"27鄰","STREET":"大灣六街","SECT":" ","MAREA":" ","LANE":"８０巷","ALLEY":" ","HOUSE_NO":"１８號","E_COORD97":175210.29999999999,"N_COORD97":2545302.0899999999,"ADDRESS":"大灣六街８０巷１８號","OBJECTID":255608},"geometry":{"x":175210.29999999981,"y":2545302.0900000017}},{"attributes":{"ID":255613,"DIS_CODE":0,"TOWNNAME":"新營區","LI":"南紙里","LIN":"27鄰","STREET":"太子路","SECT":" ","MAREA":" ","LANE":"２００巷","ALLEY":" ","HOUSE_NO":"９５號","E_COORD97":177843.17999999999,"N_COORD97":2578060.3500000001,"ADDRESS":"太子路２００巷９５號","OBJECTID":255609},"geometry":{"x":177843.1799999997,"y":2578060.3499999996}},{"attributes":{"ID":255614,"DIS_CODE":0,"TOWNNAME":"新營區","LI":"忠政里","LIN":"27鄰","STREET":"中正路","SECT":" ","MAREA":" ","LANE":"３９巷","ALLEY":" ","HOUSE_NO":"９９號之３","E_COORD97":179903.26999999999,"N_COORD97":2579315.2200000002,"ADDRESS":"中正路３９巷９９號之３","OBJECTID":255610},"geometry":{"x":179903.27000000048,"y":2579315.2200000025}},{"attributes":{"ID":255615,"DIS_CODE":0,"TOWNNAME":"歸仁區","LI":"南保里","LIN":"27鄰","STREET":"民權北路","SECT":" ","MAREA":" ","LANE":" ","ALLEY":" ","HOUSE_NO":"６９號","E_COORD97":176988.79000000001,"N_COORD97":2541039.29,"ADDRESS":"民權北路６９號","OBJECTID":255611},"geometry":{"x":176988.79000000004,"y":2541039.290000001}},{"attributes":{"ID":255616,"DIS_CODE":0,"TOWNNAME":"歸仁區","LI":"許厝里","LIN":"27鄰","STREET":"信義北路","SECT":" ","MAREA":" ","LANE":" ","ALLEY":" ","HOUSE_NO":"１１號","E_COORD97":177980.5,"N_COORD97":2540783.04,"ADDRESS":"信義北路１１號","OBJECTID":255612},"geometry":{"x":177980.5,"y":2540783.040000001}},{"attributes":{"ID":255617,"DIS_CODE":0,"TOWNNAME":"新營區","LI":"新東里","LIN":"27鄰","STREET":"東興路","SECT":" ","MAREA":" ","LANE":" ","ALLEY":" ","HOUSE_NO":"２４１號","E_COORD97":180725.23000000001,"N_COORD97":2579641.3199999998,"ADDRESS":"東興路２４１號","OBJECTID":255613},"geometry":{"x":180725.23000000138,"y":2579641.3200000003}},{"attributes":{"ID":255618,"DIS_CODE":0,"TOWNNAME":"新營區","LI":"新北里","LIN":"27鄰","STREET":"金華路","SECT":"二段","MAREA":" ","LANE":" ","ALLEY":" ","HOUSE_NO":"３６號","E_COORD97":178914.89000000001,"N_COORD97":2579044.1299999999,"ADDRESS":"金華路二段３６號","OBJECTID":255614},"geometry":{"x":178914.88999999966,"y":2579044.129999999}},{"attributes":{"ID":255619,"DIS_CODE":0,"TOWNNAME":"新營區","LI":"新東里","LIN":"27鄰","STREET":"東興路","SECT":" ","MAREA":" ","LANE":" ","ALLEY":" ","HOUSE_NO":"２３９號","E_COORD97":180725.23000000001,"N_COORD97":2579641.3199999998,"ADDRESS":"東興路２３９號","OBJECTID":255615},"geometry":{"x":180725.23000000138,"y":2579641.3200000003}},{"attributes":{"ID":255620,"DIS_CODE":0,"TOWNNAME":"新營區","LI":"民生里","LIN":"27鄰","STREET":"進修街","SECT":" ","MAREA":" ","LANE":" ","ALLEY":" ","HOUSE_NO":"５１號","E_COORD97":178964.63,"N_COORD97":2578551.0699999998,"ADDRESS":"進修街５１號","OBJECTID":255616},"geometry":{"x":178964.62999999989,"y":2578551.0700000003}},{"attributes":{"ID":255621,"DIS_CODE":0,"TOWNNAME":"新營區","LI":"新東里","LIN":"27鄰","STREET":"東興五街","SECT":" ","MAREA":" ","LANE":" ","ALLEY":" ","HOUSE_NO":"３２號","E_COORD97":180654.92999999999,"N_COORD97":2579527.5800000001,"ADDRESS":"東興五街３２號","OBJECTID":255617},"geometry":{"x":180654.93000000063,"y":2579527.5799999982}},{"attributes":{"ID":255622,"DIS_CODE":0,"TOWNNAME":"永康區","LI":"五王里","LIN":"20鄰","STREET":"成功路","SECT":" ","MAREA":" ","LANE":" ","ALLEY":" ","HOUSE_NO":"１２１號","E_COORD97":171403.73000000001,"N_COORD97":2545647.5099999998,"ADDRESS":"成功路１２１號","OBJECTID":255618},"geometry":{"x":171403.73000000045,"y":2545647.5099999998}},{"attributes":{"ID":255623,"DIS_CODE":0,"TOWNNAME":"永康區","LI":"大橋里","LIN":"28鄰","STREET":"中華路","SECT":" ","MAREA":" ","LANE":" ","ALLEY":" ","HOUSE_NO":"６３２號","E_COORD97":171106.79000000001,"N_COORD97":2546091.9900000002,"ADDRESS":"中華路６３２號","OBJECTID":255619},"geometry":{"x":171106.7900000019,"y":2546091.9900000002}},{"attributes":{"ID":255624,"DIS_CODE":0,"TOWNNAME":"永康區","LI":"大橋里","LIN":"23鄰","STREET":"大橋一街","SECT":" ","MAREA":" ","LANE":" ","ALLEY":" ","HOUSE_NO":"１８９號","E_COORD97":171157.95000000001,"N_COORD97":2546574.2400000002,"ADDRESS":"大橋一街１８９號","OBJECTID":255620},"geometry":{"x":171157.95000000019,"y":2546574.2400000002}},{"attributes":{"ID":255625,"DIS_CODE":0,"TOWNNAME":"新營區","LI":"大宏里","LIN":"27鄰","STREET":"綠川路","SECT":" ","MAREA":" ","LANE":" ","ALLEY":" ","HOUSE_NO":"８號","E_COORD97":180904.17999999999,"N_COORD97":2578856.3999999999,"ADDRESS":"綠川路８號","OBJECTID":255621},"geometry":{"x":180904.18000000063,"y":2578856.4000000004}},{"attributes":{"ID":255626,"DIS_CODE":0,"TOWNNAME":"新營區","LI":"新東里","LIN":"27鄰","STREET":"東興路","SECT":" ","MAREA":" ","LANE":" ","ALLEY":" ","HOUSE_NO":"２３７號","E_COORD97":180725.23000000001,"N_COORD97":2579641.3199999998,"ADDRESS":"東興路２３７號","OBJECTID":255622},"geometry":{"x":180725.23000000138,"y":2579641.3200000003}},{"attributes":{"ID":255627,"DIS_CODE":0,"TOWNNAME":"新營區","LI":"新南里","LIN":"27鄰","STREET":"隋唐街","SECT":" ","MAREA":" ","LANE":" ","ALLEY":" ","HOUSE_NO":"３９３號","E_COORD97":177920.79999999999,"N_COORD97":2578597.0899999999,"ADDRESS":"隋唐街３９３號","OBJECTID":255623},"geometry":{"x":177920.79999999981,"y":2578597.0899999999}},{"attributes":{"ID":255628,"DIS_CODE":0,"TOWNNAME":"東山區","LI":"東原里","LIN":"27鄰","STREET":" ","SECT":" ","MAREA":"班芝花坑","LANE":" ","ALLEY":" ","HOUSE_NO":"７號","E_COORD97":193114.70000000001,"N_COORD97":2575024.6400000001,"ADDRESS":"班芝花坑７號","OBJECTID":255624},"geometry":{"x":193114.70000000112,"y":2575024.6400000006}},{"attributes":{"ID":255629,"DIS_CODE":0,"TOWNNAME":"新營區","LI":"忠政里","LIN":"27鄰","STREET":"中正路","SECT":" ","MAREA":" ","LANE":"３９巷","ALLEY":" ","HOUSE_NO":"１１９號之１","E_COORD97":179883.98000000001,"N_COORD97":2579310.8900000001,"ADDRESS":"中正路３９巷１１９號之１","OBJECTID":255625},"geometry":{"x":179883.98000000138,"y":2579310.8900000025}},{"attributes":{"ID":255630,"DIS_CODE":0,"TOWNNAME":"東山區","LI":"東原里","LIN":"27鄰","STREET":" ","SECT":" ","MAREA":"班芝花坑","LANE":" ","ALLEY":" ","HOUSE_NO":"６號之１","E_COORD97":193150.23000000001,"N_COORD97":2574929.5,"ADDRESS":"班芝花坑６號之１","OBJECTID":255626},"geometry":{"x":193150.23000000231,"y":2574929.5}},{"attributes":{"ID":255631,"DIS_CODE":0,"TOWNNAME":"永康區","LI":"三合里","LIN":"22鄰","STREET":"南工街","SECT":" ","MAREA":" ","LANE":"３１１巷","ALLEY":" ","HOUSE_NO":"３號","E_COORD97":171834.88,"N_COORD97":2546035.75,"ADDRESS":"南工街３１１巷３號","OBJECTID":255627},"geometry":{"x":171834.88000000175,"y":2546035.75}},{"attributes":{"ID":255632,"DIS_CODE":0,"TOWNNAME":"東山區","LI":"東原里","LIN":"27鄰","STREET":" ","SECT":" ","MAREA":"班芝花坑","LANE":" ","ALLEY":" ","HOUSE_NO":"６號之３","E_COORD97":193106.48999999999,"N_COORD97":2575410.73,"ADDRESS":"班芝花坑６號之３","OBJECTID":255628},"geometry":{"x":193106.49000000115,"y":2575410.7300000004}},{"attributes":{"ID":255633,"DIS_CODE":0,"TOWNNAME":"東山區","LI":"東原里","LIN":"27鄰","STREET":" ","SECT":" ","MAREA":"班芝花坑","LANE":" ","ALLEY":" ","HOUSE_NO":"６號之４","E_COORD97":193214.66,"N_COORD97":2575349.4399999999,"ADDRESS":"班芝花坑６號之４","OBJECTID":255629},"geometry":{"x":193214.66000000201,"y":2575349.4400000013}},{"attributes":{"ID":255634,"DIS_CODE":0,"TOWNNAME":"東山區","LI":"東原里","LIN":"27鄰","STREET":" ","SECT":" ","MAREA":"班芝花坑","LANE":" ","ALLEY":" ","HOUSE_NO":"６號之６","E_COORD97":193340.44,"N_COORD97":2574895.2400000002,"ADDRESS":"班芝花坑６號之６","OBJECTID":255630},"geometry":{"x":193340.44000000134,"y":2574895.2400000002}},{"attributes":{"ID":255635,"DIS_CODE":0,"TOWNNAME":"東山區","LI":"東原里","LIN":"27鄰","STREET":" ","SECT":" ","MAREA":"班芝花坑","LANE":" ","ALLEY":" ","HOUSE_NO":"６號","E_COORD97":193162.41,"N_COORD97":2575303.4700000002,"ADDRESS":"班芝花坑６號","OBJECTID":255631},"geometry":{"x":193162.41000000108,"y":2575303.4700000007}},{"attributes":{"ID":255636,"DIS_CODE":0,"TOWNNAME":"永康區","LI":"大橋里","LIN":"1鄰","STREET":"大橋一街","SECT":" ","MAREA":" ","LANE":"７３巷","ALLEY":" ","HOUSE_NO":"１４７號","E_COORD97":170626.63,"N_COORD97":2546659.5,"ADDRESS":"大橋一街７３巷１４７號","OBJECTID":255632},"geometry":{"x":170626.63000000082,"y":2546659.5000000019}},{"attributes":{"ID":255637,"DIS_CODE":0,"TOWNNAME":"東山區","LI":"東原里","LIN":"27鄰","STREET":" ","SECT":" ","MAREA":"班芝花坑","LANE":" ","ALLEY":" ","HOUSE_NO":"７號之４","E_COORD97":193145.53,"N_COORD97":2575334.8199999998,"ADDRESS":"班芝花坑７號之４","OBJECTID":255633},"geometry":{"x":193145.53000000026,"y":2575334.8200000003}},{"attributes":{"ID":255638,"DIS_CODE":0,"TOWNNAME":"永康區","LI":"二王里","LIN":"30鄰","STREET":"中山南路","SECT":" ","MAREA":" ","LANE":"５１０巷","ALLEY":" ","HOUSE_NO":"１號之９","E_COORD97":172174.23000000001,"N_COORD97":2546444.1000000001,"ADDRESS":"中山南路５１０巷１號之９","OBJECTID":255634},"geometry":{"x":172174.23000000138,"y":2546444.1000000034}},{"attributes":{"ID":255639,"DIS_CODE":0,"TOWNNAME":"永康區","LI":"中興里","LIN":"21鄰","STREET":"中華路","SECT":" ","MAREA":" ","LANE":"２１６巷","ALLEY":" ","HOUSE_NO":"６６號","E_COORD97":171905.42000000001,"N_COORD97":2545150.3500000001,"ADDRESS":"中華路２１６巷６６號","OBJECTID":255635},"geometry":{"x":171905.41999999993,"y":2545150.3500000034}},{"attributes":{"ID":255640,"DIS_CODE":0,"TOWNNAME":"歸仁區","LI":"新厝里","LIN":"27鄰","STREET":"中正五街","SECT":" ","MAREA":" ","LANE":"３９巷","ALLEY":" ","HOUSE_NO":"１８號","E_COORD97":177065.12,"N_COORD97":2540105.4300000002,"ADDRESS":"中正五街３９巷１８號","OBJECTID":255636},"geometry":{"x":177065.12000000104,"y":2540105.4300000016}},{"attributes":{"ID":255641,"DIS_CODE":0,"TOWNNAME":"關廟區","LI":"東勢里","LIN":"27鄰","STREET":"和平路","SECT":" ","MAREA":" ","LANE":"４１巷","ALLEY":" ","HOUSE_NO":"２號","E_COORD97":181689.39000000001,"N_COORD97":2539399.25,"ADDRESS":"和平路４１巷２號","OBJECTID":255637},"geometry":{"x":181689.3900000006,"y":2539399.2500000019}},{"attributes":{"ID":255642,"DIS_CODE":0,"TOWNNAME":"關廟區","LI":"東勢里","LIN":"27鄰","STREET":"和平路","SECT":" ","MAREA":" ","LANE":"２２巷","ALLEY":" ","HOUSE_NO":"１號","E_COORD97":181752.39000000001,"N_COORD97":2539366.25,"ADDRESS":"和平路２２巷１號","OBJECTID":255638},"geometry":{"x":181752.38999999966,"y":2539366.25}},{"attributes":{"ID":255643,"DIS_CODE":0,"TOWNNAME":"東區","LI":"圍下里","LIN":"24鄰","STREET":"北門路","SECT":"一段","MAREA":" ","LANE":" ","ALLEY":" ","HOUSE_NO":"１８８號","E_COORD97":169205.19,"N_COORD97":2543838.7200000002,"ADDRESS":"北門路一段１８８號","OBJECTID":255639},"geometry":{"x":169205.19000000041,"y":2543838.7200000007}},{"attributes":{"ID":255644,"DIS_CODE":0,"TOWNNAME":"東區","LI":"圍下里","LIN":"24鄰","STREET":"北門路","SECT":"一段","MAREA":" ","LANE":" ","ALLEY":" ","HOUSE_NO":"１９０號","E_COORD97":169205.45000000001,"N_COORD97":2543843.1099999999,"ADDRESS":"北門路一段１９０號","OBJECTID":255640},"geometry":{"x":169205.44999999925,"y":2543843.1100000031}},{"attributes":{"ID":255645,"DIS_CODE":0,"TOWNNAME":"東區","LI":"圍下里","LIN":"24鄰","STREET":"北門路","SECT":"一段","MAREA":" ","LANE":" ","ALLEY":" ","HOUSE_NO":"２１８號","E_COORD97":169206.48999999999,"N_COORD97":2543861.4399999999,"ADDRESS":"北門路一段２１８號","OBJECTID":255641},"geometry":{"x":169206.49000000022,"y":2543861.4400000032}},{"attributes":{"ID":255646,"DIS_CODE":0,"TOWNNAME":"東區","LI":"圍下里","LIN":"24鄰","STREET":"北門路","SECT":"一段","MAREA":" ","LANE":" ","ALLEY":" ","HOUSE_NO":"２２０號","E_COORD97":169205.70999999999,"N_COORD97":2543867.3799999999,"ADDRESS":"北門路一段２２０號","OBJECTID":255642},"geometry":{"x":169205.71000000089,"y":2543867.379999999}},{"attributes":{"ID":255647,"DIS_CODE":0,"TOWNNAME":"東區","LI":"圍下里","LIN":"24鄰","STREET":"北門路","SECT":"一段","MAREA":" ","LANE":" ","ALLEY":" ","HOUSE_NO":"２２２號","E_COORD97":169205.78,"N_COORD97":2543869.8999999999,"ADDRESS":"北門路一段２２２號","OBJECTID":255643},"geometry":{"x":169205.78000000119,"y":2543869.9000000022}},{"attributes":{"ID":255648,"DIS_CODE":0,"TOWNNAME":"東區","LI":"圍下里","LIN":"24鄰","STREET":"民族路","SECT":"一段","MAREA":" ","LANE":" ","ALLEY":" ","HOUSE_NO":"１０１號","E_COORD97":169233.38,"N_COORD97":2543869.4500000002,"ADDRESS":"民族路一段１０１號","OBJECTID":255644},"geometry":{"x":169233.38000000082,"y":2543869.4500000011}},{"attributes":{"ID":255649,"DIS_CODE":0,"TOWNNAME":"東區","LI":"圍下里","LIN":"24鄰","STREET":"民族路","SECT":"一段","MAREA":" ","LANE":" ","ALLEY":" ","HOUSE_NO":"１０３號","E_COORD97":169228.45999999999,"N_COORD97":2543869.4500000002,"ADDRESS":"民族路一段１０３號","OBJECTID":255645},"geometry":{"x":169228.45999999996,"y":2543869.4500000011}},{"attributes":{"ID":255650,"DIS_CODE":0,"TOWNNAME":"東區","LI":"圍下里","LIN":"24鄰","STREET":"民族路","SECT":"一段","MAREA":" ","LANE":" ","ALLEY":" ","HOUSE_NO":"１０５號","E_COORD97":169220.70999999999,"N_COORD97":2543871.77,"ADDRESS":"民族路一段１０５號","OBJECTID":255646},"geometry":{"x":169220.71000000089,"y":2543871.7699999996}},{"attributes":{"ID":255651,"DIS_CODE":0,"TOWNNAME":"關廟區","LI":"東勢里","LIN":"27鄰","STREET":"和平路","SECT":" ","MAREA":" ","LANE":"４１巷","ALLEY":" ","HOUSE_NO":"３號","E_COORD97":181695.59,"N_COORD97":2539390.25,"ADDRESS":"和平路４１巷３號","OBJECTID":255647},"geometry":{"x":181695.58999999985,"y":2539390.25}},{"attributes":{"ID":255652,"DIS_CODE":0,"TOWNNAME":"關廟區","LI":"東勢里","LIN":"27鄰","STREET":"東安街","SECT":" ","MAREA":" ","LANE":"２４５巷","ALLEY":" ","HOUSE_NO":"２８號","E_COORD97":181667.82000000001,"N_COORD97":2539410.3199999998,"ADDRESS":"東安街２４５巷２８號","OBJECTID":255648},"geometry":{"x":181667.82000000216,"y":2539410.3200000003}},{"attributes":{"ID":255653,"DIS_CODE":0,"TOWNNAME":"關廟區","LI":"東勢里","LIN":"27鄰","STREET":"和平路","SECT":" ","MAREA":" ","LANE":"２２巷","ALLEY":" ","HOUSE_NO":"１７號","E_COORD97":181788.14000000001,"N_COORD97":2539389.25,"ADDRESS":"和平路２２巷１７號","OBJECTID":255649},"geometry":{"x":181788.13999999966,"y":2539389.2500000019}},{"attributes":{"ID":255654,"DIS_CODE":0,"TOWNNAME":"關廟區","LI":"東勢里","LIN":"27鄰","STREET":"東安街","SECT":" ","MAREA":" ","LANE":"２４５巷","ALLEY":" ","HOUSE_NO":"２２號","E_COORD97":181668.22,"N_COORD97":2539402.3199999998,"ADDRESS":"東安街２４５巷２２號","OBJECTID":255650},"geometry":{"x":181668.22000000067,"y":2539402.3200000022}},{"attributes":{"ID":255655,"DIS_CODE":0,"TOWNNAME":"永康區","LI":"中興里","LIN":"5鄰","STREET":"中華路","SECT":" ","MAREA":" ","LANE":"２１４巷","ALLEY":" ","HOUSE_NO":"７７號","E_COORD97":171878.64000000001,"N_COORD97":2545104.6800000002,"ADDRESS":"中華路２１４巷７７號","OBJECTID":255651},"geometry":{"x":171878.64000000153,"y":2545104.6800000016}},{"attributes":{"ID":255656,"DIS_CODE":0,"TOWNNAME":"永康區","LI":"五王里","LIN":"20鄰","STREET":"中華路","SECT":" ","MAREA":" ","LANE":"４６８巷","ALLEY":" ","HOUSE_NO":"２號","E_COORD97":171354.12,"N_COORD97":2545707,"ADDRESS":"中華路４６８巷２號","OBJECTID":255652},"geometry":{"x":171354.12000000104,"y":2545707.0000000019}},{"attributes":{"ID":255657,"DIS_CODE":0,"TOWNNAME":"北區","LI":"成德里","LIN":"20鄰","STREET":"文成三路","SECT":" ","MAREA":" ","LANE":"２４３巷","ALLEY":" ","HOUSE_NO":"１１號","E_COORD97":168386.69,"N_COORD97":2546281.8300000001,"ADDRESS":"文成三路２４３巷１１號","OBJECTID":255653},"geometry":{"x":168386.69000000041,"y":2546281.8300000001}},{"attributes":{"ID":255658,"DIS_CODE":0,"TOWNNAME":"北區","LI":"成德里","LIN":"20鄰","STREET":"文成三路","SECT":" ","MAREA":" ","LANE":"２４３巷","ALLEY":" ","HOUSE_NO":"１３號","E_COORD97":168388.75,"N_COORD97":2546274.3700000001,"ADDRESS":"文成三路２４３巷１３號","OBJECTID":255654},"geometry":{"x":168388.75000000093,"y":2546274.3700000029}},{"attributes":{"ID":255659,"DIS_CODE":0,"TOWNNAME":"永康區","LI":"二王里","LIN":"17鄰","STREET":"忠孝路","SECT":" ","MAREA":" ","LANE":"４１０巷","ALLEY":" ","HOUSE_NO":"６６號","E_COORD97":172638.95000000001,"N_COORD97":2546531.5,"ADDRESS":"忠孝路４１０巷６６號","OBJECTID":255655},"geometry":{"x":172638.95000000112,"y":2546531.5}},{"attributes":{"ID":255660,"DIS_CODE":0,"TOWNNAME":"永康區","LI":"二王里","LIN":"17鄰","STREET":"忠孝路","SECT":" ","MAREA":" ","LANE":"４１０巷","ALLEY":" ","HOUSE_NO":"４６號","E_COORD97":172583.31,"N_COORD97":2546527.1299999999,"ADDRESS":"忠孝路４１０巷４６號","OBJECTID":255656},"geometry":{"x":172583.31000000052,"y":2546527.129999999}},{"attributes":{"ID":255661,"DIS_CODE":0,"TOWNNAME":"中西區","LI":"西湖里","LIN":"17鄰","STREET":"湖美二街","SECT":" ","MAREA":" ","LANE":"４６巷","ALLEY":" ","HOUSE_NO":"１０號","E_COORD97":166167.20000000001,"N_COORD97":2544648.6400000001,"ADDRESS":"湖美二街４６巷１０號","OBJECTID":255657},"geometry":{"x":166167.20000000019,"y":2544648.6400000025}},{"attributes":{"ID":255662,"DIS_CODE":0,"TOWNNAME":"東區","LI":"圍下里","LIN":"24鄰","STREET":"民族路","SECT":"一段","MAREA":" ","LANE":" ","ALLEY":" ","HOUSE_NO":"１０７號","E_COORD97":169214.5,"N_COORD97":2543871.77,"ADDRESS":"民族路一段１０７號","OBJECTID":255658},"geometry":{"x":169214.5,"y":2543871.7699999996}},{"attributes":{"ID":255663,"DIS_CODE":0,"TOWNNAME":"仁德區","LI":"後壁里","LIN":"24鄰","STREET":"德洋路","SECT":" ","MAREA":" ","LANE":" ","ALLEY":" ","HOUSE_NO":"１９之２號","E_COORD97":173160.59,"N_COORD97":2539000.04,"ADDRESS":"德洋路１９之２號","OBJECTID":255659},"geometry":{"x":173160.58999999985,"y":2539000.040000001}},{"attributes":{"ID":255664,"DIS_CODE":0,"TOWNNAME":"仁德區","LI":"後壁里","LIN":"24鄰","STREET":"德洋路","SECT":" ","MAREA":" ","LANE":" ","ALLEY":" ","HOUSE_NO":"７號","E_COORD97":173195.48999999999,"N_COORD97":2538979.7799999998,"ADDRESS":"德洋路７號","OBJECTID":255660},"geometry":{"x":173195.49000000022,"y":2538979.7799999993}},{"attributes":{"ID":255665,"DIS_CODE":0,"TOWNNAME":"仁德區","LI":"後壁里","LIN":"24鄰","STREET":"德洋路","SECT":" ","MAREA":" ","LANE":" ","ALLEY":" ","HOUSE_NO":"１７號","E_COORD97":173176.70000000001,"N_COORD97":2538990.5299999998,"ADDRESS":"德洋路１７號","OBJECTID":255661},"geometry":{"x":173176.70000000019,"y":2538990.5299999993}},{"attributes":{"ID":255666,"DIS_CODE":0,"TOWNNAME":"仁德區","LI":"後壁里","LIN":"24鄰","STREET":"德洋路","SECT":" ","MAREA":" ","LANE":" ","ALLEY":" ","HOUSE_NO":"２２號","E_COORD97":173150,"N_COORD97":2539023.7599999998,"ADDRESS":"德洋路２２號","OBJECTID":255662},"geometry":{"x":173150.00000000093,"y":2539023.7599999998}},{"attributes":{"ID":255667,"DIS_CODE":0,"TOWNNAME":"仁德區","LI":"後壁里","LIN":"24鄰","STREET":"德洋路","SECT":" ","MAREA":" ","LANE":" ","ALLEY":" ","HOUSE_NO":"１８號","E_COORD97":173161.20000000001,"N_COORD97":2539016.7599999998,"ADDRESS":"德洋路１８號","OBJECTID":255663},"geometry":{"x":173161.20000000112,"y":2539016.7599999998}},{"attributes":{"ID":255668,"DIS_CODE":0,"TOWNNAME":"永康區","LI":"中興里","LIN":"24鄰","STREET":"中華路","SECT":" ","MAREA":" ","LANE":"２１６巷","ALLEY":" ","HOUSE_NO":"２２號","E_COORD97":171803.67999999999,"N_COORD97":2545141.8399999999,"ADDRESS":"中華路２１６巷２２號","OBJECTID":255664},"geometry":{"x":171803.6799999997,"y":2545141.8400000017}},{"attributes":{"ID":255669,"DIS_CODE":0,"TOWNNAME":"中西區","LI":"西湖里","LIN":"17鄰","STREET":"湖美二街","SECT":" ","MAREA":" ","LANE":"４６巷","ALLEY":" ","HOUSE_NO":"１號","E_COORD97":166142.14000000001,"N_COORD97":2544671.73,"ADDRESS":"湖美二街４６巷１號","OBJECTID":255665},"geometry":{"x":166142.14000000153,"y":2544671.7300000023}},{"attributes":{"ID":255670,"DIS_CODE":0,"TOWNNAME":"中西區","LI":"西湖里","LIN":"17鄰","STREET":"湖美二街","SECT":" ","MAREA":" ","LANE":"４６巷","ALLEY":" ","HOUSE_NO":"２號","E_COORD97":166143.10999999999,"N_COORD97":2544649.6099999999,"ADDRESS":"湖美二街４６巷２號","OBJECTID":255666},"geometry":{"x":166143.1100000022,"y":2544649.6099999994}},{"attributes":{"ID":255671,"DIS_CODE":0,"TOWNNAME":"中西區","LI":"西湖里","LIN":"17鄰","STREET":"湖美二街","SECT":" ","MAREA":" ","LANE":"４６巷","ALLEY":" ","HOUSE_NO":"３號","E_COORD97":166146.76000000001,"N_COORD97":2544671.9700000002,"ADDRESS":"湖美二街４６巷３號","OBJECTID":255667},"geometry":{"x":166146.76000000071,"y":2544671.9700000007}},{"attributes":{"ID":255672,"DIS_CODE":0,"TOWNNAME":"中西區","LI":"西湖里","LIN":"17鄰","STREET":"湖美二街","SECT":" ","MAREA":" ","LANE":"４６巷","ALLEY":" ","HOUSE_NO":"４號","E_COORD97":166148.70999999999,"N_COORD97":2544649.1299999999,"ADDRESS":"湖美二街４６巷４號","OBJECTID":255668},"geometry":{"x":166148.70999999903,"y":2544649.129999999}},{"attributes":{"ID":255673,"DIS_CODE":0,"TOWNNAME":"中西區","LI":"西湖里","LIN":"17鄰","STREET":"湖美二街","SECT":" ","MAREA":" ","LANE":"４６巷","ALLEY":" ","HOUSE_NO":"５號","E_COORD97":166154.29999999999,"N_COORD97":2544672.9399999999,"ADDRESS":"湖美二街４６巷５號","OBJECTID":255669},"geometry":{"x":166154.29999999981,"y":2544672.9400000013}},{"attributes":{"ID":255674,"DIS_CODE":0,"TOWNNAME":"中西區","LI":"西湖里","LIN":"17鄰","STREET":"湖美二街","SECT":" ","MAREA":" ","LANE":"４６巷","ALLEY":" ","HOUSE_NO":"６號","E_COORD97":166155.03,"N_COORD97":2544648.6400000001,"ADDRESS":"湖美二街４６巷６號","OBJECTID":255670},"geometry":{"x":166155.03000000026,"y":2544648.6400000025}},{"attributes":{"ID":255675,"DIS_CODE":0,"TOWNNAME":"中西區","LI":"西湖里","LIN":"17鄰","STREET":"湖美二街","SECT":" ","MAREA":" ","LANE":"４６巷","ALLEY":" ","HOUSE_NO":"７號","E_COORD97":166160.39000000001,"N_COORD97":2544672.7000000002,"ADDRESS":"湖美二街４６巷７號","OBJECTID":255671},"geometry":{"x":166160.38999999966,"y":2544672.6999999993}},{"attributes":{"ID":255676,"DIS_CODE":0,"TOWNNAME":"中西區","LI":"西湖里","LIN":"17鄰","STREET":"湖美二街","SECT":" ","MAREA":" ","LANE":"４６巷","ALLEY":" ","HOUSE_NO":"８號","E_COORD97":166161.12,"N_COORD97":2544648.3999999999,"ADDRESS":"湖美二街４６巷８號","OBJECTID":255672},"geometry":{"x":166161.12000000011,"y":2544648.4000000004}},{"attributes":{"ID":255677,"DIS_CODE":0,"TOWNNAME":"中西區","LI":"西湖里","LIN":"17鄰","STREET":"湖美二街","SECT":" ","MAREA":" ","LANE":"４６巷","ALLEY":" ","HOUSE_NO":"９號","E_COORD97":166166.95999999999,"N_COORD97":2544673.4300000002,"ADDRESS":"湖美二街４６巷９號","OBJECTID":255673},"geometry":{"x":166166.95999999996,"y":2544673.4300000016}},{"attributes":{"ID":255678,"DIS_CODE":0,"TOWNNAME":"中西區","LI":"西湖里","LIN":"17鄰","STREET":"湖美二街","SECT":" ","MAREA":" ","LANE":"６２巷","ALLEY":" ","HOUSE_NO":"２號","E_COORD97":166160.87,"N_COORD97":2544697.9500000002,"ADDRESS":"湖美二街６２巷２號","OBJECTID":255674},"geometry":{"x":166160.87000000011,"y":2544697.9499999993}},{"attributes":{"ID":255679,"DIS_CODE":0,"TOWNNAME":"中西區","LI":"西湖里","LIN":"17鄰","STREET":"湖美二街","SECT":" ","MAREA":" ","LANE":"６２巷","ALLEY":" ","HOUSE_NO":"４號","E_COORD97":166165.98000000001,"N_COORD97":2544698.6800000002,"ADDRESS":"湖美二街６２巷４號","OBJECTID":255675},"geometry":{"x":166165.98000000045,"y":2544698.6800000016}},{"attributes":{"ID":255680,"DIS_CODE":0,"TOWNNAME":"仁德區","LI":"土庫里","LIN":"17鄰","STREET":"土庫一街","SECT":" ","MAREA":" ","LANE":"５６巷","ALLEY":" ","HOUSE_NO":"９號","E_COORD97":174527.29000000001,"N_COORD97":2543072.2400000002,"ADDRESS":"土庫一街５６巷９號","OBJECTID":255676},"geometry":{"x":174527.29000000004,"y":2543072.2400000002}},{"attributes":{"ID":255681,"DIS_CODE":0,"TOWNNAME":"仁德區","LI":"仁義里","LIN":"17鄰","STREET":"正義路","SECT":" ","MAREA":" ","LANE":"２０５巷","ALLEY":" ","HOUSE_NO":"５７號","E_COORD97":174130.14999999999,"N_COORD97":2541454.27,"ADDRESS":"正義路２０５巷５７號","OBJECTID":255677},"geometry":{"x":174130.15000000037,"y":2541454.2699999996}},{"attributes":{"ID":255682,"DIS_CODE":0,"TOWNNAME":"仁德區","LI":"仁義里","LIN":"17鄰","STREET":"正義路","SECT":" ","MAREA":" ","LANE":"２０５巷","ALLEY":" ","HOUSE_NO":"５５號","E_COORD97":174126.59,"N_COORD97":2541453.77,"ADDRESS":"正義路２０５巷５５號","OBJECTID":255678},"geometry":{"x":174126.58999999985,"y":2541453.7699999996}},{"attributes":{"ID":255683,"DIS_CODE":0,"TOWNNAME":"仁德區","LI":"後壁里","LIN":"24鄰","STREET":"德洋路","SECT":" ","MAREA":" ","LANE":" ","ALLEY":" ","HOUSE_NO":"１６號","E_COORD97":173171,"N_COORD97":2539014.2599999998,"ADDRESS":"德洋路１６號","OBJECTID":255679},"geometry":{"x":173171,"y":2539014.2599999998}},{"attributes":{"ID":255684,"DIS_CODE":0,"TOWNNAME":"北區","LI":"成德里","LIN":"27鄰","STREET":"育德路","SECT":" ","MAREA":" ","LANE":"２２１巷","ALLEY":" ","HOUSE_NO":"９２號","E_COORD97":168374.17000000001,"N_COORD97":2545774.8599999999,"ADDRESS":"育德路２２１巷９２號","OBJECTID":255680},"geometry":{"x":168374.16999999993,"y":2545774.8600000013}},{"attributes":{"ID":255685,"DIS_CODE":0,"TOWNNAME":"關廟區","LI":"五甲里","LIN":"3鄰","STREET":"旺萊路","SECT":" ","MAREA":" ","LANE":"７１巷","ALLEY":" ","HOUSE_NO":"３５號","E_COORD97":181556.56901800001,"N_COORD97":2539312.8399299998,"ADDRESS":"旺萊路７１巷３５號","OBJECTID":255681},"geometry":{"x":181556.56901800074,"y":2539312.8399260007}},{"attributes":{"ID":255686,"DIS_CODE":0,"TOWNNAME":"北區","LI":"成德里","LIN":"27鄰","STREET":"育德路","SECT":" ","MAREA":" ","LANE":"２２１巷","ALLEY":" ","HOUSE_NO":"９０號","E_COORD97":168379.57000000001,"N_COORD97":2545774.8599999999,"ADDRESS":"育德路２２１巷９０號","OBJECTID":255682},"geometry":{"x":168379.57000000123,"y":2545774.8600000013}},{"attributes":{"ID":255687,"DIS_CODE":0,"TOWNNAME":"北區","LI":"成德里","LIN":"27鄰","STREET":"育德路","SECT":" ","MAREA":" ","LANE":"２２１巷","ALLEY":" ","HOUSE_NO":"８８號","E_COORD97":168384.64999999999,"N_COORD97":2545775.1800000002,"ADDRESS":"育德路２２１巷８８號","OBJECTID":255683},"geometry":{"x":168384.6500000013,"y":2545775.1799999997}},{"attributes":{"ID":255688,"DIS_CODE":0,"TOWNNAME":"北區","LI":"成德里","LIN":"27鄰","STREET":"育德路","SECT":" ","MAREA":" ","LANE":"２２１巷","ALLEY":" ","HOUSE_NO":"８６號","E_COORD97":168389.89000000001,"N_COORD97":2545775.5,"ADDRESS":"育德路２２１巷８６號","OBJECTID":255684},"geometry":{"x":168389.88999999873,"y":2545775.5}},{"attributes":{"ID":255689,"DIS_CODE":0,"TOWNNAME":"北區","LI":"成德里","LIN":"27鄰","STREET":"育德路","SECT":" ","MAREA":" ","LANE":"２２１巷","ALLEY":" ","HOUSE_NO":"８２號","E_COORD97":168394.17000000001,"N_COORD97":2545775.3399999999,"ADDRESS":"育德路２２１巷８２號","OBJECTID":255685},"geometry":{"x":168394.17000000086,"y":2545775.3400000017}},{"attributes":{"ID":255690,"DIS_CODE":0,"TOWNNAME":"北區","LI":"成德里","LIN":"27鄰","STREET":"育德路","SECT":" ","MAREA":" ","LANE":"２２１巷","ALLEY":" ","HOUSE_NO":"８０號","E_COORD97":168399.09,"N_COORD97":2545775.3399999999,"ADDRESS":"育德路２２１巷８０號","OBJECTID":255686},"geometry":{"x":168399.09000000171,"y":2545775.3400000017}},{"attributes":{"ID":255691,"DIS_CODE":0,"TOWNNAME":"北區","LI":"成德里","LIN":"27鄰","STREET":"育德路","SECT":" ","MAREA":" ","LANE":"２２１巷","ALLEY":" ","HOUSE_NO":"７８號","E_COORD97":168404.01999999999,"N_COORD97":2545775.5,"ADDRESS":"育德路２２１巷７８號","OBJECTID":255687},"geometry":{"x":168404.01999999955,"y":2545775.5}},{"attributes":{"ID":255692,"DIS_CODE":0,"TOWNNAME":"北區","LI":"成德里","LIN":"27鄰","STREET":"育德路","SECT":" ","MAREA":" ","LANE":"２２１巷","ALLEY":" ","HOUSE_NO":"７６號","E_COORD97":168410.37,"N_COORD97":2545776.0499999998,"ADDRESS":"育德路２２１巷７６號","OBJECTID":255688},"geometry":{"x":168410.37000000011,"y":2545776.0500000007}},{"attributes":{"ID":255693,"DIS_CODE":0,"TOWNNAME":"永康區","LI":"五王里","LIN":"18鄰","STREET":"成功路","SECT":" ","MAREA":" ","LANE":"１８８巷","ALLEY":" ","HOUSE_NO":"２１號","E_COORD97":171466.13,"N_COORD97":2545705.02,"ADDRESS":"成功路１８８巷２１號","OBJECTID":255689},"geometry":{"x":171466.13000000082,"y":2545705.0199999977}},{"attributes":{"ID":255694,"DIS_CODE":0,"TOWNNAME":"永康區","LI":"王行里","LIN":"4鄰","STREET":"育樂街","SECT":" ","MAREA":" ","LANE":"１８３巷","ALLEY":" ","HOUSE_NO":"２５號","E_COORD97":174967.10000000001,"N_COORD97":2548271.02,"ADDRESS":"育樂街１８３巷２５號","OBJECTID":255690},"geometry":{"x":174967.09999999963,"y":2548271.0199999996}},{"attributes":{"ID":255695,"DIS_CODE":0,"TOWNNAME":"永康區","LI":"五王里","LIN":"39鄰","STREET":"中華路","SECT":" ","MAREA":" ","LANE":"５７８巷","ALLEY":" ","HOUSE_NO":"１７號之１１９","E_COORD97":171334.89999999999,"N_COORD97":2545989.54,"ADDRESS":"中華路５７８巷１７號之１１９","OBJECTID":255691},"geometry":{"x":171334.90000000037,"y":2545989.5400000028}},{"attributes":{"ID":255696,"DIS_CODE":0,"TOWNNAME":"永康區","LI":"大橋里","LIN":"15鄰","STREET":"大橋一街","SECT":" ","MAREA":" ","LANE":"１０３巷","ALLEY":" ","HOUSE_NO":"６５號","E_COORD97":170916.28,"N_COORD97":2546564.2599999998,"ADDRESS":"大橋一街１０３巷６５號","OBJECTID":255692},"geometry":{"x":170916.28000000119,"y":2546564.2599999998}},{"attributes":{"ID":255697,"DIS_CODE":0,"TOWNNAME":"北區","LI":"文元里","LIN":"27鄰","STREET":"中華北路","SECT":"二段","MAREA":" ","LANE":"８０巷","ALLEY":" ","HOUSE_NO":"１６號","E_COORD97":167707.16,"N_COORD97":2546526.2000000002,"ADDRESS":"中華北路二段８０巷１６號","OBJECTID":255693},"geometry":{"x":167707.16000000201,"y":2546526.1999999993}},{"attributes":{"ID":255698,"DIS_CODE":0,"TOWNNAME":"仁德區","LI":"仁義里","LIN":"17鄰","STREET":"正義路","SECT":" ","MAREA":" ","LANE":"２０５巷","ALLEY":" ","HOUSE_NO":"５３號","E_COORD97":174122.53,"N_COORD97":2541453.27,"ADDRESS":"正義路２０５巷５３號","OBJECTID":255694},"geometry":{"x":174122.53000000026,"y":2541453.2700000014}},{"attributes":{"ID":255699,"DIS_CODE":0,"TOWNNAME":"仁德區","LI":"土庫里","LIN":"17鄰","STREET":"土庫一街","SECT":" ","MAREA":" ","LANE":"５６巷","ALLEY":" ","HOUSE_NO":"１３號","E_COORD97":174559.35000000001,"N_COORD97":2543081.73,"ADDRESS":"土庫一街５６巷１３號","OBJECTID":255695},"geometry":{"x":174559.35000000056,"y":2543081.7300000023}},{"attributes":{"ID":255700,"DIS_CODE":0,"TOWNNAME":"仁德區","LI":"仁義里","LIN":"17鄰","STREET":"正義路","SECT":" ","MAREA":" ","LANE":"２６３巷","ALLEY":" ","HOUSE_NO":"１０號","E_COORD97":174132.44,"N_COORD97":2541392.5099999998,"ADDRESS":"正義路２６３巷１０號","OBJECTID":255696},"geometry":{"x":174132.44000000134,"y":2541392.5099999998}},{"attributes":{"ID":255701,"DIS_CODE":0,"TOWNNAME":"仁德區","LI":"土庫里","LIN":"17鄰","STREET":"土庫一街","SECT":" ","MAREA":" ","LANE":"５６巷","ALLEY":" ","HOUSE_NO":"７號","E_COORD97":174515.51000000001,"N_COORD97":2543069.2400000002,"ADDRESS":"土庫一街５６巷７號","OBJECTID":255697},"geometry":{"x":174515.50999999978,"y":2543069.2400000002}},{"attributes":{"ID":255702,"DIS_CODE":0,"TOWNNAME":"北區","LI":"大和里","LIN":"8鄰","STREET":"文賢路","SECT":" ","MAREA":" ","LANE":"７５９巷","ALLEY":" ","HOUSE_NO":"６號","E_COORD97":167301.12,"N_COORD97":2546214.0600000001,"ADDRESS":"文賢路７５９巷６號","OBJECTID":255698},"geometry":{"x":167301.12000000104,"y":2546214.0600000005}},{"attributes":{"ID":255703,"DIS_CODE":0,"TOWNNAME":"仁德區","LI":"大甲里","LIN":"24鄰","STREET":"中正西路","SECT":" ","MAREA":" ","LANE":" ","ALLEY":" ","HOUSE_NO":"３６２號","E_COORD97":169722.19,"N_COORD97":2535415.6099999999,"ADDRESS":"中正西路３６２號","OBJECTID":255699},"geometry":{"x":169722.19000000041,"y":2535415.6100000013}},{"attributes":{"ID":255704,"DIS_CODE":0,"TOWNNAME":"仁德區","LI":"大甲里","LIN":"24鄰","STREET":"中正西路","SECT":" ","MAREA":" ","LANE":" ","ALLEY":" ","HOUSE_NO":"３８０號","E_COORD97":169659.54999999999,"N_COORD97":2535421.6800000002,"ADDRESS":"中正西路３８０號","OBJECTID":255700},"geometry":{"x":169659.55000000075,"y":2535421.6800000016}},{"attributes":{"ID":255705,"DIS_CODE":0,"TOWNNAME":"仁德區","LI":"大甲里","LIN":"24鄰","STREET":"中正西路","SECT":" ","MAREA":" ","LANE":" ","ALLEY":" ","HOUSE_NO":"３８２號","E_COORD97":169652.98000000001,"N_COORD97":2535422.5499999998,"ADDRESS":"中正西路３８２號","OBJECTID":255701},"geometry":{"x":169652.98000000045,"y":2535422.5500000007}},{"attributes":{"ID":255706,"DIS_CODE":0,"TOWNNAME":"仁德區","LI":"大甲里","LIN":"24鄰","STREET":"中正西路","SECT":" ","MAREA":" ","LANE":" ","ALLEY":" ","HOUSE_NO":"３８６號","E_COORD97":169646.35999999999,"N_COORD97":2535422.6400000001,"ADDRESS":"中正西路３８６號","OBJECTID":255702},"geometry":{"x":169646.36000000034,"y":2535422.6400000043}},{"attributes":{"ID":255707,"DIS_CODE":0,"TOWNNAME":"仁德區","LI":"大甲里","LIN":"24鄰","STREET":"中正西路","SECT":" ","MAREA":" ","LANE":" ","ALLEY":" ","HOUSE_NO":"３８８號","E_COORD97":169640.31,"N_COORD97":2535423.1699999999,"ADDRESS":"中正西路３８８號","OBJECTID":255703},"geometry":{"x":169640.31000000052,"y":2535423.1700000018}},{"attributes":{"ID":255708,"DIS_CODE":0,"TOWNNAME":"仁德區","LI":"大甲里","LIN":"24鄰","STREET":"中正西路","SECT":" ","MAREA":" ","LANE":" ","ALLEY":" ","HOUSE_NO":"３９０號","E_COORD97":169633.64000000001,"N_COORD97":2535423.5099999998,"ADDRESS":"中正西路３９０號","OBJECTID":255704},"geometry":{"x":169633.63999999966,"y":2535423.5100000016}},{"attributes":{"ID":255709,"DIS_CODE":0,"TOWNNAME":"仁德區","LI":"大甲里","LIN":"24鄰","STREET":"中正西路","SECT":" ","MAREA":" ","LANE":" ","ALLEY":" ","HOUSE_NO":"３９２號","E_COORD97":169627.14000000001,"N_COORD97":2535423.9700000002,"ADDRESS":"中正西路３９２號","OBJECTID":255705},"geometry":{"x":169627.13999999966,"y":2535423.9700000044}},{"attributes":{"ID":255710,"DIS_CODE":0,"TOWNNAME":"仁德區","LI":"大甲里","LIN":"24鄰","STREET":"中正西路","SECT":" ","MAREA":" ","LANE":" ","ALLEY":" ","HOUSE_NO":"３９６號","E_COORD97":169620.62,"N_COORD97":2535424.3900000001,"ADDRESS":"中正西路３９６號","OBJECTID":255706},"geometry":{"x":169620.62000000011,"y":2535424.3900000043}},{"attributes":{"ID":255711,"DIS_CODE":0,"TOWNNAME":"安平區","LI":"金城里","LIN":"5鄰","STREET":"湖內二街","SECT":" ","MAREA":" ","LANE":" ","ALLEY":" ","HOUSE_NO":"２４號","E_COORD97":163807,"N_COORD97":2544273.6000000001,"ADDRESS":"湖內二街２４號","OBJECTID":255707},"geometry":{"x":163807,"y":2544273.5999999996}},{"attributes":{"ID":255712,"DIS_CODE":0,"TOWNNAME":"安平區","LI":"金城里","LIN":"5鄰","STREET":"湖內二街","SECT":" ","MAREA":" ","LANE":" ","ALLEY":" ","HOUSE_NO":"３號","E_COORD97":163790.76999999999,"N_COORD97":2544241.3199999998,"ADDRESS":"湖內二街３號","OBJECTID":255708},"geometry":{"x":163790.77000000048,"y":2544241.3200000003}},{"attributes":{"ID":255713,"DIS_CODE":0,"TOWNNAME":"安平區","LI":"金城里","LIN":"5鄰","STREET":"湖內二街","SECT":" ","MAREA":" ","LANE":" ","ALLEY":" ","HOUSE_NO":"３４號之１","E_COORD97":163800.32000000001,"N_COORD97":2544302.0800000001,"ADDRESS":"湖內二街３４號之１","OBJECTID":255709},"geometry":{"x":163800.3200000003,"y":2544302.0800000019}},{"attributes":{"ID":255714,"DIS_CODE":0,"TOWNNAME":"安平區","LI":"金城里","LIN":"5鄰","STREET":"湖內二街","SECT":" ","MAREA":" ","LANE":" ","ALLEY":" ","HOUSE_NO":"３５號","E_COORD97":163774.34,"N_COORD97":2544311.2999999998,"ADDRESS":"湖內二街３５號","OBJECTID":255710},"geometry":{"x":163774.33999999985,"y":2544311.3000000045}},{"attributes":{"ID":255715,"DIS_CODE":0,"TOWNNAME":"安平區","LI":"金城里","LIN":"5鄰","STREET":"湖內二街","SECT":" ","MAREA":" ","LANE":" ","ALLEY":" ","HOUSE_NO":"３７號","E_COORD97":163773.13,"N_COORD97":2544314.9500000002,"ADDRESS":"湖內二街３７號","OBJECTID":255711},"geometry":{"x":163773.13000000082,"y":2544314.9499999993}},{"attributes":{"ID":255716,"DIS_CODE":0,"TOWNNAME":"安平區","LI":"金城里","LIN":"5鄰","STREET":"湖內二街","SECT":" ","MAREA":" ","LANE":" ","ALLEY":" ","HOUSE_NO":"４２號","E_COORD97":163795.20000000001,"N_COORD97":2544323.4399999999,"ADDRESS":"湖內二街４２號","OBJECTID":255712},"geometry":{"x":163795.20000000112,"y":2544323.4400000013}},{"attributes":{"ID":255717,"DIS_CODE":0,"TOWNNAME":"北區","LI":"文元里","LIN":"27鄰","STREET":"中華北路","SECT":"二段","MAREA":" ","LANE":"６２巷","ALLEY":" ","HOUSE_NO":"１號","E_COORD97":167627.10999999999,"N_COORD97":2546617.3300000001,"ADDRESS":"中華北路二段６２巷１號","OBJECTID":255713},"geometry":{"x":167627.11000000127,"y":2546617.3300000019}},{"attributes":{"ID":255718,"DIS_CODE":0,"TOWNNAME":"北區","LI":"文元里","LIN":"27鄰","STREET":"中華北路","SECT":"二段","MAREA":" ","LANE":"６２巷","ALLEY":" ","HOUSE_NO":"１０號","E_COORD97":167619.64999999999,"N_COORD97":2546602.8799999999,"ADDRESS":"中華北路二段６２巷１０號","OBJECTID":255714},"geometry":{"x":167619.6500000013,"y":2546602.879999999}},{"attributes":{"ID":255719,"DIS_CODE":0,"TOWNNAME":"永康區","LI":"五王里","LIN":"27鄰","STREET":"五福街","SECT":" ","MAREA":" ","LANE":"１１０巷","ALLEY":" ","HOUSE_NO":"５８號","E_COORD97":171572.26999999999,"N_COORD97":2545908.5699999998,"ADDRESS":"五福街１１０巷５８號","OBJECTID":255715},"geometry":{"x":171572.26999999955,"y":2545908.5700000003}},{"attributes":{"ID":255720,"DIS_CODE":0,"TOWNNAME":"永康區","LI":"大灣里","LIN":"28鄰","STREET":"大灣六街","SECT":" ","MAREA":" ","LANE":"９巷","ALLEY":" ","HOUSE_NO":"６號","E_COORD97":175295.85000000001,"N_COORD97":2545171.5800000001,"ADDRESS":"大灣六街９巷６號","OBJECTID":255716},"geometry":{"x":175295.84999999963,"y":2545171.5800000001}},{"attributes":{"ID":255721,"DIS_CODE":0,"TOWNNAME":"永康區","LI":"中興里","LIN":"11鄰","STREET":"中興街","SECT":" ","MAREA":" ","LANE":"１１巷","ALLEY":" ","HOUSE_NO":"１２號","E_COORD97":172050.23000000001,"N_COORD97":2545123.9900000002,"ADDRESS":"中興街１１巷１２號","OBJECTID":255717},"geometry":{"x":172050.23000000231,"y":2545123.9900000021}},{"attributes":{"ID":255722,"DIS_CODE":0,"TOWNNAME":"永康區","LI":"大灣里","LIN":"11鄰","STREET":"大灣路","SECT":" ","MAREA":" ","LANE":"２４０巷","ALLEY":" ","HOUSE_NO":"１３號","E_COORD97":174933.95999999999,"N_COORD97":2545374.5,"ADDRESS":"大灣路２４０巷１３號","OBJECTID":255718},"geometry":{"x":174933.96000000089,"y":2545374.5000000019}},{"attributes":{"ID":255723,"DIS_CODE":0,"TOWNNAME":"北區","LI":"文元里","LIN":"27鄰","STREET":"中華北路","SECT":"二段","MAREA":" ","LANE":"６２巷","ALLEY":" ","HOUSE_NO":"１１號","E_COORD97":167628.85999999999,"N_COORD97":2546598.6000000001,"ADDRESS":"中華北路二段６２巷１１號","OBJECTID":255719},"geometry":{"x":167628.86000000127,"y":2546598.5999999996}},{"attributes":{"ID":255724,"DIS_CODE":0,"TOWNNAME":"北區","LI":"文元里","LIN":"27鄰","STREET":"中華北路","SECT":"二段","MAREA":" ","LANE":"６２巷","ALLEY":" ","HOUSE_NO":"１２號","E_COORD97":167620.28,"N_COORD97":2546599.5499999998,"ADDRESS":"中華北路二段６２巷１２號","OBJECTID":255720},"geometry":{"x":167620.28000000119,"y":2546599.5500000026}},{"attributes":{"ID":255725,"DIS_CODE":0,"TOWNNAME":"北區","LI":"文元里","LIN":"27鄰","STREET":"中華北路","SECT":"二段","MAREA":" ","LANE":"６２巷","ALLEY":" ","HOUSE_NO":"１３號","E_COORD97":167629.01000000001,"N_COORD97":2546595.7400000002,"ADDRESS":"中華北路二段６２巷１３號","OBJECTID":255721},"geometry":{"x":167629.00999999978,"y":2546595.7400000002}},{"attributes":{"ID":255726,"DIS_CODE":0,"TOWNNAME":"北區","LI":"文元里","LIN":"27鄰","STREET":"中華北路","SECT":"二段","MAREA":" ","LANE":"６２巷","ALLEY":" ","HOUSE_NO":"１５號","E_COORD97":167629.64999999999,"N_COORD97":2546592.25,"ADDRESS":"中華北路二段６２巷１５號","OBJECTID":255722},"geometry":{"x":167629.65000000224,"y":2546592.2499999981}},{"attributes":{"ID":255727,"DIS_CODE":0,"TOWNNAME":"北區","LI":"文元里","LIN":"27鄰","STREET":"中華北路","SECT":"二段","MAREA":" ","LANE":"６２巷","ALLEY":" ","HOUSE_NO":"１６號","E_COORD97":167620.28,"N_COORD97":2546595.8999999999,"ADDRESS":"中華北路二段６２巷１６號","OBJECTID":255723},"geometry":{"x":167620.28000000119,"y":2546595.9000000022}},{"attributes":{"ID":255728,"DIS_CODE":0,"TOWNNAME":"東區","LI":"莊敬里","LIN":"17鄰","STREET":"中華東路","SECT":"一段","MAREA":" ","LANE":"８０巷","ALLEY":" ","HOUSE_NO":"２５號","E_COORD97":171428.73000000001,"N_COORD97":2544120.2400000002,"ADDRESS":"中華東路一段８０巷２５號","OBJECTID":255724},"geometry":{"x":171428.73000000138,"y":2544120.2400000002}},{"attributes":{"ID":255729,"DIS_CODE":0,"TOWNNAME":"東區","LI":"莊敬里","LIN":"17鄰","STREET":"中華東路","SECT":"一段","MAREA":" ","LANE":"８０巷","ALLEY":" ","HOUSE_NO":"２７號","E_COORD97":171427.67000000001,"N_COORD97":2544115.04,"ADDRESS":"中華東路一段８０巷２７號","OBJECTID":255725},"geometry":{"x":171427.66999999993,"y":2544115.040000001}},{"attributes":{"ID":255730,"DIS_CODE":0,"TOWNNAME":"東區","LI":"莊敬里","LIN":"17鄰","STREET":"中華東路","SECT":"一段","MAREA":" ","LANE":"８０巷","ALLEY":" ","HOUSE_NO":"２９號","E_COORD97":171427.17999999999,"N_COORD97":2544111.2200000002,"ADDRESS":"中華東路一段８０巷２９號","OBJECTID":255726},"geometry":{"x":171427.1799999997,"y":2544111.2200000007}},{"attributes":{"ID":255731,"DIS_CODE":0,"TOWNNAME":"東區","LI":"莊敬里","LIN":"17鄰","STREET":"中華東路","SECT":"一段","MAREA":" ","LANE":"８０巷","ALLEY":" ","HOUSE_NO":"３１號","E_COORD97":171409.70999999999,"N_COORD97":2544113.4900000002,"ADDRESS":"中華東路一段８０巷３１號","OBJECTID":255727},"geometry":{"x":171409.71000000089,"y":2544113.4900000021}},{"attributes":{"ID":255732,"DIS_CODE":0,"TOWNNAME":"東區","LI":"莊敬里","LIN":"17鄰","STREET":"中華東路","SECT":"一段","MAREA":" ","LANE":"８０巷","ALLEY":" ","HOUSE_NO":"３３號","E_COORD97":171410.51999999999,"N_COORD97":2544117.79,"ADDRESS":"中華東路一段８０巷３３號","OBJECTID":255728},"geometry":{"x":171410.52000000048,"y":2544117.790000001}},{"attributes":{"ID":255733,"DIS_CODE":0,"TOWNNAME":"東區","LI":"莊敬里","LIN":"17鄰","STREET":"中華東路","SECT":"一段","MAREA":" ","LANE":"８０巷","ALLEY":" ","HOUSE_NO":"３５號","E_COORD97":171411.09,"N_COORD97":2544122.2599999998,"ADDRESS":"中華東路一段８０巷３５號","OBJECTID":255729},"geometry":{"x":171411.08999999985,"y":2544122.2600000016}},{"attributes":{"ID":255734,"DIS_CODE":0,"TOWNNAME":"東區","LI":"莊敬里","LIN":"17鄰","STREET":"中華東路","SECT":"一段","MAREA":" ","LANE":"８０巷","ALLEY":" ","HOUSE_NO":"３７號","E_COORD97":171411.73999999999,"N_COORD97":2544125.75,"ADDRESS":"中華東路一段８０巷３７號","OBJECTID":255730},"geometry":{"x":171411.74000000022,"y":2544125.7500000019}},{"attributes":{"ID":255735,"DIS_CODE":0,"TOWNNAME":"東區","LI":"莊敬里","LIN":"17鄰","STREET":"中華東路","SECT":"一段","MAREA":" ","LANE":"８０巷","ALLEY":" ","HOUSE_NO":"３９號","E_COORD97":171418.57000000001,"N_COORD97":2544137.9300000002,"ADDRESS":"中華東路一段８０巷３９號","OBJECTID":255731},"geometry":{"x":171418.5700000003,"y":2544137.9300000016}},{"attributes":{"ID":255736,"DIS_CODE":0,"TOWNNAME":"安平區","LI":"金城里","LIN":"5鄰","STREET":"湖內二街","SECT":" ","MAREA":" ","LANE":" ","ALLEY":" ","HOUSE_NO":"５１號之１","E_COORD97":163760.95999999999,"N_COORD97":2544353.9500000002,"ADDRESS":"湖內二街５１號之１","OBJECTID":255732},"geometry":{"x":163760.96000000089,"y":2544353.9500000011}},{"attributes":{"ID":255737,"DIS_CODE":0,"TOWNNAME":"仁德區","LI":"保安里","LIN":"24鄰","STREET":"保學一街","SECT":" ","MAREA":" ","LANE":" ","ALLEY":" ","HOUSE_NO":"１９號","E_COORD97":171594.35000000001,"N_COORD97":2535559.1400000001,"ADDRESS":"保學一街１９號","OBJECTID":255733},"geometry":{"x":171594.35000000056,"y":2535559.1400000025}},{"attributes":{"ID":255738,"DIS_CODE":0,"TOWNNAME":"仁德區","LI":"保安里","LIN":"24鄰","STREET":"保學一街","SECT":" ","MAREA":" ","LANE":" ","ALLEY":" ","HOUSE_NO":"２１號","E_COORD97":171596.79999999999,"N_COORD97":2535554.5699999998,"ADDRESS":"保學一街２１號","OBJECTID":255734},"geometry":{"x":171596.80000000075,"y":2535554.5700000003}},{"attributes":{"ID":255739,"DIS_CODE":0,"TOWNNAME":"仁德區","LI":"保安里","LIN":"24鄰","STREET":"保學一街","SECT":" ","MAREA":" ","LANE":" ","ALLEY":" ","HOUSE_NO":"２２號","E_COORD97":171549.14999999999,"N_COORD97":2535541.52,"ADDRESS":"保學一街２２號","OBJECTID":255735},"geometry":{"x":171549.1500000013,"y":2535541.5200000014}},{"attributes":{"ID":255740,"DIS_CODE":0,"TOWNNAME":"仁德區","LI":"保安里","LIN":"24鄰","STREET":"保學一街","SECT":" ","MAREA":" ","LANE":" ","ALLEY":" ","HOUSE_NO":"２３號","E_COORD97":171599.10000000001,"N_COORD97":2535550.7999999998,"ADDRESS":"保學一街２３號","OBJECTID":255736},"geometry":{"x":171599.0999999987,"y":2535550.8000000026}},{"attributes":{"ID":255741,"DIS_CODE":0,"TOWNNAME":"仁德區","LI":"保安里","LIN":"24鄰","STREET":"保學一街","SECT":" ","MAREA":" ","LANE":" ","ALLEY":" ","HOUSE_NO":"２５號","E_COORD97":171601.45999999999,"N_COORD97":2535546.6200000001,"ADDRESS":"保學一街２５號","OBJECTID":255737},"geometry":{"x":171601.45999999996,"y":2535546.6200000029}},{"attributes":{"ID":255742,"DIS_CODE":0,"TOWNNAME":"仁德區","LI":"保安里","LIN":"24鄰","STREET":"保學一街","SECT":" ","MAREA":" ","LANE":" ","ALLEY":" ","HOUSE_NO":"２６號","E_COORD97":171551.60999999999,"N_COORD97":2535536.9500000002,"ADDRESS":"保學一街２６號","OBJECTID":255738},"geometry":{"x":171551.61000000034,"y":2535536.9499999993}},{"attributes":{"ID":255743,"DIS_CODE":0,"TOWNNAME":"仁德區","LI":"保安里","LIN":"24鄰","STREET":"保學一街","SECT":" ","MAREA":" ","LANE":" ","ALLEY":" ","HOUSE_NO":"２７號","E_COORD97":171604.12,"N_COORD97":2535542.77,"ADDRESS":"保學一街２７號","OBJECTID":255739},"geometry":{"x":171604.12000000011,"y":2535542.7700000033}},{"attributes":{"ID":255744,"DIS_CODE":0,"TOWNNAME":"仁德區","LI":"保安里","LIN":"24鄰","STREET":"保學一街","SECT":" ","MAREA":" ","LANE":" ","ALLEY":" ","HOUSE_NO":"２８號","E_COORD97":171553.91,"N_COORD97":2535533.1699999999,"ADDRESS":"保學一街２８號","OBJECTID":255740},"geometry":{"x":171553.91000000108,"y":2535533.1699999999}},{"attributes":{"ID":255745,"DIS_CODE":0,"TOWNNAME":"仁德區","LI":"保安里","LIN":"24鄰","STREET":"保學一街","SECT":" ","MAREA":" ","LANE":" ","ALLEY":" ","HOUSE_NO":"２９號","E_COORD97":171606.60000000001,"N_COORD97":2535538.8999999999,"ADDRESS":"保學一街２９號","OBJECTID":255741},"geometry":{"x":171606.60000000056,"y":2535538.9000000004}},{"attributes":{"ID":255746,"DIS_CODE":0,"TOWNNAME":"仁德區","LI":"保安里","LIN":"24鄰","STREET":"保學一街","SECT":" ","MAREA":" ","LANE":" ","ALLEY":" ","HOUSE_NO":"３０號","E_COORD97":171556.26999999999,"N_COORD97":2535528.9900000002,"ADDRESS":"保學一街３０號","OBJECTID":255742},"geometry":{"x":171556.27000000048,"y":2535528.9900000021}},{"attributes":{"ID":255747,"DIS_CODE":0,"TOWNNAME":"仁德區","LI":"保安里","LIN":"24鄰","STREET":"保學一街","SECT":" ","MAREA":" ","LANE":" ","ALLEY":" ","HOUSE_NO":"３１號","E_COORD97":171609.04000000001,"N_COORD97":2535534.5499999998,"ADDRESS":"保學一街３１號","OBJECTID":255743},"geometry":{"x":171609.04000000097,"y":2535534.5500000007}},{"attributes":{"ID":255748,"DIS_CODE":0,"TOWNNAME":"仁德區","LI":"保安里","LIN":"24鄰","STREET":"保學一街","SECT":" ","MAREA":" ","LANE":" ","ALLEY":" ","HOUSE_NO":"３３號","E_COORD97":171611.07000000001,"N_COORD97":2535530.1800000002,"ADDRESS":"保學一街３３號","OBJECTID":255744},"geometry":{"x":171611.07000000123,"y":2535530.1800000016}},{"attributes":{"ID":255749,"DIS_CODE":0,"TOWNNAME":"北區","LI":"文元里","LIN":"27鄰","STREET":"中華北路","SECT":"二段","MAREA":" ","LANE":"６２巷","ALLEY":" ","HOUSE_NO":"５號","E_COORD97":167628.13,"N_COORD97":2546610,"ADDRESS":"中華北路二段６２巷５號","OBJECTID":255745},"geometry":{"x":167628.13000000082,"y":2546610}},{"attributes":{"ID":255750,"DIS_CODE":0,"TOWNNAME":"北區","LI":"文元里","LIN":"27鄰","STREET":"中華北路","SECT":"二段","MAREA":" ","LANE":"６２巷","ALLEY":" ","HOUSE_NO":"６號","E_COORD97":167618.76000000001,"N_COORD97":2546610.1499999999,"ADDRESS":"中華北路二段６２巷６號","OBJECTID":255746},"geometry":{"x":167618.76000000071,"y":2546610.1500000004}},{"attributes":{"ID":255751,"DIS_CODE":0,"TOWNNAME":"北區","LI":"文元里","LIN":"27鄰","STREET":"中華北路","SECT":"二段","MAREA":" ","LANE":"６２巷","ALLEY":" ","HOUSE_NO":"７號","E_COORD97":167627.81,"N_COORD97":2546606.1899999999,"ADDRESS":"中華北路二段６２巷７號","OBJECTID":255747},"geometry":{"x":167627.81000000052,"y":2546606.1900000013}},{"attributes":{"ID":255752,"DIS_CODE":0,"TOWNNAME":"東區","LI":"莊敬里","LIN":"17鄰","STREET":"中華東路","SECT":"一段","MAREA":" ","LANE":"８０巷","ALLEY":" ","HOUSE_NO":"４１號","E_COORD97":171414.01000000001,"N_COORD97":2544136.71,"ADDRESS":"中華東路一段８０巷４１號","OBJECTID":255748},"geometry":{"x":171414.01000000071,"y":2544136.7100000028}},{"attributes":{"ID":255753,"DIS_CODE":0,"TOWNNAME":"東區","LI":"莊敬里","LIN":"17鄰","STREET":"中華東路","SECT":"一段","MAREA":" ","LANE":"８０巷","ALLEY":" ","HOUSE_NO":"４３號","E_COORD97":171409.70999999999,"N_COORD97":2544139.3100000001,"ADDRESS":"中華東路一段８０巷４３號","OBJECTID":255749},"geometry":{"x":171409.71000000089,"y":2544139.3100000024}},{"attributes":{"ID":255754,"DIS_CODE":0,"TOWNNAME":"東區","LI":"莊敬里","LIN":"17鄰","STREET":"中華東路","SECT":"一段","MAREA":" ","LANE":"８０巷","ALLEY":" ","HOUSE_NO":"４５號","E_COORD97":171405.39999999999,"N_COORD97":2544138.0099999998,"ADDRESS":"中華東路一段８０巷４５號","OBJECTID":255750},"geometry":{"x":171405.4000000013,"y":2544138.0099999998}},{"attributes":{"ID":255755,"DIS_CODE":0,"TOWNNAME":"東區","LI":"莊敬里","LIN":"17鄰","STREET":"莊敬路","SECT":" ","MAREA":" ","LANE":"１５８巷","ALLEY":" ","HOUSE_NO":"１１號","E_COORD97":171422.07999999999,"N_COORD97":2544094.21,"ADDRESS":"莊敬路１５８巷１１號","OBJECTID":255751},"geometry":{"x":171422.08000000101,"y":2544094.2100000009}},{"attributes":{"ID":255756,"DIS_CODE":0,"TOWNNAME":"東區","LI":"莊敬里","LIN":"17鄰","STREET":"莊敬路","SECT":" ","MAREA":" ","LANE":"１５８巷","ALLEY":" ","HOUSE_NO":"９號","E_COORD97":171417.53,"N_COORD97":2544096.1600000001,"ADDRESS":"莊敬路１５８巷９號","OBJECTID":255752},"geometry":{"x":171417.53000000119,"y":2544096.160000002}},{"attributes":{"ID":255757,"DIS_CODE":0,"TOWNNAME":"東區","LI":"東安里","LIN":"17鄰","STREET":"衛國街","SECT":" ","MAREA":" ","LANE":"１３巷","ALLEY":" ","HOUSE_NO":"２２號","E_COORD97":170160.29999999999,"N_COORD97":2543022.1499999999,"ADDRESS":"衛國街１３巷２２號","OBJECTID":255753},"geometry":{"x":170160.29999999981,"y":2543022.1500000004}},{"attributes":{"ID":255758,"DIS_CODE":0,"TOWNNAME":"東區","LI":"東明里","LIN":"17鄰","STREET":"東安路","SECT":" ","MAREA":" ","LANE":"７６巷","ALLEY":" ","HOUSE_NO":"１０號","E_COORD97":170750.04999999999,"N_COORD97":2543655.2200000002,"ADDRESS":"東安路７６巷１０號","OBJECTID":255754},"geometry":{"x":170750.04999999981,"y":2543655.2200000025}},{"attributes":{"ID":255759,"DIS_CODE":0,"TOWNNAME":"東區","LI":"東明里","LIN":"17鄰","STREET":"東安路","SECT":" ","MAREA":" ","LANE":"７６巷","ALLEY":" ","HOUSE_NO":"１２號","E_COORD97":170754.88,"N_COORD97":2543655.2200000002,"ADDRESS":"東安路７６巷１２號","OBJECTID":255755},"geometry":{"x":170754.87999999989,"y":2543655.2200000025}},{"attributes":{"ID":255760,"DIS_CODE":0,"TOWNNAME":"善化區","LI":"坐駕里","LIN":"17鄰","STREET":"文化路","SECT":" ","MAREA":" ","LANE":"８２巷","ALLEY":" ","HOUSE_NO":"１８號","E_COORD97":177964.60999999999,"N_COORD97":2558432.5299999998,"ADDRESS":"文化路８２巷１８號","OBJECTID":255756},"geometry":{"x":177964.61000000034,"y":2558432.5300000031}},{"attributes":{"ID":255761,"DIS_CODE":0,"TOWNNAME":"善化區","LI":"坐駕里","LIN":"17鄰","STREET":"文化路","SECT":" ","MAREA":" ","LANE":"８２巷","ALLEY":" ","HOUSE_NO":"８號","E_COORD97":177943.70000000001,"N_COORD97":2558429.7799999998,"ADDRESS":"文化路８２巷８號","OBJECTID":255757},"geometry":{"x":177943.70000000019,"y":2558429.7799999993}},{"attributes":{"ID":255762,"DIS_CODE":0,"TOWNNAME":"善化區","LI":"坐駕里","LIN":"17鄰","STREET":"文化路","SECT":" ","MAREA":" ","LANE":"８２巷","ALLEY":" ","HOUSE_NO":"１４號","E_COORD97":177956.5,"N_COORD97":2558431.5299999998,"ADDRESS":"文化路８２巷１４號","OBJECTID":255758},"geometry":{"x":177956.5,"y":2558431.5299999993}},{"attributes":{"ID":255763,"DIS_CODE":0,"TOWNNAME":"善化區","LI":"光文里","LIN":"17鄰","STREET":"和平路","SECT":" ","MAREA":" ","LANE":"１４６巷","ALLEY":" ","HOUSE_NO":"１號","E_COORD97":178141.28,"N_COORD97":2558966.25,"ADDRESS":"和平路１４６巷１號","OBJECTID":255759},"geometry":{"x":178141.28000000026,"y":2558966.25}},{"attributes":{"ID":255764,"DIS_CODE":0,"TOWNNAME":"善化區","LI":"坐駕里","LIN":"17鄰","STREET":"中正路","SECT":" ","MAREA":" ","LANE":"惠順巷","ALLEY":" ","HOUSE_NO":"６１號","E_COORD97":178089.32000000001,"N_COORD97":2557603.2599999998,"ADDRESS":"中正路惠順巷６１號","OBJECTID":255760},"geometry":{"x":178089.32000000216,"y":2557603.2599999998}},{"attributes":{"ID":255765,"DIS_CODE":0,"TOWNNAME":"善化區","LI":"光文里","LIN":"17鄰","STREET":"和平路","SECT":" ","MAREA":" ","LANE":"１４６巷","ALLEY":" ","HOUSE_NO":"６號","E_COORD97":178158.70999999999,"N_COORD97":2558969.25,"ADDRESS":"和平路１４６巷６號","OBJECTID":255761},"geometry":{"x":178158.70999999996,"y":2558969.25}},{"attributes":{"ID":255766,"DIS_CODE":0,"TOWNNAME":"善化區","LI":"坐駕里","LIN":"17鄰","STREET":"文化路","SECT":" ","MAREA":" ","LANE":"８２巷","ALLEY":" ","HOUSE_NO":"１１號","E_COORD97":177962.84,"N_COORD97":2558410.7799999998,"ADDRESS":"文化路８２巷１１號","OBJECTID":255762},"geometry":{"x":177962.83999999985,"y":2558410.7800000012}},{"attributes":{"ID":255767,"DIS_CODE":0,"TOWNNAME":"安平區","LI":"金城里","LIN":"8鄰","STREET":"世平四街","SECT":" ","MAREA":" ","LANE":" ","ALLEY":" ","HOUSE_NO":"１２號之１","E_COORD97":162965.32000000001,"N_COORD97":2544197.1600000001,"ADDRESS":"世平四街１２號之１","OBJECTID":255763},"geometry":{"x":162965.32000000123,"y":2544197.160000002}},{"attributes":{"ID":255768,"DIS_CODE":0,"TOWNNAME":"安平區","LI":"怡平里","LIN":"21鄰","STREET":"怡平路","SECT":" ","MAREA":" ","LANE":" ","ALLEY":" ","HOUSE_NO":"３５７號","E_COORD97":165715.98000000001,"N_COORD97":2543768.1400000001,"ADDRESS":"怡平路３５７號","OBJECTID":255764},"geometry":{"x":165715.98000000138,"y":2543768.1400000006}},{"attributes":{"ID":255769,"DIS_CODE":0,"TOWNNAME":"安平區","LI":"億載里","LIN":"3鄰","STREET":"永華十二街","SECT":" ","MAREA":" ","LANE":" ","ALLEY":" ","HOUSE_NO":"１０２號","E_COORD97":163766.79999999999,"N_COORD97":2543701.0499999998,"ADDRESS":"永華十二街１０２號","OBJECTID":255765},"geometry":{"x":163766.80000000075,"y":2543701.0500000007}},{"attributes":{"ID":255770,"DIS_CODE":0,"TOWNNAME":"永康區","LI":"五王里","LIN":"10鄰","STREET":"中山東路","SECT":" ","MAREA":" ","LANE":"２９２巷","ALLEY":" ","HOUSE_NO":"２８號","E_COORD97":171744.17000000001,"N_COORD97":2545613.25,"ADDRESS":"中山東路２９２巷２８號","OBJECTID":255766},"geometry":{"x":171744.16999999993,"y":2545613.2500000019}},{"attributes":{"ID":255771,"DIS_CODE":0,"TOWNNAME":"北區","LI":"大港里","LIN":"27鄰","STREET":"中華北路","SECT":"一段","MAREA":" ","LANE":"２６３巷","ALLEY":" ","HOUSE_NO":"４５號","E_COORD97":166228.53,"N_COORD97":2545764.6400000001,"ADDRESS":"中華北路一段２６３巷４５號","OBJECTID":255767},"geometry":{"x":166228.53000000119,"y":2545764.6400000025}},{"attributes":{"ID":255772,"DIS_CODE":0,"TOWNNAME":"善化區","LI":"坐駕里","LIN":"17鄰","STREET":"興華路","SECT":" ","MAREA":" ","LANE":"２８９巷","ALLEY":" ","HOUSE_NO":"９號","E_COORD97":177814.82999999999,"N_COORD97":2558463,"ADDRESS":"興華路２８９巷９號","OBJECTID":255768},"geometry":{"x":177814.83000000101,"y":2558463}},{"attributes":{"ID":255773,"DIS_CODE":0,"TOWNNAME":"善化區","LI":"坐駕里","LIN":"17鄰","STREET":"興華路","SECT":" ","MAREA":" ","LANE":"２８９巷","ALLEY":" ","HOUSE_NO":"１０號","E_COORD97":177832.67999999999,"N_COORD97":2558465.25,"ADDRESS":"興華路２８９巷１０號","OBJECTID":255769},"geometry":{"x":177832.68000000063,"y":2558465.25}},{"attributes":{"ID":255774,"DIS_CODE":0,"TOWNNAME":"善化區","LI":"坐駕里","LIN":"17鄰","STREET":"興華路","SECT":" ","MAREA":" ","LANE":"３０７巷","ALLEY":" ","HOUSE_NO":"１號","E_COORD97":177786.04000000001,"N_COORD97":2558474.75,"ADDRESS":"興華路３０７巷１號","OBJECTID":255770},"geometry":{"x":177786.04000000097,"y":2558474.75}},{"attributes":{"ID":255775,"DIS_CODE":0,"TOWNNAME":"善化區","LI":"坐駕里","LIN":"17鄰","STREET":"興華路","SECT":" ","MAREA":" ","LANE":"２８９巷","ALLEY":" ","HOUSE_NO":"７號","E_COORD97":177813.54000000001,"N_COORD97":2558467.25,"ADDRESS":"興華路２８９巷７號","OBJECTID":255771},"geometry":{"x":177813.54000000097,"y":2558467.2500000019}},{"attributes":{"ID":255776,"DIS_CODE":0,"TOWNNAME":"善化區","LI":"坐駕里","LIN":"17鄰","STREET":"興華路","SECT":" ","MAREA":" ","LANE":"３０７巷","ALLEY":" ","HOUSE_NO":"１４號","E_COORD97":177798.70000000001,"N_COORD97":2558418.25,"ADDRESS":"興華路３０７巷１４號","OBJECTID":255772},"geometry":{"x":177798.70000000112,"y":2558418.2500000037}},{"attributes":{"ID":255777,"DIS_CODE":0,"TOWNNAME":"安南區","LI":"海佃里","LIN":"17鄰","STREET":"海佃路","SECT":"一段","MAREA":" ","LANE":"１５７巷","ALLEY":" ","HOUSE_NO":"６號","E_COORD97":167097.29999999999,"N_COORD97":2547113.6400000001,"ADDRESS":"海佃路一段１５７巷６號","OBJECTID":255773},"geometry":{"x":167097.30000000168,"y":2547113.6400000025}},{"attributes":{"ID":255778,"DIS_CODE":0,"TOWNNAME":"安南區","LI":"海佃里","LIN":"17鄰","STREET":"海佃路","SECT":"一段","MAREA":" ","LANE":"１５７巷","ALLEY":" ","HOUSE_NO":"７號","E_COORD97":167093.97,"N_COORD97":2547113.6400000001,"ADDRESS":"海佃路一段１５７巷７號","OBJECTID":255774},"geometry":{"x":167093.96999999974,"y":2547113.6400000025}},{"attributes":{"ID":255779,"DIS_CODE":0,"TOWNNAME":"安南區","LI":"海佃里","LIN":"17鄰","STREET":"海佃路","SECT":"一段","MAREA":" ","LANE":"１５７巷","ALLEY":" ","HOUSE_NO":"８號","E_COORD97":167088.64999999999,"N_COORD97":2547112.3100000001,"ADDRESS":"海佃路一段１５７巷８號","OBJECTID":255775},"geometry":{"x":167088.64999999944,"y":2547112.3100000024}},{"attributes":{"ID":255780,"DIS_CODE":0,"TOWNNAME":"安南區","LI":"海佃里","LIN":"17鄰","STREET":"海佃路","SECT":"一段","MAREA":" ","LANE":"１５７巷","ALLEY":" ","HOUSE_NO":"９號","E_COORD97":167085.32999999999,"N_COORD97":2547111.6400000001,"ADDRESS":"海佃路一段１５７巷９號","OBJECTID":255776},"geometry":{"x":167085.33000000007,"y":2547111.6400000006}},{"attributes":{"ID":255781,"DIS_CODE":0,"TOWNNAME":"安南區","LI":"海佃里","LIN":"17鄰","STREET":"國安街","SECT":" ","MAREA":" ","LANE":"５６巷","ALLEY":" ","HOUSE_NO":"２２號","E_COORD97":166996.73999999999,"N_COORD97":2547092.1800000002,"ADDRESS":"國安街５６巷２２號","OBJECTID":255777},"geometry":{"x":166996.74000000115,"y":2547092.1800000016}},{"attributes":{"ID":255782,"DIS_CODE":0,"TOWNNAME":"安南區","LI":"海佃里","LIN":"17鄰","STREET":"國安街","SECT":" ","MAREA":" ","LANE":"５６巷","ALLEY":" ","HOUSE_NO":"２４號","E_COORD97":166996.73999999999,"N_COORD97":2547097.4900000002,"ADDRESS":"國安街５６巷２４號","OBJECTID":255778},"geometry":{"x":166996.74000000115,"y":2547097.4900000021}},{"attributes":{"ID":255783,"DIS_CODE":0,"TOWNNAME":"安南區","LI":"海佃里","LIN":"17鄰","STREET":"國安街","SECT":" ","MAREA":" ","LANE":"５６巷","ALLEY":" ","HOUSE_NO":"２６號","E_COORD97":166996.73999999999,"N_COORD97":2547100.8199999998,"ADDRESS":"國安街５６巷２６號","OBJECTID":255779},"geometry":{"x":166996.74000000115,"y":2547100.820000004}},{"attributes":{"ID":255784,"DIS_CODE":0,"TOWNNAME":"安南區","LI":"海佃里","LIN":"17鄰","STREET":"國安街","SECT":" ","MAREA":" ","LANE":"５６巷","ALLEY":" ","HOUSE_NO":"２８號","E_COORD97":166996.07999999999,"N_COORD97":2547105.4700000002,"ADDRESS":"國安街５６巷２８號","OBJECTID":255780},"geometry":{"x":166996.08000000101,"y":2547105.4700000007}},{"attributes":{"ID":255785,"DIS_CODE":0,"TOWNNAME":"安南區","LI":"海佃里","LIN":"17鄰","STREET":"國安街","SECT":" ","MAREA":" ","LANE":"５６巷","ALLEY":" ","HOUSE_NO":"３０號","E_COORD97":166995.41,"N_COORD97":2547109.4500000002,"ADDRESS":"國安街５６巷３０號","OBJECTID":255781},"geometry":{"x":166995.41000000108,"y":2547109.4500000011}},{"attributes":{"ID":255786,"DIS_CODE":0,"TOWNNAME":"安南區","LI":"海佃里","LIN":"17鄰","STREET":"國安街","SECT":" ","MAREA":" ","LANE":"５６巷","ALLEY":" ","HOUSE_NO":"３２號","E_COORD97":166995.41,"N_COORD97":2547112.1099999999,"ADDRESS":"國安街５６巷３２號","OBJECTID":255782},"geometry":{"x":166995.41000000108,"y":2547112.1100000013}},{"attributes":{"ID":255787,"DIS_CODE":0,"TOWNNAME":"永康區","LI":"二王里","LIN":"17鄰","STREET":"忠孝路","SECT":" ","MAREA":" ","LANE":"４１０巷","ALLEY":" ","HOUSE_NO":"５６號","E_COORD97":172608.29999999999,"N_COORD97":2546506.6200000001,"ADDRESS":"忠孝路４１０巷５６號","OBJECTID":255783},"geometry":{"x":172608.29999999888,"y":2546506.6200000029}},{"attributes":{"ID":255788,"DIS_CODE":0,"TOWNNAME":"安南區","LI":"幸福里","LIN":"17鄰","STREET":"府安路","SECT":"六段","MAREA":" ","LANE":"２７巷","ALLEY":" ","HOUSE_NO":"３７號","E_COORD97":167012.17000000001,"N_COORD97":2546796.4900000002,"ADDRESS":"府安路六段２７巷３７號","OBJECTID":255784},"geometry":{"x":167012.17000000086,"y":2546796.4900000002}},{"attributes":{"ID":255789,"DIS_CODE":0,"TOWNNAME":"安南區","LI":"幸福里","LIN":"17鄰","STREET":"府安路","SECT":"六段","MAREA":" ","LANE":"２７巷","ALLEY":" ","HOUSE_NO":"３號","E_COORD97":167028.10999999999,"N_COORD97":2546715.0099999998,"ADDRESS":"府安路六段２７巷３號","OBJECTID":255785},"geometry":{"x":167028.1100000022,"y":2546715.0099999998}},{"attributes":{"ID":255790,"DIS_CODE":0,"TOWNNAME":"安南區","LI":"幸福里","LIN":"17鄰","STREET":"府安路","SECT":"六段","MAREA":" ","LANE":"２７巷","ALLEY":" ","HOUSE_NO":"４１號","E_COORD97":167010.67000000001,"N_COORD97":2546806.1200000001,"ADDRESS":"府安路六段２７巷４１號","OBJECTID":255786},"geometry":{"x":167010.67000000086,"y":2546806.1200000029}},{"attributes":{"ID":255791,"DIS_CODE":0,"TOWNNAME":"安南區","LI":"幸福里","LIN":"17鄰","STREET":"府安路","SECT":"六段","MAREA":" ","LANE":"２７巷","ALLEY":" ","HOUSE_NO":"４３號","E_COORD97":167009.79000000001,"N_COORD97":2546810.25,"ADDRESS":"府安路六段２７巷４３號","OBJECTID":255787},"geometry":{"x":167009.79000000097,"y":2546810.2500000019}},{"attributes":{"ID":255792,"DIS_CODE":0,"TOWNNAME":"安南區","LI":"幸福里","LIN":"17鄰","STREET":"府安路","SECT":"六段","MAREA":" ","LANE":"２７巷","ALLEY":" ","HOUSE_NO":"７１號","E_COORD97":166994.76999999999,"N_COORD97":2546879.3399999999,"ADDRESS":"府安路六段２７巷７１號","OBJECTID":255788},"geometry":{"x":166994.76999999955,"y":2546879.3399999999}},{"attributes":{"ID":255793,"DIS_CODE":0,"TOWNNAME":"安南區","LI":"幸福里","LIN":"17鄰","STREET":"府安路","SECT":"六段","MAREA":" ","LANE":"２７巷","ALLEY":" ","HOUSE_NO":"７５號","E_COORD97":166992.84,"N_COORD97":2546888.1299999999,"ADDRESS":"府安路六段２７巷７５號","OBJECTID":255789},"geometry":{"x":166992.84000000078,"y":2546888.1300000008}},{"attributes":{"ID":255794,"DIS_CODE":0,"TOWNNAME":"安南區","LI":"幸福里","LIN":"17鄰","STREET":"府安路","SECT":"六段","MAREA":" ","LANE":"２７巷","ALLEY":" ","HOUSE_NO":"７７號","E_COORD97":166992.12,"N_COORD97":2546892.8300000001,"ADDRESS":"府安路六段２７巷７７號","OBJECTID":255790},"geometry":{"x":166992.12000000197,"y":2546892.8300000001}},{"attributes":{"ID":255795,"DIS_CODE":0,"TOWNNAME":"安南區","LI":"幸福里","LIN":"17鄰","STREET":"府安路","SECT":"六段","MAREA":" ","LANE":"２７巷","ALLEY":" ","HOUSE_NO":"７９號","E_COORD97":166990.67000000001,"N_COORD97":2546898.0099999998,"ADDRESS":"府安路六段２７巷７９號","OBJECTID":255791},"geometry":{"x":166990.67000000086,"y":2546898.0099999998}},{"attributes":{"ID":255796,"DIS_CODE":0,"TOWNNAME":"安南區","LI":"幸福里","LIN":"17鄰","STREET":"府安路","SECT":"六段","MAREA":" ","LANE":"２７巷","ALLEY":" ","HOUSE_NO":"９號","E_COORD97":167025.14000000001,"N_COORD97":2546728.9399999999,"ADDRESS":"府安路六段２７巷９號","OBJECTID":255792},"geometry":{"x":167025.13999999966,"y":2546728.9399999995}},{"attributes":{"ID":255797,"DIS_CODE":0,"TOWNNAME":"仁德區","LI":"保安里","LIN":"24鄰","STREET":"保學一街","SECT":" ","MAREA":" ","LANE":" ","ALLEY":" ","HOUSE_NO":"３６號","E_COORD97":171561.41,"N_COORD97":2535521.27,"ADDRESS":"保學一街３６號","OBJECTID":255793},"geometry":{"x":171561.41000000015,"y":2535521.2699999996}},{"attributes":{"ID":255798,"DIS_CODE":0,"TOWNNAME":"仁德區","LI":"保安里","LIN":"24鄰","STREET":"保學一街","SECT":" ","MAREA":" ","LANE":" ","ALLEY":" ","HOUSE_NO":"３７號","E_COORD97":171632.26999999999,"N_COORD97":2535501.3900000001,"ADDRESS":"保學一街３７號","OBJECTID":255794},"geometry":{"x":171632.27000000048,"y":2535501.3900000006}},{"attributes":{"ID":255799,"DIS_CODE":0,"TOWNNAME":"仁德區","LI":"保安里","LIN":"24鄰","STREET":"保學一街","SECT":" ","MAREA":" ","LANE":" ","ALLEY":" ","HOUSE_NO":"３８號","E_COORD97":171563.85000000001,"N_COORD97":2535516.9300000002,"ADDRESS":"保學一街３８號","OBJECTID":255795},"geometry":{"x":171563.85000000056,"y":2535516.9299999997}},{"attributes":{"ID":255800,"DIS_CODE":0,"TOWNNAME":"北區","LI":"大港里","LIN":"27鄰","STREET":"中華北路","SECT":"一段","MAREA":" ","LANE":"２６３巷","ALLEY":" ","HOUSE_NO":"７０號","E_COORD97":166178.54000000001,"N_COORD97":2545733.7200000002,"ADDRESS":"中華北路一段２６３巷７０號","OBJECTID":255796},"geometry":{"x":166178.54000000004,"y":2545733.7200000025}},{"attributes":{"ID":255801,"DIS_CODE":0,"TOWNNAME":"北區","LI":"大港里","LIN":"27鄰","STREET":"中華北路","SECT":"一段","MAREA":" ","LANE":"２６３巷","ALLEY":" ","HOUSE_NO":"７１號","E_COORD97":166176,"N_COORD97":2545737.6899999999,"ADDRESS":"中華北路一段２６３巷７１號","OBJECTID":255797},"geometry":{"x":166176.00000000093,"y":2545737.6899999976}},{"attributes":{"ID":255802,"DIS_CODE":0,"TOWNNAME":"北區","LI":"大港里","LIN":"27鄰","STREET":"中華北路","SECT":"一段","MAREA":" ","LANE":"２６３巷","ALLEY":" ","HOUSE_NO":"９號","E_COORD97":166296.32000000001,"N_COORD97":2545824.4700000002,"ADDRESS":"中華北路一段２６３巷９號","OBJECTID":255798},"geometry":{"x":166296.32000000123,"y":2545824.4700000007}},{"attributes":{"ID":255803,"DIS_CODE":0,"TOWNNAME":"永康區","LI":"\u25A0洲里","LIN":"4鄰","STREET":"\u25A0洲二街","SECT":" ","MAREA":" ","LANE":"１３３巷","ALLEY":" ","HOUSE_NO":"２５號","E_COORD97":171591.67000000001,"N_COORD97":2549380.0299999998,"ADDRESS":"\u25A0洲二街１３３巷２５號","OBJECTID":255799},"geometry":{"x":171591.66999999993,"y":2549380.0300000031}},{"attributes":{"ID":255804,"DIS_CODE":0,"TOWNNAME":"安南區","LI":"幸福里","LIN":"17鄰","STREET":"府安路","SECT":"六段","MAREA":" ","LANE":"２７巷","ALLEY":" ","HOUSE_NO":"１７號","E_COORD97":167021.38,"N_COORD97":2546747.7599999998,"ADDRESS":"府安路六段２７巷１７號","OBJECTID":255800},"geometry":{"x":167021.38000000082,"y":2546747.7599999998}}]}