{"displayFieldName":"TOWNNAME","fieldAliases":{"ID":"ID","DIS_CODE":"DIS_CODE","TOWNNAME":"TOWNNAME","LI":"LI","LIN":"LIN","STREET":"STREET","SECT":"SECT","MAREA":"MAREA","LANE":"LANE","ALLEY":"ALLEY","HOUSE_NO":"HOUSE_NO","E_COORD97":"E_COORD97","N_COORD97":"N_COORD97","ADDRESS":"ADDRESS","OBJECTID":"OBJECTID"},"geometryType":"esriGeometryPoint","spatialReference":{"wkid":102443,"latestWkid":3826},"fields":[{"name":"ID","type":"esriFieldTypeDouble","alias":"ID"},{"name":"DIS_CODE","type":"esriFieldTypeInteger","alias":"DIS_CODE"},{"name":"TOWNNAME","type":"esriFieldTypeString","alias":"TOWNNAME","length":8},{"name":"LI","type":"esriFieldTypeString","alias":"LI","length":8},{"name":"LIN","type":"esriFieldTypeString","alias":"LIN","length":12},{"name":"STREET","type":"esriFieldTypeString","alias":"STREET","length":20},{"name":"SECT","type":"esriFieldTypeString","alias":"SECT","length":8},{"name":"MAREA","type":"esriFieldTypeString","alias":"MAREA","length":12},{"name":"LANE","type":"esriFieldTypeString","alias":"LANE","length":10},{"name":"ALLEY","type":"esriFieldTypeString","alias":"ALLEY","length":10},{"name":"HOUSE_NO","type":"esriFieldTypeString","alias":"HOUSE_NO","length":20},{"name":"E_COORD97","type":"esriFieldTypeDouble","alias":"E_COORD97"},{"name":"N_COORD97","type":"esriFieldTypeDouble","alias":"N_COORD97"},{"name":"ADDRESS","type":"esriFieldTypeString","alias":"ADDRESS","length":50},{"name":"OBJECTID","type":"esriFieldTypeOID","alias":"OBJECTID"}],"features":[{"attributes":{"ID":260405,"DIS_CODE":0,"TOWNNAME":"柳營區","LI":"光福里","LIN":"22鄰","STREET":" ","SECT":" ","MAREA":"柳營","LANE":" ","ALLEY":" ","HOUSE_NO":"２６５號之１","E_COORD97":179687.39000000001,"N_COORD97":2575388.3300000001,"ADDRESS":"柳營２６５號之１","OBJECTID":260401},"geometry":{"x":179687.3900000006,"y":2575388.3300000001}},{"attributes":{"ID":260406,"DIS_CODE":0,"TOWNNAME":"柳營區","LI":"光福里","LIN":"22鄰","STREET":" ","SECT":" ","MAREA":"柳營","LANE":" ","ALLEY":" ","HOUSE_NO":"２６５之７號","E_COORD97":179667.23000000001,"N_COORD97":2575410.5499999998,"ADDRESS":"柳營２６５之７號","OBJECTID":260402},"geometry":{"x":179667.23000000138,"y":2575410.5500000026}},{"attributes":{"ID":260407,"DIS_CODE":0,"TOWNNAME":"柳營區","LI":"光福里","LIN":"22鄰","STREET":" ","SECT":" ","MAREA":"柳營","LANE":" ","ALLEY":" ","HOUSE_NO":"２６５號之７","E_COORD97":179667.23000000001,"N_COORD97":2575410.5499999998,"ADDRESS":"柳營２６５號之７","OBJECTID":260403},"geometry":{"x":179667.23000000138,"y":2575410.5500000026}},{"attributes":{"ID":260408,"DIS_CODE":0,"TOWNNAME":"柳營區","LI":"光福里","LIN":"22鄰","STREET":" ","SECT":" ","MAREA":"柳營","LANE":" ","ALLEY":" ","HOUSE_NO":"２６５之９號","E_COORD97":179664.85000000001,"N_COORD97":2575419.0299999998,"ADDRESS":"柳營２６５之９號","OBJECTID":260404},"geometry":{"x":179664.8499999987,"y":2575419.0300000012}},{"attributes":{"ID":260409,"DIS_CODE":0,"TOWNNAME":"柳營區","LI":"光福里","LIN":"22鄰","STREET":" ","SECT":" ","MAREA":"柳營","LANE":" ","ALLEY":" ","HOUSE_NO":"２６９之１號","E_COORD97":179739.91,"N_COORD97":2575384.3100000001,"ADDRESS":"柳營２６９之１號","OBJECTID":260405},"geometry":{"x":179739.91000000108,"y":2575384.3100000024}},{"attributes":{"ID":260410,"DIS_CODE":0,"TOWNNAME":"仁德區","LI":"保安里","LIN":"10鄰","STREET":"中正路","SECT":"一段","MAREA":" ","LANE":"２５９巷","ALLEY":" ","HOUSE_NO":"１６號","E_COORD97":171770.88327200001,"N_COORD97":2536080.8598500001,"ADDRESS":"中正路一段２５９巷１６號","OBJECTID":260406},"geometry":{"x":171770.88327199966,"y":2536080.8598490003}},{"attributes":{"ID":260411,"DIS_CODE":0,"TOWNNAME":"歸仁區","LI":"西埔里","LIN":"15鄰","STREET":"大埔路","SECT":"二段","MAREA":" ","LANE":"２５０巷","ALLEY":" ","HOUSE_NO":"６０號","E_COORD97":175815.710945,"N_COORD97":2545747.2679699999,"ADDRESS":"大埔路二段２５０巷６０號","OBJECTID":260407},"geometry":{"x":175815.71094499994,"y":2545747.2679670006}},{"attributes":{"ID":260412,"DIS_CODE":0,"TOWNNAME":"歸仁區","LI":"西埔里","LIN":"15鄰","STREET":"大埔路","SECT":"二段","MAREA":" ","LANE":"２５０巷","ALLEY":" ","HOUSE_NO":"８０號","E_COORD97":175886.95441000001,"N_COORD97":2545776.05461,"ADDRESS":"大埔路二段２５０巷８０號","OBJECTID":260408},"geometry":{"x":175886.9544100007,"y":2545776.0546099991}},{"attributes":{"ID":260413,"DIS_CODE":0,"TOWNNAME":"南區","LI":"郡南里","LIN":"17鄰","STREET":"永成路","SECT":"三段","MAREA":" ","LANE":"２５巷","ALLEY":" ","HOUSE_NO":"２２號","E_COORD97":167452.06144200001,"N_COORD97":2540426.3622599998,"ADDRESS":"永成路三段２５巷２２號","OBJECTID":260409},"geometry":{"x":167452.06144200079,"y":2540426.3622619994}},{"attributes":{"ID":260414,"DIS_CODE":0,"TOWNNAME":"南區","LI":"郡南里","LIN":"17鄰","STREET":"永成路","SECT":"三段","MAREA":" ","LANE":"２５巷","ALLEY":" ","HOUSE_NO":"２６號","E_COORD97":167441.89628700001,"N_COORD97":2540427.31476,"ADDRESS":"永成路三段２５巷２６號","OBJECTID":260410},"geometry":{"x":167441.89628700074,"y":2540427.314762}},{"attributes":{"ID":260415,"DIS_CODE":0,"TOWNNAME":"南區","LI":"郡南里","LIN":"17鄰","STREET":"永成路","SECT":"三段","MAREA":" ","LANE":"２５巷","ALLEY":" ","HOUSE_NO":"２８號","E_COORD97":167429.401618,"N_COORD97":2540427.6322599999,"ADDRESS":"永成路三段２５巷２８號","OBJECTID":260411},"geometry":{"x":167429.40161800105,"y":2540427.632261999}},{"attributes":{"ID":260416,"DIS_CODE":0,"TOWNNAME":"南區","LI":"郡南里","LIN":"17鄰","STREET":"永成路","SECT":"三段","MAREA":" ","LANE":"２５巷","ALLEY":" ","HOUSE_NO":"３２號","E_COORD97":167419.448237,"N_COORD97":2540428.1614299999,"ADDRESS":"永成路三段２５巷３２號","OBJECTID":260412},"geometry":{"x":167419.4482370019,"y":2540428.1614280026}},{"attributes":{"ID":260417,"DIS_CODE":0,"TOWNNAME":"南區","LI":"郡南里","LIN":"17鄰","STREET":"永成路","SECT":"三段","MAREA":" ","LANE":"２５巷","ALLEY":" ","HOUSE_NO":"３６號","E_COORD97":167409.70663,"N_COORD97":2540429.7489299998,"ADDRESS":"永成路三段２５巷３６號","OBJECTID":260413},"geometry":{"x":167409.70662999991,"y":2540429.748926999}},{"attributes":{"ID":260418,"DIS_CODE":0,"TOWNNAME":"南區","LI":"郡南里","LIN":"17鄰","STREET":"永成路","SECT":"三段","MAREA":" ","LANE":"２５巷","ALLEY":" ","HOUSE_NO":"３８號","E_COORD97":167397.63550900001,"N_COORD97":2540429.85476,"ADDRESS":"永成路三段２５巷３８號","OBJECTID":260414},"geometry":{"x":167397.63550900016,"y":2540429.8547600005}},{"attributes":{"ID":260419,"DIS_CODE":0,"TOWNNAME":"南區","LI":"郡南里","LIN":"17鄰","STREET":"永成路","SECT":"三段","MAREA":" ","LANE":"２５巷","ALLEY":" ","HOUSE_NO":"４０號","E_COORD97":167389.58809400001,"N_COORD97":2540430.59559,"ADDRESS":"永成路三段２５巷４０號","OBJECTID":260415},"geometry":{"x":167389.58809399977,"y":2540430.5955930017}},{"attributes":{"ID":260420,"DIS_CODE":0,"TOWNNAME":"仁德區","LI":"保安里","LIN":"11鄰","STREET":"文賢路","SECT":"一段","MAREA":" ","LANE":"８５３巷","ALLEY":" ","HOUSE_NO":"１２號","E_COORD97":171706.969602,"N_COORD97":2535950.7329899999,"ADDRESS":"文賢路一段８５３巷１２號","OBJECTID":260416},"geometry":{"x":171706.96960199997,"y":2535950.7329900023}},{"attributes":{"ID":260421,"DIS_CODE":0,"TOWNNAME":"中西區","LI":"藥王里","LIN":"5鄰","STREET":"大福街","SECT":" ","MAREA":" ","LANE":"１５巷","ALLEY":" ","HOUSE_NO":"１９號之１","E_COORD97":167250.10683999999,"N_COORD97":2544372.7248,"ADDRESS":"大福街１５巷１９號之１","OBJECTID":260417},"geometry":{"x":167250.10683999956,"y":2544372.7248}},{"attributes":{"ID":260422,"DIS_CODE":0,"TOWNNAME":"仁德區","LI":"保安里","LIN":"11鄰","STREET":"文賢路","SECT":"一段","MAREA":" ","LANE":"８５３巷","ALLEY":" ","HOUSE_NO":"３號","E_COORD97":171662.06247400001,"N_COORD97":2535957.2946500001,"ADDRESS":"文賢路一段８５３巷３號","OBJECTID":260418},"geometry":{"x":171662.0624740012,"y":2535957.294653004}},{"attributes":{"ID":260423,"DIS_CODE":0,"TOWNNAME":"仁德區","LI":"保安里","LIN":"11鄰","STREET":"文賢路","SECT":"一段","MAREA":" ","LANE":"８５３巷","ALLEY":" ","HOUSE_NO":"８之１號","E_COORD97":171691.082646,"N_COORD97":2535942.6896600001,"ADDRESS":"文賢路一段８５３巷８之１號","OBJECTID":260419},"geometry":{"x":171691.08264600113,"y":2535942.6896610018}},{"attributes":{"ID":260424,"DIS_CODE":0,"TOWNNAME":"關廟區","LI":"田中里","LIN":"5鄰","STREET":"中大街","SECT":" ","MAREA":" ","LANE":"１２７巷","ALLEY":" ","HOUSE_NO":"２號","E_COORD97":184145.380561,"N_COORD97":2533389.6106699998,"ADDRESS":"中大街１２７巷２號","OBJECTID":260420},"geometry":{"x":184145.3805610016,"y":2533389.6106670015}},{"attributes":{"ID":260425,"DIS_CODE":0,"TOWNNAME":"安南區","LI":"城西里","LIN":"3鄰","STREET":"城西街","SECT":"三段","MAREA":" ","LANE":"５１０巷","ALLEY":" ","HOUSE_NO":"４１３號","E_COORD97":157400.814724,"N_COORD97":2551541.5353000001,"ADDRESS":"城西街三段５１０巷４１３號","OBJECTID":260421},"geometry":{"x":157400.81472400017,"y":2551541.5352990031}},{"attributes":{"ID":260426,"DIS_CODE":0,"TOWNNAME":"仁德區","LI":"仁德里","LIN":"34鄰","STREET":"中山路","SECT":" ","MAREA":" ","LANE":" ","ALLEY":" ","HOUSE_NO":"７４２號","E_COORD97":172715.67000000001,"N_COORD97":2541523.4900000002,"ADDRESS":"中山路７４２號","OBJECTID":260422},"geometry":{"x":172715.66999999993,"y":2541523.4900000021}},{"attributes":{"ID":260427,"DIS_CODE":0,"TOWNNAME":"仁德區","LI":"仁義里","LIN":"34鄰","STREET":"正義二街","SECT":" ","MAREA":" ","LANE":" ","ALLEY":" ","HOUSE_NO":"４７號","E_COORD97":173513.64999999999,"N_COORD97":2541570.27,"ADDRESS":"正義二街４７號","OBJECTID":260423},"geometry":{"x":173513.65000000224,"y":2541570.2699999996}},{"attributes":{"ID":260428,"DIS_CODE":0,"TOWNNAME":"關廟區","LI":"田中里","LIN":"5鄰","STREET":"中大街","SECT":" ","MAREA":" ","LANE":"１２７巷","ALLEY":" ","HOUSE_NO":"７號","E_COORD97":184292.41990899999,"N_COORD97":2533276.73948,"ADDRESS":"中大街１２７巷７號","OBJECTID":260424},"geometry":{"x":184292.4199090004,"y":2533276.7394780014}},{"attributes":{"ID":260429,"DIS_CODE":0,"TOWNNAME":"仁德區","LI":"仁義里","LIN":"34鄰","STREET":"正義三街","SECT":" ","MAREA":" ","LANE":" ","ALLEY":" ","HOUSE_NO":"１５０號","E_COORD97":173812.26000000001,"N_COORD97":2541622.7599999998,"ADDRESS":"正義三街１５０號","OBJECTID":260425},"geometry":{"x":173812.26000000164,"y":2541622.7600000016}},{"attributes":{"ID":260430,"DIS_CODE":0,"TOWNNAME":"柳營區","LI":"東昇里","LIN":"22鄰","STREET":"康樂街","SECT":" ","MAREA":" ","LANE":" ","ALLEY":" ","HOUSE_NO":"１５２號","E_COORD97":180187.59,"N_COORD97":2575201.3199999998,"ADDRESS":"康樂街１５２號","OBJECTID":260426},"geometry":{"x":180187.59000000078,"y":2575201.3200000022}},{"attributes":{"ID":260431,"DIS_CODE":0,"TOWNNAME":"柳營區","LI":"東昇里","LIN":"22鄰","STREET":"康樂街","SECT":" ","MAREA":" ","LANE":" ","ALLEY":" ","HOUSE_NO":"１５６號","E_COORD97":180187.48000000001,"N_COORD97":2575205.1600000001,"ADDRESS":"康樂街１５６號","OBJECTID":260427},"geometry":{"x":180187.48000000138,"y":2575205.160000002}},{"attributes":{"ID":260432,"DIS_CODE":0,"TOWNNAME":"柳營區","LI":"東昇里","LIN":"22鄰","STREET":"康樂街","SECT":" ","MAREA":" ","LANE":" ","ALLEY":" ","HOUSE_NO":"１５８號","E_COORD97":180187.39000000001,"N_COORD97":2575209.21,"ADDRESS":"康樂街１５８號","OBJECTID":260428},"geometry":{"x":180187.3900000006,"y":2575209.2100000028}},{"attributes":{"ID":260433,"DIS_CODE":0,"TOWNNAME":"永康區","LI":"復國里","LIN":"6鄰","STREET":"復華三街","SECT":" ","MAREA":" ","LANE":"７６巷","ALLEY":" ","HOUSE_NO":"１２號","E_COORD97":172686.03,"N_COORD97":2545587.1800000002,"ADDRESS":"復華三街７６巷１２號","OBJECTID":260429},"geometry":{"x":172686.03000000119,"y":2545587.1800000016}},{"attributes":{"ID":260434,"DIS_CODE":0,"TOWNNAME":"永康區","LI":"復國里","LIN":"6鄰","STREET":"復華三街","SECT":" ","MAREA":" ","LANE":"７６巷","ALLEY":" ","HOUSE_NO":"１４號","E_COORD97":172687.07000000001,"N_COORD97":2545593.1800000002,"ADDRESS":"復華三街７６巷１４號","OBJECTID":260430},"geometry":{"x":172687.07000000123,"y":2545593.1800000016}},{"attributes":{"ID":260435,"DIS_CODE":0,"TOWNNAME":"永康區","LI":"復國里","LIN":"6鄰","STREET":"復華三街","SECT":" ","MAREA":" ","LANE":"７６巷","ALLEY":" ","HOUSE_NO":"１６號","E_COORD97":172687.22,"N_COORD97":2545602.4300000002,"ADDRESS":"復華三街７６巷１６號","OBJECTID":260431},"geometry":{"x":172687.22000000067,"y":2545602.4300000016}},{"attributes":{"ID":260436,"DIS_CODE":0,"TOWNNAME":"永康區","LI":"復國里","LIN":"6鄰","STREET":"復華三街","SECT":" ","MAREA":" ","LANE":"７６巷","ALLEY":" ","HOUSE_NO":"１９號","E_COORD97":172669.14000000001,"N_COORD97":2545613.7799999998,"ADDRESS":"復華三街７６巷１９號","OBJECTID":260432},"geometry":{"x":172669.1400000006,"y":2545613.7799999993}},{"attributes":{"ID":260437,"DIS_CODE":0,"TOWNNAME":"永康區","LI":"復國里","LIN":"6鄰","STREET":"復華三街","SECT":" ","MAREA":" ","LANE":"７６巷","ALLEY":" ","HOUSE_NO":"２１號","E_COORD97":172668.32000000001,"N_COORD97":2545619.2799999998,"ADDRESS":"復華三街７６巷２１號","OBJECTID":260433},"geometry":{"x":172668.32000000123,"y":2545619.2800000012}},{"attributes":{"ID":260438,"DIS_CODE":0,"TOWNNAME":"永康區","LI":"復國里","LIN":"6鄰","STREET":"復華三街","SECT":" ","MAREA":" ","LANE":"７６巷","ALLEY":" ","HOUSE_NO":"２３號","E_COORD97":172656.57000000001,"N_COORD97":2545625.0299999998,"ADDRESS":"復華三街７６巷２３號","OBJECTID":260434},"geometry":{"x":172656.57000000123,"y":2545625.0300000012}},{"attributes":{"ID":260439,"DIS_CODE":0,"TOWNNAME":"安南區","LI":"總頭里","LIN":"5鄰","STREET":"長溪路","SECT":"二段","MAREA":" ","LANE":"５７０巷","ALLEY":" ","HOUSE_NO":"４０號","E_COORD97":168346.155585,"N_COORD97":2550558.8687700001,"ADDRESS":"長溪路二段５７０巷４０號","OBJECTID":260435},"geometry":{"x":168346.15558500122,"y":2550558.868768001}},{"attributes":{"ID":260440,"DIS_CODE":0,"TOWNNAME":"永康區","LI":"復國里","LIN":"6鄰","STREET":"復華三街","SECT":" ","MAREA":" ","LANE":"７６巷","ALLEY":" ","HOUSE_NO":"２７號","E_COORD97":172646.98000000001,"N_COORD97":2545625.5299999998,"ADDRESS":"復華三街７６巷２７號","OBJECTID":260436},"geometry":{"x":172646.98000000138,"y":2545625.5299999993}},{"attributes":{"ID":260441,"DIS_CODE":0,"TOWNNAME":"新營區","LI":"新南里","LIN":"17鄰","STREET":"隋唐街","SECT":" ","MAREA":" ","LANE":"１１５巷","ALLEY":" ","HOUSE_NO":"１６號","E_COORD97":178498.57676200001,"N_COORD97":2578528.21,"ADDRESS":"隋唐街１１５巷１６號","OBJECTID":260437},"geometry":{"x":178498.57676200103,"y":2578528.2099970002}},{"attributes":{"ID":260442,"DIS_CODE":0,"TOWNNAME":"新營區","LI":"新南里","LIN":"17鄰","STREET":"隋唐街","SECT":" ","MAREA":" ","LANE":"１１５巷","ALLEY":" ","HOUSE_NO":"１８號","E_COORD97":178497.94111499999,"N_COORD97":2578524.61167,"ADDRESS":"隋唐街１１５巷１８號","OBJECTID":260438},"geometry":{"x":178497.94111500029,"y":2578524.6116660032}},{"attributes":{"ID":260443,"DIS_CODE":0,"TOWNNAME":"永康區","LI":"復國里","LIN":"24鄰","STREET":"復華三街","SECT":" ","MAREA":" ","LANE":"９０巷","ALLEY":" ","HOUSE_NO":"１０號","E_COORD97":172617.246201,"N_COORD97":2545594.9149099998,"ADDRESS":"復華三街９０巷１０號","OBJECTID":260439},"geometry":{"x":172617.24620100018,"y":2545594.9149120022}},{"attributes":{"ID":260444,"DIS_CODE":0,"TOWNNAME":"永康區","LI":"復國里","LIN":"6鄰","STREET":"復華三街","SECT":" ","MAREA":" ","LANE":"７６巷","ALLEY":" ","HOUSE_NO":"３３號","E_COORD97":172631.78,"N_COORD97":2545626.2799999998,"ADDRESS":"復華三街７６巷３３號","OBJECTID":260440},"geometry":{"x":172631.78000000119,"y":2545626.2800000012}},{"attributes":{"ID":260445,"DIS_CODE":0,"TOWNNAME":"下營區","LI":"後街里","LIN":"5鄰","STREET":"人和二街","SECT":" ","MAREA":" ","LANE":"１２０巷","ALLEY":" ","HOUSE_NO":"２８號","E_COORD97":174477.86515900001,"N_COORD97":2570846.7045200001,"ADDRESS":"人和二街１２０巷２８號","OBJECTID":260441},"geometry":{"x":174477.8651590012,"y":2570846.7045220025}},{"attributes":{"ID":260446,"DIS_CODE":0,"TOWNNAME":"柳營區","LI":"光福里","LIN":"22鄰","STREET":" ","SECT":" ","MAREA":"柳營","LANE":" ","ALLEY":" ","HOUSE_NO":"２６９號之１","E_COORD97":179739.91,"N_COORD97":2575384.3100000001,"ADDRESS":"柳營２６９號之１","OBJECTID":260442},"geometry":{"x":179739.91000000108,"y":2575384.3100000024}},{"attributes":{"ID":260447,"DIS_CODE":0,"TOWNNAME":"歸仁區","LI":"八甲里","LIN":"22鄰","STREET":"大德路","SECT":" ","MAREA":" ","LANE":" ","ALLEY":" ","HOUSE_NO":"９４號","E_COORD97":178170.01999999999,"N_COORD97":2541290.1200000001,"ADDRESS":"大德路９４號","OBJECTID":260443},"geometry":{"x":178170.01999999955,"y":2541290.1200000029}},{"attributes":{"ID":260448,"DIS_CODE":0,"TOWNNAME":"歸仁區","LI":"媽廟里","LIN":"8鄰","STREET":"和順路","SECT":"一段","MAREA":" ","LANE":" ","ALLEY":" ","HOUSE_NO":"２２之１號","E_COORD97":177466.313325,"N_COORD97":2543723.4571600002,"ADDRESS":"和順路一段２２之１號","OBJECTID":260444},"geometry":{"x":177466.31332500093,"y":2543723.4571580011}},{"attributes":{"ID":260449,"DIS_CODE":0,"TOWNNAME":"柳營區","LI":"光福里","LIN":"22鄰","STREET":" ","SECT":" ","MAREA":"柳營","LANE":" ","ALLEY":" ","HOUSE_NO":"２７５號之１","E_COORD97":179754.85999999999,"N_COORD97":2575410.73,"ADDRESS":"柳營２７５號之１","OBJECTID":260445},"geometry":{"x":179754.86000000034,"y":2575410.7300000004}},{"attributes":{"ID":260450,"DIS_CODE":0,"TOWNNAME":"柳營區","LI":"光福里","LIN":"22鄰","STREET":" ","SECT":" ","MAREA":"柳營","LANE":" ","ALLEY":" ","HOUSE_NO":"２７６之１號","E_COORD97":179783.51999999999,"N_COORD97":2575463.5499999998,"ADDRESS":"柳營２７６之１號","OBJECTID":260446},"geometry":{"x":179783.51999999955,"y":2575463.5500000045}},{"attributes":{"ID":260451,"DIS_CODE":0,"TOWNNAME":"柳營區","LI":"東昇里","LIN":"22鄰","STREET":" ","SECT":" ","MAREA":"柳營","LANE":" ","ALLEY":" ","HOUSE_NO":"４７４之１號","E_COORD97":180215.28,"N_COORD97":2575236.1800000002,"ADDRESS":"柳營４７４之１號","OBJECTID":260447},"geometry":{"x":180215.28000000212,"y":2575236.1800000016}},{"attributes":{"ID":260452,"DIS_CODE":0,"TOWNNAME":"歸仁區","LI":"文化里","LIN":"22鄰","STREET":"大德路","SECT":" ","MAREA":" ","LANE":" ","ALLEY":" ","HOUSE_NO":"２４９號","E_COORD97":177147.84,"N_COORD97":2541520.3300000001,"ADDRESS":"大德路２４９號","OBJECTID":260448},"geometry":{"x":177147.84000000171,"y":2541520.3300000019}},{"attributes":{"ID":260453,"DIS_CODE":0,"TOWNNAME":"歸仁區","LI":"文化里","LIN":"22鄰","STREET":"大德路","SECT":" ","MAREA":" ","LANE":" ","ALLEY":" ","HOUSE_NO":"２４５號","E_COORD97":177147.84,"N_COORD97":2541520.3300000001,"ADDRESS":"大德路２４５號","OBJECTID":260449},"geometry":{"x":177147.84000000171,"y":2541520.3300000019}},{"attributes":{"ID":260454,"DIS_CODE":0,"TOWNNAME":"南區","LI":"金華里","LIN":"22鄰","STREET":"賢南街","SECT":" ","MAREA":" ","LANE":" ","ALLEY":" ","HOUSE_NO":"６８號","E_COORD97":166791.95000000001,"N_COORD97":2542425.8100000001,"ADDRESS":"賢南街６８號","OBJECTID":260450},"geometry":{"x":166791.95000000112,"y":2542425.8100000042}},{"attributes":{"ID":260455,"DIS_CODE":0,"TOWNNAME":"仁德區","LI":"新田里","LIN":"4鄰","STREET":"勝利路","SECT":" ","MAREA":" ","LANE":"１５０巷","ALLEY":" ","HOUSE_NO":"１號","E_COORD97":174401.76156000001,"N_COORD97":2539531.6424099999,"ADDRESS":"勝利路１５０巷１號","OBJECTID":260451},"geometry":{"x":174401.76156000141,"y":2539531.6424060017}},{"attributes":{"ID":260456,"DIS_CODE":0,"TOWNNAME":"南區","LI":"彰南里","LIN":"18鄰","STREET":"新和一路","SECT":" ","MAREA":" ","LANE":"３巷","ALLEY":" ","HOUSE_NO":"５號之１","E_COORD97":166130.462894,"N_COORD97":2540720.6502100001,"ADDRESS":"新和一路３巷５號之１","OBJECTID":260452},"geometry":{"x":166130.46289400011,"y":2540720.6502129994}},{"attributes":{"ID":260457,"DIS_CODE":0,"TOWNNAME":"南區","LI":"彰南里","LIN":"18鄰","STREET":"新和一路","SECT":" ","MAREA":" ","LANE":"３巷","ALLEY":" ","HOUSE_NO":"５號之２","E_COORD97":166132.79240899999,"N_COORD97":2540720.6502100001,"ADDRESS":"新和一路３巷５號之２","OBJECTID":260453},"geometry":{"x":166132.79240899999,"y":2540720.6502129994}},{"attributes":{"ID":260458,"DIS_CODE":0,"TOWNNAME":"南區","LI":"彰南里","LIN":"18鄰","STREET":"新和一路","SECT":" ","MAREA":" ","LANE":"３巷","ALLEY":" ","HOUSE_NO":"７號之１","E_COORD97":166164.34674400001,"N_COORD97":2540722.1318799998,"ADDRESS":"新和一路３巷７號之１","OBJECTID":260454},"geometry":{"x":166164.34674400091,"y":2540722.1318790019}},{"attributes":{"ID":260459,"DIS_CODE":0,"TOWNNAME":"安南區","LI":"總頭里","LIN":"5鄰","STREET":"長溪路","SECT":"二段","MAREA":" ","LANE":"５７０巷","ALLEY":" ","HOUSE_NO":"４８號","E_COORD97":168382.14000000001,"N_COORD97":2550575.0899999999,"ADDRESS":"長溪路二段５７０巷４８號","OBJECTID":260455},"geometry":{"x":168382.1400000006,"y":2550575.0900000017}},{"attributes":{"ID":260460,"DIS_CODE":0,"TOWNNAME":"關廟區","LI":"田中里","LIN":"5鄰","STREET":"中大街","SECT":" ","MAREA":" ","LANE":"１２７巷","ALLEY":" ","HOUSE_NO":"１６號","E_COORD97":184292.208036,"N_COORD97":2533055.0187599999,"ADDRESS":"中大街１２７巷１６號","OBJECTID":260456},"geometry":{"x":184292.20803600084,"y":2533055.0187640022}},{"attributes":{"ID":260461,"DIS_CODE":0,"TOWNNAME":"關廟區","LI":"布袋里","LIN":"5鄰","STREET":"長文街","SECT":" ","MAREA":" ","LANE":"１０５巷","ALLEY":" ","HOUSE_NO":"２７號","E_COORD97":182942.94,"N_COORD97":2535364.2999999998,"ADDRESS":"長文街１０５２７號","OBJECTID":260457},"geometry":{"x":182942.94000000041,"y":2535364.3000000026}},{"attributes":{"ID":260462,"DIS_CODE":0,"TOWNNAME":"關廟區","LI":"布袋里","LIN":"5鄰","STREET":"長文街","SECT":" ","MAREA":" ","LANE":"１０５巷","ALLEY":" ","HOUSE_NO":"３２號","E_COORD97":182936.04000000001,"N_COORD97":2535331.2999999998,"ADDRESS":"長文街１０５３２號","OBJECTID":260458},"geometry":{"x":182936.04000000097,"y":2535331.3000000026}},{"attributes":{"ID":260463,"DIS_CODE":0,"TOWNNAME":"關廟區","LI":"田中里","LIN":"5鄰","STREET":"中大街","SECT":" ","MAREA":" ","LANE":"１３６巷","ALLEY":" ","HOUSE_NO":"５號","E_COORD97":184029.94,"N_COORD97":2533302.2999999998,"ADDRESS":"中大街１３６巷５號","OBJECTID":260459},"geometry":{"x":184029.94000000041,"y":2533302.3000000007}},{"attributes":{"ID":260464,"DIS_CODE":0,"TOWNNAME":"歸仁區","LI":"大廟里","LIN":"22鄰","STREET":"大廟一街","SECT":" ","MAREA":" ","LANE":"３８巷","ALLEY":" ","HOUSE_NO":"１３號","E_COORD97":175780.12,"N_COORD97":2544060.25,"ADDRESS":"大廟一街３８巷１３號","OBJECTID":260460},"geometry":{"x":175780.12000000104,"y":2544060.2500000019}},{"attributes":{"ID":260465,"DIS_CODE":0,"TOWNNAME":"南區","LI":"金華里","LIN":"22鄰","STREET":"賢南街","SECT":" ","MAREA":" ","LANE":" ","ALLEY":" ","HOUSE_NO":"１００號","E_COORD97":166761.12,"N_COORD97":2542419.8500000001,"ADDRESS":"賢南街１００號","OBJECTID":260461},"geometry":{"x":166761.12000000011,"y":2542419.8499999996}},{"attributes":{"ID":260466,"DIS_CODE":0,"TOWNNAME":"六甲區","LI":"甲東里","LIN":"22鄰","STREET":"裕農街","SECT":" ","MAREA":" ","LANE":" ","ALLEY":" ","HOUSE_NO":"６３號","E_COORD97":184187.54000000001,"N_COORD97":2569718.75,"ADDRESS":"裕農街６３號","OBJECTID":260462},"geometry":{"x":184187.54000000097,"y":2569718.7500000019}},{"attributes":{"ID":260467,"DIS_CODE":0,"TOWNNAME":"六甲區","LI":"甲東里","LIN":"22鄰","STREET":"裕農街","SECT":" ","MAREA":" ","LANE":" ","ALLEY":" ","HOUSE_NO":"５１號","E_COORD97":184142.23000000001,"N_COORD97":2569717.4199999999,"ADDRESS":"裕農街５１號","OBJECTID":260463},"geometry":{"x":184142.23000000138,"y":2569717.4200000018}},{"attributes":{"ID":260468,"DIS_CODE":0,"TOWNNAME":"關廟區","LI":"田中里","LIN":"5鄰","STREET":"中大街","SECT":" ","MAREA":" ","LANE":"１２７巷","ALLEY":" ","HOUSE_NO":"１２號","E_COORD97":184186.94,"N_COORD97":2533320.2999999998,"ADDRESS":"中大街１２７巷１２號","OBJECTID":260464},"geometry":{"x":184186.94000000134,"y":2533320.3000000026}},{"attributes":{"ID":260469,"DIS_CODE":0,"TOWNNAME":"關廟區","LI":"布袋里","LIN":"5鄰","STREET":"長文街","SECT":" ","MAREA":" ","LANE":"１０５巷","ALLEY":" ","HOUSE_NO":"７號","E_COORD97":182928.89000000001,"N_COORD97":2535401.2999999998,"ADDRESS":"長文街１０５７號","OBJECTID":260465},"geometry":{"x":182928.88999999966,"y":2535401.3000000045}},{"attributes":{"ID":260470,"DIS_CODE":0,"TOWNNAME":"關廟區","LI":"布袋里","LIN":"5鄰","STREET":"長文街","SECT":" ","MAREA":" ","LANE":"１８１巷","ALLEY":" ","HOUSE_NO":"１６號","E_COORD97":182742.23999999999,"N_COORD97":2535252.2999999998,"ADDRESS":"長文街１８１巷１６號","OBJECTID":260466},"geometry":{"x":182742.24000000022,"y":2535252.3000000045}},{"attributes":{"ID":260471,"DIS_CODE":0,"TOWNNAME":"歸仁區","LI":"武東里","LIN":"5鄰","STREET":"武東一街","SECT":" ","MAREA":" ","LANE":"２８巷","ALLEY":" ","HOUSE_NO":"１６號","E_COORD97":175544.69,"N_COORD97":2535430.25,"ADDRESS":"武東一街２８巷１６號","OBJECTID":260467},"geometry":{"x":175544.69000000134,"y":2535430.25}},{"attributes":{"ID":260472,"DIS_CODE":0,"TOWNNAME":"六甲區","LI":"甲東里","LIN":"22鄰","STREET":"裕農街","SECT":" ","MAREA":" ","LANE":" ","ALLEY":" ","HOUSE_NO":"５５號","E_COORD97":184164.32999999999,"N_COORD97":2569726.2799999998,"ADDRESS":"裕農街５５號","OBJECTID":260468},"geometry":{"x":184164.33000000007,"y":2569726.2799999993}},{"attributes":{"ID":260473,"DIS_CODE":0,"TOWNNAME":"六甲區","LI":"甲東里","LIN":"22鄰","STREET":"裕農街","SECT":" ","MAREA":" ","LANE":" ","ALLEY":" ","HOUSE_NO":"６５號","E_COORD97":184191.48000000001,"N_COORD97":2569719.1699999999,"ADDRESS":"裕農街６５號","OBJECTID":260469},"geometry":{"x":184191.48000000138,"y":2569719.1700000018}},{"attributes":{"ID":260474,"DIS_CODE":0,"TOWNNAME":"安南區","LI":"淵中里","LIN":"5鄰","STREET":"安中路","SECT":"四段","MAREA":" ","LANE":"９４巷","ALLEY":" ","HOUSE_NO":"３５號","E_COORD97":165207.43319800001,"N_COORD97":2550106.3681200002,"ADDRESS":"安中路四段９４巷３５號","OBJECTID":260470},"geometry":{"x":165207.4331980003,"y":2550106.3681190033}},{"attributes":{"ID":260475,"DIS_CODE":0,"TOWNNAME":"關廟區","LI":"田中里","LIN":"5鄰","STREET":"中大街","SECT":" ","MAREA":" ","LANE":"１２７巷","ALLEY":" ","HOUSE_NO":"１８號","E_COORD97":184315.30211300001,"N_COORD97":2533113.9679,"ADDRESS":"中大街１２７巷１８號","OBJECTID":260471},"geometry":{"x":184315.30211300123,"y":2533113.9678990003}},{"attributes":{"ID":260476,"DIS_CODE":0,"TOWNNAME":"安南區","LI":"總頭里","LIN":"5鄰","STREET":"長溪路","SECT":"二段","MAREA":" ","LANE":"５７０巷","ALLEY":" ","HOUSE_NO":"４４號","E_COORD97":168379.63063699999,"N_COORD97":2550563.3137699999,"ADDRESS":"長溪路二段５７０巷４４號","OBJECTID":260472},"geometry":{"x":168379.63063700031,"y":2550563.3137660008}},{"attributes":{"ID":260477,"DIS_CODE":0,"TOWNNAME":"永康區","LI":"復國里","LIN":"6鄰","STREET":"復華三街","SECT":" ","MAREA":" ","LANE":"７６巷","ALLEY":" ","HOUSE_NO":"１３號","E_COORD97":172666.82999999999,"N_COORD97":2545599.0299999998,"ADDRESS":"復華三街７６巷１３號","OBJECTID":260473},"geometry":{"x":172666.83000000101,"y":2545599.0299999993}},{"attributes":{"ID":260478,"DIS_CODE":0,"TOWNNAME":"永康區","LI":"\u25A0洲里","LIN":"38鄰","STREET":"\u25A0行路","SECT":" ","MAREA":" ","LANE":"１８８巷","ALLEY":" ","HOUSE_NO":"６號","E_COORD97":171327.91,"N_COORD97":2549240.1600000001,"ADDRESS":"\u25A0行路１８８巷６號","OBJECTID":260474},"geometry":{"x":171327.91000000015,"y":2549240.1600000001}},{"attributes":{"ID":260479,"DIS_CODE":0,"TOWNNAME":"南區","LI":"彰南里","LIN":"18鄰","STREET":"新和一路","SECT":" ","MAREA":" ","LANE":"１巷","ALLEY":" ","HOUSE_NO":"４號之２","E_COORD97":166084.22993999999,"N_COORD97":2540773.3416200001,"ADDRESS":"新和一路１巷４號之２","OBJECTID":260475},"geometry":{"x":166084.22993999999,"y":2540773.3416200019}},{"attributes":{"ID":260480,"DIS_CODE":0,"TOWNNAME":"南區","LI":"彰南里","LIN":"18鄰","STREET":"新和一路","SECT":" ","MAREA":" ","LANE":"１巷","ALLEY":" ","HOUSE_NO":"７號之２","E_COORD97":166153.81098400001,"N_COORD97":2540826.5893199998,"ADDRESS":"新和一路１巷７號之２","OBJECTID":260476},"geometry":{"x":166153.81098400149,"y":2540826.5893220045}},{"attributes":{"ID":260481,"DIS_CODE":0,"TOWNNAME":"南區","LI":"彰南里","LIN":"18鄰","STREET":"新和一路","SECT":" ","MAREA":" ","LANE":"１巷","ALLEY":" ","HOUSE_NO":"６號之１","E_COORD97":166128.45104099999,"N_COORD97":2540772.6408099998,"ADDRESS":"新和一路１巷６號之１","OBJECTID":260477},"geometry":{"x":166128.45104099996,"y":2540772.6408099998}},{"attributes":{"ID":260482,"DIS_CODE":0,"TOWNNAME":"南區","LI":"彰南里","LIN":"18鄰","STREET":"新和一路","SECT":" ","MAREA":" ","LANE":"３巷","ALLEY":" ","HOUSE_NO":"２號之１","E_COORD97":166045.32972199999,"N_COORD97":2540667.2044099998,"ADDRESS":"新和一路３巷２號之１","OBJECTID":260478},"geometry":{"x":166045.32972200122,"y":2540667.2044080049}},{"attributes":{"ID":260483,"DIS_CODE":0,"TOWNNAME":"南區","LI":"彰南里","LIN":"18鄰","STREET":"新和一路","SECT":" ","MAREA":" ","LANE":"１巷","ALLEY":" ","HOUSE_NO":"４號之１","E_COORD97":166087.61884800001,"N_COORD97":2540772.9182899999,"ADDRESS":"新和一路１巷４號之１","OBJECTID":260479},"geometry":{"x":166087.61884799972,"y":2540772.9182869978}},{"attributes":{"ID":260484,"DIS_CODE":0,"TOWNNAME":"仁德區","LI":"仁愛里","LIN":"26鄰","STREET":"大同路","SECT":"三段","MAREA":" ","LANE":"３５８巷","ALLEY":" ","HOUSE_NO":"１７號","E_COORD97":169733.52499999999,"N_COORD97":2539416.2326400001,"ADDRESS":"大同路三段３５８巷１７號","OBJECTID":260480},"geometry":{"x":169733.52500000037,"y":2539416.2326420024}},{"attributes":{"ID":260485,"DIS_CODE":0,"TOWNNAME":"仁德區","LI":"仁愛里","LIN":"26鄰","STREET":"大同路","SECT":"三段","MAREA":" ","LANE":"３５８巷","ALLEY":" ","HOUSE_NO":"２號","E_COORD97":169728.84,"N_COORD97":2539482.1299999999,"ADDRESS":"大同路三段３５８巷２號","OBJECTID":260481},"geometry":{"x":169728.84000000078,"y":2539482.129999999}},{"attributes":{"ID":260486,"DIS_CODE":0,"TOWNNAME":"中西區","LI":"萬昌里","LIN":"11鄰","STREET":"民權路","SECT":"一段","MAREA":" ","LANE":" ","ALLEY":" ","HOUSE_NO":"６號","E_COORD97":169112.13,"N_COORD97":2543320.1099999999,"ADDRESS":"民權路一段６號","OBJECTID":260482},"geometry":{"x":169112.12999999989,"y":2543320.1099999994}},{"attributes":{"ID":260487,"DIS_CODE":0,"TOWNNAME":"中西區","LI":"萬昌里","LIN":"11鄰","STREET":"民權路","SECT":"一段","MAREA":" ","LANE":" ","ALLEY":" ","HOUSE_NO":"８號","E_COORD97":169107.82999999999,"N_COORD97":2543322.79,"ADDRESS":"民權路一段８號","OBJECTID":260483},"geometry":{"x":169107.82999999914,"y":2543322.7900000028}},{"attributes":{"ID":260488,"DIS_CODE":0,"TOWNNAME":"關廟區","LI":"東勢里","LIN":"22鄰","STREET":"東德街","SECT":" ","MAREA":" ","LANE":" ","ALLEY":" ","HOUSE_NO":"１１３號","E_COORD97":181829.07000000001,"N_COORD97":2539210.27,"ADDRESS":"東德街１１３號","OBJECTID":260484},"geometry":{"x":181829.07000000123,"y":2539210.2699999996}},{"attributes":{"ID":260489,"DIS_CODE":0,"TOWNNAME":"仁德區","LI":"仁愛里","LIN":"26鄰","STREET":"大同路","SECT":"三段","MAREA":" ","LANE":"３５８巷","ALLEY":" ","HOUSE_NO":"６號","E_COORD97":169728.84,"N_COORD97":2539487.2799999998,"ADDRESS":"大同路三段３５８巷６號","OBJECTID":260485},"geometry":{"x":169728.84000000078,"y":2539487.2799999993}},{"attributes":{"ID":260490,"DIS_CODE":0,"TOWNNAME":"仁德區","LI":"仁愛里","LIN":"26鄰","STREET":"大同路","SECT":"三段","MAREA":" ","LANE":"３５８巷","ALLEY":" ","HOUSE_NO":"８號","E_COORD97":169728.95000000001,"N_COORD97":2539492.3799999999,"ADDRESS":"大同路三段３５８巷８號","OBJECTID":260486},"geometry":{"x":169728.95000000019,"y":2539492.3800000008}},{"attributes":{"ID":260491,"DIS_CODE":0,"TOWNNAME":"仁德區","LI":"仁愛里","LIN":"26鄰","STREET":"大同路","SECT":"三段","MAREA":" ","LANE":"３５８巷","ALLEY":" ","HOUSE_NO":"１８號","E_COORD97":169712.85000000001,"N_COORD97":2539507.3799999999,"ADDRESS":"大同路三段３５８巷１８號","OBJECTID":260487},"geometry":{"x":169712.85000000056,"y":2539507.379999999}},{"attributes":{"ID":260492,"DIS_CODE":0,"TOWNNAME":"仁德區","LI":"仁愛里","LIN":"26鄰","STREET":"大同路","SECT":"三段","MAREA":" ","LANE":"３５８巷","ALLEY":" ","HOUSE_NO":"２０號","E_COORD97":169712.85000000001,"N_COORD97":2539502.2000000002,"ADDRESS":"大同路三段３５８巷２０號","OBJECTID":260488},"geometry":{"x":169712.85000000056,"y":2539502.1999999993}},{"attributes":{"ID":260493,"DIS_CODE":0,"TOWNNAME":"仁德區","LI":"仁愛里","LIN":"26鄰","STREET":"大同路","SECT":"三段","MAREA":" ","LANE":"３５８巷","ALLEY":" ","HOUSE_NO":"２２號","E_COORD97":169712.85000000001,"N_COORD97":2539497.25,"ADDRESS":"大同路三段３５８巷２２號","OBJECTID":260489},"geometry":{"x":169712.85000000056,"y":2539497.2500000019}},{"attributes":{"ID":260494,"DIS_CODE":0,"TOWNNAME":"仁德區","LI":"仁愛里","LIN":"26鄰","STREET":"大同路","SECT":"三段","MAREA":" ","LANE":"３５８巷","ALLEY":" ","HOUSE_NO":"３０號","E_COORD97":169712.85000000001,"N_COORD97":2539481.9500000002,"ADDRESS":"大同路三段３５８巷３０號","OBJECTID":260490},"geometry":{"x":169712.85000000056,"y":2539481.9500000011}},{"attributes":{"ID":260495,"DIS_CODE":0,"TOWNNAME":"仁德區","LI":"仁愛里","LIN":"26鄰","STREET":"大同路","SECT":"三段","MAREA":" ","LANE":"３５８巷","ALLEY":" ","HOUSE_NO":"５號","E_COORD97":169733.52499999999,"N_COORD97":2539449.352,"ADDRESS":"大同路三段３５８巷５號","OBJECTID":260491},"geometry":{"x":169733.52500000037,"y":2539449.3519999981}},{"attributes":{"ID":260496,"DIS_CODE":0,"TOWNNAME":"仁德區","LI":"仁愛里","LIN":"26鄰","STREET":"大同路","SECT":"三段","MAREA":" ","LANE":"３５８巷","ALLEY":" ","HOUSE_NO":"１１號","E_COORD97":169733.52499999999,"N_COORD97":2539433.0601300001,"ADDRESS":"大同路三段３５８巷１１號","OBJECTID":260492},"geometry":{"x":169733.52500000037,"y":2539433.0601320025}},{"attributes":{"ID":260497,"DIS_CODE":0,"TOWNNAME":"仁德區","LI":"仁愛里","LIN":"26鄰","STREET":"大同路","SECT":"三段","MAREA":" ","LANE":"３５８巷","ALLEY":" ","HOUSE_NO":"１５號","E_COORD97":169733.52499999999,"N_COORD97":2539422.4768099999,"ADDRESS":"大同路三段３５８巷１５號","OBJECTID":260493},"geometry":{"x":169733.52500000037,"y":2539422.4768050015}},{"attributes":{"ID":260498,"DIS_CODE":0,"TOWNNAME":"仁德區","LI":"仁愛里","LIN":"26鄰","STREET":"大同路","SECT":"三段","MAREA":" ","LANE":"３５８巷","ALLEY":" ","HOUSE_NO":"１９號","E_COORD97":169733.72500000001,"N_COORD97":2539409.9884700002,"ADDRESS":"大同路三段３５８巷１９號","OBJECTID":260494},"geometry":{"x":169733.72500000149,"y":2539409.9884700011}},{"attributes":{"ID":260499,"DIS_CODE":0,"TOWNNAME":"仁德區","LI":"仁愛里","LIN":"26鄰","STREET":"大同路","SECT":"三段","MAREA":" ","LANE":"３５８巷","ALLEY":" ","HOUSE_NO":"２３號","E_COORD97":169733.85500000001,"N_COORD97":2539400.9132699999,"ADDRESS":"大同路三段３５８巷２３號","OBJECTID":260495},"geometry":{"x":169733.85500000138,"y":2539400.9132700004}},{"attributes":{"ID":260500,"DIS_CODE":0,"TOWNNAME":"仁德區","LI":"仁愛里","LIN":"26鄰","STREET":"大同路","SECT":"三段","MAREA":" ","LANE":"３５８巷","ALLEY":" ","HOUSE_NO":"２５號","E_COORD97":169733.95499999999,"N_COORD97":2539396.9974400001,"ADDRESS":"大同路三段３５８巷２５號","OBJECTID":260496},"geometry":{"x":169733.95500000007,"y":2539396.9974399991}},{"attributes":{"ID":260501,"DIS_CODE":0,"TOWNNAME":"中西區","LI":"銀同里","LIN":"6鄰","STREET":"府中街","SECT":" ","MAREA":" ","LANE":" ","ALLEY":" ","HOUSE_NO":"４９號","E_COORD97":168753.78,"N_COORD97":2543468.04,"ADDRESS":"府中街４９號","OBJECTID":260497},"geometry":{"x":168753.78000000026,"y":2543468.040000001}},{"attributes":{"ID":260502,"DIS_CODE":0,"TOWNNAME":"北區","LI":"文元里","LIN":"22鄰","STREET":"文成路","SECT":" ","MAREA":" ","LANE":" ","ALLEY":" ","HOUSE_NO":"６０３號","E_COORD97":167913.81,"N_COORD97":2545881.4500000002,"ADDRESS":"文成路６０３號","OBJECTID":260498},"geometry":{"x":167913.80999999959,"y":2545881.4499999993}},{"attributes":{"ID":260503,"DIS_CODE":0,"TOWNNAME":"北區","LI":"文成里","LIN":"22鄰","STREET":"海安路","SECT":"三段","MAREA":" ","LANE":" ","ALLEY":" ","HOUSE_NO":"５３３號","E_COORD97":168035.29999999999,"N_COORD97":2545737.0699999998,"ADDRESS":"海安路三段５３３號","OBJECTID":260499},"geometry":{"x":168035.30000000075,"y":2545737.0700000022}},{"attributes":{"ID":260504,"DIS_CODE":0,"TOWNNAME":"北區","LI":"成德里","LIN":"22鄰","STREET":"北成路","SECT":" ","MAREA":" ","LANE":" ","ALLEY":" ","HOUSE_NO":"２９８號","E_COORD97":168499.98000000001,"N_COORD97":2546741.4300000002,"ADDRESS":"北成路２９８號","OBJECTID":260500},"geometry":{"x":168499.98000000045,"y":2546741.4300000016}},{"attributes":{"ID":260505,"DIS_CODE":0,"TOWNNAME":"安平區","LI":"平通里","LIN":"22鄰","STREET":"育平九街","SECT":" ","MAREA":" ","LANE":" ","ALLEY":" ","HOUSE_NO":"３６４號","E_COORD97":164615.17999999999,"N_COORD97":2544059.5,"ADDRESS":"育平九街３６４號","OBJECTID":260501},"geometry":{"x":164615.18000000063,"y":2544059.5000000019}},{"attributes":{"ID":260506,"DIS_CODE":0,"TOWNNAME":"安平區","LI":"平通里","LIN":"22鄰","STREET":"育平九街","SECT":" ","MAREA":" ","LANE":" ","ALLEY":" ","HOUSE_NO":"３６５號","E_COORD97":164614.56,"N_COORD97":2544027.8599999999,"ADDRESS":"育平九街３６５號","OBJECTID":260502},"geometry":{"x":164614.55999999959,"y":2544027.8600000031}},{"attributes":{"ID":260507,"DIS_CODE":0,"TOWNNAME":"安平區","LI":"平通里","LIN":"22鄰","STREET":"育平九街","SECT":" ","MAREA":" ","LANE":" ","ALLEY":" ","HOUSE_NO":"３６６號","E_COORD97":164609.92999999999,"N_COORD97":2544059.77,"ADDRESS":"育平九街３６６號","OBJECTID":260503},"geometry":{"x":164609.93000000063,"y":2544059.7700000014}},{"attributes":{"ID":260508,"DIS_CODE":0,"TOWNNAME":"仁德區","LI":"仁愛里","LIN":"26鄰","STREET":"大同路","SECT":"三段","MAREA":" ","LANE":"３５８巷","ALLEY":" ","HOUSE_NO":"２９號","E_COORD97":169733.95499999999,"N_COORD97":2539388.5836900002,"ADDRESS":"大同路三段３５８巷２９號","OBJECTID":260504},"geometry":{"x":169733.95500000007,"y":2539388.5836900007}},{"attributes":{"ID":260509,"DIS_CODE":0,"TOWNNAME":"仁德區","LI":"仁愛里","LIN":"26鄰","STREET":"大同路","SECT":"三段","MAREA":" ","LANE":"３５８巷","ALLEY":" ","HOUSE_NO":"４５號","E_COORD97":169734.20499999999,"N_COORD97":2539356.6832900001,"ADDRESS":"大同路三段３５８巷４５號","OBJECTID":260505},"geometry":{"x":169734.20500000194,"y":2539356.683290001}},{"attributes":{"ID":260510,"DIS_CODE":0,"TOWNNAME":"仁德區","LI":"仁愛里","LIN":"26鄰","STREET":"大同路","SECT":"三段","MAREA":" ","LANE":"３５８巷","ALLEY":" ","HOUSE_NO":"５１號","E_COORD97":169734.20499999999,"N_COORD97":2539344.88913,"ADDRESS":"大同路三段３５８巷５１號","OBJECTID":260506},"geometry":{"x":169734.20500000194,"y":2539344.8891300019}},{"attributes":{"ID":260511,"DIS_CODE":0,"TOWNNAME":"仁德區","LI":"仁愛里","LIN":"26鄰","STREET":"大同路","SECT":"三段","MAREA":" ","LANE":"３５８巷","ALLEY":" ","HOUSE_NO":"５３號","E_COORD97":169734.20499999999,"N_COORD97":2539340.9174700002,"ADDRESS":"大同路三段３５８巷５３號","OBJECTID":260507},"geometry":{"x":169734.20500000194,"y":2539340.9174700044}},{"attributes":{"ID":260512,"DIS_CODE":0,"TOWNNAME":"歸仁區","LI":"西埔里","LIN":"15鄰","STREET":"大埔路","SECT":"二段","MAREA":" ","LANE":"８巷","ALLEY":" ","HOUSE_NO":"６０號","E_COORD97":176402.57999999999,"N_COORD97":2545492.25,"ADDRESS":"大埔路二段８巷６０號","OBJECTID":260508},"geometry":{"x":176402.58000000101,"y":2545492.2500000019}},{"attributes":{"ID":260513,"DIS_CODE":0,"TOWNNAME":"歸仁區","LI":"南興里","LIN":"34鄰","STREET":"民生北街","SECT":" ","MAREA":" ","LANE":"５０巷","ALLEY":" ","HOUSE_NO":"３號","E_COORD97":176308.91294899999,"N_COORD97":2541080.8012100002,"ADDRESS":"民生北街５０巷３號","OBJECTID":260509},"geometry":{"x":176308.91294900049,"y":2541080.8012130018}},{"attributes":{"ID":260514,"DIS_CODE":0,"TOWNNAME":"歸仁區","LI":"媽廟里","LIN":"25鄰","STREET":"保大路","SECT":"一段","MAREA":" ","LANE":"１３３巷","ALLEY":" ","HOUSE_NO":"７號","E_COORD97":177780.85999999999,"N_COORD97":2543998.5699999998,"ADDRESS":"保大路一段１３３巷７號","OBJECTID":260510},"geometry":{"x":177780.86000000127,"y":2543998.5700000022}},{"attributes":{"ID":260515,"DIS_CODE":0,"TOWNNAME":"歸仁區","LI":"媽廟里","LIN":"25鄰","STREET":"保大路","SECT":"一段","MAREA":" ","LANE":"１３３巷","ALLEY":" ","HOUSE_NO":"９號","E_COORD97":177783.92999999999,"N_COORD97":2543992.5800000001,"ADDRESS":"保大路一段１３３巷９號","OBJECTID":260511},"geometry":{"x":177783.9299999997,"y":2543992.5800000001}},{"attributes":{"ID":260516,"DIS_CODE":0,"TOWNNAME":"安平區","LI":"建平里","LIN":"25鄰","STREET":"建平九街","SECT":" ","MAREA":" ","LANE":"６０巷","ALLEY":" ","HOUSE_NO":"３６號之１六樓之２","E_COORD97":166054.91798999999,"N_COORD97":2543589.4102599998,"ADDRESS":"建平九街６０巷３６號之１六樓之２","OBJECTID":260512},"geometry":{"x":166054.91798999999,"y":2543589.4102599993}},{"attributes":{"ID":260517,"DIS_CODE":0,"TOWNNAME":"安平區","LI":"文平里","LIN":"25鄰","STREET":"建平三街","SECT":" ","MAREA":" ","LANE":"６２巷","ALLEY":" ","HOUSE_NO":"１４號之２","E_COORD97":166191.93668000001,"N_COORD97":2542944.2829,"ADDRESS":"建平三街６２巷１４號之２","OBJECTID":260513},"geometry":{"x":166191.93668000121,"y":2542944.2829}},{"attributes":{"ID":260518,"DIS_CODE":0,"TOWNNAME":"仁德區","LI":"仁愛里","LIN":"25鄰","STREET":"保仁路","SECT":" ","MAREA":" ","LANE":"２９５巷","ALLEY":" ","HOUSE_NO":"３號","E_COORD97":169824.25612999999,"N_COORD97":2540049.6568399998,"ADDRESS":"保仁路２９５巷３號","OBJECTID":260514},"geometry":{"x":169824.25613000151,"y":2540049.6568400003}},{"attributes":{"ID":260519,"DIS_CODE":0,"TOWNNAME":"仁德區","LI":"仁愛里","LIN":"25鄰","STREET":"保仁路","SECT":" ","MAREA":" ","LANE":"２９５巷","ALLEY":" ","HOUSE_NO":"７號","E_COORD97":169815.92838999999,"N_COORD97":2540049.656,"ADDRESS":"保仁路２９５巷７號","OBJECTID":260515},"geometry":{"x":169815.92839000002,"y":2540049.6559999976}},{"attributes":{"ID":260520,"DIS_CODE":0,"TOWNNAME":"仁德區","LI":"仁愛里","LIN":"25鄰","STREET":"保仁路","SECT":" ","MAREA":" ","LANE":"２９５巷","ALLEY":" ","HOUSE_NO":"１１號","E_COORD97":169807.66149999999,"N_COORD97":2540049.605,"ADDRESS":"保仁路２９５巷１１號","OBJECTID":260516},"geometry":{"x":169807.66150000039,"y":2540049.6050000023}},{"attributes":{"ID":260521,"DIS_CODE":0,"TOWNNAME":"仁德區","LI":"仁愛里","LIN":"25鄰","STREET":"保仁路","SECT":" ","MAREA":" ","LANE":"２９５巷","ALLEY":" ","HOUSE_NO":"１３號","E_COORD97":169803.81,"N_COORD97":2540049.4199999999,"ADDRESS":"保仁路２９５巷１３號","OBJECTID":260517},"geometry":{"x":169803.80999999959,"y":2540049.4200000018}},{"attributes":{"ID":260522,"DIS_CODE":0,"TOWNNAME":"仁德區","LI":"仁愛里","LIN":"25鄰","STREET":"保仁路","SECT":" ","MAREA":" ","LANE":"２９５巷","ALLEY":" ","HOUSE_NO":"１５號","E_COORD97":169800.35196500001,"N_COORD97":2540049.0630899998,"ADDRESS":"保仁路２９５巷１５號","OBJECTID":260518},"geometry":{"x":169800.35196500178,"y":2540049.063093001}},{"attributes":{"ID":260523,"DIS_CODE":0,"TOWNNAME":"仁德區","LI":"仁愛里","LIN":"25鄰","STREET":"保仁路","SECT":" ","MAREA":" ","LANE":"２９５巷","ALLEY":" ","HOUSE_NO":"１７號","E_COORD97":169796.53719999999,"N_COORD97":2540049.1505900002,"ADDRESS":"保仁路２９５巷１７號","OBJECTID":260519},"geometry":{"x":169796.53719999921,"y":2540049.1505900025}},{"attributes":{"ID":260524,"DIS_CODE":0,"TOWNNAME":"安平區","LI":"平通里","LIN":"22鄰","STREET":"育平九街","SECT":" ","MAREA":" ","LANE":" ","ALLEY":" ","HOUSE_NO":"３６７號","E_COORD97":164609.82000000001,"N_COORD97":2544027.8599999999,"ADDRESS":"育平九街３６７號","OBJECTID":260520},"geometry":{"x":164609.82000000123,"y":2544027.8600000031}},{"attributes":{"ID":260525,"DIS_CODE":0,"TOWNNAME":"仁德區","LI":"仁愛里","LIN":"25鄰","STREET":"保仁路","SECT":" ","MAREA":" ","LANE":"２９５巷","ALLEY":" ","HOUSE_NO":"１９號","E_COORD97":169792.72244700001,"N_COORD97":2540049.0630899998,"ADDRESS":"保仁路２９５巷１９號","OBJECTID":260521},"geometry":{"x":169792.72244700044,"y":2540049.063093001}},{"attributes":{"ID":260526,"DIS_CODE":0,"TOWNNAME":"仁德區","LI":"仁愛里","LIN":"25鄰","STREET":"保仁路","SECT":" ","MAREA":" ","LANE":"２９５巷","ALLEY":" ","HOUSE_NO":"８號","E_COORD97":169786.68643999999,"N_COORD97":2540061.6889200001,"ADDRESS":"保仁路２９５巷８號","OBJECTID":260522},"geometry":{"x":169786.68644000124,"y":2540061.6889200024}},{"attributes":{"ID":260527,"DIS_CODE":0,"TOWNNAME":"仁德區","LI":"仁愛里","LIN":"25鄰","STREET":"保仁路","SECT":" ","MAREA":" ","LANE":"２９５巷","ALLEY":" ","HOUSE_NO":"１０號","E_COORD97":169782.761688,"N_COORD97":2540061.76309,"ADDRESS":"保仁路２９５巷１０號","OBJECTID":260523},"geometry":{"x":169782.76168799866,"y":2540061.7630860042}},{"attributes":{"ID":260528,"DIS_CODE":0,"TOWNNAME":"歸仁區","LI":"媽廟里","LIN":"25鄰","STREET":"保大路","SECT":"一段","MAREA":" ","LANE":"１３３巷","ALLEY":" ","HOUSE_NO":"１號","E_COORD97":177781.32999999999,"N_COORD97":2544015.2400000002,"ADDRESS":"保大路一段１３３巷１號","OBJECTID":260524},"geometry":{"x":177781.33000000101,"y":2544015.2400000002}},{"attributes":{"ID":260529,"DIS_CODE":0,"TOWNNAME":"安南區","LI":"東和里","LIN":"4鄰","STREET":"長和路","SECT":"一段","MAREA":" ","LANE":"８２３巷","ALLEY":" ","HOUSE_NO":"８４號","E_COORD97":170820.91008999999,"N_COORD97":2551227.0297699999,"ADDRESS":"長和路一段８２３巷８４號","OBJECTID":260525},"geometry":{"x":170820.91009000037,"y":2551227.0297700018}},{"attributes":{"ID":260530,"DIS_CODE":0,"TOWNNAME":"安南區","LI":"布袋里","LIN":"4鄰","STREET":"長和路","SECT":"四段","MAREA":" ","LANE":"２４３巷","ALLEY":" ","HOUSE_NO":"３８號","E_COORD97":168694.14999999999,"N_COORD97":2551627.1000000001,"ADDRESS":"長和路四段２４３巷３８號","OBJECTID":260526},"geometry":{"x":168694.15000000224,"y":2551627.0999999996}},{"attributes":{"ID":260531,"DIS_CODE":0,"TOWNNAME":"安南區","LI":"布袋里","LIN":"4鄰","STREET":"長和路","SECT":"四段","MAREA":" ","LANE":"２４３巷","ALLEY":" ","HOUSE_NO":"４０號","E_COORD97":168696.70000000001,"N_COORD97":2551623.3500000001,"ADDRESS":"長和路四段２４３巷４０號","OBJECTID":260527},"geometry":{"x":168696.70000000019,"y":2551623.3500000015}},{"attributes":{"ID":260532,"DIS_CODE":0,"TOWNNAME":"安南區","LI":"布袋里","LIN":"4鄰","STREET":"長和路","SECT":"四段","MAREA":" ","LANE":"２４３巷","ALLEY":" ","HOUSE_NO":"４２號","E_COORD97":168699,"N_COORD97":2551618.98,"ADDRESS":"長和路四段２４３巷４２號","OBJECTID":260528},"geometry":{"x":168699,"y":2551618.9800000004}},{"attributes":{"ID":260533,"DIS_CODE":0,"TOWNNAME":"安南區","LI":"布袋里","LIN":"4鄰","STREET":"長和路","SECT":"四段","MAREA":" ","LANE":"２４３巷","ALLEY":" ","HOUSE_NO":"４４號","E_COORD97":168700.60999999999,"N_COORD97":2551615.4700000002,"ADDRESS":"長和路四段２４３巷４４號","OBJECTID":260529},"geometry":{"x":168700.61000000034,"y":2551615.4700000007}},{"attributes":{"ID":260534,"DIS_CODE":0,"TOWNNAME":"安南區","LI":"布袋里","LIN":"4鄰","STREET":"長和路","SECT":"四段","MAREA":" ","LANE":"２４３巷","ALLEY":" ","HOUSE_NO":"４６號","E_COORD97":168702.85000000001,"N_COORD97":2551611.04,"ADDRESS":"長和路四段２４３巷４６號","OBJECTID":260530},"geometry":{"x":168702.85000000056,"y":2551611.040000001}},{"attributes":{"ID":260535,"DIS_CODE":0,"TOWNNAME":"安南區","LI":"布袋里","LIN":"4鄰","STREET":"長和路","SECT":"四段","MAREA":" ","LANE":"２４３巷","ALLEY":" ","HOUSE_NO":"５２號","E_COORD97":168710.42999999999,"N_COORD97":2551600.4399999999,"ADDRESS":"長和路四段２４３巷５２號","OBJECTID":260531},"geometry":{"x":168710.43000000063,"y":2551600.4399999995}},{"attributes":{"ID":260536,"DIS_CODE":0,"TOWNNAME":"安南區","LI":"布袋里","LIN":"4鄰","STREET":"長和路","SECT":"四段","MAREA":" ","LANE":"２４３巷","ALLEY":" ","HOUSE_NO":"５４號","E_COORD97":168713.10000000001,"N_COORD97":2551597.2200000002,"ADDRESS":"長和路四段２４３巷５４號","OBJECTID":260532},"geometry":{"x":168713.10000000056,"y":2551597.2200000007}},{"attributes":{"ID":260537,"DIS_CODE":0,"TOWNNAME":"安南區","LI":"布袋里","LIN":"4鄰","STREET":"長和路","SECT":"四段","MAREA":" ","LANE":"２４３巷","ALLEY":" ","HOUSE_NO":"５８號","E_COORD97":168719.07999999999,"N_COORD97":2551590.4199999999,"ADDRESS":"長和路四段２４３巷５８號","OBJECTID":260533},"geometry":{"x":168719.08000000007,"y":2551590.4199999999}},{"attributes":{"ID":260538,"DIS_CODE":0,"TOWNNAME":"安南區","LI":"布袋里","LIN":"4鄰","STREET":"長和路","SECT":"四段","MAREA":" ","LANE":"２４３巷","ALLEY":" ","HOUSE_NO":"５０號","E_COORD97":168707.41,"N_COORD97":2551604.48,"ADDRESS":"長和路四段２４３巷５０號","OBJECTID":260534},"geometry":{"x":168707.41000000201,"y":2551604.4800000004}},{"attributes":{"ID":260539,"DIS_CODE":0,"TOWNNAME":"安南區","LI":"布袋里","LIN":"4鄰","STREET":"長和路","SECT":"四段","MAREA":" ","LANE":"２４３巷","ALLEY":" ","HOUSE_NO":"６０號","E_COORD97":168727.29999999999,"N_COORD97":2551591.1600000001,"ADDRESS":"長和路四段２４３巷６０號","OBJECTID":260535},"geometry":{"x":168727.29999999981,"y":2551591.160000002}},{"attributes":{"ID":260540,"DIS_CODE":0,"TOWNNAME":"安南區","LI":"布袋里","LIN":"4鄰","STREET":"長和路","SECT":"四段","MAREA":" ","LANE":"２４３巷","ALLEY":" ","HOUSE_NO":"６２號","E_COORD97":168729.53,"N_COORD97":2551587.4399999999,"ADDRESS":"長和路四段２４３巷６２號","OBJECTID":260536},"geometry":{"x":168729.53000000119,"y":2551587.4399999995}},{"attributes":{"ID":260541,"DIS_CODE":0,"TOWNNAME":"安南區","LI":"布袋里","LIN":"4鄰","STREET":"長和路","SECT":"四段","MAREA":" ","LANE":"２４３巷","ALLEY":" ","HOUSE_NO":"５６號","E_COORD97":168715.53,"N_COORD97":2551593.6699999999,"ADDRESS":"長和路四段２４３巷５６號","OBJECTID":260537},"geometry":{"x":168715.53000000119,"y":2551593.6700000037}},{"attributes":{"ID":260542,"DIS_CODE":0,"TOWNNAME":"安南區","LI":"東和里","LIN":"4鄰","STREET":"長和路","SECT":"一段","MAREA":" ","LANE":"８２３巷","ALLEY":" ","HOUSE_NO":"１３７號","E_COORD97":170869.76000000001,"N_COORD97":2551053.8999999999,"ADDRESS":"長和路一段８２３巷１３７號","OBJECTID":260538},"geometry":{"x":170869.76000000071,"y":2551053.9000000022}},{"attributes":{"ID":260543,"DIS_CODE":0,"TOWNNAME":"安南區","LI":"東和里","LIN":"4鄰","STREET":"長和路","SECT":"一段","MAREA":" ","LANE":"８２３巷","ALLEY":" ","HOUSE_NO":"１５０號","E_COORD97":170854.56865,"N_COORD97":2550986.8226700001,"ADDRESS":"長和路一段８２３巷１５０號","OBJECTID":260539},"geometry":{"x":170854.5686499998,"y":2550986.8226700015}},{"attributes":{"ID":260544,"DIS_CODE":0,"TOWNNAME":"中西區","LI":"萬昌里","LIN":"12鄰","STREET":"北門路","SECT":"一段","MAREA":" ","LANE":"５１巷","ALLEY":" ","HOUSE_NO":"１號","E_COORD97":169143.85000000001,"N_COORD97":2543411.6800000002,"ADDRESS":"北門路一段５１巷１號","OBJECTID":260540},"geometry":{"x":169143.84999999963,"y":2543411.6799999997}},{"attributes":{"ID":260545,"DIS_CODE":0,"TOWNNAME":"東區","LI":"小東里","LIN":"15鄰","STREET":"光明街","SECT":" ","MAREA":" ","LANE":" ","ALLEY":" ","HOUSE_NO":"８６號之１","E_COORD97":170899.54000000001,"N_COORD97":2544129.3700000001,"ADDRESS":"光明街８６號之１","OBJECTID":260541},"geometry":{"x":170899.54000000004,"y":2544129.3700000029}},{"attributes":{"ID":260546,"DIS_CODE":0,"TOWNNAME":"東區","LI":"小東里","LIN":"15鄰","STREET":"光明街","SECT":" ","MAREA":" ","LANE":" ","ALLEY":" ","HOUSE_NO":"８４號","E_COORD97":170898.91,"N_COORD97":2544137.1400000001,"ADDRESS":"光明街８４號","OBJECTID":260542},"geometry":{"x":170898.91000000015,"y":2544137.1400000025}},{"attributes":{"ID":260547,"DIS_CODE":0,"TOWNNAME":"東區","LI":"小東里","LIN":"15鄰","STREET":"光明街","SECT":" ","MAREA":" ","LANE":" ","ALLEY":" ","HOUSE_NO":"８６號之３","E_COORD97":170900.48000000001,"N_COORD97":2544121.54,"ADDRESS":"光明街８６號之３","OBJECTID":260543},"geometry":{"x":170900.48000000045,"y":2544121.5400000028}},{"attributes":{"ID":260548,"DIS_CODE":0,"TOWNNAME":"東區","LI":"小東里","LIN":"15鄰","STREET":"光明街","SECT":" ","MAREA":" ","LANE":" ","ALLEY":" ","HOUSE_NO":"９０號之２","E_COORD97":170900.95000000001,"N_COORD97":2544108.3900000001,"ADDRESS":"光明街９０號之２","OBJECTID":260544},"geometry":{"x":170900.95000000112,"y":2544108.3900000025}},{"attributes":{"ID":260549,"DIS_CODE":0,"TOWNNAME":"東區","LI":"東光里","LIN":"15鄰","STREET":"莊敬路","SECT":" ","MAREA":" ","LANE":" ","ALLEY":" ","HOUSE_NO":"６５號","E_COORD97":171329.97,"N_COORD97":2543836.96,"ADDRESS":"莊敬路６５號","OBJECTID":260545},"geometry":{"x":171329.96999999974,"y":2543836.9600000028}},{"attributes":{"ID":260550,"DIS_CODE":0,"TOWNNAME":"東區","LI":"東光里","LIN":"15鄰","STREET":"莊敬路","SECT":" ","MAREA":" ","LANE":" ","ALLEY":" ","HOUSE_NO":"６７號","E_COORD97":171330.98999999999,"N_COORD97":2543841.3199999998,"ADDRESS":"莊敬路６７號","OBJECTID":260546},"geometry":{"x":171330.98999999929,"y":2543841.3200000003}},{"attributes":{"ID":260551,"DIS_CODE":0,"TOWNNAME":"東區","LI":"東光里","LIN":"15鄰","STREET":"莊敬路","SECT":" ","MAREA":" ","LANE":" ","ALLEY":" ","HOUSE_NO":"６９號","E_COORD97":171329.97,"N_COORD97":2543845.6800000002,"ADDRESS":"莊敬路６９號","OBJECTID":260547},"geometry":{"x":171329.96999999974,"y":2543845.6799999997}},{"attributes":{"ID":260552,"DIS_CODE":0,"TOWNNAME":"東區","LI":"東光里","LIN":"15鄰","STREET":"莊敬路","SECT":" ","MAREA":" ","LANE":" ","ALLEY":" ","HOUSE_NO":"７１號","E_COORD97":171330.69,"N_COORD97":2543849.7400000002,"ADDRESS":"莊敬路７１號","OBJECTID":260548},"geometry":{"x":171330.69000000134,"y":2543849.7399999984}},{"attributes":{"ID":260553,"DIS_CODE":0,"TOWNNAME":"東區","LI":"東光里","LIN":"15鄰","STREET":"莊敬路","SECT":" ","MAREA":" ","LANE":" ","ALLEY":" ","HOUSE_NO":"７３號","E_COORD97":171331.19,"N_COORD97":2543853.4900000002,"ADDRESS":"莊敬路７３號","OBJECTID":260549},"geometry":{"x":171331.19000000041,"y":2543853.4900000002}},{"attributes":{"ID":260554,"DIS_CODE":0,"TOWNNAME":"東區","LI":"東光里","LIN":"15鄰","STREET":"莊敬路","SECT":" ","MAREA":" ","LANE":" ","ALLEY":" ","HOUSE_NO":"７５號","E_COORD97":171331.70000000001,"N_COORD97":2543857.5499999998,"ADDRESS":"莊敬路７５號","OBJECTID":260550},"geometry":{"x":171331.70000000112,"y":2543857.5500000007}},{"attributes":{"ID":260555,"DIS_CODE":0,"TOWNNAME":"東區","LI":"東光里","LIN":"15鄰","STREET":"莊敬路","SECT":" ","MAREA":" ","LANE":" ","ALLEY":" ","HOUSE_NO":"７７號","E_COORD97":171331.89999999999,"N_COORD97":2543861.4100000001,"ADDRESS":"莊敬路７７號","OBJECTID":260551},"geometry":{"x":171331.90000000224,"y":2543861.4100000001}},{"attributes":{"ID":260556,"DIS_CODE":0,"TOWNNAME":"東區","LI":"東光里","LIN":"15鄰","STREET":"莊敬路","SECT":" ","MAREA":" ","LANE":" ","ALLEY":" ","HOUSE_NO":"７９號","E_COORD97":171332.01000000001,"N_COORD97":2543865.3599999999,"ADDRESS":"莊敬路７９號","OBJECTID":260552},"geometry":{"x":171332.00999999978,"y":2543865.3600000031}},{"attributes":{"ID":260557,"DIS_CODE":0,"TOWNNAME":"安南區","LI":"布袋里","LIN":"4鄰","STREET":"長和路","SECT":"四段","MAREA":" ","LANE":"２３１巷","ALLEY":" ","HOUSE_NO":"６８號","E_COORD97":168783.54999999999,"N_COORD97":2551578.5299999998,"ADDRESS":"長和路四段２３１巷６８號","OBJECTID":260553},"geometry":{"x":168783.54999999981,"y":2551578.5300000012}},{"attributes":{"ID":260558,"DIS_CODE":0,"TOWNNAME":"安南區","LI":"布袋里","LIN":"4鄰","STREET":"長和路","SECT":"四段","MAREA":" ","LANE":"２３１巷","ALLEY":" ","HOUSE_NO":"６６號","E_COORD97":168779.97,"N_COORD97":2551581.2000000002,"ADDRESS":"長和路四段２３１巷６６號","OBJECTID":260554},"geometry":{"x":168779.97000000067,"y":2551581.1999999993}},{"attributes":{"ID":260559,"DIS_CODE":0,"TOWNNAME":"安南區","LI":"布袋里","LIN":"4鄰","STREET":"長和路","SECT":"四段","MAREA":" ","LANE":"２３１巷","ALLEY":" ","HOUSE_NO":"７０號","E_COORD97":168787.29999999999,"N_COORD97":2551576.0099999998,"ADDRESS":"長和路四段２３１巷７０號","OBJECTID":260555},"geometry":{"x":168787.29999999888,"y":2551576.0100000016}},{"attributes":{"ID":260560,"DIS_CODE":0,"TOWNNAME":"安南區","LI":"布袋里","LIN":"4鄰","STREET":"長和路","SECT":"四段","MAREA":" ","LANE":"２３１巷","ALLEY":" ","HOUSE_NO":"８３號","E_COORD97":168839.85999999999,"N_COORD97":2551568.7999999998,"ADDRESS":"長和路四段２３１巷８３號","OBJECTID":260556},"geometry":{"x":168839.86000000034,"y":2551568.8000000007}},{"attributes":{"ID":260561,"DIS_CODE":0,"TOWNNAME":"安南區","LI":"布袋里","LIN":"4鄰","STREET":"長和路","SECT":"四段","MAREA":" ","LANE":"２３１巷","ALLEY":" ","HOUSE_NO":"９５號","E_COORD97":168884.73999999999,"N_COORD97":2551509.0099999998,"ADDRESS":"長和路四段２３１巷９５號","OBJECTID":260557},"geometry":{"x":168884.74000000022,"y":2551509.0099999998}},{"attributes":{"ID":260562,"DIS_CODE":0,"TOWNNAME":"安南區","LI":"布袋里","LIN":"4鄰","STREET":"長和路","SECT":"四段","MAREA":" ","LANE":"２４３巷","ALLEY":" ","HOUSE_NO":"３９號","E_COORD97":168716.01000000001,"N_COORD97":2551636.3300000001,"ADDRESS":"長和路四段２４３巷３９號","OBJECTID":260558},"geometry":{"x":168716.00999999978,"y":2551636.3300000001}},{"attributes":{"ID":260563,"DIS_CODE":0,"TOWNNAME":"安南區","LI":"布袋里","LIN":"4鄰","STREET":"長和路","SECT":"四段","MAREA":" ","LANE":"２３１巷","ALLEY":" ","HOUSE_NO":"９３號","E_COORD97":168868.38,"N_COORD97":2551516.48,"ADDRESS":"長和路四段２３１巷９３號","OBJECTID":260559},"geometry":{"x":168868.38000000175,"y":2551516.4800000004}},{"attributes":{"ID":260564,"DIS_CODE":0,"TOWNNAME":"安南區","LI":"布袋里","LIN":"4鄰","STREET":"長和路","SECT":"四段","MAREA":" ","LANE":"２４３巷","ALLEY":" ","HOUSE_NO":"４５號","E_COORD97":168723.78,"N_COORD97":2551626.0099999998,"ADDRESS":"長和路四段２４３巷４５號","OBJECTID":260560},"geometry":{"x":168723.78000000119,"y":2551626.0100000016}},{"attributes":{"ID":260565,"DIS_CODE":0,"TOWNNAME":"安南區","LI":"布袋里","LIN":"4鄰","STREET":"長和路","SECT":"四段","MAREA":" ","LANE":"２４３巷","ALLEY":" ","HOUSE_NO":"４９號","E_COORD97":168729.39999999999,"N_COORD97":2551618.96,"ADDRESS":"長和路四段２４３巷４９號","OBJECTID":260561},"geometry":{"x":168729.40000000037,"y":2551618.9600000009}},{"attributes":{"ID":260566,"DIS_CODE":0,"TOWNNAME":"安南區","LI":"布袋里","LIN":"4鄰","STREET":"長和路","SECT":"四段","MAREA":" ","LANE":"２４３巷","ALLEY":" ","HOUSE_NO":"５１號","E_COORD97":168732.23999999999,"N_COORD97":2551615.5299999998,"ADDRESS":"長和路四段２４３巷５１號","OBJECTID":260562},"geometry":{"x":168732.23999999929,"y":2551615.5300000012}},{"attributes":{"ID":260567,"DIS_CODE":0,"TOWNNAME":"安南區","LI":"布袋里","LIN":"4鄰","STREET":"長和路","SECT":"四段","MAREA":" ","LANE":"２４３巷","ALLEY":" ","HOUSE_NO":"５７號","E_COORD97":168739.23000000001,"N_COORD97":2551604.27,"ADDRESS":"長和路四段２４３巷５７號","OBJECTID":260563},"geometry":{"x":168739.23000000045,"y":2551604.2700000014}},{"attributes":{"ID":260568,"DIS_CODE":0,"TOWNNAME":"安南區","LI":"布袋里","LIN":"4鄰","STREET":"長和路","SECT":"四段","MAREA":" ","LANE":"２４３巷","ALLEY":" ","HOUSE_NO":"５９號","E_COORD97":168741.60000000001,"N_COORD97":2551601.02,"ADDRESS":"長和路四段２４３巷５９號","OBJECTID":260564},"geometry":{"x":168741.60000000056,"y":2551601.0200000033}},{"attributes":{"ID":260569,"DIS_CODE":0,"TOWNNAME":"安南區","LI":"布袋里","LIN":"4鄰","STREET":"長和路","SECT":"四段","MAREA":" ","LANE":"２４３巷","ALLEY":" ","HOUSE_NO":"４１號","E_COORD97":168718.38,"N_COORD97":2551633.2400000002,"ADDRESS":"長和路四段２４３巷４１號","OBJECTID":260565},"geometry":{"x":168718.37999999989,"y":2551633.2400000002}},{"attributes":{"ID":260570,"DIS_CODE":0,"TOWNNAME":"安南區","LI":"布袋里","LIN":"4鄰","STREET":"長和路","SECT":"四段","MAREA":" ","LANE":"２４３巷","ALLEY":" ","HOUSE_NO":"４７號","E_COORD97":168726.67999999999,"N_COORD97":2551622.5699999998,"ADDRESS":"長和路四段２４３巷４７號","OBJECTID":260566},"geometry":{"x":168726.6799999997,"y":2551622.5700000022}},{"attributes":{"ID":260571,"DIS_CODE":0,"TOWNNAME":"安南區","LI":"布袋里","LIN":"4鄰","STREET":"長和路","SECT":"四段","MAREA":" ","LANE":"２４３巷","ALLEY":" ","HOUSE_NO":"５３號","E_COORD97":168734.26000000001,"N_COORD97":2551611.4500000002,"ADDRESS":"長和路四段２４３巷５３號","OBJECTID":260567},"geometry":{"x":168734.26000000071,"y":2551611.450000003}},{"attributes":{"ID":260572,"DIS_CODE":0,"TOWNNAME":"安南區","LI":"布袋里","LIN":"4鄰","STREET":"長和路","SECT":"四段","MAREA":" ","LANE":"２４３巷","ALLEY":" ","HOUSE_NO":"５５號","E_COORD97":168736.79999999999,"N_COORD97":2551607.7000000002,"ADDRESS":"長和路四段２４３巷５５號","OBJECTID":260568},"geometry":{"x":168736.80000000075,"y":2551607.7000000011}},{"attributes":{"ID":260573,"DIS_CODE":0,"TOWNNAME":"安南區","LI":"布袋里","LIN":"4鄰","STREET":"長和路","SECT":"四段","MAREA":" ","LANE":"２４３巷","ALLEY":" ","HOUSE_NO":"６１號","E_COORD97":168743.89999999999,"N_COORD97":2551597.1699999999,"ADDRESS":"長和路四段２４３巷６１號","OBJECTID":260569},"geometry":{"x":168743.9000000013,"y":2551597.1700000037}},{"attributes":{"ID":260574,"DIS_CODE":0,"TOWNNAME":"永康區","LI":"二王里","LIN":"43鄰","STREET":"中山南路","SECT":" ","MAREA":" ","LANE":"３１６巷","ALLEY":" ","HOUSE_NO":"５０之１號","E_COORD97":172105.23999999999,"N_COORD97":2546125.1200000001,"ADDRESS":"中山南路３１６巷５０之１號","OBJECTID":260570},"geometry":{"x":172105.24000000022,"y":2546125.120000001}},{"attributes":{"ID":260575,"DIS_CODE":0,"TOWNNAME":"新營區","LI":"新南里","LIN":"28鄰","STREET":"秦漢街","SECT":" ","MAREA":" ","LANE":" ","ALLEY":" ","HOUSE_NO":"６１號","E_COORD97":178456.835964,"N_COORD97":2578736.91322,"ADDRESS":"秦漢街６１號","OBJECTID":260571},"geometry":{"x":178456.83596400078,"y":2578736.913217999}},{"attributes":{"ID":260576,"DIS_CODE":0,"TOWNNAME":"永康區","LI":"二王里","LIN":"43鄰","STREET":"中山南路","SECT":" ","MAREA":" ","LANE":"３１６巷","ALLEY":" ","HOUSE_NO":"５０之２號","E_COORD97":172109.92000000001,"N_COORD97":2546127.1200000001,"ADDRESS":"中山南路３１６巷５０之２號","OBJECTID":260572},"geometry":{"x":172109.92000000086,"y":2546127.1200000029}},{"attributes":{"ID":260577,"DIS_CODE":0,"TOWNNAME":"歸仁區","LI":"看東里","LIN":"8鄰","STREET":"成功一街","SECT":" ","MAREA":" ","LANE":" ","ALLEY":" ","HOUSE_NO":"９３號","E_COORD97":178560.297788,"N_COORD97":2540024.5512299999,"ADDRESS":"成功一街９３號","OBJECTID":260573},"geometry":{"x":178560.29778800067,"y":2540024.5512300041}},{"attributes":{"ID":260578,"DIS_CODE":0,"TOWNNAME":"新營區","LI":"新東里","LIN":"27鄰","STREET":"東光街","SECT":" ","MAREA":" ","LANE":" ","ALLEY":" ","HOUSE_NO":"２５號","E_COORD97":180607.80319199999,"N_COORD97":2579597.7743899999,"ADDRESS":"東光街２５號","OBJECTID":260574},"geometry":{"x":180607.8031919999,"y":2579597.7743860036}},{"attributes":{"ID":260579,"DIS_CODE":0,"TOWNNAME":"新營區","LI":"新東里","LIN":"27鄰","STREET":"東光街","SECT":" ","MAREA":" ","LANE":" ","ALLEY":" ","HOUSE_NO":"７８號","E_COORD97":180619.244832,"N_COORD97":2579627.8310400001,"ADDRESS":"東光街７８號","OBJECTID":260575},"geometry":{"x":180619.24483199883,"y":2579627.8310359996}},{"attributes":{"ID":260580,"DIS_CODE":0,"TOWNNAME":"仁德區","LI":"仁德里","LIN":"39鄰","STREET":"文宏路","SECT":" ","MAREA":" ","LANE":" ","ALLEY":" ","HOUSE_NO":"１７８號","E_COORD97":172461.93675699999,"N_COORD97":2541852.4562200001,"ADDRESS":"文宏路１７８號","OBJECTID":260576},"geometry":{"x":172461.93675700203,"y":2541852.4562170003}},{"attributes":{"ID":260581,"DIS_CODE":0,"TOWNNAME":"安南區","LI":"州南里","LIN":"18鄰","STREET":"大聖路","SECT":" ","MAREA":" ","LANE":" ","ALLEY":" ","HOUSE_NO":"１６８號","E_COORD97":170143.39313000001,"N_COORD97":2550765.7222199999,"ADDRESS":"大聖路１６８號","OBJECTID":260577},"geometry":{"x":170143.39313000161,"y":2550765.7222230006}},{"attributes":{"ID":260582,"DIS_CODE":0,"TOWNNAME":"安南區","LI":"四草里","LIN":"4鄰","STREET":"大眾路","SECT":" ","MAREA":" ","LANE":" ","ALLEY":" ","HOUSE_NO":"６０５號","E_COORD97":160727.922724,"N_COORD97":2546471.4757900001,"ADDRESS":"大眾路６０５號","OBJECTID":260578},"geometry":{"x":160727.92272400018,"y":2546471.4757889993}},{"attributes":{"ID":260583,"DIS_CODE":0,"TOWNNAME":"安南區","LI":"州南里","LIN":"27鄰","STREET":"長和路","SECT":"二段","MAREA":" ","LANE":" ","ALLEY":" ","HOUSE_NO":"７７之１２號","E_COORD97":170311.76003500001,"N_COORD97":2551518.7524700002,"ADDRESS":"長和路二段７７之１２號","OBJECTID":260579},"geometry":{"x":170311.76003499888,"y":2551518.752471}},{"attributes":{"ID":260584,"DIS_CODE":0,"TOWNNAME":"中西區","LI":"中正里","LIN":"11鄰","STREET":"正興街","SECT":" ","MAREA":" ","LANE":" ","ALLEY":" ","HOUSE_NO":"１５０號","E_COORD97":167557.77353599999,"N_COORD97":2543933.3960199999,"ADDRESS":"正興街１５０號","OBJECTID":260580},"geometry":{"x":167557.7735360004,"y":2543933.3960220013}},{"attributes":{"ID":260585,"DIS_CODE":0,"TOWNNAME":"下營區","LI":"下營里","LIN":"8鄰","STREET":"民權一街","SECT":" ","MAREA":" ","LANE":" ","ALLEY":" ","HOUSE_NO":"２７號","E_COORD97":174483.36444100001,"N_COORD97":2570469.1803899999,"ADDRESS":"民權一街２７號","OBJECTID":260581},"geometry":{"x":174483.36444100086,"y":2570469.1803870015}},{"attributes":{"ID":260586,"DIS_CODE":0,"TOWNNAME":"新營區","LI":"新東里","LIN":"8鄰","STREET":"東仁街","SECT":" ","MAREA":" ","LANE":" ","ALLEY":" ","HOUSE_NO":"９號","E_COORD97":181252.55528900001,"N_COORD97":2579515.1192100001,"ADDRESS":"東仁街９號","OBJECTID":260582},"geometry":{"x":181252.5552890012,"y":2579515.1192070004}},{"attributes":{"ID":260587,"DIS_CODE":0,"TOWNNAME":"永康區","LI":"王行里","LIN":"6鄰","STREET":"環工路","SECT":" ","MAREA":" ","LANE":" ","ALLEY":" ","HOUSE_NO":"６號","E_COORD97":175654.52418499999,"N_COORD97":2549938.8940499998,"ADDRESS":"環工路６號","OBJECTID":260583},"geometry":{"x":175654.52418500092,"y":2549938.894046003}},{"attributes":{"ID":260588,"DIS_CODE":0,"TOWNNAME":"仁德區","LI":"仁德里","LIN":"3鄰","STREET":"仁中七街","SECT":" ","MAREA":" ","LANE":" ","ALLEY":" ","HOUSE_NO":"１２９號","E_COORD97":173163.53634399999,"N_COORD97":2540389.0118499999,"ADDRESS":"仁中七街１２９號","OBJECTID":260584},"geometry":{"x":173163.53634400107,"y":2540389.011845002}},{"attributes":{"ID":260589,"DIS_CODE":0,"TOWNNAME":"關廟區","LI":"五甲里","LIN":"8鄰","STREET":"五慧街","SECT":" ","MAREA":" ","LANE":" ","ALLEY":" ","HOUSE_NO":"４２號","E_COORD97":181165.47465300001,"N_COORD97":2539261.58152,"ADDRESS":"五慧街４２號","OBJECTID":260585},"geometry":{"x":181165.47465300094,"y":2539261.5815169998}},{"attributes":{"ID":260590,"DIS_CODE":0,"TOWNNAME":"新營區","LI":"新南里","LIN":"27鄰","STREET":"隋唐街","SECT":" ","MAREA":" ","LANE":" ","ALLEY":" ","HOUSE_NO":"３５３號","E_COORD97":178048.32212,"N_COORD97":2578588.04715,"ADDRESS":"隋唐街３５３號","OBJECTID":260586},"geometry":{"x":178048.32211999968,"y":2578588.0471480004}},{"attributes":{"ID":260591,"DIS_CODE":0,"TOWNNAME":"歸仁區","LI":"南保里","LIN":"64鄰","STREET":"中山路","SECT":"三段","MAREA":" ","LANE":" ","ALLEY":" ","HOUSE_NO":"１８５號","E_COORD97":176529.38021599999,"N_COORD97":2540902.1592000001,"ADDRESS":"中山路三段１８５號","OBJECTID":260587},"geometry":{"x":176529.3802160006,"y":2540902.1592020001}},{"attributes":{"ID":260592,"DIS_CODE":0,"TOWNNAME":"歸仁區","LI":"大廟里","LIN":"16鄰","STREET":"大廟六街","SECT":" ","MAREA":" ","LANE":" ","ALLEY":" ","HOUSE_NO":"１５號","E_COORD97":176004.03984700001,"N_COORD97":2544264.1274000001,"ADDRESS":"大廟六街１５號","OBJECTID":260588},"geometry":{"x":176004.0398470005,"y":2544264.1273989994}},{"attributes":{"ID":260593,"DIS_CODE":0,"TOWNNAME":"南區","LI":"府南里","LIN":"11鄰","STREET":"永成路","SECT":"三段","MAREA":" ","LANE":" ","ALLEY":" ","HOUSE_NO":"４６２號","E_COORD97":167507.97298699999,"N_COORD97":2541151.73569,"ADDRESS":"永成路三段４６２號","OBJECTID":260589},"geometry":{"x":167507.97298700083,"y":2541151.7356930003}},{"attributes":{"ID":260594,"DIS_CODE":0,"TOWNNAME":"安南區","LI":"海東里","LIN":"21鄰","STREET":"海東二街","SECT":" ","MAREA":" ","LANE":" ","ALLEY":" ","HOUSE_NO":"４８號","E_COORD97":166913.90612900001,"N_COORD97":2547921.4846899998,"ADDRESS":"海東二街４８號","OBJECTID":260590},"geometry":{"x":166913.90612900071,"y":2547921.4846850019}},{"attributes":{"ID":260595,"DIS_CODE":0,"TOWNNAME":"安南區","LI":"海東里","LIN":"21鄰","STREET":"海東三街","SECT":" ","MAREA":" ","LANE":" ","ALLEY":" ","HOUSE_NO":"２５號","E_COORD97":166934.77331700001,"N_COORD97":2547951.7707199999,"ADDRESS":"海東三街２５號","OBJECTID":260591},"geometry":{"x":166934.77331700176,"y":2547951.7707199994}},{"attributes":{"ID":260596,"DIS_CODE":0,"TOWNNAME":"仁德區","LI":"仁和里","LIN":"7鄰","STREET":"和愛街","SECT":" ","MAREA":" ","LANE":" ","ALLEY":" ","HOUSE_NO":"１３號一樓","E_COORD97":170453.64999999999,"N_COORD97":2540119.5299999998,"ADDRESS":"和愛街１３號一樓","OBJECTID":260592},"geometry":{"x":170453.64999999944,"y":2540119.5299999993}},{"attributes":{"ID":260597,"DIS_CODE":0,"TOWNNAME":"安南區","LI":"海西里","LIN":"16鄰","STREET":"海前路","SECT":" ","MAREA":" ","LANE":" ","ALLEY":" ","HOUSE_NO":"１０１號","E_COORD97":166683.55024000001,"N_COORD97":2547962.24186,"ADDRESS":"海前路１０１號","OBJECTID":260593},"geometry":{"x":166683.55024000071,"y":2547962.2418600004}},{"attributes":{"ID":260598,"DIS_CODE":0,"TOWNNAME":"仁德區","LI":"太子里","LIN":"28鄰","STREET":"太子路","SECT":" ","MAREA":" ","LANE":" ","ALLEY":" ","HOUSE_NO":"７３７號","E_COORD97":172998.57664099999,"N_COORD97":2543341.8396899998,"ADDRESS":"太子路７３７號","OBJECTID":260594},"geometry":{"x":172998.57664100081,"y":2543341.8396879993}},{"attributes":{"ID":260599,"DIS_CODE":0,"TOWNNAME":"仁德區","LI":"太子里","LIN":"28鄰","STREET":"太子路","SECT":" ","MAREA":" ","LANE":" ","ALLEY":" ","HOUSE_NO":"７３５之１號","E_COORD97":173000.059045,"N_COORD97":2543375.2829999998,"ADDRESS":"太子路７３５之１號","OBJECTID":260595},"geometry":{"x":173000.05904499907,"y":2543375.2830030005}},{"attributes":{"ID":260600,"DIS_CODE":0,"TOWNNAME":"安平區","LI":"文平里","LIN":"15鄰","STREET":"建平五街","SECT":" ","MAREA":" ","LANE":" ","ALLEY":" ","HOUSE_NO":"５９號之１","E_COORD97":165989.92991000001,"N_COORD97":2543119.0753500001,"ADDRESS":"建平五街５９號之１","OBJECTID":260596},"geometry":{"x":165989.92991000041,"y":2543119.0753500015}},{"attributes":{"ID":260601,"DIS_CODE":0,"TOWNNAME":"安平區","LI":"文平里","LIN":"15鄰","STREET":"建平五街","SECT":" ","MAREA":" ","LANE":" ","ALLEY":" ","HOUSE_NO":"５９號之２","E_COORD97":165989.92991000001,"N_COORD97":2543119.2870100001,"ADDRESS":"建平五街５９號之２","OBJECTID":260597},"geometry":{"x":165989.92991000041,"y":2543119.2870099992}},{"attributes":{"ID":260602,"DIS_CODE":0,"TOWNNAME":"安平區","LI":"文平里","LIN":"15鄰","STREET":"建平路","SECT":" ","MAREA":" ","LANE":" ","ALLEY":" ","HOUSE_NO":"２０１號","E_COORD97":166125.550735,"N_COORD97":2543080.3403699999,"ADDRESS":"建平路２０１號","OBJECTID":260598},"geometry":{"x":166125.55073499959,"y":2543080.3403709996}},{"attributes":{"ID":260603,"DIS_CODE":0,"TOWNNAME":"安平區","LI":"文平里","LIN":"15鄰","STREET":"建平路","SECT":" ","MAREA":" ","LANE":" ","ALLEY":" ","HOUSE_NO":"２０３號","E_COORD97":166125.126919,"N_COORD97":2543084.7853700002,"ADDRESS":"建平路２０３號","OBJECTID":260599},"geometry":{"x":166125.12691900041,"y":2543084.7853679992}},{"attributes":{"ID":260604,"DIS_CODE":0,"TOWNNAME":"關廟區","LI":"埤頭里","LIN":"13鄰","STREET":"關新路","SECT":"二段","MAREA":" ","LANE":" ","ALLEY":" ","HOUSE_NO":"４５６號","E_COORD97":179157.014203,"N_COORD97":2545080.4585299999,"ADDRESS":"關新路二段４５６號","OBJECTID":260600},"geometry":{"x":179157.01420299988,"y":2545080.4585270025}}]}