{"displayFieldName":"TOWNNAME","fieldAliases":{"ID":"ID","DIS_CODE":"DIS_CODE","TOWNNAME":"TOWNNAME","LI":"LI","LIN":"LIN","STREET":"STREET","SECT":"SECT","MAREA":"MAREA","LANE":"LANE","ALLEY":"ALLEY","HOUSE_NO":"HOUSE_NO","E_COORD97":"E_COORD97","N_COORD97":"N_COORD97","ADDRESS":"ADDRESS","OBJECTID":"OBJECTID"},"geometryType":"esriGeometryPoint","spatialReference":{"wkid":102443,"latestWkid":3826},"fields":[{"name":"ID","type":"esriFieldTypeDouble","alias":"ID"},{"name":"DIS_CODE","type":"esriFieldTypeInteger","alias":"DIS_CODE"},{"name":"TOWNNAME","type":"esriFieldTypeString","alias":"TOWNNAME","length":8},{"name":"LI","type":"esriFieldTypeString","alias":"LI","length":8},{"name":"LIN","type":"esriFieldTypeString","alias":"LIN","length":12},{"name":"STREET","type":"esriFieldTypeString","alias":"STREET","length":20},{"name":"SECT","type":"esriFieldTypeString","alias":"SECT","length":8},{"name":"MAREA","type":"esriFieldTypeString","alias":"MAREA","length":12},{"name":"LANE","type":"esriFieldTypeString","alias":"LANE","length":10},{"name":"ALLEY","type":"esriFieldTypeString","alias":"ALLEY","length":10},{"name":"HOUSE_NO","type":"esriFieldTypeString","alias":"HOUSE_NO","length":20},{"name":"E_COORD97","type":"esriFieldTypeDouble","alias":"E_COORD97"},{"name":"N_COORD97","type":"esriFieldTypeDouble","alias":"N_COORD97"},{"name":"ADDRESS","type":"esriFieldTypeString","alias":"ADDRESS","length":50},{"name":"OBJECTID","type":"esriFieldTypeOID","alias":"OBJECTID"}],"features":[{"attributes":{"ID":285407,"DIS_CODE":0,"TOWNNAME":"仁德區","LI":"保安里","LIN":"12鄰","STREET":"開發三路","SECT":" ","MAREA":" ","LANE":" ","ALLEY":" ","HOUSE_NO":"２１號","E_COORD97":172806.34656199999,"N_COORD97":2536005.82406,"ADDRESS":"開發三路２１號","OBJECTID":285401},"geometry":{"x":172806.34656200185,"y":2536005.8240559995}},{"attributes":{"ID":285408,"DIS_CODE":0,"TOWNNAME":"東區","LI":"東安里","LIN":"12鄰","STREET":"長榮路","SECT":"二段","MAREA":" ","LANE":"３２巷","ALLEY":" ","HOUSE_NO":"１４２號二樓之７","E_COORD97":170189.10999999999,"N_COORD97":2543127.1099999999,"ADDRESS":"長榮路二段３２巷１４２號二樓之７","OBJECTID":285402},"geometry":{"x":170189.11000000034,"y":2543127.1099999994}},{"attributes":{"ID":285409,"DIS_CODE":0,"TOWNNAME":"東區","LI":"東安里","LIN":"12鄰","STREET":"長榮路","SECT":"二段","MAREA":" ","LANE":"３２巷","ALLEY":" ","HOUSE_NO":"１４２號三樓之１３","E_COORD97":170189.10999999999,"N_COORD97":2543127.1099999999,"ADDRESS":"長榮路二段３２巷１４２號三樓之１３","OBJECTID":285403},"geometry":{"x":170189.11000000034,"y":2543127.1099999994}},{"attributes":{"ID":285410,"DIS_CODE":0,"TOWNNAME":"東山區","LI":"東中里","LIN":"2鄰","STREET":"中興路","SECT":" ","MAREA":" ","LANE":" ","ALLEY":" ","HOUSE_NO":"３號","E_COORD97":188961.75,"N_COORD97":2580086.0099999998,"ADDRESS":"中興路３號","OBJECTID":285404},"geometry":{"x":188961.75,"y":2580086.0099999998}},{"attributes":{"ID":285411,"DIS_CODE":0,"TOWNNAME":"新化區","LI":"豐榮里","LIN":"13鄰","STREET":"民治路","SECT":" ","MAREA":" ","LANE":" ","ALLEY":" ","HOUSE_NO":"８８號","E_COORD97":178738.26000000001,"N_COORD97":2548135.25,"ADDRESS":"民治路８８號","OBJECTID":285405},"geometry":{"x":178738.25999999978,"y":2548135.2500000037}},{"attributes":{"ID":285412,"DIS_CODE":0,"TOWNNAME":"新營區","LI":"太南里","LIN":"2鄰","STREET":" ","SECT":" ","MAREA":"太子宮","LANE":" ","ALLEY":" ","HOUSE_NO":"１８１號","E_COORD97":176166.72,"N_COORD97":2576997.7000000002,"ADDRESS":"太子宮１８１號","OBJECTID":285406},"geometry":{"x":176166.71999999974,"y":2576997.7000000011}},{"attributes":{"ID":285413,"DIS_CODE":0,"TOWNNAME":"東區","LI":"東安里","LIN":"12鄰","STREET":"長榮路","SECT":"二段","MAREA":" ","LANE":"３２巷","ALLEY":" ","HOUSE_NO":"１４４號四樓之３","E_COORD97":170205.64000000001,"N_COORD97":2543123.4300000002,"ADDRESS":"長榮路二段３２巷１４４號四樓之３","OBJECTID":285407},"geometry":{"x":170205.64000000153,"y":2543123.4300000016}},{"attributes":{"ID":285414,"DIS_CODE":0,"TOWNNAME":"新營區","LI":"新南里","LIN":"2鄰","STREET":"新北一街","SECT":" ","MAREA":" ","LANE":" ","ALLEY":" ","HOUSE_NO":"１７號","E_COORD97":178857.45000000001,"N_COORD97":2578603.6299999999,"ADDRESS":"新北一街１７號","OBJECTID":285408},"geometry":{"x":178857.45000000019,"y":2578603.629999999}},{"attributes":{"ID":285415,"DIS_CODE":0,"TOWNNAME":"永康區","LI":"建國里","LIN":"22鄰","STREET":"興國街","SECT":" ","MAREA":" ","LANE":"３巷","ALLEY":" ","HOUSE_NO":"８號","E_COORD97":172689.37,"N_COORD97":2544672.5,"ADDRESS":"興國街３巷８號","OBJECTID":285409},"geometry":{"x":172689.37000000011,"y":2544672.5000000019}},{"attributes":{"ID":285416,"DIS_CODE":0,"TOWNNAME":"中西區","LI":"開山里","LIN":"12鄰","STREET":"大同路","SECT":"一段","MAREA":" ","LANE":"４６巷","ALLEY":" ","HOUSE_NO":"５０號二樓之１","E_COORD97":169085.53,"N_COORD97":2543166.8399999999,"ADDRESS":"大同路一段４６巷５０號二樓之１","OBJECTID":285410},"geometry":{"x":169085.53000000119,"y":2543166.8399999999}},{"attributes":{"ID":285417,"DIS_CODE":0,"TOWNNAME":"中西區","LI":"五妃里","LIN":"12鄰","STREET":"南門路","SECT":" ","MAREA":" ","LANE":"２０９巷","ALLEY":" ","HOUSE_NO":"６號三樓","E_COORD97":168460.32000000001,"N_COORD97":2542832.27,"ADDRESS":"南門路２０９巷６號三樓","OBJECTID":285411},"geometry":{"x":168460.3200000003,"y":2542832.2700000014}},{"attributes":{"ID":285418,"DIS_CODE":0,"TOWNNAME":"新營區","LI":"鐵線里","LIN":"2鄰","STREET":" ","SECT":" ","MAREA":"鐵線橋","LANE":" ","ALLEY":" ","HOUSE_NO":"１５之１１號","E_COORD97":176097.95999999999,"N_COORD97":2573988.04,"ADDRESS":"鐵線橋１５之１１號","OBJECTID":285412},"geometry":{"x":176097.96000000183,"y":2573988.040000001}},{"attributes":{"ID":285419,"DIS_CODE":0,"TOWNNAME":"永康區","LI":"烏竹里","LIN":"4鄰","STREET":"烏竹街","SECT":" ","MAREA":" ","LANE":"６２巷","ALLEY":" ","HOUSE_NO":"１１號","E_COORD97":174532.72,"N_COORD97":2549393.4900000002,"ADDRESS":"烏竹街６２巷１１號","OBJECTID":285413},"geometry":{"x":174532.71999999974,"y":2549393.4900000002}},{"attributes":{"ID":285420,"DIS_CODE":0,"TOWNNAME":"永康區","LI":"埔園里","LIN":"35鄰","STREET":"八德街","SECT":" ","MAREA":" ","LANE":"７３巷","ALLEY":" ","HOUSE_NO":"１２號","E_COORD97":174163.82999999999,"N_COORD97":2548428.98,"ADDRESS":"八德街７３巷１２號","OBJECTID":285414},"geometry":{"x":174163.83000000007,"y":2548428.9800000042}},{"attributes":{"ID":285421,"DIS_CODE":0,"TOWNNAME":"東區","LI":"圍下里","LIN":"12鄰","STREET":"前鋒路","SECT":" ","MAREA":" ","LANE":"８５巷","ALLEY":" ","HOUSE_NO":"１１號三樓之２","E_COORD97":169263.87,"N_COORD97":2543626.1299999999,"ADDRESS":"前鋒路８５巷１１號三樓之２","OBJECTID":285415},"geometry":{"x":169263.87000000104,"y":2543626.1300000008}},{"attributes":{"ID":285422,"DIS_CODE":0,"TOWNNAME":"東區","LI":"圍下里","LIN":"12鄰","STREET":"前鋒路","SECT":" ","MAREA":" ","LANE":"８５巷","ALLEY":" ","HOUSE_NO":"１１號四樓之２","E_COORD97":169263.87,"N_COORD97":2543626.1299999999,"ADDRESS":"前鋒路８５巷１１號四樓之２","OBJECTID":285416},"geometry":{"x":169263.87000000104,"y":2543626.1300000008}},{"attributes":{"ID":285423,"DIS_CODE":0,"TOWNNAME":"永康區","LI":"\u25A0洲里","LIN":"12鄰","STREET":"\u25A0洲一街","SECT":" ","MAREA":" ","LANE":"１１巷","ALLEY":" ","HOUSE_NO":"４２號二樓之１","E_COORD97":171570.72,"N_COORD97":2549099.2999999998,"ADDRESS":"\u25A0洲一街１１巷４２號二樓之１","OBJECTID":285417},"geometry":{"x":171570.71999999974,"y":2549099.3000000026}},{"attributes":{"ID":285424,"DIS_CODE":0,"TOWNNAME":"永康區","LI":"\u25A0洲里","LIN":"12鄰","STREET":"\u25A0洲一街","SECT":" ","MAREA":" ","LANE":"１１巷","ALLEY":" ","HOUSE_NO":"４２號三樓之２","E_COORD97":171570.85000000001,"N_COORD97":2549099.2999999998,"ADDRESS":"\u25A0洲一街１１巷４２號三樓之２","OBJECTID":285418},"geometry":{"x":171570.85000000056,"y":2549099.3000000026}},{"attributes":{"ID":285425,"DIS_CODE":0,"TOWNNAME":"永康區","LI":"東灣里","LIN":"24鄰","STREET":"大灣三街","SECT":" ","MAREA":" ","LANE":"７３巷","ALLEY":" ","HOUSE_NO":"８８之１號","E_COORD97":174801.51999999999,"N_COORD97":2544799.4700000002,"ADDRESS":"大灣三街７３巷８８之１號","OBJECTID":285419},"geometry":{"x":174801.51999999955,"y":2544799.4700000025}},{"attributes":{"ID":285426,"DIS_CODE":0,"TOWNNAME":"永康區","LI":"埔園里","LIN":"1鄰","STREET":"埔聖街","SECT":" ","MAREA":" ","LANE":"８１巷","ALLEY":" ","HOUSE_NO":"１５號","E_COORD97":174080.34,"N_COORD97":2547674.3900000001,"ADDRESS":"埔聖街８１巷１５號","OBJECTID":285420},"geometry":{"x":174080.34000000078,"y":2547674.3900000025}},{"attributes":{"ID":285427,"DIS_CODE":0,"TOWNNAME":"永康區","LI":"安康里","LIN":"12鄰","STREET":"中華路","SECT":" ","MAREA":" ","LANE":"６１９巷","ALLEY":" ","HOUSE_NO":"１７號之２四樓","E_COORD97":171000.98000000001,"N_COORD97":2546066.04,"ADDRESS":"中華路６１９巷１７號之２四樓","OBJECTID":285421},"geometry":{"x":171000.98000000138,"y":2546066.0399999991}},{"attributes":{"ID":285428,"DIS_CODE":0,"TOWNNAME":"永康區","LI":"東灣里","LIN":"36鄰","STREET":"民族路","SECT":" ","MAREA":" ","LANE":"２７３巷","ALLEY":" ","HOUSE_NO":"２９號","E_COORD97":175057.09,"N_COORD97":2544939.1899999999,"ADDRESS":"民族路２７３巷２９號","OBJECTID":285422},"geometry":{"x":175057.08999999985,"y":2544939.1900000013}},{"attributes":{"ID":285429,"DIS_CODE":0,"TOWNNAME":"永康區","LI":"東灣里","LIN":"33鄰","STREET":"民族路","SECT":" ","MAREA":" ","LANE":"１４５巷","ALLEY":" ","HOUSE_NO":"８３號","E_COORD97":175135.98000000001,"N_COORD97":2544691.6699999999,"ADDRESS":"民族路１４５巷８３號","OBJECTID":285423},"geometry":{"x":175135.98000000138,"y":2544691.6700000018}},{"attributes":{"ID":285430,"DIS_CODE":0,"TOWNNAME":"東區","LI":"東安里","LIN":"12鄰","STREET":"長榮路","SECT":"二段","MAREA":" ","LANE":"３２巷","ALLEY":" ","HOUSE_NO":"１４２號四樓之１０","E_COORD97":170189.10999999999,"N_COORD97":2543127.1099999999,"ADDRESS":"長榮路二段３２巷１４２號四樓之１０","OBJECTID":285424},"geometry":{"x":170189.11000000034,"y":2543127.1099999994}},{"attributes":{"ID":285431,"DIS_CODE":0,"TOWNNAME":"新營區","LI":"鐵線里","LIN":"2鄰","STREET":" ","SECT":" ","MAREA":"鐵線橋","LANE":" ","ALLEY":" ","HOUSE_NO":"１８之６號","E_COORD97":176129.73999999999,"N_COORD97":2573838.3599999999,"ADDRESS":"鐵線橋１８之６號","OBJECTID":285425},"geometry":{"x":176129.74000000022,"y":2573838.3599999994}},{"attributes":{"ID":285432,"DIS_CODE":0,"TOWNNAME":"麻豆區","LI":"莊禮里","LIN":"2鄰","STREET":" ","SECT":" ","MAREA":"莊禮寮","LANE":" ","ALLEY":" ","HOUSE_NO":"３２號","E_COORD97":169217,"N_COORD97":2566108.1400000001,"ADDRESS":"莊禮寮３２號","OBJECTID":285426},"geometry":{"x":169217.00000000093,"y":2566108.1400000006}},{"attributes":{"ID":285433,"DIS_CODE":0,"TOWNNAME":"新營區","LI":"埤寮里","LIN":"2鄰","STREET":" ","SECT":" ","MAREA":"許丑","LANE":" ","ALLEY":" ","HOUSE_NO":"２２之２０號","E_COORD97":180004.60000000001,"N_COORD97":2580933.8500000001,"ADDRESS":"許丑２２之２０號","OBJECTID":285427},"geometry":{"x":180004.60000000056,"y":2580933.8500000015}},{"attributes":{"ID":285434,"DIS_CODE":0,"TOWNNAME":"新營區","LI":"護鎮里","LIN":"2鄰","STREET":" ","SECT":" ","MAREA":"後鎮","LANE":" ","ALLEY":" ","HOUSE_NO":"１９號","E_COORD97":179316.34,"N_COORD97":2581094.3100000001,"ADDRESS":"後鎮１９號","OBJECTID":285428},"geometry":{"x":179316.34000000078,"y":2581094.3100000024}},{"attributes":{"ID":285435,"DIS_CODE":0,"TOWNNAME":"新營區","LI":"埤寮里","LIN":"2鄰","STREET":" ","SECT":" ","MAREA":"許丑","LANE":" ","ALLEY":" ","HOUSE_NO":"２５之５號","E_COORD97":179930.81,"N_COORD97":2580950.8100000001,"ADDRESS":"許丑２５之５號","OBJECTID":285429},"geometry":{"x":179930.80999999959,"y":2580950.8100000042}},{"attributes":{"ID":285436,"DIS_CODE":0,"TOWNNAME":"新營區","LI":"護鎮里","LIN":"2鄰","STREET":" ","SECT":" ","MAREA":"後鎮","LANE":" ","ALLEY":" ","HOUSE_NO":"１７號之１２","E_COORD97":179350.07000000001,"N_COORD97":2580949.1499999999,"ADDRESS":"後鎮１７之１２號","OBJECTID":285430},"geometry":{"x":179350.0700000003,"y":2580949.1500000022}},{"attributes":{"ID":285437,"DIS_CODE":0,"TOWNNAME":"新營區","LI":"鐵線里","LIN":"2鄰","STREET":" ","SECT":" ","MAREA":"鐵線橋","LANE":" ","ALLEY":" ","HOUSE_NO":"１８號","E_COORD97":176112.20999999999,"N_COORD97":2573903.73,"ADDRESS":"鐵線橋１８號","OBJECTID":285431},"geometry":{"x":176112.21000000089,"y":2573903.7300000023}},{"attributes":{"ID":285438,"DIS_CODE":0,"TOWNNAME":"新營區","LI":"新南里","LIN":"2鄰","STREET":"新北一街","SECT":" ","MAREA":" ","LANE":" ","ALLEY":" ","HOUSE_NO":"３７號","E_COORD97":178797.26000000001,"N_COORD97":2578617.21,"ADDRESS":"新北一街３７號","OBJECTID":285432},"geometry":{"x":178797.25999999978,"y":2578617.2100000028}},{"attributes":{"ID":285439,"DIS_CODE":0,"TOWNNAME":"新營區","LI":"埤寮里","LIN":"2鄰","STREET":" ","SECT":" ","MAREA":"許丑","LANE":" ","ALLEY":" ","HOUSE_NO":"２５之３號","E_COORD97":179941.03,"N_COORD97":2580948.54,"ADDRESS":"許丑２５之３號","OBJECTID":285433},"geometry":{"x":179941.03000000119,"y":2580948.540000001}},{"attributes":{"ID":285440,"DIS_CODE":0,"TOWNNAME":"仁德區","LI":"保安里","LIN":"12鄰","STREET":"開發三路","SECT":" ","MAREA":" ","LANE":" ","ALLEY":" ","HOUSE_NO":"２３號","E_COORD97":172838.54412599999,"N_COORD97":2536045.6173700001,"ADDRESS":"開發三路２３號","OBJECTID":285434},"geometry":{"x":172838.54412600026,"y":2536045.6173679996}},{"attributes":{"ID":285441,"DIS_CODE":0,"TOWNNAME":"東區","LI":"東安里","LIN":"12鄰","STREET":"長榮路","SECT":"二段","MAREA":" ","LANE":"３２巷","ALLEY":" ","HOUSE_NO":"１４４號四樓","E_COORD97":170205.64000000001,"N_COORD97":2543123.4300000002,"ADDRESS":"長榮路二段３２巷１４４號四樓","OBJECTID":285435},"geometry":{"x":170205.64000000153,"y":2543123.4300000016}},{"attributes":{"ID":285442,"DIS_CODE":0,"TOWNNAME":"東區","LI":"崇學里","LIN":"12鄰","STREET":"崇明十街","SECT":" ","MAREA":" ","LANE":"７０巷","ALLEY":" ","HOUSE_NO":"２６號二樓","E_COORD97":170250.29999999999,"N_COORD97":2541824.5600000001,"ADDRESS":"崇明十街７０巷２６號二樓","OBJECTID":285436},"geometry":{"x":170250.29999999888,"y":2541824.5600000024}},{"attributes":{"ID":285443,"DIS_CODE":0,"TOWNNAME":"永康區","LI":"埔園里","LIN":"13鄰","STREET":"中山路","SECT":" ","MAREA":" ","LANE":"２０７巷","ALLEY":" ","HOUSE_NO":"２７號","E_COORD97":173604.82999999999,"N_COORD97":2548108.25,"ADDRESS":"中山路２０７巷２７號","OBJECTID":285437},"geometry":{"x":173604.83000000007,"y":2548108.2500000019}},{"attributes":{"ID":285444,"DIS_CODE":0,"TOWNNAME":"永康區","LI":"埔園里","LIN":"1鄰","STREET":"埔聖街","SECT":" ","MAREA":" ","LANE":"１３巷","ALLEY":" ","HOUSE_NO":"１１號","E_COORD97":173856.56,"N_COORD97":2547631.7400000002,"ADDRESS":"埔聖街１３巷１１號","OBJECTID":285438},"geometry":{"x":173856.56000000052,"y":2547631.7400000021}},{"attributes":{"ID":285445,"DIS_CODE":0,"TOWNNAME":"鹽水區","LI":"岸內里","LIN":"2鄰","STREET":" ","SECT":" ","MAREA":"岸內","LANE":" ","ALLEY":" ","HOUSE_NO":"４４號","E_COORD97":174758.06,"N_COORD97":2581482.4300000002,"ADDRESS":"岸內４４號","OBJECTID":285439},"geometry":{"x":174758.06000000052,"y":2581482.4300000016}},{"attributes":{"ID":285446,"DIS_CODE":0,"TOWNNAME":"永康區","LI":"新樹里","LIN":"12鄰","STREET":"富強路","SECT":"二段","MAREA":" ","LANE":"７７巷","ALLEY":" ","HOUSE_NO":"３１號","E_COORD97":175572.32000000001,"N_COORD97":2546937.1899999999,"ADDRESS":"富強路二段７７巷３１號","OBJECTID":285440},"geometry":{"x":175572.32000000123,"y":2546937.1899999995}},{"attributes":{"ID":285447,"DIS_CODE":0,"TOWNNAME":"永康區","LI":"復華里","LIN":"12鄰","STREET":"國華街","SECT":" ","MAREA":" ","LANE":"１００巷","ALLEY":" ","HOUSE_NO":"７號","E_COORD97":172860.79000000001,"N_COORD97":2545995.75,"ADDRESS":"國華街１００巷７號","OBJECTID":285441},"geometry":{"x":172860.79000000004,"y":2545995.7500000037}},{"attributes":{"ID":285448,"DIS_CODE":0,"TOWNNAME":"永康區","LI":"復華里","LIN":"12鄰","STREET":"國華街","SECT":" ","MAREA":" ","LANE":"９８巷","ALLEY":" ","HOUSE_NO":"２９號","E_COORD97":172904.84,"N_COORD97":2545972.2400000002,"ADDRESS":"國華街９８巷２９號","OBJECTID":285442},"geometry":{"x":172904.84000000171,"y":2545972.2400000039}},{"attributes":{"ID":285449,"DIS_CODE":0,"TOWNNAME":"永康區","LI":"復華里","LIN":"12鄰","STREET":"國華街","SECT":" ","MAREA":" ","LANE":"１００巷","ALLEY":" ","HOUSE_NO":"３６號","E_COORD97":172871.51999999999,"N_COORD97":2546018.54,"ADDRESS":"國華街１００巷３６號","OBJECTID":285443},"geometry":{"x":172871.52000000048,"y":2546018.5399999991}},{"attributes":{"ID":285450,"DIS_CODE":0,"TOWNNAME":"永康區","LI":"復華里","LIN":"12鄰","STREET":"國華街","SECT":" ","MAREA":" ","LANE":"１０２巷","ALLEY":" ","HOUSE_NO":"３４號","E_COORD97":172878.57000000001,"N_COORD97":2546061.9900000002,"ADDRESS":"國華街１０２巷３４號","OBJECTID":285444},"geometry":{"x":172878.57000000123,"y":2546061.9899999984}},{"attributes":{"ID":285451,"DIS_CODE":0,"TOWNNAME":"永康區","LI":"復華里","LIN":"12鄰","STREET":"國華街","SECT":" ","MAREA":" ","LANE":"１００巷","ALLEY":" ","HOUSE_NO":"３３號","E_COORD97":172880.10999999999,"N_COORD97":2546028.54,"ADDRESS":"國華街１００巷３３號","OBJECTID":285445},"geometry":{"x":172880.11000000127,"y":2546028.5399999991}},{"attributes":{"ID":285452,"DIS_CODE":0,"TOWNNAME":"永康區","LI":"復華里","LIN":"12鄰","STREET":"國華街","SECT":" ","MAREA":" ","LANE":"１００巷","ALLEY":" ","HOUSE_NO":"２６號","E_COORD97":172913.10999999999,"N_COORD97":2546039.5,"ADDRESS":"國華街１００巷２６號","OBJECTID":285446},"geometry":{"x":172913.11000000034,"y":2546039.5000000019}},{"attributes":{"ID":285453,"DIS_CODE":0,"TOWNNAME":"永康區","LI":"復華里","LIN":"12鄰","STREET":"國華街","SECT":" ","MAREA":" ","LANE":"１００巷","ALLEY":" ","HOUSE_NO":"２５號","E_COORD97":172909.92000000001,"N_COORD97":2546036.5,"ADDRESS":"國華街１００巷２５號","OBJECTID":285447},"geometry":{"x":172909.92000000086,"y":2546036.5}},{"attributes":{"ID":285454,"DIS_CODE":0,"TOWNNAME":"永康區","LI":"復華里","LIN":"12鄰","STREET":"國華街","SECT":" ","MAREA":" ","LANE":"１０２巷","ALLEY":" ","HOUSE_NO":"１４號","E_COORD97":172848.32999999999,"N_COORD97":2546028.75,"ADDRESS":"國華街１０２巷１４號","OBJECTID":285448},"geometry":{"x":172848.33000000101,"y":2546028.75}},{"attributes":{"ID":285455,"DIS_CODE":0,"TOWNNAME":"北區","LI":"賢北里","LIN":"2鄰","STREET":"賢北街","SECT":" ","MAREA":" ","LANE":" ","ALLEY":" ","HOUSE_NO":"７６號","E_COORD97":166298.32999999999,"N_COORD97":2545382.9100000001,"ADDRESS":"賢北街７６號","OBJECTID":285449},"geometry":{"x":166298.33000000007,"y":2545382.9100000001}},{"attributes":{"ID":285456,"DIS_CODE":0,"TOWNNAME":"北區","LI":"華興里","LIN":"2鄰","STREET":"林森路","SECT":"三段","MAREA":" ","LANE":" ","ALLEY":" ","HOUSE_NO":"１８３號","E_COORD97":170462.64999999999,"N_COORD97":2545258.29,"ADDRESS":"林森路三段１８３號","OBJECTID":285450},"geometry":{"x":170462.6500000013,"y":2545258.2899999991}},{"attributes":{"ID":285457,"DIS_CODE":0,"TOWNNAME":"北區","LI":"華興里","LIN":"2鄰","STREET":"林森路","SECT":"三段","MAREA":" ","LANE":" ","ALLEY":" ","HOUSE_NO":"１８５號","E_COORD97":170460.10999999999,"N_COORD97":2545263.3700000001,"ADDRESS":"林森路三段１８５號","OBJECTID":285451},"geometry":{"x":170460.11000000034,"y":2545263.370000001}},{"attributes":{"ID":285458,"DIS_CODE":0,"TOWNNAME":"永康區","LI":"復華里","LIN":"12鄰","STREET":"國華街","SECT":" ","MAREA":" ","LANE":"１０２巷","ALLEY":" ","HOUSE_NO":"１０號","E_COORD97":172841.73000000001,"N_COORD97":2546022.25,"ADDRESS":"國華街１０２巷１０號","OBJECTID":285452},"geometry":{"x":172841.73000000231,"y":2546022.25}},{"attributes":{"ID":285459,"DIS_CODE":0,"TOWNNAME":"永康區","LI":"復華里","LIN":"12鄰","STREET":"國華街","SECT":" ","MAREA":" ","LANE":"１００巷","ALLEY":" ","HOUSE_NO":"２７號","E_COORD97":172899.04000000001,"N_COORD97":2546047.6200000001,"ADDRESS":"國華街１００巷２７號","OBJECTID":285453},"geometry":{"x":172899.04000000097,"y":2546047.620000001}},{"attributes":{"ID":285460,"DIS_CODE":0,"TOWNNAME":"永康區","LI":"復國里","LIN":"12鄰","STREET":"復國二路","SECT":" ","MAREA":" ","LANE":"１１４巷","ALLEY":" ","HOUSE_NO":"１０號","E_COORD97":172903.82000000001,"N_COORD97":2545433.52,"ADDRESS":"復國二路１１４巷１０號","OBJECTID":285454},"geometry":{"x":172903.82000000216,"y":2545433.5199999996}},{"attributes":{"ID":285461,"DIS_CODE":0,"TOWNNAME":"永康區","LI":"復國里","LIN":"12鄰","STREET":"復國二路","SECT":" ","MAREA":" ","LANE":"１１８巷","ALLEY":" ","HOUSE_NO":"３號","E_COORD97":172889.26000000001,"N_COORD97":2545482.2799999998,"ADDRESS":"復國二路１１８巷３號","OBJECTID":285455},"geometry":{"x":172889.25999999978,"y":2545482.2799999993}},{"attributes":{"ID":285462,"DIS_CODE":0,"TOWNNAME":"永康區","LI":"復華里","LIN":"12鄰","STREET":"國華街","SECT":" ","MAREA":" ","LANE":"１００巷","ALLEY":" ","HOUSE_NO":"２１號","E_COORD97":172897.87,"N_COORD97":2546023,"ADDRESS":"國華街１００巷２１號","OBJECTID":285456},"geometry":{"x":172897.87000000011,"y":2546023}},{"attributes":{"ID":285463,"DIS_CODE":0,"TOWNNAME":"佳里區","LI":"龍安里","LIN":"17鄰","STREET":" ","SECT":" ","MAREA":"外渡頭","LANE":" ","ALLEY":" ","HOUSE_NO":"１５號","E_COORD97":165126.91,"N_COORD97":2558947.8399999999,"ADDRESS":"外渡頭１５號","OBJECTID":285457},"geometry":{"x":165126.91000000015,"y":2558947.8400000017}},{"attributes":{"ID":285464,"DIS_CODE":0,"TOWNNAME":"新營區","LI":"五興里","LIN":"2鄰","STREET":" ","SECT":" ","MAREA":"五間厝","LANE":" ","ALLEY":" ","HOUSE_NO":"２７之２０號","E_COORD97":175953.92999999999,"N_COORD97":2575046.3799999999,"ADDRESS":"五間厝２７之２０號","OBJECTID":285458},"geometry":{"x":175953.93000000063,"y":2575046.3800000008}},{"attributes":{"ID":285465,"DIS_CODE":0,"TOWNNAME":"永康區","LI":"復國里","LIN":"12鄰","STREET":"復國二路","SECT":" ","MAREA":" ","LANE":"１１０巷","ALLEY":" ","HOUSE_NO":"２號","E_COORD97":172868.76000000001,"N_COORD97":2545405.5299999998,"ADDRESS":"復國二路１１０巷２號","OBJECTID":285459},"geometry":{"x":172868.76000000071,"y":2545405.5299999993}},{"attributes":{"ID":285466,"DIS_CODE":0,"TOWNNAME":"永康區","LI":"復國里","LIN":"12鄰","STREET":"復國二路","SECT":" ","MAREA":" ","LANE":"１１４巷","ALLEY":" ","HOUSE_NO":"２號","E_COORD97":172878.82000000001,"N_COORD97":2545435.52,"ADDRESS":"復國二路１１４巷２號","OBJECTID":285460},"geometry":{"x":172878.82000000123,"y":2545435.5200000014}},{"attributes":{"ID":285467,"DIS_CODE":0,"TOWNNAME":"永康區","LI":"復國里","LIN":"12鄰","STREET":"復國二路","SECT":" ","MAREA":" ","LANE":"１１４巷","ALLEY":" ","HOUSE_NO":"４號","E_COORD97":172884.62,"N_COORD97":2545435.02,"ADDRESS":"復國二路１１４巷４號","OBJECTID":285461},"geometry":{"x":172884.62000000197,"y":2545435.0200000014}},{"attributes":{"ID":285468,"DIS_CODE":0,"TOWNNAME":"新營區","LI":"五興里","LIN":"2鄰","STREET":" ","SECT":" ","MAREA":"五間厝","LANE":" ","ALLEY":" ","HOUSE_NO":"１９之７號","E_COORD97":175862.92000000001,"N_COORD97":2574910.6099999999,"ADDRESS":"五間厝１９之７號","OBJECTID":285462},"geometry":{"x":175862.92000000086,"y":2574910.6100000013}},{"attributes":{"ID":285469,"DIS_CODE":0,"TOWNNAME":"新營區","LI":"五興里","LIN":"2鄰","STREET":" ","SECT":" ","MAREA":"五間厝","LANE":" ","ALLEY":" ","HOUSE_NO":"１８之１４號","E_COORD97":175909.34,"N_COORD97":2574942.5,"ADDRESS":"五間厝１８之１４號","OBJECTID":285463},"geometry":{"x":175909.34000000078,"y":2574942.5000000019}},{"attributes":{"ID":285470,"DIS_CODE":0,"TOWNNAME":"新營區","LI":"五興里","LIN":"2鄰","STREET":" ","SECT":" ","MAREA":"五間厝","LANE":" ","ALLEY":" ","HOUSE_NO":"１８之７號","E_COORD97":175885.41,"N_COORD97":2574906.0699999998,"ADDRESS":"五間厝１８之７號","OBJECTID":285464},"geometry":{"x":175885.41000000108,"y":2574906.0700000003}},{"attributes":{"ID":285471,"DIS_CODE":0,"TOWNNAME":"新營區","LI":"姑爺里","LIN":"2鄰","STREET":" ","SECT":" ","MAREA":"姑爺","LANE":" ","ALLEY":" ","HOUSE_NO":"１９之５號","E_COORD97":174363.20999999999,"N_COORD97":2574142.9500000002,"ADDRESS":"姑爺１９之５號","OBJECTID":285465},"geometry":{"x":174363.20999999996,"y":2574142.9499999993}},{"attributes":{"ID":285472,"DIS_CODE":0,"TOWNNAME":"新營區","LI":"五興里","LIN":"2鄰","STREET":" ","SECT":" ","MAREA":"五間厝","LANE":" ","ALLEY":" ","HOUSE_NO":"１８之１９號","E_COORD97":175913.32999999999,"N_COORD97":2574920.3300000001,"ADDRESS":"五間厝１８之１９號","OBJECTID":285466},"geometry":{"x":175913.33000000007,"y":2574920.3300000001}},{"attributes":{"ID":285473,"DIS_CODE":0,"TOWNNAME":"歸仁區","LI":"沙崙里","LIN":"2鄰","STREET":" ","SECT":" ","MAREA":"二甲","LANE":" ","ALLEY":" ","HOUSE_NO":"５６號","E_COORD97":178354.67999999999,"N_COORD97":2539270.8900000001,"ADDRESS":"二甲５６號","OBJECTID":285467},"geometry":{"x":178354.68000000063,"y":2539270.8900000006}},{"attributes":{"ID":285474,"DIS_CODE":0,"TOWNNAME":"鹽水區","LI":"歡雅里","LIN":"2鄰","STREET":" ","SECT":" ","MAREA":"歡雅","LANE":" ","ALLEY":" ","HOUSE_NO":"３８號","E_COORD97":172547.35999999999,"N_COORD97":2576895.6800000002,"ADDRESS":"歡雅３８號","OBJECTID":285468},"geometry":{"x":172547.36000000034,"y":2576895.6799999978}},{"attributes":{"ID":285475,"DIS_CODE":0,"TOWNNAME":"鹽水區","LI":"歡雅里","LIN":"2鄰","STREET":" ","SECT":" ","MAREA":"歡雅","LANE":" ","ALLEY":" ","HOUSE_NO":"４０號之１","E_COORD97":172535.45000000001,"N_COORD97":2576885.8399999999,"ADDRESS":"歡雅４０號之１","OBJECTID":285469},"geometry":{"x":172535.45000000112,"y":2576885.8400000017}},{"attributes":{"ID":285476,"DIS_CODE":0,"TOWNNAME":"安平區","LI":"文平里","LIN":"2鄰","STREET":"中華西路","SECT":"二段","MAREA":" ","LANE":"１巷","ALLEY":" ","HOUSE_NO":"１號","E_COORD97":166499.14999999999,"N_COORD97":2543009.46,"ADDRESS":"中華西路二段１巷１號","OBJECTID":285470},"geometry":{"x":166499.1500000013,"y":2543009.4600000028}},{"attributes":{"ID":285477,"DIS_CODE":0,"TOWNNAME":"鹽水區","LI":"歡雅里","LIN":"2鄰","STREET":" ","SECT":" ","MAREA":"歡雅","LANE":" ","ALLEY":" ","HOUSE_NO":"４０之２號","E_COORD97":172531.32000000001,"N_COORD97":2576882.7799999998,"ADDRESS":"歡雅４０之２號","OBJECTID":285471},"geometry":{"x":172531.32000000123,"y":2576882.7800000012}},{"attributes":{"ID":285478,"DIS_CODE":0,"TOWNNAME":"永康區","LI":"復華里","LIN":"12鄰","STREET":"國華街","SECT":" ","MAREA":" ","LANE":"１０２巷","ALLEY":" ","HOUSE_NO":"２２號","E_COORD97":172860.78,"N_COORD97":2546041.4900000002,"ADDRESS":"國華街１０２巷２２號","OBJECTID":285472},"geometry":{"x":172860.78000000026,"y":2546041.4900000002}},{"attributes":{"ID":285479,"DIS_CODE":0,"TOWNNAME":"永康區","LI":"復華里","LIN":"12鄰","STREET":"國華街","SECT":" ","MAREA":" ","LANE":"１０２巷","ALLEY":" ","HOUSE_NO":"３６號","E_COORD97":172881.87,"N_COORD97":2546064.9900000002,"ADDRESS":"國華街１０２巷３６號","OBJECTID":285473},"geometry":{"x":172881.87000000104,"y":2546064.9900000002}},{"attributes":{"ID":285480,"DIS_CODE":0,"TOWNNAME":"永康區","LI":"復國里","LIN":"12鄰","STREET":"復國二路","SECT":" ","MAREA":" ","LANE":"１１８巷","ALLEY":" ","HOUSE_NO":"７號","E_COORD97":172900.06,"N_COORD97":2545479.0299999998,"ADDRESS":"復國二路１１８巷７號","OBJECTID":285474},"geometry":{"x":172900.06000000052,"y":2545479.0300000012}},{"attributes":{"ID":285481,"DIS_CODE":0,"TOWNNAME":"永康區","LI":"復國里","LIN":"12鄰","STREET":"復國二路","SECT":" ","MAREA":" ","LANE":"１０６巷","ALLEY":" ","HOUSE_NO":"５號","E_COORD97":172876.14999999999,"N_COORD97":2545350.77,"ADDRESS":"復國二路１０６巷５號","OBJECTID":285475},"geometry":{"x":172876.15000000224,"y":2545350.7699999977}},{"attributes":{"ID":285482,"DIS_CODE":0,"TOWNNAME":"永康區","LI":"復國里","LIN":"12鄰","STREET":"復國二路","SECT":" ","MAREA":" ","LANE":"１１８巷","ALLEY":" ","HOUSE_NO":"９號","E_COORD97":172907.13,"N_COORD97":2545478.5299999998,"ADDRESS":"復國二路１１８巷９號","OBJECTID":285476},"geometry":{"x":172907.13000000082,"y":2545478.5300000012}},{"attributes":{"ID":285483,"DIS_CODE":0,"TOWNNAME":"左鎮區","LI":"草山里","LIN":"2鄰","STREET":" ","SECT":" ","MAREA":"草山","LANE":" ","ALLEY":" ","HOUSE_NO":"２６號","E_COORD97":192328.64000000001,"N_COORD97":2544822.25,"ADDRESS":"草山２６號","OBJECTID":285477},"geometry":{"x":192328.63999999966,"y":2544822.25}},{"attributes":{"ID":285484,"DIS_CODE":0,"TOWNNAME":"永康區","LI":"安康里","LIN":"12鄰","STREET":"中華路","SECT":" ","MAREA":" ","LANE":"６１９巷","ALLEY":" ","HOUSE_NO":"２１號","E_COORD97":170986.92000000001,"N_COORD97":2546060.7400000002,"ADDRESS":"中華路６１９巷２１號","OBJECTID":285478},"geometry":{"x":170986.91999999993,"y":2546060.7400000039}},{"attributes":{"ID":285485,"DIS_CODE":0,"TOWNNAME":"東區","LI":"後甲里","LIN":"34鄰","STREET":"中華東路","SECT":"一段","MAREA":" ","LANE":" ","ALLEY":" ","HOUSE_NO":"１４３號四樓","E_COORD97":171477.89999999999,"N_COORD97":2543547.4100000001,"ADDRESS":"中華東路一段１４３號四樓","OBJECTID":285479},"geometry":{"x":171477.9000000013,"y":2543547.410000002}},{"attributes":{"ID":285486,"DIS_CODE":0,"TOWNNAME":"永康區","LI":"五王里","LIN":"12鄰","STREET":"中山東路","SECT":" ","MAREA":" ","LANE":"２１８巷","ALLEY":" ","HOUSE_NO":"１６號","E_COORD97":171734.10000000001,"N_COORD97":2545744.3999999999,"ADDRESS":"中山東路２１８巷１６號","OBJECTID":285480},"geometry":{"x":171734.09999999963,"y":2545744.4000000041}},{"attributes":{"ID":285487,"DIS_CODE":0,"TOWNNAME":"永康區","LI":"大橋里","LIN":"12鄰","STREET":"大橋二街","SECT":" ","MAREA":" ","LANE":"２３９巷","ALLEY":" ","HOUSE_NO":"３號","E_COORD97":171094.57999999999,"N_COORD97":2546818.0699999998,"ADDRESS":"大橋二街２３９巷３號","OBJECTID":285481},"geometry":{"x":171094.57999999914,"y":2546818.0700000022}},{"attributes":{"ID":285488,"DIS_CODE":0,"TOWNNAME":"永康區","LI":"大橋里","LIN":"12鄰","STREET":"大橋二街","SECT":" ","MAREA":" ","LANE":"１９９巷","ALLEY":" ","HOUSE_NO":"２號","E_COORD97":171017.91,"N_COORD97":2546776.6299999999,"ADDRESS":"大橋二街１９９巷２號","OBJECTID":285482},"geometry":{"x":171017.91000000201,"y":2546776.6300000008}},{"attributes":{"ID":285489,"DIS_CODE":0,"TOWNNAME":"永康區","LI":"大灣里","LIN":"12鄰","STREET":"大民街","SECT":" ","MAREA":" ","LANE":"５８巷","ALLEY":" ","HOUSE_NO":"１２號","E_COORD97":174885.5,"N_COORD97":2545362.79,"ADDRESS":"大民街５８巷１２號","OBJECTID":285483},"geometry":{"x":174885.50000000186,"y":2545362.7899999991}},{"attributes":{"ID":285490,"DIS_CODE":0,"TOWNNAME":"永康區","LI":"大灣里","LIN":"12鄰","STREET":"民族路","SECT":" ","MAREA":" ","LANE":"３８０巷","ALLEY":" ","HOUSE_NO":"１號","E_COORD97":174831.35000000001,"N_COORD97":2545367.5299999998,"ADDRESS":"民族路３８０巷１號","OBJECTID":285484},"geometry":{"x":174831.34999999963,"y":2545367.5300000012}},{"attributes":{"ID":285491,"DIS_CODE":0,"TOWNNAME":"新營區","LI":"五興里","LIN":"2鄰","STREET":" ","SECT":" ","MAREA":"五間厝","LANE":" ","ALLEY":" ","HOUSE_NO":"３１之５號","E_COORD97":175771.39999999999,"N_COORD97":2575004.1000000001,"ADDRESS":"五間厝３１之５號","OBJECTID":285485},"geometry":{"x":175771.39999999944,"y":2575004.0999999996}},{"attributes":{"ID":285492,"DIS_CODE":0,"TOWNNAME":"新營區","LI":"土庫里","LIN":"2鄰","STREET":" ","SECT":" ","MAREA":"土庫","LANE":" ","ALLEY":" ","HOUSE_NO":"１２之５號","E_COORD97":183121.39000000001,"N_COORD97":2580015.7400000002,"ADDRESS":"土庫１２之５號","OBJECTID":285486},"geometry":{"x":183121.3900000006,"y":2580015.7400000021}},{"attributes":{"ID":285493,"DIS_CODE":0,"TOWNNAME":"永康區","LI":"東橋里","LIN":"20鄰","STREET":"中山南路","SECT":" ","MAREA":" ","LANE":"３６５巷","ALLEY":" ","HOUSE_NO":"２號之３７","E_COORD97":172757.29000000001,"N_COORD97":2547046.6400000001,"ADDRESS":"中山南路３６５巷２號之３７","OBJECTID":285487},"geometry":{"x":172757.29000000004,"y":2547046.6400000006}},{"attributes":{"ID":285494,"DIS_CODE":0,"TOWNNAME":"新營區","LI":"土庫里","LIN":"2鄰","STREET":" ","SECT":" ","MAREA":"土庫","LANE":" ","ALLEY":" ","HOUSE_NO":"１３號","E_COORD97":183128,"N_COORD97":2579994.6200000001,"ADDRESS":"土庫１３號","OBJECTID":285488},"geometry":{"x":183128.00000000093,"y":2579994.6200000029}},{"attributes":{"ID":285495,"DIS_CODE":0,"TOWNNAME":"新營區","LI":"埤寮里","LIN":"2鄰","STREET":" ","SECT":" ","MAREA":"許丑","LANE":" ","ALLEY":" ","HOUSE_NO":"２０號","E_COORD97":179979.79000000001,"N_COORD97":2581022.5,"ADDRESS":"許丑２０號","OBJECTID":285489},"geometry":{"x":179979.79000000097,"y":2581022.5}},{"attributes":{"ID":285496,"DIS_CODE":0,"TOWNNAME":"新化區","LI":"\u25A0拔里","LIN":"2鄰","STREET":" ","SECT":" ","MAREA":"\u25A0拔林","LANE":" ","ALLEY":" ","HOUSE_NO":"８０之１號","E_COORD97":183463.97,"N_COORD97":2552052.2599999998,"ADDRESS":"\u25A0拔林８０之１號","OBJECTID":285490},"geometry":{"x":183463.97000000067,"y":2552052.2600000016}},{"attributes":{"ID":285497,"DIS_CODE":0,"TOWNNAME":"新化區","LI":"\u25A0拔里","LIN":"2鄰","STREET":" ","SECT":" ","MAREA":"\u25A0拔林","LANE":" ","ALLEY":" ","HOUSE_NO":"８９號之１","E_COORD97":183192.39999999999,"N_COORD97":2552233.2599999998,"ADDRESS":"\u25A0拔林８９號之１","OBJECTID":285491},"geometry":{"x":183192.40000000037,"y":2552233.2599999998}},{"attributes":{"ID":285498,"DIS_CODE":0,"TOWNNAME":"永康區","LI":"大橋里","LIN":"12鄰","STREET":"大橋二街","SECT":" ","MAREA":" ","LANE":"１９９巷","ALLEY":" ","HOUSE_NO":"６號","E_COORD97":171011.01000000001,"N_COORD97":2546786.8799999999,"ADDRESS":"大橋二街１９９巷６號","OBJECTID":285492},"geometry":{"x":171011.00999999978,"y":2546786.8799999971}},{"attributes":{"ID":285499,"DIS_CODE":0,"TOWNNAME":"新化區","LI":"\u25A0拔里","LIN":"2鄰","STREET":" ","SECT":" ","MAREA":"\u25A0拔林","LANE":" ","ALLEY":" ","HOUSE_NO":"８７號之５","E_COORD97":183344.42999999999,"N_COORD97":2552116.2599999998,"ADDRESS":"\u25A0拔林８７號之５","OBJECTID":285493},"geometry":{"x":183344.4299999997,"y":2552116.2600000016}},{"attributes":{"ID":285500,"DIS_CODE":0,"TOWNNAME":"新化區","LI":"山\u25A0里","LIN":"2鄰","STREET":" ","SECT":" ","MAREA":"頂山\u25A0","LANE":" ","ALLEY":" ","HOUSE_NO":"６３號","E_COORD97":179454.57999999999,"N_COORD97":2546672.25,"ADDRESS":"頂山\u25A0６３號","OBJECTID":285494},"geometry":{"x":179454.58000000007,"y":2546672.25}},{"attributes":{"ID":285501,"DIS_CODE":0,"TOWNNAME":"新化區","LI":"大坑里","LIN":"2鄰","STREET":" ","SECT":" ","MAREA":"大坑尾","LANE":" ","ALLEY":" ","HOUSE_NO":"８９號","E_COORD97":187436.98000000001,"N_COORD97":2545470.25,"ADDRESS":"大坑尾８９號","OBJECTID":285495},"geometry":{"x":187436.98000000045,"y":2545470.2500000037}},{"attributes":{"ID":285502,"DIS_CODE":0,"TOWNNAME":"永康區","LI":"五王里","LIN":"12鄰","STREET":"中山東路","SECT":" ","MAREA":" ","LANE":"２１８巷","ALLEY":" ","HOUSE_NO":"１８號","E_COORD97":171730.01000000001,"N_COORD97":2545742.3999999999,"ADDRESS":"中山東路２１８巷１８號","OBJECTID":285496},"geometry":{"x":171730.00999999978,"y":2545742.4000000022}},{"attributes":{"ID":285503,"DIS_CODE":0,"TOWNNAME":"新化區","LI":"山\u25A0里","LIN":"2鄰","STREET":" ","SECT":" ","MAREA":"頂山\u25A0","LANE":" ","ALLEY":" ","HOUSE_NO":"６５號之４","E_COORD97":179429.60999999999,"N_COORD97":2546572.2599999998,"ADDRESS":"頂山\u25A0６５號之４","OBJECTID":285497},"geometry":{"x":179429.61000000034,"y":2546572.2600000016}},{"attributes":{"ID":285504,"DIS_CODE":0,"TOWNNAME":"永康區","LI":"大灣里","LIN":"12鄰","STREET":"大民街","SECT":" ","MAREA":" ","LANE":"５８巷","ALLEY":" ","HOUSE_NO":"１８號","E_COORD97":174893.79999999999,"N_COORD97":2545359,"ADDRESS":"大民街５８巷１８號","OBJECTID":285498},"geometry":{"x":174893.80000000075,"y":2545359}},{"attributes":{"ID":285505,"DIS_CODE":0,"TOWNNAME":"永康區","LI":"復國里","LIN":"12鄰","STREET":"復國二路","SECT":" ","MAREA":" ","LANE":"１１４巷","ALLEY":" ","HOUSE_NO":"５號","E_COORD97":172886.13,"N_COORD97":2545447.02,"ADDRESS":"復國二路１１４巷５號","OBJECTID":285499},"geometry":{"x":172886.13000000082,"y":2545447.0199999996}},{"attributes":{"ID":285506,"DIS_CODE":0,"TOWNNAME":"永康區","LI":"復國里","LIN":"12鄰","STREET":"復國二路","SECT":" ","MAREA":" ","LANE":"１１４巷","ALLEY":" ","HOUSE_NO":"８號","E_COORD97":172895.62,"N_COORD97":2545434.02,"ADDRESS":"復國二路１１４巷８號","OBJECTID":285500},"geometry":{"x":172895.62000000011,"y":2545434.0200000033}},{"attributes":{"ID":285507,"DIS_CODE":0,"TOWNNAME":"永康區","LI":"復國里","LIN":"12鄰","STREET":"復國二路","SECT":" ","MAREA":" ","LANE":"１１８巷","ALLEY":" ","HOUSE_NO":"２號","E_COORD97":172882.07000000001,"N_COORD97":2545465.0499999998,"ADDRESS":"復國二路１１８巷２號","OBJECTID":285501},"geometry":{"x":172882.07000000123,"y":2545465.0500000007}},{"attributes":{"ID":285508,"DIS_CODE":0,"TOWNNAME":"永康區","LI":"復國里","LIN":"12鄰","STREET":"復國二路","SECT":" ","MAREA":" ","LANE":"１１０巷","ALLEY":" ","HOUSE_NO":"１１號","E_COORD97":172900.95000000001,"N_COORD97":2545415.7799999998,"ADDRESS":"復國二路１１０巷１１號","OBJECTID":285502},"geometry":{"x":172900.94999999925,"y":2545415.7800000012}},{"attributes":{"ID":285509,"DIS_CODE":0,"TOWNNAME":"永康區","LI":"復華里","LIN":"12鄰","STREET":"國華街","SECT":" ","MAREA":" ","LANE":"１００巷","ALLEY":" ","HOUSE_NO":"２２號","E_COORD97":172901.12,"N_COORD97":2546026.25,"ADDRESS":"國華街１００巷２２號","OBJECTID":285503},"geometry":{"x":172901.12000000011,"y":2546026.2500000037}},{"attributes":{"ID":285510,"DIS_CODE":0,"TOWNNAME":"永康區","LI":"埔園里","LIN":"13鄰","STREET":"中山路","SECT":" ","MAREA":" ","LANE":"２０７巷","ALLEY":" ","HOUSE_NO":"１４號","E_COORD97":173617.79000000001,"N_COORD97":2548125.2400000002,"ADDRESS":"中山路２０７巷１４號","OBJECTID":285504},"geometry":{"x":173617.79000000097,"y":2548125.2400000039}},{"attributes":{"ID":285511,"DIS_CODE":0,"TOWNNAME":"永康區","LI":"埔園里","LIN":"13鄰","STREET":"中山路","SECT":" ","MAREA":" ","LANE":"２０７巷","ALLEY":" ","HOUSE_NO":"３１號","E_COORD97":173598.19,"N_COORD97":2548112.98,"ADDRESS":"中山路２０７巷３１號","OBJECTID":285505},"geometry":{"x":173598.19000000227,"y":2548112.9800000004}},{"attributes":{"ID":285512,"DIS_CODE":0,"TOWNNAME":"新化區","LI":"山\u25A0里","LIN":"2鄰","STREET":" ","SECT":" ","MAREA":"頂山\u25A0","LANE":" ","ALLEY":" ","HOUSE_NO":"５４號之１０５","E_COORD97":179218.84,"N_COORD97":2546144.2599999998,"ADDRESS":"頂山\u25A0５４號之１０５","OBJECTID":285506},"geometry":{"x":179218.83999999985,"y":2546144.2599999998}},{"attributes":{"ID":285513,"DIS_CODE":0,"TOWNNAME":"南區","LI":"文南里","LIN":"2鄰","STREET":"文南路","SECT":" ","MAREA":" ","LANE":" ","ALLEY":" ","HOUSE_NO":"１１０號","E_COORD97":166959.89000000001,"N_COORD97":2542835.52,"ADDRESS":"文南路１１０號","OBJECTID":285507},"geometry":{"x":166959.8900000006,"y":2542835.5199999996}},{"attributes":{"ID":285514,"DIS_CODE":0,"TOWNNAME":"南區","LI":"文華里","LIN":"2鄰","STREET":"金華路","SECT":"二段","MAREA":" ","LANE":" ","ALLEY":" ","HOUSE_NO":"４４７號","E_COORD97":167144.79000000001,"N_COORD97":2543164.0899999999,"ADDRESS":"金華路二段４４７號","OBJECTID":285508},"geometry":{"x":167144.79000000004,"y":2543164.0899999999}},{"attributes":{"ID":285515,"DIS_CODE":0,"TOWNNAME":"永康區","LI":"復國里","LIN":"12鄰","STREET":"復國二路","SECT":" ","MAREA":" ","LANE":"１０６巷","ALLEY":" ","HOUSE_NO":"１號","E_COORD97":172864.92999999999,"N_COORD97":2545351.27,"ADDRESS":"復國二路１０６巷１號","OBJECTID":285509},"geometry":{"x":172864.92999999877,"y":2545351.2700000014}},{"attributes":{"ID":285516,"DIS_CODE":0,"TOWNNAME":"仁德區","LI":"田厝里","LIN":"12鄰","STREET":"田厝二街","SECT":" ","MAREA":" ","LANE":"９０巷","ALLEY":" ","HOUSE_NO":"７號","E_COORD97":172339.60999999999,"N_COORD97":2537747.5,"ADDRESS":"田厝二街９０巷７號","OBJECTID":285510},"geometry":{"x":172339.61000000127,"y":2537747.5}},{"attributes":{"ID":285517,"DIS_CODE":0,"TOWNNAME":"仁德區","LI":"仁德里","LIN":"12鄰","STREET":"四維街","SECT":" ","MAREA":" ","LANE":"３１巷","ALLEY":" ","HOUSE_NO":"８號","E_COORD97":173213.26999999999,"N_COORD97":2541490.9900000002,"ADDRESS":"四維街３１巷８號","OBJECTID":285511},"geometry":{"x":173213.26999999955,"y":2541490.9900000002}},{"attributes":{"ID":285518,"DIS_CODE":0,"TOWNNAME":"仁德區","LI":"仁義里","LIN":"12鄰","STREET":"中山路","SECT":" ","MAREA":" ","LANE":"１０巷","ALLEY":" ","HOUSE_NO":"６１號","E_COORD97":175110.87,"N_COORD97":2541331,"ADDRESS":"中山路１０巷６１號","OBJECTID":285512},"geometry":{"x":175110.87000000104,"y":2541331}},{"attributes":{"ID":285519,"DIS_CODE":0,"TOWNNAME":"仁德區","LI":"仁義里","LIN":"12鄰","STREET":"中山路","SECT":" ","MAREA":" ","LANE":"１０巷","ALLEY":" ","HOUSE_NO":"６７號","E_COORD97":175111.32000000001,"N_COORD97":2541344,"ADDRESS":"中山路１０巷６７號","OBJECTID":285513},"geometry":{"x":175111.32000000123,"y":2541344.0000000019}},{"attributes":{"ID":285520,"DIS_CODE":0,"TOWNNAME":"仁德區","LI":"田厝里","LIN":"12鄰","STREET":"田厝二街","SECT":" ","MAREA":" ","LANE":"９０巷","ALLEY":" ","HOUSE_NO":"３之１號","E_COORD97":172333.23999999999,"N_COORD97":2537718.5499999998,"ADDRESS":"田厝二街９０巷３之１號","OBJECTID":285514},"geometry":{"x":172333.24000000115,"y":2537718.5500000045}},{"attributes":{"ID":285521,"DIS_CODE":0,"TOWNNAME":"新市區","LI":"三舍里","LIN":"2鄰","STREET":" ","SECT":" ","MAREA":"三舍","LANE":" ","ALLEY":" ","HOUSE_NO":"５１號","E_COORD97":178027.29000000001,"N_COORD97":2554327.9900000002,"ADDRESS":"三舍５１號","OBJECTID":285515},"geometry":{"x":178027.29000000097,"y":2554327.9900000039}},{"attributes":{"ID":285522,"DIS_CODE":0,"TOWNNAME":"永康區","LI":"埔園里","LIN":"5鄰","STREET":"中山路","SECT":" ","MAREA":" ","LANE":"１５８巷","ALLEY":" ","HOUSE_NO":"１２號","E_COORD97":173815.32000000001,"N_COORD97":2547809.4900000002,"ADDRESS":"中山路１５８巷１２號","OBJECTID":285516},"geometry":{"x":173815.3200000003,"y":2547809.4900000021}},{"attributes":{"ID":285523,"DIS_CODE":0,"TOWNNAME":"永康區","LI":"烏竹里","LIN":"1鄰","STREET":"烏竹街","SECT":" ","MAREA":" ","LANE":"１５２巷","ALLEY":" ","HOUSE_NO":"１號","E_COORD97":174396.38,"N_COORD97":2549507.2400000002,"ADDRESS":"烏竹街１５２巷１號","OBJECTID":285517},"geometry":{"x":174396.38000000175,"y":2549507.2400000002}},{"attributes":{"ID":285524,"DIS_CODE":0,"TOWNNAME":"中西區","LI":"光賢里","LIN":"12鄰","STREET":"和善街","SECT":" ","MAREA":" ","LANE":"１２５巷","ALLEY":" ","HOUSE_NO":"３６號","E_COORD97":166809.87,"N_COORD97":2544759.8500000001,"ADDRESS":"和善街１２５巷３６號","OBJECTID":285518},"geometry":{"x":166809.87000000011,"y":2544759.8499999996}},{"attributes":{"ID":285525,"DIS_CODE":0,"TOWNNAME":"中西區","LI":"光賢里","LIN":"12鄰","STREET":"和善街","SECT":" ","MAREA":" ","LANE":"１２５巷","ALLEY":" ","HOUSE_NO":"３８號","E_COORD97":166801.48999999999,"N_COORD97":2544760.1000000001,"ADDRESS":"和善街１２５巷３８號","OBJECTID":285519},"geometry":{"x":166801.49000000209,"y":2544760.1000000015}},{"attributes":{"ID":285526,"DIS_CODE":0,"TOWNNAME":"中西區","LI":"光賢里","LIN":"12鄰","STREET":"中華西路","SECT":"二段","MAREA":" ","LANE":"５５０巷","ALLEY":" ","HOUSE_NO":"３２號","E_COORD97":166748.03,"N_COORD97":2544740.5800000001,"ADDRESS":"中華西路二段５５０巷３２號","OBJECTID":285520},"geometry":{"x":166748.03000000026,"y":2544740.5800000019}},{"attributes":{"ID":285527,"DIS_CODE":0,"TOWNNAME":"中西區","LI":"元安里","LIN":"2鄰","STREET":"國華街","SECT":"二段","MAREA":" ","LANE":" ","ALLEY":" ","HOUSE_NO":"１１號","E_COORD97":167594.60000000001,"N_COORD97":2543159.23,"ADDRESS":"國華街二段１１號","OBJECTID":285521},"geometry":{"x":167594.59999999963,"y":2543159.2300000023}},{"attributes":{"ID":285528,"DIS_CODE":0,"TOWNNAME":"中西區","LI":"元安里","LIN":"2鄰","STREET":"國華街","SECT":"二段","MAREA":" ","LANE":" ","ALLEY":" ","HOUSE_NO":"１３號","E_COORD97":167574.91,"N_COORD97":2543158.3700000001,"ADDRESS":"國華街二段１３號","OBJECTID":285522},"geometry":{"x":167574.90999999922,"y":2543158.3700000048}},{"attributes":{"ID":285529,"DIS_CODE":0,"TOWNNAME":"中西區","LI":"元安里","LIN":"2鄰","STREET":"國華街","SECT":"二段","MAREA":" ","LANE":" ","ALLEY":" ","HOUSE_NO":"１５號","E_COORD97":167574.79000000001,"N_COORD97":2543174.4900000002,"ADDRESS":"國華街二段１５號","OBJECTID":285523},"geometry":{"x":167574.79000000097,"y":2543174.4900000021}},{"attributes":{"ID":285530,"DIS_CODE":0,"TOWNNAME":"中西區","LI":"元安里","LIN":"2鄰","STREET":"國華街","SECT":"二段","MAREA":" ","LANE":" ","ALLEY":" ","HOUSE_NO":"１７號","E_COORD97":167592.39999999999,"N_COORD97":2543175.1000000001,"ADDRESS":"國華街二段１７號","OBJECTID":285524},"geometry":{"x":167592.4000000013,"y":2543175.0999999996}},{"attributes":{"ID":285531,"DIS_CODE":0,"TOWNNAME":"中西區","LI":"大涼里","LIN":"2鄰","STREET":"尊王路","SECT":" ","MAREA":" ","LANE":" ","ALLEY":" ","HOUSE_NO":"１７２號","E_COORD97":167216.20000000001,"N_COORD97":2543672.8799999999,"ADDRESS":"尊王路１７２號","OBJECTID":285525},"geometry":{"x":167216.20000000112,"y":2543672.8800000008}},{"attributes":{"ID":285532,"DIS_CODE":0,"TOWNNAME":"安南區","LI":"海佃里","LIN":"2鄰","STREET":"國安街","SECT":" ","MAREA":" ","LANE":" ","ALLEY":" ","HOUSE_NO":"６４號","E_COORD97":166979.45000000001,"N_COORD97":2547019.29,"ADDRESS":"國安街６４號","OBJECTID":285526},"geometry":{"x":166979.45000000019,"y":2547019.290000001}},{"attributes":{"ID":285533,"DIS_CODE":0,"TOWNNAME":"安南區","LI":"海佃里","LIN":"2鄰","STREET":"國安街","SECT":" ","MAREA":" ","LANE":" ","ALLEY":" ","HOUSE_NO":"６０號","E_COORD97":166988.29999999999,"N_COORD97":2547020.9500000002,"ADDRESS":"國安街６０號","OBJECTID":285527},"geometry":{"x":166988.29999999981,"y":2547020.950000003}},{"attributes":{"ID":285534,"DIS_CODE":0,"TOWNNAME":"中西區","LI":"光賢里","LIN":"12鄰","STREET":"中華西路","SECT":"二段","MAREA":" ","LANE":"５５０巷","ALLEY":" ","HOUSE_NO":"３６號","E_COORD97":166753.10999999999,"N_COORD97":2544740.4100000001,"ADDRESS":"中華西路二段５５０巷３６號","OBJECTID":285528},"geometry":{"x":166753.11000000034,"y":2544740.4100000039}},{"attributes":{"ID":285535,"DIS_CODE":0,"TOWNNAME":"東區","LI":"東智里","LIN":"12鄰","STREET":"德東街","SECT":" ","MAREA":" ","LANE":"１６巷","ALLEY":" ","HOUSE_NO":"２４號","E_COORD97":170827.64000000001,"N_COORD97":2540131,"ADDRESS":"德東街１６巷２４號","OBJECTID":285529},"geometry":{"x":170827.64000000153,"y":2540131}},{"attributes":{"ID":285536,"DIS_CODE":0,"TOWNNAME":"東區","LI":"東智里","LIN":"12鄰","STREET":"德東街","SECT":" ","MAREA":" ","LANE":"１６巷","ALLEY":" ","HOUSE_NO":"２６號","E_COORD97":170827.20999999999,"N_COORD97":2540126.6200000001,"ADDRESS":"德東街１６巷２６號","OBJECTID":285530},"geometry":{"x":170827.20999999996,"y":2540126.6200000029}},{"attributes":{"ID":285537,"DIS_CODE":0,"TOWNNAME":"東區","LI":"東智里","LIN":"12鄰","STREET":"德東街","SECT":" ","MAREA":" ","LANE":"１６巷","ALLEY":" ","HOUSE_NO":"３２號","E_COORD97":170824.51999999999,"N_COORD97":2540113.3199999998,"ADDRESS":"德東街１６巷３２號","OBJECTID":285531},"geometry":{"x":170824.51999999955,"y":2540113.320000004}},{"attributes":{"ID":285538,"DIS_CODE":0,"TOWNNAME":"永康區","LI":"大灣里","LIN":"12鄰","STREET":"民族路","SECT":" ","MAREA":" ","LANE":"３９６巷","ALLEY":" ","HOUSE_NO":"２號","E_COORD97":174776.28,"N_COORD97":2545383.1000000001,"ADDRESS":"民族路３９６巷２號","OBJECTID":285532},"geometry":{"x":174776.28000000119,"y":2545383.1000000015}},{"attributes":{"ID":285539,"DIS_CODE":0,"TOWNNAME":"永康區","LI":"王行里","LIN":"12鄰","STREET":"王行路","SECT":" ","MAREA":" ","LANE":"８６６巷","ALLEY":" ","HOUSE_NO":"４６號","E_COORD97":175958.31,"N_COORD97":2549891.2400000002,"ADDRESS":"王行路８６６巷４６號","OBJECTID":285533},"geometry":{"x":175958.31000000052,"y":2549891.2400000002}},{"attributes":{"ID":285540,"DIS_CODE":0,"TOWNNAME":"永康區","LI":"王行里","LIN":"12鄰","STREET":"王行路","SECT":" ","MAREA":" ","LANE":"８９８巷","ALLEY":" ","HOUSE_NO":"４９號","E_COORD97":175960.98000000001,"N_COORD97":2550071.54,"ADDRESS":"王行路８９８巷４９號","OBJECTID":285534},"geometry":{"x":175960.98000000231,"y":2550071.5400000028}},{"attributes":{"ID":285541,"DIS_CODE":0,"TOWNNAME":"永康區","LI":"王行里","LIN":"12鄰","STREET":"王行路","SECT":" ","MAREA":" ","LANE":"８９８巷","ALLEY":" ","HOUSE_NO":"６１號","E_COORD97":175961.04999999999,"N_COORD97":2550099.3799999999,"ADDRESS":"王行路８９８巷６１號","OBJECTID":285535},"geometry":{"x":175961.04999999981,"y":2550099.3799999971}},{"attributes":{"ID":285542,"DIS_CODE":0,"TOWNNAME":"永康區","LI":"王行里","LIN":"12鄰","STREET":"王行路","SECT":" ","MAREA":" ","LANE":"８６６巷","ALLEY":" ","HOUSE_NO":"２７號","E_COORD97":175962.26000000001,"N_COORD97":2549921.7400000002,"ADDRESS":"王行路８６６巷２７號","OBJECTID":285536},"geometry":{"x":175962.26000000071,"y":2549921.7400000002}},{"attributes":{"ID":285543,"DIS_CODE":0,"TOWNNAME":"永康區","LI":"王行里","LIN":"12鄰","STREET":"王行路","SECT":" ","MAREA":" ","LANE":"８６６巷","ALLEY":" ","HOUSE_NO":"３１號","E_COORD97":175984.82999999999,"N_COORD97":2549884.9900000002,"ADDRESS":"王行路８６６巷３１號","OBJECTID":285537},"geometry":{"x":175984.83000000007,"y":2549884.9900000002}},{"attributes":{"ID":285544,"DIS_CODE":0,"TOWNNAME":"永康區","LI":"中興里","LIN":"12鄰","STREET":"中興街","SECT":" ","MAREA":" ","LANE":"３５巷","ALLEY":" ","HOUSE_NO":"２號","E_COORD97":172076.20999999999,"N_COORD97":2545200,"ADDRESS":"中興街３５巷２號","OBJECTID":285538},"geometry":{"x":172076.20999999996,"y":2545200}},{"attributes":{"ID":285545,"DIS_CODE":0,"TOWNNAME":"永康區","LI":"中興里","LIN":"12鄰","STREET":"中興街","SECT":" ","MAREA":" ","LANE":"４５巷","ALLEY":" ","HOUSE_NO":"５號","E_COORD97":172058.45000000001,"N_COORD97":2545213.4900000002,"ADDRESS":"中興街４５巷５號","OBJECTID":285539},"geometry":{"x":172058.44999999925,"y":2545213.4900000002}},{"attributes":{"ID":285546,"DIS_CODE":0,"TOWNNAME":"永康區","LI":"王行里","LIN":"12鄰","STREET":"王行路","SECT":" ","MAREA":" ","LANE":"８６６巷","ALLEY":" ","HOUSE_NO":"５６號之１","E_COORD97":175979.98999999999,"N_COORD97":2549841.8700000001,"ADDRESS":"王行路８６６巷５６號之１","OBJECTID":285540},"geometry":{"x":175979.99000000115,"y":2549841.8700000029}},{"attributes":{"ID":285547,"DIS_CODE":0,"TOWNNAME":"永康區","LI":"南灣里","LIN":"2鄰","STREET":"大灣一街","SECT":" ","MAREA":" ","LANE":" ","ALLEY":" ","HOUSE_NO":"１４９號","E_COORD97":174677.51999999999,"N_COORD97":2544631.7000000002,"ADDRESS":"大灣一街１４９號","OBJECTID":285541},"geometry":{"x":174677.51999999955,"y":2544631.6999999993}},{"attributes":{"ID":285548,"DIS_CODE":0,"TOWNNAME":"永康區","LI":"王行里","LIN":"12鄰","STREET":"王行路","SECT":" ","MAREA":" ","LANE":"８９８巷","ALLEY":" ","HOUSE_NO":"７２號","E_COORD97":175994.62,"N_COORD97":2550168.1200000001,"ADDRESS":"王行路８９８巷７２號","OBJECTID":285542},"geometry":{"x":175994.62000000011,"y":2550168.1200000048}},{"attributes":{"ID":285549,"DIS_CODE":0,"TOWNNAME":"永康區","LI":"王行里","LIN":"12鄰","STREET":"王行路","SECT":" ","MAREA":" ","LANE":"８９８巷","ALLEY":" ","HOUSE_NO":"４５號","E_COORD97":175927.82000000001,"N_COORD97":2550064,"ADDRESS":"王行路８９８巷４５號","OBJECTID":285543},"geometry":{"x":175927.81999999937,"y":2550064.0000000019}},{"attributes":{"ID":285550,"DIS_CODE":0,"TOWNNAME":"南區","LI":"明亮里","LIN":"2鄰","STREET":"新都路","SECT":" ","MAREA":" ","LANE":" ","ALLEY":" ","HOUSE_NO":"５４６號","E_COORD97":167101.76999999999,"N_COORD97":2540888.8100000001,"ADDRESS":"新都路５４６號","OBJECTID":285544},"geometry":{"x":167101.76999999955,"y":2540888.8100000005}},{"attributes":{"ID":285551,"DIS_CODE":0,"TOWNNAME":"南區","LI":"明亮里","LIN":"2鄰","STREET":"新都路","SECT":" ","MAREA":" ","LANE":" ","ALLEY":" ","HOUSE_NO":"５７６號","E_COORD97":167009.39999999999,"N_COORD97":2540895.5,"ADDRESS":"新都路５７６號","OBJECTID":285545},"geometry":{"x":167009.4000000013,"y":2540895.5000000019}},{"attributes":{"ID":285552,"DIS_CODE":0,"TOWNNAME":"南區","LI":"明亮里","LIN":"2鄰","STREET":"新都路","SECT":" ","MAREA":" ","LANE":" ","ALLEY":" ","HOUSE_NO":"５７８號","E_COORD97":167004.76999999999,"N_COORD97":2540895.79,"ADDRESS":"新都路５７８號","OBJECTID":285546},"geometry":{"x":167004.77000000048,"y":2540895.790000001}},{"attributes":{"ID":285553,"DIS_CODE":0,"TOWNNAME":"永康區","LI":"王行里","LIN":"12鄰","STREET":"王行路","SECT":" ","MAREA":" ","LANE":"７９０巷","ALLEY":" ","HOUSE_NO":"３１號","E_COORD97":175853.73999999999,"N_COORD97":2549725.9500000002,"ADDRESS":"王行路７９０巷３１號","OBJECTID":285547},"geometry":{"x":175853.73999999929,"y":2549725.9499999993}},{"attributes":{"ID":285554,"DIS_CODE":0,"TOWNNAME":"永康區","LI":"中興里","LIN":"12鄰","STREET":"中興街","SECT":" ","MAREA":" ","LANE":"４５巷","ALLEY":" ","HOUSE_NO":"３號","E_COORD97":172064.38,"N_COORD97":2545214.7400000002,"ADDRESS":"中興街４５巷３號","OBJECTID":285548},"geometry":{"x":172064.38000000082,"y":2545214.7400000002}},{"attributes":{"ID":285555,"DIS_CODE":0,"TOWNNAME":"永康區","LI":"復國里","LIN":"12鄰","STREET":"復國二路","SECT":" ","MAREA":" ","LANE":"１１８巷","ALLEY":" ","HOUSE_NO":"６號","E_COORD97":172893.37,"N_COORD97":2545463.7999999998,"ADDRESS":"復國二路１１８巷６號","OBJECTID":285549},"geometry":{"x":172893.37000000104,"y":2545463.8000000045}},{"attributes":{"ID":285556,"DIS_CODE":0,"TOWNNAME":"永康區","LI":"復國里","LIN":"12鄰","STREET":"復國二路","SECT":" ","MAREA":" ","LANE":"１０６巷","ALLEY":" ","HOUSE_NO":"３號","E_COORD97":172869.14999999999,"N_COORD97":2545351.02,"ADDRESS":"復國二路１０６巷３號","OBJECTID":285550},"geometry":{"x":172869.15000000037,"y":2545351.0199999996}},{"attributes":{"ID":285557,"DIS_CODE":0,"TOWNNAME":"永康區","LI":"復國里","LIN":"12鄰","STREET":"復國二路","SECT":" ","MAREA":" ","LANE":"１０８巷","ALLEY":" ","HOUSE_NO":"８號","E_COORD97":172887.16,"N_COORD97":2545374.2799999998,"ADDRESS":"復國二路１０８巷８號","OBJECTID":285551},"geometry":{"x":172887.16000000015,"y":2545374.2800000031}},{"attributes":{"ID":285558,"DIS_CODE":0,"TOWNNAME":"永康區","LI":"復華里","LIN":"12鄰","STREET":"國華街","SECT":" ","MAREA":" ","LANE":"１００巷","ALLEY":" ","HOUSE_NO":"１８號","E_COORD97":172887.89999999999,"N_COORD97":2546012.75,"ADDRESS":"國華街１００巷１８號","OBJECTID":285552},"geometry":{"x":172887.89999999944,"y":2546012.7500000037}},{"attributes":{"ID":285559,"DIS_CODE":0,"TOWNNAME":"永康區","LI":"復國里","LIN":"12鄰","STREET":"復國二路","SECT":" ","MAREA":" ","LANE":"１１４巷","ALLEY":" ","HOUSE_NO":"１號","E_COORD97":172874.92000000001,"N_COORD97":2545448.02,"ADDRESS":"復國二路１１４巷１號","OBJECTID":285553},"geometry":{"x":172874.91999999993,"y":2545448.0200000014}},{"attributes":{"ID":285560,"DIS_CODE":0,"TOWNNAME":"永康區","LI":"復華里","LIN":"12鄰","STREET":"國華街","SECT":" ","MAREA":" ","LANE":"１００巷","ALLEY":" ","HOUSE_NO":"１２號","E_COORD97":172885.09,"N_COORD97":2545995,"ADDRESS":"國華街１００巷１２號","OBJECTID":285554},"geometry":{"x":172885.09000000078,"y":2545995.0000000019}},{"attributes":{"ID":285561,"DIS_CODE":0,"TOWNNAME":"永康區","LI":"復華里","LIN":"12鄰","STREET":"國華街","SECT":" ","MAREA":" ","LANE":"１００巷","ALLEY":" ","HOUSE_NO":"１０號","E_COORD97":172876.20000000001,"N_COORD97":2545995.75,"ADDRESS":"國華街１００巷１０號","OBJECTID":285555},"geometry":{"x":172876.20000000112,"y":2545995.7500000037}},{"attributes":{"ID":285562,"DIS_CODE":0,"TOWNNAME":"永康區","LI":"復華里","LIN":"12鄰","STREET":"國華街","SECT":" ","MAREA":" ","LANE":"１００巷","ALLEY":" ","HOUSE_NO":"１３號","E_COORD97":172889.89000000001,"N_COORD97":2545995.75,"ADDRESS":"國華街１００巷１３號","OBJECTID":285556},"geometry":{"x":172889.88999999966,"y":2545995.7500000037}},{"attributes":{"ID":285563,"DIS_CODE":0,"TOWNNAME":"永康區","LI":"埔園里","LIN":"2鄰","STREET":"永埔街","SECT":" ","MAREA":" ","LANE":" ","ALLEY":" ","HOUSE_NO":"８５號","E_COORD97":173941.89999999999,"N_COORD97":2547725.4900000002,"ADDRESS":"永埔街８５號","OBJECTID":285557},"geometry":{"x":173941.90000000037,"y":2547725.4900000002}},{"attributes":{"ID":285564,"DIS_CODE":0,"TOWNNAME":"中西區","LI":"法華里","LIN":"2鄰","STREET":"府連路","SECT":" ","MAREA":" ","LANE":" ","ALLEY":" ","HOUSE_NO":"１０６號","E_COORD97":169054.14999999999,"N_COORD97":2542673.6899999999,"ADDRESS":"府連路１０６號","OBJECTID":285558},"geometry":{"x":169054.1500000013,"y":2542673.6900000013}},{"attributes":{"ID":285565,"DIS_CODE":0,"TOWNNAME":"永康區","LI":"復華里","LIN":"12鄰","STREET":"國華街","SECT":" ","MAREA":" ","LANE":"１００巷","ALLEY":" ","HOUSE_NO":"８號","E_COORD97":172865.79000000001,"N_COORD97":2545995,"ADDRESS":"國華街１００巷８號","OBJECTID":285559},"geometry":{"x":172865.79000000004,"y":2545995.0000000019}},{"attributes":{"ID":285566,"DIS_CODE":0,"TOWNNAME":"永康區","LI":"復華里","LIN":"12鄰","STREET":"國華街","SECT":" ","MAREA":" ","LANE":"９８巷","ALLEY":" ","HOUSE_NO":"１９號","E_COORD97":172882.64999999999,"N_COORD97":2545972.7400000002,"ADDRESS":"國華街９８巷１９號","OBJECTID":285560},"geometry":{"x":172882.65000000037,"y":2545972.7400000021}},{"attributes":{"ID":285567,"DIS_CODE":0,"TOWNNAME":"永康區","LI":"復國里","LIN":"12鄰","STREET":"復國二路","SECT":" ","MAREA":" ","LANE":"１０６巷","ALLEY":" ","HOUSE_NO":"６號","E_COORD97":172882.29000000001,"N_COORD97":2545337.77,"ADDRESS":"復國二路１０６巷６號","OBJECTID":285561},"geometry":{"x":172882.29000000097,"y":2545337.7700000014}},{"attributes":{"ID":285568,"DIS_CODE":0,"TOWNNAME":"安南區","LI":"安富里","LIN":"12鄰","STREET":"安富街","SECT":" ","MAREA":" ","LANE":"２５１巷","ALLEY":" ","HOUSE_NO":"２３號","E_COORD97":167555.82000000001,"N_COORD97":2547380.96,"ADDRESS":"安富街２５１巷２３號","OBJECTID":285562},"geometry":{"x":167555.82000000123,"y":2547380.9600000009}},{"attributes":{"ID":285569,"DIS_CODE":0,"TOWNNAME":"白河區","LI":"草店里","LIN":"9鄰","STREET":" ","SECT":" ","MAREA":"草店","LANE":" ","ALLEY":" ","HOUSE_NO":"１０８號","E_COORD97":191108.798668,"N_COORD97":2588177.8333000001,"ADDRESS":"草店１０８號","OBJECTID":285563},"geometry":{"x":191108.79866800178,"y":2588177.8333030008}},{"attributes":{"ID":285570,"DIS_CODE":0,"TOWNNAME":"善化區","LI":"牛庄里","LIN":"2鄰","STREET":" ","SECT":" ","MAREA":"牛庄","LANE":" ","ALLEY":" ","HOUSE_NO":"２７之１０號","E_COORD97":180443.38,"N_COORD97":2559826.52,"ADDRESS":"牛庄２７之１０號","OBJECTID":285564},"geometry":{"x":180443.38000000082,"y":2559826.5200000014}},{"attributes":{"ID":285571,"DIS_CODE":0,"TOWNNAME":"安南區","LI":"安富里","LIN":"12鄰","STREET":"安富街","SECT":" ","MAREA":" ","LANE":"２５１巷","ALLEY":" ","HOUSE_NO":"２５號","E_COORD97":167556.42000000001,"N_COORD97":2547377.3599999999,"ADDRESS":"安富街２５１巷２５號","OBJECTID":285565},"geometry":{"x":167556.42000000086,"y":2547377.3599999994}},{"attributes":{"ID":285572,"DIS_CODE":0,"TOWNNAME":"安南區","LI":"安富里","LIN":"12鄰","STREET":"安富街","SECT":" ","MAREA":" ","LANE":"２５１巷","ALLEY":" ","HOUSE_NO":"２６號","E_COORD97":167534.69,"N_COORD97":2547371.9500000002,"ADDRESS":"安富街２５１巷２６號","OBJECTID":285566},"geometry":{"x":167534.69000000134,"y":2547371.9499999993}},{"attributes":{"ID":285573,"DIS_CODE":0,"TOWNNAME":"安南區","LI":"安富里","LIN":"12鄰","STREET":"安富街","SECT":" ","MAREA":" ","LANE":"２５１巷","ALLEY":" ","HOUSE_NO":"２７號","E_COORD97":167557.32000000001,"N_COORD97":2547374.0499999998,"ADDRESS":"安富街２５１巷２７號","OBJECTID":285567},"geometry":{"x":167557.32000000123,"y":2547374.0500000007}},{"attributes":{"ID":285574,"DIS_CODE":0,"TOWNNAME":"安南區","LI":"溪心里","LIN":"12鄰","STREET":"海佃路","SECT":"二段","MAREA":" ","LANE":"６１８巷","ALLEY":" ","HOUSE_NO":"５號","E_COORD97":166688.42999999999,"N_COORD97":2549317.5,"ADDRESS":"海佃路二段６１８巷５號","OBJECTID":285568},"geometry":{"x":166688.43000000063,"y":2549317.5000000019}},{"attributes":{"ID":285575,"DIS_CODE":0,"TOWNNAME":"安南區","LI":"安富里","LIN":"12鄰","STREET":"安富街","SECT":" ","MAREA":" ","LANE":"２５１巷","ALLEY":" ","HOUSE_NO":"３０號","E_COORD97":167532.57999999999,"N_COORD97":2547360.54,"ADDRESS":"安富街２５１巷３０號","OBJECTID":285569},"geometry":{"x":167532.58000000007,"y":2547360.540000001}},{"attributes":{"ID":285576,"DIS_CODE":0,"TOWNNAME":"安南區","LI":"安富里","LIN":"12鄰","STREET":"安富街","SECT":" ","MAREA":" ","LANE":"２５１巷","ALLEY":" ","HOUSE_NO":"３４號","E_COORD97":167533.78,"N_COORD97":2547352.1299999999,"ADDRESS":"安富街２５１巷３４號","OBJECTID":285570},"geometry":{"x":167533.78000000119,"y":2547352.1300000008}},{"attributes":{"ID":285577,"DIS_CODE":0,"TOWNNAME":"仁德區","LI":"二行里","LIN":"2鄰","STREET":"二行一路","SECT":" ","MAREA":" ","LANE":" ","ALLEY":" ","HOUSE_NO":"１９３號","E_COORD97":170514.54000000001,"N_COORD97":2535642,"ADDRESS":"二行一路１９３號","OBJECTID":285571},"geometry":{"x":170514.54000000004,"y":2535642}},{"attributes":{"ID":285578,"DIS_CODE":0,"TOWNNAME":"安南區","LI":"佃東里","LIN":"12鄰","STREET":"海佃路","SECT":"四段","MAREA":" ","LANE":"３８８巷","ALLEY":" ","HOUSE_NO":"１２０號","E_COORD97":165618.04999999999,"N_COORD97":2551810.3900000001,"ADDRESS":"海佃路四段３８８巷１２０號","OBJECTID":285572},"geometry":{"x":165618.05000000075,"y":2551810.3900000025}},{"attributes":{"ID":285579,"DIS_CODE":0,"TOWNNAME":"安南區","LI":"佃東里","LIN":"12鄰","STREET":"海佃路","SECT":"四段","MAREA":" ","LANE":"３８８巷","ALLEY":" ","HOUSE_NO":"１２２號","E_COORD97":165619.01999999999,"N_COORD97":2551815.23,"ADDRESS":"海佃路四段３８８巷１２２號","OBJECTID":285573},"geometry":{"x":165619.02000000142,"y":2551815.2300000023}},{"attributes":{"ID":285580,"DIS_CODE":0,"TOWNNAME":"安南區","LI":"鳳凰里","LIN":"12鄰","STREET":"安中路","SECT":"一段","MAREA":" ","LANE":"７００巷","ALLEY":" ","HOUSE_NO":"８７號之３","E_COORD97":167907.51000000001,"N_COORD97":2549274.3100000001,"ADDRESS":"安中路一段７００巷８７號之３","OBJECTID":285574},"geometry":{"x":167907.50999999978,"y":2549274.3100000042}},{"attributes":{"ID":285581,"DIS_CODE":0,"TOWNNAME":"安南區","LI":"梅花里","LIN":"12鄰","STREET":"安中路","SECT":"一段","MAREA":" ","LANE":"７０１巷","ALLEY":" ","HOUSE_NO":"６６號之１","E_COORD97":167405.39999999999,"N_COORD97":2549061.6499999999,"ADDRESS":"安中路一段７０１巷６６號之１","OBJECTID":285575},"geometry":{"x":167405.40000000037,"y":2549061.6500000041}},{"attributes":{"ID":285582,"DIS_CODE":0,"TOWNNAME":"仁德區","LI":"二行里","LIN":"2鄰","STREET":"二行一路","SECT":" ","MAREA":" ","LANE":" ","ALLEY":" ","HOUSE_NO":"１８１號","E_COORD97":170513.78,"N_COORD97":2535615.7400000002,"ADDRESS":"二行一路１８１號","OBJECTID":285576},"geometry":{"x":170513.78000000212,"y":2535615.7400000021}},{"attributes":{"ID":285583,"DIS_CODE":0,"TOWNNAME":"仁德區","LI":"仁愛里","LIN":"2鄰","STREET":" ","SECT":" ","MAREA":"仁愛","LANE":" ","ALLEY":" ","HOUSE_NO":"３２號","E_COORD97":170345.06849999999,"N_COORD97":2540124.4137900001,"ADDRESS":"仁愛３２號","OBJECTID":285577},"geometry":{"x":170345.06850000005,"y":2540124.4137910027}},{"attributes":{"ID":285584,"DIS_CODE":0,"TOWNNAME":"善化區","LI":"牛庄里","LIN":"2鄰","STREET":" ","SECT":" ","MAREA":"牛庄","LANE":" ","ALLEY":" ","HOUSE_NO":"２７號之４５","E_COORD97":180652.20999999999,"N_COORD97":2559817.77,"ADDRESS":"牛庄２７號之４５","OBJECTID":285578},"geometry":{"x":180652.20999999996,"y":2559817.7700000033}},{"attributes":{"ID":285585,"DIS_CODE":0,"TOWNNAME":"善化區","LI":"光文里","LIN":"2鄰","STREET":" ","SECT":" ","MAREA":"北子店","LANE":" ","ALLEY":" ","HOUSE_NO":"１９號","E_COORD97":179690.70000000001,"N_COORD97":2559690.75,"ADDRESS":"北子店１９號","OBJECTID":285579},"geometry":{"x":179690.70000000112,"y":2559690.7500000019}},{"attributes":{"ID":285586,"DIS_CODE":0,"TOWNNAME":"安南區","LI":"鳳凰里","LIN":"12鄰","STREET":"安中路","SECT":"一段","MAREA":" ","LANE":"７００巷","ALLEY":" ","HOUSE_NO":"９３號之１","E_COORD97":167930.32000000001,"N_COORD97":2549272.8500000001,"ADDRESS":"安中路一段７００巷９３號之１","OBJECTID":285580},"geometry":{"x":167930.32000000123,"y":2549272.8499999996}},{"attributes":{"ID":285587,"DIS_CODE":0,"TOWNNAME":"安南區","LI":"梅花里","LIN":"12鄰","STREET":"安中路","SECT":"一段","MAREA":" ","LANE":"７０１巷","ALLEY":" ","HOUSE_NO":"６２號","E_COORD97":167415.39999999999,"N_COORD97":2549071.4300000002,"ADDRESS":"安中路一段７０１巷６２號","OBJECTID":285581},"geometry":{"x":167415.40000000037,"y":2549071.4299999997}},{"attributes":{"ID":285588,"DIS_CODE":0,"TOWNNAME":"安南區","LI":"溪心里","LIN":"12鄰","STREET":"海佃路","SECT":"二段","MAREA":" ","LANE":"６１８巷","ALLEY":" ","HOUSE_NO":"１號","E_COORD97":166678.64999999999,"N_COORD97":2549319.27,"ADDRESS":"海佃路二段６１８巷１號","OBJECTID":285582},"geometry":{"x":166678.65000000224,"y":2549319.2700000014}},{"attributes":{"ID":285589,"DIS_CODE":0,"TOWNNAME":"安南區","LI":"溪心里","LIN":"12鄰","STREET":"海佃路","SECT":"二段","MAREA":" ","LANE":"６１８巷","ALLEY":" ","HOUSE_NO":"３號","E_COORD97":166683.22,"N_COORD97":2549316.9900000002,"ADDRESS":"海佃路二段６１８巷３號","OBJECTID":285583},"geometry":{"x":166683.22000000067,"y":2549316.9900000039}},{"attributes":{"ID":285590,"DIS_CODE":0,"TOWNNAME":"安南區","LI":"溪心里","LIN":"12鄰","STREET":"海佃路","SECT":"二段","MAREA":" ","LANE":"６１８巷","ALLEY":" ","HOUSE_NO":"７號","E_COORD97":166694.39999999999,"N_COORD97":2549317.5,"ADDRESS":"海佃路二段６１８巷７號","OBJECTID":285584},"geometry":{"x":166694.4000000013,"y":2549317.5000000019}},{"attributes":{"ID":285591,"DIS_CODE":0,"TOWNNAME":"安南區","LI":"溪心里","LIN":"12鄰","STREET":"海佃路","SECT":"二段","MAREA":" ","LANE":"６３６巷","ALLEY":" ","HOUSE_NO":"１０號","E_COORD97":166679.42000000001,"N_COORD97":2549363.75,"ADDRESS":"海佃路二段６３６巷１０號","OBJECTID":285585},"geometry":{"x":166679.41999999993,"y":2549363.7500000019}},{"attributes":{"ID":285592,"DIS_CODE":0,"TOWNNAME":"安南區","LI":"溪心里","LIN":"12鄰","STREET":"海佃路","SECT":"二段","MAREA":" ","LANE":"６３６巷","ALLEY":" ","HOUSE_NO":"１２號","E_COORD97":166683.88,"N_COORD97":2549365.3700000001,"ADDRESS":"海佃路二段６３６巷１２號","OBJECTID":285586},"geometry":{"x":166683.88000000082,"y":2549365.370000001}},{"attributes":{"ID":285593,"DIS_CODE":0,"TOWNNAME":"安南區","LI":"溪心里","LIN":"12鄰","STREET":"海佃路","SECT":"二段","MAREA":" ","LANE":"６３６巷","ALLEY":" ","HOUSE_NO":"１３號","E_COORD97":166659.84,"N_COORD97":2549384.7799999998,"ADDRESS":"海佃路二段６３６巷１３號","OBJECTID":285587},"geometry":{"x":166659.84000000171,"y":2549384.7799999993}},{"attributes":{"ID":285594,"DIS_CODE":0,"TOWNNAME":"新化區","LI":"山\u25A0里","LIN":"2鄰","STREET":" ","SECT":" ","MAREA":"頂山\u25A0","LANE":" ","ALLEY":" ","HOUSE_NO":"５９號之１","E_COORD97":179384.41,"N_COORD97":2546617.2599999998,"ADDRESS":"頂山\u25A0５９號之１","OBJECTID":285588},"geometry":{"x":179384.41000000108,"y":2546617.2600000016}},{"attributes":{"ID":285595,"DIS_CODE":0,"TOWNNAME":"安南區","LI":"溪心里","LIN":"12鄰","STREET":"海佃路","SECT":"二段","MAREA":" ","LANE":"６３６巷","ALLEY":" ","HOUSE_NO":"１４號","E_COORD97":166687.66,"N_COORD97":2549368.0699999998,"ADDRESS":"海佃路二段６３６巷１４號","OBJECTID":285589},"geometry":{"x":166687.66000000015,"y":2549368.0700000022}},{"attributes":{"ID":285596,"DIS_CODE":0,"TOWNNAME":"安南區","LI":"溪心里","LIN":"12鄰","STREET":"海佃路","SECT":"二段","MAREA":" ","LANE":"６３６巷","ALLEY":" ","HOUSE_NO":"１６號","E_COORD97":166690.89999999999,"N_COORD97":2549370.3599999999,"ADDRESS":"海佃路二段６３６巷１６號","OBJECTID":285590},"geometry":{"x":166690.9000000013,"y":2549370.3599999994}},{"attributes":{"ID":285597,"DIS_CODE":0,"TOWNNAME":"安南區","LI":"溪心里","LIN":"12鄰","STREET":"海佃路","SECT":"二段","MAREA":" ","LANE":"６３６巷","ALLEY":" ","HOUSE_NO":"１８號","E_COORD97":166694.82000000001,"N_COORD97":2549372.79,"ADDRESS":"海佃路二段６３６巷１８號","OBJECTID":285591},"geometry":{"x":166694.82000000123,"y":2549372.790000001}},{"attributes":{"ID":285598,"DIS_CODE":0,"TOWNNAME":"安南區","LI":"溪心里","LIN":"12鄰","STREET":"海佃路","SECT":"二段","MAREA":" ","LANE":"６３６巷","ALLEY":" ","HOUSE_NO":"２號","E_COORD97":166666.60000000001,"N_COORD97":2549352.96,"ADDRESS":"海佃路二段６３６巷２號","OBJECTID":285592},"geometry":{"x":166666.60000000056,"y":2549352.9600000028}},{"attributes":{"ID":285599,"DIS_CODE":0,"TOWNNAME":"新化區","LI":"大坑里","LIN":"2鄰","STREET":" ","SECT":" ","MAREA":"大坑尾","LANE":" ","ALLEY":" ","HOUSE_NO":"８８號","E_COORD97":187451.38,"N_COORD97":2545481.25,"ADDRESS":"大坑尾８８號","OBJECTID":285593},"geometry":{"x":187451.38000000082,"y":2545481.2500000019}},{"attributes":{"ID":285600,"DIS_CODE":0,"TOWNNAME":"新化區","LI":"山\u25A0里","LIN":"2鄰","STREET":" ","SECT":" ","MAREA":"頂山\u25A0","LANE":" ","ALLEY":" ","HOUSE_NO":"３０號","E_COORD97":179528.48000000001,"N_COORD97":2546706.25,"ADDRESS":"頂山\u25A0３０號","OBJECTID":285594},"geometry":{"x":179528.48000000045,"y":2546706.25}},{"attributes":{"ID":285601,"DIS_CODE":0,"TOWNNAME":"安南區","LI":"溪心里","LIN":"12鄰","STREET":"海佃路","SECT":"二段","MAREA":" ","LANE":"６３６巷","ALLEY":" ","HOUSE_NO":"４號","E_COORD97":166669.70000000001,"N_COORD97":2549355.52,"ADDRESS":"海佃路二段６３６巷４號","OBJECTID":285595},"geometry":{"x":166669.70000000112,"y":2549355.5199999996}},{"attributes":{"ID":285602,"DIS_CODE":0,"TOWNNAME":"西港區","LI":"新復里","LIN":"2鄰","STREET":" ","SECT":" ","MAREA":"新港","LANE":" ","ALLEY":" ","HOUSE_NO":"１２號","E_COORD97":166554.70000000001,"N_COORD97":2556479.3300000001,"ADDRESS":"新港１２號","OBJECTID":285596},"geometry":{"x":166554.70000000112,"y":2556479.3300000019}},{"attributes":{"ID":285603,"DIS_CODE":0,"TOWNNAME":"西港區","LI":"新復里","LIN":"2鄰","STREET":" ","SECT":" ","MAREA":"新港","LANE":" ","ALLEY":" ","HOUSE_NO":"１３之３號","E_COORD97":166576.51999999999,"N_COORD97":2556446.3500000001,"ADDRESS":"新港１３之３號","OBJECTID":285597},"geometry":{"x":166576.51999999955,"y":2556446.3499999996}},{"attributes":{"ID":285604,"DIS_CODE":0,"TOWNNAME":"安南區","LI":"淵東里","LIN":"12鄰","STREET":"海佃路","SECT":"四段","MAREA":" ","LANE":"５５巷","ALLEY":" ","HOUSE_NO":"１０號","E_COORD97":165646.95999999999,"N_COORD97":2550598.3399999999,"ADDRESS":"海佃路四段５５巷１０號","OBJECTID":285598},"geometry":{"x":165646.96000000183,"y":2550598.3399999999}},{"attributes":{"ID":285605,"DIS_CODE":0,"TOWNNAME":"西港區","LI":"新復里","LIN":"2鄰","STREET":" ","SECT":" ","MAREA":"新港","LANE":" ","ALLEY":" ","HOUSE_NO":"１３號","E_COORD97":166563.88,"N_COORD97":2556451.6400000001,"ADDRESS":"新港１３號","OBJECTID":285599},"geometry":{"x":166563.87999999989,"y":2556451.6400000006}},{"attributes":{"ID":285606,"DIS_CODE":0,"TOWNNAME":"西港區","LI":"新復里","LIN":"2鄰","STREET":" ","SECT":" ","MAREA":"新港","LANE":" ","ALLEY":" ","HOUSE_NO":"１４號之１","E_COORD97":166516.82000000001,"N_COORD97":2556440.9100000001,"ADDRESS":"新港１４號之１","OBJECTID":285600},"geometry":{"x":166516.82000000123,"y":2556440.910000002}}]}