{"displayFieldName":"TOWNNAME","fieldAliases":{"ID":"ID","DIS_CODE":"DIS_CODE","TOWNNAME":"TOWNNAME","LI":"LI","LIN":"LIN","STREET":"STREET","SECT":"SECT","MAREA":"MAREA","LANE":"LANE","ALLEY":"ALLEY","HOUSE_NO":"HOUSE_NO","E_COORD97":"E_COORD97","N_COORD97":"N_COORD97","ADDRESS":"ADDRESS","OBJECTID":"OBJECTID"},"geometryType":"esriGeometryPoint","spatialReference":{"wkid":102443,"latestWkid":3826},"fields":[{"name":"ID","type":"esriFieldTypeDouble","alias":"ID"},{"name":"DIS_CODE","type":"esriFieldTypeInteger","alias":"DIS_CODE"},{"name":"TOWNNAME","type":"esriFieldTypeString","alias":"TOWNNAME","length":8},{"name":"LI","type":"esriFieldTypeString","alias":"LI","length":8},{"name":"LIN","type":"esriFieldTypeString","alias":"LIN","length":12},{"name":"STREET","type":"esriFieldTypeString","alias":"STREET","length":20},{"name":"SECT","type":"esriFieldTypeString","alias":"SECT","length":8},{"name":"MAREA","type":"esriFieldTypeString","alias":"MAREA","length":12},{"name":"LANE","type":"esriFieldTypeString","alias":"LANE","length":10},{"name":"ALLEY","type":"esriFieldTypeString","alias":"ALLEY","length":10},{"name":"HOUSE_NO","type":"esriFieldTypeString","alias":"HOUSE_NO","length":20},{"name":"E_COORD97","type":"esriFieldTypeDouble","alias":"E_COORD97"},{"name":"N_COORD97","type":"esriFieldTypeDouble","alias":"N_COORD97"},{"name":"ADDRESS","type":"esriFieldTypeString","alias":"ADDRESS","length":50},{"name":"OBJECTID","type":"esriFieldTypeOID","alias":"OBJECTID"}],"features":[{"attributes":{"ID":418626,"DIS_CODE":0,"TOWNNAME":"中西區","LI":"大涼里","LIN":"2鄰","STREET":"尊王路","SECT":" ","MAREA":" ","LANE":"１７６巷","ALLEY":" ","HOUSE_NO":"３號","E_COORD97":167211.64000000001,"N_COORD97":2543701.8300000001,"ADDRESS":"尊王路１７６巷３號","OBJECTID":418601},"geometry":{"x":167211.63999999966,"y":2543701.8300000001}},{"attributes":{"ID":418627,"DIS_CODE":0,"TOWNNAME":"中西區","LI":"大涼里","LIN":"2鄰","STREET":"尊王路","SECT":" ","MAREA":" ","LANE":"１７６巷","ALLEY":" ","HOUSE_NO":"５號","E_COORD97":167210.47,"N_COORD97":2543709.29,"ADDRESS":"尊王路１７６巷５號","OBJECTID":418602},"geometry":{"x":167210.47000000067,"y":2543709.2900000028}},{"attributes":{"ID":418628,"DIS_CODE":0,"TOWNNAME":"中西區","LI":"大涼里","LIN":"2鄰","STREET":"尊王路","SECT":" ","MAREA":" ","LANE":"１７６巷","ALLEY":" ","HOUSE_NO":"６號","E_COORD97":167220.81,"N_COORD97":2543706.1899999999,"ADDRESS":"尊王路１７６巷６號","OBJECTID":418603},"geometry":{"x":167220.81000000145,"y":2543706.1899999995}},{"attributes":{"ID":418629,"DIS_CODE":0,"TOWNNAME":"中西區","LI":"大涼里","LIN":"2鄰","STREET":"尊王路","SECT":" ","MAREA":" ","LANE":"１７６巷","ALLEY":" ","HOUSE_NO":"７號","E_COORD97":167211.5,"N_COORD97":2543715.48,"ADDRESS":"尊王路１７６巷７號","OBJECTID":418604},"geometry":{"x":167211.50000000186,"y":2543715.4800000004}},{"attributes":{"ID":418630,"DIS_CODE":0,"TOWNNAME":"中西區","LI":"大涼里","LIN":"2鄰","STREET":"尊王路","SECT":" ","MAREA":" ","LANE":"１７６巷","ALLEY":" ","HOUSE_NO":"８號","E_COORD97":167219.76999999999,"N_COORD97":2543702.3100000001,"ADDRESS":"尊王路１７６巷８號","OBJECTID":418605},"geometry":{"x":167219.77000000048,"y":2543702.3100000005}},{"attributes":{"ID":418631,"DIS_CODE":0,"TOWNNAME":"中西區","LI":"大涼里","LIN":"2鄰","STREET":"尊王路","SECT":" ","MAREA":" ","LANE":"１７６巷","ALLEY":" ","HOUSE_NO":"９號","E_COORD97":167212.04000000001,"N_COORD97":2543718.9300000002,"ADDRESS":"尊王路１７６巷９號","OBJECTID":418606},"geometry":{"x":167212.04000000097,"y":2543718.9299999997}},{"attributes":{"ID":418632,"DIS_CODE":0,"TOWNNAME":"中西區","LI":"大涼里","LIN":"2鄰","STREET":"尊王路","SECT":" ","MAREA":" ","LANE":"１７６巷","ALLEY":" ","HOUSE_NO":"１４號之１","E_COORD97":167223.91,"N_COORD97":2543720.3900000001,"ADDRESS":"尊王路１７６巷１４號之１","OBJECTID":418607},"geometry":{"x":167223.91000000015,"y":2543720.3900000043}},{"attributes":{"ID":418633,"DIS_CODE":0,"TOWNNAME":"安南區","LI":"新順里","LIN":"2鄰","STREET":"安生街","SECT":" ","MAREA":" ","LANE":"７８巷","ALLEY":" ","HOUSE_NO":"１７號","E_COORD97":169569.42999999999,"N_COORD97":2549615.3100000001,"ADDRESS":"安生街７８巷１７號","OBJECTID":418608},"geometry":{"x":169569.4299999997,"y":2549615.3100000005}},{"attributes":{"ID":418634,"DIS_CODE":0,"TOWNNAME":"安南區","LI":"南興里","LIN":"2鄰","STREET":"安興街","SECT":" ","MAREA":" ","LANE":"４３５巷","ALLEY":" ","HOUSE_NO":"５９號","E_COORD97":163645.5,"N_COORD97":2552172.96,"ADDRESS":"安興街４３５巷５９號","OBJECTID":418609},"geometry":{"x":163645.50000000093,"y":2552172.9600000028}},{"attributes":{"ID":418635,"DIS_CODE":0,"TOWNNAME":"安南區","LI":"南興里","LIN":"2鄰","STREET":"安興街","SECT":" ","MAREA":" ","LANE":"４３５巷","ALLEY":" ","HOUSE_NO":"５５號","E_COORD97":163625.70999999999,"N_COORD97":2552200.02,"ADDRESS":"安興街４３５巷５５號","OBJECTID":418610},"geometry":{"x":163625.70999999996,"y":2552200.0199999996}},{"attributes":{"ID":418636,"DIS_CODE":0,"TOWNNAME":"安南區","LI":"南興里","LIN":"2鄰","STREET":"安興街","SECT":" ","MAREA":" ","LANE":"４３５巷","ALLEY":" ","HOUSE_NO":"６１號","E_COORD97":163662.17000000001,"N_COORD97":2552159.1699999999,"ADDRESS":"安興街４３５巷６１號","OBJECTID":418611},"geometry":{"x":163662.17000000179,"y":2552159.1699999999}},{"attributes":{"ID":418637,"DIS_CODE":0,"TOWNNAME":"安南區","LI":"南興里","LIN":"2鄰","STREET":"安興街","SECT":" ","MAREA":" ","LANE":"３８１巷","ALLEY":" ","HOUSE_NO":"５２號","E_COORD97":163666.76000000001,"N_COORD97":2552231.5499999998,"ADDRESS":"安興街３８１巷５２號","OBJECTID":418612},"geometry":{"x":163666.76000000071,"y":2552231.5500000007}},{"attributes":{"ID":418638,"DIS_CODE":0,"TOWNNAME":"安南區","LI":"淵西里","LIN":"2鄰","STREET":"安中路","SECT":"四段","MAREA":" ","LANE":"２９０巷","ALLEY":" ","HOUSE_NO":"２８３號","E_COORD97":165098.04999999999,"N_COORD97":2550304.3399999999,"ADDRESS":"安中路四段２９０巷２８３號","OBJECTID":418613},"geometry":{"x":165098.04999999981,"y":2550304.3400000036}},{"attributes":{"ID":418639,"DIS_CODE":0,"TOWNNAME":"新化區","LI":"東榮里","LIN":"2鄰","STREET":"中興路","SECT":" ","MAREA":" ","LANE":"１０４巷","ALLEY":" ","HOUSE_NO":"８號","E_COORD97":181870.51000000001,"N_COORD97":2547342.25,"ADDRESS":"中興路１０４巷８號","OBJECTID":418614},"geometry":{"x":181870.50999999978,"y":2547342.2500000019}},{"attributes":{"ID":418640,"DIS_CODE":0,"TOWNNAME":"安南區","LI":"淵西里","LIN":"2鄰","STREET":"安中路","SECT":"四段","MAREA":" ","LANE":"２９０巷","ALLEY":" ","HOUSE_NO":"２８３號之１","E_COORD97":165100.72,"N_COORD97":2550308.8900000001,"ADDRESS":"安中路四段２９０巷２８３號之１","OBJECTID":418615},"geometry":{"x":165100.71999999974,"y":2550308.8900000025}},{"attributes":{"ID":418641,"DIS_CODE":0,"TOWNNAME":"安南區","LI":"城南里","LIN":"2鄰","STREET":"城西街","SECT":"一段","MAREA":" ","LANE":"６１巷","ALLEY":" ","HOUSE_NO":"３６號","E_COORD97":160739.20000000001,"N_COORD97":2551326.96,"ADDRESS":"城西街一段６１巷３６號","OBJECTID":418616},"geometry":{"x":160739.20000000019,"y":2551326.9600000009}},{"attributes":{"ID":418642,"DIS_CODE":0,"TOWNNAME":"安南區","LI":"城南里","LIN":"2鄰","STREET":"城西街","SECT":"一段","MAREA":" ","LANE":"６１巷","ALLEY":" ","HOUSE_NO":"３６號之１","E_COORD97":160741.44,"N_COORD97":2551322.9900000002,"ADDRESS":"城西街一段６１巷３６號之１","OBJECTID":418617},"geometry":{"x":160741.44000000041,"y":2551322.9900000002}},{"attributes":{"ID":418643,"DIS_CODE":0,"TOWNNAME":"新化區","LI":"協興里","LIN":"2鄰","STREET":"忠孝路","SECT":" ","MAREA":" ","LANE":"１９０巷","ALLEY":" ","HOUSE_NO":"１２號之１０","E_COORD97":178472.26000000001,"N_COORD97":2548650.2599999998,"ADDRESS":"忠孝路１９０巷１２號之１０","OBJECTID":418618},"geometry":{"x":178472.26000000164,"y":2548650.2600000035}},{"attributes":{"ID":418644,"DIS_CODE":0,"TOWNNAME":"安南區","LI":"安和里","LIN":"2鄰","STREET":"府安路","SECT":"三段","MAREA":" ","LANE":"２９２巷","ALLEY":" ","HOUSE_NO":"８號","E_COORD97":169897.31,"N_COORD97":2547761.6000000001,"ADDRESS":"府安路三段２９２巷８號","OBJECTID":418619},"geometry":{"x":169897.30999999959,"y":2547761.5999999996}},{"attributes":{"ID":418645,"DIS_CODE":0,"TOWNNAME":"安南區","LI":"安和里","LIN":"2鄰","STREET":"府安路","SECT":"三段","MAREA":" ","LANE":"２９２巷","ALLEY":" ","HOUSE_NO":"８之１號","E_COORD97":169892.48000000001,"N_COORD97":2547762.4900000002,"ADDRESS":"府安路三段２９２巷８之１號","OBJECTID":418620},"geometry":{"x":169892.48000000138,"y":2547762.4900000002}},{"attributes":{"ID":418646,"DIS_CODE":0,"TOWNNAME":"安南區","LI":"海東里","LIN":"2鄰","STREET":"海環街","SECT":" ","MAREA":" ","LANE":"５９６巷","ALLEY":" ","HOUSE_NO":"４６號","E_COORD97":166522.82000000001,"N_COORD97":2549259.6800000002,"ADDRESS":"海環街５９６巷４６號","OBJECTID":418621},"geometry":{"x":166522.8200000003,"y":2549259.6799999997}},{"attributes":{"ID":418647,"DIS_CODE":0,"TOWNNAME":"學甲區","LI":"慈福里","LIN":"13鄰","STREET":"民族路","SECT":" ","MAREA":" ","LANE":" ","ALLEY":" ","HOUSE_NO":"５８號","E_COORD97":166633,"N_COORD97":2570314.5600000001,"ADDRESS":"民族路５８號","OBJECTID":418622},"geometry":{"x":166633,"y":2570314.5600000024}},{"attributes":{"ID":418648,"DIS_CODE":0,"TOWNNAME":"安南區","LI":"海東里","LIN":"2鄰","STREET":"海環街","SECT":" ","MAREA":" ","LANE":"５９６巷","ALLEY":" ","HOUSE_NO":"４８號","E_COORD97":166528.69,"N_COORD97":2549262.2200000002,"ADDRESS":"海環街５９６巷４８號","OBJECTID":418623},"geometry":{"x":166528.69000000041,"y":2549262.2200000025}},{"attributes":{"ID":418649,"DIS_CODE":0,"TOWNNAME":"南區","LI":"同安里","LIN":"2鄰","STREET":"灣裡路","SECT":" ","MAREA":" ","LANE":"４００巷","ALLEY":" ","HOUSE_NO":"５號","E_COORD97":166146.42000000001,"N_COORD97":2536127.8900000001,"ADDRESS":"灣裡路４００巷５號","OBJECTID":418624},"geometry":{"x":166146.42000000086,"y":2536127.8900000006}},{"attributes":{"ID":418650,"DIS_CODE":0,"TOWNNAME":"南區","LI":"同安里","LIN":"2鄰","STREET":"灣裡路","SECT":" ","MAREA":" ","LANE":"４００巷","ALLEY":" ","HOUSE_NO":"７號","E_COORD97":166146.84,"N_COORD97":2536136.7599999998,"ADDRESS":"灣裡路４００巷７號","OBJECTID":418625},"geometry":{"x":166146.84000000078,"y":2536136.7600000016}},{"attributes":{"ID":418651,"DIS_CODE":0,"TOWNNAME":"南區","LI":"同安里","LIN":"2鄰","STREET":"灣裡路","SECT":" ","MAREA":" ","LANE":"４００巷","ALLEY":" ","HOUSE_NO":"９號","E_COORD97":166147.26999999999,"N_COORD97":2536143.52,"ADDRESS":"灣裡路４００巷９號","OBJECTID":418626},"geometry":{"x":166147.26999999955,"y":2536143.5199999996}},{"attributes":{"ID":418652,"DIS_CODE":0,"TOWNNAME":"南區","LI":"同安里","LIN":"2鄰","STREET":"灣裡路","SECT":" ","MAREA":" ","LANE":"４００巷","ALLEY":" ","HOUSE_NO":"１５號","E_COORD97":166114.92000000001,"N_COORD97":2536139.0800000001,"ADDRESS":"灣裡路４００巷１５號","OBJECTID":418627},"geometry":{"x":166114.91999999993,"y":2536139.0800000019}},{"attributes":{"ID":418653,"DIS_CODE":0,"TOWNNAME":"南區","LI":"同安里","LIN":"2鄰","STREET":"灣裡路","SECT":" ","MAREA":" ","LANE":"４００巷","ALLEY":" ","HOUSE_NO":"２１號之２","E_COORD97":166091.88,"N_COORD97":2536123.8799999999,"ADDRESS":"灣裡路４００巷２１號之２","OBJECTID":418628},"geometry":{"x":166091.88000000082,"y":2536123.879999999}},{"attributes":{"ID":418654,"DIS_CODE":0,"TOWNNAME":"南區","LI":"同安里","LIN":"2鄰","STREET":"灣裡路","SECT":" ","MAREA":" ","LANE":"４００巷","ALLEY":" ","HOUSE_NO":"２２號","E_COORD97":166088.28,"N_COORD97":2536156.3700000001,"ADDRESS":"灣裡路４００巷２２號","OBJECTID":418629},"geometry":{"x":166088.28000000119,"y":2536156.370000001}},{"attributes":{"ID":418655,"DIS_CODE":0,"TOWNNAME":"南區","LI":"同安里","LIN":"2鄰","STREET":"灣裡路","SECT":" ","MAREA":" ","LANE":"４００巷","ALLEY":" ","HOUSE_NO":"２５號","E_COORD97":166074.51000000001,"N_COORD97":2536128.5299999998,"ADDRESS":"灣裡路４００巷２５號","OBJECTID":418630},"geometry":{"x":166074.51000000071,"y":2536128.5300000012}},{"attributes":{"ID":418656,"DIS_CODE":0,"TOWNNAME":"南區","LI":"同安里","LIN":"2鄰","STREET":"灣裡路","SECT":" ","MAREA":" ","LANE":"４００巷","ALLEY":" ","HOUSE_NO":"２７號","E_COORD97":166075.57000000001,"N_COORD97":2536143.0899999999,"ADDRESS":"灣裡路４００巷２７號","OBJECTID":418631},"geometry":{"x":166075.57000000216,"y":2536143.0899999999}},{"attributes":{"ID":418657,"DIS_CODE":0,"TOWNNAME":"南區","LI":"同安里","LIN":"2鄰","STREET":"灣裡路","SECT":" ","MAREA":" ","LANE":"４００巷","ALLEY":" ","HOUSE_NO":"３３號","E_COORD97":166063.04999999999,"N_COORD97":2536138.6499999999,"ADDRESS":"灣裡路４００巷３３號","OBJECTID":418632},"geometry":{"x":166063.04999999981,"y":2536138.6500000022}},{"attributes":{"ID":418658,"DIS_CODE":0,"TOWNNAME":"南區","LI":"同安里","LIN":"2鄰","STREET":"灣裡路","SECT":" ","MAREA":" ","LANE":"４００巷","ALLEY":" ","HOUSE_NO":"４１號","E_COORD97":166041.10999999999,"N_COORD97":2536125.5699999998,"ADDRESS":"灣裡路４００巷４１號","OBJECTID":418633},"geometry":{"x":166041.11000000034,"y":2536125.5700000022}},{"attributes":{"ID":418659,"DIS_CODE":0,"TOWNNAME":"南區","LI":"同安里","LIN":"2鄰","STREET":"灣裡路","SECT":" ","MAREA":" ","LANE":"４１８巷","ALLEY":" ","HOUSE_NO":"１號","E_COORD97":166164.81,"N_COORD97":2536129.3700000001,"ADDRESS":"灣裡路４１８巷１號","OBJECTID":418634},"geometry":{"x":166164.81000000145,"y":2536129.370000001}},{"attributes":{"ID":418660,"DIS_CODE":0,"TOWNNAME":"南區","LI":"竹溪里","LIN":"2鄰","STREET":"健康路","SECT":"一段","MAREA":" ","LANE":"１３３巷","ALLEY":" ","HOUSE_NO":"１號","E_COORD97":168904.62,"N_COORD97":2542396.6400000001,"ADDRESS":"健康路一段１３３巷１號","OBJECTID":418635},"geometry":{"x":168904.62000000104,"y":2542396.6400000043}},{"attributes":{"ID":418661,"DIS_CODE":0,"TOWNNAME":"南區","LI":"竹溪里","LIN":"2鄰","STREET":"健康路","SECT":"一段","MAREA":" ","LANE":"１３３巷","ALLEY":" ","HOUSE_NO":"３號","E_COORD97":168904.20000000001,"N_COORD97":2542388.2999999998,"ADDRESS":"健康路一段１３３巷３號","OBJECTID":418636},"geometry":{"x":168904.20000000112,"y":2542388.3000000007}},{"attributes":{"ID":418662,"DIS_CODE":0,"TOWNNAME":"南區","LI":"竹溪里","LIN":"2鄰","STREET":"健康路","SECT":"一段","MAREA":" ","LANE":"１３３巷","ALLEY":" ","HOUSE_NO":"７號","E_COORD97":168899.19,"N_COORD97":2542374.1400000001,"ADDRESS":"健康路一段１３３巷７號","OBJECTID":418637},"geometry":{"x":168899.19000000134,"y":2542374.1400000025}},{"attributes":{"ID":418663,"DIS_CODE":0,"TOWNNAME":"南區","LI":"竹溪里","LIN":"2鄰","STREET":"健康路","SECT":"一段","MAREA":" ","LANE":"１３３巷","ALLEY":" ","HOUSE_NO":"１９號","E_COORD97":168915.45999999999,"N_COORD97":2542345.3900000001,"ADDRESS":"健康路一段１３３巷１９號","OBJECTID":418638},"geometry":{"x":168915.46000000183,"y":2542345.3900000025}},{"attributes":{"ID":418664,"DIS_CODE":0,"TOWNNAME":"南區","LI":"竹溪里","LIN":"2鄰","STREET":"健康路","SECT":"一段","MAREA":" ","LANE":"１３３巷","ALLEY":" ","HOUSE_NO":"２１號","E_COORD97":168922.54999999999,"N_COORD97":2542335.3900000001,"ADDRESS":"健康路一段１３３巷２１號","OBJECTID":418639},"geometry":{"x":168922.54999999981,"y":2542335.3900000025}},{"attributes":{"ID":418665,"DIS_CODE":0,"TOWNNAME":"南區","LI":"竹溪里","LIN":"2鄰","STREET":"健康路","SECT":"一段","MAREA":" ","LANE":"１３３巷","ALLEY":" ","HOUSE_NO":"２３號","E_COORD97":168903.35999999999,"N_COORD97":2542334.1499999999,"ADDRESS":"健康路一段１３３巷２３號","OBJECTID":418640},"geometry":{"x":168903.36000000127,"y":2542334.1500000004}},{"attributes":{"ID":418666,"DIS_CODE":0,"TOWNNAME":"南區","LI":"竹溪里","LIN":"2鄰","STREET":"健康路","SECT":"一段","MAREA":" ","LANE":"１３３巷","ALLEY":" ","HOUSE_NO":"２５號","E_COORD97":168904.60999999999,"N_COORD97":2542330.3999999999,"ADDRESS":"健康路一段１３３巷２５號","OBJECTID":418641},"geometry":{"x":168904.6100000022,"y":2542330.4000000041}},{"attributes":{"ID":418667,"DIS_CODE":0,"TOWNNAME":"南區","LI":"竹溪里","LIN":"2鄰","STREET":"健康路","SECT":"一段","MAREA":" ","LANE":"１３３巷","ALLEY":" ","HOUSE_NO":"２７號","E_COORD97":168900.89999999999,"N_COORD97":2542325.5899999999,"ADDRESS":"健康路一段１３３巷２７號","OBJECTID":418642},"geometry":{"x":168900.90000000224,"y":2542325.5900000017}},{"attributes":{"ID":418668,"DIS_CODE":0,"TOWNNAME":"南區","LI":"竹溪里","LIN":"2鄰","STREET":"健康路","SECT":"一段","MAREA":" ","LANE":"１３３巷","ALLEY":" ","HOUSE_NO":"２９號","E_COORD97":168900.89999999999,"N_COORD97":2542321.8399999999,"ADDRESS":"健康路一段１３３巷２９號","OBJECTID":418643},"geometry":{"x":168900.90000000224,"y":2542321.8399999999}},{"attributes":{"ID":418669,"DIS_CODE":0,"TOWNNAME":"南區","LI":"竹溪里","LIN":"2鄰","STREET":"健康路","SECT":"一段","MAREA":" ","LANE":"１３３巷","ALLEY":" ","HOUSE_NO":"３１號","E_COORD97":168915.07999999999,"N_COORD97":2542321.4300000002,"ADDRESS":"健康路一段１３３巷３１號","OBJECTID":418644},"geometry":{"x":168915.08000000101,"y":2542321.4299999997}},{"attributes":{"ID":418670,"DIS_CODE":0,"TOWNNAME":"南區","LI":"竹溪里","LIN":"2鄰","STREET":"健康路","SECT":"一段","MAREA":" ","LANE":"１３３巷","ALLEY":" ","HOUSE_NO":"３９號","E_COORD97":168897.98000000001,"N_COORD97":2542304.7599999998,"ADDRESS":"健康路一段１３３巷３９號","OBJECTID":418645},"geometry":{"x":168897.98000000045,"y":2542304.7600000016}},{"attributes":{"ID":418671,"DIS_CODE":0,"TOWNNAME":"南區","LI":"竹溪里","LIN":"2鄰","STREET":"健康路","SECT":"一段","MAREA":" ","LANE":"１３３巷","ALLEY":" ","HOUSE_NO":"４１號","E_COORD97":168897.98000000001,"N_COORD97":2542300.1800000002,"ADDRESS":"健康路一段１３３巷４１號","OBJECTID":418646},"geometry":{"x":168897.98000000045,"y":2542300.1799999978}},{"attributes":{"ID":418672,"DIS_CODE":0,"TOWNNAME":"南區","LI":"竹溪里","LIN":"2鄰","STREET":"健康路","SECT":"一段","MAREA":" ","LANE":"１３３巷","ALLEY":" ","HOUSE_NO":"４３號","E_COORD97":168899.64999999999,"N_COORD97":2542296.0099999998,"ADDRESS":"健康路一段１３３巷４３號","OBJECTID":418647},"geometry":{"x":168899.6500000013,"y":2542296.0100000016}},{"attributes":{"ID":418673,"DIS_CODE":0,"TOWNNAME":"南區","LI":"竹溪里","LIN":"2鄰","STREET":"健康路","SECT":"一段","MAREA":" ","LANE":"１３３巷","ALLEY":" ","HOUSE_NO":"５９號","E_COORD97":168900.48000000001,"N_COORD97":2542288.1000000001,"ADDRESS":"健康路一段１３３巷５９號","OBJECTID":418648},"geometry":{"x":168900.48000000231,"y":2542288.1000000015}},{"attributes":{"ID":418674,"DIS_CODE":0,"TOWNNAME":"南區","LI":"竹溪里","LIN":"2鄰","STREET":"健康路","SECT":"一段","MAREA":" ","LANE":"１３３巷","ALLEY":" ","HOUSE_NO":"６１號","E_COORD97":168901.32000000001,"N_COORD97":2542285.6000000001,"ADDRESS":"健康路一段１３３巷６１號","OBJECTID":418649},"geometry":{"x":168901.31999999937,"y":2542285.6000000015}},{"attributes":{"ID":418675,"DIS_CODE":0,"TOWNNAME":"南區","LI":"竹溪里","LIN":"2鄰","STREET":"健康路","SECT":"一段","MAREA":" ","LANE":"１３３巷","ALLEY":" ","HOUSE_NO":"６３號","E_COORD97":168902.14999999999,"N_COORD97":2542281.4300000002,"ADDRESS":"健康路一段１３３巷６３號","OBJECTID":418650},"geometry":{"x":168902.15000000037,"y":2542281.4299999997}},{"attributes":{"ID":418676,"DIS_CODE":0,"TOWNNAME":"南區","LI":"竹溪里","LIN":"2鄰","STREET":"健康路","SECT":"一段","MAREA":" ","LANE":"１３３巷","ALLEY":" ","HOUSE_NO":"６５號","E_COORD97":168900.89999999999,"N_COORD97":2542276.8500000001,"ADDRESS":"健康路一段１３３巷６５號","OBJECTID":418651},"geometry":{"x":168900.90000000224,"y":2542276.8500000015}},{"attributes":{"ID":418677,"DIS_CODE":0,"TOWNNAME":"南區","LI":"竹溪里","LIN":"2鄰","STREET":"健康路","SECT":"一段","MAREA":" ","LANE":"１３３巷","ALLEY":" ","HOUSE_NO":"６７號","E_COORD97":168902.14999999999,"N_COORD97":2542273.52,"ADDRESS":"健康路一段１３３巷６７號","OBJECTID":418652},"geometry":{"x":168902.15000000037,"y":2542273.5199999996}},{"attributes":{"ID":418678,"DIS_CODE":0,"TOWNNAME":"南區","LI":"佛壇里","LIN":"2鄰","STREET":"興南街","SECT":" ","MAREA":" ","LANE":"１９０巷","ALLEY":" ","HOUSE_NO":"２３號","E_COORD97":166012.42999999999,"N_COORD97":2535853.4199999999,"ADDRESS":"興南街１９０巷２３號","OBJECTID":418653},"geometry":{"x":166012.4299999997,"y":2535853.4199999999}},{"attributes":{"ID":418679,"DIS_CODE":0,"TOWNNAME":"南區","LI":"佛壇里","LIN":"2鄰","STREET":"興南街","SECT":" ","MAREA":" ","LANE":"１９０巷","ALLEY":" ","HOUSE_NO":"２７號","E_COORD97":166004.79000000001,"N_COORD97":2535870.7999999998,"ADDRESS":"興南街１９０巷２７號","OBJECTID":418654},"geometry":{"x":166004.79000000097,"y":2535870.8000000026}},{"attributes":{"ID":418680,"DIS_CODE":0,"TOWNNAME":"南區","LI":"佛壇里","LIN":"2鄰","STREET":"興南街","SECT":" ","MAREA":" ","LANE":"１９０巷","ALLEY":" ","HOUSE_NO":"２７之１號","E_COORD97":166010.45999999999,"N_COORD97":2535863.5499999998,"ADDRESS":"興南街１９０巷２７之１號","OBJECTID":418655},"geometry":{"x":166010.46000000089,"y":2535863.5500000007}},{"attributes":{"ID":418681,"DIS_CODE":0,"TOWNNAME":"南區","LI":"佛壇里","LIN":"2鄰","STREET":"興南街","SECT":" ","MAREA":" ","LANE":"２５２巷","ALLEY":" ","HOUSE_NO":"５號","E_COORD97":165959.14999999999,"N_COORD97":2535732.04,"ADDRESS":"興南街２５２巷５號","OBJECTID":418656},"geometry":{"x":165959.15000000037,"y":2535732.0399999991}},{"attributes":{"ID":418682,"DIS_CODE":0,"TOWNNAME":"南區","LI":"府南里","LIN":"2鄰","STREET":"金華路","SECT":"一段","MAREA":" ","LANE":"４８４巷","ALLEY":" ","HOUSE_NO":"５３號之１８","E_COORD97":167203.26999999999,"N_COORD97":2541515.7999999998,"ADDRESS":"金華路一段４８４巷５３號之１８","OBJECTID":418657},"geometry":{"x":167203.26999999955,"y":2541515.8000000026}},{"attributes":{"ID":418683,"DIS_CODE":0,"TOWNNAME":"東區","LI":"大福里","LIN":"2鄰","STREET":"榮譽街","SECT":" ","MAREA":" ","LANE":"２５巷","ALLEY":" ","HOUSE_NO":"３號","E_COORD97":169550.34,"N_COORD97":2541642.8900000001,"ADDRESS":"榮譽街２５巷３號","OBJECTID":418658},"geometry":{"x":169550.34000000078,"y":2541642.8900000025}},{"attributes":{"ID":418684,"DIS_CODE":0,"TOWNNAME":"東區","LI":"大福里","LIN":"2鄰","STREET":"榮譽街","SECT":" ","MAREA":" ","LANE":"２５巷","ALLEY":" ","HOUSE_NO":"１號","E_COORD97":169561.32999999999,"N_COORD97":2541645.9100000001,"ADDRESS":"榮譽街２５巷１號","OBJECTID":418659},"geometry":{"x":169561.33000000101,"y":2541645.910000002}},{"attributes":{"ID":418685,"DIS_CODE":0,"TOWNNAME":"東區","LI":"大福里","LIN":"2鄰","STREET":"榮譽街","SECT":" ","MAREA":" ","LANE":"２５巷","ALLEY":" ","HOUSE_NO":"１０號","E_COORD97":169564.60999999999,"N_COORD97":2541687.21,"ADDRESS":"榮譽街２５巷１０號","OBJECTID":418660},"geometry":{"x":169564.61000000127,"y":2541687.2100000009}},{"attributes":{"ID":418686,"DIS_CODE":0,"TOWNNAME":"東區","LI":"大福里","LIN":"2鄰","STREET":"榮譽街","SECT":" ","MAREA":" ","LANE":"２５巷","ALLEY":" ","HOUSE_NO":"１２號","E_COORD97":169569.84,"N_COORD97":2541688.6000000001,"ADDRESS":"榮譽街２５巷１２號","OBJECTID":418661},"geometry":{"x":169569.83999999985,"y":2541688.6000000015}},{"attributes":{"ID":418687,"DIS_CODE":0,"TOWNNAME":"仁德區","LI":"成功里","LIN":"2鄰","STREET":"保生東路","SECT":" ","MAREA":" ","LANE":"１３８巷","ALLEY":" ","HOUSE_NO":"３９號","E_COORD97":171288.81,"N_COORD97":2539579.9399999999,"ADDRESS":"保生東路１３８巷３９號","OBJECTID":418662},"geometry":{"x":171288.80999999959,"y":2539579.9400000013}},{"attributes":{"ID":418688,"DIS_CODE":0,"TOWNNAME":"仁德區","LI":"成功里","LIN":"2鄰","STREET":"保生東路","SECT":" ","MAREA":" ","LANE":"１３８巷","ALLEY":" ","HOUSE_NO":"２９號","E_COORD97":171277.35000000001,"N_COORD97":2539582.1899999999,"ADDRESS":"保生東路１３８巷２９號","OBJECTID":418663},"geometry":{"x":171277.35000000056,"y":2539582.1900000013}},{"attributes":{"ID":418689,"DIS_CODE":0,"TOWNNAME":"仁德區","LI":"成功里","LIN":"2鄰","STREET":"保生東路","SECT":" ","MAREA":" ","LANE":"１３８巷","ALLEY":" ","HOUSE_NO":"２１號","E_COORD97":171253.67999999999,"N_COORD97":2539588.4399999999,"ADDRESS":"保生東路１３８巷２１號","OBJECTID":418664},"geometry":{"x":171253.68000000063,"y":2539588.4399999995}},{"attributes":{"ID":418690,"DIS_CODE":0,"TOWNNAME":"仁德區","LI":"新田里","LIN":"2鄰","STREET":"新田二街","SECT":" ","MAREA":" ","LANE":"１３８巷","ALLEY":" ","HOUSE_NO":"８號之１","E_COORD97":174891.48000000001,"N_COORD97":2539983.4399999999,"ADDRESS":"新田二街１３８巷８號之１","OBJECTID":418665},"geometry":{"x":174891.48000000138,"y":2539983.4400000013}},{"attributes":{"ID":418691,"DIS_CODE":0,"TOWNNAME":"仁德區","LI":"土庫里","LIN":"2鄰","STREET":"中正路","SECT":"三段","MAREA":" ","LANE":"４５６巷","ALLEY":" ","HOUSE_NO":"１１號","E_COORD97":174071.51999999999,"N_COORD97":2542936.27,"ADDRESS":"中正路三段４５６巷１１號","OBJECTID":418666},"geometry":{"x":174071.52000000048,"y":2542936.2699999996}},{"attributes":{"ID":418692,"DIS_CODE":0,"TOWNNAME":"仁德區","LI":"仁德里","LIN":"2鄰","STREET":"中正路","SECT":"二段","MAREA":" ","LANE":"６７９巷","ALLEY":" ","HOUSE_NO":"１０５號","E_COORD97":173327.41,"N_COORD97":2540156.3999999999,"ADDRESS":"中正路二段６７９巷１０５號","OBJECTID":418667},"geometry":{"x":173327.41000000108,"y":2540156.4000000004}},{"attributes":{"ID":418693,"DIS_CODE":0,"TOWNNAME":"仁德區","LI":"太子里","LIN":"2鄰","STREET":"太子路","SECT":" ","MAREA":" ","LANE":"１９０巷","ALLEY":" ","HOUSE_NO":"１１號","E_COORD97":174317.42000000001,"N_COORD97":2543560.5,"ADDRESS":"太子路１９０巷１１號","OBJECTID":418668},"geometry":{"x":174317.41999999993,"y":2543560.5000000019}},{"attributes":{"ID":418694,"DIS_CODE":0,"TOWNNAME":"仁德區","LI":"仁德里","LIN":"2鄰","STREET":"仁德五街","SECT":" ","MAREA":" ","LANE":"１７巷","ALLEY":" ","HOUSE_NO":"１７號","E_COORD97":173366.20999999999,"N_COORD97":2540149.2599999998,"ADDRESS":"仁德五街１７巷１７號","OBJECTID":418669},"geometry":{"x":173366.20999999996,"y":2540149.2599999998}},{"attributes":{"ID":418695,"DIS_CODE":0,"TOWNNAME":"仁德區","LI":"仁德里","LIN":"2鄰","STREET":"中正路","SECT":"二段","MAREA":" ","LANE":"６７９巷","ALLEY":" ","HOUSE_NO":"９５號","E_COORD97":173332.04999999999,"N_COORD97":2540143.6499999999,"ADDRESS":"中正路二段６７９巷９５號","OBJECTID":418670},"geometry":{"x":173332.04999999981,"y":2540143.6500000004}},{"attributes":{"ID":418696,"DIS_CODE":0,"TOWNNAME":"仁德區","LI":"保安里","LIN":"2鄰","STREET":"文賢路","SECT":"一段","MAREA":" ","LANE":"５３０巷","ALLEY":" ","HOUSE_NO":"６號","E_COORD97":171056.20999999999,"N_COORD97":2536973.3199999998,"ADDRESS":"文賢路一段５３０巷６號","OBJECTID":418671},"geometry":{"x":171056.20999999996,"y":2536973.3200000003}},{"attributes":{"ID":418697,"DIS_CODE":0,"TOWNNAME":"仁德區","LI":"成功里","LIN":"2鄰","STREET":"保生東路","SECT":" ","MAREA":" ","LANE":"２１８巷","ALLEY":" ","HOUSE_NO":"６３號","E_COORD97":171287.12,"N_COORD97":2539698.77,"ADDRESS":"保生東路２１８巷６３號","OBJECTID":418672},"geometry":{"x":171287.12000000011,"y":2539698.7699999996}},{"attributes":{"ID":418698,"DIS_CODE":0,"TOWNNAME":"仁德區","LI":"新田里","LIN":"2鄰","STREET":"新田二街","SECT":" ","MAREA":" ","LANE":"１３８巷","ALLEY":" ","HOUSE_NO":"１號","E_COORD97":174858.51999999999,"N_COORD97":2539984.9900000002,"ADDRESS":"新田二街１３８巷１號","OBJECTID":418673},"geometry":{"x":174858.52000000048,"y":2539984.9900000002}},{"attributes":{"ID":418699,"DIS_CODE":0,"TOWNNAME":"仁德區","LI":"太子里","LIN":"2鄰","STREET":"長興三街","SECT":" ","MAREA":" ","LANE":"２巷","ALLEY":" ","HOUSE_NO":"２１號","E_COORD97":174295.67999999999,"N_COORD97":2543551.2599999998,"ADDRESS":"長興三街２巷２１號","OBJECTID":418674},"geometry":{"x":174295.67999999877,"y":2543551.2600000016}},{"attributes":{"ID":418700,"DIS_CODE":0,"TOWNNAME":"仁德區","LI":"成功里","LIN":"2鄰","STREET":"保生東路","SECT":" ","MAREA":" ","LANE":"２１８巷","ALLEY":" ","HOUSE_NO":"９５號","E_COORD97":171253.03,"N_COORD97":2539600.6899999999,"ADDRESS":"保生東路２１８巷９５號","OBJECTID":418675},"geometry":{"x":171253.03000000119,"y":2539600.6899999995}},{"attributes":{"ID":418701,"DIS_CODE":0,"TOWNNAME":"仁德區","LI":"二行里","LIN":"2鄰","STREET":"二行一路","SECT":" ","MAREA":" ","LANE":"１５３巷","ALLEY":" ","HOUSE_NO":"８號","E_COORD97":170483.42999999999,"N_COORD97":2535561.75,"ADDRESS":"二行一路１５３巷８號","OBJECTID":418676},"geometry":{"x":170483.43000000156,"y":2535561.7500000019}},{"attributes":{"ID":418702,"DIS_CODE":0,"TOWNNAME":"仁德區","LI":"田厝里","LIN":"2鄰","STREET":"保安路","SECT":"二段","MAREA":" ","LANE":"５１２巷","ALLEY":" ","HOUSE_NO":"１號","E_COORD97":172527.63,"N_COORD97":2537533.0699999998,"ADDRESS":"保安路二段５１２巷１號","OBJECTID":418677},"geometry":{"x":172527.62999999989,"y":2537533.0700000022}},{"attributes":{"ID":418703,"DIS_CODE":0,"TOWNNAME":"仁德區","LI":"仁德里","LIN":"2鄰","STREET":"仁德五街","SECT":" ","MAREA":" ","LANE":"１１巷","ALLEY":" ","HOUSE_NO":"３３號","E_COORD97":173391.87,"N_COORD97":2540118.02,"ADDRESS":"仁德五街１１巷３３號","OBJECTID":418678},"geometry":{"x":173391.87000000104,"y":2540118.0200000033}},{"attributes":{"ID":418704,"DIS_CODE":0,"TOWNNAME":"仁德區","LI":"仁德里","LIN":"2鄰","STREET":"仁德五街","SECT":" ","MAREA":" ","LANE":"１７巷","ALLEY":" ","HOUSE_NO":"１９號","E_COORD97":173365.41,"N_COORD97":2540144.7599999998,"ADDRESS":"仁德五街１７巷１９號","OBJECTID":418679},"geometry":{"x":173365.41000000015,"y":2540144.7600000016}},{"attributes":{"ID":418705,"DIS_CODE":0,"TOWNNAME":"仁德區","LI":"上崙里","LIN":"2鄰","STREET":"德崙路","SECT":" ","MAREA":" ","LANE":"１７５巷","ALLEY":" ","HOUSE_NO":"２８號","E_COORD97":173701.22,"N_COORD97":2538316.5099999998,"ADDRESS":"德崙路１７５巷２８號","OBJECTID":418680},"geometry":{"x":173701.22000000067,"y":2538316.5099999998}},{"attributes":{"ID":418706,"DIS_CODE":0,"TOWNNAME":"佳里區","LI":"東寧里","LIN":"2鄰","STREET":"新生路","SECT":" ","MAREA":" ","LANE":"１４８巷","ALLEY":" ","HOUSE_NO":"７號","E_COORD97":165799.95000000001,"N_COORD97":2562330.6200000001,"ADDRESS":"新生路１４８巷７號","OBJECTID":418681},"geometry":{"x":165799.95000000205,"y":2562330.6200000029}},{"attributes":{"ID":418707,"DIS_CODE":0,"TOWNNAME":"佳里區","LI":"忠仁里","LIN":"2鄰","STREET":"興中街","SECT":" ","MAREA":" ","LANE":"２３巷","ALLEY":" ","HOUSE_NO":"１０號","E_COORD97":165822.17999999999,"N_COORD97":2562247.0499999998,"ADDRESS":"興中街２３巷１０號","OBJECTID":418682},"geometry":{"x":165822.18000000063,"y":2562247.0500000007}},{"attributes":{"ID":418708,"DIS_CODE":0,"TOWNNAME":"佳里區","LI":"忠仁里","LIN":"2鄰","STREET":"興中街","SECT":" ","MAREA":" ","LANE":"２３巷","ALLEY":" ","HOUSE_NO":"１２號","E_COORD97":165805.29000000001,"N_COORD97":2562253.5299999998,"ADDRESS":"興中街２３巷１２號","OBJECTID":418683},"geometry":{"x":165805.29000000004,"y":2562253.5300000031}},{"attributes":{"ID":418709,"DIS_CODE":0,"TOWNNAME":"永康區","LI":"六合里","LIN":"2鄰","STREET":"新興街","SECT":" ","MAREA":" ","LANE":"３５巷","ALLEY":" ","HOUSE_NO":"１１號","E_COORD97":170966.01999999999,"N_COORD97":2545824.25,"ADDRESS":"新興街３５巷１１號","OBJECTID":418684},"geometry":{"x":170966.02000000048,"y":2545824.2500000019}},{"attributes":{"ID":418710,"DIS_CODE":0,"TOWNNAME":"永康區","LI":"六合里","LIN":"2鄰","STREET":"新興街","SECT":" ","MAREA":" ","LANE":"３５巷","ALLEY":" ","HOUSE_NO":"１２號","E_COORD97":170969.92999999999,"N_COORD97":2545826.25,"ADDRESS":"新興街３５巷１２號","OBJECTID":418685},"geometry":{"x":170969.93000000156,"y":2545826.2500000037}},{"attributes":{"ID":418711,"DIS_CODE":0,"TOWNNAME":"永康區","LI":"永康里","LIN":"2鄰","STREET":"中山北路","SECT":" ","MAREA":" ","LANE":"７９巷","ALLEY":" ","HOUSE_NO":"１３號","E_COORD97":173989.59,"N_COORD97":2547446.75,"ADDRESS":"中山北路７９巷１３號","OBJECTID":418686},"geometry":{"x":173989.58999999985,"y":2547446.7500000037}},{"attributes":{"ID":418712,"DIS_CODE":0,"TOWNNAME":"永康區","LI":"網寮里","LIN":"2鄰","STREET":"永二街","SECT":" ","MAREA":" ","LANE":"１２３巷","ALLEY":" ","HOUSE_NO":"１０號","E_COORD97":173576.26000000001,"N_COORD97":2546447.7000000002,"ADDRESS":"永二街１２３巷１０號","OBJECTID":418687},"geometry":{"x":173576.25999999978,"y":2546447.7000000011}},{"attributes":{"ID":418713,"DIS_CODE":0,"TOWNNAME":"永康區","LI":"大灣里","LIN":"2鄰","STREET":"大同街","SECT":" ","MAREA":" ","LANE":"１５３巷","ALLEY":" ","HOUSE_NO":"２８號","E_COORD97":174797.41,"N_COORD97":2545565.0800000001,"ADDRESS":"大同街１５３巷２８號","OBJECTID":418688},"geometry":{"x":174797.41000000015,"y":2545565.0800000001}},{"attributes":{"ID":418714,"DIS_CODE":0,"TOWNNAME":"永康區","LI":"正強里","LIN":"2鄰","STREET":"中正路","SECT":" ","MAREA":" ","LANE":"１巷","ALLEY":" ","HOUSE_NO":"２５號","E_COORD97":173679.04999999999,"N_COORD97":2547637.3199999998,"ADDRESS":"中正路１巷２５號","OBJECTID":418689},"geometry":{"x":173679.04999999981,"y":2547637.3200000022}},{"attributes":{"ID":418715,"DIS_CODE":0,"TOWNNAME":"永康區","LI":"六合里","LIN":"2鄰","STREET":"中山南路","SECT":" ","MAREA":" ","LANE":"３８巷","ALLEY":" ","HOUSE_NO":"５號","E_COORD97":170876.48000000001,"N_COORD97":2545823.75,"ADDRESS":"中山南路３８巷５號","OBJECTID":418690},"geometry":{"x":170876.48000000045,"y":2545823.7500000019}},{"attributes":{"ID":418716,"DIS_CODE":0,"TOWNNAME":"永康區","LI":"烏竹里","LIN":"2鄰","STREET":"烏竹北街","SECT":" ","MAREA":" ","LANE":"１８巷","ALLEY":" ","HOUSE_NO":"３８號","E_COORD97":174672.70000000001,"N_COORD97":2549404.5,"ADDRESS":"烏竹北街１８巷３８號","OBJECTID":418691},"geometry":{"x":174672.70000000112,"y":2549404.5}},{"attributes":{"ID":418717,"DIS_CODE":0,"TOWNNAME":"永康區","LI":"大灣里","LIN":"2鄰","STREET":"大安街","SECT":" ","MAREA":" ","LANE":"３４２巷","ALLEY":" ","HOUSE_NO":"１號","E_COORD97":174693.87,"N_COORD97":2545625.7799999998,"ADDRESS":"大安街３４２巷１號","OBJECTID":418692},"geometry":{"x":174693.87000000104,"y":2545625.7800000012}},{"attributes":{"ID":418718,"DIS_CODE":0,"TOWNNAME":"永康區","LI":"新樹里","LIN":"2鄰","STREET":"富強路","SECT":"二段","MAREA":" ","LANE":"３２６巷","ALLEY":" ","HOUSE_NO":"２４號","E_COORD97":175658.48000000001,"N_COORD97":2547521.1200000001,"ADDRESS":"富強路二段３２６巷２４號","OBJECTID":418693},"geometry":{"x":175658.48000000045,"y":2547521.1200000029}},{"attributes":{"ID":418719,"DIS_CODE":0,"TOWNNAME":"永康區","LI":"中興里","LIN":"2鄰","STREET":"忠孝路","SECT":" ","MAREA":" ","LANE":"２３９巷","ALLEY":" ","HOUSE_NO":"２７號","E_COORD97":171997.35999999999,"N_COORD97":2545023.3799999999,"ADDRESS":"忠孝路２３９巷２７號","OBJECTID":418694},"geometry":{"x":171997.36000000127,"y":2545023.379999999}},{"attributes":{"ID":418720,"DIS_CODE":0,"TOWNNAME":"永康區","LI":"尚頂里","LIN":"2鄰","STREET":"中正二街","SECT":" ","MAREA":" ","LANE":"１６９巷","ALLEY":" ","HOUSE_NO":"１９號","E_COORD97":171271.91,"N_COORD97":2547771.75,"ADDRESS":"中正二街１６９巷１９號","OBJECTID":418695},"geometry":{"x":171271.91000000015,"y":2547771.75}},{"attributes":{"ID":418721,"DIS_CODE":0,"TOWNNAME":"永康區","LI":"北灣里","LIN":"2鄰","STREET":"大灣路","SECT":" ","MAREA":" ","LANE":"１１９巷","ALLEY":" ","HOUSE_NO":"５６號","E_COORD97":175321.51999999999,"N_COORD97":2545547.96,"ADDRESS":"大灣路１１９巷５６號","OBJECTID":418696},"geometry":{"x":175321.51999999955,"y":2545547.9600000046}},{"attributes":{"ID":418722,"DIS_CODE":0,"TOWNNAME":"永康區","LI":"永康里","LIN":"2鄰","STREET":"中山北路","SECT":" ","MAREA":" ","LANE":"３５巷","ALLEY":" ","HOUSE_NO":"１１號","E_COORD97":173931.53,"N_COORD97":2547427.9900000002,"ADDRESS":"中山北路３５巷１１號","OBJECTID":418697},"geometry":{"x":173931.53000000119,"y":2547427.9900000002}},{"attributes":{"ID":418723,"DIS_CODE":0,"TOWNNAME":"永康區","LI":"王行里","LIN":"2鄰","STREET":"王行路","SECT":" ","MAREA":" ","LANE":"２０８巷","ALLEY":" ","HOUSE_NO":"２１號","E_COORD97":175743.01999999999,"N_COORD97":2548156.04,"ADDRESS":"王行路２０８巷２１號","OBJECTID":418698},"geometry":{"x":175743.02000000048,"y":2548156.0400000028}},{"attributes":{"ID":418724,"DIS_CODE":0,"TOWNNAME":"永康區","LI":"崑山里","LIN":"2鄰","STREET":"大灣路","SECT":" ","MAREA":" ","LANE":"８７９巷","ALLEY":" ","HOUSE_NO":"１５號","E_COORD97":173683.81,"N_COORD97":2544381.3599999999,"ADDRESS":"大灣路８７９巷１５號","OBJECTID":418699},"geometry":{"x":173683.80999999959,"y":2544381.3600000013}},{"attributes":{"ID":418725,"DIS_CODE":0,"TOWNNAME":"永康區","LI":"復國里","LIN":"2鄰","STREET":"復國一路","SECT":" ","MAREA":" ","LANE":"６巷","ALLEY":" ","HOUSE_NO":"１６號","E_COORD97":172782.92000000001,"N_COORD97":2544727.27,"ADDRESS":"復國一路６巷１６號","OBJECTID":418700},"geometry":{"x":172782.92000000086,"y":2544727.2700000033}},{"attributes":{"ID":418726,"DIS_CODE":0,"TOWNNAME":"永康區","LI":"二王里","LIN":"2鄰","STREET":"永二街","SECT":" ","MAREA":" ","LANE":"２６６巷","ALLEY":" ","HOUSE_NO":"３號","E_COORD97":173110.82999999999,"N_COORD97":2546515.6600000001,"ADDRESS":"永二街２６６巷３號","OBJECTID":418701},"geometry":{"x":173110.83000000101,"y":2546515.660000002}},{"attributes":{"ID":418727,"DIS_CODE":0,"TOWNNAME":"永康區","LI":"烏竹里","LIN":"2鄰","STREET":"烏竹街","SECT":" ","MAREA":" ","LANE":"６２巷","ALLEY":" ","HOUSE_NO":"２５號","E_COORD97":174572.26999999999,"N_COORD97":2549431,"ADDRESS":"烏竹街６２巷２５號","OBJECTID":418702},"geometry":{"x":174572.26999999955,"y":2549431}},{"attributes":{"ID":418728,"DIS_CODE":0,"TOWNNAME":"永康區","LI":"復國里","LIN":"2鄰","STREET":"復國一路","SECT":" ","MAREA":" ","LANE":"２８巷","ALLEY":" ","HOUSE_NO":"２５號","E_COORD97":172792.85999999999,"N_COORD97":2544776.23,"ADDRESS":"復國一路２８巷２５號","OBJECTID":418703},"geometry":{"x":172792.86000000034,"y":2544776.2300000023}},{"attributes":{"ID":418729,"DIS_CODE":0,"TOWNNAME":"永康區","LI":"二王里","LIN":"2鄰","STREET":"永二街","SECT":" ","MAREA":" ","LANE":"２８８巷","ALLEY":" ","HOUSE_NO":"１３號","E_COORD97":173099.57999999999,"N_COORD97":2546550.6699999999,"ADDRESS":"永二街２８８巷１３號","OBJECTID":418704},"geometry":{"x":173099.58000000007,"y":2546550.6699999999}},{"attributes":{"ID":418730,"DIS_CODE":0,"TOWNNAME":"永康區","LI":"勝利里","LIN":"2鄰","STREET":"勝利街","SECT":" ","MAREA":" ","LANE":"２巷","ALLEY":" ","HOUSE_NO":"８２號","E_COORD97":171002.56,"N_COORD97":2544784.7599999998,"ADDRESS":"勝利街２巷８２號","OBJECTID":418705},"geometry":{"x":171002.55999999959,"y":2544784.7599999998}},{"attributes":{"ID":418731,"DIS_CODE":0,"TOWNNAME":"永康區","LI":"南灣里","LIN":"2鄰","STREET":"大灣路","SECT":" ","MAREA":" ","LANE":"４３５巷","ALLEY":" ","HOUSE_NO":"２號","E_COORD97":174692.56,"N_COORD97":2544752.3900000001,"ADDRESS":"大灣路４３５巷２號","OBJECTID":418706},"geometry":{"x":174692.55999999959,"y":2544752.3900000025}},{"attributes":{"ID":418732,"DIS_CODE":0,"TOWNNAME":"永康區","LI":"埔園里","LIN":"2鄰","STREET":"中山路","SECT":" ","MAREA":" ","LANE":"１２０巷","ALLEY":" ","HOUSE_NO":"１１號","E_COORD97":173833.48000000001,"N_COORD97":2547754.25,"ADDRESS":"中山路１２０巷１１號","OBJECTID":418707},"geometry":{"x":173833.48000000231,"y":2547754.25}},{"attributes":{"ID":418733,"DIS_CODE":0,"TOWNNAME":"永康區","LI":"南灣里","LIN":"2鄰","STREET":"大灣一街","SECT":" ","MAREA":" ","LANE":"１４７巷","ALLEY":" ","HOUSE_NO":"３號","E_COORD97":174672.84,"N_COORD97":2544653.75,"ADDRESS":"大灣一街１４７巷３號","OBJECTID":418708},"geometry":{"x":174672.84000000171,"y":2544653.7500000019}},{"attributes":{"ID":418734,"DIS_CODE":0,"TOWNNAME":"永康區","LI":"埔園里","LIN":"2鄰","STREET":"聖龍街","SECT":" ","MAREA":" ","LANE":"２２巷","ALLEY":" ","HOUSE_NO":"２號","E_COORD97":173835.73999999999,"N_COORD97":2547765,"ADDRESS":"聖龍街２２巷２號","OBJECTID":418709},"geometry":{"x":173835.74000000022,"y":2547765.0000000019}},{"attributes":{"ID":418735,"DIS_CODE":0,"TOWNNAME":"永康區","LI":"神洲里","LIN":"2鄰","STREET":"忠孝路","SECT":" ","MAREA":" ","LANE":"３２巷","ALLEY":" ","HOUSE_NO":"２號","E_COORD97":172097.85999999999,"N_COORD97":2544635.2400000002,"ADDRESS":"忠孝路３２巷２號","OBJECTID":418710},"geometry":{"x":172097.86000000034,"y":2544635.2400000002}},{"attributes":{"ID":418736,"DIS_CODE":0,"TOWNNAME":"永康區","LI":"埔園里","LIN":"2鄰","STREET":"中山路","SECT":" ","MAREA":" ","LANE":"９４巷","ALLEY":" ","HOUSE_NO":"１號之１","E_COORD97":173858.23999999999,"N_COORD97":2547665.2999999998,"ADDRESS":"中山路９４巷１號之１","OBJECTID":418711},"geometry":{"x":173858.24000000022,"y":2547665.3000000026}},{"attributes":{"ID":418737,"DIS_CODE":0,"TOWNNAME":"南區","LI":"明亮里","LIN":"2鄰","STREET":"金華路","SECT":"一段","MAREA":" ","LANE":"２４２巷","ALLEY":" ","HOUSE_NO":"１０號","E_COORD97":167034.07000000001,"N_COORD97":2540918.3500000001,"ADDRESS":"金華路一段２４２巷１０號","OBJECTID":418712},"geometry":{"x":167034.07000000123,"y":2540918.3499999996}},{"attributes":{"ID":418738,"DIS_CODE":0,"TOWNNAME":"南區","LI":"明亮里","LIN":"2鄰","STREET":"金華路","SECT":"一段","MAREA":" ","LANE":"２４２巷","ALLEY":" ","HOUSE_NO":"１２號","E_COORD97":167038.23999999999,"N_COORD97":2540919.6600000001,"ADDRESS":"金華路一段２４２巷１２號","OBJECTID":418713},"geometry":{"x":167038.24000000022,"y":2540919.6600000001}},{"attributes":{"ID":418739,"DIS_CODE":0,"TOWNNAME":"南區","LI":"明亮里","LIN":"2鄰","STREET":"金華路","SECT":"一段","MAREA":" ","LANE":"２４２巷","ALLEY":" ","HOUSE_NO":"１３號","E_COORD97":167027.79000000001,"N_COORD97":2540926.7400000002,"ADDRESS":"金華路一段２４２巷１３號","OBJECTID":418714},"geometry":{"x":167027.79000000004,"y":2540926.7400000002}},{"attributes":{"ID":418740,"DIS_CODE":0,"TOWNNAME":"南區","LI":"明亮里","LIN":"2鄰","STREET":"金華路","SECT":"一段","MAREA":" ","LANE":"２４２巷","ALLEY":" ","HOUSE_NO":"１４號","E_COORD97":167041.10999999999,"N_COORD97":2540921.48,"ADDRESS":"金華路一段２４２巷１４號","OBJECTID":418715},"geometry":{"x":167041.11000000034,"y":2540921.4800000004}},{"attributes":{"ID":418741,"DIS_CODE":0,"TOWNNAME":"南區","LI":"明亮里","LIN":"2鄰","STREET":"金華路","SECT":"一段","MAREA":" ","LANE":"２４２巷","ALLEY":" ","HOUSE_NO":"１５號","E_COORD97":167030.66,"N_COORD97":2540928.04,"ADDRESS":"金華路一段２４２巷１５號","OBJECTID":418716},"geometry":{"x":167030.66000000015,"y":2540928.040000001}},{"attributes":{"ID":418742,"DIS_CODE":0,"TOWNNAME":"南區","LI":"明亮里","LIN":"2鄰","STREET":"金華路","SECT":"一段","MAREA":" ","LANE":"２４２巷","ALLEY":" ","HOUSE_NO":"１６號","E_COORD97":167043.98000000001,"N_COORD97":2540923.0499999998,"ADDRESS":"金華路一段２４２巷１６號","OBJECTID":418717},"geometry":{"x":167043.98000000045,"y":2540923.0500000026}},{"attributes":{"ID":418743,"DIS_CODE":0,"TOWNNAME":"學甲區","LI":"慈福里","LIN":"13鄰","STREET":"民族路","SECT":" ","MAREA":" ","LANE":" ","ALLEY":" ","HOUSE_NO":"５９號","E_COORD97":166606.35999999999,"N_COORD97":2570356.8900000001,"ADDRESS":"民族路５９號","OBJECTID":418718},"geometry":{"x":166606.36000000127,"y":2570356.8900000025}},{"attributes":{"ID":418744,"DIS_CODE":0,"TOWNNAME":"南區","LI":"明亮里","LIN":"2鄰","STREET":"金華路","SECT":"一段","MAREA":" ","LANE":"２４２巷","ALLEY":" ","HOUSE_NO":"１７號","E_COORD97":167034.32000000001,"N_COORD97":2540929.6099999999,"ADDRESS":"金華路一段２４２巷１７號","OBJECTID":418719},"geometry":{"x":167034.3200000003,"y":2540929.6099999994}},{"attributes":{"ID":418745,"DIS_CODE":0,"TOWNNAME":"南區","LI":"明亮里","LIN":"2鄰","STREET":"金華路","SECT":"一段","MAREA":" ","LANE":"２４２巷","ALLEY":" ","HOUSE_NO":"１８號","E_COORD97":167047.38,"N_COORD97":2540924.3500000001,"ADDRESS":"金華路一段２４２巷１８號","OBJECTID":418720},"geometry":{"x":167047.37999999989,"y":2540924.3500000015}},{"attributes":{"ID":418746,"DIS_CODE":0,"TOWNNAME":"南區","LI":"明亮里","LIN":"2鄰","STREET":"金華路","SECT":"一段","MAREA":" ","LANE":"２４２巷","ALLEY":" ","HOUSE_NO":"１９號","E_COORD97":167038.48999999999,"N_COORD97":2540930.6499999999,"ADDRESS":"金華路一段２４２巷１９號","OBJECTID":418721},"geometry":{"x":167038.49000000022,"y":2540930.6500000004}},{"attributes":{"ID":418747,"DIS_CODE":0,"TOWNNAME":"南區","LI":"明亮里","LIN":"2鄰","STREET":"金華路","SECT":"一段","MAREA":" ","LANE":"２４２巷","ALLEY":" ","HOUSE_NO":"２０號","E_COORD97":167051.03,"N_COORD97":2540924.8700000001,"ADDRESS":"金華路一段２４２巷２０號","OBJECTID":418722},"geometry":{"x":167051.03000000119,"y":2540924.8700000029}},{"attributes":{"ID":418748,"DIS_CODE":0,"TOWNNAME":"南區","LI":"明亮里","LIN":"2鄰","STREET":"金華路","SECT":"一段","MAREA":" ","LANE":"２４２巷","ALLEY":" ","HOUSE_NO":"２１號","E_COORD97":167042.67000000001,"N_COORD97":2540932.4700000002,"ADDRESS":"金華路一段２４２巷２１號","OBJECTID":418723},"geometry":{"x":167042.67000000086,"y":2540932.4700000007}},{"attributes":{"ID":418749,"DIS_CODE":0,"TOWNNAME":"南區","LI":"明亮里","LIN":"2鄰","STREET":"金華路","SECT":"一段","MAREA":" ","LANE":"２４２巷","ALLEY":" ","HOUSE_NO":"２５號之１","E_COORD97":167056.54000000001,"N_COORD97":2540943.02,"ADDRESS":"金華路一段２４２巷２５號之１","OBJECTID":418724},"geometry":{"x":167056.54000000004,"y":2540943.0200000014}},{"attributes":{"ID":418750,"DIS_CODE":0,"TOWNNAME":"南區","LI":"明亮里","LIN":"2鄰","STREET":"金華路","SECT":"一段","MAREA":" ","LANE":"２４２巷","ALLEY":" ","HOUSE_NO":"２８號","E_COORD97":167062.64999999999,"N_COORD97":2540934.2999999998,"ADDRESS":"金華路一段２４２巷２８號","OBJECTID":418725},"geometry":{"x":167062.65000000037,"y":2540934.3000000045}},{"attributes":{"ID":418751,"DIS_CODE":0,"TOWNNAME":"南區","LI":"明德里","LIN":"2鄰","STREET":"大成路","SECT":"一段","MAREA":" ","LANE":"１９３巷","ALLEY":" ","HOUSE_NO":"５７號","E_COORD97":167969.75,"N_COORD97":2541670.4300000002,"ADDRESS":"大成路一段１９３巷５７號","OBJECTID":418726},"geometry":{"x":167969.75000000093,"y":2541670.4299999997}},{"attributes":{"ID":418752,"DIS_CODE":0,"TOWNNAME":"南區","LI":"明德里","LIN":"2鄰","STREET":"大成路","SECT":"一段","MAREA":" ","LANE":"１９３巷","ALLEY":" ","HOUSE_NO":"２６號","E_COORD97":167932.92000000001,"N_COORD97":2541685.2000000002,"ADDRESS":"大成路一段１９３巷２６號","OBJECTID":418727},"geometry":{"x":167932.92000000086,"y":2541685.1999999993}},{"attributes":{"ID":418753,"DIS_CODE":0,"TOWNNAME":"南區","LI":"明德里","LIN":"2鄰","STREET":"大成路","SECT":"一段","MAREA":" ","LANE":"１９３巷","ALLEY":" ","HOUSE_NO":"５８號","E_COORD97":167975.14999999999,"N_COORD97":2541670.27,"ADDRESS":"大成路一段１９３巷５８號","OBJECTID":418728},"geometry":{"x":167975.15000000037,"y":2541670.2700000014}},{"attributes":{"ID":418754,"DIS_CODE":0,"TOWNNAME":"南區","LI":"明德里","LIN":"2鄰","STREET":"大成路","SECT":"一段","MAREA":" ","LANE":"１９３巷","ALLEY":" ","HOUSE_NO":"５６號","E_COORD97":167964.67000000001,"N_COORD97":2541667.8900000001,"ADDRESS":"大成路一段１９３巷５６號","OBJECTID":418729},"geometry":{"x":167964.67000000179,"y":2541667.8900000006}},{"attributes":{"ID":418755,"DIS_CODE":0,"TOWNNAME":"南區","LI":"明德里","LIN":"2鄰","STREET":"大成路","SECT":"一段","MAREA":" ","LANE":"１９３巷","ALLEY":" ","HOUSE_NO":"５０號","E_COORD97":167920.85000000001,"N_COORD97":2541667.9700000002,"ADDRESS":"大成路一段１９３巷５０號","OBJECTID":418730},"geometry":{"x":167920.85000000056,"y":2541667.9700000007}},{"attributes":{"ID":418756,"DIS_CODE":0,"TOWNNAME":"南區","LI":"明德里","LIN":"2鄰","STREET":"大成路","SECT":"一段","MAREA":" ","LANE":"１９３巷","ALLEY":" ","HOUSE_NO":"２０號","E_COORD97":167885.76999999999,"N_COORD97":2541668.29,"ADDRESS":"大成路一段１９３巷２０號","OBJECTID":418731},"geometry":{"x":167885.77000000048,"y":2541668.2900000028}},{"attributes":{"ID":418757,"DIS_CODE":0,"TOWNNAME":"南區","LI":"明德里","LIN":"2鄰","STREET":"大成路","SECT":"一段","MAREA":" ","LANE":"１９３巷","ALLEY":" ","HOUSE_NO":"２０號之２","E_COORD97":167887.20000000001,"N_COORD97":2541657.9700000002,"ADDRESS":"大成路一段１９３巷２０號之２","OBJECTID":418732},"geometry":{"x":167887.20000000112,"y":2541657.9700000007}},{"attributes":{"ID":418758,"DIS_CODE":0,"TOWNNAME":"南區","LI":"明德里","LIN":"2鄰","STREET":"大成路","SECT":"一段","MAREA":" ","LANE":"１９３巷","ALLEY":" ","HOUSE_NO":"２０號之３","E_COORD97":167887.82999999999,"N_COORD97":2541652.73,"ADDRESS":"大成路一段１９３巷２０號之３","OBJECTID":418733},"geometry":{"x":167887.83000000101,"y":2541652.7300000004}},{"attributes":{"ID":418759,"DIS_CODE":0,"TOWNNAME":"南區","LI":"明德里","LIN":"2鄰","STREET":"大成路","SECT":"一段","MAREA":" ","LANE":"１９３巷","ALLEY":" ","HOUSE_NO":"２０號之４","E_COORD97":167889.42000000001,"N_COORD97":2541644.6400000001,"ADDRESS":"大成路一段１９３巷２０號之４","OBJECTID":418734},"geometry":{"x":167889.41999999993,"y":2541644.6400000025}},{"attributes":{"ID":418760,"DIS_CODE":0,"TOWNNAME":"南區","LI":"明德里","LIN":"2鄰","STREET":"大成路","SECT":"一段","MAREA":" ","LANE":"１９３巷","ALLEY":" ","HOUSE_NO":"２０號之５","E_COORD97":167889.26000000001,"N_COORD97":2541637.73,"ADDRESS":"大成路一段１９３巷２０號之５","OBJECTID":418735},"geometry":{"x":167889.26000000164,"y":2541637.7300000023}},{"attributes":{"ID":418761,"DIS_CODE":0,"TOWNNAME":"南區","LI":"明德里","LIN":"2鄰","STREET":"大成路","SECT":"一段","MAREA":" ","LANE":"１９３巷","ALLEY":" ","HOUSE_NO":"２１號","E_COORD97":167896.09,"N_COORD97":2541684.3199999998,"ADDRESS":"大成路一段１９３巷２１號","OBJECTID":418736},"geometry":{"x":167896.09000000078,"y":2541684.3200000022}},{"attributes":{"ID":418762,"DIS_CODE":0,"TOWNNAME":"南區","LI":"明德里","LIN":"2鄰","STREET":"大成路","SECT":"一段","MAREA":" ","LANE":"１９３巷","ALLEY":" ","HOUSE_NO":"２２號","E_COORD97":167902.28,"N_COORD97":2541684.3199999998,"ADDRESS":"大成路一段１９３巷２２號","OBJECTID":418737},"geometry":{"x":167902.28000000119,"y":2541684.3200000022}},{"attributes":{"ID":418763,"DIS_CODE":0,"TOWNNAME":"南區","LI":"明德里","LIN":"2鄰","STREET":"大成路","SECT":"一段","MAREA":" ","LANE":"１９３巷","ALLEY":" ","HOUSE_NO":"２３號","E_COORD97":167908.31,"N_COORD97":2541684.6400000001,"ADDRESS":"大成路一段１９３巷２３號","OBJECTID":418738},"geometry":{"x":167908.30999999959,"y":2541684.6400000043}},{"attributes":{"ID":418764,"DIS_CODE":0,"TOWNNAME":"南區","LI":"明德里","LIN":"2鄰","STREET":"大成路","SECT":"一段","MAREA":" ","LANE":"１９３巷","ALLEY":" ","HOUSE_NO":"２４號","E_COORD97":167914.34,"N_COORD97":2541684.96,"ADDRESS":"大成路一段１９３巷２４號","OBJECTID":418739},"geometry":{"x":167914.34000000078,"y":2541684.9600000009}},{"attributes":{"ID":418765,"DIS_CODE":0,"TOWNNAME":"南區","LI":"明德里","LIN":"2鄰","STREET":"大成路","SECT":"一段","MAREA":" ","LANE":"１９３巷","ALLEY":" ","HOUSE_NO":"２５號","E_COORD97":167919.73999999999,"N_COORD97":2541685.1200000001,"ADDRESS":"大成路一段１９３巷２５號","OBJECTID":418740},"geometry":{"x":167919.74000000022,"y":2541685.1200000048}},{"attributes":{"ID":418766,"DIS_CODE":0,"TOWNNAME":"南區","LI":"明德里","LIN":"2鄰","STREET":"大成路","SECT":"一段","MAREA":" ","LANE":"１９３巷","ALLEY":" ","HOUSE_NO":"４６號","E_COORD97":167899.42000000001,"N_COORD97":2541667.9700000002,"ADDRESS":"大成路一段１９３巷４６號","OBJECTID":418741},"geometry":{"x":167899.41999999993,"y":2541667.9700000007}},{"attributes":{"ID":418767,"DIS_CODE":0,"TOWNNAME":"南區","LI":"明德里","LIN":"2鄰","STREET":"大成路","SECT":"一段","MAREA":" ","LANE":"１９３巷","ALLEY":" ","HOUSE_NO":"４７號","E_COORD97":167904.82000000001,"N_COORD97":2541667.8100000001,"ADDRESS":"大成路一段１９３巷４７號","OBJECTID":418742},"geometry":{"x":167904.82000000123,"y":2541667.8100000024}},{"attributes":{"ID":418768,"DIS_CODE":0,"TOWNNAME":"南區","LI":"明德里","LIN":"2鄰","STREET":"大成路","SECT":"一段","MAREA":" ","LANE":"１９３巷","ALLEY":" ","HOUSE_NO":"４８號","E_COORD97":167910.38,"N_COORD97":2541668.1299999999,"ADDRESS":"大成路一段１９３巷４８號","OBJECTID":418743},"geometry":{"x":167910.37999999989,"y":2541668.129999999}},{"attributes":{"ID":418769,"DIS_CODE":0,"TOWNNAME":"南區","LI":"明德里","LIN":"2鄰","STREET":"大成路","SECT":"一段","MAREA":" ","LANE":"１９３巷","ALLEY":" ","HOUSE_NO":"４９號","E_COORD97":167916.09,"N_COORD97":2541668.1299999999,"ADDRESS":"大成路一段１９３巷４９號","OBJECTID":418744},"geometry":{"x":167916.09000000078,"y":2541668.129999999}},{"attributes":{"ID":418770,"DIS_CODE":0,"TOWNNAME":"南區","LI":"明興里","LIN":"2鄰","STREET":"金華路","SECT":"一段","MAREA":" ","LANE":"２３０巷","ALLEY":" ","HOUSE_NO":"８號","E_COORD97":166997.16,"N_COORD97":2540843.1499999999,"ADDRESS":"金華路一段２３０巷８號","OBJECTID":418745},"geometry":{"x":166997.16000000108,"y":2540843.1500000004}},{"attributes":{"ID":418771,"DIS_CODE":0,"TOWNNAME":"鹽水區","LI":"岸內里","LIN":"24鄰","STREET":"北門路","SECT":" ","MAREA":" ","LANE":"９巷","ALLEY":" ","HOUSE_NO":"４１號","E_COORD97":175413.17999999999,"N_COORD97":2580421.3300000001,"ADDRESS":"北門路９巷４１號","OBJECTID":418746},"geometry":{"x":175413.18000000063,"y":2580421.3300000038}},{"attributes":{"ID":418772,"DIS_CODE":0,"TOWNNAME":"南區","LI":"明興里","LIN":"2鄰","STREET":"金華路","SECT":"一段","MAREA":" ","LANE":"２３０巷","ALLEY":" ","HOUSE_NO":"１０號","E_COORD97":167002.37,"N_COORD97":2540842.71,"ADDRESS":"金華路一段２３０巷１０號","OBJECTID":418747},"geometry":{"x":167002.37000000197,"y":2540842.7100000009}},{"attributes":{"ID":418773,"DIS_CODE":0,"TOWNNAME":"南區","LI":"明興里","LIN":"2鄰","STREET":"金華路","SECT":"一段","MAREA":" ","LANE":"２３０巷","ALLEY":" ","HOUSE_NO":"１２號","E_COORD97":167007.37,"N_COORD97":2540842.2599999998,"ADDRESS":"金華路一段２３０巷１２號","OBJECTID":418748},"geometry":{"x":167007.37000000197,"y":2540842.2600000035}},{"attributes":{"ID":418774,"DIS_CODE":0,"TOWNNAME":"南區","LI":"明興里","LIN":"2鄰","STREET":"金華路","SECT":"一段","MAREA":" ","LANE":"２３０巷","ALLEY":" ","HOUSE_NO":"１４號","E_COORD97":167012.35999999999,"N_COORD97":2540842.1499999999,"ADDRESS":"金華路一段２３０巷１４號","OBJECTID":418749},"geometry":{"x":167012.36000000034,"y":2540842.1500000004}},{"attributes":{"ID":418775,"DIS_CODE":0,"TOWNNAME":"南區","LI":"明興里","LIN":"2鄰","STREET":"金華路","SECT":"一段","MAREA":" ","LANE":"２３０巷","ALLEY":" ","HOUSE_NO":"１６號","E_COORD97":167017.45999999999,"N_COORD97":2540841.6000000001,"ADDRESS":"金華路一段２３０巷１６號","OBJECTID":418750},"geometry":{"x":167017.46000000089,"y":2540841.5999999996}},{"attributes":{"ID":418776,"DIS_CODE":0,"TOWNNAME":"南區","LI":"明興里","LIN":"2鄰","STREET":"金華路","SECT":"一段","MAREA":" ","LANE":"２３０巷","ALLEY":" ","HOUSE_NO":"１８號","E_COORD97":167022.78,"N_COORD97":2540841.9300000002,"ADDRESS":"金華路一段２３０巷１８號","OBJECTID":418751},"geometry":{"x":167022.78000000026,"y":2540841.9300000016}},{"attributes":{"ID":418777,"DIS_CODE":0,"TOWNNAME":"南區","LI":"明興里","LIN":"2鄰","STREET":"金華路","SECT":"一段","MAREA":" ","LANE":"２３０巷","ALLEY":" ","HOUSE_NO":"２０號","E_COORD97":167027.44,"N_COORD97":2540841.27,"ADDRESS":"金華路一段２３０巷２０號","OBJECTID":418752},"geometry":{"x":167027.43999999948,"y":2540841.2699999996}},{"attributes":{"ID":418778,"DIS_CODE":0,"TOWNNAME":"南區","LI":"明興里","LIN":"2鄰","STREET":"金華路","SECT":"一段","MAREA":" ","LANE":"２３０巷","ALLEY":" ","HOUSE_NO":"２１號","E_COORD97":167032.16,"N_COORD97":2540855.0099999998,"ADDRESS":"金華路一段２３０巷２１號","OBJECTID":418753},"geometry":{"x":167032.16000000015,"y":2540855.0100000016}},{"attributes":{"ID":418779,"DIS_CODE":0,"TOWNNAME":"南區","LI":"明興里","LIN":"2鄰","STREET":"金華路","SECT":"一段","MAREA":" ","LANE":"２３０巷","ALLEY":" ","HOUSE_NO":"２２號","E_COORD97":167041.51999999999,"N_COORD97":2540840.9399999999,"ADDRESS":"金華路一段２３０巷２２號","OBJECTID":418754},"geometry":{"x":167041.52000000048,"y":2540840.9400000013}},{"attributes":{"ID":418780,"DIS_CODE":0,"TOWNNAME":"南區","LI":"明興里","LIN":"2鄰","STREET":"金華路","SECT":"一段","MAREA":" ","LANE":"２３０巷","ALLEY":" ","HOUSE_NO":"２３號","E_COORD97":167039.20999999999,"N_COORD97":2540853.48,"ADDRESS":"金華路一段２３０巷２３號","OBJECTID":418755},"geometry":{"x":167039.21000000089,"y":2540853.4800000004}},{"attributes":{"ID":418781,"DIS_CODE":0,"TOWNNAME":"南區","LI":"明興里","LIN":"2鄰","STREET":"金華路","SECT":"一段","MAREA":" ","LANE":"２３０巷","ALLEY":" ","HOUSE_NO":"２４號","E_COORD97":167041.85999999999,"N_COORD97":2540836.1699999999,"ADDRESS":"金華路一段２３０巷２４號","OBJECTID":418756},"geometry":{"x":167041.86000000127,"y":2540836.1700000037}},{"attributes":{"ID":418782,"DIS_CODE":0,"TOWNNAME":"南區","LI":"明興里","LIN":"2鄰","STREET":"金華路","SECT":"一段","MAREA":" ","LANE":"２３０巷","ALLEY":" ","HOUSE_NO":"２５號","E_COORD97":167045.32999999999,"N_COORD97":2540853.23,"ADDRESS":"金華路一段２３０巷２５號","OBJECTID":418757},"geometry":{"x":167045.33000000101,"y":2540853.2300000042}},{"attributes":{"ID":418783,"DIS_CODE":0,"TOWNNAME":"南區","LI":"明興里","LIN":"2鄰","STREET":"金華路","SECT":"一段","MAREA":" ","LANE":"２３０巷","ALLEY":" ","HOUSE_NO":"２６號","E_COORD97":167041.63,"N_COORD97":2540832.6299999999,"ADDRESS":"金華路一段２３０巷２６號","OBJECTID":418758},"geometry":{"x":167041.63000000082,"y":2540832.6300000008}},{"attributes":{"ID":418784,"DIS_CODE":0,"TOWNNAME":"南區","LI":"明興里","LIN":"2鄰","STREET":"金華路","SECT":"一段","MAREA":" ","LANE":"２３０巷","ALLEY":" ","HOUSE_NO":"２７號","E_COORD97":167051.10999999999,"N_COORD97":2540855.52,"ADDRESS":"金華路一段２３０巷２７號","OBJECTID":418759},"geometry":{"x":167051.11000000034,"y":2540855.5199999996}},{"attributes":{"ID":418785,"DIS_CODE":0,"TOWNNAME":"南區","LI":"明興里","LIN":"2鄰","STREET":"金華路","SECT":"一段","MAREA":" ","LANE":"２３０巷","ALLEY":" ","HOUSE_NO":"３１號","E_COORD97":167055.70000000001,"N_COORD97":2540844.77,"ADDRESS":"金華路一段２３０巷３１號","OBJECTID":418760},"geometry":{"x":167055.70000000019,"y":2540844.7699999996}},{"attributes":{"ID":418786,"DIS_CODE":0,"TOWNNAME":"南區","LI":"明興里","LIN":"2鄰","STREET":"金華路","SECT":"一段","MAREA":" ","LANE":"２３０巷","ALLEY":" ","HOUSE_NO":"３３號","E_COORD97":167057.14000000001,"N_COORD97":2540840.1000000001,"ADDRESS":"金華路一段２３０巷３３號","OBJECTID":418761},"geometry":{"x":167057.13999999966,"y":2540840.1000000015}},{"attributes":{"ID":418787,"DIS_CODE":0,"TOWNNAME":"南區","LI":"明興里","LIN":"2鄰","STREET":"金華路","SECT":"一段","MAREA":" ","LANE":"２３０巷","ALLEY":" ","HOUSE_NO":"３５號","E_COORD97":167057.06,"N_COORD97":2540834.5899999999,"ADDRESS":"金華路一段２３０巷３５號","OBJECTID":418762},"geometry":{"x":167057.06000000052,"y":2540834.5900000017}},{"attributes":{"ID":418788,"DIS_CODE":0,"TOWNNAME":"南區","LI":"明興里","LIN":"2鄰","STREET":"金華路","SECT":"一段","MAREA":" ","LANE":"２３０巷","ALLEY":" ","HOUSE_NO":"３７號","E_COORD97":167074.04999999999,"N_COORD97":2540839.6800000002,"ADDRESS":"金華路一段２３０巷３７號","OBJECTID":418763},"geometry":{"x":167074.05000000075,"y":2540839.6800000016}},{"attributes":{"ID":418789,"DIS_CODE":0,"TOWNNAME":"南區","LI":"明興里","LIN":"2鄰","STREET":"金華路","SECT":"一段","MAREA":" ","LANE":"２３０巷","ALLEY":" ","HOUSE_NO":"３９號","E_COORD97":167077.62,"N_COORD97":2540835.0099999998,"ADDRESS":"金華路一段２３０巷３９號","OBJECTID":418764},"geometry":{"x":167077.62000000104,"y":2540835.0100000016}},{"attributes":{"ID":418790,"DIS_CODE":0,"TOWNNAME":"南區","LI":"明興里","LIN":"2鄰","STREET":"金華路","SECT":"一段","MAREA":" ","LANE":"２３０巷","ALLEY":" ","HOUSE_NO":"４１號","E_COORD97":167077.28,"N_COORD97":2540831.6200000001,"ADDRESS":"金華路一段２３０巷４１號","OBJECTID":418765},"geometry":{"x":167077.28000000026,"y":2540831.6200000029}},{"attributes":{"ID":418791,"DIS_CODE":0,"TOWNNAME":"南區","LI":"明興里","LIN":"2鄰","STREET":"金華路","SECT":"一段","MAREA":" ","LANE":"２３０巷","ALLEY":" ","HOUSE_NO":"４３號","E_COORD97":167076.60000000001,"N_COORD97":2540823.7799999998,"ADDRESS":"金華路一段２３０巷４３號","OBJECTID":418766},"geometry":{"x":167076.60000000056,"y":2540823.7799999993}},{"attributes":{"ID":418792,"DIS_CODE":0,"TOWNNAME":"南區","LI":"明興里","LIN":"2鄰","STREET":"金華路","SECT":"一段","MAREA":" ","LANE":"２３０巷","ALLEY":" ","HOUSE_NO":"４５號","E_COORD97":167072.35000000001,"N_COORD97":2540823.9500000002,"ADDRESS":"金華路一段２３０巷４５號","OBJECTID":418767},"geometry":{"x":167072.34999999963,"y":2540823.9500000011}},{"attributes":{"ID":418793,"DIS_CODE":0,"TOWNNAME":"南區","LI":"明興里","LIN":"2鄰","STREET":"金華路","SECT":"一段","MAREA":" ","LANE":"２３０巷","ALLEY":" ","HOUSE_NO":"４７號","E_COORD97":167054.59,"N_COORD97":2540824.6899999999,"ADDRESS":"金華路一段２３０巷４７號","OBJECTID":418768},"geometry":{"x":167054.58999999892,"y":2540824.6899999995}},{"attributes":{"ID":418794,"DIS_CODE":0,"TOWNNAME":"南區","LI":"明興里","LIN":"2鄰","STREET":"金華路","SECT":"一段","MAREA":" ","LANE":"２３０巷","ALLEY":" ","HOUSE_NO":"４９號","E_COORD97":167055.70000000001,"N_COORD97":2540820.6200000001,"ADDRESS":"金華路一段２３０巷４９號","OBJECTID":418769},"geometry":{"x":167055.70000000019,"y":2540820.6200000048}},{"attributes":{"ID":418795,"DIS_CODE":0,"TOWNNAME":"麻豆區","LI":"埤頭里","LIN":"16鄰","STREET":" ","SECT":" ","MAREA":"埤頭","LANE":" ","ALLEY":" ","HOUSE_NO":"１４７號","E_COORD97":170835.35052000001,"N_COORD97":2567264.9486500002,"ADDRESS":"埤頭１４７號","OBJECTID":418770},"geometry":{"x":170835.35051999986,"y":2567264.9486490004}},{"attributes":{"ID":418796,"DIS_CODE":0,"TOWNNAME":"南區","LI":"明興里","LIN":"2鄰","STREET":"金華路","SECT":"一段","MAREA":" ","LANE":"２３０巷","ALLEY":" ","HOUSE_NO":"５１號","E_COORD97":167054.42000000001,"N_COORD97":2540816.9700000002,"ADDRESS":"金華路一段２３０巷５１號","OBJECTID":418771},"geometry":{"x":167054.42000000086,"y":2540816.9700000007}},{"attributes":{"ID":418797,"DIS_CODE":0,"TOWNNAME":"南區","LI":"明興里","LIN":"2鄰","STREET":"金華路","SECT":"一段","MAREA":" ","LANE":"２３０巷","ALLEY":" ","HOUSE_NO":"５３號","E_COORD97":167053.91,"N_COORD97":2540813.3199999998,"ADDRESS":"金華路一段２３０巷５３號","OBJECTID":418772},"geometry":{"x":167053.91000000015,"y":2540813.3200000022}},{"attributes":{"ID":418798,"DIS_CODE":0,"TOWNNAME":"南區","LI":"金華里","LIN":"2鄰","STREET":"金華路","SECT":"二段","MAREA":" ","LANE":"５７巷","ALLEY":" ","HOUSE_NO":"５號","E_COORD97":167052.04000000001,"N_COORD97":2542099.7799999998,"ADDRESS":"金華路二段５７巷５號","OBJECTID":418773},"geometry":{"x":167052.04000000097,"y":2542099.7800000012}},{"attributes":{"ID":418799,"DIS_CODE":0,"TOWNNAME":"南區","LI":"金華里","LIN":"2鄰","STREET":"金華路","SECT":"二段","MAREA":" ","LANE":"５７巷","ALLEY":" ","HOUSE_NO":"６號","E_COORD97":167053.92000000001,"N_COORD97":2542118.98,"ADDRESS":"金華路二段５７巷６號","OBJECTID":418774},"geometry":{"x":167053.91999999993,"y":2542118.9800000004}},{"attributes":{"ID":418800,"DIS_CODE":0,"TOWNNAME":"南區","LI":"金華里","LIN":"2鄰","STREET":"金華路","SECT":"二段","MAREA":" ","LANE":"５７巷","ALLEY":" ","HOUSE_NO":"７號","E_COORD97":167046.92000000001,"N_COORD97":2542100.1000000001,"ADDRESS":"金華路二段５７巷７號","OBJECTID":418775},"geometry":{"x":167046.91999999993,"y":2542100.0999999996}},{"attributes":{"ID":418801,"DIS_CODE":0,"TOWNNAME":"南區","LI":"金華里","LIN":"2鄰","STREET":"金華路","SECT":"二段","MAREA":" ","LANE":"５７巷","ALLEY":" ","HOUSE_NO":"８號","E_COORD97":167048.79999999999,"N_COORD97":2542118.2999999998,"ADDRESS":"金華路二段５７巷８號","OBJECTID":418776},"geometry":{"x":167048.80000000075,"y":2542118.3000000026}},{"attributes":{"ID":418802,"DIS_CODE":0,"TOWNNAME":"南區","LI":"金華里","LIN":"2鄰","STREET":"金華路","SECT":"二段","MAREA":" ","LANE":"５７巷","ALLEY":" ","HOUSE_NO":"９號","E_COORD97":167043.06,"N_COORD97":2542100.7200000002,"ADDRESS":"金華路二段５７巷９號","OBJECTID":418777},"geometry":{"x":167043.06000000052,"y":2542100.7200000007}},{"attributes":{"ID":418803,"DIS_CODE":0,"TOWNNAME":"學甲區","LI":"慈福里","LIN":"13鄰","STREET":"民族路","SECT":" ","MAREA":" ","LANE":" ","ALLEY":" ","HOUSE_NO":"６０號","E_COORD97":166634.78,"N_COORD97":2570320.5099999998,"ADDRESS":"民族路６０號","OBJECTID":418778},"geometry":{"x":166634.78000000026,"y":2570320.5100000016}},{"attributes":{"ID":418804,"DIS_CODE":0,"TOWNNAME":"南區","LI":"金華里","LIN":"2鄰","STREET":"金華路","SECT":"二段","MAREA":" ","LANE":"５７巷","ALLEY":" ","HOUSE_NO":"１０號","E_COORD97":167044.01999999999,"N_COORD97":2542119.3300000001,"ADDRESS":"金華路二段５７巷１０號","OBJECTID":418779},"geometry":{"x":167044.01999999955,"y":2542119.3300000001}},{"attributes":{"ID":418805,"DIS_CODE":0,"TOWNNAME":"南區","LI":"金華里","LIN":"2鄰","STREET":"金華路","SECT":"二段","MAREA":" ","LANE":"５７巷","ALLEY":" ","HOUSE_NO":"１１號","E_COORD97":167037.85000000001,"N_COORD97":2542101.1400000001,"ADDRESS":"金華路二段５７巷１１號","OBJECTID":418780},"geometry":{"x":167037.85000000056,"y":2542101.1400000006}},{"attributes":{"ID":418806,"DIS_CODE":0,"TOWNNAME":"南區","LI":"金華里","LIN":"2鄰","STREET":"金華路","SECT":"二段","MAREA":" ","LANE":"５７巷","ALLEY":" ","HOUSE_NO":"１２號","E_COORD97":167038.56,"N_COORD97":2542120.3500000001,"ADDRESS":"金華路二段５７巷１２號","OBJECTID":418781},"geometry":{"x":167038.55999999959,"y":2542120.3500000015}},{"attributes":{"ID":418807,"DIS_CODE":0,"TOWNNAME":"南區","LI":"金華里","LIN":"2鄰","STREET":"金華路","SECT":"二段","MAREA":" ","LANE":"５７巷","ALLEY":" ","HOUSE_NO":"１３號","E_COORD97":167033.26000000001,"N_COORD97":2542101.0299999998,"ADDRESS":"金華路二段５７巷１３號","OBJECTID":418782},"geometry":{"x":167033.26000000164,"y":2542101.0300000031}},{"attributes":{"ID":418808,"DIS_CODE":0,"TOWNNAME":"南區","LI":"金華里","LIN":"2鄰","STREET":"金華路","SECT":"二段","MAREA":" ","LANE":"５７巷","ALLEY":" ","HOUSE_NO":"１４號","E_COORD97":167034.95000000001,"N_COORD97":2542120.3599999999,"ADDRESS":"金華路二段５７巷１４號","OBJECTID":418783},"geometry":{"x":167034.95000000019,"y":2542120.3600000013}},{"attributes":{"ID":418809,"DIS_CODE":0,"TOWNNAME":"南區","LI":"金華里","LIN":"2鄰","STREET":"金華路","SECT":"二段","MAREA":" ","LANE":"５７巷","ALLEY":" ","HOUSE_NO":"１５號","E_COORD97":167028.76999999999,"N_COORD97":2542101.4500000002,"ADDRESS":"金華路二段５７巷１５號","OBJECTID":418784},"geometry":{"x":167028.76999999955,"y":2542101.450000003}},{"attributes":{"ID":418810,"DIS_CODE":0,"TOWNNAME":"南區","LI":"金華里","LIN":"2鄰","STREET":"金華路","SECT":"二段","MAREA":" ","LANE":"５７巷","ALLEY":" ","HOUSE_NO":"１６號","E_COORD97":167030.41,"N_COORD97":2542120.52,"ADDRESS":"金華路二段５７巷１６號","OBJECTID":418785},"geometry":{"x":167030.41000000015,"y":2542120.5199999996}},{"attributes":{"ID":418811,"DIS_CODE":0,"TOWNNAME":"南區","LI":"金華里","LIN":"2鄰","STREET":"金華路","SECT":"二段","MAREA":" ","LANE":"５７巷","ALLEY":" ","HOUSE_NO":"１７號","E_COORD97":167023.23999999999,"N_COORD97":2542101.7599999998,"ADDRESS":"金華路二段５７巷１７號","OBJECTID":418786},"geometry":{"x":167023.24000000022,"y":2542101.7599999998}},{"attributes":{"ID":418812,"DIS_CODE":0,"TOWNNAME":"南區","LI":"金華里","LIN":"2鄰","STREET":"金華路","SECT":"二段","MAREA":" ","LANE":"５７巷","ALLEY":" ","HOUSE_NO":"１８號","E_COORD97":167025.01000000001,"N_COORD97":2542120.02,"ADDRESS":"金華路二段５７巷１８號","OBJECTID":418787},"geometry":{"x":167025.01000000071,"y":2542120.0199999996}},{"attributes":{"ID":418813,"DIS_CODE":0,"TOWNNAME":"南區","LI":"金華里","LIN":"2鄰","STREET":"金華路","SECT":"二段","MAREA":" ","LANE":"５７巷","ALLEY":" ","HOUSE_NO":"１９號","E_COORD97":167018.85999999999,"N_COORD97":2542101.79,"ADDRESS":"金華路二段５７巷１９號","OBJECTID":418788},"geometry":{"x":167018.86000000034,"y":2542101.7899999991}},{"attributes":{"ID":418814,"DIS_CODE":0,"TOWNNAME":"南區","LI":"金華里","LIN":"2鄰","STREET":"金華路","SECT":"二段","MAREA":" ","LANE":"５７巷","ALLEY":" ","HOUSE_NO":"２０號","E_COORD97":167019.88,"N_COORD97":2542121.1600000001,"ADDRESS":"金華路二段５７巷２０號","OBJECTID":418789},"geometry":{"x":167019.87999999989,"y":2542121.1599999983}},{"attributes":{"ID":418815,"DIS_CODE":0,"TOWNNAME":"南區","LI":"金華里","LIN":"2鄰","STREET":"金華路","SECT":"二段","MAREA":" ","LANE":"５７巷","ALLEY":" ","HOUSE_NO":"２１號","E_COORD97":167004.98000000001,"N_COORD97":2542102.1800000002,"ADDRESS":"金華路二段５７巷２１號","OBJECTID":418790},"geometry":{"x":167004.98000000045,"y":2542102.1799999997}},{"attributes":{"ID":418816,"DIS_CODE":0,"TOWNNAME":"南區","LI":"金華里","LIN":"2鄰","STREET":"金華路","SECT":"二段","MAREA":" ","LANE":"５７巷","ALLEY":" ","HOUSE_NO":"２２號","E_COORD97":167006.45000000001,"N_COORD97":2542122.9700000002,"ADDRESS":"金華路二段５７巷２２號","OBJECTID":418791},"geometry":{"x":167006.45000000019,"y":2542122.9699999988}},{"attributes":{"ID":418817,"DIS_CODE":0,"TOWNNAME":"南區","LI":"金華里","LIN":"2鄰","STREET":"金華路","SECT":"二段","MAREA":" ","LANE":"５７巷","ALLEY":" ","HOUSE_NO":"２３號","E_COORD97":166999.53,"N_COORD97":2542102.7799999998,"ADDRESS":"金華路二段５７巷２３號","OBJECTID":418792},"geometry":{"x":166999.52999999933,"y":2542102.7800000031}},{"attributes":{"ID":418818,"DIS_CODE":0,"TOWNNAME":"南區","LI":"金華里","LIN":"2鄰","STREET":"金華路","SECT":"二段","MAREA":" ","LANE":"５７巷","ALLEY":" ","HOUSE_NO":"２４號","E_COORD97":167000.95999999999,"N_COORD97":2542122.5800000001,"ADDRESS":"金華路二段５７巷２４號","OBJECTID":418793},"geometry":{"x":167000.95999999996,"y":2542122.5800000019}},{"attributes":{"ID":418819,"DIS_CODE":0,"TOWNNAME":"南區","LI":"金華里","LIN":"2鄰","STREET":"金華路","SECT":"二段","MAREA":" ","LANE":"５７巷","ALLEY":" ","HOUSE_NO":"２５號","E_COORD97":166993.57999999999,"N_COORD97":2542101.79,"ADDRESS":"金華路二段５７巷２５號","OBJECTID":418794},"geometry":{"x":166993.58000000007,"y":2542101.7899999991}},{"attributes":{"ID":418820,"DIS_CODE":0,"TOWNNAME":"南區","LI":"金華里","LIN":"2鄰","STREET":"金華路","SECT":"二段","MAREA":" ","LANE":"５７巷","ALLEY":" ","HOUSE_NO":"２６號","E_COORD97":166996.64999999999,"N_COORD97":2542123.3599999999,"ADDRESS":"金華路二段５７巷２６號","OBJECTID":418795},"geometry":{"x":166996.65000000037,"y":2542123.3600000013}},{"attributes":{"ID":418821,"DIS_CODE":0,"TOWNNAME":"南區","LI":"金華里","LIN":"2鄰","STREET":"金華路","SECT":"二段","MAREA":" ","LANE":"５７巷","ALLEY":" ","HOUSE_NO":"２７號","E_COORD97":166988.87,"N_COORD97":2542105.2400000002,"ADDRESS":"金華路二段５７巷２７號","OBJECTID":418796},"geometry":{"x":166988.87000000104,"y":2542105.2400000021}},{"attributes":{"ID":418822,"DIS_CODE":0,"TOWNNAME":"南區","LI":"金華里","LIN":"2鄰","STREET":"金華路","SECT":"二段","MAREA":" ","LANE":"５７巷","ALLEY":" ","HOUSE_NO":"２８號","E_COORD97":166990.76000000001,"N_COORD97":2542122.9700000002,"ADDRESS":"金華路二段５７巷２８號","OBJECTID":418797},"geometry":{"x":166990.76000000164,"y":2542122.9699999988}},{"attributes":{"ID":418823,"DIS_CODE":0,"TOWNNAME":"南區","LI":"金華里","LIN":"2鄰","STREET":"金華路","SECT":"二段","MAREA":" ","LANE":"５７巷","ALLEY":" ","HOUSE_NO":"２９號","E_COORD97":166983.67000000001,"N_COORD97":2542104.2599999998,"ADDRESS":"金華路二段５７巷２９號","OBJECTID":418798},"geometry":{"x":166983.67000000086,"y":2542104.2600000016}},{"attributes":{"ID":418824,"DIS_CODE":0,"TOWNNAME":"南區","LI":"金華里","LIN":"2鄰","STREET":"金華路","SECT":"二段","MAREA":" ","LANE":"５７巷","ALLEY":" ","HOUSE_NO":"３０號","E_COORD97":166986.45000000001,"N_COORD97":2542124.1400000001,"ADDRESS":"金華路二段５７巷３０號","OBJECTID":418799},"geometry":{"x":166986.44999999925,"y":2542124.1400000006}},{"attributes":{"ID":418825,"DIS_CODE":0,"TOWNNAME":"南區","LI":"金華里","LIN":"2鄰","STREET":"金華路","SECT":"二段","MAREA":" ","LANE":"５７巷","ALLEY":" ","HOUSE_NO":"３１號","E_COORD97":166978.95999999999,"N_COORD97":2542106.2400000002,"ADDRESS":"金華路二段５７巷３１號","OBJECTID":418800},"geometry":{"x":166978.95999999996,"y":2542106.2400000002}}]}