{"displayFieldName":"TOWNNAME","fieldAliases":{"ID":"ID","DIS_CODE":"DIS_CODE","TOWNNAME":"TOWNNAME","LI":"LI","LIN":"LIN","STREET":"STREET","SECT":"SECT","MAREA":"MAREA","LANE":"LANE","ALLEY":"ALLEY","HOUSE_NO":"HOUSE_NO","E_COORD97":"E_COORD97","N_COORD97":"N_COORD97","ADDRESS":"ADDRESS","OBJECTID":"OBJECTID"},"geometryType":"esriGeometryPoint","spatialReference":{"wkid":102443,"latestWkid":3826},"fields":[{"name":"ID","type":"esriFieldTypeDouble","alias":"ID"},{"name":"DIS_CODE","type":"esriFieldTypeInteger","alias":"DIS_CODE"},{"name":"TOWNNAME","type":"esriFieldTypeString","alias":"TOWNNAME","length":8},{"name":"LI","type":"esriFieldTypeString","alias":"LI","length":8},{"name":"LIN","type":"esriFieldTypeString","alias":"LIN","length":12},{"name":"STREET","type":"esriFieldTypeString","alias":"STREET","length":20},{"name":"SECT","type":"esriFieldTypeString","alias":"SECT","length":8},{"name":"MAREA","type":"esriFieldTypeString","alias":"MAREA","length":12},{"name":"LANE","type":"esriFieldTypeString","alias":"LANE","length":10},{"name":"ALLEY","type":"esriFieldTypeString","alias":"ALLEY","length":10},{"name":"HOUSE_NO","type":"esriFieldTypeString","alias":"HOUSE_NO","length":20},{"name":"E_COORD97","type":"esriFieldTypeDouble","alias":"E_COORD97"},{"name":"N_COORD97","type":"esriFieldTypeDouble","alias":"N_COORD97"},{"name":"ADDRESS","type":"esriFieldTypeString","alias":"ADDRESS","length":50},{"name":"OBJECTID","type":"esriFieldTypeOID","alias":"OBJECTID"}],"features":[{"attributes":{"ID":116201,"DIS_CODE":0,"TOWNNAME":"善化區","LI":"坐駕里","LIN":"17鄰","STREET":"興華路","SECT":" ","MAREA":" ","LANE":"２６１巷","ALLEY":"２弄","HOUSE_NO":"２８號","E_COORD97":177970.22,"N_COORD97":2558490.75,"ADDRESS":"興華路２６１巷２弄２８號","OBJECTID":116201},"geometry":{"x":177970.21999999974,"y":2558490.7500000019}},{"attributes":{"ID":116202,"DIS_CODE":0,"TOWNNAME":"永康區","LI":"東橋里","LIN":"23鄰","STREET":"中正路","SECT":" ","MAREA":" ","LANE":"２１７巷","ALLEY":"３弄","HOUSE_NO":"４７號","E_COORD97":172896.5,"N_COORD97":2547796.54,"ADDRESS":"中正路２１７巷３弄４７號","OBJECTID":116202},"geometry":{"x":172896.5,"y":2547796.5400000028}},{"attributes":{"ID":116203,"DIS_CODE":0,"TOWNNAME":"永康區","LI":"東橋里","LIN":"23鄰","STREET":"中正路","SECT":" ","MAREA":" ","LANE":"２１７巷","ALLEY":"３弄","HOUSE_NO":"３５號","E_COORD97":172919.57999999999,"N_COORD97":2547851.9900000002,"ADDRESS":"中正路２１７巷３弄３５號","OBJECTID":116203},"geometry":{"x":172919.58000000007,"y":2547851.9900000002}},{"attributes":{"ID":116204,"DIS_CODE":0,"TOWNNAME":"永康區","LI":"東橋里","LIN":"23鄰","STREET":"中正路","SECT":" ","MAREA":" ","LANE":"２１７巷","ALLEY":"３弄","HOUSE_NO":"５５號","E_COORD97":172879.14000000001,"N_COORD97":2547803.4100000001,"ADDRESS":"中正路２１７巷３弄５５號","OBJECTID":116204},"geometry":{"x":172879.1400000006,"y":2547803.410000002}},{"attributes":{"ID":116205,"DIS_CODE":0,"TOWNNAME":"永康區","LI":"東橋里","LIN":"23鄰","STREET":"中正路","SECT":" ","MAREA":" ","LANE":"２１７巷","ALLEY":"３弄","HOUSE_NO":"３７號","E_COORD97":172905.60999999999,"N_COORD97":2547849.7400000002,"ADDRESS":"中正路２１７巷３弄３７號","OBJECTID":116205},"geometry":{"x":172905.61000000127,"y":2547849.7400000002}},{"attributes":{"ID":116206,"DIS_CODE":0,"TOWNNAME":"永康區","LI":"東橋里","LIN":"23鄰","STREET":"中正路","SECT":" ","MAREA":" ","LANE":"２１７巷","ALLEY":"３弄","HOUSE_NO":"５３號","E_COORD97":172880.54000000001,"N_COORD97":2547795.1699999999,"ADDRESS":"中正路２１７巷３弄５３號","OBJECTID":116206},"geometry":{"x":172880.54000000097,"y":2547795.1699999999}},{"attributes":{"ID":116207,"DIS_CODE":0,"TOWNNAME":"永康區","LI":"東橋里","LIN":"23鄰","STREET":"中正路","SECT":" ","MAREA":" ","LANE":"２１７巷","ALLEY":"３弄","HOUSE_NO":"４９號","E_COORD97":172897.87,"N_COORD97":2547788.54,"ADDRESS":"中正路２１７巷３弄４９號","OBJECTID":116207},"geometry":{"x":172897.87000000011,"y":2547788.5399999991}},{"attributes":{"ID":116208,"DIS_CODE":0,"TOWNNAME":"永康區","LI":"東橋里","LIN":"23鄰","STREET":"中正路","SECT":" ","MAREA":" ","LANE":"２１７巷","ALLEY":"３弄","HOUSE_NO":"１５號","E_COORD97":172975.89999999999,"N_COORD97":2547822.1499999999,"ADDRESS":"中正路２１７巷３弄１５號","OBJECTID":116208},"geometry":{"x":172975.90000000037,"y":2547822.1500000022}},{"attributes":{"ID":116209,"DIS_CODE":0,"TOWNNAME":"永康區","LI":"東橋里","LIN":"23鄰","STREET":"中正路","SECT":" ","MAREA":" ","LANE":"２１７巷","ALLEY":"３弄","HOUSE_NO":"１７號","E_COORD97":172978.06,"N_COORD97":2547813.6499999999,"ADDRESS":"中正路２１７巷３弄１７號","OBJECTID":116209},"geometry":{"x":172978.06000000052,"y":2547813.6500000004}},{"attributes":{"ID":116210,"DIS_CODE":0,"TOWNNAME":"永康區","LI":"東橋里","LIN":"23鄰","STREET":"中正路","SECT":" ","MAREA":" ","LANE":"２１７巷","ALLEY":"３弄","HOUSE_NO":"５７號","E_COORD97":172877.89000000001,"N_COORD97":2547811.1600000001,"ADDRESS":"中正路２１７巷３弄５７號","OBJECTID":116210},"geometry":{"x":172877.8900000006,"y":2547811.160000002}},{"attributes":{"ID":116211,"DIS_CODE":0,"TOWNNAME":"永康區","LI":"東橋里","LIN":"23鄰","STREET":"中正路","SECT":" ","MAREA":" ","LANE":"２１７巷","ALLEY":"３弄","HOUSE_NO":"３１號","E_COORD97":172941.32999999999,"N_COORD97":2547856.25,"ADDRESS":"中正路２１７巷３弄３１號","OBJECTID":116211},"geometry":{"x":172941.33000000101,"y":2547856.25}},{"attributes":{"ID":116212,"DIS_CODE":0,"TOWNNAME":"永康區","LI":"東橋里","LIN":"23鄰","STREET":"中正路","SECT":" ","MAREA":" ","LANE":"２１７巷","ALLEY":"３弄","HOUSE_NO":"５號","E_COORD97":172995.67000000001,"N_COORD97":2547867.9100000001,"ADDRESS":"中正路２１７巷３弄５號","OBJECTID":116212},"geometry":{"x":172995.66999999993,"y":2547867.910000002}},{"attributes":{"ID":116213,"DIS_CODE":0,"TOWNNAME":"永康區","LI":"東橋里","LIN":"23鄰","STREET":"中正路","SECT":" ","MAREA":" ","LANE":"２１７巷","ALLEY":"３弄","HOUSE_NO":"９號","E_COORD97":172977.92000000001,"N_COORD97":2547864.4100000001,"ADDRESS":"中正路２１７巷３弄９號","OBJECTID":116213},"geometry":{"x":172977.92000000086,"y":2547864.410000002}},{"attributes":{"ID":116214,"DIS_CODE":0,"TOWNNAME":"大內區","LI":"石城里","LIN":"1鄰","STREET":" ","SECT":" ","MAREA":"石子瀨","LANE":" ","ALLEY":" ","HOUSE_NO":"９號","E_COORD97":184275.87,"N_COORD97":2557861.25,"ADDRESS":"石子瀨９號","OBJECTID":116214},"geometry":{"x":184275.87000000011,"y":2557861.25}},{"attributes":{"ID":116215,"DIS_CODE":0,"TOWNNAME":"大內區","LI":"石城里","LIN":"1鄰","STREET":" ","SECT":" ","MAREA":"石子瀨","LANE":" ","ALLEY":" ","HOUSE_NO":"７號","E_COORD97":184295.76999999999,"N_COORD97":2557773.25,"ADDRESS":"石子瀨７號","OBJECTID":116215},"geometry":{"x":184295.77000000048,"y":2557773.25}},{"attributes":{"ID":116216,"DIS_CODE":0,"TOWNNAME":"大內區","LI":"頭社里","LIN":"1鄰","STREET":" ","SECT":" ","MAREA":"頭社","LANE":" ","ALLEY":" ","HOUSE_NO":"１號之１０","E_COORD97":186919.82999999999,"N_COORD97":2560320.2999999998,"ADDRESS":"頭社１號之１０","OBJECTID":116216},"geometry":{"x":186919.83000000101,"y":2560320.2999999989}},{"attributes":{"ID":116217,"DIS_CODE":0,"TOWNNAME":"大內區","LI":"石城里","LIN":"1鄰","STREET":" ","SECT":" ","MAREA":"石子瀨","LANE":" ","ALLEY":" ","HOUSE_NO":"１號","E_COORD97":184329.87,"N_COORD97":2557806.25,"ADDRESS":"石子瀨１號","OBJECTID":116217},"geometry":{"x":184329.87000000011,"y":2557806.25}},{"attributes":{"ID":116218,"DIS_CODE":0,"TOWNNAME":"大內區","LI":"環湖里","LIN":"1鄰","STREET":" ","SECT":" ","MAREA":"環湖","LANE":" ","ALLEY":" ","HOUSE_NO":"１０號","E_COORD97":190647.84,"N_COORD97":2559922.25,"ADDRESS":"環湖１０號","OBJECTID":116218},"geometry":{"x":190647.83999999985,"y":2559922.25}},{"attributes":{"ID":116219,"DIS_CODE":0,"TOWNNAME":"大內區","LI":"曲溪里","LIN":"1鄰","STREET":" ","SECT":" ","MAREA":"二重溪","LANE":" ","ALLEY":" ","HOUSE_NO":"１號之３","E_COORD97":187458.47,"N_COORD97":2557687.3100000001,"ADDRESS":"二重溪１號之３","OBJECTID":116219},"geometry":{"x":187458.46999999974,"y":2557687.3100000024}},{"attributes":{"ID":116220,"DIS_CODE":0,"TOWNNAME":"麻豆區","LI":"大埕里","LIN":"1鄰","STREET":"忠孝路","SECT":" ","MAREA":" ","LANE":" ","ALLEY":" ","HOUSE_NO":"４號之１","E_COORD97":173077.42999999999,"N_COORD97":2565020.21,"ADDRESS":"忠孝路４號之１","OBJECTID":116220},"geometry":{"x":173077.43000000063,"y":2565020.209999999}},{"attributes":{"ID":116221,"DIS_CODE":0,"TOWNNAME":"永康區","LI":"東橋里","LIN":"23鄰","STREET":"中正路","SECT":" ","MAREA":" ","LANE":"２１７巷","ALLEY":"３弄","HOUSE_NO":"１３號","E_COORD97":172974.51999999999,"N_COORD97":2547829.8999999999,"ADDRESS":"中正路２１７巷３弄１３號","OBJECTID":116221},"geometry":{"x":172974.52000000142,"y":2547829.9000000022}},{"attributes":{"ID":116222,"DIS_CODE":0,"TOWNNAME":"安南區","LI":"安東里","LIN":"23鄰","STREET":"安和路","SECT":"一段","MAREA":" ","LANE":"４９６巷","ALLEY":"４１弄","HOUSE_NO":"２６號","E_COORD97":169593.06,"N_COORD97":2548383.3399999999,"ADDRESS":"安和路一段４９６巷４１弄２６號","OBJECTID":116222},"geometry":{"x":169593.06000000052,"y":2548383.3400000017}},{"attributes":{"ID":116223,"DIS_CODE":0,"TOWNNAME":"麻豆區","LI":"大埕里","LIN":"1鄰","STREET":"忠孝路","SECT":" ","MAREA":" ","LANE":" ","ALLEY":" ","HOUSE_NO":"４號之２","E_COORD97":173081.70000000001,"N_COORD97":2565020.1800000002,"ADDRESS":"忠孝路４號之２","OBJECTID":116223},"geometry":{"x":173081.70000000019,"y":2565020.1800000016}},{"attributes":{"ID":116224,"DIS_CODE":0,"TOWNNAME":"安南區","LI":"長安里","LIN":"23鄰","STREET":"長溪路","SECT":"三段","MAREA":" ","LANE":"３７３巷","ALLEY":"２１弄","HOUSE_NO":"２８２號","E_COORD97":167437.23999999999,"N_COORD97":2551550.7999999998,"ADDRESS":"長溪路三段３７３巷２１弄２８２號","OBJECTID":116224},"geometry":{"x":167437.24000000209,"y":2551550.8000000026}},{"attributes":{"ID":116225,"DIS_CODE":0,"TOWNNAME":"安南區","LI":"安富里","LIN":"23鄰","STREET":"郡安路","SECT":"五段","MAREA":" ","LANE":"１６４巷","ALLEY":"７弄","HOUSE_NO":"２１號","E_COORD97":167733.75,"N_COORD97":2547642.3700000001,"ADDRESS":"郡安路五段１６４巷７弄２１號","OBJECTID":116225},"geometry":{"x":167733.75000000093,"y":2547642.370000001}},{"attributes":{"ID":116226,"DIS_CODE":0,"TOWNNAME":"大內區","LI":"二溪里","LIN":"1鄰","STREET":" ","SECT":" ","MAREA":"二重溪","LANE":" ","ALLEY":" ","HOUSE_NO":"１３５號之５","E_COORD97":187511.53,"N_COORD97":2557865.3100000001,"ADDRESS":"二重溪１３５號之５","OBJECTID":116226},"geometry":{"x":187511.53000000212,"y":2557865.3100000005}},{"attributes":{"ID":116227,"DIS_CODE":0,"TOWNNAME":"大內區","LI":"大內里","LIN":"1鄰","STREET":" ","SECT":" ","MAREA":"內庄","LANE":" ","ALLEY":" ","HOUSE_NO":"１號之１５","E_COORD97":184220.32000000001,"N_COORD97":2557664.2999999998,"ADDRESS":"內庄１號之１５","OBJECTID":116227},"geometry":{"x":184220.3200000003,"y":2557664.3000000007}},{"attributes":{"ID":116228,"DIS_CODE":0,"TOWNNAME":"大內區","LI":"內江里","LIN":"1鄰","STREET":" ","SECT":" ","MAREA":"內庄","LANE":" ","ALLEY":" ","HOUSE_NO":"２１６號","E_COORD97":184663.88,"N_COORD97":2557310.25,"ADDRESS":"內庄２１６號","OBJECTID":116228},"geometry":{"x":184663.87999999989,"y":2557310.2500000019}},{"attributes":{"ID":116229,"DIS_CODE":0,"TOWNNAME":"麻豆區","LI":"安西里","LIN":"1鄰","STREET":" ","SECT":" ","MAREA":"東溪洲","LANE":" ","ALLEY":" ","HOUSE_NO":"２號之１４","E_COORD97":172454.29999999999,"N_COORD97":2561467.7400000002,"ADDRESS":"東溪洲２號之１４","OBJECTID":116229},"geometry":{"x":172454.30000000075,"y":2561467.7400000021}},{"attributes":{"ID":116230,"DIS_CODE":0,"TOWNNAME":"麻豆區","LI":"安西里","LIN":"1鄰","STREET":" ","SECT":" ","MAREA":"東溪洲","LANE":" ","ALLEY":" ","HOUSE_NO":"２號之１５","E_COORD97":172454.13,"N_COORD97":2561463.7200000002,"ADDRESS":"東溪洲２號之１５","OBJECTID":116230},"geometry":{"x":172454.13000000082,"y":2561463.7200000044}},{"attributes":{"ID":116231,"DIS_CODE":0,"TOWNNAME":"安南區","LI":"海東里","LIN":"23鄰","STREET":"同安路","SECT":" ","MAREA":" ","LANE":"１４５巷","ALLEY":"１７弄","HOUSE_NO":"１號","E_COORD97":166991.39000000001,"N_COORD97":2549095.5600000001,"ADDRESS":"同安路１４５巷１７弄１號","OBJECTID":116231},"geometry":{"x":166991.38999999873,"y":2549095.5600000005}},{"attributes":{"ID":116232,"DIS_CODE":0,"TOWNNAME":"麻豆區","LI":"安西里","LIN":"1鄰","STREET":" ","SECT":" ","MAREA":"東溪洲","LANE":" ","ALLEY":" ","HOUSE_NO":"２號之１６","E_COORD97":172453.95000000001,"N_COORD97":2561459.25,"ADDRESS":"東溪洲２號之１６","OBJECTID":116232},"geometry":{"x":172453.95000000112,"y":2561459.2500000037}},{"attributes":{"ID":116233,"DIS_CODE":0,"TOWNNAME":"安南區","LI":"海東里","LIN":"23鄰","STREET":"同安路","SECT":" ","MAREA":" ","LANE":"１４５巷","ALLEY":"１７弄","HOUSE_NO":"３號","E_COORD97":166987.69,"N_COORD97":2549090.6099999999,"ADDRESS":"同安路１４５巷１７弄３號","OBJECTID":116233},"geometry":{"x":166987.69000000041,"y":2549090.6099999994}},{"attributes":{"ID":116234,"DIS_CODE":0,"TOWNNAME":"麻豆區","LI":"安西里","LIN":"1鄰","STREET":" ","SECT":" ","MAREA":"東溪洲","LANE":" ","ALLEY":" ","HOUSE_NO":"２號之１７","E_COORD97":172452.69,"N_COORD97":2561454.98,"ADDRESS":"東溪洲２號之１７","OBJECTID":116234},"geometry":{"x":172452.69000000134,"y":2561454.9800000042}},{"attributes":{"ID":116235,"DIS_CODE":0,"TOWNNAME":"麻豆區","LI":"安西里","LIN":"1鄰","STREET":" ","SECT":" ","MAREA":"東溪洲","LANE":" ","ALLEY":" ","HOUSE_NO":"２號之１８","E_COORD97":172438.76999999999,"N_COORD97":2561472.7799999998,"ADDRESS":"東溪洲２號之１８","OBJECTID":116235},"geometry":{"x":172438.77000000142,"y":2561472.7800000012}},{"attributes":{"ID":116236,"DIS_CODE":0,"TOWNNAME":"麻豆區","LI":"安西里","LIN":"1鄰","STREET":" ","SECT":" ","MAREA":"東溪洲","LANE":" ","ALLEY":" ","HOUSE_NO":"２號之１９","E_COORD97":172437.97,"N_COORD97":2561467.0800000001,"ADDRESS":"東溪洲２號之１９","OBJECTID":116236},"geometry":{"x":172437.97000000067,"y":2561467.0799999982}},{"attributes":{"ID":116237,"DIS_CODE":0,"TOWNNAME":"安南區","LI":"海東里","LIN":"23鄰","STREET":"同安路","SECT":" ","MAREA":" ","LANE":"１４５巷","ALLEY":"１７弄","HOUSE_NO":"５號","E_COORD97":166984.10000000001,"N_COORD97":2549085.9300000002,"ADDRESS":"同安路１４５巷１７弄５號","OBJECTID":116237},"geometry":{"x":166984.09999999963,"y":2549085.9299999997}},{"attributes":{"ID":116238,"DIS_CODE":0,"TOWNNAME":"永康區","LI":"\u25A0行里","LIN":"1鄰","STREET":"中正路","SECT":" ","MAREA":" ","LANE":" ","ALLEY":" ","HOUSE_NO":"９８２號","E_COORD97":171915.76000000001,"N_COORD97":2548985.4900000002,"ADDRESS":"中正路９８２號","OBJECTID":116238},"geometry":{"x":171915.76000000071,"y":2548985.4900000021}},{"attributes":{"ID":116239,"DIS_CODE":0,"TOWNNAME":"永康區","LI":"蔦松里","LIN":"1鄰","STREET":"蔦松二街","SECT":" ","MAREA":" ","LANE":" ","ALLEY":" ","HOUSE_NO":"５３號","E_COORD97":173681.13,"N_COORD97":2549250,"ADDRESS":"蔦松二街５３號","OBJECTID":116239},"geometry":{"x":173681.13000000082,"y":2549250.0000000019}},{"attributes":{"ID":116240,"DIS_CODE":0,"TOWNNAME":"永康區","LI":"蔦松里","LIN":"1鄰","STREET":"蔦松二街","SECT":" ","MAREA":" ","LANE":" ","ALLEY":" ","HOUSE_NO":"１０８號","E_COORD97":173768.07000000001,"N_COORD97":2549358.3900000001,"ADDRESS":"蔦松二街１０８號","OBJECTID":116240},"geometry":{"x":173768.0700000003,"y":2549358.3900000006}},{"attributes":{"ID":116241,"DIS_CODE":0,"TOWNNAME":"下營區","LI":"營前里","LIN":"23鄰","STREET":"中山路","SECT":"二段","MAREA":" ","LANE":"３０５巷","ALLEY":"２弄","HOUSE_NO":"３６號","E_COORD97":174978.88,"N_COORD97":2569380.6400000001,"ADDRESS":"中山路二段３０５巷２弄３６號","OBJECTID":116241},"geometry":{"x":174978.87999999989,"y":2569380.6400000043}},{"attributes":{"ID":116242,"DIS_CODE":0,"TOWNNAME":"下營區","LI":"仁里里","LIN":"23鄰","STREET":"仁中街","SECT":" ","MAREA":" ","LANE":"４８巷","ALLEY":"２弄","HOUSE_NO":"１１號","E_COORD97":174547.01999999999,"N_COORD97":2569831.0899999999,"ADDRESS":"仁中街４８巷２弄１１號","OBJECTID":116242},"geometry":{"x":174547.01999999955,"y":2569831.0900000036}},{"attributes":{"ID":116243,"DIS_CODE":0,"TOWNNAME":"下營區","LI":"仁里里","LIN":"23鄰","STREET":"仁中街","SECT":" ","MAREA":" ","LANE":"４８巷","ALLEY":"２弄","HOUSE_NO":"１３號","E_COORD97":174547.75,"N_COORD97":2569826.8900000001,"ADDRESS":"仁中街４８巷２弄１３號","OBJECTID":116243},"geometry":{"x":174547.75,"y":2569826.8900000025}},{"attributes":{"ID":116244,"DIS_CODE":0,"TOWNNAME":"七股區","LI":"永吉里","LIN":"4鄰","STREET":" ","SECT":" ","MAREA":"永吉","LANE":" ","ALLEY":" ","HOUSE_NO":"６１號之１","E_COORD97":160871.60999999999,"N_COORD97":2554878.0899999999,"ADDRESS":"永吉６１號之１","OBJECTID":116244},"geometry":{"x":160871.61000000127,"y":2554878.0899999999}},{"attributes":{"ID":116245,"DIS_CODE":0,"TOWNNAME":"七股區","LI":"永吉里","LIN":"4鄰","STREET":" ","SECT":" ","MAREA":"永吉","LANE":" ","ALLEY":" ","HOUSE_NO":"６１號之２","E_COORD97":160870.10000000001,"N_COORD97":2554874.52,"ADDRESS":"永吉６１號之２","OBJECTID":116245},"geometry":{"x":160870.09999999963,"y":2554874.5200000014}},{"attributes":{"ID":116246,"DIS_CODE":0,"TOWNNAME":"七股區","LI":"永吉里","LIN":"4鄰","STREET":" ","SECT":" ","MAREA":"永吉","LANE":" ","ALLEY":" ","HOUSE_NO":"６１號之３","E_COORD97":160868.60000000001,"N_COORD97":2554870.96,"ADDRESS":"永吉６１號之３","OBJECTID":116246},"geometry":{"x":160868.5999999987,"y":2554870.9600000009}},{"attributes":{"ID":116247,"DIS_CODE":0,"TOWNNAME":"下營區","LI":"仁里里","LIN":"23鄰","STREET":"仁中街","SECT":" ","MAREA":" ","LANE":"４８巷","ALLEY":"２弄","HOUSE_NO":"１號","E_COORD97":174528.67999999999,"N_COORD97":2569842.7799999998,"ADDRESS":"仁中街４８巷２弄１號","OBJECTID":116247},"geometry":{"x":174528.68000000063,"y":2569842.7800000031}},{"attributes":{"ID":116248,"DIS_CODE":0,"TOWNNAME":"七股區","LI":"永吉里","LIN":"4鄰","STREET":" ","SECT":" ","MAREA":"永吉","LANE":" ","ALLEY":" ","HOUSE_NO":"６１號之４","E_COORD97":160867.23999999999,"N_COORD97":2554868.4399999999,"ADDRESS":"永吉６１號之４","OBJECTID":116248},"geometry":{"x":160867.24000000115,"y":2554868.4399999995}},{"attributes":{"ID":116249,"DIS_CODE":0,"TOWNNAME":"七股區","LI":"永吉里","LIN":"4鄰","STREET":" ","SECT":" ","MAREA":"永吉","LANE":" ","ALLEY":" ","HOUSE_NO":"６１號之５","E_COORD97":160865.59,"N_COORD97":2554863.8199999998,"ADDRESS":"永吉６１號之５","OBJECTID":116249},"geometry":{"x":160865.59000000171,"y":2554863.8200000003}},{"attributes":{"ID":116250,"DIS_CODE":0,"TOWNNAME":"七股區","LI":"永吉里","LIN":"4鄰","STREET":" ","SECT":" ","MAREA":"永吉","LANE":" ","ALLEY":" ","HOUSE_NO":"６１號之６","E_COORD97":160864.07999999999,"N_COORD97":2554860.25,"ADDRESS":"永吉６１號之６","OBJECTID":116250},"geometry":{"x":160864.07999999914,"y":2554860.25}},{"attributes":{"ID":116251,"DIS_CODE":0,"TOWNNAME":"七股區","LI":"永吉里","LIN":"4鄰","STREET":" ","SECT":" ","MAREA":"永吉","LANE":" ","ALLEY":" ","HOUSE_NO":"６１號之７","E_COORD97":160863.38,"N_COORD97":2554857.3500000001,"ADDRESS":"永吉６１號之７","OBJECTID":116251},"geometry":{"x":160863.37999999989,"y":2554857.3500000034}},{"attributes":{"ID":116252,"DIS_CODE":0,"TOWNNAME":"下營區","LI":"仁里里","LIN":"23鄰","STREET":"仁中街","SECT":" ","MAREA":" ","LANE":"４８巷","ALLEY":"２弄","HOUSE_NO":"３號","E_COORD97":174532.41,"N_COORD97":2569843.7999999998,"ADDRESS":"仁中街４８巷２弄３號","OBJECTID":116252},"geometry":{"x":174532.41000000108,"y":2569843.8000000007}},{"attributes":{"ID":116253,"DIS_CODE":0,"TOWNNAME":"下營區","LI":"仁里里","LIN":"23鄰","STREET":"仁中街","SECT":" ","MAREA":" ","LANE":"４８巷","ALLEY":"２弄","HOUSE_NO":"５號","E_COORD97":174536.51999999999,"N_COORD97":2569844.8799999999,"ADDRESS":"仁中街４８巷２弄５號","OBJECTID":116253},"geometry":{"x":174536.52000000048,"y":2569844.8799999971}},{"attributes":{"ID":116254,"DIS_CODE":0,"TOWNNAME":"下營區","LI":"仁里里","LIN":"23鄰","STREET":"仁中街","SECT":" ","MAREA":" ","LANE":"４８巷","ALLEY":"２弄","HOUSE_NO":"７號","E_COORD97":174545.14999999999,"N_COORD97":2569850.71,"ADDRESS":"仁中街４８巷２弄７號","OBJECTID":116254},"geometry":{"x":174545.15000000037,"y":2569850.7100000009}},{"attributes":{"ID":116255,"DIS_CODE":0,"TOWNNAME":"七股區","LI":"永吉里","LIN":"4鄰","STREET":" ","SECT":" ","MAREA":"永吉","LANE":" ","ALLEY":" ","HOUSE_NO":"６１號之８","E_COORD97":160861.69,"N_COORD97":2554853.3300000001,"ADDRESS":"永吉６１號之８","OBJECTID":116255},"geometry":{"x":160861.69000000041,"y":2554853.3300000001}},{"attributes":{"ID":116256,"DIS_CODE":0,"TOWNNAME":"七股區","LI":"永吉里","LIN":"4鄰","STREET":" ","SECT":" ","MAREA":"永吉","LANE":" ","ALLEY":" ","HOUSE_NO":"６１號","E_COORD97":160855.09,"N_COORD97":2554896.7000000002,"ADDRESS":"永吉６１號","OBJECTID":116256},"geometry":{"x":160855.08999999985,"y":2554896.7000000011}},{"attributes":{"ID":116257,"DIS_CODE":0,"TOWNNAME":"下營區","LI":"仁里里","LIN":"23鄰","STREET":"仁中街","SECT":" ","MAREA":" ","LANE":"４８巷","ALLEY":"２弄","HOUSE_NO":"９號","E_COORD97":174545.95999999999,"N_COORD97":2569835.1899999999,"ADDRESS":"仁中街４８巷２弄９號","OBJECTID":116257},"geometry":{"x":174545.95999999996,"y":2569835.1899999995}},{"attributes":{"ID":116258,"DIS_CODE":0,"TOWNNAME":"七股區","LI":"永吉里","LIN":"4鄰","STREET":" ","SECT":" ","MAREA":"永吉","LANE":" ","ALLEY":" ","HOUSE_NO":"６２號","E_COORD97":160842.69,"N_COORD97":2554872.9199999999,"ADDRESS":"永吉６２號","OBJECTID":116258},"geometry":{"x":160842.69000000041,"y":2554872.9199999999}},{"attributes":{"ID":116259,"DIS_CODE":0,"TOWNNAME":"七股區","LI":"永吉里","LIN":"4鄰","STREET":" ","SECT":" ","MAREA":"永吉","LANE":" ","ALLEY":" ","HOUSE_NO":"６４號之２","E_COORD97":160855.95999999999,"N_COORD97":2554814.8399999999,"ADDRESS":"永吉６４號之２","OBJECTID":116259},"geometry":{"x":160855.95999999996,"y":2554814.8400000017}},{"attributes":{"ID":116260,"DIS_CODE":0,"TOWNNAME":"下營區","LI":"仁里里","LIN":"23鄰","STREET":"仁中街","SECT":" ","MAREA":" ","LANE":"４８巷","ALLEY":"３２弄","HOUSE_NO":"１１號","E_COORD97":174540.37,"N_COORD97":2569868.75,"ADDRESS":"仁中街４８巷３２弄１１號","OBJECTID":116260},"geometry":{"x":174540.37000000011,"y":2569868.7500000019}},{"attributes":{"ID":116261,"DIS_CODE":0,"TOWNNAME":"七股區","LI":"永吉里","LIN":"4鄰","STREET":" ","SECT":" ","MAREA":"永吉","LANE":" ","ALLEY":" ","HOUSE_NO":"６４號","E_COORD97":160881.69,"N_COORD97":2554860.29,"ADDRESS":"永吉６４號","OBJECTID":116261},"geometry":{"x":160881.69000000041,"y":2554860.2900000028}},{"attributes":{"ID":116262,"DIS_CODE":0,"TOWNNAME":"下營區","LI":"仁里里","LIN":"23鄰","STREET":"仁中街","SECT":" ","MAREA":" ","LANE":"４８巷","ALLEY":"３２弄","HOUSE_NO":"１３號","E_COORD97":174541.5,"N_COORD97":2569864.6600000001,"ADDRESS":"仁中街４８巷３２弄１３號","OBJECTID":116262},"geometry":{"x":174541.50000000186,"y":2569864.6600000039}},{"attributes":{"ID":116263,"DIS_CODE":0,"TOWNNAME":"七股區","LI":"永吉里","LIN":"5鄰","STREET":" ","SECT":" ","MAREA":"永吉","LANE":" ","ALLEY":" ","HOUSE_NO":"５２號","E_COORD97":160729.54000000001,"N_COORD97":2554900.5899999999,"ADDRESS":"永吉５２號","OBJECTID":116263},"geometry":{"x":160729.54000000097,"y":2554900.5900000017}},{"attributes":{"ID":116264,"DIS_CODE":0,"TOWNNAME":"下營區","LI":"仁里里","LIN":"23鄰","STREET":"仁中街","SECT":" ","MAREA":" ","LANE":"４８巷","ALLEY":"３２弄","HOUSE_NO":"１５號","E_COORD97":174542.63,"N_COORD97":2569861.4399999999,"ADDRESS":"仁中街４８巷３２弄１５號","OBJECTID":116264},"geometry":{"x":174542.63000000082,"y":2569861.4399999995}},{"attributes":{"ID":116265,"DIS_CODE":0,"TOWNNAME":"七股區","LI":"永吉里","LIN":"7鄰","STREET":" ","SECT":" ","MAREA":"永吉","LANE":" ","ALLEY":" ","HOUSE_NO":"７０號","E_COORD97":160796.78,"N_COORD97":2554839.8900000001,"ADDRESS":"永吉７０號","OBJECTID":116265},"geometry":{"x":160796.78000000026,"y":2554839.8900000006}},{"attributes":{"ID":116266,"DIS_CODE":0,"TOWNNAME":"七股區","LI":"永吉里","LIN":"7鄰","STREET":" ","SECT":" ","MAREA":"永吉","LANE":" ","ALLEY":" ","HOUSE_NO":"７３號","E_COORD97":160775.16,"N_COORD97":2554835.5699999998,"ADDRESS":"永吉７３號","OBJECTID":116266},"geometry":{"x":160775.16000000015,"y":2554835.5700000003}},{"attributes":{"ID":116267,"DIS_CODE":0,"TOWNNAME":"七股區","LI":"永吉里","LIN":"1鄰","STREET":" ","SECT":" ","MAREA":"永吉","LANE":" ","ALLEY":" ","HOUSE_NO":"６號","E_COORD97":160844.82999999999,"N_COORD97":2555775.7799999998,"ADDRESS":"永吉６號","OBJECTID":116267},"geometry":{"x":160844.83000000007,"y":2555775.7799999993}},{"attributes":{"ID":116268,"DIS_CODE":0,"TOWNNAME":"永康區","LI":"龍潭里","LIN":"1鄰","STREET":"龍潭街","SECT":" ","MAREA":" ","LANE":" ","ALLEY":" ","HOUSE_NO":"６７號","E_COORD97":174787.72,"N_COORD97":2548015.2999999998,"ADDRESS":"龍潭街６７號","OBJECTID":116268},"geometry":{"x":174787.72000000067,"y":2548015.3000000007}},{"attributes":{"ID":116269,"DIS_CODE":0,"TOWNNAME":"七股區","LI":"永吉里","LIN":"6鄰","STREET":" ","SECT":" ","MAREA":"永吉","LANE":" ","ALLEY":" ","HOUSE_NO":"５１號之６","E_COORD97":159796.78,"N_COORD97":2555245.29,"ADDRESS":"永吉５１號之６","OBJECTID":116269},"geometry":{"x":159796.78000000212,"y":2555245.2899999991}},{"attributes":{"ID":116270,"DIS_CODE":0,"TOWNNAME":"七股區","LI":"永吉里","LIN":"6鄰","STREET":" ","SECT":" ","MAREA":"永吉","LANE":" ","ALLEY":" ","HOUSE_NO":"５１號之７０","E_COORD97":160497.51999999999,"N_COORD97":2555002.8700000001,"ADDRESS":"永吉５１號之７０","OBJECTID":116270},"geometry":{"x":160497.51999999955,"y":2555002.870000001}},{"attributes":{"ID":116271,"DIS_CODE":0,"TOWNNAME":"七股區","LI":"永吉里","LIN":"6鄰","STREET":" ","SECT":" ","MAREA":"永吉","LANE":" ","ALLEY":" ","HOUSE_NO":"５１號之７１","E_COORD97":160496.13,"N_COORD97":2554996.3500000001,"ADDRESS":"永吉５１號之７１","OBJECTID":116271},"geometry":{"x":160496.13000000082,"y":2554996.3500000034}},{"attributes":{"ID":116272,"DIS_CODE":0,"TOWNNAME":"七股區","LI":"永吉里","LIN":"6鄰","STREET":" ","SECT":" ","MAREA":"永吉","LANE":" ","ALLEY":" ","HOUSE_NO":"５１號之７２","E_COORD97":160494.70000000001,"N_COORD97":2554989.8900000001,"ADDRESS":"永吉５１號之７２","OBJECTID":116272},"geometry":{"x":160494.70000000112,"y":2554989.8899999987}},{"attributes":{"ID":116273,"DIS_CODE":0,"TOWNNAME":"永康區","LI":"蔦松里","LIN":"1鄰","STREET":"蔦松二街","SECT":" ","MAREA":" ","LANE":" ","ALLEY":" ","HOUSE_NO":"８８號","E_COORD97":173739.22,"N_COORD97":2549312.21,"ADDRESS":"蔦松二街８８號","OBJECTID":116273},"geometry":{"x":173739.21999999974,"y":2549312.2100000009}},{"attributes":{"ID":116274,"DIS_CODE":0,"TOWNNAME":"永康區","LI":"蔦松里","LIN":"1鄰","STREET":"蔦松二街","SECT":" ","MAREA":" ","LANE":" ","ALLEY":" ","HOUSE_NO":"７０號","E_COORD97":173708.59,"N_COORD97":2549254.6299999999,"ADDRESS":"蔦松二街７０號","OBJECTID":116274},"geometry":{"x":173708.59000000078,"y":2549254.6300000008}},{"attributes":{"ID":116275,"DIS_CODE":0,"TOWNNAME":"永康區","LI":"網寮里","LIN":"1鄰","STREET":"永二街","SECT":" ","MAREA":" ","LANE":" ","ALLEY":" ","HOUSE_NO":"５７號之１１","E_COORD97":173623.76999999999,"N_COORD97":2546655.2599999998,"ADDRESS":"永二街５７號之１１","OBJECTID":116275},"geometry":{"x":173623.77000000142,"y":2546655.2599999998}},{"attributes":{"ID":116276,"DIS_CODE":0,"TOWNNAME":"下營區","LI":"仁里里","LIN":"23鄰","STREET":"仁中街","SECT":" ","MAREA":" ","LANE":"４８巷","ALLEY":"３２弄","HOUSE_NO":"１號","E_COORD97":174531.39999999999,"N_COORD97":2569887.5899999999,"ADDRESS":"仁中街４８巷３２弄１號","OBJECTID":116276},"geometry":{"x":174531.4000000013,"y":2569887.5899999999}},{"attributes":{"ID":116277,"DIS_CODE":0,"TOWNNAME":"下營區","LI":"仁里里","LIN":"23鄰","STREET":"仁中街","SECT":" ","MAREA":" ","LANE":"４８巷","ALLEY":"３２弄","HOUSE_NO":"３號","E_COORD97":174532.98000000001,"N_COORD97":2569883.5899999999,"ADDRESS":"仁中街４８巷３２弄３號","OBJECTID":116277},"geometry":{"x":174532.98000000045,"y":2569883.5900000017}},{"attributes":{"ID":116278,"DIS_CODE":0,"TOWNNAME":"下營區","LI":"仁里里","LIN":"23鄰","STREET":"仁中街","SECT":" ","MAREA":" ","LANE":"４８巷","ALLEY":"３２弄","HOUSE_NO":"５號","E_COORD97":174534.37,"N_COORD97":2569879.8199999998,"ADDRESS":"仁中街４８巷３２弄５號","OBJECTID":116278},"geometry":{"x":174534.37000000104,"y":2569879.8200000003}},{"attributes":{"ID":116279,"DIS_CODE":0,"TOWNNAME":"仁德區","LI":"中生里","LIN":"1鄰","STREET":" ","SECT":" ","MAREA":"中洲","LANE":" ","ALLEY":" ","HOUSE_NO":"５５號","E_COORD97":173146.42999999999,"N_COORD97":2534288.5,"ADDRESS":"中洲５５號","OBJECTID":116279},"geometry":{"x":173146.43000000156,"y":2534288.5000000019}},{"attributes":{"ID":116280,"DIS_CODE":0,"TOWNNAME":"仁德區","LI":"三甲里","LIN":"1鄰","STREET":" ","SECT":" ","MAREA":"三甲子","LANE":" ","ALLEY":" ","HOUSE_NO":"１１號之１６","E_COORD97":171685.47,"N_COORD97":2537016.7999999998,"ADDRESS":"三甲子１１號之１６","OBJECTID":116280},"geometry":{"x":171685.47000000067,"y":2537016.8000000007}},{"attributes":{"ID":116281,"DIS_CODE":0,"TOWNNAME":"七股區","LI":"永吉里","LIN":"6鄰","STREET":" ","SECT":" ","MAREA":"永吉","LANE":" ","ALLEY":" ","HOUSE_NO":"５１號之７３","E_COORD97":160493.42000000001,"N_COORD97":2554983.2000000002,"ADDRESS":"永吉５１號之７３","OBJECTID":116281},"geometry":{"x":160493.41999999993,"y":2554983.200000003}},{"attributes":{"ID":116282,"DIS_CODE":0,"TOWNNAME":"七股區","LI":"永吉里","LIN":"6鄰","STREET":" ","SECT":" ","MAREA":"永吉","LANE":" ","ALLEY":" ","HOUSE_NO":"５１號之７４","E_COORD97":160491.78,"N_COORD97":2554977.0499999998,"ADDRESS":"永吉５１號之７４","OBJECTID":116282},"geometry":{"x":160491.78000000212,"y":2554977.0500000026}},{"attributes":{"ID":116283,"DIS_CODE":0,"TOWNNAME":"下營區","LI":"仁里里","LIN":"23鄰","STREET":"仁中街","SECT":" ","MAREA":" ","LANE":"４８巷","ALLEY":"３２弄","HOUSE_NO":"７號","E_COORD97":174535.35000000001,"N_COORD97":2569875.6899999999,"ADDRESS":"仁中街４８巷３２弄７號","OBJECTID":116283},"geometry":{"x":174535.35000000149,"y":2569875.6900000013}},{"attributes":{"ID":116284,"DIS_CODE":0,"TOWNNAME":"七股區","LI":"永吉里","LIN":"6鄰","STREET":" ","SECT":" ","MAREA":"永吉","LANE":" ","ALLEY":" ","HOUSE_NO":"５１號之７５","E_COORD97":160490.5,"N_COORD97":2554970.5,"ADDRESS":"永吉５１號之７５","OBJECTID":116284},"geometry":{"x":160490.50000000093,"y":2554970.5}},{"attributes":{"ID":116285,"DIS_CODE":0,"TOWNNAME":"七股區","LI":"永吉里","LIN":"6鄰","STREET":" ","SECT":" ","MAREA":"永吉","LANE":" ","ALLEY":" ","HOUSE_NO":"５１號之７６","E_COORD97":160488.89000000001,"N_COORD97":2554964.2599999998,"ADDRESS":"永吉５１號之７６","OBJECTID":116285},"geometry":{"x":160488.8900000006,"y":2554964.2600000016}},{"attributes":{"ID":116286,"DIS_CODE":0,"TOWNNAME":"七股區","LI":"永吉里","LIN":"6鄰","STREET":" ","SECT":" ","MAREA":"永吉","LANE":" ","ALLEY":" ","HOUSE_NO":"５１號之７７","E_COORD97":160487.17999999999,"N_COORD97":2554957.79,"ADDRESS":"永吉５１號之７７","OBJECTID":116286},"geometry":{"x":160487.18000000063,"y":2554957.7899999991}},{"attributes":{"ID":116287,"DIS_CODE":0,"TOWNNAME":"下營區","LI":"仁里里","LIN":"23鄰","STREET":"仁中街","SECT":" ","MAREA":" ","LANE":"４８巷","ALLEY":"３２弄","HOUSE_NO":"９號","E_COORD97":174536.60999999999,"N_COORD97":2569872.1099999999,"ADDRESS":"仁中街４８巷３２弄９號","OBJECTID":116287},"geometry":{"x":174536.61000000127,"y":2569872.1100000013}},{"attributes":{"ID":116288,"DIS_CODE":0,"TOWNNAME":"永康區","LI":"正強里","LIN":"23鄰","STREET":"自強路","SECT":" ","MAREA":" ","LANE":"２５５巷","ALLEY":"６弄","HOUSE_NO":"２９號","E_COORD97":173220.63,"N_COORD97":2547656,"ADDRESS":"自強路２５５巷６弄２９號","OBJECTID":116288},"geometry":{"x":173220.63000000082,"y":2547656.0000000019}},{"attributes":{"ID":116289,"DIS_CODE":0,"TOWNNAME":"永康區","LI":"正強里","LIN":"23鄰","STREET":"自強路","SECT":" ","MAREA":" ","LANE":"２５５巷","ALLEY":"６弄","HOUSE_NO":"３１號","E_COORD97":173225.87,"N_COORD97":2547656.75,"ADDRESS":"自強路２５５巷６弄３１號","OBJECTID":116289},"geometry":{"x":173225.87000000104,"y":2547656.75}},{"attributes":{"ID":116290,"DIS_CODE":0,"TOWNNAME":"永康區","LI":"正強里","LIN":"23鄰","STREET":"自強路","SECT":" ","MAREA":" ","LANE":"２５５巷","ALLEY":"６弄","HOUSE_NO":"２１號","E_COORD97":173206.95000000001,"N_COORD97":2547646.04,"ADDRESS":"自強路２５５巷６弄２１號","OBJECTID":116290},"geometry":{"x":173206.95000000112,"y":2547646.0399999991}},{"attributes":{"ID":116291,"DIS_CODE":0,"TOWNNAME":"七股區","LI":"永吉里","LIN":"1鄰","STREET":" ","SECT":" ","MAREA":"永吉","LANE":" ","ALLEY":" ","HOUSE_NO":"９號","E_COORD97":160805.51000000001,"N_COORD97":2555759.2999999998,"ADDRESS":"永吉９號","OBJECTID":116291},"geometry":{"x":160805.51000000071,"y":2555759.3000000007}},{"attributes":{"ID":116292,"DIS_CODE":0,"TOWNNAME":"七股區","LI":"玉成里","LIN":"4鄰","STREET":" ","SECT":" ","MAREA":"玉成","LANE":" ","ALLEY":" ","HOUSE_NO":"３９號之１","E_COORD97":161307.19,"N_COORD97":2559604.9500000002,"ADDRESS":"玉成３９號之１","OBJECTID":116292},"geometry":{"x":161307.19000000041,"y":2559604.9499999993}},{"attributes":{"ID":116293,"DIS_CODE":0,"TOWNNAME":"永康區","LI":"正強里","LIN":"23鄰","STREET":"自強路","SECT":" ","MAREA":" ","LANE":"２５５巷","ALLEY":"６弄","HOUSE_NO":"１號","E_COORD97":173244.92000000001,"N_COORD97":2547630.4700000002,"ADDRESS":"自強路２５５巷６弄１號","OBJECTID":116293},"geometry":{"x":173244.91999999993,"y":2547630.4700000025}},{"attributes":{"ID":116294,"DIS_CODE":0,"TOWNNAME":"七股區","LI":"玉成里","LIN":"4鄰","STREET":" ","SECT":" ","MAREA":"玉成","LANE":" ","ALLEY":" ","HOUSE_NO":"４１號","E_COORD97":161344.281185,"N_COORD97":2559615.9040199998,"ADDRESS":"玉成４１號","OBJECTID":116294},"geometry":{"x":161344.2811850002,"y":2559615.9040210005}},{"attributes":{"ID":116295,"DIS_CODE":0,"TOWNNAME":"七股區","LI":"玉成里","LIN":"4鄰","STREET":" ","SECT":" ","MAREA":"玉成","LANE":" ","ALLEY":" ","HOUSE_NO":"４２號","E_COORD97":161299.73000000001,"N_COORD97":2559643.6699999999,"ADDRESS":"玉成４２號","OBJECTID":116295},"geometry":{"x":161299.73000000138,"y":2559643.6700000018}},{"attributes":{"ID":116296,"DIS_CODE":0,"TOWNNAME":"永康區","LI":"正強里","LIN":"23鄰","STREET":"自強路","SECT":" ","MAREA":" ","LANE":"２５５巷","ALLEY":"４弄","HOUSE_NO":"２號","E_COORD97":173259.54999999999,"N_COORD97":2547637.8900000001,"ADDRESS":"自強路２５５巷４弄２號","OBJECTID":116296},"geometry":{"x":173259.55000000075,"y":2547637.8900000025}},{"attributes":{"ID":116297,"DIS_CODE":0,"TOWNNAME":"永康區","LI":"正強里","LIN":"23鄰","STREET":"中正路","SECT":" ","MAREA":" ","LANE":"１２７巷","ALLEY":"３２弄","HOUSE_NO":"３號","E_COORD97":173365.54999999999,"N_COORD97":2547768.7000000002,"ADDRESS":"中正路１２７巷３２弄３號","OBJECTID":116297},"geometry":{"x":173365.54999999981,"y":2547768.700000003}},{"attributes":{"ID":116298,"DIS_CODE":0,"TOWNNAME":"七股區","LI":"頂山里","LIN":"4鄰","STREET":" ","SECT":" ","MAREA":"頂山","LANE":" ","ALLEY":" ","HOUSE_NO":"３３號","E_COORD97":159043.64999999999,"N_COORD97":2564464.46,"ADDRESS":"頂山３３號","OBJECTID":116298},"geometry":{"x":159043.6500000013,"y":2564464.4600000009}},{"attributes":{"ID":116299,"DIS_CODE":0,"TOWNNAME":"七股區","LI":"頂山里","LIN":"4鄰","STREET":" ","SECT":" ","MAREA":"頂山","LANE":" ","ALLEY":" ","HOUSE_NO":"３５號之１","E_COORD97":159047.07999999999,"N_COORD97":2564420.4700000002,"ADDRESS":"頂山３５號之１","OBJECTID":116299},"geometry":{"x":159047.08000000194,"y":2564420.4700000007}},{"attributes":{"ID":116300,"DIS_CODE":0,"TOWNNAME":"七股區","LI":"頂山里","LIN":"4鄰","STREET":" ","SECT":" ","MAREA":"頂山","LANE":" ","ALLEY":" ","HOUSE_NO":"３５號","E_COORD97":159051.57000000001,"N_COORD97":2564427.6200000001,"ADDRESS":"頂山３５號","OBJECTID":116300},"geometry":{"x":159051.5700000003,"y":2564427.6199999992}},{"attributes":{"ID":116301,"DIS_CODE":0,"TOWNNAME":"七股區","LI":"頂山里","LIN":"4鄰","STREET":" ","SECT":" ","MAREA":"頂山","LANE":" ","ALLEY":" ","HOUSE_NO":"３７號","E_COORD97":159032.01999999999,"N_COORD97":2564413.9500000002,"ADDRESS":"頂山３７號","OBJECTID":116301},"geometry":{"x":159032.02000000048,"y":2564413.9500000011}},{"attributes":{"ID":116302,"DIS_CODE":0,"TOWNNAME":"七股區","LI":"頂山里","LIN":"4鄰","STREET":" ","SECT":" ","MAREA":"頂山","LANE":" ","ALLEY":" ","HOUSE_NO":"３８號","E_COORD97":159028,"N_COORD97":2564438.9300000002,"ADDRESS":"頂山３８號","OBJECTID":116302},"geometry":{"x":159028,"y":2564438.9300000016}},{"attributes":{"ID":116303,"DIS_CODE":0,"TOWNNAME":"七股區","LI":"頂山里","LIN":"4鄰","STREET":" ","SECT":" ","MAREA":"頂山","LANE":" ","ALLEY":" ","HOUSE_NO":"３９號","E_COORD97":159004.98999999999,"N_COORD97":2564428.3500000001,"ADDRESS":"頂山３９號","OBJECTID":116303},"geometry":{"x":159004.99000000022,"y":2564428.3500000034}},{"attributes":{"ID":116304,"DIS_CODE":0,"TOWNNAME":"七股區","LI":"頂山里","LIN":"4鄰","STREET":" ","SECT":" ","MAREA":"頂山","LANE":" ","ALLEY":" ","HOUSE_NO":"４０號","E_COORD97":159001.76000000001,"N_COORD97":2564412.9500000002,"ADDRESS":"頂山４０號","OBJECTID":116304},"geometry":{"x":159001.76000000071,"y":2564412.9499999993}},{"attributes":{"ID":116305,"DIS_CODE":0,"TOWNNAME":"七股區","LI":"頂山里","LIN":"4鄰","STREET":" ","SECT":" ","MAREA":"頂山","LANE":" ","ALLEY":" ","HOUSE_NO":"４１號","E_COORD97":159000.04999999999,"N_COORD97":2564377.7599999998,"ADDRESS":"頂山４１號","OBJECTID":116305},"geometry":{"x":159000.05000000075,"y":2564377.7599999998}},{"attributes":{"ID":116306,"DIS_CODE":0,"TOWNNAME":"七股區","LI":"頂山里","LIN":"17鄰","STREET":" ","SECT":" ","MAREA":"頂山","LANE":" ","ALLEY":" ","HOUSE_NO":"２５號之２３","E_COORD97":159121.26000000001,"N_COORD97":2564434.0099999998,"ADDRESS":"頂山２５號之２３","OBJECTID":116306},"geometry":{"x":159121.25999999978,"y":2564434.0100000035}},{"attributes":{"ID":116307,"DIS_CODE":0,"TOWNNAME":"七股區","LI":"頂山里","LIN":"17鄰","STREET":" ","SECT":" ","MAREA":"頂山","LANE":" ","ALLEY":" ","HOUSE_NO":"２５號之２４","E_COORD97":159120.76000000001,"N_COORD97":2564427.3100000001,"ADDRESS":"頂山２５號之２４","OBJECTID":116307},"geometry":{"x":159120.76000000071,"y":2564427.3100000024}},{"attributes":{"ID":116308,"DIS_CODE":0,"TOWNNAME":"仁德區","LI":"大甲里","LIN":"1鄰","STREET":"行大街","SECT":" ","MAREA":" ","LANE":" ","ALLEY":" ","HOUSE_NO":"１６１號","E_COORD97":170013.60000000001,"N_COORD97":2535088.9900000002,"ADDRESS":"行大街１６１號","OBJECTID":116308},"geometry":{"x":170013.59999999963,"y":2535088.9900000021}},{"attributes":{"ID":116309,"DIS_CODE":0,"TOWNNAME":"永康區","LI":"正強里","LIN":"23鄰","STREET":"自強路","SECT":" ","MAREA":" ","LANE":"２５５巷","ALLEY":"６弄","HOUSE_NO":"２５號","E_COORD97":173210.64000000001,"N_COORD97":2547654.25,"ADDRESS":"自強路２５５巷６弄２５號","OBJECTID":116309},"geometry":{"x":173210.63999999966,"y":2547654.2500000019}},{"attributes":{"ID":116310,"DIS_CODE":0,"TOWNNAME":"仁德區","LI":"大甲里","LIN":"1鄰","STREET":"行大街","SECT":" ","MAREA":" ","LANE":" ","ALLEY":" ","HOUSE_NO":"１５３號","E_COORD97":170036,"N_COORD97":2535088.4900000002,"ADDRESS":"行大街１５３號","OBJECTID":116310},"geometry":{"x":170036.00000000093,"y":2535088.4900000021}},{"attributes":{"ID":116311,"DIS_CODE":0,"TOWNNAME":"仁德區","LI":"三甲里","LIN":"1鄰","STREET":" ","SECT":" ","MAREA":"三甲子","LANE":" ","ALLEY":" ","HOUSE_NO":"１１之１３號","E_COORD97":171901.51000000001,"N_COORD97":2537157.29,"ADDRESS":"三甲子１１之１３號","OBJECTID":116311},"geometry":{"x":171901.50999999978,"y":2537157.290000001}},{"attributes":{"ID":116312,"DIS_CODE":0,"TOWNNAME":"仁德區","LI":"中洲里","LIN":"1鄰","STREET":" ","SECT":" ","MAREA":"中洲","LANE":" ","ALLEY":" ","HOUSE_NO":"５號之４","E_COORD97":173480.20999999999,"N_COORD97":2534349.29,"ADDRESS":"中洲５號之４","OBJECTID":116312},"geometry":{"x":173480.20999999996,"y":2534349.290000001}},{"attributes":{"ID":116313,"DIS_CODE":0,"TOWNNAME":"永康區","LI":"正強里","LIN":"23鄰","STREET":"自強路","SECT":" ","MAREA":" ","LANE":"２５５巷","ALLEY":"６弄","HOUSE_NO":"１７號","E_COORD97":173217.14999999999,"N_COORD97":2547647.7999999998,"ADDRESS":"自強路２５５巷６弄１７號","OBJECTID":116313},"geometry":{"x":173217.1500000013,"y":2547647.8000000026}},{"attributes":{"ID":116314,"DIS_CODE":0,"TOWNNAME":"仁德區","LI":"一甲里","LIN":"1鄰","STREET":"中正路","SECT":"三段","MAREA":" ","LANE":" ","ALLEY":" ","HOUSE_NO":"１４５號","E_COORD97":173445.13,"N_COORD97":2541767.5299999998,"ADDRESS":"中正路三段１４５號","OBJECTID":116314},"geometry":{"x":173445.12999999989,"y":2541767.5299999993}},{"attributes":{"ID":116315,"DIS_CODE":0,"TOWNNAME":"安南區","LI":"安順里","LIN":"23鄰","STREET":"總安街","SECT":"一段","MAREA":" ","LANE":"１４６巷","ALLEY":"８５弄","HOUSE_NO":"１７號","E_COORD97":169569.59,"N_COORD97":2550448.02,"ADDRESS":"總安街一段１４６巷８５弄１７號","OBJECTID":116315},"geometry":{"x":169569.58999999985,"y":2550448.0199999996}},{"attributes":{"ID":116316,"DIS_CODE":0,"TOWNNAME":"仁德區","LI":"中洲里","LIN":"1鄰","STREET":" ","SECT":" ","MAREA":"中洲","LANE":" ","ALLEY":" ","HOUSE_NO":"４號之７","E_COORD97":173507.12,"N_COORD97":2534348.54,"ADDRESS":"中洲４號之７","OBJECTID":116316},"geometry":{"x":173507.12000000104,"y":2534348.540000001}},{"attributes":{"ID":116317,"DIS_CODE":0,"TOWNNAME":"仁德區","LI":"中洲里","LIN":"1鄰","STREET":" ","SECT":" ","MAREA":"中洲","LANE":" ","ALLEY":" ","HOUSE_NO":"５之３０號","E_COORD97":173476.57000000001,"N_COORD97":2534345.29,"ADDRESS":"中洲５之３０號","OBJECTID":116317},"geometry":{"x":173476.56999999937,"y":2534345.2900000028}},{"attributes":{"ID":116318,"DIS_CODE":0,"TOWNNAME":"仁德區","LI":"中洲里","LIN":"1鄰","STREET":" ","SECT":" ","MAREA":"中洲","LANE":" ","ALLEY":" ","HOUSE_NO":"５號","E_COORD97":173427.32999999999,"N_COORD97":2534334.75,"ADDRESS":"中洲５號","OBJECTID":116318},"geometry":{"x":173427.33000000194,"y":2534334.75}},{"attributes":{"ID":116319,"DIS_CODE":0,"TOWNNAME":"仁德區","LI":"一甲里","LIN":"1鄰","STREET":"中正路","SECT":"三段","MAREA":" ","LANE":" ","ALLEY":" ","HOUSE_NO":"１２５號","E_COORD97":173423.98999999999,"N_COORD97":2541719.02,"ADDRESS":"中正路三段１２５號","OBJECTID":116319},"geometry":{"x":173423.99000000022,"y":2541719.0200000014}},{"attributes":{"ID":116320,"DIS_CODE":0,"TOWNNAME":"仁德區","LI":"中洲里","LIN":"1鄰","STREET":" ","SECT":" ","MAREA":"中洲","LANE":" ","ALLEY":" ","HOUSE_NO":"５號之６","E_COORD97":173479.07999999999,"N_COORD97":2534376.04,"ADDRESS":"中洲５號之６","OBJECTID":116320},"geometry":{"x":173479.08000000007,"y":2534376.0399999991}},{"attributes":{"ID":116321,"DIS_CODE":0,"TOWNNAME":"仁德區","LI":"仁愛里","LIN":"30鄰","STREET":"亞航街","SECT":" ","MAREA":" ","LANE":"１９８巷","ALLEY":" ","HOUSE_NO":"１７２號","E_COORD97":170099.628,"N_COORD97":2539122.1910000001,"ADDRESS":"亞航街１９８巷１７２號","OBJECTID":116321},"geometry":{"x":170099.62800000049,"y":2539122.1909999978}},{"attributes":{"ID":116322,"DIS_CODE":0,"TOWNNAME":"仁德區","LI":"中洲里","LIN":"1鄰","STREET":" ","SECT":" ","MAREA":"中洲","LANE":" ","ALLEY":" ","HOUSE_NO":"３號之２","E_COORD97":173650,"N_COORD97":2534317.5499999998,"ADDRESS":"中洲３號之２","OBJECTID":116322},"geometry":{"x":173650.00000000093,"y":2534317.5500000007}},{"attributes":{"ID":116323,"DIS_CODE":0,"TOWNNAME":"仁德區","LI":"中洲里","LIN":"1鄰","STREET":" ","SECT":" ","MAREA":"中洲","LANE":" ","ALLEY":" ","HOUSE_NO":"４之６號","E_COORD97":173512.17999999999,"N_COORD97":2534348.29,"ADDRESS":"中洲４之６號","OBJECTID":116323},"geometry":{"x":173512.1799999997,"y":2534348.2899999991}},{"attributes":{"ID":116324,"DIS_CODE":0,"TOWNNAME":"仁德區","LI":"三甲里","LIN":"1鄰","STREET":" ","SECT":" ","MAREA":"三甲子","LANE":" ","ALLEY":" ","HOUSE_NO":"１１號之８","E_COORD97":171923.89999999999,"N_COORD97":2537166.04,"ADDRESS":"三甲子１１號之８","OBJECTID":116324},"geometry":{"x":171923.9000000013,"y":2537166.0399999991}},{"attributes":{"ID":116325,"DIS_CODE":0,"TOWNNAME":"仁德區","LI":"中洲里","LIN":"1鄰","STREET":" ","SECT":" ","MAREA":"中洲","LANE":" ","ALLEY":" ","HOUSE_NO":"５號之５","E_COORD97":173480.44,"N_COORD97":2534370.79,"ADDRESS":"中洲５號之５","OBJECTID":116325},"geometry":{"x":173480.44000000041,"y":2534370.7899999991}},{"attributes":{"ID":116326,"DIS_CODE":0,"TOWNNAME":"仁德區","LI":"中洲里","LIN":"1鄰","STREET":" ","SECT":" ","MAREA":"中洲","LANE":" ","ALLEY":" ","HOUSE_NO":"８號之１","E_COORD97":173376.04000000001,"N_COORD97":2534327.2999999998,"ADDRESS":"中洲８號之１","OBJECTID":116326},"geometry":{"x":173376.04000000004,"y":2534327.3000000026}},{"attributes":{"ID":116327,"DIS_CODE":0,"TOWNNAME":"仁德區","LI":"中生里","LIN":"1鄰","STREET":" ","SECT":" ","MAREA":"中洲","LANE":" ","ALLEY":" ","HOUSE_NO":"５６號","E_COORD97":173142.47,"N_COORD97":2534287.25,"ADDRESS":"中洲５６號","OBJECTID":116327},"geometry":{"x":173142.46999999974,"y":2534287.25}},{"attributes":{"ID":116328,"DIS_CODE":0,"TOWNNAME":"仁德區","LI":"中洲里","LIN":"1鄰","STREET":" ","SECT":" ","MAREA":"中洲","LANE":" ","ALLEY":" ","HOUSE_NO":"５號之１１","E_COORD97":173473.14000000001,"N_COORD97":2534402.5499999998,"ADDRESS":"中洲５號之１１","OBJECTID":116328},"geometry":{"x":173473.13999999966,"y":2534402.5499999989}},{"attributes":{"ID":116329,"DIS_CODE":0,"TOWNNAME":"七股區","LI":"頂山里","LIN":"7鄰","STREET":" ","SECT":" ","MAREA":"頂山","LANE":" ","ALLEY":" ","HOUSE_NO":"６４號","E_COORD97":159010.10999999999,"N_COORD97":2564585.6299999999,"ADDRESS":"頂山６４號","OBJECTID":116329},"geometry":{"x":159010.11000000127,"y":2564585.6300000008}},{"attributes":{"ID":116330,"DIS_CODE":0,"TOWNNAME":"安南區","LI":"長安里","LIN":"23鄰","STREET":"長溪路","SECT":"三段","MAREA":" ","LANE":"３７３巷","ALLEY":"２１弄","HOUSE_NO":"２８２之５號","E_COORD97":167425.62,"N_COORD97":2551546.1299999999,"ADDRESS":"長溪路三段３７３巷２１弄２８２之５號","OBJECTID":116330},"geometry":{"x":167425.62000000011,"y":2551546.1300000008}},{"attributes":{"ID":116331,"DIS_CODE":0,"TOWNNAME":"仁德區","LI":"一甲里","LIN":"1鄰","STREET":"中正路","SECT":"三段","MAREA":" ","LANE":" ","ALLEY":" ","HOUSE_NO":"１２３號","E_COORD97":173422.56,"N_COORD97":2541714.77,"ADDRESS":"中正路三段１２３號","OBJECTID":116331},"geometry":{"x":173422.56000000052,"y":2541714.7700000014}},{"attributes":{"ID":116332,"DIS_CODE":0,"TOWNNAME":"仁德區","LI":"一甲里","LIN":"1鄰","STREET":"中正路","SECT":"三段","MAREA":" ","LANE":" ","ALLEY":" ","HOUSE_NO":"９９號","E_COORD97":173388.10000000001,"N_COORD97":2541650.8100000001,"ADDRESS":"中正路三段９９號","OBJECTID":116332},"geometry":{"x":173388.10000000056,"y":2541650.8100000024}},{"attributes":{"ID":116333,"DIS_CODE":0,"TOWNNAME":"仁德區","LI":"中洲里","LIN":"1鄰","STREET":" ","SECT":" ","MAREA":"中洲","LANE":" ","ALLEY":" ","HOUSE_NO":"４號之２","E_COORD97":173527.26000000001,"N_COORD97":2534349.04,"ADDRESS":"中洲４號之２","OBJECTID":116333},"geometry":{"x":173527.25999999978,"y":2534349.0399999991}},{"attributes":{"ID":116334,"DIS_CODE":0,"TOWNNAME":"安南區","LI":"安順里","LIN":"23鄰","STREET":"總安街","SECT":"一段","MAREA":" ","LANE":"１４６巷","ALLEY":"８５弄","HOUSE_NO":"１號","E_COORD97":169612.70999999999,"N_COORD97":2550444.5299999998,"ADDRESS":"總安街一段１４６巷８５弄１號","OBJECTID":116334},"geometry":{"x":169612.71000000089,"y":2550444.5299999975}},{"attributes":{"ID":116335,"DIS_CODE":0,"TOWNNAME":"安南區","LI":"安順里","LIN":"23鄰","STREET":"總安街","SECT":"一段","MAREA":" ","LANE":"１４６巷","ALLEY":"８５弄","HOUSE_NO":"３號","E_COORD97":169602.79999999999,"N_COORD97":2550444.9100000001,"ADDRESS":"總安街一段１４６巷８５弄３號","OBJECTID":116335},"geometry":{"x":169602.80000000168,"y":2550444.9100000001}},{"attributes":{"ID":116336,"DIS_CODE":0,"TOWNNAME":"仁德區","LI":"中洲里","LIN":"1鄰","STREET":" ","SECT":" ","MAREA":"中洲","LANE":" ","ALLEY":" ","HOUSE_NO":"５號之２３","E_COORD97":173430.17000000001,"N_COORD97":2534401.0499999998,"ADDRESS":"中洲５號之２３","OBJECTID":116336},"geometry":{"x":173430.17000000086,"y":2534401.0500000026}},{"attributes":{"ID":116337,"DIS_CODE":0,"TOWNNAME":"仁德區","LI":"仁愛里","LIN":"1鄰","STREET":" ","SECT":" ","MAREA":"仁愛","LANE":" ","ALLEY":" ","HOUSE_NO":"５號","E_COORD97":170297.57000000001,"N_COORD97":2540214.5299999998,"ADDRESS":"仁愛５號","OBJECTID":116337},"geometry":{"x":170297.5700000003,"y":2540214.5299999993}},{"attributes":{"ID":116338,"DIS_CODE":0,"TOWNNAME":"仁德區","LI":"三甲里","LIN":"1鄰","STREET":" ","SECT":" ","MAREA":"三甲子","LANE":" ","ALLEY":" ","HOUSE_NO":"９之３號","E_COORD97":171903.42000000001,"N_COORD97":2537112.7999999998,"ADDRESS":"三甲子９之３號","OBJECTID":116338},"geometry":{"x":171903.41999999993,"y":2537112.8000000007}},{"attributes":{"ID":116339,"DIS_CODE":0,"TOWNNAME":"安南區","LI":"安順里","LIN":"23鄰","STREET":"總安街","SECT":"一段","MAREA":" ","LANE":"１４６巷","ALLEY":"８５弄","HOUSE_NO":"５號","E_COORD97":169596.13,"N_COORD97":2550445.6800000002,"ADDRESS":"總安街一段１４６巷８５弄５號","OBJECTID":116339},"geometry":{"x":169596.13000000082,"y":2550445.6800000016}},{"attributes":{"ID":116340,"DIS_CODE":0,"TOWNNAME":"安南區","LI":"安順里","LIN":"23鄰","STREET":"總安街","SECT":"一段","MAREA":" ","LANE":"１４６巷","ALLEY":"８５弄","HOUSE_NO":"７號","E_COORD97":169590.98999999999,"N_COORD97":2550446.0600000001,"ADDRESS":"總安街一段１４６巷８５弄７號","OBJECTID":116340},"geometry":{"x":169590.99000000022,"y":2550446.0600000024}},{"attributes":{"ID":116341,"DIS_CODE":0,"TOWNNAME":"仁德區","LI":"中生里","LIN":"1鄰","STREET":" ","SECT":" ","MAREA":"中洲","LANE":" ","ALLEY":" ","HOUSE_NO":"７６之４５號","E_COORD97":173160.63,"N_COORD97":2534436.2999999998,"ADDRESS":"中洲７６之４５號","OBJECTID":116341},"geometry":{"x":173160.63000000175,"y":2534436.3000000026}},{"attributes":{"ID":116342,"DIS_CODE":0,"TOWNNAME":"仁德區","LI":"中生里","LIN":"1鄰","STREET":" ","SECT":" ","MAREA":"中洲","LANE":" ","ALLEY":" ","HOUSE_NO":"７６號之８３","E_COORD97":172592.75,"N_COORD97":2535024.5499999998,"ADDRESS":"中洲７６號之８３","OBJECTID":116342},"geometry":{"x":172592.75000000093,"y":2535024.5500000026}},{"attributes":{"ID":116343,"DIS_CODE":0,"TOWNNAME":"仁德區","LI":"中生里","LIN":"1鄰","STREET":" ","SECT":" ","MAREA":"中洲","LANE":" ","ALLEY":" ","HOUSE_NO":"７６號之２９","E_COORD97":173133.38,"N_COORD97":2534439.5499999998,"ADDRESS":"中洲７６號之２９","OBJECTID":116343},"geometry":{"x":173133.38000000175,"y":2534439.5500000007}},{"attributes":{"ID":116344,"DIS_CODE":0,"TOWNNAME":"仁德區","LI":"中生里","LIN":"1鄰","STREET":" ","SECT":" ","MAREA":"中洲","LANE":" ","ALLEY":" ","HOUSE_NO":"７６之１０６號","E_COORD97":173033.91,"N_COORD97":2534486.79,"ADDRESS":"中洲７６之１０６號","OBJECTID":116344},"geometry":{"x":173033.91000000108,"y":2534486.7899999991}},{"attributes":{"ID":116345,"DIS_CODE":0,"TOWNNAME":"七股區","LI":"頂山里","LIN":"17鄰","STREET":" ","SECT":" ","MAREA":"頂山","LANE":" ","ALLEY":" ","HOUSE_NO":"２５號之２５","E_COORD97":159118.67999999999,"N_COORD97":2564414.0899999999,"ADDRESS":"頂山２５號之２５","OBJECTID":116345},"geometry":{"x":159118.67999999877,"y":2564414.0900000017}},{"attributes":{"ID":116346,"DIS_CODE":0,"TOWNNAME":"七股區","LI":"頂山里","LIN":"17鄰","STREET":" ","SECT":" ","MAREA":"頂山","LANE":" ","ALLEY":" ","HOUSE_NO":"２５號之２６","E_COORD97":159118.63,"N_COORD97":2564407.52,"ADDRESS":"頂山２５號之２６","OBJECTID":116346},"geometry":{"x":159118.62999999989,"y":2564407.5200000014}},{"attributes":{"ID":116347,"DIS_CODE":0,"TOWNNAME":"七股區","LI":"頂山里","LIN":"17鄰","STREET":" ","SECT":" ","MAREA":"頂山","LANE":" ","ALLEY":" ","HOUSE_NO":"２５號之２７","E_COORD97":159119.44,"N_COORD97":2564400.5,"ADDRESS":"頂山２５號之２７","OBJECTID":116347},"geometry":{"x":159119.44000000227,"y":2564400.5000000037}},{"attributes":{"ID":116348,"DIS_CODE":0,"TOWNNAME":"仁德區","LI":"仁愛里","LIN":"1鄰","STREET":"二空路","SECT":" ","MAREA":" ","LANE":" ","ALLEY":" ","HOUSE_NO":"２２７號","E_COORD97":170344.14000000001,"N_COORD97":2540239.7999999998,"ADDRESS":"二空路２２７號","OBJECTID":116348},"geometry":{"x":170344.13999999966,"y":2540239.8000000026}},{"attributes":{"ID":116349,"DIS_CODE":0,"TOWNNAME":"七股區","LI":"頂山里","LIN":"17鄰","STREET":" ","SECT":" ","MAREA":"頂山","LANE":" ","ALLEY":" ","HOUSE_NO":"２５號之２８","E_COORD97":159118.03,"N_COORD97":2564394.1099999999,"ADDRESS":"頂山２５號之２８","OBJECTID":116349},"geometry":{"x":159118.03000000026,"y":2564394.1099999994}},{"attributes":{"ID":116350,"DIS_CODE":0,"TOWNNAME":"七股區","LI":"頂山里","LIN":"17鄰","STREET":" ","SECT":" ","MAREA":"頂山","LANE":" ","ALLEY":" ","HOUSE_NO":"２５號之２９","E_COORD97":159117.95000000001,"N_COORD97":2564386.5699999998,"ADDRESS":"頂山２５號之２９","OBJECTID":116350},"geometry":{"x":159117.95000000112,"y":2564386.570000004}},{"attributes":{"ID":116351,"DIS_CODE":0,"TOWNNAME":"七股區","LI":"頂山里","LIN":"17鄰","STREET":" ","SECT":" ","MAREA":"頂山","LANE":" ","ALLEY":" ","HOUSE_NO":"２５號之２","E_COORD97":159087.22,"N_COORD97":2564449.7599999998,"ADDRESS":"頂山２５號之２","OBJECTID":116351},"geometry":{"x":159087.21999999974,"y":2564449.7600000016}},{"attributes":{"ID":116352,"DIS_CODE":0,"TOWNNAME":"七股區","LI":"頂山里","LIN":"17鄰","STREET":" ","SECT":" ","MAREA":"頂山","LANE":" ","ALLEY":" ","HOUSE_NO":"２５號之３","E_COORD97":159107.76999999999,"N_COORD97":2564448.4399999999,"ADDRESS":"頂山２５號之３","OBJECTID":116352},"geometry":{"x":159107.77000000142,"y":2564448.4400000013}},{"attributes":{"ID":116353,"DIS_CODE":0,"TOWNNAME":"七股區","LI":"頂山里","LIN":"17鄰","STREET":" ","SECT":" ","MAREA":"頂山","LANE":" ","ALLEY":" ","HOUSE_NO":"２５號之４","E_COORD97":159086.79000000001,"N_COORD97":2564442.9399999999,"ADDRESS":"頂山２５號之４","OBJECTID":116353},"geometry":{"x":159086.79000000097,"y":2564442.9399999995}},{"attributes":{"ID":116354,"DIS_CODE":0,"TOWNNAME":"仁德區","LI":"土庫里","LIN":"1鄰","STREET":"大發路","SECT":" ","MAREA":" ","LANE":" ","ALLEY":" ","HOUSE_NO":"２３號","E_COORD97":173210.37,"N_COORD97":2542606.52,"ADDRESS":"大發路２３號","OBJECTID":116354},"geometry":{"x":173210.37000000104,"y":2542606.5200000033}},{"attributes":{"ID":116355,"DIS_CODE":0,"TOWNNAME":"七股區","LI":"玉成里","LIN":"4鄰","STREET":" ","SECT":" ","MAREA":"玉成","LANE":" ","ALLEY":" ","HOUSE_NO":"４３號之１","E_COORD97":161286.01000000001,"N_COORD97":2559665.5099999998,"ADDRESS":"玉成４３號之１","OBJECTID":116355},"geometry":{"x":161286.00999999978,"y":2559665.5099999998}},{"attributes":{"ID":116356,"DIS_CODE":0,"TOWNNAME":"七股區","LI":"玉成里","LIN":"4鄰","STREET":" ","SECT":" ","MAREA":"玉成","LANE":" ","ALLEY":" ","HOUSE_NO":"４３號","E_COORD97":161305.39999999999,"N_COORD97":2559669.7799999998,"ADDRESS":"玉成４３號","OBJECTID":116356},"geometry":{"x":161305.4000000013,"y":2559669.7800000012}},{"attributes":{"ID":116357,"DIS_CODE":0,"TOWNNAME":"七股區","LI":"玉成里","LIN":"4鄰","STREET":" ","SECT":" ","MAREA":"玉成","LANE":" ","ALLEY":" ","HOUSE_NO":"４５號","E_COORD97":161268.39999999999,"N_COORD97":2559661.8599999999,"ADDRESS":"玉成４５號","OBJECTID":116357},"geometry":{"x":161268.40000000037,"y":2559661.8600000013}},{"attributes":{"ID":116358,"DIS_CODE":0,"TOWNNAME":"仁德區","LI":"中生里","LIN":"1鄰","STREET":" ","SECT":" ","MAREA":"中洲","LANE":" ","ALLEY":" ","HOUSE_NO":"７６之１１２號","E_COORD97":172756.35999999999,"N_COORD97":2534885.04,"ADDRESS":"中洲７６之１１２號","OBJECTID":116358},"geometry":{"x":172756.36000000127,"y":2534885.0399999991}},{"attributes":{"ID":116359,"DIS_CODE":0,"TOWNNAME":"七股區","LI":"玉成里","LIN":"4鄰","STREET":" ","SECT":" ","MAREA":"玉成","LANE":" ","ALLEY":" ","HOUSE_NO":"４６號之１","E_COORD97":161283.19,"N_COORD97":2559638.29,"ADDRESS":"玉成４６號之１","OBJECTID":116359},"geometry":{"x":161283.19000000134,"y":2559638.290000001}},{"attributes":{"ID":116360,"DIS_CODE":0,"TOWNNAME":"七股區","LI":"玉成里","LIN":"4鄰","STREET":" ","SECT":" ","MAREA":"玉成","LANE":" ","ALLEY":" ","HOUSE_NO":"４６號","E_COORD97":161269.23999999999,"N_COORD97":2559637.1000000001,"ADDRESS":"玉成４６號","OBJECTID":116360},"geometry":{"x":161269.24000000115,"y":2559637.1000000015}},{"attributes":{"ID":116361,"DIS_CODE":0,"TOWNNAME":"安南區","LI":"安順里","LIN":"23鄰","STREET":"總安街","SECT":"一段","MAREA":" ","LANE":"１４６巷","ALLEY":"８５弄","HOUSE_NO":"１１號","E_COORD97":169583.04999999999,"N_COORD97":2550446.8799999999,"ADDRESS":"總安街一段１４６巷８５弄１１號","OBJECTID":116361},"geometry":{"x":169583.05000000075,"y":2550446.8800000008}},{"attributes":{"ID":116362,"DIS_CODE":0,"TOWNNAME":"七股區","LI":"玉成里","LIN":"4鄰","STREET":" ","SECT":" ","MAREA":"玉成","LANE":" ","ALLEY":" ","HOUSE_NO":"４７號之１","E_COORD97":161242.67000000001,"N_COORD97":2559624.6699999999,"ADDRESS":"玉成４７號之１","OBJECTID":116362},"geometry":{"x":161242.66999999993,"y":2559624.6699999999}},{"attributes":{"ID":116363,"DIS_CODE":0,"TOWNNAME":"七股區","LI":"玉成里","LIN":"4鄰","STREET":" ","SECT":" ","MAREA":"玉成","LANE":" ","ALLEY":" ","HOUSE_NO":"４７號","E_COORD97":161258.38789899999,"N_COORD97":2559652.31067,"ADDRESS":"玉成４７號","OBJECTID":116363},"geometry":{"x":161258.38789900206,"y":2559652.310668001}},{"attributes":{"ID":116364,"DIS_CODE":0,"TOWNNAME":"七股區","LI":"頂山里","LIN":"7鄰","STREET":" ","SECT":" ","MAREA":"頂山","LANE":" ","ALLEY":" ","HOUSE_NO":"６４號之１","E_COORD97":159005.28,"N_COORD97":2564579.1899999999,"ADDRESS":"頂山６４號之１","OBJECTID":116364},"geometry":{"x":159005.28000000119,"y":2564579.1900000013}},{"attributes":{"ID":116365,"DIS_CODE":0,"TOWNNAME":"安南區","LI":"安順里","LIN":"23鄰","STREET":"總安街","SECT":"一段","MAREA":" ","LANE":"１４６巷","ALLEY":"８５弄","HOUSE_NO":"１３號","E_COORD97":169578.35000000001,"N_COORD97":2550447.6400000001,"ADDRESS":"總安街一段１４６巷８５弄１３號","OBJECTID":116365},"geometry":{"x":169578.34999999963,"y":2550447.6400000006}},{"attributes":{"ID":116366,"DIS_CODE":0,"TOWNNAME":"安南區","LI":"安順里","LIN":"23鄰","STREET":"總安街","SECT":"一段","MAREA":" ","LANE":"１４６巷","ALLEY":"８５弄","HOUSE_NO":"１５號","E_COORD97":169574.29000000001,"N_COORD97":2550447.2599999998,"ADDRESS":"總安街一段１４６巷８５弄１５號","OBJECTID":116366},"geometry":{"x":169574.2900000019,"y":2550447.2600000035}},{"attributes":{"ID":116367,"DIS_CODE":0,"TOWNNAME":"七股區","LI":"頂山里","LIN":"7鄰","STREET":" ","SECT":" ","MAREA":"頂山","LANE":" ","ALLEY":" ","HOUSE_NO":"６５號","E_COORD97":159004.20999999999,"N_COORD97":2564598.71,"ADDRESS":"頂山６５號","OBJECTID":116367},"geometry":{"x":159004.21000000089,"y":2564598.7100000009}},{"attributes":{"ID":116368,"DIS_CODE":0,"TOWNNAME":"安南區","LI":"安順里","LIN":"23鄰","STREET":"總安街","SECT":"一段","MAREA":" ","LANE":"１４６巷","ALLEY":"８５弄","HOUSE_NO":"１９號","E_COORD97":169564.89000000001,"N_COORD97":2550448.79,"ADDRESS":"總安街一段１４６巷８５弄１９號","OBJECTID":116368},"geometry":{"x":169564.89000000153,"y":2550448.7899999991}},{"attributes":{"ID":116369,"DIS_CODE":0,"TOWNNAME":"七股區","LI":"玉成里","LIN":"1鄰","STREET":" ","SECT":" ","MAREA":"玉成","LANE":" ","ALLEY":" ","HOUSE_NO":"５號之１０","E_COORD97":161544.01000000001,"N_COORD97":2559933.5,"ADDRESS":"玉成５號之１０","OBJECTID":116369},"geometry":{"x":161544.00999999885,"y":2559933.5000000019}},{"attributes":{"ID":116370,"DIS_CODE":0,"TOWNNAME":"七股區","LI":"玉成里","LIN":"1鄰","STREET":" ","SECT":" ","MAREA":"玉成","LANE":" ","ALLEY":" ","HOUSE_NO":"５號之１１","E_COORD97":161545.17000000001,"N_COORD97":2559937.6800000002,"ADDRESS":"玉成５號之１１","OBJECTID":116370},"geometry":{"x":161545.17000000086,"y":2559937.6800000016}},{"attributes":{"ID":116371,"DIS_CODE":0,"TOWNNAME":"七股區","LI":"玉成里","LIN":"1鄰","STREET":" ","SECT":" ","MAREA":"玉成","LANE":" ","ALLEY":" ","HOUSE_NO":"５號之１２","E_COORD97":161546.32999999999,"N_COORD97":2559941.8599999999,"ADDRESS":"玉成５號之１２","OBJECTID":116371},"geometry":{"x":161546.33000000101,"y":2559941.8599999994}},{"attributes":{"ID":116372,"DIS_CODE":0,"TOWNNAME":"七股區","LI":"玉成里","LIN":"1鄰","STREET":" ","SECT":" ","MAREA":"玉成","LANE":" ","ALLEY":" ","HOUSE_NO":"５號之１３","E_COORD97":161547.5,"N_COORD97":2559946.04,"ADDRESS":"玉成５號之１３","OBJECTID":116372},"geometry":{"x":161547.5,"y":2559946.0399999991}},{"attributes":{"ID":116373,"DIS_CODE":0,"TOWNNAME":"七股區","LI":"玉成里","LIN":"1鄰","STREET":" ","SECT":" ","MAREA":"玉成","LANE":" ","ALLEY":" ","HOUSE_NO":"５號之１４","E_COORD97":161548.66,"N_COORD97":2559950.2200000002,"ADDRESS":"玉成５號之１４","OBJECTID":116373},"geometry":{"x":161548.66000000201,"y":2559950.2200000007}},{"attributes":{"ID":116374,"DIS_CODE":0,"TOWNNAME":"七股區","LI":"竹港里","LIN":"4鄰","STREET":" ","SECT":" ","MAREA":"竹港","LANE":" ","ALLEY":" ","HOUSE_NO":"３７號之５","E_COORD97":165053.51999999999,"N_COORD97":2556856.1600000001,"ADDRESS":"竹港３７號之５","OBJECTID":116374},"geometry":{"x":165053.52000000048,"y":2556856.1600000039}},{"attributes":{"ID":116375,"DIS_CODE":0,"TOWNNAME":"七股區","LI":"竹港里","LIN":"4鄰","STREET":" ","SECT":" ","MAREA":"竹港","LANE":" ","ALLEY":" ","HOUSE_NO":"３７號之６","E_COORD97":165052.48000000001,"N_COORD97":2556860.2999999998,"ADDRESS":"竹港３７號之６","OBJECTID":116375},"geometry":{"x":165052.48000000231,"y":2556860.3000000026}},{"attributes":{"ID":116376,"DIS_CODE":0,"TOWNNAME":"七股區","LI":"竹港里","LIN":"4鄰","STREET":" ","SECT":" ","MAREA":"竹港","LANE":" ","ALLEY":" ","HOUSE_NO":"３８號","E_COORD97":165033.28,"N_COORD97":2556844.4199999999,"ADDRESS":"竹港３８號","OBJECTID":116376},"geometry":{"x":165033.28000000212,"y":2556844.4200000018}},{"attributes":{"ID":116377,"DIS_CODE":0,"TOWNNAME":"七股區","LI":"竹港里","LIN":"4鄰","STREET":" ","SECT":" ","MAREA":"竹港","LANE":" ","ALLEY":" ","HOUSE_NO":"３９號","E_COORD97":164996,"N_COORD97":2556860.48,"ADDRESS":"竹港３９號","OBJECTID":116377},"geometry":{"x":164996.00000000093,"y":2556860.4800000004}},{"attributes":{"ID":116378,"DIS_CODE":0,"TOWNNAME":"安南區","LI":"安順里","LIN":"23鄰","STREET":"總安街","SECT":"一段","MAREA":" ","LANE":"１４６巷","ALLEY":"８５弄","HOUSE_NO":"２１號","E_COORD97":169560.57000000001,"N_COORD97":2550448.6600000001,"ADDRESS":"總安街一段１４６巷８５弄２１號","OBJECTID":116378},"geometry":{"x":169560.5700000003,"y":2550448.660000002}},{"attributes":{"ID":116379,"DIS_CODE":0,"TOWNNAME":"安南區","LI":"安順里","LIN":"23鄰","STREET":"總安街","SECT":"一段","MAREA":" ","LANE":"１４６巷","ALLEY":"８５弄","HOUSE_NO":"２３號","E_COORD97":169558.10999999999,"N_COORD97":2550448.6299999999,"ADDRESS":"總安街一段１４６巷８５弄２３號","OBJECTID":116379},"geometry":{"x":169558.11000000034,"y":2550448.6300000008}},{"attributes":{"ID":116380,"DIS_CODE":0,"TOWNNAME":"七股區","LI":"竹港里","LIN":"4鄰","STREET":" ","SECT":" ","MAREA":"竹港","LANE":" ","ALLEY":" ","HOUSE_NO":"４０號","E_COORD97":164995.78,"N_COORD97":2556879.8100000001,"ADDRESS":"竹港４０號","OBJECTID":116380},"geometry":{"x":164995.77999999933,"y":2556879.8100000024}},{"attributes":{"ID":116381,"DIS_CODE":0,"TOWNNAME":"七股區","LI":"竹港里","LIN":"4鄰","STREET":" ","SECT":" ","MAREA":"竹港","LANE":" ","ALLEY":" ","HOUSE_NO":"４１號之１","E_COORD97":165003.66,"N_COORD97":2556944.6899999999,"ADDRESS":"竹港４１號之１","OBJECTID":116381},"geometry":{"x":165003.66000000108,"y":2556944.6900000013}},{"attributes":{"ID":116382,"DIS_CODE":0,"TOWNNAME":"七股區","LI":"竹港里","LIN":"4鄰","STREET":" ","SECT":" ","MAREA":"竹港","LANE":" ","ALLEY":" ","HOUSE_NO":"４１號之２０","E_COORD97":164900.42000000001,"N_COORD97":2557280.6400000001,"ADDRESS":"竹港４１號之２０","OBJECTID":116382},"geometry":{"x":164900.42000000086,"y":2557280.6400000025}},{"attributes":{"ID":116383,"DIS_CODE":0,"TOWNNAME":"安南區","LI":"安順里","LIN":"23鄰","STREET":"總安街","SECT":"一段","MAREA":" ","LANE":"１４６巷","ALLEY":"８５弄","HOUSE_NO":"２５號","E_COORD97":169553.19,"N_COORD97":2550448.9500000002,"ADDRESS":"總安街一段１４６巷８５弄２５號","OBJECTID":116383},"geometry":{"x":169553.19000000041,"y":2550448.9500000011}},{"attributes":{"ID":116384,"DIS_CODE":0,"TOWNNAME":"七股區","LI":"竹港里","LIN":"4鄰","STREET":" ","SECT":" ","MAREA":"竹港","LANE":" ","ALLEY":" ","HOUSE_NO":"４１號之２","E_COORD97":165045.22,"N_COORD97":2556980.04,"ADDRESS":"竹港４１號之２","OBJECTID":116384},"geometry":{"x":165045.22000000067,"y":2556980.0399999991}},{"attributes":{"ID":116385,"DIS_CODE":0,"TOWNNAME":"七股區","LI":"竹港里","LIN":"4鄰","STREET":" ","SECT":" ","MAREA":"竹港","LANE":" ","ALLEY":" ","HOUSE_NO":"４１號之３","E_COORD97":164984.20000000001,"N_COORD97":2556933.8999999999,"ADDRESS":"竹港４１號之３","OBJECTID":116385},"geometry":{"x":164984.20000000019,"y":2556933.9000000022}},{"attributes":{"ID":116386,"DIS_CODE":0,"TOWNNAME":"七股區","LI":"竹港里","LIN":"4鄰","STREET":" ","SECT":" ","MAREA":"竹港","LANE":" ","ALLEY":" ","HOUSE_NO":"４１號","E_COORD97":164992.81,"N_COORD97":2556902.0699999998,"ADDRESS":"竹港４１號","OBJECTID":116386},"geometry":{"x":164992.80999999959,"y":2556902.0700000022}},{"attributes":{"ID":116387,"DIS_CODE":0,"TOWNNAME":"七股區","LI":"竹港里","LIN":"1鄰","STREET":" ","SECT":" ","MAREA":"竹港","LANE":" ","ALLEY":" ","HOUSE_NO":"２號之２","E_COORD97":165006.64999999999,"N_COORD97":2557554.5800000001,"ADDRESS":"竹港２號之２","OBJECTID":116387},"geometry":{"x":165006.65000000037,"y":2557554.5799999982}},{"attributes":{"ID":116388,"DIS_CODE":0,"TOWNNAME":"安南區","LI":"安順里","LIN":"23鄰","STREET":"總安街","SECT":"一段","MAREA":" ","LANE":"１４６巷","ALLEY":"８５弄","HOUSE_NO":"２７號","E_COORD97":169548.26999999999,"N_COORD97":2550449.4199999999,"ADDRESS":"總安街一段１４６巷８５弄２７號","OBJECTID":116388},"geometry":{"x":169548.26999999955,"y":2550449.4200000037}},{"attributes":{"ID":116389,"DIS_CODE":0,"TOWNNAME":"七股區","LI":"竹港里","LIN":"1鄰","STREET":" ","SECT":" ","MAREA":"竹港","LANE":" ","ALLEY":" ","HOUSE_NO":"３號","E_COORD97":165296.87,"N_COORD97":2557619.21,"ADDRESS":"竹港３號","OBJECTID":116389},"geometry":{"x":165296.87000000197,"y":2557619.2100000046}},{"attributes":{"ID":116390,"DIS_CODE":0,"TOWNNAME":"七股區","LI":"竹港里","LIN":"3鄰","STREET":" ","SECT":" ","MAREA":"竹港","LANE":" ","ALLEY":" ","HOUSE_NO":"７９號","E_COORD97":165032.11842700001,"N_COORD97":2556397.0210799999,"ADDRESS":"竹港２９號","OBJECTID":116390},"geometry":{"x":165032.11842700094,"y":2556397.021077998}},{"attributes":{"ID":116391,"DIS_CODE":0,"TOWNNAME":"七股區","LI":"竹港里","LIN":"3鄰","STREET":" ","SECT":" ","MAREA":"竹港","LANE":" ","ALLEY":" ","HOUSE_NO":"３０號之１","E_COORD97":165139.28,"N_COORD97":2556931.9300000002,"ADDRESS":"竹港３０號之１","OBJECTID":116391},"geometry":{"x":165139.28000000026,"y":2556931.9300000016}},{"attributes":{"ID":116392,"DIS_CODE":0,"TOWNNAME":"仁德區","LI":"仁德里","LIN":"1鄰","STREET":"中正路","SECT":"二段","MAREA":" ","LANE":" ","ALLEY":" ","HOUSE_NO":"６７１號","E_COORD97":173413.42999999999,"N_COORD97":2540042.02,"ADDRESS":"中正路二段６７１號","OBJECTID":116392},"geometry":{"x":173413.43000000063,"y":2540042.0199999996}},{"attributes":{"ID":116393,"DIS_CODE":0,"TOWNNAME":"仁德區","LI":"仁義里","LIN":"1鄰","STREET":"義林七街","SECT":" ","MAREA":" ","LANE":" ","ALLEY":" ","HOUSE_NO":"１１７號","E_COORD97":174192.97,"N_COORD97":2541137.02,"ADDRESS":"義林七街１１７號","OBJECTID":116393},"geometry":{"x":174192.97000000067,"y":2541137.0199999996}},{"attributes":{"ID":116394,"DIS_CODE":0,"TOWNNAME":"白河區","LI":"白河里","LIN":"1鄰","STREET":"八德街","SECT":" ","MAREA":" ","LANE":" ","ALLEY":" ","HOUSE_NO":"７號","E_COORD97":190019.84,"N_COORD97":2582696.6400000001,"ADDRESS":"八德街７號","OBJECTID":116394},"geometry":{"x":190019.84000000078,"y":2582696.6400000006}},{"attributes":{"ID":116395,"DIS_CODE":0,"TOWNNAME":"安南區","LI":"安順里","LIN":"23鄰","STREET":"總安街","SECT":"一段","MAREA":" ","LANE":"１４６巷","ALLEY":"８５弄","HOUSE_NO":"２９號","E_COORD97":169544.45999999999,"N_COORD97":2550449.4199999999,"ADDRESS":"總安街一段１４６巷８５弄２９號","OBJECTID":116395},"geometry":{"x":169544.46000000089,"y":2550449.4200000037}},{"attributes":{"ID":116396,"DIS_CODE":0,"TOWNNAME":"安南區","LI":"安順里","LIN":"23鄰","STREET":"總安街","SECT":"一段","MAREA":" ","LANE":"１４６巷","ALLEY":"８５弄","HOUSE_NO":"３１號","E_COORD97":169539.38,"N_COORD97":2550449.5800000001,"ADDRESS":"總安街一段１４６巷８５弄３１號","OBJECTID":116396},"geometry":{"x":169539.37999999989,"y":2550449.5800000019}},{"attributes":{"ID":116397,"DIS_CODE":0,"TOWNNAME":"安南區","LI":"安順里","LIN":"23鄰","STREET":"總安街","SECT":"一段","MAREA":" ","LANE":"１４６巷","ALLEY":"８５弄","HOUSE_NO":"８號","E_COORD97":169592.20000000001,"N_COORD97":2550459.71,"ADDRESS":"總安街一段１４６巷８５弄８號","OBJECTID":116397},"geometry":{"x":169592.20000000112,"y":2550459.7100000028}},{"attributes":{"ID":116398,"DIS_CODE":0,"TOWNNAME":"安南區","LI":"安順里","LIN":"23鄰","STREET":"總安街","SECT":"一段","MAREA":" ","LANE":"１４６巷","ALLEY":"８５弄","HOUSE_NO":"２６號","E_COORD97":169562.56,"N_COORD97":2550461.1699999999,"ADDRESS":"總安街一段１４６巷８５弄２６號","OBJECTID":116398},"geometry":{"x":169562.56000000052,"y":2550461.1699999981}},{"attributes":{"ID":116399,"DIS_CODE":0,"TOWNNAME":"北門區","LI":"雙春里","LIN":"4鄰","STREET":" ","SECT":" ","MAREA":"雙春","LANE":" ","ALLEY":" ","HOUSE_NO":"３２號","E_COORD97":160877.47,"N_COORD97":2577770.52,"ADDRESS":"雙春３２號","OBJECTID":116399},"geometry":{"x":160877.46999999974,"y":2577770.5199999996}},{"attributes":{"ID":116400,"DIS_CODE":0,"TOWNNAME":"安南區","LI":"安順里","LIN":"23鄰","STREET":"總安街","SECT":"一段","MAREA":" ","LANE":"１４６巷","ALLEY":"８５弄","HOUSE_NO":"２２號","E_COORD97":169567.16,"N_COORD97":2550461.3300000001,"ADDRESS":"總安街一段１４６巷８５弄２２號","OBJECTID":116400},"geometry":{"x":169567.16000000108,"y":2550461.3300000019}}]}