{"displayFieldName":"TOWNNAME","fieldAliases":{"ID":"ID","DIS_CODE":"DIS_CODE","TOWNNAME":"TOWNNAME","LI":"LI","LIN":"LIN","STREET":"STREET","SECT":"SECT","MAREA":"MAREA","LANE":"LANE","ALLEY":"ALLEY","HOUSE_NO":"HOUSE_NO","E_COORD97":"E_COORD97","N_COORD97":"N_COORD97","ADDRESS":"ADDRESS","OBJECTID":"OBJECTID"},"geometryType":"esriGeometryPoint","spatialReference":{"wkid":102443,"latestWkid":3826},"fields":[{"name":"ID","type":"esriFieldTypeDouble","alias":"ID"},{"name":"DIS_CODE","type":"esriFieldTypeInteger","alias":"DIS_CODE"},{"name":"TOWNNAME","type":"esriFieldTypeString","alias":"TOWNNAME","length":8},{"name":"LI","type":"esriFieldTypeString","alias":"LI","length":8},{"name":"LIN","type":"esriFieldTypeString","alias":"LIN","length":12},{"name":"STREET","type":"esriFieldTypeString","alias":"STREET","length":20},{"name":"SECT","type":"esriFieldTypeString","alias":"SECT","length":8},{"name":"MAREA","type":"esriFieldTypeString","alias":"MAREA","length":12},{"name":"LANE","type":"esriFieldTypeString","alias":"LANE","length":10},{"name":"ALLEY","type":"esriFieldTypeString","alias":"ALLEY","length":10},{"name":"HOUSE_NO","type":"esriFieldTypeString","alias":"HOUSE_NO","length":20},{"name":"E_COORD97","type":"esriFieldTypeDouble","alias":"E_COORD97"},{"name":"N_COORD97","type":"esriFieldTypeDouble","alias":"N_COORD97"},{"name":"ADDRESS","type":"esriFieldTypeString","alias":"ADDRESS","length":50},{"name":"OBJECTID","type":"esriFieldTypeOID","alias":"OBJECTID"}],"features":[{"attributes":{"ID":323610,"DIS_CODE":0,"TOWNNAME":"佳里區","LI":"營頂里","LIN":"4鄰","STREET":" ","SECT":" ","MAREA":"營頂","LANE":" ","ALLEY":" ","HOUSE_NO":"３８號之３","E_COORD97":166898.54000000001,"N_COORD97":2566684.5,"ADDRESS":"營頂３８號之３","OBJECTID":323601},"geometry":{"x":166898.54000000004,"y":2566684.5}},{"attributes":{"ID":323611,"DIS_CODE":0,"TOWNNAME":"佳里區","LI":"營頂里","LIN":"4鄰","STREET":" ","SECT":" ","MAREA":"營頂","LANE":" ","ALLEY":" ","HOUSE_NO":"３８號","E_COORD97":166899.92000000001,"N_COORD97":2566698.0899999999,"ADDRESS":"營頂３８號","OBJECTID":323602},"geometry":{"x":166899.91999999899,"y":2566698.089999998}},{"attributes":{"ID":323612,"DIS_CODE":0,"TOWNNAME":"佳里區","LI":"營頂里","LIN":"7鄰","STREET":" ","SECT":" ","MAREA":"營頂","LANE":" ","ALLEY":" ","HOUSE_NO":"７５號之２","E_COORD97":166975.44,"N_COORD97":2566488.0699999998,"ADDRESS":"營頂７５號之２","OBJECTID":323603},"geometry":{"x":166975.44000000134,"y":2566488.0700000003}},{"attributes":{"ID":323613,"DIS_CODE":0,"TOWNNAME":"佳里區","LI":"營頂里","LIN":"7鄰","STREET":" ","SECT":" ","MAREA":"營頂","LANE":" ","ALLEY":" ","HOUSE_NO":"７５號之３","E_COORD97":166991.29000000001,"N_COORD97":2566508.73,"ADDRESS":"營頂７５號之３","OBJECTID":323604},"geometry":{"x":166991.29000000097,"y":2566508.7300000023}},{"attributes":{"ID":323614,"DIS_CODE":0,"TOWNNAME":"佳里區","LI":"營頂里","LIN":"7鄰","STREET":" ","SECT":" ","MAREA":"營頂","LANE":" ","ALLEY":" ","HOUSE_NO":"７５號之４","E_COORD97":166987.51999999999,"N_COORD97":2566508.1600000001,"ADDRESS":"營頂７５號之４","OBJECTID":323605},"geometry":{"x":166987.52000000048,"y":2566508.1599999983}},{"attributes":{"ID":323615,"DIS_CODE":0,"TOWNNAME":"永康區","LI":"永康里","LIN":"38鄰","STREET":"大同街","SECT":" ","MAREA":" ","LANE":"７１５巷","ALLEY":" ","HOUSE_NO":"２９號","E_COORD97":174437.47,"N_COORD97":2546659.3799999999,"ADDRESS":"大同街７１５巷２９號","OBJECTID":323606},"geometry":{"x":174437.46999999974,"y":2546659.3800000008}},{"attributes":{"ID":323616,"DIS_CODE":0,"TOWNNAME":"永康區","LI":"永康里","LIN":"38鄰","STREET":"大同街","SECT":" ","MAREA":" ","LANE":"７１５巷","ALLEY":" ","HOUSE_NO":"１７號","E_COORD97":174461.10999999999,"N_COORD97":2546664.8900000001,"ADDRESS":"大同街７１５巷１７號","OBJECTID":323607},"geometry":{"x":174461.11000000034,"y":2546664.8900000025}},{"attributes":{"ID":323617,"DIS_CODE":0,"TOWNNAME":"永康區","LI":"安康里","LIN":"18鄰","STREET":"中華路","SECT":" ","MAREA":" ","LANE":"６６１巷","ALLEY":" ","HOUSE_NO":"１０４號","E_COORD97":170803.54999999999,"N_COORD97":2546120,"ADDRESS":"中華路６６１巷１０４號","OBJECTID":323608},"geometry":{"x":170803.55000000075,"y":2546120.0000000019}},{"attributes":{"ID":323618,"DIS_CODE":0,"TOWNNAME":"永康區","LI":"永康里","LIN":"25鄰","STREET":"埔聖街","SECT":" ","MAREA":" ","LANE":"１６２巷","ALLEY":" ","HOUSE_NO":"６號","E_COORD97":174114.54999999999,"N_COORD97":2547609.4500000002,"ADDRESS":"埔聖街１６２巷６號","OBJECTID":323609},"geometry":{"x":174114.55000000075,"y":2547609.4499999993}},{"attributes":{"ID":323619,"DIS_CODE":0,"TOWNNAME":"永康區","LI":"永康里","LIN":"26鄰","STREET":"中山北路","SECT":" ","MAREA":" ","LANE":"１０４巷","ALLEY":" ","HOUSE_NO":"１號","E_COORD97":174173.87,"N_COORD97":2547482.4500000002,"ADDRESS":"中山北路１０４巷１號","OBJECTID":323610},"geometry":{"x":174173.87000000011,"y":2547482.4500000011}},{"attributes":{"ID":323620,"DIS_CODE":0,"TOWNNAME":"北區","LI":"賢北里","LIN":"15鄰","STREET":"大興街","SECT":" ","MAREA":" ","LANE":"５３３巷","ALLEY":" ","HOUSE_NO":"６號","E_COORD97":166104.57999999999,"N_COORD97":2545453.0600000001,"ADDRESS":"大興街５３３巷６號","OBJECTID":323611},"geometry":{"x":166104.58000000101,"y":2545453.0600000024}},{"attributes":{"ID":323621,"DIS_CODE":0,"TOWNNAME":"北區","LI":"賢北里","LIN":"15鄰","STREET":"大興街","SECT":" ","MAREA":" ","LANE":"５３３巷","ALLEY":" ","HOUSE_NO":"７號","E_COORD97":166100.56,"N_COORD97":2545451.2000000002,"ADDRESS":"大興街５３３巷７號","OBJECTID":323612},"geometry":{"x":166100.56000000052,"y":2545451.1999999993}},{"attributes":{"ID":323622,"DIS_CODE":0,"TOWNNAME":"北區","LI":"賢北里","LIN":"15鄰","STREET":"大興街","SECT":" ","MAREA":" ","LANE":"５３３巷","ALLEY":" ","HOUSE_NO":"８號","E_COORD97":166096.23000000001,"N_COORD97":2545449.04,"ADDRESS":"大興街５３３巷８號","OBJECTID":323613},"geometry":{"x":166096.23000000045,"y":2545449.0399999991}},{"attributes":{"ID":323623,"DIS_CODE":0,"TOWNNAME":"北區","LI":"賢北里","LIN":"15鄰","STREET":"大興街","SECT":" ","MAREA":" ","LANE":"５３３巷","ALLEY":" ","HOUSE_NO":"９號","E_COORD97":166091.89000000001,"N_COORD97":2545448.1099999999,"ADDRESS":"大興街５３３巷９號","OBJECTID":323614},"geometry":{"x":166091.8900000006,"y":2545448.1100000013}},{"attributes":{"ID":323624,"DIS_CODE":0,"TOWNNAME":"北區","LI":"賢北里","LIN":"15鄰","STREET":"大興街","SECT":" ","MAREA":" ","LANE":"５６５巷","ALLEY":" ","HOUSE_NO":"１０號","E_COORD97":166027.42999999999,"N_COORD97":2545395.75,"ADDRESS":"大興街５６５巷１０號","OBJECTID":323615},"geometry":{"x":166027.43000000063,"y":2545395.7500000037}},{"attributes":{"ID":323625,"DIS_CODE":0,"TOWNNAME":"北區","LI":"賢北里","LIN":"15鄰","STREET":"大興街","SECT":" ","MAREA":" ","LANE":"５６５巷","ALLEY":" ","HOUSE_NO":"１１號","E_COORD97":166044.22,"N_COORD97":2545409.8500000001,"ADDRESS":"大興街５６５巷１１號","OBJECTID":323616},"geometry":{"x":166044.22000000067,"y":2545409.8499999996}},{"attributes":{"ID":323626,"DIS_CODE":0,"TOWNNAME":"北區","LI":"賢北里","LIN":"15鄰","STREET":"大興街","SECT":" ","MAREA":" ","LANE":"５６５巷","ALLEY":" ","HOUSE_NO":"１２號","E_COORD97":166033.03,"N_COORD97":2545385.5099999998,"ADDRESS":"大興街５６５巷１２號","OBJECTID":323617},"geometry":{"x":166033.03000000026,"y":2545385.5099999998}},{"attributes":{"ID":323627,"DIS_CODE":0,"TOWNNAME":"北區","LI":"賢北里","LIN":"15鄰","STREET":"大興街","SECT":" ","MAREA":" ","LANE":"５６５巷","ALLEY":" ","HOUSE_NO":"１３號","E_COORD97":166046.67999999999,"N_COORD97":2545405.8900000001,"ADDRESS":"大興街５６５巷１３號","OBJECTID":323618},"geometry":{"x":166046.6799999997,"y":2545405.8900000025}},{"attributes":{"ID":323628,"DIS_CODE":0,"TOWNNAME":"北區","LI":"賢北里","LIN":"15鄰","STREET":"大興街","SECT":" ","MAREA":" ","LANE":"５６５巷","ALLEY":" ","HOUSE_NO":"１５號","E_COORD97":166047.91,"N_COORD97":2545402.6099999999,"ADDRESS":"大興街５６５巷１５號","OBJECTID":323619},"geometry":{"x":166047.91000000108,"y":2545402.6099999975}},{"attributes":{"ID":323629,"DIS_CODE":0,"TOWNNAME":"南區","LI":"彰南里","LIN":"17鄰","STREET":"新義南路","SECT":" ","MAREA":" ","LANE":" ","ALLEY":" ","HOUSE_NO":"１９號","E_COORD97":165946.59,"N_COORD97":2541029.9199999999,"ADDRESS":"新義南路１９號","OBJECTID":323620},"geometry":{"x":165946.59000000078,"y":2541029.9199999999}},{"attributes":{"ID":323630,"DIS_CODE":0,"TOWNNAME":"南區","LI":"彰南里","LIN":"17鄰","STREET":"新義南路","SECT":" ","MAREA":" ","LANE":" ","ALLEY":" ","HOUSE_NO":"１號","E_COORD97":166161.39000000001,"N_COORD97":2541162.8999999999,"ADDRESS":"新義南路１號","OBJECTID":323621},"geometry":{"x":166161.3900000006,"y":2541162.9000000004}},{"attributes":{"ID":323631,"DIS_CODE":0,"TOWNNAME":"南區","LI":"彰南里","LIN":"17鄰","STREET":"新義南路","SECT":" ","MAREA":" ","LANE":" ","ALLEY":" ","HOUSE_NO":"２１號","E_COORD97":165917.67000000001,"N_COORD97":2541028.0299999998,"ADDRESS":"新義南路２１號","OBJECTID":323622},"geometry":{"x":165917.66999999993,"y":2541028.0299999993}},{"attributes":{"ID":323632,"DIS_CODE":0,"TOWNNAME":"南區","LI":"彰南里","LIN":"17鄰","STREET":"新義南路","SECT":" ","MAREA":" ","LANE":" ","ALLEY":" ","HOUSE_NO":"２５號","E_COORD97":165862.38,"N_COORD97":2541029.23,"ADDRESS":"新義南路２５號","OBJECTID":323623},"geometry":{"x":165862.37999999989,"y":2541029.2299999986}},{"attributes":{"ID":323633,"DIS_CODE":0,"TOWNNAME":"南區","LI":"彰南里","LIN":"17鄰","STREET":"新義南路","SECT":" ","MAREA":" ","LANE":" ","ALLEY":" ","HOUSE_NO":"２９號","E_COORD97":165817.17999999999,"N_COORD97":2541030.4500000002,"ADDRESS":"新義南路２９號","OBJECTID":323624},"geometry":{"x":165817.18000000063,"y":2541030.4500000011}},{"attributes":{"ID":323634,"DIS_CODE":0,"TOWNNAME":"南區","LI":"彰南里","LIN":"17鄰","STREET":"新義南路","SECT":" ","MAREA":" ","LANE":" ","ALLEY":" ","HOUSE_NO":"３５號","E_COORD97":165734.12,"N_COORD97":2541027.2000000002,"ADDRESS":"新義南路３５號","OBJECTID":323625},"geometry":{"x":165734.11999999918,"y":2541027.1999999993}},{"attributes":{"ID":323635,"DIS_CODE":0,"TOWNNAME":"永康區","LI":"永康里","LIN":"38鄰","STREET":"西勢路","SECT":" ","MAREA":" ","LANE":"７３３巷","ALLEY":" ","HOUSE_NO":"１０號","E_COORD97":174413.69,"N_COORD97":2546666.5699999998,"ADDRESS":"西勢路７３３巷１０號","OBJECTID":323626},"geometry":{"x":174413.69000000134,"y":2546666.5700000022}},{"attributes":{"ID":323636,"DIS_CODE":0,"TOWNNAME":"永康區","LI":"永康里","LIN":"18鄰","STREET":"永中街","SECT":" ","MAREA":" ","LANE":"１３８巷","ALLEY":" ","HOUSE_NO":"１０號","E_COORD97":174009.95000000001,"N_COORD97":2547251.75,"ADDRESS":"永中街１３８巷１０號","OBJECTID":323627},"geometry":{"x":174009.95000000112,"y":2547251.7500000019}},{"attributes":{"ID":323637,"DIS_CODE":0,"TOWNNAME":"佳里區","LI":"三協里","LIN":" ","STREET":" ","SECT":" ","MAREA":"六安","LANE":" ","ALLEY":" ","HOUSE_NO":"３４號","E_COORD97":167807.25,"N_COORD97":2563254.9399999999,"ADDRESS":"六安３４號","OBJECTID":323628},"geometry":{"x":167807.25000000093,"y":2563254.9400000013}},{"attributes":{"ID":323638,"DIS_CODE":0,"TOWNNAME":"永康區","LI":"正強里","LIN":"13鄰","STREET":"自強路","SECT":" ","MAREA":" ","LANE":"１８８巷","ALLEY":" ","HOUSE_NO":"５號","E_COORD97":173209.44,"N_COORD97":2547491.4900000002,"ADDRESS":"自強路１８８巷５號","OBJECTID":323629},"geometry":{"x":173209.44000000041,"y":2547491.4900000002}},{"attributes":{"ID":323639,"DIS_CODE":0,"TOWNNAME":"永康區","LI":"永康里","LIN":"14鄰","STREET":"永中街","SECT":" ","MAREA":" ","LANE":"６０巷","ALLEY":" ","HOUSE_NO":"２３號","E_COORD97":173998.32999999999,"N_COORD97":2547140.2599999998,"ADDRESS":"永中街６０巷２３號","OBJECTID":323630},"geometry":{"x":173998.33000000007,"y":2547140.2599999998}},{"attributes":{"ID":323640,"DIS_CODE":0,"TOWNNAME":"永康區","LI":"甲頂里","LIN":"8鄰","STREET":"中華路","SECT":" ","MAREA":" ","LANE":"８９３巷","ALLEY":" ","HOUSE_NO":"３號","E_COORD97":170462.73999999999,"N_COORD97":2546668.3100000001,"ADDRESS":"中華路８９３巷３號","OBJECTID":323631},"geometry":{"x":170462.74000000022,"y":2546668.3100000024}},{"attributes":{"ID":323641,"DIS_CODE":0,"TOWNNAME":"永康區","LI":"復國里","LIN":"18鄰","STREET":"復國一路","SECT":" ","MAREA":" ","LANE":"３３４巷","ALLEY":" ","HOUSE_NO":"１號","E_COORD97":172788.29000000001,"N_COORD97":2545673.52,"ADDRESS":"復國一路３３４巷１號","OBJECTID":323632},"geometry":{"x":172788.28999999911,"y":2545673.5199999996}},{"attributes":{"ID":323642,"DIS_CODE":0,"TOWNNAME":"永康區","LI":"北灣里","LIN":"18鄰","STREET":"文賢街","SECT":" ","MAREA":" ","LANE":"４２２巷","ALLEY":" ","HOUSE_NO":"２３號","E_COORD97":174649.88,"N_COORD97":2545878.6699999999,"ADDRESS":"文賢街４２２巷２３號","OBJECTID":323633},"geometry":{"x":174649.87999999989,"y":2545878.6700000018}},{"attributes":{"ID":323643,"DIS_CODE":0,"TOWNNAME":"北區","LI":"大港里","LIN":"24鄰","STREET":"中華北路","SECT":"一段","MAREA":" ","LANE":"２０３巷","ALLEY":" ","HOUSE_NO":"４１號","E_COORD97":166341.23000000001,"N_COORD97":2545691.6299999999,"ADDRESS":"中華北路一段２０３巷４１號","OBJECTID":323634},"geometry":{"x":166341.23000000138,"y":2545691.6300000008}},{"attributes":{"ID":323644,"DIS_CODE":0,"TOWNNAME":"北區","LI":"大港里","LIN":"24鄰","STREET":"中華北路","SECT":"一段","MAREA":" ","LANE":"２０３巷","ALLEY":" ","HOUSE_NO":"４３號","E_COORD97":166337.10000000001,"N_COORD97":2545690.52,"ADDRESS":"中華北路一段２０３巷４３號","OBJECTID":323635},"geometry":{"x":166337.09999999963,"y":2545690.5199999996}},{"attributes":{"ID":323645,"DIS_CODE":0,"TOWNNAME":"安平區","LI":"國平里","LIN":"15鄰","STREET":"華平路","SECT":" ","MAREA":" ","LANE":"２１巷","ALLEY":" ","HOUSE_NO":"１６號","E_COORD97":165265.39999999999,"N_COORD97":2542796.1200000001,"ADDRESS":"華平路２１巷１６號","OBJECTID":323636},"geometry":{"x":165265.4000000013,"y":2542796.120000001}},{"attributes":{"ID":323646,"DIS_CODE":0,"TOWNNAME":"安平區","LI":"億載里","LIN":"15鄰","STREET":"光州三街","SECT":" ","MAREA":" ","LANE":"４２巷","ALLEY":" ","HOUSE_NO":"１號","E_COORD97":164078.51000000001,"N_COORD97":2543141.3900000001,"ADDRESS":"光州三街４２巷１號","OBJECTID":323637},"geometry":{"x":164078.51000000164,"y":2543141.3900000025}},{"attributes":{"ID":323647,"DIS_CODE":0,"TOWNNAME":"安平區","LI":"億載里","LIN":"15鄰","STREET":"光州三街","SECT":" ","MAREA":" ","LANE":"４２巷","ALLEY":" ","HOUSE_NO":"３號","E_COORD97":164078.67000000001,"N_COORD97":2543139.3399999999,"ADDRESS":"光州三街４２巷３號","OBJECTID":323638},"geometry":{"x":164078.66999999993,"y":2543139.3399999999}},{"attributes":{"ID":323648,"DIS_CODE":0,"TOWNNAME":"安平區","LI":"億載里","LIN":"15鄰","STREET":"光州三街","SECT":" ","MAREA":" ","LANE":"４２巷","ALLEY":" ","HOUSE_NO":"５號","E_COORD97":164078.82999999999,"N_COORD97":2543137.5899999999,"ADDRESS":"光州三街４２巷５號","OBJECTID":323639},"geometry":{"x":164078.83000000101,"y":2543137.5899999999}},{"attributes":{"ID":323649,"DIS_CODE":0,"TOWNNAME":"新營區","LI":"南紙里","LIN":"15鄰","STREET":"南紙街","SECT":" ","MAREA":" ","LANE":"１４３巷","ALLEY":" ","HOUSE_NO":"２６號","E_COORD97":177812.25,"N_COORD97":2577360.5800000001,"ADDRESS":"南紙街１４３巷２６號","OBJECTID":323640},"geometry":{"x":177812.25000000093,"y":2577360.5800000001}},{"attributes":{"ID":323650,"DIS_CODE":0,"TOWNNAME":"新營區","LI":"忠政里","LIN":"15鄰","STREET":"府西路","SECT":" ","MAREA":" ","LANE":"２３０巷","ALLEY":" ","HOUSE_NO":"４７號","E_COORD97":179935.28,"N_COORD97":2579611.8100000001,"ADDRESS":"府西路２３０巷４７號","OBJECTID":323641},"geometry":{"x":179935.28000000026,"y":2579611.8100000024}},{"attributes":{"ID":323651,"DIS_CODE":0,"TOWNNAME":"南區","LI":"彰南里","LIN":"17鄰","STREET":"新義南路","SECT":" ","MAREA":" ","LANE":" ","ALLEY":" ","HOUSE_NO":"３７號","E_COORD97":165708.88,"N_COORD97":2541024.7599999998,"ADDRESS":"新義南路３７號","OBJECTID":323642},"geometry":{"x":165708.88000000082,"y":2541024.7599999998}},{"attributes":{"ID":323652,"DIS_CODE":0,"TOWNNAME":"南區","LI":"彰南里","LIN":"17鄰","STREET":"新義南路","SECT":" ","MAREA":" ","LANE":" ","ALLEY":" ","HOUSE_NO":"３９號","E_COORD97":165683.92999999999,"N_COORD97":2541043.6400000001,"ADDRESS":"新義南路３９號","OBJECTID":323643},"geometry":{"x":165683.9299999997,"y":2541043.6399999987}},{"attributes":{"ID":323653,"DIS_CODE":0,"TOWNNAME":"南區","LI":"彰南里","LIN":"17鄰","STREET":"新義南路","SECT":" ","MAREA":" ","LANE":" ","ALLEY":" ","HOUSE_NO":"３號","E_COORD97":166176.56,"N_COORD97":2541133.0499999998,"ADDRESS":"新義南路３號","OBJECTID":323644},"geometry":{"x":166176.56000000145,"y":2541133.0500000026}},{"attributes":{"ID":323654,"DIS_CODE":0,"TOWNNAME":"南區","LI":"彰南里","LIN":"17鄰","STREET":"新義南路","SECT":" ","MAREA":" ","LANE":" ","ALLEY":" ","HOUSE_NO":"４１號","E_COORD97":165658.39000000001,"N_COORD97":2541028.0099999998,"ADDRESS":"新義南路４１號","OBJECTID":323645},"geometry":{"x":165658.38999999966,"y":2541028.0100000016}},{"attributes":{"ID":323655,"DIS_CODE":0,"TOWNNAME":"南區","LI":"彰南里","LIN":"17鄰","STREET":"新義南路","SECT":" ","MAREA":" ","LANE":" ","ALLEY":" ","HOUSE_NO":"４３號","E_COORD97":165633.14999999999,"N_COORD97":2541022.73,"ADDRESS":"新義南路４３號","OBJECTID":323646},"geometry":{"x":165633.1500000013,"y":2541022.7300000042}},{"attributes":{"ID":323656,"DIS_CODE":0,"TOWNNAME":"南區","LI":"彰南里","LIN":"17鄰","STREET":"新義南路","SECT":" ","MAREA":" ","LANE":" ","ALLEY":" ","HOUSE_NO":"４７號","E_COORD97":165573.23999999999,"N_COORD97":2541023.3199999998,"ADDRESS":"新義南路４７號","OBJECTID":323647},"geometry":{"x":165573.24000000115,"y":2541023.3200000022}},{"attributes":{"ID":323657,"DIS_CODE":0,"TOWNNAME":"南區","LI":"彰南里","LIN":"17鄰","STREET":"新義南路","SECT":" ","MAREA":" ","LANE":" ","ALLEY":" ","HOUSE_NO":"４９號","E_COORD97":165548.20000000001,"N_COORD97":2540979.9500000002,"ADDRESS":"新義南路４９號","OBJECTID":323648},"geometry":{"x":165548.20000000019,"y":2540979.9500000011}},{"attributes":{"ID":323658,"DIS_CODE":0,"TOWNNAME":"永康區","LI":"甲頂里","LIN":"14鄰","STREET":"大武街","SECT":" ","MAREA":" ","LANE":" ","ALLEY":" ","HOUSE_NO":"４７號","E_COORD97":170328.89999999999,"N_COORD97":2546749.75,"ADDRESS":"大武街４７號","OBJECTID":323649},"geometry":{"x":170328.9000000013,"y":2546749.7500000019}},{"attributes":{"ID":323659,"DIS_CODE":0,"TOWNNAME":"永康區","LI":"東橋里","LIN":"25鄰","STREET":"中正路","SECT":" ","MAREA":" ","LANE":"２６９巷","ALLEY":" ","HOUSE_NO":"２１號","E_COORD97":172768.60000000001,"N_COORD97":2547905,"ADDRESS":"中正路２６９巷２１號","OBJECTID":323650},"geometry":{"x":172768.59999999963,"y":2547905}},{"attributes":{"ID":323660,"DIS_CODE":0,"TOWNNAME":"永康區","LI":"東灣里","LIN":"25鄰","STREET":"大灣二街","SECT":" ","MAREA":" ","LANE":"７１巷","ALLEY":" ","HOUSE_NO":"１號","E_COORD97":174830.10999999999,"N_COORD97":2544731.9100000001,"ADDRESS":"大灣二街７１巷１號","OBJECTID":323651},"geometry":{"x":174830.11000000034,"y":2544731.9100000001}},{"attributes":{"ID":323661,"DIS_CODE":0,"TOWNNAME":"永康區","LI":"王行里","LIN":"4鄰","STREET":"育樂街","SECT":" ","MAREA":" ","LANE":"１６７巷","ALLEY":" ","HOUSE_NO":"１號","E_COORD97":175011.10999999999,"N_COORD97":2548324.7999999998,"ADDRESS":"育樂街１６７巷１號","OBJECTID":323652},"geometry":{"x":175011.11000000127,"y":2548324.8000000007}},{"attributes":{"ID":323662,"DIS_CODE":0,"TOWNNAME":"佳里區","LI":"六安里","LIN":" ","STREET":" ","SECT":" ","MAREA":"六安","LANE":" ","ALLEY":" ","HOUSE_NO":"７１之１６號","E_COORD97":165965.51000000001,"N_COORD97":2563102.3199999998,"ADDRESS":"六安７１之１６號","OBJECTID":323653},"geometry":{"x":165965.51000000071,"y":2563102.3200000003}},{"attributes":{"ID":323663,"DIS_CODE":0,"TOWNNAME":"永康區","LI":"大灣里","LIN":"5鄰","STREET":"大民街","SECT":" ","MAREA":" ","LANE":"１２９巷","ALLEY":" ","HOUSE_NO":"６號","E_COORD97":174909,"N_COORD97":2545629.4700000002,"ADDRESS":"大民街１２９巷６號","OBJECTID":323654},"geometry":{"x":174909,"y":2545629.4700000025}},{"attributes":{"ID":323664,"DIS_CODE":0,"TOWNNAME":"麻豆區","LI":"小埤里","LIN":"5鄰","STREET":" ","SECT":" ","MAREA":"小埤頭","LANE":" ","ALLEY":" ","HOUSE_NO":"２８號之１","E_COORD97":171473.44,"N_COORD97":2566095.46,"ADDRESS":"小埤頭２８號之１","OBJECTID":323655},"geometry":{"x":171473.44000000041,"y":2566095.4600000009}},{"attributes":{"ID":323665,"DIS_CODE":0,"TOWNNAME":"永康區","LI":"東灣里","LIN":"18鄰","STREET":"大灣三街","SECT":" ","MAREA":" ","LANE":"２１巷","ALLEY":" ","HOUSE_NO":"３８號","E_COORD97":174996.73999999999,"N_COORD97":2544833.3999999999,"ADDRESS":"大灣三街２１巷３８號","OBJECTID":323656},"geometry":{"x":174996.74000000115,"y":2544833.4000000022}},{"attributes":{"ID":323666,"DIS_CODE":0,"TOWNNAME":"永康區","LI":"安康里","LIN":"20鄰","STREET":"中華西街","SECT":" ","MAREA":" ","LANE":"１２２巷","ALLEY":" ","HOUSE_NO":"６２號","E_COORD97":170862.07999999999,"N_COORD97":2546197.25,"ADDRESS":"中華西街１２２巷６２號","OBJECTID":323657},"geometry":{"x":170862.08000000007,"y":2546197.2500000019}},{"attributes":{"ID":323667,"DIS_CODE":0,"TOWNNAME":"永康區","LI":"崑山里","LIN":"26鄰","STREET":"大灣路","SECT":" ","MAREA":" ","LANE":"９４２巷","ALLEY":" ","HOUSE_NO":"１６９號","E_COORD97":173715.48999999999,"N_COORD97":2544782.25,"ADDRESS":"大灣路９４２巷１６９號","OBJECTID":323658},"geometry":{"x":173715.49000000022,"y":2544782.2500000037}},{"attributes":{"ID":323668,"DIS_CODE":0,"TOWNNAME":"七股區","LI":"樹林里","LIN":"2鄰","STREET":" ","SECT":" ","MAREA":"樹林","LANE":" ","ALLEY":" ","HOUSE_NO":"１０號之１","E_COORD97":163806.36632999999,"N_COORD97":2557167.4042099998,"ADDRESS":"樹林１０號之１","OBJECTID":323659},"geometry":{"x":163806.36633000057,"y":2557167.4042099994}},{"attributes":{"ID":323669,"DIS_CODE":0,"TOWNNAME":"永康區","LI":"正強里","LIN":"46鄰","STREET":"中正路","SECT":" ","MAREA":" ","LANE":"２５６巷","ALLEY":" ","HOUSE_NO":"９號之８","E_COORD97":173205.95999999999,"N_COORD97":2547991.8799999999,"ADDRESS":"中正路２５６巷９號之８","OBJECTID":323660},"geometry":{"x":173205.96000000183,"y":2547991.8800000008}},{"attributes":{"ID":323670,"DIS_CODE":0,"TOWNNAME":"永康區","LI":"埔園里","LIN":"32鄰","STREET":"龍埔街","SECT":" ","MAREA":" ","LANE":"２８３巷","ALLEY":" ","HOUSE_NO":"３號","E_COORD97":174045.57999999999,"N_COORD97":2548286,"ADDRESS":"龍埔街２８３巷３號","OBJECTID":323661},"geometry":{"x":174045.58000000007,"y":2548286.0000000037}},{"attributes":{"ID":323671,"DIS_CODE":0,"TOWNNAME":"新營區","LI":"嘉芳里","LIN":"15鄰","STREET":"復興路","SECT":" ","MAREA":" ","LANE":"１０７４巷","ALLEY":" ","HOUSE_NO":"１４號","E_COORD97":176137.20999999999,"N_COORD97":2578918.1800000002,"ADDRESS":"復興路１０７４巷１４號","OBJECTID":323662},"geometry":{"x":176137.21000000089,"y":2578918.1800000016}},{"attributes":{"ID":323672,"DIS_CODE":0,"TOWNNAME":"新營區","LI":"嘉芳里","LIN":"15鄰","STREET":"復興路","SECT":" ","MAREA":" ","LANE":"１１１２巷","ALLEY":" ","HOUSE_NO":"１５號","E_COORD97":176052.31,"N_COORD97":2578918.6000000001,"ADDRESS":"復興路１１１２巷１５號","OBJECTID":323663},"geometry":{"x":176052.30999999959,"y":2578918.6000000015}},{"attributes":{"ID":323673,"DIS_CODE":0,"TOWNNAME":"新營區","LI":"新南里","LIN":"15鄰","STREET":"民治路","SECT":" ","MAREA":" ","LANE":"３００巷","ALLEY":" ","HOUSE_NO":"２９號","E_COORD97":178737.41,"N_COORD97":2578512.2799999998,"ADDRESS":"民治路３００巷２９號","OBJECTID":323664},"geometry":{"x":178737.41000000015,"y":2578512.2800000012}},{"attributes":{"ID":323674,"DIS_CODE":0,"TOWNNAME":"新營區","LI":"南興里","LIN":"15鄰","STREET":"興農街","SECT":" ","MAREA":" ","LANE":"１４０巷","ALLEY":" ","HOUSE_NO":"７之４號","E_COORD97":179226.92000000001,"N_COORD97":2577524.3700000001,"ADDRESS":"興農街１４０巷７之４號","OBJECTID":323665},"geometry":{"x":179226.91999999993,"y":2577524.3700000029}},{"attributes":{"ID":323675,"DIS_CODE":0,"TOWNNAME":"新營區","LI":"忠政里","LIN":"15鄰","STREET":"府西路","SECT":" ","MAREA":" ","LANE":"２３０巷","ALLEY":" ","HOUSE_NO":"２６號","E_COORD97":179891.23999999999,"N_COORD97":2579599.8399999999,"ADDRESS":"府西路２３０巷２６號","OBJECTID":323666},"geometry":{"x":179891.24000000022,"y":2579599.8399999999}},{"attributes":{"ID":323676,"DIS_CODE":0,"TOWNNAME":"南區","LI":"彰南里","LIN":"17鄰","STREET":"新義南路","SECT":" ","MAREA":" ","LANE":" ","ALLEY":" ","HOUSE_NO":"５１號","E_COORD97":165513.14999999999,"N_COORD97":2540983.29,"ADDRESS":"新義南路５１號","OBJECTID":323667},"geometry":{"x":165513.15000000037,"y":2540983.2899999972}},{"attributes":{"ID":323677,"DIS_CODE":0,"TOWNNAME":"南區","LI":"彰南里","LIN":"17鄰","STREET":"新義南路","SECT":" ","MAREA":" ","LANE":" ","ALLEY":" ","HOUSE_NO":"５３號","E_COORD97":165494.78,"N_COORD97":2540973.2799999998,"ADDRESS":"新義南路５３號","OBJECTID":323668},"geometry":{"x":165494.78000000119,"y":2540973.2799999993}},{"attributes":{"ID":323678,"DIS_CODE":0,"TOWNNAME":"南區","LI":"彰南里","LIN":"17鄰","STREET":"新義南路","SECT":" ","MAREA":" ","LANE":" ","ALLEY":" ","HOUSE_NO":"５號","E_COORD97":166164.70999999999,"N_COORD97":2541028.3599999999,"ADDRESS":"新義南路５號","OBJECTID":323669},"geometry":{"x":166164.71000000089,"y":2541028.3600000013}},{"attributes":{"ID":323679,"DIS_CODE":0,"TOWNNAME":"南區","LI":"彰南里","LIN":"17鄰","STREET":"新義南路","SECT":" ","MAREA":" ","LANE":" ","ALLEY":" ","HOUSE_NO":"７號","E_COORD97":166122.51000000001,"N_COORD97":2541026.6000000001,"ADDRESS":"新義南路７號","OBJECTID":323670},"geometry":{"x":166122.50999999978,"y":2541026.6000000015}},{"attributes":{"ID":323680,"DIS_CODE":0,"TOWNNAME":"南區","LI":"文華里","LIN":"17鄰","STREET":"文南路","SECT":" ","MAREA":" ","LANE":" ","ALLEY":" ","HOUSE_NO":"３４１號","E_COORD97":166961.91,"N_COORD97":2543186.5099999998,"ADDRESS":"文南路３４１號","OBJECTID":323671},"geometry":{"x":166961.91000000108,"y":2543186.5100000035}},{"attributes":{"ID":323681,"DIS_CODE":0,"TOWNNAME":"南區","LI":"文華里","LIN":"17鄰","STREET":"文南路","SECT":" ","MAREA":" ","LANE":" ","ALLEY":" ","HOUSE_NO":"３４３號","E_COORD97":166962.17999999999,"N_COORD97":2543191.1699999999,"ADDRESS":"文南路３４３號","OBJECTID":323672},"geometry":{"x":166962.1799999997,"y":2543191.1699999999}},{"attributes":{"ID":323682,"DIS_CODE":0,"TOWNNAME":"南區","LI":"文華里","LIN":"17鄰","STREET":"文南路","SECT":" ","MAREA":" ","LANE":" ","ALLEY":" ","HOUSE_NO":"３４５號","E_COORD97":166962.17999999999,"N_COORD97":2543197.1099999999,"ADDRESS":"文南路３４５號","OBJECTID":323673},"geometry":{"x":166962.1799999997,"y":2543197.1100000013}},{"attributes":{"ID":323683,"DIS_CODE":0,"TOWNNAME":"南區","LI":"文華里","LIN":"17鄰","STREET":"文南路","SECT":" ","MAREA":" ","LANE":" ","ALLEY":" ","HOUSE_NO":"３４７號","E_COORD97":166962.54000000001,"N_COORD97":2543202.4900000002,"ADDRESS":"文南路３４７號","OBJECTID":323674},"geometry":{"x":166962.54000000097,"y":2543202.4900000002}},{"attributes":{"ID":323684,"DIS_CODE":0,"TOWNNAME":"南區","LI":"文華里","LIN":"17鄰","STREET":"南樂街","SECT":" ","MAREA":" ","LANE":" ","ALLEY":" ","HOUSE_NO":"３１號","E_COORD97":166802.32000000001,"N_COORD97":2543129.1899999999,"ADDRESS":"南樂街３１號","OBJECTID":323675},"geometry":{"x":166802.3200000003,"y":2543129.1899999995}},{"attributes":{"ID":323685,"DIS_CODE":0,"TOWNNAME":"南區","LI":"明興里","LIN":"17鄰","STREET":"中華南路","SECT":"二段","MAREA":" ","LANE":" ","ALLEY":" ","HOUSE_NO":"１５０號","E_COORD97":167101.48000000001,"N_COORD97":2540275.4300000002,"ADDRESS":"中華南路二段１５０號","OBJECTID":323676},"geometry":{"x":167101.48000000045,"y":2540275.4300000016}},{"attributes":{"ID":323686,"DIS_CODE":0,"TOWNNAME":"永康區","LI":"中興里","LIN":"25鄰","STREET":"中華路","SECT":" ","MAREA":" ","LANE":"２１６巷","ALLEY":" ","HOUSE_NO":"３號之１４","E_COORD97":171775.87,"N_COORD97":2545157.29,"ADDRESS":"中華路２１６巷３號之１４","OBJECTID":323677},"geometry":{"x":171775.87000000197,"y":2545157.2900000028}},{"attributes":{"ID":323687,"DIS_CODE":0,"TOWNNAME":"永康區","LI":"五王里","LIN":"18鄰","STREET":"成功路","SECT":" ","MAREA":" ","LANE":"１８８巷","ALLEY":" ","HOUSE_NO":"３３號","E_COORD97":171494.82000000001,"N_COORD97":2545720.3799999999,"ADDRESS":"成功路１８８巷３３號","OBJECTID":323678},"geometry":{"x":171494.8200000003,"y":2545720.3800000008}},{"attributes":{"ID":323688,"DIS_CODE":0,"TOWNNAME":"永康區","LI":"埔園里","LIN":"39鄰","STREET":"聖龍街","SECT":" ","MAREA":" ","LANE":"１７９巷","ALLEY":" ","HOUSE_NO":"１６號","E_COORD97":174338.72,"N_COORD97":2547873.4399999999,"ADDRESS":"聖龍街１７９巷１６號","OBJECTID":323679},"geometry":{"x":174338.72000000067,"y":2547873.4400000013}},{"attributes":{"ID":323689,"DIS_CODE":0,"TOWNNAME":"永康區","LI":"正強里","LIN":"38鄰","STREET":"正強街","SECT":" ","MAREA":" ","LANE":"３０５巷","ALLEY":" ","HOUSE_NO":"２７號","E_COORD97":173181.38,"N_COORD97":2548046.4199999999,"ADDRESS":"正強街３０５巷２７號","OBJECTID":323680},"geometry":{"x":173181.38000000082,"y":2548046.4200000018}},{"attributes":{"ID":323690,"DIS_CODE":0,"TOWNNAME":"永康區","LI":"崑山里","LIN":"20鄰","STREET":"崑山街","SECT":" ","MAREA":" ","LANE":"２１巷","ALLEY":" ","HOUSE_NO":"３３號","E_COORD97":173831.63,"N_COORD97":2544574.9199999999,"ADDRESS":"崑山街２１巷３３號","OBJECTID":323681},"geometry":{"x":173831.62999999989,"y":2544574.9200000018}},{"attributes":{"ID":323691,"DIS_CODE":0,"TOWNNAME":"永康區","LI":"復興里","LIN":"25鄰","STREET":"復興路","SECT":" ","MAREA":" ","LANE":"４２９巷","ALLEY":" ","HOUSE_NO":"８０號","E_COORD97":172262.67000000001,"N_COORD97":2543856.0899999999,"ADDRESS":"復興路４２９巷８０號","OBJECTID":323682},"geometry":{"x":172262.67000000086,"y":2543856.0899999999}},{"attributes":{"ID":323692,"DIS_CODE":0,"TOWNNAME":"永康區","LI":"北灣里","LIN":"39鄰","STREET":"大同街","SECT":" ","MAREA":" ","LANE":"７４０巷","ALLEY":" ","HOUSE_NO":"３０號","E_COORD97":174619.04000000001,"N_COORD97":2546640.9700000002,"ADDRESS":"大同街７４０巷３０號","OBJECTID":323683},"geometry":{"x":174619.04000000004,"y":2546640.9700000007}},{"attributes":{"ID":323693,"DIS_CODE":0,"TOWNNAME":"永康區","LI":"中興里","LIN":"13鄰","STREET":"中興街","SECT":" ","MAREA":" ","LANE":"５５巷","ALLEY":" ","HOUSE_NO":"４號","E_COORD97":172056.35000000001,"N_COORD97":2545250.0899999999,"ADDRESS":"中興街５５巷４號","OBJECTID":323684},"geometry":{"x":172056.34999999963,"y":2545250.0899999999}},{"attributes":{"ID":323694,"DIS_CODE":0,"TOWNNAME":"永康區","LI":"西勢里","LIN":"25鄰","STREET":"廣興街","SECT":" ","MAREA":" ","LANE":"２６巷","ALLEY":" ","HOUSE_NO":"２４號","E_COORD97":175924.01000000001,"N_COORD97":2546459.9900000002,"ADDRESS":"廣興街２６巷２４號","OBJECTID":323685},"geometry":{"x":175924.00999999978,"y":2546459.9900000021}},{"attributes":{"ID":323695,"DIS_CODE":0,"TOWNNAME":"永康區","LI":"龍潭里","LIN":"39鄰","STREET":"永明街","SECT":" ","MAREA":" ","LANE":"２７３巷","ALLEY":" ","HOUSE_NO":"３０號","E_COORD97":174670.91,"N_COORD97":2547291.0800000001,"ADDRESS":"永明街２７３巷３０號","OBJECTID":323686},"geometry":{"x":174670.91000000015,"y":2547291.0800000001}},{"attributes":{"ID":323696,"DIS_CODE":0,"TOWNNAME":"永康區","LI":"崑山里","LIN":"32鄰","STREET":"崑山街","SECT":" ","MAREA":" ","LANE":"１３６巷","ALLEY":" ","HOUSE_NO":"１７號","E_COORD97":174075.29999999999,"N_COORD97":2544834.8599999999,"ADDRESS":"崑山街１３６巷１７號","OBJECTID":323687},"geometry":{"x":174075.30000000075,"y":2544834.8600000031}},{"attributes":{"ID":323697,"DIS_CODE":0,"TOWNNAME":"永康區","LI":"永康里","LIN":"42鄰","STREET":"永福街","SECT":" ","MAREA":" ","LANE":" ","ALLEY":" ","HOUSE_NO":"１２５號","E_COORD97":174246.82000000001,"N_COORD97":2546717.75,"ADDRESS":"永福街１２５號","OBJECTID":323688},"geometry":{"x":174246.82000000123,"y":2546717.7499999981}},{"attributes":{"ID":323698,"DIS_CODE":0,"TOWNNAME":"永康區","LI":"網寮里","LIN":"20鄰","STREET":"文化路","SECT":" ","MAREA":" ","LANE":" ","ALLEY":" ","HOUSE_NO":"３１１號","E_COORD97":173452.67999999999,"N_COORD97":2546128.7599999998,"ADDRESS":"文化路３１１號","OBJECTID":323689},"geometry":{"x":173452.6799999997,"y":2546128.7600000016}},{"attributes":{"ID":323699,"DIS_CODE":0,"TOWNNAME":"永康區","LI":"北灣里","LIN":"25鄰","STREET":"大同街","SECT":" ","MAREA":" ","LANE":" ","ALLEY":" ","HOUSE_NO":"４７號","E_COORD97":175218.79999999999,"N_COORD97":2545413.75,"ADDRESS":"大同街４７號","OBJECTID":323690},"geometry":{"x":175218.79999999981,"y":2545413.7500000019}},{"attributes":{"ID":323700,"DIS_CODE":0,"TOWNNAME":"永康區","LI":"西灣里","LIN":"39鄰","STREET":"永華路","SECT":" ","MAREA":" ","LANE":" ","ALLEY":" ","HOUSE_NO":"２０４號","E_COORD97":174114.73999999999,"N_COORD97":2545461.79,"ADDRESS":"永華路２０４號","OBJECTID":323691},"geometry":{"x":174114.74000000115,"y":2545461.7899999991}},{"attributes":{"ID":323701,"DIS_CODE":0,"TOWNNAME":"永康區","LI":"勝利里","LIN":"41鄰","STREET":"中華路","SECT":" ","MAREA":" ","LANE":" ","ALLEY":" ","HOUSE_NO":"２１３號","E_COORD97":171600.31,"N_COORD97":2545044.0099999998,"ADDRESS":"中華路２１３號","OBJECTID":323692},"geometry":{"x":171600.30999999959,"y":2545044.0099999998}},{"attributes":{"ID":323702,"DIS_CODE":0,"TOWNNAME":"歸仁區","LI":"看西里","LIN":"23鄰","STREET":"成功五街","SECT":" ","MAREA":" ","LANE":"８８巷","ALLEY":" ","HOUSE_NO":"９５號","E_COORD97":178357.79702699999,"N_COORD97":2539832.6338900002,"ADDRESS":"成功五街８８巷９５號","OBJECTID":323693},"geometry":{"x":178357.79702700023,"y":2539832.633893}},{"attributes":{"ID":323703,"DIS_CODE":0,"TOWNNAME":"永康區","LI":"埔園里","LIN":"39鄰","STREET":"自強路","SECT":" ","MAREA":" ","LANE":" ","ALLEY":" ","HOUSE_NO":"５８６號","E_COORD97":174026.89999999999,"N_COORD97":2548156.0499999998,"ADDRESS":"自強路５８６號","OBJECTID":323694},"geometry":{"x":174026.90000000037,"y":2548156.0500000007}},{"attributes":{"ID":323704,"DIS_CODE":0,"TOWNNAME":"永康區","LI":"埔園里","LIN":"13鄰","STREET":"中山路","SECT":" ","MAREA":" ","LANE":" ","ALLEY":" ","HOUSE_NO":"２１９號","E_COORD97":173660.42000000001,"N_COORD97":2548121.7400000002,"ADDRESS":"中山路２１９號","OBJECTID":323695},"geometry":{"x":173660.42000000179,"y":2548121.7400000039}},{"attributes":{"ID":323705,"DIS_CODE":0,"TOWNNAME":"永康區","LI":"正強里","LIN":"26鄰","STREET":"中正路","SECT":" ","MAREA":" ","LANE":" ","ALLEY":" ","HOUSE_NO":"１７３號","E_COORD97":173227.38,"N_COORD97":2547896.6400000001,"ADDRESS":"中正路１７３號","OBJECTID":323696},"geometry":{"x":173227.38000000082,"y":2547896.6400000025}},{"attributes":{"ID":323706,"DIS_CODE":0,"TOWNNAME":"永康區","LI":"東灣里","LIN":"32鄰","STREET":"大灣一街","SECT":" ","MAREA":" ","LANE":" ","ALLEY":" ","HOUSE_NO":"３５６號","E_COORD97":175106.20000000001,"N_COORD97":2544766.29,"ADDRESS":"大灣一街３５６號","OBJECTID":323697},"geometry":{"x":175106.20000000019,"y":2544766.2899999991}},{"attributes":{"ID":323707,"DIS_CODE":0,"TOWNNAME":"安南區","LI":"頂安里","LIN":"17鄰","STREET":"北安三街","SECT":" ","MAREA":" ","LANE":" ","ALLEY":" ","HOUSE_NO":"１１號","E_COORD97":168359.32999999999,"N_COORD97":2548616.8100000001,"ADDRESS":"北安三街１１號","OBJECTID":323698},"geometry":{"x":168359.33000000101,"y":2548616.8100000042}},{"attributes":{"ID":323708,"DIS_CODE":0,"TOWNNAME":"安南區","LI":"安順里","LIN":"17鄰","STREET":"開安三街","SECT":" ","MAREA":" ","LANE":" ","ALLEY":" ","HOUSE_NO":"５０號","E_COORD97":170679.38,"N_COORD97":2549749.4700000002,"ADDRESS":"開安三街５０號","OBJECTID":323699},"geometry":{"x":170679.38000000082,"y":2549749.4700000025}},{"attributes":{"ID":323709,"DIS_CODE":0,"TOWNNAME":"安南區","LI":"大安里","LIN":"1鄰","STREET":"安通路","SECT":"五段","MAREA":" ","LANE":" ","ALLEY":" ","HOUSE_NO":"４９８號","E_COORD97":167112.13,"N_COORD97":2547861.4900000002,"ADDRESS":"安通路五段４９８號","OBJECTID":323700},"geometry":{"x":167112.13000000175,"y":2547861.4900000002}},{"attributes":{"ID":323710,"DIS_CODE":0,"TOWNNAME":"安南區","LI":"安西里","LIN":"18鄰","STREET":"安西二街","SECT":" ","MAREA":" ","LANE":" ","ALLEY":" ","HOUSE_NO":"４１號","E_COORD97":168758.553502,"N_COORD97":2548008.89011,"ADDRESS":"安西二街４１號","OBJECTID":323701},"geometry":{"x":168758.55350200087,"y":2548008.8901080005}},{"attributes":{"ID":323711,"DIS_CODE":0,"TOWNNAME":"安南區","LI":"安西里","LIN":"18鄰","STREET":"安西二街","SECT":" ","MAREA":" ","LANE":" ","ALLEY":" ","HOUSE_NO":"４３號","E_COORD97":168751.20999999999,"N_COORD97":2548007.4300000002,"ADDRESS":"安西二街４３號","OBJECTID":323702},"geometry":{"x":168751.21000000089,"y":2548007.4299999997}},{"attributes":{"ID":323712,"DIS_CODE":0,"TOWNNAME":"安南區","LI":"安西里","LIN":"18鄰","STREET":"安西二街","SECT":" ","MAREA":" ","LANE":" ","ALLEY":" ","HOUSE_NO":"４５號","E_COORD97":168745.44,"N_COORD97":2548007.04,"ADDRESS":"安西二街４５號","OBJECTID":323703},"geometry":{"x":168745.44000000134,"y":2548007.040000001}},{"attributes":{"ID":323713,"DIS_CODE":0,"TOWNNAME":"麻豆區","LI":"小埤里","LIN":"5鄰","STREET":" ","SECT":" ","MAREA":"小埤頭","LANE":" ","ALLEY":" ","HOUSE_NO":"２８號","E_COORD97":171477.20000000001,"N_COORD97":2566083.02,"ADDRESS":"小埤頭２８號","OBJECTID":323704},"geometry":{"x":171477.20000000205,"y":2566083.0200000014}},{"attributes":{"ID":323714,"DIS_CODE":0,"TOWNNAME":"安南區","LI":"佃東里","LIN":"6鄰","STREET":"安吉路","SECT":"三段","MAREA":" ","LANE":" ","ALLEY":" ","HOUSE_NO":"５６７號","E_COORD97":167498.66020099999,"N_COORD97":2553391.26474,"ADDRESS":"安吉路三段５６７號","OBJECTID":323705},"geometry":{"x":167498.66020100098,"y":2553391.2647430003}},{"attributes":{"ID":323715,"DIS_CODE":0,"TOWNNAME":"永康區","LI":"勝利里","LIN":"26鄰","STREET":"勝利街","SECT":" ","MAREA":" ","LANE":"７４巷","ALLEY":" ","HOUSE_NO":"２５號","E_COORD97":171449.04000000001,"N_COORD97":2544709,"ADDRESS":"勝利街７４巷２５號","OBJECTID":323706},"geometry":{"x":171449.04000000004,"y":2544709.0000000037}},{"attributes":{"ID":323716,"DIS_CODE":0,"TOWNNAME":"永康區","LI":"正強里","LIN":"18鄰","STREET":"自強路","SECT":" ","MAREA":" ","LANE":"１８８巷","ALLEY":" ","HOUSE_NO":"７２號","E_COORD97":173227.66,"N_COORD97":2547252.5,"ADDRESS":"自強路１８８巷７２號","OBJECTID":323707},"geometry":{"x":173227.66000000015,"y":2547252.5000000019}},{"attributes":{"ID":323717,"DIS_CODE":0,"TOWNNAME":"永康區","LI":"崑山里","LIN":"26鄰","STREET":"大灣路","SECT":" ","MAREA":" ","LANE":"９４２巷","ALLEY":" ","HOUSE_NO":"１２９號","E_COORD97":173689.17999999999,"N_COORD97":2544703.7400000002,"ADDRESS":"大灣路９４２巷１２９號","OBJECTID":323708},"geometry":{"x":173689.18000000063,"y":2544703.7400000002}},{"attributes":{"ID":323718,"DIS_CODE":0,"TOWNNAME":"永康區","LI":"正強里","LIN":"13鄰","STREET":"自強路","SECT":" ","MAREA":" ","LANE":"１８８巷","ALLEY":" ","HOUSE_NO":"１５之３號","E_COORD97":173217.23999999999,"N_COORD97":2547458.2999999998,"ADDRESS":"自強路１８８巷１５之３號","OBJECTID":323709},"geometry":{"x":173217.24000000022,"y":2547458.3000000026}},{"attributes":{"ID":323719,"DIS_CODE":0,"TOWNNAME":"永康區","LI":"正強里","LIN":"40鄰","STREET":"四維街","SECT":" ","MAREA":" ","LANE":"１８１巷","ALLEY":" ","HOUSE_NO":"２７號","E_COORD97":173211.07000000001,"N_COORD97":2548467.4900000002,"ADDRESS":"四維街１８１巷２７號","OBJECTID":323710},"geometry":{"x":173211.07000000123,"y":2548467.4900000021}},{"attributes":{"ID":323720,"DIS_CODE":0,"TOWNNAME":"永康區","LI":"復華里","LIN":"25鄰","STREET":"復華八街","SECT":" ","MAREA":" ","LANE":"４９巷","ALLEY":" ","HOUSE_NO":"２２號","E_COORD97":172747.73000000001,"N_COORD97":2546423.7799999998,"ADDRESS":"復華八街４９巷２２號","OBJECTID":323711},"geometry":{"x":172747.73000000045,"y":2546423.7799999993}},{"attributes":{"ID":323721,"DIS_CODE":0,"TOWNNAME":"新營區","LI":"民權里","LIN":"15鄰","STREET":"民權路","SECT":" ","MAREA":" ","LANE":"９４巷","ALLEY":" ","HOUSE_NO":"２０號","E_COORD97":179848.38,"N_COORD97":2578541.3199999998,"ADDRESS":"民權路９４巷２０號","OBJECTID":323712},"geometry":{"x":179848.38000000082,"y":2578541.3200000022}},{"attributes":{"ID":323722,"DIS_CODE":0,"TOWNNAME":"新營區","LI":"新北里","LIN":"15鄰","STREET":"南新街","SECT":" ","MAREA":" ","LANE":"１３巷","ALLEY":" ","HOUSE_NO":"８８號","E_COORD97":179234.04000000001,"N_COORD97":2578839.9300000002,"ADDRESS":"南新街１３巷８８號","OBJECTID":323713},"geometry":{"x":179234.04000000097,"y":2578839.9299999997}},{"attributes":{"ID":323723,"DIS_CODE":0,"TOWNNAME":"北區","LI":"小康里","LIN":"15鄰","STREET":"大武街","SECT":" ","MAREA":" ","LANE":"３８１巷","ALLEY":" ","HOUSE_NO":"１號","E_COORD97":169795.79000000001,"N_COORD97":2546439.8300000001,"ADDRESS":"大武街３８１巷１號","OBJECTID":323714},"geometry":{"x":169795.79000000004,"y":2546439.8300000019}},{"attributes":{"ID":323724,"DIS_CODE":0,"TOWNNAME":"北區","LI":"小康里","LIN":"15鄰","STREET":"大武街","SECT":" ","MAREA":" ","LANE":"３８１巷","ALLEY":" ","HOUSE_NO":"２號","E_COORD97":169778.76999999999,"N_COORD97":2546443.8900000001,"ADDRESS":"大武街３８１巷２號","OBJECTID":323715},"geometry":{"x":169778.76999999955,"y":2546443.8900000025}},{"attributes":{"ID":323725,"DIS_CODE":0,"TOWNNAME":"北區","LI":"小康里","LIN":"15鄰","STREET":"大武街","SECT":" ","MAREA":" ","LANE":"３８１巷","ALLEY":" ","HOUSE_NO":"３號","E_COORD97":169793.53,"N_COORD97":2546434.4500000002,"ADDRESS":"大武街３８１巷３號","OBJECTID":323716},"geometry":{"x":169793.53000000119,"y":2546434.450000003}},{"attributes":{"ID":323726,"DIS_CODE":0,"TOWNNAME":"北區","LI":"小康里","LIN":"15鄰","STREET":"大武街","SECT":" ","MAREA":" ","LANE":"３８１巷","ALLEY":" ","HOUSE_NO":"４號","E_COORD97":169776.84,"N_COORD97":2546439.2999999998,"ADDRESS":"大武街３８１巷４號","OBJECTID":323717},"geometry":{"x":169776.83999999985,"y":2546439.3000000007}},{"attributes":{"ID":323727,"DIS_CODE":0,"TOWNNAME":"北區","LI":"小康里","LIN":"15鄰","STREET":"大武街","SECT":" ","MAREA":" ","LANE":"３８１巷","ALLEY":" ","HOUSE_NO":"６號","E_COORD97":169775.98000000001,"N_COORD97":2546435.3100000001,"ADDRESS":"大武街３８１巷６號","OBJECTID":323718},"geometry":{"x":169775.98000000138,"y":2546435.3100000005}},{"attributes":{"ID":323728,"DIS_CODE":0,"TOWNNAME":"北區","LI":"小康里","LIN":"15鄰","STREET":"大武街","SECT":" ","MAREA":" ","LANE":"３８１巷","ALLEY":" ","HOUSE_NO":"８號","E_COORD97":169775.51000000001,"N_COORD97":2546430.25,"ADDRESS":"大武街３８１巷８號","OBJECTID":323719},"geometry":{"x":169775.50999999978,"y":2546430.2500000019}},{"attributes":{"ID":323729,"DIS_CODE":0,"TOWNNAME":"南區","LI":"新興里","LIN":"15鄰","STREET":"三官路","SECT":" ","MAREA":" ","LANE":"７巷","ALLEY":" ","HOUSE_NO":"１０號","E_COORD97":167375.92000000001,"N_COORD97":2542398.7799999998,"ADDRESS":"三官路７巷１０號","OBJECTID":323720},"geometry":{"x":167375.91999999993,"y":2542398.7800000012}},{"attributes":{"ID":323730,"DIS_CODE":0,"TOWNNAME":"南區","LI":"新興里","LIN":"15鄰","STREET":"三官路","SECT":" ","MAREA":" ","LANE":"７巷","ALLEY":" ","HOUSE_NO":"１１號","E_COORD97":167394.26000000001,"N_COORD97":2542419.3599999999,"ADDRESS":"三官路７巷１１號","OBJECTID":323721},"geometry":{"x":167394.26000000164,"y":2542419.3599999994}},{"attributes":{"ID":323731,"DIS_CODE":0,"TOWNNAME":"南區","LI":"同安里","LIN":"17鄰","STREET":"明興路","SECT":" ","MAREA":" ","LANE":" ","ALLEY":" ","HOUSE_NO":"１４２９號","E_COORD97":166356.62,"N_COORD97":2535757.0899999999,"ADDRESS":"明興路１４２９號","OBJECTID":323722},"geometry":{"x":166356.62000000104,"y":2535757.0899999999}},{"attributes":{"ID":323732,"DIS_CODE":0,"TOWNNAME":"新市區","LI":"社內里","LIN":"18鄰","STREET":" ","SECT":" ","MAREA":"社內","LANE":" ","ALLEY":" ","HOUSE_NO":"１８５號","E_COORD97":176070.610965,"N_COORD97":2553248.7114400002,"ADDRESS":"社內１８５號","OBJECTID":323723},"geometry":{"x":176070.61096500047,"y":2553248.7114420012}},{"attributes":{"ID":323733,"DIS_CODE":0,"TOWNNAME":"南區","LI":"同安里","LIN":"17鄰","STREET":"明興路","SECT":" ","MAREA":" ","LANE":" ","ALLEY":" ","HOUSE_NO":"１４３１號","E_COORD97":166356.19,"N_COORD97":2535752.8500000001,"ADDRESS":"明興路１４３１號","OBJECTID":323724},"geometry":{"x":166356.19000000227,"y":2535752.8500000015}},{"attributes":{"ID":323734,"DIS_CODE":0,"TOWNNAME":"南區","LI":"同安里","LIN":"17鄰","STREET":"明興路","SECT":" ","MAREA":" ","LANE":" ","ALLEY":" ","HOUSE_NO":"１４３３號","E_COORD97":166355.23999999999,"N_COORD97":2535748.79,"ADDRESS":"明興路１４３３號","OBJECTID":323725},"geometry":{"x":166355.24000000022,"y":2535748.7900000028}},{"attributes":{"ID":323735,"DIS_CODE":0,"TOWNNAME":"南區","LI":"同安里","LIN":"17鄰","STREET":"明興路","SECT":" ","MAREA":" ","LANE":" ","ALLEY":" ","HOUSE_NO":"１４３５號","E_COORD97":166355.41,"N_COORD97":2535745.4199999999,"ADDRESS":"明興路１４３５號","OBJECTID":323726},"geometry":{"x":166355.41000000015,"y":2535745.4200000037}},{"attributes":{"ID":323736,"DIS_CODE":0,"TOWNNAME":"歸仁區","LI":"看西里","LIN":"17鄰","STREET":"成功五街","SECT":" ","MAREA":" ","LANE":" ","ALLEY":" ","HOUSE_NO":"３８號","E_COORD97":178325.95999999999,"N_COORD97":2539896.3599999999,"ADDRESS":"成功五街３８號","OBJECTID":323727},"geometry":{"x":178325.96000000089,"y":2539896.3600000013}},{"attributes":{"ID":323737,"DIS_CODE":0,"TOWNNAME":"歸仁區","LI":"崙頂里","LIN":"17鄰","STREET":"大成路","SECT":" ","MAREA":" ","LANE":" ","ALLEY":" ","HOUSE_NO":"２９３號","E_COORD97":177953.73000000001,"N_COORD97":2540116.25,"ADDRESS":"大成路２９３號","OBJECTID":323728},"geometry":{"x":177953.73000000045,"y":2540116.25}},{"attributes":{"ID":323738,"DIS_CODE":0,"TOWNNAME":"七股區","LI":"樹林里","LIN":"15鄰","STREET":" ","SECT":" ","MAREA":"樹林","LANE":" ","ALLEY":" ","HOUSE_NO":"１３１號","E_COORD97":163053.20407899999,"N_COORD97":2557595.7491000001,"ADDRESS":"樹林１３１號","OBJECTID":323729},"geometry":{"x":163053.20407900214,"y":2557595.749098001}},{"attributes":{"ID":323739,"DIS_CODE":0,"TOWNNAME":"歸仁區","LI":"看西里","LIN":"17鄰","STREET":"成功路","SECT":"一段","MAREA":" ","LANE":" ","ALLEY":" ","HOUSE_NO":"２６１號","E_COORD97":178333.16,"N_COORD97":2540007.3700000001,"ADDRESS":"成功路一段２６１號","OBJECTID":323730},"geometry":{"x":178333.16000000108,"y":2540007.370000001}},{"attributes":{"ID":323740,"DIS_CODE":0,"TOWNNAME":"永康區","LI":"東灣里","LIN":"25鄰","STREET":"大灣二街","SECT":" ","MAREA":" ","LANE":"７１巷","ALLEY":" ","HOUSE_NO":"４１號","E_COORD97":174804.19,"N_COORD97":2544660.0699999998,"ADDRESS":"大灣二街７１巷４１號","OBJECTID":323731},"geometry":{"x":174804.19000000134,"y":2544660.0700000003}},{"attributes":{"ID":323741,"DIS_CODE":0,"TOWNNAME":"永康區","LI":"北灣里","LIN":"39鄰","STREET":"大同街","SECT":" ","MAREA":" ","LANE":"６３６巷","ALLEY":" ","HOUSE_NO":"１３號","E_COORD97":174649.26000000001,"N_COORD97":2546375.02,"ADDRESS":"大同街６３６巷１３號","OBJECTID":323732},"geometry":{"x":174649.25999999978,"y":2546375.0199999996}},{"attributes":{"ID":323742,"DIS_CODE":0,"TOWNNAME":"永康區","LI":"崑山里","LIN":"4鄰","STREET":"永大路","SECT":"一段","MAREA":" ","LANE":"２８７巷","ALLEY":" ","HOUSE_NO":"６９號","E_COORD97":173758.84,"N_COORD97":2544335.02,"ADDRESS":"永大路一段２８７巷６９號","OBJECTID":323733},"geometry":{"x":173758.83999999985,"y":2544335.0199999996}},{"attributes":{"ID":323743,"DIS_CODE":0,"TOWNNAME":"麻豆區","LI":"小埤里","LIN":"5鄰","STREET":" ","SECT":" ","MAREA":"小埤頭","LANE":" ","ALLEY":" ","HOUSE_NO":"３０號之３","E_COORD97":171531.54000000001,"N_COORD97":2566061,"ADDRESS":"小埤頭３０號之３","OBJECTID":323734},"geometry":{"x":171531.54000000004,"y":2566061}},{"attributes":{"ID":323744,"DIS_CODE":0,"TOWNNAME":"永康區","LI":"烏竹里","LIN":"5鄰","STREET":"龍橋街","SECT":" ","MAREA":" ","LANE":"４８６巷","ALLEY":" ","HOUSE_NO":"３０號","E_COORD97":174474.98999999999,"N_COORD97":2549353.8599999999,"ADDRESS":"龍橋街４８６巷３０號","OBJECTID":323735},"geometry":{"x":174474.99000000022,"y":2549353.8599999994}},{"attributes":{"ID":323745,"DIS_CODE":0,"TOWNNAME":"永康區","LI":"中興里","LIN":"5鄰","STREET":"中華路","SECT":" ","MAREA":" ","LANE":"２１４巷","ALLEY":" ","HOUSE_NO":"３９號","E_COORD97":171798.79000000001,"N_COORD97":2545069.3799999999,"ADDRESS":"中華路２１４巷３９號","OBJECTID":323736},"geometry":{"x":171798.79000000097,"y":2545069.3800000008}},{"attributes":{"ID":323746,"DIS_CODE":0,"TOWNNAME":"佳里區","LI":"安西里","LIN":" ","STREET":" ","SECT":" ","MAREA":"安西","LANE":" ","ALLEY":" ","HOUSE_NO":"８０號","E_COORD97":165032.82000000001,"N_COORD97":2562701.46,"ADDRESS":"安西８０號","OBJECTID":323737},"geometry":{"x":165032.8200000003,"y":2562701.4600000009}},{"attributes":{"ID":323747,"DIS_CODE":0,"TOWNNAME":"永康區","LI":"正強里","LIN":"38鄰","STREET":"正強街","SECT":" ","MAREA":" ","LANE":"３０７巷","ALLEY":" ","HOUSE_NO":"３３號","E_COORD97":173170.78,"N_COORD97":2548094.3799999999,"ADDRESS":"正強街３０７巷３３號","OBJECTID":323738},"geometry":{"x":173170.78000000119,"y":2548094.379999999}},{"attributes":{"ID":323748,"DIS_CODE":0,"TOWNNAME":"永康區","LI":"崑山里","LIN":"25鄰","STREET":"大仁街","SECT":" ","MAREA":" ","LANE":"７１巷","ALLEY":" ","HOUSE_NO":"１８號","E_COORD97":173754.44,"N_COORD97":2544728.5299999998,"ADDRESS":"大仁街７１巷１８號","OBJECTID":323739},"geometry":{"x":173754.44000000134,"y":2544728.5300000031}},{"attributes":{"ID":323749,"DIS_CODE":0,"TOWNNAME":"永康區","LI":"北灣里","LIN":"39鄰","STREET":"永大路","SECT":"二段","MAREA":" ","LANE":"９８６巷","ALLEY":" ","HOUSE_NO":"８號","E_COORD97":174518.16,"N_COORD97":2546349.3500000001,"ADDRESS":"永大路二段９８６巷８號","OBJECTID":323740},"geometry":{"x":174518.16000000015,"y":2546349.3499999996}},{"attributes":{"ID":323750,"DIS_CODE":0,"TOWNNAME":"永康區","LI":"南灣里","LIN":"40鄰","STREET":"南灣街","SECT":" ","MAREA":" ","LANE":"１３８巷","ALLEY":" ","HOUSE_NO":"１９號","E_COORD97":174338.01000000001,"N_COORD97":2545094.8700000001,"ADDRESS":"南灣街１３８巷１９號","OBJECTID":323741},"geometry":{"x":174338.01000000071,"y":2545094.8700000029}},{"attributes":{"ID":323751,"DIS_CODE":0,"TOWNNAME":"永康區","LI":"三民里","LIN":"4鄰","STREET":"三民街","SECT":" ","MAREA":" ","LANE":"１１２巷","ALLEY":" ","HOUSE_NO":"２８號","E_COORD97":172944.67999999999,"N_COORD97":2550359.29,"ADDRESS":"三民街１１２巷２８號","OBJECTID":323742},"geometry":{"x":172944.68000000156,"y":2550359.290000001}},{"attributes":{"ID":323752,"DIS_CODE":0,"TOWNNAME":"永康區","LI":"正強里","LIN":"38鄰","STREET":"正強街","SECT":" ","MAREA":" ","LANE":"３０５巷","ALLEY":" ","HOUSE_NO":"２號","E_COORD97":173248.60000000001,"N_COORD97":2548084.2400000002,"ADDRESS":"正強街３０５巷２號","OBJECTID":323743},"geometry":{"x":173248.60000000149,"y":2548084.2400000002}},{"attributes":{"ID":323753,"DIS_CODE":0,"TOWNNAME":"歸仁區","LI":"崙頂里","LIN":"17鄰","STREET":"大成路","SECT":" ","MAREA":" ","LANE":" ","ALLEY":" ","HOUSE_NO":"２４９號","E_COORD97":177863.79999999999,"N_COORD97":2540095.96,"ADDRESS":"大成路２４９號","OBJECTID":323744},"geometry":{"x":177863.80000000075,"y":2540095.9600000046}},{"attributes":{"ID":323754,"DIS_CODE":0,"TOWNNAME":"歸仁區","LI":"許厝里","LIN":"17鄰","STREET":"忠孝北路","SECT":" ","MAREA":" ","LANE":" ","ALLEY":" ","HOUSE_NO":"２３號","E_COORD97":178443.72,"N_COORD97":2540724.25,"ADDRESS":"忠孝北路２３號","OBJECTID":323745},"geometry":{"x":178443.7200000016,"y":2540724.2500000019}},{"attributes":{"ID":323755,"DIS_CODE":0,"TOWNNAME":"歸仁區","LI":"崙頂里","LIN":"17鄰","STREET":"大成路","SECT":" ","MAREA":" ","LANE":" ","ALLEY":" ","HOUSE_NO":"２９１號","E_COORD97":177949.63,"N_COORD97":2540115.25,"ADDRESS":"大成路２９１號","OBJECTID":323746},"geometry":{"x":177949.63000000082,"y":2540115.25}},{"attributes":{"ID":323756,"DIS_CODE":0,"TOWNNAME":"歸仁區","LI":"南保里","LIN":"17鄰","STREET":"文化十街","SECT":" ","MAREA":" ","LANE":" ","ALLEY":" ","HOUSE_NO":"５８號","E_COORD97":176607.22,"N_COORD97":2541363.2599999998,"ADDRESS":"文化十街５８號","OBJECTID":323747},"geometry":{"x":176607.21999999974,"y":2541363.2599999998}},{"attributes":{"ID":323757,"DIS_CODE":0,"TOWNNAME":"歸仁區","LI":"後市里","LIN":"17鄰","STREET":"中山路","SECT":"二段","MAREA":" ","LANE":" ","ALLEY":" ","HOUSE_NO":"１６９號","E_COORD97":177246.19,"N_COORD97":2540809.5499999998,"ADDRESS":"中山路二段１６９號","OBJECTID":323748},"geometry":{"x":177246.19000000227,"y":2540809.5500000007}},{"attributes":{"ID":323758,"DIS_CODE":0,"TOWNNAME":"歸仁區","LI":"南興里","LIN":"17鄰","STREET":"南興街","SECT":" ","MAREA":" ","LANE":" ","ALLEY":" ","HOUSE_NO":"２０１號","E_COORD97":175707.69,"N_COORD97":2541385.25,"ADDRESS":"南興街２０１號","OBJECTID":323749},"geometry":{"x":175707.69000000134,"y":2541385.2500000019}},{"attributes":{"ID":323759,"DIS_CODE":0,"TOWNNAME":"歸仁區","LI":"南興里","LIN":"17鄰","STREET":"南興街","SECT":" ","MAREA":" ","LANE":" ","ALLEY":" ","HOUSE_NO":"１８９號","E_COORD97":175732.29000000001,"N_COORD97":2541386.25,"ADDRESS":"南興街１８９號","OBJECTID":323750},"geometry":{"x":175732.29000000004,"y":2541386.2500000019}},{"attributes":{"ID":323760,"DIS_CODE":0,"TOWNNAME":"歸仁區","LI":"南興里","LIN":"17鄰","STREET":"南興街","SECT":" ","MAREA":" ","LANE":" ","ALLEY":" ","HOUSE_NO":"１７５號之１","E_COORD97":175780.62,"N_COORD97":2541382.2999999998,"ADDRESS":"南興街１７５號之１","OBJECTID":323751},"geometry":{"x":175780.62000000104,"y":2541382.3000000026}},{"attributes":{"ID":323761,"DIS_CODE":0,"TOWNNAME":"歸仁區","LI":"南興里","LIN":"17鄰","STREET":"南興街","SECT":" ","MAREA":" ","LANE":" ","ALLEY":" ","HOUSE_NO":"１９３號","E_COORD97":175724.09,"N_COORD97":2541385.25,"ADDRESS":"南興街１９３號","OBJECTID":323752},"geometry":{"x":175724.09000000078,"y":2541385.2500000019}},{"attributes":{"ID":323762,"DIS_CODE":0,"TOWNNAME":"歸仁區","LI":"南興里","LIN":"17鄰","STREET":"南興街","SECT":" ","MAREA":" ","LANE":" ","ALLEY":" ","HOUSE_NO":"１９５號","E_COORD97":175719.98999999999,"N_COORD97":2541385.25,"ADDRESS":"南興街１９５號","OBJECTID":323753},"geometry":{"x":175719.99000000209,"y":2541385.2500000019}},{"attributes":{"ID":323763,"DIS_CODE":0,"TOWNNAME":"歸仁區","LI":"六甲里","LIN":"17鄰","STREET":"六甲路","SECT":" ","MAREA":" ","LANE":" ","ALLEY":" ","HOUSE_NO":"３３５號","E_COORD97":175697.482265,"N_COORD97":2539218.2714999998,"ADDRESS":"六甲路３３５號","OBJECTID":323754},"geometry":{"x":175697.48226500023,"y":2539218.2714980002}},{"attributes":{"ID":323764,"DIS_CODE":0,"TOWNNAME":"歸仁區","LI":"南興里","LIN":"17鄰","STREET":"南興街","SECT":" ","MAREA":" ","LANE":" ","ALLEY":" ","HOUSE_NO":"１７７號","E_COORD97":175746.59,"N_COORD97":2541371.25,"ADDRESS":"南興街１７７號","OBJECTID":323755},"geometry":{"x":175746.59000000078,"y":2541371.2500000037}},{"attributes":{"ID":323765,"DIS_CODE":0,"TOWNNAME":"永康區","LI":"建國里","LIN":"32鄰","STREET":"復興路","SECT":" ","MAREA":" ","LANE":"１巷","ALLEY":" ","HOUSE_NO":"２８號","E_COORD97":173145.16,"N_COORD97":2544136.3199999998,"ADDRESS":"復興路１巷２８號","OBJECTID":323756},"geometry":{"x":173145.16000000015,"y":2544136.3200000003}},{"attributes":{"ID":323766,"DIS_CODE":0,"TOWNNAME":"永康區","LI":"建國里","LIN":"25鄰","STREET":" ","SECT":" ","MAREA":"慈光九村","LANE":" ","ALLEY":" ","HOUSE_NO":"５號","E_COORD97":172832.79000000001,"N_COORD97":2544273,"ADDRESS":"慈光九村５號","OBJECTID":323757},"geometry":{"x":172832.79000000097,"y":2544273.0000000019}},{"attributes":{"ID":323767,"DIS_CODE":0,"TOWNNAME":"永康區","LI":"復華里","LIN":"39鄰","STREET":"復華七街","SECT":" ","MAREA":" ","LANE":"３２巷","ALLEY":" ","HOUSE_NO":"１５號","E_COORD97":172697.28,"N_COORD97":2545934.5299999998,"ADDRESS":"復華七街３２巷１５號","OBJECTID":323758},"geometry":{"x":172697.28000000212,"y":2545934.5299999993}},{"attributes":{"ID":323768,"DIS_CODE":0,"TOWNNAME":"永康區","LI":"大橋里","LIN":"5鄰","STREET":"大橋一街","SECT":" ","MAREA":" ","LANE":"１０３巷","ALLEY":" ","HOUSE_NO":"２０６號","E_COORD97":170784.10000000001,"N_COORD97":2546804.2400000002,"ADDRESS":"大橋一街１０３巷２０６號","OBJECTID":323759},"geometry":{"x":170784.10000000056,"y":2546804.2400000021}},{"attributes":{"ID":323769,"DIS_CODE":0,"TOWNNAME":"永康區","LI":"東灣里","LIN":"26鄰","STREET":"大灣一街","SECT":" ","MAREA":" ","LANE":"２４２巷","ALLEY":" ","HOUSE_NO":"１０號","E_COORD97":174931.94,"N_COORD97":2544589.3399999999,"ADDRESS":"大灣一街２４２巷１０號","OBJECTID":323760},"geometry":{"x":174931.94000000041,"y":2544589.3400000017}},{"attributes":{"ID":323770,"DIS_CODE":0,"TOWNNAME":"永康區","LI":"東橋里","LIN":"4鄰","STREET":"大橋一街","SECT":" ","MAREA":" ","LANE":"３２４巷","ALLEY":" ","HOUSE_NO":"５５號","E_COORD97":171393.76999999999,"N_COORD97":2546568.0299999998,"ADDRESS":"大橋一街３２４巷５５號","OBJECTID":323761},"geometry":{"x":171393.76999999955,"y":2546568.0299999993}},{"attributes":{"ID":323771,"DIS_CODE":0,"TOWNNAME":"永康區","LI":"東橋里","LIN":"5鄰","STREET":"大橋一街","SECT":" ","MAREA":" ","LANE":"３２４巷","ALLEY":" ","HOUSE_NO":"８８號","E_COORD97":171452.48000000001,"N_COORD97":2546430.4900000002,"ADDRESS":"大橋一街３２４巷８８號","OBJECTID":323762},"geometry":{"x":171452.48000000138,"y":2546430.4900000002}},{"attributes":{"ID":323772,"DIS_CODE":0,"TOWNNAME":"新市區","LI":"社內里","LIN":"13鄰","STREET":" ","SECT":" ","MAREA":"社內","LANE":" ","ALLEY":" ","HOUSE_NO":"１３９之１２０號","E_COORD97":176058.217083,"N_COORD97":2552609.2667899998,"ADDRESS":"社內１３９之１２０號","OBJECTID":323763},"geometry":{"x":176058.21708300058,"y":2552609.2667870019}},{"attributes":{"ID":323773,"DIS_CODE":0,"TOWNNAME":"永康區","LI":"正強里","LIN":"4鄰","STREET":"正義街","SECT":" ","MAREA":" ","LANE":"２２巷","ALLEY":" ","HOUSE_NO":"７號","E_COORD97":173578.51999999999,"N_COORD97":2547725.7599999998,"ADDRESS":"正義街２２巷７號","OBJECTID":323764},"geometry":{"x":173578.52000000048,"y":2547725.7600000016}},{"attributes":{"ID":323774,"DIS_CODE":0,"TOWNNAME":"南區","LI":"新興里","LIN":"15鄰","STREET":"三官路","SECT":" ","MAREA":" ","LANE":"７巷","ALLEY":" ","HOUSE_NO":"１２號","E_COORD97":167381.04000000001,"N_COORD97":2542398.8900000001,"ADDRESS":"三官路７巷１２號","OBJECTID":323765},"geometry":{"x":167381.04000000097,"y":2542398.8900000025}},{"attributes":{"ID":323775,"DIS_CODE":0,"TOWNNAME":"南區","LI":"新興里","LIN":"15鄰","STREET":"三官路","SECT":" ","MAREA":" ","LANE":"７巷","ALLEY":" ","HOUSE_NO":"１３號","E_COORD97":167398.14999999999,"N_COORD97":2542418.9199999999,"ADDRESS":"三官路７巷１３號","OBJECTID":323766},"geometry":{"x":167398.15000000037,"y":2542418.9200000018}},{"attributes":{"ID":323776,"DIS_CODE":0,"TOWNNAME":"南區","LI":"新興里","LIN":"15鄰","STREET":"三官路","SECT":" ","MAREA":" ","LANE":"７巷","ALLEY":" ","HOUSE_NO":"１４號","E_COORD97":167385.04000000001,"N_COORD97":2542398.4399999999,"ADDRESS":"三官路７巷１４號","OBJECTID":323767},"geometry":{"x":167385.04000000004,"y":2542398.4399999995}},{"attributes":{"ID":323777,"DIS_CODE":0,"TOWNNAME":"南區","LI":"新興里","LIN":"15鄰","STREET":"三官路","SECT":" ","MAREA":" ","LANE":"７巷","ALLEY":" ","HOUSE_NO":"１５號","E_COORD97":167403.70999999999,"N_COORD97":2542419.9199999999,"ADDRESS":"三官路７巷１５號","OBJECTID":323768},"geometry":{"x":167403.71000000089,"y":2542419.9199999999}},{"attributes":{"ID":323778,"DIS_CODE":0,"TOWNNAME":"南區","LI":"新興里","LIN":"15鄰","STREET":"三官路","SECT":" ","MAREA":" ","LANE":"７巷","ALLEY":" ","HOUSE_NO":"１６號","E_COORD97":167388.92999999999,"N_COORD97":2542398.2200000002,"ADDRESS":"三官路７巷１６號","OBJECTID":323769},"geometry":{"x":167388.9299999997,"y":2542398.2200000007}},{"attributes":{"ID":323779,"DIS_CODE":0,"TOWNNAME":"歸仁區","LI":"六甲里","LIN":"17鄰","STREET":"六甲路","SECT":" ","MAREA":" ","LANE":" ","ALLEY":" ","HOUSE_NO":"３３９號","E_COORD97":175685.405822,"N_COORD97":2539219.6473300001,"ADDRESS":"六甲路３３９號","OBJECTID":323770},"geometry":{"x":175685.40582200047,"y":2539219.6473309994}},{"attributes":{"ID":323780,"DIS_CODE":0,"TOWNNAME":"歸仁區","LI":"文化里","LIN":"17鄰","STREET":"文化北街","SECT":" ","MAREA":" ","LANE":" ","ALLEY":" ","HOUSE_NO":"１１０號","E_COORD97":177193.91,"N_COORD97":2541415.3399999999,"ADDRESS":"文化北街１１０號","OBJECTID":323771},"geometry":{"x":177193.91000000108,"y":2541415.3400000017}},{"attributes":{"ID":323781,"DIS_CODE":0,"TOWNNAME":"歸仁區","LI":"六甲里","LIN":"17鄰","STREET":"中正二十街","SECT":" ","MAREA":" ","LANE":" ","ALLEY":" ","HOUSE_NO":"１０２號","E_COORD97":175699.600939,"N_COORD97":2539122.06905,"ADDRESS":"中正二十街１０２號","OBJECTID":323772},"geometry":{"x":175699.60093900003,"y":2539122.069050001}},{"attributes":{"ID":323782,"DIS_CODE":0,"TOWNNAME":"歸仁區","LI":"文化里","LIN":"17鄰","STREET":"文化北街","SECT":" ","MAREA":" ","LANE":" ","ALLEY":" ","HOUSE_NO":"１０２號","E_COORD97":177209.31,"N_COORD97":2541415.3399999999,"ADDRESS":"文化北街１０２號","OBJECTID":323773},"geometry":{"x":177209.31000000052,"y":2541415.3400000017}},{"attributes":{"ID":323783,"DIS_CODE":0,"TOWNNAME":"歸仁區","LI":"六甲里","LIN":"17鄰","STREET":"中正二十街","SECT":" ","MAREA":" ","LANE":" ","ALLEY":" ","HOUSE_NO":"１１３號","E_COORD97":175710.26000000001,"N_COORD97":2539111.25,"ADDRESS":"中正二十街１１３號","OBJECTID":323774},"geometry":{"x":175710.25999999978,"y":2539111.2500000019}},{"attributes":{"ID":323784,"DIS_CODE":0,"TOWNNAME":"歸仁區","LI":"南保里","LIN":"17鄰","STREET":"文化十街","SECT":" ","MAREA":" ","LANE":" ","ALLEY":" ","HOUSE_NO":"５４號","E_COORD97":176605.94,"N_COORD97":2541365.3300000001,"ADDRESS":"文化十街５４號","OBJECTID":323775},"geometry":{"x":176605.94000000134,"y":2541365.3300000019}},{"attributes":{"ID":323785,"DIS_CODE":0,"TOWNNAME":"玉井區","LI":"玉井里","LIN":"17鄰","STREET":"民主街","SECT":" ","MAREA":" ","LANE":" ","ALLEY":" ","HOUSE_NO":"３２號","E_COORD97":194874.32999999999,"N_COORD97":2558039.29,"ADDRESS":"民主街３２號","OBJECTID":323776},"geometry":{"x":194874.33000000007,"y":2558039.2899999991}},{"attributes":{"ID":323786,"DIS_CODE":0,"TOWNNAME":"歸仁區","LI":"歸南里","LIN":"17鄰","STREET":"民生南街","SECT":"二段","MAREA":" ","LANE":" ","ALLEY":" ","HOUSE_NO":"８６號","E_COORD97":176199.91,"N_COORD97":2540375.25,"ADDRESS":"民生南街二段８６號","OBJECTID":323777},"geometry":{"x":176199.91000000015,"y":2540375.2500000019}},{"attributes":{"ID":323787,"DIS_CODE":0,"TOWNNAME":"永康區","LI":"東橋里","LIN":"26鄰","STREET":"中正路","SECT":" ","MAREA":" ","LANE":"２７９巷","ALLEY":" ","HOUSE_NO":"１８號","E_COORD97":172557.63,"N_COORD97":2547988.5,"ADDRESS":"中正路２７９巷１８號","OBJECTID":323778},"geometry":{"x":172557.63000000082,"y":2547988.5000000019}},{"attributes":{"ID":323788,"DIS_CODE":0,"TOWNNAME":"永康區","LI":"復華里","LIN":"4鄰","STREET":"復國二路","SECT":" ","MAREA":" ","LANE":"２６９巷","ALLEY":" ","HOUSE_NO":"３號","E_COORD97":173017.37,"N_COORD97":2546185.3100000001,"ADDRESS":"復國二路２６９巷３號","OBJECTID":323779},"geometry":{"x":173017.37000000104,"y":2546185.3100000005}},{"attributes":{"ID":323789,"DIS_CODE":0,"TOWNNAME":"永康區","LI":"南灣里","LIN":"20鄰","STREET":"立興街","SECT":" ","MAREA":" ","LANE":"１７８巷","ALLEY":" ","HOUSE_NO":"６號","E_COORD97":174271.17999999999,"N_COORD97":2544600.3100000001,"ADDRESS":"立興街１７８巷６號","OBJECTID":323780},"geometry":{"x":174271.18000000063,"y":2544600.3100000024}},{"attributes":{"ID":323790,"DIS_CODE":0,"TOWNNAME":"永康區","LI":"東灣里","LIN":"20鄰","STREET":"大灣三街","SECT":" ","MAREA":" ","LANE":"７３巷","ALLEY":" ","HOUSE_NO":"２７號","E_COORD97":174880.14999999999,"N_COORD97":2544883.6200000001,"ADDRESS":"大灣三街７３巷２７號","OBJECTID":323781},"geometry":{"x":174880.1500000013,"y":2544883.6200000029}},{"attributes":{"ID":323791,"DIS_CODE":0,"TOWNNAME":"南區","LI":"新興里","LIN":"15鄰","STREET":"三官路","SECT":" ","MAREA":" ","LANE":"７巷","ALLEY":" ","HOUSE_NO":"１７號之１","E_COORD97":167414.76000000001,"N_COORD97":2542419.52,"ADDRESS":"三官路７巷１７號之１","OBJECTID":323782},"geometry":{"x":167414.76000000071,"y":2542419.5199999996}},{"attributes":{"ID":323792,"DIS_CODE":0,"TOWNNAME":"南區","LI":"新興里","LIN":"15鄰","STREET":"三官路","SECT":" ","MAREA":" ","LANE":"７巷","ALLEY":" ","HOUSE_NO":"１８號","E_COORD97":167393.70000000001,"N_COORD97":2542399,"ADDRESS":"三官路７巷１８號","OBJECTID":323783},"geometry":{"x":167393.70000000112,"y":2542399}},{"attributes":{"ID":323793,"DIS_CODE":0,"TOWNNAME":"南區","LI":"新興里","LIN":"15鄰","STREET":"三官路","SECT":" ","MAREA":" ","LANE":"７巷","ALLEY":" ","HOUSE_NO":"１９號","E_COORD97":167416.25,"N_COORD97":2542411.6699999999,"ADDRESS":"三官路７巷１９號","OBJECTID":323784},"geometry":{"x":167416.25,"y":2542411.6699999999}},{"attributes":{"ID":323794,"DIS_CODE":0,"TOWNNAME":"南區","LI":"新興里","LIN":"15鄰","STREET":"三官路","SECT":" ","MAREA":" ","LANE":"７巷","ALLEY":" ","HOUSE_NO":"１號","E_COORD97":167373.26000000001,"N_COORD97":2542420.5899999999,"ADDRESS":"三官路７巷１號","OBJECTID":323785},"geometry":{"x":167373.25999999978,"y":2542420.5900000017}},{"attributes":{"ID":323795,"DIS_CODE":0,"TOWNNAME":"南區","LI":"新興里","LIN":"15鄰","STREET":"三官路","SECT":" ","MAREA":" ","LANE":"７巷","ALLEY":" ","HOUSE_NO":"２０號","E_COORD97":167398.04000000001,"N_COORD97":2542398.4399999999,"ADDRESS":"三官路７巷２０號","OBJECTID":323786},"geometry":{"x":167398.04000000097,"y":2542398.4399999995}},{"attributes":{"ID":323796,"DIS_CODE":0,"TOWNNAME":"南區","LI":"新興里","LIN":"15鄰","STREET":"三官路","SECT":" ","MAREA":" ","LANE":"７巷","ALLEY":" ","HOUSE_NO":"２１號","E_COORD97":167414.95999999999,"N_COORD97":2542405.8500000001,"ADDRESS":"三官路７巷２１號","OBJECTID":323787},"geometry":{"x":167414.95999999996,"y":2542405.8500000015}},{"attributes":{"ID":323797,"DIS_CODE":0,"TOWNNAME":"南區","LI":"新興里","LIN":"15鄰","STREET":"三官路","SECT":" ","MAREA":" ","LANE":"７巷","ALLEY":" ","HOUSE_NO":"３號","E_COORD97":167377.48000000001,"N_COORD97":2542421.0299999998,"ADDRESS":"三官路７巷３號","OBJECTID":323788},"geometry":{"x":167377.48000000045,"y":2542421.0300000012}},{"attributes":{"ID":323798,"DIS_CODE":0,"TOWNNAME":"南區","LI":"新興里","LIN":"15鄰","STREET":"三官路","SECT":" ","MAREA":" ","LANE":"７巷","ALLEY":" ","HOUSE_NO":"５號","E_COORD97":167380.92000000001,"N_COORD97":2542419.9199999999,"ADDRESS":"三官路７巷５號","OBJECTID":323789},"geometry":{"x":167380.91999999993,"y":2542419.9199999999}},{"attributes":{"ID":323799,"DIS_CODE":0,"TOWNNAME":"南區","LI":"新興里","LIN":"15鄰","STREET":"三官路","SECT":" ","MAREA":" ","LANE":"７巷","ALLEY":" ","HOUSE_NO":"７號","E_COORD97":167385.70000000001,"N_COORD97":2542419.7000000002,"ADDRESS":"三官路７巷７號","OBJECTID":323790},"geometry":{"x":167385.70000000112,"y":2542419.7000000011}},{"attributes":{"ID":323800,"DIS_CODE":0,"TOWNNAME":"南區","LI":"新興里","LIN":"15鄰","STREET":"三官路","SECT":" ","MAREA":" ","LANE":"７巷","ALLEY":" ","HOUSE_NO":"８號","E_COORD97":167371.92000000001,"N_COORD97":2542398.6699999999,"ADDRESS":"三官路７巷８號","OBJECTID":323791},"geometry":{"x":167371.92000000086,"y":2542398.6699999999}},{"attributes":{"ID":323801,"DIS_CODE":0,"TOWNNAME":"南區","LI":"新興里","LIN":"15鄰","STREET":"三官路","SECT":" ","MAREA":" ","LANE":"７巷","ALLEY":" ","HOUSE_NO":"９號","E_COORD97":167389.14999999999,"N_COORD97":2542419.25,"ADDRESS":"三官路７巷９號","OBJECTID":323792},"geometry":{"x":167389.1500000013,"y":2542419.2500000019}},{"attributes":{"ID":323802,"DIS_CODE":0,"TOWNNAME":"北區","LI":"延平里","LIN":"15鄰","STREET":"公園路","SECT":" ","MAREA":" ","LANE":"８２４巷","ALLEY":" ","HOUSE_NO":"２號","E_COORD97":169216.23000000001,"N_COORD97":2545911.1699999999,"ADDRESS":"公園路８２４巷２號","OBJECTID":323793},"geometry":{"x":169216.23000000138,"y":2545911.1699999999}},{"attributes":{"ID":323803,"DIS_CODE":0,"TOWNNAME":"北區","LI":"延平里","LIN":"15鄰","STREET":"公園路","SECT":" ","MAREA":" ","LANE":"８２４巷","ALLEY":" ","HOUSE_NO":"１０號","E_COORD97":169232.41,"N_COORD97":2545903.1499999999,"ADDRESS":"公園路８２４巷１０號","OBJECTID":323794},"geometry":{"x":169232.41000000015,"y":2545903.1500000022}},{"attributes":{"ID":323804,"DIS_CODE":0,"TOWNNAME":"佳里區","LI":"六安里","LIN":" ","STREET":" ","SECT":" ","MAREA":"六安","LANE":" ","ALLEY":" ","HOUSE_NO":"２８８號","E_COORD97":165579.45999999999,"N_COORD97":2562816.3599999999,"ADDRESS":"六安２８８號","OBJECTID":323795},"geometry":{"x":165579.46000000089,"y":2562816.3599999994}},{"attributes":{"ID":323805,"DIS_CODE":0,"TOWNNAME":"歸仁區","LI":"歸南里","LIN":"17鄰","STREET":"民生南街","SECT":"二段","MAREA":" ","LANE":" ","ALLEY":" ","HOUSE_NO":"１０２號","E_COORD97":176189.76000000001,"N_COORD97":2540344.25,"ADDRESS":"民生南街二段１０２號","OBJECTID":323796},"geometry":{"x":176189.75999999978,"y":2540344.2500000037}},{"attributes":{"ID":323806,"DIS_CODE":0,"TOWNNAME":"歸仁區","LI":"歸南里","LIN":"17鄰","STREET":"民生南街","SECT":"二段","MAREA":" ","LANE":" ","ALLEY":" ","HOUSE_NO":"８４號","E_COORD97":176201.91,"N_COORD97":2540379.25,"ADDRESS":"民生南街二段８４號","OBJECTID":323797},"geometry":{"x":176201.91000000201,"y":2540379.2500000019}},{"attributes":{"ID":323807,"DIS_CODE":0,"TOWNNAME":"麻豆區","LI":"\u25A0江里","LIN":"17鄰","STREET":"民權路","SECT":" ","MAREA":" ","LANE":" ","ALLEY":" ","HOUSE_NO":"２９號之１","E_COORD97":173398.22,"N_COORD97":2564712.1699999999,"ADDRESS":"民權路２９號之１","OBJECTID":323798},"geometry":{"x":173398.21999999974,"y":2564712.1700000018}},{"attributes":{"ID":323808,"DIS_CODE":0,"TOWNNAME":"新市區","LI":"社內里","LIN":"13鄰","STREET":" ","SECT":" ","MAREA":"社內","LANE":" ","ALLEY":" ","HOUSE_NO":"１４３之１６號","E_COORD97":176260.33269700001,"N_COORD97":2551503.8382199998,"ADDRESS":"社內１４３之１６號","OBJECTID":323799},"geometry":{"x":176260.33269700035,"y":2551503.8382170033}},{"attributes":{"ID":323809,"DIS_CODE":0,"TOWNNAME":"麻豆區","LI":"\u25A0江里","LIN":"17鄰","STREET":"民權路","SECT":" ","MAREA":" ","LANE":" ","ALLEY":" ","HOUSE_NO":"２９號之２","E_COORD97":173380.45999999999,"N_COORD97":2564707.8700000001,"ADDRESS":"民權路２９號之２","OBJECTID":323800},"geometry":{"x":173380.46000000183,"y":2564707.8700000029}}]}