{"displayFieldName":"TOWNNAME","fieldAliases":{"ID":"ID","DIS_CODE":"DIS_CODE","TOWNNAME":"TOWNNAME","LI":"LI","LIN":"LIN","STREET":"STREET","SECT":"SECT","MAREA":"MAREA","LANE":"LANE","ALLEY":"ALLEY","HOUSE_NO":"HOUSE_NO","E_COORD97":"E_COORD97","N_COORD97":"N_COORD97","ADDRESS":"ADDRESS","OBJECTID":"OBJECTID"},"geometryType":"esriGeometryPoint","spatialReference":{"wkid":102443,"latestWkid":3826},"fields":[{"name":"ID","type":"esriFieldTypeDouble","alias":"ID"},{"name":"DIS_CODE","type":"esriFieldTypeInteger","alias":"DIS_CODE"},{"name":"TOWNNAME","type":"esriFieldTypeString","alias":"TOWNNAME","length":8},{"name":"LI","type":"esriFieldTypeString","alias":"LI","length":8},{"name":"LIN","type":"esriFieldTypeString","alias":"LIN","length":12},{"name":"STREET","type":"esriFieldTypeString","alias":"STREET","length":20},{"name":"SECT","type":"esriFieldTypeString","alias":"SECT","length":8},{"name":"MAREA","type":"esriFieldTypeString","alias":"MAREA","length":12},{"name":"LANE","type":"esriFieldTypeString","alias":"LANE","length":10},{"name":"ALLEY","type":"esriFieldTypeString","alias":"ALLEY","length":10},{"name":"HOUSE_NO","type":"esriFieldTypeString","alias":"HOUSE_NO","length":20},{"name":"E_COORD97","type":"esriFieldTypeDouble","alias":"E_COORD97"},{"name":"N_COORD97","type":"esriFieldTypeDouble","alias":"N_COORD97"},{"name":"ADDRESS","type":"esriFieldTypeString","alias":"ADDRESS","length":50},{"name":"OBJECTID","type":"esriFieldTypeOID","alias":"OBJECTID"}],"features":[{"attributes":{"ID":171602,"DIS_CODE":0,"TOWNNAME":"將軍區","LI":"仁和里","LIN":"23鄰","STREET":" ","SECT":" ","MAREA":"和巷","LANE":" ","ALLEY":" ","HOUSE_NO":"１１９之５號","E_COORD97":163631.26000000001,"N_COORD97":2569018.3199999998,"ADDRESS":"和巷１１９之５號","OBJECTID":171601},"geometry":{"x":163631.26000000071,"y":2569018.3200000003}},{"attributes":{"ID":171603,"DIS_CODE":0,"TOWNNAME":"將軍區","LI":"仁和里","LIN":"23鄰","STREET":" ","SECT":" ","MAREA":"和巷","LANE":" ","ALLEY":" ","HOUSE_NO":"１１９之６號","E_COORD97":163796.12,"N_COORD97":2569063.9300000002,"ADDRESS":"和巷１１９之６號","OBJECTID":171602},"geometry":{"x":163796.12000000011,"y":2569063.9300000016}},{"attributes":{"ID":171604,"DIS_CODE":0,"TOWNNAME":"將軍區","LI":"仁和里","LIN":"11鄰","STREET":" ","SECT":" ","MAREA":"仁巷","LANE":" ","ALLEY":" ","HOUSE_NO":"１１３號","E_COORD97":163884.37,"N_COORD97":2568731.6400000001,"ADDRESS":"仁巷１１３號","OBJECTID":171603},"geometry":{"x":163884.37000000011,"y":2568731.6400000006}},{"attributes":{"ID":171605,"DIS_CODE":0,"TOWNNAME":"將軍區","LI":"仁和里","LIN":"22鄰","STREET":" ","SECT":" ","MAREA":"和巷","LANE":" ","ALLEY":" ","HOUSE_NO":"１０３之１０號","E_COORD97":163774.63,"N_COORD97":2569246.77,"ADDRESS":"和巷１０３之１０號","OBJECTID":171604},"geometry":{"x":163774.63000000082,"y":2569246.7700000014}},{"attributes":{"ID":171606,"DIS_CODE":0,"TOWNNAME":"將軍區","LI":"仁和里","LIN":"22鄰","STREET":" ","SECT":" ","MAREA":"和巷","LANE":" ","ALLEY":" ","HOUSE_NO":"１０３之１號","E_COORD97":163565.92000000001,"N_COORD97":2569264.6200000001,"ADDRESS":"和巷１０３之１號","OBJECTID":171605},"geometry":{"x":163565.92000000086,"y":2569264.620000001}},{"attributes":{"ID":171607,"DIS_CODE":0,"TOWNNAME":"將軍區","LI":"仁和里","LIN":"22鄰","STREET":" ","SECT":" ","MAREA":"和巷","LANE":" ","ALLEY":" ","HOUSE_NO":"１０３之２號","E_COORD97":163605.57999999999,"N_COORD97":2569270.4500000002,"ADDRESS":"和巷１０３之２號","OBJECTID":171606},"geometry":{"x":163605.58000000101,"y":2569270.4499999993}},{"attributes":{"ID":171608,"DIS_CODE":0,"TOWNNAME":"將軍區","LI":"仁和里","LIN":"22鄰","STREET":" ","SECT":" ","MAREA":"和巷","LANE":" ","ALLEY":" ","HOUSE_NO":"１０３之９號","E_COORD97":163779.10000000001,"N_COORD97":2569246.8300000001,"ADDRESS":"和巷１０３之９號","OBJECTID":171607},"geometry":{"x":163779.09999999963,"y":2569246.8300000019}},{"attributes":{"ID":171609,"DIS_CODE":0,"TOWNNAME":"東區","LI":"小東里","LIN":"26鄰","STREET":"小東路","SECT":" ","MAREA":" ","LANE":" ","ALLEY":"２４弄","HOUSE_NO":"２５號四樓","E_COORD97":170752.97086599999,"N_COORD97":2544388.2301500002,"ADDRESS":"小東路２４弄２５號四樓","OBJECTID":171608},"geometry":{"x":170752.97086600121,"y":2544388.2301520016}},{"attributes":{"ID":171610,"DIS_CODE":0,"TOWNNAME":"將軍區","LI":"仁和里","LIN":"1鄰","STREET":" ","SECT":" ","MAREA":"仁巷","LANE":" ","ALLEY":" ","HOUSE_NO":"２之１５號","E_COORD97":164230.32999999999,"N_COORD97":2569716.3100000001,"ADDRESS":"仁巷２之１５號","OBJECTID":171609},"geometry":{"x":164230.33000000007,"y":2569716.3100000024}},{"attributes":{"ID":171611,"DIS_CODE":0,"TOWNNAME":"將軍區","LI":"仁和里","LIN":"1鄰","STREET":" ","SECT":" ","MAREA":"仁巷","LANE":" ","ALLEY":" ","HOUSE_NO":"２號","E_COORD97":164053.14000000001,"N_COORD97":2569462.77,"ADDRESS":"仁巷２號","OBJECTID":171610},"geometry":{"x":164053.13999999966,"y":2569462.7699999996}},{"attributes":{"ID":171612,"DIS_CODE":0,"TOWNNAME":"將軍區","LI":"仁和里","LIN":"1鄰","STREET":" ","SECT":" ","MAREA":"仁巷","LANE":" ","ALLEY":" ","HOUSE_NO":"３號","E_COORD97":164052.28,"N_COORD97":2569433.3799999999,"ADDRESS":"仁巷３號","OBJECTID":171611},"geometry":{"x":164052.28000000119,"y":2569433.379999999}},{"attributes":{"ID":171613,"DIS_CODE":0,"TOWNNAME":"將軍區","LI":"仁和里","LIN":"6鄰","STREET":" ","SECT":" ","MAREA":"仁巷","LANE":" ","ALLEY":" ","HOUSE_NO":"５４號","E_COORD97":163991.04999999999,"N_COORD97":2569252.3199999998,"ADDRESS":"仁巷５４號","OBJECTID":171612},"geometry":{"x":163991.04999999981,"y":2569252.3200000003}},{"attributes":{"ID":171614,"DIS_CODE":0,"TOWNNAME":"將軍區","LI":"仁和里","LIN":"6鄰","STREET":" ","SECT":" ","MAREA":"仁巷","LANE":" ","ALLEY":" ","HOUSE_NO":"５５號","E_COORD97":163989.64999999999,"N_COORD97":2569260.3799999999,"ADDRESS":"仁巷５５號","OBJECTID":171613},"geometry":{"x":163989.65000000037,"y":2569260.379999999}},{"attributes":{"ID":171615,"DIS_CODE":0,"TOWNNAME":"將軍區","LI":"仁和里","LIN":"6鄰","STREET":" ","SECT":" ","MAREA":"仁巷","LANE":" ","ALLEY":" ","HOUSE_NO":"５６之１號","E_COORD97":163988.23000000001,"N_COORD97":2569273.77,"ADDRESS":"仁巷５６之１號","OBJECTID":171614},"geometry":{"x":163988.23000000138,"y":2569273.7700000014}},{"attributes":{"ID":171616,"DIS_CODE":0,"TOWNNAME":"將軍區","LI":"仁和里","LIN":"6鄰","STREET":" ","SECT":" ","MAREA":"仁巷","LANE":" ","ALLEY":" ","HOUSE_NO":"５６之２號","E_COORD97":163988.76999999999,"N_COORD97":2569269.21,"ADDRESS":"仁巷５６之２號","OBJECTID":171615},"geometry":{"x":163988.77000000048,"y":2569269.2100000028}},{"attributes":{"ID":171617,"DIS_CODE":0,"TOWNNAME":"將軍區","LI":"仁和里","LIN":"3鄰","STREET":" ","SECT":" ","MAREA":"仁巷","LANE":" ","ALLEY":" ","HOUSE_NO":"２８號","E_COORD97":164012.38,"N_COORD97":2569325.5099999998,"ADDRESS":"仁巷２８號","OBJECTID":171616},"geometry":{"x":164012.38000000082,"y":2569325.5099999998}},{"attributes":{"ID":171618,"DIS_CODE":0,"TOWNNAME":"北區","LI":"振興里","LIN":"7鄰","STREET":"開元路","SECT":" ","MAREA":" ","LANE":"１４８巷","ALLEY":"３３弄","HOUSE_NO":"１０號之２","E_COORD97":170115.79999999999,"N_COORD97":2545111.7799999998,"ADDRESS":"開元路１４８巷３３弄１０號之２","OBJECTID":171617},"geometry":{"x":170115.79999999981,"y":2545111.7799999993}},{"attributes":{"ID":171619,"DIS_CODE":0,"TOWNNAME":"北區","LI":"振興里","LIN":"7鄰","STREET":"開元路","SECT":" ","MAREA":" ","LANE":"１４８巷","ALLEY":"３３弄","HOUSE_NO":"１０號之３","E_COORD97":170113.07000000001,"N_COORD97":2545121.3700000001,"ADDRESS":"開元路１４８巷３３弄１０號之３","OBJECTID":171618},"geometry":{"x":170113.0700000003,"y":2545121.3700000048}},{"attributes":{"ID":171620,"DIS_CODE":0,"TOWNNAME":"北區","LI":"振興里","LIN":"7鄰","STREET":"開元路","SECT":" ","MAREA":" ","LANE":"１４８巷","ALLEY":"３３弄","HOUSE_NO":"１１號","E_COORD97":170104.57000000001,"N_COORD97":2545143.1600000001,"ADDRESS":"開元路１４８巷３３弄１１號","OBJECTID":171619},"geometry":{"x":170104.5700000003,"y":2545143.160000002}},{"attributes":{"ID":171621,"DIS_CODE":0,"TOWNNAME":"永康區","LI":"永康里","LIN":"12鄰","STREET":"永康街","SECT":" ","MAREA":" ","LANE":" ","ALLEY":" ","HOUSE_NO":"１０８號","E_COORD97":173863.20999999999,"N_COORD97":2547125.23,"ADDRESS":"永康街１０８號","OBJECTID":171620},"geometry":{"x":173863.20999999996,"y":2547125.2300000042}},{"attributes":{"ID":171622,"DIS_CODE":0,"TOWNNAME":"北區","LI":"振興里","LIN":"7鄰","STREET":"開元路","SECT":" ","MAREA":" ","LANE":"１４８巷","ALLEY":"３３弄","HOUSE_NO":"１２號","E_COORD97":170122.23999999999,"N_COORD97":2545123.6600000001,"ADDRESS":"開元路１４８巷３３弄１２號","OBJECTID":171621},"geometry":{"x":170122.24000000022,"y":2545123.6600000001}},{"attributes":{"ID":171623,"DIS_CODE":0,"TOWNNAME":"永康區","LI":"永康里","LIN":"12鄰","STREET":"永康街","SECT":" ","MAREA":" ","LANE":" ","ALLEY":" ","HOUSE_NO":"９６號","E_COORD97":173839.10999999999,"N_COORD97":2547135.2400000002,"ADDRESS":"永康街９６號","OBJECTID":171622},"geometry":{"x":173839.1099999994,"y":2547135.2400000039}},{"attributes":{"ID":171624,"DIS_CODE":0,"TOWNNAME":"北區","LI":"振興里","LIN":"7鄰","STREET":"開元路","SECT":" ","MAREA":" ","LANE":"１４８巷","ALLEY":"３３弄","HOUSE_NO":"１３號","E_COORD97":170110.23999999999,"N_COORD97":2545146.21,"ADDRESS":"開元路１４８巷３３弄１３號","OBJECTID":171623},"geometry":{"x":170110.24000000022,"y":2545146.2100000046}},{"attributes":{"ID":171625,"DIS_CODE":0,"TOWNNAME":"永康區","LI":"西灣里","LIN":"12鄰","STREET":"大灣五街","SECT":" ","MAREA":" ","LANE":" ","ALLEY":" ","HOUSE_NO":"１８０號","E_COORD97":174468.10000000001,"N_COORD97":2545330.25,"ADDRESS":"大灣五街１８０號","OBJECTID":171624},"geometry":{"x":174468.10000000056,"y":2545330.25}},{"attributes":{"ID":171626,"DIS_CODE":0,"TOWNNAME":"永康區","LI":"永康里","LIN":"12鄰","STREET":"永二街","SECT":" ","MAREA":" ","LANE":" ","ALLEY":" ","HOUSE_NO":"３１號","E_COORD97":173783.12,"N_COORD97":2547077.9900000002,"ADDRESS":"永二街３１號","OBJECTID":171625},"geometry":{"x":173783.12000000197,"y":2547077.9900000002}},{"attributes":{"ID":171627,"DIS_CODE":0,"TOWNNAME":"永康區","LI":"永康里","LIN":"12鄰","STREET":"永二街","SECT":" ","MAREA":" ","LANE":" ","ALLEY":" ","HOUSE_NO":"１５號","E_COORD97":173796.38,"N_COORD97":2547110.4399999999,"ADDRESS":"永二街１５號","OBJECTID":171626},"geometry":{"x":173796.38000000175,"y":2547110.4400000013}},{"attributes":{"ID":171628,"DIS_CODE":0,"TOWNNAME":"永康區","LI":"永康里","LIN":"12鄰","STREET":"永二街","SECT":" ","MAREA":" ","LANE":" ","ALLEY":" ","HOUSE_NO":"１３號","E_COORD97":173798.07000000001,"N_COORD97":2547114.9399999999,"ADDRESS":"永二街１３號","OBJECTID":171627},"geometry":{"x":173798.0700000003,"y":2547114.9399999995}},{"attributes":{"ID":171629,"DIS_CODE":0,"TOWNNAME":"北區","LI":"重興里","LIN":"13鄰","STREET":"開南街","SECT":" ","MAREA":" ","LANE":"１４３巷","ALLEY":"１０弄","HOUSE_NO":"１７號","E_COORD97":170724.57999999999,"N_COORD97":2545157.3300000001,"ADDRESS":"開南街１４３巷１０弄１７號","OBJECTID":171628},"geometry":{"x":170724.58000000007,"y":2545157.3300000001}},{"attributes":{"ID":171630,"DIS_CODE":0,"TOWNNAME":"北區","LI":"重興里","LIN":"13鄰","STREET":"開南街","SECT":" ","MAREA":" ","LANE":"１４３巷","ALLEY":"１０弄","HOUSE_NO":"１９號","E_COORD97":170728.31,"N_COORD97":2545155.7999999998,"ADDRESS":"開南街１４３巷１０弄１９號","OBJECTID":171629},"geometry":{"x":170728.31000000052,"y":2545155.8000000026}},{"attributes":{"ID":171631,"DIS_CODE":0,"TOWNNAME":"永康區","LI":"東灣里","LIN":"12鄰","STREET":"大灣二街","SECT":" ","MAREA":" ","LANE":" ","ALLEY":" ","HOUSE_NO":"１１６號","E_COORD97":174739.94,"N_COORD97":2544808.3300000001,"ADDRESS":"大灣二街１１６號","OBJECTID":171630},"geometry":{"x":174739.94000000041,"y":2544808.3300000001}},{"attributes":{"ID":171632,"DIS_CODE":0,"TOWNNAME":"永康區","LI":"新樹里","LIN":"12鄰","STREET":"富強路","SECT":"二段","MAREA":" ","LANE":" ","ALLEY":" ","HOUSE_NO":"８７號","E_COORD97":175660.42000000001,"N_COORD97":2546984.04,"ADDRESS":"富強路二段８７號","OBJECTID":171631},"geometry":{"x":175660.41999999993,"y":2546984.040000001}},{"attributes":{"ID":171633,"DIS_CODE":0,"TOWNNAME":"永康區","LI":"三民里","LIN":"12鄰","STREET":"民東路","SECT":" ","MAREA":" ","LANE":" ","ALLEY":" ","HOUSE_NO":"３０號","E_COORD97":174346.48000000001,"N_COORD97":2550277.54,"ADDRESS":"民東路３０號","OBJECTID":171632},"geometry":{"x":174346.48000000045,"y":2550277.5399999991}},{"attributes":{"ID":171634,"DIS_CODE":0,"TOWNNAME":"佳里區","LI":"民安里","LIN":"12鄰","STREET":" ","SECT":" ","MAREA":"新宅","LANE":" ","ALLEY":" ","HOUSE_NO":"２２號之１","E_COORD97":167507.57999999999,"N_COORD97":2564587.3900000001,"ADDRESS":"新宅２２號之１","OBJECTID":171633},"geometry":{"x":167507.58000000194,"y":2564587.3900000006}},{"attributes":{"ID":171635,"DIS_CODE":0,"TOWNNAME":"佳里區","LI":"民安里","LIN":"12鄰","STREET":" ","SECT":" ","MAREA":"新宅","LANE":" ","ALLEY":" ","HOUSE_NO":"２２號之２","E_COORD97":167546.17000000001,"N_COORD97":2564593.9500000002,"ADDRESS":"新宅２２號之２","OBJECTID":171634},"geometry":{"x":167546.17000000086,"y":2564593.9500000011}},{"attributes":{"ID":171636,"DIS_CODE":0,"TOWNNAME":"佳里區","LI":"民安里","LIN":"12鄰","STREET":" ","SECT":" ","MAREA":"新宅","LANE":" ","ALLEY":" ","HOUSE_NO":"２２號之３","E_COORD97":167550.07999999999,"N_COORD97":2564611.5499999998,"ADDRESS":"新宅２２號之３","OBJECTID":171635},"geometry":{"x":167550.08000000194,"y":2564611.5500000026}},{"attributes":{"ID":171637,"DIS_CODE":0,"TOWNNAME":"佳里區","LI":"民安里","LIN":"12鄰","STREET":" ","SECT":" ","MAREA":"新宅","LANE":" ","ALLEY":" ","HOUSE_NO":"２２號之５","E_COORD97":167462.39000000001,"N_COORD97":2564593.1400000001,"ADDRESS":"新宅２２號之５","OBJECTID":171636},"geometry":{"x":167462.38999999966,"y":2564593.1399999987}},{"attributes":{"ID":171638,"DIS_CODE":0,"TOWNNAME":"佳里區","LI":"民安里","LIN":"12鄰","STREET":" ","SECT":" ","MAREA":"新宅","LANE":" ","ALLEY":" ","HOUSE_NO":"２２號之６","E_COORD97":167437.98000000001,"N_COORD97":2564598.5299999998,"ADDRESS":"新宅２２號之６","OBJECTID":171637},"geometry":{"x":167437.98000000138,"y":2564598.5299999993}},{"attributes":{"ID":171639,"DIS_CODE":0,"TOWNNAME":"佳里區","LI":"民安里","LIN":"12鄰","STREET":" ","SECT":" ","MAREA":"新宅","LANE":" ","ALLEY":" ","HOUSE_NO":"２２號之８","E_COORD97":167599.53,"N_COORD97":2564604.1499999999,"ADDRESS":"新宅２２號之８","OBJECTID":171638},"geometry":{"x":167599.53000000026,"y":2564604.1500000022}},{"attributes":{"ID":171640,"DIS_CODE":0,"TOWNNAME":"佳里區","LI":"民安里","LIN":"12鄰","STREET":" ","SECT":" ","MAREA":"新宅","LANE":" ","ALLEY":" ","HOUSE_NO":"２２號","E_COORD97":167580.84,"N_COORD97":2564599.9900000002,"ADDRESS":"新宅２２號","OBJECTID":171639},"geometry":{"x":167580.84000000078,"y":2564599.9900000002}},{"attributes":{"ID":171641,"DIS_CODE":0,"TOWNNAME":"佳里區","LI":"民安里","LIN":"12鄰","STREET":" ","SECT":" ","MAREA":"新宅","LANE":" ","ALLEY":" ","HOUSE_NO":"７２號","E_COORD97":166740.57000000001,"N_COORD97":2564405.6899999999,"ADDRESS":"新宅７２號","OBJECTID":171640},"geometry":{"x":166740.57000000123,"y":2564405.6900000013}},{"attributes":{"ID":171642,"DIS_CODE":0,"TOWNNAME":"佳里區","LI":"民安里","LIN":"12鄰","STREET":" ","SECT":" ","MAREA":"新宅","LANE":" ","ALLEY":" ","HOUSE_NO":"７６號","E_COORD97":166603.54999999999,"N_COORD97":2564412.8799999999,"ADDRESS":"新宅７６號","OBJECTID":171641},"geometry":{"x":166603.54999999981,"y":2564412.879999999}},{"attributes":{"ID":171643,"DIS_CODE":0,"TOWNNAME":"將軍區","LI":"仁和里","LIN":"3鄰","STREET":" ","SECT":" ","MAREA":"仁巷","LANE":" ","ALLEY":" ","HOUSE_NO":"２９號","E_COORD97":164011.67999999999,"N_COORD97":2569287.3399999999,"ADDRESS":"仁巷２９號","OBJECTID":171642},"geometry":{"x":164011.68000000063,"y":2569287.3400000017}},{"attributes":{"ID":171644,"DIS_CODE":0,"TOWNNAME":"將軍區","LI":"仁和里","LIN":"3鄰","STREET":" ","SECT":" ","MAREA":"仁巷","LANE":" ","ALLEY":" ","HOUSE_NO":"３０號","E_COORD97":164021.10999999999,"N_COORD97":2569292.5299999998,"ADDRESS":"仁巷３０號","OBJECTID":171643},"geometry":{"x":164021.11000000127,"y":2569292.5300000012}},{"attributes":{"ID":171645,"DIS_CODE":0,"TOWNNAME":"白河區","LI":"白河里","LIN":" ","STREET":" ","SECT":" ","MAREA":" ","LANE":"市場一巷","ALLEY":" ","HOUSE_NO":"１２號","E_COORD97":190222.12,"N_COORD97":2583078.1299999999,"ADDRESS":"市場一巷１２號","OBJECTID":171644},"geometry":{"x":190222.12000000011,"y":2583078.129999999}},{"attributes":{"ID":171646,"DIS_CODE":0,"TOWNNAME":"白河區","LI":"白河里","LIN":" ","STREET":" ","SECT":" ","MAREA":" ","LANE":"市場一巷","ALLEY":" ","HOUSE_NO":"１４號","E_COORD97":190227.37,"N_COORD97":2583077.3999999999,"ADDRESS":"市場一巷１４號","OBJECTID":171645},"geometry":{"x":190227.37000000011,"y":2583077.4000000004}},{"attributes":{"ID":171647,"DIS_CODE":0,"TOWNNAME":"白河區","LI":"白河里","LIN":" ","STREET":" ","SECT":" ","MAREA":" ","LANE":"市場一巷","ALLEY":" ","HOUSE_NO":"１５號","E_COORD97":190235.35000000001,"N_COORD97":2583082.5299999998,"ADDRESS":"市場一巷１５號","OBJECTID":171646},"geometry":{"x":190235.34999999963,"y":2583082.5299999993}},{"attributes":{"ID":171648,"DIS_CODE":0,"TOWNNAME":"白河區","LI":"白河里","LIN":" ","STREET":" ","SECT":" ","MAREA":" ","LANE":"市場一巷","ALLEY":" ","HOUSE_NO":"１６號","E_COORD97":190229.79000000001,"N_COORD97":2583076.5,"ADDRESS":"市場一巷１６號","OBJECTID":171647},"geometry":{"x":190229.79000000004,"y":2583076.5}},{"attributes":{"ID":171649,"DIS_CODE":0,"TOWNNAME":"白河區","LI":"白河里","LIN":" ","STREET":" ","SECT":" ","MAREA":" ","LANE":"市場一巷","ALLEY":" ","HOUSE_NO":"１７號","E_COORD97":190238.54999999999,"N_COORD97":2583081.6000000001,"ADDRESS":"市場一巷１７號","OBJECTID":171648},"geometry":{"x":190238.55000000075,"y":2583081.6000000015}},{"attributes":{"ID":171650,"DIS_CODE":0,"TOWNNAME":"白河區","LI":"白河里","LIN":" ","STREET":" ","SECT":" ","MAREA":" ","LANE":"市場一巷","ALLEY":" ","HOUSE_NO":"２０號","E_COORD97":190235.20000000001,"N_COORD97":2583074.8900000001,"ADDRESS":"市場一巷２０號","OBJECTID":171649},"geometry":{"x":190235.20000000019,"y":2583074.8900000006}},{"attributes":{"ID":171651,"DIS_CODE":0,"TOWNNAME":"白河區","LI":"白河里","LIN":" ","STREET":" ","SECT":" ","MAREA":" ","LANE":"市場一巷","ALLEY":" ","HOUSE_NO":"２１號","E_COORD97":190244.95000000001,"N_COORD97":2583079.7400000002,"ADDRESS":"市場一巷２１號","OBJECTID":171650},"geometry":{"x":190244.95000000112,"y":2583079.7400000002}},{"attributes":{"ID":171652,"DIS_CODE":0,"TOWNNAME":"白河區","LI":"白河里","LIN":" ","STREET":" ","SECT":" ","MAREA":" ","LANE":"市場一巷","ALLEY":" ","HOUSE_NO":"２２號","E_COORD97":190241.06,"N_COORD97":2583073.7799999998,"ADDRESS":"市場一巷２２號","OBJECTID":171651},"geometry":{"x":190241.05999999959,"y":2583073.7799999993}},{"attributes":{"ID":171653,"DIS_CODE":0,"TOWNNAME":"永康區","LI":"三民里","LIN":"12鄰","STREET":"和平路","SECT":" ","MAREA":" ","LANE":" ","ALLEY":" ","HOUSE_NO":"２２１號","E_COORD97":174737.97,"N_COORD97":2550660,"ADDRESS":"和平路２２１號","OBJECTID":171652},"geometry":{"x":174737.9700000016,"y":2550660.0000000019}},{"attributes":{"ID":171654,"DIS_CODE":0,"TOWNNAME":"永康區","LI":"埔園里","LIN":"12鄰","STREET":"中山路","SECT":" ","MAREA":" ","LANE":" ","ALLEY":" ","HOUSE_NO":"１８１號之１","E_COORD97":173686.32000000001,"N_COORD97":2548021.79,"ADDRESS":"中山路１８１號之１","OBJECTID":171653},"geometry":{"x":173686.3200000003,"y":2548021.7899999972}},{"attributes":{"ID":171655,"DIS_CODE":0,"TOWNNAME":"永康區","LI":"西勢里","LIN":"12鄰","STREET":"廣興街","SECT":" ","MAREA":" ","LANE":" ","ALLEY":" ","HOUSE_NO":"１４５號","E_COORD97":176111.32000000001,"N_COORD97":2546567.9900000002,"ADDRESS":"廣興街１４５號","OBJECTID":171654},"geometry":{"x":176111.32000000123,"y":2546567.9900000021}},{"attributes":{"ID":171656,"DIS_CODE":0,"TOWNNAME":"北區","LI":"文元里","LIN":"3鄰","STREET":"文賢路","SECT":" ","MAREA":" ","LANE":"１１２２巷","ALLEY":"１０７弄","HOUSE_NO":"１９號","E_COORD97":167696.5,"N_COORD97":2546494,"ADDRESS":"文賢路１１２２巷１０７弄１９號","OBJECTID":171655},"geometry":{"x":167696.50000000093,"y":2546494.0000000019}},{"attributes":{"ID":171657,"DIS_CODE":0,"TOWNNAME":"永康區","LI":"正強里","LIN":"12鄰","STREET":"正強街","SECT":" ","MAREA":" ","LANE":" ","ALLEY":" ","HOUSE_NO":"１１０號","E_COORD97":173351.73999999999,"N_COORD97":2547387.77,"ADDRESS":"正強街１１０號","OBJECTID":171656},"geometry":{"x":173351.74000000209,"y":2547387.7699999996}},{"attributes":{"ID":171658,"DIS_CODE":0,"TOWNNAME":"永康區","LI":"北灣里","LIN":"12鄰","STREET":"大民街","SECT":" ","MAREA":" ","LANE":" ","ALLEY":" ","HOUSE_NO":"１６８號","E_COORD97":174928.32999999999,"N_COORD97":2545690.1000000001,"ADDRESS":"大民街１６８號","OBJECTID":171657},"geometry":{"x":174928.33000000101,"y":2545690.0999999996}},{"attributes":{"ID":171659,"DIS_CODE":0,"TOWNNAME":"永康區","LI":"復興里","LIN":"12鄰","STREET":"復興路","SECT":" ","MAREA":" ","LANE":" ","ALLEY":" ","HOUSE_NO":"３１０號","E_COORD97":172306.14000000001,"N_COORD97":2544348.4500000002,"ADDRESS":"復興路３１０號","OBJECTID":171658},"geometry":{"x":172306.1400000006,"y":2544348.4499999993}},{"attributes":{"ID":171660,"DIS_CODE":0,"TOWNNAME":"永康區","LI":"永康里","LIN":"12鄰","STREET":"永中街","SECT":" ","MAREA":" ","LANE":" ","ALLEY":" ","HOUSE_NO":"２０號","E_COORD97":173884.23999999999,"N_COORD97":2547066.5600000001,"ADDRESS":"永中街２０號","OBJECTID":171659},"geometry":{"x":173884.24000000115,"y":2547066.5600000024}},{"attributes":{"ID":171661,"DIS_CODE":0,"TOWNNAME":"北區","LI":"和順里","LIN":"1鄰","STREET":"民德路","SECT":" ","MAREA":" ","LANE":"５８巷","ALLEY":"２３弄","HOUSE_NO":"１２號","E_COORD97":168264.35000000001,"N_COORD97":2545357.5899999999,"ADDRESS":"民德路５８巷２３弄１２號","OBJECTID":171660},"geometry":{"x":168264.34999999963,"y":2545357.5900000017}},{"attributes":{"ID":171662,"DIS_CODE":0,"TOWNNAME":"北區","LI":"和順里","LIN":"1鄰","STREET":"民德路","SECT":" ","MAREA":" ","LANE":"５８巷","ALLEY":"２３弄","HOUSE_NO":"１３號","E_COORD97":168240.64000000001,"N_COORD97":2545346.6600000001,"ADDRESS":"民德路５８巷２３弄１３號","OBJECTID":171661},"geometry":{"x":168240.63999999966,"y":2545346.660000002}},{"attributes":{"ID":171663,"DIS_CODE":0,"TOWNNAME":"北區","LI":"和順里","LIN":"1鄰","STREET":"民德路","SECT":" ","MAREA":" ","LANE":"５８巷","ALLEY":"２３弄","HOUSE_NO":"１４號","E_COORD97":168259.66,"N_COORD97":2545360.1899999999,"ADDRESS":"民德路５８巷２３弄１４號","OBJECTID":171662},"geometry":{"x":168259.66000000015,"y":2545360.1899999995}},{"attributes":{"ID":171664,"DIS_CODE":0,"TOWNNAME":"北區","LI":"和順里","LIN":"1鄰","STREET":"民德路","SECT":" ","MAREA":" ","LANE":"５８巷","ALLEY":"２３弄","HOUSE_NO":"１５號","E_COORD97":168235.42999999999,"N_COORD97":2545350.2999999998,"ADDRESS":"民德路５８巷２３弄１５號","OBJECTID":171663},"geometry":{"x":168235.42999999877,"y":2545350.3000000026}},{"attributes":{"ID":171665,"DIS_CODE":0,"TOWNNAME":"北區","LI":"和順里","LIN":"1鄰","STREET":"民德路","SECT":" ","MAREA":" ","LANE":"５８巷","ALLEY":"２３弄","HOUSE_NO":"１６號","E_COORD97":168255.75,"N_COORD97":2545363.3100000001,"ADDRESS":"民德路５８巷２３弄１６號","OBJECTID":171664},"geometry":{"x":168255.75000000186,"y":2545363.3100000024}},{"attributes":{"ID":171666,"DIS_CODE":0,"TOWNNAME":"北區","LI":"和順里","LIN":"1鄰","STREET":"民德路","SECT":" ","MAREA":" ","LANE":"５８巷","ALLEY":"２３弄","HOUSE_NO":"１８號","E_COORD97":168250.01999999999,"N_COORD97":2545368.52,"ADDRESS":"民德路５８巷２３弄１８號","OBJECTID":171665},"geometry":{"x":168250.02000000142,"y":2545368.5199999996}},{"attributes":{"ID":171667,"DIS_CODE":0,"TOWNNAME":"北區","LI":"和順里","LIN":"27鄰","STREET":"民德路","SECT":" ","MAREA":" ","LANE":"５８巷","ALLEY":"１１弄","HOUSE_NO":"１０號","E_COORD97":168220.32000000001,"N_COORD97":2545296.8300000001,"ADDRESS":"民德路５８巷１１弄１０號","OBJECTID":171666},"geometry":{"x":168220.32000000123,"y":2545296.8300000038}},{"attributes":{"ID":171668,"DIS_CODE":0,"TOWNNAME":"北區","LI":"和順里","LIN":"27鄰","STREET":"民德路","SECT":" ","MAREA":" ","LANE":"５８巷","ALLEY":"１１弄","HOUSE_NO":"１１號","E_COORD97":168201.32000000001,"N_COORD97":2545279.8399999999,"ADDRESS":"民德路５８巷１１弄１１號","OBJECTID":171667},"geometry":{"x":168201.32000000216,"y":2545279.8400000036}},{"attributes":{"ID":171669,"DIS_CODE":0,"TOWNNAME":"北區","LI":"和順里","LIN":"27鄰","STREET":"民德路","SECT":" ","MAREA":" ","LANE":"５８巷","ALLEY":"１１弄","HOUSE_NO":"１２號","E_COORD97":168215.89000000001,"N_COORD97":2545300.21,"ADDRESS":"民德路５８巷１１弄１２號","OBJECTID":171668},"geometry":{"x":168215.8900000006,"y":2545300.2100000028}},{"attributes":{"ID":171670,"DIS_CODE":0,"TOWNNAME":"白河區","LI":"白河里","LIN":" ","STREET":" ","SECT":" ","MAREA":" ","LANE":"市場一巷","ALLEY":" ","HOUSE_NO":"２３號","E_COORD97":190248.14999999999,"N_COORD97":2583078.8100000001,"ADDRESS":"市場一巷２３號","OBJECTID":171669},"geometry":{"x":190248.15000000037,"y":2583078.8100000005}},{"attributes":{"ID":171671,"DIS_CODE":0,"TOWNNAME":"北區","LI":"和順里","LIN":"27鄰","STREET":"民德路","SECT":" ","MAREA":" ","LANE":"５８巷","ALLEY":"１１弄","HOUSE_NO":"１３號","E_COORD97":168195.79000000001,"N_COORD97":2545283.3700000001,"ADDRESS":"民德路５８巷１１弄１３號","OBJECTID":171670},"geometry":{"x":168195.79000000004,"y":2545283.370000001}},{"attributes":{"ID":171672,"DIS_CODE":0,"TOWNNAME":"北區","LI":"和順里","LIN":"27鄰","STREET":"民德路","SECT":" ","MAREA":" ","LANE":"５８巷","ALLEY":"１１弄","HOUSE_NO":"１４號","E_COORD97":168210.67999999999,"N_COORD97":2545303.8500000001,"ADDRESS":"民德路５８巷１１弄１４號","OBJECTID":171671},"geometry":{"x":168210.68000000063,"y":2545303.8500000015}},{"attributes":{"ID":171673,"DIS_CODE":0,"TOWNNAME":"北區","LI":"和順里","LIN":"27鄰","STREET":"民德路","SECT":" ","MAREA":" ","LANE":"５８巷","ALLEY":"１１弄","HOUSE_NO":"１５號","E_COORD97":168190.92000000001,"N_COORD97":2545286.6899999999,"ADDRESS":"民德路５８巷１１弄１５號","OBJECTID":171672},"geometry":{"x":168190.91999999993,"y":2545286.6899999995}},{"attributes":{"ID":171674,"DIS_CODE":0,"TOWNNAME":"北區","LI":"重興里","LIN":"6鄰","STREET":"林森路","SECT":"三段","MAREA":" ","LANE":"８４巷","ALLEY":"１弄","HOUSE_NO":"１１號","E_COORD97":170612.98000000001,"N_COORD97":2544838.2999999998,"ADDRESS":"林森路三段８４巷１弄１１號","OBJECTID":171673},"geometry":{"x":170612.98000000138,"y":2544838.3000000026}},{"attributes":{"ID":171675,"DIS_CODE":0,"TOWNNAME":"白河區","LI":"白河里","LIN":" ","STREET":" ","SECT":" ","MAREA":" ","LANE":"市場一巷","ALLEY":" ","HOUSE_NO":"２４號","E_COORD97":190243.39999999999,"N_COORD97":2583072.9399999999,"ADDRESS":"市場一巷２４號","OBJECTID":171674},"geometry":{"x":190243.40000000224,"y":2583072.9399999995}},{"attributes":{"ID":171676,"DIS_CODE":0,"TOWNNAME":"永康區","LI":"大灣里","LIN":"12鄰","STREET":"大灣路","SECT":" ","MAREA":" ","LANE":" ","ALLEY":" ","HOUSE_NO":"２７２號","E_COORD97":174949.82000000001,"N_COORD97":2545321.6099999999,"ADDRESS":"大灣路２７２號","OBJECTID":171675},"geometry":{"x":174949.82000000216,"y":2545321.6100000031}},{"attributes":{"ID":171677,"DIS_CODE":0,"TOWNNAME":"白河區","LI":"白河里","LIN":" ","STREET":" ","SECT":" ","MAREA":" ","LANE":"市場一巷","ALLEY":" ","HOUSE_NO":"２５號","E_COORD97":190251.35000000001,"N_COORD97":2583077.8799999999,"ADDRESS":"市場一巷２５號","OBJECTID":171676},"geometry":{"x":190251.35000000149,"y":2583077.8800000027}},{"attributes":{"ID":171678,"DIS_CODE":0,"TOWNNAME":"白河區","LI":"白河里","LIN":" ","STREET":" ","SECT":" ","MAREA":" ","LANE":"市場一巷","ALLEY":" ","HOUSE_NO":"２６號","E_COORD97":190246.10000000001,"N_COORD97":2583071.9700000002,"ADDRESS":"市場一巷２６號","OBJECTID":171677},"geometry":{"x":190246.09999999963,"y":2583071.9699999988}},{"attributes":{"ID":171679,"DIS_CODE":0,"TOWNNAME":"白河區","LI":"白河里","LIN":" ","STREET":" ","SECT":" ","MAREA":" ","LANE":"市場一巷","ALLEY":" ","HOUSE_NO":"２７號","E_COORD97":190254.54999999999,"N_COORD97":2583076.9399999999,"ADDRESS":"市場一巷２７號","OBJECTID":171678},"geometry":{"x":190254.54999999981,"y":2583076.9399999995}},{"attributes":{"ID":171680,"DIS_CODE":0,"TOWNNAME":"白河區","LI":"白河里","LIN":" ","STREET":" ","SECT":" ","MAREA":" ","LANE":"市場一巷","ALLEY":" ","HOUSE_NO":"２８號","E_COORD97":190248.89999999999,"N_COORD97":2583071,"ADDRESS":"市場一巷２８號","OBJECTID":171679},"geometry":{"x":190248.9000000013,"y":2583070.9999999981}},{"attributes":{"ID":171681,"DIS_CODE":0,"TOWNNAME":"白河區","LI":"白河里","LIN":" ","STREET":" ","SECT":" ","MAREA":" ","LANE":"市場一巷","ALLEY":" ","HOUSE_NO":"３０號","E_COORD97":190251.51999999999,"N_COORD97":2583070.1099999999,"ADDRESS":"市場一巷３０號","OBJECTID":171680},"geometry":{"x":190251.51999999955,"y":2583070.1100000031}},{"attributes":{"ID":171682,"DIS_CODE":0,"TOWNNAME":"白河區","LI":"白河里","LIN":" ","STREET":" ","SECT":" ","MAREA":" ","LANE":"市場一巷","ALLEY":" ","HOUSE_NO":"３號","E_COORD97":190216.14000000001,"N_COORD97":2583088.1200000001,"ADDRESS":"市場一巷３號","OBJECTID":171681},"geometry":{"x":190216.1400000006,"y":2583088.120000001}},{"attributes":{"ID":171683,"DIS_CODE":0,"TOWNNAME":"白河區","LI":"白河里","LIN":" ","STREET":" ","SECT":" ","MAREA":" ","LANE":"市場一巷","ALLEY":" ","HOUSE_NO":"４號","E_COORD97":190211.54000000001,"N_COORD97":2583081.6699999999,"ADDRESS":"市場一巷４號","OBJECTID":171682},"geometry":{"x":190211.5400000019,"y":2583081.6700000018}},{"attributes":{"ID":171684,"DIS_CODE":0,"TOWNNAME":"白河區","LI":"白河里","LIN":" ","STREET":" ","SECT":" ","MAREA":" ","LANE":"市場一巷","ALLEY":" ","HOUSE_NO":"５號","E_COORD97":190219.34,"N_COORD97":2583087.1899999999,"ADDRESS":"市場一巷５號","OBJECTID":171683},"geometry":{"x":190219.33999999985,"y":2583087.1900000013}},{"attributes":{"ID":171685,"DIS_CODE":0,"TOWNNAME":"白河區","LI":"白河里","LIN":" ","STREET":" ","SECT":" ","MAREA":" ","LANE":"市場一巷","ALLEY":" ","HOUSE_NO":"６號","E_COORD97":190214.23000000001,"N_COORD97":2583080.7000000002,"ADDRESS":"市場一巷６號","OBJECTID":171684},"geometry":{"x":190214.23000000138,"y":2583080.7000000011}},{"attributes":{"ID":171686,"DIS_CODE":0,"TOWNNAME":"白河區","LI":"白河里","LIN":" ","STREET":" ","SECT":" ","MAREA":" ","LANE":"市場一巷","ALLEY":" ","HOUSE_NO":"７號","E_COORD97":190222.54000000001,"N_COORD97":2583086.2599999998,"ADDRESS":"市場一巷７號","OBJECTID":171685},"geometry":{"x":190222.54000000097,"y":2583086.2600000035}},{"attributes":{"ID":171687,"DIS_CODE":0,"TOWNNAME":"白河區","LI":"白河里","LIN":" ","STREET":" ","SECT":" ","MAREA":" ","LANE":"市場一巷","ALLEY":" ","HOUSE_NO":"８號","E_COORD97":190217.03,"N_COORD97":2583079.7400000002,"ADDRESS":"市場一巷８號","OBJECTID":171686},"geometry":{"x":190217.03000000212,"y":2583079.7400000002}},{"attributes":{"ID":171688,"DIS_CODE":0,"TOWNNAME":"北區","LI":"重興里","LIN":"6鄰","STREET":"林森路","SECT":"三段","MAREA":" ","LANE":"８４巷","ALLEY":"１弄","HOUSE_NO":"１３號","E_COORD97":170616.14000000001,"N_COORD97":2544856.3799999999,"ADDRESS":"林森路三段８４巷１弄１３號","OBJECTID":171687},"geometry":{"x":170616.1400000006,"y":2544856.379999999}},{"attributes":{"ID":171689,"DIS_CODE":0,"TOWNNAME":"山上區","LI":"山上里","LIN":"12鄰","STREET":" ","SECT":" ","MAREA":"山上","LANE":" ","ALLEY":" ","HOUSE_NO":"１８７號","E_COORD97":184238.91,"N_COORD97":2555569.25,"ADDRESS":"山上１８７號","OBJECTID":171688},"geometry":{"x":184238.91000000108,"y":2555569.25}},{"attributes":{"ID":171690,"DIS_CODE":0,"TOWNNAME":"北區","LI":"重興里","LIN":"6鄰","STREET":"林森路","SECT":"三段","MAREA":" ","LANE":"８４巷","ALLEY":"１弄","HOUSE_NO":"１５號","E_COORD97":170620.48999999999,"N_COORD97":2544855.5299999998,"ADDRESS":"林森路三段８４巷１弄１５號","OBJECTID":171689},"geometry":{"x":170620.49000000022,"y":2544855.5300000012}},{"attributes":{"ID":171691,"DIS_CODE":0,"TOWNNAME":"山上區","LI":"明和里","LIN":"12鄰","STREET":" ","SECT":" ","MAREA":"明和","LANE":" ","ALLEY":" ","HOUSE_NO":"１７７號","E_COORD97":183329.73999999999,"N_COORD97":2556256.25,"ADDRESS":"明和１７７號","OBJECTID":171690},"geometry":{"x":183329.74000000209,"y":2556256.2500000019}},{"attributes":{"ID":171692,"DIS_CODE":0,"TOWNNAME":"北區","LI":"重興里","LIN":"6鄰","STREET":"林森路","SECT":"三段","MAREA":" ","LANE":"８４巷","ALLEY":"１弄","HOUSE_NO":"１７號","E_COORD97":170625.01999999999,"N_COORD97":2544854.7599999998,"ADDRESS":"林森路三段８４巷１弄１７號","OBJECTID":171691},"geometry":{"x":170625.02000000142,"y":2544854.7599999998}},{"attributes":{"ID":171693,"DIS_CODE":0,"TOWNNAME":"北區","LI":"重興里","LIN":"6鄰","STREET":"林森路","SECT":"三段","MAREA":" ","LANE":"８４巷","ALLEY":"１弄","HOUSE_NO":"１９號","E_COORD97":170629.89000000001,"N_COORD97":2544854.5099999998,"ADDRESS":"林森路三段８４巷１弄１９號","OBJECTID":171692},"geometry":{"x":170629.8900000006,"y":2544854.5100000035}},{"attributes":{"ID":171694,"DIS_CODE":0,"TOWNNAME":"北區","LI":"重興里","LIN":"6鄰","STREET":"林森路","SECT":"三段","MAREA":" ","LANE":"８４巷","ALLEY":"１弄","HOUSE_NO":"１號","E_COORD97":170637.23000000001,"N_COORD97":2544833.0099999998,"ADDRESS":"林森路三段８４巷１弄１號","OBJECTID":171693},"geometry":{"x":170637.23000000045,"y":2544833.0099999998}},{"attributes":{"ID":171695,"DIS_CODE":0,"TOWNNAME":"北區","LI":"重興里","LIN":"6鄰","STREET":"林森路","SECT":"三段","MAREA":" ","LANE":"８４巷","ALLEY":"１弄","HOUSE_NO":"２１號","E_COORD97":170634.67000000001,"N_COORD97":2544853.3999999999,"ADDRESS":"林森路三段８４巷１弄２１號","OBJECTID":171694},"geometry":{"x":170634.67000000086,"y":2544853.4000000022}},{"attributes":{"ID":171696,"DIS_CODE":0,"TOWNNAME":"白河區","LI":"白河里","LIN":" ","STREET":" ","SECT":" ","MAREA":" ","LANE":"市場一巷","ALLEY":" ","HOUSE_NO":"９號","E_COORD97":190225.73999999999,"N_COORD97":2583085.3300000001,"ADDRESS":"市場一巷９號","OBJECTID":171695},"geometry":{"x":190225.74000000209,"y":2583085.3300000001}},{"attributes":{"ID":171697,"DIS_CODE":0,"TOWNNAME":"白河區","LI":"白河里","LIN":" ","STREET":" ","SECT":" ","MAREA":" ","LANE":"市場二巷","ALLEY":" ","HOUSE_NO":"１０號","E_COORD97":190217.39999999999,"N_COORD97":2583071.1499999999,"ADDRESS":"市場二巷１０號","OBJECTID":171696},"geometry":{"x":190217.40000000037,"y":2583071.1500000022}},{"attributes":{"ID":171698,"DIS_CODE":0,"TOWNNAME":"白河區","LI":"白河里","LIN":" ","STREET":" ","SECT":" ","MAREA":" ","LANE":"市場二巷","ALLEY":" ","HOUSE_NO":"１１號","E_COORD97":190221.44,"N_COORD97":2583075.98,"ADDRESS":"市場二巷１１號","OBJECTID":171697},"geometry":{"x":190221.44000000134,"y":2583075.9800000023}},{"attributes":{"ID":171699,"DIS_CODE":0,"TOWNNAME":"白河區","LI":"白河里","LIN":" ","STREET":" ","SECT":" ","MAREA":" ","LANE":"市場二巷","ALLEY":" ","HOUSE_NO":"１２號","E_COORD97":190219.87,"N_COORD97":2583070.4300000002,"ADDRESS":"市場二巷１２號","OBJECTID":171698},"geometry":{"x":190219.87000000104,"y":2583070.4299999997}},{"attributes":{"ID":171700,"DIS_CODE":0,"TOWNNAME":"北區","LI":"重興里","LIN":"6鄰","STREET":"林森路","SECT":"三段","MAREA":" ","LANE":"８４巷","ALLEY":"１弄","HOUSE_NO":"２３號","E_COORD97":170641.14999999999,"N_COORD97":2544852.71,"ADDRESS":"林森路三段８４巷１弄２３號","OBJECTID":171699},"geometry":{"x":170641.15000000037,"y":2544852.7100000028}},{"attributes":{"ID":171701,"DIS_CODE":0,"TOWNNAME":"北區","LI":"重興里","LIN":"6鄰","STREET":"林森路","SECT":"三段","MAREA":" ","LANE":"８４巷","ALLEY":"１弄","HOUSE_NO":"２５號","E_COORD97":170643.82000000001,"N_COORD97":2544864.1699999999,"ADDRESS":"林森路三段８４巷１弄２５號","OBJECTID":171700},"geometry":{"x":170643.8200000003,"y":2544864.1700000018}},{"attributes":{"ID":171702,"DIS_CODE":0,"TOWNNAME":"北區","LI":"重興里","LIN":"6鄰","STREET":"林森路","SECT":"三段","MAREA":" ","LANE":"８４巷","ALLEY":"１弄","HOUSE_NO":"２７號","E_COORD97":170638.20999999999,"N_COORD97":2544865.2200000002,"ADDRESS":"林森路三段８４巷１弄２７號","OBJECTID":171701},"geometry":{"x":170638.21000000089,"y":2544865.2200000025}},{"attributes":{"ID":171703,"DIS_CODE":0,"TOWNNAME":"北區","LI":"重興里","LIN":"8鄰","STREET":"東豐路","SECT":" ","MAREA":" ","LANE":"４５１巷","ALLEY":"１弄","HOUSE_NO":"１０號","E_COORD97":170765.89000000001,"N_COORD97":2544783.23,"ADDRESS":"東豐路４５１巷１弄１０號","OBJECTID":171702},"geometry":{"x":170765.88999999966,"y":2544783.2300000023}},{"attributes":{"ID":171704,"DIS_CODE":0,"TOWNNAME":"北區","LI":"重興里","LIN":"8鄰","STREET":"東豐路","SECT":" ","MAREA":" ","LANE":"４５１巷","ALLEY":"１弄","HOUSE_NO":"１１號","E_COORD97":170712.48999999999,"N_COORD97":2544793.7599999998,"ADDRESS":"東豐路４５１巷１弄１１號","OBJECTID":171703},"geometry":{"x":170712.49000000115,"y":2544793.7599999998}},{"attributes":{"ID":171705,"DIS_CODE":0,"TOWNNAME":"北區","LI":"大豐里","LIN":"30鄰","STREET":"文賢路","SECT":" ","MAREA":" ","LANE":"３６５巷","ALLEY":"４０弄","HOUSE_NO":"６號","E_COORD97":167253.01999999999,"N_COORD97":2545418.77,"ADDRESS":"文賢路３６５巷４０弄６號","OBJECTID":171704},"geometry":{"x":167253.01999999955,"y":2545418.7700000033}},{"attributes":{"ID":171706,"DIS_CODE":0,"TOWNNAME":"北區","LI":"大豐里","LIN":"30鄰","STREET":"文賢路","SECT":" ","MAREA":" ","LANE":"３６５巷","ALLEY":"４０弄","HOUSE_NO":"８號","E_COORD97":167262.62,"N_COORD97":2545418.4199999999,"ADDRESS":"文賢路３６５巷４０弄８號","OBJECTID":171705},"geometry":{"x":167262.62000000011,"y":2545418.4200000037}},{"attributes":{"ID":171707,"DIS_CODE":0,"TOWNNAME":"北區","LI":"大豐里","LIN":"30鄰","STREET":"文賢路","SECT":" ","MAREA":" ","LANE":"３６５巷","ALLEY":"４０弄","HOUSE_NO":"２號","E_COORD97":167238.59,"N_COORD97":2545419.8799999999,"ADDRESS":"文賢路３６５巷４０弄２號","OBJECTID":171706},"geometry":{"x":167238.59000000078,"y":2545419.879999999}},{"attributes":{"ID":171708,"DIS_CODE":0,"TOWNNAME":"北區","LI":"大豐里","LIN":"30鄰","STREET":"文賢路","SECT":" ","MAREA":" ","LANE":"３６５巷","ALLEY":"４０弄","HOUSE_NO":"４號","E_COORD97":167248.26999999999,"N_COORD97":2545419.6299999999,"ADDRESS":"文賢路３６５巷４０弄４號","OBJECTID":171707},"geometry":{"x":167248.27000000048,"y":2545419.6300000008}},{"attributes":{"ID":171709,"DIS_CODE":0,"TOWNNAME":"北區","LI":"大豐里","LIN":"30鄰","STREET":"文賢路","SECT":" ","MAREA":" ","LANE":"３６５巷","ALLEY":"１８弄","HOUSE_NO":"１９號","E_COORD97":167281.13,"N_COORD97":2545449.4500000002,"ADDRESS":"文賢路３６５巷１８弄１９號","OBJECTID":171708},"geometry":{"x":167281.12999999989,"y":2545449.4500000011}},{"attributes":{"ID":171710,"DIS_CODE":0,"TOWNNAME":"北區","LI":"大豐里","LIN":"30鄰","STREET":"文賢路","SECT":" ","MAREA":" ","LANE":"３６５巷","ALLEY":"１８弄","HOUSE_NO":"２１號","E_COORD97":167281.31,"N_COORD97":2545454.8999999999,"ADDRESS":"文賢路３６５巷１８弄２１號","OBJECTID":171709},"geometry":{"x":167281.30999999959,"y":2545454.9000000004}},{"attributes":{"ID":171711,"DIS_CODE":0,"TOWNNAME":"北區","LI":"大豐里","LIN":"30鄰","STREET":"文賢路","SECT":" ","MAREA":" ","LANE":"３６５巷","ALLEY":"１８弄","HOUSE_NO":"２３號","E_COORD97":167281.82999999999,"N_COORD97":2545458.5299999998,"ADDRESS":"文賢路３６５巷１８弄２３號","OBJECTID":171710},"geometry":{"x":167281.83000000007,"y":2545458.5300000012}},{"attributes":{"ID":171712,"DIS_CODE":0,"TOWNNAME":"北區","LI":"大豐里","LIN":"30鄰","STREET":"文賢路","SECT":" ","MAREA":" ","LANE":"３６５巷","ALLEY":"１８弄","HOUSE_NO":"２５號","E_COORD97":167281.57000000001,"N_COORD97":2545463.3599999999,"ADDRESS":"文賢路３６５巷１８弄２５號","OBJECTID":171711},"geometry":{"x":167281.57000000123,"y":2545463.3600000013}},{"attributes":{"ID":171713,"DIS_CODE":0,"TOWNNAME":"北區","LI":"大豐里","LIN":"30鄰","STREET":"文賢路","SECT":" ","MAREA":" ","LANE":"３６５巷","ALLEY":"１８弄","HOUSE_NO":"２７號","E_COORD97":167282.42999999999,"N_COORD97":2545467.1600000001,"ADDRESS":"文賢路３６５巷１８弄２７號","OBJECTID":171712},"geometry":{"x":167282.4299999997,"y":2545467.1600000001}},{"attributes":{"ID":171714,"DIS_CODE":0,"TOWNNAME":"北區","LI":"大豐里","LIN":"30鄰","STREET":"文賢路","SECT":" ","MAREA":" ","LANE":"３６５巷","ALLEY":"１８弄","HOUSE_NO":"２９號","E_COORD97":167282.17000000001,"N_COORD97":2545471.9399999999,"ADDRESS":"文賢路３６５巷１８弄２９號","OBJECTID":171713},"geometry":{"x":167282.17000000086,"y":2545471.9400000032}},{"attributes":{"ID":171715,"DIS_CODE":0,"TOWNNAME":"北區","LI":"大豐里","LIN":"30鄰","STREET":"文賢路","SECT":" ","MAREA":" ","LANE":"３６５巷","ALLEY":"１８弄","HOUSE_NO":"３１號","E_COORD97":167282,"N_COORD97":2545476.3999999999,"ADDRESS":"文賢路３６５巷１８弄３１號","OBJECTID":171714},"geometry":{"x":167282,"y":2545476.4000000041}},{"attributes":{"ID":171716,"DIS_CODE":0,"TOWNNAME":"北區","LI":"大豐里","LIN":"30鄰","STREET":"文賢路","SECT":" ","MAREA":" ","LANE":"３６５巷","ALLEY":"１８弄","HOUSE_NO":"３３號","E_COORD97":167281.91,"N_COORD97":2545481.4500000002,"ADDRESS":"文賢路３６５巷１８弄３３號","OBJECTID":171715},"geometry":{"x":167281.91000000108,"y":2545481.4499999974}},{"attributes":{"ID":171717,"DIS_CODE":0,"TOWNNAME":"北區","LI":"大豐里","LIN":"30鄰","STREET":"文賢路","SECT":" ","MAREA":" ","LANE":"３６５巷","ALLEY":"１８弄","HOUSE_NO":"４３號","E_COORD97":167281.73999999999,"N_COORD97":2545502.96,"ADDRESS":"文賢路３６５巷１８弄４３號","OBJECTID":171716},"geometry":{"x":167281.74000000115,"y":2545502.9600000009}},{"attributes":{"ID":171718,"DIS_CODE":0,"TOWNNAME":"永康區","LI":"東橋里","LIN":"18鄰","STREET":"中山南路","SECT":" ","MAREA":" ","LANE":" ","ALLEY":" ","HOUSE_NO":"４０５號之１","E_COORD97":172793.81,"N_COORD97":2546819.7000000002,"ADDRESS":"中山南路４０５號之１","OBJECTID":171717},"geometry":{"x":172793.80999999959,"y":2546819.7000000011}},{"attributes":{"ID":171719,"DIS_CODE":0,"TOWNNAME":"永康區","LI":"埔園里","LIN":"39鄰","STREET":"聖龍街","SECT":" ","MAREA":" ","LANE":" ","ALLEY":" ","HOUSE_NO":"８９號","E_COORD97":174034.67999999999,"N_COORD97":2547854.71,"ADDRESS":"聖龍街８９號","OBJECTID":171718},"geometry":{"x":174034.68000000156,"y":2547854.709999999}},{"attributes":{"ID":171720,"DIS_CODE":0,"TOWNNAME":"永康區","LI":"埔園里","LIN":"36鄰","STREET":"自強路","SECT":" ","MAREA":" ","LANE":" ","ALLEY":" ","HOUSE_NO":"６０５號","E_COORD97":174148.23999999999,"N_COORD97":2548289.8999999999,"ADDRESS":"自強路６０５號","OBJECTID":171719},"geometry":{"x":174148.24000000022,"y":2548289.9000000004}},{"attributes":{"ID":171721,"DIS_CODE":0,"TOWNNAME":"北區","LI":"大豐里","LIN":"30鄰","STREET":"文賢路","SECT":" ","MAREA":" ","LANE":"３６５巷","ALLEY":"１８弄","HOUSE_NO":"１３號","E_COORD97":167280.95999999999,"N_COORD97":2545436.6899999999,"ADDRESS":"文賢路３６５巷１８弄１３號","OBJECTID":171720},"geometry":{"x":167280.95999999996,"y":2545436.6900000013}},{"attributes":{"ID":171722,"DIS_CODE":0,"TOWNNAME":"北區","LI":"大豐里","LIN":"30鄰","STREET":"文賢路","SECT":" ","MAREA":" ","LANE":"３６５巷","ALLEY":"１８弄","HOUSE_NO":"１５號","E_COORD97":167281.13,"N_COORD97":2545440.4100000001,"ADDRESS":"文賢路３６５巷１８弄１５號","OBJECTID":171721},"geometry":{"x":167281.12999999989,"y":2545440.410000002}},{"attributes":{"ID":171723,"DIS_CODE":0,"TOWNNAME":"北區","LI":"大豐里","LIN":"30鄰","STREET":"文賢路","SECT":" ","MAREA":" ","LANE":"３６５巷","ALLEY":"１８弄","HOUSE_NO":"１１號","E_COORD97":167280.53,"N_COORD97":2545431.5899999999,"ADDRESS":"文賢路３６５巷１８弄１１號","OBJECTID":171722},"geometry":{"x":167280.53000000026,"y":2545431.5900000017}},{"attributes":{"ID":171724,"DIS_CODE":0,"TOWNNAME":"永康區","LI":"勝利里","LIN":"38鄰","STREET":"勝利街","SECT":" ","MAREA":" ","LANE":"１９７巷","ALLEY":"８弄","HOUSE_NO":"１０號六樓之２","E_COORD97":171351.51999999999,"N_COORD97":2545188.0499999998,"ADDRESS":"勝利街１９７巷８弄１０號六樓之２","OBJECTID":171723},"geometry":{"x":171351.51999999955,"y":2545188.0500000026}},{"attributes":{"ID":171725,"DIS_CODE":0,"TOWNNAME":"永康區","LI":"勝利里","LIN":"38鄰","STREET":"勝利街","SECT":" ","MAREA":" ","LANE":"１９７巷","ALLEY":"８弄","HOUSE_NO":"１０號五樓之３","E_COORD97":171351.48000000001,"N_COORD97":2545188.0499999998,"ADDRESS":"勝利街１９７巷８弄１０號五樓之３","OBJECTID":171724},"geometry":{"x":171351.48000000045,"y":2545188.0500000026}},{"attributes":{"ID":171726,"DIS_CODE":0,"TOWNNAME":"永康區","LI":"勝利里","LIN":"38鄰","STREET":"勝利街","SECT":" ","MAREA":" ","LANE":"１９７巷","ALLEY":"８弄","HOUSE_NO":"１０號三樓之２","E_COORD97":171351.51999999999,"N_COORD97":2545188.0499999998,"ADDRESS":"勝利街１９７巷８弄１０號三樓之２","OBJECTID":171725},"geometry":{"x":171351.51999999955,"y":2545188.0500000026}},{"attributes":{"ID":171727,"DIS_CODE":0,"TOWNNAME":"永康區","LI":"勝利里","LIN":"38鄰","STREET":"勝利街","SECT":" ","MAREA":" ","LANE":"１９７巷","ALLEY":"８弄","HOUSE_NO":"１０號七樓之３","E_COORD97":171351.48000000001,"N_COORD97":2545188.0499999998,"ADDRESS":"勝利街１９７巷８弄１０號七樓之３","OBJECTID":171726},"geometry":{"x":171351.48000000045,"y":2545188.0500000026}},{"attributes":{"ID":171728,"DIS_CODE":0,"TOWNNAME":"永康區","LI":"勝利里","LIN":"38鄰","STREET":"勝利街","SECT":" ","MAREA":" ","LANE":"１９７巷","ALLEY":"８弄","HOUSE_NO":"１０號四樓之３","E_COORD97":171351.48000000001,"N_COORD97":2545188.0499999998,"ADDRESS":"勝利街１９７巷８弄１０號四樓之３","OBJECTID":171727},"geometry":{"x":171351.48000000045,"y":2545188.0500000026}},{"attributes":{"ID":171729,"DIS_CODE":0,"TOWNNAME":"永康區","LI":"勝利里","LIN":"38鄰","STREET":"勝利街","SECT":" ","MAREA":" ","LANE":"１９７巷","ALLEY":"８弄","HOUSE_NO":"１０號三樓之１","E_COORD97":171351.38,"N_COORD97":2545188.0499999998,"ADDRESS":"勝利街１９７巷８弄１０號三樓之１","OBJECTID":171728},"geometry":{"x":171351.37999999989,"y":2545188.0500000026}},{"attributes":{"ID":171730,"DIS_CODE":0,"TOWNNAME":"永康區","LI":"勝利里","LIN":"38鄰","STREET":"勝利街","SECT":" ","MAREA":" ","LANE":"１９７巷","ALLEY":"８弄","HOUSE_NO":"８號七樓之１","E_COORD97":171347.07000000001,"N_COORD97":2545178.2999999998,"ADDRESS":"勝利街１９７巷８弄８號七樓之１","OBJECTID":171729},"geometry":{"x":171347.0700000003,"y":2545178.3000000007}},{"attributes":{"ID":171731,"DIS_CODE":0,"TOWNNAME":"永康區","LI":"神洲里","LIN":"20鄰","STREET":"忠孝路","SECT":" ","MAREA":" ","LANE":"７６巷","ALLEY":"６３弄","HOUSE_NO":"２８號四樓","E_COORD97":172170.17000000001,"N_COORD97":2545052.2400000002,"ADDRESS":"忠孝路７６巷６３弄２８號四樓","OBJECTID":171730},"geometry":{"x":172170.16999999993,"y":2545052.2400000002}},{"attributes":{"ID":171732,"DIS_CODE":0,"TOWNNAME":"永康區","LI":"勝利里","LIN":"38鄰","STREET":"勝利街","SECT":" ","MAREA":" ","LANE":"１９７巷","ALLEY":"８弄","HOUSE_NO":"１０號三樓之３","E_COORD97":171351.48000000001,"N_COORD97":2545188.0499999998,"ADDRESS":"勝利街１９７巷８弄１０號三樓之３","OBJECTID":171731},"geometry":{"x":171351.48000000045,"y":2545188.0500000026}},{"attributes":{"ID":171733,"DIS_CODE":0,"TOWNNAME":"永康區","LI":"勝利里","LIN":"7鄰","STREET":"勝利街","SECT":" ","MAREA":" ","LANE":"２２巷","ALLEY":"５弄","HOUSE_NO":"９號四樓之２","E_COORD97":171244.76999999999,"N_COORD97":2544594.27,"ADDRESS":"勝利街２２巷５弄９號四樓之２","OBJECTID":171732},"geometry":{"x":171244.76999999955,"y":2544594.2699999996}},{"attributes":{"ID":171734,"DIS_CODE":0,"TOWNNAME":"永康區","LI":"勝利里","LIN":"38鄰","STREET":"勝利街","SECT":" ","MAREA":" ","LANE":"１９７巷","ALLEY":"８弄","HOUSE_NO":"１０號六樓之１","E_COORD97":171351.38,"N_COORD97":2545188.0499999998,"ADDRESS":"勝利街１９７巷８弄１０號六樓之１","OBJECTID":171733},"geometry":{"x":171351.37999999989,"y":2545188.0500000026}},{"attributes":{"ID":171735,"DIS_CODE":0,"TOWNNAME":"永康區","LI":"二王里","LIN":"47鄰","STREET":"南工街","SECT":" ","MAREA":" ","LANE":"２２６巷","ALLEY":"３弄","HOUSE_NO":"１號三樓之２","E_COORD97":171977.98000000001,"N_COORD97":2545990.6000000001,"ADDRESS":"南工街２２６巷３弄１號三樓之２","OBJECTID":171734},"geometry":{"x":171977.98000000138,"y":2545990.6000000015}},{"attributes":{"ID":171736,"DIS_CODE":0,"TOWNNAME":"永康區","LI":"二王里","LIN":"17鄰","STREET":"忠孝路","SECT":" ","MAREA":" ","LANE":"４１０巷","ALLEY":"５０弄","HOUSE_NO":"１７號六樓","E_COORD97":172601.10999999999,"N_COORD97":2546443.5899999999,"ADDRESS":"忠孝路４１０巷５０弄１７號六樓","OBJECTID":171735},"geometry":{"x":172601.11000000034,"y":2546443.5899999999}},{"attributes":{"ID":171737,"DIS_CODE":0,"TOWNNAME":"永康區","LI":"二王里","LIN":"17鄰","STREET":"忠孝路","SECT":" ","MAREA":" ","LANE":"４１０巷","ALLEY":"５０弄","HOUSE_NO":"１５號六樓","E_COORD97":172600.76000000001,"N_COORD97":2546449.9700000002,"ADDRESS":"忠孝路４１０巷５０弄１５號六樓","OBJECTID":171736},"geometry":{"x":172600.76000000071,"y":2546449.9700000025}},{"attributes":{"ID":171738,"DIS_CODE":0,"TOWNNAME":"東區","LI":"東明里","LIN":"25鄰","STREET":"東安路","SECT":" ","MAREA":" ","LANE":"３０巷","ALLEY":"１０弄","HOUSE_NO":"２８號七樓","E_COORD97":170788.95999999999,"N_COORD97":2543488.8799999999,"ADDRESS":"東安路３０巷１０弄２８號七樓","OBJECTID":171737},"geometry":{"x":170788.96000000089,"y":2543488.8800000008}},{"attributes":{"ID":171739,"DIS_CODE":0,"TOWNNAME":"東區","LI":"東明里","LIN":"25鄰","STREET":"東安路","SECT":" ","MAREA":" ","LANE":"３０巷","ALLEY":"１０弄","HOUSE_NO":"２８號七樓之１","E_COORD97":170788.95999999999,"N_COORD97":2543488.8799999999,"ADDRESS":"東安路３０巷１０弄２８號七樓之１","OBJECTID":171738},"geometry":{"x":170788.96000000089,"y":2543488.8800000008}},{"attributes":{"ID":171740,"DIS_CODE":0,"TOWNNAME":"東區","LI":"東明里","LIN":"25鄰","STREET":"東安路","SECT":" ","MAREA":" ","LANE":"３０巷","ALLEY":"１０弄","HOUSE_NO":"２８號二樓","E_COORD97":170788.95999999999,"N_COORD97":2543488.8799999999,"ADDRESS":"東安路３０巷１０弄２８號二樓","OBJECTID":171739},"geometry":{"x":170788.96000000089,"y":2543488.8800000008}},{"attributes":{"ID":171741,"DIS_CODE":0,"TOWNNAME":"東區","LI":"東明里","LIN":"25鄰","STREET":"東安路","SECT":" ","MAREA":" ","LANE":"３０巷","ALLEY":"１０弄","HOUSE_NO":"２８號三樓","E_COORD97":170788.95999999999,"N_COORD97":2543488.8799999999,"ADDRESS":"東安路３０巷１０弄２８號三樓","OBJECTID":171740},"geometry":{"x":170788.96000000089,"y":2543488.8800000008}},{"attributes":{"ID":171742,"DIS_CODE":0,"TOWNNAME":"東區","LI":"東明里","LIN":"25鄰","STREET":"東安路","SECT":" ","MAREA":" ","LANE":"３０巷","ALLEY":"１０弄","HOUSE_NO":"２８號三樓之１","E_COORD97":170788.95999999999,"N_COORD97":2543488.8799999999,"ADDRESS":"東安路３０巷１０弄２８號三樓之１","OBJECTID":171741},"geometry":{"x":170788.96000000089,"y":2543488.8800000008}},{"attributes":{"ID":171743,"DIS_CODE":0,"TOWNNAME":"東區","LI":"東明里","LIN":"25鄰","STREET":"東安路","SECT":" ","MAREA":" ","LANE":"３０巷","ALLEY":"１０弄","HOUSE_NO":"２８號四樓","E_COORD97":170788.95999999999,"N_COORD97":2543488.8799999999,"ADDRESS":"東安路３０巷１０弄２８號四樓","OBJECTID":171742},"geometry":{"x":170788.96000000089,"y":2543488.8800000008}},{"attributes":{"ID":171744,"DIS_CODE":0,"TOWNNAME":"東區","LI":"東明里","LIN":"25鄰","STREET":"東安路","SECT":" ","MAREA":" ","LANE":"３０巷","ALLEY":"１０弄","HOUSE_NO":"２８號四樓之１","E_COORD97":170788.95999999999,"N_COORD97":2543488.8799999999,"ADDRESS":"東安路３０巷１０弄２８號四樓之１","OBJECTID":171743},"geometry":{"x":170788.96000000089,"y":2543488.8800000008}},{"attributes":{"ID":171745,"DIS_CODE":0,"TOWNNAME":"東區","LI":"東明里","LIN":"25鄰","STREET":"東安路","SECT":" ","MAREA":" ","LANE":"３０巷","ALLEY":"１０弄","HOUSE_NO":"２８號五樓之１","E_COORD97":170788.95999999999,"N_COORD97":2543488.8799999999,"ADDRESS":"東安路３０巷１０弄２８號五樓之１","OBJECTID":171744},"geometry":{"x":170788.96000000089,"y":2543488.8800000008}},{"attributes":{"ID":171746,"DIS_CODE":0,"TOWNNAME":"東區","LI":"東明里","LIN":"25鄰","STREET":"東安路","SECT":" ","MAREA":" ","LANE":"３０巷","ALLEY":"１０弄","HOUSE_NO":"２８號五樓","E_COORD97":170788.95999999999,"N_COORD97":2543488.8799999999,"ADDRESS":"東安路３０巷１０弄２８號五樓","OBJECTID":171745},"geometry":{"x":170788.96000000089,"y":2543488.8800000008}},{"attributes":{"ID":171747,"DIS_CODE":0,"TOWNNAME":"東區","LI":"東明里","LIN":"25鄰","STREET":"東安路","SECT":" ","MAREA":" ","LANE":"３０巷","ALLEY":"１０弄","HOUSE_NO":"２８號六樓","E_COORD97":170788.95999999999,"N_COORD97":2543488.8799999999,"ADDRESS":"東安路３０巷１０弄２８號六樓","OBJECTID":171746},"geometry":{"x":170788.96000000089,"y":2543488.8800000008}},{"attributes":{"ID":171748,"DIS_CODE":0,"TOWNNAME":"新化區","LI":"太平里","LIN":"12鄰","STREET":"中正路","SECT":" ","MAREA":" ","LANE":" ","ALLEY":" ","HOUSE_NO":"６７３號之２","E_COORD97":178828.95999999999,"N_COORD97":2549073.2599999998,"ADDRESS":"中正路６７３號之２","OBJECTID":171747},"geometry":{"x":178828.96000000089,"y":2549073.2599999998}},{"attributes":{"ID":171749,"DIS_CODE":0,"TOWNNAME":"東區","LI":"東明里","LIN":"25鄰","STREET":"東安路","SECT":" ","MAREA":" ","LANE":"３０巷","ALLEY":"１０弄","HOUSE_NO":"２８號六樓之１","E_COORD97":170788.95999999999,"N_COORD97":2543488.8799999999,"ADDRESS":"東安路３０巷１０弄２８號六樓之１","OBJECTID":171748},"geometry":{"x":170788.96000000089,"y":2543488.8800000008}},{"attributes":{"ID":171750,"DIS_CODE":0,"TOWNNAME":"新化區","LI":"武安里","LIN":"12鄰","STREET":"正新南路","SECT":" ","MAREA":" ","LANE":" ","ALLEY":" ","HOUSE_NO":"１２９號","E_COORD97":178829.67000000001,"N_COORD97":2547952.25,"ADDRESS":"正新南路１２９號","OBJECTID":171749},"geometry":{"x":178829.67000000086,"y":2547952.2500000037}},{"attributes":{"ID":171751,"DIS_CODE":0,"TOWNNAME":"新化區","LI":"太平里","LIN":"12鄰","STREET":"中正路","SECT":" ","MAREA":" ","LANE":" ","ALLEY":" ","HOUSE_NO":"６６５號","E_COORD97":178846.70999999999,"N_COORD97":2549040.25,"ADDRESS":"中正路６６５號","OBJECTID":171750},"geometry":{"x":178846.70999999996,"y":2549040.2500000037}},{"attributes":{"ID":171752,"DIS_CODE":0,"TOWNNAME":"東區","LI":"富強里","LIN":"29鄰","STREET":"東門路","SECT":"二段","MAREA":" ","LANE":"３６５巷","ALLEY":"３３弄","HOUSE_NO":"２號三樓","E_COORD97":170860.97,"N_COORD97":2542641.0499999998,"ADDRESS":"東門路二段３６５巷３３弄２號三樓","OBJECTID":171751},"geometry":{"x":170860.96999999974,"y":2542641.0500000007}},{"attributes":{"ID":171753,"DIS_CODE":0,"TOWNNAME":"東區","LI":"崇德里","LIN":"6鄰","STREET":"崇德五街","SECT":" ","MAREA":" ","LANE":"２巷","ALLEY":"１１弄","HOUSE_NO":"１９號之１二樓","E_COORD97":170707.39999999999,"N_COORD97":2541813.5800000001,"ADDRESS":"崇德五街２巷１１弄１９號之１二樓","OBJECTID":171752},"geometry":{"x":170707.40000000037,"y":2541813.5800000019}},{"attributes":{"ID":171754,"DIS_CODE":0,"TOWNNAME":"東區","LI":"崇德里","LIN":"6鄰","STREET":"崇德五街","SECT":" ","MAREA":" ","LANE":"２巷","ALLEY":"１１弄","HOUSE_NO":"１９號之１三樓","E_COORD97":170707.39999999999,"N_COORD97":2541813.5800000001,"ADDRESS":"崇德五街２巷１１弄１９號之１三樓","OBJECTID":171753},"geometry":{"x":170707.40000000037,"y":2541813.5800000019}},{"attributes":{"ID":171755,"DIS_CODE":0,"TOWNNAME":"東區","LI":"崇德里","LIN":"6鄰","STREET":"崇德五街","SECT":" ","MAREA":" ","LANE":"２巷","ALLEY":"１１弄","HOUSE_NO":"１９號之１四樓","E_COORD97":170707.39999999999,"N_COORD97":2541813.5800000001,"ADDRESS":"崇德五街２巷１１弄１９號之１四樓","OBJECTID":171754},"geometry":{"x":170707.40000000037,"y":2541813.5800000019}},{"attributes":{"ID":171756,"DIS_CODE":0,"TOWNNAME":"東區","LI":"富強里","LIN":"19鄰","STREET":"裕農路","SECT":" ","MAREA":" ","LANE":"２８８巷","ALLEY":"１１０弄","HOUSE_NO":"２號二樓","E_COORD97":170990.81,"N_COORD97":2542924.73,"ADDRESS":"裕農路２８８巷１１０弄２號二樓","OBJECTID":171755},"geometry":{"x":170990.80999999866,"y":2542924.7300000042}},{"attributes":{"ID":171757,"DIS_CODE":0,"TOWNNAME":"新化區","LI":"全興里","LIN":"12鄰","STREET":" ","SECT":" ","MAREA":"竹子\u25A0","LANE":" ","ALLEY":" ","HOUSE_NO":"２４７號之１００","E_COORD97":178270.57000000001,"N_COORD97":2546847.2599999998,"ADDRESS":"竹子\u25A0２４７號之１００","OBJECTID":171756},"geometry":{"x":178270.56999999937,"y":2546847.2600000016}},{"attributes":{"ID":171758,"DIS_CODE":0,"TOWNNAME":"新化區","LI":"太平里","LIN":"12鄰","STREET":"中正路","SECT":" ","MAREA":" ","LANE":" ","ALLEY":" ","HOUSE_NO":"６７１號","E_COORD97":178836.51153700001,"N_COORD97":2549060.1101500001,"ADDRESS":"中正路６７１號","OBJECTID":171757},"geometry":{"x":178836.51153699961,"y":2549060.1101500019}},{"attributes":{"ID":171759,"DIS_CODE":0,"TOWNNAME":"新化區","LI":"全興里","LIN":"12鄰","STREET":" ","SECT":" ","MAREA":"竹子\u25A0","LANE":" ","ALLEY":" ","HOUSE_NO":"２４７號之１２０","E_COORD97":178246.57000000001,"N_COORD97":2546803.2599999998,"ADDRESS":"竹子\u25A0２４７號之１２０","OBJECTID":171758},"geometry":{"x":178246.5700000003,"y":2546803.2600000016}},{"attributes":{"ID":171760,"DIS_CODE":0,"TOWNNAME":"新化區","LI":"全興里","LIN":"12鄰","STREET":" ","SECT":" ","MAREA":"竹子\u25A0","LANE":" ","ALLEY":" ","HOUSE_NO":"２４７號之１１０","E_COORD97":178269.47,"N_COORD97":2546802.2599999998,"ADDRESS":"竹子\u25A0２４７號之１１０","OBJECTID":171759},"geometry":{"x":178269.47000000067,"y":2546802.2600000035}},{"attributes":{"ID":171761,"DIS_CODE":0,"TOWNNAME":"新化區","LI":"知義里","LIN":"12鄰","STREET":" ","SECT":" ","MAREA":"口埤","LANE":" ","ALLEY":" ","HOUSE_NO":"１０１號","E_COORD97":183142.54999999999,"N_COORD97":2547402.25,"ADDRESS":"口埤１０１號","OBJECTID":171760},"geometry":{"x":183142.55000000075,"y":2547402.25}},{"attributes":{"ID":171762,"DIS_CODE":0,"TOWNNAME":"西港區","LI":"西港里","LIN":"12鄰","STREET":" ","SECT":" ","MAREA":"西港","LANE":" ","ALLEY":" ","HOUSE_NO":"２６號之２３","E_COORD97":168601.5,"N_COORD97":2558073.4900000002,"ADDRESS":"西港２６號之２３","OBJECTID":171761},"geometry":{"x":168601.50000000186,"y":2558073.4900000002}},{"attributes":{"ID":171763,"DIS_CODE":0,"TOWNNAME":"西港區","LI":"西港里","LIN":"12鄰","STREET":" ","SECT":" ","MAREA":"西港","LANE":" ","ALLEY":" ","HOUSE_NO":"２６號之２４","E_COORD97":168594.81,"N_COORD97":2558071.21,"ADDRESS":"西港２６號之２４","OBJECTID":171762},"geometry":{"x":168594.80999999959,"y":2558071.2100000028}},{"attributes":{"ID":171764,"DIS_CODE":0,"TOWNNAME":"西港區","LI":"西港里","LIN":"12鄰","STREET":" ","SECT":" ","MAREA":"西港","LANE":" ","ALLEY":" ","HOUSE_NO":"２６號之２５","E_COORD97":168590.70999999999,"N_COORD97":2558070.2999999998,"ADDRESS":"西港２６號之２５","OBJECTID":171763},"geometry":{"x":168590.71000000089,"y":2558070.3000000026}},{"attributes":{"ID":171765,"DIS_CODE":0,"TOWNNAME":"西港區","LI":"西港里","LIN":"12鄰","STREET":" ","SECT":" ","MAREA":"西港","LANE":" ","ALLEY":" ","HOUSE_NO":"２６號之２６","E_COORD97":168586.34,"N_COORD97":2558069.0800000001,"ADDRESS":"西港２６號之２６","OBJECTID":171764},"geometry":{"x":168586.33999999985,"y":2558069.0800000001}},{"attributes":{"ID":171766,"DIS_CODE":0,"TOWNNAME":"西港區","LI":"西港里","LIN":"12鄰","STREET":" ","SECT":" ","MAREA":"西港","LANE":" ","ALLEY":" ","HOUSE_NO":"２６號之２７","E_COORD97":168582.48999999999,"N_COORD97":2558068.1099999999,"ADDRESS":"西港２６號之２７","OBJECTID":171765},"geometry":{"x":168582.49000000022,"y":2558068.1099999994}},{"attributes":{"ID":171767,"DIS_CODE":0,"TOWNNAME":"白河區","LI":"白河里","LIN":" ","STREET":" ","SECT":" ","MAREA":" ","LANE":"市場二巷","ALLEY":" ","HOUSE_NO":"１３號","E_COORD97":190226.70999999999,"N_COORD97":2583075.3500000001,"ADDRESS":"市場二巷１３號","OBJECTID":171766},"geometry":{"x":190226.70999999996,"y":2583075.3500000034}},{"attributes":{"ID":171768,"DIS_CODE":0,"TOWNNAME":"白河區","LI":"白河里","LIN":" ","STREET":" ","SECT":" ","MAREA":" ","LANE":"市場二巷","ALLEY":" ","HOUSE_NO":"１５號","E_COORD97":190229.13,"N_COORD97":2583074.46,"ADDRESS":"市場二巷１５號","OBJECTID":171767},"geometry":{"x":190229.12999999989,"y":2583074.4600000009}},{"attributes":{"ID":171769,"DIS_CODE":0,"TOWNNAME":"白河區","LI":"白河里","LIN":" ","STREET":" ","SECT":" ","MAREA":" ","LANE":"市場二巷","ALLEY":" ","HOUSE_NO":"１６號","E_COORD97":190227.76000000001,"N_COORD97":2583068.6299999999,"ADDRESS":"市場二巷１６號","OBJECTID":171768},"geometry":{"x":190227.75999999978,"y":2583068.629999999}},{"attributes":{"ID":171770,"DIS_CODE":0,"TOWNNAME":"白河區","LI":"白河里","LIN":" ","STREET":" ","SECT":" ","MAREA":" ","LANE":"市場二巷","ALLEY":" ","HOUSE_NO":"１７號","E_COORD97":190232.01000000001,"N_COORD97":2583073.5299999998,"ADDRESS":"市場二巷１７號","OBJECTID":171769},"geometry":{"x":190232.01000000071,"y":2583073.5299999975}},{"attributes":{"ID":171771,"DIS_CODE":0,"TOWNNAME":"東區","LI":"富強里","LIN":"19鄰","STREET":"裕農路","SECT":" ","MAREA":" ","LANE":"２８８巷","ALLEY":"１１０弄","HOUSE_NO":"２號五樓","E_COORD97":170990.81,"N_COORD97":2542924.73,"ADDRESS":"裕農路２８８巷１１０弄２號五樓","OBJECTID":171770},"geometry":{"x":170990.80999999866,"y":2542924.7300000042}},{"attributes":{"ID":171772,"DIS_CODE":0,"TOWNNAME":"東區","LI":"富強里","LIN":"19鄰","STREET":"裕農路","SECT":" ","MAREA":" ","LANE":"２８８巷","ALLEY":"１１０弄","HOUSE_NO":"４號二樓","E_COORD97":170991.19,"N_COORD97":2542918.9399999999,"ADDRESS":"裕農路２８８巷１１０弄４號二樓","OBJECTID":171771},"geometry":{"x":170991.19000000134,"y":2542918.9400000032}},{"attributes":{"ID":171773,"DIS_CODE":0,"TOWNNAME":"永康區","LI":"勝利里","LIN":"39鄰","STREET":"勝華街","SECT":" ","MAREA":" ","LANE":"３７巷","ALLEY":"４２弄","HOUSE_NO":"１號二樓","E_COORD97":171431.67000000001,"N_COORD97":2545121.75,"ADDRESS":"勝華街３７巷４２弄１號二樓","OBJECTID":171772},"geometry":{"x":171431.67000000086,"y":2545121.7500000019}},{"attributes":{"ID":171774,"DIS_CODE":0,"TOWNNAME":"東區","LI":"富強里","LIN":"19鄰","STREET":"裕農路","SECT":" ","MAREA":" ","LANE":"２８８巷","ALLEY":"１１０弄","HOUSE_NO":"４號二樓之１","E_COORD97":170991.19,"N_COORD97":2542918.9399999999,"ADDRESS":"裕農路２８８巷１１０弄４號二樓之１","OBJECTID":171773},"geometry":{"x":170991.19000000134,"y":2542918.9400000032}},{"attributes":{"ID":171775,"DIS_CODE":0,"TOWNNAME":"東區","LI":"富強里","LIN":"19鄰","STREET":"裕農路","SECT":" ","MAREA":" ","LANE":"２８８巷","ALLEY":"１１０弄","HOUSE_NO":"４號二樓之２","E_COORD97":170991.19,"N_COORD97":2542918.9399999999,"ADDRESS":"裕農路２８８巷１１０弄４號二樓之２","OBJECTID":171774},"geometry":{"x":170991.19000000134,"y":2542918.9400000032}},{"attributes":{"ID":171776,"DIS_CODE":0,"TOWNNAME":"西港區","LI":"西港里","LIN":"12鄰","STREET":" ","SECT":" ","MAREA":"西港","LANE":" ","ALLEY":" ","HOUSE_NO":"２６號之２８","E_COORD97":168578.19,"N_COORD97":2558067.2000000002,"ADDRESS":"西港２６號之２８","OBJECTID":171775},"geometry":{"x":168578.19000000041,"y":2558067.1999999993}},{"attributes":{"ID":171777,"DIS_CODE":0,"TOWNNAME":"西港區","LI":"西港里","LIN":"12鄰","STREET":" ","SECT":" ","MAREA":"西港","LANE":" ","ALLEY":" ","HOUSE_NO":"２６號之２９","E_COORD97":168574.34,"N_COORD97":2558065.5800000001,"ADDRESS":"西港２６號之２９","OBJECTID":171776},"geometry":{"x":168574.34000000078,"y":2558065.5800000001}},{"attributes":{"ID":171778,"DIS_CODE":0,"TOWNNAME":"西港區","LI":"西港里","LIN":"12鄰","STREET":" ","SECT":" ","MAREA":"西港","LANE":" ","ALLEY":" ","HOUSE_NO":"２６號之３０","E_COORD97":168570.31,"N_COORD97":2558064.5099999998,"ADDRESS":"西港２６號之３０","OBJECTID":171777},"geometry":{"x":168570.31000000052,"y":2558064.5100000016}},{"attributes":{"ID":171779,"DIS_CODE":0,"TOWNNAME":"西港區","LI":"西港里","LIN":"12鄰","STREET":" ","SECT":" ","MAREA":"西港","LANE":" ","ALLEY":" ","HOUSE_NO":"２６號之３１","E_COORD97":168566.01999999999,"N_COORD97":2558063.2200000002,"ADDRESS":"西港２６號之３１","OBJECTID":171778},"geometry":{"x":168566.02000000048,"y":2558063.2200000044}},{"attributes":{"ID":171780,"DIS_CODE":0,"TOWNNAME":"西港區","LI":"西港里","LIN":"12鄰","STREET":" ","SECT":" ","MAREA":"西港","LANE":" ","ALLEY":" ","HOUSE_NO":"２６號之３２","E_COORD97":168562.70000000001,"N_COORD97":2558062.0499999998,"ADDRESS":"西港２６號之３２","OBJECTID":171779},"geometry":{"x":168562.70000000019,"y":2558062.0500000026}},{"attributes":{"ID":171781,"DIS_CODE":0,"TOWNNAME":"西港區","LI":"西港里","LIN":"12鄰","STREET":" ","SECT":" ","MAREA":"西港","LANE":" ","ALLEY":" ","HOUSE_NO":"２６號之３３","E_COORD97":168558.35000000001,"N_COORD97":2558060.7200000002,"ADDRESS":"西港２６號之３３","OBJECTID":171780},"geometry":{"x":168558.35000000056,"y":2558060.7200000025}},{"attributes":{"ID":171782,"DIS_CODE":0,"TOWNNAME":"白河區","LI":"白河里","LIN":" ","STREET":" ","SECT":" ","MAREA":" ","LANE":"市場二巷","ALLEY":" ","HOUSE_NO":"１９號","E_COORD97":190234.54000000001,"N_COORD97":2583072.8399999999,"ADDRESS":"市場二巷１９號","OBJECTID":171781},"geometry":{"x":190234.54000000004,"y":2583072.8400000017}},{"attributes":{"ID":171783,"DIS_CODE":0,"TOWNNAME":"永康區","LI":"中興里","LIN":"25鄰","STREET":"中華路","SECT":" ","MAREA":" ","LANE":"２８０巷","ALLEY":"１８弄","HOUSE_NO":"１號五樓之２","E_COORD97":171724.81,"N_COORD97":2545178.7999999998,"ADDRESS":"中華路２８０巷１８弄１號五樓之２","OBJECTID":171782},"geometry":{"x":171724.80999999866,"y":2545178.8000000007}},{"attributes":{"ID":171784,"DIS_CODE":0,"TOWNNAME":"白河區","LI":"白河里","LIN":" ","STREET":" ","SECT":" ","MAREA":" ","LANE":"市場二巷","ALLEY":" ","HOUSE_NO":"１號","E_COORD97":190208.67000000001,"N_COORD97":2583080.2999999998,"ADDRESS":"市場二巷１號","OBJECTID":171783},"geometry":{"x":190208.66999999993,"y":2583080.3000000045}},{"attributes":{"ID":171785,"DIS_CODE":0,"TOWNNAME":"白河區","LI":"白河里","LIN":" ","STREET":" ","SECT":" ","MAREA":" ","LANE":"市場二巷","ALLEY":" ","HOUSE_NO":"２０號","E_COORD97":190233.17000000001,"N_COORD97":2583067.0099999998,"ADDRESS":"市場二巷２０號","OBJECTID":171784},"geometry":{"x":190233.17000000086,"y":2583067.0099999998}},{"attributes":{"ID":171786,"DIS_CODE":0,"TOWNNAME":"白河區","LI":"白河里","LIN":" ","STREET":" ","SECT":" ","MAREA":" ","LANE":"市場二巷","ALLEY":" ","HOUSE_NO":"２１號","E_COORD97":190240.42000000001,"N_COORD97":2583071.6400000001,"ADDRESS":"市場二巷２１號","OBJECTID":171785},"geometry":{"x":190240.41999999993,"y":2583071.6400000025}},{"attributes":{"ID":171787,"DIS_CODE":0,"TOWNNAME":"白河區","LI":"白河里","LIN":" ","STREET":" ","SECT":" ","MAREA":" ","LANE":"市場二巷","ALLEY":" ","HOUSE_NO":"２２號","E_COORD97":190238.60999999999,"N_COORD97":2583065.71,"ADDRESS":"市場二巷２２號","OBJECTID":171786},"geometry":{"x":190238.6100000022,"y":2583065.7100000009}},{"attributes":{"ID":171788,"DIS_CODE":0,"TOWNNAME":"白河區","LI":"白河里","LIN":" ","STREET":" ","SECT":" ","MAREA":" ","LANE":"市場二巷","ALLEY":" ","HOUSE_NO":"２３號","E_COORD97":190242.81,"N_COORD97":2583070.8100000001,"ADDRESS":"市場二巷２３號","OBJECTID":171787},"geometry":{"x":190242.80999999959,"y":2583070.8100000024}},{"attributes":{"ID":171789,"DIS_CODE":0,"TOWNNAME":"白河區","LI":"白河里","LIN":" ","STREET":" ","SECT":" ","MAREA":" ","LANE":"市場二巷","ALLEY":" ","HOUSE_NO":"２５號","E_COORD97":190245.51000000001,"N_COORD97":2583069.9100000001,"ADDRESS":"市場二巷２５號","OBJECTID":171788},"geometry":{"x":190245.51000000164,"y":2583069.910000002}},{"attributes":{"ID":171790,"DIS_CODE":0,"TOWNNAME":"白河區","LI":"白河里","LIN":" ","STREET":" ","SECT":" ","MAREA":" ","LANE":"市場二巷","ALLEY":" ","HOUSE_NO":"２６號","E_COORD97":190243.64999999999,"N_COORD97":2583063.9100000001,"ADDRESS":"市場二巷２６號","OBJECTID":171789},"geometry":{"x":190243.6500000013,"y":2583063.9100000001}},{"attributes":{"ID":171791,"DIS_CODE":0,"TOWNNAME":"白河區","LI":"白河里","LIN":" ","STREET":" ","SECT":" ","MAREA":" ","LANE":"市場二巷","ALLEY":" ","HOUSE_NO":"２７號","E_COORD97":190248.37,"N_COORD97":2583068.9100000001,"ADDRESS":"市場二巷２７號","OBJECTID":171790},"geometry":{"x":190248.37000000197,"y":2583068.910000002}},{"attributes":{"ID":171792,"DIS_CODE":0,"TOWNNAME":"白河區","LI":"白河里","LIN":" ","STREET":" ","SECT":" ","MAREA":" ","LANE":"市場二巷","ALLEY":" ","HOUSE_NO":"２８號","E_COORD97":190246.45000000001,"N_COORD97":2583062.9399999999,"ADDRESS":"市場二巷２８號","OBJECTID":171791},"geometry":{"x":190246.45000000112,"y":2583062.9399999995}},{"attributes":{"ID":171793,"DIS_CODE":0,"TOWNNAME":"白河區","LI":"白河里","LIN":" ","STREET":" ","SECT":" ","MAREA":" ","LANE":"市場二巷","ALLEY":" ","HOUSE_NO":"２９號","E_COORD97":190250.92999999999,"N_COORD97":2583068.1099999999,"ADDRESS":"市場二巷２９號","OBJECTID":171792},"geometry":{"x":190250.93000000156,"y":2583068.1100000013}},{"attributes":{"ID":171794,"DIS_CODE":0,"TOWNNAME":"白河區","LI":"白河里","LIN":" ","STREET":" ","SECT":" ","MAREA":" ","LANE":"市場二巷","ALLEY":" ","HOUSE_NO":"２號","E_COORD97":190206.94,"N_COORD97":2583074.8100000001,"ADDRESS":"市場二巷２號","OBJECTID":171793},"geometry":{"x":190206.94000000041,"y":2583074.8100000005}},{"attributes":{"ID":171795,"DIS_CODE":0,"TOWNNAME":"白河區","LI":"白河里","LIN":" ","STREET":" ","SECT":" ","MAREA":" ","LANE":"市場二巷","ALLEY":" ","HOUSE_NO":"３０號","E_COORD97":190249.07000000001,"N_COORD97":2583062.0499999998,"ADDRESS":"市場二巷３０號","OBJECTID":171794},"geometry":{"x":190249.07000000123,"y":2583062.0500000026}},{"attributes":{"ID":171796,"DIS_CODE":0,"TOWNNAME":"白河區","LI":"白河里","LIN":" ","STREET":" ","SECT":" ","MAREA":" ","LANE":"市場二巷","ALLEY":" ","HOUSE_NO":"４號","E_COORD97":190209.28,"N_COORD97":2583073.9700000002,"ADDRESS":"市場二巷４號","OBJECTID":171795},"geometry":{"x":190209.28000000119,"y":2583073.9700000007}},{"attributes":{"ID":171797,"DIS_CODE":0,"TOWNNAME":"白河區","LI":"白河里","LIN":" ","STREET":" ","SECT":" ","MAREA":" ","LANE":"市場二巷","ALLEY":" ","HOUSE_NO":"５號","E_COORD97":190213.76000000001,"N_COORD97":2583078.5800000001,"ADDRESS":"市場二巷５號","OBJECTID":171796},"geometry":{"x":190213.76000000071,"y":2583078.5800000019}},{"attributes":{"ID":171798,"DIS_CODE":0,"TOWNNAME":"白河區","LI":"白河里","LIN":" ","STREET":" ","SECT":" ","MAREA":" ","LANE":"市場三巷","ALLEY":" ","HOUSE_NO":"１８號","E_COORD97":190228.38,"N_COORD97":2583059.9300000002,"ADDRESS":"市場三巷１８號","OBJECTID":171797},"geometry":{"x":190228.38000000082,"y":2583059.9299999997}},{"attributes":{"ID":171799,"DIS_CODE":0,"TOWNNAME":"白河區","LI":"白河里","LIN":" ","STREET":" ","SECT":" ","MAREA":" ","LANE":"市場三巷","ALLEY":" ","HOUSE_NO":"１９號","E_COORD97":190232.51999999999,"N_COORD97":2583064.79,"ADDRESS":"市場三巷１９號","OBJECTID":171798},"geometry":{"x":190232.51999999955,"y":2583064.7899999972}},{"attributes":{"ID":171800,"DIS_CODE":0,"TOWNNAME":"白河區","LI":"白河里","LIN":" ","STREET":" ","SECT":" ","MAREA":" ","LANE":"市場三巷","ALLEY":" ","HOUSE_NO":"１號","E_COORD97":190206.32999999999,"N_COORD97":2583072.8399999999,"ADDRESS":"市場三巷１號","OBJECTID":171799},"geometry":{"x":190206.33000000194,"y":2583072.8400000017}},{"attributes":{"ID":171801,"DIS_CODE":0,"TOWNNAME":"白河區","LI":"白河里","LIN":" ","STREET":" ","SECT":" ","MAREA":" ","LANE":"市場三巷","ALLEY":" ","HOUSE_NO":"２０號","E_COORD97":190230.89999999999,"N_COORD97":2583059.2400000002,"ADDRESS":"市場三巷２０號","OBJECTID":171800},"geometry":{"x":190230.90000000037,"y":2583059.2400000002}}]}