{"displayFieldName":"TOWNNAME","fieldAliases":{"ID":"ID","DIS_CODE":"DIS_CODE","TOWNNAME":"TOWNNAME","LI":"LI","LIN":"LIN","STREET":"STREET","SECT":"SECT","MAREA":"MAREA","LANE":"LANE","ALLEY":"ALLEY","HOUSE_NO":"HOUSE_NO","E_COORD97":"E_COORD97","N_COORD97":"N_COORD97","ADDRESS":"ADDRESS","OBJECTID":"OBJECTID"},"geometryType":"esriGeometryPoint","spatialReference":{"wkid":102443,"latestWkid":3826},"fields":[{"name":"ID","type":"esriFieldTypeDouble","alias":"ID"},{"name":"DIS_CODE","type":"esriFieldTypeInteger","alias":"DIS_CODE"},{"name":"TOWNNAME","type":"esriFieldTypeString","alias":"TOWNNAME","length":8},{"name":"LI","type":"esriFieldTypeString","alias":"LI","length":8},{"name":"LIN","type":"esriFieldTypeString","alias":"LIN","length":12},{"name":"STREET","type":"esriFieldTypeString","alias":"STREET","length":20},{"name":"SECT","type":"esriFieldTypeString","alias":"SECT","length":8},{"name":"MAREA","type":"esriFieldTypeString","alias":"MAREA","length":12},{"name":"LANE","type":"esriFieldTypeString","alias":"LANE","length":10},{"name":"ALLEY","type":"esriFieldTypeString","alias":"ALLEY","length":10},{"name":"HOUSE_NO","type":"esriFieldTypeString","alias":"HOUSE_NO","length":20},{"name":"E_COORD97","type":"esriFieldTypeDouble","alias":"E_COORD97"},{"name":"N_COORD97","type":"esriFieldTypeDouble","alias":"N_COORD97"},{"name":"ADDRESS","type":"esriFieldTypeString","alias":"ADDRESS","length":50},{"name":"OBJECTID","type":"esriFieldTypeOID","alias":"OBJECTID"}],"features":[{"attributes":{"ID":609028,"DIS_CODE":0,"TOWNNAME":"東區","LI":"裕聖里","LIN":"3鄰","STREET":"裕敬路","SECT":" ","MAREA":" ","LANE":" ","ALLEY":" ","HOUSE_NO":"１１１號","E_COORD97":172680.56,"N_COORD97":2542263.5499999998,"ADDRESS":"裕敬路１１１號","OBJECTID":609001},"geometry":{"x":172680.55999999959,"y":2542263.5500000007}},{"attributes":{"ID":609029,"DIS_CODE":0,"TOWNNAME":"東區","LI":"裕聖里","LIN":"3鄰","STREET":"裕敬路","SECT":" ","MAREA":" ","LANE":" ","ALLEY":" ","HOUSE_NO":"１１３號","E_COORD97":172684.42000000001,"N_COORD97":2542263.71,"ADDRESS":"裕敬路１１３號","OBJECTID":609002},"geometry":{"x":172684.42000000086,"y":2542263.7100000009}},{"attributes":{"ID":609030,"DIS_CODE":0,"TOWNNAME":"東區","LI":"裕聖里","LIN":"3鄰","STREET":"裕敬路","SECT":" ","MAREA":" ","LANE":" ","ALLEY":" ","HOUSE_NO":"１１５號","E_COORD97":172687.98000000001,"N_COORD97":2542263.5499999998,"ADDRESS":"裕敬路１１５號","OBJECTID":609003},"geometry":{"x":172687.98000000138,"y":2542263.5500000007}},{"attributes":{"ID":609031,"DIS_CODE":0,"TOWNNAME":"東區","LI":"裕聖里","LIN":"3鄰","STREET":"裕敬路","SECT":" ","MAREA":" ","LANE":" ","ALLEY":" ","HOUSE_NO":"１１７號","E_COORD97":172692.60999999999,"N_COORD97":2542263.3999999999,"ADDRESS":"裕敬路１１７號","OBJECTID":609004},"geometry":{"x":172692.61000000034,"y":2542263.4000000022}},{"attributes":{"ID":609032,"DIS_CODE":0,"TOWNNAME":"東區","LI":"裕聖里","LIN":"3鄰","STREET":"裕敬路","SECT":" ","MAREA":" ","LANE":" ","ALLEY":" ","HOUSE_NO":"９９號","E_COORD97":172658.62,"N_COORD97":2542263.8599999999,"ADDRESS":"裕敬路９９號","OBJECTID":609005},"geometry":{"x":172658.62000000011,"y":2542263.8599999994}},{"attributes":{"ID":609033,"DIS_CODE":0,"TOWNNAME":"東區","LI":"裕聖里","LIN":"3鄰","STREET":"裕信路","SECT":" ","MAREA":" ","LANE":" ","ALLEY":" ","HOUSE_NO":"３１３號","E_COORD97":172617.19,"N_COORD97":2542287.9700000002,"ADDRESS":"裕信路３１３號","OBJECTID":609006},"geometry":{"x":172617.19000000134,"y":2542287.9700000007}},{"attributes":{"ID":609034,"DIS_CODE":0,"TOWNNAME":"東區","LI":"裕聖里","LIN":"3鄰","STREET":"裕信路","SECT":" ","MAREA":" ","LANE":" ","ALLEY":" ","HOUSE_NO":"３０７號","E_COORD97":172617.53,"N_COORD97":2542303.8399999999,"ADDRESS":"裕信路３０７號","OBJECTID":609007},"geometry":{"x":172617.53000000212,"y":2542303.8400000017}},{"attributes":{"ID":609035,"DIS_CODE":0,"TOWNNAME":"東區","LI":"裕聖里","LIN":"3鄰","STREET":"裕信路","SECT":" ","MAREA":" ","LANE":" ","ALLEY":" ","HOUSE_NO":"３０９號","E_COORD97":172617.07999999999,"N_COORD97":2542299.6200000001,"ADDRESS":"裕信路３０９號","OBJECTID":609008},"geometry":{"x":172617.08000000101,"y":2542299.6200000029}},{"attributes":{"ID":609036,"DIS_CODE":0,"TOWNNAME":"東區","LI":"裕聖里","LIN":"3鄰","STREET":"裕信路","SECT":" ","MAREA":" ","LANE":" ","ALLEY":" ","HOUSE_NO":"３１１號","E_COORD97":172617.41,"N_COORD97":2542293.2999999998,"ADDRESS":"裕信路３１１號","OBJECTID":609009},"geometry":{"x":172617.41000000015,"y":2542293.3000000007}},{"attributes":{"ID":609037,"DIS_CODE":0,"TOWNNAME":"東區","LI":"裕聖里","LIN":"3鄰","STREET":"裕敬路","SECT":" ","MAREA":" ","LANE":" ","ALLEY":" ","HOUSE_NO":"１７５號","E_COORD97":172830.01999999999,"N_COORD97":2542264.77,"ADDRESS":"裕敬路１７５號","OBJECTID":609010},"geometry":{"x":172830.01999999955,"y":2542264.7699999996}},{"attributes":{"ID":609038,"DIS_CODE":0,"TOWNNAME":"東區","LI":"文聖里","LIN":"3鄰","STREET":"裕農一街","SECT":" ","MAREA":" ","LANE":" ","ALLEY":" ","HOUSE_NO":"１５８號","E_COORD97":171913.16,"N_COORD97":2542787.7200000002,"ADDRESS":"裕農一街１５８號","OBJECTID":609011},"geometry":{"x":171913.16000000108,"y":2542787.7200000007}},{"attributes":{"ID":609039,"DIS_CODE":0,"TOWNNAME":"東區","LI":"裕聖里","LIN":"3鄰","STREET":"裕敬路","SECT":" ","MAREA":" ","LANE":" ","ALLEY":" ","HOUSE_NO":"１７３號","E_COORD97":172822.16,"N_COORD97":2542264.9399999999,"ADDRESS":"裕敬路１７３號","OBJECTID":609012},"geometry":{"x":172822.16000000108,"y":2542264.9400000013}},{"attributes":{"ID":609040,"DIS_CODE":0,"TOWNNAME":"白河區","LI":"秀祐里","LIN":"3鄰","STREET":"舉人街","SECT":" ","MAREA":" ","LANE":" ","ALLEY":" ","HOUSE_NO":"１７３號","E_COORD97":188840.51999999999,"N_COORD97":2583453.0800000001,"ADDRESS":"舉人街１７３號","OBJECTID":609013},"geometry":{"x":188840.52000000048,"y":2583453.0800000001}},{"attributes":{"ID":609041,"DIS_CODE":0,"TOWNNAME":"白河區","LI":"秀祐里","LIN":"3鄰","STREET":"舉人街","SECT":" ","MAREA":" ","LANE":" ","ALLEY":" ","HOUSE_NO":"１７５號","E_COORD97":188835.28,"N_COORD97":2583460.6000000001,"ADDRESS":"舉人街１７５號","OBJECTID":609014},"geometry":{"x":188835.27999999933,"y":2583460.6000000015}},{"attributes":{"ID":609042,"DIS_CODE":0,"TOWNNAME":"白河區","LI":"秀祐里","LIN":"3鄰","STREET":"舉人街","SECT":" ","MAREA":" ","LANE":" ","ALLEY":" ","HOUSE_NO":"１７７號","E_COORD97":188833.22,"N_COORD97":2583465,"ADDRESS":"舉人街１７７號","OBJECTID":609015},"geometry":{"x":188833.21999999974,"y":2583465.0000000019}},{"attributes":{"ID":609043,"DIS_CODE":0,"TOWNNAME":"白河區","LI":"秀祐里","LIN":"3鄰","STREET":"舉人街","SECT":" ","MAREA":" ","LANE":" ","ALLEY":" ","HOUSE_NO":"１７９號","E_COORD97":188830.78,"N_COORD97":2583468.4399999999,"ADDRESS":"舉人街１７９號","OBJECTID":609016},"geometry":{"x":188830.78000000119,"y":2583468.4400000013}},{"attributes":{"ID":609044,"DIS_CODE":0,"TOWNNAME":"白河區","LI":"秀祐里","LIN":"3鄰","STREET":"舉人街","SECT":" ","MAREA":" ","LANE":" ","ALLEY":" ","HOUSE_NO":"１８１號","E_COORD97":188828.26000000001,"N_COORD97":2583472.2200000002,"ADDRESS":"舉人街１８１號","OBJECTID":609017},"geometry":{"x":188828.26000000164,"y":2583472.2200000007}},{"attributes":{"ID":609045,"DIS_CODE":0,"TOWNNAME":"白河區","LI":"秀祐里","LIN":"3鄰","STREET":"舉人街","SECT":" ","MAREA":" ","LANE":" ","ALLEY":" ","HOUSE_NO":"１８３號","E_COORD97":188826.17000000001,"N_COORD97":2583475.3999999999,"ADDRESS":"舉人街１８３號","OBJECTID":609018},"geometry":{"x":188826.17000000086,"y":2583475.4000000004}},{"attributes":{"ID":609046,"DIS_CODE":0,"TOWNNAME":"白河區","LI":"秀祐里","LIN":"3鄰","STREET":"舉人街","SECT":" ","MAREA":" ","LANE":" ","ALLEY":" ","HOUSE_NO":"２２５號","E_COORD97":188763.12,"N_COORD97":2583556.3799999999,"ADDRESS":"舉人街２２５號","OBJECTID":609019},"geometry":{"x":188763.12000000011,"y":2583556.3800000008}},{"attributes":{"ID":609047,"DIS_CODE":0,"TOWNNAME":"白河區","LI":"秀祐里","LIN":"3鄰","STREET":"舉人街","SECT":" ","MAREA":" ","LANE":" ","ALLEY":" ","HOUSE_NO":"２２７號","E_COORD97":188773.64999999999,"N_COORD97":2583560.1600000001,"ADDRESS":"舉人街２２７號","OBJECTID":609020},"geometry":{"x":188773.65000000224,"y":2583560.160000002}},{"attributes":{"ID":609048,"DIS_CODE":0,"TOWNNAME":"白河區","LI":"秀祐里","LIN":"3鄰","STREET":"舉人街","SECT":" ","MAREA":" ","LANE":" ","ALLEY":" ","HOUSE_NO":"２２９號","E_COORD97":188781.95000000001,"N_COORD97":2583566.8199999998,"ADDRESS":"舉人街２２９號","OBJECTID":609021},"geometry":{"x":188781.95000000112,"y":2583566.8200000003}},{"attributes":{"ID":609049,"DIS_CODE":0,"TOWNNAME":"白河區","LI":"秀祐里","LIN":"3鄰","STREET":"舉人街","SECT":" ","MAREA":" ","LANE":" ","ALLEY":" ","HOUSE_NO":"２３１號","E_COORD97":188777.95000000001,"N_COORD97":2583572.6499999999,"ADDRESS":"舉人街２３１號","OBJECTID":609022},"geometry":{"x":188777.95000000019,"y":2583572.6500000041}},{"attributes":{"ID":609050,"DIS_CODE":0,"TOWNNAME":"東區","LI":"龍山里","LIN":"10鄰","STREET":"府東街","SECT":" ","MAREA":" ","LANE":" ","ALLEY":" ","HOUSE_NO":"７０號","E_COORD97":169945.378386,"N_COORD97":2542957.6186899999,"ADDRESS":"府東街７０號","OBJECTID":609023},"geometry":{"x":169945.3783860011,"y":2542957.6186849996}},{"attributes":{"ID":609051,"DIS_CODE":0,"TOWNNAME":"白河區","LI":"秀祐里","LIN":"3鄰","STREET":"舉人街","SECT":" ","MAREA":" ","LANE":" ","ALLEY":" ","HOUSE_NO":"２４３號","E_COORD97":188751.5,"N_COORD97":2583602.8500000001,"ADDRESS":"舉人街２４３號","OBJECTID":609024},"geometry":{"x":188751.5,"y":2583602.8499999996}},{"attributes":{"ID":609052,"DIS_CODE":0,"TOWNNAME":"白河區","LI":"秀祐里","LIN":"3鄰","STREET":"舉人街","SECT":" ","MAREA":" ","LANE":" ","ALLEY":" ","HOUSE_NO":"２４５號","E_COORD97":188751.10999999999,"N_COORD97":2583607.3700000001,"ADDRESS":"舉人街２４５號","OBJECTID":609025},"geometry":{"x":188751.11000000034,"y":2583607.370000001}},{"attributes":{"ID":609053,"DIS_CODE":0,"TOWNNAME":"白河區","LI":"秀祐里","LIN":"3鄰","STREET":"舉人街","SECT":" ","MAREA":" ","LANE":" ","ALLEY":" ","HOUSE_NO":"２４７號","E_COORD97":188750.42000000001,"N_COORD97":2583611.3500000001,"ADDRESS":"舉人街２４７號","OBJECTID":609026},"geometry":{"x":188750.41999999993,"y":2583611.3500000015}},{"attributes":{"ID":609054,"DIS_CODE":0,"TOWNNAME":"白河區","LI":"秀祐里","LIN":"3鄰","STREET":"舉人街","SECT":" ","MAREA":" ","LANE":" ","ALLEY":" ","HOUSE_NO":"２４９號","E_COORD97":188750,"N_COORD97":2583615.8199999998,"ADDRESS":"舉人街２４９號","OBJECTID":609027},"geometry":{"x":188750,"y":2583615.8200000022}},{"attributes":{"ID":609055,"DIS_CODE":0,"TOWNNAME":"白河區","LI":"秀祐里","LIN":"3鄰","STREET":"舉人街","SECT":" ","MAREA":" ","LANE":" ","ALLEY":" ","HOUSE_NO":"２５１號","E_COORD97":188749.17999999999,"N_COORD97":2583620.5600000001,"ADDRESS":"舉人街２５１號","OBJECTID":609028},"geometry":{"x":188749.18000000063,"y":2583620.5600000042}},{"attributes":{"ID":609056,"DIS_CODE":0,"TOWNNAME":"白河區","LI":"秀祐里","LIN":"3鄰","STREET":"舉人街","SECT":" ","MAREA":" ","LANE":" ","ALLEY":" ","HOUSE_NO":"２５２號","E_COORD97":188796.66,"N_COORD97":2583585.2999999998,"ADDRESS":"舉人街２５２號","OBJECTID":609029},"geometry":{"x":188796.66000000015,"y":2583585.3000000045}},{"attributes":{"ID":609057,"DIS_CODE":0,"TOWNNAME":"白河區","LI":"秀祐里","LIN":"3鄰","STREET":"舉人街","SECT":" ","MAREA":" ","LANE":" ","ALLEY":" ","HOUSE_NO":"２５３號","E_COORD97":188748.31,"N_COORD97":2583624.29,"ADDRESS":"舉人街２５３號","OBJECTID":609030},"geometry":{"x":188748.31000000052,"y":2583624.2900000028}},{"attributes":{"ID":609058,"DIS_CODE":0,"TOWNNAME":"白河區","LI":"秀祐里","LIN":"3鄰","STREET":"舉人街","SECT":" ","MAREA":" ","LANE":" ","ALLEY":" ","HOUSE_NO":"２５５號","E_COORD97":188748.28,"N_COORD97":2583627.9900000002,"ADDRESS":"舉人街２５５號","OBJECTID":609031},"geometry":{"x":188748.28000000026,"y":2583627.9900000021}},{"attributes":{"ID":609059,"DIS_CODE":0,"TOWNNAME":"白河區","LI":"秀祐里","LIN":"3鄰","STREET":"舉人街","SECT":" ","MAREA":" ","LANE":" ","ALLEY":" ","HOUSE_NO":"２５６號","E_COORD97":188792.89000000001,"N_COORD97":2583595.21,"ADDRESS":"舉人街２５６號","OBJECTID":609032},"geometry":{"x":188792.88999999966,"y":2583595.2100000009}},{"attributes":{"ID":609060,"DIS_CODE":0,"TOWNNAME":"白河區","LI":"秀祐里","LIN":"3鄰","STREET":"舉人街","SECT":" ","MAREA":" ","LANE":" ","ALLEY":" ","HOUSE_NO":"２５７號","E_COORD97":188747.82999999999,"N_COORD97":2583632.02,"ADDRESS":"舉人街２５７號","OBJECTID":609033},"geometry":{"x":188747.83000000007,"y":2583632.0199999996}},{"attributes":{"ID":609061,"DIS_CODE":0,"TOWNNAME":"白河區","LI":"秀祐里","LIN":"3鄰","STREET":"舉人街","SECT":" ","MAREA":" ","LANE":" ","ALLEY":" ","HOUSE_NO":"２５８號","E_COORD97":188797.39000000001,"N_COORD97":2583604.9100000001,"ADDRESS":"舉人街２５８號","OBJECTID":609034},"geometry":{"x":188797.3900000006,"y":2583604.910000002}},{"attributes":{"ID":609062,"DIS_CODE":0,"TOWNNAME":"東區","LI":"泉南里","LIN":"20鄰","STREET":"府連東路","SECT":" ","MAREA":" ","LANE":" ","ALLEY":" ","HOUSE_NO":"２之１號","E_COORD97":169700.35000000001,"N_COORD97":2542789.3300000001,"ADDRESS":"府連東路２之１號","OBJECTID":609035},"geometry":{"x":169700.34999999963,"y":2542789.3300000019}},{"attributes":{"ID":609063,"DIS_CODE":0,"TOWNNAME":"東區","LI":"崇德里","LIN":"10鄰","STREET":"崇德八街","SECT":" ","MAREA":" ","LANE":" ","ALLEY":" ","HOUSE_NO":"２７號","E_COORD97":170879.45999999999,"N_COORD97":2541628.8599999999,"ADDRESS":"崇德八街２７號","OBJECTID":609036},"geometry":{"x":170879.45999999996,"y":2541628.8600000013}},{"attributes":{"ID":609064,"DIS_CODE":0,"TOWNNAME":"東區","LI":"中西里","LIN":"10鄰","STREET":"勝利路","SECT":" ","MAREA":" ","LANE":" ","ALLEY":" ","HOUSE_NO":"２０之１３號","E_COORD97":169896.81,"N_COORD97":2543417.4300000002,"ADDRESS":"勝利路２０之１３號","OBJECTID":609037},"geometry":{"x":169896.80999999959,"y":2543417.4300000034}},{"attributes":{"ID":609065,"DIS_CODE":0,"TOWNNAME":"東區","LI":"中西里","LIN":"10鄰","STREET":"勝利路","SECT":" ","MAREA":" ","LANE":" ","ALLEY":" ","HOUSE_NO":"２０之１５號","E_COORD97":169891.67000000001,"N_COORD97":2543422.7400000002,"ADDRESS":"勝利路２０之１５號","OBJECTID":609038},"geometry":{"x":169891.66999999993,"y":2543422.7400000039}},{"attributes":{"ID":609066,"DIS_CODE":0,"TOWNNAME":"東區","LI":"中西里","LIN":"10鄰","STREET":"勝利路","SECT":" ","MAREA":" ","LANE":" ","ALLEY":" ","HOUSE_NO":"２０之１６號","E_COORD97":169887.81,"N_COORD97":2543427.1400000001,"ADDRESS":"勝利路２０之１６號","OBJECTID":609039},"geometry":{"x":169887.81000000052,"y":2543427.1400000043}},{"attributes":{"ID":609067,"DIS_CODE":0,"TOWNNAME":"東區","LI":"中西里","LIN":"10鄰","STREET":"勝利路","SECT":" ","MAREA":" ","LANE":" ","ALLEY":" ","HOUSE_NO":"２０之１７號","E_COORD97":169885.42999999999,"N_COORD97":2543431.9100000001,"ADDRESS":"勝利路２０之１７號","OBJECTID":609040},"geometry":{"x":169885.43000000063,"y":2543431.9100000039}},{"attributes":{"ID":609068,"DIS_CODE":0,"TOWNNAME":"東區","LI":"中西里","LIN":"10鄰","STREET":"勝利路","SECT":" ","MAREA":" ","LANE":" ","ALLEY":" ","HOUSE_NO":"２０之１８號","E_COORD97":169883.59,"N_COORD97":2543436.3100000001,"ADDRESS":"勝利路２０之１８號","OBJECTID":609041},"geometry":{"x":169883.58999999985,"y":2543436.3100000042}},{"attributes":{"ID":609069,"DIS_CODE":0,"TOWNNAME":"東區","LI":"中西里","LIN":"10鄰","STREET":"勝利路","SECT":" ","MAREA":" ","LANE":" ","ALLEY":" ","HOUSE_NO":"２０之１９號","E_COORD97":169881.94,"N_COORD97":2543440.8900000001,"ADDRESS":"勝利路２０之１９號","OBJECTID":609042},"geometry":{"x":169881.94000000041,"y":2543440.8900000006}},{"attributes":{"ID":609070,"DIS_CODE":0,"TOWNNAME":"東區","LI":"中西里","LIN":"10鄰","STREET":"勝利路","SECT":" ","MAREA":" ","LANE":" ","ALLEY":" ","HOUSE_NO":"２０之２０號","E_COORD97":169881.94,"N_COORD97":2543447.3100000001,"ADDRESS":"勝利路２０之２０號","OBJECTID":609043},"geometry":{"x":169881.94000000041,"y":2543447.3100000024}},{"attributes":{"ID":609071,"DIS_CODE":0,"TOWNNAME":"東區","LI":"中西里","LIN":"10鄰","STREET":"勝利路","SECT":" ","MAREA":" ","LANE":" ","ALLEY":" ","HOUSE_NO":"２０之２１號","E_COORD97":169887.07999999999,"N_COORD97":2543450.6099999999,"ADDRESS":"勝利路２０之２１號","OBJECTID":609044},"geometry":{"x":169887.08000000007,"y":2543450.6100000013}},{"attributes":{"ID":609072,"DIS_CODE":0,"TOWNNAME":"東區","LI":"中西里","LIN":"10鄰","STREET":"勝利路","SECT":" ","MAREA":" ","LANE":" ","ALLEY":" ","HOUSE_NO":"２０之２２號","E_COORD97":169891.29999999999,"N_COORD97":2543446.9399999999,"ADDRESS":"勝利路２０之２２號","OBJECTID":609045},"geometry":{"x":169891.30000000075,"y":2543446.9399999995}},{"attributes":{"ID":609073,"DIS_CODE":0,"TOWNNAME":"東區","LI":"中西里","LIN":"10鄰","STREET":"勝利路","SECT":" ","MAREA":" ","LANE":" ","ALLEY":" ","HOUSE_NO":"２０之２３號","E_COORD97":169894.60999999999,"N_COORD97":2543443.2799999998,"ADDRESS":"勝利路２０之２３號","OBJECTID":609046},"geometry":{"x":169894.6100000022,"y":2543443.2800000012}},{"attributes":{"ID":609074,"DIS_CODE":0,"TOWNNAME":"東區","LI":"中西里","LIN":"10鄰","STREET":"勝利路","SECT":" ","MAREA":" ","LANE":" ","ALLEY":" ","HOUSE_NO":"２０之２５號","E_COORD97":169897.73000000001,"N_COORD97":2543439.6099999999,"ADDRESS":"勝利路２０之２５號","OBJECTID":609047},"geometry":{"x":169897.73000000138,"y":2543439.6100000031}},{"attributes":{"ID":609075,"DIS_CODE":0,"TOWNNAME":"東區","LI":"中西里","LIN":"10鄰","STREET":"勝利路","SECT":" ","MAREA":" ","LANE":" ","ALLEY":" ","HOUSE_NO":"２０之２６號","E_COORD97":169900.66,"N_COORD97":2543435.3900000001,"ADDRESS":"勝利路２０之２６號","OBJECTID":609048},"geometry":{"x":169900.65999999922,"y":2543435.3900000006}},{"attributes":{"ID":609076,"DIS_CODE":0,"TOWNNAME":"白河區","LI":"白河里","LIN":"3鄰","STREET":"十全街","SECT":" ","MAREA":" ","LANE":" ","ALLEY":" ","HOUSE_NO":"３７號","E_COORD97":190273.51999999999,"N_COORD97":2582676.0899999999,"ADDRESS":"十全街３７號","OBJECTID":609049},"geometry":{"x":190273.51999999955,"y":2582676.0899999999}},{"attributes":{"ID":609077,"DIS_CODE":0,"TOWNNAME":"東區","LI":"崇明里","LIN":"20鄰","STREET":"中華東路","SECT":"三段","MAREA":" ","LANE":" ","ALLEY":" ","HOUSE_NO":"３７９號","E_COORD97":170164.01000000001,"N_COORD97":2541573.0800000001,"ADDRESS":"中華東路三段３７９號","OBJECTID":609050},"geometry":{"x":170164.00999999978,"y":2541573.0800000019}},{"attributes":{"ID":609078,"DIS_CODE":0,"TOWNNAME":"東區","LI":"崇明里","LIN":"20鄰","STREET":"中華東路","SECT":"三段","MAREA":" ","LANE":" ","ALLEY":" ","HOUSE_NO":"３８１號","E_COORD97":170147.03,"N_COORD97":2541569.6099999999,"ADDRESS":"中華東路三段３８１號","OBJECTID":609051},"geometry":{"x":170147.03000000026,"y":2541569.6100000013}},{"attributes":{"ID":609079,"DIS_CODE":0,"TOWNNAME":"東區","LI":"崇明里","LIN":"20鄰","STREET":"中華東路","SECT":"三段","MAREA":" ","LANE":" ","ALLEY":" ","HOUSE_NO":"３８３號","E_COORD97":170128.66,"N_COORD97":2541565.46,"ADDRESS":"中華東路三段３８３號","OBJECTID":609052},"geometry":{"x":170128.66000000108,"y":2541565.4600000028}},{"attributes":{"ID":609080,"DIS_CODE":0,"TOWNNAME":"東區","LI":"崇明里","LIN":"20鄰","STREET":"中華東路","SECT":"三段","MAREA":" ","LANE":" ","ALLEY":" ","HOUSE_NO":"３８５號","E_COORD97":170117.04999999999,"N_COORD97":2541562.3399999999,"ADDRESS":"中華東路三段３８５號","OBJECTID":609053},"geometry":{"x":170117.05000000075,"y":2541562.3399999999}},{"attributes":{"ID":609081,"DIS_CODE":0,"TOWNNAME":"東區","LI":"崇明里","LIN":"20鄰","STREET":"中華東路","SECT":"三段","MAREA":" ","LANE":" ","ALLEY":" ","HOUSE_NO":"３８７號","E_COORD97":170104.39999999999,"N_COORD97":2541559.7400000002,"ADDRESS":"中華東路三段３８７號","OBJECTID":609054},"geometry":{"x":170104.39999999944,"y":2541559.7400000021}},{"attributes":{"ID":609082,"DIS_CODE":0,"TOWNNAME":"東區","LI":"崇明里","LIN":"20鄰","STREET":"中華東路","SECT":"三段","MAREA":" ","LANE":" ","ALLEY":" ","HOUSE_NO":"３８９號","E_COORD97":170089.14000000001,"N_COORD97":2541556.4500000002,"ADDRESS":"中華東路三段３８９號","OBJECTID":609055},"geometry":{"x":170089.1400000006,"y":2541556.4500000011}},{"attributes":{"ID":609083,"DIS_CODE":0,"TOWNNAME":"東區","LI":"崇明里","LIN":"20鄰","STREET":"中華東路","SECT":"三段","MAREA":" ","LANE":" ","ALLEY":" ","HOUSE_NO":"３９１號","E_COORD97":170075.28,"N_COORD97":2541554.0299999998,"ADDRESS":"中華東路三段３９１號","OBJECTID":609056},"geometry":{"x":170075.28000000119,"y":2541554.0299999993}},{"attributes":{"ID":609084,"DIS_CODE":0,"TOWNNAME":"東區","LI":"東明里","LIN":"13鄰","STREET":"凱旋路","SECT":" ","MAREA":" ","LANE":" ","ALLEY":" ","HOUSE_NO":"２２９號地下一層","E_COORD97":170740.56,"N_COORD97":2543764.7999999998,"ADDRESS":"凱旋路２２９號地下一層","OBJECTID":609057},"geometry":{"x":170740.56000000052,"y":2543764.8000000007}},{"attributes":{"ID":609085,"DIS_CODE":0,"TOWNNAME":"東區","LI":"東明里","LIN":"13鄰","STREET":"東安路","SECT":" ","MAREA":" ","LANE":" ","ALLEY":" ","HOUSE_NO":"９６號地下一層","E_COORD97":170736.76000000001,"N_COORD97":2543730.4700000002,"ADDRESS":"東安路９６號地下一層","OBJECTID":609058},"geometry":{"x":170736.75999999978,"y":2543730.4700000025}},{"attributes":{"ID":609086,"DIS_CODE":0,"TOWNNAME":"東區","LI":"東明里","LIN":"13鄰","STREET":"東安路","SECT":" ","MAREA":" ","LANE":" ","ALLEY":" ","HOUSE_NO":"９６號地下一層之１","E_COORD97":170736.76000000001,"N_COORD97":2543730.4700000002,"ADDRESS":"東安路９６號地下一層之１","OBJECTID":609059},"geometry":{"x":170736.75999999978,"y":2543730.4700000025}},{"attributes":{"ID":609087,"DIS_CODE":0,"TOWNNAME":"東區","LI":"圍下里","LIN":"3鄰","STREET":"東榮街","SECT":" ","MAREA":" ","LANE":" ","ALLEY":" ","HOUSE_NO":"３７號","E_COORD97":169560.76999999999,"N_COORD97":2543412.8900000001,"ADDRESS":"東榮街３７號","OBJECTID":609060},"geometry":{"x":169560.77000000048,"y":2543412.8900000025}},{"attributes":{"ID":609088,"DIS_CODE":0,"TOWNNAME":"東區","LI":"德高里","LIN":"14鄰","STREET":"仁和路","SECT":" ","MAREA":" ","LANE":" ","ALLEY":" ","HOUSE_NO":"１９７號","E_COORD97":171645,"N_COORD97":2540848.7000000002,"ADDRESS":"仁和路１９７號","OBJECTID":609061},"geometry":{"x":171645.00000000093,"y":2540848.700000003}},{"attributes":{"ID":609089,"DIS_CODE":0,"TOWNNAME":"東區","LI":"圍下里","LIN":"15鄰","STREET":"育樂街","SECT":" ","MAREA":" ","LANE":" ","ALLEY":" ","HOUSE_NO":"２５０號","E_COORD97":169463.04000000001,"N_COORD97":2543610.1200000001,"ADDRESS":"育樂街２５０號","OBJECTID":609062},"geometry":{"x":169463.04000000097,"y":2543610.120000001}},{"attributes":{"ID":609090,"DIS_CODE":0,"TOWNNAME":"東區","LI":"龍山里","LIN":"21鄰","STREET":"東門路","SECT":"二段","MAREA":" ","LANE":" ","ALLEY":" ","HOUSE_NO":"２６２號","E_COORD97":170524.95000000001,"N_COORD97":2542758.6400000001,"ADDRESS":"東門路二段２６２號","OBJECTID":609063},"geometry":{"x":170524.95000000112,"y":2542758.6400000006}},{"attributes":{"ID":609091,"DIS_CODE":0,"TOWNNAME":"東區","LI":"崇善里","LIN":"23鄰","STREET":"崇善路","SECT":" ","MAREA":" ","LANE":" ","ALLEY":" ","HOUSE_NO":"７４１號","E_COORD97":171180.35000000001,"N_COORD97":2541016.1800000002,"ADDRESS":"崇善路７４１號","OBJECTID":609064},"geometry":{"x":171180.34999999963,"y":2541016.1800000016}},{"attributes":{"ID":609092,"DIS_CODE":0,"TOWNNAME":"東區","LI":"關聖里","LIN":"11鄰","STREET":"裕農二街","SECT":" ","MAREA":" ","LANE":" ","ALLEY":" ","HOUSE_NO":"９６之１號","E_COORD97":171962,"N_COORD97":2542978.6800000002,"ADDRESS":"裕農二街９６之１號","OBJECTID":609065},"geometry":{"x":171962.00000000093,"y":2542978.6800000034}},{"attributes":{"ID":609093,"DIS_CODE":0,"TOWNNAME":"東區","LI":"圍下里","LIN":"3鄰","STREET":"東榮街","SECT":" ","MAREA":" ","LANE":" ","ALLEY":" ","HOUSE_NO":"３９號","E_COORD97":169560.13,"N_COORD97":2543408.29,"ADDRESS":"東榮街３９號","OBJECTID":609066},"geometry":{"x":169560.13000000082,"y":2543408.290000001}},{"attributes":{"ID":609094,"DIS_CODE":0,"TOWNNAME":"東區","LI":"崇善里","LIN":"1鄰","STREET":"中華東路","SECT":"三段","MAREA":" ","LANE":" ","ALLEY":" ","HOUSE_NO":"１１１號","E_COORD97":170790.03,"N_COORD97":2542123.1000000001,"ADDRESS":"中華東路三段１１１號","OBJECTID":609067},"geometry":{"x":170790.03000000212,"y":2542123.0999999996}},{"attributes":{"ID":609095,"DIS_CODE":0,"TOWNNAME":"東區","LI":"後甲里","LIN":"3鄰","STREET":"裕農路","SECT":" ","MAREA":" ","LANE":" ","ALLEY":" ","HOUSE_NO":"６２３號","E_COORD97":171636.85999999999,"N_COORD97":2543242.3300000001,"ADDRESS":"裕農路６２３號","OBJECTID":609068},"geometry":{"x":171636.86000000034,"y":2543242.3300000038}},{"attributes":{"ID":609096,"DIS_CODE":0,"TOWNNAME":"東區","LI":"後甲里","LIN":"3鄰","STREET":"裕農路","SECT":" ","MAREA":" ","LANE":" ","ALLEY":" ","HOUSE_NO":"６２５號","E_COORD97":171643.13,"N_COORD97":2543241.6099999999,"ADDRESS":"裕農路６２５號","OBJECTID":609069},"geometry":{"x":171643.12999999989,"y":2543241.6099999994}},{"attributes":{"ID":609097,"DIS_CODE":0,"TOWNNAME":"東區","LI":"後甲里","LIN":"3鄰","STREET":"裕農路","SECT":" ","MAREA":" ","LANE":" ","ALLEY":" ","HOUSE_NO":"６２９號","E_COORD97":171653.01999999999,"N_COORD97":2543241.6099999999,"ADDRESS":"裕農路６２９號","OBJECTID":609070},"geometry":{"x":171653.02000000048,"y":2543241.6099999994}},{"attributes":{"ID":609098,"DIS_CODE":0,"TOWNNAME":"東區","LI":"後甲里","LIN":"3鄰","STREET":"裕農路","SECT":" ","MAREA":" ","LANE":" ","ALLEY":" ","HOUSE_NO":"６３５號","E_COORD97":171663.64000000001,"N_COORD97":2543242.3300000001,"ADDRESS":"裕農路６３５號","OBJECTID":609071},"geometry":{"x":171663.6400000006,"y":2543242.3300000038}},{"attributes":{"ID":609099,"DIS_CODE":0,"TOWNNAME":"東區","LI":"後甲里","LIN":"3鄰","STREET":"裕農路","SECT":" ","MAREA":" ","LANE":" ","ALLEY":" ","HOUSE_NO":"６４５號","E_COORD97":171680.28,"N_COORD97":2543242.3300000001,"ADDRESS":"裕農路６４５號","OBJECTID":609072},"geometry":{"x":171680.28000000119,"y":2543242.3300000038}},{"attributes":{"ID":609100,"DIS_CODE":0,"TOWNNAME":"東區","LI":"後甲里","LIN":"3鄰","STREET":"裕農路","SECT":" ","MAREA":" ","LANE":" ","ALLEY":" ","HOUSE_NO":"６５１號","E_COORD97":171695.23999999999,"N_COORD97":2543243.54,"ADDRESS":"裕農路６５１號","OBJECTID":609073},"geometry":{"x":171695.24000000022,"y":2543243.540000001}},{"attributes":{"ID":609101,"DIS_CODE":0,"TOWNNAME":"東區","LI":"後甲里","LIN":"3鄰","STREET":"裕農路","SECT":" ","MAREA":" ","LANE":" ","ALLEY":" ","HOUSE_NO":"６４９號","E_COORD97":171691.14000000001,"N_COORD97":2543244.02,"ADDRESS":"裕農路６４９號","OBJECTID":609074},"geometry":{"x":171691.1400000006,"y":2543244.0200000033}},{"attributes":{"ID":609102,"DIS_CODE":0,"TOWNNAME":"東區","LI":"泉南里","LIN":"3鄰","STREET":"光華街","SECT":" ","MAREA":" ","LANE":" ","ALLEY":" ","HOUSE_NO":"１７４號","E_COORD97":169512.82000000001,"N_COORD97":2543041.5800000001,"ADDRESS":"光華街１７４號","OBJECTID":609075},"geometry":{"x":169512.8200000003,"y":2543041.5800000019}},{"attributes":{"ID":609103,"DIS_CODE":0,"TOWNNAME":"東區","LI":"泉南里","LIN":"3鄰","STREET":"光華街","SECT":" ","MAREA":" ","LANE":" ","ALLEY":" ","HOUSE_NO":"１７６號","E_COORD97":169504.91,"N_COORD97":2543044.7400000002,"ADDRESS":"光華街１７６號","OBJECTID":609076},"geometry":{"x":169504.91000000108,"y":2543044.7400000002}},{"attributes":{"ID":609104,"DIS_CODE":0,"TOWNNAME":"東區","LI":"圍下里","LIN":"3鄰","STREET":"東榮街","SECT":" ","MAREA":" ","LANE":" ","ALLEY":" ","HOUSE_NO":"１５號","E_COORD97":169564.75,"N_COORD97":2543460.2799999998,"ADDRESS":"東榮街１５號","OBJECTID":609077},"geometry":{"x":169564.75000000093,"y":2543460.2800000012}},{"attributes":{"ID":609105,"DIS_CODE":0,"TOWNNAME":"東區","LI":"圍下里","LIN":"3鄰","STREET":"東榮街","SECT":" ","MAREA":" ","LANE":" ","ALLEY":" ","HOUSE_NO":"１９號","E_COORD97":169563.16,"N_COORD97":2543452.9900000002,"ADDRESS":"東榮街１９號","OBJECTID":609078},"geometry":{"x":169563.16000000015,"y":2543452.9900000021}},{"attributes":{"ID":609106,"DIS_CODE":0,"TOWNNAME":"東區","LI":"圍下里","LIN":"3鄰","STREET":"東榮街","SECT":" ","MAREA":" ","LANE":" ","ALLEY":" ","HOUSE_NO":"２１號","E_COORD97":169563.63,"N_COORD97":2543447.8399999999,"ADDRESS":"東榮街２１號","OBJECTID":609079},"geometry":{"x":169563.63000000082,"y":2543447.8399999999}},{"attributes":{"ID":609107,"DIS_CODE":0,"TOWNNAME":"東區","LI":"圍下里","LIN":"3鄰","STREET":"東榮街","SECT":" ","MAREA":" ","LANE":" ","ALLEY":" ","HOUSE_NO":"３１號","E_COORD97":169568.87,"N_COORD97":2543428.52,"ADDRESS":"東榮街３１號","OBJECTID":609080},"geometry":{"x":169568.87000000197,"y":2543428.5200000014}},{"attributes":{"ID":609108,"DIS_CODE":0,"TOWNNAME":"東區","LI":"圍下里","LIN":"3鄰","STREET":"東榮街","SECT":" ","MAREA":" ","LANE":" ","ALLEY":" ","HOUSE_NO":"３３號","E_COORD97":169560.45999999999,"N_COORD97":2543421.71,"ADDRESS":"東榮街３３號","OBJECTID":609081},"geometry":{"x":169560.45999999996,"y":2543421.7100000028}},{"attributes":{"ID":609109,"DIS_CODE":0,"TOWNNAME":"東區","LI":"圍下里","LIN":"3鄰","STREET":"東榮街","SECT":" ","MAREA":" ","LANE":" ","ALLEY":" ","HOUSE_NO":"４７號","E_COORD97":169580.42999999999,"N_COORD97":2543387.5499999998,"ADDRESS":"東榮街４７號","OBJECTID":609082},"geometry":{"x":169580.43000000063,"y":2543387.5500000045}},{"attributes":{"ID":609110,"DIS_CODE":0,"TOWNNAME":"東區","LI":"圍下里","LIN":"3鄰","STREET":"東榮街","SECT":" ","MAREA":" ","LANE":" ","ALLEY":" ","HOUSE_NO":"４９號","E_COORD97":169586.78,"N_COORD97":2543387.5499999998,"ADDRESS":"東榮街４９號","OBJECTID":609083},"geometry":{"x":169586.78000000119,"y":2543387.5500000045}},{"attributes":{"ID":609111,"DIS_CODE":0,"TOWNNAME":"東區","LI":"圍下里","LIN":"3鄰","STREET":"東榮街","SECT":" ","MAREA":" ","LANE":" ","ALLEY":" ","HOUSE_NO":"５５號","E_COORD97":169557.12,"N_COORD97":2543375.46,"ADDRESS":"東榮街５５號","OBJECTID":609084},"geometry":{"x":169557.12000000104,"y":2543375.4600000028}},{"attributes":{"ID":609112,"DIS_CODE":0,"TOWNNAME":"東區","LI":"圍下里","LIN":"3鄰","STREET":"東榮街","SECT":" ","MAREA":" ","LANE":" ","ALLEY":" ","HOUSE_NO":"６３號","E_COORD97":169588.84,"N_COORD97":2543371.02,"ADDRESS":"東榮街６３號","OBJECTID":609085},"geometry":{"x":169588.83999999985,"y":2543371.0199999996}},{"attributes":{"ID":609113,"DIS_CODE":0,"TOWNNAME":"東區","LI":"圍下里","LIN":"3鄰","STREET":"東榮街","SECT":" ","MAREA":" ","LANE":" ","ALLEY":" ","HOUSE_NO":"１７號","E_COORD97":169563.95000000001,"N_COORD97":2543456.6400000001,"ADDRESS":"東榮街１７號","OBJECTID":609086},"geometry":{"x":169563.95000000112,"y":2543456.6400000006}},{"attributes":{"ID":609114,"DIS_CODE":0,"TOWNNAME":"東區","LI":"圍下里","LIN":"3鄰","STREET":"東榮街","SECT":" ","MAREA":" ","LANE":" ","ALLEY":" ","HOUSE_NO":"４１號","E_COORD97":169559.82000000001,"N_COORD97":2543403.7000000002,"ADDRESS":"東榮街４１號","OBJECTID":609087},"geometry":{"x":169559.82000000123,"y":2543403.6999999993}},{"attributes":{"ID":609115,"DIS_CODE":0,"TOWNNAME":"東區","LI":"圍下里","LIN":"3鄰","STREET":"東榮街","SECT":" ","MAREA":" ","LANE":" ","ALLEY":" ","HOUSE_NO":"４３號","E_COORD97":169565.84,"N_COORD97":2543395.3100000001,"ADDRESS":"東榮街４３號","OBJECTID":609088},"geometry":{"x":169565.84000000078,"y":2543395.3099999987}},{"attributes":{"ID":609116,"DIS_CODE":0,"TOWNNAME":"東區","LI":"圍下里","LIN":"3鄰","STREET":"東榮街","SECT":" ","MAREA":" ","LANE":" ","ALLEY":" ","HOUSE_NO":"５７號","E_COORD97":169556.01000000001,"N_COORD97":2543372.4500000002,"ADDRESS":"東榮街５７號","OBJECTID":609089},"geometry":{"x":169556.01000000071,"y":2543372.4499999993}},{"attributes":{"ID":609117,"DIS_CODE":0,"TOWNNAME":"東區","LI":"圍下里","LIN":"3鄰","STREET":"東榮街","SECT":" ","MAREA":" ","LANE":" ","ALLEY":" ","HOUSE_NO":"６１號","E_COORD97":169583.44,"N_COORD97":2543371.3399999999,"ADDRESS":"東榮街６１號","OBJECTID":609090},"geometry":{"x":169583.44000000041,"y":2543371.3400000017}},{"attributes":{"ID":609118,"DIS_CODE":0,"TOWNNAME":"東區","LI":"後甲里","LIN":"3鄰","STREET":"裕農路","SECT":" ","MAREA":" ","LANE":" ","ALLEY":" ","HOUSE_NO":"６５３號","E_COORD97":171699.57999999999,"N_COORD97":2543243.7799999998,"ADDRESS":"裕農路６５３號","OBJECTID":609091},"geometry":{"x":171699.58000000007,"y":2543243.7799999993}},{"attributes":{"ID":609119,"DIS_CODE":0,"TOWNNAME":"東區","LI":"大德里","LIN":"3鄰","STREET":"立德八路","SECT":" ","MAREA":" ","LANE":" ","ALLEY":" ","HOUSE_NO":"１１號","E_COORD97":169444.92999999999,"N_COORD97":2541925.5499999998,"ADDRESS":"立德八路１１號","OBJECTID":609092},"geometry":{"x":169444.93000000063,"y":2541925.5500000007}},{"attributes":{"ID":609120,"DIS_CODE":0,"TOWNNAME":"東區","LI":"大德里","LIN":"3鄰","STREET":"立德八路","SECT":" ","MAREA":" ","LANE":" ","ALLEY":" ","HOUSE_NO":"１７號之１","E_COORD97":169461.07000000001,"N_COORD97":2541929.7000000002,"ADDRESS":"立德八路１７號之１","OBJECTID":609093},"geometry":{"x":169461.07000000123,"y":2541929.6999999993}},{"attributes":{"ID":609121,"DIS_CODE":0,"TOWNNAME":"東區","LI":"大德里","LIN":"3鄰","STREET":"立德八路","SECT":" ","MAREA":" ","LANE":" ","ALLEY":" ","HOUSE_NO":"１３號","E_COORD97":169451.04000000001,"N_COORD97":2541927.75,"ADDRESS":"立德八路１３號","OBJECTID":609094},"geometry":{"x":169451.04000000097,"y":2541927.7500000019}},{"attributes":{"ID":609122,"DIS_CODE":0,"TOWNNAME":"東區","LI":"大德里","LIN":"3鄰","STREET":"立德八路","SECT":" ","MAREA":" ","LANE":" ","ALLEY":" ","HOUSE_NO":"１５號","E_COORD97":169455.94,"N_COORD97":2541928.23,"ADDRESS":"立德八路１５號","OBJECTID":609095},"geometry":{"x":169455.94000000041,"y":2541928.2300000023}},{"attributes":{"ID":609123,"DIS_CODE":0,"TOWNNAME":"東區","LI":"大德里","LIN":"3鄰","STREET":"立德八路","SECT":" ","MAREA":" ","LANE":" ","ALLEY":" ","HOUSE_NO":"１９號","E_COORD97":169464.5,"N_COORD97":2541930.6800000002,"ADDRESS":"立德八路１９號","OBJECTID":609096},"geometry":{"x":169464.50000000093,"y":2541930.6799999978}},{"attributes":{"ID":609124,"DIS_CODE":0,"TOWNNAME":"東區","LI":"大德里","LIN":"3鄰","STREET":"立德八路","SECT":" ","MAREA":" ","LANE":" ","ALLEY":" ","HOUSE_NO":"７號","E_COORD97":169434.89999999999,"N_COORD97":2541924.0800000001,"ADDRESS":"立德八路７號","OBJECTID":609097},"geometry":{"x":169434.90000000224,"y":2541924.0800000001}},{"attributes":{"ID":609125,"DIS_CODE":0,"TOWNNAME":"東區","LI":"大德里","LIN":"3鄰","STREET":"立德八路","SECT":" ","MAREA":" ","LANE":" ","ALLEY":" ","HOUSE_NO":"９號","E_COORD97":169441.01999999999,"N_COORD97":2541925.0600000001,"ADDRESS":"立德八路９號","OBJECTID":609098},"geometry":{"x":169441.01999999955,"y":2541925.0600000005}},{"attributes":{"ID":609126,"DIS_CODE":0,"TOWNNAME":"東區","LI":"大德里","LIN":"3鄰","STREET":"立德八路","SECT":" ","MAREA":" ","LANE":" ","ALLEY":" ","HOUSE_NO":"５號","E_COORD97":169430.75,"N_COORD97":2541923.1099999999,"ADDRESS":"立德八路５號","OBJECTID":609099},"geometry":{"x":169430.75000000093,"y":2541923.1099999994}},{"attributes":{"ID":609127,"DIS_CODE":0,"TOWNNAME":"東區","LI":"後甲里","LIN":"3鄰","STREET":"裕農路","SECT":" ","MAREA":" ","LANE":" ","ALLEY":" ","HOUSE_NO":"６４１號","E_COORD97":171673.53,"N_COORD97":2543242.0899999999,"ADDRESS":"裕農路６４１號","OBJECTID":609100},"geometry":{"x":171673.53000000119,"y":2543242.0899999999}},{"attributes":{"ID":609128,"DIS_CODE":0,"TOWNNAME":"東區","LI":"後甲里","LIN":"3鄰","STREET":"裕農路","SECT":" ","MAREA":" ","LANE":" ","ALLEY":" ","HOUSE_NO":"６４３號","E_COORD97":171676.91,"N_COORD97":2543242.8100000001,"ADDRESS":"裕農路６４３號","OBJECTID":609101},"geometry":{"x":171676.91000000015,"y":2543242.8100000042}},{"attributes":{"ID":609129,"DIS_CODE":0,"TOWNNAME":"東區","LI":"圍下里","LIN":"3鄰","STREET":"東榮街","SECT":" ","MAREA":" ","LANE":" ","ALLEY":" ","HOUSE_NO":"６５號","E_COORD97":169597.72,"N_COORD97":2543374.5099999998,"ADDRESS":"東榮街６５號","OBJECTID":609102},"geometry":{"x":169597.71999999974,"y":2543374.5100000016}},{"attributes":{"ID":609130,"DIS_CODE":0,"TOWNNAME":"東區","LI":"圍下里","LIN":"3鄰","STREET":"東榮街","SECT":" ","MAREA":" ","LANE":" ","ALLEY":" ","HOUSE_NO":"６５號之１","E_COORD97":169585.03,"N_COORD97":2543380.1099999999,"ADDRESS":"東榮街６５號之１","OBJECTID":609103},"geometry":{"x":169585.03000000119,"y":2543380.1100000013}},{"attributes":{"ID":609131,"DIS_CODE":0,"TOWNNAME":"東區","LI":"崇善里","LIN":"25鄰","STREET":"崇善東路","SECT":" ","MAREA":" ","LANE":" ","ALLEY":" ","HOUSE_NO":"９號","E_COORD97":171294.82000000001,"N_COORD97":2540891.5600000001,"ADDRESS":"崇善東路９號","OBJECTID":609104},"geometry":{"x":171294.8200000003,"y":2540891.5600000042}},{"attributes":{"ID":609132,"DIS_CODE":0,"TOWNNAME":"東區","LI":"崇善里","LIN":"25鄰","STREET":"崇善東路","SECT":" ","MAREA":" ","LANE":" ","ALLEY":" ","HOUSE_NO":"１１號","E_COORD97":171297.62,"N_COORD97":2540895.9100000001,"ADDRESS":"崇善東路１１號","OBJECTID":609105},"geometry":{"x":171297.62000000011,"y":2540895.9100000039}},{"attributes":{"ID":609133,"DIS_CODE":0,"TOWNNAME":"東區","LI":"崇善里","LIN":"25鄰","STREET":"崇善東路","SECT":" ","MAREA":" ","LANE":" ","ALLEY":" ","HOUSE_NO":"１３號","E_COORD97":171303.22,"N_COORD97":2540902.75,"ADDRESS":"崇善東路１３號","OBJECTID":609106},"geometry":{"x":171303.21999999974,"y":2540902.75}},{"attributes":{"ID":609134,"DIS_CODE":0,"TOWNNAME":"東區","LI":"崇善里","LIN":"23鄰","STREET":"崇善十二街","SECT":" ","MAREA":" ","LANE":" ","ALLEY":" ","HOUSE_NO":"６６號","E_COORD97":171370.67000000001,"N_COORD97":2541155.1600000001,"ADDRESS":"崇善十二街６６號","OBJECTID":609107},"geometry":{"x":171370.67000000086,"y":2541155.1600000039}},{"attributes":{"ID":609135,"DIS_CODE":0,"TOWNNAME":"安南區","LI":"總頭里","LIN":"3鄰","STREET":"總安街","SECT":"二段","MAREA":" ","LANE":" ","ALLEY":" ","HOUSE_NO":"３７０號","E_COORD97":168300.01000000001,"N_COORD97":2550516.6000000001,"ADDRESS":"總安街二段３７０號","OBJECTID":609108},"geometry":{"x":168300.01000000071,"y":2550516.6000000015}},{"attributes":{"ID":609136,"DIS_CODE":0,"TOWNNAME":"安南區","LI":"總頭里","LIN":"3鄰","STREET":"總安街","SECT":"二段","MAREA":" ","LANE":" ","ALLEY":" ","HOUSE_NO":"３７２號","E_COORD97":168299.56,"N_COORD97":2550526.0699999998,"ADDRESS":"總安街二段３７２號","OBJECTID":609109},"geometry":{"x":168299.56000000052,"y":2550526.0700000003}},{"attributes":{"ID":609137,"DIS_CODE":0,"TOWNNAME":"善化區","LI":"坐駕里","LIN":"3鄰","STREET":"光明路","SECT":" ","MAREA":" ","LANE":" ","ALLEY":" ","HOUSE_NO":"５２號","E_COORD97":177783.81,"N_COORD97":2558964.5,"ADDRESS":"光明路５２號","OBJECTID":609110},"geometry":{"x":177783.81000000052,"y":2558964.5}},{"attributes":{"ID":609138,"DIS_CODE":0,"TOWNNAME":"善化區","LI":"文昌里","LIN":"3鄰","STREET":"中華路","SECT":" ","MAREA":" ","LANE":" ","ALLEY":" ","HOUSE_NO":"１２０號","E_COORD97":177237.12,"N_COORD97":2558989.4900000002,"ADDRESS":"中華路１２０號","OBJECTID":609111},"geometry":{"x":177237.12000000011,"y":2558989.4899999984}},{"attributes":{"ID":609139,"DIS_CODE":0,"TOWNNAME":"善化區","LI":"坐駕里","LIN":"3鄰","STREET":"中正路","SECT":" ","MAREA":" ","LANE":" ","ALLEY":" ","HOUSE_NO":"４７６號之１","E_COORD97":177696.48000000001,"N_COORD97":2559046.27,"ADDRESS":"中正路４７６號之１","OBJECTID":609112},"geometry":{"x":177696.48000000045,"y":2559046.2700000014}},{"attributes":{"ID":609140,"DIS_CODE":0,"TOWNNAME":"善化區","LI":"坐駕里","LIN":"3鄰","STREET":"光明路","SECT":" ","MAREA":" ","LANE":" ","ALLEY":" ","HOUSE_NO":"４６號","E_COORD97":177793.34,"N_COORD97":2558983,"ADDRESS":"光明路４６號","OBJECTID":609113},"geometry":{"x":177793.33999999985,"y":2558983.0000000019}},{"attributes":{"ID":609141,"DIS_CODE":0,"TOWNNAME":"善化區","LI":"坐駕里","LIN":"3鄰","STREET":"中正路","SECT":" ","MAREA":" ","LANE":" ","ALLEY":" ","HOUSE_NO":"４７６號之６","E_COORD97":177695.42999999999,"N_COORD97":2559073.27,"ADDRESS":"中正路４７６號之６","OBJECTID":609114},"geometry":{"x":177695.43000000063,"y":2559073.2700000014}},{"attributes":{"ID":609142,"DIS_CODE":0,"TOWNNAME":"善化區","LI":"文昌里","LIN":"3鄰","STREET":"中華路","SECT":" ","MAREA":" ","LANE":" ","ALLEY":" ","HOUSE_NO":"１２４號","E_COORD97":177260.17000000001,"N_COORD97":2558999.75,"ADDRESS":"中華路１２４號","OBJECTID":609115},"geometry":{"x":177260.16999999993,"y":2558999.75}},{"attributes":{"ID":609143,"DIS_CODE":0,"TOWNNAME":"善化區","LI":"東關里","LIN":"3鄰","STREET":"中山路","SECT":" ","MAREA":" ","LANE":" ","ALLEY":" ","HOUSE_NO":"４００號","E_COORD97":177452.42000000001,"N_COORD97":2559117,"ADDRESS":"中山路４００號","OBJECTID":609116},"geometry":{"x":177452.41999999899,"y":2559117}},{"attributes":{"ID":609144,"DIS_CODE":0,"TOWNNAME":"東區","LI":"後甲里","LIN":"1鄰","STREET":"裕農路","SECT":" ","MAREA":" ","LANE":" ","ALLEY":" ","HOUSE_NO":"９２１號","E_COORD97":172541.26000000001,"N_COORD97":2543390.1000000001,"ADDRESS":"裕農路９２１號","OBJECTID":609117},"geometry":{"x":172541.26000000071,"y":2543390.1000000015}},{"attributes":{"ID":609145,"DIS_CODE":0,"TOWNNAME":"東區","LI":"東智里","LIN":"6鄰","STREET":"德東街","SECT":" ","MAREA":" ","LANE":" ","ALLEY":" ","HOUSE_NO":"４９號","E_COORD97":170932.89999999999,"N_COORD97":2540250.3999999999,"ADDRESS":"德東街４９號","OBJECTID":609118},"geometry":{"x":170932.90000000037,"y":2540250.4000000004}},{"attributes":{"ID":609146,"DIS_CODE":0,"TOWNNAME":"東區","LI":"東智里","LIN":"6鄰","STREET":"德東街","SECT":" ","MAREA":" ","LANE":" ","ALLEY":" ","HOUSE_NO":"５１號","E_COORD97":170936.85999999999,"N_COORD97":2540250.7200000002,"ADDRESS":"德東街５１號","OBJECTID":609119},"geometry":{"x":170936.86000000034,"y":2540250.7200000025}},{"attributes":{"ID":609147,"DIS_CODE":0,"TOWNNAME":"東區","LI":"東智里","LIN":"6鄰","STREET":"德東街","SECT":" ","MAREA":" ","LANE":" ","ALLEY":" ","HOUSE_NO":"５３號","E_COORD97":170941.60000000001,"N_COORD97":2540251.5099999998,"ADDRESS":"德東街５３號","OBJECTID":609120},"geometry":{"x":170941.60000000149,"y":2540251.5100000016}},{"attributes":{"ID":609148,"DIS_CODE":0,"TOWNNAME":"東區","LI":"東智里","LIN":"6鄰","STREET":"德東街","SECT":" ","MAREA":" ","LANE":" ","ALLEY":" ","HOUSE_NO":"５５號","E_COORD97":170945.87,"N_COORD97":2540251.5099999998,"ADDRESS":"德東街５５號","OBJECTID":609121},"geometry":{"x":170945.87000000104,"y":2540251.5100000016}},{"attributes":{"ID":609149,"DIS_CODE":0,"TOWNNAME":"東區","LI":"東智里","LIN":"6鄰","STREET":"德東街","SECT":" ","MAREA":" ","LANE":" ","ALLEY":" ","HOUSE_NO":"５７號","E_COORD97":170950.60999999999,"N_COORD97":2540251.5099999998,"ADDRESS":"德東街５７號","OBJECTID":609122},"geometry":{"x":170950.6100000022,"y":2540251.5100000016}},{"attributes":{"ID":609150,"DIS_CODE":0,"TOWNNAME":"東區","LI":"東智里","LIN":"6鄰","STREET":"德東街","SECT":" ","MAREA":" ","LANE":" ","ALLEY":" ","HOUSE_NO":"５９號","E_COORD97":170954.23999999999,"N_COORD97":2540252.1400000001,"ADDRESS":"德東街５９號","OBJECTID":609123},"geometry":{"x":170954.24000000022,"y":2540252.1400000006}},{"attributes":{"ID":609151,"DIS_CODE":0,"TOWNNAME":"東區","LI":"東智里","LIN":"6鄰","STREET":"德東街","SECT":" ","MAREA":" ","LANE":" ","ALLEY":" ","HOUSE_NO":"６１號","E_COORD97":170959.14000000001,"N_COORD97":2540252.1400000001,"ADDRESS":"德東街６１號","OBJECTID":609124},"geometry":{"x":170959.13999999966,"y":2540252.1400000006}},{"attributes":{"ID":609152,"DIS_CODE":0,"TOWNNAME":"東區","LI":"東智里","LIN":"6鄰","STREET":"德東街","SECT":" ","MAREA":" ","LANE":" ","ALLEY":" ","HOUSE_NO":"６３號","E_COORD97":170963.57000000001,"N_COORD97":2540252.77,"ADDRESS":"德東街６３號","OBJECTID":609125},"geometry":{"x":170963.57000000123,"y":2540252.7700000014}},{"attributes":{"ID":609153,"DIS_CODE":0,"TOWNNAME":"東區","LI":"東智里","LIN":"6鄰","STREET":"德東街","SECT":" ","MAREA":" ","LANE":" ","ALLEY":" ","HOUSE_NO":"６５號","E_COORD97":170968.16,"N_COORD97":2540253.3999999999,"ADDRESS":"德東街６５號","OBJECTID":609126},"geometry":{"x":170968.16000000015,"y":2540253.4000000022}},{"attributes":{"ID":609154,"DIS_CODE":0,"TOWNNAME":"東區","LI":"東智里","LIN":"6鄰","STREET":"德東街","SECT":" ","MAREA":" ","LANE":" ","ALLEY":" ","HOUSE_NO":"６７號","E_COORD97":170971.63,"N_COORD97":2540253.3999999999,"ADDRESS":"德東街６７號","OBJECTID":609127},"geometry":{"x":170971.62999999989,"y":2540253.4000000022}},{"attributes":{"ID":609155,"DIS_CODE":0,"TOWNNAME":"東區","LI":"崇善里","LIN":"23鄰","STREET":"崇善十二街","SECT":" ","MAREA":" ","LANE":" ","ALLEY":" ","HOUSE_NO":"５８號","E_COORD97":171360.39000000001,"N_COORD97":2541149.8100000001,"ADDRESS":"崇善十二街５８號","OBJECTID":609128},"geometry":{"x":171360.3900000006,"y":2541149.8100000005}},{"attributes":{"ID":609156,"DIS_CODE":0,"TOWNNAME":"東區","LI":"東門里","LIN":"11鄰","STREET":"東榮街","SECT":" ","MAREA":" ","LANE":" ","ALLEY":" ","HOUSE_NO":"３６號","E_COORD97":169540.47,"N_COORD97":2543423.9700000002,"ADDRESS":"東榮街３６號","OBJECTID":609129},"geometry":{"x":169540.46999999881,"y":2543423.9700000007}},{"attributes":{"ID":609157,"DIS_CODE":0,"TOWNNAME":"東區","LI":"崇善里","LIN":"23鄰","STREET":"崇善十二街","SECT":" ","MAREA":" ","LANE":" ","ALLEY":" ","HOUSE_NO":"６０號","E_COORD97":171364.37,"N_COORD97":2541151.2799999998,"ADDRESS":"崇善十二街６０號","OBJECTID":609130},"geometry":{"x":171364.37000000104,"y":2541151.2800000012}},{"attributes":{"ID":609158,"DIS_CODE":0,"TOWNNAME":"東區","LI":"崇善里","LIN":"23鄰","STREET":"崇善十二街","SECT":" ","MAREA":" ","LANE":" ","ALLEY":" ","HOUSE_NO":"６２號","E_COORD97":171367.39000000001,"N_COORD97":2541153.0899999999,"ADDRESS":"崇善十二街６２號","OBJECTID":609131},"geometry":{"x":171367.3900000006,"y":2541153.0900000017}},{"attributes":{"ID":609159,"DIS_CODE":0,"TOWNNAME":"東區","LI":"關聖里","LIN":"11鄰","STREET":"裕農一街","SECT":" ","MAREA":" ","LANE":" ","ALLEY":" ","HOUSE_NO":"８５號","E_COORD97":171929.54000000001,"N_COORD97":2543019.02,"ADDRESS":"裕農一街８５號","OBJECTID":609132},"geometry":{"x":171929.54000000097,"y":2543019.0199999996}},{"attributes":{"ID":609160,"DIS_CODE":0,"TOWNNAME":"東區","LI":"崇善里","LIN":"23鄰","STREET":"崇善十二街","SECT":" ","MAREA":" ","LANE":" ","ALLEY":" ","HOUSE_NO":"６８號","E_COORD97":171374.64000000001,"N_COORD97":2541156.6299999999,"ADDRESS":"崇善十二街６８號","OBJECTID":609133},"geometry":{"x":171374.63999999966,"y":2541156.629999999}},{"attributes":{"ID":609161,"DIS_CODE":0,"TOWNNAME":"東區","LI":"崇善里","LIN":"23鄰","STREET":"崇善十二街","SECT":" ","MAREA":" ","LANE":" ","ALLEY":" ","HOUSE_NO":"７０號","E_COORD97":171378.60999999999,"N_COORD97":2541159.2999999998,"ADDRESS":"崇善十二街７０號","OBJECTID":609134},"geometry":{"x":171378.61000000127,"y":2541159.3000000026}},{"attributes":{"ID":609162,"DIS_CODE":0,"TOWNNAME":"東區","LI":"崇善里","LIN":"23鄰","STREET":"崇善十二街","SECT":" ","MAREA":" ","LANE":" ","ALLEY":" ","HOUSE_NO":"７２號","E_COORD97":171381.72,"N_COORD97":2541159.6600000001,"ADDRESS":"崇善十二街７２號","OBJECTID":609135},"geometry":{"x":171381.72000000067,"y":2541159.660000002}},{"attributes":{"ID":609163,"DIS_CODE":0,"TOWNNAME":"東區","LI":"崇善里","LIN":"23鄰","STREET":"崇善十二街","SECT":" ","MAREA":" ","LANE":" ","ALLEY":" ","HOUSE_NO":"７６號","E_COORD97":171385.79999999999,"N_COORD97":2541161.6899999999,"ADDRESS":"崇善十二街７６號","OBJECTID":609136},"geometry":{"x":171385.79999999981,"y":2541161.6900000013}},{"attributes":{"ID":609164,"DIS_CODE":0,"TOWNNAME":"東區","LI":"關聖里","LIN":"11鄰","STREET":"裕農一街","SECT":" ","MAREA":" ","LANE":" ","ALLEY":" ","HOUSE_NO":"８３號","E_COORD97":171929.92000000001,"N_COORD97":2543044.1600000001,"ADDRESS":"裕農一街８３號","OBJECTID":609137},"geometry":{"x":171929.92000000086,"y":2543044.160000002}},{"attributes":{"ID":609165,"DIS_CODE":0,"TOWNNAME":"善化區","LI":"文昌里","LIN":"3鄰","STREET":"中華路","SECT":" ","MAREA":" ","LANE":" ","ALLEY":" ","HOUSE_NO":"１２２號","E_COORD97":177253.17000000001,"N_COORD97":2558988.5,"ADDRESS":"中華路１２２號","OBJECTID":609138},"geometry":{"x":177253.17000000086,"y":2558988.5}},{"attributes":{"ID":609166,"DIS_CODE":0,"TOWNNAME":"善化區","LI":"文昌里","LIN":"3鄰","STREET":"中華路","SECT":" ","MAREA":" ","LANE":" ","ALLEY":" ","HOUSE_NO":"１１８號","E_COORD97":177231.76000000001,"N_COORD97":2558976.25,"ADDRESS":"中華路１１８號","OBJECTID":609139},"geometry":{"x":177231.76000000071,"y":2558976.25}},{"attributes":{"ID":609167,"DIS_CODE":0,"TOWNNAME":"善化區","LI":"文昌里","LIN":"3鄰","STREET":"中華路","SECT":" ","MAREA":" ","LANE":" ","ALLEY":" ","HOUSE_NO":"１２６號","E_COORD97":177233.53,"N_COORD97":2559018.25,"ADDRESS":"中華路１２６號","OBJECTID":609140},"geometry":{"x":177233.53000000212,"y":2559018.2500000037}},{"attributes":{"ID":609168,"DIS_CODE":0,"TOWNNAME":"安南區","LI":"州南里","LIN":"3鄰","STREET":"北安路","SECT":"四段","MAREA":" ","LANE":" ","ALLEY":" ","HOUSE_NO":"１６９號之６","E_COORD97":169438.68591100001,"N_COORD97":2551231.9709800002,"ADDRESS":"北安路四段１６９號之６","OBJECTID":609141},"geometry":{"x":169438.68591099977,"y":2551231.9709790014}},{"attributes":{"ID":609169,"DIS_CODE":0,"TOWNNAME":"安南區","LI":"淵中里","LIN":"3鄰","STREET":"安中路","SECT":"四段","MAREA":" ","LANE":" ","ALLEY":" ","HOUSE_NO":"８３號","E_COORD97":165164.600382,"N_COORD97":2550006.3756599999,"ADDRESS":"安中路四段８３號","OBJECTID":609142},"geometry":{"x":165164.60038200207,"y":2550006.3756620008}},{"attributes":{"ID":609170,"DIS_CODE":0,"TOWNNAME":"安南區","LI":"溪心里","LIN":"3鄰","STREET":"海佃路","SECT":"三段","MAREA":" ","LANE":" ","ALLEY":" ","HOUSE_NO":"３２號","E_COORD97":166337.17000000001,"N_COORD97":2549806.3199999998,"ADDRESS":"海佃路三段３２號","OBJECTID":609143},"geometry":{"x":166337.17000000179,"y":2549806.320000004}},{"attributes":{"ID":609171,"DIS_CODE":0,"TOWNNAME":"安南區","LI":"州南里","LIN":"3鄰","STREET":"北安路","SECT":"四段","MAREA":" ","LANE":" ","ALLEY":" ","HOUSE_NO":"２６８號之２","E_COORD97":169476.85000000001,"N_COORD97":2551203.5899999999,"ADDRESS":"北安路四段２６８號之２","OBJECTID":609144},"geometry":{"x":169476.85000000149,"y":2551203.5899999999}},{"attributes":{"ID":609172,"DIS_CODE":0,"TOWNNAME":"安南區","LI":"州南里","LIN":"3鄰","STREET":"北安路","SECT":"四段","MAREA":" ","LANE":" ","ALLEY":" ","HOUSE_NO":"２６８號之３","E_COORD97":169476.35000000001,"N_COORD97":2551209.7400000002,"ADDRESS":"北安路四段２６８號之３","OBJECTID":609145},"geometry":{"x":169476.34999999963,"y":2551209.7400000002}},{"attributes":{"ID":609173,"DIS_CODE":0,"TOWNNAME":"安南區","LI":"顯宮里","LIN":"3鄰","STREET":"安明路","SECT":"三段","MAREA":" ","LANE":" ","ALLEY":" ","HOUSE_NO":"５００號","E_COORD97":162522.35000000001,"N_COORD97":2550126.8900000001,"ADDRESS":"安明路三段５００號","OBJECTID":609146},"geometry":{"x":162522.34999999963,"y":2550126.8900000006}},{"attributes":{"ID":609174,"DIS_CODE":0,"TOWNNAME":"東區","LI":"忠孝里","LIN":"32鄰","STREET":"崇明六街","SECT":" ","MAREA":" ","LANE":" ","ALLEY":" ","HOUSE_NO":"４２之１號","E_COORD97":169741.75,"N_COORD97":2542217.8599999999,"ADDRESS":"崇明六街４２之１號","OBJECTID":609147},"geometry":{"x":169741.75,"y":2542217.8600000013}},{"attributes":{"ID":609175,"DIS_CODE":0,"TOWNNAME":"東區","LI":"崇德里","LIN":"7鄰","STREET":"崇德七街","SECT":" ","MAREA":" ","LANE":" ","ALLEY":" ","HOUSE_NO":"５５號","E_COORD97":170823.04000000001,"N_COORD97":2541795.6600000001,"ADDRESS":"崇德七街５５號","OBJECTID":609148},"geometry":{"x":170823.04000000004,"y":2541795.6599999983}},{"attributes":{"ID":609176,"DIS_CODE":0,"TOWNNAME":"東區","LI":"後甲里","LIN":"33鄰","STREET":"小東路","SECT":" ","MAREA":" ","LANE":" ","ALLEY":" ","HOUSE_NO":"６００號","E_COORD97":172036.20000000001,"N_COORD97":2544290.5699999998,"ADDRESS":"小東路６００號","OBJECTID":609149},"geometry":{"x":172036.20000000019,"y":2544290.5700000003}},{"attributes":{"ID":609177,"DIS_CODE":0,"TOWNNAME":"東區","LI":"大學里","LIN":"10鄰","STREET":"長榮路","SECT":"三段","MAREA":" ","LANE":" ","ALLEY":" ","HOUSE_NO":"１２９號","E_COORD97":170211.03,"N_COORD97":2543971.1400000001,"ADDRESS":"長榮路三段１２９號","OBJECTID":609150},"geometry":{"x":170211.03000000119,"y":2543971.1400000025}},{"attributes":{"ID":609178,"DIS_CODE":0,"TOWNNAME":"東區","LI":"崇德里","LIN":"11鄰","STREET":"崇德十一街","SECT":" ","MAREA":" ","LANE":" ","ALLEY":" ","HOUSE_NO":"３３號","E_COORD97":170895.95999999999,"N_COORD97":2541472.6099999999,"ADDRESS":"崇德十一街３３號","OBJECTID":609151},"geometry":{"x":170895.96000000089,"y":2541472.6099999994}},{"attributes":{"ID":609179,"DIS_CODE":0,"TOWNNAME":"東區","LI":"崇善里","LIN":"11鄰","STREET":"崇善八街","SECT":" ","MAREA":" ","LANE":" ","ALLEY":" ","HOUSE_NO":"４０號","E_COORD97":171162.41,"N_COORD97":2541400.7200000002,"ADDRESS":"崇善八街４０號","OBJECTID":609152},"geometry":{"x":171162.41000000108,"y":2541400.7200000025}},{"attributes":{"ID":609180,"DIS_CODE":0,"TOWNNAME":"官田區","LI":"隆本里","LIN":"3鄰","STREET":"中華路","SECT":"二段","MAREA":" ","LANE":" ","ALLEY":" ","HOUSE_NO":"３６號","E_COORD97":180183.03,"N_COORD97":2566373.4900000002,"ADDRESS":"中華路二段３６號","OBJECTID":609153},"geometry":{"x":180183.02999999933,"y":2566373.4900000002}},{"attributes":{"ID":609181,"DIS_CODE":0,"TOWNNAME":"官田區","LI":"隆本里","LIN":"3鄰","STREET":"中華路","SECT":"二段","MAREA":" ","LANE":" ","ALLEY":" ","HOUSE_NO":"３８號","E_COORD97":180180.56,"N_COORD97":2566377.46,"ADDRESS":"中華路二段３８號","OBJECTID":609154},"geometry":{"x":180180.56000000145,"y":2566377.4600000009}},{"attributes":{"ID":609182,"DIS_CODE":0,"TOWNNAME":"官田區","LI":"隆本里","LIN":"3鄰","STREET":"中華路","SECT":"二段","MAREA":" ","LANE":" ","ALLEY":" ","HOUSE_NO":"４０號","E_COORD97":180177.66,"N_COORD97":2566381.5600000001,"ADDRESS":"中華路二段４０號","OBJECTID":609155},"geometry":{"x":180177.66000000108,"y":2566381.5600000024}},{"attributes":{"ID":609183,"DIS_CODE":0,"TOWNNAME":"官田區","LI":"隆本里","LIN":"3鄰","STREET":"中華路","SECT":"二段","MAREA":" ","LANE":" ","ALLEY":" ","HOUSE_NO":"４２號","E_COORD97":180173.38,"N_COORD97":2566388.1699999999,"ADDRESS":"中華路二段４２號","OBJECTID":609156},"geometry":{"x":180173.37999999989,"y":2566388.1699999999}},{"attributes":{"ID":609184,"DIS_CODE":0,"TOWNNAME":"官田區","LI":"隆本里","LIN":"3鄰","STREET":"中華路","SECT":"二段","MAREA":" ","LANE":" ","ALLEY":" ","HOUSE_NO":"４６號","E_COORD97":180168.73000000001,"N_COORD97":2566393.79,"ADDRESS":"中華路二段４６號","OBJECTID":609157},"geometry":{"x":180168.73000000138,"y":2566393.7899999991}},{"attributes":{"ID":609185,"DIS_CODE":0,"TOWNNAME":"官田區","LI":"隆本里","LIN":"3鄰","STREET":"中華路","SECT":"二段","MAREA":" ","LANE":" ","ALLEY":" ","HOUSE_NO":"４８號","E_COORD97":180165.07999999999,"N_COORD97":2566398.8599999999,"ADDRESS":"中華路二段４８號","OBJECTID":609158},"geometry":{"x":180165.08000000007,"y":2566398.8600000013}},{"attributes":{"ID":609186,"DIS_CODE":0,"TOWNNAME":"官田區","LI":"隆本里","LIN":"3鄰","STREET":"中華路","SECT":"二段","MAREA":" ","LANE":" ","ALLEY":" ","HOUSE_NO":"５０號","E_COORD97":180163.31,"N_COORD97":2566403.3199999998,"ADDRESS":"中華路二段５０號","OBJECTID":609159},"geometry":{"x":180163.30999999959,"y":2566403.3200000022}},{"attributes":{"ID":609187,"DIS_CODE":0,"TOWNNAME":"官田區","LI":"隆本里","LIN":"3鄰","STREET":"中華路","SECT":"二段","MAREA":" ","LANE":" ","ALLEY":" ","HOUSE_NO":"５２號","E_COORD97":180161.45999999999,"N_COORD97":2566407.6400000001,"ADDRESS":"中華路二段５２號","OBJECTID":609160},"geometry":{"x":180161.46000000089,"y":2566407.6400000025}},{"attributes":{"ID":609188,"DIS_CODE":0,"TOWNNAME":"官田區","LI":"隆本里","LIN":"3鄰","STREET":"中華路","SECT":"二段","MAREA":" ","LANE":" ","ALLEY":" ","HOUSE_NO":"５６號","E_COORD97":180147.91,"N_COORD97":2566414.21,"ADDRESS":"中華路二段５６號","OBJECTID":609161},"geometry":{"x":180147.91000000015,"y":2566414.2100000028}},{"attributes":{"ID":609189,"DIS_CODE":0,"TOWNNAME":"東區","LI":"裕農里","LIN":"14鄰","STREET":"東寧路","SECT":" ","MAREA":" ","LANE":" ","ALLEY":" ","HOUSE_NO":"３８８號","E_COORD97":170872.20999999999,"N_COORD97":2543361.2999999998,"ADDRESS":"東寧路３８８號","OBJECTID":609162},"geometry":{"x":170872.21000000089,"y":2543361.3000000007}},{"attributes":{"ID":609190,"DIS_CODE":0,"TOWNNAME":"東區","LI":"後甲里","LIN":"1鄰","STREET":"裕農路","SECT":" ","MAREA":" ","LANE":" ","ALLEY":" ","HOUSE_NO":"８７７之１號","E_COORD97":172430.85000000001,"N_COORD97":2543370.52,"ADDRESS":"裕農路８７７之１號","OBJECTID":609163},"geometry":{"x":172430.84999999963,"y":2543370.5200000014}},{"attributes":{"ID":609191,"DIS_CODE":0,"TOWNNAME":"東區","LI":"圍下里","LIN":"1鄰","STREET":"勝利路","SECT":" ","MAREA":" ","LANE":" ","ALLEY":" ","HOUSE_NO":"６３號","E_COORD97":169782.35999999999,"N_COORD97":2543445.71,"ADDRESS":"勝利路６３號","OBJECTID":609164},"geometry":{"x":169782.36000000034,"y":2543445.7100000009}},{"attributes":{"ID":609192,"DIS_CODE":0,"TOWNNAME":"中西區","LI":"民權里","LIN":"6鄰","STREET":"和平街","SECT":" ","MAREA":" ","LANE":" ","ALLEY":" ","HOUSE_NO":"６４號","E_COORD97":167646.14999999999,"N_COORD97":2544146.8300000001,"ADDRESS":"和平街６４號","OBJECTID":609165},"geometry":{"x":167646.15000000037,"y":2544146.8300000001}},{"attributes":{"ID":609193,"DIS_CODE":0,"TOWNNAME":"東區","LI":"莊敬里","LIN":"10鄰","STREET":"東光路","SECT":"二段","MAREA":" ","LANE":" ","ALLEY":" ","HOUSE_NO":"６０號","E_COORD97":171233.29000000001,"N_COORD97":2544127.4900000002,"ADDRESS":"東光路二段６０號","OBJECTID":609166},"geometry":{"x":171233.29000000004,"y":2544127.4900000021}},{"attributes":{"ID":609194,"DIS_CODE":0,"TOWNNAME":"東區","LI":"崇德里","LIN":"9鄰","STREET":"崇善路","SECT":" ","MAREA":" ","LANE":" ","ALLEY":" ","HOUSE_NO":"４７８號","E_COORD97":171005.95999999999,"N_COORD97":2541457.0099999998,"ADDRESS":"崇善路４７８號","OBJECTID":609167},"geometry":{"x":171005.96000000089,"y":2541457.0099999998}},{"attributes":{"ID":609195,"DIS_CODE":0,"TOWNNAME":"東區","LI":"莊敬里","LIN":"11鄰","STREET":"中華東路","SECT":"一段","MAREA":" ","LANE":" ","ALLEY":" ","HOUSE_NO":"１２號","E_COORD97":171508.60000000001,"N_COORD97":2544229.4100000001,"ADDRESS":"中華東路一段１２號","OBJECTID":609168},"geometry":{"x":171508.59999999963,"y":2544229.410000002}},{"attributes":{"ID":609196,"DIS_CODE":0,"TOWNNAME":"仁德區","LI":"大甲里","LIN":"3鄰","STREET":"行大一街","SECT":" ","MAREA":" ","LANE":" ","ALLEY":" ","HOUSE_NO":"２１０號","E_COORD97":169779.48999999999,"N_COORD97":2535051.5,"ADDRESS":"行大一街２１０號","OBJECTID":609169},"geometry":{"x":169779.49000000022,"y":2535051.5000000019}},{"attributes":{"ID":609197,"DIS_CODE":0,"TOWNNAME":"仁德區","LI":"土庫里","LIN":"3鄰","STREET":"土庫三街","SECT":" ","MAREA":" ","LANE":" ","ALLEY":" ","HOUSE_NO":"７０號","E_COORD97":174270.57000000001,"N_COORD97":2543061.2400000002,"ADDRESS":"土庫三街７０號","OBJECTID":609170},"geometry":{"x":174270.57000000123,"y":2543061.2400000021}},{"attributes":{"ID":609198,"DIS_CODE":0,"TOWNNAME":"仁德區","LI":"一甲里","LIN":"3鄰","STREET":"中正路","SECT":"三段","MAREA":" ","LANE":" ","ALLEY":" ","HOUSE_NO":"１１６號","E_COORD97":173425.95999999999,"N_COORD97":2541660.2799999998,"ADDRESS":"中正路三段１１６號","OBJECTID":609171},"geometry":{"x":173425.95999999996,"y":2541660.2799999993}},{"attributes":{"ID":609199,"DIS_CODE":0,"TOWNNAME":"仁德區","LI":"土庫里","LIN":"3鄰","STREET":"土庫路","SECT":" ","MAREA":" ","LANE":" ","ALLEY":" ","HOUSE_NO":"１２８號","E_COORD97":174345.34,"N_COORD97":2542998.75,"ADDRESS":"土庫路１２８號","OBJECTID":609172},"geometry":{"x":174345.33999999985,"y":2542998.7500000037}},{"attributes":{"ID":609200,"DIS_CODE":0,"TOWNNAME":"仁德區","LI":"土庫里","LIN":"3鄰","STREET":"土庫路","SECT":" ","MAREA":" ","LANE":" ","ALLEY":" ","HOUSE_NO":"１２４號","E_COORD97":174342.70000000001,"N_COORD97":2543030.5,"ADDRESS":"土庫路１２４號","OBJECTID":609173},"geometry":{"x":174342.70000000112,"y":2543030.5}},{"attributes":{"ID":609201,"DIS_CODE":0,"TOWNNAME":"仁德區","LI":"大甲里","LIN":"3鄰","STREET":"行大一街","SECT":" ","MAREA":" ","LANE":" ","ALLEY":" ","HOUSE_NO":"１５６號","E_COORD97":169846.70999999999,"N_COORD97":2535031,"ADDRESS":"行大一街１５６號","OBJECTID":609174},"geometry":{"x":169846.71000000089,"y":2535031.0000000019}},{"attributes":{"ID":609202,"DIS_CODE":0,"TOWNNAME":"仁德區","LI":"土庫里","LIN":"3鄰","STREET":"土庫路","SECT":" ","MAREA":" ","LANE":" ","ALLEY":" ","HOUSE_NO":"１３２號","E_COORD97":174343.04999999999,"N_COORD97":2542989.75,"ADDRESS":"土庫路１３２號","OBJECTID":609175},"geometry":{"x":174343.05000000075,"y":2542989.7500000019}},{"attributes":{"ID":609203,"DIS_CODE":0,"TOWNNAME":"仁德區","LI":"土庫里","LIN":"3鄰","STREET":"土庫三街","SECT":" ","MAREA":" ","LANE":" ","ALLEY":" ","HOUSE_NO":"８４號","E_COORD97":174316.34293499999,"N_COORD97":2543062.4793500002,"ADDRESS":"土庫三街８４號","OBJECTID":609176},"geometry":{"x":174316.34293499961,"y":2543062.4793500025}},{"attributes":{"ID":609204,"DIS_CODE":0,"TOWNNAME":"仁德區","LI":"大甲里","LIN":"3鄰","STREET":"行大一街","SECT":" ","MAREA":" ","LANE":" ","ALLEY":" ","HOUSE_NO":"１８８號","E_COORD97":169821.89999999999,"N_COORD97":2535023.25,"ADDRESS":"行大一街１８８號","OBJECTID":609177},"geometry":{"x":169821.9000000013,"y":2535023.25}},{"attributes":{"ID":609205,"DIS_CODE":0,"TOWNNAME":"仁德區","LI":"土庫里","LIN":"3鄰","STREET":"土庫路","SECT":" ","MAREA":" ","LANE":" ","ALLEY":" ","HOUSE_NO":"１３４號","E_COORD97":174340.39999999999,"N_COORD97":2542982.7400000002,"ADDRESS":"土庫路１３４號","OBJECTID":609178},"geometry":{"x":174340.40000000037,"y":2542982.7400000021}},{"attributes":{"ID":609206,"DIS_CODE":0,"TOWNNAME":"仁德區","LI":"一甲里","LIN":"3鄰","STREET":"中正路","SECT":"三段","MAREA":" ","LANE":" ","ALLEY":" ","HOUSE_NO":"１３４號","E_COORD97":173443.37,"N_COORD97":2541701.52,"ADDRESS":"中正路三段１３４號","OBJECTID":609179},"geometry":{"x":173443.37000000011,"y":2541701.5200000014}},{"attributes":{"ID":609207,"DIS_CODE":0,"TOWNNAME":"仁德區","LI":"土庫里","LIN":"3鄰","STREET":"土庫路","SECT":" ","MAREA":" ","LANE":" ","ALLEY":" ","HOUSE_NO":"１３６號","E_COORD97":174335.04000000001,"N_COORD97":2542976.2400000002,"ADDRESS":"土庫路１３６號","OBJECTID":609180},"geometry":{"x":174335.04000000097,"y":2542976.2400000021}},{"attributes":{"ID":609208,"DIS_CODE":0,"TOWNNAME":"東區","LI":"後甲里","LIN":"3鄰","STREET":"裕農路","SECT":" ","MAREA":" ","LANE":" ","ALLEY":" ","HOUSE_NO":"６５７之１號","E_COORD97":171718.76000000001,"N_COORD97":2543244.8900000001,"ADDRESS":"裕農路６５７之１號","OBJECTID":609181},"geometry":{"x":171718.76000000164,"y":2543244.8900000006}},{"attributes":{"ID":609209,"DIS_CODE":0,"TOWNNAME":"東區","LI":"裕聖里","LIN":"3鄰","STREET":"裕信三街","SECT":" ","MAREA":" ","LANE":" ","ALLEY":" ","HOUSE_NO":"１７３號","E_COORD97":172688.70999999999,"N_COORD97":2542302.02,"ADDRESS":"裕信三街１７３號","OBJECTID":609182},"geometry":{"x":172688.70999999903,"y":2542302.0200000014}},{"attributes":{"ID":609210,"DIS_CODE":0,"TOWNNAME":"東區","LI":"崇德里","LIN":"3鄰","STREET":"崇德六街","SECT":" ","MAREA":" ","LANE":" ","ALLEY":" ","HOUSE_NO":"５１號","E_COORD97":170769.75,"N_COORD97":2541809.3700000001,"ADDRESS":"崇德六街５１號","OBJECTID":609183},"geometry":{"x":170769.75000000186,"y":2541809.3700000029}},{"attributes":{"ID":609211,"DIS_CODE":0,"TOWNNAME":"東區","LI":"崇德里","LIN":"3鄰","STREET":"崇德六街","SECT":" ","MAREA":" ","LANE":" ","ALLEY":" ","HOUSE_NO":"５１之１號","E_COORD97":170773.07000000001,"N_COORD97":2541816.2200000002,"ADDRESS":"崇德六街５１之１號","OBJECTID":609184},"geometry":{"x":170773.07000000123,"y":2541816.2200000044}},{"attributes":{"ID":609212,"DIS_CODE":0,"TOWNNAME":"東區","LI":"裕聖里","LIN":"3鄰","STREET":"裕敬路","SECT":" ","MAREA":" ","LANE":" ","ALLEY":" ","HOUSE_NO":"１１９號","E_COORD97":172705.62,"N_COORD97":2542261.8700000001,"ADDRESS":"裕敬路１１９號","OBJECTID":609185},"geometry":{"x":172705.62000000104,"y":2542261.870000001}},{"attributes":{"ID":609213,"DIS_CODE":0,"TOWNNAME":"東區","LI":"大福里","LIN":"3鄰","STREET":"榮譽街","SECT":" ","MAREA":" ","LANE":" ","ALLEY":" ","HOUSE_NO":"３３號","E_COORD97":169608.95999999999,"N_COORD97":2541643.6600000001,"ADDRESS":"榮譽街３３號","OBJECTID":609186},"geometry":{"x":169608.96000000089,"y":2541643.660000002}},{"attributes":{"ID":609214,"DIS_CODE":0,"TOWNNAME":"東區","LI":"東光里","LIN":"3鄰","STREET":"東興路","SECT":" ","MAREA":" ","LANE":" ","ALLEY":" ","HOUSE_NO":"４２號","E_COORD97":170951.51000000001,"N_COORD97":2543512.8599999999,"ADDRESS":"東興路４２號","OBJECTID":609187},"geometry":{"x":170951.51000000071,"y":2543512.8600000031}},{"attributes":{"ID":609215,"DIS_CODE":0,"TOWNNAME":"東區","LI":"東光里","LIN":"3鄰","STREET":"東興路","SECT":" ","MAREA":" ","LANE":" ","ALLEY":" ","HOUSE_NO":"４４號","E_COORD97":170952.22,"N_COORD97":2543516.7200000002,"ADDRESS":"東興路４４號","OBJECTID":609188},"geometry":{"x":170952.21999999974,"y":2543516.7200000007}},{"attributes":{"ID":609216,"DIS_CODE":0,"TOWNNAME":"東區","LI":"東光里","LIN":"3鄰","STREET":"東興路","SECT":" ","MAREA":" ","LANE":" ","ALLEY":" ","HOUSE_NO":"４６號","E_COORD97":170953.07999999999,"N_COORD97":2543522.1499999999,"ADDRESS":"東興路４６號","OBJECTID":609189},"geometry":{"x":170953.08000000101,"y":2543522.1500000022}},{"attributes":{"ID":609217,"DIS_CODE":0,"TOWNNAME":"東區","LI":"東光里","LIN":"3鄰","STREET":"東興路","SECT":" ","MAREA":" ","LANE":" ","ALLEY":" ","HOUSE_NO":"４８號","E_COORD97":170953.37,"N_COORD97":2543526.0099999998,"ADDRESS":"東興路４８號","OBJECTID":609190},"geometry":{"x":170953.37000000011,"y":2543526.0100000016}},{"attributes":{"ID":609218,"DIS_CODE":0,"TOWNNAME":"永康區","LI":"六合里","LIN":"3鄰","STREET":"中山南路","SECT":" ","MAREA":" ","LANE":" ","ALLEY":" ","HOUSE_NO":"９２號","E_COORD97":170963.79000000001,"N_COORD97":2545908.8900000001,"ADDRESS":"中山南路９２號","OBJECTID":609191},"geometry":{"x":170963.79000000004,"y":2545908.8900000025}},{"attributes":{"ID":609219,"DIS_CODE":0,"TOWNNAME":"東區","LI":"大福里","LIN":"14鄰","STREET":"榮譽街","SECT":" ","MAREA":" ","LANE":" ","ALLEY":" ","HOUSE_NO":"６３號","E_COORD97":169691.70000000001,"N_COORD97":2541703.5499999998,"ADDRESS":"榮譽街６３號","OBJECTID":609192},"geometry":{"x":169691.70000000019,"y":2541703.5500000026}},{"attributes":{"ID":609220,"DIS_CODE":0,"TOWNNAME":"東區","LI":"大福里","LIN":"14鄰","STREET":"榮譽街","SECT":" ","MAREA":" ","LANE":" ","ALLEY":" ","HOUSE_NO":"６５號之２","E_COORD97":169684.29000000001,"N_COORD97":2541722.4100000001,"ADDRESS":"榮譽街６５號之２","OBJECTID":609193},"geometry":{"x":169684.29000000004,"y":2541722.4100000001}},{"attributes":{"ID":609221,"DIS_CODE":0,"TOWNNAME":"永康區","LI":"\u25A0行里","LIN":"3鄰","STREET":"中正路","SECT":" ","MAREA":" ","LANE":" ","ALLEY":" ","HOUSE_NO":"８２８號","E_COORD97":172163.07999999999,"N_COORD97":2548738.2400000002,"ADDRESS":"中正路８２８號","OBJECTID":609194},"geometry":{"x":172163.08000000101,"y":2548738.2400000002}},{"attributes":{"ID":609222,"DIS_CODE":0,"TOWNNAME":"永康區","LI":"\u25A0洲里","LIN":"3鄰","STREET":"\u25A0洲二街","SECT":" ","MAREA":" ","LANE":" ","ALLEY":" ","HOUSE_NO":"１８０號","E_COORD97":171689.38,"N_COORD97":2549357.7000000002,"ADDRESS":"\u25A0洲二街１８０號","OBJECTID":609195},"geometry":{"x":171689.38000000082,"y":2549357.6999999993}},{"attributes":{"ID":609223,"DIS_CODE":0,"TOWNNAME":"永康區","LI":"\u25A0洲里","LIN":"3鄰","STREET":"\u25A0洲二街","SECT":" ","MAREA":" ","LANE":" ","ALLEY":" ","HOUSE_NO":"１８６號","E_COORD97":171720.79000000001,"N_COORD97":2549383.79,"ADDRESS":"\u25A0洲二街１８６號","OBJECTID":609196},"geometry":{"x":171720.79000000097,"y":2549383.7899999991}},{"attributes":{"ID":609224,"DIS_CODE":0,"TOWNNAME":"永康區","LI":"\u25A0行里","LIN":"3鄰","STREET":"中正路","SECT":" ","MAREA":" ","LANE":" ","ALLEY":" ","HOUSE_NO":"９３０號","E_COORD97":171998.91,"N_COORD97":2548905,"ADDRESS":"中正路９３０號","OBJECTID":609197},"geometry":{"x":171998.91000000015,"y":2548905}},{"attributes":{"ID":609225,"DIS_CODE":0,"TOWNNAME":"永康區","LI":"\u25A0行里","LIN":"3鄰","STREET":"中正路","SECT":" ","MAREA":" ","LANE":" ","ALLEY":" ","HOUSE_NO":"８４２號","E_COORD97":172143.04000000001,"N_COORD97":2548760.4900000002,"ADDRESS":"中正路８４２號","OBJECTID":609198},"geometry":{"x":172143.04000000097,"y":2548760.4900000002}},{"attributes":{"ID":609226,"DIS_CODE":0,"TOWNNAME":"永康區","LI":"\u25A0行里","LIN":"3鄰","STREET":"中正路","SECT":" ","MAREA":" ","LANE":" ","ALLEY":" ","HOUSE_NO":"８３２號","E_COORD97":172157.98999999999,"N_COORD97":2548744.7400000002,"ADDRESS":"中正路８３２號","OBJECTID":609199},"geometry":{"x":172157.99000000022,"y":2548744.7400000002}},{"attributes":{"ID":609227,"DIS_CODE":0,"TOWNNAME":"永康區","LI":"\u25A0洲里","LIN":"3鄰","STREET":"\u25A0洲二街","SECT":" ","MAREA":" ","LANE":" ","ALLEY":" ","HOUSE_NO":"１６２號","E_COORD97":171667.17000000001,"N_COORD97":2549336.46,"ADDRESS":"\u25A0洲二街１６２號","OBJECTID":609200},"geometry":{"x":171667.17000000086,"y":2549336.4600000028}}]}