{"displayFieldName":"TOWNNAME","fieldAliases":{"ID":"ID","DIS_CODE":"DIS_CODE","TOWNNAME":"TOWNNAME","LI":"LI","LIN":"LIN","STREET":"STREET","SECT":"SECT","MAREA":"MAREA","LANE":"LANE","ALLEY":"ALLEY","HOUSE_NO":"HOUSE_NO","E_COORD97":"E_COORD97","N_COORD97":"N_COORD97","ADDRESS":"ADDRESS","OBJECTID":"OBJECTID"},"geometryType":"esriGeometryPoint","spatialReference":{"wkid":102443,"latestWkid":3826},"fields":[{"name":"ID","type":"esriFieldTypeDouble","alias":"ID"},{"name":"DIS_CODE","type":"esriFieldTypeInteger","alias":"DIS_CODE"},{"name":"TOWNNAME","type":"esriFieldTypeString","alias":"TOWNNAME","length":8},{"name":"LI","type":"esriFieldTypeString","alias":"LI","length":8},{"name":"LIN","type":"esriFieldTypeString","alias":"LIN","length":12},{"name":"STREET","type":"esriFieldTypeString","alias":"STREET","length":20},{"name":"SECT","type":"esriFieldTypeString","alias":"SECT","length":8},{"name":"MAREA","type":"esriFieldTypeString","alias":"MAREA","length":12},{"name":"LANE","type":"esriFieldTypeString","alias":"LANE","length":10},{"name":"ALLEY","type":"esriFieldTypeString","alias":"ALLEY","length":10},{"name":"HOUSE_NO","type":"esriFieldTypeString","alias":"HOUSE_NO","length":20},{"name":"E_COORD97","type":"esriFieldTypeDouble","alias":"E_COORD97"},{"name":"N_COORD97","type":"esriFieldTypeDouble","alias":"N_COORD97"},{"name":"ADDRESS","type":"esriFieldTypeString","alias":"ADDRESS","length":50},{"name":"OBJECTID","type":"esriFieldTypeOID","alias":"OBJECTID"}],"features":[{"attributes":{"ID":222805,"DIS_CODE":0,"TOWNNAME":"永康區","LI":"五王里","LIN":"37鄰","STREET":"中華路","SECT":" ","MAREA":" ","LANE":"５７８巷","ALLEY":" ","HOUSE_NO":"１５號之１４","E_COORD97":171275.97,"N_COORD97":2545965.79,"ADDRESS":"中華路５７８巷１５號之１４","OBJECTID":222801},"geometry":{"x":171275.96999999974,"y":2545965.7899999991}},{"attributes":{"ID":222806,"DIS_CODE":0,"TOWNNAME":"永康區","LI":"五王里","LIN":"37鄰","STREET":"中華路","SECT":" ","MAREA":" ","LANE":"５７８巷","ALLEY":" ","HOUSE_NO":"１５號之１３","E_COORD97":171276.04999999999,"N_COORD97":2545965.79,"ADDRESS":"中華路５７８巷１５號之１３","OBJECTID":222802},"geometry":{"x":171276.05000000168,"y":2545965.7899999991}},{"attributes":{"ID":222807,"DIS_CODE":0,"TOWNNAME":"永康區","LI":"五王里","LIN":"37鄰","STREET":"中華路","SECT":" ","MAREA":" ","LANE":"５７８巷","ALLEY":" ","HOUSE_NO":"１５號之１７","E_COORD97":171276.03,"N_COORD97":2545965.79,"ADDRESS":"中華路５７８巷１５號之１７","OBJECTID":222803},"geometry":{"x":171276.03000000026,"y":2545965.7899999991}},{"attributes":{"ID":222808,"DIS_CODE":0,"TOWNNAME":"仁德區","LI":"後壁里","LIN":"37鄰","STREET":"德洋一街","SECT":" ","MAREA":" ","LANE":"８５巷","ALLEY":" ","HOUSE_NO":"７號","E_COORD97":173153.84,"N_COORD97":2539278.52,"ADDRESS":"德洋一街８５巷７號","OBJECTID":222804},"geometry":{"x":173153.83999999985,"y":2539278.5200000014}},{"attributes":{"ID":222809,"DIS_CODE":0,"TOWNNAME":"仁德區","LI":"後壁里","LIN":"37鄰","STREET":"德洋一街","SECT":" ","MAREA":" ","LANE":"８５巷","ALLEY":" ","HOUSE_NO":"１號","E_COORD97":173165.95000000001,"N_COORD97":2539270.77,"ADDRESS":"德洋一街８５巷１號","OBJECTID":222805},"geometry":{"x":173165.95000000112,"y":2539270.7699999996}},{"attributes":{"ID":222810,"DIS_CODE":0,"TOWNNAME":"仁德區","LI":"後壁里","LIN":"37鄰","STREET":"德洋一街","SECT":" ","MAREA":" ","LANE":"５１巷","ALLEY":" ","HOUSE_NO":"８號","E_COORD97":173115.09,"N_COORD97":2539219.7599999998,"ADDRESS":"德洋一街５１巷８號","OBJECTID":222806},"geometry":{"x":173115.09000000171,"y":2539219.7600000016}},{"attributes":{"ID":222811,"DIS_CODE":0,"TOWNNAME":"仁德區","LI":"後壁里","LIN":"37鄰","STREET":"民安路","SECT":"一段","MAREA":" ","LANE":"３９２巷","ALLEY":" ","HOUSE_NO":"１號","E_COORD97":173141.66,"N_COORD97":2539335.8300000001,"ADDRESS":"民安路一段３９２巷１號","OBJECTID":222807},"geometry":{"x":173141.66000000015,"y":2539335.8300000001}},{"attributes":{"ID":222812,"DIS_CODE":0,"TOWNNAME":"永康區","LI":"\u25A0行里","LIN":"8鄰","STREET":"中正一街","SECT":" ","MAREA":" ","LANE":"３２巷","ALLEY":" ","HOUSE_NO":"２３號","E_COORD97":172995.56,"N_COORD97":2548398,"ADDRESS":"中正一街３２巷２３號","OBJECTID":222808},"geometry":{"x":172995.55999999959,"y":2548398.0000000037}},{"attributes":{"ID":222813,"DIS_CODE":0,"TOWNNAME":"永康區","LI":"龍潭里","LIN":"44鄰","STREET":"永平街","SECT":" ","MAREA":" ","LANE":"２９８巷","ALLEY":" ","HOUSE_NO":"１５之１８號","E_COORD97":174677.48999999999,"N_COORD97":2547138.7999999998,"ADDRESS":"永平街２９８巷１５之１８號","OBJECTID":222809},"geometry":{"x":174677.49000000209,"y":2547138.8000000045}},{"attributes":{"ID":222814,"DIS_CODE":0,"TOWNNAME":"永康區","LI":"網寮里","LIN":"10鄰","STREET":"永勝街","SECT":" ","MAREA":" ","LANE":"１５１巷","ALLEY":" ","HOUSE_NO":"１３號","E_COORD97":173312.10000000001,"N_COORD97":2546412.0099999998,"ADDRESS":"永勝街１５１巷１３號","OBJECTID":222810},"geometry":{"x":173312.10000000056,"y":2546412.0100000016}},{"attributes":{"ID":222815,"DIS_CODE":0,"TOWNNAME":"永康區","LI":"五王里","LIN":"37鄰","STREET":"中華路","SECT":" ","MAREA":" ","LANE":"５７８巷","ALLEY":" ","HOUSE_NO":"１５號之４９","E_COORD97":171276.03,"N_COORD97":2545965.79,"ADDRESS":"中華路５７８巷１５號之４９","OBJECTID":222811},"geometry":{"x":171276.03000000026,"y":2545965.7899999991}},{"attributes":{"ID":222816,"DIS_CODE":0,"TOWNNAME":"永康區","LI":"蔦松里","LIN":"4鄰","STREET":"蔦松二街","SECT":" ","MAREA":" ","LANE":"１６２巷","ALLEY":" ","HOUSE_NO":"１３號之１","E_COORD97":173903.26999999999,"N_COORD97":2549392.79,"ADDRESS":"蔦松二街１６２巷１３號之１","OBJECTID":222812},"geometry":{"x":173903.26999999955,"y":2549392.790000001}},{"attributes":{"ID":222817,"DIS_CODE":0,"TOWNNAME":"永康區","LI":"北灣里","LIN":"37鄰","STREET":"大同街","SECT":" ","MAREA":" ","LANE":"３２０巷","ALLEY":" ","HOUSE_NO":"１之１號","E_COORD97":174791.85000000001,"N_COORD97":2545959.9199999999,"ADDRESS":"大同街３２０巷１之１號","OBJECTID":222813},"geometry":{"x":174791.85000000056,"y":2545959.9199999999}},{"attributes":{"ID":222818,"DIS_CODE":0,"TOWNNAME":"永康區","LI":"\u25A0洲里","LIN":"37鄰","STREET":"\u25A0洲二街","SECT":" ","MAREA":" ","LANE":"１９７巷","ALLEY":" ","HOUSE_NO":"１６號","E_COORD97":171739.29999999999,"N_COORD97":2549478.7400000002,"ADDRESS":"\u25A0洲二街１９７巷１６號","OBJECTID":222814},"geometry":{"x":171739.30000000075,"y":2549478.7400000021}},{"attributes":{"ID":222819,"DIS_CODE":0,"TOWNNAME":"永康區","LI":"\u25A0洲里","LIN":"37鄰","STREET":"\u25A0洲二街","SECT":" ","MAREA":" ","LANE":"１９７巷","ALLEY":" ","HOUSE_NO":"３２號","E_COORD97":171719.29999999999,"N_COORD97":2549498.7400000002,"ADDRESS":"\u25A0洲二街１９７巷３２號","OBJECTID":222815},"geometry":{"x":171719.29999999981,"y":2549498.7400000021}},{"attributes":{"ID":222820,"DIS_CODE":0,"TOWNNAME":"永康區","LI":"\u25A0洲里","LIN":"37鄰","STREET":"\u25A0洲二街","SECT":" ","MAREA":" ","LANE":"１７５巷","ALLEY":" ","HOUSE_NO":"１４１號","E_COORD97":171701.59,"N_COORD97":2549547.5,"ADDRESS":"\u25A0洲二街１７５巷１４１號","OBJECTID":222816},"geometry":{"x":171701.59000000078,"y":2549547.5000000019}},{"attributes":{"ID":222821,"DIS_CODE":0,"TOWNNAME":"仁德區","LI":"太子里","LIN":"37鄰","STREET":"長興一街","SECT":" ","MAREA":" ","LANE":"４０巷","ALLEY":" ","HOUSE_NO":"３２號","E_COORD97":174488.48999999999,"N_COORD97":2543902,"ADDRESS":"長興一街４０巷３２號","OBJECTID":222817},"geometry":{"x":174488.49000000022,"y":2543901.9999999981}},{"attributes":{"ID":222822,"DIS_CODE":0,"TOWNNAME":"仁德區","LI":"成功里","LIN":"37鄰","STREET":"保華路","SECT":" ","MAREA":" ","LANE":"２巷","ALLEY":" ","HOUSE_NO":"１號","E_COORD97":170766.70000000001,"N_COORD97":2540020.75,"ADDRESS":"保華路２巷１號","OBJECTID":222818},"geometry":{"x":170766.69999999925,"y":2540020.75}},{"attributes":{"ID":222823,"DIS_CODE":0,"TOWNNAME":"歸仁區","LI":"南保里","LIN":"37鄰","STREET":"中山路","SECT":"三段","MAREA":" ","LANE":"１３８巷","ALLEY":" ","HOUSE_NO":"１０號","E_COORD97":176670.64000000001,"N_COORD97":2540968.6099999999,"ADDRESS":"中山路三段１３８巷１０號","OBJECTID":222819},"geometry":{"x":176670.63999999966,"y":2540968.6100000013}},{"attributes":{"ID":222824,"DIS_CODE":0,"TOWNNAME":"歸仁區","LI":"南興里","LIN":"37鄰","STREET":"中山路","SECT":"三段","MAREA":" ","LANE":"４３６巷","ALLEY":" ","HOUSE_NO":"６６號","E_COORD97":175975.41,"N_COORD97":2541171.2799999998,"ADDRESS":"中山路三段４３６巷６６號","OBJECTID":222820},"geometry":{"x":175975.41000000108,"y":2541171.2800000012}},{"attributes":{"ID":222825,"DIS_CODE":0,"TOWNNAME":"歸仁區","LI":"南保里","LIN":"37鄰","STREET":"中山路","SECT":"三段","MAREA":" ","LANE":"１３８巷","ALLEY":" ","HOUSE_NO":"３８號","E_COORD97":176678.10999999999,"N_COORD97":2541024.2799999998,"ADDRESS":"中山路三段１３８巷３８號","OBJECTID":222821},"geometry":{"x":176678.11000000034,"y":2541024.2799999975}},{"attributes":{"ID":222826,"DIS_CODE":0,"TOWNNAME":"北區","LI":"成德里","LIN":"37鄰","STREET":"文成五街","SECT":" ","MAREA":" ","LANE":"２８０巷","ALLEY":" ","HOUSE_NO":"９號","E_COORD97":168084.5,"N_COORD97":2546509.79,"ADDRESS":"文成五街２８０巷９號","OBJECTID":222822},"geometry":{"x":168084.50000000186,"y":2546509.7900000028}},{"attributes":{"ID":222827,"DIS_CODE":0,"TOWNNAME":"北區","LI":"成德里","LIN":"37鄰","STREET":"文成五街","SECT":" ","MAREA":" ","LANE":"２８０巷","ALLEY":" ","HOUSE_NO":"１２號","E_COORD97":168098.34,"N_COORD97":2546511.0600000001,"ADDRESS":"文成五街２８０巷１２號","OBJECTID":222823},"geometry":{"x":168098.33999999985,"y":2546511.0600000024}},{"attributes":{"ID":222828,"DIS_CODE":0,"TOWNNAME":"北區","LI":"成德里","LIN":"37鄰","STREET":"文成五街","SECT":" ","MAREA":" ","LANE":"２８０巷","ALLEY":" ","HOUSE_NO":"１３號","E_COORD97":168083.73999999999,"N_COORD97":2546520.21,"ADDRESS":"文成五街２８０巷１３號","OBJECTID":222824},"geometry":{"x":168083.74000000115,"y":2546520.2100000028}},{"attributes":{"ID":222829,"DIS_CODE":0,"TOWNNAME":"北區","LI":"成德里","LIN":"37鄰","STREET":"文成五街","SECT":" ","MAREA":" ","LANE":"２８０巷","ALLEY":" ","HOUSE_NO":"１５號","E_COORD97":168083.10000000001,"N_COORD97":2546525.9199999999,"ADDRESS":"文成五街２８０巷１５號","OBJECTID":222825},"geometry":{"x":168083.09999999963,"y":2546525.9199999999}},{"attributes":{"ID":222830,"DIS_CODE":0,"TOWNNAME":"北區","LI":"成德里","LIN":"37鄰","STREET":"文成五街","SECT":" ","MAREA":" ","LANE":"２８０巷","ALLEY":" ","HOUSE_NO":"１６號","E_COORD97":168097.70999999999,"N_COORD97":2546516.3999999999,"ADDRESS":"文成五街２８０巷１６號","OBJECTID":222826},"geometry":{"x":168097.70999999996,"y":2546516.4000000004}},{"attributes":{"ID":222831,"DIS_CODE":0,"TOWNNAME":"北區","LI":"成德里","LIN":"37鄰","STREET":"文成五街","SECT":" ","MAREA":" ","LANE":"２８０巷","ALLEY":" ","HOUSE_NO":"１７號","E_COORD97":168082.59,"N_COORD97":2546531.5099999998,"ADDRESS":"文成五街２８０巷１７號","OBJECTID":222827},"geometry":{"x":168082.59000000078,"y":2546531.5099999998}},{"attributes":{"ID":222832,"DIS_CODE":0,"TOWNNAME":"永康區","LI":"龍潭里","LIN":"45鄰","STREET":"永平街","SECT":" ","MAREA":" ","LANE":"２３２巷","ALLEY":" ","HOUSE_NO":"２６號","E_COORD97":174658.91,"N_COORD97":2547119.9900000002,"ADDRESS":"永平街２３２巷２６號","OBJECTID":222828},"geometry":{"x":174658.91000000015,"y":2547119.9900000039}},{"attributes":{"ID":222833,"DIS_CODE":0,"TOWNNAME":"永康區","LI":"復興里","LIN":"14鄰","STREET":"復興路","SECT":" ","MAREA":" ","LANE":"２８２巷","ALLEY":" ","HOUSE_NO":"１５號","E_COORD97":172361.75,"N_COORD97":2544374.9300000002,"ADDRESS":"復興路２８２巷１５號","OBJECTID":222829},"geometry":{"x":172361.75000000093,"y":2544374.9300000016}},{"attributes":{"ID":222834,"DIS_CODE":0,"TOWNNAME":"北區","LI":"成德里","LIN":"37鄰","STREET":"文成五街","SECT":" ","MAREA":" ","LANE":"２９０巷","ALLEY":" ","HOUSE_NO":"１０號","E_COORD97":168065.19,"N_COORD97":2546500.3300000001,"ADDRESS":"文成五街２９０巷１０號","OBJECTID":222830},"geometry":{"x":168065.19000000134,"y":2546500.3300000038}},{"attributes":{"ID":222835,"DIS_CODE":0,"TOWNNAME":"永康區","LI":"復華里","LIN":"37鄰","STREET":"復華七街","SECT":" ","MAREA":" ","LANE":"３２巷","ALLEY":" ","HOUSE_NO":"２５號八樓之３","E_COORD97":172712.01999999999,"N_COORD97":2545945.04,"ADDRESS":"復華七街３２巷２５號八樓之３","OBJECTID":222831},"geometry":{"x":172712.02000000048,"y":2545945.0399999991}},{"attributes":{"ID":222836,"DIS_CODE":0,"TOWNNAME":"中西區","LI":"大涼里","LIN":"28鄰","STREET":"永華一街","SECT":" ","MAREA":" ","LANE":"８５巷","ALLEY":" ","HOUSE_NO":"２號","E_COORD97":166872.39999999999,"N_COORD97":2543488.8900000001,"ADDRESS":"永華一街８５巷２號","OBJECTID":222832},"geometry":{"x":166872.4000000013,"y":2543488.8900000006}},{"attributes":{"ID":222837,"DIS_CODE":0,"TOWNNAME":"中西區","LI":"藥王里","LIN":"1鄰","STREET":"金華路","SECT":"四段","MAREA":" ","LANE":" ","ALLEY":" ","HOUSE_NO":"３５號","E_COORD97":167426.32000000001,"N_COORD97":2544293.3199999998,"ADDRESS":"金華路四段３５號","OBJECTID":222833},"geometry":{"x":167426.3200000003,"y":2544293.3200000003}},{"attributes":{"ID":222838,"DIS_CODE":0,"TOWNNAME":"中西區","LI":"藥王里","LIN":"1鄰","STREET":"金華路","SECT":"四段","MAREA":" ","LANE":" ","ALLEY":" ","HOUSE_NO":"３７號","E_COORD97":167427.29000000001,"N_COORD97":2544296.2200000002,"ADDRESS":"金華路四段３７號","OBJECTID":222834},"geometry":{"x":167427.29000000097,"y":2544296.2200000025}},{"attributes":{"ID":222839,"DIS_CODE":0,"TOWNNAME":"中西區","LI":"藥王里","LIN":"1鄰","STREET":"金華路","SECT":"四段","MAREA":" ","LANE":" ","ALLEY":" ","HOUSE_NO":"３９號","E_COORD97":167429.23000000001,"N_COORD97":2544299.8500000001,"ADDRESS":"金華路四段３９號","OBJECTID":222835},"geometry":{"x":167429.23000000138,"y":2544299.8500000015}},{"attributes":{"ID":222840,"DIS_CODE":0,"TOWNNAME":"中西區","LI":"藥王里","LIN":"1鄰","STREET":"金華路","SECT":"四段","MAREA":" ","LANE":" ","ALLEY":" ","HOUSE_NO":"４１號","E_COORD97":167429.95000000001,"N_COORD97":2544304.6899999999,"ADDRESS":"金華路四段４１號","OBJECTID":222836},"geometry":{"x":167429.95000000019,"y":2544304.6900000013}},{"attributes":{"ID":222841,"DIS_CODE":0,"TOWNNAME":"中西區","LI":"藥王里","LIN":"1鄰","STREET":"金華路","SECT":"四段","MAREA":" ","LANE":" ","ALLEY":" ","HOUSE_NO":"４３號","E_COORD97":167432.37,"N_COORD97":2544312.9100000001,"ADDRESS":"金華路四段４３號","OBJECTID":222837},"geometry":{"x":167432.37000000011,"y":2544312.9100000001}},{"attributes":{"ID":222842,"DIS_CODE":0,"TOWNNAME":"中西區","LI":"藥王里","LIN":"1鄰","STREET":"金華路","SECT":"四段","MAREA":" ","LANE":" ","ALLEY":" ","HOUSE_NO":"４５號","E_COORD97":167435.03,"N_COORD97":2544318.96,"ADDRESS":"金華路四段４５號","OBJECTID":222838},"geometry":{"x":167435.03000000026,"y":2544318.9600000009}},{"attributes":{"ID":222843,"DIS_CODE":0,"TOWNNAME":"中西區","LI":"協和里","LIN":"1鄰","STREET":"臨安路","SECT":"一段","MAREA":" ","LANE":" ","ALLEY":" ","HOUSE_NO":"２４２號","E_COORD97":167407.60000000001,"N_COORD97":2544702.7799999998,"ADDRESS":"臨安路一段２４２號","OBJECTID":222839},"geometry":{"x":167407.60000000056,"y":2544702.7799999993}},{"attributes":{"ID":222844,"DIS_CODE":0,"TOWNNAME":"中西區","LI":"文賢里","LIN":"1鄰","STREET":"文賢路","SECT":" ","MAREA":" ","LANE":" ","ALLEY":" ","HOUSE_NO":"２４１號","E_COORD97":167328.29000000001,"N_COORD97":2545056.3799999999,"ADDRESS":"文賢路２４１號","OBJECTID":222840},"geometry":{"x":167328.2900000019,"y":2545056.379999999}},{"attributes":{"ID":222845,"DIS_CODE":0,"TOWNNAME":"永康區","LI":"復華里","LIN":"37鄰","STREET":"復華七街","SECT":" ","MAREA":" ","LANE":"３２巷","ALLEY":" ","HOUSE_NO":"２５號二樓","E_COORD97":172709.79000000001,"N_COORD97":2545945.02,"ADDRESS":"復華七街３２巷２５號二樓","OBJECTID":222841},"geometry":{"x":172709.79000000004,"y":2545945.0199999996}},{"attributes":{"ID":222846,"DIS_CODE":0,"TOWNNAME":"永康區","LI":"新樹里","LIN":"3鄰","STREET":"中山北路","SECT":" ","MAREA":" ","LANE":"６３４巷","ALLEY":" ","HOUSE_NO":"１６號","E_COORD97":176028.29000000001,"N_COORD97":2547842.0699999998,"ADDRESS":"中山北路６３４巷１６號","OBJECTID":222842},"geometry":{"x":176028.29000000097,"y":2547842.0700000022}},{"attributes":{"ID":222847,"DIS_CODE":0,"TOWNNAME":"東區","LI":"和平里","LIN":"17鄰","STREET":"仁和路","SECT":" ","MAREA":" ","LANE":" ","ALLEY":" ","HOUSE_NO":"７３號之１１２","E_COORD97":171338.51999999999,"N_COORD97":2541536.46,"ADDRESS":"仁和路７３號之１１２","OBJECTID":222843},"geometry":{"x":171338.51999999862,"y":2541536.4600000009}},{"attributes":{"ID":222848,"DIS_CODE":0,"TOWNNAME":"東區","LI":"和平里","LIN":"17鄰","STREET":"仁和路","SECT":" ","MAREA":" ","LANE":" ","ALLEY":" ","HOUSE_NO":"７３號之１１９","E_COORD97":171366.73999999999,"N_COORD97":2541541.4199999999,"ADDRESS":"仁和路７３號之１１９","OBJECTID":222844},"geometry":{"x":171366.74000000209,"y":2541541.4199999999}},{"attributes":{"ID":222849,"DIS_CODE":0,"TOWNNAME":"永康區","LI":"龍潭里","LIN":"37鄰","STREET":"中山北路","SECT":" ","MAREA":" ","LANE":"１６４巷","ALLEY":" ","HOUSE_NO":"１１８號之１","E_COORD97":174548.01000000001,"N_COORD97":2547327.5299999998,"ADDRESS":"中山北路１６４巷１１８號之１","OBJECTID":222845},"geometry":{"x":174548.01000000164,"y":2547327.5299999993}},{"attributes":{"ID":222850,"DIS_CODE":0,"TOWNNAME":"永康區","LI":"復華里","LIN":"37鄰","STREET":"復華七街","SECT":" ","MAREA":" ","LANE":"３２巷","ALLEY":" ","HOUSE_NO":"２５號六樓之２","E_COORD97":172712.06,"N_COORD97":2545945.04,"ADDRESS":"復華七街３２巷２５號六樓之２","OBJECTID":222846},"geometry":{"x":172712.06000000052,"y":2545945.0399999991}},{"attributes":{"ID":222851,"DIS_CODE":0,"TOWNNAME":"永康區","LI":"復華里","LIN":"37鄰","STREET":"復華七街","SECT":" ","MAREA":" ","LANE":"３２巷","ALLEY":" ","HOUSE_NO":"２５號十二樓之２","E_COORD97":172713.31,"N_COORD97":2545945.04,"ADDRESS":"復華七街３２巷２５號十二樓之２","OBJECTID":222847},"geometry":{"x":172713.31000000145,"y":2545945.0399999991}},{"attributes":{"ID":222852,"DIS_CODE":0,"TOWNNAME":"永康區","LI":"復華里","LIN":"37鄰","STREET":"復華七街","SECT":" ","MAREA":" ","LANE":"３２巷","ALLEY":" ","HOUSE_NO":"２５號九樓之２","E_COORD97":172712.06,"N_COORD97":2545945.04,"ADDRESS":"復華七街３２巷２５號九樓之２","OBJECTID":222848},"geometry":{"x":172712.06000000052,"y":2545945.0399999991}},{"attributes":{"ID":222853,"DIS_CODE":0,"TOWNNAME":"永康區","LI":"復華里","LIN":"37鄰","STREET":"復華七街","SECT":" ","MAREA":" ","LANE":"３２巷","ALLEY":" ","HOUSE_NO":"２５號五樓之３","E_COORD97":172712.01999999999,"N_COORD97":2545945.04,"ADDRESS":"復華七街３２巷２５號五樓之３","OBJECTID":222849},"geometry":{"x":172712.02000000048,"y":2545945.0399999991}},{"attributes":{"ID":222854,"DIS_CODE":0,"TOWNNAME":"東區","LI":"和平里","LIN":"18鄰","STREET":"仁和路","SECT":" ","MAREA":" ","LANE":" ","ALLEY":" ","HOUSE_NO":"７９號之２","E_COORD97":171278.34,"N_COORD97":2541556.5899999999,"ADDRESS":"仁和路７９號之２","OBJECTID":222850},"geometry":{"x":171278.33999999985,"y":2541556.5900000017}},{"attributes":{"ID":222855,"DIS_CODE":0,"TOWNNAME":"永康區","LI":"復華里","LIN":"37鄰","STREET":"復華七街","SECT":" ","MAREA":" ","LANE":"３２巷","ALLEY":" ","HOUSE_NO":"２５號十樓之２","E_COORD97":172712.06,"N_COORD97":2545945.04,"ADDRESS":"復華七街３２巷２５號十樓之２","OBJECTID":222851},"geometry":{"x":172712.06000000052,"y":2545945.0399999991}},{"attributes":{"ID":222856,"DIS_CODE":0,"TOWNNAME":"永康區","LI":"復華里","LIN":"37鄰","STREET":"復華七街","SECT":" ","MAREA":" ","LANE":"３２巷","ALLEY":" ","HOUSE_NO":"３７號十樓之１","E_COORD97":172751.10000000001,"N_COORD97":2545927.0499999998,"ADDRESS":"復華七街３２巷３７號十樓之１","OBJECTID":222852},"geometry":{"x":172751.10000000056,"y":2545927.0500000026}},{"attributes":{"ID":222857,"DIS_CODE":0,"TOWNNAME":"永康區","LI":"\u25A0行里","LIN":"37鄰","STREET":"仁愛街","SECT":" ","MAREA":" ","LANE":"８４巷","ALLEY":" ","HOUSE_NO":"４號三樓","E_COORD97":172068.14000000001,"N_COORD97":2549396.1499999999,"ADDRESS":"仁愛街８４巷４號三樓","OBJECTID":222853},"geometry":{"x":172068.13999999966,"y":2549396.1500000004}},{"attributes":{"ID":222858,"DIS_CODE":0,"TOWNNAME":"永康區","LI":"龍潭里","LIN":"26鄰","STREET":"龍昌街","SECT":" ","MAREA":" ","LANE":"６６巷","ALLEY":" ","HOUSE_NO":"５４號","E_COORD97":175141.69,"N_COORD97":2547908.52,"ADDRESS":"龍昌街６６巷５４號","OBJECTID":222854},"geometry":{"x":175141.69000000041,"y":2547908.5199999996}},{"attributes":{"ID":222859,"DIS_CODE":0,"TOWNNAME":"永康區","LI":"龍潭里","LIN":"14鄰","STREET":"龍埔街","SECT":" ","MAREA":" ","LANE":"１５０巷","ALLEY":" ","HOUSE_NO":"２３號","E_COORD97":174428.31,"N_COORD97":2548353.2400000002,"ADDRESS":"龍埔街１５０巷２３號","OBJECTID":222855},"geometry":{"x":174428.30999999959,"y":2548353.2400000021}},{"attributes":{"ID":222860,"DIS_CODE":0,"TOWNNAME":"東區","LI":"忠孝里","LIN":"37鄰","STREET":"榮譽街","SECT":" ","MAREA":" ","LANE":"１３０巷","ALLEY":" ","HOUSE_NO":"３號二樓","E_COORD97":169910.70999999999,"N_COORD97":2541749.5699999998,"ADDRESS":"榮譽街１３０巷３號二樓","OBJECTID":222856},"geometry":{"x":169910.71000000089,"y":2541749.5700000022}},{"attributes":{"ID":222861,"DIS_CODE":0,"TOWNNAME":"東區","LI":"忠孝里","LIN":"37鄰","STREET":"榮譽街","SECT":" ","MAREA":" ","LANE":"１３０巷","ALLEY":" ","HOUSE_NO":"３號二樓之１","E_COORD97":169910.70999999999,"N_COORD97":2541749.5699999998,"ADDRESS":"榮譽街１３０巷３號二樓之１","OBJECTID":222857},"geometry":{"x":169910.71000000089,"y":2541749.5700000022}},{"attributes":{"ID":222862,"DIS_CODE":0,"TOWNNAME":"東區","LI":"忠孝里","LIN":"37鄰","STREET":"榮譽街","SECT":" ","MAREA":" ","LANE":"１３０巷","ALLEY":" ","HOUSE_NO":"３號三樓","E_COORD97":169910.70999999999,"N_COORD97":2541749.5699999998,"ADDRESS":"榮譽街１３０巷３號三樓","OBJECTID":222858},"geometry":{"x":169910.71000000089,"y":2541749.5700000022}},{"attributes":{"ID":222863,"DIS_CODE":0,"TOWNNAME":"東區","LI":"忠孝里","LIN":"37鄰","STREET":"榮譽街","SECT":" ","MAREA":" ","LANE":"１３０巷","ALLEY":" ","HOUSE_NO":"３號三樓之１","E_COORD97":169910.70999999999,"N_COORD97":2541749.5699999998,"ADDRESS":"榮譽街１３０巷３號三樓之１","OBJECTID":222859},"geometry":{"x":169910.71000000089,"y":2541749.5700000022}},{"attributes":{"ID":222864,"DIS_CODE":0,"TOWNNAME":"東區","LI":"忠孝里","LIN":"37鄰","STREET":"榮譽街","SECT":" ","MAREA":" ","LANE":"１３０巷","ALLEY":" ","HOUSE_NO":"３號五樓","E_COORD97":169910.70999999999,"N_COORD97":2541749.5699999998,"ADDRESS":"榮譽街１３０巷３號五樓","OBJECTID":222860},"geometry":{"x":169910.71000000089,"y":2541749.5700000022}},{"attributes":{"ID":222865,"DIS_CODE":0,"TOWNNAME":"東區","LI":"忠孝里","LIN":"37鄰","STREET":"榮譽街","SECT":" ","MAREA":" ","LANE":"１３０巷","ALLEY":" ","HOUSE_NO":"３號五樓之１","E_COORD97":169910.70999999999,"N_COORD97":2541749.5699999998,"ADDRESS":"榮譽街１３０巷３號五樓之１","OBJECTID":222861},"geometry":{"x":169910.71000000089,"y":2541749.5700000022}},{"attributes":{"ID":222866,"DIS_CODE":0,"TOWNNAME":"東區","LI":"忠孝里","LIN":"37鄰","STREET":"榮譽街","SECT":" ","MAREA":" ","LANE":"１３０巷","ALLEY":" ","HOUSE_NO":"３號六樓","E_COORD97":169910.70999999999,"N_COORD97":2541749.5699999998,"ADDRESS":"榮譽街１３０巷３號六樓","OBJECTID":222862},"geometry":{"x":169910.71000000089,"y":2541749.5700000022}},{"attributes":{"ID":222867,"DIS_CODE":0,"TOWNNAME":"東區","LI":"忠孝里","LIN":"37鄰","STREET":"榮譽街","SECT":" ","MAREA":" ","LANE":"１３０巷","ALLEY":" ","HOUSE_NO":"３號六樓之１","E_COORD97":169910.70999999999,"N_COORD97":2541749.5699999998,"ADDRESS":"榮譽街１３０巷３號六樓之１","OBJECTID":222863},"geometry":{"x":169910.71000000089,"y":2541749.5700000022}},{"attributes":{"ID":222868,"DIS_CODE":0,"TOWNNAME":"東區","LI":"忠孝里","LIN":"37鄰","STREET":"榮譽街","SECT":" ","MAREA":" ","LANE":"１３０巷","ALLEY":" ","HOUSE_NO":"３號四樓","E_COORD97":169910.70999999999,"N_COORD97":2541749.5699999998,"ADDRESS":"榮譽街１３０巷３號四樓","OBJECTID":222864},"geometry":{"x":169910.71000000089,"y":2541749.5700000022}},{"attributes":{"ID":222869,"DIS_CODE":0,"TOWNNAME":"東區","LI":"忠孝里","LIN":"37鄰","STREET":"榮譽街","SECT":" ","MAREA":" ","LANE":"１３０巷","ALLEY":" ","HOUSE_NO":"３號四樓之１","E_COORD97":169910.70999999999,"N_COORD97":2541749.5699999998,"ADDRESS":"榮譽街１３０巷３號四樓之１","OBJECTID":222865},"geometry":{"x":169910.71000000089,"y":2541749.5700000022}},{"attributes":{"ID":222870,"DIS_CODE":0,"TOWNNAME":"永康區","LI":"龍潭里","LIN":"30鄰","STREET":"龍昌街","SECT":" ","MAREA":" ","LANE":"６６巷","ALLEY":" ","HOUSE_NO":"１號","E_COORD97":175031.23999999999,"N_COORD97":2547922.4900000002,"ADDRESS":"龍昌街６６巷１號","OBJECTID":222866},"geometry":{"x":175031.24000000022,"y":2547922.4900000002}},{"attributes":{"ID":222871,"DIS_CODE":0,"TOWNNAME":"永康區","LI":"北灣里","LIN":"37鄰","STREET":"大同街","SECT":" ","MAREA":" ","LANE":"３１５巷","ALLEY":" ","HOUSE_NO":"１０號九樓之１","E_COORD97":174714.59,"N_COORD97":2546024.02,"ADDRESS":"大同街３１５巷１０號九樓之１","OBJECTID":222867},"geometry":{"x":174714.58999999985,"y":2546024.0200000033}},{"attributes":{"ID":222872,"DIS_CODE":0,"TOWNNAME":"永康區","LI":"北灣里","LIN":"37鄰","STREET":"大同街","SECT":" ","MAREA":" ","LANE":"３８０巷","ALLEY":" ","HOUSE_NO":"８號五樓之１","E_COORD97":174772.06,"N_COORD97":2546080.75,"ADDRESS":"大同街３８０巷８號五樓之１","OBJECTID":222868},"geometry":{"x":174772.05999999959,"y":2546080.7500000037}},{"attributes":{"ID":222873,"DIS_CODE":0,"TOWNNAME":"永康區","LI":"復華里","LIN":"37鄰","STREET":"復華七街","SECT":" ","MAREA":" ","LANE":"３２巷","ALLEY":" ","HOUSE_NO":"３７號七樓之２","E_COORD97":172751.23000000001,"N_COORD97":2545927.0499999998,"ADDRESS":"復華七街３２巷３７號七樓之２","OBJECTID":222869},"geometry":{"x":172751.23000000045,"y":2545927.0500000026}},{"attributes":{"ID":222874,"DIS_CODE":0,"TOWNNAME":"永康區","LI":"北灣里","LIN":"37鄰","STREET":"大同街","SECT":" ","MAREA":" ","LANE":"３８０巷","ALLEY":" ","HOUSE_NO":"８號九樓之２","E_COORD97":174772.20000000001,"N_COORD97":2546080.75,"ADDRESS":"大同街３８０巷８號九樓之２","OBJECTID":222870},"geometry":{"x":174772.20000000019,"y":2546080.7500000037}},{"attributes":{"ID":222875,"DIS_CODE":0,"TOWNNAME":"永康區","LI":"北灣里","LIN":"37鄰","STREET":"大同街","SECT":" ","MAREA":" ","LANE":"３１５巷","ALLEY":" ","HOUSE_NO":"８號八樓之２","E_COORD97":174724.07999999999,"N_COORD97":2546025.2200000002,"ADDRESS":"大同街３１５巷８號八樓之２","OBJECTID":222871},"geometry":{"x":174724.08000000194,"y":2546025.2200000025}},{"attributes":{"ID":222876,"DIS_CODE":0,"TOWNNAME":"永康區","LI":"北灣里","LIN":"37鄰","STREET":"大同街","SECT":" ","MAREA":" ","LANE":"３８０巷","ALLEY":" ","HOUSE_NO":"８號二樓","E_COORD97":174769.92999999999,"N_COORD97":2546080.71,"ADDRESS":"大同街３８０巷８號二樓","OBJECTID":222872},"geometry":{"x":174769.9299999997,"y":2546080.7100000009}},{"attributes":{"ID":222877,"DIS_CODE":0,"TOWNNAME":"永康區","LI":"北灣里","LIN":"37鄰","STREET":"大同街","SECT":" ","MAREA":" ","LANE":"３１５巷","ALLEY":" ","HOUSE_NO":"１０號四樓之２","E_COORD97":174714.73000000001,"N_COORD97":2546024.02,"ADDRESS":"大同街３１５巷１０號四樓之２","OBJECTID":222873},"geometry":{"x":174714.73000000045,"y":2546024.0200000033}},{"attributes":{"ID":222878,"DIS_CODE":0,"TOWNNAME":"永康區","LI":"北灣里","LIN":"37鄰","STREET":"大同街","SECT":" ","MAREA":" ","LANE":"３１５巷","ALLEY":" ","HOUSE_NO":"１０號三樓之１","E_COORD97":174714.59,"N_COORD97":2546024.02,"ADDRESS":"大同街３１５巷１０號三樓之１","OBJECTID":222874},"geometry":{"x":174714.58999999985,"y":2546024.0200000033}},{"attributes":{"ID":222879,"DIS_CODE":0,"TOWNNAME":"永康區","LI":"龍潭里","LIN":"8鄰","STREET":"龍橋街","SECT":" ","MAREA":" ","LANE":"３７巷","ALLEY":" ","HOUSE_NO":"２４號","E_COORD97":174787.31,"N_COORD97":2548293.5800000001,"ADDRESS":"龍橋街３７巷２４號","OBJECTID":222875},"geometry":{"x":174787.30999999959,"y":2548293.5800000019}},{"attributes":{"ID":222880,"DIS_CODE":0,"TOWNNAME":"永康區","LI":"蔦松里","LIN":"1鄰","STREET":"蔦松二街","SECT":" ","MAREA":" ","LANE":"８７巷","ALLEY":" ","HOUSE_NO":"２５號","E_COORD97":173657.01999999999,"N_COORD97":2549267.2400000002,"ADDRESS":"蔦松二街８７巷２５號","OBJECTID":222876},"geometry":{"x":173657.01999999955,"y":2549267.2400000002}},{"attributes":{"ID":222881,"DIS_CODE":0,"TOWNNAME":"永康區","LI":"蔦松里","LIN":"1鄰","STREET":"蔦松二街","SECT":" ","MAREA":" ","LANE":"３９巷","ALLEY":" ","HOUSE_NO":"４號","E_COORD97":173653.85000000001,"N_COORD97":2549237.5,"ADDRESS":"蔦松二街３９巷４號","OBJECTID":222877},"geometry":{"x":173653.85000000149,"y":2549237.5}},{"attributes":{"ID":222882,"DIS_CODE":0,"TOWNNAME":"永康區","LI":"\u25A0行里","LIN":"37鄰","STREET":"仁愛街","SECT":" ","MAREA":" ","LANE":"８４巷","ALLEY":" ","HOUSE_NO":"６號四樓","E_COORD97":172077.14000000001,"N_COORD97":2549388.1499999999,"ADDRESS":"仁愛街８４巷６號四樓","OBJECTID":222878},"geometry":{"x":172077.14000000153,"y":2549388.1500000022}},{"attributes":{"ID":222883,"DIS_CODE":0,"TOWNNAME":"永康區","LI":"龍潭里","LIN":"37鄰","STREET":"中山北路","SECT":" ","MAREA":" ","LANE":"１６４巷","ALLEY":" ","HOUSE_NO":"１１４號之３三樓","E_COORD97":174537.16,"N_COORD97":2547361.6499999999,"ADDRESS":"中山北路１６４巷１１４號之３三樓","OBJECTID":222879},"geometry":{"x":174537.16000000201,"y":2547361.6500000004}},{"attributes":{"ID":222884,"DIS_CODE":0,"TOWNNAME":"永康區","LI":"龍潭里","LIN":"37鄰","STREET":"中山北路","SECT":" ","MAREA":" ","LANE":"１６４巷","ALLEY":" ","HOUSE_NO":"１１６號之２三樓","E_COORD97":174539.32000000001,"N_COORD97":2547325.1400000001,"ADDRESS":"中山北路１６４巷１１６號之２三樓","OBJECTID":222880},"geometry":{"x":174539.3200000003,"y":2547325.1400000006}},{"attributes":{"ID":222885,"DIS_CODE":0,"TOWNNAME":"永康區","LI":"復華里","LIN":"37鄰","STREET":"復華七街","SECT":" ","MAREA":" ","LANE":"３２巷","ALLEY":" ","HOUSE_NO":"３７號三樓之２","E_COORD97":172751.23000000001,"N_COORD97":2545927.0499999998,"ADDRESS":"復華七街３２巷３７號三樓之２","OBJECTID":222881},"geometry":{"x":172751.23000000045,"y":2545927.0500000026}},{"attributes":{"ID":222886,"DIS_CODE":0,"TOWNNAME":"永康區","LI":"復華里","LIN":"37鄰","STREET":"復華七街","SECT":" ","MAREA":" ","LANE":"３２巷","ALLEY":" ","HOUSE_NO":"３５號五樓之１","E_COORD97":172747.57000000001,"N_COORD97":2545943.54,"ADDRESS":"復華七街３２巷３５號五樓之１","OBJECTID":222882},"geometry":{"x":172747.5700000003,"y":2545943.540000001}},{"attributes":{"ID":222887,"DIS_CODE":0,"TOWNNAME":"永康區","LI":"復華里","LIN":"37鄰","STREET":"復華七街","SECT":" ","MAREA":" ","LANE":"３２巷","ALLEY":" ","HOUSE_NO":"２９號八樓之２","E_COORD97":172731.17000000001,"N_COORD97":2545951.54,"ADDRESS":"復華七街３２巷２９號八樓之２","OBJECTID":222883},"geometry":{"x":172731.16999999993,"y":2545951.5399999991}},{"attributes":{"ID":222888,"DIS_CODE":0,"TOWNNAME":"永康區","LI":"復華里","LIN":"37鄰","STREET":"復華七街","SECT":" ","MAREA":" ","LANE":"３２巷","ALLEY":" ","HOUSE_NO":"２９號六樓之２","E_COORD97":172731.17000000001,"N_COORD97":2545951.54,"ADDRESS":"復華七街３２巷２９號六樓之２","OBJECTID":222884},"geometry":{"x":172731.16999999993,"y":2545951.5399999991}},{"attributes":{"ID":222889,"DIS_CODE":0,"TOWNNAME":"中西區","LI":"萬昌里","LIN":"17鄰","STREET":"青年路","SECT":" ","MAREA":" ","LANE":"１３２巷","ALLEY":" ","HOUSE_NO":"１９號","E_COORD97":168930.48000000001,"N_COORD97":2543533.73,"ADDRESS":"青年路１３２巷１９號","OBJECTID":222885},"geometry":{"x":168930.48000000045,"y":2543533.7300000004}},{"attributes":{"ID":222890,"DIS_CODE":0,"TOWNNAME":"仁德區","LI":"仁愛里","LIN":"28鄰","STREET":"大同路","SECT":"三段","MAREA":" ","LANE":"３５８巷","ALLEY":" ","HOUSE_NO":"７６號","E_COORD97":169717.70699999999,"N_COORD97":2539387.233,"ADDRESS":"大同路三段３５８巷７６號","OBJECTID":222886},"geometry":{"x":169717.70700000133,"y":2539387.2329999972}},{"attributes":{"ID":222891,"DIS_CODE":0,"TOWNNAME":"仁德區","LI":"仁愛里","LIN":"28鄰","STREET":"大同路","SECT":"三段","MAREA":" ","LANE":"３５８巷","ALLEY":" ","HOUSE_NO":"４０號","E_COORD97":169717.57000000001,"N_COORD97":2539451.7200000002,"ADDRESS":"大同路三段３５８巷４０號","OBJECTID":222887},"geometry":{"x":169717.57000000123,"y":2539451.7200000007}},{"attributes":{"ID":222892,"DIS_CODE":0,"TOWNNAME":"仁德區","LI":"仁愛里","LIN":"28鄰","STREET":"大同路","SECT":"三段","MAREA":" ","LANE":"３５８巷","ALLEY":" ","HOUSE_NO":"６６號","E_COORD97":169717.65700000001,"N_COORD97":2539405.1030000001,"ADDRESS":"大同路三段３５８巷６６號","OBJECTID":222888},"geometry":{"x":169717.65700000059,"y":2539405.1030000001}},{"attributes":{"ID":222893,"DIS_CODE":0,"TOWNNAME":"仁德區","LI":"仁愛里","LIN":"28鄰","STREET":"機場路","SECT":" ","MAREA":" ","LANE":" ","ALLEY":" ","HOUSE_NO":"１３１２號","E_COORD97":169692.802,"N_COORD97":2539314.27,"ADDRESS":"機場路１３１２號","OBJECTID":222889},"geometry":{"x":169692.80200000107,"y":2539314.2700000014}},{"attributes":{"ID":222894,"DIS_CODE":0,"TOWNNAME":"仁德區","LI":"仁愛里","LIN":"28鄰","STREET":"機場路","SECT":" ","MAREA":" ","LANE":" ","ALLEY":" ","HOUSE_NO":"１３００號","E_COORD97":169692.64199999999,"N_COORD97":2539291.8799999999,"ADDRESS":"機場路１３００號","OBJECTID":222890},"geometry":{"x":169692.64200000092,"y":2539291.8800000008}},{"attributes":{"ID":222895,"DIS_CODE":0,"TOWNNAME":"仁德區","LI":"仁愛里","LIN":"28鄰","STREET":"機場路","SECT":" ","MAREA":" ","LANE":" ","ALLEY":" ","HOUSE_NO":"１２９２號","E_COORD97":169692.72200000001,"N_COORD97":2539273.1299999999,"ADDRESS":"機場路１２９２號","OBJECTID":222891},"geometry":{"x":169692.72200000007,"y":2539273.1300000008}},{"attributes":{"ID":222896,"DIS_CODE":0,"TOWNNAME":"仁德區","LI":"仁愛里","LIN":"28鄰","STREET":"機場路","SECT":" ","MAREA":" ","LANE":" ","ALLEY":" ","HOUSE_NO":"１３１６號","E_COORD97":169692.85200000001,"N_COORD97":2539318.9700000002,"ADDRESS":"機場路１３１６號","OBJECTID":222892},"geometry":{"x":169692.85200000089,"y":2539318.9700000007}},{"attributes":{"ID":222897,"DIS_CODE":0,"TOWNNAME":"永康區","LI":"龍潭里","LIN":"37鄰","STREET":"中山北路","SECT":" ","MAREA":" ","LANE":"１６４巷","ALLEY":" ","HOUSE_NO":"１１４號之１四樓","E_COORD97":174537,"N_COORD97":2547383.8999999999,"ADDRESS":"中山北路１６４巷１１４號之１四樓","OBJECTID":222893},"geometry":{"x":174537.00000000093,"y":2547383.9000000004}},{"attributes":{"ID":222898,"DIS_CODE":0,"TOWNNAME":"永康區","LI":"龍潭里","LIN":"37鄰","STREET":"中山北路","SECT":" ","MAREA":" ","LANE":"１６４巷","ALLEY":" ","HOUSE_NO":"１２０號四樓","E_COORD97":174549.29999999999,"N_COORD97":2547364.5699999998,"ADDRESS":"中山北路１６４巷１２０號四樓","OBJECTID":222894},"geometry":{"x":174549.29999999888,"y":2547364.5700000022}},{"attributes":{"ID":222899,"DIS_CODE":0,"TOWNNAME":"永康區","LI":"復華里","LIN":"37鄰","STREET":"復華七街","SECT":" ","MAREA":" ","LANE":"３２巷","ALLEY":" ","HOUSE_NO":"２５號四樓之２","E_COORD97":172712.06,"N_COORD97":2545945.04,"ADDRESS":"復華七街３２巷２５號四樓之２","OBJECTID":222895},"geometry":{"x":172712.06000000052,"y":2545945.0399999991}},{"attributes":{"ID":222900,"DIS_CODE":0,"TOWNNAME":"中西區","LI":"郡西里","LIN":"11鄰","STREET":"康樂街","SECT":" ","MAREA":" ","LANE":" ","ALLEY":" ","HOUSE_NO":"１號","E_COORD97":167336.20000000001,"N_COORD97":2543388.9100000001,"ADDRESS":"康樂街１號","OBJECTID":222896},"geometry":{"x":167336.20000000112,"y":2543388.910000002}},{"attributes":{"ID":222901,"DIS_CODE":0,"TOWNNAME":"永康區","LI":"龍潭里","LIN":"37鄰","STREET":"中山北路","SECT":" ","MAREA":" ","LANE":"１６４巷","ALLEY":" ","HOUSE_NO":"１１８號五樓","E_COORD97":174547.42000000001,"N_COORD97":2547314.3599999999,"ADDRESS":"中山北路１６４巷１１８號五樓","OBJECTID":222897},"geometry":{"x":174547.42000000086,"y":2547314.3600000013}},{"attributes":{"ID":222902,"DIS_CODE":0,"TOWNNAME":"永康區","LI":"龍潭里","LIN":"26鄰","STREET":"龍昌街","SECT":" ","MAREA":" ","LANE":"６６巷","ALLEY":" ","HOUSE_NO":"１６號","E_COORD97":175066.10999999999,"N_COORD97":2547897.5699999998,"ADDRESS":"龍昌街６６巷１６號","OBJECTID":222898},"geometry":{"x":175066.11000000034,"y":2547897.5700000022}},{"attributes":{"ID":222903,"DIS_CODE":0,"TOWNNAME":"永康區","LI":"龍潭里","LIN":"25鄰","STREET":"龍昌街","SECT":" ","MAREA":" ","LANE":"２３巷","ALLEY":" ","HOUSE_NO":"２號","E_COORD97":174989.48999999999,"N_COORD97":2547815.8199999998,"ADDRESS":"龍昌街２３巷２號","OBJECTID":222899},"geometry":{"x":174989.49000000115,"y":2547815.8200000003}},{"attributes":{"ID":222904,"DIS_CODE":0,"TOWNNAME":"永康區","LI":"龍潭里","LIN":"44鄰","STREET":"永平街","SECT":" ","MAREA":" ","LANE":"２９８巷","ALLEY":" ","HOUSE_NO":"１３之２５號","E_COORD97":174662.17999999999,"N_COORD97":2547136.4399999999,"ADDRESS":"永平街２９８巷１３之２５號","OBJECTID":222900},"geometry":{"x":174662.18000000063,"y":2547136.4400000032}},{"attributes":{"ID":222905,"DIS_CODE":0,"TOWNNAME":"永康區","LI":"龍潭里","LIN":"39鄰","STREET":"永明街","SECT":" ","MAREA":" ","LANE":"２１５巷","ALLEY":" ","HOUSE_NO":"１０號","E_COORD97":174532.04999999999,"N_COORD97":2547239.6800000002,"ADDRESS":"永明街２１５巷１０號","OBJECTID":222901},"geometry":{"x":174532.04999999981,"y":2547239.6799999997}},{"attributes":{"ID":222906,"DIS_CODE":0,"TOWNNAME":"歸仁區","LI":"辜厝里","LIN":"37鄰","STREET":"中正南路","SECT":"一段","MAREA":" ","LANE":"２１８巷","ALLEY":" ","HOUSE_NO":"２５號一樓之４","E_COORD97":177261.94,"N_COORD97":2540344.2599999998,"ADDRESS":"中正南路一段２１８巷２５號一樓之４","OBJECTID":222902},"geometry":{"x":177261.94000000134,"y":2540344.2600000016}},{"attributes":{"ID":222907,"DIS_CODE":0,"TOWNNAME":"歸仁區","LI":"辜厝里","LIN":"37鄰","STREET":"中正南路","SECT":"一段","MAREA":" ","LANE":"２１８巷","ALLEY":" ","HOUSE_NO":"２５號六樓之５","E_COORD97":177261.97,"N_COORD97":2540344.2599999998,"ADDRESS":"中正南路一段２１８巷２５號六樓之５","OBJECTID":222903},"geometry":{"x":177261.96999999974,"y":2540344.2600000016}},{"attributes":{"ID":222908,"DIS_CODE":0,"TOWNNAME":"歸仁區","LI":"辜厝里","LIN":"37鄰","STREET":"中正南路","SECT":"一段","MAREA":" ","LANE":"２１８巷","ALLEY":" ","HOUSE_NO":"２５號四樓之５","E_COORD97":177261.97,"N_COORD97":2540344.2599999998,"ADDRESS":"中正南路一段２１８巷２５號四樓之５","OBJECTID":222904},"geometry":{"x":177261.96999999974,"y":2540344.2600000016}},{"attributes":{"ID":222909,"DIS_CODE":0,"TOWNNAME":"歸仁區","LI":"辜厝里","LIN":"37鄰","STREET":"中正南路","SECT":"一段","MAREA":" ","LANE":"２１８巷","ALLEY":" ","HOUSE_NO":"２５號四樓之６","E_COORD97":177261.95999999999,"N_COORD97":2540344.2599999998,"ADDRESS":"中正南路一段２１８巷２５號四樓之６","OBJECTID":222905},"geometry":{"x":177261.95999999996,"y":2540344.2600000016}},{"attributes":{"ID":222910,"DIS_CODE":0,"TOWNNAME":"仁德區","LI":"成功里","LIN":"28鄰","STREET":"成功一街","SECT":" ","MAREA":" ","LANE":"２巷","ALLEY":" ","HOUSE_NO":"２５號","E_COORD97":170461.64999999999,"N_COORD97":2540246.7599999998,"ADDRESS":"成功一街２巷２５號","OBJECTID":222906},"geometry":{"x":170461.65000000037,"y":2540246.7600000016}},{"attributes":{"ID":222911,"DIS_CODE":0,"TOWNNAME":"仁德區","LI":"成功里","LIN":"28鄰","STREET":"成功一街","SECT":" ","MAREA":" ","LANE":"２巷","ALLEY":" ","HOUSE_NO":"１３號","E_COORD97":170503.23000000001,"N_COORD97":2540237.77,"ADDRESS":"成功一街２巷１３號","OBJECTID":222907},"geometry":{"x":170503.23000000138,"y":2540237.7699999996}},{"attributes":{"ID":222912,"DIS_CODE":0,"TOWNNAME":"仁德區","LI":"成功里","LIN":"28鄰","STREET":"成功一街","SECT":" ","MAREA":" ","LANE":"８巷","ALLEY":" ","HOUSE_NO":"１０號","E_COORD97":170506.23999999999,"N_COORD97":2540210.77,"ADDRESS":"成功一街８巷１０號","OBJECTID":222908},"geometry":{"x":170506.24000000115,"y":2540210.7699999996}},{"attributes":{"ID":222913,"DIS_CODE":0,"TOWNNAME":"仁德區","LI":"仁義里","LIN":"34鄰","STREET":"正義三街","SECT":" ","MAREA":" ","LANE":" ","ALLEY":" ","HOUSE_NO":"１３６號七樓","E_COORD97":173774.73000000001,"N_COORD97":2541621.2599999998,"ADDRESS":"正義三街１３６號七樓","OBJECTID":222909},"geometry":{"x":173774.73000000138,"y":2541621.2599999998}},{"attributes":{"ID":222914,"DIS_CODE":0,"TOWNNAME":"仁德區","LI":"仁義里","LIN":"34鄰","STREET":"正義三街","SECT":" ","MAREA":" ","LANE":" ","ALLEY":" ","HOUSE_NO":"１４６號七樓","E_COORD97":173803.29000000001,"N_COORD97":2541622.5099999998,"ADDRESS":"正義三街１４６號七樓","OBJECTID":222910},"geometry":{"x":173803.29000000004,"y":2541622.5099999998}},{"attributes":{"ID":222915,"DIS_CODE":0,"TOWNNAME":"仁德區","LI":"仁義里","LIN":"34鄰","STREET":"正義三街","SECT":" ","MAREA":" ","LANE":" ","ALLEY":" ","HOUSE_NO":"１３６號二樓","E_COORD97":173774.73000000001,"N_COORD97":2541621.2599999998,"ADDRESS":"正義三街１３６號二樓","OBJECTID":222911},"geometry":{"x":173774.73000000138,"y":2541621.2599999998}},{"attributes":{"ID":222916,"DIS_CODE":0,"TOWNNAME":"仁德區","LI":"仁義里","LIN":"34鄰","STREET":"正義二街","SECT":" ","MAREA":" ","LANE":" ","ALLEY":" ","HOUSE_NO":"１０７號六樓","E_COORD97":173678.37,"N_COORD97":2541601.5099999998,"ADDRESS":"正義二街１０７號六樓","OBJECTID":222912},"geometry":{"x":173678.37000000104,"y":2541601.5100000016}},{"attributes":{"ID":222917,"DIS_CODE":0,"TOWNNAME":"仁德區","LI":"仁義里","LIN":"34鄰","STREET":"正義三街","SECT":" ","MAREA":" ","LANE":" ","ALLEY":" ","HOUSE_NO":"１４６號六樓","E_COORD97":173803.29000000001,"N_COORD97":2541622.5099999998,"ADDRESS":"正義三街１４６號六樓","OBJECTID":222913},"geometry":{"x":173803.29000000004,"y":2541622.5099999998}},{"attributes":{"ID":222918,"DIS_CODE":0,"TOWNNAME":"仁德區","LI":"仁義里","LIN":"34鄰","STREET":"正義二街","SECT":" ","MAREA":" ","LANE":" ","ALLEY":" ","HOUSE_NO":"１０３號二樓","E_COORD97":173660.20999999999,"N_COORD97":2541599.5099999998,"ADDRESS":"正義二街１０３號二樓","OBJECTID":222914},"geometry":{"x":173660.21000000183,"y":2541599.5099999998}},{"attributes":{"ID":222919,"DIS_CODE":0,"TOWNNAME":"仁德區","LI":"仁義里","LIN":"34鄰","STREET":"正義二街","SECT":" ","MAREA":" ","LANE":" ","ALLEY":" ","HOUSE_NO":"１０３號三樓","E_COORD97":173660.20999999999,"N_COORD97":2541599.5099999998,"ADDRESS":"正義二街１０３號三樓","OBJECTID":222915},"geometry":{"x":173660.21000000183,"y":2541599.5099999998}},{"attributes":{"ID":222920,"DIS_CODE":0,"TOWNNAME":"永康區","LI":"東灣里","LIN":"28鄰","STREET":"民族路","SECT":" ","MAREA":" ","LANE":" ","ALLEY":" ","HOUSE_NO":"１７５號","E_COORD97":175269.78,"N_COORD97":2544864.0299999998,"ADDRESS":"民族路１７５號","OBJECTID":222916},"geometry":{"x":175269.78000000026,"y":2544864.0300000031}},{"attributes":{"ID":222921,"DIS_CODE":0,"TOWNNAME":"歸仁區","LI":"辜厝里","LIN":"37鄰","STREET":"中正南路","SECT":"一段","MAREA":" ","LANE":"２１８巷","ALLEY":" ","HOUSE_NO":"２５號五樓之５","E_COORD97":177261.97,"N_COORD97":2540344.2599999998,"ADDRESS":"中正南路一段２１８巷２５號五樓之５","OBJECTID":222917},"geometry":{"x":177261.96999999974,"y":2540344.2600000016}},{"attributes":{"ID":222922,"DIS_CODE":0,"TOWNNAME":"永康區","LI":"\u25A0行里","LIN":"28鄰","STREET":"竹林街","SECT":" ","MAREA":" ","LANE":" ","ALLEY":" ","HOUSE_NO":"４１號","E_COORD97":172757.94,"N_COORD97":2548873.23,"ADDRESS":"竹林街４１號","OBJECTID":222918},"geometry":{"x":172757.94000000134,"y":2548873.2300000004}},{"attributes":{"ID":222923,"DIS_CODE":0,"TOWNNAME":"永康區","LI":"五王里","LIN":"28鄰","STREET":"五福街","SECT":" ","MAREA":" ","LANE":" ","ALLEY":" ","HOUSE_NO":"１８６號","E_COORD97":171657.85000000001,"N_COORD97":2546040.5,"ADDRESS":"五福街１８６號","OBJECTID":222919},"geometry":{"x":171657.84999999963,"y":2546040.5}},{"attributes":{"ID":222924,"DIS_CODE":0,"TOWNNAME":"永康區","LI":"永康里","LIN":"37鄰","STREET":"西勢路","SECT":" ","MAREA":" ","LANE":"７３８巷","ALLEY":" ","HOUSE_NO":"１７號","E_COORD97":174531.64000000001,"N_COORD97":2546805.4199999999,"ADDRESS":"西勢路７３８巷１７號","OBJECTID":222920},"geometry":{"x":174531.64000000153,"y":2546805.4200000018}},{"attributes":{"ID":222925,"DIS_CODE":0,"TOWNNAME":"永康區","LI":"東灣里","LIN":"28鄰","STREET":"民族路","SECT":" ","MAREA":" ","LANE":" ","ALLEY":" ","HOUSE_NO":"１３１號","E_COORD97":175357.76000000001,"N_COORD97":2544762.79,"ADDRESS":"民族路１３１號","OBJECTID":222921},"geometry":{"x":175357.75999999978,"y":2544762.7899999991}},{"attributes":{"ID":222926,"DIS_CODE":0,"TOWNNAME":"永康區","LI":"永康里","LIN":"37鄰","STREET":"西勢路","SECT":" ","MAREA":" ","LANE":"７３８巷","ALLEY":" ","HOUSE_NO":"２１號","E_COORD97":174529.56,"N_COORD97":2546813.1699999999,"ADDRESS":"西勢路７３８巷２１號","OBJECTID":222922},"geometry":{"x":174529.56000000052,"y":2546813.1700000037}},{"attributes":{"ID":222927,"DIS_CODE":0,"TOWNNAME":"安南區","LI":"溪墘里","LIN":"28鄰","STREET":"海佃路","SECT":"一段","MAREA":" ","LANE":" ","ALLEY":" ","HOUSE_NO":"４８號","E_COORD97":167224.98999999999,"N_COORD97":2546851.8999999999,"ADDRESS":"海佃路一段４８號","OBJECTID":222923},"geometry":{"x":167224.99000000022,"y":2546851.9000000004}},{"attributes":{"ID":222928,"DIS_CODE":0,"TOWNNAME":"安南區","LI":"溪墘里","LIN":"28鄰","STREET":"海佃路","SECT":"一段","MAREA":" ","LANE":" ","ALLEY":" ","HOUSE_NO":"５０號","E_COORD97":167223.72,"N_COORD97":2546855.3900000001,"ADDRESS":"海佃路一段５０號","OBJECTID":222924},"geometry":{"x":167223.72000000067,"y":2546855.3900000006}},{"attributes":{"ID":222929,"DIS_CODE":0,"TOWNNAME":"永康區","LI":"永康里","LIN":"37鄰","STREET":"西勢路","SECT":" ","MAREA":" ","LANE":"７３８巷","ALLEY":" ","HOUSE_NO":"５１號","E_COORD97":174511.48000000001,"N_COORD97":2546888.3799999999,"ADDRESS":"西勢路７３８巷５１號","OBJECTID":222925},"geometry":{"x":174511.48000000231,"y":2546888.379999999}},{"attributes":{"ID":222930,"DIS_CODE":0,"TOWNNAME":"東區","LI":"忠孝里","LIN":"24鄰","STREET":"崇明五街","SECT":" ","MAREA":" ","LANE":" ","ALLEY":" ","HOUSE_NO":"２７號","E_COORD97":169635.95000000001,"N_COORD97":2542255.3199999998,"ADDRESS":"崇明五街２７號","OBJECTID":222926},"geometry":{"x":169635.95000000019,"y":2542255.3200000003}},{"attributes":{"ID":222931,"DIS_CODE":0,"TOWNNAME":"東區","LI":"南聖里","LIN":"8鄰","STREET":"裕農路","SECT":" ","MAREA":" ","LANE":" ","ALLEY":" ","HOUSE_NO":"７４２號","E_COORD97":171870.14000000001,"N_COORD97":2543236.7000000002,"ADDRESS":"裕農路７４２號","OBJECTID":222927},"geometry":{"x":171870.13999999873,"y":2543236.7000000011}},{"attributes":{"ID":222932,"DIS_CODE":0,"TOWNNAME":"永康區","LI":"蔦松里","LIN":"4鄰","STREET":"蔦松二街","SECT":" ","MAREA":" ","LANE":"１５４巷","ALLEY":" ","HOUSE_NO":"６號","E_COORD97":173869.10999999999,"N_COORD97":2549387.2400000002,"ADDRESS":"蔦松二街１５４巷６號","OBJECTID":222928},"geometry":{"x":173869.11000000034,"y":2549387.2400000021}},{"attributes":{"ID":222933,"DIS_CODE":0,"TOWNNAME":"東區","LI":"富裕里","LIN":"12鄰","STREET":"裕豐街","SECT":" ","MAREA":" ","LANE":" ","ALLEY":" ","HOUSE_NO":"７４之１號","E_COORD97":170727.01000000001,"N_COORD97":2542811.1800000002,"ADDRESS":"裕豐街７４之１號","OBJECTID":222929},"geometry":{"x":170727.01000000164,"y":2542811.1799999997}},{"attributes":{"ID":222934,"DIS_CODE":0,"TOWNNAME":"歸仁區","LI":"南保里","LIN":"37鄰","STREET":"中山路","SECT":"三段","MAREA":" ","LANE":"１３８巷","ALLEY":" ","HOUSE_NO":"１４號","E_COORD97":176679.25,"N_COORD97":2540968.6400000001,"ADDRESS":"中山路三段１３８巷１４號","OBJECTID":222930},"geometry":{"x":176679.25000000093,"y":2540968.6400000006}},{"attributes":{"ID":222935,"DIS_CODE":0,"TOWNNAME":"東區","LI":"富裕里","LIN":"13鄰","STREET":"裕豐街","SECT":" ","MAREA":" ","LANE":" ","ALLEY":" ","HOUSE_NO":"５號","E_COORD97":170686.26999999999,"N_COORD97":2542690.2200000002,"ADDRESS":"裕豐街５號","OBJECTID":222931},"geometry":{"x":170686.27000000048,"y":2542690.2200000007}},{"attributes":{"ID":222936,"DIS_CODE":0,"TOWNNAME":"東區","LI":"裕農里","LIN":"14鄰","STREET":"裕豐街","SECT":" ","MAREA":" ","LANE":" ","ALLEY":" ","HOUSE_NO":"２３０號","E_COORD97":170801.89999999999,"N_COORD97":2543225.6899999999,"ADDRESS":"裕豐街２３０號","OBJECTID":222932},"geometry":{"x":170801.9000000013,"y":2543225.6900000032}},{"attributes":{"ID":222937,"DIS_CODE":0,"TOWNNAME":"歸仁區","LI":"南保里","LIN":"37鄰","STREET":"中山路","SECT":"三段","MAREA":" ","LANE":"１３８巷","ALLEY":" ","HOUSE_NO":"３０號","E_COORD97":176676.01000000001,"N_COORD97":2541009.2799999998,"ADDRESS":"中山路三段１３８巷３０號","OBJECTID":222933},"geometry":{"x":176676.01000000071,"y":2541009.2800000012}},{"attributes":{"ID":222938,"DIS_CODE":0,"TOWNNAME":"歸仁區","LI":"六甲里","LIN":"37鄰","STREET":"六甲八街","SECT":" ","MAREA":" ","LANE":"１９０巷","ALLEY":" ","HOUSE_NO":"１３號","E_COORD97":175378.939977,"N_COORD97":2539684.8111899998,"ADDRESS":"六甲八街１９０巷１３號","OBJECTID":222934},"geometry":{"x":175378.9399770014,"y":2539684.8111889996}},{"attributes":{"ID":222939,"DIS_CODE":0,"TOWNNAME":"歸仁區","LI":"南保里","LIN":"37鄰","STREET":"民權八街","SECT":" ","MAREA":" ","LANE":"８５巷","ALLEY":" ","HOUSE_NO":"１號","E_COORD97":176691.20999999999,"N_COORD97":2541026.25,"ADDRESS":"民權八街８５巷１號","OBJECTID":222935},"geometry":{"x":176691.21000000183,"y":2541026.2500000019}},{"attributes":{"ID":222940,"DIS_CODE":0,"TOWNNAME":"永康區","LI":"永康里","LIN":"37鄰","STREET":"西勢路","SECT":" ","MAREA":" ","LANE":"７３８巷","ALLEY":" ","HOUSE_NO":"７號","E_COORD97":174534.44,"N_COORD97":2546786.4199999999,"ADDRESS":"西勢路７３８巷７號","OBJECTID":222936},"geometry":{"x":174534.44000000134,"y":2546786.4199999999}},{"attributes":{"ID":222941,"DIS_CODE":0,"TOWNNAME":"中西區","LI":"西湖里","LIN":"37鄰","STREET":"和緯路","SECT":"五段","MAREA":" ","LANE":"８９巷","ALLEY":" ","HOUSE_NO":"８３號","E_COORD97":166405.81,"N_COORD97":2545017.5699999998,"ADDRESS":"和緯路五段８９巷８３號","OBJECTID":222937},"geometry":{"x":166405.81000000052,"y":2545017.570000004}},{"attributes":{"ID":222942,"DIS_CODE":0,"TOWNNAME":"中西區","LI":"西湖里","LIN":"37鄰","STREET":"和緯路","SECT":"五段","MAREA":" ","LANE":"８９巷","ALLEY":" ","HOUSE_NO":"８５號","E_COORD97":166405.31,"N_COORD97":2545014.0099999998,"ADDRESS":"和緯路五段８９巷８５號","OBJECTID":222938},"geometry":{"x":166405.30999999866,"y":2545014.0100000035}},{"attributes":{"ID":222943,"DIS_CODE":0,"TOWNNAME":"永康區","LI":"永康里","LIN":"37鄰","STREET":"西勢路","SECT":" ","MAREA":" ","LANE":"７３８巷","ALLEY":" ","HOUSE_NO":"１９號","E_COORD97":174530.09,"N_COORD97":2546809.4199999999,"ADDRESS":"西勢路７３８巷１９號","OBJECTID":222939},"geometry":{"x":174530.08999999985,"y":2546809.4200000018}},{"attributes":{"ID":222944,"DIS_CODE":0,"TOWNNAME":"永康區","LI":"新樹里","LIN":"3鄰","STREET":"富強路","SECT":"二段","MAREA":" ","LANE":"３９８巷","ALLEY":" ","HOUSE_NO":"４０號","E_COORD97":175655.20000000001,"N_COORD97":2547632.8900000001,"ADDRESS":"富強路二段３９８巷４０號","OBJECTID":222940},"geometry":{"x":175655.20000000019,"y":2547632.8900000043}},{"attributes":{"ID":222945,"DIS_CODE":0,"TOWNNAME":"永康區","LI":"永康里","LIN":"37鄰","STREET":"西勢路","SECT":" ","MAREA":" ","LANE":"７３８巷","ALLEY":" ","HOUSE_NO":"１號","E_COORD97":174538.14999999999,"N_COORD97":2546774.6699999999,"ADDRESS":"西勢路７３８巷１號","OBJECTID":222941},"geometry":{"x":174538.1500000013,"y":2546774.6699999999}},{"attributes":{"ID":222946,"DIS_CODE":0,"TOWNNAME":"東區","LI":"富裕里","LIN":"13鄰","STREET":"裕豐街","SECT":" ","MAREA":" ","LANE":" ","ALLEY":" ","HOUSE_NO":"３５號","E_COORD97":170699.06,"N_COORD97":2542775.1000000001,"ADDRESS":"裕豐街３５號","OBJECTID":222942},"geometry":{"x":170699.05999999959,"y":2542775.0999999996}},{"attributes":{"ID":222947,"DIS_CODE":0,"TOWNNAME":"東區","LI":"富裕里","LIN":"13鄰","STREET":"裕豐街","SECT":" ","MAREA":" ","LANE":" ","ALLEY":" ","HOUSE_NO":"４３號","E_COORD97":170704.04000000001,"N_COORD97":2542791.79,"ADDRESS":"裕豐街４３號","OBJECTID":222943},"geometry":{"x":170704.04000000097,"y":2542791.790000001}},{"attributes":{"ID":222948,"DIS_CODE":0,"TOWNNAME":"永康區","LI":"龍潭里","LIN":"44鄰","STREET":"永平街","SECT":" ","MAREA":" ","LANE":"２９８巷","ALLEY":" ","HOUSE_NO":"３之７號","E_COORD97":174660.16,"N_COORD97":2547120.04,"ADDRESS":"永平街２９８巷３之７號","OBJECTID":222944},"geometry":{"x":174660.16000000015,"y":2547120.040000001}},{"attributes":{"ID":222949,"DIS_CODE":0,"TOWNNAME":"永康區","LI":"網寮里","LIN":"10鄰","STREET":"永二街","SECT":" ","MAREA":" ","LANE":"２４４巷","ALLEY":" ","HOUSE_NO":"１４號","E_COORD97":173290.48000000001,"N_COORD97":2546433.6099999999,"ADDRESS":"永二街２４４巷１４號","OBJECTID":222945},"geometry":{"x":173290.48000000045,"y":2546433.6100000031}},{"attributes":{"ID":222950,"DIS_CODE":0,"TOWNNAME":"永康區","LI":"永康里","LIN":"37鄰","STREET":"西勢路","SECT":" ","MAREA":" ","LANE":"７３８巷","ALLEY":" ","HOUSE_NO":"３號","E_COORD97":174536.64999999999,"N_COORD97":2546779.1699999999,"ADDRESS":"西勢路７３８巷３號","OBJECTID":222946},"geometry":{"x":174536.65000000037,"y":2546779.1699999981}},{"attributes":{"ID":222951,"DIS_CODE":0,"TOWNNAME":"永康區","LI":"五王里","LIN":"37鄰","STREET":"中華路","SECT":" ","MAREA":" ","LANE":"５７８巷","ALLEY":" ","HOUSE_NO":"１５號之９０","E_COORD97":171276,"N_COORD97":2545965.79,"ADDRESS":"中華路５７８巷１５號之９０","OBJECTID":222947},"geometry":{"x":171276,"y":2545965.7899999991}},{"attributes":{"ID":222952,"DIS_CODE":0,"TOWNNAME":"東區","LI":"莊敬里","LIN":"24鄰","STREET":"東光路","SECT":"二段","MAREA":" ","LANE":"２５巷","ALLEY":" ","HOUSE_NO":"１１號","E_COORD97":171149.98000000001,"N_COORD97":2544030.3799999999,"ADDRESS":"東光路二段２５巷１１號","OBJECTID":222948},"geometry":{"x":171149.98000000231,"y":2544030.379999999}},{"attributes":{"ID":222953,"DIS_CODE":0,"TOWNNAME":"東區","LI":"莊敬里","LIN":"24鄰","STREET":"東光路","SECT":"二段","MAREA":" ","LANE":"２５巷","ALLEY":" ","HOUSE_NO":"１號","E_COORD97":171181.12,"N_COORD97":2544027.4399999999,"ADDRESS":"東光路二段２５巷１號","OBJECTID":222949},"geometry":{"x":171181.12000000104,"y":2544027.4400000032}},{"attributes":{"ID":222954,"DIS_CODE":0,"TOWNNAME":"東區","LI":"莊敬里","LIN":"24鄰","STREET":"東光路","SECT":"二段","MAREA":" ","LANE":"２５巷","ALLEY":" ","HOUSE_NO":"３號","E_COORD97":171174.72,"N_COORD97":2544028.3199999998,"ADDRESS":"東光路二段２５巷３號","OBJECTID":222950},"geometry":{"x":171174.7200000016,"y":2544028.3200000003}},{"attributes":{"ID":222955,"DIS_CODE":0,"TOWNNAME":"東區","LI":"莊敬里","LIN":"24鄰","STREET":"東光路","SECT":"二段","MAREA":" ","LANE":"２５巷","ALLEY":" ","HOUSE_NO":"５號","E_COORD97":171168.39000000001,"N_COORD97":2544028.4700000002,"ADDRESS":"東光路二段２５巷５號","OBJECTID":222951},"geometry":{"x":171168.39000000153,"y":2544028.4700000044}},{"attributes":{"ID":222956,"DIS_CODE":0,"TOWNNAME":"東區","LI":"莊敬里","LIN":"24鄰","STREET":"東光路","SECT":"二段","MAREA":" ","LANE":"２５巷","ALLEY":" ","HOUSE_NO":"７號","E_COORD97":171162.35000000001,"N_COORD97":2544029.3500000001,"ADDRESS":"東光路二段２５巷７號","OBJECTID":222952},"geometry":{"x":171162.35000000056,"y":2544029.3500000015}},{"attributes":{"ID":222957,"DIS_CODE":0,"TOWNNAME":"永康區","LI":"龍潭里","LIN":"37鄰","STREET":"中山北路","SECT":" ","MAREA":" ","LANE":"１６４巷","ALLEY":" ","HOUSE_NO":"１１４號之２","E_COORD97":174534.73000000001,"N_COORD97":2547373.1499999999,"ADDRESS":"中山北路１６４巷１１４號之２","OBJECTID":222953},"geometry":{"x":174534.73000000045,"y":2547373.1499999985}},{"attributes":{"ID":222958,"DIS_CODE":0,"TOWNNAME":"永康區","LI":"埔園里","LIN":"37鄰","STREET":"龍國街","SECT":" ","MAREA":" ","LANE":"１３１巷","ALLEY":" ","HOUSE_NO":"１０號","E_COORD97":174329.39000000001,"N_COORD97":2548141.4100000001,"ADDRESS":"龍國街１３１巷１０號","OBJECTID":222954},"geometry":{"x":174329.38999999966,"y":2548141.410000002}},{"attributes":{"ID":222959,"DIS_CODE":0,"TOWNNAME":"永康區","LI":"埔園里","LIN":"37鄰","STREET":"龍國街","SECT":" ","MAREA":" ","LANE":"１３１巷","ALLEY":" ","HOUSE_NO":"１號","E_COORD97":174297.91,"N_COORD97":2548088.6400000001,"ADDRESS":"龍國街１３１巷１號","OBJECTID":222955},"geometry":{"x":174297.91000000015,"y":2548088.6400000006}},{"attributes":{"ID":222960,"DIS_CODE":0,"TOWNNAME":"東區","LI":"大學里","LIN":"11鄰","STREET":"長榮路","SECT":"三段","MAREA":" ","LANE":"６６巷","ALLEY":" ","HOUSE_NO":"１號","E_COORD97":170245.03,"N_COORD97":2543808.6800000002,"ADDRESS":"長榮路三段６６巷１號","OBJECTID":222956},"geometry":{"x":170245.03000000119,"y":2543808.6799999997}},{"attributes":{"ID":222961,"DIS_CODE":0,"TOWNNAME":"新市區","LI":"新和里","LIN":"37鄰","STREET":"仁愛街","SECT":" ","MAREA":" ","LANE":"２４１巷","ALLEY":" ","HOUSE_NO":"１７號","E_COORD97":177567.73000000001,"N_COORD97":2552910.0299999998,"ADDRESS":"仁愛街２４１巷１７號","OBJECTID":222957},"geometry":{"x":177567.73000000045,"y":2552910.0300000012}},{"attributes":{"ID":222962,"DIS_CODE":0,"TOWNNAME":"新市區","LI":"新和里","LIN":"37鄰","STREET":"仁愛街","SECT":" ","MAREA":" ","LANE":"２４１巷","ALLEY":" ","HOUSE_NO":"１１號","E_COORD97":177579.78,"N_COORD97":2552912.0299999998,"ADDRESS":"仁愛街２４１巷１１號","OBJECTID":222958},"geometry":{"x":177579.78000000119,"y":2552912.0299999993}},{"attributes":{"ID":222963,"DIS_CODE":0,"TOWNNAME":"永康區","LI":"埔園里","LIN":"37鄰","STREET":"龍國街","SECT":" ","MAREA":" ","LANE":"１３１巷","ALLEY":" ","HOUSE_NO":"３號","E_COORD97":174299.89000000001,"N_COORD97":2548093.46,"ADDRESS":"龍國街１３１巷３號","OBJECTID":222959},"geometry":{"x":174299.8900000006,"y":2548093.4600000009}},{"attributes":{"ID":222964,"DIS_CODE":0,"TOWNNAME":"東區","LI":"大智里","LIN":"37鄰","STREET":"崇善十五街","SECT":" ","MAREA":" ","LANE":"７巷","ALLEY":" ","HOUSE_NO":"１７號","E_COORD97":171447.64999999999,"N_COORD97":2540533.2000000002,"ADDRESS":"崇善十五街７巷１７號","OBJECTID":222960},"geometry":{"x":171447.6500000013,"y":2540533.1999999974}},{"attributes":{"ID":222965,"DIS_CODE":0,"TOWNNAME":"永康區","LI":"\u25A0行里","LIN":"37鄰","STREET":"仁愛街","SECT":" ","MAREA":" ","LANE":"８４巷","ALLEY":" ","HOUSE_NO":"６號","E_COORD97":172074.64000000001,"N_COORD97":2549388.1499999999,"ADDRESS":"仁愛街８４巷６號","OBJECTID":222961},"geometry":{"x":172074.63999999966,"y":2549388.1500000022}},{"attributes":{"ID":222966,"DIS_CODE":0,"TOWNNAME":"東區","LI":"大智里","LIN":"37鄰","STREET":"崇善十五街","SECT":" ","MAREA":" ","LANE":"７巷","ALLEY":" ","HOUSE_NO":"６２號","E_COORD97":171475.42999999999,"N_COORD97":2540470.23,"ADDRESS":"崇善十五街７巷６２號","OBJECTID":222962},"geometry":{"x":171475.43000000063,"y":2540470.2300000042}},{"attributes":{"ID":222967,"DIS_CODE":0,"TOWNNAME":"東區","LI":"大智里","LIN":"37鄰","STREET":"崇善十五街","SECT":" ","MAREA":" ","LANE":"７巷","ALLEY":" ","HOUSE_NO":"６８號","E_COORD97":171483.64000000001,"N_COORD97":2540457.79,"ADDRESS":"崇善十五街７巷６８號","OBJECTID":222963},"geometry":{"x":171483.63999999873,"y":2540457.7899999972}},{"attributes":{"ID":222968,"DIS_CODE":0,"TOWNNAME":"東區","LI":"中西里","LIN":"37鄰","STREET":"林森路","SECT":"二段","MAREA":" ","LANE":"９１巷","ALLEY":" ","HOUSE_NO":"１號之１","E_COORD97":170386.29000000001,"N_COORD97":2543307.1600000001,"ADDRESS":"林森路二段９１巷１號之１","OBJECTID":222964},"geometry":{"x":170386.2900000019,"y":2543307.1600000001}},{"attributes":{"ID":222969,"DIS_CODE":0,"TOWNNAME":"東區","LI":"中西里","LIN":"37鄰","STREET":"林森路","SECT":"二段","MAREA":" ","LANE":"９１巷","ALLEY":" ","HOUSE_NO":"２０號","E_COORD97":170374.554928,"N_COORD97":2543370.8380100001,"ADDRESS":"林森路二段９１巷２０號","OBJECTID":222965},"geometry":{"x":170374.55492800102,"y":2543370.838006001}},{"attributes":{"ID":222970,"DIS_CODE":0,"TOWNNAME":"東區","LI":"中西里","LIN":"37鄰","STREET":"林森路","SECT":"二段","MAREA":" ","LANE":"９１巷","ALLEY":" ","HOUSE_NO":"２１號","E_COORD97":170370.45999999999,"N_COORD97":2543355.3700000001,"ADDRESS":"林森路二段９１巷２１號","OBJECTID":222966},"geometry":{"x":170370.46000000089,"y":2543355.3700000029}},{"attributes":{"ID":222971,"DIS_CODE":0,"TOWNNAME":"東區","LI":"中西里","LIN":"37鄰","STREET":"林森路","SECT":"二段","MAREA":" ","LANE":"９１巷","ALLEY":" ","HOUSE_NO":"２２號","E_COORD97":170367.41,"N_COORD97":2543384.0299999998,"ADDRESS":"林森路二段９１巷２２號","OBJECTID":222967},"geometry":{"x":170367.41000000108,"y":2543384.0300000012}},{"attributes":{"ID":222972,"DIS_CODE":0,"TOWNNAME":"東區","LI":"中西里","LIN":"37鄰","STREET":"林森路","SECT":"二段","MAREA":" ","LANE":"９１巷","ALLEY":" ","HOUSE_NO":"２４號","E_COORD97":170365.84,"N_COORD97":2543387.6600000001,"ADDRESS":"林森路二段９１巷２４號","OBJECTID":222968},"geometry":{"x":170365.84000000078,"y":2543387.6600000001}},{"attributes":{"ID":222973,"DIS_CODE":0,"TOWNNAME":"東區","LI":"後甲里","LIN":"24鄰","STREET":"中華東路","SECT":"一段","MAREA":" ","LANE":"２０７巷","ALLEY":" ","HOUSE_NO":"４４號","E_COORD97":171571,"N_COORD97":2543404.4500000002,"ADDRESS":"中華東路一段２０７巷４４號","OBJECTID":222969},"geometry":{"x":171571,"y":2543404.4500000011}},{"attributes":{"ID":222974,"DIS_CODE":0,"TOWNNAME":"東區","LI":"後甲里","LIN":"24鄰","STREET":"中華東路","SECT":"一段","MAREA":" ","LANE":"２０７巷","ALLEY":" ","HOUSE_NO":"４８號","E_COORD97":171579.20000000001,"N_COORD97":2543405.1699999999,"ADDRESS":"中華東路一段２０７巷４８號","OBJECTID":222970},"geometry":{"x":171579.20000000112,"y":2543405.1699999999}},{"attributes":{"ID":222975,"DIS_CODE":0,"TOWNNAME":"永康區","LI":"\u25A0洲里","LIN":"37鄰","STREET":"\u25A0洲二街","SECT":" ","MAREA":" ","LANE":"１９７巷","ALLEY":" ","HOUSE_NO":"２２號","E_COORD97":171730.54999999999,"N_COORD97":2549486.7400000002,"ADDRESS":"\u25A0洲二街１９７巷２２號","OBJECTID":222971},"geometry":{"x":171730.55000000075,"y":2549486.7400000002}},{"attributes":{"ID":222976,"DIS_CODE":0,"TOWNNAME":"永康區","LI":"\u25A0行里","LIN":"37鄰","STREET":"仁愛街","SECT":" ","MAREA":" ","LANE":"８４巷","ALLEY":" ","HOUSE_NO":"４號","E_COORD97":172065.64000000001,"N_COORD97":2549396.1499999999,"ADDRESS":"仁愛街８４巷４號","OBJECTID":222972},"geometry":{"x":172065.6400000006,"y":2549396.1500000004}},{"attributes":{"ID":222977,"DIS_CODE":0,"TOWNNAME":"永康區","LI":"\u25A0洲里","LIN":"37鄰","STREET":"\u25A0洲二街","SECT":" ","MAREA":" ","LANE":"１９７巷","ALLEY":" ","HOUSE_NO":"２８號","E_COORD97":171724.82999999999,"N_COORD97":2549492.9900000002,"ADDRESS":"\u25A0洲二街１９７巷２８號","OBJECTID":222973},"geometry":{"x":171724.83000000007,"y":2549492.9899999984}},{"attributes":{"ID":222978,"DIS_CODE":0,"TOWNNAME":"西港區","LI":"慶安里","LIN":"28鄰","STREET":"新興街","SECT":" ","MAREA":" ","LANE":"１５巷","ALLEY":" ","HOUSE_NO":"５８號","E_COORD97":168090.32999999999,"N_COORD97":2557764.3500000001,"ADDRESS":"新興街１５巷５８號","OBJECTID":222974},"geometry":{"x":168090.33000000007,"y":2557764.3500000015}},{"attributes":{"ID":222979,"DIS_CODE":0,"TOWNNAME":"西港區","LI":"慶安里","LIN":"28鄰","STREET":"新興街","SECT":" ","MAREA":" ","LANE":"１５巷","ALLEY":" ","HOUSE_NO":"６０號","E_COORD97":168085.37,"N_COORD97":2557763.5499999998,"ADDRESS":"新興街１５巷６０號","OBJECTID":222975},"geometry":{"x":168085.36999999918,"y":2557763.5500000026}},{"attributes":{"ID":222980,"DIS_CODE":0,"TOWNNAME":"西港區","LI":"慶安里","LIN":"28鄰","STREET":"新興街","SECT":" ","MAREA":" ","LANE":"１５巷","ALLEY":" ","HOUSE_NO":"６２號","E_COORD97":168080.91,"N_COORD97":2557763.3700000001,"ADDRESS":"新興街１５巷６２號","OBJECTID":222976},"geometry":{"x":168080.91000000108,"y":2557763.370000001}},{"attributes":{"ID":222981,"DIS_CODE":0,"TOWNNAME":"永康區","LI":"西勢里","LIN":"28鄰","STREET":"廣興街","SECT":" ","MAREA":" ","LANE":"７６巷","ALLEY":" ","HOUSE_NO":"９９號","E_COORD97":176085.19,"N_COORD97":2546278.3900000001,"ADDRESS":"廣興街７６巷９９號","OBJECTID":222977},"geometry":{"x":176085.19000000134,"y":2546278.3900000025}},{"attributes":{"ID":222982,"DIS_CODE":0,"TOWNNAME":"永康區","LI":"西灣里","LIN":"28鄰","STREET":"公園路","SECT":" ","MAREA":" ","LANE":"７巷","ALLEY":" ","HOUSE_NO":"３１號","E_COORD97":174480.23000000001,"N_COORD97":2545946.8999999999,"ADDRESS":"公園路７巷３１號","OBJECTID":222978},"geometry":{"x":174480.23000000045,"y":2545946.9000000004}},{"attributes":{"ID":222983,"DIS_CODE":0,"TOWNNAME":"東區","LI":"泉南里","LIN":"28鄰","STREET":"府連東路","SECT":" ","MAREA":" ","LANE":"２２巷","ALLEY":" ","HOUSE_NO":"５１號","E_COORD97":169716.72,"N_COORD97":2542671.46,"ADDRESS":"府連東路２２巷５１號","OBJECTID":222979},"geometry":{"x":169716.71999999974,"y":2542671.4600000009}},{"attributes":{"ID":222984,"DIS_CODE":0,"TOWNNAME":"西港區","LI":"慶安里","LIN":"28鄰","STREET":"慶安路","SECT":" ","MAREA":" ","LANE":"９７巷","ALLEY":" ","HOUSE_NO":"２６號","E_COORD97":168107.22,"N_COORD97":2557807.5800000001,"ADDRESS":"慶安路９７巷２６號","OBJECTID":222980},"geometry":{"x":168107.22000000067,"y":2557807.5800000001}},{"attributes":{"ID":222985,"DIS_CODE":0,"TOWNNAME":"西港區","LI":"慶安里","LIN":"28鄰","STREET":"慶安路","SECT":" ","MAREA":" ","LANE":"９７巷","ALLEY":" ","HOUSE_NO":"２７號","E_COORD97":168127.32999999999,"N_COORD97":2557804.04,"ADDRESS":"慶安路９７巷２７號","OBJECTID":222981},"geometry":{"x":168127.33000000007,"y":2557804.0399999991}},{"attributes":{"ID":222986,"DIS_CODE":0,"TOWNNAME":"西港區","LI":"慶安里","LIN":"28鄰","STREET":"慶安路","SECT":" ","MAREA":" ","LANE":"９７巷","ALLEY":" ","HOUSE_NO":"２８號","E_COORD97":168106.37,"N_COORD97":2557802.96,"ADDRESS":"慶安路９７巷２８號","OBJECTID":222982},"geometry":{"x":168106.37000000104,"y":2557802.9600000009}},{"attributes":{"ID":222987,"DIS_CODE":0,"TOWNNAME":"西港區","LI":"慶安里","LIN":"28鄰","STREET":"慶安路","SECT":" ","MAREA":" ","LANE":"９７巷","ALLEY":" ","HOUSE_NO":"２９號","E_COORD97":168126.70000000001,"N_COORD97":2557799.6099999999,"ADDRESS":"慶安路９７巷２９號","OBJECTID":222983},"geometry":{"x":168126.70000000019,"y":2557799.6100000013}},{"attributes":{"ID":222988,"DIS_CODE":0,"TOWNNAME":"西港區","LI":"慶安里","LIN":"28鄰","STREET":"慶安路","SECT":" ","MAREA":" ","LANE":"９７巷","ALLEY":" ","HOUSE_NO":"２號","E_COORD97":168116.78,"N_COORD97":2557865.1099999999,"ADDRESS":"慶安路９７巷２號","OBJECTID":222984},"geometry":{"x":168116.78000000212,"y":2557865.1099999994}},{"attributes":{"ID":222989,"DIS_CODE":0,"TOWNNAME":"西港區","LI":"慶安里","LIN":"28鄰","STREET":"慶安路","SECT":" ","MAREA":" ","LANE":"９７巷","ALLEY":" ","HOUSE_NO":"３０號","E_COORD97":168105.31,"N_COORD97":2557798,"ADDRESS":"慶安路９７巷３０號","OBJECTID":222985},"geometry":{"x":168105.30999999959,"y":2557798}},{"attributes":{"ID":222990,"DIS_CODE":0,"TOWNNAME":"西港區","LI":"慶安里","LIN":"28鄰","STREET":"慶安路","SECT":" ","MAREA":" ","LANE":"９７巷","ALLEY":" ","HOUSE_NO":"３１號","E_COORD97":168125.84,"N_COORD97":2557795.2000000002,"ADDRESS":"慶安路９７巷３１號","OBJECTID":222986},"geometry":{"x":168125.83999999985,"y":2557795.2000000011}},{"attributes":{"ID":222991,"DIS_CODE":0,"TOWNNAME":"西港區","LI":"慶安里","LIN":"28鄰","STREET":"慶安路","SECT":" ","MAREA":" ","LANE":"９７巷","ALLEY":" ","HOUSE_NO":"３號","E_COORD97":168136.89000000001,"N_COORD97":2557862.4500000002,"ADDRESS":"慶安路９７巷３號","OBJECTID":222987},"geometry":{"x":168136.88999999966,"y":2557862.4499999993}},{"attributes":{"ID":222992,"DIS_CODE":0,"TOWNNAME":"西港區","LI":"慶安里","LIN":"28鄰","STREET":"慶安路","SECT":" ","MAREA":" ","LANE":"９７巷","ALLEY":" ","HOUSE_NO":"１０號","E_COORD97":168113.63,"N_COORD97":2557846.6099999999,"ADDRESS":"慶安路９７巷１０號","OBJECTID":222988},"geometry":{"x":168113.62999999989,"y":2557846.6100000013}},{"attributes":{"ID":222993,"DIS_CODE":0,"TOWNNAME":"西港區","LI":"慶安里","LIN":"28鄰","STREET":"慶安路","SECT":" ","MAREA":" ","LANE":"９７巷","ALLEY":" ","HOUSE_NO":"１１號","E_COORD97":168133.85000000001,"N_COORD97":2557841.8599999999,"ADDRESS":"慶安路９７巷１１號","OBJECTID":222989},"geometry":{"x":168133.84999999963,"y":2557841.8600000013}},{"attributes":{"ID":222994,"DIS_CODE":0,"TOWNNAME":"西港區","LI":"慶安里","LIN":"28鄰","STREET":"慶安路","SECT":" ","MAREA":" ","LANE":"９７巷","ALLEY":" ","HOUSE_NO":"１２號","E_COORD97":168112.31,"N_COORD97":2557842.3100000001,"ADDRESS":"慶安路９７巷１２號","OBJECTID":222990},"geometry":{"x":168112.30999999959,"y":2557842.3100000024}},{"attributes":{"ID":222995,"DIS_CODE":0,"TOWNNAME":"西港區","LI":"慶安里","LIN":"28鄰","STREET":"慶安路","SECT":" ","MAREA":" ","LANE":"９７巷","ALLEY":" ","HOUSE_NO":"１３號","E_COORD97":168133.29999999999,"N_COORD97":2557837.1400000001,"ADDRESS":"慶安路９７巷１３號","OBJECTID":222991},"geometry":{"x":168133.30000000075,"y":2557837.1400000025}},{"attributes":{"ID":222996,"DIS_CODE":0,"TOWNNAME":"西港區","LI":"慶安里","LIN":"28鄰","STREET":"慶安路","SECT":" ","MAREA":" ","LANE":"９７巷","ALLEY":" ","HOUSE_NO":"１４號","E_COORD97":168111.75,"N_COORD97":2557837.6299999999,"ADDRESS":"慶安路９７巷１４號","OBJECTID":222992},"geometry":{"x":168111.75000000093,"y":2557837.629999999}},{"attributes":{"ID":222997,"DIS_CODE":0,"TOWNNAME":"西港區","LI":"慶安里","LIN":"28鄰","STREET":"慶安路","SECT":" ","MAREA":" ","LANE":"９７巷","ALLEY":" ","HOUSE_NO":"１５號","E_COORD97":168131.64000000001,"N_COORD97":2557832.48,"ADDRESS":"慶安路９７巷１５號","OBJECTID":222993},"geometry":{"x":168131.63999999966,"y":2557832.4800000004}},{"attributes":{"ID":222998,"DIS_CODE":0,"TOWNNAME":"西港區","LI":"慶安里","LIN":"28鄰","STREET":"慶安路","SECT":" ","MAREA":" ","LANE":"９７巷","ALLEY":" ","HOUSE_NO":"１６號","E_COORD97":168111.39000000001,"N_COORD97":2557833.2200000002,"ADDRESS":"慶安路９７巷１６號","OBJECTID":222994},"geometry":{"x":168111.38999999966,"y":2557833.2200000025}},{"attributes":{"ID":222999,"DIS_CODE":0,"TOWNNAME":"西港區","LI":"慶安里","LIN":"28鄰","STREET":"慶安路","SECT":" ","MAREA":" ","LANE":"９７巷","ALLEY":" ","HOUSE_NO":"１７號","E_COORD97":168131.19,"N_COORD97":2557827.7599999998,"ADDRESS":"慶安路９７巷１７號","OBJECTID":222995},"geometry":{"x":168131.19000000227,"y":2557827.7600000035}},{"attributes":{"ID":223000,"DIS_CODE":0,"TOWNNAME":"西港區","LI":"慶安里","LIN":"28鄰","STREET":"慶安路","SECT":" ","MAREA":" ","LANE":"９７巷","ALLEY":" ","HOUSE_NO":"１８號","E_COORD97":168110.14000000001,"N_COORD97":2557828.2799999998,"ADDRESS":"慶安路９７巷１８號","OBJECTID":222996},"geometry":{"x":168110.13999999966,"y":2557828.2800000012}},{"attributes":{"ID":223001,"DIS_CODE":0,"TOWNNAME":"西港區","LI":"慶安里","LIN":"28鄰","STREET":"慶安路","SECT":" ","MAREA":" ","LANE":"９７巷","ALLEY":" ","HOUSE_NO":"１９號","E_COORD97":168130.5,"N_COORD97":2557823.1899999999,"ADDRESS":"慶安路９７巷１９號","OBJECTID":222997},"geometry":{"x":168130.50000000093,"y":2557823.1899999995}},{"attributes":{"ID":223002,"DIS_CODE":0,"TOWNNAME":"西港區","LI":"慶安里","LIN":"28鄰","STREET":"慶安路","SECT":" ","MAREA":" ","LANE":"９７巷","ALLEY":" ","HOUSE_NO":"２０號","E_COORD97":168109.26000000001,"N_COORD97":2557823.77,"ADDRESS":"慶安路９７巷２０號","OBJECTID":222998},"geometry":{"x":168109.25999999978,"y":2557823.7699999996}},{"attributes":{"ID":223003,"DIS_CODE":0,"TOWNNAME":"西港區","LI":"慶安里","LIN":"28鄰","STREET":"慶安路","SECT":" ","MAREA":" ","LANE":"９７巷","ALLEY":" ","HOUSE_NO":"８號","E_COORD97":168114.26000000001,"N_COORD97":2557851.0800000001,"ADDRESS":"慶安路９７巷８號","OBJECTID":222999},"geometry":{"x":168114.25999999978,"y":2557851.0800000019}},{"attributes":{"ID":223004,"DIS_CODE":0,"TOWNNAME":"西港區","LI":"慶安里","LIN":"28鄰","STREET":"慶安路","SECT":" ","MAREA":" ","LANE":"９７巷","ALLEY":" ","HOUSE_NO":"９號","E_COORD97":168134.70999999999,"N_COORD97":2557846.1099999999,"ADDRESS":"慶安路９７巷９號","OBJECTID":223000},"geometry":{"x":168134.70999999996,"y":2557846.1100000013}}]}