{"displayFieldName":"TOWNNAME","fieldAliases":{"ID":"ID","DIS_CODE":"DIS_CODE","TOWNNAME":"TOWNNAME","LI":"LI","LIN":"LIN","STREET":"STREET","SECT":"SECT","MAREA":"MAREA","LANE":"LANE","ALLEY":"ALLEY","HOUSE_NO":"HOUSE_NO","E_COORD97":"E_COORD97","N_COORD97":"N_COORD97","ADDRESS":"ADDRESS","OBJECTID":"OBJECTID"},"geometryType":"esriGeometryPoint","spatialReference":{"wkid":102443,"latestWkid":3826},"fields":[{"name":"ID","type":"esriFieldTypeDouble","alias":"ID"},{"name":"DIS_CODE","type":"esriFieldTypeInteger","alias":"DIS_CODE"},{"name":"TOWNNAME","type":"esriFieldTypeString","alias":"TOWNNAME","length":8},{"name":"LI","type":"esriFieldTypeString","alias":"LI","length":8},{"name":"LIN","type":"esriFieldTypeString","alias":"LIN","length":12},{"name":"STREET","type":"esriFieldTypeString","alias":"STREET","length":20},{"name":"SECT","type":"esriFieldTypeString","alias":"SECT","length":8},{"name":"MAREA","type":"esriFieldTypeString","alias":"MAREA","length":12},{"name":"LANE","type":"esriFieldTypeString","alias":"LANE","length":10},{"name":"ALLEY","type":"esriFieldTypeString","alias":"ALLEY","length":10},{"name":"HOUSE_NO","type":"esriFieldTypeString","alias":"HOUSE_NO","length":20},{"name":"E_COORD97","type":"esriFieldTypeDouble","alias":"E_COORD97"},{"name":"N_COORD97","type":"esriFieldTypeDouble","alias":"N_COORD97"},{"name":"ADDRESS","type":"esriFieldTypeString","alias":"ADDRESS","length":50},{"name":"OBJECTID","type":"esriFieldTypeOID","alias":"OBJECTID"}],"features":[{"attributes":{"ID":423426,"DIS_CODE":0,"TOWNNAME":"佳里區","LI":"忠仁里","LIN":"2鄰","STREET":"中山路","SECT":" ","MAREA":" ","LANE":"７４巷","ALLEY":" ","HOUSE_NO":"１４號","E_COORD97":165833.16,"N_COORD97":2562263.9399999999,"ADDRESS":"中山路７４巷１４號","OBJECTID":423401},"geometry":{"x":165833.16000000108,"y":2562263.9399999995}},{"attributes":{"ID":423427,"DIS_CODE":0,"TOWNNAME":"佳里區","LI":"忠仁里","LIN":"2鄰","STREET":"中山路","SECT":" ","MAREA":" ","LANE":"７４巷","ALLEY":" ","HOUSE_NO":"１５號","E_COORD97":165833.44,"N_COORD97":2562259.46,"ADDRESS":"中山路７４巷１５號","OBJECTID":423402},"geometry":{"x":165833.44000000041,"y":2562259.4600000028}},{"attributes":{"ID":423428,"DIS_CODE":0,"TOWNNAME":"佳里區","LI":"忠仁里","LIN":"2鄰","STREET":"中山路","SECT":" ","MAREA":" ","LANE":"７４巷","ALLEY":" ","HOUSE_NO":"１６號","E_COORD97":165833.78,"N_COORD97":2562254.9199999999,"ADDRESS":"中山路７４巷１６號","OBJECTID":423403},"geometry":{"x":165833.78000000119,"y":2562254.9200000037}},{"attributes":{"ID":423429,"DIS_CODE":0,"TOWNNAME":"佳里區","LI":"鎮山里","LIN":"10鄰","STREET":"中興街","SECT":" ","MAREA":" ","LANE":"３１０巷","ALLEY":" ","HOUSE_NO":"１號","E_COORD97":166197.67000000001,"N_COORD97":2561555.4199999999,"ADDRESS":"中興街３１０巷１號","OBJECTID":423404},"geometry":{"x":166197.66999999993,"y":2561555.4199999999}},{"attributes":{"ID":423430,"DIS_CODE":0,"TOWNNAME":"佳里區","LI":"鎮山里","LIN":"10鄰","STREET":"中興街","SECT":" ","MAREA":" ","LANE":"３１０巷","ALLEY":" ","HOUSE_NO":"３號","E_COORD97":166204.01999999999,"N_COORD97":2561555.8100000001,"ADDRESS":"中興街３１０巷３號","OBJECTID":423405},"geometry":{"x":166204.02000000142,"y":2561555.8100000024}},{"attributes":{"ID":423431,"DIS_CODE":0,"TOWNNAME":"新化區","LI":"太平里","LIN":"4鄰","STREET":"中正路","SECT":" ","MAREA":" ","LANE":"５８０巷","ALLEY":" ","HOUSE_NO":"２號之１１６","E_COORD97":178979.26000000001,"N_COORD97":2549021.2599999998,"ADDRESS":"中正路５８０巷２號之１１６","OBJECTID":423406},"geometry":{"x":178979.26000000164,"y":2549021.2600000016}},{"attributes":{"ID":423432,"DIS_CODE":0,"TOWNNAME":"新化區","LI":"太平里","LIN":"4鄰","STREET":"中正路","SECT":" ","MAREA":" ","LANE":"５８０巷","ALLEY":" ","HOUSE_NO":"２號之２０","E_COORD97":178964.60000000001,"N_COORD97":2548980.2599999998,"ADDRESS":"中正路５８０巷２號之２０","OBJECTID":423407},"geometry":{"x":178964.59999999963,"y":2548980.2600000016}},{"attributes":{"ID":423433,"DIS_CODE":0,"TOWNNAME":"新化區","LI":"東榮里","LIN":"13鄰","STREET":"中興路","SECT":" ","MAREA":" ","LANE":"５８０巷","ALLEY":" ","HOUSE_NO":"１８號","E_COORD97":179858.76000000001,"N_COORD97":2548016.25,"ADDRESS":"中興路５８０巷１８號","OBJECTID":423408},"geometry":{"x":179858.75999999978,"y":2548016.2499999981}},{"attributes":{"ID":423434,"DIS_CODE":0,"TOWNNAME":"新化區","LI":"東榮里","LIN":"13鄰","STREET":"中興路","SECT":" ","MAREA":" ","LANE":"５８０巷","ALLEY":" ","HOUSE_NO":"１４號","E_COORD97":179859.95999999999,"N_COORD97":2548007.25,"ADDRESS":"中興路５８０巷１４號","OBJECTID":423409},"geometry":{"x":179859.96000000089,"y":2548007.2500000019}},{"attributes":{"ID":423435,"DIS_CODE":0,"TOWNNAME":"新化區","LI":"清水里","LIN":"7鄰","STREET":"忠孝路","SECT":" ","MAREA":" ","LANE":"１６１巷","ALLEY":" ","HOUSE_NO":"５號之５","E_COORD97":178626.38,"N_COORD97":2548580.2599999998,"ADDRESS":"忠孝路１６１巷５號之５","OBJECTID":423410},"geometry":{"x":178626.38000000082,"y":2548580.2600000016}},{"attributes":{"ID":423436,"DIS_CODE":0,"TOWNNAME":"新化區","LI":"觀音里","LIN":"4鄰","STREET":"仁愛街","SECT":" ","MAREA":" ","LANE":"６５巷","ALLEY":" ","HOUSE_NO":"５號","E_COORD97":178976.78,"N_COORD97":2548540.25,"ADDRESS":"仁愛街６５巷５號","OBJECTID":423411},"geometry":{"x":178976.78000000119,"y":2548540.25}},{"attributes":{"ID":423437,"DIS_CODE":0,"TOWNNAME":"新化區","LI":"太平里","LIN":"4鄰","STREET":"民生路","SECT":" ","MAREA":" ","LANE":"１８６巷","ALLEY":" ","HOUSE_NO":"３３號","E_COORD97":179163.56,"N_COORD97":2549024.25,"ADDRESS":"民生路１８６巷３３號","OBJECTID":423412},"geometry":{"x":179163.56000000052,"y":2549024.2500000019}},{"attributes":{"ID":423438,"DIS_CODE":0,"TOWNNAME":"新化區","LI":"東榮里","LIN":"14鄰","STREET":"中興路","SECT":" ","MAREA":" ","LANE":"５９５巷","ALLEY":" ","HOUSE_NO":"２７號","E_COORD97":179841.35999999999,"N_COORD97":2547858.25,"ADDRESS":"中興路５９５巷２７號","OBJECTID":423413},"geometry":{"x":179841.36000000034,"y":2547858.2500000019}},{"attributes":{"ID":423439,"DIS_CODE":0,"TOWNNAME":"新化區","LI":"協興里","LIN":"8鄰","STREET":"太平街","SECT":" ","MAREA":" ","LANE":"１５０巷","ALLEY":" ","HOUSE_NO":"１０號","E_COORD97":178348.17000000001,"N_COORD97":2548731.25,"ADDRESS":"太平街１５０巷１０號","OBJECTID":423414},"geometry":{"x":178348.17000000086,"y":2548731.25}},{"attributes":{"ID":423440,"DIS_CODE":0,"TOWNNAME":"新化區","LI":"協興里","LIN":"8鄰","STREET":"太平街","SECT":" ","MAREA":" ","LANE":"１５０巷","ALLEY":" ","HOUSE_NO":"１４號","E_COORD97":178345.67000000001,"N_COORD97":2548740.25,"ADDRESS":"太平街１５０巷１４號","OBJECTID":423415},"geometry":{"x":178345.66999999993,"y":2548740.2500000019}},{"attributes":{"ID":423441,"DIS_CODE":0,"TOWNNAME":"新化區","LI":"太平里","LIN":"4鄰","STREET":"民生路","SECT":" ","MAREA":" ","LANE":"１８６巷","ALLEY":" ","HOUSE_NO":"１３號","E_COORD97":179107.45999999999,"N_COORD97":2548977.25,"ADDRESS":"民生路１８６巷１３號","OBJECTID":423416},"geometry":{"x":179107.46000000089,"y":2548977.2500000019}},{"attributes":{"ID":423442,"DIS_CODE":0,"TOWNNAME":"新化區","LI":"東榮里","LIN":"14鄰","STREET":"中興路","SECT":" ","MAREA":" ","LANE":"５８０巷","ALLEY":" ","HOUSE_NO":"１５號","E_COORD97":179848.26000000001,"N_COORD97":2548011.25,"ADDRESS":"中興路５８０巷１５號","OBJECTID":423417},"geometry":{"x":179848.25999999978,"y":2548011.2500000019}},{"attributes":{"ID":423443,"DIS_CODE":0,"TOWNNAME":"新化區","LI":"護國里","LIN":"8鄰","STREET":"信義路","SECT":" ","MAREA":" ","LANE":"８６巷","ALLEY":" ","HOUSE_NO":"３７號","E_COORD97":179811.53,"N_COORD97":2548775.25,"ADDRESS":"信義路８６巷３７號","OBJECTID":423418},"geometry":{"x":179811.53000000026,"y":2548775.25}},{"attributes":{"ID":423444,"DIS_CODE":0,"TOWNNAME":"新化區","LI":"豐榮里","LIN":"13鄰","STREET":"民治路","SECT":" ","MAREA":" ","LANE":"１８巷","ALLEY":" ","HOUSE_NO":"８號","E_COORD97":178770.56,"N_COORD97":2547991.25,"ADDRESS":"民治路１８巷８號","OBJECTID":423419},"geometry":{"x":178770.56000000052,"y":2547991.25}},{"attributes":{"ID":423445,"DIS_CODE":0,"TOWNNAME":"新化區","LI":"太平里","LIN":"4鄰","STREET":"中正路","SECT":" ","MAREA":" ","LANE":"５８４巷","ALLEY":" ","HOUSE_NO":"９號","E_COORD97":178943.31,"N_COORD97":2549125.25,"ADDRESS":"中正路５８４巷９號","OBJECTID":423420},"geometry":{"x":178943.31000000052,"y":2549125.2500000037}},{"attributes":{"ID":423446,"DIS_CODE":0,"TOWNNAME":"新化區","LI":"豐榮里","LIN":"13鄰","STREET":"民治路","SECT":" ","MAREA":" ","LANE":"１８巷","ALLEY":" ","HOUSE_NO":"２號","E_COORD97":178761.06,"N_COORD97":2547992.25,"ADDRESS":"民治路１８巷２號","OBJECTID":423421},"geometry":{"x":178761.05999999959,"y":2547992.25}},{"attributes":{"ID":423447,"DIS_CODE":0,"TOWNNAME":"新化區","LI":"護國里","LIN":"4鄰","STREET":"中山路","SECT":" ","MAREA":" ","LANE":"２２４巷","ALLEY":" ","HOUSE_NO":"６號","E_COORD97":179134.10999999999,"N_COORD97":2548486.25,"ADDRESS":"中山路２２４巷６號","OBJECTID":423422},"geometry":{"x":179134.11000000127,"y":2548486.25}},{"attributes":{"ID":423448,"DIS_CODE":0,"TOWNNAME":"新化區","LI":"唪口里","LIN":"8鄰","STREET":"大德路","SECT":" ","MAREA":" ","LANE":"１６１巷","ALLEY":" ","HOUSE_NO":"２７號","E_COORD97":177915.57999999999,"N_COORD97":2549267.25,"ADDRESS":"大德路１６１巷２７號","OBJECTID":423423},"geometry":{"x":177915.58000000007,"y":2549267.2499999981}},{"attributes":{"ID":423449,"DIS_CODE":0,"TOWNNAME":"歸仁區","LI":"沙崙里","LIN":"10鄰","STREET":" ","SECT":" ","MAREA":"沙崙","LANE":" ","ALLEY":" ","HOUSE_NO":"３７９號","E_COORD97":180406.13176799999,"N_COORD97":2537773.7788900002,"ADDRESS":"沙崙３７９號","OBJECTID":423424},"geometry":{"x":180406.13176800124,"y":2537773.7788920011}},{"attributes":{"ID":423450,"DIS_CODE":0,"TOWNNAME":"新化區","LI":"太平里","LIN":"4鄰","STREET":"中正路","SECT":" ","MAREA":" ","LANE":"５８０巷","ALLEY":" ","HOUSE_NO":"２號之１０６","E_COORD97":178994.16,"N_COORD97":2549017.2599999998,"ADDRESS":"中正路５８０巷２號之１０６","OBJECTID":423425},"geometry":{"x":178994.16000000108,"y":2549017.2600000016}},{"attributes":{"ID":423451,"DIS_CODE":0,"TOWNNAME":"新化區","LI":"太平里","LIN":"4鄰","STREET":"中正路","SECT":" ","MAREA":" ","LANE":"５８０巷","ALLEY":" ","HOUSE_NO":"２號之１９","E_COORD97":178959.10000000001,"N_COORD97":2548976.2599999998,"ADDRESS":"中正路５８０巷２號之１９","OBJECTID":423426},"geometry":{"x":178959.09999999963,"y":2548976.2600000016}},{"attributes":{"ID":423452,"DIS_CODE":0,"TOWNNAME":"新化區","LI":"東榮里","LIN":"14鄰","STREET":"中興路","SECT":" ","MAREA":" ","LANE":"５９５巷","ALLEY":" ","HOUSE_NO":"３３號","E_COORD97":179842.56,"N_COORD97":2547843.25,"ADDRESS":"中興路５９５巷３３號","OBJECTID":423427},"geometry":{"x":179842.55999999959,"y":2547843.2499999981}},{"attributes":{"ID":423453,"DIS_CODE":0,"TOWNNAME":"新化區","LI":"護國里","LIN":"8鄰","STREET":"信義路","SECT":" ","MAREA":" ","LANE":"８６巷","ALLEY":" ","HOUSE_NO":"１３號","E_COORD97":179788.13,"N_COORD97":2548769.25,"ADDRESS":"信義路８６巷１３號","OBJECTID":423428},"geometry":{"x":179788.12999999989,"y":2548769.2500000037}},{"attributes":{"ID":423454,"DIS_CODE":0,"TOWNNAME":"新化區","LI":"護國里","LIN":"8鄰","STREET":"信義路","SECT":" ","MAREA":" ","LANE":"８６巷","ALLEY":" ","HOUSE_NO":"６號","E_COORD97":179839.48000000001,"N_COORD97":2548762.25,"ADDRESS":"信義路８６巷６號","OBJECTID":423429},"geometry":{"x":179839.48000000231,"y":2548762.2500000037}},{"attributes":{"ID":423455,"DIS_CODE":0,"TOWNNAME":"新化區","LI":"太平里","LIN":"4鄰","STREET":"中正路","SECT":" ","MAREA":" ","LANE":"５８４巷","ALLEY":" ","HOUSE_NO":"１９號","E_COORD97":178959.56,"N_COORD97":2549117.25,"ADDRESS":"中正路５８４巷１９號","OBJECTID":423430},"geometry":{"x":178959.55999999959,"y":2549117.25}},{"attributes":{"ID":423456,"DIS_CODE":0,"TOWNNAME":"新化區","LI":"東榮里","LIN":"13鄰","STREET":"中興路","SECT":" ","MAREA":" ","LANE":"５８０巷","ALLEY":" ","HOUSE_NO":"４０號","E_COORD97":179854.66,"N_COORD97":2548062.25,"ADDRESS":"中興路５８０巷４０號","OBJECTID":423431},"geometry":{"x":179854.66000000015,"y":2548062.25}},{"attributes":{"ID":423457,"DIS_CODE":0,"TOWNNAME":"新化區","LI":"東榮里","LIN":"13鄰","STREET":"中興路","SECT":" ","MAREA":" ","LANE":"５８０巷","ALLEY":" ","HOUSE_NO":"４２號","E_COORD97":179854.06,"N_COORD97":2548066.25,"ADDRESS":"中興路５８０巷４２號","OBJECTID":423432},"geometry":{"x":179854.06000000052,"y":2548066.25}},{"attributes":{"ID":423458,"DIS_CODE":0,"TOWNNAME":"新化區","LI":"太平里","LIN":"17鄰","STREET":"太平街","SECT":" ","MAREA":" ","LANE":"９７巷","ALLEY":" ","HOUSE_NO":"３號","E_COORD97":178619.87,"N_COORD97":2548713.25,"ADDRESS":"太平街９７巷３號","OBJECTID":423433},"geometry":{"x":178619.87000000104,"y":2548713.25}},{"attributes":{"ID":423459,"DIS_CODE":0,"TOWNNAME":"新化區","LI":"太平里","LIN":"14鄰","STREET":"太平街","SECT":" ","MAREA":" ","LANE":"４８巷","ALLEY":" ","HOUSE_NO":"１號之２","E_COORD97":178816.23000000001,"N_COORD97":2548834.2599999998,"ADDRESS":"太平街４８巷１號之２","OBJECTID":423434},"geometry":{"x":178816.23000000138,"y":2548834.2600000016}},{"attributes":{"ID":423460,"DIS_CODE":0,"TOWNNAME":"新化區","LI":"太平里","LIN":"4鄰","STREET":"中正路","SECT":" ","MAREA":" ","LANE":"５８４巷","ALLEY":" ","HOUSE_NO":"２９號","E_COORD97":178966.06,"N_COORD97":2549059.25,"ADDRESS":"中正路５８４巷２９號","OBJECTID":423435},"geometry":{"x":178966.05999999959,"y":2549059.25}},{"attributes":{"ID":423461,"DIS_CODE":0,"TOWNNAME":"新化區","LI":"太平里","LIN":"4鄰","STREET":"民生路","SECT":" ","MAREA":" ","LANE":"１８６巷","ALLEY":" ","HOUSE_NO":"２７號","E_COORD97":179152.66,"N_COORD97":2549001.25,"ADDRESS":"民生路１８６巷２７號","OBJECTID":423436},"geometry":{"x":179152.66000000015,"y":2549001.2500000019}},{"attributes":{"ID":423462,"DIS_CODE":0,"TOWNNAME":"新化區","LI":"太平里","LIN":"4鄰","STREET":"中正路","SECT":" ","MAREA":" ","LANE":"５８０巷","ALLEY":" ","HOUSE_NO":"２號之１２","E_COORD97":178969.60999999999,"N_COORD97":2548993.2599999998,"ADDRESS":"中正路５８０巷２號之１２","OBJECTID":423437},"geometry":{"x":178969.61000000127,"y":2548993.2600000016}},{"attributes":{"ID":423463,"DIS_CODE":0,"TOWNNAME":"新化區","LI":"知義里","LIN":"14鄰","STREET":"復興路","SECT":" ","MAREA":" ","LANE":"８８巷","ALLEY":" ","HOUSE_NO":"２０號","E_COORD97":179578.12,"N_COORD97":2547619.25,"ADDRESS":"復興路８８巷２０號","OBJECTID":423438},"geometry":{"x":179578.12000000011,"y":2547619.25}},{"attributes":{"ID":423464,"DIS_CODE":0,"TOWNNAME":"新化區","LI":"太平里","LIN":"4鄰","STREET":"中正路","SECT":" ","MAREA":" ","LANE":"５８０巷","ALLEY":" ","HOUSE_NO":"２號之１８","E_COORD97":178946.12,"N_COORD97":2548979.2599999998,"ADDRESS":"中正路５８０巷２號之１８","OBJECTID":423439},"geometry":{"x":178946.12000000011,"y":2548979.2600000016}},{"attributes":{"ID":423465,"DIS_CODE":0,"TOWNNAME":"新化區","LI":"太平里","LIN":"4鄰","STREET":"中正路","SECT":" ","MAREA":" ","LANE":"５８０巷","ALLEY":" ","HOUSE_NO":"２號之１０７","E_COORD97":178998.14999999999,"N_COORD97":2549020.2599999998,"ADDRESS":"中正路５８０巷２號之１０７","OBJECTID":423440},"geometry":{"x":178998.1500000013,"y":2549020.2600000016}},{"attributes":{"ID":423466,"DIS_CODE":0,"TOWNNAME":"新化區","LI":"東榮里","LIN":"18鄰","STREET":"中興路","SECT":" ","MAREA":" ","LANE":"６８５巷","ALLEY":" ","HOUSE_NO":"３８號","E_COORD97":179552.26000000001,"N_COORD97":2548043.25,"ADDRESS":"中興路６８５巷３８號","OBJECTID":423441},"geometry":{"x":179552.26000000071,"y":2548043.25}},{"attributes":{"ID":423467,"DIS_CODE":0,"TOWNNAME":"新化區","LI":"太平里","LIN":"4鄰","STREET":"中正路","SECT":" ","MAREA":" ","LANE":"５８４巷","ALLEY":" ","HOUSE_NO":"３５號","E_COORD97":178986.56,"N_COORD97":2549071.25,"ADDRESS":"中正路５８４巷３５號","OBJECTID":423442},"geometry":{"x":178986.55999999959,"y":2549071.2500000019}},{"attributes":{"ID":423468,"DIS_CODE":0,"TOWNNAME":"新化區","LI":"護國里","LIN":"4鄰","STREET":"中山路","SECT":" ","MAREA":" ","LANE":"２２４巷","ALLEY":" ","HOUSE_NO":"４號","E_COORD97":179131.91,"N_COORD97":2548510.25,"ADDRESS":"中山路２２４巷４號","OBJECTID":423443},"geometry":{"x":179131.91000000108,"y":2548510.25}},{"attributes":{"ID":423469,"DIS_CODE":0,"TOWNNAME":"新化區","LI":"太平里","LIN":"4鄰","STREET":"中正路","SECT":" ","MAREA":" ","LANE":"５８０巷","ALLEY":" ","HOUSE_NO":"２號之１０８","E_COORD97":179002.67000000001,"N_COORD97":2549023.2599999998,"ADDRESS":"中正路５８０巷２號之１０８","OBJECTID":423444},"geometry":{"x":179002.67000000086,"y":2549023.2600000035}},{"attributes":{"ID":423470,"DIS_CODE":0,"TOWNNAME":"新市區","LI":"港墘里","LIN":"18鄰","STREET":"華美街","SECT":" ","MAREA":" ","LANE":"１巷","ALLEY":" ","HOUSE_NO":"２號","E_COORD97":178103.10000000001,"N_COORD97":2552673.2999999998,"ADDRESS":"華美街１巷２號","OBJECTID":423445},"geometry":{"x":178103.09999999963,"y":2552673.3000000026}},{"attributes":{"ID":423471,"DIS_CODE":0,"TOWNNAME":"安南區","LI":"原佃里","LIN":"4鄰","STREET":"本原街","SECT":"一段","MAREA":" ","LANE":"９４巷","ALLEY":" ","HOUSE_NO":"１０號","E_COORD97":168010.10999999999,"N_COORD97":2550203.6099999999,"ADDRESS":"本原街一段９４巷１０號","OBJECTID":423446},"geometry":{"x":168010.11000000127,"y":2550203.6100000031}},{"attributes":{"ID":423472,"DIS_CODE":0,"TOWNNAME":"安南區","LI":"頂安里","LIN":"6鄰","STREET":"怡安路","SECT":"一段","MAREA":" ","LANE":"３８４巷","ALLEY":" ","HOUSE_NO":"８號之１","E_COORD97":168736.60000000001,"N_COORD97":2549173.6299999999,"ADDRESS":"怡安路一段３８４巷８號之１","OBJECTID":423447},"geometry":{"x":168736.60000000056,"y":2549173.6300000008}},{"attributes":{"ID":423473,"DIS_CODE":0,"TOWNNAME":"安南區","LI":"頂安里","LIN":"8鄰","STREET":"怡安路","SECT":"一段","MAREA":" ","LANE":"４４６巷","ALLEY":" ","HOUSE_NO":"２９號之１","E_COORD97":168668.98999999999,"N_COORD97":2549247.77,"ADDRESS":"怡安路一段４４６巷２９號之１","OBJECTID":423448},"geometry":{"x":168668.99000000022,"y":2549247.7700000014}},{"attributes":{"ID":423474,"DIS_CODE":0,"TOWNNAME":"安南區","LI":"佃西里","LIN":"6鄰","STREET":"公學路","SECT":"四段","MAREA":" ","LANE":"１２６巷","ALLEY":" ","HOUSE_NO":"１３９號","E_COORD97":165258.07999999999,"N_COORD97":2551849.9700000002,"ADDRESS":"公學路四段１２６巷１３９號","OBJECTID":423449},"geometry":{"x":165258.08000000194,"y":2551849.9699999988}},{"attributes":{"ID":423475,"DIS_CODE":0,"TOWNNAME":"安南區","LI":"安慶里","LIN":"6鄰","STREET":"怡安路","SECT":"一段","MAREA":" ","LANE":"３０３巷","ALLEY":" ","HOUSE_NO":"２１號","E_COORD97":168936.51000000001,"N_COORD97":2549047.73,"ADDRESS":"怡安路一段３０３巷２１號","OBJECTID":423450},"geometry":{"x":168936.50999999978,"y":2549047.7300000042}},{"attributes":{"ID":423476,"DIS_CODE":0,"TOWNNAME":"東區","LI":"大同里","LIN":"4鄰","STREET":"府東街","SECT":" ","MAREA":" ","LANE":"２５９巷","ALLEY":" ","HOUSE_NO":"２５號","E_COORD97":169266.64999999999,"N_COORD97":2543104.46,"ADDRESS":"府東街２５９巷２５號","OBJECTID":423451},"geometry":{"x":169266.65000000037,"y":2543104.4600000028}},{"attributes":{"ID":423477,"DIS_CODE":0,"TOWNNAME":"安南區","LI":"城北里","LIN":"10鄰","STREET":"安中路","SECT":"六段","MAREA":" ","LANE":"４２９巷","ALLEY":" ","HOUSE_NO":"３０號之３","E_COORD97":161109.20000000001,"N_COORD97":2551222.6099999999,"ADDRESS":"安中路六段４２９巷３０號之３","OBJECTID":423452},"geometry":{"x":161109.19999999925,"y":2551222.6099999994}},{"attributes":{"ID":423478,"DIS_CODE":0,"TOWNNAME":"安南區","LI":"淵西里","LIN":"4鄰","STREET":"安中路","SECT":"四段","MAREA":" ","LANE":"２９０巷","ALLEY":" ","HOUSE_NO":"１８９號","E_COORD97":164897.01999999999,"N_COORD97":2550274.8100000001,"ADDRESS":"安中路四段２９０巷１８９號","OBJECTID":423453},"geometry":{"x":164897.02000000142,"y":2550274.8100000042}},{"attributes":{"ID":423479,"DIS_CODE":0,"TOWNNAME":"安南區","LI":"南興里","LIN":"8鄰","STREET":"安興街","SECT":" ","MAREA":" ","LANE":"６２４巷","ALLEY":" ","HOUSE_NO":"５號","E_COORD97":163491.84,"N_COORD97":2552458.2799999998,"ADDRESS":"安興街６２４巷５號","OBJECTID":423454},"geometry":{"x":163491.84000000078,"y":2552458.2800000012}},{"attributes":{"ID":423480,"DIS_CODE":0,"TOWNNAME":"安南區","LI":"淵中里","LIN":"6鄰","STREET":"安中路","SECT":"四段","MAREA":" ","LANE":"１２２巷","ALLEY":" ","HOUSE_NO":"７號之１","E_COORD97":165042.32000000001,"N_COORD97":2550025.8599999999,"ADDRESS":"安中路四段１２２巷７號之１","OBJECTID":423455},"geometry":{"x":165042.3200000003,"y":2550025.8600000013}},{"attributes":{"ID":423481,"DIS_CODE":0,"TOWNNAME":"安南區","LI":"安西里","LIN":"8鄰","STREET":"安中路","SECT":"一段","MAREA":" ","LANE":"２９巷","ALLEY":" ","HOUSE_NO":"２５號","E_COORD97":169128.79999999999,"N_COORD97":2548190.4700000002,"ADDRESS":"安中路一段２９巷２５號","OBJECTID":423456},"geometry":{"x":169128.80000000075,"y":2548190.4700000007}},{"attributes":{"ID":423482,"DIS_CODE":0,"TOWNNAME":"安南區","LI":"梅花里","LIN":"20鄰","STREET":"安中路","SECT":"一段","MAREA":" ","LANE":"７５７巷","ALLEY":" ","HOUSE_NO":"５６號","E_COORD97":167336.73999999999,"N_COORD97":2549204.8599999999,"ADDRESS":"安中路一段７５７巷５６號","OBJECTID":423457},"geometry":{"x":167336.74000000022,"y":2549204.8599999975}},{"attributes":{"ID":423483,"DIS_CODE":0,"TOWNNAME":"安南區","LI":"安西里","LIN":"8鄰","STREET":"安中路","SECT":"一段","MAREA":" ","LANE":"２９巷","ALLEY":" ","HOUSE_NO":"２７號","E_COORD97":169125.28,"N_COORD97":2548189.2999999998,"ADDRESS":"安中路一段２９巷２７號","OBJECTID":423458},"geometry":{"x":169125.27999999933,"y":2548189.3000000007}},{"attributes":{"ID":423484,"DIS_CODE":0,"TOWNNAME":"安南區","LI":"安西里","LIN":"8鄰","STREET":"安中路","SECT":"一段","MAREA":" ","LANE":"２９巷","ALLEY":" ","HOUSE_NO":"３號","E_COORD97":169173.42000000001,"N_COORD97":2548201.8100000001,"ADDRESS":"安中路一段２９巷３號","OBJECTID":423459},"geometry":{"x":169173.42000000086,"y":2548201.8100000005}},{"attributes":{"ID":423485,"DIS_CODE":0,"TOWNNAME":"安南區","LI":"安東里","LIN":"4鄰","STREET":"安和路","SECT":"一段","MAREA":" ","LANE":"２８８巷","ALLEY":" ","HOUSE_NO":"１１７號之３","E_COORD97":169608.13,"N_COORD97":2548219.29,"ADDRESS":"安和路一段２８８巷１１７號之３","OBJECTID":423460},"geometry":{"x":169608.13000000082,"y":2548219.290000001}},{"attributes":{"ID":423486,"DIS_CODE":0,"TOWNNAME":"永康區","LI":"北灣里","LIN":"25鄰","STREET":"大灣路","SECT":" ","MAREA":" ","LANE":"１６１巷","ALLEY":" ","HOUSE_NO":"４號","E_COORD97":175055.97,"N_COORD97":2545418.8399999999,"ADDRESS":"大灣路１６１巷４號","OBJECTID":423461},"geometry":{"x":175055.96999999974,"y":2545418.8400000036}},{"attributes":{"ID":423487,"DIS_CODE":0,"TOWNNAME":"永康區","LI":"西灣里","LIN":"25鄰","STREET":"國光七街","SECT":" ","MAREA":" ","LANE":"６巷","ALLEY":" ","HOUSE_NO":"７號之９","E_COORD97":174359.85999999999,"N_COORD97":2545581.6400000001,"ADDRESS":"國光七街６巷７號之９","OBJECTID":423462},"geometry":{"x":174359.86000000127,"y":2545581.6400000025}},{"attributes":{"ID":423488,"DIS_CODE":0,"TOWNNAME":"永康區","LI":"東灣里","LIN":"18鄰","STREET":"大灣三街","SECT":" ","MAREA":" ","LANE":"２１巷","ALLEY":" ","HOUSE_NO":"４０號","E_COORD97":175001.19,"N_COORD97":2544830.6499999999,"ADDRESS":"大灣三街２１巷４０號","OBJECTID":423463},"geometry":{"x":175001.19000000041,"y":2544830.6500000041}},{"attributes":{"ID":423489,"DIS_CODE":0,"TOWNNAME":"永康區","LI":"五王里","LIN":"39鄰","STREET":"中華路","SECT":" ","MAREA":" ","LANE":"５７８巷","ALLEY":" ","HOUSE_NO":"１７號之５４","E_COORD97":171333.59,"N_COORD97":2545989.54,"ADDRESS":"中華路５７８巷１７號之５４","OBJECTID":423464},"geometry":{"x":171333.59000000078,"y":2545989.5400000028}},{"attributes":{"ID":423490,"DIS_CODE":0,"TOWNNAME":"永康區","LI":"西灣里","LIN":"4鄰","STREET":"大灣五街","SECT":" ","MAREA":" ","LANE":"６９巷","ALLEY":" ","HOUSE_NO":"１１號","E_COORD97":174685.09,"N_COORD97":2545223.7400000002,"ADDRESS":"大灣五街６９巷１１號","OBJECTID":423465},"geometry":{"x":174685.09000000078,"y":2545223.7400000021}},{"attributes":{"ID":423491,"DIS_CODE":0,"TOWNNAME":"永康區","LI":"西灣里","LIN":"5鄰","STREET":"大灣五街","SECT":" ","MAREA":" ","LANE":"６９巷","ALLEY":" ","HOUSE_NO":"２號","E_COORD97":174689.42999999999,"N_COORD97":2545250.1499999999,"ADDRESS":"大灣五街６９巷２號","OBJECTID":423466},"geometry":{"x":174689.43000000063,"y":2545250.1500000004}},{"attributes":{"ID":423492,"DIS_CODE":0,"TOWNNAME":"永康區","LI":"東灣里","LIN":"26鄰","STREET":"大灣一街","SECT":" ","MAREA":" ","LANE":"２４２巷","ALLEY":" ","HOUSE_NO":"２７號","E_COORD97":174968.51000000001,"N_COORD97":2544581.3300000001,"ADDRESS":"大灣一街２４２巷２７號","OBJECTID":423467},"geometry":{"x":174968.51000000071,"y":2544581.3299999982}},{"attributes":{"ID":423493,"DIS_CODE":0,"TOWNNAME":"永康區","LI":"蔦松里","LIN":"4鄰","STREET":"蔦松二街","SECT":" ","MAREA":" ","LANE":"１６２巷","ALLEY":" ","HOUSE_NO":"１６號","E_COORD97":173899.41,"N_COORD97":2549351.5,"ADDRESS":"蔦松二街１６２巷１６號","OBJECTID":423468},"geometry":{"x":173899.41000000015,"y":2549351.5000000019}},{"attributes":{"ID":423494,"DIS_CODE":0,"TOWNNAME":"永康區","LI":"北灣里","LIN":"39鄰","STREET":"大同街","SECT":" ","MAREA":" ","LANE":"４２５巷","ALLEY":" ","HOUSE_NO":"１８號","E_COORD97":174580.17000000001,"N_COORD97":2546323.0699999998,"ADDRESS":"大同街４２５巷１８號","OBJECTID":423469},"geometry":{"x":174580.16999999993,"y":2546323.0700000022}},{"attributes":{"ID":423495,"DIS_CODE":0,"TOWNNAME":"永康區","LI":"永康里","LIN":"26鄰","STREET":"中山北路","SECT":" ","MAREA":" ","LANE":"１０４巷","ALLEY":" ","HOUSE_NO":"５號","E_COORD97":174175.51000000001,"N_COORD97":2547473.8300000001,"ADDRESS":"中山北路１０４巷５號","OBJECTID":423470},"geometry":{"x":174175.51000000071,"y":2547473.8300000019}},{"attributes":{"ID":423496,"DIS_CODE":0,"TOWNNAME":"永康區","LI":"崑山里","LIN":"26鄰","STREET":"大灣路","SECT":" ","MAREA":" ","LANE":"９４２巷","ALLEY":" ","HOUSE_NO":"１４７號","E_COORD97":173700.85000000001,"N_COORD97":2544738.4900000002,"ADDRESS":"大灣路９４２巷１４７號","OBJECTID":423471},"geometry":{"x":173700.84999999963,"y":2544738.4900000002}},{"attributes":{"ID":423497,"DIS_CODE":0,"TOWNNAME":"永康區","LI":"正強里","LIN":"4鄰","STREET":"正義街","SECT":" ","MAREA":" ","LANE":"２２巷","ALLEY":" ","HOUSE_NO":"９號","E_COORD97":173573.89000000001,"N_COORD97":2547730.71,"ADDRESS":"正義街２２巷９號","OBJECTID":423472},"geometry":{"x":173573.89000000153,"y":2547730.7100000028}},{"attributes":{"ID":423498,"DIS_CODE":0,"TOWNNAME":"永康區","LI":"王行里","LIN":"5鄰","STREET":"育樂街","SECT":" ","MAREA":" ","LANE":"１８３巷","ALLEY":" ","HOUSE_NO":"１５號","E_COORD97":174941.32000000001,"N_COORD97":2548295.1600000001,"ADDRESS":"育樂街１８３巷１５號","OBJECTID":423473},"geometry":{"x":174941.32000000216,"y":2548295.1600000039}},{"attributes":{"ID":423499,"DIS_CODE":0,"TOWNNAME":"永康區","LI":"勝利里","LIN":"26鄰","STREET":"勝利街","SECT":" ","MAREA":" ","LANE":"７４巷","ALLEY":" ","HOUSE_NO":"２６號","E_COORD97":171437.19,"N_COORD97":2544698.25,"ADDRESS":"勝利街７４巷２６號","OBJECTID":423474},"geometry":{"x":171437.19000000134,"y":2544698.2500000019}},{"attributes":{"ID":423500,"DIS_CODE":0,"TOWNNAME":"永康區","LI":"西灣里","LIN":"25鄰","STREET":"國光七街","SECT":" ","MAREA":" ","LANE":"６巷","ALLEY":" ","HOUSE_NO":"７號之２","E_COORD97":174353.12,"N_COORD97":2545554.8799999999,"ADDRESS":"國光七街６巷７號之２","OBJECTID":423475},"geometry":{"x":174353.12000000104,"y":2545554.879999999}},{"attributes":{"ID":423501,"DIS_CODE":0,"TOWNNAME":"東區","LI":"大同里","LIN":"4鄰","STREET":"大同路","SECT":"一段","MAREA":" ","LANE":"７１巷","ALLEY":" ","HOUSE_NO":"２０號","E_COORD97":169253.98000000001,"N_COORD97":2543068.1499999999,"ADDRESS":"大同路一段７１巷２０號","OBJECTID":423476},"geometry":{"x":169253.98000000045,"y":2543068.1500000022}},{"attributes":{"ID":423502,"DIS_CODE":0,"TOWNNAME":"安南區","LI":"布袋里","LIN":"10鄰","STREET":"長和路","SECT":"四段","MAREA":" ","LANE":"１６０巷","ALLEY":" ","HOUSE_NO":"４９號","E_COORD97":168973.34,"N_COORD97":2551809.9399999999,"ADDRESS":"長和路四段１６０巷４９號","OBJECTID":423477},"geometry":{"x":168973.33999999985,"y":2551809.9400000013}},{"attributes":{"ID":423503,"DIS_CODE":0,"TOWNNAME":"東區","LI":"大同里","LIN":"4鄰","STREET":"大同路","SECT":"一段","MAREA":" ","LANE":"７１巷","ALLEY":" ","HOUSE_NO":"２２號","E_COORD97":169261.45000000001,"N_COORD97":2543070.73,"ADDRESS":"大同路一段７１巷２２號","OBJECTID":423478},"geometry":{"x":169261.45000000205,"y":2543070.7300000042}},{"attributes":{"ID":423504,"DIS_CODE":0,"TOWNNAME":"東區","LI":"大同里","LIN":"4鄰","STREET":"大同路","SECT":"一段","MAREA":" ","LANE":"７１巷","ALLEY":" ","HOUSE_NO":"２５號","E_COORD97":169270.63,"N_COORD97":2543077.4199999999,"ADDRESS":"大同路一段７１巷２５號","OBJECTID":423479},"geometry":{"x":169270.63000000082,"y":2543077.4199999999}},{"attributes":{"ID":423505,"DIS_CODE":0,"TOWNNAME":"東區","LI":"大同里","LIN":"4鄰","STREET":"大同路","SECT":"一段","MAREA":" ","LANE":"７１巷","ALLEY":" ","HOUSE_NO":"２７號","E_COORD97":169277.34,"N_COORD97":2543078.2200000002,"ADDRESS":"大同路一段７１巷２７號","OBJECTID":423480},"geometry":{"x":169277.34000000078,"y":2543078.2200000025}},{"attributes":{"ID":423506,"DIS_CODE":0,"TOWNNAME":"東區","LI":"大同里","LIN":"4鄰","STREET":"大同路","SECT":"一段","MAREA":" ","LANE":"７１巷","ALLEY":" ","HOUSE_NO":"２９號","E_COORD97":169281.76999999999,"N_COORD97":2543078.8999999999,"ADDRESS":"大同路一段７１巷２９號","OBJECTID":423481},"geometry":{"x":169281.76999999955,"y":2543078.9000000004}},{"attributes":{"ID":423507,"DIS_CODE":0,"TOWNNAME":"東區","LI":"大同里","LIN":"4鄰","STREET":"大同路","SECT":"一段","MAREA":" ","LANE":"７１巷","ALLEY":" ","HOUSE_NO":"３１號","E_COORD97":169288.14000000001,"N_COORD97":2543080.2599999998,"ADDRESS":"大同路一段７１巷３１號","OBJECTID":423482},"geometry":{"x":169288.13999999966,"y":2543080.2600000016}},{"attributes":{"ID":423508,"DIS_CODE":0,"TOWNNAME":"東區","LI":"大同里","LIN":"4鄰","STREET":"府東街","SECT":" ","MAREA":" ","LANE":"２５９巷","ALLEY":" ","HOUSE_NO":"２７號","E_COORD97":169269.84,"N_COORD97":2543096.2799999998,"ADDRESS":"府東街２５９巷２７號","OBJECTID":423483},"geometry":{"x":169269.83999999985,"y":2543096.2800000031}},{"attributes":{"ID":423509,"DIS_CODE":0,"TOWNNAME":"東區","LI":"大同里","LIN":"4鄰","STREET":"府東街","SECT":" ","MAREA":" ","LANE":"２５９巷","ALLEY":" ","HOUSE_NO":"２９號","E_COORD97":169271.76999999999,"N_COORD97":2543093.21,"ADDRESS":"府東街２５９巷２９號","OBJECTID":423484},"geometry":{"x":169271.76999999955,"y":2543093.2100000009}},{"attributes":{"ID":423510,"DIS_CODE":0,"TOWNNAME":"東區","LI":"大同里","LIN":"4鄰","STREET":"府東街","SECT":" ","MAREA":" ","LANE":"２５９巷","ALLEY":" ","HOUSE_NO":"３１號","E_COORD97":169273.35999999999,"N_COORD97":2543090.3700000001,"ADDRESS":"府東街２５９巷３１號","OBJECTID":423485},"geometry":{"x":169273.36000000034,"y":2543090.3700000048}},{"attributes":{"ID":423511,"DIS_CODE":0,"TOWNNAME":"東區","LI":"大同里","LIN":"4鄰","STREET":"府東街","SECT":" ","MAREA":" ","LANE":"２５９巷","ALLEY":" ","HOUSE_NO":"３３號","E_COORD97":169254.82999999999,"N_COORD97":2543099.23,"ADDRESS":"府東街２５９巷３３號","OBJECTID":423486},"geometry":{"x":169254.83000000007,"y":2543099.2300000023}},{"attributes":{"ID":423512,"DIS_CODE":0,"TOWNNAME":"東區","LI":"大同里","LIN":"4鄰","STREET":"府東街","SECT":" ","MAREA":" ","LANE":"２５９巷","ALLEY":" ","HOUSE_NO":"３５號","E_COORD97":169256.31,"N_COORD97":2543095.71,"ADDRESS":"府東街２５９巷３５號","OBJECTID":423487},"geometry":{"x":169256.30999999959,"y":2543095.7100000028}},{"attributes":{"ID":423513,"DIS_CODE":0,"TOWNNAME":"東區","LI":"大同里","LIN":"4鄰","STREET":"府東街","SECT":" ","MAREA":" ","LANE":"２５９巷","ALLEY":" ","HOUSE_NO":"３７號","E_COORD97":169259.82999999999,"N_COORD97":2543091.5099999998,"ADDRESS":"府東街２５９巷３７號","OBJECTID":423488},"geometry":{"x":169259.83000000007,"y":2543091.5100000035}},{"attributes":{"ID":423514,"DIS_CODE":0,"TOWNNAME":"東區","LI":"大同里","LIN":"4鄰","STREET":"府東街","SECT":" ","MAREA":" ","LANE":"２５９巷","ALLEY":" ","HOUSE_NO":"３９號","E_COORD97":169261.41,"N_COORD97":2543085.5,"ADDRESS":"府東街２５９巷３９號","OBJECTID":423489},"geometry":{"x":169261.41000000015,"y":2543085.5000000019}},{"attributes":{"ID":423515,"DIS_CODE":0,"TOWNNAME":"東區","LI":"大同里","LIN":"4鄰","STREET":"府東街","SECT":" ","MAREA":" ","LANE":"２５９巷","ALLEY":" ","HOUSE_NO":"４１號","E_COORD97":169262.59,"N_COORD97":2543082.4100000001,"ADDRESS":"府東街２５９巷４１號","OBJECTID":423490},"geometry":{"x":169262.59000000078,"y":2543082.4100000039}},{"attributes":{"ID":423516,"DIS_CODE":0,"TOWNNAME":"東區","LI":"大同里","LIN":"4鄰","STREET":"大同路","SECT":"一段","MAREA":" ","LANE":"７１巷","ALLEY":" ","HOUSE_NO":"１０號","E_COORD97":169220.14999999999,"N_COORD97":2543063.7400000002,"ADDRESS":"大同路一段７１巷１０號","OBJECTID":423491},"geometry":{"x":169220.1500000013,"y":2543063.7400000021}},{"attributes":{"ID":423517,"DIS_CODE":0,"TOWNNAME":"東區","LI":"大同里","LIN":"4鄰","STREET":"大同路","SECT":"一段","MAREA":" ","LANE":"７１巷","ALLEY":" ","HOUSE_NO":"１４號","E_COORD97":169234.73999999999,"N_COORD97":2543065.8500000001,"ADDRESS":"大同路一段７１巷１４號","OBJECTID":423492},"geometry":{"x":169234.74000000115,"y":2543065.8500000015}},{"attributes":{"ID":423518,"DIS_CODE":0,"TOWNNAME":"東區","LI":"大同里","LIN":"4鄰","STREET":"大同路","SECT":"一段","MAREA":" ","LANE":"７１巷","ALLEY":" ","HOUSE_NO":"１６號","E_COORD97":169246.37,"N_COORD97":2543065.71,"ADDRESS":"大同路一段７１巷１６號","OBJECTID":423493},"geometry":{"x":169246.37000000011,"y":2543065.7100000028}},{"attributes":{"ID":423519,"DIS_CODE":0,"TOWNNAME":"東區","LI":"大同里","LIN":"4鄰","STREET":"大同路","SECT":"一段","MAREA":" ","LANE":"７１巷","ALLEY":" ","HOUSE_NO":"１８號","E_COORD97":169255.13,"N_COORD97":2543060.9700000002,"ADDRESS":"大同路一段７１巷１８號","OBJECTID":423494},"geometry":{"x":169255.13000000082,"y":2543060.9700000007}},{"attributes":{"ID":423520,"DIS_CODE":0,"TOWNNAME":"東區","LI":"大同里","LIN":"4鄰","STREET":"大同路","SECT":"一段","MAREA":" ","LANE":"７１巷","ALLEY":" ","HOUSE_NO":"２４號","E_COORD97":169271.64000000001,"N_COORD97":2543068.1499999999,"ADDRESS":"大同路一段７１巷２４號","OBJECTID":423495},"geometry":{"x":169271.6400000006,"y":2543068.1500000022}},{"attributes":{"ID":423521,"DIS_CODE":0,"TOWNNAME":"東區","LI":"大同里","LIN":"4鄰","STREET":"大同路","SECT":"一段","MAREA":" ","LANE":"７１巷","ALLEY":" ","HOUSE_NO":"２６號","E_COORD97":169293.89000000001,"N_COORD97":2543065.8500000001,"ADDRESS":"大同路一段７１巷２６號","OBJECTID":423496},"geometry":{"x":169293.8900000006,"y":2543065.8500000015}},{"attributes":{"ID":423522,"DIS_CODE":0,"TOWNNAME":"東區","LI":"大同里","LIN":"4鄰","STREET":"大同路","SECT":"一段","MAREA":" ","LANE":"７１巷","ALLEY":" ","HOUSE_NO":"２８號","E_COORD97":169292.73999999999,"N_COORD97":2543058.6800000002,"ADDRESS":"大同路一段７１巷２８號","OBJECTID":423497},"geometry":{"x":169292.74000000022,"y":2543058.6799999997}},{"attributes":{"ID":423523,"DIS_CODE":0,"TOWNNAME":"東區","LI":"大同里","LIN":"6鄰","STREET":"大同路","SECT":"一段","MAREA":" ","LANE":"１１５巷","ALLEY":" ","HOUSE_NO":"４３號","E_COORD97":169318.09,"N_COORD97":2542992.3500000001,"ADDRESS":"大同路一段１１５巷４３號","OBJECTID":423498},"geometry":{"x":169318.09000000078,"y":2542992.3500000015}},{"attributes":{"ID":423524,"DIS_CODE":0,"TOWNNAME":"東區","LI":"大同里","LIN":"6鄰","STREET":"大同路","SECT":"一段","MAREA":" ","LANE":"７３巷","ALLEY":" ","HOUSE_NO":"２２號","E_COORD97":169264.98999999999,"N_COORD97":2543038.0800000001,"ADDRESS":"大同路一段７３巷２２號","OBJECTID":423499},"geometry":{"x":169264.99000000115,"y":2543038.0800000019}},{"attributes":{"ID":423525,"DIS_CODE":0,"TOWNNAME":"東區","LI":"自強里","LIN":"22鄰","STREET":"富農街","SECT":"一段","MAREA":" ","LANE":"１５３巷","ALLEY":" ","HOUSE_NO":"４４號","E_COORD97":171462.89000000001,"N_COORD97":2542535.4399999999,"ADDRESS":"富農街一段１５３巷４４號","OBJECTID":423500},"geometry":{"x":171462.88999999966,"y":2542535.4399999995}},{"attributes":{"ID":423526,"DIS_CODE":0,"TOWNNAME":"東區","LI":"自強里","LIN":"22鄰","STREET":"富農街","SECT":"一段","MAREA":" ","LANE":"１９１巷","ALLEY":" ","HOUSE_NO":"１號","E_COORD97":171514.41,"N_COORD97":2542578.6400000001,"ADDRESS":"富農街一段１９１巷１號","OBJECTID":423501},"geometry":{"x":171514.41000000015,"y":2542578.6400000006}},{"attributes":{"ID":423527,"DIS_CODE":0,"TOWNNAME":"東區","LI":"自強里","LIN":"27鄰","STREET":"中華東路","SECT":"二段","MAREA":" ","LANE":"１３３巷","ALLEY":" ","HOUSE_NO":"７２號","E_COORD97":171596.57999999999,"N_COORD97":2542802.4399999999,"ADDRESS":"中華東路二段１３３巷７２號","OBJECTID":423502},"geometry":{"x":171596.58000000101,"y":2542802.4399999995}},{"attributes":{"ID":423528,"DIS_CODE":0,"TOWNNAME":"東區","LI":"自強里","LIN":"27鄰","STREET":"中華東路","SECT":"二段","MAREA":" ","LANE":"１３３巷","ALLEY":" ","HOUSE_NO":"８號","E_COORD97":171400.07999999999,"N_COORD97":2542850.98,"ADDRESS":"中華東路二段１３３巷８號","OBJECTID":423503},"geometry":{"x":171400.08000000101,"y":2542850.9800000004}},{"attributes":{"ID":423529,"DIS_CODE":0,"TOWNNAME":"東區","LI":"自強里","LIN":"27鄰","STREET":"中華東路","SECT":"二段","MAREA":" ","LANE":"１８５巷","ALLEY":" ","HOUSE_NO":"２１號","E_COORD97":171396.82999999999,"N_COORD97":2542802.1899999999,"ADDRESS":"中華東路二段１８５巷２１號","OBJECTID":423504},"geometry":{"x":171396.83000000101,"y":2542802.1900000013}},{"attributes":{"ID":423530,"DIS_CODE":0,"TOWNNAME":"東區","LI":"自強里","LIN":"27鄰","STREET":"中華東路","SECT":"二段","MAREA":" ","LANE":"１８５巷","ALLEY":" ","HOUSE_NO":"２３號","E_COORD97":171399.95999999999,"N_COORD97":2542802.1899999999,"ADDRESS":"中華東路二段１８５巷２３號","OBJECTID":423505},"geometry":{"x":171399.95999999996,"y":2542802.1900000013}},{"attributes":{"ID":423531,"DIS_CODE":0,"TOWNNAME":"東區","LI":"自強里","LIN":"27鄰","STREET":"中華東路","SECT":"二段","MAREA":" ","LANE":"１８５巷","ALLEY":" ","HOUSE_NO":"２５號","E_COORD97":171404.01999999999,"N_COORD97":2542802.1899999999,"ADDRESS":"中華東路二段１８５巷２５號","OBJECTID":423506},"geometry":{"x":171404.01999999955,"y":2542802.1900000013}},{"attributes":{"ID":423532,"DIS_CODE":0,"TOWNNAME":"東區","LI":"復興里","LIN":"4鄰","STREET":"富農街","SECT":"一段","MAREA":" ","LANE":"２３２巷","ALLEY":" ","HOUSE_NO":"１０號","E_COORD97":171608.82000000001,"N_COORD97":2542578.21,"ADDRESS":"富農街一段２３２巷１０號","OBJECTID":423507},"geometry":{"x":171608.82000000123,"y":2542578.2100000009}},{"attributes":{"ID":423533,"DIS_CODE":0,"TOWNNAME":"東區","LI":"復興里","LIN":"4鄰","STREET":"富農街","SECT":"一段","MAREA":" ","LANE":"２３２巷","ALLEY":" ","HOUSE_NO":"１１號","E_COORD97":171627.84,"N_COORD97":2542595.8599999999,"ADDRESS":"富農街一段２３２巷１１號","OBJECTID":423508},"geometry":{"x":171627.83999999985,"y":2542595.8599999994}},{"attributes":{"ID":423534,"DIS_CODE":0,"TOWNNAME":"東區","LI":"復興里","LIN":"4鄰","STREET":"富農街","SECT":"一段","MAREA":" ","LANE":"２３２巷","ALLEY":" ","HOUSE_NO":"１２號","E_COORD97":171614.26999999999,"N_COORD97":2542577.8900000001,"ADDRESS":"富農街一段２３２巷１２號","OBJECTID":423509},"geometry":{"x":171614.26999999955,"y":2542577.8900000043}},{"attributes":{"ID":423535,"DIS_CODE":0,"TOWNNAME":"東區","LI":"復興里","LIN":"4鄰","STREET":"富農街","SECT":"一段","MAREA":" ","LANE":"２３２巷","ALLEY":" ","HOUSE_NO":"１３號","E_COORD97":171633.63,"N_COORD97":2542596.2000000002,"ADDRESS":"富農街一段２３２巷１３號","OBJECTID":423510},"geometry":{"x":171633.63000000082,"y":2542596.2000000011}},{"attributes":{"ID":423536,"DIS_CODE":0,"TOWNNAME":"東區","LI":"復興里","LIN":"4鄰","STREET":"富農街","SECT":"一段","MAREA":" ","LANE":"２３２巷","ALLEY":" ","HOUSE_NO":"１４號","E_COORD97":171619.39999999999,"N_COORD97":2542577.25,"ADDRESS":"富農街一段２３２巷１４號","OBJECTID":423511},"geometry":{"x":171619.40000000037,"y":2542577.25}},{"attributes":{"ID":423537,"DIS_CODE":0,"TOWNNAME":"東區","LI":"復興里","LIN":"4鄰","STREET":"富農街","SECT":"一段","MAREA":" ","LANE":"２３２巷","ALLEY":" ","HOUSE_NO":"１５號","E_COORD97":171640.10999999999,"N_COORD97":2542596.8799999999,"ADDRESS":"富農街一段２３２巷１５號","OBJECTID":423512},"geometry":{"x":171640.11000000034,"y":2542596.8800000027}},{"attributes":{"ID":423538,"DIS_CODE":0,"TOWNNAME":"東區","LI":"復興里","LIN":"4鄰","STREET":"富農街","SECT":"一段","MAREA":" ","LANE":"２３２巷","ALLEY":" ","HOUSE_NO":"１６號","E_COORD97":171623.89000000001,"N_COORD97":2542577.8900000001,"ADDRESS":"富農街一段２３２巷１６號","OBJECTID":423513},"geometry":{"x":171623.88999999966,"y":2542577.8900000043}},{"attributes":{"ID":423539,"DIS_CODE":0,"TOWNNAME":"東區","LI":"復興里","LIN":"4鄰","STREET":"富農街","SECT":"一段","MAREA":" ","LANE":"２３２巷","ALLEY":" ","HOUSE_NO":"１７號","E_COORD97":171646.25,"N_COORD97":2542596.8799999999,"ADDRESS":"富農街一段２３２巷１７號","OBJECTID":423514},"geometry":{"x":171646.25000000093,"y":2542596.8800000027}},{"attributes":{"ID":423540,"DIS_CODE":0,"TOWNNAME":"東區","LI":"復興里","LIN":"4鄰","STREET":"富農街","SECT":"一段","MAREA":" ","LANE":"２３２巷","ALLEY":" ","HOUSE_NO":"１９號","E_COORD97":171652.72,"N_COORD97":2542597.8999999999,"ADDRESS":"富農街一段２３２巷１９號","OBJECTID":423515},"geometry":{"x":171652.7200000016,"y":2542597.9000000041}},{"attributes":{"ID":423541,"DIS_CODE":0,"TOWNNAME":"東區","LI":"復興里","LIN":"4鄰","STREET":"富農街","SECT":"一段","MAREA":" ","LANE":"２３２巷","ALLEY":" ","HOUSE_NO":"１號","E_COORD97":171595.66,"N_COORD97":2542594.52,"ADDRESS":"富農街一段２３２巷１號","OBJECTID":423516},"geometry":{"x":171595.66000000015,"y":2542594.5200000014}},{"attributes":{"ID":423542,"DIS_CODE":0,"TOWNNAME":"東區","LI":"復興里","LIN":"4鄰","STREET":"富農街","SECT":"一段","MAREA":" ","LANE":"２４８巷","ALLEY":" ","HOUSE_NO":"２０號","E_COORD97":171658.17999999999,"N_COORD97":2542611.52,"ADDRESS":"富農街一段２４８巷２０號","OBJECTID":423517},"geometry":{"x":171658.18000000156,"y":2542611.5200000014}},{"attributes":{"ID":423543,"DIS_CODE":0,"TOWNNAME":"東區","LI":"復興里","LIN":"4鄰","STREET":"富農街","SECT":"一段","MAREA":" ","LANE":"２４８巷","ALLEY":" ","HOUSE_NO":"２１號","E_COORD97":171673.85999999999,"N_COORD97":2542631.6000000001,"ADDRESS":"富農街一段２４８巷２１號","OBJECTID":423518},"geometry":{"x":171673.86000000034,"y":2542631.5999999996}},{"attributes":{"ID":423544,"DIS_CODE":0,"TOWNNAME":"東區","LI":"復興里","LIN":"4鄰","STREET":"富農街","SECT":"一段","MAREA":" ","LANE":"２４８巷","ALLEY":" ","HOUSE_NO":"２２號","E_COORD97":171663.29000000001,"N_COORD97":2542613.2200000002,"ADDRESS":"富農街一段２４８巷２２號","OBJECTID":423519},"geometry":{"x":171663.29000000097,"y":2542613.2200000044}},{"attributes":{"ID":423545,"DIS_CODE":0,"TOWNNAME":"東區","LI":"復興里","LIN":"4鄰","STREET":"富農街","SECT":"一段","MAREA":" ","LANE":"２４８巷","ALLEY":" ","HOUSE_NO":"２３號","E_COORD97":171680.67999999999,"N_COORD97":2542632.96,"ADDRESS":"富農街一段２４８巷２３號","OBJECTID":423520},"geometry":{"x":171680.68000000063,"y":2542632.9600000028}},{"attributes":{"ID":423546,"DIS_CODE":0,"TOWNNAME":"東區","LI":"復興里","LIN":"4鄰","STREET":"富農街","SECT":"一段","MAREA":" ","LANE":"２４８巷","ALLEY":" ","HOUSE_NO":"２號","E_COORD97":171600.53,"N_COORD97":2542607.23,"ADDRESS":"富農街一段２４８巷２號","OBJECTID":423521},"geometry":{"x":171600.53000000119,"y":2542607.2300000023}},{"attributes":{"ID":423547,"DIS_CODE":0,"TOWNNAME":"東區","LI":"復興里","LIN":"4鄰","STREET":"富農街","SECT":"一段","MAREA":" ","LANE":"２４８巷","ALLEY":" ","HOUSE_NO":"３號","E_COORD97":171608.76000000001,"N_COORD97":2542625.5499999998,"ADDRESS":"富農街一段２４８巷３號","OBJECTID":423522},"geometry":{"x":171608.76000000071,"y":2542625.5500000026}},{"attributes":{"ID":423548,"DIS_CODE":0,"TOWNNAME":"東區","LI":"復興里","LIN":"4鄰","STREET":"富農街","SECT":"一段","MAREA":" ","LANE":"２４８巷","ALLEY":" ","HOUSE_NO":"５號","E_COORD97":171616.25,"N_COORD97":2542626.29,"ADDRESS":"富農街一段２４８巷５號","OBJECTID":423523},"geometry":{"x":171616.25000000093,"y":2542626.2899999991}},{"attributes":{"ID":423549,"DIS_CODE":0,"TOWNNAME":"東區","LI":"復興里","LIN":"4鄰","STREET":"富農街","SECT":"一段","MAREA":" ","LANE":"２４８巷","ALLEY":" ","HOUSE_NO":"６號","E_COORD97":171613.25,"N_COORD97":2542608.3500000001,"ADDRESS":"富農街一段２４８巷６號","OBJECTID":423524},"geometry":{"x":171613.25,"y":2542608.3500000015}},{"attributes":{"ID":423550,"DIS_CODE":0,"TOWNNAME":"東區","LI":"復興里","LIN":"4鄰","STREET":"富農街","SECT":"一段","MAREA":" ","LANE":"２４８巷","ALLEY":" ","HOUSE_NO":"７號","E_COORD97":171624.10999999999,"N_COORD97":2542626.29,"ADDRESS":"富農街一段２４８巷７號","OBJECTID":423525},"geometry":{"x":171624.11000000127,"y":2542626.2899999991}},{"attributes":{"ID":423551,"DIS_CODE":0,"TOWNNAME":"東區","LI":"復興里","LIN":"4鄰","STREET":"富農街","SECT":"一段","MAREA":" ","LANE":"２４８巷","ALLEY":" ","HOUSE_NO":"８號","E_COORD97":171619.98999999999,"N_COORD97":2542607.23,"ADDRESS":"富農街一段２４８巷８號","OBJECTID":423526},"geometry":{"x":171619.99000000115,"y":2542607.2300000023}},{"attributes":{"ID":423552,"DIS_CODE":0,"TOWNNAME":"東區","LI":"復興里","LIN":"4鄰","STREET":"富農街","SECT":"一段","MAREA":" ","LANE":"２４８巷","ALLEY":" ","HOUSE_NO":"９號","E_COORD97":171630.57000000001,"N_COORD97":2542628.54,"ADDRESS":"富農街一段２４８巷９號","OBJECTID":423527},"geometry":{"x":171630.56999999937,"y":2542628.5399999991}},{"attributes":{"ID":423553,"DIS_CODE":0,"TOWNNAME":"永康區","LI":"西橋里","LIN":"4鄰","STREET":"中山南路","SECT":" ","MAREA":" ","LANE":"４３巷","ALLEY":" ","HOUSE_NO":"２０號","E_COORD97":170738.29000000001,"N_COORD97":2545888.8999999999,"ADDRESS":"中山南路４３巷２０號","OBJECTID":423528},"geometry":{"x":170738.29000000004,"y":2545888.9000000004}},{"attributes":{"ID":423554,"DIS_CODE":0,"TOWNNAME":"永康區","LI":"大橋里","LIN":"25鄰","STREET":"大橋一街","SECT":" ","MAREA":" ","LANE":"２４７巷","ALLEY":" ","HOUSE_NO":"３７號","E_COORD97":171242.32000000001,"N_COORD97":2546728.5,"ADDRESS":"大橋一街２４７巷３７號","OBJECTID":423529},"geometry":{"x":171242.31999999937,"y":2546728.5}},{"attributes":{"ID":423555,"DIS_CODE":0,"TOWNNAME":"永康區","LI":"崑山里","LIN":"18鄰","STREET":"大仁街","SECT":" ","MAREA":" ","LANE":"１１巷","ALLEY":" ","HOUSE_NO":"１９號","E_COORD97":173709.51000000001,"N_COORD97":2544560.1400000001,"ADDRESS":"大仁街１１巷１９號","OBJECTID":423530},"geometry":{"x":173709.51000000071,"y":2544560.1400000025}},{"attributes":{"ID":423556,"DIS_CODE":0,"TOWNNAME":"永康區","LI":"正強里","LIN":"25鄰","STREET":"中正路","SECT":" ","MAREA":" ","LANE":"１２７巷","ALLEY":" ","HOUSE_NO":"１６號","E_COORD97":173372.76000000001,"N_COORD97":2547825.4900000002,"ADDRESS":"中正路１２７巷１６號","OBJECTID":423531},"geometry":{"x":173372.75999999978,"y":2547825.4900000021}},{"attributes":{"ID":423557,"DIS_CODE":0,"TOWNNAME":"永康區","LI":"龍潭里","LIN":"39鄰","STREET":"永明街","SECT":" ","MAREA":" ","LANE":"１７９巷","ALLEY":" ","HOUSE_NO":"９號","E_COORD97":174429.51999999999,"N_COORD97":2547285.71,"ADDRESS":"永明街１７９巷９號","OBJECTID":423532},"geometry":{"x":174429.52000000048,"y":2547285.7100000028}},{"attributes":{"ID":423558,"DIS_CODE":0,"TOWNNAME":"永康區","LI":"北灣里","LIN":"4鄰","STREET":"信義街","SECT":" ","MAREA":" ","LANE":"４４巷","ALLEY":" ","HOUSE_NO":"６號","E_COORD97":175488.35000000001,"N_COORD97":2545700.4199999999,"ADDRESS":"信義街４４巷６號","OBJECTID":423533},"geometry":{"x":175488.35000000056,"y":2545700.4200000018}},{"attributes":{"ID":423559,"DIS_CODE":0,"TOWNNAME":"永康區","LI":"北灣里","LIN":"39鄰","STREET":"大同街","SECT":" ","MAREA":" ","LANE":"６３９巷","ALLEY":" ","HOUSE_NO":"１０號","E_COORD97":174503.82999999999,"N_COORD97":2546471.7200000002,"ADDRESS":"大同街６３９巷１０號","OBJECTID":423534},"geometry":{"x":174503.83000000101,"y":2546471.7200000025}},{"attributes":{"ID":423560,"DIS_CODE":0,"TOWNNAME":"永康區","LI":"復興里","LIN":"18鄰","STREET":"復興路","SECT":" ","MAREA":" ","LANE":"３５６巷","ALLEY":" ","HOUSE_NO":"８３號","E_COORD97":172337.39999999999,"N_COORD97":2544516.6499999999,"ADDRESS":"復興路３５６巷８３號","OBJECTID":423535},"geometry":{"x":172337.4000000013,"y":2544516.6500000022}},{"attributes":{"ID":423561,"DIS_CODE":0,"TOWNNAME":"永康區","LI":"南灣里","LIN":"20鄰","STREET":"立興街","SECT":" ","MAREA":" ","LANE":"１７８巷","ALLEY":" ","HOUSE_NO":"５號","E_COORD97":174260.51000000001,"N_COORD97":2544591.8500000001,"ADDRESS":"立興街１７８巷５號","OBJECTID":423536},"geometry":{"x":174260.51000000071,"y":2544591.8500000015}},{"attributes":{"ID":423562,"DIS_CODE":0,"TOWNNAME":"永康區","LI":"二王里","LIN":"13鄰","STREET":"永二街","SECT":" ","MAREA":" ","LANE":"４４９巷","ALLEY":" ","HOUSE_NO":"６號","E_COORD97":172654.17999999999,"N_COORD97":2546663.1000000001,"ADDRESS":"永二街４４９巷６號","OBJECTID":423537},"geometry":{"x":172654.1799999997,"y":2546663.0999999996}},{"attributes":{"ID":423563,"DIS_CODE":0,"TOWNNAME":"永康區","LI":"北灣里","LIN":"4鄰","STREET":"信義街","SECT":" ","MAREA":" ","LANE":"４４巷","ALLEY":" ","HOUSE_NO":"２４號","E_COORD97":175487.92000000001,"N_COORD97":2545736.1600000001,"ADDRESS":"信義街４４巷２４號","OBJECTID":423538},"geometry":{"x":175487.92000000179,"y":2545736.160000002}},{"attributes":{"ID":423564,"DIS_CODE":0,"TOWNNAME":"永康區","LI":"崑山里","LIN":"18鄰","STREET":"大仁街","SECT":" ","MAREA":" ","LANE":"１１巷","ALLEY":" ","HOUSE_NO":"１１號","E_COORD97":173726.87,"N_COORD97":2544554.1499999999,"ADDRESS":"大仁街１１巷１１號","OBJECTID":423539},"geometry":{"x":173726.87000000011,"y":2544554.1500000022}},{"attributes":{"ID":423565,"DIS_CODE":0,"TOWNNAME":"永康區","LI":"南灣里","LIN":"20鄰","STREET":"立興街","SECT":" ","MAREA":" ","LANE":"１７６巷","ALLEY":" ","HOUSE_NO":"５之８號","E_COORD97":174293.04000000001,"N_COORD97":2544616.8300000001,"ADDRESS":"立興街１７６巷５之８號","OBJECTID":423540},"geometry":{"x":174293.04000000004,"y":2544616.8300000019}},{"attributes":{"ID":423566,"DIS_CODE":0,"TOWNNAME":"永康區","LI":"大橋里","LIN":"26鄰","STREET":"大橋一街","SECT":" ","MAREA":" ","LANE":"２４７巷","ALLEY":" ","HOUSE_NO":"６６號","E_COORD97":171211.54999999999,"N_COORD97":2546813.7400000002,"ADDRESS":"大橋一街２４７巷６６號","OBJECTID":423541},"geometry":{"x":171211.55000000168,"y":2546813.7400000021}},{"attributes":{"ID":423567,"DIS_CODE":0,"TOWNNAME":"永康區","LI":"南灣里","LIN":"39鄰","STREET":"南灣街","SECT":" ","MAREA":" ","LANE":"１００巷","ALLEY":" ","HOUSE_NO":"３號","E_COORD97":174390.59,"N_COORD97":2544993.75,"ADDRESS":"南灣街１００巷３號","OBJECTID":423542},"geometry":{"x":174390.59000000078,"y":2544993.7500000019}},{"attributes":{"ID":423568,"DIS_CODE":0,"TOWNNAME":"永康區","LI":"中興里","LIN":"5鄰","STREET":"中華路","SECT":" ","MAREA":" ","LANE":"２１４巷","ALLEY":" ","HOUSE_NO":"４５號","E_COORD97":171811.16,"N_COORD97":2545070.1299999999,"ADDRESS":"中華路２１４巷４５號","OBJECTID":423543},"geometry":{"x":171811.15999999922,"y":2545070.1300000027}},{"attributes":{"ID":423569,"DIS_CODE":0,"TOWNNAME":"永康區","LI":"東橋里","LIN":"5鄰","STREET":"中山南路","SECT":" ","MAREA":" ","LANE":"１９５巷","ALLEY":" ","HOUSE_NO":"４９號","E_COORD97":171399.95000000001,"N_COORD97":2546457.48,"ADDRESS":"中山南路１９５巷４９號","OBJECTID":423544},"geometry":{"x":171399.95000000019,"y":2546457.4800000004}},{"attributes":{"ID":423570,"DIS_CODE":0,"TOWNNAME":"永康區","LI":"五王里","LIN":"18鄰","STREET":"成功路","SECT":" ","MAREA":" ","LANE":"１７２巷","ALLEY":" ","HOUSE_NO":"５９號","E_COORD97":171557.19,"N_COORD97":2545725.6400000001,"ADDRESS":"成功路１７２巷５９號","OBJECTID":423545},"geometry":{"x":171557.19000000227,"y":2545725.6399999987}},{"attributes":{"ID":423571,"DIS_CODE":0,"TOWNNAME":"永康區","LI":"南灣里","LIN":" ","STREET":"南興路","SECT":" ","MAREA":" ","LANE":"２巷","ALLEY":" ","HOUSE_NO":"５之３號","E_COORD97":174267.10999999999,"N_COORD97":2543957.1200000001,"ADDRESS":"南興路２巷５之３號","OBJECTID":423546},"geometry":{"x":174267.11000000127,"y":2543957.1200000029}},{"attributes":{"ID":423572,"DIS_CODE":0,"TOWNNAME":"永康區","LI":"\u25A0洲里","LIN":"5鄰","STREET":"仁愛街","SECT":" ","MAREA":" ","LANE":"１０３巷","ALLEY":" ","HOUSE_NO":"２６號","E_COORD97":171979.20000000001,"N_COORD97":2549513.7799999998,"ADDRESS":"仁愛街１０３巷２６號","OBJECTID":423547},"geometry":{"x":171979.20000000112,"y":2549513.7799999993}},{"attributes":{"ID":423573,"DIS_CODE":0,"TOWNNAME":"永康區","LI":"崑山里","LIN":"38鄰","STREET":"崑山街","SECT":" ","MAREA":" ","LANE":"２０３巷","ALLEY":" ","HOUSE_NO":"１１號","E_COORD97":174022.57000000001,"N_COORD97":2545002.5299999998,"ADDRESS":"崑山街２０３巷１１號","OBJECTID":423548},"geometry":{"x":174022.57000000216,"y":2545002.5299999993}},{"attributes":{"ID":423574,"DIS_CODE":0,"TOWNNAME":"永康區","LI":"勝利里","LIN":"20鄰","STREET":"勝學路","SECT":" ","MAREA":" ","LANE":"２６９巷","ALLEY":" ","HOUSE_NO":"１１號","E_COORD97":171149.32000000001,"N_COORD97":2545290.5099999998,"ADDRESS":"勝學路２６９巷１１號","OBJECTID":423549},"geometry":{"x":171149.32000000216,"y":2545290.5099999998}},{"attributes":{"ID":423575,"DIS_CODE":0,"TOWNNAME":"永康區","LI":"東灣里","LIN":"26鄰","STREET":"民族路","SECT":" ","MAREA":" ","LANE":"７７巷","ALLEY":" ","HOUSE_NO":"５６號","E_COORD97":175309.10999999999,"N_COORD97":2544611.0299999998,"ADDRESS":"民族路７７巷５６號","OBJECTID":423550},"geometry":{"x":175309.1100000022,"y":2544611.0300000012}},{"attributes":{"ID":423576,"DIS_CODE":0,"TOWNNAME":"永康區","LI":"龍潭里","LIN":"39鄰","STREET":"永明街","SECT":" ","MAREA":" ","LANE":"２３１巷","ALLEY":" ","HOUSE_NO":"６８號","E_COORD97":174584.38,"N_COORD97":2547368.6000000001,"ADDRESS":"永明街２３１巷６８號","OBJECTID":423551},"geometry":{"x":174584.37999999989,"y":2547368.5999999996}},{"attributes":{"ID":423577,"DIS_CODE":0,"TOWNNAME":"永康區","LI":"復華里","LIN":"32鄰","STREET":"國華街","SECT":" ","MAREA":" ","LANE":"１６２巷","ALLEY":" ","HOUSE_NO":"５號","E_COORD97":172574.26000000001,"N_COORD97":2546326.5,"ADDRESS":"國華街１６２巷５號","OBJECTID":423552},"geometry":{"x":172574.25999999978,"y":2546326.5000000037}},{"attributes":{"ID":423578,"DIS_CODE":0,"TOWNNAME":"永康區","LI":"西灣里","LIN":"50鄰","STREET":"永華路","SECT":" ","MAREA":" ","LANE":"２７３巷","ALLEY":" ","HOUSE_NO":"８號","E_COORD97":173996.29999999999,"N_COORD97":2545818.1200000001,"ADDRESS":"永華路２７３巷８號","OBJECTID":423553},"geometry":{"x":173996.29999999981,"y":2545818.1200000048}},{"attributes":{"ID":423579,"DIS_CODE":0,"TOWNNAME":"永康區","LI":"東灣里","LIN":"26鄰","STREET":"大灣一街","SECT":" ","MAREA":" ","LANE":"２４２巷","ALLEY":" ","HOUSE_NO":"５號","E_COORD97":174954.12,"N_COORD97":2544606.9900000002,"ADDRESS":"大灣一街２４２巷５號","OBJECTID":423554},"geometry":{"x":174954.12000000011,"y":2544606.9900000002}},{"attributes":{"ID":423580,"DIS_CODE":0,"TOWNNAME":"永康區","LI":"埔園里","LIN":"32鄰","STREET":"龍埔街","SECT":" ","MAREA":" ","LANE":"２８３巷","ALLEY":" ","HOUSE_NO":"４６號","E_COORD97":174023.45000000001,"N_COORD97":2548222.9900000002,"ADDRESS":"龍埔街２８３巷４６號","OBJECTID":423555},"geometry":{"x":174023.45000000112,"y":2548222.9900000021}},{"attributes":{"ID":423581,"DIS_CODE":0,"TOWNNAME":"永康區","LI":"西橋里","LIN":"4鄰","STREET":"中華西街","SECT":" ","MAREA":" ","LANE":"２１巷","ALLEY":" ","HOUSE_NO":"１號","E_COORD97":170790.45000000001,"N_COORD97":2545946.2400000002,"ADDRESS":"中華西街２１巷１號","OBJECTID":423556},"geometry":{"x":170790.44999999925,"y":2545946.2400000021}},{"attributes":{"ID":423582,"DIS_CODE":0,"TOWNNAME":"永康區","LI":"正強里","LIN":"38鄰","STREET":"正強街","SECT":" ","MAREA":" ","LANE":"３０７巷","ALLEY":" ","HOUSE_NO":"１號","E_COORD97":173244.07999999999,"N_COORD97":2548112.1299999999,"ADDRESS":"正強街３０７巷１號","OBJECTID":423557},"geometry":{"x":173244.07999999914,"y":2548112.1300000008}},{"attributes":{"ID":423583,"DIS_CODE":0,"TOWNNAME":"永康區","LI":"網寮里","LIN":"20鄰","STREET":"永二街","SECT":" ","MAREA":" ","LANE":"２４５巷","ALLEY":" ","HOUSE_NO":"１３號","E_COORD97":173319.64999999999,"N_COORD97":2546168.4900000002,"ADDRESS":"永二街２４５巷１３號","OBJECTID":423558},"geometry":{"x":173319.65000000037,"y":2546168.4900000021}},{"attributes":{"ID":423584,"DIS_CODE":0,"TOWNNAME":"永康區","LI":"正強里","LIN":"32鄰","STREET":"四維街","SECT":" ","MAREA":" ","LANE":"２９巷","ALLEY":" ","HOUSE_NO":"１８號","E_COORD97":173360.26000000001,"N_COORD97":2548008.4300000002,"ADDRESS":"四維街２９巷１８號","OBJECTID":423559},"geometry":{"x":173360.26000000071,"y":2548008.4300000016}},{"attributes":{"ID":423585,"DIS_CODE":0,"TOWNNAME":"永康區","LI":"\u25A0洲里","LIN":"4鄰","STREET":"\u25A0行路","SECT":" ","MAREA":" ","LANE":"９８巷","ALLEY":" ","HOUSE_NO":"１０號","E_COORD97":171559.35000000001,"N_COORD97":2549289.4900000002,"ADDRESS":"\u25A0行路９８巷１０號","OBJECTID":423560},"geometry":{"x":171559.35000000056,"y":2549289.4900000002}},{"attributes":{"ID":423586,"DIS_CODE":0,"TOWNNAME":"永康區","LI":"北灣里","LIN":"18鄰","STREET":"文賢街","SECT":" ","MAREA":" ","LANE":"４２２巷","ALLEY":" ","HOUSE_NO":"２７號","E_COORD97":174641.79999999999,"N_COORD97":2545882.4199999999,"ADDRESS":"文賢街４２２巷２７號","OBJECTID":423561},"geometry":{"x":174641.79999999981,"y":2545882.4199999981}},{"attributes":{"ID":423587,"DIS_CODE":0,"TOWNNAME":"永康區","LI":"北灣里","LIN":"18鄰","STREET":"文賢街","SECT":" ","MAREA":" ","LANE":"４２２巷","ALLEY":" ","HOUSE_NO":"１８之１號","E_COORD97":174737.06,"N_COORD97":2545905.5699999998,"ADDRESS":"文賢街４２２巷１８之１號","OBJECTID":423562},"geometry":{"x":174737.05999999959,"y":2545905.5699999984}},{"attributes":{"ID":423588,"DIS_CODE":0,"TOWNNAME":"永康區","LI":"尚頂里","LIN":"20鄰","STREET":"中華路","SECT":" ","MAREA":" ","LANE":"９１２巷","ALLEY":" ","HOUSE_NO":"５１號","E_COORD97":170551.32000000001,"N_COORD97":2546765,"ADDRESS":"中華路９１２巷５１號","OBJECTID":423563},"geometry":{"x":170551.32000000123,"y":2546765.0000000019}},{"attributes":{"ID":423589,"DIS_CODE":0,"TOWNNAME":"永康區","LI":"三合里","LIN":"5鄰","STREET":"南工街","SECT":" ","MAREA":" ","LANE":"９８巷","ALLEY":" ","HOUSE_NO":"１２號","E_COORD97":172140.13,"N_COORD97":2545714.75,"ADDRESS":"南工街９８巷１２號","OBJECTID":423564},"geometry":{"x":172140.13000000175,"y":2545714.7500000019}},{"attributes":{"ID":423590,"DIS_CODE":0,"TOWNNAME":"永康區","LI":"西灣里","LIN":"25鄰","STREET":"國光七街","SECT":" ","MAREA":" ","LANE":"２０巷","ALLEY":" ","HOUSE_NO":"３３號","E_COORD97":174318.23000000001,"N_COORD97":2545593.1499999999,"ADDRESS":"國光七街２０巷３３號","OBJECTID":423565},"geometry":{"x":174318.23000000231,"y":2545593.1499999985}},{"attributes":{"ID":423591,"DIS_CODE":0,"TOWNNAME":"永康區","LI":"復華里","LIN":"4鄰","STREET":"復國二路","SECT":" ","MAREA":" ","LANE":"２４３巷","ALLEY":" ","HOUSE_NO":"１２號","E_COORD97":172974.23999999999,"N_COORD97":2546129.3199999998,"ADDRESS":"復國二路２４３巷１２號","OBJECTID":423566},"geometry":{"x":172974.24000000115,"y":2546129.3200000022}},{"attributes":{"ID":423592,"DIS_CODE":0,"TOWNNAME":"永康區","LI":"\u25A0洲里","LIN":"25鄰","STREET":"中正南路","SECT":" ","MAREA":" ","LANE":"４５３巷","ALLEY":" ","HOUSE_NO":"２１號","E_COORD97":170765.78,"N_COORD97":2548139.9900000002,"ADDRESS":"中正南路４５３巷２１號","OBJECTID":423567},"geometry":{"x":170765.78000000026,"y":2548139.9900000002}},{"attributes":{"ID":423593,"DIS_CODE":0,"TOWNNAME":"永康區","LI":"龍潭里","LIN":"39鄰","STREET":"永明街","SECT":" ","MAREA":" ","LANE":"２３１巷","ALLEY":" ","HOUSE_NO":"１３號","E_COORD97":174563.23000000001,"N_COORD97":2547237.3399999999,"ADDRESS":"永明街２３１巷１３號","OBJECTID":423568},"geometry":{"x":174563.23000000138,"y":2547237.3400000017}},{"attributes":{"ID":423594,"DIS_CODE":0,"TOWNNAME":"安南區","LI":"溪頂里","LIN":"22鄰","STREET":"郡安路","SECT":"四段","MAREA":" ","LANE":"２４９巷","ALLEY":" ","HOUSE_NO":"１２號","E_COORD97":168720.84,"N_COORD97":2547610.3900000001,"ADDRESS":"郡安路四段２４９巷１２號","OBJECTID":423569},"geometry":{"x":168720.83999999985,"y":2547610.3900000025}},{"attributes":{"ID":423595,"DIS_CODE":0,"TOWNNAME":"安南區","LI":"溪頂里","LIN":"22鄰","STREET":"郡安路","SECT":"四段","MAREA":" ","LANE":"２４９巷","ALLEY":" ","HOUSE_NO":"１３號","E_COORD97":168747.76999999999,"N_COORD97":2547603.75,"ADDRESS":"郡安路四段２４９巷１３號","OBJECTID":423570},"geometry":{"x":168747.76999999955,"y":2547603.7500000019}},{"attributes":{"ID":423596,"DIS_CODE":0,"TOWNNAME":"安南區","LI":"溪頂里","LIN":"14鄰","STREET":"惠安街","SECT":" ","MAREA":" ","LANE":"１６１巷","ALLEY":" ","HOUSE_NO":"２８號","E_COORD97":168817.92999999999,"N_COORD97":2547334.4900000002,"ADDRESS":"惠安街１６１巷２８號","OBJECTID":423571},"geometry":{"x":168817.9299999997,"y":2547334.4900000021}},{"attributes":{"ID":423597,"DIS_CODE":0,"TOWNNAME":"安南區","LI":"溪頂里","LIN":"14鄰","STREET":"惠安街","SECT":" ","MAREA":" ","LANE":"１６１巷","ALLEY":" ","HOUSE_NO":"１９號","E_COORD97":168819.19,"N_COORD97":2547350.2200000002,"ADDRESS":"惠安街１６１巷１９號","OBJECTID":423572},"geometry":{"x":168819.18999999948,"y":2547350.2200000025}},{"attributes":{"ID":423598,"DIS_CODE":0,"TOWNNAME":"安南區","LI":"溪頂里","LIN":"25鄰","STREET":"郡安路","SECT":"四段","MAREA":" ","LANE":"１２０巷","ALLEY":" ","HOUSE_NO":"１５號","E_COORD97":168882.23999999999,"N_COORD97":2547567.9300000002,"ADDRESS":"郡安路四段１２０巷１５號","OBJECTID":423573},"geometry":{"x":168882.24000000115,"y":2547567.9300000016}},{"attributes":{"ID":423599,"DIS_CODE":0,"TOWNNAME":"安南區","LI":"新順里","LIN":"8鄰","STREET":"總安街","SECT":"一段","MAREA":" ","LANE":"３４２巷","ALLEY":" ","HOUSE_NO":"１０之１號","E_COORD97":169252.57999999999,"N_COORD97":2550366.0899999999,"ADDRESS":"總安街一段３４２巷１０之１號","OBJECTID":423574},"geometry":{"x":169252.58000000101,"y":2550366.0899999999}},{"attributes":{"ID":423600,"DIS_CODE":0,"TOWNNAME":"中西區","LI":"天后里","LIN":"20鄰","STREET":"成功路","SECT":" ","MAREA":" ","LANE":"２８５巷","ALLEY":" ","HOUSE_NO":"６號","E_COORD97":168133.79999999999,"N_COORD97":2544437.3399999999,"ADDRESS":"成功路２８５巷６號","OBJECTID":423575},"geometry":{"x":168133.80000000075,"y":2544437.3399999999}},{"attributes":{"ID":423601,"DIS_CODE":0,"TOWNNAME":"中西區","LI":"天后里","LIN":"20鄰","STREET":"成功路","SECT":" ","MAREA":" ","LANE":"２８５巷","ALLEY":" ","HOUSE_NO":"８號","E_COORD97":168131.91,"N_COORD97":2544433.7999999998,"ADDRESS":"成功路２８５巷８號","OBJECTID":423576},"geometry":{"x":168131.91000000015,"y":2544433.8000000026}},{"attributes":{"ID":423602,"DIS_CODE":0,"TOWNNAME":"中西區","LI":"天后里","LIN":"19鄰","STREET":"西門路","SECT":"二段","MAREA":" ","LANE":"３７２巷","ALLEY":" ","HOUSE_NO":"２３號","E_COORD97":168099.26999999999,"N_COORD97":2544300.29,"ADDRESS":"西門路二段３７２巷２３號","OBJECTID":423577},"geometry":{"x":168099.27000000048,"y":2544300.290000001}},{"attributes":{"ID":423603,"DIS_CODE":0,"TOWNNAME":"中西區","LI":"天后里","LIN":"19鄰","STREET":"西門路","SECT":"二段","MAREA":" ","LANE":"３７２巷","ALLEY":" ","HOUSE_NO":"２３號之１","E_COORD97":168105.75,"N_COORD97":2544297.3100000001,"ADDRESS":"西門路二段３７２巷２３號之１","OBJECTID":423578},"geometry":{"x":168105.75,"y":2544297.3100000042}},{"attributes":{"ID":423604,"DIS_CODE":0,"TOWNNAME":"中西區","LI":"天后里","LIN":"19鄰","STREET":"西門路","SECT":"二段","MAREA":" ","LANE":"３７２巷","ALLEY":" ","HOUSE_NO":"２５號","E_COORD97":168103.91,"N_COORD97":2544305.3999999999,"ADDRESS":"西門路二段３７２巷２５號","OBJECTID":423579},"geometry":{"x":168103.91000000201,"y":2544305.4000000004}},{"attributes":{"ID":423605,"DIS_CODE":0,"TOWNNAME":"中西區","LI":"天后里","LIN":"19鄰","STREET":"西門路","SECT":"二段","MAREA":" ","LANE":"３７２巷","ALLEY":" ","HOUSE_NO":"２７號","E_COORD97":168104.79000000001,"N_COORD97":2544310.3900000001,"ADDRESS":"西門路二段３７２巷２７號","OBJECTID":423580},"geometry":{"x":168104.79000000097,"y":2544310.3900000043}},{"attributes":{"ID":423606,"DIS_CODE":0,"TOWNNAME":"仁德區","LI":"後壁里","LIN":"18鄰","STREET":"德南路","SECT":" ","MAREA":" ","LANE":"５４巷","ALLEY":" ","HOUSE_NO":"１２號","E_COORD97":173350.89999999999,"N_COORD97":2538731.2599999998,"ADDRESS":"德南路５４巷１２號","OBJECTID":423581},"geometry":{"x":173350.90000000224,"y":2538731.2600000016}},{"attributes":{"ID":423607,"DIS_CODE":0,"TOWNNAME":"仁德區","LI":"後壁里","LIN":"41鄰","STREET":"德善路","SECT":" ","MAREA":" ","LANE":"２７３巷","ALLEY":" ","HOUSE_NO":"８號","E_COORD97":173956.84,"N_COORD97":2538708.5099999998,"ADDRESS":"德善路２７３巷８號","OBJECTID":423582},"geometry":{"x":173956.83999999985,"y":2538708.5100000016}},{"attributes":{"ID":423608,"DIS_CODE":0,"TOWNNAME":"仁德區","LI":"後壁里","LIN":"40鄰","STREET":"德善二街","SECT":" ","MAREA":" ","LANE":"１７巷","ALLEY":" ","HOUSE_NO":"３１號","E_COORD97":173489.37,"N_COORD97":2538963.52,"ADDRESS":"德善二街１７巷３１號","OBJECTID":423583},"geometry":{"x":173489.37000000011,"y":2538963.5199999996}},{"attributes":{"ID":423609,"DIS_CODE":0,"TOWNNAME":"仁德區","LI":"新田里","LIN":"4鄰","STREET":"新田路","SECT":" ","MAREA":" ","LANE":"２４０巷","ALLEY":" ","HOUSE_NO":"１６號","E_COORD97":174560.60000000001,"N_COORD97":2539600.75,"ADDRESS":"新田路２４０巷１６號","OBJECTID":423584},"geometry":{"x":174560.5999999987,"y":2539600.75}},{"attributes":{"ID":423610,"DIS_CODE":0,"TOWNNAME":"仁德區","LI":"新田里","LIN":"4鄰","STREET":"新田路","SECT":" ","MAREA":" ","LANE":"２４０巷","ALLEY":" ","HOUSE_NO":"２之１號","E_COORD97":174524.35000000001,"N_COORD97":2539589.0499999998,"ADDRESS":"新田路２４０巷２之１號","OBJECTID":423585},"geometry":{"x":174524.34999999963,"y":2539589.0500000007}},{"attributes":{"ID":423611,"DIS_CODE":0,"TOWNNAME":"仁德區","LI":"後壁里","LIN":"25鄰","STREET":"德洋一街","SECT":" ","MAREA":" ","LANE":"１０巷","ALLEY":" ","HOUSE_NO":"２１號","E_COORD97":173142.98000000001,"N_COORD97":2539082.27,"ADDRESS":"德洋一街１０巷２１號","OBJECTID":423586},"geometry":{"x":173142.98000000045,"y":2539082.2700000033}},{"attributes":{"ID":423612,"DIS_CODE":0,"TOWNNAME":"仁德區","LI":"後壁里","LIN":"25鄰","STREET":"德糖路","SECT":" ","MAREA":" ","LANE":" ","ALLEY":" ","HOUSE_NO":"５３２號","E_COORD97":173166.20999999999,"N_COORD97":2539066.02,"ADDRESS":"德糖路５３２號","OBJECTID":423587},"geometry":{"x":173166.20999999996,"y":2539066.0199999996}},{"attributes":{"ID":423613,"DIS_CODE":0,"TOWNNAME":"仁德區","LI":"後壁里","LIN":"41鄰","STREET":"德善路","SECT":" ","MAREA":" ","LANE":"２７３巷","ALLEY":" ","HOUSE_NO":"４號","E_COORD97":173930.31,"N_COORD97":2538665.02,"ADDRESS":"德善路２７３巷４號","OBJECTID":423588},"geometry":{"x":173930.31000000145,"y":2538665.0200000014}},{"attributes":{"ID":423614,"DIS_CODE":0,"TOWNNAME":"仁德區","LI":"新田里","LIN":"5鄰","STREET":"勝利二街","SECT":" ","MAREA":" ","LANE":"３９巷","ALLEY":" ","HOUSE_NO":"１２號","E_COORD97":174916.79000000001,"N_COORD97":2539268.7599999998,"ADDRESS":"勝利二街３９巷１２號","OBJECTID":423589},"geometry":{"x":174916.79000000004,"y":2539268.7599999979}},{"attributes":{"ID":423615,"DIS_CODE":0,"TOWNNAME":"仁德區","LI":"後壁里","LIN":"18鄰","STREET":"德南路","SECT":" ","MAREA":" ","LANE":"５４巷","ALLEY":" ","HOUSE_NO":"８號","E_COORD97":173355.64000000001,"N_COORD97":2538738.2599999998,"ADDRESS":"德南路５４巷８號","OBJECTID":423590},"geometry":{"x":173355.6400000006,"y":2538738.2600000016}},{"attributes":{"ID":423616,"DIS_CODE":0,"TOWNNAME":"仁德區","LI":"後壁里","LIN":"40鄰","STREET":"德善二街","SECT":" ","MAREA":" ","LANE":"１７巷","ALLEY":" ","HOUSE_NO":"１４號","E_COORD97":173525.72,"N_COORD97":2538940.0099999998,"ADDRESS":"德善二街１７巷１４號","OBJECTID":423591},"geometry":{"x":173525.71999999974,"y":2538940.0100000016}},{"attributes":{"ID":423617,"DIS_CODE":0,"TOWNNAME":"仁德區","LI":"一甲里","LIN":"4鄰","STREET":"中正路","SECT":"三段","MAREA":" ","LANE":"１３６巷","ALLEY":" ","HOUSE_NO":"１３號","E_COORD97":173494.06,"N_COORD97":2541707.8500000001,"ADDRESS":"中正路三段１３６巷１３號","OBJECTID":423592},"geometry":{"x":173494.05999999959,"y":2541707.8499999996}},{"attributes":{"ID":423618,"DIS_CODE":0,"TOWNNAME":"仁德區","LI":"一甲里","LIN":"4鄰","STREET":"中正路","SECT":"三段","MAREA":" ","LANE":"１３６巷","ALLEY":" ","HOUSE_NO":"１５號","E_COORD97":173498.01000000001,"N_COORD97":2541707.6800000002,"ADDRESS":"中正路三段１３６巷１５號","OBJECTID":423593},"geometry":{"x":173498.00999999978,"y":2541707.6800000016}},{"attributes":{"ID":423619,"DIS_CODE":0,"TOWNNAME":"仁德區","LI":"一甲里","LIN":"4鄰","STREET":"中正路","SECT":"三段","MAREA":" ","LANE":"１３６巷","ALLEY":" ","HOUSE_NO":"１７號","E_COORD97":173501.67999999999,"N_COORD97":2541707.29,"ADDRESS":"中正路三段１３６巷１７號","OBJECTID":423594},"geometry":{"x":173501.6799999997,"y":2541707.290000001}},{"attributes":{"ID":423620,"DIS_CODE":0,"TOWNNAME":"歸仁區","LI":"沙崙里","LIN":"5鄰","STREET":" ","SECT":" ","MAREA":"沙崙","LANE":" ","ALLEY":" ","HOUSE_NO":"３８２號","E_COORD97":180515.667224,"N_COORD97":2538716.4887999999,"ADDRESS":"沙崙３８２號","OBJECTID":423595},"geometry":{"x":180515.66722400114,"y":2538716.4888000023}},{"attributes":{"ID":423621,"DIS_CODE":0,"TOWNNAME":"仁德區","LI":"後壁里","LIN":"39鄰","STREET":"德糖路","SECT":" ","MAREA":" ","LANE":" ","ALLEY":" ","HOUSE_NO":"４０５號","E_COORD97":173394.34,"N_COORD97":2539104.46,"ADDRESS":"德糖路４０５號","OBJECTID":423596},"geometry":{"x":173394.33999999985,"y":2539104.4600000009}},{"attributes":{"ID":423622,"DIS_CODE":0,"TOWNNAME":"仁德區","LI":"後壁里","LIN":"39鄰","STREET":"德糖路","SECT":" ","MAREA":" ","LANE":" ","ALLEY":" ","HOUSE_NO":"４０３號","E_COORD97":173399.95000000001,"N_COORD97":2539105.1200000001,"ADDRESS":"德糖路４０３號","OBJECTID":423597},"geometry":{"x":173399.95000000112,"y":2539105.1200000048}},{"attributes":{"ID":423623,"DIS_CODE":0,"TOWNNAME":"仁德區","LI":"後壁里","LIN":"39鄰","STREET":"德糖路","SECT":" ","MAREA":" ","LANE":" ","ALLEY":" ","HOUSE_NO":"４０１號","E_COORD97":173405.19,"N_COORD97":2539106.8100000001,"ADDRESS":"德糖路４０１號","OBJECTID":423598},"geometry":{"x":173405.19000000134,"y":2539106.8100000042}},{"attributes":{"ID":423624,"DIS_CODE":0,"TOWNNAME":"仁德區","LI":"仁義里","LIN":"41鄰","STREET":"中正路","SECT":"二段","MAREA":" ","LANE":"９３６巷","ALLEY":" ","HOUSE_NO":"７號","E_COORD97":173465.32999999999,"N_COORD97":2540681.4900000002,"ADDRESS":"中正路二段９３６巷７號","OBJECTID":423599},"geometry":{"x":173465.33000000101,"y":2540681.4899999984}},{"attributes":{"ID":423625,"DIS_CODE":0,"TOWNNAME":"仁德區","LI":"一甲里","LIN":"4鄰","STREET":"中正路","SECT":"三段","MAREA":" ","LANE":"１３６巷","ALLEY":" ","HOUSE_NO":"１９號","E_COORD97":173504.44,"N_COORD97":2541706.3999999999,"ADDRESS":"中正路三段１３６巷１９號","OBJECTID":423600},"geometry":{"x":173504.44000000041,"y":2541706.4000000041}}]}