{"displayFieldName":"TOWNNAME","fieldAliases":{"ID":"ID","DIS_CODE":"DIS_CODE","TOWNNAME":"TOWNNAME","LI":"LI","LIN":"LIN","STREET":"STREET","SECT":"SECT","MAREA":"MAREA","LANE":"LANE","ALLEY":"ALLEY","HOUSE_NO":"HOUSE_NO","E_COORD97":"E_COORD97","N_COORD97":"N_COORD97","ADDRESS":"ADDRESS","OBJECTID":"OBJECTID"},"geometryType":"esriGeometryPoint","spatialReference":{"wkid":102443,"latestWkid":3826},"fields":[{"name":"ID","type":"esriFieldTypeDouble","alias":"ID"},{"name":"DIS_CODE","type":"esriFieldTypeInteger","alias":"DIS_CODE"},{"name":"TOWNNAME","type":"esriFieldTypeString","alias":"TOWNNAME","length":8},{"name":"LI","type":"esriFieldTypeString","alias":"LI","length":8},{"name":"LIN","type":"esriFieldTypeString","alias":"LIN","length":12},{"name":"STREET","type":"esriFieldTypeString","alias":"STREET","length":20},{"name":"SECT","type":"esriFieldTypeString","alias":"SECT","length":8},{"name":"MAREA","type":"esriFieldTypeString","alias":"MAREA","length":12},{"name":"LANE","type":"esriFieldTypeString","alias":"LANE","length":10},{"name":"ALLEY","type":"esriFieldTypeString","alias":"ALLEY","length":10},{"name":"HOUSE_NO","type":"esriFieldTypeString","alias":"HOUSE_NO","length":20},{"name":"E_COORD97","type":"esriFieldTypeDouble","alias":"E_COORD97"},{"name":"N_COORD97","type":"esriFieldTypeDouble","alias":"N_COORD97"},{"name":"ADDRESS","type":"esriFieldTypeString","alias":"ADDRESS","length":50},{"name":"OBJECTID","type":"esriFieldTypeOID","alias":"OBJECTID"}],"features":[{"attributes":{"ID":342010,"DIS_CODE":0,"TOWNNAME":"下營區","LI":"西連里","LIN":"5鄰","STREET":" ","SECT":" ","MAREA":"西寮","LANE":" ","ALLEY":" ","HOUSE_NO":"６號之６","E_COORD97":174414.73999999999,"N_COORD97":2567443.0800000001,"ADDRESS":"西寮６號之６","OBJECTID":342001},"geometry":{"x":174414.74000000209,"y":2567443.0800000001}},{"attributes":{"ID":342011,"DIS_CODE":0,"TOWNNAME":"下營區","LI":"西連里","LIN":"5鄰","STREET":" ","SECT":" ","MAREA":"西寮","LANE":" ","ALLEY":" ","HOUSE_NO":"６號","E_COORD97":174504.29000000001,"N_COORD97":2567456.9199999999,"ADDRESS":"西寮６號","OBJECTID":342002},"geometry":{"x":174504.29000000097,"y":2567456.9200000018}},{"attributes":{"ID":342012,"DIS_CODE":0,"TOWNNAME":"下營區","LI":"西連里","LIN":"5鄰","STREET":" ","SECT":" ","MAREA":"西寮","LANE":" ","ALLEY":" ","HOUSE_NO":"７號之１","E_COORD97":174526.12,"N_COORD97":2567434.1899999999,"ADDRESS":"西寮７號之１","OBJECTID":342003},"geometry":{"x":174526.12000000104,"y":2567434.1900000013}},{"attributes":{"ID":342013,"DIS_CODE":0,"TOWNNAME":"將軍區","LI":"仁和里","LIN":"5鄰","STREET":" ","SECT":" ","MAREA":"仁巷","LANE":" ","ALLEY":" ","HOUSE_NO":"４１號","E_COORD97":164047.82999999999,"N_COORD97":2569234.5800000001,"ADDRESS":"仁巷４１號","OBJECTID":342004},"geometry":{"x":164047.83000000194,"y":2569234.5800000038}},{"attributes":{"ID":342014,"DIS_CODE":0,"TOWNNAME":"將軍區","LI":"仁和里","LIN":"5鄰","STREET":" ","SECT":" ","MAREA":"仁巷","LANE":" ","ALLEY":" ","HOUSE_NO":"４２之１號","E_COORD97":164106.76999999999,"N_COORD97":2569234.3599999999,"ADDRESS":"仁巷４２之１號","OBJECTID":342005},"geometry":{"x":164106.76999999955,"y":2569234.3599999994}},{"attributes":{"ID":342015,"DIS_CODE":0,"TOWNNAME":"將軍區","LI":"仁和里","LIN":"5鄰","STREET":" ","SECT":" ","MAREA":"仁巷","LANE":" ","ALLEY":" ","HOUSE_NO":"４２之２號","E_COORD97":164077.39000000001,"N_COORD97":2569226.1800000002,"ADDRESS":"仁巷４２之２號","OBJECTID":342006},"geometry":{"x":164077.39000000153,"y":2569226.1799999997}},{"attributes":{"ID":342016,"DIS_CODE":0,"TOWNNAME":"將軍區","LI":"仁和里","LIN":"5鄰","STREET":" ","SECT":" ","MAREA":"仁巷","LANE":" ","ALLEY":" ","HOUSE_NO":"４２之３號","E_COORD97":164077.20999999999,"N_COORD97":2569222.1299999999,"ADDRESS":"仁巷４２之３號","OBJECTID":342007},"geometry":{"x":164077.21000000183,"y":2569222.129999999}},{"attributes":{"ID":342017,"DIS_CODE":0,"TOWNNAME":"將軍區","LI":"仁和里","LIN":"5鄰","STREET":" ","SECT":" ","MAREA":"仁巷","LANE":" ","ALLEY":" ","HOUSE_NO":"４２之４號","E_COORD97":164076.28,"N_COORD97":2569217.7799999998,"ADDRESS":"仁巷４２之４號","OBJECTID":342008},"geometry":{"x":164076.28000000026,"y":2569217.7799999993}},{"attributes":{"ID":342018,"DIS_CODE":0,"TOWNNAME":"將軍區","LI":"仁和里","LIN":"5鄰","STREET":" ","SECT":" ","MAREA":"仁巷","LANE":" ","ALLEY":" ","HOUSE_NO":"４２之５號","E_COORD97":164075.44,"N_COORD97":2569213.1299999999,"ADDRESS":"仁巷４２之５號","OBJECTID":342009},"geometry":{"x":164075.44000000041,"y":2569213.1300000008}},{"attributes":{"ID":342019,"DIS_CODE":0,"TOWNNAME":"將軍區","LI":"仁和里","LIN":"5鄰","STREET":" ","SECT":" ","MAREA":"仁巷","LANE":" ","ALLEY":" ","HOUSE_NO":"４２之６號","E_COORD97":164075.07999999999,"N_COORD97":2569209.23,"ADDRESS":"仁巷４２之６號","OBJECTID":342010},"geometry":{"x":164075.08000000101,"y":2569209.2300000004}},{"attributes":{"ID":342020,"DIS_CODE":0,"TOWNNAME":"將軍區","LI":"仁和里","LIN":"5鄰","STREET":" ","SECT":" ","MAREA":"仁巷","LANE":" ","ALLEY":" ","HOUSE_NO":"４２號","E_COORD97":164078.17999999999,"N_COORD97":2569230.7999999998,"ADDRESS":"仁巷４２號","OBJECTID":342011},"geometry":{"x":164078.1799999997,"y":2569230.8000000026}},{"attributes":{"ID":342021,"DIS_CODE":0,"TOWNNAME":"將軍區","LI":"仁和里","LIN":"5鄰","STREET":" ","SECT":" ","MAREA":"仁巷","LANE":" ","ALLEY":" ","HOUSE_NO":"４３之２號","E_COORD97":164090.48999999999,"N_COORD97":2569146.4399999999,"ADDRESS":"仁巷４３之２號","OBJECTID":342012},"geometry":{"x":164090.49000000022,"y":2569146.4399999995}},{"attributes":{"ID":342022,"DIS_CODE":0,"TOWNNAME":"將軍區","LI":"仁和里","LIN":"5鄰","STREET":" ","SECT":" ","MAREA":"仁巷","LANE":" ","ALLEY":" ","HOUSE_NO":"４３之３號","E_COORD97":164068.04000000001,"N_COORD97":2569174.9700000002,"ADDRESS":"仁巷４３之３號","OBJECTID":342013},"geometry":{"x":164068.04000000004,"y":2569174.9700000044}},{"attributes":{"ID":342023,"DIS_CODE":0,"TOWNNAME":"將軍區","LI":"仁和里","LIN":"5鄰","STREET":" ","SECT":" ","MAREA":"仁巷","LANE":" ","ALLEY":" ","HOUSE_NO":"４３之４號","E_COORD97":164067.64999999999,"N_COORD97":2569170.71,"ADDRESS":"仁巷４３之４號","OBJECTID":342014},"geometry":{"x":164067.65000000037,"y":2569170.7100000028}},{"attributes":{"ID":342024,"DIS_CODE":0,"TOWNNAME":"麻豆區","LI":"海埔里","LIN":"5鄰","STREET":" ","SECT":" ","MAREA":"海埔","LANE":" ","ALLEY":" ","HOUSE_NO":"１號之９","E_COORD97":169550.64000000001,"N_COORD97":2566491.4399999999,"ADDRESS":"海埔１號之９","OBJECTID":342015},"geometry":{"x":169550.63999999966,"y":2566491.4399999995}},{"attributes":{"ID":342025,"DIS_CODE":0,"TOWNNAME":"將軍區","LI":"仁和里","LIN":"5鄰","STREET":" ","SECT":" ","MAREA":"仁巷","LANE":" ","ALLEY":" ","HOUSE_NO":"４３之９號","E_COORD97":164105.85999999999,"N_COORD97":2569222.1600000001,"ADDRESS":"仁巷４３之９號","OBJECTID":342016},"geometry":{"x":164105.86000000127,"y":2569222.160000002}},{"attributes":{"ID":342026,"DIS_CODE":0,"TOWNNAME":"將軍區","LI":"仁和里","LIN":"5鄰","STREET":" ","SECT":" ","MAREA":"仁巷","LANE":" ","ALLEY":" ","HOUSE_NO":"４５之１號","E_COORD97":164056.04000000001,"N_COORD97":2569153.3300000001,"ADDRESS":"仁巷４５之１號","OBJECTID":342017},"geometry":{"x":164056.04000000004,"y":2569153.3300000001}},{"attributes":{"ID":342027,"DIS_CODE":0,"TOWNNAME":"將軍區","LI":"仁和里","LIN":"5鄰","STREET":" ","SECT":" ","MAREA":"仁巷","LANE":" ","ALLEY":" ","HOUSE_NO":"４５之２號","E_COORD97":164060.10000000001,"N_COORD97":2569152.6800000002,"ADDRESS":"仁巷４５之２號","OBJECTID":342018},"geometry":{"x":164060.09999999963,"y":2569152.6800000016}},{"attributes":{"ID":342028,"DIS_CODE":0,"TOWNNAME":"將軍區","LI":"仁和里","LIN":"5鄰","STREET":" ","SECT":" ","MAREA":"仁巷","LANE":" ","ALLEY":" ","HOUSE_NO":"４５之３號","E_COORD97":164065.35000000001,"N_COORD97":2569152.98,"ADDRESS":"仁巷４５之３號","OBJECTID":342019},"geometry":{"x":164065.34999999963,"y":2569152.9800000004}},{"attributes":{"ID":342029,"DIS_CODE":0,"TOWNNAME":"將軍區","LI":"仁和里","LIN":"5鄰","STREET":" ","SECT":" ","MAREA":"仁巷","LANE":" ","ALLEY":" ","HOUSE_NO":"４５之４號","E_COORD97":164071.79000000001,"N_COORD97":2569154.2999999998,"ADDRESS":"仁巷４５之４號","OBJECTID":342020},"geometry":{"x":164071.7900000019,"y":2569154.3000000007}},{"attributes":{"ID":342030,"DIS_CODE":0,"TOWNNAME":"將軍區","LI":"仁和里","LIN":"5鄰","STREET":" ","SECT":" ","MAREA":"仁巷","LANE":" ","ALLEY":" ","HOUSE_NO":"４５號","E_COORD97":164043.04000000001,"N_COORD97":2569178.29,"ADDRESS":"仁巷４５號","OBJECTID":342021},"geometry":{"x":164043.0400000019,"y":2569178.290000001}},{"attributes":{"ID":342031,"DIS_CODE":0,"TOWNNAME":"將軍區","LI":"仁和里","LIN":"5鄰","STREET":" ","SECT":" ","MAREA":"仁巷","LANE":" ","ALLEY":" ","HOUSE_NO":"５２號","E_COORD97":164023.37,"N_COORD97":2569238.54,"ADDRESS":"仁巷５２號","OBJECTID":342022},"geometry":{"x":164023.37000000011,"y":2569238.540000001}},{"attributes":{"ID":342032,"DIS_CODE":0,"TOWNNAME":"將軍區","LI":"西華里","LIN":"5鄰","STREET":" ","SECT":" ","MAREA":"西華","LANE":" ","ALLEY":" ","HOUSE_NO":"６５之５７號","E_COORD97":163610.03,"N_COORD97":2566492.7000000002,"ADDRESS":"西華６５之５７號","OBJECTID":342023},"geometry":{"x":163610.03000000119,"y":2566492.6999999993}},{"attributes":{"ID":342033,"DIS_CODE":0,"TOWNNAME":"將軍區","LI":"西華里","LIN":"5鄰","STREET":" ","SECT":" ","MAREA":"西華","LANE":" ","ALLEY":" ","HOUSE_NO":"６５之５８號","E_COORD97":163598.25,"N_COORD97":2566483.0299999998,"ADDRESS":"西華６５之５８號","OBJECTID":342024},"geometry":{"x":163598.25,"y":2566483.0299999993}},{"attributes":{"ID":342034,"DIS_CODE":0,"TOWNNAME":"善化區","LI":"小新里","LIN":"1鄰","STREET":"成功路","SECT":" ","MAREA":" ","LANE":"５３巷","ALLEY":" ","HOUSE_NO":"１７號","E_COORD97":180013.59,"N_COORD97":2558495.5,"ADDRESS":"成功路５３巷１７號","OBJECTID":342025},"geometry":{"x":180013.59000000078,"y":2558495.5000000019}},{"attributes":{"ID":342035,"DIS_CODE":0,"TOWNNAME":"善化區","LI":"小新里","LIN":"1鄰","STREET":"成功路","SECT":" ","MAREA":" ","LANE":"５３巷","ALLEY":" ","HOUSE_NO":"４９號","E_COORD97":179978.10000000001,"N_COORD97":2558449.75,"ADDRESS":"成功路５３巷４９號","OBJECTID":342026},"geometry":{"x":179978.09999999963,"y":2558449.7500000019}},{"attributes":{"ID":342036,"DIS_CODE":0,"TOWNNAME":"善化區","LI":"小新里","LIN":"1鄰","STREET":"成功路","SECT":" ","MAREA":" ","LANE":"５３巷","ALLEY":" ","HOUSE_NO":"６２號","E_COORD97":179947.57000000001,"N_COORD97":2558551.5,"ADDRESS":"成功路５３巷６２號","OBJECTID":342027},"geometry":{"x":179947.57000000123,"y":2558551.5}},{"attributes":{"ID":342037,"DIS_CODE":0,"TOWNNAME":"善化區","LI":"小新里","LIN":"1鄰","STREET":"成功路","SECT":" ","MAREA":" ","LANE":"５３巷","ALLEY":" ","HOUSE_NO":"７５號","E_COORD97":179972.29000000001,"N_COORD97":2558490.25,"ADDRESS":"成功路５３巷７５號","OBJECTID":342028},"geometry":{"x":179972.29000000004,"y":2558490.2500000019}},{"attributes":{"ID":342038,"DIS_CODE":0,"TOWNNAME":"善化區","LI":"小新里","LIN":"1鄰","STREET":"成功路","SECT":" ","MAREA":" ","LANE":"５３巷","ALLEY":" ","HOUSE_NO":"８２號","E_COORD97":179940.98000000001,"N_COORD97":2558499,"ADDRESS":"成功路５３巷８２號","OBJECTID":342029},"geometry":{"x":179940.98000000045,"y":2558499.0000000019}},{"attributes":{"ID":342039,"DIS_CODE":0,"TOWNNAME":"善化區","LI":"小新里","LIN":"1鄰","STREET":"成功路","SECT":" ","MAREA":" ","LANE":"５３巷","ALLEY":" ","HOUSE_NO":"２７號","E_COORD97":180005.73999999999,"N_COORD97":2558476.5,"ADDRESS":"成功路５３巷２７號","OBJECTID":342030},"geometry":{"x":180005.74000000115,"y":2558476.5}},{"attributes":{"ID":342040,"DIS_CODE":0,"TOWNNAME":"善化區","LI":"小新里","LIN":"1鄰","STREET":"成功路","SECT":" ","MAREA":" ","LANE":"５３巷","ALLEY":" ","HOUSE_NO":"７８號","E_COORD97":179959.19,"N_COORD97":2558494.25,"ADDRESS":"成功路５３巷７８號","OBJECTID":342031},"geometry":{"x":179959.19000000134,"y":2558494.2500000019}},{"attributes":{"ID":342041,"DIS_CODE":0,"TOWNNAME":"善化區","LI":"小新里","LIN":"1鄰","STREET":"成功路","SECT":" ","MAREA":" ","LANE":"５３巷","ALLEY":" ","HOUSE_NO":"７７號","E_COORD97":179963.48999999999,"N_COORD97":2558493.25,"ADDRESS":"成功路５３巷７７號","OBJECTID":342032},"geometry":{"x":179963.49000000115,"y":2558493.2500000019}},{"attributes":{"ID":342042,"DIS_CODE":0,"TOWNNAME":"將軍區","LI":"西華里","LIN":"5鄰","STREET":" ","SECT":" ","MAREA":"西華","LANE":" ","ALLEY":" ","HOUSE_NO":"６７之８號","E_COORD97":163635.10999999999,"N_COORD97":2566521.9399999999,"ADDRESS":"西華６７之８號","OBJECTID":342033},"geometry":{"x":163635.11000000034,"y":2566521.9399999995}},{"attributes":{"ID":342043,"DIS_CODE":0,"TOWNNAME":"將軍區","LI":"忠興里","LIN":"5鄰","STREET":" ","SECT":" ","MAREA":"忠興","LANE":" ","ALLEY":" ","HOUSE_NO":"６３號","E_COORD97":163651.42999999999,"N_COORD97":2566885.3399999999,"ADDRESS":"忠興６３號","OBJECTID":342034},"geometry":{"x":163651.4299999997,"y":2566885.3399999999}},{"attributes":{"ID":342044,"DIS_CODE":0,"TOWNNAME":"將軍區","LI":"忠興里","LIN":"5鄰","STREET":" ","SECT":" ","MAREA":"忠興","LANE":" ","ALLEY":" ","HOUSE_NO":"６４號","E_COORD97":163675.75,"N_COORD97":2566902.1200000001,"ADDRESS":"忠興６４號","OBJECTID":342035},"geometry":{"x":163675.75000000093,"y":2566902.120000001}},{"attributes":{"ID":342045,"DIS_CODE":0,"TOWNNAME":"將軍區","LI":"忠興里","LIN":"5鄰","STREET":" ","SECT":" ","MAREA":"忠興","LANE":" ","ALLEY":" ","HOUSE_NO":"６７號","E_COORD97":163724.5,"N_COORD97":2566916.7000000002,"ADDRESS":"忠興６７號","OBJECTID":342036},"geometry":{"x":163724.50000000186,"y":2566916.6999999993}},{"attributes":{"ID":342046,"DIS_CODE":0,"TOWNNAME":"善化區","LI":"小新里","LIN":"1鄰","STREET":"成功路","SECT":" ","MAREA":" ","LANE":"５３巷","ALLEY":" ","HOUSE_NO":"２號","E_COORD97":180010.19,"N_COORD97":2558546.25,"ADDRESS":"成功路５３巷２號","OBJECTID":342037},"geometry":{"x":180010.19000000041,"y":2558546.25}},{"attributes":{"ID":342047,"DIS_CODE":0,"TOWNNAME":"善化區","LI":"小新里","LIN":"1鄰","STREET":"成功路","SECT":" ","MAREA":" ","LANE":"５３巷","ALLEY":" ","HOUSE_NO":"４６號","E_COORD97":179990.67000000001,"N_COORD97":2558470.75,"ADDRESS":"成功路５３巷４６號","OBJECTID":342038},"geometry":{"x":179990.67000000086,"y":2558470.75}},{"attributes":{"ID":342048,"DIS_CODE":0,"TOWNNAME":"善化區","LI":"小新里","LIN":"1鄰","STREET":"成功路","SECT":" ","MAREA":" ","LANE":"５３巷","ALLEY":" ","HOUSE_NO":"９號","E_COORD97":180037.60000000001,"N_COORD97":2558537.5,"ADDRESS":"成功路５３巷９號","OBJECTID":342039},"geometry":{"x":180037.59999999963,"y":2558537.5}},{"attributes":{"ID":342049,"DIS_CODE":0,"TOWNNAME":"善化區","LI":"文正里","LIN":"1鄰","STREET":"進學路","SECT":" ","MAREA":" ","LANE":"７９巷","ALLEY":" ","HOUSE_NO":"７號","E_COORD97":177111.48000000001,"N_COORD97":2559588,"ADDRESS":"進學路７９巷７號","OBJECTID":342040},"geometry":{"x":177111.48000000045,"y":2559588}},{"attributes":{"ID":342050,"DIS_CODE":0,"TOWNNAME":"善化區","LI":"小新里","LIN":"1鄰","STREET":"成功路","SECT":" ","MAREA":" ","LANE":"５３巷","ALLEY":" ","HOUSE_NO":"６１號","E_COORD97":179951.66,"N_COORD97":2558549.75,"ADDRESS":"成功路５３巷６１號","OBJECTID":342041},"geometry":{"x":179951.66000000201,"y":2558549.75}},{"attributes":{"ID":342051,"DIS_CODE":0,"TOWNNAME":"善化區","LI":"小新里","LIN":"1鄰","STREET":"成功路","SECT":" ","MAREA":" ","LANE":"５３巷","ALLEY":" ","HOUSE_NO":"７９號","E_COORD97":179954.70000000001,"N_COORD97":2558495.75,"ADDRESS":"成功路５３巷７９號","OBJECTID":342042},"geometry":{"x":179954.70000000205,"y":2558495.75}},{"attributes":{"ID":342052,"DIS_CODE":0,"TOWNNAME":"善化區","LI":"小新里","LIN":"1鄰","STREET":"成功路","SECT":" ","MAREA":" ","LANE":"５３巷","ALLEY":" ","HOUSE_NO":"６６號","E_COORD97":179967.01999999999,"N_COORD97":2558507.5,"ADDRESS":"成功路５３巷６６號","OBJECTID":342043},"geometry":{"x":179967.01999999862,"y":2558507.5}},{"attributes":{"ID":342053,"DIS_CODE":0,"TOWNNAME":"善化區","LI":"小新里","LIN":"1鄰","STREET":"成功路","SECT":" ","MAREA":" ","LANE":"５３巷","ALLEY":" ","HOUSE_NO":"５６號","E_COORD97":179973.85000000001,"N_COORD97":2558543.25,"ADDRESS":"成功路５３巷５６號","OBJECTID":342044},"geometry":{"x":179973.85000000056,"y":2558543.25}},{"attributes":{"ID":342054,"DIS_CODE":0,"TOWNNAME":"善化區","LI":"小新里","LIN":"1鄰","STREET":"成功路","SECT":" ","MAREA":" ","LANE":"５３巷","ALLEY":" ","HOUSE_NO":"５８號","E_COORD97":179964.76000000001,"N_COORD97":2558546,"ADDRESS":"成功路５３巷５８號","OBJECTID":342045},"geometry":{"x":179964.76000000071,"y":2558546.0000000019}},{"attributes":{"ID":342055,"DIS_CODE":0,"TOWNNAME":"善化區","LI":"小新里","LIN":"1鄰","STREET":"成功路","SECT":" ","MAREA":" ","LANE":"５３巷","ALLEY":" ","HOUSE_NO":"８７號","E_COORD97":179959.04999999999,"N_COORD97":2558465.5,"ADDRESS":"成功路５３巷８７號","OBJECTID":342046},"geometry":{"x":179959.05000000075,"y":2558465.5000000019}},{"attributes":{"ID":342056,"DIS_CODE":0,"TOWNNAME":"善化區","LI":"小新里","LIN":"1鄰","STREET":"成功路","SECT":" ","MAREA":" ","LANE":"５３巷","ALLEY":" ","HOUSE_NO":"４０號","E_COORD97":180001.07999999999,"N_COORD97":2558505.25,"ADDRESS":"成功路５３巷４０號","OBJECTID":342047},"geometry":{"x":180001.07999999914,"y":2558505.25}},{"attributes":{"ID":342057,"DIS_CODE":0,"TOWNNAME":"善化區","LI":"小新里","LIN":"1鄰","STREET":"成功路","SECT":" ","MAREA":" ","LANE":"５３巷","ALLEY":" ","HOUSE_NO":"１號","E_COORD97":180006.04999999999,"N_COORD97":2558547.5,"ADDRESS":"成功路５３巷１號","OBJECTID":342048},"geometry":{"x":180006.04999999981,"y":2558547.5}},{"attributes":{"ID":342058,"DIS_CODE":0,"TOWNNAME":"善化區","LI":"小新里","LIN":"1鄰","STREET":"成功路","SECT":" ","MAREA":" ","LANE":"５３巷","ALLEY":" ","HOUSE_NO":"５７號","E_COORD97":179969.07000000001,"N_COORD97":2558544.75,"ADDRESS":"成功路５３巷５７號","OBJECTID":342049},"geometry":{"x":179969.0700000003,"y":2558544.7500000019}},{"attributes":{"ID":342059,"DIS_CODE":0,"TOWNNAME":"白河區","LI":"汴頭里","LIN":"5鄰","STREET":" ","SECT":" ","MAREA":"林子內","LANE":" ","ALLEY":" ","HOUSE_NO":"４７之１號","E_COORD97":194986.91,"N_COORD97":2584977.0499999998,"ADDRESS":"林子內４７之１號","OBJECTID":342050},"geometry":{"x":194986.91000000108,"y":2584977.0500000045}},{"attributes":{"ID":342060,"DIS_CODE":0,"TOWNNAME":"白河區","LI":"汴頭里","LIN":"5鄰","STREET":" ","SECT":" ","MAREA":"林子內","LANE":" ","ALLEY":" ","HOUSE_NO":"４７號","E_COORD97":194999.07000000001,"N_COORD97":2584990.8799999999,"ADDRESS":"林子內４７號","OBJECTID":342051},"geometry":{"x":194999.07000000123,"y":2584990.8800000008}},{"attributes":{"ID":342061,"DIS_CODE":0,"TOWNNAME":"白河區","LI":"汴頭里","LIN":"5鄰","STREET":" ","SECT":" ","MAREA":"林子內","LANE":" ","ALLEY":" ","HOUSE_NO":"４８號","E_COORD97":194956.26000000001,"N_COORD97":2585006.5800000001,"ADDRESS":"林子內４８號","OBJECTID":342052},"geometry":{"x":194956.26000000164,"y":2585006.5800000038}},{"attributes":{"ID":342062,"DIS_CODE":0,"TOWNNAME":"白河區","LI":"汴頭里","LIN":"5鄰","STREET":" ","SECT":" ","MAREA":"林子內","LANE":" ","ALLEY":" ","HOUSE_NO":"４９號","E_COORD97":194951.10000000001,"N_COORD97":2585020.6499999999,"ADDRESS":"林子內４９號","OBJECTID":342053},"geometry":{"x":194951.10000000056,"y":2585020.6500000022}},{"attributes":{"ID":342063,"DIS_CODE":0,"TOWNNAME":"白河區","LI":"草店里","LIN":"5鄰","STREET":" ","SECT":" ","MAREA":"草店","LANE":" ","ALLEY":" ","HOUSE_NO":"３８之８號","E_COORD97":192381,"N_COORD97":2587741.8199999998,"ADDRESS":"草店３８之８號","OBJECTID":342054},"geometry":{"x":192381,"y":2587741.8200000022}},{"attributes":{"ID":342064,"DIS_CODE":0,"TOWNNAME":"白河區","LI":"草店里","LIN":"5鄰","STREET":" ","SECT":" ","MAREA":"草店","LANE":" ","ALLEY":" ","HOUSE_NO":"３８之９號","E_COORD97":192383.04999999999,"N_COORD97":2587744.9700000002,"ADDRESS":"草店３８之９號","OBJECTID":342055},"geometry":{"x":192383.05000000075,"y":2587744.9700000025}},{"attributes":{"ID":342065,"DIS_CODE":0,"TOWNNAME":"白河區","LI":"草店里","LIN":"5鄰","STREET":" ","SECT":" ","MAREA":"草店","LANE":" ","ALLEY":" ","HOUSE_NO":"３８號","E_COORD97":192355.39000000001,"N_COORD97":2587701.3100000001,"ADDRESS":"草店３８號","OBJECTID":342056},"geometry":{"x":192355.3900000006,"y":2587701.3100000024}},{"attributes":{"ID":342066,"DIS_CODE":0,"TOWNNAME":"白河區","LI":"草店里","LIN":"5鄰","STREET":" ","SECT":" ","MAREA":"草店","LANE":" ","ALLEY":" ","HOUSE_NO":"４０之１號","E_COORD97":192337.57999999999,"N_COORD97":2587668.21,"ADDRESS":"草店４０之１號","OBJECTID":342057},"geometry":{"x":192337.58000000101,"y":2587668.2100000046}},{"attributes":{"ID":342067,"DIS_CODE":0,"TOWNNAME":"白河區","LI":"草店里","LIN":"5鄰","STREET":" ","SECT":" ","MAREA":"草店","LANE":" ","ALLEY":" ","HOUSE_NO":"４０號","E_COORD97":192338.95999999999,"N_COORD97":2587682.0600000001,"ADDRESS":"草店４０號","OBJECTID":342058},"geometry":{"x":192338.95999999996,"y":2587682.0599999987}},{"attributes":{"ID":342068,"DIS_CODE":0,"TOWNNAME":"白河區","LI":"草店里","LIN":"5鄰","STREET":" ","SECT":" ","MAREA":"草店","LANE":" ","ALLEY":" ","HOUSE_NO":"４１之１號","E_COORD97":192308.67000000001,"N_COORD97":2587656.29,"ADDRESS":"草店４１之１號","OBJECTID":342059},"geometry":{"x":192308.66999999993,"y":2587656.290000001}},{"attributes":{"ID":342069,"DIS_CODE":0,"TOWNNAME":"白河區","LI":"草店里","LIN":"5鄰","STREET":" ","SECT":" ","MAREA":"草店","LANE":" ","ALLEY":" ","HOUSE_NO":"４１號","E_COORD97":192328.26999999999,"N_COORD97":2587649.79,"ADDRESS":"草店４１號","OBJECTID":342060},"geometry":{"x":192328.26999999955,"y":2587649.790000001}},{"attributes":{"ID":342070,"DIS_CODE":0,"TOWNNAME":"白河區","LI":"草店里","LIN":"5鄰","STREET":" ","SECT":" ","MAREA":"草店","LANE":" ","ALLEY":" ","HOUSE_NO":"４２號","E_COORD97":192365.87,"N_COORD97":2587647.9100000001,"ADDRESS":"草店４２號","OBJECTID":342061},"geometry":{"x":192365.87000000104,"y":2587647.9100000001}},{"attributes":{"ID":342071,"DIS_CODE":0,"TOWNNAME":"白河區","LI":"草店里","LIN":"5鄰","STREET":" ","SECT":" ","MAREA":"草店","LANE":" ","ALLEY":" ","HOUSE_NO":"４３之１號","E_COORD97":192338.72,"N_COORD97":2587617.4900000002,"ADDRESS":"草店４３之１號","OBJECTID":342062},"geometry":{"x":192338.71999999974,"y":2587617.4900000002}},{"attributes":{"ID":342072,"DIS_CODE":0,"TOWNNAME":"白河區","LI":"草店里","LIN":"5鄰","STREET":" ","SECT":" ","MAREA":"草店","LANE":" ","ALLEY":" ","HOUSE_NO":"４３號","E_COORD97":192356.51000000001,"N_COORD97":2587631.8300000001,"ADDRESS":"草店４３號","OBJECTID":342063},"geometry":{"x":192356.51000000071,"y":2587631.8300000001}},{"attributes":{"ID":342073,"DIS_CODE":0,"TOWNNAME":"白河區","LI":"草店里","LIN":"5鄰","STREET":" ","SECT":" ","MAREA":"草店","LANE":" ","ALLEY":" ","HOUSE_NO":"４５號","E_COORD97":192305.01000000001,"N_COORD97":2587639.5699999998,"ADDRESS":"草店４５號","OBJECTID":342064},"geometry":{"x":192305.01000000164,"y":2587639.5700000022}},{"attributes":{"ID":342074,"DIS_CODE":0,"TOWNNAME":"白河區","LI":"草店里","LIN":"5鄰","STREET":" ","SECT":" ","MAREA":"草店","LANE":" ","ALLEY":" ","HOUSE_NO":"４７之１號","E_COORD97":192298.73000000001,"N_COORD97":2587619.1000000001,"ADDRESS":"草店４７之１號","OBJECTID":342065},"geometry":{"x":192298.73000000045,"y":2587619.0999999996}},{"attributes":{"ID":342075,"DIS_CODE":0,"TOWNNAME":"白河區","LI":"草店里","LIN":"5鄰","STREET":" ","SECT":" ","MAREA":"草店","LANE":" ","ALLEY":" ","HOUSE_NO":"４７之２號","E_COORD97":192294.88,"N_COORD97":2587613.5299999998,"ADDRESS":"草店４７之２號","OBJECTID":342066},"geometry":{"x":192294.88000000082,"y":2587613.5300000031}},{"attributes":{"ID":342076,"DIS_CODE":0,"TOWNNAME":"白河區","LI":"草店里","LIN":"5鄰","STREET":" ","SECT":" ","MAREA":"草店","LANE":" ","ALLEY":" ","HOUSE_NO":"４７號","E_COORD97":192282.39999999999,"N_COORD97":2587625.54,"ADDRESS":"草店４７號","OBJECTID":342067},"geometry":{"x":192282.40000000037,"y":2587625.5399999991}},{"attributes":{"ID":342077,"DIS_CODE":0,"TOWNNAME":"白河區","LI":"草店里","LIN":"5鄰","STREET":" ","SECT":" ","MAREA":"草店","LANE":" ","ALLEY":" ","HOUSE_NO":"４８之１號","E_COORD97":192264.38,"N_COORD97":2587602.54,"ADDRESS":"草店４８之１號","OBJECTID":342068},"geometry":{"x":192264.38000000082,"y":2587602.5399999991}},{"attributes":{"ID":342078,"DIS_CODE":0,"TOWNNAME":"白河區","LI":"草店里","LIN":"5鄰","STREET":" ","SECT":" ","MAREA":"草店","LANE":" ","ALLEY":" ","HOUSE_NO":"４８號","E_COORD97":192273.85000000001,"N_COORD97":2587613.52,"ADDRESS":"草店４８號","OBJECTID":342069},"geometry":{"x":192273.85000000149,"y":2587613.5199999977}},{"attributes":{"ID":342079,"DIS_CODE":0,"TOWNNAME":"善化區","LI":"小新里","LIN":"1鄰","STREET":"成功路","SECT":" ","MAREA":" ","LANE":"５３巷","ALLEY":" ","HOUSE_NO":"５０號","E_COORD97":179974.51000000001,"N_COORD97":2558451,"ADDRESS":"成功路５３巷５０號","OBJECTID":342070},"geometry":{"x":179974.51000000071,"y":2558451.0000000019}},{"attributes":{"ID":342080,"DIS_CODE":0,"TOWNNAME":"善化區","LI":"小新里","LIN":"1鄰","STREET":"成功路","SECT":" ","MAREA":" ","LANE":"５３巷","ALLEY":" ","HOUSE_NO":"２１號","E_COORD97":180030.75,"N_COORD97":2558488.25,"ADDRESS":"成功路５３巷２１號","OBJECTID":342071},"geometry":{"x":180030.75000000093,"y":2558488.25}},{"attributes":{"ID":342081,"DIS_CODE":0,"TOWNNAME":"善化區","LI":"小新里","LIN":"1鄰","STREET":"成功路","SECT":" ","MAREA":" ","LANE":"５３巷","ALLEY":" ","HOUSE_NO":"６９號","E_COORD97":179953.42999999999,"N_COORD97":2558511.5,"ADDRESS":"成功路５３巷６９號","OBJECTID":342072},"geometry":{"x":179953.43000000063,"y":2558511.5000000037}},{"attributes":{"ID":342082,"DIS_CODE":0,"TOWNNAME":"善化區","LI":"文正里","LIN":"1鄰","STREET":"進學路","SECT":" ","MAREA":" ","LANE":"國小巷","ALLEY":" ","HOUSE_NO":"１５號","E_COORD97":177148.67000000001,"N_COORD97":2559372.5,"ADDRESS":"進學路國小巷１５號","OBJECTID":342073},"geometry":{"x":177148.66999999993,"y":2559372.5000000037}},{"attributes":{"ID":342083,"DIS_CODE":0,"TOWNNAME":"善化區","LI":"小新里","LIN":"1鄰","STREET":"成功路","SECT":" ","MAREA":" ","LANE":"５３巷","ALLEY":" ","HOUSE_NO":"４７號","E_COORD97":179989.35000000001,"N_COORD97":2558466.25,"ADDRESS":"成功路５３巷４７號","OBJECTID":342074},"geometry":{"x":179989.35000000056,"y":2558466.2500000019}},{"attributes":{"ID":342084,"DIS_CODE":0,"TOWNNAME":"善化區","LI":"小新里","LIN":"1鄰","STREET":"成功路","SECT":" ","MAREA":" ","LANE":"５３巷","ALLEY":" ","HOUSE_NO":"１５號","E_COORD97":180027.85000000001,"N_COORD97":2558522.75,"ADDRESS":"成功路５３巷１５號","OBJECTID":342075},"geometry":{"x":180027.85000000056,"y":2558522.75}},{"attributes":{"ID":342085,"DIS_CODE":0,"TOWNNAME":"安定區","LI":"海寮里","LIN":"5鄰","STREET":" ","SECT":" ","MAREA":"海寮","LANE":" ","ALLEY":" ","HOUSE_NO":"５３號","E_COORD97":169454.89000000001,"N_COORD97":2555402.25,"ADDRESS":"海寮５３號","OBJECTID":342076},"geometry":{"x":169454.8900000006,"y":2555402.2500000019}},{"attributes":{"ID":342086,"DIS_CODE":0,"TOWNNAME":"麻豆區","LI":"中民里","LIN":"5鄰","STREET":" ","SECT":" ","MAREA":"謝厝寮","LANE":" ","ALLEY":" ","HOUSE_NO":"１２４號之１２","E_COORD97":171536.75,"N_COORD97":2560679.1200000001,"ADDRESS":"謝厝寮１２４號之１２","OBJECTID":342077},"geometry":{"x":171536.75,"y":2560679.1200000029}},{"attributes":{"ID":342087,"DIS_CODE":0,"TOWNNAME":"麻豆區","LI":"中民里","LIN":"5鄰","STREET":" ","SECT":" ","MAREA":"謝厝寮","LANE":" ","ALLEY":" ","HOUSE_NO":"１２４號之１","E_COORD97":171618.01000000001,"N_COORD97":2560775.4100000001,"ADDRESS":"謝厝寮１２４號之１","OBJECTID":342078},"geometry":{"x":171618.00999999978,"y":2560775.4100000001}},{"attributes":{"ID":342088,"DIS_CODE":0,"TOWNNAME":"麻豆區","LI":"中民里","LIN":"5鄰","STREET":" ","SECT":" ","MAREA":"謝厝寮","LANE":" ","ALLEY":" ","HOUSE_NO":"１２４號之６","E_COORD97":171532.01000000001,"N_COORD97":2560783.6899999999,"ADDRESS":"謝厝寮１２４號之６","OBJECTID":342079},"geometry":{"x":171532.00999999978,"y":2560783.6899999995}},{"attributes":{"ID":342089,"DIS_CODE":0,"TOWNNAME":"麻豆區","LI":"中民里","LIN":"5鄰","STREET":" ","SECT":" ","MAREA":"謝厝寮","LANE":" ","ALLEY":" ","HOUSE_NO":"１２４號之７","E_COORD97":171606.59,"N_COORD97":2560829.02,"ADDRESS":"謝厝寮１２４號之７","OBJECTID":342080},"geometry":{"x":171606.59000000078,"y":2560829.0199999996}},{"attributes":{"ID":342090,"DIS_CODE":0,"TOWNNAME":"麻豆區","LI":"中民里","LIN":"5鄰","STREET":" ","SECT":" ","MAREA":"謝厝寮","LANE":" ","ALLEY":" ","HOUSE_NO":"１２４號之８","E_COORD97":171649.85000000001,"N_COORD97":2560835.3199999998,"ADDRESS":"謝厝寮１２４號之８","OBJECTID":342081},"geometry":{"x":171649.84999999963,"y":2560835.320000004}},{"attributes":{"ID":342091,"DIS_CODE":0,"TOWNNAME":"麻豆區","LI":"中民里","LIN":"5鄰","STREET":" ","SECT":" ","MAREA":"謝厝寮","LANE":" ","ALLEY":" ","HOUSE_NO":"１２４號","E_COORD97":171655.62,"N_COORD97":2560840.54,"ADDRESS":"謝厝寮１２４號","OBJECTID":342082},"geometry":{"x":171655.62000000197,"y":2560840.540000001}},{"attributes":{"ID":342092,"DIS_CODE":0,"TOWNNAME":"麻豆區","LI":"中民里","LIN":"5鄰","STREET":" ","SECT":" ","MAREA":"謝厝寮","LANE":" ","ALLEY":" ","HOUSE_NO":"１２５號之１０","E_COORD97":171663.72,"N_COORD97":2560892.5899999999,"ADDRESS":"謝厝寮１２５號之１０","OBJECTID":342083},"geometry":{"x":171663.72000000067,"y":2560892.5899999999}},{"attributes":{"ID":342093,"DIS_CODE":0,"TOWNNAME":"麻豆區","LI":"中民里","LIN":"5鄰","STREET":" ","SECT":" ","MAREA":"謝厝寮","LANE":" ","ALLEY":" ","HOUSE_NO":"１２５號之１１","E_COORD97":171666.26000000001,"N_COORD97":2560896.23,"ADDRESS":"謝厝寮１２５號之１１","OBJECTID":342084},"geometry":{"x":171666.26000000071,"y":2560896.2300000004}},{"attributes":{"ID":342094,"DIS_CODE":0,"TOWNNAME":"麻豆區","LI":"中民里","LIN":"5鄰","STREET":" ","SECT":" ","MAREA":"謝厝寮","LANE":" ","ALLEY":" ","HOUSE_NO":"１２５號之１２","E_COORD97":171669.45000000001,"N_COORD97":2560899.7599999998,"ADDRESS":"謝厝寮１２５號之１２","OBJECTID":342085},"geometry":{"x":171669.45000000112,"y":2560899.7600000035}},{"attributes":{"ID":342095,"DIS_CODE":0,"TOWNNAME":"麻豆區","LI":"中民里","LIN":"5鄰","STREET":" ","SECT":" ","MAREA":"謝厝寮","LANE":" ","ALLEY":" ","HOUSE_NO":"１２５號之１３","E_COORD97":171671.98000000001,"N_COORD97":2560904.3300000001,"ADDRESS":"謝厝寮１２５號之１３","OBJECTID":342086},"geometry":{"x":171671.97999999952,"y":2560904.3300000019}},{"attributes":{"ID":342096,"DIS_CODE":0,"TOWNNAME":"麻豆區","LI":"謝安里","LIN":"5鄰","STREET":" ","SECT":" ","MAREA":"謝厝寮","LANE":" ","ALLEY":" ","HOUSE_NO":"４４號","E_COORD97":172052.35000000001,"N_COORD97":2561112.73,"ADDRESS":"謝厝寮４４號","OBJECTID":342087},"geometry":{"x":172052.35000000056,"y":2561112.7300000004}},{"attributes":{"ID":342097,"DIS_CODE":0,"TOWNNAME":"善化區","LI":"小新里","LIN":"1鄰","STREET":"成功路","SECT":" ","MAREA":" ","LANE":"５３巷","ALLEY":" ","HOUSE_NO":"３２號","E_COORD97":179999.82000000001,"N_COORD97":2558443.25,"ADDRESS":"成功路５３巷３２號","OBJECTID":342088},"geometry":{"x":179999.82000000216,"y":2558443.2500000019}},{"attributes":{"ID":342098,"DIS_CODE":0,"TOWNNAME":"善化區","LI":"小新里","LIN":"1鄰","STREET":"成功路","SECT":" ","MAREA":" ","LANE":"５３巷","ALLEY":" ","HOUSE_NO":"６０號","E_COORD97":179956.26999999999,"N_COORD97":2558548.75,"ADDRESS":"成功路５３巷６０號","OBJECTID":342089},"geometry":{"x":179956.26999999955,"y":2558548.75}},{"attributes":{"ID":342099,"DIS_CODE":0,"TOWNNAME":"善化區","LI":"小新里","LIN":"1鄰","STREET":"成功路","SECT":" ","MAREA":" ","LANE":"５３巷","ALLEY":" ","HOUSE_NO":"８３號","E_COORD97":179936.89999999999,"N_COORD97":2558501,"ADDRESS":"成功路５３巷８３號","OBJECTID":342090},"geometry":{"x":179936.9000000013,"y":2558500.9999999981}},{"attributes":{"ID":342100,"DIS_CODE":0,"TOWNNAME":"善化區","LI":"小新里","LIN":"1鄰","STREET":"成功路","SECT":" ","MAREA":" ","LANE":"５３巷","ALLEY":" ","HOUSE_NO":"９５號","E_COORD97":179929.07000000001,"N_COORD97":2558473.75,"ADDRESS":"成功路５３巷９５號","OBJECTID":342091},"geometry":{"x":179929.07000000123,"y":2558473.7500000019}},{"attributes":{"ID":342101,"DIS_CODE":0,"TOWNNAME":"善化區","LI":"小新里","LIN":"1鄰","STREET":"成功路","SECT":" ","MAREA":" ","LANE":"５３巷","ALLEY":" ","HOUSE_NO":"２５號","E_COORD97":180014.69,"N_COORD97":2558476.75,"ADDRESS":"成功路５３巷２５號","OBJECTID":342092},"geometry":{"x":180014.69000000134,"y":2558476.7500000019}},{"attributes":{"ID":342102,"DIS_CODE":0,"TOWNNAME":"善化區","LI":"小新里","LIN":"1鄰","STREET":"成功路","SECT":" ","MAREA":" ","LANE":"５３巷","ALLEY":" ","HOUSE_NO":"８８號","E_COORD97":179954.95999999999,"N_COORD97":2558467,"ADDRESS":"成功路５３巷８８號","OBJECTID":342093},"geometry":{"x":179954.96000000089,"y":2558466.9999999981}},{"attributes":{"ID":342103,"DIS_CODE":0,"TOWNNAME":"善化區","LI":"小新里","LIN":"1鄰","STREET":"成功路","SECT":" ","MAREA":" ","LANE":"５３巷","ALLEY":" ","HOUSE_NO":"４２號","E_COORD97":179996.94,"N_COORD97":2558496.75,"ADDRESS":"成功路５３巷４２號","OBJECTID":342094},"geometry":{"x":179996.94000000041,"y":2558496.7500000019}},{"attributes":{"ID":342104,"DIS_CODE":0,"TOWNNAME":"仁德區","LI":"仁義里","LIN":"1鄰","STREET":"義林路","SECT":" ","MAREA":" ","LANE":"１６８巷","ALLEY":" ","HOUSE_NO":"８１號","E_COORD97":174612.48000000001,"N_COORD97":2540941.77,"ADDRESS":"義林路１６８巷８１號","OBJECTID":342095},"geometry":{"x":174612.48000000045,"y":2540941.7700000014}},{"attributes":{"ID":342105,"DIS_CODE":0,"TOWNNAME":"安南區","LI":"佃東里","LIN":"5鄰","STREET":"十二佃路","SECT":" ","MAREA":" ","LANE":"１００巷","ALLEY":" ","HOUSE_NO":"５號","E_COORD97":165524.13,"N_COORD97":2552140.3799999999,"ADDRESS":"十二佃路１００巷５號","OBJECTID":342096},"geometry":{"x":165524.13000000082,"y":2552140.3799999971}},{"attributes":{"ID":342106,"DIS_CODE":0,"TOWNNAME":"安定區","LI":"港口里","LIN":"5鄰","STREET":" ","SECT":" ","MAREA":"港口","LANE":" ","ALLEY":" ","HOUSE_NO":"２６４之２號","E_COORD97":171525.19,"N_COORD97":2554663.2999999998,"ADDRESS":"港口２６４之２號","OBJECTID":342097},"geometry":{"x":171525.19000000134,"y":2554663.3000000026}},{"attributes":{"ID":342107,"DIS_CODE":0,"TOWNNAME":"安南區","LI":"佃東里","LIN":"5鄰","STREET":"十二佃路","SECT":" ","MAREA":" ","LANE":"１００巷","ALLEY":" ","HOUSE_NO":"９號","E_COORD97":165543.26999999999,"N_COORD97":2552147.9900000002,"ADDRESS":"十二佃路１００巷９號","OBJECTID":342098},"geometry":{"x":165543.27000000048,"y":2552147.9900000039}},{"attributes":{"ID":342108,"DIS_CODE":0,"TOWNNAME":"安南區","LI":"佃東里","LIN":"5鄰","STREET":"十二佃路","SECT":" ","MAREA":" ","LANE":"４５巷","ALLEY":" ","HOUSE_NO":"６號","E_COORD97":165482.04999999999,"N_COORD97":2552098.3599999999,"ADDRESS":"十二佃路４５巷６號","OBJECTID":342099},"geometry":{"x":165482.05000000075,"y":2552098.3600000013}},{"attributes":{"ID":342109,"DIS_CODE":0,"TOWNNAME":"仁德區","LI":"大甲里","LIN":"1鄰","STREET":"行大一街","SECT":" ","MAREA":" ","LANE":"７０巷","ALLEY":" ","HOUSE_NO":"４２號","E_COORD97":169966.42999999999,"N_COORD97":2535057,"ADDRESS":"行大一街７０巷４２號","OBJECTID":342100},"geometry":{"x":169966.43000000063,"y":2535057.0000000019}},{"attributes":{"ID":342110,"DIS_CODE":0,"TOWNNAME":"仁德區","LI":"仁義里","LIN":"1鄰","STREET":"義林路","SECT":" ","MAREA":" ","LANE":"１４８巷","ALLEY":" ","HOUSE_NO":"５號","E_COORD97":174613.35000000001,"N_COORD97":2540636.77,"ADDRESS":"義林路１４８巷５號","OBJECTID":342101},"geometry":{"x":174613.35000000149,"y":2540636.7699999996}},{"attributes":{"ID":342111,"DIS_CODE":0,"TOWNNAME":"仁德區","LI":"仁義里","LIN":"1鄰","STREET":"義林路","SECT":" ","MAREA":" ","LANE":"１６２巷","ALLEY":" ","HOUSE_NO":"２號","E_COORD97":174528.88,"N_COORD97":2540791.7599999998,"ADDRESS":"義林路１６２巷２號","OBJECTID":342102},"geometry":{"x":174528.88000000082,"y":2540791.7600000016}},{"attributes":{"ID":342112,"DIS_CODE":0,"TOWNNAME":"仁德區","LI":"仁義里","LIN":"1鄰","STREET":"義林路","SECT":" ","MAREA":" ","LANE":"１６２巷","ALLEY":" ","HOUSE_NO":"１０號","E_COORD97":174573.20999999999,"N_COORD97":2540720.52,"ADDRESS":"義林路１６２巷１０號","OBJECTID":342103},"geometry":{"x":174573.20999999996,"y":2540720.5199999996}},{"attributes":{"ID":342113,"DIS_CODE":0,"TOWNNAME":"仁德區","LI":"仁義里","LIN":"1鄰","STREET":"義林路","SECT":" ","MAREA":" ","LANE":"１６２巷","ALLEY":" ","HOUSE_NO":"６號","E_COORD97":174559.17999999999,"N_COORD97":2540777.5099999998,"ADDRESS":"義林路１６２巷６號","OBJECTID":342104},"geometry":{"x":174559.18000000063,"y":2540777.5100000016}},{"attributes":{"ID":342114,"DIS_CODE":0,"TOWNNAME":"仁德區","LI":"大甲里","LIN":"1鄰","STREET":"行大一街","SECT":" ","MAREA":" ","LANE":"７０巷","ALLEY":" ","HOUSE_NO":"４６號","E_COORD97":169958.38,"N_COORD97":2535059.5,"ADDRESS":"行大一街７０巷４６號","OBJECTID":342105},"geometry":{"x":169958.38000000175,"y":2535059.5}},{"attributes":{"ID":342115,"DIS_CODE":0,"TOWNNAME":"仁德區","LI":"仁義里","LIN":"1鄰","STREET":"義林路","SECT":" ","MAREA":" ","LANE":"１６２巷","ALLEY":" ","HOUSE_NO":"８號","E_COORD97":174569.48000000001,"N_COORD97":2540750.52,"ADDRESS":"義林路１６２巷８號","OBJECTID":342106},"geometry":{"x":174569.48000000138,"y":2540750.5199999996}},{"attributes":{"ID":342116,"DIS_CODE":0,"TOWNNAME":"仁德區","LI":"仁義里","LIN":"1鄰","STREET":"義林路","SECT":" ","MAREA":" ","LANE":"１６２巷","ALLEY":" ","HOUSE_NO":"１號","E_COORD97":174555.60000000001,"N_COORD97":2540812.27,"ADDRESS":"義林路１６２巷１號","OBJECTID":342107},"geometry":{"x":174555.60000000149,"y":2540812.2700000014}},{"attributes":{"ID":342117,"DIS_CODE":0,"TOWNNAME":"仁德區","LI":"上崙里","LIN":"1鄰","STREET":"德崙路","SECT":" ","MAREA":" ","LANE":"１６１巷","ALLEY":" ","HOUSE_NO":"３號","E_COORD97":173582.95999999999,"N_COORD97":2538391.2599999998,"ADDRESS":"德崙路１６１巷３號","OBJECTID":342108},"geometry":{"x":173582.96000000089,"y":2538391.2600000016}},{"attributes":{"ID":342118,"DIS_CODE":0,"TOWNNAME":"仁德區","LI":"仁義里","LIN":"1鄰","STREET":"義林路","SECT":" ","MAREA":" ","LANE":"１４８巷","ALLEY":" ","HOUSE_NO":"３號","E_COORD97":174576.16,"N_COORD97":2540641.02,"ADDRESS":"義林路１４８巷３號","OBJECTID":342109},"geometry":{"x":174576.16000000201,"y":2540641.0200000014}},{"attributes":{"ID":342119,"DIS_CODE":0,"TOWNNAME":"仁德區","LI":"上崙里","LIN":"1鄰","STREET":"德崙路","SECT":" ","MAREA":" ","LANE":"１６１巷","ALLEY":" ","HOUSE_NO":"２號","E_COORD97":173587,"N_COORD97":2538382.2599999998,"ADDRESS":"德崙路１６１巷２號","OBJECTID":342110},"geometry":{"x":173587.00000000186,"y":2538382.2600000016}},{"attributes":{"ID":342120,"DIS_CODE":0,"TOWNNAME":"仁德區","LI":"大甲里","LIN":"1鄰","STREET":"行大一街","SECT":" ","MAREA":" ","LANE":"７０巷","ALLEY":" ","HOUSE_NO":"５０號","E_COORD97":169943.76000000001,"N_COORD97":2535052.5,"ADDRESS":"行大一街７０巷５０號","OBJECTID":342111},"geometry":{"x":169943.76000000164,"y":2535052.5}},{"attributes":{"ID":342121,"DIS_CODE":0,"TOWNNAME":"仁德區","LI":"仁義里","LIN":"1鄰","STREET":"義林路","SECT":" ","MAREA":" ","LANE":"１６８巷","ALLEY":" ","HOUSE_NO":"５７號","E_COORD97":174605,"N_COORD97":2541015.2599999998,"ADDRESS":"義林路１６８巷５７號","OBJECTID":342112},"geometry":{"x":174605.00000000093,"y":2541015.2600000016}},{"attributes":{"ID":342122,"DIS_CODE":0,"TOWNNAME":"仁德區","LI":"仁義里","LIN":"1鄰","STREET":"義林路","SECT":" ","MAREA":" ","LANE":"１４８巷","ALLEY":" ","HOUSE_NO":"１６之１號","E_COORD97":174666.89999999999,"N_COORD97":2540614.7999999998,"ADDRESS":"義林路１４８巷１６之１號","OBJECTID":342113},"geometry":{"x":174666.9000000013,"y":2540614.8000000007}},{"attributes":{"ID":342123,"DIS_CODE":0,"TOWNNAME":"仁德區","LI":"一甲里","LIN":"1鄰","STREET":"中正路","SECT":"三段","MAREA":" ","LANE":"１４７巷","ALLEY":" ","HOUSE_NO":"５號","E_COORD97":173403.92000000001,"N_COORD97":2541766.0299999998,"ADDRESS":"中正路三段１４７巷５號","OBJECTID":342114},"geometry":{"x":173403.91999999993,"y":2541766.0300000012}},{"attributes":{"ID":342124,"DIS_CODE":0,"TOWNNAME":"仁德區","LI":"上崙里","LIN":"1鄰","STREET":"德崙路","SECT":" ","MAREA":" ","LANE":"７７巷","ALLEY":" ","HOUSE_NO":"１００號","E_COORD97":173645.47,"N_COORD97":2538470.27,"ADDRESS":"德崙路７７巷１００號","OBJECTID":342115},"geometry":{"x":173645.46999999974,"y":2538470.2699999996}},{"attributes":{"ID":342125,"DIS_CODE":0,"TOWNNAME":"仁德區","LI":"上崙里","LIN":"1鄰","STREET":"德崙路","SECT":" ","MAREA":" ","LANE":"７７巷","ALLEY":" ","HOUSE_NO":"１６號","E_COORD97":173500.85000000001,"N_COORD97":2538478.77,"ADDRESS":"德崙路７７巷１６號","OBJECTID":342116},"geometry":{"x":173500.84999999963,"y":2538478.7700000033}},{"attributes":{"ID":342126,"DIS_CODE":0,"TOWNNAME":"安平區","LI":"建平里","LIN":"8鄰","STREET":"府前三街","SECT":" ","MAREA":" ","LANE":" ","ALLEY":" ","HOUSE_NO":"１２９號五樓之２","E_COORD97":166494.16,"N_COORD97":2543982.3300000001,"ADDRESS":"府前三街１２９號五樓之２","OBJECTID":342117},"geometry":{"x":166494.16000000108,"y":2543982.3300000019}},{"attributes":{"ID":342127,"DIS_CODE":0,"TOWNNAME":"安平區","LI":"建平里","LIN":"8鄰","STREET":"府前三街","SECT":" ","MAREA":" ","LANE":" ","ALLEY":" ","HOUSE_NO":"１２９號五樓之３","E_COORD97":166494.16,"N_COORD97":2543982.3300000001,"ADDRESS":"府前三街１２９號五樓之３","OBJECTID":342118},"geometry":{"x":166494.16000000108,"y":2543982.3300000019}},{"attributes":{"ID":342128,"DIS_CODE":0,"TOWNNAME":"東區","LI":"裕聖里","LIN":"1鄰","STREET":"裕忠一街","SECT":" ","MAREA":" ","LANE":" ","ALLEY":" ","HOUSE_NO":"２７號","E_COORD97":172327.60999999999,"N_COORD97":2542422,"ADDRESS":"裕忠一街２７號","OBJECTID":342119},"geometry":{"x":172327.61000000127,"y":2542422.0000000019}},{"attributes":{"ID":342129,"DIS_CODE":0,"TOWNNAME":"佳里區","LI":"通興里","LIN":"5鄰","STREET":" ","SECT":" ","MAREA":"東勢寮","LANE":" ","ALLEY":" ","HOUSE_NO":"１３號之１","E_COORD97":163900.16,"N_COORD97":2560242.3300000001,"ADDRESS":"東勢寮１３號之１","OBJECTID":342120},"geometry":{"x":163900.16000000108,"y":2560242.3300000019}},{"attributes":{"ID":342130,"DIS_CODE":0,"TOWNNAME":"佳里區","LI":"通興里","LIN":"5鄰","STREET":" ","SECT":" ","MAREA":"東勢寮","LANE":" ","ALLEY":" ","HOUSE_NO":"１３號","E_COORD97":163897.54000000001,"N_COORD97":2560265.25,"ADDRESS":"東勢寮１３號","OBJECTID":342121},"geometry":{"x":163897.54000000097,"y":2560265.25}},{"attributes":{"ID":342131,"DIS_CODE":0,"TOWNNAME":"佳里區","LI":"通興里","LIN":"5鄰","STREET":" ","SECT":" ","MAREA":"東勢寮","LANE":" ","ALLEY":" ","HOUSE_NO":"１３號之２","E_COORD97":163908.09,"N_COORD97":2560242.3399999999,"ADDRESS":"東勢寮１４號","OBJECTID":342122},"geometry":{"x":163908.08999999985,"y":2560242.3400000017}},{"attributes":{"ID":342132,"DIS_CODE":0,"TOWNNAME":"佳里區","LI":"通興里","LIN":"5鄰","STREET":" ","SECT":" ","MAREA":"東勢寮","LANE":" ","ALLEY":" ","HOUSE_NO":"１５號","E_COORD97":163865.54999999999,"N_COORD97":2560277.73,"ADDRESS":"東勢寮１５號","OBJECTID":342123},"geometry":{"x":163865.54999999981,"y":2560277.7300000023}},{"attributes":{"ID":342133,"DIS_CODE":0,"TOWNNAME":"佳里區","LI":"通興里","LIN":"5鄰","STREET":" ","SECT":" ","MAREA":"東勢寮","LANE":" ","ALLEY":" ","HOUSE_NO":"１６號之１０","E_COORD97":163871.14999999999,"N_COORD97":2560306.8500000001,"ADDRESS":"東勢寮１６號之１０","OBJECTID":342124},"geometry":{"x":163871.15000000037,"y":2560306.8500000015}},{"attributes":{"ID":342134,"DIS_CODE":0,"TOWNNAME":"佳里區","LI":"通興里","LIN":"5鄰","STREET":" ","SECT":" ","MAREA":"東勢寮","LANE":" ","ALLEY":" ","HOUSE_NO":"１６號之１１","E_COORD97":163866.60999999999,"N_COORD97":2560308.4100000001,"ADDRESS":"東勢寮１６號之１１","OBJECTID":342125},"geometry":{"x":163866.61000000127,"y":2560308.4100000001}},{"attributes":{"ID":342135,"DIS_CODE":0,"TOWNNAME":"佳里區","LI":"通興里","LIN":"5鄰","STREET":" ","SECT":" ","MAREA":"東勢寮","LANE":" ","ALLEY":" ","HOUSE_NO":"１６號之１２","E_COORD97":163871.09,"N_COORD97":2560300.21,"ADDRESS":"東勢寮１６號之１２","OBJECTID":342126},"geometry":{"x":163871.09000000171,"y":2560300.2100000009}},{"attributes":{"ID":342136,"DIS_CODE":0,"TOWNNAME":"佳里區","LI":"通興里","LIN":"5鄰","STREET":" ","SECT":" ","MAREA":"東勢寮","LANE":" ","ALLEY":" ","HOUSE_NO":"２０號之２","E_COORD97":163840.28,"N_COORD97":2560257.6200000001,"ADDRESS":"東勢寮２０號之２","OBJECTID":342127},"geometry":{"x":163840.28000000119,"y":2560257.6200000048}},{"attributes":{"ID":342137,"DIS_CODE":0,"TOWNNAME":"佳里區","LI":"通興里","LIN":"5鄰","STREET":" ","SECT":" ","MAREA":"東勢寮","LANE":" ","ALLEY":" ","HOUSE_NO":"２０號","E_COORD97":163857.48000000001,"N_COORD97":2560231.73,"ADDRESS":"東勢寮２０號","OBJECTID":342128},"geometry":{"x":163857.48000000138,"y":2560231.7300000004}},{"attributes":{"ID":342138,"DIS_CODE":0,"TOWNNAME":"佳里區","LI":"通興里","LIN":"5鄰","STREET":" ","SECT":" ","MAREA":"東勢寮","LANE":" ","ALLEY":" ","HOUSE_NO":"２１號之１","E_COORD97":163806.42000000001,"N_COORD97":2560258.9399999999,"ADDRESS":"東勢寮２１號之１","OBJECTID":342129},"geometry":{"x":163806.42000000086,"y":2560258.9399999995}},{"attributes":{"ID":342139,"DIS_CODE":0,"TOWNNAME":"佳里區","LI":"通興里","LIN":"5鄰","STREET":" ","SECT":" ","MAREA":"東勢寮","LANE":" ","ALLEY":" ","HOUSE_NO":"２１號之２","E_COORD97":163810.22,"N_COORD97":2560236.9399999999,"ADDRESS":"東勢寮２１號之２","OBJECTID":342130},"geometry":{"x":163810.21999999974,"y":2560236.9400000032}},{"attributes":{"ID":342140,"DIS_CODE":0,"TOWNNAME":"佳里區","LI":"通興里","LIN":"5鄰","STREET":" ","SECT":" ","MAREA":"東勢寮","LANE":" ","ALLEY":" ","HOUSE_NO":"２１號之３","E_COORD97":163813.17999999999,"N_COORD97":2560269.96,"ADDRESS":"東勢寮２１號之３","OBJECTID":342131},"geometry":{"x":163813.18000000063,"y":2560269.9600000028}},{"attributes":{"ID":342141,"DIS_CODE":0,"TOWNNAME":"佳里區","LI":"通興里","LIN":"5鄰","STREET":" ","SECT":" ","MAREA":"東勢寮","LANE":" ","ALLEY":" ","HOUSE_NO":"２１號之５","E_COORD97":163808.29000000001,"N_COORD97":2560199.4900000002,"ADDRESS":"東勢寮２１號之５","OBJECTID":342132},"geometry":{"x":163808.29000000004,"y":2560199.4900000002}},{"attributes":{"ID":342142,"DIS_CODE":0,"TOWNNAME":"佳里區","LI":"通興里","LIN":"5鄰","STREET":" ","SECT":" ","MAREA":"東勢寮","LANE":" ","ALLEY":" ","HOUSE_NO":"２１號之６","E_COORD97":163798.01999999999,"N_COORD97":2560259.98,"ADDRESS":"東勢寮２１號之６","OBJECTID":342133},"geometry":{"x":163798.01999999955,"y":2560259.9800000004}},{"attributes":{"ID":342143,"DIS_CODE":0,"TOWNNAME":"佳里區","LI":"通興里","LIN":"5鄰","STREET":" ","SECT":" ","MAREA":"東勢寮","LANE":" ","ALLEY":" ","HOUSE_NO":"２１號之７","E_COORD97":163787.17000000001,"N_COORD97":2560247.8500000001,"ADDRESS":"東勢寮２１號之７","OBJECTID":342134},"geometry":{"x":163787.16999999993,"y":2560247.8500000034}},{"attributes":{"ID":342144,"DIS_CODE":0,"TOWNNAME":"佳里區","LI":"通興里","LIN":"5鄰","STREET":" ","SECT":" ","MAREA":"東勢寮","LANE":" ","ALLEY":" ","HOUSE_NO":"２１號","E_COORD97":163824.35000000001,"N_COORD97":2560260.7200000002,"ADDRESS":"東勢寮２１號","OBJECTID":342135},"geometry":{"x":163824.34999999963,"y":2560260.7200000025}},{"attributes":{"ID":342145,"DIS_CODE":0,"TOWNNAME":"佳里區","LI":"通興里","LIN":"5鄰","STREET":" ","SECT":" ","MAREA":"東勢寮","LANE":" ","ALLEY":" ","HOUSE_NO":"２２號","E_COORD97":163816.69,"N_COORD97":2560305.0600000001,"ADDRESS":"東勢寮２２號","OBJECTID":342136},"geometry":{"x":163816.68999999948,"y":2560305.0600000042}},{"attributes":{"ID":342146,"DIS_CODE":0,"TOWNNAME":"佳里區","LI":"通興里","LIN":"5鄰","STREET":" ","SECT":" ","MAREA":"東勢寮","LANE":" ","ALLEY":" ","HOUSE_NO":"２４號之１","E_COORD97":163841.13,"N_COORD97":2560347.3599999999,"ADDRESS":"東勢寮２４號之１","OBJECTID":342137},"geometry":{"x":163841.13000000082,"y":2560347.3600000013}},{"attributes":{"ID":342147,"DIS_CODE":0,"TOWNNAME":"佳里區","LI":"通興里","LIN":"5鄰","STREET":" ","SECT":" ","MAREA":"東勢寮","LANE":" ","ALLEY":" ","HOUSE_NO":"２４號","E_COORD97":163822.79000000001,"N_COORD97":2560342.9900000002,"ADDRESS":"東勢寮２４號","OBJECTID":342138},"geometry":{"x":163822.79000000097,"y":2560342.9900000021}},{"attributes":{"ID":342148,"DIS_CODE":0,"TOWNNAME":"仁德區","LI":"上崙里","LIN":"1鄰","STREET":"德崙路","SECT":" ","MAREA":" ","LANE":"７７巷","ALLEY":" ","HOUSE_NO":"１０號","E_COORD97":173491.31,"N_COORD97":2538481.2599999998,"ADDRESS":"德崙路７７巷１０號","OBJECTID":342139},"geometry":{"x":173491.31000000145,"y":2538481.2599999998}},{"attributes":{"ID":342149,"DIS_CODE":0,"TOWNNAME":"仁德區","LI":"二行里","LIN":"1鄰","STREET":"二仁路","SECT":"一段","MAREA":" ","LANE":"３１５巷","ALLEY":" ","HOUSE_NO":"１７９號","E_COORD97":169924.12,"N_COORD97":2536008.27,"ADDRESS":"二仁路一段３１５巷１７９號","OBJECTID":342140},"geometry":{"x":169924.12000000011,"y":2536008.2700000014}},{"attributes":{"ID":342150,"DIS_CODE":0,"TOWNNAME":"中西區","LI":"三民里","LIN":"1鄰","STREET":"中山路","SECT":" ","MAREA":" ","LANE":"２３巷","ALLEY":" ","HOUSE_NO":"６號","E_COORD97":168554.95999999999,"N_COORD97":2543792.3100000001,"ADDRESS":"中山路２３巷６號","OBJECTID":342141},"geometry":{"x":168554.96000000089,"y":2543792.3100000042}},{"attributes":{"ID":342151,"DIS_CODE":0,"TOWNNAME":"中西區","LI":"三民里","LIN":"1鄰","STREET":"中山路","SECT":" ","MAREA":" ","LANE":"２３巷","ALLEY":" ","HOUSE_NO":"１號","E_COORD97":168581.81,"N_COORD97":2543780.6099999999,"ADDRESS":"中山路２３巷１號","OBJECTID":342142},"geometry":{"x":168581.80999999959,"y":2543780.6099999994}},{"attributes":{"ID":342152,"DIS_CODE":0,"TOWNNAME":"中西區","LI":"三民里","LIN":"1鄰","STREET":"中山路","SECT":" ","MAREA":" ","LANE":"２３巷","ALLEY":" ","HOUSE_NO":"２號","E_COORD97":168576.51000000001,"N_COORD97":2543784.4500000002,"ADDRESS":"中山路２３巷２號","OBJECTID":342143},"geometry":{"x":168576.51000000071,"y":2543784.4500000011}},{"attributes":{"ID":342153,"DIS_CODE":0,"TOWNNAME":"中西區","LI":"三民里","LIN":"1鄰","STREET":"中山路","SECT":" ","MAREA":" ","LANE":"２３巷","ALLEY":" ","HOUSE_NO":"３號","E_COORD97":168571.47,"N_COORD97":2543789.8900000001,"ADDRESS":"中山路２３巷３號","OBJECTID":342144},"geometry":{"x":168571.47000000067,"y":2543789.8900000025}},{"attributes":{"ID":342154,"DIS_CODE":0,"TOWNNAME":"中西區","LI":"三民里","LIN":"1鄰","STREET":"中山路","SECT":" ","MAREA":" ","LANE":"２３巷","ALLEY":" ","HOUSE_NO":"３號之１","E_COORD97":168565.97,"N_COORD97":2543801.71,"ADDRESS":"中山路２３巷３號之１","OBJECTID":342145},"geometry":{"x":168565.97000000067,"y":2543801.7100000009}},{"attributes":{"ID":342155,"DIS_CODE":0,"TOWNNAME":"中西區","LI":"三民里","LIN":"1鄰","STREET":"中山路","SECT":" ","MAREA":" ","LANE":"２３巷","ALLEY":" ","HOUSE_NO":"２號之１","E_COORD97":168592.16,"N_COORD97":2543813.9399999999,"ADDRESS":"中山路２３巷２號之１","OBJECTID":342146},"geometry":{"x":168592.16000000201,"y":2543813.9400000032}},{"attributes":{"ID":342156,"DIS_CODE":0,"TOWNNAME":"中西區","LI":"三民里","LIN":"1鄰","STREET":"中山路","SECT":" ","MAREA":" ","LANE":"２３巷","ALLEY":" ","HOUSE_NO":"５號之１","E_COORD97":168550.17999999999,"N_COORD97":2543822.27,"ADDRESS":"中山路２３巷５號之１","OBJECTID":342147},"geometry":{"x":168550.1799999997,"y":2543822.2700000014}},{"attributes":{"ID":342157,"DIS_CODE":0,"TOWNNAME":"東區","LI":"崇德里","LIN":"1鄰","STREET":"崇善路","SECT":" ","MAREA":" ","LANE":"２３２巷","ALLEY":" ","HOUSE_NO":"８９號","E_COORD97":170635.06,"N_COORD97":2541845.5299999998,"ADDRESS":"崇善路２３２巷８９號","OBJECTID":342148},"geometry":{"x":170635.06000000052,"y":2541845.5299999993}},{"attributes":{"ID":342158,"DIS_CODE":0,"TOWNNAME":"安定區","LI":"管寮里","LIN":"5鄰","STREET":" ","SECT":" ","MAREA":"管寮","LANE":" ","ALLEY":" ","HOUSE_NO":"４６號","E_COORD97":169989.84,"N_COORD97":2556561.25,"ADDRESS":"管寮４６號","OBJECTID":342149},"geometry":{"x":169989.84000000078,"y":2556561.2500000019}},{"attributes":{"ID":342159,"DIS_CODE":0,"TOWNNAME":"安南區","LI":"公\u25A0里","LIN":"5鄰","STREET":"安興街","SECT":" ","MAREA":" ","LANE":"１４９巷","ALLEY":" ","HOUSE_NO":"１６號","E_COORD97":164138.78,"N_COORD97":2552056.8500000001,"ADDRESS":"安興街１４９巷１６號","OBJECTID":342150},"geometry":{"x":164138.78000000119,"y":2552056.8500000034}},{"attributes":{"ID":342160,"DIS_CODE":0,"TOWNNAME":"安南區","LI":"公\u25A0里","LIN":"5鄰","STREET":"安興街","SECT":" ","MAREA":" ","LANE":"１４９巷","ALLEY":" ","HOUSE_NO":"２０號","E_COORD97":164161.13,"N_COORD97":2552033.5,"ADDRESS":"安興街１４９巷２０號","OBJECTID":342151},"geometry":{"x":164161.13000000082,"y":2552033.5000000019}},{"attributes":{"ID":342161,"DIS_CODE":0,"TOWNNAME":"安南區","LI":"公\u25A0里","LIN":"5鄰","STREET":"安興街","SECT":" ","MAREA":" ","LANE":"１４９巷","ALLEY":" ","HOUSE_NO":"２號","E_COORD97":164130.67999999999,"N_COORD97":2552080.25,"ADDRESS":"安興街１４９巷２號","OBJECTID":342152},"geometry":{"x":164130.6799999997,"y":2552080.25}},{"attributes":{"ID":342162,"DIS_CODE":0,"TOWNNAME":"安南區","LI":"公\u25A0里","LIN":"5鄰","STREET":"安興街","SECT":" ","MAREA":" ","LANE":"１４９巷","ALLEY":" ","HOUSE_NO":"２號之１","E_COORD97":164124.78,"N_COORD97":2552092.3199999998,"ADDRESS":"安興街１４９巷２號之１","OBJECTID":342153},"geometry":{"x":164124.78000000119,"y":2552092.3200000022}},{"attributes":{"ID":342163,"DIS_CODE":0,"TOWNNAME":"安南區","LI":"公\u25A0里","LIN":"5鄰","STREET":"安興街","SECT":" ","MAREA":" ","LANE":"１４９巷","ALLEY":" ","HOUSE_NO":"５號","E_COORD97":164142.89000000001,"N_COORD97":2552082.2799999998,"ADDRESS":"安興街１４９巷５號","OBJECTID":342154},"geometry":{"x":164142.88999999966,"y":2552082.2799999993}},{"attributes":{"ID":342164,"DIS_CODE":0,"TOWNNAME":"安南區","LI":"公\u25A0里","LIN":"5鄰","STREET":"安興街","SECT":" ","MAREA":" ","LANE":"１４９巷","ALLEY":" ","HOUSE_NO":"７號","E_COORD97":164145.54000000001,"N_COORD97":2552077.0899999999,"ADDRESS":"安興街１４９巷７號","OBJECTID":342155},"geometry":{"x":164145.54000000004,"y":2552077.0900000017}},{"attributes":{"ID":342165,"DIS_CODE":0,"TOWNNAME":"安南區","LI":"安西里","LIN":"5鄰","STREET":"安通路","SECT":"四段","MAREA":" ","LANE":"１１９巷","ALLEY":" ","HOUSE_NO":"２９號","E_COORD97":168719.25,"N_COORD97":2547844.3399999999,"ADDRESS":"安通路四段１１９巷２９號","OBJECTID":342156},"geometry":{"x":168719.25000000093,"y":2547844.3400000017}},{"attributes":{"ID":342166,"DIS_CODE":0,"TOWNNAME":"安南區","LI":"安西里","LIN":"5鄰","STREET":"安通路","SECT":"四段","MAREA":" ","LANE":"１１９巷","ALLEY":" ","HOUSE_NO":"３１號","E_COORD97":168720.56,"N_COORD97":2547848.9199999999,"ADDRESS":"安通路四段１１９巷３１號","OBJECTID":342157},"geometry":{"x":168720.55999999959,"y":2547848.9199999981}},{"attributes":{"ID":342167,"DIS_CODE":0,"TOWNNAME":"安南區","LI":"安西里","LIN":"5鄰","STREET":"安通路","SECT":"四段","MAREA":" ","LANE":"１１９巷","ALLEY":" ","HOUSE_NO":"３３號","E_COORD97":168720.89000000001,"N_COORD97":2547852.8500000001,"ADDRESS":"安通路四段１１９巷３３號","OBJECTID":342158},"geometry":{"x":168720.8900000006,"y":2547852.8500000034}},{"attributes":{"ID":342168,"DIS_CODE":0,"TOWNNAME":"安南區","LI":"安西里","LIN":"5鄰","STREET":"安通路","SECT":"四段","MAREA":" ","LANE":"１１９巷","ALLEY":" ","HOUSE_NO":"３５號","E_COORD97":168722.20000000001,"N_COORD97":2547857.4300000002,"ADDRESS":"安通路四段１１９巷３５號","OBJECTID":342159},"geometry":{"x":168722.20000000019,"y":2547857.4299999997}},{"attributes":{"ID":342169,"DIS_CODE":0,"TOWNNAME":"安南區","LI":"安西里","LIN":"5鄰","STREET":"安通路","SECT":"四段","MAREA":" ","LANE":"１１９巷","ALLEY":" ","HOUSE_NO":"３７號","E_COORD97":168722.20000000001,"N_COORD97":2547861.6899999999,"ADDRESS":"安通路四段１１９巷３７號","OBJECTID":342160},"geometry":{"x":168722.20000000019,"y":2547861.6900000013}},{"attributes":{"ID":342170,"DIS_CODE":0,"TOWNNAME":"安南區","LI":"安西里","LIN":"5鄰","STREET":"安通路","SECT":"四段","MAREA":" ","LANE":"１１９巷","ALLEY":" ","HOUSE_NO":"３９號","E_COORD97":168721.88,"N_COORD97":2547866.27,"ADDRESS":"安通路四段１１９巷３９號","OBJECTID":342161},"geometry":{"x":168721.87999999989,"y":2547866.2699999996}},{"attributes":{"ID":342171,"DIS_CODE":0,"TOWNNAME":"安南區","LI":"安西里","LIN":"5鄰","STREET":"安通路","SECT":"四段","MAREA":" ","LANE":"１１９巷","ALLEY":" ","HOUSE_NO":"４１號","E_COORD97":168722.85999999999,"N_COORD97":2547870.8500000001,"ADDRESS":"安通路四段１１９巷４１號","OBJECTID":342162},"geometry":{"x":168722.86000000034,"y":2547870.8500000015}},{"attributes":{"ID":342172,"DIS_CODE":0,"TOWNNAME":"安南區","LI":"安西里","LIN":"5鄰","STREET":"安通路","SECT":"四段","MAREA":" ","LANE":"１１９巷","ALLEY":" ","HOUSE_NO":"４３號","E_COORD97":168723.19,"N_COORD97":2547875.4300000002,"ADDRESS":"安通路四段１１９巷４３號","OBJECTID":342163},"geometry":{"x":168723.19000000134,"y":2547875.4299999997}},{"attributes":{"ID":342173,"DIS_CODE":0,"TOWNNAME":"東區","LI":"東聖里","LIN":"1鄰","STREET":"中華東路","SECT":"二段","MAREA":" ","LANE":"７巷","ALLEY":" ","HOUSE_NO":"１２號","E_COORD97":171462.23000000001,"N_COORD97":2543133.9500000002,"ADDRESS":"中華東路二段７巷１２號","OBJECTID":342164},"geometry":{"x":171462.23000000138,"y":2543133.9499999993}},{"attributes":{"ID":342174,"DIS_CODE":0,"TOWNNAME":"安平區","LI":"建平里","LIN":"8鄰","STREET":"府前三街","SECT":" ","MAREA":" ","LANE":" ","ALLEY":" ","HOUSE_NO":"１２９號五樓之４","E_COORD97":166494.16,"N_COORD97":2543982.3300000001,"ADDRESS":"府前三街１２９號五樓之４","OBJECTID":342165},"geometry":{"x":166494.16000000108,"y":2543982.3300000019}},{"attributes":{"ID":342175,"DIS_CODE":0,"TOWNNAME":"安平區","LI":"建平里","LIN":"8鄰","STREET":"府前三街","SECT":" ","MAREA":" ","LANE":" ","ALLEY":" ","HOUSE_NO":"１２９號五樓之５","E_COORD97":166494.16,"N_COORD97":2543982.3300000001,"ADDRESS":"府前三街１２９號五樓之５","OBJECTID":342166},"geometry":{"x":166494.16000000108,"y":2543982.3300000019}},{"attributes":{"ID":342176,"DIS_CODE":0,"TOWNNAME":"安平區","LI":"建平里","LIN":"8鄰","STREET":"府前三街","SECT":" ","MAREA":" ","LANE":" ","ALLEY":" ","HOUSE_NO":"１２９號五樓之６","E_COORD97":166494.16,"N_COORD97":2543982.3300000001,"ADDRESS":"府前三街１２９號五樓之６","OBJECTID":342167},"geometry":{"x":166494.16000000108,"y":2543982.3300000019}},{"attributes":{"ID":342177,"DIS_CODE":0,"TOWNNAME":"安平區","LI":"建平里","LIN":"8鄰","STREET":"府前三街","SECT":" ","MAREA":" ","LANE":" ","ALLEY":" ","HOUSE_NO":"１２９號五樓之７","E_COORD97":166494.16,"N_COORD97":2543982.3300000001,"ADDRESS":"府前三街１２９號五樓之７","OBJECTID":342168},"geometry":{"x":166494.16000000108,"y":2543982.3300000019}},{"attributes":{"ID":342178,"DIS_CODE":0,"TOWNNAME":"安平區","LI":"建平里","LIN":"8鄰","STREET":"府前三街","SECT":" ","MAREA":" ","LANE":" ","ALLEY":" ","HOUSE_NO":"１２９號五樓之８","E_COORD97":166494.16,"N_COORD97":2543982.3300000001,"ADDRESS":"府前三街１２９號五樓之８","OBJECTID":342169},"geometry":{"x":166494.16000000108,"y":2543982.3300000019}},{"attributes":{"ID":342179,"DIS_CODE":0,"TOWNNAME":"安平區","LI":"建平里","LIN":"8鄰","STREET":"府前三街","SECT":" ","MAREA":" ","LANE":" ","ALLEY":" ","HOUSE_NO":"１２９號五樓之９","E_COORD97":166494.16,"N_COORD97":2543982.3300000001,"ADDRESS":"府前三街１２９號五樓之９","OBJECTID":342170},"geometry":{"x":166494.16000000108,"y":2543982.3300000019}},{"attributes":{"ID":342180,"DIS_CODE":0,"TOWNNAME":"安平區","LI":"建平里","LIN":"8鄰","STREET":"府前三街","SECT":" ","MAREA":" ","LANE":" ","ALLEY":" ","HOUSE_NO":"１２９號六樓之１","E_COORD97":166494.16,"N_COORD97":2543982.3300000001,"ADDRESS":"府前三街１２９號六樓之１","OBJECTID":342171},"geometry":{"x":166494.16000000108,"y":2543982.3300000019}},{"attributes":{"ID":342181,"DIS_CODE":0,"TOWNNAME":"安平區","LI":"建平里","LIN":"8鄰","STREET":"府前三街","SECT":" ","MAREA":" ","LANE":" ","ALLEY":" ","HOUSE_NO":"１２９號六樓之１０","E_COORD97":166494.16,"N_COORD97":2543982.3300000001,"ADDRESS":"府前三街１２９號六樓之１０","OBJECTID":342172},"geometry":{"x":166494.16000000108,"y":2543982.3300000019}},{"attributes":{"ID":342182,"DIS_CODE":0,"TOWNNAME":"安平區","LI":"建平里","LIN":"8鄰","STREET":"府前三街","SECT":" ","MAREA":" ","LANE":" ","ALLEY":" ","HOUSE_NO":"１２９號六樓之１１","E_COORD97":166494.16,"N_COORD97":2543982.3300000001,"ADDRESS":"府前三街１２９號六樓之１１","OBJECTID":342173},"geometry":{"x":166494.16000000108,"y":2543982.3300000019}},{"attributes":{"ID":342183,"DIS_CODE":0,"TOWNNAME":"安平區","LI":"建平里","LIN":"8鄰","STREET":"府前三街","SECT":" ","MAREA":" ","LANE":" ","ALLEY":" ","HOUSE_NO":"１２９號六樓之１２","E_COORD97":166494.16,"N_COORD97":2543982.3300000001,"ADDRESS":"府前三街１２９號六樓之１２","OBJECTID":342174},"geometry":{"x":166494.16000000108,"y":2543982.3300000019}},{"attributes":{"ID":342184,"DIS_CODE":0,"TOWNNAME":"安平區","LI":"建平里","LIN":"8鄰","STREET":"府前三街","SECT":" ","MAREA":" ","LANE":" ","ALLEY":" ","HOUSE_NO":"１２９號六樓之１３","E_COORD97":166494.16,"N_COORD97":2543982.3300000001,"ADDRESS":"府前三街１２９號六樓之１３","OBJECTID":342175},"geometry":{"x":166494.16000000108,"y":2543982.3300000019}},{"attributes":{"ID":342185,"DIS_CODE":0,"TOWNNAME":"安平區","LI":"建平里","LIN":"8鄰","STREET":"府前三街","SECT":" ","MAREA":" ","LANE":" ","ALLEY":" ","HOUSE_NO":"１２９號六樓之１４","E_COORD97":166494.16,"N_COORD97":2543982.3300000001,"ADDRESS":"府前三街１２９號六樓之１４","OBJECTID":342176},"geometry":{"x":166494.16000000108,"y":2543982.3300000019}},{"attributes":{"ID":342186,"DIS_CODE":0,"TOWNNAME":"安平區","LI":"建平里","LIN":"8鄰","STREET":"府前三街","SECT":" ","MAREA":" ","LANE":" ","ALLEY":" ","HOUSE_NO":"１２９號六樓之２","E_COORD97":166494.16,"N_COORD97":2543982.3300000001,"ADDRESS":"府前三街１２９號六樓之２","OBJECTID":342177},"geometry":{"x":166494.16000000108,"y":2543982.3300000019}},{"attributes":{"ID":342187,"DIS_CODE":0,"TOWNNAME":"安南區","LI":"安西里","LIN":"5鄰","STREET":"安通路","SECT":"四段","MAREA":" ","LANE":"１１９巷","ALLEY":" ","HOUSE_NO":"４７號","E_COORD97":168722.20000000001,"N_COORD97":2547886.3399999999,"ADDRESS":"安通路四段１１９巷４７號","OBJECTID":342178},"geometry":{"x":168722.20000000019,"y":2547886.3399999999}},{"attributes":{"ID":342188,"DIS_CODE":0,"TOWNNAME":"安南區","LI":"安西里","LIN":"5鄰","STREET":"安通路","SECT":"四段","MAREA":" ","LANE":"１１９巷","ALLEY":" ","HOUSE_NO":"４９號","E_COORD97":168723.19,"N_COORD97":2547890.6000000001,"ADDRESS":"安通路四段１１９巷４９號","OBJECTID":342179},"geometry":{"x":168723.19000000134,"y":2547890.5999999996}},{"attributes":{"ID":342189,"DIS_CODE":0,"TOWNNAME":"安南區","LI":"安西里","LIN":"5鄰","STREET":"安通路","SECT":"四段","MAREA":" ","LANE":"１１９巷","ALLEY":" ","HOUSE_NO":"５５號","E_COORD97":168725.14999999999,"N_COORD97":2547903.6899999999,"ADDRESS":"安通路四段１１９巷５５號","OBJECTID":342180},"geometry":{"x":168725.1500000013,"y":2547903.6899999995}},{"attributes":{"ID":342190,"DIS_CODE":0,"TOWNNAME":"安南區","LI":"安西里","LIN":"5鄰","STREET":"安通路","SECT":"四段","MAREA":" ","LANE":"１１９巷","ALLEY":" ","HOUSE_NO":"５７號","E_COORD97":168725.48000000001,"N_COORD97":2547908.6000000001,"ADDRESS":"安通路四段１１９巷５７號","OBJECTID":342181},"geometry":{"x":168725.48000000045,"y":2547908.6000000034}},{"attributes":{"ID":342191,"DIS_CODE":0,"TOWNNAME":"安南區","LI":"安西里","LIN":"5鄰","STREET":"安通路","SECT":"四段","MAREA":" ","LANE":"１１９巷","ALLEY":" ","HOUSE_NO":"５９號","E_COORD97":168725.14999999999,"N_COORD97":2547912.8500000001,"ADDRESS":"安通路四段１１９巷５９號","OBJECTID":342182},"geometry":{"x":168725.1500000013,"y":2547912.8499999996}},{"attributes":{"ID":342192,"DIS_CODE":0,"TOWNNAME":"安南區","LI":"安西里","LIN":"5鄰","STREET":"安通路","SECT":"四段","MAREA":" ","LANE":"１１９巷","ALLEY":" ","HOUSE_NO":"６１號","E_COORD97":168726.14000000001,"N_COORD97":2547917.1000000001,"ADDRESS":"安通路四段１１９巷６１號","OBJECTID":342183},"geometry":{"x":168726.1400000006,"y":2547917.0999999996}},{"attributes":{"ID":342193,"DIS_CODE":0,"TOWNNAME":"東區","LI":"東光里","LIN":"1鄰","STREET":"東光路","SECT":"一段","MAREA":" ","LANE":"５巷","ALLEY":" ","HOUSE_NO":"８號","E_COORD97":171110.19,"N_COORD97":2543365.8700000001,"ADDRESS":"東光路一段５巷８號","OBJECTID":342184},"geometry":{"x":171110.19000000134,"y":2543365.8700000029}},{"attributes":{"ID":342194,"DIS_CODE":0,"TOWNNAME":"永康區","LI":"\u25A0行里","LIN":"1鄰","STREET":"中正北路","SECT":" ","MAREA":" ","LANE":"１０２巷","ALLEY":" ","HOUSE_NO":"１號","E_COORD97":172284.16,"N_COORD97":2549052.2400000002,"ADDRESS":"中正北路１０２巷１號","OBJECTID":342185},"geometry":{"x":172284.16000000201,"y":2549052.2400000021}},{"attributes":{"ID":342195,"DIS_CODE":0,"TOWNNAME":"永康區","LI":"\u25A0行里","LIN":"1鄰","STREET":"中正北路","SECT":" ","MAREA":" ","LANE":"１０２巷","ALLEY":" ","HOUSE_NO":"８號","E_COORD97":172259.95999999999,"N_COORD97":2549035.5,"ADDRESS":"中正北路１０２巷８號","OBJECTID":342186},"geometry":{"x":172259.96000000183,"y":2549035.5000000037}},{"attributes":{"ID":342196,"DIS_CODE":0,"TOWNNAME":"中西區","LI":"公正里","LIN":"1鄰","STREET":"北門路","SECT":"一段","MAREA":" ","LANE":"１６１巷","ALLEY":" ","HOUSE_NO":"３號","E_COORD97":169170.35000000001,"N_COORD97":2543995.71,"ADDRESS":"北門路一段１６１巷３號","OBJECTID":342187},"geometry":{"x":169170.35000000056,"y":2543995.7100000009}},{"attributes":{"ID":342197,"DIS_CODE":0,"TOWNNAME":"中西區","LI":"公正里","LIN":"1鄰","STREET":"北門路","SECT":"一段","MAREA":" ","LANE":"１６１巷","ALLEY":" ","HOUSE_NO":"５號","E_COORD97":169163.32999999999,"N_COORD97":2543997.4199999999,"ADDRESS":"北門路一段１６１巷５號","OBJECTID":342188},"geometry":{"x":169163.33000000007,"y":2543997.4199999981}},{"attributes":{"ID":342198,"DIS_CODE":0,"TOWNNAME":"中西區","LI":"公正里","LIN":"1鄰","STREET":"北門路","SECT":"一段","MAREA":" ","LANE":"１６１巷","ALLEY":" ","HOUSE_NO":"７號","E_COORD97":169155.94,"N_COORD97":2543996.2799999998,"ADDRESS":"北門路一段１６１巷７號","OBJECTID":342189},"geometry":{"x":169155.94000000041,"y":2543996.2799999993}},{"attributes":{"ID":342199,"DIS_CODE":0,"TOWNNAME":"中西區","LI":"公正里","LIN":"1鄰","STREET":"北門路","SECT":"一段","MAREA":" ","LANE":"１６１巷","ALLEY":" ","HOUSE_NO":"９號","E_COORD97":169151.95000000001,"N_COORD97":2543997.6099999999,"ADDRESS":"北門路一段１６１巷９號","OBJECTID":342190},"geometry":{"x":169151.95000000112,"y":2543997.6099999994}},{"attributes":{"ID":342200,"DIS_CODE":0,"TOWNNAME":"安平區","LI":"建平里","LIN":"8鄰","STREET":"府前三街","SECT":" ","MAREA":" ","LANE":" ","ALLEY":" ","HOUSE_NO":"１２９號六樓之３","E_COORD97":166494.16,"N_COORD97":2543982.3300000001,"ADDRESS":"府前三街１２９號六樓之３","OBJECTID":342191},"geometry":{"x":166494.16000000108,"y":2543982.3300000019}},{"attributes":{"ID":342201,"DIS_CODE":0,"TOWNNAME":"安平區","LI":"建平里","LIN":"8鄰","STREET":"府前三街","SECT":" ","MAREA":" ","LANE":" ","ALLEY":" ","HOUSE_NO":"１２９號六樓之４","E_COORD97":166494.16,"N_COORD97":2543982.3300000001,"ADDRESS":"府前三街１２９號六樓之４","OBJECTID":342192},"geometry":{"x":166494.16000000108,"y":2543982.3300000019}},{"attributes":{"ID":342202,"DIS_CODE":0,"TOWNNAME":"安定區","LI":"新吉里","LIN":"5鄰","STREET":" ","SECT":" ","MAREA":"新吉","LANE":" ","ALLEY":" ","HOUSE_NO":"４０號","E_COORD97":169300.17000000001,"N_COORD97":2554080.25,"ADDRESS":"新吉４０號","OBJECTID":342193},"geometry":{"x":169300.16999999993,"y":2554080.25}},{"attributes":{"ID":342203,"DIS_CODE":0,"TOWNNAME":"安定區","LI":"管寮里","LIN":"5鄰","STREET":" ","SECT":" ","MAREA":"管寮","LANE":" ","ALLEY":" ","HOUSE_NO":"５０號","E_COORD97":169996.54000000001,"N_COORD97":2556479.25,"ADDRESS":"管寮５０號","OBJECTID":342194},"geometry":{"x":169996.5400000019,"y":2556479.2500000019}},{"attributes":{"ID":342204,"DIS_CODE":0,"TOWNNAME":"安平區","LI":"建平里","LIN":"8鄰","STREET":"府前三街","SECT":" ","MAREA":" ","LANE":" ","ALLEY":" ","HOUSE_NO":"１２９號六樓之５","E_COORD97":166494.16,"N_COORD97":2543982.3300000001,"ADDRESS":"府前三街１２９號六樓之５","OBJECTID":342195},"geometry":{"x":166494.16000000108,"y":2543982.3300000019}},{"attributes":{"ID":342205,"DIS_CODE":0,"TOWNNAME":"安平區","LI":"建平里","LIN":"8鄰","STREET":"府前三街","SECT":" ","MAREA":" ","LANE":" ","ALLEY":" ","HOUSE_NO":"１２９號六樓之６","E_COORD97":166494.16,"N_COORD97":2543982.3300000001,"ADDRESS":"府前三街１２９號六樓之６","OBJECTID":342196},"geometry":{"x":166494.16000000108,"y":2543982.3300000019}},{"attributes":{"ID":342206,"DIS_CODE":0,"TOWNNAME":"安平區","LI":"建平里","LIN":"8鄰","STREET":"府前三街","SECT":" ","MAREA":" ","LANE":" ","ALLEY":" ","HOUSE_NO":"１２９號六樓之７","E_COORD97":166494.16,"N_COORD97":2543982.3300000001,"ADDRESS":"府前三街１２９號六樓之７","OBJECTID":342197},"geometry":{"x":166494.16000000108,"y":2543982.3300000019}},{"attributes":{"ID":342207,"DIS_CODE":0,"TOWNNAME":"安平區","LI":"建平里","LIN":"8鄰","STREET":"府前三街","SECT":" ","MAREA":" ","LANE":" ","ALLEY":" ","HOUSE_NO":"１２９號六樓之８","E_COORD97":166494.16,"N_COORD97":2543982.3300000001,"ADDRESS":"府前三街１２９號六樓之８","OBJECTID":342198},"geometry":{"x":166494.16000000108,"y":2543982.3300000019}},{"attributes":{"ID":342208,"DIS_CODE":0,"TOWNNAME":"東區","LI":"裕聖里","LIN":"1鄰","STREET":"裕忠一街","SECT":" ","MAREA":" ","LANE":" ","ALLEY":" ","HOUSE_NO":"９號","E_COORD97":172290.04999999999,"N_COORD97":2542419.48,"ADDRESS":"裕忠一街９號","OBJECTID":342199},"geometry":{"x":172290.05000000075,"y":2542419.4800000023}},{"attributes":{"ID":342209,"DIS_CODE":0,"TOWNNAME":"安南區","LI":"城中里","LIN":"5鄰","STREET":"安中路","SECT":"六段","MAREA":" ","LANE":"５１９巷","ALLEY":" ","HOUSE_NO":"６４號","E_COORD97":160845.63,"N_COORD97":2551215.73,"ADDRESS":"安中路六段５１９巷６４號","OBJECTID":342200},"geometry":{"x":160845.63000000082,"y":2551215.7300000023}}]}