{"displayFieldName":"TOWNNAME","fieldAliases":{"ID":"ID","DIS_CODE":"DIS_CODE","TOWNNAME":"TOWNNAME","LI":"LI","LIN":"LIN","STREET":"STREET","SECT":"SECT","MAREA":"MAREA","LANE":"LANE","ALLEY":"ALLEY","HOUSE_NO":"HOUSE_NO","E_COORD97":"E_COORD97","N_COORD97":"N_COORD97","ADDRESS":"ADDRESS","OBJECTID":"OBJECTID"},"geometryType":"esriGeometryPoint","spatialReference":{"wkid":102443,"latestWkid":3826},"fields":[{"name":"ID","type":"esriFieldTypeDouble","alias":"ID"},{"name":"DIS_CODE","type":"esriFieldTypeInteger","alias":"DIS_CODE"},{"name":"TOWNNAME","type":"esriFieldTypeString","alias":"TOWNNAME","length":8},{"name":"LI","type":"esriFieldTypeString","alias":"LI","length":8},{"name":"LIN","type":"esriFieldTypeString","alias":"LIN","length":12},{"name":"STREET","type":"esriFieldTypeString","alias":"STREET","length":20},{"name":"SECT","type":"esriFieldTypeString","alias":"SECT","length":8},{"name":"MAREA","type":"esriFieldTypeString","alias":"MAREA","length":12},{"name":"LANE","type":"esriFieldTypeString","alias":"LANE","length":10},{"name":"ALLEY","type":"esriFieldTypeString","alias":"ALLEY","length":10},{"name":"HOUSE_NO","type":"esriFieldTypeString","alias":"HOUSE_NO","length":20},{"name":"E_COORD97","type":"esriFieldTypeDouble","alias":"E_COORD97"},{"name":"N_COORD97","type":"esriFieldTypeDouble","alias":"N_COORD97"},{"name":"ADDRESS","type":"esriFieldTypeString","alias":"ADDRESS","length":50},{"name":"OBJECTID","type":"esriFieldTypeOID","alias":"OBJECTID"}],"features":[{"attributes":{"ID":522028,"DIS_CODE":0,"TOWNNAME":"北區","LI":"玉皇里","LIN":"6鄰","STREET":"崇安街","SECT":" ","MAREA":" ","LANE":" ","ALLEY":" ","HOUSE_NO":"１２２號","E_COORD97":168835.79999999999,"N_COORD97":2544602.4300000002,"ADDRESS":"崇安街１２２號","OBJECTID":522001},"geometry":{"x":168835.79999999981,"y":2544602.4300000016}},{"attributes":{"ID":522029,"DIS_CODE":0,"TOWNNAME":"北區","LI":"玉皇里","LIN":"6鄰","STREET":"崇安街","SECT":" ","MAREA":" ","LANE":" ","ALLEY":" ","HOUSE_NO":"１２４號","E_COORD97":168839.04999999999,"N_COORD97":2544603.6400000001,"ADDRESS":"崇安街１２４號","OBJECTID":522002},"geometry":{"x":168839.05000000075,"y":2544603.6400000043}},{"attributes":{"ID":522030,"DIS_CODE":0,"TOWNNAME":"北區","LI":"玉皇里","LIN":"6鄰","STREET":"崇安街","SECT":" ","MAREA":" ","LANE":" ","ALLEY":" ","HOUSE_NO":"１２６號","E_COORD97":168842.09,"N_COORD97":2544604.9100000001,"ADDRESS":"崇安街１２６號","OBJECTID":522003},"geometry":{"x":168842.09000000078,"y":2544604.9100000039}},{"attributes":{"ID":522031,"DIS_CODE":0,"TOWNNAME":"北區","LI":"玉皇里","LIN":"6鄰","STREET":"崇安街","SECT":" ","MAREA":" ","LANE":" ","ALLEY":" ","HOUSE_NO":"１２８號","E_COORD97":168845.20000000001,"N_COORD97":2544605.96,"ADDRESS":"崇安街１２８號","OBJECTID":522004},"geometry":{"x":168845.20000000112,"y":2544605.9600000028}},{"attributes":{"ID":522032,"DIS_CODE":0,"TOWNNAME":"北區","LI":"玉皇里","LIN":"6鄰","STREET":"崇安街","SECT":" ","MAREA":" ","LANE":" ","ALLEY":" ","HOUSE_NO":"１３０號","E_COORD97":168851.63,"N_COORD97":2544608.5099999998,"ADDRESS":"崇安街１３０號","OBJECTID":522005},"geometry":{"x":168851.63000000082,"y":2544608.5100000016}},{"attributes":{"ID":522033,"DIS_CODE":0,"TOWNNAME":"北區","LI":"長德里","LIN":"6鄰","STREET":"長北街","SECT":" ","MAREA":" ","LANE":" ","ALLEY":" ","HOUSE_NO":"１１４號","E_COORD97":168477.19,"N_COORD97":2544777.6899999999,"ADDRESS":"長北街１１４號","OBJECTID":522006},"geometry":{"x":168477.19000000134,"y":2544777.6899999995}},{"attributes":{"ID":522034,"DIS_CODE":0,"TOWNNAME":"北區","LI":"長德里","LIN":"6鄰","STREET":"長北街","SECT":" ","MAREA":" ","LANE":" ","ALLEY":" ","HOUSE_NO":"１１６號","E_COORD97":168479.26000000001,"N_COORD97":2544782.5299999998,"ADDRESS":"長北街１１６號","OBJECTID":522007},"geometry":{"x":168479.26000000164,"y":2544782.5299999975}},{"attributes":{"ID":522035,"DIS_CODE":0,"TOWNNAME":"北區","LI":"長德里","LIN":"6鄰","STREET":"長北街","SECT":" ","MAREA":" ","LANE":" ","ALLEY":" ","HOUSE_NO":"１１８號","E_COORD97":168481,"N_COORD97":2544785.9900000002,"ADDRESS":"長北街１１８號","OBJECTID":522008},"geometry":{"x":168481,"y":2544785.9900000002}},{"attributes":{"ID":522036,"DIS_CODE":0,"TOWNNAME":"北區","LI":"長德里","LIN":"6鄰","STREET":"長北街","SECT":" ","MAREA":" ","LANE":" ","ALLEY":" ","HOUSE_NO":"１２０號","E_COORD97":168483.07999999999,"N_COORD97":2544789.4500000002,"ADDRESS":"長北街１２０號","OBJECTID":522009},"geometry":{"x":168483.08000000101,"y":2544789.4499999993}},{"attributes":{"ID":522037,"DIS_CODE":0,"TOWNNAME":"北區","LI":"長德里","LIN":"6鄰","STREET":"長北街","SECT":" ","MAREA":" ","LANE":" ","ALLEY":" ","HOUSE_NO":"１２２號","E_COORD97":168485.16,"N_COORD97":2544793.6000000001,"ADDRESS":"長北街１２２號","OBJECTID":522010},"geometry":{"x":168485.16000000015,"y":2544793.6000000015}},{"attributes":{"ID":522038,"DIS_CODE":0,"TOWNNAME":"北區","LI":"長德里","LIN":"6鄰","STREET":"長北街","SECT":" ","MAREA":" ","LANE":" ","ALLEY":" ","HOUSE_NO":"１２４號","E_COORD97":168487.23000000001,"N_COORD97":2544797.4100000001,"ADDRESS":"長北街１２４號","OBJECTID":522011},"geometry":{"x":168487.23000000138,"y":2544797.4100000001}},{"attributes":{"ID":522039,"DIS_CODE":0,"TOWNNAME":"北區","LI":"長德里","LIN":"6鄰","STREET":"長北街","SECT":" ","MAREA":" ","LANE":" ","ALLEY":" ","HOUSE_NO":"１２６號","E_COORD97":168488.62,"N_COORD97":2544801.21,"ADDRESS":"長北街１２６號","OBJECTID":522012},"geometry":{"x":168488.62000000011,"y":2544801.2100000028}},{"attributes":{"ID":522040,"DIS_CODE":0,"TOWNNAME":"北區","LI":"長德里","LIN":"6鄰","STREET":"長北街","SECT":" ","MAREA":" ","LANE":" ","ALLEY":" ","HOUSE_NO":"１２８號","E_COORD97":168489.31,"N_COORD97":2544806.0600000001,"ADDRESS":"長北街１２８號","OBJECTID":522013},"geometry":{"x":168489.31000000052,"y":2544806.0600000005}},{"attributes":{"ID":522041,"DIS_CODE":0,"TOWNNAME":"北區","LI":"長德里","LIN":"6鄰","STREET":"長北街","SECT":" ","MAREA":" ","LANE":" ","ALLEY":" ","HOUSE_NO":"１３０號","E_COORD97":168491.39000000001,"N_COORD97":2544809.1699999999,"ADDRESS":"長北街１３０號","OBJECTID":522014},"geometry":{"x":168491.38999999966,"y":2544809.1699999999}},{"attributes":{"ID":522042,"DIS_CODE":0,"TOWNNAME":"北區","LI":"長德里","LIN":"6鄰","STREET":"長北街","SECT":" ","MAREA":" ","LANE":" ","ALLEY":" ","HOUSE_NO":"１３２號","E_COORD97":168493.82000000001,"N_COORD97":2544812.98,"ADDRESS":"長北街１３２號","OBJECTID":522015},"geometry":{"x":168493.8200000003,"y":2544812.9800000023}},{"attributes":{"ID":522043,"DIS_CODE":0,"TOWNNAME":"北區","LI":"長德里","LIN":"6鄰","STREET":"長北街","SECT":" ","MAREA":" ","LANE":" ","ALLEY":" ","HOUSE_NO":"１３６號","E_COORD97":168492.07999999999,"N_COORD97":2544833.0499999998,"ADDRESS":"長北街１３６號","OBJECTID":522016},"geometry":{"x":168492.08000000007,"y":2544833.0500000026}},{"attributes":{"ID":522044,"DIS_CODE":0,"TOWNNAME":"北區","LI":"長德里","LIN":"6鄰","STREET":"長北街","SECT":" ","MAREA":" ","LANE":" ","ALLEY":" ","HOUSE_NO":"１５０號","E_COORD97":168500.39999999999,"N_COORD97":2544856.23,"ADDRESS":"長北街１５０號","OBJECTID":522017},"geometry":{"x":168500.40000000037,"y":2544856.2300000004}},{"attributes":{"ID":522045,"DIS_CODE":0,"TOWNNAME":"歸仁區","LI":"媽廟里","LIN":"6鄰","STREET":"中正北路","SECT":"三段","MAREA":" ","LANE":" ","ALLEY":" ","HOUSE_NO":"１８５號","E_COORD97":177588.26000000001,"N_COORD97":2543812.7200000002,"ADDRESS":"中正北路三段１８５號","OBJECTID":522018},"geometry":{"x":177588.25999999978,"y":2543812.7200000007}},{"attributes":{"ID":522046,"DIS_CODE":0,"TOWNNAME":"歸仁區","LI":"辜厝里","LIN":"6鄰","STREET":"中正六街","SECT":" ","MAREA":" ","LANE":" ","ALLEY":" ","HOUSE_NO":"３７號","E_COORD97":177523.56,"N_COORD97":2540661.1099999999,"ADDRESS":"中正六街３７號","OBJECTID":522019},"geometry":{"x":177523.55999999959,"y":2540661.1100000013}},{"attributes":{"ID":522047,"DIS_CODE":0,"TOWNNAME":"歸仁區","LI":"歸仁里","LIN":"6鄰","STREET":"大通路","SECT":" ","MAREA":" ","LANE":" ","ALLEY":" ","HOUSE_NO":"４７號","E_COORD97":177797.14999999999,"N_COORD97":2540870.1800000002,"ADDRESS":"大通路４７號","OBJECTID":522020},"geometry":{"x":177797.14999999944,"y":2540870.1800000016}},{"attributes":{"ID":522048,"DIS_CODE":0,"TOWNNAME":"玉井區","LI":"竹圍里","LIN":"6鄰","STREET":"大成路","SECT":" ","MAREA":" ","LANE":" ","ALLEY":" ","HOUSE_NO":"４０３號","E_COORD97":195538.62,"N_COORD97":2558501.8999999999,"ADDRESS":"大成路４０３號","OBJECTID":522021},"geometry":{"x":195538.62000000011,"y":2558501.9000000004}},{"attributes":{"ID":522049,"DIS_CODE":0,"TOWNNAME":"楠西區","LI":"東勢里","LIN":"6鄰","STREET":"民生路","SECT":" ","MAREA":" ","LANE":" ","ALLEY":" ","HOUSE_NO":"３８號","E_COORD97":197414.34,"N_COORD97":2564025.29,"ADDRESS":"民生路３８號","OBJECTID":522022},"geometry":{"x":197414.34000000078,"y":2564025.290000001}},{"attributes":{"ID":522050,"DIS_CODE":0,"TOWNNAME":"歸仁區","LI":"七甲里","LIN":"6鄰","STREET":"中正北路","SECT":"二段","MAREA":" ","LANE":" ","ALLEY":" ","HOUSE_NO":"３８０號","E_COORD97":177511.01999999999,"N_COORD97":2542915.2599999998,"ADDRESS":"中正北路二段３８０號","OBJECTID":522023},"geometry":{"x":177511.02000000048,"y":2542915.2600000016}},{"attributes":{"ID":522051,"DIS_CODE":0,"TOWNNAME":"歸仁區","LI":"大潭里","LIN":"6鄰","STREET":"中正南路","SECT":"三段","MAREA":" ","LANE":" ","ALLEY":" ","HOUSE_NO":"２８３號","E_COORD97":175139.60999999999,"N_COORD97":2534654.2799999998,"ADDRESS":"中正南路三段２８３號","OBJECTID":522024},"geometry":{"x":175139.61000000127,"y":2534654.2800000031}},{"attributes":{"ID":522052,"DIS_CODE":0,"TOWNNAME":"歸仁區","LI":"大潭里","LIN":"6鄰","STREET":"中正南路","SECT":"三段","MAREA":" ","LANE":" ","ALLEY":" ","HOUSE_NO":"２５１之１號","E_COORD97":175168.10999999999,"N_COORD97":2534717.2999999998,"ADDRESS":"中正南路三段２５１之１號","OBJECTID":522025},"geometry":{"x":175168.11000000034,"y":2534717.3000000026}},{"attributes":{"ID":522053,"DIS_CODE":0,"TOWNNAME":"歸仁區","LI":"八甲里","LIN":"6鄰","STREET":"大光街","SECT":" ","MAREA":" ","LANE":" ","ALLEY":" ","HOUSE_NO":"２３號","E_COORD97":177879.97,"N_COORD97":2541658.6099999999,"ADDRESS":"大光街２３號","OBJECTID":522026},"geometry":{"x":177879.97000000067,"y":2541658.6099999994}},{"attributes":{"ID":522054,"DIS_CODE":0,"TOWNNAME":"歸仁區","LI":"文化里","LIN":"6鄰","STREET":"國光街","SECT":" ","MAREA":" ","LANE":" ","ALLEY":" ","HOUSE_NO":"２０５號","E_COORD97":177344.26000000001,"N_COORD97":2541384.3300000001,"ADDRESS":"國光街２０５號","OBJECTID":522027},"geometry":{"x":177344.25999999978,"y":2541384.3300000038}},{"attributes":{"ID":522055,"DIS_CODE":0,"TOWNNAME":"歸仁區","LI":"七甲里","LIN":"6鄰","STREET":"七甲三街","SECT":" ","MAREA":" ","LANE":" ","ALLEY":" ","HOUSE_NO":"８３號","E_COORD97":177627.09,"N_COORD97":2542884.2599999998,"ADDRESS":"七甲三街８３號","OBJECTID":522028},"geometry":{"x":177627.08999999985,"y":2542884.2600000016}},{"attributes":{"ID":522056,"DIS_CODE":0,"TOWNNAME":"歸仁區","LI":"六甲里","LIN":"6鄰","STREET":"中正十五街","SECT":" ","MAREA":" ","LANE":" ","ALLEY":" ","HOUSE_NO":"６７號","E_COORD97":176451.10999999999,"N_COORD97":2539461.25,"ADDRESS":"中正十五街６７號","OBJECTID":522029},"geometry":{"x":176451.11000000034,"y":2539461.25}},{"attributes":{"ID":522057,"DIS_CODE":0,"TOWNNAME":"楠西區","LI":"楠西里","LIN":"6鄰","STREET":"中興路","SECT":" ","MAREA":" ","LANE":" ","ALLEY":" ","HOUSE_NO":"８３號","E_COORD97":197222.10999999999,"N_COORD97":2564386.25,"ADDRESS":"中興路８３號","OBJECTID":522030},"geometry":{"x":197222.11000000034,"y":2564386.2500000019}},{"attributes":{"ID":522058,"DIS_CODE":0,"TOWNNAME":"楠西區","LI":"東勢里","LIN":"6鄰","STREET":"民生路","SECT":" ","MAREA":" ","LANE":" ","ALLEY":" ","HOUSE_NO":"３５號","E_COORD97":197426.64000000001,"N_COORD97":2564003.29,"ADDRESS":"民生路３５號","OBJECTID":522031},"geometry":{"x":197426.63999999966,"y":2564003.2899999991}},{"attributes":{"ID":522059,"DIS_CODE":0,"TOWNNAME":"楠西區","LI":"東勢里","LIN":"6鄰","STREET":"中正路","SECT":" ","MAREA":" ","LANE":" ","ALLEY":" ","HOUSE_NO":"１４１號","E_COORD97":197323.16,"N_COORD97":2563906.25,"ADDRESS":"中正路１４１號","OBJECTID":522032},"geometry":{"x":197323.16000000015,"y":2563906.25}},{"attributes":{"ID":522060,"DIS_CODE":0,"TOWNNAME":"新營區","LI":"民權里","LIN":"6鄰","STREET":"信義街","SECT":" ","MAREA":" ","LANE":" ","ALLEY":" ","HOUSE_NO":"９之１號","E_COORD97":179951.88,"N_COORD97":2578123.3799999999,"ADDRESS":"信義街９之１號","OBJECTID":522033},"geometry":{"x":179951.88000000082,"y":2578123.379999999}},{"attributes":{"ID":522061,"DIS_CODE":0,"TOWNNAME":"新營區","LI":"好平里","LIN":"6鄰","STREET":"長春街","SECT":" ","MAREA":" ","LANE":" ","ALLEY":" ","HOUSE_NO":"１７２號","E_COORD97":179447.19,"N_COORD97":2577816.7400000002,"ADDRESS":"長春街１７２號","OBJECTID":522034},"geometry":{"x":179447.19000000134,"y":2577816.7400000002}},{"attributes":{"ID":522062,"DIS_CODE":0,"TOWNNAME":"新營區","LI":"中營里","LIN":"6鄰","STREET":"新進路","SECT":" ","MAREA":" ","LANE":" ","ALLEY":" ","HOUSE_NO":"７３之３號","E_COORD97":180572.12,"N_COORD97":2578141.5,"ADDRESS":"新進路７３之３號","OBJECTID":522035},"geometry":{"x":180572.11999999918,"y":2578141.5000000037}},{"attributes":{"ID":522063,"DIS_CODE":0,"TOWNNAME":"新營區","LI":"延平里","LIN":"6鄰","STREET":"復興路","SECT":" ","MAREA":" ","LANE":" ","ALLEY":" ","HOUSE_NO":"１之１１３號","E_COORD97":179715.17999999999,"N_COORD97":2577935.1299999999,"ADDRESS":"復興路１之１１３號","OBJECTID":522036},"geometry":{"x":179715.1799999997,"y":2577935.129999999}},{"attributes":{"ID":522064,"DIS_CODE":0,"TOWNNAME":"安平區","LI":"億載里","LIN":"6鄰","STREET":"平豐路","SECT":" ","MAREA":" ","LANE":" ","ALLEY":" ","HOUSE_NO":"２５３號","E_COORD97":164272.69,"N_COORD97":2543699.3900000001,"ADDRESS":"平豐路２５３號","OBJECTID":522037},"geometry":{"x":164272.69000000041,"y":2543699.3900000006}},{"attributes":{"ID":522065,"DIS_CODE":0,"TOWNNAME":"安平區","LI":"國平里","LIN":"6鄰","STREET":"文平路","SECT":" ","MAREA":" ","LANE":" ","ALLEY":" ","HOUSE_NO":"２１５號","E_COORD97":165711.47,"N_COORD97":2543145.29,"ADDRESS":"文平路２１５號","OBJECTID":522038},"geometry":{"x":165711.47000000067,"y":2543145.2899999991}},{"attributes":{"ID":522066,"DIS_CODE":0,"TOWNNAME":"安平區","LI":"國平里","LIN":"6鄰","STREET":"文平路","SECT":" ","MAREA":" ","LANE":" ","ALLEY":" ","HOUSE_NO":"２１７號","E_COORD97":165711.73999999999,"N_COORD97":2543155.1000000001,"ADDRESS":"文平路２１７號","OBJECTID":522039},"geometry":{"x":165711.74000000115,"y":2543155.0999999978}},{"attributes":{"ID":522067,"DIS_CODE":0,"TOWNNAME":"安平區","LI":"金城里","LIN":"6鄰","STREET":"同平路","SECT":" ","MAREA":" ","LANE":" ","ALLEY":" ","HOUSE_NO":"１４５號","E_COORD97":163159.92999999999,"N_COORD97":2544014.71,"ADDRESS":"同平路１４５號","OBJECTID":522040},"geometry":{"x":163159.9299999997,"y":2544014.7100000028}},{"attributes":{"ID":522068,"DIS_CODE":0,"TOWNNAME":"安平區","LI":"金城里","LIN":"6鄰","STREET":"同平路","SECT":" ","MAREA":" ","LANE":" ","ALLEY":" ","HOUSE_NO":"１４３號","E_COORD97":163157.87,"N_COORD97":2544027.4500000002,"ADDRESS":"同平路１４３號","OBJECTID":522041},"geometry":{"x":163157.87000000104,"y":2544027.450000003}},{"attributes":{"ID":522069,"DIS_CODE":0,"TOWNNAME":"安平區","LI":"怡平里","LIN":"6鄰","STREET":"慶平路","SECT":" ","MAREA":" ","LANE":" ","ALLEY":" ","HOUSE_NO":"２３０號","E_COORD97":165754.69,"N_COORD97":2544195.1299999999,"ADDRESS":"慶平路２３０號","OBJECTID":522042},"geometry":{"x":165754.69000000134,"y":2544195.1300000027}},{"attributes":{"ID":522070,"DIS_CODE":0,"TOWNNAME":"南區","LI":"喜北里","LIN":"6鄰","STREET":"喜樹路","SECT":" ","MAREA":" ","LANE":" ","ALLEY":" ","HOUSE_NO":"８６號","E_COORD97":165870.70000000001,"N_COORD97":2538423.8500000001,"ADDRESS":"喜樹路８６號","OBJECTID":522043},"geometry":{"x":165870.70000000019,"y":2538423.8500000034}},{"attributes":{"ID":522071,"DIS_CODE":0,"TOWNNAME":"安平區","LI":"怡平里","LIN":"6鄰","STREET":"慶平路","SECT":" ","MAREA":" ","LANE":" ","ALLEY":" ","HOUSE_NO":"２３２號","E_COORD97":165750.45000000001,"N_COORD97":2544194.8500000001,"ADDRESS":"慶平路２３２號","OBJECTID":522044},"geometry":{"x":165750.45000000019,"y":2544194.8500000015}},{"attributes":{"ID":522072,"DIS_CODE":0,"TOWNNAME":"安平區","LI":"怡平里","LIN":"6鄰","STREET":"慶平路","SECT":" ","MAREA":" ","LANE":" ","ALLEY":" ","HOUSE_NO":"２３６號","E_COORD97":165739.5,"N_COORD97":2544194.3100000001,"ADDRESS":"慶平路２３６號","OBJECTID":522045},"geometry":{"x":165739.5,"y":2544194.3100000005}},{"attributes":{"ID":522073,"DIS_CODE":0,"TOWNNAME":"安平區","LI":"怡平里","LIN":"6鄰","STREET":"慶平路","SECT":" ","MAREA":" ","LANE":" ","ALLEY":" ","HOUSE_NO":"２３８號","E_COORD97":165734.85000000001,"N_COORD97":2544194.0299999998,"ADDRESS":"慶平路２３８號","OBJECTID":522046},"geometry":{"x":165734.84999999963,"y":2544194.0300000012}},{"attributes":{"ID":522074,"DIS_CODE":0,"TOWNNAME":"學甲區","LI":"新榮里","LIN":"6鄰","STREET":"華宗路","SECT":" ","MAREA":" ","LANE":" ","ALLEY":" ","HOUSE_NO":"２號","E_COORD97":166557.79999999999,"N_COORD97":2568774.1699999999,"ADDRESS":"華宗路２號","OBJECTID":522047},"geometry":{"x":166557.79999999981,"y":2568774.1700000018}},{"attributes":{"ID":522075,"DIS_CODE":0,"TOWNNAME":"北區","LI":"五福里","LIN":"6鄰","STREET":"自強街","SECT":" ","MAREA":" ","LANE":" ","ALLEY":" ","HOUSE_NO":"９５號","E_COORD97":168303.14999999999,"N_COORD97":2544616.3500000001,"ADDRESS":"自強街９５號","OBJECTID":522048},"geometry":{"x":168303.1500000013,"y":2544616.3500000015}},{"attributes":{"ID":522076,"DIS_CODE":0,"TOWNNAME":"南區","LI":"明興里","LIN":"6鄰","STREET":"永仁街","SECT":" ","MAREA":" ","LANE":" ","ALLEY":" ","HOUSE_NO":"８號","E_COORD97":167080.95000000001,"N_COORD97":2540695.73,"ADDRESS":"永仁街８號","OBJECTID":522049},"geometry":{"x":167080.95000000019,"y":2540695.7300000004}},{"attributes":{"ID":522077,"DIS_CODE":0,"TOWNNAME":"北區","LI":"三德里","LIN":"6鄰","STREET":"忠義路","SECT":"三段","MAREA":" ","LANE":" ","ALLEY":" ","HOUSE_NO":"３１號","E_COORD97":168516.745608,"N_COORD97":2544433.7657300001,"ADDRESS":"忠義路三段３１號","OBJECTID":522050},"geometry":{"x":168516.74560800008,"y":2544433.7657300048}},{"attributes":{"ID":522078,"DIS_CODE":0,"TOWNNAME":"北區","LI":"三德里","LIN":"6鄰","STREET":"忠義路","SECT":"三段","MAREA":" ","LANE":" ","ALLEY":" ","HOUSE_NO":"３５號","E_COORD97":168519.76000000001,"N_COORD97":2544441.6800000002,"ADDRESS":"忠義路三段３５號","OBJECTID":522051},"geometry":{"x":168519.76000000164,"y":2544441.6799999997}},{"attributes":{"ID":522079,"DIS_CODE":0,"TOWNNAME":"北區","LI":"三德里","LIN":"6鄰","STREET":"忠義路","SECT":"三段","MAREA":" ","LANE":" ","ALLEY":" ","HOUSE_NO":"３７號","E_COORD97":168520.85000000001,"N_COORD97":2544444.54,"ADDRESS":"忠義路三段３７號","OBJECTID":522052},"geometry":{"x":168520.85000000149,"y":2544444.540000001}},{"attributes":{"ID":522080,"DIS_CODE":0,"TOWNNAME":"北區","LI":"三德里","LIN":"6鄰","STREET":"忠義路","SECT":"三段","MAREA":" ","LANE":" ","ALLEY":" ","HOUSE_NO":"４１號","E_COORD97":168523.95000000001,"N_COORD97":2544451.1899999999,"ADDRESS":"忠義路三段４１號","OBJECTID":522053},"geometry":{"x":168523.94999999925,"y":2544451.1900000013}},{"attributes":{"ID":522081,"DIS_CODE":0,"TOWNNAME":"北區","LI":"三德里","LIN":"6鄰","STREET":"忠義路","SECT":"三段","MAREA":" ","LANE":" ","ALLEY":" ","HOUSE_NO":"４３號","E_COORD97":168525.04000000001,"N_COORD97":2544455.4199999999,"ADDRESS":"忠義路三段４３號","OBJECTID":522054},"geometry":{"x":168525.0400000019,"y":2544455.4200000037}},{"attributes":{"ID":522082,"DIS_CODE":0,"TOWNNAME":"北區","LI":"三德里","LIN":"6鄰","STREET":"忠義路","SECT":"三段","MAREA":" ","LANE":" ","ALLEY":" ","HOUSE_NO":"４５號","E_COORD97":168526.14000000001,"N_COORD97":2544460.5899999999,"ADDRESS":"忠義路三段４５號","OBJECTID":522055},"geometry":{"x":168526.1400000006,"y":2544460.589999998}},{"attributes":{"ID":522083,"DIS_CODE":0,"TOWNNAME":"北區","LI":"三德里","LIN":"6鄰","STREET":"忠義路","SECT":"三段","MAREA":" ","LANE":" ","ALLEY":" ","HOUSE_NO":"４７號","E_COORD97":168528.17999999999,"N_COORD97":2544464.1299999999,"ADDRESS":"忠義路三段４７號","OBJECTID":522056},"geometry":{"x":168528.1799999997,"y":2544464.1300000008}},{"attributes":{"ID":522084,"DIS_CODE":0,"TOWNNAME":"北區","LI":"安民里","LIN":"6鄰","STREET":"海安路","SECT":"三段","MAREA":" ","LANE":" ","ALLEY":" ","HOUSE_NO":"４３號","E_COORD97":167888.41,"N_COORD97":2544716.8900000001,"ADDRESS":"海安路三段４３號","OBJECTID":522057},"geometry":{"x":167888.41000000015,"y":2544716.8900000006}},{"attributes":{"ID":522085,"DIS_CODE":0,"TOWNNAME":"北區","LI":"安民里","LIN":"6鄰","STREET":"海安路","SECT":"三段","MAREA":" ","LANE":" ","ALLEY":" ","HOUSE_NO":"４５號","E_COORD97":167890.97,"N_COORD97":2544720.73,"ADDRESS":"海安路三段４５號","OBJECTID":522058},"geometry":{"x":167890.96999999974,"y":2544720.7300000004}},{"attributes":{"ID":522086,"DIS_CODE":0,"TOWNNAME":"南區","LI":"喜北里","LIN":"6鄰","STREET":"喜樹路","SECT":" ","MAREA":" ","LANE":" ","ALLEY":" ","HOUSE_NO":"８８號","E_COORD97":165870.54000000001,"N_COORD97":2538419.71,"ADDRESS":"喜樹路８８號","OBJECTID":522059},"geometry":{"x":165870.54000000097,"y":2538419.7100000046}},{"attributes":{"ID":522087,"DIS_CODE":0,"TOWNNAME":"新營區","LI":"民權里","LIN":"6鄰","STREET":"民有街","SECT":" ","MAREA":" ","LANE":" ","ALLEY":" ","HOUSE_NO":"３５號","E_COORD97":179877.85999999999,"N_COORD97":2578067.1899999999,"ADDRESS":"民有街３５號","OBJECTID":522060},"geometry":{"x":179877.86000000127,"y":2578067.1899999995}},{"attributes":{"ID":522088,"DIS_CODE":0,"TOWNNAME":"新營區","LI":"王公里","LIN":"6鄰","STREET":"民治路","SECT":" ","MAREA":" ","LANE":" ","ALLEY":" ","HOUSE_NO":"１２之１號","E_COORD97":180396.64000000001,"N_COORD97":2578897.6000000001,"ADDRESS":"民治路１２之１號","OBJECTID":522061},"geometry":{"x":180396.63999999966,"y":2578897.6000000015}},{"attributes":{"ID":522089,"DIS_CODE":0,"TOWNNAME":"安平區","LI":"文平里","LIN":"6鄰","STREET":"永華二街","SECT":" ","MAREA":" ","LANE":" ","ALLEY":" ","HOUSE_NO":"１７５號","E_COORD97":166362.89000000001,"N_COORD97":2543184.1400000001,"ADDRESS":"永華二街１７５號","OBJECTID":522062},"geometry":{"x":166362.8900000006,"y":2543184.1400000025}},{"attributes":{"ID":522090,"DIS_CODE":0,"TOWNNAME":"南區","LI":"喜東里","LIN":"6鄰","STREET":"喜樹路","SECT":" ","MAREA":" ","LANE":" ","ALLEY":" ","HOUSE_NO":"８３號","E_COORD97":165903.67999999999,"N_COORD97":2538329.3199999998,"ADDRESS":"喜樹路８３號","OBJECTID":522063},"geometry":{"x":165903.68000000063,"y":2538329.3200000003}},{"attributes":{"ID":522091,"DIS_CODE":0,"TOWNNAME":"南區","LI":"喜東里","LIN":"6鄰","STREET":"喜樹路","SECT":" ","MAREA":" ","LANE":" ","ALLEY":" ","HOUSE_NO":"１１７號","E_COORD97":165900.64000000001,"N_COORD97":2538241.8399999999,"ADDRESS":"喜樹路１１７號","OBJECTID":522064},"geometry":{"x":165900.63999999966,"y":2538241.8400000017}},{"attributes":{"ID":522092,"DIS_CODE":0,"TOWNNAME":"南區","LI":"喜東里","LIN":"6鄰","STREET":"喜樹路","SECT":" ","MAREA":" ","LANE":" ","ALLEY":" ","HOUSE_NO":"１１７號之２","E_COORD97":165900.54000000001,"N_COORD97":2538238.5800000001,"ADDRESS":"喜樹路１１７號之２","OBJECTID":522065},"geometry":{"x":165900.54000000004,"y":2538238.5800000001}},{"attributes":{"ID":522093,"DIS_CODE":0,"TOWNNAME":"南區","LI":"喜北里","LIN":"6鄰","STREET":"喜樹路","SECT":" ","MAREA":" ","LANE":" ","ALLEY":" ","HOUSE_NO":"９０號","E_COORD97":165871.95999999999,"N_COORD97":2538414.0099999998,"ADDRESS":"喜樹路９０號","OBJECTID":522066},"geometry":{"x":165871.95999999996,"y":2538414.0100000016}},{"attributes":{"ID":522094,"DIS_CODE":0,"TOWNNAME":"南區","LI":"喜東里","LIN":"6鄰","STREET":"喜樹路","SECT":" ","MAREA":" ","LANE":" ","ALLEY":" ","HOUSE_NO":"１０５號","E_COORD97":165903.19,"N_COORD97":2538277.3199999998,"ADDRESS":"喜樹路１０５號","OBJECTID":522067},"geometry":{"x":165903.19000000041,"y":2538277.3200000022}},{"attributes":{"ID":522095,"DIS_CODE":0,"TOWNNAME":"歸仁區","LI":"歸南里","LIN":"6鄰","STREET":"中正十二街","SECT":" ","MAREA":" ","LANE":" ","ALLEY":" ","HOUSE_NO":"３０號","E_COORD97":176652.26000000001,"N_COORD97":2540043.25,"ADDRESS":"中正十二街３０號","OBJECTID":522068},"geometry":{"x":176652.26000000071,"y":2540043.2500000019}},{"attributes":{"ID":522096,"DIS_CODE":0,"TOWNNAME":"歸仁區","LI":"崙頂里","LIN":"6鄰","STREET":"成功八街","SECT":" ","MAREA":" ","LANE":" ","ALLEY":" ","HOUSE_NO":"９１號","E_COORD97":178099.54999999999,"N_COORD97":2540052.6800000002,"ADDRESS":"成功八街９１號","OBJECTID":522069},"geometry":{"x":178099.55000000075,"y":2540052.6800000034}},{"attributes":{"ID":522097,"DIS_CODE":0,"TOWNNAME":"歸仁區","LI":"文化里","LIN":"6鄰","STREET":"文化北街","SECT":" ","MAREA":" ","LANE":" ","ALLEY":" ","HOUSE_NO":"６９號","E_COORD97":177294.06,"N_COORD97":2541395.3399999999,"ADDRESS":"文化北街６９號","OBJECTID":522070},"geometry":{"x":177294.06000000052,"y":2541395.3400000017}},{"attributes":{"ID":522098,"DIS_CODE":0,"TOWNNAME":"歸仁區","LI":"辜厝里","LIN":"6鄰","STREET":"民族南街","SECT":" ","MAREA":" ","LANE":" ","ALLEY":" ","HOUSE_NO":"７５號","E_COORD97":177413.19,"N_COORD97":2540653.5499999998,"ADDRESS":"民族南街７５號","OBJECTID":522071},"geometry":{"x":177413.19000000041,"y":2540653.5500000007}},{"attributes":{"ID":522099,"DIS_CODE":0,"TOWNNAME":"北區","LI":"公園里","LIN":"6鄰","STREET":"北忠街","SECT":" ","MAREA":" ","LANE":" ","ALLEY":" ","HOUSE_NO":"７５號","E_COORD97":169080.31,"N_COORD97":2544388.98,"ADDRESS":"北忠街７５號","OBJECTID":522072},"geometry":{"x":169080.30999999866,"y":2544388.9800000023}},{"attributes":{"ID":522100,"DIS_CODE":0,"TOWNNAME":"北區","LI":"公園里","LIN":"6鄰","STREET":"成功路","SECT":" ","MAREA":" ","LANE":" ","ALLEY":" ","HOUSE_NO":"６號","E_COORD97":169061.72,"N_COORD97":2544241.4700000002,"ADDRESS":"成功路６號","OBJECTID":522073},"geometry":{"x":169061.71999999974,"y":2544241.4700000007}},{"attributes":{"ID":522101,"DIS_CODE":0,"TOWNNAME":"北區","LI":"公園里","LIN":"6鄰","STREET":"富北街","SECT":" ","MAREA":" ","LANE":" ","ALLEY":" ","HOUSE_NO":"７號","E_COORD97":169138.73000000001,"N_COORD97":2544315.8599999999,"ADDRESS":"富北街７號","OBJECTID":522074},"geometry":{"x":169138.73000000045,"y":2544315.8599999994}},{"attributes":{"ID":522102,"DIS_CODE":0,"TOWNNAME":"北區","LI":"公園里","LIN":"6鄰","STREET":"富北街","SECT":" ","MAREA":" ","LANE":" ","ALLEY":" ","HOUSE_NO":"７號之１","E_COORD97":169140.94,"N_COORD97":2544301.46,"ADDRESS":"富北街７號之１","OBJECTID":522075},"geometry":{"x":169140.94000000041,"y":2544301.4600000028}},{"attributes":{"ID":522103,"DIS_CODE":0,"TOWNNAME":"北區","LI":"公園里","LIN":"6鄰","STREET":"富北街","SECT":" ","MAREA":" ","LANE":" ","ALLEY":" ","HOUSE_NO":"９號","E_COORD97":169144.79999999999,"N_COORD97":2544352.6099999999,"ADDRESS":"富北街９號","OBJECTID":522076},"geometry":{"x":169144.79999999981,"y":2544352.6100000013}},{"attributes":{"ID":522104,"DIS_CODE":0,"TOWNNAME":"北區","LI":"公園里","LIN":"6鄰","STREET":"成功路","SECT":" ","MAREA":" ","LANE":" ","ALLEY":" ","HOUSE_NO":"２號","E_COORD97":169158.57999999999,"N_COORD97":2544255.9300000002,"ADDRESS":"成功路２號","OBJECTID":522077},"geometry":{"x":169158.58000000007,"y":2544255.9300000016}},{"attributes":{"ID":522105,"DIS_CODE":0,"TOWNNAME":"北區","LI":"公園里","LIN":"6鄰","STREET":"成功路","SECT":" ","MAREA":" ","LANE":" ","ALLEY":" ","HOUSE_NO":"２號之１","E_COORD97":169136.84,"N_COORD97":2544240.52,"ADDRESS":"成功路２號之１","OBJECTID":522078},"geometry":{"x":169136.84000000078,"y":2544240.5200000033}},{"attributes":{"ID":522106,"DIS_CODE":0,"TOWNNAME":"北區","LI":"公園里","LIN":"6鄰","STREET":"成功路","SECT":" ","MAREA":" ","LANE":" ","ALLEY":" ","HOUSE_NO":"２號之１０","E_COORD97":169120.94,"N_COORD97":2544232.1299999999,"ADDRESS":"成功路２號之１０","OBJECTID":522079},"geometry":{"x":169120.93999999948,"y":2544232.129999999}},{"attributes":{"ID":522107,"DIS_CODE":0,"TOWNNAME":"北區","LI":"公園里","LIN":"6鄰","STREET":"成功路","SECT":" ","MAREA":" ","LANE":" ","ALLEY":" ","HOUSE_NO":"２號之１１","E_COORD97":169121.70000000001,"N_COORD97":2544234.4199999999,"ADDRESS":"成功路２號之１１","OBJECTID":522080},"geometry":{"x":169121.70000000019,"y":2544234.4199999999}},{"attributes":{"ID":522108,"DIS_CODE":0,"TOWNNAME":"北區","LI":"公園里","LIN":"6鄰","STREET":"成功路","SECT":" ","MAREA":" ","LANE":" ","ALLEY":" ","HOUSE_NO":"２號之１２","E_COORD97":169122.31,"N_COORD97":2544237.1600000001,"ADDRESS":"成功路２號之１２","OBJECTID":522081},"geometry":{"x":169122.30999999959,"y":2544237.1600000039}},{"attributes":{"ID":522109,"DIS_CODE":0,"TOWNNAME":"北區","LI":"公園里","LIN":"6鄰","STREET":"成功路","SECT":" ","MAREA":" ","LANE":" ","ALLEY":" ","HOUSE_NO":"２號之１３","E_COORD97":169123.07999999999,"N_COORD97":2544240.52,"ADDRESS":"成功路２號之１３","OBJECTID":522082},"geometry":{"x":169123.07999999914,"y":2544240.5200000033}},{"attributes":{"ID":522110,"DIS_CODE":0,"TOWNNAME":"北區","LI":"公園里","LIN":"6鄰","STREET":"成功路","SECT":" ","MAREA":" ","LANE":" ","ALLEY":" ","HOUSE_NO":"２號之１４","E_COORD97":169124.60999999999,"N_COORD97":2544243.5800000001,"ADDRESS":"成功路２號之１４","OBJECTID":522083},"geometry":{"x":169124.61000000034,"y":2544243.5800000001}},{"attributes":{"ID":522111,"DIS_CODE":0,"TOWNNAME":"北區","LI":"公園里","LIN":"6鄰","STREET":"成功路","SECT":" ","MAREA":" ","LANE":" ","ALLEY":" ","HOUSE_NO":"２號之１５","E_COORD97":169126.14000000001,"N_COORD97":2544246.1699999999,"ADDRESS":"成功路２號之１５","OBJECTID":522084},"geometry":{"x":169126.1400000006,"y":2544246.1699999999}},{"attributes":{"ID":522112,"DIS_CODE":0,"TOWNNAME":"北區","LI":"公園里","LIN":"6鄰","STREET":"成功路","SECT":" ","MAREA":" ","LANE":" ","ALLEY":" ","HOUSE_NO":"２號之１６","E_COORD97":169128.12,"N_COORD97":2544249.0699999998,"ADDRESS":"成功路２號之１６","OBJECTID":522085},"geometry":{"x":169128.12000000197,"y":2544249.0700000022}},{"attributes":{"ID":522113,"DIS_CODE":0,"TOWNNAME":"北區","LI":"公園里","LIN":"6鄰","STREET":"成功路","SECT":" ","MAREA":" ","LANE":" ","ALLEY":" ","HOUSE_NO":"２號之１７","E_COORD97":169129.81,"N_COORD97":2544251.3599999999,"ADDRESS":"成功路２號之１７","OBJECTID":522086},"geometry":{"x":169129.81000000052,"y":2544251.3599999994}},{"attributes":{"ID":522114,"DIS_CODE":0,"TOWNNAME":"北區","LI":"公園里","LIN":"6鄰","STREET":"成功路","SECT":" ","MAREA":" ","LANE":" ","ALLEY":" ","HOUSE_NO":"２號之１８","E_COORD97":169131.03,"N_COORD97":2544253.6499999999,"ADDRESS":"成功路２號之１８","OBJECTID":522087},"geometry":{"x":169131.03000000119,"y":2544253.6500000004}},{"attributes":{"ID":522115,"DIS_CODE":0,"TOWNNAME":"北區","LI":"公園里","LIN":"6鄰","STREET":"成功路","SECT":" ","MAREA":" ","LANE":" ","ALLEY":" ","HOUSE_NO":"２號之１９","E_COORD97":169133.17000000001,"N_COORD97":2544255.6400000001,"ADDRESS":"成功路２號之１９","OBJECTID":522088},"geometry":{"x":169133.17000000086,"y":2544255.6400000025}},{"attributes":{"ID":522116,"DIS_CODE":0,"TOWNNAME":"北區","LI":"公園里","LIN":"6鄰","STREET":"成功路","SECT":" ","MAREA":" ","LANE":" ","ALLEY":" ","HOUSE_NO":"２號之２","E_COORD97":169133.92999999999,"N_COORD97":2544237.77,"ADDRESS":"成功路２號之２","OBJECTID":522089},"geometry":{"x":169133.93000000156,"y":2544237.7699999996}},{"attributes":{"ID":522117,"DIS_CODE":0,"TOWNNAME":"北區","LI":"公園里","LIN":"6鄰","STREET":"成功路","SECT":" ","MAREA":" ","LANE":" ","ALLEY":" ","HOUSE_NO":"２號之２０","E_COORD97":169136.07000000001,"N_COORD97":2544257.4700000002,"ADDRESS":"成功路２號之２０","OBJECTID":522090},"geometry":{"x":169136.07000000123,"y":2544257.4700000007}},{"attributes":{"ID":522118,"DIS_CODE":0,"TOWNNAME":"北區","LI":"公園里","LIN":"6鄰","STREET":"成功路","SECT":" ","MAREA":" ","LANE":" ","ALLEY":" ","HOUSE_NO":"２號之２１","E_COORD97":169123.54000000001,"N_COORD97":2544259,"ADDRESS":"成功路２號之２１","OBJECTID":522091},"geometry":{"x":169123.54000000097,"y":2544259.0000000019}},{"attributes":{"ID":522119,"DIS_CODE":0,"TOWNNAME":"北區","LI":"公園里","LIN":"6鄰","STREET":"成功路","SECT":" ","MAREA":" ","LANE":" ","ALLEY":" ","HOUSE_NO":"２號底一層","E_COORD97":169158.57999999999,"N_COORD97":2544255.9300000002,"ADDRESS":"成功路２號底一層","OBJECTID":522092},"geometry":{"x":169158.58000000007,"y":2544255.9300000016}},{"attributes":{"ID":522120,"DIS_CODE":0,"TOWNNAME":"北區","LI":"公園里","LIN":"6鄰","STREET":"成功路","SECT":" ","MAREA":" ","LANE":" ","ALLEY":" ","HOUSE_NO":"２號底二層","E_COORD97":169158.57999999999,"N_COORD97":2544255.9300000002,"ADDRESS":"成功路２號底二層","OBJECTID":522093},"geometry":{"x":169158.58000000007,"y":2544255.9300000016}},{"attributes":{"ID":522121,"DIS_CODE":0,"TOWNNAME":"北區","LI":"公園里","LIN":"6鄰","STREET":"成功路","SECT":" ","MAREA":" ","LANE":" ","ALLEY":" ","HOUSE_NO":"２號底三層","E_COORD97":169158.57999999999,"N_COORD97":2544255.9300000002,"ADDRESS":"成功路２號底三層","OBJECTID":522094},"geometry":{"x":169158.58000000007,"y":2544255.9300000016}},{"attributes":{"ID":522122,"DIS_CODE":0,"TOWNNAME":"仁德區","LI":"保安里","LIN":" ","STREET":"二行路","SECT":"一段","MAREA":" ","LANE":" ","ALLEY":" ","HOUSE_NO":"５號","E_COORD97":170844.29000000001,"N_COORD97":2535750.5299999998,"ADDRESS":"二行路一段５號","OBJECTID":522095},"geometry":{"x":170844.29000000097,"y":2535750.5299999993}},{"attributes":{"ID":522123,"DIS_CODE":0,"TOWNNAME":"安平區","LI":"育平里","LIN":"6鄰","STREET":"永華路","SECT":"二段","MAREA":" ","LANE":" ","ALLEY":" ","HOUSE_NO":"８４１號","E_COORD97":164697.72,"N_COORD97":2543562.5299999998,"ADDRESS":"永華路二段８４１號","OBJECTID":522096},"geometry":{"x":164697.72000000067,"y":2543562.5300000012}},{"attributes":{"ID":522124,"DIS_CODE":0,"TOWNNAME":"安平區","LI":"育平里","LIN":"6鄰","STREET":"永華路","SECT":"二段","MAREA":" ","LANE":" ","ALLEY":" ","HOUSE_NO":"８４３號","E_COORD97":164690.76000000001,"N_COORD97":2543563.5299999998,"ADDRESS":"永華路二段８４３號","OBJECTID":522097},"geometry":{"x":164690.76000000071,"y":2543563.5300000012}},{"attributes":{"ID":522125,"DIS_CODE":0,"TOWNNAME":"安平區","LI":"育平里","LIN":"6鄰","STREET":"永華路","SECT":"二段","MAREA":" ","LANE":" ","ALLEY":" ","HOUSE_NO":"８４５號","E_COORD97":164681.56,"N_COORD97":2543564.77,"ADDRESS":"永華路二段８４５號","OBJECTID":522098},"geometry":{"x":164681.56000000052,"y":2543564.7700000014}},{"attributes":{"ID":522126,"DIS_CODE":0,"TOWNNAME":"安平區","LI":"育平里","LIN":"6鄰","STREET":"永華路","SECT":"二段","MAREA":" ","LANE":" ","ALLEY":" ","HOUSE_NO":"８４７號","E_COORD97":164673.98000000001,"N_COORD97":2543566.1400000001,"ADDRESS":"永華路二段８４７號","OBJECTID":522099},"geometry":{"x":164673.98000000045,"y":2543566.1400000043}},{"attributes":{"ID":522127,"DIS_CODE":0,"TOWNNAME":"新營區","LI":"王公里","LIN":"6鄰","STREET":"民治路","SECT":" ","MAREA":" ","LANE":" ","ALLEY":" ","HOUSE_NO":"６號之４３","E_COORD97":180569.54000000001,"N_COORD97":2578905.6499999999,"ADDRESS":"民治路６號之４３","OBJECTID":522100},"geometry":{"x":180569.54000000097,"y":2578905.6500000004}},{"attributes":{"ID":522128,"DIS_CODE":0,"TOWNNAME":"新營區","LI":"中營里","LIN":"6鄰","STREET":"新進路","SECT":" ","MAREA":" ","LANE":" ","ALLEY":" ","HOUSE_NO":"７１之１號","E_COORD97":180579.39000000001,"N_COORD97":2578164.7200000002,"ADDRESS":"新進路７１之１號","OBJECTID":522101},"geometry":{"x":180579.38999999966,"y":2578164.7200000044}},{"attributes":{"ID":522129,"DIS_CODE":0,"TOWNNAME":"新營區","LI":"中營里","LIN":"6鄰","STREET":"新進路","SECT":" ","MAREA":" ","LANE":" ","ALLEY":" ","HOUSE_NO":"７５號","E_COORD97":180513.91,"N_COORD97":2578039.8300000001,"ADDRESS":"新進路７５號","OBJECTID":522102},"geometry":{"x":180513.91000000015,"y":2578039.8300000001}},{"attributes":{"ID":522130,"DIS_CODE":0,"TOWNNAME":"新營區","LI":"民權里","LIN":"6鄰","STREET":"博愛街","SECT":" ","MAREA":" ","LANE":" ","ALLEY":" ","HOUSE_NO":"４７號","E_COORD97":179910.92999999999,"N_COORD97":2578141.23,"ADDRESS":"博愛街４７號","OBJECTID":522103},"geometry":{"x":179910.93000000063,"y":2578141.2300000023}},{"attributes":{"ID":522131,"DIS_CODE":0,"TOWNNAME":"新營區","LI":"新南里","LIN":"6鄰","STREET":"長榮路","SECT":"二段","MAREA":" ","LANE":" ","ALLEY":" ","HOUSE_NO":"９３５號","E_COORD97":178265.37,"N_COORD97":2579015.1400000001,"ADDRESS":"長榮路二段９３５號","OBJECTID":522104},"geometry":{"x":178265.37000000104,"y":2579015.1400000006}},{"attributes":{"ID":522132,"DIS_CODE":0,"TOWNNAME":"新營區","LI":"興安里","LIN":"6鄰","STREET":"工業街","SECT":" ","MAREA":" ","LANE":" ","ALLEY":" ","HOUSE_NO":"５５之１１號","E_COORD97":180718.42999999999,"N_COORD97":2577885,"ADDRESS":"工業街５５之１１號","OBJECTID":522105},"geometry":{"x":180718.4299999997,"y":2577885.0000000019}},{"attributes":{"ID":522133,"DIS_CODE":0,"TOWNNAME":"歸仁區","LI":"六甲里","LIN":"6鄰","STREET":"中正十五街","SECT":" ","MAREA":" ","LANE":" ","ALLEY":" ","HOUSE_NO":"４９號","E_COORD97":176457.60999999999,"N_COORD97":2539514.25,"ADDRESS":"中正十五街４９號","OBJECTID":522106},"geometry":{"x":176457.61000000034,"y":2539514.2500000019}},{"attributes":{"ID":522134,"DIS_CODE":0,"TOWNNAME":"柳營區","LI":"中埕里","LIN":"6鄰","STREET":"福中街","SECT":" ","MAREA":" ","LANE":" ","ALLEY":" ","HOUSE_NO":"３０號","E_COORD97":179847.73999999999,"N_COORD97":2575185.27,"ADDRESS":"福中街３０號","OBJECTID":522107},"geometry":{"x":179847.74000000209,"y":2575185.2699999996}},{"attributes":{"ID":522135,"DIS_CODE":0,"TOWNNAME":"柳營區","LI":"中埕里","LIN":"6鄰","STREET":"福中街","SECT":" ","MAREA":" ","LANE":" ","ALLEY":" ","HOUSE_NO":"３２號","E_COORD97":179846.35999999999,"N_COORD97":2575192.46,"ADDRESS":"福中街３２號","OBJECTID":522108},"geometry":{"x":179846.36000000034,"y":2575192.4600000009}},{"attributes":{"ID":522136,"DIS_CODE":0,"TOWNNAME":"柳營區","LI":"中埕里","LIN":"6鄰","STREET":"福中街","SECT":" ","MAREA":" ","LANE":" ","ALLEY":" ","HOUSE_NO":"３６號","E_COORD97":179845.13,"N_COORD97":2575196.96,"ADDRESS":"福中街３６號","OBJECTID":522109},"geometry":{"x":179845.13000000082,"y":2575196.9600000028}},{"attributes":{"ID":522137,"DIS_CODE":0,"TOWNNAME":"柳營區","LI":"光福里","LIN":"6鄰","STREET":"福安一街","SECT":" ","MAREA":" ","LANE":" ","ALLEY":" ","HOUSE_NO":"２２號","E_COORD97":179746.69,"N_COORD97":2575145.7400000002,"ADDRESS":"福安一街２２號","OBJECTID":522110},"geometry":{"x":179746.69000000134,"y":2575145.7400000002}},{"attributes":{"ID":522138,"DIS_CODE":0,"TOWNNAME":"柳營區","LI":"光福里","LIN":"6鄰","STREET":"福安一街","SECT":" ","MAREA":" ","LANE":" ","ALLEY":" ","HOUSE_NO":"２５號","E_COORD97":179734.39999999999,"N_COORD97":2575125.4399999999,"ADDRESS":"福安一街２５號","OBJECTID":522111},"geometry":{"x":179734.40000000037,"y":2575125.4400000013}},{"attributes":{"ID":522139,"DIS_CODE":0,"TOWNNAME":"北區","LI":"興南里","LIN":"6鄰","STREET":"公園北路","SECT":" ","MAREA":" ","LANE":" ","ALLEY":" ","HOUSE_NO":"１３５號","E_COORD97":169057.95000000001,"N_COORD97":2544995.1899999999,"ADDRESS":"公園北路１３５號","OBJECTID":522112},"geometry":{"x":169057.94999999925,"y":2544995.1899999976}},{"attributes":{"ID":522140,"DIS_CODE":0,"TOWNNAME":"北區","LI":"興南里","LIN":"6鄰","STREET":"公園北路","SECT":" ","MAREA":" ","LANE":" ","ALLEY":" ","HOUSE_NO":"１３７號","E_COORD97":169054.5,"N_COORD97":2544995.8100000001,"ADDRESS":"公園北路１３７號","OBJECTID":522113},"geometry":{"x":169054.50000000093,"y":2544995.8100000042}},{"attributes":{"ID":522141,"DIS_CODE":0,"TOWNNAME":"北區","LI":"興南里","LIN":"6鄰","STREET":"公園北路","SECT":" ","MAREA":" ","LANE":" ","ALLEY":" ","HOUSE_NO":"１３９號","E_COORD97":169050.26000000001,"N_COORD97":2544996.2799999998,"ADDRESS":"公園北路１３９號","OBJECTID":522114},"geometry":{"x":169050.25999999978,"y":2544996.2800000012}},{"attributes":{"ID":522142,"DIS_CODE":0,"TOWNNAME":"北區","LI":"興南里","LIN":"6鄰","STREET":"公園北路","SECT":" ","MAREA":" ","LANE":" ","ALLEY":" ","HOUSE_NO":"１３９號之１","E_COORD97":169051.88,"N_COORD97":2544987.6000000001,"ADDRESS":"公園北路１３９號之１","OBJECTID":522115},"geometry":{"x":169051.88000000082,"y":2544987.6000000015}},{"attributes":{"ID":522143,"DIS_CODE":0,"TOWNNAME":"北區","LI":"興南里","LIN":"6鄰","STREET":"公園北路","SECT":" ","MAREA":" ","LANE":" ","ALLEY":" ","HOUSE_NO":"１３９號之２","E_COORD97":169051.54999999999,"N_COORD97":2544983.4100000001,"ADDRESS":"公園北路１３９號之２","OBJECTID":522116},"geometry":{"x":169051.54999999981,"y":2544983.4100000001}},{"attributes":{"ID":522144,"DIS_CODE":0,"TOWNNAME":"北區","LI":"興南里","LIN":"6鄰","STREET":"公園北路","SECT":" ","MAREA":" ","LANE":" ","ALLEY":" ","HOUSE_NO":"１４１號","E_COORD97":169036.60000000001,"N_COORD97":2544995.6600000001,"ADDRESS":"公園北路１４１號","OBJECTID":522117},"geometry":{"x":169036.60000000056,"y":2544995.6600000001}},{"attributes":{"ID":522145,"DIS_CODE":0,"TOWNNAME":"北區","LI":"興南里","LIN":"6鄰","STREET":"公園北路","SECT":" ","MAREA":" ","LANE":" ","ALLEY":" ","HOUSE_NO":"１４３號","E_COORD97":169022.79000000001,"N_COORD97":2544998.48,"ADDRESS":"公園北路１４３號","OBJECTID":522118},"geometry":{"x":169022.79000000004,"y":2544998.4800000023}},{"attributes":{"ID":522146,"DIS_CODE":0,"TOWNNAME":"北區","LI":"興南里","LIN":"6鄰","STREET":"公園北路","SECT":" ","MAREA":" ","LANE":" ","ALLEY":" ","HOUSE_NO":"１４５號","E_COORD97":169008.19,"N_COORD97":2545000.8300000001,"ADDRESS":"公園北路１４５號","OBJECTID":522119},"geometry":{"x":169008.19000000134,"y":2545000.8300000001}},{"attributes":{"ID":522147,"DIS_CODE":0,"TOWNNAME":"北區","LI":"興南里","LIN":"6鄰","STREET":"公園北路","SECT":" ","MAREA":" ","LANE":" ","ALLEY":" ","HOUSE_NO":"１４７號","E_COORD97":168997.04999999999,"N_COORD97":2545004.2799999998,"ADDRESS":"公園北路１４７號","OBJECTID":522120},"geometry":{"x":168997.04999999981,"y":2545004.2799999993}},{"attributes":{"ID":522148,"DIS_CODE":0,"TOWNNAME":"南區","LI":"建南里","LIN":"6鄰","STREET":"德興路","SECT":" ","MAREA":" ","LANE":" ","ALLEY":" ","HOUSE_NO":"３２１號","E_COORD97":167230.67000000001,"N_COORD97":2539857.1099999999,"ADDRESS":"德興路３２１號","OBJECTID":522121},"geometry":{"x":167230.67000000179,"y":2539857.1100000013}},{"attributes":{"ID":522149,"DIS_CODE":0,"TOWNNAME":"北區","LI":"興南里","LIN":"6鄰","STREET":"公園北路","SECT":" ","MAREA":" ","LANE":" ","ALLEY":" ","HOUSE_NO":"１４９號","E_COORD97":168986.06,"N_COORD97":2545006.3199999998,"ADDRESS":"公園北路１４９號","OBJECTID":522122},"geometry":{"x":168986.06000000052,"y":2545006.3200000022}},{"attributes":{"ID":522150,"DIS_CODE":0,"TOWNNAME":"北區","LI":"興南里","LIN":"6鄰","STREET":"公園北路","SECT":" ","MAREA":" ","LANE":" ","ALLEY":" ","HOUSE_NO":"１５３號","E_COORD97":168948.07000000001,"N_COORD97":2545004.1299999999,"ADDRESS":"公園北路１５３號","OBJECTID":522123},"geometry":{"x":168948.0700000003,"y":2545004.129999999}},{"attributes":{"ID":522151,"DIS_CODE":0,"TOWNNAME":"北區","LI":"興南里","LIN":"6鄰","STREET":"公園北路","SECT":" ","MAREA":" ","LANE":" ","ALLEY":" ","HOUSE_NO":"１５５號","E_COORD97":168962.67000000001,"N_COORD97":2545002.5600000001,"ADDRESS":"公園北路１５５號","OBJECTID":522124},"geometry":{"x":168962.66999999993,"y":2545002.5600000005}},{"attributes":{"ID":522152,"DIS_CODE":0,"TOWNNAME":"北區","LI":"興南里","LIN":"6鄰","STREET":"公園北路","SECT":" ","MAREA":" ","LANE":" ","ALLEY":" ","HOUSE_NO":"１５７號","E_COORD97":168969.10999999999,"N_COORD97":2545017.2999999998,"ADDRESS":"公園北路１５７號","OBJECTID":522125},"geometry":{"x":168969.11000000127,"y":2545017.3000000026}},{"attributes":{"ID":522153,"DIS_CODE":0,"TOWNNAME":"北區","LI":"興南里","LIN":"6鄰","STREET":"公園北路","SECT":" ","MAREA":" ","LANE":" ","ALLEY":" ","HOUSE_NO":"１５９號","E_COORD97":168965.81,"N_COORD97":2545018.5499999998,"ADDRESS":"公園北路１５９號","OBJECTID":522126},"geometry":{"x":168965.81000000052,"y":2545018.5500000026}},{"attributes":{"ID":522154,"DIS_CODE":0,"TOWNNAME":"北區","LI":"興南里","LIN":"6鄰","STREET":"公園北路","SECT":" ","MAREA":" ","LANE":" ","ALLEY":" ","HOUSE_NO":"１６１號","E_COORD97":168962.20000000001,"N_COORD97":2545019.3399999999,"ADDRESS":"公園北路１６１號","OBJECTID":522127},"geometry":{"x":168962.20000000112,"y":2545019.3400000017}},{"attributes":{"ID":522155,"DIS_CODE":0,"TOWNNAME":"北區","LI":"興南里","LIN":"6鄰","STREET":"公園北路","SECT":" ","MAREA":" ","LANE":" ","ALLEY":" ","HOUSE_NO":"１６９號","E_COORD97":168943.82999999999,"N_COORD97":2545021.0600000001,"ADDRESS":"公園北路１６９號","OBJECTID":522128},"geometry":{"x":168943.83000000101,"y":2545021.0600000042}},{"attributes":{"ID":522156,"DIS_CODE":0,"TOWNNAME":"北區","LI":"興南里","LIN":"6鄰","STREET":"公園北路","SECT":" ","MAREA":" ","LANE":" ","ALLEY":" ","HOUSE_NO":"１７１號","E_COORD97":168939.13,"N_COORD97":2545022.3199999998,"ADDRESS":"公園北路１７１號","OBJECTID":522129},"geometry":{"x":168939.12999999989,"y":2545022.3199999984}},{"attributes":{"ID":522157,"DIS_CODE":0,"TOWNNAME":"北區","LI":"興南里","LIN":"6鄰","STREET":"公園北路","SECT":" ","MAREA":" ","LANE":" ","ALLEY":" ","HOUSE_NO":"１７３號","E_COORD97":168936.14000000001,"N_COORD97":2545023.2599999998,"ADDRESS":"公園北路１７３號","OBJECTID":522130},"geometry":{"x":168936.1400000006,"y":2545023.2600000016}},{"attributes":{"ID":522158,"DIS_CODE":0,"TOWNNAME":"北區","LI":"興南里","LIN":"6鄰","STREET":"公園北路","SECT":" ","MAREA":" ","LANE":" ","ALLEY":" ","HOUSE_NO":"１７５號","E_COORD97":168932.69,"N_COORD97":2545024.6699999999,"ADDRESS":"公園北路１７５號","OBJECTID":522131},"geometry":{"x":168932.69000000041,"y":2545024.6700000018}},{"attributes":{"ID":522159,"DIS_CODE":0,"TOWNNAME":"北區","LI":"興南里","LIN":"6鄰","STREET":"公園北路","SECT":" ","MAREA":" ","LANE":" ","ALLEY":" ","HOUSE_NO":"１７７號","E_COORD97":168928.92000000001,"N_COORD97":2545024.9900000002,"ADDRESS":"公園北路１７７號","OBJECTID":522132},"geometry":{"x":168928.91999999993,"y":2545024.9900000021}},{"attributes":{"ID":522160,"DIS_CODE":0,"TOWNNAME":"北區","LI":"興南里","LIN":"6鄰","STREET":"公園北路","SECT":" ","MAREA":" ","LANE":" ","ALLEY":" ","HOUSE_NO":"１７９號","E_COORD97":168925.31,"N_COORD97":2545025.77,"ADDRESS":"公園北路１７９號","OBJECTID":522133},"geometry":{"x":168925.30999999959,"y":2545025.7700000014}},{"attributes":{"ID":522161,"DIS_CODE":0,"TOWNNAME":"北區","LI":"興南里","LIN":"6鄰","STREET":"公園北路","SECT":" ","MAREA":" ","LANE":" ","ALLEY":" ","HOUSE_NO":"１８１號","E_COORD97":168920.60000000001,"N_COORD97":2545027.8100000001,"ADDRESS":"公園北路１８１號","OBJECTID":522134},"geometry":{"x":168920.59999999963,"y":2545027.8100000024}},{"attributes":{"ID":522162,"DIS_CODE":0,"TOWNNAME":"北區","LI":"興南里","LIN":"6鄰","STREET":"公園北路","SECT":" ","MAREA":" ","LANE":" ","ALLEY":" ","HOUSE_NO":"１８３號","E_COORD97":168916.04999999999,"N_COORD97":2545029.0600000001,"ADDRESS":"公園北路１８３號","OBJECTID":522135},"geometry":{"x":168916.04999999981,"y":2545029.0600000024}},{"attributes":{"ID":522163,"DIS_CODE":0,"TOWNNAME":"北區","LI":"興南里","LIN":"6鄰","STREET":"公園北路","SECT":" ","MAREA":" ","LANE":" ","ALLEY":" ","HOUSE_NO":"１８５號","E_COORD97":168911.5,"N_COORD97":2545030.79,"ADDRESS":"公園北路１８５號","OBJECTID":522136},"geometry":{"x":168911.5,"y":2545030.7899999991}},{"attributes":{"ID":522164,"DIS_CODE":0,"TOWNNAME":"北區","LI":"興南里","LIN":"6鄰","STREET":"公園北路","SECT":" ","MAREA":" ","LANE":" ","ALLEY":" ","HOUSE_NO":"１８７號","E_COORD97":168907.73000000001,"N_COORD97":2545031.4199999999,"ADDRESS":"公園北路１８７號","OBJECTID":522137},"geometry":{"x":168907.73000000138,"y":2545031.4199999981}},{"attributes":{"ID":522165,"DIS_CODE":0,"TOWNNAME":"北區","LI":"興南里","LIN":"6鄰","STREET":"公園北路","SECT":" ","MAREA":" ","LANE":" ","ALLEY":" ","HOUSE_NO":"１８９號","E_COORD97":168903.95999999999,"N_COORD97":2545031.8900000001,"ADDRESS":"公園北路１８９號","OBJECTID":522138},"geometry":{"x":168903.96000000089,"y":2545031.8900000006}},{"attributes":{"ID":522166,"DIS_CODE":0,"TOWNNAME":"北區","LI":"興南里","LIN":"6鄰","STREET":"公園北路","SECT":" ","MAREA":" ","LANE":" ","ALLEY":" ","HOUSE_NO":"１９１號","E_COORD97":168900.67000000001,"N_COORD97":2545032.3599999999,"ADDRESS":"公園北路１９１號","OBJECTID":522139},"geometry":{"x":168900.67000000086,"y":2545032.3600000013}},{"attributes":{"ID":522167,"DIS_CODE":0,"TOWNNAME":"北區","LI":"興南里","LIN":"6鄰","STREET":"公園北路","SECT":" ","MAREA":" ","LANE":" ","ALLEY":" ","HOUSE_NO":"１９３號","E_COORD97":168896.59,"N_COORD97":2545032.8300000001,"ADDRESS":"公園北路１９３號","OBJECTID":522140},"geometry":{"x":168896.58999999985,"y":2545032.8300000019}},{"attributes":{"ID":522168,"DIS_CODE":0,"TOWNNAME":"歸仁區","LI":"文化里","LIN":"6鄰","STREET":"民權一街","SECT":" ","MAREA":" ","LANE":" ","ALLEY":" ","HOUSE_NO":"９５號","E_COORD97":177308.14999999999,"N_COORD97":2541353.3300000001,"ADDRESS":"民權一街９５號","OBJECTID":522141},"geometry":{"x":177308.1500000013,"y":2541353.3300000001}},{"attributes":{"ID":522169,"DIS_CODE":0,"TOWNNAME":"新營區","LI":"延平里","LIN":"6鄰","STREET":"復興路","SECT":" ","MAREA":" ","LANE":" ","ALLEY":" ","HOUSE_NO":"１之６９號","E_COORD97":179713.92999999999,"N_COORD97":2577935.1299999999,"ADDRESS":"復興路１之６９號","OBJECTID":522142},"geometry":{"x":179713.93000000063,"y":2577935.129999999}},{"attributes":{"ID":522170,"DIS_CODE":0,"TOWNNAME":"安平區","LI":"平安里","LIN":"6鄰","STREET":"安平路","SECT":" ","MAREA":" ","LANE":" ","ALLEY":" ","HOUSE_NO":"３５４號","E_COORD97":165576.94,"N_COORD97":2544339.0899999999,"ADDRESS":"安平路３５４號","OBJECTID":522143},"geometry":{"x":165576.94000000134,"y":2544339.0900000017}},{"attributes":{"ID":522171,"DIS_CODE":0,"TOWNNAME":"安平區","LI":"平安里","LIN":"6鄰","STREET":"安平路","SECT":" ","MAREA":" ","LANE":" ","ALLEY":" ","HOUSE_NO":"３５６號","E_COORD97":165571.76000000001,"N_COORD97":2544339.23,"ADDRESS":"安平路３５６號","OBJECTID":522144},"geometry":{"x":165571.75999999885,"y":2544339.2300000023}},{"attributes":{"ID":522172,"DIS_CODE":0,"TOWNNAME":"安平區","LI":"平安里","LIN":"6鄰","STREET":"安平路","SECT":" ","MAREA":" ","LANE":" ","ALLEY":" ","HOUSE_NO":"３５８號","E_COORD97":165567.14000000001,"N_COORD97":2544339.1600000001,"ADDRESS":"安平路３５８號","OBJECTID":522145},"geometry":{"x":165567.13999999966,"y":2544339.160000002}},{"attributes":{"ID":522173,"DIS_CODE":0,"TOWNNAME":"安平區","LI":"平安里","LIN":"6鄰","STREET":"安平路","SECT":" ","MAREA":" ","LANE":" ","ALLEY":" ","HOUSE_NO":"３６０號","E_COORD97":165562.37,"N_COORD97":2544339.1600000001,"ADDRESS":"安平路３６０號","OBJECTID":522146},"geometry":{"x":165562.37000000011,"y":2544339.160000002}},{"attributes":{"ID":522174,"DIS_CODE":0,"TOWNNAME":"安平區","LI":"平安里","LIN":"6鄰","STREET":"安平路","SECT":" ","MAREA":" ","LANE":" ","ALLEY":" ","HOUSE_NO":"３７８號","E_COORD97":165479.04999999999,"N_COORD97":2544333.1800000002,"ADDRESS":"安平路３７８號","OBJECTID":522147},"geometry":{"x":165479.05000000075,"y":2544333.1799999997}},{"attributes":{"ID":522175,"DIS_CODE":0,"TOWNNAME":"安平區","LI":"平安里","LIN":"6鄰","STREET":"安平路","SECT":" ","MAREA":" ","LANE":" ","ALLEY":" ","HOUSE_NO":"３８０號","E_COORD97":165474.60999999999,"N_COORD97":2544332.3900000001,"ADDRESS":"安平路３８０號","OBJECTID":522148},"geometry":{"x":165474.61000000034,"y":2544332.3900000025}},{"attributes":{"ID":522176,"DIS_CODE":0,"TOWNNAME":"安平區","LI":"平安里","LIN":"6鄰","STREET":"安平路","SECT":" ","MAREA":" ","LANE":" ","ALLEY":" ","HOUSE_NO":"３８２號","E_COORD97":165469.53,"N_COORD97":2544332.5499999998,"ADDRESS":"安平路３８２號","OBJECTID":522149},"geometry":{"x":165469.53000000119,"y":2544332.5500000007}},{"attributes":{"ID":522177,"DIS_CODE":0,"TOWNNAME":"安平區","LI":"平安里","LIN":"6鄰","STREET":"安平路","SECT":" ","MAREA":" ","LANE":" ","ALLEY":" ","HOUSE_NO":"３８４號","E_COORD97":165464.92000000001,"N_COORD97":2544332.3900000001,"ADDRESS":"安平路３８４號","OBJECTID":522150},"geometry":{"x":165464.92000000086,"y":2544332.3900000025}},{"attributes":{"ID":522178,"DIS_CODE":0,"TOWNNAME":"安平區","LI":"平安里","LIN":"6鄰","STREET":"安平路","SECT":" ","MAREA":" ","LANE":" ","ALLEY":" ","HOUSE_NO":"３８６號","E_COORD97":165460.16,"N_COORD97":2544331.75,"ADDRESS":"安平路３８６號","OBJECTID":522151},"geometry":{"x":165460.16000000108,"y":2544331.7500000019}},{"attributes":{"ID":522179,"DIS_CODE":0,"TOWNNAME":"安平區","LI":"平安里","LIN":"6鄰","STREET":"安平路","SECT":" ","MAREA":" ","LANE":" ","ALLEY":" ","HOUSE_NO":"３８８號","E_COORD97":165455.23999999999,"N_COORD97":2544331.4399999999,"ADDRESS":"安平路３８８號","OBJECTID":522152},"geometry":{"x":165455.24000000022,"y":2544331.4399999995}},{"attributes":{"ID":522180,"DIS_CODE":0,"TOWNNAME":"安平區","LI":"平安里","LIN":"6鄰","STREET":"安平路","SECT":" ","MAREA":" ","LANE":" ","ALLEY":" ","HOUSE_NO":"４００號","E_COORD97":165426.82000000001,"N_COORD97":2544327.6299999999,"ADDRESS":"安平路４００號","OBJECTID":522153},"geometry":{"x":165426.82000000123,"y":2544327.6300000027}},{"attributes":{"ID":522181,"DIS_CODE":0,"TOWNNAME":"安平區","LI":"平安里","LIN":"6鄰","STREET":"安平路","SECT":" ","MAREA":" ","LANE":" ","ALLEY":" ","HOUSE_NO":"４０２號","E_COORD97":165420.44,"N_COORD97":2544326.4100000001,"ADDRESS":"安平路４０２號","OBJECTID":522154},"geometry":{"x":165420.44000000227,"y":2544326.4100000001}},{"attributes":{"ID":522182,"DIS_CODE":0,"TOWNNAME":"安平區","LI":"平安里","LIN":"6鄰","STREET":"安平路","SECT":" ","MAREA":" ","LANE":" ","ALLEY":" ","HOUSE_NO":"４０４號","E_COORD97":165414.84,"N_COORD97":2544325.79,"ADDRESS":"安平路４０４號","OBJECTID":522155},"geometry":{"x":165414.83999999985,"y":2544325.7899999991}},{"attributes":{"ID":522183,"DIS_CODE":0,"TOWNNAME":"新營區","LI":"新北里","LIN":"6鄰","STREET":"三興街","SECT":" ","MAREA":" ","LANE":" ","ALLEY":" ","HOUSE_NO":"１８５號","E_COORD97":179371.67999999999,"N_COORD97":2579571.3100000001,"ADDRESS":"三興街１８５號","OBJECTID":522156},"geometry":{"x":179371.68000000063,"y":2579571.3100000024}},{"attributes":{"ID":522184,"DIS_CODE":0,"TOWNNAME":"北區","LI":"元寶里","LIN":"6鄰","STREET":"北園街","SECT":" ","MAREA":" ","LANE":" ","ALLEY":" ","HOUSE_NO":"２８之１號","E_COORD97":170374.35999999999,"N_COORD97":2545699.73,"ADDRESS":"北園街２８之１號","OBJECTID":522157},"geometry":{"x":170374.3600000022,"y":2545699.7300000004}},{"attributes":{"ID":522185,"DIS_CODE":0,"TOWNNAME":"北區","LI":"元寶里","LIN":"6鄰","STREET":"北園街","SECT":" ","MAREA":" ","LANE":" ","ALLEY":" ","HOUSE_NO":"２８之２號","E_COORD97":170373.01000000001,"N_COORD97":2545703.77,"ADDRESS":"北園街２８之２號","OBJECTID":522158},"geometry":{"x":170373.01000000071,"y":2545703.7700000033}},{"attributes":{"ID":522186,"DIS_CODE":0,"TOWNNAME":"北區","LI":"元寶里","LIN":"6鄰","STREET":"北園街","SECT":" ","MAREA":" ","LANE":" ","ALLEY":" ","HOUSE_NO":"２８之３號","E_COORD97":170373.45999999999,"N_COORD97":2545708.9399999999,"ADDRESS":"北園街２８之３號","OBJECTID":522159},"geometry":{"x":170373.46000000089,"y":2545708.9399999976}},{"attributes":{"ID":522187,"DIS_CODE":0,"TOWNNAME":"鹽水區","LI":"武廟里","LIN":"6鄰","STREET":"武廟路","SECT":" ","MAREA":" ","LANE":" ","ALLEY":" ","HOUSE_NO":"５２號","E_COORD97":174923.51000000001,"N_COORD97":2580142.96,"ADDRESS":"武廟路５２號","OBJECTID":522160},"geometry":{"x":174923.50999999978,"y":2580142.959999999}},{"attributes":{"ID":522188,"DIS_CODE":0,"TOWNNAME":"鹽水區","LI":"武廟里","LIN":"6鄰","STREET":"武廟路","SECT":" ","MAREA":" ","LANE":" ","ALLEY":" ","HOUSE_NO":"５４號","E_COORD97":174923.59,"N_COORD97":2580149.9500000002,"ADDRESS":"武廟路５４號","OBJECTID":522161},"geometry":{"x":174923.58999999985,"y":2580149.9500000011}},{"attributes":{"ID":522189,"DIS_CODE":0,"TOWNNAME":"鹽水區","LI":"武廟里","LIN":"6鄰","STREET":"武廟路","SECT":" ","MAREA":" ","LANE":" ","ALLEY":" ","HOUSE_NO":"５６號","E_COORD97":174923.95000000001,"N_COORD97":2580154.75,"ADDRESS":"武廟路５６號","OBJECTID":522162},"geometry":{"x":174923.95000000112,"y":2580154.7500000019}},{"attributes":{"ID":522190,"DIS_CODE":0,"TOWNNAME":"鹽水區","LI":"武廟里","LIN":"6鄰","STREET":"武廟路","SECT":" ","MAREA":" ","LANE":" ","ALLEY":" ","HOUSE_NO":"５８號","E_COORD97":174941.28,"N_COORD97":2580157.9500000002,"ADDRESS":"武廟路５８號","OBJECTID":522163},"geometry":{"x":174941.28000000026,"y":2580157.9499999993}},{"attributes":{"ID":522191,"DIS_CODE":0,"TOWNNAME":"鹽水區","LI":"武廟里","LIN":"6鄰","STREET":"武廟路","SECT":" ","MAREA":" ","LANE":" ","ALLEY":" ","HOUSE_NO":"６０號","E_COORD97":174930.32000000001,"N_COORD97":2580163.3999999999,"ADDRESS":"武廟路６０號","OBJECTID":522164},"geometry":{"x":174930.32000000123,"y":2580163.4000000041}},{"attributes":{"ID":522192,"DIS_CODE":0,"TOWNNAME":"安平區","LI":"漁光里","LIN":"6鄰","STREET":"漁光路","SECT":" ","MAREA":" ","LANE":" ","ALLEY":" ","HOUSE_NO":"１４１號","E_COORD97":163827.06,"N_COORD97":2542050.3799999999,"ADDRESS":"漁光路１４１號","OBJECTID":522165},"geometry":{"x":163827.06000000145,"y":2542050.379999999}},{"attributes":{"ID":522193,"DIS_CODE":0,"TOWNNAME":"安平區","LI":"平通里","LIN":"6鄰","STREET":"慶平路","SECT":" ","MAREA":" ","LANE":" ","ALLEY":" ","HOUSE_NO":"５４１號","E_COORD97":165020.04999999999,"N_COORD97":2544227.3599999999,"ADDRESS":"慶平路５４１號","OBJECTID":522166},"geometry":{"x":165020.04999999981,"y":2544227.3599999994}},{"attributes":{"ID":522194,"DIS_CODE":0,"TOWNNAME":"安平區","LI":"平通里","LIN":"6鄰","STREET":"慶平路","SECT":" ","MAREA":" ","LANE":" ","ALLEY":" ","HOUSE_NO":"５４３號","E_COORD97":165015.04999999999,"N_COORD97":2544228.2799999998,"ADDRESS":"慶平路５４３號","OBJECTID":522167},"geometry":{"x":165015.04999999981,"y":2544228.2799999975}},{"attributes":{"ID":522195,"DIS_CODE":0,"TOWNNAME":"安平區","LI":"平通里","LIN":"6鄰","STREET":"慶平路","SECT":" ","MAREA":" ","LANE":" ","ALLEY":" ","HOUSE_NO":"５４５號","E_COORD97":165010.29000000001,"N_COORD97":2544229.2400000002,"ADDRESS":"慶平路５４５號","OBJECTID":522168},"geometry":{"x":165010.29000000004,"y":2544229.2400000002}},{"attributes":{"ID":522196,"DIS_CODE":0,"TOWNNAME":"安平區","LI":"平通里","LIN":"6鄰","STREET":"慶平路","SECT":" ","MAREA":" ","LANE":" ","ALLEY":" ","HOUSE_NO":"５４７號","E_COORD97":165005.42999999999,"N_COORD97":2544230.1200000001,"ADDRESS":"慶平路５４７號","OBJECTID":522169},"geometry":{"x":165005.4299999997,"y":2544230.120000001}},{"attributes":{"ID":522197,"DIS_CODE":0,"TOWNNAME":"安平區","LI":"平通里","LIN":"6鄰","STREET":"慶平路","SECT":" ","MAREA":" ","LANE":" ","ALLEY":" ","HOUSE_NO":"５４９號","E_COORD97":164999.79000000001,"N_COORD97":2544230.9700000002,"ADDRESS":"慶平路５４９號","OBJECTID":522170},"geometry":{"x":164999.79000000097,"y":2544230.9700000007}},{"attributes":{"ID":522198,"DIS_CODE":0,"TOWNNAME":"安平區","LI":"平通里","LIN":"6鄰","STREET":"慶平路","SECT":" ","MAREA":" ","LANE":" ","ALLEY":" ","HOUSE_NO":"５５１號","E_COORD97":164995.85000000001,"N_COORD97":2544232.1600000001,"ADDRESS":"慶平路５５１號","OBJECTID":522171},"geometry":{"x":164995.84999999963,"y":2544232.1600000001}},{"attributes":{"ID":522199,"DIS_CODE":0,"TOWNNAME":"安平區","LI":"平通里","LIN":"6鄰","STREET":"慶平路","SECT":" ","MAREA":" ","LANE":" ","ALLEY":" ","HOUSE_NO":"５５３號","E_COORD97":164991.54000000001,"N_COORD97":2544233.4700000002,"ADDRESS":"慶平路５５３號","OBJECTID":522172},"geometry":{"x":164991.54000000004,"y":2544233.4700000025}},{"attributes":{"ID":522200,"DIS_CODE":0,"TOWNNAME":"安平區","LI":"平通里","LIN":"6鄰","STREET":"慶平路","SECT":" ","MAREA":" ","LANE":" ","ALLEY":" ","HOUSE_NO":"５５５號","E_COORD97":164987.92000000001,"N_COORD97":2544234.5,"ADDRESS":"慶平路５５５號","OBJECTID":522173},"geometry":{"x":164987.92000000179,"y":2544234.5000000037}},{"attributes":{"ID":522201,"DIS_CODE":0,"TOWNNAME":"安平區","LI":"平通里","LIN":"6鄰","STREET":"慶平路","SECT":" ","MAREA":" ","LANE":" ","ALLEY":" ","HOUSE_NO":"５５５號之１","E_COORD97":164878.35000000001,"N_COORD97":2544246.6699999999,"ADDRESS":"慶平路５５５號之１","OBJECTID":522174},"geometry":{"x":164878.35000000056,"y":2544246.6700000037}},{"attributes":{"ID":522202,"DIS_CODE":0,"TOWNNAME":"安平區","LI":"平通里","LIN":"6鄰","STREET":"慶平路","SECT":" ","MAREA":" ","LANE":" ","ALLEY":" ","HOUSE_NO":"５５５號之２","E_COORD97":164877.85999999999,"N_COORD97":2544243.6200000001,"ADDRESS":"慶平路５５５號之２","OBJECTID":522175},"geometry":{"x":164877.86000000034,"y":2544243.620000001}},{"attributes":{"ID":522203,"DIS_CODE":0,"TOWNNAME":"安平區","LI":"平通里","LIN":"6鄰","STREET":"慶平路","SECT":" ","MAREA":" ","LANE":" ","ALLEY":" ","HOUSE_NO":"５５５號之３","E_COORD97":164877.54000000001,"N_COORD97":2544240.0899999999,"ADDRESS":"慶平路５５５號之３","OBJECTID":522176},"geometry":{"x":164877.54000000097,"y":2544240.0899999999}},{"attributes":{"ID":522204,"DIS_CODE":0,"TOWNNAME":"安平區","LI":"漁光里","LIN":"6鄰","STREET":"漁光路","SECT":" ","MAREA":" ","LANE":" ","ALLEY":" ","HOUSE_NO":"７０號","E_COORD97":163860.89999999999,"N_COORD97":2542098.3100000001,"ADDRESS":"漁光路７０號","OBJECTID":522177},"geometry":{"x":163860.90000000037,"y":2542098.3100000024}},{"attributes":{"ID":522205,"DIS_CODE":0,"TOWNNAME":"安平區","LI":"漁光里","LIN":"6鄰","STREET":"漁光路","SECT":" ","MAREA":" ","LANE":" ","ALLEY":" ","HOUSE_NO":"６６號","E_COORD97":163859.76000000001,"N_COORD97":2542064.0800000001,"ADDRESS":"漁光路６６號","OBJECTID":522178},"geometry":{"x":163859.76000000164,"y":2542064.0800000038}},{"attributes":{"ID":522206,"DIS_CODE":0,"TOWNNAME":"安平區","LI":"港仔里","LIN":"6鄰","STREET":"安平路","SECT":" ","MAREA":" ","LANE":" ","ALLEY":" ","HOUSE_NO":"７７號","E_COORD97":164470.10000000001,"N_COORD97":2544452.2400000002,"ADDRESS":"安平路７７號","OBJECTID":522179},"geometry":{"x":164470.10000000056,"y":2544452.2400000002}},{"attributes":{"ID":522207,"DIS_CODE":0,"TOWNNAME":"鹽水區","LI":"武廟里","LIN":"6鄰","STREET":"武廟路","SECT":" ","MAREA":" ","LANE":" ","ALLEY":" ","HOUSE_NO":"６８號","E_COORD97":174923.45000000001,"N_COORD97":2580180.5099999998,"ADDRESS":"武廟路６８號","OBJECTID":522180},"geometry":{"x":174923.45000000205,"y":2580180.5100000016}},{"attributes":{"ID":522208,"DIS_CODE":0,"TOWNNAME":"鹽水區","LI":"武廟里","LIN":"6鄰","STREET":"武廟路","SECT":" ","MAREA":" ","LANE":" ","ALLEY":" ","HOUSE_NO":"７８之４號","E_COORD97":174958.34,"N_COORD97":2580198.3599999999,"ADDRESS":"武廟路７８之４號","OBJECTID":522181},"geometry":{"x":174958.34000000078,"y":2580198.3599999994}},{"attributes":{"ID":522209,"DIS_CODE":0,"TOWNNAME":"鹽水區","LI":"武廟里","LIN":"6鄰","STREET":"武廟路","SECT":" ","MAREA":" ","LANE":" ","ALLEY":" ","HOUSE_NO":"８０號","E_COORD97":174924.35000000001,"N_COORD97":2580227.9700000002,"ADDRESS":"武廟路８０號","OBJECTID":522182},"geometry":{"x":174924.34999999963,"y":2580227.9700000025}},{"attributes":{"ID":522210,"DIS_CODE":0,"TOWNNAME":"鹽水區","LI":"武廟里","LIN":"6鄰","STREET":"武廟路","SECT":" ","MAREA":" ","LANE":" ","ALLEY":" ","HOUSE_NO":"８２號之１","E_COORD97":174923.48000000001,"N_COORD97":2580239.0699999998,"ADDRESS":"武廟路８２號之１","OBJECTID":522183},"geometry":{"x":174923.48000000231,"y":2580239.0700000003}},{"attributes":{"ID":522211,"DIS_CODE":0,"TOWNNAME":"鹽水區","LI":"武廟里","LIN":"6鄰","STREET":"武廟路","SECT":" ","MAREA":" ","LANE":" ","ALLEY":" ","HOUSE_NO":"８２號之２","E_COORD97":174967,"N_COORD97":2580229.25,"ADDRESS":"武廟路８２號之２","OBJECTID":522184},"geometry":{"x":174967.00000000186,"y":2580229.2500000019}},{"attributes":{"ID":522212,"DIS_CODE":0,"TOWNNAME":"鹽水區","LI":"武廟里","LIN":"6鄰","STREET":"武廟路","SECT":" ","MAREA":" ","LANE":" ","ALLEY":" ","HOUSE_NO":"８２號之３","E_COORD97":174949.84,"N_COORD97":2580239.6800000002,"ADDRESS":"武廟路８２號之３","OBJECTID":522185},"geometry":{"x":174949.84000000078,"y":2580239.6800000016}},{"attributes":{"ID":522213,"DIS_CODE":0,"TOWNNAME":"鹽水區","LI":"武廟里","LIN":"6鄰","STREET":"武廟路","SECT":" ","MAREA":" ","LANE":" ","ALLEY":" ","HOUSE_NO":"８２號之５","E_COORD97":174955.84,"N_COORD97":2580239.6000000001,"ADDRESS":"武廟路８２號之５","OBJECTID":522186},"geometry":{"x":174955.83999999985,"y":2580239.6000000015}},{"attributes":{"ID":522214,"DIS_CODE":0,"TOWNNAME":"鹽水區","LI":"橋南里","LIN":"6鄰","STREET":"南門路","SECT":" ","MAREA":" ","LANE":" ","ALLEY":" ","HOUSE_NO":"８９號","E_COORD97":175250.48999999999,"N_COORD97":2579215.0099999998,"ADDRESS":"南門路８９號","OBJECTID":522187},"geometry":{"x":175250.49000000115,"y":2579215.0099999998}},{"attributes":{"ID":522215,"DIS_CODE":0,"TOWNNAME":"關廟區","LI":"北勢里","LIN":"6鄰","STREET":"成功路","SECT":" ","MAREA":" ","LANE":" ","ALLEY":" ","HOUSE_NO":"５３號","E_COORD97":181688.12,"N_COORD97":2540409.27,"ADDRESS":"成功路５３號","OBJECTID":522188},"geometry":{"x":181688.12000000104,"y":2540409.2700000014}},{"attributes":{"ID":522216,"DIS_CODE":0,"TOWNNAME":"新營區","LI":"民權里","LIN":"6鄰","STREET":"信義街","SECT":" ","MAREA":" ","LANE":" ","ALLEY":" ","HOUSE_NO":"５之１號","E_COORD97":179940.57999999999,"N_COORD97":2578102.3900000001,"ADDRESS":"信義街５之１號","OBJECTID":522189},"geometry":{"x":179940.58000000101,"y":2578102.3900000043}},{"attributes":{"ID":522217,"DIS_CODE":0,"TOWNNAME":"新化區","LI":"武安里","LIN":"6鄰","STREET":"大同街","SECT":" ","MAREA":" ","LANE":" ","ALLEY":" ","HOUSE_NO":"８８號","E_COORD97":178997.98000000001,"N_COORD97":2548298.25,"ADDRESS":"大同街８８號","OBJECTID":522190},"geometry":{"x":178997.98000000045,"y":2548298.2500000019}},{"attributes":{"ID":522218,"DIS_CODE":0,"TOWNNAME":"南區","LI":"廣州里","LIN":"6鄰","STREET":"大德街","SECT":" ","MAREA":" ","LANE":" ","ALLEY":" ","HOUSE_NO":"１３６號","E_COORD97":167539.45999999999,"N_COORD97":2543098.1299999999,"ADDRESS":"大德街１３６號","OBJECTID":522191},"geometry":{"x":167539.46000000089,"y":2543098.1300000008}},{"attributes":{"ID":522219,"DIS_CODE":0,"TOWNNAME":"歸仁區","LI":"武東里","LIN":"6鄰","STREET":"中正南路","SECT":"二段","MAREA":" ","LANE":" ","ALLEY":" ","HOUSE_NO":"１５７號","E_COORD97":175522.70999999999,"N_COORD97":2535564.2799999998,"ADDRESS":"中正南路二段１５７號","OBJECTID":522192},"geometry":{"x":175522.70999999996,"y":2535564.2800000012}},{"attributes":{"ID":522220,"DIS_CODE":0,"TOWNNAME":"南區","LI":"郡南里","LIN":"6鄰","STREET":"永興四街","SECT":" ","MAREA":" ","LANE":" ","ALLEY":" ","HOUSE_NO":"２３號","E_COORD97":167251.14999999999,"N_COORD97":2540546.2000000002,"ADDRESS":"永興四街２３號","OBJECTID":522193},"geometry":{"x":167251.15000000037,"y":2540546.1999999993}},{"attributes":{"ID":522221,"DIS_CODE":0,"TOWNNAME":"安平區","LI":"平安里","LIN":"6鄰","STREET":"安平路","SECT":" ","MAREA":" ","LANE":" ","ALLEY":" ","HOUSE_NO":"３７６之１號","E_COORD97":165483.97,"N_COORD97":2544333.6600000001,"ADDRESS":"安平路３７６之１號","OBJECTID":522194},"geometry":{"x":165483.9700000016,"y":2544333.6600000001}},{"attributes":{"ID":522222,"DIS_CODE":0,"TOWNNAME":"安平區","LI":"平安里","LIN":"6鄰","STREET":"安平路","SECT":" ","MAREA":" ","LANE":" ","ALLEY":" ","HOUSE_NO":"３７２之１號","E_COORD97":165495.31,"N_COORD97":2544332.79,"ADDRESS":"安平路３７２之１號","OBJECTID":522195},"geometry":{"x":165495.31000000052,"y":2544332.7899999991}},{"attributes":{"ID":522223,"DIS_CODE":0,"TOWNNAME":"安平區","LI":"平安里","LIN":"6鄰","STREET":"華平路","SECT":" ","MAREA":" ","LANE":" ","ALLEY":" ","HOUSE_NO":"７１３號","E_COORD97":165504.45000000001,"N_COORD97":2544374.1400000001,"ADDRESS":"華平路７１３號","OBJECTID":522196},"geometry":{"x":165504.45000000019,"y":2544374.1400000025}},{"attributes":{"ID":522224,"DIS_CODE":0,"TOWNNAME":"安平區","LI":"漁光里","LIN":"6鄰","STREET":"漁光路","SECT":" ","MAREA":" ","LANE":" ","ALLEY":" ","HOUSE_NO":"１４３號之１","E_COORD97":163793.17000000001,"N_COORD97":2542010.6899999999,"ADDRESS":"漁光路１４３號之１","OBJECTID":522197},"geometry":{"x":163793.17000000086,"y":2542010.6899999995}},{"attributes":{"ID":522225,"DIS_CODE":0,"TOWNNAME":"安平區","LI":"華平里","LIN":"6鄰","STREET":"建平十一街","SECT":" ","MAREA":" ","LANE":" ","ALLEY":" ","HOUSE_NO":"３６２號","E_COORD97":165437.47,"N_COORD97":2544022.9900000002,"ADDRESS":"建平十一街３６２號","OBJECTID":522198},"geometry":{"x":165437.46999999974,"y":2544022.9900000002}},{"attributes":{"ID":522226,"DIS_CODE":0,"TOWNNAME":"安平區","LI":"建平里","LIN":"6鄰","STREET":"慶平路","SECT":" ","MAREA":" ","LANE":" ","ALLEY":" ","HOUSE_NO":"１６６號地下層","E_COORD97":165942.48999999999,"N_COORD97":2544206.29,"ADDRESS":"慶平路１６６號地下層","OBJECTID":522199},"geometry":{"x":165942.49000000115,"y":2544206.2899999991}},{"attributes":{"ID":522227,"DIS_CODE":0,"TOWNNAME":"安平區","LI":"華平里","LIN":"6鄰","STREET":"建平十一街","SECT":" ","MAREA":" ","LANE":" ","ALLEY":" ","HOUSE_NO":"３６２號地下層","E_COORD97":165437.47,"N_COORD97":2544022.9900000002,"ADDRESS":"建平十一街３６２號地下層","OBJECTID":522200},"geometry":{"x":165437.46999999974,"y":2544022.9900000002}}]}