{"displayFieldName":"TOWNNAME","fieldAliases":{"ID":"ID","DIS_CODE":"DIS_CODE","TOWNNAME":"TOWNNAME","LI":"LI","LIN":"LIN","STREET":"STREET","SECT":"SECT","MAREA":"MAREA","LANE":"LANE","ALLEY":"ALLEY","HOUSE_NO":"HOUSE_NO","E_COORD97":"E_COORD97","N_COORD97":"N_COORD97","ADDRESS":"ADDRESS","OBJECTID":"OBJECTID"},"geometryType":"esriGeometryPoint","spatialReference":{"wkid":102443,"latestWkid":3826},"fields":[{"name":"ID","type":"esriFieldTypeDouble","alias":"ID"},{"name":"DIS_CODE","type":"esriFieldTypeInteger","alias":"DIS_CODE"},{"name":"TOWNNAME","type":"esriFieldTypeString","alias":"TOWNNAME","length":8},{"name":"LI","type":"esriFieldTypeString","alias":"LI","length":8},{"name":"LIN","type":"esriFieldTypeString","alias":"LIN","length":12},{"name":"STREET","type":"esriFieldTypeString","alias":"STREET","length":20},{"name":"SECT","type":"esriFieldTypeString","alias":"SECT","length":8},{"name":"MAREA","type":"esriFieldTypeString","alias":"MAREA","length":12},{"name":"LANE","type":"esriFieldTypeString","alias":"LANE","length":10},{"name":"ALLEY","type":"esriFieldTypeString","alias":"ALLEY","length":10},{"name":"HOUSE_NO","type":"esriFieldTypeString","alias":"HOUSE_NO","length":20},{"name":"E_COORD97","type":"esriFieldTypeDouble","alias":"E_COORD97"},{"name":"N_COORD97","type":"esriFieldTypeDouble","alias":"N_COORD97"},{"name":"ADDRESS","type":"esriFieldTypeString","alias":"ADDRESS","length":50},{"name":"OBJECTID","type":"esriFieldTypeOID","alias":"OBJECTID"}],"features":[{"attributes":{"ID":280807,"DIS_CODE":0,"TOWNNAME":"中西區","LI":"仙草里","LIN":" ","STREET":"健康路","SECT":" ","MAREA":" ","LANE":" ","ALLEY":" ","HOUSE_NO":"４１８號","E_COORD97":167779.85999999999,"N_COORD97":2542471.0800000001,"ADDRESS":"健康路４１８號","OBJECTID":280801},"geometry":{"x":167779.86000000034,"y":2542471.0800000038}},{"attributes":{"ID":280808,"DIS_CODE":0,"TOWNNAME":"中西區","LI":"仙草里","LIN":" ","STREET":"府緯街","SECT":" ","MAREA":" ","LANE":" ","ALLEY":" ","HOUSE_NO":"６號","E_COORD97":167946.42999999999,"N_COORD97":2542727.3900000001,"ADDRESS":"府緯街６號","OBJECTID":280802},"geometry":{"x":167946.43000000063,"y":2542727.3900000025}},{"attributes":{"ID":280809,"DIS_CODE":0,"TOWNNAME":"中西區","LI":"仙草里","LIN":" ","STREET":"永福路","SECT":"一段","MAREA":" ","LANE":" ","ALLEY":" ","HOUSE_NO":"２７號","E_COORD97":167968.31,"N_COORD97":2542520.7200000002,"ADDRESS":"永福路一段２７號","OBJECTID":280803},"geometry":{"x":167968.31000000145,"y":2542520.7200000007}},{"attributes":{"ID":280810,"DIS_CODE":0,"TOWNNAME":"中西區","LI":"仙草里","LIN":" ","STREET":"永福路","SECT":"一段","MAREA":" ","LANE":" ","ALLEY":" ","HOUSE_NO":"３１號","E_COORD97":167968.5,"N_COORD97":2542556.1600000001,"ADDRESS":"永福路一段３１號","OBJECTID":280804},"geometry":{"x":167968.5,"y":2542556.160000002}},{"attributes":{"ID":280811,"DIS_CODE":0,"TOWNNAME":"關廟區","LI":"新光里","LIN":"6鄰","STREET":"北寮街","SECT":" ","MAREA":" ","LANE":" ","ALLEY":" ","HOUSE_NO":"８８號","E_COORD97":184218.976016,"N_COORD97":2541863.7520900001,"ADDRESS":"北寮街８８號","OBJECTID":280805},"geometry":{"x":184218.97601600084,"y":2541863.7520860024}},{"attributes":{"ID":280812,"DIS_CODE":0,"TOWNNAME":"東區","LI":"大德里","LIN":"8鄰","STREET":"立德十一路","SECT":" ","MAREA":" ","LANE":" ","ALLEY":" ","HOUSE_NO":"４６號","E_COORD97":169524.20000000001,"N_COORD97":2542090.48,"ADDRESS":"立德十一路４６號","OBJECTID":280806},"geometry":{"x":169524.20000000205,"y":2542090.4800000023}},{"attributes":{"ID":280813,"DIS_CODE":0,"TOWNNAME":"東山區","LI":"水雲里","LIN":"2鄰","STREET":" ","SECT":" ","MAREA":"牛肉崎","LANE":" ","ALLEY":" ","HOUSE_NO":"１１號之１","E_COORD97":190124.32999999999,"N_COORD97":2575397.5699999998,"ADDRESS":"牛肉崎１１號之１","OBJECTID":280807},"geometry":{"x":190124.33000000007,"y":2575397.5700000003}},{"attributes":{"ID":280814,"DIS_CODE":0,"TOWNNAME":"下營區","LI":"仁里里","LIN":"6鄰","STREET":"仁里街","SECT":" ","MAREA":" ","LANE":"１２２巷","ALLEY":" ","HOUSE_NO":"６號","E_COORD97":174168.66,"N_COORD97":2570004.7000000002,"ADDRESS":"仁里街１２２巷６號","OBJECTID":280808},"geometry":{"x":174168.66000000015,"y":2570004.6999999993}},{"attributes":{"ID":280815,"DIS_CODE":0,"TOWNNAME":"下營區","LI":"仁里里","LIN":"6鄰","STREET":"仁里街","SECT":" ","MAREA":" ","LANE":"１２２巷","ALLEY":" ","HOUSE_NO":"８號","E_COORD97":174140.91,"N_COORD97":2570011.71,"ADDRESS":"仁里街１２２巷８號","OBJECTID":280809},"geometry":{"x":174140.91000000108,"y":2570011.7100000028}},{"attributes":{"ID":280816,"DIS_CODE":0,"TOWNNAME":"永康區","LI":"永康里","LIN":"6鄰","STREET":"中山南路","SECT":" ","MAREA":" ","LANE":"６５３巷","ALLEY":" ","HOUSE_NO":"１９號","E_COORD97":173787.07000000001,"N_COORD97":2547470.3999999999,"ADDRESS":"中山南路６５３巷１９號","OBJECTID":280810},"geometry":{"x":173787.07000000123,"y":2547470.4000000022}},{"attributes":{"ID":280817,"DIS_CODE":0,"TOWNNAME":"永康區","LI":"永康里","LIN":"6鄰","STREET":"中山南路","SECT":" ","MAREA":" ","LANE":"６５３巷","ALLEY":" ","HOUSE_NO":"３３號","E_COORD97":173790.54000000001,"N_COORD97":2547446.7400000002,"ADDRESS":"中山南路６５３巷３３號","OBJECTID":280811},"geometry":{"x":173790.54000000097,"y":2547446.7400000002}},{"attributes":{"ID":280818,"DIS_CODE":0,"TOWNNAME":"永康區","LI":"勝利里","LIN":"6鄰","STREET":"勝學路","SECT":" ","MAREA":" ","LANE":"３０巷","ALLEY":" ","HOUSE_NO":"２號","E_COORD97":171179.84,"N_COORD97":2544623.5,"ADDRESS":"勝學路３０巷２號","OBJECTID":280812},"geometry":{"x":171179.84000000078,"y":2544623.5}},{"attributes":{"ID":280819,"DIS_CODE":0,"TOWNNAME":"安南區","LI":"總頭里","LIN":"6鄰","STREET":"長溪路","SECT":"二段","MAREA":" ","LANE":"５７０巷","ALLEY":" ","HOUSE_NO":"１３號","E_COORD97":168282.82999999999,"N_COORD97":2550637.8500000001,"ADDRESS":"長溪路二段５７０巷１３號","OBJECTID":280813},"geometry":{"x":168282.83000000101,"y":2550637.8499999996}},{"attributes":{"ID":280820,"DIS_CODE":0,"TOWNNAME":"安南區","LI":"總頭里","LIN":"6鄰","STREET":"長溪路","SECT":"二段","MAREA":" ","LANE":"５７０巷","ALLEY":" ","HOUSE_NO":"１５號","E_COORD97":168290.51999999999,"N_COORD97":2550638.75,"ADDRESS":"長溪路二段５７０巷１５號","OBJECTID":280814},"geometry":{"x":168290.51999999955,"y":2550638.7500000019}},{"attributes":{"ID":280821,"DIS_CODE":0,"TOWNNAME":"安南區","LI":"公\u25A0里","LIN":"6鄰","STREET":"公學路","SECT":"五段","MAREA":" ","LANE":"３６３巷","ALLEY":" ","HOUSE_NO":"２號","E_COORD97":164371.63,"N_COORD97":2552389.0899999999,"ADDRESS":"公學路五段３６３巷２號","OBJECTID":280815},"geometry":{"x":164371.63000000082,"y":2552389.0900000017}},{"attributes":{"ID":280822,"DIS_CODE":0,"TOWNNAME":"安南區","LI":"公親里","LIN":"6鄰","STREET":"公學路","SECT":"一段","MAREA":" ","LANE":"１２巷","ALLEY":" ","HOUSE_NO":"１０號","E_COORD97":168704.07000000001,"N_COORD97":2553164.8999999999,"ADDRESS":"公學路一段１２巷１０號","OBJECTID":280816},"geometry":{"x":168704.0700000003,"y":2553164.9000000004}},{"attributes":{"ID":280823,"DIS_CODE":0,"TOWNNAME":"安南區","LI":"公親里","LIN":"6鄰","STREET":"公學路","SECT":"一段","MAREA":" ","LANE":"１２巷","ALLEY":" ","HOUSE_NO":"１１號","E_COORD97":168686.56,"N_COORD97":2553137.7000000002,"ADDRESS":"公學路一段１２巷１１號","OBJECTID":280817},"geometry":{"x":168686.55999999959,"y":2553137.6999999993}},{"attributes":{"ID":280824,"DIS_CODE":0,"TOWNNAME":"安南區","LI":"公親里","LIN":"6鄰","STREET":"公學路","SECT":"一段","MAREA":" ","LANE":"１２巷","ALLEY":" ","HOUSE_NO":"１２號","E_COORD97":168700.17000000001,"N_COORD97":2553166.2000000002,"ADDRESS":"公學路一段１２巷１２號","OBJECTID":280818},"geometry":{"x":168700.16999999899,"y":2553166.200000003}},{"attributes":{"ID":280825,"DIS_CODE":0,"TOWNNAME":"安南區","LI":"公親里","LIN":"6鄰","STREET":"公學路","SECT":"一段","MAREA":" ","LANE":"１２巷","ALLEY":" ","HOUSE_NO":"２３號","E_COORD97":168661.26000000001,"N_COORD97":2553135.1099999999,"ADDRESS":"公學路一段１２巷２３號","OBJECTID":280819},"geometry":{"x":168661.26000000071,"y":2553135.1099999994}},{"attributes":{"ID":280826,"DIS_CODE":0,"TOWNNAME":"安南區","LI":"公親里","LIN":"6鄰","STREET":"公學路","SECT":"一段","MAREA":" ","LANE":"１２巷","ALLEY":" ","HOUSE_NO":"２４號","E_COORD97":168674.88,"N_COORD97":2553162.3100000001,"ADDRESS":"公學路一段１２巷２４號","OBJECTID":280820},"geometry":{"x":168674.87999999989,"y":2553162.3100000005}},{"attributes":{"ID":280827,"DIS_CODE":0,"TOWNNAME":"安南區","LI":"公親里","LIN":"6鄰","STREET":"公學路","SECT":"一段","MAREA":" ","LANE":"１２巷","ALLEY":" ","HOUSE_NO":"２５號","E_COORD97":168656.72,"N_COORD97":2553134.46,"ADDRESS":"公學路一段１２巷２５號","OBJECTID":280821},"geometry":{"x":168656.71999999974,"y":2553134.4600000009}},{"attributes":{"ID":280828,"DIS_CODE":0,"TOWNNAME":"安南區","LI":"公親里","LIN":"6鄰","STREET":"公學路","SECT":"一段","MAREA":" ","LANE":"１２巷","ALLEY":" ","HOUSE_NO":"２６號","E_COORD97":168670.98999999999,"N_COORD97":2553161.6699999999,"ADDRESS":"公學路一段１２巷２６號","OBJECTID":280822},"geometry":{"x":168670.99000000022,"y":2553161.6700000018}},{"attributes":{"ID":280829,"DIS_CODE":0,"TOWNNAME":"安南區","LI":"公親里","LIN":"6鄰","STREET":"公學路","SECT":"一段","MAREA":" ","LANE":"１２巷","ALLEY":" ","HOUSE_NO":"２７號","E_COORD97":168652.82999999999,"N_COORD97":2553133.8100000001,"ADDRESS":"公學路一段１２巷２７號","OBJECTID":280823},"geometry":{"x":168652.83000000007,"y":2553133.8100000024}},{"attributes":{"ID":280830,"DIS_CODE":0,"TOWNNAME":"東山區","LI":"大客里","LIN":"2鄰","STREET":" ","SECT":" ","MAREA":"大庄","LANE":" ","ALLEY":" ","HOUSE_NO":"８號之１","E_COORD97":189543.69,"N_COORD97":2578813.0099999998,"ADDRESS":"大庄８號之１","OBJECTID":280824},"geometry":{"x":189543.69000000134,"y":2578813.0100000016}},{"attributes":{"ID":280831,"DIS_CODE":0,"TOWNNAME":"東山區","LI":"大客里","LIN":"2鄰","STREET":" ","SECT":" ","MAREA":"大庄","LANE":" ","ALLEY":" ","HOUSE_NO":"９號之１","E_COORD97":189625.89000000001,"N_COORD97":2578847.29,"ADDRESS":"大庄９號之１","OBJECTID":280825},"geometry":{"x":189625.8900000006,"y":2578847.2900000028}},{"attributes":{"ID":280832,"DIS_CODE":0,"TOWNNAME":"東山區","LI":"大客里","LIN":"2鄰","STREET":" ","SECT":" ","MAREA":"大庄","LANE":" ","ALLEY":" ","HOUSE_NO":"９號","E_COORD97":189624.04000000001,"N_COORD97":2578831.3599999999,"ADDRESS":"大庄９號","OBJECTID":280826},"geometry":{"x":189624.04000000097,"y":2578831.3600000013}},{"attributes":{"ID":280833,"DIS_CODE":0,"TOWNNAME":"安南區","LI":"公親里","LIN":"6鄰","STREET":"公學路","SECT":"一段","MAREA":" ","LANE":"１２巷","ALLEY":" ","HOUSE_NO":"２８號","E_COORD97":168667.10000000001,"N_COORD97":2553161.6699999999,"ADDRESS":"公學路一段１２巷２８號","OBJECTID":280827},"geometry":{"x":168667.10000000056,"y":2553161.6700000018}},{"attributes":{"ID":280834,"DIS_CODE":0,"TOWNNAME":"東山區","LI":"水雲里","LIN":"2鄰","STREET":" ","SECT":" ","MAREA":"牛肉崎","LANE":" ","ALLEY":" ","HOUSE_NO":"１１號","E_COORD97":190117.23000000001,"N_COORD97":2575406.77,"ADDRESS":"牛肉崎１１號","OBJECTID":280828},"geometry":{"x":190117.23000000045,"y":2575406.7700000033}},{"attributes":{"ID":280835,"DIS_CODE":0,"TOWNNAME":"東山區","LI":"水雲里","LIN":"2鄰","STREET":" ","SECT":" ","MAREA":"牛肉崎","LANE":" ","ALLEY":" ","HOUSE_NO":"１２號之１","E_COORD97":190161.07000000001,"N_COORD97":2575349.2999999998,"ADDRESS":"牛肉崎１２號之１","OBJECTID":280829},"geometry":{"x":190161.07000000123,"y":2575349.3000000007}},{"attributes":{"ID":280836,"DIS_CODE":0,"TOWNNAME":"東山區","LI":"水雲里","LIN":"2鄰","STREET":" ","SECT":" ","MAREA":"牛肉崎","LANE":" ","ALLEY":" ","HOUSE_NO":"１２號之３","E_COORD97":190111.70000000001,"N_COORD97":2575191.8999999999,"ADDRESS":"牛肉崎１２號之３","OBJECTID":280830},"geometry":{"x":190111.70000000019,"y":2575191.9000000004}},{"attributes":{"ID":280837,"DIS_CODE":0,"TOWNNAME":"東山區","LI":"水雲里","LIN":"2鄰","STREET":" ","SECT":" ","MAREA":"牛肉崎","LANE":" ","ALLEY":" ","HOUSE_NO":"１２號之４","E_COORD97":190118.81,"N_COORD97":2575319.9100000001,"ADDRESS":"牛肉崎１２號之４","OBJECTID":280831},"geometry":{"x":190118.80999999959,"y":2575319.9100000001}},{"attributes":{"ID":280838,"DIS_CODE":0,"TOWNNAME":"安南區","LI":"公親里","LIN":"6鄰","STREET":"公學路","SECT":"一段","MAREA":" ","LANE":"１２巷","ALLEY":" ","HOUSE_NO":"２９號","E_COORD97":168648.29000000001,"N_COORD97":2553134.46,"ADDRESS":"公學路一段１２巷２９號","OBJECTID":280832},"geometry":{"x":168648.29000000004,"y":2553134.4600000009}},{"attributes":{"ID":280839,"DIS_CODE":0,"TOWNNAME":"東山區","LI":"水雲里","LIN":"2鄰","STREET":" ","SECT":" ","MAREA":"牛肉崎","LANE":" ","ALLEY":" ","HOUSE_NO":"１２號","E_COORD97":190176.38,"N_COORD97":2575358.27,"ADDRESS":"牛肉崎１２號","OBJECTID":280833},"geometry":{"x":190176.37999999989,"y":2575358.2699999996}},{"attributes":{"ID":280840,"DIS_CODE":0,"TOWNNAME":"東山區","LI":"水雲里","LIN":"2鄰","STREET":" ","SECT":" ","MAREA":"牛肉崎","LANE":" ","ALLEY":" ","HOUSE_NO":"１３號之１","E_COORD97":190188.29000000001,"N_COORD97":2575280.8799999999,"ADDRESS":"牛肉崎１３號之１","OBJECTID":280834},"geometry":{"x":190188.29000000097,"y":2575280.8800000008}},{"attributes":{"ID":280841,"DIS_CODE":0,"TOWNNAME":"東山區","LI":"水雲里","LIN":"2鄰","STREET":" ","SECT":" ","MAREA":"牛肉崎","LANE":" ","ALLEY":" ","HOUSE_NO":"１３號","E_COORD97":190223.20000000001,"N_COORD97":2575344.7599999998,"ADDRESS":"牛肉崎１３號","OBJECTID":280835},"geometry":{"x":190223.20000000112,"y":2575344.7599999998}},{"attributes":{"ID":280842,"DIS_CODE":0,"TOWNNAME":"東山區","LI":"水雲里","LIN":"2鄰","STREET":" ","SECT":" ","MAREA":"牛肉崎","LANE":" ","ALLEY":" ","HOUSE_NO":"１４號","E_COORD97":190223.54999999999,"N_COORD97":2575392.98,"ADDRESS":"牛肉崎１４號","OBJECTID":280836},"geometry":{"x":190223.55000000075,"y":2575392.9800000023}},{"attributes":{"ID":280843,"DIS_CODE":0,"TOWNNAME":"東山區","LI":"水雲里","LIN":"2鄰","STREET":" ","SECT":" ","MAREA":"牛肉崎","LANE":" ","ALLEY":" ","HOUSE_NO":"１６號之１","E_COORD97":190251.41,"N_COORD97":2575392.73,"ADDRESS":"牛肉崎１６號之１","OBJECTID":280837},"geometry":{"x":190251.40999999922,"y":2575392.7300000004}},{"attributes":{"ID":280844,"DIS_CODE":0,"TOWNNAME":"新營區","LI":"太南里","LIN":"2鄰","STREET":" ","SECT":" ","MAREA":"太子宮","LANE":" ","ALLEY":" ","HOUSE_NO":"１８０號","E_COORD97":176178.10999999999,"N_COORD97":2577024.2200000002,"ADDRESS":"太子宮１８０號","OBJECTID":280838},"geometry":{"x":176178.11000000034,"y":2577024.2200000007}},{"attributes":{"ID":280845,"DIS_CODE":0,"TOWNNAME":"新營區","LI":"土庫里","LIN":"2鄰","STREET":" ","SECT":" ","MAREA":"土庫","LANE":" ","ALLEY":" ","HOUSE_NO":"９號","E_COORD97":183077.92000000001,"N_COORD97":2580057.96,"ADDRESS":"土庫９號","OBJECTID":280839},"geometry":{"x":183077.92000000086,"y":2580057.9600000009}},{"attributes":{"ID":280846,"DIS_CODE":0,"TOWNNAME":"新營區","LI":"太南里","LIN":"2鄰","STREET":" ","SECT":" ","MAREA":"太子宮","LANE":" ","ALLEY":" ","HOUSE_NO":"１７３號","E_COORD97":176197.5,"N_COORD97":2577014.1600000001,"ADDRESS":"太子宮１７３號","OBJECTID":280840},"geometry":{"x":176197.5,"y":2577014.1600000001}},{"attributes":{"ID":280847,"DIS_CODE":0,"TOWNNAME":"新營區","LI":"鐵線里","LIN":"2鄰","STREET":" ","SECT":" ","MAREA":"鐵線橋","LANE":" ","ALLEY":" ","HOUSE_NO":"１５之６號","E_COORD97":176126.37,"N_COORD97":2573985.6800000002,"ADDRESS":"鐵線橋１５之６號","OBJECTID":280841},"geometry":{"x":176126.37000000104,"y":2573985.6799999997}},{"attributes":{"ID":280848,"DIS_CODE":0,"TOWNNAME":"中西區","LI":"萬昌里","LIN":"17鄰","STREET":"青年路","SECT":" ","MAREA":" ","LANE":"１３２巷","ALLEY":" ","HOUSE_NO":"１１號","E_COORD97":168928.70000000001,"N_COORD97":2543551.3399999999,"ADDRESS":"青年路１３２巷１１號","OBJECTID":280842},"geometry":{"x":168928.70000000019,"y":2543551.3400000017}},{"attributes":{"ID":280849,"DIS_CODE":0,"TOWNNAME":"安南區","LI":"四草里","LIN":"2鄰","STREET":"大眾六街","SECT":" ","MAREA":" ","LANE":" ","ALLEY":" ","HOUSE_NO":"１８８號","E_COORD97":160283.30373099999,"N_COORD97":2546817.6339599998,"ADDRESS":"大眾六街１８８號","OBJECTID":280843},"geometry":{"x":160283.30373100005,"y":2546817.6339590028}},{"attributes":{"ID":280850,"DIS_CODE":0,"TOWNNAME":"安南區","LI":"公\u25A0里","LIN":"6鄰","STREET":"公學路","SECT":"五段","MAREA":" ","LANE":"３６３巷","ALLEY":" ","HOUSE_NO":"４６號之１","E_COORD97":164255.44,"N_COORD97":2552335.5,"ADDRESS":"公學路五段３６３巷４６號之１","OBJECTID":280844},"geometry":{"x":164255.44000000041,"y":2552335.5000000019}},{"attributes":{"ID":280851,"DIS_CODE":0,"TOWNNAME":"新營區","LI":"忠政里","LIN":"2鄰","STREET":"中正路","SECT":" ","MAREA":" ","LANE":" ","ALLEY":" ","HOUSE_NO":"３３之１２號","E_COORD97":180105.23000000001,"N_COORD97":2579067.3199999998,"ADDRESS":"中正路３３之１２號","OBJECTID":280845},"geometry":{"x":180105.23000000045,"y":2579067.3200000003}},{"attributes":{"ID":280852,"DIS_CODE":0,"TOWNNAME":"安南區","LI":"公親里","LIN":"6鄰","STREET":"公學路","SECT":"一段","MAREA":" ","LANE":"１２巷","ALLEY":" ","HOUSE_NO":"６０號","E_COORD97":168601.60000000001,"N_COORD97":2553156.48,"ADDRESS":"公學路一段１２巷６０號","OBJECTID":280846},"geometry":{"x":168601.59999999963,"y":2553156.4800000023}},{"attributes":{"ID":280853,"DIS_CODE":0,"TOWNNAME":"中西區","LI":"赤嵌里","LIN":"15鄰","STREET":"忠義路","SECT":"二段","MAREA":" ","LANE":" ","ALLEY":" ","HOUSE_NO":"１８４號","E_COORD97":168432.22,"N_COORD97":2544136.5299999998,"ADDRESS":"忠義路二段１８４號","OBJECTID":280847},"geometry":{"x":168432.22000000067,"y":2544136.5300000012}},{"attributes":{"ID":280854,"DIS_CODE":0,"TOWNNAME":"中西區","LI":"赤嵌里","LIN":"15鄰","STREET":"忠義路","SECT":"二段","MAREA":" ","LANE":" ","ALLEY":" ","HOUSE_NO":"１８６號","E_COORD97":168433.59,"N_COORD97":2544142.6699999999,"ADDRESS":"忠義路二段１８６號","OBJECTID":280848},"geometry":{"x":168433.59000000078,"y":2544142.6700000018}},{"attributes":{"ID":280855,"DIS_CODE":0,"TOWNNAME":"安南區","LI":"公親里","LIN":"6鄰","STREET":"公學路","SECT":"一段","MAREA":" ","LANE":"１２巷","ALLEY":" ","HOUSE_NO":"６１號","E_COORD97":168591.22,"N_COORD97":2553129.9300000002,"ADDRESS":"公學路一段１２巷６１號","OBJECTID":280849},"geometry":{"x":168591.2200000016,"y":2553129.9299999997}},{"attributes":{"ID":280856,"DIS_CODE":0,"TOWNNAME":"安南區","LI":"公\u25A0里","LIN":"6鄰","STREET":"公學路","SECT":"五段","MAREA":" ","LANE":"３６３巷","ALLEY":" ","HOUSE_NO":"２８號","E_COORD97":164323.70999999999,"N_COORD97":2552345.04,"ADDRESS":"公學路五段３６３巷２８號","OBJECTID":280850},"geometry":{"x":164323.71000000089,"y":2552345.0399999991}},{"attributes":{"ID":280857,"DIS_CODE":0,"TOWNNAME":"中西區","LI":"赤嵌里","LIN":"15鄰","STREET":"忠義路","SECT":"二段","MAREA":" ","LANE":" ","ALLEY":" ","HOUSE_NO":"１８８號","E_COORD97":168434.26999999999,"N_COORD97":2544148.5800000001,"ADDRESS":"忠義路二段１８８號","OBJECTID":280851},"geometry":{"x":168434.26999999955,"y":2544148.5800000001}},{"attributes":{"ID":280858,"DIS_CODE":0,"TOWNNAME":"安南區","LI":"公\u25A0里","LIN":"6鄰","STREET":"公學路","SECT":"五段","MAREA":" ","LANE":"３６３巷","ALLEY":" ","HOUSE_NO":"３２號","E_COORD97":164312.81,"N_COORD97":2552330.1899999999,"ADDRESS":"公學路五段３６３巷３２號","OBJECTID":280852},"geometry":{"x":164312.80999999959,"y":2552330.1900000013}},{"attributes":{"ID":280859,"DIS_CODE":0,"TOWNNAME":"中西區","LI":"赤嵌里","LIN":"15鄰","STREET":"忠義路","SECT":"二段","MAREA":" ","LANE":" ","ALLEY":" ","HOUSE_NO":"１９０號","E_COORD97":168436.76999999999,"N_COORD97":2544152.4399999999,"ADDRESS":"忠義路二段１９０號","OBJECTID":280853},"geometry":{"x":168436.77000000048,"y":2544152.4399999995}},{"attributes":{"ID":280860,"DIS_CODE":0,"TOWNNAME":"新營區","LI":"護鎮里","LIN":"2鄰","STREET":" ","SECT":" ","MAREA":"後鎮","LANE":" ","ALLEY":" ","HOUSE_NO":"１７號之２","E_COORD97":179317.19,"N_COORD97":2580963.6899999999,"ADDRESS":"後鎮１７之２號","OBJECTID":280854},"geometry":{"x":179317.19000000041,"y":2580963.6899999995}},{"attributes":{"ID":280861,"DIS_CODE":0,"TOWNNAME":"新營區","LI":"鐵線里","LIN":"2鄰","STREET":" ","SECT":" ","MAREA":"鐵線橋","LANE":" ","ALLEY":" ","HOUSE_NO":"１５之５號","E_COORD97":176095.59,"N_COORD97":2573968.1099999999,"ADDRESS":"鐵線橋１５之５號","OBJECTID":280855},"geometry":{"x":176095.59000000078,"y":2573968.1100000013}},{"attributes":{"ID":280862,"DIS_CODE":0,"TOWNNAME":"新營區","LI":"鐵線里","LIN":"2鄰","STREET":" ","SECT":" ","MAREA":"鐵線橋","LANE":" ","ALLEY":" ","HOUSE_NO":"１５之２號","E_COORD97":176112.98000000001,"N_COORD97":2573968.0299999998,"ADDRESS":"鐵線橋１５之２號","OBJECTID":280856},"geometry":{"x":176112.98000000045,"y":2573968.0300000012}},{"attributes":{"ID":280863,"DIS_CODE":0,"TOWNNAME":"麻豆區","LI":"埤頭里","LIN":"2鄰","STREET":" ","SECT":" ","MAREA":"埤頭","LANE":" ","ALLEY":" ","HOUSE_NO":"２２號之１","E_COORD97":170715.94,"N_COORD97":2565685.6600000001,"ADDRESS":"埤頭２２號之１","OBJECTID":280857},"geometry":{"x":170715.94000000041,"y":2565685.660000002}},{"attributes":{"ID":280864,"DIS_CODE":0,"TOWNNAME":"新營區","LI":"鐵線里","LIN":"2鄰","STREET":" ","SECT":" ","MAREA":"鐵線橋","LANE":" ","ALLEY":" ","HOUSE_NO":"１７之１號","E_COORD97":176106.70000000001,"N_COORD97":2573938.1499999999,"ADDRESS":"鐵線橋１７之１號","OBJECTID":280858},"geometry":{"x":176106.70000000205,"y":2573938.1500000022}},{"attributes":{"ID":280865,"DIS_CODE":0,"TOWNNAME":"新營區","LI":"嘉芳里","LIN":"2鄰","STREET":" ","SECT":" ","MAREA":"茄苳腳","LANE":" ","ALLEY":" ","HOUSE_NO":"１３之１０號","E_COORD97":177068.82000000001,"N_COORD97":2578326.6800000002,"ADDRESS":"茄苳腳１３之１０號","OBJECTID":280859},"geometry":{"x":177068.82000000216,"y":2578326.6800000034}},{"attributes":{"ID":280866,"DIS_CODE":0,"TOWNNAME":"安南區","LI":"公\u25A0里","LIN":"6鄰","STREET":"公學路","SECT":"五段","MAREA":" ","LANE":"３６３巷","ALLEY":" ","HOUSE_NO":"３４號","E_COORD97":164304.54999999999,"N_COORD97":2552326.23,"ADDRESS":"公學路五段３６３巷３４號","OBJECTID":280860},"geometry":{"x":164304.54999999981,"y":2552326.2300000042}},{"attributes":{"ID":280867,"DIS_CODE":0,"TOWNNAME":"新營區","LI":"土庫里","LIN":"2鄰","STREET":" ","SECT":" ","MAREA":"土庫","LANE":" ","ALLEY":" ","HOUSE_NO":"６號之１０","E_COORD97":182754.32999999999,"N_COORD97":2580107.1200000001,"ADDRESS":"土庫６號之１０","OBJECTID":280861},"geometry":{"x":182754.33000000101,"y":2580107.120000001}},{"attributes":{"ID":280868,"DIS_CODE":0,"TOWNNAME":"安南區","LI":"佃西里","LIN":"6鄰","STREET":"公學路","SECT":"四段","MAREA":" ","LANE":"２３４巷","ALLEY":" ","HOUSE_NO":"４１號","E_COORD97":165379.62,"N_COORD97":2551851.5699999998,"ADDRESS":"公學路四段２３４巷４１號","OBJECTID":280862},"geometry":{"x":165379.62000000011,"y":2551851.5700000003}},{"attributes":{"ID":280869,"DIS_CODE":0,"TOWNNAME":"新營區","LI":"忠政里","LIN":"2鄰","STREET":"中正路","SECT":" ","MAREA":" ","LANE":"３５巷","ALLEY":" ","HOUSE_NO":"２０號之２","E_COORD97":180037.32000000001,"N_COORD97":2579083.1400000001,"ADDRESS":"中正路３５巷２０號之２","OBJECTID":280863},"geometry":{"x":180037.32000000123,"y":2579083.1400000006}},{"attributes":{"ID":280870,"DIS_CODE":0,"TOWNNAME":"中西區","LI":"赤嵌里","LIN":"15鄰","STREET":"忠義路","SECT":"二段","MAREA":" ","LANE":" ","ALLEY":" ","HOUSE_NO":"１９２號","E_COORD97":168439.5,"N_COORD97":2544157.21,"ADDRESS":"忠義路二段１９２號","OBJECTID":280864},"geometry":{"x":168439.50000000093,"y":2544157.2100000028}},{"attributes":{"ID":280871,"DIS_CODE":0,"TOWNNAME":"新營區","LI":"鐵線里","LIN":"2鄰","STREET":" ","SECT":" ","MAREA":"鐵線橋","LANE":" ","ALLEY":" ","HOUSE_NO":"１８之５號","E_COORD97":176133.82999999999,"N_COORD97":2573840.5600000001,"ADDRESS":"鐵線橋１８之５號","OBJECTID":280865},"geometry":{"x":176133.83000000007,"y":2573840.5600000024}},{"attributes":{"ID":280872,"DIS_CODE":0,"TOWNNAME":"安南區","LI":"佃西里","LIN":"6鄰","STREET":"公學路","SECT":"四段","MAREA":" ","LANE":"２３４巷","ALLEY":" ","HOUSE_NO":"４３號","E_COORD97":165347.28,"N_COORD97":2551839.9300000002,"ADDRESS":"公學路四段２３４巷４３號","OBJECTID":280866},"geometry":{"x":165347.28000000119,"y":2551839.9300000016}},{"attributes":{"ID":280873,"DIS_CODE":0,"TOWNNAME":"安南區","LI":"佃西里","LIN":"6鄰","STREET":"公學路","SECT":"四段","MAREA":" ","LANE":"２３４巷","ALLEY":" ","HOUSE_NO":"４５號","E_COORD97":165333.23999999999,"N_COORD97":2551836.5,"ADDRESS":"公學路四段２３４巷４５號","OBJECTID":280867},"geometry":{"x":165333.24000000022,"y":2551836.5000000019}},{"attributes":{"ID":280874,"DIS_CODE":0,"TOWNNAME":"安南區","LI":"南興里","LIN":"6鄰","STREET":"公學路","SECT":"五段","MAREA":" ","LANE":"６９７巷","ALLEY":" ","HOUSE_NO":"１５１號","E_COORD97":163840.01999999999,"N_COORD97":2552468.4399999999,"ADDRESS":"公學路五段６９７巷１５１號","OBJECTID":280868},"geometry":{"x":163840.01999999955,"y":2552468.4399999995}},{"attributes":{"ID":280875,"DIS_CODE":0,"TOWNNAME":"新營區","LI":"土庫里","LIN":"2鄰","STREET":" ","SECT":" ","MAREA":"土庫","LANE":" ","ALLEY":" ","HOUSE_NO":"６號之３","E_COORD97":182856.04999999999,"N_COORD97":2580024.7000000002,"ADDRESS":"土庫６號之３","OBJECTID":280869},"geometry":{"x":182856.05000000075,"y":2580024.700000003}},{"attributes":{"ID":280876,"DIS_CODE":0,"TOWNNAME":"新營區","LI":"鐵線里","LIN":"2鄰","STREET":" ","SECT":" ","MAREA":"鐵線橋","LANE":" ","ALLEY":" ","HOUSE_NO":"１８之１２號","E_COORD97":176167.92999999999,"N_COORD97":2573860.3399999999,"ADDRESS":"鐵線橋１８之１２號","OBJECTID":280870},"geometry":{"x":176167.93000000063,"y":2573860.339999998}},{"attributes":{"ID":280877,"DIS_CODE":0,"TOWNNAME":"新營區","LI":"鐵線里","LIN":"2鄰","STREET":" ","SECT":" ","MAREA":"鐵線橋","LANE":" ","ALLEY":" ","HOUSE_NO":"１８之１４號","E_COORD97":176179.20000000001,"N_COORD97":2573864.71,"ADDRESS":"鐵線橋１８之１４號","OBJECTID":280871},"geometry":{"x":176179.20000000019,"y":2573864.7100000009}},{"attributes":{"ID":280878,"DIS_CODE":0,"TOWNNAME":"新營區","LI":"埤寮里","LIN":"2鄰","STREET":" ","SECT":" ","MAREA":"許丑","LANE":" ","ALLEY":" ","HOUSE_NO":"２４號","E_COORD97":179962.17999999999,"N_COORD97":2580976.0699999998,"ADDRESS":"許丑２４號","OBJECTID":280872},"geometry":{"x":179962.1799999997,"y":2580976.070000004}},{"attributes":{"ID":280879,"DIS_CODE":0,"TOWNNAME":"新營區","LI":"鐵線里","LIN":"2鄰","STREET":" ","SECT":" ","MAREA":"鐵線橋","LANE":" ","ALLEY":" ","HOUSE_NO":"１８之１１號","E_COORD97":176161.78,"N_COORD97":2573859.2599999998,"ADDRESS":"鐵線橋１８之１１號","OBJECTID":280873},"geometry":{"x":176161.78000000026,"y":2573859.2600000016}},{"attributes":{"ID":280880,"DIS_CODE":0,"TOWNNAME":"東山區","LI":"水雲里","LIN":"2鄰","STREET":" ","SECT":" ","MAREA":"牛肉崎","LANE":" ","ALLEY":" ","HOUSE_NO":"１６號","E_COORD97":190242.19,"N_COORD97":2575380.8799999999,"ADDRESS":"牛肉崎１６號","OBJECTID":280874},"geometry":{"x":190242.19000000134,"y":2575380.879999999}},{"attributes":{"ID":280881,"DIS_CODE":0,"TOWNNAME":"東山區","LI":"水雲里","LIN":"2鄰","STREET":" ","SECT":" ","MAREA":"牛肉崎","LANE":" ","ALLEY":" ","HOUSE_NO":"１７號之１","E_COORD97":190386.59,"N_COORD97":2575185.6600000001,"ADDRESS":"牛肉崎１７號之１","OBJECTID":280875},"geometry":{"x":190386.58999999985,"y":2575185.660000002}},{"attributes":{"ID":280882,"DIS_CODE":0,"TOWNNAME":"東山區","LI":"水雲里","LIN":"2鄰","STREET":" ","SECT":" ","MAREA":"牛肉崎","LANE":" ","ALLEY":" ","HOUSE_NO":"１７號","E_COORD97":190290.09,"N_COORD97":2575363.4700000002,"ADDRESS":"牛肉崎１７號","OBJECTID":280876},"geometry":{"x":190290.08999999985,"y":2575363.4700000025}},{"attributes":{"ID":280883,"DIS_CODE":0,"TOWNNAME":"東山區","LI":"水雲里","LIN":"2鄰","STREET":" ","SECT":" ","MAREA":"牛肉崎","LANE":" ","ALLEY":" ","HOUSE_NO":"１８號之１","E_COORD97":190418.62,"N_COORD97":2574952.7999999998,"ADDRESS":"牛肉崎１８號之１","OBJECTID":280877},"geometry":{"x":190418.62000000104,"y":2574952.8000000007}},{"attributes":{"ID":280884,"DIS_CODE":0,"TOWNNAME":"東山區","LI":"水雲里","LIN":"2鄰","STREET":" ","SECT":" ","MAREA":"牛肉崎","LANE":" ","ALLEY":" ","HOUSE_NO":"１８號","E_COORD97":190417.32999999999,"N_COORD97":2574928.0299999998,"ADDRESS":"牛肉崎１８號","OBJECTID":280878},"geometry":{"x":190417.33000000007,"y":2574928.0300000012}},{"attributes":{"ID":280885,"DIS_CODE":0,"TOWNNAME":"東山區","LI":"水雲里","LIN":"2鄰","STREET":" ","SECT":" ","MAREA":"牛肉崎","LANE":" ","ALLEY":" ","HOUSE_NO":"７號","E_COORD97":190060.85000000001,"N_COORD97":2575422.7799999998,"ADDRESS":"牛肉崎７號","OBJECTID":280879},"geometry":{"x":190060.84999999963,"y":2575422.7799999993}},{"attributes":{"ID":280886,"DIS_CODE":0,"TOWNNAME":"東山區","LI":"水雲里","LIN":"2鄰","STREET":" ","SECT":" ","MAREA":"牛肉崎","LANE":" ","ALLEY":" ","HOUSE_NO":"８號","E_COORD97":190091.42999999999,"N_COORD97":2575429.4300000002,"ADDRESS":"牛肉崎８號","OBJECTID":280880},"geometry":{"x":190091.4299999997,"y":2575429.4300000034}},{"attributes":{"ID":280887,"DIS_CODE":0,"TOWNNAME":"東山區","LI":"嶺南里","LIN":"2鄰","STREET":" ","SECT":" ","MAREA":"牛稠子","LANE":" ","ALLEY":" ","HOUSE_NO":"１２號","E_COORD97":192342.89999999999,"N_COORD97":2573672.21,"ADDRESS":"牛稠子１２號","OBJECTID":280881},"geometry":{"x":192342.90000000037,"y":2573672.2100000009}},{"attributes":{"ID":280888,"DIS_CODE":0,"TOWNNAME":"東山區","LI":"聖賢里","LIN":"2鄰","STREET":" ","SECT":" ","MAREA":"北勢寮","LANE":" ","ALLEY":" ","HOUSE_NO":"１４號之１","E_COORD97":184771.76999999999,"N_COORD97":2579662.2200000002,"ADDRESS":"北勢寮１４號之１","OBJECTID":280882},"geometry":{"x":184771.77000000048,"y":2579662.2200000007}},{"attributes":{"ID":280889,"DIS_CODE":0,"TOWNNAME":"東山區","LI":"聖賢里","LIN":"2鄰","STREET":" ","SECT":" ","MAREA":"北勢寮","LANE":" ","ALLEY":" ","HOUSE_NO":"１４號","E_COORD97":184775.84,"N_COORD97":2579622.3399999999,"ADDRESS":"北勢寮１４號","OBJECTID":280883},"geometry":{"x":184775.83999999985,"y":2579622.3400000017}},{"attributes":{"ID":280890,"DIS_CODE":0,"TOWNNAME":"東山區","LI":"聖賢里","LIN":"2鄰","STREET":" ","SECT":" ","MAREA":"北勢寮","LANE":" ","ALLEY":" ","HOUSE_NO":"１５號之１","E_COORD97":184809.79999999999,"N_COORD97":2579670.8300000001,"ADDRESS":"北勢寮１５號之１","OBJECTID":280884},"geometry":{"x":184809.79999999981,"y":2579670.8300000001}},{"attributes":{"ID":280891,"DIS_CODE":0,"TOWNNAME":"東山區","LI":"聖賢里","LIN":"2鄰","STREET":" ","SECT":" ","MAREA":"北勢寮","LANE":" ","ALLEY":" ","HOUSE_NO":"１５號之２","E_COORD97":184785.82999999999,"N_COORD97":2579650.1200000001,"ADDRESS":"北勢寮１５號之２","OBJECTID":280885},"geometry":{"x":184785.83000000101,"y":2579650.120000001}},{"attributes":{"ID":280892,"DIS_CODE":0,"TOWNNAME":"東山區","LI":"聖賢里","LIN":"2鄰","STREET":" ","SECT":" ","MAREA":"北勢寮","LANE":" ","ALLEY":" ","HOUSE_NO":"１６號之１","E_COORD97":184845.01999999999,"N_COORD97":2579683.2000000002,"ADDRESS":"北勢寮１６號之１","OBJECTID":280886},"geometry":{"x":184845.02000000048,"y":2579683.2000000011}},{"attributes":{"ID":280893,"DIS_CODE":0,"TOWNNAME":"東山區","LI":"聖賢里","LIN":"2鄰","STREET":" ","SECT":" ","MAREA":"北勢寮","LANE":" ","ALLEY":" ","HOUSE_NO":"１６號之２","E_COORD97":184831.89000000001,"N_COORD97":2579681.3199999998,"ADDRESS":"北勢寮１６號之２","OBJECTID":280887},"geometry":{"x":184831.8900000006,"y":2579681.3200000003}},{"attributes":{"ID":280894,"DIS_CODE":0,"TOWNNAME":"東山區","LI":"聖賢里","LIN":"2鄰","STREET":" ","SECT":" ","MAREA":"北勢寮","LANE":" ","ALLEY":" ","HOUSE_NO":"１６號之３","E_COORD97":184821.48999999999,"N_COORD97":2579672.23,"ADDRESS":"北勢寮１６號之３","OBJECTID":280888},"geometry":{"x":184821.49000000209,"y":2579672.2300000004}},{"attributes":{"ID":280895,"DIS_CODE":0,"TOWNNAME":"東山區","LI":"聖賢里","LIN":"2鄰","STREET":" ","SECT":" ","MAREA":"北勢寮","LANE":" ","ALLEY":" ","HOUSE_NO":"１６號","E_COORD97":184869.73999999999,"N_COORD97":2579689.6800000002,"ADDRESS":"北勢寮１６號","OBJECTID":280889},"geometry":{"x":184869.74000000022,"y":2579689.6800000034}},{"attributes":{"ID":280896,"DIS_CODE":0,"TOWNNAME":"東山區","LI":"聖賢里","LIN":"2鄰","STREET":" ","SECT":" ","MAREA":"北勢寮","LANE":" ","ALLEY":" ","HOUSE_NO":"１７號","E_COORD97":184881.75,"N_COORD97":2579716.4700000002,"ADDRESS":"北勢寮１７號","OBJECTID":280890},"geometry":{"x":184881.75,"y":2579716.4700000025}},{"attributes":{"ID":280897,"DIS_CODE":0,"TOWNNAME":"東山區","LI":"聖賢里","LIN":"2鄰","STREET":" ","SECT":" ","MAREA":"北勢寮","LANE":" ","ALLEY":" ","HOUSE_NO":"１８號","E_COORD97":184883.70999999999,"N_COORD97":2579696.7400000002,"ADDRESS":"北勢寮１８號","OBJECTID":280891},"geometry":{"x":184883.70999999996,"y":2579696.7400000021}},{"attributes":{"ID":280898,"DIS_CODE":0,"TOWNNAME":"安南區","LI":"四草里","LIN":"2鄰","STREET":"大眾六街","SECT":" ","MAREA":" ","LANE":" ","ALLEY":" ","HOUSE_NO":"１９２號","E_COORD97":160275.89102499999,"N_COORD97":2546822.7139599998,"ADDRESS":"大眾六街１９２號","OBJECTID":280892},"geometry":{"x":160275.89102500025,"y":2546822.7139560021}},{"attributes":{"ID":280899,"DIS_CODE":0,"TOWNNAME":"安南區","LI":"城中里","LIN":"6鄰","STREET":"安中路","SECT":"六段","MAREA":" ","LANE":"５８１巷","ALLEY":" ","HOUSE_NO":"１８號","E_COORD97":160786.31,"N_COORD97":2551399.3700000001,"ADDRESS":"安中路六段５８１巷１８號","OBJECTID":280893},"geometry":{"x":160786.31000000052,"y":2551399.370000001}},{"attributes":{"ID":280900,"DIS_CODE":0,"TOWNNAME":"安南區","LI":"城中里","LIN":"6鄰","STREET":"安中路","SECT":"六段","MAREA":" ","LANE":"５８１巷","ALLEY":" ","HOUSE_NO":"２０之１號","E_COORD97":160772.04000000001,"N_COORD97":2551394.1000000001,"ADDRESS":"安中路六段５８１巷２０之１號","OBJECTID":280894},"geometry":{"x":160772.04000000004,"y":2551394.1000000034}},{"attributes":{"ID":280901,"DIS_CODE":0,"TOWNNAME":"安南區","LI":"城中里","LIN":"6鄰","STREET":"安中路","SECT":"六段","MAREA":" ","LANE":"５８１巷","ALLEY":" ","HOUSE_NO":"２０之２號","E_COORD97":160768.13,"N_COORD97":2551391.1699999999,"ADDRESS":"安中路六段５８１巷２０之２號","OBJECTID":280895},"geometry":{"x":160768.12999999989,"y":2551391.1700000018}},{"attributes":{"ID":280902,"DIS_CODE":0,"TOWNNAME":"安南區","LI":"城中里","LIN":"6鄰","STREET":"安中路","SECT":"六段","MAREA":" ","LANE":"５８１巷","ALLEY":" ","HOUSE_NO":"２０之３號","E_COORD97":160763.82999999999,"N_COORD97":2551391.1699999999,"ADDRESS":"安中路六段５８１巷２０之３號","OBJECTID":280896},"geometry":{"x":160763.83000000007,"y":2551391.1700000018}},{"attributes":{"ID":280903,"DIS_CODE":0,"TOWNNAME":"安南區","LI":"城中里","LIN":"6鄰","STREET":"安中路","SECT":"六段","MAREA":" ","LANE":"５８１巷","ALLEY":" ","HOUSE_NO":"２０號","E_COORD97":160776.73000000001,"N_COORD97":2551393.5099999998,"ADDRESS":"安中路六段５８１巷２０號","OBJECTID":280897},"geometry":{"x":160776.73000000045,"y":2551393.5099999998}},{"attributes":{"ID":280904,"DIS_CODE":0,"TOWNNAME":"東山區","LI":"聖賢里","LIN":"2鄰","STREET":" ","SECT":" ","MAREA":"北勢寮","LANE":" ","ALLEY":" ","HOUSE_NO":"１９號","E_COORD97":184914.12,"N_COORD97":2579725.3999999999,"ADDRESS":"北勢寮１９號","OBJECTID":280898},"geometry":{"x":184914.12000000104,"y":2579725.4000000004}},{"attributes":{"ID":280905,"DIS_CODE":0,"TOWNNAME":"仁德區","LI":"仁義里","LIN":"34鄰","STREET":"正義二街","SECT":" ","MAREA":" ","LANE":" ","ALLEY":" ","HOUSE_NO":"１６２號八樓","E_COORD97":173824.79000000001,"N_COORD97":2541580.27,"ADDRESS":"正義二街１６２號八樓","OBJECTID":280899},"geometry":{"x":173824.79000000097,"y":2541580.2699999996}},{"attributes":{"ID":280906,"DIS_CODE":0,"TOWNNAME":"東山區","LI":"東河里","LIN":"2鄰","STREET":" ","SECT":" ","MAREA":"吉貝耍","LANE":" ","ALLEY":" ","HOUSE_NO":"１１號之１","E_COORD97":187160.03,"N_COORD97":2576992.8100000001,"ADDRESS":"吉貝耍１１號之１","OBJECTID":280900},"geometry":{"x":187160.03000000026,"y":2576992.8100000005}},{"attributes":{"ID":280907,"DIS_CODE":0,"TOWNNAME":"安南區","LI":"城中里","LIN":"6鄰","STREET":"安中路","SECT":"六段","MAREA":" ","LANE":"５８１巷","ALLEY":" ","HOUSE_NO":"２６號","E_COORD97":160760.69,"N_COORD97":2551385.2599999998,"ADDRESS":"安中路六段５８１巷２６號","OBJECTID":280901},"geometry":{"x":160760.69000000134,"y":2551385.2599999998}},{"attributes":{"ID":280908,"DIS_CODE":0,"TOWNNAME":"安南區","LI":"城中里","LIN":"6鄰","STREET":"城西街","SECT":"一段","MAREA":" ","LANE":"６１巷","ALLEY":" ","HOUSE_NO":"１９號","E_COORD97":160753.84,"N_COORD97":2551360.9700000002,"ADDRESS":"城西街一段６１巷１９號","OBJECTID":280902},"geometry":{"x":160753.84000000078,"y":2551360.9700000007}},{"attributes":{"ID":280909,"DIS_CODE":0,"TOWNNAME":"安南區","LI":"城中里","LIN":"6鄰","STREET":"城西街","SECT":"一段","MAREA":" ","LANE":"６１巷","ALLEY":" ","HOUSE_NO":"２１號","E_COORD97":160756.70000000001,"N_COORD97":2551354.4100000001,"ADDRESS":"城西街一段６１巷２１號","OBJECTID":280903},"geometry":{"x":160756.70000000205,"y":2551354.4100000001}},{"attributes":{"ID":280910,"DIS_CODE":0,"TOWNNAME":"安南區","LI":"城中里","LIN":"6鄰","STREET":"城西街","SECT":"一段","MAREA":" ","LANE":"６１巷","ALLEY":" ","HOUSE_NO":"２５號","E_COORD97":160760.23999999999,"N_COORD97":2551348.6800000002,"ADDRESS":"城西街一段６１巷２５號","OBJECTID":280904},"geometry":{"x":160760.24000000115,"y":2551348.6799999997}},{"attributes":{"ID":280911,"DIS_CODE":0,"TOWNNAME":"安南區","LI":"砂崙里","LIN":"6鄰","STREET":"青砂街","SECT":"一段","MAREA":" ","LANE":"５７２巷","ALLEY":" ","HOUSE_NO":"１１４號","E_COORD97":160114.41,"N_COORD97":2552863.3599999999,"ADDRESS":"青砂街一段５７２巷１１４號","OBJECTID":280905},"geometry":{"x":160114.41000000201,"y":2552863.3600000031}},{"attributes":{"ID":280912,"DIS_CODE":0,"TOWNNAME":"東山區","LI":"東河里","LIN":"2鄰","STREET":" ","SECT":" ","MAREA":"吉貝耍","LANE":" ","ALLEY":" ","HOUSE_NO":"１１號之２","E_COORD97":187185.35999999999,"N_COORD97":2576918.4199999999,"ADDRESS":"吉貝耍１１號之２","OBJECTID":280906},"geometry":{"x":187185.3599999994,"y":2576918.4200000037}},{"attributes":{"ID":280913,"DIS_CODE":0,"TOWNNAME":"東山區","LI":"東河里","LIN":"2鄰","STREET":" ","SECT":" ","MAREA":"吉貝耍","LANE":" ","ALLEY":" ","HOUSE_NO":"１１號之３","E_COORD97":187173.26000000001,"N_COORD97":2576936.3599999999,"ADDRESS":"吉貝耍１１號之３","OBJECTID":280907},"geometry":{"x":187173.25999999978,"y":2576936.3600000013}},{"attributes":{"ID":280914,"DIS_CODE":0,"TOWNNAME":"麻豆區","LI":"保安里","LIN":"14鄰","STREET":"興南路","SECT":" ","MAREA":" ","LANE":" ","ALLEY":" ","HOUSE_NO":"７９號","E_COORD97":173256.29000000001,"N_COORD97":2564764.6400000001,"ADDRESS":"興南路７９號","OBJECTID":280908},"geometry":{"x":173256.2900000019,"y":2564764.6400000006}},{"attributes":{"ID":280915,"DIS_CODE":0,"TOWNNAME":"東山區","LI":"東河里","LIN":"2鄰","STREET":" ","SECT":" ","MAREA":"吉貝耍","LANE":" ","ALLEY":" ","HOUSE_NO":"１１號之４","E_COORD97":187157.37,"N_COORD97":2576937.6299999999,"ADDRESS":"吉貝耍１１號之４","OBJECTID":280909},"geometry":{"x":187157.37000000011,"y":2576937.6300000008}},{"attributes":{"ID":280916,"DIS_CODE":0,"TOWNNAME":"東山區","LI":"東河里","LIN":"2鄰","STREET":" ","SECT":" ","MAREA":"吉貝耍","LANE":" ","ALLEY":" ","HOUSE_NO":"１１號","E_COORD97":187140.79999999999,"N_COORD97":2576981.8300000001,"ADDRESS":"吉貝耍１１號","OBJECTID":280910},"geometry":{"x":187140.79999999981,"y":2576981.8300000001}},{"attributes":{"ID":280917,"DIS_CODE":0,"TOWNNAME":"東山區","LI":"東河里","LIN":"2鄰","STREET":" ","SECT":" ","MAREA":"吉貝耍","LANE":" ","ALLEY":" ","HOUSE_NO":"１３號之１","E_COORD97":187262.44,"N_COORD97":2576960.3799999999,"ADDRESS":"吉貝耍１３號之１","OBJECTID":280911},"geometry":{"x":187262.44000000041,"y":2576960.379999999}},{"attributes":{"ID":280918,"DIS_CODE":0,"TOWNNAME":"東山區","LI":"東河里","LIN":"2鄰","STREET":" ","SECT":" ","MAREA":"吉貝耍","LANE":" ","ALLEY":" ","HOUSE_NO":"１３號之２","E_COORD97":187276.03,"N_COORD97":2576945.7200000002,"ADDRESS":"吉貝耍１３號之２","OBJECTID":280912},"geometry":{"x":187276.03000000119,"y":2576945.7200000025}},{"attributes":{"ID":280919,"DIS_CODE":0,"TOWNNAME":"東山區","LI":"東原里","LIN":"2鄰","STREET":" ","SECT":" ","MAREA":"前大埔","LANE":" ","ALLEY":" ","HOUSE_NO":"１２號","E_COORD97":193279.07999999999,"N_COORD97":2573687.9399999999,"ADDRESS":"前大埔１２號","OBJECTID":280913},"geometry":{"x":193279.08000000007,"y":2573687.9400000013}},{"attributes":{"ID":280920,"DIS_CODE":0,"TOWNNAME":"安南區","LI":"砂崙里","LIN":"6鄰","STREET":"青砂街","SECT":"一段","MAREA":" ","LANE":"５７２巷","ALLEY":" ","HOUSE_NO":"１４８號","E_COORD97":160000.23000000001,"N_COORD97":2552881.3799999999,"ADDRESS":"青砂街一段５７２巷１４８號","OBJECTID":280914},"geometry":{"x":160000.23000000045,"y":2552881.379999999}},{"attributes":{"ID":280921,"DIS_CODE":0,"TOWNNAME":"安南區","LI":"砂崙里","LIN":"6鄰","STREET":"青砂街","SECT":"一段","MAREA":" ","LANE":"５７２巷","ALLEY":" ","HOUSE_NO":"９８號","E_COORD97":160144.35999999999,"N_COORD97":2552854.0899999999,"ADDRESS":"青砂街一段５７２巷９８號","OBJECTID":280915},"geometry":{"x":160144.36000000127,"y":2552854.0899999999}},{"attributes":{"ID":280922,"DIS_CODE":0,"TOWNNAME":"東山區","LI":"東原里","LIN":"2鄰","STREET":" ","SECT":" ","MAREA":"前大埔","LANE":" ","ALLEY":" ","HOUSE_NO":"１３號之１５","E_COORD97":193264.92999999999,"N_COORD97":2573727.1200000001,"ADDRESS":"前大埔１３號之１５","OBJECTID":280916},"geometry":{"x":193264.93000000156,"y":2573727.120000001}},{"attributes":{"ID":280923,"DIS_CODE":0,"TOWNNAME":"東山區","LI":"東原里","LIN":"2鄰","STREET":" ","SECT":" ","MAREA":"前大埔","LANE":" ","ALLEY":" ","HOUSE_NO":"１３號之１","E_COORD97":193267.48000000001,"N_COORD97":2573734.0699999998,"ADDRESS":"前大埔１３號之１","OBJECTID":280917},"geometry":{"x":193267.48000000138,"y":2573734.070000004}},{"attributes":{"ID":280924,"DIS_CODE":0,"TOWNNAME":"安南區","LI":"砂崙里","LIN":"6鄰","STREET":"城北路","SECT":" ","MAREA":" ","LANE":"７３５巷","ALLEY":" ","HOUSE_NO":"２９８號","E_COORD97":160248.45000000001,"N_COORD97":2552864.6600000001,"ADDRESS":"城北路７３５巷２９８號","OBJECTID":280918},"geometry":{"x":160248.45000000112,"y":2552864.6600000001}},{"attributes":{"ID":280925,"DIS_CODE":0,"TOWNNAME":"中西區","LI":"萬昌里","LIN":"17鄰","STREET":"青年路","SECT":" ","MAREA":" ","LANE":"１３２巷","ALLEY":" ","HOUSE_NO":"１３號","E_COORD97":168928.79999999999,"N_COORD97":2543547.3199999998,"ADDRESS":"青年路１３２巷１３號","OBJECTID":280919},"geometry":{"x":168928.80000000075,"y":2543547.3200000003}},{"attributes":{"ID":280926,"DIS_CODE":0,"TOWNNAME":"安南區","LI":"砂崙里","LIN":"6鄰","STREET":"城北路","SECT":" ","MAREA":" ","LANE":"７３５巷","ALLEY":" ","HOUSE_NO":"３１６號","E_COORD97":160214.38,"N_COORD97":2552872.5499999998,"ADDRESS":"城北路７３５巷３１６號","OBJECTID":280920},"geometry":{"x":160214.38000000175,"y":2552872.5500000007}},{"attributes":{"ID":280927,"DIS_CODE":0,"TOWNNAME":"安南區","LI":"砂崙里","LIN":"6鄰","STREET":"城北路","SECT":" ","MAREA":" ","LANE":"７３５巷","ALLEY":" ","HOUSE_NO":"３２２號","E_COORD97":160200.48999999999,"N_COORD97":2552877.8799999999,"ADDRESS":"城北路７３５巷３２２號","OBJECTID":280921},"geometry":{"x":160200.49000000209,"y":2552877.8800000008}},{"attributes":{"ID":280928,"DIS_CODE":0,"TOWNNAME":"安南區","LI":"海東里","LIN":"6鄰","STREET":"同安路","SECT":" ","MAREA":" ","LANE":"３４７巷","ALLEY":" ","HOUSE_NO":"７０號","E_COORD97":167211.60000000001,"N_COORD97":2549382.04,"ADDRESS":"同安路３４７巷７０號","OBJECTID":280922},"geometry":{"x":167211.59999999963,"y":2549382.0399999991}},{"attributes":{"ID":280929,"DIS_CODE":0,"TOWNNAME":"安南區","LI":"海東里","LIN":"6鄰","STREET":"同安路","SECT":" ","MAREA":" ","LANE":"３４７巷","ALLEY":" ","HOUSE_NO":"７２號","E_COORD97":167198.51000000001,"N_COORD97":2549381.8199999998,"ADDRESS":"同安路３４７巷７２號","OBJECTID":280923},"geometry":{"x":167198.50999999978,"y":2549381.8200000003}},{"attributes":{"ID":280930,"DIS_CODE":0,"TOWNNAME":"麻豆區","LI":"埤頭里","LIN":"2鄰","STREET":" ","SECT":" ","MAREA":"埤頭","LANE":" ","ALLEY":" ","HOUSE_NO":"２０號","E_COORD97":170772.01000000001,"N_COORD97":2565679.4500000002,"ADDRESS":"埤頭２０號","OBJECTID":280924},"geometry":{"x":170772.00999999978,"y":2565679.4500000011}},{"attributes":{"ID":280931,"DIS_CODE":0,"TOWNNAME":"六甲區","LI":"甲東里","LIN":"1鄰","STREET":"復興街","SECT":" ","MAREA":" ","LANE":" ","ALLEY":" ","HOUSE_NO":"２４號","E_COORD97":183929.32958600001,"N_COORD97":2569928.86362,"ADDRESS":"復興街２４號","OBJECTID":280925},"geometry":{"x":183929.32958600018,"y":2569928.8636239972}},{"attributes":{"ID":280932,"DIS_CODE":0,"TOWNNAME":"麻豆區","LI":"埤頭里","LIN":"2鄰","STREET":" ","SECT":" ","MAREA":"埤頭","LANE":" ","ALLEY":" ","HOUSE_NO":"２２號之３","E_COORD97":170726.35000000001,"N_COORD97":2565688.5,"ADDRESS":"埤頭２２號之３","OBJECTID":280926},"geometry":{"x":170726.35000000056,"y":2565688.4999999981}},{"attributes":{"ID":280933,"DIS_CODE":0,"TOWNNAME":"麻豆區","LI":"埤頭里","LIN":"2鄰","STREET":" ","SECT":" ","MAREA":"埤頭","LANE":" ","ALLEY":" ","HOUSE_NO":"２２號","E_COORD97":170711.39000000001,"N_COORD97":2565685.3500000001,"ADDRESS":"埤頭２２號","OBJECTID":280927},"geometry":{"x":170711.3900000006,"y":2565685.3499999996}},{"attributes":{"ID":280934,"DIS_CODE":0,"TOWNNAME":"安南區","LI":"海東里","LIN":"6鄰","STREET":"同安路","SECT":" ","MAREA":" ","LANE":"３４７巷","ALLEY":" ","HOUSE_NO":"７６號","E_COORD97":167201.13,"N_COORD97":2549385.6499999999,"ADDRESS":"同安路３４７巷７６號","OBJECTID":280928},"geometry":{"x":167201.12999999989,"y":2549385.6500000004}},{"attributes":{"ID":280935,"DIS_CODE":0,"TOWNNAME":"安南區","LI":"海東里","LIN":"6鄰","STREET":"同安路","SECT":" ","MAREA":" ","LANE":"３４７巷","ALLEY":" ","HOUSE_NO":"７８號","E_COORD97":167203.22,"N_COORD97":2549389.5699999998,"ADDRESS":"同安路３４７巷７８號","OBJECTID":280929},"geometry":{"x":167203.22000000067,"y":2549389.5700000003}},{"attributes":{"ID":280936,"DIS_CODE":0,"TOWNNAME":"安南區","LI":"海東里","LIN":"6鄰","STREET":"同安路","SECT":" ","MAREA":" ","LANE":"３４７巷","ALLEY":" ","HOUSE_NO":"８０號","E_COORD97":167205.39999999999,"N_COORD97":2549393.5,"ADDRESS":"同安路３４７巷８０號","OBJECTID":280930},"geometry":{"x":167205.40000000037,"y":2549393.5}},{"attributes":{"ID":280937,"DIS_CODE":0,"TOWNNAME":"新市區","LI":"永就里","LIN":"6鄰","STREET":"中華路","SECT":" ","MAREA":" ","LANE":"５３巷","ALLEY":" ","HOUSE_NO":"５０號","E_COORD97":177855.62,"N_COORD97":2551628.25,"ADDRESS":"中華路５３巷５０號","OBJECTID":280931},"geometry":{"x":177855.62000000104,"y":2551628.2500000019}},{"attributes":{"ID":280938,"DIS_CODE":0,"TOWNNAME":"永康區","LI":"安康里","LIN":"6鄰","STREET":"中華路","SECT":" ","MAREA":" ","LANE":"７２７巷","ALLEY":" ","HOUSE_NO":"６５號","E_COORD97":170677.23999999999,"N_COORD97":2546318.9900000002,"ADDRESS":"中華路７２７巷６５號","OBJECTID":280932},"geometry":{"x":170677.24000000115,"y":2546318.9900000002}},{"attributes":{"ID":280939,"DIS_CODE":0,"TOWNNAME":"永康區","LI":"安康里","LIN":"6鄰","STREET":"中華路","SECT":" ","MAREA":" ","LANE":"７２７巷","ALLEY":" ","HOUSE_NO":"６１號","E_COORD97":170685.89999999999,"N_COORD97":2546324.2400000002,"ADDRESS":"中華路７２７巷６１號","OBJECTID":280933},"geometry":{"x":170685.90000000224,"y":2546324.2400000002}},{"attributes":{"ID":280940,"DIS_CODE":0,"TOWNNAME":"安南區","LI":"州北里","LIN":"6鄰","STREET":"安和路","SECT":"五段","MAREA":" ","LANE":"１７１巷","ALLEY":" ","HOUSE_NO":"７７號","E_COORD97":169664.60000000001,"N_COORD97":2551760.8700000001,"ADDRESS":"安和路五段１７１巷７７號","OBJECTID":280934},"geometry":{"x":169664.59999999963,"y":2551760.8700000029}},{"attributes":{"ID":280941,"DIS_CODE":0,"TOWNNAME":"安南區","LI":"安西里","LIN":"6鄰","STREET":"安和路","SECT":"一段","MAREA":" ","LANE":"２６３巷","ALLEY":" ","HOUSE_NO":"４６號","E_COORD97":169151.5,"N_COORD97":2548009.4500000002,"ADDRESS":"安和路一段２６３巷４６號","OBJECTID":280935},"geometry":{"x":169151.50000000093,"y":2548009.4499999993}},{"attributes":{"ID":280942,"DIS_CODE":0,"TOWNNAME":"安南區","LI":"安東里","LIN":"6鄰","STREET":"安和路","SECT":"一段","MAREA":" ","LANE":"２８８巷","ALLEY":" ","HOUSE_NO":"３２號","E_COORD97":169386.66,"N_COORD97":2548085.0699999998,"ADDRESS":"安和路一段２８８巷３２號","OBJECTID":280936},"geometry":{"x":169386.66000000015,"y":2548085.0700000003}},{"attributes":{"ID":280943,"DIS_CODE":0,"TOWNNAME":"安南區","LI":"安東里","LIN":"6鄰","STREET":"安和路","SECT":"一段","MAREA":" ","LANE":"２８８巷","ALLEY":" ","HOUSE_NO":"４０號","E_COORD97":169391.13,"N_COORD97":2548094.7000000002,"ADDRESS":"安和路一段２８８巷４０號","OBJECTID":280937},"geometry":{"x":169391.13000000082,"y":2548094.7000000011}},{"attributes":{"ID":280944,"DIS_CODE":0,"TOWNNAME":"安南區","LI":"安東里","LIN":"6鄰","STREET":"安和路","SECT":"一段","MAREA":" ","LANE":"２８８巷","ALLEY":" ","HOUSE_NO":"５０號","E_COORD97":169416.01000000001,"N_COORD97":2548098.1899999999,"ADDRESS":"安和路一段２８８巷５０號","OBJECTID":280938},"geometry":{"x":169416.00999999978,"y":2548098.1900000013}},{"attributes":{"ID":280945,"DIS_CODE":0,"TOWNNAME":"安南區","LI":"安東里","LIN":"6鄰","STREET":"安和路","SECT":"一段","MAREA":" ","LANE":"２８８巷","ALLEY":" ","HOUSE_NO":"４５號","E_COORD97":169406.35999999999,"N_COORD97":2548121.4399999999,"ADDRESS":"安和路一段２８８巷４５號","OBJECTID":280939},"geometry":{"x":169406.3600000022,"y":2548121.4399999995}},{"attributes":{"ID":280946,"DIS_CODE":0,"TOWNNAME":"安南區","LI":"州北里","LIN":"6鄰","STREET":"安和路","SECT":"五段","MAREA":" ","LANE":"１７１巷","ALLEY":" ","HOUSE_NO":"５９號","E_COORD97":169704.69,"N_COORD97":2551777.8399999999,"ADDRESS":"安和路五段１７１巷５９號","OBJECTID":280940},"geometry":{"x":169704.69000000134,"y":2551777.8399999999}},{"attributes":{"ID":280947,"DIS_CODE":0,"TOWNNAME":"安南區","LI":"州北里","LIN":"6鄰","STREET":"安和路","SECT":"五段","MAREA":" ","LANE":"１７１巷","ALLEY":" ","HOUSE_NO":"６１號","E_COORD97":169698.84,"N_COORD97":2551776.1699999999,"ADDRESS":"安和路五段１７１巷６１號","OBJECTID":280941},"geometry":{"x":169698.83999999985,"y":2551776.1699999999}},{"attributes":{"ID":280948,"DIS_CODE":0,"TOWNNAME":"安南區","LI":"州北里","LIN":"6鄰","STREET":"安和路","SECT":"五段","MAREA":" ","LANE":"１７１巷","ALLEY":" ","HOUSE_NO":"６３號","E_COORD97":169695.22,"N_COORD97":2551772.5499999998,"ADDRESS":"安和路五段１７１巷６３號","OBJECTID":280942},"geometry":{"x":169695.22000000067,"y":2551772.5500000026}},{"attributes":{"ID":280949,"DIS_CODE":0,"TOWNNAME":"安南區","LI":"州北里","LIN":"6鄰","STREET":"安和路","SECT":"五段","MAREA":" ","LANE":"１７１巷","ALLEY":" ","HOUSE_NO":"６７號","E_COORD97":169687.98000000001,"N_COORD97":2551769.2200000002,"ADDRESS":"安和路五段１７１巷６７號","OBJECTID":280943},"geometry":{"x":169687.98000000045,"y":2551769.2200000007}},{"attributes":{"ID":280950,"DIS_CODE":0,"TOWNNAME":"安南區","LI":"州北里","LIN":"6鄰","STREET":"安和路","SECT":"五段","MAREA":" ","LANE":"１７１巷","ALLEY":" ","HOUSE_NO":"７１號","E_COORD97":169679.91,"N_COORD97":2551767.27,"ADDRESS":"安和路五段１７１巷７１號","OBJECTID":280944},"geometry":{"x":169679.91000000015,"y":2551767.2699999996}},{"attributes":{"ID":280951,"DIS_CODE":0,"TOWNNAME":"安南區","LI":"州北里","LIN":"6鄰","STREET":"安和路","SECT":"五段","MAREA":" ","LANE":"１７１巷","ALLEY":" ","HOUSE_NO":"７３號","E_COORD97":169676.29000000001,"N_COORD97":2551765.8799999999,"ADDRESS":"安和路五段１７１巷７３號","OBJECTID":280945},"geometry":{"x":169676.29000000097,"y":2551765.8800000008}},{"attributes":{"ID":280952,"DIS_CODE":0,"TOWNNAME":"安南區","LI":"州北里","LIN":"6鄰","STREET":"安和路","SECT":"五段","MAREA":" ","LANE":"１７１巷","ALLEY":" ","HOUSE_NO":"７５號","E_COORD97":169672.67000000001,"N_COORD97":2551764.4900000002,"ADDRESS":"安和路五段１７１巷７５號","OBJECTID":280946},"geometry":{"x":169672.66999999993,"y":2551764.4900000002}},{"attributes":{"ID":280953,"DIS_CODE":0,"TOWNNAME":"安南區","LI":"溪墘里","LIN":"6鄰","STREET":"海佃路","SECT":"一段","MAREA":" ","LANE":"２４６巷","ALLEY":" ","HOUSE_NO":"５號","E_COORD97":167176.32000000001,"N_COORD97":2547337.8799999999,"ADDRESS":"海佃路一段２４６巷５號","OBJECTID":280947},"geometry":{"x":167176.32000000123,"y":2547337.8800000008}},{"attributes":{"ID":280954,"DIS_CODE":0,"TOWNNAME":"安南區","LI":"溪墘里","LIN":"6鄰","STREET":"海佃路","SECT":"一段","MAREA":" ","LANE":"２４６巷","ALLEY":" ","HOUSE_NO":"６３號","E_COORD97":167307.17000000001,"N_COORD97":2547365.5899999999,"ADDRESS":"海佃路一段２４６巷６３號","OBJECTID":280948},"geometry":{"x":167307.17000000086,"y":2547365.5899999999}},{"attributes":{"ID":280955,"DIS_CODE":0,"TOWNNAME":"安南區","LI":"溪墘里","LIN":"6鄰","STREET":"海佃路","SECT":"一段","MAREA":" ","LANE":"２４６巷","ALLEY":" ","HOUSE_NO":"４３號","E_COORD97":167262.76999999999,"N_COORD97":2547356.2000000002,"ADDRESS":"海佃路一段２４６巷４３號","OBJECTID":280949},"geometry":{"x":167262.76999999955,"y":2547356.2000000011}},{"attributes":{"ID":280956,"DIS_CODE":0,"TOWNNAME":"安南區","LI":"溪墘里","LIN":"6鄰","STREET":"海佃路","SECT":"一段","MAREA":" ","LANE":"２４６巷","ALLEY":" ","HOUSE_NO":"１７號","E_COORD97":167204.10999999999,"N_COORD97":2547343.3599999999,"ADDRESS":"海佃路一段２４６巷１７號","OBJECTID":280950},"geometry":{"x":167204.11000000034,"y":2547343.3599999994}},{"attributes":{"ID":280957,"DIS_CODE":0,"TOWNNAME":"安南區","LI":"溪墘里","LIN":"6鄰","STREET":"海佃路","SECT":"一段","MAREA":" ","LANE":"２４６巷","ALLEY":" ","HOUSE_NO":"７號","E_COORD97":167181.16,"N_COORD97":2547339.23,"ADDRESS":"海佃路一段２４６巷７號","OBJECTID":280951},"geometry":{"x":167181.16000000015,"y":2547339.2300000023}},{"attributes":{"ID":280958,"DIS_CODE":0,"TOWNNAME":"安南區","LI":"溪北里","LIN":"6鄰","STREET":"安和路","SECT":"一段","MAREA":" ","LANE":"１５巷","ALLEY":" ","HOUSE_NO":"８號","E_COORD97":169521.57999999999,"N_COORD97":2547385.23,"ADDRESS":"安和路一段１５巷８號","OBJECTID":280952},"geometry":{"x":169521.58000000194,"y":2547385.2300000004}},{"attributes":{"ID":280959,"DIS_CODE":0,"TOWNNAME":"安南區","LI":"溪墘里","LIN":"6鄰","STREET":"海佃路","SECT":"一段","MAREA":" ","LANE":"２４６巷","ALLEY":" ","HOUSE_NO":"２７號","E_COORD97":167226.37,"N_COORD97":2547347.77,"ADDRESS":"海佃路一段２４６巷２７號","OBJECTID":280953},"geometry":{"x":167226.37000000104,"y":2547347.7700000033}},{"attributes":{"ID":280960,"DIS_CODE":0,"TOWNNAME":"安南區","LI":"溪墘里","LIN":"6鄰","STREET":"海佃路","SECT":"一段","MAREA":" ","LANE":"２４６巷","ALLEY":" ","HOUSE_NO":"２９號","E_COORD97":167230.87,"N_COORD97":2547349.25,"ADDRESS":"海佃路一段２４６巷２９號","OBJECTID":280954},"geometry":{"x":167230.87000000011,"y":2547349.2500000019}},{"attributes":{"ID":280961,"DIS_CODE":0,"TOWNNAME":"北區","LI":"成德里","LIN":"2鄰","STREET":"西門路","SECT":"四段","MAREA":" ","LANE":" ","ALLEY":" ","HOUSE_NO":"１１號","E_COORD97":168600.91,"N_COORD97":2545219.8100000001,"ADDRESS":"西門路四段１１號","OBJECTID":280955},"geometry":{"x":168600.91000000108,"y":2545219.8100000024}},{"attributes":{"ID":280962,"DIS_CODE":0,"TOWNNAME":"北區","LI":"成德里","LIN":"2鄰","STREET":"西門路","SECT":"四段","MAREA":" ","LANE":" ","ALLEY":" ","HOUSE_NO":"１３號","E_COORD97":168604.28,"N_COORD97":2545227.4300000002,"ADDRESS":"西門路四段１３號","OBJECTID":280956},"geometry":{"x":168604.28000000026,"y":2545227.4299999997}},{"attributes":{"ID":280963,"DIS_CODE":0,"TOWNNAME":"北區","LI":"成德里","LIN":"2鄰","STREET":"西門路","SECT":"四段","MAREA":" ","LANE":" ","ALLEY":" ","HOUSE_NO":"１５號","E_COORD97":168594.82000000001,"N_COORD97":2545252.8799999999,"ADDRESS":"西門路四段１５號","OBJECTID":280957},"geometry":{"x":168594.82000000123,"y":2545252.8800000008}},{"attributes":{"ID":280964,"DIS_CODE":0,"TOWNNAME":"安南區","LI":"溪墘里","LIN":"6鄰","STREET":"海佃路","SECT":"一段","MAREA":" ","LANE":"２４６巷","ALLEY":" ","HOUSE_NO":"３１號","E_COORD97":167235.75,"N_COORD97":2547350.6800000002,"ADDRESS":"海佃路一段２４６巷３１號","OBJECTID":280958},"geometry":{"x":167235.75000000093,"y":2547350.6799999997}},{"attributes":{"ID":280965,"DIS_CODE":0,"TOWNNAME":"安南區","LI":"溪墘里","LIN":"6鄰","STREET":"海佃路","SECT":"一段","MAREA":" ","LANE":"２４６巷","ALLEY":" ","HOUSE_NO":"３３號","E_COORD97":167240.89999999999,"N_COORD97":2547351.8500000001,"ADDRESS":"海佃路一段２４６巷３３號","OBJECTID":280959},"geometry":{"x":167240.90000000037,"y":2547351.8500000015}},{"attributes":{"ID":280966,"DIS_CODE":0,"TOWNNAME":"安南區","LI":"溪墘里","LIN":"6鄰","STREET":"海佃路","SECT":"一段","MAREA":" ","LANE":"２４６巷","ALLEY":" ","HOUSE_NO":"３５號","E_COORD97":167243.09,"N_COORD97":2547352.9100000001,"ADDRESS":"海佃路一段２４６巷３５號","OBJECTID":280960},"geometry":{"x":167243.09000000078,"y":2547352.9100000001}},{"attributes":{"ID":280967,"DIS_CODE":0,"TOWNNAME":"安南區","LI":"溪墘里","LIN":"6鄰","STREET":"海佃路","SECT":"一段","MAREA":" ","LANE":"２４６巷","ALLEY":" ","HOUSE_NO":"３７號","E_COORD97":167247.51999999999,"N_COORD97":2547353.8799999999,"ADDRESS":"海佃路一段２４６巷３７號","OBJECTID":280961},"geometry":{"x":167247.51999999955,"y":2547353.8800000008}},{"attributes":{"ID":280968,"DIS_CODE":0,"TOWNNAME":"北區","LI":"振興里","LIN":"6鄰","STREET":"長榮路","SECT":"四段","MAREA":" ","LANE":"１８３巷","ALLEY":" ","HOUSE_NO":"１０號","E_COORD97":170149.17999999999,"N_COORD97":2545224.9399999999,"ADDRESS":"長榮路四段１８３巷１０號","OBJECTID":280962},"geometry":{"x":170149.1799999997,"y":2545224.9400000013}},{"attributes":{"ID":280969,"DIS_CODE":0,"TOWNNAME":"北區","LI":"成德里","LIN":"2鄰","STREET":"西門路","SECT":"四段","MAREA":" ","LANE":" ","ALLEY":" ","HOUSE_NO":"１５號地下層","E_COORD97":168594.82000000001,"N_COORD97":2545252.8799999999,"ADDRESS":"西門路四段１５號地下層","OBJECTID":280963},"geometry":{"x":168594.82000000123,"y":2545252.8800000008}},{"attributes":{"ID":280970,"DIS_CODE":0,"TOWNNAME":"北區","LI":"振興里","LIN":"6鄰","STREET":"長榮路","SECT":"四段","MAREA":" ","LANE":"１８３巷","ALLEY":" ","HOUSE_NO":"１２號","E_COORD97":170145.35999999999,"N_COORD97":2545221.6800000002,"ADDRESS":"長榮路四段１８３巷１２號","OBJECTID":280964},"geometry":{"x":170145.3600000022,"y":2545221.6799999997}},{"attributes":{"ID":280971,"DIS_CODE":0,"TOWNNAME":"北區","LI":"振興里","LIN":"6鄰","STREET":"長榮路","SECT":"四段","MAREA":" ","LANE":"１８３巷","ALLEY":" ","HOUSE_NO":"１３號","E_COORD97":170146.53,"N_COORD97":2545181.6600000001,"ADDRESS":"長榮路四段１８３巷１３號","OBJECTID":280965},"geometry":{"x":170146.53000000119,"y":2545181.6600000001}},{"attributes":{"ID":280972,"DIS_CODE":0,"TOWNNAME":"北區","LI":"振興里","LIN":"6鄰","STREET":"長榮路","SECT":"四段","MAREA":" ","LANE":"１８３巷","ALLEY":" ","HOUSE_NO":"１５號","E_COORD97":170143.14999999999,"N_COORD97":2545179.27,"ADDRESS":"長榮路四段１８３巷１５號","OBJECTID":280966},"geometry":{"x":170143.15000000037,"y":2545179.2700000014}},{"attributes":{"ID":280973,"DIS_CODE":0,"TOWNNAME":"新營區","LI":"新東里","LIN":"6鄰","STREET":"東大街","SECT":" ","MAREA":" ","LANE":"６６巷","ALLEY":" ","HOUSE_NO":"９號","E_COORD97":181058.10000000001,"N_COORD97":2579201.21,"ADDRESS":"東大街６６巷９號","OBJECTID":280967},"geometry":{"x":181058.09999999963,"y":2579201.2100000009}},{"attributes":{"ID":280974,"DIS_CODE":0,"TOWNNAME":"新營區","LI":"埤寮里","LIN":"6鄰","STREET":"中正路","SECT":" ","MAREA":" ","LANE":"５００巷","ALLEY":" ","HOUSE_NO":"４１號","E_COORD97":180202.72,"N_COORD97":2580801.0699999998,"ADDRESS":"中正路５００巷４１號","OBJECTID":280968},"geometry":{"x":180202.71999999974,"y":2580801.0700000022}},{"attributes":{"ID":280975,"DIS_CODE":0,"TOWNNAME":"六甲區","LI":"水林里","LIN":"6鄰","STREET":"中山路","SECT":" ","MAREA":" ","LANE":"５２２巷","ALLEY":" ","HOUSE_NO":"１４號","E_COORD97":182428.39999999999,"N_COORD97":2570345.5899999999,"ADDRESS":"中山路５２２巷１４號","OBJECTID":280969},"geometry":{"x":182428.40000000037,"y":2570345.5899999999}},{"attributes":{"ID":280976,"DIS_CODE":0,"TOWNNAME":"六甲區","LI":"水林里","LIN":"6鄰","STREET":"中山路","SECT":" ","MAREA":" ","LANE":"５２２巷","ALLEY":" ","HOUSE_NO":"１６號","E_COORD97":182429.01000000001,"N_COORD97":2570349.5899999999,"ADDRESS":"中山路５２２巷１６號","OBJECTID":280970},"geometry":{"x":182429.01000000071,"y":2570349.589999998}},{"attributes":{"ID":280977,"DIS_CODE":0,"TOWNNAME":"六甲區","LI":"水林里","LIN":"6鄰","STREET":"中山路","SECT":" ","MAREA":" ","LANE":"５２２巷","ALLEY":" ","HOUSE_NO":"１８號","E_COORD97":182429.75,"N_COORD97":2570353.5499999998,"ADDRESS":"中山路５２２巷１８號","OBJECTID":280971},"geometry":{"x":182429.75000000093,"y":2570353.5500000007}},{"attributes":{"ID":280978,"DIS_CODE":0,"TOWNNAME":"六甲區","LI":"水林里","LIN":"6鄰","STREET":"中山路","SECT":" ","MAREA":" ","LANE":"５２２巷","ALLEY":" ","HOUSE_NO":"２０號","E_COORD97":182430.26999999999,"N_COORD97":2570357.3799999999,"ADDRESS":"中山路５２２巷２０號","OBJECTID":280972},"geometry":{"x":182430.27000000142,"y":2570357.3800000008}},{"attributes":{"ID":280979,"DIS_CODE":0,"TOWNNAME":"六甲區","LI":"水林里","LIN":"6鄰","STREET":"中山路","SECT":" ","MAREA":" ","LANE":"５２２巷","ALLEY":" ","HOUSE_NO":"２２號","E_COORD97":182430.84,"N_COORD97":2570361.73,"ADDRESS":"中山路５２２巷２２號","OBJECTID":280973},"geometry":{"x":182430.84000000078,"y":2570361.7300000004}},{"attributes":{"ID":280980,"DIS_CODE":0,"TOWNNAME":"六甲區","LI":"水林里","LIN":"6鄰","STREET":"中山路","SECT":" ","MAREA":" ","LANE":"５２２巷","ALLEY":" ","HOUSE_NO":"２４號","E_COORD97":182431.39000000001,"N_COORD97":2570365.3199999998,"ADDRESS":"中山路５２２巷２４號","OBJECTID":280974},"geometry":{"x":182431.3900000006,"y":2570365.3200000003}},{"attributes":{"ID":280981,"DIS_CODE":0,"TOWNNAME":"六甲區","LI":"水林里","LIN":"6鄰","STREET":"中山路","SECT":" ","MAREA":" ","LANE":"５２２巷","ALLEY":" ","HOUSE_NO":"２６號","E_COORD97":182432.26999999999,"N_COORD97":2570369.2999999998,"ADDRESS":"中山路５２２巷２６號","OBJECTID":280975},"geometry":{"x":182432.27000000048,"y":2570369.3000000007}},{"attributes":{"ID":280982,"DIS_CODE":0,"TOWNNAME":"北區","LI":"國姓里","LIN":"6鄰","STREET":"西門路","SECT":"四段","MAREA":" ","LANE":"１２６巷","ALLEY":" ","HOUSE_NO":"１２號","E_COORD97":168800.78,"N_COORD97":2545428.9300000002,"ADDRESS":"西門路四段１２６巷１２號","OBJECTID":280976},"geometry":{"x":168800.78000000026,"y":2545428.9300000016}},{"attributes":{"ID":280983,"DIS_CODE":0,"TOWNNAME":"北區","LI":"國姓里","LIN":"6鄰","STREET":"西門路","SECT":"四段","MAREA":" ","LANE":"１２６巷","ALLEY":" ","HOUSE_NO":"１３號","E_COORD97":168809.16,"N_COORD97":2545446.71,"ADDRESS":"西門路四段１２６巷１３號","OBJECTID":280977},"geometry":{"x":168809.16000000201,"y":2545446.7100000009}},{"attributes":{"ID":280984,"DIS_CODE":0,"TOWNNAME":"北區","LI":"國姓里","LIN":"6鄰","STREET":"西門路","SECT":"四段","MAREA":" ","LANE":"１２６巷","ALLEY":" ","HOUSE_NO":"２號","E_COORD97":168774.94,"N_COORD97":2545447.4100000001,"ADDRESS":"西門路四段１２６巷２號","OBJECTID":280978},"geometry":{"x":168774.94000000041,"y":2545447.4100000001}},{"attributes":{"ID":280985,"DIS_CODE":0,"TOWNNAME":"北區","LI":"國姓里","LIN":"6鄰","STREET":"西門路","SECT":"四段","MAREA":" ","LANE":"１２６巷","ALLEY":" ","HOUSE_NO":"２號之１","E_COORD97":168779.82999999999,"N_COORD97":2545443.23,"ADDRESS":"西門路四段１２６巷２號之１","OBJECTID":280979},"geometry":{"x":168779.83000000101,"y":2545443.2300000004}},{"attributes":{"ID":280986,"DIS_CODE":0,"TOWNNAME":"南區","LI":"同安里","LIN":"6鄰","STREET":"灣裡路","SECT":" ","MAREA":" ","LANE":"３５１巷","ALLEY":" ","HOUSE_NO":"３４號之１","E_COORD97":166411.07000000001,"N_COORD97":2536275.9900000002,"ADDRESS":"灣裡路３５１巷３４號之１","OBJECTID":280980},"geometry":{"x":166411.06999999937,"y":2536275.9900000002}},{"attributes":{"ID":280987,"DIS_CODE":0,"TOWNNAME":"南區","LI":"郡南里","LIN":"6鄰","STREET":"德興路","SECT":" ","MAREA":" ","LANE":"１２１巷","ALLEY":" ","HOUSE_NO":"９號","E_COORD97":167303.73000000001,"N_COORD97":2540538.3100000001,"ADDRESS":"德興路１２１巷９號","OBJECTID":280981},"geometry":{"x":167303.73000000231,"y":2540538.3100000024}},{"attributes":{"ID":280988,"DIS_CODE":0,"TOWNNAME":"南區","LI":"郡南里","LIN":"6鄰","STREET":"德興路","SECT":" ","MAREA":" ","LANE":"１２１巷","ALLEY":" ","HOUSE_NO":"１１號","E_COORD97":167279.35999999999,"N_COORD97":2540536.5299999998,"ADDRESS":"德興路１２１巷１１號","OBJECTID":280982},"geometry":{"x":167279.36000000127,"y":2540536.5299999993}},{"attributes":{"ID":280989,"DIS_CODE":0,"TOWNNAME":"鹽水區","LI":"三生里","LIN":"2鄰","STREET":"三福路","SECT":" ","MAREA":" ","LANE":" ","ALLEY":" ","HOUSE_NO":"１４號","E_COORD97":175079.35999999999,"N_COORD97":2580040,"ADDRESS":"三福路１４號","OBJECTID":280983},"geometry":{"x":175079.36000000034,"y":2580039.9999999981}},{"attributes":{"ID":280990,"DIS_CODE":0,"TOWNNAME":"鹽水區","LI":"中境里","LIN":"2鄰","STREET":"三福路","SECT":" ","MAREA":" ","LANE":" ","ALLEY":" ","HOUSE_NO":"１９號","E_COORD97":175020.98000000001,"N_COORD97":2579992.54,"ADDRESS":"三福路１９號","OBJECTID":280984},"geometry":{"x":175020.98000000045,"y":2579992.540000001}},{"attributes":{"ID":280991,"DIS_CODE":0,"TOWNNAME":"歸仁區","LI":"看東里","LIN":"6鄰","STREET":"成功路","SECT":"一段","MAREA":" ","LANE":"１８７巷","ALLEY":" ","HOUSE_NO":"１０號","E_COORD97":178466.89999999999,"N_COORD97":2540089.4500000002,"ADDRESS":"成功路一段１８７巷１０號","OBJECTID":280985},"geometry":{"x":178466.90000000224,"y":2540089.4499999993}},{"attributes":{"ID":280992,"DIS_CODE":0,"TOWNNAME":"歸仁區","LI":"許厝里","LIN":"6鄰","STREET":"中山路","SECT":"一段","MAREA":" ","LANE":"３１９巷","ALLEY":" ","HOUSE_NO":"４２號","E_COORD97":178386.63,"N_COORD97":2540520.25,"ADDRESS":"中山路一段３１９巷４２號","OBJECTID":280986},"geometry":{"x":178386.62999999989,"y":2540520.2500000037}},{"attributes":{"ID":280993,"DIS_CODE":0,"TOWNNAME":"歸仁區","LI":"崙頂里","LIN":"6鄰","STREET":"信義南路","SECT":" ","MAREA":" ","LANE":"２０２巷","ALLEY":" ","HOUSE_NO":"２５號","E_COORD97":178080.04999999999,"N_COORD97":2540043.6800000002,"ADDRESS":"信義南路２０２巷２５號","OBJECTID":280987},"geometry":{"x":178080.04999999981,"y":2540043.6800000016}},{"attributes":{"ID":280994,"DIS_CODE":0,"TOWNNAME":"歸仁區","LI":"許厝里","LIN":"6鄰","STREET":"仁愛一街","SECT":" ","MAREA":" ","LANE":"３８巷","ALLEY":" ","HOUSE_NO":"３７號","E_COORD97":178344.04999999999,"N_COORD97":2540514.25,"ADDRESS":"仁愛一街３８巷３７號","OBJECTID":280988},"geometry":{"x":178344.05000000075,"y":2540514.2500000019}},{"attributes":{"ID":280995,"DIS_CODE":0,"TOWNNAME":"歸仁區","LI":"歸南里","LIN":"6鄰","STREET":"中正十二街","SECT":" ","MAREA":" ","LANE":"２巷","ALLEY":" ","HOUSE_NO":"２１號","E_COORD97":176730.75,"N_COORD97":2540009.4399999999,"ADDRESS":"中正十二街２巷２１號","OBJECTID":280989},"geometry":{"x":176730.75000000093,"y":2540009.4399999995}},{"attributes":{"ID":280996,"DIS_CODE":0,"TOWNNAME":"安南區","LI":"州南里","LIN":"12鄰","STREET":"安和路","SECT":"五段","MAREA":" ","LANE":" ","ALLEY":" ","HOUSE_NO":"１號","E_COORD97":169925.56712699999,"N_COORD97":2551523.4736899999,"ADDRESS":"安和路五段１號","OBJECTID":280990},"geometry":{"x":169925.56712700147,"y":2551523.4736919999}},{"attributes":{"ID":280997,"DIS_CODE":0,"TOWNNAME":"歸仁區","LI":"許厝里","LIN":"6鄰","STREET":"仁愛一街","SECT":" ","MAREA":" ","LANE":"３８巷","ALLEY":" ","HOUSE_NO":"２７號","E_COORD97":178373.88,"N_COORD97":2540535.25,"ADDRESS":"仁愛一街３８巷２７號","OBJECTID":280991},"geometry":{"x":178373.88000000082,"y":2540535.2500000019}},{"attributes":{"ID":280998,"DIS_CODE":0,"TOWNNAME":"歸仁區","LI":"看東里","LIN":"6鄰","STREET":"成功路","SECT":"一段","MAREA":" ","LANE":"１８７巷","ALLEY":" ","HOUSE_NO":"７號","E_COORD97":178478.95000000001,"N_COORD97":2540099.4500000002,"ADDRESS":"成功路一段１８７巷７號","OBJECTID":280992},"geometry":{"x":178478.95000000112,"y":2540099.4499999993}},{"attributes":{"ID":280999,"DIS_CODE":0,"TOWNNAME":"鹽水區","LI":"中境里","LIN":"2鄰","STREET":"三福路","SECT":" ","MAREA":" ","LANE":" ","ALLEY":" ","HOUSE_NO":"２１號","E_COORD97":175016.16,"N_COORD97":2579992.7999999998,"ADDRESS":"三福路２１號","OBJECTID":280993},"geometry":{"x":175016.16000000015,"y":2579992.8000000026}},{"attributes":{"ID":281000,"DIS_CODE":0,"TOWNNAME":"柳營區","LI":"旭山里","LIN":"2鄰","STREET":" ","SECT":" ","MAREA":"新吉庄","LANE":" ","ALLEY":" ","HOUSE_NO":"１７號","E_COORD97":187101.01000000001,"N_COORD97":2573841.8799999999,"ADDRESS":"新吉庄１７號","OBJECTID":280994},"geometry":{"x":187101.01000000071,"y":2573841.879999999}},{"attributes":{"ID":281001,"DIS_CODE":0,"TOWNNAME":"鹽水區","LI":"下林里","LIN":"2鄰","STREET":" ","SECT":" ","MAREA":"下林","LANE":" ","ALLEY":" ","HOUSE_NO":"１４號","E_COORD97":173283.04000000001,"N_COORD97":2573419.2200000002,"ADDRESS":"下林１４號","OBJECTID":280995},"geometry":{"x":173283.04000000004,"y":2573419.2200000025}},{"attributes":{"ID":281002,"DIS_CODE":0,"TOWNNAME":"鹽水區","LI":"下林里","LIN":"2鄰","STREET":" ","SECT":" ","MAREA":"下林","LANE":" ","ALLEY":" ","HOUSE_NO":"１６號","E_COORD97":173271.14999999999,"N_COORD97":2573435.3799999999,"ADDRESS":"下林１６號","OBJECTID":280996},"geometry":{"x":173271.15000000224,"y":2573435.3800000027}},{"attributes":{"ID":281003,"DIS_CODE":0,"TOWNNAME":"鹽水區","LI":"下林里","LIN":"2鄰","STREET":" ","SECT":" ","MAREA":"下林","LANE":" ","ALLEY":" ","HOUSE_NO":"１７號","E_COORD97":173294.47,"N_COORD97":2573426.6000000001,"ADDRESS":"下林１７號","OBJECTID":280997},"geometry":{"x":173294.47000000067,"y":2573426.5999999996}},{"attributes":{"ID":281004,"DIS_CODE":0,"TOWNNAME":"鹽水區","LI":"下林里","LIN":"2鄰","STREET":" ","SECT":" ","MAREA":"下林","LANE":" ","ALLEY":" ","HOUSE_NO":"１８號","E_COORD97":173314.42999999999,"N_COORD97":2573426.3700000001,"ADDRESS":"下林１８號","OBJECTID":280998},"geometry":{"x":173314.43000000063,"y":2573426.370000001}},{"attributes":{"ID":281005,"DIS_CODE":0,"TOWNNAME":"鹽水區","LI":"下林里","LIN":"2鄰","STREET":" ","SECT":" ","MAREA":"下林","LANE":" ","ALLEY":" ","HOUSE_NO":"３７號","E_COORD97":173298.67000000001,"N_COORD97":2573453.6099999999,"ADDRESS":"下林３７號","OBJECTID":280999},"geometry":{"x":173298.66999999993,"y":2573453.6099999994}},{"attributes":{"ID":281006,"DIS_CODE":0,"TOWNNAME":"鹽水區","LI":"下林里","LIN":"2鄰","STREET":" ","SECT":" ","MAREA":"下林","LANE":" ","ALLEY":" ","HOUSE_NO":"３８號","E_COORD97":173283.92999999999,"N_COORD97":2573468,"ADDRESS":"下林３８號","OBJECTID":281000},"geometry":{"x":173283.93000000063,"y":2573468}}]}