{"displayFieldName":"TOWNNAME","fieldAliases":{"ID":"ID","DIS_CODE":"DIS_CODE","TOWNNAME":"TOWNNAME","LI":"LI","LIN":"LIN","STREET":"STREET","SECT":"SECT","MAREA":"MAREA","LANE":"LANE","ALLEY":"ALLEY","HOUSE_NO":"HOUSE_NO","E_COORD97":"E_COORD97","N_COORD97":"N_COORD97","ADDRESS":"ADDRESS","OBJECTID":"OBJECTID"},"geometryType":"esriGeometryPoint","spatialReference":{"wkid":102443,"latestWkid":3826},"fields":[{"name":"ID","type":"esriFieldTypeDouble","alias":"ID"},{"name":"DIS_CODE","type":"esriFieldTypeInteger","alias":"DIS_CODE"},{"name":"TOWNNAME","type":"esriFieldTypeString","alias":"TOWNNAME","length":8},{"name":"LI","type":"esriFieldTypeString","alias":"LI","length":8},{"name":"LIN","type":"esriFieldTypeString","alias":"LIN","length":12},{"name":"STREET","type":"esriFieldTypeString","alias":"STREET","length":20},{"name":"SECT","type":"esriFieldTypeString","alias":"SECT","length":8},{"name":"MAREA","type":"esriFieldTypeString","alias":"MAREA","length":12},{"name":"LANE","type":"esriFieldTypeString","alias":"LANE","length":10},{"name":"ALLEY","type":"esriFieldTypeString","alias":"ALLEY","length":10},{"name":"HOUSE_NO","type":"esriFieldTypeString","alias":"HOUSE_NO","length":20},{"name":"E_COORD97","type":"esriFieldTypeDouble","alias":"E_COORD97"},{"name":"N_COORD97","type":"esriFieldTypeDouble","alias":"N_COORD97"},{"name":"ADDRESS","type":"esriFieldTypeString","alias":"ADDRESS","length":50},{"name":"OBJECTID","type":"esriFieldTypeOID","alias":"OBJECTID"}],"features":[{"attributes":{"ID":588228,"DIS_CODE":0,"TOWNNAME":"仁德區","LI":"一甲里","LIN":"11鄰","STREET":"忠義路","SECT":" ","MAREA":" ","LANE":" ","ALLEY":" ","HOUSE_NO":"１７４號","E_COORD97":173938.63,"N_COORD97":2541878.52,"ADDRESS":"忠義路１７４號","OBJECTID":588201},"geometry":{"x":173938.63000000175,"y":2541878.5200000014}},{"attributes":{"ID":588229,"DIS_CODE":0,"TOWNNAME":"仁德區","LI":"一甲里","LIN":"11鄰","STREET":"忠義路","SECT":" ","MAREA":" ","LANE":" ","ALLEY":" ","HOUSE_NO":"２００號","E_COORD97":173787.70999999999,"N_COORD97":2541866.52,"ADDRESS":"忠義路２００號","OBJECTID":588202},"geometry":{"x":173787.71000000089,"y":2541866.5199999996}},{"attributes":{"ID":588230,"DIS_CODE":0,"TOWNNAME":"仁德區","LI":"大甲里","LIN":"11鄰","STREET":"行大一街","SECT":" ","MAREA":" ","LANE":" ","ALLEY":" ","HOUSE_NO":"３３７號","E_COORD97":169575.22,"N_COORD97":2535067.7400000002,"ADDRESS":"行大一街３３７號","OBJECTID":588203},"geometry":{"x":169575.22000000067,"y":2535067.7400000002}},{"attributes":{"ID":588231,"DIS_CODE":0,"TOWNNAME":"仁德區","LI":"大甲里","LIN":"11鄰","STREET":"行大一街","SECT":" ","MAREA":" ","LANE":" ","ALLEY":" ","HOUSE_NO":"２９６號","E_COORD97":169599.70999999999,"N_COORD97":2535066.7400000002,"ADDRESS":"行大一街２９６號","OBJECTID":588204},"geometry":{"x":169599.70999999996,"y":2535066.7400000021}},{"attributes":{"ID":588232,"DIS_CODE":0,"TOWNNAME":"仁德區","LI":"一甲里","LIN":"11鄰","STREET":"忠義一街","SECT":" ","MAREA":" ","LANE":" ","ALLEY":" ","HOUSE_NO":"６６號","E_COORD97":173851.94,"N_COORD97":2541885.27,"ADDRESS":"忠義一街６６號","OBJECTID":588205},"geometry":{"x":173851.94000000041,"y":2541885.2699999996}},{"attributes":{"ID":588233,"DIS_CODE":0,"TOWNNAME":"仁德區","LI":"二行里","LIN":"11鄰","STREET":"行大街","SECT":" ","MAREA":" ","LANE":" ","ALLEY":" ","HOUSE_NO":"１６８號","E_COORD97":170055.85000000001,"N_COORD97":2535134.25,"ADDRESS":"行大街１６８號","OBJECTID":588206},"geometry":{"x":170055.84999999963,"y":2535134.2500000019}},{"attributes":{"ID":588234,"DIS_CODE":0,"TOWNNAME":"仁德區","LI":"一甲里","LIN":"11鄰","STREET":"義林路","SECT":" ","MAREA":" ","LANE":" ","ALLEY":" ","HOUSE_NO":"７０１號","E_COORD97":174647.44,"N_COORD97":2541985.27,"ADDRESS":"義林路７０１號","OBJECTID":588207},"geometry":{"x":174647.44000000227,"y":2541985.2700000014}},{"attributes":{"ID":588235,"DIS_CODE":0,"TOWNNAME":"仁德區","LI":"一甲里","LIN":"11鄰","STREET":"忠義路","SECT":" ","MAREA":" ","LANE":" ","ALLEY":" ","HOUSE_NO":"１９２號","E_COORD97":173822.79000000001,"N_COORD97":2541864.02,"ADDRESS":"忠義路１９２號","OBJECTID":588208},"geometry":{"x":173822.79000000097,"y":2541864.0200000033}},{"attributes":{"ID":588236,"DIS_CODE":0,"TOWNNAME":"仁德區","LI":"二行里","LIN":"11鄰","STREET":"行大街","SECT":" ","MAREA":" ","LANE":" ","ALLEY":" ","HOUSE_NO":"１８０號","E_COORD97":169990.92000000001,"N_COORD97":2535104.2400000002,"ADDRESS":"行大街１８０號","OBJECTID":588209},"geometry":{"x":169990.92000000086,"y":2535104.2400000021}},{"attributes":{"ID":588237,"DIS_CODE":0,"TOWNNAME":"仁德區","LI":"二行里","LIN":"11鄰","STREET":"行大街","SECT":" ","MAREA":" ","LANE":" ","ALLEY":" ","HOUSE_NO":"１７８號","E_COORD97":170001.42000000001,"N_COORD97":2535104.9900000002,"ADDRESS":"行大街１７８號","OBJECTID":588210},"geometry":{"x":170001.41999999993,"y":2535104.9900000021}},{"attributes":{"ID":588238,"DIS_CODE":0,"TOWNNAME":"仁德區","LI":"一甲里","LIN":"11鄰","STREET":"忠義一街","SECT":" ","MAREA":" ","LANE":" ","ALLEY":" ","HOUSE_NO":"４２號","E_COORD97":174004.5,"N_COORD97":2542026.0099999998,"ADDRESS":"忠義一街４２號","OBJECTID":588211},"geometry":{"x":174004.50000000093,"y":2542026.0099999998}},{"attributes":{"ID":588239,"DIS_CODE":0,"TOWNNAME":"仁德區","LI":"一甲里","LIN":"11鄰","STREET":"忠義一街","SECT":" ","MAREA":" ","LANE":" ","ALLEY":" ","HOUSE_NO":"２６號","E_COORD97":174074.45000000001,"N_COORD97":2541939.0099999998,"ADDRESS":"忠義一街２６號","OBJECTID":588212},"geometry":{"x":174074.45000000112,"y":2541939.0100000035}},{"attributes":{"ID":588240,"DIS_CODE":0,"TOWNNAME":"仁德區","LI":"一甲里","LIN":"11鄰","STREET":"忠義一街","SECT":" ","MAREA":" ","LANE":" ","ALLEY":" ","HOUSE_NO":"４５號之１","E_COORD97":173976.66,"N_COORD97":2542002.54,"ADDRESS":"忠義一街４５號之１","OBJECTID":588213},"geometry":{"x":173976.66000000108,"y":2542002.5400000028}},{"attributes":{"ID":588241,"DIS_CODE":0,"TOWNNAME":"仁德區","LI":"一甲里","LIN":"11鄰","STREET":"忠義一街","SECT":" ","MAREA":" ","LANE":" ","ALLEY":" ","HOUSE_NO":"５０號","E_COORD97":173920.45000000001,"N_COORD97":2542053.5099999998,"ADDRESS":"忠義一街５０號","OBJECTID":588214},"geometry":{"x":173920.45000000112,"y":2542053.5099999998}},{"attributes":{"ID":588242,"DIS_CODE":0,"TOWNNAME":"仁德區","LI":"一甲里","LIN":"11鄰","STREET":"忠義一街","SECT":" ","MAREA":" ","LANE":" ","ALLEY":" ","HOUSE_NO":"５６號","E_COORD97":173858.26000000001,"N_COORD97":2542013.2599999998,"ADDRESS":"忠義一街５６號","OBJECTID":588215},"geometry":{"x":173858.26000000071,"y":2542013.2600000016}},{"attributes":{"ID":588243,"DIS_CODE":0,"TOWNNAME":"仁德區","LI":"一甲里","LIN":"11鄰","STREET":"義林路","SECT":" ","MAREA":" ","LANE":" ","ALLEY":" ","HOUSE_NO":"３０６號之３","E_COORD97":174644.54999999999,"N_COORD97":2541735.04,"ADDRESS":"義林路３０６號之３","OBJECTID":588216},"geometry":{"x":174644.55000000075,"y":2541735.040000001}},{"attributes":{"ID":588244,"DIS_CODE":0,"TOWNNAME":"仁德區","LI":"一甲里","LIN":"11鄰","STREET":"忠義一街","SECT":" ","MAREA":" ","LANE":" ","ALLEY":" ","HOUSE_NO":"３６號","E_COORD97":174052.76000000001,"N_COORD97":2542058.27,"ADDRESS":"忠義一街３６號","OBJECTID":588217},"geometry":{"x":174052.75999999978,"y":2542058.2699999996}},{"attributes":{"ID":588245,"DIS_CODE":0,"TOWNNAME":"新化區","LI":"護國里","LIN":"11鄰","STREET":"中山路","SECT":" ","MAREA":" ","LANE":" ","ALLEY":" ","HOUSE_NO":"１０１號","E_COORD97":179819.81,"N_COORD97":2549306.25,"ADDRESS":"中山路１０１號","OBJECTID":588218},"geometry":{"x":179819.81000000052,"y":2549306.2500000019}},{"attributes":{"ID":588246,"DIS_CODE":0,"TOWNNAME":"新化區","LI":"東榮里","LIN":"11鄰","STREET":"中興路","SECT":" ","MAREA":" ","LANE":" ","ALLEY":" ","HOUSE_NO":"５１７號","E_COORD97":180073.51000000001,"N_COORD97":2547817.25,"ADDRESS":"中興路５１７號","OBJECTID":588219},"geometry":{"x":180073.50999999978,"y":2547817.2500000019}},{"attributes":{"ID":588247,"DIS_CODE":0,"TOWNNAME":"新化區","LI":"護國里","LIN":"11鄰","STREET":"中山路","SECT":" ","MAREA":" ","LANE":" ","ALLEY":" ","HOUSE_NO":"１０３號","E_COORD97":179801.31,"N_COORD97":2549293.25,"ADDRESS":"中山路１０３號","OBJECTID":588220},"geometry":{"x":179801.31000000052,"y":2549293.25}},{"attributes":{"ID":588248,"DIS_CODE":0,"TOWNNAME":"新化區","LI":"豐榮里","LIN":"11鄰","STREET":"信義路","SECT":" ","MAREA":" ","LANE":" ","ALLEY":" ","HOUSE_NO":"４４９號之１０","E_COORD97":178461.51999999999,"N_COORD97":2548217.2599999998,"ADDRESS":"信義路４４９號之１０","OBJECTID":588221},"geometry":{"x":178461.51999999955,"y":2548217.2600000016}},{"attributes":{"ID":588249,"DIS_CODE":0,"TOWNNAME":"新化區","LI":"護國里","LIN":"11鄰","STREET":"中山路","SECT":" ","MAREA":" ","LANE":" ","ALLEY":" ","HOUSE_NO":"１號之２６","E_COORD97":180839.20999999999,"N_COORD97":2550562.2599999998,"ADDRESS":"中山路１號之２６","OBJECTID":588222},"geometry":{"x":180839.20999999903,"y":2550562.2600000035}},{"attributes":{"ID":588250,"DIS_CODE":0,"TOWNNAME":"新化區","LI":"護國里","LIN":"11鄰","STREET":"中山路","SECT":" ","MAREA":" ","LANE":" ","ALLEY":" ","HOUSE_NO":"１號之５１","E_COORD97":180743.98999999999,"N_COORD97":2550512.2599999998,"ADDRESS":"中山路１號之５１","OBJECTID":588223},"geometry":{"x":180743.99000000022,"y":2550512.2600000016}},{"attributes":{"ID":588251,"DIS_CODE":0,"TOWNNAME":"新化區","LI":"護國里","LIN":"11鄰","STREET":"中山路","SECT":" ","MAREA":" ","LANE":" ","ALLEY":" ","HOUSE_NO":"８１號","E_COORD97":179861.16,"N_COORD97":2549368.25,"ADDRESS":"中山路８１號","OBJECTID":588224},"geometry":{"x":179861.16000000015,"y":2549368.25}},{"attributes":{"ID":588252,"DIS_CODE":0,"TOWNNAME":"新化區","LI":"武安里","LIN":"11鄰","STREET":"信義路","SECT":" ","MAREA":" ","LANE":" ","ALLEY":" ","HOUSE_NO":"３２７號","E_COORD97":178879.03,"N_COORD97":2548291.25,"ADDRESS":"信義路３２７號","OBJECTID":588225},"geometry":{"x":178879.03000000026,"y":2548291.2500000037}},{"attributes":{"ID":588253,"DIS_CODE":0,"TOWNNAME":"新化區","LI":"武安里","LIN":"11鄰","STREET":"信義路","SECT":" ","MAREA":" ","LANE":" ","ALLEY":" ","HOUSE_NO":"３５１號","E_COORD97":178780.63,"N_COORD97":2548272.25,"ADDRESS":"信義路３５１號","OBJECTID":588226},"geometry":{"x":178780.63000000082,"y":2548272.2500000019}},{"attributes":{"ID":588254,"DIS_CODE":0,"TOWNNAME":"新化區","LI":"豐榮里","LIN":"11鄰","STREET":"信義路","SECT":" ","MAREA":" ","LANE":" ","ALLEY":" ","HOUSE_NO":"４３９號","E_COORD97":178515.32999999999,"N_COORD97":2548258.25,"ADDRESS":"信義路４３９號","OBJECTID":588227},"geometry":{"x":178515.33000000101,"y":2548258.2500000019}},{"attributes":{"ID":588255,"DIS_CODE":0,"TOWNNAME":"新化區","LI":"知義里","LIN":"11鄰","STREET":"中興路","SECT":" ","MAREA":" ","LANE":" ","ALLEY":" ","HOUSE_NO":"５３號","E_COORD97":181941.43038100001,"N_COORD97":2547265.81158,"ADDRESS":"中興路５３號","OBJECTID":588228},"geometry":{"x":181941.43038100004,"y":2547265.8115800004}},{"attributes":{"ID":588256,"DIS_CODE":0,"TOWNNAME":"新化區","LI":"護國里","LIN":"11鄰","STREET":"中山路","SECT":" ","MAREA":" ","LANE":" ","ALLEY":" ","HOUSE_NO":"１號之２７","E_COORD97":180835.89999999999,"N_COORD97":2550560.2599999998,"ADDRESS":"中山路１號之２７","OBJECTID":588229},"geometry":{"x":180835.9000000013,"y":2550560.2600000016}},{"attributes":{"ID":588257,"DIS_CODE":0,"TOWNNAME":"新化區","LI":"護國里","LIN":"11鄰","STREET":"中山路","SECT":" ","MAREA":" ","LANE":" ","ALLEY":" ","HOUSE_NO":"１號之５４","E_COORD97":180732.19,"N_COORD97":2550506.2599999998,"ADDRESS":"中山路１號之５４","OBJECTID":588230},"geometry":{"x":180732.19000000134,"y":2550506.2600000016}},{"attributes":{"ID":588258,"DIS_CODE":0,"TOWNNAME":"新化區","LI":"護國里","LIN":"11鄰","STREET":"中山路","SECT":" ","MAREA":" ","LANE":" ","ALLEY":" ","HOUSE_NO":"１號之４９","E_COORD97":180751.79999999999,"N_COORD97":2550516.2599999998,"ADDRESS":"中山路１號之４９","OBJECTID":588231},"geometry":{"x":180751.79999999981,"y":2550516.2600000016}},{"attributes":{"ID":588259,"DIS_CODE":0,"TOWNNAME":"新化區","LI":"東榮里","LIN":"11鄰","STREET":"中興路","SECT":" ","MAREA":" ","LANE":" ","ALLEY":" ","HOUSE_NO":"４８０號","E_COORD97":180126.91,"N_COORD97":2547823.25,"ADDRESS":"中興路４８０號","OBJECTID":588232},"geometry":{"x":180126.91000000108,"y":2547823.2500000037}},{"attributes":{"ID":588260,"DIS_CODE":0,"TOWNNAME":"新化區","LI":"知義里","LIN":"11鄰","STREET":"中興路","SECT":" ","MAREA":" ","LANE":" ","ALLEY":" ","HOUSE_NO":"２０７號","E_COORD97":181547.01000000001,"N_COORD97":2547302.25,"ADDRESS":"中興路２０７號","OBJECTID":588233},"geometry":{"x":181547.00999999978,"y":2547302.2500000019}},{"attributes":{"ID":588261,"DIS_CODE":0,"TOWNNAME":"新化區","LI":"護國里","LIN":"11鄰","STREET":"中山路","SECT":" ","MAREA":" ","LANE":" ","ALLEY":" ","HOUSE_NO":"７９號","E_COORD97":179863.45999999999,"N_COORD97":2549371.25,"ADDRESS":"中山路７９號","OBJECTID":588234},"geometry":{"x":179863.46000000089,"y":2549371.25}},{"attributes":{"ID":588262,"DIS_CODE":0,"TOWNNAME":"安南區","LI":"淵東里","LIN":"11鄰","STREET":"仁安一街","SECT":" ","MAREA":" ","LANE":" ","ALLEY":" ","HOUSE_NO":"１２號","E_COORD97":165573.79999999999,"N_COORD97":2550221.7200000002,"ADDRESS":"仁安一街１２號","OBJECTID":588235},"geometry":{"x":165573.80000000075,"y":2550221.7200000025}},{"attributes":{"ID":588263,"DIS_CODE":0,"TOWNNAME":"安南區","LI":"淵東里","LIN":"11鄰","STREET":"仁安一街","SECT":" ","MAREA":" ","LANE":" ","ALLEY":" ","HOUSE_NO":"１６號","E_COORD97":165577.75,"N_COORD97":2550223.04,"ADDRESS":"仁安一街１６號","OBJECTID":588236},"geometry":{"x":165577.75000000093,"y":2550223.0399999991}},{"attributes":{"ID":588264,"DIS_CODE":0,"TOWNNAME":"安南區","LI":"淵東里","LIN":"11鄰","STREET":"仁安路","SECT":" ","MAREA":" ","LANE":" ","ALLEY":" ","HOUSE_NO":"３１號","E_COORD97":165527.98000000001,"N_COORD97":2550067.2599999998,"ADDRESS":"仁安路３１號","OBJECTID":588237},"geometry":{"x":165527.98000000045,"y":2550067.2600000035}},{"attributes":{"ID":588265,"DIS_CODE":0,"TOWNNAME":"安南區","LI":"淵東里","LIN":"11鄰","STREET":"仁安路","SECT":" ","MAREA":" ","LANE":" ","ALLEY":" ","HOUSE_NO":"３３號","E_COORD97":165530.98999999999,"N_COORD97":2550070.4399999999,"ADDRESS":"仁安路３３號","OBJECTID":588238},"geometry":{"x":165530.99000000022,"y":2550070.4400000013}},{"attributes":{"ID":588266,"DIS_CODE":0,"TOWNNAME":"安南區","LI":"淵東里","LIN":"11鄰","STREET":"仁安路","SECT":" ","MAREA":" ","LANE":" ","ALLEY":" ","HOUSE_NO":"４９號","E_COORD97":165554.76999999999,"N_COORD97":2550103.7200000002,"ADDRESS":"仁安路４９號","OBJECTID":588239},"geometry":{"x":165554.77000000142,"y":2550103.7200000025}},{"attributes":{"ID":588267,"DIS_CODE":0,"TOWNNAME":"安南區","LI":"淵東里","LIN":"11鄰","STREET":"仁安路","SECT":" ","MAREA":" ","LANE":" ","ALLEY":" ","HOUSE_NO":"５１號","E_COORD97":165558.57999999999,"N_COORD97":2550106.3599999999,"ADDRESS":"仁安路５１號","OBJECTID":588240},"geometry":{"x":165558.58000000101,"y":2550106.3599999994}},{"attributes":{"ID":588268,"DIS_CODE":0,"TOWNNAME":"安南區","LI":"淵東里","LIN":"11鄰","STREET":"仁安路","SECT":" ","MAREA":" ","LANE":" ","ALLEY":" ","HOUSE_NO":"５３號","E_COORD97":165564.89000000001,"N_COORD97":2550112.7999999998,"ADDRESS":"仁安路５３號","OBJECTID":588241},"geometry":{"x":165564.8900000006,"y":2550112.8000000026}},{"attributes":{"ID":588269,"DIS_CODE":0,"TOWNNAME":"安南區","LI":"淵東里","LIN":"11鄰","STREET":"仁安路","SECT":" ","MAREA":" ","LANE":" ","ALLEY":" ","HOUSE_NO":"５５號","E_COORD97":165568.56,"N_COORD97":2550115.8799999999,"ADDRESS":"仁安路５５號","OBJECTID":588242},"geometry":{"x":165568.56000000052,"y":2550115.879999999}},{"attributes":{"ID":588270,"DIS_CODE":0,"TOWNNAME":"安南區","LI":"淵東里","LIN":"11鄰","STREET":"仁安路","SECT":" ","MAREA":" ","LANE":" ","ALLEY":" ","HOUSE_NO":"５７號","E_COORD97":165571.34,"N_COORD97":2550117.6400000001,"ADDRESS":"仁安路５７號","OBJECTID":588243},"geometry":{"x":165571.33999999892,"y":2550117.6400000025}},{"attributes":{"ID":588271,"DIS_CODE":0,"TOWNNAME":"安南區","LI":"淵東里","LIN":"11鄰","STREET":"仁安路","SECT":" ","MAREA":" ","LANE":" ","ALLEY":" ","HOUSE_NO":"６１號","E_COORD97":165579.56,"N_COORD97":2550122.6200000001,"ADDRESS":"仁安路６１號","OBJECTID":588244},"geometry":{"x":165579.55999999959,"y":2550122.620000001}},{"attributes":{"ID":588272,"DIS_CODE":0,"TOWNNAME":"安南區","LI":"淵東里","LIN":"11鄰","STREET":"仁安路","SECT":" ","MAREA":" ","LANE":" ","ALLEY":" ","HOUSE_NO":"６３號","E_COORD97":165583.66,"N_COORD97":2550125.8399999999,"ADDRESS":"仁安路６３號","OBJECTID":588245},"geometry":{"x":165583.66000000108,"y":2550125.8400000017}},{"attributes":{"ID":588273,"DIS_CODE":0,"TOWNNAME":"安南區","LI":"淵東里","LIN":"11鄰","STREET":"仁安路","SECT":" ","MAREA":" ","LANE":" ","ALLEY":" ","HOUSE_NO":"６５號","E_COORD97":165595.67999999999,"N_COORD97":2550133.7599999998,"ADDRESS":"仁安路６５號","OBJECTID":588246},"geometry":{"x":165595.6799999997,"y":2550133.7599999998}},{"attributes":{"ID":588274,"DIS_CODE":0,"TOWNNAME":"安南區","LI":"淵東里","LIN":"11鄰","STREET":"仁安路","SECT":" ","MAREA":" ","LANE":" ","ALLEY":" ","HOUSE_NO":"６７號","E_COORD97":165600.13,"N_COORD97":2550135.79,"ADDRESS":"仁安路６７號","OBJECTID":588247},"geometry":{"x":165600.13000000175,"y":2550135.790000001}},{"attributes":{"ID":588275,"DIS_CODE":0,"TOWNNAME":"安南區","LI":"淵東里","LIN":"11鄰","STREET":"仁安路","SECT":" ","MAREA":" ","LANE":" ","ALLEY":" ","HOUSE_NO":"６９號","E_COORD97":165604.39000000001,"N_COORD97":2550137.0800000001,"ADDRESS":"仁安路６９號","OBJECTID":588248},"geometry":{"x":165604.38999999966,"y":2550137.0800000019}},{"attributes":{"ID":588276,"DIS_CODE":0,"TOWNNAME":"安南區","LI":"淵東里","LIN":"11鄰","STREET":"仁安路","SECT":" ","MAREA":" ","LANE":" ","ALLEY":" ","HOUSE_NO":"７７號","E_COORD97":165621.16,"N_COORD97":2550137.75,"ADDRESS":"仁安路７７號","OBJECTID":588249},"geometry":{"x":165621.16000000108,"y":2550137.75}},{"attributes":{"ID":588277,"DIS_CODE":0,"TOWNNAME":"安南區","LI":"淵東里","LIN":"11鄰","STREET":"智安一街","SECT":" ","MAREA":" ","LANE":" ","ALLEY":" ","HOUSE_NO":"１００號","E_COORD97":165591.48999999999,"N_COORD97":2550141.0299999998,"ADDRESS":"智安一街１００號","OBJECTID":588250},"geometry":{"x":165591.49000000115,"y":2550141.0300000012}},{"attributes":{"ID":588278,"DIS_CODE":0,"TOWNNAME":"安南區","LI":"淵東里","LIN":"11鄰","STREET":"智安一街","SECT":" ","MAREA":" ","LANE":" ","ALLEY":" ","HOUSE_NO":"１０２號","E_COORD97":165587.88,"N_COORD97":2550145.2799999998,"ADDRESS":"智安一街１０２號","OBJECTID":588251},"geometry":{"x":165587.87999999989,"y":2550145.2800000012}},{"attributes":{"ID":588279,"DIS_CODE":0,"TOWNNAME":"安南區","LI":"淵東里","LIN":"11鄰","STREET":"智安一街","SECT":" ","MAREA":" ","LANE":" ","ALLEY":" ","HOUSE_NO":"４３號","E_COORD97":165577.58674299999,"N_COORD97":2550136.6290600002,"ADDRESS":"智安一街４３號","OBJECTID":588252},"geometry":{"x":165577.58674299996,"y":2550136.6290560029}},{"attributes":{"ID":588280,"DIS_CODE":0,"TOWNNAME":"安南區","LI":"淵東里","LIN":"11鄰","STREET":"智安一街","SECT":" ","MAREA":" ","LANE":" ","ALLEY":" ","HOUSE_NO":"７７號","E_COORD97":165545.48000000001,"N_COORD97":2550175.3300000001,"ADDRESS":"智安一街７７號","OBJECTID":588253},"geometry":{"x":165545.48000000045,"y":2550175.3300000001}},{"attributes":{"ID":588281,"DIS_CODE":0,"TOWNNAME":"安南區","LI":"淵東里","LIN":"11鄰","STREET":"智安一街","SECT":" ","MAREA":" ","LANE":" ","ALLEY":" ","HOUSE_NO":"７９號","E_COORD97":165541.07999999999,"N_COORD97":2550179.3399999999,"ADDRESS":"智安一街７９號","OBJECTID":588254},"geometry":{"x":165541.08000000007,"y":2550179.3400000017}},{"attributes":{"ID":588282,"DIS_CODE":0,"TOWNNAME":"安南區","LI":"淵東里","LIN":"11鄰","STREET":"智安一街","SECT":" ","MAREA":" ","LANE":" ","ALLEY":" ","HOUSE_NO":"８１號","E_COORD97":165538.82999999999,"N_COORD97":2550182.3399999999,"ADDRESS":"智安一街８１號","OBJECTID":588255},"geometry":{"x":165538.83000000007,"y":2550182.3400000036}},{"attributes":{"ID":588283,"DIS_CODE":0,"TOWNNAME":"安南區","LI":"淵東里","LIN":"11鄰","STREET":"智安一街","SECT":" ","MAREA":" ","LANE":" ","ALLEY":" ","HOUSE_NO":"８３號","E_COORD97":165535.82999999999,"N_COORD97":2550186.0899999999,"ADDRESS":"智安一街８３號","OBJECTID":588256},"geometry":{"x":165535.83000000007,"y":2550186.0899999999}},{"attributes":{"ID":588284,"DIS_CODE":0,"TOWNNAME":"安南區","LI":"淵東里","LIN":"11鄰","STREET":"智安一街","SECT":" ","MAREA":" ","LANE":" ","ALLEY":" ","HOUSE_NO":"８５號","E_COORD97":165530.20000000001,"N_COORD97":2550189.0899999999,"ADDRESS":"智安一街８５號","OBJECTID":588257},"geometry":{"x":165530.20000000019,"y":2550189.0899999999}},{"attributes":{"ID":588285,"DIS_CODE":0,"TOWNNAME":"安南區","LI":"大安里","LIN":"11鄰","STREET":"大安街","SECT":" ","MAREA":" ","LANE":" ","ALLEY":" ","HOUSE_NO":"２６８號","E_COORD97":167494.66,"N_COORD97":2548447.04,"ADDRESS":"大安街２６８號","OBJECTID":588258},"geometry":{"x":167494.66000000015,"y":2548447.0399999991}},{"attributes":{"ID":588286,"DIS_CODE":0,"TOWNNAME":"安南區","LI":"大安里","LIN":"11鄰","STREET":"大安街","SECT":" ","MAREA":" ","LANE":" ","ALLEY":" ","HOUSE_NO":"２７０號","E_COORD97":167498.20000000001,"N_COORD97":2548450.5699999998,"ADDRESS":"大安街２７０號","OBJECTID":588259},"geometry":{"x":167498.20000000019,"y":2548450.5700000003}},{"attributes":{"ID":588287,"DIS_CODE":0,"TOWNNAME":"安南區","LI":"大安里","LIN":"11鄰","STREET":"大安街","SECT":" ","MAREA":" ","LANE":" ","ALLEY":" ","HOUSE_NO":"２７４號","E_COORD97":167502.34,"N_COORD97":2548458.9300000002,"ADDRESS":"大安街２７４號","OBJECTID":588260},"geometry":{"x":167502.34000000171,"y":2548458.9300000034}},{"attributes":{"ID":588288,"DIS_CODE":0,"TOWNNAME":"安南區","LI":"大安里","LIN":"11鄰","STREET":"大安街","SECT":" ","MAREA":" ","LANE":" ","ALLEY":" ","HOUSE_NO":"２７６號","E_COORD97":167505.10000000001,"N_COORD97":2548462.0299999998,"ADDRESS":"大安街２７６號","OBJECTID":588261},"geometry":{"x":167505.09999999963,"y":2548462.0300000012}},{"attributes":{"ID":588289,"DIS_CODE":0,"TOWNNAME":"安南區","LI":"大安里","LIN":"11鄰","STREET":"理安街","SECT":" ","MAREA":" ","LANE":" ","ALLEY":" ","HOUSE_NO":"２３３號","E_COORD97":167581.12,"N_COORD97":2548390.5600000001,"ADDRESS":"理安街２３３號","OBJECTID":588262},"geometry":{"x":167581.12000000104,"y":2548390.5600000005}},{"attributes":{"ID":588290,"DIS_CODE":0,"TOWNNAME":"安南區","LI":"大安里","LIN":"11鄰","STREET":"理安街","SECT":" ","MAREA":" ","LANE":" ","ALLEY":" ","HOUSE_NO":"２３５號","E_COORD97":167583.60000000001,"N_COORD97":2548395.04,"ADDRESS":"理安街２３５號","OBJECTID":588263},"geometry":{"x":167583.60000000056,"y":2548395.0399999991}},{"attributes":{"ID":588291,"DIS_CODE":0,"TOWNNAME":"安南區","LI":"大安里","LIN":"11鄰","STREET":"理安街","SECT":" ","MAREA":" ","LANE":" ","ALLEY":" ","HOUSE_NO":"２３７號","E_COORD97":167586.29999999999,"N_COORD97":2548398.3599999999,"ADDRESS":"理安街２３７號","OBJECTID":588264},"geometry":{"x":167586.30000000075,"y":2548398.3600000031}},{"attributes":{"ID":588292,"DIS_CODE":0,"TOWNNAME":"安南區","LI":"大安里","LIN":"11鄰","STREET":"理安街","SECT":" ","MAREA":" ","LANE":" ","ALLEY":" ","HOUSE_NO":"２３９號","E_COORD97":167588.78,"N_COORD97":2548402.6899999999,"ADDRESS":"理安街２３９號","OBJECTID":588265},"geometry":{"x":167588.78000000026,"y":2548402.6900000032}},{"attributes":{"ID":588293,"DIS_CODE":0,"TOWNNAME":"安南區","LI":"大安里","LIN":"11鄰","STREET":"理安街","SECT":" ","MAREA":" ","LANE":" ","ALLEY":" ","HOUSE_NO":"２４１號","E_COORD97":167590.56,"N_COORD97":2548406.3199999998,"ADDRESS":"理安街２４１號","OBJECTID":588266},"geometry":{"x":167590.56000000052,"y":2548406.320000004}},{"attributes":{"ID":588294,"DIS_CODE":0,"TOWNNAME":"南區","LI":"彰南里","LIN":"11鄰","STREET":"新忠路","SECT":" ","MAREA":" ","LANE":" ","ALLEY":" ","HOUSE_NO":"１５號","E_COORD97":166124.98000000001,"N_COORD97":2542196.3700000001,"ADDRESS":"新忠路１５號","OBJECTID":588267},"geometry":{"x":166124.98000000045,"y":2542196.3700000029}},{"attributes":{"ID":588295,"DIS_CODE":0,"TOWNNAME":"南區","LI":"新昌里","LIN":"11鄰","STREET":"西門路","SECT":"一段","MAREA":" ","LANE":" ","ALLEY":" ","HOUSE_NO":"５８９號","E_COORD97":167709.45000000001,"N_COORD97":2542805.3799999999,"ADDRESS":"西門路一段５８９號","OBJECTID":588268},"geometry":{"x":167709.45000000112,"y":2542805.379999999}},{"attributes":{"ID":588296,"DIS_CODE":0,"TOWNNAME":"南區","LI":"新昌里","LIN":"11鄰","STREET":"西門路","SECT":"一段","MAREA":" ","LANE":" ","ALLEY":" ","HOUSE_NO":"５９１號","E_COORD97":167708.81,"N_COORD97":2542808.6000000001,"ADDRESS":"西門路一段５９１號","OBJECTID":588269},"geometry":{"x":167708.80999999959,"y":2542808.5999999996}},{"attributes":{"ID":588297,"DIS_CODE":0,"TOWNNAME":"南區","LI":"彰南里","LIN":"11鄰","STREET":"中華西路","SECT":"一段","MAREA":" ","LANE":" ","ALLEY":" ","HOUSE_NO":"１０１號","E_COORD97":166383.22,"N_COORD97":2542225.8900000001,"ADDRESS":"中華西路一段１０１號","OBJECTID":588270},"geometry":{"x":166383.22000000067,"y":2542225.8900000025}},{"attributes":{"ID":588298,"DIS_CODE":0,"TOWNNAME":"南區","LI":"彰南里","LIN":"11鄰","STREET":"中華西路","SECT":"一段","MAREA":" ","LANE":" ","ALLEY":" ","HOUSE_NO":"１０７號","E_COORD97":166432.95000000001,"N_COORD97":2542336.0299999998,"ADDRESS":"中華西路一段１０７號","OBJECTID":588271},"geometry":{"x":166432.95000000112,"y":2542336.0300000012}},{"attributes":{"ID":588299,"DIS_CODE":0,"TOWNNAME":"南區","LI":"彰南里","LIN":"11鄰","STREET":"新孝路","SECT":" ","MAREA":" ","LANE":" ","ALLEY":" ","HOUSE_NO":"１８２號","E_COORD97":166323.91,"N_COORD97":2542134.9900000002,"ADDRESS":"新孝路１８２號","OBJECTID":588272},"geometry":{"x":166323.91000000201,"y":2542134.9900000002}},{"attributes":{"ID":588300,"DIS_CODE":0,"TOWNNAME":"南區","LI":"彰南里","LIN":"11鄰","STREET":"新孝路","SECT":" ","MAREA":" ","LANE":" ","ALLEY":" ","HOUSE_NO":"１８４號","E_COORD97":166302.34,"N_COORD97":2542140.98,"ADDRESS":"新孝路１８４號","OBJECTID":588273},"geometry":{"x":166302.34000000078,"y":2542140.9800000023}},{"attributes":{"ID":588301,"DIS_CODE":0,"TOWNNAME":"南區","LI":"彰南里","LIN":"11鄰","STREET":"新孝路","SECT":" ","MAREA":" ","LANE":" ","ALLEY":" ","HOUSE_NO":"１８６號","E_COORD97":166281.95999999999,"N_COORD97":2542145.77,"ADDRESS":"新孝路１８６號","OBJECTID":588274},"geometry":{"x":166281.95999999996,"y":2542145.7699999996}},{"attributes":{"ID":588302,"DIS_CODE":0,"TOWNNAME":"南區","LI":"彰南里","LIN":"11鄰","STREET":"新孝路","SECT":" ","MAREA":" ","LANE":" ","ALLEY":" ","HOUSE_NO":"１８８號","E_COORD97":166267.57999999999,"N_COORD97":2542139.1899999999,"ADDRESS":"新孝路１８８號","OBJECTID":588275},"geometry":{"x":166267.58000000101,"y":2542139.1899999995}},{"attributes":{"ID":588303,"DIS_CODE":0,"TOWNNAME":"南區","LI":"彰南里","LIN":"11鄰","STREET":"新孝路","SECT":" ","MAREA":" ","LANE":" ","ALLEY":" ","HOUSE_NO":"１９０號","E_COORD97":166250.20999999999,"N_COORD97":2542141.8900000001,"ADDRESS":"新孝路１９０號","OBJECTID":588276},"geometry":{"x":166250.20999999996,"y":2542141.8900000025}},{"attributes":{"ID":588304,"DIS_CODE":0,"TOWNNAME":"南區","LI":"彰南里","LIN":"11鄰","STREET":"新孝路","SECT":" ","MAREA":" ","LANE":" ","ALLEY":" ","HOUSE_NO":"１９２號","E_COORD97":166232.23000000001,"N_COORD97":2542140.7000000002,"ADDRESS":"新孝路１９２號","OBJECTID":588277},"geometry":{"x":166232.23000000231,"y":2542140.700000003}},{"attributes":{"ID":588305,"DIS_CODE":0,"TOWNNAME":"南區","LI":"彰南里","LIN":"11鄰","STREET":"新孝路","SECT":" ","MAREA":" ","LANE":" ","ALLEY":" ","HOUSE_NO":"１９４號","E_COORD97":166219.64999999999,"N_COORD97":2542139.5,"ADDRESS":"新孝路１９４號","OBJECTID":588278},"geometry":{"x":166219.6500000013,"y":2542139.5000000019}},{"attributes":{"ID":588306,"DIS_CODE":0,"TOWNNAME":"南區","LI":"彰南里","LIN":"11鄰","STREET":"新孝路","SECT":" ","MAREA":" ","LANE":" ","ALLEY":" ","HOUSE_NO":"１９６號","E_COORD97":166199.88,"N_COORD97":2542138.2999999998,"ADDRESS":"新孝路１９６號","OBJECTID":588279},"geometry":{"x":166199.87999999989,"y":2542138.3000000026}},{"attributes":{"ID":588307,"DIS_CODE":0,"TOWNNAME":"南區","LI":"彰南里","LIN":"11鄰","STREET":"新孝路","SECT":" ","MAREA":" ","LANE":" ","ALLEY":" ","HOUSE_NO":"１９８號","E_COORD97":166171.12,"N_COORD97":2542134.71,"ADDRESS":"新孝路１９８號","OBJECTID":588280},"geometry":{"x":166171.12000000011,"y":2542134.7100000009}},{"attributes":{"ID":588308,"DIS_CODE":0,"TOWNNAME":"南區","LI":"彰南里","LIN":"11鄰","STREET":"新孝路","SECT":" ","MAREA":" ","LANE":" ","ALLEY":" ","HOUSE_NO":"２００號","E_COORD97":166147.14999999999,"N_COORD97":2542137.7000000002,"ADDRESS":"新孝路２００號","OBJECTID":588281},"geometry":{"x":166147.15000000037,"y":2542137.7000000011}},{"attributes":{"ID":588309,"DIS_CODE":0,"TOWNNAME":"南區","LI":"彰南里","LIN":"11鄰","STREET":"新孝路","SECT":" ","MAREA":" ","LANE":" ","ALLEY":" ","HOUSE_NO":"２０６號","E_COORD97":166098.62,"N_COORD97":2542146.0899999999,"ADDRESS":"新孝路２０６號","OBJECTID":588282},"geometry":{"x":166098.61999999918,"y":2542146.0900000017}},{"attributes":{"ID":588310,"DIS_CODE":0,"TOWNNAME":"南區","LI":"彰南里","LIN":"11鄰","STREET":"新孝路","SECT":" ","MAREA":" ","LANE":" ","ALLEY":" ","HOUSE_NO":"２０８號","E_COORD97":166072.26000000001,"N_COORD97":2542144.8900000001,"ADDRESS":"新孝路２０８號","OBJECTID":588283},"geometry":{"x":166072.26000000071,"y":2542144.8900000025}},{"attributes":{"ID":588311,"DIS_CODE":0,"TOWNNAME":"南區","LI":"彰南里","LIN":"11鄰","STREET":"新孝路","SECT":" ","MAREA":" ","LANE":" ","ALLEY":" ","HOUSE_NO":"２１０號","E_COORD97":166047.09,"N_COORD97":2542143.6899999999,"ADDRESS":"新孝路２１０號","OBJECTID":588284},"geometry":{"x":166047.08999999985,"y":2542143.6899999995}},{"attributes":{"ID":588312,"DIS_CODE":0,"TOWNNAME":"南區","LI":"彰南里","LIN":"11鄰","STREET":"新孝路","SECT":" ","MAREA":" ","LANE":" ","ALLEY":" ","HOUSE_NO":"２１２號","E_COORD97":166027.32000000001,"N_COORD97":2542135.3100000001,"ADDRESS":"新孝路２１２號","OBJECTID":588285},"geometry":{"x":166027.3200000003,"y":2542135.3100000024}},{"attributes":{"ID":588313,"DIS_CODE":0,"TOWNNAME":"南區","LI":"彰南里","LIN":"11鄰","STREET":"新孝路","SECT":" ","MAREA":" ","LANE":" ","ALLEY":" ","HOUSE_NO":"２１４號","E_COORD97":166014.14000000001,"N_COORD97":2542138.8999999999,"ADDRESS":"新孝路２１４號","OBJECTID":588286},"geometry":{"x":166014.1400000006,"y":2542138.9000000004}},{"attributes":{"ID":588314,"DIS_CODE":0,"TOWNNAME":"南區","LI":"彰南里","LIN":"11鄰","STREET":"新孝路","SECT":" ","MAREA":" ","LANE":" ","ALLEY":" ","HOUSE_NO":"２１６號","E_COORD97":165994.97,"N_COORD97":2542140.1000000001,"ADDRESS":"新孝路２１６號","OBJECTID":588287},"geometry":{"x":165994.97000000067,"y":2542140.0999999996}},{"attributes":{"ID":588315,"DIS_CODE":0,"TOWNNAME":"南區","LI":"彰南里","LIN":"11鄰","STREET":"新孝路","SECT":" ","MAREA":" ","LANE":" ","ALLEY":" ","HOUSE_NO":"２１８號","E_COORD97":165969.92999999999,"N_COORD97":2542147.2799999998,"ADDRESS":"新孝路２１８號","OBJECTID":588288},"geometry":{"x":165969.9299999997,"y":2542147.2800000012}},{"attributes":{"ID":588316,"DIS_CODE":0,"TOWNNAME":"南區","LI":"彰南里","LIN":"11鄰","STREET":"新孝路","SECT":" ","MAREA":" ","LANE":" ","ALLEY":" ","HOUSE_NO":"２２０號","E_COORD97":165950.76000000001,"N_COORD97":2542137.71,"ADDRESS":"新孝路２２０號","OBJECTID":588289},"geometry":{"x":165950.76000000071,"y":2542137.7100000009}},{"attributes":{"ID":588317,"DIS_CODE":0,"TOWNNAME":"南區","LI":"彰南里","LIN":"11鄰","STREET":"新孝路","SECT":" ","MAREA":" ","LANE":" ","ALLEY":" ","HOUSE_NO":"２２２號","E_COORD97":165938.17999999999,"N_COORD97":2542137.1099999999,"ADDRESS":"新孝路２２２號","OBJECTID":588290},"geometry":{"x":165938.1799999997,"y":2542137.1099999994}},{"attributes":{"ID":588318,"DIS_CODE":0,"TOWNNAME":"南區","LI":"彰南里","LIN":"11鄰","STREET":"新孝路","SECT":" ","MAREA":" ","LANE":" ","ALLEY":" ","HOUSE_NO":"２２４號","E_COORD97":165926.79000000001,"N_COORD97":2542138.2999999998,"ADDRESS":"新孝路２２４號","OBJECTID":588291},"geometry":{"x":165926.79000000097,"y":2542138.3000000026}},{"attributes":{"ID":588319,"DIS_CODE":0,"TOWNNAME":"南區","LI":"彰南里","LIN":"11鄰","STREET":"新孝路","SECT":" ","MAREA":" ","LANE":" ","ALLEY":" ","HOUSE_NO":"２２６號","E_COORD97":165914.20999999999,"N_COORD97":2542137.71,"ADDRESS":"新孝路２２６號","OBJECTID":588292},"geometry":{"x":165914.20999999996,"y":2542137.7100000009}},{"attributes":{"ID":588320,"DIS_CODE":0,"TOWNNAME":"南區","LI":"彰南里","LIN":"11鄰","STREET":"新孝路","SECT":" ","MAREA":" ","LANE":" ","ALLEY":" ","HOUSE_NO":"２２８號","E_COORD97":165894.44,"N_COORD97":2542140.1000000001,"ADDRESS":"新孝路２２８號","OBJECTID":588293},"geometry":{"x":165894.44000000041,"y":2542140.0999999996}},{"attributes":{"ID":588321,"DIS_CODE":0,"TOWNNAME":"南區","LI":"彰南里","LIN":"11鄰","STREET":"新孝路","SECT":" ","MAREA":" ","LANE":" ","ALLEY":" ","HOUSE_NO":"２３２號","E_COORD97":165863.28,"N_COORD97":2542128.1299999999,"ADDRESS":"新孝路２３２號","OBJECTID":588294},"geometry":{"x":165863.28000000026,"y":2542128.1300000008}},{"attributes":{"ID":588322,"DIS_CODE":0,"TOWNNAME":"南區","LI":"彰南里","LIN":"11鄰","STREET":"新孝路","SECT":" ","MAREA":" ","LANE":" ","ALLEY":" ","HOUSE_NO":"２３４號","E_COORD97":165848.89999999999,"N_COORD97":2542130.0699999998,"ADDRESS":"新孝路２３４號","OBJECTID":588295},"geometry":{"x":165848.90000000037,"y":2542130.0700000022}},{"attributes":{"ID":588323,"DIS_CODE":0,"TOWNNAME":"南區","LI":"彰南里","LIN":"11鄰","STREET":"新忠路","SECT":" ","MAREA":" ","LANE":" ","ALLEY":" ","HOUSE_NO":"１０號","E_COORD97":166141.16,"N_COORD97":2542327.6499999999,"ADDRESS":"新忠路１０號","OBJECTID":588296},"geometry":{"x":166141.16000000108,"y":2542327.6500000004}},{"attributes":{"ID":588324,"DIS_CODE":0,"TOWNNAME":"南區","LI":"彰南里","LIN":"11鄰","STREET":"新忠路","SECT":" ","MAREA":" ","LANE":" ","ALLEY":" ","HOUSE_NO":"１１號","E_COORD97":166183.70000000001,"N_COORD97":2542199.3599999999,"ADDRESS":"新忠路１１號","OBJECTID":588297},"geometry":{"x":166183.70000000112,"y":2542199.3599999994}},{"attributes":{"ID":588325,"DIS_CODE":0,"TOWNNAME":"南區","LI":"彰南里","LIN":"11鄰","STREET":"新忠路","SECT":" ","MAREA":" ","LANE":" ","ALLEY":" ","HOUSE_NO":"１２號","E_COORD97":166116,"N_COORD97":2542304.9100000001,"ADDRESS":"新忠路１２號","OBJECTID":588298},"geometry":{"x":166116,"y":2542304.9100000001}},{"attributes":{"ID":588326,"DIS_CODE":0,"TOWNNAME":"南區","LI":"彰南里","LIN":"11鄰","STREET":"新忠路","SECT":" ","MAREA":" ","LANE":" ","ALLEY":" ","HOUSE_NO":"１６之１號","E_COORD97":165969.92999999999,"N_COORD97":2542298.7200000002,"ADDRESS":"新忠路１６之１號","OBJECTID":588299},"geometry":{"x":165969.9299999997,"y":2542298.7200000025}},{"attributes":{"ID":588327,"DIS_CODE":0,"TOWNNAME":"南區","LI":"彰南里","LIN":"11鄰","STREET":"新忠路","SECT":" ","MAREA":" ","LANE":" ","ALLEY":" ","HOUSE_NO":"１７號","E_COORD97":166098.01999999999,"N_COORD97":2542202.3599999999,"ADDRESS":"新忠路１７號","OBJECTID":588300},"geometry":{"x":166098.01999999955,"y":2542202.3599999994}},{"attributes":{"ID":588328,"DIS_CODE":0,"TOWNNAME":"南區","LI":"彰南里","LIN":"11鄰","STREET":"新忠路","SECT":" ","MAREA":" ","LANE":" ","ALLEY":" ","HOUSE_NO":"１８號","E_COORD97":165959.75,"N_COORD97":2542331.6400000001,"ADDRESS":"新忠路１８號","OBJECTID":588301},"geometry":{"x":165959.75,"y":2542331.6400000006}},{"attributes":{"ID":588329,"DIS_CODE":0,"TOWNNAME":"南區","LI":"彰南里","LIN":"11鄰","STREET":"新忠路","SECT":" ","MAREA":" ","LANE":" ","ALLEY":" ","HOUSE_NO":"１９號","E_COORD97":166073.45999999999,"N_COORD97":2542205.3500000001,"ADDRESS":"新忠路１９號","OBJECTID":588302},"geometry":{"x":166073.45999999996,"y":2542205.3500000015}},{"attributes":{"ID":588330,"DIS_CODE":0,"TOWNNAME":"南區","LI":"彰南里","LIN":"11鄰","STREET":"新忠路","SECT":" ","MAREA":" ","LANE":" ","ALLEY":" ","HOUSE_NO":"１號","E_COORD97":166332.29000000001,"N_COORD97":2542201.3500000001,"ADDRESS":"新忠路１號","OBJECTID":588303},"geometry":{"x":166332.29000000004,"y":2542201.3500000015}},{"attributes":{"ID":588331,"DIS_CODE":0,"TOWNNAME":"南區","LI":"彰南里","LIN":"11鄰","STREET":"新忠路","SECT":" ","MAREA":" ","LANE":" ","ALLEY":" ","HOUSE_NO":"２０號","E_COORD97":165935.78,"N_COORD97":2542289.1400000001,"ADDRESS":"新忠路２０號","OBJECTID":588304},"geometry":{"x":165935.78000000119,"y":2542289.1400000025}},{"attributes":{"ID":588332,"DIS_CODE":0,"TOWNNAME":"南區","LI":"彰南里","LIN":"11鄰","STREET":"新忠路","SECT":" ","MAREA":" ","LANE":" ","ALLEY":" ","HOUSE_NO":"２１號","E_COORD97":166047.09,"N_COORD97":2542193.9700000002,"ADDRESS":"新忠路２１號","OBJECTID":588305},"geometry":{"x":166047.08999999985,"y":2542193.9700000007}},{"attributes":{"ID":588333,"DIS_CODE":0,"TOWNNAME":"南區","LI":"彰南里","LIN":"11鄰","STREET":"新忠路","SECT":" ","MAREA":" ","LANE":" ","ALLEY":" ","HOUSE_NO":"２３號","E_COORD97":166020.73000000001,"N_COORD97":2542198.1699999999,"ADDRESS":"新忠路２３號","OBJECTID":588306},"geometry":{"x":166020.73000000138,"y":2542198.1699999999}},{"attributes":{"ID":588334,"DIS_CODE":0,"TOWNNAME":"南區","LI":"彰南里","LIN":"11鄰","STREET":"新忠路","SECT":" ","MAREA":" ","LANE":" ","ALLEY":" ","HOUSE_NO":"２５號","E_COORD97":165995.57000000001,"N_COORD97":2542186.79,"ADDRESS":"新忠路２５號","OBJECTID":588307},"geometry":{"x":165995.5700000003,"y":2542186.7899999991}},{"attributes":{"ID":588335,"DIS_CODE":0,"TOWNNAME":"南區","LI":"彰南里","LIN":"11鄰","STREET":"新忠路","SECT":" ","MAREA":" ","LANE":" ","ALLEY":" ","HOUSE_NO":"２６號","E_COORD97":165879.45999999999,"N_COORD97":2542313.6899999999,"ADDRESS":"新忠路２６號","OBJECTID":588308},"geometry":{"x":165879.46000000089,"y":2542313.6900000032}},{"attributes":{"ID":588336,"DIS_CODE":0,"TOWNNAME":"南區","LI":"彰南里","LIN":"11鄰","STREET":"新忠路","SECT":" ","MAREA":" ","LANE":" ","ALLEY":" ","HOUSE_NO":"２７號","E_COORD97":165970.53,"N_COORD97":2542199.96,"ADDRESS":"新忠路２７號","OBJECTID":588309},"geometry":{"x":165970.52999999933,"y":2542199.9600000009}},{"attributes":{"ID":588337,"DIS_CODE":0,"TOWNNAME":"南區","LI":"彰南里","LIN":"11鄰","STREET":"新忠路","SECT":" ","MAREA":" ","LANE":" ","ALLEY":" ","HOUSE_NO":"２９號","E_COORD97":165930.98999999999,"N_COORD97":2542198.7599999998,"ADDRESS":"新忠路２９號","OBJECTID":588310},"geometry":{"x":165930.99000000115,"y":2542198.7600000016}},{"attributes":{"ID":588338,"DIS_CODE":0,"TOWNNAME":"南區","LI":"彰南里","LIN":"11鄰","STREET":"新忠路","SECT":" ","MAREA":" ","LANE":" ","ALLEY":" ","HOUSE_NO":"３３號","E_COORD97":165869.26999999999,"N_COORD97":2542206.6899999999,"ADDRESS":"新忠路３３號","OBJECTID":588311},"geometry":{"x":165869.26999999955,"y":2542206.6900000013}},{"attributes":{"ID":588339,"DIS_CODE":0,"TOWNNAME":"南區","LI":"彰南里","LIN":"11鄰","STREET":"新忠路","SECT":" ","MAREA":" ","LANE":" ","ALLEY":" ","HOUSE_NO":"３５號","E_COORD97":165846.5,"N_COORD97":2542221.0600000001,"ADDRESS":"新忠路３５號","OBJECTID":588312},"geometry":{"x":165846.5,"y":2542221.0600000024}},{"attributes":{"ID":588340,"DIS_CODE":0,"TOWNNAME":"南區","LI":"彰南里","LIN":"11鄰","STREET":"新忠路","SECT":" ","MAREA":" ","LANE":" ","ALLEY":" ","HOUSE_NO":"３７號","E_COORD97":165822.54000000001,"N_COORD97":2542213.2799999998,"ADDRESS":"新忠路３７號","OBJECTID":588313},"geometry":{"x":165822.54000000004,"y":2542213.2799999993}},{"attributes":{"ID":588341,"DIS_CODE":0,"TOWNNAME":"南區","LI":"彰南里","LIN":"11鄰","STREET":"新忠路","SECT":" ","MAREA":" ","LANE":" ","ALLEY":" ","HOUSE_NO":"３號","E_COORD97":166299.34,"N_COORD97":2542193.5600000001,"ADDRESS":"新忠路３號","OBJECTID":588314},"geometry":{"x":166299.34000000078,"y":2542193.5600000042}},{"attributes":{"ID":588342,"DIS_CODE":0,"TOWNNAME":"南區","LI":"彰南里","LIN":"11鄰","STREET":"新忠路","SECT":" ","MAREA":" ","LANE":" ","ALLEY":" ","HOUSE_NO":"３號之１","E_COORD97":166269.38,"N_COORD97":2542195.96,"ADDRESS":"新忠路３號之１","OBJECTID":588315},"geometry":{"x":166269.37999999989,"y":2542195.9600000028}},{"attributes":{"ID":588343,"DIS_CODE":0,"TOWNNAME":"南區","LI":"彰南里","LIN":"11鄰","STREET":"新忠路","SECT":" ","MAREA":" ","LANE":" ","ALLEY":" ","HOUSE_NO":"５號","E_COORD97":166244.82000000001,"N_COORD97":2542196.9700000002,"ADDRESS":"新忠路５號","OBJECTID":588316},"geometry":{"x":166244.8200000003,"y":2542196.9700000007}},{"attributes":{"ID":588344,"DIS_CODE":0,"TOWNNAME":"南區","LI":"彰南里","LIN":"11鄰","STREET":"新忠路","SECT":" ","MAREA":" ","LANE":" ","ALLEY":" ","HOUSE_NO":"６號","E_COORD97":166308.92999999999,"N_COORD97":2542334.8399999999,"ADDRESS":"新忠路６號","OBJECTID":588317},"geometry":{"x":166308.9299999997,"y":2542334.8400000017}},{"attributes":{"ID":588345,"DIS_CODE":0,"TOWNNAME":"南區","LI":"彰南里","LIN":"11鄰","STREET":"新忠路","SECT":" ","MAREA":" ","LANE":" ","ALLEY":" ","HOUSE_NO":"７號","E_COORD97":166206.47,"N_COORD97":2542192.1800000002,"ADDRESS":"新忠路７號","OBJECTID":588318},"geometry":{"x":166206.47000000067,"y":2542192.1800000034}},{"attributes":{"ID":588346,"DIS_CODE":0,"TOWNNAME":"南區","LI":"彰南里","LIN":"11鄰","STREET":"新忠路","SECT":" ","MAREA":" ","LANE":" ","ALLEY":" ","HOUSE_NO":"８號","E_COORD97":166214.26000000001,"N_COORD97":2542334.2400000002,"ADDRESS":"新忠路８號","OBJECTID":588319},"geometry":{"x":166214.25999999885,"y":2542334.2399999984}},{"attributes":{"ID":588347,"DIS_CODE":0,"TOWNNAME":"南區","LI":"彰南里","LIN":"11鄰","STREET":"新忠路","SECT":" ","MAREA":" ","LANE":" ","ALLEY":" ","HOUSE_NO":"８號之１","E_COORD97":166177.10999999999,"N_COORD97":2542282.1600000001,"ADDRESS":"新忠路８號之１","OBJECTID":588320},"geometry":{"x":166177.1100000022,"y":2542282.160000002}},{"attributes":{"ID":588348,"DIS_CODE":0,"TOWNNAME":"南區","LI":"彰南里","LIN":"11鄰","STREET":"新樂路","SECT":" ","MAREA":" ","LANE":" ","ALLEY":" ","HOUSE_NO":"１號之２","E_COORD97":165923.20000000001,"N_COORD97":2542377.7400000002,"ADDRESS":"新樂路１號之２","OBJECTID":588321},"geometry":{"x":165923.20000000019,"y":2542377.7400000002}},{"attributes":{"ID":588349,"DIS_CODE":0,"TOWNNAME":"南區","LI":"彰南里","LIN":"11鄰","STREET":"新樂路","SECT":" ","MAREA":" ","LANE":" ","ALLEY":" ","HOUSE_NO":"１號之３","E_COORD97":165893.84,"N_COORD97":2542378.3399999999,"ADDRESS":"新樂路１號之３","OBJECTID":588322},"geometry":{"x":165893.84000000078,"y":2542378.3400000017}},{"attributes":{"ID":588350,"DIS_CODE":0,"TOWNNAME":"南區","LI":"彰南里","LIN":"11鄰","STREET":"新樂路","SECT":" ","MAREA":" ","LANE":" ","ALLEY":" ","HOUSE_NO":"３號","E_COORD97":165821.94,"N_COORD97":2542189.9300000002,"ADDRESS":"新樂路３號","OBJECTID":588323},"geometry":{"x":165821.94000000041,"y":2542189.9299999997}},{"attributes":{"ID":588351,"DIS_CODE":0,"TOWNNAME":"南區","LI":"彰南里","LIN":"11鄰","STREET":"新樂路","SECT":" ","MAREA":" ","LANE":" ","ALLEY":" ","HOUSE_NO":"５號","E_COORD97":165795.57999999999,"N_COORD97":2542157.6099999999,"ADDRESS":"新樂路５號","OBJECTID":588324},"geometry":{"x":165795.58000000194,"y":2542157.6099999994}},{"attributes":{"ID":588352,"DIS_CODE":0,"TOWNNAME":"南區","LI":"彰南里","LIN":"11鄰","STREET":"新樂路","SECT":" ","MAREA":" ","LANE":" ","ALLEY":" ","HOUSE_NO":"７號","E_COORD97":165801.57000000001,"N_COORD97":2542113.9100000001,"ADDRESS":"新樂路７號","OBJECTID":588325},"geometry":{"x":165801.57000000123,"y":2542113.910000002}},{"attributes":{"ID":588353,"DIS_CODE":0,"TOWNNAME":"南區","LI":"彰南里","LIN":"11鄰","STREET":"新忠路","SECT":" ","MAREA":" ","LANE":" ","ALLEY":" ","HOUSE_NO":"１號之１","E_COORD97":166356.26000000001,"N_COORD97":2542228.8799999999,"ADDRESS":"新忠路１號之１","OBJECTID":588326},"geometry":{"x":166356.25999999978,"y":2542228.879999999}},{"attributes":{"ID":588354,"DIS_CODE":0,"TOWNNAME":"南區","LI":"廣州里","LIN":"11鄰","STREET":"健民街","SECT":" ","MAREA":" ","LANE":" ","ALLEY":" ","HOUSE_NO":"６號","E_COORD97":167396.57000000001,"N_COORD97":2542755.1099999999,"ADDRESS":"健民街６號","OBJECTID":588327},"geometry":{"x":167396.57000000123,"y":2542755.1100000031}},{"attributes":{"ID":588355,"DIS_CODE":0,"TOWNNAME":"南區","LI":"廣州里","LIN":"11鄰","STREET":"健民街","SECT":" ","MAREA":" ","LANE":" ","ALLEY":" ","HOUSE_NO":"１６號","E_COORD97":167403.73999999999,"N_COORD97":2542725.5899999999,"ADDRESS":"健民街１６號","OBJECTID":588328},"geometry":{"x":167403.74000000115,"y":2542725.5900000017}},{"attributes":{"ID":588356,"DIS_CODE":0,"TOWNNAME":"南區","LI":"廣州里","LIN":"11鄰","STREET":"健民街","SECT":" ","MAREA":" ","LANE":" ","ALLEY":" ","HOUSE_NO":"１８號","E_COORD97":167400.37,"N_COORD97":2542715.8999999999,"ADDRESS":"健民街１８號","OBJECTID":588329},"geometry":{"x":167400.37000000011,"y":2542715.9000000004}},{"attributes":{"ID":588357,"DIS_CODE":0,"TOWNNAME":"南區","LI":"廣州里","LIN":"11鄰","STREET":"福吉一街","SECT":" ","MAREA":" ","LANE":" ","ALLEY":" ","HOUSE_NO":"２號","E_COORD97":167390.23000000001,"N_COORD97":2542726.02,"ADDRESS":"福吉一街２號","OBJECTID":588330},"geometry":{"x":167390.23000000138,"y":2542726.0200000014}},{"attributes":{"ID":588358,"DIS_CODE":0,"TOWNNAME":"南區","LI":"廣州里","LIN":"11鄰","STREET":"福吉一街","SECT":" ","MAREA":" ","LANE":" ","ALLEY":" ","HOUSE_NO":"４號","E_COORD97":167387.70000000001,"N_COORD97":2542730.23,"ADDRESS":"福吉一街４號","OBJECTID":588331},"geometry":{"x":167387.70000000019,"y":2542730.2300000004}},{"attributes":{"ID":588359,"DIS_CODE":0,"TOWNNAME":"南區","LI":"廣州里","LIN":"11鄰","STREET":"福吉一街","SECT":" ","MAREA":" ","LANE":" ","ALLEY":" ","HOUSE_NO":"６號","E_COORD97":167384.32000000001,"N_COORD97":2542734.0299999998,"ADDRESS":"福吉一街６號","OBJECTID":588332},"geometry":{"x":167384.32000000216,"y":2542734.0299999993}},{"attributes":{"ID":588360,"DIS_CODE":0,"TOWNNAME":"南區","LI":"廣州里","LIN":"11鄰","STREET":"福吉一街","SECT":" ","MAREA":" ","LANE":" ","ALLEY":" ","HOUSE_NO":"８號","E_COORD97":167381.37,"N_COORD97":2542735.71,"ADDRESS":"福吉一街８號","OBJECTID":588333},"geometry":{"x":167381.37000000011,"y":2542735.7100000028}},{"attributes":{"ID":588361,"DIS_CODE":0,"TOWNNAME":"南區","LI":"廣州里","LIN":"11鄰","STREET":"福吉一街","SECT":" ","MAREA":" ","LANE":" ","ALLEY":" ","HOUSE_NO":"１０號","E_COORD97":167378.41,"N_COORD97":2542740.3500000001,"ADDRESS":"福吉一街１０號","OBJECTID":588334},"geometry":{"x":167378.41000000201,"y":2542740.3500000015}},{"attributes":{"ID":588362,"DIS_CODE":0,"TOWNNAME":"南區","LI":"廣州里","LIN":"11鄰","STREET":"福吉一街","SECT":" ","MAREA":" ","LANE":" ","ALLEY":" ","HOUSE_NO":"１４號","E_COORD97":167369.12,"N_COORD97":2542747.52,"ADDRESS":"福吉一街１４號","OBJECTID":588335},"geometry":{"x":167369.12000000104,"y":2542747.5199999996}},{"attributes":{"ID":588363,"DIS_CODE":0,"TOWNNAME":"南區","LI":"廣州里","LIN":"11鄰","STREET":"福吉一街","SECT":" ","MAREA":" ","LANE":" ","ALLEY":" ","HOUSE_NO":"１６號","E_COORD97":167359.82999999999,"N_COORD97":2542753,"ADDRESS":"福吉一街１６號","OBJECTID":588336},"geometry":{"x":167359.83000000007,"y":2542753.0000000037}},{"attributes":{"ID":588364,"DIS_CODE":0,"TOWNNAME":"南區","LI":"興農里","LIN":"11鄰","STREET":"明興路","SECT":" ","MAREA":" ","LANE":" ","ALLEY":" ","HOUSE_NO":"１１３１號","E_COORD97":166560.51000000001,"N_COORD97":2536477.23,"ADDRESS":"明興路１１３１號","OBJECTID":588337},"geometry":{"x":166560.51000000071,"y":2536477.2300000023}},{"attributes":{"ID":588365,"DIS_CODE":0,"TOWNNAME":"南區","LI":"興農里","LIN":"11鄰","STREET":"明興路","SECT":" ","MAREA":" ","LANE":" ","ALLEY":" ","HOUSE_NO":"１１３３號","E_COORD97":166561.09,"N_COORD97":2536471.0499999998,"ADDRESS":"明興路１１３３號","OBJECTID":588338},"geometry":{"x":166561.08999999985,"y":2536471.0500000045}},{"attributes":{"ID":588366,"DIS_CODE":0,"TOWNNAME":"南區","LI":"興農里","LIN":"11鄰","STREET":"明興路","SECT":" ","MAREA":" ","LANE":" ","ALLEY":" ","HOUSE_NO":"１１３５號","E_COORD97":166561.09,"N_COORD97":2536466.1800000002,"ADDRESS":"明興路１１３５號","OBJECTID":588339},"geometry":{"x":166561.08999999985,"y":2536466.1800000016}},{"attributes":{"ID":588367,"DIS_CODE":0,"TOWNNAME":"南區","LI":"興農里","LIN":"11鄰","STREET":"明興路","SECT":" ","MAREA":" ","LANE":" ","ALLEY":" ","HOUSE_NO":"１１３７號","E_COORD97":166561.79000000001,"N_COORD97":2536462.48,"ADDRESS":"明興路１１３７號","OBJECTID":588340},"geometry":{"x":166561.79000000004,"y":2536462.4800000023}},{"attributes":{"ID":588368,"DIS_CODE":0,"TOWNNAME":"南區","LI":"文華里","LIN":"11鄰","STREET":"文南路","SECT":" ","MAREA":" ","LANE":" ","ALLEY":" ","HOUSE_NO":"１２８號","E_COORD97":166963.10000000001,"N_COORD97":2542891.25,"ADDRESS":"文南路１２８號","OBJECTID":588341},"geometry":{"x":166963.10000000056,"y":2542891.2500000019}},{"attributes":{"ID":588369,"DIS_CODE":0,"TOWNNAME":"白河區","LI":"白河里","LIN":"11鄰","STREET":"新起街","SECT":" ","MAREA":" ","LANE":" ","ALLEY":" ","HOUSE_NO":"３９號","E_COORD97":190339.54999999999,"N_COORD97":2583106.3100000001,"ADDRESS":"新起街３９號","OBJECTID":588342},"geometry":{"x":190339.54999999981,"y":2583106.3100000005}},{"attributes":{"ID":588370,"DIS_CODE":0,"TOWNNAME":"新化區","LI":"豐榮里","LIN":"11鄰","STREET":"信義路","SECT":" ","MAREA":" ","LANE":" ","ALLEY":" ","HOUSE_NO":"４４９號之１３","E_COORD97":178446.73000000001,"N_COORD97":2548216.2599999998,"ADDRESS":"信義路４４９號之１３","OBJECTID":588343},"geometry":{"x":178446.73000000138,"y":2548216.2600000035}},{"attributes":{"ID":588371,"DIS_CODE":0,"TOWNNAME":"新化區","LI":"護國里","LIN":"11鄰","STREET":"中山路","SECT":" ","MAREA":" ","LANE":" ","ALLEY":" ","HOUSE_NO":"１號之２８","E_COORD97":180831.62,"N_COORD97":2550558.2599999998,"ADDRESS":"中山路１號之２８","OBJECTID":588344},"geometry":{"x":180831.62000000197,"y":2550558.2599999998}},{"attributes":{"ID":588372,"DIS_CODE":0,"TOWNNAME":"新化區","LI":"東榮里","LIN":"11鄰","STREET":"中興路","SECT":" ","MAREA":" ","LANE":" ","ALLEY":" ","HOUSE_NO":"４８２號","E_COORD97":180120.60999999999,"N_COORD97":2547825.25,"ADDRESS":"中興路４８２號","OBJECTID":588345},"geometry":{"x":180120.61000000127,"y":2547825.25}},{"attributes":{"ID":588373,"DIS_CODE":0,"TOWNNAME":"新化區","LI":"護國里","LIN":"11鄰","STREET":"中山路","SECT":" ","MAREA":" ","LANE":" ","ALLEY":" ","HOUSE_NO":"１號之４５","E_COORD97":180766.92000000001,"N_COORD97":2550524.2599999998,"ADDRESS":"中山路１號之４５","OBJECTID":588346},"geometry":{"x":180766.92000000086,"y":2550524.2599999998}},{"attributes":{"ID":588374,"DIS_CODE":0,"TOWNNAME":"白河區","LI":"白河里","LIN":"11鄰","STREET":"新富街","SECT":" ","MAREA":" ","LANE":" ","ALLEY":" ","HOUSE_NO":"２８之１號","E_COORD97":190282.23000000001,"N_COORD97":2583117.9199999999,"ADDRESS":"新富街２８之１號","OBJECTID":588347},"geometry":{"x":190282.23000000138,"y":2583117.9199999999}},{"attributes":{"ID":588375,"DIS_CODE":0,"TOWNNAME":"白河區","LI":"白河里","LIN":"11鄰","STREET":"新富街","SECT":" ","MAREA":" ","LANE":" ","ALLEY":" ","HOUSE_NO":"２８之２號","E_COORD97":190283.89999999999,"N_COORD97":2583121.9199999999,"ADDRESS":"新富街２８之２號","OBJECTID":588348},"geometry":{"x":190283.90000000037,"y":2583121.9199999999}},{"attributes":{"ID":588376,"DIS_CODE":0,"TOWNNAME":"白河區","LI":"白河里","LIN":"11鄰","STREET":"新富街","SECT":" ","MAREA":" ","LANE":" ","ALLEY":" ","HOUSE_NO":"２８之３號","E_COORD97":190285.47,"N_COORD97":2583125.9199999999,"ADDRESS":"新富街２８之３號","OBJECTID":588349},"geometry":{"x":190285.46999999974,"y":2583125.9200000037}},{"attributes":{"ID":588377,"DIS_CODE":0,"TOWNNAME":"白河區","LI":"白河里","LIN":"11鄰","STREET":"新富街","SECT":" ","MAREA":" ","LANE":" ","ALLEY":" ","HOUSE_NO":"２８號","E_COORD97":190280.60000000001,"N_COORD97":2583114.1800000002,"ADDRESS":"新富街２８號","OBJECTID":588350},"geometry":{"x":190280.60000000056,"y":2583114.1800000016}},{"attributes":{"ID":588378,"DIS_CODE":0,"TOWNNAME":"白河區","LI":"白河里","LIN":"11鄰","STREET":"新富街","SECT":" ","MAREA":" ","LANE":" ","ALLEY":" ","HOUSE_NO":"３０之１號","E_COORD97":190288.88,"N_COORD97":2583133.6400000001,"ADDRESS":"新富街３０之１號","OBJECTID":588351},"geometry":{"x":190288.88000000175,"y":2583133.6400000025}},{"attributes":{"ID":588379,"DIS_CODE":0,"TOWNNAME":"白河區","LI":"白河里","LIN":"11鄰","STREET":"新富街","SECT":" ","MAREA":" ","LANE":" ","ALLEY":" ","HOUSE_NO":"３０之２號","E_COORD97":190290.42000000001,"N_COORD97":2583137.5,"ADDRESS":"新富街３０之２號","OBJECTID":588352},"geometry":{"x":190290.42000000086,"y":2583137.5}},{"attributes":{"ID":588380,"DIS_CODE":0,"TOWNNAME":"白河區","LI":"白河里","LIN":"11鄰","STREET":"新富街","SECT":" ","MAREA":" ","LANE":" ","ALLEY":" ","HOUSE_NO":"３０之３號","E_COORD97":190292.07999999999,"N_COORD97":2583141.8500000001,"ADDRESS":"新富街３０之３號","OBJECTID":588353},"geometry":{"x":190292.08000000007,"y":2583141.8499999996}},{"attributes":{"ID":588381,"DIS_CODE":0,"TOWNNAME":"白河區","LI":"白河里","LIN":"11鄰","STREET":"新富街","SECT":" ","MAREA":" ","LANE":" ","ALLEY":" ","HOUSE_NO":"３０之５號","E_COORD97":190294.07999999999,"N_COORD97":2583146.0299999998,"ADDRESS":"新富街３０之５號","OBJECTID":588354},"geometry":{"x":190294.08000000007,"y":2583146.0300000012}},{"attributes":{"ID":588382,"DIS_CODE":0,"TOWNNAME":"白河區","LI":"白河里","LIN":"11鄰","STREET":"新富街","SECT":" ","MAREA":" ","LANE":" ","ALLEY":" ","HOUSE_NO":"３０之６號","E_COORD97":190295.67000000001,"N_COORD97":2583150.1800000002,"ADDRESS":"新富街３０之６號","OBJECTID":588355},"geometry":{"x":190295.67000000086,"y":2583150.1799999997}},{"attributes":{"ID":588383,"DIS_CODE":0,"TOWNNAME":"白河區","LI":"白河里","LIN":"11鄰","STREET":"新富街","SECT":" ","MAREA":" ","LANE":" ","ALLEY":" ","HOUSE_NO":"３０之７號","E_COORD97":190298.22,"N_COORD97":2583153.98,"ADDRESS":"新富街３０之７號","OBJECTID":588356},"geometry":{"x":190298.2200000016,"y":2583153.9800000023}},{"attributes":{"ID":588384,"DIS_CODE":0,"TOWNNAME":"白河區","LI":"白河里","LIN":"11鄰","STREET":"新富街","SECT":" ","MAREA":" ","LANE":" ","ALLEY":" ","HOUSE_NO":"３０號","E_COORD97":190287.23000000001,"N_COORD97":2583129.6600000001,"ADDRESS":"新富街３０號","OBJECTID":588357},"geometry":{"x":190287.23000000138,"y":2583129.6600000001}},{"attributes":{"ID":588385,"DIS_CODE":0,"TOWNNAME":"白河區","LI":"庄內里","LIN":"11鄰","STREET":"新興路","SECT":" ","MAREA":" ","LANE":" ","ALLEY":" ","HOUSE_NO":"４２４之１號","E_COORD97":190674.67000000001,"N_COORD97":2583449.5800000001,"ADDRESS":"新興路４２４之１號","OBJECTID":588358},"geometry":{"x":190674.66999999993,"y":2583449.5800000001}},{"attributes":{"ID":588386,"DIS_CODE":0,"TOWNNAME":"白河區","LI":"庄內里","LIN":"11鄰","STREET":"新興路","SECT":" ","MAREA":" ","LANE":" ","ALLEY":" ","HOUSE_NO":"４２４號","E_COORD97":190681.95000000001,"N_COORD97":2583450.3500000001,"ADDRESS":"新興路４２４號","OBJECTID":588359},"geometry":{"x":190681.95000000205,"y":2583450.3499999996}},{"attributes":{"ID":588387,"DIS_CODE":0,"TOWNNAME":"白河區","LI":"庄內里","LIN":"11鄰","STREET":"新興路","SECT":" ","MAREA":" ","LANE":" ","ALLEY":" ","HOUSE_NO":"４２６號","E_COORD97":190670.91,"N_COORD97":2583449.6899999999,"ADDRESS":"新興路４２６號","OBJECTID":588360},"geometry":{"x":190670.91000000108,"y":2583449.6900000013}},{"attributes":{"ID":588388,"DIS_CODE":0,"TOWNNAME":"白河區","LI":"庄內里","LIN":"11鄰","STREET":"新興路","SECT":" ","MAREA":" ","LANE":" ","ALLEY":" ","HOUSE_NO":"４３２號","E_COORD97":190657.48000000001,"N_COORD97":2583452.25,"ADDRESS":"新興路４３２號","OBJECTID":588361},"geometry":{"x":190657.48000000045,"y":2583452.25}},{"attributes":{"ID":588389,"DIS_CODE":0,"TOWNNAME":"白河區","LI":"庄內里","LIN":"11鄰","STREET":"新興路","SECT":" ","MAREA":" ","LANE":" ","ALLEY":" ","HOUSE_NO":"４３６號","E_COORD97":190650.04999999999,"N_COORD97":2583465.8999999999,"ADDRESS":"新興路４３６號","OBJECTID":588362},"geometry":{"x":190650.04999999981,"y":2583465.9000000022}},{"attributes":{"ID":588390,"DIS_CODE":0,"TOWNNAME":"白河區","LI":"庄內里","LIN":"11鄰","STREET":"新興路","SECT":" ","MAREA":" ","LANE":" ","ALLEY":" ","HOUSE_NO":"４３８號","E_COORD97":190645.73999999999,"N_COORD97":2583466.0899999999,"ADDRESS":"新興路４３８號","OBJECTID":588363},"geometry":{"x":190645.74000000022,"y":2583466.0899999999}},{"attributes":{"ID":588391,"DIS_CODE":0,"TOWNNAME":"白河區","LI":"庄內里","LIN":"11鄰","STREET":"新興路","SECT":" ","MAREA":" ","LANE":" ","ALLEY":" ","HOUSE_NO":"４４０號","E_COORD97":190642.35000000001,"N_COORD97":2583466.4300000002,"ADDRESS":"新興路４４０號","OBJECTID":588364},"geometry":{"x":190642.34999999963,"y":2583466.4299999997}},{"attributes":{"ID":588392,"DIS_CODE":0,"TOWNNAME":"白河區","LI":"庄內里","LIN":"11鄰","STREET":"新興路","SECT":" ","MAREA":" ","LANE":" ","ALLEY":" ","HOUSE_NO":"４４２號","E_COORD97":190635.41,"N_COORD97":2583454.9100000001,"ADDRESS":"新興路４４２號","OBJECTID":588365},"geometry":{"x":190635.41000000108,"y":2583454.9099999983}},{"attributes":{"ID":588393,"DIS_CODE":0,"TOWNNAME":"白河區","LI":"庄內里","LIN":"11鄰","STREET":"新興路","SECT":" ","MAREA":" ","LANE":" ","ALLEY":" ","HOUSE_NO":"４４６號","E_COORD97":190629.79000000001,"N_COORD97":2583455.3300000001,"ADDRESS":"新興路４４６號","OBJECTID":588366},"geometry":{"x":190629.79000000004,"y":2583455.3299999982}},{"attributes":{"ID":588394,"DIS_CODE":0,"TOWNNAME":"白河區","LI":"庄內里","LIN":"11鄰","STREET":"裕農路","SECT":" ","MAREA":" ","LANE":" ","ALLEY":" ","HOUSE_NO":"２０１號","E_COORD97":190697.29000000001,"N_COORD97":2583700.5299999998,"ADDRESS":"裕農路２０１號","OBJECTID":588367},"geometry":{"x":190697.29000000004,"y":2583700.5299999993}},{"attributes":{"ID":588395,"DIS_CODE":0,"TOWNNAME":"西港區","LI":"慶安里","LIN":"11鄰","STREET":"進學街","SECT":" ","MAREA":" ","LANE":" ","ALLEY":" ","HOUSE_NO":"４２號","E_COORD97":168220.16,"N_COORD97":2558064.29,"ADDRESS":"進學街４２號","OBJECTID":588368},"geometry":{"x":168220.16000000015,"y":2558064.2900000028}},{"attributes":{"ID":588396,"DIS_CODE":0,"TOWNNAME":"西港區","LI":"慶安里","LIN":"11鄰","STREET":"進學街","SECT":" ","MAREA":" ","LANE":" ","ALLEY":" ","HOUSE_NO":"１０號","E_COORD97":168297.35999999999,"N_COORD97":2558079.5899999999,"ADDRESS":"進學街１０號","OBJECTID":588369},"geometry":{"x":168297.36000000034,"y":2558079.5899999999}},{"attributes":{"ID":588397,"DIS_CODE":0,"TOWNNAME":"西港區","LI":"慶安里","LIN":"11鄰","STREET":"進學街","SECT":" ","MAREA":" ","LANE":" ","ALLEY":" ","HOUSE_NO":"１６號","E_COORD97":168285.85999999999,"N_COORD97":2558064.4300000002,"ADDRESS":"進學街１６號","OBJECTID":588370},"geometry":{"x":168285.8600000022,"y":2558064.4300000016}},{"attributes":{"ID":588398,"DIS_CODE":0,"TOWNNAME":"西港區","LI":"慶安里","LIN":"11鄰","STREET":"進學街","SECT":" ","MAREA":" ","LANE":" ","ALLEY":" ","HOUSE_NO":"２０號","E_COORD97":168278.41,"N_COORD97":2558064.7200000002,"ADDRESS":"進學街２０號","OBJECTID":588371},"geometry":{"x":168278.40999999922,"y":2558064.7200000007}},{"attributes":{"ID":588399,"DIS_CODE":0,"TOWNNAME":"西港區","LI":"慶安里","LIN":"11鄰","STREET":"進學街","SECT":" ","MAREA":" ","LANE":" ","ALLEY":" ","HOUSE_NO":"２４號","E_COORD97":168268.60000000001,"N_COORD97":2558064.8900000001,"ADDRESS":"進學街２４號","OBJECTID":588372},"geometry":{"x":168268.60000000056,"y":2558064.8900000006}},{"attributes":{"ID":588400,"DIS_CODE":0,"TOWNNAME":"西港區","LI":"慶安里","LIN":"11鄰","STREET":"進學街","SECT":" ","MAREA":" ","LANE":" ","ALLEY":" ","HOUSE_NO":"２６號","E_COORD97":168263.49527799999,"N_COORD97":2558068.1288600001,"ADDRESS":"進學街２６號","OBJECTID":588373},"geometry":{"x":168263.4952779999,"y":2558068.1288639996}},{"attributes":{"ID":588401,"DIS_CODE":0,"TOWNNAME":"西港區","LI":"慶安里","LIN":"11鄰","STREET":"進學街","SECT":" ","MAREA":" ","LANE":" ","ALLEY":" ","HOUSE_NO":"２號","E_COORD97":168313.17999999999,"N_COORD97":2558080.9500000002,"ADDRESS":"進學街２號","OBJECTID":588374},"geometry":{"x":168313.1799999997,"y":2558080.9500000011}},{"attributes":{"ID":588402,"DIS_CODE":0,"TOWNNAME":"西港區","LI":"慶安里","LIN":"11鄰","STREET":"進學街","SECT":" ","MAREA":" ","LANE":" ","ALLEY":" ","HOUSE_NO":"３０號","E_COORD97":168257.82000000001,"N_COORD97":2558064.3599999999,"ADDRESS":"進學街３０號","OBJECTID":588375},"geometry":{"x":168257.82000000123,"y":2558064.3600000031}},{"attributes":{"ID":588403,"DIS_CODE":0,"TOWNNAME":"西港區","LI":"慶安里","LIN":"11鄰","STREET":"進學街","SECT":" ","MAREA":" ","LANE":" ","ALLEY":" ","HOUSE_NO":"３２號","E_COORD97":168253.89999999999,"N_COORD97":2558063.8500000001,"ADDRESS":"進學街３２號","OBJECTID":588376},"geometry":{"x":168253.9000000013,"y":2558063.8499999996}},{"attributes":{"ID":588404,"DIS_CODE":0,"TOWNNAME":"西港區","LI":"慶安里","LIN":"11鄰","STREET":"進學街","SECT":" ","MAREA":" ","LANE":" ","ALLEY":" ","HOUSE_NO":"３６號","E_COORD97":168244.98000000001,"N_COORD97":2558063.0800000001,"ADDRESS":"進學街３６號","OBJECTID":588377},"geometry":{"x":168244.98000000138,"y":2558063.0799999982}},{"attributes":{"ID":588405,"DIS_CODE":0,"TOWNNAME":"西港區","LI":"慶安里","LIN":"11鄰","STREET":"進學街","SECT":" ","MAREA":" ","LANE":" ","ALLEY":" ","HOUSE_NO":"３８號","E_COORD97":168240.73000000001,"N_COORD97":2558062.6499999999,"ADDRESS":"進學街３８號","OBJECTID":588378},"geometry":{"x":168240.73000000045,"y":2558062.6500000004}},{"attributes":{"ID":588406,"DIS_CODE":0,"TOWNNAME":"西港區","LI":"慶安里","LIN":"11鄰","STREET":"進學街","SECT":" ","MAREA":" ","LANE":" ","ALLEY":" ","HOUSE_NO":"４４號","E_COORD97":168215.57999999999,"N_COORD97":2558063.77,"ADDRESS":"進學街４４號","OBJECTID":588379},"geometry":{"x":168215.58000000007,"y":2558063.7699999996}},{"attributes":{"ID":588407,"DIS_CODE":0,"TOWNNAME":"西港區","LI":"慶安里","LIN":"11鄰","STREET":"進學街","SECT":" ","MAREA":" ","LANE":" ","ALLEY":" ","HOUSE_NO":"４６號之１","E_COORD97":168207.92000000001,"N_COORD97":2558065.02,"ADDRESS":"進學街４６號之１","OBJECTID":588380},"geometry":{"x":168207.91999999993,"y":2558065.0199999996}},{"attributes":{"ID":588408,"DIS_CODE":0,"TOWNNAME":"西港區","LI":"慶安里","LIN":"11鄰","STREET":"進學街","SECT":" ","MAREA":" ","LANE":" ","ALLEY":" ","HOUSE_NO":"４６號之２","E_COORD97":168203.69,"N_COORD97":2558064.8900000001,"ADDRESS":"進學街４６號之２","OBJECTID":588381},"geometry":{"x":168203.69000000041,"y":2558064.8900000006}},{"attributes":{"ID":588409,"DIS_CODE":0,"TOWNNAME":"西港區","LI":"慶安里","LIN":"11鄰","STREET":"進學街","SECT":" ","MAREA":" ","LANE":" ","ALLEY":" ","HOUSE_NO":"４６號","E_COORD97":168211.63,"N_COORD97":2558063.6200000001,"ADDRESS":"進學街４６號","OBJECTID":588382},"geometry":{"x":168211.62999999989,"y":2558063.620000001}},{"attributes":{"ID":588410,"DIS_CODE":0,"TOWNNAME":"西港區","LI":"慶安里","LIN":"11鄰","STREET":"進學街","SECT":" ","MAREA":" ","LANE":" ","ALLEY":" ","HOUSE_NO":"６號","E_COORD97":168308.12,"N_COORD97":2558064.5699999998,"ADDRESS":"進學街６號","OBJECTID":588383},"geometry":{"x":168308.12000000104,"y":2558064.5700000022}},{"attributes":{"ID":588411,"DIS_CODE":0,"TOWNNAME":"西港區","LI":"慶安里","LIN":"11鄰","STREET":"進學街","SECT":" ","MAREA":" ","LANE":" ","ALLEY":" ","HOUSE_NO":"８號","E_COORD97":168303.76000000001,"N_COORD97":2558064.3900000001,"ADDRESS":"進學街８號","OBJECTID":588384},"geometry":{"x":168303.75999999978,"y":2558064.3900000006}},{"attributes":{"ID":588412,"DIS_CODE":0,"TOWNNAME":"西港區","LI":"慶安里","LIN":"11鄰","STREET":"新興街","SECT":" ","MAREA":" ","LANE":" ","ALLEY":" ","HOUSE_NO":"７２號之１","E_COORD97":168188.32999999999,"N_COORD97":2558059.7000000002,"ADDRESS":"新興街７２號之１","OBJECTID":588385},"geometry":{"x":168188.33000000007,"y":2558059.7000000011}},{"attributes":{"ID":588413,"DIS_CODE":0,"TOWNNAME":"西港區","LI":"慶安里","LIN":"11鄰","STREET":"新興街","SECT":" ","MAREA":" ","LANE":" ","ALLEY":" ","HOUSE_NO":"７２號","E_COORD97":168188.07000000001,"N_COORD97":2558055.7200000002,"ADDRESS":"新興街７２號","OBJECTID":588386},"geometry":{"x":168188.07000000123,"y":2558055.7200000007}},{"attributes":{"ID":588414,"DIS_CODE":0,"TOWNNAME":"西港區","LI":"慶安里","LIN":"11鄰","STREET":"新興街","SECT":" ","MAREA":" ","LANE":" ","ALLEY":" ","HOUSE_NO":"７４號","E_COORD97":168188.95999999999,"N_COORD97":2558064.5,"ADDRESS":"新興街７４號","OBJECTID":588387},"geometry":{"x":168188.95999999996,"y":2558064.5000000019}},{"attributes":{"ID":588415,"DIS_CODE":0,"TOWNNAME":"西港區","LI":"慶安里","LIN":"11鄰","STREET":"新興街","SECT":" ","MAREA":" ","LANE":" ","ALLEY":" ","HOUSE_NO":"８２號","E_COORD97":168191.98000000001,"N_COORD97":2558097.2400000002,"ADDRESS":"新興街８２號","OBJECTID":588388},"geometry":{"x":168191.98000000231,"y":2558097.2400000021}},{"attributes":{"ID":588416,"DIS_CODE":0,"TOWNNAME":"西港區","LI":"慶安里","LIN":"11鄰","STREET":"新興街","SECT":" ","MAREA":" ","LANE":" ","ALLEY":" ","HOUSE_NO":"８４號","E_COORD97":168193.04000000001,"N_COORD97":2558101.6899999999,"ADDRESS":"新興街８４號","OBJECTID":588389},"geometry":{"x":168193.04000000097,"y":2558101.6899999995}},{"attributes":{"ID":588417,"DIS_CODE":0,"TOWNNAME":"西港區","LI":"慶安里","LIN":"11鄰","STREET":"新興街","SECT":" ","MAREA":" ","LANE":" ","ALLEY":" ","HOUSE_NO":"８８號","E_COORD97":168227.75,"N_COORD97":2558144.1400000001,"ADDRESS":"新興街８８號","OBJECTID":588390},"geometry":{"x":168227.75,"y":2558144.1400000006}},{"attributes":{"ID":588418,"DIS_CODE":0,"TOWNNAME":"永康區","LI":"南灣里","LIN":"11鄰","STREET":"立興街","SECT":" ","MAREA":" ","LANE":" ","ALLEY":" ","HOUSE_NO":"１１號","E_COORD97":174661.48000000001,"N_COORD97":2544834.8300000001,"ADDRESS":"立興街１１號","OBJECTID":588391},"geometry":{"x":174661.48000000138,"y":2544834.8300000001}},{"attributes":{"ID":588419,"DIS_CODE":0,"TOWNNAME":"永康區","LI":"南灣里","LIN":"11鄰","STREET":"立興街","SECT":" ","MAREA":" ","LANE":" ","ALLEY":" ","HOUSE_NO":"１９號","E_COORD97":174649.59,"N_COORD97":2544851.23,"ADDRESS":"立興街１９號","OBJECTID":588392},"geometry":{"x":174649.59000000078,"y":2544851.2300000023}},{"attributes":{"ID":588420,"DIS_CODE":0,"TOWNNAME":"永康區","LI":"烏竹里","LIN":"11鄰","STREET":"竹園二街","SECT":" ","MAREA":" ","LANE":" ","ALLEY":" ","HOUSE_NO":"１６８號","E_COORD97":174573.60000000001,"N_COORD97":2549270.2599999998,"ADDRESS":"竹園二街１６８號","OBJECTID":588393},"geometry":{"x":174573.59999999963,"y":2549270.2599999998}},{"attributes":{"ID":588421,"DIS_CODE":0,"TOWNNAME":"永康區","LI":"烏竹里","LIN":"11鄰","STREET":"竹園二街","SECT":" ","MAREA":" ","LANE":" ","ALLEY":" ","HOUSE_NO":"１６６號","E_COORD97":174570.64999999999,"N_COORD97":2549268.0099999998,"ADDRESS":"竹園二街１６６號","OBJECTID":588394},"geometry":{"x":174570.65000000037,"y":2549268.0099999998}},{"attributes":{"ID":588422,"DIS_CODE":0,"TOWNNAME":"永康區","LI":"烏竹里","LIN":"11鄰","STREET":"竹園二街","SECT":" ","MAREA":" ","LANE":" ","ALLEY":" ","HOUSE_NO":"１７６號","E_COORD97":174582.98000000001,"N_COORD97":2549278.5099999998,"ADDRESS":"竹園二街１７６號","OBJECTID":588395},"geometry":{"x":174582.98000000138,"y":2549278.5099999998}},{"attributes":{"ID":588423,"DIS_CODE":0,"TOWNNAME":"永康區","LI":"西橋里","LIN":"11鄰","STREET":"大橋一街","SECT":" ","MAREA":" ","LANE":" ","ALLEY":" ","HOUSE_NO":"２１號","E_COORD97":170545.66,"N_COORD97":2546180.7400000002,"ADDRESS":"大橋一街２１號","OBJECTID":588396},"geometry":{"x":170545.66000000108,"y":2546180.7400000021}},{"attributes":{"ID":588424,"DIS_CODE":0,"TOWNNAME":"永康區","LI":"西灣里","LIN":"11鄰","STREET":"大灣五街","SECT":" ","MAREA":" ","LANE":" ","ALLEY":" ","HOUSE_NO":"９７號","E_COORD97":174588.97,"N_COORD97":2545293.8900000001,"ADDRESS":"大灣五街９７號","OBJECTID":588397},"geometry":{"x":174588.9700000016,"y":2545293.8900000043}},{"attributes":{"ID":588425,"DIS_CODE":0,"TOWNNAME":"永康區","LI":"西橋里","LIN":"11鄰","STREET":"大橋一街","SECT":" ","MAREA":" ","LANE":" ","ALLEY":" ","HOUSE_NO":"２０號","E_COORD97":170568.79000000001,"N_COORD97":2546183.6600000001,"ADDRESS":"大橋一街２０號","OBJECTID":588398},"geometry":{"x":170568.79000000004,"y":2546183.660000002}},{"attributes":{"ID":588426,"DIS_CODE":0,"TOWNNAME":"永康區","LI":"西勢里","LIN":"11鄰","STREET":"廣盛街","SECT":" ","MAREA":" ","LANE":" ","ALLEY":" ","HOUSE_NO":"１０１號","E_COORD97":176065.10999999999,"N_COORD97":2546607.3199999998,"ADDRESS":"廣盛街１０１號","OBJECTID":588399},"geometry":{"x":176065.1100000022,"y":2546607.3200000022}},{"attributes":{"ID":588427,"DIS_CODE":0,"TOWNNAME":"永康區","LI":"西勢里","LIN":"11鄰","STREET":"廣盛街","SECT":" ","MAREA":" ","LANE":" ","ALLEY":" ","HOUSE_NO":"１１３號","E_COORD97":176068.19,"N_COORD97":2546631.1400000001,"ADDRESS":"廣盛街１１３號","OBJECTID":588400},"geometry":{"x":176068.19000000134,"y":2546631.1400000043}}]}