{"displayFieldName":"TOWNNAME","fieldAliases":{"ID":"ID","DIS_CODE":"DIS_CODE","TOWNNAME":"TOWNNAME","LI":"LI","LIN":"LIN","STREET":"STREET","SECT":"SECT","MAREA":"MAREA","LANE":"LANE","ALLEY":"ALLEY","HOUSE_NO":"HOUSE_NO","E_COORD97":"E_COORD97","N_COORD97":"N_COORD97","ADDRESS":"ADDRESS","OBJECTID":"OBJECTID"},"geometryType":"esriGeometryPoint","spatialReference":{"wkid":102443,"latestWkid":3826},"fields":[{"name":"ID","type":"esriFieldTypeDouble","alias":"ID"},{"name":"DIS_CODE","type":"esriFieldTypeInteger","alias":"DIS_CODE"},{"name":"TOWNNAME","type":"esriFieldTypeString","alias":"TOWNNAME","length":8},{"name":"LI","type":"esriFieldTypeString","alias":"LI","length":8},{"name":"LIN","type":"esriFieldTypeString","alias":"LIN","length":12},{"name":"STREET","type":"esriFieldTypeString","alias":"STREET","length":20},{"name":"SECT","type":"esriFieldTypeString","alias":"SECT","length":8},{"name":"MAREA","type":"esriFieldTypeString","alias":"MAREA","length":12},{"name":"LANE","type":"esriFieldTypeString","alias":"LANE","length":10},{"name":"ALLEY","type":"esriFieldTypeString","alias":"ALLEY","length":10},{"name":"HOUSE_NO","type":"esriFieldTypeString","alias":"HOUSE_NO","length":20},{"name":"E_COORD97","type":"esriFieldTypeDouble","alias":"E_COORD97"},{"name":"N_COORD97","type":"esriFieldTypeDouble","alias":"N_COORD97"},{"name":"ADDRESS","type":"esriFieldTypeString","alias":"ADDRESS","length":50},{"name":"OBJECTID","type":"esriFieldTypeOID","alias":"OBJECTID"}],"features":[{"attributes":{"ID":183002,"DIS_CODE":0,"TOWNNAME":"永康區","LI":"龍潭里","LIN":"26鄰","STREET":"中山北路","SECT":" ","MAREA":" ","LANE":"４６１巷","ALLEY":"８弄","HOUSE_NO":"１００號","E_COORD97":175160.44,"N_COORD97":2547904.4500000002,"ADDRESS":"中山北路４６１巷８弄１００號","OBJECTID":183001},"geometry":{"x":175160.44000000041,"y":2547904.4499999993}},{"attributes":{"ID":183003,"DIS_CODE":0,"TOWNNAME":"安定區","LI":"保西里","LIN":"11鄰","STREET":" ","SECT":" ","MAREA":"安定","LANE":" ","ALLEY":" ","HOUSE_NO":"４３６號之１","E_COORD97":171690.35000000001,"N_COORD97":2557923.3199999998,"ADDRESS":"安定４３６號之１","OBJECTID":183002},"geometry":{"x":171690.34999999963,"y":2557923.3200000022}},{"attributes":{"ID":183004,"DIS_CODE":0,"TOWNNAME":"安定區","LI":"港南里","LIN":"11鄰","STREET":" ","SECT":" ","MAREA":"港口","LANE":" ","ALLEY":" ","HOUSE_NO":"８２號","E_COORD97":171290.94,"N_COORD97":2554296.25,"ADDRESS":"港口８２號","OBJECTID":183003},"geometry":{"x":171290.94000000227,"y":2554296.2500000019}},{"attributes":{"ID":183005,"DIS_CODE":0,"TOWNNAME":"安定區","LI":"安定里","LIN":"11鄰","STREET":" ","SECT":" ","MAREA":"安定","LANE":" ","ALLEY":" ","HOUSE_NO":"１０１號","E_COORD97":172024.51999999999,"N_COORD97":2557713.3199999998,"ADDRESS":"安定１０１號","OBJECTID":183004},"geometry":{"x":172024.51999999955,"y":2557713.3200000022}},{"attributes":{"ID":183006,"DIS_CODE":0,"TOWNNAME":"安定區","LI":"港南里","LIN":"11鄰","STREET":" ","SECT":" ","MAREA":"港口","LANE":" ","ALLEY":" ","HOUSE_NO":"８２之５號","E_COORD97":171284.23999999999,"N_COORD97":2554299.2999999998,"ADDRESS":"港口８２之５號","OBJECTID":183005},"geometry":{"x":171284.24000000115,"y":2554299.3000000045}},{"attributes":{"ID":183007,"DIS_CODE":0,"TOWNNAME":"安定區","LI":"保西里","LIN":"11鄰","STREET":" ","SECT":" ","MAREA":"安定","LANE":" ","ALLEY":" ","HOUSE_NO":"４４１號","E_COORD97":171720.62,"N_COORD97":2557968.3199999998,"ADDRESS":"安定４４１號","OBJECTID":183006},"geometry":{"x":171720.62000000104,"y":2557968.3200000022}},{"attributes":{"ID":183008,"DIS_CODE":0,"TOWNNAME":"安定區","LI":"港南里","LIN":"11鄰","STREET":" ","SECT":" ","MAREA":"港口","LANE":" ","ALLEY":" ","HOUSE_NO":"８２號之１","E_COORD97":171265.78,"N_COORD97":2554322.2999999998,"ADDRESS":"港口８２號之１","OBJECTID":183007},"geometry":{"x":171265.78000000026,"y":2554322.3000000007}},{"attributes":{"ID":183009,"DIS_CODE":0,"TOWNNAME":"安定區","LI":"港南里","LIN":"11鄰","STREET":" ","SECT":" ","MAREA":"港口","LANE":" ","ALLEY":" ","HOUSE_NO":"８０之１號","E_COORD97":171355.94,"N_COORD97":2554309.2999999998,"ADDRESS":"港口８０之１號","OBJECTID":183008},"geometry":{"x":171355.94000000134,"y":2554309.3000000045}},{"attributes":{"ID":183010,"DIS_CODE":0,"TOWNNAME":"關廟區","LI":"關廟里","LIN":"10鄰","STREET":"大仁街","SECT":" ","MAREA":" ","LANE":" ","ALLEY":" ","HOUSE_NO":"２８８號","E_COORD97":180802.26999999999,"N_COORD97":2539603.25,"ADDRESS":"大仁街２８８號","OBJECTID":183009},"geometry":{"x":180802.26999999955,"y":2539603.25}},{"attributes":{"ID":183011,"DIS_CODE":0,"TOWNNAME":"關廟區","LI":"香洋里","LIN":"10鄰","STREET":"中正路","SECT":" ","MAREA":" ","LANE":" ","ALLEY":" ","HOUSE_NO":"９６３號","E_COORD97":181183.76000000001,"N_COORD97":2540262.25,"ADDRESS":"中正路９６３號","OBJECTID":183010},"geometry":{"x":181183.75999999978,"y":2540262.25}},{"attributes":{"ID":183012,"DIS_CODE":0,"TOWNNAME":"永康區","LI":"龍潭里","LIN":"26鄰","STREET":"中山北路","SECT":" ","MAREA":" ","LANE":"４６１巷","ALLEY":"７弄","HOUSE_NO":"１８號","E_COORD97":175072.20000000001,"N_COORD97":2547782.96,"ADDRESS":"中山北路４６１巷７弄１８號","OBJECTID":183011},"geometry":{"x":175072.20000000019,"y":2547782.9600000028}},{"attributes":{"ID":183013,"DIS_CODE":0,"TOWNNAME":"關廟區","LI":"松腳里","LIN":"10鄰","STREET":"和平路","SECT":" ","MAREA":" ","LANE":" ","ALLEY":" ","HOUSE_NO":"２２８號","E_COORD97":181706.23999999999,"N_COORD97":2539738.25,"ADDRESS":"和平路２２８號","OBJECTID":183012},"geometry":{"x":181706.24000000115,"y":2539738.2500000019}},{"attributes":{"ID":183014,"DIS_CODE":0,"TOWNNAME":"關廟區","LI":"松腳里","LIN":"10鄰","STREET":"和平路","SECT":" ","MAREA":" ","LANE":" ","ALLEY":" ","HOUSE_NO":"２３０號","E_COORD97":181704.73999999999,"N_COORD97":2539761.25,"ADDRESS":"和平路２３０號","OBJECTID":183013},"geometry":{"x":181704.74000000115,"y":2539761.2500000019}},{"attributes":{"ID":183015,"DIS_CODE":0,"TOWNNAME":"關廟區","LI":"北勢里","LIN":"10鄰","STREET":"成功路","SECT":" ","MAREA":" ","LANE":" ","ALLEY":" ","HOUSE_NO":"１６０號","E_COORD97":181597.26999999999,"N_COORD97":2540456.27,"ADDRESS":"成功路１６０號","OBJECTID":183014},"geometry":{"x":181597.26999999955,"y":2540456.2700000014}},{"attributes":{"ID":183016,"DIS_CODE":0,"TOWNNAME":"關廟區","LI":"香洋里","LIN":"10鄰","STREET":"中正路","SECT":" ","MAREA":" ","LANE":" ","ALLEY":" ","HOUSE_NO":"９３１號","E_COORD97":181280.45999999999,"N_COORD97":2540231.25,"ADDRESS":"中正路９３１號","OBJECTID":183015},"geometry":{"x":181280.46000000089,"y":2540231.25}},{"attributes":{"ID":183017,"DIS_CODE":0,"TOWNNAME":"關廟區","LI":"關廟里","LIN":"10鄰","STREET":"大仁街","SECT":" ","MAREA":" ","LANE":" ","ALLEY":" ","HOUSE_NO":"２２５號","E_COORD97":180837.97,"N_COORD97":2539430.25,"ADDRESS":"大仁街２２５號","OBJECTID":183016},"geometry":{"x":180837.97000000067,"y":2539430.2500000019}},{"attributes":{"ID":183018,"DIS_CODE":0,"TOWNNAME":"永康區","LI":"龍潭里","LIN":"26鄰","STREET":"中山北路","SECT":" ","MAREA":" ","LANE":"４６１巷","ALLEY":"８弄","HOUSE_NO":"５２號","E_COORD97":175169.39000000001,"N_COORD97":2547796.21,"ADDRESS":"中山北路４６１巷８弄５２號","OBJECTID":183017},"geometry":{"x":175169.3900000006,"y":2547796.2100000009}},{"attributes":{"ID":183019,"DIS_CODE":0,"TOWNNAME":"關廟區","LI":"新埔里","LIN":"10鄰","STREET":"新埔二街","SECT":" ","MAREA":" ","LANE":" ","ALLEY":" ","HOUSE_NO":"１６號","E_COORD97":181391.17000000001,"N_COORD97":2540916.25,"ADDRESS":"新埔二街１６號","OBJECTID":183018},"geometry":{"x":181391.17000000086,"y":2540916.25}},{"attributes":{"ID":183020,"DIS_CODE":0,"TOWNNAME":"關廟區","LI":"新埔里","LIN":"10鄰","STREET":"新埔二街","SECT":" ","MAREA":" ","LANE":" ","ALLEY":" ","HOUSE_NO":"４３號","E_COORD97":181441.07000000001,"N_COORD97":2540977.25,"ADDRESS":"新埔二街４３號","OBJECTID":183019},"geometry":{"x":181441.07000000123,"y":2540977.25}},{"attributes":{"ID":183021,"DIS_CODE":0,"TOWNNAME":"關廟區","LI":"新埔里","LIN":"10鄰","STREET":"新埔二街","SECT":" ","MAREA":" ","LANE":" ","ALLEY":" ","HOUSE_NO":"５號","E_COORD97":181390.62,"N_COORD97":2540934.25,"ADDRESS":"新埔二街５號","OBJECTID":183020},"geometry":{"x":181390.62000000011,"y":2540934.2500000019}},{"attributes":{"ID":183022,"DIS_CODE":0,"TOWNNAME":"永康區","LI":"龍潭里","LIN":"38鄰","STREET":"永明街","SECT":" ","MAREA":" ","LANE":"１７９巷","ALLEY":"１６弄","HOUSE_NO":"１號","E_COORD97":174459.60999999999,"N_COORD97":2547311.29,"ADDRESS":"永明街１７９巷１６弄１號","OBJECTID":183021},"geometry":{"x":174459.6099999994,"y":2547311.290000001}},{"attributes":{"ID":183023,"DIS_CODE":0,"TOWNNAME":"永康區","LI":"龍潭里","LIN":"26鄰","STREET":"中山北路","SECT":" ","MAREA":" ","LANE":"４６１巷","ALLEY":"８弄","HOUSE_NO":"１９號","E_COORD97":175147.38,"N_COORD97":2547814.54,"ADDRESS":"中山北路４６１巷８弄１９號","OBJECTID":183022},"geometry":{"x":175147.38000000175,"y":2547814.540000001}},{"attributes":{"ID":183024,"DIS_CODE":0,"TOWNNAME":"永康區","LI":"龍潭里","LIN":"26鄰","STREET":"中山北路","SECT":" ","MAREA":" ","LANE":"４６１巷","ALLEY":"７弄","HOUSE_NO":"６號","E_COORD97":175098.5,"N_COORD97":2547783.96,"ADDRESS":"中山北路４６１巷７弄６號","OBJECTID":183023},"geometry":{"x":175098.5,"y":2547783.9600000009}},{"attributes":{"ID":183025,"DIS_CODE":0,"TOWNNAME":"永康區","LI":"龍潭里","LIN":"26鄰","STREET":"中山北路","SECT":" ","MAREA":" ","LANE":"４６１巷","ALLEY":"８弄","HOUSE_NO":"９２號","E_COORD97":175160.79999999999,"N_COORD97":2547887.21,"ADDRESS":"中山北路４６１巷８弄９２號","OBJECTID":183024},"geometry":{"x":175160.79999999981,"y":2547887.2100000009}},{"attributes":{"ID":183026,"DIS_CODE":0,"TOWNNAME":"永康區","LI":"龍潭里","LIN":"39鄰","STREET":"永明街","SECT":" ","MAREA":" ","LANE":"１７９巷","ALLEY":"１２弄","HOUSE_NO":"２７號","E_COORD97":174509.67999999999,"N_COORD97":2547265.6699999999,"ADDRESS":"永明街１７９巷１２弄２７號","OBJECTID":183025},"geometry":{"x":174509.68000000063,"y":2547265.6700000018}},{"attributes":{"ID":183027,"DIS_CODE":0,"TOWNNAME":"永康區","LI":"龍潭里","LIN":"39鄰","STREET":"永明街","SECT":" ","MAREA":" ","LANE":"２３１巷","ALLEY":"６２弄","HOUSE_NO":"１０號","E_COORD97":174612.73000000001,"N_COORD97":2547346.96,"ADDRESS":"永明街２３１巷６２弄１０號","OBJECTID":183026},"geometry":{"x":174612.73000000045,"y":2547346.9600000009}},{"attributes":{"ID":183028,"DIS_CODE":0,"TOWNNAME":"永康區","LI":"龍潭里","LIN":"43鄰","STREET":"國民路","SECT":" ","MAREA":" ","LANE":"２３１巷","ALLEY":"１弄","HOUSE_NO":"６號","E_COORD97":174545.73999999999,"N_COORD97":2547013.3900000001,"ADDRESS":"國民路２３１巷１弄６號","OBJECTID":183027},"geometry":{"x":174545.74000000115,"y":2547013.3900000025}},{"attributes":{"ID":183029,"DIS_CODE":0,"TOWNNAME":"新化區","LI":"護國里","LIN":"10鄰","STREET":"中山路","SECT":" ","MAREA":" ","LANE":" ","ALLEY":" ","HOUSE_NO":"９８號之２８","E_COORD97":179510.97,"N_COORD97":2549062.2599999998,"ADDRESS":"中山路９８號之２８","OBJECTID":183028},"geometry":{"x":179510.96999999974,"y":2549062.2599999998}},{"attributes":{"ID":183030,"DIS_CODE":0,"TOWNNAME":"新化區","LI":"知義里","LIN":"10鄰","STREET":" ","SECT":" ","MAREA":"新和庄","LANE":" ","ALLEY":" ","HOUSE_NO":"１８５號","E_COORD97":181664.19,"N_COORD97":2547135.25,"ADDRESS":"新和庄１８５號","OBJECTID":183029},"geometry":{"x":181664.19000000134,"y":2547135.2500000019}},{"attributes":{"ID":183031,"DIS_CODE":0,"TOWNNAME":"安南區","LI":"海東里","LIN":"21鄰","STREET":"海東三街","SECT":" ","MAREA":" ","LANE":" ","ALLEY":" ","HOUSE_NO":"７８號","E_COORD97":166848.644806,"N_COORD97":2547965.0377099998,"ADDRESS":"海東三街７８號","OBJECTID":183030},"geometry":{"x":166848.64480600227,"y":2547965.0377090015}},{"attributes":{"ID":183032,"DIS_CODE":0,"TOWNNAME":"新化區","LI":"全興里","LIN":"10鄰","STREET":" ","SECT":" ","MAREA":"竹子\u25A0","LANE":" ","ALLEY":" ","HOUSE_NO":"１４５號之１","E_COORD97":177570.66,"N_COORD97":2547576.2599999998,"ADDRESS":"竹子\u25A0１４５號之１","OBJECTID":183031},"geometry":{"x":177570.66000000108,"y":2547576.2600000016}},{"attributes":{"ID":183033,"DIS_CODE":0,"TOWNNAME":"新化區","LI":"全興里","LIN":"10鄰","STREET":" ","SECT":" ","MAREA":"竹子\u25A0","LANE":" ","ALLEY":" ","HOUSE_NO":"１８４號之２","E_COORD97":177638.98999999999,"N_COORD97":2547629.2599999998,"ADDRESS":"竹子\u25A0１８４號之２","OBJECTID":183032},"geometry":{"x":177638.99000000209,"y":2547629.2599999998}},{"attributes":{"ID":183034,"DIS_CODE":0,"TOWNNAME":"新化區","LI":"知義里","LIN":"10鄰","STREET":" ","SECT":" ","MAREA":"新和庄","LANE":" ","ALLEY":" ","HOUSE_NO":"２２８號","E_COORD97":181468.965734,"N_COORD97":2546909.1532899998,"ADDRESS":"新和庄２２８號","OBJECTID":183033},"geometry":{"x":181468.96573400032,"y":2546909.1532880012}},{"attributes":{"ID":183035,"DIS_CODE":0,"TOWNNAME":"新化區","LI":"全興里","LIN":"10鄰","STREET":" ","SECT":" ","MAREA":"竹子\u25A0","LANE":" ","ALLEY":" ","HOUSE_NO":"１４２號","E_COORD97":177589.32999999999,"N_COORD97":2547601.25,"ADDRESS":"竹子\u25A0１４２號","OBJECTID":183034},"geometry":{"x":177589.33000000101,"y":2547601.25}},{"attributes":{"ID":183036,"DIS_CODE":0,"TOWNNAME":"鹽水區","LI":"歡雅里","LIN":"10鄰","STREET":" ","SECT":" ","MAREA":"尾寮","LANE":" ","ALLEY":" ","HOUSE_NO":"１０號之２","E_COORD97":172174.48999999999,"N_COORD97":2576738.8700000001,"ADDRESS":"尾寮１０號之２","OBJECTID":183035},"geometry":{"x":172174.49000000022,"y":2576738.870000001}},{"attributes":{"ID":183037,"DIS_CODE":0,"TOWNNAME":"安定區","LI":"港南里","LIN":"11鄰","STREET":" ","SECT":" ","MAREA":"港口","LANE":" ","ALLEY":" ","HOUSE_NO":"８２之４號","E_COORD97":171297.39999999999,"N_COORD97":2554321.2999999998,"ADDRESS":"港口８２號之４","OBJECTID":183036},"geometry":{"x":171297.40000000037,"y":2554321.3000000007}},{"attributes":{"ID":183038,"DIS_CODE":0,"TOWNNAME":"安定區","LI":"蘇林里","LIN":"11鄰","STREET":" ","SECT":" ","MAREA":"蘇厝","LANE":" ","ALLEY":" ","HOUSE_NO":"１１７號之４","E_COORD97":173679.17999999999,"N_COORD97":2558920.2999999998,"ADDRESS":"蘇厝１１７號之４","OBJECTID":183037},"geometry":{"x":173679.18000000063,"y":2558920.3000000045}},{"attributes":{"ID":183039,"DIS_CODE":0,"TOWNNAME":"安定區","LI":"蘇林里","LIN":"11鄰","STREET":" ","SECT":" ","MAREA":"蘇厝","LANE":" ","ALLEY":" ","HOUSE_NO":"１２５之３號","E_COORD97":173714.72,"N_COORD97":2558965.2999999998,"ADDRESS":"蘇厝１２５之３號","OBJECTID":183038},"geometry":{"x":173714.72000000067,"y":2558965.3000000026}},{"attributes":{"ID":183040,"DIS_CODE":0,"TOWNNAME":"永康區","LI":"龍潭里","LIN":"26鄰","STREET":"中山北路","SECT":" ","MAREA":" ","LANE":"４６１巷","ALLEY":"８弄","HOUSE_NO":"２７號","E_COORD97":175146.25,"N_COORD97":2547829.27,"ADDRESS":"中山北路４６１巷８弄２７號","OBJECTID":183039},"geometry":{"x":175146.25,"y":2547829.2700000033}},{"attributes":{"ID":183041,"DIS_CODE":0,"TOWNNAME":"永康區","LI":"龍潭里","LIN":"39鄰","STREET":"永明街","SECT":" ","MAREA":" ","LANE":"２３１巷","ALLEY":"４２弄","HOUSE_NO":"１３號","E_COORD97":174625.5,"N_COORD97":2547318.2000000002,"ADDRESS":"永明街２３１巷４２弄１３號","OBJECTID":183040},"geometry":{"x":174625.5,"y":2547318.2000000011}},{"attributes":{"ID":183042,"DIS_CODE":0,"TOWNNAME":"永康區","LI":"龍潭里","LIN":"26鄰","STREET":"中山北路","SECT":" ","MAREA":" ","LANE":"４６１巷","ALLEY":"７弄","HOUSE_NO":"１４號","E_COORD97":175082.39999999999,"N_COORD97":2547783.96,"ADDRESS":"中山北路４６１巷７弄１４號","OBJECTID":183041},"geometry":{"x":175082.4000000013,"y":2547783.9600000009}},{"attributes":{"ID":183043,"DIS_CODE":0,"TOWNNAME":"永康區","LI":"龍潭里","LIN":"39鄰","STREET":"永明街","SECT":" ","MAREA":" ","LANE":"１７９巷","ALLEY":"１２弄","HOUSE_NO":"９號","E_COORD97":174467.29999999999,"N_COORD97":2547265.9199999999,"ADDRESS":"永明街１７９巷１２弄９號","OBJECTID":183042},"geometry":{"x":174467.29999999981,"y":2547265.9200000037}},{"attributes":{"ID":183044,"DIS_CODE":0,"TOWNNAME":"永康區","LI":"龍潭里","LIN":"26鄰","STREET":"中山北路","SECT":" ","MAREA":" ","LANE":"４６１巷","ALLEY":"８弄","HOUSE_NO":"７２號","E_COORD97":175164.85000000001,"N_COORD97":2547842.9500000002,"ADDRESS":"中山北路４６１巷８弄７２號","OBJECTID":183043},"geometry":{"x":175164.85000000056,"y":2547842.9500000011}},{"attributes":{"ID":183045,"DIS_CODE":0,"TOWNNAME":"永康區","LI":"龍潭里","LIN":"39鄰","STREET":"永明街","SECT":" ","MAREA":" ","LANE":"１７９巷","ALLEY":"１６弄","HOUSE_NO":"２６號","E_COORD97":174491.29999999999,"N_COORD97":2547290.1600000001,"ADDRESS":"永明街１７９巷１６弄２６號","OBJECTID":183044},"geometry":{"x":174491.29999999981,"y":2547290.1600000001}},{"attributes":{"ID":183046,"DIS_CODE":0,"TOWNNAME":"永康區","LI":"龍潭里","LIN":"26鄰","STREET":"中山北路","SECT":" ","MAREA":" ","LANE":"４６１巷","ALLEY":"７弄","HOUSE_NO":"２號","E_COORD97":175108.06,"N_COORD97":2547785.71,"ADDRESS":"中山北路４６１巷７弄２號","OBJECTID":183045},"geometry":{"x":175108.05999999959,"y":2547785.7100000009}},{"attributes":{"ID":183047,"DIS_CODE":0,"TOWNNAME":"南區","LI":"喜北里","LIN":"10鄰","STREET":"喜樹路","SECT":" ","MAREA":" ","LANE":" ","ALLEY":" ","HOUSE_NO":"１６２號","E_COORD97":165871.87,"N_COORD97":2538237.1099999999,"ADDRESS":"喜樹路１６２號","OBJECTID":183046},"geometry":{"x":165871.87000000104,"y":2538237.1100000013}},{"attributes":{"ID":183048,"DIS_CODE":0,"TOWNNAME":"南區","LI":"佛壇里","LIN":"10鄰","STREET":"灣裡路","SECT":" ","MAREA":" ","LANE":" ","ALLEY":" ","HOUSE_NO":"４７９號之１","E_COORD97":166286.88,"N_COORD97":2535827.9900000002,"ADDRESS":"灣裡路４７９號之１","OBJECTID":183047},"geometry":{"x":166286.88000000082,"y":2535827.9900000021}},{"attributes":{"ID":183049,"DIS_CODE":0,"TOWNNAME":"南區","LI":"喜東里","LIN":"10鄰","STREET":"明興路","SECT":" ","MAREA":" ","LANE":" ","ALLEY":" ","HOUSE_NO":"６２５號之２","E_COORD97":166070.14000000001,"N_COORD97":2537926.7999999998,"ADDRESS":"明興路６２５號之２","OBJECTID":183048},"geometry":{"x":166070.13999999966,"y":2537926.8000000007}},{"attributes":{"ID":183050,"DIS_CODE":0,"TOWNNAME":"鹽水區","LI":"橋南里","LIN":"10鄰","STREET":"行昌路","SECT":" ","MAREA":" ","LANE":" ","ALLEY":" ","HOUSE_NO":"３５號","E_COORD97":175134.72,"N_COORD97":2579381.2799999998,"ADDRESS":"行昌路３５號","OBJECTID":183049},"geometry":{"x":175134.7200000016,"y":2579381.2800000012}},{"attributes":{"ID":183051,"DIS_CODE":0,"TOWNNAME":"仁德區","LI":"仁義里","LIN":"50鄰","STREET":"中清路","SECT":" ","MAREA":" ","LANE":" ","ALLEY":" ","HOUSE_NO":"３１號","E_COORD97":173686.51000000001,"N_COORD97":2541065.5499999998,"ADDRESS":"中清路３１號","OBJECTID":183050},"geometry":{"x":173686.50999999978,"y":2541065.5500000026}},{"attributes":{"ID":183052,"DIS_CODE":0,"TOWNNAME":"仁德區","LI":"保安里","LIN":"20鄰","STREET":"保安路","SECT":"一段","MAREA":" ","LANE":" ","ALLEY":" ","HOUSE_NO":"９號","E_COORD97":170438.67999999999,"N_COORD97":2536009.3100000001,"ADDRESS":"保安路一段９號","OBJECTID":183051},"geometry":{"x":170438.6799999997,"y":2536009.3100000024}},{"attributes":{"ID":183053,"DIS_CODE":0,"TOWNNAME":"鹽水區","LI":"歡雅里","LIN":"10鄰","STREET":" ","SECT":" ","MAREA":"尾寮","LANE":" ","ALLEY":" ","HOUSE_NO":"１０之１０號","E_COORD97":172022.72,"N_COORD97":2576632.8199999998,"ADDRESS":"尾寮１０之１０號","OBJECTID":183052},"geometry":{"x":172022.72000000067,"y":2576632.8200000003}},{"attributes":{"ID":183054,"DIS_CODE":0,"TOWNNAME":"鹽水區","LI":"歡雅里","LIN":"10鄰","STREET":" ","SECT":" ","MAREA":"尾寮","LANE":" ","ALLEY":" ","HOUSE_NO":"１０號之１１","E_COORD97":172023.85999999999,"N_COORD97":2576627.3799999999,"ADDRESS":"尾寮１０號之１１","OBJECTID":183053},"geometry":{"x":172023.86000000127,"y":2576627.3800000008}},{"attributes":{"ID":183055,"DIS_CODE":0,"TOWNNAME":"鹽水區","LI":"歡雅里","LIN":"10鄰","STREET":" ","SECT":" ","MAREA":"尾寮","LANE":" ","ALLEY":" ","HOUSE_NO":"１０之１２號","E_COORD97":172025.69,"N_COORD97":2576622.0499999998,"ADDRESS":"尾寮１０之１２號","OBJECTID":183054},"geometry":{"x":172025.69000000134,"y":2576622.0500000007}},{"attributes":{"ID":183056,"DIS_CODE":0,"TOWNNAME":"鹽水區","LI":"歡雅里","LIN":"10鄰","STREET":" ","SECT":" ","MAREA":"尾寮","LANE":" ","ALLEY":" ","HOUSE_NO":"１０之１３號","E_COORD97":172034.01000000001,"N_COORD97":2576661.79,"ADDRESS":"尾寮１０之１３號","OBJECTID":183055},"geometry":{"x":172034.01000000164,"y":2576661.790000001}},{"attributes":{"ID":183057,"DIS_CODE":0,"TOWNNAME":"鹽水區","LI":"歡雅里","LIN":"10鄰","STREET":" ","SECT":" ","MAREA":"尾寮","LANE":" ","ALLEY":" ","HOUSE_NO":"１１之１號","E_COORD97":171965.69,"N_COORD97":2576693.5499999998,"ADDRESS":"尾寮１１之１號","OBJECTID":183056},"geometry":{"x":171965.69000000227,"y":2576693.5500000007}},{"attributes":{"ID":183058,"DIS_CODE":0,"TOWNNAME":"鹽水區","LI":"歡雅里","LIN":"10鄰","STREET":" ","SECT":" ","MAREA":"尾寮","LANE":" ","ALLEY":" ","HOUSE_NO":"１１之２號","E_COORD97":172028.48999999999,"N_COORD97":2576717.79,"ADDRESS":"尾寮１１之２號","OBJECTID":183057},"geometry":{"x":172028.49000000115,"y":2576717.7899999991}},{"attributes":{"ID":183059,"DIS_CODE":0,"TOWNNAME":"鹽水區","LI":"歡雅里","LIN":"10鄰","STREET":" ","SECT":" ","MAREA":"尾寮","LANE":" ","ALLEY":" ","HOUSE_NO":"１１之３號","E_COORD97":172023.92999999999,"N_COORD97":2576716.7200000002,"ADDRESS":"尾寮１１之３號","OBJECTID":183058},"geometry":{"x":172023.9299999997,"y":2576716.7199999988}},{"attributes":{"ID":183060,"DIS_CODE":0,"TOWNNAME":"鹽水區","LI":"歡雅里","LIN":"10鄰","STREET":" ","SECT":" ","MAREA":"尾寮","LANE":" ","ALLEY":" ","HOUSE_NO":"１１號","E_COORD97":171964.73999999999,"N_COORD97":2576703.5800000001,"ADDRESS":"尾寮１１號","OBJECTID":183059},"geometry":{"x":171964.74000000022,"y":2576703.5800000038}},{"attributes":{"ID":183061,"DIS_CODE":0,"TOWNNAME":"鹽水區","LI":"歡雅里","LIN":"10鄰","STREET":" ","SECT":" ","MAREA":"尾寮","LANE":" ","ALLEY":" ","HOUSE_NO":"１２之１１號","E_COORD97":171087.97,"N_COORD97":2576878.2200000002,"ADDRESS":"尾寮１２之１１號","OBJECTID":183060},"geometry":{"x":171087.96999999974,"y":2576878.2200000007}},{"attributes":{"ID":183062,"DIS_CODE":0,"TOWNNAME":"安定區","LI":"港南里","LIN":"11鄰","STREET":" ","SECT":" ","MAREA":"港口","LANE":" ","ALLEY":" ","HOUSE_NO":"８２號之３","E_COORD97":171296.97,"N_COORD97":2554326.2999999998,"ADDRESS":"港口８２號之３","OBJECTID":183061},"geometry":{"x":171296.97000000067,"y":2554326.3000000045}},{"attributes":{"ID":183063,"DIS_CODE":0,"TOWNNAME":"安定區","LI":"安定里","LIN":"11鄰","STREET":" ","SECT":" ","MAREA":"安定","LANE":" ","ALLEY":" ","HOUSE_NO":"９９之５號","E_COORD97":172021.76999999999,"N_COORD97":2557735.3199999998,"ADDRESS":"安定９９之５號","OBJECTID":183062},"geometry":{"x":172021.77000000142,"y":2557735.3200000003}},{"attributes":{"ID":183064,"DIS_CODE":0,"TOWNNAME":"安定區","LI":"保西里","LIN":"11鄰","STREET":" ","SECT":" ","MAREA":"安定","LANE":" ","ALLEY":" ","HOUSE_NO":"４３３號之１","E_COORD97":171685.62,"N_COORD97":2557946.3199999998,"ADDRESS":"安定４３３之１號","OBJECTID":183063},"geometry":{"x":171685.62000000011,"y":2557946.3200000003}},{"attributes":{"ID":183065,"DIS_CODE":0,"TOWNNAME":"安定區","LI":"蘇林里","LIN":"11鄰","STREET":" ","SECT":" ","MAREA":"蘇厝","LANE":" ","ALLEY":" ","HOUSE_NO":"１２４號之３","E_COORD97":173643.42000000001,"N_COORD97":2558963.2999999998,"ADDRESS":"蘇厝１２４之３號","OBJECTID":183064},"geometry":{"x":173643.42000000179,"y":2558963.3000000007}},{"attributes":{"ID":183066,"DIS_CODE":0,"TOWNNAME":"安定區","LI":"安定里","LIN":"11鄰","STREET":" ","SECT":" ","MAREA":"安定","LANE":" ","ALLEY":" ","HOUSE_NO":"９９之６號","E_COORD97":172026.97,"N_COORD97":2557735.3199999998,"ADDRESS":"安定９９之６號","OBJECTID":183065},"geometry":{"x":172026.96999999974,"y":2557735.3200000003}},{"attributes":{"ID":183067,"DIS_CODE":0,"TOWNNAME":"安定區","LI":"安定里","LIN":"11鄰","STREET":" ","SECT":" ","MAREA":"安定","LANE":" ","ALLEY":" ","HOUSE_NO":"１００號","E_COORD97":171996.21341500001,"N_COORD97":2557720.1906099999,"ADDRESS":"安定１００號","OBJECTID":183066},"geometry":{"x":171996.21341500059,"y":2557720.1906120013}},{"attributes":{"ID":183068,"DIS_CODE":0,"TOWNNAME":"安定區","LI":"蘇林里","LIN":"11鄰","STREET":" ","SECT":" ","MAREA":"蘇厝","LANE":" ","ALLEY":" ","HOUSE_NO":"１２５之５號","E_COORD97":173726.82000000001,"N_COORD97":2558919.2999999998,"ADDRESS":"蘇厝１２５之５號","OBJECTID":183067},"geometry":{"x":173726.8200000003,"y":2558919.3000000007}},{"attributes":{"ID":183069,"DIS_CODE":0,"TOWNNAME":"安定區","LI":"安定里","LIN":"11鄰","STREET":" ","SECT":" ","MAREA":"安定","LANE":" ","ALLEY":" ","HOUSE_NO":"１０１之３號","E_COORD97":172043.32000000001,"N_COORD97":2557719.3199999998,"ADDRESS":"安定１０１之３號","OBJECTID":183068},"geometry":{"x":172043.32000000123,"y":2557719.3199999984}},{"attributes":{"ID":183070,"DIS_CODE":0,"TOWNNAME":"安定區","LI":"蘇林里","LIN":"11鄰","STREET":" ","SECT":" ","MAREA":"蘇厝","LANE":" ","ALLEY":" ","HOUSE_NO":"１２７號","E_COORD97":173653.62,"N_COORD97":2559003.25,"ADDRESS":"蘇厝１２７號","OBJECTID":183069},"geometry":{"x":173653.62000000011,"y":2559003.25}},{"attributes":{"ID":183071,"DIS_CODE":0,"TOWNNAME":"安定區","LI":"安定里","LIN":"11鄰","STREET":" ","SECT":" ","MAREA":"安定","LANE":" ","ALLEY":" ","HOUSE_NO":"９９之１號","E_COORD97":171993.18478899999,"N_COORD97":2557746.93108,"ADDRESS":"安定９９之１號","OBJECTID":183070},"geometry":{"x":171993.18478900101,"y":2557746.9310790021}},{"attributes":{"ID":183072,"DIS_CODE":0,"TOWNNAME":"安定區","LI":"蘇林里","LIN":"11鄰","STREET":" ","SECT":" ","MAREA":"蘇厝","LANE":" ","ALLEY":" ","HOUSE_NO":"１１７之６號","E_COORD97":173674.01999999999,"N_COORD97":2558872.2999999998,"ADDRESS":"蘇厝１１７之６號","OBJECTID":183071},"geometry":{"x":173674.01999999955,"y":2558872.3000000007}},{"attributes":{"ID":183073,"DIS_CODE":0,"TOWNNAME":"安定區","LI":"安定里","LIN":"11鄰","STREET":" ","SECT":" ","MAREA":"安定","LANE":" ","ALLEY":" ","HOUSE_NO":"９９之２號","E_COORD97":171993.55545700001,"N_COORD97":2557742.43316,"ADDRESS":"安定９９之２號","OBJECTID":183072},"geometry":{"x":171993.55545700062,"y":2557742.4331640024}},{"attributes":{"ID":183074,"DIS_CODE":0,"TOWNNAME":"安定區","LI":"蘇林里","LIN":"11鄰","STREET":" ","SECT":" ","MAREA":"蘇厝","LANE":" ","ALLEY":" ","HOUSE_NO":"１２８號","E_COORD97":173613.72,"N_COORD97":2558974.25,"ADDRESS":"蘇厝１２８號","OBJECTID":183073},"geometry":{"x":173613.71999999974,"y":2558974.2500000037}},{"attributes":{"ID":183075,"DIS_CODE":0,"TOWNNAME":"安定區","LI":"安定里","LIN":"11鄰","STREET":" ","SECT":" ","MAREA":"安定","LANE":" ","ALLEY":" ","HOUSE_NO":"１００之１號","E_COORD97":171997.80207599999,"N_COORD97":2557709.5014499999,"ADDRESS":"安定１００之１號","OBJECTID":183074},"geometry":{"x":171997.80207600072,"y":2557709.5014510006}},{"attributes":{"ID":183076,"DIS_CODE":0,"TOWNNAME":"安定區","LI":"安定里","LIN":"11鄰","STREET":" ","SECT":" ","MAREA":"安定","LANE":" ","ALLEY":" ","HOUSE_NO":"１０１之１號","E_COORD97":172046.51999999999,"N_COORD97":2557690.3199999998,"ADDRESS":"安定１０１之１號","OBJECTID":183075},"geometry":{"x":172046.51999999955,"y":2557690.3200000022}},{"attributes":{"ID":183077,"DIS_CODE":0,"TOWNNAME":"安定區","LI":"安定里","LIN":"11鄰","STREET":" ","SECT":" ","MAREA":"安定","LANE":" ","ALLEY":" ","HOUSE_NO":"９８號","E_COORD97":172010.87,"N_COORD97":2557774.3199999998,"ADDRESS":"安定９８號","OBJECTID":183076},"geometry":{"x":172010.87000000011,"y":2557774.3200000022}},{"attributes":{"ID":183078,"DIS_CODE":0,"TOWNNAME":"安定區","LI":"安加里","LIN":"11鄰","STREET":" ","SECT":" ","MAREA":"安定","LANE":" ","ALLEY":" ","HOUSE_NO":"２６８號之７","E_COORD97":171553.13,"N_COORD97":2557386.3199999998,"ADDRESS":"安定２６８號之７","OBJECTID":183077},"geometry":{"x":171553.12999999989,"y":2557386.3200000003}},{"attributes":{"ID":183079,"DIS_CODE":0,"TOWNNAME":"安定區","LI":"管寮里","LIN":"11鄰","STREET":" ","SECT":" ","MAREA":"管寮","LANE":" ","ALLEY":" ","HOUSE_NO":"１０１號之３","E_COORD97":169964.32000000001,"N_COORD97":2556378.2999999998,"ADDRESS":"管寮１０１號之３","OBJECTID":183078},"geometry":{"x":169964.32000000216,"y":2556378.3000000026}},{"attributes":{"ID":183080,"DIS_CODE":0,"TOWNNAME":"安定區","LI":"新吉里","LIN":"11鄰","STREET":" ","SECT":" ","MAREA":"新吉","LANE":" ","ALLEY":" ","HOUSE_NO":"９１之２號","E_COORD97":169272.37,"N_COORD97":2553935.2999999998,"ADDRESS":"新吉９１之２號","OBJECTID":183079},"geometry":{"x":169272.37000000104,"y":2553935.3000000007}},{"attributes":{"ID":183081,"DIS_CODE":0,"TOWNNAME":"安定區","LI":"新吉里","LIN":"11鄰","STREET":" ","SECT":" ","MAREA":"新吉","LANE":" ","ALLEY":" ","HOUSE_NO":"９７號","E_COORD97":169337.17000000001,"N_COORD97":2553912.25,"ADDRESS":"新吉９７號","OBJECTID":183080},"geometry":{"x":169337.16999999993,"y":2553912.2500000037}},{"attributes":{"ID":183082,"DIS_CODE":0,"TOWNNAME":"安定區","LI":"安加里","LIN":"11鄰","STREET":" ","SECT":" ","MAREA":"安定","LANE":" ","ALLEY":" ","HOUSE_NO":"２７１號","E_COORD97":171562.51999999999,"N_COORD97":2557442.3199999998,"ADDRESS":"安定２７１號","OBJECTID":183081},"geometry":{"x":171562.52000000142,"y":2557442.3200000022}},{"attributes":{"ID":183083,"DIS_CODE":0,"TOWNNAME":"安定區","LI":"安加里","LIN":"11鄰","STREET":" ","SECT":" ","MAREA":"安定","LANE":" ","ALLEY":" ","HOUSE_NO":"２６８號之１１","E_COORD97":171563.5,"N_COORD97":2557334.3199999998,"ADDRESS":"安定２６８號之１１","OBJECTID":183082},"geometry":{"x":171563.50000000093,"y":2557334.3200000022}},{"attributes":{"ID":183084,"DIS_CODE":0,"TOWNNAME":"永康區","LI":"蔦松里","LIN":"4鄰","STREET":"蔦松二街","SECT":" ","MAREA":" ","LANE":"１２４巷","ALLEY":"３１弄","HOUSE_NO":"５號","E_COORD97":173895.14999999999,"N_COORD97":2549331,"ADDRESS":"蔦松二街１２４巷３１弄５號","OBJECTID":183083},"geometry":{"x":173895.1500000013,"y":2549331.0000000019}},{"attributes":{"ID":183085,"DIS_CODE":0,"TOWNNAME":"安定區","LI":"新吉里","LIN":"11鄰","STREET":" ","SECT":" ","MAREA":"新吉","LANE":" ","ALLEY":" ","HOUSE_NO":"９８號","E_COORD97":169347.05801899999,"N_COORD97":2553913.0476099998,"ADDRESS":"新吉９８號","OBJECTID":183084},"geometry":{"x":169347.05801900011,"y":2553913.0476060044}},{"attributes":{"ID":183086,"DIS_CODE":0,"TOWNNAME":"安定區","LI":"新吉里","LIN":"11鄰","STREET":" ","SECT":" ","MAREA":"新吉","LANE":" ","ALLEY":" ","HOUSE_NO":"９１號之１","E_COORD97":169282.29999999999,"N_COORD97":2553937.2999999998,"ADDRESS":"新吉９１號之１","OBJECTID":183085},"geometry":{"x":169282.29999999888,"y":2553937.3000000026}},{"attributes":{"ID":183087,"DIS_CODE":0,"TOWNNAME":"安定區","LI":"新吉里","LIN":"11鄰","STREET":" ","SECT":" ","MAREA":"新吉","LANE":" ","ALLEY":" ","HOUSE_NO":"９３號","E_COORD97":169276.07000000001,"N_COORD97":2553906.25,"ADDRESS":"新吉９３號","OBJECTID":183086},"geometry":{"x":169276.07000000216,"y":2553906.2500000019}},{"attributes":{"ID":183088,"DIS_CODE":0,"TOWNNAME":"安定區","LI":"港口里","LIN":"11鄰","STREET":" ","SECT":" ","MAREA":"港口","LANE":" ","ALLEY":" ","HOUSE_NO":"３１２號","E_COORD97":171288.39000000001,"N_COORD97":2554613.25,"ADDRESS":"港口３１２號","OBJECTID":183087},"geometry":{"x":171288.38999999966,"y":2554613.25}},{"attributes":{"ID":183089,"DIS_CODE":0,"TOWNNAME":"安定區","LI":"安加里","LIN":"11鄰","STREET":" ","SECT":" ","MAREA":"安定","LANE":" ","ALLEY":" ","HOUSE_NO":"２６８號之５","E_COORD97":171556.20999999999,"N_COORD97":2557377.3199999998,"ADDRESS":"安定２６８號之５","OBJECTID":183088},"geometry":{"x":171556.20999999996,"y":2557377.320000004}},{"attributes":{"ID":183090,"DIS_CODE":0,"TOWNNAME":"安定區","LI":"六嘉里","LIN":"11鄰","STREET":" ","SECT":" ","MAREA":"六塊寮","LANE":" ","ALLEY":" ","HOUSE_NO":"８６之１號","E_COORD97":170327.32000000001,"N_COORD97":2553274.2999999998,"ADDRESS":"六塊寮８６之１號","OBJECTID":183089},"geometry":{"x":170327.32000000123,"y":2553274.3000000007}},{"attributes":{"ID":183091,"DIS_CODE":0,"TOWNNAME":"安平區","LI":"西門里","LIN":"10鄰","STREET":"國勝路","SECT":" ","MAREA":" ","LANE":" ","ALLEY":" ","HOUSE_NO":"１０５號之３","E_COORD97":163974.45000000001,"N_COORD97":2544786.6200000001,"ADDRESS":"國勝路１０５號之３","OBJECTID":183090},"geometry":{"x":163974.45000000112,"y":2544786.620000001}},{"attributes":{"ID":183092,"DIS_CODE":0,"TOWNNAME":"永康區","LI":"龍潭里","LIN":"26鄰","STREET":"中山北路","SECT":" ","MAREA":" ","LANE":"４６１巷","ALLEY":"８弄","HOUSE_NO":"３３號","E_COORD97":175144.92999999999,"N_COORD97":2547843.8500000001,"ADDRESS":"中山北路４６１巷８弄３３號","OBJECTID":183091},"geometry":{"x":175144.9299999997,"y":2547843.8500000015}},{"attributes":{"ID":183093,"DIS_CODE":0,"TOWNNAME":"永康區","LI":"龍潭里","LIN":"38鄰","STREET":"中山北路","SECT":" ","MAREA":" ","LANE":"１６４巷","ALLEY":"７８弄","HOUSE_NO":"３６號","E_COORD97":174430.48999999999,"N_COORD97":2547304.75,"ADDRESS":"中山北路１６４巷７８弄３６號","OBJECTID":183092},"geometry":{"x":174430.49000000115,"y":2547304.7500000019}},{"attributes":{"ID":183094,"DIS_CODE":0,"TOWNNAME":"安平區","LI":"西門里","LIN":"10鄰","STREET":"國勝路","SECT":" ","MAREA":" ","LANE":" ","ALLEY":" ","HOUSE_NO":"７３號","E_COORD97":163872.51000000001,"N_COORD97":2544738.3100000001,"ADDRESS":"國勝路７３號","OBJECTID":183093},"geometry":{"x":163872.50999999978,"y":2544738.3100000042}},{"attributes":{"ID":183095,"DIS_CODE":0,"TOWNNAME":"安平區","LI":"西門里","LIN":"10鄰","STREET":"國勝路","SECT":" ","MAREA":" ","LANE":" ","ALLEY":" ","HOUSE_NO":"８３號","E_COORD97":163894.67000000001,"N_COORD97":2544749.9900000002,"ADDRESS":"國勝路８３號","OBJECTID":183094},"geometry":{"x":163894.67000000086,"y":2544749.9900000039}},{"attributes":{"ID":183096,"DIS_CODE":0,"TOWNNAME":"鹽水區","LI":"橋南里","LIN":"10鄰","STREET":"南門路","SECT":" ","MAREA":" ","LANE":" ","ALLEY":" ","HOUSE_NO":"４８號","E_COORD97":175090.75,"N_COORD97":2579364.0800000001,"ADDRESS":"南門路４８號","OBJECTID":183095},"geometry":{"x":175090.75000000186,"y":2579364.0800000001}},{"attributes":{"ID":183097,"DIS_CODE":0,"TOWNNAME":"永康區","LI":"龍潭里","LIN":"26鄰","STREET":"中山北路","SECT":" ","MAREA":" ","LANE":"４６１巷","ALLEY":"７弄","HOUSE_NO":"１２號","E_COORD97":175087.79000000001,"N_COORD97":2547782.46,"ADDRESS":"中山北路４６１巷７弄１２號","OBJECTID":183096},"geometry":{"x":175087.79000000097,"y":2547782.4600000028}},{"attributes":{"ID":183098,"DIS_CODE":0,"TOWNNAME":"永康區","LI":"龍潭里","LIN":"26鄰","STREET":"中山北路","SECT":" ","MAREA":" ","LANE":"４６１巷","ALLEY":"７弄","HOUSE_NO":"１６號","E_COORD97":175077.14999999999,"N_COORD97":2547783.46,"ADDRESS":"中山北路４６１巷７弄１６號","OBJECTID":183097},"geometry":{"x":175077.1500000013,"y":2547783.4600000028}},{"attributes":{"ID":183099,"DIS_CODE":0,"TOWNNAME":"東區","LI":"東光里","LIN":"24鄰","STREET":"東安路","SECT":" ","MAREA":" ","LANE":"１７６巷","ALLEY":"２弄","HOUSE_NO":"１號","E_COORD97":170780.51999999999,"N_COORD97":2543930.3799999999,"ADDRESS":"東安路１７６巷２弄１號","OBJECTID":183098},"geometry":{"x":170780.51999999955,"y":2543930.3800000008}},{"attributes":{"ID":183100,"DIS_CODE":0,"TOWNNAME":"歸仁區","LI":"武東里","LIN":"7鄰","STREET":"武東一街","SECT":" ","MAREA":" ","LANE":"４８巷","ALLEY":"２７弄","HOUSE_NO":"６號","E_COORD97":175617.60152200001,"N_COORD97":2535357.01449,"ADDRESS":"武東一街４８巷２７弄６號","OBJECTID":183099},"geometry":{"x":175617.60152199958,"y":2535357.0144900009}},{"attributes":{"ID":183101,"DIS_CODE":0,"TOWNNAME":"東區","LI":"富強里","LIN":"7鄰","STREET":"中華東路","SECT":"二段","MAREA":" ","LANE":"４８巷","ALLEY":"２５弄","HOUSE_NO":"２７號","E_COORD97":171294.84,"N_COORD97":2542923.4100000001,"ADDRESS":"中華東路二段４８巷２５弄２７號","OBJECTID":183100},"geometry":{"x":171294.84000000078,"y":2542923.4100000039}},{"attributes":{"ID":183102,"DIS_CODE":0,"TOWNNAME":"東區","LI":"富強里","LIN":"7鄰","STREET":"中華東路","SECT":"二段","MAREA":" ","LANE":"４８巷","ALLEY":"２５弄","HOUSE_NO":"２９號","E_COORD97":171294.69,"N_COORD97":2542919.2999999998,"ADDRESS":"中華東路二段４８巷２５弄２９號","OBJECTID":183101},"geometry":{"x":171294.69000000134,"y":2542919.3000000026}},{"attributes":{"ID":183103,"DIS_CODE":0,"TOWNNAME":"東區","LI":"泉南里","LIN":"2鄰","STREET":"東門路","SECT":"一段","MAREA":" ","LANE":"５２巷","ALLEY":"３弄","HOUSE_NO":"２號","E_COORD97":169305.04000000001,"N_COORD97":2543167.3999999999,"ADDRESS":"東門路一段５２巷３弄２號","OBJECTID":183102},"geometry":{"x":169305.04000000097,"y":2543167.3999999985}},{"attributes":{"ID":183104,"DIS_CODE":0,"TOWNNAME":"東區","LI":"泉南里","LIN":"2鄰","STREET":"東門路","SECT":"一段","MAREA":" ","LANE":"５２巷","ALLEY":"３弄","HOUSE_NO":"４號","E_COORD97":169313.20000000001,"N_COORD97":2543163.3199999998,"ADDRESS":"東門路一段５２巷３弄４號","OBJECTID":183103},"geometry":{"x":169313.20000000019,"y":2543163.3200000003}},{"attributes":{"ID":183105,"DIS_CODE":0,"TOWNNAME":"東區","LI":"泉南里","LIN":"2鄰","STREET":"東門路","SECT":"一段","MAREA":" ","LANE":"５２巷","ALLEY":"３弄","HOUSE_NO":"６號","E_COORD97":169319.79000000001,"N_COORD97":2543160.3999999999,"ADDRESS":"東門路一段５２巷３弄６號","OBJECTID":183104},"geometry":{"x":169319.79000000004,"y":2543160.4000000004}},{"attributes":{"ID":183106,"DIS_CODE":0,"TOWNNAME":"東區","LI":"泉南里","LIN":"2鄰","STREET":"東門路","SECT":"一段","MAREA":" ","LANE":"５２巷","ALLEY":"３弄","HOUSE_NO":"８號","E_COORD97":169327.10999999999,"N_COORD97":2543158.3100000001,"ADDRESS":"東門路一段５２巷３弄８號","OBJECTID":183105},"geometry":{"x":169327.11000000127,"y":2543158.3100000042}},{"attributes":{"ID":183107,"DIS_CODE":0,"TOWNNAME":"東區","LI":"和平里","LIN":"3鄰","STREET":"東門路","SECT":"三段","MAREA":" ","LANE":"２２６巷","ALLEY":"８弄","HOUSE_NO":"３號","E_COORD97":171491.19,"N_COORD97":2541930.77,"ADDRESS":"東門路三段２２６巷８弄３號","OBJECTID":183106},"geometry":{"x":171491.19000000134,"y":2541930.7700000014}},{"attributes":{"ID":183108,"DIS_CODE":0,"TOWNNAME":"東區","LI":"和平里","LIN":"3鄰","STREET":"東門路","SECT":"三段","MAREA":" ","LANE":"２２６巷","ALLEY":"８弄","HOUSE_NO":"４號","E_COORD97":171494.23999999999,"N_COORD97":2541943.73,"ADDRESS":"東門路三段２２６巷８弄４號","OBJECTID":183107},"geometry":{"x":171494.24000000115,"y":2541943.7300000004}},{"attributes":{"ID":183109,"DIS_CODE":0,"TOWNNAME":"新營區","LI":"民榮里","LIN":"31鄰","STREET":"太子路","SECT":" ","MAREA":" ","LANE":"５３巷","ALLEY":"１３弄","HOUSE_NO":"３號","E_COORD97":178366.907251,"N_COORD97":2578010.97689,"ADDRESS":"太子路５３巷１３弄３號","OBJECTID":183108},"geometry":{"x":178366.90725099947,"y":2578010.976893004}},{"attributes":{"ID":183110,"DIS_CODE":0,"TOWNNAME":"東區","LI":"和平里","LIN":"7鄰","STREET":"東門路","SECT":"三段","MAREA":" ","LANE":"２２６巷","ALLEY":"７５弄","HOUSE_NO":"１１號","E_COORD97":171544.54000000001,"N_COORD97":2541816.98,"ADDRESS":"東門路三段２２６巷７５弄１１號","OBJECTID":183109},"geometry":{"x":171544.54000000097,"y":2541816.9800000004}},{"attributes":{"ID":183111,"DIS_CODE":0,"TOWNNAME":"東區","LI":"和平里","LIN":"7鄰","STREET":"東門路","SECT":"三段","MAREA":" ","LANE":"２２６巷","ALLEY":"７５弄","HOUSE_NO":"１３號","E_COORD97":171544.29999999999,"N_COORD97":2541813.3999999999,"ADDRESS":"東門路三段２２６巷７５弄１３號","OBJECTID":183110},"geometry":{"x":171544.30000000075,"y":2541813.4000000004}},{"attributes":{"ID":183112,"DIS_CODE":0,"TOWNNAME":"東區","LI":"和平里","LIN":"7鄰","STREET":"東門路","SECT":"三段","MAREA":" ","LANE":"２２６巷","ALLEY":"７５弄","HOUSE_NO":"１５號","E_COORD97":171544.06,"N_COORD97":2541808.8599999999,"ADDRESS":"東門路三段２２６巷７５弄１５號","OBJECTID":183111},"geometry":{"x":171544.06000000052,"y":2541808.8600000013}},{"attributes":{"ID":183113,"DIS_CODE":0,"TOWNNAME":"將軍區","LI":"長沙里","LIN":"10鄰","STREET":" ","SECT":" ","MAREA":"長沙","LANE":" ","ALLEY":" ","HOUSE_NO":"８９之３號","E_COORD97":157210.897425,"N_COORD97":2568576.9363299999,"ADDRESS":"長沙８９之３號","OBJECTID":183112},"geometry":{"x":157210.89742500056,"y":2568576.936333999}},{"attributes":{"ID":183114,"DIS_CODE":0,"TOWNNAME":"鹽水區","LI":"孫厝里","LIN":"10鄰","STREET":" ","SECT":" ","MAREA":"孫厝寮","LANE":" ","ALLEY":" ","HOUSE_NO":"７１號","E_COORD97":170397.04000000001,"N_COORD97":2576913.0099999998,"ADDRESS":"孫厝寮７１號","OBJECTID":183113},"geometry":{"x":170397.04000000097,"y":2576913.0099999998}},{"attributes":{"ID":183115,"DIS_CODE":0,"TOWNNAME":"鹽水區","LI":"孫厝里","LIN":"10鄰","STREET":" ","SECT":" ","MAREA":"孫厝寮","LANE":" ","ALLEY":" ","HOUSE_NO":"７２號","E_COORD97":170388.95999999999,"N_COORD97":2576943.5299999998,"ADDRESS":"孫厝寮７２號","OBJECTID":183114},"geometry":{"x":170388.96000000089,"y":2576943.5299999993}},{"attributes":{"ID":183116,"DIS_CODE":0,"TOWNNAME":"鹽水區","LI":"孫厝里","LIN":"10鄰","STREET":" ","SECT":" ","MAREA":"孫厝寮","LANE":" ","ALLEY":" ","HOUSE_NO":"７３號","E_COORD97":170406.04999999999,"N_COORD97":2576946.5699999998,"ADDRESS":"孫厝寮７３號","OBJECTID":183115},"geometry":{"x":170406.04999999981,"y":2576946.5700000003}},{"attributes":{"ID":183117,"DIS_CODE":0,"TOWNNAME":"鹽水區","LI":"孫厝里","LIN":"10鄰","STREET":" ","SECT":" ","MAREA":"孫厝寮","LANE":" ","ALLEY":" ","HOUSE_NO":"７４號","E_COORD97":170411.54999999999,"N_COORD97":2576974.3199999998,"ADDRESS":"孫厝寮７４號","OBJECTID":183116},"geometry":{"x":170411.55000000168,"y":2576974.3200000022}},{"attributes":{"ID":183118,"DIS_CODE":0,"TOWNNAME":"鹽水區","LI":"孫厝里","LIN":"10鄰","STREET":" ","SECT":" ","MAREA":"孫厝寮","LANE":" ","ALLEY":" ","HOUSE_NO":"７５號","E_COORD97":170421.23000000001,"N_COORD97":2576944.8700000001,"ADDRESS":"孫厝寮７５號","OBJECTID":183117},"geometry":{"x":170421.23000000138,"y":2576944.8700000029}},{"attributes":{"ID":183119,"DIS_CODE":0,"TOWNNAME":"鹽水區","LI":"孫厝里","LIN":"10鄰","STREET":" ","SECT":" ","MAREA":"孫厝寮","LANE":" ","ALLEY":" ","HOUSE_NO":"７６之１號","E_COORD97":170464.89000000001,"N_COORD97":2577004.7400000002,"ADDRESS":"孫厝寮７６之１號","OBJECTID":183118},"geometry":{"x":170464.89000000153,"y":2577004.7400000021}},{"attributes":{"ID":183120,"DIS_CODE":0,"TOWNNAME":"鹽水區","LI":"孫厝里","LIN":"10鄰","STREET":" ","SECT":" ","MAREA":"孫厝寮","LANE":" ","ALLEY":" ","HOUSE_NO":"７６號","E_COORD97":170451.67999999999,"N_COORD97":2576976.2200000002,"ADDRESS":"孫厝寮７６號","OBJECTID":183119},"geometry":{"x":170451.68000000063,"y":2576976.2200000025}},{"attributes":{"ID":183121,"DIS_CODE":0,"TOWNNAME":"安定區","LI":"安加里","LIN":"11鄰","STREET":" ","SECT":" ","MAREA":"安定","LANE":" ","ALLEY":" ","HOUSE_NO":"２６８之１０號","E_COORD97":171550.47,"N_COORD97":2557402.3199999998,"ADDRESS":"安定２６８之１０號","OBJECTID":183120},"geometry":{"x":171550.46999999974,"y":2557402.3200000022}},{"attributes":{"ID":183122,"DIS_CODE":0,"TOWNNAME":"安定區","LI":"中榮里","LIN":"11鄰","STREET":" ","SECT":" ","MAREA":"許中營","LANE":" ","ALLEY":" ","HOUSE_NO":"８６之７號","E_COORD97":172164.54000000001,"N_COORD97":2555167.2999999998,"ADDRESS":"許中營８６之７號","OBJECTID":183121},"geometry":{"x":172164.5400000019,"y":2555167.3000000045}},{"attributes":{"ID":183123,"DIS_CODE":0,"TOWNNAME":"新市區","LI":"豐華里","LIN":"11鄰","STREET":" ","SECT":" ","MAREA":"豐華","LANE":" ","ALLEY":" ","HOUSE_NO":"４７之８４號","E_COORD97":174194.79000000001,"N_COORD97":2554459.7999999998,"ADDRESS":"豐華４７之８４號","OBJECTID":183122},"geometry":{"x":174194.79000000004,"y":2554459.8000000026}},{"attributes":{"ID":183124,"DIS_CODE":0,"TOWNNAME":"新市區","LI":"港墘里","LIN":"11鄰","STREET":" ","SECT":" ","MAREA":"崙頂","LANE":" ","ALLEY":" ","HOUSE_NO":"２９號","E_COORD97":178863.54000000001,"N_COORD97":2552545.75,"ADDRESS":"崙頂２９號","OBJECTID":183123},"geometry":{"x":178863.54000000004,"y":2552545.7499999981}},{"attributes":{"ID":183125,"DIS_CODE":0,"TOWNNAME":"新市區","LI":"豐華里","LIN":"11鄰","STREET":" ","SECT":" ","MAREA":"豐華","LANE":" ","ALLEY":" ","HOUSE_NO":"４７之８０號","E_COORD97":174190.13,"N_COORD97":2554443.7999999998,"ADDRESS":"豐華４７之８０號","OBJECTID":183124},"geometry":{"x":174190.13000000082,"y":2554443.8000000007}},{"attributes":{"ID":183126,"DIS_CODE":0,"TOWNNAME":"新市區","LI":"豐華里","LIN":"11鄰","STREET":" ","SECT":" ","MAREA":"豐華","LANE":" ","ALLEY":" ","HOUSE_NO":"４７之７０號","E_COORD97":174206.37,"N_COORD97":2554487.7999999998,"ADDRESS":"豐華４７之７０號","OBJECTID":183125},"geometry":{"x":174206.37000000011,"y":2554487.8000000007}},{"attributes":{"ID":183127,"DIS_CODE":0,"TOWNNAME":"新市區","LI":"豐華里","LIN":"11鄰","STREET":" ","SECT":" ","MAREA":"豐華","LANE":" ","ALLEY":" ","HOUSE_NO":"４７之１００號","E_COORD97":174231.31,"N_COORD97":2554514.2999999998,"ADDRESS":"豐華４７之１００號","OBJECTID":183126},"geometry":{"x":174231.30999999959,"y":2554514.3000000026}},{"attributes":{"ID":183128,"DIS_CODE":0,"TOWNNAME":"官田區","LI":"渡頭里","LIN":"11鄰","STREET":" ","SECT":" ","MAREA":"渡子頭","LANE":" ","ALLEY":" ","HOUSE_NO":"８４號之１","E_COORD97":180929.10999999999,"N_COORD97":2563132.27,"ADDRESS":"渡子頭８４號之１","OBJECTID":183127},"geometry":{"x":180929.11000000127,"y":2563132.2699999996}},{"attributes":{"ID":183129,"DIS_CODE":0,"TOWNNAME":"官田區","LI":"渡頭里","LIN":"11鄰","STREET":" ","SECT":" ","MAREA":"渡子頭","LANE":" ","ALLEY":" ","HOUSE_NO":"８４號","E_COORD97":180923.09,"N_COORD97":2563153.3500000001,"ADDRESS":"渡子頭８４號","OBJECTID":183128},"geometry":{"x":180923.09000000171,"y":2563153.3500000034}},{"attributes":{"ID":183130,"DIS_CODE":0,"TOWNNAME":"官田區","LI":"渡頭里","LIN":"11鄰","STREET":" ","SECT":" ","MAREA":"渡子頭","LANE":" ","ALLEY":" ","HOUSE_NO":"８５號","E_COORD97":180944.12,"N_COORD97":2563177.27,"ADDRESS":"渡子頭８５號","OBJECTID":183129},"geometry":{"x":180944.12000000104,"y":2563177.2699999996}},{"attributes":{"ID":183131,"DIS_CODE":0,"TOWNNAME":"東區","LI":"和平里","LIN":"7鄰","STREET":"東門路","SECT":"三段","MAREA":" ","LANE":"２２６巷","ALLEY":"７５弄","HOUSE_NO":"１７號","E_COORD97":171545.01999999999,"N_COORD97":2541805.0299999998,"ADDRESS":"東門路三段２２６巷７５弄１７號","OBJECTID":183130},"geometry":{"x":171545.01999999955,"y":2541805.0299999993}},{"attributes":{"ID":183132,"DIS_CODE":0,"TOWNNAME":"新市區","LI":"豐華里","LIN":"11鄰","STREET":" ","SECT":" ","MAREA":"豐華","LANE":" ","ALLEY":" ","HOUSE_NO":"４７之５２號","E_COORD97":174146.84,"N_COORD97":2554417.7999999998,"ADDRESS":"豐華４７之５２號","OBJECTID":183131},"geometry":{"x":174146.83999999985,"y":2554417.8000000045}},{"attributes":{"ID":183133,"DIS_CODE":0,"TOWNNAME":"新市區","LI":"豐華里","LIN":"11鄰","STREET":" ","SECT":" ","MAREA":"豐華","LANE":" ","ALLEY":" ","HOUSE_NO":"４７之８２號","E_COORD97":174192.62,"N_COORD97":2554451.7999999998,"ADDRESS":"豐華４７之８２號","OBJECTID":183132},"geometry":{"x":174192.62000000011,"y":2554451.8000000045}},{"attributes":{"ID":183134,"DIS_CODE":0,"TOWNNAME":"新市區","LI":"豐華里","LIN":"11鄰","STREET":" ","SECT":" ","MAREA":"豐華","LANE":" ","ALLEY":" ","HOUSE_NO":"４７之８６號","E_COORD97":174198.98000000001,"N_COORD97":2554468.0499999998,"ADDRESS":"豐華４７之８６號","OBJECTID":183133},"geometry":{"x":174198.98000000045,"y":2554468.0500000026}},{"attributes":{"ID":183135,"DIS_CODE":0,"TOWNNAME":"鹽水區","LI":"水正里","LIN":"10鄰","STREET":"康樂路","SECT":" ","MAREA":" ","LANE":" ","ALLEY":" ","HOUSE_NO":"１４號","E_COORD97":175147.44,"N_COORD97":2579690.8900000001,"ADDRESS":"康樂路１４號","OBJECTID":183134},"geometry":{"x":175147.44000000227,"y":2579690.8900000006}},{"attributes":{"ID":183136,"DIS_CODE":0,"TOWNNAME":"新市區","LI":"潭頂里","LIN":"11鄰","STREET":" ","SECT":" ","MAREA":"潭頂","LANE":" ","ALLEY":" ","HOUSE_NO":"３７２號","E_COORD97":180611.05011400001,"N_COORD97":2552891.0270699998,"ADDRESS":"潭頂３７２號","OBJECTID":183135},"geometry":{"x":180611.05011400115,"y":2552891.0270709991}},{"attributes":{"ID":183137,"DIS_CODE":0,"TOWNNAME":"鹽水區","LI":"水正里","LIN":"10鄰","STREET":"康樂路","SECT":" ","MAREA":" ","LANE":" ","ALLEY":" ","HOUSE_NO":"１５號","E_COORD97":175124.23999999999,"N_COORD97":2579705.0699999998,"ADDRESS":"康樂路１５號","OBJECTID":183136},"geometry":{"x":175124.24000000022,"y":2579705.0700000022}},{"attributes":{"ID":183138,"DIS_CODE":0,"TOWNNAME":"東區","LI":"和平里","LIN":"7鄰","STREET":"東門路","SECT":"三段","MAREA":" ","LANE":"２２６巷","ALLEY":"７５弄","HOUSE_NO":"１９號","E_COORD97":171544.29999999999,"N_COORD97":2541801.2000000002,"ADDRESS":"東門路三段２２６巷７５弄１９號","OBJECTID":183137},"geometry":{"x":171544.30000000075,"y":2541801.1999999974}},{"attributes":{"ID":183139,"DIS_CODE":0,"TOWNNAME":"東區","LI":"和平里","LIN":"7鄰","STREET":"東門路","SECT":"三段","MAREA":" ","LANE":"２２６巷","ALLEY":"７５弄","HOUSE_NO":"２３號","E_COORD97":171544.54000000001,"N_COORD97":2541792.8399999999,"ADDRESS":"東門路三段２２６巷７５弄２３號","OBJECTID":183138},"geometry":{"x":171544.54000000097,"y":2541792.8399999999}},{"attributes":{"ID":183140,"DIS_CODE":0,"TOWNNAME":"鹽水區","LI":"水正里","LIN":"10鄰","STREET":"康樂路","SECT":" ","MAREA":" ","LANE":" ","ALLEY":" ","HOUSE_NO":"１６號之１","E_COORD97":175158.84,"N_COORD97":2579711.5499999998,"ADDRESS":"康樂路１６號之１","OBJECTID":183139},"geometry":{"x":175158.83999999985,"y":2579711.5499999989}},{"attributes":{"ID":183141,"DIS_CODE":0,"TOWNNAME":"鹽水區","LI":"水正里","LIN":"10鄰","STREET":"康樂路","SECT":" ","MAREA":" ","LANE":" ","ALLEY":" ","HOUSE_NO":"１６號之２","E_COORD97":175160.38,"N_COORD97":2579715.5299999998,"ADDRESS":"康樂路１６號之２","OBJECTID":183140},"geometry":{"x":175160.37999999989,"y":2579715.5300000012}},{"attributes":{"ID":183142,"DIS_CODE":0,"TOWNNAME":"鹽水區","LI":"水正里","LIN":"10鄰","STREET":"康樂路","SECT":" ","MAREA":" ","LANE":" ","ALLEY":" ","HOUSE_NO":"１６號","E_COORD97":175148.57000000001,"N_COORD97":2579709.25,"ADDRESS":"康樂路１６號","OBJECTID":183141},"geometry":{"x":175148.57000000123,"y":2579709.25}},{"attributes":{"ID":183143,"DIS_CODE":0,"TOWNNAME":"鹽水區","LI":"水正里","LIN":"10鄰","STREET":"康樂路","SECT":" ","MAREA":" ","LANE":" ","ALLEY":" ","HOUSE_NO":"１８號之１","E_COORD97":175164.04999999999,"N_COORD97":2579733.3399999999,"ADDRESS":"康樂路１８號之１","OBJECTID":183142},"geometry":{"x":175164.04999999981,"y":2579733.3400000017}},{"attributes":{"ID":183144,"DIS_CODE":0,"TOWNNAME":"東區","LI":"和平里","LIN":"7鄰","STREET":"東門路","SECT":"三段","MAREA":" ","LANE":"２２６巷","ALLEY":"７５弄","HOUSE_NO":"２５號","E_COORD97":171544.29999999999,"N_COORD97":2541788.4399999999,"ADDRESS":"東門路三段２２６巷７５弄２５號","OBJECTID":183143},"geometry":{"x":171544.30000000075,"y":2541788.4399999995}},{"attributes":{"ID":183145,"DIS_CODE":0,"TOWNNAME":"東區","LI":"和平里","LIN":"7鄰","STREET":"東門路","SECT":"三段","MAREA":" ","LANE":"２２６巷","ALLEY":"７５弄","HOUSE_NO":"２７號","E_COORD97":171544.54000000001,"N_COORD97":2541784.6200000001,"ADDRESS":"東門路三段２２６巷７５弄２７號","OBJECTID":183144},"geometry":{"x":171544.54000000097,"y":2541784.6200000029}},{"attributes":{"ID":183146,"DIS_CODE":0,"TOWNNAME":"東區","LI":"和平里","LIN":"7鄰","STREET":"東門路","SECT":"三段","MAREA":" ","LANE":"２２６巷","ALLEY":"７５弄","HOUSE_NO":"２９號","E_COORD97":171544.78,"N_COORD97":2541781.27,"ADDRESS":"東門路三段２２６巷７５弄２９號","OBJECTID":183145},"geometry":{"x":171544.78000000119,"y":2541781.2700000014}},{"attributes":{"ID":183147,"DIS_CODE":0,"TOWNNAME":"東區","LI":"和平里","LIN":"7鄰","STREET":"東門路","SECT":"三段","MAREA":" ","LANE":"２２６巷","ALLEY":"７５弄","HOUSE_NO":"３１號","E_COORD97":171544.54000000001,"N_COORD97":2541776.9700000002,"ADDRESS":"東門路三段２２６巷７５弄３１號","OBJECTID":183146},"geometry":{"x":171544.54000000097,"y":2541776.9700000007}},{"attributes":{"ID":183148,"DIS_CODE":0,"TOWNNAME":"鹽水區","LI":"水正里","LIN":"10鄰","STREET":"康樂路","SECT":" ","MAREA":" ","LANE":" ","ALLEY":" ","HOUSE_NO":"１８號","E_COORD97":175164.22,"N_COORD97":2579725.0899999999,"ADDRESS":"康樂路１８號","OBJECTID":183147},"geometry":{"x":175164.22000000067,"y":2579725.0900000017}},{"attributes":{"ID":183149,"DIS_CODE":0,"TOWNNAME":"鹽水區","LI":"水正里","LIN":"10鄰","STREET":"康樂路","SECT":" ","MAREA":" ","LANE":" ","ALLEY":" ","HOUSE_NO":"１９號之１","E_COORD97":175152.14000000001,"N_COORD97":2579750.6899999999,"ADDRESS":"康樂路１９號之１","OBJECTID":183148},"geometry":{"x":175152.14000000153,"y":2579750.6900000013}},{"attributes":{"ID":183150,"DIS_CODE":0,"TOWNNAME":"後壁區","LI":"墨林里","LIN":"11鄰","STREET":" ","SECT":" ","MAREA":"菁寮","LANE":" ","ALLEY":" ","HOUSE_NO":"２９７號","E_COORD97":182431.59,"N_COORD97":2586261.0800000001,"ADDRESS":"菁寮２９７號","OBJECTID":183149},"geometry":{"x":182431.58999999985,"y":2586261.0800000038}},{"attributes":{"ID":183151,"DIS_CODE":0,"TOWNNAME":"後壁區","LI":"墨林里","LIN":"11鄰","STREET":" ","SECT":" ","MAREA":"菁寮","LANE":" ","ALLEY":" ","HOUSE_NO":"２９８之５號","E_COORD97":182410.82999999999,"N_COORD97":2586267.96,"ADDRESS":"菁寮２９８之５號","OBJECTID":183150},"geometry":{"x":182410.83000000101,"y":2586267.9600000009}},{"attributes":{"ID":183152,"DIS_CODE":0,"TOWNNAME":"後壁區","LI":"墨林里","LIN":"11鄰","STREET":" ","SECT":" ","MAREA":"菁寮","LANE":" ","ALLEY":" ","HOUSE_NO":"２９９號","E_COORD97":182411.79999999999,"N_COORD97":2586281.96,"ADDRESS":"菁寮２９９號","OBJECTID":183151},"geometry":{"x":182411.80000000168,"y":2586281.9600000009}},{"attributes":{"ID":183153,"DIS_CODE":0,"TOWNNAME":"後壁區","LI":"墨林里","LIN":"11鄰","STREET":" ","SECT":" ","MAREA":"菁寮","LANE":" ","ALLEY":" ","HOUSE_NO":"３００號","E_COORD97":182415.48999999999,"N_COORD97":2586309.6299999999,"ADDRESS":"菁寮３００號","OBJECTID":183152},"geometry":{"x":182415.49000000022,"y":2586309.629999999}},{"attributes":{"ID":183154,"DIS_CODE":0,"TOWNNAME":"後壁區","LI":"墨林里","LIN":"11鄰","STREET":" ","SECT":" ","MAREA":"菁寮","LANE":" ","ALLEY":" ","HOUSE_NO":"３０１號","E_COORD97":182387.19,"N_COORD97":2586317.27,"ADDRESS":"菁寮３０１號","OBJECTID":183153},"geometry":{"x":182387.19000000041,"y":2586317.2700000014}},{"attributes":{"ID":183155,"DIS_CODE":0,"TOWNNAME":"後壁區","LI":"墨林里","LIN":"11鄰","STREET":" ","SECT":" ","MAREA":"菁寮","LANE":" ","ALLEY":" ","HOUSE_NO":"３０２號","E_COORD97":182341.81,"N_COORD97":2586350.4900000002,"ADDRESS":"菁寮３０２號","OBJECTID":183154},"geometry":{"x":182341.81000000145,"y":2586350.4900000021}},{"attributes":{"ID":183156,"DIS_CODE":0,"TOWNNAME":"東區","LI":"和平里","LIN":"7鄰","STREET":"東門路","SECT":"三段","MAREA":" ","LANE":"２２６巷","ALLEY":"７５弄","HOUSE_NO":"３５號","E_COORD97":171543.34,"N_COORD97":2541768.6000000001,"ADDRESS":"東門路三段２２６巷７５弄３５號","OBJECTID":183155},"geometry":{"x":171543.33999999985,"y":2541768.6000000034}},{"attributes":{"ID":183157,"DIS_CODE":0,"TOWNNAME":"南區","LI":"再興里","LIN":"10鄰","STREET":"新城街","SECT":" ","MAREA":" ","LANE":" ","ALLEY":" ","HOUSE_NO":"４９號","E_COORD97":167123.66,"N_COORD97":2542289.8199999998,"ADDRESS":"新城街４９號","OBJECTID":183156},"geometry":{"x":167123.66000000015,"y":2542289.820000004}},{"attributes":{"ID":183158,"DIS_CODE":0,"TOWNNAME":"南區","LI":"國宅里","LIN":"10鄰","STREET":"新興路","SECT":" ","MAREA":" ","LANE":" ","ALLEY":" ","HOUSE_NO":"３８８號","E_COORD97":166841.20999999999,"N_COORD97":2541768.1299999999,"ADDRESS":"新興路３８８號","OBJECTID":183157},"geometry":{"x":166841.21000000089,"y":2541768.1300000008}},{"attributes":{"ID":183159,"DIS_CODE":0,"TOWNNAME":"鹽水區","LI":"桐寮里","LIN":"3鄰","STREET":" ","SECT":" ","MAREA":"桐寮","LANE":" ","ALLEY":" ","HOUSE_NO":"４號","E_COORD97":173981.31,"N_COORD97":2576642.98,"ADDRESS":"桐寮４號","OBJECTID":183158},"geometry":{"x":173981.31000000145,"y":2576642.9800000004}},{"attributes":{"ID":183160,"DIS_CODE":0,"TOWNNAME":"南區","LI":"國宅里","LIN":"10鄰","STREET":"新興路","SECT":" ","MAREA":" ","LANE":" ","ALLEY":" ","HOUSE_NO":"３８８號之１","E_COORD97":166837.14000000001,"N_COORD97":2541768.2000000002,"ADDRESS":"新興路３８８號之１","OBJECTID":183159},"geometry":{"x":166837.14000000153,"y":2541768.2000000011}},{"attributes":{"ID":183161,"DIS_CODE":0,"TOWNNAME":"南區","LI":"國宅里","LIN":"10鄰","STREET":"新興路","SECT":" ","MAREA":" ","LANE":" ","ALLEY":" ","HOUSE_NO":"３８８號之３","E_COORD97":166828.51000000001,"N_COORD97":2541767.8300000001,"ADDRESS":"新興路３８８號之３","OBJECTID":183160},"geometry":{"x":166828.51000000071,"y":2541767.8300000019}},{"attributes":{"ID":183162,"DIS_CODE":0,"TOWNNAME":"南區","LI":"國宅里","LIN":"10鄰","STREET":"新興路","SECT":" ","MAREA":" ","LANE":" ","ALLEY":" ","HOUSE_NO":"３８８號之５","E_COORD97":166819.23999999999,"N_COORD97":2541767.2200000002,"ADDRESS":"新興路３８８號之５","OBJECTID":183161},"geometry":{"x":166819.24000000115,"y":2541767.2200000007}},{"attributes":{"ID":183163,"DIS_CODE":0,"TOWNNAME":"南區","LI":"國宅里","LIN":"10鄰","STREET":"新興路","SECT":" ","MAREA":" ","LANE":" ","ALLEY":" ","HOUSE_NO":"３８８號之２","E_COORD97":166832.73000000001,"N_COORD97":2541767.54,"ADDRESS":"新興路３８８號之２","OBJECTID":183162},"geometry":{"x":166832.73000000138,"y":2541767.5399999991}},{"attributes":{"ID":183164,"DIS_CODE":0,"TOWNNAME":"南區","LI":"國宅里","LIN":"10鄰","STREET":"新興路","SECT":" ","MAREA":" ","LANE":" ","ALLEY":" ","HOUSE_NO":"３８８號之４","E_COORD97":166823.04000000001,"N_COORD97":2541767.5699999998,"ADDRESS":"新興路３８８號之４","OBJECTID":183163},"geometry":{"x":166823.0400000019,"y":2541767.5700000022}},{"attributes":{"ID":183165,"DIS_CODE":0,"TOWNNAME":"東區","LI":"和平里","LIN":"7鄰","STREET":"東門路","SECT":"三段","MAREA":" ","LANE":"２２６巷","ALLEY":"７５弄","HOUSE_NO":"３７號","E_COORD97":171543.57999999999,"N_COORD97":2541765.4900000002,"ADDRESS":"東門路三段２２６巷７５弄３７號","OBJECTID":183164},"geometry":{"x":171543.58000000007,"y":2541765.4900000002}},{"attributes":{"ID":183166,"DIS_CODE":0,"TOWNNAME":"東區","LI":"和平里","LIN":"7鄰","STREET":"東門路","SECT":"三段","MAREA":" ","LANE":"２２６巷","ALLEY":"７５弄","HOUSE_NO":"５號","E_COORD97":171544.54000000001,"N_COORD97":2541828.9399999999,"ADDRESS":"東門路三段２２６巷７５弄５號","OBJECTID":183165},"geometry":{"x":171544.54000000097,"y":2541828.9399999995}},{"attributes":{"ID":183167,"DIS_CODE":0,"TOWNNAME":"新化區","LI":"護國里","LIN":"10鄰","STREET":"中山路","SECT":" ","MAREA":" ","LANE":" ","ALLEY":" ","HOUSE_NO":"１００號之３２","E_COORD97":179470.20999999999,"N_COORD97":2549204.2599999998,"ADDRESS":"中山路１００號之３２","OBJECTID":183166},"geometry":{"x":179470.21000000089,"y":2549204.2600000016}},{"attributes":{"ID":183168,"DIS_CODE":0,"TOWNNAME":"東區","LI":"富強里","LIN":"4鄰","STREET":"裕農路","SECT":" ","MAREA":" ","LANE":"４４６巷","ALLEY":"３２弄","HOUSE_NO":"２號","E_COORD97":171233.42000000001,"N_COORD97":2543032.6600000001,"ADDRESS":"裕農路４４６巷３２弄２號","OBJECTID":183167},"geometry":{"x":171233.42000000086,"y":2543032.6600000001}},{"attributes":{"ID":183169,"DIS_CODE":0,"TOWNNAME":"東區","LI":"富強里","LIN":"6鄰","STREET":"中華東路","SECT":"二段","MAREA":" ","LANE":"４８巷","ALLEY":"１７弄","HOUSE_NO":"１１號","E_COORD97":171326.26999999999,"N_COORD97":2542958.2999999998,"ADDRESS":"中華東路二段４８巷１７弄１１號","OBJECTID":183168},"geometry":{"x":171326.26999999955,"y":2542958.3000000045}},{"attributes":{"ID":183170,"DIS_CODE":0,"TOWNNAME":"東區","LI":"富強里","LIN":"6鄰","STREET":"中華東路","SECT":"二段","MAREA":" ","LANE":"４８巷","ALLEY":"１７弄","HOUSE_NO":"１２號","E_COORD97":171307.35999999999,"N_COORD97":2542951.2000000002,"ADDRESS":"中華東路二段４８巷１７弄１２號","OBJECTID":183169},"geometry":{"x":171307.36000000127,"y":2542951.2000000011}},{"attributes":{"ID":183171,"DIS_CODE":0,"TOWNNAME":"東區","LI":"富強里","LIN":"6鄰","STREET":"中華東路","SECT":"二段","MAREA":" ","LANE":"４８巷","ALLEY":"１７弄","HOUSE_NO":"１３號","E_COORD97":171326.98000000001,"N_COORD97":2542954.7400000002,"ADDRESS":"中華東路二段４８巷１７弄１３號","OBJECTID":183170},"geometry":{"x":171326.98000000138,"y":2542954.7399999984}},{"attributes":{"ID":183172,"DIS_CODE":0,"TOWNNAME":"東區","LI":"富強里","LIN":"6鄰","STREET":"中華東路","SECT":"二段","MAREA":" ","LANE":"４８巷","ALLEY":"１７弄","HOUSE_NO":"１７號","E_COORD97":171327.69,"N_COORD97":2542945.1200000001,"ADDRESS":"中華東路二段４８巷１７弄１７號","OBJECTID":183171},"geometry":{"x":171327.69000000041,"y":2542945.120000001}},{"attributes":{"ID":183173,"DIS_CODE":0,"TOWNNAME":"東區","LI":"富強里","LIN":"6鄰","STREET":"中華東路","SECT":"二段","MAREA":" ","LANE":"４８巷","ALLEY":"１７弄","HOUSE_NO":"１８號","E_COORD97":171308.26000000001,"N_COORD97":2542937.48,"ADDRESS":"中華東路二段４８巷１７弄１８號","OBJECTID":183172},"geometry":{"x":171308.25999999978,"y":2542937.4800000023}},{"attributes":{"ID":183174,"DIS_CODE":0,"TOWNNAME":"東區","LI":"富強里","LIN":"17鄰","STREET":"裕農路","SECT":" ","MAREA":" ","LANE":"２８８巷","ALLEY":"１９６弄","HOUSE_NO":"２號","E_COORD97":171056.26000000001,"N_COORD97":2542845.6099999999,"ADDRESS":"裕農路２８８巷１９６弄２號","OBJECTID":183173},"geometry":{"x":171056.26000000071,"y":2542845.6099999994}},{"attributes":{"ID":183175,"DIS_CODE":0,"TOWNNAME":"東區","LI":"富強里","LIN":"19鄰","STREET":"裕農路","SECT":" ","MAREA":" ","LANE":"２８８巷","ALLEY":"１１０弄","HOUSE_NO":"１０號","E_COORD97":170994.51999999999,"N_COORD97":2542894.23,"ADDRESS":"裕農路２８８巷１１０弄１０號","OBJECTID":183174},"geometry":{"x":170994.52000000142,"y":2542894.2300000042}},{"attributes":{"ID":183176,"DIS_CODE":0,"TOWNNAME":"仁德區","LI":"上崙里","LIN":"26鄰","STREET":"中正路","SECT":"一段","MAREA":" ","LANE":" ","ALLEY":" ","HOUSE_NO":"６９６號","E_COORD97":172897.45999999999,"N_COORD97":2537652.27,"ADDRESS":"中正路一段６９６號","OBJECTID":183175},"geometry":{"x":172897.46000000183,"y":2537652.2700000014}},{"attributes":{"ID":183177,"DIS_CODE":0,"TOWNNAME":"新化區","LI":"全興里","LIN":"10鄰","STREET":" ","SECT":" ","MAREA":"竹子\u25A0","LANE":" ","ALLEY":" ","HOUSE_NO":"１３２號","E_COORD97":177568.13,"N_COORD97":2547674.25,"ADDRESS":"竹子\u25A0１３２號","OBJECTID":183176},"geometry":{"x":177568.13000000175,"y":2547674.2500000037}},{"attributes":{"ID":183178,"DIS_CODE":0,"TOWNNAME":"新化區","LI":"崙頂里","LIN":"10鄰","STREET":" ","SECT":" ","MAREA":"崙子頂","LANE":" ","ALLEY":" ","HOUSE_NO":"３６３號","E_COORD97":176803.13,"N_COORD97":2546863.25,"ADDRESS":"崙子頂３６３號","OBJECTID":183177},"geometry":{"x":176803.12999999989,"y":2546863.25}},{"attributes":{"ID":183179,"DIS_CODE":0,"TOWNNAME":"新化區","LI":"全興里","LIN":"10鄰","STREET":" ","SECT":" ","MAREA":"竹子\u25A0","LANE":" ","ALLEY":" ","HOUSE_NO":"１４３號之１","E_COORD97":177576.76000000001,"N_COORD97":2547584.2599999998,"ADDRESS":"竹子\u25A0１４３號之１","OBJECTID":183178},"geometry":{"x":177576.75999999978,"y":2547584.2599999998}},{"attributes":{"ID":183180,"DIS_CODE":0,"TOWNNAME":"新化區","LI":"崙頂里","LIN":"10鄰","STREET":" ","SECT":" ","MAREA":"崙子頂","LANE":" ","ALLEY":" ","HOUSE_NO":"３６８號","E_COORD97":176832.63,"N_COORD97":2546848.25,"ADDRESS":"崙子頂３６８號","OBJECTID":183179},"geometry":{"x":176832.63000000082,"y":2546848.2500000019}},{"attributes":{"ID":183181,"DIS_CODE":0,"TOWNNAME":"新化區","LI":"全興里","LIN":"10鄰","STREET":" ","SECT":" ","MAREA":"竹子\u25A0","LANE":" ","ALLEY":" ","HOUSE_NO":"７０號之２","E_COORD97":177617.14000000001,"N_COORD97":2547637.2599999998,"ADDRESS":"竹子\u25A0７０號之２","OBJECTID":183180},"geometry":{"x":177617.1400000006,"y":2547637.2600000016}},{"attributes":{"ID":183182,"DIS_CODE":0,"TOWNNAME":"後壁區","LI":"墨林里","LIN":"11鄰","STREET":" ","SECT":" ","MAREA":"菁寮","LANE":" ","ALLEY":" ","HOUSE_NO":"３０４號","E_COORD97":182316.23999999999,"N_COORD97":2586348.4900000002,"ADDRESS":"菁寮３０４號","OBJECTID":183181},"geometry":{"x":182316.24000000115,"y":2586348.4900000002}},{"attributes":{"ID":183183,"DIS_CODE":0,"TOWNNAME":"後壁區","LI":"墨林里","LIN":"11鄰","STREET":" ","SECT":" ","MAREA":"菁寮","LANE":" ","ALLEY":" ","HOUSE_NO":"３０５號","E_COORD97":182312.73999999999,"N_COORD97":2586358.5800000001,"ADDRESS":"菁寮３０５號","OBJECTID":183182},"geometry":{"x":182312.74000000115,"y":2586358.5800000001}},{"attributes":{"ID":183184,"DIS_CODE":0,"TOWNNAME":"後壁區","LI":"墨林里","LIN":"11鄰","STREET":" ","SECT":" ","MAREA":"菁寮","LANE":" ","ALLEY":" ","HOUSE_NO":"３０６號之３","E_COORD97":182275.22,"N_COORD97":2586360.5600000001,"ADDRESS":"菁寮３０６號之３","OBJECTID":183183},"geometry":{"x":182275.22000000067,"y":2586360.5600000024}},{"attributes":{"ID":183185,"DIS_CODE":0,"TOWNNAME":"官田區","LI":"官田里","LIN":"1鄰","STREET":" ","SECT":" ","MAREA":"官田","LANE":" ","ALLEY":" ","HOUSE_NO":"１號","E_COORD97":182488.32000000001,"N_COORD97":2565326.8500000001,"ADDRESS":"官田１號","OBJECTID":183184},"geometry":{"x":182488.32000000216,"y":2565326.8500000034}},{"attributes":{"ID":183186,"DIS_CODE":0,"TOWNNAME":"東區","LI":"富強里","LIN":"19鄰","STREET":"裕農路","SECT":" ","MAREA":" ","LANE":"２８８巷","ALLEY":"１１０弄","HOUSE_NO":"１１號","E_COORD97":171014.29999999999,"N_COORD97":2542908.9500000002,"ADDRESS":"裕農路２８８巷１１０弄１１號","OBJECTID":183185},"geometry":{"x":171014.29999999981,"y":2542908.9500000011}},{"attributes":{"ID":183187,"DIS_CODE":0,"TOWNNAME":"東區","LI":"富強里","LIN":"19鄰","STREET":"裕農路","SECT":" ","MAREA":" ","LANE":"２８８巷","ALLEY":"１１０弄","HOUSE_NO":"２０號","E_COORD97":170996.98999999999,"N_COORD97":2542874.4700000002,"ADDRESS":"裕農路２８８巷１１０弄２０號","OBJECTID":183186},"geometry":{"x":170996.98999999929,"y":2542874.4700000007}},{"attributes":{"ID":183188,"DIS_CODE":0,"TOWNNAME":"東區","LI":"富強里","LIN":"19鄰","STREET":"裕農路","SECT":" ","MAREA":" ","LANE":"２８８巷","ALLEY":"１１０弄","HOUSE_NO":"２２號","E_COORD97":170996.88,"N_COORD97":2542869.7799999998,"ADDRESS":"裕農路２８８巷１１０弄２２號","OBJECTID":183187},"geometry":{"x":170996.87999999989,"y":2542869.7800000012}},{"attributes":{"ID":183189,"DIS_CODE":0,"TOWNNAME":"東區","LI":"富強里","LIN":"19鄰","STREET":"裕農路","SECT":" ","MAREA":" ","LANE":"２８８巷","ALLEY":"１１０弄","HOUSE_NO":"２４號","E_COORD97":170996.98999999999,"N_COORD97":2542865.9900000002,"ADDRESS":"裕農路２８８巷１１０弄２４號","OBJECTID":183188},"geometry":{"x":170996.98999999929,"y":2542865.9900000021}},{"attributes":{"ID":183190,"DIS_CODE":0,"TOWNNAME":"東區","LI":"富強里","LIN":"19鄰","STREET":"裕農路","SECT":" ","MAREA":" ","LANE":"２８８巷","ALLEY":"１１０弄","HOUSE_NO":"２６號","E_COORD97":170997.54999999999,"N_COORD97":2542862.0899999999,"ADDRESS":"裕農路２８８巷１１０弄２６號","OBJECTID":183189},"geometry":{"x":170997.54999999981,"y":2542862.0900000017}},{"attributes":{"ID":183191,"DIS_CODE":0,"TOWNNAME":"後壁區","LI":"新東里","LIN":"11鄰","STREET":" ","SECT":" ","MAREA":"新港東","LANE":" ","ALLEY":" ","HOUSE_NO":"１２１號","E_COORD97":181523.57000000001,"N_COORD97":2581999.6699999999,"ADDRESS":"新港東１２１號","OBJECTID":183190},"geometry":{"x":181523.5700000003,"y":2581999.6700000018}},{"attributes":{"ID":183192,"DIS_CODE":0,"TOWNNAME":"東區","LI":"富強里","LIN":"19鄰","STREET":"裕農路","SECT":" ","MAREA":" ","LANE":"２８８巷","ALLEY":"１１０弄","HOUSE_NO":"２７號","E_COORD97":171015.98999999999,"N_COORD97":2542875.4900000002,"ADDRESS":"裕農路２８８巷１１０弄２７號","OBJECTID":183191},"geometry":{"x":171015.99000000115,"y":2542875.4900000021}},{"attributes":{"ID":183193,"DIS_CODE":0,"TOWNNAME":"東區","LI":"富強里","LIN":"19鄰","STREET":"裕農路","SECT":" ","MAREA":" ","LANE":"２８８巷","ALLEY":"１１０弄","HOUSE_NO":"２８號","E_COORD97":170997.42999999999,"N_COORD97":2542858.1800000002,"ADDRESS":"裕農路２８８巷１１０弄２８號","OBJECTID":183192},"geometry":{"x":170997.43000000063,"y":2542858.1799999997}},{"attributes":{"ID":183194,"DIS_CODE":0,"TOWNNAME":"東區","LI":"富強里","LIN":"19鄰","STREET":"裕農路","SECT":" ","MAREA":" ","LANE":"２８８巷","ALLEY":"１１０弄","HOUSE_NO":"２９號","E_COORD97":171016.06,"N_COORD97":2542871.6200000001,"ADDRESS":"裕農路２８８巷１１０弄２９號","OBJECTID":183193},"geometry":{"x":171016.05999999959,"y":2542871.6199999992}},{"attributes":{"ID":183195,"DIS_CODE":0,"TOWNNAME":"東區","LI":"富強里","LIN":"19鄰","STREET":"裕農路","SECT":" ","MAREA":" ","LANE":"２８８巷","ALLEY":"１１０弄","HOUSE_NO":"３５號","E_COORD97":171017.92999999999,"N_COORD97":2542859.8100000001,"ADDRESS":"裕農路２８８巷１１０弄３５號","OBJECTID":183194},"geometry":{"x":171017.93000000063,"y":2542859.8100000042}},{"attributes":{"ID":183196,"DIS_CODE":0,"TOWNNAME":"東區","LI":"富強里","LIN":"19鄰","STREET":"裕農路","SECT":" ","MAREA":" ","LANE":"２８８巷","ALLEY":"１１０弄","HOUSE_NO":"３８號","E_COORD97":171005.47,"N_COORD97":2542848.8199999998,"ADDRESS":"裕農路２８８巷１１０弄３８號","OBJECTID":183195},"geometry":{"x":171005.47000000067,"y":2542848.8200000003}},{"attributes":{"ID":183197,"DIS_CODE":0,"TOWNNAME":"東區","LI":"富強里","LIN":"19鄰","STREET":"裕農路","SECT":" ","MAREA":" ","LANE":"２８８巷","ALLEY":"１１０弄","HOUSE_NO":"４０號","E_COORD97":171001.01000000001,"N_COORD97":2542846.1400000001,"ADDRESS":"裕農路２８８巷１１０弄４０號","OBJECTID":183196},"geometry":{"x":171001.00999999978,"y":2542846.1400000006}},{"attributes":{"ID":183198,"DIS_CODE":0,"TOWNNAME":"東區","LI":"富強里","LIN":"19鄰","STREET":"裕農路","SECT":" ","MAREA":" ","LANE":"２８８巷","ALLEY":"１１０弄","HOUSE_NO":"６號","E_COORD97":170993.09,"N_COORD97":2542906.8799999999,"ADDRESS":"裕農路２８８巷１１０弄６號","OBJECTID":183197},"geometry":{"x":170993.09000000078,"y":2542906.879999999}},{"attributes":{"ID":183199,"DIS_CODE":0,"TOWNNAME":"東區","LI":"富強里","LIN":"19鄰","STREET":"裕農路","SECT":" ","MAREA":" ","LANE":"２８８巷","ALLEY":"１１０弄","HOUSE_NO":"７號","E_COORD97":171012.70000000001,"N_COORD97":2542916.7200000002,"ADDRESS":"裕農路２８８巷１１０弄７號","OBJECTID":183198},"geometry":{"x":171012.70000000205,"y":2542916.7200000007}},{"attributes":{"ID":183200,"DIS_CODE":0,"TOWNNAME":"安南區","LI":"\u25A0田里","LIN":"1鄰","STREET":"大眾路","SECT":" ","MAREA":" ","LANE":"１０１巷","ALLEY":"１２３弄","HOUSE_NO":"１０號","E_COORD97":161980.77841999999,"N_COORD97":2547453.6680600001,"ADDRESS":"大眾路１０１巷１２３弄１０號","OBJECTID":183199},"geometry":{"x":161980.77841999941,"y":2547453.6680600047}},{"attributes":{"ID":183201,"DIS_CODE":0,"TOWNNAME":"北區","LI":"大港里","LIN":"10鄰","STREET":"大興街","SECT":" ","MAREA":" ","LANE":"２８０巷","ALLEY":" ","HOUSE_NO":"２２號","E_COORD97":166602.14999999999,"N_COORD97":2545743.4500000002,"ADDRESS":"大興街２８０巷２２號","OBJECTID":183200},"geometry":{"x":166602.14999999944,"y":2545743.4500000011}}]}