{"displayFieldName":"TOWNNAME","fieldAliases":{"ID":"ID","DIS_CODE":"DIS_CODE","TOWNNAME":"TOWNNAME","LI":"LI","LIN":"LIN","STREET":"STREET","SECT":"SECT","MAREA":"MAREA","LANE":"LANE","ALLEY":"ALLEY","HOUSE_NO":"HOUSE_NO","E_COORD97":"E_COORD97","N_COORD97":"N_COORD97","ADDRESS":"ADDRESS","OBJECTID":"OBJECTID"},"geometryType":"esriGeometryPoint","spatialReference":{"wkid":102443,"latestWkid":3826},"fields":[{"name":"ID","type":"esriFieldTypeDouble","alias":"ID"},{"name":"DIS_CODE","type":"esriFieldTypeInteger","alias":"DIS_CODE"},{"name":"TOWNNAME","type":"esriFieldTypeString","alias":"TOWNNAME","length":8},{"name":"LI","type":"esriFieldTypeString","alias":"LI","length":8},{"name":"LIN","type":"esriFieldTypeString","alias":"LIN","length":12},{"name":"STREET","type":"esriFieldTypeString","alias":"STREET","length":20},{"name":"SECT","type":"esriFieldTypeString","alias":"SECT","length":8},{"name":"MAREA","type":"esriFieldTypeString","alias":"MAREA","length":12},{"name":"LANE","type":"esriFieldTypeString","alias":"LANE","length":10},{"name":"ALLEY","type":"esriFieldTypeString","alias":"ALLEY","length":10},{"name":"HOUSE_NO","type":"esriFieldTypeString","alias":"HOUSE_NO","length":20},{"name":"E_COORD97","type":"esriFieldTypeDouble","alias":"E_COORD97"},{"name":"N_COORD97","type":"esriFieldTypeDouble","alias":"N_COORD97"},{"name":"ADDRESS","type":"esriFieldTypeString","alias":"ADDRESS","length":50},{"name":"OBJECTID","type":"esriFieldTypeOID","alias":"OBJECTID"}],"features":[{"attributes":{"ID":634828,"DIS_CODE":0,"TOWNNAME":"永康區","LI":"\u25A0洲里","LIN":"39鄰","STREET":"\u25A0洲一街","SECT":" ","MAREA":" ","LANE":" ","ALLEY":" ","HOUSE_NO":"４１號四樓之２","E_COORD97":171589.63,"N_COORD97":2549075.7999999998,"ADDRESS":"\u25A0洲一街４１號四樓之２","OBJECTID":634801},"geometry":{"x":171589.63000000082,"y":2549075.8000000026}},{"attributes":{"ID":634829,"DIS_CODE":0,"TOWNNAME":"永康區","LI":"永康里","LIN":"42鄰","STREET":"永大五路","SECT":" ","MAREA":" ","LANE":" ","ALLEY":" ","HOUSE_NO":"３５號四樓","E_COORD97":174208.82000000001,"N_COORD97":2546721.9500000002,"ADDRESS":"永大五路３５號四樓","OBJECTID":634802},"geometry":{"x":174208.8200000003,"y":2546721.9499999993}},{"attributes":{"ID":634830,"DIS_CODE":0,"TOWNNAME":"永康區","LI":"永康里","LIN":"26鄰","STREET":"永大路","SECT":"二段","MAREA":" ","LANE":" ","ALLEY":" ","HOUSE_NO":"１１２９號十三樓之１","E_COORD97":174199.69,"N_COORD97":2547482.3599999999,"ADDRESS":"永大路二段１１２９號十三樓之１","OBJECTID":634803},"geometry":{"x":174199.69000000041,"y":2547482.3599999994}},{"attributes":{"ID":634831,"DIS_CODE":0,"TOWNNAME":"永康區","LI":"正強里","LIN":"32鄰","STREET":"四維街","SECT":" ","MAREA":" ","LANE":" ","ALLEY":" ","HOUSE_NO":"３７號五樓之３","E_COORD97":173407.79999999999,"N_COORD97":2548034.8799999999,"ADDRESS":"四維街３７號五樓之３","OBJECTID":634804},"geometry":{"x":173407.79999999981,"y":2548034.8800000027}},{"attributes":{"ID":634832,"DIS_CODE":0,"TOWNNAME":"永康區","LI":"復國里","LIN":"20鄰","STREET":"國華街","SECT":" ","MAREA":" ","LANE":" ","ALLEY":" ","HOUSE_NO":"５９號三樓之２","E_COORD97":172823.54999999999,"N_COORD97":2545757.4199999999,"ADDRESS":"國華街５９號三樓之２","OBJECTID":634805},"geometry":{"x":172823.54999999888,"y":2545757.4200000037}},{"attributes":{"ID":634833,"DIS_CODE":0,"TOWNNAME":"永康區","LI":"永康里","LIN":"26鄰","STREET":"永大路","SECT":"二段","MAREA":" ","LANE":" ","ALLEY":" ","HOUSE_NO":"１１２９號十八樓之１","E_COORD97":174199.69,"N_COORD97":2547482.3599999999,"ADDRESS":"永大路二段１１２９號十八樓之１","OBJECTID":634806},"geometry":{"x":174199.69000000041,"y":2547482.3599999994}},{"attributes":{"ID":634834,"DIS_CODE":0,"TOWNNAME":"永康區","LI":"永康里","LIN":"26鄰","STREET":"中山北路","SECT":" ","MAREA":" ","LANE":" ","ALLEY":" ","HOUSE_NO":"７０號七樓之２","E_COORD97":174075.48000000001,"N_COORD97":2547398.25,"ADDRESS":"中山北路７０號七樓之２","OBJECTID":634807},"geometry":{"x":174075.48000000045,"y":2547398.25}},{"attributes":{"ID":634835,"DIS_CODE":0,"TOWNNAME":"永康區","LI":"永康里","LIN":"39鄰","STREET":"永大一路","SECT":" ","MAREA":" ","LANE":" ","ALLEY":" ","HOUSE_NO":"６２號七樓之５","E_COORD97":174180.70000000001,"N_COORD97":2546456.7200000002,"ADDRESS":"永大一路６２號七樓之５","OBJECTID":634808},"geometry":{"x":174180.70000000019,"y":2546456.7200000007}},{"attributes":{"ID":634836,"DIS_CODE":0,"TOWNNAME":"永康區","LI":"網寮里","LIN":"26鄰","STREET":"永華路","SECT":" ","MAREA":" ","LANE":" ","ALLEY":" ","HOUSE_NO":"５８０號五樓之２","E_COORD97":173897.01999999999,"N_COORD97":2546572.7999999998,"ADDRESS":"永華路５８０號五樓之２","OBJECTID":634809},"geometry":{"x":173897.02000000048,"y":2546572.8000000045}},{"attributes":{"ID":634837,"DIS_CODE":0,"TOWNNAME":"永康區","LI":"復國里","LIN":"26鄰","STREET":"復華三街","SECT":" ","MAREA":" ","LANE":" ","ALLEY":" ","HOUSE_NO":"６２號十九樓之４","E_COORD97":172711.73999999999,"N_COORD97":2545562.9700000002,"ADDRESS":"復華三街６２號十九樓之４","OBJECTID":634810},"geometry":{"x":172711.74000000115,"y":2545562.9700000007}},{"attributes":{"ID":634838,"DIS_CODE":0,"TOWNNAME":"永康區","LI":"正強里","LIN":"39鄰","STREET":"中正路","SECT":" ","MAREA":" ","LANE":" ","ALLEY":" ","HOUSE_NO":"２５０號五樓","E_COORD97":173204.10000000001,"N_COORD97":2547926.75,"ADDRESS":"中正路２５０號五樓","OBJECTID":634811},"geometry":{"x":173204.09999999963,"y":2547926.75}},{"attributes":{"ID":634839,"DIS_CODE":0,"TOWNNAME":"永康區","LI":"正強里","LIN":"41鄰","STREET":"正強街","SECT":" ","MAREA":" ","LANE":" ","ALLEY":" ","HOUSE_NO":"２９８號二樓之２","E_COORD97":173292.29999999999,"N_COORD97":2547971.0499999998,"ADDRESS":"正強街２９８號二樓之２","OBJECTID":634812},"geometry":{"x":173292.30000000075,"y":2547971.0500000045}},{"attributes":{"ID":634840,"DIS_CODE":0,"TOWNNAME":"永康區","LI":"安康里","LIN":"25鄰","STREET":"大橋一街","SECT":" ","MAREA":" ","LANE":" ","ALLEY":" ","HOUSE_NO":"１４２號四樓","E_COORD97":170858.92000000001,"N_COORD97":2546359.25,"ADDRESS":"大橋一街１４２號四樓","OBJECTID":634813},"geometry":{"x":170858.92000000086,"y":2546359.2500000019}},{"attributes":{"ID":634841,"DIS_CODE":0,"TOWNNAME":"永康區","LI":"安康里","LIN":"26鄰","STREET":"大橋一街","SECT":" ","MAREA":" ","LANE":" ","ALLEY":" ","HOUSE_NO":"５３號二樓之１","E_COORD97":170778.73000000001,"N_COORD97":2546346.7999999998,"ADDRESS":"大橋一街５３號二樓之１","OBJECTID":634814},"geometry":{"x":170778.73000000231,"y":2546346.8000000026}},{"attributes":{"ID":634842,"DIS_CODE":0,"TOWNNAME":"中西區","LI":"銀同里","LIN":"14鄰","STREET":"民權路","SECT":"一段","MAREA":" ","LANE":" ","ALLEY":" ","HOUSE_NO":"２０５號七樓之１","E_COORD97":168765.72,"N_COORD97":2543607.2000000002,"ADDRESS":"民權路一段２０５號七樓之１","OBJECTID":634815},"geometry":{"x":168765.71999999974,"y":2543607.1999999993}},{"attributes":{"ID":634843,"DIS_CODE":0,"TOWNNAME":"中西區","LI":"赤嵌里","LIN":"7鄰","STREET":"廣慈街","SECT":" ","MAREA":" ","LANE":" ","ALLEY":" ","HOUSE_NO":"１１號四樓","E_COORD97":168647.85999999999,"N_COORD97":2544047.77,"ADDRESS":"廣慈街１１號四樓","OBJECTID":634816},"geometry":{"x":168647.86000000034,"y":2544047.7699999996}},{"attributes":{"ID":634844,"DIS_CODE":0,"TOWNNAME":"中西區","LI":"赤嵌里","LIN":"4鄰","STREET":"成功路","SECT":" ","MAREA":" ","LANE":" ","ALLEY":" ","HOUSE_NO":"４３號二樓","E_COORD97":168995.60999999999,"N_COORD97":2544165.0899999999,"ADDRESS":"成功路４３號二樓","OBJECTID":634817},"geometry":{"x":168995.61000000034,"y":2544165.0899999999}},{"attributes":{"ID":634845,"DIS_CODE":0,"TOWNNAME":"中西區","LI":"赤嵌里","LIN":"4鄰","STREET":"成功路","SECT":" ","MAREA":" ","LANE":" ","ALLEY":" ","HOUSE_NO":"４３號三樓","E_COORD97":168995.60999999999,"N_COORD97":2544165.0899999999,"ADDRESS":"成功路４３號三樓","OBJECTID":634818},"geometry":{"x":168995.61000000034,"y":2544165.0899999999}},{"attributes":{"ID":634846,"DIS_CODE":0,"TOWNNAME":"中西區","LI":"赤嵌里","LIN":"4鄰","STREET":"成功路","SECT":" ","MAREA":" ","LANE":" ","ALLEY":" ","HOUSE_NO":"４３號之１二樓","E_COORD97":169003.51000000001,"N_COORD97":2544162.3300000001,"ADDRESS":"成功路４３號之１二樓","OBJECTID":634819},"geometry":{"x":169003.51000000071,"y":2544162.3300000019}},{"attributes":{"ID":634847,"DIS_CODE":0,"TOWNNAME":"中西區","LI":"赤嵌里","LIN":"4鄰","STREET":"成功路","SECT":" ","MAREA":" ","LANE":" ","ALLEY":" ","HOUSE_NO":"４３號之１三樓","E_COORD97":169003.51000000001,"N_COORD97":2544162.3300000001,"ADDRESS":"成功路４３號之１三樓","OBJECTID":634820},"geometry":{"x":169003.51000000071,"y":2544162.3300000019}},{"attributes":{"ID":634848,"DIS_CODE":0,"TOWNNAME":"中西區","LI":"赤嵌里","LIN":"4鄰","STREET":"成功路","SECT":" ","MAREA":" ","LANE":" ","ALLEY":" ","HOUSE_NO":"４３號之２二樓","E_COORD97":169013.23999999999,"N_COORD97":2544159.9500000002,"ADDRESS":"成功路４３號之２二樓","OBJECTID":634821},"geometry":{"x":169013.24000000022,"y":2544159.9500000011}},{"attributes":{"ID":634849,"DIS_CODE":0,"TOWNNAME":"中西區","LI":"赤嵌里","LIN":"4鄰","STREET":"成功路","SECT":" ","MAREA":" ","LANE":" ","ALLEY":" ","HOUSE_NO":"４３號之２三樓","E_COORD97":169013.23999999999,"N_COORD97":2544159.9500000002,"ADDRESS":"成功路４３號之２三樓","OBJECTID":634822},"geometry":{"x":169013.24000000022,"y":2544159.9500000011}},{"attributes":{"ID":634850,"DIS_CODE":0,"TOWNNAME":"中西區","LI":"赤嵌里","LIN":"4鄰","STREET":"成功路","SECT":" ","MAREA":" ","LANE":" ","ALLEY":" ","HOUSE_NO":"４３號之２四樓","E_COORD97":169013.23999999999,"N_COORD97":2544159.9500000002,"ADDRESS":"成功路４３號之２四樓","OBJECTID":634823},"geometry":{"x":169013.24000000022,"y":2544159.9500000011}},{"attributes":{"ID":634851,"DIS_CODE":0,"TOWNNAME":"中西區","LI":"赤嵌里","LIN":"4鄰","STREET":"成功路","SECT":" ","MAREA":" ","LANE":" ","ALLEY":" ","HOUSE_NO":"４３號之３二樓","E_COORD97":169009.26999999999,"N_COORD97":2544137.27,"ADDRESS":"成功路４３號之３二樓","OBJECTID":634824},"geometry":{"x":169009.26999999955,"y":2544137.2700000033}},{"attributes":{"ID":634852,"DIS_CODE":0,"TOWNNAME":"中西區","LI":"赤嵌里","LIN":"4鄰","STREET":"成功路","SECT":" ","MAREA":" ","LANE":" ","ALLEY":" ","HOUSE_NO":"４３號之３三樓","E_COORD97":169009.26999999999,"N_COORD97":2544137.27,"ADDRESS":"成功路４３號之３三樓","OBJECTID":634825},"geometry":{"x":169009.26999999955,"y":2544137.2700000033}},{"attributes":{"ID":634853,"DIS_CODE":0,"TOWNNAME":"中西區","LI":"赤嵌里","LIN":"4鄰","STREET":"成功路","SECT":" ","MAREA":" ","LANE":" ","ALLEY":" ","HOUSE_NO":"４３號之３四樓","E_COORD97":169009.26999999999,"N_COORD97":2544137.27,"ADDRESS":"成功路４３號之３四樓","OBJECTID":634826},"geometry":{"x":169009.26999999955,"y":2544137.2700000033}},{"attributes":{"ID":634854,"DIS_CODE":0,"TOWNNAME":"中西區","LI":"赤嵌里","LIN":"4鄰","STREET":"成功路","SECT":" ","MAREA":" ","LANE":" ","ALLEY":" ","HOUSE_NO":"４３號之４二樓","E_COORD97":168999.26999999999,"N_COORD97":2544141.4900000002,"ADDRESS":"成功路４３號之４二樓","OBJECTID":634827},"geometry":{"x":168999.27000000142,"y":2544141.4900000021}},{"attributes":{"ID":634855,"DIS_CODE":0,"TOWNNAME":"中西區","LI":"赤嵌里","LIN":"4鄰","STREET":"成功路","SECT":" ","MAREA":" ","LANE":" ","ALLEY":" ","HOUSE_NO":"４３號之４三樓","E_COORD97":168999.26999999999,"N_COORD97":2544141.4900000002,"ADDRESS":"成功路４３號之４三樓","OBJECTID":634828},"geometry":{"x":168999.27000000142,"y":2544141.4900000021}},{"attributes":{"ID":634856,"DIS_CODE":0,"TOWNNAME":"中西區","LI":"赤嵌里","LIN":"4鄰","STREET":"成功路","SECT":" ","MAREA":" ","LANE":" ","ALLEY":" ","HOUSE_NO":"４３號之４四樓","E_COORD97":168999.26999999999,"N_COORD97":2544141.4900000002,"ADDRESS":"成功路４３號之４四樓","OBJECTID":634829},"geometry":{"x":168999.27000000142,"y":2544141.4900000021}},{"attributes":{"ID":634857,"DIS_CODE":0,"TOWNNAME":"中西區","LI":"赤嵌里","LIN":"4鄰","STREET":"成功路","SECT":" ","MAREA":" ","LANE":" ","ALLEY":" ","HOUSE_NO":"４３號四樓","E_COORD97":168995.60999999999,"N_COORD97":2544165.0899999999,"ADDRESS":"成功路４３號四樓","OBJECTID":634830},"geometry":{"x":168995.61000000034,"y":2544165.0899999999}},{"attributes":{"ID":634858,"DIS_CODE":0,"TOWNNAME":"中西區","LI":"天后里","LIN":"13鄰","STREET":"赤嵌街","SECT":" ","MAREA":" ","LANE":" ","ALLEY":" ","HOUSE_NO":"１３號七樓之１","E_COORD97":168203.32000000001,"N_COORD97":2544247.9900000002,"ADDRESS":"赤嵌街１３號七樓之１","OBJECTID":634831},"geometry":{"x":168203.32000000123,"y":2544247.9900000002}},{"attributes":{"ID":634859,"DIS_CODE":0,"TOWNNAME":"中西區","LI":"天后里","LIN":"13鄰","STREET":"赤嵌街","SECT":" ","MAREA":" ","LANE":" ","ALLEY":" ","HOUSE_NO":"１３號七樓之２","E_COORD97":168203.32000000001,"N_COORD97":2544247.9900000002,"ADDRESS":"赤嵌街１３號七樓之２","OBJECTID":634832},"geometry":{"x":168203.32000000123,"y":2544247.9900000002}},{"attributes":{"ID":634860,"DIS_CODE":0,"TOWNNAME":"仁德區","LI":"新田里","LIN":"4鄰","STREET":"新田路","SECT":" ","MAREA":" ","LANE":" ","ALLEY":" ","HOUSE_NO":"２２５號二樓","E_COORD97":174464.70999999999,"N_COORD97":2539703.0099999998,"ADDRESS":"新田路２２５號二樓","OBJECTID":634833},"geometry":{"x":174464.70999999996,"y":2539703.0099999998}},{"attributes":{"ID":634861,"DIS_CODE":0,"TOWNNAME":"仁德區","LI":"新田里","LIN":"4鄰","STREET":"新田路","SECT":" ","MAREA":" ","LANE":" ","ALLEY":" ","HOUSE_NO":"２２５號三樓","E_COORD97":174464.70999999999,"N_COORD97":2539703.0099999998,"ADDRESS":"新田路２２５號三樓","OBJECTID":634834},"geometry":{"x":174464.70999999996,"y":2539703.0099999998}},{"attributes":{"ID":634862,"DIS_CODE":0,"TOWNNAME":"中西區","LI":"青年里","LIN":"13鄰","STREET":"民權路","SECT":"一段","MAREA":" ","LANE":" ","ALLEY":" ","HOUSE_NO":"２５５號一樓之１","E_COORD97":168697.67000000001,"N_COORD97":2543718.4900000002,"ADDRESS":"民權路一段２５５號一樓之１","OBJECTID":634835},"geometry":{"x":168697.67000000086,"y":2543718.4900000002}},{"attributes":{"ID":634863,"DIS_CODE":0,"TOWNNAME":"中西區","LI":"青年里","LIN":"13鄰","STREET":"民權路","SECT":"一段","MAREA":" ","LANE":" ","ALLEY":" ","HOUSE_NO":"２５５號一樓之２","E_COORD97":168696.01999999999,"N_COORD97":2543722.27,"ADDRESS":"民權路一段２５５號一樓之２","OBJECTID":634836},"geometry":{"x":168696.02000000048,"y":2543722.2699999996}},{"attributes":{"ID":634864,"DIS_CODE":0,"TOWNNAME":"中西區","LI":"青年里","LIN":"13鄰","STREET":"民權路","SECT":"一段","MAREA":" ","LANE":" ","ALLEY":" ","HOUSE_NO":"２５５號七樓之１","E_COORD97":168696.01999999999,"N_COORD97":2543722.27,"ADDRESS":"民權路一段２５５號七樓之１","OBJECTID":634837},"geometry":{"x":168696.02000000048,"y":2543722.2699999996}},{"attributes":{"ID":634865,"DIS_CODE":0,"TOWNNAME":"中西區","LI":"青年里","LIN":"13鄰","STREET":"民權路","SECT":"一段","MAREA":" ","LANE":" ","ALLEY":" ","HOUSE_NO":"２５５號七樓之２","E_COORD97":168696.01999999999,"N_COORD97":2543722.27,"ADDRESS":"民權路一段２５５號七樓之２","OBJECTID":634838},"geometry":{"x":168696.02000000048,"y":2543722.2699999996}},{"attributes":{"ID":634866,"DIS_CODE":0,"TOWNNAME":"中西區","LI":"青年里","LIN":"13鄰","STREET":"民權路","SECT":"一段","MAREA":" ","LANE":" ","ALLEY":" ","HOUSE_NO":"２５５號二樓之１","E_COORD97":168696.01999999999,"N_COORD97":2543722.27,"ADDRESS":"民權路一段２５５號二樓之１","OBJECTID":634839},"geometry":{"x":168696.02000000048,"y":2543722.2699999996}},{"attributes":{"ID":634867,"DIS_CODE":0,"TOWNNAME":"中西區","LI":"青年里","LIN":"13鄰","STREET":"民權路","SECT":"一段","MAREA":" ","LANE":" ","ALLEY":" ","HOUSE_NO":"２５５號二樓之２","E_COORD97":168696.01999999999,"N_COORD97":2543722.27,"ADDRESS":"民權路一段２５５號二樓之２","OBJECTID":634840},"geometry":{"x":168696.02000000048,"y":2543722.2699999996}},{"attributes":{"ID":634868,"DIS_CODE":0,"TOWNNAME":"中西區","LI":"青年里","LIN":"13鄰","STREET":"民權路","SECT":"一段","MAREA":" ","LANE":" ","ALLEY":" ","HOUSE_NO":"２５５號二樓之３","E_COORD97":168696.01999999999,"N_COORD97":2543722.27,"ADDRESS":"民權路一段２５５號二樓之３","OBJECTID":634841},"geometry":{"x":168696.02000000048,"y":2543722.2699999996}},{"attributes":{"ID":634869,"DIS_CODE":0,"TOWNNAME":"學甲區","LI":"明宜里","LIN":"15鄰","STREET":"重信路","SECT":" ","MAREA":" ","LANE":" ","ALLEY":" ","HOUSE_NO":"１號十樓之６","E_COORD97":166124.82999999999,"N_COORD97":2570564.8900000001,"ADDRESS":"重信路１號十樓之６","OBJECTID":634842},"geometry":{"x":166124.83000000101,"y":2570564.8900000006}},{"attributes":{"ID":634870,"DIS_CODE":0,"TOWNNAME":"中西區","LI":"大南里","LIN":" ","STREET":"樹林街","SECT":"二段","MAREA":" ","LANE":" ","ALLEY":" ","HOUSE_NO":"１１３號四樓","E_COORD97":168330.82000000001,"N_COORD97":2542943.7799999998,"ADDRESS":"樹林街二段１１３號四樓","OBJECTID":634843},"geometry":{"x":168330.82000000123,"y":2542943.7800000012}},{"attributes":{"ID":634871,"DIS_CODE":0,"TOWNNAME":"中西區","LI":"法華里","LIN":" ","STREET":"慶中街","SECT":" ","MAREA":" ","LANE":" ","ALLEY":" ","HOUSE_NO":"２號一樓","E_COORD97":168555.60000000001,"N_COORD97":2542479.7599999998,"ADDRESS":"慶中街２號一樓","OBJECTID":634844},"geometry":{"x":168555.59999999963,"y":2542479.7600000035}},{"attributes":{"ID":634872,"DIS_CODE":0,"TOWNNAME":"中西區","LI":"法華里","LIN":" ","STREET":"法華街","SECT":" ","MAREA":" ","LANE":" ","ALLEY":" ","HOUSE_NO":"１７６號六樓","E_COORD97":168858.97,"N_COORD97":2542526.6800000002,"ADDRESS":"法華街１７６號六樓","OBJECTID":634845},"geometry":{"x":168858.96999999881,"y":2542526.6799999997}},{"attributes":{"ID":634873,"DIS_CODE":0,"TOWNNAME":"東區","LI":"崇成里","LIN":"12鄰","STREET":"崇明十五街","SECT":" ","MAREA":" ","LANE":" ","ALLEY":" ","HOUSE_NO":"２號二樓","E_COORD97":170637.54999999999,"N_COORD97":2541339.6699999999,"ADDRESS":"崇明十五街２號二樓","OBJECTID":634846},"geometry":{"x":170637.55000000075,"y":2541339.6699999999}},{"attributes":{"ID":634874,"DIS_CODE":0,"TOWNNAME":"中西區","LI":"法華里","LIN":" ","STREET":"法華街","SECT":" ","MAREA":" ","LANE":" ","ALLEY":" ","HOUSE_NO":"１７６號之３二樓","E_COORD97":168842.44,"N_COORD97":2542526.29,"ADDRESS":"法華街１７６號之３二樓","OBJECTID":634847},"geometry":{"x":168842.44000000041,"y":2542526.2900000028}},{"attributes":{"ID":634875,"DIS_CODE":0,"TOWNNAME":"中西區","LI":"青年里","LIN":" ","STREET":"青年路","SECT":" ","MAREA":" ","LANE":" ","ALLEY":" ","HOUSE_NO":"１２３號四樓之１","E_COORD97":168875.79000000001,"N_COORD97":2543627.3300000001,"ADDRESS":"青年路１２３號四樓之１","OBJECTID":634848},"geometry":{"x":168875.78999999911,"y":2543627.3300000001}},{"attributes":{"ID":634876,"DIS_CODE":0,"TOWNNAME":"中西區","LI":"青年里","LIN":" ","STREET":"青年路","SECT":" ","MAREA":" ","LANE":" ","ALLEY":" ","HOUSE_NO":"１２３號四樓之２","E_COORD97":168875.79000000001,"N_COORD97":2543627.3300000001,"ADDRESS":"青年路１２３號四樓之２","OBJECTID":634849},"geometry":{"x":168875.78999999911,"y":2543627.3300000001}},{"attributes":{"ID":634877,"DIS_CODE":0,"TOWNNAME":"中西區","LI":"青年里","LIN":" ","STREET":"青年路","SECT":" ","MAREA":" ","LANE":" ","ALLEY":" ","HOUSE_NO":"１２３號三樓之１","E_COORD97":168875.79000000001,"N_COORD97":2543627.3300000001,"ADDRESS":"青年路１２３號三樓之１","OBJECTID":634850},"geometry":{"x":168875.78999999911,"y":2543627.3300000001}},{"attributes":{"ID":634878,"DIS_CODE":0,"TOWNNAME":"中西區","LI":"青年里","LIN":" ","STREET":"青年路","SECT":" ","MAREA":" ","LANE":" ","ALLEY":" ","HOUSE_NO":"１２３號三樓之２","E_COORD97":168875.79000000001,"N_COORD97":2543627.3300000001,"ADDRESS":"青年路１２３號三樓之２","OBJECTID":634851},"geometry":{"x":168875.78999999911,"y":2543627.3300000001}},{"attributes":{"ID":634879,"DIS_CODE":0,"TOWNNAME":"中西區","LI":"青年里","LIN":" ","STREET":"北門路","SECT":"一段","MAREA":" ","LANE":" ","ALLEY":" ","HOUSE_NO":"９７號十一樓之五","E_COORD97":169151.59,"N_COORD97":2543595.6000000001,"ADDRESS":"北門路一段９７號十一樓之五","OBJECTID":634852},"geometry":{"x":169151.58999999892,"y":2543595.5999999996}},{"attributes":{"ID":634880,"DIS_CODE":0,"TOWNNAME":"中西區","LI":"青年里","LIN":" ","STREET":"民權路","SECT":"一段","MAREA":" ","LANE":" ","ALLEY":" ","HOUSE_NO":"２３１號二樓","E_COORD97":168721.34,"N_COORD97":2543674.8199999998,"ADDRESS":"民權路一段２３１號二樓","OBJECTID":634853},"geometry":{"x":168721.34000000078,"y":2543674.8200000022}},{"attributes":{"ID":634881,"DIS_CODE":0,"TOWNNAME":"中西區","LI":"青年里","LIN":" ","STREET":"民權路","SECT":"一段","MAREA":" ","LANE":" ","ALLEY":" ","HOUSE_NO":"２３１號三樓","E_COORD97":168721.34,"N_COORD97":2543674.8199999998,"ADDRESS":"民權路一段２３１號三樓","OBJECTID":634854},"geometry":{"x":168721.34000000078,"y":2543674.8200000022}},{"attributes":{"ID":634882,"DIS_CODE":0,"TOWNNAME":"中西區","LI":"青年里","LIN":" ","STREET":"民權路","SECT":"一段","MAREA":" ","LANE":" ","ALLEY":" ","HOUSE_NO":"２３３號二樓","E_COORD97":168721.84,"N_COORD97":2543679.9399999999,"ADDRESS":"民權路一段２３３號二樓","OBJECTID":634855},"geometry":{"x":168721.84000000078,"y":2543679.9400000013}},{"attributes":{"ID":634883,"DIS_CODE":0,"TOWNNAME":"中西區","LI":"青年里","LIN":" ","STREET":"民權路","SECT":"一段","MAREA":" ","LANE":" ","ALLEY":" ","HOUSE_NO":"２６７號二樓","E_COORD97":168687.51999999999,"N_COORD97":2543738.6800000002,"ADDRESS":"民權路一段２６７號二樓","OBJECTID":634856},"geometry":{"x":168687.52000000048,"y":2543738.6800000016}},{"attributes":{"ID":634884,"DIS_CODE":0,"TOWNNAME":"中西區","LI":"青年里","LIN":" ","STREET":"民權路","SECT":"一段","MAREA":" ","LANE":" ","ALLEY":" ","HOUSE_NO":"２６７號三樓","E_COORD97":168687.51999999999,"N_COORD97":2543738.6800000002,"ADDRESS":"民權路一段２６７號三樓","OBJECTID":634857},"geometry":{"x":168687.52000000048,"y":2543738.6800000016}},{"attributes":{"ID":634885,"DIS_CODE":0,"TOWNNAME":"中西區","LI":"青年里","LIN":" ","STREET":"民權路","SECT":"一段","MAREA":" ","LANE":" ","ALLEY":" ","HOUSE_NO":"２６７號四樓","E_COORD97":168687.51999999999,"N_COORD97":2543738.6800000002,"ADDRESS":"民權路一段２６７號四樓","OBJECTID":634858},"geometry":{"x":168687.52000000048,"y":2543738.6800000016}},{"attributes":{"ID":634886,"DIS_CODE":0,"TOWNNAME":"中西區","LI":"郡王里","LIN":" ","STREET":"開山路","SECT":" ","MAREA":" ","LANE":" ","ALLEY":" ","HOUSE_NO":"２１２號二樓之１","E_COORD97":168969.72,"N_COORD97":2542987.1400000001,"ADDRESS":"開山路２１２號二樓之１","OBJECTID":634859},"geometry":{"x":168969.72000000067,"y":2542987.1400000025}},{"attributes":{"ID":634887,"DIS_CODE":0,"TOWNNAME":"中西區","LI":"民主里","LIN":"13鄰","STREET":"金華路","SECT":"三段","MAREA":" ","LANE":" ","ALLEY":" ","HOUSE_NO":"１７６號四樓之１","E_COORD97":167315.42999999999,"N_COORD97":2543780.2599999998,"ADDRESS":"金華路三段１７６號四樓之１","OBJECTID":634860},"geometry":{"x":167315.43000000063,"y":2543780.2599999998}},{"attributes":{"ID":634888,"DIS_CODE":0,"TOWNNAME":"中西區","LI":"公正里","LIN":"8鄰","STREET":"民族路","SECT":"二段","MAREA":" ","LANE":" ","ALLEY":" ","HOUSE_NO":"６７號七樓","E_COORD97":168974.97,"N_COORD97":2543870.1200000001,"ADDRESS":"民族路二段６７號七樓","OBJECTID":634861},"geometry":{"x":168974.97000000067,"y":2543870.1200000029}},{"attributes":{"ID":634889,"DIS_CODE":0,"TOWNNAME":"中西區","LI":"三合里","LIN":"8鄰","STREET":"成功路","SECT":" ","MAREA":" ","LANE":" ","ALLEY":" ","HOUSE_NO":"４５７號六樓之１","E_COORD97":167602.39000000001,"N_COORD97":2544649.3900000001,"ADDRESS":"成功路４５７號六樓之１","OBJECTID":634862},"geometry":{"x":167602.3900000006,"y":2544649.3900000043}},{"attributes":{"ID":634890,"DIS_CODE":0,"TOWNNAME":"安南區","LI":"海東里","LIN":"22鄰","STREET":"同安路","SECT":" ","MAREA":" ","LANE":" ","ALLEY":" ","HOUSE_NO":"１號三樓","E_COORD97":166795.54999999999,"N_COORD97":2548847.9300000002,"ADDRESS":"同安路１號三樓","OBJECTID":634863},"geometry":{"x":166795.55000000168,"y":2548847.9299999997}},{"attributes":{"ID":634891,"DIS_CODE":0,"TOWNNAME":"學甲區","LI":"明宜里","LIN":"15鄰","STREET":"重信路","SECT":" ","MAREA":" ","LANE":" ","ALLEY":" ","HOUSE_NO":"１號十樓之７","E_COORD97":166124.82999999999,"N_COORD97":2570564.8900000001,"ADDRESS":"重信路１號十樓之７","OBJECTID":634864},"geometry":{"x":166124.83000000101,"y":2570564.8900000006}},{"attributes":{"ID":634892,"DIS_CODE":0,"TOWNNAME":"安南區","LI":"溪東里","LIN":"21鄰","STREET":"郡安路","SECT":"五段","MAREA":" ","LANE":" ","ALLEY":" ","HOUSE_NO":"２９號十樓","E_COORD97":168219.04000000001,"N_COORD97":2547658.77,"ADDRESS":"郡安路五段２９號十樓","OBJECTID":634865},"geometry":{"x":168219.04000000004,"y":2547658.7699999996}},{"attributes":{"ID":634893,"DIS_CODE":0,"TOWNNAME":"安南區","LI":"溪東里","LIN":"21鄰","STREET":"郡安路","SECT":"五段","MAREA":" ","LANE":" ","ALLEY":" ","HOUSE_NO":"２９號六樓","E_COORD97":168219.04000000001,"N_COORD97":2547658.77,"ADDRESS":"郡安路五段２９號六樓","OBJECTID":634866},"geometry":{"x":168219.04000000004,"y":2547658.7699999996}},{"attributes":{"ID":634894,"DIS_CODE":0,"TOWNNAME":"安南區","LI":"溪東里","LIN":"21鄰","STREET":"郡安路","SECT":"五段","MAREA":" ","LANE":" ","ALLEY":" ","HOUSE_NO":"２９號四樓","E_COORD97":168219.04000000001,"N_COORD97":2547658.77,"ADDRESS":"郡安路五段２９號四樓","OBJECTID":634867},"geometry":{"x":168219.04000000004,"y":2547658.7699999996}},{"attributes":{"ID":634895,"DIS_CODE":0,"TOWNNAME":"安南區","LI":"溪東里","LIN":"21鄰","STREET":"郡安路","SECT":"五段","MAREA":" ","LANE":" ","ALLEY":" ","HOUSE_NO":"３０號八樓","E_COORD97":168214.37,"N_COORD97":2547659.79,"ADDRESS":"郡安路五段３０號八樓","OBJECTID":634868},"geometry":{"x":168214.37000000197,"y":2547659.790000001}},{"attributes":{"ID":634896,"DIS_CODE":0,"TOWNNAME":"安南區","LI":"溪東里","LIN":"21鄰","STREET":"郡安路","SECT":"五段","MAREA":" ","LANE":" ","ALLEY":" ","HOUSE_NO":"３０號六樓","E_COORD97":168214.37,"N_COORD97":2547659.79,"ADDRESS":"郡安路五段３０號六樓","OBJECTID":634869},"geometry":{"x":168214.37000000197,"y":2547659.790000001}},{"attributes":{"ID":634897,"DIS_CODE":0,"TOWNNAME":"安南區","LI":"溪東里","LIN":"21鄰","STREET":"郡安路","SECT":"五段","MAREA":" ","LANE":" ","ALLEY":" ","HOUSE_NO":"３０號四樓","E_COORD97":168214.37,"N_COORD97":2547659.79,"ADDRESS":"郡安路五段３０號四樓","OBJECTID":634870},"geometry":{"x":168214.37000000197,"y":2547659.790000001}},{"attributes":{"ID":634898,"DIS_CODE":0,"TOWNNAME":"東區","LI":"自強里","LIN":"23鄰","STREET":"富農街","SECT":"一段","MAREA":" ","LANE":" ","ALLEY":" ","HOUSE_NO":"１９５號四樓","E_COORD97":171553.01000000001,"N_COORD97":2542599.2200000002,"ADDRESS":"富農街一段１９５號四樓","OBJECTID":634871},"geometry":{"x":171553.01000000071,"y":2542599.2200000007}},{"attributes":{"ID":634899,"DIS_CODE":0,"TOWNNAME":"學甲區","LI":"明宜里","LIN":"15鄰","STREET":"重信路","SECT":" ","MAREA":" ","LANE":" ","ALLEY":" ","HOUSE_NO":"１號三樓之１","E_COORD97":166124.82999999999,"N_COORD97":2570564.8900000001,"ADDRESS":"重信路１號三樓之１","OBJECTID":634872},"geometry":{"x":166124.83000000101,"y":2570564.8900000006}},{"attributes":{"ID":634900,"DIS_CODE":0,"TOWNNAME":"東區","LI":"自強里","LIN":"23鄰","STREET":"富農街","SECT":"一段","MAREA":" ","LANE":" ","ALLEY":" ","HOUSE_NO":"１９７號七樓","E_COORD97":171557.91,"N_COORD97":2542611.8300000001,"ADDRESS":"富農街一段１９７號七樓","OBJECTID":634873},"geometry":{"x":171557.91000000015,"y":2542611.8300000038}},{"attributes":{"ID":634901,"DIS_CODE":0,"TOWNNAME":"東區","LI":"自強里","LIN":"23鄰","STREET":"富農街","SECT":"一段","MAREA":" ","LANE":" ","ALLEY":" ","HOUSE_NO":"１９７號五樓","E_COORD97":171557.91,"N_COORD97":2542611.8300000001,"ADDRESS":"富農街一段１９７號五樓","OBJECTID":634874},"geometry":{"x":171557.91000000015,"y":2542611.8300000038}},{"attributes":{"ID":634902,"DIS_CODE":0,"TOWNNAME":"學甲區","LI":"明宜里","LIN":"15鄰","STREET":"重信路","SECT":" ","MAREA":" ","LANE":" ","ALLEY":" ","HOUSE_NO":"１號三樓之３","E_COORD97":166124.82999999999,"N_COORD97":2570564.8900000001,"ADDRESS":"重信路１號三樓之３","OBJECTID":634875},"geometry":{"x":166124.83000000101,"y":2570564.8900000006}},{"attributes":{"ID":634903,"DIS_CODE":0,"TOWNNAME":"學甲區","LI":"明宜里","LIN":"15鄰","STREET":"重信路","SECT":" ","MAREA":" ","LANE":" ","ALLEY":" ","HOUSE_NO":"１號三樓之５","E_COORD97":166124.82999999999,"N_COORD97":2570564.8900000001,"ADDRESS":"重信路１號三樓之５","OBJECTID":634876},"geometry":{"x":166124.83000000101,"y":2570564.8900000006}},{"attributes":{"ID":634904,"DIS_CODE":0,"TOWNNAME":"永康區","LI":"永康里","LIN":"39鄰","STREET":"永大一路","SECT":" ","MAREA":" ","LANE":" ","ALLEY":" ","HOUSE_NO":"６２號九樓之１","E_COORD97":174180.54000000001,"N_COORD97":2546456.7200000002,"ADDRESS":"永大一路６２號九樓之１","OBJECTID":634877},"geometry":{"x":174180.54000000097,"y":2546456.7200000007}},{"attributes":{"ID":634905,"DIS_CODE":0,"TOWNNAME":"永康區","LI":"龍潭里","LIN":"5鄰","STREET":"龍埔街","SECT":" ","MAREA":" ","LANE":" ","ALLEY":" ","HOUSE_NO":"８５號十樓之１５","E_COORD97":174621.10000000001,"N_COORD97":2548225.75,"ADDRESS":"龍埔街８５號十樓之１５","OBJECTID":634878},"geometry":{"x":174621.09999999963,"y":2548225.75}},{"attributes":{"ID":634906,"DIS_CODE":0,"TOWNNAME":"永康區","LI":"復國里","LIN":"20鄰","STREET":"國華街","SECT":" ","MAREA":" ","LANE":" ","ALLEY":" ","HOUSE_NO":"６１號九樓之１","E_COORD97":172830.23000000001,"N_COORD97":2545750.4199999999,"ADDRESS":"國華街６１號九樓之１","OBJECTID":634879},"geometry":{"x":172830.23000000138,"y":2545750.4200000037}},{"attributes":{"ID":634907,"DIS_CODE":0,"TOWNNAME":"永康區","LI":"中華里","LIN":"20鄰","STREET":"小東路","SECT":" ","MAREA":" ","LANE":" ","ALLEY":" ","HOUSE_NO":"４７３號之５２七樓","E_COORD97":171593.10999999999,"N_COORD97":2544367.3500000001,"ADDRESS":"小東路４７３號之５２七樓","OBJECTID":634880},"geometry":{"x":171593.1100000022,"y":2544367.3500000034}},{"attributes":{"ID":634908,"DIS_CODE":0,"TOWNNAME":"永康區","LI":"安康里","LIN":"26鄰","STREET":"大橋一街","SECT":" ","MAREA":" ","LANE":" ","ALLEY":" ","HOUSE_NO":"５３號十一樓之１","E_COORD97":170779.98000000001,"N_COORD97":2546346.7999999998,"ADDRESS":"大橋一街５３號十一樓之１","OBJECTID":634881},"geometry":{"x":170779.98000000045,"y":2546346.8000000026}},{"attributes":{"ID":634909,"DIS_CODE":0,"TOWNNAME":"永康區","LI":"安康里","LIN":"25鄰","STREET":"大橋一街","SECT":" ","MAREA":" ","LANE":" ","ALLEY":" ","HOUSE_NO":"１３８號三樓","E_COORD97":170849.39999999999,"N_COORD97":2546368.75,"ADDRESS":"大橋一街１３８號三樓","OBJECTID":634882},"geometry":{"x":170849.4000000013,"y":2546368.7500000037}},{"attributes":{"ID":634910,"DIS_CODE":0,"TOWNNAME":"永康區","LI":"安康里","LIN":"25鄰","STREET":"大橋一街","SECT":" ","MAREA":" ","LANE":" ","ALLEY":" ","HOUSE_NO":"１４４號三樓","E_COORD97":170862.06,"N_COORD97":2546356.5,"ADDRESS":"大橋一街１４４號三樓","OBJECTID":634883},"geometry":{"x":170862.06000000145,"y":2546356.5}},{"attributes":{"ID":634911,"DIS_CODE":0,"TOWNNAME":"永康區","LI":"安康里","LIN":"25鄰","STREET":"大橋一街","SECT":" ","MAREA":" ","LANE":" ","ALLEY":" ","HOUSE_NO":"１５０號三樓之１","E_COORD97":170864.67999999999,"N_COORD97":2546376.79,"ADDRESS":"大橋一街１５０號三樓之１","OBJECTID":634884},"geometry":{"x":170864.68000000156,"y":2546376.7899999991}},{"attributes":{"ID":634912,"DIS_CODE":0,"TOWNNAME":"永康區","LI":"大橋里","LIN":"4鄰","STREET":"大橋五街","SECT":" ","MAREA":" ","LANE":" ","ALLEY":" ","HOUSE_NO":"１４１號二樓之２","E_COORD97":170968.88,"N_COORD97":2547008.29,"ADDRESS":"大橋五街１４１號二樓之２","OBJECTID":634885},"geometry":{"x":170968.88000000082,"y":2547008.2900000028}},{"attributes":{"ID":634913,"DIS_CODE":0,"TOWNNAME":"永康區","LI":"永康里","LIN":"26鄰","STREET":"中山北路","SECT":" ","MAREA":" ","LANE":" ","ALLEY":" ","HOUSE_NO":"７０號八樓之１","E_COORD97":174075.35000000001,"N_COORD97":2547398.25,"ADDRESS":"中山北路７０號八樓之１","OBJECTID":634886},"geometry":{"x":174075.34999999963,"y":2547398.25}},{"attributes":{"ID":634914,"DIS_CODE":0,"TOWNNAME":"永康區","LI":"西灣里","LIN":"24鄰","STREET":"國光八街","SECT":" ","MAREA":" ","LANE":" ","ALLEY":" ","HOUSE_NO":"７號三樓","E_COORD97":174424.04000000001,"N_COORD97":2545749,"ADDRESS":"國光八街７號三樓","OBJECTID":634887},"geometry":{"x":174424.04000000004,"y":2545749}},{"attributes":{"ID":634915,"DIS_CODE":0,"TOWNNAME":"永康區","LI":"西灣里","LIN":"20鄰","STREET":"文賢街","SECT":" ","MAREA":" ","LANE":" ","ALLEY":" ","HOUSE_NO":"４７８號四樓","E_COORD97":174582.26000000001,"N_COORD97":2545854.8199999998,"ADDRESS":"文賢街４７８號四樓","OBJECTID":634888},"geometry":{"x":174582.26000000071,"y":2545854.8200000022}},{"attributes":{"ID":634916,"DIS_CODE":0,"TOWNNAME":"永康區","LI":"東灣里","LIN":"17鄰","STREET":"大灣三街","SECT":" ","MAREA":" ","LANE":" ","ALLEY":" ","HOUSE_NO":"４３號四樓之３","E_COORD97":174978.92000000001,"N_COORD97":2544922.3799999999,"ADDRESS":"大灣三街４３號四樓之３","OBJECTID":634889},"geometry":{"x":174978.91999999993,"y":2544922.3800000027}},{"attributes":{"ID":634917,"DIS_CODE":0,"TOWNNAME":"永康區","LI":"東灣里","LIN":"17鄰","STREET":"大灣三街","SECT":" ","MAREA":" ","LANE":" ","ALLEY":" ","HOUSE_NO":"４３號四樓之２","E_COORD97":174978.95999999999,"N_COORD97":2544922.3799999999,"ADDRESS":"大灣三街４３號四樓之２","OBJECTID":634890},"geometry":{"x":174978.95999999903,"y":2544922.3800000027}},{"attributes":{"ID":634918,"DIS_CODE":0,"TOWNNAME":"永康區","LI":"東灣里","LIN":"17鄰","STREET":"大灣三街","SECT":" ","MAREA":" ","LANE":" ","ALLEY":" ","HOUSE_NO":"４３號四樓之１","E_COORD97":174978.82000000001,"N_COORD97":2544922.3799999999,"ADDRESS":"大灣三街４３號四樓之１","OBJECTID":634891},"geometry":{"x":174978.82000000123,"y":2544922.3800000027}},{"attributes":{"ID":634919,"DIS_CODE":0,"TOWNNAME":"永康區","LI":"東灣里","LIN":"17鄰","STREET":"大灣三街","SECT":" ","MAREA":" ","LANE":" ","ALLEY":" ","HOUSE_NO":"４３號二樓之５","E_COORD97":174978.98000000001,"N_COORD97":2544922.3799999999,"ADDRESS":"大灣三街４３號二樓之５","OBJECTID":634892},"geometry":{"x":174978.98000000045,"y":2544922.3800000027}},{"attributes":{"ID":634920,"DIS_CODE":0,"TOWNNAME":"永康區","LI":"東灣里","LIN":"17鄰","STREET":"大灣三街","SECT":" ","MAREA":" ","LANE":" ","ALLEY":" ","HOUSE_NO":"４３號六樓之３","E_COORD97":174978.92000000001,"N_COORD97":2544922.3799999999,"ADDRESS":"大灣三街４３號六樓之３","OBJECTID":634893},"geometry":{"x":174978.91999999993,"y":2544922.3800000027}},{"attributes":{"ID":634921,"DIS_CODE":0,"TOWNNAME":"永康區","LI":"東灣里","LIN":"17鄰","STREET":"大灣三街","SECT":" ","MAREA":" ","LANE":" ","ALLEY":" ","HOUSE_NO":"４３號七樓之５","E_COORD97":174978.98000000001,"N_COORD97":2544922.3799999999,"ADDRESS":"大灣三街４３號七樓之５","OBJECTID":634894},"geometry":{"x":174978.98000000045,"y":2544922.3800000027}},{"attributes":{"ID":634922,"DIS_CODE":0,"TOWNNAME":"永康區","LI":"東灣里","LIN":"17鄰","STREET":"大灣三街","SECT":" ","MAREA":" ","LANE":" ","ALLEY":" ","HOUSE_NO":"４３號四樓之５","E_COORD97":174978.98000000001,"N_COORD97":2544922.3799999999,"ADDRESS":"大灣三街４３號四樓之５","OBJECTID":634895},"geometry":{"x":174978.98000000045,"y":2544922.3800000027}},{"attributes":{"ID":634923,"DIS_CODE":0,"TOWNNAME":"永康區","LI":"東灣里","LIN":"17鄰","STREET":"大灣三街","SECT":" ","MAREA":" ","LANE":" ","ALLEY":" ","HOUSE_NO":"４３號七樓之３","E_COORD97":174978.92000000001,"N_COORD97":2544922.3799999999,"ADDRESS":"大灣三街４３號七樓之３","OBJECTID":634896},"geometry":{"x":174978.91999999993,"y":2544922.3800000027}},{"attributes":{"ID":634924,"DIS_CODE":0,"TOWNNAME":"永康區","LI":"東灣里","LIN":"37鄰","STREET":"大灣三街","SECT":" ","MAREA":" ","LANE":" ","ALLEY":" ","HOUSE_NO":"７號三樓之１","E_COORD97":175070.07999999999,"N_COORD97":2544843.54,"ADDRESS":"大灣三街７號三樓之１","OBJECTID":634897},"geometry":{"x":175070.08000000101,"y":2544843.5400000028}},{"attributes":{"ID":634925,"DIS_CODE":0,"TOWNNAME":"永康區","LI":"東灣里","LIN":"37鄰","STREET":"大灣三街","SECT":" ","MAREA":" ","LANE":" ","ALLEY":" ","HOUSE_NO":"５號二樓之３","E_COORD97":175081.17000000001,"N_COORD97":2544850.04,"ADDRESS":"大灣三街５號二樓之３","OBJECTID":634898},"geometry":{"x":175081.17000000086,"y":2544850.0399999972}},{"attributes":{"ID":634926,"DIS_CODE":0,"TOWNNAME":"永康區","LI":"東灣里","LIN":"37鄰","STREET":"大灣三街","SECT":" ","MAREA":" ","LANE":" ","ALLEY":" ","HOUSE_NO":"７號二樓之２","E_COORD97":175070.22,"N_COORD97":2544843.54,"ADDRESS":"大灣三街７號二樓之２","OBJECTID":634899},"geometry":{"x":175070.2200000016,"y":2544843.5400000028}},{"attributes":{"ID":634927,"DIS_CODE":0,"TOWNNAME":"永康區","LI":"東灣里","LIN":"37鄰","STREET":"大灣三街","SECT":" ","MAREA":" ","LANE":" ","ALLEY":" ","HOUSE_NO":"７號四樓之２","E_COORD97":175070.22,"N_COORD97":2544843.54,"ADDRESS":"大灣三街７號四樓之２","OBJECTID":634900},"geometry":{"x":175070.2200000016,"y":2544843.5400000028}},{"attributes":{"ID":634928,"DIS_CODE":0,"TOWNNAME":"佳里區","LI":"安西里","LIN":"3鄰","STREET":"光復路","SECT":" ","MAREA":" ","LANE":" ","ALLEY":" ","HOUSE_NO":"２９６號七樓之１","E_COORD97":165521.54000000001,"N_COORD97":2562653.8300000001,"ADDRESS":"光復路２９６號七樓之１","OBJECTID":634901},"geometry":{"x":165521.54000000097,"y":2562653.8300000019}},{"attributes":{"ID":634929,"DIS_CODE":0,"TOWNNAME":"佳里區","LI":"安西里","LIN":"3鄰","STREET":"光復路","SECT":" ","MAREA":" ","LANE":" ","ALLEY":" ","HOUSE_NO":"２９６號七樓之１０","E_COORD97":165521.54000000001,"N_COORD97":2562653.8300000001,"ADDRESS":"光復路２９６號七樓之１０","OBJECTID":634902},"geometry":{"x":165521.54000000097,"y":2562653.8300000019}},{"attributes":{"ID":634930,"DIS_CODE":0,"TOWNNAME":"中西區","LI":"安海里","LIN":"4鄰","STREET":"金華路","SECT":"三段","MAREA":" ","LANE":" ","ALLEY":" ","HOUSE_NO":"２３０號十一樓之１０","E_COORD97":167356.13,"N_COORD97":2543956.71,"ADDRESS":"金華路三段２３０號十一樓之１０","OBJECTID":634903},"geometry":{"x":167356.12999999896,"y":2543956.7100000028}},{"attributes":{"ID":634931,"DIS_CODE":0,"TOWNNAME":"中西區","LI":"安海里","LIN":"4鄰","STREET":"金華路","SECT":"三段","MAREA":" ","LANE":" ","ALLEY":" ","HOUSE_NO":"２３０號十一樓之１１","E_COORD97":167356.13,"N_COORD97":2543956.71,"ADDRESS":"金華路三段２３０號十一樓之１１","OBJECTID":634904},"geometry":{"x":167356.12999999896,"y":2543956.7100000028}},{"attributes":{"ID":634932,"DIS_CODE":0,"TOWNNAME":"中西區","LI":"安海里","LIN":"4鄰","STREET":"金華路","SECT":"三段","MAREA":" ","LANE":" ","ALLEY":" ","HOUSE_NO":"２３０號十一樓之１２","E_COORD97":167356.13,"N_COORD97":2543956.71,"ADDRESS":"金華路三段２３０號十一樓之１２","OBJECTID":634905},"geometry":{"x":167356.12999999896,"y":2543956.7100000028}},{"attributes":{"ID":634933,"DIS_CODE":0,"TOWNNAME":"中西區","LI":"安海里","LIN":"4鄰","STREET":"金華路","SECT":"三段","MAREA":" ","LANE":" ","ALLEY":" ","HOUSE_NO":"２３０號十一樓之１３","E_COORD97":167356.13,"N_COORD97":2543956.71,"ADDRESS":"金華路三段２３０號十一樓之１３","OBJECTID":634906},"geometry":{"x":167356.12999999896,"y":2543956.7100000028}},{"attributes":{"ID":634934,"DIS_CODE":0,"TOWNNAME":"中西區","LI":"安海里","LIN":"4鄰","STREET":"金華路","SECT":"三段","MAREA":" ","LANE":" ","ALLEY":" ","HOUSE_NO":"２３０號十一樓之１４","E_COORD97":167356.13,"N_COORD97":2543956.71,"ADDRESS":"金華路三段２３０號十一樓之１４","OBJECTID":634907},"geometry":{"x":167356.12999999896,"y":2543956.7100000028}},{"attributes":{"ID":634935,"DIS_CODE":0,"TOWNNAME":"中西區","LI":"安海里","LIN":"4鄰","STREET":"金華路","SECT":"三段","MAREA":" ","LANE":" ","ALLEY":" ","HOUSE_NO":"２３０號十一樓之１５","E_COORD97":167356.13,"N_COORD97":2543956.71,"ADDRESS":"金華路三段２３０號十一樓之１５","OBJECTID":634908},"geometry":{"x":167356.12999999896,"y":2543956.7100000028}},{"attributes":{"ID":634936,"DIS_CODE":0,"TOWNNAME":"中西區","LI":"安海里","LIN":"4鄰","STREET":"金華路","SECT":"三段","MAREA":" ","LANE":" ","ALLEY":" ","HOUSE_NO":"２３０號十一樓之１６","E_COORD97":167356.13,"N_COORD97":2543956.71,"ADDRESS":"金華路三段２３０號十一樓之１６","OBJECTID":634909},"geometry":{"x":167356.12999999896,"y":2543956.7100000028}},{"attributes":{"ID":634937,"DIS_CODE":0,"TOWNNAME":"中西區","LI":"安海里","LIN":"4鄰","STREET":"金華路","SECT":"三段","MAREA":" ","LANE":" ","ALLEY":" ","HOUSE_NO":"２３０號十一樓之１８","E_COORD97":167356.13,"N_COORD97":2543956.71,"ADDRESS":"金華路三段２３０號十一樓之１８","OBJECTID":634910},"geometry":{"x":167356.12999999896,"y":2543956.7100000028}},{"attributes":{"ID":634938,"DIS_CODE":0,"TOWNNAME":"中西區","LI":"安海里","LIN":"4鄰","STREET":"金華路","SECT":"三段","MAREA":" ","LANE":" ","ALLEY":" ","HOUSE_NO":"２３０號六樓之１０","E_COORD97":167356.13,"N_COORD97":2543956.71,"ADDRESS":"金華路三段２３０號六樓之１０","OBJECTID":634911},"geometry":{"x":167356.12999999896,"y":2543956.7100000028}},{"attributes":{"ID":634939,"DIS_CODE":0,"TOWNNAME":"中西區","LI":"安海里","LIN":"4鄰","STREET":"金華路","SECT":"三段","MAREA":" ","LANE":" ","ALLEY":" ","HOUSE_NO":"２３０號六樓之１１","E_COORD97":167356.13,"N_COORD97":2543956.71,"ADDRESS":"金華路三段２３０號六樓之１１","OBJECTID":634912},"geometry":{"x":167356.12999999896,"y":2543956.7100000028}},{"attributes":{"ID":634940,"DIS_CODE":0,"TOWNNAME":"中西區","LI":"民生里","LIN":"6鄰","STREET":"永華路","SECT":"一段","MAREA":" ","LANE":" ","ALLEY":" ","HOUSE_NO":"２５２號二樓之１２","E_COORD97":166983.95999999999,"N_COORD97":2543260.4500000002,"ADDRESS":"永華路一段２５２號二樓之１２","OBJECTID":634913},"geometry":{"x":166983.95999999996,"y":2543260.4499999993}},{"attributes":{"ID":634941,"DIS_CODE":0,"TOWNNAME":"中西區","LI":"民生里","LIN":"6鄰","STREET":"永華路","SECT":"一段","MAREA":" ","LANE":" ","ALLEY":" ","HOUSE_NO":"２５２號二樓之１６","E_COORD97":166983.95999999999,"N_COORD97":2543260.4500000002,"ADDRESS":"永華路一段２５２號二樓之１６","OBJECTID":634914},"geometry":{"x":166983.95999999996,"y":2543260.4499999993}},{"attributes":{"ID":634942,"DIS_CODE":0,"TOWNNAME":"中西區","LI":"民生里","LIN":"6鄰","STREET":"永華路","SECT":"一段","MAREA":" ","LANE":" ","ALLEY":" ","HOUSE_NO":"２５２號三樓之１１","E_COORD97":166983.95999999999,"N_COORD97":2543260.4500000002,"ADDRESS":"永華路一段２５２號三樓之１１","OBJECTID":634915},"geometry":{"x":166983.95999999996,"y":2543260.4499999993}},{"attributes":{"ID":634943,"DIS_CODE":0,"TOWNNAME":"中西區","LI":"民生里","LIN":"4鄰","STREET":"南華街","SECT":" ","MAREA":" ","LANE":" ","ALLEY":" ","HOUSE_NO":"２０號七樓","E_COORD97":167084.06,"N_COORD97":2543290.25,"ADDRESS":"南華街２０號七樓","OBJECTID":634916},"geometry":{"x":167084.06000000052,"y":2543290.2500000037}},{"attributes":{"ID":634944,"DIS_CODE":0,"TOWNNAME":"中西區","LI":"民生里","LIN":"4鄰","STREET":"南華街","SECT":" ","MAREA":" ","LANE":" ","ALLEY":" ","HOUSE_NO":"２０號三樓","E_COORD97":167084.06,"N_COORD97":2543290.25,"ADDRESS":"南華街２０號三樓","OBJECTID":634917},"geometry":{"x":167084.06000000052,"y":2543290.2500000037}},{"attributes":{"ID":634945,"DIS_CODE":0,"TOWNNAME":"中西區","LI":"民生里","LIN":"4鄰","STREET":"南華街","SECT":" ","MAREA":" ","LANE":" ","ALLEY":" ","HOUSE_NO":"２０號五樓","E_COORD97":167084.06,"N_COORD97":2543290.25,"ADDRESS":"南華街２０號五樓","OBJECTID":634918},"geometry":{"x":167084.06000000052,"y":2543290.2500000037}},{"attributes":{"ID":634946,"DIS_CODE":0,"TOWNNAME":"中西區","LI":"民生里","LIN":"4鄰","STREET":"南華街","SECT":" ","MAREA":" ","LANE":" ","ALLEY":" ","HOUSE_NO":"２０號六樓","E_COORD97":167084.06,"N_COORD97":2543290.25,"ADDRESS":"南華街２０號六樓","OBJECTID":634919},"geometry":{"x":167084.06000000052,"y":2543290.2500000037}},{"attributes":{"ID":634947,"DIS_CODE":0,"TOWNNAME":"中西區","LI":"民生里","LIN":"4鄰","STREET":"南華街","SECT":" ","MAREA":" ","LANE":" ","ALLEY":" ","HOUSE_NO":"２０號四樓","E_COORD97":167084.06,"N_COORD97":2543290.25,"ADDRESS":"南華街２０號四樓","OBJECTID":634920},"geometry":{"x":167084.06000000052,"y":2543290.2500000037}},{"attributes":{"ID":634948,"DIS_CODE":0,"TOWNNAME":"中西區","LI":"安海里","LIN":"4鄰","STREET":"金華路","SECT":"三段","MAREA":" ","LANE":" ","ALLEY":" ","HOUSE_NO":"２３０號七樓之１","E_COORD97":167356.13,"N_COORD97":2543956.71,"ADDRESS":"金華路三段２３０號七樓之１","OBJECTID":634921},"geometry":{"x":167356.12999999896,"y":2543956.7100000028}},{"attributes":{"ID":634949,"DIS_CODE":0,"TOWNNAME":"中西區","LI":"安海里","LIN":"4鄰","STREET":"金華路","SECT":"三段","MAREA":" ","LANE":" ","ALLEY":" ","HOUSE_NO":"２３０號七樓之１０","E_COORD97":167356.13,"N_COORD97":2543956.71,"ADDRESS":"金華路三段２３０號七樓之１０","OBJECTID":634922},"geometry":{"x":167356.12999999896,"y":2543956.7100000028}},{"attributes":{"ID":634950,"DIS_CODE":0,"TOWNNAME":"中西區","LI":"安海里","LIN":"4鄰","STREET":"金華路","SECT":"三段","MAREA":" ","LANE":" ","ALLEY":" ","HOUSE_NO":"２３０號七樓之１１","E_COORD97":167356.13,"N_COORD97":2543956.71,"ADDRESS":"金華路三段２３０號七樓之１１","OBJECTID":634923},"geometry":{"x":167356.12999999896,"y":2543956.7100000028}},{"attributes":{"ID":634951,"DIS_CODE":0,"TOWNNAME":"中西區","LI":"安海里","LIN":"4鄰","STREET":"金華路","SECT":"三段","MAREA":" ","LANE":" ","ALLEY":" ","HOUSE_NO":"２３０號七樓之１２","E_COORD97":167356.13,"N_COORD97":2543956.71,"ADDRESS":"金華路三段２３０號七樓之１２","OBJECTID":634924},"geometry":{"x":167356.12999999896,"y":2543956.7100000028}},{"attributes":{"ID":634952,"DIS_CODE":0,"TOWNNAME":"中西區","LI":"安海里","LIN":"4鄰","STREET":"金華路","SECT":"三段","MAREA":" ","LANE":" ","ALLEY":" ","HOUSE_NO":"２３０號七樓之１３","E_COORD97":167356.13,"N_COORD97":2543956.71,"ADDRESS":"金華路三段２３０號七樓之１３","OBJECTID":634925},"geometry":{"x":167356.12999999896,"y":2543956.7100000028}},{"attributes":{"ID":634953,"DIS_CODE":0,"TOWNNAME":"中西區","LI":"安海里","LIN":"4鄰","STREET":"金華路","SECT":"三段","MAREA":" ","LANE":" ","ALLEY":" ","HOUSE_NO":"２３０號七樓之１４","E_COORD97":167356.13,"N_COORD97":2543956.71,"ADDRESS":"金華路三段２３０號七樓之１４","OBJECTID":634926},"geometry":{"x":167356.12999999896,"y":2543956.7100000028}},{"attributes":{"ID":634954,"DIS_CODE":0,"TOWNNAME":"中西區","LI":"安海里","LIN":"4鄰","STREET":"金華路","SECT":"三段","MAREA":" ","LANE":" ","ALLEY":" ","HOUSE_NO":"２３０號七樓之１６","E_COORD97":167356.13,"N_COORD97":2543956.71,"ADDRESS":"金華路三段２３０號七樓之１６","OBJECTID":634927},"geometry":{"x":167356.12999999896,"y":2543956.7100000028}},{"attributes":{"ID":634955,"DIS_CODE":0,"TOWNNAME":"中西區","LI":"安海里","LIN":"4鄰","STREET":"金華路","SECT":"三段","MAREA":" ","LANE":" ","ALLEY":" ","HOUSE_NO":"２３０號七樓之２","E_COORD97":167356.13,"N_COORD97":2543956.71,"ADDRESS":"金華路三段２３０號七樓之２","OBJECTID":634928},"geometry":{"x":167356.12999999896,"y":2543956.7100000028}},{"attributes":{"ID":634956,"DIS_CODE":0,"TOWNNAME":"中西區","LI":"安海里","LIN":"4鄰","STREET":"金華路","SECT":"三段","MAREA":" ","LANE":" ","ALLEY":" ","HOUSE_NO":"２３０號七樓之３","E_COORD97":167356.13,"N_COORD97":2543956.71,"ADDRESS":"金華路三段２３０號七樓之３","OBJECTID":634929},"geometry":{"x":167356.12999999896,"y":2543956.7100000028}},{"attributes":{"ID":634957,"DIS_CODE":0,"TOWNNAME":"中西區","LI":"安海里","LIN":"4鄰","STREET":"金華路","SECT":"三段","MAREA":" ","LANE":" ","ALLEY":" ","HOUSE_NO":"２４８號六樓之１","E_COORD97":167351.41,"N_COORD97":2543982.6200000001,"ADDRESS":"金華路三段２４８號六樓之１","OBJECTID":634930},"geometry":{"x":167351.41000000108,"y":2543982.620000001}},{"attributes":{"ID":634958,"DIS_CODE":0,"TOWNNAME":"中西區","LI":"安海里","LIN":"4鄰","STREET":"金華路","SECT":"三段","MAREA":" ","LANE":" ","ALLEY":" ","HOUSE_NO":"２４８號六樓之２","E_COORD97":167351.41,"N_COORD97":2543982.6200000001,"ADDRESS":"金華路三段２４８號六樓之２","OBJECTID":634931},"geometry":{"x":167351.41000000108,"y":2543982.620000001}},{"attributes":{"ID":634959,"DIS_CODE":0,"TOWNNAME":"中西區","LI":"安海里","LIN":"4鄰","STREET":"金華路","SECT":"三段","MAREA":" ","LANE":" ","ALLEY":" ","HOUSE_NO":"２４８號六樓之３","E_COORD97":167357.48000000001,"N_COORD97":2543977.6200000001,"ADDRESS":"金華路三段２４８號六樓之３","OBJECTID":634932},"geometry":{"x":167357.48000000045,"y":2543977.6200000029}},{"attributes":{"ID":634960,"DIS_CODE":0,"TOWNNAME":"中西區","LI":"安海里","LIN":"4鄰","STREET":"金華路","SECT":"三段","MAREA":" ","LANE":" ","ALLEY":" ","HOUSE_NO":"２４８號四樓之１","E_COORD97":167351.41,"N_COORD97":2543982.6200000001,"ADDRESS":"金華路三段２４８號四樓之１","OBJECTID":634933},"geometry":{"x":167351.41000000108,"y":2543982.620000001}},{"attributes":{"ID":634961,"DIS_CODE":0,"TOWNNAME":"中西區","LI":"安海里","LIN":"4鄰","STREET":"金華路","SECT":"三段","MAREA":" ","LANE":" ","ALLEY":" ","HOUSE_NO":"２４８號四樓之２","E_COORD97":167351.41,"N_COORD97":2543982.6200000001,"ADDRESS":"金華路三段２４８號四樓之２","OBJECTID":634934},"geometry":{"x":167351.41000000108,"y":2543982.620000001}},{"attributes":{"ID":634962,"DIS_CODE":0,"TOWNNAME":"中西區","LI":"三合里","LIN":"11鄰","STREET":"金華路","SECT":"四段","MAREA":" ","LANE":" ","ALLEY":" ","HOUSE_NO":"７９號三樓","E_COORD97":167485.92999999999,"N_COORD97":2544452.5800000001,"ADDRESS":"金華路四段７９號三樓","OBJECTID":634935},"geometry":{"x":167485.9299999997,"y":2544452.5800000019}},{"attributes":{"ID":634963,"DIS_CODE":0,"TOWNNAME":"中西區","LI":"安海里","LIN":"6鄰","STREET":"康樂街","SECT":" ","MAREA":" ","LANE":" ","ALLEY":" ","HOUSE_NO":"１６９號八樓","E_COORD97":167435.01000000001,"N_COORD97":2543850.4900000002,"ADDRESS":"康樂街１６９號八樓","OBJECTID":634936},"geometry":{"x":167435.01000000164,"y":2543850.4900000002}},{"attributes":{"ID":634964,"DIS_CODE":0,"TOWNNAME":"中西區","LI":"安海里","LIN":"6鄰","STREET":"康樂街","SECT":" ","MAREA":" ","LANE":" ","ALLEY":" ","HOUSE_NO":"１６９號七樓","E_COORD97":167435.01000000001,"N_COORD97":2543850.4900000002,"ADDRESS":"康樂街１６９號七樓","OBJECTID":634937},"geometry":{"x":167435.01000000164,"y":2543850.4900000002}},{"attributes":{"ID":634965,"DIS_CODE":0,"TOWNNAME":"中西區","LI":"安海里","LIN":"6鄰","STREET":"康樂街","SECT":" ","MAREA":" ","LANE":" ","ALLEY":" ","HOUSE_NO":"１６９號九樓","E_COORD97":167435.01000000001,"N_COORD97":2543850.4900000002,"ADDRESS":"康樂街１６９號九樓","OBJECTID":634938},"geometry":{"x":167435.01000000164,"y":2543850.4900000002}},{"attributes":{"ID":634966,"DIS_CODE":0,"TOWNNAME":"中西區","LI":"安海里","LIN":"6鄰","STREET":"康樂街","SECT":" ","MAREA":" ","LANE":" ","ALLEY":" ","HOUSE_NO":"１６９號二樓","E_COORD97":167435.01000000001,"N_COORD97":2543850.4900000002,"ADDRESS":"康樂街１６９號二樓","OBJECTID":634939},"geometry":{"x":167435.01000000164,"y":2543850.4900000002}},{"attributes":{"ID":634967,"DIS_CODE":0,"TOWNNAME":"中西區","LI":"安海里","LIN":"6鄰","STREET":"康樂街","SECT":" ","MAREA":" ","LANE":" ","ALLEY":" ","HOUSE_NO":"１６９號三樓","E_COORD97":167435.01000000001,"N_COORD97":2543850.4900000002,"ADDRESS":"康樂街１６９號三樓","OBJECTID":634940},"geometry":{"x":167435.01000000164,"y":2543850.4900000002}},{"attributes":{"ID":634968,"DIS_CODE":0,"TOWNNAME":"中西區","LI":"安海里","LIN":"6鄰","STREET":"康樂街","SECT":" ","MAREA":" ","LANE":" ","ALLEY":" ","HOUSE_NO":"１６９號五樓","E_COORD97":167435.01000000001,"N_COORD97":2543850.4900000002,"ADDRESS":"康樂街１６９號五樓","OBJECTID":634941},"geometry":{"x":167435.01000000164,"y":2543850.4900000002}},{"attributes":{"ID":634969,"DIS_CODE":0,"TOWNNAME":"中西區","LI":"安海里","LIN":"6鄰","STREET":"康樂街","SECT":" ","MAREA":" ","LANE":" ","ALLEY":" ","HOUSE_NO":"１６９號六樓","E_COORD97":167435.01000000001,"N_COORD97":2543850.4900000002,"ADDRESS":"康樂街１６９號六樓","OBJECTID":634942},"geometry":{"x":167435.01000000164,"y":2543850.4900000002}},{"attributes":{"ID":634970,"DIS_CODE":0,"TOWNNAME":"中西區","LI":"安海里","LIN":"6鄰","STREET":"康樂街","SECT":" ","MAREA":" ","LANE":" ","ALLEY":" ","HOUSE_NO":"１６９號四樓","E_COORD97":167435.01000000001,"N_COORD97":2543850.4900000002,"ADDRESS":"康樂街１６９號四樓","OBJECTID":634943},"geometry":{"x":167435.01000000164,"y":2543850.4900000002}},{"attributes":{"ID":634971,"DIS_CODE":0,"TOWNNAME":"中西區","LI":"三合里","LIN":"14鄰","STREET":"金華路","SECT":"四段","MAREA":" ","LANE":" ","ALLEY":" ","HOUSE_NO":"１６９號二樓","E_COORD97":167557.47,"N_COORD97":2544632.2000000002,"ADDRESS":"金華路四段１６９號二樓","OBJECTID":634944},"geometry":{"x":167557.47000000067,"y":2544632.1999999974}},{"attributes":{"ID":634972,"DIS_CODE":0,"TOWNNAME":"中西區","LI":"三合里","LIN":"14鄰","STREET":"金華路","SECT":"四段","MAREA":" ","LANE":" ","ALLEY":" ","HOUSE_NO":"１６９號三樓","E_COORD97":167557.47,"N_COORD97":2544632.2000000002,"ADDRESS":"金華路四段１６９號三樓","OBJECTID":634945},"geometry":{"x":167557.47000000067,"y":2544632.1999999974}},{"attributes":{"ID":634973,"DIS_CODE":0,"TOWNNAME":"中西區","LI":"三合里","LIN":"14鄰","STREET":"金華路","SECT":"四段","MAREA":" ","LANE":" ","ALLEY":" ","HOUSE_NO":"１６９號五樓","E_COORD97":167557.47,"N_COORD97":2544632.2000000002,"ADDRESS":"金華路四段１６９號五樓","OBJECTID":634946},"geometry":{"x":167557.47000000067,"y":2544632.1999999974}},{"attributes":{"ID":634974,"DIS_CODE":0,"TOWNNAME":"中西區","LI":"三合里","LIN":"14鄰","STREET":"金華路","SECT":"四段","MAREA":" ","LANE":" ","ALLEY":" ","HOUSE_NO":"１６９號四樓","E_COORD97":167557.47,"N_COORD97":2544632.2000000002,"ADDRESS":"金華路四段１６９號四樓","OBJECTID":634947},"geometry":{"x":167557.47000000067,"y":2544632.1999999974}},{"attributes":{"ID":634975,"DIS_CODE":0,"TOWNNAME":"麻豆區","LI":"保安里","LIN":"14鄰","STREET":"興中路","SECT":" ","MAREA":" ","LANE":" ","ALLEY":" ","HOUSE_NO":"１０６號２樓","E_COORD97":173344.04000000001,"N_COORD97":2564808.9300000002,"ADDRESS":"興中路１０６號２樓","OBJECTID":634948},"geometry":{"x":173344.04000000004,"y":2564808.9300000016}},{"attributes":{"ID":634976,"DIS_CODE":0,"TOWNNAME":"麻豆區","LI":"保安里","LIN":"14鄰","STREET":"興中路","SECT":" ","MAREA":" ","LANE":" ","ALLEY":" ","HOUSE_NO":"１０６號５樓","E_COORD97":173344.04000000001,"N_COORD97":2564808.9300000002,"ADDRESS":"興中路１０６號５樓","OBJECTID":634949},"geometry":{"x":173344.04000000004,"y":2564808.9300000016}},{"attributes":{"ID":634977,"DIS_CODE":0,"TOWNNAME":"麻豆區","LI":"保安里","LIN":"14鄰","STREET":"興中路","SECT":" ","MAREA":" ","LANE":" ","ALLEY":" ","HOUSE_NO":"１０６號６樓","E_COORD97":173344.04000000001,"N_COORD97":2564808.9300000002,"ADDRESS":"興中路１０６號６樓","OBJECTID":634950},"geometry":{"x":173344.04000000004,"y":2564808.9300000016}},{"attributes":{"ID":634978,"DIS_CODE":0,"TOWNNAME":"麻豆區","LI":"保安里","LIN":"14鄰","STREET":"興中路","SECT":" ","MAREA":" ","LANE":" ","ALLEY":" ","HOUSE_NO":"１０６號七樓","E_COORD97":173344.04000000001,"N_COORD97":2564808.9300000002,"ADDRESS":"興中路１０６號七樓","OBJECTID":634951},"geometry":{"x":173344.04000000004,"y":2564808.9300000016}},{"attributes":{"ID":634979,"DIS_CODE":0,"TOWNNAME":"麻豆區","LI":"保安里","LIN":"14鄰","STREET":"興中路","SECT":" ","MAREA":" ","LANE":" ","ALLEY":" ","HOUSE_NO":"１０６號八樓","E_COORD97":173344.04000000001,"N_COORD97":2564808.9300000002,"ADDRESS":"興中路１０６號八樓","OBJECTID":634952},"geometry":{"x":173344.04000000004,"y":2564808.9300000016}},{"attributes":{"ID":634980,"DIS_CODE":0,"TOWNNAME":"麻豆區","LI":"東角里","LIN":"8鄰","STREET":"興中路","SECT":" ","MAREA":" ","LANE":" ","ALLEY":" ","HOUSE_NO":"１７６號二樓","E_COORD97":173601.60000000001,"N_COORD97":2564802.6499999999,"ADDRESS":"興中路１７６號二樓","OBJECTID":634953},"geometry":{"x":173601.60000000056,"y":2564802.6500000004}},{"attributes":{"ID":634981,"DIS_CODE":0,"TOWNNAME":"麻豆區","LI":"東角里","LIN":"8鄰","STREET":"興中路","SECT":" ","MAREA":" ","LANE":" ","ALLEY":" ","HOUSE_NO":"１７６號三樓","E_COORD97":173601.60000000001,"N_COORD97":2564802.6499999999,"ADDRESS":"興中路１７６號三樓","OBJECTID":634954},"geometry":{"x":173601.60000000056,"y":2564802.6500000004}},{"attributes":{"ID":634982,"DIS_CODE":0,"TOWNNAME":"麻豆區","LI":"東角里","LIN":"8鄰","STREET":"興中路","SECT":" ","MAREA":" ","LANE":" ","ALLEY":" ","HOUSE_NO":"１７６號四樓","E_COORD97":173601.60000000001,"N_COORD97":2564802.6499999999,"ADDRESS":"興中路１７６號四樓","OBJECTID":634955},"geometry":{"x":173601.60000000056,"y":2564802.6500000004}},{"attributes":{"ID":634983,"DIS_CODE":0,"TOWNNAME":"麻豆區","LI":"東角里","LIN":"8鄰","STREET":"興中路","SECT":" ","MAREA":" ","LANE":" ","ALLEY":" ","HOUSE_NO":"１７８號二樓","E_COORD97":173611.17000000001,"N_COORD97":2564802.5499999998,"ADDRESS":"興中路１７８號二樓","OBJECTID":634956},"geometry":{"x":173611.16999999899,"y":2564802.5500000026}},{"attributes":{"ID":634984,"DIS_CODE":0,"TOWNNAME":"麻豆區","LI":"東角里","LIN":"8鄰","STREET":"興中路","SECT":" ","MAREA":" ","LANE":" ","ALLEY":" ","HOUSE_NO":"１７８號三樓","E_COORD97":173611.17000000001,"N_COORD97":2564802.5499999998,"ADDRESS":"興中路１７８號三樓","OBJECTID":634957},"geometry":{"x":173611.16999999899,"y":2564802.5500000026}},{"attributes":{"ID":634985,"DIS_CODE":0,"TOWNNAME":"麻豆區","LI":"東角里","LIN":"8鄰","STREET":"興中路","SECT":" ","MAREA":" ","LANE":" ","ALLEY":" ","HOUSE_NO":"１７８號四樓","E_COORD97":173611.17000000001,"N_COORD97":2564802.5499999998,"ADDRESS":"興中路１７８號四樓","OBJECTID":634958},"geometry":{"x":173611.16999999899,"y":2564802.5500000026}},{"attributes":{"ID":634986,"DIS_CODE":0,"TOWNNAME":"麻豆區","LI":"東角里","LIN":"8鄰","STREET":"興中路","SECT":" ","MAREA":" ","LANE":" ","ALLEY":" ","HOUSE_NO":"１８０號二樓","E_COORD97":173621.94,"N_COORD97":2564804.3900000001,"ADDRESS":"興中路１８０號二樓","OBJECTID":634959},"geometry":{"x":173621.94000000134,"y":2564804.3900000006}},{"attributes":{"ID":634987,"DIS_CODE":0,"TOWNNAME":"麻豆區","LI":"東角里","LIN":"8鄰","STREET":"興中路","SECT":" ","MAREA":" ","LANE":" ","ALLEY":" ","HOUSE_NO":"１８０號三樓","E_COORD97":173621.94,"N_COORD97":2564804.3900000001,"ADDRESS":"興中路１８０號三樓","OBJECTID":634960},"geometry":{"x":173621.94000000134,"y":2564804.3900000006}},{"attributes":{"ID":634988,"DIS_CODE":0,"TOWNNAME":"麻豆區","LI":"東角里","LIN":"8鄰","STREET":"興中路","SECT":" ","MAREA":" ","LANE":" ","ALLEY":" ","HOUSE_NO":"１８０號四樓","E_COORD97":173621.94,"N_COORD97":2564804.3900000001,"ADDRESS":"興中路１８０號四樓","OBJECTID":634961},"geometry":{"x":173621.94000000134,"y":2564804.3900000006}},{"attributes":{"ID":634989,"DIS_CODE":0,"TOWNNAME":"麻豆區","LI":"東角里","LIN":"8鄰","STREET":"興中路","SECT":" ","MAREA":" ","LANE":" ","ALLEY":" ","HOUSE_NO":"１８２號二樓","E_COORD97":173633.29000000001,"N_COORD97":2564804.3500000001,"ADDRESS":"興中路１８２號二樓","OBJECTID":634962},"geometry":{"x":173633.29000000097,"y":2564804.3499999978}},{"attributes":{"ID":634990,"DIS_CODE":0,"TOWNNAME":"麻豆區","LI":"東角里","LIN":"8鄰","STREET":"興中路","SECT":" ","MAREA":" ","LANE":" ","ALLEY":" ","HOUSE_NO":"１８２號三樓","E_COORD97":173633.29000000001,"N_COORD97":2564804.3500000001,"ADDRESS":"興中路１８２號三樓","OBJECTID":634963},"geometry":{"x":173633.29000000097,"y":2564804.3499999978}},{"attributes":{"ID":634991,"DIS_CODE":0,"TOWNNAME":"東區","LI":"成大里","LIN":"26鄰","STREET":"育樂街","SECT":" ","MAREA":" ","LANE":" ","ALLEY":" ","HOUSE_NO":"６８號七樓","E_COORD97":169592.14000000001,"N_COORD97":2544034.0800000001,"ADDRESS":"育樂街６８號七樓","OBJECTID":634964},"geometry":{"x":169592.1400000006,"y":2544034.0800000038}},{"attributes":{"ID":634992,"DIS_CODE":0,"TOWNNAME":"東區","LI":"成大里","LIN":"26鄰","STREET":"育樂街","SECT":" ","MAREA":" ","LANE":" ","ALLEY":" ","HOUSE_NO":"７２號二樓","E_COORD97":169564.57000000001,"N_COORD97":2544050.2999999998,"ADDRESS":"育樂街７２號二樓","OBJECTID":634965},"geometry":{"x":169564.57000000123,"y":2544050.3000000045}},{"attributes":{"ID":634993,"DIS_CODE":0,"TOWNNAME":"東區","LI":"成大里","LIN":"25鄰","STREET":"育樂街","SECT":" ","MAREA":" ","LANE":" ","ALLEY":" ","HOUSE_NO":"１０３號四樓","E_COORD97":169544.78,"N_COORD97":2544017.2999999998,"ADDRESS":"育樂街１０３號四樓","OBJECTID":634966},"geometry":{"x":169544.78000000119,"y":2544017.3000000026}},{"attributes":{"ID":634994,"DIS_CODE":0,"TOWNNAME":"東區","LI":"成大里","LIN":"25鄰","STREET":"育樂街","SECT":" ","MAREA":" ","LANE":" ","ALLEY":" ","HOUSE_NO":"１０５號五樓","E_COORD97":169538.87,"N_COORD97":2544018,"ADDRESS":"育樂街１０５號五樓","OBJECTID":634967},"geometry":{"x":169538.87000000104,"y":2544018.0000000019}},{"attributes":{"ID":634995,"DIS_CODE":0,"TOWNNAME":"東區","LI":"成大里","LIN":"25鄰","STREET":"育樂街","SECT":" ","MAREA":" ","LANE":" ","ALLEY":" ","HOUSE_NO":"１０５號六樓","E_COORD97":169538.87,"N_COORD97":2544018,"ADDRESS":"育樂街１０５號六樓","OBJECTID":634968},"geometry":{"x":169538.87000000104,"y":2544018.0000000019}},{"attributes":{"ID":634996,"DIS_CODE":0,"TOWNNAME":"東區","LI":"成大里","LIN":"25鄰","STREET":"育樂街","SECT":" ","MAREA":" ","LANE":" ","ALLEY":" ","HOUSE_NO":"１０５號四樓","E_COORD97":169538.87,"N_COORD97":2544018,"ADDRESS":"育樂街１０５號四樓","OBJECTID":634969},"geometry":{"x":169538.87000000104,"y":2544018.0000000019}},{"attributes":{"ID":634997,"DIS_CODE":0,"TOWNNAME":"東區","LI":"成大里","LIN":"25鄰","STREET":"育樂街","SECT":" ","MAREA":" ","LANE":" ","ALLEY":" ","HOUSE_NO":"９３號五樓","E_COORD97":169585.53,"N_COORD97":2544012.75,"ADDRESS":"育樂街９３號五樓","OBJECTID":634970},"geometry":{"x":169585.53000000119,"y":2544012.7500000019}},{"attributes":{"ID":634998,"DIS_CODE":0,"TOWNNAME":"東區","LI":"成大里","LIN":"25鄰","STREET":"育樂街","SECT":" ","MAREA":" ","LANE":" ","ALLEY":" ","HOUSE_NO":"９３號六樓","E_COORD97":169585.53,"N_COORD97":2544012.75,"ADDRESS":"育樂街９３號六樓","OBJECTID":634971},"geometry":{"x":169585.53000000119,"y":2544012.7500000019}},{"attributes":{"ID":634999,"DIS_CODE":0,"TOWNNAME":"東區","LI":"成大里","LIN":"25鄰","STREET":"育樂街","SECT":" ","MAREA":" ","LANE":" ","ALLEY":" ","HOUSE_NO":"９３號四樓","E_COORD97":169585.53,"N_COORD97":2544012.75,"ADDRESS":"育樂街９３號四樓","OBJECTID":634972},"geometry":{"x":169585.53000000119,"y":2544012.7500000019}},{"attributes":{"ID":635000,"DIS_CODE":0,"TOWNNAME":"東區","LI":"成大里","LIN":"25鄰","STREET":"育樂街","SECT":" ","MAREA":" ","LANE":" ","ALLEY":" ","HOUSE_NO":"９５號五樓","E_COORD97":169580.44,"N_COORD97":2544013.3300000001,"ADDRESS":"育樂街９５號五樓","OBJECTID":634973},"geometry":{"x":169580.44000000227,"y":2544013.3300000019}},{"attributes":{"ID":635001,"DIS_CODE":0,"TOWNNAME":"東區","LI":"成大里","LIN":"25鄰","STREET":"育樂街","SECT":" ","MAREA":" ","LANE":" ","ALLEY":" ","HOUSE_NO":"９５號六樓","E_COORD97":169580.44,"N_COORD97":2544013.3300000001,"ADDRESS":"育樂街９５號六樓","OBJECTID":634974},"geometry":{"x":169580.44000000227,"y":2544013.3300000019}},{"attributes":{"ID":635002,"DIS_CODE":0,"TOWNNAME":"東區","LI":"成大里","LIN":"25鄰","STREET":"育樂街","SECT":" ","MAREA":" ","LANE":" ","ALLEY":" ","HOUSE_NO":"９５號四樓","E_COORD97":169580.44,"N_COORD97":2544013.3300000001,"ADDRESS":"育樂街９５號四樓","OBJECTID":634975},"geometry":{"x":169580.44000000227,"y":2544013.3300000019}},{"attributes":{"ID":635003,"DIS_CODE":0,"TOWNNAME":"東區","LI":"成大里","LIN":"25鄰","STREET":"育樂街","SECT":" ","MAREA":" ","LANE":" ","ALLEY":" ","HOUSE_NO":"９９之１號三樓","E_COORD97":169562.19,"N_COORD97":2544015.8599999999,"ADDRESS":"育樂街９９之１號三樓","OBJECTID":634976},"geometry":{"x":169562.19000000134,"y":2544015.8600000013}},{"attributes":{"ID":635004,"DIS_CODE":0,"TOWNNAME":"東區","LI":"成大里","LIN":"25鄰","STREET":"育樂街","SECT":" ","MAREA":" ","LANE":" ","ALLEY":" ","HOUSE_NO":"９９之１號五樓","E_COORD97":169562.19,"N_COORD97":2544015.8599999999,"ADDRESS":"育樂街９９之１號五樓","OBJECTID":634977},"geometry":{"x":169562.19000000134,"y":2544015.8600000013}},{"attributes":{"ID":635005,"DIS_CODE":0,"TOWNNAME":"東區","LI":"大同里","LIN":"16鄰","STREET":"大同路","SECT":"一段","MAREA":" ","LANE":" ","ALLEY":" ","HOUSE_NO":"１７３號七樓","E_COORD97":169144.26999999999,"N_COORD97":2542799.6099999999,"ADDRESS":"大同路一段１７３號七樓","OBJECTID":634978},"geometry":{"x":169144.26999999955,"y":2542799.6100000013}},{"attributes":{"ID":635006,"DIS_CODE":0,"TOWNNAME":"東區","LI":"大同里","LIN":"16鄰","STREET":"大同路","SECT":"一段","MAREA":" ","LANE":" ","ALLEY":" ","HOUSE_NO":"１７３號七樓之１","E_COORD97":169144.26999999999,"N_COORD97":2542799.6099999999,"ADDRESS":"大同路一段１７３號七樓之１","OBJECTID":634979},"geometry":{"x":169144.26999999955,"y":2542799.6100000013}},{"attributes":{"ID":635007,"DIS_CODE":0,"TOWNNAME":"東區","LI":"大同里","LIN":"16鄰","STREET":"大同路","SECT":"一段","MAREA":" ","LANE":" ","ALLEY":" ","HOUSE_NO":"１７３號七樓之２","E_COORD97":169144.26999999999,"N_COORD97":2542799.6099999999,"ADDRESS":"大同路一段１７３號七樓之２","OBJECTID":634980},"geometry":{"x":169144.26999999955,"y":2542799.6100000013}},{"attributes":{"ID":635008,"DIS_CODE":0,"TOWNNAME":"東區","LI":"大同里","LIN":"16鄰","STREET":"大同路","SECT":"一段","MAREA":" ","LANE":" ","ALLEY":" ","HOUSE_NO":"１７３號九樓","E_COORD97":169144.26999999999,"N_COORD97":2542799.6099999999,"ADDRESS":"大同路一段１７３號九樓","OBJECTID":634981},"geometry":{"x":169144.26999999955,"y":2542799.6100000013}},{"attributes":{"ID":635009,"DIS_CODE":0,"TOWNNAME":"東區","LI":"大同里","LIN":"16鄰","STREET":"大同路","SECT":"一段","MAREA":" ","LANE":" ","ALLEY":" ","HOUSE_NO":"１７３號九樓之１","E_COORD97":169144.26999999999,"N_COORD97":2542799.6099999999,"ADDRESS":"大同路一段１７３號九樓之１","OBJECTID":634982},"geometry":{"x":169144.26999999955,"y":2542799.6100000013}},{"attributes":{"ID":635010,"DIS_CODE":0,"TOWNNAME":"東區","LI":"大同里","LIN":"16鄰","STREET":"大同路","SECT":"一段","MAREA":" ","LANE":" ","ALLEY":" ","HOUSE_NO":"１７３號二樓","E_COORD97":169144.26999999999,"N_COORD97":2542799.6099999999,"ADDRESS":"大同路一段１７３號二樓","OBJECTID":634983},"geometry":{"x":169144.26999999955,"y":2542799.6100000013}},{"attributes":{"ID":635011,"DIS_CODE":0,"TOWNNAME":"東區","LI":"大同里","LIN":"16鄰","STREET":"大同路","SECT":"一段","MAREA":" ","LANE":" ","ALLEY":" ","HOUSE_NO":"１７３號八樓","E_COORD97":169144.26999999999,"N_COORD97":2542799.6099999999,"ADDRESS":"大同路一段１７３號八樓","OBJECTID":634984},"geometry":{"x":169144.26999999955,"y":2542799.6100000013}},{"attributes":{"ID":635012,"DIS_CODE":0,"TOWNNAME":"東區","LI":"大同里","LIN":"16鄰","STREET":"大同路","SECT":"一段","MAREA":" ","LANE":" ","ALLEY":" ","HOUSE_NO":"１７３號八樓之１","E_COORD97":169144.26999999999,"N_COORD97":2542799.6099999999,"ADDRESS":"大同路一段１７３號八樓之１","OBJECTID":634985},"geometry":{"x":169144.26999999955,"y":2542799.6100000013}},{"attributes":{"ID":635013,"DIS_CODE":0,"TOWNNAME":"東區","LI":"大同里","LIN":"16鄰","STREET":"大同路","SECT":"一段","MAREA":" ","LANE":" ","ALLEY":" ","HOUSE_NO":"１７３號十一樓","E_COORD97":169144.26999999999,"N_COORD97":2542799.6099999999,"ADDRESS":"大同路一段１７３號十一樓","OBJECTID":634986},"geometry":{"x":169144.26999999955,"y":2542799.6100000013}},{"attributes":{"ID":635014,"DIS_CODE":0,"TOWNNAME":"東區","LI":"大同里","LIN":"16鄰","STREET":"大同路","SECT":"一段","MAREA":" ","LANE":" ","ALLEY":" ","HOUSE_NO":"１７３號十二樓","E_COORD97":169144.26999999999,"N_COORD97":2542799.6099999999,"ADDRESS":"大同路一段１７３號十二樓","OBJECTID":634987},"geometry":{"x":169144.26999999955,"y":2542799.6100000013}},{"attributes":{"ID":635015,"DIS_CODE":0,"TOWNNAME":"南區","LI":"新生里","LIN":"1鄰","STREET":"大林路","SECT":" ","MAREA":" ","LANE":" ","ALLEY":" ","HOUSE_NO":"２號四樓之５","E_COORD97":169367.64999999999,"N_COORD97":2541886.5499999998,"ADDRESS":"大林路２號四樓之５","OBJECTID":634988},"geometry":{"x":169367.6500000013,"y":2541886.5500000026}},{"attributes":{"ID":635016,"DIS_CODE":0,"TOWNNAME":"東區","LI":"大福里","LIN":"26鄰","STREET":"榮譽街","SECT":" ","MAREA":" ","LANE":" ","ALLEY":" ","HOUSE_NO":"４６號三樓","E_COORD97":169668.71111999999,"N_COORD97":2541582.1304199998,"ADDRESS":"榮譽街４６號三樓","OBJECTID":634989},"geometry":{"x":169668.71112000104,"y":2541582.1304220036}},{"attributes":{"ID":635017,"DIS_CODE":0,"TOWNNAME":"東區","LI":"大福里","LIN":"26鄰","STREET":"榮譽街","SECT":" ","MAREA":" ","LANE":" ","ALLEY":" ","HOUSE_NO":"４６號五樓","E_COORD97":169668.71111999999,"N_COORD97":2541582.1304199998,"ADDRESS":"榮譽街４６號五樓","OBJECTID":634990},"geometry":{"x":169668.71112000104,"y":2541582.1304220036}},{"attributes":{"ID":635018,"DIS_CODE":0,"TOWNNAME":"東區","LI":"大福里","LIN":"26鄰","STREET":"榮譽街","SECT":" ","MAREA":" ","LANE":" ","ALLEY":" ","HOUSE_NO":"４６號六樓","E_COORD97":169668.71111999999,"N_COORD97":2541582.1304199998,"ADDRESS":"榮譽街４６號六樓","OBJECTID":634991},"geometry":{"x":169668.71112000104,"y":2541582.1304220036}},{"attributes":{"ID":635019,"DIS_CODE":0,"TOWNNAME":"東區","LI":"大福里","LIN":"26鄰","STREET":"榮譽街","SECT":" ","MAREA":" ","LANE":" ","ALLEY":" ","HOUSE_NO":"４８號之１三樓","E_COORD97":169671.69,"N_COORD97":2541571.71,"ADDRESS":"榮譽街４８號之１三樓","OBJECTID":634992},"geometry":{"x":169671.69000000041,"y":2541571.7100000009}},{"attributes":{"ID":635020,"DIS_CODE":0,"TOWNNAME":"東區","LI":"大福里","LIN":"26鄰","STREET":"榮譽街","SECT":" ","MAREA":" ","LANE":" ","ALLEY":" ","HOUSE_NO":"４８號之１五樓","E_COORD97":169671.69,"N_COORD97":2541571.71,"ADDRESS":"榮譽街４８號之１五樓","OBJECTID":634993},"geometry":{"x":169671.69000000041,"y":2541571.7100000009}},{"attributes":{"ID":635021,"DIS_CODE":0,"TOWNNAME":"東區","LI":"大福里","LIN":"26鄰","STREET":"榮譽街","SECT":" ","MAREA":" ","LANE":" ","ALLEY":" ","HOUSE_NO":"４８號之１六樓","E_COORD97":169671.69,"N_COORD97":2541571.71,"ADDRESS":"榮譽街４８號之１六樓","OBJECTID":634994},"geometry":{"x":169671.69000000041,"y":2541571.7100000009}},{"attributes":{"ID":635022,"DIS_CODE":0,"TOWNNAME":"東區","LI":"大福里","LIN":"26鄰","STREET":"榮譽街","SECT":" ","MAREA":" ","LANE":" ","ALLEY":" ","HOUSE_NO":"４８號之１四樓","E_COORD97":169671.69,"N_COORD97":2541571.71,"ADDRESS":"榮譽街４８號之１四樓","OBJECTID":634995},"geometry":{"x":169671.69000000041,"y":2541571.7100000009}},{"attributes":{"ID":635023,"DIS_CODE":0,"TOWNNAME":"東區","LI":"大福里","LIN":"26鄰","STREET":"榮譽街","SECT":" ","MAREA":" ","LANE":" ","ALLEY":" ","HOUSE_NO":"４８號之２三樓","E_COORD97":169673.47,"N_COORD97":2541566.8900000001,"ADDRESS":"榮譽街４８號之２三樓","OBJECTID":634996},"geometry":{"x":169673.47000000067,"y":2541566.8900000006}},{"attributes":{"ID":635024,"DIS_CODE":0,"TOWNNAME":"東區","LI":"大福里","LIN":"24鄰","STREET":"中華東路","SECT":"三段","MAREA":" ","LANE":" ","ALLEY":" ","HOUSE_NO":"５２８號二樓","E_COORD97":169702.67000000001,"N_COORD97":2541513.54,"ADDRESS":"中華東路三段５２８號二樓","OBJECTID":634997},"geometry":{"x":169702.67000000086,"y":2541513.5399999991}},{"attributes":{"ID":635025,"DIS_CODE":0,"TOWNNAME":"東區","LI":"大福里","LIN":"24鄰","STREET":"中華東路","SECT":"三段","MAREA":" ","LANE":" ","ALLEY":" ","HOUSE_NO":"５２８號三樓","E_COORD97":169702.67000000001,"N_COORD97":2541513.54,"ADDRESS":"中華東路三段５２８號三樓","OBJECTID":634998},"geometry":{"x":169702.67000000086,"y":2541513.5399999991}},{"attributes":{"ID":635026,"DIS_CODE":0,"TOWNNAME":"東區","LI":"大福里","LIN":"24鄰","STREET":"中華東路","SECT":"三段","MAREA":" ","LANE":" ","ALLEY":" ","HOUSE_NO":"５２８號五樓","E_COORD97":169702.67000000001,"N_COORD97":2541513.54,"ADDRESS":"中華東路三段５２８號五樓","OBJECTID":634999},"geometry":{"x":169702.67000000086,"y":2541513.5399999991}},{"attributes":{"ID":635027,"DIS_CODE":0,"TOWNNAME":"東區","LI":"大福里","LIN":"24鄰","STREET":"中華東路","SECT":"三段","MAREA":" ","LANE":" ","ALLEY":" ","HOUSE_NO":"５２８號四樓","E_COORD97":169702.67000000001,"N_COORD97":2541513.54,"ADDRESS":"中華東路三段５２８號四樓","OBJECTID":635000},"geometry":{"x":169702.67000000086,"y":2541513.5399999991}}]}