{"displayFieldName":"TOWNNAME","fieldAliases":{"ID":"ID","DIS_CODE":"DIS_CODE","TOWNNAME":"TOWNNAME","LI":"LI","LIN":"LIN","STREET":"STREET","SECT":"SECT","MAREA":"MAREA","LANE":"LANE","ALLEY":"ALLEY","HOUSE_NO":"HOUSE_NO","E_COORD97":"E_COORD97","N_COORD97":"N_COORD97","ADDRESS":"ADDRESS","OBJECTID":"OBJECTID"},"geometryType":"esriGeometryPoint","spatialReference":{"wkid":102443,"latestWkid":3826},"fields":[{"name":"ID","type":"esriFieldTypeDouble","alias":"ID"},{"name":"DIS_CODE","type":"esriFieldTypeInteger","alias":"DIS_CODE"},{"name":"TOWNNAME","type":"esriFieldTypeString","alias":"TOWNNAME","length":8},{"name":"LI","type":"esriFieldTypeString","alias":"LI","length":8},{"name":"LIN","type":"esriFieldTypeString","alias":"LIN","length":12},{"name":"STREET","type":"esriFieldTypeString","alias":"STREET","length":20},{"name":"SECT","type":"esriFieldTypeString","alias":"SECT","length":8},{"name":"MAREA","type":"esriFieldTypeString","alias":"MAREA","length":12},{"name":"LANE","type":"esriFieldTypeString","alias":"LANE","length":10},{"name":"ALLEY","type":"esriFieldTypeString","alias":"ALLEY","length":10},{"name":"HOUSE_NO","type":"esriFieldTypeString","alias":"HOUSE_NO","length":20},{"name":"E_COORD97","type":"esriFieldTypeDouble","alias":"E_COORD97"},{"name":"N_COORD97","type":"esriFieldTypeDouble","alias":"N_COORD97"},{"name":"ADDRESS","type":"esriFieldTypeString","alias":"ADDRESS","length":50},{"name":"OBJECTID","type":"esriFieldTypeOID","alias":"OBJECTID"}],"features":[{"attributes":{"ID":254205,"DIS_CODE":0,"TOWNNAME":"永康區","LI":"東灣里","LIN":"24鄰","STREET":"大灣二街","SECT":" ","MAREA":" ","LANE":" ","ALLEY":" ","HOUSE_NO":"８８號","E_COORD97":174812.38,"N_COORD97":2544767.7400000002,"ADDRESS":"大灣二街８８號","OBJECTID":254201},"geometry":{"x":174812.38000000082,"y":2544767.7400000002}},{"attributes":{"ID":254206,"DIS_CODE":0,"TOWNNAME":"永康區","LI":"東灣里","LIN":"24鄰","STREET":"大灣二街","SECT":" ","MAREA":" ","LANE":" ","ALLEY":" ","HOUSE_NO":"９０號","E_COORD97":174808.17000000001,"N_COORD97":2544769.0299999998,"ADDRESS":"大灣二街９０號","OBJECTID":254202},"geometry":{"x":174808.17000000179,"y":2544769.0299999975}},{"attributes":{"ID":254207,"DIS_CODE":0,"TOWNNAME":"六甲區","LI":"中社里","LIN":"11鄰","STREET":" ","SECT":" ","MAREA":"中社","LANE":" ","ALLEY":" ","HOUSE_NO":"４５２號之２","E_COORD97":180779.48000000001,"N_COORD97":2570691.4700000002,"ADDRESS":"中社４５２號之２","OBJECTID":254203},"geometry":{"x":180779.48000000138,"y":2570691.4700000025}},{"attributes":{"ID":254208,"DIS_CODE":0,"TOWNNAME":"六甲區","LI":"中社里","LIN":"11鄰","STREET":" ","SECT":" ","MAREA":"中社","LANE":" ","ALLEY":" ","HOUSE_NO":"４５２號之３","E_COORD97":180771.59,"N_COORD97":2570692.6499999999,"ADDRESS":"中社４５２號之３","OBJECTID":254204},"geometry":{"x":180771.58999999985,"y":2570692.6500000022}},{"attributes":{"ID":254209,"DIS_CODE":0,"TOWNNAME":"仁德區","LI":"太子里","LIN":"21鄰","STREET":"長興路","SECT":" ","MAREA":" ","LANE":"８７巷","ALLEY":" ","HOUSE_NO":"４５號","E_COORD97":173937.56,"N_COORD97":2543763.5,"ADDRESS":"長興路８７巷４５號","OBJECTID":254205},"geometry":{"x":173937.56000000052,"y":2543763.5000000019}},{"attributes":{"ID":254210,"DIS_CODE":0,"TOWNNAME":"仁德區","LI":"成功里","LIN":"2鄰","STREET":"保生東路","SECT":" ","MAREA":" ","LANE":"２１８巷","ALLEY":" ","HOUSE_NO":"９９號","E_COORD97":171253.22,"N_COORD97":2539592.9399999999,"ADDRESS":"保生東路２１８巷９９號","OBJECTID":254206},"geometry":{"x":171253.22000000067,"y":2539592.9400000032}},{"attributes":{"ID":254211,"DIS_CODE":0,"TOWNNAME":"安南區","LI":"大安里","LIN":"14鄰","STREET":"義安街","SECT":" ","MAREA":" ","LANE":"８６巷","ALLEY":" ","HOUSE_NO":"１９號","E_COORD97":167499.19,"N_COORD97":2548041.6600000001,"ADDRESS":"義安街８６巷１９號","OBJECTID":254207},"geometry":{"x":167499.19000000134,"y":2548041.660000002}},{"attributes":{"ID":254212,"DIS_CODE":0,"TOWNNAME":"安南區","LI":"大安里","LIN":"14鄰","STREET":"義安街","SECT":" ","MAREA":" ","LANE":"８６巷","ALLEY":" ","HOUSE_NO":"１號","E_COORD97":167469.35000000001,"N_COORD97":2548060.4399999999,"ADDRESS":"義安街８６巷１號","OBJECTID":254208},"geometry":{"x":167469.34999999963,"y":2548060.4399999995}},{"attributes":{"ID":254213,"DIS_CODE":0,"TOWNNAME":"安南區","LI":"大安里","LIN":"14鄰","STREET":"義安街","SECT":" ","MAREA":" ","LANE":"８６巷","ALLEY":" ","HOUSE_NO":"２１號","E_COORD97":167502.06,"N_COORD97":2548038.9399999999,"ADDRESS":"義安街８６巷２１號","OBJECTID":254209},"geometry":{"x":167502.05999999866,"y":2548038.9400000013}},{"attributes":{"ID":254214,"DIS_CODE":0,"TOWNNAME":"永康區","LI":"東灣里","LIN":"24鄰","STREET":"大灣二街","SECT":" ","MAREA":" ","LANE":" ","ALLEY":" ","HOUSE_NO":"１０２號","E_COORD97":174766.98000000001,"N_COORD97":2544791.6000000001,"ADDRESS":"大灣二街１０２號","OBJECTID":254210},"geometry":{"x":174766.98000000045,"y":2544791.5999999996}},{"attributes":{"ID":254215,"DIS_CODE":0,"TOWNNAME":"永康區","LI":"東灣里","LIN":"24鄰","STREET":"大灣二街","SECT":" ","MAREA":" ","LANE":" ","ALLEY":" ","HOUSE_NO":"１０６號","E_COORD97":174762.14000000001,"N_COORD97":2544794.1000000001,"ADDRESS":"大灣二街１０６號","OBJECTID":254211},"geometry":{"x":174762.13999999873,"y":2544794.1000000015}},{"attributes":{"ID":254216,"DIS_CODE":0,"TOWNNAME":"永康區","LI":"南灣里","LIN":"24鄰","STREET":"大灣一街","SECT":" ","MAREA":" ","LANE":" ","ALLEY":" ","HOUSE_NO":"９７號","E_COORD97":174446.28,"N_COORD97":2544731.6600000001,"ADDRESS":"大灣一街９７號","OBJECTID":254212},"geometry":{"x":174446.28000000026,"y":2544731.6599999983}},{"attributes":{"ID":254217,"DIS_CODE":0,"TOWNNAME":"六甲區","LI":"甲南里","LIN":"11鄰","STREET":"文化街","SECT":" ","MAREA":" ","LANE":"２５巷","ALLEY":" ","HOUSE_NO":"２號","E_COORD97":183832.38,"N_COORD97":2569746.0099999998,"ADDRESS":"文化街２５巷２號","OBJECTID":254213},"geometry":{"x":183832.38000000082,"y":2569746.0099999998}},{"attributes":{"ID":254218,"DIS_CODE":0,"TOWNNAME":"六甲區","LI":"中社里","LIN":"11鄰","STREET":" ","SECT":" ","MAREA":"中社","LANE":" ","ALLEY":" ","HOUSE_NO":"４８３號之１２","E_COORD97":181114.51999999999,"N_COORD97":2570349.1099999999,"ADDRESS":"中社４８３號之１２","OBJECTID":254214},"geometry":{"x":181114.51999999955,"y":2570349.1100000031}},{"attributes":{"ID":254219,"DIS_CODE":0,"TOWNNAME":"六甲區","LI":"中社里","LIN":"11鄰","STREET":" ","SECT":" ","MAREA":"中社","LANE":" ","ALLEY":" ","HOUSE_NO":"４８３號之１","E_COORD97":180817.75,"N_COORD97":2570433.4399999999,"ADDRESS":"中社４８３號之１","OBJECTID":254215},"geometry":{"x":180817.75000000093,"y":2570433.4400000013}},{"attributes":{"ID":254220,"DIS_CODE":0,"TOWNNAME":"六甲區","LI":"中社里","LIN":"11鄰","STREET":" ","SECT":" ","MAREA":"中社","LANE":" ","ALLEY":" ","HOUSE_NO":"４８３號之５","E_COORD97":180893.23000000001,"N_COORD97":2570328.71,"ADDRESS":"中社４８３號之５","OBJECTID":254216},"geometry":{"x":180893.23000000045,"y":2570328.7100000009}},{"attributes":{"ID":254221,"DIS_CODE":0,"TOWNNAME":"六甲區","LI":"中社里","LIN":"11鄰","STREET":" ","SECT":" ","MAREA":"中社","LANE":" ","ALLEY":" ","HOUSE_NO":"４８３號","E_COORD97":180810.97,"N_COORD97":2570436.6800000002,"ADDRESS":"中社４８３號","OBJECTID":254217},"geometry":{"x":180810.97000000067,"y":2570436.6799999997}},{"attributes":{"ID":254222,"DIS_CODE":0,"TOWNNAME":"仁德區","LI":"後壁里","LIN":"42鄰","STREET":"德崙路","SECT":" ","MAREA":" ","LANE":"１４巷","ALLEY":" ","HOUSE_NO":"６號","E_COORD97":173237.32999999999,"N_COORD97":2538576.9900000002,"ADDRESS":"德崙路１４巷６號","OBJECTID":254218},"geometry":{"x":173237.33000000194,"y":2538576.9900000021}},{"attributes":{"ID":254223,"DIS_CODE":0,"TOWNNAME":"安南區","LI":"大安里","LIN":"14鄰","STREET":"義安街","SECT":" ","MAREA":" ","LANE":"８６巷","ALLEY":" ","HOUSE_NO":"２２號","E_COORD97":167487.82000000001,"N_COORD97":2548015.0800000001,"ADDRESS":"義安街８６巷２２號","OBJECTID":254219},"geometry":{"x":167487.82000000123,"y":2548015.0800000019}},{"attributes":{"ID":254224,"DIS_CODE":0,"TOWNNAME":"六甲區","LI":"中社里","LIN":"11鄰","STREET":" ","SECT":" ","MAREA":"中社","LANE":" ","ALLEY":" ","HOUSE_NO":"４８７號","E_COORD97":180808.19,"N_COORD97":2570559.2799999998,"ADDRESS":"中社４８７號","OBJECTID":254220},"geometry":{"x":180808.19000000134,"y":2570559.2800000012}},{"attributes":{"ID":254225,"DIS_CODE":0,"TOWNNAME":"六甲區","LI":"中社里","LIN":"11鄰","STREET":" ","SECT":" ","MAREA":"中社","LANE":" ","ALLEY":" ","HOUSE_NO":"４８９號","E_COORD97":180891.42000000001,"N_COORD97":2570624.6699999999,"ADDRESS":"中社４８９號","OBJECTID":254221},"geometry":{"x":180891.41999999993,"y":2570624.6700000018}},{"attributes":{"ID":254226,"DIS_CODE":0,"TOWNNAME":"永康區","LI":"建國里","LIN":"24鄰","STREET":"復興路","SECT":" ","MAREA":" ","LANE":" ","ALLEY":" ","HOUSE_NO":"８１號","E_COORD97":172857.66,"N_COORD97":2544311.0699999998,"ADDRESS":"復興路８１號","OBJECTID":254222},"geometry":{"x":172857.66000000108,"y":2544311.0700000003}},{"attributes":{"ID":254227,"DIS_CODE":0,"TOWNNAME":"永康區","LI":"建國里","LIN":"24鄰","STREET":"復興路","SECT":" ","MAREA":" ","LANE":" ","ALLEY":" ","HOUSE_NO":"８３號","E_COORD97":172854.04999999999,"N_COORD97":2544310.8199999998,"ADDRESS":"復興路８３號","OBJECTID":254223},"geometry":{"x":172854.04999999981,"y":2544310.820000004}},{"attributes":{"ID":254228,"DIS_CODE":0,"TOWNNAME":"六甲區","LI":"甲南里","LIN":"11鄰","STREET":"文化街","SECT":" ","MAREA":" ","LANE":"４巷","ALLEY":" ","HOUSE_NO":"１０號","E_COORD97":183897.10000000001,"N_COORD97":2569726.6899999999,"ADDRESS":"文化街４巷１０號","OBJECTID":254224},"geometry":{"x":183897.09999999963,"y":2569726.6899999995}},{"attributes":{"ID":254229,"DIS_CODE":0,"TOWNNAME":"六甲區","LI":"甲南里","LIN":"11鄰","STREET":"文化街","SECT":" ","MAREA":" ","LANE":"４巷","ALLEY":" ","HOUSE_NO":"１２號","E_COORD97":183893.14000000001,"N_COORD97":2569728.54,"ADDRESS":"文化街４巷１２號","OBJECTID":254225},"geometry":{"x":183893.1400000006,"y":2569728.5399999991}},{"attributes":{"ID":254230,"DIS_CODE":0,"TOWNNAME":"六甲區","LI":"甲南里","LIN":"11鄰","STREET":"文化街","SECT":" ","MAREA":" ","LANE":"４巷","ALLEY":" ","HOUSE_NO":"６號","E_COORD97":183907.63,"N_COORD97":2569723.54,"ADDRESS":"文化街４巷６號","OBJECTID":254226},"geometry":{"x":183907.62999999989,"y":2569723.540000001}},{"attributes":{"ID":254231,"DIS_CODE":0,"TOWNNAME":"六甲區","LI":"水林里","LIN":"11鄰","STREET":"民族街","SECT":" ","MAREA":" ","LANE":"２７５巷","ALLEY":" ","HOUSE_NO":"１００號","E_COORD97":182868.31,"N_COORD97":2570332.46,"ADDRESS":"民族街２７５巷１００號","OBJECTID":254227},"geometry":{"x":182868.30999999959,"y":2570332.4600000028}},{"attributes":{"ID":254232,"DIS_CODE":0,"TOWNNAME":"六甲區","LI":"水林里","LIN":"11鄰","STREET":"民族街","SECT":" ","MAREA":" ","LANE":"２７５巷","ALLEY":" ","HOUSE_NO":"６２號","E_COORD97":182946.06,"N_COORD97":2570240.5600000001,"ADDRESS":"民族街２７５巷６２號","OBJECTID":254228},"geometry":{"x":182946.06000000052,"y":2570240.5600000005}},{"attributes":{"ID":254233,"DIS_CODE":0,"TOWNNAME":"安南區","LI":"大安里","LIN":"14鄰","STREET":"義安街","SECT":" ","MAREA":" ","LANE":"８６巷","ALLEY":" ","HOUSE_NO":"２３號","E_COORD97":167505.22,"N_COORD97":2548036.0699999998,"ADDRESS":"義安街８６巷２３號","OBJECTID":254229},"geometry":{"x":167505.22000000067,"y":2548036.0700000022}},{"attributes":{"ID":254234,"DIS_CODE":0,"TOWNNAME":"安南區","LI":"大安里","LIN":"14鄰","STREET":"義安街","SECT":" ","MAREA":" ","LANE":"８６巷","ALLEY":" ","HOUSE_NO":"２５號","E_COORD97":167508.66,"N_COORD97":2548033.9199999999,"ADDRESS":"義安街８６巷２５號","OBJECTID":254230},"geometry":{"x":167508.66000000015,"y":2548033.9199999999}},{"attributes":{"ID":254235,"DIS_CODE":0,"TOWNNAME":"安南區","LI":"大安里","LIN":"14鄰","STREET":"義安街","SECT":" ","MAREA":" ","LANE":"８６巷","ALLEY":" ","HOUSE_NO":"２６號","E_COORD97":167494.28,"N_COORD97":2548010.4900000002,"ADDRESS":"義安街８６巷２６號","OBJECTID":254231},"geometry":{"x":167494.28000000026,"y":2548010.4900000002}},{"attributes":{"ID":254236,"DIS_CODE":0,"TOWNNAME":"安南區","LI":"大安里","LIN":"14鄰","STREET":"義安街","SECT":" ","MAREA":" ","LANE":"８６巷","ALLEY":" ","HOUSE_NO":"２７號","E_COORD97":167512.82000000001,"N_COORD97":2548032.4900000002,"ADDRESS":"義安街８６巷２７號","OBJECTID":254232},"geometry":{"x":167512.8200000003,"y":2548032.4900000021}},{"attributes":{"ID":254237,"DIS_CODE":0,"TOWNNAME":"安南區","LI":"大安里","LIN":"14鄰","STREET":"義安街","SECT":" ","MAREA":" ","LANE":"８６巷","ALLEY":" ","HOUSE_NO":"２９號","E_COORD97":167514.97,"N_COORD97":2548029.0499999998,"ADDRESS":"義安街８６巷２９號","OBJECTID":254233},"geometry":{"x":167514.97000000067,"y":2548029.0500000026}},{"attributes":{"ID":254238,"DIS_CODE":0,"TOWNNAME":"安南區","LI":"大安里","LIN":"14鄰","STREET":"義安街","SECT":" ","MAREA":" ","LANE":"８６巷","ALLEY":" ","HOUSE_NO":"３０號","E_COORD97":167500.16,"N_COORD97":2548005.1899999999,"ADDRESS":"義安街８６巷３０號","OBJECTID":254234},"geometry":{"x":167500.16000000015,"y":2548005.1899999995}},{"attributes":{"ID":254239,"DIS_CODE":0,"TOWNNAME":"安南區","LI":"大安里","LIN":"14鄰","STREET":"義安街","SECT":" ","MAREA":" ","LANE":"８６巷","ALLEY":" ","HOUSE_NO":"３號","E_COORD97":167473.79999999999,"N_COORD97":2548059.5800000001,"ADDRESS":"義安街８６巷３號","OBJECTID":254235},"geometry":{"x":167473.80000000168,"y":2548059.5800000019}},{"attributes":{"ID":254240,"DIS_CODE":0,"TOWNNAME":"安南區","LI":"大安里","LIN":"14鄰","STREET":"義安街","SECT":" ","MAREA":" ","LANE":"８６巷","ALLEY":" ","HOUSE_NO":"６號","E_COORD97":167460.28,"N_COORD97":2548031.8500000001,"ADDRESS":"義安街８６巷６號","OBJECTID":254236},"geometry":{"x":167460.28000000026,"y":2548031.8499999996}},{"attributes":{"ID":254241,"DIS_CODE":0,"TOWNNAME":"安南區","LI":"大安里","LIN":"14鄰","STREET":"義安街","SECT":" ","MAREA":" ","LANE":"８６巷","ALLEY":" ","HOUSE_NO":"７號","E_COORD97":167479.67999999999,"N_COORD97":2548054.5699999998,"ADDRESS":"義安街８６巷７號","OBJECTID":254237},"geometry":{"x":167479.68000000063,"y":2548054.5700000003}},{"attributes":{"ID":254242,"DIS_CODE":0,"TOWNNAME":"安南區","LI":"大安里","LIN":"14鄰","STREET":"義安街","SECT":" ","MAREA":" ","LANE":"８６巷","ALLEY":" ","HOUSE_NO":"８號","E_COORD97":167464.14999999999,"N_COORD97":2548029.8399999999,"ADDRESS":"義安街８６巷８號","OBJECTID":254238},"geometry":{"x":167464.1500000013,"y":2548029.8400000017}},{"attributes":{"ID":254243,"DIS_CODE":0,"TOWNNAME":"永康區","LI":"埔園里","LIN":"24鄰","STREET":"中正路","SECT":" ","MAREA":" ","LANE":" ","ALLEY":" ","HOUSE_NO":"１４２號","E_COORD97":173491.60999999999,"N_COORD97":2547903.75,"ADDRESS":"中正路１４２號","OBJECTID":254239},"geometry":{"x":173491.6099999994,"y":2547903.75}},{"attributes":{"ID":254244,"DIS_CODE":0,"TOWNNAME":"永康區","LI":"南灣里","LIN":"24鄰","STREET":"立興街","SECT":" ","MAREA":" ","LANE":" ","ALLEY":" ","HOUSE_NO":"１１０號","E_COORD97":174489.35999999999,"N_COORD97":2544734.8300000001,"ADDRESS":"立興街１１０號","OBJECTID":254240},"geometry":{"x":174489.36000000034,"y":2544734.8300000019}},{"attributes":{"ID":254245,"DIS_CODE":0,"TOWNNAME":"永康區","LI":"南灣里","LIN":"24鄰","STREET":"大安街","SECT":" ","MAREA":" ","LANE":" ","ALLEY":" ","HOUSE_NO":"１８號","E_COORD97":174439.26000000001,"N_COORD97":2544792.6600000001,"ADDRESS":"大安街１８號","OBJECTID":254241},"geometry":{"x":174439.25999999978,"y":2544792.6600000001}},{"attributes":{"ID":254246,"DIS_CODE":0,"TOWNNAME":"永康區","LI":"南灣里","LIN":"24鄰","STREET":"立興街","SECT":" ","MAREA":" ","LANE":" ","ALLEY":" ","HOUSE_NO":"１１２號","E_COORD97":174487.19,"N_COORD97":2544732.5800000001,"ADDRESS":"立興街１１２號","OBJECTID":254242},"geometry":{"x":174487.19000000134,"y":2544732.5800000038}},{"attributes":{"ID":254247,"DIS_CODE":0,"TOWNNAME":"仁德區","LI":"上崙里","LIN":"24鄰","STREET":"中正路","SECT":"一段","MAREA":" ","LANE":" ","ALLEY":" ","HOUSE_NO":"７７８號","E_COORD97":172982.91,"N_COORD97":2537902.77,"ADDRESS":"中正路一段７７８號","OBJECTID":254243},"geometry":{"x":172982.91000000108,"y":2537902.7700000014}},{"attributes":{"ID":254248,"DIS_CODE":0,"TOWNNAME":"六甲區","LI":"甲南里","LIN":"11鄰","STREET":"文化街","SECT":" ","MAREA":" ","LANE":" ","ALLEY":" ","HOUSE_NO":"６號","E_COORD97":183896.29999999999,"N_COORD97":2569711.9399999999,"ADDRESS":"文化街６號","OBJECTID":254244},"geometry":{"x":183896.29999999981,"y":2569711.9399999995}},{"attributes":{"ID":254249,"DIS_CODE":0,"TOWNNAME":"安南區","LI":"大安里","LIN":"14鄰","STREET":"義安街","SECT":" ","MAREA":" ","LANE":"８６巷","ALLEY":" ","HOUSE_NO":"９號","E_COORD97":167481.98000000001,"N_COORD97":2548052.27,"ADDRESS":"義安街８６巷９號","OBJECTID":254245},"geometry":{"x":167481.98000000138,"y":2548052.2699999996}},{"attributes":{"ID":254250,"DIS_CODE":0,"TOWNNAME":"新化區","LI":"知義里","LIN":"14鄰","STREET":"復興路","SECT":" ","MAREA":" ","LANE":"１１４巷","ALLEY":" ","HOUSE_NO":"２號之１","E_COORD97":179512.45000000001,"N_COORD97":2547750.2599999998,"ADDRESS":"復興路１１４巷２號之１","OBJECTID":254246},"geometry":{"x":179512.45000000112,"y":2547750.2599999998}},{"attributes":{"ID":254251,"DIS_CODE":0,"TOWNNAME":"新化區","LI":"知義里","LIN":"14鄰","STREET":"復興路","SECT":" ","MAREA":" ","LANE":"１１４巷","ALLEY":" ","HOUSE_NO":"２０號","E_COORD97":179848.67000000001,"N_COORD97":2547683.25,"ADDRESS":"復興路１１４巷２０號","OBJECTID":254247},"geometry":{"x":179848.67000000086,"y":2547683.25}},{"attributes":{"ID":254252,"DIS_CODE":0,"TOWNNAME":"白河區","LI":"白河里","LIN":"14鄰","STREET":"新起街","SECT":" ","MAREA":" ","LANE":"４９巷","ALLEY":" ","HOUSE_NO":"１號","E_COORD97":190347.10999999999,"N_COORD97":2583189.7000000002,"ADDRESS":"新起街４９巷１號","OBJECTID":254248},"geometry":{"x":190347.1100000022,"y":2583189.6999999993}},{"attributes":{"ID":254253,"DIS_CODE":0,"TOWNNAME":"白河區","LI":"白河里","LIN":"14鄰","STREET":"新起街","SECT":" ","MAREA":" ","LANE":"４９巷","ALLEY":" ","HOUSE_NO":"２號","E_COORD97":190345.95000000001,"N_COORD97":2583185.02,"ADDRESS":"新起街４９巷２號","OBJECTID":254249},"geometry":{"x":190345.95000000019,"y":2583185.0199999996}},{"attributes":{"ID":254254,"DIS_CODE":0,"TOWNNAME":"白河區","LI":"白河里","LIN":"14鄰","STREET":"新起街","SECT":" ","MAREA":" ","LANE":"４９巷","ALLEY":" ","HOUSE_NO":"３號","E_COORD97":190344.79000000001,"N_COORD97":2583180.3399999999,"ADDRESS":"新起街４９巷３號","OBJECTID":254250},"geometry":{"x":190344.79000000004,"y":2583180.3399999999}},{"attributes":{"ID":254255,"DIS_CODE":0,"TOWNNAME":"新營區","LI":"姑爺里","LIN":"11鄰","STREET":" ","SECT":" ","MAREA":"挖仔","LANE":" ","ALLEY":" ","HOUSE_NO":"４３之４１號","E_COORD97":173960.79000000001,"N_COORD97":2575619.0600000001,"ADDRESS":"挖仔４３之４１號","OBJECTID":254251},"geometry":{"x":173960.79000000004,"y":2575619.0599999987}},{"attributes":{"ID":254256,"DIS_CODE":0,"TOWNNAME":"白河區","LI":"白河里","LIN":"14鄰","STREET":"新起街","SECT":" ","MAREA":" ","LANE":"４９巷","ALLEY":" ","HOUSE_NO":"４號","E_COORD97":190343.62,"N_COORD97":2583175.6600000001,"ADDRESS":"新起街４９巷４號","OBJECTID":254252},"geometry":{"x":190343.62000000104,"y":2583175.6600000039}},{"attributes":{"ID":254257,"DIS_CODE":0,"TOWNNAME":"白河區","LI":"白河里","LIN":"14鄰","STREET":"新起街","SECT":" ","MAREA":" ","LANE":"４９巷","ALLEY":" ","HOUSE_NO":"５號","E_COORD97":190342.42000000001,"N_COORD97":2583173.4100000001,"ADDRESS":"新起街４９巷５號","OBJECTID":254253},"geometry":{"x":190342.41999999993,"y":2583173.4100000001}},{"attributes":{"ID":254258,"DIS_CODE":0,"TOWNNAME":"白河區","LI":"白河里","LIN":"14鄰","STREET":"新起街","SECT":" ","MAREA":" ","LANE":"４９巷","ALLEY":" ","HOUSE_NO":"６號","E_COORD97":190341.32999999999,"N_COORD97":2583168.5899999999,"ADDRESS":"新起街４９巷６號","OBJECTID":254254},"geometry":{"x":190341.33000000007,"y":2583168.589999998}},{"attributes":{"ID":254259,"DIS_CODE":0,"TOWNNAME":"西港區","LI":"慶安里","LIN":"14鄰","STREET":"進學街","SECT":" ","MAREA":" ","LANE":"６７巷","ALLEY":" ","HOUSE_NO":"６號","E_COORD97":168064.04000000001,"N_COORD97":2557997.5600000001,"ADDRESS":"進學街６７巷６號","OBJECTID":254255},"geometry":{"x":168064.04000000097,"y":2557997.5600000024}},{"attributes":{"ID":254260,"DIS_CODE":0,"TOWNNAME":"永康區","LI":"埔園里","LIN":"14鄰","STREET":"中山路","SECT":" ","MAREA":" ","LANE":"２０７巷","ALLEY":" ","HOUSE_NO":"２２號","E_COORD97":173584.35999999999,"N_COORD97":2548147.4900000002,"ADDRESS":"中山路２０７巷２２號","OBJECTID":254256},"geometry":{"x":173584.36000000034,"y":2548147.4900000039}},{"attributes":{"ID":254261,"DIS_CODE":0,"TOWNNAME":"安南區","LI":"顯宮里","LIN":"3鄰","STREET":"安中路","SECT":"五段","MAREA":" ","LANE":"１巷","ALLEY":" ","HOUSE_NO":"１７１之１號","E_COORD97":162105.64079,"N_COORD97":2549981.47737,"ADDRESS":"安中路五段１巷１７１之１號","OBJECTID":254257},"geometry":{"x":162105.64079000149,"y":2549981.4773700014}},{"attributes":{"ID":254262,"DIS_CODE":0,"TOWNNAME":"永康區","LI":"埔園里","LIN":"14鄰","STREET":"中山路","SECT":" ","MAREA":" ","LANE":"２０７巷","ALLEY":" ","HOUSE_NO":"３０號","E_COORD97":173571.60000000001,"N_COORD97":2548162.2400000002,"ADDRESS":"中山路２０７巷３０號","OBJECTID":254258},"geometry":{"x":173571.59999999963,"y":2548162.2399999984}},{"attributes":{"ID":254263,"DIS_CODE":0,"TOWNNAME":"永康區","LI":"南灣里","LIN":"14鄰","STREET":"大灣路","SECT":" ","MAREA":" ","LANE":"６３８巷","ALLEY":" ","HOUSE_NO":"１號","E_COORD97":174501.88,"N_COORD97":2544632.9900000002,"ADDRESS":"大灣路６３８巷１號","OBJECTID":254259},"geometry":{"x":174501.88000000082,"y":2544632.9900000021}},{"attributes":{"ID":254264,"DIS_CODE":0,"TOWNNAME":"永康區","LI":"埔園里","LIN":"14鄰","STREET":"中山路","SECT":" ","MAREA":" ","LANE":"２３３巷","ALLEY":" ","HOUSE_NO":"８號","E_COORD97":173609.19,"N_COORD97":2548153.4900000002,"ADDRESS":"中山路２３３巷８號","OBJECTID":254260},"geometry":{"x":173609.19000000041,"y":2548153.4900000002}},{"attributes":{"ID":254265,"DIS_CODE":0,"TOWNNAME":"永康區","LI":"甲頂里","LIN":"14鄰","STREET":"大武街","SECT":" ","MAREA":" ","LANE":"１８巷","ALLEY":" ","HOUSE_NO":"４３號","E_COORD97":170410.84,"N_COORD97":2546605.2400000002,"ADDRESS":"大武街１８巷４３號","OBJECTID":254261},"geometry":{"x":170410.83999999985,"y":2546605.2400000002}},{"attributes":{"ID":254266,"DIS_CODE":0,"TOWNNAME":"新營區","LI":"新東里","LIN":"11鄰","STREET":"東仁街","SECT":" ","MAREA":" ","LANE":" ","ALLEY":" ","HOUSE_NO":"７５號","E_COORD97":181293.95000000001,"N_COORD97":2579712.8700000001,"ADDRESS":"東仁街７５號","OBJECTID":254262},"geometry":{"x":181293.95000000205,"y":2579712.870000001}},{"attributes":{"ID":254267,"DIS_CODE":0,"TOWNNAME":"柳營區","LI":"太康里","LIN":"11鄰","STREET":" ","SECT":" ","MAREA":"太康","LANE":" ","ALLEY":" ","HOUSE_NO":"１０３號","E_COORD97":181629.60999999999,"N_COORD97":2576431.4900000002,"ADDRESS":"太康１０３號","OBJECTID":254263},"geometry":{"x":181629.61000000034,"y":2576431.4900000002}},{"attributes":{"ID":254268,"DIS_CODE":0,"TOWNNAME":"柳營區","LI":"太康里","LIN":"11鄰","STREET":" ","SECT":" ","MAREA":"太康","LANE":" ","ALLEY":" ","HOUSE_NO":"１０７之１號","E_COORD97":181657.66,"N_COORD97":2576360.3799999999,"ADDRESS":"太康１０７之１號","OBJECTID":254264},"geometry":{"x":181657.66000000108,"y":2576360.379999999}},{"attributes":{"ID":254269,"DIS_CODE":0,"TOWNNAME":"柳營區","LI":"太康里","LIN":"11鄰","STREET":" ","SECT":" ","MAREA":"太康","LANE":" ","ALLEY":" ","HOUSE_NO":"１０７號之２","E_COORD97":181653.14999999999,"N_COORD97":2576363.6499999999,"ADDRESS":"太康１０７號之２","OBJECTID":254265},"geometry":{"x":181653.15000000037,"y":2576363.6500000004}},{"attributes":{"ID":254270,"DIS_CODE":0,"TOWNNAME":"柳營區","LI":"太康里","LIN":"11鄰","STREET":" ","SECT":" ","MAREA":"太康","LANE":" ","ALLEY":" ","HOUSE_NO":"１０９號","E_COORD97":181656.70999999999,"N_COORD97":2576389.73,"ADDRESS":"太康１０９號","OBJECTID":254266},"geometry":{"x":181656.71000000089,"y":2576389.7300000004}},{"attributes":{"ID":254271,"DIS_CODE":0,"TOWNNAME":"柳營區","LI":"太康里","LIN":"11鄰","STREET":" ","SECT":" ","MAREA":"太康","LANE":" ","ALLEY":" ","HOUSE_NO":"１１３號之２","E_COORD97":181678.84,"N_COORD97":2576267.2999999998,"ADDRESS":"太康１１３號之２","OBJECTID":254267},"geometry":{"x":181678.83999999985,"y":2576267.3000000007}},{"attributes":{"ID":254272,"DIS_CODE":0,"TOWNNAME":"柳營區","LI":"太康里","LIN":"11鄰","STREET":" ","SECT":" ","MAREA":"太康","LANE":" ","ALLEY":" ","HOUSE_NO":"１１３號","E_COORD97":181696.23999999999,"N_COORD97":2576339.3799999999,"ADDRESS":"太康１１３號","OBJECTID":254268},"geometry":{"x":181696.24000000115,"y":2576339.379999999}},{"attributes":{"ID":254273,"DIS_CODE":0,"TOWNNAME":"柳營區","LI":"太康里","LIN":"11鄰","STREET":" ","SECT":" ","MAREA":"太康","LANE":" ","ALLEY":" ","HOUSE_NO":"１１４號之１","E_COORD97":181702.41,"N_COORD97":2576309.8700000001,"ADDRESS":"太康１１４號之１","OBJECTID":254269},"geometry":{"x":181702.41000000015,"y":2576309.8700000029}},{"attributes":{"ID":254274,"DIS_CODE":0,"TOWNNAME":"永康區","LI":"西橋里","LIN":"14鄰","STREET":"大橋一街","SECT":" ","MAREA":" ","LANE":"３１巷","ALLEY":" ","HOUSE_NO":"５２號","E_COORD97":170584.81,"N_COORD97":2546367.4900000002,"ADDRESS":"大橋一街３１巷５２號","OBJECTID":254270},"geometry":{"x":170584.81000000052,"y":2546367.4900000039}},{"attributes":{"ID":254275,"DIS_CODE":0,"TOWNNAME":"永康區","LI":"西橋里","LIN":"14鄰","STREET":"大橋一街","SECT":" ","MAREA":" ","LANE":"３１巷","ALLEY":" ","HOUSE_NO":"５４號","E_COORD97":170586.04000000001,"N_COORD97":2546371.7400000002,"ADDRESS":"大橋一街３１巷５４號","OBJECTID":254271},"geometry":{"x":170586.04000000004,"y":2546371.7400000002}},{"attributes":{"ID":254276,"DIS_CODE":0,"TOWNNAME":"永康區","LI":"西橋里","LIN":"14鄰","STREET":"大橋一街","SECT":" ","MAREA":" ","LANE":"３１巷","ALLEY":" ","HOUSE_NO":"１０號","E_COORD97":170584.48000000001,"N_COORD97":2546273.2400000002,"ADDRESS":"大橋一街３１巷１０號","OBJECTID":254272},"geometry":{"x":170584.48000000138,"y":2546273.2400000002}},{"attributes":{"ID":254277,"DIS_CODE":0,"TOWNNAME":"永康區","LI":"西橋里","LIN":"14鄰","STREET":"大橋一街","SECT":" ","MAREA":" ","LANE":"３１巷","ALLEY":" ","HOUSE_NO":"６號","E_COORD97":170585.51999999999,"N_COORD97":2546264.7400000002,"ADDRESS":"大橋一街３１巷６號","OBJECTID":254273},"geometry":{"x":170585.51999999955,"y":2546264.7400000021}},{"attributes":{"ID":254278,"DIS_CODE":0,"TOWNNAME":"永康區","LI":"西橋里","LIN":"14鄰","STREET":"大橋一街","SECT":" ","MAREA":" ","LANE":"３１巷","ALLEY":" ","HOUSE_NO":"４號","E_COORD97":170584.59,"N_COORD97":2546255.9900000002,"ADDRESS":"大橋一街３１巷４號","OBJECTID":254274},"geometry":{"x":170584.59000000078,"y":2546255.9900000021}},{"attributes":{"ID":254279,"DIS_CODE":0,"TOWNNAME":"柳營區","LI":"太康里","LIN":"11鄰","STREET":" ","SECT":" ","MAREA":"太康","LANE":" ","ALLEY":" ","HOUSE_NO":"１１５號","E_COORD97":181732.85000000001,"N_COORD97":2576308.8700000001,"ADDRESS":"太康１１５號","OBJECTID":254275},"geometry":{"x":181732.84999999963,"y":2576308.870000001}},{"attributes":{"ID":254280,"DIS_CODE":0,"TOWNNAME":"永康區","LI":"西橋里","LIN":"14鄰","STREET":"大橋一街","SECT":" ","MAREA":" ","LANE":"３１巷","ALLEY":" ","HOUSE_NO":"１６號","E_COORD97":170578.60000000001,"N_COORD97":2546281.7400000002,"ADDRESS":"大橋一街３１巷１６號","OBJECTID":254276},"geometry":{"x":170578.5999999987,"y":2546281.7400000021}},{"attributes":{"ID":254281,"DIS_CODE":0,"TOWNNAME":"永康區","LI":"西橋里","LIN":"14鄰","STREET":"大橋一街","SECT":" ","MAREA":" ","LANE":"３１巷","ALLEY":" ","HOUSE_NO":"３０號","E_COORD97":170577.48999999999,"N_COORD97":2546307.5,"ADDRESS":"大橋一街３１巷３０號","OBJECTID":254277},"geometry":{"x":170577.49000000115,"y":2546307.5000000019}},{"attributes":{"ID":254282,"DIS_CODE":0,"TOWNNAME":"永康區","LI":"西橋里","LIN":"14鄰","STREET":"大橋一街","SECT":" ","MAREA":" ","LANE":"３１巷","ALLEY":" ","HOUSE_NO":"３４號","E_COORD97":170576.20000000001,"N_COORD97":2546330.5,"ADDRESS":"大橋一街３１巷３４號","OBJECTID":254278},"geometry":{"x":170576.20000000019,"y":2546330.5000000019}},{"attributes":{"ID":254283,"DIS_CODE":0,"TOWNNAME":"永康區","LI":"西勢里","LIN":"14鄰","STREET":"西勢路","SECT":" ","MAREA":" ","LANE":"６５巷","ALLEY":" ","HOUSE_NO":"５號","E_COORD97":176166.98000000001,"N_COORD97":2546720.29,"ADDRESS":"西勢路６５巷５號","OBJECTID":254279},"geometry":{"x":176166.98000000045,"y":2546720.2900000028}},{"attributes":{"ID":254284,"DIS_CODE":0,"TOWNNAME":"永康區","LI":"西勢里","LIN":"14鄰","STREET":"西勢路","SECT":" ","MAREA":" ","LANE":"１９巷","ALLEY":" ","HOUSE_NO":"５號","E_COORD97":176256.91,"N_COORD97":2546716.54,"ADDRESS":"西勢路１９巷５號","OBJECTID":254280},"geometry":{"x":176256.91000000015,"y":2546716.540000001}},{"attributes":{"ID":254285,"DIS_CODE":0,"TOWNNAME":"新營區","LI":"新東里","LIN":"20鄰","STREET":"東安街","SECT":" ","MAREA":" ","LANE":" ","ALLEY":" ","HOUSE_NO":"９號","E_COORD97":180937.99847699999,"N_COORD97":2579517.4998499998,"ADDRESS":"東安街９號","OBJECTID":254281},"geometry":{"x":180937.99847700074,"y":2579517.4998460039}},{"attributes":{"ID":254286,"DIS_CODE":0,"TOWNNAME":"安南區","LI":"溪墘里","LIN":"27鄰","STREET":"海佃路","SECT":"一段","MAREA":" ","LANE":"１５８巷","ALLEY":" ","HOUSE_NO":"３２號","E_COORD97":167274.26000000001,"N_COORD97":2547195.48,"ADDRESS":"海佃路一段１５８巷３２號","OBJECTID":254282},"geometry":{"x":167274.26000000071,"y":2547195.4800000023}},{"attributes":{"ID":254287,"DIS_CODE":0,"TOWNNAME":"永康區","LI":"龍潭里","LIN":"27鄰","STREET":"中山北路","SECT":" ","MAREA":" ","LANE":"４６１巷","ALLEY":" ","HOUSE_NO":"１５號","E_COORD97":175102.47,"N_COORD97":2547830.73,"ADDRESS":"中山北路４６１巷１５號","OBJECTID":254283},"geometry":{"x":175102.4700000016,"y":2547830.7300000042}},{"attributes":{"ID":254288,"DIS_CODE":0,"TOWNNAME":"永康區","LI":"龍潭里","LIN":"27鄰","STREET":"中山北路","SECT":" ","MAREA":" ","LANE":"４６１巷","ALLEY":" ","HOUSE_NO":"２５號","E_COORD97":175100.07000000001,"N_COORD97":2547850.9900000002,"ADDRESS":"中山北路４６１巷２５號","OBJECTID":254284},"geometry":{"x":175100.0700000003,"y":2547850.9900000002}},{"attributes":{"ID":254289,"DIS_CODE":0,"TOWNNAME":"永康區","LI":"東灣里","LIN":"27鄰","STREET":"大灣一街","SECT":" ","MAREA":" ","LANE":"３１２巷","ALLEY":" ","HOUSE_NO":"７號","E_COORD97":175065.57999999999,"N_COORD97":2544694.2200000002,"ADDRESS":"大灣一街３１２巷７號","OBJECTID":254285},"geometry":{"x":175065.58000000101,"y":2544694.2200000007}},{"attributes":{"ID":254290,"DIS_CODE":0,"TOWNNAME":"永康區","LI":"大橋里","LIN":"27鄰","STREET":"大橋一街","SECT":" ","MAREA":" ","LANE":"２４７巷","ALLEY":" ","HOUSE_NO":"１２號","E_COORD97":171284.57999999999,"N_COORD97":2546701.7400000002,"ADDRESS":"大橋一街２４７巷１２號","OBJECTID":254286},"geometry":{"x":171284.58000000194,"y":2546701.7400000021}},{"attributes":{"ID":254291,"DIS_CODE":0,"TOWNNAME":"仁德區","LI":"後壁里","LIN":"4鄰","STREET":"德善一街","SECT":" ","MAREA":" ","LANE":"５巷","ALLEY":" ","HOUSE_NO":"１９號","E_COORD97":173321.95999999999,"N_COORD97":2538968.52,"ADDRESS":"德善一街５巷１９號","OBJECTID":254287},"geometry":{"x":173321.96000000089,"y":2538968.5200000033}},{"attributes":{"ID":254292,"DIS_CODE":0,"TOWNNAME":"永康區","LI":"\u25A0洲里","LIN":"27鄰","STREET":"洲尾街","SECT":" ","MAREA":" ","LANE":"１４６巷","ALLEY":" ","HOUSE_NO":"２９號","E_COORD97":170997.98999999999,"N_COORD97":2549071.6699999999,"ADDRESS":"洲尾街１４６巷２９號","OBJECTID":254288},"geometry":{"x":170997.99000000022,"y":2549071.6700000018}},{"attributes":{"ID":254293,"DIS_CODE":0,"TOWNNAME":"永康區","LI":"大灣里","LIN":"27鄰","STREET":"大灣六街","SECT":" ","MAREA":" ","LANE":" ","ALLEY":" ","HOUSE_NO":"４２號","E_COORD97":175240.62,"N_COORD97":2545232.6299999999,"ADDRESS":"大灣六街４２號","OBJECTID":254289},"geometry":{"x":175240.62000000011,"y":2545232.6300000027}},{"attributes":{"ID":254294,"DIS_CODE":0,"TOWNNAME":"永康區","LI":"大灣里","LIN":"27鄰","STREET":"大灣六街","SECT":" ","MAREA":" ","LANE":"８０巷","ALLEY":" ","HOUSE_NO":"５２號","E_COORD97":175288.91,"N_COORD97":2545304.3799999999,"ADDRESS":"大灣六街８０巷５２號","OBJECTID":254290},"geometry":{"x":175288.91000000108,"y":2545304.379999999}},{"attributes":{"ID":254295,"DIS_CODE":0,"TOWNNAME":"永康區","LI":"東灣里","LIN":"27鄰","STREET":"民族路","SECT":" ","MAREA":" ","LANE":"１４５巷","ALLEY":" ","HOUSE_NO":"９５號","E_COORD97":175113.81,"N_COORD97":2544677.5800000001,"ADDRESS":"民族路１４５巷９５號","OBJECTID":254291},"geometry":{"x":175113.81000000052,"y":2544677.5800000001}},{"attributes":{"ID":254296,"DIS_CODE":0,"TOWNNAME":"永康區","LI":"勝利里","LIN":"27鄰","STREET":"勝利街","SECT":" ","MAREA":" ","LANE":"５８巷","ALLEY":" ","HOUSE_NO":"９號","E_COORD97":171384.28,"N_COORD97":2544681.2599999998,"ADDRESS":"勝利街５８巷９號","OBJECTID":254292},"geometry":{"x":171384.28000000026,"y":2544681.2600000016}},{"attributes":{"ID":254297,"DIS_CODE":0,"TOWNNAME":"永康區","LI":"埔園里","LIN":"27鄰","STREET":"埔東街","SECT":" ","MAREA":" ","LANE":"６３巷","ALLEY":" ","HOUSE_NO":"２號","E_COORD97":173751.04000000001,"N_COORD97":2548186.5,"ADDRESS":"埔東街６３巷２號","OBJECTID":254293},"geometry":{"x":173751.04000000004,"y":2548186.5}},{"attributes":{"ID":254298,"DIS_CODE":0,"TOWNNAME":"永康區","LI":"\u25A0行里","LIN":"27鄰","STREET":"中正南路","SECT":" ","MAREA":" ","LANE":" ","ALLEY":" ","HOUSE_NO":"３５０號","E_COORD97":170852.20999999999,"N_COORD97":2548061.1099999999,"ADDRESS":"中正南路３５０號","OBJECTID":254294},"geometry":{"x":170852.20999999996,"y":2548061.1100000013}},{"attributes":{"ID":254299,"DIS_CODE":0,"TOWNNAME":"仁德區","LI":"保安里","LIN":"19鄰","STREET":"中正路","SECT":"一段","MAREA":" ","LANE":" ","ALLEY":" ","HOUSE_NO":"２６２之２號","E_COORD97":171759.63,"N_COORD97":2535917.29,"ADDRESS":"中正路一段２６２之２號","OBJECTID":254295},"geometry":{"x":171759.62999999989,"y":2535917.2899999991}},{"attributes":{"ID":254300,"DIS_CODE":0,"TOWNNAME":"永康區","LI":"\u25A0洲里","LIN":"27鄰","STREET":"洲尾街","SECT":" ","MAREA":" ","LANE":" ","ALLEY":" ","HOUSE_NO":"１４８號","E_COORD97":171017.26999999999,"N_COORD97":2549119.9399999999,"ADDRESS":"洲尾街１４８號","OBJECTID":254296},"geometry":{"x":171017.27000000048,"y":2549119.9400000032}},{"attributes":{"ID":254301,"DIS_CODE":0,"TOWNNAME":"永康區","LI":"勝利里","LIN":"27鄰","STREET":"勝利街","SECT":" ","MAREA":" ","LANE":" ","ALLEY":" ","HOUSE_NO":"６０號","E_COORD97":171349.09,"N_COORD97":2544687.23,"ADDRESS":"勝利街６０號","OBJECTID":254297},"geometry":{"x":171349.09000000078,"y":2544687.2300000004}},{"attributes":{"ID":254302,"DIS_CODE":0,"TOWNNAME":"永康區","LI":"埔園里","LIN":"27鄰","STREET":"埔園街","SECT":" ","MAREA":" ","LANE":" ","ALLEY":" ","HOUSE_NO":"２１０號","E_COORD97":173770.60000000001,"N_COORD97":2548247.7400000002,"ADDRESS":"埔園街２１０號","OBJECTID":254298},"geometry":{"x":173770.59999999963,"y":2548247.7400000021}},{"attributes":{"ID":254303,"DIS_CODE":0,"TOWNNAME":"永康區","LI":"勝利里","LIN":"27鄰","STREET":"勝利街","SECT":" ","MAREA":" ","LANE":" ","ALLEY":" ","HOUSE_NO":"５２號","E_COORD97":171344.81,"N_COORD97":2544658.7599999998,"ADDRESS":"勝利街５２號","OBJECTID":254299},"geometry":{"x":171344.80999999959,"y":2544658.7599999998}},{"attributes":{"ID":254304,"DIS_CODE":0,"TOWNNAME":"東區","LI":"崇明里","LIN":"15鄰","STREET":"崇明路","SECT":" ","MAREA":" ","LANE":" ","ALLEY":" ","HOUSE_NO":"５６８號","E_COORD97":170477.73000000001,"N_COORD97":2541502.1499999999,"ADDRESS":"崇明路５６８號","OBJECTID":254300},"geometry":{"x":170477.73000000138,"y":2541502.1500000022}},{"attributes":{"ID":254305,"DIS_CODE":0,"TOWNNAME":"東區","LI":"崇明里","LIN":"15鄰","STREET":"崇明路","SECT":" ","MAREA":" ","LANE":" ","ALLEY":" ","HOUSE_NO":"５７０號","E_COORD97":170480.29999999999,"N_COORD97":2541499.3700000001,"ADDRESS":"崇明路５７０號","OBJECTID":254301},"geometry":{"x":170480.29999999981,"y":2541499.370000001}},{"attributes":{"ID":254306,"DIS_CODE":0,"TOWNNAME":"東區","LI":"莊敬里","LIN":"12鄰","STREET":"東光路","SECT":"二段","MAREA":" ","LANE":" ","ALLEY":" ","HOUSE_NO":"４２號","E_COORD97":171226.17000000001,"N_COORD97":2544076.1899999999,"ADDRESS":"東光路二段４２號","OBJECTID":254302},"geometry":{"x":171226.17000000179,"y":2544076.1899999995}},{"attributes":{"ID":254307,"DIS_CODE":0,"TOWNNAME":"東區","LI":"莊敬里","LIN":"12鄰","STREET":"東光路","SECT":"二段","MAREA":" ","LANE":" ","ALLEY":" ","HOUSE_NO":"４２之１號","E_COORD97":171226.85999999999,"N_COORD97":2544080.6699999999,"ADDRESS":"東光路二段４２之１號","OBJECTID":254303},"geometry":{"x":171226.8599999994,"y":2544080.6700000037}},{"attributes":{"ID":254308,"DIS_CODE":0,"TOWNNAME":"東區","LI":"莊敬里","LIN":"12鄰","STREET":"東光路","SECT":"二段","MAREA":" ","LANE":" ","ALLEY":" ","HOUSE_NO":"４２之２號","E_COORD97":171226.69,"N_COORD97":2544085.8500000001,"ADDRESS":"東光路二段４２之２號","OBJECTID":254304},"geometry":{"x":171226.69000000134,"y":2544085.8500000034}},{"attributes":{"ID":254309,"DIS_CODE":0,"TOWNNAME":"東區","LI":"崇善里","LIN":"23鄰","STREET":"崇善十二街","SECT":" ","MAREA":" ","LANE":" ","ALLEY":" ","HOUSE_NO":"４２之１號","E_COORD97":171318.09,"N_COORD97":2541123.0899999999,"ADDRESS":"崇善十二街４２之１號","OBJECTID":254305},"geometry":{"x":171318.09000000171,"y":2541123.0899999999}},{"attributes":{"ID":254310,"DIS_CODE":0,"TOWNNAME":"佳里區","LI":"安西里","LIN":"49鄰","STREET":" ","SECT":" ","MAREA":"安西","LANE":" ","ALLEY":" ","HOUSE_NO":"１３２之１４號","E_COORD97":164182.73999999999,"N_COORD97":2562630.0499999998,"ADDRESS":"安西１３２之１４號","OBJECTID":254306},"geometry":{"x":164182.74000000115,"y":2562630.0500000007}},{"attributes":{"ID":254311,"DIS_CODE":0,"TOWNNAME":"柳營區","LI":"太康里","LIN":"11鄰","STREET":" ","SECT":" ","MAREA":"太康","LANE":" ","ALLEY":" ","HOUSE_NO":"１１６號之１","E_COORD97":181825.75,"N_COORD97":2576306.3399999999,"ADDRESS":"太康１１６號之１","OBJECTID":254307},"geometry":{"x":181825.75000000186,"y":2576306.3400000017}},{"attributes":{"ID":254312,"DIS_CODE":0,"TOWNNAME":"柳營區","LI":"太康里","LIN":"11鄰","STREET":" ","SECT":" ","MAREA":"太康","LANE":" ","ALLEY":" ","HOUSE_NO":"１１６之２號","E_COORD97":181793.41,"N_COORD97":2576302.0899999999,"ADDRESS":"太康１１６之２號","OBJECTID":254308},"geometry":{"x":181793.41000000015,"y":2576302.0899999999}},{"attributes":{"ID":254313,"DIS_CODE":0,"TOWNNAME":"柳營區","LI":"太康里","LIN":"11鄰","STREET":" ","SECT":" ","MAREA":"太康","LANE":" ","ALLEY":" ","HOUSE_NO":"１１６號","E_COORD97":181724.63,"N_COORD97":2576308.8700000001,"ADDRESS":"太康１１６號","OBJECTID":254309},"geometry":{"x":181724.63000000175,"y":2576308.870000001}},{"attributes":{"ID":254314,"DIS_CODE":0,"TOWNNAME":"仁德區","LI":"太子里","LIN":"20鄰","STREET":"長興四街","SECT":" ","MAREA":" ","LANE":"２６巷","ALLEY":" ","HOUSE_NO":"１９號","E_COORD97":173957.42000000001,"N_COORD97":2543632.5099999998,"ADDRESS":"長興四街２６巷１９號","OBJECTID":254310},"geometry":{"x":173957.42000000086,"y":2543632.5099999998}},{"attributes":{"ID":254315,"DIS_CODE":0,"TOWNNAME":"永康區","LI":"埔園里","LIN":"27鄰","STREET":"龍埔街","SECT":" ","MAREA":" ","LANE":"３７９巷","ALLEY":" ","HOUSE_NO":"１號","E_COORD97":173770.57999999999,"N_COORD97":2548338.2400000002,"ADDRESS":"龍埔街３７９巷１號","OBJECTID":254311},"geometry":{"x":173770.58000000007,"y":2548338.2400000002}},{"attributes":{"ID":254316,"DIS_CODE":0,"TOWNNAME":"永康區","LI":"埔園里","LIN":"27鄰","STREET":"埔東街","SECT":" ","MAREA":" ","LANE":"６３巷","ALLEY":" ","HOUSE_NO":"３號","E_COORD97":173741.17999999999,"N_COORD97":2548174.75,"ADDRESS":"埔東街６３巷３號","OBJECTID":254312},"geometry":{"x":173741.1799999997,"y":2548174.75}},{"attributes":{"ID":254317,"DIS_CODE":0,"TOWNNAME":"仁德區","LI":"成功里","LIN":"20鄰","STREET":"保生路","SECT":" ","MAREA":" ","LANE":"１２３巷","ALLEY":" ","HOUSE_NO":"７號","E_COORD97":170618.70000000001,"N_COORD97":2539789.25,"ADDRESS":"保生路１２３巷７號","OBJECTID":254313},"geometry":{"x":170618.70000000019,"y":2539789.2500000019}},{"attributes":{"ID":254318,"DIS_CODE":0,"TOWNNAME":"仁德區","LI":"後壁里","LIN":"25鄰","STREET":"德洋一街","SECT":" ","MAREA":" ","LANE":"６巷","ALLEY":" ","HOUSE_NO":"１３號","E_COORD97":173096.44,"N_COORD97":2539077.27,"ADDRESS":"德洋一街６巷１３號","OBJECTID":254314},"geometry":{"x":173096.44000000134,"y":2539077.2699999996}},{"attributes":{"ID":254319,"DIS_CODE":0,"TOWNNAME":"仁德區","LI":"新田里","LIN":"13鄰","STREET":"北保一街","SECT":" ","MAREA":" ","LANE":"１巷","ALLEY":" ","HOUSE_NO":"６號","E_COORD97":173273.28,"N_COORD97":2539422.7400000002,"ADDRESS":"北保一街１巷６號","OBJECTID":254315},"geometry":{"x":173273.28000000026,"y":2539422.7400000021}},{"attributes":{"ID":254320,"DIS_CODE":0,"TOWNNAME":"仁德區","LI":"保安里","LIN":"21鄰","STREET":"文賢一街","SECT":" ","MAREA":" ","LANE":"１巷","ALLEY":" ","HOUSE_NO":"１１號","E_COORD97":171103.92999999999,"N_COORD97":2536685.5800000001,"ADDRESS":"文賢一街１巷１１號","OBJECTID":254316},"geometry":{"x":171103.93000000063,"y":2536685.5800000001}},{"attributes":{"ID":254321,"DIS_CODE":0,"TOWNNAME":"仁德區","LI":"保安里","LIN":"21鄰","STREET":"文賢一街","SECT":" ","MAREA":" ","LANE":"３巷","ALLEY":" ","HOUSE_NO":"１號","E_COORD97":171071.35999999999,"N_COORD97":2536699.0800000001,"ADDRESS":"文賢一街３巷１號","OBJECTID":254317},"geometry":{"x":171071.36000000127,"y":2536699.0800000001}},{"attributes":{"ID":254322,"DIS_CODE":0,"TOWNNAME":"仁德區","LI":"成功里","LIN":"28鄰","STREET":"成功一街","SECT":" ","MAREA":" ","LANE":"１０巷","ALLEY":" ","HOUSE_NO":"１０號","E_COORD97":170519.51000000001,"N_COORD97":2540201.27,"ADDRESS":"成功一街１０巷１０號","OBJECTID":254318},"geometry":{"x":170519.50999999978,"y":2540201.2700000014}},{"attributes":{"ID":254323,"DIS_CODE":0,"TOWNNAME":"東區","LI":"富強里","LIN":"27鄰","STREET":"東門路","SECT":"二段","MAREA":" ","LANE":"３０１巷","ALLEY":" ","HOUSE_NO":"８２號","E_COORD97":170938.22,"N_COORD97":2542713.1200000001,"ADDRESS":"東門路二段３０１巷８２號","OBJECTID":254319},"geometry":{"x":170938.22000000067,"y":2542713.1200000029}},{"attributes":{"ID":254324,"DIS_CODE":0,"TOWNNAME":"永康區","LI":"勝利里","LIN":"27鄰","STREET":"勝利街","SECT":" ","MAREA":" ","LANE":" ","ALLEY":" ","HOUSE_NO":"４８號","E_COORD97":171342.29000000001,"N_COORD97":2544650.2599999998,"ADDRESS":"勝利街４８號","OBJECTID":254320},"geometry":{"x":171342.28999999911,"y":2544650.2600000016}},{"attributes":{"ID":254325,"DIS_CODE":0,"TOWNNAME":"仁德區","LI":"後壁里","LIN":"27鄰","STREET":"中正路","SECT":"二段","MAREA":" ","LANE":"３０１巷","ALLEY":" ","HOUSE_NO":"３２號","E_COORD97":173185.07999999999,"N_COORD97":2539127.52,"ADDRESS":"中正路二段３０１巷３２號","OBJECTID":254321},"geometry":{"x":173185.08000000101,"y":2539127.5199999996}},{"attributes":{"ID":254326,"DIS_CODE":0,"TOWNNAME":"永康區","LI":"埔園里","LIN":"27鄰","STREET":"埔園街","SECT":" ","MAREA":" ","LANE":" ","ALLEY":" ","HOUSE_NO":"２０８號","E_COORD97":173777.70999999999,"N_COORD97":2548246.2400000002,"ADDRESS":"埔園街２０８號","OBJECTID":254322},"geometry":{"x":173777.71000000089,"y":2548246.2400000002}},{"attributes":{"ID":254327,"DIS_CODE":0,"TOWNNAME":"永康區","LI":"勝利里","LIN":"27鄰","STREET":"勝利街","SECT":" ","MAREA":" ","LANE":" ","ALLEY":" ","HOUSE_NO":"５０號","E_COORD97":171343.10000000001,"N_COORD97":2544654.2599999998,"ADDRESS":"勝利街５０號","OBJECTID":254323},"geometry":{"x":171343.09999999963,"y":2544654.2600000016}},{"attributes":{"ID":254328,"DIS_CODE":0,"TOWNNAME":"永康區","LI":"埔園里","LIN":"27鄰","STREET":"埔園街","SECT":" ","MAREA":" ","LANE":" ","ALLEY":" ","HOUSE_NO":"２０１號","E_COORD97":173739.84,"N_COORD97":2548235.5499999998,"ADDRESS":"埔園街２０１號","OBJECTID":254324},"geometry":{"x":173739.83999999985,"y":2548235.5500000045}},{"attributes":{"ID":254329,"DIS_CODE":0,"TOWNNAME":"永康區","LI":"埔園里","LIN":"27鄰","STREET":"埔園街","SECT":" ","MAREA":" ","LANE":" ","ALLEY":" ","HOUSE_NO":"２１２號","E_COORD97":173765.10999999999,"N_COORD97":2548249.4900000002,"ADDRESS":"埔園街２１２號","OBJECTID":254325},"geometry":{"x":173765.11000000127,"y":2548249.4900000021}},{"attributes":{"ID":254330,"DIS_CODE":0,"TOWNNAME":"永康區","LI":"埔園里","LIN":"27鄰","STREET":"埔園街","SECT":" ","MAREA":" ","LANE":" ","ALLEY":" ","HOUSE_NO":"２２２號","E_COORD97":173751.67999999999,"N_COORD97":2548262.7400000002,"ADDRESS":"埔園街２２２號","OBJECTID":254326},"geometry":{"x":173751.68000000156,"y":2548262.7400000002}},{"attributes":{"ID":254331,"DIS_CODE":0,"TOWNNAME":"仁德區","LI":"後壁里","LIN":"42鄰","STREET":"德崙路","SECT":" ","MAREA":" ","LANE":" ","ALLEY":" ","HOUSE_NO":"４６號","E_COORD97":173302.04999999999,"N_COORD97":2538559.77,"ADDRESS":"德崙路４６號","OBJECTID":254327},"geometry":{"x":173302.05000000075,"y":2538559.7699999996}},{"attributes":{"ID":254332,"DIS_CODE":0,"TOWNNAME":"永康區","LI":"勝利里","LIN":"27鄰","STREET":"勝利街","SECT":" ","MAREA":" ","LANE":" ","ALLEY":" ","HOUSE_NO":"６２號","E_COORD97":171349.09,"N_COORD97":2544691.73,"ADDRESS":"勝利街６２號","OBJECTID":254328},"geometry":{"x":171349.09000000078,"y":2544691.7300000023}},{"attributes":{"ID":254333,"DIS_CODE":0,"TOWNNAME":"安南區","LI":"州南里","LIN":"27鄰","STREET":"長和路","SECT":"二段","MAREA":" ","LANE":" ","ALLEY":" ","HOUSE_NO":"１３７號","E_COORD97":170116.98999999999,"N_COORD97":2551506.5,"ADDRESS":"長和路二段１３７號","OBJECTID":254329},"geometry":{"x":170116.99000000022,"y":2551506.5}},{"attributes":{"ID":254334,"DIS_CODE":0,"TOWNNAME":"安南區","LI":"州南里","LIN":"27鄰","STREET":"長和路","SECT":"二段","MAREA":" ","LANE":" ","ALLEY":" ","HOUSE_NO":"１１５號","E_COORD97":170228.59,"N_COORD97":2551529.9399999999,"ADDRESS":"長和路二段１１５號","OBJECTID":254330},"geometry":{"x":170228.59000000078,"y":2551529.9399999995}},{"attributes":{"ID":254335,"DIS_CODE":0,"TOWNNAME":"安南區","LI":"州南里","LIN":"27鄰","STREET":"長和路","SECT":"二段","MAREA":" ","LANE":" ","ALLEY":" ","HOUSE_NO":"１１７號","E_COORD97":170224.67999999999,"N_COORD97":2551528.8500000001,"ADDRESS":"長和路二段１１７號","OBJECTID":254331},"geometry":{"x":170224.68000000063,"y":2551528.8500000015}},{"attributes":{"ID":254336,"DIS_CODE":0,"TOWNNAME":"仁德區","LI":"太子里","LIN":"27鄰","STREET":"大發路","SECT":" ","MAREA":" ","LANE":" ","ALLEY":" ","HOUSE_NO":"３０７號","E_COORD97":173256.29999999999,"N_COORD97":2543347.77,"ADDRESS":"大發路３０７號","OBJECTID":254332},"geometry":{"x":173256.30000000075,"y":2543347.7700000014}},{"attributes":{"ID":254337,"DIS_CODE":0,"TOWNNAME":"仁德區","LI":"太子里","LIN":"27鄰","STREET":"大發路","SECT":" ","MAREA":" ","LANE":" ","ALLEY":" ","HOUSE_NO":"２８２號","E_COORD97":173280.167247,"N_COORD97":2543234.9744799999,"ADDRESS":"大發路２８２號","OBJECTID":254333},"geometry":{"x":173280.16724700108,"y":2543234.9744770005}},{"attributes":{"ID":254338,"DIS_CODE":0,"TOWNNAME":"仁德區","LI":"後壁里","LIN":"27鄰","STREET":"中正路","SECT":"二段","MAREA":" ","LANE":"３０１巷","ALLEY":" ","HOUSE_NO":"３０號","E_COORD97":173188.48999999999,"N_COORD97":2539124.77,"ADDRESS":"中正路二段３０１巷３０號","OBJECTID":254334},"geometry":{"x":173188.49000000022,"y":2539124.7699999996}},{"attributes":{"ID":254339,"DIS_CODE":0,"TOWNNAME":"仁德區","LI":"後壁里","LIN":"27鄰","STREET":"中正路","SECT":"二段","MAREA":" ","LANE":"３０１巷","ALLEY":" ","HOUSE_NO":"２３號","E_COORD97":173166.57999999999,"N_COORD97":2539124.27,"ADDRESS":"中正路二段３０１巷２３號","OBJECTID":254335},"geometry":{"x":173166.58000000101,"y":2539124.2700000014}},{"attributes":{"ID":254340,"DIS_CODE":0,"TOWNNAME":"仁德區","LI":"新田里","LIN":"18鄰","STREET":"民安路","SECT":"二段","MAREA":" ","LANE":"２１３巷","ALLEY":" ","HOUSE_NO":"７號","E_COORD97":173785.03,"N_COORD97":2539009.5600000001,"ADDRESS":"民安路二段２１３巷７號","OBJECTID":254336},"geometry":{"x":173785.03000000026,"y":2539009.5600000005}},{"attributes":{"ID":254341,"DIS_CODE":0,"TOWNNAME":"仁德區","LI":"後壁里","LIN":"41鄰","STREET":"德善路","SECT":" ","MAREA":" ","LANE":"２５１巷","ALLEY":" ","HOUSE_NO":"１之５號","E_COORD97":173873.39999999999,"N_COORD97":2538717.2599999998,"ADDRESS":"德善路２５１巷１之５號","OBJECTID":254337},"geometry":{"x":173873.4000000013,"y":2538717.2600000016}},{"attributes":{"ID":254342,"DIS_CODE":0,"TOWNNAME":"仁德區","LI":"新田里","LIN":"17鄰","STREET":"民安路","SECT":"二段","MAREA":" ","LANE":"６３巷","ALLEY":" ","HOUSE_NO":"２２號","E_COORD97":173484.98999999999,"N_COORD97":2539247.0600000001,"ADDRESS":"民安路二段６３巷２２號","OBJECTID":254338},"geometry":{"x":173484.99000000022,"y":2539247.0600000005}},{"attributes":{"ID":254343,"DIS_CODE":0,"TOWNNAME":"仁德區","LI":"後壁里","LIN":"27鄰","STREET":"中正路","SECT":"二段","MAREA":" ","LANE":"３０１巷","ALLEY":" ","HOUSE_NO":"１５號","E_COORD97":173186.69,"N_COORD97":2539109.6000000001,"ADDRESS":"中正路二段３０１巷１５號","OBJECTID":254339},"geometry":{"x":173186.69000000134,"y":2539109.5999999996}},{"attributes":{"ID":254344,"DIS_CODE":0,"TOWNNAME":"仁德區","LI":"後壁里","LIN":"27鄰","STREET":"中正路","SECT":"二段","MAREA":" ","LANE":"３０１巷","ALLEY":" ","HOUSE_NO":"２４號","E_COORD97":173200.51999999999,"N_COORD97":2539115.77,"ADDRESS":"中正路二段３０１巷２４號","OBJECTID":254340},"geometry":{"x":173200.52000000048,"y":2539115.7699999996}},{"attributes":{"ID":254345,"DIS_CODE":0,"TOWNNAME":"仁德區","LI":"後壁里","LIN":"27鄰","STREET":"中正路","SECT":"二段","MAREA":" ","LANE":"３０１巷","ALLEY":" ","HOUSE_NO":"２６號","E_COORD97":173197.42999999999,"N_COORD97":2539118.02,"ADDRESS":"中正路二段３０１巷２６號","OBJECTID":254341},"geometry":{"x":173197.43000000156,"y":2539118.0200000033}},{"attributes":{"ID":254346,"DIS_CODE":0,"TOWNNAME":"仁德區","LI":"後壁里","LIN":"27鄰","STREET":"中正路","SECT":"二段","MAREA":" ","LANE":"３０１巷","ALLEY":" ","HOUSE_NO":"３１號","E_COORD97":173151.34,"N_COORD97":2539108.52,"ADDRESS":"中正路二段３０１巷３１號","OBJECTID":254342},"geometry":{"x":173151.34000000078,"y":2539108.5200000014}},{"attributes":{"ID":254347,"DIS_CODE":0,"TOWNNAME":"仁德區","LI":"後壁里","LIN":"27鄰","STREET":"中正路","SECT":"二段","MAREA":" ","LANE":"３０１巷","ALLEY":" ","HOUSE_NO":"３５號","E_COORD97":173146.32000000001,"N_COORD97":2539102.02,"ADDRESS":"中正路二段３０１巷３５號","OBJECTID":254343},"geometry":{"x":173146.32000000123,"y":2539102.0200000014}},{"attributes":{"ID":254348,"DIS_CODE":0,"TOWNNAME":"仁德區","LI":"後壁里","LIN":"27鄰","STREET":"中正路","SECT":"二段","MAREA":" ","LANE":"３０１巷","ALLEY":" ","HOUSE_NO":"２８號","E_COORD97":173194.32000000001,"N_COORD97":2539119.52,"ADDRESS":"中正路二段３０１巷２８號","OBJECTID":254344},"geometry":{"x":173194.32000000123,"y":2539119.5199999996}},{"attributes":{"ID":254349,"DIS_CODE":0,"TOWNNAME":"永康區","LI":"西勢里","LIN":"14鄰","STREET":"西勢路","SECT":" ","MAREA":" ","LANE":"１３巷","ALLEY":" ","HOUSE_NO":"２號","E_COORD97":176280.04000000001,"N_COORD97":2546718.54,"ADDRESS":"西勢路１３巷２號","OBJECTID":254345},"geometry":{"x":176280.04000000004,"y":2546718.5400000028}},{"attributes":{"ID":254350,"DIS_CODE":0,"TOWNNAME":"永康區","LI":"西灣里","LIN":"14鄰","STREET":"民族路","SECT":" ","MAREA":" ","LANE":"４１５巷","ALLEY":" ","HOUSE_NO":"２０號","E_COORD97":174759.20999999999,"N_COORD97":2545300.2000000002,"ADDRESS":"民族路４１５巷２０號","OBJECTID":254346},"geometry":{"x":174759.21000000089,"y":2545300.200000003}},{"attributes":{"ID":254351,"DIS_CODE":0,"TOWNNAME":"永康區","LI":"西勢里","LIN":"14鄰","STREET":"西勢路","SECT":" ","MAREA":" ","LANE":"１９巷","ALLEY":" ","HOUSE_NO":"２４號","E_COORD97":176198.64000000001,"N_COORD97":2546711.02,"ADDRESS":"西勢路１９巷２４號","OBJECTID":254347},"geometry":{"x":176198.6400000006,"y":2546711.0199999996}},{"attributes":{"ID":254352,"DIS_CODE":0,"TOWNNAME":"永康區","LI":"西勢里","LIN":"14鄰","STREET":"西勢路","SECT":" ","MAREA":" ","LANE":"１９巷","ALLEY":" ","HOUSE_NO":"２６號","E_COORD97":176186.54000000001,"N_COORD97":2546685.3999999999,"ADDRESS":"西勢路１９巷２６號","OBJECTID":254348},"geometry":{"x":176186.54000000004,"y":2546685.4000000004}},{"attributes":{"ID":254353,"DIS_CODE":0,"TOWNNAME":"永康區","LI":"西勢里","LIN":"14鄰","STREET":"西勢路","SECT":" ","MAREA":" ","LANE":"１９巷","ALLEY":" ","HOUSE_NO":"１４號","E_COORD97":176223.73999999999,"N_COORD97":2546731.3399999999,"ADDRESS":"西勢路１９巷１４號","OBJECTID":254349},"geometry":{"x":176223.74000000115,"y":2546731.3400000017}},{"attributes":{"ID":254354,"DIS_CODE":0,"TOWNNAME":"永康區","LI":"甲頂里","LIN":"14鄰","STREET":"大武街","SECT":" ","MAREA":" ","LANE":"１８巷","ALLEY":" ","HOUSE_NO":"２１號","E_COORD97":170355.07000000001,"N_COORD97":2546639.9100000001,"ADDRESS":"大武街１８巷２１號","OBJECTID":254350},"geometry":{"x":170355.0700000003,"y":2546639.910000002}},{"attributes":{"ID":254355,"DIS_CODE":0,"TOWNNAME":"永康區","LI":"甲頂里","LIN":"14鄰","STREET":"大武街","SECT":" ","MAREA":" ","LANE":"１８巷","ALLEY":" ","HOUSE_NO":"３７號","E_COORD97":170398.59,"N_COORD97":2546614,"ADDRESS":"大武街１８巷３７號","OBJECTID":254351},"geometry":{"x":170398.58999999985,"y":2546614}},{"attributes":{"ID":254356,"DIS_CODE":0,"TOWNNAME":"南區","LI":"廣州里","LIN":"24鄰","STREET":"金華路","SECT":"二段","MAREA":" ","LANE":" ","ALLEY":" ","HOUSE_NO":"２６２號","E_COORD97":167125.10000000001,"N_COORD97":2542505.0099999998,"ADDRESS":"金華路二段２６２號","OBJECTID":254352},"geometry":{"x":167125.09999999963,"y":2542505.0100000035}},{"attributes":{"ID":254357,"DIS_CODE":0,"TOWNNAME":"南區","LI":"廣州里","LIN":"24鄰","STREET":"金華路","SECT":"二段","MAREA":" ","LANE":" ","ALLEY":" ","HOUSE_NO":"２６４號","E_COORD97":167125.51999999999,"N_COORD97":2542511.3300000001,"ADDRESS":"金華路二段２６４號","OBJECTID":254353},"geometry":{"x":167125.51999999955,"y":2542511.3300000019}},{"attributes":{"ID":254358,"DIS_CODE":0,"TOWNNAME":"南區","LI":"廣州里","LIN":"24鄰","STREET":"金華路","SECT":"二段","MAREA":" ","LANE":" ","ALLEY":" ","HOUSE_NO":"２６８號","E_COORD97":167125.94,"N_COORD97":2542521.0299999998,"ADDRESS":"金華路二段２６８號","OBJECTID":254354},"geometry":{"x":167125.94000000227,"y":2542521.0299999993}},{"attributes":{"ID":254359,"DIS_CODE":0,"TOWNNAME":"南區","LI":"廣州里","LIN":"24鄰","STREET":"金華路","SECT":"二段","MAREA":" ","LANE":" ","ALLEY":" ","HOUSE_NO":"２７０號","E_COORD97":167125.51999999999,"N_COORD97":2542525.25,"ADDRESS":"金華路二段２７０號","OBJECTID":254355},"geometry":{"x":167125.51999999955,"y":2542525.2500000019}},{"attributes":{"ID":254360,"DIS_CODE":0,"TOWNNAME":"南區","LI":"廣州里","LIN":"24鄰","STREET":"金華路","SECT":"二段","MAREA":" ","LANE":" ","ALLEY":" ","HOUSE_NO":"２７２號","E_COORD97":167125.94,"N_COORD97":2542530.3100000001,"ADDRESS":"金華路二段２７２號","OBJECTID":254356},"geometry":{"x":167125.94000000227,"y":2542530.3100000005}},{"attributes":{"ID":254361,"DIS_CODE":0,"TOWNNAME":"新營區","LI":"王公里","LIN":"3鄰","STREET":"民族路","SECT":" ","MAREA":" ","LANE":" ","ALLEY":" ","HOUSE_NO":"５７號之２","E_COORD97":180284.51999999999,"N_COORD97":2578977.8700000001,"ADDRESS":"民族路５７號之２","OBJECTID":254357},"geometry":{"x":180284.52000000048,"y":2578977.8700000048}},{"attributes":{"ID":254362,"DIS_CODE":0,"TOWNNAME":"南區","LI":"廣州里","LIN":"24鄰","STREET":"金華路","SECT":"二段","MAREA":" ","LANE":" ","ALLEY":" ","HOUSE_NO":"２７４號","E_COORD97":167128.89999999999,"N_COORD97":2542535.3700000001,"ADDRESS":"金華路二段２７４號","OBJECTID":254358},"geometry":{"x":167128.90000000037,"y":2542535.3700000029}},{"attributes":{"ID":254363,"DIS_CODE":0,"TOWNNAME":"南區","LI":"廣州里","LIN":"24鄰","STREET":"金華路","SECT":"二段","MAREA":" ","LANE":" ","ALLEY":" ","HOUSE_NO":"２７６號","E_COORD97":167128.04999999999,"N_COORD97":2542540,"ADDRESS":"金華路二段２７６號","OBJECTID":254359},"geometry":{"x":167128.05000000075,"y":2542540.0000000019}},{"attributes":{"ID":254364,"DIS_CODE":0,"TOWNNAME":"南區","LI":"廣州里","LIN":"24鄰","STREET":"金華路","SECT":"二段","MAREA":" ","LANE":" ","ALLEY":" ","HOUSE_NO":"２７８號","E_COORD97":167128.47,"N_COORD97":2542544.2200000002,"ADDRESS":"金華路二段２７８號","OBJECTID":254360},"geometry":{"x":167128.47000000067,"y":2542544.2200000007}},{"attributes":{"ID":254365,"DIS_CODE":0,"TOWNNAME":"南區","LI":"廣州里","LIN":"24鄰","STREET":"金華路","SECT":"二段","MAREA":" ","LANE":" ","ALLEY":" ","HOUSE_NO":"２８２號","E_COORD97":167130.16,"N_COORD97":2542553.9199999999,"ADDRESS":"金華路二段２８２號","OBJECTID":254361},"geometry":{"x":167130.16000000015,"y":2542553.9200000018}},{"attributes":{"ID":254366,"DIS_CODE":0,"TOWNNAME":"南區","LI":"廣州里","LIN":"24鄰","STREET":"金華路","SECT":"二段","MAREA":" ","LANE":" ","ALLEY":" ","HOUSE_NO":"２８４號","E_COORD97":167131.01000000001,"N_COORD97":2542558.98,"ADDRESS":"金華路二段２８４號","OBJECTID":254362},"geometry":{"x":167131.00999999978,"y":2542558.9800000004}},{"attributes":{"ID":254367,"DIS_CODE":0,"TOWNNAME":"南區","LI":"廣州里","LIN":"24鄰","STREET":"金華路","SECT":"二段","MAREA":" ","LANE":" ","ALLEY":" ","HOUSE_NO":"２８６號","E_COORD97":167130.48000000001,"N_COORD97":2542563,"ADDRESS":"金華路二段２８６號","OBJECTID":254363},"geometry":{"x":167130.48000000045,"y":2542563.0000000037}},{"attributes":{"ID":254368,"DIS_CODE":0,"TOWNNAME":"永康區","LI":"六合里","LIN":"27鄰","STREET":"中華二路","SECT":" ","MAREA":" ","LANE":"３１８巷","ALLEY":" ","HOUSE_NO":"５號","E_COORD97":171261.64000000001,"N_COORD97":2545481.0099999998,"ADDRESS":"中華二路３１８巷５號","OBJECTID":254364},"geometry":{"x":171261.64000000153,"y":2545481.0099999998}},{"attributes":{"ID":254369,"DIS_CODE":0,"TOWNNAME":"仁德區","LI":"新田里","LIN":"17鄰","STREET":"民安路","SECT":"二段","MAREA":" ","LANE":"６３巷","ALLEY":" ","HOUSE_NO":"１０號","E_COORD97":173479.54000000001,"N_COORD97":2539237.0600000001,"ADDRESS":"民安路二段６３巷１０號","OBJECTID":254365},"geometry":{"x":173479.54000000004,"y":2539237.0600000042}},{"attributes":{"ID":254370,"DIS_CODE":0,"TOWNNAME":"永康區","LI":"甲頂里","LIN":"14鄰","STREET":"大武街","SECT":" ","MAREA":" ","LANE":"１８巷","ALLEY":" ","HOUSE_NO":"４９號","E_COORD97":170421.54000000001,"N_COORD97":2546597.9900000002,"ADDRESS":"大武街１８巷４９號","OBJECTID":254366},"geometry":{"x":170421.54000000004,"y":2546597.9900000039}},{"attributes":{"ID":254371,"DIS_CODE":0,"TOWNNAME":"東區","LI":"東光里","LIN":"14鄰","STREET":"東光路","SECT":"一段","MAREA":" ","LANE":"１２６巷","ALLEY":" ","HOUSE_NO":"９號","E_COORD97":171260.06,"N_COORD97":2543890.1699999999,"ADDRESS":"東光路一段１２６巷９號","OBJECTID":254367},"geometry":{"x":171260.05999999959,"y":2543890.1699999999}},{"attributes":{"ID":254372,"DIS_CODE":0,"TOWNNAME":"東區","LI":"後甲里","LIN":"14鄰","STREET":"裕農路","SECT":" ","MAREA":" ","LANE":"６２１巷","ALLEY":" ","HOUSE_NO":"４３號之２","E_COORD97":171603.66,"N_COORD97":2543449.8300000001,"ADDRESS":"裕農路６２１巷４３號之２","OBJECTID":254368},"geometry":{"x":171603.66000000015,"y":2543449.8300000019}},{"attributes":{"ID":254373,"DIS_CODE":0,"TOWNNAME":"東區","LI":"後甲里","LIN":"14鄰","STREET":"裕農路","SECT":" ","MAREA":" ","LANE":"６２１巷","ALLEY":" ","HOUSE_NO":"４３號之３","E_COORD97":171602.45000000001,"N_COORD97":2543453.6899999999,"ADDRESS":"裕農路６２１巷４３號之３","OBJECTID":254369},"geometry":{"x":171602.44999999925,"y":2543453.6900000013}},{"attributes":{"ID":254374,"DIS_CODE":0,"TOWNNAME":"東區","LI":"後甲里","LIN":"14鄰","STREET":"裕農路","SECT":" ","MAREA":" ","LANE":"６２１巷","ALLEY":" ","HOUSE_NO":"４３號之４","E_COORD97":171604.14000000001,"N_COORD97":2543458.02,"ADDRESS":"裕農路６２１巷４３號之４","OBJECTID":254370},"geometry":{"x":171604.14000000153,"y":2543458.0200000014}},{"attributes":{"ID":254375,"DIS_CODE":0,"TOWNNAME":"東區","LI":"後甲里","LIN":"14鄰","STREET":"裕農路","SECT":" ","MAREA":" ","LANE":"６２１巷","ALLEY":" ","HOUSE_NO":"４３號之５","E_COORD97":171602.20999999999,"N_COORD97":2543462.3599999999,"ADDRESS":"裕農路６２１巷４３號之５","OBJECTID":254371},"geometry":{"x":171602.21000000183,"y":2543462.3600000013}},{"attributes":{"ID":254376,"DIS_CODE":0,"TOWNNAME":"東區","LI":"後甲里","LIN":"14鄰","STREET":"裕農路","SECT":" ","MAREA":" ","LANE":"６２１巷","ALLEY":" ","HOUSE_NO":"４７號","E_COORD97":171601.97,"N_COORD97":2543470.0699999998,"ADDRESS":"裕農路６２１巷４７號","OBJECTID":254372},"geometry":{"x":171601.9700000016,"y":2543470.0700000003}},{"attributes":{"ID":254377,"DIS_CODE":0,"TOWNNAME":"東區","LI":"後甲里","LIN":"14鄰","STREET":"裕農路","SECT":" ","MAREA":" ","LANE":"６２１巷","ALLEY":" ","HOUSE_NO":"４７號之３","E_COORD97":171601,"N_COORD97":2543482.1099999999,"ADDRESS":"裕農路６２１巷４７號之３","OBJECTID":254373},"geometry":{"x":171601.00000000093,"y":2543482.1099999994}},{"attributes":{"ID":254378,"DIS_CODE":0,"TOWNNAME":"東區","LI":"後甲里","LIN":"14鄰","STREET":"裕農路","SECT":" ","MAREA":" ","LANE":"６２１巷","ALLEY":" ","HOUSE_NO":"４７號之４","E_COORD97":171599.56,"N_COORD97":2543485.9700000002,"ADDRESS":"裕農路６２１巷４７號之４","OBJECTID":254374},"geometry":{"x":171599.56000000145,"y":2543485.9700000044}},{"attributes":{"ID":254379,"DIS_CODE":0,"TOWNNAME":"南區","LI":"廣州里","LIN":"24鄰","STREET":"金華路","SECT":"二段","MAREA":" ","LANE":" ","ALLEY":" ","HOUSE_NO":"２８８號","E_COORD97":167131.01000000001,"N_COORD97":2542567.6000000001,"ADDRESS":"金華路二段２８８號","OBJECTID":254375},"geometry":{"x":167131.00999999978,"y":2542567.5999999996}},{"attributes":{"ID":254380,"DIS_CODE":0,"TOWNNAME":"南區","LI":"廣州里","LIN":"24鄰","STREET":"金華路","SECT":"二段","MAREA":" ","LANE":" ","ALLEY":" ","HOUSE_NO":"２９０號","E_COORD97":167130.59,"N_COORD97":2542573.5899999999,"ADDRESS":"金華路二段２９０號","OBJECTID":254376},"geometry":{"x":167130.58999999985,"y":2542573.5900000017}},{"attributes":{"ID":254381,"DIS_CODE":0,"TOWNNAME":"永康區","LI":"大灣里","LIN":"27鄰","STREET":"大灣六街","SECT":" ","MAREA":" ","LANE":" ","ALLEY":" ","HOUSE_NO":"４６號","E_COORD97":175223.07999999999,"N_COORD97":2545237.5600000001,"ADDRESS":"大灣六街４６號","OBJECTID":254377},"geometry":{"x":175223.08000000101,"y":2545237.5600000005}},{"attributes":{"ID":254382,"DIS_CODE":0,"TOWNNAME":"仁德區","LI":"後壁里","LIN":"41鄰","STREET":"德善路","SECT":" ","MAREA":" ","LANE":"２５１巷","ALLEY":" ","HOUSE_NO":"１之２號","E_COORD97":173864.59,"N_COORD97":2538706.0099999998,"ADDRESS":"德善路２５１巷１之２號","OBJECTID":254378},"geometry":{"x":173864.59000000078,"y":2538706.0100000016}},{"attributes":{"ID":254383,"DIS_CODE":0,"TOWNNAME":"仁德區","LI":"成功里","LIN":"21鄰","STREET":"保生路","SECT":" ","MAREA":" ","LANE":"６３巷","ALLEY":" ","HOUSE_NO":"３號","E_COORD97":170755.56,"N_COORD97":2539776.5,"ADDRESS":"保生路６３巷３號","OBJECTID":254379},"geometry":{"x":170755.56000000052,"y":2539776.5000000019}},{"attributes":{"ID":254384,"DIS_CODE":0,"TOWNNAME":"佳里區","LI":"建南里","LIN":"27鄰","STREET":"勝利路","SECT":" ","MAREA":" ","LANE":"７０巷","ALLEY":" ","HOUSE_NO":"１號","E_COORD97":165840.57999999999,"N_COORD97":2561390.1200000001,"ADDRESS":"勝利路７０巷１號","OBJECTID":254380},"geometry":{"x":165840.58000000007,"y":2561390.1200000048}},{"attributes":{"ID":254385,"DIS_CODE":0,"TOWNNAME":"佳里區","LI":"建南里","LIN":"27鄰","STREET":"勝利路","SECT":" ","MAREA":" ","LANE":"７０巷","ALLEY":" ","HOUSE_NO":"４號","E_COORD97":165832.81,"N_COORD97":2561408.2999999998,"ADDRESS":"勝利路７０巷４號","OBJECTID":254381},"geometry":{"x":165832.81000000052,"y":2561408.3000000007}},{"attributes":{"ID":254386,"DIS_CODE":0,"TOWNNAME":"佳里區","LI":"建南里","LIN":"27鄰","STREET":"勝利路","SECT":" ","MAREA":" ","LANE":"７０巷","ALLEY":" ","HOUSE_NO":"６號","E_COORD97":165825.31,"N_COORD97":2561399.5099999998,"ADDRESS":"勝利路７０巷６號","OBJECTID":254382},"geometry":{"x":165825.30999999959,"y":2561399.5100000035}},{"attributes":{"ID":254387,"DIS_CODE":0,"TOWNNAME":"佳里區","LI":"建南里","LIN":"27鄰","STREET":"勝利路","SECT":" ","MAREA":" ","LANE":"７０巷","ALLEY":" ","HOUSE_NO":"８號","E_COORD97":165820.64999999999,"N_COORD97":2561399.8100000001,"ADDRESS":"勝利路７０巷８號","OBJECTID":254383},"geometry":{"x":165820.64999999944,"y":2561399.8100000024}},{"attributes":{"ID":254388,"DIS_CODE":0,"TOWNNAME":"東區","LI":"後甲里","LIN":"14鄰","STREET":"裕農路","SECT":" ","MAREA":" ","LANE":"６２１巷","ALLEY":" ","HOUSE_NO":"４７號之５","E_COORD97":171598.82999999999,"N_COORD97":2543489.8199999998,"ADDRESS":"裕農路６２１巷４７號之５","OBJECTID":254384},"geometry":{"x":171598.83000000101,"y":2543489.8200000003}},{"attributes":{"ID":254389,"DIS_CODE":0,"TOWNNAME":"安南區","LI":"淵東里","LIN":"14鄰","STREET":"本原街","SECT":"三段","MAREA":" ","LANE":"１０９巷","ALLEY":" ","HOUSE_NO":"１３號","E_COORD97":165650.13,"N_COORD97":2550329.3199999998,"ADDRESS":"本原街三段１０９巷１３號","OBJECTID":254385},"geometry":{"x":165650.12999999989,"y":2550329.3200000022}},{"attributes":{"ID":254390,"DIS_CODE":0,"TOWNNAME":"安南區","LI":"淵東里","LIN":"14鄰","STREET":"本原街","SECT":"三段","MAREA":" ","LANE":"１０９巷","ALLEY":" ","HOUSE_NO":"１５號","E_COORD97":165656.89999999999,"N_COORD97":2550328.9399999999,"ADDRESS":"本原街三段１０９巷１５號","OBJECTID":254386},"geometry":{"x":165656.9000000013,"y":2550328.9399999995}},{"attributes":{"ID":254391,"DIS_CODE":0,"TOWNNAME":"安南區","LI":"淵東里","LIN":"14鄰","STREET":"本原街","SECT":"三段","MAREA":" ","LANE":"１０９巷","ALLEY":" ","HOUSE_NO":"１７號","E_COORD97":165663.14000000001,"N_COORD97":2550328.3599999999,"ADDRESS":"本原街三段１０９巷１７號","OBJECTID":254387},"geometry":{"x":165663.1400000006,"y":2550328.3600000013}},{"attributes":{"ID":254392,"DIS_CODE":0,"TOWNNAME":"安南區","LI":"淵東里","LIN":"14鄰","STREET":"本原街","SECT":"三段","MAREA":" ","LANE":"１０９巷","ALLEY":" ","HOUSE_NO":"１號","E_COORD97":165622.57999999999,"N_COORD97":2550330.77,"ADDRESS":"本原街三段１０９巷１號","OBJECTID":254388},"geometry":{"x":165622.58000000194,"y":2550330.7699999996}},{"attributes":{"ID":254393,"DIS_CODE":0,"TOWNNAME":"安南區","LI":"淵東里","LIN":"14鄰","STREET":"本原街","SECT":"三段","MAREA":" ","LANE":"１０９巷","ALLEY":" ","HOUSE_NO":"３號","E_COORD97":165626.38,"N_COORD97":2550330.6200000001,"ADDRESS":"本原街三段１０９巷３號","OBJECTID":254389},"geometry":{"x":165626.37999999989,"y":2550330.6200000048}},{"attributes":{"ID":254394,"DIS_CODE":0,"TOWNNAME":"安南區","LI":"淵東里","LIN":"14鄰","STREET":"本原街","SECT":"三段","MAREA":" ","LANE":"１０９巷","ALLEY":" ","HOUSE_NO":"５號","E_COORD97":165631.66,"N_COORD97":2550330.1200000001,"ADDRESS":"本原街三段１０９巷５號","OBJECTID":254390},"geometry":{"x":165631.66000000015,"y":2550330.120000001}},{"attributes":{"ID":254395,"DIS_CODE":0,"TOWNNAME":"安南區","LI":"淵東里","LIN":"14鄰","STREET":"本原街","SECT":"三段","MAREA":" ","LANE":"１０９巷","ALLEY":" ","HOUSE_NO":"７號","E_COORD97":165636.32999999999,"N_COORD97":2550329.77,"ADDRESS":"本原街三段１０９巷７號","OBJECTID":254391},"geometry":{"x":165636.33000000101,"y":2550329.7699999996}},{"attributes":{"ID":254396,"DIS_CODE":0,"TOWNNAME":"安南區","LI":"淵東里","LIN":"14鄰","STREET":"本原街","SECT":"三段","MAREA":" ","LANE":"１０９巷","ALLEY":" ","HOUSE_NO":"９號","E_COORD97":165640.88,"N_COORD97":2550329.6200000001,"ADDRESS":"本原街三段１０９巷９號","OBJECTID":254392},"geometry":{"x":165640.88000000082,"y":2550329.620000001}},{"attributes":{"ID":254397,"DIS_CODE":0,"TOWNNAME":"安南區","LI":"淵東里","LIN":"14鄰","STREET":"安中路","SECT":"三段","MAREA":" ","LANE":"４００巷","ALLEY":" ","HOUSE_NO":"１９６號","E_COORD97":165589.39999999999,"N_COORD97":2550313.7000000002,"ADDRESS":"安中路三段４００巷１９６號","OBJECTID":254393},"geometry":{"x":165589.40000000037,"y":2550313.6999999993}},{"attributes":{"ID":254398,"DIS_CODE":0,"TOWNNAME":"安南區","LI":"淵東里","LIN":"14鄰","STREET":"安中路","SECT":"三段","MAREA":" ","LANE":"４００巷","ALLEY":" ","HOUSE_NO":"１９８號","E_COORD97":165588.47,"N_COORD97":2550318.3100000001,"ADDRESS":"安中路三段４００巷１９８號","OBJECTID":254394},"geometry":{"x":165588.46999999974,"y":2550318.3100000005}},{"attributes":{"ID":254399,"DIS_CODE":0,"TOWNNAME":"南區","LI":"廣州里","LIN":"24鄰","STREET":"金華路","SECT":"二段","MAREA":" ","LANE":" ","ALLEY":" ","HOUSE_NO":"２９８號","E_COORD97":167129.73999999999,"N_COORD97":2542583.7000000002,"ADDRESS":"金華路二段２９８號","OBJECTID":254395},"geometry":{"x":167129.74000000022,"y":2542583.6999999993}},{"attributes":{"ID":254400,"DIS_CODE":0,"TOWNNAME":"南區","LI":"廣州里","LIN":"24鄰","STREET":"福吉五街","SECT":" ","MAREA":" ","LANE":" ","ALLEY":" ","HOUSE_NO":"５１號","E_COORD97":167171.54000000001,"N_COORD97":2542589.6099999999,"ADDRESS":"福吉五街５１號","OBJECTID":254396},"geometry":{"x":167171.54000000004,"y":2542589.6100000013}},{"attributes":{"ID":254401,"DIS_CODE":0,"TOWNNAME":"南區","LI":"廣州里","LIN":"24鄰","STREET":"福吉五街","SECT":" ","MAREA":" ","LANE":" ","ALLEY":" ","HOUSE_NO":"５３號","E_COORD97":167167.32000000001,"N_COORD97":2542590.4500000002,"ADDRESS":"福吉五街５３號","OBJECTID":254397},"geometry":{"x":167167.32000000216,"y":2542590.4500000011}},{"attributes":{"ID":254402,"DIS_CODE":0,"TOWNNAME":"新營區","LI":"民榮里","LIN":"17鄰","STREET":"富強街","SECT":" ","MAREA":" ","LANE":" ","ALLEY":" ","HOUSE_NO":"６１之７號","E_COORD97":178879.03,"N_COORD97":2577887.0600000001,"ADDRESS":"富強街６１之７號","OBJECTID":254398},"geometry":{"x":178879.03000000026,"y":2577887.0600000005}},{"attributes":{"ID":254403,"DIS_CODE":0,"TOWNNAME":"新營區","LI":"民榮里","LIN":"25鄰","STREET":"和平路","SECT":" ","MAREA":" ","LANE":" ","ALLEY":" ","HOUSE_NO":"５０之５號","E_COORD97":179412.97,"N_COORD97":2577666.3399999999,"ADDRESS":"和平路５０之５號","OBJECTID":254399},"geometry":{"x":179412.96999999974,"y":2577666.3399999999}},{"attributes":{"ID":254404,"DIS_CODE":0,"TOWNNAME":"南區","LI":"廣州里","LIN":"24鄰","STREET":"福吉五街","SECT":" ","MAREA":" ","LANE":" ","ALLEY":" ","HOUSE_NO":"５５號","E_COORD97":167164.79000000001,"N_COORD97":2542594.6699999999,"ADDRESS":"福吉五街５５號","OBJECTID":254400},"geometry":{"x":167164.79000000004,"y":2542594.6699999999}}]}