{"displayFieldName":"TOWNNAME","fieldAliases":{"ID":"ID","DIS_CODE":"DIS_CODE","TOWNNAME":"TOWNNAME","LI":"LI","LIN":"LIN","STREET":"STREET","SECT":"SECT","MAREA":"MAREA","LANE":"LANE","ALLEY":"ALLEY","HOUSE_NO":"HOUSE_NO","E_COORD97":"E_COORD97","N_COORD97":"N_COORD97","ADDRESS":"ADDRESS","OBJECTID":"OBJECTID"},"geometryType":"esriGeometryPoint","spatialReference":{"wkid":102443,"latestWkid":3826},"fields":[{"name":"ID","type":"esriFieldTypeDouble","alias":"ID"},{"name":"DIS_CODE","type":"esriFieldTypeInteger","alias":"DIS_CODE"},{"name":"TOWNNAME","type":"esriFieldTypeString","alias":"TOWNNAME","length":8},{"name":"LI","type":"esriFieldTypeString","alias":"LI","length":8},{"name":"LIN","type":"esriFieldTypeString","alias":"LIN","length":12},{"name":"STREET","type":"esriFieldTypeString","alias":"STREET","length":20},{"name":"SECT","type":"esriFieldTypeString","alias":"SECT","length":8},{"name":"MAREA","type":"esriFieldTypeString","alias":"MAREA","length":12},{"name":"LANE","type":"esriFieldTypeString","alias":"LANE","length":10},{"name":"ALLEY","type":"esriFieldTypeString","alias":"ALLEY","length":10},{"name":"HOUSE_NO","type":"esriFieldTypeString","alias":"HOUSE_NO","length":20},{"name":"E_COORD97","type":"esriFieldTypeDouble","alias":"E_COORD97"},{"name":"N_COORD97","type":"esriFieldTypeDouble","alias":"N_COORD97"},{"name":"ADDRESS","type":"esriFieldTypeString","alias":"ADDRESS","length":50},{"name":"OBJECTID","type":"esriFieldTypeOID","alias":"OBJECTID"}],"features":[{"attributes":{"ID":30401,"DIS_CODE":0,"TOWNNAME":"南區","LI":"佛壇里","LIN":"17鄰","STREET":"興南街","SECT":" ","MAREA":" ","LANE":"１０１巷","ALLEY":"１２弄","HOUSE_NO":"１４號","E_COORD97":166182,"N_COORD97":2535733.3399999999,"ADDRESS":"興南街１０１巷１２弄１４號","OBJECTID":30401},"geometry":{"x":166182,"y":2535733.3400000017}},{"attributes":{"ID":30402,"DIS_CODE":0,"TOWNNAME":"南區","LI":"佛壇里","LIN":"17鄰","STREET":"興南街","SECT":" ","MAREA":" ","LANE":"１０１巷","ALLEY":"１２弄","HOUSE_NO":"１５號","E_COORD97":166185.06,"N_COORD97":2535703.96,"ADDRESS":"興南街１０１巷１２弄１５號","OBJECTID":30402},"geometry":{"x":166185.06000000145,"y":2535703.9600000009}},{"attributes":{"ID":30403,"DIS_CODE":0,"TOWNNAME":"南區","LI":"佛壇里","LIN":"17鄰","STREET":"興南街","SECT":" ","MAREA":" ","LANE":"１０１巷","ALLEY":"１２弄","HOUSE_NO":"１６號","E_COORD97":166178.14000000001,"N_COORD97":2535732.0499999998,"ADDRESS":"興南街１０１巷１２弄１６號","OBJECTID":30403},"geometry":{"x":166178.1400000006,"y":2535732.0500000045}},{"attributes":{"ID":30404,"DIS_CODE":0,"TOWNNAME":"南區","LI":"佛壇里","LIN":"17鄰","STREET":"興南街","SECT":" ","MAREA":" ","LANE":"１０１巷","ALLEY":"１２弄","HOUSE_NO":"１７號","E_COORD97":166181.56,"N_COORD97":2535703.7799999998,"ADDRESS":"興南街１０１巷１２弄１７號","OBJECTID":30404},"geometry":{"x":166181.56000000145,"y":2535703.7799999993}},{"attributes":{"ID":30405,"DIS_CODE":0,"TOWNNAME":"北門區","LI":"慈安里","LIN":"14鄰","STREET":" ","SECT":" ","MAREA":"三寮灣","LANE":" ","ALLEY":" ","HOUSE_NO":"５７３號","E_COORD97":159206.94,"N_COORD97":2571027.96,"ADDRESS":"三寮灣５７３號","OBJECTID":30405},"geometry":{"x":159206.94000000041,"y":2571027.9600000028}},{"attributes":{"ID":30406,"DIS_CODE":0,"TOWNNAME":"玉井區","LI":"望明里","LIN":"8鄰","STREET":" ","SECT":" ","MAREA":"公\u25A0","LANE":" ","ALLEY":" ","HOUSE_NO":"４６號","E_COORD97":193979.07000000001,"N_COORD97":2556591.25,"ADDRESS":"公\u25A0４６號","OBJECTID":30406},"geometry":{"x":193979.07000000123,"y":2556591.2500000019}},{"attributes":{"ID":30407,"DIS_CODE":0,"TOWNNAME":"南區","LI":"佛壇里","LIN":"17鄰","STREET":"興南街","SECT":" ","MAREA":" ","LANE":"１０１巷","ALLEY":"１２弄","HOUSE_NO":"１８號","E_COORD97":166173.91,"N_COORD97":2535730.9500000002,"ADDRESS":"興南街１０１巷１２弄１８號","OBJECTID":30407},"geometry":{"x":166173.91000000108,"y":2535730.950000003}},{"attributes":{"ID":30408,"DIS_CODE":0,"TOWNNAME":"南區","LI":"佛壇里","LIN":"17鄰","STREET":"興南街","SECT":" ","MAREA":" ","LANE":"１０１巷","ALLEY":"１２弄","HOUSE_NO":"１９號","E_COORD97":166177.14999999999,"N_COORD97":2535702.4900000002,"ADDRESS":"興南街１０１巷１２弄１９號","OBJECTID":30408},"geometry":{"x":166177.1500000013,"y":2535702.4900000021}},{"attributes":{"ID":30409,"DIS_CODE":0,"TOWNNAME":"南區","LI":"佛壇里","LIN":"17鄰","STREET":"興南街","SECT":" ","MAREA":" ","LANE":"１０１巷","ALLEY":"１２弄","HOUSE_NO":"１號","E_COORD97":166169.67999999999,"N_COORD97":2535728.7400000002,"ADDRESS":"興南街１０１巷１２弄１號","OBJECTID":30409},"geometry":{"x":166169.68000000063,"y":2535728.7400000002}},{"attributes":{"ID":30410,"DIS_CODE":0,"TOWNNAME":"南區","LI":"佛壇里","LIN":"17鄰","STREET":"興南街","SECT":" ","MAREA":" ","LANE":"１０１巷","ALLEY":"１２弄","HOUSE_NO":"２０號","E_COORD97":166166.92999999999,"N_COORD97":2535725.7200000002,"ADDRESS":"興南街１０１巷１２弄２０號","OBJECTID":30410},"geometry":{"x":166166.9299999997,"y":2535725.7200000007}},{"attributes":{"ID":30411,"DIS_CODE":0,"TOWNNAME":"南區","LI":"佛壇里","LIN":"17鄰","STREET":"興南街","SECT":" ","MAREA":" ","LANE":"１０１巷","ALLEY":"１２弄","HOUSE_NO":"２２號","E_COORD97":166164.45999999999,"N_COORD97":2535721.7799999998,"ADDRESS":"興南街１０１巷１２弄２２號","OBJECTID":30411},"geometry":{"x":166164.46000000089,"y":2535721.7799999975}},{"attributes":{"ID":30412,"DIS_CODE":0,"TOWNNAME":"南區","LI":"佛壇里","LIN":"17鄰","STREET":"興南街","SECT":" ","MAREA":" ","LANE":"１０１巷","ALLEY":"１２弄","HOUSE_NO":"２號","E_COORD97":166204.04000000001,"N_COORD97":2535739.9500000002,"ADDRESS":"興南街１０１巷１２弄２號","OBJECTID":30412},"geometry":{"x":166204.04000000004,"y":2535739.9499999993}},{"attributes":{"ID":30413,"DIS_CODE":0,"TOWNNAME":"南區","LI":"佛壇里","LIN":"17鄰","STREET":"興南街","SECT":" ","MAREA":" ","LANE":"１０１巷","ALLEY":"１２弄","HOUSE_NO":"３號","E_COORD97":166206.95000000001,"N_COORD97":2535720.3100000001,"ADDRESS":"興南街１０１巷１２弄３號","OBJECTID":30413},"geometry":{"x":166206.95000000112,"y":2535720.3100000024}},{"attributes":{"ID":30414,"DIS_CODE":0,"TOWNNAME":"南區","LI":"佛壇里","LIN":"17鄰","STREET":"興南街","SECT":" ","MAREA":" ","LANE":"１０１巷","ALLEY":"１２弄","HOUSE_NO":"５號","E_COORD97":166204.01000000001,"N_COORD97":2535715.1699999999,"ADDRESS":"興南街１０１巷１２弄５號","OBJECTID":30414},"geometry":{"x":166204.00999999978,"y":2535715.1699999999}},{"attributes":{"ID":30415,"DIS_CODE":0,"TOWNNAME":"南區","LI":"佛壇里","LIN":"17鄰","STREET":"興南街","SECT":" ","MAREA":" ","LANE":"１０１巷","ALLEY":"１２弄","HOUSE_NO":"６號","E_COORD97":166198.37,"N_COORD97":2535739.9500000002,"ADDRESS":"興南街１０１巷１２弄６號","OBJECTID":30415},"geometry":{"x":166198.37000000011,"y":2535739.9499999993}},{"attributes":{"ID":30416,"DIS_CODE":0,"TOWNNAME":"南區","LI":"佛壇里","LIN":"17鄰","STREET":"興南街","SECT":" ","MAREA":" ","LANE":"１０１巷","ALLEY":"１２弄","HOUSE_NO":"７號","E_COORD97":166200.32999999999,"N_COORD97":2535713.3300000001,"ADDRESS":"興南街１０１巷１２弄７號","OBJECTID":30416},"geometry":{"x":166200.33000000007,"y":2535713.3300000019}},{"attributes":{"ID":30417,"DIS_CODE":0,"TOWNNAME":"南區","LI":"佛壇里","LIN":"17鄰","STREET":"興南街","SECT":" ","MAREA":" ","LANE":"１０１巷","ALLEY":"１２弄","HOUSE_NO":"８號","E_COORD97":166194.88,"N_COORD97":2535737.3799999999,"ADDRESS":"興南街１０１巷１２弄８號","OBJECTID":30417},"geometry":{"x":166194.87999999989,"y":2535737.379999999}},{"attributes":{"ID":30418,"DIS_CODE":0,"TOWNNAME":"玉井區","LI":"望明里","LIN":"8鄰","STREET":" ","SECT":" ","MAREA":"公\u25A0","LANE":" ","ALLEY":" ","HOUSE_NO":"１４６號","E_COORD97":194142.70999999999,"N_COORD97":2556747.2400000002,"ADDRESS":"公\u25A0１４６號","OBJECTID":30418},"geometry":{"x":194142.70999999996,"y":2556747.2400000021}},{"attributes":{"ID":30419,"DIS_CODE":0,"TOWNNAME":"南區","LI":"佛壇里","LIN":"17鄰","STREET":"興南街","SECT":" ","MAREA":" ","LANE":"１０１巷","ALLEY":"１２弄","HOUSE_NO":"９號","E_COORD97":166196.64999999999,"N_COORD97":2535711.5,"ADDRESS":"興南街１０１巷１２弄９號","OBJECTID":30419},"geometry":{"x":166196.65000000037,"y":2535711.5000000019}},{"attributes":{"ID":30420,"DIS_CODE":0,"TOWNNAME":"玉井區","LI":"望明里","LIN":"8鄰","STREET":" ","SECT":" ","MAREA":"公\u25A0","LANE":" ","ALLEY":" ","HOUSE_NO":"６１號","E_COORD97":193973.76000000001,"N_COORD97":2556656.2400000002,"ADDRESS":"公\u25A0６１號","OBJECTID":30420},"geometry":{"x":193973.76000000071,"y":2556656.2400000021}},{"attributes":{"ID":30421,"DIS_CODE":0,"TOWNNAME":"玉井區","LI":"望明里","LIN":"8鄰","STREET":" ","SECT":" ","MAREA":"望明","LANE":" ","ALLEY":" ","HOUSE_NO":"８９之６號","E_COORD97":193379.14000000001,"N_COORD97":2556845.29,"ADDRESS":"望明８９之６號","OBJECTID":30421},"geometry":{"x":193379.1400000006,"y":2556845.290000001}},{"attributes":{"ID":30422,"DIS_CODE":0,"TOWNNAME":"玉井區","LI":"望明里","LIN":"8鄰","STREET":" ","SECT":" ","MAREA":"公\u25A0","LANE":" ","ALLEY":" ","HOUSE_NO":"１１６號","E_COORD97":194094.20999999999,"N_COORD97":2556700.25,"ADDRESS":"公\u25A0１１６號","OBJECTID":30422},"geometry":{"x":194094.21000000089,"y":2556700.2500000019}},{"attributes":{"ID":30423,"DIS_CODE":0,"TOWNNAME":"玉井區","LI":"望明里","LIN":"8鄰","STREET":" ","SECT":" ","MAREA":"公\u25A0","LANE":" ","ALLEY":" ","HOUSE_NO":"１５０號","E_COORD97":194151.32000000001,"N_COORD97":2556755.2400000002,"ADDRESS":"公\u25A0１５０號","OBJECTID":30423},"geometry":{"x":194151.32000000216,"y":2556755.2400000021}},{"attributes":{"ID":30424,"DIS_CODE":0,"TOWNNAME":"玉井區","LI":"望明里","LIN":"8鄰","STREET":" ","SECT":" ","MAREA":"公\u25A0","LANE":" ","ALLEY":" ","HOUSE_NO":"１３８號","E_COORD97":194131.01000000001,"N_COORD97":2556737.2400000002,"ADDRESS":"公\u25A0１３８號","OBJECTID":30424},"geometry":{"x":194131.01000000071,"y":2556737.2400000021}},{"attributes":{"ID":30425,"DIS_CODE":0,"TOWNNAME":"玉井區","LI":"望明里","LIN":"8鄰","STREET":" ","SECT":" ","MAREA":"公\u25A0","LANE":" ","ALLEY":" ","HOUSE_NO":"１６１號","E_COORD97":194164.12,"N_COORD97":2556808.25,"ADDRESS":"公\u25A0１６１號","OBJECTID":30425},"geometry":{"x":194164.12000000011,"y":2556808.2500000019}},{"attributes":{"ID":30426,"DIS_CODE":0,"TOWNNAME":"玉井區","LI":"望明里","LIN":"8鄰","STREET":" ","SECT":" ","MAREA":"公\u25A0","LANE":" ","ALLEY":" ","HOUSE_NO":"１９號","E_COORD97":193875.16,"N_COORD97":2556582.25,"ADDRESS":"公\u25A0１９號","OBJECTID":30426},"geometry":{"x":193875.16000000015,"y":2556582.25}},{"attributes":{"ID":30427,"DIS_CODE":0,"TOWNNAME":"玉井區","LI":"望明里","LIN":"8鄰","STREET":" ","SECT":" ","MAREA":"公\u25A0","LANE":" ","ALLEY":" ","HOUSE_NO":"１３６號","E_COORD97":194128.60999999999,"N_COORD97":2556735.2400000002,"ADDRESS":"公\u25A0１３６號","OBJECTID":30427},"geometry":{"x":194128.61000000034,"y":2556735.2400000002}},{"attributes":{"ID":30428,"DIS_CODE":0,"TOWNNAME":"玉井區","LI":"望明里","LIN":"8鄰","STREET":" ","SECT":" ","MAREA":"公\u25A0","LANE":" ","ALLEY":" ","HOUSE_NO":"６４號","E_COORD97":194013.87,"N_COORD97":2556625.2400000002,"ADDRESS":"公\u25A0６４號","OBJECTID":30428},"geometry":{"x":194013.87000000104,"y":2556625.2400000021}},{"attributes":{"ID":30429,"DIS_CODE":0,"TOWNNAME":"玉井區","LI":"望明里","LIN":"8鄰","STREET":" ","SECT":" ","MAREA":"公\u25A0","LANE":" ","ALLEY":" ","HOUSE_NO":"１２８號","E_COORD97":194116.70999999999,"N_COORD97":2556720.2400000002,"ADDRESS":"公\u25A0１２８號","OBJECTID":30429},"geometry":{"x":194116.71000000089,"y":2556720.2400000021}},{"attributes":{"ID":30430,"DIS_CODE":0,"TOWNNAME":"玉井區","LI":"望明里","LIN":"8鄰","STREET":" ","SECT":" ","MAREA":"公\u25A0","LANE":" ","ALLEY":" ","HOUSE_NO":"１３０號","E_COORD97":194119.12,"N_COORD97":2556722.2400000002,"ADDRESS":"公\u25A0１３０號","OBJECTID":30430},"geometry":{"x":194119.12000000104,"y":2556722.2400000002}},{"attributes":{"ID":30431,"DIS_CODE":0,"TOWNNAME":"玉井區","LI":"望明里","LIN":"8鄰","STREET":" ","SECT":" ","MAREA":"公\u25A0","LANE":" ","ALLEY":" ","HOUSE_NO":"１２０號","E_COORD97":194103.12,"N_COORD97":2556710.2400000002,"ADDRESS":"公\u25A0１２０號","OBJECTID":30431},"geometry":{"x":194103.11999999918,"y":2556710.2400000021}},{"attributes":{"ID":30432,"DIS_CODE":0,"TOWNNAME":"玉井區","LI":"望明里","LIN":"8鄰","STREET":" ","SECT":" ","MAREA":"公\u25A0","LANE":" ","ALLEY":" ","HOUSE_NO":"３５號","E_COORD97":193917.45999999999,"N_COORD97":2556592.25,"ADDRESS":"公\u25A0３５號","OBJECTID":30432},"geometry":{"x":193917.45999999996,"y":2556592.2500000019}},{"attributes":{"ID":30433,"DIS_CODE":0,"TOWNNAME":"歸仁區","LI":"七甲里","LIN":"17鄰","STREET":"南潭三街","SECT":" ","MAREA":" ","LANE":"１６２巷","ALLEY":"１９弄","HOUSE_NO":"１號","E_COORD97":176451.23000000001,"N_COORD97":2543050.0299999998,"ADDRESS":"南潭三街１６２巷１９弄１號","OBJECTID":30433},"geometry":{"x":176451.23000000138,"y":2543050.0299999975}},{"attributes":{"ID":30434,"DIS_CODE":0,"TOWNNAME":"玉井區","LI":"望明里","LIN":"8鄰","STREET":" ","SECT":" ","MAREA":"公\u25A0","LANE":" ","ALLEY":" ","HOUSE_NO":"４７號","E_COORD97":193939.26000000001,"N_COORD97":2556608.2400000002,"ADDRESS":"公\u25A0４７號","OBJECTID":30434},"geometry":{"x":193939.26000000164,"y":2556608.2400000021}},{"attributes":{"ID":30435,"DIS_CODE":0,"TOWNNAME":"關廟區","LI":"深坑里","LIN":"8鄰","STREET":"深坑三街","SECT":" ","MAREA":" ","LANE":"２５巷","ALLEY":"７６弄","HOUSE_NO":"１１號","E_COORD97":181841.37,"N_COORD97":2537935.2999999998,"ADDRESS":"深坑三街２５巷７６弄１１號","OBJECTID":30435},"geometry":{"x":181841.37000000011,"y":2537935.3000000026}},{"attributes":{"ID":30436,"DIS_CODE":0,"TOWNNAME":"歸仁區","LI":"大潭里","LIN":"17鄰","STREET":"中正南路","SECT":"三段","MAREA":" ","LANE":"２５０巷","ALLEY":"３７弄","HOUSE_NO":"６號","E_COORD97":175078.39999999999,"N_COORD97":2534750.2799999998,"ADDRESS":"中正南路三段２５０巷３７弄６號","OBJECTID":30436},"geometry":{"x":175078.4000000013,"y":2534750.2800000012}},{"attributes":{"ID":30437,"DIS_CODE":0,"TOWNNAME":"歸仁區","LI":"七甲里","LIN":"17鄰","STREET":"南潭三街","SECT":" ","MAREA":" ","LANE":"１６２巷","ALLEY":"１５弄","HOUSE_NO":"２４號","E_COORD97":176494.57999999999,"N_COORD97":2543072.0299999998,"ADDRESS":"南潭三街１６２巷１５弄２４號","OBJECTID":30437},"geometry":{"x":176494.58000000101,"y":2543072.0300000012}},{"attributes":{"ID":30438,"DIS_CODE":0,"TOWNNAME":"歸仁區","LI":"七甲里","LIN":"17鄰","STREET":"南潭三街","SECT":" ","MAREA":" ","LANE":"１６２巷","ALLEY":"１５弄","HOUSE_NO":"１號","E_COORD97":176449.32999999999,"N_COORD97":2543086.0299999998,"ADDRESS":"南潭三街１６２巷１５弄１號","OBJECTID":30438},"geometry":{"x":176449.33000000007,"y":2543086.0299999993}},{"attributes":{"ID":30439,"DIS_CODE":0,"TOWNNAME":"歸仁區","LI":"七甲里","LIN":"17鄰","STREET":"南潭三街","SECT":" ","MAREA":" ","LANE":"１６２巷","ALLEY":"１５弄","HOUSE_NO":"２號","E_COORD97":176450.23000000001,"N_COORD97":2543072.0299999998,"ADDRESS":"南潭三街１６２巷１５弄２號","OBJECTID":30439},"geometry":{"x":176450.23000000045,"y":2543072.0300000012}},{"attributes":{"ID":30440,"DIS_CODE":0,"TOWNNAME":"歸仁區","LI":"七甲里","LIN":"17鄰","STREET":"南潭三街","SECT":" ","MAREA":" ","LANE":"１６２巷","ALLEY":"１１弄","HOUSE_NO":"２號","E_COORD97":176449.42999999999,"N_COORD97":2543107.0299999998,"ADDRESS":"南潭三街１６２巷１１弄２號","OBJECTID":30440},"geometry":{"x":176449.43000000063,"y":2543107.0299999993}},{"attributes":{"ID":30441,"DIS_CODE":0,"TOWNNAME":"新化區","LI":"東榮里","LIN":"17鄰","STREET":"中興路","SECT":" ","MAREA":" ","LANE":"６６５巷","ALLEY":"１１弄","HOUSE_NO":"５號","E_COORD97":179637.06,"N_COORD97":2547976.2400000002,"ADDRESS":"中興路６６５巷１１弄５號","OBJECTID":30441},"geometry":{"x":179637.06000000052,"y":2547976.2400000039}},{"attributes":{"ID":30442,"DIS_CODE":0,"TOWNNAME":"歸仁區","LI":"七甲里","LIN":"17鄰","STREET":"南潭三街","SECT":" ","MAREA":" ","LANE":"１６２巷","ALLEY":"１５弄","HOUSE_NO":"２１號","E_COORD97":176493.67999999999,"N_COORD97":2543086.0299999998,"ADDRESS":"南潭三街１６２巷１５弄２１號","OBJECTID":30442},"geometry":{"x":176493.6799999997,"y":2543086.0299999993}},{"attributes":{"ID":30443,"DIS_CODE":0,"TOWNNAME":"安平區","LI":"文平里","LIN":"17鄰","STREET":"建平四街","SECT":" ","MAREA":" ","LANE":"１８巷","ALLEY":"１８弄","HOUSE_NO":"１２之１號","E_COORD97":166059.22,"N_COORD97":2543091.6299999999,"ADDRESS":"建平四街１８巷１８弄１２之１號","OBJECTID":30443},"geometry":{"x":166059.22000000067,"y":2543091.629999999}},{"attributes":{"ID":30444,"DIS_CODE":0,"TOWNNAME":"安平區","LI":"文平里","LIN":"17鄰","STREET":"建平四街","SECT":" ","MAREA":" ","LANE":"１８巷","ALLEY":"１８弄","HOUSE_NO":"２之１號","E_COORD97":166052.98999999999,"N_COORD97":2543069.7599999998,"ADDRESS":"建平四街１８巷１８弄２之１號","OBJECTID":30444},"geometry":{"x":166052.99000000115,"y":2543069.7600000035}},{"attributes":{"ID":30445,"DIS_CODE":0,"TOWNNAME":"佳里區","LI":"溪州里","LIN":"8鄰","STREET":" ","SECT":" ","MAREA":"溪州","LANE":" ","ALLEY":" ","HOUSE_NO":"７３號","E_COORD97":166350.23000000001,"N_COORD97":2567426.25,"ADDRESS":"溪州７３號","OBJECTID":30445},"geometry":{"x":166350.23000000045,"y":2567426.2500000037}},{"attributes":{"ID":30446,"DIS_CODE":0,"TOWNNAME":"安平區","LI":"文平里","LIN":"17鄰","STREET":"建平四街","SECT":" ","MAREA":" ","LANE":"１８巷","ALLEY":"１８弄","HOUSE_NO":"３２之１號","E_COORD97":166020.56,"N_COORD97":2543077.3500000001,"ADDRESS":"建平四街１８巷１８弄３２之１號","OBJECTID":30446},"geometry":{"x":166020.56000000145,"y":2543077.3499999996}},{"attributes":{"ID":30447,"DIS_CODE":0,"TOWNNAME":"安平區","LI":"文平里","LIN":"17鄰","STREET":"建平四街","SECT":" ","MAREA":" ","LANE":"１８巷","ALLEY":"１８弄","HOUSE_NO":"２２之１號","E_COORD97":166025.39000000001,"N_COORD97":2543097.0099999998,"ADDRESS":"建平四街１８巷１８弄２２之１號","OBJECTID":30447},"geometry":{"x":166025.3900000006,"y":2543097.0099999998}},{"attributes":{"ID":30448,"DIS_CODE":0,"TOWNNAME":"安平區","LI":"文平里","LIN":"17鄰","STREET":"建平四街","SECT":" ","MAREA":" ","LANE":"１８巷","ALLEY":"１８弄","HOUSE_NO":"４２之１號","E_COORD97":165996.76000000001,"N_COORD97":2543078.04,"ADDRESS":"建平四街１８巷１８弄４２之１號","OBJECTID":30448},"geometry":{"x":165996.75999999978,"y":2543078.040000001}},{"attributes":{"ID":30449,"DIS_CODE":0,"TOWNNAME":"北區","LI":"文元里","LIN":"17鄰","STREET":"文賢路","SECT":" ","MAREA":" ","LANE":"１０３０巷","ALLEY":"４９弄","HOUSE_NO":"９號","E_COORD97":167543.54000000001,"N_COORD97":2546126.7799999998,"ADDRESS":"文賢路１０３０巷４９弄９號","OBJECTID":30449},"geometry":{"x":167543.5400000019,"y":2546126.7799999993}},{"attributes":{"ID":30450,"DIS_CODE":0,"TOWNNAME":"北區","LI":"文元里","LIN":"17鄰","STREET":"文賢路","SECT":" ","MAREA":" ","LANE":"１０３０巷","ALLEY":"４９弄","HOUSE_NO":"１號","E_COORD97":167543.16,"N_COORD97":2546107.6099999999,"ADDRESS":"文賢路１０３０巷４９弄１號","OBJECTID":30450},"geometry":{"x":167543.16000000108,"y":2546107.6099999994}},{"attributes":{"ID":30451,"DIS_CODE":0,"TOWNNAME":"北區","LI":"文元里","LIN":"17鄰","STREET":"文賢路","SECT":" ","MAREA":" ","LANE":"１０３０巷","ALLEY":"４９弄","HOUSE_NO":"２號","E_COORD97":167560.54000000001,"N_COORD97":2546105.8999999999,"ADDRESS":"文賢路１０３０巷４９弄２號","OBJECTID":30451},"geometry":{"x":167560.5400000019,"y":2546105.9000000004}},{"attributes":{"ID":30452,"DIS_CODE":0,"TOWNNAME":"北區","LI":"文元里","LIN":"17鄰","STREET":"文賢路","SECT":" ","MAREA":" ","LANE":"１０３０巷","ALLEY":"４９弄","HOUSE_NO":"６號","E_COORD97":167561.85000000001,"N_COORD97":2546115.7200000002,"ADDRESS":"文賢路１０３０巷４９弄６號","OBJECTID":30452},"geometry":{"x":167561.85000000056,"y":2546115.7200000025}},{"attributes":{"ID":30453,"DIS_CODE":0,"TOWNNAME":"北區","LI":"文元里","LIN":"17鄰","STREET":"文賢路","SECT":" ","MAREA":" ","LANE":"１０３０巷","ALLEY":"４９弄","HOUSE_NO":"８號","E_COORD97":167562.10999999999,"N_COORD97":2546119.8999999999,"ADDRESS":"文賢路１０３０巷４９弄８號","OBJECTID":30453},"geometry":{"x":167562.11000000127,"y":2546119.9000000004}},{"attributes":{"ID":30454,"DIS_CODE":0,"TOWNNAME":"北區","LI":"文元里","LIN":"17鄰","STREET":"文賢路","SECT":" ","MAREA":" ","LANE":"１０３０巷","ALLEY":"４９弄","HOUSE_NO":"１２號","E_COORD97":167563.94,"N_COORD97":2546129.0499999998,"ADDRESS":"文賢路１０３０巷４９弄１２號","OBJECTID":30454},"geometry":{"x":167563.94000000134,"y":2546129.0500000007}},{"attributes":{"ID":30455,"DIS_CODE":0,"TOWNNAME":"北區","LI":"文元里","LIN":"17鄰","STREET":"文賢路","SECT":" ","MAREA":" ","LANE":"１０３０巷","ALLEY":"４９弄","HOUSE_NO":"１４號","E_COORD97":167564.20000000001,"N_COORD97":2546132.9700000002,"ADDRESS":"文賢路１０３０巷４９弄１４號","OBJECTID":30455},"geometry":{"x":167564.20000000019,"y":2546132.9700000007}},{"attributes":{"ID":30456,"DIS_CODE":0,"TOWNNAME":"北區","LI":"文元里","LIN":"17鄰","STREET":"文賢路","SECT":" ","MAREA":" ","LANE":"１０３０巷","ALLEY":"４９弄","HOUSE_NO":"１６號","E_COORD97":167564.73000000001,"N_COORD97":2546136.8900000001,"ADDRESS":"文賢路１０３０巷４９弄１６號","OBJECTID":30456},"geometry":{"x":167564.73000000231,"y":2546136.8900000006}},{"attributes":{"ID":30457,"DIS_CODE":0,"TOWNNAME":"北區","LI":"文元里","LIN":"17鄰","STREET":"文賢路","SECT":" ","MAREA":" ","LANE":"１０３０巷","ALLEY":"４９弄","HOUSE_NO":"２０號","E_COORD97":167565.76999999999,"N_COORD97":2546144.98,"ADDRESS":"文賢路１０３０巷４９弄２０號","OBJECTID":30457},"geometry":{"x":167565.77000000048,"y":2546144.9800000023}},{"attributes":{"ID":30458,"DIS_CODE":0,"TOWNNAME":"北區","LI":"文元里","LIN":"17鄰","STREET":"文賢路","SECT":" ","MAREA":" ","LANE":"１０３０巷","ALLEY":"４９弄","HOUSE_NO":"２２號","E_COORD97":167566.29999999999,"N_COORD97":2546149.96,"ADDRESS":"文賢路１０３０巷４９弄２２號","OBJECTID":30458},"geometry":{"x":167566.29999999981,"y":2546149.9600000009}},{"attributes":{"ID":30459,"DIS_CODE":0,"TOWNNAME":"關廟區","LI":"深坑里","LIN":"8鄰","STREET":"深坑三街","SECT":" ","MAREA":" ","LANE":"２５巷","ALLEY":"７６弄","HOUSE_NO":"１號","E_COORD97":181824.47,"N_COORD97":2537926.2999999998,"ADDRESS":"深坑三街２５巷７６弄１號","OBJECTID":30459},"geometry":{"x":181824.47000000067,"y":2537926.3000000007}},{"attributes":{"ID":30460,"DIS_CODE":0,"TOWNNAME":"新營區","LI":"新南里","LIN":"17鄰","STREET":"隋唐街","SECT":" ","MAREA":" ","LANE":"１１５巷","ALLEY":"９弄","HOUSE_NO":"４１號","E_COORD97":178575.53,"N_COORD97":2578494.02,"ADDRESS":"隋唐街１１５巷９弄４１號","OBJECTID":30460},"geometry":{"x":178575.53000000026,"y":2578494.0200000014}},{"attributes":{"ID":30461,"DIS_CODE":0,"TOWNNAME":"北區","LI":"文元里","LIN":"17鄰","STREET":"文賢路","SECT":" ","MAREA":" ","LANE":"１０３０巷","ALLEY":"４９弄","HOUSE_NO":"２６號","E_COORD97":167566.82000000001,"N_COORD97":2546158.5800000001,"ADDRESS":"文賢路１０３０巷４９弄２６號","OBJECTID":30461},"geometry":{"x":167566.8200000003,"y":2546158.5800000001}},{"attributes":{"ID":30462,"DIS_CODE":0,"TOWNNAME":"北區","LI":"文元里","LIN":"17鄰","STREET":"文賢路","SECT":" ","MAREA":" ","LANE":"１０３０巷","ALLEY":"４９弄","HOUSE_NO":"２８號","E_COORD97":167568.39000000001,"N_COORD97":2546162.7599999998,"ADDRESS":"文賢路１０３０巷４９弄２８號","OBJECTID":30462},"geometry":{"x":167568.3900000006,"y":2546162.7600000016}},{"attributes":{"ID":30463,"DIS_CODE":0,"TOWNNAME":"北區","LI":"文元里","LIN":"17鄰","STREET":"文賢路","SECT":" ","MAREA":" ","LANE":"１０３０巷","ALLEY":"４９弄","HOUSE_NO":"３０號","E_COORD97":167568.91,"N_COORD97":2546166.6800000002,"ADDRESS":"文賢路１０３０巷４９弄３０號","OBJECTID":30463},"geometry":{"x":167568.91000000108,"y":2546166.6800000016}},{"attributes":{"ID":30464,"DIS_CODE":0,"TOWNNAME":"北區","LI":"文元里","LIN":"17鄰","STREET":"文賢路","SECT":" ","MAREA":" ","LANE":"１０３０巷","ALLEY":"４９弄","HOUSE_NO":"３２號","E_COORD97":167568.91,"N_COORD97":2546171.1299999999,"ADDRESS":"文賢路１０３０巷４９弄３２號","OBJECTID":30464},"geometry":{"x":167568.91000000108,"y":2546171.129999999}},{"attributes":{"ID":30465,"DIS_CODE":0,"TOWNNAME":"北區","LI":"文元里","LIN":"17鄰","STREET":"文賢路","SECT":" ","MAREA":" ","LANE":"１０３０巷","ALLEY":"４９弄","HOUSE_NO":"３４號","E_COORD97":167569.70000000001,"N_COORD97":2546175.8300000001,"ADDRESS":"文賢路１０３０巷４９弄３４號","OBJECTID":30465},"geometry":{"x":167569.70000000205,"y":2546175.8300000019}},{"attributes":{"ID":30466,"DIS_CODE":0,"TOWNNAME":"北區","LI":"文元里","LIN":"17鄰","STREET":"文賢路","SECT":" ","MAREA":" ","LANE":"１０３０巷","ALLEY":"４９弄","HOUSE_NO":"３６號","E_COORD97":167569.70000000001,"N_COORD97":2546179.23,"ADDRESS":"文賢路１０３０巷４９弄３６號","OBJECTID":30466},"geometry":{"x":167569.70000000205,"y":2546179.2299999986}},{"attributes":{"ID":30467,"DIS_CODE":0,"TOWNNAME":"北區","LI":"文元里","LIN":"17鄰","STREET":"文賢路","SECT":" ","MAREA":" ","LANE":"１０３０巷","ALLEY":"４９弄","HOUSE_NO":"７號","E_COORD97":167543.16,"N_COORD97":2546119.6699999999,"ADDRESS":"文賢路１０３０巷４９弄７號","OBJECTID":30467},"geometry":{"x":167543.16000000108,"y":2546119.6700000018}},{"attributes":{"ID":30468,"DIS_CODE":0,"TOWNNAME":"新營區","LI":"新南里","LIN":"17鄰","STREET":"隋唐街","SECT":" ","MAREA":" ","LANE":"１１５巷","ALLEY":"９弄","HOUSE_NO":"１９號","E_COORD97":178565.01000000001,"N_COORD97":2578469.21,"ADDRESS":"隋唐街１１５巷９弄１９號","OBJECTID":30468},"geometry":{"x":178565.00999999978,"y":2578469.2100000009}},{"attributes":{"ID":30469,"DIS_CODE":0,"TOWNNAME":"新營區","LI":"新南里","LIN":"17鄰","STREET":"隋唐街","SECT":" ","MAREA":" ","LANE":"１１５巷","ALLEY":"９弄","HOUSE_NO":"２１號","E_COORD97":178565.51999999999,"N_COORD97":2578478.1699999999,"ADDRESS":"隋唐街１１５巷９弄２１號","OBJECTID":30469},"geometry":{"x":178565.52000000048,"y":2578478.1699999999}},{"attributes":{"ID":30470,"DIS_CODE":0,"TOWNNAME":"新營區","LI":"新南里","LIN":"17鄰","STREET":"隋唐街","SECT":" ","MAREA":" ","LANE":"１１５巷","ALLEY":"９弄","HOUSE_NO":"２３號","E_COORD97":178565.60999999999,"N_COORD97":2578487.04,"ADDRESS":"隋唐街１１５巷９弄２３號","OBJECTID":30470},"geometry":{"x":178565.61000000127,"y":2578487.040000001}},{"attributes":{"ID":30471,"DIS_CODE":0,"TOWNNAME":"新營區","LI":"新南里","LIN":"17鄰","STREET":"隋唐街","SECT":" ","MAREA":" ","LANE":"１１５巷","ALLEY":"９弄","HOUSE_NO":"２５號","E_COORD97":178565.79000000001,"N_COORD97":2578496.1800000002,"ADDRESS":"隋唐街１１５巷９弄２５號","OBJECTID":30471},"geometry":{"x":178565.79000000097,"y":2578496.1800000034}},{"attributes":{"ID":30472,"DIS_CODE":0,"TOWNNAME":"新營區","LI":"新南里","LIN":"17鄰","STREET":"隋唐街","SECT":" ","MAREA":" ","LANE":"１１５巷","ALLEY":"９弄","HOUSE_NO":"２７號","E_COORD97":178565.42999999999,"N_COORD97":2578504.7000000002,"ADDRESS":"隋唐街１１５巷９弄２７號","OBJECTID":30472},"geometry":{"x":178565.4299999997,"y":2578504.6999999993}},{"attributes":{"ID":30473,"DIS_CODE":0,"TOWNNAME":"新營區","LI":"新南里","LIN":"17鄰","STREET":"隋唐街","SECT":" ","MAREA":" ","LANE":"１１５巷","ALLEY":"９弄","HOUSE_NO":"２９號","E_COORD97":178565.88,"N_COORD97":2578512.9500000002,"ADDRESS":"隋唐街１１５巷９弄２９號","OBJECTID":30473},"geometry":{"x":178565.87999999989,"y":2578512.9499999993}},{"attributes":{"ID":30474,"DIS_CODE":0,"TOWNNAME":"新化區","LI":"全興里","LIN":"14鄰","STREET":" ","SECT":" ","MAREA":"竹子\u25A0","LANE":" ","ALLEY":" ","HOUSE_NO":"２４７號之３５１七樓","E_COORD97":178291.64999999999,"N_COORD97":2546701.2599999998,"ADDRESS":"竹子\u25A0２４７號之３５１七樓之２","OBJECTID":30474},"geometry":{"x":178291.65000000037,"y":2546701.2600000016}},{"attributes":{"ID":30475,"DIS_CODE":0,"TOWNNAME":"山上區","LI":"新莊里","LIN":"8鄰","STREET":" ","SECT":" ","MAREA":"大庄","LANE":" ","ALLEY":" ","HOUSE_NO":"２０號","E_COORD97":183717.26000000001,"N_COORD97":2554804.25,"ADDRESS":"大庄２０號","OBJECTID":30475},"geometry":{"x":183717.26000000164,"y":2554804.2500000019}},{"attributes":{"ID":30476,"DIS_CODE":0,"TOWNNAME":"新營區","LI":"新南里","LIN":"17鄰","STREET":"隋唐街","SECT":" ","MAREA":" ","LANE":"１１５巷","ALLEY":"９弄","HOUSE_NO":"３０之１號","E_COORD97":178568.09,"N_COORD97":2578441.96,"ADDRESS":"隋唐街１１５巷９弄３０之１號","OBJECTID":30476},"geometry":{"x":178568.08999999985,"y":2578441.9600000028}},{"attributes":{"ID":30477,"DIS_CODE":0,"TOWNNAME":"新營區","LI":"新南里","LIN":"17鄰","STREET":"隋唐街","SECT":" ","MAREA":" ","LANE":"１１５巷","ALLEY":"９弄","HOUSE_NO":"３０之２號","E_COORD97":178566.73000000001,"N_COORD97":2578436,"ADDRESS":"隋唐街１１５巷９弄３０之２號","OBJECTID":30477},"geometry":{"x":178566.73000000138,"y":2578436}},{"attributes":{"ID":30478,"DIS_CODE":0,"TOWNNAME":"新營區","LI":"新南里","LIN":"17鄰","STREET":"隋唐街","SECT":" ","MAREA":" ","LANE":"１１５巷","ALLEY":"９弄","HOUSE_NO":"３０之３號","E_COORD97":178565.31,"N_COORD97":2578430.6899999999,"ADDRESS":"隋唐街１１５巷９弄３０之３號","OBJECTID":30478},"geometry":{"x":178565.31000000052,"y":2578430.6899999995}},{"attributes":{"ID":30479,"DIS_CODE":0,"TOWNNAME":"新營區","LI":"新南里","LIN":"17鄰","STREET":"隋唐街","SECT":" ","MAREA":" ","LANE":"１１５巷","ALLEY":"９弄","HOUSE_NO":"３０之５號","E_COORD97":178563.56,"N_COORD97":2578424.6699999999,"ADDRESS":"隋唐街１１５巷９弄３０之５號","OBJECTID":30479},"geometry":{"x":178563.56000000052,"y":2578424.6699999999}},{"attributes":{"ID":30480,"DIS_CODE":0,"TOWNNAME":"新營區","LI":"新南里","LIN":"17鄰","STREET":"隋唐街","SECT":" ","MAREA":" ","LANE":"１１５巷","ALLEY":"９弄","HOUSE_NO":"３０之６號","E_COORD97":178561.73999999999,"N_COORD97":2578418.1899999999,"ADDRESS":"隋唐街１１５巷９弄３０之６號","OBJECTID":30480},"geometry":{"x":178561.74000000115,"y":2578418.1900000013}},{"attributes":{"ID":30481,"DIS_CODE":0,"TOWNNAME":"新營區","LI":"新南里","LIN":"17鄰","STREET":"隋唐街","SECT":" ","MAREA":" ","LANE":"１１５巷","ALLEY":"９弄","HOUSE_NO":"３１號","E_COORD97":178574.87,"N_COORD97":2578516.5600000001,"ADDRESS":"隋唐街１１５巷９弄３１號","OBJECTID":30481},"geometry":{"x":178574.87000000011,"y":2578516.5600000005}},{"attributes":{"ID":30482,"DIS_CODE":0,"TOWNNAME":"新營區","LI":"新南里","LIN":"17鄰","STREET":"隋唐街","SECT":" ","MAREA":" ","LANE":"１１５巷","ALLEY":"９弄","HOUSE_NO":"３２之１號","E_COORD97":178583.10999999999,"N_COORD97":2578438.0699999998,"ADDRESS":"隋唐街１１５巷９弄３２之１號","OBJECTID":30482},"geometry":{"x":178583.11000000127,"y":2578438.0700000022}},{"attributes":{"ID":30483,"DIS_CODE":0,"TOWNNAME":"新營區","LI":"新南里","LIN":"17鄰","STREET":"隋唐街","SECT":" ","MAREA":" ","LANE":"１１５巷","ALLEY":"９弄","HOUSE_NO":"３２之２號","E_COORD97":178581.64999999999,"N_COORD97":2578432.25,"ADDRESS":"隋唐街１１５巷９弄３２之２號","OBJECTID":30483},"geometry":{"x":178581.65000000037,"y":2578432.2500000019}},{"attributes":{"ID":30484,"DIS_CODE":0,"TOWNNAME":"新營區","LI":"新南里","LIN":"17鄰","STREET":"隋唐街","SECT":" ","MAREA":" ","LANE":"１１５巷","ALLEY":"９弄","HOUSE_NO":"３２之３號","E_COORD97":178579.44,"N_COORD97":2578426.04,"ADDRESS":"隋唐街１１５巷９弄３２之３號","OBJECTID":30484},"geometry":{"x":178579.44000000041,"y":2578426.040000001}},{"attributes":{"ID":30485,"DIS_CODE":0,"TOWNNAME":"關廟區","LI":"深坑里","LIN":"8鄰","STREET":"南雄路","SECT":"一段","MAREA":" ","LANE":"４２２巷","ALLEY":" ","HOUSE_NO":"３３號","E_COORD97":181726.57000000001,"N_COORD97":2537801.2999999998,"ADDRESS":"南雄路一段４２２巷３３號","OBJECTID":30485},"geometry":{"x":181726.5700000003,"y":2537801.3000000007}},{"attributes":{"ID":30486,"DIS_CODE":0,"TOWNNAME":"關廟區","LI":"深坑里","LIN":"8鄰","STREET":"深坑三街","SECT":" ","MAREA":" ","LANE":"２５巷","ALLEY":"７６弄","HOUSE_NO":"７號","E_COORD97":181834.87,"N_COORD97":2537931.2999999998,"ADDRESS":"深坑三街２５巷７６弄７號","OBJECTID":30486},"geometry":{"x":181834.87000000011,"y":2537931.3000000026}},{"attributes":{"ID":30487,"DIS_CODE":0,"TOWNNAME":"關廟區","LI":"深坑里","LIN":"8鄰","STREET":"深坑三街","SECT":" ","MAREA":" ","LANE":"２５巷","ALLEY":"７６弄","HOUSE_NO":"９號","E_COORD97":181837.97,"N_COORD97":2537933.2999999998,"ADDRESS":"深坑三街２５巷７６弄９號","OBJECTID":30487},"geometry":{"x":181837.97000000067,"y":2537933.3000000007}},{"attributes":{"ID":30488,"DIS_CODE":0,"TOWNNAME":"關廟區","LI":"深坑里","LIN":"8鄰","STREET":"南雄路","SECT":"一段","MAREA":" ","LANE":" ","ALLEY":" ","HOUSE_NO":"４６８號","E_COORD97":181707.07000000001,"N_COORD97":2537788.2999999998,"ADDRESS":"南雄路一段４６８號","OBJECTID":30488},"geometry":{"x":181707.07000000123,"y":2537788.3000000045}},{"attributes":{"ID":30489,"DIS_CODE":0,"TOWNNAME":"關廟區","LI":"深坑里","LIN":"8鄰","STREET":"南雄路","SECT":"一段","MAREA":" ","LANE":"４９２巷","ALLEY":" ","HOUSE_NO":"６號","E_COORD97":181709.01999999999,"N_COORD97":2537828.2999999998,"ADDRESS":"南雄路一段４９２巷６號","OBJECTID":30489},"geometry":{"x":181709.01999999955,"y":2537828.3000000007}},{"attributes":{"ID":30490,"DIS_CODE":0,"TOWNNAME":"關廟區","LI":"深坑里","LIN":"8鄰","STREET":"深坑三街","SECT":" ","MAREA":" ","LANE":" ","ALLEY":" ","HOUSE_NO":"２號","E_COORD97":181715.22,"N_COORD97":2537841.2999999998,"ADDRESS":"深坑三街２號","OBJECTID":30490},"geometry":{"x":181715.21999999974,"y":2537841.3000000007}},{"attributes":{"ID":30491,"DIS_CODE":0,"TOWNNAME":"關廟區","LI":"布袋里","LIN":"8鄰","STREET":"長文街","SECT":" ","MAREA":" ","LANE":"３２６巷","ALLEY":" ","HOUSE_NO":"５２號","E_COORD97":181973.44,"N_COORD97":2534965.2999999998,"ADDRESS":"長文街３２６巷５２號","OBJECTID":30491},"geometry":{"x":181973.44000000041,"y":2534965.3000000026}},{"attributes":{"ID":30492,"DIS_CODE":0,"TOWNNAME":"關廟區","LI":"布袋里","LIN":"8鄰","STREET":"長文街","SECT":" ","MAREA":" ","LANE":"３２６巷","ALLEY":" ","HOUSE_NO":"６１號","E_COORD97":181993.09,"N_COORD97":2534913.2999999998,"ADDRESS":"長文街３２６巷６１號","OBJECTID":30492},"geometry":{"x":181993.09000000078,"y":2534913.3000000045}},{"attributes":{"ID":30493,"DIS_CODE":0,"TOWNNAME":"關廟區","LI":"深坑里","LIN":"8鄰","STREET":"深坑三街","SECT":" ","MAREA":" ","LANE":"２５巷","ALLEY":"７６弄","HOUSE_NO":"１５號","E_COORD97":181849.32000000001,"N_COORD97":2537938.4399999999,"ADDRESS":"深坑三街２５巷７６弄１５號","OBJECTID":30493},"geometry":{"x":181849.32000000216,"y":2537938.4400000032}},{"attributes":{"ID":30494,"DIS_CODE":0,"TOWNNAME":"南化區","LI":"北寮里","LIN":"8鄰","STREET":" ","SECT":" ","MAREA":"北寮","LANE":" ","ALLEY":" ","HOUSE_NO":"１１６之２號","E_COORD97":197922.64000000001,"N_COORD97":2553113.7999999998,"ADDRESS":"北寮１１６之２號","OBJECTID":30494},"geometry":{"x":197922.6400000006,"y":2553113.8000000026}},{"attributes":{"ID":30495,"DIS_CODE":0,"TOWNNAME":"山上區","LI":"玉\u25A0里","LIN":"8鄰","STREET":" ","SECT":" ","MAREA":"埔\u25A0坑","LANE":" ","ALLEY":" ","HOUSE_NO":"１０號","E_COORD97":187694.12,"N_COORD97":2554885.29,"ADDRESS":"埔\u25A0坑１０號","OBJECTID":30495},"geometry":{"x":187694.12000000104,"y":2554885.290000001}},{"attributes":{"ID":30496,"DIS_CODE":0,"TOWNNAME":"將軍區","LI":"西華里","LIN":"7鄰","STREET":" ","SECT":" ","MAREA":"西華","LANE":" ","ALLEY":" ","HOUSE_NO":"９１號","E_COORD97":163399.60000000001,"N_COORD97":2566465.2400000002,"ADDRESS":"西華９１號","OBJECTID":30496},"geometry":{"x":163399.60000000149,"y":2566465.2400000021}},{"attributes":{"ID":30497,"DIS_CODE":0,"TOWNNAME":"山上區","LI":"新莊里","LIN":"8鄰","STREET":" ","SECT":" ","MAREA":"大庄","LANE":" ","ALLEY":" ","HOUSE_NO":"２８之１號","E_COORD97":183829.76000000001,"N_COORD97":2554818.2999999998,"ADDRESS":"大庄２８之１號","OBJECTID":30497},"geometry":{"x":183829.76000000071,"y":2554818.3000000026}},{"attributes":{"ID":30498,"DIS_CODE":0,"TOWNNAME":"關廟區","LI":"埤頭里","LIN":"8鄰","STREET":"保東路","SECT":" ","MAREA":" ","LANE":"８８巷","ALLEY":" ","HOUSE_NO":"１８號","E_COORD97":178877.26999999999,"N_COORD97":2544086.2999999998,"ADDRESS":"保東路８８巷１８號","OBJECTID":30498},"geometry":{"x":178877.27000000048,"y":2544086.3000000007}},{"attributes":{"ID":30499,"DIS_CODE":0,"TOWNNAME":"關廟區","LI":"埤頭里","LIN":"8鄰","STREET":"保東路","SECT":" ","MAREA":" ","LANE":" ","ALLEY":" ","HOUSE_NO":"９０號","E_COORD97":178873.07000000001,"N_COORD97":2544037.2999999998,"ADDRESS":"保東路９０號","OBJECTID":30499},"geometry":{"x":178873.07000000123,"y":2544037.3000000026}},{"attributes":{"ID":30500,"DIS_CODE":0,"TOWNNAME":"關廟區","LI":"埤頭里","LIN":"8鄰","STREET":"保東路","SECT":" ","MAREA":" ","LANE":"８８巷","ALLEY":" ","HOUSE_NO":"３１號","E_COORD97":178842.76999999999,"N_COORD97":2544132.2999999998,"ADDRESS":"保東路８８巷３１號","OBJECTID":30500},"geometry":{"x":178842.76999999955,"y":2544132.3000000026}},{"attributes":{"ID":30501,"DIS_CODE":0,"TOWNNAME":"關廟區","LI":"布袋里","LIN":"8鄰","STREET":"長文街","SECT":" ","MAREA":" ","LANE":"３２８巷","ALLEY":" ","HOUSE_NO":"２號","E_COORD97":182050.69,"N_COORD97":2534995.2999999998,"ADDRESS":"長文街３２８巷２號","OBJECTID":30501},"geometry":{"x":182050.69000000134,"y":2534995.3000000026}},{"attributes":{"ID":30502,"DIS_CODE":0,"TOWNNAME":"關廟區","LI":"布袋里","LIN":"8鄰","STREET":"長文街","SECT":" ","MAREA":" ","LANE":"３２８巷","ALLEY":" ","HOUSE_NO":"６號","E_COORD97":182049.89000000001,"N_COORD97":2534990.2999999998,"ADDRESS":"長文街３２８巷６號","OBJECTID":30502},"geometry":{"x":182049.89000000153,"y":2534990.3000000007}},{"attributes":{"ID":30503,"DIS_CODE":0,"TOWNNAME":"關廟區","LI":"布袋里","LIN":"8鄰","STREET":"長文街","SECT":" ","MAREA":" ","LANE":"３２６巷","ALLEY":" ","HOUSE_NO":"３號","E_COORD97":182048.021034,"N_COORD97":2535012.3185299998,"ADDRESS":"長文街３２６巷３號","OBJECTID":30503},"geometry":{"x":182048.02103400044,"y":2535012.318528004}},{"attributes":{"ID":30504,"DIS_CODE":0,"TOWNNAME":"關廟區","LI":"布袋里","LIN":"8鄰","STREET":"長文街","SECT":" ","MAREA":" ","LANE":"３２６巷","ALLEY":" ","HOUSE_NO":"５號","E_COORD97":182043.782217,"N_COORD97":2535013.6943600001,"ADDRESS":"長文街３２６巷５號","OBJECTID":30504},"geometry":{"x":182043.78221699968,"y":2535013.6943599992}},{"attributes":{"ID":30505,"DIS_CODE":0,"TOWNNAME":"新營區","LI":"新南里","LIN":"17鄰","STREET":"隋唐街","SECT":" ","MAREA":" ","LANE":"１１５巷","ALLEY":"９弄","HOUSE_NO":"３２之５號","E_COORD97":178577.53,"N_COORD97":2578420.1899999999,"ADDRESS":"隋唐街１１５巷９弄３２之５號","OBJECTID":30505},"geometry":{"x":178577.53000000026,"y":2578420.1899999995}},{"attributes":{"ID":30506,"DIS_CODE":0,"TOWNNAME":"新營區","LI":"新南里","LIN":"17鄰","STREET":"隋唐街","SECT":" ","MAREA":" ","LANE":"１１５巷","ALLEY":"９弄","HOUSE_NO":"３２之６號","E_COORD97":178576.16,"N_COORD97":2578414.1000000001,"ADDRESS":"隋唐街１１５巷９弄３２之６號","OBJECTID":30506},"geometry":{"x":178576.16000000015,"y":2578414.0999999996}},{"attributes":{"ID":30507,"DIS_CODE":0,"TOWNNAME":"新營區","LI":"新南里","LIN":"17鄰","STREET":"隋唐街","SECT":" ","MAREA":" ","LANE":"１１５巷","ALLEY":"９弄","HOUSE_NO":"３２之７號","E_COORD97":178574.31,"N_COORD97":2578408.3700000001,"ADDRESS":"隋唐街１１５巷９弄３２之７號","OBJECTID":30507},"geometry":{"x":178574.30999999959,"y":2578408.3700000029}},{"attributes":{"ID":30508,"DIS_CODE":0,"TOWNNAME":"新營區","LI":"新南里","LIN":"17鄰","STREET":"隋唐街","SECT":" ","MAREA":" ","LANE":"１１５巷","ALLEY":"９弄","HOUSE_NO":"３２號","E_COORD97":178582.29999999999,"N_COORD97":2578444.0800000001,"ADDRESS":"隋唐街１１５巷９弄３２號","OBJECTID":30508},"geometry":{"x":178582.30000000168,"y":2578444.0800000019}},{"attributes":{"ID":30509,"DIS_CODE":0,"TOWNNAME":"新營區","LI":"新南里","LIN":"17鄰","STREET":"隋唐街","SECT":" ","MAREA":" ","LANE":"１１５巷","ALLEY":"９弄","HOUSE_NO":"３３號","E_COORD97":178575.10000000001,"N_COORD97":2578511.8799999999,"ADDRESS":"隋唐街１１５巷９弄３３號","OBJECTID":30509},"geometry":{"x":178575.10000000056,"y":2578511.8800000008}},{"attributes":{"ID":30510,"DIS_CODE":0,"TOWNNAME":"新營區","LI":"新南里","LIN":"17鄰","STREET":"隋唐街","SECT":" ","MAREA":" ","LANE":"１１５巷","ALLEY":"９弄","HOUSE_NO":"３５號","E_COORD97":178575.32000000001,"N_COORD97":2578507.6600000001,"ADDRESS":"隋唐街１１５巷９弄３５號","OBJECTID":30510},"geometry":{"x":178575.3200000003,"y":2578507.660000002}},{"attributes":{"ID":30511,"DIS_CODE":0,"TOWNNAME":"新營區","LI":"新南里","LIN":"17鄰","STREET":"隋唐街","SECT":" ","MAREA":" ","LANE":"１１５巷","ALLEY":"９弄","HOUSE_NO":"３７號","E_COORD97":178575.39999999999,"N_COORD97":2578503.29,"ADDRESS":"隋唐街１１５巷９弄３７號","OBJECTID":30511},"geometry":{"x":178575.40000000224,"y":2578503.2899999991}},{"attributes":{"ID":30512,"DIS_CODE":0,"TOWNNAME":"新營區","LI":"新南里","LIN":"17鄰","STREET":"隋唐街","SECT":" ","MAREA":" ","LANE":"１１５巷","ALLEY":"９弄","HOUSE_NO":"３９號","E_COORD97":178575.47,"N_COORD97":2578498.54,"ADDRESS":"隋唐街１１５巷９弄３９號","OBJECTID":30512},"geometry":{"x":178575.46999999974,"y":2578498.5399999991}},{"attributes":{"ID":30513,"DIS_CODE":0,"TOWNNAME":"新營區","LI":"新南里","LIN":"17鄰","STREET":"隋唐街","SECT":" ","MAREA":" ","LANE":"１１５巷","ALLEY":"９弄","HOUSE_NO":"４３號","E_COORD97":178575.44,"N_COORD97":2578489.6800000002,"ADDRESS":"隋唐街１１５巷９弄４３號","OBJECTID":30513},"geometry":{"x":178575.44000000134,"y":2578489.6800000016}},{"attributes":{"ID":30514,"DIS_CODE":0,"TOWNNAME":"新營區","LI":"新南里","LIN":"17鄰","STREET":"隋唐街","SECT":" ","MAREA":" ","LANE":"１１５巷","ALLEY":"９弄","HOUSE_NO":"４５號","E_COORD97":178575.42999999999,"N_COORD97":2578484.8999999999,"ADDRESS":"隋唐街１１５巷９弄４５號","OBJECTID":30514},"geometry":{"x":178575.4299999997,"y":2578484.8999999985}},{"attributes":{"ID":30515,"DIS_CODE":0,"TOWNNAME":"新營區","LI":"新南里","LIN":"17鄰","STREET":"隋唐街","SECT":" ","MAREA":" ","LANE":"１１５巷","ALLEY":"９弄","HOUSE_NO":"４７號","E_COORD97":178575,"N_COORD97":2578480.48,"ADDRESS":"隋唐街１１５巷９弄４７號","OBJECTID":30515},"geometry":{"x":178575.00000000093,"y":2578480.4800000004}},{"attributes":{"ID":30516,"DIS_CODE":0,"TOWNNAME":"新營區","LI":"新南里","LIN":"17鄰","STREET":"隋唐街","SECT":" ","MAREA":" ","LANE":"１１５巷","ALLEY":"９弄","HOUSE_NO":"４９號","E_COORD97":178575.53,"N_COORD97":2578475.8999999999,"ADDRESS":"隋唐街１１５巷９弄４９號","OBJECTID":30516},"geometry":{"x":178575.53000000026,"y":2578475.9000000022}},{"attributes":{"ID":30517,"DIS_CODE":0,"TOWNNAME":"新營區","LI":"新南里","LIN":"17鄰","STREET":"隋唐街","SECT":" ","MAREA":" ","LANE":"１１５巷","ALLEY":"９弄","HOUSE_NO":"５１號","E_COORD97":178575.22,"N_COORD97":2578471.4199999999,"ADDRESS":"隋唐街１１５巷９弄５１號","OBJECTID":30517},"geometry":{"x":178575.21999999974,"y":2578471.4200000018}},{"attributes":{"ID":30518,"DIS_CODE":0,"TOWNNAME":"新營區","LI":"新南里","LIN":"17鄰","STREET":"隋唐街","SECT":" ","MAREA":" ","LANE":"１１５巷","ALLEY":"９弄","HOUSE_NO":"５３號","E_COORD97":178575.10999999999,"N_COORD97":2578466.9500000002,"ADDRESS":"隋唐街１１５巷９弄５３號","OBJECTID":30518},"geometry":{"x":178575.11000000034,"y":2578466.9500000011}},{"attributes":{"ID":30519,"DIS_CODE":0,"TOWNNAME":"新營區","LI":"新南里","LIN":"17鄰","STREET":"隋唐街","SECT":" ","MAREA":" ","LANE":"１１５巷","ALLEY":"９弄","HOUSE_NO":"５５號","E_COORD97":178574.85000000001,"N_COORD97":2578461.7400000002,"ADDRESS":"隋唐街１１５巷９弄５５號","OBJECTID":30519},"geometry":{"x":178574.8499999987,"y":2578461.7400000002}},{"attributes":{"ID":30520,"DIS_CODE":0,"TOWNNAME":"新化區","LI":"東榮里","LIN":"17鄰","STREET":"中興路","SECT":" ","MAREA":" ","LANE":"６６５巷","ALLEY":"１１弄","HOUSE_NO":"１２號","E_COORD97":179628.10999999999,"N_COORD97":2547988.25,"ADDRESS":"中興路６６５巷１１弄１２號","OBJECTID":30520},"geometry":{"x":179628.11000000034,"y":2547988.25}},{"attributes":{"ID":30521,"DIS_CODE":0,"TOWNNAME":"新化區","LI":"東榮里","LIN":"17鄰","STREET":"中興路","SECT":" ","MAREA":" ","LANE":"６６５巷","ALLEY":"１１弄","HOUSE_NO":"１號","E_COORD97":179645.16,"N_COORD97":2547977.25,"ADDRESS":"中興路６６５巷１１弄１號","OBJECTID":30521},"geometry":{"x":179645.16000000108,"y":2547977.2500000019}},{"attributes":{"ID":30522,"DIS_CODE":0,"TOWNNAME":"新化區","LI":"東榮里","LIN":"17鄰","STREET":"中興路","SECT":" ","MAREA":" ","LANE":"６６５巷","ALLEY":"１１弄","HOUSE_NO":"６號","E_COORD97":179641.06,"N_COORD97":2547988.25,"ADDRESS":"中興路６６５巷１１弄６號","OBJECTID":30522},"geometry":{"x":179641.05999999959,"y":2547988.25}},{"attributes":{"ID":30523,"DIS_CODE":0,"TOWNNAME":"新化區","LI":"東榮里","LIN":"17鄰","STREET":"中興路","SECT":" ","MAREA":" ","LANE":"６６５巷","ALLEY":"１１弄","HOUSE_NO":"１６號","E_COORD97":179623.81,"N_COORD97":2547988.25,"ADDRESS":"中興路６６５巷１１弄１６號","OBJECTID":30523},"geometry":{"x":179623.80999999959,"y":2547988.25}},{"attributes":{"ID":30524,"DIS_CODE":0,"TOWNNAME":"新營區","LI":"新南里","LIN":"6鄰","STREET":"長榮路","SECT":"二段","MAREA":" ","LANE":" ","ALLEY":" ","HOUSE_NO":"９０７號","E_COORD97":178310.45999999999,"N_COORD97":2579060.9500000002,"ADDRESS":"長榮路二段９０７號","OBJECTID":30524},"geometry":{"x":178310.46000000089,"y":2579060.9500000011}},{"attributes":{"ID":30525,"DIS_CODE":0,"TOWNNAME":"新化區","LI":"東榮里","LIN":"17鄰","STREET":"中興路","SECT":" ","MAREA":" ","LANE":"６６５巷","ALLEY":"１１弄","HOUSE_NO":"９號","E_COORD97":179628.35999999999,"N_COORD97":2547976.2400000002,"ADDRESS":"中興路６６５巷１１弄９號","OBJECTID":30525},"geometry":{"x":179628.3600000022,"y":2547976.2400000039}},{"attributes":{"ID":30526,"DIS_CODE":0,"TOWNNAME":"新化區","LI":"東榮里","LIN":"17鄰","STREET":"中興路","SECT":" ","MAREA":" ","LANE":"６６５巷","ALLEY":"１１弄","HOUSE_NO":"１０號","E_COORD97":179632.01000000001,"N_COORD97":2547988.25,"ADDRESS":"中興路６６５巷１１弄１０號","OBJECTID":30526},"geometry":{"x":179632.01000000071,"y":2547988.25}},{"attributes":{"ID":30527,"DIS_CODE":0,"TOWNNAME":"安平區","LI":"海頭里","LIN":"17鄰","STREET":"古堡街","SECT":" ","MAREA":" ","LANE":"１１８巷","ALLEY":"２５弄","HOUSE_NO":"２３號","E_COORD97":163764.48999999999,"N_COORD97":2545010.54,"ADDRESS":"古堡街１１８巷２５弄２３號","OBJECTID":30527},"geometry":{"x":163764.49000000115,"y":2545010.540000001}},{"attributes":{"ID":30528,"DIS_CODE":0,"TOWNNAME":"永康區","LI":"東橋里","LIN":"17鄰","STREET":"東橋十街","SECT":" ","MAREA":" ","LANE":"８８巷","ALLEY":"６弄","HOUSE_NO":"７號","E_COORD97":171380.66,"N_COORD97":2546869.3199999998,"ADDRESS":"東橋十街８８巷６弄７號","OBJECTID":30528},"geometry":{"x":171380.66000000201,"y":2546869.3200000003}},{"attributes":{"ID":30529,"DIS_CODE":0,"TOWNNAME":"永康區","LI":"西勢里","LIN":"17鄰","STREET":"富強路","SECT":"一段","MAREA":" ","LANE":"１６８巷","ALLEY":"１２８弄","HOUSE_NO":"３號","E_COORD97":175739.97,"N_COORD97":2546311.79,"ADDRESS":"富強路一段１６８巷１２８弄３號","OBJECTID":30529},"geometry":{"x":175739.9700000016,"y":2546311.7899999991}},{"attributes":{"ID":30530,"DIS_CODE":0,"TOWNNAME":"永康區","LI":"東橋里","LIN":"17鄰","STREET":"東橋十街","SECT":" ","MAREA":" ","LANE":"８８巷","ALLEY":"６弄","HOUSE_NO":"１２號","E_COORD97":171363.16,"N_COORD97":2546883.5,"ADDRESS":"東橋十街８８巷６弄１２號","OBJECTID":30530},"geometry":{"x":171363.16000000015,"y":2546883.5000000019}},{"attributes":{"ID":30531,"DIS_CODE":0,"TOWNNAME":"永康區","LI":"西勢里","LIN":"17鄰","STREET":"富強路","SECT":"一段","MAREA":" ","LANE":"１６８巷","ALLEY":"１２８弄","HOUSE_NO":"７號","E_COORD97":175741.42000000001,"N_COORD97":2546322.1800000002,"ADDRESS":"富強路一段１６８巷１２８弄７號","OBJECTID":30531},"geometry":{"x":175741.41999999993,"y":2546322.1800000016}},{"attributes":{"ID":30532,"DIS_CODE":0,"TOWNNAME":"永康區","LI":"西勢里","LIN":"17鄰","STREET":"富強路","SECT":"一段","MAREA":" ","LANE":"１６８巷","ALLEY":"１２８弄","HOUSE_NO":"１號","E_COORD97":175738.45000000001,"N_COORD97":2546306.5899999999,"ADDRESS":"富強路一段１６８巷１２８弄１號","OBJECTID":30532},"geometry":{"x":175738.45000000019,"y":2546306.5900000017}},{"attributes":{"ID":30533,"DIS_CODE":0,"TOWNNAME":"永康區","LI":"西勢里","LIN":"17鄰","STREET":"富強路","SECT":"一段","MAREA":" ","LANE":"１６８巷","ALLEY":"１２８弄","HOUSE_NO":"５號","E_COORD97":175739.98999999999,"N_COORD97":2546317.25,"ADDRESS":"富強路一段１６８巷１２８弄５號","OBJECTID":30533},"geometry":{"x":175739.99000000022,"y":2546317.25}},{"attributes":{"ID":30534,"DIS_CODE":0,"TOWNNAME":"永康區","LI":"烏竹里","LIN":"17鄰","STREET":"竹南街","SECT":" ","MAREA":" ","LANE":"５６巷","ALLEY":"１５弄","HOUSE_NO":"３２號","E_COORD97":174381.79000000001,"N_COORD97":2548864.3799999999,"ADDRESS":"竹南街５６巷１５弄３２號","OBJECTID":30534},"geometry":{"x":174381.78999999911,"y":2548864.379999999}},{"attributes":{"ID":30535,"DIS_CODE":0,"TOWNNAME":"永康區","LI":"烏竹里","LIN":"17鄰","STREET":"竹南街","SECT":" ","MAREA":" ","LANE":"５６巷","ALLEY":"１５弄","HOUSE_NO":"１７號","E_COORD97":174404.29000000001,"N_COORD97":2548823.4700000002,"ADDRESS":"竹南街５６巷１５弄１７號","OBJECTID":30535},"geometry":{"x":174404.29000000097,"y":2548823.4700000025}},{"attributes":{"ID":30536,"DIS_CODE":0,"TOWNNAME":"永康區","LI":"東橋里","LIN":"17鄰","STREET":"東橋十街","SECT":" ","MAREA":" ","LANE":"８８巷","ALLEY":"６弄","HOUSE_NO":"１０號","E_COORD97":171367.81,"N_COORD97":2546886.3900000001,"ADDRESS":"東橋十街８８巷６弄１０號","OBJECTID":30536},"geometry":{"x":171367.81000000052,"y":2546886.3900000006}},{"attributes":{"ID":30537,"DIS_CODE":0,"TOWNNAME":"永康區","LI":"東橋里","LIN":"17鄰","STREET":"東橋十街","SECT":" ","MAREA":" ","LANE":"８８巷","ALLEY":"６弄","HOUSE_NO":"３號","E_COORD97":171387.82000000001,"N_COORD97":2546876.0800000001,"ADDRESS":"東橋十街８８巷６弄３號","OBJECTID":30537},"geometry":{"x":171387.8200000003,"y":2546876.0800000019}},{"attributes":{"ID":30538,"DIS_CODE":0,"TOWNNAME":"永康區","LI":"烏竹里","LIN":"17鄰","STREET":"竹南街","SECT":" ","MAREA":" ","LANE":"５６巷","ALLEY":"１５弄","HOUSE_NO":"２號","E_COORD97":174441.13,"N_COORD97":2548867.6099999999,"ADDRESS":"竹南街５６巷１５弄２號","OBJECTID":30538},"geometry":{"x":174441.13000000082,"y":2548867.6100000031}},{"attributes":{"ID":30539,"DIS_CODE":0,"TOWNNAME":"永康區","LI":"東橋里","LIN":"17鄰","STREET":"東橋十街","SECT":" ","MAREA":" ","LANE":"８８巷","ALLEY":"６弄","HOUSE_NO":"２號","E_COORD97":171382.89000000001,"N_COORD97":2546894.8599999999,"ADDRESS":"東橋十街８８巷６弄２號","OBJECTID":30539},"geometry":{"x":171382.88999999966,"y":2546894.8599999994}},{"attributes":{"ID":30540,"DIS_CODE":0,"TOWNNAME":"永康區","LI":"烏竹里","LIN":"17鄰","STREET":"竹南街","SECT":" ","MAREA":" ","LANE":"５６巷","ALLEY":"１５弄","HOUSE_NO":"２０號","E_COORD97":174409.47,"N_COORD97":2548858.3700000001,"ADDRESS":"竹南街５６巷１５弄２０號","OBJECTID":30540},"geometry":{"x":174409.47000000067,"y":2548858.3700000029}},{"attributes":{"ID":30541,"DIS_CODE":0,"TOWNNAME":"永康區","LI":"西勢里","LIN":"17鄰","STREET":"富強路","SECT":"一段","MAREA":" ","LANE":"１６８巷","ALLEY":"１２８弄","HOUSE_NO":"８號","E_COORD97":175736.53,"N_COORD97":2546271.7000000002,"ADDRESS":"富強路一段１６８巷１２８弄８號","OBJECTID":30541},"geometry":{"x":175736.52999999933,"y":2546271.6999999993}},{"attributes":{"ID":30542,"DIS_CODE":0,"TOWNNAME":"永康區","LI":"東橋里","LIN":"17鄰","STREET":"東橋十街","SECT":" ","MAREA":" ","LANE":"８８巷","ALLEY":"２弄","HOUSE_NO":"１５號","E_COORD97":171346.53,"N_COORD97":2546883.6099999999,"ADDRESS":"東橋十街８８巷２弄１５號","OBJECTID":30542},"geometry":{"x":171346.53000000119,"y":2546883.6099999994}},{"attributes":{"ID":30543,"DIS_CODE":0,"TOWNNAME":"永康區","LI":"東橋里","LIN":"17鄰","STREET":"東橋十街","SECT":" ","MAREA":" ","LANE":"８８巷","ALLEY":"２弄","HOUSE_NO":"１３號","E_COORD97":171351.14000000001,"N_COORD97":2546886.48,"ADDRESS":"東橋十街８８巷２弄１３號","OBJECTID":30543},"geometry":{"x":171351.13999999966,"y":2546886.4800000042}},{"attributes":{"ID":30544,"DIS_CODE":0,"TOWNNAME":"永康區","LI":"東橋里","LIN":"17鄰","STREET":"東橋十街","SECT":" ","MAREA":" ","LANE":"８８巷","ALLEY":"２弄","HOUSE_NO":"３０號","E_COORD97":171318.44,"N_COORD97":2546885.4300000002,"ADDRESS":"東橋十街８８巷２弄３０號","OBJECTID":30544},"geometry":{"x":171318.44000000134,"y":2546885.4299999997}},{"attributes":{"ID":30545,"DIS_CODE":0,"TOWNNAME":"永康區","LI":"東橋里","LIN":"17鄰","STREET":"東橋十街","SECT":" ","MAREA":" ","LANE":"８８巷","ALLEY":"２弄","HOUSE_NO":"２８號","E_COORD97":171323.51000000001,"N_COORD97":2546889.4500000002,"ADDRESS":"東橋十街８８巷２弄２８號","OBJECTID":30545},"geometry":{"x":171323.50999999978,"y":2546889.4500000011}},{"attributes":{"ID":30546,"DIS_CODE":0,"TOWNNAME":"永康區","LI":"東橋里","LIN":"17鄰","STREET":"東橋十街","SECT":" ","MAREA":" ","LANE":"８８巷","ALLEY":"６弄","HOUSE_NO":"２８號","E_COORD97":171329.44,"N_COORD97":2546862.5699999998,"ADDRESS":"東橋十街８８巷６弄２８號","OBJECTID":30546},"geometry":{"x":171329.44000000041,"y":2546862.5700000022}},{"attributes":{"ID":30547,"DIS_CODE":0,"TOWNNAME":"永康區","LI":"西勢里","LIN":"17鄰","STREET":"富強路","SECT":"一段","MAREA":" ","LANE":"１６８巷","ALLEY":"１２８弄","HOUSE_NO":"２１號","E_COORD97":175760.01999999999,"N_COORD97":2546305.6299999999,"ADDRESS":"富強路一段１６８巷１２８弄２１號","OBJECTID":30547},"geometry":{"x":175760.02000000048,"y":2546305.6300000008}},{"attributes":{"ID":30548,"DIS_CODE":0,"TOWNNAME":"永康區","LI":"東橋里","LIN":"17鄰","STREET":"東橋十街","SECT":" ","MAREA":" ","LANE":"８８巷","ALLEY":"２弄","HOUSE_NO":"３２號","E_COORD97":171314.75,"N_COORD97":2546883.1299999999,"ADDRESS":"東橋十街８８巷２弄３２號","OBJECTID":30548},"geometry":{"x":171314.75,"y":2546883.129999999}},{"attributes":{"ID":30549,"DIS_CODE":0,"TOWNNAME":"永康區","LI":"烏竹里","LIN":"17鄰","STREET":"竹南街","SECT":" ","MAREA":" ","LANE":"５６巷","ALLEY":"１５弄","HOUSE_NO":"１８號","E_COORD97":174413.64000000001,"N_COORD97":2548860.0699999998,"ADDRESS":"竹南街５６巷１５弄１８號","OBJECTID":30549},"geometry":{"x":174413.6400000006,"y":2548860.0700000022}},{"attributes":{"ID":30550,"DIS_CODE":0,"TOWNNAME":"永康區","LI":"東橋里","LIN":"17鄰","STREET":"東橋十街","SECT":" ","MAREA":" ","LANE":"８８巷","ALLEY":"２弄","HOUSE_NO":"５號","E_COORD97":171368.82999999999,"N_COORD97":2546897.46,"ADDRESS":"東橋十街８８巷２弄５號","OBJECTID":30550},"geometry":{"x":171368.83000000007,"y":2546897.4600000028}},{"attributes":{"ID":30551,"DIS_CODE":0,"TOWNNAME":"永康區","LI":"東橋里","LIN":"17鄰","STREET":"東橋十街","SECT":" ","MAREA":" ","LANE":"８８巷","ALLEY":"１弄","HOUSE_NO":"６號","E_COORD97":171396.04000000001,"N_COORD97":2546914.3500000001,"ADDRESS":"東橋十街８８巷１弄６號","OBJECTID":30551},"geometry":{"x":171396.04000000004,"y":2546914.3500000015}},{"attributes":{"ID":30552,"DIS_CODE":0,"TOWNNAME":"永康區","LI":"東橋里","LIN":"17鄰","STREET":"東橋十街","SECT":" ","MAREA":" ","LANE":"８８巷","ALLEY":"２弄","HOUSE_NO":"６號","E_COORD97":171365.07999999999,"N_COORD97":2546914.3700000001,"ADDRESS":"東橋十街８８巷２弄６號","OBJECTID":30552},"geometry":{"x":171365.08000000007,"y":2546914.370000001}},{"attributes":{"ID":30553,"DIS_CODE":0,"TOWNNAME":"永康區","LI":"東橋里","LIN":"17鄰","STREET":"東橋十街","SECT":" ","MAREA":" ","LANE":"８８巷","ALLEY":"２弄","HOUSE_NO":"２０號","E_COORD97":171336.94,"N_COORD97":2546896.9100000001,"ADDRESS":"東橋十街８８巷２弄２０號","OBJECTID":30553},"geometry":{"x":171336.94000000134,"y":2546896.9100000039}},{"attributes":{"ID":30554,"DIS_CODE":0,"TOWNNAME":"永康區","LI":"東橋里","LIN":"17鄰","STREET":"東橋十街","SECT":" ","MAREA":" ","LANE":"８８巷","ALLEY":"２弄","HOUSE_NO":"９號","E_COORD97":171359.62,"N_COORD97":2546891.7400000002,"ADDRESS":"東橋十街８８巷２弄９號","OBJECTID":30554},"geometry":{"x":171359.62000000104,"y":2546891.7400000021}},{"attributes":{"ID":30555,"DIS_CODE":0,"TOWNNAME":"永康區","LI":"東橋里","LIN":"17鄰","STREET":"東橋十街","SECT":" ","MAREA":" ","LANE":"８８巷","ALLEY":"１弄","HOUSE_NO":"８號","E_COORD97":171401.35999999999,"N_COORD97":2546915.6499999999,"ADDRESS":"東橋十街８８巷１弄８號","OBJECTID":30555},"geometry":{"x":171401.36000000034,"y":2546915.6500000041}},{"attributes":{"ID":30556,"DIS_CODE":0,"TOWNNAME":"永康區","LI":"東橋里","LIN":"17鄰","STREET":"東橋十街","SECT":" ","MAREA":" ","LANE":"８８巷","ALLEY":"２弄","HOUSE_NO":"１６號","E_COORD97":171346.53,"N_COORD97":2546903.7400000002,"ADDRESS":"東橋十街８８巷２弄１６號","OBJECTID":30556},"geometry":{"x":171346.53000000119,"y":2546903.7400000002}},{"attributes":{"ID":30557,"DIS_CODE":0,"TOWNNAME":"永康區","LI":"東橋里","LIN":"17鄰","STREET":"東橋十街","SECT":" ","MAREA":" ","LANE":"８８巷","ALLEY":"６弄","HOUSE_NO":"５號","E_COORD97":171383.98000000001,"N_COORD97":2546873.7000000002,"ADDRESS":"東橋十街８８巷６弄５號","OBJECTID":30557},"geometry":{"x":171383.98000000231,"y":2546873.7000000011}},{"attributes":{"ID":30558,"DIS_CODE":0,"TOWNNAME":"永康區","LI":"東橋里","LIN":"17鄰","STREET":"東橋十街","SECT":" ","MAREA":" ","LANE":"８８巷","ALLEY":"２弄","HOUSE_NO":"１９號","E_COORD97":171337.29999999999,"N_COORD97":2546877.8799999999,"ADDRESS":"東橋十街８８巷２弄１９號","OBJECTID":30558},"geometry":{"x":171337.30000000075,"y":2546877.879999999}},{"attributes":{"ID":30559,"DIS_CODE":0,"TOWNNAME":"永康區","LI":"東橋里","LIN":"17鄰","STREET":"東橋十街","SECT":" ","MAREA":" ","LANE":"８８巷","ALLEY":"１弄","HOUSE_NO":"２號","E_COORD97":171392.26999999999,"N_COORD97":2546912.0099999998,"ADDRESS":"東橋十街８８巷１弄２號","OBJECTID":30559},"geometry":{"x":171392.26999999955,"y":2546912.0099999998}},{"attributes":{"ID":30560,"DIS_CODE":0,"TOWNNAME":"永康區","LI":"東橋里","LIN":"17鄰","STREET":"東橋十街","SECT":" ","MAREA":" ","LANE":"８８巷","ALLEY":"２弄","HOUSE_NO":"２５號","E_COORD97":171323.57999999999,"N_COORD97":2546867.3700000001,"ADDRESS":"東橋十街８８巷２弄２５號","OBJECTID":30560},"geometry":{"x":171323.58000000194,"y":2546867.3700000048}},{"attributes":{"ID":30561,"DIS_CODE":0,"TOWNNAME":"永康區","LI":"東橋里","LIN":"17鄰","STREET":"東橋十街","SECT":" ","MAREA":" ","LANE":"８８巷","ALLEY":"６弄","HOUSE_NO":"２２號","E_COORD97":171344.14999999999,"N_COORD97":2546871.7000000002,"ADDRESS":"東橋十街８８巷６弄２２號","OBJECTID":30561},"geometry":{"x":171344.1500000013,"y":2546871.7000000011}},{"attributes":{"ID":30562,"DIS_CODE":0,"TOWNNAME":"永康區","LI":"西勢里","LIN":"17鄰","STREET":"富強路","SECT":"一段","MAREA":" ","LANE":"１６８巷","ALLEY":"１２８弄","HOUSE_NO":"９號","E_COORD97":175742.84,"N_COORD97":2546327.0600000001,"ADDRESS":"富強路一段１６８巷１２８弄９號","OBJECTID":30562},"geometry":{"x":175742.84000000078,"y":2546327.0600000024}},{"attributes":{"ID":30563,"DIS_CODE":0,"TOWNNAME":"仁德區","LI":"成功里","LIN":"14鄰","STREET":"全福路","SECT":" ","MAREA":" ","LANE":" ","ALLEY":" ","HOUSE_NO":"５８號","E_COORD97":170959.20999999999,"N_COORD97":2539304.25,"ADDRESS":"全福路５８號","OBJECTID":30563},"geometry":{"x":170959.20999999996,"y":2539304.2500000019}},{"attributes":{"ID":30564,"DIS_CODE":0,"TOWNNAME":"永康區","LI":"東橋里","LIN":"17鄰","STREET":"東橋十街","SECT":" ","MAREA":" ","LANE":"８８巷","ALLEY":"２弄","HOUSE_NO":"２９號","E_COORD97":171312.76000000001,"N_COORD97":2546863.8500000001,"ADDRESS":"東橋十街８８巷２弄２９號","OBJECTID":30564},"geometry":{"x":171312.75999999978,"y":2546863.8500000015}},{"attributes":{"ID":30565,"DIS_CODE":0,"TOWNNAME":"學甲區","LI":"新榮里","LIN":"7鄰","STREET":" ","SECT":" ","MAREA":"東竹圍","LANE":" ","ALLEY":" ","HOUSE_NO":"７號","E_COORD97":166794.57999999999,"N_COORD97":2570053.4399999999,"ADDRESS":"東竹圍７號","OBJECTID":30565},"geometry":{"x":166794.58000000101,"y":2570053.4400000013}},{"attributes":{"ID":30566,"DIS_CODE":0,"TOWNNAME":"永康區","LI":"西勢里","LIN":"17鄰","STREET":"富強路","SECT":"一段","MAREA":" ","LANE":"１６８巷","ALLEY":"１２８弄","HOUSE_NO":"１１號","E_COORD97":175743.53,"N_COORD97":2546331.96,"ADDRESS":"富強路一段１６８巷１２８弄１１號","OBJECTID":30566},"geometry":{"x":175743.53000000212,"y":2546331.9600000028}},{"attributes":{"ID":30567,"DIS_CODE":0,"TOWNNAME":"新市區","LI":"永就里","LIN":"8鄰","STREET":" ","SECT":" ","MAREA":"永就","LANE":" ","ALLEY":" ","HOUSE_NO":"８４之９號","E_COORD97":177511.45000000001,"N_COORD97":2551624.7999999998,"ADDRESS":"永就８４之９號","OBJECTID":30567},"geometry":{"x":177511.45000000019,"y":2551624.8000000026}},{"attributes":{"ID":30568,"DIS_CODE":0,"TOWNNAME":"新市區","LI":"永就里","LIN":"8鄰","STREET":" ","SECT":" ","MAREA":"永就","LANE":" ","ALLEY":" ","HOUSE_NO":"８３之３號","E_COORD97":177599.51000000001,"N_COORD97":2551557.7999999998,"ADDRESS":"永就８３之３號","OBJECTID":30568},"geometry":{"x":177599.51000000071,"y":2551557.8000000026}},{"attributes":{"ID":30569,"DIS_CODE":0,"TOWNNAME":"新市區","LI":"大營里","LIN":"8鄰","STREET":" ","SECT":" ","MAREA":"大營","LANE":" ","ALLEY":" ","HOUSE_NO":"１７５之１號","E_COORD97":179479.85000000001,"N_COORD97":2555606.7999999998,"ADDRESS":"大營１７５之１號","OBJECTID":30569},"geometry":{"x":179479.84999999963,"y":2555606.8000000007}},{"attributes":{"ID":30570,"DIS_CODE":0,"TOWNNAME":"新市區","LI":"大洲里","LIN":"8鄰","STREET":" ","SECT":" ","MAREA":"大洲","LANE":" ","ALLEY":" ","HOUSE_NO":"７５之１號","E_COORD97":174087.98999999999,"N_COORD97":2552236.5499999998,"ADDRESS":"大洲７５之１號","OBJECTID":30570},"geometry":{"x":174087.99000000115,"y":2552236.5500000026}},{"attributes":{"ID":30571,"DIS_CODE":0,"TOWNNAME":"佳里區","LI":"海澄里","LIN":"8鄰","STREET":" ","SECT":" ","MAREA":"番子寮","LANE":" ","ALLEY":" ","HOUSE_NO":"４５號之３","E_COORD97":164618.95000000001,"N_COORD97":2563837.6600000001,"ADDRESS":"番子寮４５號之３","OBJECTID":30571},"geometry":{"x":164618.95000000112,"y":2563837.660000002}},{"attributes":{"ID":30572,"DIS_CODE":0,"TOWNNAME":"佳里區","LI":"海澄里","LIN":"8鄰","STREET":" ","SECT":" ","MAREA":"番子寮","LANE":" ","ALLEY":" ","HOUSE_NO":"４５號","E_COORD97":164286.31,"N_COORD97":2563983.98,"ADDRESS":"番子寮４５號","OBJECTID":30572},"geometry":{"x":164286.30999999866,"y":2563983.9800000042}},{"attributes":{"ID":30573,"DIS_CODE":0,"TOWNNAME":"佳里區","LI":"海澄里","LIN":"8鄰","STREET":" ","SECT":" ","MAREA":"番子寮","LANE":" ","ALLEY":" ","HOUSE_NO":"４８號","E_COORD97":164289.39999999999,"N_COORD97":2563970.4700000002,"ADDRESS":"番子寮４８號","OBJECTID":30573},"geometry":{"x":164289.40000000037,"y":2563970.4700000007}},{"attributes":{"ID":30574,"DIS_CODE":0,"TOWNNAME":"佳里區","LI":"海澄里","LIN":"8鄰","STREET":" ","SECT":" ","MAREA":"番子寮","LANE":" ","ALLEY":" ","HOUSE_NO":"４９號之１４","E_COORD97":164233.35999999999,"N_COORD97":2563944.3500000001,"ADDRESS":"番子寮４９號之１４","OBJECTID":30574},"geometry":{"x":164233.36000000127,"y":2563944.3500000015}},{"attributes":{"ID":30575,"DIS_CODE":0,"TOWNNAME":"佳里區","LI":"海澄里","LIN":"8鄰","STREET":" ","SECT":" ","MAREA":"番子寮","LANE":" ","ALLEY":" ","HOUSE_NO":"４９號之１５","E_COORD97":164233.67000000001,"N_COORD97":2563939.5299999998,"ADDRESS":"番子寮４９號之１５","OBJECTID":30575},"geometry":{"x":164233.67000000086,"y":2563939.5300000012}},{"attributes":{"ID":30576,"DIS_CODE":0,"TOWNNAME":"佳里區","LI":"海澄里","LIN":"8鄰","STREET":" ","SECT":" ","MAREA":"番子寮","LANE":" ","ALLEY":" ","HOUSE_NO":"４９號之１６","E_COORD97":164233.64000000001,"N_COORD97":2563934.7799999998,"ADDRESS":"番子寮４９號之１６","OBJECTID":30576},"geometry":{"x":164233.6400000006,"y":2563934.7800000012}},{"attributes":{"ID":30577,"DIS_CODE":0,"TOWNNAME":"佳里區","LI":"海澄里","LIN":"8鄰","STREET":" ","SECT":" ","MAREA":"番子寮","LANE":" ","ALLEY":" ","HOUSE_NO":"４９號之１７","E_COORD97":164233.57999999999,"N_COORD97":2563929.7599999998,"ADDRESS":"番子寮４９號之１７","OBJECTID":30577},"geometry":{"x":164233.58000000007,"y":2563929.7599999998}},{"attributes":{"ID":30578,"DIS_CODE":0,"TOWNNAME":"佳里區","LI":"海澄里","LIN":"8鄰","STREET":" ","SECT":" ","MAREA":"番子寮","LANE":" ","ALLEY":" ","HOUSE_NO":"４９號之１","E_COORD97":164254.07999999999,"N_COORD97":2563931.0699999998,"ADDRESS":"番子寮４９號之１","OBJECTID":30578},"geometry":{"x":164254.08000000007,"y":2563931.0700000003}},{"attributes":{"ID":30579,"DIS_CODE":0,"TOWNNAME":"永康區","LI":"烏竹里","LIN":"17鄰","STREET":"竹南街","SECT":" ","MAREA":" ","LANE":"５６巷","ALLEY":"１５弄","HOUSE_NO":"８號","E_COORD97":174430.20000000001,"N_COORD97":2548867.1899999999,"ADDRESS":"竹南街５６巷１５弄８號","OBJECTID":30579},"geometry":{"x":174430.20000000205,"y":2548867.1900000032}},{"attributes":{"ID":30580,"DIS_CODE":0,"TOWNNAME":"永康區","LI":"烏竹里","LIN":"17鄰","STREET":"竹南街","SECT":" ","MAREA":" ","LANE":"５６巷","ALLEY":"１５弄","HOUSE_NO":"６號","E_COORD97":174434.37,"N_COORD97":2548868.8999999999,"ADDRESS":"竹南街５６巷１５弄６號","OBJECTID":30580},"geometry":{"x":174434.37000000104,"y":2548868.9000000004}},{"attributes":{"ID":30581,"DIS_CODE":0,"TOWNNAME":"永康區","LI":"東橋里","LIN":"17鄰","STREET":"東橋十街","SECT":" ","MAREA":" ","LANE":"８８巷","ALLEY":"２弄","HOUSE_NO":"１８號","E_COORD97":171341.23999999999,"N_COORD97":2546901.6299999999,"ADDRESS":"東橋十街８８巷２弄１８號","OBJECTID":30581},"geometry":{"x":171341.24000000209,"y":2546901.6300000008}},{"attributes":{"ID":30582,"DIS_CODE":0,"TOWNNAME":"永康區","LI":"東橋里","LIN":"17鄰","STREET":"東橋十街","SECT":" ","MAREA":" ","LANE":"８８巷","ALLEY":"６弄","HOUSE_NO":"２７號","E_COORD97":171330.57999999999,"N_COORD97":2546838.3300000001,"ADDRESS":"東橋十街８８巷６弄２７號","OBJECTID":30582},"geometry":{"x":171330.58000000101,"y":2546838.3300000001}},{"attributes":{"ID":30583,"DIS_CODE":0,"TOWNNAME":"永康區","LI":"東橋里","LIN":"17鄰","STREET":"東橋十街","SECT":" ","MAREA":" ","LANE":"８８巷","ALLEY":"６弄","HOUSE_NO":"１８號","E_COORD97":171353.66,"N_COORD97":2546877.6000000001,"ADDRESS":"東橋十街８８巷６弄１８號","OBJECTID":30583},"geometry":{"x":171353.66000000201,"y":2546877.5999999996}},{"attributes":{"ID":30584,"DIS_CODE":0,"TOWNNAME":"永康區","LI":"東橋里","LIN":"17鄰","STREET":"東橋十街","SECT":" ","MAREA":" ","LANE":"８８巷","ALLEY":"２弄","HOUSE_NO":"２１號","E_COORD97":171331.92000000001,"N_COORD97":2546874.54,"ADDRESS":"東橋十街８８巷２弄２１號","OBJECTID":30584},"geometry":{"x":171331.92000000086,"y":2546874.5400000028}},{"attributes":{"ID":30585,"DIS_CODE":0,"TOWNNAME":"永康區","LI":"東橋里","LIN":"17鄰","STREET":"東橋十街","SECT":" ","MAREA":" ","LANE":"８８巷","ALLEY":"６弄","HOUSE_NO":"１９號","E_COORD97":171351.03,"N_COORD97":2546851.1400000001,"ADDRESS":"東橋十街８８巷６弄１９號","OBJECTID":30585},"geometry":{"x":171351.03000000026,"y":2546851.1400000006}},{"attributes":{"ID":30586,"DIS_CODE":0,"TOWNNAME":"東區","LI":"成大里","LIN":"14鄰","STREET":"育樂街","SECT":" ","MAREA":" ","LANE":" ","ALLEY":" ","HOUSE_NO":"１５６號之２二樓","E_COORD97":169494.81,"N_COORD97":2543998.0099999998,"ADDRESS":"育樂街１５６號之２二樓","OBJECTID":30586},"geometry":{"x":169494.81000000052,"y":2543998.0100000016}},{"attributes":{"ID":30587,"DIS_CODE":0,"TOWNNAME":"佳里區","LI":"海澄里","LIN":"8鄰","STREET":" ","SECT":" ","MAREA":"番子寮","LANE":" ","ALLEY":" ","HOUSE_NO":"４９號之２","E_COORD97":164253.79999999999,"N_COORD97":2563935.7599999998,"ADDRESS":"番子寮４９號之２","OBJECTID":30587},"geometry":{"x":164253.79999999981,"y":2563935.7599999998}},{"attributes":{"ID":30588,"DIS_CODE":0,"TOWNNAME":"佳里區","LI":"海澄里","LIN":"8鄰","STREET":" ","SECT":" ","MAREA":"番子寮","LANE":" ","ALLEY":" ","HOUSE_NO":"４９號之３","E_COORD97":164253.64000000001,"N_COORD97":2563940.9100000001,"ADDRESS":"番子寮４９號之３","OBJECTID":30588},"geometry":{"x":164253.63999999873,"y":2563940.910000002}},{"attributes":{"ID":30589,"DIS_CODE":0,"TOWNNAME":"永康區","LI":"東橋里","LIN":"17鄰","STREET":"東橋十街","SECT":" ","MAREA":" ","LANE":"８８巷","ALLEY":"１弄","HOUSE_NO":"１２號","E_COORD97":171410.85999999999,"N_COORD97":2546921.6400000001,"ADDRESS":"東橋十街８８巷１弄１２號","OBJECTID":30589},"geometry":{"x":171410.86000000127,"y":2546921.6400000006}},{"attributes":{"ID":30590,"DIS_CODE":0,"TOWNNAME":"永康區","LI":"烏竹里","LIN":"17鄰","STREET":"竹南街","SECT":" ","MAREA":" ","LANE":"５６巷","ALLEY":"１５弄","HOUSE_NO":"１６號","E_COORD97":174417.81,"N_COORD97":2548861.7799999998,"ADDRESS":"竹南街５６巷１５弄１６號","OBJECTID":30590},"geometry":{"x":174417.80999999959,"y":2548861.7799999993}},{"attributes":{"ID":30591,"DIS_CODE":0,"TOWNNAME":"永康區","LI":"東橋里","LIN":"17鄰","STREET":"東橋十街","SECT":" ","MAREA":" ","LANE":"８８巷","ALLEY":"６弄","HOUSE_NO":"８號","E_COORD97":171372.62,"N_COORD97":2546889.3799999999,"ADDRESS":"東橋十街８８巷６弄８號","OBJECTID":30591},"geometry":{"x":171372.62000000104,"y":2546889.3800000008}},{"attributes":{"ID":30592,"DIS_CODE":0,"TOWNNAME":"永康區","LI":"東橋里","LIN":"17鄰","STREET":"東橋十街","SECT":" ","MAREA":" ","LANE":"８８巷","ALLEY":"６弄","HOUSE_NO":"１１號","E_COORD97":171370.14999999999,"N_COORD97":2546863.1099999999,"ADDRESS":"東橋十街８８巷６弄１１號","OBJECTID":30592},"geometry":{"x":171370.15000000037,"y":2546863.1099999994}},{"attributes":{"ID":30593,"DIS_CODE":0,"TOWNNAME":"永康區","LI":"東橋里","LIN":"17鄰","STREET":"東橋十街","SECT":" ","MAREA":" ","LANE":"８８巷","ALLEY":"２弄","HOUSE_NO":"２７號","E_COORD97":171318.07000000001,"N_COORD97":2546865.9500000002,"ADDRESS":"東橋十街８８巷２弄２７號","OBJECTID":30593},"geometry":{"x":171318.0700000003,"y":2546865.9500000011}},{"attributes":{"ID":30594,"DIS_CODE":0,"TOWNNAME":"永康區","LI":"東橋里","LIN":"17鄰","STREET":"東橋十街","SECT":" ","MAREA":" ","LANE":"８８巷","ALLEY":"６弄","HOUSE_NO":"３２號","E_COORD97":171319.25,"N_COORD97":2546856.2400000002,"ADDRESS":"東橋十街８８巷６弄３２號","OBJECTID":30594},"geometry":{"x":171319.25000000093,"y":2546856.2400000002}},{"attributes":{"ID":30595,"DIS_CODE":0,"TOWNNAME":"永康區","LI":"東橋里","LIN":"17鄰","STREET":"東橋十街","SECT":" ","MAREA":" ","LANE":"８８巷","ALLEY":"６弄","HOUSE_NO":"１號","E_COORD97":171392.67000000001,"N_COORD97":2546879.0899999999,"ADDRESS":"東橋十街８８巷６弄１號","OBJECTID":30595},"geometry":{"x":171392.67000000086,"y":2546879.0900000017}},{"attributes":{"ID":30596,"DIS_CODE":0,"TOWNNAME":"新化區","LI":"全興里","LIN":"14鄰","STREET":" ","SECT":" ","MAREA":"竹子\u25A0","LANE":" ","ALLEY":" ","HOUSE_NO":"２４７號之３５１五樓","E_COORD97":178291.62,"N_COORD97":2546701.2599999998,"ADDRESS":"竹子\u25A0２４７號之３５１五樓之１","OBJECTID":30596},"geometry":{"x":178291.62000000011,"y":2546701.2600000016}},{"attributes":{"ID":30597,"DIS_CODE":0,"TOWNNAME":"新化區","LI":"全興里","LIN":"14鄰","STREET":" ","SECT":" ","MAREA":"竹子\u25A0","LANE":" ","ALLEY":" ","HOUSE_NO":"２４７號之３５１三樓","E_COORD97":178291.63,"N_COORD97":2546701.2599999998,"ADDRESS":"竹子\u25A0２４７號之３５１三樓之４","OBJECTID":30597},"geometry":{"x":178291.62999999989,"y":2546701.2600000016}},{"attributes":{"ID":30598,"DIS_CODE":0,"TOWNNAME":"新化區","LI":"全興里","LIN":"14鄰","STREET":" ","SECT":" ","MAREA":"竹子\u25A0","LANE":" ","ALLEY":" ","HOUSE_NO":"２４７號之３５１七樓","E_COORD97":178291.63,"N_COORD97":2546701.2599999998,"ADDRESS":"竹子\u25A0２４７號之３５１七樓之４","OBJECTID":30598},"geometry":{"x":178291.62999999989,"y":2546701.2600000016}},{"attributes":{"ID":30599,"DIS_CODE":0,"TOWNNAME":"新化區","LI":"全興里","LIN":"14鄰","STREET":" ","SECT":" ","MAREA":"竹子\u25A0","LANE":" ","ALLEY":" ","HOUSE_NO":"２４７號之３５１五樓","E_COORD97":178291.64999999999,"N_COORD97":2546701.2599999998,"ADDRESS":"竹子\u25A0２４７號之３５１五樓之２","OBJECTID":30599},"geometry":{"x":178291.65000000037,"y":2546701.2600000016}},{"attributes":{"ID":30600,"DIS_CODE":0,"TOWNNAME":"新化區","LI":"全興里","LIN":"14鄰","STREET":" ","SECT":" ","MAREA":"竹子\u25A0","LANE":" ","ALLEY":" ","HOUSE_NO":"２４７號之３５１三樓","E_COORD97":178291.64000000001,"N_COORD97":2546701.2599999998,"ADDRESS":"竹子\u25A0２４７號之３５１三樓之６","OBJECTID":30600},"geometry":{"x":178291.64000000153,"y":2546701.2600000016}}]}