{"displayFieldName":"TOWNNAME","fieldAliases":{"ID":"ID","DIS_CODE":"DIS_CODE","TOWNNAME":"TOWNNAME","LI":"LI","LIN":"LIN","STREET":"STREET","SECT":"SECT","MAREA":"MAREA","LANE":"LANE","ALLEY":"ALLEY","HOUSE_NO":"HOUSE_NO","E_COORD97":"E_COORD97","N_COORD97":"N_COORD97","ADDRESS":"ADDRESS","OBJECTID":"OBJECTID"},"geometryType":"esriGeometryPoint","spatialReference":{"wkid":102443,"latestWkid":3826},"fields":[{"name":"ID","type":"esriFieldTypeDouble","alias":"ID"},{"name":"DIS_CODE","type":"esriFieldTypeInteger","alias":"DIS_CODE"},{"name":"TOWNNAME","type":"esriFieldTypeString","alias":"TOWNNAME","length":8},{"name":"LI","type":"esriFieldTypeString","alias":"LI","length":8},{"name":"LIN","type":"esriFieldTypeString","alias":"LIN","length":12},{"name":"STREET","type":"esriFieldTypeString","alias":"STREET","length":20},{"name":"SECT","type":"esriFieldTypeString","alias":"SECT","length":8},{"name":"MAREA","type":"esriFieldTypeString","alias":"MAREA","length":12},{"name":"LANE","type":"esriFieldTypeString","alias":"LANE","length":10},{"name":"ALLEY","type":"esriFieldTypeString","alias":"ALLEY","length":10},{"name":"HOUSE_NO","type":"esriFieldTypeString","alias":"HOUSE_NO","length":20},{"name":"E_COORD97","type":"esriFieldTypeDouble","alias":"E_COORD97"},{"name":"N_COORD97","type":"esriFieldTypeDouble","alias":"N_COORD97"},{"name":"ADDRESS","type":"esriFieldTypeString","alias":"ADDRESS","length":50},{"name":"OBJECTID","type":"esriFieldTypeOID","alias":"OBJECTID"}],"features":[{"attributes":{"ID":550228,"DIS_CODE":0,"TOWNNAME":"下營區","LI":"仁里里","LIN":"10鄰","STREET":"蚵寮街","SECT":" ","MAREA":" ","LANE":" ","ALLEY":" ","HOUSE_NO":"１３３號","E_COORD97":173769.92999999999,"N_COORD97":2570407.4399999999,"ADDRESS":"蚵寮街１３３號","OBJECTID":550201},"geometry":{"x":173769.9299999997,"y":2570407.4399999995}},{"attributes":{"ID":550229,"DIS_CODE":0,"TOWNNAME":"下營區","LI":"仁里里","LIN":"10鄰","STREET":"蚵寮街","SECT":" ","MAREA":" ","LANE":" ","ALLEY":" ","HOUSE_NO":"１３７號","E_COORD97":173769.20999999999,"N_COORD97":2570412.71,"ADDRESS":"蚵寮街１３７號","OBJECTID":550202},"geometry":{"x":173769.21000000089,"y":2570412.7100000028}},{"attributes":{"ID":550230,"DIS_CODE":0,"TOWNNAME":"下營區","LI":"仁里里","LIN":"10鄰","STREET":"蚵寮街","SECT":" ","MAREA":" ","LANE":" ","ALLEY":" ","HOUSE_NO":"１４１號","E_COORD97":173767.95000000001,"N_COORD97":2570424.4500000002,"ADDRESS":"蚵寮街１４１號","OBJECTID":550203},"geometry":{"x":173767.95000000112,"y":2570424.4499999974}},{"attributes":{"ID":550231,"DIS_CODE":0,"TOWNNAME":"北區","LI":"振興里","LIN":"10鄰","STREET":"長榮路","SECT":"四段","MAREA":" ","LANE":" ","ALLEY":" ","HOUSE_NO":"１２１號","E_COORD97":170250.04999999999,"N_COORD97":2545115.7000000002,"ADDRESS":"長榮路四段１２１號","OBJECTID":550204},"geometry":{"x":170250.04999999981,"y":2545115.6999999993}},{"attributes":{"ID":550232,"DIS_CODE":0,"TOWNNAME":"北區","LI":"振興里","LIN":"10鄰","STREET":"長榮路","SECT":"四段","MAREA":" ","LANE":" ","ALLEY":" ","HOUSE_NO":"１２３號","E_COORD97":170248.29999999999,"N_COORD97":2545119.6200000001,"ADDRESS":"長榮路四段１２３號","OBJECTID":550205},"geometry":{"x":170248.29999999981,"y":2545119.6200000048}},{"attributes":{"ID":550233,"DIS_CODE":0,"TOWNNAME":"新營區","LI":"民權里","LIN":"10鄰","STREET":"中華路","SECT":" ","MAREA":" ","LANE":" ","ALLEY":" ","HOUSE_NO":"１１號之５","E_COORD97":179909.45999999999,"N_COORD97":2578226.5699999998,"ADDRESS":"中華路１１號之５","OBJECTID":550206},"geometry":{"x":179909.46000000089,"y":2578226.5700000022}},{"attributes":{"ID":550234,"DIS_CODE":0,"TOWNNAME":"新營區","LI":"新北里","LIN":"10鄰","STREET":"長榮路","SECT":"二段","MAREA":" ","LANE":" ","ALLEY":" ","HOUSE_NO":"２６５號","E_COORD97":179260.32000000001,"N_COORD97":2579795.54,"ADDRESS":"長榮路二段２６５號","OBJECTID":550207},"geometry":{"x":179260.3200000003,"y":2579795.540000001}},{"attributes":{"ID":550235,"DIS_CODE":0,"TOWNNAME":"永康區","LI":"二王里","LIN":"10鄰","STREET":"永二街","SECT":" ","MAREA":" ","LANE":" ","ALLEY":" ","HOUSE_NO":"２９７號","E_COORD97":173155.64999999999,"N_COORD97":2546401.4900000002,"ADDRESS":"永二街２９７號","OBJECTID":550208},"geometry":{"x":173155.65000000037,"y":2546401.4900000021}},{"attributes":{"ID":550236,"DIS_CODE":0,"TOWNNAME":"永康區","LI":"大橋里","LIN":"10鄰","STREET":"大橋三街","SECT":" ","MAREA":" ","LANE":" ","ALLEY":" ","HOUSE_NO":"２０６號","E_COORD97":170869.26000000001,"N_COORD97":2546770.7400000002,"ADDRESS":"大橋三街２０６號","OBJECTID":550209},"geometry":{"x":170869.25999999885,"y":2546770.7400000021}},{"attributes":{"ID":550237,"DIS_CODE":0,"TOWNNAME":"永康區","LI":"大灣里","LIN":"10鄰","STREET":"大灣路","SECT":" ","MAREA":" ","LANE":" ","ALLEY":" ","HOUSE_NO":"１８２號","E_COORD97":175041.94,"N_COORD97":2545463.0899999999,"ADDRESS":"大灣路１８２號","OBJECTID":550210},"geometry":{"x":175041.94000000041,"y":2545463.0899999999}},{"attributes":{"ID":550238,"DIS_CODE":0,"TOWNNAME":"永康區","LI":"網寮里","LIN":"10鄰","STREET":"永勝街","SECT":" ","MAREA":" ","LANE":" ","ALLEY":" ","HOUSE_NO":"１９０號","E_COORD97":173355.76000000001,"N_COORD97":2546444.29,"ADDRESS":"永勝街１９０號","OBJECTID":550211},"geometry":{"x":173355.75999999978,"y":2546444.2899999991}},{"attributes":{"ID":550239,"DIS_CODE":0,"TOWNNAME":"永康區","LI":"西橋里","LIN":"10鄰","STREET":"中華西街","SECT":" ","MAREA":" ","LANE":" ","ALLEY":" ","HOUSE_NO":"１２１號","E_COORD97":170672.76999999999,"N_COORD97":2546176.0899999999,"ADDRESS":"中華西街１２１號","OBJECTID":550212},"geometry":{"x":170672.77000000048,"y":2546176.0899999999}},{"attributes":{"ID":550240,"DIS_CODE":0,"TOWNNAME":"永康區","LI":"大灣里","LIN":"10鄰","STREET":"大灣六街","SECT":" ","MAREA":" ","LANE":" ","ALLEY":" ","HOUSE_NO":"１５８號","E_COORD97":174905.60999999999,"N_COORD97":2545437.1299999999,"ADDRESS":"大灣六街１５８號","OBJECTID":550213},"geometry":{"x":174905.6100000022,"y":2545437.1300000008}},{"attributes":{"ID":550241,"DIS_CODE":0,"TOWNNAME":"安平區","LI":"文平里","LIN":"10鄰","STREET":"建平七街","SECT":" ","MAREA":" ","LANE":" ","ALLEY":" ","HOUSE_NO":"２４８號","E_COORD97":165934.28,"N_COORD97":2543288.8500000001,"ADDRESS":"建平七街２４８號","OBJECTID":550214},"geometry":{"x":165934.28000000026,"y":2543288.8499999996}},{"attributes":{"ID":550242,"DIS_CODE":0,"TOWNNAME":"安平區","LI":"文平里","LIN":"10鄰","STREET":"建平七街","SECT":" ","MAREA":" ","LANE":" ","ALLEY":" ","HOUSE_NO":"２５０號","E_COORD97":165929.5,"N_COORD97":2543289.3100000001,"ADDRESS":"建平七街２５０號","OBJECTID":550215},"geometry":{"x":165929.5,"y":2543289.3100000005}},{"attributes":{"ID":550243,"DIS_CODE":0,"TOWNNAME":"安平區","LI":"文平里","LIN":"10鄰","STREET":"建平七街","SECT":" ","MAREA":" ","LANE":" ","ALLEY":" ","HOUSE_NO":"２５２號","E_COORD97":165924.70999999999,"N_COORD97":2543290.3599999999,"ADDRESS":"建平七街２５２號","OBJECTID":550216},"geometry":{"x":165924.70999999996,"y":2543290.3600000013}},{"attributes":{"ID":550244,"DIS_CODE":0,"TOWNNAME":"安平區","LI":"文平里","LIN":"10鄰","STREET":"建平七街","SECT":" ","MAREA":" ","LANE":" ","ALLEY":" ","HOUSE_NO":"２５４號","E_COORD97":165920.85999999999,"N_COORD97":2543291.6400000001,"ADDRESS":"建平七街２５４號","OBJECTID":550217},"geometry":{"x":165920.86000000034,"y":2543291.6400000043}},{"attributes":{"ID":550245,"DIS_CODE":0,"TOWNNAME":"安平區","LI":"文平里","LIN":"10鄰","STREET":"建平七街","SECT":" ","MAREA":" ","LANE":" ","ALLEY":" ","HOUSE_NO":"２５６號","E_COORD97":165915.60999999999,"N_COORD97":2543291.9900000002,"ADDRESS":"建平七街２５６號","OBJECTID":550218},"geometry":{"x":165915.61000000034,"y":2543291.9899999984}},{"attributes":{"ID":550246,"DIS_CODE":0,"TOWNNAME":"安平區","LI":"文平里","LIN":"10鄰","STREET":"建平七街","SECT":" ","MAREA":" ","LANE":" ","ALLEY":" ","HOUSE_NO":"２５８號","E_COORD97":165911.17000000001,"N_COORD97":2543292.6899999999,"ADDRESS":"建平七街２５８號","OBJECTID":550219},"geometry":{"x":165911.16999999993,"y":2543292.6899999995}},{"attributes":{"ID":550247,"DIS_CODE":0,"TOWNNAME":"安平區","LI":"文平里","LIN":"10鄰","STREET":"建平七街","SECT":" ","MAREA":" ","LANE":" ","ALLEY":" ","HOUSE_NO":"２６０號","E_COORD97":165906.97,"N_COORD97":2543293.1600000001,"ADDRESS":"建平七街２６０號","OBJECTID":550220},"geometry":{"x":165906.96999999974,"y":2543293.1600000001}},{"attributes":{"ID":550248,"DIS_CODE":0,"TOWNNAME":"安平區","LI":"文平里","LIN":"10鄰","STREET":"建平七街","SECT":" ","MAREA":" ","LANE":" ","ALLEY":" ","HOUSE_NO":"２６２號","E_COORD97":165902.42999999999,"N_COORD97":2543293.5099999998,"ADDRESS":"建平七街２６２號","OBJECTID":550221},"geometry":{"x":165902.4299999997,"y":2543293.5099999998}},{"attributes":{"ID":550249,"DIS_CODE":0,"TOWNNAME":"安平區","LI":"文平里","LIN":"10鄰","STREET":"建平七街","SECT":" ","MAREA":" ","LANE":" ","ALLEY":" ","HOUSE_NO":"２６４號","E_COORD97":165897.06,"N_COORD97":2543293.98,"ADDRESS":"建平七街２６４號","OBJECTID":550222},"geometry":{"x":165897.06000000052,"y":2543293.9800000023}},{"attributes":{"ID":550250,"DIS_CODE":0,"TOWNNAME":"安平區","LI":"文平里","LIN":"10鄰","STREET":"建平七街","SECT":" ","MAREA":" ","LANE":" ","ALLEY":" ","HOUSE_NO":"２６６號","E_COORD97":165893.09,"N_COORD97":2543294.6800000002,"ADDRESS":"建平七街２６６號","OBJECTID":550223},"geometry":{"x":165893.08999999985,"y":2543294.6800000016}},{"attributes":{"ID":550251,"DIS_CODE":0,"TOWNNAME":"安平區","LI":"文平里","LIN":"10鄰","STREET":"建平七街","SECT":" ","MAREA":" ","LANE":" ","ALLEY":" ","HOUSE_NO":"２６８號","E_COORD97":165888.89000000001,"N_COORD97":2543295.2599999998,"ADDRESS":"建平七街２６８號","OBJECTID":550224},"geometry":{"x":165888.88999999966,"y":2543295.2599999998}},{"attributes":{"ID":550252,"DIS_CODE":0,"TOWNNAME":"六甲區","LI":"龍湖里","LIN":"10鄰","STREET":"中華路","SECT":" ","MAREA":" ","LANE":" ","ALLEY":" ","HOUSE_NO":"２３６號","E_COORD97":182454.54999999999,"N_COORD97":2569114.4199999999,"ADDRESS":"中華路２３６號","OBJECTID":550225},"geometry":{"x":182454.55000000075,"y":2569114.4200000018}},{"attributes":{"ID":550253,"DIS_CODE":0,"TOWNNAME":"安平區","LI":"文平里","LIN":"10鄰","STREET":"建平七街","SECT":" ","MAREA":" ","LANE":" ","ALLEY":" ","HOUSE_NO":"２７０號","E_COORD97":165883.76000000001,"N_COORD97":2543295.96,"ADDRESS":"建平七街２７０號","OBJECTID":550226},"geometry":{"x":165883.76000000164,"y":2543295.9600000009}},{"attributes":{"ID":550254,"DIS_CODE":0,"TOWNNAME":"安平區","LI":"文平里","LIN":"10鄰","STREET":"建平七街","SECT":" ","MAREA":" ","LANE":" ","ALLEY":" ","HOUSE_NO":"２７２號","E_COORD97":165879.44,"N_COORD97":2543297.1299999999,"ADDRESS":"建平七街２７２號","OBJECTID":550227},"geometry":{"x":165879.44000000041,"y":2543297.1300000008}},{"attributes":{"ID":550255,"DIS_CODE":0,"TOWNNAME":"安平區","LI":"文平里","LIN":"10鄰","STREET":"建平七街","SECT":" ","MAREA":" ","LANE":" ","ALLEY":" ","HOUSE_NO":"２７６號","E_COORD97":165870.34,"N_COORD97":2543297.8199999998,"ADDRESS":"建平七街２７６號","OBJECTID":550228},"geometry":{"x":165870.34000000078,"y":2543297.8200000022}},{"attributes":{"ID":550256,"DIS_CODE":0,"TOWNNAME":"安平區","LI":"文平里","LIN":"10鄰","STREET":"建平七街","SECT":" ","MAREA":" ","LANE":" ","ALLEY":" ","HOUSE_NO":"２７８號","E_COORD97":165866.37,"N_COORD97":2543298.9900000002,"ADDRESS":"建平七街２７８號","OBJECTID":550229},"geometry":{"x":165866.36999999918,"y":2543298.9900000039}},{"attributes":{"ID":550257,"DIS_CODE":0,"TOWNNAME":"安平區","LI":"文平里","LIN":"10鄰","STREET":"建平七街","SECT":" ","MAREA":" ","LANE":" ","ALLEY":" ","HOUSE_NO":"２８０號","E_COORD97":165862.39999999999,"N_COORD97":2543299.46,"ADDRESS":"建平七街２８０號","OBJECTID":550230},"geometry":{"x":165862.40000000037,"y":2543299.4600000009}},{"attributes":{"ID":550258,"DIS_CODE":0,"TOWNNAME":"安平區","LI":"文平里","LIN":"10鄰","STREET":"建平七街","SECT":" ","MAREA":" ","LANE":" ","ALLEY":" ","HOUSE_NO":"２８２號","E_COORD97":165857.73999999999,"N_COORD97":2543299.8100000001,"ADDRESS":"建平七街２８２號","OBJECTID":550231},"geometry":{"x":165857.74000000115,"y":2543299.8100000005}},{"attributes":{"ID":550259,"DIS_CODE":0,"TOWNNAME":"安平區","LI":"文平里","LIN":"10鄰","STREET":"建平七街","SECT":" ","MAREA":" ","LANE":" ","ALLEY":" ","HOUSE_NO":"２８４號","E_COORD97":165853.17999999999,"N_COORD97":2543300.6200000001,"ADDRESS":"建平七街２８４號","OBJECTID":550232},"geometry":{"x":165853.1799999997,"y":2543300.6200000029}},{"attributes":{"ID":550260,"DIS_CODE":0,"TOWNNAME":"安平區","LI":"文平里","LIN":"10鄰","STREET":"建平七街","SECT":" ","MAREA":" ","LANE":" ","ALLEY":" ","HOUSE_NO":"２８８號","E_COORD97":165845.13,"N_COORD97":2543302.2599999998,"ADDRESS":"建平七街２８８號","OBJECTID":550233},"geometry":{"x":165845.12999999989,"y":2543302.2599999998}},{"attributes":{"ID":550261,"DIS_CODE":0,"TOWNNAME":"安平區","LI":"文平里","LIN":"10鄰","STREET":"建平七街","SECT":" ","MAREA":" ","LANE":" ","ALLEY":" ","HOUSE_NO":"２９８號","E_COORD97":165823.78,"N_COORD97":2543305.52,"ADDRESS":"建平七街２９８號","OBJECTID":550234},"geometry":{"x":165823.78000000119,"y":2543305.5200000014}},{"attributes":{"ID":550262,"DIS_CODE":0,"TOWNNAME":"安平區","LI":"文平里","LIN":"10鄰","STREET":"建平七街","SECT":" ","MAREA":" ","LANE":" ","ALLEY":" ","HOUSE_NO":"３００號","E_COORD97":165818.88,"N_COORD97":2543306.1000000001,"ADDRESS":"建平七街３００號","OBJECTID":550235},"geometry":{"x":165818.88000000082,"y":2543306.1000000015}},{"attributes":{"ID":550263,"DIS_CODE":0,"TOWNNAME":"安平區","LI":"國平里","LIN":"10鄰","STREET":"華平路","SECT":" ","MAREA":" ","LANE":" ","ALLEY":" ","HOUSE_NO":"７４號","E_COORD97":165347.29000000001,"N_COORD97":2542868.7599999998,"ADDRESS":"華平路７４號","OBJECTID":550236},"geometry":{"x":165347.29000000097,"y":2542868.7599999998}},{"attributes":{"ID":550264,"DIS_CODE":0,"TOWNNAME":"安平區","LI":"國平里","LIN":"10鄰","STREET":"華平路","SECT":" ","MAREA":" ","LANE":" ","ALLEY":" ","HOUSE_NO":"７６號","E_COORD97":165348,"N_COORD97":2542878.3599999999,"ADDRESS":"華平路７６號","OBJECTID":550237},"geometry":{"x":165348,"y":2542878.3599999975}},{"attributes":{"ID":550265,"DIS_CODE":0,"TOWNNAME":"安平區","LI":"文平里","LIN":"10鄰","STREET":"永華路","SECT":"二段","MAREA":" ","LANE":" ","ALLEY":" ","HOUSE_NO":"４０７號","E_COORD97":165824.39000000001,"N_COORD97":2543393.9399999999,"ADDRESS":"永華路二段４０７號","OBJECTID":550238},"geometry":{"x":165824.38999999966,"y":2543393.9400000013}},{"attributes":{"ID":550266,"DIS_CODE":0,"TOWNNAME":"安平區","LI":"文平里","LIN":"10鄰","STREET":"建平七街","SECT":" ","MAREA":" ","LANE":" ","ALLEY":" ","HOUSE_NO":"２７２之１號","E_COORD97":165874.76999999999,"N_COORD97":2543297.71,"ADDRESS":"建平七街２７２之１號","OBJECTID":550239},"geometry":{"x":165874.76999999955,"y":2543297.7100000009}},{"attributes":{"ID":550267,"DIS_CODE":0,"TOWNNAME":"善化區","LI":"文昌里","LIN":"15鄰","STREET":"文賢街","SECT":" ","MAREA":" ","LANE":" ","ALLEY":" ","HOUSE_NO":"８號","E_COORD97":177650.85999999999,"N_COORD97":2558890.5299999998,"ADDRESS":"文賢街８號","OBJECTID":550240},"geometry":{"x":177650.86000000127,"y":2558890.5300000012}},{"attributes":{"ID":550268,"DIS_CODE":0,"TOWNNAME":"新營區","LI":"興業里","LIN":"10鄰","STREET":"公誠街","SECT":" ","MAREA":" ","LANE":" ","ALLEY":" ","HOUSE_NO":"２之１３號","E_COORD97":180272.03,"N_COORD97":2578049.8799999999,"ADDRESS":"公誠街２之１３號","OBJECTID":550241},"geometry":{"x":180272.03000000119,"y":2578049.8800000027}},{"attributes":{"ID":550269,"DIS_CODE":0,"TOWNNAME":"新營區","LI":"新東里","LIN":"10鄰","STREET":"東昌街","SECT":" ","MAREA":" ","LANE":" ","ALLEY":" ","HOUSE_NO":"１號","E_COORD97":181287.04999999999,"N_COORD97":2579602.1499999999,"ADDRESS":"東昌街１號","OBJECTID":550242},"geometry":{"x":181287.04999999981,"y":2579602.1500000041}},{"attributes":{"ID":550270,"DIS_CODE":0,"TOWNNAME":"新營區","LI":"新東里","LIN":"10鄰","STREET":"東勇街","SECT":" ","MAREA":" ","LANE":" ","ALLEY":" ","HOUSE_NO":"９０號","E_COORD97":181467.54000000001,"N_COORD97":2579664.4500000002,"ADDRESS":"東勇街９０號","OBJECTID":550243},"geometry":{"x":181467.54000000004,"y":2579664.4500000011}},{"attributes":{"ID":550271,"DIS_CODE":0,"TOWNNAME":"六甲區","LI":"六甲里","LIN":"10鄰","STREET":"中正路","SECT":" ","MAREA":" ","LANE":" ","ALLEY":" ","HOUSE_NO":"３９４之６號","E_COORD97":183624.78,"N_COORD97":2569586.9300000002,"ADDRESS":"中正路３９４之６號","OBJECTID":550244},"geometry":{"x":183624.78000000119,"y":2569586.9299999997}},{"attributes":{"ID":550272,"DIS_CODE":0,"TOWNNAME":"六甲區","LI":"龍湖里","LIN":"10鄰","STREET":"中華路","SECT":" ","MAREA":" ","LANE":" ","ALLEY":" ","HOUSE_NO":"２１０號","E_COORD97":182871.60999999999,"N_COORD97":2569188.3500000001,"ADDRESS":"中華路２１０號","OBJECTID":550245},"geometry":{"x":182871.61000000127,"y":2569188.3500000034}},{"attributes":{"ID":550273,"DIS_CODE":0,"TOWNNAME":"六甲區","LI":"龍湖里","LIN":"10鄰","STREET":"中華路","SECT":" ","MAREA":" ","LANE":" ","ALLEY":" ","HOUSE_NO":"２１２號","E_COORD97":182856.29000000001,"N_COORD97":2569193.8700000001,"ADDRESS":"中華路２１２號","OBJECTID":550246},"geometry":{"x":182856.29000000097,"y":2569193.8700000029}},{"attributes":{"ID":550274,"DIS_CODE":0,"TOWNNAME":"六甲區","LI":"龍湖里","LIN":"10鄰","STREET":"中華路","SECT":" ","MAREA":" ","LANE":" ","ALLEY":" ","HOUSE_NO":"２１４號之１４","E_COORD97":182754.82999999999,"N_COORD97":2569175.0600000001,"ADDRESS":"中華路２１４號之１４","OBJECTID":550247},"geometry":{"x":182754.83000000101,"y":2569175.0600000024}},{"attributes":{"ID":550275,"DIS_CODE":0,"TOWNNAME":"六甲區","LI":"龍湖里","LIN":"10鄰","STREET":"中華路","SECT":" ","MAREA":" ","LANE":" ","ALLEY":" ","HOUSE_NO":"２１４號之１８","E_COORD97":182737.67999999999,"N_COORD97":2569167.5699999998,"ADDRESS":"中華路２１４號之１８","OBJECTID":550248},"geometry":{"x":182737.6799999997,"y":2569167.5700000022}},{"attributes":{"ID":550276,"DIS_CODE":0,"TOWNNAME":"六甲區","LI":"龍湖里","LIN":"10鄰","STREET":"中華路","SECT":" ","MAREA":" ","LANE":" ","ALLEY":" ","HOUSE_NO":"２１４號之１９","E_COORD97":182733.67000000001,"N_COORD97":2569168.6699999999,"ADDRESS":"中華路２１４號之１９","OBJECTID":550249},"geometry":{"x":182733.67000000086,"y":2569168.6699999999}},{"attributes":{"ID":550277,"DIS_CODE":0,"TOWNNAME":"六甲區","LI":"龍湖里","LIN":"10鄰","STREET":"中華路","SECT":" ","MAREA":" ","LANE":" ","ALLEY":" ","HOUSE_NO":"２１４號之１","E_COORD97":182822.32000000001,"N_COORD97":2569206.27,"ADDRESS":"中華路２１４號之１","OBJECTID":550250},"geometry":{"x":182822.32000000216,"y":2569206.2700000014}},{"attributes":{"ID":550278,"DIS_CODE":0,"TOWNNAME":"六甲區","LI":"龍湖里","LIN":"10鄰","STREET":"中華路","SECT":" ","MAREA":" ","LANE":" ","ALLEY":" ","HOUSE_NO":"２１４號之２８","E_COORD97":182690.41,"N_COORD97":2569185.7000000002,"ADDRESS":"中華路２１４號之２８","OBJECTID":550251},"geometry":{"x":182690.41000000015,"y":2569185.700000003}},{"attributes":{"ID":550279,"DIS_CODE":0,"TOWNNAME":"六甲區","LI":"龍湖里","LIN":"10鄰","STREET":"中華路","SECT":" ","MAREA":" ","LANE":" ","ALLEY":" ","HOUSE_NO":"２１４號","E_COORD97":182821.48000000001,"N_COORD97":2569185.8799999999,"ADDRESS":"中華路２１４號","OBJECTID":550252},"geometry":{"x":182821.48000000231,"y":2569185.879999999}},{"attributes":{"ID":550280,"DIS_CODE":0,"TOWNNAME":"六甲區","LI":"龍湖里","LIN":"10鄰","STREET":"中華路","SECT":" ","MAREA":" ","LANE":" ","ALLEY":" ","HOUSE_NO":"２１６之１０號","E_COORD97":182617.23999999999,"N_COORD97":2569146.6299999999,"ADDRESS":"中華路２１６之１０號","OBJECTID":550253},"geometry":{"x":182617.24000000022,"y":2569146.6300000008}},{"attributes":{"ID":550281,"DIS_CODE":0,"TOWNNAME":"六甲區","LI":"龍湖里","LIN":"10鄰","STREET":"中華路","SECT":" ","MAREA":" ","LANE":" ","ALLEY":" ","HOUSE_NO":"２１６之１２號","E_COORD97":182602.34,"N_COORD97":2569142.0499999998,"ADDRESS":"中華路２１６之１２號","OBJECTID":550254},"geometry":{"x":182602.33999999985,"y":2569142.0500000026}},{"attributes":{"ID":550282,"DIS_CODE":0,"TOWNNAME":"六甲區","LI":"龍湖里","LIN":"10鄰","STREET":"中華路","SECT":" ","MAREA":" ","LANE":" ","ALLEY":" ","HOUSE_NO":"２１６號","E_COORD97":182609.73000000001,"N_COORD97":2569142.0099999998,"ADDRESS":"中華路２１６號","OBJECTID":550255},"geometry":{"x":182609.73000000138,"y":2569142.0099999998}},{"attributes":{"ID":550283,"DIS_CODE":0,"TOWNNAME":"六甲區","LI":"龍湖里","LIN":"10鄰","STREET":"中華路","SECT":" ","MAREA":" ","LANE":" ","ALLEY":" ","HOUSE_NO":"２２０號","E_COORD97":182494.32000000001,"N_COORD97":2569120.04,"ADDRESS":"中華路２２０號","OBJECTID":550256},"geometry":{"x":182494.3200000003,"y":2569120.040000001}},{"attributes":{"ID":550284,"DIS_CODE":0,"TOWNNAME":"六甲區","LI":"龍湖里","LIN":"10鄰","STREET":"中華路","SECT":" ","MAREA":" ","LANE":" ","ALLEY":" ","HOUSE_NO":"２２２號","E_COORD97":182490.59,"N_COORD97":2569120.27,"ADDRESS":"中華路２２２號","OBJECTID":550257},"geometry":{"x":182490.58999999985,"y":2569120.2699999996}},{"attributes":{"ID":550285,"DIS_CODE":0,"TOWNNAME":"六甲區","LI":"龍湖里","LIN":"10鄰","STREET":"中華路","SECT":" ","MAREA":" ","LANE":" ","ALLEY":" ","HOUSE_NO":"２２４號","E_COORD97":182486.38,"N_COORD97":2569120.3900000001,"ADDRESS":"中華路２２４號","OBJECTID":550258},"geometry":{"x":182486.38000000082,"y":2569120.3900000006}},{"attributes":{"ID":550286,"DIS_CODE":0,"TOWNNAME":"六甲區","LI":"龍湖里","LIN":"10鄰","STREET":"中華路","SECT":" ","MAREA":" ","LANE":" ","ALLEY":" ","HOUSE_NO":"２３２號","E_COORD97":182463,"N_COORD97":2569115.9199999999,"ADDRESS":"中華路２３２號","OBJECTID":550259},"geometry":{"x":182463.00000000186,"y":2569115.9199999999}},{"attributes":{"ID":550287,"DIS_CODE":0,"TOWNNAME":"六甲區","LI":"龍湖里","LIN":"10鄰","STREET":"中華路","SECT":" ","MAREA":" ","LANE":" ","ALLEY":" ","HOUSE_NO":"２３４號","E_COORD97":182458.42000000001,"N_COORD97":2569115.1000000001,"ADDRESS":"中華路２３４號","OBJECTID":550260},"geometry":{"x":182458.42000000179,"y":2569115.0999999978}},{"attributes":{"ID":550288,"DIS_CODE":0,"TOWNNAME":"六甲區","LI":"龍湖里","LIN":"10鄰","STREET":"中華路","SECT":" ","MAREA":" ","LANE":" ","ALLEY":" ","HOUSE_NO":"２３８號","E_COORD97":182377.82999999999,"N_COORD97":2569098.5800000001,"ADDRESS":"中華路２３８號","OBJECTID":550261},"geometry":{"x":182377.83000000194,"y":2569098.5800000001}},{"attributes":{"ID":550289,"DIS_CODE":0,"TOWNNAME":"六甲區","LI":"龍湖里","LIN":"10鄰","STREET":"中華路","SECT":" ","MAREA":" ","LANE":" ","ALLEY":" ","HOUSE_NO":"２４０號","E_COORD97":182373.60999999999,"N_COORD97":2569098.0899999999,"ADDRESS":"中華路２４０號","OBJECTID":550262},"geometry":{"x":182373.61000000127,"y":2569098.0899999999}},{"attributes":{"ID":550290,"DIS_CODE":0,"TOWNNAME":"六甲區","LI":"龍湖里","LIN":"10鄰","STREET":"中華路","SECT":" ","MAREA":" ","LANE":" ","ALLEY":" ","HOUSE_NO":"２４２之１號","E_COORD97":182365.84,"N_COORD97":2569097.21,"ADDRESS":"中華路２４２之１號","OBJECTID":550263},"geometry":{"x":182365.84000000078,"y":2569097.2100000028}},{"attributes":{"ID":550291,"DIS_CODE":0,"TOWNNAME":"六甲區","LI":"龍湖里","LIN":"10鄰","STREET":"中華路","SECT":" ","MAREA":" ","LANE":" ","ALLEY":" ","HOUSE_NO":"２４２號","E_COORD97":182369.75,"N_COORD97":2569097.3500000001,"ADDRESS":"中華路２４２號","OBJECTID":550264},"geometry":{"x":182369.74999999907,"y":2569097.3500000015}},{"attributes":{"ID":550292,"DIS_CODE":0,"TOWNNAME":"六甲區","LI":"龍湖里","LIN":"10鄰","STREET":"中華路","SECT":" ","MAREA":" ","LANE":" ","ALLEY":" ","HOUSE_NO":"２４６號","E_COORD97":182361.17000000001,"N_COORD97":2569096.7400000002,"ADDRESS":"中華路２４６號","OBJECTID":550265},"geometry":{"x":182361.16999999993,"y":2569096.7400000002}},{"attributes":{"ID":550293,"DIS_CODE":0,"TOWNNAME":"六甲區","LI":"龍湖里","LIN":"10鄰","STREET":"中華路","SECT":" ","MAREA":" ","LANE":" ","ALLEY":" ","HOUSE_NO":"２４８之２號","E_COORD97":182275.60999999999,"N_COORD97":2569109.3199999998,"ADDRESS":"中華路２４８之２號","OBJECTID":550266},"geometry":{"x":182275.61000000034,"y":2569109.3200000022}},{"attributes":{"ID":550294,"DIS_CODE":0,"TOWNNAME":"六甲區","LI":"龍湖里","LIN":"10鄰","STREET":"中華路","SECT":" ","MAREA":" ","LANE":" ","ALLEY":" ","HOUSE_NO":"２４８號","E_COORD97":182287.94,"N_COORD97":2569087.0899999999,"ADDRESS":"中華路２４８號","OBJECTID":550267},"geometry":{"x":182287.94000000134,"y":2569087.0899999999}},{"attributes":{"ID":550295,"DIS_CODE":0,"TOWNNAME":"六甲區","LI":"龍湖里","LIN":"10鄰","STREET":"中華路","SECT":" ","MAREA":" ","LANE":" ","ALLEY":" ","HOUSE_NO":"２５０號","E_COORD97":182331.81,"N_COORD97":2569094.79,"ADDRESS":"中華路２５０號","OBJECTID":550268},"geometry":{"x":182331.81000000145,"y":2569094.790000001}},{"attributes":{"ID":550296,"DIS_CODE":0,"TOWNNAME":"六甲區","LI":"龍湖里","LIN":"10鄰","STREET":"中華路","SECT":" ","MAREA":" ","LANE":" ","ALLEY":" ","HOUSE_NO":"２５２號之１","E_COORD97":182034.12,"N_COORD97":2569077.6699999999,"ADDRESS":"中華路２５２號之１","OBJECTID":550269},"geometry":{"x":182034.12000000104,"y":2569077.6699999981}},{"attributes":{"ID":550297,"DIS_CODE":0,"TOWNNAME":"六甲區","LI":"龍湖里","LIN":"10鄰","STREET":"中華路","SECT":" ","MAREA":" ","LANE":" ","ALLEY":" ","HOUSE_NO":"２５２號","E_COORD97":182035.51999999999,"N_COORD97":2569054.3900000001,"ADDRESS":"中華路２５２號","OBJECTID":550270},"geometry":{"x":182035.52000000048,"y":2569054.3900000025}},{"attributes":{"ID":550298,"DIS_CODE":0,"TOWNNAME":"六甲區","LI":"龍湖里","LIN":"10鄰","STREET":"中華路","SECT":" ","MAREA":" ","LANE":" ","ALLEY":" ","HOUSE_NO":"２５４號","E_COORD97":181941.98999999999,"N_COORD97":2569051.7799999998,"ADDRESS":"中華路２５４號","OBJECTID":550271},"geometry":{"x":181941.99000000115,"y":2569051.7799999993}},{"attributes":{"ID":550299,"DIS_CODE":0,"TOWNNAME":"六甲區","LI":"龍湖里","LIN":"10鄰","STREET":"中華路","SECT":" ","MAREA":" ","LANE":" ","ALLEY":" ","HOUSE_NO":"２５６號","E_COORD97":181929.03,"N_COORD97":2569081.2599999998,"ADDRESS":"中華路２５６號","OBJECTID":550272},"geometry":{"x":181929.02999999933,"y":2569081.2600000016}},{"attributes":{"ID":550300,"DIS_CODE":0,"TOWNNAME":"六甲區","LI":"甲南里","LIN":"10鄰","STREET":"文化街","SECT":" ","MAREA":" ","LANE":" ","ALLEY":" ","HOUSE_NO":"１５號","E_COORD97":183835.75,"N_COORD97":2569688.75,"ADDRESS":"文化街１５號","OBJECTID":550273},"geometry":{"x":183835.75,"y":2569688.7500000019}},{"attributes":{"ID":550301,"DIS_CODE":0,"TOWNNAME":"六甲區","LI":"甲南里","LIN":"10鄰","STREET":"文化街","SECT":" ","MAREA":" ","LANE":" ","ALLEY":" ","HOUSE_NO":"２號之３","E_COORD97":183902.42999999999,"N_COORD97":2569691.48,"ADDRESS":"文化街２號之３","OBJECTID":550274},"geometry":{"x":183902.43000000156,"y":2569691.4800000023}},{"attributes":{"ID":550302,"DIS_CODE":0,"TOWNNAME":"六甲區","LI":"甲南里","LIN":"10鄰","STREET":"文化街","SECT":" ","MAREA":" ","LANE":" ","ALLEY":" ","HOUSE_NO":"２號","E_COORD97":183915.51999999999,"N_COORD97":2569693.96,"ADDRESS":"文化街２號","OBJECTID":550275},"geometry":{"x":183915.52000000048,"y":2569693.9600000046}},{"attributes":{"ID":550303,"DIS_CODE":0,"TOWNNAME":"六甲區","LI":"甲南里","LIN":"10鄰","STREET":"文化街","SECT":" ","MAREA":" ","LANE":" ","ALLEY":" ","HOUSE_NO":"５號","E_COORD97":183882.010044,"N_COORD97":2569680.9392900001,"ADDRESS":"文化街５號","OBJECTID":550276},"geometry":{"x":183882.01004400197,"y":2569680.9392920006}},{"attributes":{"ID":550304,"DIS_CODE":0,"TOWNNAME":"六甲區","LI":"甲南里","LIN":"10鄰","STREET":"文化街","SECT":" ","MAREA":" ","LANE":" ","ALLEY":" ","HOUSE_NO":"７號","E_COORD97":183859.97,"N_COORD97":2569675.8199999998,"ADDRESS":"文化街７號","OBJECTID":550277},"geometry":{"x":183859.97000000067,"y":2569675.8200000003}},{"attributes":{"ID":550305,"DIS_CODE":0,"TOWNNAME":"六甲區","LI":"六甲里","LIN":"10鄰","STREET":"民生街","SECT":" ","MAREA":" ","LANE":" ","ALLEY":" ","HOUSE_NO":"１９號","E_COORD97":183630.56,"N_COORD97":2569582.8900000001,"ADDRESS":"民生街１９號","OBJECTID":550278},"geometry":{"x":183630.56000000052,"y":2569582.8900000025}},{"attributes":{"ID":550306,"DIS_CODE":0,"TOWNNAME":"六甲區","LI":"六甲里","LIN":"10鄰","STREET":"民生街","SECT":" ","MAREA":" ","LANE":" ","ALLEY":" ","HOUSE_NO":"２１號","E_COORD97":183632.48000000001,"N_COORD97":2569585.8799999999,"ADDRESS":"民生街２１號","OBJECTID":550279},"geometry":{"x":183632.48000000138,"y":2569585.879999999}},{"attributes":{"ID":550307,"DIS_CODE":0,"TOWNNAME":"六甲區","LI":"六甲里","LIN":"10鄰","STREET":"民生街","SECT":" ","MAREA":" ","LANE":" ","ALLEY":" ","HOUSE_NO":"２３號","E_COORD97":183634.07000000001,"N_COORD97":2569590.1600000001,"ADDRESS":"民生街２３號","OBJECTID":550280},"geometry":{"x":183634.0700000003,"y":2569590.1600000039}},{"attributes":{"ID":550308,"DIS_CODE":0,"TOWNNAME":"六甲區","LI":"六甲里","LIN":"10鄰","STREET":"民生街","SECT":" ","MAREA":" ","LANE":" ","ALLEY":" ","HOUSE_NO":"２５號","E_COORD97":183635.76000000001,"N_COORD97":2569594.1499999999,"ADDRESS":"民生街２５號","OBJECTID":550281},"geometry":{"x":183635.75999999885,"y":2569594.1500000022}},{"attributes":{"ID":550309,"DIS_CODE":0,"TOWNNAME":"六甲區","LI":"六甲里","LIN":"10鄰","STREET":"民生街","SECT":" ","MAREA":" ","LANE":" ","ALLEY":" ","HOUSE_NO":"２７號","E_COORD97":183637.38,"N_COORD97":2569598.3300000001,"ADDRESS":"民生街２７號","OBJECTID":550282},"geometry":{"x":183637.38000000082,"y":2569598.3300000001}},{"attributes":{"ID":550310,"DIS_CODE":0,"TOWNNAME":"六甲區","LI":"六甲里","LIN":"10鄰","STREET":"民生街","SECT":" ","MAREA":" ","LANE":" ","ALLEY":" ","HOUSE_NO":"２９號","E_COORD97":183639.38,"N_COORD97":2569601.8199999998,"ADDRESS":"民生街２９號","OBJECTID":550283},"geometry":{"x":183639.37999999989,"y":2569601.8200000003}},{"attributes":{"ID":550311,"DIS_CODE":0,"TOWNNAME":"六甲區","LI":"六甲里","LIN":"10鄰","STREET":"民生街","SECT":" ","MAREA":" ","LANE":" ","ALLEY":" ","HOUSE_NO":"３１號","E_COORD97":183641.45999999999,"N_COORD97":2569605.52,"ADDRESS":"民生街３１號","OBJECTID":550284},"geometry":{"x":183641.46000000183,"y":2569605.5200000014}},{"attributes":{"ID":550312,"DIS_CODE":0,"TOWNNAME":"六甲區","LI":"六甲里","LIN":"10鄰","STREET":"民生街","SECT":" ","MAREA":" ","LANE":" ","ALLEY":" ","HOUSE_NO":"３３號","E_COORD97":183643.17000000001,"N_COORD97":2569610.1600000001,"ADDRESS":"民生街３３號","OBJECTID":550285},"geometry":{"x":183643.16999999993,"y":2569610.1600000001}},{"attributes":{"ID":550313,"DIS_CODE":0,"TOWNNAME":"六甲區","LI":"六甲里","LIN":"10鄰","STREET":"民生街","SECT":" ","MAREA":" ","LANE":" ","ALLEY":" ","HOUSE_NO":"４７號","E_COORD97":183656.45000000001,"N_COORD97":2569636.5099999998,"ADDRESS":"民生街４７號","OBJECTID":550286},"geometry":{"x":183656.45000000019,"y":2569636.5100000016}},{"attributes":{"ID":550314,"DIS_CODE":0,"TOWNNAME":"六甲區","LI":"六甲里","LIN":"10鄰","STREET":"民生街","SECT":" ","MAREA":" ","LANE":" ","ALLEY":" ","HOUSE_NO":"４９號","E_COORD97":183658.54999999999,"N_COORD97":2569640.5600000001,"ADDRESS":"民生街４９號","OBJECTID":550287},"geometry":{"x":183658.54999999981,"y":2569640.5600000005}},{"attributes":{"ID":550315,"DIS_CODE":0,"TOWNNAME":"六甲區","LI":"六甲里","LIN":"10鄰","STREET":"民生街","SECT":" ","MAREA":" ","LANE":" ","ALLEY":" ","HOUSE_NO":"５１號","E_COORD97":183659.92999999999,"N_COORD97":2569644.5099999998,"ADDRESS":"民生街５１號","OBJECTID":550288},"geometry":{"x":183659.92999999877,"y":2569644.5099999998}},{"attributes":{"ID":550316,"DIS_CODE":0,"TOWNNAME":"六甲區","LI":"六甲里","LIN":"10鄰","STREET":"民生街","SECT":" ","MAREA":" ","LANE":" ","ALLEY":" ","HOUSE_NO":"５３號","E_COORD97":183661.34,"N_COORD97":2569648.54,"ADDRESS":"民生街５３號","OBJECTID":550289},"geometry":{"x":183661.34000000078,"y":2569648.540000001}},{"attributes":{"ID":550317,"DIS_CODE":0,"TOWNNAME":"六甲區","LI":"六甲里","LIN":"10鄰","STREET":"民生街","SECT":" ","MAREA":" ","LANE":" ","ALLEY":" ","HOUSE_NO":"５７號","E_COORD97":183664.16,"N_COORD97":2569656.5,"ADDRESS":"民生街５７號","OBJECTID":550290},"geometry":{"x":183664.16000000201,"y":2569656.5000000019}},{"attributes":{"ID":550318,"DIS_CODE":0,"TOWNNAME":"六甲區","LI":"六甲里","LIN":"10鄰","STREET":"民生街","SECT":" ","MAREA":" ","LANE":" ","ALLEY":" ","HOUSE_NO":"５９號","E_COORD97":183666.06,"N_COORD97":2569660.54,"ADDRESS":"民生街５９號","OBJECTID":550291},"geometry":{"x":183666.06000000052,"y":2569660.5399999991}},{"attributes":{"ID":550319,"DIS_CODE":0,"TOWNNAME":"六甲區","LI":"六甲里","LIN":"10鄰","STREET":"民生街","SECT":" ","MAREA":" ","LANE":" ","ALLEY":" ","HOUSE_NO":"５號","E_COORD97":183616.75,"N_COORD97":2569557.7000000002,"ADDRESS":"民生街５號","OBJECTID":550292},"geometry":{"x":183616.75,"y":2569557.6999999993}},{"attributes":{"ID":550320,"DIS_CODE":0,"TOWNNAME":"六甲區","LI":"六甲里","LIN":"10鄰","STREET":"民生街","SECT":" ","MAREA":" ","LANE":" ","ALLEY":" ","HOUSE_NO":"６１號","E_COORD97":183667.67999999999,"N_COORD97":2569664.2000000002,"ADDRESS":"民生街６１號","OBJECTID":550293},"geometry":{"x":183667.6799999997,"y":2569664.2000000011}},{"attributes":{"ID":550321,"DIS_CODE":0,"TOWNNAME":"六甲區","LI":"六甲里","LIN":"10鄰","STREET":"民生街","SECT":" ","MAREA":" ","LANE":" ","ALLEY":" ","HOUSE_NO":"６３號","E_COORD97":183669.29000000001,"N_COORD97":2569667.79,"ADDRESS":"民生街６３號","OBJECTID":550294},"geometry":{"x":183669.29000000004,"y":2569667.790000001}},{"attributes":{"ID":550322,"DIS_CODE":0,"TOWNNAME":"六甲區","LI":"六甲里","LIN":"10鄰","STREET":"民生街","SECT":" ","MAREA":" ","LANE":" ","ALLEY":" ","HOUSE_NO":"６７號","E_COORD97":183672.87,"N_COORD97":2569674.8100000001,"ADDRESS":"民生街６７號","OBJECTID":550295},"geometry":{"x":183672.87000000197,"y":2569674.8100000024}},{"attributes":{"ID":550323,"DIS_CODE":0,"TOWNNAME":"六甲區","LI":"六甲里","LIN":"10鄰","STREET":"民生街","SECT":" ","MAREA":" ","LANE":" ","ALLEY":" ","HOUSE_NO":"６９號","E_COORD97":183674.91,"N_COORD97":2569678.7200000002,"ADDRESS":"民生街６９號","OBJECTID":550296},"geometry":{"x":183674.91000000108,"y":2569678.7200000044}},{"attributes":{"ID":550324,"DIS_CODE":0,"TOWNNAME":"六甲區","LI":"六甲里","LIN":"10鄰","STREET":"民生街","SECT":" ","MAREA":" ","LANE":" ","ALLEY":" ","HOUSE_NO":"７１號","E_COORD97":183676.79000000001,"N_COORD97":2569681.8700000001,"ADDRESS":"民生街７１號","OBJECTID":550297},"geometry":{"x":183676.79000000097,"y":2569681.8700000029}},{"attributes":{"ID":550325,"DIS_CODE":0,"TOWNNAME":"六甲區","LI":"六甲里","LIN":"10鄰","STREET":"民生街","SECT":" ","MAREA":" ","LANE":" ","ALLEY":" ","HOUSE_NO":"７３號","E_COORD97":183678.69,"N_COORD97":2569685.6600000001,"ADDRESS":"民生街７３號","OBJECTID":550298},"geometry":{"x":183678.69000000041,"y":2569685.660000002}},{"attributes":{"ID":550326,"DIS_CODE":0,"TOWNNAME":"六甲區","LI":"六甲里","LIN":"10鄰","STREET":"民生街","SECT":" ","MAREA":" ","LANE":" ","ALLEY":" ","HOUSE_NO":"７５號","E_COORD97":183680.12,"N_COORD97":2569689.29,"ADDRESS":"民生街７５號","OBJECTID":550299},"geometry":{"x":183680.12000000104,"y":2569689.2899999991}},{"attributes":{"ID":550327,"DIS_CODE":0,"TOWNNAME":"六甲區","LI":"水林里","LIN":"10鄰","STREET":"民族街","SECT":" ","MAREA":" ","LANE":" ","ALLEY":" ","HOUSE_NO":"２８９號","E_COORD97":183074.94,"N_COORD97":2570344.7200000002,"ADDRESS":"民族街２８９號","OBJECTID":550300},"geometry":{"x":183074.94000000134,"y":2570344.7200000007}},{"attributes":{"ID":550328,"DIS_CODE":0,"TOWNNAME":"六甲區","LI":"水林里","LIN":"10鄰","STREET":"民族街","SECT":" ","MAREA":" ","LANE":" ","ALLEY":" ","HOUSE_NO":"２７７號","E_COORD97":183089.5,"N_COORD97":2570344.8900000001,"ADDRESS":"民族街２７７號","OBJECTID":550301},"geometry":{"x":183089.5,"y":2570344.8899999987}},{"attributes":{"ID":550329,"DIS_CODE":0,"TOWNNAME":"六甲區","LI":"水林里","LIN":"10鄰","STREET":"民族街","SECT":" ","MAREA":" ","LANE":" ","ALLEY":" ","HOUSE_NO":"２７９號","E_COORD97":183081.82999999999,"N_COORD97":2570344.3999999999,"ADDRESS":"民族街２７９號","OBJECTID":550302},"geometry":{"x":183081.83000000101,"y":2570344.4000000004}},{"attributes":{"ID":550330,"DIS_CODE":0,"TOWNNAME":"六甲區","LI":"水林里","LIN":"10鄰","STREET":"民族街","SECT":" ","MAREA":" ","LANE":" ","ALLEY":" ","HOUSE_NO":"２９３號","E_COORD97":183062.73000000001,"N_COORD97":2570343.9100000001,"ADDRESS":"民族街２９３號","OBJECTID":550303},"geometry":{"x":183062.73000000138,"y":2570343.9100000001}},{"attributes":{"ID":550331,"DIS_CODE":0,"TOWNNAME":"新營區","LI":"新東里","LIN":"10鄰","STREET":"東仁街","SECT":" ","MAREA":" ","LANE":" ","ALLEY":" ","HOUSE_NO":"８４號","E_COORD97":181322.75,"N_COORD97":2579738.2000000002,"ADDRESS":"東仁街８４號","OBJECTID":550304},"geometry":{"x":181322.75000000093,"y":2579738.1999999993}},{"attributes":{"ID":550332,"DIS_CODE":0,"TOWNNAME":"新營區","LI":"中營里","LIN":"10鄰","STREET":"工業街","SECT":" ","MAREA":" ","LANE":" ","ALLEY":" ","HOUSE_NO":"３３號","E_COORD97":180949.67000000001,"N_COORD97":2578468.5899999999,"ADDRESS":"工業街３３號","OBJECTID":550305},"geometry":{"x":180949.67000000179,"y":2578468.5899999999}},{"attributes":{"ID":550333,"DIS_CODE":0,"TOWNNAME":"新營區","LI":"民生里","LIN":"10鄰","STREET":"復興路","SECT":" ","MAREA":" ","LANE":" ","ALLEY":" ","HOUSE_NO":"１５０之３號","E_COORD97":179240,"N_COORD97":2578031.5299999998,"ADDRESS":"復興路１５０之３號","OBJECTID":550306},"geometry":{"x":179240,"y":2578031.5299999993}},{"attributes":{"ID":550334,"DIS_CODE":0,"TOWNNAME":"新營區","LI":"民生里","LIN":"10鄰","STREET":"復興路","SECT":" ","MAREA":" ","LANE":" ","ALLEY":" ","HOUSE_NO":"１５０之７號","E_COORD97":179221.57000000001,"N_COORD97":2578028.2999999998,"ADDRESS":"復興路１５０之７號","OBJECTID":550307},"geometry":{"x":179221.56999999937,"y":2578028.2999999989}},{"attributes":{"ID":550335,"DIS_CODE":0,"TOWNNAME":"新營區","LI":"新東里","LIN":"10鄰","STREET":"長榮路","SECT":"一段","MAREA":" ","LANE":" ","ALLEY":" ","HOUSE_NO":"４１之１號","E_COORD97":181512.45000000001,"N_COORD97":2579742.9199999999,"ADDRESS":"長榮路一段４１之１號","OBJECTID":550308},"geometry":{"x":181512.45000000019,"y":2579742.9200000018}},{"attributes":{"ID":550336,"DIS_CODE":0,"TOWNNAME":"新營區","LI":"興安里","LIN":"10鄰","STREET":"新進路","SECT":" ","MAREA":" ","LANE":" ","ALLEY":" ","HOUSE_NO":"３１７號","E_COORD97":179914.57999999999,"N_COORD97":2577780.1899999999,"ADDRESS":"新進路３１７號","OBJECTID":550309},"geometry":{"x":179914.58000000007,"y":2577780.1899999976}},{"attributes":{"ID":550337,"DIS_CODE":0,"TOWNNAME":"新營區","LI":"嘉芳里","LIN":"10鄰","STREET":"復興路","SECT":" ","MAREA":" ","LANE":" ","ALLEY":" ","HOUSE_NO":"８５１號","E_COORD97":177005.48000000001,"N_COORD97":2578629.27,"ADDRESS":"復興路８５１號","OBJECTID":550310},"geometry":{"x":177005.48000000138,"y":2578629.2699999996}},{"attributes":{"ID":550338,"DIS_CODE":0,"TOWNNAME":"新營區","LI":"嘉芳里","LIN":"10鄰","STREET":"復興路","SECT":" ","MAREA":" ","LANE":" ","ALLEY":" ","HOUSE_NO":"８５９號","E_COORD97":176971.78,"N_COORD97":2578639.3999999999,"ADDRESS":"復興路８５９號","OBJECTID":550311},"geometry":{"x":176971.78000000026,"y":2578639.4000000004}},{"attributes":{"ID":550339,"DIS_CODE":0,"TOWNNAME":"東區","LI":"龍山里","LIN":"10鄰","STREET":"東門路","SECT":"二段","MAREA":" ","LANE":" ","ALLEY":" ","HOUSE_NO":"８４號","E_COORD97":170005.39000000001,"N_COORD97":2542969.4300000002,"ADDRESS":"東門路二段８４號","OBJECTID":550312},"geometry":{"x":170005.38999999873,"y":2542969.4299999997}},{"attributes":{"ID":550340,"DIS_CODE":0,"TOWNNAME":"新營區","LI":"大宏里","LIN":"10鄰","STREET":"民治路","SECT":" ","MAREA":" ","LANE":" ","ALLEY":" ","HOUSE_NO":"２７之３號","E_COORD97":180217.56,"N_COORD97":2578865.23,"ADDRESS":"民治路２７之３號","OBJECTID":550313},"geometry":{"x":180217.55999999959,"y":2578865.2300000004}},{"attributes":{"ID":550341,"DIS_CODE":0,"TOWNNAME":"柳營區","LI":"中埕里","LIN":"10鄰","STREET":"中山西路","SECT":"二段","MAREA":" ","LANE":" ","ALLEY":" ","HOUSE_NO":"６８號","E_COORD97":180041.42999999999,"N_COORD97":2575160.79,"ADDRESS":"中山西路二段６８號","OBJECTID":550314},"geometry":{"x":180041.43000000063,"y":2575160.7899999991}},{"attributes":{"ID":550342,"DIS_CODE":0,"TOWNNAME":"柳營區","LI":"中埕里","LIN":"10鄰","STREET":"中山西路","SECT":"二段","MAREA":" ","LANE":" ","ALLEY":" ","HOUSE_NO":"７０號","E_COORD97":180034.53,"N_COORD97":2575160.5699999998,"ADDRESS":"中山西路二段７０號","OBJECTID":550315},"geometry":{"x":180034.53000000119,"y":2575160.5700000003}},{"attributes":{"ID":550343,"DIS_CODE":0,"TOWNNAME":"柳營區","LI":"中埕里","LIN":"10鄰","STREET":"中山西路","SECT":"二段","MAREA":" ","LANE":" ","ALLEY":" ","HOUSE_NO":"７２號","E_COORD97":180029.85999999999,"N_COORD97":2575158.2200000002,"ADDRESS":"中山西路二段７２號","OBJECTID":550316},"geometry":{"x":180029.86000000034,"y":2575158.2200000025}},{"attributes":{"ID":550344,"DIS_CODE":0,"TOWNNAME":"柳營區","LI":"中埕里","LIN":"10鄰","STREET":"中山西路","SECT":"二段","MAREA":" ","LANE":" ","ALLEY":" ","HOUSE_NO":"７６號","E_COORD97":180025.29999999999,"N_COORD97":2575157.9100000001,"ADDRESS":"中山西路二段７６號","OBJECTID":550317},"geometry":{"x":180025.30000000075,"y":2575157.9100000001}},{"attributes":{"ID":550345,"DIS_CODE":0,"TOWNNAME":"柳營區","LI":"士林里","LIN":"10鄰","STREET":"中山西路","SECT":"三段","MAREA":" ","LANE":" ","ALLEY":" ","HOUSE_NO":"２６號","E_COORD97":179611.31,"N_COORD97":2575090.29,"ADDRESS":"中山西路三段２６號","OBJECTID":550318},"geometry":{"x":179611.31000000052,"y":2575090.2899999991}},{"attributes":{"ID":550346,"DIS_CODE":0,"TOWNNAME":"柳營區","LI":"士林里","LIN":"10鄰","STREET":"中山西路","SECT":"三段","MAREA":" ","LANE":" ","ALLEY":" ","HOUSE_NO":"２８號","E_COORD97":179606.19,"N_COORD97":2575090.4300000002,"ADDRESS":"中山西路三段２８號","OBJECTID":550319},"geometry":{"x":179606.19000000134,"y":2575090.4300000034}},{"attributes":{"ID":550347,"DIS_CODE":0,"TOWNNAME":"柳營區","LI":"士林里","LIN":"10鄰","STREET":"中山西路","SECT":"三段","MAREA":" ","LANE":" ","ALLEY":" ","HOUSE_NO":"３０號","E_COORD97":179599.51999999999,"N_COORD97":2575101.5299999998,"ADDRESS":"中山西路三段３０號","OBJECTID":550320},"geometry":{"x":179599.52000000048,"y":2575101.5299999993}},{"attributes":{"ID":550348,"DIS_CODE":0,"TOWNNAME":"柳營區","LI":"士林里","LIN":"10鄰","STREET":"中山西路","SECT":"三段","MAREA":" ","LANE":" ","ALLEY":" ","HOUSE_NO":"４０號","E_COORD97":179577.23999999999,"N_COORD97":2575090.1499999999,"ADDRESS":"中山西路三段４０號","OBJECTID":550321},"geometry":{"x":179577.24000000115,"y":2575090.1500000022}},{"attributes":{"ID":550349,"DIS_CODE":0,"TOWNNAME":"柳營區","LI":"士林里","LIN":"10鄰","STREET":"中山西路","SECT":"三段","MAREA":" ","LANE":" ","ALLEY":" ","HOUSE_NO":"４８號","E_COORD97":179558.23999999999,"N_COORD97":2575093.4199999999,"ADDRESS":"中山西路三段４８號","OBJECTID":550322},"geometry":{"x":179558.24000000115,"y":2575093.4199999999}},{"attributes":{"ID":550350,"DIS_CODE":0,"TOWNNAME":"柳營區","LI":"士林里","LIN":"10鄰","STREET":"中山西路","SECT":"三段","MAREA":" ","LANE":" ","ALLEY":" ","HOUSE_NO":"５２號","E_COORD97":179548.32000000001,"N_COORD97":2575093.1099999999,"ADDRESS":"中山西路三段５２號","OBJECTID":550323},"geometry":{"x":179548.3200000003,"y":2575093.1100000013}},{"attributes":{"ID":550351,"DIS_CODE":0,"TOWNNAME":"柳營區","LI":"中埕里","LIN":"10鄰","STREET":"中興街","SECT":" ","MAREA":" ","LANE":" ","ALLEY":" ","HOUSE_NO":"２號","E_COORD97":180007.07999999999,"N_COORD97":2575164.1899999999,"ADDRESS":"中興街２號","OBJECTID":550324},"geometry":{"x":180007.08000000101,"y":2575164.1900000013}},{"attributes":{"ID":550352,"DIS_CODE":0,"TOWNNAME":"柳營區","LI":"中埕里","LIN":"10鄰","STREET":"中興街","SECT":" ","MAREA":" ","LANE":" ","ALLEY":" ","HOUSE_NO":"６號","E_COORD97":180005.35000000001,"N_COORD97":2575168.3199999998,"ADDRESS":"中興街６號","OBJECTID":550325},"geometry":{"x":180005.34999999963,"y":2575168.3200000003}},{"attributes":{"ID":550353,"DIS_CODE":0,"TOWNNAME":"柳營區","LI":"光福里","LIN":"10鄰","STREET":"成功街","SECT":" ","MAREA":" ","LANE":" ","ALLEY":" ","HOUSE_NO":"１１７號","E_COORD97":179781.87,"N_COORD97":2575288.0099999998,"ADDRESS":"成功街１１７號","OBJECTID":550326},"geometry":{"x":179781.87000000011,"y":2575288.0100000016}},{"attributes":{"ID":550354,"DIS_CODE":0,"TOWNNAME":"柳營區","LI":"光福里","LIN":"10鄰","STREET":"成功街","SECT":" ","MAREA":" ","LANE":" ","ALLEY":" ","HOUSE_NO":"１３３號","E_COORD97":179774.91,"N_COORD97":2575284.0299999998,"ADDRESS":"成功街１３３號","OBJECTID":550327},"geometry":{"x":179774.91000000015,"y":2575284.0300000012}},{"attributes":{"ID":550355,"DIS_CODE":0,"TOWNNAME":"柳營區","LI":"光福里","LIN":"10鄰","STREET":"成功街","SECT":" ","MAREA":" ","LANE":" ","ALLEY":" ","HOUSE_NO":"１３５號","E_COORD97":179771.20999999999,"N_COORD97":2575282.3799999999,"ADDRESS":"成功街１３５號","OBJECTID":550328},"geometry":{"x":179771.20999999903,"y":2575282.379999999}},{"attributes":{"ID":550356,"DIS_CODE":0,"TOWNNAME":"柳營區","LI":"光福里","LIN":"10鄰","STREET":"成功街","SECT":" ","MAREA":" ","LANE":" ","ALLEY":" ","HOUSE_NO":"１３７號","E_COORD97":179767.44,"N_COORD97":2575280.73,"ADDRESS":"成功街１３７號","OBJECTID":550329},"geometry":{"x":179767.44000000134,"y":2575280.7300000023}},{"attributes":{"ID":550357,"DIS_CODE":0,"TOWNNAME":"柳營區","LI":"光福里","LIN":"10鄰","STREET":"成功街","SECT":" ","MAREA":" ","LANE":" ","ALLEY":" ","HOUSE_NO":"１３９號","E_COORD97":179764.10000000001,"N_COORD97":2575278.73,"ADDRESS":"成功街１３９號","OBJECTID":550330},"geometry":{"x":179764.09999999963,"y":2575278.7300000004}},{"attributes":{"ID":550358,"DIS_CODE":0,"TOWNNAME":"柳營區","LI":"光福里","LIN":"10鄰","STREET":"成功街","SECT":" ","MAREA":" ","LANE":" ","ALLEY":" ","HOUSE_NO":"１４１號","E_COORD97":179760.38,"N_COORD97":2575276.8999999999,"ADDRESS":"成功街１４１號","OBJECTID":550331},"geometry":{"x":179760.38000000082,"y":2575276.9000000004}},{"attributes":{"ID":550359,"DIS_CODE":0,"TOWNNAME":"柳營區","LI":"光福里","LIN":"10鄰","STREET":"成功街","SECT":" ","MAREA":" ","LANE":" ","ALLEY":" ","HOUSE_NO":"１４３號","E_COORD97":179756.25,"N_COORD97":2575275.6699999999,"ADDRESS":"成功街１４３號","OBJECTID":550332},"geometry":{"x":179756.25000000093,"y":2575275.6700000037}},{"attributes":{"ID":550360,"DIS_CODE":0,"TOWNNAME":"柳營區","LI":"光福里","LIN":"10鄰","STREET":"成功街","SECT":" ","MAREA":" ","LANE":" ","ALLEY":" ","HOUSE_NO":"１４５號","E_COORD97":179752.82000000001,"N_COORD97":2575274.1099999999,"ADDRESS":"成功街１４５號","OBJECTID":550333},"geometry":{"x":179752.82000000123,"y":2575274.1099999994}},{"attributes":{"ID":550361,"DIS_CODE":0,"TOWNNAME":"柳營區","LI":"光福里","LIN":"10鄰","STREET":"成功街","SECT":" ","MAREA":" ","LANE":" ","ALLEY":" ","HOUSE_NO":"１４７號","E_COORD97":179748.73000000001,"N_COORD97":2575272.5499999998,"ADDRESS":"成功街１４７號","OBJECTID":550334},"geometry":{"x":179748.73000000138,"y":2575272.5500000007}},{"attributes":{"ID":550362,"DIS_CODE":0,"TOWNNAME":"柳營區","LI":"東昇里","LIN":"10鄰","STREET":"成功街","SECT":" ","MAREA":" ","LANE":" ","ALLEY":" ","HOUSE_NO":"３６號","E_COORD97":180125.79999999999,"N_COORD97":2575350.2999999998,"ADDRESS":"成功街３６號","OBJECTID":550335},"geometry":{"x":180125.79999999981,"y":2575350.3000000045}},{"attributes":{"ID":550363,"DIS_CODE":0,"TOWNNAME":"柳營區","LI":"東昇里","LIN":"10鄰","STREET":"成功街","SECT":" ","MAREA":" ","LANE":" ","ALLEY":" ","HOUSE_NO":"３８號","E_COORD97":180122.26999999999,"N_COORD97":2575348.1200000001,"ADDRESS":"成功街３８號","OBJECTID":550336},"geometry":{"x":180122.26999999955,"y":2575348.1200000048}},{"attributes":{"ID":550364,"DIS_CODE":0,"TOWNNAME":"柳營區","LI":"東昇里","LIN":"10鄰","STREET":"成功街","SECT":" ","MAREA":" ","LANE":" ","ALLEY":" ","HOUSE_NO":"４０號","E_COORD97":180117.82000000001,"N_COORD97":2575345.1800000002,"ADDRESS":"成功街４０號","OBJECTID":550337},"geometry":{"x":180117.8200000003,"y":2575345.1799999997}},{"attributes":{"ID":550365,"DIS_CODE":0,"TOWNNAME":"柳營區","LI":"東昇里","LIN":"10鄰","STREET":"成功街","SECT":" ","MAREA":" ","LANE":" ","ALLEY":" ","HOUSE_NO":"４８號","E_COORD97":180099.45000000001,"N_COORD97":2575340.1099999999,"ADDRESS":"成功街４８號","OBJECTID":550338},"geometry":{"x":180099.45000000112,"y":2575340.1100000013}},{"attributes":{"ID":550366,"DIS_CODE":0,"TOWNNAME":"柳營區","LI":"東昇里","LIN":"10鄰","STREET":"成功街","SECT":" ","MAREA":" ","LANE":" ","ALLEY":" ","HOUSE_NO":"５２號","E_COORD97":180093.14999999999,"N_COORD97":2575334.79,"ADDRESS":"成功街５２號","OBJECTID":550339},"geometry":{"x":180093.1500000013,"y":2575334.7900000028}},{"attributes":{"ID":550367,"DIS_CODE":0,"TOWNNAME":"南區","LI":"喜東里","LIN":"10鄰","STREET":"明興路","SECT":" ","MAREA":" ","LANE":" ","ALLEY":" ","HOUSE_NO":"６５１號","E_COORD97":166017.89000000001,"N_COORD97":2537748.23,"ADDRESS":"明興路６５１號","OBJECTID":550340},"geometry":{"x":166017.88999999966,"y":2537748.2300000023}},{"attributes":{"ID":550368,"DIS_CODE":0,"TOWNNAME":"南區","LI":"喜東里","LIN":"10鄰","STREET":"明興路","SECT":" ","MAREA":" ","LANE":" ","ALLEY":" ","HOUSE_NO":"６１５號","E_COORD97":166080.82999999999,"N_COORD97":2537979.9100000001,"ADDRESS":"明興路６１５號","OBJECTID":550341},"geometry":{"x":166080.83000000101,"y":2537979.9100000039}},{"attributes":{"ID":550369,"DIS_CODE":0,"TOWNNAME":"南區","LI":"喜東里","LIN":"10鄰","STREET":"明興路","SECT":" ","MAREA":" ","LANE":" ","ALLEY":" ","HOUSE_NO":"６３１號","E_COORD97":166056.67999999999,"N_COORD97":2537881.25,"ADDRESS":"明興路６３１號","OBJECTID":550342},"geometry":{"x":166056.6799999997,"y":2537881.25}},{"attributes":{"ID":550370,"DIS_CODE":0,"TOWNNAME":"歸仁區","LI":"看東里","LIN":"10鄰","STREET":"成功路","SECT":"一段","MAREA":" ","LANE":" ","ALLEY":" ","HOUSE_NO":"１５６號","E_COORD97":178594.57999999999,"N_COORD97":2540222.6800000002,"ADDRESS":"成功路一段１５６號","OBJECTID":550343},"geometry":{"x":178594.58000000101,"y":2540222.6800000016}},{"attributes":{"ID":550371,"DIS_CODE":0,"TOWNNAME":"歸仁區","LI":"後市里","LIN":"10鄰","STREET":"民權南路","SECT":" ","MAREA":" ","LANE":" ","ALLEY":" ","HOUSE_NO":"１５５號","E_COORD97":176980.54000000001,"N_COORD97":2540628.25,"ADDRESS":"民權南路１５５號","OBJECTID":550344},"geometry":{"x":176980.5400000019,"y":2540628.25}},{"attributes":{"ID":550372,"DIS_CODE":0,"TOWNNAME":"歸仁區","LI":"南興里","LIN":"10鄰","STREET":"南興街","SECT":" ","MAREA":" ","LANE":" ","ALLEY":" ","HOUSE_NO":"３６號","E_COORD97":175965.44,"N_COORD97":2541284.25,"ADDRESS":"南興街３６號","OBJECTID":550345},"geometry":{"x":175965.44000000041,"y":2541284.2500000019}},{"attributes":{"ID":550373,"DIS_CODE":0,"TOWNNAME":"歸仁區","LI":"看西里","LIN":"10鄰","STREET":"仁愛南街","SECT":" ","MAREA":" ","LANE":" ","ALLEY":" ","HOUSE_NO":"１９１號","E_COORD97":178331.88,"N_COORD97":2540222.25,"ADDRESS":"仁愛南街１９１號","OBJECTID":550346},"geometry":{"x":178331.87999999989,"y":2540222.2500000019}},{"attributes":{"ID":550374,"DIS_CODE":0,"TOWNNAME":"歸仁區","LI":"歸南里","LIN":"10鄰","STREET":"民生九街","SECT":" ","MAREA":" ","LANE":" ","ALLEY":" ","HOUSE_NO":"１３４號","E_COORD97":176224.45999999999,"N_COORD97":2540007.25,"ADDRESS":"民生九街１３４號","OBJECTID":550347},"geometry":{"x":176224.45999999996,"y":2540007.25}},{"attributes":{"ID":550375,"DIS_CODE":0,"TOWNNAME":"歸仁區","LI":"崙頂里","LIN":"10鄰","STREET":"崙頂五街","SECT":" ","MAREA":" ","LANE":" ","ALLEY":" ","HOUSE_NO":"２８號","E_COORD97":177962.34,"N_COORD97":2539821.25,"ADDRESS":"崙頂五街２８號","OBJECTID":550348},"geometry":{"x":177962.34000000078,"y":2539821.25}},{"attributes":{"ID":550376,"DIS_CODE":0,"TOWNNAME":"歸仁區","LI":"歸南里","LIN":"10鄰","STREET":"民生九街","SECT":" ","MAREA":" ","LANE":" ","ALLEY":" ","HOUSE_NO":"１３９號","E_COORD97":176234.76000000001,"N_COORD97":2540024.25,"ADDRESS":"民生九街１３９號","OBJECTID":550349},"geometry":{"x":176234.76000000164,"y":2540024.25}},{"attributes":{"ID":550377,"DIS_CODE":0,"TOWNNAME":"歸仁區","LI":"崙頂里","LIN":"10鄰","STREET":"成功路","SECT":"二段","MAREA":" ","LANE":" ","ALLEY":" ","HOUSE_NO":"１２０之５號","E_COORD97":178030.87,"N_COORD97":2539766.3700000001,"ADDRESS":"成功路二段１２０之５號","OBJECTID":550350},"geometry":{"x":178030.87000000011,"y":2539766.370000001}},{"attributes":{"ID":550378,"DIS_CODE":0,"TOWNNAME":"歸仁區","LI":"崙頂里","LIN":"10鄰","STREET":"成功路","SECT":"二段","MAREA":" ","LANE":" ","ALLEY":" ","HOUSE_NO":"１２０之６號","E_COORD97":178028.87,"N_COORD97":2539764.3700000001,"ADDRESS":"成功路二段１２０之６號","OBJECTID":550351},"geometry":{"x":178028.87000000011,"y":2539764.3699999992}},{"attributes":{"ID":550379,"DIS_CODE":0,"TOWNNAME":"歸仁區","LI":"崙頂里","LIN":"10鄰","STREET":"崙頂五街","SECT":" ","MAREA":" ","LANE":" ","ALLEY":" ","HOUSE_NO":"３６號","E_COORD97":177976.73999999999,"N_COORD97":2539825.25,"ADDRESS":"崙頂五街３６號","OBJECTID":550352},"geometry":{"x":177976.74000000115,"y":2539825.2500000037}},{"attributes":{"ID":550380,"DIS_CODE":0,"TOWNNAME":"歸仁區","LI":"崙頂里","LIN":"10鄰","STREET":"成功路","SECT":"二段","MAREA":" ","LANE":" ","ALLEY":" ","HOUSE_NO":"１２８號","E_COORD97":178000.54000000001,"N_COORD97":2539766.25,"ADDRESS":"成功路二段１２８號","OBJECTID":550353},"geometry":{"x":178000.54000000004,"y":2539766.25}},{"attributes":{"ID":550381,"DIS_CODE":0,"TOWNNAME":"歸仁區","LI":"崙頂里","LIN":"10鄰","STREET":"崙頂五街","SECT":" ","MAREA":" ","LANE":" ","ALLEY":" ","HOUSE_NO":"３２號","E_COORD97":177969.44,"N_COORD97":2539806.25,"ADDRESS":"崙頂五街３２號","OBJECTID":550354},"geometry":{"x":177969.44000000041,"y":2539806.2500000019}},{"attributes":{"ID":550382,"DIS_CODE":0,"TOWNNAME":"歸仁區","LI":"看西里","LIN":"10鄰","STREET":"仁愛南街","SECT":" ","MAREA":" ","LANE":" ","ALLEY":" ","HOUSE_NO":"２１３號","E_COORD97":178283.212249,"N_COORD97":2540195.9551499998,"ADDRESS":"仁愛南街２１３號","OBJECTID":550355},"geometry":{"x":178283.21224900056,"y":2540195.955151001}},{"attributes":{"ID":550383,"DIS_CODE":0,"TOWNNAME":"歸仁區","LI":"歸南里","LIN":"10鄰","STREET":"民生九街","SECT":" ","MAREA":" ","LANE":" ","ALLEY":" ","HOUSE_NO":"１２６號","E_COORD97":176218.45999999999,"N_COORD97":2540027.25,"ADDRESS":"民生九街１２６號","OBJECTID":550356},"geometry":{"x":176218.46000000089,"y":2540027.25}},{"attributes":{"ID":550384,"DIS_CODE":0,"TOWNNAME":"歸仁區","LI":"看西里","LIN":"10鄰","STREET":"仁愛南街","SECT":" ","MAREA":" ","LANE":" ","ALLEY":" ","HOUSE_NO":"２１１號","E_COORD97":178293.150437,"N_COORD97":2540201.4055599999,"ADDRESS":"仁愛南街２１１號","OBJECTID":550357},"geometry":{"x":178293.15043700114,"y":2540201.4055640008}},{"attributes":{"ID":550385,"DIS_CODE":0,"TOWNNAME":"歸仁區","LI":"崙頂里","LIN":"10鄰","STREET":"成功路","SECT":"二段","MAREA":" ","LANE":" ","ALLEY":" ","HOUSE_NO":"１５２號","E_COORD97":177986.14000000001,"N_COORD97":2539753.25,"ADDRESS":"成功路二段１５２號","OBJECTID":550358},"geometry":{"x":177986.13999999966,"y":2539753.25}},{"attributes":{"ID":550386,"DIS_CODE":0,"TOWNNAME":"歸仁區","LI":"南保里","LIN":"10鄰","STREET":"文化街","SECT":"三段","MAREA":" ","LANE":" ","ALLEY":" ","HOUSE_NO":"１１６號","E_COORD97":176716.72,"N_COORD97":2541222.2599999998,"ADDRESS":"文化街三段１１６號","OBJECTID":550359},"geometry":{"x":176716.72000000067,"y":2541222.2600000016}},{"attributes":{"ID":550387,"DIS_CODE":0,"TOWNNAME":"歸仁區","LI":"南保里","LIN":"10鄰","STREET":"文化街","SECT":"三段","MAREA":" ","LANE":" ","ALLEY":" ","HOUSE_NO":"１０８號","E_COORD97":176733.12,"N_COORD97":2541226.2599999998,"ADDRESS":"文化街三段１０８號","OBJECTID":550360},"geometry":{"x":176733.12000000104,"y":2541226.2600000016}},{"attributes":{"ID":550388,"DIS_CODE":0,"TOWNNAME":"歸仁區","LI":"南興里","LIN":"10鄰","STREET":"文化十六街","SECT":" ","MAREA":" ","LANE":" ","ALLEY":" ","HOUSE_NO":"３９號","E_COORD97":176014.37,"N_COORD97":2541288.2599999998,"ADDRESS":"文化十六街３９號","OBJECTID":550361},"geometry":{"x":176014.37000000104,"y":2541288.2599999998}},{"attributes":{"ID":550389,"DIS_CODE":0,"TOWNNAME":"歸仁區","LI":"南保里","LIN":"10鄰","STREET":"文化八街","SECT":" ","MAREA":" ","LANE":" ","ALLEY":" ","HOUSE_NO":"９號","E_COORD97":176736.67000000001,"N_COORD97":2541260.2599999998,"ADDRESS":"文化八街９號","OBJECTID":550362},"geometry":{"x":176736.66999999993,"y":2541260.2600000016}},{"attributes":{"ID":550390,"DIS_CODE":0,"TOWNNAME":"歸仁區","LI":"南興里","LIN":"10鄰","STREET":"文化十六街","SECT":" ","MAREA":" ","LANE":" ","ALLEY":" ","HOUSE_NO":"２３號","E_COORD97":176004.97,"N_COORD97":2541248.2599999998,"ADDRESS":"文化十六街２３號","OBJECTID":550363},"geometry":{"x":176004.97000000067,"y":2541248.2599999998}},{"attributes":{"ID":550391,"DIS_CODE":0,"TOWNNAME":"歸仁區","LI":"南保里","LIN":"10鄰","STREET":"文化八街","SECT":" ","MAREA":" ","LANE":" ","ALLEY":" ","HOUSE_NO":"１７號","E_COORD97":176743.94,"N_COORD97":2541278.3300000001,"ADDRESS":"文化八街１７號","OBJECTID":550364},"geometry":{"x":176743.94000000041,"y":2541278.3300000001}},{"attributes":{"ID":550392,"DIS_CODE":0,"TOWNNAME":"歸仁區","LI":"看東里","LIN":"10鄰","STREET":"成功路","SECT":"一段","MAREA":" ","LANE":" ","ALLEY":" ","HOUSE_NO":"１５０號","E_COORD97":178612.07999999999,"N_COORD97":2540231.6800000002,"ADDRESS":"成功路一段１５０號","OBJECTID":550365},"geometry":{"x":178612.08000000007,"y":2540231.6799999997}},{"attributes":{"ID":550393,"DIS_CODE":0,"TOWNNAME":"歸仁區","LI":"六甲里","LIN":"10鄰","STREET":"六甲路","SECT":" ","MAREA":" ","LANE":" ","ALLEY":" ","HOUSE_NO":"１０１號","E_COORD97":176215.67000000001,"N_COORD97":2539151.25,"ADDRESS":"六甲路１０１號","OBJECTID":550366},"geometry":{"x":176215.67000000086,"y":2539151.2500000019}},{"attributes":{"ID":550394,"DIS_CODE":0,"TOWNNAME":"歸仁區","LI":"南興里","LIN":"10鄰","STREET":"南興街","SECT":" ","MAREA":" ","LANE":" ","ALLEY":" ","HOUSE_NO":"１８號","E_COORD97":175965.23999999999,"N_COORD97":2541249.25,"ADDRESS":"南興街１８號","OBJECTID":550367},"geometry":{"x":175965.24000000022,"y":2541249.2500000037}},{"attributes":{"ID":550395,"DIS_CODE":0,"TOWNNAME":"玉井區","LI":"玉井里","LIN":"10鄰","STREET":"民生路","SECT":" ","MAREA":" ","LANE":" ","ALLEY":" ","HOUSE_NO":"２號","E_COORD97":194760.48999999999,"N_COORD97":2558173.2799999998,"ADDRESS":"民生路２號","OBJECTID":550368},"geometry":{"x":194760.49000000115,"y":2558173.2800000031}},{"attributes":{"ID":550396,"DIS_CODE":0,"TOWNNAME":"歸仁區","LI":"南興里","LIN":"10鄰","STREET":"南興街","SECT":" ","MAREA":" ","LANE":" ","ALLEY":" ","HOUSE_NO":"３４號","E_COORD97":175965.44,"N_COORD97":2541284.25,"ADDRESS":"南興街３４號","OBJECTID":550369},"geometry":{"x":175965.44000000041,"y":2541284.2500000019}},{"attributes":{"ID":550397,"DIS_CODE":0,"TOWNNAME":"歸仁區","LI":"六甲里","LIN":"10鄰","STREET":"六甲路","SECT":" ","MAREA":" ","LANE":" ","ALLEY":" ","HOUSE_NO":"１８３號","E_COORD97":176087.56,"N_COORD97":2539158.25,"ADDRESS":"六甲路１８３號","OBJECTID":550370},"geometry":{"x":176087.55999999959,"y":2539158.2500000019}},{"attributes":{"ID":550398,"DIS_CODE":0,"TOWNNAME":"歸仁區","LI":"六甲里","LIN":"10鄰","STREET":"六甲路","SECT":" ","MAREA":" ","LANE":" ","ALLEY":" ","HOUSE_NO":"１９５號","E_COORD97":176062.06,"N_COORD97":2539195.25,"ADDRESS":"六甲路１９５號","OBJECTID":550371},"geometry":{"x":176062.05999999959,"y":2539195.2500000019}},{"attributes":{"ID":550399,"DIS_CODE":0,"TOWNNAME":"歸仁區","LI":"六甲里","LIN":"10鄰","STREET":"六甲路","SECT":" ","MAREA":" ","LANE":" ","ALLEY":" ","HOUSE_NO":"１８５號","E_COORD97":176088.66,"N_COORD97":2539191.25,"ADDRESS":"六甲路１８５號","OBJECTID":550372},"geometry":{"x":176088.66000000108,"y":2539191.2500000037}},{"attributes":{"ID":550400,"DIS_CODE":0,"TOWNNAME":"歸仁區","LI":"六甲里","LIN":"10鄰","STREET":"六甲路","SECT":" ","MAREA":" ","LANE":" ","ALLEY":" ","HOUSE_NO":"１９９號","E_COORD97":176052.85999999999,"N_COORD97":2539195.25,"ADDRESS":"六甲路１９９號","OBJECTID":550373},"geometry":{"x":176052.86000000034,"y":2539195.2500000019}},{"attributes":{"ID":550401,"DIS_CODE":0,"TOWNNAME":"歸仁區","LI":"六甲里","LIN":"10鄰","STREET":"六甲路","SECT":" ","MAREA":" ","LANE":" ","ALLEY":" ","HOUSE_NO":"１５３號","E_COORD97":176129.66,"N_COORD97":2539179.25,"ADDRESS":"六甲路１５３號","OBJECTID":550374},"geometry":{"x":176129.66000000108,"y":2539179.2500000019}},{"attributes":{"ID":550402,"DIS_CODE":0,"TOWNNAME":"歸仁區","LI":"南興里","LIN":"10鄰","STREET":"南興街","SECT":" ","MAREA":" ","LANE":" ","ALLEY":" ","HOUSE_NO":"３２號","E_COORD97":175965.34,"N_COORD97":2541280.25,"ADDRESS":"南興街３２號","OBJECTID":550375},"geometry":{"x":175965.34000000078,"y":2541280.2500000019}},{"attributes":{"ID":550403,"DIS_CODE":0,"TOWNNAME":"歸仁區","LI":"六甲里","LIN":"10鄰","STREET":"六甲路","SECT":" ","MAREA":" ","LANE":" ","ALLEY":" ","HOUSE_NO":"１９３號","E_COORD97":176068.26000000001,"N_COORD97":2539197.25,"ADDRESS":"六甲路１９３號","OBJECTID":550376},"geometry":{"x":176068.25999999978,"y":2539197.25}},{"attributes":{"ID":550404,"DIS_CODE":0,"TOWNNAME":"歸仁區","LI":"文化里","LIN":"10鄰","STREET":"民族北街","SECT":" ","MAREA":" ","LANE":" ","ALLEY":" ","HOUSE_NO":"２５５號","E_COORD97":177477.29999999999,"N_COORD97":2541490.3300000001,"ADDRESS":"民族北街２５５號","OBJECTID":550377},"geometry":{"x":177477.30000000075,"y":2541490.3300000019}},{"attributes":{"ID":550405,"DIS_CODE":0,"TOWNNAME":"歸仁區","LI":"六甲里","LIN":"10鄰","STREET":"六甲路","SECT":" ","MAREA":" ","LANE":" ","ALLEY":" ","HOUSE_NO":"１８９號","E_COORD97":176076.35999999999,"N_COORD97":2539194.25,"ADDRESS":"六甲路１８９號","OBJECTID":550378},"geometry":{"x":176076.36000000034,"y":2539194.25}},{"attributes":{"ID":550406,"DIS_CODE":0,"TOWNNAME":"歸仁區","LI":"六甲里","LIN":"10鄰","STREET":"六甲路","SECT":" ","MAREA":" ","LANE":" ","ALLEY":" ","HOUSE_NO":"１５５號","E_COORD97":176126.56,"N_COORD97":2539181.25,"ADDRESS":"六甲路１５５號","OBJECTID":550379},"geometry":{"x":176126.55999999959,"y":2539181.2500000037}},{"attributes":{"ID":550407,"DIS_CODE":0,"TOWNNAME":"玉井區","LI":"中正里","LIN":"10鄰","STREET":"中正路","SECT":" ","MAREA":" ","LANE":" ","ALLEY":" ","HOUSE_NO":"６４５號","E_COORD97":195782.35000000001,"N_COORD97":2558935.2400000002,"ADDRESS":"中正路６４５號","OBJECTID":550380},"geometry":{"x":195782.34999999963,"y":2558935.2400000021}},{"attributes":{"ID":550408,"DIS_CODE":0,"TOWNNAME":"玉井區","LI":"中正里","LIN":"10鄰","STREET":"中正路","SECT":" ","MAREA":" ","LANE":" ","ALLEY":" ","HOUSE_NO":"６３７號","E_COORD97":195769.95999999999,"N_COORD97":2558923.2400000002,"ADDRESS":"中正路６３７號","OBJECTID":550381},"geometry":{"x":195769.95999999996,"y":2558923.2400000002}},{"attributes":{"ID":550409,"DIS_CODE":0,"TOWNNAME":"玉井區","LI":"中正里","LIN":"10鄰","STREET":"中正路","SECT":" ","MAREA":" ","LANE":" ","ALLEY":" ","HOUSE_NO":"６２７號","E_COORD97":195755.35000000001,"N_COORD97":2558909.2400000002,"ADDRESS":"中正路６２７號","OBJECTID":550382},"geometry":{"x":195755.34999999963,"y":2558909.2400000002}},{"attributes":{"ID":550410,"DIS_CODE":0,"TOWNNAME":"玉井區","LI":"中正里","LIN":"10鄰","STREET":"健康街","SECT":" ","MAREA":" ","LANE":" ","ALLEY":" ","HOUSE_NO":"１２６號","E_COORD97":195529.28,"N_COORD97":2558902.29,"ADDRESS":"健康街１２６號","OBJECTID":550383},"geometry":{"x":195529.28000000026,"y":2558902.290000001}},{"attributes":{"ID":550411,"DIS_CODE":0,"TOWNNAME":"玉井區","LI":"中正里","LIN":"10鄰","STREET":"中正路","SECT":" ","MAREA":" ","LANE":" ","ALLEY":" ","HOUSE_NO":"６３９號","E_COORD97":195773.14999999999,"N_COORD97":2558926.2400000002,"ADDRESS":"中正路６３９號","OBJECTID":550384},"geometry":{"x":195773.15000000224,"y":2558926.2400000002}},{"attributes":{"ID":550412,"DIS_CODE":0,"TOWNNAME":"玉井區","LI":"中正里","LIN":"10鄰","STREET":"中正路","SECT":" ","MAREA":" ","LANE":" ","ALLEY":" ","HOUSE_NO":"６４３號","E_COORD97":195779.35000000001,"N_COORD97":2558932.2400000002,"ADDRESS":"中正路６４３號","OBJECTID":550385},"geometry":{"x":195779.35000000149,"y":2558932.2400000002}},{"attributes":{"ID":550413,"DIS_CODE":0,"TOWNNAME":"玉井區","LI":"中正里","LIN":"10鄰","STREET":"中正路","SECT":" ","MAREA":" ","LANE":" ","ALLEY":" ","HOUSE_NO":"６２５號","E_COORD97":195752.54999999999,"N_COORD97":2558907.2400000002,"ADDRESS":"中正路６２５號","OBJECTID":550386},"geometry":{"x":195752.54999999981,"y":2558907.2400000021}},{"attributes":{"ID":550414,"DIS_CODE":0,"TOWNNAME":"玉井區","LI":"中正里","LIN":"10鄰","STREET":"健康街","SECT":" ","MAREA":" ","LANE":" ","ALLEY":" ","HOUSE_NO":"１２０號","E_COORD97":195547.69,"N_COORD97":2558886.29,"ADDRESS":"健康街１２０號","OBJECTID":550387},"geometry":{"x":195547.69000000134,"y":2558886.290000001}},{"attributes":{"ID":550415,"DIS_CODE":0,"TOWNNAME":"玉井區","LI":"中正里","LIN":"10鄰","STREET":"中正路","SECT":" ","MAREA":" ","LANE":" ","ALLEY":" ","HOUSE_NO":"６３３號","E_COORD97":195764.45999999999,"N_COORD97":2558917.2400000002,"ADDRESS":"中正路６３３號","OBJECTID":550388},"geometry":{"x":195764.46000000089,"y":2558917.2400000021}},{"attributes":{"ID":550416,"DIS_CODE":0,"TOWNNAME":"玉井區","LI":"玉田里","LIN":"10鄰","STREET":"神農街","SECT":" ","MAREA":" ","LANE":" ","ALLEY":" ","HOUSE_NO":"２４號","E_COORD97":194893.89000000001,"N_COORD97":2557947.2799999998,"ADDRESS":"神農街２４號","OBJECTID":550389},"geometry":{"x":194893.88999999966,"y":2557947.2800000012}},{"attributes":{"ID":550417,"DIS_CODE":0,"TOWNNAME":"玉井區","LI":"玉田里","LIN":"10鄰","STREET":"神農街","SECT":" ","MAREA":" ","LANE":" ","ALLEY":" ","HOUSE_NO":"１４號","E_COORD97":194919.79000000001,"N_COORD97":2557947.2799999998,"ADDRESS":"神農街１４號","OBJECTID":550390},"geometry":{"x":194919.79000000097,"y":2557947.2800000012}},{"attributes":{"ID":550418,"DIS_CODE":0,"TOWNNAME":"玉井區","LI":"玉田里","LIN":"10鄰","STREET":"神農街","SECT":" ","MAREA":" ","LANE":" ","ALLEY":" ","HOUSE_NO":"１０號","E_COORD97":194922.09,"N_COORD97":2557945.2799999998,"ADDRESS":"神農街１０號","OBJECTID":550391},"geometry":{"x":194922.09000000078,"y":2557945.2799999993}},{"attributes":{"ID":550419,"DIS_CODE":0,"TOWNNAME":"玉井區","LI":"玉田里","LIN":"10鄰","STREET":"神農街","SECT":" ","MAREA":" ","LANE":" ","ALLEY":" ","HOUSE_NO":"４２號","E_COORD97":194841.88,"N_COORD97":2557962.27,"ADDRESS":"神農街４２號","OBJECTID":550392},"geometry":{"x":194841.87999999989,"y":2557962.2699999996}},{"attributes":{"ID":550420,"DIS_CODE":0,"TOWNNAME":"玉井區","LI":"玉井里","LIN":"10鄰","STREET":"民生路","SECT":" ","MAREA":" ","LANE":" ","ALLEY":" ","HOUSE_NO":"１８號","E_COORD97":194770.82999999999,"N_COORD97":2558216.29,"ADDRESS":"民生路１８號","OBJECTID":550393},"geometry":{"x":194770.83000000007,"y":2558216.2899999991}},{"attributes":{"ID":550421,"DIS_CODE":0,"TOWNNAME":"玉井區","LI":"玉井里","LIN":"10鄰","STREET":"富強街","SECT":" ","MAREA":" ","LANE":" ","ALLEY":" ","HOUSE_NO":"６７號","E_COORD97":194773.51000000001,"N_COORD97":2558232.25,"ADDRESS":"富強街６７號","OBJECTID":550394},"geometry":{"x":194773.51000000071,"y":2558232.2500000019}},{"attributes":{"ID":550422,"DIS_CODE":0,"TOWNNAME":"玉井區","LI":"中正里","LIN":"10鄰","STREET":"健康街","SECT":" ","MAREA":" ","LANE":" ","ALLEY":" ","HOUSE_NO":"１０８號","E_COORD97":195570.67999999999,"N_COORD97":2558879.2999999998,"ADDRESS":"健康街１０８號","OBJECTID":550395},"geometry":{"x":195570.68000000063,"y":2558879.3000000007}},{"attributes":{"ID":550423,"DIS_CODE":0,"TOWNNAME":"玉井區","LI":"玉井里","LIN":"10鄰","STREET":"民生路","SECT":" ","MAREA":" ","LANE":" ","ALLEY":" ","HOUSE_NO":"１７號","E_COORD97":194752.92999999999,"N_COORD97":2558231.29,"ADDRESS":"民生路１７號","OBJECTID":550396},"geometry":{"x":194752.9299999997,"y":2558231.290000001}},{"attributes":{"ID":550424,"DIS_CODE":0,"TOWNNAME":"玉井區","LI":"玉井里","LIN":"10鄰","STREET":"民生路","SECT":" ","MAREA":" ","LANE":" ","ALLEY":" ","HOUSE_NO":"２０號","E_COORD97":194771.42999999999,"N_COORD97":2558220.29,"ADDRESS":"民生路２０號","OBJECTID":550397},"geometry":{"x":194771.4299999997,"y":2558220.2900000028}},{"attributes":{"ID":550425,"DIS_CODE":0,"TOWNNAME":"玉井區","LI":"玉井里","LIN":"10鄰","STREET":"民生路","SECT":" ","MAREA":" ","LANE":" ","ALLEY":" ","HOUSE_NO":"２２號","E_COORD97":194772.04000000001,"N_COORD97":2558223.29,"ADDRESS":"民生路２２號","OBJECTID":550398},"geometry":{"x":194772.04000000097,"y":2558223.2899999991}},{"attributes":{"ID":550426,"DIS_CODE":0,"TOWNNAME":"玉井區","LI":"中正里","LIN":"10鄰","STREET":"健康街","SECT":" ","MAREA":" ","LANE":" ","ALLEY":" ","HOUSE_NO":"１０６號","E_COORD97":195575.89000000001,"N_COORD97":2558878.2999999998,"ADDRESS":"健康街１０６號","OBJECTID":550399},"geometry":{"x":195575.8900000006,"y":2558878.3000000007}},{"attributes":{"ID":550427,"DIS_CODE":0,"TOWNNAME":"玉井區","LI":"中正里","LIN":"10鄰","STREET":"健康街","SECT":" ","MAREA":" ","LANE":" ","ALLEY":" ","HOUSE_NO":"１０２號","E_COORD97":195580.89000000001,"N_COORD97":2558874.2999999998,"ADDRESS":"健康街１０２號","OBJECTID":550400},"geometry":{"x":195580.89000000153,"y":2558874.3000000026}}]}