{"displayFieldName":"TOWNNAME","fieldAliases":{"ID":"ID","DIS_CODE":"DIS_CODE","TOWNNAME":"TOWNNAME","LI":"LI","LIN":"LIN","STREET":"STREET","SECT":"SECT","MAREA":"MAREA","LANE":"LANE","ALLEY":"ALLEY","HOUSE_NO":"HOUSE_NO","E_COORD97":"E_COORD97","N_COORD97":"N_COORD97","ADDRESS":"ADDRESS","OBJECTID":"OBJECTID"},"geometryType":"esriGeometryPoint","spatialReference":{"wkid":102443,"latestWkid":3826},"fields":[{"name":"ID","type":"esriFieldTypeDouble","alias":"ID"},{"name":"DIS_CODE","type":"esriFieldTypeInteger","alias":"DIS_CODE"},{"name":"TOWNNAME","type":"esriFieldTypeString","alias":"TOWNNAME","length":8},{"name":"LI","type":"esriFieldTypeString","alias":"LI","length":8},{"name":"LIN","type":"esriFieldTypeString","alias":"LIN","length":12},{"name":"STREET","type":"esriFieldTypeString","alias":"STREET","length":20},{"name":"SECT","type":"esriFieldTypeString","alias":"SECT","length":8},{"name":"MAREA","type":"esriFieldTypeString","alias":"MAREA","length":12},{"name":"LANE","type":"esriFieldTypeString","alias":"LANE","length":10},{"name":"ALLEY","type":"esriFieldTypeString","alias":"ALLEY","length":10},{"name":"HOUSE_NO","type":"esriFieldTypeString","alias":"HOUSE_NO","length":20},{"name":"E_COORD97","type":"esriFieldTypeDouble","alias":"E_COORD97"},{"name":"N_COORD97","type":"esriFieldTypeDouble","alias":"N_COORD97"},{"name":"ADDRESS","type":"esriFieldTypeString","alias":"ADDRESS","length":50},{"name":"OBJECTID","type":"esriFieldTypeOID","alias":"OBJECTID"}],"features":[{"attributes":{"ID":624828,"DIS_CODE":0,"TOWNNAME":"安南區","LI":"州南里","LIN":"4鄰","STREET":"長和路","SECT":"三段","MAREA":" ","LANE":" ","ALLEY":" ","HOUSE_NO":"９號","E_COORD97":169914.98000000001,"N_COORD97":2551501.77,"ADDRESS":"長和路三段９號","OBJECTID":624801},"geometry":{"x":169914.98000000138,"y":2551501.7700000014}},{"attributes":{"ID":624829,"DIS_CODE":0,"TOWNNAME":"安南區","LI":"州南里","LIN":"4鄰","STREET":"長和路","SECT":"三段","MAREA":" ","LANE":" ","ALLEY":" ","HOUSE_NO":"７號","E_COORD97":169917.64000000001,"N_COORD97":2551502.2799999998,"ADDRESS":"長和路三段７號","OBJECTID":624802},"geometry":{"x":169917.6400000006,"y":2551502.2800000012}},{"attributes":{"ID":624830,"DIS_CODE":0,"TOWNNAME":"安南區","LI":"溪心里","LIN":"10鄰","STREET":"功安二街","SECT":" ","MAREA":" ","LANE":" ","ALLEY":" ","HOUSE_NO":"９號","E_COORD97":166166.35999999999,"N_COORD97":2549845.8599999999,"ADDRESS":"功安二街９號","OBJECTID":624803},"geometry":{"x":166166.36000000034,"y":2549845.8600000031}},{"attributes":{"ID":624831,"DIS_CODE":0,"TOWNNAME":"安南區","LI":"州南里","LIN":"4鄰","STREET":"長和路","SECT":"三段","MAREA":" ","LANE":" ","ALLEY":" ","HOUSE_NO":"１５號","E_COORD97":169904.44,"N_COORD97":2551503.7999999998,"ADDRESS":"長和路三段１５號","OBJECTID":624804},"geometry":{"x":169904.44000000134,"y":2551503.8000000026}},{"attributes":{"ID":624832,"DIS_CODE":0,"TOWNNAME":"安南區","LI":"海南里","LIN":"8鄰","STREET":"府安路","SECT":"六段","MAREA":" ","LANE":" ","ALLEY":" ","HOUSE_NO":"１２０之１號","E_COORD97":166652.23000000001,"N_COORD97":2546419.8500000001,"ADDRESS":"府安路六段１２０之１號","OBJECTID":624805},"geometry":{"x":166652.23000000045,"y":2546419.8500000015}},{"attributes":{"ID":624833,"DIS_CODE":0,"TOWNNAME":"安南區","LI":"淵東里","LIN":"1鄰","STREET":"海佃路","SECT":"四段","MAREA":" ","LANE":" ","ALLEY":" ","HOUSE_NO":"８號","E_COORD97":165797.95000000001,"N_COORD97":2550495.1099999999,"ADDRESS":"海佃路四段８號","OBJECTID":624806},"geometry":{"x":165797.95000000019,"y":2550495.1100000031}},{"attributes":{"ID":624834,"DIS_CODE":0,"TOWNNAME":"安南區","LI":"州南里","LIN":"4鄰","STREET":"安和路","SECT":"四段","MAREA":" ","LANE":" ","ALLEY":" ","HOUSE_NO":"６２５號","E_COORD97":169930.39000000001,"N_COORD97":2551506.6600000001,"ADDRESS":"安和路四段６２５號","OBJECTID":624807},"geometry":{"x":169930.38999999966,"y":2551506.660000002}},{"attributes":{"ID":624835,"DIS_CODE":0,"TOWNNAME":"安南區","LI":"州南里","LIN":"4鄰","STREET":"安和路","SECT":"四段","MAREA":" ","LANE":" ","ALLEY":" ","HOUSE_NO":"６２３號","E_COORD97":169930.85999999999,"N_COORD97":2551501.7400000002,"ADDRESS":"安和路四段６２３號","OBJECTID":624808},"geometry":{"x":169930.86000000127,"y":2551501.7400000002}},{"attributes":{"ID":624836,"DIS_CODE":0,"TOWNNAME":"安南區","LI":"淵東里","LIN":"1鄰","STREET":"海佃路","SECT":"四段","MAREA":" ","LANE":" ","ALLEY":" ","HOUSE_NO":"６號","E_COORD97":165799.98000000001,"N_COORD97":2550491.9300000002,"ADDRESS":"海佃路四段６號","OBJECTID":624809},"geometry":{"x":165799.98000000231,"y":2550491.9299999997}},{"attributes":{"ID":624837,"DIS_CODE":0,"TOWNNAME":"安南區","LI":"淵東里","LIN":"4鄰","STREET":"本原街","SECT":"三段","MAREA":" ","LANE":" ","ALLEY":" ","HOUSE_NO":"５號","E_COORD97":165785.35999999999,"N_COORD97":2550434.0899999999,"ADDRESS":"本原街三段５號","OBJECTID":624810},"geometry":{"x":165785.3600000022,"y":2550434.0899999999}},{"attributes":{"ID":624838,"DIS_CODE":0,"TOWNNAME":"中西區","LI":"青年里","LIN":"5鄰","STREET":"武德街","SECT":" ","MAREA":" ","LANE":" ","ALLEY":" ","HOUSE_NO":"２７號","E_COORD97":168967.88,"N_COORD97":2543687.3900000001,"ADDRESS":"武德街２７號","OBJECTID":624811},"geometry":{"x":168967.87999999989,"y":2543687.3900000025}},{"attributes":{"ID":624839,"DIS_CODE":0,"TOWNNAME":"安南區","LI":"大安里","LIN":"13鄰","STREET":"義安街","SECT":" ","MAREA":" ","LANE":" ","ALLEY":" ","HOUSE_NO":"１之１號","E_COORD97":167314.35000000001,"N_COORD97":2547881.6099999999,"ADDRESS":"義安街１之１號","OBJECTID":624812},"geometry":{"x":167314.35000000056,"y":2547881.6100000013}},{"attributes":{"ID":624840,"DIS_CODE":0,"TOWNNAME":"安南區","LI":"大安里","LIN":"13鄰","STREET":"義安街","SECT":" ","MAREA":" ","LANE":" ","ALLEY":" ","HOUSE_NO":"３之１號","E_COORD97":167318.03,"N_COORD97":2547884.1499999999,"ADDRESS":"義安街３之１號","OBJECTID":624813},"geometry":{"x":167318.03000000026,"y":2547884.1500000004}},{"attributes":{"ID":624841,"DIS_CODE":0,"TOWNNAME":"安南區","LI":"大安里","LIN":"13鄰","STREET":"義安街","SECT":" ","MAREA":" ","LANE":" ","ALLEY":" ","HOUSE_NO":"５之１號","E_COORD97":167319.81,"N_COORD97":2547887.4500000002,"ADDRESS":"義安街５之１號","OBJECTID":624814},"geometry":{"x":167319.81000000052,"y":2547887.4499999993}},{"attributes":{"ID":624842,"DIS_CODE":0,"TOWNNAME":"安南區","LI":"大安里","LIN":"8鄰","STREET":"理安街","SECT":" ","MAREA":" ","LANE":" ","ALLEY":" ","HOUSE_NO":"１７０之１號","E_COORD97":167500.79000000001,"N_COORD97":2548228.3199999998,"ADDRESS":"理安街１７０之１號","OBJECTID":624815},"geometry":{"x":167500.79000000004,"y":2548228.3200000003}},{"attributes":{"ID":624843,"DIS_CODE":0,"TOWNNAME":"安南區","LI":"大安里","LIN":"7鄰","STREET":"理安街","SECT":" ","MAREA":" ","LANE":" ","ALLEY":" ","HOUSE_NO":"１２２號","E_COORD97":167434.75,"N_COORD97":2548121.8999999999,"ADDRESS":"理安街１２２號","OBJECTID":624816},"geometry":{"x":167434.75,"y":2548121.9000000022}},{"attributes":{"ID":624844,"DIS_CODE":0,"TOWNNAME":"安南區","LI":"大安里","LIN":"7鄰","STREET":"理安街","SECT":" ","MAREA":" ","LANE":" ","ALLEY":" ","HOUSE_NO":"１２６號","E_COORD97":167437.41,"N_COORD97":2548125.3199999998,"ADDRESS":"理安街１２６號","OBJECTID":624817},"geometry":{"x":167437.41000000015,"y":2548125.3200000022}},{"attributes":{"ID":624845,"DIS_CODE":0,"TOWNNAME":"安南區","LI":"大安里","LIN":"7鄰","STREET":"理安街","SECT":" ","MAREA":" ","LANE":" ","ALLEY":" ","HOUSE_NO":"１２８號","E_COORD97":167438.04999999999,"N_COORD97":2548128.5,"ADDRESS":"理安街１２８號","OBJECTID":624818},"geometry":{"x":167438.05000000168,"y":2548128.5}},{"attributes":{"ID":624846,"DIS_CODE":0,"TOWNNAME":"安南區","LI":"大安里","LIN":"7鄰","STREET":"理安街","SECT":" ","MAREA":" ","LANE":" ","ALLEY":" ","HOUSE_NO":"１３２之２號","E_COORD97":167444.91,"N_COORD97":2548138.1499999999,"ADDRESS":"理安街１３２之２號","OBJECTID":624819},"geometry":{"x":167444.91000000108,"y":2548138.1500000004}},{"attributes":{"ID":624847,"DIS_CODE":0,"TOWNNAME":"安南區","LI":"大安里","LIN":"7鄰","STREET":"理安街","SECT":" ","MAREA":" ","LANE":" ","ALLEY":" ","HOUSE_NO":"１３２號","E_COORD97":167441.60000000001,"N_COORD97":2548133.4500000002,"ADDRESS":"理安街１３２號","OBJECTID":624820},"geometry":{"x":167441.60000000056,"y":2548133.4500000011}},{"attributes":{"ID":624848,"DIS_CODE":0,"TOWNNAME":"安南區","LI":"大安里","LIN":"7鄰","STREET":"理安街","SECT":" ","MAREA":" ","LANE":" ","ALLEY":" ","HOUSE_NO":"１３２之３號","E_COORD97":167446.42999999999,"N_COORD97":2548141.3300000001,"ADDRESS":"理安街１３２之３號","OBJECTID":624821},"geometry":{"x":167446.4299999997,"y":2548141.3300000038}},{"attributes":{"ID":624849,"DIS_CODE":0,"TOWNNAME":"安南區","LI":"安順里","LIN":"19鄰","STREET":"安豐三街","SECT":" ","MAREA":" ","LANE":" ","ALLEY":" ","HOUSE_NO":"１６０號","E_COORD97":169602.51999999999,"N_COORD97":2549913.3900000001,"ADDRESS":"安豐三街１６０號","OBJECTID":624822},"geometry":{"x":169602.51999999955,"y":2549913.3900000006}},{"attributes":{"ID":624850,"DIS_CODE":0,"TOWNNAME":"安南區","LI":"大安里","LIN":"13鄰","STREET":"理安街","SECT":" ","MAREA":" ","LANE":" ","ALLEY":" ","HOUSE_NO":"２之１號","E_COORD97":167277.01000000001,"N_COORD97":2547881.8700000001,"ADDRESS":"理安街２之１號","OBJECTID":624823},"geometry":{"x":167277.00999999978,"y":2547881.8700000029}},{"attributes":{"ID":624851,"DIS_CODE":0,"TOWNNAME":"安南區","LI":"大安里","LIN":"13鄰","STREET":"理安街","SECT":" ","MAREA":" ","LANE":" ","ALLEY":" ","HOUSE_NO":"８之１號","E_COORD97":167280.57000000001,"N_COORD97":2547887.4500000002,"ADDRESS":"理安街８之１號","OBJECTID":624824},"geometry":{"x":167280.5700000003,"y":2547887.4499999993}},{"attributes":{"ID":624852,"DIS_CODE":0,"TOWNNAME":"安南區","LI":"佃西里","LIN":"13鄰","STREET":"海佃路","SECT":"四段","MAREA":" ","LANE":" ","ALLEY":" ","HOUSE_NO":"５３３號","E_COORD97":165190.29999999999,"N_COORD97":2551651.7999999998,"ADDRESS":"海佃路四段５３３號","OBJECTID":624825},"geometry":{"x":165190.30000000168,"y":2551651.8000000026}},{"attributes":{"ID":624853,"DIS_CODE":0,"TOWNNAME":"安南區","LI":"佃西里","LIN":"13鄰","STREET":"海佃路","SECT":"四段","MAREA":" ","LANE":" ","ALLEY":" ","HOUSE_NO":"５３５號","E_COORD97":165183.48000000001,"N_COORD97":2551654.02,"ADDRESS":"海佃路四段５３５號","OBJECTID":624826},"geometry":{"x":165183.48000000138,"y":2551654.0199999996}},{"attributes":{"ID":624854,"DIS_CODE":0,"TOWNNAME":"安南區","LI":"理想里","LIN":"13鄰","STREET":"海佃路","SECT":"二段","MAREA":" ","LANE":" ","ALLEY":" ","HOUSE_NO":"６８號","E_COORD97":167022.26000000001,"N_COORD97":2547968.0899999999,"ADDRESS":"海佃路二段６８號","OBJECTID":624827},"geometry":{"x":167022.25999999978,"y":2547968.0900000017}},{"attributes":{"ID":624855,"DIS_CODE":0,"TOWNNAME":"安南區","LI":"佃西里","LIN":"13鄰","STREET":"海佃路","SECT":"四段","MAREA":" ","LANE":" ","ALLEY":" ","HOUSE_NO":"５３０號","E_COORD97":165205.42000000001,"N_COORD97":2551673.1000000001,"ADDRESS":"海佃路四段５３０號","OBJECTID":624828},"geometry":{"x":165205.42000000086,"y":2551673.1000000015}},{"attributes":{"ID":624856,"DIS_CODE":0,"TOWNNAME":"安南區","LI":"佃西里","LIN":"13鄰","STREET":"海佃路","SECT":"四段","MAREA":" ","LANE":" ","ALLEY":" ","HOUSE_NO":"５０８號","E_COORD97":165265.73999999999,"N_COORD97":2551660.27,"ADDRESS":"海佃路四段５０８號","OBJECTID":624829},"geometry":{"x":165265.74000000209,"y":2551660.2699999977}},{"attributes":{"ID":624857,"DIS_CODE":0,"TOWNNAME":"安南區","LI":"佃西里","LIN":"13鄰","STREET":"公學路","SECT":"四段","MAREA":" ","LANE":" ","ALLEY":" ","HOUSE_NO":"３４１號","E_COORD97":165248.60000000001,"N_COORD97":2551707.2599999998,"ADDRESS":"公學路四段３４１號","OBJECTID":624830},"geometry":{"x":165248.59999999963,"y":2551707.2599999998}},{"attributes":{"ID":624858,"DIS_CODE":0,"TOWNNAME":"安南區","LI":"公親里","LIN":"8鄰","STREET":"公學路","SECT":"一段","MAREA":" ","LANE":" ","ALLEY":" ","HOUSE_NO":"１３９之３號","E_COORD97":168215.17999999999,"N_COORD97":2553030.2000000002,"ADDRESS":"公學路一段１３９之３號","OBJECTID":624831},"geometry":{"x":168215.18000000156,"y":2553030.1999999974}},{"attributes":{"ID":624859,"DIS_CODE":0,"TOWNNAME":"安南區","LI":"安順里","LIN":"15鄰","STREET":"育安一街","SECT":" ","MAREA":" ","LANE":" ","ALLEY":" ","HOUSE_NO":"１３２號","E_COORD97":169492.19,"N_COORD97":2549949.5800000001,"ADDRESS":"育安一街１３２號","OBJECTID":624832},"geometry":{"x":169492.18999999948,"y":2549949.5800000001}},{"attributes":{"ID":624860,"DIS_CODE":0,"TOWNNAME":"安南區","LI":"安順里","LIN":"15鄰","STREET":"育安一街","SECT":" ","MAREA":" ","LANE":" ","ALLEY":" ","HOUSE_NO":"１３４號","E_COORD97":169496.79999999999,"N_COORD97":2549955.1400000001,"ADDRESS":"育安一街１３４號","OBJECTID":624833},"geometry":{"x":169496.80000000075,"y":2549955.1400000025}},{"attributes":{"ID":624861,"DIS_CODE":0,"TOWNNAME":"安南區","LI":"安慶里","LIN":"13鄰","STREET":"安和路","SECT":"二段","MAREA":" ","LANE":" ","ALLEY":" ","HOUSE_NO":"２７之２號","E_COORD97":169417.14999999999,"N_COORD97":2548565.6200000001,"ADDRESS":"安和路二段２７之２號","OBJECTID":624834},"geometry":{"x":169417.15000000037,"y":2548565.6200000029}},{"attributes":{"ID":624862,"DIS_CODE":0,"TOWNNAME":"安南區","LI":"安順里","LIN":"15鄰","STREET":"安豐二街","SECT":" ","MAREA":" ","LANE":" ","ALLEY":" ","HOUSE_NO":"６０號","E_COORD97":169536.79999999999,"N_COORD97":2549991.5,"ADDRESS":"安豐二街６０號","OBJECTID":624835},"geometry":{"x":169536.80000000168,"y":2549991.5000000037}},{"attributes":{"ID":624863,"DIS_CODE":0,"TOWNNAME":"安南區","LI":"安順里","LIN":"15鄰","STREET":"安豐二街","SECT":" ","MAREA":" ","LANE":" ","ALLEY":" ","HOUSE_NO":"５８號","E_COORD97":169544.10000000001,"N_COORD97":2549990.8599999999,"ADDRESS":"安豐二街５８號","OBJECTID":624836},"geometry":{"x":169544.09999999963,"y":2549990.8599999994}},{"attributes":{"ID":624864,"DIS_CODE":0,"TOWNNAME":"安南區","LI":"安順里","LIN":"15鄰","STREET":"安豐二街","SECT":" ","MAREA":" ","LANE":" ","ALLEY":" ","HOUSE_NO":"５６號","E_COORD97":169551.25,"N_COORD97":2549990.0699999998,"ADDRESS":"安豐二街５６號","OBJECTID":624837},"geometry":{"x":169551.25000000093,"y":2549990.0700000003}},{"attributes":{"ID":624865,"DIS_CODE":0,"TOWNNAME":"安南區","LI":"安順里","LIN":"15鄰","STREET":"安豐二街","SECT":" ","MAREA":" ","LANE":" ","ALLEY":" ","HOUSE_NO":"５２號","E_COORD97":169559.34,"N_COORD97":2549989.4300000002,"ADDRESS":"安豐二街５２號","OBJECTID":624838},"geometry":{"x":169559.34000000078,"y":2549989.4300000016}},{"attributes":{"ID":624866,"DIS_CODE":0,"TOWNNAME":"安南區","LI":"安順里","LIN":"15鄰","STREET":"安豐二街","SECT":" ","MAREA":" ","LANE":" ","ALLEY":" ","HOUSE_NO":"７８號","E_COORD97":169485.67999999999,"N_COORD97":2549991.6600000001,"ADDRESS":"安豐二街７８號","OBJECTID":624839},"geometry":{"x":169485.68000000063,"y":2549991.660000002}},{"attributes":{"ID":624867,"DIS_CODE":0,"TOWNNAME":"安南區","LI":"安順里","LIN":"15鄰","STREET":"安豐二街","SECT":" ","MAREA":" ","LANE":" ","ALLEY":" ","HOUSE_NO":"８０號","E_COORD97":169480.76000000001,"N_COORD97":2549992.29,"ADDRESS":"安豐二街８０號","OBJECTID":624840},"geometry":{"x":169480.75999999978,"y":2549992.290000001}},{"attributes":{"ID":624868,"DIS_CODE":0,"TOWNNAME":"安南區","LI":"安順里","LIN":"15鄰","STREET":"安豐二街","SECT":" ","MAREA":" ","LANE":" ","ALLEY":" ","HOUSE_NO":"８２號","E_COORD97":169474.89000000001,"N_COORD97":2549992.77,"ADDRESS":"安豐二街８２號","OBJECTID":624841},"geometry":{"x":169474.89000000153,"y":2549992.7700000014}},{"attributes":{"ID":624869,"DIS_CODE":0,"TOWNNAME":"安南區","LI":"安順里","LIN":"15鄰","STREET":"安豐二街","SECT":" ","MAREA":" ","LANE":" ","ALLEY":" ","HOUSE_NO":"８６號","E_COORD97":169468.70000000001,"N_COORD97":2549993.0800000001,"ADDRESS":"安豐二街８６號","OBJECTID":624842},"geometry":{"x":169468.70000000112,"y":2549993.0800000001}},{"attributes":{"ID":624870,"DIS_CODE":0,"TOWNNAME":"安南區","LI":"安順里","LIN":"19鄰","STREET":"安豐三街","SECT":" ","MAREA":" ","LANE":" ","ALLEY":" ","HOUSE_NO":"１６２號","E_COORD97":169612.84,"N_COORD97":2549912.7599999998,"ADDRESS":"安豐三街１６２號","OBJECTID":624843},"geometry":{"x":169612.84000000171,"y":2549912.7600000016}},{"attributes":{"ID":624871,"DIS_CODE":0,"TOWNNAME":"安南區","LI":"安順里","LIN":"19鄰","STREET":"安豐三街","SECT":" ","MAREA":" ","LANE":" ","ALLEY":" ","HOUSE_NO":"１６６號","E_COORD97":169620.45999999999,"N_COORD97":2549911.4900000002,"ADDRESS":"安豐三街１６６號","OBJECTID":624844},"geometry":{"x":169620.45999999903,"y":2549911.4900000021}},{"attributes":{"ID":624872,"DIS_CODE":0,"TOWNNAME":"安南區","LI":"安順里","LIN":"19鄰","STREET":"安豐三街","SECT":" ","MAREA":" ","LANE":" ","ALLEY":" ","HOUSE_NO":"１６８號","E_COORD97":169626.64999999999,"N_COORD97":2549911.3300000001,"ADDRESS":"安豐三街１６８號","OBJECTID":624845},"geometry":{"x":169626.6500000013,"y":2549911.3300000038}},{"attributes":{"ID":624873,"DIS_CODE":0,"TOWNNAME":"安南區","LI":"安順里","LIN":"19鄰","STREET":"安豐三街","SECT":" ","MAREA":" ","LANE":" ","ALLEY":" ","HOUSE_NO":"１７０號","E_COORD97":169633.48000000001,"N_COORD97":2549910.8500000001,"ADDRESS":"安豐三街１７０號","OBJECTID":624846},"geometry":{"x":169633.48000000138,"y":2549910.8500000015}},{"attributes":{"ID":624874,"DIS_CODE":0,"TOWNNAME":"安南區","LI":"安順里","LIN":"19鄰","STREET":"安豐三街","SECT":" ","MAREA":" ","LANE":" ","ALLEY":" ","HOUSE_NO":"１７２號","E_COORD97":169638.56,"N_COORD97":2549910.6899999999,"ADDRESS":"安豐三街１７２號","OBJECTID":624847},"geometry":{"x":169638.56000000052,"y":2549910.6899999995}},{"attributes":{"ID":624875,"DIS_CODE":0,"TOWNNAME":"安南區","LI":"安順里","LIN":"19鄰","STREET":"安豐三街","SECT":" ","MAREA":" ","LANE":" ","ALLEY":" ","HOUSE_NO":"１７６號","E_COORD97":169644.59,"N_COORD97":2549910.2200000002,"ADDRESS":"安豐三街１７６號","OBJECTID":624848},"geometry":{"x":169644.58999999985,"y":2549910.2200000025}},{"attributes":{"ID":624876,"DIS_CODE":0,"TOWNNAME":"安南區","LI":"安順里","LIN":"19鄰","STREET":"安豐三街","SECT":" ","MAREA":" ","LANE":" ","ALLEY":" ","HOUSE_NO":"１７８號","E_COORD97":169652.37,"N_COORD97":2549909.5800000001,"ADDRESS":"安豐三街１７８號","OBJECTID":624849},"geometry":{"x":169652.37000000104,"y":2549909.5800000038}},{"attributes":{"ID":624877,"DIS_CODE":0,"TOWNNAME":"安南區","LI":"安順里","LIN":"19鄰","STREET":"安豐三街","SECT":" ","MAREA":" ","LANE":" ","ALLEY":" ","HOUSE_NO":"１９２號","E_COORD97":169690.31,"N_COORD97":2549907.6800000002,"ADDRESS":"安豐三街１９２號","OBJECTID":624850},"geometry":{"x":169690.30999999959,"y":2549907.6799999997}},{"attributes":{"ID":624878,"DIS_CODE":0,"TOWNNAME":"安南區","LI":"安順里","LIN":"18鄰","STREET":"育安二街","SECT":" ","MAREA":" ","LANE":" ","ALLEY":" ","HOUSE_NO":"１０３號","E_COORD97":169657.76999999999,"N_COORD97":2549932.9199999999,"ADDRESS":"育安二街１０３號","OBJECTID":624851},"geometry":{"x":169657.77000000048,"y":2549932.9199999999}},{"attributes":{"ID":624879,"DIS_CODE":0,"TOWNNAME":"安南區","LI":"安順里","LIN":"20鄰","STREET":"育安街","SECT":" ","MAREA":" ","LANE":" ","ALLEY":" ","HOUSE_NO":"１６７號","E_COORD97":169559.66,"N_COORD97":2549973.0800000001,"ADDRESS":"育安街１６７號","OBJECTID":624852},"geometry":{"x":169559.66000000015,"y":2549973.0800000001}},{"attributes":{"ID":624880,"DIS_CODE":0,"TOWNNAME":"安南區","LI":"安順里","LIN":"20鄰","STREET":"育安街","SECT":" ","MAREA":" ","LANE":" ","ALLEY":" ","HOUSE_NO":"１６１號","E_COORD97":169558.87,"N_COORD97":2549961.8100000001,"ADDRESS":"育安街１６１號","OBJECTID":624853},"geometry":{"x":169558.87000000104,"y":2549961.8100000005}},{"attributes":{"ID":624881,"DIS_CODE":0,"TOWNNAME":"安南區","LI":"安慶里","LIN":"13鄰","STREET":"安和路","SECT":"二段","MAREA":" ","LANE":" ","ALLEY":" ","HOUSE_NO":"７９號","E_COORD97":169486.56,"N_COORD97":2548737.1899999999,"ADDRESS":"安和路二段７９號","OBJECTID":624854},"geometry":{"x":169486.55999999959,"y":2548737.1899999995}},{"attributes":{"ID":624882,"DIS_CODE":0,"TOWNNAME":"安南區","LI":"安慶里","LIN":"13鄰","STREET":"安和路","SECT":"二段","MAREA":" ","LANE":" ","ALLEY":" ","HOUSE_NO":"４１之３號","E_COORD97":169429.67000000001,"N_COORD97":2548613.8799999999,"ADDRESS":"安和路二段４１之３號","OBJECTID":624855},"geometry":{"x":169429.67000000086,"y":2548613.879999999}},{"attributes":{"ID":624883,"DIS_CODE":0,"TOWNNAME":"安南區","LI":"安慶里","LIN":"13鄰","STREET":"安和路","SECT":"二段","MAREA":" ","LANE":" ","ALLEY":" ","HOUSE_NO":"７７號","E_COORD97":169484.14999999999,"N_COORD97":2548731.73,"ADDRESS":"安和路二段７７號","OBJECTID":624856},"geometry":{"x":169484.15000000224,"y":2548731.7300000004}},{"attributes":{"ID":624884,"DIS_CODE":0,"TOWNNAME":"安南區","LI":"安慶里","LIN":"13鄰","STREET":"安和路","SECT":"二段","MAREA":" ","LANE":" ","ALLEY":" ","HOUSE_NO":"６３號","E_COORD97":169452.53,"N_COORD97":2548671.5299999998,"ADDRESS":"安和路二段６３號","OBJECTID":624857},"geometry":{"x":169452.53000000212,"y":2548671.5300000031}},{"attributes":{"ID":624885,"DIS_CODE":0,"TOWNNAME":"安南區","LI":"安順里","LIN":"15鄰","STREET":"育安街","SECT":" ","MAREA":" ","LANE":" ","ALLEY":" ","HOUSE_NO":"１６９號","E_COORD97":169567.44,"N_COORD97":2549988.7999999998,"ADDRESS":"育安街１６９號","OBJECTID":624858},"geometry":{"x":169567.44000000134,"y":2549988.8000000007}},{"attributes":{"ID":624886,"DIS_CODE":0,"TOWNNAME":"安南區","LI":"安順里","LIN":"15鄰","STREET":"育安街","SECT":" ","MAREA":" ","LANE":" ","ALLEY":" ","HOUSE_NO":"１８７號","E_COORD97":169570.78,"N_COORD97":2550028.4900000002,"ADDRESS":"育安街１８７號","OBJECTID":624859},"geometry":{"x":169570.78000000026,"y":2550028.4900000002}},{"attributes":{"ID":624887,"DIS_CODE":0,"TOWNNAME":"安南區","LI":"安順里","LIN":"15鄰","STREET":"育安街","SECT":" ","MAREA":" ","LANE":" ","ALLEY":" ","HOUSE_NO":"１８１號","E_COORD97":169569.35000000001,"N_COORD97":2550013.0899999999,"ADDRESS":"育安街１８１號","OBJECTID":624860},"geometry":{"x":169569.34999999963,"y":2550013.0899999999}},{"attributes":{"ID":624888,"DIS_CODE":0,"TOWNNAME":"安南區","LI":"安順里","LIN":"15鄰","STREET":"育安街","SECT":" ","MAREA":" ","LANE":" ","ALLEY":" ","HOUSE_NO":"１８３號","E_COORD97":169569.66,"N_COORD97":2550018.3300000001,"ADDRESS":"育安街１８３號","OBJECTID":624861},"geometry":{"x":169569.66000000015,"y":2550018.3300000001}},{"attributes":{"ID":624889,"DIS_CODE":0,"TOWNNAME":"安南區","LI":"安順里","LIN":"15鄰","STREET":"育安街","SECT":" ","MAREA":" ","LANE":" ","ALLEY":" ","HOUSE_NO":"１８５號","E_COORD97":169570.45999999999,"N_COORD97":2550023.5600000001,"ADDRESS":"育安街１８５號","OBJECTID":624862},"geometry":{"x":169570.46000000089,"y":2550023.5600000024}},{"attributes":{"ID":624890,"DIS_CODE":0,"TOWNNAME":"安南區","LI":"安順里","LIN":"15鄰","STREET":"育安街","SECT":" ","MAREA":" ","LANE":" ","ALLEY":" ","HOUSE_NO":"１７５號","E_COORD97":169569.03,"N_COORD97":2550006.1000000001,"ADDRESS":"育安街１７５號","OBJECTID":624863},"geometry":{"x":169569.03000000026,"y":2550006.0999999996}},{"attributes":{"ID":624891,"DIS_CODE":0,"TOWNNAME":"安南區","LI":"安順里","LIN":"15鄰","STREET":"育安街","SECT":" ","MAREA":" ","LANE":" ","ALLEY":" ","HOUSE_NO":"１７１號","E_COORD97":169568.07999999999,"N_COORD97":2549993.5600000001,"ADDRESS":"育安街１７１號","OBJECTID":624864},"geometry":{"x":169568.08000000101,"y":2549993.5600000005}},{"attributes":{"ID":624892,"DIS_CODE":0,"TOWNNAME":"安南區","LI":"安順里","LIN":"15鄰","STREET":"育安街","SECT":" ","MAREA":" ","LANE":" ","ALLEY":" ","HOUSE_NO":"１７３號","E_COORD97":169568.23999999999,"N_COORD97":2549998.48,"ADDRESS":"育安街１７３號","OBJECTID":624865},"geometry":{"x":169568.24000000115,"y":2549998.4799999986}},{"attributes":{"ID":624893,"DIS_CODE":0,"TOWNNAME":"安南區","LI":"淵西里","LIN":"16鄰","STREET":"安中路","SECT":"四段","MAREA":" ","LANE":" ","ALLEY":" ","HOUSE_NO":"２２７號","E_COORD97":164675.26000000001,"N_COORD97":2550127.6600000001,"ADDRESS":"安中路四段２２７號","OBJECTID":624866},"geometry":{"x":164675.26000000164,"y":2550127.660000002}},{"attributes":{"ID":624894,"DIS_CODE":0,"TOWNNAME":"安南區","LI":"淵西里","LIN":"16鄰","STREET":"安中路","SECT":"四段","MAREA":" ","LANE":" ","ALLEY":" ","HOUSE_NO":"２２９號","E_COORD97":164671.87,"N_COORD97":2550128.8500000001,"ADDRESS":"安中路四段２２９號","OBJECTID":624867},"geometry":{"x":164671.87000000104,"y":2550128.8500000015}},{"attributes":{"ID":624895,"DIS_CODE":0,"TOWNNAME":"安南區","LI":"安順里","LIN":"2鄰","STREET":"總安街","SECT":"一段","MAREA":" ","LANE":" ","ALLEY":" ","HOUSE_NO":"４６號","E_COORD97":169864.14999999999,"N_COORD97":2550121.8300000001,"ADDRESS":"總安街一段４６號","OBJECTID":624868},"geometry":{"x":169864.1500000013,"y":2550121.8300000019}},{"attributes":{"ID":624896,"DIS_CODE":0,"TOWNNAME":"安南區","LI":"安順里","LIN":"2鄰","STREET":"總安街","SECT":"一段","MAREA":" ","LANE":" ","ALLEY":" ","HOUSE_NO":"４２號","E_COORD97":169875.73999999999,"N_COORD97":2550120.3999999999,"ADDRESS":"總安街一段４２號","OBJECTID":624869},"geometry":{"x":169875.74000000115,"y":2550120.4000000004}},{"attributes":{"ID":624897,"DIS_CODE":0,"TOWNNAME":"安南區","LI":"安順里","LIN":"2鄰","STREET":"總安街","SECT":"一段","MAREA":" ","LANE":" ","ALLEY":" ","HOUSE_NO":"４２之１號","E_COORD97":169868.75,"N_COORD97":2550121.04,"ADDRESS":"總安街一段４２之１號","OBJECTID":624870},"geometry":{"x":169868.75,"y":2550121.0399999991}},{"attributes":{"ID":624898,"DIS_CODE":0,"TOWNNAME":"安南區","LI":"佃東里","LIN":"18鄰","STREET":"公學路","SECT":"三段","MAREA":" ","LANE":" ","ALLEY":" ","HOUSE_NO":"２１號","E_COORD97":166904.54000000001,"N_COORD97":2552124.3300000001,"ADDRESS":"公學路三段２１號","OBJECTID":624871},"geometry":{"x":166904.54000000097,"y":2552124.3300000001}},{"attributes":{"ID":624899,"DIS_CODE":0,"TOWNNAME":"安南區","LI":"淵東里","LIN":"1鄰","STREET":"海佃路","SECT":"四段","MAREA":" ","LANE":" ","ALLEY":" ","HOUSE_NO":"２號","E_COORD97":165805.32000000001,"N_COORD97":2550484.1800000002,"ADDRESS":"海佃路四段２號","OBJECTID":624872},"geometry":{"x":165805.3200000003,"y":2550484.1799999997}},{"attributes":{"ID":624900,"DIS_CODE":0,"TOWNNAME":"安南區","LI":"溪北里","LIN":"4鄰","STREET":"文安街","SECT":" ","MAREA":" ","LANE":" ","ALLEY":" ","HOUSE_NO":"６６號","E_COORD97":169340.75,"N_COORD97":2547493.1899999999,"ADDRESS":"文安街６６號","OBJECTID":624873},"geometry":{"x":169340.75000000093,"y":2547493.1899999995}},{"attributes":{"ID":624901,"DIS_CODE":0,"TOWNNAME":"安南區","LI":"城東里","LIN":"14鄰","STREET":"城安路","SECT":" ","MAREA":" ","LANE":" ","ALLEY":" ","HOUSE_NO":"１６０號","E_COORD97":160578.57999999999,"N_COORD97":2551950.5899999999,"ADDRESS":"城安路１６０號","OBJECTID":624874},"geometry":{"x":160578.58000000007,"y":2551950.5900000017}},{"attributes":{"ID":624902,"DIS_CODE":0,"TOWNNAME":"安南區","LI":"學東里","LIN":"4鄰","STREET":"公學路","SECT":"六段","MAREA":" ","LANE":" ","ALLEY":" ","HOUSE_NO":"４７５之１號","E_COORD97":162662.64000000001,"N_COORD97":2553189.4199999999,"ADDRESS":"公學路六段４７５之１號","OBJECTID":624875},"geometry":{"x":162662.6400000006,"y":2553189.4200000018}},{"attributes":{"ID":624903,"DIS_CODE":0,"TOWNNAME":"安南區","LI":"城東里","LIN":"1鄰","STREET":"安明路","SECT":"四段","MAREA":" ","LANE":" ","ALLEY":" ","HOUSE_NO":"８３９號","E_COORD97":161367.04999999999,"N_COORD97":2553074.8300000001,"ADDRESS":"安明路四段８３９號","OBJECTID":624876},"geometry":{"x":161367.04999999981,"y":2553074.8300000019}},{"attributes":{"ID":624904,"DIS_CODE":0,"TOWNNAME":"安南區","LI":"城東里","LIN":"1鄰","STREET":"安明路","SECT":"四段","MAREA":" ","LANE":" ","ALLEY":" ","HOUSE_NO":"８４１號","E_COORD97":161376.39702199999,"N_COORD97":2553076.20175,"ADDRESS":"安明路四段８４１號","OBJECTID":624877},"geometry":{"x":161376.39702200051,"y":2553076.2017510012}},{"attributes":{"ID":624905,"DIS_CODE":0,"TOWNNAME":"安南區","LI":"學東里","LIN":"17鄰","STREET":"城北路","SECT":" ","MAREA":" ","LANE":" ","ALLEY":" ","HOUSE_NO":"５４２之３號","E_COORD97":160924.14999999999,"N_COORD97":2552559.1400000001,"ADDRESS":"城北路５４２之３號","OBJECTID":624878},"geometry":{"x":160924.1500000013,"y":2552559.1400000025}},{"attributes":{"ID":624906,"DIS_CODE":0,"TOWNNAME":"中西區","LI":"青年里","LIN":"5鄰","STREET":"武德街","SECT":" ","MAREA":" ","LANE":" ","ALLEY":" ","HOUSE_NO":"７號","E_COORD97":168961.41,"N_COORD97":2543647.2200000002,"ADDRESS":"武德街７號","OBJECTID":624879},"geometry":{"x":168961.41000000015,"y":2543647.2200000044}},{"attributes":{"ID":624907,"DIS_CODE":0,"TOWNNAME":"安南區","LI":"城東里","LIN":"14鄰","STREET":"城北路","SECT":" ","MAREA":" ","LANE":" ","ALLEY":" ","HOUSE_NO":"４３４之２０號","E_COORD97":160914.85999999999,"N_COORD97":2552350.5299999998,"ADDRESS":"城北路４３４之２０號","OBJECTID":624880},"geometry":{"x":160914.86000000034,"y":2552350.5300000012}},{"attributes":{"ID":624908,"DIS_CODE":0,"TOWNNAME":"安南區","LI":"城東里","LIN":"14鄰","STREET":"城安路","SECT":" ","MAREA":" ","LANE":" ","ALLEY":" ","HOUSE_NO":"１６０之１號","E_COORD97":160686.76999999999,"N_COORD97":2551938.9199999999,"ADDRESS":"城安路１６０之１號","OBJECTID":624881},"geometry":{"x":160686.77000000048,"y":2551938.9200000018}},{"attributes":{"ID":624909,"DIS_CODE":0,"TOWNNAME":"安南區","LI":"城東里","LIN":"14鄰","STREET":"城安路","SECT":" ","MAREA":" ","LANE":" ","ALLEY":" ","HOUSE_NO":"１６０之３號","E_COORD97":160692.95999999999,"N_COORD97":2551939.0800000001,"ADDRESS":"城安路１６０之３號","OBJECTID":624882},"geometry":{"x":160692.95999999996,"y":2551939.0800000001}},{"attributes":{"ID":624910,"DIS_CODE":0,"TOWNNAME":"安南區","LI":"城東里","LIN":"14鄰","STREET":"城安路","SECT":" ","MAREA":" ","LANE":" ","ALLEY":" ","HOUSE_NO":"１６０之５號","E_COORD97":160698.20000000001,"N_COORD97":2551939.8700000001,"ADDRESS":"城安路１６０之５號","OBJECTID":624883},"geometry":{"x":160698.20000000112,"y":2551939.8700000029}},{"attributes":{"ID":624911,"DIS_CODE":0,"TOWNNAME":"安南區","LI":"原佃里","LIN":"4鄰","STREET":"本原街","SECT":"一段","MAREA":" ","LANE":" ","ALLEY":" ","HOUSE_NO":"４６號之１","E_COORD97":168118.25,"N_COORD97":2550198.1299999999,"ADDRESS":"本原街一段４６號之１","OBJECTID":624884},"geometry":{"x":168118.24999999907,"y":2550198.129999999}},{"attributes":{"ID":624912,"DIS_CODE":0,"TOWNNAME":"安南區","LI":"安慶里","LIN":"14鄰","STREET":"安中路","SECT":"一段","MAREA":" ","LANE":" ","ALLEY":" ","HOUSE_NO":"１２６之１號","E_COORD97":168918.23000000001,"N_COORD97":2548428.0499999998,"ADDRESS":"安中路一段１２６之１號","OBJECTID":624885},"geometry":{"x":168918.23000000138,"y":2548428.0500000007}},{"attributes":{"ID":624913,"DIS_CODE":0,"TOWNNAME":"安南區","LI":"安慶里","LIN":"13鄰","STREET":"怡安路","SECT":"一段","MAREA":" ","LANE":" ","ALLEY":" ","HOUSE_NO":"１１３號","E_COORD97":169307.23999999999,"N_COORD97":2548997.6400000001,"ADDRESS":"怡安路一段１１３號","OBJECTID":624886},"geometry":{"x":169307.24000000115,"y":2548997.6400000043}},{"attributes":{"ID":624914,"DIS_CODE":0,"TOWNNAME":"安南區","LI":"安慶里","LIN":"32鄰","STREET":"頂安街","SECT":" ","MAREA":" ","LANE":" ","ALLEY":" ","HOUSE_NO":"４０５之１號","E_COORD97":168987.48000000001,"N_COORD97":2549357.7400000002,"ADDRESS":"頂安街４０５之１號","OBJECTID":624887},"geometry":{"x":168987.48000000138,"y":2549357.7400000002}},{"attributes":{"ID":624915,"DIS_CODE":0,"TOWNNAME":"安南區","LI":"安慶里","LIN":"13鄰","STREET":"培安路","SECT":" ","MAREA":" ","LANE":" ","ALLEY":" ","HOUSE_NO":"２８９號","E_COORD97":169335,"N_COORD97":2548837.5699999998,"ADDRESS":"培安路２８９號","OBJECTID":624888},"geometry":{"x":169335,"y":2548837.5700000003}},{"attributes":{"ID":624916,"DIS_CODE":0,"TOWNNAME":"安南區","LI":"安順里","LIN":"17鄰","STREET":"開安三街","SECT":" ","MAREA":" ","LANE":" ","ALLEY":" ","HOUSE_NO":"４２號","E_COORD97":170648.35000000001,"N_COORD97":2549754.5499999998,"ADDRESS":"開安三街４２號","OBJECTID":624889},"geometry":{"x":170648.35000000149,"y":2549754.5500000045}},{"attributes":{"ID":624917,"DIS_CODE":0,"TOWNNAME":"東區","LI":"裕聖里","LIN":"14鄰","STREET":"裕敬三街","SECT":" ","MAREA":" ","LANE":" ","ALLEY":" ","HOUSE_NO":"９０號","E_COORD97":172789.20999999999,"N_COORD97":2542455.3599999999,"ADDRESS":"裕敬三街９０號","OBJECTID":624890},"geometry":{"x":172789.21000000089,"y":2542455.3600000013}},{"attributes":{"ID":624918,"DIS_CODE":0,"TOWNNAME":"安南區","LI":"城西里","LIN":"6鄰","STREET":"城西街","SECT":"三段","MAREA":" ","LANE":" ","ALLEY":" ","HOUSE_NO":"４６９號","E_COORD97":157239.23000000001,"N_COORD97":2550854.5299999998,"ADDRESS":"城西街三段４６９號","OBJECTID":624891},"geometry":{"x":157239.23000000231,"y":2550854.5299999993}},{"attributes":{"ID":624919,"DIS_CODE":0,"TOWNNAME":"仁德區","LI":"成功里","LIN":"20鄰","STREET":"成功一街","SECT":" ","MAREA":" ","LANE":" ","ALLEY":" ","HOUSE_NO":"８０號","E_COORD97":170518.66,"N_COORD97":2539866.0099999998,"ADDRESS":"成功一街８０號","OBJECTID":624892},"geometry":{"x":170518.66000000108,"y":2539866.0099999998}},{"attributes":{"ID":624920,"DIS_CODE":0,"TOWNNAME":"安南區","LI":"安順里","LIN":"12鄰","STREET":"安和路","SECT":"三段","MAREA":" ","LANE":" ","ALLEY":" ","HOUSE_NO":"１９２號之１０","E_COORD97":169949.04999999999,"N_COORD97":2549955.23,"ADDRESS":"安和路三段１９２號之１０","OBJECTID":624893},"geometry":{"x":169949.05000000075,"y":2549955.2300000004}},{"attributes":{"ID":624921,"DIS_CODE":0,"TOWNNAME":"安南區","LI":"城南里","LIN":"14鄰","STREET":"城南路","SECT":" ","MAREA":" ","LANE":" ","ALLEY":" ","HOUSE_NO":"２３９號","E_COORD97":160232.29000000001,"N_COORD97":2550834.77,"ADDRESS":"城南路２３９號","OBJECTID":624894},"geometry":{"x":160232.29000000097,"y":2550834.7700000014}},{"attributes":{"ID":624922,"DIS_CODE":0,"TOWNNAME":"安南區","LI":"海東里","LIN":"4鄰","STREET":"海中街","SECT":" ","MAREA":" ","LANE":" ","ALLEY":" ","HOUSE_NO":"１７２號","E_COORD97":166302.81,"N_COORD97":2549242.4700000002,"ADDRESS":"海中街１７２號","OBJECTID":624895},"geometry":{"x":166302.81000000052,"y":2549242.4700000007}},{"attributes":{"ID":624923,"DIS_CODE":0,"TOWNNAME":"安南區","LI":"東和里","LIN":"7鄰","STREET":"慶和路","SECT":"一段","MAREA":" ","LANE":" ","ALLEY":" ","HOUSE_NO":"５號","E_COORD97":172497.25,"N_COORD97":2551574.0899999999,"ADDRESS":"慶和路一段５號","OBJECTID":624896},"geometry":{"x":172497.25000000093,"y":2551574.0900000036}},{"attributes":{"ID":624924,"DIS_CODE":0,"TOWNNAME":"安南區","LI":"\u25A0田里","LIN":"6鄰","STREET":"\u25A0田五街","SECT":" ","MAREA":" ","LANE":" ","ALLEY":" ","HOUSE_NO":"２號","E_COORD97":162630.94,"N_COORD97":2548308.2000000002,"ADDRESS":"\u25A0田五街２號","OBJECTID":624897},"geometry":{"x":162630.94000000134,"y":2548308.2000000011}},{"attributes":{"ID":624925,"DIS_CODE":0,"TOWNNAME":"安南區","LI":"安富里","LIN":"32鄰","STREET":"府安路","SECT":"五段","MAREA":" ","LANE":" ","ALLEY":" ","HOUSE_NO":"１６０號","E_COORD97":167793.82999999999,"N_COORD97":2547032.6800000002,"ADDRESS":"府安路五段１６０號","OBJECTID":624898},"geometry":{"x":167793.83000000007,"y":2547032.6799999997}},{"attributes":{"ID":624926,"DIS_CODE":0,"TOWNNAME":"安南區","LI":"安富里","LIN":"32鄰","STREET":"府安路","SECT":"五段","MAREA":" ","LANE":" ","ALLEY":" ","HOUSE_NO":"１６１號","E_COORD97":167789.64000000001,"N_COORD97":2547031.54,"ADDRESS":"府安路五段１６１號","OBJECTID":624899},"geometry":{"x":167789.63999999966,"y":2547031.540000001}},{"attributes":{"ID":624927,"DIS_CODE":0,"TOWNNAME":"安南區","LI":"溪心里","LIN":"18鄰","STREET":"仁安二街","SECT":" ","MAREA":" ","LANE":" ","ALLEY":" ","HOUSE_NO":"１３號","E_COORD97":165943.38,"N_COORD97":2550108.8999999999,"ADDRESS":"仁安二街１３號","OBJECTID":624900},"geometry":{"x":165943.37999999989,"y":2550108.9000000022}},{"attributes":{"ID":624928,"DIS_CODE":0,"TOWNNAME":"安南區","LI":"淵東里","LIN":"14鄰","STREET":"仁安一街","SECT":" ","MAREA":" ","LANE":" ","ALLEY":" ","HOUSE_NO":"１８號","E_COORD97":165624.25,"N_COORD97":2550237.21,"ADDRESS":"仁安一街１８號","OBJECTID":624901},"geometry":{"x":165624.25,"y":2550237.2100000009}},{"attributes":{"ID":624929,"DIS_CODE":0,"TOWNNAME":"安南區","LI":"淵東里","LIN":"14鄰","STREET":"仁安一街","SECT":" ","MAREA":" ","LANE":" ","ALLEY":" ","HOUSE_NO":"３０號","E_COORD97":165652.79000000001,"N_COORD97":2550246.3900000001,"ADDRESS":"仁安一街３０號","OBJECTID":624902},"geometry":{"x":165652.79000000004,"y":2550246.3900000006}},{"attributes":{"ID":624930,"DIS_CODE":0,"TOWNNAME":"安南區","LI":"溪心里","LIN":"17鄰","STREET":"仁安路","SECT":" ","MAREA":" ","LANE":" ","ALLEY":" ","HOUSE_NO":"２５６號","E_COORD97":166007.20000000001,"N_COORD97":2550262.2000000002,"ADDRESS":"仁安路２５６號","OBJECTID":624903},"geometry":{"x":166007.20000000112,"y":2550262.1999999993}},{"attributes":{"ID":624931,"DIS_CODE":0,"TOWNNAME":"安南區","LI":"溪心里","LIN":"18鄰","STREET":"仁安二街","SECT":" ","MAREA":" ","LANE":" ","ALLEY":" ","HOUSE_NO":"３８號","E_COORD97":165998.5,"N_COORD97":2550125.9199999999,"ADDRESS":"仁安二街３８號","OBJECTID":624904},"geometry":{"x":165998.50000000093,"y":2550125.9199999999}},{"attributes":{"ID":624932,"DIS_CODE":0,"TOWNNAME":"安南區","LI":"新順里","LIN":"1鄰","STREET":"培安四街","SECT":" ","MAREA":" ","LANE":" ","ALLEY":" ","HOUSE_NO":"１００號","E_COORD97":169482.79000000001,"N_COORD97":2549766.9700000002,"ADDRESS":"培安四街１００號","OBJECTID":624905},"geometry":{"x":169482.7900000019,"y":2549766.9700000007}},{"attributes":{"ID":624933,"DIS_CODE":0,"TOWNNAME":"安南區","LI":"新順里","LIN":"1鄰","STREET":"培安四街","SECT":" ","MAREA":" ","LANE":" ","ALLEY":" ","HOUSE_NO":"１０２號","E_COORD97":169488.09,"N_COORD97":2549759.48,"ADDRESS":"培安四街１０２號","OBJECTID":624906},"geometry":{"x":169488.09000000078,"y":2549759.4800000023}},{"attributes":{"ID":624934,"DIS_CODE":0,"TOWNNAME":"安南區","LI":"新順里","LIN":"1鄰","STREET":"培安四街","SECT":" ","MAREA":" ","LANE":" ","ALLEY":" ","HOUSE_NO":"１０６號","E_COORD97":169491.45000000001,"N_COORD97":2549761.5,"ADDRESS":"培安四街１０６號","OBJECTID":624907},"geometry":{"x":169491.45000000019,"y":2549761.5000000019}},{"attributes":{"ID":624935,"DIS_CODE":0,"TOWNNAME":"安南區","LI":"新順里","LIN":"1鄰","STREET":"培安四街","SECT":" ","MAREA":" ","LANE":" ","ALLEY":" ","HOUSE_NO":"１０８號","E_COORD97":169494.67000000001,"N_COORD97":2549763.8700000001,"ADDRESS":"培安四街１０８號","OBJECTID":624908},"geometry":{"x":169494.66999999993,"y":2549763.8700000029}},{"attributes":{"ID":624936,"DIS_CODE":0,"TOWNNAME":"安南區","LI":"新順里","LIN":"1鄰","STREET":"培安四街","SECT":" ","MAREA":" ","LANE":" ","ALLEY":" ","HOUSE_NO":"１１０號","E_COORD97":169497.89000000001,"N_COORD97":2549767.0800000001,"ADDRESS":"培安四街１１０號","OBJECTID":624909},"geometry":{"x":169497.88999999966,"y":2549767.0800000038}},{"attributes":{"ID":624937,"DIS_CODE":0,"TOWNNAME":"安南區","LI":"新順里","LIN":"1鄰","STREET":"培安四街","SECT":" ","MAREA":" ","LANE":" ","ALLEY":" ","HOUSE_NO":"１１２號","E_COORD97":169501.78,"N_COORD97":2549769.2799999998,"ADDRESS":"培安四街１１２號","OBJECTID":624910},"geometry":{"x":169501.78000000212,"y":2549769.2800000012}},{"attributes":{"ID":624938,"DIS_CODE":0,"TOWNNAME":"東區","LI":"裕聖里","LIN":"17鄰","STREET":"裕信路","SECT":" ","MAREA":" ","LANE":" ","ALLEY":" ","HOUSE_NO":"３４５號","E_COORD97":172615.5,"N_COORD97":2542181.79,"ADDRESS":"裕信路３４５號","OBJECTID":624911},"geometry":{"x":172615.5,"y":2542181.790000001}},{"attributes":{"ID":624939,"DIS_CODE":0,"TOWNNAME":"東區","LI":"裕聖里","LIN":"17鄰","STREET":"裕信路","SECT":" ","MAREA":" ","LANE":" ","ALLEY":" ","HOUSE_NO":"３４７號","E_COORD97":172615.5,"N_COORD97":2542177,"ADDRESS":"裕信路３４７號","OBJECTID":624912},"geometry":{"x":172615.5,"y":2542177.0000000019}},{"attributes":{"ID":624940,"DIS_CODE":0,"TOWNNAME":"東區","LI":"裕聖里","LIN":"4鄰","STREET":"裕敬三街","SECT":" ","MAREA":" ","LANE":" ","ALLEY":" ","HOUSE_NO":"５１號","E_COORD97":172760.39999999999,"N_COORD97":2542340.2599999998,"ADDRESS":"裕敬三街５１號","OBJECTID":624913},"geometry":{"x":172760.40000000037,"y":2542340.2599999998}},{"attributes":{"ID":624941,"DIS_CODE":0,"TOWNNAME":"東區","LI":"裕聖里","LIN":"4鄰","STREET":"裕敬三街","SECT":" ","MAREA":" ","LANE":" ","ALLEY":" ","HOUSE_NO":"５３號","E_COORD97":172756.29999999999,"N_COORD97":2542343.4700000002,"ADDRESS":"裕敬三街５３號","OBJECTID":624914},"geometry":{"x":172756.30000000075,"y":2542343.4700000044}},{"attributes":{"ID":624942,"DIS_CODE":0,"TOWNNAME":"東區","LI":"裕聖里","LIN":"4鄰","STREET":"裕敬三街","SECT":" ","MAREA":" ","LANE":" ","ALLEY":" ","HOUSE_NO":"５５號","E_COORD97":172750.07000000001,"N_COORD97":2542340.7999999998,"ADDRESS":"裕敬三街５５號","OBJECTID":624915},"geometry":{"x":172750.07000000123,"y":2542340.8000000007}},{"attributes":{"ID":624943,"DIS_CODE":0,"TOWNNAME":"東區","LI":"裕聖里","LIN":"4鄰","STREET":"裕敬三街","SECT":" ","MAREA":" ","LANE":" ","ALLEY":" ","HOUSE_NO":"５７號","E_COORD97":172746.14999999999,"N_COORD97":2542342.9300000002,"ADDRESS":"裕敬三街５７號","OBJECTID":624916},"geometry":{"x":172746.1500000013,"y":2542342.9300000034}},{"attributes":{"ID":624944,"DIS_CODE":0,"TOWNNAME":"東區","LI":"裕聖里","LIN":"4鄰","STREET":"裕敬三街","SECT":" ","MAREA":" ","LANE":" ","ALLEY":" ","HOUSE_NO":"５９號","E_COORD97":172740.79999999999,"N_COORD97":2542339.9100000001,"ADDRESS":"裕敬三街５９號","OBJECTID":624917},"geometry":{"x":172740.80000000075,"y":2542339.9100000039}},{"attributes":{"ID":624945,"DIS_CODE":0,"TOWNNAME":"東區","LI":"裕聖里","LIN":"4鄰","STREET":"裕敬三街","SECT":" ","MAREA":" ","LANE":" ","ALLEY":" ","HOUSE_NO":"６１號","E_COORD97":172737.23000000001,"N_COORD97":2542342.9300000002,"ADDRESS":"裕敬三街６１號","OBJECTID":624918},"geometry":{"x":172737.23000000138,"y":2542342.9300000034}},{"attributes":{"ID":624946,"DIS_CODE":0,"TOWNNAME":"東區","LI":"裕聖里","LIN":"4鄰","STREET":"裕敬三街","SECT":" ","MAREA":" ","LANE":" ","ALLEY":" ","HOUSE_NO":"６３號","E_COORD97":172731.53,"N_COORD97":2542340.7999999998,"ADDRESS":"裕敬三街６３號","OBJECTID":624919},"geometry":{"x":172731.53000000119,"y":2542340.8000000007}},{"attributes":{"ID":624947,"DIS_CODE":0,"TOWNNAME":"東區","LI":"裕聖里","LIN":"4鄰","STREET":"裕敬三街","SECT":" ","MAREA":" ","LANE":" ","ALLEY":" ","HOUSE_NO":"６５號","E_COORD97":172726.54000000001,"N_COORD97":2542343.4700000002,"ADDRESS":"裕敬三街６５號","OBJECTID":624920},"geometry":{"x":172726.54000000004,"y":2542343.4700000044}},{"attributes":{"ID":624948,"DIS_CODE":0,"TOWNNAME":"東區","LI":"裕聖里","LIN":"4鄰","STREET":"裕敬三街","SECT":" ","MAREA":" ","LANE":" ","ALLEY":" ","HOUSE_NO":"６７號","E_COORD97":172722.44,"N_COORD97":2542340.4399999999,"ADDRESS":"裕敬三街６７號","OBJECTID":624921},"geometry":{"x":172722.44000000134,"y":2542340.4400000013}},{"attributes":{"ID":624949,"DIS_CODE":0,"TOWNNAME":"東區","LI":"裕聖里","LIN":"4鄰","STREET":"裕敬三街","SECT":" ","MAREA":" ","LANE":" ","ALLEY":" ","HOUSE_NO":"６９號","E_COORD97":172717.63,"N_COORD97":2542342.9300000002,"ADDRESS":"裕敬三街６９號","OBJECTID":624922},"geometry":{"x":172717.62999999989,"y":2542342.9300000034}},{"attributes":{"ID":624950,"DIS_CODE":0,"TOWNNAME":"東區","LI":"裕聖里","LIN":"4鄰","STREET":"裕敬三街","SECT":" ","MAREA":" ","LANE":" ","ALLEY":" ","HOUSE_NO":"７１號","E_COORD97":172711.92999999999,"N_COORD97":2542340.4399999999,"ADDRESS":"裕敬三街７１號","OBJECTID":624923},"geometry":{"x":172711.9299999997,"y":2542340.4400000013}},{"attributes":{"ID":624951,"DIS_CODE":0,"TOWNNAME":"東區","LI":"裕聖里","LIN":"4鄰","STREET":"裕敬三街","SECT":" ","MAREA":" ","LANE":" ","ALLEY":" ","HOUSE_NO":"７３號","E_COORD97":172706.57999999999,"N_COORD97":2542342.9300000002,"ADDRESS":"裕敬三街７３號","OBJECTID":624924},"geometry":{"x":172706.58000000007,"y":2542342.9300000034}},{"attributes":{"ID":624952,"DIS_CODE":0,"TOWNNAME":"東區","LI":"裕聖里","LIN":"4鄰","STREET":"裕敬三街","SECT":" ","MAREA":" ","LANE":" ","ALLEY":" ","HOUSE_NO":"７５號","E_COORD97":172702.48000000001,"N_COORD97":2542339.5499999998,"ADDRESS":"裕敬三街７５號","OBJECTID":624925},"geometry":{"x":172702.48000000045,"y":2542339.5500000045}},{"attributes":{"ID":624953,"DIS_CODE":0,"TOWNNAME":"東區","LI":"裕聖里","LIN":"4鄰","STREET":"裕敬三街","SECT":" ","MAREA":" ","LANE":" ","ALLEY":" ","HOUSE_NO":"７７號","E_COORD97":172698.38,"N_COORD97":2542342.5800000001,"ADDRESS":"裕敬三街７７號","OBJECTID":624926},"geometry":{"x":172698.38000000082,"y":2542342.5800000019}},{"attributes":{"ID":624954,"DIS_CODE":0,"TOWNNAME":"東區","LI":"裕聖里","LIN":"17鄰","STREET":"裕敬二街","SECT":" ","MAREA":" ","LANE":" ","ALLEY":" ","HOUSE_NO":"５６號","E_COORD97":172644.54000000001,"N_COORD97":2542134.1400000001,"ADDRESS":"裕敬二街５６號","OBJECTID":624927},"geometry":{"x":172644.54000000097,"y":2542134.1400000006}},{"attributes":{"ID":624955,"DIS_CODE":0,"TOWNNAME":"東區","LI":"裕聖里","LIN":"17鄰","STREET":"裕敬二街","SECT":" ","MAREA":" ","LANE":" ","ALLEY":" ","HOUSE_NO":"６６號","E_COORD97":172644.85999999999,"N_COORD97":2542118,"ADDRESS":"裕敬二街６６號","OBJECTID":624928},"geometry":{"x":172644.86000000127,"y":2542118}},{"attributes":{"ID":624956,"DIS_CODE":0,"TOWNNAME":"東區","LI":"成大里","LIN":"10鄰","STREET":"民族路","SECT":"一段","MAREA":" ","LANE":" ","ALLEY":" ","HOUSE_NO":"８６號","E_COORD97":169390.97,"N_COORD97":2543890.6099999999,"ADDRESS":"民族路一段８６號","OBJECTID":624929},"geometry":{"x":169390.96999999974,"y":2543890.6100000031}},{"attributes":{"ID":624957,"DIS_CODE":0,"TOWNNAME":"東區","LI":"成大里","LIN":"10鄰","STREET":"民族路","SECT":"一段","MAREA":" ","LANE":" ","ALLEY":" ","HOUSE_NO":"８８號","E_COORD97":169382.25,"N_COORD97":2543889.6800000002,"ADDRESS":"民族路一段８８號","OBJECTID":624930},"geometry":{"x":169382.25,"y":2543889.6799999997}},{"attributes":{"ID":624958,"DIS_CODE":0,"TOWNNAME":"東區","LI":"成大里","LIN":"10鄰","STREET":"民族路","SECT":"一段","MAREA":" ","LANE":" ","ALLEY":" ","HOUSE_NO":"９０號","E_COORD97":169391.75,"N_COORD97":2543909.7400000002,"ADDRESS":"民族路一段９０號","OBJECTID":624931},"geometry":{"x":169391.75000000093,"y":2543909.7400000002}},{"attributes":{"ID":624959,"DIS_CODE":0,"TOWNNAME":"東區","LI":"東門里","LIN":"20鄰","STREET":"勝利路","SECT":" ","MAREA":" ","LANE":" ","ALLEY":" ","HOUSE_NO":"２３號","E_COORD97":169756.79999999999,"N_COORD97":2543162.4199999999,"ADDRESS":"勝利路２３號","OBJECTID":624932},"geometry":{"x":169756.79999999981,"y":2543162.4199999999}},{"attributes":{"ID":624960,"DIS_CODE":0,"TOWNNAME":"東區","LI":"崇成里","LIN":"7鄰","STREET":"崇德十二街","SECT":" ","MAREA":" ","LANE":" ","ALLEY":" ","HOUSE_NO":"３３號","E_COORD97":170874.23999999999,"N_COORD97":2541366.2000000002,"ADDRESS":"崇德十二街３３號","OBJECTID":624933},"geometry":{"x":170874.24000000022,"y":2541366.1999999993}},{"attributes":{"ID":624961,"DIS_CODE":0,"TOWNNAME":"東區","LI":"東門里","LIN":"17鄰","STREET":"東門路","SECT":"一段","MAREA":" ","LANE":" ","ALLEY":" ","HOUSE_NO":"１３３號","E_COORD97":169464.57000000001,"N_COORD97":2543224.5299999998,"ADDRESS":"東門路一段１３３號","OBJECTID":624934},"geometry":{"x":169464.57000000123,"y":2543224.5300000012}},{"attributes":{"ID":624962,"DIS_CODE":0,"TOWNNAME":"東區","LI":"東門里","LIN":"19鄰","STREET":"東門路","SECT":"一段","MAREA":" ","LANE":" ","ALLEY":" ","HOUSE_NO":"９９之１號","E_COORD97":169389.19,"N_COORD97":2543221.1400000001,"ADDRESS":"東門路一段９９之１號","OBJECTID":624935},"geometry":{"x":169389.19000000134,"y":2543221.1400000025}},{"attributes":{"ID":624963,"DIS_CODE":0,"TOWNNAME":"東區","LI":"東門里","LIN":"19鄰","STREET":"東門路","SECT":"一段","MAREA":" ","LANE":" ","ALLEY":" ","HOUSE_NO":"９９號","E_COORD97":169385.79000000001,"N_COORD97":2543206.7999999998,"ADDRESS":"東門路一段９９號","OBJECTID":624936},"geometry":{"x":169385.79000000004,"y":2543206.8000000026}},{"attributes":{"ID":624964,"DIS_CODE":0,"TOWNNAME":"東區","LI":"東門里","LIN":"19鄰","STREET":"前鋒路","SECT":" ","MAREA":" ","LANE":" ","ALLEY":" ","HOUSE_NO":"１號","E_COORD97":169265.56,"N_COORD97":2543270.3399999999,"ADDRESS":"前鋒路１號","OBJECTID":624937},"geometry":{"x":169265.56000000052,"y":2543270.3400000017}},{"attributes":{"ID":624965,"DIS_CODE":0,"TOWNNAME":"東區","LI":"東門里","LIN":"19鄰","STREET":"前鋒路","SECT":" ","MAREA":" ","LANE":" ","ALLEY":" ","HOUSE_NO":"５號","E_COORD97":169269.64999999999,"N_COORD97":2543284.6699999999,"ADDRESS":"前鋒路５號","OBJECTID":624938},"geometry":{"x":169269.65000000037,"y":2543284.6700000018}},{"attributes":{"ID":624966,"DIS_CODE":0,"TOWNNAME":"東區","LI":"泉南里","LIN":"17鄰","STREET":"府連東路","SECT":" ","MAREA":" ","LANE":" ","ALLEY":" ","HOUSE_NO":"１１號","E_COORD97":169721.5,"N_COORD97":2542802.1000000001,"ADDRESS":"府連東路１１號","OBJECTID":624939},"geometry":{"x":169721.5,"y":2542802.0999999996}},{"attributes":{"ID":624967,"DIS_CODE":0,"TOWNNAME":"東區","LI":"泉南里","LIN":"17鄰","STREET":"府連東路","SECT":" ","MAREA":" ","LANE":" ","ALLEY":" ","HOUSE_NO":"７號","E_COORD97":169714.35999999999,"N_COORD97":2542805.3999999999,"ADDRESS":"府連東路７號","OBJECTID":624940},"geometry":{"x":169714.36000000034,"y":2542805.4000000022}},{"attributes":{"ID":624968,"DIS_CODE":0,"TOWNNAME":"東區","LI":"泉南里","LIN":"24鄰","STREET":"長榮路","SECT":"一段","MAREA":" ","LANE":" ","ALLEY":" ","HOUSE_NO":"１５號","E_COORD97":169618.13,"N_COORD97":2542581.52,"ADDRESS":"長榮路一段１５號","OBJECTID":624941},"geometry":{"x":169618.13000000082,"y":2542581.5199999996}},{"attributes":{"ID":624969,"DIS_CODE":0,"TOWNNAME":"東區","LI":"泉南里","LIN":"8鄰","STREET":"樹林街","SECT":"一段","MAREA":" ","LANE":" ","ALLEY":" ","HOUSE_NO":"６８號","E_COORD97":169522.31,"N_COORD97":2542971.1800000002,"ADDRESS":"樹林街一段６８號","OBJECTID":624942},"geometry":{"x":169522.30999999959,"y":2542971.1799999997}},{"attributes":{"ID":624970,"DIS_CODE":0,"TOWNNAME":"東區","LI":"泉南里","LIN":"8鄰","STREET":"樹林街","SECT":"一段","MAREA":" ","LANE":" ","ALLEY":" ","HOUSE_NO":"７０號","E_COORD97":169518.07000000001,"N_COORD97":2542972.54,"ADDRESS":"樹林街一段７０號","OBJECTID":624943},"geometry":{"x":169518.0700000003,"y":2542972.540000001}},{"attributes":{"ID":624971,"DIS_CODE":0,"TOWNNAME":"東區","LI":"泉南里","LIN":"8鄰","STREET":"樹林街","SECT":"一段","MAREA":" ","LANE":" ","ALLEY":" ","HOUSE_NO":"７２號","E_COORD97":169514.34,"N_COORD97":2542974.2400000002,"ADDRESS":"樹林街一段７２號","OBJECTID":624944},"geometry":{"x":169514.33999999892,"y":2542974.2400000002}},{"attributes":{"ID":624972,"DIS_CODE":0,"TOWNNAME":"東區","LI":"泉南里","LIN":"8鄰","STREET":"樹林街","SECT":"一段","MAREA":" ","LANE":" ","ALLEY":" ","HOUSE_NO":"７４號","E_COORD97":169510.95000000001,"N_COORD97":2542975.4199999999,"ADDRESS":"樹林街一段７４號","OBJECTID":624945},"geometry":{"x":169510.95000000112,"y":2542975.4199999999}},{"attributes":{"ID":624973,"DIS_CODE":0,"TOWNNAME":"東區","LI":"泉南里","LIN":"8鄰","STREET":"樹林街","SECT":"一段","MAREA":" ","LANE":" ","ALLEY":" ","HOUSE_NO":"７６號","E_COORD97":169506.70999999999,"N_COORD97":2542976.7799999998,"ADDRESS":"樹林街一段７６號","OBJECTID":624946},"geometry":{"x":169506.70999999996,"y":2542976.7799999993}},{"attributes":{"ID":624974,"DIS_CODE":0,"TOWNNAME":"東區","LI":"泉南里","LIN":"8鄰","STREET":"樹林街","SECT":"一段","MAREA":" ","LANE":" ","ALLEY":" ","HOUSE_NO":"７８號","E_COORD97":169503.14999999999,"N_COORD97":2542978.1299999999,"ADDRESS":"樹林街一段７８號","OBJECTID":624947},"geometry":{"x":169503.1500000013,"y":2542978.1300000027}},{"attributes":{"ID":624975,"DIS_CODE":0,"TOWNNAME":"東區","LI":"泉南里","LIN":"8鄰","STREET":"樹林街","SECT":"一段","MAREA":" ","LANE":" ","ALLEY":" ","HOUSE_NO":"８０號","E_COORD97":169499.07999999999,"N_COORD97":2542979.3199999998,"ADDRESS":"樹林街一段８０號","OBJECTID":624948},"geometry":{"x":169499.08000000007,"y":2542979.3200000022}},{"attributes":{"ID":624976,"DIS_CODE":0,"TOWNNAME":"東區","LI":"泉南里","LIN":"8鄰","STREET":"樹林街","SECT":"一段","MAREA":" ","LANE":" ","ALLEY":" ","HOUSE_NO":"８２號","E_COORD97":169495.17000000001,"N_COORD97":2542980.6800000002,"ADDRESS":"樹林街一段８２號","OBJECTID":624949},"geometry":{"x":169495.16999999993,"y":2542980.6799999997}},{"attributes":{"ID":624977,"DIS_CODE":0,"TOWNNAME":"東區","LI":"泉南里","LIN":"8鄰","STREET":"樹林街","SECT":"一段","MAREA":" ","LANE":" ","ALLEY":" ","HOUSE_NO":"８４號","E_COORD97":169491.78,"N_COORD97":2542981.8599999999,"ADDRESS":"樹林街一段８４號","OBJECTID":624950},"geometry":{"x":169491.78000000119,"y":2542981.8600000013}},{"attributes":{"ID":624978,"DIS_CODE":0,"TOWNNAME":"東區","LI":"泉南里","LIN":"8鄰","STREET":"樹林街","SECT":"一段","MAREA":" ","LANE":" ","ALLEY":" ","HOUSE_NO":"８６號","E_COORD97":169487.20000000001,"N_COORD97":2542983.2200000002,"ADDRESS":"樹林街一段８６號","OBJECTID":624951},"geometry":{"x":169487.20000000112,"y":2542983.2200000025}},{"attributes":{"ID":624979,"DIS_CODE":0,"TOWNNAME":"東區","LI":"崇成里","LIN":"7鄰","STREET":"崇善路","SECT":" ","MAREA":" ","LANE":" ","ALLEY":" ","HOUSE_NO":"５６６號","E_COORD97":171071.07999999999,"N_COORD97":2541242.27,"ADDRESS":"崇善路５６６號","OBJECTID":624952},"geometry":{"x":171071.08000000101,"y":2541242.2700000014}},{"attributes":{"ID":624980,"DIS_CODE":0,"TOWNNAME":"東區","LI":"崇成里","LIN":"7鄰","STREET":"崇德十二街","SECT":" ","MAREA":" ","LANE":" ","ALLEY":" ","HOUSE_NO":"１５號","E_COORD97":170825.09,"N_COORD97":2541367.1600000001,"ADDRESS":"崇德十二街１５號","OBJECTID":624953},"geometry":{"x":170825.09000000078,"y":2541367.1600000001}},{"attributes":{"ID":624981,"DIS_CODE":0,"TOWNNAME":"東區","LI":"崇成里","LIN":"7鄰","STREET":"崇德十二街","SECT":" ","MAREA":" ","LANE":" ","ALLEY":" ","HOUSE_NO":"１７號","E_COORD97":170835.38,"N_COORD97":2541365.1200000001,"ADDRESS":"崇德十二街１７號","OBJECTID":624954},"geometry":{"x":170835.38000000082,"y":2541365.120000001}},{"attributes":{"ID":624982,"DIS_CODE":0,"TOWNNAME":"東區","LI":"崇成里","LIN":"7鄰","STREET":"崇德十二街","SECT":" ","MAREA":" ","LANE":" ","ALLEY":" ","HOUSE_NO":"１９號","E_COORD97":170844.14000000001,"N_COORD97":2541365.1200000001,"ADDRESS":"崇德十二街１９號","OBJECTID":624955},"geometry":{"x":170844.13999999966,"y":2541365.120000001}},{"attributes":{"ID":624983,"DIS_CODE":0,"TOWNNAME":"東區","LI":"崇成里","LIN":"7鄰","STREET":"崇德十二街","SECT":" ","MAREA":" ","LANE":" ","ALLEY":" ","HOUSE_NO":"３５號","E_COORD97":170879.22,"N_COORD97":2541366.2000000002,"ADDRESS":"崇德十二街３５號","OBJECTID":624956},"geometry":{"x":170879.21999999974,"y":2541366.1999999993}},{"attributes":{"ID":624984,"DIS_CODE":0,"TOWNNAME":"東區","LI":"崇成里","LIN":"7鄰","STREET":"崇德十二街","SECT":" ","MAREA":" ","LANE":" ","ALLEY":" ","HOUSE_NO":"４７號","E_COORD97":170906.82000000001,"N_COORD97":2541364.79,"ADDRESS":"崇德十二街４７號","OBJECTID":624957},"geometry":{"x":170906.82000000216,"y":2541364.790000001}},{"attributes":{"ID":624985,"DIS_CODE":0,"TOWNNAME":"東區","LI":"崇成里","LIN":"7鄰","STREET":"崇德十二街","SECT":" ","MAREA":" ","LANE":" ","ALLEY":" ","HOUSE_NO":"４９號","E_COORD97":170911.25,"N_COORD97":2541364.6899999999,"ADDRESS":"崇德十二街４９號","OBJECTID":624958},"geometry":{"x":170911.25,"y":2541364.6900000013}},{"attributes":{"ID":624986,"DIS_CODE":0,"TOWNNAME":"東區","LI":"崇成里","LIN":"7鄰","STREET":"崇德十二街","SECT":" ","MAREA":" ","LANE":" ","ALLEY":" ","HOUSE_NO":"５１號","E_COORD97":170915.91,"N_COORD97":2541364.79,"ADDRESS":"崇德十二街５１號","OBJECTID":624959},"geometry":{"x":170915.91000000015,"y":2541364.790000001}},{"attributes":{"ID":624987,"DIS_CODE":0,"TOWNNAME":"東區","LI":"崇成里","LIN":"2鄰","STREET":"崇道路","SECT":" ","MAREA":" ","LANE":" ","ALLEY":" ","HOUSE_NO":"１０４號","E_COORD97":170915.26000000001,"N_COORD97":2541385.5099999998,"ADDRESS":"崇道路１０４號","OBJECTID":624960},"geometry":{"x":170915.26000000164,"y":2541385.5099999998}},{"attributes":{"ID":624988,"DIS_CODE":0,"TOWNNAME":"東區","LI":"崇成里","LIN":"2鄰","STREET":"崇道路","SECT":" ","MAREA":" ","LANE":" ","ALLEY":" ","HOUSE_NO":"１０６號","E_COORD97":170919.76999999999,"N_COORD97":2541385.7000000002,"ADDRESS":"崇道路１０６號","OBJECTID":624961},"geometry":{"x":170919.76999999955,"y":2541385.7000000011}},{"attributes":{"ID":624989,"DIS_CODE":0,"TOWNNAME":"東區","LI":"崇成里","LIN":"2鄰","STREET":"崇道路","SECT":" ","MAREA":" ","LANE":" ","ALLEY":" ","HOUSE_NO":"１０８號","E_COORD97":170923.98999999999,"N_COORD97":2541385.5099999998,"ADDRESS":"崇道路１０８號","OBJECTID":624962},"geometry":{"x":170923.99000000022,"y":2541385.5099999998}},{"attributes":{"ID":624990,"DIS_CODE":0,"TOWNNAME":"東區","LI":"崇成里","LIN":"2鄰","STREET":"崇道路","SECT":" ","MAREA":" ","LANE":" ","ALLEY":" ","HOUSE_NO":"１１０號","E_COORD97":170928.88,"N_COORD97":2541385.4199999999,"ADDRESS":"崇道路１１０號","OBJECTID":624963},"geometry":{"x":170928.87999999989,"y":2541385.4199999999}},{"attributes":{"ID":624991,"DIS_CODE":0,"TOWNNAME":"東區","LI":"崇成里","LIN":"2鄰","STREET":"崇道路","SECT":" ","MAREA":" ","LANE":" ","ALLEY":" ","HOUSE_NO":"１１２號","E_COORD97":170933.10999999999,"N_COORD97":2541385.23,"ADDRESS":"崇道路１１２號","OBJECTID":624964},"geometry":{"x":170933.11000000034,"y":2541385.2299999986}},{"attributes":{"ID":624992,"DIS_CODE":0,"TOWNNAME":"東區","LI":"崇成里","LIN":"2鄰","STREET":"崇道路","SECT":" ","MAREA":" ","LANE":" ","ALLEY":" ","HOUSE_NO":"１１４號","E_COORD97":170937.60999999999,"N_COORD97":2541385.3199999998,"ADDRESS":"崇道路１１４號","OBJECTID":624965},"geometry":{"x":170937.61000000127,"y":2541385.3200000022}},{"attributes":{"ID":624993,"DIS_CODE":0,"TOWNNAME":"東區","LI":"崇成里","LIN":"2鄰","STREET":"崇道路","SECT":" ","MAREA":" ","LANE":" ","ALLEY":" ","HOUSE_NO":"１１６號","E_COORD97":170942.59,"N_COORD97":2541386.1699999999,"ADDRESS":"崇道路１１６號","OBJECTID":624966},"geometry":{"x":170942.59000000078,"y":2541386.1700000018}},{"attributes":{"ID":624994,"DIS_CODE":0,"TOWNNAME":"東區","LI":"崇成里","LIN":"2鄰","STREET":"崇道路","SECT":" ","MAREA":" ","LANE":" ","ALLEY":" ","HOUSE_NO":"１２２號","E_COORD97":170974.14999999999,"N_COORD97":2541394.4300000002,"ADDRESS":"崇道路１２２號","OBJECTID":624967},"geometry":{"x":170974.15000000224,"y":2541394.4300000016}},{"attributes":{"ID":624995,"DIS_CODE":0,"TOWNNAME":"東區","LI":"崇成里","LIN":"2鄰","STREET":"崇道路","SECT":" ","MAREA":" ","LANE":" ","ALLEY":" ","HOUSE_NO":"１２４號","E_COORD97":170970.01999999999,"N_COORD97":2541393.3900000001,"ADDRESS":"崇道路１２４號","OBJECTID":624968},"geometry":{"x":170970.01999999955,"y":2541393.3900000006}},{"attributes":{"ID":624996,"DIS_CODE":0,"TOWNNAME":"仁德區","LI":"仁德里","LIN":"19鄰","STREET":"文華一街","SECT":" ","MAREA":" ","LANE":" ","ALLEY":" ","HOUSE_NO":"８２號","E_COORD97":172406.14000000001,"N_COORD97":2540259.3199999998,"ADDRESS":"文華一街８２號","OBJECTID":624969},"geometry":{"x":172406.1400000006,"y":2540259.320000004}},{"attributes":{"ID":624997,"DIS_CODE":0,"TOWNNAME":"官田區","LI":"二鎮里","LIN":"17鄰","STREET":"工社中街","SECT":" ","MAREA":" ","LANE":" ","ALLEY":" ","HOUSE_NO":"１７號","E_COORD97":181142.84,"N_COORD97":2568498.2799999998,"ADDRESS":"工社中街１７號","OBJECTID":624970},"geometry":{"x":181142.83999999985,"y":2568498.2800000012}},{"attributes":{"ID":624998,"DIS_CODE":0,"TOWNNAME":"官田區","LI":"二鎮里","LIN":"1鄰","STREET":"工業南路","SECT":" ","MAREA":" ","LANE":" ","ALLEY":" ","HOUSE_NO":"３號","E_COORD97":181335.84,"N_COORD97":2567072.0699999998,"ADDRESS":"工業南路３號","OBJECTID":624971},"geometry":{"x":181335.84000000078,"y":2567072.070000004}},{"attributes":{"ID":624999,"DIS_CODE":0,"TOWNNAME":"官田區","LI":"二鎮里","LIN":"1鄰","STREET":"工業路","SECT":" ","MAREA":" ","LANE":" ","ALLEY":" ","HOUSE_NO":"５４號","E_COORD97":180642.73999999999,"N_COORD97":2568680.5299999998,"ADDRESS":"工業路５４號","OBJECTID":624972},"geometry":{"x":180642.74000000209,"y":2568680.5299999993}},{"attributes":{"ID":625000,"DIS_CODE":0,"TOWNNAME":"官田區","LI":"二鎮里","LIN":"1鄰","STREET":"工業路","SECT":" ","MAREA":" ","LANE":" ","ALLEY":" ","HOUSE_NO":"５６號","E_COORD97":180727.07000000001,"N_COORD97":2568658.5499999998,"ADDRESS":"工業路５６號","OBJECTID":624973},"geometry":{"x":180727.07000000216,"y":2568658.5500000007}},{"attributes":{"ID":625001,"DIS_CODE":0,"TOWNNAME":"官田區","LI":"二鎮里","LIN":"1鄰","STREET":"工業路","SECT":" ","MAREA":" ","LANE":" ","ALLEY":" ","HOUSE_NO":"６號","E_COORD97":180535.91,"N_COORD97":2567052.5299999998,"ADDRESS":"工業路６號","OBJECTID":624974},"geometry":{"x":180535.91000000015,"y":2567052.5299999993}},{"attributes":{"ID":625002,"DIS_CODE":0,"TOWNNAME":"官田區","LI":"二鎮里","LIN":"1鄰","STREET":"工業路","SECT":" ","MAREA":" ","LANE":" ","ALLEY":" ","HOUSE_NO":"７號","E_COORD97":180632.45000000001,"N_COORD97":2567101.8700000001,"ADDRESS":"工業路７號","OBJECTID":624975},"geometry":{"x":180632.45000000019,"y":2567101.8700000029}},{"attributes":{"ID":625003,"DIS_CODE":0,"TOWNNAME":"官田區","LI":"二鎮里","LIN":"1鄰","STREET":"工業路","SECT":" ","MAREA":" ","LANE":" ","ALLEY":" ","HOUSE_NO":"９號","E_COORD97":180708.73999999999,"N_COORD97":2567316.29,"ADDRESS":"工業路９號","OBJECTID":624976},"geometry":{"x":180708.73999999929,"y":2567316.2899999991}},{"attributes":{"ID":625004,"DIS_CODE":0,"TOWNNAME":"官田區","LI":"二鎮里","LIN":"19鄰","STREET":"工業路","SECT":" ","MAREA":" ","LANE":" ","ALLEY":" ","HOUSE_NO":"５５號","E_COORD97":180773.54000000001,"N_COORD97":2568539.1499999999,"ADDRESS":"工業路５５號","OBJECTID":624977},"geometry":{"x":180773.54000000097,"y":2568539.1500000004}},{"attributes":{"ID":625005,"DIS_CODE":0,"TOWNNAME":"官田區","LI":"二鎮里","LIN":"19鄰","STREET":"工社西街","SECT":" ","MAREA":" ","LANE":" ","ALLEY":" ","HOUSE_NO":"４０號","E_COORD97":180817.72,"N_COORD97":2568713.6200000001,"ADDRESS":"工社西街４０號","OBJECTID":624978},"geometry":{"x":180817.72000000067,"y":2568713.6200000029}},{"attributes":{"ID":625006,"DIS_CODE":0,"TOWNNAME":"官田區","LI":"二鎮里","LIN":"19鄰","STREET":"工社西街","SECT":" ","MAREA":" ","LANE":" ","ALLEY":" ","HOUSE_NO":"５號","E_COORD97":180861.23999999999,"N_COORD97":2568580.1400000001,"ADDRESS":"工社西街５號","OBJECTID":624979},"geometry":{"x":180861.24000000022,"y":2568580.1400000006}},{"attributes":{"ID":625007,"DIS_CODE":0,"TOWNNAME":"中西區","LI":" ","LIN":" ","STREET":"頂美三街","SECT":" ","MAREA":" ","LANE":" ","ALLEY":" ","HOUSE_NO":"５３號","E_COORD97":166564.01000000001,"N_COORD97":2544597.98,"ADDRESS":"頂美三街５３號","OBJECTID":624980},"geometry":{"x":166564.01000000071,"y":2544597.9800000042}},{"attributes":{"ID":625008,"DIS_CODE":0,"TOWNNAME":"官田區","LI":"二鎮里","LIN":"17鄰","STREET":"工社南街","SECT":" ","MAREA":" ","LANE":" ","ALLEY":" ","HOUSE_NO":"１２號","E_COORD97":181180.64999999999,"N_COORD97":2568472.1699999999,"ADDRESS":"工社南街１２號","OBJECTID":624981},"geometry":{"x":181180.65000000037,"y":2568472.1700000018}},{"attributes":{"ID":625009,"DIS_CODE":0,"TOWNNAME":"官田區","LI":"二鎮里","LIN":"1鄰","STREET":"工業西路","SECT":" ","MAREA":" ","LANE":" ","ALLEY":" ","HOUSE_NO":"１０號","E_COORD97":180375.01999999999,"N_COORD97":2567286.9700000002,"ADDRESS":"工業西路１０號","OBJECTID":624982},"geometry":{"x":180375.01999999955,"y":2567286.9700000025}},{"attributes":{"ID":625010,"DIS_CODE":0,"TOWNNAME":"官田區","LI":"二鎮里","LIN":"1鄰","STREET":"工業西路","SECT":" ","MAREA":" ","LANE":" ","ALLEY":" ","HOUSE_NO":"１１號","E_COORD97":180431.17000000001,"N_COORD97":2567327.3199999998,"ADDRESS":"工業西路１１號","OBJECTID":624983},"geometry":{"x":180431.17000000086,"y":2567327.3200000003}},{"attributes":{"ID":625011,"DIS_CODE":0,"TOWNNAME":"官田區","LI":"二鎮里","LIN":"1鄰","STREET":"工業西路","SECT":" ","MAREA":" ","LANE":" ","ALLEY":" ","HOUSE_NO":"１３號","E_COORD97":180431.39000000001,"N_COORD97":2567360.02,"ADDRESS":"工業西路１３號","OBJECTID":624984},"geometry":{"x":180431.3900000006,"y":2567360.0200000014}},{"attributes":{"ID":625012,"DIS_CODE":0,"TOWNNAME":"官田區","LI":"二鎮里","LIN":"1鄰","STREET":"工業西路","SECT":" ","MAREA":" ","LANE":" ","ALLEY":" ","HOUSE_NO":"１６號","E_COORD97":180380.32000000001,"N_COORD97":2567464.4500000002,"ADDRESS":"工業西路１６號","OBJECTID":624985},"geometry":{"x":180380.32000000123,"y":2567464.4499999993}},{"attributes":{"ID":625013,"DIS_CODE":0,"TOWNNAME":"官田區","LI":"二鎮里","LIN":"1鄰","STREET":"工業西路","SECT":" ","MAREA":" ","LANE":" ","ALLEY":" ","HOUSE_NO":"１７號","E_COORD97":180441.10000000001,"N_COORD97":2567420.2000000002,"ADDRESS":"工業西路１７號","OBJECTID":624986},"geometry":{"x":180441.09999999963,"y":2567420.2000000011}},{"attributes":{"ID":625014,"DIS_CODE":0,"TOWNNAME":"官田區","LI":"二鎮里","LIN":"1鄰","STREET":"工業西路","SECT":" ","MAREA":" ","LANE":" ","ALLEY":" ","HOUSE_NO":"２０號","E_COORD97":180323.64999999999,"N_COORD97":2567653.8500000001,"ADDRESS":"工業西路２０號","OBJECTID":624987},"geometry":{"x":180323.6500000013,"y":2567653.8500000015}},{"attributes":{"ID":625015,"DIS_CODE":0,"TOWNNAME":"官田區","LI":"二鎮里","LIN":"1鄰","STREET":"工業西路","SECT":" ","MAREA":" ","LANE":" ","ALLEY":" ","HOUSE_NO":"２１號","E_COORD97":180453.48000000001,"N_COORD97":2567451.3700000001,"ADDRESS":"工業西路２１號","OBJECTID":624988},"geometry":{"x":180453.48000000138,"y":2567451.3700000029}},{"attributes":{"ID":625016,"DIS_CODE":0,"TOWNNAME":"官田區","LI":"二鎮里","LIN":"1鄰","STREET":"工業西路","SECT":" ","MAREA":" ","LANE":" ","ALLEY":" ","HOUSE_NO":"２３號","E_COORD97":180455.57000000001,"N_COORD97":2567478.75,"ADDRESS":"工業西路２３號","OBJECTID":624989},"geometry":{"x":180455.5700000003,"y":2567478.7500000019}},{"attributes":{"ID":625017,"DIS_CODE":0,"TOWNNAME":"官田區","LI":"二鎮里","LIN":"1鄰","STREET":"工業西路","SECT":" ","MAREA":" ","LANE":" ","ALLEY":" ","HOUSE_NO":"２５號","E_COORD97":180423.60999999999,"N_COORD97":2567503.6000000001,"ADDRESS":"工業西路２５號","OBJECTID":624990},"geometry":{"x":180423.61000000127,"y":2567503.5999999996}},{"attributes":{"ID":625018,"DIS_CODE":0,"TOWNNAME":"官田區","LI":"二鎮里","LIN":"1鄰","STREET":"工業西路","SECT":" ","MAREA":" ","LANE":" ","ALLEY":" ","HOUSE_NO":"２６號","E_COORD97":180354.89999999999,"N_COORD97":2567844.3999999999,"ADDRESS":"工業西路２６號","OBJECTID":624991},"geometry":{"x":180354.90000000037,"y":2567844.4000000022}},{"attributes":{"ID":625019,"DIS_CODE":0,"TOWNNAME":"官田區","LI":"二鎮里","LIN":"1鄰","STREET":"工業西路","SECT":" ","MAREA":" ","LANE":" ","ALLEY":" ","HOUSE_NO":"２７號","E_COORD97":180440.60000000001,"N_COORD97":2567501.8500000001,"ADDRESS":"工業西路２７號","OBJECTID":624992},"geometry":{"x":180440.59999999963,"y":2567501.8499999996}},{"attributes":{"ID":625020,"DIS_CODE":0,"TOWNNAME":"官田區","LI":"二鎮里","LIN":"1鄰","STREET":"工業西路","SECT":" ","MAREA":" ","LANE":" ","ALLEY":" ","HOUSE_NO":"２８號之１","E_COORD97":180293.64000000001,"N_COORD97":2567859.21,"ADDRESS":"工業西路２８號之１","OBJECTID":624993},"geometry":{"x":180293.64000000153,"y":2567859.2100000028}},{"attributes":{"ID":625021,"DIS_CODE":0,"TOWNNAME":"官田區","LI":"二鎮里","LIN":"1鄰","STREET":"工業西路","SECT":" ","MAREA":" ","LANE":" ","ALLEY":" ","HOUSE_NO":"２８號","E_COORD97":180403,"N_COORD97":2567796.0099999998,"ADDRESS":"工業西路２８號","OBJECTID":624994},"geometry":{"x":180403,"y":2567796.0099999998}},{"attributes":{"ID":625022,"DIS_CODE":0,"TOWNNAME":"官田區","LI":"二鎮里","LIN":"1鄰","STREET":"工業西路","SECT":" ","MAREA":" ","LANE":" ","ALLEY":" ","HOUSE_NO":"２９號","E_COORD97":180454.34,"N_COORD97":2567570.0600000001,"ADDRESS":"工業西路２９號","OBJECTID":624995},"geometry":{"x":180454.34000000078,"y":2567570.0600000005}},{"attributes":{"ID":625023,"DIS_CODE":0,"TOWNNAME":"官田區","LI":"隆本里","LIN":"28鄰","STREET":"中山路","SECT":"一段","MAREA":" ","LANE":" ","ALLEY":" ","HOUSE_NO":"２２０號","E_COORD97":179685.14999999999,"N_COORD97":2565844.8100000001,"ADDRESS":"中山路一段２２０號","OBJECTID":624996},"geometry":{"x":179685.15000000037,"y":2565844.8100000024}},{"attributes":{"ID":625024,"DIS_CODE":0,"TOWNNAME":"官田區","LI":"隆本里","LIN":"28鄰","STREET":"中山路","SECT":"一段","MAREA":" ","LANE":" ","ALLEY":" ","HOUSE_NO":"２２２號","E_COORD97":179681.13,"N_COORD97":2565845.9399999999,"ADDRESS":"中山路一段２２２號","OBJECTID":624997},"geometry":{"x":179681.12999999989,"y":2565845.9400000013}},{"attributes":{"ID":625025,"DIS_CODE":0,"TOWNNAME":"官田區","LI":"隆本里","LIN":"28鄰","STREET":"中山路","SECT":"一段","MAREA":" ","LANE":" ","ALLEY":" ","HOUSE_NO":"２２６號","E_COORD97":179676.35999999999,"N_COORD97":2565846.4199999999,"ADDRESS":"中山路一段２２６號","OBJECTID":624998},"geometry":{"x":179676.36000000127,"y":2565846.4200000018}},{"attributes":{"ID":625026,"DIS_CODE":0,"TOWNNAME":"中西區","LI":" ","LIN":" ","STREET":"西湖街","SECT":" ","MAREA":" ","LANE":" ","ALLEY":" ","HOUSE_NO":"１４８號","E_COORD97":166381.47,"N_COORD97":2544915.5499999998,"ADDRESS":"西湖街１４８號","OBJECTID":624999},"geometry":{"x":166381.47000000067,"y":2544915.5500000007}},{"attributes":{"ID":625027,"DIS_CODE":0,"TOWNNAME":"官田區","LI":"隆田里","LIN":"18鄰","STREET":"中山路","SECT":"一段","MAREA":" ","LANE":" ","ALLEY":" ","HOUSE_NO":"３２號","E_COORD97":180251.64999999999,"N_COORD97":2565799.6600000001,"ADDRESS":"中山路一段３２號","OBJECTID":625000},"geometry":{"x":180251.65000000037,"y":2565799.6600000039}}]}