{"displayFieldName":"TOWNNAME","fieldAliases":{"ID":"ID","DIS_CODE":"DIS_CODE","TOWNNAME":"TOWNNAME","LI":"LI","LIN":"LIN","STREET":"STREET","SECT":"SECT","MAREA":"MAREA","LANE":"LANE","ALLEY":"ALLEY","HOUSE_NO":"HOUSE_NO","E_COORD97":"E_COORD97","N_COORD97":"N_COORD97","ADDRESS":"ADDRESS","OBJECTID":"OBJECTID"},"geometryType":"esriGeometryPoint","spatialReference":{"wkid":102443,"latestWkid":3826},"fields":[{"name":"ID","type":"esriFieldTypeDouble","alias":"ID"},{"name":"DIS_CODE","type":"esriFieldTypeInteger","alias":"DIS_CODE"},{"name":"TOWNNAME","type":"esriFieldTypeString","alias":"TOWNNAME","length":8},{"name":"LI","type":"esriFieldTypeString","alias":"LI","length":8},{"name":"LIN","type":"esriFieldTypeString","alias":"LIN","length":12},{"name":"STREET","type":"esriFieldTypeString","alias":"STREET","length":20},{"name":"SECT","type":"esriFieldTypeString","alias":"SECT","length":8},{"name":"MAREA","type":"esriFieldTypeString","alias":"MAREA","length":12},{"name":"LANE","type":"esriFieldTypeString","alias":"LANE","length":10},{"name":"ALLEY","type":"esriFieldTypeString","alias":"ALLEY","length":10},{"name":"HOUSE_NO","type":"esriFieldTypeString","alias":"HOUSE_NO","length":20},{"name":"E_COORD97","type":"esriFieldTypeDouble","alias":"E_COORD97"},{"name":"N_COORD97","type":"esriFieldTypeDouble","alias":"N_COORD97"},{"name":"ADDRESS","type":"esriFieldTypeString","alias":"ADDRESS","length":50},{"name":"OBJECTID","type":"esriFieldTypeOID","alias":"OBJECTID"}],"features":[{"attributes":{"ID":262805,"DIS_CODE":0,"TOWNNAME":"仁德區","LI":"仁愛里","LIN":"26鄰","STREET":"大同路","SECT":"三段","MAREA":" ","LANE":" ","ALLEY":" ","HOUSE_NO":"３９８號","E_COORD97":169763.973111,"N_COORD97":2539401.20432,"ADDRESS":"大同路三段３９８號","OBJECTID":262801},"geometry":{"x":169763.97311099991,"y":2539401.2043160032}},{"attributes":{"ID":262806,"DIS_CODE":0,"TOWNNAME":"南區","LI":"大成里","LIN":"1鄰","STREET":"健康路","SECT":"一段","MAREA":" ","LANE":" ","ALLEY":" ","HOUSE_NO":"３９３號","E_COORD97":167904.5,"N_COORD97":2542433.5699999998,"ADDRESS":"健康路一段３９３號","OBJECTID":262802},"geometry":{"x":167904.5,"y":2542433.5700000003}},{"attributes":{"ID":262807,"DIS_CODE":0,"TOWNNAME":"新營區","LI":"大宏里","LIN":"13鄰","STREET":"文昌街","SECT":" ","MAREA":" ","LANE":" ","ALLEY":" ","HOUSE_NO":"５８號之３","E_COORD97":180235.51000000001,"N_COORD97":2578343.5299999998,"ADDRESS":"文昌街５８號之３","OBJECTID":262803},"geometry":{"x":180235.51000000071,"y":2578343.5299999993}},{"attributes":{"ID":262808,"DIS_CODE":0,"TOWNNAME":"新營區","LI":"南興里","LIN":"2鄰","STREET":"建業路","SECT":" ","MAREA":" ","LANE":" ","ALLEY":" ","HOUSE_NO":"２號之３","E_COORD97":179695.79999999999,"N_COORD97":2577595.23,"ADDRESS":"建業路２號之３","OBJECTID":262804},"geometry":{"x":179695.79999999981,"y":2577595.2300000023}},{"attributes":{"ID":262809,"DIS_CODE":0,"TOWNNAME":"仁德區","LI":"土庫里","LIN":"22鄰","STREET":"太子路","SECT":" ","MAREA":" ","LANE":" ","ALLEY":" ","HOUSE_NO":"２３３號","E_COORD97":174289.45000000001,"N_COORD97":2543495.5,"ADDRESS":"太子路２３３號","OBJECTID":262805},"geometry":{"x":174289.45000000205,"y":2543495.5000000037}},{"attributes":{"ID":262810,"DIS_CODE":0,"TOWNNAME":"北區","LI":"五福里","LIN":"12鄰","STREET":"自強街","SECT":" ","MAREA":" ","LANE":"３４巷","ALLEY":" ","HOUSE_NO":"２號","E_COORD97":168255.47,"N_COORD97":2544507.3700000001,"ADDRESS":"自強街３４巷２號","OBJECTID":262806},"geometry":{"x":168255.46999999974,"y":2544507.370000001}},{"attributes":{"ID":262811,"DIS_CODE":0,"TOWNNAME":"仁德區","LI":"土庫里","LIN":"22鄰","STREET":"太子路","SECT":" ","MAREA":" ","LANE":" ","ALLEY":" ","HOUSE_NO":"２１１號","E_COORD97":174361.57000000001,"N_COORD97":2543499,"ADDRESS":"太子路２１１號","OBJECTID":262807},"geometry":{"x":174361.57000000216,"y":2543499.0000000037}},{"attributes":{"ID":262812,"DIS_CODE":0,"TOWNNAME":"南區","LI":"國宅里","LIN":"13鄰","STREET":"金華路","SECT":"二段","MAREA":" ","LANE":"３９巷","ALLEY":" ","HOUSE_NO":"６４號","E_COORD97":166871.35999999999,"N_COORD97":2542024.96,"ADDRESS":"金華路二段３９巷６４號","OBJECTID":262808},"geometry":{"x":166871.36000000034,"y":2542024.959999999}},{"attributes":{"ID":262813,"DIS_CODE":0,"TOWNNAME":"北區","LI":"仁愛里","LIN":"13鄰","STREET":"長榮路","SECT":"四段","MAREA":" ","LANE":"３１巷","ALLEY":" ","HOUSE_NO":"２６號","E_COORD97":170185.07000000001,"N_COORD97":2544923.8799999999,"ADDRESS":"長榮路四段３１巷２６號","OBJECTID":262809},"geometry":{"x":170185.07000000123,"y":2544923.8800000008}},{"attributes":{"ID":262814,"DIS_CODE":0,"TOWNNAME":"麻豆區","LI":"南勢里","LIN":"22鄰","STREET":" ","SECT":" ","MAREA":"南勢","LANE":" ","ALLEY":" ","HOUSE_NO":"６１號之２","E_COORD97":174509.06,"N_COORD97":2564877.1299999999,"ADDRESS":"南勢６１號之２","OBJECTID":262810},"geometry":{"x":174509.06000000052,"y":2564877.1300000008}},{"attributes":{"ID":262815,"DIS_CODE":0,"TOWNNAME":"麻豆區","LI":"南勢里","LIN":"22鄰","STREET":" ","SECT":" ","MAREA":"南勢","LANE":" ","ALLEY":" ","HOUSE_NO":"６１號","E_COORD97":174473.70999999999,"N_COORD97":2564869.8500000001,"ADDRESS":"南勢６１號","OBJECTID":262811},"geometry":{"x":174473.70999999996,"y":2564869.8500000015}},{"attributes":{"ID":262816,"DIS_CODE":0,"TOWNNAME":"麻豆區","LI":"南勢里","LIN":"22鄰","STREET":" ","SECT":" ","MAREA":"南勢","LANE":" ","ALLEY":" ","HOUSE_NO":"６２號之１","E_COORD97":174481.57000000001,"N_COORD97":2564830.8799999999,"ADDRESS":"南勢６２號之１","OBJECTID":262812},"geometry":{"x":174481.5700000003,"y":2564830.8800000027}},{"attributes":{"ID":262817,"DIS_CODE":0,"TOWNNAME":"麻豆區","LI":"南勢里","LIN":"22鄰","STREET":" ","SECT":" ","MAREA":"南勢","LANE":" ","ALLEY":" ","HOUSE_NO":"６２號之２","E_COORD97":174491.17000000001,"N_COORD97":2564830.8900000001,"ADDRESS":"南勢６２號之２","OBJECTID":262813},"geometry":{"x":174491.17000000179,"y":2564830.8900000006}},{"attributes":{"ID":262818,"DIS_CODE":0,"TOWNNAME":"北區","LI":"仁愛里","LIN":"13鄰","STREET":"長榮路","SECT":"四段","MAREA":" ","LANE":"３１巷","ALLEY":" ","HOUSE_NO":"２８號","E_COORD97":170172.5,"N_COORD97":2544933.6699999999,"ADDRESS":"長榮路四段３１巷２８號","OBJECTID":262814},"geometry":{"x":170172.5,"y":2544933.6699999999}},{"attributes":{"ID":262819,"DIS_CODE":0,"TOWNNAME":"仁德區","LI":"土庫里","LIN":"22鄰","STREET":"太子路","SECT":" ","MAREA":" ","LANE":" ","ALLEY":" ","HOUSE_NO":"２０９號","E_COORD97":174354.45999999999,"N_COORD97":2543465.5,"ADDRESS":"太子路２０９號","OBJECTID":262815},"geometry":{"x":174354.45999999996,"y":2543465.5000000019}},{"attributes":{"ID":262820,"DIS_CODE":0,"TOWNNAME":"仁德區","LI":"土庫里","LIN":"22鄰","STREET":"太子路","SECT":" ","MAREA":" ","LANE":" ","ALLEY":" ","HOUSE_NO":"２１５號","E_COORD97":174337.64000000001,"N_COORD97":2543495.5,"ADDRESS":"太子路２１５號","OBJECTID":262816},"geometry":{"x":174337.63999999966,"y":2543495.5000000037}},{"attributes":{"ID":262821,"DIS_CODE":0,"TOWNNAME":"麻豆區","LI":"南勢里","LIN":"22鄰","STREET":" ","SECT":" ","MAREA":"南勢","LANE":" ","ALLEY":" ","HOUSE_NO":"６２號之３","E_COORD97":174496.98000000001,"N_COORD97":2564831.8500000001,"ADDRESS":"南勢６２號之３","OBJECTID":262817},"geometry":{"x":174496.98000000138,"y":2564831.8500000034}},{"attributes":{"ID":262822,"DIS_CODE":0,"TOWNNAME":"麻豆區","LI":"南勢里","LIN":"22鄰","STREET":" ","SECT":" ","MAREA":"南勢","LANE":" ","ALLEY":" ","HOUSE_NO":"６２號","E_COORD97":174483.26000000001,"N_COORD97":2564844.1400000001,"ADDRESS":"南勢６２號","OBJECTID":262818},"geometry":{"x":174483.25999999978,"y":2564844.1400000043}},{"attributes":{"ID":262823,"DIS_CODE":0,"TOWNNAME":"麻豆區","LI":"南勢里","LIN":"22鄰","STREET":" ","SECT":" ","MAREA":"南勢","LANE":" ","ALLEY":" ","HOUSE_NO":"６３號","E_COORD97":174515.14999999999,"N_COORD97":2564831.0299999998,"ADDRESS":"南勢６３號","OBJECTID":262819},"geometry":{"x":174515.15000000037,"y":2564831.0300000012}},{"attributes":{"ID":262824,"DIS_CODE":0,"TOWNNAME":"麻豆區","LI":"南勢里","LIN":"22鄰","STREET":" ","SECT":" ","MAREA":"南勢","LANE":" ","ALLEY":" ","HOUSE_NO":"６４號之２","E_COORD97":174525.39999999999,"N_COORD97":2564854.6200000001,"ADDRESS":"南勢６４號之２","OBJECTID":262820},"geometry":{"x":174525.40000000037,"y":2564854.620000001}},{"attributes":{"ID":262825,"DIS_CODE":0,"TOWNNAME":"麻豆區","LI":"南勢里","LIN":"22鄰","STREET":" ","SECT":" ","MAREA":"南勢","LANE":" ","ALLEY":" ","HOUSE_NO":"６４號","E_COORD97":174520.09,"N_COORD97":2564854.5299999998,"ADDRESS":"南勢６４號","OBJECTID":262821},"geometry":{"x":174520.08999999985,"y":2564854.5300000012}},{"attributes":{"ID":262826,"DIS_CODE":0,"TOWNNAME":"仁德區","LI":"仁愛里","LIN":"22鄰","STREET":" ","SECT":" ","MAREA":"仁愛","LANE":" ","ALLEY":" ","HOUSE_NO":"４５１號","E_COORD97":170160.89770900001,"N_COORD97":2540095.9667699998,"ADDRESS":"仁愛４５１號","OBJECTID":262822},"geometry":{"x":170160.89770899992,"y":2540095.9667709991}},{"attributes":{"ID":262827,"DIS_CODE":0,"TOWNNAME":"仁德區","LI":"仁和里","LIN":"22鄰","STREET":" ","SECT":" ","MAREA":"仁和","LANE":" ","ALLEY":" ","HOUSE_NO":"４４１號","E_COORD97":170434.26896799999,"N_COORD97":2539815.5499999998,"ADDRESS":"仁和４４１號","OBJECTID":262823},"geometry":{"x":170434.26896800101,"y":2539815.5500000007}},{"attributes":{"ID":262828,"DIS_CODE":0,"TOWNNAME":"北區","LI":"仁愛里","LIN":"13鄰","STREET":"長榮路","SECT":"四段","MAREA":" ","LANE":"３１巷","ALLEY":" ","HOUSE_NO":"２號","E_COORD97":170272.59,"N_COORD97":2544908.23,"ADDRESS":"長榮路四段３１巷２號","OBJECTID":262824},"geometry":{"x":170272.59000000078,"y":2544908.2300000042}},{"attributes":{"ID":262829,"DIS_CODE":0,"TOWNNAME":"北區","LI":"文成里","LIN":"13鄰","STREET":"文賢路","SECT":" ","MAREA":" ","LANE":"２９２巷","ALLEY":" ","HOUSE_NO":"１２９號","E_COORD97":167683.78,"N_COORD97":2545242.0800000001,"ADDRESS":"文賢路２９２巷１２９號","OBJECTID":262825},"geometry":{"x":167683.78000000026,"y":2545242.0800000019}},{"attributes":{"ID":262830,"DIS_CODE":0,"TOWNNAME":"北區","LI":"文成里","LIN":"13鄰","STREET":"文賢路","SECT":" ","MAREA":" ","LANE":"２９２巷","ALLEY":" ","HOUSE_NO":"１３１號","E_COORD97":167688.76000000001,"N_COORD97":2545242.29,"ADDRESS":"文賢路２９２巷１３１號","OBJECTID":262826},"geometry":{"x":167688.75999999978,"y":2545242.290000001}},{"attributes":{"ID":262831,"DIS_CODE":0,"TOWNNAME":"北區","LI":"文成里","LIN":"13鄰","STREET":"文賢路","SECT":" ","MAREA":" ","LANE":"２９２巷","ALLEY":" ","HOUSE_NO":"１３３號","E_COORD97":167693.31,"N_COORD97":2545242.29,"ADDRESS":"文賢路２９２巷１３３號","OBJECTID":262827},"geometry":{"x":167693.30999999959,"y":2545242.290000001}},{"attributes":{"ID":262832,"DIS_CODE":0,"TOWNNAME":"北區","LI":"文成里","LIN":"13鄰","STREET":"文賢路","SECT":" ","MAREA":" ","LANE":"２９２巷","ALLEY":" ","HOUSE_NO":"１３５號","E_COORD97":167697.85999999999,"N_COORD97":2545242.73,"ADDRESS":"文賢路２９２巷１３５號","OBJECTID":262828},"geometry":{"x":167697.86000000127,"y":2545242.7300000004}},{"attributes":{"ID":262833,"DIS_CODE":0,"TOWNNAME":"北區","LI":"文成里","LIN":"13鄰","STREET":"文賢路","SECT":" ","MAREA":" ","LANE":"２９２巷","ALLEY":" ","HOUSE_NO":"１３７號","E_COORD97":167703.07000000001,"N_COORD97":2545242.73,"ADDRESS":"文賢路２９２巷１３７號","OBJECTID":262829},"geometry":{"x":167703.07000000123,"y":2545242.7300000004}},{"attributes":{"ID":262834,"DIS_CODE":0,"TOWNNAME":"北區","LI":"文成里","LIN":"13鄰","STREET":"文賢路","SECT":" ","MAREA":" ","LANE":"２９２巷","ALLEY":" ","HOUSE_NO":"１３９號","E_COORD97":167706.32000000001,"N_COORD97":2545242.9399999999,"ADDRESS":"文賢路２９２巷１３９號","OBJECTID":262830},"geometry":{"x":167706.32000000216,"y":2545242.9400000013}},{"attributes":{"ID":262835,"DIS_CODE":0,"TOWNNAME":"北區","LI":"成德里","LIN":"13鄰","STREET":"立賢路","SECT":"一段","MAREA":" ","LANE":"６５０巷","ALLEY":" ","HOUSE_NO":"１號","E_COORD97":168283.82000000001,"N_COORD97":2545593.1800000002,"ADDRESS":"立賢路一段６５０巷１號","OBJECTID":262831},"geometry":{"x":168283.8200000003,"y":2545593.1800000016}},{"attributes":{"ID":262836,"DIS_CODE":0,"TOWNNAME":"北區","LI":"成德里","LIN":"13鄰","STREET":"立賢路","SECT":"一段","MAREA":" ","LANE":"６５０巷","ALLEY":" ","HOUSE_NO":"３號","E_COORD97":168283.66,"N_COORD97":2545598.7400000002,"ADDRESS":"立賢路一段６５０巷３號","OBJECTID":262832},"geometry":{"x":168283.66000000201,"y":2545598.7400000002}},{"attributes":{"ID":262837,"DIS_CODE":0,"TOWNNAME":"永康區","LI":"勝利里","LIN":"21鄰","STREET":"勝利街","SECT":" ","MAREA":" ","LANE":" ","ALLEY":" ","HOUSE_NO":"１６９號","E_COORD97":171363.12,"N_COORD97":2545053.25,"ADDRESS":"勝利街１６９號","OBJECTID":262833},"geometry":{"x":171363.12000000011,"y":2545053.2500000037}},{"attributes":{"ID":262838,"DIS_CODE":0,"TOWNNAME":"北區","LI":"成德里","LIN":"13鄰","STREET":"立賢路","SECT":"一段","MAREA":" ","LANE":"６５０巷","ALLEY":" ","HOUSE_NO":"５號","E_COORD97":168283.66,"N_COORD97":2545604.2999999998,"ADDRESS":"立賢路一段６５０巷５號","OBJECTID":262834},"geometry":{"x":168283.66000000201,"y":2545604.3000000026}},{"attributes":{"ID":262839,"DIS_CODE":0,"TOWNNAME":"北區","LI":"成德里","LIN":"13鄰","STREET":"立賢路","SECT":"一段","MAREA":" ","LANE":"６５０巷","ALLEY":" ","HOUSE_NO":"７號","E_COORD97":168283.66,"N_COORD97":2545610.0099999998,"ADDRESS":"立賢路一段６５０巷７號","OBJECTID":262835},"geometry":{"x":168283.66000000201,"y":2545610.0099999998}},{"attributes":{"ID":262840,"DIS_CODE":0,"TOWNNAME":"北區","LI":"成德里","LIN":"13鄰","STREET":"立賢路","SECT":"一段","MAREA":" ","LANE":"６５０巷","ALLEY":" ","HOUSE_NO":"１０號","E_COORD97":168297.95000000001,"N_COORD97":2545604.6099999999,"ADDRESS":"立賢路一段６５０巷１０號","OBJECTID":262836},"geometry":{"x":168297.95000000019,"y":2545604.6099999994}},{"attributes":{"ID":262841,"DIS_CODE":0,"TOWNNAME":"仁德區","LI":"仁義里","LIN":"22鄰","STREET":"中清路","SECT":" ","MAREA":" ","LANE":" ","ALLEY":" ","HOUSE_NO":"１１０號","E_COORD97":173729.57999999999,"N_COORD97":2541357.0499999998,"ADDRESS":"中清路１１０號","OBJECTID":262837},"geometry":{"x":173729.58000000101,"y":2541357.0500000026}},{"attributes":{"ID":262842,"DIS_CODE":0,"TOWNNAME":"東區","LI":"中西里","LIN":"22鄰","STREET":"長榮路","SECT":"二段","MAREA":" ","LANE":" ","ALLEY":" ","HOUSE_NO":"１００號","E_COORD97":170010.88,"N_COORD97":2543265.0899999999,"ADDRESS":"長榮路二段１００號","OBJECTID":262838},"geometry":{"x":170010.88000000175,"y":2543265.0900000017}},{"attributes":{"ID":262843,"DIS_CODE":0,"TOWNNAME":"新營區","LI":"王公里","LIN":"25鄰","STREET":"中正路","SECT":" ","MAREA":" ","LANE":" ","ALLEY":" ","HOUSE_NO":"１３４號之１０","E_COORD97":180146.19953899999,"N_COORD97":2579595.65772,"ADDRESS":"中正路１３４號之１０","OBJECTID":262839},"geometry":{"x":180146.19953900017,"y":2579595.6577200014}},{"attributes":{"ID":262844,"DIS_CODE":0,"TOWNNAME":"北區","LI":"成德里","LIN":"13鄰","STREET":"立賢路","SECT":"一段","MAREA":" ","LANE":"６５０巷","ALLEY":" ","HOUSE_NO":"１２號","E_COORD97":168297.95000000001,"N_COORD97":2545610.0099999998,"ADDRESS":"立賢路一段６５０巷１２號","OBJECTID":262840},"geometry":{"x":168297.95000000019,"y":2545610.0099999998}},{"attributes":{"ID":262845,"DIS_CODE":0,"TOWNNAME":"北區","LI":"成德里","LIN":"13鄰","STREET":"立賢路","SECT":"一段","MAREA":" ","LANE":"６５０巷","ALLEY":" ","HOUSE_NO":"１８號","E_COORD97":168297.95000000001,"N_COORD97":2545623.98,"ADDRESS":"立賢路一段６５０巷１８號","OBJECTID":262841},"geometry":{"x":168297.95000000019,"y":2545623.9800000004}},{"attributes":{"ID":262846,"DIS_CODE":0,"TOWNNAME":"北區","LI":"成德里","LIN":"13鄰","STREET":"立賢路","SECT":"一段","MAREA":" ","LANE":"６５０巷","ALLEY":" ","HOUSE_NO":"２０號","E_COORD97":168298.10999999999,"N_COORD97":2545630.4900000002,"ADDRESS":"立賢路一段６５０巷２０號","OBJECTID":262842},"geometry":{"x":168298.11000000127,"y":2545630.4900000002}},{"attributes":{"ID":262847,"DIS_CODE":0,"TOWNNAME":"後壁區","LI":"頂長里","LIN":"5鄰","STREET":" ","SECT":" ","MAREA":"長短樹","LANE":" ","ALLEY":" ","HOUSE_NO":"３８號之７","E_COORD97":181029.39999999999,"N_COORD97":2584960.8500000001,"ADDRESS":"長短樹３８號之７","OBJECTID":262843},"geometry":{"x":181029.40000000037,"y":2584960.8500000015}},{"attributes":{"ID":262848,"DIS_CODE":0,"TOWNNAME":"後壁區","LI":"頂長里","LIN":"5鄰","STREET":" ","SECT":" ","MAREA":"長短樹","LANE":" ","ALLEY":" ","HOUSE_NO":"３８號","E_COORD97":181254.29999999999,"N_COORD97":2584997.4500000002,"ADDRESS":"長短樹３８號","OBJECTID":262844},"geometry":{"x":181254.30000000075,"y":2584997.4500000011}},{"attributes":{"ID":262849,"DIS_CODE":0,"TOWNNAME":"後壁區","LI":"頂長里","LIN":"5鄰","STREET":" ","SECT":" ","MAREA":"長短樹","LANE":" ","ALLEY":" ","HOUSE_NO":"３９號之６","E_COORD97":181186.13,"N_COORD97":2585038,"ADDRESS":"長短樹３９號之６","OBJECTID":262845},"geometry":{"x":181186.13000000082,"y":2585038.0000000019}},{"attributes":{"ID":262850,"DIS_CODE":0,"TOWNNAME":"北區","LI":"成德里","LIN":"13鄰","STREET":"立賢路","SECT":"一段","MAREA":" ","LANE":"６８２巷","ALLEY":" ","HOUSE_NO":"２８號","E_COORD97":168231.12,"N_COORD97":2545657.6400000001,"ADDRESS":"立賢路一段６８２巷２８號","OBJECTID":262846},"geometry":{"x":168231.11999999918,"y":2545657.6400000006}},{"attributes":{"ID":262851,"DIS_CODE":0,"TOWNNAME":"北區","LI":"文成里","LIN":"13鄰","STREET":"文賢一路","SECT":" ","MAREA":" ","LANE":"９０巷","ALLEY":" ","HOUSE_NO":"１號","E_COORD97":167618.82000000001,"N_COORD97":2545401.9700000002,"ADDRESS":"文賢一路９０巷１號","OBJECTID":262847},"geometry":{"x":167618.82000000123,"y":2545401.9700000025}},{"attributes":{"ID":262852,"DIS_CODE":0,"TOWNNAME":"北區","LI":"文成里","LIN":"13鄰","STREET":"文賢一路","SECT":" ","MAREA":" ","LANE":"９０巷","ALLEY":" ","HOUSE_NO":"３號","E_COORD97":167619.20000000001,"N_COORD97":2545410.0299999998,"ADDRESS":"文賢一路９０巷３號","OBJECTID":262848},"geometry":{"x":167619.20000000112,"y":2545410.0300000031}},{"attributes":{"ID":262853,"DIS_CODE":0,"TOWNNAME":"北區","LI":"文成里","LIN":"13鄰","STREET":"文賢一路","SECT":" ","MAREA":" ","LANE":"９０巷","ALLEY":" ","HOUSE_NO":"５號","E_COORD97":167619.57999999999,"N_COORD97":2545418.29,"ADDRESS":"文賢一路９０巷５號","OBJECTID":262849},"geometry":{"x":167619.58000000194,"y":2545418.2900000028}},{"attributes":{"ID":262854,"DIS_CODE":0,"TOWNNAME":"北區","LI":"文成里","LIN":"13鄰","STREET":"文賢一路","SECT":" ","MAREA":" ","LANE":"９０巷","ALLEY":" ","HOUSE_NO":"７號","E_COORD97":167619.70999999999,"N_COORD97":2545427.4300000002,"ADDRESS":"文賢一路９０巷７號","OBJECTID":262850},"geometry":{"x":167619.70999999996,"y":2545427.4299999997}},{"attributes":{"ID":262855,"DIS_CODE":0,"TOWNNAME":"北區","LI":"文成里","LIN":"13鄰","STREET":"文賢一路","SECT":" ","MAREA":" ","LANE":"９０巷","ALLEY":" ","HOUSE_NO":"９號","E_COORD97":167620.09,"N_COORD97":2545436.3199999998,"ADDRESS":"文賢一路９０巷９號","OBJECTID":262851},"geometry":{"x":167620.08999999985,"y":2545436.320000004}},{"attributes":{"ID":262856,"DIS_CODE":0,"TOWNNAME":"北區","LI":"文成里","LIN":"13鄰","STREET":"文賢一路","SECT":" ","MAREA":" ","LANE":"９０巷","ALLEY":" ","HOUSE_NO":"１１號","E_COORD97":167620.47,"N_COORD97":2545444.2000000002,"ADDRESS":"文賢一路９０巷１１號","OBJECTID":262852},"geometry":{"x":167620.47000000067,"y":2545444.2000000011}},{"attributes":{"ID":262857,"DIS_CODE":0,"TOWNNAME":"北區","LI":"文成里","LIN":"13鄰","STREET":"文賢一路","SECT":" ","MAREA":" ","LANE":"９０巷","ALLEY":" ","HOUSE_NO":"１３號","E_COORD97":167620.35000000001,"N_COORD97":2545451.9500000002,"ADDRESS":"文賢一路９０巷１３號","OBJECTID":262853},"geometry":{"x":167620.34999999963,"y":2545451.9500000011}},{"attributes":{"ID":262858,"DIS_CODE":0,"TOWNNAME":"北區","LI":"文成里","LIN":"13鄰","STREET":"文賢一路","SECT":" ","MAREA":" ","LANE":"９０巷","ALLEY":" ","HOUSE_NO":"８號","E_COORD97":167631.51999999999,"N_COORD97":2545380.5099999998,"ADDRESS":"文賢一路９０巷８號","OBJECTID":262854},"geometry":{"x":167631.52000000048,"y":2545380.5100000016}},{"attributes":{"ID":262859,"DIS_CODE":0,"TOWNNAME":"永康區","LI":"\u25A0洲里","LIN":"22鄰","STREET":"\u25A0忠街","SECT":" ","MAREA":" ","LANE":" ","ALLEY":" ","HOUSE_NO":"９號","E_COORD97":171554.72,"N_COORD97":2548887.3599999999,"ADDRESS":"\u25A0忠街９號","OBJECTID":262855},"geometry":{"x":171554.72000000067,"y":2548887.3600000013}},{"attributes":{"ID":262860,"DIS_CODE":0,"TOWNNAME":"北區","LI":"重興里","LIN":"13鄰","STREET":"開南街","SECT":" ","MAREA":" ","LANE":"１６５巷","ALLEY":" ","HOUSE_NO":"１０號","E_COORD97":170691.51000000001,"N_COORD97":2545122.3399999999,"ADDRESS":"開南街１６５巷１０號","OBJECTID":262856},"geometry":{"x":170691.51000000071,"y":2545122.3399999999}},{"attributes":{"ID":262861,"DIS_CODE":0,"TOWNNAME":"安南區","LI":"安東里","LIN":"22鄰","STREET":"安和路","SECT":"二段","MAREA":" ","LANE":" ","ALLEY":" ","HOUSE_NO":"９８號","E_COORD97":169524.91,"N_COORD97":2548751.7000000002,"ADDRESS":"安和路二段９８號","OBJECTID":262857},"geometry":{"x":169524.91000000108,"y":2548751.700000003}},{"attributes":{"ID":262862,"DIS_CODE":0,"TOWNNAME":"善化區","LI":"光文里","LIN":"22鄰","STREET":"光華路","SECT":" ","MAREA":" ","LANE":" ","ALLEY":" ","HOUSE_NO":"２２號","E_COORD97":178661.23999999999,"N_COORD97":2559273.5,"ADDRESS":"光華路２２號","OBJECTID":262858},"geometry":{"x":178661.24000000115,"y":2559273.5}},{"attributes":{"ID":262863,"DIS_CODE":0,"TOWNNAME":"永康區","LI":"崑山里","LIN":"41鄰","STREET":"國光五街","SECT":" ","MAREA":" ","LANE":" ","ALLEY":" ","HOUSE_NO":"４３號","E_COORD97":174049.07999999999,"N_COORD97":2545107.3799999999,"ADDRESS":"國光五街４３號","OBJECTID":262859},"geometry":{"x":174049.08000000007,"y":2545107.379999999}},{"attributes":{"ID":262864,"DIS_CODE":0,"TOWNNAME":"永康區","LI":"崑山里","LIN":"24鄰","STREET":"大仁街","SECT":" ","MAREA":" ","LANE":" ","ALLEY":" ","HOUSE_NO":"４２號","E_COORD97":173811.70999999999,"N_COORD97":2544659.3399999999,"ADDRESS":"大仁街４２號","OBJECTID":262860},"geometry":{"x":173811.71000000089,"y":2544659.3400000036}},{"attributes":{"ID":262865,"DIS_CODE":0,"TOWNNAME":"北區","LI":"重興里","LIN":"13鄰","STREET":"開南街","SECT":" ","MAREA":" ","LANE":"１６５巷","ALLEY":" ","HOUSE_NO":"１２號","E_COORD97":170693.63,"N_COORD97":2545128.77,"ADDRESS":"開南街１６５巷１２號","OBJECTID":262861},"geometry":{"x":170693.62999999989,"y":2545128.7700000014}},{"attributes":{"ID":262866,"DIS_CODE":0,"TOWNNAME":"北區","LI":"重興里","LIN":"13鄰","STREET":"開南街","SECT":" ","MAREA":" ","LANE":"１６５巷","ALLEY":" ","HOUSE_NO":"１４號","E_COORD97":170694.07000000001,"N_COORD97":2545132.7799999998,"ADDRESS":"開南街１６５巷１４號","OBJECTID":262862},"geometry":{"x":170694.0700000003,"y":2545132.7799999993}},{"attributes":{"ID":262867,"DIS_CODE":0,"TOWNNAME":"善化區","LI":"胡厝里","LIN":"22鄰","STREET":" ","SECT":" ","MAREA":"烏橋","LANE":" ","ALLEY":" ","HOUSE_NO":"４號","E_COORD97":175437.73999999999,"N_COORD97":2558877.75,"ADDRESS":"烏橋４號","OBJECTID":262863},"geometry":{"x":175437.74000000022,"y":2558877.75}},{"attributes":{"ID":262868,"DIS_CODE":0,"TOWNNAME":"善化區","LI":"坐駕里","LIN":"22鄰","STREET":" ","SECT":" ","MAREA":"坐駕","LANE":" ","ALLEY":" ","HOUSE_NO":"１２之２６號","E_COORD97":178132.38,"N_COORD97":2558485.77,"ADDRESS":"坐駕１２之２６號","OBJECTID":262864},"geometry":{"x":178132.37999999989,"y":2558485.7700000014}},{"attributes":{"ID":262869,"DIS_CODE":0,"TOWNNAME":"北區","LI":"重興里","LIN":"13鄰","STREET":"開南街","SECT":" ","MAREA":" ","LANE":"１６５巷","ALLEY":" ","HOUSE_NO":"２號","E_COORD97":170690.10999999999,"N_COORD97":2545094.7999999998,"ADDRESS":"開南街１６５巷２號","OBJECTID":262865},"geometry":{"x":170690.11000000127,"y":2545094.8000000026}},{"attributes":{"ID":262870,"DIS_CODE":0,"TOWNNAME":"北區","LI":"重興里","LIN":"13鄰","STREET":"開南街","SECT":" ","MAREA":" ","LANE":"１６５巷","ALLEY":" ","HOUSE_NO":"８號","E_COORD97":170690.70999999999,"N_COORD97":2545116.8599999999,"ADDRESS":"開南街１６５巷８號","OBJECTID":262866},"geometry":{"x":170690.71000000089,"y":2545116.8600000013}},{"attributes":{"ID":262871,"DIS_CODE":0,"TOWNNAME":"北區","LI":"重興里","LIN":"13鄰","STREET":"開南街","SECT":" ","MAREA":" ","LANE":"１４３巷","ALLEY":" ","HOUSE_NO":"２號","E_COORD97":170654.35000000001,"N_COORD97":2545128.3999999999,"ADDRESS":"開南街１４３巷２號","OBJECTID":262867},"geometry":{"x":170654.34999999963,"y":2545128.4000000022}},{"attributes":{"ID":262872,"DIS_CODE":0,"TOWNNAME":"北區","LI":"重興里","LIN":"13鄰","STREET":"開南街","SECT":" ","MAREA":" ","LANE":"１４３巷","ALLEY":" ","HOUSE_NO":"４號","E_COORD97":170658.59,"N_COORD97":2545131.0299999998,"ADDRESS":"開南街１４３巷４號","OBJECTID":262868},"geometry":{"x":170658.58999999892,"y":2545131.0299999993}},{"attributes":{"ID":262873,"DIS_CODE":0,"TOWNNAME":"善化區","LI":"坐駕里","LIN":"22鄰","STREET":" ","SECT":" ","MAREA":"坐駕","LANE":" ","ALLEY":" ","HOUSE_NO":"１２之２３號","E_COORD97":178116.16,"N_COORD97":2558460.02,"ADDRESS":"坐駕１２之２３號","OBJECTID":262869},"geometry":{"x":178116.16000000108,"y":2558460.0200000033}},{"attributes":{"ID":262874,"DIS_CODE":0,"TOWNNAME":"北區","LI":"重興里","LIN":"13鄰","STREET":"開南街","SECT":" ","MAREA":" ","LANE":"１４３巷","ALLEY":" ","HOUSE_NO":"６號","E_COORD97":170660.42000000001,"N_COORD97":2545135.4100000001,"ADDRESS":"開南街１４３巷６號","OBJECTID":262870},"geometry":{"x":170660.42000000086,"y":2545135.4100000001}},{"attributes":{"ID":262875,"DIS_CODE":0,"TOWNNAME":"北區","LI":"重興里","LIN":"13鄰","STREET":"開南街","SECT":" ","MAREA":" ","LANE":"１４３巷","ALLEY":" ","HOUSE_NO":"８號","E_COORD97":170665.10000000001,"N_COORD97":2545137.5299999998,"ADDRESS":"開南街１４３巷８號","OBJECTID":262871},"geometry":{"x":170665.0999999987,"y":2545137.5299999993}},{"attributes":{"ID":262876,"DIS_CODE":0,"TOWNNAME":"北區","LI":"重興里","LIN":"13鄰","STREET":"開南街","SECT":" ","MAREA":" ","LANE":"１６５巷","ALLEY":" ","HOUSE_NO":"１號","E_COORD97":170676.57000000001,"N_COORD97":2545098.2599999998,"ADDRESS":"開南街１６５巷１號","OBJECTID":262872},"geometry":{"x":170676.57000000123,"y":2545098.2600000016}},{"attributes":{"ID":262877,"DIS_CODE":0,"TOWNNAME":"北區","LI":"重興里","LIN":"13鄰","STREET":"開南街","SECT":" ","MAREA":" ","LANE":"１６５巷","ALLEY":" ","HOUSE_NO":"３號","E_COORD97":170671.97,"N_COORD97":2545118.8399999999,"ADDRESS":"開南街１６５巷３號","OBJECTID":262873},"geometry":{"x":170671.97000000067,"y":2545118.8399999999}},{"attributes":{"ID":262878,"DIS_CODE":0,"TOWNNAME":"善化區","LI":"坐駕里","LIN":"22鄰","STREET":" ","SECT":" ","MAREA":"坐駕","LANE":" ","ALLEY":" ","HOUSE_NO":"１３號之２","E_COORD97":178167.41,"N_COORD97":2558418.02,"ADDRESS":"坐駕１３號之２","OBJECTID":262874},"geometry":{"x":178167.41000000015,"y":2558418.0199999996}},{"attributes":{"ID":262879,"DIS_CODE":0,"TOWNNAME":"北區","LI":"重興里","LIN":"13鄰","STREET":"開南街","SECT":" ","MAREA":" ","LANE":"１６５巷","ALLEY":" ","HOUSE_NO":"５號","E_COORD97":170675.32999999999,"N_COORD97":2545124.3900000001,"ADDRESS":"開南街１６５巷５號","OBJECTID":262875},"geometry":{"x":170675.33000000007,"y":2545124.3900000025}},{"attributes":{"ID":262880,"DIS_CODE":0,"TOWNNAME":"善化區","LI":"坐駕里","LIN":"22鄰","STREET":" ","SECT":" ","MAREA":"坐駕","LANE":" ","ALLEY":" ","HOUSE_NO":"１２之４０號","E_COORD97":177916.60999999999,"N_COORD97":2558270.52,"ADDRESS":"坐駕１２之４０號","OBJECTID":262876},"geometry":{"x":177916.61000000127,"y":2558270.5200000014}},{"attributes":{"ID":262881,"DIS_CODE":0,"TOWNNAME":"善化區","LI":"坐駕里","LIN":"22鄰","STREET":" ","SECT":" ","MAREA":"坐駕","LANE":" ","ALLEY":" ","HOUSE_NO":"１２之２７號","E_COORD97":178137.76000000001,"N_COORD97":2558486.27,"ADDRESS":"坐駕１２之２７號","OBJECTID":262877},"geometry":{"x":178137.75999999978,"y":2558486.2700000014}},{"attributes":{"ID":262882,"DIS_CODE":0,"TOWNNAME":"善化區","LI":"坐駕里","LIN":"22鄰","STREET":" ","SECT":" ","MAREA":"坐駕","LANE":" ","ALLEY":" ","HOUSE_NO":"１２之２２號","E_COORD97":178105.88,"N_COORD97":2558437.77,"ADDRESS":"坐駕１２之２２號","OBJECTID":262878},"geometry":{"x":178105.88000000082,"y":2558437.7700000033}},{"attributes":{"ID":262883,"DIS_CODE":0,"TOWNNAME":"善化區","LI":"坐駕里","LIN":"22鄰","STREET":" ","SECT":" ","MAREA":"坐駕","LANE":" ","ALLEY":" ","HOUSE_NO":"１２號之３","E_COORD97":178018.62,"N_COORD97":2558216.52,"ADDRESS":"坐駕１２號之３","OBJECTID":262879},"geometry":{"x":178018.62000000011,"y":2558216.5200000014}},{"attributes":{"ID":262884,"DIS_CODE":0,"TOWNNAME":"善化區","LI":"坐駕里","LIN":"22鄰","STREET":" ","SECT":" ","MAREA":"坐駕","LANE":" ","ALLEY":" ","HOUSE_NO":"１３號之１","E_COORD97":178172.10000000001,"N_COORD97":2558417.27,"ADDRESS":"坐駕１３號之１","OBJECTID":262880},"geometry":{"x":178172.10000000056,"y":2558417.2699999977}},{"attributes":{"ID":262885,"DIS_CODE":0,"TOWNNAME":"東區","LI":"東安里","LIN":"13鄰","STREET":"長榮路","SECT":"二段","MAREA":" ","LANE":"３２巷","ALLEY":" ","HOUSE_NO":"１７９號二樓","E_COORD97":170157.92999999999,"N_COORD97":2543214.3900000001,"ADDRESS":"長榮路二段３２巷１７９號二樓","OBJECTID":262881},"geometry":{"x":170157.93000000156,"y":2543214.3900000006}},{"attributes":{"ID":262886,"DIS_CODE":0,"TOWNNAME":"善化區","LI":"胡厝里","LIN":"22鄰","STREET":" ","SECT":" ","MAREA":"烏橋","LANE":" ","ALLEY":" ","HOUSE_NO":"２號","E_COORD97":175436.63,"N_COORD97":2558896,"ADDRESS":"烏橋２號","OBJECTID":262882},"geometry":{"x":175436.62999999989,"y":2558896.0000000019}},{"attributes":{"ID":262887,"DIS_CODE":0,"TOWNNAME":"永康區","LI":"崑山里","LIN":"7鄰","STREET":"大灣路","SECT":" ","MAREA":" ","LANE":" ","ALLEY":" ","HOUSE_NO":"９０５號","E_COORD97":173575.82000000001,"N_COORD97":2544352.75,"ADDRESS":"大灣路９０５號","OBJECTID":262883},"geometry":{"x":173575.82000000123,"y":2544352.7500000019}},{"attributes":{"ID":262888,"DIS_CODE":0,"TOWNNAME":"永康區","LI":"勝利里","LIN":"19鄰","STREET":"中華一路","SECT":" ","MAREA":" ","LANE":" ","ALLEY":" ","HOUSE_NO":"２６８號","E_COORD97":171334.25,"N_COORD97":2544991.25,"ADDRESS":"中華一路２６８號","OBJECTID":262884},"geometry":{"x":171334.25000000186,"y":2544991.25}},{"attributes":{"ID":262889,"DIS_CODE":0,"TOWNNAME":"東區","LI":"東安里","LIN":"13鄰","STREET":"長榮路","SECT":"二段","MAREA":" ","LANE":"３２巷","ALLEY":" ","HOUSE_NO":"１７９號三樓","E_COORD97":170157.92999999999,"N_COORD97":2543214.3900000001,"ADDRESS":"長榮路二段３２巷１７９號三樓","OBJECTID":262885},"geometry":{"x":170157.93000000156,"y":2543214.3900000006}},{"attributes":{"ID":262890,"DIS_CODE":0,"TOWNNAME":"東區","LI":"東安里","LIN":"13鄰","STREET":"長榮路","SECT":"二段","MAREA":" ","LANE":"３２巷","ALLEY":" ","HOUSE_NO":"１７９號五樓","E_COORD97":170157.92999999999,"N_COORD97":2543214.3900000001,"ADDRESS":"長榮路二段３２巷１７９號五樓","OBJECTID":262886},"geometry":{"x":170157.93000000156,"y":2543214.3900000006}},{"attributes":{"ID":262891,"DIS_CODE":0,"TOWNNAME":"善化區","LI":"坐駕里","LIN":"22鄰","STREET":" ","SECT":" ","MAREA":"陽明新村","LANE":" ","ALLEY":" ","HOUSE_NO":"１８號","E_COORD97":178114.92000000001,"N_COORD97":2558359.2599999998,"ADDRESS":"陽明新村１８號","OBJECTID":262887},"geometry":{"x":178114.91999999993,"y":2558359.2599999998}},{"attributes":{"ID":262892,"DIS_CODE":0,"TOWNNAME":"中西區","LI":"銀同里","LIN":"13鄰","STREET":"開山路","SECT":" ","MAREA":" ","LANE":"２９巷","ALLEY":" ","HOUSE_NO":"２２號四樓之３","E_COORD97":168619.03,"N_COORD97":2543565.4900000002,"ADDRESS":"開山路２９巷２２號四樓之３","OBJECTID":262888},"geometry":{"x":168619.03000000119,"y":2543565.4900000002}},{"attributes":{"ID":262893,"DIS_CODE":0,"TOWNNAME":"南區","LI":"新興里","LIN":"13鄰","STREET":"夏林路","SECT":" ","MAREA":" ","LANE":"２２２巷","ALLEY":" ","HOUSE_NO":"２號二樓","E_COORD97":167433.57999999999,"N_COORD97":2542240.3100000001,"ADDRESS":"夏林路２２２巷２號二樓","OBJECTID":262889},"geometry":{"x":167433.58000000101,"y":2542240.3100000024}},{"attributes":{"ID":262894,"DIS_CODE":0,"TOWNNAME":"南區","LI":"新興里","LIN":"13鄰","STREET":"夏林路","SECT":" ","MAREA":" ","LANE":"２２２巷","ALLEY":" ","HOUSE_NO":"２號三樓","E_COORD97":167433.57999999999,"N_COORD97":2542240.3100000001,"ADDRESS":"夏林路２２２巷２號三樓","OBJECTID":262890},"geometry":{"x":167433.58000000101,"y":2542240.3100000024}},{"attributes":{"ID":262895,"DIS_CODE":0,"TOWNNAME":"善化區","LI":"坐駕里","LIN":"22鄰","STREET":" ","SECT":" ","MAREA":"坐駕","LANE":" ","ALLEY":" ","HOUSE_NO":"４５號","E_COORD97":178080.85000000001,"N_COORD97":2558102.25,"ADDRESS":"坐駕４５號","OBJECTID":262891},"geometry":{"x":178080.84999999963,"y":2558102.25}},{"attributes":{"ID":262896,"DIS_CODE":0,"TOWNNAME":"南區","LI":"新興里","LIN":"13鄰","STREET":"夏林路","SECT":" ","MAREA":" ","LANE":"２２２巷","ALLEY":" ","HOUSE_NO":"２號五樓","E_COORD97":167433.57999999999,"N_COORD97":2542240.3100000001,"ADDRESS":"夏林路２２２巷２號五樓","OBJECTID":262892},"geometry":{"x":167433.58000000101,"y":2542240.3100000024}},{"attributes":{"ID":262897,"DIS_CODE":0,"TOWNNAME":"南區","LI":"新興里","LIN":"13鄰","STREET":"夏林路","SECT":" ","MAREA":" ","LANE":"２２２巷","ALLEY":" ","HOUSE_NO":"２號四樓","E_COORD97":167433.57999999999,"N_COORD97":2542240.3100000001,"ADDRESS":"夏林路２２２巷２號四樓","OBJECTID":262893},"geometry":{"x":167433.58000000101,"y":2542240.3100000024}},{"attributes":{"ID":262898,"DIS_CODE":0,"TOWNNAME":"南區","LI":"新興里","LIN":"13鄰","STREET":"夏林路","SECT":" ","MAREA":" ","LANE":"２２２巷","ALLEY":" ","HOUSE_NO":"４號二樓","E_COORD97":167428.98000000001,"N_COORD97":2542241.1099999999,"ADDRESS":"夏林路２２２巷４號二樓","OBJECTID":262894},"geometry":{"x":167428.98000000231,"y":2542241.1100000013}},{"attributes":{"ID":262899,"DIS_CODE":0,"TOWNNAME":"學甲區","LI":"慈福里","LIN":"13鄰","STREET":"民族路","SECT":" ","MAREA":" ","LANE":"５４巷","ALLEY":" ","HOUSE_NO":"８號六樓之６","E_COORD97":166658.98999999999,"N_COORD97":2570302.98,"ADDRESS":"民族路５４巷８號六樓之６","OBJECTID":262895},"geometry":{"x":166658.98999999929,"y":2570302.9800000004}},{"attributes":{"ID":262900,"DIS_CODE":0,"TOWNNAME":"善化區","LI":"坐駕里","LIN":"22鄰","STREET":" ","SECT":" ","MAREA":"陽明新村","LANE":" ","ALLEY":" ","HOUSE_NO":"７９號","E_COORD97":178144.67000000001,"N_COORD97":2558282.7599999998,"ADDRESS":"陽明新村７９號","OBJECTID":262896},"geometry":{"x":178144.67000000086,"y":2558282.7600000016}},{"attributes":{"ID":262901,"DIS_CODE":0,"TOWNNAME":"學甲區","LI":"慈福里","LIN":"13鄰","STREET":"民族路","SECT":" ","MAREA":" ","LANE":"５４巷","ALLEY":" ","HOUSE_NO":"８號六樓之７","E_COORD97":166658.98999999999,"N_COORD97":2570302.98,"ADDRESS":"民族路５４巷８號六樓之７","OBJECTID":262897},"geometry":{"x":166658.98999999929,"y":2570302.9800000004}},{"attributes":{"ID":262902,"DIS_CODE":0,"TOWNNAME":"善化區","LI":"坐駕里","LIN":"22鄰","STREET":" ","SECT":" ","MAREA":"陽明新村","LANE":" ","ALLEY":" ","HOUSE_NO":"５號","E_COORD97":178111.56,"N_COORD97":2558390.0099999998,"ADDRESS":"陽明新村５號","OBJECTID":262898},"geometry":{"x":178111.55999999959,"y":2558390.0100000016}},{"attributes":{"ID":262903,"DIS_CODE":0,"TOWNNAME":"學甲區","LI":"慈福里","LIN":"13鄰","STREET":"民族路","SECT":" ","MAREA":" ","LANE":"５４巷","ALLEY":" ","HOUSE_NO":"８號六樓之８","E_COORD97":166658.98999999999,"N_COORD97":2570302.98,"ADDRESS":"民族路５４巷８號六樓之８","OBJECTID":262899},"geometry":{"x":166658.98999999929,"y":2570302.9800000004}},{"attributes":{"ID":262904,"DIS_CODE":0,"TOWNNAME":"學甲區","LI":"慈福里","LIN":"13鄰","STREET":"民族路","SECT":" ","MAREA":" ","LANE":"５４巷","ALLEY":" ","HOUSE_NO":"８號四樓之１","E_COORD97":166658.98999999999,"N_COORD97":2570302.98,"ADDRESS":"民族路５４巷８號四樓之１","OBJECTID":262900},"geometry":{"x":166658.98999999929,"y":2570302.9800000004}},{"attributes":{"ID":262905,"DIS_CODE":0,"TOWNNAME":"學甲區","LI":"慈福里","LIN":"13鄰","STREET":"民族路","SECT":" ","MAREA":" ","LANE":"５４巷","ALLEY":" ","HOUSE_NO":"８號四樓之２","E_COORD97":166658.98999999999,"N_COORD97":2570302.98,"ADDRESS":"民族路５４巷８號四樓之２","OBJECTID":262901},"geometry":{"x":166658.98999999929,"y":2570302.9800000004}},{"attributes":{"ID":262906,"DIS_CODE":0,"TOWNNAME":"學甲區","LI":"平和里","LIN":"3鄰","STREET":" ","SECT":" ","MAREA":"學甲寮","LANE":" ","ALLEY":" ","HOUSE_NO":"２號","E_COORD97":169885.53,"N_COORD97":2573480,"ADDRESS":"學甲寮２號","OBJECTID":262902},"geometry":{"x":169885.53000000119,"y":2573480.0000000037}},{"attributes":{"ID":262907,"DIS_CODE":0,"TOWNNAME":"善化區","LI":"坐駕里","LIN":"22鄰","STREET":" ","SECT":" ","MAREA":"陽明新村","LANE":" ","ALLEY":" ","HOUSE_NO":"２７號","E_COORD97":178156.54000000001,"N_COORD97":2558346.0099999998,"ADDRESS":"陽明新村２７號","OBJECTID":262903},"geometry":{"x":178156.54000000004,"y":2558346.0100000016}},{"attributes":{"ID":262908,"DIS_CODE":0,"TOWNNAME":"學甲區","LI":"慈福里","LIN":"13鄰","STREET":"民族路","SECT":" ","MAREA":" ","LANE":"５４巷","ALLEY":" ","HOUSE_NO":"８號四樓之３","E_COORD97":166658.98999999999,"N_COORD97":2570302.98,"ADDRESS":"民族路５４巷８號四樓之３","OBJECTID":262904},"geometry":{"x":166658.98999999929,"y":2570302.9800000004}},{"attributes":{"ID":262909,"DIS_CODE":0,"TOWNNAME":"學甲區","LI":"慈福里","LIN":"13鄰","STREET":"民族路","SECT":" ","MAREA":" ","LANE":"５４巷","ALLEY":" ","HOUSE_NO":"８號四樓之６","E_COORD97":166658.98999999999,"N_COORD97":2570302.98,"ADDRESS":"民族路５４巷８號四樓之６","OBJECTID":262905},"geometry":{"x":166658.98999999929,"y":2570302.9800000004}},{"attributes":{"ID":262910,"DIS_CODE":0,"TOWNNAME":"善化區","LI":"坐駕里","LIN":"22鄰","STREET":" ","SECT":" ","MAREA":"陽明新村","LANE":" ","ALLEY":" ","HOUSE_NO":"２３號","E_COORD97":178151.84,"N_COORD97":2558362.0099999998,"ADDRESS":"陽明新村２３號","OBJECTID":262906},"geometry":{"x":178151.84000000078,"y":2558362.0100000035}},{"attributes":{"ID":262911,"DIS_CODE":0,"TOWNNAME":"學甲區","LI":"慈福里","LIN":"13鄰","STREET":"民族路","SECT":" ","MAREA":" ","LANE":"５４巷","ALLEY":" ","HOUSE_NO":"８號四樓之７","E_COORD97":166658.98999999999,"N_COORD97":2570302.98,"ADDRESS":"民族路５４巷８號四樓之７","OBJECTID":262907},"geometry":{"x":166658.98999999929,"y":2570302.9800000004}},{"attributes":{"ID":262912,"DIS_CODE":0,"TOWNNAME":"學甲區","LI":"慈福里","LIN":"13鄰","STREET":"民族路","SECT":" ","MAREA":" ","LANE":"５４巷","ALLEY":" ","HOUSE_NO":"８號四樓之８","E_COORD97":166658.98999999999,"N_COORD97":2570302.98,"ADDRESS":"民族路５４巷８號四樓之８","OBJECTID":262908},"geometry":{"x":166658.98999999929,"y":2570302.9800000004}},{"attributes":{"ID":262913,"DIS_CODE":0,"TOWNNAME":"善化區","LI":"坐駕里","LIN":"22鄰","STREET":" ","SECT":" ","MAREA":"陽明新村","LANE":" ","ALLEY":" ","HOUSE_NO":"１０９號","E_COORD97":178055.51000000001,"N_COORD97":2558309.0099999998,"ADDRESS":"陽明新村１０９號","OBJECTID":262909},"geometry":{"x":178055.51000000071,"y":2558309.0100000016}},{"attributes":{"ID":262914,"DIS_CODE":0,"TOWNNAME":"學甲區","LI":"慈福里","LIN":"13鄰","STREET":"民族路","SECT":" ","MAREA":" ","LANE":"５４巷","ALLEY":" ","HOUSE_NO":"８號四樓之９","E_COORD97":166658.98999999999,"N_COORD97":2570302.98,"ADDRESS":"民族路５４巷８號四樓之９","OBJECTID":262910},"geometry":{"x":166658.98999999929,"y":2570302.9800000004}},{"attributes":{"ID":262915,"DIS_CODE":0,"TOWNNAME":"善化區","LI":"坐駕里","LIN":"22鄰","STREET":" ","SECT":" ","MAREA":"陽明新村","LANE":" ","ALLEY":" ","HOUSE_NO":"１１６號","E_COORD97":178044.98000000001,"N_COORD97":2558257.2599999998,"ADDRESS":"陽明新村１１６號","OBJECTID":262911},"geometry":{"x":178044.98000000138,"y":2558257.2599999998}},{"attributes":{"ID":262916,"DIS_CODE":0,"TOWNNAME":"南區","LI":"喜南里","LIN":"13鄰","STREET":"喜樹路","SECT":" ","MAREA":" ","LANE":"１７１巷","ALLEY":" ","HOUSE_NO":"５號三樓","E_COORD97":165757.70999999999,"N_COORD97":2537979.8399999999,"ADDRESS":"喜樹路１７１巷５號三樓","OBJECTID":262912},"geometry":{"x":165757.71000000089,"y":2537979.8399999999}},{"attributes":{"ID":262917,"DIS_CODE":0,"TOWNNAME":"南區","LI":"喜南里","LIN":"13鄰","STREET":"喜樹路","SECT":" ","MAREA":" ","LANE":"１７１巷","ALLEY":" ","HOUSE_NO":"５號四樓","E_COORD97":165757.70999999999,"N_COORD97":2537979.8399999999,"ADDRESS":"喜樹路１７１巷５號四樓","OBJECTID":262913},"geometry":{"x":165757.71000000089,"y":2537979.8399999999}},{"attributes":{"ID":262918,"DIS_CODE":0,"TOWNNAME":"善化區","LI":"坐駕里","LIN":"22鄰","STREET":" ","SECT":" ","MAREA":"陽明新村","LANE":" ","ALLEY":" ","HOUSE_NO":"９３號","E_COORD97":178072.38,"N_COORD97":2558341.2599999998,"ADDRESS":"陽明新村９３號","OBJECTID":262914},"geometry":{"x":178072.37999999989,"y":2558341.2600000016}},{"attributes":{"ID":262919,"DIS_CODE":0,"TOWNNAME":"善化區","LI":"坐駕里","LIN":"22鄰","STREET":" ","SECT":" ","MAREA":"陽明新村","LANE":" ","ALLEY":" ","HOUSE_NO":"１１３號","E_COORD97":178044.79000000001,"N_COORD97":2558308.0099999998,"ADDRESS":"陽明新村１１３號","OBJECTID":262915},"geometry":{"x":178044.79000000004,"y":2558308.0100000016}},{"attributes":{"ID":262920,"DIS_CODE":0,"TOWNNAME":"善化區","LI":"坐駕里","LIN":"22鄰","STREET":" ","SECT":" ","MAREA":"陽明新村","LANE":" ","ALLEY":" ","HOUSE_NO":"３號","E_COORD97":178108.70000000001,"N_COORD97":2558393.0099999998,"ADDRESS":"陽明新村３號","OBJECTID":262916},"geometry":{"x":178108.70000000205,"y":2558393.0100000016}},{"attributes":{"ID":262921,"DIS_CODE":0,"TOWNNAME":"北區","LI":"振興里","LIN":"13鄰","STREET":"開元路","SECT":" ","MAREA":" ","LANE":"２１２巷","ALLEY":" ","HOUSE_NO":"５４號三樓之１","E_COORD97":170271.84,"N_COORD97":2545190.0800000001,"ADDRESS":"開元路２１２巷５４號三樓之１","OBJECTID":262917},"geometry":{"x":170271.83999999985,"y":2545190.0800000038}},{"attributes":{"ID":262922,"DIS_CODE":0,"TOWNNAME":"北區","LI":"振興里","LIN":"13鄰","STREET":"開元路","SECT":" ","MAREA":" ","LANE":"２１２巷","ALLEY":" ","HOUSE_NO":"５４號三樓之２","E_COORD97":170271.84,"N_COORD97":2545190.0800000001,"ADDRESS":"開元路２１２巷５４號三樓之２","OBJECTID":262918},"geometry":{"x":170271.83999999985,"y":2545190.0800000038}},{"attributes":{"ID":262923,"DIS_CODE":0,"TOWNNAME":"善化區","LI":"坐駕里","LIN":"22鄰","STREET":" ","SECT":" ","MAREA":"陽明新村","LANE":" ","ALLEY":" ","HOUSE_NO":"２８號","E_COORD97":178132.59,"N_COORD97":2558336.0099999998,"ADDRESS":"陽明新村２８號","OBJECTID":262919},"geometry":{"x":178132.58999999985,"y":2558336.0100000016}},{"attributes":{"ID":262924,"DIS_CODE":0,"TOWNNAME":"北區","LI":"振興里","LIN":"13鄰","STREET":"開元路","SECT":" ","MAREA":" ","LANE":"２１２巷","ALLEY":" ","HOUSE_NO":"５４號三樓之３","E_COORD97":170271.84,"N_COORD97":2545190.0800000001,"ADDRESS":"開元路２１２巷５４號三樓之３","OBJECTID":262920},"geometry":{"x":170271.83999999985,"y":2545190.0800000038}},{"attributes":{"ID":262925,"DIS_CODE":0,"TOWNNAME":"北區","LI":"振興里","LIN":"13鄰","STREET":"開元路","SECT":" ","MAREA":" ","LANE":"２１２巷","ALLEY":" ","HOUSE_NO":"５４號三樓之４","E_COORD97":170271.84,"N_COORD97":2545190.0800000001,"ADDRESS":"開元路２１２巷５４號三樓之４","OBJECTID":262921},"geometry":{"x":170271.83999999985,"y":2545190.0800000038}},{"attributes":{"ID":262926,"DIS_CODE":0,"TOWNNAME":"北區","LI":"長榮里","LIN":"13鄰","STREET":"長榮路","SECT":"五段","MAREA":" ","LANE":"４１巷","ALLEY":" ","HOUSE_NO":"１３號七樓之３","E_COORD97":170088.73999999999,"N_COORD97":2545386.5299999998,"ADDRESS":"長榮路五段４１巷１３號七樓之３","OBJECTID":262922},"geometry":{"x":170088.74000000115,"y":2545386.5300000031}},{"attributes":{"ID":262927,"DIS_CODE":0,"TOWNNAME":"北區","LI":"長榮里","LIN":"13鄰","STREET":"長榮路","SECT":"五段","MAREA":" ","LANE":"４１巷","ALLEY":" ","HOUSE_NO":"１３號七樓之５","E_COORD97":170088.73999999999,"N_COORD97":2545386.5299999998,"ADDRESS":"長榮路五段４１巷１３號七樓之５","OBJECTID":262923},"geometry":{"x":170088.74000000115,"y":2545386.5300000031}},{"attributes":{"ID":262928,"DIS_CODE":0,"TOWNNAME":"善化區","LI":"坐駕里","LIN":"22鄰","STREET":" ","SECT":" ","MAREA":"坐駕","LANE":" ","ALLEY":" ","HOUSE_NO":"４５號之１８","E_COORD97":177979.63,"N_COORD97":2558246.27,"ADDRESS":"坐駕４５號之１８","OBJECTID":262924},"geometry":{"x":177979.62999999989,"y":2558246.2700000014}},{"attributes":{"ID":262929,"DIS_CODE":0,"TOWNNAME":"善化區","LI":"光文里","LIN":"22鄰","STREET":"光華路","SECT":" ","MAREA":" ","LANE":"５３巷","ALLEY":" ","HOUSE_NO":"１１號","E_COORD97":178589.41,"N_COORD97":2559315,"ADDRESS":"光華路５３巷１１號","OBJECTID":262925},"geometry":{"x":178589.41000000108,"y":2559315.0000000037}},{"attributes":{"ID":262930,"DIS_CODE":0,"TOWNNAME":"善化區","LI":"坐駕里","LIN":"22鄰","STREET":" ","SECT":" ","MAREA":"陽明新村","LANE":" ","ALLEY":" ","HOUSE_NO":"８３號","E_COORD97":178136.31,"N_COORD97":2558280.7599999998,"ADDRESS":"陽明新村８３號","OBJECTID":262926},"geometry":{"x":178136.31000000052,"y":2558280.7599999998}},{"attributes":{"ID":262931,"DIS_CODE":0,"TOWNNAME":"仁德區","LI":"仁義里","LIN":"34鄰","STREET":"正義三街","SECT":" ","MAREA":" ","LANE":" ","ALLEY":" ","HOUSE_NO":"４２號之１","E_COORD97":173508.20999999999,"N_COORD97":2541595.54,"ADDRESS":"正義三街４２號之１","OBJECTID":262927},"geometry":{"x":173508.21000000089,"y":2541595.5400000028}},{"attributes":{"ID":262932,"DIS_CODE":0,"TOWNNAME":"善化區","LI":"光文里","LIN":"22鄰","STREET":"光華路","SECT":" ","MAREA":" ","LANE":" ","ALLEY":" ","HOUSE_NO":"６２號","E_COORD97":178643.47,"N_COORD97":2559350.75,"ADDRESS":"光華路６２號","OBJECTID":262928},"geometry":{"x":178643.46999999974,"y":2559350.7500000019}},{"attributes":{"ID":262933,"DIS_CODE":0,"TOWNNAME":"北區","LI":"長榮里","LIN":"13鄰","STREET":"長榮路","SECT":"五段","MAREA":" ","LANE":"４１巷","ALLEY":" ","HOUSE_NO":"１３號八樓之１","E_COORD97":170088.73999999999,"N_COORD97":2545386.5299999998,"ADDRESS":"長榮路五段４１巷１３號八樓之１","OBJECTID":262929},"geometry":{"x":170088.74000000115,"y":2545386.5300000031}},{"attributes":{"ID":262934,"DIS_CODE":0,"TOWNNAME":"善化區","LI":"坐駕里","LIN":"22鄰","STREET":" ","SECT":" ","MAREA":"陽明新村","LANE":" ","ALLEY":" ","HOUSE_NO":"６６號","E_COORD97":178157.95000000001,"N_COORD97":2558299.7599999998,"ADDRESS":"陽明新村６６號","OBJECTID":262930},"geometry":{"x":178157.95000000205,"y":2558299.7600000016}},{"attributes":{"ID":262935,"DIS_CODE":0,"TOWNNAME":"北區","LI":"長榮里","LIN":"13鄰","STREET":"長榮路","SECT":"五段","MAREA":" ","LANE":"４１巷","ALLEY":" ","HOUSE_NO":"１３號八樓之２","E_COORD97":170088.73999999999,"N_COORD97":2545386.5299999998,"ADDRESS":"長榮路五段４１巷１３號八樓之２","OBJECTID":262931},"geometry":{"x":170088.74000000115,"y":2545386.5300000031}},{"attributes":{"ID":262936,"DIS_CODE":0,"TOWNNAME":"北區","LI":"長榮里","LIN":"13鄰","STREET":"長榮路","SECT":"五段","MAREA":" ","LANE":"４１巷","ALLEY":" ","HOUSE_NO":"１３號八樓之３","E_COORD97":170088.73999999999,"N_COORD97":2545386.5299999998,"ADDRESS":"長榮路五段４１巷１３號八樓之３","OBJECTID":262932},"geometry":{"x":170088.74000000115,"y":2545386.5300000031}},{"attributes":{"ID":262937,"DIS_CODE":0,"TOWNNAME":"善化區","LI":"坐駕里","LIN":"22鄰","STREET":" ","SECT":" ","MAREA":"陽明新村","LANE":" ","ALLEY":" ","HOUSE_NO":"７３號","E_COORD97":178157.60999999999,"N_COORD97":2558282.0099999998,"ADDRESS":"陽明新村７３號","OBJECTID":262933},"geometry":{"x":178157.61000000127,"y":2558282.0100000016}},{"attributes":{"ID":262938,"DIS_CODE":0,"TOWNNAME":"北區","LI":"長榮里","LIN":"13鄰","STREET":"長榮路","SECT":"五段","MAREA":" ","LANE":"４１巷","ALLEY":" ","HOUSE_NO":"１３號八樓之５","E_COORD97":170088.73999999999,"N_COORD97":2545386.5299999998,"ADDRESS":"長榮路五段４１巷１３號八樓之５","OBJECTID":262934},"geometry":{"x":170088.74000000115,"y":2545386.5300000031}},{"attributes":{"ID":262939,"DIS_CODE":0,"TOWNNAME":"北區","LI":"長榮里","LIN":"13鄰","STREET":"長榮路","SECT":"五段","MAREA":" ","LANE":"４１巷","ALLEY":" ","HOUSE_NO":"１３號九樓之１","E_COORD97":170088.73999999999,"N_COORD97":2545386.5299999998,"ADDRESS":"長榮路五段４１巷１３號九樓之１","OBJECTID":262935},"geometry":{"x":170088.74000000115,"y":2545386.5300000031}},{"attributes":{"ID":262940,"DIS_CODE":0,"TOWNNAME":"善化區","LI":"坐駕里","LIN":"22鄰","STREET":" ","SECT":" ","MAREA":"陽明新村","LANE":" ","ALLEY":" ","HOUSE_NO":"３２號","E_COORD97":178123.48000000001,"N_COORD97":2558336.0099999998,"ADDRESS":"陽明新村３２號","OBJECTID":262936},"geometry":{"x":178123.48000000045,"y":2558336.0100000016}},{"attributes":{"ID":262941,"DIS_CODE":0,"TOWNNAME":"善化區","LI":"坐駕里","LIN":"22鄰","STREET":" ","SECT":" ","MAREA":"坐駕","LANE":" ","ALLEY":" ","HOUSE_NO":"４６號","E_COORD97":178087.5,"N_COORD97":2558237.75,"ADDRESS":"坐駕４６號","OBJECTID":262937},"geometry":{"x":178087.5,"y":2558237.75}},{"attributes":{"ID":262942,"DIS_CODE":0,"TOWNNAME":"北區","LI":"長榮里","LIN":"13鄰","STREET":"長榮路","SECT":"五段","MAREA":" ","LANE":"４１巷","ALLEY":" ","HOUSE_NO":"１３號九樓之２","E_COORD97":170088.73999999999,"N_COORD97":2545386.5299999998,"ADDRESS":"長榮路五段４１巷１３號九樓之２","OBJECTID":262938},"geometry":{"x":170088.74000000115,"y":2545386.5300000031}},{"attributes":{"ID":262943,"DIS_CODE":0,"TOWNNAME":"北區","LI":"長榮里","LIN":"13鄰","STREET":"長榮路","SECT":"五段","MAREA":" ","LANE":"４１巷","ALLEY":" ","HOUSE_NO":"１３號九樓之３","E_COORD97":170088.73999999999,"N_COORD97":2545386.5299999998,"ADDRESS":"長榮路五段４１巷１３號九樓之３","OBJECTID":262939},"geometry":{"x":170088.74000000115,"y":2545386.5300000031}},{"attributes":{"ID":262944,"DIS_CODE":0,"TOWNNAME":"北區","LI":"長榮里","LIN":"13鄰","STREET":"長榮路","SECT":"五段","MAREA":" ","LANE":"４１巷","ALLEY":" ","HOUSE_NO":"１３號九樓之５","E_COORD97":170088.73999999999,"N_COORD97":2545386.5299999998,"ADDRESS":"長榮路五段４１巷１３號九樓之５","OBJECTID":262940},"geometry":{"x":170088.74000000115,"y":2545386.5300000031}},{"attributes":{"ID":262945,"DIS_CODE":0,"TOWNNAME":"善化區","LI":"坐駕里","LIN":"22鄰","STREET":" ","SECT":" ","MAREA":"坐駕","LANE":" ","ALLEY":" ","HOUSE_NO":"４５號之１２","E_COORD97":177988.07000000001,"N_COORD97":2558230.52,"ADDRESS":"坐駕４５號之１２","OBJECTID":262941},"geometry":{"x":177988.07000000123,"y":2558230.5200000014}},{"attributes":{"ID":262946,"DIS_CODE":0,"TOWNNAME":"善化區","LI":"坐駕里","LIN":"22鄰","STREET":" ","SECT":" ","MAREA":"陽明新村","LANE":" ","ALLEY":" ","HOUSE_NO":"８５號","E_COORD97":178132.07999999999,"N_COORD97":2558279.7599999998,"ADDRESS":"陽明新村８５號","OBJECTID":262942},"geometry":{"x":178132.08000000101,"y":2558279.7600000016}},{"attributes":{"ID":262947,"DIS_CODE":0,"TOWNNAME":"善化區","LI":"小新里","LIN":"22鄰","STREET":" ","SECT":" ","MAREA":"士宏新村","LANE":" ","ALLEY":" ","HOUSE_NO":"４２號","E_COORD97":180453.09,"N_COORD97":2558563,"ADDRESS":"士宏新村４２號","OBJECTID":262943},"geometry":{"x":180453.08999999985,"y":2558563.0000000019}},{"attributes":{"ID":262948,"DIS_CODE":0,"TOWNNAME":"北區","LI":"長榮里","LIN":"13鄰","STREET":"長榮路","SECT":"五段","MAREA":" ","LANE":"４１巷","ALLEY":" ","HOUSE_NO":"１３號十樓之１","E_COORD97":170088.73999999999,"N_COORD97":2545386.5299999998,"ADDRESS":"長榮路五段４１巷１３號十樓之１","OBJECTID":262944},"geometry":{"x":170088.74000000115,"y":2545386.5300000031}},{"attributes":{"ID":262949,"DIS_CODE":0,"TOWNNAME":"善化區","LI":"坐駕里","LIN":"22鄰","STREET":" ","SECT":" ","MAREA":"陽明新村","LANE":" ","ALLEY":" ","HOUSE_NO":"２０號","E_COORD97":178110.82000000001,"N_COORD97":2558358.7599999998,"ADDRESS":"陽明新村２０號","OBJECTID":262945},"geometry":{"x":178110.8200000003,"y":2558358.7599999998}},{"attributes":{"ID":262950,"DIS_CODE":0,"TOWNNAME":"善化區","LI":"坐駕里","LIN":"22鄰","STREET":" ","SECT":" ","MAREA":"陽明新村","LANE":" ","ALLEY":" ","HOUSE_NO":"１１１號","E_COORD97":178049.84,"N_COORD97":2558308.5099999998,"ADDRESS":"陽明新村１１１號","OBJECTID":262946},"geometry":{"x":178049.84000000171,"y":2558308.5100000016}},{"attributes":{"ID":262951,"DIS_CODE":0,"TOWNNAME":"北區","LI":"長榮里","LIN":"13鄰","STREET":"長榮路","SECT":"五段","MAREA":" ","LANE":"４１巷","ALLEY":" ","HOUSE_NO":"１３號十樓之２","E_COORD97":170088.73999999999,"N_COORD97":2545386.5299999998,"ADDRESS":"長榮路五段４１巷１３號十樓之２","OBJECTID":262947},"geometry":{"x":170088.74000000115,"y":2545386.5300000031}},{"attributes":{"ID":262952,"DIS_CODE":0,"TOWNNAME":"北區","LI":"長德里","LIN":"13鄰","STREET":"長北街","SECT":" ","MAREA":" ","LANE":"２１０巷","ALLEY":" ","HOUSE_NO":"１號二樓","E_COORD97":168601.85000000001,"N_COORD97":2545034.4700000002,"ADDRESS":"長北街２１０巷１號二樓","OBJECTID":262948},"geometry":{"x":168601.84999999963,"y":2545034.4700000007}},{"attributes":{"ID":262953,"DIS_CODE":0,"TOWNNAME":"北區","LI":"長德里","LIN":"13鄰","STREET":"長北街","SECT":" ","MAREA":" ","LANE":"２１０巷","ALLEY":" ","HOUSE_NO":"１號三樓","E_COORD97":168601.85000000001,"N_COORD97":2545034.4700000002,"ADDRESS":"長北街２１０巷１號三樓","OBJECTID":262949},"geometry":{"x":168601.84999999963,"y":2545034.4700000007}},{"attributes":{"ID":262954,"DIS_CODE":0,"TOWNNAME":"善化區","LI":"坐駕里","LIN":"22鄰","STREET":" ","SECT":" ","MAREA":"陽明新村","LANE":" ","ALLEY":" ","HOUSE_NO":"３９號","E_COORD97":178184.98000000001,"N_COORD97":2558309.2599999998,"ADDRESS":"陽明新村３９號","OBJECTID":262950},"geometry":{"x":178184.98000000231,"y":2558309.2600000035}},{"attributes":{"ID":262955,"DIS_CODE":0,"TOWNNAME":"善化區","LI":"光文里","LIN":"22鄰","STREET":"中山路","SECT":" ","MAREA":" ","LANE":" ","ALLEY":" ","HOUSE_NO":"７８號（半毀）","E_COORD97":178709.92000000001,"N_COORD97":2559247.75,"ADDRESS":"中山路７８號（半毀）","OBJECTID":262951},"geometry":{"x":178709.91999999993,"y":2559247.75}},{"attributes":{"ID":262956,"DIS_CODE":0,"TOWNNAME":"善化區","LI":"光文里","LIN":"22鄰","STREET":"光華路","SECT":" ","MAREA":" ","LANE":" ","ALLEY":" ","HOUSE_NO":"５１號","E_COORD97":178626.82000000001,"N_COORD97":2559320.5,"ADDRESS":"光華路５１號","OBJECTID":262952},"geometry":{"x":178626.82000000216,"y":2559320.5}},{"attributes":{"ID":262957,"DIS_CODE":0,"TOWNNAME":"北區","LI":"長德里","LIN":"13鄰","STREET":"長北街","SECT":" ","MAREA":" ","LANE":"２１０巷","ALLEY":" ","HOUSE_NO":"１號五樓","E_COORD97":168601.85000000001,"N_COORD97":2545034.4700000002,"ADDRESS":"長北街２１０巷１號五樓","OBJECTID":262953},"geometry":{"x":168601.84999999963,"y":2545034.4700000007}},{"attributes":{"ID":262958,"DIS_CODE":0,"TOWNNAME":"北區","LI":"長德里","LIN":"13鄰","STREET":"長北街","SECT":" ","MAREA":" ","LANE":"２１０巷","ALLEY":" ","HOUSE_NO":"１號四樓","E_COORD97":168601.85000000001,"N_COORD97":2545034.4700000002,"ADDRESS":"長北街２１０巷１號四樓","OBJECTID":262954},"geometry":{"x":168601.84999999963,"y":2545034.4700000007}},{"attributes":{"ID":262959,"DIS_CODE":0,"TOWNNAME":"北區","LI":"長德里","LIN":"13鄰","STREET":"長北街","SECT":" ","MAREA":" ","LANE":"２１０巷","ALLEY":" ","HOUSE_NO":"１號四樓之１","E_COORD97":168601.85000000001,"N_COORD97":2545034.4700000002,"ADDRESS":"長北街２１０巷１號四樓之１","OBJECTID":262955},"geometry":{"x":168601.84999999963,"y":2545034.4700000007}},{"attributes":{"ID":262960,"DIS_CODE":0,"TOWNNAME":"北區","LI":"長德里","LIN":"13鄰","STREET":"長北街","SECT":" ","MAREA":" ","LANE":"２１０巷","ALLEY":" ","HOUSE_NO":"３號二樓","E_COORD97":168612.07000000001,"N_COORD97":2545030.1000000001,"ADDRESS":"長北街２１０巷３號二樓","OBJECTID":262956},"geometry":{"x":168612.07000000123,"y":2545030.1000000034}},{"attributes":{"ID":262961,"DIS_CODE":0,"TOWNNAME":"北區","LI":"長德里","LIN":"13鄰","STREET":"長北街","SECT":" ","MAREA":" ","LANE":"２１０巷","ALLEY":" ","HOUSE_NO":"３號三樓","E_COORD97":168612.07000000001,"N_COORD97":2545030.1000000001,"ADDRESS":"長北街２１０巷３號三樓","OBJECTID":262957},"geometry":{"x":168612.07000000123,"y":2545030.1000000034}},{"attributes":{"ID":262962,"DIS_CODE":0,"TOWNNAME":"善化區","LI":"坐駕里","LIN":"22鄰","STREET":" ","SECT":" ","MAREA":"坐駕","LANE":" ","ALLEY":" ","HOUSE_NO":"４５號之１７","E_COORD97":177985.79000000001,"N_COORD97":2558247.52,"ADDRESS":"坐駕４５號之１７","OBJECTID":262958},"geometry":{"x":177985.7900000019,"y":2558247.5200000014}},{"attributes":{"ID":262963,"DIS_CODE":0,"TOWNNAME":"北區","LI":"長德里","LIN":"13鄰","STREET":"長北街","SECT":" ","MAREA":" ","LANE":"２１０巷","ALLEY":" ","HOUSE_NO":"３號五樓","E_COORD97":168612.07000000001,"N_COORD97":2545030.1000000001,"ADDRESS":"長北街２１０巷３號五樓","OBJECTID":262959},"geometry":{"x":168612.07000000123,"y":2545030.1000000034}},{"attributes":{"ID":262964,"DIS_CODE":0,"TOWNNAME":"北區","LI":"長德里","LIN":"13鄰","STREET":"長北街","SECT":" ","MAREA":" ","LANE":"２１０巷","ALLEY":" ","HOUSE_NO":"３號四樓","E_COORD97":168612.07000000001,"N_COORD97":2545030.1000000001,"ADDRESS":"長北街２１０巷３號四樓","OBJECTID":262960},"geometry":{"x":168612.07000000123,"y":2545030.1000000034}},{"attributes":{"ID":262965,"DIS_CODE":0,"TOWNNAME":"善化區","LI":"坐駕里","LIN":"22鄰","STREET":" ","SECT":" ","MAREA":"陽明新村","LANE":" ","ALLEY":" ","HOUSE_NO":"７６號","E_COORD97":178141.89999999999,"N_COORD97":2558297.2599999998,"ADDRESS":"陽明新村７６號","OBJECTID":262961},"geometry":{"x":178141.9000000013,"y":2558297.2600000016}},{"attributes":{"ID":262966,"DIS_CODE":0,"TOWNNAME":"六甲區","LI":"中社里","LIN":"3鄰","STREET":" ","SECT":" ","MAREA":"中社","LANE":" ","ALLEY":" ","HOUSE_NO":"８９號","E_COORD97":181126.29000000001,"N_COORD97":2570816.3599999999,"ADDRESS":"中社８９號","OBJECTID":262962},"geometry":{"x":181126.29000000004,"y":2570816.3600000013}},{"attributes":{"ID":262967,"DIS_CODE":0,"TOWNNAME":"善化區","LI":"坐駕里","LIN":"22鄰","STREET":" ","SECT":" ","MAREA":"陽明新村","LANE":" ","ALLEY":" ","HOUSE_NO":"６３號","E_COORD97":178178.42999999999,"N_COORD97":2558287.7599999998,"ADDRESS":"陽明新村６３號","OBJECTID":262963},"geometry":{"x":178178.43000000063,"y":2558287.7599999998}},{"attributes":{"ID":262968,"DIS_CODE":0,"TOWNNAME":"善化區","LI":"坐駕里","LIN":"22鄰","STREET":" ","SECT":" ","MAREA":"陽明新村","LANE":" ","ALLEY":" ","HOUSE_NO":"１號","E_COORD97":178105.85999999999,"N_COORD97":2558395.7599999998,"ADDRESS":"陽明新村１號","OBJECTID":262964},"geometry":{"x":178105.86000000034,"y":2558395.7599999998}},{"attributes":{"ID":262969,"DIS_CODE":0,"TOWNNAME":"善化區","LI":"小新里","LIN":"22鄰","STREET":" ","SECT":" ","MAREA":"士宏新村","LANE":" ","ALLEY":" ","HOUSE_NO":"４８號","E_COORD97":180452.59,"N_COORD97":2558575.75,"ADDRESS":"士宏新村４８號","OBJECTID":262965},"geometry":{"x":180452.59000000078,"y":2558575.7500000019}},{"attributes":{"ID":262970,"DIS_CODE":0,"TOWNNAME":"永康區","LI":"正強里","LIN":"13鄰","STREET":"正強街","SECT":" ","MAREA":" ","LANE":"１１１巷","ALLEY":" ","HOUSE_NO":"１２號","E_COORD97":173286.62,"N_COORD97":2547413.96,"ADDRESS":"正強街１１１巷１２號","OBJECTID":262966},"geometry":{"x":173286.62000000104,"y":2547413.9600000028}},{"attributes":{"ID":262971,"DIS_CODE":0,"TOWNNAME":"安南區","LI":"長安里","LIN":"13鄰","STREET":"長溪路","SECT":"三段","MAREA":" ","LANE":"３８０巷","ALLEY":" ","HOUSE_NO":"５３號","E_COORD97":167810.54000000001,"N_COORD97":2552133.3599999999,"ADDRESS":"長溪路三段３８０巷５３號","OBJECTID":262967},"geometry":{"x":167810.54000000004,"y":2552133.3599999994}},{"attributes":{"ID":262972,"DIS_CODE":0,"TOWNNAME":"安南區","LI":"長安里","LIN":"13鄰","STREET":"長溪路","SECT":"三段","MAREA":" ","LANE":"３８０巷","ALLEY":" ","HOUSE_NO":"５７號","E_COORD97":167839.64999999999,"N_COORD97":2552119.3199999998,"ADDRESS":"長溪路三段３８０巷５７號","OBJECTID":262968},"geometry":{"x":167839.64999999944,"y":2552119.3200000022}},{"attributes":{"ID":262973,"DIS_CODE":0,"TOWNNAME":"安南區","LI":"總頭里","LIN":"13鄰","STREET":"長溪路","SECT":"二段","MAREA":" ","LANE":"４８３巷","ALLEY":" ","HOUSE_NO":"２０號","E_COORD97":168191.32999999999,"N_COORD97":2550424.48,"ADDRESS":"長溪路二段４８３巷２０號","OBJECTID":262969},"geometry":{"x":168191.33000000101,"y":2550424.4800000004}},{"attributes":{"ID":262974,"DIS_CODE":0,"TOWNNAME":"安南區","LI":"總頭里","LIN":"13鄰","STREET":"長溪路","SECT":"二段","MAREA":" ","LANE":"４８３巷","ALLEY":" ","HOUSE_NO":"１５號","E_COORD97":168197.23999999999,"N_COORD97":2550379.9100000001,"ADDRESS":"長溪路二段４８３巷１５號","OBJECTID":262970},"geometry":{"x":168197.24000000115,"y":2550379.910000002}},{"attributes":{"ID":262975,"DIS_CODE":0,"TOWNNAME":"安南區","LI":"總頭里","LIN":"13鄰","STREET":"長溪路","SECT":"二段","MAREA":" ","LANE":"４８３巷","ALLEY":" ","HOUSE_NO":"１６號","E_COORD97":168199.92999999999,"N_COORD97":2550410.4900000002,"ADDRESS":"長溪路二段４８３巷１６號","OBJECTID":262971},"geometry":{"x":168199.93000000156,"y":2550410.4900000002}},{"attributes":{"ID":262976,"DIS_CODE":0,"TOWNNAME":"善化區","LI":"坐駕里","LIN":"22鄰","STREET":" ","SECT":" ","MAREA":"陽明新村","LANE":" ","ALLEY":" ","HOUSE_NO":"２６號","E_COORD97":178102.51999999999,"N_COORD97":2558357.5099999998,"ADDRESS":"陽明新村２６號","OBJECTID":262972},"geometry":{"x":178102.52000000142,"y":2558357.5099999998}},{"attributes":{"ID":262977,"DIS_CODE":0,"TOWNNAME":"善化區","LI":"坐駕里","LIN":"22鄰","STREET":" ","SECT":" ","MAREA":"陽明新村","LANE":" ","ALLEY":" ","HOUSE_NO":"７８號","E_COORD97":178137.85999999999,"N_COORD97":2558296.7599999998,"ADDRESS":"陽明新村７８號","OBJECTID":262973},"geometry":{"x":178137.86000000034,"y":2558296.7600000016}},{"attributes":{"ID":262978,"DIS_CODE":0,"TOWNNAME":"安南區","LI":"總頭里","LIN":"13鄰","STREET":"長溪路","SECT":"二段","MAREA":" ","LANE":"４８３巷","ALLEY":" ","HOUSE_NO":"１７號","E_COORD97":168192.82000000001,"N_COORD97":2550379.9100000001,"ADDRESS":"長溪路二段４８３巷１７號","OBJECTID":262974},"geometry":{"x":168192.82000000216,"y":2550379.910000002}},{"attributes":{"ID":262979,"DIS_CODE":0,"TOWNNAME":"安南區","LI":"總頭里","LIN":"13鄰","STREET":"長溪路","SECT":"二段","MAREA":" ","LANE":"４８３巷","ALLEY":" ","HOUSE_NO":"１８號","E_COORD97":168197.66,"N_COORD97":2550420.4199999999,"ADDRESS":"長溪路二段４８３巷１８號","OBJECTID":262975},"geometry":{"x":168197.66000000108,"y":2550420.4200000018}},{"attributes":{"ID":262980,"DIS_CODE":0,"TOWNNAME":"善化區","LI":"光文里","LIN":"22鄰","STREET":"中山路","SECT":" ","MAREA":" ","LANE":" ","ALLEY":" ","HOUSE_NO":"１１０號","E_COORD97":178574.01999999999,"N_COORD97":2559192,"ADDRESS":"中山路１１０號","OBJECTID":262976},"geometry":{"x":178574.02000000048,"y":2559192}},{"attributes":{"ID":262981,"DIS_CODE":0,"TOWNNAME":"安南區","LI":"總頭里","LIN":"13鄰","STREET":"長溪路","SECT":"二段","MAREA":" ","LANE":"４８３巷","ALLEY":" ","HOUSE_NO":"２２號","E_COORD97":168178.67000000001,"N_COORD97":2550432.6099999999,"ADDRESS":"長溪路二段４８３巷２２號","OBJECTID":262977},"geometry":{"x":168178.67000000086,"y":2550432.6099999994}},{"attributes":{"ID":262982,"DIS_CODE":0,"TOWNNAME":"善化區","LI":"坐駕里","LIN":"22鄰","STREET":" ","SECT":" ","MAREA":"陽明新村","LANE":" ","ALLEY":" ","HOUSE_NO":"１１７號","E_COORD97":178047.53,"N_COORD97":2558223.7599999998,"ADDRESS":"陽明新村１１７號","OBJECTID":262978},"geometry":{"x":178047.53000000119,"y":2558223.7599999998}},{"attributes":{"ID":262983,"DIS_CODE":0,"TOWNNAME":"安南區","LI":"總頭里","LIN":"13鄰","STREET":"長溪路","SECT":"二段","MAREA":" ","LANE":"４８３巷","ALLEY":" ","HOUSE_NO":"２３號","E_COORD97":168175.73000000001,"N_COORD97":2550376.6099999999,"ADDRESS":"長溪路二段４８３巷２３號","OBJECTID":262979},"geometry":{"x":168175.73000000138,"y":2550376.6100000031}},{"attributes":{"ID":262984,"DIS_CODE":0,"TOWNNAME":"安南區","LI":"總頭里","LIN":"13鄰","STREET":"長溪路","SECT":"二段","MAREA":" ","LANE":"４８３巷","ALLEY":" ","HOUSE_NO":"２４號","E_COORD97":168185.91,"N_COORD97":2550410.4900000002,"ADDRESS":"長溪路二段４８３巷２４號","OBJECTID":262980},"geometry":{"x":168185.91000000108,"y":2550410.4900000002}},{"attributes":{"ID":262985,"DIS_CODE":0,"TOWNNAME":"安南區","LI":"總頭里","LIN":"13鄰","STREET":"長溪路","SECT":"二段","MAREA":" ","LANE":"４８３巷","ALLEY":" ","HOUSE_NO":"２５號","E_COORD97":168171.32000000001,"N_COORD97":2550377.1600000001,"ADDRESS":"長溪路二段４８３巷２５號","OBJECTID":262981},"geometry":{"x":168171.32000000123,"y":2550377.1600000039}},{"attributes":{"ID":262986,"DIS_CODE":0,"TOWNNAME":"安南區","LI":"總頭里","LIN":"13鄰","STREET":"長溪路","SECT":"二段","MAREA":" ","LANE":"４８３巷","ALLEY":" ","HOUSE_NO":"２７號","E_COORD97":168166.91,"N_COORD97":2550376.6099999999,"ADDRESS":"長溪路二段４８３巷２７號","OBJECTID":262982},"geometry":{"x":168166.91000000108,"y":2550376.6100000031}},{"attributes":{"ID":262987,"DIS_CODE":0,"TOWNNAME":"善化區","LI":"坐駕里","LIN":"22鄰","STREET":" ","SECT":" ","MAREA":"坐駕","LANE":" ","ALLEY":" ","HOUSE_NO":"４４號","E_COORD97":178136.91,"N_COORD97":2558240.25,"ADDRESS":"坐駕４４號","OBJECTID":262983},"geometry":{"x":178136.91000000015,"y":2558240.25}},{"attributes":{"ID":262988,"DIS_CODE":0,"TOWNNAME":"安南區","LI":"總頭里","LIN":"13鄰","STREET":"長溪路","SECT":"二段","MAREA":" ","LANE":"４８３巷","ALLEY":" ","HOUSE_NO":"２８號","E_COORD97":168173.70000000001,"N_COORD97":2550408.6899999999,"ADDRESS":"長溪路二段４８３巷２８號","OBJECTID":262984},"geometry":{"x":168173.70000000112,"y":2550408.6899999995}},{"attributes":{"ID":262989,"DIS_CODE":0,"TOWNNAME":"安南區","LI":"總頭里","LIN":"13鄰","STREET":"長溪路","SECT":"二段","MAREA":" ","LANE":"４８３巷","ALLEY":" ","HOUSE_NO":"２９號","E_COORD97":168162.48999999999,"N_COORD97":2550375.5099999998,"ADDRESS":"長溪路二段４８３巷２９號","OBJECTID":262985},"geometry":{"x":168162.49000000022,"y":2550375.5100000016}},{"attributes":{"ID":262990,"DIS_CODE":0,"TOWNNAME":"永康區","LI":"埔園里","LIN":"13鄰","STREET":"中山路","SECT":" ","MAREA":" ","LANE":"２０７巷","ALLEY":" ","HOUSE_NO":"３５號","E_COORD97":173591.34,"N_COORD97":2548117.7400000002,"ADDRESS":"中山路２０７巷３５號","OBJECTID":262986},"geometry":{"x":173591.34000000171,"y":2548117.7400000002}},{"attributes":{"ID":262991,"DIS_CODE":0,"TOWNNAME":"東區","LI":"崇信里","LIN":"13鄰","STREET":"崇學路","SECT":" ","MAREA":" ","LANE":"２３０巷","ALLEY":" ","HOUSE_NO":"３９號","E_COORD97":170662.82000000001,"N_COORD97":2542452.8599999999,"ADDRESS":"崇學路２３０巷３９號","OBJECTID":262987},"geometry":{"x":170662.82000000216,"y":2542452.8600000013}},{"attributes":{"ID":262992,"DIS_CODE":0,"TOWNNAME":"東區","LI":"崇信里","LIN":"13鄰","STREET":"崇學路","SECT":" ","MAREA":" ","LANE":"２３０巷","ALLEY":" ","HOUSE_NO":"５１號","E_COORD97":170661.60000000001,"N_COORD97":2542443.3599999999,"ADDRESS":"崇學路２３０巷５１號","OBJECTID":262988},"geometry":{"x":170661.59999999963,"y":2542443.3599999994}},{"attributes":{"ID":262993,"DIS_CODE":0,"TOWNNAME":"東區","LI":"崇信里","LIN":"13鄰","STREET":"崇學路","SECT":" ","MAREA":" ","LANE":"２３０巷","ALLEY":" ","HOUSE_NO":"５３號","E_COORD97":170660.5,"N_COORD97":2542436.6600000001,"ADDRESS":"崇學路２３０巷５３號","OBJECTID":262989},"geometry":{"x":170660.5,"y":2542436.6600000039}},{"attributes":{"ID":262994,"DIS_CODE":0,"TOWNNAME":"東區","LI":"崇信里","LIN":"13鄰","STREET":"崇學路","SECT":" ","MAREA":" ","LANE":"２３０巷","ALLEY":" ","HOUSE_NO":"５５號","E_COORD97":170659.39999999999,"N_COORD97":2542428.8599999999,"ADDRESS":"崇學路２３０巷５５號","OBJECTID":262990},"geometry":{"x":170659.4000000013,"y":2542428.8600000013}},{"attributes":{"ID":262995,"DIS_CODE":0,"TOWNNAME":"安南區","LI":"溪心里","LIN":"13鄰","STREET":"安中路","SECT":"三段","MAREA":" ","LANE":"１５３巷","ALLEY":" ","HOUSE_NO":"２１號","E_COORD97":165984.17000000001,"N_COORD97":2549724.8999999999,"ADDRESS":"安中路三段１５３巷２１號","OBJECTID":262991},"geometry":{"x":165984.16999999993,"y":2549724.9000000022}},{"attributes":{"ID":262996,"DIS_CODE":0,"TOWNNAME":"安南區","LI":"海西里","LIN":"13鄰","STREET":"海尾路","SECT":" ","MAREA":" ","LANE":" ","ALLEY":" ","HOUSE_NO":"５００號","E_COORD97":166244.95000000001,"N_COORD97":2548426.4100000001,"ADDRESS":"海尾路５００號","OBJECTID":262992},"geometry":{"x":166244.95000000019,"y":2548426.410000002}},{"attributes":{"ID":262997,"DIS_CODE":0,"TOWNNAME":"安南區","LI":"海西里","LIN":"13鄰","STREET":"海環街","SECT":" ","MAREA":" ","LANE":"３６５巷","ALLEY":" ","HOUSE_NO":"２２號","E_COORD97":166005.48999999999,"N_COORD97":2548873.6099999999,"ADDRESS":"海環街３６５巷２２號","OBJECTID":262993},"geometry":{"x":166005.49000000115,"y":2548873.6099999994}},{"attributes":{"ID":262998,"DIS_CODE":0,"TOWNNAME":"安南區","LI":"海西里","LIN":"13鄰","STREET":"海環街","SECT":" ","MAREA":" ","LANE":"３６５巷","ALLEY":" ","HOUSE_NO":"２４號","E_COORD97":166002.01000000001,"N_COORD97":2548871.5800000001,"ADDRESS":"海環街３６５巷２４號","OBJECTID":262994},"geometry":{"x":166002.00999999978,"y":2548871.5800000001}},{"attributes":{"ID":262999,"DIS_CODE":0,"TOWNNAME":"安南區","LI":"淵中里","LIN":"13鄰","STREET":"安中路","SECT":"四段","MAREA":" ","LANE":"１６８巷","ALLEY":" ","HOUSE_NO":"１０號","E_COORD97":164878.51999999999,"N_COORD97":2550082.3700000001,"ADDRESS":"安中路四段１６８巷１０號","OBJECTID":262995},"geometry":{"x":164878.52000000048,"y":2550082.3700000029}},{"attributes":{"ID":263000,"DIS_CODE":0,"TOWNNAME":"安南區","LI":"淵中里","LIN":"13鄰","STREET":"安中路","SECT":"四段","MAREA":" ","LANE":"１６８巷","ALLEY":" ","HOUSE_NO":"１２號","E_COORD97":164876.01000000001,"N_COORD97":2550086.4700000002,"ADDRESS":"安中路四段１６８巷１２號","OBJECTID":262996},"geometry":{"x":164876.01000000071,"y":2550086.4700000007}},{"attributes":{"ID":263001,"DIS_CODE":0,"TOWNNAME":"善化區","LI":"坐駕里","LIN":"22鄰","STREET":" ","SECT":" ","MAREA":"陽明新村","LANE":" ","ALLEY":" ","HOUSE_NO":"４２號","E_COORD97":178145.79000000001,"N_COORD97":2558323.7599999998,"ADDRESS":"陽明新村４２號","OBJECTID":262997},"geometry":{"x":178145.79000000097,"y":2558323.7600000016}},{"attributes":{"ID":263002,"DIS_CODE":0,"TOWNNAME":"善化區","LI":"坐駕里","LIN":"22鄰","STREET":" ","SECT":" ","MAREA":"陽明新村","LANE":" ","ALLEY":" ","HOUSE_NO":"２５號","E_COORD97":178152.79999999999,"N_COORD97":2558346.2599999998,"ADDRESS":"陽明新村２５號","OBJECTID":262998},"geometry":{"x":178152.79999999981,"y":2558346.2599999998}},{"attributes":{"ID":263003,"DIS_CODE":0,"TOWNNAME":"善化區","LI":"坐駕里","LIN":"22鄰","STREET":" ","SECT":" ","MAREA":"陽明新村","LANE":" ","ALLEY":" ","HOUSE_NO":"６０號","E_COORD97":178117.67999999999,"N_COORD97":2558319.0099999998,"ADDRESS":"陽明新村６０號","OBJECTID":262999},"geometry":{"x":178117.6799999997,"y":2558319.0100000016}},{"attributes":{"ID":263004,"DIS_CODE":0,"TOWNNAME":"善化區","LI":"坐駕里","LIN":"22鄰","STREET":" ","SECT":" ","MAREA":"陽明新村","LANE":" ","ALLEY":" ","HOUSE_NO":"８１號","E_COORD97":178140.37,"N_COORD97":2558281.7599999998,"ADDRESS":"陽明新村８１號","OBJECTID":263000},"geometry":{"x":178140.37000000104,"y":2558281.7599999998}}]}