{"displayFieldName":"TOWNNAME","fieldAliases":{"ID":"ID","DIS_CODE":"DIS_CODE","TOWNNAME":"TOWNNAME","LI":"LI","LIN":"LIN","STREET":"STREET","SECT":"SECT","MAREA":"MAREA","LANE":"LANE","ALLEY":"ALLEY","HOUSE_NO":"HOUSE_NO","E_COORD97":"E_COORD97","N_COORD97":"N_COORD97","ADDRESS":"ADDRESS","OBJECTID":"OBJECTID"},"geometryType":"esriGeometryPoint","spatialReference":{"wkid":102443,"latestWkid":3826},"fields":[{"name":"ID","type":"esriFieldTypeDouble","alias":"ID"},{"name":"DIS_CODE","type":"esriFieldTypeInteger","alias":"DIS_CODE"},{"name":"TOWNNAME","type":"esriFieldTypeString","alias":"TOWNNAME","length":8},{"name":"LI","type":"esriFieldTypeString","alias":"LI","length":8},{"name":"LIN","type":"esriFieldTypeString","alias":"LIN","length":12},{"name":"STREET","type":"esriFieldTypeString","alias":"STREET","length":20},{"name":"SECT","type":"esriFieldTypeString","alias":"SECT","length":8},{"name":"MAREA","type":"esriFieldTypeString","alias":"MAREA","length":12},{"name":"LANE","type":"esriFieldTypeString","alias":"LANE","length":10},{"name":"ALLEY","type":"esriFieldTypeString","alias":"ALLEY","length":10},{"name":"HOUSE_NO","type":"esriFieldTypeString","alias":"HOUSE_NO","length":20},{"name":"E_COORD97","type":"esriFieldTypeDouble","alias":"E_COORD97"},{"name":"N_COORD97","type":"esriFieldTypeDouble","alias":"N_COORD97"},{"name":"ADDRESS","type":"esriFieldTypeString","alias":"ADDRESS","length":50},{"name":"OBJECTID","type":"esriFieldTypeOID","alias":"OBJECTID"}],"features":[{"attributes":{"ID":153002,"DIS_CODE":0,"TOWNNAME":"東區","LI":"忠孝里","LIN":"2鄰","STREET":"中華東路","SECT":"三段","MAREA":" ","LANE":"３３６巷","ALLEY":"４３弄","HOUSE_NO":"１２號八樓之６","E_COORD97":170060.88,"N_COORD97":2541733.2799999998,"ADDRESS":"中華東路三段３３６巷４３弄１２號八樓之６","OBJECTID":153001},"geometry":{"x":170060.88000000082,"y":2541733.2800000031}},{"attributes":{"ID":153003,"DIS_CODE":0,"TOWNNAME":"東區","LI":"忠孝里","LIN":"2鄰","STREET":"中華東路","SECT":"三段","MAREA":" ","LANE":"３３６巷","ALLEY":"４３弄","HOUSE_NO":"１２號十樓","E_COORD97":170060.88,"N_COORD97":2541733.2799999998,"ADDRESS":"中華東路三段３３６巷４３弄１２號十樓","OBJECTID":153002},"geometry":{"x":170060.88000000082,"y":2541733.2800000031}},{"attributes":{"ID":153004,"DIS_CODE":0,"TOWNNAME":"東區","LI":"忠孝里","LIN":"2鄰","STREET":"中華東路","SECT":"三段","MAREA":" ","LANE":"３３６巷","ALLEY":"４３弄","HOUSE_NO":"１２號十樓之２","E_COORD97":170060.88,"N_COORD97":2541733.2799999998,"ADDRESS":"中華東路三段３３６巷４３弄１２號十樓之２","OBJECTID":153003},"geometry":{"x":170060.88000000082,"y":2541733.2800000031}},{"attributes":{"ID":153005,"DIS_CODE":0,"TOWNNAME":"東區","LI":"忠孝里","LIN":"2鄰","STREET":"中華東路","SECT":"三段","MAREA":" ","LANE":"３３６巷","ALLEY":"４３弄","HOUSE_NO":"１２號十樓之３","E_COORD97":170060.88,"N_COORD97":2541733.2799999998,"ADDRESS":"中華東路三段３３６巷４３弄１２號十樓之３","OBJECTID":153004},"geometry":{"x":170060.88000000082,"y":2541733.2800000031}},{"attributes":{"ID":153006,"DIS_CODE":0,"TOWNNAME":"東區","LI":"忠孝里","LIN":"2鄰","STREET":"中華東路","SECT":"三段","MAREA":" ","LANE":"３３６巷","ALLEY":"４３弄","HOUSE_NO":"１２號十樓之６","E_COORD97":170060.88,"N_COORD97":2541733.2799999998,"ADDRESS":"中華東路三段３３６巷４３弄１２號十樓之６","OBJECTID":153005},"geometry":{"x":170060.88000000082,"y":2541733.2800000031}},{"attributes":{"ID":153007,"DIS_CODE":0,"TOWNNAME":"東區","LI":"忠孝里","LIN":"2鄰","STREET":"中華東路","SECT":"三段","MAREA":" ","LANE":"３３６巷","ALLEY":"４３弄","HOUSE_NO":"１２號三樓","E_COORD97":170060.88,"N_COORD97":2541733.2799999998,"ADDRESS":"中華東路三段３３６巷４３弄１２號三樓","OBJECTID":153006},"geometry":{"x":170060.88000000082,"y":2541733.2800000031}},{"attributes":{"ID":153008,"DIS_CODE":0,"TOWNNAME":"東區","LI":"忠孝里","LIN":"2鄰","STREET":"中華東路","SECT":"三段","MAREA":" ","LANE":"３３６巷","ALLEY":"４３弄","HOUSE_NO":"１２號三樓之１","E_COORD97":170060.88,"N_COORD97":2541733.2799999998,"ADDRESS":"中華東路三段３３６巷４３弄１２號三樓之１","OBJECTID":153007},"geometry":{"x":170060.88000000082,"y":2541733.2800000031}},{"attributes":{"ID":153009,"DIS_CODE":0,"TOWNNAME":"東區","LI":"忠孝里","LIN":"2鄰","STREET":"中華東路","SECT":"三段","MAREA":" ","LANE":"３３６巷","ALLEY":"４３弄","HOUSE_NO":"１２號三樓之２","E_COORD97":170060.88,"N_COORD97":2541733.2799999998,"ADDRESS":"中華東路三段３３６巷４３弄１２號三樓之２","OBJECTID":153008},"geometry":{"x":170060.88000000082,"y":2541733.2800000031}},{"attributes":{"ID":153010,"DIS_CODE":0,"TOWNNAME":"東區","LI":"忠孝里","LIN":"2鄰","STREET":"中華東路","SECT":"三段","MAREA":" ","LANE":"３３６巷","ALLEY":"４３弄","HOUSE_NO":"１２號三樓之３","E_COORD97":170060.88,"N_COORD97":2541733.2799999998,"ADDRESS":"中華東路三段３３６巷４３弄１２號三樓之３","OBJECTID":153009},"geometry":{"x":170060.88000000082,"y":2541733.2800000031}},{"attributes":{"ID":153011,"DIS_CODE":0,"TOWNNAME":"東區","LI":"忠孝里","LIN":"2鄰","STREET":"中華東路","SECT":"三段","MAREA":" ","LANE":"３３６巷","ALLEY":"４３弄","HOUSE_NO":"１２號三樓之５","E_COORD97":170060.88,"N_COORD97":2541733.2799999998,"ADDRESS":"中華東路三段３３６巷４３弄１２號三樓之５","OBJECTID":153010},"geometry":{"x":170060.88000000082,"y":2541733.2800000031}},{"attributes":{"ID":153012,"DIS_CODE":0,"TOWNNAME":"安南區","LI":"東和里","LIN":"1鄰","STREET":"長和路","SECT":"一段","MAREA":" ","LANE":"８７１巷","ALLEY":" ","HOUSE_NO":"３４之２號","E_COORD97":170710.75,"N_COORD97":2551462.8100000001,"ADDRESS":"長和路一段８７１巷３４之２號","OBJECTID":153011},"geometry":{"x":170710.75000000093,"y":2551462.8100000024}},{"attributes":{"ID":153013,"DIS_CODE":0,"TOWNNAME":"東區","LI":"忠孝里","LIN":"2鄰","STREET":"中華東路","SECT":"三段","MAREA":" ","LANE":"３３６巷","ALLEY":"４３弄","HOUSE_NO":"１２號三樓之６","E_COORD97":170060.88,"N_COORD97":2541733.2799999998,"ADDRESS":"中華東路三段３３６巷４３弄１２號三樓之６","OBJECTID":153012},"geometry":{"x":170060.88000000082,"y":2541733.2800000031}},{"attributes":{"ID":153014,"DIS_CODE":0,"TOWNNAME":"東區","LI":"忠孝里","LIN":"2鄰","STREET":"中華東路","SECT":"三段","MAREA":" ","LANE":"３３６巷","ALLEY":"４３弄","HOUSE_NO":"１２號五樓","E_COORD97":170060.88,"N_COORD97":2541733.2799999998,"ADDRESS":"中華東路三段３３６巷４３弄１２號五樓","OBJECTID":153013},"geometry":{"x":170060.88000000082,"y":2541733.2800000031}},{"attributes":{"ID":153015,"DIS_CODE":0,"TOWNNAME":"東區","LI":"忠孝里","LIN":"2鄰","STREET":"中華東路","SECT":"三段","MAREA":" ","LANE":"３３６巷","ALLEY":"４３弄","HOUSE_NO":"１２號五樓之１","E_COORD97":170060.88,"N_COORD97":2541733.2799999998,"ADDRESS":"中華東路三段３３６巷４３弄１２號五樓之１","OBJECTID":153014},"geometry":{"x":170060.88000000082,"y":2541733.2800000031}},{"attributes":{"ID":153016,"DIS_CODE":0,"TOWNNAME":"永康區","LI":"北灣里","LIN":"22鄰","STREET":"大灣路","SECT":" ","MAREA":" ","LANE":"４０巷","ALLEY":"９８弄","HOUSE_NO":"６０號","E_COORD97":174997.22,"N_COORD97":2546289.1400000001,"ADDRESS":"大灣路４０巷９８弄６０號","OBJECTID":153015},"geometry":{"x":174997.21999999974,"y":2546289.1400000025}},{"attributes":{"ID":153017,"DIS_CODE":0,"TOWNNAME":"東區","LI":"忠孝里","LIN":"2鄰","STREET":"中華東路","SECT":"三段","MAREA":" ","LANE":"３３６巷","ALLEY":"４３弄","HOUSE_NO":"１２號五樓之２","E_COORD97":170060.88,"N_COORD97":2541733.2799999998,"ADDRESS":"中華東路三段３３６巷４３弄１２號五樓之２","OBJECTID":153016},"geometry":{"x":170060.88000000082,"y":2541733.2800000031}},{"attributes":{"ID":153018,"DIS_CODE":0,"TOWNNAME":"東區","LI":"忠孝里","LIN":"2鄰","STREET":"中華東路","SECT":"三段","MAREA":" ","LANE":"３３６巷","ALLEY":"４３弄","HOUSE_NO":"１２號五樓之３","E_COORD97":170060.88,"N_COORD97":2541733.2799999998,"ADDRESS":"中華東路三段３３６巷４３弄１２號五樓之３","OBJECTID":153017},"geometry":{"x":170060.88000000082,"y":2541733.2800000031}},{"attributes":{"ID":153019,"DIS_CODE":0,"TOWNNAME":"東區","LI":"忠孝里","LIN":"2鄰","STREET":"中華東路","SECT":"三段","MAREA":" ","LANE":"３３６巷","ALLEY":"４３弄","HOUSE_NO":"１２號五樓之５","E_COORD97":170060.88,"N_COORD97":2541733.2799999998,"ADDRESS":"中華東路三段３３６巷４３弄１２號五樓之５","OBJECTID":153018},"geometry":{"x":170060.88000000082,"y":2541733.2800000031}},{"attributes":{"ID":153020,"DIS_CODE":0,"TOWNNAME":"東區","LI":"忠孝里","LIN":"2鄰","STREET":"中華東路","SECT":"三段","MAREA":" ","LANE":"３３６巷","ALLEY":"４３弄","HOUSE_NO":"１２號五樓之６","E_COORD97":170060.88,"N_COORD97":2541733.2799999998,"ADDRESS":"中華東路三段３３６巷４３弄１２號五樓之６","OBJECTID":153019},"geometry":{"x":170060.88000000082,"y":2541733.2800000031}},{"attributes":{"ID":153021,"DIS_CODE":0,"TOWNNAME":"東區","LI":"忠孝里","LIN":"2鄰","STREET":"中華東路","SECT":"三段","MAREA":" ","LANE":"３３６巷","ALLEY":"４３弄","HOUSE_NO":"１２號六樓","E_COORD97":170060.88,"N_COORD97":2541733.2799999998,"ADDRESS":"中華東路三段３３６巷４３弄１２號六樓","OBJECTID":153020},"geometry":{"x":170060.88000000082,"y":2541733.2800000031}},{"attributes":{"ID":153022,"DIS_CODE":0,"TOWNNAME":"東區","LI":"忠孝里","LIN":"2鄰","STREET":"中華東路","SECT":"三段","MAREA":" ","LANE":"３３６巷","ALLEY":"４３弄","HOUSE_NO":"１２號六樓之２","E_COORD97":170060.88,"N_COORD97":2541733.2799999998,"ADDRESS":"中華東路三段３３６巷４３弄１２號六樓之２","OBJECTID":153021},"geometry":{"x":170060.88000000082,"y":2541733.2800000031}},{"attributes":{"ID":153023,"DIS_CODE":0,"TOWNNAME":"東區","LI":"忠孝里","LIN":"2鄰","STREET":"中華東路","SECT":"三段","MAREA":" ","LANE":"３３６巷","ALLEY":"４３弄","HOUSE_NO":"１２號六樓之３","E_COORD97":170060.88,"N_COORD97":2541733.2799999998,"ADDRESS":"中華東路三段３３６巷４３弄１２號六樓之３","OBJECTID":153022},"geometry":{"x":170060.88000000082,"y":2541733.2800000031}},{"attributes":{"ID":153024,"DIS_CODE":0,"TOWNNAME":"東區","LI":"忠孝里","LIN":"2鄰","STREET":"中華東路","SECT":"三段","MAREA":" ","LANE":"３３６巷","ALLEY":"４３弄","HOUSE_NO":"１２號六樓之６","E_COORD97":170060.88,"N_COORD97":2541733.2799999998,"ADDRESS":"中華東路三段３３６巷４３弄１２號六樓之６","OBJECTID":153023},"geometry":{"x":170060.88000000082,"y":2541733.2800000031}},{"attributes":{"ID":153025,"DIS_CODE":0,"TOWNNAME":"東區","LI":"忠孝里","LIN":"2鄰","STREET":"中華東路","SECT":"三段","MAREA":" ","LANE":"３３６巷","ALLEY":"４３弄","HOUSE_NO":"１２號四樓","E_COORD97":170060.88,"N_COORD97":2541733.2799999998,"ADDRESS":"中華東路三段３３６巷４３弄１２號四樓","OBJECTID":153024},"geometry":{"x":170060.88000000082,"y":2541733.2800000031}},{"attributes":{"ID":153026,"DIS_CODE":0,"TOWNNAME":"東區","LI":"忠孝里","LIN":"2鄰","STREET":"中華東路","SECT":"三段","MAREA":" ","LANE":"３３６巷","ALLEY":"４３弄","HOUSE_NO":"１２號四樓之２","E_COORD97":170060.88,"N_COORD97":2541733.2799999998,"ADDRESS":"中華東路三段３３６巷４３弄１２號四樓之２","OBJECTID":153025},"geometry":{"x":170060.88000000082,"y":2541733.2800000031}},{"attributes":{"ID":153027,"DIS_CODE":0,"TOWNNAME":"東區","LI":"忠孝里","LIN":"2鄰","STREET":"中華東路","SECT":"三段","MAREA":" ","LANE":"３３６巷","ALLEY":"４３弄","HOUSE_NO":"１２號四樓之３","E_COORD97":170060.88,"N_COORD97":2541733.2799999998,"ADDRESS":"中華東路三段３３６巷４３弄１２號四樓之３","OBJECTID":153026},"geometry":{"x":170060.88000000082,"y":2541733.2800000031}},{"attributes":{"ID":153028,"DIS_CODE":0,"TOWNNAME":"東區","LI":"忠孝里","LIN":"2鄰","STREET":"中華東路","SECT":"三段","MAREA":" ","LANE":"３３６巷","ALLEY":"４３弄","HOUSE_NO":"１２號四樓之６","E_COORD97":170060.88,"N_COORD97":2541733.2799999998,"ADDRESS":"中華東路三段３３６巷４３弄１２號四樓之６","OBJECTID":153027},"geometry":{"x":170060.88000000082,"y":2541733.2800000031}},{"attributes":{"ID":153029,"DIS_CODE":0,"TOWNNAME":"永康區","LI":"甲頂里","LIN":"2鄰","STREET":"南台街","SECT":" ","MAREA":" ","LANE":"１３５巷","ALLEY":"７弄","HOUSE_NO":"３號一樓","E_COORD97":170055.54000000001,"N_COORD97":2546817.2200000002,"ADDRESS":"南台街１３５巷７弄３號一樓","OBJECTID":153028},"geometry":{"x":170055.54000000004,"y":2546817.2200000044}},{"attributes":{"ID":153030,"DIS_CODE":0,"TOWNNAME":"永康區","LI":"甲頂里","LIN":"2鄰","STREET":"南台街","SECT":" ","MAREA":" ","LANE":"１３５巷","ALLEY":"７弄","HOUSE_NO":"４號一樓","E_COORD97":170064.69,"N_COORD97":2546819.73,"ADDRESS":"南台街１３５巷７弄４號一樓","OBJECTID":153029},"geometry":{"x":170064.69000000041,"y":2546819.7300000004}},{"attributes":{"ID":153031,"DIS_CODE":0,"TOWNNAME":"永康區","LI":"甲頂里","LIN":"2鄰","STREET":"南台街","SECT":" ","MAREA":" ","LANE":"１３５巷","ALLEY":"７弄","HOUSE_NO":"２號二樓","E_COORD97":170047.54999999999,"N_COORD97":2546816.9700000002,"ADDRESS":"南台街１３５巷７弄２號二樓","OBJECTID":153030},"geometry":{"x":170047.55000000075,"y":2546816.9700000025}},{"attributes":{"ID":153032,"DIS_CODE":0,"TOWNNAME":"永康區","LI":"甲頂里","LIN":"2鄰","STREET":"南台街","SECT":" ","MAREA":" ","LANE":"１３５巷","ALLEY":"７弄","HOUSE_NO":"３號二樓","E_COORD97":170055.54000000001,"N_COORD97":2546817.2200000002,"ADDRESS":"南台街１３５巷７弄３號二樓","OBJECTID":153031},"geometry":{"x":170055.54000000004,"y":2546817.2200000044}},{"attributes":{"ID":153033,"DIS_CODE":0,"TOWNNAME":"永康區","LI":"甲頂里","LIN":"2鄰","STREET":"南台街","SECT":" ","MAREA":" ","LANE":"１３５巷","ALLEY":"７弄","HOUSE_NO":"２號四樓","E_COORD97":170047.54999999999,"N_COORD97":2546816.9700000002,"ADDRESS":"南台街１３５巷７弄２號四樓","OBJECTID":153032},"geometry":{"x":170047.55000000075,"y":2546816.9700000025}},{"attributes":{"ID":153034,"DIS_CODE":0,"TOWNNAME":"永康區","LI":"甲頂里","LIN":"2鄰","STREET":"南台街","SECT":" ","MAREA":" ","LANE":"１３５巷","ALLEY":"７弄","HOUSE_NO":"５號二樓","E_COORD97":170072.20000000001,"N_COORD97":2546817.4700000002,"ADDRESS":"南台街１３５巷７弄５號二樓","OBJECTID":153033},"geometry":{"x":170072.20000000112,"y":2546817.4700000007}},{"attributes":{"ID":153035,"DIS_CODE":0,"TOWNNAME":"永康區","LI":"尚頂里","LIN":"15鄰","STREET":"中正南路","SECT":" ","MAREA":" ","LANE":"２４２巷","ALLEY":"１６弄","HOUSE_NO":"４號","E_COORD97":170479.20999999999,"N_COORD97":2547406.3399999999,"ADDRESS":"中正南路２４２巷１６弄４號","OBJECTID":153034},"geometry":{"x":170479.20999999996,"y":2547406.3400000017}},{"attributes":{"ID":153036,"DIS_CODE":0,"TOWNNAME":"永康區","LI":"尚頂里","LIN":"15鄰","STREET":"中正南路","SECT":" ","MAREA":" ","LANE":"２４２巷","ALLEY":"４弄","HOUSE_NO":"７５號","E_COORD97":170517.54999999999,"N_COORD97":2547363.2999999998,"ADDRESS":"中正南路２４２巷４弄７５號","OBJECTID":153035},"geometry":{"x":170517.54999999981,"y":2547363.3000000026}},{"attributes":{"ID":153037,"DIS_CODE":0,"TOWNNAME":"永康區","LI":"王行里","LIN":"10鄰","STREET":"王行路","SECT":" ","MAREA":" ","LANE":"１０１８巷","ALLEY":"３８弄","HOUSE_NO":"５號","E_COORD97":175814.48999999999,"N_COORD97":2550237,"ADDRESS":"王行路１０１８巷３８弄５號","OBJECTID":153036},"geometry":{"x":175814.49000000022,"y":2550237.0000000019}},{"attributes":{"ID":153038,"DIS_CODE":0,"TOWNNAME":"永康區","LI":"成功里","LIN":"11鄰","STREET":"忠孝路","SECT":" ","MAREA":" ","LANE":"１９５巷","ALLEY":"４０弄","HOUSE_NO":"８號","E_COORD97":171994.72,"N_COORD97":2544865.1000000001,"ADDRESS":"忠孝路１９５巷４０弄８號","OBJECTID":153037},"geometry":{"x":171994.71999999974,"y":2544865.1000000015}},{"attributes":{"ID":153039,"DIS_CODE":0,"TOWNNAME":"後壁區","LI":"嘉苳里","LIN":"5鄰","STREET":" ","SECT":" ","MAREA":"下茄苳","LANE":" ","ALLEY":" ","HOUSE_NO":"５８號之３３","E_COORD97":184966.17000000001,"N_COORD97":2583122.0899999999,"ADDRESS":"下茄苳５８號之３３","OBJECTID":153038},"geometry":{"x":184966.17000000086,"y":2583122.0900000017}},{"attributes":{"ID":153040,"DIS_CODE":0,"TOWNNAME":"永康區","LI":"二王里","LIN":"11鄰","STREET":"永二街","SECT":" ","MAREA":" ","LANE":"３９３巷","ALLEY":"１６弄","HOUSE_NO":"２７號","E_COORD97":172897.57000000001,"N_COORD97":2546529.9399999999,"ADDRESS":"永二街３９３巷１６弄２７號","OBJECTID":153039},"geometry":{"x":172897.57000000123,"y":2546529.9400000013}},{"attributes":{"ID":153041,"DIS_CODE":0,"TOWNNAME":"永康區","LI":"西灣里","LIN":"27鄰","STREET":"國光八街","SECT":" ","MAREA":" ","LANE":"１２巷","ALLEY":"３弄","HOUSE_NO":"１１號","E_COORD97":174401.89000000001,"N_COORD97":2545801,"ADDRESS":"國光八街１２巷３弄１１號","OBJECTID":153040},"geometry":{"x":174401.8900000006,"y":2545801.0000000037}},{"attributes":{"ID":153042,"DIS_CODE":0,"TOWNNAME":"永康區","LI":"甲頂里","LIN":"2鄰","STREET":"南台街","SECT":" ","MAREA":" ","LANE":"１３５巷","ALLEY":"７弄","HOUSE_NO":"９號一樓","E_COORD97":170107.48000000001,"N_COORD97":2546820.48,"ADDRESS":"南台街１３５巷７弄９號一樓","OBJECTID":153041},"geometry":{"x":170107.48000000231,"y":2546820.4800000004}},{"attributes":{"ID":153043,"DIS_CODE":0,"TOWNNAME":"永康區","LI":"復興里","LIN":"30鄰","STREET":"復興路","SECT":" ","MAREA":" ","LANE":"３５６巷","ALLEY":"８０弄","HOUSE_NO":"１１１號","E_COORD97":172474.76999999999,"N_COORD97":2544645.2799999998,"ADDRESS":"復興路３５６巷８０弄１１１號","OBJECTID":153042},"geometry":{"x":172474.77000000048,"y":2544645.2799999975}},{"attributes":{"ID":153044,"DIS_CODE":0,"TOWNNAME":"永康區","LI":"崑山里","LIN":"10鄰","STREET":"崑大路","SECT":" ","MAREA":" ","LANE":"２０１巷","ALLEY":"１８弄","HOUSE_NO":"１３號","E_COORD97":173238.23999999999,"N_COORD97":2544251.25,"ADDRESS":"崑大路２０１巷１８弄１３號","OBJECTID":153043},"geometry":{"x":173238.24000000209,"y":2544251.2500000019}},{"attributes":{"ID":153045,"DIS_CODE":0,"TOWNNAME":"永康區","LI":"西橋里","LIN":"11鄰","STREET":"中華西街","SECT":" ","MAREA":" ","LANE":"１２７巷","ALLEY":"３０弄","HOUSE_NO":"９號","E_COORD97":170514.16,"N_COORD97":2546132.3599999999,"ADDRESS":"中華西街１２７巷３０弄９號","OBJECTID":153044},"geometry":{"x":170514.16000000015,"y":2546132.3599999994}},{"attributes":{"ID":153046,"DIS_CODE":0,"TOWNNAME":"永康區","LI":"甲頂里","LIN":"3鄰","STREET":"中正南路","SECT":" ","MAREA":" ","LANE":"１６８巷","ALLEY":"２弄","HOUSE_NO":"１２號","E_COORD97":169856.57999999999,"N_COORD97":2546971.5,"ADDRESS":"中正南路１６８巷２弄１２號","OBJECTID":153045},"geometry":{"x":169856.58000000007,"y":2546971.5000000019}},{"attributes":{"ID":153047,"DIS_CODE":0,"TOWNNAME":"永康區","LI":"中興里","LIN":"7鄰","STREET":"中山東路","SECT":" ","MAREA":" ","LANE":"４７２巷","ALLEY":"２弄","HOUSE_NO":"１５號","E_COORD97":171922.91,"N_COORD97":2545104.7999999998,"ADDRESS":"中山東路４７２巷２弄１５號","OBJECTID":153046},"geometry":{"x":171922.91000000015,"y":2545104.8000000045}},{"attributes":{"ID":153048,"DIS_CODE":0,"TOWNNAME":"永康區","LI":"正強里","LIN":"28鄰","STREET":"中正路","SECT":" ","MAREA":" ","LANE":"１５５巷","ALLEY":"６弄","HOUSE_NO":"１５號","E_COORD97":173184.95999999999,"N_COORD97":2547819.2400000002,"ADDRESS":"中正路１５５巷６弄１５號","OBJECTID":153047},"geometry":{"x":173184.95999999996,"y":2547819.2400000002}},{"attributes":{"ID":153049,"DIS_CODE":0,"TOWNNAME":"後壁區","LI":"嘉民里","LIN":"5鄰","STREET":" ","SECT":" ","MAREA":"上茄苳","LANE":" ","ALLEY":" ","HOUSE_NO":"１６９號","E_COORD97":186533.53,"N_COORD97":2587171.6600000001,"ADDRESS":"上茄苳１６９號","OBJECTID":153048},"geometry":{"x":186533.53000000119,"y":2587171.6600000001}},{"attributes":{"ID":153050,"DIS_CODE":0,"TOWNNAME":"後壁區","LI":"嘉苳里","LIN":"5鄰","STREET":" ","SECT":" ","MAREA":"下茄苳","LANE":" ","ALLEY":" ","HOUSE_NO":"５８號之３５","E_COORD97":185006.97,"N_COORD97":2583116.4300000002,"ADDRESS":"下茄苳５８號之３５","OBJECTID":153049},"geometry":{"x":185006.96999999974,"y":2583116.4300000016}},{"attributes":{"ID":153051,"DIS_CODE":0,"TOWNNAME":"後壁區","LI":"嘉苳里","LIN":"5鄰","STREET":" ","SECT":" ","MAREA":"下茄苳","LANE":" ","ALLEY":" ","HOUSE_NO":"５８號之３８","E_COORD97":184992.45000000001,"N_COORD97":2583108.98,"ADDRESS":"下茄苳５８號之３８","OBJECTID":153050},"geometry":{"x":184992.45000000019,"y":2583108.9799999986}},{"attributes":{"ID":153052,"DIS_CODE":0,"TOWNNAME":"後壁區","LI":"嘉苳里","LIN":"5鄰","STREET":" ","SECT":" ","MAREA":"下茄苳","LANE":" ","ALLEY":" ","HOUSE_NO":"５８號之３９","E_COORD97":184986.97,"N_COORD97":2583107.2599999998,"ADDRESS":"下茄苳５８號之３９","OBJECTID":153051},"geometry":{"x":184986.96999999974,"y":2583107.2600000016}},{"attributes":{"ID":153053,"DIS_CODE":0,"TOWNNAME":"後壁區","LI":"嘉苳里","LIN":"5鄰","STREET":" ","SECT":" ","MAREA":"下茄苳","LANE":" ","ALLEY":" ","HOUSE_NO":"５８號之６","E_COORD97":185025.37,"N_COORD97":2583173.9500000002,"ADDRESS":"下茄苳５８號之６","OBJECTID":153052},"geometry":{"x":185025.36999999918,"y":2583173.9500000011}},{"attributes":{"ID":153054,"DIS_CODE":0,"TOWNNAME":"後壁區","LI":"嘉苳里","LIN":"5鄰","STREET":" ","SECT":" ","MAREA":"下茄苳","LANE":" ","ALLEY":" ","HOUSE_NO":"５８號之７","E_COORD97":185020.85000000001,"N_COORD97":2583171.79,"ADDRESS":"下茄苳５８號之７","OBJECTID":153053},"geometry":{"x":185020.85000000056,"y":2583171.7899999991}},{"attributes":{"ID":153055,"DIS_CODE":0,"TOWNNAME":"後壁區","LI":"嘉苳里","LIN":"5鄰","STREET":" ","SECT":" ","MAREA":"下茄苳","LANE":" ","ALLEY":" ","HOUSE_NO":"５８號之８","E_COORD97":185016.79999999999,"N_COORD97":2583169.7200000002,"ADDRESS":"下茄苳５８號之８","OBJECTID":153054},"geometry":{"x":185016.79999999981,"y":2583169.7200000025}},{"attributes":{"ID":153056,"DIS_CODE":0,"TOWNNAME":"後壁區","LI":"嘉苳里","LIN":"5鄰","STREET":" ","SECT":" ","MAREA":"下茄苳","LANE":" ","ALLEY":" ","HOUSE_NO":"５８號之９","E_COORD97":185011.92000000001,"N_COORD97":2583167.5099999998,"ADDRESS":"下茄苳５８號之９","OBJECTID":153055},"geometry":{"x":185011.92000000086,"y":2583167.5100000016}},{"attributes":{"ID":153057,"DIS_CODE":0,"TOWNNAME":"後壁區","LI":"嘉苳里","LIN":"5鄰","STREET":" ","SECT":" ","MAREA":"下茄苳","LANE":" ","ALLEY":" ","HOUSE_NO":"５８號","E_COORD97":185359.94,"N_COORD97":2583341.6600000001,"ADDRESS":"下茄苳５８號","OBJECTID":153056},"geometry":{"x":185359.94000000134,"y":2583341.6600000039}},{"attributes":{"ID":153058,"DIS_CODE":0,"TOWNNAME":"後壁區","LI":"嘉苳里","LIN":"5鄰","STREET":" ","SECT":" ","MAREA":"下茄苳","LANE":" ","ALLEY":" ","HOUSE_NO":"５９號","E_COORD97":185040.22,"N_COORD97":2583279.0299999998,"ADDRESS":"下茄苳５９號","OBJECTID":153057},"geometry":{"x":185040.22000000067,"y":2583279.0299999993}},{"attributes":{"ID":153059,"DIS_CODE":0,"TOWNNAME":"後壁區","LI":"嘉苳里","LIN":"5鄰","STREET":" ","SECT":" ","MAREA":"下茄苳","LANE":" ","ALLEY":" ","HOUSE_NO":"６０號之１","E_COORD97":185024.26000000001,"N_COORD97":2583236.7999999998,"ADDRESS":"下茄苳６０號之１","OBJECTID":153058},"geometry":{"x":185024.26000000164,"y":2583236.8000000026}},{"attributes":{"ID":153060,"DIS_CODE":0,"TOWNNAME":"後壁區","LI":"嘉苳里","LIN":"5鄰","STREET":" ","SECT":" ","MAREA":"下茄苳","LANE":" ","ALLEY":" ","HOUSE_NO":"６０號之５","E_COORD97":185019.39000000001,"N_COORD97":2583287.7000000002,"ADDRESS":"下茄苳６０號之５","OBJECTID":153059},"geometry":{"x":185019.38999999966,"y":2583287.7000000011}},{"attributes":{"ID":153061,"DIS_CODE":0,"TOWNNAME":"後壁區","LI":"嘉苳里","LIN":"5鄰","STREET":" ","SECT":" ","MAREA":"下茄苳","LANE":" ","ALLEY":" ","HOUSE_NO":"６０號之６","E_COORD97":185027.22,"N_COORD97":2583287.0800000001,"ADDRESS":"下茄苳６０號之６","OBJECTID":153060},"geometry":{"x":185027.21999999974,"y":2583287.0800000001}},{"attributes":{"ID":153062,"DIS_CODE":0,"TOWNNAME":"後壁區","LI":"嘉苳里","LIN":"5鄰","STREET":" ","SECT":" ","MAREA":"下茄苳","LANE":" ","ALLEY":" ","HOUSE_NO":"６１號","E_COORD97":185001.41,"N_COORD97":2583296.27,"ADDRESS":"下茄苳６１號","OBJECTID":153061},"geometry":{"x":185001.40999999922,"y":2583296.2700000033}},{"attributes":{"ID":153063,"DIS_CODE":0,"TOWNNAME":"後壁區","LI":"嘉苳里","LIN":"5鄰","STREET":" ","SECT":" ","MAREA":"下茄苳","LANE":" ","ALLEY":" ","HOUSE_NO":"６４號之２","E_COORD97":185039.84,"N_COORD97":2583318.7200000002,"ADDRESS":"下茄苳６４號之２","OBJECTID":153062},"geometry":{"x":185039.83999999985,"y":2583318.7200000025}},{"attributes":{"ID":153064,"DIS_CODE":0,"TOWNNAME":"後壁區","LI":"嘉苳里","LIN":"5鄰","STREET":" ","SECT":" ","MAREA":"下茄苳","LANE":" ","ALLEY":" ","HOUSE_NO":"６４號之３","E_COORD97":185044.20999999999,"N_COORD97":2583333.1899999999,"ADDRESS":"下茄苳６４號之３","OBJECTID":153063},"geometry":{"x":185044.21000000089,"y":2583333.1899999995}},{"attributes":{"ID":153065,"DIS_CODE":0,"TOWNNAME":"後壁區","LI":"嘉苳里","LIN":"5鄰","STREET":" ","SECT":" ","MAREA":"下茄苳","LANE":" ","ALLEY":" ","HOUSE_NO":"６４號","E_COORD97":185043.42000000001,"N_COORD97":2583306.6200000001,"ADDRESS":"下茄苳６４號","OBJECTID":153064},"geometry":{"x":185043.41999999993,"y":2583306.6200000029}},{"attributes":{"ID":153066,"DIS_CODE":0,"TOWNNAME":"後壁區","LI":"嘉苳里","LIN":"5鄰","STREET":" ","SECT":" ","MAREA":"下茄苳","LANE":" ","ALLEY":" ","HOUSE_NO":"６５號之１","E_COORD97":185018.34,"N_COORD97":2583356.8500000001,"ADDRESS":"下茄苳６５號之１","OBJECTID":153065},"geometry":{"x":185018.33999999985,"y":2583356.8500000034}},{"attributes":{"ID":153067,"DIS_CODE":0,"TOWNNAME":"後壁區","LI":"嘉苳里","LIN":"5鄰","STREET":" ","SECT":" ","MAREA":"下茄苳","LANE":" ","ALLEY":" ","HOUSE_NO":"６５號","E_COORD97":185031.60999999999,"N_COORD97":2583347.8100000001,"ADDRESS":"下茄苳６５號","OBJECTID":153066},"geometry":{"x":185031.61000000127,"y":2583347.8100000042}},{"attributes":{"ID":153068,"DIS_CODE":0,"TOWNNAME":"後壁區","LI":"嘉苳里","LIN":"5鄰","STREET":" ","SECT":" ","MAREA":"下茄苳","LANE":" ","ALLEY":" ","HOUSE_NO":"６６號","E_COORD97":184997.48999999999,"N_COORD97":2583343.7599999998,"ADDRESS":"下茄苳６６號","OBJECTID":153067},"geometry":{"x":184997.49000000022,"y":2583343.7600000035}},{"attributes":{"ID":153069,"DIS_CODE":0,"TOWNNAME":"後壁區","LI":"福安里","LIN":"5鄰","STREET":" ","SECT":" ","MAREA":"下寮","LANE":" ","ALLEY":" ","HOUSE_NO":"４０號","E_COORD97":184486.32000000001,"N_COORD97":2580861.3999999999,"ADDRESS":"下寮４０號","OBJECTID":153068},"geometry":{"x":184486.3200000003,"y":2580861.4000000004}},{"attributes":{"ID":153070,"DIS_CODE":0,"TOWNNAME":"後壁區","LI":"福安里","LIN":"5鄰","STREET":" ","SECT":" ","MAREA":"下寮","LANE":" ","ALLEY":" ","HOUSE_NO":"４２號","E_COORD97":184460.16,"N_COORD97":2580861,"ADDRESS":"下寮４２號","OBJECTID":153069},"geometry":{"x":184460.16000000015,"y":2580861.0000000019}},{"attributes":{"ID":153071,"DIS_CODE":0,"TOWNNAME":"後壁區","LI":"福安里","LIN":"5鄰","STREET":" ","SECT":" ","MAREA":"下寮","LANE":" ","ALLEY":" ","HOUSE_NO":"４３號之１","E_COORD97":184443.89999999999,"N_COORD97":2580864.9500000002,"ADDRESS":"下寮４３號之１","OBJECTID":153070},"geometry":{"x":184443.90000000037,"y":2580864.9500000011}},{"attributes":{"ID":153072,"DIS_CODE":0,"TOWNNAME":"後壁區","LI":"福安里","LIN":"5鄰","STREET":" ","SECT":" ","MAREA":"下寮","LANE":" ","ALLEY":" ","HOUSE_NO":"４３號","E_COORD97":184434.91,"N_COORD97":2580865.9100000001,"ADDRESS":"下寮４３號","OBJECTID":153071},"geometry":{"x":184434.91000000015,"y":2580865.910000002}},{"attributes":{"ID":153073,"DIS_CODE":0,"TOWNNAME":"後壁區","LI":"福安里","LIN":"5鄰","STREET":" ","SECT":" ","MAREA":"下寮","LANE":" ","ALLEY":" ","HOUSE_NO":"４４號之１","E_COORD97":184418.67000000001,"N_COORD97":2580850.0499999998,"ADDRESS":"下寮４４號之１","OBJECTID":153072},"geometry":{"x":184418.67000000086,"y":2580850.0500000007}},{"attributes":{"ID":153074,"DIS_CODE":0,"TOWNNAME":"後壁區","LI":"福安里","LIN":"5鄰","STREET":" ","SECT":" ","MAREA":"下寮","LANE":" ","ALLEY":" ","HOUSE_NO":"４４號之３","E_COORD97":184411.73999999999,"N_COORD97":2580858.8199999998,"ADDRESS":"下寮４４號之３","OBJECTID":153073},"geometry":{"x":184411.74000000115,"y":2580858.820000004}},{"attributes":{"ID":153075,"DIS_CODE":0,"TOWNNAME":"後壁區","LI":"福安里","LIN":"5鄰","STREET":" ","SECT":" ","MAREA":"下寮","LANE":" ","ALLEY":" ","HOUSE_NO":"４４號","E_COORD97":184423.10000000001,"N_COORD97":2580837.0699999998,"ADDRESS":"下寮４４號","OBJECTID":153074},"geometry":{"x":184423.09999999963,"y":2580837.070000004}},{"attributes":{"ID":153076,"DIS_CODE":0,"TOWNNAME":"後壁區","LI":"嘉民里","LIN":"5鄰","STREET":" ","SECT":" ","MAREA":"上茄苳","LANE":" ","ALLEY":" ","HOUSE_NO":"１６４號之１","E_COORD97":186506.76000000001,"N_COORD97":2587143.8399999999,"ADDRESS":"上茄苳１６４號之１","OBJECTID":153075},"geometry":{"x":186506.75999999978,"y":2587143.839999998}},{"attributes":{"ID":153077,"DIS_CODE":0,"TOWNNAME":"後壁區","LI":"嘉民里","LIN":"5鄰","STREET":" ","SECT":" ","MAREA":"上茄苳","LANE":" ","ALLEY":" ","HOUSE_NO":"１６４號之２","E_COORD97":186511.54000000001,"N_COORD97":2587162.3900000001,"ADDRESS":"上茄苳１６４號之２","OBJECTID":153076},"geometry":{"x":186511.54000000097,"y":2587162.3900000025}},{"attributes":{"ID":153078,"DIS_CODE":0,"TOWNNAME":"後壁區","LI":"嘉民里","LIN":"5鄰","STREET":" ","SECT":" ","MAREA":"上茄苳","LANE":" ","ALLEY":" ","HOUSE_NO":"１６４號","E_COORD97":186488.12,"N_COORD97":2587136.1200000001,"ADDRESS":"上茄苳１６４號","OBJECTID":153077},"geometry":{"x":186488.12000000011,"y":2587136.120000001}},{"attributes":{"ID":153079,"DIS_CODE":0,"TOWNNAME":"後壁區","LI":"嘉民里","LIN":"5鄰","STREET":" ","SECT":" ","MAREA":"上茄苳","LANE":" ","ALLEY":" ","HOUSE_NO":"１６５號之１","E_COORD97":186514.54000000001,"N_COORD97":2587171.52,"ADDRESS":"上茄苳１６５號之１","OBJECTID":153078},"geometry":{"x":186514.54000000097,"y":2587171.5199999996}},{"attributes":{"ID":153080,"DIS_CODE":0,"TOWNNAME":"後壁區","LI":"嘉民里","LIN":"5鄰","STREET":" ","SECT":" ","MAREA":"上茄苳","LANE":" ","ALLEY":" ","HOUSE_NO":"１６５號之６","E_COORD97":186483.95000000001,"N_COORD97":2587199.0899999999,"ADDRESS":"上茄苳１６５號之６","OBJECTID":153079},"geometry":{"x":186483.95000000019,"y":2587199.0899999999}},{"attributes":{"ID":153081,"DIS_CODE":0,"TOWNNAME":"後壁區","LI":"嘉民里","LIN":"5鄰","STREET":" ","SECT":" ","MAREA":"上茄苳","LANE":" ","ALLEY":" ","HOUSE_NO":"１６５號之７","E_COORD97":186484.75,"N_COORD97":2587203.8700000001,"ADDRESS":"上茄苳１６５號之７","OBJECTID":153080},"geometry":{"x":186484.75000000093,"y":2587203.8700000029}},{"attributes":{"ID":153082,"DIS_CODE":0,"TOWNNAME":"後壁區","LI":"嘉民里","LIN":"5鄰","STREET":" ","SECT":" ","MAREA":"上茄苳","LANE":" ","ALLEY":" ","HOUSE_NO":"１６５號","E_COORD97":186511.06,"N_COORD97":2587188.5699999998,"ADDRESS":"上茄苳１６５號","OBJECTID":153081},"geometry":{"x":186511.06000000052,"y":2587188.5700000022}},{"attributes":{"ID":153083,"DIS_CODE":0,"TOWNNAME":"後壁區","LI":"嘉民里","LIN":"5鄰","STREET":" ","SECT":" ","MAREA":"上茄苳","LANE":" ","ALLEY":" ","HOUSE_NO":"１６８號之１","E_COORD97":186531.89000000001,"N_COORD97":2587213.8999999999,"ADDRESS":"上茄苳１６８號之１","OBJECTID":153082},"geometry":{"x":186531.89000000153,"y":2587213.9000000004}},{"attributes":{"ID":153084,"DIS_CODE":0,"TOWNNAME":"後壁區","LI":"嘉民里","LIN":"5鄰","STREET":" ","SECT":" ","MAREA":"上茄苳","LANE":" ","ALLEY":" ","HOUSE_NO":"１６８號之２","E_COORD97":186528.85999999999,"N_COORD97":2587198.6699999999,"ADDRESS":"上茄苳１６８號之２","OBJECTID":153083},"geometry":{"x":186528.86000000034,"y":2587198.6699999999}},{"attributes":{"ID":153085,"DIS_CODE":0,"TOWNNAME":"後壁區","LI":"嘉民里","LIN":"5鄰","STREET":" ","SECT":" ","MAREA":"上茄苳","LANE":" ","ALLEY":" ","HOUSE_NO":"１６８號","E_COORD97":186541.98000000001,"N_COORD97":2587186.73,"ADDRESS":"上茄苳１６８號","OBJECTID":153084},"geometry":{"x":186541.98000000045,"y":2587186.7300000023}},{"attributes":{"ID":153086,"DIS_CODE":0,"TOWNNAME":"後壁區","LI":"嘉民里","LIN":"5鄰","STREET":" ","SECT":" ","MAREA":"上茄苳","LANE":" ","ALLEY":" ","HOUSE_NO":"１７０號","E_COORD97":186550.10999999999,"N_COORD97":2587146.1200000001,"ADDRESS":"上茄苳１７０號","OBJECTID":153085},"geometry":{"x":186550.11000000127,"y":2587146.120000001}},{"attributes":{"ID":153087,"DIS_CODE":0,"TOWNNAME":"後壁區","LI":"嘉民里","LIN":"5鄰","STREET":" ","SECT":" ","MAREA":"上茄苳","LANE":" ","ALLEY":" ","HOUSE_NO":"１７１號","E_COORD97":186559.03,"N_COORD97":2587165.8799999999,"ADDRESS":"上茄苳１７１號","OBJECTID":153086},"geometry":{"x":186559.03000000119,"y":2587165.879999999}},{"attributes":{"ID":153088,"DIS_CODE":0,"TOWNNAME":"後壁區","LI":"嘉民里","LIN":"5鄰","STREET":" ","SECT":" ","MAREA":"上茄苳","LANE":" ","ALLEY":" ","HOUSE_NO":"１７２號","E_COORD97":186575.60999999999,"N_COORD97":2587167.2999999998,"ADDRESS":"上茄苳１７２號","OBJECTID":153087},"geometry":{"x":186575.61000000127,"y":2587167.3000000007}},{"attributes":{"ID":153089,"DIS_CODE":0,"TOWNNAME":"後壁區","LI":"嘉民里","LIN":"5鄰","STREET":" ","SECT":" ","MAREA":"上茄苳","LANE":" ","ALLEY":" ","HOUSE_NO":"１７３號","E_COORD97":186596.95999999999,"N_COORD97":2587170.4100000001,"ADDRESS":"上茄苳１７３號","OBJECTID":153088},"geometry":{"x":186596.96000000089,"y":2587170.4100000001}},{"attributes":{"ID":153090,"DIS_CODE":0,"TOWNNAME":"後壁區","LI":"嘉田里","LIN":"5鄰","STREET":" ","SECT":" ","MAREA":"上茄苳","LANE":" ","ALLEY":" ","HOUSE_NO":"４１號","E_COORD97":186810.72,"N_COORD97":2587148.75,"ADDRESS":"上茄苳４１號","OBJECTID":153089},"geometry":{"x":186810.71999999974,"y":2587148.7500000019}},{"attributes":{"ID":153091,"DIS_CODE":0,"TOWNNAME":"後壁區","LI":"嘉田里","LIN":"5鄰","STREET":" ","SECT":" ","MAREA":"上茄苳","LANE":" ","ALLEY":" ","HOUSE_NO":"４２號之１","E_COORD97":186811.10999999999,"N_COORD97":2587130.5699999998,"ADDRESS":"上茄苳４２號之１","OBJECTID":153090},"geometry":{"x":186811.11000000127,"y":2587130.5700000022}},{"attributes":{"ID":153092,"DIS_CODE":0,"TOWNNAME":"後壁區","LI":"嘉田里","LIN":"5鄰","STREET":" ","SECT":" ","MAREA":"上茄苳","LANE":" ","ALLEY":" ","HOUSE_NO":"４２號之２","E_COORD97":186813.35999999999,"N_COORD97":2587126.9300000002,"ADDRESS":"上茄苳４２號之２","OBJECTID":153091},"geometry":{"x":186813.36000000127,"y":2587126.9300000016}},{"attributes":{"ID":153093,"DIS_CODE":0,"TOWNNAME":"後壁區","LI":"嘉田里","LIN":"5鄰","STREET":" ","SECT":" ","MAREA":"上茄苳","LANE":" ","ALLEY":" ","HOUSE_NO":"４２號之３","E_COORD97":186815.64000000001,"N_COORD97":2587123.2599999998,"ADDRESS":"上茄苳４２號之３","OBJECTID":153092},"geometry":{"x":186815.6400000006,"y":2587123.2599999998}},{"attributes":{"ID":153094,"DIS_CODE":0,"TOWNNAME":"後壁區","LI":"嘉田里","LIN":"5鄰","STREET":" ","SECT":" ","MAREA":"上茄苳","LANE":" ","ALLEY":" ","HOUSE_NO":"４２號","E_COORD97":186809.12,"N_COORD97":2587134.3900000001,"ADDRESS":"上茄苳４２號","OBJECTID":153093},"geometry":{"x":186809.12000000104,"y":2587134.3900000043}},{"attributes":{"ID":153095,"DIS_CODE":0,"TOWNNAME":"後壁區","LI":"嘉田里","LIN":"5鄰","STREET":" ","SECT":" ","MAREA":"上茄苳","LANE":" ","ALLEY":" ","HOUSE_NO":"４４號之１","E_COORD97":186825.39999999999,"N_COORD97":2587112.0099999998,"ADDRESS":"上茄苳４４號之１","OBJECTID":153094},"geometry":{"x":186825.40000000037,"y":2587112.0099999979}},{"attributes":{"ID":153096,"DIS_CODE":0,"TOWNNAME":"後壁區","LI":"嘉田里","LIN":"5鄰","STREET":" ","SECT":" ","MAREA":"上茄苳","LANE":" ","ALLEY":" ","HOUSE_NO":"４４號","E_COORD97":186823.23999999999,"N_COORD97":2587116.02,"ADDRESS":"上茄苳４４號","OBJECTID":153095},"geometry":{"x":186823.24000000022,"y":2587116.0200000014}},{"attributes":{"ID":153097,"DIS_CODE":0,"TOWNNAME":"後壁區","LI":"嘉田里","LIN":"5鄰","STREET":" ","SECT":" ","MAREA":"上茄苳","LANE":" ","ALLEY":" ","HOUSE_NO":"４５號","E_COORD97":186842.64999999999,"N_COORD97":2587126.73,"ADDRESS":"上茄苳４５號","OBJECTID":153096},"geometry":{"x":186842.65000000037,"y":2587126.7300000023}},{"attributes":{"ID":153098,"DIS_CODE":0,"TOWNNAME":"後壁區","LI":"嘉田里","LIN":"5鄰","STREET":" ","SECT":" ","MAREA":"上茄苳","LANE":" ","ALLEY":" ","HOUSE_NO":"４６號之２０","E_COORD97":186917.10000000001,"N_COORD97":2587180.73,"ADDRESS":"上茄苳４６號之２０","OBJECTID":153097},"geometry":{"x":186917.10000000056,"y":2587180.7300000023}},{"attributes":{"ID":153099,"DIS_CODE":0,"TOWNNAME":"後壁區","LI":"嘉田里","LIN":"5鄰","STREET":" ","SECT":" ","MAREA":"上茄苳","LANE":" ","ALLEY":" ","HOUSE_NO":"４６號之２８","E_COORD97":186877.66,"N_COORD97":2587284.9500000002,"ADDRESS":"上茄苳４６號之２８","OBJECTID":153098},"geometry":{"x":186877.66000000015,"y":2587284.950000003}},{"attributes":{"ID":153100,"DIS_CODE":0,"TOWNNAME":"後壁區","LI":"嘉田里","LIN":"5鄰","STREET":" ","SECT":" ","MAREA":"上茄苳","LANE":" ","ALLEY":" ","HOUSE_NO":"４６號之２","E_COORD97":186887.25,"N_COORD97":2587128.4199999999,"ADDRESS":"上茄苳４６號之２","OBJECTID":153099},"geometry":{"x":186887.25,"y":2587128.4199999999}},{"attributes":{"ID":153101,"DIS_CODE":0,"TOWNNAME":"後壁區","LI":"嘉田里","LIN":"5鄰","STREET":" ","SECT":" ","MAREA":"上茄苳","LANE":" ","ALLEY":" ","HOUSE_NO":"４６號之３","E_COORD97":186886.34,"N_COORD97":2587119.1099999999,"ADDRESS":"上茄苳４６號之３","OBJECTID":153100},"geometry":{"x":186886.33999999985,"y":2587119.1100000013}},{"attributes":{"ID":153102,"DIS_CODE":0,"TOWNNAME":"後壁區","LI":"嘉田里","LIN":"5鄰","STREET":" ","SECT":" ","MAREA":"上茄苳","LANE":" ","ALLEY":" ","HOUSE_NO":"４６號之４","E_COORD97":186867.88,"N_COORD97":2587095.1000000001,"ADDRESS":"上茄苳４６號之４","OBJECTID":153101},"geometry":{"x":186867.88000000175,"y":2587095.1000000015}},{"attributes":{"ID":153103,"DIS_CODE":0,"TOWNNAME":"後壁區","LI":"嘉田里","LIN":"5鄰","STREET":" ","SECT":" ","MAREA":"上茄苳","LANE":" ","ALLEY":" ","HOUSE_NO":"４６號之５","E_COORD97":186890.66,"N_COORD97":2587108.3900000001,"ADDRESS":"上茄苳４６號之５","OBJECTID":153102},"geometry":{"x":186890.66000000108,"y":2587108.3900000025}},{"attributes":{"ID":153104,"DIS_CODE":0,"TOWNNAME":"後壁區","LI":"嘉田里","LIN":"5鄰","STREET":" ","SECT":" ","MAREA":"上茄苳","LANE":" ","ALLEY":" ","HOUSE_NO":"４６號之８","E_COORD97":186895.57999999999,"N_COORD97":2587097.6099999999,"ADDRESS":"上茄苳４６號之８","OBJECTID":153103},"geometry":{"x":186895.58000000194,"y":2587097.6100000031}},{"attributes":{"ID":153105,"DIS_CODE":0,"TOWNNAME":"後壁區","LI":"嘉田里","LIN":"5鄰","STREET":" ","SECT":" ","MAREA":"上茄苳","LANE":" ","ALLEY":" ","HOUSE_NO":"４６號","E_COORD97":186872.22,"N_COORD97":2587147.75,"ADDRESS":"上茄苳４６號","OBJECTID":153104},"geometry":{"x":186872.2200000016,"y":2587147.75}},{"attributes":{"ID":153106,"DIS_CODE":0,"TOWNNAME":"永康區","LI":"六合里","LIN":"2鄰","STREET":"新興街","SECT":" ","MAREA":" ","LANE":"３５巷","ALLEY":"１５弄","HOUSE_NO":"５號","E_COORD97":170964.48999999999,"N_COORD97":2545863.9900000002,"ADDRESS":"新興街３５巷１５弄５號","OBJECTID":153105},"geometry":{"x":170964.49000000022,"y":2545863.9900000002}},{"attributes":{"ID":153107,"DIS_CODE":0,"TOWNNAME":"後壁區","LI":"嘉田里","LIN":"5鄰","STREET":" ","SECT":" ","MAREA":"上茄苳","LANE":" ","ALLEY":" ","HOUSE_NO":"４７號之１４","E_COORD97":186859.26000000001,"N_COORD97":2587059.96,"ADDRESS":"上茄苳４７號之１４","OBJECTID":153106},"geometry":{"x":186859.25999999978,"y":2587059.9600000028}},{"attributes":{"ID":153108,"DIS_CODE":0,"TOWNNAME":"永康區","LI":"永康里","LIN":"34鄰","STREET":"永大路","SECT":"二段","MAREA":" ","LANE":"１３１０巷","ALLEY":"１６弄","HOUSE_NO":"１１號","E_COORD97":174366.41,"N_COORD97":2547026.27,"ADDRESS":"永大路二段１３１０巷１６弄１１號","OBJECTID":153107},"geometry":{"x":174366.41000000108,"y":2547026.2700000014}},{"attributes":{"ID":153109,"DIS_CODE":0,"TOWNNAME":"中西區","LI":"民生里","LIN":"15鄰","STREET":"大仁街","SECT":" ","MAREA":" ","LANE":" ","ALLEY":" ","HOUSE_NO":"１５５號","E_COORD97":167134.91,"N_COORD97":2543481.3500000001,"ADDRESS":"大仁街１５５號","OBJECTID":153108},"geometry":{"x":167134.91000000108,"y":2543481.3499999996}},{"attributes":{"ID":153110,"DIS_CODE":0,"TOWNNAME":"後壁區","LI":"嘉田里","LIN":"5鄰","STREET":" ","SECT":" ","MAREA":"上茄苳","LANE":" ","ALLEY":" ","HOUSE_NO":"４７號之１５","E_COORD97":186861.41,"N_COORD97":2587054.7200000002,"ADDRESS":"上茄苳４７號之１５","OBJECTID":153109},"geometry":{"x":186861.41000000108,"y":2587054.7200000025}},{"attributes":{"ID":153111,"DIS_CODE":0,"TOWNNAME":"後壁區","LI":"嘉田里","LIN":"5鄰","STREET":" ","SECT":" ","MAREA":"上茄苳","LANE":" ","ALLEY":" ","HOUSE_NO":"４７號之１６","E_COORD97":186864.29000000001,"N_COORD97":2587049.6200000001,"ADDRESS":"上茄苳４７號之１６","OBJECTID":153110},"geometry":{"x":186864.29000000097,"y":2587049.6200000029}},{"attributes":{"ID":153112,"DIS_CODE":0,"TOWNNAME":"後壁區","LI":"嘉田里","LIN":"5鄰","STREET":" ","SECT":" ","MAREA":"上茄苳","LANE":" ","ALLEY":" ","HOUSE_NO":"４７號之１７","E_COORD97":186866.20999999999,"N_COORD97":2587044.77,"ADDRESS":"上茄苳４７號之１７","OBJECTID":153111},"geometry":{"x":186866.21000000089,"y":2587044.7699999996}},{"attributes":{"ID":153113,"DIS_CODE":0,"TOWNNAME":"後壁區","LI":"嘉田里","LIN":"5鄰","STREET":" ","SECT":" ","MAREA":"上茄苳","LANE":" ","ALLEY":" ","HOUSE_NO":"４７號之１８","E_COORD97":186880.29999999999,"N_COORD97":2587022.6600000001,"ADDRESS":"上茄苳４７號之１８","OBJECTID":153112},"geometry":{"x":186880.30000000168,"y":2587022.6600000001}},{"attributes":{"ID":153114,"DIS_CODE":0,"TOWNNAME":"後壁區","LI":"嘉田里","LIN":"5鄰","STREET":" ","SECT":" ","MAREA":"上茄苳","LANE":" ","ALLEY":" ","HOUSE_NO":"４７號之１９","E_COORD97":186892.44,"N_COORD97":2587009.4500000002,"ADDRESS":"上茄苳４７號之１９","OBJECTID":153113},"geometry":{"x":186892.44000000134,"y":2587009.4499999993}},{"attributes":{"ID":153115,"DIS_CODE":0,"TOWNNAME":"後壁區","LI":"嘉田里","LIN":"5鄰","STREET":" ","SECT":" ","MAREA":"上茄苳","LANE":" ","ALLEY":" ","HOUSE_NO":"４７號之１","E_COORD97":186835.85999999999,"N_COORD97":2587100.0800000001,"ADDRESS":"上茄苳４７號之１","OBJECTID":153114},"geometry":{"x":186835.86000000034,"y":2587100.0800000019}},{"attributes":{"ID":153116,"DIS_CODE":0,"TOWNNAME":"後壁區","LI":"嘉田里","LIN":"5鄰","STREET":" ","SECT":" ","MAREA":"上茄苳","LANE":" ","ALLEY":" ","HOUSE_NO":"４７號之２０","E_COORD97":186897.95999999999,"N_COORD97":2587002.1899999999,"ADDRESS":"上茄苳４７號之２０","OBJECTID":153115},"geometry":{"x":186897.96000000183,"y":2587002.1900000032}},{"attributes":{"ID":153117,"DIS_CODE":0,"TOWNNAME":"將軍區","LI":"嘉昌里","LIN":"19鄰","STREET":" ","SECT":" ","MAREA":"昌平","LANE":" ","ALLEY":" ","HOUSE_NO":"５９號","E_COORD97":163505.53,"N_COORD97":2567322.7000000002,"ADDRESS":"昌平５９號","OBJECTID":153116},"geometry":{"x":163505.53000000026,"y":2567322.6999999993}},{"attributes":{"ID":153118,"DIS_CODE":0,"TOWNNAME":"後壁區","LI":"嘉田里","LIN":"5鄰","STREET":" ","SECT":" ","MAREA":"上茄苳","LANE":" ","ALLEY":" ","HOUSE_NO":"４７號之２６","E_COORD97":186882.89999999999,"N_COORD97":2587047.77,"ADDRESS":"上茄苳４７號之２６","OBJECTID":153117},"geometry":{"x":186882.90000000037,"y":2587047.7699999996}},{"attributes":{"ID":153119,"DIS_CODE":0,"TOWNNAME":"後壁區","LI":"嘉田里","LIN":"5鄰","STREET":" ","SECT":" ","MAREA":"上茄苳","LANE":" ","ALLEY":" ","HOUSE_NO":"４７號之２７","E_COORD97":186887.76999999999,"N_COORD97":2587047.1200000001,"ADDRESS":"上茄苳４７號之２７","OBJECTID":153118},"geometry":{"x":186887.76999999955,"y":2587047.120000001}},{"attributes":{"ID":153120,"DIS_CODE":0,"TOWNNAME":"後壁區","LI":"嘉田里","LIN":"5鄰","STREET":" ","SECT":" ","MAREA":"上茄苳","LANE":" ","ALLEY":" ","HOUSE_NO":"４７號之２８","E_COORD97":186892.26000000001,"N_COORD97":2587046.3100000001,"ADDRESS":"上茄苳４７號之２８","OBJECTID":153119},"geometry":{"x":186892.26000000164,"y":2587046.3100000005}},{"attributes":{"ID":153121,"DIS_CODE":0,"TOWNNAME":"後壁區","LI":"嘉田里","LIN":"5鄰","STREET":" ","SECT":" ","MAREA":"上茄苳","LANE":" ","ALLEY":" ","HOUSE_NO":"４７號之２９","E_COORD97":186896.66,"N_COORD97":2587045.9900000002,"ADDRESS":"上茄苳４７號之２９","OBJECTID":153120},"geometry":{"x":186896.65999999922,"y":2587045.9900000021}},{"attributes":{"ID":153122,"DIS_CODE":0,"TOWNNAME":"後壁區","LI":"嘉田里","LIN":"5鄰","STREET":" ","SECT":" ","MAREA":"上茄苳","LANE":" ","ALLEY":" ","HOUSE_NO":"４７號之３０","E_COORD97":186901.51000000001,"N_COORD97":2587045.0499999998,"ADDRESS":"上茄苳４７號之３０","OBJECTID":153121},"geometry":{"x":186901.51000000071,"y":2587045.0499999989}},{"attributes":{"ID":153123,"DIS_CODE":0,"TOWNNAME":"後壁區","LI":"嘉田里","LIN":"5鄰","STREET":" ","SECT":" ","MAREA":"上茄苳","LANE":" ","ALLEY":" ","HOUSE_NO":"４７號之３１","E_COORD97":186905.91,"N_COORD97":2587044.4100000001,"ADDRESS":"上茄苳４７號之３１","OBJECTID":153122},"geometry":{"x":186905.91000000108,"y":2587044.4100000001}},{"attributes":{"ID":153124,"DIS_CODE":0,"TOWNNAME":"後壁區","LI":"嘉田里","LIN":"5鄰","STREET":" ","SECT":" ","MAREA":"上茄苳","LANE":" ","ALLEY":" ","HOUSE_NO":"４９號之２１","E_COORD97":186804.60000000001,"N_COORD97":2586971.5699999998,"ADDRESS":"上茄苳４９號之２１","OBJECTID":153123},"geometry":{"x":186804.59999999963,"y":2586971.5700000022}},{"attributes":{"ID":153125,"DIS_CODE":0,"TOWNNAME":"後壁區","LI":"嘉田里","LIN":"5鄰","STREET":" ","SECT":" ","MAREA":"上茄苳","LANE":" ","ALLEY":" ","HOUSE_NO":"４８號之１１","E_COORD97":187795.26999999999,"N_COORD97":2586984.6800000002,"ADDRESS":"上茄苳４８號之１１","OBJECTID":153124},"geometry":{"x":187795.26999999955,"y":2586984.6799999997}},{"attributes":{"ID":153126,"DIS_CODE":0,"TOWNNAME":"後壁區","LI":"嘉田里","LIN":"5鄰","STREET":" ","SECT":" ","MAREA":"上茄苳","LANE":" ","ALLEY":" ","HOUSE_NO":"４８號之１２","E_COORD97":187790.87,"N_COORD97":2586880.9300000002,"ADDRESS":"上茄苳４８號之１２","OBJECTID":153125},"geometry":{"x":187790.87000000104,"y":2586880.9299999997}},{"attributes":{"ID":153127,"DIS_CODE":0,"TOWNNAME":"後壁區","LI":"嘉田里","LIN":"5鄰","STREET":" ","SECT":" ","MAREA":"上茄苳","LANE":" ","ALLEY":" ","HOUSE_NO":"４８號之１４","E_COORD97":188084.04999999999,"N_COORD97":2587167.7799999998,"ADDRESS":"上茄苳４８號之１４","OBJECTID":153126},"geometry":{"x":188084.05000000075,"y":2587167.7800000031}},{"attributes":{"ID":153128,"DIS_CODE":0,"TOWNNAME":"後壁區","LI":"嘉田里","LIN":"5鄰","STREET":" ","SECT":" ","MAREA":"上茄苳","LANE":" ","ALLEY":" ","HOUSE_NO":"４８號之１５","E_COORD97":187977,"N_COORD97":2587183.3500000001,"ADDRESS":"上茄苳４８號之１５","OBJECTID":153127},"geometry":{"x":187977,"y":2587183.3499999996}},{"attributes":{"ID":153129,"DIS_CODE":0,"TOWNNAME":"後壁區","LI":"嘉田里","LIN":"5鄰","STREET":" ","SECT":" ","MAREA":"上茄苳","LANE":" ","ALLEY":" ","HOUSE_NO":"４８號之１６附７","E_COORD97":188162.47,"N_COORD97":2586930.4500000002,"ADDRESS":"上茄苳４８號之１６附７","OBJECTID":153128},"geometry":{"x":188162.47000000067,"y":2586930.4500000011}},{"attributes":{"ID":153130,"DIS_CODE":0,"TOWNNAME":"後壁區","LI":"嘉田里","LIN":"5鄰","STREET":" ","SECT":" ","MAREA":"上茄苳","LANE":" ","ALLEY":" ","HOUSE_NO":"４８號之１７","E_COORD97":188150,"N_COORD97":2587139.46,"ADDRESS":"上茄苳４８號之１７","OBJECTID":153129},"geometry":{"x":188150,"y":2587139.4600000009}},{"attributes":{"ID":153131,"DIS_CODE":0,"TOWNNAME":"後壁區","LI":"嘉田里","LIN":"5鄰","STREET":" ","SECT":" ","MAREA":"上茄苳","LANE":" ","ALLEY":" ","HOUSE_NO":"４８號之１８","E_COORD97":188136.60000000001,"N_COORD97":2587202.3399999999,"ADDRESS":"上茄苳４８號之１８","OBJECTID":153130},"geometry":{"x":188136.60000000056,"y":2587202.3400000017}},{"attributes":{"ID":153132,"DIS_CODE":0,"TOWNNAME":"後壁區","LI":"嘉田里","LIN":"5鄰","STREET":" ","SECT":" ","MAREA":"上茄苳","LANE":" ","ALLEY":" ","HOUSE_NO":"４８號之１９","E_COORD97":188333.23000000001,"N_COORD97":2587359.9300000002,"ADDRESS":"上茄苳４８號之１９","OBJECTID":153131},"geometry":{"x":188333.23000000138,"y":2587359.9299999997}},{"attributes":{"ID":153133,"DIS_CODE":0,"TOWNNAME":"後壁區","LI":"嘉田里","LIN":"5鄰","STREET":" ","SECT":" ","MAREA":"上茄苳","LANE":" ","ALLEY":" ","HOUSE_NO":"４８號之１附２","E_COORD97":186947.85000000001,"N_COORD97":2586890.6299999999,"ADDRESS":"上茄苳４８號之１附２","OBJECTID":153132},"geometry":{"x":186947.85000000056,"y":2586890.6300000008}},{"attributes":{"ID":153134,"DIS_CODE":0,"TOWNNAME":"後壁區","LI":"嘉田里","LIN":"5鄰","STREET":" ","SECT":" ","MAREA":"上茄苳","LANE":" ","ALLEY":" ","HOUSE_NO":"４８號之１附６","E_COORD97":186993.98999999999,"N_COORD97":2586853.8399999999,"ADDRESS":"上茄苳４８號之１附６","OBJECTID":153133},"geometry":{"x":186993.99000000022,"y":2586853.8400000017}},{"attributes":{"ID":153135,"DIS_CODE":0,"TOWNNAME":"後壁區","LI":"嘉田里","LIN":"5鄰","STREET":" ","SECT":" ","MAREA":"上茄苳","LANE":" ","ALLEY":" ","HOUSE_NO":"４８號之１附８","E_COORD97":187013.66,"N_COORD97":2586851.3500000001,"ADDRESS":"上茄苳４８號之１附８","OBJECTID":153134},"geometry":{"x":187013.66000000201,"y":2586851.3499999996}},{"attributes":{"ID":153136,"DIS_CODE":0,"TOWNNAME":"後壁區","LI":"嘉田里","LIN":"5鄰","STREET":" ","SECT":" ","MAREA":"上茄苳","LANE":" ","ALLEY":" ","HOUSE_NO":"４８號之１","E_COORD97":186977.29999999999,"N_COORD97":2586878.79,"ADDRESS":"上茄苳４８號之１","OBJECTID":153135},"geometry":{"x":186977.30000000075,"y":2586878.7899999991}},{"attributes":{"ID":153137,"DIS_CODE":0,"TOWNNAME":"後壁區","LI":"嘉田里","LIN":"5鄰","STREET":" ","SECT":" ","MAREA":"上茄苳","LANE":" ","ALLEY":" ","HOUSE_NO":"４８號之２０","E_COORD97":188326.48999999999,"N_COORD97":2587340.8700000001,"ADDRESS":"上茄苳４８號之２０","OBJECTID":153136},"geometry":{"x":188326.49000000022,"y":2587340.870000001}},{"attributes":{"ID":153138,"DIS_CODE":0,"TOWNNAME":"後壁區","LI":"嘉田里","LIN":"5鄰","STREET":" ","SECT":" ","MAREA":"上茄苳","LANE":" ","ALLEY":" ","HOUSE_NO":"４８號之２１","E_COORD97":188434.25,"N_COORD97":2587437.2999999998,"ADDRESS":"上茄苳４８號之２１","OBJECTID":153137},"geometry":{"x":188434.25000000093,"y":2587437.3000000026}},{"attributes":{"ID":153139,"DIS_CODE":0,"TOWNNAME":"後壁區","LI":"嘉田里","LIN":"5鄰","STREET":" ","SECT":" ","MAREA":"上茄苳","LANE":" ","ALLEY":" ","HOUSE_NO":"４８號之２３","E_COORD97":188272.81,"N_COORD97":2587361.3900000001,"ADDRESS":"上茄苳４８號之２３","OBJECTID":153138},"geometry":{"x":188272.80999999959,"y":2587361.3900000043}},{"attributes":{"ID":153140,"DIS_CODE":0,"TOWNNAME":"後壁區","LI":"嘉田里","LIN":"5鄰","STREET":" ","SECT":" ","MAREA":"上茄苳","LANE":" ","ALLEY":" ","HOUSE_NO":"４８號之２５","E_COORD97":188321.38,"N_COORD97":2587304.9199999999,"ADDRESS":"上茄苳４８號之２５","OBJECTID":153139},"geometry":{"x":188321.38000000082,"y":2587304.9199999999}},{"attributes":{"ID":153141,"DIS_CODE":0,"TOWNNAME":"後壁區","LI":"嘉田里","LIN":"5鄰","STREET":" ","SECT":" ","MAREA":"上茄苳","LANE":" ","ALLEY":" ","HOUSE_NO":"４８號之２６","E_COORD97":188196.82000000001,"N_COORD97":2586973.0899999999,"ADDRESS":"上茄苳４８號之２６","OBJECTID":153140},"geometry":{"x":188196.82000000123,"y":2586973.0900000017}},{"attributes":{"ID":153142,"DIS_CODE":0,"TOWNNAME":"後壁區","LI":"嘉田里","LIN":"5鄰","STREET":" ","SECT":" ","MAREA":"上茄苳","LANE":" ","ALLEY":" ","HOUSE_NO":"４８號之２８","E_COORD97":187681.54000000001,"N_COORD97":2586790.8300000001,"ADDRESS":"上茄苳４８號之２８","OBJECTID":153141},"geometry":{"x":187681.54000000004,"y":2586790.8300000001}},{"attributes":{"ID":153143,"DIS_CODE":0,"TOWNNAME":"後壁區","LI":"嘉田里","LIN":"5鄰","STREET":" ","SECT":" ","MAREA":"上茄苳","LANE":" ","ALLEY":" ","HOUSE_NO":"４８號之２","E_COORD97":186984.42000000001,"N_COORD97":2586913.48,"ADDRESS":"上茄苳４８號之２","OBJECTID":153142},"geometry":{"x":186984.41999999993,"y":2586913.4800000023}},{"attributes":{"ID":153144,"DIS_CODE":0,"TOWNNAME":"後壁區","LI":"嘉田里","LIN":"5鄰","STREET":" ","SECT":" ","MAREA":"上茄苳","LANE":" ","ALLEY":" ","HOUSE_NO":"４８號之４","E_COORD97":187425.5,"N_COORD97":2586930.3900000001,"ADDRESS":"上茄苳４８號之４","OBJECTID":153143},"geometry":{"x":187425.50000000093,"y":2586930.3900000006}},{"attributes":{"ID":153145,"DIS_CODE":0,"TOWNNAME":"後壁區","LI":"嘉田里","LIN":"5鄰","STREET":" ","SECT":" ","MAREA":"上茄苳","LANE":" ","ALLEY":" ","HOUSE_NO":"４８號之５０","E_COORD97":187881.54000000001,"N_COORD97":2586858.5299999998,"ADDRESS":"上茄苳４８號之５０","OBJECTID":153144},"geometry":{"x":187881.54000000004,"y":2586858.5300000012}},{"attributes":{"ID":153146,"DIS_CODE":0,"TOWNNAME":"後壁區","LI":"嘉田里","LIN":"5鄰","STREET":" ","SECT":" ","MAREA":"上茄苳","LANE":" ","ALLEY":" ","HOUSE_NO":"４８號之６０","E_COORD97":187567.14000000001,"N_COORD97":2587462.8799999999,"ADDRESS":"上茄苳４８號之６０","OBJECTID":153145},"geometry":{"x":187567.13999999966,"y":2587462.8800000008}},{"attributes":{"ID":153147,"DIS_CODE":0,"TOWNNAME":"後壁區","LI":"嘉田里","LIN":"5鄰","STREET":" ","SECT":" ","MAREA":"上茄苳","LANE":" ","ALLEY":" ","HOUSE_NO":"４８號之６","E_COORD97":187443.19,"N_COORD97":2586954.96,"ADDRESS":"上茄苳４８號之６","OBJECTID":153146},"geometry":{"x":187443.19000000134,"y":2586954.9600000028}},{"attributes":{"ID":153148,"DIS_CODE":0,"TOWNNAME":"後壁區","LI":"嘉田里","LIN":"5鄰","STREET":" ","SECT":" ","MAREA":"上茄苳","LANE":" ","ALLEY":" ","HOUSE_NO":"４８號","E_COORD97":186881.37,"N_COORD97":2586971.6000000001,"ADDRESS":"上茄苳４８號","OBJECTID":153147},"geometry":{"x":186881.37000000011,"y":2586971.5999999996}},{"attributes":{"ID":153149,"DIS_CODE":0,"TOWNNAME":"後壁區","LI":"嘉田里","LIN":"5鄰","STREET":" ","SECT":" ","MAREA":"上茄苳","LANE":" ","ALLEY":" ","HOUSE_NO":"４９號之１０附１","E_COORD97":186827.26000000001,"N_COORD97":2587009.7400000002,"ADDRESS":"上茄苳４９號之１０附１","OBJECTID":153148},"geometry":{"x":186827.25999999978,"y":2587009.7400000039}},{"attributes":{"ID":153150,"DIS_CODE":0,"TOWNNAME":"後壁區","LI":"嘉田里","LIN":"5鄰","STREET":" ","SECT":" ","MAREA":"上茄苳","LANE":" ","ALLEY":" ","HOUSE_NO":"４９號之１０","E_COORD97":186831.72,"N_COORD97":2587010.5800000001,"ADDRESS":"上茄苳４９號之１０","OBJECTID":153149},"geometry":{"x":186831.72000000067,"y":2587010.5800000038}},{"attributes":{"ID":153151,"DIS_CODE":0,"TOWNNAME":"後壁區","LI":"嘉田里","LIN":"5鄰","STREET":" ","SECT":" ","MAREA":"上茄苳","LANE":" ","ALLEY":" ","HOUSE_NO":"４９號之１１","E_COORD97":186837.95999999999,"N_COORD97":2587011.3799999999,"ADDRESS":"上茄苳４９號之１１","OBJECTID":153150},"geometry":{"x":186837.95999999996,"y":2587011.3800000008}},{"attributes":{"ID":153152,"DIS_CODE":0,"TOWNNAME":"後壁區","LI":"嘉田里","LIN":"5鄰","STREET":" ","SECT":" ","MAREA":"上茄苳","LANE":" ","ALLEY":" ","HOUSE_NO":"４９號之１２","E_COORD97":186847.35000000001,"N_COORD97":2587016.5800000001,"ADDRESS":"上茄苳４９號之１２","OBJECTID":153151},"geometry":{"x":186847.3499999987,"y":2587016.5800000001}},{"attributes":{"ID":153153,"DIS_CODE":0,"TOWNNAME":"後壁區","LI":"嘉田里","LIN":"5鄰","STREET":" ","SECT":" ","MAREA":"上茄苳","LANE":" ","ALLEY":" ","HOUSE_NO":"４９號之１３","E_COORD97":186856.98999999999,"N_COORD97":2586996.48,"ADDRESS":"上茄苳４９號之１３","OBJECTID":153152},"geometry":{"x":186856.99000000022,"y":2586996.4800000004}},{"attributes":{"ID":153154,"DIS_CODE":0,"TOWNNAME":"後壁區","LI":"嘉田里","LIN":"5鄰","STREET":" ","SECT":" ","MAREA":"上茄苳","LANE":" ","ALLEY":" ","HOUSE_NO":"４９號之１４附１","E_COORD97":186859.63,"N_COORD97":2586986.7599999998,"ADDRESS":"上茄苳４９號之１４附１","OBJECTID":153153},"geometry":{"x":186859.63000000082,"y":2586986.7600000016}},{"attributes":{"ID":153155,"DIS_CODE":0,"TOWNNAME":"後壁區","LI":"嘉田里","LIN":"5鄰","STREET":" ","SECT":" ","MAREA":"上茄苳","LANE":" ","ALLEY":" ","HOUSE_NO":"４９號之１４","E_COORD97":186858.26999999999,"N_COORD97":2586991.73,"ADDRESS":"上茄苳４９號之１４","OBJECTID":153154},"geometry":{"x":186858.27000000048,"y":2586991.7300000004}},{"attributes":{"ID":153156,"DIS_CODE":0,"TOWNNAME":"後壁區","LI":"嘉田里","LIN":"5鄰","STREET":" ","SECT":" ","MAREA":"上茄苳","LANE":" ","ALLEY":" ","HOUSE_NO":"４９號之１５","E_COORD97":186859.37,"N_COORD97":2586961.0899999999,"ADDRESS":"上茄苳４９號之１５","OBJECTID":153155},"geometry":{"x":186859.37000000011,"y":2586961.0899999999}},{"attributes":{"ID":153157,"DIS_CODE":0,"TOWNNAME":"後壁區","LI":"嘉田里","LIN":"5鄰","STREET":" ","SECT":" ","MAREA":"上茄苳","LANE":" ","ALLEY":" ","HOUSE_NO":"４９號之１６","E_COORD97":186842.26999999999,"N_COORD97":2586952.27,"ADDRESS":"上茄苳４９號之１６","OBJECTID":153156},"geometry":{"x":186842.26999999955,"y":2586952.2700000014}},{"attributes":{"ID":153158,"DIS_CODE":0,"TOWNNAME":"後壁區","LI":"嘉田里","LIN":"5鄰","STREET":" ","SECT":" ","MAREA":"上茄苳","LANE":" ","ALLEY":" ","HOUSE_NO":"４９號之１","E_COORD97":186836.17999999999,"N_COORD97":2587042.5,"ADDRESS":"上茄苳４９號之１","OBJECTID":153157},"geometry":{"x":186836.1799999997,"y":2587042.5000000019}},{"attributes":{"ID":153159,"DIS_CODE":0,"TOWNNAME":"後壁區","LI":"嘉田里","LIN":"5鄰","STREET":" ","SECT":" ","MAREA":"上茄苳","LANE":" ","ALLEY":" ","HOUSE_NO":"４９號之２０","E_COORD97":186816.79000000001,"N_COORD97":2586937.77,"ADDRESS":"上茄苳４９號之２０","OBJECTID":153158},"geometry":{"x":186816.79000000097,"y":2586937.7700000014}},{"attributes":{"ID":153160,"DIS_CODE":0,"TOWNNAME":"後壁區","LI":"嘉田里","LIN":"5鄰","STREET":" ","SECT":" ","MAREA":"上茄苳","LANE":" ","ALLEY":" ","HOUSE_NO":"４９號之３附１","E_COORD97":186797.84,"N_COORD97":2587036.3399999999,"ADDRESS":"上茄苳４９號之３附１","OBJECTID":153159},"geometry":{"x":186797.83999999985,"y":2587036.3400000017}},{"attributes":{"ID":153161,"DIS_CODE":0,"TOWNNAME":"後壁區","LI":"嘉田里","LIN":"5鄰","STREET":" ","SECT":" ","MAREA":"上茄苳","LANE":" ","ALLEY":" ","HOUSE_NO":"４９號之３","E_COORD97":186808.07999999999,"N_COORD97":2587034.1299999999,"ADDRESS":"上茄苳４９號之３","OBJECTID":153160},"geometry":{"x":186808.08000000101,"y":2587034.1300000008}},{"attributes":{"ID":153162,"DIS_CODE":0,"TOWNNAME":"後壁區","LI":"嘉田里","LIN":"5鄰","STREET":" ","SECT":" ","MAREA":"上茄苳","LANE":" ","ALLEY":" ","HOUSE_NO":"４９號之４","E_COORD97":186803.63,"N_COORD97":2587066.27,"ADDRESS":"上茄苳４９號之４","OBJECTID":153161},"geometry":{"x":186803.63000000082,"y":2587066.2700000033}},{"attributes":{"ID":153163,"DIS_CODE":0,"TOWNNAME":"後壁區","LI":"嘉田里","LIN":"5鄰","STREET":" ","SECT":" ","MAREA":"上茄苳","LANE":" ","ALLEY":" ","HOUSE_NO":"４９號之５","E_COORD97":186819.97,"N_COORD97":2587073.8399999999,"ADDRESS":"上茄苳４９號之５","OBJECTID":153162},"geometry":{"x":186819.97000000067,"y":2587073.8400000017}},{"attributes":{"ID":153164,"DIS_CODE":0,"TOWNNAME":"後壁區","LI":"嘉田里","LIN":"5鄰","STREET":" ","SECT":" ","MAREA":"上茄苳","LANE":" ","ALLEY":" ","HOUSE_NO":"４９號之７","E_COORD97":186801.94,"N_COORD97":2587097.8100000001,"ADDRESS":"上茄苳４９號之７","OBJECTID":153163},"geometry":{"x":186801.94000000227,"y":2587097.8100000024}},{"attributes":{"ID":153165,"DIS_CODE":0,"TOWNNAME":"後壁區","LI":"嘉田里","LIN":"5鄰","STREET":" ","SECT":" ","MAREA":"上茄苳","LANE":" ","ALLEY":" ","HOUSE_NO":"４９號之９","E_COORD97":186818.76000000001,"N_COORD97":2586986.8999999999,"ADDRESS":"上茄苳４９號之９","OBJECTID":153164},"geometry":{"x":186818.75999999978,"y":2586986.9000000004}},{"attributes":{"ID":153166,"DIS_CODE":0,"TOWNNAME":"後壁區","LI":"嘉田里","LIN":"5鄰","STREET":" ","SECT":" ","MAREA":"上茄苳","LANE":" ","ALLEY":" ","HOUSE_NO":"４９號","E_COORD97":186816.76000000001,"N_COORD97":2587042.54,"ADDRESS":"上茄苳４９號","OBJECTID":153165},"geometry":{"x":186816.76000000071,"y":2587042.5399999991}},{"attributes":{"ID":153167,"DIS_CODE":0,"TOWNNAME":"後壁區","LI":"嘉田里","LIN":"5鄰","STREET":" ","SECT":" ","MAREA":"上茄苳","LANE":" ","ALLEY":" ","HOUSE_NO":"５１號之１","E_COORD97":186772.29999999999,"N_COORD97":2587117.6200000001,"ADDRESS":"上茄苳５１號之１","OBJECTID":153166},"geometry":{"x":186772.30000000075,"y":2587117.6200000029}},{"attributes":{"ID":153168,"DIS_CODE":0,"TOWNNAME":"後壁區","LI":"嘉田里","LIN":"5鄰","STREET":" ","SECT":" ","MAREA":"上茄苳","LANE":" ","ALLEY":" ","HOUSE_NO":"５１號","E_COORD97":186772.53,"N_COORD97":2587142.0899999999,"ADDRESS":"上茄苳５１號","OBJECTID":153167},"geometry":{"x":186772.53000000119,"y":2587142.089999998}},{"attributes":{"ID":153169,"DIS_CODE":0,"TOWNNAME":"後壁區","LI":"土溝里","LIN":"5鄰","STREET":" ","SECT":" ","MAREA":"土溝","LANE":" ","ALLEY":" ","HOUSE_NO":"４１號之１","E_COORD97":186921.98999999999,"N_COORD97":2585660.1200000001,"ADDRESS":"土溝４１號之１","OBJECTID":153168},"geometry":{"x":186921.99000000115,"y":2585660.120000001}},{"attributes":{"ID":153170,"DIS_CODE":0,"TOWNNAME":"後壁區","LI":"土溝里","LIN":"5鄰","STREET":" ","SECT":" ","MAREA":"土溝","LANE":" ","ALLEY":" ","HOUSE_NO":"４１號之２","E_COORD97":186924.37,"N_COORD97":2585596.75,"ADDRESS":"土溝４１號之２","OBJECTID":153169},"geometry":{"x":186924.37000000104,"y":2585596.7500000019}},{"attributes":{"ID":153171,"DIS_CODE":0,"TOWNNAME":"後壁區","LI":"土溝里","LIN":"5鄰","STREET":" ","SECT":" ","MAREA":"土溝","LANE":" ","ALLEY":" ","HOUSE_NO":"４１號","E_COORD97":186907.16,"N_COORD97":2585631.71,"ADDRESS":"土溝４１號","OBJECTID":153170},"geometry":{"x":186907.16000000108,"y":2585631.7100000028}},{"attributes":{"ID":153172,"DIS_CODE":0,"TOWNNAME":"後壁區","LI":"土溝里","LIN":"5鄰","STREET":" ","SECT":" ","MAREA":"土溝","LANE":" ","ALLEY":" ","HOUSE_NO":"４２號之１０","E_COORD97":186877.54000000001,"N_COORD97":2585633.79,"ADDRESS":"土溝４２號之１０","OBJECTID":153171},"geometry":{"x":186877.54000000097,"y":2585633.7899999991}},{"attributes":{"ID":153173,"DIS_CODE":0,"TOWNNAME":"後壁區","LI":"土溝里","LIN":"5鄰","STREET":" ","SECT":" ","MAREA":"土溝","LANE":" ","ALLEY":" ","HOUSE_NO":"４２號之１","E_COORD97":186879.60999999999,"N_COORD97":2585656.4500000002,"ADDRESS":"土溝４２號之１","OBJECTID":153172},"geometry":{"x":186879.61000000034,"y":2585656.4499999993}},{"attributes":{"ID":153174,"DIS_CODE":0,"TOWNNAME":"後壁區","LI":"土溝里","LIN":"5鄰","STREET":" ","SECT":" ","MAREA":"土溝","LANE":" ","ALLEY":" ","HOUSE_NO":"４２號之３","E_COORD97":186892,"N_COORD97":2585668.9500000002,"ADDRESS":"土溝４２號之３","OBJECTID":153173},"geometry":{"x":186892,"y":2585668.9500000011}},{"attributes":{"ID":153175,"DIS_CODE":0,"TOWNNAME":"後壁區","LI":"土溝里","LIN":"5鄰","STREET":" ","SECT":" ","MAREA":"土溝","LANE":" ","ALLEY":" ","HOUSE_NO":"４２號之９","E_COORD97":186879.78,"N_COORD97":2585643.0600000001,"ADDRESS":"土溝４２號之９","OBJECTID":153174},"geometry":{"x":186879.78000000119,"y":2585643.0600000005}},{"attributes":{"ID":153176,"DIS_CODE":0,"TOWNNAME":"後壁區","LI":"土溝里","LIN":"5鄰","STREET":" ","SECT":" ","MAREA":"土溝","LANE":" ","ALLEY":" ","HOUSE_NO":"４５號之１","E_COORD97":186854.23999999999,"N_COORD97":2585589.7999999998,"ADDRESS":"土溝４５號之１","OBJECTID":153175},"geometry":{"x":186854.24000000115,"y":2585589.8000000026}},{"attributes":{"ID":153177,"DIS_CODE":0,"TOWNNAME":"後壁區","LI":"土溝里","LIN":"5鄰","STREET":" ","SECT":" ","MAREA":"土溝","LANE":" ","ALLEY":" ","HOUSE_NO":"４６號之７","E_COORD97":186904.85999999999,"N_COORD97":2585522.2799999998,"ADDRESS":"土溝４６號之７","OBJECTID":153176},"geometry":{"x":186904.86000000127,"y":2585522.2799999993}},{"attributes":{"ID":153178,"DIS_CODE":0,"TOWNNAME":"後壁區","LI":"土溝里","LIN":"5鄰","STREET":" ","SECT":" ","MAREA":"土溝","LANE":" ","ALLEY":" ","HOUSE_NO":"４６號之８","E_COORD97":186905.64000000001,"N_COORD97":2585516.2400000002,"ADDRESS":"土溝４６號之８","OBJECTID":153177},"geometry":{"x":186905.6400000006,"y":2585516.2400000002}},{"attributes":{"ID":153179,"DIS_CODE":0,"TOWNNAME":"新化區","LI":"全興里","LIN":"10鄰","STREET":" ","SECT":" ","MAREA":"竹子\u25A0","LANE":" ","ALLEY":" ","HOUSE_NO":"１６８號","E_COORD97":177288.32999999999,"N_COORD97":2547155.25,"ADDRESS":"竹子\u25A0１６８號","OBJECTID":153178},"geometry":{"x":177288.33000000007,"y":2547155.2500000037}},{"attributes":{"ID":153180,"DIS_CODE":0,"TOWNNAME":"後壁區","LI":"土溝里","LIN":"5鄰","STREET":" ","SECT":" ","MAREA":"土溝","LANE":" ","ALLEY":" ","HOUSE_NO":"４６號之９","E_COORD97":186906.42999999999,"N_COORD97":2585510.21,"ADDRESS":"土溝４６號之９","OBJECTID":153179},"geometry":{"x":186906.43000000156,"y":2585510.2100000009}},{"attributes":{"ID":153181,"DIS_CODE":0,"TOWNNAME":"後壁區","LI":"土溝里","LIN":"5鄰","STREET":" ","SECT":" ","MAREA":"土溝","LANE":" ","ALLEY":" ","HOUSE_NO":"４７號之１２","E_COORD97":187021.87,"N_COORD97":2585534.5099999998,"ADDRESS":"土溝４７號之１２","OBJECTID":153180},"geometry":{"x":187021.87000000011,"y":2585534.5099999998}},{"attributes":{"ID":153182,"DIS_CODE":0,"TOWNNAME":"後壁區","LI":"土溝里","LIN":"5鄰","STREET":" ","SECT":" ","MAREA":"土溝","LANE":" ","ALLEY":" ","HOUSE_NO":"４７號之３","E_COORD97":186969.88,"N_COORD97":2585573.8199999998,"ADDRESS":"土溝４７號之３","OBJECTID":153181},"geometry":{"x":186969.88000000082,"y":2585573.8200000003}},{"attributes":{"ID":153183,"DIS_CODE":0,"TOWNNAME":"後壁區","LI":"土溝里","LIN":"5鄰","STREET":" ","SECT":" ","MAREA":"土溝","LANE":" ","ALLEY":" ","HOUSE_NO":"４７號","E_COORD97":186950.35999999999,"N_COORD97":2585574.5800000001,"ADDRESS":"土溝４７號","OBJECTID":153182},"geometry":{"x":186950.36000000127,"y":2585574.5800000001}},{"attributes":{"ID":153184,"DIS_CODE":0,"TOWNNAME":"後壁區","LI":"長安里","LIN":"5鄰","STREET":" ","SECT":" ","MAREA":"中寮","LANE":" ","ALLEY":" ","HOUSE_NO":"６１號","E_COORD97":184303.44,"N_COORD97":2581200.8799999999,"ADDRESS":"中寮６１號","OBJECTID":153183},"geometry":{"x":184303.44000000134,"y":2581200.8800000008}},{"attributes":{"ID":153185,"DIS_CODE":0,"TOWNNAME":"後壁區","LI":"長安里","LIN":"5鄰","STREET":" ","SECT":" ","MAREA":"中寮","LANE":" ","ALLEY":" ","HOUSE_NO":"６２號","E_COORD97":184291.42999999999,"N_COORD97":2581196.9900000002,"ADDRESS":"中寮６２號","OBJECTID":153184},"geometry":{"x":184291.43000000063,"y":2581196.9900000021}},{"attributes":{"ID":153186,"DIS_CODE":0,"TOWNNAME":"後壁區","LI":"長安里","LIN":"5鄰","STREET":" ","SECT":" ","MAREA":"中寮","LANE":" ","ALLEY":" ","HOUSE_NO":"６３號之１","E_COORD97":184267.14999999999,"N_COORD97":2581188.8199999998,"ADDRESS":"中寮６３號之１","OBJECTID":153185},"geometry":{"x":184267.15000000037,"y":2581188.8200000022}},{"attributes":{"ID":153187,"DIS_CODE":0,"TOWNNAME":"後壁區","LI":"長安里","LIN":"5鄰","STREET":" ","SECT":" ","MAREA":"中寮","LANE":" ","ALLEY":" ","HOUSE_NO":"６４號之３","E_COORD97":184299.17999999999,"N_COORD97":2581224.7000000002,"ADDRESS":"中寮６４號之３","OBJECTID":153186},"geometry":{"x":184299.18000000156,"y":2581224.700000003}},{"attributes":{"ID":153188,"DIS_CODE":0,"TOWNNAME":"後壁區","LI":"長安里","LIN":"5鄰","STREET":" ","SECT":" ","MAREA":"中寮","LANE":" ","ALLEY":" ","HOUSE_NO":"６４號之４","E_COORD97":184299,"N_COORD97":2581229.6699999999,"ADDRESS":"中寮６４號之４","OBJECTID":153187},"geometry":{"x":184299.00000000186,"y":2581229.6700000018}},{"attributes":{"ID":153189,"DIS_CODE":0,"TOWNNAME":"後壁區","LI":"長安里","LIN":"5鄰","STREET":" ","SECT":" ","MAREA":"中寮","LANE":" ","ALLEY":" ","HOUSE_NO":"６４號之５","E_COORD97":184298.20999999999,"N_COORD97":2581233.6200000001,"ADDRESS":"中寮６４號之５","OBJECTID":153188},"geometry":{"x":184298.21000000089,"y":2581233.620000001}},{"attributes":{"ID":153190,"DIS_CODE":0,"TOWNNAME":"後壁區","LI":"長安里","LIN":"5鄰","STREET":" ","SECT":" ","MAREA":"中寮","LANE":" ","ALLEY":" ","HOUSE_NO":"６４號之６","E_COORD97":184297.81,"N_COORD97":2581237.8399999999,"ADDRESS":"中寮６４號之６","OBJECTID":153189},"geometry":{"x":184297.80999999959,"y":2581237.8400000036}},{"attributes":{"ID":153191,"DIS_CODE":0,"TOWNNAME":"後壁區","LI":"長安里","LIN":"5鄰","STREET":" ","SECT":" ","MAREA":"中寮","LANE":" ","ALLEY":" ","HOUSE_NO":"６４號之８","E_COORD97":184297.92000000001,"N_COORD97":2581246.8300000001,"ADDRESS":"中寮６４號之８","OBJECTID":153190},"geometry":{"x":184297.92000000086,"y":2581246.8300000001}},{"attributes":{"ID":153192,"DIS_CODE":0,"TOWNNAME":"後壁區","LI":"長安里","LIN":"5鄰","STREET":" ","SECT":" ","MAREA":"中寮","LANE":" ","ALLEY":" ","HOUSE_NO":"６４號之９","E_COORD97":184292.95999999999,"N_COORD97":2581273,"ADDRESS":"中寮６４號之９","OBJECTID":153191},"geometry":{"x":184292.96000000089,"y":2581273}},{"attributes":{"ID":153193,"DIS_CODE":0,"TOWNNAME":"後壁區","LI":"長安里","LIN":"5鄰","STREET":" ","SECT":" ","MAREA":"中寮","LANE":" ","ALLEY":" ","HOUSE_NO":"６４號","E_COORD97":184307.85000000001,"N_COORD97":2581214.3700000001,"ADDRESS":"中寮６４號","OBJECTID":153192},"geometry":{"x":184307.84999999963,"y":2581214.370000001}},{"attributes":{"ID":153194,"DIS_CODE":0,"TOWNNAME":"後壁區","LI":"長安里","LIN":"5鄰","STREET":" ","SECT":" ","MAREA":"中寮","LANE":" ","ALLEY":" ","HOUSE_NO":"６６號","E_COORD97":184266.53,"N_COORD97":2581223.3700000001,"ADDRESS":"中寮６６號","OBJECTID":153193},"geometry":{"x":184266.53000000026,"y":2581223.3700000029}},{"attributes":{"ID":153195,"DIS_CODE":0,"TOWNNAME":"後壁區","LI":"長安里","LIN":"5鄰","STREET":" ","SECT":" ","MAREA":"中寮","LANE":" ","ALLEY":" ","HOUSE_NO":"６８號之１","E_COORD97":184270.29999999999,"N_COORD97":2581256.1499999999,"ADDRESS":"中寮６８號之１","OBJECTID":153194},"geometry":{"x":184270.30000000075,"y":2581256.1500000004}},{"attributes":{"ID":153196,"DIS_CODE":0,"TOWNNAME":"後壁區","LI":"長安里","LIN":"5鄰","STREET":" ","SECT":" ","MAREA":"中寮","LANE":" ","ALLEY":" ","HOUSE_NO":"６８號之２","E_COORD97":184274.17000000001,"N_COORD97":2581260.3900000001,"ADDRESS":"中寮６８號之２","OBJECTID":153195},"geometry":{"x":184274.17000000086,"y":2581260.3900000025}},{"attributes":{"ID":153197,"DIS_CODE":0,"TOWNNAME":"後壁區","LI":"長安里","LIN":"5鄰","STREET":" ","SECT":" ","MAREA":"中寮","LANE":" ","ALLEY":" ","HOUSE_NO":"６９號之１","E_COORD97":184280.75,"N_COORD97":2581179,"ADDRESS":"中寮６９號之１","OBJECTID":153196},"geometry":{"x":184280.75000000093,"y":2581179}},{"attributes":{"ID":153198,"DIS_CODE":0,"TOWNNAME":"後壁區","LI":"長安里","LIN":"5鄰","STREET":" ","SECT":" ","MAREA":"中寮","LANE":" ","ALLEY":" ","HOUSE_NO":"６９號","E_COORD97":184276.48999999999,"N_COORD97":2581176.6200000001,"ADDRESS":"中寮６９號","OBJECTID":153197},"geometry":{"x":184276.49000000022,"y":2581176.6200000029}},{"attributes":{"ID":153199,"DIS_CODE":0,"TOWNNAME":"後壁區","LI":"長安里","LIN":"5鄰","STREET":" ","SECT":" ","MAREA":"中寮","LANE":" ","ALLEY":" ","HOUSE_NO":"７１號","E_COORD97":184268.04999999999,"N_COORD97":2581172.5899999999,"ADDRESS":"中寮７１號","OBJECTID":153198},"geometry":{"x":184268.05000000075,"y":2581172.5900000017}},{"attributes":{"ID":153200,"DIS_CODE":0,"TOWNNAME":"後壁區","LI":"長安里","LIN":"5鄰","STREET":" ","SECT":" ","MAREA":"中寮","LANE":" ","ALLEY":" ","HOUSE_NO":"７２號","E_COORD97":184263.22,"N_COORD97":2581171.02,"ADDRESS":"中寮７２號","OBJECTID":153199},"geometry":{"x":184263.2200000016,"y":2581171.0199999996}},{"attributes":{"ID":153201,"DIS_CODE":0,"TOWNNAME":"後壁區","LI":"長安里","LIN":"5鄰","STREET":" ","SECT":" ","MAREA":"中寮","LANE":" ","ALLEY":" ","HOUSE_NO":"７３號","E_COORD97":184259.19,"N_COORD97":2581168.2000000002,"ADDRESS":"中寮７３號","OBJECTID":153200},"geometry":{"x":184259.19000000227,"y":2581168.2000000011}}]}