{"displayFieldName":"TOWNNAME","fieldAliases":{"ID":"ID","DIS_CODE":"DIS_CODE","TOWNNAME":"TOWNNAME","LI":"LI","LIN":"LIN","STREET":"STREET","SECT":"SECT","MAREA":"MAREA","LANE":"LANE","ALLEY":"ALLEY","HOUSE_NO":"HOUSE_NO","E_COORD97":"E_COORD97","N_COORD97":"N_COORD97","ADDRESS":"ADDRESS","OBJECTID":"OBJECTID"},"geometryType":"esriGeometryPoint","spatialReference":{"wkid":102443,"latestWkid":3826},"fields":[{"name":"ID","type":"esriFieldTypeDouble","alias":"ID"},{"name":"DIS_CODE","type":"esriFieldTypeInteger","alias":"DIS_CODE"},{"name":"TOWNNAME","type":"esriFieldTypeString","alias":"TOWNNAME","length":8},{"name":"LI","type":"esriFieldTypeString","alias":"LI","length":8},{"name":"LIN","type":"esriFieldTypeString","alias":"LIN","length":12},{"name":"STREET","type":"esriFieldTypeString","alias":"STREET","length":20},{"name":"SECT","type":"esriFieldTypeString","alias":"SECT","length":8},{"name":"MAREA","type":"esriFieldTypeString","alias":"MAREA","length":12},{"name":"LANE","type":"esriFieldTypeString","alias":"LANE","length":10},{"name":"ALLEY","type":"esriFieldTypeString","alias":"ALLEY","length":10},{"name":"HOUSE_NO","type":"esriFieldTypeString","alias":"HOUSE_NO","length":20},{"name":"E_COORD97","type":"esriFieldTypeDouble","alias":"E_COORD97"},{"name":"N_COORD97","type":"esriFieldTypeDouble","alias":"N_COORD97"},{"name":"ADDRESS","type":"esriFieldTypeString","alias":"ADDRESS","length":50},{"name":"OBJECTID","type":"esriFieldTypeOID","alias":"OBJECTID"}],"features":[{"attributes":{"ID":310209,"DIS_CODE":0,"TOWNNAME":"中西區","LI":"藥王里","LIN":"7鄰","STREET":"大新街","SECT":" ","MAREA":" ","LANE":"３６巷","ALLEY":" ","HOUSE_NO":"１號","E_COORD97":167182.32000000001,"N_COORD97":2544385.3900000001,"ADDRESS":"大新街３６巷１號","OBJECTID":310201},"geometry":{"x":167182.3200000003,"y":2544385.3900000025}},{"attributes":{"ID":310210,"DIS_CODE":0,"TOWNNAME":"中西區","LI":"藥王里","LIN":"7鄰","STREET":"大新街","SECT":" ","MAREA":" ","LANE":"４８巷","ALLEY":" ","HOUSE_NO":"１１號","E_COORD97":167216.37,"N_COORD97":2544403.6600000001,"ADDRESS":"大新街４８巷１１號","OBJECTID":310202},"geometry":{"x":167216.37000000104,"y":2544403.660000002}},{"attributes":{"ID":310211,"DIS_CODE":0,"TOWNNAME":"中西區","LI":"藥王里","LIN":"7鄰","STREET":"大新街","SECT":" ","MAREA":" ","LANE":"４８巷","ALLEY":" ","HOUSE_NO":"１２號","E_COORD97":167208.13,"N_COORD97":2544381.5499999998,"ADDRESS":"大新街４８巷１２號","OBJECTID":310203},"geometry":{"x":167208.12999999989,"y":2544381.5500000026}},{"attributes":{"ID":310212,"DIS_CODE":0,"TOWNNAME":"中西區","LI":"藥王里","LIN":"7鄰","STREET":"大新街","SECT":" ","MAREA":" ","LANE":"４８巷","ALLEY":" ","HOUSE_NO":"１３號","E_COORD97":167221.07000000001,"N_COORD97":2544401.7400000002,"ADDRESS":"大新街４８巷１３號","OBJECTID":310204},"geometry":{"x":167221.0700000003,"y":2544401.7400000002}},{"attributes":{"ID":310213,"DIS_CODE":0,"TOWNNAME":"中西區","LI":"藥王里","LIN":"7鄰","STREET":"大新街","SECT":" ","MAREA":" ","LANE":"４８巷","ALLEY":" ","HOUSE_NO":"１４號","E_COORD97":167212.51999999999,"N_COORD97":2544380.1800000002,"ADDRESS":"大新街４８巷１４號","OBJECTID":310205},"geometry":{"x":167212.52000000142,"y":2544380.1800000016}},{"attributes":{"ID":310214,"DIS_CODE":0,"TOWNNAME":"中西區","LI":"藥王里","LIN":"7鄰","STREET":"大新街","SECT":" ","MAREA":" ","LANE":"４８巷","ALLEY":" ","HOUSE_NO":"１５號","E_COORD97":167225.98000000001,"N_COORD97":2544400.2400000002,"ADDRESS":"大新街４８巷１５號","OBJECTID":310206},"geometry":{"x":167225.98000000138,"y":2544400.2400000021}},{"attributes":{"ID":310215,"DIS_CODE":0,"TOWNNAME":"中西區","LI":"藥王里","LIN":"7鄰","STREET":"大新街","SECT":" ","MAREA":" ","LANE":"４８巷","ALLEY":" ","HOUSE_NO":"１６號","E_COORD97":167218.01000000001,"N_COORD97":2544379.0800000001,"ADDRESS":"大新街４８巷１６號","OBJECTID":310207},"geometry":{"x":167218.01000000164,"y":2544379.0800000001}},{"attributes":{"ID":310216,"DIS_CODE":0,"TOWNNAME":"中西區","LI":"藥王里","LIN":"7鄰","STREET":"大新街","SECT":" ","MAREA":" ","LANE":"４８巷","ALLEY":" ","HOUSE_NO":"２號","E_COORD97":167187.35999999999,"N_COORD97":2544395.7599999998,"ADDRESS":"大新街４８巷２號","OBJECTID":310208},"geometry":{"x":167187.3600000022,"y":2544395.7600000016}},{"attributes":{"ID":310217,"DIS_CODE":0,"TOWNNAME":"中西區","LI":"藥王里","LIN":"7鄰","STREET":"大新街","SECT":" ","MAREA":" ","LANE":"４８巷","ALLEY":" ","HOUSE_NO":"３號","E_COORD97":167197.35999999999,"N_COORD97":2544410.2799999998,"ADDRESS":"大新街４８巷３號","OBJECTID":310209},"geometry":{"x":167197.3599999994,"y":2544410.2799999993}},{"attributes":{"ID":310218,"DIS_CODE":0,"TOWNNAME":"中西區","LI":"藥王里","LIN":"7鄰","STREET":"大新街","SECT":" ","MAREA":" ","LANE":"４８巷","ALLEY":" ","HOUSE_NO":"４號","E_COORD97":167192.48999999999,"N_COORD97":2544394.9100000001,"ADDRESS":"大新街４８巷４號","OBJECTID":310210},"geometry":{"x":167192.49000000022,"y":2544394.910000002}},{"attributes":{"ID":310219,"DIS_CODE":0,"TOWNNAME":"中西區","LI":"藥王里","LIN":"7鄰","STREET":"大新街","SECT":" ","MAREA":" ","LANE":"４８巷","ALLEY":" ","HOUSE_NO":"５號","E_COORD97":167202.48999999999,"N_COORD97":2544408.1400000001,"ADDRESS":"大新街４８巷５號","OBJECTID":310211},"geometry":{"x":167202.49000000022,"y":2544408.1400000025}},{"attributes":{"ID":310220,"DIS_CODE":0,"TOWNNAME":"中西區","LI":"藥王里","LIN":"7鄰","STREET":"大新街","SECT":" ","MAREA":" ","LANE":"４８巷","ALLEY":" ","HOUSE_NO":"６號","E_COORD97":167196.97,"N_COORD97":2544393.8399999999,"ADDRESS":"大新街４８巷６號","OBJECTID":310212},"geometry":{"x":167196.96999999974,"y":2544393.8399999999}},{"attributes":{"ID":310221,"DIS_CODE":0,"TOWNNAME":"中西區","LI":"藥王里","LIN":"7鄰","STREET":"大新街","SECT":" ","MAREA":" ","LANE":"４８巷","ALLEY":" ","HOUSE_NO":"７號","E_COORD97":167207.17999999999,"N_COORD97":2544407.0800000001,"ADDRESS":"大新街４８巷７號","OBJECTID":310213},"geometry":{"x":167207.18000000063,"y":2544407.0800000038}},{"attributes":{"ID":310222,"DIS_CODE":0,"TOWNNAME":"中西區","LI":"藥王里","LIN":"7鄰","STREET":"大新街","SECT":" ","MAREA":" ","LANE":"４８巷","ALLEY":" ","HOUSE_NO":"８號","E_COORD97":167201.03,"N_COORD97":2544391.0699999998,"ADDRESS":"大新街４８巷８號","OBJECTID":310214},"geometry":{"x":167201.03000000026,"y":2544391.0700000022}},{"attributes":{"ID":310223,"DIS_CODE":0,"TOWNNAME":"中西區","LI":"藥王里","LIN":"7鄰","STREET":"大新街","SECT":" ","MAREA":" ","LANE":"４８巷","ALLEY":" ","HOUSE_NO":"９號","E_COORD97":167211.67000000001,"N_COORD97":2544405.1499999999,"ADDRESS":"大新街４８巷９號","OBJECTID":310215},"geometry":{"x":167211.66999999993,"y":2544405.1500000004}},{"attributes":{"ID":310224,"DIS_CODE":0,"TOWNNAME":"中西區","LI":"藥王里","LIN":"7鄰","STREET":"大新街","SECT":" ","MAREA":" ","LANE":"６０巷","ALLEY":" ","HOUSE_NO":"１０號","E_COORD97":167215.76000000001,"N_COORD97":2544416.1499999999,"ADDRESS":"大新街６０巷１０號","OBJECTID":310216},"geometry":{"x":167215.75999999978,"y":2544416.1500000004}},{"attributes":{"ID":310225,"DIS_CODE":0,"TOWNNAME":"中西區","LI":"藥王里","LIN":"7鄰","STREET":"大新街","SECT":" ","MAREA":" ","LANE":"６０巷","ALLEY":" ","HOUSE_NO":"１２號","E_COORD97":167220.92000000001,"N_COORD97":2544415.4900000002,"ADDRESS":"大新街６０巷１２號","OBJECTID":310217},"geometry":{"x":167220.92000000086,"y":2544415.4900000021}},{"attributes":{"ID":310226,"DIS_CODE":0,"TOWNNAME":"中西區","LI":"藥王里","LIN":"7鄰","STREET":"大新街","SECT":" ","MAREA":" ","LANE":"６０巷","ALLEY":" ","HOUSE_NO":"１４號","E_COORD97":167225.04999999999,"N_COORD97":2544413.1499999999,"ADDRESS":"大新街６０巷１４號","OBJECTID":310218},"geometry":{"x":167225.05000000075,"y":2544413.1500000004}},{"attributes":{"ID":310227,"DIS_CODE":0,"TOWNNAME":"中西區","LI":"藥王里","LIN":"7鄰","STREET":"大新街","SECT":" ","MAREA":" ","LANE":"６０巷","ALLEY":" ","HOUSE_NO":"１６號","E_COORD97":167231.60000000001,"N_COORD97":2544412.0600000001,"ADDRESS":"大新街６０巷１６號","OBJECTID":310219},"geometry":{"x":167231.59999999963,"y":2544412.0600000024}},{"attributes":{"ID":310228,"DIS_CODE":0,"TOWNNAME":"中西區","LI":"藥王里","LIN":"7鄰","STREET":"大新街","SECT":" ","MAREA":" ","LANE":"２２巷","ALLEY":" ","HOUSE_NO":"１７號","E_COORD97":167210.60000000001,"N_COORD97":2544339.5800000001,"ADDRESS":"大新街２２巷１７號","OBJECTID":310220},"geometry":{"x":167210.60000000056,"y":2544339.5800000019}},{"attributes":{"ID":310229,"DIS_CODE":0,"TOWNNAME":"中西區","LI":"藥王里","LIN":"7鄰","STREET":"大新街","SECT":" ","MAREA":" ","LANE":"２２巷","ALLEY":" ","HOUSE_NO":"３號","E_COORD97":167172.44,"N_COORD97":2544356.5899999999,"ADDRESS":"大新街２２巷３號","OBJECTID":310221},"geometry":{"x":167172.44000000134,"y":2544356.5900000017}},{"attributes":{"ID":310230,"DIS_CODE":0,"TOWNNAME":"中西區","LI":"藥王里","LIN":"7鄰","STREET":"大新街","SECT":" ","MAREA":" ","LANE":"２２巷","ALLEY":" ","HOUSE_NO":"５號","E_COORD97":167177.10999999999,"N_COORD97":2544355.2200000002,"ADDRESS":"大新街２２巷５號","OBJECTID":310222},"geometry":{"x":167177.1100000022,"y":2544355.2200000007}},{"attributes":{"ID":310231,"DIS_CODE":0,"TOWNNAME":"中西區","LI":"藥王里","LIN":"7鄰","STREET":"大新街","SECT":" ","MAREA":" ","LANE":"２２巷","ALLEY":" ","HOUSE_NO":"７號","E_COORD97":167181.23000000001,"N_COORD97":2544350,"ADDRESS":"大新街２２巷７號","OBJECTID":310223},"geometry":{"x":167181.23000000045,"y":2544350.0000000019}},{"attributes":{"ID":310232,"DIS_CODE":0,"TOWNNAME":"中西區","LI":"藥王里","LIN":"7鄰","STREET":"大新街","SECT":" ","MAREA":" ","LANE":"２２巷","ALLEY":" ","HOUSE_NO":"９號","E_COORD97":167193.03,"N_COORD97":2544350.2799999998,"ADDRESS":"大新街２２巷９號","OBJECTID":310224},"geometry":{"x":167193.03000000119,"y":2544350.2799999975}},{"attributes":{"ID":310233,"DIS_CODE":0,"TOWNNAME":"中西區","LI":"藥王里","LIN":"7鄰","STREET":"大新街","SECT":" ","MAREA":" ","LANE":"３６巷","ALLEY":" ","HOUSE_NO":"１４號","E_COORD97":167205.10999999999,"N_COORD97":2544361.52,"ADDRESS":"大新街３６巷１４號","OBJECTID":310225},"geometry":{"x":167205.11000000127,"y":2544361.5199999996}},{"attributes":{"ID":310234,"DIS_CODE":0,"TOWNNAME":"中西區","LI":"藥王里","LIN":"7鄰","STREET":"大新街","SECT":" ","MAREA":" ","LANE":"３６巷","ALLEY":" ","HOUSE_NO":"１６號","E_COORD97":167210.04999999999,"N_COORD97":2544359.8799999999,"ADDRESS":"大新街３６巷１６號","OBJECTID":310226},"geometry":{"x":167210.05000000075,"y":2544359.8800000008}},{"attributes":{"ID":310235,"DIS_CODE":0,"TOWNNAME":"永康區","LI":"勝利里","LIN":"7鄰","STREET":"勝利街","SECT":" ","MAREA":" ","LANE":"２２巷","ALLEY":" ","HOUSE_NO":"３７號","E_COORD97":171263.57000000001,"N_COORD97":2544668.7599999998,"ADDRESS":"勝利街２２巷３７號","OBJECTID":310227},"geometry":{"x":171263.57000000123,"y":2544668.7599999998}},{"attributes":{"ID":310236,"DIS_CODE":0,"TOWNNAME":"永康區","LI":"神洲里","LIN":"7鄰","STREET":"忠孝路","SECT":" ","MAREA":" ","LANE":"５４巷","ALLEY":" ","HOUSE_NO":"２３號","E_COORD97":172177.64000000001,"N_COORD97":2544767.2599999998,"ADDRESS":"忠孝路５４巷２３號","OBJECTID":310228},"geometry":{"x":172177.6400000006,"y":2544767.2599999998}},{"attributes":{"ID":310237,"DIS_CODE":0,"TOWNNAME":"東區","LI":"德高里","LIN":"7鄰","STREET":"仁和路","SECT":" ","MAREA":" ","LANE":"２０８巷","ALLEY":" ","HOUSE_NO":"７號","E_COORD97":171519.10000000001,"N_COORD97":2540974.6600000001,"ADDRESS":"仁和路２０８巷７號","OBJECTID":310229},"geometry":{"x":171519.09999999963,"y":2540974.6600000001}},{"attributes":{"ID":310238,"DIS_CODE":0,"TOWNNAME":"東區","LI":"德高里","LIN":"7鄰","STREET":"仁和路","SECT":" ","MAREA":" ","LANE":"２０８巷","ALLEY":" ","HOUSE_NO":"９號","E_COORD97":171516.60999999999,"N_COORD97":2540971.3500000001,"ADDRESS":"仁和路２０８巷９號","OBJECTID":310230},"geometry":{"x":171516.61000000034,"y":2540971.3500000015}},{"attributes":{"ID":310239,"DIS_CODE":0,"TOWNNAME":"東區","LI":"德高里","LIN":"7鄰","STREET":"仁和路","SECT":" ","MAREA":" ","LANE":"２１８巷","ALLEY":" ","HOUSE_NO":"１０號","E_COORD97":171513.47,"N_COORD97":2540947.1899999999,"ADDRESS":"仁和路２１８巷１０號","OBJECTID":310231},"geometry":{"x":171513.46999999974,"y":2540947.1899999976}},{"attributes":{"ID":310240,"DIS_CODE":0,"TOWNNAME":"東區","LI":"德高里","LIN":"7鄰","STREET":"仁和路","SECT":" ","MAREA":" ","LANE":"２１８巷","ALLEY":" ","HOUSE_NO":"１１號","E_COORD97":171521.75,"N_COORD97":2540928.8300000001,"ADDRESS":"仁和路２１８巷１１號","OBJECTID":310232},"geometry":{"x":171521.75,"y":2540928.8300000001}},{"attributes":{"ID":310241,"DIS_CODE":0,"TOWNNAME":"東區","LI":"德高里","LIN":"7鄰","STREET":"仁和路","SECT":" ","MAREA":" ","LANE":"２１８巷","ALLEY":" ","HOUSE_NO":"１２號","E_COORD97":171509.48999999999,"N_COORD97":2540942.0699999998,"ADDRESS":"仁和路２１８巷１２號","OBJECTID":310233},"geometry":{"x":171509.49000000115,"y":2540942.0699999984}},{"attributes":{"ID":310242,"DIS_CODE":0,"TOWNNAME":"東區","LI":"德高里","LIN":"7鄰","STREET":"仁和路","SECT":" ","MAREA":" ","LANE":"２１８巷","ALLEY":" ","HOUSE_NO":"２號","E_COORD97":171530.85000000001,"N_COORD97":2540964.8999999999,"ADDRESS":"仁和路２１８巷２號","OBJECTID":310234},"geometry":{"x":171530.84999999963,"y":2540964.9000000022}},{"attributes":{"ID":310243,"DIS_CODE":0,"TOWNNAME":"東區","LI":"德高里","LIN":"7鄰","STREET":"仁和路","SECT":" ","MAREA":" ","LANE":"２１８巷","ALLEY":" ","HOUSE_NO":"３號","E_COORD97":171539.29999999999,"N_COORD97":2540946.04,"ADDRESS":"仁和路２１８巷３號","OBJECTID":310235},"geometry":{"x":171539.30000000075,"y":2540946.040000001}},{"attributes":{"ID":310244,"DIS_CODE":0,"TOWNNAME":"東區","LI":"德高里","LIN":"7鄰","STREET":"仁和路","SECT":" ","MAREA":" ","LANE":"２１８巷","ALLEY":" ","HOUSE_NO":"２之１號","E_COORD97":171527.87,"N_COORD97":2540959.9300000002,"ADDRESS":"仁和路２１８巷２之１號","OBJECTID":310236},"geometry":{"x":171527.87000000011,"y":2540959.9300000016}},{"attributes":{"ID":310245,"DIS_CODE":0,"TOWNNAME":"東區","LI":"德高里","LIN":"7鄰","STREET":"仁和路","SECT":" ","MAREA":" ","LANE":"２１８巷","ALLEY":" ","HOUSE_NO":"５號","E_COORD97":171534.98999999999,"N_COORD97":2540941.73,"ADDRESS":"仁和路２１８巷５號","OBJECTID":310237},"geometry":{"x":171534.99000000115,"y":2540941.7300000023}},{"attributes":{"ID":310246,"DIS_CODE":0,"TOWNNAME":"東區","LI":"德高里","LIN":"7鄰","STREET":"仁和路","SECT":" ","MAREA":" ","LANE":"２１８巷","ALLEY":" ","HOUSE_NO":"６號","E_COORD97":171523.07000000001,"N_COORD97":2540955.96,"ADDRESS":"仁和路２１８巷６號","OBJECTID":310238},"geometry":{"x":171523.0700000003,"y":2540955.9600000009}},{"attributes":{"ID":310247,"DIS_CODE":0,"TOWNNAME":"東區","LI":"德高里","LIN":"7鄰","STREET":"仁和路","SECT":" ","MAREA":" ","LANE":"２１８巷","ALLEY":" ","HOUSE_NO":"７號","E_COORD97":171531.19,"N_COORD97":2540936.77,"ADDRESS":"仁和路２１８巷７號","OBJECTID":310239},"geometry":{"x":171531.19000000041,"y":2540936.7700000033}},{"attributes":{"ID":310248,"DIS_CODE":0,"TOWNNAME":"東區","LI":"德高里","LIN":"7鄰","STREET":"仁和路","SECT":" ","MAREA":" ","LANE":"２１８巷","ALLEY":" ","HOUSE_NO":"９號","E_COORD97":171526.88,"N_COORD97":2540933.1299999999,"ADDRESS":"仁和路２１８巷９號","OBJECTID":310240},"geometry":{"x":171526.88000000082,"y":2540933.129999999}},{"attributes":{"ID":310249,"DIS_CODE":0,"TOWNNAME":"東區","LI":"裕農里","LIN":"7鄰","STREET":"裕農路","SECT":" ","MAREA":" ","LANE":"３４５巷","ALLEY":" ","HOUSE_NO":"２５號","E_COORD97":170964.29999999999,"N_COORD97":2543154.9399999999,"ADDRESS":"裕農路３４５巷２５號","OBJECTID":310241},"geometry":{"x":170964.30000000075,"y":2543154.9399999995}},{"attributes":{"ID":310250,"DIS_CODE":0,"TOWNNAME":"東區","LI":"裕農里","LIN":"7鄰","STREET":"裕農路","SECT":" ","MAREA":" ","LANE":"３４５巷","ALLEY":" ","HOUSE_NO":"３１號","E_COORD97":170958.54000000001,"N_COORD97":2543173.2999999998,"ADDRESS":"裕農路３４５巷３１號","OBJECTID":310242},"geometry":{"x":170958.54000000004,"y":2543173.3000000026}},{"attributes":{"ID":310251,"DIS_CODE":0,"TOWNNAME":"東區","LI":"裕農里","LIN":"7鄰","STREET":"裕農路","SECT":" ","MAREA":" ","LANE":"３４５巷","ALLEY":" ","HOUSE_NO":"３３號","E_COORD97":170957.87,"N_COORD97":2543178.8300000001,"ADDRESS":"裕農路３４５巷３３號","OBJECTID":310243},"geometry":{"x":170957.87000000104,"y":2543178.8300000019}},{"attributes":{"ID":310252,"DIS_CODE":0,"TOWNNAME":"東區","LI":"裕農里","LIN":"7鄰","STREET":"裕農路","SECT":" ","MAREA":" ","LANE":"３４５巷","ALLEY":" ","HOUSE_NO":"３７號","E_COORD97":170947.89999999999,"N_COORD97":2543183.48,"ADDRESS":"裕農路３４５巷３７號","OBJECTID":310244},"geometry":{"x":170947.90000000037,"y":2543183.4800000004}},{"attributes":{"ID":310253,"DIS_CODE":0,"TOWNNAME":"東區","LI":"裕農里","LIN":"7鄰","STREET":"裕農路","SECT":" ","MAREA":" ","LANE":"３４５巷","ALLEY":" ","HOUSE_NO":"３９號","E_COORD97":170942.59,"N_COORD97":2543182.3700000001,"ADDRESS":"裕農路３４５巷３９號","OBJECTID":310245},"geometry":{"x":170942.59000000078,"y":2543182.3700000029}},{"attributes":{"ID":310254,"DIS_CODE":0,"TOWNNAME":"東區","LI":"裕農里","LIN":"7鄰","STREET":"裕農路","SECT":" ","MAREA":" ","LANE":"３４５巷","ALLEY":" ","HOUSE_NO":"２３號","E_COORD97":170956.54000000001,"N_COORD97":2543152.2799999998,"ADDRESS":"裕農路３４５巷２３號","OBJECTID":310246},"geometry":{"x":170956.54000000097,"y":2543152.2799999993}},{"attributes":{"ID":310255,"DIS_CODE":0,"TOWNNAME":"東區","LI":"裕農里","LIN":"7鄰","STREET":"裕農路","SECT":" ","MAREA":" ","LANE":"３４５巷","ALLEY":" ","HOUSE_NO":"３５號","E_COORD97":170955.20999999999,"N_COORD97":2543184.7999999998,"ADDRESS":"裕農路３４５巷３５號","OBJECTID":310247},"geometry":{"x":170955.21000000089,"y":2543184.8000000007}},{"attributes":{"ID":310256,"DIS_CODE":0,"TOWNNAME":"新營區","LI":"嘉芳里","LIN":"1鄰","STREET":" ","SECT":" ","MAREA":"茄苳腳","LANE":" ","ALLEY":" ","HOUSE_NO":"１３之７號四樓之１","E_COORD97":177099.72,"N_COORD97":2578304.3900000001,"ADDRESS":"茄苳腳１３之７號四樓之１","OBJECTID":310248},"geometry":{"x":177099.72000000067,"y":2578304.3900000006}},{"attributes":{"ID":310257,"DIS_CODE":0,"TOWNNAME":"東區","LI":"裕農里","LIN":"7鄰","STREET":"裕農路","SECT":" ","MAREA":" ","LANE":"３４５巷","ALLEY":" ","HOUSE_NO":"２７號","E_COORD97":170964.29999999999,"N_COORD97":2543161.1299999999,"ADDRESS":"裕農路３４５巷２７號","OBJECTID":310249},"geometry":{"x":170964.30000000075,"y":2543161.1300000027}},{"attributes":{"ID":310258,"DIS_CODE":0,"TOWNNAME":"東區","LI":"後甲里","LIN":"7鄰","STREET":"建東街","SECT":" ","MAREA":" ","LANE":"４３巷","ALLEY":" ","HOUSE_NO":"２２號","E_COORD97":171693.37,"N_COORD97":2543415.6699999999,"ADDRESS":"建東街４３巷２２號","OBJECTID":310250},"geometry":{"x":171693.37000000104,"y":2543415.6699999999}},{"attributes":{"ID":310259,"DIS_CODE":0,"TOWNNAME":"東區","LI":"後甲里","LIN":"7鄰","STREET":"裕農路","SECT":" ","MAREA":" ","LANE":"６２１巷","ALLEY":" ","HOUSE_NO":"６４號之１","E_COORD97":171628.75,"N_COORD97":2543422.25,"ADDRESS":"裕農路６２１巷６４號之１","OBJECTID":310251},"geometry":{"x":171628.75,"y":2543422.2499999981}},{"attributes":{"ID":310260,"DIS_CODE":0,"TOWNNAME":"東區","LI":"新東里","LIN":"7鄰","STREET":"裕農路","SECT":" ","MAREA":" ","LANE":"４３巷","ALLEY":" ","HOUSE_NO":"３７號","E_COORD97":170613.48999999999,"N_COORD97":2543037.3999999999,"ADDRESS":"裕農路４３巷３７號","OBJECTID":310252},"geometry":{"x":170613.49000000022,"y":2543037.4000000004}},{"attributes":{"ID":310261,"DIS_CODE":0,"TOWNNAME":"安南區","LI":"城東里","LIN":"7鄰","STREET":"城北路","SECT":" ","MAREA":" ","LANE":"９８巷","ALLEY":" ","HOUSE_NO":"１１９號之２","E_COORD97":161190.17000000001,"N_COORD97":2551614.4900000002,"ADDRESS":"城北路９８巷１１９號之２","OBJECTID":310253},"geometry":{"x":161190.16999999993,"y":2551614.4900000002}},{"attributes":{"ID":310262,"DIS_CODE":0,"TOWNNAME":"中西區","LI":"福安里","LIN":"7鄰","STREET":"府前路","SECT":"一段","MAREA":" ","LANE":"３４２巷","ALLEY":" ","HOUSE_NO":"３１號","E_COORD97":167830.76999999999,"N_COORD97":2543559.6699999999,"ADDRESS":"府前路一段３４２巷３１號","OBJECTID":310254},"geometry":{"x":167830.76999999955,"y":2543559.6700000018}},{"attributes":{"ID":310263,"DIS_CODE":0,"TOWNNAME":"中西區","LI":"福安里","LIN":"7鄰","STREET":"府前路","SECT":"一段","MAREA":" ","LANE":"３４２巷","ALLEY":" ","HOUSE_NO":"３３號","E_COORD97":167832.35999999999,"N_COORD97":2543565.25,"ADDRESS":"府前路一段３４２巷３３號","OBJECTID":310255},"geometry":{"x":167832.36000000034,"y":2543565.2500000019}},{"attributes":{"ID":310264,"DIS_CODE":0,"TOWNNAME":"中西區","LI":"福安里","LIN":"7鄰","STREET":"府前路","SECT":"一段","MAREA":" ","LANE":"３４２巷","ALLEY":" ","HOUSE_NO":"３５號","E_COORD97":167833.16,"N_COORD97":2543568.96,"ADDRESS":"府前路一段３４２巷３５號","OBJECTID":310256},"geometry":{"x":167833.16000000108,"y":2543568.9600000028}},{"attributes":{"ID":310265,"DIS_CODE":0,"TOWNNAME":"中西區","LI":"福安里","LIN":"7鄰","STREET":"府前路","SECT":"一段","MAREA":" ","LANE":"３４２巷","ALLEY":" ","HOUSE_NO":"３７號","E_COORD97":167833.69,"N_COORD97":2543572.2799999998,"ADDRESS":"府前路一段３４２巷３７號","OBJECTID":310257},"geometry":{"x":167833.69000000041,"y":2543572.2800000012}},{"attributes":{"ID":310266,"DIS_CODE":0,"TOWNNAME":"中西區","LI":"福安里","LIN":"7鄰","STREET":"府前路","SECT":"一段","MAREA":" ","LANE":"３４２巷","ALLEY":" ","HOUSE_NO":"１７號","E_COORD97":167819.73000000001,"N_COORD97":2543521.5,"ADDRESS":"府前路一段３４２巷１７號","OBJECTID":310258},"geometry":{"x":167819.73000000138,"y":2543521.5}},{"attributes":{"ID":310267,"DIS_CODE":0,"TOWNNAME":"新營區","LI":"嘉芳里","LIN":" ","STREET":" ","SECT":" ","MAREA":"茄苳腳","LANE":" ","ALLEY":" ","HOUSE_NO":"１３之６號二樓之２","E_COORD97":177094.81,"N_COORD97":2578319.9199999999,"ADDRESS":"茄苳腳１３之６號二樓之２","OBJECTID":310259},"geometry":{"x":177094.80999999959,"y":2578319.9200000018}},{"attributes":{"ID":310268,"DIS_CODE":0,"TOWNNAME":"新營區","LI":"新東里","LIN":"26鄰","STREET":"東興三街","SECT":" ","MAREA":" ","LANE":"２２巷","ALLEY":" ","HOUSE_NO":"４２號二樓之５","E_COORD97":180699.09,"N_COORD97":2579418.9100000001,"ADDRESS":"東興三街２２巷４２號二樓之５","OBJECTID":310260},"geometry":{"x":180699.08999999985,"y":2579418.9100000001}},{"attributes":{"ID":310269,"DIS_CODE":0,"TOWNNAME":"新營區","LI":"新東里","LIN":"25鄰","STREET":"東興三街","SECT":" ","MAREA":" ","LANE":"２２巷","ALLEY":" ","HOUSE_NO":"２３號十二樓","E_COORD97":180698.04000000001,"N_COORD97":2579418.8700000001,"ADDRESS":"東興三街２２巷２３號十二樓","OBJECTID":310261},"geometry":{"x":180698.03999999911,"y":2579418.8700000029}},{"attributes":{"ID":310270,"DIS_CODE":0,"TOWNNAME":"新營區","LI":"民權里","LIN":"24鄰","STREET":"民治路","SECT":" ","MAREA":" ","LANE":"５３巷","ALLEY":" ","HOUSE_NO":"９號二樓","E_COORD97":179669.26000000001,"N_COORD97":2578706.0800000001,"ADDRESS":"民治路５３巷９號二樓","OBJECTID":310262},"geometry":{"x":179669.26000000071,"y":2578706.0800000001}},{"attributes":{"ID":310271,"DIS_CODE":0,"TOWNNAME":"中西區","LI":"福安里","LIN":"7鄰","STREET":"府前路","SECT":"一段","MAREA":" ","LANE":"３４２巷","ALLEY":" ","HOUSE_NO":"１９號","E_COORD97":167821.98999999999,"N_COORD97":2543529.3900000001,"ADDRESS":"府前路一段３４２巷１９號","OBJECTID":310263},"geometry":{"x":167821.99000000209,"y":2543529.3900000006}},{"attributes":{"ID":310272,"DIS_CODE":0,"TOWNNAME":"中西區","LI":"福安里","LIN":"7鄰","STREET":"府前路","SECT":"一段","MAREA":" ","LANE":"３４２巷","ALLEY":" ","HOUSE_NO":"２１號","E_COORD97":167823.85999999999,"N_COORD97":2543535.8900000001,"ADDRESS":"府前路一段３４２巷２１號","OBJECTID":310264},"geometry":{"x":167823.86000000127,"y":2543535.8900000006}},{"attributes":{"ID":310273,"DIS_CODE":0,"TOWNNAME":"安南區","LI":"國安里","LIN":"7鄰","STREET":"國安街","SECT":" ","MAREA":" ","LANE":"２１０巷","ALLEY":" ","HOUSE_NO":"６６號","E_COORD97":166589.63,"N_COORD97":2547131.4100000001,"ADDRESS":"國安街２１０巷６６號","OBJECTID":310265},"geometry":{"x":166589.62999999989,"y":2547131.410000002}},{"attributes":{"ID":310274,"DIS_CODE":0,"TOWNNAME":"安南區","LI":"淵西里","LIN":"7鄰","STREET":"安中路","SECT":"四段","MAREA":" ","LANE":"２９０巷","ALLEY":" ","HOUSE_NO":"１２１號","E_COORD97":164769.39000000001,"N_COORD97":2550317.6800000002,"ADDRESS":"安中路四段２９０巷１２１號","OBJECTID":310266},"geometry":{"x":164769.3900000006,"y":2550317.6799999997}},{"attributes":{"ID":310275,"DIS_CODE":0,"TOWNNAME":"安南區","LI":"新順里","LIN":"7鄰","STREET":"北安路","SECT":"三段","MAREA":" ","LANE":"７４５巷","ALLEY":" ","HOUSE_NO":"２２號","E_COORD97":169082.25,"N_COORD97":2549933.98,"ADDRESS":"北安路三段７４５巷２２號","OBJECTID":310267},"geometry":{"x":169082.25,"y":2549933.9800000004}},{"attributes":{"ID":310276,"DIS_CODE":0,"TOWNNAME":"安南區","LI":"新順里","LIN":"7鄰","STREET":"北安路","SECT":"三段","MAREA":" ","LANE":"７４５巷","ALLEY":" ","HOUSE_NO":"２４號","E_COORD97":169079.73000000001,"N_COORD97":2549937.2200000002,"ADDRESS":"北安路三段７４５巷２４號","OBJECTID":310268},"geometry":{"x":169079.73000000045,"y":2549937.2200000025}},{"attributes":{"ID":310277,"DIS_CODE":0,"TOWNNAME":"安南區","LI":"溪心里","LIN":"7鄰","STREET":"本原街","SECT":"二段","MAREA":" ","LANE":"１０６巷","ALLEY":" ","HOUSE_NO":"１７號","E_COORD97":166802.97,"N_COORD97":2550827.6099999999,"ADDRESS":"本原街二段１０６巷１７號","OBJECTID":310269},"geometry":{"x":166802.97000000067,"y":2550827.6100000031}},{"attributes":{"ID":310278,"DIS_CODE":0,"TOWNNAME":"安南區","LI":"溪東里","LIN":"7鄰","STREET":"府安路","SECT":"五段","MAREA":" ","LANE":"４４巷","ALLEY":" ","HOUSE_NO":"２２號","E_COORD97":168326.12,"N_COORD97":2547271.2599999998,"ADDRESS":"府安路五段４４巷２２號","OBJECTID":310270},"geometry":{"x":168326.12000000197,"y":2547271.2600000016}},{"attributes":{"ID":310279,"DIS_CODE":0,"TOWNNAME":"安南區","LI":"總頭里","LIN":"7鄰","STREET":"長溪路","SECT":"二段","MAREA":" ","LANE":"５９８巷","ALLEY":" ","HOUSE_NO":"１６號","E_COORD97":168304.60000000001,"N_COORD97":2550715.8599999999,"ADDRESS":"長溪路二段５９８巷１６號","OBJECTID":310271},"geometry":{"x":168304.60000000056,"y":2550715.8599999994}},{"attributes":{"ID":310280,"DIS_CODE":0,"TOWNNAME":"安南區","LI":"總頭里","LIN":"7鄰","STREET":"長溪路","SECT":"二段","MAREA":" ","LANE":"５９８巷","ALLEY":" ","HOUSE_NO":"９０號","E_COORD97":168472.51999999999,"N_COORD97":2550829.25,"ADDRESS":"長溪路二段５９８巷９０號","OBJECTID":310272},"geometry":{"x":168472.52000000048,"y":2550829.25}},{"attributes":{"ID":310281,"DIS_CODE":0,"TOWNNAME":"學甲區","LI":"仁得里","LIN":"17鄰","STREET":"八德街","SECT":" ","MAREA":" ","LANE":" ","ALLEY":" ","HOUSE_NO":"２３８號六樓之４","E_COORD97":165719.44,"N_COORD97":2569821.8399999999,"ADDRESS":"八德街２３８號六樓之４","OBJECTID":310273},"geometry":{"x":165719.44000000134,"y":2569821.8399999999}},{"attributes":{"ID":310282,"DIS_CODE":0,"TOWNNAME":"學甲區","LI":"仁得里","LIN":"17鄰","STREET":"八德街","SECT":" ","MAREA":" ","LANE":" ","ALLEY":" ","HOUSE_NO":"２３８號六樓之５","E_COORD97":165719.44,"N_COORD97":2569821.8399999999,"ADDRESS":"八德街２３８號六樓之５","OBJECTID":310274},"geometry":{"x":165719.44000000134,"y":2569821.8399999999}},{"attributes":{"ID":310283,"DIS_CODE":0,"TOWNNAME":"學甲區","LI":"仁得里","LIN":"17鄰","STREET":"八德街","SECT":" ","MAREA":" ","LANE":" ","ALLEY":" ","HOUSE_NO":"２３８號六樓之６","E_COORD97":165719.44,"N_COORD97":2569821.8399999999,"ADDRESS":"八德街２３８號六樓之６","OBJECTID":310275},"geometry":{"x":165719.44000000134,"y":2569821.8399999999}},{"attributes":{"ID":310284,"DIS_CODE":0,"TOWNNAME":"安南區","LI":"總頭里","LIN":"7鄰","STREET":"長溪路","SECT":"二段","MAREA":" ","LANE":"５９８巷","ALLEY":" ","HOUSE_NO":"９３號","E_COORD97":168431.97,"N_COORD97":2550891.6200000001,"ADDRESS":"長溪路二段５９８巷９３號","OBJECTID":310276},"geometry":{"x":168431.9700000016,"y":2550891.6200000029}},{"attributes":{"ID":310285,"DIS_CODE":0,"TOWNNAME":"永康區","LI":"崑山里","LIN":"7鄰","STREET":"大灣路","SECT":" ","MAREA":" ","LANE":"８９１巷","ALLEY":" ","HOUSE_NO":"１６號","E_COORD97":173602.82999999999,"N_COORD97":2544344.5,"ADDRESS":"大灣路８９１巷１６號","OBJECTID":310277},"geometry":{"x":173602.83000000007,"y":2544344.5000000019}},{"attributes":{"ID":310286,"DIS_CODE":0,"TOWNNAME":"永康區","LI":"崑山里","LIN":"7鄰","STREET":"大灣路","SECT":" ","MAREA":" ","LANE":"８９１巷","ALLEY":" ","HOUSE_NO":"２８號","E_COORD97":173596.89000000001,"N_COORD97":2544323.4900000002,"ADDRESS":"大灣路８９１巷２８號","OBJECTID":310278},"geometry":{"x":173596.88999999966,"y":2544323.4900000021}},{"attributes":{"ID":310287,"DIS_CODE":0,"TOWNNAME":"永康區","LI":"崑山里","LIN":"7鄰","STREET":"崑大路","SECT":" ","MAREA":" ","LANE":" ","ALLEY":" ","HOUSE_NO":"１５７號","E_COORD97":173597.79000000001,"N_COORD97":2544272.25,"ADDRESS":"崑大路１５７號","OBJECTID":310279},"geometry":{"x":173597.79000000097,"y":2544272.25}},{"attributes":{"ID":310288,"DIS_CODE":0,"TOWNNAME":"永康區","LI":"烏竹里","LIN":"7鄰","STREET":"龍橋街","SECT":" ","MAREA":" ","LANE":"４５９巷","ALLEY":" ","HOUSE_NO":"３號","E_COORD97":174371.98000000001,"N_COORD97":2549326.7599999998,"ADDRESS":"龍橋街４５９巷３號","OBJECTID":310280},"geometry":{"x":174371.98000000045,"y":2549326.7599999998}},{"attributes":{"ID":310289,"DIS_CODE":0,"TOWNNAME":"永康區","LI":"崑山里","LIN":"7鄰","STREET":"大灣路","SECT":" ","MAREA":" ","LANE":"８９１巷","ALLEY":" ","HOUSE_NO":"２號","E_COORD97":173607.63,"N_COORD97":2544378.1099999999,"ADDRESS":"大灣路８９１巷２號","OBJECTID":310281},"geometry":{"x":173607.62999999989,"y":2544378.1099999994}},{"attributes":{"ID":310290,"DIS_CODE":0,"TOWNNAME":"永康區","LI":"烏竹里","LIN":"7鄰","STREET":"龍橋街","SECT":" ","MAREA":" ","LANE":"４５９巷","ALLEY":" ","HOUSE_NO":"６號","E_COORD97":174371.14999999999,"N_COORD97":2549339.0899999999,"ADDRESS":"龍橋街４５９巷６號","OBJECTID":310282},"geometry":{"x":174371.15000000037,"y":2549339.0899999999}},{"attributes":{"ID":310291,"DIS_CODE":0,"TOWNNAME":"安南區","LI":"東和里","LIN":"7鄰","STREET":"長和路","SECT":"一段","MAREA":" ","LANE":"２１７巷","ALLEY":" ","HOUSE_NO":"９５號","E_COORD97":171353.95000000001,"N_COORD97":2550295.7999999998,"ADDRESS":"長和路一段２１７巷９５號","OBJECTID":310283},"geometry":{"x":171353.95000000112,"y":2550295.8000000026}},{"attributes":{"ID":310292,"DIS_CODE":0,"TOWNNAME":"安南區","LI":"東和里","LIN":"7鄰","STREET":"長和路","SECT":"一段","MAREA":" ","LANE":"１巷","ALLEY":" ","HOUSE_NO":"３００號","E_COORD97":171233.35000000001,"N_COORD97":2549868.9199999999,"ADDRESS":"長和路一段１巷３００號","OBJECTID":310284},"geometry":{"x":171233.35000000056,"y":2549868.9199999999}},{"attributes":{"ID":310293,"DIS_CODE":0,"TOWNNAME":"安南區","LI":"東和里","LIN":"7鄰","STREET":"長和路","SECT":"一段","MAREA":" ","LANE":"１巷","ALLEY":" ","HOUSE_NO":"２００號","E_COORD97":171391.99139099999,"N_COORD97":2549955.7206999999,"ADDRESS":"長和路一段１巷２００號","OBJECTID":310285},"geometry":{"x":171391.99139100034,"y":2549955.720695002}},{"attributes":{"ID":310294,"DIS_CODE":0,"TOWNNAME":"安南區","LI":"東和里","LIN":"7鄰","STREET":"長和路","SECT":"一段","MAREA":" ","LANE":"２２２巷","ALLEY":" ","HOUSE_NO":"４０之１０號","E_COORD97":171781.37,"N_COORD97":2550716.5,"ADDRESS":"長和路一段２２２巷４０之１０號","OBJECTID":310286},"geometry":{"x":171781.37000000104,"y":2550716.5}},{"attributes":{"ID":310295,"DIS_CODE":0,"TOWNNAME":"安南區","LI":"布袋里","LIN":"7鄰","STREET":"長和路","SECT":"四段","MAREA":" ","LANE":"２００巷","ALLEY":" ","HOUSE_NO":"１２號","E_COORD97":168804.70000000001,"N_COORD97":2551743.54,"ADDRESS":"長和路四段２００巷１２號","OBJECTID":310287},"geometry":{"x":168804.70000000019,"y":2551743.540000001}},{"attributes":{"ID":310296,"DIS_CODE":0,"TOWNNAME":"安南區","LI":"鹿耳里","LIN":"7鄰","STREET":"媽祖宮一街","SECT":" ","MAREA":" ","LANE":"３４５巷","ALLEY":" ","HOUSE_NO":"４０１號","E_COORD97":158802.76000000001,"N_COORD97":2546891.6699999999,"ADDRESS":"媽祖宮一街３４５巷４０１號","OBJECTID":310288},"geometry":{"x":158802.75999999978,"y":2546891.6700000018}},{"attributes":{"ID":310297,"DIS_CODE":0,"TOWNNAME":"安南區","LI":"新順里","LIN":"7鄰","STREET":"北安路","SECT":"三段","MAREA":" ","LANE":"７４５巷","ALLEY":" ","HOUSE_NO":"７０號","E_COORD97":169170.66,"N_COORD97":2550126.1899999999,"ADDRESS":"北安路三段７４５巷７０號","OBJECTID":310289},"geometry":{"x":169170.66000000108,"y":2550126.1900000013}},{"attributes":{"ID":310298,"DIS_CODE":0,"TOWNNAME":"東區","LI":"仁和里","LIN":"7鄰","STREET":"仁和路","SECT":" ","MAREA":" ","LANE":"１１３巷","ALLEY":" ","HOUSE_NO":"４２之１號","E_COORD97":171461.37,"N_COORD97":2541238.27,"ADDRESS":"仁和路１１３巷４２之１號","OBJECTID":310290},"geometry":{"x":171461.37000000104,"y":2541238.2699999977}},{"attributes":{"ID":310299,"DIS_CODE":0,"TOWNNAME":"仁德區","LI":"後壁里","LIN":"7鄰","STREET":"德善二街","SECT":" ","MAREA":" ","LANE":"５１巷","ALLEY":" ","HOUSE_NO":"２５號","E_COORD97":173594.98000000001,"N_COORD97":2539035.5099999998,"ADDRESS":"德善二街５１巷２５號","OBJECTID":310291},"geometry":{"x":173594.98000000138,"y":2539035.5099999998}},{"attributes":{"ID":310300,"DIS_CODE":0,"TOWNNAME":"北區","LI":"勝安里","LIN":"6鄰","STREET":"開元路","SECT":" ","MAREA":" ","LANE":"７３巷","ALLEY":" ","HOUSE_NO":"６６號一樓","E_COORD97":169874.62,"N_COORD97":2545364.1699999999,"ADDRESS":"開元路７３巷６６號一樓","OBJECTID":310292},"geometry":{"x":169874.62000000104,"y":2545364.1699999999}},{"attributes":{"ID":310301,"DIS_CODE":0,"TOWNNAME":"仁德區","LI":"後壁里","LIN":"7鄰","STREET":"德善二街","SECT":" ","MAREA":" ","LANE":"５１巷","ALLEY":" ","HOUSE_NO":"９號","E_COORD97":173619.92999999999,"N_COORD97":2539001.2599999998,"ADDRESS":"德善二街５１巷９號","OBJECTID":310293},"geometry":{"x":173619.93000000063,"y":2539001.2600000035}},{"attributes":{"ID":310302,"DIS_CODE":0,"TOWNNAME":"仁德區","LI":"成功里","LIN":"7鄰","STREET":"保華路","SECT":" ","MAREA":" ","LANE":"１２９巷","ALLEY":" ","HOUSE_NO":"２５號","E_COORD97":171111.12,"N_COORD97":2539968.7400000002,"ADDRESS":"保華路１２９巷２５號","OBJECTID":310294},"geometry":{"x":171111.12000000011,"y":2539968.7400000021}},{"attributes":{"ID":310303,"DIS_CODE":0,"TOWNNAME":"仁德區","LI":"保安里","LIN":"7鄰","STREET":"文賢二街","SECT":" ","MAREA":" ","LANE":"２３巷","ALLEY":" ","HOUSE_NO":"１０號","E_COORD97":171658.66,"N_COORD97":2536172.0800000001,"ADDRESS":"文賢二街２３巷１０號","OBJECTID":310295},"geometry":{"x":171658.66000000201,"y":2536172.0800000019}},{"attributes":{"ID":310304,"DIS_CODE":0,"TOWNNAME":"仁德區","LI":"成功里","LIN":"7鄰","STREET":"保華路","SECT":" ","MAREA":" ","LANE":"１２９巷","ALLEY":" ","HOUSE_NO":"７７號","E_COORD97":171136.14999999999,"N_COORD97":2539823,"ADDRESS":"保華路１２９巷７７號","OBJECTID":310296},"geometry":{"x":171136.15000000037,"y":2539823}},{"attributes":{"ID":310305,"DIS_CODE":0,"TOWNNAME":"仁德區","LI":"成功里","LIN":"7鄰","STREET":"保華路","SECT":" ","MAREA":" ","LANE":"１１７巷","ALLEY":" ","HOUSE_NO":"１９號","E_COORD97":171152.41,"N_COORD97":2539975.4900000002,"ADDRESS":"保華路１１７巷１９號","OBJECTID":310297},"geometry":{"x":171152.41000000108,"y":2539975.4900000002}},{"attributes":{"ID":310306,"DIS_CODE":0,"TOWNNAME":"仁德區","LI":"成功里","LIN":"7鄰","STREET":"保華路","SECT":" ","MAREA":" ","LANE":"１２９巷","ALLEY":" ","HOUSE_NO":"９１號","E_COORD97":171141.29000000001,"N_COORD97":2539799,"ADDRESS":"保華路１２９巷９１號","OBJECTID":310298},"geometry":{"x":171141.29000000097,"y":2539799}},{"attributes":{"ID":310307,"DIS_CODE":0,"TOWNNAME":"仁德區","LI":"成功里","LIN":"7鄰","STREET":"保華路","SECT":" ","MAREA":" ","LANE":"１１７巷","ALLEY":" ","HOUSE_NO":"４６號","E_COORD97":171141.5,"N_COORD97":2539927,"ADDRESS":"保華路１１７巷４６號","OBJECTID":310299},"geometry":{"x":171141.50000000093,"y":2539927}},{"attributes":{"ID":310308,"DIS_CODE":0,"TOWNNAME":"仁德區","LI":"成功里","LIN":"7鄰","STREET":"保華路","SECT":" ","MAREA":" ","LANE":"１１７巷","ALLEY":" ","HOUSE_NO":"２３號","E_COORD97":171152.39999999999,"N_COORD97":2539958.2400000002,"ADDRESS":"保華路１１７巷２３號","OBJECTID":310300},"geometry":{"x":171152.4000000013,"y":2539958.2400000021}},{"attributes":{"ID":310309,"DIS_CODE":0,"TOWNNAME":"仁德區","LI":"成功里","LIN":"7鄰","STREET":"保華路","SECT":" ","MAREA":" ","LANE":"１２９巷","ALLEY":" ","HOUSE_NO":"８３號","E_COORD97":171122.98999999999,"N_COORD97":2539808.25,"ADDRESS":"保華路１２９巷８３號","OBJECTID":310301},"geometry":{"x":171122.99000000115,"y":2539808.2500000037}},{"attributes":{"ID":310310,"DIS_CODE":0,"TOWNNAME":"仁德區","LI":"成功里","LIN":"7鄰","STREET":"保華路","SECT":" ","MAREA":" ","LANE":"１２９巷","ALLEY":" ","HOUSE_NO":"２１號","E_COORD97":171113.26000000001,"N_COORD97":2539984.7400000002,"ADDRESS":"保華路１２９巷２１號","OBJECTID":310302},"geometry":{"x":171113.25999999978,"y":2539984.7399999984}},{"attributes":{"ID":310311,"DIS_CODE":0,"TOWNNAME":"學甲區","LI":"仁得里","LIN":"17鄰","STREET":"八德街","SECT":" ","MAREA":" ","LANE":" ","ALLEY":" ","HOUSE_NO":"２３８號六樓之７","E_COORD97":165719.44,"N_COORD97":2569821.8399999999,"ADDRESS":"八德街２３８號六樓之７","OBJECTID":310303},"geometry":{"x":165719.44000000134,"y":2569821.8399999999}},{"attributes":{"ID":310312,"DIS_CODE":0,"TOWNNAME":"佳里區","LI":"東寧里","LIN":"1鄰","STREET":"中山路","SECT":" ","MAREA":" ","LANE":" ","ALLEY":" ","HOUSE_NO":"２８４號","E_COORD97":165724.01000000001,"N_COORD97":2562325.52,"ADDRESS":"中山路２８４號","OBJECTID":310304},"geometry":{"x":165724.00999999978,"y":2562325.5200000014}},{"attributes":{"ID":310313,"DIS_CODE":0,"TOWNNAME":"佳里區","LI":"東寧里","LIN":"1鄰","STREET":"中山路","SECT":" ","MAREA":" ","LANE":" ","ALLEY":" ","HOUSE_NO":"２８６號","E_COORD97":165723.63,"N_COORD97":2562330.1600000001,"ADDRESS":"中山路２８６號","OBJECTID":310305},"geometry":{"x":165723.62999999896,"y":2562330.1600000001}},{"attributes":{"ID":310314,"DIS_CODE":0,"TOWNNAME":"仁德區","LI":"成功里","LIN":"7鄰","STREET":"保華路","SECT":" ","MAREA":" ","LANE":"１２９巷","ALLEY":" ","HOUSE_NO":"６９號","E_COORD97":171130.29000000001,"N_COORD97":2539832.2400000002,"ADDRESS":"保華路１２９巷６９號","OBJECTID":310306},"geometry":{"x":171130.29000000004,"y":2539832.2400000039}},{"attributes":{"ID":310315,"DIS_CODE":0,"TOWNNAME":"仁德區","LI":"保安里","LIN":"7鄰","STREET":"文賢二街","SECT":" ","MAREA":" ","LANE":"１３巷","ALLEY":" ","HOUSE_NO":"２號","E_COORD97":171623.70999999999,"N_COORD97":2536134.3199999998,"ADDRESS":"文賢二街１３巷２號","OBJECTID":310307},"geometry":{"x":171623.70999999996,"y":2536134.3200000022}},{"attributes":{"ID":310316,"DIS_CODE":0,"TOWNNAME":"仁德區","LI":"成功里","LIN":"7鄰","STREET":"保華路","SECT":" ","MAREA":" ","LANE":"１２９巷","ALLEY":" ","HOUSE_NO":"９７號","E_COORD97":171123.67999999999,"N_COORD97":2539799,"ADDRESS":"保華路１２９巷９７號","OBJECTID":310308},"geometry":{"x":171123.6799999997,"y":2539799}},{"attributes":{"ID":310317,"DIS_CODE":0,"TOWNNAME":"仁德區","LI":"成功里","LIN":"7鄰","STREET":"保華路","SECT":" ","MAREA":" ","LANE":"１２９巷","ALLEY":" ","HOUSE_NO":"２７號","E_COORD97":171111.42000000001,"N_COORD97":2539960.9900000002,"ADDRESS":"保華路１２９巷２７號","OBJECTID":310309},"geometry":{"x":171111.42000000086,"y":2539960.9900000021}},{"attributes":{"ID":310318,"DIS_CODE":0,"TOWNNAME":"仁德區","LI":"成功里","LIN":"7鄰","STREET":"保華路","SECT":" ","MAREA":" ","LANE":"１２９巷","ALLEY":" ","HOUSE_NO":"５３號","E_COORD97":171121.39999999999,"N_COORD97":2539873.9900000002,"ADDRESS":"保華路１２９巷５３號","OBJECTID":310310},"geometry":{"x":171121.40000000037,"y":2539873.9900000002}},{"attributes":{"ID":310319,"DIS_CODE":0,"TOWNNAME":"仁德區","LI":"成功里","LIN":"7鄰","STREET":"保華路","SECT":" ","MAREA":" ","LANE":"１１７巷","ALLEY":" ","HOUSE_NO":"４２號","E_COORD97":171140.85000000001,"N_COORD97":2539933.9900000002,"ADDRESS":"保華路１１７巷４２號","OBJECTID":310311},"geometry":{"x":171140.84999999963,"y":2539933.9900000021}},{"attributes":{"ID":310320,"DIS_CODE":0,"TOWNNAME":"永康區","LI":"六合里","LIN":"7鄰","STREET":"六合路","SECT":" ","MAREA":" ","LANE":"５７巷","ALLEY":" ","HOUSE_NO":"１３號","E_COORD97":171127.89999999999,"N_COORD97":2545622,"ADDRESS":"六合路５７巷１３號","OBJECTID":310312},"geometry":{"x":171127.90000000037,"y":2545622.0000000019}},{"attributes":{"ID":310321,"DIS_CODE":0,"TOWNNAME":"永康區","LI":"六合里","LIN":"7鄰","STREET":"六合路","SECT":" ","MAREA":" ","LANE":"５７巷","ALLEY":" ","HOUSE_NO":"１４號","E_COORD97":171127.12,"N_COORD97":2545632.2400000002,"ADDRESS":"六合路５７巷１４號","OBJECTID":310313},"geometry":{"x":171127.12000000104,"y":2545632.2400000002}},{"attributes":{"ID":310322,"DIS_CODE":0,"TOWNNAME":"永康區","LI":"六合里","LIN":"7鄰","STREET":"六合路","SECT":" ","MAREA":" ","LANE":"５７巷","ALLEY":" ","HOUSE_NO":"１５號","E_COORD97":171123.73999999999,"N_COORD97":2545621.25,"ADDRESS":"六合路５７巷１５號","OBJECTID":310314},"geometry":{"x":171123.74000000022,"y":2545621.25}},{"attributes":{"ID":310323,"DIS_CODE":0,"TOWNNAME":"永康區","LI":"六合里","LIN":"7鄰","STREET":"六合路","SECT":" ","MAREA":" ","LANE":"５７巷","ALLEY":" ","HOUSE_NO":"１６號","E_COORD97":171123.09,"N_COORD97":2545631.4900000002,"ADDRESS":"六合路５７巷１６號","OBJECTID":310315},"geometry":{"x":171123.08999999892,"y":2545631.4900000039}},{"attributes":{"ID":310324,"DIS_CODE":0,"TOWNNAME":"永康區","LI":"六合里","LIN":"7鄰","STREET":"六合路","SECT":" ","MAREA":" ","LANE":"５７巷","ALLEY":" ","HOUSE_NO":"１７號","E_COORD97":171119,"N_COORD97":2545620,"ADDRESS":"六合路５７巷１７號","OBJECTID":310316},"geometry":{"x":171119.00000000093,"y":2545620}},{"attributes":{"ID":310325,"DIS_CODE":0,"TOWNNAME":"永康區","LI":"六合里","LIN":"7鄰","STREET":"六合路","SECT":" ","MAREA":" ","LANE":"５７巷","ALLEY":" ","HOUSE_NO":"１８號","E_COORD97":171118.82000000001,"N_COORD97":2545630.7400000002,"ADDRESS":"六合路５７巷１８號","OBJECTID":310317},"geometry":{"x":171118.82000000216,"y":2545630.7400000021}},{"attributes":{"ID":310326,"DIS_CODE":0,"TOWNNAME":"永康區","LI":"六合里","LIN":"7鄰","STREET":"六合路","SECT":" ","MAREA":" ","LANE":"５７巷","ALLEY":" ","HOUSE_NO":"１９號","E_COORD97":171114.89999999999,"N_COORD97":2545619,"ADDRESS":"六合路５７巷１９號","OBJECTID":310318},"geometry":{"x":171114.90000000224,"y":2545619.0000000019}},{"attributes":{"ID":310327,"DIS_CODE":0,"TOWNNAME":"永康區","LI":"六合里","LIN":"7鄰","STREET":"六合路","SECT":" ","MAREA":" ","LANE":"５７巷","ALLEY":" ","HOUSE_NO":"２０號","E_COORD97":171111.51000000001,"N_COORD97":2545634.4900000002,"ADDRESS":"六合路５７巷２０號","OBJECTID":310319},"geometry":{"x":171111.50999999978,"y":2545634.4900000002}},{"attributes":{"ID":310328,"DIS_CODE":0,"TOWNNAME":"永康區","LI":"六合里","LIN":"7鄰","STREET":"六合路","SECT":" ","MAREA":" ","LANE":"５７巷","ALLEY":" ","HOUSE_NO":"２１號","E_COORD97":171110.29000000001,"N_COORD97":2545618.25,"ADDRESS":"六合路５７巷２１號","OBJECTID":310320},"geometry":{"x":171110.29000000097,"y":2545618.25}},{"attributes":{"ID":310329,"DIS_CODE":0,"TOWNNAME":"永康區","LI":"六合里","LIN":"7鄰","STREET":"六合路","SECT":" ","MAREA":" ","LANE":"５７巷","ALLEY":" ","HOUSE_NO":"２３號","E_COORD97":171105.72,"N_COORD97":2545616.3799999999,"ADDRESS":"六合路５７巷２３號","OBJECTID":310321},"geometry":{"x":171105.72000000067,"y":2545616.379999999}},{"attributes":{"ID":310330,"DIS_CODE":0,"TOWNNAME":"永康區","LI":"六合里","LIN":"7鄰","STREET":"六合路","SECT":" ","MAREA":" ","LANE":"５７巷","ALLEY":" ","HOUSE_NO":"２７號","E_COORD97":171101.48999999999,"N_COORD97":2545616.25,"ADDRESS":"六合路５７巷２７號","OBJECTID":310322},"geometry":{"x":171101.49000000022,"y":2545616.2500000037}},{"attributes":{"ID":310331,"DIS_CODE":0,"TOWNNAME":"永康區","LI":"六合里","LIN":"7鄰","STREET":"六合路","SECT":" ","MAREA":" ","LANE":"５７巷","ALLEY":" ","HOUSE_NO":"２８號","E_COORD97":171098.62,"N_COORD97":2545626.5,"ADDRESS":"六合路５７巷２８號","OBJECTID":310323},"geometry":{"x":171098.62000000104,"y":2545626.5}},{"attributes":{"ID":310332,"DIS_CODE":0,"TOWNNAME":"永康區","LI":"六合里","LIN":"7鄰","STREET":"六合路","SECT":" ","MAREA":" ","LANE":"５７巷","ALLEY":" ","HOUSE_NO":"２９號","E_COORD97":171092.54000000001,"N_COORD97":2545614.25,"ADDRESS":"六合路５７巷２９號","OBJECTID":310324},"geometry":{"x":171092.54000000004,"y":2545614.2500000019}},{"attributes":{"ID":310333,"DIS_CODE":0,"TOWNNAME":"永康區","LI":"六合里","LIN":"7鄰","STREET":"六合路","SECT":" ","MAREA":" ","LANE":"５７巷","ALLEY":" ","HOUSE_NO":"２號","E_COORD97":171150.67000000001,"N_COORD97":2545637.7400000002,"ADDRESS":"六合路５７巷２號","OBJECTID":310325},"geometry":{"x":171150.67000000086,"y":2545637.7400000021}},{"attributes":{"ID":310334,"DIS_CODE":0,"TOWNNAME":"永康區","LI":"六合里","LIN":"7鄰","STREET":"六合路","SECT":" ","MAREA":" ","LANE":"５７巷","ALLEY":" ","HOUSE_NO":"３０號","E_COORD97":171094.51000000001,"N_COORD97":2545625.5,"ADDRESS":"六合路５７巷３０號","OBJECTID":310326},"geometry":{"x":171094.50999999978,"y":2545625.5000000019}},{"attributes":{"ID":310335,"DIS_CODE":0,"TOWNNAME":"永康區","LI":"六合里","LIN":"7鄰","STREET":"六合路","SECT":" ","MAREA":" ","LANE":"５７巷","ALLEY":" ","HOUSE_NO":"３２號","E_COORD97":171090.26000000001,"N_COORD97":2545624.5,"ADDRESS":"六合路５７巷３２號","OBJECTID":310327},"geometry":{"x":171090.26000000071,"y":2545624.5000000037}},{"attributes":{"ID":310336,"DIS_CODE":0,"TOWNNAME":"永康區","LI":"六合里","LIN":"7鄰","STREET":"六合路","SECT":" ","MAREA":" ","LANE":"５７巷","ALLEY":" ","HOUSE_NO":"３３號","E_COORD97":171084.39999999999,"N_COORD97":2545608.25,"ADDRESS":"六合路５７巷３３號","OBJECTID":310328},"geometry":{"x":171084.40000000224,"y":2545608.25}},{"attributes":{"ID":310337,"DIS_CODE":0,"TOWNNAME":"永康區","LI":"六合里","LIN":"7鄰","STREET":"六合路","SECT":" ","MAREA":" ","LANE":"５７巷","ALLEY":" ","HOUSE_NO":"３４號","E_COORD97":171086.32999999999,"N_COORD97":2545623.25,"ADDRESS":"六合路５７巷３４號","OBJECTID":310329},"geometry":{"x":171086.33000000101,"y":2545623.2500000019}},{"attributes":{"ID":310338,"DIS_CODE":0,"TOWNNAME":"永康區","LI":"六合里","LIN":"7鄰","STREET":"六合路","SECT":" ","MAREA":" ","LANE":"５７巷","ALLEY":" ","HOUSE_NO":"３５號","E_COORD97":171079.29000000001,"N_COORD97":2545611.25,"ADDRESS":"六合路５７巷３５號","OBJECTID":310330},"geometry":{"x":171079.29000000004,"y":2545611.25}},{"attributes":{"ID":310339,"DIS_CODE":0,"TOWNNAME":"永康區","LI":"六合里","LIN":"7鄰","STREET":"六合路","SECT":" ","MAREA":" ","LANE":"５７巷","ALLEY":" ","HOUSE_NO":"３６號","E_COORD97":171082.28,"N_COORD97":2545623,"ADDRESS":"六合路５７巷３６號","OBJECTID":310331},"geometry":{"x":171082.28000000119,"y":2545623}},{"attributes":{"ID":310340,"DIS_CODE":0,"TOWNNAME":"永康區","LI":"六合里","LIN":"7鄰","STREET":"六合路","SECT":" ","MAREA":" ","LANE":"５７巷","ALLEY":" ","HOUSE_NO":"３７號","E_COORD97":171074.64999999999,"N_COORD97":2545610.25,"ADDRESS":"六合路５７巷３７號","OBJECTID":310332},"geometry":{"x":171074.6500000013,"y":2545610.2500000019}},{"attributes":{"ID":310341,"DIS_CODE":0,"TOWNNAME":"永康區","LI":"六合里","LIN":"7鄰","STREET":"六合路","SECT":" ","MAREA":" ","LANE":"５７巷","ALLEY":" ","HOUSE_NO":"３９號","E_COORD97":171070.29000000001,"N_COORD97":2545609.5,"ADDRESS":"六合路５７巷３９號","OBJECTID":310333},"geometry":{"x":171070.29000000097,"y":2545609.5}},{"attributes":{"ID":310342,"DIS_CODE":0,"TOWNNAME":"永康區","LI":"六合里","LIN":"7鄰","STREET":"六合路","SECT":" ","MAREA":" ","LANE":"５７巷","ALLEY":" ","HOUSE_NO":"４０號","E_COORD97":171073.70999999999,"N_COORD97":2545621,"ADDRESS":"六合路５７巷４０號","OBJECTID":310334},"geometry":{"x":171073.71000000089,"y":2545621.0000000037}},{"attributes":{"ID":310343,"DIS_CODE":0,"TOWNNAME":"永康區","LI":"六合里","LIN":"7鄰","STREET":"六合路","SECT":" ","MAREA":" ","LANE":"５７巷","ALLEY":" ","HOUSE_NO":"４２號","E_COORD97":171069.60999999999,"N_COORD97":2545620,"ADDRESS":"六合路５７巷４２號","OBJECTID":310335},"geometry":{"x":171069.61000000127,"y":2545620}},{"attributes":{"ID":310344,"DIS_CODE":0,"TOWNNAME":"永康區","LI":"六合里","LIN":"7鄰","STREET":"六合路","SECT":" ","MAREA":" ","LANE":"５７巷","ALLEY":" ","HOUSE_NO":"４２之１號","E_COORD97":171066.12,"N_COORD97":2545619.25,"ADDRESS":"六合路５７巷４２之１號","OBJECTID":310336},"geometry":{"x":171066.12000000104,"y":2545619.2499999981}},{"attributes":{"ID":310345,"DIS_CODE":0,"TOWNNAME":"永康區","LI":"六合里","LIN":"7鄰","STREET":"六合路","SECT":" ","MAREA":" ","LANE":"５７巷","ALLEY":" ","HOUSE_NO":"４６號","E_COORD97":171062.57000000001,"N_COORD97":2545618.75,"ADDRESS":"六合路５７巷４６號","OBJECTID":310337},"geometry":{"x":171062.5700000003,"y":2545618.75}},{"attributes":{"ID":310346,"DIS_CODE":0,"TOWNNAME":"永康區","LI":"六合里","LIN":"7鄰","STREET":"六合路","SECT":" ","MAREA":" ","LANE":"５７巷","ALLEY":" ","HOUSE_NO":"４號","E_COORD97":171146.23000000001,"N_COORD97":2545636.7400000002,"ADDRESS":"六合路５７巷４號","OBJECTID":310338},"geometry":{"x":171146.23000000045,"y":2545636.7400000039}},{"attributes":{"ID":310347,"DIS_CODE":0,"TOWNNAME":"永康區","LI":"六合里","LIN":"7鄰","STREET":"六合路","SECT":" ","MAREA":" ","LANE":"５７巷","ALLEY":" ","HOUSE_NO":"６號","E_COORD97":171142.38,"N_COORD97":2545635.7400000002,"ADDRESS":"六合路５７巷６號","OBJECTID":310339},"geometry":{"x":171142.38000000082,"y":2545635.7400000002}},{"attributes":{"ID":310348,"DIS_CODE":0,"TOWNNAME":"永康區","LI":"六合里","LIN":"7鄰","STREET":"六合路","SECT":" ","MAREA":" ","LANE":"５７巷","ALLEY":" ","HOUSE_NO":"７號","E_COORD97":171143.94,"N_COORD97":2545621.25,"ADDRESS":"六合路５７巷７號","OBJECTID":310340},"geometry":{"x":171143.94000000134,"y":2545621.25}},{"attributes":{"ID":310349,"DIS_CODE":0,"TOWNNAME":"永康區","LI":"六合里","LIN":"7鄰","STREET":"六合路","SECT":" ","MAREA":" ","LANE":"５７巷","ALLEY":" ","HOUSE_NO":"９號","E_COORD97":171137.73999999999,"N_COORD97":2545620,"ADDRESS":"六合路５７巷９號","OBJECTID":310341},"geometry":{"x":171137.73999999929,"y":2545620}},{"attributes":{"ID":310350,"DIS_CODE":0,"TOWNNAME":"永康區","LI":"六合里","LIN":"7鄰","STREET":"六合路","SECT":" ","MAREA":" ","LANE":"６３巷","ALLEY":" ","HOUSE_NO":"１１號","E_COORD97":171111.91,"N_COORD97":2545653.9900000002,"ADDRESS":"六合路６３巷１１號","OBJECTID":310342},"geometry":{"x":171111.91000000108,"y":2545653.9900000002}},{"attributes":{"ID":310351,"DIS_CODE":0,"TOWNNAME":"永康區","LI":"六合里","LIN":"7鄰","STREET":"六合路","SECT":" ","MAREA":" ","LANE":"６３巷","ALLEY":" ","HOUSE_NO":"１３號","E_COORD97":171104.01000000001,"N_COORD97":2545652.9900000002,"ADDRESS":"六合路６３巷１３號","OBJECTID":310343},"geometry":{"x":171104.01000000071,"y":2545652.9900000021}},{"attributes":{"ID":310352,"DIS_CODE":0,"TOWNNAME":"永康區","LI":"六合里","LIN":"7鄰","STREET":"六合路","SECT":" ","MAREA":" ","LANE":"６３巷","ALLEY":" ","HOUSE_NO":"１５號","E_COORD97":171096.57000000001,"N_COORD97":2545650.7400000002,"ADDRESS":"六合路６３巷１５號","OBJECTID":310344},"geometry":{"x":171096.56999999937,"y":2545650.7400000021}},{"attributes":{"ID":310353,"DIS_CODE":0,"TOWNNAME":"永康區","LI":"六合里","LIN":"7鄰","STREET":"六合路","SECT":" ","MAREA":" ","LANE":"６３巷","ALLEY":" ","HOUSE_NO":"１７號","E_COORD97":171091.82000000001,"N_COORD97":2545647.2400000002,"ADDRESS":"六合路６３巷１７號","OBJECTID":310345},"geometry":{"x":171091.82000000123,"y":2545647.2400000021}},{"attributes":{"ID":310354,"DIS_CODE":0,"TOWNNAME":"永康區","LI":"六合里","LIN":"7鄰","STREET":"六合路","SECT":" ","MAREA":" ","LANE":"６３巷","ALLEY":" ","HOUSE_NO":"１９號","E_COORD97":171081.12,"N_COORD97":2545647.4900000002,"ADDRESS":"六合路６３巷１９號","OBJECTID":310346},"geometry":{"x":171081.12000000104,"y":2545647.4900000002}},{"attributes":{"ID":310355,"DIS_CODE":0,"TOWNNAME":"永康區","LI":"六合里","LIN":"7鄰","STREET":"六合路","SECT":" ","MAREA":" ","LANE":"６３巷","ALLEY":" ","HOUSE_NO":"１號","E_COORD97":171148.51999999999,"N_COORD97":2545662.4900000002,"ADDRESS":"六合路６３巷１號","OBJECTID":310347},"geometry":{"x":171148.51999999955,"y":2545662.4900000021}},{"attributes":{"ID":310356,"DIS_CODE":0,"TOWNNAME":"永康區","LI":"六合里","LIN":"7鄰","STREET":"六合路","SECT":" ","MAREA":" ","LANE":"６３巷","ALLEY":" ","HOUSE_NO":"２１號","E_COORD97":171077.12,"N_COORD97":2545646.4900000002,"ADDRESS":"六合路６３巷２１號","OBJECTID":310348},"geometry":{"x":171077.12000000011,"y":2545646.4900000021}},{"attributes":{"ID":310357,"DIS_CODE":0,"TOWNNAME":"永康區","LI":"六合里","LIN":"7鄰","STREET":"六合路","SECT":" ","MAREA":" ","LANE":"６３巷","ALLEY":" ","HOUSE_NO":"２３號","E_COORD97":171066.01000000001,"N_COORD97":2545644.4900000002,"ADDRESS":"六合路６３巷２３號","OBJECTID":310349},"geometry":{"x":171066.01000000164,"y":2545644.4900000002}},{"attributes":{"ID":310358,"DIS_CODE":0,"TOWNNAME":"永康區","LI":"六合里","LIN":"7鄰","STREET":"六合路","SECT":" ","MAREA":" ","LANE":"６３巷","ALLEY":" ","HOUSE_NO":"２５號","E_COORD97":171061.87,"N_COORD97":2545643.2400000002,"ADDRESS":"六合路６３巷２５號","OBJECTID":310350},"geometry":{"x":171061.87000000011,"y":2545643.2399999984}},{"attributes":{"ID":310359,"DIS_CODE":0,"TOWNNAME":"永康區","LI":"六合里","LIN":"7鄰","STREET":"六合路","SECT":" ","MAREA":" ","LANE":"６３巷","ALLEY":" ","HOUSE_NO":"３號","E_COORD97":171141.32000000001,"N_COORD97":2545660.4900000002,"ADDRESS":"六合路６３巷３號","OBJECTID":310351},"geometry":{"x":171141.32000000123,"y":2545660.4900000002}},{"attributes":{"ID":310360,"DIS_CODE":0,"TOWNNAME":"永康區","LI":"六合里","LIN":"7鄰","STREET":"六合路","SECT":" ","MAREA":" ","LANE":"６３巷","ALLEY":" ","HOUSE_NO":"５號","E_COORD97":171137.20999999999,"N_COORD97":2545659.4900000002,"ADDRESS":"六合路６３巷５號","OBJECTID":310352},"geometry":{"x":171137.20999999996,"y":2545659.4900000021}},{"attributes":{"ID":310361,"DIS_CODE":0,"TOWNNAME":"永康區","LI":"六合里","LIN":"7鄰","STREET":"六合路","SECT":" ","MAREA":" ","LANE":"６３巷","ALLEY":" ","HOUSE_NO":"７號","E_COORD97":171125.45999999999,"N_COORD97":2545656.9900000002,"ADDRESS":"六合路６３巷７號","OBJECTID":310353},"geometry":{"x":171125.45999999996,"y":2545656.9900000021}},{"attributes":{"ID":310362,"DIS_CODE":0,"TOWNNAME":"永康區","LI":"六合里","LIN":"7鄰","STREET":"六合路","SECT":" ","MAREA":" ","LANE":"６３巷","ALLEY":" ","HOUSE_NO":"９號","E_COORD97":171121.87,"N_COORD97":2545656.4900000002,"ADDRESS":"六合路６３巷９號","OBJECTID":310354},"geometry":{"x":171121.87000000104,"y":2545656.4900000021}},{"attributes":{"ID":310363,"DIS_CODE":0,"TOWNNAME":"仁德區","LI":"後壁里","LIN":"7鄰","STREET":"德安路","SECT":" ","MAREA":" ","LANE":"７３巷","ALLEY":" ","HOUSE_NO":"１１號","E_COORD97":173581.34,"N_COORD97":2539014.5600000001,"ADDRESS":"德安路７３巷１１號","OBJECTID":310355},"geometry":{"x":173581.34000000078,"y":2539014.5600000024}},{"attributes":{"ID":310364,"DIS_CODE":0,"TOWNNAME":"仁德區","LI":"成功里","LIN":"7鄰","STREET":"保華路","SECT":" ","MAREA":" ","LANE":"１２９巷","ALLEY":" ","HOUSE_NO":"５１號","E_COORD97":171121.13,"N_COORD97":2539878.75,"ADDRESS":"保華路１２９巷５１號","OBJECTID":310356},"geometry":{"x":171121.12999999896,"y":2539878.75}},{"attributes":{"ID":310365,"DIS_CODE":0,"TOWNNAME":"安平區","LI":"平安里","LIN":"17鄰","STREET":"安平路","SECT":" ","MAREA":" ","LANE":"６０６巷","ALLEY":" ","HOUSE_NO":"１０號","E_COORD97":164850.20999999999,"N_COORD97":2544446.5800000001,"ADDRESS":"安平路６０６巷１０號","OBJECTID":310357},"geometry":{"x":164850.20999999903,"y":2544446.5800000001}},{"attributes":{"ID":310366,"DIS_CODE":0,"TOWNNAME":"安平區","LI":"平安里","LIN":"17鄰","STREET":"安平路","SECT":" ","MAREA":" ","LANE":"６０６巷","ALLEY":" ","HOUSE_NO":"１０號之１","E_COORD97":164861.37,"N_COORD97":2544434.7000000002,"ADDRESS":"安平路６０６巷１０號之１","OBJECTID":310358},"geometry":{"x":164861.37000000104,"y":2544434.6999999993}},{"attributes":{"ID":310367,"DIS_CODE":0,"TOWNNAME":"安平區","LI":"平安里","LIN":"17鄰","STREET":"安平路","SECT":" ","MAREA":" ","LANE":"６０６巷","ALLEY":" ","HOUSE_NO":"１０號之２","E_COORD97":164866.95000000001,"N_COORD97":2544433,"ADDRESS":"安平路６０６巷１０號之２","OBJECTID":310359},"geometry":{"x":164866.95000000019,"y":2544433}},{"attributes":{"ID":310368,"DIS_CODE":0,"TOWNNAME":"安平區","LI":"平安里","LIN":"17鄰","STREET":"安平路","SECT":" ","MAREA":" ","LANE":"６０６巷","ALLEY":" ","HOUSE_NO":"１０號之３","E_COORD97":164872.76999999999,"N_COORD97":2544431.3100000001,"ADDRESS":"安平路６０６巷１０號之３","OBJECTID":310360},"geometry":{"x":164872.76999999955,"y":2544431.3100000005}},{"attributes":{"ID":310369,"DIS_CODE":0,"TOWNNAME":"安平區","LI":"平安里","LIN":"17鄰","STREET":"安平路","SECT":" ","MAREA":" ","LANE":"６０６巷","ALLEY":" ","HOUSE_NO":"１２號","E_COORD97":164851.67000000001,"N_COORD97":2544450.9399999999,"ADDRESS":"安平路６０６巷１２號","OBJECTID":310361},"geometry":{"x":164851.66999999993,"y":2544450.9399999995}},{"attributes":{"ID":310370,"DIS_CODE":0,"TOWNNAME":"新化區","LI":"太平里","LIN":"7鄰","STREET":"民生路","SECT":" ","MAREA":" ","LANE":"３１４巷","ALLEY":" ","HOUSE_NO":"８８號","E_COORD97":179117.16,"N_COORD97":2549207.25,"ADDRESS":"民生路３１４巷８８號","OBJECTID":310362},"geometry":{"x":179117.16000000015,"y":2549207.2500000019}},{"attributes":{"ID":310371,"DIS_CODE":0,"TOWNNAME":"新化區","LI":"觀音里","LIN":"7鄰","STREET":"中正路","SECT":" ","MAREA":" ","LANE":"５４９巷","ALLEY":" ","HOUSE_NO":"１６號","E_COORD97":178904.95999999999,"N_COORD97":2548654.25,"ADDRESS":"中正路５４９巷１６號","OBJECTID":310363},"geometry":{"x":178904.95999999903,"y":2548654.2500000019}},{"attributes":{"ID":310372,"DIS_CODE":0,"TOWNNAME":"佳里區","LI":"鎮山里","LIN":"7鄰","STREET":"崇德街","SECT":" ","MAREA":" ","LANE":"５８巷","ALLEY":" ","HOUSE_NO":"１０號","E_COORD97":166111.57000000001,"N_COORD97":2561701.3500000001,"ADDRESS":"崇德街５８巷１０號","OBJECTID":310364},"geometry":{"x":166111.57000000123,"y":2561701.3499999996}},{"attributes":{"ID":310373,"DIS_CODE":0,"TOWNNAME":"佳里區","LI":"鎮山里","LIN":"7鄰","STREET":"崇德街","SECT":" ","MAREA":" ","LANE":"５８巷","ALLEY":" ","HOUSE_NO":"１１號","E_COORD97":166092.37,"N_COORD97":2561703.8100000001,"ADDRESS":"崇德街５８巷１１號","OBJECTID":310365},"geometry":{"x":166092.37000000104,"y":2561703.8100000024}},{"attributes":{"ID":310374,"DIS_CODE":0,"TOWNNAME":"佳里區","LI":"鎮山里","LIN":"7鄰","STREET":"崇德街","SECT":" ","MAREA":" ","LANE":"５８巷","ALLEY":" ","HOUSE_NO":"１２號","E_COORD97":166110.54999999999,"N_COORD97":2561707.6200000001,"ADDRESS":"崇德街５８巷１２號","OBJECTID":310366},"geometry":{"x":166110.54999999981,"y":2561707.620000001}},{"attributes":{"ID":310375,"DIS_CODE":0,"TOWNNAME":"佳里區","LI":"鎮山里","LIN":"7鄰","STREET":"崇德街","SECT":" ","MAREA":" ","LANE":"５８巷","ALLEY":" ","HOUSE_NO":"２號","E_COORD97":166116.07999999999,"N_COORD97":2561675.9500000002,"ADDRESS":"崇德街５８巷２號","OBJECTID":310367},"geometry":{"x":166116.08000000101,"y":2561675.9499999993}},{"attributes":{"ID":310376,"DIS_CODE":0,"TOWNNAME":"佳里區","LI":"鎮山里","LIN":"7鄰","STREET":"崇德街","SECT":" ","MAREA":" ","LANE":"５８巷","ALLEY":" ","HOUSE_NO":"３號","E_COORD97":166096.64000000001,"N_COORD97":2561679.1200000001,"ADDRESS":"崇德街５８巷３號","OBJECTID":310368},"geometry":{"x":166096.6400000006,"y":2561679.1200000029}},{"attributes":{"ID":310377,"DIS_CODE":0,"TOWNNAME":"佳里區","LI":"鎮山里","LIN":"7鄰","STREET":"崇德街","SECT":" ","MAREA":" ","LANE":"５８巷","ALLEY":" ","HOUSE_NO":"４號","E_COORD97":166114.81,"N_COORD97":2561682.6400000001,"ADDRESS":"崇德街５８巷４號","OBJECTID":310369},"geometry":{"x":166114.80999999959,"y":2561682.6400000025}},{"attributes":{"ID":310378,"DIS_CODE":0,"TOWNNAME":"佳里區","LI":"鎮山里","LIN":"7鄰","STREET":"崇德街","SECT":" ","MAREA":" ","LANE":"５８巷","ALLEY":" ","HOUSE_NO":"５號","E_COORD97":166095.70000000001,"N_COORD97":2561685.2999999998,"ADDRESS":"崇德街５８巷５號","OBJECTID":310370},"geometry":{"x":166095.70000000019,"y":2561685.3000000007}},{"attributes":{"ID":310379,"DIS_CODE":0,"TOWNNAME":"佳里區","LI":"鎮山里","LIN":"7鄰","STREET":"崇德街","SECT":" ","MAREA":" ","LANE":"５８巷","ALLEY":" ","HOUSE_NO":"６號","E_COORD97":166113.98999999999,"N_COORD97":2561688.54,"ADDRESS":"崇德街５８巷６號","OBJECTID":310371},"geometry":{"x":166113.99000000115,"y":2561688.540000001}},{"attributes":{"ID":310380,"DIS_CODE":0,"TOWNNAME":"佳里區","LI":"鎮山里","LIN":"7鄰","STREET":"崇德街","SECT":" ","MAREA":" ","LANE":"５８巷","ALLEY":" ","HOUSE_NO":"７號","E_COORD97":166094.70000000001,"N_COORD97":2561691.2000000002,"ADDRESS":"崇德街５８巷７號","OBJECTID":310372},"geometry":{"x":166094.70000000019,"y":2561691.1999999993}},{"attributes":{"ID":310381,"DIS_CODE":0,"TOWNNAME":"佳里區","LI":"鎮山里","LIN":"7鄰","STREET":"崇德街","SECT":" ","MAREA":" ","LANE":"５８巷","ALLEY":" ","HOUSE_NO":"８號","E_COORD97":166112.82000000001,"N_COORD97":2561694.5899999999,"ADDRESS":"崇德街５８巷８號","OBJECTID":310373},"geometry":{"x":166112.82000000216,"y":2561694.5900000017}},{"attributes":{"ID":310382,"DIS_CODE":0,"TOWNNAME":"佳里區","LI":"鎮山里","LIN":"7鄰","STREET":"崇德街","SECT":" ","MAREA":" ","LANE":"５８巷","ALLEY":" ","HOUSE_NO":"９號","E_COORD97":166093.78,"N_COORD97":2561697.3300000001,"ADDRESS":"崇德街５８巷９號","OBJECTID":310374},"geometry":{"x":166093.78000000026,"y":2561697.3300000019}},{"attributes":{"ID":310383,"DIS_CODE":0,"TOWNNAME":"佳里區","LI":"忠仁里","LIN":"7鄰","STREET":"博愛街","SECT":" ","MAREA":" ","LANE":"６９巷","ALLEY":" ","HOUSE_NO":"１０號","E_COORD97":165998.69,"N_COORD97":2561952.0099999998,"ADDRESS":"博愛街６９巷１０號","OBJECTID":310375},"geometry":{"x":165998.69000000134,"y":2561952.0099999979}},{"attributes":{"ID":310384,"DIS_CODE":0,"TOWNNAME":"佳里區","LI":"忠仁里","LIN":"7鄰","STREET":"博愛街","SECT":" ","MAREA":" ","LANE":"６９巷","ALLEY":" ","HOUSE_NO":"７號","E_COORD97":165995.63,"N_COORD97":2561965.6200000001,"ADDRESS":"博愛街６９巷７號","OBJECTID":310376},"geometry":{"x":165995.63000000082,"y":2561965.620000001}},{"attributes":{"ID":310385,"DIS_CODE":0,"TOWNNAME":"佳里區","LI":"忠仁里","LIN":"7鄰","STREET":"博愛街","SECT":" ","MAREA":" ","LANE":"６９巷","ALLEY":" ","HOUSE_NO":"８號","E_COORD97":165996.79000000001,"N_COORD97":2561961.0299999998,"ADDRESS":"博愛街６９巷８號","OBJECTID":310377},"geometry":{"x":165996.79000000004,"y":2561961.0299999993}},{"attributes":{"ID":310386,"DIS_CODE":0,"TOWNNAME":"新營區","LI":"嘉芳里","LIN":" ","STREET":" ","SECT":" ","MAREA":"茄苳腳","LANE":" ","ALLEY":" ","HOUSE_NO":"１３之７號二樓之１","E_COORD97":177094.67999999999,"N_COORD97":2578319.9199999999,"ADDRESS":"茄苳腳１３之７號二樓之１","OBJECTID":310378},"geometry":{"x":177094.68000000156,"y":2578319.9200000018}},{"attributes":{"ID":310387,"DIS_CODE":0,"TOWNNAME":"南區","LI":"金華里","LIN":"18鄰","STREET":"惠南街","SECT":" ","MAREA":" ","LANE":"８４巷","ALLEY":" ","HOUSE_NO":"１４號二樓","E_COORD97":166803.39999999999,"N_COORD97":2542286.4900000002,"ADDRESS":"惠南街８４巷１４號二樓","OBJECTID":310379},"geometry":{"x":166803.40000000037,"y":2542286.4900000021}},{"attributes":{"ID":310388,"DIS_CODE":0,"TOWNNAME":"佳里區","LI":"忠仁里","LIN":"7鄰","STREET":"博愛街","SECT":" ","MAREA":" ","LANE":"６９巷","ALLEY":" ","HOUSE_NO":"９號","E_COORD97":165997.87,"N_COORD97":2561956.6299999999,"ADDRESS":"博愛街６９巷９號","OBJECTID":310380},"geometry":{"x":165997.87000000011,"y":2561956.629999999}},{"attributes":{"ID":310389,"DIS_CODE":0,"TOWNNAME":"佳里區","LI":"忠仁里","LIN":"7鄰","STREET":"博愛街","SECT":" ","MAREA":" ","LANE":"８１巷","ALLEY":" ","HOUSE_NO":"１號","E_COORD97":165972.81,"N_COORD97":2561982.5899999999,"ADDRESS":"博愛街８１巷１號","OBJECTID":310381},"geometry":{"x":165972.80999999959,"y":2561982.5900000017}},{"attributes":{"ID":310390,"DIS_CODE":0,"TOWNNAME":"佳里區","LI":"忠仁里","LIN":"7鄰","STREET":"博愛街","SECT":" ","MAREA":" ","LANE":"８１巷","ALLEY":" ","HOUSE_NO":"２號","E_COORD97":165973.06,"N_COORD97":2561977.8999999999,"ADDRESS":"博愛街８１巷２號","OBJECTID":310382},"geometry":{"x":165973.06000000145,"y":2561977.9000000022}},{"attributes":{"ID":310391,"DIS_CODE":0,"TOWNNAME":"佳里區","LI":"忠仁里","LIN":"7鄰","STREET":"博愛街","SECT":" ","MAREA":" ","LANE":"８１巷","ALLEY":" ","HOUSE_NO":"３號","E_COORD97":165973.95999999999,"N_COORD97":2561973.8900000001,"ADDRESS":"博愛街８１巷３號","OBJECTID":310383},"geometry":{"x":165973.95999999996,"y":2561973.8900000006}},{"attributes":{"ID":310392,"DIS_CODE":0,"TOWNNAME":"佳里區","LI":"忠仁里","LIN":"7鄰","STREET":"博愛街","SECT":" ","MAREA":" ","LANE":"８１巷","ALLEY":" ","HOUSE_NO":"４號","E_COORD97":165974.91,"N_COORD97":2561969.8900000001,"ADDRESS":"博愛街８１巷４號","OBJECTID":310384},"geometry":{"x":165974.91000000108,"y":2561969.8900000006}},{"attributes":{"ID":310393,"DIS_CODE":0,"TOWNNAME":"佳里區","LI":"忠仁里","LIN":"7鄰","STREET":"博愛街","SECT":" ","MAREA":" ","LANE":"８１巷","ALLEY":" ","HOUSE_NO":"５號","E_COORD97":165976.07999999999,"N_COORD97":2561965.3700000001,"ADDRESS":"博愛街８１巷５號","OBJECTID":310385},"geometry":{"x":165976.08000000007,"y":2561965.3700000029}},{"attributes":{"ID":310394,"DIS_CODE":0,"TOWNNAME":"佳里區","LI":"忠仁里","LIN":"7鄰","STREET":"博愛街","SECT":" ","MAREA":" ","LANE":"８１巷","ALLEY":" ","HOUSE_NO":"６號","E_COORD97":165977.03,"N_COORD97":2561961.4199999999,"ADDRESS":"博愛街８１巷６號","OBJECTID":310386},"geometry":{"x":165977.03000000026,"y":2561961.4200000018}},{"attributes":{"ID":310395,"DIS_CODE":0,"TOWNNAME":"佳里區","LI":"忠仁里","LIN":"7鄰","STREET":"博愛街","SECT":" ","MAREA":" ","LANE":"８１巷","ALLEY":" ","HOUSE_NO":"７號","E_COORD97":165978.10000000001,"N_COORD97":2561957.1299999999,"ADDRESS":"博愛街８１巷７號","OBJECTID":310387},"geometry":{"x":165978.10000000149,"y":2561957.1299999971}},{"attributes":{"ID":310396,"DIS_CODE":0,"TOWNNAME":"佳里區","LI":"忠仁里","LIN":"7鄰","STREET":"博愛街","SECT":" ","MAREA":" ","LANE":"８１巷","ALLEY":" ","HOUSE_NO":"８號","E_COORD97":165978.95000000001,"N_COORD97":2561952.7000000002,"ADDRESS":"博愛街８１巷８號","OBJECTID":310388},"geometry":{"x":165978.95000000019,"y":2561952.6999999993}},{"attributes":{"ID":310397,"DIS_CODE":0,"TOWNNAME":"佳里區","LI":"忠仁里","LIN":"7鄰","STREET":"博愛街","SECT":" ","MAREA":" ","LANE":"８１巷","ALLEY":" ","HOUSE_NO":"９號","E_COORD97":165980.06,"N_COORD97":2561948.3500000001,"ADDRESS":"博愛街８１巷９號","OBJECTID":310389},"geometry":{"x":165980.06000000052,"y":2561948.3499999996}},{"attributes":{"ID":310398,"DIS_CODE":0,"TOWNNAME":"佳里區","LI":"忠仁里","LIN":"7鄰","STREET":"博愛街","SECT":" ","MAREA":" ","LANE":"８４巷","ALLEY":" ","HOUSE_NO":"１０號","E_COORD97":165978.98999999999,"N_COORD97":2562051.2799999998,"ADDRESS":"博愛街８４巷１０號","OBJECTID":310390},"geometry":{"x":165978.99000000022,"y":2562051.2799999993}},{"attributes":{"ID":310399,"DIS_CODE":0,"TOWNNAME":"佳里區","LI":"忠仁里","LIN":"7鄰","STREET":"博愛街","SECT":" ","MAREA":" ","LANE":"８４巷","ALLEY":" ","HOUSE_NO":"１１號","E_COORD97":165983.25,"N_COORD97":2562052.3900000001,"ADDRESS":"博愛街８４巷１１號","OBJECTID":310391},"geometry":{"x":165983.25000000093,"y":2562052.3900000043}},{"attributes":{"ID":310400,"DIS_CODE":0,"TOWNNAME":"佳里區","LI":"忠仁里","LIN":"7鄰","STREET":"博愛街","SECT":" ","MAREA":" ","LANE":"８４巷","ALLEY":" ","HOUSE_NO":"１２號","E_COORD97":165978.37,"N_COORD97":2562037.6499999999,"ADDRESS":"博愛街８４巷１２號","OBJECTID":310392},"geometry":{"x":165978.37000000197,"y":2562037.6500000022}},{"attributes":{"ID":310401,"DIS_CODE":0,"TOWNNAME":"歸仁區","LI":"南興里","LIN":"22鄰","STREET":"南興街","SECT":" ","MAREA":" ","LANE":" ","ALLEY":" ","HOUSE_NO":"３０８號二樓之２","E_COORD97":175532.62280499999,"N_COORD97":2541266.1335,"ADDRESS":"南興街３０８號二樓之２","OBJECTID":310393},"geometry":{"x":175532.62280499935,"y":2541266.1334959995}},{"attributes":{"ID":310402,"DIS_CODE":0,"TOWNNAME":"佳里區","LI":"忠仁里","LIN":"7鄰","STREET":"博愛街","SECT":" ","MAREA":" ","LANE":"８４巷","ALLEY":" ","HOUSE_NO":"１３號","E_COORD97":165978.42999999999,"N_COORD97":2562033.4900000002,"ADDRESS":"博愛街８４巷１３號","OBJECTID":310394},"geometry":{"x":165978.4299999997,"y":2562033.4900000002}},{"attributes":{"ID":310403,"DIS_CODE":0,"TOWNNAME":"佳里區","LI":"忠仁里","LIN":"7鄰","STREET":"博愛街","SECT":" ","MAREA":" ","LANE":"８４巷","ALLEY":" ","HOUSE_NO":"２號","E_COORD97":165946.10000000001,"N_COORD97":2562036.1899999999,"ADDRESS":"博愛街８４巷２號","OBJECTID":310395},"geometry":{"x":165946.10000000056,"y":2562036.1900000013}},{"attributes":{"ID":310404,"DIS_CODE":0,"TOWNNAME":"學甲區","LI":"仁得里","LIN":"17鄰","STREET":"八德街","SECT":" ","MAREA":" ","LANE":" ","ALLEY":" ","HOUSE_NO":"２３８號六樓之８","E_COORD97":165719.44,"N_COORD97":2569821.8399999999,"ADDRESS":"八德街２３８號六樓之８","OBJECTID":310396},"geometry":{"x":165719.44000000134,"y":2569821.8399999999}},{"attributes":{"ID":310405,"DIS_CODE":0,"TOWNNAME":"佳里區","LI":"忠仁里","LIN":"7鄰","STREET":"博愛街","SECT":" ","MAREA":" ","LANE":"８４巷","ALLEY":" ","HOUSE_NO":"３號之１","E_COORD97":165956.67000000001,"N_COORD97":2562045.7999999998,"ADDRESS":"博愛街８４巷３號之１","OBJECTID":310397},"geometry":{"x":165956.66999999993,"y":2562045.8000000007}},{"attributes":{"ID":310406,"DIS_CODE":0,"TOWNNAME":"佳里區","LI":"忠仁里","LIN":"7鄰","STREET":"博愛街","SECT":" ","MAREA":" ","LANE":"８４巷","ALLEY":" ","HOUSE_NO":"３號","E_COORD97":165952.60000000001,"N_COORD97":2562045.21,"ADDRESS":"博愛街８４巷３號","OBJECTID":310398},"geometry":{"x":165952.60000000149,"y":2562045.2100000028}},{"attributes":{"ID":310407,"DIS_CODE":0,"TOWNNAME":"新營區","LI":"嘉芳里","LIN":" ","STREET":"復興路","SECT":" ","MAREA":" ","LANE":"１０７４巷","ALLEY":" ","HOUSE_NO":"２號五樓","E_COORD97":176140.07999999999,"N_COORD97":2578918,"ADDRESS":"復興路１０７４巷２號五樓","OBJECTID":310399},"geometry":{"x":176140.08000000101,"y":2578918.0000000037}},{"attributes":{"ID":310408,"DIS_CODE":0,"TOWNNAME":"新營區","LI":"嘉芳里","LIN":" ","STREET":"復興路","SECT":" ","MAREA":" ","LANE":"１０７４巷","ALLEY":" ","HOUSE_NO":"２號九樓","E_COORD97":176138.67000000001,"N_COORD97":2578918.3300000001,"ADDRESS":"復興路１０７４巷２號九樓","OBJECTID":310400},"geometry":{"x":176138.66999999899,"y":2578918.3300000001}}]}