{"displayFieldName":"TOWNNAME","fieldAliases":{"ID":"ID","DIS_CODE":"DIS_CODE","TOWNNAME":"TOWNNAME","LI":"LI","LIN":"LIN","STREET":"STREET","SECT":"SECT","MAREA":"MAREA","LANE":"LANE","ALLEY":"ALLEY","HOUSE_NO":"HOUSE_NO","E_COORD97":"E_COORD97","N_COORD97":"N_COORD97","ADDRESS":"ADDRESS","OBJECTID":"OBJECTID"},"geometryType":"esriGeometryPoint","spatialReference":{"wkid":102443,"latestWkid":3826},"fields":[{"name":"ID","type":"esriFieldTypeDouble","alias":"ID"},{"name":"DIS_CODE","type":"esriFieldTypeInteger","alias":"DIS_CODE"},{"name":"TOWNNAME","type":"esriFieldTypeString","alias":"TOWNNAME","length":8},{"name":"LI","type":"esriFieldTypeString","alias":"LI","length":8},{"name":"LIN","type":"esriFieldTypeString","alias":"LIN","length":12},{"name":"STREET","type":"esriFieldTypeString","alias":"STREET","length":20},{"name":"SECT","type":"esriFieldTypeString","alias":"SECT","length":8},{"name":"MAREA","type":"esriFieldTypeString","alias":"MAREA","length":12},{"name":"LANE","type":"esriFieldTypeString","alias":"LANE","length":10},{"name":"ALLEY","type":"esriFieldTypeString","alias":"ALLEY","length":10},{"name":"HOUSE_NO","type":"esriFieldTypeString","alias":"HOUSE_NO","length":20},{"name":"E_COORD97","type":"esriFieldTypeDouble","alias":"E_COORD97"},{"name":"N_COORD97","type":"esriFieldTypeDouble","alias":"N_COORD97"},{"name":"ADDRESS","type":"esriFieldTypeString","alias":"ADDRESS","length":50},{"name":"OBJECTID","type":"esriFieldTypeOID","alias":"OBJECTID"}],"features":[{"attributes":{"ID":191602,"DIS_CODE":0,"TOWNNAME":"南區","LI":"光明里","LIN":"5鄰","STREET":"新興路","SECT":" ","MAREA":" ","LANE":"５３３巷","ALLEY":"４３弄","HOUSE_NO":"２８號","E_COORD97":166753.88,"N_COORD97":2541515.46,"ADDRESS":"新興路５３３巷４３弄２８號","OBJECTID":191601},"geometry":{"x":166753.87999999989,"y":2541515.4600000009}},{"attributes":{"ID":191603,"DIS_CODE":0,"TOWNNAME":"南區","LI":"光明里","LIN":"5鄰","STREET":"新興路","SECT":" ","MAREA":" ","LANE":"５３３巷","ALLEY":"４３弄","HOUSE_NO":"３０號","E_COORD97":166757.23000000001,"N_COORD97":2541511.7599999998,"ADDRESS":"新興路５３３巷４３弄３０號","OBJECTID":191602},"geometry":{"x":166757.23000000045,"y":2541511.7599999998}},{"attributes":{"ID":191604,"DIS_CODE":0,"TOWNNAME":"南區","LI":"光明里","LIN":"5鄰","STREET":"新興路","SECT":" ","MAREA":" ","LANE":"５３３巷","ALLEY":"４３弄","HOUSE_NO":"３２號","E_COORD97":166760.59,"N_COORD97":2541510.5600000001,"ADDRESS":"新興路５３３巷４３弄３２號","OBJECTID":191603},"geometry":{"x":166760.59000000078,"y":2541510.5600000005}},{"attributes":{"ID":191605,"DIS_CODE":0,"TOWNNAME":"善化區","LI":"小新里","LIN":"22鄰","STREET":" ","SECT":" ","MAREA":"成功新村","LANE":" ","ALLEY":" ","HOUSE_NO":"９２號五樓","E_COORD97":180442.17999999999,"N_COORD97":2558627.75,"ADDRESS":"成功新村９２號五樓","OBJECTID":191604},"geometry":{"x":180442.1799999997,"y":2558627.75}},{"attributes":{"ID":191606,"DIS_CODE":0,"TOWNNAME":"善化區","LI":"小新里","LIN":"22鄰","STREET":" ","SECT":" ","MAREA":"成功新村","LANE":" ","ALLEY":" ","HOUSE_NO":"１２號七樓","E_COORD97":180352.79999999999,"N_COORD97":2558689.75,"ADDRESS":"成功新村１２號七樓","OBJECTID":191605},"geometry":{"x":180352.80000000075,"y":2558689.7500000019}},{"attributes":{"ID":191607,"DIS_CODE":0,"TOWNNAME":"南區","LI":"光明里","LIN":"5鄰","STREET":"新興路","SECT":" ","MAREA":" ","LANE":"５３３巷","ALLEY":"４３弄","HOUSE_NO":"３４號","E_COORD97":166764.78,"N_COORD97":2541510.0800000001,"ADDRESS":"新興路５３３巷４３弄３４號","OBJECTID":191606},"geometry":{"x":166764.78000000119,"y":2541510.0800000001}},{"attributes":{"ID":191608,"DIS_CODE":0,"TOWNNAME":"善化區","LI":"小新里","LIN":"22鄰","STREET":" ","SECT":" ","MAREA":"成功新村","LANE":" ","ALLEY":" ","HOUSE_NO":"１７號五樓","E_COORD97":180374.23999999999,"N_COORD97":2558672.5,"ADDRESS":"成功新村１７號五樓","OBJECTID":191607},"geometry":{"x":180374.24000000022,"y":2558672.5}},{"attributes":{"ID":191609,"DIS_CODE":0,"TOWNNAME":"善化區","LI":"小新里","LIN":"22鄰","STREET":" ","SECT":" ","MAREA":"成功新村","LANE":" ","ALLEY":" ","HOUSE_NO":"１９號六樓","E_COORD97":180366.81,"N_COORD97":2558675.25,"ADDRESS":"成功新村１９號六樓","OBJECTID":191608},"geometry":{"x":180366.80999999959,"y":2558675.25}},{"attributes":{"ID":191610,"DIS_CODE":0,"TOWNNAME":"善化區","LI":"小新里","LIN":"22鄰","STREET":" ","SECT":" ","MAREA":"成功新村","LANE":" ","ALLEY":" ","HOUSE_NO":"１５號六樓","E_COORD97":180344.45999999999,"N_COORD97":2558681.75,"ADDRESS":"成功新村１５號六樓","OBJECTID":191609},"geometry":{"x":180344.46000000089,"y":2558681.75}},{"attributes":{"ID":191611,"DIS_CODE":0,"TOWNNAME":"善化區","LI":"小新里","LIN":"22鄰","STREET":" ","SECT":" ","MAREA":"成功新村","LANE":" ","ALLEY":" ","HOUSE_NO":"１３號四樓","E_COORD97":180351.79999999999,"N_COORD97":2558678.9900000002,"ADDRESS":"成功新村１３號四樓","OBJECTID":191610},"geometry":{"x":180351.79999999981,"y":2558678.9900000021}},{"attributes":{"ID":191612,"DIS_CODE":0,"TOWNNAME":"善化區","LI":"小新里","LIN":"22鄰","STREET":" ","SECT":" ","MAREA":"成功新村","LANE":" ","ALLEY":" ","HOUSE_NO":"２１號五樓","E_COORD97":180369.23999999999,"N_COORD97":2558689.5,"ADDRESS":"成功新村２１號五樓","OBJECTID":191611},"geometry":{"x":180369.24000000022,"y":2558689.5}},{"attributes":{"ID":191613,"DIS_CODE":0,"TOWNNAME":"善化區","LI":"小新里","LIN":"22鄰","STREET":" ","SECT":" ","MAREA":"成功新村","LANE":" ","ALLEY":" ","HOUSE_NO":"９０號三樓","E_COORD97":180449.17999999999,"N_COORD97":2558612.5,"ADDRESS":"成功新村９０號三樓","OBJECTID":191612},"geometry":{"x":180449.1799999997,"y":2558612.5}},{"attributes":{"ID":191614,"DIS_CODE":0,"TOWNNAME":"南區","LI":"光明里","LIN":"5鄰","STREET":"新興路","SECT":" ","MAREA":" ","LANE":"５３３巷","ALLEY":"４３弄","HOUSE_NO":"３６號","E_COORD97":166767.89000000001,"N_COORD97":2541508.0499999998,"ADDRESS":"新興路５３３巷４３弄３６號","OBJECTID":191613},"geometry":{"x":166767.8900000006,"y":2541508.0500000007}},{"attributes":{"ID":191615,"DIS_CODE":0,"TOWNNAME":"南區","LI":"光明里","LIN":"5鄰","STREET":"新興路","SECT":" ","MAREA":" ","LANE":"５３３巷","ALLEY":"４３弄","HOUSE_NO":"３８號","E_COORD97":166772.32000000001,"N_COORD97":2541508.5299999998,"ADDRESS":"新興路５３３巷４３弄３８號","OBJECTID":191614},"geometry":{"x":166772.32000000216,"y":2541508.5300000012}},{"attributes":{"ID":191616,"DIS_CODE":0,"TOWNNAME":"南區","LI":"光明里","LIN":"5鄰","STREET":"新興路","SECT":" ","MAREA":" ","LANE":"５３３巷","ALLEY":"４３弄","HOUSE_NO":"４０號","E_COORD97":166775.67000000001,"N_COORD97":2541505.4199999999,"ADDRESS":"新興路５３３巷４３弄４０號","OBJECTID":191615},"geometry":{"x":166775.66999999993,"y":2541505.4199999981}},{"attributes":{"ID":191617,"DIS_CODE":0,"TOWNNAME":"南區","LI":"同安里","LIN":"5鄰","STREET":"灣裡路","SECT":" ","MAREA":" ","LANE":"３５１巷","ALLEY":"１２弄","HOUSE_NO":"１號","E_COORD97":166283.89999999999,"N_COORD97":2536180.6600000001,"ADDRESS":"灣裡路３５１巷１２弄１號","OBJECTID":191616},"geometry":{"x":166283.9000000013,"y":2536180.6600000001}},{"attributes":{"ID":191618,"DIS_CODE":0,"TOWNNAME":"南區","LI":"同安里","LIN":"5鄰","STREET":"灣裡路","SECT":" ","MAREA":" ","LANE":"３５１巷","ALLEY":"１２弄","HOUSE_NO":"２號","E_COORD97":166260.72,"N_COORD97":2536183.48,"ADDRESS":"灣裡路３５１巷１２弄２號","OBJECTID":191617},"geometry":{"x":166260.72000000067,"y":2536183.4800000023}},{"attributes":{"ID":191619,"DIS_CODE":0,"TOWNNAME":"南區","LI":"同安里","LIN":"5鄰","STREET":"灣裡路","SECT":" ","MAREA":" ","LANE":"３５１巷","ALLEY":"１２弄","HOUSE_NO":"３號","E_COORD97":166286.10999999999,"N_COORD97":2536139.54,"ADDRESS":"灣裡路３５１巷１２弄３號","OBJECTID":191618},"geometry":{"x":166286.11000000127,"y":2536139.5399999991}},{"attributes":{"ID":191620,"DIS_CODE":0,"TOWNNAME":"南區","LI":"同安里","LIN":"5鄰","STREET":"灣裡路","SECT":" ","MAREA":" ","LANE":"３５１巷","ALLEY":"１２弄","HOUSE_NO":"４號","E_COORD97":166259.70000000001,"N_COORD97":2536187.96,"ADDRESS":"灣裡路３５１巷１２弄４號","OBJECTID":191619},"geometry":{"x":166259.70000000112,"y":2536187.9600000028}},{"attributes":{"ID":191621,"DIS_CODE":0,"TOWNNAME":"南區","LI":"同安里","LIN":"5鄰","STREET":"灣裡路","SECT":" ","MAREA":" ","LANE":"３５１巷","ALLEY":"１２弄","HOUSE_NO":"５號","E_COORD97":166283.06,"N_COORD97":2536147.3999999999,"ADDRESS":"灣裡路３５１巷１２弄５號","OBJECTID":191620},"geometry":{"x":166283.05999999959,"y":2536147.4000000022}},{"attributes":{"ID":191622,"DIS_CODE":0,"TOWNNAME":"南區","LI":"同安里","LIN":"5鄰","STREET":"灣裡路","SECT":" ","MAREA":" ","LANE":"３５１巷","ALLEY":"１２弄","HOUSE_NO":"５號之１","E_COORD97":166280.81,"N_COORD97":2536156.1699999999,"ADDRESS":"灣裡路３５１巷１２弄５號之１","OBJECTID":191621},"geometry":{"x":166280.80999999959,"y":2536156.1699999999}},{"attributes":{"ID":191623,"DIS_CODE":0,"TOWNNAME":"南區","LI":"同安里","LIN":"5鄰","STREET":"灣裡路","SECT":" ","MAREA":" ","LANE":"３５１巷","ALLEY":"１２弄","HOUSE_NO":"６號","E_COORD97":166261.54000000001,"N_COORD97":2536175.9399999999,"ADDRESS":"灣裡路３５１巷１２弄６號","OBJECTID":191622},"geometry":{"x":166261.54000000004,"y":2536175.9400000013}},{"attributes":{"ID":191624,"DIS_CODE":0,"TOWNNAME":"南區","LI":"同安里","LIN":"5鄰","STREET":"灣裡路","SECT":" ","MAREA":" ","LANE":"３５１巷","ALLEY":"１２弄","HOUSE_NO":"１０號","E_COORD97":166269.69,"N_COORD97":2536161.9399999999,"ADDRESS":"灣裡路３５１巷１２弄１０號","OBJECTID":191623},"geometry":{"x":166269.68999999948,"y":2536161.9400000032}},{"attributes":{"ID":191625,"DIS_CODE":0,"TOWNNAME":"南區","LI":"竹溪里","LIN":"5鄰","STREET":"體育路","SECT":" ","MAREA":" ","LANE":"４１巷","ALLEY":"９弄","HOUSE_NO":"１３號","E_COORD97":168762.79999999999,"N_COORD97":2542298.3300000001,"ADDRESS":"體育路４１巷９弄１３號","OBJECTID":191624},"geometry":{"x":168762.80000000075,"y":2542298.3300000001}},{"attributes":{"ID":191626,"DIS_CODE":0,"TOWNNAME":"南區","LI":"竹溪里","LIN":"5鄰","STREET":"體育路","SECT":" ","MAREA":" ","LANE":"４１巷","ALLEY":"９弄","HOUSE_NO":"１１號","E_COORD97":168763.35000000001,"N_COORD97":2542294.75,"ADDRESS":"體育路４１巷９弄１１號","OBJECTID":191625},"geometry":{"x":168763.35000000056,"y":2542294.7500000019}},{"attributes":{"ID":191627,"DIS_CODE":0,"TOWNNAME":"南區","LI":"竹溪里","LIN":"5鄰","STREET":"體育路","SECT":" ","MAREA":" ","LANE":"４１巷","ALLEY":"９弄","HOUSE_NO":"９號","E_COORD97":168763.63,"N_COORD97":2542290.3500000001,"ADDRESS":"體育路４１巷９弄９號","OBJECTID":191626},"geometry":{"x":168763.63000000082,"y":2542290.3500000015}},{"attributes":{"ID":191628,"DIS_CODE":0,"TOWNNAME":"善化區","LI":"小新里","LIN":"22鄰","STREET":" ","SECT":" ","MAREA":"成功新村","LANE":" ","ALLEY":" ","HOUSE_NO":"６號七樓","E_COORD97":180318.54000000001,"N_COORD97":2558704.75,"ADDRESS":"成功新村６號七樓","OBJECTID":191627},"geometry":{"x":180318.5400000019,"y":2558704.75}},{"attributes":{"ID":191629,"DIS_CODE":0,"TOWNNAME":"南區","LI":"竹溪里","LIN":"5鄰","STREET":"體育路","SECT":" ","MAREA":" ","LANE":"４１巷","ALLEY":"９弄","HOUSE_NO":"７號","E_COORD97":168762.79999999999,"N_COORD97":2542286.2200000002,"ADDRESS":"體育路４１巷９弄７號","OBJECTID":191628},"geometry":{"x":168762.80000000075,"y":2542286.2200000007}},{"attributes":{"ID":191630,"DIS_CODE":0,"TOWNNAME":"南區","LI":"竹溪里","LIN":"5鄰","STREET":"體育路","SECT":" ","MAREA":" ","LANE":"４１巷","ALLEY":"９弄","HOUSE_NO":"３號","E_COORD97":168761.98000000001,"N_COORD97":2542273.8399999999,"ADDRESS":"體育路４１巷９弄３號","OBJECTID":191629},"geometry":{"x":168761.98000000138,"y":2542273.8400000017}},{"attributes":{"ID":191631,"DIS_CODE":0,"TOWNNAME":"善化區","LI":"小新里","LIN":"22鄰","STREET":" ","SECT":" ","MAREA":"成功新村","LANE":" ","ALLEY":" ","HOUSE_NO":"３３號三樓","E_COORD97":180412.35000000001,"N_COORD97":2558674.25,"ADDRESS":"成功新村３３號三樓","OBJECTID":191630},"geometry":{"x":180412.34999999963,"y":2558674.25}},{"attributes":{"ID":191632,"DIS_CODE":0,"TOWNNAME":"善化區","LI":"小新里","LIN":"22鄰","STREET":" ","SECT":" ","MAREA":"成功新村","LANE":" ","ALLEY":" ","HOUSE_NO":"３５號五樓","E_COORD97":180431.26000000001,"N_COORD97":2558667.25,"ADDRESS":"成功新村３５號五樓","OBJECTID":191631},"geometry":{"x":180431.25999999978,"y":2558667.2500000019}},{"attributes":{"ID":191633,"DIS_CODE":0,"TOWNNAME":"善化區","LI":"小新里","LIN":"22鄰","STREET":" ","SECT":" ","MAREA":"成功新村","LANE":" ","ALLEY":" ","HOUSE_NO":"５０號五樓","E_COORD97":180333.73999999999,"N_COORD97":2558665.5,"ADDRESS":"成功新村５０號五樓","OBJECTID":191632},"geometry":{"x":180333.74000000022,"y":2558665.5000000019}},{"attributes":{"ID":191634,"DIS_CODE":0,"TOWNNAME":"善化區","LI":"小新里","LIN":"22鄰","STREET":" ","SECT":" ","MAREA":"成功新村","LANE":" ","ALLEY":" ","HOUSE_NO":"３７號五樓","E_COORD97":180436.94,"N_COORD97":2558650,"ADDRESS":"成功新村３７號五樓","OBJECTID":191633},"geometry":{"x":180436.94000000134,"y":2558650}},{"attributes":{"ID":191635,"DIS_CODE":0,"TOWNNAME":"善化區","LI":"小新里","LIN":"22鄰","STREET":" ","SECT":" ","MAREA":"成功新村","LANE":" ","ALLEY":" ","HOUSE_NO":"３７號四樓","E_COORD97":180436.94,"N_COORD97":2558650,"ADDRESS":"成功新村３７號四樓","OBJECTID":191634},"geometry":{"x":180436.94000000134,"y":2558650}},{"attributes":{"ID":191636,"DIS_CODE":0,"TOWNNAME":"善化區","LI":"小新里","LIN":"22鄰","STREET":" ","SECT":" ","MAREA":"成功新村","LANE":" ","ALLEY":" ","HOUSE_NO":"３７號八樓","E_COORD97":180436.94,"N_COORD97":2558650,"ADDRESS":"成功新村３７號八樓","OBJECTID":191635},"geometry":{"x":180436.94000000134,"y":2558650}},{"attributes":{"ID":191637,"DIS_CODE":0,"TOWNNAME":"善化區","LI":"小新里","LIN":"22鄰","STREET":" ","SECT":" ","MAREA":"成功新村","LANE":" ","ALLEY":" ","HOUSE_NO":"４７號五樓","E_COORD97":180473.26000000001,"N_COORD97":2558651.5,"ADDRESS":"成功新村４７號五樓","OBJECTID":191636},"geometry":{"x":180473.26000000071,"y":2558651.5000000019}},{"attributes":{"ID":191638,"DIS_CODE":0,"TOWNNAME":"善化區","LI":"小新里","LIN":"22鄰","STREET":" ","SECT":" ","MAREA":"成功新村","LANE":" ","ALLEY":" ","HOUSE_NO":"３３號八樓","E_COORD97":180412.35000000001,"N_COORD97":2558674.25,"ADDRESS":"成功新村３３號八樓","OBJECTID":191637},"geometry":{"x":180412.34999999963,"y":2558674.25}},{"attributes":{"ID":191639,"DIS_CODE":0,"TOWNNAME":"善化區","LI":"小新里","LIN":"22鄰","STREET":" ","SECT":" ","MAREA":"成功新村","LANE":" ","ALLEY":" ","HOUSE_NO":"６４號五樓","E_COORD97":180305.73000000001,"N_COORD97":2558670.25,"ADDRESS":"成功新村６４號五樓","OBJECTID":191638},"geometry":{"x":180305.73000000231,"y":2558670.2500000019}},{"attributes":{"ID":191640,"DIS_CODE":0,"TOWNNAME":"善化區","LI":"小新里","LIN":"22鄰","STREET":" ","SECT":" ","MAREA":"成功新村","LANE":" ","ALLEY":" ","HOUSE_NO":"５２號六樓","E_COORD97":180341.95999999999,"N_COORD97":2558662.25,"ADDRESS":"成功新村５２號六樓","OBJECTID":191639},"geometry":{"x":180341.95999999996,"y":2558662.2500000037}},{"attributes":{"ID":191641,"DIS_CODE":0,"TOWNNAME":"南區","LI":"佛壇里","LIN":"5鄰","STREET":"灣裡路","SECT":" ","MAREA":" ","LANE":"２８２巷","ALLEY":"１１７弄","HOUSE_NO":"１號","E_COORD97":166053.57000000001,"N_COORD97":2535971.0499999998,"ADDRESS":"灣裡路２８２巷１１７弄１號","OBJECTID":191640},"geometry":{"x":166053.57000000216,"y":2535971.0500000007}},{"attributes":{"ID":191642,"DIS_CODE":0,"TOWNNAME":"佳里區","LI":"忠仁里","LIN":"15鄰","STREET":"延平路","SECT":" ","MAREA":" ","LANE":" ","ALLEY":" ","HOUSE_NO":"１６１號","E_COORD97":165890.88,"N_COORD97":2561986.7200000002,"ADDRESS":"延平路１６１號","OBJECTID":191641},"geometry":{"x":165890.87999999989,"y":2561986.7200000025}},{"attributes":{"ID":191643,"DIS_CODE":0,"TOWNNAME":"善化區","LI":"小新里","LIN":"22鄰","STREET":" ","SECT":" ","MAREA":"成功新村","LANE":" ","ALLEY":" ","HOUSE_NO":"３１號三樓","E_COORD97":180409.51000000001,"N_COORD97":2558660.25,"ADDRESS":"成功新村３１號三樓","OBJECTID":191642},"geometry":{"x":180409.50999999978,"y":2558660.2500000019}},{"attributes":{"ID":191644,"DIS_CODE":0,"TOWNNAME":"善化區","LI":"小新里","LIN":"22鄰","STREET":" ","SECT":" ","MAREA":"成功新村","LANE":" ","ALLEY":" ","HOUSE_NO":"４６號三樓","E_COORD97":180462.64000000001,"N_COORD97":2558655.5,"ADDRESS":"成功新村４６號三樓","OBJECTID":191643},"geometry":{"x":180462.63999999966,"y":2558655.5}},{"attributes":{"ID":191645,"DIS_CODE":0,"TOWNNAME":"佳里區","LI":"東寧里","LIN":"15鄰","STREET":"延平路","SECT":" ","MAREA":" ","LANE":" ","ALLEY":" ","HOUSE_NO":"２９６號","E_COORD97":165879.34,"N_COORD97":2562336.3599999999,"ADDRESS":"延平路２９６號","OBJECTID":191644},"geometry":{"x":165879.33999999985,"y":2562336.3600000013}},{"attributes":{"ID":191646,"DIS_CODE":0,"TOWNNAME":"善化區","LI":"小新里","LIN":"22鄰","STREET":" ","SECT":" ","MAREA":"成功新村","LANE":" ","ALLEY":" ","HOUSE_NO":"５０號八樓","E_COORD97":180333.73999999999,"N_COORD97":2558665.5,"ADDRESS":"成功新村５０號八樓","OBJECTID":191645},"geometry":{"x":180333.74000000022,"y":2558665.5000000019}},{"attributes":{"ID":191647,"DIS_CODE":0,"TOWNNAME":"善化區","LI":"小新里","LIN":"22鄰","STREET":" ","SECT":" ","MAREA":"成功新村","LANE":" ","ALLEY":" ","HOUSE_NO":"３５號二樓","E_COORD97":180431.26000000001,"N_COORD97":2558667.25,"ADDRESS":"成功新村３５號二樓","OBJECTID":191646},"geometry":{"x":180431.25999999978,"y":2558667.2500000019}},{"attributes":{"ID":191648,"DIS_CODE":0,"TOWNNAME":"善化區","LI":"小新里","LIN":"22鄰","STREET":" ","SECT":" ","MAREA":"成功新村","LANE":" ","ALLEY":" ","HOUSE_NO":"３６號五樓","E_COORD97":180439,"N_COORD97":2558664,"ADDRESS":"成功新村３６號五樓","OBJECTID":191647},"geometry":{"x":180439.00000000186,"y":2558664.0000000037}},{"attributes":{"ID":191649,"DIS_CODE":0,"TOWNNAME":"善化區","LI":"小新里","LIN":"22鄰","STREET":" ","SECT":" ","MAREA":"成功新村","LANE":" ","ALLEY":" ","HOUSE_NO":"３３號六樓","E_COORD97":180412.35000000001,"N_COORD97":2558674.25,"ADDRESS":"成功新村３３號六樓","OBJECTID":191648},"geometry":{"x":180412.34999999963,"y":2558674.25}},{"attributes":{"ID":191650,"DIS_CODE":0,"TOWNNAME":"善化區","LI":"小新里","LIN":"22鄰","STREET":" ","SECT":" ","MAREA":"成功新村","LANE":" ","ALLEY":" ","HOUSE_NO":"４１號七樓","E_COORD97":180459.14999999999,"N_COORD97":2558641.25,"ADDRESS":"成功新村４１號七樓","OBJECTID":191649},"geometry":{"x":180459.1500000013,"y":2558641.25}},{"attributes":{"ID":191651,"DIS_CODE":0,"TOWNNAME":"善化區","LI":"小新里","LIN":"22鄰","STREET":" ","SECT":" ","MAREA":"成功新村","LANE":" ","ALLEY":" ","HOUSE_NO":"３３號二樓","E_COORD97":180412.35000000001,"N_COORD97":2558674.25,"ADDRESS":"成功新村３３號二樓","OBJECTID":191650},"geometry":{"x":180412.34999999963,"y":2558674.25}},{"attributes":{"ID":191652,"DIS_CODE":0,"TOWNNAME":"北門區","LI":"保吉里","LIN":"3鄰","STREET":" ","SECT":" ","MAREA":"蚵寮","LANE":" ","ALLEY":" ","HOUSE_NO":"３６號","E_COORD97":161484.76000000001,"N_COORD97":2575786.71,"ADDRESS":"蚵寮３６號","OBJECTID":191651},"geometry":{"x":161484.76000000164,"y":2575786.7100000009}},{"attributes":{"ID":191653,"DIS_CODE":0,"TOWNNAME":"善化區","LI":"小新里","LIN":"22鄰","STREET":" ","SECT":" ","MAREA":"成功新村","LANE":" ","ALLEY":" ","HOUSE_NO":"３１號八樓","E_COORD97":180409.51000000001,"N_COORD97":2558660.25,"ADDRESS":"成功新村３１號八樓","OBJECTID":191652},"geometry":{"x":180409.50999999978,"y":2558660.2500000019}},{"attributes":{"ID":191654,"DIS_CODE":0,"TOWNNAME":"善化區","LI":"小新里","LIN":"22鄰","STREET":" ","SECT":" ","MAREA":"成功新村","LANE":" ","ALLEY":" ","HOUSE_NO":"５６號七樓","E_COORD97":180326.45999999999,"N_COORD97":2558645.25,"ADDRESS":"成功新村５６號七樓","OBJECTID":191653},"geometry":{"x":180326.46000000089,"y":2558645.2500000037}},{"attributes":{"ID":191655,"DIS_CODE":0,"TOWNNAME":"南區","LI":"佛壇里","LIN":"5鄰","STREET":"灣裡路","SECT":" ","MAREA":" ","LANE":"２８２巷","ALLEY":"１１７弄","HOUSE_NO":"３號","E_COORD97":166063.87,"N_COORD97":2535980.0499999998,"ADDRESS":"灣裡路２８２巷１１７弄３號","OBJECTID":191654},"geometry":{"x":166063.87000000104,"y":2535980.0500000026}},{"attributes":{"ID":191656,"DIS_CODE":0,"TOWNNAME":"南區","LI":"佛壇里","LIN":"5鄰","STREET":"灣裡路","SECT":" ","MAREA":" ","LANE":"２８２巷","ALLEY":"１１７弄","HOUSE_NO":"５號","E_COORD97":166069.07999999999,"N_COORD97":2535997.48,"ADDRESS":"灣裡路２８２巷１１７弄５號","OBJECTID":191655},"geometry":{"x":166069.08000000101,"y":2535997.4800000023}},{"attributes":{"ID":191657,"DIS_CODE":0,"TOWNNAME":"中西區","LI":"公正里","LIN":"1鄰","STREET":"北門路","SECT":"一段","MAREA":" ","LANE":" ","ALLEY":" ","HOUSE_NO":"１４５號","E_COORD97":169184.51000000001,"N_COORD97":2543994.1099999999,"ADDRESS":"北門路一段１４５號","OBJECTID":191656},"geometry":{"x":169184.51000000071,"y":2543994.1099999994}},{"attributes":{"ID":191658,"DIS_CODE":0,"TOWNNAME":"中西區","LI":"公正里","LIN":"1鄰","STREET":"北門路","SECT":"一段","MAREA":" ","LANE":" ","ALLEY":" ","HOUSE_NO":"１４５號","E_COORD97":169184.51000000001,"N_COORD97":2543994.1099999999,"ADDRESS":"北門路一段１４５號","OBJECTID":191657},"geometry":{"x":169184.51000000071,"y":2543994.1099999994}},{"attributes":{"ID":191659,"DIS_CODE":0,"TOWNNAME":"中西區","LI":"三民里","LIN":"6鄰","STREET":"公園路","SECT":" ","MAREA":" ","LANE":" ","ALLEY":" ","HOUSE_NO":"２９號","E_COORD97":168521.75,"N_COORD97":2543843.3900000001,"ADDRESS":"公園路２９號","OBJECTID":191658},"geometry":{"x":168521.74999999907,"y":2543843.3900000025}},{"attributes":{"ID":191660,"DIS_CODE":0,"TOWNNAME":"南區","LI":"佛壇里","LIN":"5鄰","STREET":"灣裡路","SECT":" ","MAREA":" ","LANE":"２８２巷","ALLEY":"１１７弄","HOUSE_NO":"７號","E_COORD97":166073.07000000001,"N_COORD97":2535993.5600000001,"ADDRESS":"灣裡路２８２巷１１７弄７號","OBJECTID":191659},"geometry":{"x":166073.0700000003,"y":2535993.5600000024}},{"attributes":{"ID":191661,"DIS_CODE":0,"TOWNNAME":"南區","LI":"佛壇里","LIN":"5鄰","STREET":"灣裡路","SECT":" ","MAREA":" ","LANE":"２８２巷","ALLEY":"１１７弄","HOUSE_NO":"９號","E_COORD97":166075.28,"N_COORD97":2535977.8500000001,"ADDRESS":"灣裡路２８２巷１１７弄９號","OBJECTID":191660},"geometry":{"x":166075.28000000026,"y":2535977.8499999996}},{"attributes":{"ID":191662,"DIS_CODE":0,"TOWNNAME":"南區","LI":"府南里","LIN":"5鄰","STREET":"金華路","SECT":"一段","MAREA":" ","LANE":"４８４巷","ALLEY":"９９弄","HOUSE_NO":"１０１號","E_COORD97":167243.19,"N_COORD97":2541537.21,"ADDRESS":"金華路一段４８４巷９９弄１０１號","OBJECTID":191661},"geometry":{"x":167243.19000000134,"y":2541537.2100000009}},{"attributes":{"ID":191663,"DIS_CODE":0,"TOWNNAME":"南區","LI":"府南里","LIN":"5鄰","STREET":"金華路","SECT":"一段","MAREA":" ","LANE":"４８４巷","ALLEY":"９９弄","HOUSE_NO":"１０３號","E_COORD97":167238.95999999999,"N_COORD97":2541538.6200000001,"ADDRESS":"金華路一段４８４巷９９弄１０３號","OBJECTID":191662},"geometry":{"x":167238.96000000089,"y":2541538.620000001}},{"attributes":{"ID":191664,"DIS_CODE":0,"TOWNNAME":"南區","LI":"府南里","LIN":"5鄰","STREET":"金華路","SECT":"一段","MAREA":" ","LANE":"４８４巷","ALLEY":"９９弄","HOUSE_NO":"１０５號","E_COORD97":167235.47,"N_COORD97":2541540.4399999999,"ADDRESS":"金華路一段４８４巷９９弄１０５號","OBJECTID":191663},"geometry":{"x":167235.47000000067,"y":2541540.4400000013}},{"attributes":{"ID":191665,"DIS_CODE":0,"TOWNNAME":"南區","LI":"府南里","LIN":"5鄰","STREET":"金華路","SECT":"一段","MAREA":" ","LANE":"４８４巷","ALLEY":"９９弄","HOUSE_NO":"１０７號","E_COORD97":167231.41,"N_COORD97":2541542.3500000001,"ADDRESS":"金華路一段４８４巷９９弄１０７號","OBJECTID":191664},"geometry":{"x":167231.41000000108,"y":2541542.3499999996}},{"attributes":{"ID":191666,"DIS_CODE":0,"TOWNNAME":"善化區","LI":"小新里","LIN":"22鄰","STREET":" ","SECT":" ","MAREA":"成功新村","LANE":" ","ALLEY":" ","HOUSE_NO":"２７號七樓","E_COORD97":180386.45999999999,"N_COORD97":2558667.4900000002,"ADDRESS":"成功新村２７號七樓","OBJECTID":191665},"geometry":{"x":180386.45999999996,"y":2558667.4900000039}},{"attributes":{"ID":191667,"DIS_CODE":0,"TOWNNAME":"善化區","LI":"小新里","LIN":"22鄰","STREET":" ","SECT":" ","MAREA":"成功新村","LANE":" ","ALLEY":" ","HOUSE_NO":"３９號三樓","E_COORD97":180430.29999999999,"N_COORD97":2558656.5,"ADDRESS":"成功新村３９號三樓","OBJECTID":191666},"geometry":{"x":180430.30000000075,"y":2558656.5}},{"attributes":{"ID":191668,"DIS_CODE":0,"TOWNNAME":"善化區","LI":"小新里","LIN":"22鄰","STREET":" ","SECT":" ","MAREA":"成功新村","LANE":" ","ALLEY":" ","HOUSE_NO":"５８號八樓","E_COORD97":180295.67999999999,"N_COORD97":2558645,"ADDRESS":"成功新村５８號八樓","OBJECTID":191667},"geometry":{"x":180295.68000000063,"y":2558645.0000000019}},{"attributes":{"ID":191669,"DIS_CODE":0,"TOWNNAME":"善化區","LI":"小新里","LIN":"22鄰","STREET":" ","SECT":" ","MAREA":"成功新村","LANE":" ","ALLEY":" ","HOUSE_NO":"６２號五樓","E_COORD97":180302.48000000001,"N_COORD97":2558661.25,"ADDRESS":"成功新村６２號五樓","OBJECTID":191668},"geometry":{"x":180302.48000000138,"y":2558661.25}},{"attributes":{"ID":191670,"DIS_CODE":0,"TOWNNAME":"善化區","LI":"小新里","LIN":"22鄰","STREET":" ","SECT":" ","MAREA":"成功新村","LANE":" ","ALLEY":" ","HOUSE_NO":"５２號八樓","E_COORD97":180341.95999999999,"N_COORD97":2558662.25,"ADDRESS":"成功新村５２號八樓","OBJECTID":191669},"geometry":{"x":180341.95999999996,"y":2558662.2500000037}},{"attributes":{"ID":191671,"DIS_CODE":0,"TOWNNAME":"善化區","LI":"小新里","LIN":"22鄰","STREET":" ","SECT":" ","MAREA":"成功新村","LANE":" ","ALLEY":" ","HOUSE_NO":"３３號五樓","E_COORD97":180412.35000000001,"N_COORD97":2558674.25,"ADDRESS":"成功新村３３號五樓","OBJECTID":191670},"geometry":{"x":180412.34999999963,"y":2558674.25}},{"attributes":{"ID":191672,"DIS_CODE":0,"TOWNNAME":"善化區","LI":"小新里","LIN":"22鄰","STREET":" ","SECT":" ","MAREA":"成功新村","LANE":" ","ALLEY":" ","HOUSE_NO":"３４號二樓","E_COORD97":180420.60000000001,"N_COORD97":2558670.75,"ADDRESS":"成功新村３４號二樓","OBJECTID":191671},"geometry":{"x":180420.59999999963,"y":2558670.75}},{"attributes":{"ID":191673,"DIS_CODE":0,"TOWNNAME":"善化區","LI":"小新里","LIN":"22鄰","STREET":" ","SECT":" ","MAREA":"成功新村","LANE":" ","ALLEY":" ","HOUSE_NO":"３５號七樓","E_COORD97":180431.26000000001,"N_COORD97":2558667.25,"ADDRESS":"成功新村３５號七樓","OBJECTID":191672},"geometry":{"x":180431.25999999978,"y":2558667.2500000019}},{"attributes":{"ID":191674,"DIS_CODE":0,"TOWNNAME":"善化區","LI":"小新里","LIN":"22鄰","STREET":" ","SECT":" ","MAREA":"成功新村","LANE":" ","ALLEY":" ","HOUSE_NO":"４３號八樓","E_COORD97":180452.19,"N_COORD97":2558646,"ADDRESS":"成功新村４３號八樓","OBJECTID":191673},"geometry":{"x":180452.19000000134,"y":2558646}},{"attributes":{"ID":191675,"DIS_CODE":0,"TOWNNAME":"善化區","LI":"小新里","LIN":"22鄰","STREET":" ","SECT":" ","MAREA":"成功新村","LANE":" ","ALLEY":" ","HOUSE_NO":"３１號四樓","E_COORD97":180409.51000000001,"N_COORD97":2558660.25,"ADDRESS":"成功新村３１號四樓","OBJECTID":191674},"geometry":{"x":180409.50999999978,"y":2558660.2500000019}},{"attributes":{"ID":191676,"DIS_CODE":0,"TOWNNAME":"善化區","LI":"小新里","LIN":"22鄰","STREET":" ","SECT":" ","MAREA":"成功新村","LANE":" ","ALLEY":" ","HOUSE_NO":"４３號四樓","E_COORD97":180452.19,"N_COORD97":2558646,"ADDRESS":"成功新村４３號四樓","OBJECTID":191675},"geometry":{"x":180452.19000000134,"y":2558646}},{"attributes":{"ID":191677,"DIS_CODE":0,"TOWNNAME":"善化區","LI":"小新里","LIN":"22鄰","STREET":" ","SECT":" ","MAREA":"成功新村","LANE":" ","ALLEY":" ","HOUSE_NO":"５０號四樓","E_COORD97":180333.73999999999,"N_COORD97":2558665.5,"ADDRESS":"成功新村５０號四樓","OBJECTID":191676},"geometry":{"x":180333.74000000022,"y":2558665.5000000019}},{"attributes":{"ID":191678,"DIS_CODE":0,"TOWNNAME":"善化區","LI":"小新里","LIN":"22鄰","STREET":" ","SECT":" ","MAREA":"成功新村","LANE":" ","ALLEY":" ","HOUSE_NO":"２９號八樓","E_COORD97":180417.51000000001,"N_COORD97":2558657.25,"ADDRESS":"成功新村２９號八樓","OBJECTID":191677},"geometry":{"x":180417.51000000071,"y":2558657.25}},{"attributes":{"ID":191679,"DIS_CODE":0,"TOWNNAME":"中西區","LI":"萬昌里","LIN":"21鄰","STREET":"萬昌街","SECT":" ","MAREA":" ","LANE":" ","ALLEY":" ","HOUSE_NO":"７０號","E_COORD97":169058.72,"N_COORD97":2543534.48,"ADDRESS":"萬昌街７０號","OBJECTID":191678},"geometry":{"x":169058.71999999974,"y":2543534.4800000023}},{"attributes":{"ID":191680,"DIS_CODE":0,"TOWNNAME":"中西區","LI":"萬昌里","LIN":"21鄰","STREET":"萬昌街","SECT":" ","MAREA":" ","LANE":" ","ALLEY":" ","HOUSE_NO":"７６號","E_COORD97":169061.01000000001,"N_COORD97":2543544.7599999998,"ADDRESS":"萬昌街７６號","OBJECTID":191679},"geometry":{"x":169061.01000000071,"y":2543544.7600000016}},{"attributes":{"ID":191681,"DIS_CODE":0,"TOWNNAME":"中西區","LI":"萬昌里","LIN":"21鄰","STREET":"萬昌街","SECT":" ","MAREA":" ","LANE":" ","ALLEY":" ","HOUSE_NO":"７８號","E_COORD97":169063.45999999999,"N_COORD97":2543565.5,"ADDRESS":"萬昌街７８號","OBJECTID":191680},"geometry":{"x":169063.46000000089,"y":2543565.5}},{"attributes":{"ID":191682,"DIS_CODE":0,"TOWNNAME":"南區","LI":"府南里","LIN":"5鄰","STREET":"金華路","SECT":"一段","MAREA":" ","LANE":"４８４巷","ALLEY":"９９弄","HOUSE_NO":"１０９號","E_COORD97":167228.5,"N_COORD97":2541544.9199999999,"ADDRESS":"金華路一段４８４巷９９弄１０９號","OBJECTID":191681},"geometry":{"x":167228.50000000186,"y":2541544.9199999999}},{"attributes":{"ID":191683,"DIS_CODE":0,"TOWNNAME":"南區","LI":"府南里","LIN":"5鄰","STREET":"金華路","SECT":"一段","MAREA":" ","LANE":"４８４巷","ALLEY":"９９弄","HOUSE_NO":"１１１號","E_COORD97":167223.32000000001,"N_COORD97":2541545.9700000002,"ADDRESS":"金華路一段４８４巷９９弄１１１號","OBJECTID":191682},"geometry":{"x":167223.32000000123,"y":2541545.9700000007}},{"attributes":{"ID":191684,"DIS_CODE":0,"TOWNNAME":"南區","LI":"府南里","LIN":"5鄰","STREET":"金華路","SECT":"一段","MAREA":" ","LANE":"４８４巷","ALLEY":"９９弄","HOUSE_NO":"１１３號","E_COORD97":167219.78,"N_COORD97":2541547.0299999998,"ADDRESS":"金華路一段４８４巷９９弄１１３號","OBJECTID":191683},"geometry":{"x":167219.78000000026,"y":2541547.0299999993}},{"attributes":{"ID":191685,"DIS_CODE":0,"TOWNNAME":"南區","LI":"府南里","LIN":"5鄰","STREET":"金華路","SECT":"一段","MAREA":" ","LANE":"４８４巷","ALLEY":"９９弄","HOUSE_NO":"１１５號","E_COORD97":167216.16,"N_COORD97":2541549.2400000002,"ADDRESS":"金華路一段４８４巷９９弄１１５號","OBJECTID":191684},"geometry":{"x":167216.16000000108,"y":2541549.2400000021}},{"attributes":{"ID":191686,"DIS_CODE":0,"TOWNNAME":"南區","LI":"府南里","LIN":"5鄰","STREET":"金華路","SECT":"一段","MAREA":" ","LANE":"４８４巷","ALLEY":"９９弄","HOUSE_NO":"１１７號","E_COORD97":167210.5,"N_COORD97":2541551,"ADDRESS":"金華路一段４８４巷９９弄１１７號","OBJECTID":191685},"geometry":{"x":167210.50000000093,"y":2541551}},{"attributes":{"ID":191687,"DIS_CODE":0,"TOWNNAME":"南區","LI":"府南里","LIN":"5鄰","STREET":"金華路","SECT":"一段","MAREA":" ","LANE":"４８４巷","ALLEY":"９９弄","HOUSE_NO":"１１９號","E_COORD97":167216.42000000001,"N_COORD97":2541566.8999999999,"ADDRESS":"金華路一段４８４巷９９弄１１９號","OBJECTID":191686},"geometry":{"x":167216.41999999993,"y":2541566.9000000004}},{"attributes":{"ID":191688,"DIS_CODE":0,"TOWNNAME":"南區","LI":"府南里","LIN":"5鄰","STREET":"金華路","SECT":"一段","MAREA":" ","LANE":"４８４巷","ALLEY":"９９弄","HOUSE_NO":"１２１號","E_COORD97":167221.72,"N_COORD97":2541562.5699999998,"ADDRESS":"金華路一段４８４巷９９弄１２１號","OBJECTID":191687},"geometry":{"x":167221.72000000067,"y":2541562.570000004}},{"attributes":{"ID":191689,"DIS_CODE":0,"TOWNNAME":"南區","LI":"府南里","LIN":"5鄰","STREET":"金華路","SECT":"一段","MAREA":" ","LANE":"４８４巷","ALLEY":"９９弄","HOUSE_NO":"１２３號","E_COORD97":167225.51999999999,"N_COORD97":2541560.54,"ADDRESS":"金華路一段４８４巷９９弄１２３號","OBJECTID":191688},"geometry":{"x":167225.51999999955,"y":2541560.5399999991}},{"attributes":{"ID":191690,"DIS_CODE":0,"TOWNNAME":"南區","LI":"府南里","LIN":"5鄰","STREET":"金華路","SECT":"一段","MAREA":" ","LANE":"４８４巷","ALLEY":"９９弄","HOUSE_NO":"１２５號","E_COORD97":167229.82999999999,"N_COORD97":2541559.3900000001,"ADDRESS":"金華路一段４８４巷９９弄１２５號","OBJECTID":191689},"geometry":{"x":167229.83000000101,"y":2541559.3900000006}},{"attributes":{"ID":191691,"DIS_CODE":0,"TOWNNAME":"南區","LI":"府南里","LIN":"5鄰","STREET":"金華路","SECT":"一段","MAREA":" ","LANE":"４８４巷","ALLEY":"９９弄","HOUSE_NO":"１２７號","E_COORD97":167233.56,"N_COORD97":2541557.5600000001,"ADDRESS":"金華路一段４８４巷９９弄１２７號","OBJECTID":191690},"geometry":{"x":167233.55999999959,"y":2541557.5600000024}},{"attributes":{"ID":191692,"DIS_CODE":0,"TOWNNAME":"南區","LI":"府南里","LIN":"5鄰","STREET":"金華路","SECT":"一段","MAREA":" ","LANE":"４８４巷","ALLEY":"９９弄","HOUSE_NO":"１２９號","E_COORD97":167237.29999999999,"N_COORD97":2541555.9900000002,"ADDRESS":"金華路一段４８４巷９９弄１２９號","OBJECTID":191691},"geometry":{"x":167237.29999999981,"y":2541555.9900000002}},{"attributes":{"ID":191693,"DIS_CODE":0,"TOWNNAME":"南區","LI":"府南里","LIN":"5鄰","STREET":"金華路","SECT":"一段","MAREA":" ","LANE":"４８４巷","ALLEY":"９９弄","HOUSE_NO":"１３１號","E_COORD97":167240.95000000001,"N_COORD97":2541554.1600000001,"ADDRESS":"金華路一段４８４巷９９弄１３１號","OBJECTID":191692},"geometry":{"x":167240.95000000112,"y":2541554.1600000001}},{"attributes":{"ID":191694,"DIS_CODE":0,"TOWNNAME":"南區","LI":"府南里","LIN":"5鄰","STREET":"金華路","SECT":"一段","MAREA":" ","LANE":"４８４巷","ALLEY":"９９弄","HOUSE_NO":"１３３號","E_COORD97":167244.85000000001,"N_COORD97":2541552.6699999999,"ADDRESS":"金華路一段４８４巷９９弄１３３號","OBJECTID":191693},"geometry":{"x":167244.85000000056,"y":2541552.6700000018}},{"attributes":{"ID":191695,"DIS_CODE":0,"TOWNNAME":"南區","LI":"府南里","LIN":"5鄰","STREET":"金華路","SECT":"一段","MAREA":" ","LANE":"４８４巷","ALLEY":"９９弄","HOUSE_NO":"１４７號","E_COORD97":167271.66,"N_COORD97":2541541.3900000001,"ADDRESS":"金華路一段４８４巷９９弄１４７號","OBJECTID":191694},"geometry":{"x":167271.66000000201,"y":2541541.3900000025}},{"attributes":{"ID":191696,"DIS_CODE":0,"TOWNNAME":"南區","LI":"府南里","LIN":"5鄰","STREET":"金華路","SECT":"一段","MAREA":" ","LANE":"４８４巷","ALLEY":"９９弄","HOUSE_NO":"１４９號","E_COORD97":167275.73000000001,"N_COORD97":2541539.8100000001,"ADDRESS":"金華路一段４８４巷９９弄１４９號","OBJECTID":191695},"geometry":{"x":167275.73000000045,"y":2541539.8100000005}},{"attributes":{"ID":191697,"DIS_CODE":0,"TOWNNAME":"中西區","LI":"公正里","LIN":"1鄰","STREET":"北門路","SECT":"一段","MAREA":" ","LANE":" ","ALLEY":" ","HOUSE_NO":"１４９號","E_COORD97":169183.51000000001,"N_COORD97":2544005.1800000002,"ADDRESS":"北門路一段１４９號","OBJECTID":191696},"geometry":{"x":169183.50999999978,"y":2544005.1799999997}},{"attributes":{"ID":191698,"DIS_CODE":0,"TOWNNAME":"中西區","LI":"公正里","LIN":"1鄰","STREET":"北門路","SECT":"一段","MAREA":" ","LANE":" ","ALLEY":" ","HOUSE_NO":"１５５號","E_COORD97":169182.82999999999,"N_COORD97":2544021.6099999999,"ADDRESS":"北門路一段１５５號","OBJECTID":191697},"geometry":{"x":169182.83000000101,"y":2544021.6099999994}},{"attributes":{"ID":191699,"DIS_CODE":0,"TOWNNAME":"中西區","LI":"公正里","LIN":"1鄰","STREET":"北門路","SECT":"一段","MAREA":" ","LANE":" ","ALLEY":" ","HOUSE_NO":"１５９號","E_COORD97":169181.82999999999,"N_COORD97":2544035.7000000002,"ADDRESS":"北門路一段１５９號","OBJECTID":191698},"geometry":{"x":169181.83000000007,"y":2544035.700000003}},{"attributes":{"ID":191700,"DIS_CODE":0,"TOWNNAME":"中西區","LI":"萬昌里","LIN":"21鄰","STREET":"萬昌街","SECT":" ","MAREA":" ","LANE":" ","ALLEY":" ","HOUSE_NO":"８９號","E_COORD97":169050.01999999999,"N_COORD97":2543557.8399999999,"ADDRESS":"萬昌街８９號","OBJECTID":191699},"geometry":{"x":169050.01999999862,"y":2543557.8400000017}},{"attributes":{"ID":191701,"DIS_CODE":0,"TOWNNAME":"仁德區","LI":"上崙里","LIN":"26鄰","STREET":"中正路","SECT":"一段","MAREA":" ","LANE":" ","ALLEY":" ","HOUSE_NO":"７０４號","E_COORD97":172905.41,"N_COORD97":2537672.52,"ADDRESS":"中正路一段７０４號","OBJECTID":191700},"geometry":{"x":172905.41000000108,"y":2537672.5199999996}},{"attributes":{"ID":191702,"DIS_CODE":0,"TOWNNAME":"仁德區","LI":"一甲里","LIN":"17鄰","STREET":"中清路","SECT":" ","MAREA":" ","LANE":" ","ALLEY":" ","HOUSE_NO":"２８４號","E_COORD97":173757.95999999999,"N_COORD97":2541820.29,"ADDRESS":"中清路２８４號","OBJECTID":191701},"geometry":{"x":173757.95999999996,"y":2541820.2899999991}},{"attributes":{"ID":191703,"DIS_CODE":0,"TOWNNAME":"善化區","LI":"小新里","LIN":"22鄰","STREET":" ","SECT":" ","MAREA":"成功新村","LANE":" ","ALLEY":" ","HOUSE_NO":"６４號六樓","E_COORD97":180305.73000000001,"N_COORD97":2558670.25,"ADDRESS":"成功新村６４號六樓","OBJECTID":191702},"geometry":{"x":180305.73000000231,"y":2558670.2500000019}},{"attributes":{"ID":191704,"DIS_CODE":0,"TOWNNAME":"善化區","LI":"小新里","LIN":"22鄰","STREET":" ","SECT":" ","MAREA":"成功新村","LANE":" ","ALLEY":" ","HOUSE_NO":"３７號三樓","E_COORD97":180436.94,"N_COORD97":2558650,"ADDRESS":"成功新村３７號三樓","OBJECTID":191703},"geometry":{"x":180436.94000000134,"y":2558650}},{"attributes":{"ID":191705,"DIS_CODE":0,"TOWNNAME":"大內區","LI":"大內里","LIN":"3鄰","STREET":" ","SECT":" ","MAREA":"內庄","LANE":" ","ALLEY":" ","HOUSE_NO":"２７號","E_COORD97":184583.92999999999,"N_COORD97":2557476.25,"ADDRESS":"內庄２７號","OBJECTID":191704},"geometry":{"x":184583.93000000156,"y":2557476.2500000019}},{"attributes":{"ID":191706,"DIS_CODE":0,"TOWNNAME":"善化區","LI":"小新里","LIN":"22鄰","STREET":" ","SECT":" ","MAREA":"成功新村","LANE":" ","ALLEY":" ","HOUSE_NO":"３６號三樓","E_COORD97":180439,"N_COORD97":2558664,"ADDRESS":"成功新村３６號三樓","OBJECTID":191705},"geometry":{"x":180439.00000000186,"y":2558664.0000000037}},{"attributes":{"ID":191707,"DIS_CODE":0,"TOWNNAME":"善化區","LI":"小新里","LIN":"22鄰","STREET":" ","SECT":" ","MAREA":"成功新村","LANE":" ","ALLEY":" ","HOUSE_NO":"４１號六樓","E_COORD97":180459.14999999999,"N_COORD97":2558641.25,"ADDRESS":"成功新村４１號六樓","OBJECTID":191706},"geometry":{"x":180459.1500000013,"y":2558641.25}},{"attributes":{"ID":191708,"DIS_CODE":0,"TOWNNAME":"善化區","LI":"小新里","LIN":"22鄰","STREET":" ","SECT":" ","MAREA":"成功新村","LANE":" ","ALLEY":" ","HOUSE_NO":"２９號四樓","E_COORD97":180417.51000000001,"N_COORD97":2558657.25,"ADDRESS":"成功新村２９號四樓","OBJECTID":191707},"geometry":{"x":180417.51000000071,"y":2558657.25}},{"attributes":{"ID":191709,"DIS_CODE":0,"TOWNNAME":"善化區","LI":"小新里","LIN":"22鄰","STREET":" ","SECT":" ","MAREA":"成功新村","LANE":" ","ALLEY":" ","HOUSE_NO":"３６號六樓","E_COORD97":180439,"N_COORD97":2558664,"ADDRESS":"成功新村３６號六樓","OBJECTID":191708},"geometry":{"x":180439.00000000186,"y":2558664.0000000037}},{"attributes":{"ID":191710,"DIS_CODE":0,"TOWNNAME":"南區","LI":"府南里","LIN":"5鄰","STREET":"金華路","SECT":"一段","MAREA":" ","LANE":"４８４巷","ALLEY":"９９弄","HOUSE_NO":"１５１號","E_COORD97":167279.54000000001,"N_COORD97":2541537.8199999998,"ADDRESS":"金華路一段４８４巷９９弄１５１號","OBJECTID":191709},"geometry":{"x":167279.54000000097,"y":2541537.8200000022}},{"attributes":{"ID":191711,"DIS_CODE":0,"TOWNNAME":"東區","LI":"復興里","LIN":"5鄰","STREET":"富農街","SECT":"一段","MAREA":" ","LANE":"２１８巷","ALLEY":"３７弄","HOUSE_NO":"１２號","E_COORD97":171681.35999999999,"N_COORD97":2542595.52,"ADDRESS":"富農街一段２１８巷３７弄１２號","OBJECTID":191710},"geometry":{"x":171681.3600000022,"y":2542595.5199999996}},{"attributes":{"ID":191712,"DIS_CODE":0,"TOWNNAME":"安南區","LI":"溪心里","LIN":"5鄰","STREET":"本原街","SECT":"二段","MAREA":" ","LANE":"１０６巷","ALLEY":"３６弄","HOUSE_NO":"２７號","E_COORD97":166887.59,"N_COORD97":2550806.0699999998,"ADDRESS":"本原街二段１０６巷３６弄２７號","OBJECTID":191711},"geometry":{"x":166887.59000000078,"y":2550806.0700000022}},{"attributes":{"ID":191713,"DIS_CODE":0,"TOWNNAME":"安南區","LI":"溪心里","LIN":"5鄰","STREET":"本原街","SECT":"二段","MAREA":" ","LANE":"１０６巷","ALLEY":"３６弄","HOUSE_NO":"３１號","E_COORD97":166884.73999999999,"N_COORD97":2550798.1400000001,"ADDRESS":"本原街二段１０６巷３６弄３１號","OBJECTID":191712},"geometry":{"x":166884.74000000115,"y":2550798.1400000043}},{"attributes":{"ID":191714,"DIS_CODE":0,"TOWNNAME":"中西區","LI":"萬昌里","LIN":"21鄰","STREET":"萬昌街","SECT":" ","MAREA":" ","LANE":" ","ALLEY":" ","HOUSE_NO":"５８號","E_COORD97":169053.09,"N_COORD97":2543481.6600000001,"ADDRESS":"萬昌街５８號","OBJECTID":191713},"geometry":{"x":169053.08999999985,"y":2543481.660000002}},{"attributes":{"ID":191715,"DIS_CODE":0,"TOWNNAME":"中西區","LI":"萬昌里","LIN":"21鄰","STREET":"萬昌街","SECT":" ","MAREA":" ","LANE":" ","ALLEY":" ","HOUSE_NO":"６８號","E_COORD97":169053,"N_COORD97":2543507.23,"ADDRESS":"萬昌街６８號","OBJECTID":191714},"geometry":{"x":169053.00000000093,"y":2543507.2300000004}},{"attributes":{"ID":191716,"DIS_CODE":0,"TOWNNAME":"安南區","LI":"海東里","LIN":"21鄰","STREET":"海東二街","SECT":" ","MAREA":" ","LANE":" ","ALLEY":" ","HOUSE_NO":"５６號","E_COORD97":166900.87,"N_COORD97":2547921.0600000001,"ADDRESS":"海東二街５６號","OBJECTID":191715},"geometry":{"x":166900.87000000104,"y":2547921.0600000024}},{"attributes":{"ID":191717,"DIS_CODE":0,"TOWNNAME":"安南區","LI":"溪心里","LIN":"5鄰","STREET":"本原街","SECT":"二段","MAREA":" ","LANE":"１０６巷","ALLEY":"３６弄","HOUSE_NO":"３５號","E_COORD97":166881.72,"N_COORD97":2550790.52,"ADDRESS":"本原街二段１０６巷３６弄３５號","OBJECTID":191716},"geometry":{"x":166881.71999999974,"y":2550790.5199999996}},{"attributes":{"ID":191718,"DIS_CODE":0,"TOWNNAME":"安南區","LI":"安慶里","LIN":"5鄰","STREET":"頂安街","SECT":" ","MAREA":" ","LANE":"３７７巷","ALLEY":"６弄","HOUSE_NO":"２號","E_COORD97":169064.75,"N_COORD97":2549334.8799999999,"ADDRESS":"頂安街３７７巷６弄２號","OBJECTID":191717},"geometry":{"x":169064.75000000093,"y":2549334.8800000008}},{"attributes":{"ID":191719,"DIS_CODE":0,"TOWNNAME":"安南區","LI":"安慶里","LIN":"5鄰","STREET":"頂安街","SECT":" ","MAREA":" ","LANE":"３７７巷","ALLEY":"６弄","HOUSE_NO":"８號","E_COORD97":169066.01999999999,"N_COORD97":2549328.5299999998,"ADDRESS":"頂安街３７７巷６弄８號","OBJECTID":191718},"geometry":{"x":169066.02000000048,"y":2549328.5299999993}},{"attributes":{"ID":191720,"DIS_CODE":0,"TOWNNAME":"安南區","LI":"安慶里","LIN":"5鄰","STREET":"頂安街","SECT":" ","MAREA":" ","LANE":"３７７巷","ALLEY":"６弄","HOUSE_NO":"１號","E_COORD97":169070.94,"N_COORD97":2549336.7799999998,"ADDRESS":"頂安街３７７巷６弄１號","OBJECTID":191719},"geometry":{"x":169070.94000000134,"y":2549336.7799999993}},{"attributes":{"ID":191721,"DIS_CODE":0,"TOWNNAME":"安南區","LI":"安慶里","LIN":"5鄰","STREET":"頂安街","SECT":" ","MAREA":" ","LANE":"３７７巷","ALLEY":"６弄","HOUSE_NO":"３號","E_COORD97":169072.69,"N_COORD97":2549334.2400000002,"ADDRESS":"頂安街３７７巷６弄３號","OBJECTID":191720},"geometry":{"x":169072.69000000134,"y":2549334.2400000002}},{"attributes":{"ID":191722,"DIS_CODE":0,"TOWNNAME":"安南區","LI":"安慶里","LIN":"5鄰","STREET":"頂安街","SECT":" ","MAREA":" ","LANE":"３７７巷","ALLEY":"６弄","HOUSE_NO":"５號","E_COORD97":169074.12,"N_COORD97":2549330.9100000001,"ADDRESS":"頂安街３７７巷６弄５號","OBJECTID":191721},"geometry":{"x":169074.12000000104,"y":2549330.9100000039}},{"attributes":{"ID":191723,"DIS_CODE":0,"TOWNNAME":"安南區","LI":"安慶里","LIN":"5鄰","STREET":"頂安街","SECT":" ","MAREA":" ","LANE":"３７７巷","ALLEY":"６弄","HOUSE_NO":"７號","E_COORD97":169075.07000000001,"N_COORD97":2549328.3700000001,"ADDRESS":"頂安街３７７巷６弄７號","OBJECTID":191722},"geometry":{"x":169075.07000000123,"y":2549328.370000001}},{"attributes":{"ID":191724,"DIS_CODE":0,"TOWNNAME":"安南區","LI":"安慶里","LIN":"5鄰","STREET":"頂安街","SECT":" ","MAREA":" ","LANE":"３７７巷","ALLEY":"６弄","HOUSE_NO":"９號","E_COORD97":169075.23000000001,"N_COORD97":2549325.8300000001,"ADDRESS":"頂安街３７７巷６弄９號","OBJECTID":191723},"geometry":{"x":169075.23000000138,"y":2549325.8300000019}},{"attributes":{"ID":191725,"DIS_CODE":0,"TOWNNAME":"安南區","LI":"新順里","LIN":"21鄰","STREET":"育安三街","SECT":" ","MAREA":" ","LANE":" ","ALLEY":" ","HOUSE_NO":"３３號","E_COORD97":169256.92000000001,"N_COORD97":2549865.1000000001,"ADDRESS":"育安三街３３號","OBJECTID":191724},"geometry":{"x":169256.92000000086,"y":2549865.1000000015}},{"attributes":{"ID":191726,"DIS_CODE":0,"TOWNNAME":"善化區","LI":"小新里","LIN":"22鄰","STREET":" ","SECT":" ","MAREA":"成功新村","LANE":" ","ALLEY":" ","HOUSE_NO":"４６號六樓","E_COORD97":180462.64000000001,"N_COORD97":2558655.5,"ADDRESS":"成功新村４６號六樓","OBJECTID":191725},"geometry":{"x":180462.63999999966,"y":2558655.5}},{"attributes":{"ID":191727,"DIS_CODE":0,"TOWNNAME":"善化區","LI":"小新里","LIN":"22鄰","STREET":" ","SECT":" ","MAREA":"成功新村","LANE":" ","ALLEY":" ","HOUSE_NO":"３３號七樓","E_COORD97":180412.35000000001,"N_COORD97":2558674.25,"ADDRESS":"成功新村３３號七樓","OBJECTID":191726},"geometry":{"x":180412.34999999963,"y":2558674.25}},{"attributes":{"ID":191728,"DIS_CODE":0,"TOWNNAME":"善化區","LI":"小新里","LIN":"22鄰","STREET":" ","SECT":" ","MAREA":"成功新村","LANE":" ","ALLEY":" ","HOUSE_NO":"３４號四樓","E_COORD97":180420.60000000001,"N_COORD97":2558670.75,"ADDRESS":"成功新村３４號四樓","OBJECTID":191727},"geometry":{"x":180420.59999999963,"y":2558670.75}},{"attributes":{"ID":191729,"DIS_CODE":0,"TOWNNAME":"善化區","LI":"小新里","LIN":"22鄰","STREET":" ","SECT":" ","MAREA":"成功新村","LANE":" ","ALLEY":" ","HOUSE_NO":"４３號六樓","E_COORD97":180452.19,"N_COORD97":2558646,"ADDRESS":"成功新村４３號六樓","OBJECTID":191728},"geometry":{"x":180452.19000000134,"y":2558646}},{"attributes":{"ID":191730,"DIS_CODE":0,"TOWNNAME":"善化區","LI":"小新里","LIN":"22鄰","STREET":" ","SECT":" ","MAREA":"成功新村","LANE":" ","ALLEY":" ","HOUSE_NO":"３４號三樓","E_COORD97":180420.60000000001,"N_COORD97":2558670.75,"ADDRESS":"成功新村３４號三樓","OBJECTID":191729},"geometry":{"x":180420.59999999963,"y":2558670.75}},{"attributes":{"ID":191731,"DIS_CODE":0,"TOWNNAME":"善化區","LI":"坐駕里","LIN":"22鄰","STREET":" ","SECT":" ","MAREA":"坐駕","LANE":" ","ALLEY":" ","HOUSE_NO":"１３號","E_COORD97":178157.48000000001,"N_COORD97":2558428.8999999999,"ADDRESS":"坐駕１３號","OBJECTID":191730},"geometry":{"x":178157.48000000045,"y":2558428.9000000022}},{"attributes":{"ID":191732,"DIS_CODE":0,"TOWNNAME":"安南區","LI":"溪墘里","LIN":"21鄰","STREET":"府安路","SECT":"五段","MAREA":" ","LANE":" ","ALLEY":" ","HOUSE_NO":"２７１號","E_COORD97":167301.26999999999,"N_COORD97":2546810.1299999999,"ADDRESS":"府安路五段２７１號","OBJECTID":191731},"geometry":{"x":167301.27000000048,"y":2546810.1300000008}},{"attributes":{"ID":191733,"DIS_CODE":0,"TOWNNAME":"永康區","LI":"勝利里","LIN":"21鄰","STREET":"勝利街","SECT":" ","MAREA":" ","LANE":" ","ALLEY":" ","HOUSE_NO":"１８８號","E_COORD97":171398.63,"N_COORD97":2545168.5099999998,"ADDRESS":"勝利街１８８號","OBJECTID":191732},"geometry":{"x":171398.62999999989,"y":2545168.5099999998}},{"attributes":{"ID":191734,"DIS_CODE":0,"TOWNNAME":"安南區","LI":"安慶里","LIN":"5鄰","STREET":"頂安街","SECT":" ","MAREA":" ","LANE":"３７７巷","ALLEY":"６弄","HOUSE_NO":"１１號","E_COORD97":169076.01999999999,"N_COORD97":2549322.9700000002,"ADDRESS":"頂安街３７７巷６弄１１號","OBJECTID":191733},"geometry":{"x":169076.02000000048,"y":2549322.9700000007}},{"attributes":{"ID":191735,"DIS_CODE":0,"TOWNNAME":"安南區","LI":"安慶里","LIN":"5鄰","STREET":"頂安街","SECT":" ","MAREA":" ","LANE":"３７７巷","ALLEY":"６弄","HOUSE_NO":"１３號","E_COORD97":169076.82000000001,"N_COORD97":2549319.6400000001,"ADDRESS":"頂安街３７７巷６弄１３號","OBJECTID":191734},"geometry":{"x":169076.82000000123,"y":2549319.6400000043}},{"attributes":{"ID":191736,"DIS_CODE":0,"TOWNNAME":"安南區","LI":"砂崙里","LIN":"5鄰","STREET":"青砂街","SECT":"一段","MAREA":" ","LANE":"６３３巷","ALLEY":"２０弄","HOUSE_NO":"６７之１號","E_COORD97":159849.81,"N_COORD97":2552744.3500000001,"ADDRESS":"青砂街一段６３３巷２０弄６７之１號","OBJECTID":191735},"geometry":{"x":159849.80999999959,"y":2552744.3499999996}},{"attributes":{"ID":191737,"DIS_CODE":0,"TOWNNAME":"善化區","LI":"小新里","LIN":"22鄰","STREET":" ","SECT":" ","MAREA":"小新營","LANE":" ","ALLEY":" ","HOUSE_NO":"２１２號","E_COORD97":180461.11397499999,"N_COORD97":2558698.7856100001,"ADDRESS":"小新營２１２號","OBJECTID":191736},"geometry":{"x":180461.11397499964,"y":2558698.7856060024}},{"attributes":{"ID":191738,"DIS_CODE":0,"TOWNNAME":"善化區","LI":"小新里","LIN":"22鄰","STREET":" ","SECT":" ","MAREA":"小新營","LANE":" ","ALLEY":" ","HOUSE_NO":"２１０號","E_COORD97":180465.93271699999,"N_COORD97":2558696.8806099999,"ADDRESS":"小新營２１０號","OBJECTID":191737},"geometry":{"x":180465.93271700107,"y":2558696.8806070015}},{"attributes":{"ID":191739,"DIS_CODE":0,"TOWNNAME":"善化區","LI":"小新里","LIN":"22鄰","STREET":" ","SECT":" ","MAREA":"小新營","LANE":" ","ALLEY":" ","HOUSE_NO":"２０８號","E_COORD97":180470.327834,"N_COORD97":2558695.3460200001,"ADDRESS":"小新營２０８號","OBJECTID":191738},"geometry":{"x":180470.32783400081,"y":2558695.3460250031}},{"attributes":{"ID":191740,"DIS_CODE":0,"TOWNNAME":"善化區","LI":"小新里","LIN":"22鄰","STREET":" ","SECT":" ","MAREA":"小新營","LANE":" ","ALLEY":" ","HOUSE_NO":"２０６號","E_COORD97":180475.199529,"N_COORD97":2558693.4410299999,"ADDRESS":"小新營２０６號","OBJECTID":191739},"geometry":{"x":180475.19952899963,"y":2558693.4410260022}},{"attributes":{"ID":191741,"DIS_CODE":0,"TOWNNAME":"善化區","LI":"小新里","LIN":"22鄰","STREET":" ","SECT":" ","MAREA":"小新營","LANE":" ","ALLEY":" ","HOUSE_NO":"２１１號","E_COORD97":180463.920495,"N_COORD97":2558691.8006099998,"ADDRESS":"小新營２１１號","OBJECTID":191740},"geometry":{"x":180463.9204950016,"y":2558691.8006100021}},{"attributes":{"ID":191742,"DIS_CODE":0,"TOWNNAME":"善化區","LI":"小新里","LIN":"22鄰","STREET":" ","SECT":" ","MAREA":"小新營","LANE":" ","ALLEY":" ","HOUSE_NO":"２０９號","E_COORD97":180468.47447099999,"N_COORD97":2558689.89561,"ADDRESS":"小新營２０９號","OBJECTID":191741},"geometry":{"x":180468.47447100095,"y":2558689.8956109993}},{"attributes":{"ID":191743,"DIS_CODE":0,"TOWNNAME":"善化區","LI":"小新里","LIN":"22鄰","STREET":" ","SECT":" ","MAREA":"小新營","LANE":" ","ALLEY":" ","HOUSE_NO":"２０７號","E_COORD97":180473.24025999999,"N_COORD97":2558688.09644,"ADDRESS":"小新營２０７號","OBJECTID":191742},"geometry":{"x":180473.24026000034,"y":2558688.0964449998}},{"attributes":{"ID":191744,"DIS_CODE":0,"TOWNNAME":"善化區","LI":"小新里","LIN":"22鄰","STREET":" ","SECT":" ","MAREA":"小新營","LANE":" ","ALLEY":" ","HOUSE_NO":"２０５號","E_COORD97":180477.79423599999,"N_COORD97":2558686.5089500002,"ADDRESS":"小新營２０５號","OBJECTID":191743},"geometry":{"x":180477.7942359997,"y":2558686.5089460015}},{"attributes":{"ID":191745,"DIS_CODE":0,"TOWNNAME":"善化區","LI":"小新里","LIN":"22鄰","STREET":" ","SECT":" ","MAREA":"小新營","LANE":" ","ALLEY":" ","HOUSE_NO":"２０３號","E_COORD97":180482.13639999999,"N_COORD97":2558685.02728,"ADDRESS":"小新營２０３號","OBJECTID":191744},"geometry":{"x":180482.13640000019,"y":2558685.027280001}},{"attributes":{"ID":191746,"DIS_CODE":0,"TOWNNAME":"善化區","LI":"小新里","LIN":"22鄰","STREET":" ","SECT":" ","MAREA":"小新營","LANE":" ","ALLEY":" ","HOUSE_NO":"２０１號","E_COORD97":180487.219908,"N_COORD97":2558683.3339499999,"ADDRESS":"小新營２０１號","OBJECTID":191745},"geometry":{"x":180487.21990800183,"y":2558683.3339480031}},{"attributes":{"ID":191747,"DIS_CODE":0,"TOWNNAME":"仁德區","LI":"太子里","LIN":"5鄰","STREET":"太子路","SECT":" ","MAREA":" ","LANE":"１９０巷","ALLEY":"３３弄","HOUSE_NO":"１４號","E_COORD97":174276.39999999999,"N_COORD97":2543647.79,"ADDRESS":"太子路１９０巷３３弄１４號","OBJECTID":191746},"geometry":{"x":174276.40000000224,"y":2543647.7899999991}},{"attributes":{"ID":191748,"DIS_CODE":0,"TOWNNAME":"仁德區","LI":"太子里","LIN":"5鄰","STREET":"太子路","SECT":" ","MAREA":" ","LANE":"１９０巷","ALLEY":"３３弄","HOUSE_NO":"５號","E_COORD97":174293.14000000001,"N_COORD97":2543632.27,"ADDRESS":"太子路１９０巷３３弄５號","OBJECTID":191747},"geometry":{"x":174293.1400000006,"y":2543632.2700000033}},{"attributes":{"ID":191749,"DIS_CODE":0,"TOWNNAME":"仁德區","LI":"太子里","LIN":"5鄰","STREET":"太子路","SECT":" ","MAREA":" ","LANE":"１９０巷","ALLEY":"３３弄","HOUSE_NO":"９號","E_COORD97":174280,"N_COORD97":2543633.52,"ADDRESS":"太子路１９０巷３３弄９號","OBJECTID":191748},"geometry":{"x":174280,"y":2543633.5199999977}},{"attributes":{"ID":191750,"DIS_CODE":0,"TOWNNAME":"永康區","LI":"崑山里","LIN":"5鄰","STREET":"崑大路","SECT":" ","MAREA":" ","LANE":"１５５巷","ALLEY":"７９弄","HOUSE_NO":"１１號","E_COORD97":173652.51000000001,"N_COORD97":2544066.8399999999,"ADDRESS":"崑大路１５５巷７９弄１１號","OBJECTID":191749},"geometry":{"x":173652.50999999978,"y":2544066.8400000017}},{"attributes":{"ID":191751,"DIS_CODE":0,"TOWNNAME":"永康區","LI":"崑山里","LIN":"5鄰","STREET":"崑大路","SECT":" ","MAREA":" ","LANE":"１巷","ALLEY":" ","HOUSE_NO":"９８號","E_COORD97":173714.82000000001,"N_COORD97":2544164.0099999998,"ADDRESS":"崑大路１巷９８號","OBJECTID":191750},"geometry":{"x":173714.82000000123,"y":2544164.0100000016}},{"attributes":{"ID":191752,"DIS_CODE":0,"TOWNNAME":"永康區","LI":"埔園里","LIN":"5鄰","STREET":"中山路","SECT":" ","MAREA":" ","LANE":"１５８巷","ALLEY":"２４弄","HOUSE_NO":"１號","E_COORD97":173842.34,"N_COORD97":2547840.2799999998,"ADDRESS":"中山路１５８巷２４弄１號","OBJECTID":191751},"geometry":{"x":173842.34000000171,"y":2547840.2800000012}},{"attributes":{"ID":191753,"DIS_CODE":0,"TOWNNAME":"永康區","LI":"埔園里","LIN":"5鄰","STREET":"中山路","SECT":" ","MAREA":" ","LANE":"１５８巷","ALLEY":"２４弄","HOUSE_NO":"４號","E_COORD97":173837.54000000001,"N_COORD97":2547826.2799999998,"ADDRESS":"中山路１５８巷２４弄４號","OBJECTID":191752},"geometry":{"x":173837.54000000004,"y":2547826.2800000012}},{"attributes":{"ID":191754,"DIS_CODE":0,"TOWNNAME":"安南區","LI":"新順里","LIN":"5鄰","STREET":"安豐六街","SECT":" ","MAREA":" ","LANE":"１０巷","ALLEY":"７１弄","HOUSE_NO":"４６號","E_COORD97":169369.20000000001,"N_COORD97":2549429.96,"ADDRESS":"安豐六街１０巷７１弄４６號","OBJECTID":191753},"geometry":{"x":169369.20000000019,"y":2549429.9600000046}},{"attributes":{"ID":191755,"DIS_CODE":0,"TOWNNAME":"安南區","LI":"新順里","LIN":"5鄰","STREET":"安豐六街","SECT":" ","MAREA":" ","LANE":"１０巷","ALLEY":"７１弄","HOUSE_NO":"４２號","E_COORD97":169365.09,"N_COORD97":2549430.25,"ADDRESS":"安豐六街１０巷７１弄４２號","OBJECTID":191754},"geometry":{"x":169365.08999999985,"y":2549430.2500000037}},{"attributes":{"ID":191756,"DIS_CODE":0,"TOWNNAME":"安南區","LI":"佃東里","LIN":"5鄰","STREET":"十二佃路","SECT":" ","MAREA":" ","LANE":"２１６巷","ALLEY":"１３弄","HOUSE_NO":"１號","E_COORD97":165324.69,"N_COORD97":2552198.1099999999,"ADDRESS":"十二佃路２１６巷１３弄１號","OBJECTID":191755},"geometry":{"x":165324.69000000134,"y":2552198.1100000013}},{"attributes":{"ID":191757,"DIS_CODE":0,"TOWNNAME":"安南區","LI":"佃東里","LIN":"5鄰","STREET":"十二佃路","SECT":" ","MAREA":" ","LANE":"２１６巷","ALLEY":"１３弄","HOUSE_NO":"１１號","E_COORD97":165322.14999999999,"N_COORD97":2552177.48,"ADDRESS":"十二佃路２１６巷１３弄１１號","OBJECTID":191756},"geometry":{"x":165322.15000000037,"y":2552177.4800000004}},{"attributes":{"ID":191758,"DIS_CODE":0,"TOWNNAME":"安南區","LI":"佃東里","LIN":"5鄰","STREET":"十二佃路","SECT":" ","MAREA":" ","LANE":"２１６巷","ALLEY":"１３弄","HOUSE_NO":"１３號","E_COORD97":165308.34,"N_COORD97":2552178.75,"ADDRESS":"十二佃路２１６巷１３弄１３號","OBJECTID":191757},"geometry":{"x":165308.33999999985,"y":2552178.75}},{"attributes":{"ID":191759,"DIS_CODE":0,"TOWNNAME":"善化區","LI":"小新里","LIN":"22鄰","STREET":" ","SECT":" ","MAREA":"小新營","LANE":" ","ALLEY":" ","HOUSE_NO":"２３８號","E_COORD97":180408.119018,"N_COORD97":2558717.1797400001,"ADDRESS":"小新營２３８號","OBJECTID":191758},"geometry":{"x":180408.11901800055,"y":2558717.1797370017}},{"attributes":{"ID":191760,"DIS_CODE":0,"TOWNNAME":"善化區","LI":"小新里","LIN":"22鄰","STREET":" ","SECT":" ","MAREA":"小新營","LANE":" ","ALLEY":" ","HOUSE_NO":"２３１號","E_COORD97":180409.575231,"N_COORD97":2558709.1364099998,"ADDRESS":"小新營２３１號","OBJECTID":191759},"geometry":{"x":180409.57523100078,"y":2558709.1364079993}},{"attributes":{"ID":191761,"DIS_CODE":0,"TOWNNAME":"善化區","LI":"小新里","LIN":"22鄰","STREET":" ","SECT":" ","MAREA":"小新營","LANE":" ","ALLEY":" ","HOUSE_NO":"２３７號","E_COORD97":180398.25851399999,"N_COORD97":2558714.1314300001,"ADDRESS":"小新營２３７號","OBJECTID":191760},"geometry":{"x":180398.25851400197,"y":2558714.1314310003}},{"attributes":{"ID":191762,"DIS_CODE":0,"TOWNNAME":"善化區","LI":"小新里","LIN":"22鄰","STREET":" ","SECT":" ","MAREA":"小新營","LANE":" ","ALLEY":" ","HOUSE_NO":"２３０號","E_COORD97":180427.85935899999,"N_COORD97":2558711.0622700001,"ADDRESS":"小新營２３０號","OBJECTID":191761},"geometry":{"x":180427.85935900081,"y":2558711.0622660015}},{"attributes":{"ID":191763,"DIS_CODE":0,"TOWNNAME":"善化區","LI":"小新里","LIN":"22鄰","STREET":" ","SECT":" ","MAREA":"小新營","LANE":" ","ALLEY":" ","HOUSE_NO":"２２８號","E_COORD97":180432.41333499999,"N_COORD97":2558709.05143,"ADDRESS":"小新營２２８號","OBJECTID":191762},"geometry":{"x":180432.41333499923,"y":2558709.051434001}},{"attributes":{"ID":191764,"DIS_CODE":0,"TOWNNAME":"善化區","LI":"小新里","LIN":"22鄰","STREET":" ","SECT":" ","MAREA":"小新營","LANE":" ","ALLEY":" ","HOUSE_NO":"２２６號","E_COORD97":180437.496843,"N_COORD97":2558707.1464399998,"ADDRESS":"小新營２２６號","OBJECTID":191763},"geometry":{"x":180437.49684300181,"y":2558707.146435}},{"attributes":{"ID":191765,"DIS_CODE":0,"TOWNNAME":"善化區","LI":"小新里","LIN":"22鄰","STREET":" ","SECT":" ","MAREA":"小新營","LANE":" ","ALLEY":" ","HOUSE_NO":"２２２號","E_COORD97":180441.94491300001,"N_COORD97":2558705.4531,"ADDRESS":"小新營２２２號","OBJECTID":191764},"geometry":{"x":180441.9449130008,"y":2558705.4531030022}},{"attributes":{"ID":191766,"DIS_CODE":0,"TOWNNAME":"善化區","LI":"小新里","LIN":"22鄰","STREET":" ","SECT":" ","MAREA":"小新營","LANE":" ","ALLEY":" ","HOUSE_NO":"２２０號","E_COORD97":180446.81660799999,"N_COORD97":2558703.7597699999,"ADDRESS":"小新營２２０號","OBJECTID":191765},"geometry":{"x":180446.81660800055,"y":2558703.7597700004}},{"attributes":{"ID":191767,"DIS_CODE":0,"TOWNNAME":"善化區","LI":"小新里","LIN":"22鄰","STREET":" ","SECT":" ","MAREA":"小新營","LANE":" ","ALLEY":" ","HOUSE_NO":"２１８號","E_COORD97":180451.58239699999,"N_COORD97":2558702.2781000002,"ADDRESS":"小新營２１８號","OBJECTID":191766},"geometry":{"x":180451.58239699993,"y":2558702.2781039998}},{"attributes":{"ID":191768,"DIS_CODE":0,"TOWNNAME":"善化區","LI":"小新里","LIN":"22鄰","STREET":" ","SECT":" ","MAREA":"小新營","LANE":" ","ALLEY":" ","HOUSE_NO":"２１６號","E_COORD97":180456.454092,"N_COORD97":2558700.5847700001,"ADDRESS":"小新營２１６號","OBJECTID":191767},"geometry":{"x":180456.45409200154,"y":2558700.5847720001}},{"attributes":{"ID":191769,"DIS_CODE":0,"TOWNNAME":"善化區","LI":"小新里","LIN":"22鄰","STREET":" ","SECT":" ","MAREA":"小新營","LANE":" ","ALLEY":" ","HOUSE_NO":"２２７號","E_COORD97":180426.429622,"N_COORD97":2558706.2997699999,"ADDRESS":"小新營２２７號","OBJECTID":191768},"geometry":{"x":180426.42962200101,"y":2558706.2997689992}},{"attributes":{"ID":191770,"DIS_CODE":0,"TOWNNAME":"善化區","LI":"小新里","LIN":"22鄰","STREET":" ","SECT":" ","MAREA":"小新營","LANE":" ","ALLEY":" ","HOUSE_NO":"２２５號","E_COORD97":180430.87769200001,"N_COORD97":2558704.3947700001,"ADDRESS":"小新營２２５號","OBJECTID":191769},"geometry":{"x":180430.87769200094,"y":2558704.3947700001}},{"attributes":{"ID":191771,"DIS_CODE":0,"TOWNNAME":"善化區","LI":"小新里","LIN":"22鄰","STREET":" ","SECT":" ","MAREA":"小新營","LANE":" ","ALLEY":" ","HOUSE_NO":"２２３號","E_COORD97":180435.219855,"N_COORD97":2558701.6431,"ADDRESS":"小新營２２３號","OBJECTID":191770},"geometry":{"x":180435.21985500213,"y":2558701.6431050021}},{"attributes":{"ID":191772,"DIS_CODE":0,"TOWNNAME":"善化區","LI":"小新里","LIN":"22鄰","STREET":" ","SECT":" ","MAREA":"小新營","LANE":" ","ALLEY":" ","HOUSE_NO":"２２１號","E_COORD97":180440.197457,"N_COORD97":2558700.2672700002,"ADDRESS":"小新營２２１號","OBJECTID":191771},"geometry":{"x":180440.19745699968,"y":2558700.2672719993}},{"attributes":{"ID":191773,"DIS_CODE":0,"TOWNNAME":"善化區","LI":"小新里","LIN":"22鄰","STREET":" ","SECT":" ","MAREA":"小新營","LANE":" ","ALLEY":" ","HOUSE_NO":"２１９號","E_COORD97":180444.751433,"N_COORD97":2558698.8914399999,"ADDRESS":"小新營２１９號","OBJECTID":191772},"geometry":{"x":180444.7514330009,"y":2558698.8914400022}},{"attributes":{"ID":191774,"DIS_CODE":0,"TOWNNAME":"善化區","LI":"小新里","LIN":"22鄰","STREET":" ","SECT":" ","MAREA":"小新營","LANE":" ","ALLEY":" ","HOUSE_NO":"２１７號","E_COORD97":180449.729035,"N_COORD97":2558696.8806099999,"ADDRESS":"小新營２１７號","OBJECTID":191773},"geometry":{"x":180449.72903500125,"y":2558696.8806070015}},{"attributes":{"ID":191775,"DIS_CODE":0,"TOWNNAME":"善化區","LI":"小新里","LIN":"22鄰","STREET":" ","SECT":" ","MAREA":"小新營","LANE":" ","ALLEY":" ","HOUSE_NO":"２１５號","E_COORD97":180454.177104,"N_COORD97":2558694.9756100001,"ADDRESS":"小新營２１５號","OBJECTID":191774},"geometry":{"x":180454.17710400186,"y":2558694.9756080024}},{"attributes":{"ID":191776,"DIS_CODE":0,"TOWNNAME":"善化區","LI":"小新里","LIN":"22鄰","STREET":" ","SECT":" ","MAREA":"小新營","LANE":" ","ALLEY":" ","HOUSE_NO":"２３３號","E_COORD97":180405.883776,"N_COORD97":2558711.2739300001,"ADDRESS":"小新營２３３號","OBJECTID":191775},"geometry":{"x":180405.8837760007,"y":2558711.2739330027}},{"attributes":{"ID":191777,"DIS_CODE":0,"TOWNNAME":"安南區","LI":"佃東里","LIN":"5鄰","STREET":"十二佃路","SECT":" ","MAREA":" ","LANE":"２１６巷","ALLEY":"１３弄","HOUSE_NO":"１５號","E_COORD97":165308.82000000001,"N_COORD97":2552183.8300000001,"ADDRESS":"十二佃路２１６巷１３弄１５號","OBJECTID":191776},"geometry":{"x":165308.8200000003,"y":2552183.8300000019}},{"attributes":{"ID":191778,"DIS_CODE":0,"TOWNNAME":"安南區","LI":"佃東里","LIN":"5鄰","STREET":"十二佃路","SECT":" ","MAREA":" ","LANE":"２１６巷","ALLEY":"１３弄","HOUSE_NO":"１７號","E_COORD97":165309.60999999999,"N_COORD97":2552188.4300000002,"ADDRESS":"十二佃路２１６巷１３弄１７號","OBJECTID":191777},"geometry":{"x":165309.61000000127,"y":2552188.4300000034}},{"attributes":{"ID":191779,"DIS_CODE":0,"TOWNNAME":"安南區","LI":"佃東里","LIN":"5鄰","STREET":"十二佃路","SECT":" ","MAREA":" ","LANE":"２１６巷","ALLEY":"１３弄","HOUSE_NO":"１９號","E_COORD97":165310.39999999999,"N_COORD97":2552192.8799999999,"ADDRESS":"十二佃路２１６巷１３弄１９號","OBJECTID":191778},"geometry":{"x":165310.39999999944,"y":2552192.8800000008}},{"attributes":{"ID":191780,"DIS_CODE":0,"TOWNNAME":"安南區","LI":"佃東里","LIN":"5鄰","STREET":"十二佃路","SECT":" ","MAREA":" ","LANE":"２１６巷","ALLEY":"１３弄","HOUSE_NO":"２１號","E_COORD97":165310.88,"N_COORD97":2552195.8900000001,"ADDRESS":"十二佃路２１６巷１３弄２１號","OBJECTID":191779},"geometry":{"x":165310.88000000082,"y":2552195.8900000006}},{"attributes":{"ID":191781,"DIS_CODE":0,"TOWNNAME":"安南區","LI":"佃東里","LIN":"5鄰","STREET":"十二佃路","SECT":" ","MAREA":" ","LANE":"２１６巷","ALLEY":"１３弄","HOUSE_NO":"２３號","E_COORD97":165311.04000000001,"N_COORD97":2552200.1800000002,"ADDRESS":"十二佃路２１６巷１３弄２３號","OBJECTID":191780},"geometry":{"x":165311.0400000019,"y":2552200.1800000034}},{"attributes":{"ID":191782,"DIS_CODE":0,"TOWNNAME":"安南區","LI":"佃東里","LIN":"5鄰","STREET":"十二佃路","SECT":" ","MAREA":" ","LANE":"２１６巷","ALLEY":"１３弄","HOUSE_NO":"２５號","E_COORD97":165294.69,"N_COORD97":2552204.7799999998,"ADDRESS":"十二佃路２１６巷１３弄２５號","OBJECTID":191781},"geometry":{"x":165294.69000000041,"y":2552204.7799999993}},{"attributes":{"ID":191783,"DIS_CODE":0,"TOWNNAME":"安南區","LI":"佃東里","LIN":"5鄰","STREET":"十二佃路","SECT":" ","MAREA":" ","LANE":"２１６巷","ALLEY":"１３弄","HOUSE_NO":"２７號","E_COORD97":165294.20999999999,"N_COORD97":2552198.75,"ADDRESS":"十二佃路２１６巷１３弄２７號","OBJECTID":191782},"geometry":{"x":165294.20999999996,"y":2552198.75}},{"attributes":{"ID":191784,"DIS_CODE":0,"TOWNNAME":"安南區","LI":"佃東里","LIN":"5鄰","STREET":"十二佃路","SECT":" ","MAREA":" ","LANE":"２１６巷","ALLEY":"１３弄","HOUSE_NO":"３號","E_COORD97":165324.20999999999,"N_COORD97":2552195.2599999998,"ADDRESS":"十二佃路２１６巷１３弄３號","OBJECTID":191783},"geometry":{"x":165324.20999999996,"y":2552195.2599999998}},{"attributes":{"ID":191785,"DIS_CODE":0,"TOWNNAME":"安南區","LI":"佃東里","LIN":"5鄰","STREET":"十二佃路","SECT":" ","MAREA":" ","LANE":"２１６巷","ALLEY":"１３弄","HOUSE_NO":"２９號","E_COORD97":165294.37,"N_COORD97":2552195.2599999998,"ADDRESS":"十二佃路２１６巷１３弄２９號","OBJECTID":191784},"geometry":{"x":165294.37000000011,"y":2552195.2599999998}},{"attributes":{"ID":191786,"DIS_CODE":0,"TOWNNAME":"安南區","LI":"佃東里","LIN":"5鄰","STREET":"十二佃路","SECT":" ","MAREA":" ","LANE":"２１６巷","ALLEY":"１３弄","HOUSE_NO":"３１號","E_COORD97":165293.10000000001,"N_COORD97":2552190.3399999999,"ADDRESS":"十二佃路２１６巷１３弄３１號","OBJECTID":191785},"geometry":{"x":165293.10000000149,"y":2552190.3400000017}},{"attributes":{"ID":191787,"DIS_CODE":0,"TOWNNAME":"安南區","LI":"佃東里","LIN":"5鄰","STREET":"十二佃路","SECT":" ","MAREA":" ","LANE":"２１６巷","ALLEY":"１３弄","HOUSE_NO":"３３號","E_COORD97":165292.62,"N_COORD97":2552187.9500000002,"ADDRESS":"十二佃路２１６巷１３弄３３號","OBJECTID":191786},"geometry":{"x":165292.62000000104,"y":2552187.950000003}},{"attributes":{"ID":191788,"DIS_CODE":0,"TOWNNAME":"安南區","LI":"佃東里","LIN":"5鄰","STREET":"十二佃路","SECT":" ","MAREA":" ","LANE":"２１６巷","ALLEY":"１３弄","HOUSE_NO":"３５號","E_COORD97":165292.14999999999,"N_COORD97":2552185.1000000001,"ADDRESS":"十二佃路２１６巷１３弄３５號","OBJECTID":191787},"geometry":{"x":165292.1500000013,"y":2552185.1000000015}},{"attributes":{"ID":191789,"DIS_CODE":0,"TOWNNAME":"安南區","LI":"佃東里","LIN":"5鄰","STREET":"十二佃路","SECT":" ","MAREA":" ","LANE":"２１６巷","ALLEY":"１３弄","HOUSE_NO":"３７號","E_COORD97":165290.39999999999,"N_COORD97":2552181.29,"ADDRESS":"十二佃路２１６巷１３弄３７號","OBJECTID":191788},"geometry":{"x":165290.4000000013,"y":2552181.2899999991}},{"attributes":{"ID":191790,"DIS_CODE":0,"TOWNNAME":"永康區","LI":"崑山里","LIN":"21鄰","STREET":"大仁街","SECT":" ","MAREA":" ","LANE":"３１巷","ALLEY":" ","HOUSE_NO":"１０號","E_COORD97":173754.32999999999,"N_COORD97":2544617.3900000001,"ADDRESS":"大仁街３１巷１０號","OBJECTID":191789},"geometry":{"x":173754.32999999914,"y":2544617.3900000006}},{"attributes":{"ID":191791,"DIS_CODE":0,"TOWNNAME":"佳里區","LI":"東寧里","LIN":"15鄰","STREET":"延平路","SECT":" ","MAREA":" ","LANE":" ","ALLEY":" ","HOUSE_NO":"２９８號","E_COORD97":165879.16,"N_COORD97":2562340.8100000001,"ADDRESS":"延平路２９８號","OBJECTID":191790},"geometry":{"x":165879.16000000015,"y":2562340.8100000042}},{"attributes":{"ID":191792,"DIS_CODE":0,"TOWNNAME":"佳里區","LI":"東寧里","LIN":"15鄰","STREET":"延平路","SECT":" ","MAREA":" ","LANE":" ","ALLEY":" ","HOUSE_NO":"３００號","E_COORD97":165878.98000000001,"N_COORD97":2562345.8599999999,"ADDRESS":"延平路３００號","OBJECTID":191791},"geometry":{"x":165878.98000000045,"y":2562345.8599999994}},{"attributes":{"ID":191793,"DIS_CODE":0,"TOWNNAME":"佳里區","LI":"東寧里","LIN":"15鄰","STREET":"延平路","SECT":" ","MAREA":" ","LANE":" ","ALLEY":" ","HOUSE_NO":"３０２號","E_COORD97":165879.10999999999,"N_COORD97":2562350.3399999999,"ADDRESS":"延平路３０２號","OBJECTID":191792},"geometry":{"x":165879.11000000127,"y":2562350.3400000036}},{"attributes":{"ID":191794,"DIS_CODE":0,"TOWNNAME":"佳里區","LI":"東寧里","LIN":"15鄰","STREET":"延平路","SECT":" ","MAREA":" ","LANE":" ","ALLEY":" ","HOUSE_NO":"３０４號","E_COORD97":165877.82999999999,"N_COORD97":2562372.9500000002,"ADDRESS":"延平路３０４號","OBJECTID":191793},"geometry":{"x":165877.83000000007,"y":2562372.9500000011}},{"attributes":{"ID":191795,"DIS_CODE":0,"TOWNNAME":"佳里區","LI":"東寧里","LIN":"15鄰","STREET":"延平路","SECT":" ","MAREA":" ","LANE":" ","ALLEY":" ","HOUSE_NO":"３１８號","E_COORD97":165874.76999999999,"N_COORD97":2562386.52,"ADDRESS":"延平路３１８號","OBJECTID":191794},"geometry":{"x":165874.76999999955,"y":2562386.5200000014}},{"attributes":{"ID":191796,"DIS_CODE":0,"TOWNNAME":"仁德區","LI":"後壁里","LIN":"21鄰","STREET":"中正路","SECT":"二段","MAREA":" ","LANE":" ","ALLEY":" ","HOUSE_NO":"８９號","E_COORD97":173121.51999999999,"N_COORD97":2538487.52,"ADDRESS":"中正路二段８９號","OBJECTID":191795},"geometry":{"x":173121.51999999955,"y":2538487.5200000014}},{"attributes":{"ID":191797,"DIS_CODE":0,"TOWNNAME":"仁德區","LI":"保安里","LIN":"21鄰","STREET":"文賢路","SECT":"一段","MAREA":" ","LANE":" ","ALLEY":" ","HOUSE_NO":"６２６號","E_COORD97":171128.04000000001,"N_COORD97":2536698.0800000001,"ADDRESS":"文賢路一段６２６號","OBJECTID":191796},"geometry":{"x":171128.04000000004,"y":2536698.0800000019}},{"attributes":{"ID":191798,"DIS_CODE":0,"TOWNNAME":"仁德區","LI":"保安里","LIN":"21鄰","STREET":"文賢路","SECT":"一段","MAREA":" ","LANE":" ","ALLEY":" ","HOUSE_NO":"６３２號","E_COORD97":171130.57999999999,"N_COORD97":2536685.8300000001,"ADDRESS":"文賢路一段６３２號","OBJECTID":191797},"geometry":{"x":171130.58000000101,"y":2536685.8300000019}},{"attributes":{"ID":191799,"DIS_CODE":0,"TOWNNAME":"安南區","LI":"佃東里","LIN":"5鄰","STREET":"十二佃路","SECT":" ","MAREA":" ","LANE":"２１６巷","ALLEY":"１３弄","HOUSE_NO":"３９號","E_COORD97":165272.78,"N_COORD97":2552183.5099999998,"ADDRESS":"十二佃路２１６巷１３弄３９號","OBJECTID":191798},"geometry":{"x":165272.78000000119,"y":2552183.5099999998}},{"attributes":{"ID":191800,"DIS_CODE":0,"TOWNNAME":"安南區","LI":"佃東里","LIN":"5鄰","STREET":"十二佃路","SECT":" ","MAREA":" ","LANE":"２１６巷","ALLEY":"１３弄","HOUSE_NO":"４１號","E_COORD97":165273.41,"N_COORD97":2552186.21,"ADDRESS":"十二佃路２１６巷１３弄４１號","OBJECTID":191799},"geometry":{"x":165273.41000000108,"y":2552186.2100000009}},{"attributes":{"ID":191801,"DIS_CODE":0,"TOWNNAME":"安南區","LI":"佃東里","LIN":"5鄰","STREET":"十二佃路","SECT":" ","MAREA":" ","LANE":"２１６巷","ALLEY":"１３弄","HOUSE_NO":"４３號","E_COORD97":165274.37,"N_COORD97":2552189.2200000002,"ADDRESS":"十二佃路２１６巷１３弄４３號","OBJECTID":191800},"geometry":{"x":165274.37000000011,"y":2552189.2200000007}}]}