{"displayFieldName":"TOWNNAME","fieldAliases":{"ID":"ID","DIS_CODE":"DIS_CODE","TOWNNAME":"TOWNNAME","LI":"LI","LIN":"LIN","STREET":"STREET","SECT":"SECT","MAREA":"MAREA","LANE":"LANE","ALLEY":"ALLEY","HOUSE_NO":"HOUSE_NO","E_COORD97":"E_COORD97","N_COORD97":"N_COORD97","ADDRESS":"ADDRESS","OBJECTID":"OBJECTID"},"geometryType":"esriGeometryPoint","spatialReference":{"wkid":102443,"latestWkid":3826},"fields":[{"name":"ID","type":"esriFieldTypeDouble","alias":"ID"},{"name":"DIS_CODE","type":"esriFieldTypeInteger","alias":"DIS_CODE"},{"name":"TOWNNAME","type":"esriFieldTypeString","alias":"TOWNNAME","length":8},{"name":"LI","type":"esriFieldTypeString","alias":"LI","length":8},{"name":"LIN","type":"esriFieldTypeString","alias":"LIN","length":12},{"name":"STREET","type":"esriFieldTypeString","alias":"STREET","length":20},{"name":"SECT","type":"esriFieldTypeString","alias":"SECT","length":8},{"name":"MAREA","type":"esriFieldTypeString","alias":"MAREA","length":12},{"name":"LANE","type":"esriFieldTypeString","alias":"LANE","length":10},{"name":"ALLEY","type":"esriFieldTypeString","alias":"ALLEY","length":10},{"name":"HOUSE_NO","type":"esriFieldTypeString","alias":"HOUSE_NO","length":20},{"name":"E_COORD97","type":"esriFieldTypeDouble","alias":"E_COORD97"},{"name":"N_COORD97","type":"esriFieldTypeDouble","alias":"N_COORD97"},{"name":"ADDRESS","type":"esriFieldTypeString","alias":"ADDRESS","length":50},{"name":"OBJECTID","type":"esriFieldTypeOID","alias":"OBJECTID"}],"features":[{"attributes":{"ID":289807,"DIS_CODE":0,"TOWNNAME":"東區","LI":"虎尾里","LIN":"19鄰","STREET":"東成街","SECT":" ","MAREA":" ","LANE":" ","ALLEY":" ","HOUSE_NO":"３８號","E_COORD97":171340.92999999999,"N_COORD97":2542244.0800000001,"ADDRESS":"東成街３８號","OBJECTID":289801},"geometry":{"x":171340.9299999997,"y":2542244.0800000038}},{"attributes":{"ID":289808,"DIS_CODE":0,"TOWNNAME":"善化區","LI":"文昌里","LIN":"13鄰","STREET":"大信路","SECT":" ","MAREA":" ","LANE":" ","ALLEY":" ","HOUSE_NO":"２４號","E_COORD97":177542.14999999999,"N_COORD97":2558894.3300000001,"ADDRESS":"大信路２４號","OBJECTID":289802},"geometry":{"x":177542.1500000013,"y":2558894.3300000001}},{"attributes":{"ID":289809,"DIS_CODE":0,"TOWNNAME":"善化區","LI":"文昌里","LIN":"15鄰","STREET":"文昌路","SECT":" ","MAREA":" ","LANE":" ","ALLEY":" ","HOUSE_NO":"９號","E_COORD97":177545.85999999999,"N_COORD97":2558772.0299999998,"ADDRESS":"文昌路９號","OBJECTID":289803},"geometry":{"x":177545.86000000034,"y":2558772.0300000012}},{"attributes":{"ID":289810,"DIS_CODE":0,"TOWNNAME":"善化區","LI":"文昌里","LIN":"13鄰","STREET":"大信路","SECT":" ","MAREA":" ","LANE":" ","ALLEY":" ","HOUSE_NO":"３６號","E_COORD97":177540.48999999999,"N_COORD97":2558842.25,"ADDRESS":"大信路３６號","OBJECTID":289804},"geometry":{"x":177540.49000000209,"y":2558842.2500000019}},{"attributes":{"ID":289811,"DIS_CODE":0,"TOWNNAME":"善化區","LI":"文昌里","LIN":"13鄰","STREET":"文昌路","SECT":" ","MAREA":" ","LANE":" ","ALLEY":" ","HOUSE_NO":"１４號之１","E_COORD97":177536.45999999999,"N_COORD97":2558825.0299999998,"ADDRESS":"文昌路１４號之１","OBJECTID":289805},"geometry":{"x":177536.45999999996,"y":2558825.0299999993}},{"attributes":{"ID":289812,"DIS_CODE":0,"TOWNNAME":"鹽水區","LI":"橋南里","LIN":"21鄰","STREET":"新中路","SECT":" ","MAREA":" ","LANE":"８２巷","ALLEY":" ","HOUSE_NO":"６０號一樓","E_COORD97":175874.17000000001,"N_COORD97":2578693.4199999999,"ADDRESS":"新中路８２巷６０號一樓","OBJECTID":289806},"geometry":{"x":175874.16999999993,"y":2578693.4199999999}},{"attributes":{"ID":289813,"DIS_CODE":0,"TOWNNAME":"鹽水區","LI":"橋南里","LIN":"21鄰","STREET":"新中路","SECT":" ","MAREA":" ","LANE":"８２巷","ALLEY":" ","HOUSE_NO":"６０號二樓","E_COORD97":175874.17000000001,"N_COORD97":2578693.4199999999,"ADDRESS":"新中路８２巷６０號二樓","OBJECTID":289807},"geometry":{"x":175874.16999999993,"y":2578693.4199999999}},{"attributes":{"ID":289814,"DIS_CODE":0,"TOWNNAME":"鹽水區","LI":"橋南里","LIN":"21鄰","STREET":"新中路","SECT":" ","MAREA":" ","LANE":"８２巷","ALLEY":" ","HOUSE_NO":"６０號三樓","E_COORD97":175874.17000000001,"N_COORD97":2578693.4199999999,"ADDRESS":"新中路８２巷６０號三樓","OBJECTID":289808},"geometry":{"x":175874.16999999993,"y":2578693.4199999999}},{"attributes":{"ID":289815,"DIS_CODE":0,"TOWNNAME":"永康區","LI":"甲頂里","LIN":"8鄰","STREET":"中華路","SECT":" ","MAREA":" ","LANE":"８９３巷","ALLEY":" ","HOUSE_NO":"８號","E_COORD97":170462.20999999999,"N_COORD97":2546649.5299999998,"ADDRESS":"中華路８９３巷８號","OBJECTID":289809},"geometry":{"x":170462.20999999996,"y":2546649.5299999993}},{"attributes":{"ID":289816,"DIS_CODE":0,"TOWNNAME":"鹽水區","LI":"橋南里","LIN":"21鄰","STREET":"新中路","SECT":" ","MAREA":" ","LANE":"８２巷","ALLEY":" ","HOUSE_NO":"６０號五樓","E_COORD97":175874.17000000001,"N_COORD97":2578693.4199999999,"ADDRESS":"新中路８２巷６０號五樓","OBJECTID":289810},"geometry":{"x":175874.16999999993,"y":2578693.4199999999}},{"attributes":{"ID":289817,"DIS_CODE":0,"TOWNNAME":"鹽水區","LI":"橋南里","LIN":"21鄰","STREET":"新中路","SECT":" ","MAREA":" ","LANE":"８２巷","ALLEY":" ","HOUSE_NO":"６０號四樓","E_COORD97":175874.17000000001,"N_COORD97":2578693.4199999999,"ADDRESS":"新中路８２巷６０號四樓","OBJECTID":289811},"geometry":{"x":175874.16999999993,"y":2578693.4199999999}},{"attributes":{"ID":289818,"DIS_CODE":0,"TOWNNAME":"鹽水區","LI":"橋南里","LIN":"21鄰","STREET":"新中路","SECT":" ","MAREA":" ","LANE":"８２巷","ALLEY":" ","HOUSE_NO":"６２號一樓","E_COORD97":175874.67000000001,"N_COORD97":2578702.6699999999,"ADDRESS":"新中路８２巷６２號一樓","OBJECTID":289812},"geometry":{"x":175874.67000000086,"y":2578702.6699999999}},{"attributes":{"ID":289819,"DIS_CODE":0,"TOWNNAME":"鹽水區","LI":"橋南里","LIN":"21鄰","STREET":"新中路","SECT":" ","MAREA":" ","LANE":"８２巷","ALLEY":" ","HOUSE_NO":"６２號二樓","E_COORD97":175874.67000000001,"N_COORD97":2578702.6699999999,"ADDRESS":"新中路８２巷６２號二樓","OBJECTID":289813},"geometry":{"x":175874.67000000086,"y":2578702.6699999999}},{"attributes":{"ID":289820,"DIS_CODE":0,"TOWNNAME":"鹽水區","LI":"橋南里","LIN":"21鄰","STREET":"新中路","SECT":" ","MAREA":" ","LANE":"８２巷","ALLEY":" ","HOUSE_NO":"６２號三樓","E_COORD97":175874.67000000001,"N_COORD97":2578702.6699999999,"ADDRESS":"新中路８２巷６２號三樓","OBJECTID":289814},"geometry":{"x":175874.67000000086,"y":2578702.6699999999}},{"attributes":{"ID":289821,"DIS_CODE":0,"TOWNNAME":"鹽水區","LI":"橋南里","LIN":"21鄰","STREET":"新中路","SECT":" ","MAREA":" ","LANE":"８２巷","ALLEY":" ","HOUSE_NO":"６２號五樓","E_COORD97":175874.67000000001,"N_COORD97":2578702.6699999999,"ADDRESS":"新中路８２巷６２號五樓","OBJECTID":289815},"geometry":{"x":175874.67000000086,"y":2578702.6699999999}},{"attributes":{"ID":289822,"DIS_CODE":0,"TOWNNAME":"鹽水區","LI":"橋南里","LIN":"21鄰","STREET":"新中路","SECT":" ","MAREA":" ","LANE":"８２巷","ALLEY":" ","HOUSE_NO":"６２號四樓","E_COORD97":175874.67000000001,"N_COORD97":2578702.6699999999,"ADDRESS":"新中路８２巷６２號四樓","OBJECTID":289816},"geometry":{"x":175874.67000000086,"y":2578702.6699999999}},{"attributes":{"ID":289823,"DIS_CODE":0,"TOWNNAME":"永康區","LI":"甲頂里","LIN":"9鄰","STREET":"中華路","SECT":" ","MAREA":" ","LANE":"８９７巷","ALLEY":" ","HOUSE_NO":"６號","E_COORD97":170401.42000000001,"N_COORD97":2546691.9900000002,"ADDRESS":"中華路８９７巷６號","OBJECTID":289817},"geometry":{"x":170401.41999999993,"y":2546691.9900000002}},{"attributes":{"ID":289824,"DIS_CODE":0,"TOWNNAME":"永康區","LI":"甲頂里","LIN":"13鄰","STREET":"大武街","SECT":" ","MAREA":" ","LANE":"１８巷","ALLEY":" ","HOUSE_NO":"４２號","E_COORD97":170395.85000000001,"N_COORD97":2546591.9900000002,"ADDRESS":"大武街１８巷４２號","OBJECTID":289818},"geometry":{"x":170395.85000000056,"y":2546591.9900000021}},{"attributes":{"ID":289825,"DIS_CODE":0,"TOWNNAME":"善化區","LI":"文正里","LIN":"13鄰","STREET":"陽明路","SECT":" ","MAREA":" ","LANE":" ","ALLEY":" ","HOUSE_NO":"６８號","E_COORD97":176531.25,"N_COORD97":2559340.0099999998,"ADDRESS":"陽明路６８號","OBJECTID":289819},"geometry":{"x":176531.25,"y":2559340.0099999998}},{"attributes":{"ID":289826,"DIS_CODE":0,"TOWNNAME":"永康區","LI":"安康里","LIN":"13鄰","STREET":"中華路","SECT":" ","MAREA":" ","LANE":"６１９巷","ALLEY":" ","HOUSE_NO":"９６號","E_COORD97":170854.23999999999,"N_COORD97":2545997,"ADDRESS":"中華路６１９巷９６號","OBJECTID":289820},"geometry":{"x":170854.24000000022,"y":2545997}},{"attributes":{"ID":289827,"DIS_CODE":0,"TOWNNAME":"善化區","LI":"文昌里","LIN":" ","STREET":"文昌路","SECT":" ","MAREA":" ","LANE":" ","ALLEY":" ","HOUSE_NO":"２號","E_COORD97":177192.95999999999,"N_COORD97":2558705.7799999998,"ADDRESS":"文昌路２號","OBJECTID":289821},"geometry":{"x":177192.96000000183,"y":2558705.7800000012}},{"attributes":{"ID":289828,"DIS_CODE":0,"TOWNNAME":"善化區","LI":"文正里","LIN":"13鄰","STREET":"陽明路","SECT":" ","MAREA":" ","LANE":" ","ALLEY":" ","HOUSE_NO":"７８號","E_COORD97":176501.89000000001,"N_COORD97":2559359.2599999998,"ADDRESS":"陽明路７８號","OBJECTID":289822},"geometry":{"x":176501.8900000006,"y":2559359.2599999998}},{"attributes":{"ID":289829,"DIS_CODE":0,"TOWNNAME":"善化區","LI":"文昌里","LIN":"13鄰","STREET":"永福路","SECT":" ","MAREA":" ","LANE":" ","ALLEY":" ","HOUSE_NO":"５１號之１","E_COORD97":177522.48999999999,"N_COORD97":2558848.27,"ADDRESS":"永福路５１號之１","OBJECTID":289823},"geometry":{"x":177522.49000000115,"y":2558848.2700000033}},{"attributes":{"ID":289830,"DIS_CODE":0,"TOWNNAME":"永康區","LI":"甲頂里","LIN":"13鄰","STREET":"大武街","SECT":" ","MAREA":" ","LANE":"１８巷","ALLEY":" ","HOUSE_NO":"４６號","E_COORD97":170403.20999999999,"N_COORD97":2546586.7400000002,"ADDRESS":"大武街１８巷４６號","OBJECTID":289824},"geometry":{"x":170403.20999999996,"y":2546586.7400000021}},{"attributes":{"ID":289831,"DIS_CODE":0,"TOWNNAME":"永康區","LI":"網寮里","LIN":"21鄰","STREET":"文化路","SECT":" ","MAREA":" ","LANE":"２６１巷","ALLEY":" ","HOUSE_NO":"１號","E_COORD97":173608.20999999999,"N_COORD97":2546097.0800000001,"ADDRESS":"文化路２６１巷１號","OBJECTID":289825},"geometry":{"x":173608.21000000089,"y":2546097.0800000001}},{"attributes":{"ID":289832,"DIS_CODE":0,"TOWNNAME":"永康區","LI":"永康里","LIN":"31鄰","STREET":"聖龍街","SECT":" ","MAREA":" ","LANE":"１８６巷","ALLEY":" ","HOUSE_NO":"４８號","E_COORD97":174234.73000000001,"N_COORD97":2547739.0499999998,"ADDRESS":"聖龍街１８６巷４８號","OBJECTID":289826},"geometry":{"x":174234.73000000045,"y":2547739.0500000007}},{"attributes":{"ID":289833,"DIS_CODE":0,"TOWNNAME":"永康區","LI":"安康里","LIN":"6鄰","STREET":"中華西街","SECT":" ","MAREA":" ","LANE":"１９６巷","ALLEY":" ","HOUSE_NO":"６號","E_COORD97":170659.39000000001,"N_COORD97":2546370.2400000002,"ADDRESS":"中華西街１９６巷６號","OBJECTID":289827},"geometry":{"x":170659.38999999966,"y":2546370.2400000021}},{"attributes":{"ID":289834,"DIS_CODE":0,"TOWNNAME":"東區","LI":"德高里","LIN":"21鄰","STREET":"崇善路","SECT":" ","MAREA":" ","LANE":"８３５巷","ALLEY":" ","HOUSE_NO":"２號七樓","E_COORD97":171326.47,"N_COORD97":2540817.1000000001,"ADDRESS":"崇善路８３５巷２號七樓","OBJECTID":289828},"geometry":{"x":171326.46999999974,"y":2540817.1000000015}},{"attributes":{"ID":289835,"DIS_CODE":0,"TOWNNAME":"東區","LI":"德高里","LIN":"21鄰","STREET":"崇善路","SECT":" ","MAREA":" ","LANE":"８３５巷","ALLEY":" ","HOUSE_NO":"２號九樓","E_COORD97":171326.47,"N_COORD97":2540817.1000000001,"ADDRESS":"崇善路８３５巷２號九樓","OBJECTID":289829},"geometry":{"x":171326.46999999974,"y":2540817.1000000015}},{"attributes":{"ID":289836,"DIS_CODE":0,"TOWNNAME":"東區","LI":"德高里","LIN":"21鄰","STREET":"崇善路","SECT":" ","MAREA":" ","LANE":"８３５巷","ALLEY":" ","HOUSE_NO":"２號二樓","E_COORD97":171326.47,"N_COORD97":2540817.1000000001,"ADDRESS":"崇善路８３５巷２號二樓","OBJECTID":289830},"geometry":{"x":171326.46999999974,"y":2540817.1000000015}},{"attributes":{"ID":289837,"DIS_CODE":0,"TOWNNAME":"東區","LI":"德高里","LIN":"21鄰","STREET":"崇善路","SECT":" ","MAREA":" ","LANE":"８３５巷","ALLEY":" ","HOUSE_NO":"２號八樓","E_COORD97":171326.47,"N_COORD97":2540817.1000000001,"ADDRESS":"崇善路８３５巷２號八樓","OBJECTID":289831},"geometry":{"x":171326.46999999974,"y":2540817.1000000015}},{"attributes":{"ID":289838,"DIS_CODE":0,"TOWNNAME":"東區","LI":"德高里","LIN":"21鄰","STREET":"崇善路","SECT":" ","MAREA":" ","LANE":"８３５巷","ALLEY":" ","HOUSE_NO":"２號六樓","E_COORD97":171326.47,"N_COORD97":2540817.1000000001,"ADDRESS":"崇善路８３５巷２號六樓","OBJECTID":289832},"geometry":{"x":171326.46999999974,"y":2540817.1000000015}},{"attributes":{"ID":289839,"DIS_CODE":0,"TOWNNAME":"永康區","LI":"東橋里","LIN":"2鄰","STREET":"大橋一街","SECT":" ","MAREA":" ","LANE":"３２４巷","ALLEY":" ","HOUSE_NO":"２６號","E_COORD97":171367.88,"N_COORD97":2546576.7799999998,"ADDRESS":"大橋一街３２４巷２６號","OBJECTID":289833},"geometry":{"x":171367.88000000082,"y":2546576.7799999993}},{"attributes":{"ID":289840,"DIS_CODE":0,"TOWNNAME":"永康區","LI":"西勢里","LIN":"21鄰","STREET":"富強路","SECT":"一段","MAREA":" ","LANE":"１４９巷","ALLEY":" ","HOUSE_NO":"３５號","E_COORD97":175473.45999999999,"N_COORD97":2546396.8999999999,"ADDRESS":"富強路一段１４９巷３５號","OBJECTID":289834},"geometry":{"x":175473.45999999996,"y":2546396.9000000004}},{"attributes":{"ID":289841,"DIS_CODE":0,"TOWNNAME":"官田區","LI":"二鎮里","LIN":"2鄰","STREET":" ","SECT":" ","MAREA":"二鎮","LANE":" ","ALLEY":" ","HOUSE_NO":"１２號","E_COORD97":181190.44,"N_COORD97":2568201.0499999998,"ADDRESS":"二鎮１２號","OBJECTID":289835},"geometry":{"x":181190.44000000041,"y":2568201.0500000007}},{"attributes":{"ID":289842,"DIS_CODE":0,"TOWNNAME":"下營區","LI":"開化里","LIN":"12鄰","STREET":" ","SECT":" ","MAREA":"中營","LANE":" ","ALLEY":" ","HOUSE_NO":"５９６號","E_COORD97":176164.72,"N_COORD97":2568343.02,"ADDRESS":"中營５９６號","OBJECTID":289836},"geometry":{"x":176164.71999999974,"y":2568343.0200000033}},{"attributes":{"ID":289843,"DIS_CODE":0,"TOWNNAME":"下營區","LI":"開化里","LIN":"11鄰","STREET":" ","SECT":" ","MAREA":"中營","LANE":" ","ALLEY":" ","HOUSE_NO":"５９２號","E_COORD97":176138.85999999999,"N_COORD97":2568353.7999999998,"ADDRESS":"中營５９２號","OBJECTID":289837},"geometry":{"x":176138.86000000034,"y":2568353.8000000026}},{"attributes":{"ID":289844,"DIS_CODE":0,"TOWNNAME":"下營區","LI":"開化里","LIN":"11鄰","STREET":" ","SECT":" ","MAREA":"中營","LANE":" ","ALLEY":" ","HOUSE_NO":"５９３號","E_COORD97":176142.14999999999,"N_COORD97":2568354.9900000002,"ADDRESS":"中營５９３號","OBJECTID":289838},"geometry":{"x":176142.15000000037,"y":2568354.9900000021}},{"attributes":{"ID":289845,"DIS_CODE":0,"TOWNNAME":"下營區","LI":"開化里","LIN":"11鄰","STREET":" ","SECT":" ","MAREA":"中營","LANE":" ","ALLEY":" ","HOUSE_NO":"５９４號","E_COORD97":176145.66,"N_COORD97":2568356.79,"ADDRESS":"中營５９４號","OBJECTID":289839},"geometry":{"x":176145.66000000015,"y":2568356.7899999991}},{"attributes":{"ID":289846,"DIS_CODE":0,"TOWNNAME":"下營區","LI":"開化里","LIN":"11鄰","STREET":" ","SECT":" ","MAREA":"中營","LANE":" ","ALLEY":" ","HOUSE_NO":"５９５號","E_COORD97":176148.67999999999,"N_COORD97":2568357.48,"ADDRESS":"中營５９５號","OBJECTID":289840},"geometry":{"x":176148.68000000156,"y":2568357.4800000042}},{"attributes":{"ID":289847,"DIS_CODE":0,"TOWNNAME":"仁德區","LI":"太子里","LIN":"27鄰","STREET":"大利路","SECT":" ","MAREA":" ","LANE":" ","ALLEY":" ","HOUSE_NO":"４３號","E_COORD97":173532.18924800001,"N_COORD97":2543110.19704,"ADDRESS":"大利路４３號","OBJECTID":289841},"geometry":{"x":173532.18924800027,"y":2543110.1970450003}},{"attributes":{"ID":289848,"DIS_CODE":0,"TOWNNAME":"永康區","LI":"西勢里","LIN":"21鄰","STREET":"富強路","SECT":"一段","MAREA":" ","LANE":"１４３巷","ALLEY":" ","HOUSE_NO":"３８號","E_COORD97":175473.66,"N_COORD97":2546368.71,"ADDRESS":"富強路一段１４３巷３８號","OBJECTID":289842},"geometry":{"x":175473.66000000108,"y":2546368.7100000009}},{"attributes":{"ID":289849,"DIS_CODE":0,"TOWNNAME":"永康區","LI":"東灣里","LIN":"1鄰","STREET":"南灣街","SECT":" ","MAREA":" ","LANE":" ","ALLEY":" ","HOUSE_NO":"３４號","E_COORD97":174590.57999999999,"N_COORD97":2544905.9100000001,"ADDRESS":"南灣街３４號","OBJECTID":289843},"geometry":{"x":174590.58000000101,"y":2544905.9100000001}},{"attributes":{"ID":289850,"DIS_CODE":0,"TOWNNAME":"永康區","LI":"東灣里","LIN":"31鄰","STREET":"大灣二街","SECT":" ","MAREA":" ","LANE":" ","ALLEY":" ","HOUSE_NO":"５１號","E_COORD97":174871.38,"N_COORD97":2544725.6400000001,"ADDRESS":"大灣二街５１號","OBJECTID":289844},"geometry":{"x":174871.38000000082,"y":2544725.6400000043}},{"attributes":{"ID":289851,"DIS_CODE":0,"TOWNNAME":"南區","LI":"文南里","LIN":"21鄰","STREET":"健康路","SECT":"二段","MAREA":" ","LANE":"４８９巷","ALLEY":" ","HOUSE_NO":"１號三樓之１","E_COORD97":166335.85999999999,"N_COORD97":2542514.8900000001,"ADDRESS":"健康路二段４８９巷１號三樓之１","OBJECTID":289845},"geometry":{"x":166335.86000000034,"y":2542514.8900000025}},{"attributes":{"ID":289852,"DIS_CODE":0,"TOWNNAME":"南區","LI":"文南里","LIN":"21鄰","STREET":"健康路","SECT":"二段","MAREA":" ","LANE":"４８９巷","ALLEY":" ","HOUSE_NO":"１號三樓之２","E_COORD97":166335.85999999999,"N_COORD97":2542514.8900000001,"ADDRESS":"健康路二段４８９巷１號三樓之２","OBJECTID":289846},"geometry":{"x":166335.86000000034,"y":2542514.8900000025}},{"attributes":{"ID":289853,"DIS_CODE":0,"TOWNNAME":"永康區","LI":"南灣里","LIN":"2鄰","STREET":"大灣路","SECT":" ","MAREA":" ","LANE":" ","ALLEY":" ","HOUSE_NO":"４７３號","E_COORD97":174646.29000000001,"N_COORD97":2544674.9399999999,"ADDRESS":"大灣路４７３號","OBJECTID":289847},"geometry":{"x":174646.2900000019,"y":2544674.9400000032}},{"attributes":{"ID":289854,"DIS_CODE":0,"TOWNNAME":"南區","LI":"文南里","LIN":"21鄰","STREET":"健康路","SECT":"二段","MAREA":" ","LANE":"４８９巷","ALLEY":" ","HOUSE_NO":"１號四樓","E_COORD97":166335.85999999999,"N_COORD97":2542514.8900000001,"ADDRESS":"健康路二段４８９巷１號四樓","OBJECTID":289848},"geometry":{"x":166335.86000000034,"y":2542514.8900000025}},{"attributes":{"ID":289855,"DIS_CODE":0,"TOWNNAME":"南區","LI":"文南里","LIN":"21鄰","STREET":"健康路","SECT":"二段","MAREA":" ","LANE":"４８９巷","ALLEY":" ","HOUSE_NO":"１號五樓","E_COORD97":166335.85999999999,"N_COORD97":2542514.8900000001,"ADDRESS":"健康路二段４８９巷１號五樓","OBJECTID":289849},"geometry":{"x":166335.86000000034,"y":2542514.8900000025}},{"attributes":{"ID":289856,"DIS_CODE":0,"TOWNNAME":"永康區","LI":"安康里","LIN":"21鄰","STREET":"中華路","SECT":" ","MAREA":" ","LANE":"６６１巷","ALLEY":" ","HOUSE_NO":"２號五樓之１","E_COORD97":170973.84,"N_COORD97":2546231.5499999998,"ADDRESS":"中華路６６１巷２號五樓之１","OBJECTID":289850},"geometry":{"x":170973.83999999985,"y":2546231.5500000007}},{"attributes":{"ID":289857,"DIS_CODE":0,"TOWNNAME":"永康區","LI":"南灣里","LIN":"18鄰","STREET":"立興街","SECT":" ","MAREA":" ","LANE":" ","ALLEY":" ","HOUSE_NO":"１３２號","E_COORD97":174428.73000000001,"N_COORD97":2544685.96,"ADDRESS":"立興街１３２號","OBJECTID":289851},"geometry":{"x":174428.73000000138,"y":2544685.9600000009}},{"attributes":{"ID":289858,"DIS_CODE":0,"TOWNNAME":"永康區","LI":"安康里","LIN":"21鄰","STREET":"中華路","SECT":" ","MAREA":" ","LANE":"６６１巷","ALLEY":" ","HOUSE_NO":"２號十一樓之１","E_COORD97":170975.09,"N_COORD97":2546231.5499999998,"ADDRESS":"中華路６６１巷２號十一樓之１","OBJECTID":289852},"geometry":{"x":170975.08999999985,"y":2546231.5500000007}},{"attributes":{"ID":289859,"DIS_CODE":0,"TOWNNAME":"永康區","LI":"西灣里","LIN":"53鄰","STREET":"文化路","SECT":" ","MAREA":" ","LANE":" ","ALLEY":" ","HOUSE_NO":"２１３號","E_COORD97":173703.84,"N_COORD97":2546158.4700000002,"ADDRESS":"文化路２１３號","OBJECTID":289853},"geometry":{"x":173703.84000000078,"y":2546158.4700000025}},{"attributes":{"ID":289860,"DIS_CODE":0,"TOWNNAME":"歸仁區","LI":"武東里","LIN":"8鄰","STREET":"武東一街","SECT":" ","MAREA":" ","LANE":" ","ALLEY":" ","HOUSE_NO":"７７號","E_COORD97":175754.17475000001,"N_COORD97":2535505.0471100002,"ADDRESS":"武東街７７號","OBJECTID":289854},"geometry":{"x":175754.17475000024,"y":2535505.0471100006}},{"attributes":{"ID":289861,"DIS_CODE":0,"TOWNNAME":"永康區","LI":"安康里","LIN":"21鄰","STREET":"中華路","SECT":" ","MAREA":" ","LANE":"６６１巷","ALLEY":" ","HOUSE_NO":"２號十一樓之２","E_COORD97":170975.22,"N_COORD97":2546231.5499999998,"ADDRESS":"中華路６６１巷２號十一樓之２","OBJECTID":289855},"geometry":{"x":170975.22000000067,"y":2546231.5500000007}},{"attributes":{"ID":289862,"DIS_CODE":0,"TOWNNAME":"善化區","LI":"文正里","LIN":"14鄰","STREET":"興農路","SECT":" ","MAREA":" ","LANE":" ","ALLEY":" ","HOUSE_NO":"１９０號","E_COORD97":176024.10999999999,"N_COORD97":2559132.0099999998,"ADDRESS":"興農路１９０號","OBJECTID":289856},"geometry":{"x":176024.11000000034,"y":2559132.0100000016}},{"attributes":{"ID":289863,"DIS_CODE":0,"TOWNNAME":"永康區","LI":"安康里","LIN":"21鄰","STREET":"中華路","SECT":" ","MAREA":" ","LANE":"６６１巷","ALLEY":" ","HOUSE_NO":"２號十四樓之２","E_COORD97":170975.22,"N_COORD97":2546231.5499999998,"ADDRESS":"中華路６６１巷２號十四樓之２","OBJECTID":289857},"geometry":{"x":170975.22000000067,"y":2546231.5500000007}},{"attributes":{"ID":289864,"DIS_CODE":0,"TOWNNAME":"善化區","LI":"西關里","LIN":"13鄰","STREET":"復興街","SECT":" ","MAREA":" ","LANE":" ","ALLEY":" ","HOUSE_NO":"１４０號","E_COORD97":176731.09,"N_COORD97":2559073.2599999998,"ADDRESS":"復興街１４０號","OBJECTID":289858},"geometry":{"x":176731.09000000078,"y":2559073.2600000016}},{"attributes":{"ID":289865,"DIS_CODE":0,"TOWNNAME":"永康區","LI":"安康里","LIN":"21鄰","STREET":"中華路","SECT":" ","MAREA":" ","LANE":"６６１巷","ALLEY":" ","HOUSE_NO":"２號七樓之３","E_COORD97":170973.94,"N_COORD97":2546231.5499999998,"ADDRESS":"中華路６６１巷２號七樓之３","OBJECTID":289859},"geometry":{"x":170973.94000000227,"y":2546231.5500000007}},{"attributes":{"ID":289866,"DIS_CODE":0,"TOWNNAME":"永康區","LI":"安康里","LIN":"21鄰","STREET":"中華路","SECT":" ","MAREA":" ","LANE":"６６１巷","ALLEY":" ","HOUSE_NO":"２號十一樓之３","E_COORD97":170975.19,"N_COORD97":2546231.5499999998,"ADDRESS":"中華路６６１巷２號十一樓之３","OBJECTID":289860},"geometry":{"x":170975.19000000041,"y":2546231.5500000007}},{"attributes":{"ID":289867,"DIS_CODE":0,"TOWNNAME":"善化區","LI":"光文里","LIN":"13鄰","STREET":"民權路","SECT":" ","MAREA":" ","LANE":" ","ALLEY":" ","HOUSE_NO":"１１６號之１","E_COORD97":178452.76000000001,"N_COORD97":2559053.52,"ADDRESS":"民權路１１６號之１","OBJECTID":289861},"geometry":{"x":178452.76000000071,"y":2559053.5200000014}},{"attributes":{"ID":289868,"DIS_CODE":0,"TOWNNAME":"善化區","LI":"光文里","LIN":"15鄰","STREET":"樹人路","SECT":" ","MAREA":" ","LANE":" ","ALLEY":" ","HOUSE_NO":"３號","E_COORD97":178377.10000000001,"N_COORD97":2558902.25,"ADDRESS":"樹人路３號","OBJECTID":289862},"geometry":{"x":178377.10000000056,"y":2558902.25}},{"attributes":{"ID":289869,"DIS_CODE":0,"TOWNNAME":"善化區","LI":"光文里","LIN":" ","STREET":"大成路","SECT":" ","MAREA":" ","LANE":" ","ALLEY":" ","HOUSE_NO":"２７６號","E_COORD97":178197.95999999999,"N_COORD97":2558850,"ADDRESS":"大成路２７６號","OBJECTID":289863},"geometry":{"x":178197.95999999996,"y":2558850}},{"attributes":{"ID":289870,"DIS_CODE":0,"TOWNNAME":"永康區","LI":"安康里","LIN":"21鄰","STREET":"中華路","SECT":" ","MAREA":" ","LANE":"６６１巷","ALLEY":" ","HOUSE_NO":"２號四樓之３","E_COORD97":170973.94,"N_COORD97":2546231.5499999998,"ADDRESS":"中華路６６１巷２號四樓之３","OBJECTID":289864},"geometry":{"x":170973.94000000227,"y":2546231.5500000007}},{"attributes":{"ID":289871,"DIS_CODE":0,"TOWNNAME":"永康區","LI":"安康里","LIN":"21鄰","STREET":"中華路","SECT":" ","MAREA":" ","LANE":"６６１巷","ALLEY":" ","HOUSE_NO":"２號六樓之１","E_COORD97":170973.84,"N_COORD97":2546231.5499999998,"ADDRESS":"中華路６６１巷２號六樓之１","OBJECTID":289865},"geometry":{"x":170973.83999999985,"y":2546231.5500000007}},{"attributes":{"ID":289872,"DIS_CODE":0,"TOWNNAME":"永康區","LI":"安康里","LIN":"21鄰","STREET":"中華路","SECT":" ","MAREA":" ","LANE":"６６１巷","ALLEY":" ","HOUSE_NO":"２號十二樓之３","E_COORD97":170975.19,"N_COORD97":2546231.5499999998,"ADDRESS":"中華路６６１巷２號十二樓之３","OBJECTID":289866},"geometry":{"x":170975.19000000041,"y":2546231.5500000007}},{"attributes":{"ID":289873,"DIS_CODE":0,"TOWNNAME":"永康區","LI":"東橋里","LIN":"19鄰","STREET":"中山南路","SECT":" ","MAREA":" ","LANE":"３６５巷","ALLEY":" ","HOUSE_NO":"２號之４６","E_COORD97":172818.26000000001,"N_COORD97":2547071.3900000001,"ADDRESS":"中山南路３６５巷２號之４６","OBJECTID":289867},"geometry":{"x":172818.25999999978,"y":2547071.3900000025}},{"attributes":{"ID":289874,"DIS_CODE":0,"TOWNNAME":"善化區","LI":"坐駕里","LIN":" ","STREET":"大成路","SECT":" ","MAREA":" ","LANE":" ","ALLEY":" ","HOUSE_NO":"３８９號","E_COORD97":177708.07000000001,"N_COORD97":2558738.75,"ADDRESS":"大成路３８９號","OBJECTID":289868},"geometry":{"x":177708.07000000123,"y":2558738.75}},{"attributes":{"ID":289875,"DIS_CODE":0,"TOWNNAME":"善化區","LI":"光文里","LIN":"20鄰","STREET":"民權路","SECT":" ","MAREA":" ","LANE":" ","ALLEY":" ","HOUSE_NO":"２５９號","E_COORD97":178031.48000000001,"N_COORD97":2558965.5099999998,"ADDRESS":"民權路２５９號","OBJECTID":289869},"geometry":{"x":178031.48000000138,"y":2558965.5100000035}},{"attributes":{"ID":289876,"DIS_CODE":0,"TOWNNAME":"官田區","LI":"渡頭里","LIN":"27鄰","STREET":" ","SECT":" ","MAREA":"三塊厝","LANE":" ","ALLEY":" ","HOUSE_NO":"２７號","E_COORD97":182599.53,"N_COORD97":2562115.27,"ADDRESS":"三塊厝２７號","OBJECTID":289870},"geometry":{"x":182599.53000000119,"y":2562115.2699999996}},{"attributes":{"ID":289877,"DIS_CODE":0,"TOWNNAME":"永康區","LI":"西灣里","LIN":"41鄰","STREET":"永華路","SECT":" ","MAREA":" ","LANE":" ","ALLEY":" ","HOUSE_NO":"８１號","E_COORD97":174082.29999999999,"N_COORD97":2545355.6800000002,"ADDRESS":"永華路８１號","OBJECTID":289871},"geometry":{"x":174082.30000000075,"y":2545355.6800000016}},{"attributes":{"ID":289878,"DIS_CODE":0,"TOWNNAME":"永康區","LI":"安康里","LIN":"21鄰","STREET":"中華路","SECT":" ","MAREA":" ","LANE":"６６１巷","ALLEY":" ","HOUSE_NO":"２號十二樓之２","E_COORD97":170975.22,"N_COORD97":2546231.5499999998,"ADDRESS":"中華路６６１巷２號十二樓之２","OBJECTID":289872},"geometry":{"x":170975.22000000067,"y":2546231.5500000007}},{"attributes":{"ID":289879,"DIS_CODE":0,"TOWNNAME":"永康區","LI":"西灣里","LIN":"24鄰","STREET":"永大路","SECT":"二段","MAREA":" ","LANE":" ","ALLEY":" ","HOUSE_NO":"２９９號","E_COORD97":174408.70000000001,"N_COORD97":2545571.27,"ADDRESS":"永大路二段２９９號","OBJECTID":289873},"geometry":{"x":174408.70000000112,"y":2545571.2700000033}},{"attributes":{"ID":289880,"DIS_CODE":0,"TOWNNAME":"永康區","LI":"尚頂里","LIN":"31鄰","STREET":"中正南路","SECT":" ","MAREA":" ","LANE":" ","ALLEY":" ","HOUSE_NO":"３０９號","E_COORD97":170195.51000000001,"N_COORD97":2547456.9700000002,"ADDRESS":"中正南路３０９號","OBJECTID":289874},"geometry":{"x":170195.51000000071,"y":2547456.9700000025}},{"attributes":{"ID":289881,"DIS_CODE":0,"TOWNNAME":"永康區","LI":"西灣里","LIN":"37鄰","STREET":"國光七街","SECT":" ","MAREA":" ","LANE":" ","ALLEY":" ","HOUSE_NO":"６０號","E_COORD97":174133.70000000001,"N_COORD97":2545534.75,"ADDRESS":"國光七街６０號","OBJECTID":289875},"geometry":{"x":174133.70000000112,"y":2545534.7500000037}},{"attributes":{"ID":289882,"DIS_CODE":0,"TOWNNAME":"東區","LI":"德光里","LIN":"21鄰","STREET":"崇明路","SECT":" ","MAREA":" ","LANE":"１８７巷","ALLEY":" ","HOUSE_NO":"１７號三樓","E_COORD97":170001.97,"N_COORD97":2542161.46,"ADDRESS":"崇明路１８７巷１７號三樓","OBJECTID":289876},"geometry":{"x":170001.97000000067,"y":2542161.4600000028}},{"attributes":{"ID":289883,"DIS_CODE":0,"TOWNNAME":"永康區","LI":"尚頂里","LIN":"35鄰","STREET":"國聖街","SECT":" ","MAREA":" ","LANE":" ","ALLEY":" ","HOUSE_NO":"７７之６號","E_COORD97":170404.10999999999,"N_COORD97":2548062.7999999998,"ADDRESS":"國聖街７７之６號","OBJECTID":289877},"geometry":{"x":170404.11000000034,"y":2548062.8000000007}},{"attributes":{"ID":289884,"DIS_CODE":0,"TOWNNAME":"東區","LI":"大智里","LIN":"21鄰","STREET":"崇善十五街","SECT":" ","MAREA":" ","LANE":"３３巷","ALLEY":" ","HOUSE_NO":"５６號三樓之１５","E_COORD97":171313.64000000001,"N_COORD97":2540466.8500000001,"ADDRESS":"崇善十五街３３巷５６號三樓之１５","OBJECTID":289878},"geometry":{"x":171313.63999999966,"y":2540466.8499999996}},{"attributes":{"ID":289885,"DIS_CODE":0,"TOWNNAME":"永康區","LI":"西灣里","LIN":"35鄰","STREET":"國光八街","SECT":" ","MAREA":" ","LANE":" ","ALLEY":" ","HOUSE_NO":"７５號","E_COORD97":174256.98000000001,"N_COORD97":2545755.5299999998,"ADDRESS":"國光八街７５號","OBJECTID":289879},"geometry":{"x":174256.98000000045,"y":2545755.5299999993}},{"attributes":{"ID":289886,"DIS_CODE":0,"TOWNNAME":"永康區","LI":"南灣里","LIN":"14鄰","STREET":"大灣路","SECT":" ","MAREA":" ","LANE":" ","ALLEY":" ","HOUSE_NO":"６２２號","E_COORD97":174542.39999999999,"N_COORD97":2544620.5,"ADDRESS":"大灣路６２２號","OBJECTID":289880},"geometry":{"x":174542.39999999944,"y":2544620.5}},{"attributes":{"ID":289887,"DIS_CODE":0,"TOWNNAME":"東區","LI":"大智里","LIN":"21鄰","STREET":"崇善十五街","SECT":" ","MAREA":" ","LANE":"３３巷","ALLEY":" ","HOUSE_NO":"５６號四樓之８","E_COORD97":171313.64000000001,"N_COORD97":2540466.8500000001,"ADDRESS":"崇善十五街３３巷５６號四樓之８","OBJECTID":289881},"geometry":{"x":171313.63999999966,"y":2540466.8499999996}},{"attributes":{"ID":289888,"DIS_CODE":0,"TOWNNAME":"永康區","LI":"安康里","LIN":"21鄰","STREET":"中華路","SECT":" ","MAREA":" ","LANE":"６６１巷","ALLEY":" ","HOUSE_NO":"２號十三樓之１","E_COORD97":170975.09,"N_COORD97":2546231.5499999998,"ADDRESS":"中華路６６１巷２號十三樓之１","OBJECTID":289882},"geometry":{"x":170975.08999999985,"y":2546231.5500000007}},{"attributes":{"ID":289889,"DIS_CODE":0,"TOWNNAME":"永康區","LI":"尚頂里","LIN":"35鄰","STREET":"國聖街","SECT":" ","MAREA":" ","LANE":" ","ALLEY":" ","HOUSE_NO":"７７之３號","E_COORD97":170434.88,"N_COORD97":2548040.29,"ADDRESS":"國聖街７７之３號","OBJECTID":289883},"geometry":{"x":170434.88000000082,"y":2548040.290000001}},{"attributes":{"ID":289890,"DIS_CODE":0,"TOWNNAME":"南區","LI":"明興里","LIN":"21鄰","STREET":"金華路","SECT":"一段","MAREA":" ","LANE":"１５４巷","ALLEY":" ","HOUSE_NO":"３８號二樓之３","E_COORD97":167062.75,"N_COORD97":2540626.4300000002,"ADDRESS":"金華路一段１５４巷３８號二樓之３","OBJECTID":289884},"geometry":{"x":167062.75000000093,"y":2540626.4299999997}},{"attributes":{"ID":289891,"DIS_CODE":0,"TOWNNAME":"南區","LI":"明興里","LIN":"21鄰","STREET":"金華路","SECT":"一段","MAREA":" ","LANE":"１５４巷","ALLEY":" ","HOUSE_NO":"４４號五樓之３","E_COORD97":167053.73999999999,"N_COORD97":2540642.1299999999,"ADDRESS":"金華路一段１５４巷４４號五樓之３","OBJECTID":289885},"geometry":{"x":167053.74000000022,"y":2540642.1300000027}},{"attributes":{"ID":289892,"DIS_CODE":0,"TOWNNAME":"東區","LI":"復興里","LIN":"21鄰","STREET":"自由路","SECT":"三段","MAREA":" ","LANE":" ","ALLEY":" ","HOUSE_NO":"２８０號三樓之２","E_COORD97":171824.98000000001,"N_COORD97":2542380.5099999998,"ADDRESS":"自由路三段２８０號三樓之２","OBJECTID":289886},"geometry":{"x":171824.98000000138,"y":2542380.5100000016}},{"attributes":{"ID":289893,"DIS_CODE":0,"TOWNNAME":"歸仁區","LI":"七甲里","LIN":"13鄰","STREET":"南潭一街","SECT":" ","MAREA":" ","LANE":" ","ALLEY":" ","HOUSE_NO":"１３號","E_COORD97":175986.901575,"N_COORD97":2542969.1293299999,"ADDRESS":"南潭一街１３號","OBJECTID":289887},"geometry":{"x":175986.90157500003,"y":2542969.1293270029}},{"attributes":{"ID":289894,"DIS_CODE":0,"TOWNNAME":"永康區","LI":"建國里","LIN":"2鄰","STREET":"復興路","SECT":" ","MAREA":" ","LANE":" ","ALLEY":" ","HOUSE_NO":"１００號","E_COORD97":172801.64000000001,"N_COORD97":2544344.3900000001,"ADDRESS":"復興路１００號","OBJECTID":289888},"geometry":{"x":172801.6400000006,"y":2544344.3900000043}},{"attributes":{"ID":289895,"DIS_CODE":0,"TOWNNAME":"永康區","LI":"西灣里","LIN":"41鄰","STREET":"國光六街","SECT":" ","MAREA":" ","LANE":"９０巷","ALLEY":" ","HOUSE_NO":"１４號","E_COORD97":174054.28,"N_COORD97":2545396.2000000002,"ADDRESS":"國光六街９０巷１４號","OBJECTID":289889},"geometry":{"x":174054.28000000026,"y":2545396.2000000011}},{"attributes":{"ID":289896,"DIS_CODE":0,"TOWNNAME":"永康區","LI":"西勢里","LIN":"21鄰","STREET":"富強路","SECT":"一段","MAREA":" ","LANE":"１５５巷","ALLEY":" ","HOUSE_NO":"１１號","E_COORD97":175543.04999999999,"N_COORD97":2546379.9900000002,"ADDRESS":"富強路一段１５５巷１１號","OBJECTID":289890},"geometry":{"x":175543.05000000075,"y":2546379.9900000002}},{"attributes":{"ID":289897,"DIS_CODE":0,"TOWNNAME":"永康區","LI":"崑山里","LIN":"21鄰","STREET":"大仁街","SECT":" ","MAREA":" ","LANE":"３１巷","ALLEY":" ","HOUSE_NO":"３５號六樓之８","E_COORD97":173708.79999999999,"N_COORD97":2544604.9399999999,"ADDRESS":"大仁街３１巷３５號六樓之８","OBJECTID":289891},"geometry":{"x":173708.80000000075,"y":2544604.9400000013}},{"attributes":{"ID":289898,"DIS_CODE":0,"TOWNNAME":"永康區","LI":"尚頂里","LIN":"3鄰","STREET":"中正二街","SECT":" ","MAREA":" ","LANE":"１８２巷","ALLEY":" ","HOUSE_NO":"２０號","E_COORD97":171439.73999999999,"N_COORD97":2547631.8999999999,"ADDRESS":"中正二街１８２巷２０號","OBJECTID":289892},"geometry":{"x":171439.74000000115,"y":2547631.9000000004}},{"attributes":{"ID":289899,"DIS_CODE":0,"TOWNNAME":"永康區","LI":"尚頂里","LIN":"5鄰","STREET":"\u25A0信街","SECT":" ","MAREA":" ","LANE":" ","ALLEY":" ","HOUSE_NO":"８０號","E_COORD97":170876.07999999999,"N_COORD97":2547573.75,"ADDRESS":"\u25A0信街８０號","OBJECTID":289893},"geometry":{"x":170876.08000000194,"y":2547573.7500000019}},{"attributes":{"ID":289900,"DIS_CODE":0,"TOWNNAME":"永康區","LI":"尚頂里","LIN":"22鄰","STREET":"中華路","SECT":" ","MAREA":" ","LANE":" ","ALLEY":" ","HOUSE_NO":"９６４號","E_COORD97":170391.34,"N_COORD97":2546770.2400000002,"ADDRESS":"中華路９６４號","OBJECTID":289894},"geometry":{"x":170391.34000000078,"y":2546770.2400000021}},{"attributes":{"ID":289901,"DIS_CODE":0,"TOWNNAME":"永康區","LI":"尚頂里","LIN":"4鄰","STREET":"正南一街","SECT":" ","MAREA":" ","LANE":" ","ALLEY":" ","HOUSE_NO":"２００號","E_COORD97":170587.04000000001,"N_COORD97":2547591.3399999999,"ADDRESS":"正南一街２００號","OBJECTID":289895},"geometry":{"x":170587.04000000097,"y":2547591.3399999999}},{"attributes":{"ID":289902,"DIS_CODE":0,"TOWNNAME":"永康區","LI":"尚頂里","LIN":"1鄰","STREET":"尚頂路","SECT":" ","MAREA":" ","LANE":" ","ALLEY":" ","HOUSE_NO":"１６７號","E_COORD97":170824.10999999999,"N_COORD97":2547815.7400000002,"ADDRESS":"尚頂路１６７號","OBJECTID":289896},"geometry":{"x":170824.11000000127,"y":2547815.7400000002}},{"attributes":{"ID":289903,"DIS_CODE":0,"TOWNNAME":"永康區","LI":"尚頂里","LIN":"22鄰","STREET":"中華路","SECT":" ","MAREA":" ","LANE":" ","ALLEY":" ","HOUSE_NO":"９７４號","E_COORD97":170347.13,"N_COORD97":2546801.9900000002,"ADDRESS":"中華路９７４號","OBJECTID":289897},"geometry":{"x":170347.13000000082,"y":2546801.9900000021}},{"attributes":{"ID":289904,"DIS_CODE":0,"TOWNNAME":"永康區","LI":"西灣里","LIN":"25鄰","STREET":"國光七街","SECT":" ","MAREA":" ","LANE":" ","ALLEY":" ","HOUSE_NO":"１０號","E_COORD97":174325.48000000001,"N_COORD97":2545531.5,"ADDRESS":"國光七街１０號","OBJECTID":289898},"geometry":{"x":174325.48000000138,"y":2545531.5}},{"attributes":{"ID":289905,"DIS_CODE":0,"TOWNNAME":"永康區","LI":"西灣里","LIN":"53鄰","STREET":"文化路","SECT":" ","MAREA":" ","LANE":" ","ALLEY":" ","HOUSE_NO":"１８７號","E_COORD97":173760.35999999999,"N_COORD97":2546177.1899999999,"ADDRESS":"文化路１８７號","OBJECTID":289899},"geometry":{"x":173760.36000000127,"y":2546177.1899999995}},{"attributes":{"ID":289906,"DIS_CODE":0,"TOWNNAME":"永康區","LI":"東橋里","LIN":"7鄰","STREET":"大橋一街","SECT":" ","MAREA":" ","LANE":"３２４巷","ALLEY":" ","HOUSE_NO":"９１號","E_COORD97":171493.59,"N_COORD97":2546435.9900000002,"ADDRESS":"大橋一街３２４巷９１號","OBJECTID":289900},"geometry":{"x":171493.58999999985,"y":2546435.9900000021}},{"attributes":{"ID":289907,"DIS_CODE":0,"TOWNNAME":"永康區","LI":"尚頂里","LIN":"35鄰","STREET":"國聖街","SECT":" ","MAREA":" ","LANE":" ","ALLEY":" ","HOUSE_NO":"７１號","E_COORD97":170396.64000000001,"N_COORD97":2547974.6200000001,"ADDRESS":"國聖街７１號","OBJECTID":289901},"geometry":{"x":170396.63999999966,"y":2547974.6200000029}},{"attributes":{"ID":289908,"DIS_CODE":0,"TOWNNAME":"永康區","LI":"尚頂里","LIN":"11鄰","STREET":"正南一街","SECT":" ","MAREA":" ","LANE":" ","ALLEY":" ","HOUSE_NO":"３１號","E_COORD97":171219.51000000001,"N_COORD97":2547350.8399999999,"ADDRESS":"正南一街３１號","OBJECTID":289902},"geometry":{"x":171219.50999999978,"y":2547350.8399999999}},{"attributes":{"ID":289909,"DIS_CODE":0,"TOWNNAME":"永康區","LI":"崑山里","LIN":"21鄰","STREET":"大仁街","SECT":" ","MAREA":" ","LANE":"３１巷","ALLEY":" ","HOUSE_NO":"３５號五樓之５","E_COORD97":173708.81,"N_COORD97":2544604.9399999999,"ADDRESS":"大仁街３１巷３５號五樓之５","OBJECTID":289903},"geometry":{"x":173708.81000000052,"y":2544604.9400000013}},{"attributes":{"ID":289910,"DIS_CODE":0,"TOWNNAME":"永康區","LI":"崑山里","LIN":"21鄰","STREET":"大仁街","SECT":" ","MAREA":" ","LANE":"５１巷","ALLEY":" ","HOUSE_NO":"５號四樓之１","E_COORD97":173762.67999999999,"N_COORD97":2544652.0099999998,"ADDRESS":"大仁街５１巷５號四樓之１","OBJECTID":289904},"geometry":{"x":173762.6799999997,"y":2544652.0100000016}},{"attributes":{"ID":289911,"DIS_CODE":0,"TOWNNAME":"永康區","LI":"崑山里","LIN":"21鄰","STREET":"大仁街","SECT":" ","MAREA":" ","LANE":"３１巷","ALLEY":" ","HOUSE_NO":"３５號六樓之１９","E_COORD97":173709.98999999999,"N_COORD97":2544604.9399999999,"ADDRESS":"大仁街３１巷３５號六樓之１９","OBJECTID":289905},"geometry":{"x":173709.99000000115,"y":2544604.9400000013}},{"attributes":{"ID":289912,"DIS_CODE":0,"TOWNNAME":"永康區","LI":"西橋里","LIN":"14鄰","STREET":"中華西街","SECT":" ","MAREA":" ","LANE":"２３１巷","ALLEY":" ","HOUSE_NO":"３號","E_COORD97":170617.89999999999,"N_COORD97":2546388.9900000002,"ADDRESS":"中華西街２３１巷３號","OBJECTID":289906},"geometry":{"x":170617.90000000037,"y":2546388.9900000021}},{"attributes":{"ID":289913,"DIS_CODE":0,"TOWNNAME":"永康區","LI":"甲頂里","LIN":"14鄰","STREET":"大武街","SECT":" ","MAREA":" ","LANE":"１８巷","ALLEY":" ","HOUSE_NO":"２７號","E_COORD97":170367.09,"N_COORD97":2546631.4100000001,"ADDRESS":"大武街１８巷２７號","OBJECTID":289907},"geometry":{"x":170367.09000000171,"y":2546631.4100000001}},{"attributes":{"ID":289914,"DIS_CODE":0,"TOWNNAME":"中西區","LI":"福安里","LIN":"21鄰","STREET":"西門路","SECT":"二段","MAREA":" ","LANE":"７４巷","ALLEY":" ","HOUSE_NO":"１０號一樓","E_COORD97":167863.57000000001,"N_COORD97":2543614.6000000001,"ADDRESS":"西門路二段７４巷１０號一樓","OBJECTID":289908},"geometry":{"x":167863.5700000003,"y":2543614.6000000015}},{"attributes":{"ID":289915,"DIS_CODE":0,"TOWNNAME":"中西區","LI":"福安里","LIN":"21鄰","STREET":"西門路","SECT":"二段","MAREA":" ","LANE":"７４巷","ALLEY":" ","HOUSE_NO":"１０號二樓","E_COORD97":167863.57000000001,"N_COORD97":2543614.6000000001,"ADDRESS":"西門路二段７４巷１０號二樓","OBJECTID":289909},"geometry":{"x":167863.5700000003,"y":2543614.6000000015}},{"attributes":{"ID":289916,"DIS_CODE":0,"TOWNNAME":"中西區","LI":"福安里","LIN":"21鄰","STREET":"西門路","SECT":"二段","MAREA":" ","LANE":"７４巷","ALLEY":" ","HOUSE_NO":"１０號三樓","E_COORD97":167863.57000000001,"N_COORD97":2543614.6000000001,"ADDRESS":"西門路二段７４巷１０號三樓","OBJECTID":289910},"geometry":{"x":167863.5700000003,"y":2543614.6000000015}},{"attributes":{"ID":289917,"DIS_CODE":0,"TOWNNAME":"中西區","LI":"福安里","LIN":"21鄰","STREET":"西門路","SECT":"二段","MAREA":" ","LANE":"７４巷","ALLEY":" ","HOUSE_NO":"１０號四樓","E_COORD97":167863.57000000001,"N_COORD97":2543614.6000000001,"ADDRESS":"西門路二段７４巷１０號四樓","OBJECTID":289911},"geometry":{"x":167863.5700000003,"y":2543614.6000000015}},{"attributes":{"ID":289918,"DIS_CODE":0,"TOWNNAME":"永康區","LI":"西灣里","LIN":"42鄰","STREET":"大灣路","SECT":" ","MAREA":" ","LANE":"９４２巷","ALLEY":" ","HOUSE_NO":"４６１號","E_COORD97":173935.14999999999,"N_COORD97":2545407.25,"ADDRESS":"大灣路９４２巷４６１號","OBJECTID":289912},"geometry":{"x":173935.15000000037,"y":2545407.2500000019}},{"attributes":{"ID":289919,"DIS_CODE":0,"TOWNNAME":"中西區","LI":"永華里","LIN":"21鄰","STREET":"忠義路","SECT":"二段","MAREA":" ","LANE":"３８巷","ALLEY":" ","HOUSE_NO":"６號三樓之７","E_COORD97":168347.29999999999,"N_COORD97":2543683.2599999998,"ADDRESS":"忠義路二段３８巷６號三樓之７","OBJECTID":289913},"geometry":{"x":168347.30000000075,"y":2543683.2600000035}},{"attributes":{"ID":289920,"DIS_CODE":0,"TOWNNAME":"中西區","LI":"永華里","LIN":"21鄰","STREET":"忠義路","SECT":"二段","MAREA":" ","LANE":"３８巷","ALLEY":" ","HOUSE_NO":"６號三樓之８","E_COORD97":168347.29999999999,"N_COORD97":2543683.2599999998,"ADDRESS":"忠義路二段３８巷６號三樓之８","OBJECTID":289914},"geometry":{"x":168347.30000000075,"y":2543683.2600000035}},{"attributes":{"ID":289921,"DIS_CODE":0,"TOWNNAME":"中西區","LI":"永華里","LIN":"21鄰","STREET":"忠義路","SECT":"二段","MAREA":" ","LANE":"３８巷","ALLEY":" ","HOUSE_NO":"６號四樓之６","E_COORD97":168347.29999999999,"N_COORD97":2543683.2599999998,"ADDRESS":"忠義路二段３８巷６號四樓之６","OBJECTID":289915},"geometry":{"x":168347.30000000075,"y":2543683.2600000035}},{"attributes":{"ID":289922,"DIS_CODE":0,"TOWNNAME":"永康區","LI":"西灣里","LIN":"37鄰","STREET":"國光七街","SECT":" ","MAREA":" ","LANE":" ","ALLEY":" ","HOUSE_NO":"５８號之１","E_COORD97":174146.48999999999,"N_COORD97":2545535.04,"ADDRESS":"國光七街５８號之１","OBJECTID":289916},"geometry":{"x":174146.49000000022,"y":2545535.0400000028}},{"attributes":{"ID":289923,"DIS_CODE":0,"TOWNNAME":"永康區","LI":"建國里","LIN":"28鄰","STREET":" ","SECT":" ","MAREA":"慈光九村","LANE":" ","ALLEY":" ","HOUSE_NO":"３３號","E_COORD97":172763.07999999999,"N_COORD97":2544236.3999999999,"ADDRESS":"慈光九村３３號","OBJECTID":289917},"geometry":{"x":172763.08000000101,"y":2544236.4000000022}},{"attributes":{"ID":289924,"DIS_CODE":0,"TOWNNAME":"永康區","LI":"西灣里","LIN":"41鄰","STREET":"永華路","SECT":" ","MAREA":" ","LANE":" ","ALLEY":" ","HOUSE_NO":"９９號","E_COORD97":174086.14999999999,"N_COORD97":2545398.5499999998,"ADDRESS":"永華路９９號","OBJECTID":289918},"geometry":{"x":174086.15000000037,"y":2545398.5500000026}},{"attributes":{"ID":289925,"DIS_CODE":0,"TOWNNAME":"中西區","LI":"永福里","LIN":"21鄰","STREET":"忠義路","SECT":"二段","MAREA":" ","LANE":"１４７巷","ALLEY":" ","HOUSE_NO":"１２號五樓之２","E_COORD97":168345.14000000001,"N_COORD97":2544062.6899999999,"ADDRESS":"忠義路二段１４７巷１２號五樓之２","OBJECTID":289919},"geometry":{"x":168345.13999999966,"y":2544062.6899999995}},{"attributes":{"ID":289926,"DIS_CODE":0,"TOWNNAME":"永康區","LI":"南灣里","LIN":"10鄰","STREET":"南興路","SECT":" ","MAREA":" ","LANE":" ","ALLEY":" ","HOUSE_NO":"１５號之２","E_COORD97":174097.26000000001,"N_COORD97":2544049.5499999998,"ADDRESS":"南興路１５號之２","OBJECTID":289920},"geometry":{"x":174097.26000000071,"y":2544049.5500000026}},{"attributes":{"ID":289927,"DIS_CODE":0,"TOWNNAME":"中西區","LI":"永福里","LIN":"21鄰","STREET":"忠義路","SECT":"二段","MAREA":" ","LANE":"１４７巷","ALLEY":" ","HOUSE_NO":"１２號五樓之３","E_COORD97":168345.14000000001,"N_COORD97":2544062.6899999999,"ADDRESS":"忠義路二段１４７巷１２號五樓之３","OBJECTID":289921},"geometry":{"x":168345.13999999966,"y":2544062.6899999995}},{"attributes":{"ID":289928,"DIS_CODE":0,"TOWNNAME":"永康區","LI":"尚頂里","LIN":"23鄰","STREET":"中華路","SECT":" ","MAREA":" ","LANE":" ","ALLEY":" ","HOUSE_NO":"９８８號","E_COORD97":170272.20000000001,"N_COORD97":2546874.6899999999,"ADDRESS":"中華路９８８號","OBJECTID":289922},"geometry":{"x":170272.20000000112,"y":2546874.6900000013}},{"attributes":{"ID":289929,"DIS_CODE":0,"TOWNNAME":"中西區","LI":"永福里","LIN":"21鄰","STREET":"忠義路","SECT":"二段","MAREA":" ","LANE":"１４７巷","ALLEY":" ","HOUSE_NO":"１２號五樓之４","E_COORD97":168345.14000000001,"N_COORD97":2544062.6899999999,"ADDRESS":"忠義路二段１４７巷１２號五樓之４","OBJECTID":289923},"geometry":{"x":168345.13999999966,"y":2544062.6899999995}},{"attributes":{"ID":289930,"DIS_CODE":0,"TOWNNAME":"永康區","LI":"尚頂里","LIN":"34鄰","STREET":"國聖街","SECT":" ","MAREA":" ","LANE":" ","ALLEY":" ","HOUSE_NO":"９７號","E_COORD97":170475.98000000001,"N_COORD97":2548084.25,"ADDRESS":"國聖街９７號","OBJECTID":289924},"geometry":{"x":170475.98000000138,"y":2548084.2500000037}},{"attributes":{"ID":289931,"DIS_CODE":0,"TOWNNAME":"永康區","LI":"西灣里","LIN":"41鄰","STREET":"永華路","SECT":" ","MAREA":" ","LANE":" ","ALLEY":" ","HOUSE_NO":"８５號","E_COORD97":174084.48999999999,"N_COORD97":2545370.1800000002,"ADDRESS":"永華路８５號","OBJECTID":289925},"geometry":{"x":174084.49000000115,"y":2545370.1800000016}},{"attributes":{"ID":289932,"DIS_CODE":0,"TOWNNAME":"永康區","LI":"尚頂里","LIN":"8鄰","STREET":"中正二街","SECT":" ","MAREA":" ","LANE":" ","ALLEY":" ","HOUSE_NO":"３８號","E_COORD97":170910.07999999999,"N_COORD97":2547383.02,"ADDRESS":"中正二街３８號","OBJECTID":289926},"geometry":{"x":170910.08000000101,"y":2547383.0199999996}},{"attributes":{"ID":289933,"DIS_CODE":0,"TOWNNAME":"中西區","LI":"永福里","LIN":"21鄰","STREET":"忠義路","SECT":"二段","MAREA":" ","LANE":"１４７巷","ALLEY":" ","HOUSE_NO":"１２號四樓之２","E_COORD97":168345.14000000001,"N_COORD97":2544062.6899999999,"ADDRESS":"忠義路二段１４７巷１２號四樓之２","OBJECTID":289927},"geometry":{"x":168345.13999999966,"y":2544062.6899999995}},{"attributes":{"ID":289934,"DIS_CODE":0,"TOWNNAME":"中西區","LI":"永福里","LIN":"21鄰","STREET":"忠義路","SECT":"二段","MAREA":" ","LANE":"１４７巷","ALLEY":" ","HOUSE_NO":"１２號四樓之３","E_COORD97":168345.14000000001,"N_COORD97":2544062.6899999999,"ADDRESS":"忠義路二段１４７巷１２號四樓之３","OBJECTID":289928},"geometry":{"x":168345.13999999966,"y":2544062.6899999995}},{"attributes":{"ID":289935,"DIS_CODE":0,"TOWNNAME":"永康區","LI":"西灣里","LIN":"42鄰","STREET":"國光六街","SECT":" ","MAREA":" ","LANE":" ","ALLEY":" ","HOUSE_NO":"１３０號","E_COORD97":173940.89999999999,"N_COORD97":2545388.0299999998,"ADDRESS":"國光六街１３０號","OBJECTID":289929},"geometry":{"x":173940.9000000013,"y":2545388.0299999993}},{"attributes":{"ID":289936,"DIS_CODE":0,"TOWNNAME":"永康區","LI":"尚頂里","LIN":"7鄰","STREET":"\u25A0信街","SECT":" ","MAREA":" ","LANE":" ","ALLEY":" ","HOUSE_NO":"１４２號","E_COORD97":171081.23999999999,"N_COORD97":2547803.2400000002,"ADDRESS":"\u25A0信街１４２號","OBJECTID":289930},"geometry":{"x":171081.24000000022,"y":2547803.2400000039}},{"attributes":{"ID":289937,"DIS_CODE":0,"TOWNNAME":"永康區","LI":"尚頂里","LIN":"35鄰","STREET":"國聖街","SECT":" ","MAREA":" ","LANE":" ","ALLEY":" ","HOUSE_NO":"６７號","E_COORD97":170388.89999999999,"N_COORD97":2547961.6200000001,"ADDRESS":"國聖街６７號","OBJECTID":289931},"geometry":{"x":170388.90000000037,"y":2547961.6200000029}},{"attributes":{"ID":289938,"DIS_CODE":0,"TOWNNAME":"中西區","LI":"永福里","LIN":"21鄰","STREET":"忠義路","SECT":"二段","MAREA":" ","LANE":"１４７巷","ALLEY":" ","HOUSE_NO":"１２號四樓之４","E_COORD97":168345.14000000001,"N_COORD97":2544062.6899999999,"ADDRESS":"忠義路二段１４７巷１２號四樓之４","OBJECTID":289932},"geometry":{"x":168345.13999999966,"y":2544062.6899999995}},{"attributes":{"ID":289939,"DIS_CODE":0,"TOWNNAME":"中西區","LI":"永福里","LIN":"21鄰","STREET":"忠義路","SECT":"二段","MAREA":" ","LANE":"１４７巷","ALLEY":" ","HOUSE_NO":"１２號四樓之５","E_COORD97":168345.14000000001,"N_COORD97":2544062.6899999999,"ADDRESS":"忠義路二段１４７巷１２號四樓之５","OBJECTID":289933},"geometry":{"x":168345.13999999966,"y":2544062.6899999995}},{"attributes":{"ID":289940,"DIS_CODE":0,"TOWNNAME":"中西區","LI":"永福里","LIN":"21鄰","STREET":"忠義路","SECT":"二段","MAREA":" ","LANE":"１４７巷","ALLEY":" ","HOUSE_NO":"１２號四樓之６","E_COORD97":168345.14000000001,"N_COORD97":2544062.6899999999,"ADDRESS":"忠義路二段１４７巷１２號四樓之６","OBJECTID":289934},"geometry":{"x":168345.13999999966,"y":2544062.6899999995}},{"attributes":{"ID":289941,"DIS_CODE":0,"TOWNNAME":"永康區","LI":"安康里","LIN":"22鄰","STREET":"中華路","SECT":" ","MAREA":" ","LANE":"７０３巷","ALLEY":" ","HOUSE_NO":"８９號","E_COORD97":170726.88,"N_COORD97":2546222.25,"ADDRESS":"中華路７０３巷８９號","OBJECTID":289935},"geometry":{"x":170726.88000000082,"y":2546222.25}},{"attributes":{"ID":289942,"DIS_CODE":0,"TOWNNAME":"永康區","LI":"西灣里","LIN":"4鄰","STREET":"大灣五街","SECT":" ","MAREA":" ","LANE":"３９巷","ALLEY":" ","HOUSE_NO":"６號","E_COORD97":174745.20999999999,"N_COORD97":2545218.2599999998,"ADDRESS":"大灣五街３９巷６號","OBJECTID":289936},"geometry":{"x":174745.21000000183,"y":2545218.2599999998}},{"attributes":{"ID":289943,"DIS_CODE":0,"TOWNNAME":"中西區","LI":"法華里","LIN":"21鄰","STREET":"健康路","SECT":"一段","MAREA":" ","LANE":"１５０巷","ALLEY":" ","HOUSE_NO":"１號三樓之１","E_COORD97":168765.04000000001,"N_COORD97":2542482.3100000001,"ADDRESS":"健康路一段１５０巷１號三樓之１","OBJECTID":289937},"geometry":{"x":168765.04000000004,"y":2542482.3100000005}},{"attributes":{"ID":289944,"DIS_CODE":0,"TOWNNAME":"永康區","LI":"尚頂里","LIN":"31鄰","STREET":"中正南路","SECT":" ","MAREA":" ","LANE":" ","ALLEY":" ","HOUSE_NO":"２９１號","E_COORD97":170166.31,"N_COORD97":2547430.7400000002,"ADDRESS":"中正南路２９１號","OBJECTID":289938},"geometry":{"x":170166.30999999959,"y":2547430.7400000021}},{"attributes":{"ID":289945,"DIS_CODE":0,"TOWNNAME":"永康區","LI":"建國里","LIN":"27鄰","STREET":" ","SECT":" ","MAREA":"慈光九村","LANE":" ","ALLEY":" ","HOUSE_NO":"２８號","E_COORD97":172803.35999999999,"N_COORD97":2544245.5,"ADDRESS":"慈光九村２８號","OBJECTID":289939},"geometry":{"x":172803.3599999994,"y":2544245.5000000019}},{"attributes":{"ID":289946,"DIS_CODE":0,"TOWNNAME":"安南區","LI":"顯宮里","LIN":"5鄰","STREET":"媽祖宮二街","SECT":" ","MAREA":" ","LANE":" ","ALLEY":" ","HOUSE_NO":"７６號","E_COORD97":160665.08864,"N_COORD97":2548933.4250400001,"ADDRESS":"媽祖宮二街７６號","OBJECTID":289940},"geometry":{"x":160665.08864000067,"y":2548933.4250399973}},{"attributes":{"ID":289947,"DIS_CODE":0,"TOWNNAME":"永康區","LI":"東橋里","LIN":"4鄰","STREET":"大橋一街","SECT":" ","MAREA":" ","LANE":"３２４巷","ALLEY":" ","HOUSE_NO":"６５號","E_COORD97":171406.70999999999,"N_COORD97":2546549.6000000001,"ADDRESS":"大橋一街３２４巷６５號","OBJECTID":289941},"geometry":{"x":171406.70999999996,"y":2546549.6000000015}},{"attributes":{"ID":289948,"DIS_CODE":0,"TOWNNAME":"永康區","LI":"南灣里","LIN":"22鄰","STREET":"大灣路","SECT":" ","MAREA":" ","LANE":" ","ALLEY":" ","HOUSE_NO":"７７０號之３","E_COORD97":174107.76000000001,"N_COORD97":2544527.7799999998,"ADDRESS":"大灣路７７０號之３","OBJECTID":289942},"geometry":{"x":174107.76000000071,"y":2544527.7800000012}},{"attributes":{"ID":289949,"DIS_CODE":0,"TOWNNAME":"永康區","LI":"西灣里","LIN":"35鄰","STREET":"國光八街","SECT":" ","MAREA":" ","LANE":" ","ALLEY":" ","HOUSE_NO":"６９號","E_COORD97":174269.60000000001,"N_COORD97":2545757.5299999998,"ADDRESS":"國光八街６９號","OBJECTID":289943},"geometry":{"x":174269.60000000056,"y":2545757.5299999993}},{"attributes":{"ID":289950,"DIS_CODE":0,"TOWNNAME":"永康區","LI":"西橋里","LIN":"14鄰","STREET":"大橋一街","SECT":" ","MAREA":" ","LANE":"３１巷","ALLEY":" ","HOUSE_NO":"３８號","E_COORD97":170577.98999999999,"N_COORD97":2546339,"ADDRESS":"大橋一街３１巷３８號","OBJECTID":289944},"geometry":{"x":170577.99000000022,"y":2546339}},{"attributes":{"ID":289951,"DIS_CODE":0,"TOWNNAME":"永康區","LI":"尚頂里","LIN":"31鄰","STREET":"中正南路","SECT":" ","MAREA":" ","LANE":" ","ALLEY":" ","HOUSE_NO":"３５７號","E_COORD97":170514.64000000001,"N_COORD97":2547773.1600000001,"ADDRESS":"中正南路３５７號","OBJECTID":289945},"geometry":{"x":170514.6400000006,"y":2547773.1600000039}},{"attributes":{"ID":289952,"DIS_CODE":0,"TOWNNAME":"永康區","LI":"尚頂里","LIN":"21鄰","STREET":"南台街","SECT":" ","MAREA":" ","LANE":" ","ALLEY":" ","HOUSE_NO":"９號之１","E_COORD97":170456.48000000001,"N_COORD97":2546944.7999999998,"ADDRESS":"南台街９號之１","OBJECTID":289946},"geometry":{"x":170456.48000000045,"y":2546944.8000000007}},{"attributes":{"ID":289953,"DIS_CODE":0,"TOWNNAME":"永康區","LI":"西灣里","LIN":"32鄰","STREET":"國光八街","SECT":" ","MAREA":" ","LANE":" ","ALLEY":" ","HOUSE_NO":"７２號","E_COORD97":174236.35999999999,"N_COORD97":2545771.46,"ADDRESS":"國光八街７２號","OBJECTID":289947},"geometry":{"x":174236.36000000127,"y":2545771.4600000046}},{"attributes":{"ID":289954,"DIS_CODE":0,"TOWNNAME":"永康區","LI":"尚頂里","LIN":"17鄰","STREET":"中正南路","SECT":" ","MAREA":" ","LANE":" ","ALLEY":" ","HOUSE_NO":"２１４號","E_COORD97":170123.57000000001,"N_COORD97":2547302.21,"ADDRESS":"中正南路２１４號","OBJECTID":289948},"geometry":{"x":170123.57000000216,"y":2547302.2100000046}},{"attributes":{"ID":289955,"DIS_CODE":0,"TOWNNAME":"永康區","LI":"西灣里","LIN":"14鄰","STREET":"民族路","SECT":" ","MAREA":" ","LANE":" ","ALLEY":" ","HOUSE_NO":"４１９號","E_COORD97":174751.42999999999,"N_COORD97":2545361.5299999998,"ADDRESS":"民族路４１９號","OBJECTID":289949},"geometry":{"x":174751.4299999997,"y":2545361.5299999993}},{"attributes":{"ID":289956,"DIS_CODE":0,"TOWNNAME":"永康區","LI":"\u25A0行里","LIN":"38鄰","STREET":"仁愛街","SECT":" ","MAREA":" ","LANE":"１３６巷","ALLEY":" ","HOUSE_NO":"５１號","E_COORD97":172286.22,"N_COORD97":2549610.52,"ADDRESS":"仁愛街１３６巷５１號","OBJECTID":289950},"geometry":{"x":172286.21999999974,"y":2549610.5199999996}},{"attributes":{"ID":289957,"DIS_CODE":0,"TOWNNAME":"永康區","LI":"西灣里","LIN":"9鄰","STREET":"永大路","SECT":"二段","MAREA":" ","LANE":" ","ALLEY":" ","HOUSE_NO":"４４６號","E_COORD97":174375.76999999999,"N_COORD97":2545261.9300000002,"ADDRESS":"永大路二段４４６號","OBJECTID":289951},"geometry":{"x":174375.76999999955,"y":2545261.9300000034}},{"attributes":{"ID":289958,"DIS_CODE":0,"TOWNNAME":"歸仁區","LI":"七甲里","LIN":"13鄰","STREET":"南潭一街","SECT":" ","MAREA":" ","LANE":" ","ALLEY":" ","HOUSE_NO":"１７號","E_COORD97":175970.15087899999,"N_COORD97":2542969.1293299999,"ADDRESS":"南潭一街１７號","OBJECTID":289952},"geometry":{"x":175970.15087900218,"y":2542969.1293270029}},{"attributes":{"ID":289959,"DIS_CODE":0,"TOWNNAME":"永康區","LI":"甲頂里","LIN":" ","STREET":"大武街","SECT":" ","MAREA":" ","LANE":"５９７巷","ALLEY":" ","HOUSE_NO":"４２號","E_COORD97":170235.60999999999,"N_COORD97":2546578.9900000002,"ADDRESS":"大武街５９７巷４２號","OBJECTID":289953},"geometry":{"x":170235.61000000127,"y":2546578.9900000021}},{"attributes":{"ID":289960,"DIS_CODE":0,"TOWNNAME":"永康區","LI":"東灣里","LIN":"26鄰","STREET":"大灣東路","SECT":" ","MAREA":" ","LANE":" ","ALLEY":" ","HOUSE_NO":"４１２號","E_COORD97":175241.16,"N_COORD97":2544698.4900000002,"ADDRESS":"大灣東路４１２號","OBJECTID":289954},"geometry":{"x":175241.16000000108,"y":2544698.4900000002}},{"attributes":{"ID":289961,"DIS_CODE":0,"TOWNNAME":"永康區","LI":"安康里","LIN":"13鄰","STREET":"中華路","SECT":" ","MAREA":" ","LANE":"６１９巷","ALLEY":" ","HOUSE_NO":"１０８號","E_COORD97":170834.62,"N_COORD97":2545985.4900000002,"ADDRESS":"中華路６１９巷１０８號","OBJECTID":289955},"geometry":{"x":170834.62000000011,"y":2545985.4900000021}},{"attributes":{"ID":289962,"DIS_CODE":0,"TOWNNAME":"善化區","LI":"西關里","LIN":"13鄰","STREET":"中山路","SECT":" ","MAREA":" ","LANE":" ","ALLEY":" ","HOUSE_NO":"５９９號之９","E_COORD97":176726.64999999999,"N_COORD97":2559184.77,"ADDRESS":"中山路５９９號之９","OBJECTID":289956},"geometry":{"x":176726.6500000013,"y":2559184.7700000014}},{"attributes":{"ID":289963,"DIS_CODE":0,"TOWNNAME":"永康區","LI":"西勢里","LIN":"25鄰","STREET":"廣興街","SECT":" ","MAREA":" ","LANE":"２６巷","ALLEY":" ","HOUSE_NO":"２６號","E_COORD97":175926.81,"N_COORD97":2546456.9900000002,"ADDRESS":"廣興街２６巷２６號","OBJECTID":289957},"geometry":{"x":175926.80999999959,"y":2546456.9900000021}},{"attributes":{"ID":289964,"DIS_CODE":0,"TOWNNAME":"永康區","LI":"西灣里","LIN":"12鄰","STREET":"大灣五街","SECT":" ","MAREA":" ","LANE":"１６６巷","ALLEY":" ","HOUSE_NO":"１２號","E_COORD97":174521.72,"N_COORD97":2545372.9399999999,"ADDRESS":"大灣五街１６６巷１２號","OBJECTID":289958},"geometry":{"x":174521.72000000067,"y":2545372.9399999995}},{"attributes":{"ID":289965,"DIS_CODE":0,"TOWNNAME":"永康區","LI":"西灣里","LIN":"5鄰","STREET":"大灣五街","SECT":" ","MAREA":" ","LANE":"６９巷","ALLEY":" ","HOUSE_NO":"１２號","E_COORD97":174665.60999999999,"N_COORD97":2545239.5699999998,"ADDRESS":"大灣五街６９巷１２號","OBJECTID":289959},"geometry":{"x":174665.61000000127,"y":2545239.5700000003}},{"attributes":{"ID":289966,"DIS_CODE":0,"TOWNNAME":"永康區","LI":"西灣里","LIN":"10鄰","STREET":"大灣五街","SECT":" ","MAREA":" ","LANE":"１４１巷","ALLEY":" ","HOUSE_NO":"３號","E_COORD97":174454.57999999999,"N_COORD97":2545281.6200000001,"ADDRESS":"大灣五街１４１巷３號","OBJECTID":289960},"geometry":{"x":174454.58000000194,"y":2545281.620000001}},{"attributes":{"ID":289967,"DIS_CODE":0,"TOWNNAME":"永康區","LI":"西灣里","LIN":"41鄰","STREET":"國光六街","SECT":" ","MAREA":" ","LANE":"９０巷","ALLEY":" ","HOUSE_NO":"３０號","E_COORD97":174068.14999999999,"N_COORD97":2545422.1600000001,"ADDRESS":"國光六街９０巷３０號","OBJECTID":289961},"geometry":{"x":174068.1500000013,"y":2545422.1600000001}},{"attributes":{"ID":289968,"DIS_CODE":0,"TOWNNAME":"永康區","LI":"網寮里","LIN":"21鄰","STREET":"文化路","SECT":" ","MAREA":" ","LANE":"２４２巷","ALLEY":" ","HOUSE_NO":"７號六樓之２","E_COORD97":173560.51000000001,"N_COORD97":2546162.9900000002,"ADDRESS":"文化路２４２巷７號六樓之２","OBJECTID":289962},"geometry":{"x":173560.50999999978,"y":2546162.9900000002}},{"attributes":{"ID":289969,"DIS_CODE":0,"TOWNNAME":"永康區","LI":"網寮里","LIN":"21鄰","STREET":"文化路","SECT":" ","MAREA":" ","LANE":"２４２巷","ALLEY":" ","HOUSE_NO":"１０號五樓之１","E_COORD97":173582.04000000001,"N_COORD97":2546161.8399999999,"ADDRESS":"文化路２４２巷１０號五樓之１","OBJECTID":289963},"geometry":{"x":173582.04000000097,"y":2546161.8400000017}},{"attributes":{"ID":289970,"DIS_CODE":0,"TOWNNAME":"永康區","LI":"尚頂里","LIN":"11鄰","STREET":"正南一街","SECT":" ","MAREA":" ","LANE":"５７巷","ALLEY":" ","HOUSE_NO":"７８號","E_COORD97":171321.56,"N_COORD97":2547307.3300000001,"ADDRESS":"正南一街５７巷７８號","OBJECTID":289964},"geometry":{"x":171321.56000000145,"y":2547307.3300000038}},{"attributes":{"ID":289971,"DIS_CODE":0,"TOWNNAME":"善化區","LI":"光文里","LIN":"13鄰","STREET":"樹人路","SECT":" ","MAREA":" ","LANE":" ","ALLEY":" ","HOUSE_NO":"５２號","E_COORD97":178377.67000000001,"N_COORD97":2559046.75,"ADDRESS":"樹人路５２號","OBJECTID":289965},"geometry":{"x":178377.66999999993,"y":2559046.7500000019}},{"attributes":{"ID":289972,"DIS_CODE":0,"TOWNNAME":"永康區","LI":"甲頂里","LIN":"14鄰","STREET":"大武街","SECT":" ","MAREA":" ","LANE":"１８巷","ALLEY":" ","HOUSE_NO":"４５號","E_COORD97":170414.32000000001,"N_COORD97":2546602.4900000002,"ADDRESS":"大武街１８巷４５號","OBJECTID":289966},"geometry":{"x":170414.32000000123,"y":2546602.4900000021}},{"attributes":{"ID":289973,"DIS_CODE":0,"TOWNNAME":"永康區","LI":"甲頂里","LIN":"14鄰","STREET":"大武街","SECT":" ","MAREA":" ","LANE":"１８巷","ALLEY":" ","HOUSE_NO":"２９號","E_COORD97":170370.97,"N_COORD97":2546629.1600000001,"ADDRESS":"大武街１８巷２９號","OBJECTID":289967},"geometry":{"x":170370.96999999974,"y":2546629.1600000001}},{"attributes":{"ID":289974,"DIS_CODE":0,"TOWNNAME":"永康區","LI":"西橋里","LIN":"6鄰","STREET":"中山南路","SECT":" ","MAREA":" ","LANE":"４３巷","ALLEY":" ","HOUSE_NO":"４９號","E_COORD97":170673.39000000001,"N_COORD97":2545971.1200000001,"ADDRESS":"中山南路４３巷４９號","OBJECTID":289968},"geometry":{"x":170673.39000000153,"y":2545971.1200000029}},{"attributes":{"ID":289975,"DIS_CODE":0,"TOWNNAME":"永康區","LI":"網寮里","LIN":"21鄰","STREET":"文化路","SECT":" ","MAREA":" ","LANE":"２４２巷","ALLEY":" ","HOUSE_NO":"１號八樓之２","E_COORD97":173565.57000000001,"N_COORD97":2546139.8399999999,"ADDRESS":"文化路２４２巷１號八樓之２","OBJECTID":289969},"geometry":{"x":173565.57000000123,"y":2546139.8399999999}},{"attributes":{"ID":289976,"DIS_CODE":0,"TOWNNAME":"永康區","LI":"\u25A0行里","LIN":"24鄰","STREET":"中正南路","SECT":" ","MAREA":" ","LANE":"５９２巷","ALLEY":" ","HOUSE_NO":"２２號","E_COORD97":171548.84,"N_COORD97":2548619.1299999999,"ADDRESS":"中正南路５９２巷２２號","OBJECTID":289970},"geometry":{"x":171548.84000000078,"y":2548619.129999999}},{"attributes":{"ID":289977,"DIS_CODE":0,"TOWNNAME":"永康區","LI":"網寮里","LIN":"21鄰","STREET":"文化路","SECT":" ","MAREA":" ","LANE":"２４２巷","ALLEY":" ","HOUSE_NO":"２８之２號","E_COORD97":173612.07999999999,"N_COORD97":2546182.3300000001,"ADDRESS":"文化路２４２巷２８之２號","OBJECTID":289971},"geometry":{"x":173612.08000000194,"y":2546182.3300000019}},{"attributes":{"ID":289978,"DIS_CODE":0,"TOWNNAME":"永康區","LI":"網寮里","LIN":"21鄰","STREET":"文化路","SECT":" ","MAREA":" ","LANE":"２４２巷","ALLEY":" ","HOUSE_NO":"３０之９號","E_COORD97":173571.28,"N_COORD97":2546192.0299999998,"ADDRESS":"文化路２４２巷３０之９號","OBJECTID":289972},"geometry":{"x":173571.28000000026,"y":2546192.0299999993}},{"attributes":{"ID":289979,"DIS_CODE":0,"TOWNNAME":"永康區","LI":"網寮里","LIN":"21鄰","STREET":"文化路","SECT":" ","MAREA":" ","LANE":"２４２巷","ALLEY":" ","HOUSE_NO":"２６之１０號","E_COORD97":173600.17000000001,"N_COORD97":2546181.0699999998,"ADDRESS":"文化路２４２巷２６之１０號","OBJECTID":289973},"geometry":{"x":173600.17000000086,"y":2546181.0700000022}},{"attributes":{"ID":289980,"DIS_CODE":0,"TOWNNAME":"永康區","LI":"網寮里","LIN":"21鄰","STREET":"文化路","SECT":" ","MAREA":" ","LANE":"２４２巷","ALLEY":" ","HOUSE_NO":"２８之７號","E_COORD97":173612.07999999999,"N_COORD97":2546182.3300000001,"ADDRESS":"文化路２４２巷２８之７號","OBJECTID":289974},"geometry":{"x":173612.08000000194,"y":2546182.3300000019}},{"attributes":{"ID":289981,"DIS_CODE":0,"TOWNNAME":"永康區","LI":"網寮里","LIN":"21鄰","STREET":"文化路","SECT":" ","MAREA":" ","LANE":"２４２巷","ALLEY":" ","HOUSE_NO":"５號","E_COORD97":173564.04999999999,"N_COORD97":2546148.5600000001,"ADDRESS":"文化路２４２巷５號","OBJECTID":289975},"geometry":{"x":173564.04999999981,"y":2546148.5600000005}},{"attributes":{"ID":289982,"DIS_CODE":0,"TOWNNAME":"永康區","LI":"網寮里","LIN":"21鄰","STREET":"文化路","SECT":" ","MAREA":" ","LANE":"２４２巷","ALLEY":" ","HOUSE_NO":"３２之２號","E_COORD97":173562.17999999999,"N_COORD97":2546197.79,"ADDRESS":"文化路２４２巷３２之２號","OBJECTID":289976},"geometry":{"x":173562.18000000063,"y":2546197.7899999972}},{"attributes":{"ID":289983,"DIS_CODE":0,"TOWNNAME":"永康區","LI":"網寮里","LIN":"21鄰","STREET":"文化路","SECT":" ","MAREA":" ","LANE":"２６１巷","ALLEY":" ","HOUSE_NO":"２１號","E_COORD97":173633.14999999999,"N_COORD97":2546098.0800000001,"ADDRESS":"文化路２６１巷２１號","OBJECTID":289977},"geometry":{"x":173633.15000000037,"y":2546098.0800000001}},{"attributes":{"ID":289984,"DIS_CODE":0,"TOWNNAME":"永康區","LI":"網寮里","LIN":"21鄰","STREET":"文化路","SECT":" ","MAREA":" ","LANE":"２４２巷","ALLEY":" ","HOUSE_NO":"２８之９號","E_COORD97":173612.07999999999,"N_COORD97":2546182.3300000001,"ADDRESS":"文化路２４２巷２８之９號","OBJECTID":289978},"geometry":{"x":173612.08000000194,"y":2546182.3300000019}},{"attributes":{"ID":289985,"DIS_CODE":0,"TOWNNAME":"永康區","LI":"網寮里","LIN":"21鄰","STREET":"文化路","SECT":" ","MAREA":" ","LANE":"２４２巷","ALLEY":" ","HOUSE_NO":"２６之１號","E_COORD97":173598.92000000001,"N_COORD97":2546181.0699999998,"ADDRESS":"文化路２４２巷２６之１號","OBJECTID":289979},"geometry":{"x":173598.91999999993,"y":2546181.0700000022}},{"attributes":{"ID":289986,"DIS_CODE":0,"TOWNNAME":"永康區","LI":"網寮里","LIN":"21鄰","STREET":"文化路","SECT":" ","MAREA":" ","LANE":"２４２巷","ALLEY":" ","HOUSE_NO":"２６之１５號","E_COORD97":173600.17000000001,"N_COORD97":2546181.0699999998,"ADDRESS":"文化路２４２巷２６之１５號","OBJECTID":289980},"geometry":{"x":173600.17000000086,"y":2546181.0700000022}},{"attributes":{"ID":289987,"DIS_CODE":0,"TOWNNAME":"永康區","LI":"網寮里","LIN":"21鄰","STREET":"文化路","SECT":" ","MAREA":" ","LANE":"２４２巷","ALLEY":" ","HOUSE_NO":"３０之８號","E_COORD97":173571.28,"N_COORD97":2546192.0299999998,"ADDRESS":"文化路２４２巷３０之８號","OBJECTID":289981},"geometry":{"x":173571.28000000026,"y":2546192.0299999993}},{"attributes":{"ID":289988,"DIS_CODE":0,"TOWNNAME":"永康區","LI":"\u25A0行里","LIN":"9鄰","STREET":"中正路","SECT":" ","MAREA":" ","LANE":"３３７巷","ALLEY":" ","HOUSE_NO":"１９號","E_COORD97":172487.20999999999,"N_COORD97":2548268.3700000001,"ADDRESS":"中正路３３７巷１９號","OBJECTID":289982},"geometry":{"x":172487.21000000183,"y":2548268.3700000029}},{"attributes":{"ID":289989,"DIS_CODE":0,"TOWNNAME":"永康區","LI":"\u25A0行里","LIN":"38鄰","STREET":"仁愛街","SECT":" ","MAREA":" ","LANE":"１３６巷","ALLEY":" ","HOUSE_NO":"５３號","E_COORD97":172290.56,"N_COORD97":2549610.52,"ADDRESS":"仁愛街１３６巷５３號","OBJECTID":289983},"geometry":{"x":172290.55999999959,"y":2549610.5199999996}},{"attributes":{"ID":289990,"DIS_CODE":0,"TOWNNAME":"永康區","LI":"西灣里","LIN":"25鄰","STREET":"國光七街","SECT":" ","MAREA":" ","LANE":"２０巷","ALLEY":" ","HOUSE_NO":"３號","E_COORD97":174309.63,"N_COORD97":2545564.8900000001,"ADDRESS":"國光七街２０巷３號","OBJECTID":289984},"geometry":{"x":174309.62999999989,"y":2545564.8900000043}},{"attributes":{"ID":289991,"DIS_CODE":0,"TOWNNAME":"北區","LI":"正風里","LIN":"1鄰","STREET":"公園路","SECT":" ","MAREA":" ","LANE":" ","ALLEY":" ","HOUSE_NO":"８６８號","E_COORD97":169296.23999999999,"N_COORD97":2546052.6899999999,"ADDRESS":"公園路８６８號","OBJECTID":289985},"geometry":{"x":169296.24000000022,"y":2546052.6899999995}},{"attributes":{"ID":289992,"DIS_CODE":0,"TOWNNAME":"北區","LI":"正風里","LIN":"1鄰","STREET":"公園路","SECT":" ","MAREA":" ","LANE":" ","ALLEY":" ","HOUSE_NO":"８７０號","E_COORD97":169299.51000000001,"N_COORD97":2546056.1299999999,"ADDRESS":"公園路８７０號","OBJECTID":289986},"geometry":{"x":169299.50999999885,"y":2546056.129999999}},{"attributes":{"ID":289993,"DIS_CODE":0,"TOWNNAME":"北區","LI":"正風里","LIN":"1鄰","STREET":"公園路","SECT":" ","MAREA":" ","LANE":" ","ALLEY":" ","HOUSE_NO":"８７８號","E_COORD97":169306.32000000001,"N_COORD97":2546065.8700000001,"ADDRESS":"公園路８７８號","OBJECTID":289987},"geometry":{"x":169306.3200000003,"y":2546065.870000001}},{"attributes":{"ID":289994,"DIS_CODE":0,"TOWNNAME":"北區","LI":"正風里","LIN":"1鄰","STREET":"公園路","SECT":" ","MAREA":" ","LANE":" ","ALLEY":" ","HOUSE_NO":"８８２號","E_COORD97":169310.67999999999,"N_COORD97":2546072.3300000001,"ADDRESS":"公園路８８２號","OBJECTID":289988},"geometry":{"x":169310.68000000063,"y":2546072.3300000001}},{"attributes":{"ID":289995,"DIS_CODE":0,"TOWNNAME":"北區","LI":"華興里","LIN":"1鄰","STREET":"開元路","SECT":" ","MAREA":" ","LANE":" ","ALLEY":" ","HOUSE_NO":"２８０號","E_COORD97":170287.85999999999,"N_COORD97":2545423.27,"ADDRESS":"開元路２８０號","OBJECTID":289989},"geometry":{"x":170287.8600000022,"y":2545423.2700000014}},{"attributes":{"ID":289996,"DIS_CODE":0,"TOWNNAME":"永康區","LI":"\u25A0行里","LIN":"20鄰","STREET":"正南五街","SECT":" ","MAREA":" ","LANE":"２８９巷","ALLEY":" ","HOUSE_NO":"７５號","E_COORD97":171793.35000000001,"N_COORD97":2548350.6000000001,"ADDRESS":"正南五街２８９巷７５號","OBJECTID":289990},"geometry":{"x":171793.34999999963,"y":2548350.6000000015}},{"attributes":{"ID":289997,"DIS_CODE":0,"TOWNNAME":"永康區","LI":"\u25A0行里","LIN":"41鄰","STREET":"永安路","SECT":" ","MAREA":" ","LANE":"１６５巷","ALLEY":" ","HOUSE_NO":"１１１號","E_COORD97":172481.63,"N_COORD97":2549432.8199999998,"ADDRESS":"永安路１６５巷１１１號","OBJECTID":289991},"geometry":{"x":172481.63000000082,"y":2549432.8200000003}},{"attributes":{"ID":289998,"DIS_CODE":0,"TOWNNAME":"永康區","LI":"尚頂里","LIN":"35鄰","STREET":"國聖街","SECT":" ","MAREA":" ","LANE":" ","ALLEY":" ","HOUSE_NO":"５５號","E_COORD97":170364.75,"N_COORD97":2547921.9900000002,"ADDRESS":"國聖街５５號","OBJECTID":289992},"geometry":{"x":170364.75000000093,"y":2547921.9900000002}},{"attributes":{"ID":289999,"DIS_CODE":0,"TOWNNAME":"永康區","LI":"大灣里","LIN":"21鄰","STREET":"大灣五街","SECT":" ","MAREA":" ","LANE":"３９巷","ALLEY":" ","HOUSE_NO":"１１號","E_COORD97":174713.95999999999,"N_COORD97":2545156.8399999999,"ADDRESS":"大灣五街３９巷１１號","OBJECTID":289993},"geometry":{"x":174713.95999999996,"y":2545156.8399999999}},{"attributes":{"ID":290000,"DIS_CODE":0,"TOWNNAME":"永康區","LI":"大灣里","LIN":"21鄰","STREET":"大灣五街","SECT":" ","MAREA":" ","LANE":"３９巷","ALLEY":" ","HOUSE_NO":"１７號","E_COORD97":174716.63,"N_COORD97":2545130.9900000002,"ADDRESS":"大灣五街３９巷１７號","OBJECTID":289994},"geometry":{"x":174716.62999999896,"y":2545130.9900000021}},{"attributes":{"ID":290001,"DIS_CODE":0,"TOWNNAME":"永康區","LI":"西灣里","LIN":"37鄰","STREET":"國光七街","SECT":" ","MAREA":" ","LANE":" ","ALLEY":" ","HOUSE_NO":"５２號","E_COORD97":174165.73999999999,"N_COORD97":2545535.75,"ADDRESS":"國光七街５２號","OBJECTID":289995},"geometry":{"x":174165.74000000115,"y":2545535.7500000019}},{"attributes":{"ID":290002,"DIS_CODE":0,"TOWNNAME":"永康區","LI":"\u25A0行里","LIN":"9鄰","STREET":"中正路","SECT":" ","MAREA":" ","LANE":"３３７巷","ALLEY":" ","HOUSE_NO":"２８號","E_COORD97":172464.67999999999,"N_COORD97":2548249.4900000002,"ADDRESS":"中正路３３７巷２８號","OBJECTID":289996},"geometry":{"x":172464.6799999997,"y":2548249.4900000021}},{"attributes":{"ID":290003,"DIS_CODE":0,"TOWNNAME":"永康區","LI":"西灣里","LIN":"36鄰","STREET":"國光八街","SECT":" ","MAREA":" ","LANE":" ","ALLEY":" ","HOUSE_NO":"１１３號","E_COORD97":174176.57999999999,"N_COORD97":2545742.9100000001,"ADDRESS":"國光八街１１３號","OBJECTID":289997},"geometry":{"x":174176.58000000194,"y":2545742.9100000001}},{"attributes":{"ID":290004,"DIS_CODE":0,"TOWNNAME":"永康區","LI":"東灣里","LIN":"7鄰","STREET":"大灣路","SECT":" ","MAREA":" ","LANE":" ","ALLEY":" ","HOUSE_NO":"４０４號","E_COORD97":174793.06,"N_COORD97":2545034.7400000002,"ADDRESS":"大灣路４０４號","OBJECTID":289998},"geometry":{"x":174793.05999999866,"y":2545034.7400000021}},{"attributes":{"ID":290005,"DIS_CODE":0,"TOWNNAME":"永康區","LI":"\u25A0行里","LIN":"37鄰","STREET":"仁愛街","SECT":" ","MAREA":" ","LANE":"８４巷","ALLEY":" ","HOUSE_NO":"３號","E_COORD97":172074.79000000001,"N_COORD97":2549415.6600000001,"ADDRESS":"仁愛街８４巷３號","OBJECTID":289999},"geometry":{"x":172074.7900000019,"y":2549415.660000002}},{"attributes":{"ID":290006,"DIS_CODE":0,"TOWNNAME":"永康區","LI":"尚頂里","LIN":"29鄰","STREET":"中華路","SECT":" ","MAREA":" ","LANE":" ","ALLEY":" ","HOUSE_NO":"１００８號","E_COORD97":170174.48999999999,"N_COORD97":2546921.7400000002,"ADDRESS":"中華路１００８號","OBJECTID":290000},"geometry":{"x":170174.49000000022,"y":2546921.7400000039}}]}