{"displayFieldName":"TOWNNAME","fieldAliases":{"ID":"ID","DIS_CODE":"DIS_CODE","TOWNNAME":"TOWNNAME","LI":"LI","LIN":"LIN","STREET":"STREET","SECT":"SECT","MAREA":"MAREA","LANE":"LANE","ALLEY":"ALLEY","HOUSE_NO":"HOUSE_NO","E_COORD97":"E_COORD97","N_COORD97":"N_COORD97","ADDRESS":"ADDRESS","OBJECTID":"OBJECTID"},"geometryType":"esriGeometryPoint","spatialReference":{"wkid":102443,"latestWkid":3826},"fields":[{"name":"ID","type":"esriFieldTypeDouble","alias":"ID"},{"name":"DIS_CODE","type":"esriFieldTypeInteger","alias":"DIS_CODE"},{"name":"TOWNNAME","type":"esriFieldTypeString","alias":"TOWNNAME","length":8},{"name":"LI","type":"esriFieldTypeString","alias":"LI","length":8},{"name":"LIN","type":"esriFieldTypeString","alias":"LIN","length":12},{"name":"STREET","type":"esriFieldTypeString","alias":"STREET","length":20},{"name":"SECT","type":"esriFieldTypeString","alias":"SECT","length":8},{"name":"MAREA","type":"esriFieldTypeString","alias":"MAREA","length":12},{"name":"LANE","type":"esriFieldTypeString","alias":"LANE","length":10},{"name":"ALLEY","type":"esriFieldTypeString","alias":"ALLEY","length":10},{"name":"HOUSE_NO","type":"esriFieldTypeString","alias":"HOUSE_NO","length":20},{"name":"E_COORD97","type":"esriFieldTypeDouble","alias":"E_COORD97"},{"name":"N_COORD97","type":"esriFieldTypeDouble","alias":"N_COORD97"},{"name":"ADDRESS","type":"esriFieldTypeString","alias":"ADDRESS","length":50},{"name":"OBJECTID","type":"esriFieldTypeOID","alias":"OBJECTID"}],"features":[{"attributes":{"ID":432426,"DIS_CODE":0,"TOWNNAME":"北區","LI":"長榮里","LIN":"3鄰","STREET":"長榮路","SECT":"五段","MAREA":" ","LANE":"４１巷","ALLEY":" ","HOUSE_NO":"３６號二樓之１","E_COORD97":169917.45000000001,"N_COORD97":2545629.1800000002,"ADDRESS":"長榮路五段４１巷３６號二樓之１","OBJECTID":432401},"geometry":{"x":169917.45000000205,"y":2545629.1799999997}},{"attributes":{"ID":432427,"DIS_CODE":0,"TOWNNAME":"北區","LI":"長榮里","LIN":"3鄰","STREET":"長榮路","SECT":"五段","MAREA":" ","LANE":"４１巷","ALLEY":" ","HOUSE_NO":"３６號二樓之２","E_COORD97":169917.45000000001,"N_COORD97":2545629.1800000002,"ADDRESS":"長榮路五段４１巷３６號二樓之２","OBJECTID":432402},"geometry":{"x":169917.45000000205,"y":2545629.1799999997}},{"attributes":{"ID":432428,"DIS_CODE":0,"TOWNNAME":"北區","LI":"三德里","LIN":"4鄰","STREET":"裕民街","SECT":" ","MAREA":" ","LANE":"８４巷","ALLEY":" ","HOUSE_NO":"１號三樓之７","E_COORD97":168513.73999999999,"N_COORD97":2544520.3399999999,"ADDRESS":"裕民街８４巷１號三樓之７","OBJECTID":432403},"geometry":{"x":168513.74000000209,"y":2544520.3400000036}},{"attributes":{"ID":432429,"DIS_CODE":0,"TOWNNAME":"北區","LI":"長榮里","LIN":"3鄰","STREET":"長榮路","SECT":"五段","MAREA":" ","LANE":"４１巷","ALLEY":" ","HOUSE_NO":"３６號三樓之１","E_COORD97":169917.45000000001,"N_COORD97":2545629.1800000002,"ADDRESS":"長榮路五段４１巷３６號三樓之１","OBJECTID":432404},"geometry":{"x":169917.45000000205,"y":2545629.1799999997}},{"attributes":{"ID":432430,"DIS_CODE":0,"TOWNNAME":"北區","LI":"長榮里","LIN":"3鄰","STREET":"長榮路","SECT":"五段","MAREA":" ","LANE":"４１巷","ALLEY":" ","HOUSE_NO":"３６號三樓之２","E_COORD97":169917.45000000001,"N_COORD97":2545629.1800000002,"ADDRESS":"長榮路五段４１巷３６號三樓之２","OBJECTID":432405},"geometry":{"x":169917.45000000205,"y":2545629.1799999997}},{"attributes":{"ID":432431,"DIS_CODE":0,"TOWNNAME":"北區","LI":"長榮里","LIN":"3鄰","STREET":"長榮路","SECT":"五段","MAREA":" ","LANE":"４１巷","ALLEY":" ","HOUSE_NO":"３６號四樓之１","E_COORD97":169917.45000000001,"N_COORD97":2545629.1800000002,"ADDRESS":"長榮路五段４１巷３６號四樓之１","OBJECTID":432406},"geometry":{"x":169917.45000000205,"y":2545629.1799999997}},{"attributes":{"ID":432432,"DIS_CODE":0,"TOWNNAME":"北區","LI":"長榮里","LIN":"3鄰","STREET":"長榮路","SECT":"五段","MAREA":" ","LANE":"４１巷","ALLEY":" ","HOUSE_NO":"３６號四樓之２","E_COORD97":169917.45000000001,"N_COORD97":2545629.1800000002,"ADDRESS":"長榮路五段４１巷３６號四樓之２","OBJECTID":432407},"geometry":{"x":169917.45000000205,"y":2545629.1799999997}},{"attributes":{"ID":432433,"DIS_CODE":0,"TOWNNAME":"北區","LI":"長榮里","LIN":"3鄰","STREET":"長榮路","SECT":"五段","MAREA":" ","LANE":"４１巷","ALLEY":" ","HOUSE_NO":"３６號四樓之３","E_COORD97":169917.45000000001,"N_COORD97":2545629.1800000002,"ADDRESS":"長榮路五段４１巷３６號四樓之３","OBJECTID":432408},"geometry":{"x":169917.45000000205,"y":2545629.1799999997}},{"attributes":{"ID":432434,"DIS_CODE":0,"TOWNNAME":"北區","LI":"長榮里","LIN":"3鄰","STREET":"長榮路","SECT":"五段","MAREA":" ","LANE":"４１巷","ALLEY":" ","HOUSE_NO":"３６號四樓之５","E_COORD97":169917.45000000001,"N_COORD97":2545629.1800000002,"ADDRESS":"長榮路五段４１巷３６號四樓之５","OBJECTID":432409},"geometry":{"x":169917.45000000205,"y":2545629.1799999997}},{"attributes":{"ID":432435,"DIS_CODE":0,"TOWNNAME":"北區","LI":"長榮里","LIN":"3鄰","STREET":"長榮路","SECT":"五段","MAREA":" ","LANE":"４１巷","ALLEY":" ","HOUSE_NO":"３６號五樓之１","E_COORD97":169917.45000000001,"N_COORD97":2545629.1800000002,"ADDRESS":"長榮路五段４１巷３６號五樓之１","OBJECTID":432410},"geometry":{"x":169917.45000000205,"y":2545629.1799999997}},{"attributes":{"ID":432436,"DIS_CODE":0,"TOWNNAME":"北區","LI":"長榮里","LIN":"3鄰","STREET":"長榮路","SECT":"五段","MAREA":" ","LANE":"４１巷","ALLEY":" ","HOUSE_NO":"３６號五樓之２","E_COORD97":169917.45000000001,"N_COORD97":2545629.1800000002,"ADDRESS":"長榮路五段４１巷３６號五樓之２","OBJECTID":432411},"geometry":{"x":169917.45000000205,"y":2545629.1799999997}},{"attributes":{"ID":432437,"DIS_CODE":0,"TOWNNAME":"北區","LI":"長榮里","LIN":"3鄰","STREET":"長榮路","SECT":"五段","MAREA":" ","LANE":"４１巷","ALLEY":" ","HOUSE_NO":"３６號五樓之３","E_COORD97":169917.45000000001,"N_COORD97":2545629.1800000002,"ADDRESS":"長榮路五段４１巷３６號五樓之３","OBJECTID":432412},"geometry":{"x":169917.45000000205,"y":2545629.1799999997}},{"attributes":{"ID":432438,"DIS_CODE":0,"TOWNNAME":"東區","LI":"東安里","LIN":"4鄰","STREET":"東門路","SECT":"二段","MAREA":" ","LANE":"３巷","ALLEY":" ","HOUSE_NO":"２１號","E_COORD97":169947.51000000001,"N_COORD97":2543062.1299999999,"ADDRESS":"東門路二段３巷２１號","OBJECTID":432413},"geometry":{"x":169947.51000000071,"y":2543062.129999999}},{"attributes":{"ID":432439,"DIS_CODE":0,"TOWNNAME":"北區","LI":"長榮里","LIN":"4鄰","STREET":"長榮路","SECT":"五段","MAREA":" ","LANE":"４１巷","ALLEY":" ","HOUSE_NO":"３０號二樓之１","E_COORD97":169939.20000000001,"N_COORD97":2545612.6699999999,"ADDRESS":"長榮路五段４１巷３０號二樓之１","OBJECTID":432414},"geometry":{"x":169939.20000000019,"y":2545612.6699999999}},{"attributes":{"ID":432440,"DIS_CODE":0,"TOWNNAME":"北區","LI":"長榮里","LIN":"4鄰","STREET":"長榮路","SECT":"五段","MAREA":" ","LANE":"４１巷","ALLEY":" ","HOUSE_NO":"３０號二樓之２","E_COORD97":169939.20000000001,"N_COORD97":2545612.6699999999,"ADDRESS":"長榮路五段４１巷３０號二樓之２","OBJECTID":432415},"geometry":{"x":169939.20000000019,"y":2545612.6699999999}},{"attributes":{"ID":432441,"DIS_CODE":0,"TOWNNAME":"北區","LI":"長榮里","LIN":"4鄰","STREET":"長榮路","SECT":"五段","MAREA":" ","LANE":"４１巷","ALLEY":" ","HOUSE_NO":"３０號三樓之１","E_COORD97":169939.20000000001,"N_COORD97":2545612.6699999999,"ADDRESS":"長榮路五段４１巷３０號三樓之１","OBJECTID":432416},"geometry":{"x":169939.20000000019,"y":2545612.6699999999}},{"attributes":{"ID":432442,"DIS_CODE":0,"TOWNNAME":"北區","LI":"長榮里","LIN":"4鄰","STREET":"長榮路","SECT":"五段","MAREA":" ","LANE":"４１巷","ALLEY":" ","HOUSE_NO":"３０號三樓之２","E_COORD97":169939.20000000001,"N_COORD97":2545612.6699999999,"ADDRESS":"長榮路五段４１巷３０號三樓之２","OBJECTID":432417},"geometry":{"x":169939.20000000019,"y":2545612.6699999999}},{"attributes":{"ID":432443,"DIS_CODE":0,"TOWNNAME":"北區","LI":"長榮里","LIN":"4鄰","STREET":"長榮路","SECT":"五段","MAREA":" ","LANE":"４１巷","ALLEY":" ","HOUSE_NO":"３０號四樓之１","E_COORD97":169939.20000000001,"N_COORD97":2545612.6699999999,"ADDRESS":"長榮路五段４１巷３０號四樓之１","OBJECTID":432418},"geometry":{"x":169939.20000000019,"y":2545612.6699999999}},{"attributes":{"ID":432444,"DIS_CODE":0,"TOWNNAME":"北區","LI":"長榮里","LIN":"4鄰","STREET":"長榮路","SECT":"五段","MAREA":" ","LANE":"４１巷","ALLEY":" ","HOUSE_NO":"３０號十樓之１","E_COORD97":169939.20000000001,"N_COORD97":2545612.6699999999,"ADDRESS":"長榮路五段４１巷３０號十樓之１","OBJECTID":432419},"geometry":{"x":169939.20000000019,"y":2545612.6699999999}},{"attributes":{"ID":432445,"DIS_CODE":0,"TOWNNAME":"北區","LI":"長榮里","LIN":"4鄰","STREET":"長榮路","SECT":"五段","MAREA":" ","LANE":"４１巷","ALLEY":" ","HOUSE_NO":"３０號十樓之２","E_COORD97":169939.20000000001,"N_COORD97":2545612.6699999999,"ADDRESS":"長榮路五段４１巷３０號十樓之２","OBJECTID":432420},"geometry":{"x":169939.20000000019,"y":2545612.6699999999}},{"attributes":{"ID":432446,"DIS_CODE":0,"TOWNNAME":"北區","LI":"長榮里","LIN":"4鄰","STREET":"長榮路","SECT":"五段","MAREA":" ","LANE":"４１巷","ALLEY":" ","HOUSE_NO":"３０號十樓之３","E_COORD97":169939.20000000001,"N_COORD97":2545612.6699999999,"ADDRESS":"長榮路五段４１巷３０號十樓之３","OBJECTID":432421},"geometry":{"x":169939.20000000019,"y":2545612.6699999999}},{"attributes":{"ID":432447,"DIS_CODE":0,"TOWNNAME":"北區","LI":"長榮里","LIN":"4鄰","STREET":"長榮路","SECT":"五段","MAREA":" ","LANE":"４１巷","ALLEY":" ","HOUSE_NO":"３０號十樓之５","E_COORD97":169939.20000000001,"N_COORD97":2545612.6699999999,"ADDRESS":"長榮路五段４１巷３０號十樓之５","OBJECTID":432422},"geometry":{"x":169939.20000000019,"y":2545612.6699999999}},{"attributes":{"ID":432448,"DIS_CODE":0,"TOWNNAME":"北區","LI":"長榮里","LIN":"4鄰","STREET":"長榮路","SECT":"五段","MAREA":" ","LANE":"４１巷","ALLEY":" ","HOUSE_NO":"３０號十一樓之１","E_COORD97":169939.20000000001,"N_COORD97":2545612.6699999999,"ADDRESS":"長榮路五段４１巷３０號十一樓之１","OBJECTID":432423},"geometry":{"x":169939.20000000019,"y":2545612.6699999999}},{"attributes":{"ID":432449,"DIS_CODE":0,"TOWNNAME":"北區","LI":"長榮里","LIN":"4鄰","STREET":"長榮路","SECT":"五段","MAREA":" ","LANE":"４１巷","ALLEY":" ","HOUSE_NO":"３０號十一樓之２","E_COORD97":169939.20000000001,"N_COORD97":2545612.6699999999,"ADDRESS":"長榮路五段４１巷３０號十一樓之２","OBJECTID":432424},"geometry":{"x":169939.20000000019,"y":2545612.6699999999}},{"attributes":{"ID":432450,"DIS_CODE":0,"TOWNNAME":"北區","LI":"長榮里","LIN":"4鄰","STREET":"長榮路","SECT":"五段","MAREA":" ","LANE":"４１巷","ALLEY":" ","HOUSE_NO":"３０號十一樓之３","E_COORD97":169939.20000000001,"N_COORD97":2545612.6699999999,"ADDRESS":"長榮路五段４１巷３０號十一樓之３","OBJECTID":432425},"geometry":{"x":169939.20000000019,"y":2545612.6699999999}},{"attributes":{"ID":432451,"DIS_CODE":0,"TOWNNAME":"北區","LI":"長榮里","LIN":"4鄰","STREET":"長榮路","SECT":"五段","MAREA":" ","LANE":"４１巷","ALLEY":" ","HOUSE_NO":"３０號十一樓之５","E_COORD97":169939.20000000001,"N_COORD97":2545612.6699999999,"ADDRESS":"長榮路五段４１巷３０號十一樓之５","OBJECTID":432426},"geometry":{"x":169939.20000000019,"y":2545612.6699999999}},{"attributes":{"ID":432452,"DIS_CODE":0,"TOWNNAME":"北區","LI":"長榮里","LIN":"4鄰","STREET":"長榮路","SECT":"五段","MAREA":" ","LANE":"４１巷","ALLEY":" ","HOUSE_NO":"３０號十二樓之１","E_COORD97":169939.20000000001,"N_COORD97":2545612.6699999999,"ADDRESS":"長榮路五段４１巷３０號十二樓之１","OBJECTID":432427},"geometry":{"x":169939.20000000019,"y":2545612.6699999999}},{"attributes":{"ID":432453,"DIS_CODE":0,"TOWNNAME":"北區","LI":"長榮里","LIN":"4鄰","STREET":"長榮路","SECT":"五段","MAREA":" ","LANE":"４１巷","ALLEY":" ","HOUSE_NO":"３０號十二樓之２","E_COORD97":169939.20000000001,"N_COORD97":2545612.6699999999,"ADDRESS":"長榮路五段４１巷３０號十二樓之２","OBJECTID":432428},"geometry":{"x":169939.20000000019,"y":2545612.6699999999}},{"attributes":{"ID":432454,"DIS_CODE":0,"TOWNNAME":"北區","LI":"長榮里","LIN":"4鄰","STREET":"長榮路","SECT":"五段","MAREA":" ","LANE":"４１巷","ALLEY":" ","HOUSE_NO":"３０號十二樓之３","E_COORD97":169939.20000000001,"N_COORD97":2545612.6699999999,"ADDRESS":"長榮路五段４１巷３０號十二樓之３","OBJECTID":432429},"geometry":{"x":169939.20000000019,"y":2545612.6699999999}},{"attributes":{"ID":432455,"DIS_CODE":0,"TOWNNAME":"北區","LI":"長榮里","LIN":"9鄰","STREET":"長榮路","SECT":"五段","MAREA":" ","LANE":"４１巷","ALLEY":" ","HOUSE_NO":"６號六樓之３","E_COORD97":170065.25,"N_COORD97":2545509.7999999998,"ADDRESS":"長榮路五段４１巷６號六樓之３","OBJECTID":432430},"geometry":{"x":170065.25000000093,"y":2545509.8000000007}},{"attributes":{"ID":432456,"DIS_CODE":0,"TOWNNAME":"東區","LI":"東安里","LIN":"4鄰","STREET":"東門路","SECT":"二段","MAREA":" ","LANE":"３巷","ALLEY":" ","HOUSE_NO":"２２號","E_COORD97":169958.88,"N_COORD97":2543045.8399999999,"ADDRESS":"東門路二段３巷２２號","OBJECTID":432431},"geometry":{"x":169958.88000000082,"y":2543045.8400000017}},{"attributes":{"ID":432457,"DIS_CODE":0,"TOWNNAME":"北區","LI":"長榮里","LIN":"6鄰","STREET":"長榮路","SECT":"五段","MAREA":" ","LANE":"４１巷","ALLEY":" ","HOUSE_NO":"２０號二樓之１","E_COORD97":169989.37,"N_COORD97":2545569.0099999998,"ADDRESS":"長榮路五段４１巷２０號二樓之１","OBJECTID":432432},"geometry":{"x":169989.37000000104,"y":2545569.0099999998}},{"attributes":{"ID":432458,"DIS_CODE":0,"TOWNNAME":"北區","LI":"長榮里","LIN":"6鄰","STREET":"長榮路","SECT":"五段","MAREA":" ","LANE":"４１巷","ALLEY":" ","HOUSE_NO":"２０號二樓之２","E_COORD97":169989.37,"N_COORD97":2545569.0099999998,"ADDRESS":"長榮路五段４１巷２０號二樓之２","OBJECTID":432433},"geometry":{"x":169989.37000000104,"y":2545569.0099999998}},{"attributes":{"ID":432459,"DIS_CODE":0,"TOWNNAME":"北區","LI":"長榮里","LIN":"6鄰","STREET":"長榮路","SECT":"五段","MAREA":" ","LANE":"４１巷","ALLEY":" ","HOUSE_NO":"２０號三樓之１","E_COORD97":169989.37,"N_COORD97":2545569.0099999998,"ADDRESS":"長榮路五段４１巷２０號三樓之１","OBJECTID":432434},"geometry":{"x":169989.37000000104,"y":2545569.0099999998}},{"attributes":{"ID":432460,"DIS_CODE":0,"TOWNNAME":"北區","LI":"長榮里","LIN":"6鄰","STREET":"長榮路","SECT":"五段","MAREA":" ","LANE":"４１巷","ALLEY":" ","HOUSE_NO":"２０號三樓之２","E_COORD97":169989.37,"N_COORD97":2545569.0099999998,"ADDRESS":"長榮路五段４１巷２０號三樓之２","OBJECTID":432435},"geometry":{"x":169989.37000000104,"y":2545569.0099999998}},{"attributes":{"ID":432461,"DIS_CODE":0,"TOWNNAME":"北區","LI":"長榮里","LIN":"6鄰","STREET":"長榮路","SECT":"五段","MAREA":" ","LANE":"４１巷","ALLEY":" ","HOUSE_NO":"２０號四樓之１","E_COORD97":169989.37,"N_COORD97":2545569.0099999998,"ADDRESS":"長榮路五段４１巷２０號四樓之１","OBJECTID":432436},"geometry":{"x":169989.37000000104,"y":2545569.0099999998}},{"attributes":{"ID":432462,"DIS_CODE":0,"TOWNNAME":"東區","LI":"東安里","LIN":"4鄰","STREET":"東門路","SECT":"二段","MAREA":" ","LANE":"３巷","ALLEY":" ","HOUSE_NO":"２３號","E_COORD97":169949.22,"N_COORD97":2543070.2999999998,"ADDRESS":"東門路二段３巷２３號","OBJECTID":432437},"geometry":{"x":169949.2200000016,"y":2543070.3000000045}},{"attributes":{"ID":432463,"DIS_CODE":0,"TOWNNAME":"東區","LI":"東安里","LIN":"4鄰","STREET":"東門路","SECT":"二段","MAREA":" ","LANE":"３巷","ALLEY":" ","HOUSE_NO":"２４號","E_COORD97":169961.89000000001,"N_COORD97":2543045.2799999998,"ADDRESS":"東門路二段３巷２４號","OBJECTID":432438},"geometry":{"x":169961.8900000006,"y":2543045.2800000031}},{"attributes":{"ID":432464,"DIS_CODE":0,"TOWNNAME":"北區","LI":"長榮里","LIN":"17鄰","STREET":"長榮路","SECT":"五段","MAREA":" ","LANE":"４１巷","ALLEY":" ","HOUSE_NO":"５８號七樓之３","E_COORD97":169922.38,"N_COORD97":2545563.6200000001,"ADDRESS":"長榮路五段４１巷５８號七樓之３","OBJECTID":432439},"geometry":{"x":169922.37999999989,"y":2545563.6199999992}},{"attributes":{"ID":432465,"DIS_CODE":0,"TOWNNAME":"北區","LI":"長榮里","LIN":"17鄰","STREET":"長榮路","SECT":"五段","MAREA":" ","LANE":"４１巷","ALLEY":" ","HOUSE_NO":"５８號七樓之５","E_COORD97":169922.38,"N_COORD97":2545563.6200000001,"ADDRESS":"長榮路五段４１巷５８號七樓之５","OBJECTID":432440},"geometry":{"x":169922.37999999989,"y":2545563.6199999992}},{"attributes":{"ID":432466,"DIS_CODE":0,"TOWNNAME":"北區","LI":"長榮里","LIN":"10鄰","STREET":"長榮路","SECT":"五段","MAREA":" ","LANE":"４１巷","ALLEY":" ","HOUSE_NO":"１號六樓之２","E_COORD97":170081.28,"N_COORD97":2545470.6699999999,"ADDRESS":"長榮路五段４１巷１號六樓之２","OBJECTID":432441},"geometry":{"x":170081.28000000026,"y":2545470.6700000037}},{"attributes":{"ID":432467,"DIS_CODE":0,"TOWNNAME":"北區","LI":"長榮里","LIN":"19鄰","STREET":"長榮路","SECT":"五段","MAREA":" ","LANE":"４１巷","ALLEY":" ","HOUSE_NO":"４８號二樓之１","E_COORD97":169972.22,"N_COORD97":2545526.4700000002,"ADDRESS":"長榮路五段４１巷４８號二樓之１","OBJECTID":432442},"geometry":{"x":169972.21999999974,"y":2545526.4700000007}},{"attributes":{"ID":432468,"DIS_CODE":0,"TOWNNAME":"北區","LI":"長榮里","LIN":"19鄰","STREET":"長榮路","SECT":"五段","MAREA":" ","LANE":"４１巷","ALLEY":" ","HOUSE_NO":"４８號二樓之２","E_COORD97":169972.22,"N_COORD97":2545526.4700000002,"ADDRESS":"長榮路五段４１巷４８號二樓之２","OBJECTID":432443},"geometry":{"x":169972.21999999974,"y":2545526.4700000007}},{"attributes":{"ID":432469,"DIS_CODE":0,"TOWNNAME":"北區","LI":"長榮里","LIN":"19鄰","STREET":"長榮路","SECT":"五段","MAREA":" ","LANE":"４１巷","ALLEY":" ","HOUSE_NO":"４８號三樓之１","E_COORD97":169972.22,"N_COORD97":2545526.4700000002,"ADDRESS":"長榮路五段４１巷４８號三樓之１","OBJECTID":432444},"geometry":{"x":169972.21999999974,"y":2545526.4700000007}},{"attributes":{"ID":432470,"DIS_CODE":0,"TOWNNAME":"北區","LI":"長榮里","LIN":"19鄰","STREET":"長榮路","SECT":"五段","MAREA":" ","LANE":"４１巷","ALLEY":" ","HOUSE_NO":"４８號三樓之２","E_COORD97":169972.22,"N_COORD97":2545526.4700000002,"ADDRESS":"長榮路五段４１巷４８號三樓之２","OBJECTID":432445},"geometry":{"x":169972.21999999974,"y":2545526.4700000007}},{"attributes":{"ID":432471,"DIS_CODE":0,"TOWNNAME":"北區","LI":"長榮里","LIN":"19鄰","STREET":"長榮路","SECT":"五段","MAREA":" ","LANE":"４１巷","ALLEY":" ","HOUSE_NO":"４８號四樓之１","E_COORD97":169972.22,"N_COORD97":2545526.4700000002,"ADDRESS":"長榮路五段４１巷４８號四樓之１","OBJECTID":432446},"geometry":{"x":169972.21999999974,"y":2545526.4700000007}},{"attributes":{"ID":432472,"DIS_CODE":0,"TOWNNAME":"北區","LI":"長榮里","LIN":"19鄰","STREET":"長榮路","SECT":"五段","MAREA":" ","LANE":"４１巷","ALLEY":" ","HOUSE_NO":"４８號四樓之２","E_COORD97":169972.22,"N_COORD97":2545526.4700000002,"ADDRESS":"長榮路五段４１巷４８號四樓之２","OBJECTID":432447},"geometry":{"x":169972.21999999974,"y":2545526.4700000007}},{"attributes":{"ID":432473,"DIS_CODE":0,"TOWNNAME":"北區","LI":"長榮里","LIN":"19鄰","STREET":"長榮路","SECT":"五段","MAREA":" ","LANE":"４１巷","ALLEY":" ","HOUSE_NO":"４８號四樓之３","E_COORD97":169972.22,"N_COORD97":2545526.4700000002,"ADDRESS":"長榮路五段４１巷４８號四樓之３","OBJECTID":432448},"geometry":{"x":169972.21999999974,"y":2545526.4700000007}},{"attributes":{"ID":432474,"DIS_CODE":0,"TOWNNAME":"北區","LI":"長榮里","LIN":"19鄰","STREET":"長榮路","SECT":"五段","MAREA":" ","LANE":"４１巷","ALLEY":" ","HOUSE_NO":"４８號四樓之５","E_COORD97":169972.22,"N_COORD97":2545526.4700000002,"ADDRESS":"長榮路五段４１巷４８號四樓之５","OBJECTID":432449},"geometry":{"x":169972.21999999974,"y":2545526.4700000007}},{"attributes":{"ID":432475,"DIS_CODE":0,"TOWNNAME":"北區","LI":"長榮里","LIN":"19鄰","STREET":"長榮路","SECT":"五段","MAREA":" ","LANE":"４１巷","ALLEY":" ","HOUSE_NO":"４８號五樓之１","E_COORD97":169972.22,"N_COORD97":2545526.4700000002,"ADDRESS":"長榮路五段４１巷４８號五樓之１","OBJECTID":432450},"geometry":{"x":169972.21999999974,"y":2545526.4700000007}},{"attributes":{"ID":432476,"DIS_CODE":0,"TOWNNAME":"北區","LI":"長榮里","LIN":"19鄰","STREET":"長榮路","SECT":"五段","MAREA":" ","LANE":"４１巷","ALLEY":" ","HOUSE_NO":"４８號五樓之２","E_COORD97":169972.22,"N_COORD97":2545526.4700000002,"ADDRESS":"長榮路五段４１巷４８號五樓之２","OBJECTID":432451},"geometry":{"x":169972.21999999974,"y":2545526.4700000007}},{"attributes":{"ID":432477,"DIS_CODE":0,"TOWNNAME":"北區","LI":"長榮里","LIN":"19鄰","STREET":"長榮路","SECT":"五段","MAREA":" ","LANE":"４１巷","ALLEY":" ","HOUSE_NO":"４８號五樓之３","E_COORD97":169972.22,"N_COORD97":2545526.4700000002,"ADDRESS":"長榮路五段４１巷４８號五樓之３","OBJECTID":432452},"geometry":{"x":169972.21999999974,"y":2545526.4700000007}},{"attributes":{"ID":432478,"DIS_CODE":0,"TOWNNAME":"北區","LI":"長榮里","LIN":"19鄰","STREET":"長榮路","SECT":"五段","MAREA":" ","LANE":"４１巷","ALLEY":" ","HOUSE_NO":"４８號五樓之５","E_COORD97":169972.22,"N_COORD97":2545526.4700000002,"ADDRESS":"長榮路五段４１巷４８號五樓之５","OBJECTID":432453},"geometry":{"x":169972.21999999974,"y":2545526.4700000007}},{"attributes":{"ID":432479,"DIS_CODE":0,"TOWNNAME":"北區","LI":"長榮里","LIN":"19鄰","STREET":"長榮路","SECT":"五段","MAREA":" ","LANE":"４１巷","ALLEY":" ","HOUSE_NO":"４８號六樓之１","E_COORD97":169972.22,"N_COORD97":2545526.4700000002,"ADDRESS":"長榮路五段４１巷４８號六樓之１","OBJECTID":432454},"geometry":{"x":169972.21999999974,"y":2545526.4700000007}},{"attributes":{"ID":432480,"DIS_CODE":0,"TOWNNAME":"北區","LI":"長榮里","LIN":"19鄰","STREET":"長榮路","SECT":"五段","MAREA":" ","LANE":"４１巷","ALLEY":" ","HOUSE_NO":"４８號六樓之２","E_COORD97":169972.22,"N_COORD97":2545526.4700000002,"ADDRESS":"長榮路五段４１巷４８號六樓之２","OBJECTID":432455},"geometry":{"x":169972.21999999974,"y":2545526.4700000007}},{"attributes":{"ID":432481,"DIS_CODE":0,"TOWNNAME":"北區","LI":"長榮里","LIN":"19鄰","STREET":"長榮路","SECT":"五段","MAREA":" ","LANE":"４１巷","ALLEY":" ","HOUSE_NO":"４８號六樓之３","E_COORD97":169972.22,"N_COORD97":2545526.4700000002,"ADDRESS":"長榮路五段４１巷４８號六樓之３","OBJECTID":432456},"geometry":{"x":169972.21999999974,"y":2545526.4700000007}},{"attributes":{"ID":432482,"DIS_CODE":0,"TOWNNAME":"北區","LI":"長榮里","LIN":"13鄰","STREET":"長榮路","SECT":"五段","MAREA":" ","LANE":"４１巷","ALLEY":" ","HOUSE_NO":"１３號十一樓之３","E_COORD97":170088.73999999999,"N_COORD97":2545386.5299999998,"ADDRESS":"長榮路五段４１巷１３號十一樓之３","OBJECTID":432457},"geometry":{"x":170088.74000000115,"y":2545386.5300000031}},{"attributes":{"ID":432483,"DIS_CODE":0,"TOWNNAME":"北區","LI":"長榮里","LIN":"13鄰","STREET":"長榮路","SECT":"五段","MAREA":" ","LANE":"４１巷","ALLEY":" ","HOUSE_NO":"１３號十一樓之５","E_COORD97":170088.73999999999,"N_COORD97":2545386.5299999998,"ADDRESS":"長榮路五段４１巷１３號十一樓之５","OBJECTID":432458},"geometry":{"x":170088.74000000115,"y":2545386.5300000031}},{"attributes":{"ID":432484,"DIS_CODE":0,"TOWNNAME":"北區","LI":"長榮里","LIN":"13鄰","STREET":"長榮路","SECT":"五段","MAREA":" ","LANE":"４１巷","ALLEY":" ","HOUSE_NO":"１３號十二樓之１","E_COORD97":170088.73999999999,"N_COORD97":2545386.5299999998,"ADDRESS":"長榮路五段４１巷１３號十二樓之１","OBJECTID":432459},"geometry":{"x":170088.74000000115,"y":2545386.5300000031}},{"attributes":{"ID":432485,"DIS_CODE":0,"TOWNNAME":"北區","LI":"長榮里","LIN":"13鄰","STREET":"長榮路","SECT":"五段","MAREA":" ","LANE":"４１巷","ALLEY":" ","HOUSE_NO":"１３號十二樓之２","E_COORD97":170088.73999999999,"N_COORD97":2545386.5299999998,"ADDRESS":"長榮路五段４１巷１３號十二樓之２","OBJECTID":432460},"geometry":{"x":170088.74000000115,"y":2545386.5300000031}},{"attributes":{"ID":432486,"DIS_CODE":0,"TOWNNAME":"北區","LI":"長榮里","LIN":"13鄰","STREET":"長榮路","SECT":"五段","MAREA":" ","LANE":"４１巷","ALLEY":" ","HOUSE_NO":"１３號十二樓之３","E_COORD97":170088.73999999999,"N_COORD97":2545386.5299999998,"ADDRESS":"長榮路五段４１巷１３號十二樓之３","OBJECTID":432461},"geometry":{"x":170088.74000000115,"y":2545386.5300000031}},{"attributes":{"ID":432487,"DIS_CODE":0,"TOWNNAME":"北區","LI":"長榮里","LIN":"13鄰","STREET":"長榮路","SECT":"五段","MAREA":" ","LANE":"４１巷","ALLEY":" ","HOUSE_NO":"１３號十二樓之５","E_COORD97":170088.73999999999,"N_COORD97":2545386.5299999998,"ADDRESS":"長榮路五段４１巷１３號十二樓之５","OBJECTID":432462},"geometry":{"x":170088.74000000115,"y":2545386.5300000031}},{"attributes":{"ID":432488,"DIS_CODE":0,"TOWNNAME":"北區","LI":"長榮里","LIN":"13鄰","STREET":"長榮路","SECT":"五段","MAREA":" ","LANE":"４１巷","ALLEY":" ","HOUSE_NO":"１３號十三樓之１","E_COORD97":170088.73999999999,"N_COORD97":2545386.5299999998,"ADDRESS":"長榮路五段４１巷１３號十三樓之１","OBJECTID":432463},"geometry":{"x":170088.74000000115,"y":2545386.5300000031}},{"attributes":{"ID":432489,"DIS_CODE":0,"TOWNNAME":"北區","LI":"長榮里","LIN":"13鄰","STREET":"長榮路","SECT":"五段","MAREA":" ","LANE":"４１巷","ALLEY":" ","HOUSE_NO":"１３號十三樓之２","E_COORD97":170088.73999999999,"N_COORD97":2545386.5299999998,"ADDRESS":"長榮路五段４１巷１３號十三樓之２","OBJECTID":432464},"geometry":{"x":170088.74000000115,"y":2545386.5300000031}},{"attributes":{"ID":432490,"DIS_CODE":0,"TOWNNAME":"北區","LI":"長榮里","LIN":"13鄰","STREET":"長榮路","SECT":"五段","MAREA":" ","LANE":"４１巷","ALLEY":" ","HOUSE_NO":"１３號十三樓之３","E_COORD97":170088.73999999999,"N_COORD97":2545386.5299999998,"ADDRESS":"長榮路五段４１巷１３號十三樓之３","OBJECTID":432465},"geometry":{"x":170088.74000000115,"y":2545386.5300000031}},{"attributes":{"ID":432491,"DIS_CODE":0,"TOWNNAME":"北區","LI":"長榮里","LIN":"13鄰","STREET":"長榮路","SECT":"五段","MAREA":" ","LANE":"４１巷","ALLEY":" ","HOUSE_NO":"１３號十三樓之５","E_COORD97":170088.73999999999,"N_COORD97":2545386.5299999998,"ADDRESS":"長榮路五段４１巷１３號十三樓之５","OBJECTID":432466},"geometry":{"x":170088.74000000115,"y":2545386.5300000031}},{"attributes":{"ID":432492,"DIS_CODE":0,"TOWNNAME":"北區","LI":"長榮里","LIN":"13鄰","STREET":"長榮路","SECT":"五段","MAREA":" ","LANE":"４１巷","ALLEY":" ","HOUSE_NO":"１３號十四樓之２","E_COORD97":170088.73999999999,"N_COORD97":2545386.5299999998,"ADDRESS":"長榮路五段４１巷１３號十四樓之２","OBJECTID":432467},"geometry":{"x":170088.74000000115,"y":2545386.5300000031}},{"attributes":{"ID":432493,"DIS_CODE":0,"TOWNNAME":"東區","LI":"東安里","LIN":"4鄰","STREET":"東門路","SECT":"二段","MAREA":" ","LANE":"３巷","ALLEY":" ","HOUSE_NO":"１９號之１","E_COORD97":169947.53,"N_COORD97":2543054.2200000002,"ADDRESS":"東門路二段３巷１９號之１","OBJECTID":432468},"geometry":{"x":169947.53000000212,"y":2543054.2200000025}},{"attributes":{"ID":432494,"DIS_CODE":0,"TOWNNAME":"新營區","LI":"新東里","LIN":"25鄰","STREET":"東興三街","SECT":" ","MAREA":" ","LANE":"２２巷","ALLEY":" ","HOUSE_NO":"１１號十三樓","E_COORD97":180666.04000000001,"N_COORD97":2579370.2999999998,"ADDRESS":"東興三街２２巷１１號十三樓","OBJECTID":432469},"geometry":{"x":180666.0400000019,"y":2579370.3000000007}},{"attributes":{"ID":432495,"DIS_CODE":0,"TOWNNAME":"新營區","LI":"新東里","LIN":"25鄰","STREET":"東興三街","SECT":" ","MAREA":" ","LANE":"２２巷","ALLEY":" ","HOUSE_NO":"１１號十樓","E_COORD97":180664.79000000001,"N_COORD97":2579370.2999999998,"ADDRESS":"東興三街２２巷１１號十樓","OBJECTID":432470},"geometry":{"x":180664.79000000097,"y":2579370.3000000007}},{"attributes":{"ID":432496,"DIS_CODE":0,"TOWNNAME":"新營區","LI":"新東里","LIN":"25鄰","STREET":"東興三街","SECT":" ","MAREA":" ","LANE":"２２巷","ALLEY":" ","HOUSE_NO":"７號十一樓","E_COORD97":180703.79999999999,"N_COORD97":2579395.5899999999,"ADDRESS":"東興三街２２巷７號十一樓","OBJECTID":432471},"geometry":{"x":180703.79999999981,"y":2579395.5900000017}},{"attributes":{"ID":432497,"DIS_CODE":0,"TOWNNAME":"新營區","LI":"新東里","LIN":"25鄰","STREET":"東興三街","SECT":" ","MAREA":" ","LANE":"２２巷","ALLEY":" ","HOUSE_NO":"７號七樓","E_COORD97":180702.54999999999,"N_COORD97":2579395.5899999999,"ADDRESS":"東興三街２２巷７號七樓","OBJECTID":432472},"geometry":{"x":180702.54999999981,"y":2579395.5900000017}},{"attributes":{"ID":432498,"DIS_CODE":0,"TOWNNAME":"新營區","LI":"新東里","LIN":"26鄰","STREET":"東興五街","SECT":" ","MAREA":" ","LANE":"２１巷","ALLEY":" ","HOUSE_NO":"３９號五樓","E_COORD97":180645.82999999999,"N_COORD97":2579452.3399999999,"ADDRESS":"東興五街２１巷３９號五樓","OBJECTID":432473},"geometry":{"x":180645.83000000101,"y":2579452.3400000017}},{"attributes":{"ID":432499,"DIS_CODE":0,"TOWNNAME":"新營區","LI":"新東里","LIN":"25鄰","STREET":"東興三街","SECT":" ","MAREA":" ","LANE":"２２巷","ALLEY":" ","HOUSE_NO":"７號三樓","E_COORD97":180702.54999999999,"N_COORD97":2579395.5899999999,"ADDRESS":"東興三街２２巷７號三樓","OBJECTID":432474},"geometry":{"x":180702.54999999981,"y":2579395.5900000017}},{"attributes":{"ID":432500,"DIS_CODE":0,"TOWNNAME":"新營區","LI":"新東里","LIN":"25鄰","STREET":"東興三街","SECT":" ","MAREA":" ","LANE":"２２巷","ALLEY":" ","HOUSE_NO":"５號十三樓","E_COORD97":180704.72,"N_COORD97":2579374.54,"ADDRESS":"東興三街２２巷５號十三樓","OBJECTID":432475},"geometry":{"x":180704.71999999974,"y":2579374.5400000028}},{"attributes":{"ID":432501,"DIS_CODE":0,"TOWNNAME":"新營區","LI":"新東里","LIN":"25鄰","STREET":"東興三街","SECT":" ","MAREA":" ","LANE":"２２巷","ALLEY":" ","HOUSE_NO":"５號四樓","E_COORD97":180703.47,"N_COORD97":2579374.54,"ADDRESS":"東興三街２２巷５號四樓","OBJECTID":432476},"geometry":{"x":180703.4700000016,"y":2579374.5400000028}},{"attributes":{"ID":432502,"DIS_CODE":0,"TOWNNAME":"東區","LI":"東安里","LIN":"4鄰","STREET":"東門路","SECT":"二段","MAREA":" ","LANE":"３巷","ALLEY":" ","HOUSE_NO":"２６號","E_COORD97":169965.29000000001,"N_COORD97":2543044.3399999999,"ADDRESS":"東門路二段３巷２６號","OBJECTID":432477},"geometry":{"x":169965.29000000004,"y":2543044.3399999999}},{"attributes":{"ID":432503,"DIS_CODE":0,"TOWNNAME":"北區","LI":"三德里","LIN":"4鄰","STREET":"裕民街","SECT":" ","MAREA":" ","LANE":"８４巷","ALLEY":" ","HOUSE_NO":"１號二樓之１","E_COORD97":168513.73999999999,"N_COORD97":2544520.3399999999,"ADDRESS":"裕民街８４巷１號二樓之１","OBJECTID":432478},"geometry":{"x":168513.74000000209,"y":2544520.3400000036}},{"attributes":{"ID":432504,"DIS_CODE":0,"TOWNNAME":"北區","LI":"三德里","LIN":"4鄰","STREET":"裕民街","SECT":" ","MAREA":" ","LANE":"８４巷","ALLEY":" ","HOUSE_NO":"１號二樓之２","E_COORD97":168513.73999999999,"N_COORD97":2544520.3399999999,"ADDRESS":"裕民街８４巷１號二樓之２","OBJECTID":432479},"geometry":{"x":168513.74000000209,"y":2544520.3400000036}},{"attributes":{"ID":432505,"DIS_CODE":0,"TOWNNAME":"北區","LI":"三德里","LIN":"4鄰","STREET":"裕民街","SECT":" ","MAREA":" ","LANE":"８４巷","ALLEY":" ","HOUSE_NO":"１號二樓之３","E_COORD97":168513.73999999999,"N_COORD97":2544520.3399999999,"ADDRESS":"裕民街８４巷１號二樓之３","OBJECTID":432480},"geometry":{"x":168513.74000000209,"y":2544520.3400000036}},{"attributes":{"ID":432506,"DIS_CODE":0,"TOWNNAME":"北區","LI":"三德里","LIN":"4鄰","STREET":"裕民街","SECT":" ","MAREA":" ","LANE":"８４巷","ALLEY":" ","HOUSE_NO":"１號二樓之４","E_COORD97":168513.73999999999,"N_COORD97":2544520.3399999999,"ADDRESS":"裕民街８４巷１號二樓之４","OBJECTID":432481},"geometry":{"x":168513.74000000209,"y":2544520.3400000036}},{"attributes":{"ID":432507,"DIS_CODE":0,"TOWNNAME":"北區","LI":"三德里","LIN":"4鄰","STREET":"裕民街","SECT":" ","MAREA":" ","LANE":"８４巷","ALLEY":" ","HOUSE_NO":"１號二樓之５","E_COORD97":168513.73999999999,"N_COORD97":2544520.3399999999,"ADDRESS":"裕民街８４巷１號二樓之５","OBJECTID":432482},"geometry":{"x":168513.74000000209,"y":2544520.3400000036}},{"attributes":{"ID":432508,"DIS_CODE":0,"TOWNNAME":"北區","LI":"三德里","LIN":"4鄰","STREET":"裕民街","SECT":" ","MAREA":" ","LANE":"８４巷","ALLEY":" ","HOUSE_NO":"１號二樓之６","E_COORD97":168513.73999999999,"N_COORD97":2544520.3399999999,"ADDRESS":"裕民街８４巷１號二樓之６","OBJECTID":432483},"geometry":{"x":168513.74000000209,"y":2544520.3400000036}},{"attributes":{"ID":432509,"DIS_CODE":0,"TOWNNAME":"北區","LI":"三德里","LIN":"4鄰","STREET":"裕民街","SECT":" ","MAREA":" ","LANE":"８４巷","ALLEY":" ","HOUSE_NO":"１號三樓之１","E_COORD97":168513.73999999999,"N_COORD97":2544520.3399999999,"ADDRESS":"裕民街８４巷１號三樓之１","OBJECTID":432484},"geometry":{"x":168513.74000000209,"y":2544520.3400000036}},{"attributes":{"ID":432510,"DIS_CODE":0,"TOWNNAME":"北區","LI":"三德里","LIN":"4鄰","STREET":"裕民街","SECT":" ","MAREA":" ","LANE":"８４巷","ALLEY":" ","HOUSE_NO":"１號三樓之２","E_COORD97":168513.73999999999,"N_COORD97":2544520.3399999999,"ADDRESS":"裕民街８４巷１號三樓之２","OBJECTID":432485},"geometry":{"x":168513.74000000209,"y":2544520.3400000036}},{"attributes":{"ID":432511,"DIS_CODE":0,"TOWNNAME":"北區","LI":"三德里","LIN":"4鄰","STREET":"裕民街","SECT":" ","MAREA":" ","LANE":"８４巷","ALLEY":" ","HOUSE_NO":"１號三樓之３","E_COORD97":168513.73999999999,"N_COORD97":2544520.3399999999,"ADDRESS":"裕民街８４巷１號三樓之３","OBJECTID":432486},"geometry":{"x":168513.74000000209,"y":2544520.3400000036}},{"attributes":{"ID":432512,"DIS_CODE":0,"TOWNNAME":"北區","LI":"三德里","LIN":"4鄰","STREET":"裕民街","SECT":" ","MAREA":" ","LANE":"８４巷","ALLEY":" ","HOUSE_NO":"１號三樓之４","E_COORD97":168513.73999999999,"N_COORD97":2544520.3399999999,"ADDRESS":"裕民街８４巷１號三樓之４","OBJECTID":432487},"geometry":{"x":168513.74000000209,"y":2544520.3400000036}},{"attributes":{"ID":432513,"DIS_CODE":0,"TOWNNAME":"北區","LI":"三德里","LIN":"4鄰","STREET":"裕民街","SECT":" ","MAREA":" ","LANE":"８４巷","ALLEY":" ","HOUSE_NO":"１號三樓之５","E_COORD97":168513.73999999999,"N_COORD97":2544520.3399999999,"ADDRESS":"裕民街８４巷１號三樓之５","OBJECTID":432488},"geometry":{"x":168513.74000000209,"y":2544520.3400000036}},{"attributes":{"ID":432514,"DIS_CODE":0,"TOWNNAME":"北區","LI":"三德里","LIN":"4鄰","STREET":"裕民街","SECT":" ","MAREA":" ","LANE":"８４巷","ALLEY":" ","HOUSE_NO":"１號三樓之６","E_COORD97":168513.73999999999,"N_COORD97":2544520.3399999999,"ADDRESS":"裕民街８４巷１號三樓之６","OBJECTID":432489},"geometry":{"x":168513.74000000209,"y":2544520.3400000036}},{"attributes":{"ID":432515,"DIS_CODE":0,"TOWNNAME":"大內區","LI":"大內里","LIN":"4鄰","STREET":" ","SECT":" ","MAREA":"內庄","LANE":" ","ALLEY":" ","HOUSE_NO":"４７號","E_COORD97":184567.38856399999,"N_COORD97":2557511.56305,"ADDRESS":"內庄４７號","OBJECTID":432490},"geometry":{"x":184567.38856400084,"y":2557511.5630500019}},{"attributes":{"ID":432516,"DIS_CODE":0,"TOWNNAME":"北區","LI":"三德里","LIN":"4鄰","STREET":"裕民街","SECT":" ","MAREA":" ","LANE":"８４巷","ALLEY":" ","HOUSE_NO":"１號五樓之１","E_COORD97":168513.73999999999,"N_COORD97":2544520.3399999999,"ADDRESS":"裕民街８４巷１號五樓之１","OBJECTID":432491},"geometry":{"x":168513.74000000209,"y":2544520.3400000036}},{"attributes":{"ID":432517,"DIS_CODE":0,"TOWNNAME":"北區","LI":"玉皇里","LIN":"12鄰","STREET":"成功路","SECT":" ","MAREA":" ","LANE":"６８巷","ALLEY":" ","HOUSE_NO":"６１號三樓之２","E_COORD97":168713.03,"N_COORD97":2544433.3799999999,"ADDRESS":"成功路６８巷６１號三樓之２","OBJECTID":432492},"geometry":{"x":168713.03000000026,"y":2544433.379999999}},{"attributes":{"ID":432518,"DIS_CODE":0,"TOWNNAME":"安平區","LI":"平通里","LIN":"3鄰","STREET":"育平九街","SECT":" ","MAREA":" ","LANE":"１９２巷","ALLEY":" ","HOUSE_NO":"７１號七樓之１","E_COORD97":164998.38,"N_COORD97":2544160.48,"ADDRESS":"育平九街１９２巷７１號七樓之１","OBJECTID":432493},"geometry":{"x":164998.38000000082,"y":2544160.4800000042}},{"attributes":{"ID":432519,"DIS_CODE":0,"TOWNNAME":"安平區","LI":"平通里","LIN":"3鄰","STREET":"育平九街","SECT":" ","MAREA":" ","LANE":"１９２巷","ALLEY":" ","HOUSE_NO":"７１號十一樓之５","E_COORD97":164998.38,"N_COORD97":2544160.48,"ADDRESS":"育平九街１９２巷７１號十一樓之５","OBJECTID":432494},"geometry":{"x":164998.38000000082,"y":2544160.4800000042}},{"attributes":{"ID":432520,"DIS_CODE":0,"TOWNNAME":"佳里區","LI":"鎮山里","LIN":"14鄰","STREET":"安南路","SECT":" ","MAREA":" ","LANE":"２巷","ALLEY":" ","HOUSE_NO":"３號","E_COORD97":166008.06,"N_COORD97":2561402.5699999998,"ADDRESS":"安南路２巷３號","OBJECTID":432495},"geometry":{"x":166008.05999999959,"y":2561402.5700000003}},{"attributes":{"ID":432521,"DIS_CODE":0,"TOWNNAME":"安平區","LI":"平通里","LIN":"3鄰","STREET":"育平九街","SECT":" ","MAREA":" ","LANE":"１９２巷","ALLEY":" ","HOUSE_NO":"７１號四樓之３之１","E_COORD97":164998.38,"N_COORD97":2544160.48,"ADDRESS":"育平九街１９２巷７１號四樓之３之１","OBJECTID":432496},"geometry":{"x":164998.38000000082,"y":2544160.4800000042}},{"attributes":{"ID":432522,"DIS_CODE":0,"TOWNNAME":"東區","LI":"東安里","LIN":"4鄰","STREET":"東門路","SECT":"二段","MAREA":" ","LANE":"３巷","ALLEY":" ","HOUSE_NO":"２８號","E_COORD97":169968.13,"N_COORD97":2543043.2999999998,"ADDRESS":"東門路二段３巷２８號","OBJECTID":432497},"geometry":{"x":169968.12999999989,"y":2543043.3000000045}},{"attributes":{"ID":432523,"DIS_CODE":0,"TOWNNAME":"安平區","LI":"平安里","LIN":"9鄰","STREET":"安平路","SECT":" ","MAREA":" ","LANE":"４２６巷","ALLEY":" ","HOUSE_NO":"３號二樓","E_COORD97":165324.12,"N_COORD97":2544346.8100000001,"ADDRESS":"安平路４２６巷３號二樓","OBJECTID":432498},"geometry":{"x":165324.12000000197,"y":2544346.8100000005}},{"attributes":{"ID":432524,"DIS_CODE":0,"TOWNNAME":"歸仁區","LI":"辜厝里","LIN":"39鄰","STREET":"中正南路","SECT":"一段","MAREA":" ","LANE":"２１８巷","ALLEY":" ","HOUSE_NO":"２５號七樓之１０","E_COORD97":177262.20000000001,"N_COORD97":2540344.2599999998,"ADDRESS":"中正南路一段２１８巷２５號七樓之１０","OBJECTID":432499},"geometry":{"x":177262.20000000019,"y":2540344.2600000016}},{"attributes":{"ID":432525,"DIS_CODE":0,"TOWNNAME":"歸仁區","LI":"南保里","LIN":"6鄰","STREET":"文化街","SECT":"三段","MAREA":" ","LANE":"１８巷","ALLEY":" ","HOUSE_NO":"２號四樓之３","E_COORD97":176974.92000000001,"N_COORD97":2541278.3300000001,"ADDRESS":"文化街三段１８巷２號四樓之３","OBJECTID":432500},"geometry":{"x":176974.92000000086,"y":2541278.3300000001}},{"attributes":{"ID":432526,"DIS_CODE":0,"TOWNNAME":"歸仁區","LI":"後市里","LIN":"30鄰","STREET":"民族北街","SECT":" ","MAREA":" ","LANE":"１７巷","ALLEY":" ","HOUSE_NO":"２號八樓之９","E_COORD97":177400.57999999999,"N_COORD97":2540892.75,"ADDRESS":"民族北街１７巷２號八樓之９","OBJECTID":432501},"geometry":{"x":177400.58000000007,"y":2540892.75}},{"attributes":{"ID":432527,"DIS_CODE":0,"TOWNNAME":"歸仁區","LI":"辜厝里","LIN":"38鄰","STREET":"中正南路","SECT":"一段","MAREA":" ","LANE":"２１８巷","ALLEY":" ","HOUSE_NO":"２５號六樓之９","E_COORD97":177261.95000000001,"N_COORD97":2540344.2599999998,"ADDRESS":"中正南路一段２１８巷２５號六樓之９","OBJECTID":432502},"geometry":{"x":177261.95000000019,"y":2540344.2600000016}},{"attributes":{"ID":432528,"DIS_CODE":0,"TOWNNAME":"歸仁區","LI":"辜厝里","LIN":"38鄰","STREET":"中正南路","SECT":"一段","MAREA":" ","LANE":"２１８巷","ALLEY":" ","HOUSE_NO":"２５號四樓之９","E_COORD97":177261.95000000001,"N_COORD97":2540344.2599999998,"ADDRESS":"中正南路一段２１８巷２５號四樓之９","OBJECTID":432503},"geometry":{"x":177261.95000000019,"y":2540344.2600000016}},{"attributes":{"ID":432529,"DIS_CODE":0,"TOWNNAME":"歸仁區","LI":"辜厝里","LIN":"38鄰","STREET":"中正南路","SECT":"一段","MAREA":" ","LANE":"２１８巷","ALLEY":" ","HOUSE_NO":"２５號六樓之８","E_COORD97":177261.97,"N_COORD97":2540344.2599999998,"ADDRESS":"中正南路一段２１８巷２５號六樓之８","OBJECTID":432504},"geometry":{"x":177261.96999999974,"y":2540344.2600000016}},{"attributes":{"ID":432530,"DIS_CODE":0,"TOWNNAME":"歸仁區","LI":"辜厝里","LIN":"39鄰","STREET":"中正南路","SECT":"一段","MAREA":" ","LANE":"２１８巷","ALLEY":" ","HOUSE_NO":"２５號五樓之１２","E_COORD97":177262.20999999999,"N_COORD97":2540344.2599999998,"ADDRESS":"中正南路一段２１８巷２５號五樓之１２","OBJECTID":432505},"geometry":{"x":177262.20999999996,"y":2540344.2600000016}},{"attributes":{"ID":432531,"DIS_CODE":0,"TOWNNAME":"歸仁區","LI":"辜厝里","LIN":"38鄰","STREET":"中正南路","SECT":"一段","MAREA":" ","LANE":"２１８巷","ALLEY":" ","HOUSE_NO":"２５號三樓之７","E_COORD97":177261.95000000001,"N_COORD97":2540344.2599999998,"ADDRESS":"中正南路一段２１８巷２５號三樓之７","OBJECTID":432506},"geometry":{"x":177261.95000000019,"y":2540344.2600000016}},{"attributes":{"ID":432532,"DIS_CODE":0,"TOWNNAME":"歸仁區","LI":"辜厝里","LIN":"39鄰","STREET":"中正南路","SECT":"一段","MAREA":" ","LANE":"２１８巷","ALLEY":" ","HOUSE_NO":"２５號七樓之１３","E_COORD97":177262.20999999999,"N_COORD97":2540344.2599999998,"ADDRESS":"中正南路一段２１８巷２５號七樓之１３","OBJECTID":432507},"geometry":{"x":177262.20999999996,"y":2540344.2600000016}},{"attributes":{"ID":432533,"DIS_CODE":0,"TOWNNAME":"歸仁區","LI":"辜厝里","LIN":"39鄰","STREET":"中正南路","SECT":"一段","MAREA":" ","LANE":"２１８巷","ALLEY":" ","HOUSE_NO":"２５號五樓之１１","E_COORD97":177262.19,"N_COORD97":2540344.2599999998,"ADDRESS":"中正南路一段２１８巷２５號五樓之１１","OBJECTID":432508},"geometry":{"x":177262.19000000134,"y":2540344.2600000016}},{"attributes":{"ID":432534,"DIS_CODE":0,"TOWNNAME":"歸仁區","LI":"辜厝里","LIN":"39鄰","STREET":"中正南路","SECT":"一段","MAREA":" ","LANE":"２１８巷","ALLEY":" ","HOUSE_NO":"２５號三樓之１１","E_COORD97":177262.19,"N_COORD97":2540344.2599999998,"ADDRESS":"中正南路一段２１８巷２５號三樓之１１","OBJECTID":432509},"geometry":{"x":177262.19000000134,"y":2540344.2600000016}},{"attributes":{"ID":432535,"DIS_CODE":0,"TOWNNAME":"歸仁區","LI":"辜厝里","LIN":"39鄰","STREET":"中正南路","SECT":"一段","MAREA":" ","LANE":"２１８巷","ALLEY":" ","HOUSE_NO":"２５號二樓之１３","E_COORD97":177262.20999999999,"N_COORD97":2540344.2599999998,"ADDRESS":"中正南路一段２１８巷２５號二樓之１３","OBJECTID":432510},"geometry":{"x":177262.20999999996,"y":2540344.2600000016}},{"attributes":{"ID":432536,"DIS_CODE":0,"TOWNNAME":"歸仁區","LI":"歸仁里","LIN":"15鄰","STREET":"信義北路","SECT":" ","MAREA":" ","LANE":"９６巷","ALLEY":" ","HOUSE_NO":"２號二樓","E_COORD97":178013.67000000001,"N_COORD97":2541039.1099999999,"ADDRESS":"信義北路９６巷２號二樓","OBJECTID":432511},"geometry":{"x":178013.67000000179,"y":2541039.1099999975}},{"attributes":{"ID":432537,"DIS_CODE":0,"TOWNNAME":"歸仁區","LI":"辜厝里","LIN":"38鄰","STREET":"中正南路","SECT":"一段","MAREA":" ","LANE":"２１８巷","ALLEY":" ","HOUSE_NO":"２５號七樓之９","E_COORD97":177261.95000000001,"N_COORD97":2540344.2599999998,"ADDRESS":"中正南路一段２１８巷２５號七樓之９","OBJECTID":432512},"geometry":{"x":177261.95000000019,"y":2540344.2600000016}},{"attributes":{"ID":432538,"DIS_CODE":0,"TOWNNAME":"永康區","LI":"正強里","LIN":"40鄰","STREET":"四維街","SECT":" ","MAREA":" ","LANE":"２０７巷","ALLEY":" ","HOUSE_NO":"３號","E_COORD97":173233.70999999999,"N_COORD97":2548477.75,"ADDRESS":"四維街２０７巷３號","OBJECTID":432513},"geometry":{"x":173233.71000000089,"y":2548477.7500000037}},{"attributes":{"ID":432539,"DIS_CODE":0,"TOWNNAME":"歸仁區","LI":"辜厝里","LIN":"39鄰","STREET":"中正南路","SECT":"一段","MAREA":" ","LANE":"２１８巷","ALLEY":" ","HOUSE_NO":"２５號三樓之１０","E_COORD97":177262.20000000001,"N_COORD97":2540344.2599999998,"ADDRESS":"中正南路一段２１８巷２５號三樓之１０","OBJECTID":432514},"geometry":{"x":177262.20000000019,"y":2540344.2600000016}},{"attributes":{"ID":432540,"DIS_CODE":0,"TOWNNAME":"歸仁區","LI":"辜厝里","LIN":"39鄰","STREET":"中正南路","SECT":"一段","MAREA":" ","LANE":"２１８巷","ALLEY":" ","HOUSE_NO":"２５號五樓之１０","E_COORD97":177262.20000000001,"N_COORD97":2540344.2599999998,"ADDRESS":"中正南路一段２１８巷２５號五樓之１０","OBJECTID":432515},"geometry":{"x":177262.20000000019,"y":2540344.2600000016}},{"attributes":{"ID":432541,"DIS_CODE":0,"TOWNNAME":"歸仁區","LI":"歸仁里","LIN":"15鄰","STREET":"信義北路","SECT":" ","MAREA":" ","LANE":"９６巷","ALLEY":" ","HOUSE_NO":"１２號四樓","E_COORD97":178022.01999999999,"N_COORD97":2541018.1099999999,"ADDRESS":"信義北路９６巷１２號四樓","OBJECTID":432516},"geometry":{"x":178022.01999999955,"y":2541018.1099999994}},{"attributes":{"ID":432542,"DIS_CODE":0,"TOWNNAME":"歸仁區","LI":"歸仁里","LIN":"15鄰","STREET":"信義北路","SECT":" ","MAREA":" ","LANE":"９６巷","ALLEY":" ","HOUSE_NO":"６號四樓","E_COORD97":178023.97,"N_COORD97":2541040.1099999999,"ADDRESS":"信義北路９６巷６號四樓","OBJECTID":432517},"geometry":{"x":178023.97000000067,"y":2541040.1100000013}},{"attributes":{"ID":432543,"DIS_CODE":0,"TOWNNAME":"歸仁區","LI":"歸仁里","LIN":"15鄰","STREET":"信義北路","SECT":" ","MAREA":" ","LANE":"９６巷","ALLEY":" ","HOUSE_NO":"２號五樓","E_COORD97":178013.67000000001,"N_COORD97":2541039.1099999999,"ADDRESS":"信義北路９６巷２號五樓","OBJECTID":432518},"geometry":{"x":178013.67000000179,"y":2541039.1099999975}},{"attributes":{"ID":432544,"DIS_CODE":0,"TOWNNAME":"大內區","LI":"大內里","LIN":"8鄰","STREET":" ","SECT":" ","MAREA":"內庄","LANE":" ","ALLEY":" ","HOUSE_NO":"９４號","E_COORD97":184640.960062,"N_COORD97":2557499.2876599999,"ADDRESS":"內庄９４號","OBJECTID":432519},"geometry":{"x":184640.96006199997,"y":2557499.2876590025}},{"attributes":{"ID":432545,"DIS_CODE":0,"TOWNNAME":"歸仁區","LI":"辜厝里","LIN":"38鄰","STREET":"中正南路","SECT":"一段","MAREA":" ","LANE":"２１８巷","ALLEY":" ","HOUSE_NO":"２５號三樓之８","E_COORD97":177261.97,"N_COORD97":2540344.2599999998,"ADDRESS":"中正南路一段２１８巷２５號三樓之８","OBJECTID":432520},"geometry":{"x":177261.96999999974,"y":2540344.2600000016}},{"attributes":{"ID":432546,"DIS_CODE":0,"TOWNNAME":"歸仁區","LI":"辜厝里","LIN":"38鄰","STREET":"中正南路","SECT":"一段","MAREA":" ","LANE":"２１８巷","ALLEY":" ","HOUSE_NO":"２５號二樓之７","E_COORD97":177261.95000000001,"N_COORD97":2540344.2599999998,"ADDRESS":"中正南路一段２１８巷２５號二樓之７","OBJECTID":432521},"geometry":{"x":177261.95000000019,"y":2540344.2600000016}},{"attributes":{"ID":432547,"DIS_CODE":0,"TOWNNAME":"歸仁區","LI":"辜厝里","LIN":"39鄰","STREET":"中正南路","SECT":"一段","MAREA":" ","LANE":"２１８巷","ALLEY":" ","HOUSE_NO":"２５號四樓之１１","E_COORD97":177262.19,"N_COORD97":2540344.2599999998,"ADDRESS":"中正南路一段２１８巷２５號四樓之１１","OBJECTID":432522},"geometry":{"x":177262.19000000134,"y":2540344.2600000016}},{"attributes":{"ID":432548,"DIS_CODE":0,"TOWNNAME":"玉井區","LI":"玉田里","LIN":"40鄰","STREET":"中華路","SECT":" ","MAREA":" ","LANE":" ","ALLEY":" ","HOUSE_NO":"２０４號","E_COORD97":195294.35000000001,"N_COORD97":2557699.25,"ADDRESS":"中華路２０４號","OBJECTID":432523},"geometry":{"x":195294.34999999963,"y":2557699.2500000037}},{"attributes":{"ID":432549,"DIS_CODE":0,"TOWNNAME":"歸仁區","LI":"辜厝里","LIN":"39鄰","STREET":"中正南路","SECT":"一段","MAREA":" ","LANE":"２１８巷","ALLEY":" ","HOUSE_NO":"２５號六樓之１３","E_COORD97":177262.20999999999,"N_COORD97":2540344.2599999998,"ADDRESS":"中正南路一段２１８巷２５號六樓之１３","OBJECTID":432524},"geometry":{"x":177262.20999999996,"y":2540344.2600000016}},{"attributes":{"ID":432550,"DIS_CODE":0,"TOWNNAME":"東區","LI":"東安里","LIN":"4鄰","STREET":"東門路","SECT":"二段","MAREA":" ","LANE":"３巷","ALLEY":" ","HOUSE_NO":"３０號","E_COORD97":169971.23999999999,"N_COORD97":2543042.2599999998,"ADDRESS":"東門路二段３巷３０號","OBJECTID":432525},"geometry":{"x":169971.24000000022,"y":2543042.2599999979}},{"attributes":{"ID":432551,"DIS_CODE":0,"TOWNNAME":"歸仁區","LI":"辜厝里","LIN":"39鄰","STREET":"中正南路","SECT":"一段","MAREA":" ","LANE":"２１８巷","ALLEY":" ","HOUSE_NO":"２５號四樓之１３","E_COORD97":177262.20999999999,"N_COORD97":2540344.2599999998,"ADDRESS":"中正南路一段２１８巷２５號四樓之１３","OBJECTID":432526},"geometry":{"x":177262.20999999996,"y":2540344.2600000016}},{"attributes":{"ID":432552,"DIS_CODE":0,"TOWNNAME":"歸仁區","LI":"辜厝里","LIN":"39鄰","STREET":"中正南路","SECT":"一段","MAREA":" ","LANE":"２１８巷","ALLEY":" ","HOUSE_NO":"２５號七樓之１１","E_COORD97":177262.19,"N_COORD97":2540344.2599999998,"ADDRESS":"中正南路一段２１８巷２５號七樓之１１","OBJECTID":432527},"geometry":{"x":177262.19000000134,"y":2540344.2600000016}},{"attributes":{"ID":432553,"DIS_CODE":0,"TOWNNAME":"歸仁區","LI":"辜厝里","LIN":"39鄰","STREET":"中正南路","SECT":"一段","MAREA":" ","LANE":"２１８巷","ALLEY":" ","HOUSE_NO":"２５號四樓之１０","E_COORD97":177262.20000000001,"N_COORD97":2540344.2599999998,"ADDRESS":"中正南路一段２１８巷２５號四樓之１０","OBJECTID":432528},"geometry":{"x":177262.20000000019,"y":2540344.2600000016}},{"attributes":{"ID":432554,"DIS_CODE":0,"TOWNNAME":"歸仁區","LI":"辜厝里","LIN":"38鄰","STREET":"中正南路","SECT":"一段","MAREA":" ","LANE":"２１８巷","ALLEY":" ","HOUSE_NO":"２５號三樓之９","E_COORD97":177261.95000000001,"N_COORD97":2540344.2599999998,"ADDRESS":"中正南路一段２１８巷２５號三樓之９","OBJECTID":432529},"geometry":{"x":177261.95000000019,"y":2540344.2600000016}},{"attributes":{"ID":432555,"DIS_CODE":0,"TOWNNAME":"歸仁區","LI":"辜厝里","LIN":"39鄰","STREET":"中正南路","SECT":"一段","MAREA":" ","LANE":"２１８巷","ALLEY":" ","HOUSE_NO":"２５號六樓之１１","E_COORD97":177262.19,"N_COORD97":2540344.2599999998,"ADDRESS":"中正南路一段２１８巷２５號六樓之１１","OBJECTID":432530},"geometry":{"x":177262.19000000134,"y":2540344.2600000016}},{"attributes":{"ID":432556,"DIS_CODE":0,"TOWNNAME":"歸仁區","LI":"辜厝里","LIN":"39鄰","STREET":"中正南路","SECT":"一段","MAREA":" ","LANE":"２１８巷","ALLEY":" ","HOUSE_NO":"２５號三樓之１２","E_COORD97":177262.20999999999,"N_COORD97":2540344.2599999998,"ADDRESS":"中正南路一段２１８巷２５號三樓之１２","OBJECTID":432531},"geometry":{"x":177262.20999999996,"y":2540344.2600000016}},{"attributes":{"ID":432557,"DIS_CODE":0,"TOWNNAME":"歸仁區","LI":"辜厝里","LIN":"38鄰","STREET":"中正南路","SECT":"一段","MAREA":" ","LANE":"２１８巷","ALLEY":" ","HOUSE_NO":"２５號七樓之８","E_COORD97":177261.97,"N_COORD97":2540344.2599999998,"ADDRESS":"中正南路一段２１８巷２５號七樓之８","OBJECTID":432532},"geometry":{"x":177261.96999999974,"y":2540344.2600000016}},{"attributes":{"ID":432558,"DIS_CODE":0,"TOWNNAME":"歸仁區","LI":"辜厝里","LIN":"39鄰","STREET":"中正南路","SECT":"一段","MAREA":" ","LANE":"２１８巷","ALLEY":" ","HOUSE_NO":"２５號三樓之１３","E_COORD97":177262.20999999999,"N_COORD97":2540344.2599999998,"ADDRESS":"中正南路一段２１８巷２５號三樓之１３","OBJECTID":432533},"geometry":{"x":177262.20999999996,"y":2540344.2600000016}},{"attributes":{"ID":432559,"DIS_CODE":0,"TOWNNAME":"歸仁區","LI":"辜厝里","LIN":"39鄰","STREET":"中正南路","SECT":"一段","MAREA":" ","LANE":"２１８巷","ALLEY":" ","HOUSE_NO":"２５號四樓之１２","E_COORD97":177262.20999999999,"N_COORD97":2540344.2599999998,"ADDRESS":"中正南路一段２１８巷２５號四樓之１２","OBJECTID":432534},"geometry":{"x":177262.20999999996,"y":2540344.2600000016}},{"attributes":{"ID":432560,"DIS_CODE":0,"TOWNNAME":"歸仁區","LI":"歸仁里","LIN":"15鄰","STREET":"信義北路","SECT":" ","MAREA":" ","LANE":"９６巷","ALLEY":" ","HOUSE_NO":"８號七樓","E_COORD97":178024.97,"N_COORD97":2541030.1099999999,"ADDRESS":"信義北路９６巷８號七樓","OBJECTID":432535},"geometry":{"x":178024.9700000016,"y":2541030.1100000013}},{"attributes":{"ID":432561,"DIS_CODE":0,"TOWNNAME":"歸仁區","LI":"歸仁里","LIN":"15鄰","STREET":"信義北路","SECT":" ","MAREA":" ","LANE":"９６巷","ALLEY":" ","HOUSE_NO":"６號六樓","E_COORD97":178023.97,"N_COORD97":2541040.1099999999,"ADDRESS":"信義北路９６巷６號六樓","OBJECTID":432536},"geometry":{"x":178023.97000000067,"y":2541040.1100000013}},{"attributes":{"ID":432562,"DIS_CODE":0,"TOWNNAME":"歸仁區","LI":"歸仁里","LIN":"15鄰","STREET":"信義北路","SECT":" ","MAREA":" ","LANE":"９６巷","ALLEY":" ","HOUSE_NO":"１６號六樓","E_COORD97":178032.22,"N_COORD97":2541009.1099999999,"ADDRESS":"信義北路９６巷１６號六樓","OBJECTID":432537},"geometry":{"x":178032.22000000067,"y":2541009.1100000013}},{"attributes":{"ID":432563,"DIS_CODE":0,"TOWNNAME":"歸仁區","LI":"辜厝里","LIN":"39鄰","STREET":"中正南路","SECT":"一段","MAREA":" ","LANE":"２１８巷","ALLEY":" ","HOUSE_NO":"２５號一樓之１２","E_COORD97":177262.20999999999,"N_COORD97":2540344.2599999998,"ADDRESS":"中正南路一段２１８巷２５號一樓之１２","OBJECTID":432538},"geometry":{"x":177262.20999999996,"y":2540344.2600000016}},{"attributes":{"ID":432564,"DIS_CODE":0,"TOWNNAME":"歸仁區","LI":"文化里","LIN":"15鄰","STREET":"大德路","SECT":" ","MAREA":" ","LANE":"１９３巷","ALLEY":" ","HOUSE_NO":"２號六樓之５","E_COORD97":177272.53,"N_COORD97":2541511.3399999999,"ADDRESS":"大德路１９３巷２號六樓之５","OBJECTID":432539},"geometry":{"x":177272.53000000212,"y":2541511.3399999999}},{"attributes":{"ID":432565,"DIS_CODE":0,"TOWNNAME":"歸仁區","LI":"辜厝里","LIN":"39鄰","STREET":"中正南路","SECT":"一段","MAREA":" ","LANE":"２１８巷","ALLEY":" ","HOUSE_NO":"２５號一樓之１１","E_COORD97":177262.19,"N_COORD97":2540344.2599999998,"ADDRESS":"中正南路一段２１８巷２５號一樓之１１","OBJECTID":432540},"geometry":{"x":177262.19000000134,"y":2540344.2600000016}},{"attributes":{"ID":432566,"DIS_CODE":0,"TOWNNAME":"歸仁區","LI":"文化里","LIN":"5鄰","STREET":"民權一街","SECT":" ","MAREA":" ","LANE":"３８巷","ALLEY":" ","HOUSE_NO":"１號三樓之２","E_COORD97":177304.41,"N_COORD97":2541327.3399999999,"ADDRESS":"民權一街３８巷１號三樓之２","OBJECTID":432541},"geometry":{"x":177304.41000000108,"y":2541327.3400000017}},{"attributes":{"ID":432567,"DIS_CODE":0,"TOWNNAME":"新營區","LI":"新東里","LIN":"26鄰","STREET":"東興三街","SECT":" ","MAREA":" ","LANE":"２２巷","ALLEY":" ","HOUSE_NO":"６２號四樓","E_COORD97":180622.06,"N_COORD97":2579415.8999999999,"ADDRESS":"東興三街２２巷６２號四樓","OBJECTID":432542},"geometry":{"x":180622.06000000052,"y":2579415.9000000004}},{"attributes":{"ID":432568,"DIS_CODE":0,"TOWNNAME":"新營區","LI":"新東里","LIN":"26鄰","STREET":"東興三街","SECT":" ","MAREA":" ","LANE":"２２巷","ALLEY":" ","HOUSE_NO":"５０號六樓","E_COORD97":180664,"N_COORD97":2579416.8100000001,"ADDRESS":"東興三街２２巷５０號六樓","OBJECTID":432543},"geometry":{"x":180664,"y":2579416.8100000005}},{"attributes":{"ID":432569,"DIS_CODE":0,"TOWNNAME":"新營區","LI":"新東里","LIN":"25鄰","STREET":"東興三街","SECT":" ","MAREA":" ","LANE":"２２巷","ALLEY":" ","HOUSE_NO":"１５號十二樓","E_COORD97":180697.97,"N_COORD97":2579418.8700000001,"ADDRESS":"東興三街２２巷１５號十二樓","OBJECTID":432544},"geometry":{"x":180697.96999999974,"y":2579418.8700000029}},{"attributes":{"ID":432570,"DIS_CODE":0,"TOWNNAME":"新營區","LI":"新東里","LIN":"25鄰","STREET":"東興三街","SECT":" ","MAREA":" ","LANE":"２２巷","ALLEY":" ","HOUSE_NO":"７號十樓","E_COORD97":180702.54999999999,"N_COORD97":2579395.5899999999,"ADDRESS":"東興三街２２巷７號十樓","OBJECTID":432545},"geometry":{"x":180702.54999999981,"y":2579395.5900000017}},{"attributes":{"ID":432571,"DIS_CODE":0,"TOWNNAME":"新營區","LI":"忠政里","LIN":"4鄰","STREET":"中正路","SECT":" ","MAREA":" ","LANE":"３７巷","ALLEY":" ","HOUSE_NO":"４號一樓","E_COORD97":180058.09,"N_COORD97":2579146.1200000001,"ADDRESS":"中正路３７巷４號一樓","OBJECTID":432546},"geometry":{"x":180058.08999999985,"y":2579146.1200000029}},{"attributes":{"ID":432572,"DIS_CODE":0,"TOWNNAME":"新營區","LI":"忠政里","LIN":"4鄰","STREET":"中正路","SECT":" ","MAREA":" ","LANE":"３７巷","ALLEY":" ","HOUSE_NO":"８號四樓","E_COORD97":180035.57000000001,"N_COORD97":2579145.1200000001,"ADDRESS":"中正路３７巷８號四樓","OBJECTID":432547},"geometry":{"x":180035.57000000123,"y":2579145.120000001}},{"attributes":{"ID":432573,"DIS_CODE":0,"TOWNNAME":"東山區","LI":"科里里","LIN":"25鄰","STREET":" ","SECT":" ","MAREA":"枋子林","LANE":" ","ALLEY":" ","HOUSE_NO":"１５號","E_COORD97":188137.41393000001,"N_COORD97":2576887.1541200001,"ADDRESS":"枋子林１５號","OBJECTID":432548},"geometry":{"x":188137.41392999981,"y":2576887.1541240029}},{"attributes":{"ID":432574,"DIS_CODE":0,"TOWNNAME":"新營區","LI":"忠政里","LIN":"4鄰","STREET":"中正路","SECT":" ","MAREA":" ","LANE":"３７巷","ALLEY":" ","HOUSE_NO":"８號三樓","E_COORD97":180035.57000000001,"N_COORD97":2579145.1200000001,"ADDRESS":"中正路３７巷８號三樓","OBJECTID":432549},"geometry":{"x":180035.57000000123,"y":2579145.120000001}},{"attributes":{"ID":432575,"DIS_CODE":0,"TOWNNAME":"新營區","LI":"忠政里","LIN":"4鄰","STREET":"中正路","SECT":" ","MAREA":" ","LANE":"３７巷","ALLEY":" ","HOUSE_NO":"６號二樓","E_COORD97":180047.79000000001,"N_COORD97":2579146.1699999999,"ADDRESS":"中正路３７巷６號二樓","OBJECTID":432550},"geometry":{"x":180047.79000000097,"y":2579146.1699999999}},{"attributes":{"ID":432576,"DIS_CODE":0,"TOWNNAME":"新營區","LI":"新東里","LIN":"25鄰","STREET":"東興三街","SECT":" ","MAREA":" ","LANE":"２２巷","ALLEY":" ","HOUSE_NO":"９號四樓","E_COORD97":180702.48999999999,"N_COORD97":2579395.5899999999,"ADDRESS":"東興三街２２巷９號四樓","OBJECTID":432551},"geometry":{"x":180702.49000000115,"y":2579395.5900000017}},{"attributes":{"ID":432577,"DIS_CODE":0,"TOWNNAME":"新營區","LI":"新南里","LIN":"25鄰","STREET":"復興路","SECT":" ","MAREA":" ","LANE":"６２０巷","ALLEY":" ","HOUSE_NO":"６６號五樓之５","E_COORD97":178065.16,"N_COORD97":2578543.2999999998,"ADDRESS":"復興路６２０巷６６號五樓之５","OBJECTID":432552},"geometry":{"x":178065.16000000108,"y":2578543.3000000007}},{"attributes":{"ID":432578,"DIS_CODE":0,"TOWNNAME":"新營區","LI":"新北里","LIN":"32鄰","STREET":"新北六街","SECT":" ","MAREA":" ","LANE":"５巷","ALLEY":" ","HOUSE_NO":"６之１號六樓","E_COORD97":178692.72,"N_COORD97":2579085.1299999999,"ADDRESS":"新北六街５巷６之１號六樓","OBJECTID":432553},"geometry":{"x":178692.71999999974,"y":2579085.129999999}},{"attributes":{"ID":432579,"DIS_CODE":0,"TOWNNAME":"佳里區","LI":"鎮山里","LIN":"14鄰","STREET":"安南路","SECT":" ","MAREA":" ","LANE":"２巷","ALLEY":" ","HOUSE_NO":"５號","E_COORD97":166004.44,"N_COORD97":2561403.9399999999,"ADDRESS":"安南路２巷５號","OBJECTID":432554},"geometry":{"x":166004.44000000134,"y":2561403.9400000013}},{"attributes":{"ID":432580,"DIS_CODE":0,"TOWNNAME":"新營區","LI":"新東里","LIN":"25鄰","STREET":"東興三街","SECT":" ","MAREA":" ","LANE":"２２巷","ALLEY":" ","HOUSE_NO":"１３號十一樓","E_COORD97":180697.97,"N_COORD97":2579418.8700000001,"ADDRESS":"東興三街２２巷１３號十一樓","OBJECTID":432555},"geometry":{"x":180697.96999999974,"y":2579418.8700000029}},{"attributes":{"ID":432581,"DIS_CODE":0,"TOWNNAME":"新營區","LI":"新東里","LIN":"25鄰","STREET":"東興三街","SECT":" ","MAREA":" ","LANE":"２２巷","ALLEY":" ","HOUSE_NO":"１１號六樓","E_COORD97":180664.79000000001,"N_COORD97":2579370.2999999998,"ADDRESS":"東興三街２２巷１１號六樓","OBJECTID":432556},"geometry":{"x":180664.79000000097,"y":2579370.3000000007}},{"attributes":{"ID":432582,"DIS_CODE":0,"TOWNNAME":"新營區","LI":"新北里","LIN":"32鄰","STREET":"新北六街","SECT":" ","MAREA":" ","LANE":"５巷","ALLEY":" ","HOUSE_NO":"６之１號三樓","E_COORD97":178692.72,"N_COORD97":2579085.1299999999,"ADDRESS":"新北六街５巷６之１號三樓","OBJECTID":432557},"geometry":{"x":178692.71999999974,"y":2579085.129999999}},{"attributes":{"ID":432583,"DIS_CODE":0,"TOWNNAME":"新營區","LI":"新北里","LIN":"32鄰","STREET":"新北六街","SECT":" ","MAREA":" ","LANE":"５巷","ALLEY":" ","HOUSE_NO":"６之２號六樓","E_COORD97":178692.72,"N_COORD97":2579085.1299999999,"ADDRESS":"新北六街５巷６之２號六樓","OBJECTID":432558},"geometry":{"x":178692.71999999974,"y":2579085.129999999}},{"attributes":{"ID":432584,"DIS_CODE":0,"TOWNNAME":"新營區","LI":"新東里","LIN":"25鄰","STREET":"東興三街","SECT":" ","MAREA":" ","LANE":"２２巷","ALLEY":" ","HOUSE_NO":"７號六樓","E_COORD97":180702.54999999999,"N_COORD97":2579395.5899999999,"ADDRESS":"東興三街２２巷７號六樓","OBJECTID":432559},"geometry":{"x":180702.54999999981,"y":2579395.5900000017}},{"attributes":{"ID":432585,"DIS_CODE":0,"TOWNNAME":"新營區","LI":"新東里","LIN":"25鄰","STREET":"東興三街","SECT":" ","MAREA":" ","LANE":"２２巷","ALLEY":" ","HOUSE_NO":"９號六樓","E_COORD97":180702.48999999999,"N_COORD97":2579395.5899999999,"ADDRESS":"東興三街２２巷９號六樓","OBJECTID":432560},"geometry":{"x":180702.49000000115,"y":2579395.5900000017}},{"attributes":{"ID":432586,"DIS_CODE":0,"TOWNNAME":"永康區","LI":"北灣里","LIN":"39鄰","STREET":"大同街","SECT":" ","MAREA":" ","LANE":"４２５巷","ALLEY":" ","HOUSE_NO":"１０號","E_COORD97":174587.17999999999,"N_COORD97":2546325.4100000001,"ADDRESS":"大同街４２５巷１０號","OBJECTID":432561},"geometry":{"x":174587.1799999997,"y":2546325.4100000001}},{"attributes":{"ID":432587,"DIS_CODE":0,"TOWNNAME":"永康區","LI":"北灣里","LIN":"39鄰","STREET":"大同街","SECT":" ","MAREA":" ","LANE":"４２５巷","ALLEY":" ","HOUSE_NO":"２６號","E_COORD97":174568.12,"N_COORD97":2546319.8199999998,"ADDRESS":"大同街４２５巷２６號","OBJECTID":432562},"geometry":{"x":174568.12000000104,"y":2546319.8200000003}},{"attributes":{"ID":432588,"DIS_CODE":0,"TOWNNAME":"永康區","LI":"正強里","LIN":"42鄰","STREET":"中正路","SECT":" ","MAREA":" ","LANE":"２５６巷","ALLEY":" ","HOUSE_NO":"１號之１８","E_COORD97":173178.20999999999,"N_COORD97":2547946.8999999999,"ADDRESS":"中正路２５６巷１號之１８","OBJECTID":432563},"geometry":{"x":173178.20999999996,"y":2547946.9000000004}},{"attributes":{"ID":432589,"DIS_CODE":0,"TOWNNAME":"永康區","LI":"北灣里","LIN":"39鄰","STREET":"大同街","SECT":" ","MAREA":" ","LANE":"４２５巷","ALLEY":" ","HOUSE_NO":"８號","E_COORD97":174590.04000000001,"N_COORD97":2546326.6600000001,"ADDRESS":"大同街４２５巷８號","OBJECTID":432564},"geometry":{"x":174590.04000000004,"y":2546326.660000002}},{"attributes":{"ID":432590,"DIS_CODE":0,"TOWNNAME":"永康區","LI":"北灣里","LIN":"4鄰","STREET":"信義街","SECT":" ","MAREA":" ","LANE":"６２巷","ALLEY":" ","HOUSE_NO":"６號","E_COORD97":175437.23000000001,"N_COORD97":2545684.77,"ADDRESS":"信義街６２巷６號","OBJECTID":432565},"geometry":{"x":175437.23000000231,"y":2545684.7700000014}},{"attributes":{"ID":432591,"DIS_CODE":0,"TOWNNAME":"永康區","LI":"北灣里","LIN":"4鄰","STREET":"信義街","SECT":" ","MAREA":" ","LANE":"６２巷","ALLEY":" ","HOUSE_NO":"２２號","E_COORD97":175431.37,"N_COORD97":2545732.0099999998,"ADDRESS":"信義街６２巷２２號","OBJECTID":432566},"geometry":{"x":175431.37000000104,"y":2545732.0099999998}},{"attributes":{"ID":432592,"DIS_CODE":0,"TOWNNAME":"永康區","LI":"正強里","LIN":"32鄰","STREET":"四維街","SECT":" ","MAREA":" ","LANE":"２９巷","ALLEY":" ","HOUSE_NO":"２７號","E_COORD97":173345.95999999999,"N_COORD97":2547985.5,"ADDRESS":"四維街２９巷２７號","OBJECTID":432567},"geometry":{"x":173345.95999999996,"y":2547985.5000000019}},{"attributes":{"ID":432593,"DIS_CODE":0,"TOWNNAME":"永康區","LI":"永康里","LIN":"26鄰","STREET":"中山北路","SECT":" ","MAREA":" ","LANE":"１０４巷","ALLEY":" ","HOUSE_NO":"１１號","E_COORD97":174180.98999999999,"N_COORD97":2547460.7000000002,"ADDRESS":"中山北路１０４巷１１號","OBJECTID":432568},"geometry":{"x":174180.99000000115,"y":2547460.7000000011}},{"attributes":{"ID":432594,"DIS_CODE":0,"TOWNNAME":"永康區","LI":"正強里","LIN":"42鄰","STREET":"中正路","SECT":" ","MAREA":" ","LANE":"２５６巷","ALLEY":" ","HOUSE_NO":"１號之１５","E_COORD97":173178.20999999999,"N_COORD97":2547946.8999999999,"ADDRESS":"中正路２５６巷１號之１５","OBJECTID":432569},"geometry":{"x":173178.20999999996,"y":2547946.9000000004}},{"attributes":{"ID":432595,"DIS_CODE":0,"TOWNNAME":"永康區","LI":"永康里","LIN":"26鄰","STREET":"中山北路","SECT":" ","MAREA":" ","LANE":"１０４巷","ALLEY":" ","HOUSE_NO":"３號","E_COORD97":174174.28,"N_COORD97":2547477.5800000001,"ADDRESS":"中山北路１０４巷３號","OBJECTID":432570},"geometry":{"x":174174.28000000119,"y":2547477.5800000001}},{"attributes":{"ID":432596,"DIS_CODE":0,"TOWNNAME":"永康區","LI":"正強里","LIN":"32鄰","STREET":"四維街","SECT":" ","MAREA":" ","LANE":"５１巷","ALLEY":" ","HOUSE_NO":"５號","E_COORD97":173377.82000000001,"N_COORD97":2548047.1400000001,"ADDRESS":"四維街５１巷５號","OBJECTID":432571},"geometry":{"x":173377.8200000003,"y":2548047.1400000006}},{"attributes":{"ID":432597,"DIS_CODE":0,"TOWNNAME":"永康區","LI":"北灣里","LIN":"4鄰","STREET":"信義街","SECT":" ","MAREA":" ","LANE":"６２巷","ALLEY":" ","HOUSE_NO":"２５號","E_COORD97":175418.04999999999,"N_COORD97":2545740.23,"ADDRESS":"信義街６２巷２５號","OBJECTID":432572},"geometry":{"x":175418.05000000075,"y":2545740.2300000023}},{"attributes":{"ID":432598,"DIS_CODE":0,"TOWNNAME":"永康區","LI":"北灣里","LIN":"4鄰","STREET":"信義街","SECT":" ","MAREA":" ","LANE":"６２巷","ALLEY":" ","HOUSE_NO":"２６號","E_COORD97":175429.98000000001,"N_COORD97":2545741.7599999998,"ADDRESS":"信義街６２巷２６號","OBJECTID":432573},"geometry":{"x":175429.98000000045,"y":2545741.7600000016}},{"attributes":{"ID":432599,"DIS_CODE":0,"TOWNNAME":"永康區","LI":"北灣里","LIN":"4鄰","STREET":"信義街","SECT":" ","MAREA":" ","LANE":"９４巷","ALLEY":" ","HOUSE_NO":"５號","E_COORD97":175273.13,"N_COORD97":2545687.1000000001,"ADDRESS":"信義街９４巷５號","OBJECTID":432574},"geometry":{"x":175273.13000000082,"y":2545687.0999999996}},{"attributes":{"ID":432600,"DIS_CODE":0,"TOWNNAME":"永康區","LI":"永康里","LIN":"39鄰","STREET":"永福街","SECT":" ","MAREA":" ","LANE":"２１巷","ALLEY":" ","HOUSE_NO":"１３號","E_COORD97":174294.03,"N_COORD97":2546427.7799999998,"ADDRESS":"永福街２１巷１３號","OBJECTID":432575},"geometry":{"x":174294.03000000212,"y":2546427.7799999993}},{"attributes":{"ID":432601,"DIS_CODE":0,"TOWNNAME":"永康區","LI":"北灣里","LIN":"39鄰","STREET":"大同街","SECT":" ","MAREA":" ","LANE":"４１３巷","ALLEY":" ","HOUSE_NO":"２號","E_COORD97":174628.07999999999,"N_COORD97":2546296.5899999999,"ADDRESS":"大同街４１３巷２號","OBJECTID":432576},"geometry":{"x":174628.08000000101,"y":2546296.5900000017}},{"attributes":{"ID":432602,"DIS_CODE":0,"TOWNNAME":"永康區","LI":"正強里","LIN":"43鄰","STREET":"中正路","SECT":" ","MAREA":" ","LANE":"２５６巷","ALLEY":" ","HOUSE_NO":"３號之１４","E_COORD97":173149.16,"N_COORD97":2547954.29,"ADDRESS":"中正路２５６巷３號之１４","OBJECTID":432577},"geometry":{"x":173149.16000000108,"y":2547954.2900000028}},{"attributes":{"ID":432603,"DIS_CODE":0,"TOWNNAME":"永康區","LI":"北灣里","LIN":"4鄰","STREET":"信義街","SECT":" ","MAREA":" ","LANE":"４４巷","ALLEY":" ","HOUSE_NO":"４０號","E_COORD97":175481.48000000001,"N_COORD97":2545767.6600000001,"ADDRESS":"信義街４４巷４０號","OBJECTID":432578},"geometry":{"x":175481.48000000138,"y":2545767.660000002}},{"attributes":{"ID":432604,"DIS_CODE":0,"TOWNNAME":"永康區","LI":"北灣里","LIN":"4鄰","STREET":"信義街","SECT":" ","MAREA":" ","LANE":"４４巷","ALLEY":" ","HOUSE_NO":"３２號","E_COORD97":175483.73999999999,"N_COORD97":2545751.6600000001,"ADDRESS":"信義街４４巷３２號","OBJECTID":432579},"geometry":{"x":175483.74000000022,"y":2545751.6600000001}},{"attributes":{"ID":432605,"DIS_CODE":0,"TOWNNAME":"永康區","LI":"正強里","LIN":"32鄰","STREET":"四維街","SECT":" ","MAREA":" ","LANE":"２９巷","ALLEY":" ","HOUSE_NO":"３１號","E_COORD97":173337.76000000001,"N_COORD97":2547983,"ADDRESS":"四維街２９巷３１號","OBJECTID":432580},"geometry":{"x":173337.76000000071,"y":2547983}},{"attributes":{"ID":432606,"DIS_CODE":0,"TOWNNAME":"永康區","LI":"永康里","LIN":"26鄰","STREET":"永明街","SECT":" ","MAREA":" ","LANE":"６９巷","ALLEY":" ","HOUSE_NO":"３號","E_COORD97":174165.38,"N_COORD97":2547299.2400000002,"ADDRESS":"永明街６９巷３號","OBJECTID":432581},"geometry":{"x":174165.37999999989,"y":2547299.2400000021}},{"attributes":{"ID":432607,"DIS_CODE":0,"TOWNNAME":"將軍區","LI":"廣山里","LIN":"16鄰","STREET":" ","SECT":" ","MAREA":"廣山","LANE":" ","ALLEY":" ","HOUSE_NO":"１５５號","E_COORD97":159671.177241,"N_COORD97":2569025.1547400001,"ADDRESS":"廣山１５５號","OBJECTID":432582},"geometry":{"x":159671.17724100035,"y":2569025.1547420025}},{"attributes":{"ID":432608,"DIS_CODE":0,"TOWNNAME":"永康區","LI":"北灣里","LIN":"39鄰","STREET":"大同街","SECT":" ","MAREA":" ","LANE":"４１３巷","ALLEY":" ","HOUSE_NO":"１０之２號","E_COORD97":174634.29999999999,"N_COORD97":2546277.3900000001,"ADDRESS":"大同街４１３巷１０之２號","OBJECTID":432583},"geometry":{"x":174634.30000000075,"y":2546277.3900000025}},{"attributes":{"ID":432609,"DIS_CODE":0,"TOWNNAME":"永康區","LI":"北灣里","LIN":"4鄰","STREET":"信義街","SECT":" ","MAREA":" ","LANE":"９４巷","ALLEY":" ","HOUSE_NO":"１２號","E_COORD97":175289.01999999999,"N_COORD97":2545700.7599999998,"ADDRESS":"信義街９４巷１２號","OBJECTID":432584},"geometry":{"x":175289.02000000048,"y":2545700.7600000016}},{"attributes":{"ID":432610,"DIS_CODE":0,"TOWNNAME":"永康區","LI":"北灣里","LIN":"25鄰","STREET":"大灣六街","SECT":" ","MAREA":" ","LANE":"８２巷","ALLEY":" ","HOUSE_NO":"１號","E_COORD97":175108.12,"N_COORD97":2545337.6299999999,"ADDRESS":"大灣六街８２巷１號","OBJECTID":432585},"geometry":{"x":175108.12000000011,"y":2545337.6300000027}},{"attributes":{"ID":432611,"DIS_CODE":0,"TOWNNAME":"永康區","LI":"正強里","LIN":"42鄰","STREET":"中正路","SECT":" ","MAREA":" ","LANE":"２５６巷","ALLEY":" ","HOUSE_NO":"１號之３９","E_COORD97":173178.14000000001,"N_COORD97":2547946.8999999999,"ADDRESS":"中正路２５６巷１號之３９","OBJECTID":432586},"geometry":{"x":173178.13999999966,"y":2547946.9000000004}},{"attributes":{"ID":432612,"DIS_CODE":0,"TOWNNAME":"永康區","LI":"北灣里","LIN":"4鄰","STREET":"信義街","SECT":" ","MAREA":" ","LANE":"９４巷","ALLEY":" ","HOUSE_NO":"１４號","E_COORD97":175287.82999999999,"N_COORD97":2545707.7599999998,"ADDRESS":"信義街９４巷１４號","OBJECTID":432587},"geometry":{"x":175287.83000000007,"y":2545707.7600000016}},{"attributes":{"ID":432613,"DIS_CODE":0,"TOWNNAME":"玉井區","LI":"玉田里","LIN":"40鄰","STREET":"和平街","SECT":" ","MAREA":" ","LANE":" ","ALLEY":" ","HOUSE_NO":"１２５號","E_COORD97":195253.73000000001,"N_COORD97":2557522.25,"ADDRESS":"和平街１２５號","OBJECTID":432588},"geometry":{"x":195253.73000000045,"y":2557522.25}},{"attributes":{"ID":432614,"DIS_CODE":0,"TOWNNAME":"永康區","LI":"正強里","LIN":"38鄰","STREET":"正強街","SECT":" ","MAREA":" ","LANE":"３０３巷","ALLEY":" ","HOUSE_NO":"２８號","E_COORD97":173196.37,"N_COORD97":2548022.6699999999,"ADDRESS":"正強街３０３巷２８號","OBJECTID":432589},"geometry":{"x":173196.36999999918,"y":2548022.6699999999}},{"attributes":{"ID":432615,"DIS_CODE":0,"TOWNNAME":"安南區","LI":"安慶里","LIN":"12鄰","STREET":"長溪路","SECT":"一段","MAREA":" ","LANE":"８７巷","ALLEY":" ","HOUSE_NO":"５號","E_COORD97":169129.48999999999,"N_COORD97":2548360.9900000002,"ADDRESS":"長溪路一段８７巷５號","OBJECTID":432590},"geometry":{"x":169129.49000000115,"y":2548360.9900000039}},{"attributes":{"ID":432616,"DIS_CODE":0,"TOWNNAME":"東區","LI":"東安里","LIN":"4鄰","STREET":"東門路","SECT":"二段","MAREA":" ","LANE":"３巷","ALLEY":" ","HOUSE_NO":"３２號","E_COORD97":169972.84,"N_COORD97":2543047.54,"ADDRESS":"東門路二段３巷３２號","OBJECTID":432591},"geometry":{"x":169972.84000000078,"y":2543047.540000001}},{"attributes":{"ID":432617,"DIS_CODE":0,"TOWNNAME":"安南區","LI":"長安里","LIN":"4鄰","STREET":"長溪路","SECT":"三段","MAREA":" ","LANE":"４０５巷","ALLEY":" ","HOUSE_NO":"１００號","E_COORD97":167439.47,"N_COORD97":2551946.1200000001,"ADDRESS":"長溪路三段４０５巷１００號","OBJECTID":432592},"geometry":{"x":167439.46999999974,"y":2551946.1200000029}},{"attributes":{"ID":432618,"DIS_CODE":0,"TOWNNAME":"安南區","LI":"安慶里","LIN":"4鄰","STREET":"長溪路","SECT":"一段","MAREA":" ","LANE":"１６８巷","ALLEY":" ","HOUSE_NO":"３２號","E_COORD97":169066.69,"N_COORD97":2548638,"ADDRESS":"長溪路一段１６８巷３２號","OBJECTID":432593},"geometry":{"x":169066.68999999948,"y":2548638}},{"attributes":{"ID":432619,"DIS_CODE":0,"TOWNNAME":"安南區","LI":"長安里","LIN":"4鄰","STREET":"長溪路","SECT":"三段","MAREA":" ","LANE":"４０５巷","ALLEY":" ","HOUSE_NO":"９４號","E_COORD97":167464.23999999999,"N_COORD97":2551944.7999999998,"ADDRESS":"長溪路三段４０５巷９４號","OBJECTID":432594},"geometry":{"x":167464.23999999929,"y":2551944.8000000007}},{"attributes":{"ID":432620,"DIS_CODE":0,"TOWNNAME":"安南區","LI":"長安里","LIN":"18鄰","STREET":"長溪路","SECT":"三段","MAREA":" ","LANE":"２７３巷","ALLEY":" ","HOUSE_NO":"５號","E_COORD97":167753.54000000001,"N_COORD97":2551777.1499999999,"ADDRESS":"長溪路三段２７３巷５號","OBJECTID":432595},"geometry":{"x":167753.53999999911,"y":2551777.1499999985}},{"attributes":{"ID":432621,"DIS_CODE":0,"TOWNNAME":"安南區","LI":"長安里","LIN":"18鄰","STREET":"長溪路","SECT":"三段","MAREA":" ","LANE":"２７３巷","ALLEY":" ","HOUSE_NO":"７號","E_COORD97":167748.66,"N_COORD97":2551793.3799999999,"ADDRESS":"長溪路三段２７３巷７號","OBJECTID":432596},"geometry":{"x":167748.66000000108,"y":2551793.379999999}},{"attributes":{"ID":432622,"DIS_CODE":0,"TOWNNAME":"安南區","LI":"長安里","LIN":"18鄰","STREET":"長溪路","SECT":"三段","MAREA":" ","LANE":"２７３巷","ALLEY":" ","HOUSE_NO":"９號","E_COORD97":167745.06,"N_COORD97":2551798.9399999999,"ADDRESS":"長溪路三段２７３巷９號","OBJECTID":432597},"geometry":{"x":167745.06000000052,"y":2551798.9400000013}},{"attributes":{"ID":432623,"DIS_CODE":0,"TOWNNAME":"安南區","LI":"長安里","LIN":"18鄰","STREET":"長溪路","SECT":"三段","MAREA":" ","LANE":"３７３巷","ALLEY":" ","HOUSE_NO":"１１號","E_COORD97":167672.06,"N_COORD97":2551942.1899999999,"ADDRESS":"長溪路三段３７３巷１１號","OBJECTID":432598},"geometry":{"x":167672.06000000052,"y":2551942.1899999976}},{"attributes":{"ID":432624,"DIS_CODE":0,"TOWNNAME":"安南區","LI":"總頭里","LIN":"8鄰","STREET":"長溪路","SECT":"二段","MAREA":" ","LANE":"６２７巷","ALLEY":" ","HOUSE_NO":"１６號","E_COORD97":168161.03,"N_COORD97":2550777.52,"ADDRESS":"長溪路二段６２７巷１６號","OBJECTID":432599},"geometry":{"x":168161.03000000119,"y":2550777.5200000033}},{"attributes":{"ID":432625,"DIS_CODE":0,"TOWNNAME":"安南區","LI":"長安里","LIN":"15鄰","STREET":"公學路","SECT":"二段","MAREA":" ","LANE":"６３巷","ALLEY":" ","HOUSE_NO":"３號","E_COORD97":167833.89000000001,"N_COORD97":2552430.8199999998,"ADDRESS":"公學路二段６３巷３號","OBJECTID":432600},"geometry":{"x":167833.88999999873,"y":2552430.8200000022}}]}