{"displayFieldName":"TOWNNAME","fieldAliases":{"ID":"ID","DIS_CODE":"DIS_CODE","TOWNNAME":"TOWNNAME","LI":"LI","LIN":"LIN","STREET":"STREET","SECT":"SECT","MAREA":"MAREA","LANE":"LANE","ALLEY":"ALLEY","HOUSE_NO":"HOUSE_NO","E_COORD97":"E_COORD97","N_COORD97":"N_COORD97","ADDRESS":"ADDRESS","OBJECTID":"OBJECTID"},"geometryType":"esriGeometryPoint","spatialReference":{"wkid":102443,"latestWkid":3826},"fields":[{"name":"ID","type":"esriFieldTypeDouble","alias":"ID"},{"name":"DIS_CODE","type":"esriFieldTypeInteger","alias":"DIS_CODE"},{"name":"TOWNNAME","type":"esriFieldTypeString","alias":"TOWNNAME","length":8},{"name":"LI","type":"esriFieldTypeString","alias":"LI","length":8},{"name":"LIN","type":"esriFieldTypeString","alias":"LIN","length":12},{"name":"STREET","type":"esriFieldTypeString","alias":"STREET","length":20},{"name":"SECT","type":"esriFieldTypeString","alias":"SECT","length":8},{"name":"MAREA","type":"esriFieldTypeString","alias":"MAREA","length":12},{"name":"LANE","type":"esriFieldTypeString","alias":"LANE","length":10},{"name":"ALLEY","type":"esriFieldTypeString","alias":"ALLEY","length":10},{"name":"HOUSE_NO","type":"esriFieldTypeString","alias":"HOUSE_NO","length":20},{"name":"E_COORD97","type":"esriFieldTypeDouble","alias":"E_COORD97"},{"name":"N_COORD97","type":"esriFieldTypeDouble","alias":"N_COORD97"},{"name":"ADDRESS","type":"esriFieldTypeString","alias":"ADDRESS","length":50},{"name":"OBJECTID","type":"esriFieldTypeOID","alias":"OBJECTID"}],"features":[{"attributes":{"ID":526228,"DIS_CODE":0,"TOWNNAME":"北區","LI":"長德里","LIN":"6鄰","STREET":"長北街","SECT":" ","MAREA":" ","LANE":" ","ALLEY":" ","HOUSE_NO":"１３２號六樓之６","E_COORD97":168493.82000000001,"N_COORD97":2544812.98,"ADDRESS":"長北街１３２號六樓之６","OBJECTID":526201},"geometry":{"x":168493.8200000003,"y":2544812.9800000023}},{"attributes":{"ID":526229,"DIS_CODE":0,"TOWNNAME":"北區","LI":"長德里","LIN":"6鄰","STREET":"長北街","SECT":" ","MAREA":" ","LANE":" ","ALLEY":" ","HOUSE_NO":"１３２號六樓之７","E_COORD97":168493.82000000001,"N_COORD97":2544812.98,"ADDRESS":"長北街１３２號六樓之７","OBJECTID":526202},"geometry":{"x":168493.8200000003,"y":2544812.9800000023}},{"attributes":{"ID":526230,"DIS_CODE":0,"TOWNNAME":"北區","LI":"公園里","LIN":"6鄰","STREET":"富北街","SECT":" ","MAREA":" ","LANE":" ","ALLEY":" ","HOUSE_NO":"７號十樓","E_COORD97":169138.73000000001,"N_COORD97":2544315.8599999999,"ADDRESS":"富北街７號十樓","OBJECTID":526203},"geometry":{"x":169138.73000000045,"y":2544315.8599999994}},{"attributes":{"ID":526231,"DIS_CODE":0,"TOWNNAME":"北區","LI":"長德里","LIN":"6鄰","STREET":"長北街","SECT":" ","MAREA":" ","LANE":" ","ALLEY":" ","HOUSE_NO":"１３２號六樓之９","E_COORD97":168493.82000000001,"N_COORD97":2544812.98,"ADDRESS":"長北街１３２號六樓之９","OBJECTID":526204},"geometry":{"x":168493.8200000003,"y":2544812.9800000023}},{"attributes":{"ID":526232,"DIS_CODE":0,"TOWNNAME":"北區","LI":"長德里","LIN":"6鄰","STREET":"長北街","SECT":" ","MAREA":" ","LANE":" ","ALLEY":" ","HOUSE_NO":"１３２號四樓之１","E_COORD97":168493.82000000001,"N_COORD97":2544812.98,"ADDRESS":"長北街１３２號四樓之１","OBJECTID":526205},"geometry":{"x":168493.8200000003,"y":2544812.9800000023}},{"attributes":{"ID":526233,"DIS_CODE":0,"TOWNNAME":"北區","LI":"長德里","LIN":"6鄰","STREET":"長北街","SECT":" ","MAREA":" ","LANE":" ","ALLEY":" ","HOUSE_NO":"１３２號四樓之１０","E_COORD97":168493.82000000001,"N_COORD97":2544812.98,"ADDRESS":"長北街１３２號四樓之１０","OBJECTID":526206},"geometry":{"x":168493.8200000003,"y":2544812.9800000023}},{"attributes":{"ID":526234,"DIS_CODE":0,"TOWNNAME":"北區","LI":"長德里","LIN":"6鄰","STREET":"長北街","SECT":" ","MAREA":" ","LANE":" ","ALLEY":" ","HOUSE_NO":"１３２號四樓之１１","E_COORD97":168493.82000000001,"N_COORD97":2544812.98,"ADDRESS":"長北街１３２號四樓之１１","OBJECTID":526207},"geometry":{"x":168493.8200000003,"y":2544812.9800000023}},{"attributes":{"ID":526235,"DIS_CODE":0,"TOWNNAME":"永康區","LI":"永康里","LIN":"33鄰","STREET":"永大路","SECT":"二段","MAREA":" ","LANE":" ","ALLEY":" ","HOUSE_NO":"１３５６號","E_COORD97":174298.85999999999,"N_COORD97":2546981.3500000001,"ADDRESS":"永大路二段１３５６號","OBJECTID":526208},"geometry":{"x":174298.86000000127,"y":2546981.3500000034}},{"attributes":{"ID":526236,"DIS_CODE":0,"TOWNNAME":"永康區","LI":"永康里","LIN":"9鄰","STREET":"永康街","SECT":" ","MAREA":" ","LANE":" ","ALLEY":" ","HOUSE_NO":"８５號","E_COORD97":173851.98000000001,"N_COORD97":2547182.4900000002,"ADDRESS":"永康街８５號","OBJECTID":526209},"geometry":{"x":173851.97999999952,"y":2547182.4900000021}},{"attributes":{"ID":526237,"DIS_CODE":0,"TOWNNAME":"永康區","LI":"永康里","LIN":"25鄰","STREET":"聖龍街","SECT":" ","MAREA":" ","LANE":" ","ALLEY":" ","HOUSE_NO":"１４８號","E_COORD97":174115.06,"N_COORD97":2547849.0600000001,"ADDRESS":"聖龍街１４８號","OBJECTID":526210},"geometry":{"x":174115.06000000145,"y":2547849.0600000024}},{"attributes":{"ID":526238,"DIS_CODE":0,"TOWNNAME":"永康區","LI":"永康里","LIN":"39鄰","STREET":"文化路","SECT":" ","MAREA":" ","LANE":" ","ALLEY":" ","HOUSE_NO":"１０號","E_COORD97":174378.98999999999,"N_COORD97":2546385.8100000001,"ADDRESS":"文化路１０號","OBJECTID":526211},"geometry":{"x":174378.99000000209,"y":2546385.8100000042}},{"attributes":{"ID":526239,"DIS_CODE":0,"TOWNNAME":"北區","LI":"長德里","LIN":"6鄰","STREET":"長北街","SECT":" ","MAREA":" ","LANE":" ","ALLEY":" ","HOUSE_NO":"１３２號四樓之１２","E_COORD97":168493.82000000001,"N_COORD97":2544812.98,"ADDRESS":"長北街１３２號四樓之１２","OBJECTID":526212},"geometry":{"x":168493.8200000003,"y":2544812.9800000023}},{"attributes":{"ID":526240,"DIS_CODE":0,"TOWNNAME":"北區","LI":"長德里","LIN":"6鄰","STREET":"長北街","SECT":" ","MAREA":" ","LANE":" ","ALLEY":" ","HOUSE_NO":"１３２號四樓之１３","E_COORD97":168493.82000000001,"N_COORD97":2544812.98,"ADDRESS":"長北街１３２號四樓之１３","OBJECTID":526213},"geometry":{"x":168493.8200000003,"y":2544812.9800000023}},{"attributes":{"ID":526241,"DIS_CODE":0,"TOWNNAME":"北區","LI":"長德里","LIN":"6鄰","STREET":"長北街","SECT":" ","MAREA":" ","LANE":" ","ALLEY":" ","HOUSE_NO":"１３２號四樓之１４","E_COORD97":168493.82000000001,"N_COORD97":2544812.98,"ADDRESS":"長北街１３２號四樓之１４","OBJECTID":526214},"geometry":{"x":168493.8200000003,"y":2544812.9800000023}},{"attributes":{"ID":526242,"DIS_CODE":0,"TOWNNAME":"北區","LI":"長德里","LIN":"6鄰","STREET":"長北街","SECT":" ","MAREA":" ","LANE":" ","ALLEY":" ","HOUSE_NO":"１３２號四樓之１５","E_COORD97":168493.82000000001,"N_COORD97":2544812.98,"ADDRESS":"長北街１３２號四樓之１５","OBJECTID":526215},"geometry":{"x":168493.8200000003,"y":2544812.9800000023}},{"attributes":{"ID":526243,"DIS_CODE":0,"TOWNNAME":"北區","LI":"長德里","LIN":"6鄰","STREET":"長北街","SECT":" ","MAREA":" ","LANE":" ","ALLEY":" ","HOUSE_NO":"１３２號四樓之１６","E_COORD97":168493.82000000001,"N_COORD97":2544812.98,"ADDRESS":"長北街１３２號四樓之１６","OBJECTID":526216},"geometry":{"x":168493.8200000003,"y":2544812.9800000023}},{"attributes":{"ID":526244,"DIS_CODE":0,"TOWNNAME":"北區","LI":"長德里","LIN":"6鄰","STREET":"長北街","SECT":" ","MAREA":" ","LANE":" ","ALLEY":" ","HOUSE_NO":"１３２號四樓之１７","E_COORD97":168493.82000000001,"N_COORD97":2544812.98,"ADDRESS":"長北街１３２號四樓之１７","OBJECTID":526217},"geometry":{"x":168493.8200000003,"y":2544812.9800000023}},{"attributes":{"ID":526245,"DIS_CODE":0,"TOWNNAME":"新營區","LI":"民生里","LIN":"6鄰","STREET":"民生路","SECT":" ","MAREA":" ","LANE":" ","ALLEY":" ","HOUSE_NO":"５２號二樓之６","E_COORD97":179329.59,"N_COORD97":2578373.3100000001,"ADDRESS":"民生路５２號二樓之６","OBJECTID":526218},"geometry":{"x":179329.59000000171,"y":2578373.3100000005}},{"attributes":{"ID":526246,"DIS_CODE":0,"TOWNNAME":"北區","LI":"長德里","LIN":"6鄰","STREET":"長北街","SECT":" ","MAREA":" ","LANE":" ","ALLEY":" ","HOUSE_NO":"１３２號四樓之１８","E_COORD97":168493.82000000001,"N_COORD97":2544812.98,"ADDRESS":"長北街１３２號四樓之１８","OBJECTID":526219},"geometry":{"x":168493.8200000003,"y":2544812.9800000023}},{"attributes":{"ID":526247,"DIS_CODE":0,"TOWNNAME":"北區","LI":"長德里","LIN":"6鄰","STREET":"長北街","SECT":" ","MAREA":" ","LANE":" ","ALLEY":" ","HOUSE_NO":"１３２號四樓之２","E_COORD97":168493.82000000001,"N_COORD97":2544812.98,"ADDRESS":"長北街１３２號四樓之２","OBJECTID":526220},"geometry":{"x":168493.8200000003,"y":2544812.9800000023}},{"attributes":{"ID":526248,"DIS_CODE":0,"TOWNNAME":"北區","LI":"長德里","LIN":"6鄰","STREET":"長北街","SECT":" ","MAREA":" ","LANE":" ","ALLEY":" ","HOUSE_NO":"１３２號四樓之３","E_COORD97":168493.82000000001,"N_COORD97":2544812.98,"ADDRESS":"長北街１３２號四樓之３","OBJECTID":526221},"geometry":{"x":168493.8200000003,"y":2544812.9800000023}},{"attributes":{"ID":526249,"DIS_CODE":0,"TOWNNAME":"北區","LI":"長德里","LIN":"6鄰","STREET":"長北街","SECT":" ","MAREA":" ","LANE":" ","ALLEY":" ","HOUSE_NO":"１３２號四樓之５","E_COORD97":168493.82000000001,"N_COORD97":2544812.98,"ADDRESS":"長北街１３２號四樓之５","OBJECTID":526222},"geometry":{"x":168493.8200000003,"y":2544812.9800000023}},{"attributes":{"ID":526250,"DIS_CODE":0,"TOWNNAME":"北區","LI":"長德里","LIN":"6鄰","STREET":"長北街","SECT":" ","MAREA":" ","LANE":" ","ALLEY":" ","HOUSE_NO":"１３２號四樓之６","E_COORD97":168493.82000000001,"N_COORD97":2544812.98,"ADDRESS":"長北街１３２號四樓之６","OBJECTID":526223},"geometry":{"x":168493.8200000003,"y":2544812.9800000023}},{"attributes":{"ID":526251,"DIS_CODE":0,"TOWNNAME":"北區","LI":"長德里","LIN":"6鄰","STREET":"長北街","SECT":" ","MAREA":" ","LANE":" ","ALLEY":" ","HOUSE_NO":"１３２號四樓之７","E_COORD97":168493.82000000001,"N_COORD97":2544812.98,"ADDRESS":"長北街１３２號四樓之７","OBJECTID":526224},"geometry":{"x":168493.8200000003,"y":2544812.9800000023}},{"attributes":{"ID":526252,"DIS_CODE":0,"TOWNNAME":"北區","LI":"長德里","LIN":"6鄰","STREET":"長北街","SECT":" ","MAREA":" ","LANE":" ","ALLEY":" ","HOUSE_NO":"１３２號四樓之８","E_COORD97":168493.82000000001,"N_COORD97":2544812.98,"ADDRESS":"長北街１３２號四樓之８","OBJECTID":526225},"geometry":{"x":168493.8200000003,"y":2544812.9800000023}},{"attributes":{"ID":526253,"DIS_CODE":0,"TOWNNAME":"北區","LI":"長德里","LIN":"6鄰","STREET":"長北街","SECT":" ","MAREA":" ","LANE":" ","ALLEY":" ","HOUSE_NO":"１３２號四樓之９","E_COORD97":168493.82000000001,"N_COORD97":2544812.98,"ADDRESS":"長北街１３２號四樓之９","OBJECTID":526226},"geometry":{"x":168493.8200000003,"y":2544812.9800000023}},{"attributes":{"ID":526254,"DIS_CODE":0,"TOWNNAME":"新營區","LI":"中營里","LIN":"6鄰","STREET":"新進路","SECT":" ","MAREA":" ","LANE":" ","ALLEY":" ","HOUSE_NO":"３７號九樓之２","E_COORD97":180641.64999999999,"N_COORD97":2578292.8999999999,"ADDRESS":"新進路３７號九樓之２","OBJECTID":526227},"geometry":{"x":180641.65000000037,"y":2578292.9000000022}},{"attributes":{"ID":526255,"DIS_CODE":0,"TOWNNAME":"新營區","LI":"永生里","LIN":"6鄰","STREET":"富源街","SECT":" ","MAREA":" ","LANE":" ","ALLEY":" ","HOUSE_NO":"２２號二樓之３","E_COORD97":180017.17000000001,"N_COORD97":2577978,"ADDRESS":"富源街２２號二樓之３","OBJECTID":526228},"geometry":{"x":180017.16999999993,"y":2577978}},{"attributes":{"ID":526256,"DIS_CODE":0,"TOWNNAME":"新營區","LI":"中營里","LIN":"6鄰","STREET":"新進路","SECT":" ","MAREA":" ","LANE":" ","ALLEY":" ","HOUSE_NO":"３７號六樓之２","E_COORD97":180641.64999999999,"N_COORD97":2578292.8999999999,"ADDRESS":"新進路３７號六樓之２","OBJECTID":526229},"geometry":{"x":180641.65000000037,"y":2578292.9000000022}},{"attributes":{"ID":526257,"DIS_CODE":0,"TOWNNAME":"新營區","LI":"永生里","LIN":"6鄰","STREET":"富源街","SECT":" ","MAREA":" ","LANE":" ","ALLEY":" ","HOUSE_NO":"２２號四樓之４","E_COORD97":180017.10000000001,"N_COORD97":2577978,"ADDRESS":"富源街２２號四樓之４","OBJECTID":526230},"geometry":{"x":180017.09999999963,"y":2577978}},{"attributes":{"ID":526258,"DIS_CODE":0,"TOWNNAME":"永康區","LI":"永康里","LIN":"21鄰","STREET":"中山南路","SECT":" ","MAREA":" ","LANE":" ","ALLEY":" ","HOUSE_NO":"１０３６號","E_COORD97":173686.23000000001,"N_COORD97":2547276.1000000001,"ADDRESS":"中山南路１０３６號","OBJECTID":526231},"geometry":{"x":173686.23000000138,"y":2547276.1000000015}},{"attributes":{"ID":526259,"DIS_CODE":0,"TOWNNAME":"永康區","LI":"永康里","LIN":"38鄰","STREET":"永大路","SECT":"二段","MAREA":" ","LANE":" ","ALLEY":" ","HOUSE_NO":"１１５２號","E_COORD97":174389.04000000001,"N_COORD97":2546641.8399999999,"ADDRESS":"永大路二段１１５２號","OBJECTID":526232},"geometry":{"x":174389.04000000097,"y":2546641.8399999999}},{"attributes":{"ID":526260,"DIS_CODE":0,"TOWNNAME":"永康區","LI":"永康里","LIN":"39鄰","STREET":"永大二路","SECT":" ","MAREA":" ","LANE":" ","ALLEY":" ","HOUSE_NO":"３號","E_COORD97":174340.10999999999,"N_COORD97":2546564.4900000002,"ADDRESS":"永大二路３號","OBJECTID":526233},"geometry":{"x":174340.11000000127,"y":2546564.4900000021}},{"attributes":{"ID":526261,"DIS_CODE":0,"TOWNNAME":"新營區","LI":"永生里","LIN":"6鄰","STREET":"富源街","SECT":" ","MAREA":" ","LANE":" ","ALLEY":" ","HOUSE_NO":"２２號四樓之６","E_COORD97":180017.17999999999,"N_COORD97":2577978,"ADDRESS":"富源街２２號四樓之６","OBJECTID":526234},"geometry":{"x":180017.18000000156,"y":2577978}},{"attributes":{"ID":526262,"DIS_CODE":0,"TOWNNAME":"新營區","LI":"中營里","LIN":"6鄰","STREET":"新進路","SECT":" ","MAREA":" ","LANE":" ","ALLEY":" ","HOUSE_NO":"３７號六樓之１","E_COORD97":180641.51999999999,"N_COORD97":2578292.8999999999,"ADDRESS":"新進路３７號六樓之１","OBJECTID":526235},"geometry":{"x":180641.51999999955,"y":2578292.9000000022}},{"attributes":{"ID":526263,"DIS_CODE":0,"TOWNNAME":"新營區","LI":"永生里","LIN":"6鄰","STREET":"富源街","SECT":" ","MAREA":" ","LANE":" ","ALLEY":" ","HOUSE_NO":"２２號五樓之８","E_COORD97":180017.22,"N_COORD97":2577978,"ADDRESS":"富源街２２號五樓之８","OBJECTID":526236},"geometry":{"x":180017.22000000067,"y":2577978}},{"attributes":{"ID":526264,"DIS_CODE":0,"TOWNNAME":"新營區","LI":"民生里","LIN":"6鄰","STREET":"民生路","SECT":" ","MAREA":" ","LANE":" ","ALLEY":" ","HOUSE_NO":"５２號六樓之３","E_COORD97":179329.57999999999,"N_COORD97":2578373.3100000001,"ADDRESS":"民生路５２號六樓之３","OBJECTID":526237},"geometry":{"x":179329.58000000007,"y":2578373.3100000005}},{"attributes":{"ID":526265,"DIS_CODE":0,"TOWNNAME":"新營區","LI":"民生里","LIN":"6鄰","STREET":"民生路","SECT":" ","MAREA":" ","LANE":" ","ALLEY":" ","HOUSE_NO":"５２號七樓之５","E_COORD97":179329.64000000001,"N_COORD97":2578373.3100000001,"ADDRESS":"民生路５２號七樓之５","OBJECTID":526238},"geometry":{"x":179329.6400000006,"y":2578373.3100000005}},{"attributes":{"ID":526266,"DIS_CODE":0,"TOWNNAME":"新營區","LI":"中營里","LIN":"6鄰","STREET":"新進路","SECT":" ","MAREA":" ","LANE":" ","ALLEY":" ","HOUSE_NO":"３７號八樓之２","E_COORD97":180641.64999999999,"N_COORD97":2578292.8999999999,"ADDRESS":"新進路３７號八樓之２","OBJECTID":526239},"geometry":{"x":180641.65000000037,"y":2578292.9000000022}},{"attributes":{"ID":526267,"DIS_CODE":0,"TOWNNAME":"新營區","LI":"中營里","LIN":"6鄰","STREET":"新進路","SECT":" ","MAREA":" ","LANE":" ","ALLEY":" ","HOUSE_NO":"３７號四樓之２","E_COORD97":180641.64999999999,"N_COORD97":2578292.8999999999,"ADDRESS":"新進路３７號四樓之２","OBJECTID":526240},"geometry":{"x":180641.65000000037,"y":2578292.9000000022}},{"attributes":{"ID":526268,"DIS_CODE":0,"TOWNNAME":"北區","LI":"公園里","LIN":"6鄰","STREET":"成功路","SECT":" ","MAREA":" ","LANE":" ","ALLEY":" ","HOUSE_NO":"２號七樓之１","E_COORD97":169158.57999999999,"N_COORD97":2544255.9300000002,"ADDRESS":"成功路２號七樓之１","OBJECTID":526241},"geometry":{"x":169158.58000000007,"y":2544255.9300000016}},{"attributes":{"ID":526269,"DIS_CODE":0,"TOWNNAME":"北區","LI":"公園里","LIN":"6鄰","STREET":"成功路","SECT":" ","MAREA":" ","LANE":" ","ALLEY":" ","HOUSE_NO":"２號四樓之５","E_COORD97":169158.57999999999,"N_COORD97":2544255.9300000002,"ADDRESS":"成功路２號四樓之５","OBJECTID":526242},"geometry":{"x":169158.58000000007,"y":2544255.9300000016}},{"attributes":{"ID":526270,"DIS_CODE":0,"TOWNNAME":"安平區","LI":"怡平里","LIN":"6鄰","STREET":"慶平路","SECT":" ","MAREA":" ","LANE":" ","ALLEY":" ","HOUSE_NO":"２３４號五樓之１","E_COORD97":165744.56,"N_COORD97":2544194.4399999999,"ADDRESS":"慶平路２３４號五樓之１","OBJECTID":526243},"geometry":{"x":165744.56000000052,"y":2544194.4400000013}},{"attributes":{"ID":526271,"DIS_CODE":0,"TOWNNAME":"安平區","LI":"怡平里","LIN":"6鄰","STREET":"慶平路","SECT":" ","MAREA":" ","LANE":" ","ALLEY":" ","HOUSE_NO":"２３４號五樓之２","E_COORD97":165744.56,"N_COORD97":2544194.4399999999,"ADDRESS":"慶平路２３４號五樓之２","OBJECTID":526244},"geometry":{"x":165744.56000000052,"y":2544194.4400000013}},{"attributes":{"ID":526272,"DIS_CODE":0,"TOWNNAME":"安平區","LI":"怡平里","LIN":"6鄰","STREET":"慶平路","SECT":" ","MAREA":" ","LANE":" ","ALLEY":" ","HOUSE_NO":"２３４號五樓之３","E_COORD97":165744.56,"N_COORD97":2544194.4399999999,"ADDRESS":"慶平路２３４號五樓之３","OBJECTID":526245},"geometry":{"x":165744.56000000052,"y":2544194.4400000013}},{"attributes":{"ID":526273,"DIS_CODE":0,"TOWNNAME":"安平區","LI":"怡平里","LIN":"6鄰","STREET":"慶平路","SECT":" ","MAREA":" ","LANE":" ","ALLEY":" ","HOUSE_NO":"２３４號五樓之４","E_COORD97":165744.56,"N_COORD97":2544194.4399999999,"ADDRESS":"慶平路２３４號五樓之４","OBJECTID":526246},"geometry":{"x":165744.56000000052,"y":2544194.4400000013}},{"attributes":{"ID":526274,"DIS_CODE":0,"TOWNNAME":"安平區","LI":"怡平里","LIN":"6鄰","STREET":"慶平路","SECT":" ","MAREA":" ","LANE":" ","ALLEY":" ","HOUSE_NO":"２３４號五樓之６","E_COORD97":165744.56,"N_COORD97":2544194.4399999999,"ADDRESS":"慶平路２３４號五樓之６","OBJECTID":526247},"geometry":{"x":165744.56000000052,"y":2544194.4400000013}},{"attributes":{"ID":526275,"DIS_CODE":0,"TOWNNAME":"安平區","LI":"怡平里","LIN":"6鄰","STREET":"慶平路","SECT":" ","MAREA":" ","LANE":" ","ALLEY":" ","HOUSE_NO":"２３４號六樓之２","E_COORD97":165744.56,"N_COORD97":2544194.4399999999,"ADDRESS":"慶平路２３４號六樓之２","OBJECTID":526248},"geometry":{"x":165744.56000000052,"y":2544194.4400000013}},{"attributes":{"ID":526276,"DIS_CODE":0,"TOWNNAME":"安平區","LI":"怡平里","LIN":"6鄰","STREET":"慶平路","SECT":" ","MAREA":" ","LANE":" ","ALLEY":" ","HOUSE_NO":"２３４號六樓之３","E_COORD97":165744.56,"N_COORD97":2544194.4399999999,"ADDRESS":"慶平路２３４號六樓之３","OBJECTID":526249},"geometry":{"x":165744.56000000052,"y":2544194.4400000013}},{"attributes":{"ID":526277,"DIS_CODE":0,"TOWNNAME":"安平區","LI":"怡平里","LIN":"6鄰","STREET":"慶平路","SECT":" ","MAREA":" ","LANE":" ","ALLEY":" ","HOUSE_NO":"２３４號六樓之４","E_COORD97":165744.56,"N_COORD97":2544194.4399999999,"ADDRESS":"慶平路２３４號六樓之４","OBJECTID":526250},"geometry":{"x":165744.56000000052,"y":2544194.4400000013}},{"attributes":{"ID":526278,"DIS_CODE":0,"TOWNNAME":"安平區","LI":"怡平里","LIN":"6鄰","STREET":"慶平路","SECT":" ","MAREA":" ","LANE":" ","ALLEY":" ","HOUSE_NO":"２３４號七樓之２","E_COORD97":165744.56,"N_COORD97":2544194.4399999999,"ADDRESS":"慶平路２３４號七樓之２","OBJECTID":526251},"geometry":{"x":165744.56000000052,"y":2544194.4400000013}},{"attributes":{"ID":526279,"DIS_CODE":0,"TOWNNAME":"安平區","LI":"怡平里","LIN":"6鄰","STREET":"慶平路","SECT":" ","MAREA":" ","LANE":" ","ALLEY":" ","HOUSE_NO":"２３４號七樓之４","E_COORD97":165744.56,"N_COORD97":2544194.4399999999,"ADDRESS":"慶平路２３４號七樓之４","OBJECTID":526252},"geometry":{"x":165744.56000000052,"y":2544194.4400000013}},{"attributes":{"ID":526280,"DIS_CODE":0,"TOWNNAME":"安平區","LI":"怡平里","LIN":"6鄰","STREET":"慶平路","SECT":" ","MAREA":" ","LANE":" ","ALLEY":" ","HOUSE_NO":"２３４號七樓之６","E_COORD97":165744.56,"N_COORD97":2544194.4399999999,"ADDRESS":"慶平路２３４號七樓之６","OBJECTID":526253},"geometry":{"x":165744.56000000052,"y":2544194.4400000013}},{"attributes":{"ID":526281,"DIS_CODE":0,"TOWNNAME":"安平區","LI":"怡平里","LIN":"6鄰","STREET":"慶平路","SECT":" ","MAREA":" ","LANE":" ","ALLEY":" ","HOUSE_NO":"２３４號八樓之１","E_COORD97":165744.56,"N_COORD97":2544194.4399999999,"ADDRESS":"慶平路２３４號八樓之１","OBJECTID":526254},"geometry":{"x":165744.56000000052,"y":2544194.4400000013}},{"attributes":{"ID":526282,"DIS_CODE":0,"TOWNNAME":"永康區","LI":"永康里","LIN":"37鄰","STREET":"西勢路","SECT":" ","MAREA":" ","LANE":" ","ALLEY":" ","HOUSE_NO":"７５６號","E_COORD97":174523.19,"N_COORD97":2546749.6699999999,"ADDRESS":"西勢路７５６號","OBJECTID":526255},"geometry":{"x":174523.19000000041,"y":2546749.6700000018}},{"attributes":{"ID":526283,"DIS_CODE":0,"TOWNNAME":"中西區","LI":"中正里","LIN":" ","STREET":"中正路","SECT":" ","MAREA":" ","LANE":" ","ALLEY":" ","HOUSE_NO":"３０８號","E_COORD97":167517.42000000001,"N_COORD97":2543793.4399999999,"ADDRESS":"中正路３０８號","OBJECTID":526256},"geometry":{"x":167517.42000000086,"y":2543793.4400000032}},{"attributes":{"ID":526284,"DIS_CODE":0,"TOWNNAME":"永康區","LI":"永康里","LIN":"36鄰","STREET":"永大路","SECT":"二段","MAREA":" ","LANE":" ","ALLEY":" ","HOUSE_NO":"１２５８號","E_COORD97":174326.01000000001,"N_COORD97":2546823.2799999998,"ADDRESS":"永大路二段１２５８號","OBJECTID":526257},"geometry":{"x":174326.01000000071,"y":2546823.2800000012}},{"attributes":{"ID":526285,"DIS_CODE":0,"TOWNNAME":"安平區","LI":"怡平里","LIN":"6鄰","STREET":"慶平路","SECT":" ","MAREA":" ","LANE":" ","ALLEY":" ","HOUSE_NO":"２３４號十樓之２","E_COORD97":165744.56,"N_COORD97":2544194.4399999999,"ADDRESS":"慶平路２３４號十樓之２","OBJECTID":526258},"geometry":{"x":165744.56000000052,"y":2544194.4400000013}},{"attributes":{"ID":526286,"DIS_CODE":0,"TOWNNAME":"安平區","LI":"怡平里","LIN":"6鄰","STREET":"慶平路","SECT":" ","MAREA":" ","LANE":" ","ALLEY":" ","HOUSE_NO":"２３４號十樓之３","E_COORD97":165744.56,"N_COORD97":2544194.4399999999,"ADDRESS":"慶平路２３４號十樓之３","OBJECTID":526259},"geometry":{"x":165744.56000000052,"y":2544194.4400000013}},{"attributes":{"ID":526287,"DIS_CODE":0,"TOWNNAME":"安平區","LI":"怡平里","LIN":"6鄰","STREET":"慶平路","SECT":" ","MAREA":" ","LANE":" ","ALLEY":" ","HOUSE_NO":"２３４號十樓之５","E_COORD97":165744.56,"N_COORD97":2544194.4399999999,"ADDRESS":"慶平路２３４號十樓之５","OBJECTID":526260},"geometry":{"x":165744.56000000052,"y":2544194.4400000013}},{"attributes":{"ID":526288,"DIS_CODE":0,"TOWNNAME":"安平區","LI":"怡平里","LIN":"6鄰","STREET":"慶平路","SECT":" ","MAREA":" ","LANE":" ","ALLEY":" ","HOUSE_NO":"２３４號十一樓之１","E_COORD97":165744.56,"N_COORD97":2544194.4399999999,"ADDRESS":"慶平路２３４號十一樓之１","OBJECTID":526261},"geometry":{"x":165744.56000000052,"y":2544194.4400000013}},{"attributes":{"ID":526289,"DIS_CODE":0,"TOWNNAME":"安平區","LI":"怡平里","LIN":"6鄰","STREET":"慶平路","SECT":" ","MAREA":" ","LANE":" ","ALLEY":" ","HOUSE_NO":"２３４號十一樓之２","E_COORD97":165744.56,"N_COORD97":2544194.4399999999,"ADDRESS":"慶平路２３４號十一樓之２","OBJECTID":526262},"geometry":{"x":165744.56000000052,"y":2544194.4400000013}},{"attributes":{"ID":526290,"DIS_CODE":0,"TOWNNAME":"安平區","LI":"怡平里","LIN":"6鄰","STREET":"慶平路","SECT":" ","MAREA":" ","LANE":" ","ALLEY":" ","HOUSE_NO":"２３４號十一樓之３","E_COORD97":165744.56,"N_COORD97":2544194.4399999999,"ADDRESS":"慶平路２３４號十一樓之３","OBJECTID":526263},"geometry":{"x":165744.56000000052,"y":2544194.4400000013}},{"attributes":{"ID":526291,"DIS_CODE":0,"TOWNNAME":"安平區","LI":"怡平里","LIN":"6鄰","STREET":"慶平路","SECT":" ","MAREA":" ","LANE":" ","ALLEY":" ","HOUSE_NO":"２３４號十二樓之２","E_COORD97":165744.56,"N_COORD97":2544194.4399999999,"ADDRESS":"慶平路２３４號十二樓之２","OBJECTID":526264},"geometry":{"x":165744.56000000052,"y":2544194.4400000013}},{"attributes":{"ID":526292,"DIS_CODE":0,"TOWNNAME":"安平區","LI":"怡平里","LIN":"6鄰","STREET":"慶平路","SECT":" ","MAREA":" ","LANE":" ","ALLEY":" ","HOUSE_NO":"２３４號十二樓之３","E_COORD97":165744.56,"N_COORD97":2544194.4399999999,"ADDRESS":"慶平路２３４號十二樓之３","OBJECTID":526265},"geometry":{"x":165744.56000000052,"y":2544194.4400000013}},{"attributes":{"ID":526293,"DIS_CODE":0,"TOWNNAME":"安平區","LI":"怡平里","LIN":"6鄰","STREET":"慶平路","SECT":" ","MAREA":" ","LANE":" ","ALLEY":" ","HOUSE_NO":"２３４號十二樓之４","E_COORD97":165744.56,"N_COORD97":2544194.4399999999,"ADDRESS":"慶平路２３４號十二樓之４","OBJECTID":526266},"geometry":{"x":165744.56000000052,"y":2544194.4400000013}},{"attributes":{"ID":526294,"DIS_CODE":0,"TOWNNAME":"永康區","LI":"永康里","LIN":"21鄰","STREET":"中山南路","SECT":" ","MAREA":" ","LANE":" ","ALLEY":" ","HOUSE_NO":"１０４６號","E_COORD97":173706.48999999999,"N_COORD97":2547291.2400000002,"ADDRESS":"中山南路１０４６號","OBJECTID":526267},"geometry":{"x":173706.49000000115,"y":2547291.2400000039}},{"attributes":{"ID":526295,"DIS_CODE":0,"TOWNNAME":"永康區","LI":"永康里","LIN":"37鄰","STREET":"大同街","SECT":" ","MAREA":" ","LANE":" ","ALLEY":" ","HOUSE_NO":"７７６號","E_COORD97":174510.98000000001,"N_COORD97":2546768.1699999999,"ADDRESS":"大同街７７６號","OBJECTID":526268},"geometry":{"x":174510.98000000045,"y":2546768.1699999999}},{"attributes":{"ID":526296,"DIS_CODE":0,"TOWNNAME":"永康區","LI":"永康里","LIN":"37鄰","STREET":"西勢路","SECT":" ","MAREA":" ","LANE":" ","ALLEY":" ","HOUSE_NO":"７８２號","E_COORD97":174460.70000000001,"N_COORD97":2546734.0699999998,"ADDRESS":"西勢路７８２號","OBJECTID":526269},"geometry":{"x":174460.70000000205,"y":2546734.0700000022}},{"attributes":{"ID":526297,"DIS_CODE":0,"TOWNNAME":"永康區","LI":"永康里","LIN":"39鄰","STREET":"永大二路","SECT":" ","MAREA":" ","LANE":" ","ALLEY":" ","HOUSE_NO":"５號","E_COORD97":174331.69,"N_COORD97":2546562.4900000002,"ADDRESS":"永大二路５號","OBJECTID":526270},"geometry":{"x":174331.69000000041,"y":2546562.4900000002}},{"attributes":{"ID":526298,"DIS_CODE":0,"TOWNNAME":"永康區","LI":"永康里","LIN":"32鄰","STREET":"永大路","SECT":"二段","MAREA":" ","LANE":" ","ALLEY":" ","HOUSE_NO":"１４７８號","E_COORD97":174275.51999999999,"N_COORD97":2547166.1699999999,"ADDRESS":"永大路二段１４７８號","OBJECTID":526271},"geometry":{"x":174275.52000000048,"y":2547166.1700000037}},{"attributes":{"ID":526299,"DIS_CODE":0,"TOWNNAME":"南區","LI":"新生里","LIN":"6鄰","STREET":"大同路","SECT":"二段","MAREA":" ","LANE":" ","ALLEY":" ","HOUSE_NO":"１６６號七樓之５","E_COORD97":169332.09,"N_COORD97":2542025.9500000002,"ADDRESS":"大同路二段１６６號七樓之５","OBJECTID":526272},"geometry":{"x":169332.09000000078,"y":2542025.9499999993}},{"attributes":{"ID":526300,"DIS_CODE":0,"TOWNNAME":"南區","LI":"新生里","LIN":"6鄰","STREET":"大同路","SECT":"二段","MAREA":" ","LANE":" ","ALLEY":" ","HOUSE_NO":"１６６號八樓之１","E_COORD97":169332.09,"N_COORD97":2542025.9500000002,"ADDRESS":"大同路二段１６６號八樓之１","OBJECTID":526273},"geometry":{"x":169332.09000000078,"y":2542025.9499999993}},{"attributes":{"ID":526301,"DIS_CODE":0,"TOWNNAME":"南區","LI":"新生里","LIN":"6鄰","STREET":"大同路","SECT":"二段","MAREA":" ","LANE":" ","ALLEY":" ","HOUSE_NO":"１６６號八樓之２","E_COORD97":169332.09,"N_COORD97":2542025.9500000002,"ADDRESS":"大同路二段１６６號八樓之２","OBJECTID":526274},"geometry":{"x":169332.09000000078,"y":2542025.9499999993}},{"attributes":{"ID":526302,"DIS_CODE":0,"TOWNNAME":"南區","LI":"新生里","LIN":"6鄰","STREET":"大同路","SECT":"二段","MAREA":" ","LANE":" ","ALLEY":" ","HOUSE_NO":"１６６號八樓之３","E_COORD97":169332.09,"N_COORD97":2542025.9500000002,"ADDRESS":"大同路二段１６６號八樓之３","OBJECTID":526275},"geometry":{"x":169332.09000000078,"y":2542025.9499999993}},{"attributes":{"ID":526303,"DIS_CODE":0,"TOWNNAME":"南區","LI":"新生里","LIN":"6鄰","STREET":"大同路","SECT":"二段","MAREA":" ","LANE":" ","ALLEY":" ","HOUSE_NO":"１６６號八樓之５","E_COORD97":169332.09,"N_COORD97":2542025.9500000002,"ADDRESS":"大同路二段１６６號八樓之５","OBJECTID":526276},"geometry":{"x":169332.09000000078,"y":2542025.9499999993}},{"attributes":{"ID":526304,"DIS_CODE":0,"TOWNNAME":"南區","LI":"新生里","LIN":"6鄰","STREET":"大同路","SECT":"二段","MAREA":" ","LANE":" ","ALLEY":" ","HOUSE_NO":"１６６號九樓之１","E_COORD97":169332.09,"N_COORD97":2542025.9500000002,"ADDRESS":"大同路二段１６６號九樓之１","OBJECTID":526277},"geometry":{"x":169332.09000000078,"y":2542025.9499999993}},{"attributes":{"ID":526305,"DIS_CODE":0,"TOWNNAME":"南區","LI":"新生里","LIN":"6鄰","STREET":"大同路","SECT":"二段","MAREA":" ","LANE":" ","ALLEY":" ","HOUSE_NO":"１６６號九樓之３","E_COORD97":169332.09,"N_COORD97":2542025.9500000002,"ADDRESS":"大同路二段１６６號九樓之３","OBJECTID":526278},"geometry":{"x":169332.09000000078,"y":2542025.9499999993}},{"attributes":{"ID":526306,"DIS_CODE":0,"TOWNNAME":"南區","LI":"新生里","LIN":"6鄰","STREET":"大同路","SECT":"二段","MAREA":" ","LANE":" ","ALLEY":" ","HOUSE_NO":"１６６號九樓之５","E_COORD97":169332.09,"N_COORD97":2542025.9500000002,"ADDRESS":"大同路二段１６６號九樓之５","OBJECTID":526279},"geometry":{"x":169332.09000000078,"y":2542025.9499999993}},{"attributes":{"ID":526307,"DIS_CODE":0,"TOWNNAME":"北區","LI":"公園里","LIN":"6鄰","STREET":"富北街","SECT":" ","MAREA":" ","LANE":" ","ALLEY":" ","HOUSE_NO":"７號十一樓","E_COORD97":169138.73000000001,"N_COORD97":2544315.8599999999,"ADDRESS":"富北街７號十一樓","OBJECTID":526280},"geometry":{"x":169138.73000000045,"y":2544315.8599999994}},{"attributes":{"ID":526308,"DIS_CODE":0,"TOWNNAME":"南區","LI":"新生里","LIN":"6鄰","STREET":"大同路","SECT":"二段","MAREA":" ","LANE":" ","ALLEY":" ","HOUSE_NO":"１６６號十樓之１","E_COORD97":169332.09,"N_COORD97":2542025.9500000002,"ADDRESS":"大同路二段１６６號十樓之１","OBJECTID":526281},"geometry":{"x":169332.09000000078,"y":2542025.9499999993}},{"attributes":{"ID":526309,"DIS_CODE":0,"TOWNNAME":"南區","LI":"新生里","LIN":"6鄰","STREET":"大同路","SECT":"二段","MAREA":" ","LANE":" ","ALLEY":" ","HOUSE_NO":"１６６號十樓之２","E_COORD97":169332.09,"N_COORD97":2542025.9500000002,"ADDRESS":"大同路二段１６６號十樓之２","OBJECTID":526282},"geometry":{"x":169332.09000000078,"y":2542025.9499999993}},{"attributes":{"ID":526310,"DIS_CODE":0,"TOWNNAME":"南區","LI":"新生里","LIN":"6鄰","STREET":"大同路","SECT":"二段","MAREA":" ","LANE":" ","ALLEY":" ","HOUSE_NO":"１６６號十樓之３","E_COORD97":169332.09,"N_COORD97":2542025.9500000002,"ADDRESS":"大同路二段１６６號十樓之３","OBJECTID":526283},"geometry":{"x":169332.09000000078,"y":2542025.9499999993}},{"attributes":{"ID":526311,"DIS_CODE":0,"TOWNNAME":"南區","LI":"新生里","LIN":"6鄰","STREET":"大同路","SECT":"二段","MAREA":" ","LANE":" ","ALLEY":" ","HOUSE_NO":"１６６號十樓之５","E_COORD97":169332.09,"N_COORD97":2542025.9500000002,"ADDRESS":"大同路二段１６６號十樓之５","OBJECTID":526284},"geometry":{"x":169332.09000000078,"y":2542025.9499999993}},{"attributes":{"ID":526312,"DIS_CODE":0,"TOWNNAME":"南區","LI":"新生里","LIN":"6鄰","STREET":"大同路","SECT":"二段","MAREA":" ","LANE":" ","ALLEY":" ","HOUSE_NO":"１６６號十一樓之１","E_COORD97":169332.09,"N_COORD97":2542025.9500000002,"ADDRESS":"大同路二段１６６號十一樓之１","OBJECTID":526285},"geometry":{"x":169332.09000000078,"y":2542025.9499999993}},{"attributes":{"ID":526313,"DIS_CODE":0,"TOWNNAME":"南區","LI":"新生里","LIN":"6鄰","STREET":"大同路","SECT":"二段","MAREA":" ","LANE":" ","ALLEY":" ","HOUSE_NO":"１６６號十一樓之２","E_COORD97":169332.09,"N_COORD97":2542025.9500000002,"ADDRESS":"大同路二段１６６號十一樓之２","OBJECTID":526286},"geometry":{"x":169332.09000000078,"y":2542025.9499999993}},{"attributes":{"ID":526314,"DIS_CODE":0,"TOWNNAME":"南區","LI":"新生里","LIN":"6鄰","STREET":"大同路","SECT":"二段","MAREA":" ","LANE":" ","ALLEY":" ","HOUSE_NO":"１６６號十一樓之３","E_COORD97":169332.09,"N_COORD97":2542025.9500000002,"ADDRESS":"大同路二段１６６號十一樓之３","OBJECTID":526287},"geometry":{"x":169332.09000000078,"y":2542025.9499999993}},{"attributes":{"ID":526315,"DIS_CODE":0,"TOWNNAME":"南區","LI":"新生里","LIN":"6鄰","STREET":"大同路","SECT":"二段","MAREA":" ","LANE":" ","ALLEY":" ","HOUSE_NO":"１６６號十一樓之５","E_COORD97":169332.09,"N_COORD97":2542025.9500000002,"ADDRESS":"大同路二段１６６號十一樓之５","OBJECTID":526288},"geometry":{"x":169332.09000000078,"y":2542025.9499999993}},{"attributes":{"ID":526316,"DIS_CODE":0,"TOWNNAME":"南區","LI":"新生里","LIN":"6鄰","STREET":"大同路","SECT":"二段","MAREA":" ","LANE":" ","ALLEY":" ","HOUSE_NO":"１６６號二樓之１","E_COORD97":169332.09,"N_COORD97":2542025.9500000002,"ADDRESS":"大同路二段１６６號二樓之１","OBJECTID":526289},"geometry":{"x":169332.09000000078,"y":2542025.9499999993}},{"attributes":{"ID":526317,"DIS_CODE":0,"TOWNNAME":"南區","LI":"新生里","LIN":"6鄰","STREET":"大同路","SECT":"二段","MAREA":" ","LANE":" ","ALLEY":" ","HOUSE_NO":"１６６號二樓之２","E_COORD97":169332.09,"N_COORD97":2542025.9500000002,"ADDRESS":"大同路二段１６６號二樓之２","OBJECTID":526290},"geometry":{"x":169332.09000000078,"y":2542025.9499999993}},{"attributes":{"ID":526318,"DIS_CODE":0,"TOWNNAME":"南區","LI":"新生里","LIN":"6鄰","STREET":"大同路","SECT":"二段","MAREA":" ","LANE":" ","ALLEY":" ","HOUSE_NO":"１６６號三樓之１","E_COORD97":169332.09,"N_COORD97":2542025.9500000002,"ADDRESS":"大同路二段１６６號三樓之１","OBJECTID":526291},"geometry":{"x":169332.09000000078,"y":2542025.9499999993}},{"attributes":{"ID":526319,"DIS_CODE":0,"TOWNNAME":"南區","LI":"新生里","LIN":"6鄰","STREET":"大同路","SECT":"二段","MAREA":" ","LANE":" ","ALLEY":" ","HOUSE_NO":"１６６號三樓之２","E_COORD97":169332.09,"N_COORD97":2542025.9500000002,"ADDRESS":"大同路二段１６６號三樓之２","OBJECTID":526292},"geometry":{"x":169332.09000000078,"y":2542025.9499999993}},{"attributes":{"ID":526320,"DIS_CODE":0,"TOWNNAME":"南區","LI":"新生里","LIN":"6鄰","STREET":"大同路","SECT":"二段","MAREA":" ","LANE":" ","ALLEY":" ","HOUSE_NO":"１６６號三樓之３","E_COORD97":169332.09,"N_COORD97":2542025.9500000002,"ADDRESS":"大同路二段１６６號三樓之３","OBJECTID":526293},"geometry":{"x":169332.09000000078,"y":2542025.9499999993}},{"attributes":{"ID":526321,"DIS_CODE":0,"TOWNNAME":"南區","LI":"新生里","LIN":"6鄰","STREET":"大同路","SECT":"二段","MAREA":" ","LANE":" ","ALLEY":" ","HOUSE_NO":"１６６號三樓之５","E_COORD97":169332.09,"N_COORD97":2542025.9500000002,"ADDRESS":"大同路二段１６６號三樓之５","OBJECTID":526294},"geometry":{"x":169332.09000000078,"y":2542025.9499999993}},{"attributes":{"ID":526322,"DIS_CODE":0,"TOWNNAME":"南區","LI":"新生里","LIN":"6鄰","STREET":"大同路","SECT":"二段","MAREA":" ","LANE":" ","ALLEY":" ","HOUSE_NO":"１６６號四樓之１","E_COORD97":169332.09,"N_COORD97":2542025.9500000002,"ADDRESS":"大同路二段１６６號四樓之１","OBJECTID":526295},"geometry":{"x":169332.09000000078,"y":2542025.9499999993}},{"attributes":{"ID":526323,"DIS_CODE":0,"TOWNNAME":"南區","LI":"新生里","LIN":"6鄰","STREET":"大同路","SECT":"二段","MAREA":" ","LANE":" ","ALLEY":" ","HOUSE_NO":"１６６號四樓之２","E_COORD97":169332.09,"N_COORD97":2542025.9500000002,"ADDRESS":"大同路二段１６６號四樓之２","OBJECTID":526296},"geometry":{"x":169332.09000000078,"y":2542025.9499999993}},{"attributes":{"ID":526324,"DIS_CODE":0,"TOWNNAME":"南區","LI":"新生里","LIN":"6鄰","STREET":"大同路","SECT":"二段","MAREA":" ","LANE":" ","ALLEY":" ","HOUSE_NO":"１６６號四樓之３","E_COORD97":169332.09,"N_COORD97":2542025.9500000002,"ADDRESS":"大同路二段１６６號四樓之３","OBJECTID":526297},"geometry":{"x":169332.09000000078,"y":2542025.9499999993}},{"attributes":{"ID":526325,"DIS_CODE":0,"TOWNNAME":"南區","LI":"新生里","LIN":"6鄰","STREET":"大同路","SECT":"二段","MAREA":" ","LANE":" ","ALLEY":" ","HOUSE_NO":"１６６號四樓之５","E_COORD97":169332.09,"N_COORD97":2542025.9500000002,"ADDRESS":"大同路二段１６６號四樓之５","OBJECTID":526298},"geometry":{"x":169332.09000000078,"y":2542025.9499999993}},{"attributes":{"ID":526326,"DIS_CODE":0,"TOWNNAME":"南區","LI":"新生里","LIN":"6鄰","STREET":"大同路","SECT":"二段","MAREA":" ","LANE":" ","ALLEY":" ","HOUSE_NO":"１６６號五樓之１","E_COORD97":169332.09,"N_COORD97":2542025.9500000002,"ADDRESS":"大同路二段１６６號五樓之１","OBJECTID":526299},"geometry":{"x":169332.09000000078,"y":2542025.9499999993}},{"attributes":{"ID":526327,"DIS_CODE":0,"TOWNNAME":"南區","LI":"新生里","LIN":"6鄰","STREET":"大同路","SECT":"二段","MAREA":" ","LANE":" ","ALLEY":" ","HOUSE_NO":"１６６號五樓之２","E_COORD97":169332.09,"N_COORD97":2542025.9500000002,"ADDRESS":"大同路二段１６６號五樓之２","OBJECTID":526300},"geometry":{"x":169332.09000000078,"y":2542025.9499999993}},{"attributes":{"ID":526328,"DIS_CODE":0,"TOWNNAME":"南區","LI":"新生里","LIN":"6鄰","STREET":"大同路","SECT":"二段","MAREA":" ","LANE":" ","ALLEY":" ","HOUSE_NO":"１６６號五樓之３","E_COORD97":169332.09,"N_COORD97":2542025.9500000002,"ADDRESS":"大同路二段１６６號五樓之３","OBJECTID":526301},"geometry":{"x":169332.09000000078,"y":2542025.9499999993}},{"attributes":{"ID":526329,"DIS_CODE":0,"TOWNNAME":"南區","LI":"新生里","LIN":"6鄰","STREET":"大同路","SECT":"二段","MAREA":" ","LANE":" ","ALLEY":" ","HOUSE_NO":"１６６號五樓之５","E_COORD97":169332.09,"N_COORD97":2542025.9500000002,"ADDRESS":"大同路二段１６６號五樓之５","OBJECTID":526302},"geometry":{"x":169332.09000000078,"y":2542025.9499999993}},{"attributes":{"ID":526330,"DIS_CODE":0,"TOWNNAME":"南區","LI":"新生里","LIN":"6鄰","STREET":"大同路","SECT":"二段","MAREA":" ","LANE":" ","ALLEY":" ","HOUSE_NO":"１６６號六樓之１","E_COORD97":169332.09,"N_COORD97":2542025.9500000002,"ADDRESS":"大同路二段１６６號六樓之１","OBJECTID":526303},"geometry":{"x":169332.09000000078,"y":2542025.9499999993}},{"attributes":{"ID":526331,"DIS_CODE":0,"TOWNNAME":"南區","LI":"新生里","LIN":"6鄰","STREET":"大同路","SECT":"二段","MAREA":" ","LANE":" ","ALLEY":" ","HOUSE_NO":"１６６號六樓之２","E_COORD97":169332.09,"N_COORD97":2542025.9500000002,"ADDRESS":"大同路二段１６６號六樓之２","OBJECTID":526304},"geometry":{"x":169332.09000000078,"y":2542025.9499999993}},{"attributes":{"ID":526332,"DIS_CODE":0,"TOWNNAME":"南區","LI":"新生里","LIN":"6鄰","STREET":"大同路","SECT":"二段","MAREA":" ","LANE":" ","ALLEY":" ","HOUSE_NO":"１６６號六樓之５","E_COORD97":169332.09,"N_COORD97":2542025.9500000002,"ADDRESS":"大同路二段１６６號六樓之５","OBJECTID":526305},"geometry":{"x":169332.09000000078,"y":2542025.9499999993}},{"attributes":{"ID":526333,"DIS_CODE":0,"TOWNNAME":"永康區","LI":"成功里","LIN":"44鄰","STREET":"中華路","SECT":" ","MAREA":" ","LANE":" ","ALLEY":" ","HOUSE_NO":"１４０號之１","E_COORD97":171617.95999999999,"N_COORD97":2544831.79,"ADDRESS":"中華路１４０號之１","OBJECTID":526306},"geometry":{"x":171617.96000000089,"y":2544831.7900000028}},{"attributes":{"ID":526334,"DIS_CODE":0,"TOWNNAME":"永康區","LI":"永康里","LIN":"20鄰","STREET":"永中街","SECT":" ","MAREA":" ","LANE":" ","ALLEY":" ","HOUSE_NO":"１７８號","E_COORD97":174028.75,"N_COORD97":2547337.6899999999,"ADDRESS":"永中街１７８號","OBJECTID":526307},"geometry":{"x":174028.75,"y":2547337.6899999995}},{"attributes":{"ID":526335,"DIS_CODE":0,"TOWNNAME":"永康區","LI":"永康里","LIN":"6鄰","STREET":"中山南路","SECT":" ","MAREA":" ","LANE":" ","ALLEY":" ","HOUSE_NO":"１１１０號","E_COORD97":173846.98000000001,"N_COORD97":2547336.75,"ADDRESS":"中山南路１１１０號","OBJECTID":526308},"geometry":{"x":173846.98000000231,"y":2547336.75}},{"attributes":{"ID":526336,"DIS_CODE":0,"TOWNNAME":"南區","LI":"新生里","LIN":"6鄰","STREET":"大同路","SECT":"二段","MAREA":" ","LANE":" ","ALLEY":" ","HOUSE_NO":"１７４號七樓之１","E_COORD97":169345.73000000001,"N_COORD97":2541989.2799999998,"ADDRESS":"大同路二段１７４號七樓之１","OBJECTID":526309},"geometry":{"x":169345.73000000045,"y":2541989.2799999993}},{"attributes":{"ID":526337,"DIS_CODE":0,"TOWNNAME":"南區","LI":"新生里","LIN":"6鄰","STREET":"大同路","SECT":"二段","MAREA":" ","LANE":" ","ALLEY":" ","HOUSE_NO":"１７４號七樓之２","E_COORD97":169345.73000000001,"N_COORD97":2541989.2799999998,"ADDRESS":"大同路二段１７４號七樓之２","OBJECTID":526310},"geometry":{"x":169345.73000000045,"y":2541989.2799999993}},{"attributes":{"ID":526338,"DIS_CODE":0,"TOWNNAME":"南區","LI":"新生里","LIN":"6鄰","STREET":"大同路","SECT":"二段","MAREA":" ","LANE":" ","ALLEY":" ","HOUSE_NO":"１７４號八樓之１","E_COORD97":169345.73000000001,"N_COORD97":2541989.2799999998,"ADDRESS":"大同路二段１７４號八樓之１","OBJECTID":526311},"geometry":{"x":169345.73000000045,"y":2541989.2799999993}},{"attributes":{"ID":526339,"DIS_CODE":0,"TOWNNAME":"南區","LI":"新生里","LIN":"6鄰","STREET":"大同路","SECT":"二段","MAREA":" ","LANE":" ","ALLEY":" ","HOUSE_NO":"１７４號八樓之２","E_COORD97":169345.73000000001,"N_COORD97":2541989.2799999998,"ADDRESS":"大同路二段１７４號八樓之２","OBJECTID":526312},"geometry":{"x":169345.73000000045,"y":2541989.2799999993}},{"attributes":{"ID":526340,"DIS_CODE":0,"TOWNNAME":"南區","LI":"新生里","LIN":"6鄰","STREET":"大同路","SECT":"二段","MAREA":" ","LANE":" ","ALLEY":" ","HOUSE_NO":"１７４號九樓之１","E_COORD97":169345.73000000001,"N_COORD97":2541989.2799999998,"ADDRESS":"大同路二段１７４號九樓之１","OBJECTID":526313},"geometry":{"x":169345.73000000045,"y":2541989.2799999993}},{"attributes":{"ID":526341,"DIS_CODE":0,"TOWNNAME":"北區","LI":"三德里","LIN":"6鄰","STREET":"忠義路","SECT":"三段","MAREA":" ","LANE":" ","ALLEY":" ","HOUSE_NO":"２９號三樓之２","E_COORD97":168515.39000000001,"N_COORD97":2544429.02,"ADDRESS":"忠義路三段２９號三樓之２","OBJECTID":526314},"geometry":{"x":168515.39000000153,"y":2544429.0199999996}},{"attributes":{"ID":526342,"DIS_CODE":0,"TOWNNAME":"北區","LI":"三德里","LIN":"6鄰","STREET":"忠義路","SECT":"三段","MAREA":" ","LANE":" ","ALLEY":" ","HOUSE_NO":"２９號五樓之１","E_COORD97":168515.39000000001,"N_COORD97":2544429.02,"ADDRESS":"忠義路三段２９號五樓之１","OBJECTID":526315},"geometry":{"x":168515.39000000153,"y":2544429.0199999996}},{"attributes":{"ID":526343,"DIS_CODE":0,"TOWNNAME":"北區","LI":"三德里","LIN":"6鄰","STREET":"忠義路","SECT":"三段","MAREA":" ","LANE":" ","ALLEY":" ","HOUSE_NO":"２９號五樓之２","E_COORD97":168515.39000000001,"N_COORD97":2544429.02,"ADDRESS":"忠義路三段２９號五樓之２","OBJECTID":526316},"geometry":{"x":168515.39000000153,"y":2544429.0199999996}},{"attributes":{"ID":526344,"DIS_CODE":0,"TOWNNAME":"北區","LI":"三德里","LIN":"6鄰","STREET":"忠義路","SECT":"三段","MAREA":" ","LANE":" ","ALLEY":" ","HOUSE_NO":"２９號四樓之１","E_COORD97":168515.39000000001,"N_COORD97":2544429.02,"ADDRESS":"忠義路三段２９號四樓之１","OBJECTID":526317},"geometry":{"x":168515.39000000153,"y":2544429.0199999996}},{"attributes":{"ID":526345,"DIS_CODE":0,"TOWNNAME":"北區","LI":"三德里","LIN":"6鄰","STREET":"忠義路","SECT":"三段","MAREA":" ","LANE":" ","ALLEY":" ","HOUSE_NO":"２９號四樓之２","E_COORD97":168515.39000000001,"N_COORD97":2544429.02,"ADDRESS":"忠義路三段２９號四樓之２","OBJECTID":526318},"geometry":{"x":168515.39000000153,"y":2544429.0199999996}},{"attributes":{"ID":526346,"DIS_CODE":0,"TOWNNAME":"永康區","LI":"永康里","LIN":"33鄰","STREET":"永大路","SECT":"二段","MAREA":" ","LANE":" ","ALLEY":" ","HOUSE_NO":"１３５８號","E_COORD97":174298.20000000001,"N_COORD97":2546985.6000000001,"ADDRESS":"永大路二段１３５８號","OBJECTID":526319},"geometry":{"x":174298.20000000112,"y":2546985.5999999996}},{"attributes":{"ID":526347,"DIS_CODE":0,"TOWNNAME":"中西區","LI":"元安里","LIN":"6鄰","STREET":"永華路","SECT":"一段","MAREA":" ","LANE":" ","ALLEY":" ","HOUSE_NO":"５８號","E_COORD97":167529.45000000001,"N_COORD97":2543132.8700000001,"ADDRESS":"永華路一段５８號","OBJECTID":526320},"geometry":{"x":167529.45000000112,"y":2543132.870000001}},{"attributes":{"ID":526348,"DIS_CODE":0,"TOWNNAME":"中西區","LI":"元安里","LIN":"6鄰","STREET":"永華路","SECT":"一段","MAREA":" ","LANE":" ","ALLEY":" ","HOUSE_NO":"６０號","E_COORD97":167526.20000000001,"N_COORD97":2543132.7799999998,"ADDRESS":"永華路一段６０號","OBJECTID":526321},"geometry":{"x":167526.20000000112,"y":2543132.7799999993}},{"attributes":{"ID":526349,"DIS_CODE":0,"TOWNNAME":"中西區","LI":"元安里","LIN":"6鄰","STREET":"永華路","SECT":"一段","MAREA":" ","LANE":" ","ALLEY":" ","HOUSE_NO":"６２號","E_COORD97":167521.75,"N_COORD97":2543133.04,"ADDRESS":"永華路一段６２號","OBJECTID":526322},"geometry":{"x":167521.75000000186,"y":2543133.040000001}},{"attributes":{"ID":526350,"DIS_CODE":0,"TOWNNAME":"中西區","LI":"元安里","LIN":"6鄰","STREET":"永華路","SECT":"一段","MAREA":" ","LANE":" ","ALLEY":" ","HOUSE_NO":"６４號","E_COORD97":167517.64000000001,"N_COORD97":2543132.9500000002,"ADDRESS":"永華路一段６４號","OBJECTID":526323},"geometry":{"x":167517.6400000006,"y":2543132.9500000011}},{"attributes":{"ID":526351,"DIS_CODE":0,"TOWNNAME":"中西區","LI":"元安里","LIN":"6鄰","STREET":"永華路","SECT":"一段","MAREA":" ","LANE":" ","ALLEY":" ","HOUSE_NO":"６６號","E_COORD97":167513.70999999999,"N_COORD97":2543132.7000000002,"ADDRESS":"永華路一段６６號","OBJECTID":526324},"geometry":{"x":167513.71000000089,"y":2543132.6999999993}},{"attributes":{"ID":526352,"DIS_CODE":0,"TOWNNAME":"新營區","LI":"永生里","LIN":"6鄰","STREET":"富源街","SECT":" ","MAREA":" ","LANE":" ","ALLEY":" ","HOUSE_NO":"２２號五樓之４","E_COORD97":180017.10000000001,"N_COORD97":2577978,"ADDRESS":"富源街２２號五樓之４","OBJECTID":526325},"geometry":{"x":180017.09999999963,"y":2577978}},{"attributes":{"ID":526353,"DIS_CODE":0,"TOWNNAME":"新營區","LI":"永生里","LIN":"6鄰","STREET":"富源街","SECT":" ","MAREA":" ","LANE":" ","ALLEY":" ","HOUSE_NO":"２２號五樓之２","E_COORD97":180017.20999999999,"N_COORD97":2577978,"ADDRESS":"富源街２２號五樓之２","OBJECTID":526326},"geometry":{"x":180017.21000000183,"y":2577978}},{"attributes":{"ID":526354,"DIS_CODE":0,"TOWNNAME":"新營區","LI":"永生里","LIN":"6鄰","STREET":"富源街","SECT":" ","MAREA":" ","LANE":" ","ALLEY":" ","HOUSE_NO":"２２號四樓之５","E_COORD97":180017.23000000001,"N_COORD97":2577978,"ADDRESS":"富源街２２號四樓之５","OBJECTID":526327},"geometry":{"x":180017.23000000045,"y":2577978}},{"attributes":{"ID":526355,"DIS_CODE":0,"TOWNNAME":"安平區","LI":"建平里","LIN":"6鄰","STREET":"建平十七街","SECT":" ","MAREA":" ","LANE":" ","ALLEY":" ","HOUSE_NO":"１２１號四樓之３之１","E_COORD97":165922.70000000001,"N_COORD97":2544236.8900000001,"ADDRESS":"建平十七街１２１號四樓之３之１","OBJECTID":526328},"geometry":{"x":165922.70000000112,"y":2544236.8900000025}},{"attributes":{"ID":526356,"DIS_CODE":0,"TOWNNAME":"安平區","LI":"建平里","LIN":"6鄰","STREET":"建平十七街","SECT":" ","MAREA":" ","LANE":" ","ALLEY":" ","HOUSE_NO":"１２１號七樓之１３之","E_COORD97":165922.70000000001,"N_COORD97":2544236.8900000001,"ADDRESS":"建平十七街１２１號七樓之１３之１","OBJECTID":526329},"geometry":{"x":165922.70000000112,"y":2544236.8900000025}},{"attributes":{"ID":526357,"DIS_CODE":0,"TOWNNAME":"新營區","LI":"中營里","LIN":"6鄰","STREET":"新進路","SECT":" ","MAREA":" ","LANE":" ","ALLEY":" ","HOUSE_NO":"３７號四樓之１","E_COORD97":180641.51999999999,"N_COORD97":2578292.8999999999,"ADDRESS":"新進路３７號四樓之１","OBJECTID":526330},"geometry":{"x":180641.51999999955,"y":2578292.9000000022}},{"attributes":{"ID":526358,"DIS_CODE":0,"TOWNNAME":"新營區","LI":"永生里","LIN":"6鄰","STREET":"富源街","SECT":" ","MAREA":" ","LANE":" ","ALLEY":" ","HOUSE_NO":"２２號五樓之６","E_COORD97":180017.17999999999,"N_COORD97":2577978,"ADDRESS":"富源街２２號五樓之６","OBJECTID":526331},"geometry":{"x":180017.18000000156,"y":2577978}},{"attributes":{"ID":526359,"DIS_CODE":0,"TOWNNAME":"新營區","LI":"永生里","LIN":"6鄰","STREET":"富源街","SECT":" ","MAREA":" ","LANE":" ","ALLEY":" ","HOUSE_NO":"２２號四樓之２","E_COORD97":180017.20999999999,"N_COORD97":2577978,"ADDRESS":"富源街２２號四樓之２","OBJECTID":526332},"geometry":{"x":180017.21000000183,"y":2577978}},{"attributes":{"ID":526360,"DIS_CODE":0,"TOWNNAME":"中西區","LI":"中正里","LIN":"5鄰","STREET":"民生路","SECT":"二段","MAREA":" ","LANE":" ","ALLEY":" ","HOUSE_NO":"３號","E_COORD97":167875.14999999999,"N_COORD97":2543885.8100000001,"ADDRESS":"民生路二段３號","OBJECTID":526333},"geometry":{"x":167875.15000000037,"y":2543885.8100000005}},{"attributes":{"ID":526361,"DIS_CODE":0,"TOWNNAME":"中西區","LI":"中正里","LIN":"5鄰","STREET":"民生路","SECT":"二段","MAREA":" ","LANE":" ","ALLEY":" ","HOUSE_NO":"５號","E_COORD97":167871.20000000001,"N_COORD97":2543887.4199999999,"ADDRESS":"民生路二段５號","OBJECTID":526334},"geometry":{"x":167871.20000000019,"y":2543887.4199999999}},{"attributes":{"ID":526362,"DIS_CODE":0,"TOWNNAME":"北區","LI":"公園里","LIN":"6鄰","STREET":"富北街","SECT":" ","MAREA":" ","LANE":" ","ALLEY":" ","HOUSE_NO":"７號三樓","E_COORD97":169138.73000000001,"N_COORD97":2544315.8599999999,"ADDRESS":"富北街７號三樓","OBJECTID":526335},"geometry":{"x":169138.73000000045,"y":2544315.8599999994}},{"attributes":{"ID":526363,"DIS_CODE":0,"TOWNNAME":"中西區","LI":"元安里","LIN":"3鄰","STREET":"國華街","SECT":"二段","MAREA":" ","LANE":" ","ALLEY":" ","HOUSE_NO":"４６號","E_COORD97":167628.75,"N_COORD97":2543223.52,"ADDRESS":"國華街二段４６號","OBJECTID":526336},"geometry":{"x":167628.75000000093,"y":2543223.5200000033}},{"attributes":{"ID":526364,"DIS_CODE":0,"TOWNNAME":"中西區","LI":"元安里","LIN":"2鄰","STREET":"永華路","SECT":"一段","MAREA":" ","LANE":" ","ALLEY":" ","HOUSE_NO":"３６之１號","E_COORD97":167592.28,"N_COORD97":2543146.96,"ADDRESS":"永華路一段３６之１號","OBJECTID":526337},"geometry":{"x":167592.28000000026,"y":2543146.9600000009}},{"attributes":{"ID":526365,"DIS_CODE":0,"TOWNNAME":"北區","LI":"公園里","LIN":"6鄰","STREET":"富北街","SECT":" ","MAREA":" ","LANE":" ","ALLEY":" ","HOUSE_NO":"９號六樓","E_COORD97":169144.79999999999,"N_COORD97":2544352.6099999999,"ADDRESS":"富北街９號六樓","OBJECTID":526338},"geometry":{"x":169144.79999999981,"y":2544352.6100000013}},{"attributes":{"ID":526366,"DIS_CODE":0,"TOWNNAME":"北區","LI":"公園里","LIN":"6鄰","STREET":"富北街","SECT":" ","MAREA":" ","LANE":" ","ALLEY":" ","HOUSE_NO":"７號七樓","E_COORD97":169138.73000000001,"N_COORD97":2544315.8599999999,"ADDRESS":"富北街７號七樓","OBJECTID":526339},"geometry":{"x":169138.73000000045,"y":2544315.8599999994}},{"attributes":{"ID":526367,"DIS_CODE":0,"TOWNNAME":"北區","LI":"公園里","LIN":"6鄰","STREET":"富北街","SECT":" ","MAREA":" ","LANE":" ","ALLEY":" ","HOUSE_NO":"７號九樓","E_COORD97":169138.73000000001,"N_COORD97":2544315.8599999999,"ADDRESS":"富北街７號九樓","OBJECTID":526340},"geometry":{"x":169138.73000000045,"y":2544315.8599999994}},{"attributes":{"ID":526368,"DIS_CODE":0,"TOWNNAME":"北區","LI":"公園里","LIN":"6鄰","STREET":"富北街","SECT":" ","MAREA":" ","LANE":" ","ALLEY":" ","HOUSE_NO":"７號二樓","E_COORD97":169138.73000000001,"N_COORD97":2544315.8599999999,"ADDRESS":"富北街７號二樓","OBJECTID":526341},"geometry":{"x":169138.73000000045,"y":2544315.8599999994}},{"attributes":{"ID":526369,"DIS_CODE":0,"TOWNNAME":"北區","LI":"公園里","LIN":"6鄰","STREET":"富北街","SECT":" ","MAREA":" ","LANE":" ","ALLEY":" ","HOUSE_NO":"７號十七樓","E_COORD97":169138.73000000001,"N_COORD97":2544315.8599999999,"ADDRESS":"富北街７號十七樓","OBJECTID":526342},"geometry":{"x":169138.73000000045,"y":2544315.8599999994}},{"attributes":{"ID":526370,"DIS_CODE":0,"TOWNNAME":"北區","LI":"公園里","LIN":"6鄰","STREET":"富北街","SECT":" ","MAREA":" ","LANE":" ","ALLEY":" ","HOUSE_NO":"７號十二樓","E_COORD97":169138.73000000001,"N_COORD97":2544315.8599999999,"ADDRESS":"富北街７號十二樓","OBJECTID":526343},"geometry":{"x":169138.73000000045,"y":2544315.8599999994}},{"attributes":{"ID":526371,"DIS_CODE":0,"TOWNNAME":"北區","LI":"公園里","LIN":"6鄰","STREET":"富北街","SECT":" ","MAREA":" ","LANE":" ","ALLEY":" ","HOUSE_NO":"７號六樓","E_COORD97":169138.73000000001,"N_COORD97":2544315.8599999999,"ADDRESS":"富北街７號六樓","OBJECTID":526344},"geometry":{"x":169138.73000000045,"y":2544315.8599999994}},{"attributes":{"ID":526372,"DIS_CODE":0,"TOWNNAME":"北區","LI":"公園里","LIN":"6鄰","STREET":"富北街","SECT":" ","MAREA":" ","LANE":" ","ALLEY":" ","HOUSE_NO":"７號四樓","E_COORD97":169138.73000000001,"N_COORD97":2544315.8599999999,"ADDRESS":"富北街７號四樓","OBJECTID":526345},"geometry":{"x":169138.73000000045,"y":2544315.8599999994}},{"attributes":{"ID":526373,"DIS_CODE":0,"TOWNNAME":"北區","LI":"公園里","LIN":"6鄰","STREET":"富北街","SECT":" ","MAREA":" ","LANE":" ","ALLEY":" ","HOUSE_NO":"９號七樓","E_COORD97":169144.79999999999,"N_COORD97":2544352.6099999999,"ADDRESS":"富北街９號七樓","OBJECTID":526346},"geometry":{"x":169144.79999999981,"y":2544352.6100000013}},{"attributes":{"ID":526374,"DIS_CODE":0,"TOWNNAME":"北區","LI":"公園里","LIN":"6鄰","STREET":"富北街","SECT":" ","MAREA":" ","LANE":" ","ALLEY":" ","HOUSE_NO":"９號九樓","E_COORD97":169144.79999999999,"N_COORD97":2544352.6099999999,"ADDRESS":"富北街９號九樓","OBJECTID":526347},"geometry":{"x":169144.79999999981,"y":2544352.6100000013}},{"attributes":{"ID":526375,"DIS_CODE":0,"TOWNNAME":"北區","LI":"公園里","LIN":"6鄰","STREET":"富北街","SECT":" ","MAREA":" ","LANE":" ","ALLEY":" ","HOUSE_NO":"９號二樓","E_COORD97":169144.79999999999,"N_COORD97":2544352.6099999999,"ADDRESS":"富北街９號二樓","OBJECTID":526348},"geometry":{"x":169144.79999999981,"y":2544352.6100000013}},{"attributes":{"ID":526376,"DIS_CODE":0,"TOWNNAME":"北區","LI":"公園里","LIN":"6鄰","STREET":"富北街","SECT":" ","MAREA":" ","LANE":" ","ALLEY":" ","HOUSE_NO":"９號八樓","E_COORD97":169144.79999999999,"N_COORD97":2544352.6099999999,"ADDRESS":"富北街９號八樓","OBJECTID":526349},"geometry":{"x":169144.79999999981,"y":2544352.6100000013}},{"attributes":{"ID":526377,"DIS_CODE":0,"TOWNNAME":"北區","LI":"公園里","LIN":"6鄰","STREET":"富北街","SECT":" ","MAREA":" ","LANE":" ","ALLEY":" ","HOUSE_NO":"９號十一樓","E_COORD97":169144.79999999999,"N_COORD97":2544352.6099999999,"ADDRESS":"富北街９號十一樓","OBJECTID":526350},"geometry":{"x":169144.79999999981,"y":2544352.6100000013}},{"attributes":{"ID":526378,"DIS_CODE":0,"TOWNNAME":"北區","LI":"公園里","LIN":"6鄰","STREET":"富北街","SECT":" ","MAREA":" ","LANE":" ","ALLEY":" ","HOUSE_NO":"９號十二樓","E_COORD97":169144.79999999999,"N_COORD97":2544352.6099999999,"ADDRESS":"富北街９號十二樓","OBJECTID":526351},"geometry":{"x":169144.79999999981,"y":2544352.6100000013}},{"attributes":{"ID":526379,"DIS_CODE":0,"TOWNNAME":"北區","LI":"公園里","LIN":"6鄰","STREET":"富北街","SECT":" ","MAREA":" ","LANE":" ","ALLEY":" ","HOUSE_NO":"９號十三樓","E_COORD97":169143.94407,"N_COORD97":2544353.3941899999,"ADDRESS":"富北街９號十三樓","OBJECTID":526352},"geometry":{"x":169143.9440700002,"y":2544353.3941879999}},{"attributes":{"ID":526380,"DIS_CODE":0,"TOWNNAME":"北區","LI":"公園里","LIN":"6鄰","STREET":"富北街","SECT":" ","MAREA":" ","LANE":" ","ALLEY":" ","HOUSE_NO":"９號十樓","E_COORD97":169144.79999999999,"N_COORD97":2544352.6099999999,"ADDRESS":"富北街９號十樓","OBJECTID":526353},"geometry":{"x":169144.79999999981,"y":2544352.6100000013}},{"attributes":{"ID":526381,"DIS_CODE":0,"TOWNNAME":"北區","LI":"公園里","LIN":"6鄰","STREET":"富北街","SECT":" ","MAREA":" ","LANE":" ","ALLEY":" ","HOUSE_NO":"９號三樓","E_COORD97":169144.79999999999,"N_COORD97":2544352.6099999999,"ADDRESS":"富北街９號三樓","OBJECTID":526354},"geometry":{"x":169144.79999999981,"y":2544352.6100000013}},{"attributes":{"ID":526382,"DIS_CODE":0,"TOWNNAME":"北區","LI":"公園里","LIN":"6鄰","STREET":"成功路","SECT":" ","MAREA":" ","LANE":" ","ALLEY":" ","HOUSE_NO":"２號七樓之１０","E_COORD97":169158.57999999999,"N_COORD97":2544255.9300000002,"ADDRESS":"成功路２號七樓之１０","OBJECTID":526355},"geometry":{"x":169158.58000000007,"y":2544255.9300000016}},{"attributes":{"ID":526383,"DIS_CODE":0,"TOWNNAME":"北區","LI":"公園里","LIN":"6鄰","STREET":"成功路","SECT":" ","MAREA":" ","LANE":" ","ALLEY":" ","HOUSE_NO":"２號七樓之１１","E_COORD97":169158.57999999999,"N_COORD97":2544255.9300000002,"ADDRESS":"成功路２號七樓之１１","OBJECTID":526356},"geometry":{"x":169158.58000000007,"y":2544255.9300000016}},{"attributes":{"ID":526384,"DIS_CODE":0,"TOWNNAME":"北區","LI":"公園里","LIN":"6鄰","STREET":"成功路","SECT":" ","MAREA":" ","LANE":" ","ALLEY":" ","HOUSE_NO":"２號七樓之１２","E_COORD97":169158.57999999999,"N_COORD97":2544255.9300000002,"ADDRESS":"成功路２號七樓之１２","OBJECTID":526357},"geometry":{"x":169158.58000000007,"y":2544255.9300000016}},{"attributes":{"ID":526385,"DIS_CODE":0,"TOWNNAME":"北區","LI":"公園里","LIN":"6鄰","STREET":"成功路","SECT":" ","MAREA":" ","LANE":" ","ALLEY":" ","HOUSE_NO":"２號七樓之１３","E_COORD97":169158.57999999999,"N_COORD97":2544255.9300000002,"ADDRESS":"成功路２號七樓之１３","OBJECTID":526358},"geometry":{"x":169158.58000000007,"y":2544255.9300000016}},{"attributes":{"ID":526386,"DIS_CODE":0,"TOWNNAME":"北區","LI":"公園里","LIN":"6鄰","STREET":"成功路","SECT":" ","MAREA":" ","LANE":" ","ALLEY":" ","HOUSE_NO":"２號七樓之１４","E_COORD97":169158.57999999999,"N_COORD97":2544255.9300000002,"ADDRESS":"成功路２號七樓之１４","OBJECTID":526359},"geometry":{"x":169158.58000000007,"y":2544255.9300000016}},{"attributes":{"ID":526387,"DIS_CODE":0,"TOWNNAME":"北區","LI":"公園里","LIN":"6鄰","STREET":"成功路","SECT":" ","MAREA":" ","LANE":" ","ALLEY":" ","HOUSE_NO":"２號七樓之１５","E_COORD97":169158.57999999999,"N_COORD97":2544255.9300000002,"ADDRESS":"成功路２號七樓之１５","OBJECTID":526360},"geometry":{"x":169158.58000000007,"y":2544255.9300000016}},{"attributes":{"ID":526388,"DIS_CODE":0,"TOWNNAME":"北區","LI":"公園里","LIN":"6鄰","STREET":"成功路","SECT":" ","MAREA":" ","LANE":" ","ALLEY":" ","HOUSE_NO":"２號七樓之１６","E_COORD97":169158.57999999999,"N_COORD97":2544255.9300000002,"ADDRESS":"成功路２號七樓之１６","OBJECTID":526361},"geometry":{"x":169158.58000000007,"y":2544255.9300000016}},{"attributes":{"ID":526389,"DIS_CODE":0,"TOWNNAME":"北區","LI":"公園里","LIN":"6鄰","STREET":"成功路","SECT":" ","MAREA":" ","LANE":" ","ALLEY":" ","HOUSE_NO":"２號七樓之１７","E_COORD97":169158.57999999999,"N_COORD97":2544255.9300000002,"ADDRESS":"成功路２號七樓之１７","OBJECTID":526362},"geometry":{"x":169158.58000000007,"y":2544255.9300000016}},{"attributes":{"ID":526390,"DIS_CODE":0,"TOWNNAME":"北區","LI":"公園里","LIN":"6鄰","STREET":"成功路","SECT":" ","MAREA":" ","LANE":" ","ALLEY":" ","HOUSE_NO":"２號七樓之１８","E_COORD97":169158.57999999999,"N_COORD97":2544255.9300000002,"ADDRESS":"成功路２號七樓之１８","OBJECTID":526363},"geometry":{"x":169158.58000000007,"y":2544255.9300000016}},{"attributes":{"ID":526391,"DIS_CODE":0,"TOWNNAME":"北區","LI":"公園里","LIN":"6鄰","STREET":"成功路","SECT":" ","MAREA":" ","LANE":" ","ALLEY":" ","HOUSE_NO":"２號七樓之１９","E_COORD97":169158.57999999999,"N_COORD97":2544255.9300000002,"ADDRESS":"成功路２號七樓之１９","OBJECTID":526364},"geometry":{"x":169158.58000000007,"y":2544255.9300000016}},{"attributes":{"ID":526392,"DIS_CODE":0,"TOWNNAME":"北區","LI":"公園里","LIN":"6鄰","STREET":"成功路","SECT":" ","MAREA":" ","LANE":" ","ALLEY":" ","HOUSE_NO":"２號七樓之２","E_COORD97":169158.57999999999,"N_COORD97":2544255.9300000002,"ADDRESS":"成功路２號七樓之２","OBJECTID":526365},"geometry":{"x":169158.58000000007,"y":2544255.9300000016}},{"attributes":{"ID":526393,"DIS_CODE":0,"TOWNNAME":"北區","LI":"公園里","LIN":"6鄰","STREET":"成功路","SECT":" ","MAREA":" ","LANE":" ","ALLEY":" ","HOUSE_NO":"２號七樓之２０","E_COORD97":169158.57999999999,"N_COORD97":2544255.9300000002,"ADDRESS":"成功路２號七樓之２０","OBJECTID":526366},"geometry":{"x":169158.58000000007,"y":2544255.9300000016}},{"attributes":{"ID":526394,"DIS_CODE":0,"TOWNNAME":"北區","LI":"公園里","LIN":"6鄰","STREET":"成功路","SECT":" ","MAREA":" ","LANE":" ","ALLEY":" ","HOUSE_NO":"２號七樓之２１","E_COORD97":169158.57999999999,"N_COORD97":2544255.9300000002,"ADDRESS":"成功路２號七樓之２１","OBJECTID":526367},"geometry":{"x":169158.58000000007,"y":2544255.9300000016}},{"attributes":{"ID":526395,"DIS_CODE":0,"TOWNNAME":"北區","LI":"公園里","LIN":"6鄰","STREET":"成功路","SECT":" ","MAREA":" ","LANE":" ","ALLEY":" ","HOUSE_NO":"２號七樓之２２","E_COORD97":169158.57999999999,"N_COORD97":2544255.9300000002,"ADDRESS":"成功路２號七樓之２２","OBJECTID":526368},"geometry":{"x":169158.58000000007,"y":2544255.9300000016}},{"attributes":{"ID":526396,"DIS_CODE":0,"TOWNNAME":"北區","LI":"公園里","LIN":"6鄰","STREET":"成功路","SECT":" ","MAREA":" ","LANE":" ","ALLEY":" ","HOUSE_NO":"２號七樓之２３","E_COORD97":169158.57999999999,"N_COORD97":2544255.9300000002,"ADDRESS":"成功路２號七樓之２３","OBJECTID":526369},"geometry":{"x":169158.58000000007,"y":2544255.9300000016}},{"attributes":{"ID":526397,"DIS_CODE":0,"TOWNNAME":"北區","LI":"公園里","LIN":"6鄰","STREET":"成功路","SECT":" ","MAREA":" ","LANE":" ","ALLEY":" ","HOUSE_NO":"２號七樓之２４","E_COORD97":169158.57999999999,"N_COORD97":2544255.9300000002,"ADDRESS":"成功路２號七樓之２４","OBJECTID":526370},"geometry":{"x":169158.58000000007,"y":2544255.9300000016}},{"attributes":{"ID":526398,"DIS_CODE":0,"TOWNNAME":"北區","LI":"公園里","LIN":"6鄰","STREET":"成功路","SECT":" ","MAREA":" ","LANE":" ","ALLEY":" ","HOUSE_NO":"２號七樓之２５","E_COORD97":169158.57999999999,"N_COORD97":2544255.9300000002,"ADDRESS":"成功路２號七樓之２５","OBJECTID":526371},"geometry":{"x":169158.58000000007,"y":2544255.9300000016}},{"attributes":{"ID":526399,"DIS_CODE":0,"TOWNNAME":"北區","LI":"公園里","LIN":"6鄰","STREET":"成功路","SECT":" ","MAREA":" ","LANE":" ","ALLEY":" ","HOUSE_NO":"２號七樓之２６","E_COORD97":169158.57999999999,"N_COORD97":2544255.9300000002,"ADDRESS":"成功路２號七樓之２６","OBJECTID":526372},"geometry":{"x":169158.58000000007,"y":2544255.9300000016}},{"attributes":{"ID":526400,"DIS_CODE":0,"TOWNNAME":"中西區","LI":"元安里","LIN":"8鄰","STREET":"國華街","SECT":"二段","MAREA":" ","LANE":" ","ALLEY":" ","HOUSE_NO":"５３號","E_COORD97":167602.63,"N_COORD97":2543296.3799999999,"ADDRESS":"國華街二段５３號","OBJECTID":526373},"geometry":{"x":167602.63000000082,"y":2543296.3800000008}},{"attributes":{"ID":526401,"DIS_CODE":0,"TOWNNAME":"中西區","LI":"元安里","LIN":"8鄰","STREET":"國華街","SECT":"二段","MAREA":" ","LANE":" ","ALLEY":" ","HOUSE_NO":"５５號","E_COORD97":167603.47,"N_COORD97":2543299.73,"ADDRESS":"國華街二段５５號","OBJECTID":526374},"geometry":{"x":167603.47000000067,"y":2543299.7300000004}},{"attributes":{"ID":526402,"DIS_CODE":0,"TOWNNAME":"中西區","LI":"元安里","LIN":"8鄰","STREET":"國華街","SECT":"二段","MAREA":" ","LANE":" ","ALLEY":" ","HOUSE_NO":"５７號","E_COORD97":167604.06,"N_COORD97":2543303.4199999999,"ADDRESS":"國華街二段５７號","OBJECTID":526375},"geometry":{"x":167604.06000000052,"y":2543303.4200000018}},{"attributes":{"ID":526403,"DIS_CODE":0,"TOWNNAME":"中西區","LI":"元安里","LIN":"8鄰","STREET":"國華街","SECT":"二段","MAREA":" ","LANE":" ","ALLEY":" ","HOUSE_NO":"５９號","E_COORD97":167612.12,"N_COORD97":2543310.71,"ADDRESS":"國華街二段５９號","OBJECTID":526376},"geometry":{"x":167612.12000000011,"y":2543310.7100000009}},{"attributes":{"ID":526404,"DIS_CODE":0,"TOWNNAME":"中西區","LI":"元安里","LIN":"4鄰","STREET":"西門路","SECT":"一段","MAREA":" ","LANE":" ","ALLEY":" ","HOUSE_NO":"７０９號","E_COORD97":167706.54999999999,"N_COORD97":2543261.8199999998,"ADDRESS":"西門路一段７０９號","OBJECTID":526377},"geometry":{"x":167706.55000000075,"y":2543261.8200000003}},{"attributes":{"ID":526405,"DIS_CODE":0,"TOWNNAME":"中西區","LI":"元安里","LIN":"8鄰","STREET":"國華街","SECT":"二段","MAREA":" ","LANE":" ","ALLEY":" ","HOUSE_NO":"６６號","E_COORD97":167622.12,"N_COORD97":2543297.6099999999,"ADDRESS":"國華街二段６６號","OBJECTID":526378},"geometry":{"x":167622.12000000011,"y":2543297.6100000013}},{"attributes":{"ID":526406,"DIS_CODE":0,"TOWNNAME":"北區","LI":"公園里","LIN":"6鄰","STREET":"成功路","SECT":" ","MAREA":" ","LANE":" ","ALLEY":" ","HOUSE_NO":"２號七樓之２７","E_COORD97":169158.57999999999,"N_COORD97":2544255.9300000002,"ADDRESS":"成功路２號七樓之２７","OBJECTID":526379},"geometry":{"x":169158.58000000007,"y":2544255.9300000016}},{"attributes":{"ID":526407,"DIS_CODE":0,"TOWNNAME":"北區","LI":"公園里","LIN":"6鄰","STREET":"成功路","SECT":" ","MAREA":" ","LANE":" ","ALLEY":" ","HOUSE_NO":"２號七樓之２８","E_COORD97":169158.57999999999,"N_COORD97":2544255.9300000002,"ADDRESS":"成功路２號七樓之２８","OBJECTID":526380},"geometry":{"x":169158.58000000007,"y":2544255.9300000016}},{"attributes":{"ID":526408,"DIS_CODE":0,"TOWNNAME":"北區","LI":"公園里","LIN":"6鄰","STREET":"成功路","SECT":" ","MAREA":" ","LANE":" ","ALLEY":" ","HOUSE_NO":"２號七樓之２９","E_COORD97":169158.57999999999,"N_COORD97":2544255.9300000002,"ADDRESS":"成功路２號七樓之２９","OBJECTID":526381},"geometry":{"x":169158.58000000007,"y":2544255.9300000016}},{"attributes":{"ID":526409,"DIS_CODE":0,"TOWNNAME":"北區","LI":"公園里","LIN":"6鄰","STREET":"成功路","SECT":" ","MAREA":" ","LANE":" ","ALLEY":" ","HOUSE_NO":"２號七樓之３","E_COORD97":169158.57999999999,"N_COORD97":2544255.9300000002,"ADDRESS":"成功路２號七樓之３","OBJECTID":526382},"geometry":{"x":169158.58000000007,"y":2544255.9300000016}},{"attributes":{"ID":526410,"DIS_CODE":0,"TOWNNAME":"北區","LI":"公園里","LIN":"6鄰","STREET":"成功路","SECT":" ","MAREA":" ","LANE":" ","ALLEY":" ","HOUSE_NO":"２號七樓之３０","E_COORD97":169158.57999999999,"N_COORD97":2544255.9300000002,"ADDRESS":"成功路２號七樓之３０","OBJECTID":526383},"geometry":{"x":169158.58000000007,"y":2544255.9300000016}},{"attributes":{"ID":526411,"DIS_CODE":0,"TOWNNAME":"北區","LI":"公園里","LIN":"6鄰","STREET":"成功路","SECT":" ","MAREA":" ","LANE":" ","ALLEY":" ","HOUSE_NO":"２號七樓之３１","E_COORD97":169158.57999999999,"N_COORD97":2544255.9300000002,"ADDRESS":"成功路２號七樓之３１","OBJECTID":526384},"geometry":{"x":169158.58000000007,"y":2544255.9300000016}},{"attributes":{"ID":526412,"DIS_CODE":0,"TOWNNAME":"北區","LI":"公園里","LIN":"6鄰","STREET":"成功路","SECT":" ","MAREA":" ","LANE":" ","ALLEY":" ","HOUSE_NO":"２號七樓之３２","E_COORD97":169158.57999999999,"N_COORD97":2544255.9300000002,"ADDRESS":"成功路２號七樓之３２","OBJECTID":526385},"geometry":{"x":169158.58000000007,"y":2544255.9300000016}},{"attributes":{"ID":526413,"DIS_CODE":0,"TOWNNAME":"北區","LI":"公園里","LIN":"6鄰","STREET":"成功路","SECT":" ","MAREA":" ","LANE":" ","ALLEY":" ","HOUSE_NO":"２號七樓之３３","E_COORD97":169158.57999999999,"N_COORD97":2544255.9300000002,"ADDRESS":"成功路２號七樓之３３","OBJECTID":526386},"geometry":{"x":169158.58000000007,"y":2544255.9300000016}},{"attributes":{"ID":526414,"DIS_CODE":0,"TOWNNAME":"北區","LI":"公園里","LIN":"6鄰","STREET":"成功路","SECT":" ","MAREA":" ","LANE":" ","ALLEY":" ","HOUSE_NO":"２號七樓之３４","E_COORD97":169158.57999999999,"N_COORD97":2544255.9300000002,"ADDRESS":"成功路２號七樓之３４","OBJECTID":526387},"geometry":{"x":169158.58000000007,"y":2544255.9300000016}},{"attributes":{"ID":526415,"DIS_CODE":0,"TOWNNAME":"北區","LI":"公園里","LIN":"6鄰","STREET":"成功路","SECT":" ","MAREA":" ","LANE":" ","ALLEY":" ","HOUSE_NO":"２號七樓之３５","E_COORD97":169158.57999999999,"N_COORD97":2544255.9300000002,"ADDRESS":"成功路２號七樓之３５","OBJECTID":526388},"geometry":{"x":169158.58000000007,"y":2544255.9300000016}},{"attributes":{"ID":526416,"DIS_CODE":0,"TOWNNAME":"北區","LI":"公園里","LIN":"6鄰","STREET":"成功路","SECT":" ","MAREA":" ","LANE":" ","ALLEY":" ","HOUSE_NO":"２號七樓之４","E_COORD97":169158.57999999999,"N_COORD97":2544255.9300000002,"ADDRESS":"成功路２號七樓之４","OBJECTID":526389},"geometry":{"x":169158.58000000007,"y":2544255.9300000016}},{"attributes":{"ID":526417,"DIS_CODE":0,"TOWNNAME":"北區","LI":"公園里","LIN":"6鄰","STREET":"成功路","SECT":" ","MAREA":" ","LANE":" ","ALLEY":" ","HOUSE_NO":"２號九樓之１０","E_COORD97":169158.57999999999,"N_COORD97":2544255.9300000002,"ADDRESS":"成功路２號九樓之１０","OBJECTID":526390},"geometry":{"x":169158.58000000007,"y":2544255.9300000016}},{"attributes":{"ID":526418,"DIS_CODE":0,"TOWNNAME":"北區","LI":"公園里","LIN":"6鄰","STREET":"成功路","SECT":" ","MAREA":" ","LANE":" ","ALLEY":" ","HOUSE_NO":"２號九樓之１１","E_COORD97":169158.57999999999,"N_COORD97":2544255.9300000002,"ADDRESS":"成功路２號九樓之１１","OBJECTID":526391},"geometry":{"x":169158.58000000007,"y":2544255.9300000016}},{"attributes":{"ID":526419,"DIS_CODE":0,"TOWNNAME":"北區","LI":"公園里","LIN":"6鄰","STREET":"成功路","SECT":" ","MAREA":" ","LANE":" ","ALLEY":" ","HOUSE_NO":"２號九樓之１２","E_COORD97":169158.57999999999,"N_COORD97":2544255.9300000002,"ADDRESS":"成功路２號九樓之１２","OBJECTID":526392},"geometry":{"x":169158.58000000007,"y":2544255.9300000016}},{"attributes":{"ID":526420,"DIS_CODE":0,"TOWNNAME":"北區","LI":"公園里","LIN":"6鄰","STREET":"成功路","SECT":" ","MAREA":" ","LANE":" ","ALLEY":" ","HOUSE_NO":"２號九樓之１３","E_COORD97":169158.57999999999,"N_COORD97":2544255.9300000002,"ADDRESS":"成功路２號九樓之１３","OBJECTID":526393},"geometry":{"x":169158.58000000007,"y":2544255.9300000016}},{"attributes":{"ID":526421,"DIS_CODE":0,"TOWNNAME":"北區","LI":"公園里","LIN":"6鄰","STREET":"成功路","SECT":" ","MAREA":" ","LANE":" ","ALLEY":" ","HOUSE_NO":"２號九樓之１４","E_COORD97":169158.57999999999,"N_COORD97":2544255.9300000002,"ADDRESS":"成功路２號九樓之１４","OBJECTID":526394},"geometry":{"x":169158.58000000007,"y":2544255.9300000016}},{"attributes":{"ID":526422,"DIS_CODE":0,"TOWNNAME":"北區","LI":"公園里","LIN":"6鄰","STREET":"成功路","SECT":" ","MAREA":" ","LANE":" ","ALLEY":" ","HOUSE_NO":"２號九樓之１５","E_COORD97":169158.57999999999,"N_COORD97":2544255.9300000002,"ADDRESS":"成功路２號九樓之１５","OBJECTID":526395},"geometry":{"x":169158.58000000007,"y":2544255.9300000016}},{"attributes":{"ID":526423,"DIS_CODE":0,"TOWNNAME":"北區","LI":"公園里","LIN":"6鄰","STREET":"成功路","SECT":" ","MAREA":" ","LANE":" ","ALLEY":" ","HOUSE_NO":"２號九樓之１６","E_COORD97":169158.57999999999,"N_COORD97":2544255.9300000002,"ADDRESS":"成功路２號九樓之１６","OBJECTID":526396},"geometry":{"x":169158.58000000007,"y":2544255.9300000016}},{"attributes":{"ID":526424,"DIS_CODE":0,"TOWNNAME":"北區","LI":"公園里","LIN":"6鄰","STREET":"成功路","SECT":" ","MAREA":" ","LANE":" ","ALLEY":" ","HOUSE_NO":"２號九樓之１７","E_COORD97":169158.57999999999,"N_COORD97":2544255.9300000002,"ADDRESS":"成功路２號九樓之１７","OBJECTID":526397},"geometry":{"x":169158.58000000007,"y":2544255.9300000016}},{"attributes":{"ID":526425,"DIS_CODE":0,"TOWNNAME":"北區","LI":"公園里","LIN":"6鄰","STREET":"成功路","SECT":" ","MAREA":" ","LANE":" ","ALLEY":" ","HOUSE_NO":"２號九樓之１８","E_COORD97":169158.57999999999,"N_COORD97":2544255.9300000002,"ADDRESS":"成功路２號九樓之１８","OBJECTID":526398},"geometry":{"x":169158.58000000007,"y":2544255.9300000016}},{"attributes":{"ID":526426,"DIS_CODE":0,"TOWNNAME":"北區","LI":"公園里","LIN":"6鄰","STREET":"成功路","SECT":" ","MAREA":" ","LANE":" ","ALLEY":" ","HOUSE_NO":"２號九樓之１９","E_COORD97":169158.57999999999,"N_COORD97":2544255.9300000002,"ADDRESS":"成功路２號九樓之１９","OBJECTID":526399},"geometry":{"x":169158.58000000007,"y":2544255.9300000016}},{"attributes":{"ID":526427,"DIS_CODE":0,"TOWNNAME":"北區","LI":"公園里","LIN":"6鄰","STREET":"成功路","SECT":" ","MAREA":" ","LANE":" ","ALLEY":" ","HOUSE_NO":"２號九樓之２","E_COORD97":169158.57999999999,"N_COORD97":2544255.9300000002,"ADDRESS":"成功路２號九樓之２","OBJECTID":526400},"geometry":{"x":169158.58000000007,"y":2544255.9300000016}}]}