{"displayFieldName":"TOWNNAME","fieldAliases":{"ID":"ID","DIS_CODE":"DIS_CODE","TOWNNAME":"TOWNNAME","LI":"LI","LIN":"LIN","STREET":"STREET","SECT":"SECT","MAREA":"MAREA","LANE":"LANE","ALLEY":"ALLEY","HOUSE_NO":"HOUSE_NO","E_COORD97":"E_COORD97","N_COORD97":"N_COORD97","ADDRESS":"ADDRESS","OBJECTID":"OBJECTID"},"geometryType":"esriGeometryPoint","spatialReference":{"wkid":102443,"latestWkid":3826},"fields":[{"name":"ID","type":"esriFieldTypeDouble","alias":"ID"},{"name":"DIS_CODE","type":"esriFieldTypeInteger","alias":"DIS_CODE"},{"name":"TOWNNAME","type":"esriFieldTypeString","alias":"TOWNNAME","length":8},{"name":"LI","type":"esriFieldTypeString","alias":"LI","length":8},{"name":"LIN","type":"esriFieldTypeString","alias":"LIN","length":12},{"name":"STREET","type":"esriFieldTypeString","alias":"STREET","length":20},{"name":"SECT","type":"esriFieldTypeString","alias":"SECT","length":8},{"name":"MAREA","type":"esriFieldTypeString","alias":"MAREA","length":12},{"name":"LANE","type":"esriFieldTypeString","alias":"LANE","length":10},{"name":"ALLEY","type":"esriFieldTypeString","alias":"ALLEY","length":10},{"name":"HOUSE_NO","type":"esriFieldTypeString","alias":"HOUSE_NO","length":20},{"name":"E_COORD97","type":"esriFieldTypeDouble","alias":"E_COORD97"},{"name":"N_COORD97","type":"esriFieldTypeDouble","alias":"N_COORD97"},{"name":"ADDRESS","type":"esriFieldTypeString","alias":"ADDRESS","length":50},{"name":"OBJECTID","type":"esriFieldTypeOID","alias":"OBJECTID"}],"features":[{"attributes":{"ID":630028,"DIS_CODE":0,"TOWNNAME":"白河區","LI":"永安里","LIN":"6鄰","STREET":"中正路","SECT":" ","MAREA":" ","LANE":" ","ALLEY":" ","HOUSE_NO":"１０７號","E_COORD97":189893.29999999999,"N_COORD97":2583101.3500000001,"ADDRESS":"中正路１０７號","OBJECTID":630001},"geometry":{"x":189893.30000000075,"y":2583101.3499999996}},{"attributes":{"ID":630029,"DIS_CODE":0,"TOWNNAME":"白河區","LI":"永安里","LIN":"6鄰","STREET":"中正路","SECT":" ","MAREA":" ","LANE":" ","ALLEY":" ","HOUSE_NO":"１０９號","E_COORD97":189882.87,"N_COORD97":2583098.54,"ADDRESS":"中正路１０９號","OBJECTID":630002},"geometry":{"x":189882.87000000104,"y":2583098.540000001}},{"attributes":{"ID":630030,"DIS_CODE":0,"TOWNNAME":"白河區","LI":"白河里","LIN":"9鄰","STREET":"中正路","SECT":" ","MAREA":" ","LANE":" ","ALLEY":" ","HOUSE_NO":"１１之１號","E_COORD97":190289.04999999999,"N_COORD97":2583070.6800000002,"ADDRESS":"中正路１１之１號","OBJECTID":630003},"geometry":{"x":190289.04999999981,"y":2583070.6800000016}},{"attributes":{"ID":630031,"DIS_CODE":0,"TOWNNAME":"白河區","LI":"白河里","LIN":"9鄰","STREET":"中正路","SECT":" ","MAREA":" ","LANE":" ","ALLEY":" ","HOUSE_NO":"１１之２號","E_COORD97":190285.32000000001,"N_COORD97":2583071.1600000001,"ADDRESS":"中正路１１之２號","OBJECTID":630004},"geometry":{"x":190285.32000000123,"y":2583071.160000002}},{"attributes":{"ID":630032,"DIS_CODE":0,"TOWNNAME":"白河區","LI":"白河里","LIN":"9鄰","STREET":"中正路","SECT":" ","MAREA":" ","LANE":" ","ALLEY":" ","HOUSE_NO":"１１號","E_COORD97":190293.03,"N_COORD97":2583070.1000000001,"ADDRESS":"中正路１１號","OBJECTID":630005},"geometry":{"x":190293.03000000026,"y":2583070.1000000034}},{"attributes":{"ID":630033,"DIS_CODE":0,"TOWNNAME":"白河區","LI":"永安里","LIN":"16鄰","STREET":"中正路","SECT":" ","MAREA":" ","LANE":" ","ALLEY":" ","HOUSE_NO":"１００之１號","E_COORD97":189966.03,"N_COORD97":2583200.9399999999,"ADDRESS":"中正路１００之１號","OBJECTID":630006},"geometry":{"x":189966.03000000212,"y":2583200.9400000013}},{"attributes":{"ID":630034,"DIS_CODE":0,"TOWNNAME":"安南區","LI":"州北里","LIN":"20鄰","STREET":"安昌街","SECT":" ","MAREA":" ","LANE":" ","ALLEY":" ","HOUSE_NO":"７９號","E_COORD97":169897.17999999999,"N_COORD97":2552137.6699999999,"ADDRESS":"安昌街７９號","OBJECTID":630007},"geometry":{"x":169897.18000000063,"y":2552137.6700000018}},{"attributes":{"ID":630035,"DIS_CODE":0,"TOWNNAME":"安南區","LI":"安慶里","LIN":"13鄰","STREET":"安和路","SECT":"二段","MAREA":" ","LANE":" ","ALLEY":" ","HOUSE_NO":"４１號","E_COORD97":169423.39999999999,"N_COORD97":2548602.4100000001,"ADDRESS":"安和路二段４１號","OBJECTID":630008},"geometry":{"x":169423.4000000013,"y":2548602.410000002}},{"attributes":{"ID":630036,"DIS_CODE":0,"TOWNNAME":"安南區","LI":"州北里","LIN":"20鄰","STREET":"安昌街","SECT":" ","MAREA":" ","LANE":" ","ALLEY":" ","HOUSE_NO":"８１號","E_COORD97":169909.81,"N_COORD97":2552142.5099999998,"ADDRESS":"安昌街８１號","OBJECTID":630009},"geometry":{"x":169909.81000000052,"y":2552142.5099999998}},{"attributes":{"ID":630037,"DIS_CODE":0,"TOWNNAME":"安南區","LI":"海東里","LIN":"13鄰","STREET":"海環街","SECT":" ","MAREA":" ","LANE":" ","ALLEY":" ","HOUSE_NO":"４號","E_COORD97":166723.95000000001,"N_COORD97":2548903.0899999999,"ADDRESS":"海環街４號","OBJECTID":630010},"geometry":{"x":166723.95000000112,"y":2548903.0900000017}},{"attributes":{"ID":630038,"DIS_CODE":0,"TOWNNAME":"安南區","LI":"理想里","LIN":"3鄰","STREET":"大安街","SECT":" ","MAREA":" ","LANE":" ","ALLEY":" ","HOUSE_NO":"６７６號","E_COORD97":167148.37,"N_COORD97":2548930.6899999999,"ADDRESS":"大安街６７６號","OBJECTID":630011},"geometry":{"x":167148.37000000104,"y":2548930.6899999995}},{"attributes":{"ID":630039,"DIS_CODE":0,"TOWNNAME":"安南區","LI":"海東里","LIN":"21鄰","STREET":"海佃路","SECT":"二段","MAREA":" ","LANE":" ","ALLEY":" ","HOUSE_NO":"３１號","E_COORD97":166986.20999999999,"N_COORD97":2547922.6699999999,"ADDRESS":"海佃路二段３１號","OBJECTID":630012},"geometry":{"x":166986.21000000183,"y":2547922.6700000018}},{"attributes":{"ID":630040,"DIS_CODE":0,"TOWNNAME":"安南區","LI":"海東里","LIN":"21鄰","STREET":"海佃路","SECT":"二段","MAREA":" ","LANE":" ","ALLEY":" ","HOUSE_NO":"５５號","E_COORD97":166976.42999999999,"N_COORD97":2547994.73,"ADDRESS":"海佃路二段５５號","OBJECTID":630013},"geometry":{"x":166976.43000000063,"y":2547994.7300000023}},{"attributes":{"ID":630041,"DIS_CODE":0,"TOWNNAME":"安南區","LI":"海東里","LIN":"21鄰","STREET":"海佃路","SECT":"二段","MAREA":" ","LANE":" ","ALLEY":" ","HOUSE_NO":"５７號","E_COORD97":166976.10999999999,"N_COORD97":2548000.02,"ADDRESS":"海佃路二段５７號","OBJECTID":630014},"geometry":{"x":166976.11000000127,"y":2548000.0199999996}},{"attributes":{"ID":630042,"DIS_CODE":0,"TOWNNAME":"安南區","LI":"海東里","LIN":"21鄰","STREET":"海佃路","SECT":"二段","MAREA":" ","LANE":" ","ALLEY":" ","HOUSE_NO":"７７號","E_COORD97":166969.10000000001,"N_COORD97":2548052,"ADDRESS":"海佃路二段７７號","OBJECTID":630015},"geometry":{"x":166969.09999999963,"y":2548052.0000000037}},{"attributes":{"ID":630043,"DIS_CODE":0,"TOWNNAME":"安南區","LI":"海東里","LIN":"21鄰","STREET":"海佃路","SECT":"二段","MAREA":" ","LANE":" ","ALLEY":" ","HOUSE_NO":"７９號","E_COORD97":166968.87,"N_COORD97":2548056.5899999999,"ADDRESS":"海佃路二段７９號","OBJECTID":630016},"geometry":{"x":166968.87000000104,"y":2548056.5899999999}},{"attributes":{"ID":630044,"DIS_CODE":0,"TOWNNAME":"安南區","LI":"城東里","LIN":"13鄰","STREET":"城北路","SECT":" ","MAREA":" ","LANE":" ","ALLEY":" ","HOUSE_NO":"１５３號","E_COORD97":160967.67999999999,"N_COORD97":2551733.4100000001,"ADDRESS":"城北路１５３號","OBJECTID":630017},"geometry":{"x":160967.6799999997,"y":2551733.4100000001}},{"attributes":{"ID":630045,"DIS_CODE":0,"TOWNNAME":"安南區","LI":"理想里","LIN":"13鄰","STREET":"大安街","SECT":" ","MAREA":" ","LANE":" ","ALLEY":" ","HOUSE_NO":"６７號","E_COORD97":167198,"N_COORD97":2548028.5800000001,"ADDRESS":"大安街６７號","OBJECTID":630018},"geometry":{"x":167198.00000000186,"y":2548028.5800000019}},{"attributes":{"ID":630046,"DIS_CODE":0,"TOWNNAME":"安南區","LI":"理想里","LIN":"13鄰","STREET":"大安街","SECT":" ","MAREA":" ","LANE":" ","ALLEY":" ","HOUSE_NO":"４９號","E_COORD97":167168.22,"N_COORD97":2547987.8300000001,"ADDRESS":"大安街４９號","OBJECTID":630019},"geometry":{"x":167168.21999999974,"y":2547987.8300000001}},{"attributes":{"ID":630047,"DIS_CODE":0,"TOWNNAME":"仁德區","LI":"成功里","LIN":"26鄰","STREET":"保華路","SECT":" ","MAREA":" ","LANE":" ","ALLEY":" ","HOUSE_NO":"８６號","E_COORD97":170522.01000000001,"N_COORD97":2539991.25,"ADDRESS":"保華路８６號","OBJECTID":630020},"geometry":{"x":170522.01000000071,"y":2539991.2499999981}},{"attributes":{"ID":630048,"DIS_CODE":0,"TOWNNAME":"安南區","LI":"鳳凰里","LIN":"3鄰","STREET":"安中路","SECT":"一段","MAREA":" ","LANE":" ","ALLEY":" ","HOUSE_NO":"６１８號","E_COORD97":167830.85075799999,"N_COORD97":2549121.7935500001,"ADDRESS":"安中路一段６１８號","OBJECTID":630021},"geometry":{"x":167830.85075800028,"y":2549121.7935530022}},{"attributes":{"ID":630049,"DIS_CODE":0,"TOWNNAME":"安南區","LI":"梅花里","LIN":"1鄰","STREET":"安中路","SECT":"一段","MAREA":" ","LANE":" ","ALLEY":" ","HOUSE_NO":"５８１號之２","E_COORD97":167918.98000000001,"N_COORD97":2549003.6299999999,"ADDRESS":"安中路一段５８１號之２","OBJECTID":630022},"geometry":{"x":167918.98000000231,"y":2549003.6300000008}},{"attributes":{"ID":630050,"DIS_CODE":0,"TOWNNAME":"仁德區","LI":"仁德里","LIN":"4鄰","STREET":"中正路","SECT":"二段","MAREA":" ","LANE":" ","ALLEY":" ","HOUSE_NO":"８３５號","E_COORD97":173436.12,"N_COORD97":2540489.77,"ADDRESS":"中正路二段８３５號","OBJECTID":630023},"geometry":{"x":173436.12000000104,"y":2540489.7700000014}},{"attributes":{"ID":630051,"DIS_CODE":0,"TOWNNAME":"仁德區","LI":"成功里","LIN":"5鄰","STREET":"成功三街","SECT":" ","MAREA":" ","LANE":" ","ALLEY":" ","HOUSE_NO":"６０號","E_COORD97":171164.98000000001,"N_COORD97":2539896.02,"ADDRESS":"成功三街６０號","OBJECTID":630024},"geometry":{"x":171164.98000000045,"y":2539896.0199999996}},{"attributes":{"ID":630052,"DIS_CODE":0,"TOWNNAME":"仁德區","LI":"仁德里","LIN":"38鄰","STREET":"文宏路","SECT":" ","MAREA":" ","LANE":" ","ALLEY":" ","HOUSE_NO":"６８號","E_COORD97":172411.39999999999,"N_COORD97":2541696.0699999998,"ADDRESS":"文宏路６８號","OBJECTID":630025},"geometry":{"x":172411.40000000037,"y":2541696.0700000022}},{"attributes":{"ID":630053,"DIS_CODE":0,"TOWNNAME":"仁德區","LI":"後壁里","LIN":"26鄰","STREET":"中正路","SECT":"二段","MAREA":" ","LANE":" ","ALLEY":" ","HOUSE_NO":"３１５號","E_COORD97":173246.48000000001,"N_COORD97":2539130.52,"ADDRESS":"中正路二段３１５號","OBJECTID":630026},"geometry":{"x":173246.48000000045,"y":2539130.5199999996}},{"attributes":{"ID":630054,"DIS_CODE":0,"TOWNNAME":"仁德區","LI":"仁德里","LIN":"39鄰","STREET":"文宏路","SECT":" ","MAREA":" ","LANE":" ","ALLEY":" ","HOUSE_NO":"１３２號","E_COORD97":172425.73999999999,"N_COORD97":2541793.8300000001,"ADDRESS":"文宏路１３２號","OBJECTID":630027},"geometry":{"x":172425.74000000022,"y":2541793.8300000001}},{"attributes":{"ID":630055,"DIS_CODE":0,"TOWNNAME":"仁德區","LI":"仁德里","LIN":"4鄰","STREET":"仁中六街","SECT":" ","MAREA":" ","LANE":" ","ALLEY":" ","HOUSE_NO":"１３１號","E_COORD97":173317.59,"N_COORD97":2540451.9900000002,"ADDRESS":"仁中六街１３１號","OBJECTID":630028},"geometry":{"x":173317.59000000078,"y":2540451.9900000021}},{"attributes":{"ID":630056,"DIS_CODE":0,"TOWNNAME":"仁德區","LI":"仁德里","LIN":"4鄰","STREET":"仁中六街","SECT":" ","MAREA":" ","LANE":" ","ALLEY":" ","HOUSE_NO":"１５７號","E_COORD97":173360.60000000001,"N_COORD97":2540459.2400000002,"ADDRESS":"仁中六街１５７號","OBJECTID":630029},"geometry":{"x":173360.60000000149,"y":2540459.2400000002}},{"attributes":{"ID":630057,"DIS_CODE":0,"TOWNNAME":"仁德區","LI":"保安里","LIN":"20鄰","STREET":"保安路","SECT":"一段","MAREA":" ","LANE":" ","ALLEY":" ","HOUSE_NO":"１７號之４","E_COORD97":170503.60000000001,"N_COORD97":2536058.5699999998,"ADDRESS":"保安路一段１７號之４","OBJECTID":630030},"geometry":{"x":170503.59999999963,"y":2536058.5700000003}},{"attributes":{"ID":630058,"DIS_CODE":0,"TOWNNAME":"仁德區","LI":"仁德里","LIN":"39鄰","STREET":"文宏路","SECT":" ","MAREA":" ","LANE":" ","ALLEY":" ","HOUSE_NO":"１２６號","E_COORD97":172424.51999999999,"N_COORD97":2541780.0800000001,"ADDRESS":"文宏路１２６號","OBJECTID":630031},"geometry":{"x":172424.51999999955,"y":2541780.0800000019}},{"attributes":{"ID":630059,"DIS_CODE":0,"TOWNNAME":"仁德區","LI":"仁德里","LIN":"4鄰","STREET":"中正路","SECT":"二段","MAREA":" ","LANE":" ","ALLEY":" ","HOUSE_NO":"８７７號","E_COORD97":173427.54999999999,"N_COORD97":2540594.52,"ADDRESS":"中正路二段８７７號","OBJECTID":630032},"geometry":{"x":173427.55000000075,"y":2540594.5199999996}},{"attributes":{"ID":630060,"DIS_CODE":0,"TOWNNAME":"仁德區","LI":"仁德里","LIN":"4鄰","STREET":"仁中六街","SECT":" ","MAREA":" ","LANE":" ","ALLEY":" ","HOUSE_NO":"１４９號","E_COORD97":173339.78,"N_COORD97":2540459.2400000002,"ADDRESS":"仁中六街１４９號","OBJECTID":630033},"geometry":{"x":173339.78000000119,"y":2540459.2400000002}},{"attributes":{"ID":630061,"DIS_CODE":0,"TOWNNAME":"仁德區","LI":"保安里","LIN":"20鄰","STREET":"文賢路","SECT":"一段","MAREA":" ","LANE":" ","ALLEY":" ","HOUSE_NO":"５５６號","E_COORD97":171115.64999999999,"N_COORD97":2536899.0800000001,"ADDRESS":"文賢路一段５５６號","OBJECTID":630034},"geometry":{"x":171115.6500000013,"y":2536899.0800000001}},{"attributes":{"ID":630062,"DIS_CODE":0,"TOWNNAME":"仁德區","LI":"後壁里","LIN":"26鄰","STREET":"中正路","SECT":"二段","MAREA":" ","LANE":" ","ALLEY":" ","HOUSE_NO":"２９９號","E_COORD97":173239.98000000001,"N_COORD97":2539091.0299999998,"ADDRESS":"中正路二段２９９號","OBJECTID":630035},"geometry":{"x":173239.98000000045,"y":2539091.0300000012}},{"attributes":{"ID":630063,"DIS_CODE":0,"TOWNNAME":"仁德區","LI":"仁德里","LIN":"39鄰","STREET":"文山路","SECT":" ","MAREA":" ","LANE":" ","ALLEY":" ","HOUSE_NO":"１５０號","E_COORD97":172720.51999999999,"N_COORD97":2541826.8199999998,"ADDRESS":"文山路１５０號","OBJECTID":630036},"geometry":{"x":172720.52000000048,"y":2541826.8200000022}},{"attributes":{"ID":630064,"DIS_CODE":0,"TOWNNAME":"仁德區","LI":"仁義里","LIN":"18鄰","STREET":"正義路","SECT":" ","MAREA":" ","LANE":" ","ALLEY":" ","HOUSE_NO":"２２２號","E_COORD97":173985.53,"N_COORD97":2541373.52,"ADDRESS":"正義路２２２號","OBJECTID":630037},"geometry":{"x":173985.53000000212,"y":2541373.5200000014}},{"attributes":{"ID":630065,"DIS_CODE":0,"TOWNNAME":"仁德區","LI":"仁義里","LIN":"18鄰","STREET":"正義路","SECT":" ","MAREA":" ","LANE":" ","ALLEY":" ","HOUSE_NO":"１９７號","E_COORD97":173896.97,"N_COORD97":2541411.0099999998,"ADDRESS":"正義路１９７號","OBJECTID":630038},"geometry":{"x":173896.96999999974,"y":2541411.0100000016}},{"attributes":{"ID":630066,"DIS_CODE":0,"TOWNNAME":"仁德區","LI":"後壁里","LIN":"26鄰","STREET":"中正路","SECT":"二段","MAREA":" ","LANE":" ","ALLEY":" ","HOUSE_NO":"３８５號","E_COORD97":173265.10000000001,"N_COORD97":2539283.2799999998,"ADDRESS":"中正路二段３８５號","OBJECTID":630039},"geometry":{"x":173265.09999999963,"y":2539283.2800000012}},{"attributes":{"ID":630067,"DIS_CODE":0,"TOWNNAME":"仁德區","LI":"仁義里","LIN":"39鄰","STREET":"仁義五街","SECT":" ","MAREA":" ","LANE":" ","ALLEY":" ","HOUSE_NO":"３６號","E_COORD97":173571.45000000001,"N_COORD97":2540431.27,"ADDRESS":"仁義五街３６號","OBJECTID":630040},"geometry":{"x":173571.45000000112,"y":2540431.2699999977}},{"attributes":{"ID":630068,"DIS_CODE":0,"TOWNNAME":"仁德區","LI":"仁義里","LIN":"39鄰","STREET":"仁義五街","SECT":" ","MAREA":" ","LANE":" ","ALLEY":" ","HOUSE_NO":"３８號","E_COORD97":173576.26000000001,"N_COORD97":2540429.52,"ADDRESS":"仁義五街３８號","OBJECTID":630041},"geometry":{"x":173576.25999999978,"y":2540429.5199999996}},{"attributes":{"ID":630069,"DIS_CODE":0,"TOWNNAME":"仁德區","LI":"成功里","LIN":"4鄰","STREET":"成功三街","SECT":" ","MAREA":" ","LANE":" ","ALLEY":" ","HOUSE_NO":"９４號","E_COORD97":171168.92000000001,"N_COORD97":2539814.52,"ADDRESS":"成功三街９４號","OBJECTID":630042},"geometry":{"x":171168.92000000086,"y":2539814.5199999996}},{"attributes":{"ID":630070,"DIS_CODE":0,"TOWNNAME":"仁德區","LI":"成功里","LIN":"4鄰","STREET":"成功三街","SECT":" ","MAREA":" ","LANE":" ","ALLEY":" ","HOUSE_NO":"９６號","E_COORD97":171169.14999999999,"N_COORD97":2539807.52,"ADDRESS":"成功三街９６號","OBJECTID":630043},"geometry":{"x":171169.15000000224,"y":2539807.5200000014}},{"attributes":{"ID":630071,"DIS_CODE":0,"TOWNNAME":"仁德區","LI":"仁德里","LIN":"39鄰","STREET":"文山路","SECT":" ","MAREA":" ","LANE":" ","ALLEY":" ","HOUSE_NO":"１７０號","E_COORD97":172716.07999999999,"N_COORD97":2541815.8199999998,"ADDRESS":"文山路１７０號","OBJECTID":630044},"geometry":{"x":172716.08000000101,"y":2541815.8200000022}},{"attributes":{"ID":630072,"DIS_CODE":0,"TOWNNAME":"仁德區","LI":"成功里","LIN":"5鄰","STREET":"成功三街","SECT":" ","MAREA":" ","LANE":" ","ALLEY":" ","HOUSE_NO":"４８號","E_COORD97":171165.70999999999,"N_COORD97":2539920.27,"ADDRESS":"成功三街４８號","OBJECTID":630045},"geometry":{"x":171165.70999999996,"y":2539920.2700000014}},{"attributes":{"ID":630073,"DIS_CODE":0,"TOWNNAME":"仁德區","LI":"保安里","LIN":"20鄰","STREET":"文賢路","SECT":"一段","MAREA":" ","LANE":" ","ALLEY":" ","HOUSE_NO":"５５８號","E_COORD97":171115.19,"N_COORD97":2536893.0800000001,"ADDRESS":"文賢路一段５５８號","OBJECTID":630046},"geometry":{"x":171115.19000000134,"y":2536893.0800000001}},{"attributes":{"ID":630074,"DIS_CODE":0,"TOWNNAME":"仁德區","LI":"後壁里","LIN":"26鄰","STREET":"中正路","SECT":"二段","MAREA":" ","LANE":" ","ALLEY":" ","HOUSE_NO":"３４３號","E_COORD97":173252.32000000001,"N_COORD97":2539187.2799999998,"ADDRESS":"中正路二段３４３號","OBJECTID":630047},"geometry":{"x":173252.3200000003,"y":2539187.2800000012}},{"attributes":{"ID":630075,"DIS_CODE":0,"TOWNNAME":"仁德區","LI":"仁德里","LIN":"39鄰","STREET":"文宏二街","SECT":" ","MAREA":" ","LANE":" ","ALLEY":" ","HOUSE_NO":"５２號","E_COORD97":172466.42000000001,"N_COORD97":2541718.5699999998,"ADDRESS":"文宏二街５２號","OBJECTID":630048},"geometry":{"x":172466.41999999993,"y":2541718.570000004}},{"attributes":{"ID":630076,"DIS_CODE":0,"TOWNNAME":"仁德區","LI":"田厝里","LIN":"4鄰","STREET":"保安路","SECT":"二段","MAREA":" ","LANE":" ","ALLEY":" ","HOUSE_NO":"３７０號","E_COORD97":172121.37,"N_COORD97":2537371.0600000001,"ADDRESS":"保安路二段３７０號","OBJECTID":630049},"geometry":{"x":172121.37000000011,"y":2537371.0600000005}},{"attributes":{"ID":630077,"DIS_CODE":0,"TOWNNAME":"仁德區","LI":"仁德里","LIN":"5鄰","STREET":"中正路","SECT":"二段","MAREA":" ","LANE":" ","ALLEY":" ","HOUSE_NO":"１０５７號","E_COORD97":173393.31,"N_COORD97":2540799.71,"ADDRESS":"中正路二段１０５７號","OBJECTID":630050},"geometry":{"x":173393.31000000052,"y":2540799.7100000046}},{"attributes":{"ID":630078,"DIS_CODE":0,"TOWNNAME":"仁德區","LI":"保安里","LIN":"20鄰","STREET":"保安路","SECT":"一段","MAREA":" ","LANE":" ","ALLEY":" ","HOUSE_NO":"２３號","E_COORD97":170578.34,"N_COORD97":2536213.5600000001,"ADDRESS":"保安路一段２３號","OBJECTID":630051},"geometry":{"x":170578.33999999985,"y":2536213.5600000024}},{"attributes":{"ID":630079,"DIS_CODE":0,"TOWNNAME":"仁德區","LI":"後壁里","LIN":"26鄰","STREET":"中正路","SECT":"二段","MAREA":" ","LANE":" ","ALLEY":" ","HOUSE_NO":"３２７號","E_COORD97":173248.35000000001,"N_COORD97":2539152.77,"ADDRESS":"中正路二段３２７號","OBJECTID":630052},"geometry":{"x":173248.34999999963,"y":2539152.7699999996}},{"attributes":{"ID":630080,"DIS_CODE":0,"TOWNNAME":"仁德區","LI":"仁德里","LIN":"39鄰","STREET":"文華路","SECT":"三段","MAREA":" ","LANE":" ","ALLEY":" ","HOUSE_NO":"６００號","E_COORD97":172567.01000000001,"N_COORD97":2541845.5699999998,"ADDRESS":"文華路三段６００號","OBJECTID":630053},"geometry":{"x":172567.01000000071,"y":2541845.5700000022}},{"attributes":{"ID":630081,"DIS_CODE":0,"TOWNNAME":"仁德區","LI":"成功里","LIN":"13鄰","STREET":"全福路","SECT":" ","MAREA":" ","LANE":" ","ALLEY":" ","HOUSE_NO":"４號","E_COORD97":170825.57000000001,"N_COORD97":2539312.7400000002,"ADDRESS":"全福路４號","OBJECTID":630054},"geometry":{"x":170825.57000000123,"y":2539312.7400000002}},{"attributes":{"ID":630082,"DIS_CODE":0,"TOWNNAME":"仁德區","LI":"後壁里","LIN":"26鄰","STREET":"中正路","SECT":"二段","MAREA":" ","LANE":" ","ALLEY":" ","HOUSE_NO":"３８７號","E_COORD97":173266.45000000001,"N_COORD97":2539289.2799999998,"ADDRESS":"中正路二段３８７號","OBJECTID":630055},"geometry":{"x":173266.45000000019,"y":2539289.2800000012}},{"attributes":{"ID":630083,"DIS_CODE":0,"TOWNNAME":"仁德區","LI":"田厝里","LIN":"4鄰","STREET":"田厝三街","SECT":" ","MAREA":" ","LANE":" ","ALLEY":" ","HOUSE_NO":"９１號","E_COORD97":172569.73999999999,"N_COORD97":2537429.75,"ADDRESS":"田厝三街９１號","OBJECTID":630056},"geometry":{"x":172569.74000000022,"y":2537429.7500000019}},{"attributes":{"ID":630084,"DIS_CODE":0,"TOWNNAME":"仁德區","LI":"太子里","LIN":"18鄰","STREET":"太子路","SECT":" ","MAREA":" ","LANE":" ","ALLEY":" ","HOUSE_NO":"２７０號","E_COORD97":174091.39999999999,"N_COORD97":2543515.7599999998,"ADDRESS":"太子路２７０號","OBJECTID":630057},"geometry":{"x":174091.40000000037,"y":2543515.7599999998}},{"attributes":{"ID":630085,"DIS_CODE":0,"TOWNNAME":"仁德區","LI":"保安里","LIN":"20鄰","STREET":"保安路","SECT":"一段","MAREA":" ","LANE":" ","ALLEY":" ","HOUSE_NO":"１７號之９","E_COORD97":170523.51000000001,"N_COORD97":2536089.5699999998,"ADDRESS":"保安路一段１７號之９","OBJECTID":630058},"geometry":{"x":170523.51000000164,"y":2536089.5700000003}},{"attributes":{"ID":630086,"DIS_CODE":0,"TOWNNAME":"仁德區","LI":"仁義里","LIN":"39鄰","STREET":"仁義五街","SECT":" ","MAREA":" ","LANE":" ","ALLEY":" ","HOUSE_NO":"３２號","E_COORD97":173562.10999999999,"N_COORD97":2540431.27,"ADDRESS":"仁義五街３２號","OBJECTID":630059},"geometry":{"x":173562.11000000034,"y":2540431.2699999977}},{"attributes":{"ID":630087,"DIS_CODE":0,"TOWNNAME":"仁德區","LI":"仁德里","LIN":"4鄰","STREET":"中正路","SECT":"二段","MAREA":" ","LANE":" ","ALLEY":" ","HOUSE_NO":"８４３號","E_COORD97":173435.17999999999,"N_COORD97":2540510.5299999998,"ADDRESS":"中正路二段８４３號","OBJECTID":630060},"geometry":{"x":173435.18000000063,"y":2540510.5299999993}},{"attributes":{"ID":630088,"DIS_CODE":0,"TOWNNAME":"仁德區","LI":"仁德里","LIN":"39鄰","STREET":"文宏路","SECT":" ","MAREA":" ","LANE":" ","ALLEY":" ","HOUSE_NO":"１２８號","E_COORD97":172424.92999999999,"N_COORD97":2541784.8300000001,"ADDRESS":"文宏路１２８號","OBJECTID":630061},"geometry":{"x":172424.93000000063,"y":2541784.8300000019}},{"attributes":{"ID":630089,"DIS_CODE":0,"TOWNNAME":"仁德區","LI":"仁義里","LIN":"18鄰","STREET":"正義路","SECT":" ","MAREA":" ","LANE":" ","ALLEY":" ","HOUSE_NO":"１９２號","E_COORD97":173896.89999999999,"N_COORD97":2541385.2599999998,"ADDRESS":"正義路１９２號","OBJECTID":630062},"geometry":{"x":173896.9000000013,"y":2541385.2600000016}},{"attributes":{"ID":630090,"DIS_CODE":0,"TOWNNAME":"仁德區","LI":"仁義里","LIN":"26鄰","STREET":"中山路","SECT":" ","MAREA":" ","LANE":" ","ALLEY":" ","HOUSE_NO":"５８６號","E_COORD97":173298.54000000001,"N_COORD97":2541345.25,"ADDRESS":"中山路５８６號","OBJECTID":630063},"geometry":{"x":173298.53999999911,"y":2541345.2500000019}},{"attributes":{"ID":630091,"DIS_CODE":0,"TOWNNAME":"仁德區","LI":"仁德里","LIN":"39鄰","STREET":"文山路","SECT":" ","MAREA":" ","LANE":" ","ALLEY":" ","HOUSE_NO":"１８８號","E_COORD97":172712.54000000001,"N_COORD97":2541790.8300000001,"ADDRESS":"文山路１８８號","OBJECTID":630064},"geometry":{"x":172712.54000000097,"y":2541790.8300000001}},{"attributes":{"ID":630092,"DIS_CODE":0,"TOWNNAME":"仁德區","LI":"仁德里","LIN":"39鄰","STREET":"文宏路","SECT":" ","MAREA":" ","LANE":" ","ALLEY":" ","HOUSE_NO":"１３８號","E_COORD97":172426.84,"N_COORD97":2541802.5699999998,"ADDRESS":"文宏路１３８號","OBJECTID":630065},"geometry":{"x":172426.84000000171,"y":2541802.5700000003}},{"attributes":{"ID":630093,"DIS_CODE":0,"TOWNNAME":"仁德區","LI":"仁德里","LIN":"4鄰","STREET":"仁中六街","SECT":" ","MAREA":" ","LANE":" ","ALLEY":" ","HOUSE_NO":"１５９號","E_COORD97":173366.37,"N_COORD97":2540459.2400000002,"ADDRESS":"仁中六街１５９號","OBJECTID":630066},"geometry":{"x":173366.37000000104,"y":2540459.2400000002}},{"attributes":{"ID":630094,"DIS_CODE":0,"TOWNNAME":"仁德區","LI":"成功里","LIN":"5鄰","STREET":"成功三街","SECT":" ","MAREA":" ","LANE":" ","ALLEY":" ","HOUSE_NO":"７７號","E_COORD97":171183.20000000001,"N_COORD97":2539845.2599999998,"ADDRESS":"成功三街７７號","OBJECTID":630067},"geometry":{"x":171183.20000000019,"y":2539845.2600000035}},{"attributes":{"ID":630095,"DIS_CODE":0,"TOWNNAME":"仁德區","LI":"仁義里","LIN":"18鄰","STREET":"正義路","SECT":" ","MAREA":" ","LANE":" ","ALLEY":" ","HOUSE_NO":"２４１號","E_COORD97":174005.82999999999,"N_COORD97":2541395.2599999998,"ADDRESS":"正義路２４１號","OBJECTID":630068},"geometry":{"x":174005.83000000101,"y":2541395.2600000016}},{"attributes":{"ID":630096,"DIS_CODE":0,"TOWNNAME":"仁德區","LI":"太子里","LIN":"46鄰","STREET":"太子一街","SECT":" ","MAREA":" ","LANE":" ","ALLEY":" ","HOUSE_NO":"３３號","E_COORD97":174800.45000000001,"N_COORD97":2543358,"ADDRESS":"太子一街３３號","OBJECTID":630069},"geometry":{"x":174800.45000000112,"y":2543358.0000000019}},{"attributes":{"ID":630097,"DIS_CODE":0,"TOWNNAME":"仁德區","LI":"後壁里","LIN":"26鄰","STREET":"中正路","SECT":"二段","MAREA":" ","LANE":" ","ALLEY":" ","HOUSE_NO":"３６３號","E_COORD97":173256.95999999999,"N_COORD97":2539233.27,"ADDRESS":"中正路二段３６３號","OBJECTID":630070},"geometry":{"x":173256.96000000089,"y":2539233.2699999996}},{"attributes":{"ID":630098,"DIS_CODE":0,"TOWNNAME":"仁德區","LI":"仁義里","LIN":"18鄰","STREET":"正義路","SECT":" ","MAREA":" ","LANE":" ","ALLEY":" ","HOUSE_NO":"２３０號","E_COORD97":174002.42000000001,"N_COORD97":2541371.27,"ADDRESS":"正義路２３０號","OBJECTID":630071},"geometry":{"x":174002.41999999993,"y":2541371.2700000014}},{"attributes":{"ID":630099,"DIS_CODE":0,"TOWNNAME":"仁德區","LI":"保安里","LIN":"20鄰","STREET":"保安路","SECT":"一段","MAREA":" ","LANE":" ","ALLEY":" ","HOUSE_NO":"５９號","E_COORD97":170705.85000000001,"N_COORD97":2536572.8199999998,"ADDRESS":"保安路一段５９號","OBJECTID":630072},"geometry":{"x":170705.85000000149,"y":2536572.8200000003}},{"attributes":{"ID":630100,"DIS_CODE":0,"TOWNNAME":"仁德區","LI":"成功里","LIN":"13鄰","STREET":"全福路","SECT":" ","MAREA":" ","LANE":" ","ALLEY":" ","HOUSE_NO":"１９號","E_COORD97":170859.57000000001,"N_COORD97":2539322.9900000002,"ADDRESS":"全福路１９號","OBJECTID":630073},"geometry":{"x":170859.57000000123,"y":2539322.9900000021}},{"attributes":{"ID":630101,"DIS_CODE":0,"TOWNNAME":"仁德區","LI":"成功里","LIN":"24鄰","STREET":"保華路","SECT":" ","MAREA":" ","LANE":" ","ALLEY":" ","HOUSE_NO":"２８７號","E_COORD97":170568.75,"N_COORD97":2539970.7400000002,"ADDRESS":"保華路２８７號","OBJECTID":630074},"geometry":{"x":170568.75000000093,"y":2539970.7400000002}},{"attributes":{"ID":630102,"DIS_CODE":0,"TOWNNAME":"仁德區","LI":"仁德里","LIN":"17鄰","STREET":"文華路","SECT":"三段","MAREA":" ","LANE":" ","ALLEY":" ","HOUSE_NO":"４２１號","E_COORD97":172391.62,"N_COORD97":2541202.3199999998,"ADDRESS":"文華路三段４２１號","OBJECTID":630075},"geometry":{"x":172391.62000000104,"y":2541202.3200000022}},{"attributes":{"ID":630103,"DIS_CODE":0,"TOWNNAME":"仁德區","LI":"仁德里","LIN":"15鄰","STREET":"中山路","SECT":" ","MAREA":" ","LANE":" ","ALLEY":" ","HOUSE_NO":"６６１號","E_COORD97":173174.82000000001,"N_COORD97":2541338.25,"ADDRESS":"中山路６６１號","OBJECTID":630076},"geometry":{"x":173174.8200000003,"y":2541338.2500000019}},{"attributes":{"ID":630104,"DIS_CODE":0,"TOWNNAME":"仁德區","LI":"後壁里","LIN":"1鄰","STREET":"中正路","SECT":"二段","MAREA":" ","LANE":" ","ALLEY":" ","HOUSE_NO":"３５２號","E_COORD97":173270.07000000001,"N_COORD97":2539134.27,"ADDRESS":"中正路二段３５２號","OBJECTID":630077},"geometry":{"x":173270.07000000123,"y":2539134.2700000014}},{"attributes":{"ID":630105,"DIS_CODE":0,"TOWNNAME":"仁德區","LI":"成功里","LIN":"25鄰","STREET":"成功一街","SECT":" ","MAREA":" ","LANE":" ","ALLEY":" ","HOUSE_NO":"５６號","E_COORD97":170520.63,"N_COORD97":2539918.52,"ADDRESS":"成功一街５６號","OBJECTID":630078},"geometry":{"x":170520.62999999989,"y":2539918.5200000014}},{"attributes":{"ID":630106,"DIS_CODE":0,"TOWNNAME":"仁德區","LI":"仁德里","LIN":"38鄰","STREET":"文宏路","SECT":" ","MAREA":" ","LANE":" ","ALLEY":" ","HOUSE_NO":"８０號","E_COORD97":172410.64999999999,"N_COORD97":2541719.5699999998,"ADDRESS":"文宏路８０號","OBJECTID":630079},"geometry":{"x":172410.6500000013,"y":2541719.5700000022}},{"attributes":{"ID":630107,"DIS_CODE":0,"TOWNNAME":"仁德區","LI":"保安里","LIN":"20鄰","STREET":"保安路","SECT":"一段","MAREA":" ","LANE":" ","ALLEY":" ","HOUSE_NO":"１７號之８","E_COORD97":170521.07000000001,"N_COORD97":2536081.5699999998,"ADDRESS":"保安路一段１７號之８","OBJECTID":630080},"geometry":{"x":170521.07000000123,"y":2536081.5700000022}},{"attributes":{"ID":630108,"DIS_CODE":0,"TOWNNAME":"仁德區","LI":"後壁里","LIN":"26鄰","STREET":"中正路","SECT":"二段","MAREA":" ","LANE":" ","ALLEY":" ","HOUSE_NO":"２９７號","E_COORD97":173241.66,"N_COORD97":2539086.7799999998,"ADDRESS":"中正路二段２９７號","OBJECTID":630081},"geometry":{"x":173241.66000000015,"y":2539086.7800000012}},{"attributes":{"ID":630109,"DIS_CODE":0,"TOWNNAME":"仁德區","LI":"太子里","LIN":"26鄰","STREET":"太子路","SECT":" ","MAREA":" ","LANE":" ","ALLEY":" ","HOUSE_NO":"４１８號","E_COORD97":173580.98000000001,"N_COORD97":2543549.7599999998,"ADDRESS":"太子路４１８號","OBJECTID":630082},"geometry":{"x":173580.98000000231,"y":2543549.7599999998}},{"attributes":{"ID":630110,"DIS_CODE":0,"TOWNNAME":"仁德區","LI":"成功里","LIN":"25鄰","STREET":"保華路","SECT":" ","MAREA":" ","LANE":" ","ALLEY":" ","HOUSE_NO":"３０３號","E_COORD97":170519.22,"N_COORD97":2539969.4900000002,"ADDRESS":"保華路３０３號","OBJECTID":630083},"geometry":{"x":170519.22000000067,"y":2539969.4899999984}},{"attributes":{"ID":630111,"DIS_CODE":0,"TOWNNAME":"仁德區","LI":"成功里","LIN":"4鄰","STREET":"成功三街","SECT":" ","MAREA":" ","LANE":" ","ALLEY":" ","HOUSE_NO":"８５號","E_COORD97":171183.20999999999,"N_COORD97":2539820.52,"ADDRESS":"成功三街８５號","OBJECTID":630084},"geometry":{"x":171183.20999999996,"y":2539820.5200000014}},{"attributes":{"ID":630112,"DIS_CODE":0,"TOWNNAME":"仁德區","LI":"仁德里","LIN":"4鄰","STREET":"仁中六街","SECT":" ","MAREA":" ","LANE":" ","ALLEY":" ","HOUSE_NO":"１４５號","E_COORD97":173329.12,"N_COORD97":2540459.9900000002,"ADDRESS":"仁中六街１４５號","OBJECTID":630085},"geometry":{"x":173329.12000000104,"y":2540459.9900000002}},{"attributes":{"ID":630113,"DIS_CODE":0,"TOWNNAME":"仁德區","LI":"仁義里","LIN":"26鄰","STREET":"中山路","SECT":" ","MAREA":" ","LANE":" ","ALLEY":" ","HOUSE_NO":"５７８號","E_COORD97":173313.04000000001,"N_COORD97":2541344.5,"ADDRESS":"中山路５７８號","OBJECTID":630086},"geometry":{"x":173313.04000000097,"y":2541344.5}},{"attributes":{"ID":630114,"DIS_CODE":0,"TOWNNAME":"仁德區","LI":"太子里","LIN":"26鄰","STREET":"太子路","SECT":" ","MAREA":" ","LANE":" ","ALLEY":" ","HOUSE_NO":"３９０號","E_COORD97":173645.04000000001,"N_COORD97":2543545.2599999998,"ADDRESS":"太子路３９０號","OBJECTID":630087},"geometry":{"x":173645.04000000097,"y":2543545.2600000016}},{"attributes":{"ID":630115,"DIS_CODE":0,"TOWNNAME":"仁德區","LI":"太子里","LIN":"43鄰","STREET":"太子路","SECT":" ","MAREA":" ","LANE":" ","ALLEY":" ","HOUSE_NO":"６５號","E_COORD97":175180.17999999999,"N_COORD97":2543540.7599999998,"ADDRESS":"太子路６５號","OBJECTID":630088},"geometry":{"x":175180.1799999997,"y":2543540.7600000035}},{"attributes":{"ID":630116,"DIS_CODE":0,"TOWNNAME":"東區","LI":"大智里","LIN":"20鄰","STREET":"崇善路","SECT":" ","MAREA":" ","LANE":" ","ALLEY":" ","HOUSE_NO":"８３２號","E_COORD97":171431.17000000001,"N_COORD97":2540606.8399999999,"ADDRESS":"崇善路８３２號","OBJECTID":630089},"geometry":{"x":171431.17000000179,"y":2540606.8399999999}},{"attributes":{"ID":630117,"DIS_CODE":0,"TOWNNAME":"東區","LI":"大智里","LIN":"26鄰","STREET":"德東街","SECT":" ","MAREA":" ","LANE":" ","ALLEY":" ","HOUSE_NO":"２０７號","E_COORD97":171331.67000000001,"N_COORD97":2540273.4700000002,"ADDRESS":"德東街２０７號","OBJECTID":630090},"geometry":{"x":171331.67000000086,"y":2540273.4700000025}},{"attributes":{"ID":630118,"DIS_CODE":0,"TOWNNAME":"東區","LI":"崇善里","LIN":"4鄰","STREET":"崇善二街","SECT":" ","MAREA":" ","LANE":" ","ALLEY":" ","HOUSE_NO":"７２號","E_COORD97":170979.60999999999,"N_COORD97":2542103.5699999998,"ADDRESS":"崇善二街７２號","OBJECTID":630091},"geometry":{"x":170979.61000000127,"y":2542103.5700000003}},{"attributes":{"ID":630119,"DIS_CODE":0,"TOWNNAME":"東區","LI":"崇善里","LIN":"4鄰","STREET":"崇善二街","SECT":" ","MAREA":" ","LANE":" ","ALLEY":" ","HOUSE_NO":"１號","E_COORD97":170848.76999999999,"N_COORD97":2541990.7799999998,"ADDRESS":"崇善二街１號","OBJECTID":630092},"geometry":{"x":170848.77000000142,"y":2541990.7800000031}},{"attributes":{"ID":630120,"DIS_CODE":0,"TOWNNAME":"東區","LI":"崇善里","LIN":"4鄰","STREET":"崇善二街","SECT":" ","MAREA":" ","LANE":" ","ALLEY":" ","HOUSE_NO":"２７號","E_COORD97":170971.89999999999,"N_COORD97":2542120.8999999999,"ADDRESS":"崇善二街２７號","OBJECTID":630093},"geometry":{"x":170971.90000000037,"y":2542120.9000000022}},{"attributes":{"ID":630121,"DIS_CODE":0,"TOWNNAME":"東區","LI":"崇善里","LIN":"4鄰","STREET":"崇善二街","SECT":" ","MAREA":" ","LANE":" ","ALLEY":" ","HOUSE_NO":"３１號","E_COORD97":170980.60000000001,"N_COORD97":2542127.7799999998,"ADDRESS":"崇善二街３１號","OBJECTID":630094},"geometry":{"x":170980.60000000149,"y":2542127.7800000012}},{"attributes":{"ID":630122,"DIS_CODE":0,"TOWNNAME":"東區","LI":"崇善里","LIN":"4鄰","STREET":"崇善二街","SECT":" ","MAREA":" ","LANE":" ","ALLEY":" ","HOUSE_NO":"３５號","E_COORD97":170999.09,"N_COORD97":2542144.8100000001,"ADDRESS":"崇善二街３５號","OBJECTID":630095},"geometry":{"x":170999.08999999985,"y":2542144.8100000024}},{"attributes":{"ID":630123,"DIS_CODE":0,"TOWNNAME":"東區","LI":"崇善里","LIN":"4鄰","STREET":"崇善路","SECT":" ","MAREA":" ","LANE":" ","ALLEY":" ","HOUSE_NO":"２９１號","E_COORD97":170764.63,"N_COORD97":2542043.2799999998,"ADDRESS":"崇善路２９１號","OBJECTID":630096},"geometry":{"x":170764.62999999989,"y":2542043.2800000012}},{"attributes":{"ID":630124,"DIS_CODE":0,"TOWNNAME":"東區","LI":"崇善里","LIN":"4鄰","STREET":"崇善路","SECT":" ","MAREA":" ","LANE":" ","ALLEY":" ","HOUSE_NO":"２９９號","E_COORD97":170786.39999999999,"N_COORD97":2542017.1099999999,"ADDRESS":"崇善路２９９號","OBJECTID":630097},"geometry":{"x":170786.4000000013,"y":2542017.1100000013}},{"attributes":{"ID":630125,"DIS_CODE":0,"TOWNNAME":"東區","LI":"崇善里","LIN":"4鄰","STREET":"崇善路","SECT":" ","MAREA":" ","LANE":" ","ALLEY":" ","HOUSE_NO":"４０１號","E_COORD97":170885.79999999999,"N_COORD97":2541928.9399999999,"ADDRESS":"崇善路４０１號","OBJECTID":630098},"geometry":{"x":170885.79999999981,"y":2541928.9400000032}},{"attributes":{"ID":630126,"DIS_CODE":0,"TOWNNAME":"東區","LI":"東聖里","LIN":"20鄰","STREET":"中華東路","SECT":"二段","MAREA":" ","LANE":" ","ALLEY":" ","HOUSE_NO":"１１５號","E_COORD97":171406.81,"N_COORD97":2542908.0800000001,"ADDRESS":"中華東路二段１１５號","OBJECTID":630099},"geometry":{"x":171406.81000000052,"y":2542908.0799999982}},{"attributes":{"ID":630127,"DIS_CODE":0,"TOWNNAME":"東區","LI":"崇善里","LIN":"4鄰","STREET":"崇善路","SECT":" ","MAREA":" ","LANE":" ","ALLEY":" ","HOUSE_NO":"４１３號","E_COORD97":170919.66,"N_COORD97":2541912.4700000002,"ADDRESS":"崇善路４１３號","OBJECTID":630100},"geometry":{"x":170919.66000000201,"y":2541912.4700000007}},{"attributes":{"ID":630128,"DIS_CODE":0,"TOWNNAME":"東區","LI":"崇善里","LIN":"4鄰","STREET":"崇善路","SECT":" ","MAREA":" ","LANE":" ","ALLEY":" ","HOUSE_NO":"４１５號","E_COORD97":170898.01999999999,"N_COORD97":2541910,"ADDRESS":"崇善路４１５號","OBJECTID":630101},"geometry":{"x":170898.02000000048,"y":2541910.0000000019}},{"attributes":{"ID":630129,"DIS_CODE":0,"TOWNNAME":"東區","LI":"崇善里","LIN":"4鄰","STREET":"崇善路","SECT":" ","MAREA":" ","LANE":" ","ALLEY":" ","HOUSE_NO":"４１７號","E_COORD97":170899.41,"N_COORD97":2541902.5800000001,"ADDRESS":"崇善路４１７號","OBJECTID":630102},"geometry":{"x":170899.41000000108,"y":2541902.5800000019}},{"attributes":{"ID":630130,"DIS_CODE":0,"TOWNNAME":"東區","LI":"崇善里","LIN":"13鄰","STREET":"崇善十街","SECT":" ","MAREA":" ","LANE":" ","ALLEY":" ","HOUSE_NO":"２５號","E_COORD97":171165.17000000001,"N_COORD97":2541313.5699999998,"ADDRESS":"崇善十街２５號","OBJECTID":630103},"geometry":{"x":171165.17000000179,"y":2541313.5700000003}},{"attributes":{"ID":630131,"DIS_CODE":0,"TOWNNAME":"東區","LI":"崇善里","LIN":"13鄰","STREET":"崇善十街","SECT":" ","MAREA":" ","LANE":" ","ALLEY":" ","HOUSE_NO":"３４號","E_COORD97":171206.35999999999,"N_COORD97":2541310.9399999999,"ADDRESS":"崇善十街３４號","OBJECTID":630104},"geometry":{"x":171206.36000000034,"y":2541310.9399999995}},{"attributes":{"ID":630132,"DIS_CODE":0,"TOWNNAME":"東區","LI":"崇善里","LIN":"13鄰","STREET":"崇善十街","SECT":" ","MAREA":" ","LANE":" ","ALLEY":" ","HOUSE_NO":"４０號","E_COORD97":171227.01000000001,"N_COORD97":2541320.98,"ADDRESS":"崇善十街４０號","OBJECTID":630105},"geometry":{"x":171227.01000000164,"y":2541320.9800000023}},{"attributes":{"ID":630133,"DIS_CODE":0,"TOWNNAME":"東區","LI":"崇善里","LIN":"13鄰","STREET":"崇善十街","SECT":" ","MAREA":" ","LANE":" ","ALLEY":" ","HOUSE_NO":"５４號","E_COORD97":171261.20999999999,"N_COORD97":2541321.98,"ADDRESS":"崇善十街５４號","OBJECTID":630106},"geometry":{"x":171261.20999999996,"y":2541321.9800000004}},{"attributes":{"ID":630134,"DIS_CODE":0,"TOWNNAME":"東區","LI":"崇善里","LIN":"13鄰","STREET":"崇善十街","SECT":" ","MAREA":" ","LANE":" ","ALLEY":" ","HOUSE_NO":"５６號","E_COORD97":171249.59,"N_COORD97":2541331.6000000001,"ADDRESS":"崇善十街５６號","OBJECTID":630107},"geometry":{"x":171249.58999999985,"y":2541331.6000000015}},{"attributes":{"ID":630135,"DIS_CODE":0,"TOWNNAME":"東區","LI":"崇善里","LIN":"4鄰","STREET":"崇善二街","SECT":" ","MAREA":" ","LANE":" ","ALLEY":" ","HOUSE_NO":"３０號","E_COORD97":170915.92000000001,"N_COORD97":2542024.0600000001,"ADDRESS":"崇善二街３０號","OBJECTID":630108},"geometry":{"x":170915.92000000179,"y":2542024.0600000042}},{"attributes":{"ID":630136,"DIS_CODE":0,"TOWNNAME":"東區","LI":"小東里","LIN":"7鄰","STREET":"光明街","SECT":" ","MAREA":" ","LANE":" ","ALLEY":" ","HOUSE_NO":"１７７號","E_COORD97":170928.54999999999,"N_COORD97":2544151.4700000002,"ADDRESS":"光明街１７７號","OBJECTID":630109},"geometry":{"x":170928.55000000168,"y":2544151.4700000025}},{"attributes":{"ID":630137,"DIS_CODE":0,"TOWNNAME":"東區","LI":"大智里","LIN":"23鄰","STREET":"文東街","SECT":" ","MAREA":" ","LANE":" ","ALLEY":" ","HOUSE_NO":"１６號","E_COORD97":171315.76999999999,"N_COORD97":2540127.8100000001,"ADDRESS":"文東街１６號","OBJECTID":630110},"geometry":{"x":171315.76999999955,"y":2540127.8100000024}},{"attributes":{"ID":630138,"DIS_CODE":0,"TOWNNAME":"東區","LI":"小東里","LIN":"7鄰","STREET":"光明街","SECT":" ","MAREA":" ","LANE":" ","ALLEY":" ","HOUSE_NO":"１７９號","E_COORD97":170929.32999999999,"N_COORD97":2544146.6099999999,"ADDRESS":"光明街１７９號","OBJECTID":630111},"geometry":{"x":170929.33000000101,"y":2544146.6100000013}},{"attributes":{"ID":630139,"DIS_CODE":0,"TOWNNAME":"東區","LI":"大智里","LIN":"8鄰","STREET":"德東街","SECT":" ","MAREA":" ","LANE":" ","ALLEY":" ","HOUSE_NO":"９９號","E_COORD97":171067.66,"N_COORD97":2540272.46,"ADDRESS":"德東街９９號","OBJECTID":630112},"geometry":{"x":171067.66000000108,"y":2540272.4600000046}},{"attributes":{"ID":630140,"DIS_CODE":0,"TOWNNAME":"東區","LI":"大智里","LIN":"23鄰","STREET":"文東街","SECT":" ","MAREA":" ","LANE":" ","ALLEY":" ","HOUSE_NO":"１７號","E_COORD97":171298.79000000001,"N_COORD97":2540132.3100000001,"ADDRESS":"文東街１７號","OBJECTID":630113},"geometry":{"x":171298.79000000097,"y":2540132.3100000005}},{"attributes":{"ID":630141,"DIS_CODE":0,"TOWNNAME":"東區","LI":"大智里","LIN":"23鄰","STREET":"文東街","SECT":" ","MAREA":" ","LANE":" ","ALLEY":" ","HOUSE_NO":"４５號","E_COORD97":171295.57000000001,"N_COORD97":2540188.5800000001,"ADDRESS":"文東街４５號","OBJECTID":630114},"geometry":{"x":171295.57000000123,"y":2540188.5800000001}},{"attributes":{"ID":630142,"DIS_CODE":0,"TOWNNAME":"仁德區","LI":"保安里","LIN":"4鄰","STREET":"文賢路","SECT":"一段","MAREA":" ","LANE":" ","ALLEY":" ","HOUSE_NO":"８８０號","E_COORD97":171605.39999999999,"N_COORD97":2535999.8199999998,"ADDRESS":"文賢路一段８８０號","OBJECTID":630115},"geometry":{"x":171605.4000000013,"y":2535999.8200000003}},{"attributes":{"ID":630143,"DIS_CODE":0,"TOWNNAME":"仁德區","LI":"仁義里","LIN":"26鄰","STREET":"中山路","SECT":" ","MAREA":" ","LANE":" ","ALLEY":" ","HOUSE_NO":"５６２號","E_COORD97":173346.19,"N_COORD97":2541340.75,"ADDRESS":"中山路５６２號","OBJECTID":630116},"geometry":{"x":173346.19000000134,"y":2541340.7500000037}},{"attributes":{"ID":630144,"DIS_CODE":0,"TOWNNAME":"仁德區","LI":"太子里","LIN":"25鄰","STREET":"長興五街","SECT":" ","MAREA":" ","LANE":" ","ALLEY":" ","HOUSE_NO":"２７之６號","E_COORD97":173524.34035799999,"N_COORD97":2543625.2612000001,"ADDRESS":"長興五街２７之６號","OBJECTID":630117},"geometry":{"x":173524.34035800025,"y":2543625.2612010017}},{"attributes":{"ID":630145,"DIS_CODE":0,"TOWNNAME":"仁德區","LI":"新田里","LIN":"4鄰","STREET":"勝利一街","SECT":" ","MAREA":" ","LANE":" ","ALLEY":" ","HOUSE_NO":"１５之１號","E_COORD97":173882.63,"N_COORD97":2539550.04,"ADDRESS":"勝利一街１５之１號","OBJECTID":630118},"geometry":{"x":173882.62999999896,"y":2539550.0399999991}},{"attributes":{"ID":630146,"DIS_CODE":0,"TOWNNAME":"仁德區","LI":"保安里","LIN":"4鄰","STREET":"文賢路","SECT":"一段","MAREA":" ","LANE":" ","ALLEY":" ","HOUSE_NO":"８７２號","E_COORD97":171598.17000000001,"N_COORD97":2536015.5699999998,"ADDRESS":"文賢路一段８７２號","OBJECTID":630119},"geometry":{"x":171598.17000000086,"y":2536015.5700000003}},{"attributes":{"ID":630147,"DIS_CODE":0,"TOWNNAME":"仁德區","LI":"成功里","LIN":"5鄰","STREET":"成功三街","SECT":" ","MAREA":" ","LANE":" ","ALLEY":" ","HOUSE_NO":"３６號","E_COORD97":171164.37,"N_COORD97":2539946.5099999998,"ADDRESS":"成功三街３６號","OBJECTID":630120},"geometry":{"x":171164.37000000104,"y":2539946.5100000016}},{"attributes":{"ID":630148,"DIS_CODE":0,"TOWNNAME":"仁德區","LI":"仁德里","LIN":"38鄰","STREET":"文宏路","SECT":" ","MAREA":" ","LANE":" ","ALLEY":" ","HOUSE_NO":"６６號","E_COORD97":172416.01999999999,"N_COORD97":2541695.5699999998,"ADDRESS":"文宏路６６號","OBJECTID":630121},"geometry":{"x":172416.01999999955,"y":2541695.5700000022}},{"attributes":{"ID":630149,"DIS_CODE":0,"TOWNNAME":"仁德區","LI":"保安里","LIN":"20鄰","STREET":"保安路","SECT":"一段","MAREA":" ","LANE":" ","ALLEY":" ","HOUSE_NO":"１１號","E_COORD97":170444.04000000001,"N_COORD97":2536012.0600000001,"ADDRESS":"保安路一段１１號","OBJECTID":630122},"geometry":{"x":170444.0400000019,"y":2536012.0600000005}},{"attributes":{"ID":630150,"DIS_CODE":0,"TOWNNAME":"仁德區","LI":"後壁里","LIN":"26鄰","STREET":"中正路","SECT":"二段","MAREA":" ","LANE":" ","ALLEY":" ","HOUSE_NO":"３１１號","E_COORD97":173245.63,"N_COORD97":2539121.52,"ADDRESS":"中正路二段３１１號","OBJECTID":630123},"geometry":{"x":173245.63000000082,"y":2539121.5200000014}},{"attributes":{"ID":630151,"DIS_CODE":0,"TOWNNAME":"仁德區","LI":"成功里","LIN":"26鄰","STREET":"保華路","SECT":" ","MAREA":" ","LANE":" ","ALLEY":" ","HOUSE_NO":"９０號","E_COORD97":170510.73999999999,"N_COORD97":2539989.25,"ADDRESS":"保華路９０號","OBJECTID":630124},"geometry":{"x":170510.74000000115,"y":2539989.2500000019}},{"attributes":{"ID":630152,"DIS_CODE":0,"TOWNNAME":"仁德區","LI":"保安里","LIN":"13鄰","STREET":"二仁路","SECT":"一段","MAREA":" ","LANE":" ","ALLEY":" ","HOUSE_NO":"７８號","E_COORD97":170492.75,"N_COORD97":2535805.77,"ADDRESS":"二仁路一段７８號","OBJECTID":630125},"geometry":{"x":170492.75,"y":2535805.7699999996}},{"attributes":{"ID":630153,"DIS_CODE":0,"TOWNNAME":"仁德區","LI":"田厝里","LIN":"5鄰","STREET":"田厝三街","SECT":" ","MAREA":" ","LANE":" ","ALLEY":" ","HOUSE_NO":"２８號","E_COORD97":172420.23999999999,"N_COORD97":2537383.4900000002,"ADDRESS":"田厝三街２８號","OBJECTID":630126},"geometry":{"x":172420.24000000022,"y":2537383.4900000021}},{"attributes":{"ID":630154,"DIS_CODE":0,"TOWNNAME":"仁德區","LI":"保安里","LIN":"20鄰","STREET":"文賢路","SECT":"一段","MAREA":" ","LANE":" ","ALLEY":" ","HOUSE_NO":"５６８號","E_COORD97":171117.84,"N_COORD97":2536871.5699999998,"ADDRESS":"文賢路一段５６８號","OBJECTID":630127},"geometry":{"x":171117.83999999985,"y":2536871.5700000022}},{"attributes":{"ID":630155,"DIS_CODE":0,"TOWNNAME":"仁德區","LI":"後壁里","LIN":"26鄰","STREET":"中正路","SECT":"二段","MAREA":" ","LANE":" ","ALLEY":" ","HOUSE_NO":"３６５號","E_COORD97":173257.57000000001,"N_COORD97":2539238.02,"ADDRESS":"中正路二段３６５號","OBJECTID":630128},"geometry":{"x":173257.5700000003,"y":2539238.0200000014}},{"attributes":{"ID":630156,"DIS_CODE":0,"TOWNNAME":"仁德區","LI":"成功里","LIN":"25鄰","STREET":"成功一街","SECT":" ","MAREA":" ","LANE":" ","ALLEY":" ","HOUSE_NO":"５２之１號","E_COORD97":170526.73000000001,"N_COORD97":2539945.04,"ADDRESS":"成功一街５２之１號","OBJECTID":630129},"geometry":{"x":170526.73000000138,"y":2539945.040000001}},{"attributes":{"ID":630157,"DIS_CODE":0,"TOWNNAME":"仁德區","LI":"田厝里","LIN":"4鄰","STREET":"保安路","SECT":"二段","MAREA":" ","LANE":" ","ALLEY":" ","HOUSE_NO":"４９４號","E_COORD97":172475.67000000001,"N_COORD97":2537528.0699999998,"ADDRESS":"保安路二段４９４號","OBJECTID":630130},"geometry":{"x":172475.67000000086,"y":2537528.070000004}},{"attributes":{"ID":630158,"DIS_CODE":0,"TOWNNAME":"仁德區","LI":"仁德里","LIN":"5鄰","STREET":"中正路","SECT":"二段","MAREA":" ","LANE":" ","ALLEY":" ","HOUSE_NO":"１０５９號","E_COORD97":173392.45999999999,"N_COORD97":2540803.71,"ADDRESS":"中正路二段１０５９號","OBJECTID":630131},"geometry":{"x":173392.46000000183,"y":2540803.7100000028}},{"attributes":{"ID":630159,"DIS_CODE":0,"TOWNNAME":"仁德區","LI":"成功里","LIN":"26鄰","STREET":"保華路","SECT":" ","MAREA":" ","LANE":" ","ALLEY":" ","HOUSE_NO":"９６號","E_COORD97":170501.01000000001,"N_COORD97":2539994.75,"ADDRESS":"保華路９６號","OBJECTID":630132},"geometry":{"x":170501.00999999978,"y":2539994.7500000037}},{"attributes":{"ID":630160,"DIS_CODE":0,"TOWNNAME":"仁德區","LI":"成功里","LIN":"13鄰","STREET":"全福路","SECT":" ","MAREA":" ","LANE":" ","ALLEY":" ","HOUSE_NO":"１７號","E_COORD97":170855.42000000001,"N_COORD97":2539323.9900000002,"ADDRESS":"全福路１７號","OBJECTID":630133},"geometry":{"x":170855.42000000086,"y":2539323.9900000002}},{"attributes":{"ID":630161,"DIS_CODE":0,"TOWNNAME":"仁德區","LI":"仁德里","LIN":"4鄰","STREET":"仁中六街","SECT":" ","MAREA":" ","LANE":" ","ALLEY":" ","HOUSE_NO":"１４３號","E_COORD97":173324.04999999999,"N_COORD97":2540460.2400000002,"ADDRESS":"仁中六街１４３號","OBJECTID":630134},"geometry":{"x":173324.05000000075,"y":2540460.2400000021}},{"attributes":{"ID":630162,"DIS_CODE":0,"TOWNNAME":"仁德區","LI":"仁義里","LIN":"26鄰","STREET":"中山路","SECT":" ","MAREA":" ","LANE":" ","ALLEY":" ","HOUSE_NO":"５７２號","E_COORD97":173326.38,"N_COORD97":2541343.75,"ADDRESS":"中山路５７２號","OBJECTID":630135},"geometry":{"x":173326.37999999989,"y":2541343.75}},{"attributes":{"ID":630163,"DIS_CODE":0,"TOWNNAME":"仁德區","LI":"太子里","LIN":"39鄰","STREET":"太子路","SECT":" ","MAREA":" ","LANE":" ","ALLEY":" ","HOUSE_NO":"８８號","E_COORD97":175029.54000000001,"N_COORD97":2543556,"ADDRESS":"太子路８８號","OBJECTID":630136},"geometry":{"x":175029.5400000019,"y":2543556}},{"attributes":{"ID":630164,"DIS_CODE":0,"TOWNNAME":"仁德區","LI":"仁德里","LIN":"39鄰","STREET":"文宏二街","SECT":" ","MAREA":" ","LANE":" ","ALLEY":" ","HOUSE_NO":"１０８號","E_COORD97":172486.42999999999,"N_COORD97":2541772.3300000001,"ADDRESS":"文宏二街１０８號","OBJECTID":630137},"geometry":{"x":172486.4299999997,"y":2541772.3300000019}},{"attributes":{"ID":630165,"DIS_CODE":0,"TOWNNAME":"仁德區","LI":"保安里","LIN":"4鄰","STREET":"文賢路","SECT":"一段","MAREA":" ","LANE":" ","ALLEY":" ","HOUSE_NO":"８６８號","E_COORD97":171589.14999999999,"N_COORD97":2536024.0699999998,"ADDRESS":"文賢路一段８６８號","OBJECTID":630138},"geometry":{"x":171589.15000000037,"y":2536024.0700000022}},{"attributes":{"ID":630166,"DIS_CODE":0,"TOWNNAME":"仁德區","LI":"新田里","LIN":"18鄰","STREET":"民安路","SECT":"二段","MAREA":" ","LANE":" ","ALLEY":" ","HOUSE_NO":"１５７號","E_COORD97":173682.10000000001,"N_COORD97":2539073.3199999998,"ADDRESS":"民安路二段１５７號","OBJECTID":630139},"geometry":{"x":173682.09999999963,"y":2539073.3200000022}},{"attributes":{"ID":630167,"DIS_CODE":0,"TOWNNAME":"仁德區","LI":"太子里","LIN":"25鄰","STREET":"長興五街","SECT":" ","MAREA":" ","LANE":" ","ALLEY":" ","HOUSE_NO":"３３號","E_COORD97":173556.89999999999,"N_COORD97":2543639.5099999998,"ADDRESS":"長興五街３３號","OBJECTID":630140},"geometry":{"x":173556.90000000037,"y":2543639.5099999998}},{"attributes":{"ID":630168,"DIS_CODE":0,"TOWNNAME":"仁德區","LI":"仁德里","LIN":"39鄰","STREET":"文山路","SECT":" ","MAREA":" ","LANE":" ","ALLEY":" ","HOUSE_NO":"１８２號","E_COORD97":172691.98999999999,"N_COORD97":2541823.8199999998,"ADDRESS":"文山路１８２號","OBJECTID":630141},"geometry":{"x":172691.99000000022,"y":2541823.8200000003}},{"attributes":{"ID":630169,"DIS_CODE":0,"TOWNNAME":"仁德區","LI":"後壁里","LIN":"39鄰","STREET":"德安路","SECT":" ","MAREA":" ","LANE":" ","ALLEY":" ","HOUSE_NO":"８０號","E_COORD97":173458.54000000001,"N_COORD97":2539104.0600000001,"ADDRESS":"德安路８０號","OBJECTID":630142},"geometry":{"x":173458.54000000097,"y":2539104.0600000005}},{"attributes":{"ID":630170,"DIS_CODE":0,"TOWNNAME":"仁德區","LI":"新田里","LIN":"18鄰","STREET":"民安路","SECT":"二段","MAREA":" ","LANE":" ","ALLEY":" ","HOUSE_NO":"１４７號","E_COORD97":173669.89999999999,"N_COORD97":2539095.3199999998,"ADDRESS":"民安路二段１４７號","OBJECTID":630143},"geometry":{"x":173669.9000000013,"y":2539095.3200000003}},{"attributes":{"ID":630171,"DIS_CODE":0,"TOWNNAME":"仁德區","LI":"新田里","LIN":"4鄰","STREET":"勝利路","SECT":" ","MAREA":" ","LANE":" ","ALLEY":" ","HOUSE_NO":"１３３號","E_COORD97":174225.17999999999,"N_COORD97":2539653.5,"ADDRESS":"勝利路１３３號","OBJECTID":630144},"geometry":{"x":174225.18000000063,"y":2539653.5}},{"attributes":{"ID":630172,"DIS_CODE":0,"TOWNNAME":"仁德區","LI":"保安里","LIN":"4鄰","STREET":"文賢路","SECT":"一段","MAREA":" ","LANE":" ","ALLEY":" ","HOUSE_NO":"８６０號","E_COORD97":171521.82000000001,"N_COORD97":2536066.5800000001,"ADDRESS":"文賢路一段８６０號","OBJECTID":630145},"geometry":{"x":171521.8200000003,"y":2536066.5800000038}},{"attributes":{"ID":630173,"DIS_CODE":0,"TOWNNAME":"仁德區","LI":"後壁里","LIN":"18鄰","STREET":"中正路","SECT":"二段","MAREA":" ","LANE":" ","ALLEY":" ","HOUSE_NO":"２２０號","E_COORD97":173235.85999999999,"N_COORD97":2538786.02,"ADDRESS":"中正路二段２２０號","OBJECTID":630146},"geometry":{"x":173235.8600000022,"y":2538786.0200000014}},{"attributes":{"ID":630174,"DIS_CODE":0,"TOWNNAME":"仁德區","LI":"成功里","LIN":"47鄰","STREET":"文賢路","SECT":"一段","MAREA":" ","LANE":" ","ALLEY":" ","HOUSE_NO":"３３號","E_COORD97":170188.09,"N_COORD97":2538292.0699999998,"ADDRESS":"文賢路一段３３號","OBJECTID":630147},"geometry":{"x":170188.09000000078,"y":2538292.0700000022}},{"attributes":{"ID":630175,"DIS_CODE":0,"TOWNNAME":"仁德區","LI":"新田里","LIN":"18鄰","STREET":"民安路","SECT":"二段","MAREA":" ","LANE":" ","ALLEY":" ","HOUSE_NO":"１８５之７號","E_COORD97":173731.51000000001,"N_COORD97":2539060.0699999998,"ADDRESS":"民安路二段１８５之７號","OBJECTID":630148},"geometry":{"x":173731.51000000071,"y":2539060.0700000003}},{"attributes":{"ID":630176,"DIS_CODE":0,"TOWNNAME":"仁德區","LI":"保安里","LIN":"4鄰","STREET":"文賢路","SECT":"一段","MAREA":" ","LANE":" ","ALLEY":" ","HOUSE_NO":"８５０號","E_COORD97":171497.60000000001,"N_COORD97":2536119.8199999998,"ADDRESS":"文賢路一段８５０號","OBJECTID":630149},"geometry":{"x":171497.60000000149,"y":2536119.8200000022}},{"attributes":{"ID":630177,"DIS_CODE":0,"TOWNNAME":"仁德區","LI":"新田里","LIN":"4鄰","STREET":"勝利路","SECT":" ","MAREA":" ","LANE":" ","ALLEY":" ","HOUSE_NO":"１２８號","E_COORD97":174210.79000000001,"N_COORD97":2539631.75,"ADDRESS":"勝利路１２８號","OBJECTID":630150},"geometry":{"x":174210.79000000097,"y":2539631.7499999981}},{"attributes":{"ID":630178,"DIS_CODE":0,"TOWNNAME":"仁德區","LI":"新田里","LIN":"18鄰","STREET":"民安路","SECT":"二段","MAREA":" ","LANE":" ","ALLEY":" ","HOUSE_NO":"１７３號","E_COORD97":173704.76999999999,"N_COORD97":2539049.3100000001,"ADDRESS":"民安路二段１７３號","OBJECTID":630151},"geometry":{"x":173704.76999999955,"y":2539049.3100000024}},{"attributes":{"ID":630179,"DIS_CODE":0,"TOWNNAME":"仁德區","LI":"新田里","LIN":"4鄰","STREET":"勝利路","SECT":" ","MAREA":" ","LANE":" ","ALLEY":" ","HOUSE_NO":"１４２號","E_COORD97":174381.75,"N_COORD97":2539561,"ADDRESS":"勝利路１４２號","OBJECTID":630152},"geometry":{"x":174381.75,"y":2539561}},{"attributes":{"ID":630180,"DIS_CODE":0,"TOWNNAME":"仁德區","LI":"新田里","LIN":"18鄰","STREET":"民安路","SECT":"二段","MAREA":" ","LANE":" ","ALLEY":" ","HOUSE_NO":"２１７號","E_COORD97":173788.79999999999,"N_COORD97":2538966.0699999998,"ADDRESS":"民安路二段２１７號","OBJECTID":630153},"geometry":{"x":173788.80000000075,"y":2538966.0700000022}},{"attributes":{"ID":630181,"DIS_CODE":0,"TOWNNAME":"仁德區","LI":"新田里","LIN":"18鄰","STREET":"民安路","SECT":"二段","MAREA":" ","LANE":" ","ALLEY":" ","HOUSE_NO":"５３７號","E_COORD97":174382.85000000001,"N_COORD97":2538651.5699999998,"ADDRESS":"民安路二段５３７號","OBJECTID":630154},"geometry":{"x":174382.85000000149,"y":2538651.5700000022}},{"attributes":{"ID":630182,"DIS_CODE":0,"TOWNNAME":"仁德區","LI":"後壁里","LIN":"40鄰","STREET":"德安路","SECT":" ","MAREA":" ","LANE":" ","ALLEY":" ","HOUSE_NO":"１２２號","E_COORD97":173547.53,"N_COORD97":2538951.3199999998,"ADDRESS":"德安路１２２號","OBJECTID":630155},"geometry":{"x":173547.53000000026,"y":2538951.3200000022}},{"attributes":{"ID":630183,"DIS_CODE":0,"TOWNNAME":"仁德區","LI":"新田里","LIN":"4鄰","STREET":"勝利路","SECT":" ","MAREA":" ","LANE":" ","ALLEY":" ","HOUSE_NO":"２３１號","E_COORD97":174728.59,"N_COORD97":2539485.25,"ADDRESS":"勝利路２３１號","OBJECTID":630156},"geometry":{"x":174728.58999999985,"y":2539485.25}},{"attributes":{"ID":630184,"DIS_CODE":0,"TOWNNAME":"仁德區","LI":"後壁里","LIN":"38鄰","STREET":"德安路","SECT":" ","MAREA":" ","LANE":" ","ALLEY":" ","HOUSE_NO":"５０號","E_COORD97":173409.17999999999,"N_COORD97":2539174.0699999998,"ADDRESS":"德安路５０號","OBJECTID":630157},"geometry":{"x":173409.18000000156,"y":2539174.0700000022}},{"attributes":{"ID":630185,"DIS_CODE":0,"TOWNNAME":"仁德區","LI":"成功里","LIN":"20鄰","STREET":"保生路","SECT":" ","MAREA":" ","LANE":" ","ALLEY":" ","HOUSE_NO":"７３號","E_COORD97":170695.42999999999,"N_COORD97":2539794.8300000001,"ADDRESS":"保生路７３號","OBJECTID":630158},"geometry":{"x":170695.43000000063,"y":2539794.8300000019}},{"attributes":{"ID":630186,"DIS_CODE":0,"TOWNNAME":"仁德區","LI":"後壁里","LIN":"17鄰","STREET":"中正路","SECT":"二段","MAREA":" ","LANE":" ","ALLEY":" ","HOUSE_NO":"２３４號","E_COORD97":173240.14999999999,"N_COORD97":2538833.27,"ADDRESS":"中正路二段２３４號","OBJECTID":630159},"geometry":{"x":173240.15000000037,"y":2538833.2699999996}},{"attributes":{"ID":630187,"DIS_CODE":0,"TOWNNAME":"仁德區","LI":"新田里","LIN":"4鄰","STREET":"勝利路","SECT":" ","MAREA":" ","LANE":" ","ALLEY":" ","HOUSE_NO":"１９７號","E_COORD97":174470.39999999999,"N_COORD97":2539543.5,"ADDRESS":"勝利路１９７號","OBJECTID":630160},"geometry":{"x":174470.4000000013,"y":2539543.5000000019}},{"attributes":{"ID":630188,"DIS_CODE":0,"TOWNNAME":"仁德區","LI":"新田里","LIN":"18鄰","STREET":"民安路","SECT":"二段","MAREA":" ","LANE":" ","ALLEY":" ","HOUSE_NO":"２０９號","E_COORD97":173776.13,"N_COORD97":2538977.3199999998,"ADDRESS":"民安路二段２０９號","OBJECTID":630161},"geometry":{"x":173776.13000000082,"y":2538977.3199999984}},{"attributes":{"ID":630189,"DIS_CODE":0,"TOWNNAME":"仁德區","LI":"後壁里","LIN":"20鄰","STREET":"中正路","SECT":"二段","MAREA":" ","LANE":" ","ALLEY":" ","HOUSE_NO":"１２８號","E_COORD97":173197.29000000001,"N_COORD97":2538537.5299999998,"ADDRESS":"中正路二段１２８號","OBJECTID":630162},"geometry":{"x":173197.29000000097,"y":2538537.5299999975}},{"attributes":{"ID":630190,"DIS_CODE":0,"TOWNNAME":"仁德區","LI":"新田里","LIN":"18鄰","STREET":"民安路","SECT":"二段","MAREA":" ","LANE":" ","ALLEY":" ","HOUSE_NO":"１４５號","E_COORD97":173666.73999999999,"N_COORD97":2539098.3199999998,"ADDRESS":"民安路二段１４５號","OBJECTID":630163},"geometry":{"x":173666.74000000022,"y":2539098.3200000003}},{"attributes":{"ID":630191,"DIS_CODE":0,"TOWNNAME":"仁德區","LI":"成功里","LIN":"20鄰","STREET":"保生路","SECT":" ","MAREA":" ","LANE":" ","ALLEY":" ","HOUSE_NO":"１２７號","E_COORD97":170598.66,"N_COORD97":2539814.25,"ADDRESS":"保生路１２７號","OBJECTID":630164},"geometry":{"x":170598.66000000015,"y":2539814.25}},{"attributes":{"ID":630192,"DIS_CODE":0,"TOWNNAME":"仁德區","LI":"後壁里","LIN":"43鄰","STREET":"德崙路","SECT":" ","MAREA":" ","LANE":" ","ALLEY":" ","HOUSE_NO":"７１號","E_COORD97":173380.10000000001,"N_COORD97":2538521.5099999998,"ADDRESS":"德崙路７１號","OBJECTID":630165},"geometry":{"x":173380.09999999963,"y":2538521.5100000035}},{"attributes":{"ID":630193,"DIS_CODE":0,"TOWNNAME":"仁德區","LI":"後壁里","LIN":"43鄰","STREET":"德崙路","SECT":" ","MAREA":" ","LANE":" ","ALLEY":" ","HOUSE_NO":"５３號","E_COORD97":173327.45000000001,"N_COORD97":2538563.52,"ADDRESS":"德崙路５３號","OBJECTID":630166},"geometry":{"x":173327.45000000019,"y":2538563.5199999996}},{"attributes":{"ID":630194,"DIS_CODE":0,"TOWNNAME":"仁德區","LI":"新田里","LIN":"4鄰","STREET":"勝利路","SECT":" ","MAREA":" ","LANE":" ","ALLEY":" ","HOUSE_NO":"１３８號","E_COORD97":174353.41,"N_COORD97":2539555,"ADDRESS":"勝利路１３８號","OBJECTID":630167},"geometry":{"x":174353.41000000015,"y":2539555}},{"attributes":{"ID":630195,"DIS_CODE":0,"TOWNNAME":"仁德區","LI":"後壁里","LIN":"43鄰","STREET":"德崙路","SECT":" ","MAREA":" ","LANE":" ","ALLEY":" ","HOUSE_NO":"２３號","E_COORD97":173264.98999999999,"N_COORD97":2538612.2599999998,"ADDRESS":"德崙路２３號","OBJECTID":630168},"geometry":{"x":173264.99000000022,"y":2538612.2600000016}},{"attributes":{"ID":630196,"DIS_CODE":0,"TOWNNAME":"仁德區","LI":"後壁里","LIN":"42鄰","STREET":"德崙路","SECT":" ","MAREA":" ","LANE":" ","ALLEY":" ","HOUSE_NO":"６２號","E_COORD97":173336.23999999999,"N_COORD97":2538530.0099999998,"ADDRESS":"德崙路６２號","OBJECTID":630169},"geometry":{"x":173336.24000000022,"y":2538530.0099999998}},{"attributes":{"ID":630197,"DIS_CODE":0,"TOWNNAME":"仁德區","LI":"新田里","LIN":"18鄰","STREET":"民安路","SECT":"二段","MAREA":" ","LANE":" ","ALLEY":" ","HOUSE_NO":"２２３號","E_COORD97":173797.94,"N_COORD97":2538958.3199999998,"ADDRESS":"民安路二段２２３號","OBJECTID":630170},"geometry":{"x":173797.94000000041,"y":2538958.3200000022}},{"attributes":{"ID":630198,"DIS_CODE":0,"TOWNNAME":"仁德區","LI":"後壁里","LIN":"42鄰","STREET":"德崙路","SECT":" ","MAREA":" ","LANE":" ","ALLEY":" ","HOUSE_NO":"５２號","E_COORD97":173319.04000000001,"N_COORD97":2538544.27,"ADDRESS":"德崙路５２號","OBJECTID":630171},"geometry":{"x":173319.0400000019,"y":2538544.2700000014}},{"attributes":{"ID":630199,"DIS_CODE":0,"TOWNNAME":"仁德區","LI":"後壁里","LIN":"18鄰","STREET":"德南路","SECT":" ","MAREA":" ","LANE":" ","ALLEY":" ","HOUSE_NO":"６８號","E_COORD97":173398.39999999999,"N_COORD97":2538697.2599999998,"ADDRESS":"德南路６８號","OBJECTID":630172},"geometry":{"x":173398.40000000224,"y":2538697.2600000016}},{"attributes":{"ID":630200,"DIS_CODE":0,"TOWNNAME":"仁德區","LI":"成功里","LIN":"20鄰","STREET":"保生路","SECT":" ","MAREA":" ","LANE":" ","ALLEY":" ","HOUSE_NO":"１２２號","E_COORD97":170594.45000000001,"N_COORD97":2539859.7400000002,"ADDRESS":"保生路１２２號","OBJECTID":630173},"geometry":{"x":170594.45000000112,"y":2539859.7400000039}},{"attributes":{"ID":630201,"DIS_CODE":0,"TOWNNAME":"仁德區","LI":"成功里","LIN":"26鄰","STREET":"成功一街","SECT":" ","MAREA":" ","LANE":" ","ALLEY":" ","HOUSE_NO":"３２號","E_COORD97":170524.84,"N_COORD97":2540061.2599999998,"ADDRESS":"成功一街３２號","OBJECTID":630174},"geometry":{"x":170524.84000000171,"y":2540061.2599999998}},{"attributes":{"ID":630202,"DIS_CODE":0,"TOWNNAME":"仁德區","LI":"後壁里","LIN":"42鄰","STREET":"德崙路","SECT":" ","MAREA":" ","LANE":" ","ALLEY":" ","HOUSE_NO":"６４號","E_COORD97":173339.39000000001,"N_COORD97":2538527.2599999998,"ADDRESS":"德崙路６４號","OBJECTID":630175},"geometry":{"x":173339.38999999966,"y":2538527.2600000016}},{"attributes":{"ID":630203,"DIS_CODE":0,"TOWNNAME":"仁德區","LI":"新田里","LIN":"4鄰","STREET":"勝利路","SECT":" ","MAREA":" ","LANE":" ","ALLEY":" ","HOUSE_NO":"１４６號","E_COORD97":174390.62,"N_COORD97":2539556,"ADDRESS":"勝利路１４６號","OBJECTID":630176},"geometry":{"x":174390.62000000104,"y":2539556.0000000037}},{"attributes":{"ID":630204,"DIS_CODE":0,"TOWNNAME":"仁德區","LI":"新田里","LIN":"4鄰","STREET":"勝利路","SECT":" ","MAREA":" ","LANE":" ","ALLEY":" ","HOUSE_NO":"１５６號","E_COORD97":174425.69,"N_COORD97":2539541.5,"ADDRESS":"勝利路１５６號","OBJECTID":630177},"geometry":{"x":174425.69000000134,"y":2539541.5}},{"attributes":{"ID":630205,"DIS_CODE":0,"TOWNNAME":"仁德區","LI":"後壁里","LIN":"18鄰","STREET":"德南路","SECT":" ","MAREA":" ","LANE":" ","ALLEY":" ","HOUSE_NO":"７８號","E_COORD97":173440.70000000001,"N_COORD97":2538657.02,"ADDRESS":"德南路７８號","OBJECTID":630178},"geometry":{"x":173440.70000000112,"y":2538657.0200000014}},{"attributes":{"ID":630206,"DIS_CODE":0,"TOWNNAME":"仁德區","LI":"新田里","LIN":"18鄰","STREET":"民安路","SECT":"二段","MAREA":" ","LANE":" ","ALLEY":" ","HOUSE_NO":"２０７號","E_COORD97":173772.79999999999,"N_COORD97":2538980.3199999998,"ADDRESS":"民安路二段２０７號","OBJECTID":630179},"geometry":{"x":173772.79999999981,"y":2538980.3200000003}},{"attributes":{"ID":630207,"DIS_CODE":0,"TOWNNAME":"仁德區","LI":"後壁里","LIN":"26鄰","STREET":"中正路","SECT":"二段","MAREA":" ","LANE":" ","ALLEY":" ","HOUSE_NO":"３６７號","E_COORD97":173258.45999999999,"N_COORD97":2539242.27,"ADDRESS":"中正路二段３６７號","OBJECTID":630180},"geometry":{"x":173258.46000000183,"y":2539242.2700000014}},{"attributes":{"ID":630208,"DIS_CODE":0,"TOWNNAME":"仁德區","LI":"新田里","LIN":"4鄰","STREET":"勝利路","SECT":" ","MAREA":" ","LANE":" ","ALLEY":" ","HOUSE_NO":"１７４號","E_COORD97":174458.45000000001,"N_COORD97":2539527.5,"ADDRESS":"勝利路１７４號","OBJECTID":630181},"geometry":{"x":174458.45000000019,"y":2539527.5}},{"attributes":{"ID":630209,"DIS_CODE":0,"TOWNNAME":"仁德區","LI":"成功里","LIN":"32鄰","STREET":"成功一街","SECT":" ","MAREA":" ","LANE":" ","ALLEY":" ","HOUSE_NO":"３１號","E_COORD97":170538.91,"N_COORD97":2540134.77,"ADDRESS":"成功一街３１號","OBJECTID":630182},"geometry":{"x":170538.91000000108,"y":2540134.7700000014}},{"attributes":{"ID":630210,"DIS_CODE":0,"TOWNNAME":"仁德區","LI":"後壁里","LIN":"5鄰","STREET":"德善二街","SECT":" ","MAREA":" ","LANE":" ","ALLEY":" ","HOUSE_NO":"５號","E_COORD97":173502.29000000001,"N_COORD97":2538879.52,"ADDRESS":"德善二街５號","OBJECTID":630183},"geometry":{"x":173502.29000000097,"y":2538879.5199999996}},{"attributes":{"ID":630211,"DIS_CODE":0,"TOWNNAME":"仁德區","LI":"成功里","LIN":"20鄰","STREET":"保生路","SECT":" ","MAREA":" ","LANE":" ","ALLEY":" ","HOUSE_NO":"１１９號","E_COORD97":170629.13,"N_COORD97":2539810.5,"ADDRESS":"保生路１１９號","OBJECTID":630184},"geometry":{"x":170629.12999999989,"y":2539810.5000000019}},{"attributes":{"ID":630212,"DIS_CODE":0,"TOWNNAME":"仁德區","LI":"成功里","LIN":"26鄰","STREET":"成功一街","SECT":" ","MAREA":" ","LANE":" ","ALLEY":" ","HOUSE_NO":"３６號","E_COORD97":170524.87,"N_COORD97":2540052.7599999998,"ADDRESS":"成功一街３６號","OBJECTID":630185},"geometry":{"x":170524.87000000197,"y":2540052.7600000016}},{"attributes":{"ID":630213,"DIS_CODE":0,"TOWNNAME":"仁德區","LI":"後壁里","LIN":"34鄰","STREET":"德洋二街","SECT":" ","MAREA":" ","LANE":" ","ALLEY":" ","HOUSE_NO":"３號","E_COORD97":172510.79000000001,"N_COORD97":2539384.02,"ADDRESS":"德洋二街３號","OBJECTID":630186},"geometry":{"x":172510.79000000097,"y":2539384.0199999996}},{"attributes":{"ID":630214,"DIS_CODE":0,"TOWNNAME":"仁德區","LI":"新田里","LIN":"4鄰","STREET":"勝利路","SECT":" ","MAREA":" ","LANE":" ","ALLEY":" ","HOUSE_NO":"１８２號","E_COORD97":174481.62,"N_COORD97":2539517.5,"ADDRESS":"勝利路１８２號","OBJECTID":630187},"geometry":{"x":174481.62000000104,"y":2539517.5}},{"attributes":{"ID":630215,"DIS_CODE":0,"TOWNNAME":"仁德區","LI":"新田里","LIN":"4鄰","STREET":"勝利路","SECT":" ","MAREA":" ","LANE":" ","ALLEY":" ","HOUSE_NO":"１７６號","E_COORD97":174462.87,"N_COORD97":2539526,"ADDRESS":"勝利路１７６號","OBJECTID":630188},"geometry":{"x":174462.87000000197,"y":2539526.0000000019}},{"attributes":{"ID":630216,"DIS_CODE":0,"TOWNNAME":"仁德區","LI":"後壁里","LIN":"18鄰","STREET":"中正路","SECT":"二段","MAREA":" ","LANE":" ","ALLEY":" ","HOUSE_NO":"２１０號","E_COORD97":173233.69,"N_COORD97":2538765.5299999998,"ADDRESS":"中正路二段２１０號","OBJECTID":630189},"geometry":{"x":173233.69000000227,"y":2538765.5300000012}},{"attributes":{"ID":630217,"DIS_CODE":0,"TOWNNAME":"仁德區","LI":"成功里","LIN":"20鄰","STREET":"保生路","SECT":" ","MAREA":" ","LANE":" ","ALLEY":" ","HOUSE_NO":"１２１號","E_COORD97":170625.64000000001,"N_COORD97":2539812,"ADDRESS":"保生路１２１號","OBJECTID":630190},"geometry":{"x":170625.63999999966,"y":2539812}},{"attributes":{"ID":630218,"DIS_CODE":0,"TOWNNAME":"仁德區","LI":"新田里","LIN":"4鄰","STREET":"勝利路","SECT":" ","MAREA":" ","LANE":" ","ALLEY":" ","HOUSE_NO":"２２１號","E_COORD97":174568.79000000001,"N_COORD97":2539515.0099999998,"ADDRESS":"勝利路２２１號","OBJECTID":630191},"geometry":{"x":174568.79000000097,"y":2539515.0100000035}},{"attributes":{"ID":630219,"DIS_CODE":0,"TOWNNAME":"仁德區","LI":"後壁里","LIN":"1鄰","STREET":"民安路","SECT":"二段","MAREA":" ","LANE":" ","ALLEY":" ","HOUSE_NO":"６號","E_COORD97":173312.26000000001,"N_COORD97":2539294.5699999998,"ADDRESS":"民安路二段６號","OBJECTID":630192},"geometry":{"x":173312.26000000164,"y":2539294.570000004}},{"attributes":{"ID":630220,"DIS_CODE":0,"TOWNNAME":"仁德區","LI":"新田里","LIN":"4鄰","STREET":"勝利路","SECT":" ","MAREA":" ","LANE":" ","ALLEY":" ","HOUSE_NO":"２２３號","E_COORD97":174593.92000000001,"N_COORD97":2539528.25,"ADDRESS":"勝利路２２３號","OBJECTID":630193},"geometry":{"x":174593.91999999993,"y":2539528.2500000019}},{"attributes":{"ID":630221,"DIS_CODE":0,"TOWNNAME":"仁德區","LI":"新田里","LIN":"18鄰","STREET":"民安路","SECT":"二段","MAREA":" ","LANE":" ","ALLEY":" ","HOUSE_NO":"２０５號","E_COORD97":173769.81,"N_COORD97":2538982.8199999998,"ADDRESS":"民安路二段２０５號","OBJECTID":630194},"geometry":{"x":173769.81000000052,"y":2538982.8200000003}},{"attributes":{"ID":630222,"DIS_CODE":0,"TOWNNAME":"仁德區","LI":"成功里","LIN":"32鄰","STREET":"成功一街","SECT":" ","MAREA":" ","LANE":" ","ALLEY":" ","HOUSE_NO":"３３號","E_COORD97":170537.64999999999,"N_COORD97":2540129.52,"ADDRESS":"成功一街３３號","OBJECTID":630195},"geometry":{"x":170537.65000000037,"y":2540129.5200000014}},{"attributes":{"ID":630223,"DIS_CODE":0,"TOWNNAME":"仁德區","LI":"新田里","LIN":"4鄰","STREET":"勝利路","SECT":" ","MAREA":" ","LANE":" ","ALLEY":" ","HOUSE_NO":"２０６號","E_COORD97":174547.89999999999,"N_COORD97":2539493.5099999998,"ADDRESS":"勝利路２０６號","OBJECTID":630196},"geometry":{"x":174547.9000000013,"y":2539493.5099999998}},{"attributes":{"ID":630224,"DIS_CODE":0,"TOWNNAME":"仁德區","LI":"後壁里","LIN":"5鄰","STREET":"德善一街","SECT":" ","MAREA":" ","LANE":" ","ALLEY":" ","HOUSE_NO":"１４號","E_COORD97":173398.29000000001,"N_COORD97":2538925.7599999998,"ADDRESS":"德善一街１４號","OBJECTID":630197},"geometry":{"x":173398.29000000004,"y":2538925.7599999998}},{"attributes":{"ID":630225,"DIS_CODE":0,"TOWNNAME":"仁德區","LI":"新田里","LIN":"18鄰","STREET":"民安路","SECT":"二段","MAREA":" ","LANE":" ","ALLEY":" ","HOUSE_NO":"２０１號","E_COORD97":173763.92999999999,"N_COORD97":2538988.0699999998,"ADDRESS":"民安路二段２０１號","OBJECTID":630198},"geometry":{"x":173763.93000000063,"y":2538988.0700000003}},{"attributes":{"ID":630226,"DIS_CODE":0,"TOWNNAME":"仁德區","LI":"成功里","LIN":"20鄰","STREET":"保生路","SECT":" ","MAREA":" ","LANE":" ","ALLEY":" ","HOUSE_NO":"１１８號","E_COORD97":170611.45000000001,"N_COORD97":2539853.4900000002,"ADDRESS":"保生路１１８號","OBJECTID":630199},"geometry":{"x":170611.45000000112,"y":2539853.4900000002}},{"attributes":{"ID":630227,"DIS_CODE":0,"TOWNNAME":"仁德區","LI":"新田里","LIN":"4鄰","STREET":"勝利路","SECT":" ","MAREA":" ","LANE":" ","ALLEY":" ","HOUSE_NO":"２２９號","E_COORD97":174725.06,"N_COORD97":2539572.0099999998,"ADDRESS":"勝利路２２９號","OBJECTID":630200},"geometry":{"x":174725.05999999959,"y":2539572.0099999998}}]}