{"displayFieldName":"TOWNNAME","fieldAliases":{"ID":"ID","DIS_CODE":"DIS_CODE","TOWNNAME":"TOWNNAME","LI":"LI","LIN":"LIN","STREET":"STREET","SECT":"SECT","MAREA":"MAREA","LANE":"LANE","ALLEY":"ALLEY","HOUSE_NO":"HOUSE_NO","E_COORD97":"E_COORD97","N_COORD97":"N_COORD97","ADDRESS":"ADDRESS","OBJECTID":"OBJECTID"},"geometryType":"esriGeometryPoint","spatialReference":{"wkid":102443,"latestWkid":3826},"fields":[{"name":"ID","type":"esriFieldTypeDouble","alias":"ID"},{"name":"DIS_CODE","type":"esriFieldTypeInteger","alias":"DIS_CODE"},{"name":"TOWNNAME","type":"esriFieldTypeString","alias":"TOWNNAME","length":8},{"name":"LI","type":"esriFieldTypeString","alias":"LI","length":8},{"name":"LIN","type":"esriFieldTypeString","alias":"LIN","length":12},{"name":"STREET","type":"esriFieldTypeString","alias":"STREET","length":20},{"name":"SECT","type":"esriFieldTypeString","alias":"SECT","length":8},{"name":"MAREA","type":"esriFieldTypeString","alias":"MAREA","length":12},{"name":"LANE","type":"esriFieldTypeString","alias":"LANE","length":10},{"name":"ALLEY","type":"esriFieldTypeString","alias":"ALLEY","length":10},{"name":"HOUSE_NO","type":"esriFieldTypeString","alias":"HOUSE_NO","length":20},{"name":"E_COORD97","type":"esriFieldTypeDouble","alias":"E_COORD97"},{"name":"N_COORD97","type":"esriFieldTypeDouble","alias":"N_COORD97"},{"name":"ADDRESS","type":"esriFieldTypeString","alias":"ADDRESS","length":50},{"name":"OBJECTID","type":"esriFieldTypeOID","alias":"OBJECTID"}],"features":[{"attributes":{"ID":339810,"DIS_CODE":0,"TOWNNAME":"北區","LI":"光武里","LIN":"15鄰","STREET":"北門路","SECT":"二段","MAREA":" ","LANE":"５７７巷","ALLEY":" ","HOUSE_NO":"２８號","E_COORD97":169546.95000000001,"N_COORD97":2545801.0699999998,"ADDRESS":"北門路二段５７７巷２８號","OBJECTID":339801},"geometry":{"x":169546.95000000112,"y":2545801.0700000022}},{"attributes":{"ID":339811,"DIS_CODE":0,"TOWNNAME":"北區","LI":"成德里","LIN":"1鄰","STREET":"西門路","SECT":"四段","MAREA":" ","LANE":"７巷","ALLEY":" ","HOUSE_NO":"８５號","E_COORD97":168372.29000000001,"N_COORD97":2545332.0499999998,"ADDRESS":"西門路四段７巷８５號","OBJECTID":339802},"geometry":{"x":168372.28999999911,"y":2545332.0500000007}},{"attributes":{"ID":339812,"DIS_CODE":0,"TOWNNAME":"北區","LI":"成德里","LIN":"1鄰","STREET":"西門路","SECT":"四段","MAREA":" ","LANE":"７巷","ALLEY":" ","HOUSE_NO":"８７號","E_COORD97":168368.64000000001,"N_COORD97":2545334.7000000002,"ADDRESS":"西門路四段７巷８７號","OBJECTID":339803},"geometry":{"x":168368.6400000006,"y":2545334.7000000011}},{"attributes":{"ID":339813,"DIS_CODE":0,"TOWNNAME":"中西區","LI":"藥王里","LIN":"5鄰","STREET":"大福街","SECT":" ","MAREA":" ","LANE":"３巷","ALLEY":" ","HOUSE_NO":"６號","E_COORD97":167281.64999999999,"N_COORD97":2544349.2599999998,"ADDRESS":"大福街３巷６號","OBJECTID":339804},"geometry":{"x":167281.65000000037,"y":2544349.2600000016}},{"attributes":{"ID":339814,"DIS_CODE":0,"TOWNNAME":"中西區","LI":"藥王里","LIN":"5鄰","STREET":"大福街","SECT":" ","MAREA":" ","LANE":"３巷","ALLEY":" ","HOUSE_NO":"８號","E_COORD97":167277,"N_COORD97":2544349.9100000001,"ADDRESS":"大福街３巷８號","OBJECTID":339805},"geometry":{"x":167277,"y":2544349.9100000001}},{"attributes":{"ID":339815,"DIS_CODE":0,"TOWNNAME":"永康區","LI":"神洲里","LIN":"5鄰","STREET":"忠孝路","SECT":" ","MAREA":" ","LANE":"４４巷","ALLEY":" ","HOUSE_NO":"１８號","E_COORD97":172163.76999999999,"N_COORD97":2544727.2400000002,"ADDRESS":"忠孝路４４巷１８號","OBJECTID":339806},"geometry":{"x":172163.76999999955,"y":2544727.2400000002}},{"attributes":{"ID":339816,"DIS_CODE":0,"TOWNNAME":"永康區","LI":"復國里","LIN":"5鄰","STREET":"復國二路","SECT":" ","MAREA":" ","LANE":"４０巷","ALLEY":" ","HOUSE_NO":"１１號","E_COORD97":172867.57000000001,"N_COORD97":2544995.5299999998,"ADDRESS":"復國二路４０巷１１號","OBJECTID":339807},"geometry":{"x":172867.5700000003,"y":2544995.5299999993}},{"attributes":{"ID":339817,"DIS_CODE":0,"TOWNNAME":"永康區","LI":"神洲里","LIN":"5鄰","STREET":"忠孝路","SECT":" ","MAREA":" ","LANE":"４４巷","ALLEY":" ","HOUSE_NO":"６號","E_COORD97":172114.70000000001,"N_COORD97":2544725.2400000002,"ADDRESS":"忠孝路４４巷６號","OBJECTID":339808},"geometry":{"x":172114.70000000112,"y":2544725.2400000021}},{"attributes":{"ID":339818,"DIS_CODE":0,"TOWNNAME":"北區","LI":"成德里","LIN":"1鄰","STREET":"西門路","SECT":"四段","MAREA":" ","LANE":"７巷","ALLEY":" ","HOUSE_NO":"８９號","E_COORD97":168365.32000000001,"N_COORD97":2545336.8599999999,"ADDRESS":"西門路四段７巷８９號","OBJECTID":339809},"geometry":{"x":168365.3200000003,"y":2545336.8600000031}},{"attributes":{"ID":339819,"DIS_CODE":0,"TOWNNAME":"北區","LI":"成德里","LIN":"1鄰","STREET":"西門路","SECT":"四段","MAREA":" ","LANE":"７巷","ALLEY":" ","HOUSE_NO":"９１號","E_COORD97":168359.85000000001,"N_COORD97":2545338.8500000001,"ADDRESS":"西門路四段７巷９１號","OBJECTID":339810},"geometry":{"x":168359.85000000056,"y":2545338.8499999996}},{"attributes":{"ID":339820,"DIS_CODE":0,"TOWNNAME":"北區","LI":"成德里","LIN":"1鄰","STREET":"西門路","SECT":"四段","MAREA":" ","LANE":"７巷","ALLEY":" ","HOUSE_NO":"９３號","E_COORD97":168357.20000000001,"N_COORD97":2545342.1600000001,"ADDRESS":"西門路四段７巷９３號","OBJECTID":339811},"geometry":{"x":168357.20000000019,"y":2545342.1600000039}},{"attributes":{"ID":339821,"DIS_CODE":0,"TOWNNAME":"北區","LI":"成德里","LIN":"1鄰","STREET":"西門路","SECT":"四段","MAREA":" ","LANE":"７巷","ALLEY":" ","HOUSE_NO":"９５號","E_COORD97":168353.04999999999,"N_COORD97":2545343.98,"ADDRESS":"西門路四段７巷９５號","OBJECTID":339812},"geometry":{"x":168353.04999999981,"y":2545343.9800000042}},{"attributes":{"ID":339822,"DIS_CODE":0,"TOWNNAME":"北區","LI":"成德里","LIN":"1鄰","STREET":"西門路","SECT":"四段","MAREA":" ","LANE":"７巷","ALLEY":" ","HOUSE_NO":"９７號","E_COORD97":168349.57000000001,"N_COORD97":2545346.6299999999,"ADDRESS":"西門路四段７巷９７號","OBJECTID":339813},"geometry":{"x":168349.57000000123,"y":2545346.629999999}},{"attributes":{"ID":339823,"DIS_CODE":0,"TOWNNAME":"北區","LI":"成德里","LIN":"1鄰","STREET":"西門路","SECT":"四段","MAREA":" ","LANE":"７巷","ALLEY":" ","HOUSE_NO":"９９號","E_COORD97":168346.25,"N_COORD97":2545350.1099999999,"ADDRESS":"西門路四段７巷９９號","OBJECTID":339814},"geometry":{"x":168346.25000000093,"y":2545350.1100000013}},{"attributes":{"ID":339824,"DIS_CODE":0,"TOWNNAME":"北區","LI":"成德里","LIN":"1鄰","STREET":"民德路","SECT":" ","MAREA":" ","LANE":"５８巷","ALLEY":" ","HOUSE_NO":"５８號","E_COORD97":168322.26999999999,"N_COORD97":2545362.04,"ADDRESS":"民德路５８巷５８號","OBJECTID":339815},"geometry":{"x":168322.26999999955,"y":2545362.0399999972}},{"attributes":{"ID":339825,"DIS_CODE":0,"TOWNNAME":"北區","LI":"成德里","LIN":"1鄰","STREET":"民德路","SECT":" ","MAREA":" ","LANE":"５８巷","ALLEY":" ","HOUSE_NO":"６２號","E_COORD97":168328.57000000001,"N_COORD97":2545370.1400000001,"ADDRESS":"民德路５８巷６２號","OBJECTID":339816},"geometry":{"x":168328.57000000123,"y":2545370.1400000043}},{"attributes":{"ID":339826,"DIS_CODE":0,"TOWNNAME":"北區","LI":"大山里","LIN":"1鄰","STREET":"精忠街","SECT":" ","MAREA":" ","LANE":"２５巷","ALLEY":" ","HOUSE_NO":"４４號","E_COORD97":169454.17000000001,"N_COORD97":2545398.0899999999,"ADDRESS":"精忠街２５巷４４號","OBJECTID":339817},"geometry":{"x":169454.16999999993,"y":2545398.0900000017}},{"attributes":{"ID":339827,"DIS_CODE":0,"TOWNNAME":"北區","LI":"大山里","LIN":"1鄰","STREET":"精忠街","SECT":" ","MAREA":" ","LANE":"２５巷","ALLEY":" ","HOUSE_NO":"５１號","E_COORD97":169458.82999999999,"N_COORD97":2545408.5800000001,"ADDRESS":"精忠街２５巷５１號","OBJECTID":339818},"geometry":{"x":169458.83000000194,"y":2545408.5800000019}},{"attributes":{"ID":339828,"DIS_CODE":0,"TOWNNAME":"安南區","LI":"國安里","LIN":"8鄰","STREET":"郡安路","SECT":"六段","MAREA":" ","LANE":" ","ALLEY":" ","HOUSE_NO":"１０９號","E_COORD97":166472.26999999999,"N_COORD97":2547520.4399999999,"ADDRESS":"郡安路六段１０９號","OBJECTID":339819},"geometry":{"x":166472.27000000048,"y":2547520.4400000013}},{"attributes":{"ID":339829,"DIS_CODE":0,"TOWNNAME":"安南區","LI":"國安里","LIN":"8鄰","STREET":"郡安路","SECT":"六段","MAREA":" ","LANE":" ","ALLEY":" ","HOUSE_NO":"１１０號","E_COORD97":166468.82999999999,"N_COORD97":2547512.5,"ADDRESS":"郡安路六段１１０號","OBJECTID":339820},"geometry":{"x":166468.83000000101,"y":2547512.5}},{"attributes":{"ID":339830,"DIS_CODE":0,"TOWNNAME":"安南區","LI":"國安里","LIN":"8鄰","STREET":"郡安路","SECT":"六段","MAREA":" ","LANE":" ","ALLEY":" ","HOUSE_NO":"７６號","E_COORD97":166608.45999999999,"N_COORD97":2547549.04,"ADDRESS":"郡安路六段７６號","OBJECTID":339821},"geometry":{"x":166608.46000000089,"y":2547549.0400000028}},{"attributes":{"ID":339831,"DIS_CODE":0,"TOWNNAME":"安南區","LI":"國安里","LIN":"8鄰","STREET":"郡安路","SECT":"六段","MAREA":" ","LANE":" ","ALLEY":" ","HOUSE_NO":"９７號","E_COORD97":166528.70000000001,"N_COORD97":2547531.7400000002,"ADDRESS":"郡安路六段９７號","OBJECTID":339822},"geometry":{"x":166528.69999999925,"y":2547531.7399999984}},{"attributes":{"ID":339832,"DIS_CODE":0,"TOWNNAME":"安南區","LI":"國安里","LIN":"8鄰","STREET":"郡安路","SECT":"六段","MAREA":" ","LANE":" ","ALLEY":" ","HOUSE_NO":"９８號","E_COORD97":166524.29000000001,"N_COORD97":2547528.96,"ADDRESS":"郡安路六段９８號","OBJECTID":339823},"geometry":{"x":166524.29000000004,"y":2547528.9600000028}},{"attributes":{"ID":339833,"DIS_CODE":0,"TOWNNAME":"北區","LI":"大山里","LIN":"1鄰","STREET":"精忠街","SECT":" ","MAREA":" ","LANE":"２５巷","ALLEY":" ","HOUSE_NO":"５２號","E_COORD97":169464.38,"N_COORD97":2545405.25,"ADDRESS":"精忠街２５巷５２號","OBJECTID":339824},"geometry":{"x":169464.37999999989,"y":2545405.25}},{"attributes":{"ID":339834,"DIS_CODE":0,"TOWNNAME":"北區","LI":"大山里","LIN":"1鄰","STREET":"精忠街","SECT":" ","MAREA":" ","LANE":"２５巷","ALLEY":" ","HOUSE_NO":"５３號","E_COORD97":169467.41,"N_COORD97":2545406.5800000001,"ADDRESS":"精忠街２５巷５３號","OBJECTID":339825},"geometry":{"x":169467.41000000108,"y":2545406.5800000001}},{"attributes":{"ID":339835,"DIS_CODE":0,"TOWNNAME":"北區","LI":"大山里","LIN":"1鄰","STREET":"精忠街","SECT":" ","MAREA":" ","LANE":"２５巷","ALLEY":" ","HOUSE_NO":"５４號","E_COORD97":169470.59,"N_COORD97":2545409.3900000001,"ADDRESS":"精忠街２５巷５４號","OBJECTID":339826},"geometry":{"x":169470.59000000078,"y":2545409.3900000025}},{"attributes":{"ID":339836,"DIS_CODE":0,"TOWNNAME":"北區","LI":"大山里","LIN":"1鄰","STREET":"精忠街","SECT":" ","MAREA":" ","LANE":"２５巷","ALLEY":" ","HOUSE_NO":"５５號","E_COORD97":169474.57999999999,"N_COORD97":2545410.0600000001,"ADDRESS":"精忠街２５巷５５號","OBJECTID":339827},"geometry":{"x":169474.58000000101,"y":2545410.0600000005}},{"attributes":{"ID":339837,"DIS_CODE":0,"TOWNNAME":"北區","LI":"大山里","LIN":"1鄰","STREET":"精忠街","SECT":" ","MAREA":" ","LANE":"２５巷","ALLEY":" ","HOUSE_NO":"５７號","E_COORD97":169479.39999999999,"N_COORD97":2545407.7400000002,"ADDRESS":"精忠街２５巷５７號","OBJECTID":339828},"geometry":{"x":169479.4000000013,"y":2545407.7400000021}},{"attributes":{"ID":339838,"DIS_CODE":0,"TOWNNAME":"北區","LI":"大山里","LIN":"1鄰","STREET":"精忠街","SECT":" ","MAREA":" ","LANE":"２５巷","ALLEY":" ","HOUSE_NO":"５８號","E_COORD97":169482.42999999999,"N_COORD97":2545407.3900000001,"ADDRESS":"精忠街２５巷５８號","OBJECTID":339829},"geometry":{"x":169482.4299999997,"y":2545407.3900000006}},{"attributes":{"ID":339839,"DIS_CODE":0,"TOWNNAME":"北區","LI":"大山里","LIN":"1鄰","STREET":"精忠街","SECT":" ","MAREA":" ","LANE":"２５巷","ALLEY":" ","HOUSE_NO":"５９號","E_COORD97":169486.04000000001,"N_COORD97":2545407.3199999998,"ADDRESS":"精忠街２５巷５９號","OBJECTID":339830},"geometry":{"x":169486.03999999911,"y":2545407.3200000022}},{"attributes":{"ID":339840,"DIS_CODE":0,"TOWNNAME":"北區","LI":"大山里","LIN":"1鄰","STREET":"精忠街","SECT":" ","MAREA":" ","LANE":"２５巷","ALLEY":" ","HOUSE_NO":"５號","E_COORD97":169475.67999999999,"N_COORD97":2545441.48,"ADDRESS":"精忠街２５巷５號","OBJECTID":339831},"geometry":{"x":169475.6799999997,"y":2545441.4800000004}},{"attributes":{"ID":339841,"DIS_CODE":0,"TOWNNAME":"北區","LI":"大山里","LIN":"1鄰","STREET":"精忠街","SECT":" ","MAREA":" ","LANE":"２５巷","ALLEY":" ","HOUSE_NO":"６０號","E_COORD97":169490.04999999999,"N_COORD97":2545408.7999999998,"ADDRESS":"精忠街２５巷６０號","OBJECTID":339832},"geometry":{"x":169490.05000000075,"y":2545408.8000000007}},{"attributes":{"ID":339842,"DIS_CODE":0,"TOWNNAME":"北區","LI":"大山里","LIN":"1鄰","STREET":"精忠街","SECT":" ","MAREA":" ","LANE":"２５巷","ALLEY":" ","HOUSE_NO":"６１號","E_COORD97":169493.57999999999,"N_COORD97":2545410.3500000001,"ADDRESS":"精忠街２５巷６１號","OBJECTID":339833},"geometry":{"x":169493.58000000007,"y":2545410.3499999996}},{"attributes":{"ID":339843,"DIS_CODE":0,"TOWNNAME":"北區","LI":"大山里","LIN":"1鄰","STREET":"精忠街","SECT":" ","MAREA":" ","LANE":"２５巷","ALLEY":" ","HOUSE_NO":"６號","E_COORD97":169472.14999999999,"N_COORD97":2545442.1099999999,"ADDRESS":"精忠街２５巷６號","OBJECTID":339834},"geometry":{"x":169472.15000000224,"y":2545442.1099999994}},{"attributes":{"ID":339844,"DIS_CODE":0,"TOWNNAME":"北區","LI":"大山里","LIN":"1鄰","STREET":"精忠街","SECT":" ","MAREA":" ","LANE":"２５巷","ALLEY":" ","HOUSE_NO":"７號","E_COORD97":169468.98000000001,"N_COORD97":2545442.8199999998,"ADDRESS":"精忠街２５巷７號","OBJECTID":339835},"geometry":{"x":169468.98000000138,"y":2545442.8199999984}},{"attributes":{"ID":339845,"DIS_CODE":0,"TOWNNAME":"北區","LI":"大山里","LIN":"1鄰","STREET":"精忠街","SECT":" ","MAREA":" ","LANE":"２５巷","ALLEY":" ","HOUSE_NO":"８號","E_COORD97":169465.79999999999,"N_COORD97":2545443.52,"ADDRESS":"精忠街２５巷８號","OBJECTID":339836},"geometry":{"x":169465.80000000075,"y":2545443.5199999996}},{"attributes":{"ID":339846,"DIS_CODE":0,"TOWNNAME":"北區","LI":"大山里","LIN":"1鄰","STREET":"精忠街","SECT":" ","MAREA":" ","LANE":"２５巷","ALLEY":" ","HOUSE_NO":"９號","E_COORD97":169463.04999999999,"N_COORD97":2545444.0899999999,"ADDRESS":"精忠街２５巷９號","OBJECTID":339837},"geometry":{"x":169463.04999999981,"y":2545444.0900000036}},{"attributes":{"ID":339847,"DIS_CODE":0,"TOWNNAME":"安平區","LI":"海頭里","LIN":"1鄰","STREET":"延平街","SECT":" ","MAREA":" ","LANE":"１０４巷","ALLEY":" ","HOUSE_NO":"２號","E_COORD97":164160.62,"N_COORD97":2544628,"ADDRESS":"延平街１０４巷２號","OBJECTID":339838},"geometry":{"x":164160.62000000011,"y":2544628.0000000037}},{"attributes":{"ID":339848,"DIS_CODE":0,"TOWNNAME":"安平區","LI":"海頭里","LIN":"1鄰","STREET":"延平街","SECT":" ","MAREA":" ","LANE":"１０４巷","ALLEY":" ","HOUSE_NO":"４號","E_COORD97":164164.91,"N_COORD97":2544632.2999999998,"ADDRESS":"延平街１０４巷４號","OBJECTID":339839},"geometry":{"x":164164.91000000108,"y":2544632.3000000007}},{"attributes":{"ID":339849,"DIS_CODE":0,"TOWNNAME":"安平區","LI":"海頭里","LIN":"1鄰","STREET":"延平街","SECT":" ","MAREA":" ","LANE":"１０４巷","ALLEY":" ","HOUSE_NO":"６號","E_COORD97":164166.85000000001,"N_COORD97":2544645.4199999999,"ADDRESS":"延平街１０４巷６號","OBJECTID":339840},"geometry":{"x":164166.84999999963,"y":2544645.4200000037}},{"attributes":{"ID":339850,"DIS_CODE":0,"TOWNNAME":"北區","LI":" ","LIN":" ","STREET":"北門路","SECT":"二段","MAREA":" ","LANE":"５７７巷","ALLEY":" ","HOUSE_NO":"７號","E_COORD97":169642.98999999999,"N_COORD97":2545710.02,"ADDRESS":"北門路二段５７７巷７號","OBJECTID":339841},"geometry":{"x":169642.99000000115,"y":2545710.0200000014}},{"attributes":{"ID":339851,"DIS_CODE":0,"TOWNNAME":"安平區","LI":"海頭里","LIN":"1鄰","STREET":"延平街","SECT":" ","MAREA":" ","LANE":"１０４巷","ALLEY":" ","HOUSE_NO":"８號","E_COORD97":164179.91,"N_COORD97":2544644,"ADDRESS":"延平街１０４巷８號","OBJECTID":339842},"geometry":{"x":164179.91000000108,"y":2544644}},{"attributes":{"ID":339852,"DIS_CODE":0,"TOWNNAME":"北區","LI":"大和里","LIN":"1鄰","STREET":"文賢路","SECT":" ","MAREA":" ","LANE":"６０９巷","ALLEY":" ","HOUSE_NO":"１０號","E_COORD97":167310.25,"N_COORD97":2545934.54,"ADDRESS":"文賢路６０９巷１０號","OBJECTID":339843},"geometry":{"x":167310.25000000093,"y":2545934.5399999991}},{"attributes":{"ID":339853,"DIS_CODE":0,"TOWNNAME":"北區","LI":"大和里","LIN":"1鄰","STREET":"文賢路","SECT":" ","MAREA":" ","LANE":"６０９巷","ALLEY":" ","HOUSE_NO":"１１號","E_COORD97":167306.48000000001,"N_COORD97":2545921.8300000001,"ADDRESS":"文賢路６０９巷１１號","OBJECTID":339844},"geometry":{"x":167306.48000000045,"y":2545921.8300000019}},{"attributes":{"ID":339854,"DIS_CODE":0,"TOWNNAME":"北區","LI":"大和里","LIN":"1鄰","STREET":"文賢路","SECT":" ","MAREA":" ","LANE":"６０９巷","ALLEY":" ","HOUSE_NO":"１２號","E_COORD97":167305.95999999999,"N_COORD97":2545934.3999999999,"ADDRESS":"文賢路６０９巷１２號","OBJECTID":339845},"geometry":{"x":167305.95999999996,"y":2545934.4000000022}},{"attributes":{"ID":339855,"DIS_CODE":0,"TOWNNAME":"北區","LI":"大和里","LIN":"1鄰","STREET":"文賢路","SECT":" ","MAREA":" ","LANE":"６０９巷","ALLEY":" ","HOUSE_NO":"１３號","E_COORD97":167301.48000000001,"N_COORD97":2545921.9700000002,"ADDRESS":"文賢路６０９巷１３號","OBJECTID":339846},"geometry":{"x":167301.48000000045,"y":2545921.9700000025}},{"attributes":{"ID":339856,"DIS_CODE":0,"TOWNNAME":"北區","LI":"大和里","LIN":"1鄰","STREET":"文賢路","SECT":" ","MAREA":" ","LANE":"６０９巷","ALLEY":" ","HOUSE_NO":"１４號","E_COORD97":167300.98000000001,"N_COORD97":2545934.54,"ADDRESS":"文賢路６０９巷１４號","OBJECTID":339847},"geometry":{"x":167300.98000000138,"y":2545934.5399999991}},{"attributes":{"ID":339857,"DIS_CODE":0,"TOWNNAME":"北區","LI":"大和里","LIN":"1鄰","STREET":"文賢路","SECT":" ","MAREA":" ","LANE":"６０９巷","ALLEY":" ","HOUSE_NO":"１５號","E_COORD97":167297.54999999999,"N_COORD97":2545921.9700000002,"ADDRESS":"文賢路６０９巷１５號","OBJECTID":339848},"geometry":{"x":167297.55000000075,"y":2545921.9700000025}},{"attributes":{"ID":339858,"DIS_CODE":0,"TOWNNAME":"北區","LI":"大和里","LIN":"1鄰","STREET":"文賢路","SECT":" ","MAREA":" ","LANE":"６０９巷","ALLEY":" ","HOUSE_NO":"１６號","E_COORD97":167297.25,"N_COORD97":2545934.3300000001,"ADDRESS":"文賢路６０９巷１６號","OBJECTID":339849},"geometry":{"x":167297.25,"y":2545934.3300000038}},{"attributes":{"ID":339859,"DIS_CODE":0,"TOWNNAME":"北區","LI":"大和里","LIN":"1鄰","STREET":"文賢路","SECT":" ","MAREA":" ","LANE":"６０９巷","ALLEY":" ","HOUSE_NO":"１７號","E_COORD97":167292.91,"N_COORD97":2545921.48,"ADDRESS":"文賢路６０９巷１７號","OBJECTID":339850},"geometry":{"x":167292.91000000015,"y":2545921.4800000023}},{"attributes":{"ID":339860,"DIS_CODE":0,"TOWNNAME":"北區","LI":"大和里","LIN":"1鄰","STREET":"文賢路","SECT":" ","MAREA":" ","LANE":"６０９巷","ALLEY":" ","HOUSE_NO":"１８號","E_COORD97":167292.20000000001,"N_COORD97":2545934.0499999998,"ADDRESS":"文賢路６０９巷１８號","OBJECTID":339851},"geometry":{"x":167292.20000000112,"y":2545934.0500000026}},{"attributes":{"ID":339861,"DIS_CODE":0,"TOWNNAME":"北區","LI":"大和里","LIN":"1鄰","STREET":"文賢路","SECT":" ","MAREA":" ","LANE":"６０９巷","ALLEY":" ","HOUSE_NO":"１９號","E_COORD97":167288.47,"N_COORD97":2545921.1200000001,"ADDRESS":"文賢路６０９巷１９號","OBJECTID":339852},"geometry":{"x":167288.47000000067,"y":2545921.1200000029}},{"attributes":{"ID":339862,"DIS_CODE":0,"TOWNNAME":"後壁區","LI":"竹新里","LIN":"5鄰","STREET":" ","SECT":" ","MAREA":"竹圍後","LANE":" ","ALLEY":" ","HOUSE_NO":"４５號","E_COORD97":178409.51999999999,"N_COORD97":2582426.6800000002,"ADDRESS":"竹圍後４５號","OBJECTID":339853},"geometry":{"x":178409.52000000048,"y":2582426.6800000016}},{"attributes":{"ID":339863,"DIS_CODE":0,"TOWNNAME":"白河區","LI":"秀祐里","LIN":"5鄰","STREET":"中正路","SECT":" ","MAREA":" ","LANE":"７３１巷","ALLEY":" ","HOUSE_NO":"５號","E_COORD97":188691.76999999999,"N_COORD97":2582923.5899999999,"ADDRESS":"中正路７３１巷５號","OBJECTID":339854},"geometry":{"x":188691.76999999955,"y":2582923.5899999999}},{"attributes":{"ID":339864,"DIS_CODE":0,"TOWNNAME":"白河區","LI":"秀祐里","LIN":"5鄰","STREET":"中正路","SECT":" ","MAREA":" ","LANE":"７３１巷","ALLEY":" ","HOUSE_NO":"７號","E_COORD97":188693.20000000001,"N_COORD97":2582919.3799999999,"ADDRESS":"中正路７３１巷７號","OBJECTID":339855},"geometry":{"x":188693.20000000019,"y":2582919.3800000008}},{"attributes":{"ID":339865,"DIS_CODE":0,"TOWNNAME":"白河區","LI":"秀祐里","LIN":"5鄰","STREET":"中正路","SECT":" ","MAREA":" ","LANE":"７３１巷","ALLEY":" ","HOUSE_NO":"９號","E_COORD97":188693.97,"N_COORD97":2582913.4900000002,"ADDRESS":"中正路７３１巷９號","OBJECTID":339856},"geometry":{"x":188693.96999999974,"y":2582913.4900000021}},{"attributes":{"ID":339866,"DIS_CODE":0,"TOWNNAME":"安南區","LI":"海西里","LIN":"5鄰","STREET":"海中街","SECT":" ","MAREA":" ","LANE":"１６９巷","ALLEY":" ","HOUSE_NO":"８９號","E_COORD97":166175.72,"N_COORD97":2549014.21,"ADDRESS":"海中街１６９巷８９號","OBJECTID":339857},"geometry":{"x":166175.7200000016,"y":2549014.209999999}},{"attributes":{"ID":339867,"DIS_CODE":0,"TOWNNAME":"安南區","LI":"淵西里","LIN":"5鄰","STREET":"安中路","SECT":"四段","MAREA":" ","LANE":"３２０巷","ALLEY":" ","HOUSE_NO":"１５１號","E_COORD97":164784.39000000001,"N_COORD97":2550346.4199999999,"ADDRESS":"安中路四段３２０巷１５１號","OBJECTID":339858},"geometry":{"x":164784.39000000153,"y":2550346.4199999999}},{"attributes":{"ID":339868,"DIS_CODE":0,"TOWNNAME":"安南區","LI":"淵西里","LIN":"5鄰","STREET":"安中路","SECT":"四段","MAREA":" ","LANE":"３２０巷","ALLEY":" ","HOUSE_NO":"１５９號","E_COORD97":164795.75,"N_COORD97":2550359.1299999999,"ADDRESS":"安中路四段３２０巷１５９號","OBJECTID":339859},"geometry":{"x":164795.75000000186,"y":2550359.1300000027}},{"attributes":{"ID":339869,"DIS_CODE":0,"TOWNNAME":"北區","LI":"大和里","LIN":"1鄰","STREET":"文賢路","SECT":" ","MAREA":" ","LANE":"６０９巷","ALLEY":" ","HOUSE_NO":"２０號","E_COORD97":167287.56,"N_COORD97":2545933.9100000001,"ADDRESS":"文賢路６０９巷２０號","OBJECTID":339860},"geometry":{"x":167287.56000000052,"y":2545933.9100000039}},{"attributes":{"ID":339870,"DIS_CODE":0,"TOWNNAME":"北區","LI":"大和里","LIN":"1鄰","STREET":"文賢路","SECT":" ","MAREA":" ","LANE":"６０９巷","ALLEY":" ","HOUSE_NO":"２１號","E_COORD97":167284.04999999999,"N_COORD97":2545921.2599999998,"ADDRESS":"文賢路６０９巷２１號","OBJECTID":339861},"geometry":{"x":167284.05000000075,"y":2545921.2600000016}},{"attributes":{"ID":339871,"DIS_CODE":0,"TOWNNAME":"北區","LI":"大和里","LIN":"1鄰","STREET":"文賢路","SECT":" ","MAREA":" ","LANE":"６０９巷","ALLEY":" ","HOUSE_NO":"２２號","E_COORD97":167283.35000000001,"N_COORD97":2545933.6299999999,"ADDRESS":"文賢路６０９巷２２號","OBJECTID":339862},"geometry":{"x":167283.35000000149,"y":2545933.629999999}},{"attributes":{"ID":339872,"DIS_CODE":0,"TOWNNAME":"北區","LI":"大和里","LIN":"1鄰","STREET":"文賢路","SECT":" ","MAREA":" ","LANE":"６０９巷","ALLEY":" ","HOUSE_NO":"２３號","E_COORD97":167279.28,"N_COORD97":2545920.5600000001,"ADDRESS":"文賢路６０９巷２３號","OBJECTID":339863},"geometry":{"x":167279.28000000212,"y":2545920.5600000024}},{"attributes":{"ID":339873,"DIS_CODE":0,"TOWNNAME":"北區","LI":"大和里","LIN":"1鄰","STREET":"文賢路","SECT":" ","MAREA":" ","LANE":"６０９巷","ALLEY":" ","HOUSE_NO":"２４號","E_COORD97":167278.22,"N_COORD97":2545933.6299999999,"ADDRESS":"文賢路６０９巷２４號","OBJECTID":339864},"geometry":{"x":167278.22000000067,"y":2545933.629999999}},{"attributes":{"ID":339874,"DIS_CODE":0,"TOWNNAME":"北區","LI":"大和里","LIN":"1鄰","STREET":"文賢路","SECT":" ","MAREA":" ","LANE":"６０９巷","ALLEY":" ","HOUSE_NO":"２號","E_COORD97":167328.51000000001,"N_COORD97":2545935.6600000001,"ADDRESS":"文賢路６０９巷２號","OBJECTID":339865},"geometry":{"x":167328.51000000071,"y":2545935.6600000039}},{"attributes":{"ID":339875,"DIS_CODE":0,"TOWNNAME":"北區","LI":"大和里","LIN":"1鄰","STREET":"文賢路","SECT":" ","MAREA":" ","LANE":"６０９巷","ALLEY":" ","HOUSE_NO":"３號","E_COORD97":167324.38,"N_COORD97":2545922.6000000001,"ADDRESS":"文賢路６０９巷３號","OBJECTID":339866},"geometry":{"x":167324.38000000082,"y":2545922.6000000015}},{"attributes":{"ID":339876,"DIS_CODE":0,"TOWNNAME":"北區","LI":"大和里","LIN":"1鄰","STREET":"文賢路","SECT":" ","MAREA":" ","LANE":"６０９巷","ALLEY":" ","HOUSE_NO":"４號","E_COORD97":167324.01000000001,"N_COORD97":2545935.5899999999,"ADDRESS":"文賢路６０９巷４號","OBJECTID":339867},"geometry":{"x":167324.00999999978,"y":2545935.5900000036}},{"attributes":{"ID":339877,"DIS_CODE":0,"TOWNNAME":"北區","LI":"大和里","LIN":"1鄰","STREET":"文賢路","SECT":" ","MAREA":" ","LANE":"６０９巷","ALLEY":" ","HOUSE_NO":"５號","E_COORD97":167319.67999999999,"N_COORD97":2545922.7400000002,"ADDRESS":"文賢路６０９巷５號","OBJECTID":339868},"geometry":{"x":167319.6799999997,"y":2545922.7400000021}},{"attributes":{"ID":339878,"DIS_CODE":0,"TOWNNAME":"北區","LI":"大和里","LIN":"1鄰","STREET":"文賢路","SECT":" ","MAREA":" ","LANE":"６０９巷","ALLEY":" ","HOUSE_NO":"６號","E_COORD97":167319.38,"N_COORD97":2545935.3799999999,"ADDRESS":"文賢路６０９巷６號","OBJECTID":339869},"geometry":{"x":167319.38000000082,"y":2545935.379999999}},{"attributes":{"ID":339879,"DIS_CODE":0,"TOWNNAME":"北區","LI":"大和里","LIN":"1鄰","STREET":"文賢路","SECT":" ","MAREA":" ","LANE":"６０９巷","ALLEY":" ","HOUSE_NO":"７號","E_COORD97":167315.54000000001,"N_COORD97":2545922.3199999998,"ADDRESS":"文賢路６０９巷７號","OBJECTID":339870},"geometry":{"x":167315.54000000004,"y":2545922.3200000022}},{"attributes":{"ID":339880,"DIS_CODE":0,"TOWNNAME":"北區","LI":"大和里","LIN":"1鄰","STREET":"文賢路","SECT":" ","MAREA":" ","LANE":"６０９巷","ALLEY":" ","HOUSE_NO":"８號","E_COORD97":167314.82000000001,"N_COORD97":2545935.0299999998,"ADDRESS":"文賢路６０９巷８號","OBJECTID":339871},"geometry":{"x":167314.82000000216,"y":2545935.0299999993}},{"attributes":{"ID":339881,"DIS_CODE":0,"TOWNNAME":"北區","LI":"大和里","LIN":"1鄰","STREET":"文賢路","SECT":" ","MAREA":" ","LANE":"６０９巷","ALLEY":" ","HOUSE_NO":"９號","E_COORD97":167311.04000000001,"N_COORD97":2545922.1800000002,"ADDRESS":"文賢路６０９巷９號","OBJECTID":339872},"geometry":{"x":167311.04000000004,"y":2545922.1800000016}},{"attributes":{"ID":339882,"DIS_CODE":0,"TOWNNAME":"歸仁區","LI":"南興里","LIN":"1鄰","STREET":"民生北街","SECT":" ","MAREA":" ","LANE":"１１２巷","ALLEY":" ","HOUSE_NO":"１７號","E_COORD97":176356.19,"N_COORD97":2541282.29,"ADDRESS":"民生北街１１２巷１７號","OBJECTID":339873},"geometry":{"x":176356.19000000227,"y":2541282.290000001}},{"attributes":{"ID":339883,"DIS_CODE":0,"TOWNNAME":"歸仁區","LI":"南保里","LIN":"1鄰","STREET":"民權北路","SECT":" ","MAREA":" ","LANE":"２６７巷","ALLEY":" ","HOUSE_NO":"１８號","E_COORD97":176935.59,"N_COORD97":2541503.29,"ADDRESS":"民權北路２６７巷１８號","OBJECTID":339874},"geometry":{"x":176935.58999999985,"y":2541503.290000001}},{"attributes":{"ID":339884,"DIS_CODE":0,"TOWNNAME":"歸仁區","LI":"媽廟里","LIN":"1鄰","STREET":"媽廟一街","SECT":" ","MAREA":" ","LANE":"７２巷","ALLEY":" ","HOUSE_NO":"６１號","E_COORD97":177156.78,"N_COORD97":2543408.7200000002,"ADDRESS":"媽廟一街７２巷６１號","OBJECTID":339875},"geometry":{"x":177156.78000000026,"y":2543408.7200000007}},{"attributes":{"ID":339885,"DIS_CODE":0,"TOWNNAME":"歸仁區","LI":"媽廟里","LIN":"1鄰","STREET":"媽廟一街","SECT":" ","MAREA":" ","LANE":"７２巷","ALLEY":" ","HOUSE_NO":"１２號","E_COORD97":177258.48000000001,"N_COORD97":2543460.7200000002,"ADDRESS":"媽廟一街７２巷１２號","OBJECTID":339876},"geometry":{"x":177258.48000000138,"y":2543460.7200000044}},{"attributes":{"ID":339886,"DIS_CODE":0,"TOWNNAME":"歸仁區","LI":"媽廟里","LIN":"1鄰","STREET":"媽廟一街","SECT":" ","MAREA":" ","LANE":"７２巷","ALLEY":" ","HOUSE_NO":"１１之２號","E_COORD97":177264.98000000001,"N_COORD97":2543419.73,"ADDRESS":"媽廟一街７２巷１１之２號","OBJECTID":339877},"geometry":{"x":177264.98000000138,"y":2543419.7300000042}},{"attributes":{"ID":339887,"DIS_CODE":0,"TOWNNAME":"安南區","LI":"國安里","LIN":"8鄰","STREET":"郡安路","SECT":"六段","MAREA":" ","LANE":" ","ALLEY":" ","HOUSE_NO":"１００號","E_COORD97":166512.29999999999,"N_COORD97":2547526.3300000001,"ADDRESS":"郡安路六段１００號","OBJECTID":339878},"geometry":{"x":166512.29999999981,"y":2547526.3300000001}},{"attributes":{"ID":339888,"DIS_CODE":0,"TOWNNAME":"安南區","LI":"國安里","LIN":"8鄰","STREET":"郡安路","SECT":"六段","MAREA":" ","LANE":" ","ALLEY":" ","HOUSE_NO":"１０２號","E_COORD97":166496.16,"N_COORD97":2547524.1200000001,"ADDRESS":"郡安路六段１０２號","OBJECTID":339879},"geometry":{"x":166496.16000000015,"y":2547524.1200000029}},{"attributes":{"ID":339889,"DIS_CODE":0,"TOWNNAME":"安南區","LI":"國安里","LIN":"8鄰","STREET":"郡安路","SECT":"六段","MAREA":" ","LANE":" ","ALLEY":" ","HOUSE_NO":"１０３號","E_COORD97":166493.14999999999,"N_COORD97":2547517.29,"ADDRESS":"郡安路六段１０３號","OBJECTID":339880},"geometry":{"x":166493.15000000037,"y":2547517.290000001}},{"attributes":{"ID":339890,"DIS_CODE":0,"TOWNNAME":"安南區","LI":"國安里","LIN":"8鄰","STREET":"郡安路","SECT":"六段","MAREA":" ","LANE":" ","ALLEY":" ","HOUSE_NO":"１０５號","E_COORD97":166487.95999999999,"N_COORD97":2547523.21,"ADDRESS":"郡安路六段１０５號","OBJECTID":339881},"geometry":{"x":166487.96000000183,"y":2547523.2100000028}},{"attributes":{"ID":339891,"DIS_CODE":0,"TOWNNAME":"安南區","LI":"國安里","LIN":"8鄰","STREET":"郡安路","SECT":"六段","MAREA":" ","LANE":" ","ALLEY":" ","HOUSE_NO":"１０６號","E_COORD97":166485.10000000001,"N_COORD97":2547517.1499999999,"ADDRESS":"郡安路六段１０６號","OBJECTID":339882},"geometry":{"x":166485.10000000056,"y":2547517.1500000022}},{"attributes":{"ID":339892,"DIS_CODE":0,"TOWNNAME":"安南區","LI":"溪心里","LIN":"8鄰","STREET":"海佃路","SECT":"二段","MAREA":" ","LANE":" ","ALLEY":" ","HOUSE_NO":"７９８號","E_COORD97":166448.26000000001,"N_COORD97":2549662.1000000001,"ADDRESS":"海佃路二段７９８號","OBJECTID":339883},"geometry":{"x":166448.26000000164,"y":2549662.1000000015}},{"attributes":{"ID":339893,"DIS_CODE":0,"TOWNNAME":"安南區","LI":"淵西里","LIN":"5鄰","STREET":"安中路","SECT":"四段","MAREA":" ","LANE":"３２０巷","ALLEY":" ","HOUSE_NO":"１６７號","E_COORD97":164833.22,"N_COORD97":2550332.1499999999,"ADDRESS":"安中路四段３２０巷１６７號","OBJECTID":339884},"geometry":{"x":164833.22000000067,"y":2550332.1500000004}},{"attributes":{"ID":339894,"DIS_CODE":0,"TOWNNAME":"安南區","LI":"淵西里","LIN":"5鄰","STREET":"安中路","SECT":"四段","MAREA":" ","LANE":"３２０巷","ALLEY":" ","HOUSE_NO":"１７５號","E_COORD97":164834.73000000001,"N_COORD97":2550314.1600000001,"ADDRESS":"安中路四段３２０巷１７５號","OBJECTID":339885},"geometry":{"x":164834.73000000045,"y":2550314.160000002}},{"attributes":{"ID":339895,"DIS_CODE":0,"TOWNNAME":"安南區","LI":"淵西里","LIN":"5鄰","STREET":"安中路","SECT":"四段","MAREA":" ","LANE":"３２０巷","ALLEY":" ","HOUSE_NO":"１７７號","E_COORD97":164838.48000000001,"N_COORD97":2550309.6600000001,"ADDRESS":"安中路四段３２０巷１７７號","OBJECTID":339886},"geometry":{"x":164838.48000000045,"y":2550309.660000002}},{"attributes":{"ID":339896,"DIS_CODE":0,"TOWNNAME":"安南區","LI":"溪心里","LIN":"5鄰","STREET":"本原街","SECT":"二段","MAREA":" ","LANE":"１０６巷","ALLEY":" ","HOUSE_NO":"５１號","E_COORD97":166905.48999999999,"N_COORD97":2550884.3700000001,"ADDRESS":"本原街二段１０６巷５１號","OBJECTID":339887},"geometry":{"x":166905.49000000115,"y":2550884.370000001}},{"attributes":{"ID":339897,"DIS_CODE":0,"TOWNNAME":"安南區","LI":"溪心里","LIN":"5鄰","STREET":"本原街","SECT":"二段","MAREA":" ","LANE":"１０６巷","ALLEY":" ","HOUSE_NO":"５３號","E_COORD97":166909.31,"N_COORD97":2550888.6000000001,"ADDRESS":"本原街二段１０６巷５３號","OBJECTID":339888},"geometry":{"x":166909.31000000052,"y":2550888.6000000034}},{"attributes":{"ID":339898,"DIS_CODE":0,"TOWNNAME":"安南區","LI":"溪北里","LIN":"5鄰","STREET":"安和路","SECT":"一段","MAREA":" ","LANE":"３１巷","ALLEY":" ","HOUSE_NO":"１３號","E_COORD97":169505.35000000001,"N_COORD97":2547401.7599999998,"ADDRESS":"安和路一段３１巷１３號","OBJECTID":339889},"geometry":{"x":169505.34999999963,"y":2547401.7599999998}},{"attributes":{"ID":339899,"DIS_CODE":0,"TOWNNAME":"後壁區","LI":"竹新里","LIN":"5鄰","STREET":" ","SECT":" ","MAREA":"竹圍後","LANE":" ","ALLEY":" ","HOUSE_NO":"３８號之１０","E_COORD97":178421.44,"N_COORD97":2582576.0299999998,"ADDRESS":"竹圍後３８號之１０","OBJECTID":339890},"geometry":{"x":178421.44000000134,"y":2582576.0300000012}},{"attributes":{"ID":339900,"DIS_CODE":0,"TOWNNAME":"後壁區","LI":"竹新里","LIN":"5鄰","STREET":" ","SECT":" ","MAREA":"竹圍後","LANE":" ","ALLEY":" ","HOUSE_NO":"３８號之１１","E_COORD97":178401.51999999999,"N_COORD97":2582559.0099999998,"ADDRESS":"竹圍後３８號之１１","OBJECTID":339891},"geometry":{"x":178401.52000000048,"y":2582559.0100000035}},{"attributes":{"ID":339901,"DIS_CODE":0,"TOWNNAME":"歸仁區","LI":"許厝里","LIN":"1鄰","STREET":"中山路","SECT":"一段","MAREA":" ","LANE":"３４３巷","ALLEY":" ","HOUSE_NO":"１０號","E_COORD97":178395.29000000001,"N_COORD97":2540631.0099999998,"ADDRESS":"中山路一段３４３巷１０號","OBJECTID":339892},"geometry":{"x":178395.29000000004,"y":2540631.0100000016}},{"attributes":{"ID":339902,"DIS_CODE":0,"TOWNNAME":"歸仁區","LI":"媽廟里","LIN":"1鄰","STREET":"媽廟一街","SECT":" ","MAREA":" ","LANE":"７２巷","ALLEY":" ","HOUSE_NO":"１１之１號","E_COORD97":177301.88,"N_COORD97":2543420.73,"ADDRESS":"媽廟一街７２巷１１之１號","OBJECTID":339893},"geometry":{"x":177301.88000000175,"y":2543420.7300000023}},{"attributes":{"ID":339903,"DIS_CODE":0,"TOWNNAME":"歸仁區","LI":"歸南里","LIN":"1鄰","STREET":"民權南路","SECT":" ","MAREA":" ","LANE":"１９６巷","ALLEY":" ","HOUSE_NO":"２３號","E_COORD97":176902.66,"N_COORD97":2540318.5,"ADDRESS":"民權南路１９６巷２３號","OBJECTID":339894},"geometry":{"x":176902.66000000108,"y":2540318.5000000037}},{"attributes":{"ID":339904,"DIS_CODE":0,"TOWNNAME":"後壁區","LI":"竹新里","LIN":"5鄰","STREET":" ","SECT":" ","MAREA":"竹圍後","LANE":" ","ALLEY":" ","HOUSE_NO":"３８號之１２","E_COORD97":178377.98999999999,"N_COORD97":2582567.9199999999,"ADDRESS":"竹圍後３８號之１２","OBJECTID":339895},"geometry":{"x":178377.99000000209,"y":2582567.9200000018}},{"attributes":{"ID":339905,"DIS_CODE":0,"TOWNNAME":"後壁區","LI":"竹新里","LIN":"5鄰","STREET":" ","SECT":" ","MAREA":"竹圍後","LANE":" ","ALLEY":" ","HOUSE_NO":"３８號之１","E_COORD97":178493.89999999999,"N_COORD97":2582469.9300000002,"ADDRESS":"竹圍後３８號之１","OBJECTID":339896},"geometry":{"x":178493.89999999944,"y":2582469.9299999997}},{"attributes":{"ID":339906,"DIS_CODE":0,"TOWNNAME":"歸仁區","LI":"歸仁里","LIN":"1鄰","STREET":"文化街","SECT":"一段","MAREA":" ","LANE":"１１６巷","ALLEY":" ","HOUSE_NO":"８號","E_COORD97":177769.12,"N_COORD97":2541172.2599999998,"ADDRESS":"文化街一段１１６巷８號","OBJECTID":339897},"geometry":{"x":177769.12000000104,"y":2541172.2600000016}},{"attributes":{"ID":339907,"DIS_CODE":0,"TOWNNAME":"歸仁區","LI":"歸南里","LIN":"1鄰","STREET":"民權南路","SECT":" ","MAREA":" ","LANE":"１９６巷","ALLEY":" ","HOUSE_NO":"２５號","E_COORD97":176901.56,"N_COORD97":2540313.5,"ADDRESS":"民權南路１９６巷２５號","OBJECTID":339898},"geometry":{"x":176901.55999999959,"y":2540313.5}},{"attributes":{"ID":339908,"DIS_CODE":0,"TOWNNAME":"歸仁區","LI":"歸南里","LIN":"1鄰","STREET":"民權南路","SECT":" ","MAREA":" ","LANE":"１９６巷","ALLEY":" ","HOUSE_NO":"３號","E_COORD97":176931.20999999999,"N_COORD97":2540348.5,"ADDRESS":"民權南路１９６巷３號","OBJECTID":339899},"geometry":{"x":176931.20999999996,"y":2540348.5}},{"attributes":{"ID":339909,"DIS_CODE":0,"TOWNNAME":"歸仁區","LI":"歸南里","LIN":"1鄰","STREET":"民權南路","SECT":" ","MAREA":" ","LANE":"１９６巷","ALLEY":" ","HOUSE_NO":"４０號","E_COORD97":176887.35999999999,"N_COORD97":2540329.5,"ADDRESS":"民權南路１９６巷４０號","OBJECTID":339900},"geometry":{"x":176887.36000000127,"y":2540329.5000000019}},{"attributes":{"ID":339910,"DIS_CODE":0,"TOWNNAME":"歸仁區","LI":"歸南里","LIN":"1鄰","STREET":"民權南路","SECT":" ","MAREA":" ","LANE":"１９６巷","ALLEY":" ","HOUSE_NO":"２９號","E_COORD97":176900.45999999999,"N_COORD97":2540301.5,"ADDRESS":"民權南路１９６巷２９號","OBJECTID":339901},"geometry":{"x":176900.46000000089,"y":2540301.5000000037}},{"attributes":{"ID":339911,"DIS_CODE":0,"TOWNNAME":"新市區","LI":"永就里","LIN":"8鄰","STREET":"中華路","SECT":" ","MAREA":" ","LANE":" ","ALLEY":" ","HOUSE_NO":"５０號","E_COORD97":177554.17999999999,"N_COORD97":2551701.5,"ADDRESS":"中華路５０號","OBJECTID":339902},"geometry":{"x":177554.18000000063,"y":2551701.5000000019}},{"attributes":{"ID":339912,"DIS_CODE":0,"TOWNNAME":"安南區","LI":"城中里","LIN":"8鄰","STREET":"城安西街","SECT":" ","MAREA":" ","LANE":" ","ALLEY":" ","HOUSE_NO":"３１號","E_COORD97":160700.651041,"N_COORD97":2551559.1957,"ADDRESS":"城安西街３１號","OBJECTID":339903},"geometry":{"x":160700.65104100015,"y":2551559.1956990007}},{"attributes":{"ID":339913,"DIS_CODE":0,"TOWNNAME":"安南區","LI":"長安里","LIN":"8鄰","STREET":"長溪路","SECT":"三段","MAREA":" ","LANE":" ","ALLEY":" ","HOUSE_NO":"４３３號","E_COORD97":167590.94,"N_COORD97":2552092.8199999998,"ADDRESS":"長溪路三段４３３號","OBJECTID":339904},"geometry":{"x":167590.94000000134,"y":2552092.8200000022}},{"attributes":{"ID":339914,"DIS_CODE":0,"TOWNNAME":"安南區","LI":"長安里","LIN":"8鄰","STREET":"長溪路","SECT":"三段","MAREA":" ","LANE":" ","ALLEY":" ","HOUSE_NO":"４３５號","E_COORD97":167588.48000000001,"N_COORD97":2552096.25,"ADDRESS":"長溪路三段４３５號","OBJECTID":339905},"geometry":{"x":167588.48000000231,"y":2552096.2500000019}},{"attributes":{"ID":339915,"DIS_CODE":0,"TOWNNAME":"新市區","LI":"新市里","LIN":"8鄰","STREET":"中正路","SECT":" ","MAREA":" ","LANE":" ","ALLEY":" ","HOUSE_NO":"２７９號","E_COORD97":177546.29000000001,"N_COORD97":2553227.25,"ADDRESS":"中正路２７９號","OBJECTID":339906},"geometry":{"x":177546.29000000004,"y":2553227.2499999981}},{"attributes":{"ID":339916,"DIS_CODE":0,"TOWNNAME":"新市區","LI":"新市里","LIN":"8鄰","STREET":"中正路","SECT":" ","MAREA":" ","LANE":" ","ALLEY":" ","HOUSE_NO":"２６１號","E_COORD97":177494.10000000001,"N_COORD97":2553205.5,"ADDRESS":"中正路２６１號","OBJECTID":339907},"geometry":{"x":177494.10000000056,"y":2553205.5000000037}},{"attributes":{"ID":339917,"DIS_CODE":0,"TOWNNAME":"新市區","LI":"永就里","LIN":"8鄰","STREET":"中華路","SECT":" ","MAREA":" ","LANE":" ","ALLEY":" ","HOUSE_NO":"８８號","E_COORD97":177629.42999999999,"N_COORD97":2551633.5,"ADDRESS":"中華路８８號","OBJECTID":339908},"geometry":{"x":177629.4299999997,"y":2551633.5000000019}},{"attributes":{"ID":339918,"DIS_CODE":0,"TOWNNAME":"新市區","LI":"永就里","LIN":"8鄰","STREET":"中華路","SECT":" ","MAREA":" ","LANE":" ","ALLEY":" ","HOUSE_NO":"１０４號","E_COORD97":177655.76999999999,"N_COORD97":2551610.25,"ADDRESS":"中華路１０４號","OBJECTID":339909},"geometry":{"x":177655.76999999955,"y":2551610.2500000037}},{"attributes":{"ID":339919,"DIS_CODE":0,"TOWNNAME":"永康區","LI":"復國里","LIN":"5鄰","STREET":"復國二路","SECT":" ","MAREA":" ","LANE":"４０巷","ALLEY":" ","HOUSE_NO":"５號","E_COORD97":172854.39000000001,"N_COORD97":2544995.0299999998,"ADDRESS":"復國二路４０巷５號","OBJECTID":339910},"geometry":{"x":172854.38999999966,"y":2544995.0299999993}},{"attributes":{"ID":339920,"DIS_CODE":0,"TOWNNAME":"永康區","LI":"\u25A0洲里","LIN":"5鄰","STREET":"仁愛街","SECT":" ","MAREA":" ","LANE":"１０３巷","ALLEY":" ","HOUSE_NO":"５號","E_COORD97":172016.20000000001,"N_COORD97":2549474.52,"ADDRESS":"仁愛街１０３巷５號","OBJECTID":339911},"geometry":{"x":172016.20000000205,"y":2549474.5199999996}},{"attributes":{"ID":339921,"DIS_CODE":0,"TOWNNAME":"後壁區","LI":"竹新里","LIN":"5鄰","STREET":" ","SECT":" ","MAREA":"竹圍後","LANE":" ","ALLEY":" ","HOUSE_NO":"４６號之６","E_COORD97":178348.85000000001,"N_COORD97":2582436.6299999999,"ADDRESS":"竹圍後４６號之６","OBJECTID":339912},"geometry":{"x":178348.84999999963,"y":2582436.6300000008}},{"attributes":{"ID":339922,"DIS_CODE":0,"TOWNNAME":"永康區","LI":"中興里","LIN":"5鄰","STREET":"中華路","SECT":" ","MAREA":" ","LANE":"２１４巷","ALLEY":" ","HOUSE_NO":"８９號","E_COORD97":171896.37,"N_COORD97":2545091.25,"ADDRESS":"中華路２１４巷８９號","OBJECTID":339913},"geometry":{"x":171896.37000000197,"y":2545091.2500000019}},{"attributes":{"ID":339923,"DIS_CODE":0,"TOWNNAME":"永康區","LI":"崑山里","LIN":"5鄰","STREET":"崑大路","SECT":" ","MAREA":" ","LANE":"１５５巷","ALLEY":" ","HOUSE_NO":"２５號","E_COORD97":173610.26999999999,"N_COORD97":2544206.9199999999,"ADDRESS":"崑大路１５５巷２５號","OBJECTID":339914},"geometry":{"x":173610.27000000142,"y":2544206.9199999999}},{"attributes":{"ID":339924,"DIS_CODE":0,"TOWNNAME":"永康區","LI":"崑山里","LIN":"5鄰","STREET":"崑大路","SECT":" ","MAREA":" ","LANE":"１５５巷","ALLEY":" ","HOUSE_NO":"５號","E_COORD97":173612.48000000001,"N_COORD97":2544252.9300000002,"ADDRESS":"崑大路１５５巷５號","OBJECTID":339915},"geometry":{"x":173612.48000000045,"y":2544252.9300000016}},{"attributes":{"ID":339925,"DIS_CODE":0,"TOWNNAME":"永康區","LI":"崑山里","LIN":"5鄰","STREET":"崑大路","SECT":" ","MAREA":" ","LANE":" ","ALLEY":" ","HOUSE_NO":"１５３號","E_COORD97":173613.60999999999,"N_COORD97":2544263.1499999999,"ADDRESS":"崑大路１５３號","OBJECTID":339916},"geometry":{"x":173613.61000000034,"y":2544263.1500000004}},{"attributes":{"ID":339926,"DIS_CODE":0,"TOWNNAME":"後壁區","LI":"竹新里","LIN":"5鄰","STREET":" ","SECT":" ","MAREA":"竹圍後","LANE":" ","ALLEY":" ","HOUSE_NO":"４６號之７","E_COORD97":178334.67999999999,"N_COORD97":2582449.6600000001,"ADDRESS":"竹圍後４６號之７","OBJECTID":339917},"geometry":{"x":178334.6799999997,"y":2582449.6599999983}},{"attributes":{"ID":339927,"DIS_CODE":0,"TOWNNAME":"後壁區","LI":"竹新里","LIN":"5鄰","STREET":" ","SECT":" ","MAREA":"竹圍後","LANE":" ","ALLEY":" ","HOUSE_NO":"４６號","E_COORD97":178332.75,"N_COORD97":2582425.4300000002,"ADDRESS":"竹圍後４６號","OBJECTID":339918},"geometry":{"x":178332.75,"y":2582425.4300000016}},{"attributes":{"ID":339928,"DIS_CODE":0,"TOWNNAME":"永康區","LI":"神洲里","LIN":"5鄰","STREET":"忠孝路","SECT":" ","MAREA":" ","LANE":"４４巷","ALLEY":" ","HOUSE_NO":"１４號","E_COORD97":172149.95000000001,"N_COORD97":2544726.9900000002,"ADDRESS":"忠孝路４４巷１４號","OBJECTID":339919},"geometry":{"x":172149.94999999925,"y":2544726.9900000021}},{"attributes":{"ID":339929,"DIS_CODE":0,"TOWNNAME":"永康區","LI":"崑山里","LIN":"5鄰","STREET":"大灣路","SECT":" ","MAREA":" ","LANE":"８９１巷","ALLEY":" ","HOUSE_NO":"３７號","E_COORD97":173614,"N_COORD97":2544266.8799999999,"ADDRESS":"大灣路８９１巷３７號","OBJECTID":339920},"geometry":{"x":173614,"y":2544266.879999999}},{"attributes":{"ID":339930,"DIS_CODE":0,"TOWNNAME":"永康區","LI":"中華里","LIN":"24鄰","STREET":"華興街","SECT":" ","MAREA":" ","LANE":" ","ALLEY":" ","HOUSE_NO":"１４４號","E_COORD97":171735.67000000001,"N_COORD97":2544582.6499999999,"ADDRESS":"華興街１４４號","OBJECTID":339921},"geometry":{"x":171735.66999999993,"y":2544582.6500000004}},{"attributes":{"ID":339931,"DIS_CODE":0,"TOWNNAME":"永康區","LI":"烏竹里","LIN":" ","STREET":"龍橋街","SECT":" ","MAREA":" ","LANE":" ","ALLEY":" ","HOUSE_NO":"３８４號","E_COORD97":174480.42999999999,"N_COORD97":2549142.3500000001,"ADDRESS":"龍橋街３８４號","OBJECTID":339922},"geometry":{"x":174480.4299999997,"y":2549142.3500000015}},{"attributes":{"ID":339932,"DIS_CODE":0,"TOWNNAME":"永康區","LI":"\u25A0洲里","LIN":"26鄰","STREET":"洲尾街","SECT":" ","MAREA":" ","LANE":" ","ALLEY":" ","HOUSE_NO":"２１５號","E_COORD97":170910.85999999999,"N_COORD97":2549045.21,"ADDRESS":"洲尾街２１５號","OBJECTID":339923},"geometry":{"x":170910.86000000034,"y":2549045.2100000028}},{"attributes":{"ID":339933,"DIS_CODE":0,"TOWNNAME":"永康區","LI":"南灣里","LIN":" ","STREET":"南興路","SECT":" ","MAREA":" ","LANE":" ","ALLEY":" ","HOUSE_NO":"９之４號","E_COORD97":174333.29999999999,"N_COORD97":2544526.0499999998,"ADDRESS":"南興路９之４號","OBJECTID":339924},"geometry":{"x":174333.29999999981,"y":2544526.0500000007}},{"attributes":{"ID":339934,"DIS_CODE":0,"TOWNNAME":"永康區","LI":"崑山里","LIN":" ","STREET":"大仁街","SECT":" ","MAREA":" ","LANE":" ","ALLEY":" ","HOUSE_NO":"３２之３號","E_COORD97":173809.29000000001,"N_COORD97":2544615.6600000001,"ADDRESS":"大仁街３２之３號","OBJECTID":339925},"geometry":{"x":173809.29000000097,"y":2544615.6600000001}},{"attributes":{"ID":339935,"DIS_CODE":0,"TOWNNAME":"永康區","LI":"大橋里","LIN":" ","STREET":"大橋二街","SECT":" ","MAREA":" ","LANE":" ","ALLEY":" ","HOUSE_NO":"７５３號","E_COORD97":170678.79999999999,"N_COORD97":2546491.7400000002,"ADDRESS":"大橋二街７５３號","OBJECTID":339926},"geometry":{"x":170678.79999999981,"y":2546491.7400000021}},{"attributes":{"ID":339936,"DIS_CODE":0,"TOWNNAME":"永康區","LI":"\u25A0洲里","LIN":"5鄰","STREET":"仁愛街","SECT":" ","MAREA":" ","LANE":" ","ALLEY":" ","HOUSE_NO":"８３號","E_COORD97":172024.01000000001,"N_COORD97":2549423.0299999998,"ADDRESS":"仁愛街８３號","OBJECTID":339927},"geometry":{"x":172024.01000000071,"y":2549423.0299999993}},{"attributes":{"ID":339937,"DIS_CODE":0,"TOWNNAME":"永康區","LI":"\u25A0洲里","LIN":"5鄰","STREET":"仁愛街","SECT":" ","MAREA":" ","LANE":" ","ALLEY":" ","HOUSE_NO":"９５號","E_COORD97":172033.95999999999,"N_COORD97":2549447.7799999998,"ADDRESS":"仁愛街９５號","OBJECTID":339928},"geometry":{"x":172033.95999999996,"y":2549447.7800000012}},{"attributes":{"ID":339938,"DIS_CODE":0,"TOWNNAME":"永康區","LI":"復興里","LIN":" ","STREET":"復興路","SECT":" ","MAREA":" ","LANE":" ","ALLEY":" ","HOUSE_NO":"３０９號","E_COORD97":172275.48000000001,"N_COORD97":2544316.02,"ADDRESS":"復興路３０９號","OBJECTID":339929},"geometry":{"x":172275.47999999952,"y":2544316.0200000014}},{"attributes":{"ID":339939,"DIS_CODE":0,"TOWNNAME":"永康區","LI":"西勢里","LIN":" ","STREET":"富強路","SECT":"一段","MAREA":" ","LANE":" ","ALLEY":" ","HOUSE_NO":"７３之８號","E_COORD97":175432.91,"N_COORD97":2546144.3999999999,"ADDRESS":"富強路一段７３之８號","OBJECTID":339930},"geometry":{"x":175432.91000000108,"y":2546144.4000000041}},{"attributes":{"ID":339940,"DIS_CODE":0,"TOWNNAME":"歸仁區","LI":"歸南里","LIN":"1鄰","STREET":"民權南路","SECT":" ","MAREA":" ","LANE":"１９６巷","ALLEY":" ","HOUSE_NO":"４８號","E_COORD97":176887.26000000001,"N_COORD97":2540315.5,"ADDRESS":"民權南路１９６巷４８號","OBJECTID":339931},"geometry":{"x":176887.26000000164,"y":2540315.5000000019}},{"attributes":{"ID":339941,"DIS_CODE":0,"TOWNNAME":"安南區","LI":"新順里","LIN":"5鄰","STREET":"安豐六街","SECT":" ","MAREA":" ","LANE":"１０巷","ALLEY":" ","HOUSE_NO":"９２號","E_COORD97":169252.14999999999,"N_COORD97":2549475.9100000001,"ADDRESS":"安豐六街１０巷９２號","OBJECTID":339932},"geometry":{"x":169252.1500000013,"y":2549475.9100000001}},{"attributes":{"ID":339942,"DIS_CODE":0,"TOWNNAME":"安南區","LI":"東和里","LIN":"5鄰","STREET":"長和路","SECT":"一段","MAREA":" ","LANE":"８４５巷","ALLEY":" ","HOUSE_NO":"６９號","E_COORD97":170846.35000000001,"N_COORD97":2551275.5,"ADDRESS":"長和路一段８４５巷６９號","OBJECTID":339933},"geometry":{"x":170846.34999999963,"y":2551275.5}},{"attributes":{"ID":339943,"DIS_CODE":0,"TOWNNAME":"安南區","LI":"布袋里","LIN":"5鄰","STREET":"長和路","SECT":"四段","MAREA":" ","LANE":"２５１巷","ALLEY":" ","HOUSE_NO":"５號","E_COORD97":168636.5,"N_COORD97":2551668.73,"ADDRESS":"長和路四段２５１巷５號","OBJECTID":339934},"geometry":{"x":168636.5,"y":2551668.7300000042}},{"attributes":{"ID":339944,"DIS_CODE":0,"TOWNNAME":"白河區","LI":"永安里","LIN":"5鄰","STREET":"中正路","SECT":" ","MAREA":" ","LANE":"９１巷","ALLEY":" ","HOUSE_NO":"２８號","E_COORD97":190095.84,"N_COORD97":2583002.52,"ADDRESS":"中正路９１巷２８號","OBJECTID":339935},"geometry":{"x":190095.84000000171,"y":2583002.5199999996}},{"attributes":{"ID":339945,"DIS_CODE":0,"TOWNNAME":"東區","LI":"文聖里","LIN":"5鄰","STREET":"裕農一街","SECT":" ","MAREA":" ","LANE":"１７０巷","ALLEY":" ","HOUSE_NO":"１號","E_COORD97":171908.92000000001,"N_COORD97":2542708.8799999999,"ADDRESS":"裕農一街１７０巷１號","OBJECTID":339936},"geometry":{"x":171908.91999999993,"y":2542708.8800000008}},{"attributes":{"ID":339946,"DIS_CODE":0,"TOWNNAME":"東區","LI":"文聖里","LIN":"5鄰","STREET":"裕農一街","SECT":" ","MAREA":" ","LANE":"１７０巷","ALLEY":" ","HOUSE_NO":"３號","E_COORD97":171903.73000000001,"N_COORD97":2542709.9700000002,"ADDRESS":"裕農一街１７０巷３號","OBJECTID":339937},"geometry":{"x":171903.73000000045,"y":2542709.9700000025}},{"attributes":{"ID":339947,"DIS_CODE":0,"TOWNNAME":"東區","LI":"文聖里","LIN":"5鄰","STREET":"裕農一街","SECT":" ","MAREA":" ","LANE":"１７０巷","ALLEY":" ","HOUSE_NO":"５號","E_COORD97":171898.53,"N_COORD97":2542708.8799999999,"ADDRESS":"裕農一街１７０巷５號","OBJECTID":339938},"geometry":{"x":171898.53000000026,"y":2542708.8800000008}},{"attributes":{"ID":339948,"DIS_CODE":0,"TOWNNAME":"白河區","LI":"六溪里","LIN":"5鄰","STREET":" ","SECT":" ","MAREA":"六重溪","LANE":" ","ALLEY":" ","HOUSE_NO":"２７號","E_COORD97":194732.13,"N_COORD97":2578697.04,"ADDRESS":"六重溪２７號","OBJECTID":339939},"geometry":{"x":194732.13000000082,"y":2578697.040000001}},{"attributes":{"ID":339949,"DIS_CODE":0,"TOWNNAME":"歸仁區","LI":"歸南里","LIN":"1鄰","STREET":"民權南路","SECT":" ","MAREA":" ","LANE":"１９６巷","ALLEY":" ","HOUSE_NO":"３２號","E_COORD97":176888.45999999999,"N_COORD97":2540347.5,"ADDRESS":"民權南路１９６巷３２號","OBJECTID":339940},"geometry":{"x":176888.46000000089,"y":2540347.5}},{"attributes":{"ID":339950,"DIS_CODE":0,"TOWNNAME":"歸仁區","LI":"歸南里","LIN":"1鄰","STREET":"民權南路","SECT":" ","MAREA":" ","LANE":"１９６巷","ALLEY":" ","HOUSE_NO":"５６號","E_COORD97":176887.16,"N_COORD97":2540298.5,"ADDRESS":"民權南路１９６巷５６號","OBJECTID":339941},"geometry":{"x":176887.16000000108,"y":2540298.5000000019}},{"attributes":{"ID":339951,"DIS_CODE":0,"TOWNNAME":"歸仁區","LI":"歸南里","LIN":"1鄰","STREET":"民權南路","SECT":" ","MAREA":" ","LANE":"１９６巷","ALLEY":" ","HOUSE_NO":"２１號","E_COORD97":176903.66,"N_COORD97":2540324.5,"ADDRESS":"民權南路１９６巷２１號","OBJECTID":339942},"geometry":{"x":176903.66000000201,"y":2540324.5}},{"attributes":{"ID":339952,"DIS_CODE":0,"TOWNNAME":"歸仁區","LI":"歸南里","LIN":"1鄰","STREET":"民權南路","SECT":" ","MAREA":" ","LANE":"１９６巷","ALLEY":" ","HOUSE_NO":"３６號","E_COORD97":176888.35999999999,"N_COORD97":2540338.5,"ADDRESS":"民權南路１９６巷３６號","OBJECTID":339943},"geometry":{"x":176888.36000000034,"y":2540338.5}},{"attributes":{"ID":339953,"DIS_CODE":0,"TOWNNAME":"歸仁區","LI":"歸南里","LIN":"1鄰","STREET":"民權南路","SECT":" ","MAREA":" ","LANE":"１９６巷","ALLEY":" ","HOUSE_NO":"１９號","E_COORD97":176903.76000000001,"N_COORD97":2540330.5,"ADDRESS":"民權南路１９６巷１９號","OBJECTID":339944},"geometry":{"x":176903.75999999978,"y":2540330.5}},{"attributes":{"ID":339954,"DIS_CODE":0,"TOWNNAME":"歸仁區","LI":"歸南里","LIN":"1鄰","STREET":"民權南路","SECT":" ","MAREA":" ","LANE":"１９６巷","ALLEY":" ","HOUSE_NO":"７號","E_COORD97":176923.01000000001,"N_COORD97":2540348.5,"ADDRESS":"民權南路１９６巷７號","OBJECTID":339945},"geometry":{"x":176923.01000000164,"y":2540348.5}},{"attributes":{"ID":339955,"DIS_CODE":0,"TOWNNAME":"歸仁區","LI":"歸南里","LIN":"1鄰","STREET":"民權南路","SECT":" ","MAREA":" ","LANE":"１９６巷","ALLEY":" ","HOUSE_NO":"５４號","E_COORD97":176887.16,"N_COORD97":2540302.5,"ADDRESS":"民權南路１９６巷５４號","OBJECTID":339946},"geometry":{"x":176887.16000000108,"y":2540302.5000000019}},{"attributes":{"ID":339956,"DIS_CODE":0,"TOWNNAME":"歸仁區","LI":"歸南里","LIN":"1鄰","STREET":"民權南路","SECT":" ","MAREA":" ","LANE":"１９６巷","ALLEY":" ","HOUSE_NO":"４６號","E_COORD97":176887.26000000001,"N_COORD97":2540319.5,"ADDRESS":"民權南路１９６巷４６號","OBJECTID":339947},"geometry":{"x":176887.26000000164,"y":2540319.5000000019}},{"attributes":{"ID":339957,"DIS_CODE":0,"TOWNNAME":"歸仁區","LI":"看東里","LIN":"1鄰","STREET":"忠孝南路","SECT":" ","MAREA":" ","LANE":"６０巷","ALLEY":" ","HOUSE_NO":"６號","E_COORD97":178471.51999999999,"N_COORD97":2540499.1000000001,"ADDRESS":"忠孝南路６０巷６號","OBJECTID":339948},"geometry":{"x":178471.51999999955,"y":2540499.0999999996}},{"attributes":{"ID":339958,"DIS_CODE":0,"TOWNNAME":"歸仁區","LI":"看東里","LIN":"1鄰","STREET":"忠孝南路","SECT":" ","MAREA":" ","LANE":"６０巷","ALLEY":" ","HOUSE_NO":"１２號","E_COORD97":178454.95000000001,"N_COORD97":2540507.6699999999,"ADDRESS":"忠孝南路６０巷１２號","OBJECTID":339949},"geometry":{"x":178454.95000000112,"y":2540507.6700000018}},{"attributes":{"ID":339959,"DIS_CODE":0,"TOWNNAME":"歸仁區","LI":"看東里","LIN":"1鄰","STREET":"忠孝南路","SECT":" ","MAREA":" ","LANE":"６０巷","ALLEY":" ","HOUSE_NO":"２７號","E_COORD97":178442.64999999999,"N_COORD97":2540504.6699999999,"ADDRESS":"忠孝南路６０巷２７號","OBJECTID":339950},"geometry":{"x":178442.65000000037,"y":2540504.6700000018}},{"attributes":{"ID":339960,"DIS_CODE":0,"TOWNNAME":"歸仁區","LI":"看東里","LIN":"1鄰","STREET":"忠孝南路","SECT":" ","MAREA":" ","LANE":"６０巷","ALLEY":" ","HOUSE_NO":"８號","E_COORD97":178454.70000000001,"N_COORD97":2540499.6699999999,"ADDRESS":"忠孝南路６０巷８號","OBJECTID":339951},"geometry":{"x":178454.70000000112,"y":2540499.6699999999}},{"attributes":{"ID":339961,"DIS_CODE":0,"TOWNNAME":"歸仁區","LI":"看西里","LIN":"1鄰","STREET":"仁愛南街","SECT":" ","MAREA":" ","LANE":"８７巷","ALLEY":" ","HOUSE_NO":"１０號","E_COORD97":178326.97,"N_COORD97":2540441.1499999999,"ADDRESS":"仁愛南街８７巷１０號","OBJECTID":339952},"geometry":{"x":178326.97000000067,"y":2540441.1500000022}},{"attributes":{"ID":339962,"DIS_CODE":0,"TOWNNAME":"歸仁區","LI":"崙頂里","LIN":"1鄰","STREET":"信義南路","SECT":" ","MAREA":" ","LANE":"２２１巷","ALLEY":" ","HOUSE_NO":"３６號","E_COORD97":178243.95000000001,"N_COORD97":2540022.6800000002,"ADDRESS":"信義南路２２１巷３６號","OBJECTID":339953},"geometry":{"x":178243.95000000019,"y":2540022.6800000016}},{"attributes":{"ID":339963,"DIS_CODE":0,"TOWNNAME":"歸仁區","LI":"崙頂里","LIN":"1鄰","STREET":"成功路","SECT":"一段","MAREA":" ","LANE":"３３２巷","ALLEY":" ","HOUSE_NO":"２３號","E_COORD97":178224.60000000001,"N_COORD97":2539992.6800000002,"ADDRESS":"成功路一段３３２巷２３號","OBJECTID":339954},"geometry":{"x":178224.60000000056,"y":2539992.6800000016}},{"attributes":{"ID":339964,"DIS_CODE":0,"TOWNNAME":"歸仁區","LI":"南保里","LIN":"1鄰","STREET":"民權北路","SECT":" ","MAREA":" ","LANE":"２６７巷","ALLEY":" ","HOUSE_NO":"７號","E_COORD97":176987.64000000001,"N_COORD97":2541496.29,"ADDRESS":"民權北路２６７巷７號","OBJECTID":339955},"geometry":{"x":176987.63999999966,"y":2541496.290000001}},{"attributes":{"ID":339965,"DIS_CODE":0,"TOWNNAME":"歸仁區","LI":"南保里","LIN":"1鄰","STREET":"民權二街","SECT":" ","MAREA":" ","LANE":"２巷","ALLEY":" ","HOUSE_NO":"３號","E_COORD97":176987.64000000001,"N_COORD97":2541390.29,"ADDRESS":"民權二街２巷３號","OBJECTID":339956},"geometry":{"x":176987.63999999966,"y":2541390.2900000028}},{"attributes":{"ID":339966,"DIS_CODE":0,"TOWNNAME":"新市區","LI":"永就里","LIN":"8鄰","STREET":"中華路","SECT":" ","MAREA":" ","LANE":" ","ALLEY":" ","HOUSE_NO":"９６號","E_COORD97":177642.04000000001,"N_COORD97":2551622.5,"ADDRESS":"中華路９６號","OBJECTID":339957},"geometry":{"x":177642.04000000097,"y":2551622.5000000019}},{"attributes":{"ID":339967,"DIS_CODE":0,"TOWNNAME":"新市區","LI":"永就里","LIN":"8鄰","STREET":"中華路","SECT":" ","MAREA":" ","LANE":" ","ALLEY":" ","HOUSE_NO":"１０２號","E_COORD97":177652.82000000001,"N_COORD97":2551613.25,"ADDRESS":"中華路１０２號","OBJECTID":339958},"geometry":{"x":177652.8200000003,"y":2551613.25}},{"attributes":{"ID":339968,"DIS_CODE":0,"TOWNNAME":"新市區","LI":"新市里","LIN":"8鄰","STREET":"中正路","SECT":" ","MAREA":" ","LANE":" ","ALLEY":" ","HOUSE_NO":"２７５號","E_COORD97":177538.88,"N_COORD97":2553224.25,"ADDRESS":"中正路２７５號","OBJECTID":339959},"geometry":{"x":177538.87999999989,"y":2553224.2500000037}},{"attributes":{"ID":339969,"DIS_CODE":0,"TOWNNAME":"新市區","LI":"永就里","LIN":"8鄰","STREET":"中華路","SECT":" ","MAREA":" ","LANE":" ","ALLEY":" ","HOUSE_NO":"１２６號","E_COORD97":177689.12,"N_COORD97":2551577.5,"ADDRESS":"中華路１２６號","OBJECTID":339960},"geometry":{"x":177689.12000000104,"y":2551577.5}},{"attributes":{"ID":339970,"DIS_CODE":0,"TOWNNAME":"新市區","LI":"永就里","LIN":"8鄰","STREET":"中華路","SECT":" ","MAREA":" ","LANE":" ","ALLEY":" ","HOUSE_NO":"１２０號","E_COORD97":177680.04000000001,"N_COORD97":2551587.25,"ADDRESS":"中華路１２０號","OBJECTID":339961},"geometry":{"x":177680.04000000004,"y":2551587.2500000019}},{"attributes":{"ID":339971,"DIS_CODE":0,"TOWNNAME":"新市區","LI":"新和里","LIN":"8鄰","STREET":"仁愛街","SECT":" ","MAREA":" ","LANE":" ","ALLEY":" ","HOUSE_NO":"４１號","E_COORD97":177497.39000000001,"N_COORD97":2552326.0299999998,"ADDRESS":"仁愛街４１號","OBJECTID":339962},"geometry":{"x":177497.3900000006,"y":2552326.0299999993}},{"attributes":{"ID":339972,"DIS_CODE":0,"TOWNNAME":"新市區","LI":"新和里","LIN":"8鄰","STREET":"仁愛街","SECT":" ","MAREA":" ","LANE":" ","ALLEY":" ","HOUSE_NO":"６６號","E_COORD97":177526.39000000001,"N_COORD97":2552379.5299999998,"ADDRESS":"仁愛街６６號","OBJECTID":339963},"geometry":{"x":177526.38999999966,"y":2552379.5299999993}},{"attributes":{"ID":339973,"DIS_CODE":0,"TOWNNAME":"中西區","LI":"民主里","LIN":"8鄰","STREET":"府前路","SECT":"二段","MAREA":" ","LANE":" ","ALLEY":" ","HOUSE_NO":"１７０號","E_COORD97":167361.17000000001,"N_COORD97":2543560.3799999999,"ADDRESS":"府前路二段１７０號","OBJECTID":339964},"geometry":{"x":167361.17000000179,"y":2543560.3800000008}},{"attributes":{"ID":339974,"DIS_CODE":0,"TOWNNAME":"歸仁區","LI":"南保里","LIN":"1鄰","STREET":"民權二街","SECT":" ","MAREA":" ","LANE":"２巷","ALLEY":" ","HOUSE_NO":"９號","E_COORD97":176988.84,"N_COORD97":2541413.29,"ADDRESS":"民權二街２巷９號","OBJECTID":339965},"geometry":{"x":176988.84000000078,"y":2541413.2899999991}},{"attributes":{"ID":339975,"DIS_CODE":0,"TOWNNAME":"歸仁區","LI":"南保里","LIN":"1鄰","STREET":"民權北路","SECT":" ","MAREA":" ","LANE":"２６７巷","ALLEY":" ","HOUSE_NO":"１３號","E_COORD97":176973.48999999999,"N_COORD97":2541495.29,"ADDRESS":"民權北路２６７巷１３號","OBJECTID":339966},"geometry":{"x":176973.49000000115,"y":2541495.2899999972}},{"attributes":{"ID":339976,"DIS_CODE":0,"TOWNNAME":"歸仁區","LI":"大廟里","LIN":"1鄰","STREET":"大廟二街","SECT":" ","MAREA":" ","LANE":"５７巷","ALLEY":" ","HOUSE_NO":"１３號","E_COORD97":176038.23999999999,"N_COORD97":2543973.8900000001,"ADDRESS":"大廟二街５７巷１３號","OBJECTID":339967},"geometry":{"x":176038.24000000022,"y":2543973.8900000006}},{"attributes":{"ID":339977,"DIS_CODE":0,"TOWNNAME":"歸仁區","LI":"大廟里","LIN":"1鄰","STREET":"大廟三街","SECT":" ","MAREA":" ","LANE":"２０巷","ALLEY":" ","HOUSE_NO":"１６號","E_COORD97":176056.73999999999,"N_COORD97":2543980.8799999999,"ADDRESS":"大廟三街２０巷１６號","OBJECTID":339968},"geometry":{"x":176056.74000000022,"y":2543980.8800000008}},{"attributes":{"ID":339978,"DIS_CODE":0,"TOWNNAME":"歸仁區","LI":"文化里","LIN":"1鄰","STREET":"中正北路","SECT":"一段","MAREA":" ","LANE":"１１３巷","ALLEY":" ","HOUSE_NO":"３號","E_COORD97":177704.06,"N_COORD97":2541253.25,"ADDRESS":"中正北路一段１１３巷３號","OBJECTID":339969},"geometry":{"x":177704.06000000052,"y":2541253.2500000019}},{"attributes":{"ID":339979,"DIS_CODE":0,"TOWNNAME":"歸仁區","LI":"南保里","LIN":"1鄰","STREET":"民權二街","SECT":" ","MAREA":" ","LANE":"２巷","ALLEY":" ","HOUSE_NO":"７號","E_COORD97":176988.73999999999,"N_COORD97":2541403.29,"ADDRESS":"民權二街２巷７號","OBJECTID":339970},"geometry":{"x":176988.74000000115,"y":2541403.2899999991}},{"attributes":{"ID":339980,"DIS_CODE":0,"TOWNNAME":"關廟區","LI":"五甲里","LIN":"1鄰","STREET":"和平路","SECT":" ","MAREA":" ","LANE":"１１巷","ALLEY":" ","HOUSE_NO":"１號","E_COORD97":181705.98999999999,"N_COORD97":2539315.25,"ADDRESS":"和平路１１巷１號","OBJECTID":339971},"geometry":{"x":181705.99000000115,"y":2539315.25}},{"attributes":{"ID":339981,"DIS_CODE":0,"TOWNNAME":"關廟區","LI":"下湖里","LIN":"1鄰","STREET":"南雄路","SECT":"二段","MAREA":" ","LANE":"８７５巷","ALLEY":" ","HOUSE_NO":"８８號","E_COORD97":180109.84,"N_COORD97":2541246.2999999998,"ADDRESS":"南雄路二段８７５巷８８號","OBJECTID":339972},"geometry":{"x":180109.84000000078,"y":2541246.3000000045}},{"attributes":{"ID":339982,"DIS_CODE":0,"TOWNNAME":"關廟區","LI":"下湖里","LIN":"1鄰","STREET":"保東一街","SECT":" ","MAREA":" ","LANE":"３６８巷","ALLEY":" ","HOUSE_NO":"２２１號","E_COORD97":178098.04000000001,"N_COORD97":2542926.2999999998,"ADDRESS":"保東一街３６８巷２２１號","OBJECTID":339973},"geometry":{"x":178098.04000000097,"y":2542926.3000000007}},{"attributes":{"ID":339983,"DIS_CODE":0,"TOWNNAME":"白河區","LI":"六溪里","LIN":"5鄰","STREET":" ","SECT":" ","MAREA":"六重溪","LANE":" ","ALLEY":" ","HOUSE_NO":"２８號","E_COORD97":194717.37,"N_COORD97":2578654.1299999999,"ADDRESS":"六重溪２８號","OBJECTID":339974},"geometry":{"x":194717.37000000104,"y":2578654.129999999}},{"attributes":{"ID":339984,"DIS_CODE":0,"TOWNNAME":"白河區","LI":"內角里","LIN":"5鄰","STREET":" ","SECT":" ","MAREA":"內角","LANE":" ","ALLEY":" ","HOUSE_NO":"６２之６號","E_COORD97":192623.12,"N_COORD97":2588498.52,"ADDRESS":"內角６２之６號","OBJECTID":339975},"geometry":{"x":192623.12000000011,"y":2588498.5200000033}},{"attributes":{"ID":339985,"DIS_CODE":0,"TOWNNAME":"白河區","LI":"內角里","LIN":"5鄰","STREET":" ","SECT":" ","MAREA":"內角","LANE":" ","ALLEY":" ","HOUSE_NO":"６２之７號","E_COORD97":192621.45000000001,"N_COORD97":2588502.98,"ADDRESS":"內角６２之７號","OBJECTID":339976},"geometry":{"x":192621.45000000112,"y":2588502.9799999986}},{"attributes":{"ID":339986,"DIS_CODE":0,"TOWNNAME":"白河區","LI":"內角里","LIN":"5鄰","STREET":" ","SECT":" ","MAREA":"內角","LANE":" ","ALLEY":" ","HOUSE_NO":"６３號","E_COORD97":192578.06,"N_COORD97":2588561.5899999999,"ADDRESS":"內角６３號","OBJECTID":339977},"geometry":{"x":192578.06000000052,"y":2588561.5899999999}},{"attributes":{"ID":339987,"DIS_CODE":0,"TOWNNAME":"白河區","LI":"六溪里","LIN":"5鄰","STREET":" ","SECT":" ","MAREA":"六重溪","LANE":" ","ALLEY":" ","HOUSE_NO":"３２號","E_COORD97":194736.10999999999,"N_COORD97":2578676.5,"ADDRESS":"六重溪３２號","OBJECTID":339978},"geometry":{"x":194736.11000000127,"y":2578676.5}},{"attributes":{"ID":339988,"DIS_CODE":0,"TOWNNAME":"白河區","LI":"內角里","LIN":"5鄰","STREET":" ","SECT":" ","MAREA":"內角","LANE":" ","ALLEY":" ","HOUSE_NO":"６４之２號","E_COORD97":192583.41,"N_COORD97":2588505.2200000002,"ADDRESS":"內角６４之２號","OBJECTID":339979},"geometry":{"x":192583.41000000015,"y":2588505.2200000044}},{"attributes":{"ID":339989,"DIS_CODE":0,"TOWNNAME":"白河區","LI":"內角里","LIN":"5鄰","STREET":" ","SECT":" ","MAREA":"內角","LANE":" ","ALLEY":" ","HOUSE_NO":"６４號","E_COORD97":192559.01000000001,"N_COORD97":2588567.1699999999,"ADDRESS":"內角６４號","OBJECTID":339980},"geometry":{"x":192559.00999999978,"y":2588567.1700000018}},{"attributes":{"ID":339990,"DIS_CODE":0,"TOWNNAME":"白河區","LI":"內角里","LIN":"5鄰","STREET":" ","SECT":" ","MAREA":"內角","LANE":" ","ALLEY":" ","HOUSE_NO":"６５之１號","E_COORD97":192561.81,"N_COORD97":2588510.8900000001,"ADDRESS":"內角６５之１號","OBJECTID":339981},"geometry":{"x":192561.80999999959,"y":2588510.8900000043}},{"attributes":{"ID":339991,"DIS_CODE":0,"TOWNNAME":"白河區","LI":"內角里","LIN":"5鄰","STREET":" ","SECT":" ","MAREA":"內角","LANE":" ","ALLEY":" ","HOUSE_NO":"６７之１號","E_COORD97":192516.07999999999,"N_COORD97":2588501.2400000002,"ADDRESS":"內角６７之１號","OBJECTID":339982},"geometry":{"x":192516.08000000007,"y":2588501.2400000039}},{"attributes":{"ID":339992,"DIS_CODE":0,"TOWNNAME":"白河區","LI":"內角里","LIN":"5鄰","STREET":" ","SECT":" ","MAREA":"內角","LANE":" ","ALLEY":" ","HOUSE_NO":"６９之１號","E_COORD97":192526.16,"N_COORD97":2588561.3999999999,"ADDRESS":"內角６９之１號","OBJECTID":339983},"geometry":{"x":192526.16000000015,"y":2588561.4000000041}},{"attributes":{"ID":339993,"DIS_CODE":0,"TOWNNAME":"白河區","LI":"內角里","LIN":"5鄰","STREET":" ","SECT":" ","MAREA":"內角","LANE":" ","ALLEY":" ","HOUSE_NO":"７１號","E_COORD97":192508.34,"N_COORD97":2588543.6000000001,"ADDRESS":"內角７１號","OBJECTID":339984},"geometry":{"x":192508.34000000078,"y":2588543.6000000015}},{"attributes":{"ID":339994,"DIS_CODE":0,"TOWNNAME":"白河區","LI":"內角里","LIN":"5鄰","STREET":" ","SECT":" ","MAREA":"內角","LANE":" ","ALLEY":" ","HOUSE_NO":"７２號","E_COORD97":192491.53,"N_COORD97":2588541.7799999998,"ADDRESS":"內角７２號","OBJECTID":339985},"geometry":{"x":192491.53000000026,"y":2588541.7800000012}},{"attributes":{"ID":339995,"DIS_CODE":0,"TOWNNAME":"白河區","LI":"崎內里","LIN":"5鄰","STREET":" ","SECT":" ","MAREA":"內崎內","LANE":" ","ALLEY":" ","HOUSE_NO":"２８號","E_COORD97":195306.62,"N_COORD97":2587370.77,"ADDRESS":"內崎內２８號","OBJECTID":339986},"geometry":{"x":195306.62000000011,"y":2587370.7699999996}},{"attributes":{"ID":339996,"DIS_CODE":0,"TOWNNAME":"白河區","LI":"崎內里","LIN":"5鄰","STREET":" ","SECT":" ","MAREA":"內崎內","LANE":" ","ALLEY":" ","HOUSE_NO":"２９之１號","E_COORD97":195309.26999999999,"N_COORD97":2587166.98,"ADDRESS":"內崎內２９之１號","OBJECTID":339987},"geometry":{"x":195309.27000000048,"y":2587166.9800000004}},{"attributes":{"ID":339997,"DIS_CODE":0,"TOWNNAME":"白河區","LI":"崎內里","LIN":"5鄰","STREET":" ","SECT":" ","MAREA":"內崎內","LANE":" ","ALLEY":" ","HOUSE_NO":"２９號","E_COORD97":195319.03,"N_COORD97":2587166,"ADDRESS":"內崎內２９號","OBJECTID":339988},"geometry":{"x":195319.03000000026,"y":2587166}},{"attributes":{"ID":339998,"DIS_CODE":0,"TOWNNAME":"白河區","LI":"崎內里","LIN":"5鄰","STREET":" ","SECT":" ","MAREA":"內崎內","LANE":" ","ALLEY":" ","HOUSE_NO":"３０之１號","E_COORD97":195335.98000000001,"N_COORD97":2587149.1099999999,"ADDRESS":"內崎內３０之１號","OBJECTID":339989},"geometry":{"x":195335.98000000138,"y":2587149.1100000013}},{"attributes":{"ID":339999,"DIS_CODE":0,"TOWNNAME":"白河區","LI":"崎內里","LIN":"5鄰","STREET":" ","SECT":" ","MAREA":"內崎內","LANE":" ","ALLEY":" ","HOUSE_NO":"３２號","E_COORD97":195377.75,"N_COORD97":2587180.9500000002,"ADDRESS":"內崎內３２號","OBJECTID":339990},"geometry":{"x":195377.75000000093,"y":2587180.9500000011}},{"attributes":{"ID":340000,"DIS_CODE":0,"TOWNNAME":"白河區","LI":"崎內里","LIN":"5鄰","STREET":" ","SECT":" ","MAREA":"內崎內","LANE":" ","ALLEY":" ","HOUSE_NO":"３４號","E_COORD97":195422.51999999999,"N_COORD97":2587154.54,"ADDRESS":"內崎內３４號","OBJECTID":339991},"geometry":{"x":195422.52000000048,"y":2587154.5399999991}},{"attributes":{"ID":340001,"DIS_CODE":0,"TOWNNAME":"關廟區","LI":"北勢里","LIN":"1鄰","STREET":"中正路","SECT":" ","MAREA":" ","LANE":"９０８巷","ALLEY":" ","HOUSE_NO":"８號","E_COORD97":181232.26000000001,"N_COORD97":2540297.25,"ADDRESS":"中正路９０８巷８號","OBJECTID":339992},"geometry":{"x":181232.26000000071,"y":2540297.2500000019}},{"attributes":{"ID":340002,"DIS_CODE":0,"TOWNNAME":"關廟區","LI":"下湖里","LIN":"1鄰","STREET":"下湖二街","SECT":" ","MAREA":" ","LANE":"１６巷","ALLEY":" ","HOUSE_NO":"１６號","E_COORD97":179433.79000000001,"N_COORD97":2542835.2999999998,"ADDRESS":"下湖二街１６巷１６號","OBJECTID":339993},"geometry":{"x":179433.79000000097,"y":2542835.3000000007}},{"attributes":{"ID":340003,"DIS_CODE":0,"TOWNNAME":"白河區","LI":"崎內里","LIN":"5鄰","STREET":" ","SECT":" ","MAREA":"內崎內","LANE":" ","ALLEY":" ","HOUSE_NO":"３６號","E_COORD97":195461.17000000001,"N_COORD97":2587140.5499999998,"ADDRESS":"內崎內３６號","OBJECTID":339994},"geometry":{"x":195461.17000000086,"y":2587140.5500000026}},{"attributes":{"ID":340004,"DIS_CODE":0,"TOWNNAME":"白河區","LI":"崎內里","LIN":"5鄰","STREET":" ","SECT":" ","MAREA":"內崎內","LANE":" ","ALLEY":" ","HOUSE_NO":"３７之１號","E_COORD97":195492.92000000001,"N_COORD97":2587127.4700000002,"ADDRESS":"內崎內３７之１號","OBJECTID":339995},"geometry":{"x":195492.92000000086,"y":2587127.4700000025}},{"attributes":{"ID":340005,"DIS_CODE":0,"TOWNNAME":"白河區","LI":"崎內里","LIN":"5鄰","STREET":" ","SECT":" ","MAREA":"內崎內","LANE":" ","ALLEY":" ","HOUSE_NO":"３７號","E_COORD97":195481.23999999999,"N_COORD97":2587134.4700000002,"ADDRESS":"內崎內３７號","OBJECTID":339996},"geometry":{"x":195481.24000000115,"y":2587134.4700000025}},{"attributes":{"ID":340006,"DIS_CODE":0,"TOWNNAME":"白河區","LI":"崎內里","LIN":"5鄰","STREET":" ","SECT":" ","MAREA":"內崎內","LANE":" ","ALLEY":" ","HOUSE_NO":"３８之１０號","E_COORD97":195558.84,"N_COORD97":2587025.46,"ADDRESS":"內崎內３８之１０號","OBJECTID":339997},"geometry":{"x":195558.83999999985,"y":2587025.459999999}},{"attributes":{"ID":340007,"DIS_CODE":0,"TOWNNAME":"白河區","LI":"崎內里","LIN":"5鄰","STREET":" ","SECT":" ","MAREA":"內崎內","LANE":" ","ALLEY":" ","HOUSE_NO":"３８之１號","E_COORD97":195525.07999999999,"N_COORD97":2587095.46,"ADDRESS":"內崎內３８之１號","OBJECTID":339998},"geometry":{"x":195525.08000000007,"y":2587095.4600000009}},{"attributes":{"ID":340008,"DIS_CODE":0,"TOWNNAME":"仁德區","LI":"新田里","LIN":"5鄰","STREET":"勝利二街","SECT":" ","MAREA":" ","LANE":"１９巷","ALLEY":" ","HOUSE_NO":"１０號","E_COORD97":174925.54000000001,"N_COORD97":2539331.75,"ADDRESS":"勝利二街１９巷１０號","OBJECTID":339999},"geometry":{"x":174925.54000000004,"y":2539331.7500000019}},{"attributes":{"ID":340009,"DIS_CODE":0,"TOWNNAME":"仁德區","LI":"保安里","LIN":"5鄰","STREET":"中正路","SECT":"一段","MAREA":" ","LANE":"２００巷","ALLEY":" ","HOUSE_NO":"３號","E_COORD97":171604.13,"N_COORD97":2535763.7799999998,"ADDRESS":"中正路一段２００巷３號","OBJECTID":340000},"geometry":{"x":171604.12999999989,"y":2535763.7800000012}}]}