{"displayFieldName":"TOWNNAME","fieldAliases":{"ID":"ID","DIS_CODE":"DIS_CODE","TOWNNAME":"TOWNNAME","LI":"LI","LIN":"LIN","STREET":"STREET","SECT":"SECT","MAREA":"MAREA","LANE":"LANE","ALLEY":"ALLEY","HOUSE_NO":"HOUSE_NO","E_COORD97":"E_COORD97","N_COORD97":"N_COORD97","ADDRESS":"ADDRESS","OBJECTID":"OBJECTID"},"geometryType":"esriGeometryPoint","spatialReference":{"wkid":102443,"latestWkid":3826},"fields":[{"name":"ID","type":"esriFieldTypeDouble","alias":"ID"},{"name":"DIS_CODE","type":"esriFieldTypeInteger","alias":"DIS_CODE"},{"name":"TOWNNAME","type":"esriFieldTypeString","alias":"TOWNNAME","length":8},{"name":"LI","type":"esriFieldTypeString","alias":"LI","length":8},{"name":"LIN","type":"esriFieldTypeString","alias":"LIN","length":12},{"name":"STREET","type":"esriFieldTypeString","alias":"STREET","length":20},{"name":"SECT","type":"esriFieldTypeString","alias":"SECT","length":8},{"name":"MAREA","type":"esriFieldTypeString","alias":"MAREA","length":12},{"name":"LANE","type":"esriFieldTypeString","alias":"LANE","length":10},{"name":"ALLEY","type":"esriFieldTypeString","alias":"ALLEY","length":10},{"name":"HOUSE_NO","type":"esriFieldTypeString","alias":"HOUSE_NO","length":20},{"name":"E_COORD97","type":"esriFieldTypeDouble","alias":"E_COORD97"},{"name":"N_COORD97","type":"esriFieldTypeDouble","alias":"N_COORD97"},{"name":"ADDRESS","type":"esriFieldTypeString","alias":"ADDRESS","length":50},{"name":"OBJECTID","type":"esriFieldTypeOID","alias":"OBJECTID"}],"features":[{"attributes":{"ID":548828,"DIS_CODE":0,"TOWNNAME":"東區","LI":"東門里","LIN":"10鄰","STREET":"新樓街","SECT":" ","MAREA":" ","LANE":" ","ALLEY":" ","HOUSE_NO":"５號三樓","E_COORD97":169312.78,"N_COORD97":2543388.6800000002,"ADDRESS":"新樓街５號三樓","OBJECTID":548801},"geometry":{"x":169312.78000000026,"y":2543388.6800000034}},{"attributes":{"ID":548829,"DIS_CODE":0,"TOWNNAME":"東區","LI":"東門里","LIN":"10鄰","STREET":"新樓街","SECT":" ","MAREA":" ","LANE":" ","ALLEY":" ","HOUSE_NO":"５號四樓","E_COORD97":169312.78,"N_COORD97":2543388.6800000002,"ADDRESS":"新樓街５號四樓","OBJECTID":548802},"geometry":{"x":169312.78000000026,"y":2543388.6800000034}},{"attributes":{"ID":548830,"DIS_CODE":0,"TOWNNAME":"中西區","LI":"民權里","LIN":"10鄰","STREET":"民權路","SECT":"三段","MAREA":" ","LANE":" ","ALLEY":" ","HOUSE_NO":"１３０號二樓","E_COORD97":167624.79000000001,"N_COORD97":2544208.3799999999,"ADDRESS":"民權路三段１３０號二樓","OBJECTID":548803},"geometry":{"x":167624.7900000019,"y":2544208.3800000008}},{"attributes":{"ID":548831,"DIS_CODE":0,"TOWNNAME":"中西區","LI":"民權里","LIN":"10鄰","STREET":"民權路","SECT":"三段","MAREA":" ","LANE":" ","ALLEY":" ","HOUSE_NO":"１３０號三樓","E_COORD97":167624.79000000001,"N_COORD97":2544208.3799999999,"ADDRESS":"民權路三段１３０號三樓","OBJECTID":548804},"geometry":{"x":167624.7900000019,"y":2544208.3800000008}},{"attributes":{"ID":548832,"DIS_CODE":0,"TOWNNAME":"中西區","LI":"民權里","LIN":"10鄰","STREET":"民權路","SECT":"三段","MAREA":" ","LANE":" ","ALLEY":" ","HOUSE_NO":"１３０號五樓","E_COORD97":167624.79000000001,"N_COORD97":2544208.3799999999,"ADDRESS":"民權路三段１３０號五樓","OBJECTID":548805},"geometry":{"x":167624.7900000019,"y":2544208.3800000008}},{"attributes":{"ID":548833,"DIS_CODE":0,"TOWNNAME":"中西區","LI":"民權里","LIN":"10鄰","STREET":"民權路","SECT":"三段","MAREA":" ","LANE":" ","ALLEY":" ","HOUSE_NO":"１３０號四樓","E_COORD97":167624.79000000001,"N_COORD97":2544208.3799999999,"ADDRESS":"民權路三段１３０號四樓","OBJECTID":548806},"geometry":{"x":167624.7900000019,"y":2544208.3800000008}},{"attributes":{"ID":548834,"DIS_CODE":0,"TOWNNAME":"中西區","LI":"協進里","LIN":"10鄰","STREET":"民生路","SECT":"二段","MAREA":" ","LANE":" ","ALLEY":" ","HOUSE_NO":"３９０號十一樓","E_COORD97":166819.03,"N_COORD97":2544269.8199999998,"ADDRESS":"民生路二段３９０號十一樓","OBJECTID":548807},"geometry":{"x":166819.03000000119,"y":2544269.820000004}},{"attributes":{"ID":548835,"DIS_CODE":0,"TOWNNAME":"中西區","LI":"協進里","LIN":"10鄰","STREET":"民生路","SECT":"二段","MAREA":" ","LANE":" ","ALLEY":" ","HOUSE_NO":"３９０號十二樓","E_COORD97":166819.03,"N_COORD97":2544269.8199999998,"ADDRESS":"民生路二段３９０號十二樓","OBJECTID":548808},"geometry":{"x":166819.03000000119,"y":2544269.820000004}},{"attributes":{"ID":548836,"DIS_CODE":0,"TOWNNAME":"中西區","LI":"協進里","LIN":"10鄰","STREET":"民生路","SECT":"二段","MAREA":" ","LANE":" ","ALLEY":" ","HOUSE_NO":"３９０號十三樓","E_COORD97":166819.03,"N_COORD97":2544269.8199999998,"ADDRESS":"民生路二段３９０號十三樓","OBJECTID":548809},"geometry":{"x":166819.03000000119,"y":2544269.820000004}},{"attributes":{"ID":548837,"DIS_CODE":0,"TOWNNAME":"中西區","LI":"協進里","LIN":"10鄰","STREET":"民生路","SECT":"二段","MAREA":" ","LANE":" ","ALLEY":" ","HOUSE_NO":"３９０號十樓","E_COORD97":166819.03,"N_COORD97":2544269.8199999998,"ADDRESS":"民生路二段３９０號十樓","OBJECTID":548810},"geometry":{"x":166819.03000000119,"y":2544269.820000004}},{"attributes":{"ID":548838,"DIS_CODE":0,"TOWNNAME":"中西區","LI":"協進里","LIN":"10鄰","STREET":"民生路","SECT":"二段","MAREA":" ","LANE":" ","ALLEY":" ","HOUSE_NO":"３９０號三樓","E_COORD97":166819.03,"N_COORD97":2544269.8199999998,"ADDRESS":"民生路二段３９０號三樓","OBJECTID":548811},"geometry":{"x":166819.03000000119,"y":2544269.820000004}},{"attributes":{"ID":548839,"DIS_CODE":0,"TOWNNAME":"中西區","LI":"協進里","LIN":"10鄰","STREET":"民生路","SECT":"二段","MAREA":" ","LANE":" ","ALLEY":" ","HOUSE_NO":"３９０號五樓","E_COORD97":166819.03,"N_COORD97":2544269.8199999998,"ADDRESS":"民生路二段３９０號五樓","OBJECTID":548812},"geometry":{"x":166819.03000000119,"y":2544269.820000004}},{"attributes":{"ID":548840,"DIS_CODE":0,"TOWNNAME":"中西區","LI":"協進里","LIN":"10鄰","STREET":"民生路","SECT":"二段","MAREA":" ","LANE":" ","ALLEY":" ","HOUSE_NO":"３９０號六樓","E_COORD97":166819.03,"N_COORD97":2544269.8199999998,"ADDRESS":"民生路二段３９０號六樓","OBJECTID":548813},"geometry":{"x":166819.03000000119,"y":2544269.820000004}},{"attributes":{"ID":548841,"DIS_CODE":0,"TOWNNAME":"中西區","LI":"協進里","LIN":"10鄰","STREET":"民生路","SECT":"二段","MAREA":" ","LANE":" ","ALLEY":" ","HOUSE_NO":"３９０號四樓","E_COORD97":166819.03,"N_COORD97":2544269.8199999998,"ADDRESS":"民生路二段３９０號四樓","OBJECTID":548814},"geometry":{"x":166819.03000000119,"y":2544269.820000004}},{"attributes":{"ID":548842,"DIS_CODE":0,"TOWNNAME":"中西區","LI":"協進里","LIN":"10鄰","STREET":"民生路","SECT":"二段","MAREA":" ","LANE":" ","ALLEY":" ","HOUSE_NO":"３９２之１號七樓","E_COORD97":166821.92999999999,"N_COORD97":2544281.5099999998,"ADDRESS":"民生路二段３９２之１號七樓","OBJECTID":548815},"geometry":{"x":166821.93000000063,"y":2544281.5100000035}},{"attributes":{"ID":548843,"DIS_CODE":0,"TOWNNAME":"中西區","LI":"協進里","LIN":"10鄰","STREET":"民生路","SECT":"二段","MAREA":" ","LANE":" ","ALLEY":" ","HOUSE_NO":"３９２之１號二樓","E_COORD97":166821.92999999999,"N_COORD97":2544281.5099999998,"ADDRESS":"民生路二段３９２之１號二樓","OBJECTID":548816},"geometry":{"x":166821.93000000063,"y":2544281.5100000035}},{"attributes":{"ID":548844,"DIS_CODE":0,"TOWNNAME":"中西區","LI":"協進里","LIN":"10鄰","STREET":"民生路","SECT":"二段","MAREA":" ","LANE":" ","ALLEY":" ","HOUSE_NO":"３９２之１號三樓","E_COORD97":166821.92999999999,"N_COORD97":2544281.5099999998,"ADDRESS":"民生路二段３９２之１號三樓","OBJECTID":548817},"geometry":{"x":166821.93000000063,"y":2544281.5100000035}},{"attributes":{"ID":548845,"DIS_CODE":0,"TOWNNAME":"中西區","LI":"協進里","LIN":"10鄰","STREET":"民生路","SECT":"二段","MAREA":" ","LANE":" ","ALLEY":" ","HOUSE_NO":"３９２之１號五樓","E_COORD97":166821.92999999999,"N_COORD97":2544281.5099999998,"ADDRESS":"民生路二段３９２之１號五樓","OBJECTID":548818},"geometry":{"x":166821.93000000063,"y":2544281.5100000035}},{"attributes":{"ID":548846,"DIS_CODE":0,"TOWNNAME":"中西區","LI":"協進里","LIN":"10鄰","STREET":"民生路","SECT":"二段","MAREA":" ","LANE":" ","ALLEY":" ","HOUSE_NO":"３９２之１號六樓","E_COORD97":166821.92999999999,"N_COORD97":2544281.5099999998,"ADDRESS":"民生路二段３９２之１號六樓","OBJECTID":548819},"geometry":{"x":166821.93000000063,"y":2544281.5100000035}},{"attributes":{"ID":548847,"DIS_CODE":0,"TOWNNAME":"中西區","LI":"協進里","LIN":"10鄰","STREET":"民生路","SECT":"二段","MAREA":" ","LANE":" ","ALLEY":" ","HOUSE_NO":"３９２之１號四樓","E_COORD97":166821.92999999999,"N_COORD97":2544281.5099999998,"ADDRESS":"民生路二段３９２之１號四樓","OBJECTID":548820},"geometry":{"x":166821.93000000063,"y":2544281.5100000035}},{"attributes":{"ID":548848,"DIS_CODE":0,"TOWNNAME":"中西區","LI":"協進里","LIN":"10鄰","STREET":"民生路","SECT":"二段","MAREA":" ","LANE":" ","ALLEY":" ","HOUSE_NO":"３９２號七樓","E_COORD97":166820.85000000001,"N_COORD97":2544277.2200000002,"ADDRESS":"民生路二段３９２號七樓","OBJECTID":548821},"geometry":{"x":166820.85000000056,"y":2544277.2200000007}},{"attributes":{"ID":548849,"DIS_CODE":0,"TOWNNAME":"中西區","LI":"協進里","LIN":"10鄰","STREET":"民生路","SECT":"二段","MAREA":" ","LANE":" ","ALLEY":" ","HOUSE_NO":"３９２號九樓","E_COORD97":166820.85000000001,"N_COORD97":2544277.2200000002,"ADDRESS":"民生路二段３９２號九樓","OBJECTID":548822},"geometry":{"x":166820.85000000056,"y":2544277.2200000007}},{"attributes":{"ID":548850,"DIS_CODE":0,"TOWNNAME":"中西區","LI":"協進里","LIN":"10鄰","STREET":"民生路","SECT":"二段","MAREA":" ","LANE":" ","ALLEY":" ","HOUSE_NO":"３９２號二樓","E_COORD97":166820.85000000001,"N_COORD97":2544277.2200000002,"ADDRESS":"民生路二段３９２號二樓","OBJECTID":548823},"geometry":{"x":166820.85000000056,"y":2544277.2200000007}},{"attributes":{"ID":548851,"DIS_CODE":0,"TOWNNAME":"中西區","LI":"協進里","LIN":"10鄰","STREET":"民生路","SECT":"二段","MAREA":" ","LANE":" ","ALLEY":" ","HOUSE_NO":"３９２號八樓","E_COORD97":166820.85000000001,"N_COORD97":2544277.2200000002,"ADDRESS":"民生路二段３９２號八樓","OBJECTID":548824},"geometry":{"x":166820.85000000056,"y":2544277.2200000007}},{"attributes":{"ID":548852,"DIS_CODE":0,"TOWNNAME":"中西區","LI":"協進里","LIN":"10鄰","STREET":"民生路","SECT":"二段","MAREA":" ","LANE":" ","ALLEY":" ","HOUSE_NO":"３９２號十一樓","E_COORD97":166820.85000000001,"N_COORD97":2544277.2200000002,"ADDRESS":"民生路二段３９２號十一樓","OBJECTID":548825},"geometry":{"x":166820.85000000056,"y":2544277.2200000007}},{"attributes":{"ID":548853,"DIS_CODE":0,"TOWNNAME":"中西區","LI":"協進里","LIN":"10鄰","STREET":"民生路","SECT":"二段","MAREA":" ","LANE":" ","ALLEY":" ","HOUSE_NO":"３９２號十二樓","E_COORD97":166820.85000000001,"N_COORD97":2544277.2200000002,"ADDRESS":"民生路二段３９２號十二樓","OBJECTID":548826},"geometry":{"x":166820.85000000056,"y":2544277.2200000007}},{"attributes":{"ID":548854,"DIS_CODE":0,"TOWNNAME":"中西區","LI":"協進里","LIN":"10鄰","STREET":"民生路","SECT":"二段","MAREA":" ","LANE":" ","ALLEY":" ","HOUSE_NO":"３９２號十三樓","E_COORD97":166820.85000000001,"N_COORD97":2544277.2200000002,"ADDRESS":"民生路二段３９２號十三樓","OBJECTID":548827},"geometry":{"x":166820.85000000056,"y":2544277.2200000007}},{"attributes":{"ID":548855,"DIS_CODE":0,"TOWNNAME":"中西區","LI":"協進里","LIN":"10鄰","STREET":"民生路","SECT":"二段","MAREA":" ","LANE":" ","ALLEY":" ","HOUSE_NO":"３９２號十樓","E_COORD97":166820.85000000001,"N_COORD97":2544277.2200000002,"ADDRESS":"民生路二段３９２號十樓","OBJECTID":548828},"geometry":{"x":166820.85000000056,"y":2544277.2200000007}},{"attributes":{"ID":548856,"DIS_CODE":0,"TOWNNAME":"中西區","LI":"協進里","LIN":"10鄰","STREET":"民生路","SECT":"二段","MAREA":" ","LANE":" ","ALLEY":" ","HOUSE_NO":"３９２號三樓","E_COORD97":166820.85000000001,"N_COORD97":2544277.2200000002,"ADDRESS":"民生路二段３９２號三樓","OBJECTID":548829},"geometry":{"x":166820.85000000056,"y":2544277.2200000007}},{"attributes":{"ID":548857,"DIS_CODE":0,"TOWNNAME":"中西區","LI":"協進里","LIN":"10鄰","STREET":"民生路","SECT":"二段","MAREA":" ","LANE":" ","ALLEY":" ","HOUSE_NO":"３９２號五樓","E_COORD97":166820.85000000001,"N_COORD97":2544277.2200000002,"ADDRESS":"民生路二段３９２號五樓","OBJECTID":548830},"geometry":{"x":166820.85000000056,"y":2544277.2200000007}},{"attributes":{"ID":548858,"DIS_CODE":0,"TOWNNAME":"中西區","LI":"協進里","LIN":"10鄰","STREET":"民生路","SECT":"二段","MAREA":" ","LANE":" ","ALLEY":" ","HOUSE_NO":"３９２號六樓","E_COORD97":166820.85000000001,"N_COORD97":2544277.2200000002,"ADDRESS":"民生路二段３９２號六樓","OBJECTID":548831},"geometry":{"x":166820.85000000056,"y":2544277.2200000007}},{"attributes":{"ID":548859,"DIS_CODE":0,"TOWNNAME":"中西區","LI":"協進里","LIN":"10鄰","STREET":"民生路","SECT":"二段","MAREA":" ","LANE":" ","ALLEY":" ","HOUSE_NO":"３９２號四樓","E_COORD97":166820.85000000001,"N_COORD97":2544277.2200000002,"ADDRESS":"民生路二段３９２號四樓","OBJECTID":548832},"geometry":{"x":166820.85000000056,"y":2544277.2200000007}},{"attributes":{"ID":548860,"DIS_CODE":0,"TOWNNAME":"永康區","LI":"西橋里","LIN":"10鄰","STREET":"中華西街","SECT":" ","MAREA":" ","LANE":" ","ALLEY":" ","HOUSE_NO":"１０９號三樓之３","E_COORD97":170698.5,"N_COORD97":2546143.0499999998,"ADDRESS":"中華西街１０９號三樓之３","OBJECTID":548833},"geometry":{"x":170698.50000000186,"y":2546143.0500000007}},{"attributes":{"ID":548861,"DIS_CODE":0,"TOWNNAME":"中西區","LI":"銀同里","LIN":"10鄰","STREET":"友愛東街","SECT":" ","MAREA":" ","LANE":" ","ALLEY":" ","HOUSE_NO":"１７號二樓之１","E_COORD97":168722.69,"N_COORD97":2543578.1099999999,"ADDRESS":"友愛東街１７號二樓之１","OBJECTID":548834},"geometry":{"x":168722.69000000227,"y":2543578.1099999994}},{"attributes":{"ID":548862,"DIS_CODE":0,"TOWNNAME":"中西區","LI":"銀同里","LIN":"10鄰","STREET":"友愛東街","SECT":" ","MAREA":" ","LANE":" ","ALLEY":" ","HOUSE_NO":"１７號二樓之２","E_COORD97":168722.69,"N_COORD97":2543578.1099999999,"ADDRESS":"友愛東街１７號二樓之２","OBJECTID":548835},"geometry":{"x":168722.69000000227,"y":2543578.1099999994}},{"attributes":{"ID":548863,"DIS_CODE":0,"TOWNNAME":"中西區","LI":"銀同里","LIN":"10鄰","STREET":"友愛東街","SECT":" ","MAREA":" ","LANE":" ","ALLEY":" ","HOUSE_NO":"１７號三樓之１","E_COORD97":168722.69,"N_COORD97":2543578.1099999999,"ADDRESS":"友愛東街１７號三樓之１","OBJECTID":548836},"geometry":{"x":168722.69000000227,"y":2543578.1099999994}},{"attributes":{"ID":548864,"DIS_CODE":0,"TOWNNAME":"中西區","LI":"銀同里","LIN":"10鄰","STREET":"友愛東街","SECT":" ","MAREA":" ","LANE":" ","ALLEY":" ","HOUSE_NO":"１７號三樓之２","E_COORD97":168722.69,"N_COORD97":2543578.1099999999,"ADDRESS":"友愛東街１７號三樓之２","OBJECTID":548837},"geometry":{"x":168722.69000000227,"y":2543578.1099999994}},{"attributes":{"ID":548865,"DIS_CODE":0,"TOWNNAME":"中西區","LI":"銀同里","LIN":"10鄰","STREET":"友愛東街","SECT":" ","MAREA":" ","LANE":" ","ALLEY":" ","HOUSE_NO":"１７號五樓之１","E_COORD97":168722.69,"N_COORD97":2543578.1099999999,"ADDRESS":"友愛東街１７號五樓之１","OBJECTID":548838},"geometry":{"x":168722.69000000227,"y":2543578.1099999994}},{"attributes":{"ID":548866,"DIS_CODE":0,"TOWNNAME":"中西區","LI":"銀同里","LIN":"10鄰","STREET":"友愛東街","SECT":" ","MAREA":" ","LANE":" ","ALLEY":" ","HOUSE_NO":"１７號五樓之２","E_COORD97":168722.69,"N_COORD97":2543578.1099999999,"ADDRESS":"友愛東街１７號五樓之２","OBJECTID":548839},"geometry":{"x":168722.69000000227,"y":2543578.1099999994}},{"attributes":{"ID":548867,"DIS_CODE":0,"TOWNNAME":"東區","LI":"崇成里","LIN":"10鄰","STREET":"崇德十四街","SECT":" ","MAREA":" ","LANE":" ","ALLEY":" ","HOUSE_NO":"４１號","E_COORD97":170932.60999999999,"N_COORD97":2541256.2000000002,"ADDRESS":"崇德十四街４１號","OBJECTID":548840},"geometry":{"x":170932.61000000127,"y":2541256.2000000011}},{"attributes":{"ID":548868,"DIS_CODE":0,"TOWNNAME":"中西區","LI":"銀同里","LIN":"10鄰","STREET":"友愛東街","SECT":" ","MAREA":" ","LANE":" ","ALLEY":" ","HOUSE_NO":"１７號四樓之１","E_COORD97":168722.69,"N_COORD97":2543578.1099999999,"ADDRESS":"友愛東街１７號四樓之１","OBJECTID":548841},"geometry":{"x":168722.69000000227,"y":2543578.1099999994}},{"attributes":{"ID":548869,"DIS_CODE":0,"TOWNNAME":"中西區","LI":"銀同里","LIN":"10鄰","STREET":"友愛東街","SECT":" ","MAREA":" ","LANE":" ","ALLEY":" ","HOUSE_NO":"１７號四樓之２","E_COORD97":168722.69,"N_COORD97":2543578.1099999999,"ADDRESS":"友愛東街１７號四樓之２","OBJECTID":548842},"geometry":{"x":168722.69000000227,"y":2543578.1099999994}},{"attributes":{"ID":548870,"DIS_CODE":0,"TOWNNAME":"中西區","LI":"青年里","LIN":"10鄰","STREET":"民權路","SECT":"一段","MAREA":" ","LANE":" ","ALLEY":" ","HOUSE_NO":"２２４號二樓","E_COORD97":168765.10999999999,"N_COORD97":2543680.2400000002,"ADDRESS":"民權路一段２２４號二樓","OBJECTID":548843},"geometry":{"x":168765.11000000034,"y":2543680.2399999984}},{"attributes":{"ID":548871,"DIS_CODE":0,"TOWNNAME":"中西區","LI":"青年里","LIN":"10鄰","STREET":"民權路","SECT":"一段","MAREA":" ","LANE":" ","ALLEY":" ","HOUSE_NO":"２２４號三樓","E_COORD97":168765.10999999999,"N_COORD97":2543680.2400000002,"ADDRESS":"民權路一段２２４號三樓","OBJECTID":548844},"geometry":{"x":168765.11000000034,"y":2543680.2399999984}},{"attributes":{"ID":548872,"DIS_CODE":0,"TOWNNAME":"中西區","LI":"青年里","LIN":"10鄰","STREET":"民權路","SECT":"一段","MAREA":" ","LANE":" ","ALLEY":" ","HOUSE_NO":"２２４號四樓","E_COORD97":168765.10999999999,"N_COORD97":2543680.2400000002,"ADDRESS":"民權路一段２２４號四樓","OBJECTID":548845},"geometry":{"x":168765.11000000034,"y":2543680.2399999984}},{"attributes":{"ID":548873,"DIS_CODE":0,"TOWNNAME":"東區","LI":"崇成里","LIN":"10鄰","STREET":"崇德十四街","SECT":" ","MAREA":" ","LANE":" ","ALLEY":" ","HOUSE_NO":"３８號","E_COORD97":170905.57000000001,"N_COORD97":2541225.3599999999,"ADDRESS":"崇德十四街３８號","OBJECTID":548846},"geometry":{"x":170905.57000000123,"y":2541225.3600000013}},{"attributes":{"ID":548874,"DIS_CODE":0,"TOWNNAME":"永康區","LI":"正強里","LIN":"10鄰","STREET":"正義街","SECT":" ","MAREA":" ","LANE":" ","ALLEY":" ","HOUSE_NO":"９７號","E_COORD97":173418.84,"N_COORD97":2547551.77,"ADDRESS":"正義街９７號","OBJECTID":548847},"geometry":{"x":173418.84000000078,"y":2547551.7700000014}},{"attributes":{"ID":548875,"DIS_CODE":0,"TOWNNAME":"中西區","LI":"中正里","LIN":"10鄰","STREET":"正德街","SECT":" ","MAREA":" ","LANE":" ","ALLEY":" ","HOUSE_NO":"４８號七樓之５","E_COORD97":167547.51999999999,"N_COORD97":2543900.5600000001,"ADDRESS":"正德街４８號七樓之５","OBJECTID":548848},"geometry":{"x":167547.51999999955,"y":2543900.5600000024}},{"attributes":{"ID":548876,"DIS_CODE":0,"TOWNNAME":"中西區","LI":"中正里","LIN":"10鄰","STREET":"正德街","SECT":" ","MAREA":" ","LANE":" ","ALLEY":" ","HOUSE_NO":"４８號七樓之６","E_COORD97":167547.51999999999,"N_COORD97":2543900.5600000001,"ADDRESS":"正德街４８號七樓之６","OBJECTID":548849},"geometry":{"x":167547.51999999955,"y":2543900.5600000024}},{"attributes":{"ID":548877,"DIS_CODE":0,"TOWNNAME":"中西區","LI":"中正里","LIN":"10鄰","STREET":"正德街","SECT":" ","MAREA":" ","LANE":" ","ALLEY":" ","HOUSE_NO":"４８號二樓之１","E_COORD97":167547.51999999999,"N_COORD97":2543900.5600000001,"ADDRESS":"正德街４８號二樓之１","OBJECTID":548850},"geometry":{"x":167547.51999999955,"y":2543900.5600000024}},{"attributes":{"ID":548878,"DIS_CODE":0,"TOWNNAME":"中西區","LI":"中正里","LIN":"10鄰","STREET":"正德街","SECT":" ","MAREA":" ","LANE":" ","ALLEY":" ","HOUSE_NO":"４８號三樓之１","E_COORD97":167547.51999999999,"N_COORD97":2543900.5600000001,"ADDRESS":"正德街４８號三樓之１","OBJECTID":548851},"geometry":{"x":167547.51999999955,"y":2543900.5600000024}},{"attributes":{"ID":548879,"DIS_CODE":0,"TOWNNAME":"中西區","LI":"中正里","LIN":"10鄰","STREET":"正德街","SECT":" ","MAREA":" ","LANE":" ","ALLEY":" ","HOUSE_NO":"４８號三樓之２","E_COORD97":167547.51999999999,"N_COORD97":2543900.5600000001,"ADDRESS":"正德街４８號三樓之２","OBJECTID":548852},"geometry":{"x":167547.51999999955,"y":2543900.5600000024}},{"attributes":{"ID":548880,"DIS_CODE":0,"TOWNNAME":"中西區","LI":"中正里","LIN":"10鄰","STREET":"正德街","SECT":" ","MAREA":" ","LANE":" ","ALLEY":" ","HOUSE_NO":"４８號三樓之３","E_COORD97":167547.51999999999,"N_COORD97":2543900.5600000001,"ADDRESS":"正德街４８號三樓之３","OBJECTID":548853},"geometry":{"x":167547.51999999955,"y":2543900.5600000024}},{"attributes":{"ID":548881,"DIS_CODE":0,"TOWNNAME":"中西區","LI":"中正里","LIN":"10鄰","STREET":"正德街","SECT":" ","MAREA":" ","LANE":" ","ALLEY":" ","HOUSE_NO":"４８號三樓之４","E_COORD97":167547.51999999999,"N_COORD97":2543900.5600000001,"ADDRESS":"正德街４８號三樓之４","OBJECTID":548854},"geometry":{"x":167547.51999999955,"y":2543900.5600000024}},{"attributes":{"ID":548882,"DIS_CODE":0,"TOWNNAME":"中西區","LI":"中正里","LIN":"10鄰","STREET":"正德街","SECT":" ","MAREA":" ","LANE":" ","ALLEY":" ","HOUSE_NO":"４８號三樓之四","E_COORD97":167547.51999999999,"N_COORD97":2543900.5600000001,"ADDRESS":"正德街４８號三樓之四","OBJECTID":548855},"geometry":{"x":167547.51999999955,"y":2543900.5600000024}},{"attributes":{"ID":548883,"DIS_CODE":0,"TOWNNAME":"中西區","LI":"中正里","LIN":"10鄰","STREET":"正德街","SECT":" ","MAREA":" ","LANE":" ","ALLEY":" ","HOUSE_NO":"４８號五樓之１","E_COORD97":167547.51999999999,"N_COORD97":2543900.5600000001,"ADDRESS":"正德街４８號五樓之１","OBJECTID":548856},"geometry":{"x":167547.51999999955,"y":2543900.5600000024}},{"attributes":{"ID":548884,"DIS_CODE":0,"TOWNNAME":"中西區","LI":"中正里","LIN":"10鄰","STREET":"正德街","SECT":" ","MAREA":" ","LANE":" ","ALLEY":" ","HOUSE_NO":"４８號五樓之１０","E_COORD97":167547.51999999999,"N_COORD97":2543900.5600000001,"ADDRESS":"正德街４８號五樓之１０","OBJECTID":548857},"geometry":{"x":167547.51999999955,"y":2543900.5600000024}},{"attributes":{"ID":548885,"DIS_CODE":0,"TOWNNAME":"中西區","LI":"中正里","LIN":"10鄰","STREET":"正德街","SECT":" ","MAREA":" ","LANE":" ","ALLEY":" ","HOUSE_NO":"４８號五樓之２","E_COORD97":167547.51999999999,"N_COORD97":2543900.5600000001,"ADDRESS":"正德街４８號五樓之２","OBJECTID":548858},"geometry":{"x":167547.51999999955,"y":2543900.5600000024}},{"attributes":{"ID":548886,"DIS_CODE":0,"TOWNNAME":"中西區","LI":"中正里","LIN":"10鄰","STREET":"正德街","SECT":" ","MAREA":" ","LANE":" ","ALLEY":" ","HOUSE_NO":"４８號五樓之３","E_COORD97":167547.51999999999,"N_COORD97":2543900.5600000001,"ADDRESS":"正德街４８號五樓之３","OBJECTID":548859},"geometry":{"x":167547.51999999955,"y":2543900.5600000024}},{"attributes":{"ID":548887,"DIS_CODE":0,"TOWNNAME":"中西區","LI":"中正里","LIN":"10鄰","STREET":"正德街","SECT":" ","MAREA":" ","LANE":" ","ALLEY":" ","HOUSE_NO":"４８號五樓之４","E_COORD97":167547.51999999999,"N_COORD97":2543900.5600000001,"ADDRESS":"正德街４８號五樓之４","OBJECTID":548860},"geometry":{"x":167547.51999999955,"y":2543900.5600000024}},{"attributes":{"ID":548888,"DIS_CODE":0,"TOWNNAME":"中西區","LI":"中正里","LIN":"10鄰","STREET":"正德街","SECT":" ","MAREA":" ","LANE":" ","ALLEY":" ","HOUSE_NO":"４８號五樓之５","E_COORD97":167547.51999999999,"N_COORD97":2543900.5600000001,"ADDRESS":"正德街４８號五樓之５","OBJECTID":548861},"geometry":{"x":167547.51999999955,"y":2543900.5600000024}},{"attributes":{"ID":548889,"DIS_CODE":0,"TOWNNAME":"中西區","LI":"中正里","LIN":"10鄰","STREET":"正德街","SECT":" ","MAREA":" ","LANE":" ","ALLEY":" ","HOUSE_NO":"４８號五樓之６","E_COORD97":167547.51999999999,"N_COORD97":2543900.5600000001,"ADDRESS":"正德街４８號五樓之６","OBJECTID":548862},"geometry":{"x":167547.51999999955,"y":2543900.5600000024}},{"attributes":{"ID":548890,"DIS_CODE":0,"TOWNNAME":"中西區","LI":"中正里","LIN":"10鄰","STREET":"正德街","SECT":" ","MAREA":" ","LANE":" ","ALLEY":" ","HOUSE_NO":"４８號五樓之７","E_COORD97":167547.51999999999,"N_COORD97":2543900.5600000001,"ADDRESS":"正德街４８號五樓之７","OBJECTID":548863},"geometry":{"x":167547.51999999955,"y":2543900.5600000024}},{"attributes":{"ID":548891,"DIS_CODE":0,"TOWNNAME":"中西區","LI":"中正里","LIN":"10鄰","STREET":"正德街","SECT":" ","MAREA":" ","LANE":" ","ALLEY":" ","HOUSE_NO":"４８號五樓之８","E_COORD97":167547.51999999999,"N_COORD97":2543900.5600000001,"ADDRESS":"正德街４８號五樓之８","OBJECTID":548864},"geometry":{"x":167547.51999999955,"y":2543900.5600000024}},{"attributes":{"ID":548892,"DIS_CODE":0,"TOWNNAME":"中西區","LI":"中正里","LIN":"10鄰","STREET":"正德街","SECT":" ","MAREA":" ","LANE":" ","ALLEY":" ","HOUSE_NO":"４８號五樓之９","E_COORD97":167547.51999999999,"N_COORD97":2543900.5600000001,"ADDRESS":"正德街４８號五樓之９","OBJECTID":548865},"geometry":{"x":167547.51999999955,"y":2543900.5600000024}},{"attributes":{"ID":548893,"DIS_CODE":0,"TOWNNAME":"中西區","LI":"中正里","LIN":"10鄰","STREET":"正德街","SECT":" ","MAREA":" ","LANE":" ","ALLEY":" ","HOUSE_NO":"４８號六樓之１","E_COORD97":167547.51999999999,"N_COORD97":2543900.5600000001,"ADDRESS":"正德街４８號六樓之１","OBJECTID":548866},"geometry":{"x":167547.51999999955,"y":2543900.5600000024}},{"attributes":{"ID":548894,"DIS_CODE":0,"TOWNNAME":"中西區","LI":"中正里","LIN":"10鄰","STREET":"正德街","SECT":" ","MAREA":" ","LANE":" ","ALLEY":" ","HOUSE_NO":"４８號六樓之２","E_COORD97":167547.51999999999,"N_COORD97":2543900.5600000001,"ADDRESS":"正德街４８號六樓之２","OBJECTID":548867},"geometry":{"x":167547.51999999955,"y":2543900.5600000024}},{"attributes":{"ID":548895,"DIS_CODE":0,"TOWNNAME":"中西區","LI":"中正里","LIN":"10鄰","STREET":"正德街","SECT":" ","MAREA":" ","LANE":" ","ALLEY":" ","HOUSE_NO":"４８號六樓之３","E_COORD97":167547.51999999999,"N_COORD97":2543900.5600000001,"ADDRESS":"正德街４８號六樓之３","OBJECTID":548868},"geometry":{"x":167547.51999999955,"y":2543900.5600000024}},{"attributes":{"ID":548896,"DIS_CODE":0,"TOWNNAME":"中西區","LI":"中正里","LIN":"10鄰","STREET":"正德街","SECT":" ","MAREA":" ","LANE":" ","ALLEY":" ","HOUSE_NO":"４８號六樓之４","E_COORD97":167547.51999999999,"N_COORD97":2543900.5600000001,"ADDRESS":"正德街４８號六樓之４","OBJECTID":548869},"geometry":{"x":167547.51999999955,"y":2543900.5600000024}},{"attributes":{"ID":548897,"DIS_CODE":0,"TOWNNAME":"中西區","LI":"中正里","LIN":"10鄰","STREET":"正德街","SECT":" ","MAREA":" ","LANE":" ","ALLEY":" ","HOUSE_NO":"４８號六樓之５","E_COORD97":167547.51999999999,"N_COORD97":2543900.5600000001,"ADDRESS":"正德街４８號六樓之５","OBJECTID":548870},"geometry":{"x":167547.51999999955,"y":2543900.5600000024}},{"attributes":{"ID":548898,"DIS_CODE":0,"TOWNNAME":"中西區","LI":"中正里","LIN":"10鄰","STREET":"正德街","SECT":" ","MAREA":" ","LANE":" ","ALLEY":" ","HOUSE_NO":"４８號六樓之６","E_COORD97":167547.51999999999,"N_COORD97":2543900.5600000001,"ADDRESS":"正德街４８號六樓之６","OBJECTID":548871},"geometry":{"x":167547.51999999955,"y":2543900.5600000024}},{"attributes":{"ID":548899,"DIS_CODE":0,"TOWNNAME":"中西區","LI":"中正里","LIN":"10鄰","STREET":"正德街","SECT":" ","MAREA":" ","LANE":" ","ALLEY":" ","HOUSE_NO":"４８號六樓之７","E_COORD97":167547.51999999999,"N_COORD97":2543900.5600000001,"ADDRESS":"正德街４８號六樓之７","OBJECTID":548872},"geometry":{"x":167547.51999999955,"y":2543900.5600000024}},{"attributes":{"ID":548900,"DIS_CODE":0,"TOWNNAME":"中西區","LI":"中正里","LIN":"10鄰","STREET":"正德街","SECT":" ","MAREA":" ","LANE":" ","ALLEY":" ","HOUSE_NO":"４８號六樓之８","E_COORD97":167547.51999999999,"N_COORD97":2543900.5600000001,"ADDRESS":"正德街４８號六樓之８","OBJECTID":548873},"geometry":{"x":167547.51999999955,"y":2543900.5600000024}},{"attributes":{"ID":548901,"DIS_CODE":0,"TOWNNAME":"中西區","LI":"中正里","LIN":"10鄰","STREET":"正德街","SECT":" ","MAREA":" ","LANE":" ","ALLEY":" ","HOUSE_NO":"４８號六樓之９","E_COORD97":167547.51999999999,"N_COORD97":2543900.5600000001,"ADDRESS":"正德街４８號六樓之９","OBJECTID":548874},"geometry":{"x":167547.51999999955,"y":2543900.5600000024}},{"attributes":{"ID":548902,"DIS_CODE":0,"TOWNNAME":"中西區","LI":"中正里","LIN":"10鄰","STREET":"正德街","SECT":" ","MAREA":" ","LANE":" ","ALLEY":" ","HOUSE_NO":"４８號四樓之１","E_COORD97":167547.51999999999,"N_COORD97":2543900.5600000001,"ADDRESS":"正德街４８號四樓之１","OBJECTID":548875},"geometry":{"x":167547.51999999955,"y":2543900.5600000024}},{"attributes":{"ID":548903,"DIS_CODE":0,"TOWNNAME":"中西區","LI":"中正里","LIN":"10鄰","STREET":"正德街","SECT":" ","MAREA":" ","LANE":" ","ALLEY":" ","HOUSE_NO":"４８號四樓之１０","E_COORD97":167547.51999999999,"N_COORD97":2543900.5600000001,"ADDRESS":"正德街４８號四樓之１０","OBJECTID":548876},"geometry":{"x":167547.51999999955,"y":2543900.5600000024}},{"attributes":{"ID":548904,"DIS_CODE":0,"TOWNNAME":"中西區","LI":"中正里","LIN":"10鄰","STREET":"正德街","SECT":" ","MAREA":" ","LANE":" ","ALLEY":" ","HOUSE_NO":"４８號四樓之２","E_COORD97":167547.51999999999,"N_COORD97":2543900.5600000001,"ADDRESS":"正德街４８號四樓之２","OBJECTID":548877},"geometry":{"x":167547.51999999955,"y":2543900.5600000024}},{"attributes":{"ID":548905,"DIS_CODE":0,"TOWNNAME":"中西區","LI":"中正里","LIN":"10鄰","STREET":"正德街","SECT":" ","MAREA":" ","LANE":" ","ALLEY":" ","HOUSE_NO":"４８號四樓之３","E_COORD97":167547.51999999999,"N_COORD97":2543900.5600000001,"ADDRESS":"正德街４８號四樓之３","OBJECTID":548878},"geometry":{"x":167547.51999999955,"y":2543900.5600000024}},{"attributes":{"ID":548906,"DIS_CODE":0,"TOWNNAME":"中西區","LI":"中正里","LIN":"10鄰","STREET":"正德街","SECT":" ","MAREA":" ","LANE":" ","ALLEY":" ","HOUSE_NO":"４８號四樓之４","E_COORD97":167547.51999999999,"N_COORD97":2543900.5600000001,"ADDRESS":"正德街４８號四樓之４","OBJECTID":548879},"geometry":{"x":167547.51999999955,"y":2543900.5600000024}},{"attributes":{"ID":548907,"DIS_CODE":0,"TOWNNAME":"中西區","LI":"中正里","LIN":"10鄰","STREET":"正德街","SECT":" ","MAREA":" ","LANE":" ","ALLEY":" ","HOUSE_NO":"４８號四樓之５","E_COORD97":167547.51999999999,"N_COORD97":2543900.5600000001,"ADDRESS":"正德街４８號四樓之５","OBJECTID":548880},"geometry":{"x":167547.51999999955,"y":2543900.5600000024}},{"attributes":{"ID":548908,"DIS_CODE":0,"TOWNNAME":"中西區","LI":"中正里","LIN":"10鄰","STREET":"正德街","SECT":" ","MAREA":" ","LANE":" ","ALLEY":" ","HOUSE_NO":"４８號四樓之６","E_COORD97":167547.51999999999,"N_COORD97":2543900.5600000001,"ADDRESS":"正德街４８號四樓之６","OBJECTID":548881},"geometry":{"x":167547.51999999955,"y":2543900.5600000024}},{"attributes":{"ID":548909,"DIS_CODE":0,"TOWNNAME":"中西區","LI":"中正里","LIN":"10鄰","STREET":"正德街","SECT":" ","MAREA":" ","LANE":" ","ALLEY":" ","HOUSE_NO":"４８號四樓之７","E_COORD97":167547.51999999999,"N_COORD97":2543900.5600000001,"ADDRESS":"正德街４８號四樓之７","OBJECTID":548882},"geometry":{"x":167547.51999999955,"y":2543900.5600000024}},{"attributes":{"ID":548910,"DIS_CODE":0,"TOWNNAME":"中西區","LI":"中正里","LIN":"10鄰","STREET":"正德街","SECT":" ","MAREA":" ","LANE":" ","ALLEY":" ","HOUSE_NO":"４８號四樓之８","E_COORD97":167547.51999999999,"N_COORD97":2543900.5600000001,"ADDRESS":"正德街４８號四樓之８","OBJECTID":548883},"geometry":{"x":167547.51999999955,"y":2543900.5600000024}},{"attributes":{"ID":548911,"DIS_CODE":0,"TOWNNAME":"中西區","LI":"中正里","LIN":"10鄰","STREET":"正德街","SECT":" ","MAREA":" ","LANE":" ","ALLEY":" ","HOUSE_NO":"４８號四樓之９","E_COORD97":167547.51999999999,"N_COORD97":2543900.5600000001,"ADDRESS":"正德街４８號四樓之９","OBJECTID":548884},"geometry":{"x":167547.51999999955,"y":2543900.5600000024}},{"attributes":{"ID":548912,"DIS_CODE":0,"TOWNNAME":"中西區","LI":"民主里","LIN":"10鄰","STREET":"友愛街","SECT":" ","MAREA":" ","LANE":" ","ALLEY":" ","HOUSE_NO":"３６３號七樓之１","E_COORD97":167368.14999999999,"N_COORD97":2543680.0499999998,"ADDRESS":"友愛街３６３號七樓之１","OBJECTID":548885},"geometry":{"x":167368.15000000037,"y":2543680.0500000026}},{"attributes":{"ID":548913,"DIS_CODE":0,"TOWNNAME":"中西區","LI":"民主里","LIN":"10鄰","STREET":"友愛街","SECT":" ","MAREA":" ","LANE":" ","ALLEY":" ","HOUSE_NO":"３６３號七樓之１０","E_COORD97":167368.14999999999,"N_COORD97":2543680.0499999998,"ADDRESS":"友愛街３６３號七樓之１０","OBJECTID":548886},"geometry":{"x":167368.15000000037,"y":2543680.0500000026}},{"attributes":{"ID":548914,"DIS_CODE":0,"TOWNNAME":"中西區","LI":"民主里","LIN":"10鄰","STREET":"友愛街","SECT":" ","MAREA":" ","LANE":" ","ALLEY":" ","HOUSE_NO":"３６３號七樓之１１","E_COORD97":167368.14999999999,"N_COORD97":2543680.0499999998,"ADDRESS":"友愛街３６３號七樓之１１","OBJECTID":548887},"geometry":{"x":167368.15000000037,"y":2543680.0500000026}},{"attributes":{"ID":548915,"DIS_CODE":0,"TOWNNAME":"中西區","LI":"民主里","LIN":"10鄰","STREET":"友愛街","SECT":" ","MAREA":" ","LANE":" ","ALLEY":" ","HOUSE_NO":"３６３號七樓之１２","E_COORD97":167368.14999999999,"N_COORD97":2543680.0499999998,"ADDRESS":"友愛街３６３號七樓之１２","OBJECTID":548888},"geometry":{"x":167368.15000000037,"y":2543680.0500000026}},{"attributes":{"ID":548916,"DIS_CODE":0,"TOWNNAME":"中西區","LI":"民主里","LIN":"10鄰","STREET":"友愛街","SECT":" ","MAREA":" ","LANE":" ","ALLEY":" ","HOUSE_NO":"３６３號七樓之１３","E_COORD97":167368.14999999999,"N_COORD97":2543680.0499999998,"ADDRESS":"友愛街３６３號七樓之１３","OBJECTID":548889},"geometry":{"x":167368.15000000037,"y":2543680.0500000026}},{"attributes":{"ID":548917,"DIS_CODE":0,"TOWNNAME":"中西區","LI":"民主里","LIN":"10鄰","STREET":"友愛街","SECT":" ","MAREA":" ","LANE":" ","ALLEY":" ","HOUSE_NO":"３６３號七樓之１４","E_COORD97":167368.14999999999,"N_COORD97":2543680.0499999998,"ADDRESS":"友愛街３６３號七樓之１４","OBJECTID":548890},"geometry":{"x":167368.15000000037,"y":2543680.0500000026}},{"attributes":{"ID":548918,"DIS_CODE":0,"TOWNNAME":"中西區","LI":"民主里","LIN":"10鄰","STREET":"友愛街","SECT":" ","MAREA":" ","LANE":" ","ALLEY":" ","HOUSE_NO":"３６３號七樓之１５","E_COORD97":167368.14999999999,"N_COORD97":2543680.0499999998,"ADDRESS":"友愛街３６３號七樓之１５","OBJECTID":548891},"geometry":{"x":167368.15000000037,"y":2543680.0500000026}},{"attributes":{"ID":548919,"DIS_CODE":0,"TOWNNAME":"中西區","LI":"民主里","LIN":"10鄰","STREET":"友愛街","SECT":" ","MAREA":" ","LANE":" ","ALLEY":" ","HOUSE_NO":"３６３號七樓之１６","E_COORD97":167368.14999999999,"N_COORD97":2543680.0499999998,"ADDRESS":"友愛街３６３號七樓之１６","OBJECTID":548892},"geometry":{"x":167368.15000000037,"y":2543680.0500000026}},{"attributes":{"ID":548920,"DIS_CODE":0,"TOWNNAME":"中西區","LI":"民主里","LIN":"10鄰","STREET":"友愛街","SECT":" ","MAREA":" ","LANE":" ","ALLEY":" ","HOUSE_NO":"３６３號七樓之１７","E_COORD97":167368.14999999999,"N_COORD97":2543680.0499999998,"ADDRESS":"友愛街３６３號七樓之１７","OBJECTID":548893},"geometry":{"x":167368.15000000037,"y":2543680.0500000026}},{"attributes":{"ID":548921,"DIS_CODE":0,"TOWNNAME":"中西區","LI":"民主里","LIN":"10鄰","STREET":"友愛街","SECT":" ","MAREA":" ","LANE":" ","ALLEY":" ","HOUSE_NO":"３６３號七樓之２","E_COORD97":167368.14999999999,"N_COORD97":2543680.0499999998,"ADDRESS":"友愛街３６３號七樓之２","OBJECTID":548894},"geometry":{"x":167368.15000000037,"y":2543680.0500000026}},{"attributes":{"ID":548922,"DIS_CODE":0,"TOWNNAME":"中西區","LI":"民主里","LIN":"10鄰","STREET":"友愛街","SECT":" ","MAREA":" ","LANE":" ","ALLEY":" ","HOUSE_NO":"３６３號七樓之３","E_COORD97":167368.14999999999,"N_COORD97":2543680.0499999998,"ADDRESS":"友愛街３６３號七樓之３","OBJECTID":548895},"geometry":{"x":167368.15000000037,"y":2543680.0500000026}},{"attributes":{"ID":548923,"DIS_CODE":0,"TOWNNAME":"中西區","LI":"民主里","LIN":"10鄰","STREET":"友愛街","SECT":" ","MAREA":" ","LANE":" ","ALLEY":" ","HOUSE_NO":"３６３號七樓之５","E_COORD97":167368.14999999999,"N_COORD97":2543680.0499999998,"ADDRESS":"友愛街３６３號七樓之５","OBJECTID":548896},"geometry":{"x":167368.15000000037,"y":2543680.0500000026}},{"attributes":{"ID":548924,"DIS_CODE":0,"TOWNNAME":"中西區","LI":"民主里","LIN":"10鄰","STREET":"友愛街","SECT":" ","MAREA":" ","LANE":" ","ALLEY":" ","HOUSE_NO":"３６３號七樓之６","E_COORD97":167368.14999999999,"N_COORD97":2543680.0499999998,"ADDRESS":"友愛街３６３號七樓之６","OBJECTID":548897},"geometry":{"x":167368.15000000037,"y":2543680.0500000026}},{"attributes":{"ID":548925,"DIS_CODE":0,"TOWNNAME":"中西區","LI":"民主里","LIN":"10鄰","STREET":"友愛街","SECT":" ","MAREA":" ","LANE":" ","ALLEY":" ","HOUSE_NO":"３６３號七樓之７","E_COORD97":167368.14999999999,"N_COORD97":2543680.0499999998,"ADDRESS":"友愛街３６３號七樓之７","OBJECTID":548898},"geometry":{"x":167368.15000000037,"y":2543680.0500000026}},{"attributes":{"ID":548926,"DIS_CODE":0,"TOWNNAME":"中西區","LI":"民主里","LIN":"10鄰","STREET":"友愛街","SECT":" ","MAREA":" ","LANE":" ","ALLEY":" ","HOUSE_NO":"３６３號七樓之８","E_COORD97":167368.14999999999,"N_COORD97":2543680.0499999998,"ADDRESS":"友愛街３６３號七樓之８","OBJECTID":548899},"geometry":{"x":167368.15000000037,"y":2543680.0500000026}},{"attributes":{"ID":548927,"DIS_CODE":0,"TOWNNAME":"中西區","LI":"民主里","LIN":"10鄰","STREET":"友愛街","SECT":" ","MAREA":" ","LANE":" ","ALLEY":" ","HOUSE_NO":"３６３號七樓之９","E_COORD97":167368.14999999999,"N_COORD97":2543680.0499999998,"ADDRESS":"友愛街３６３號七樓之９","OBJECTID":548900},"geometry":{"x":167368.15000000037,"y":2543680.0500000026}},{"attributes":{"ID":548928,"DIS_CODE":0,"TOWNNAME":"中西區","LI":"民主里","LIN":"10鄰","STREET":"友愛街","SECT":" ","MAREA":" ","LANE":" ","ALLEY":" ","HOUSE_NO":"３６３號九樓之１","E_COORD97":167368.14999999999,"N_COORD97":2543680.0499999998,"ADDRESS":"友愛街３６３號九樓之１","OBJECTID":548901},"geometry":{"x":167368.15000000037,"y":2543680.0500000026}},{"attributes":{"ID":548929,"DIS_CODE":0,"TOWNNAME":"中西區","LI":"民主里","LIN":"10鄰","STREET":"友愛街","SECT":" ","MAREA":" ","LANE":" ","ALLEY":" ","HOUSE_NO":"３６３號九樓之１０","E_COORD97":167368.14999999999,"N_COORD97":2543680.0499999998,"ADDRESS":"友愛街３６３號九樓之１０","OBJECTID":548902},"geometry":{"x":167368.15000000037,"y":2543680.0500000026}},{"attributes":{"ID":548930,"DIS_CODE":0,"TOWNNAME":"中西區","LI":"民主里","LIN":"10鄰","STREET":"友愛街","SECT":" ","MAREA":" ","LANE":" ","ALLEY":" ","HOUSE_NO":"３６３號九樓之１１","E_COORD97":167368.14999999999,"N_COORD97":2543680.0499999998,"ADDRESS":"友愛街３６３號九樓之１１","OBJECTID":548903},"geometry":{"x":167368.15000000037,"y":2543680.0500000026}},{"attributes":{"ID":548931,"DIS_CODE":0,"TOWNNAME":"善化區","LI":"光文里","LIN":"18鄰","STREET":"信義路","SECT":" ","MAREA":" ","LANE":" ","ALLEY":" ","HOUSE_NO":"１２７號","E_COORD97":178243.73999999999,"N_COORD97":2558952,"ADDRESS":"信義路１２７號","OBJECTID":548904},"geometry":{"x":178243.74000000022,"y":2558952.0000000037}},{"attributes":{"ID":548932,"DIS_CODE":0,"TOWNNAME":"中西區","LI":"民主里","LIN":"10鄰","STREET":"友愛街","SECT":" ","MAREA":" ","LANE":" ","ALLEY":" ","HOUSE_NO":"３６３號九樓之１２","E_COORD97":167368.14999999999,"N_COORD97":2543680.0499999998,"ADDRESS":"友愛街３６３號九樓之１２","OBJECTID":548905},"geometry":{"x":167368.15000000037,"y":2543680.0500000026}},{"attributes":{"ID":548933,"DIS_CODE":0,"TOWNNAME":"中西區","LI":"民主里","LIN":"10鄰","STREET":"友愛街","SECT":" ","MAREA":" ","LANE":" ","ALLEY":" ","HOUSE_NO":"３６３號九樓之１３","E_COORD97":167368.14999999999,"N_COORD97":2543680.0499999998,"ADDRESS":"友愛街３６３號九樓之１３","OBJECTID":548906},"geometry":{"x":167368.15000000037,"y":2543680.0500000026}},{"attributes":{"ID":548934,"DIS_CODE":0,"TOWNNAME":"中西區","LI":"民主里","LIN":"10鄰","STREET":"友愛街","SECT":" ","MAREA":" ","LANE":" ","ALLEY":" ","HOUSE_NO":"３６３號九樓之１４","E_COORD97":167368.14999999999,"N_COORD97":2543680.0499999998,"ADDRESS":"友愛街３６３號九樓之１４","OBJECTID":548907},"geometry":{"x":167368.15000000037,"y":2543680.0500000026}},{"attributes":{"ID":548935,"DIS_CODE":0,"TOWNNAME":"中西區","LI":"民主里","LIN":"10鄰","STREET":"友愛街","SECT":" ","MAREA":" ","LANE":" ","ALLEY":" ","HOUSE_NO":"３６３號九樓之１５","E_COORD97":167368.14999999999,"N_COORD97":2543680.0499999998,"ADDRESS":"友愛街３６３號九樓之１５","OBJECTID":548908},"geometry":{"x":167368.15000000037,"y":2543680.0500000026}},{"attributes":{"ID":548936,"DIS_CODE":0,"TOWNNAME":"中西區","LI":"民主里","LIN":"10鄰","STREET":"友愛街","SECT":" ","MAREA":" ","LANE":" ","ALLEY":" ","HOUSE_NO":"３６３號九樓之１６","E_COORD97":167368.14999999999,"N_COORD97":2543680.0499999998,"ADDRESS":"友愛街３６３號九樓之１６","OBJECTID":548909},"geometry":{"x":167368.15000000037,"y":2543680.0500000026}},{"attributes":{"ID":548937,"DIS_CODE":0,"TOWNNAME":"中西區","LI":"民主里","LIN":"10鄰","STREET":"友愛街","SECT":" ","MAREA":" ","LANE":" ","ALLEY":" ","HOUSE_NO":"３６３號九樓之１７","E_COORD97":167368.14999999999,"N_COORD97":2543680.0499999998,"ADDRESS":"友愛街３６３號九樓之１７","OBJECTID":548910},"geometry":{"x":167368.15000000037,"y":2543680.0500000026}},{"attributes":{"ID":548938,"DIS_CODE":0,"TOWNNAME":"中西區","LI":"民主里","LIN":"10鄰","STREET":"友愛街","SECT":" ","MAREA":" ","LANE":" ","ALLEY":" ","HOUSE_NO":"３６３號九樓之２","E_COORD97":167368.14999999999,"N_COORD97":2543680.0499999998,"ADDRESS":"友愛街３６３號九樓之２","OBJECTID":548911},"geometry":{"x":167368.15000000037,"y":2543680.0500000026}},{"attributes":{"ID":548939,"DIS_CODE":0,"TOWNNAME":"中西區","LI":"民主里","LIN":"10鄰","STREET":"友愛街","SECT":" ","MAREA":" ","LANE":" ","ALLEY":" ","HOUSE_NO":"３６３號九樓之３","E_COORD97":167368.14999999999,"N_COORD97":2543680.0499999998,"ADDRESS":"友愛街３６３號九樓之３","OBJECTID":548912},"geometry":{"x":167368.15000000037,"y":2543680.0500000026}},{"attributes":{"ID":548940,"DIS_CODE":0,"TOWNNAME":"中西區","LI":"民主里","LIN":"10鄰","STREET":"友愛街","SECT":" ","MAREA":" ","LANE":" ","ALLEY":" ","HOUSE_NO":"３６３號九樓之５","E_COORD97":167368.14999999999,"N_COORD97":2543680.0499999998,"ADDRESS":"友愛街３６３號九樓之５","OBJECTID":548913},"geometry":{"x":167368.15000000037,"y":2543680.0500000026}},{"attributes":{"ID":548941,"DIS_CODE":0,"TOWNNAME":"中西區","LI":"民主里","LIN":"10鄰","STREET":"友愛街","SECT":" ","MAREA":" ","LANE":" ","ALLEY":" ","HOUSE_NO":"３６３號九樓之６","E_COORD97":167368.14999999999,"N_COORD97":2543680.0499999998,"ADDRESS":"友愛街３６３號九樓之６","OBJECTID":548914},"geometry":{"x":167368.15000000037,"y":2543680.0500000026}},{"attributes":{"ID":548942,"DIS_CODE":0,"TOWNNAME":"中西區","LI":"民主里","LIN":"10鄰","STREET":"友愛街","SECT":" ","MAREA":" ","LANE":" ","ALLEY":" ","HOUSE_NO":"３６３號九樓之７","E_COORD97":167368.14999999999,"N_COORD97":2543680.0499999998,"ADDRESS":"友愛街３６３號九樓之７","OBJECTID":548915},"geometry":{"x":167368.15000000037,"y":2543680.0500000026}},{"attributes":{"ID":548943,"DIS_CODE":0,"TOWNNAME":"中西區","LI":"民主里","LIN":"10鄰","STREET":"友愛街","SECT":" ","MAREA":" ","LANE":" ","ALLEY":" ","HOUSE_NO":"３６３號九樓之８","E_COORD97":167368.14999999999,"N_COORD97":2543680.0499999998,"ADDRESS":"友愛街３６３號九樓之８","OBJECTID":548916},"geometry":{"x":167368.15000000037,"y":2543680.0500000026}},{"attributes":{"ID":548944,"DIS_CODE":0,"TOWNNAME":"中西區","LI":"民主里","LIN":"10鄰","STREET":"友愛街","SECT":" ","MAREA":" ","LANE":" ","ALLEY":" ","HOUSE_NO":"３６３號九樓之９","E_COORD97":167368.14999999999,"N_COORD97":2543680.0499999998,"ADDRESS":"友愛街３６３號九樓之９","OBJECTID":548917},"geometry":{"x":167368.15000000037,"y":2543680.0500000026}},{"attributes":{"ID":548945,"DIS_CODE":0,"TOWNNAME":"中西區","LI":"民主里","LIN":"10鄰","STREET":"友愛街","SECT":" ","MAREA":" ","LANE":" ","ALLEY":" ","HOUSE_NO":"３６３號二樓","E_COORD97":167368.14999999999,"N_COORD97":2543680.0499999998,"ADDRESS":"友愛街３６３號二樓","OBJECTID":548918},"geometry":{"x":167368.15000000037,"y":2543680.0500000026}},{"attributes":{"ID":548946,"DIS_CODE":0,"TOWNNAME":"中西區","LI":"民主里","LIN":"10鄰","STREET":"友愛街","SECT":" ","MAREA":" ","LANE":" ","ALLEY":" ","HOUSE_NO":"３６３號八樓之１","E_COORD97":167368.14999999999,"N_COORD97":2543680.0499999998,"ADDRESS":"友愛街３６３號八樓之１","OBJECTID":548919},"geometry":{"x":167368.15000000037,"y":2543680.0500000026}},{"attributes":{"ID":548947,"DIS_CODE":0,"TOWNNAME":"中西區","LI":"民主里","LIN":"10鄰","STREET":"友愛街","SECT":" ","MAREA":" ","LANE":" ","ALLEY":" ","HOUSE_NO":"３６３號八樓之１０","E_COORD97":167368.14999999999,"N_COORD97":2543680.0499999998,"ADDRESS":"友愛街３６３號八樓之１０","OBJECTID":548920},"geometry":{"x":167368.15000000037,"y":2543680.0500000026}},{"attributes":{"ID":548948,"DIS_CODE":0,"TOWNNAME":"中西區","LI":"民主里","LIN":"10鄰","STREET":"友愛街","SECT":" ","MAREA":" ","LANE":" ","ALLEY":" ","HOUSE_NO":"３６３號八樓之１１","E_COORD97":167368.14999999999,"N_COORD97":2543680.0499999998,"ADDRESS":"友愛街３６３號八樓之１１","OBJECTID":548921},"geometry":{"x":167368.15000000037,"y":2543680.0500000026}},{"attributes":{"ID":548949,"DIS_CODE":0,"TOWNNAME":"中西區","LI":"民主里","LIN":"10鄰","STREET":"友愛街","SECT":" ","MAREA":" ","LANE":" ","ALLEY":" ","HOUSE_NO":"３６３號八樓之１２","E_COORD97":167368.14999999999,"N_COORD97":2543680.0499999998,"ADDRESS":"友愛街３６３號八樓之１２","OBJECTID":548922},"geometry":{"x":167368.15000000037,"y":2543680.0500000026}},{"attributes":{"ID":548950,"DIS_CODE":0,"TOWNNAME":"中西區","LI":"民主里","LIN":"10鄰","STREET":"友愛街","SECT":" ","MAREA":" ","LANE":" ","ALLEY":" ","HOUSE_NO":"３６３號八樓之１３","E_COORD97":167368.14999999999,"N_COORD97":2543680.0499999998,"ADDRESS":"友愛街３６３號八樓之１３","OBJECTID":548923},"geometry":{"x":167368.15000000037,"y":2543680.0500000026}},{"attributes":{"ID":548951,"DIS_CODE":0,"TOWNNAME":"中西區","LI":"民主里","LIN":"10鄰","STREET":"友愛街","SECT":" ","MAREA":" ","LANE":" ","ALLEY":" ","HOUSE_NO":"３６３號八樓之１４","E_COORD97":167368.14999999999,"N_COORD97":2543680.0499999998,"ADDRESS":"友愛街３６３號八樓之１４","OBJECTID":548924},"geometry":{"x":167368.15000000037,"y":2543680.0500000026}},{"attributes":{"ID":548952,"DIS_CODE":0,"TOWNNAME":"中西區","LI":"民主里","LIN":"10鄰","STREET":"友愛街","SECT":" ","MAREA":" ","LANE":" ","ALLEY":" ","HOUSE_NO":"３６３號八樓之１５","E_COORD97":167368.14999999999,"N_COORD97":2543680.0499999998,"ADDRESS":"友愛街３６３號八樓之１５","OBJECTID":548925},"geometry":{"x":167368.15000000037,"y":2543680.0500000026}},{"attributes":{"ID":548953,"DIS_CODE":0,"TOWNNAME":"中西區","LI":"民主里","LIN":"10鄰","STREET":"友愛街","SECT":" ","MAREA":" ","LANE":" ","ALLEY":" ","HOUSE_NO":"３６３號八樓之１６","E_COORD97":167368.14999999999,"N_COORD97":2543680.0499999998,"ADDRESS":"友愛街３６３號八樓之１６","OBJECTID":548926},"geometry":{"x":167368.15000000037,"y":2543680.0500000026}},{"attributes":{"ID":548954,"DIS_CODE":0,"TOWNNAME":"中西區","LI":"民主里","LIN":"10鄰","STREET":"友愛街","SECT":" ","MAREA":" ","LANE":" ","ALLEY":" ","HOUSE_NO":"３６３號八樓之１７","E_COORD97":167368.14999999999,"N_COORD97":2543680.0499999998,"ADDRESS":"友愛街３６３號八樓之１７","OBJECTID":548927},"geometry":{"x":167368.15000000037,"y":2543680.0500000026}},{"attributes":{"ID":548955,"DIS_CODE":0,"TOWNNAME":"中西區","LI":"民主里","LIN":"10鄰","STREET":"友愛街","SECT":" ","MAREA":" ","LANE":" ","ALLEY":" ","HOUSE_NO":"３６３號八樓之２","E_COORD97":167368.14999999999,"N_COORD97":2543680.0499999998,"ADDRESS":"友愛街３６３號八樓之２","OBJECTID":548928},"geometry":{"x":167368.15000000037,"y":2543680.0500000026}},{"attributes":{"ID":548956,"DIS_CODE":0,"TOWNNAME":"中西區","LI":"民主里","LIN":"10鄰","STREET":"友愛街","SECT":" ","MAREA":" ","LANE":" ","ALLEY":" ","HOUSE_NO":"３６３號八樓之３","E_COORD97":167368.14999999999,"N_COORD97":2543680.0499999998,"ADDRESS":"友愛街３６３號八樓之３","OBJECTID":548929},"geometry":{"x":167368.15000000037,"y":2543680.0500000026}},{"attributes":{"ID":548957,"DIS_CODE":0,"TOWNNAME":"中西區","LI":"民主里","LIN":"10鄰","STREET":"友愛街","SECT":" ","MAREA":" ","LANE":" ","ALLEY":" ","HOUSE_NO":"３６３號八樓之５","E_COORD97":167368.14999999999,"N_COORD97":2543680.0499999998,"ADDRESS":"友愛街３６３號八樓之５","OBJECTID":548930},"geometry":{"x":167368.15000000037,"y":2543680.0500000026}},{"attributes":{"ID":548958,"DIS_CODE":0,"TOWNNAME":"中西區","LI":"民主里","LIN":"10鄰","STREET":"友愛街","SECT":" ","MAREA":" ","LANE":" ","ALLEY":" ","HOUSE_NO":"３６３號八樓之６","E_COORD97":167368.14999999999,"N_COORD97":2543680.0499999998,"ADDRESS":"友愛街３６３號八樓之６","OBJECTID":548931},"geometry":{"x":167368.15000000037,"y":2543680.0500000026}},{"attributes":{"ID":548959,"DIS_CODE":0,"TOWNNAME":"中西區","LI":"民主里","LIN":"10鄰","STREET":"友愛街","SECT":" ","MAREA":" ","LANE":" ","ALLEY":" ","HOUSE_NO":"３６３號八樓之７","E_COORD97":167368.14999999999,"N_COORD97":2543680.0499999998,"ADDRESS":"友愛街３６３號八樓之７","OBJECTID":548932},"geometry":{"x":167368.15000000037,"y":2543680.0500000026}},{"attributes":{"ID":548960,"DIS_CODE":0,"TOWNNAME":"中西區","LI":"民主里","LIN":"10鄰","STREET":"友愛街","SECT":" ","MAREA":" ","LANE":" ","ALLEY":" ","HOUSE_NO":"３６３號八樓之８","E_COORD97":167368.14999999999,"N_COORD97":2543680.0499999998,"ADDRESS":"友愛街３６３號八樓之８","OBJECTID":548933},"geometry":{"x":167368.15000000037,"y":2543680.0500000026}},{"attributes":{"ID":548961,"DIS_CODE":0,"TOWNNAME":"中西區","LI":"民主里","LIN":"10鄰","STREET":"友愛街","SECT":" ","MAREA":" ","LANE":" ","ALLEY":" ","HOUSE_NO":"３６３號八樓之９","E_COORD97":167368.14999999999,"N_COORD97":2543680.0499999998,"ADDRESS":"友愛街３６３號八樓之９","OBJECTID":548934},"geometry":{"x":167368.15000000037,"y":2543680.0500000026}},{"attributes":{"ID":548962,"DIS_CODE":0,"TOWNNAME":"中西區","LI":"民主里","LIN":"10鄰","STREET":"友愛街","SECT":" ","MAREA":" ","LANE":" ","ALLEY":" ","HOUSE_NO":"３６３號十一樓之１","E_COORD97":167368.14999999999,"N_COORD97":2543680.0499999998,"ADDRESS":"友愛街３６３號十一樓之１","OBJECTID":548935},"geometry":{"x":167368.15000000037,"y":2543680.0500000026}},{"attributes":{"ID":548963,"DIS_CODE":0,"TOWNNAME":"中西區","LI":"民主里","LIN":"10鄰","STREET":"友愛街","SECT":" ","MAREA":" ","LANE":" ","ALLEY":" ","HOUSE_NO":"３６３號十一樓之１０","E_COORD97":167368.14999999999,"N_COORD97":2543680.0499999998,"ADDRESS":"友愛街３６３號十一樓之１０","OBJECTID":548936},"geometry":{"x":167368.15000000037,"y":2543680.0500000026}},{"attributes":{"ID":548964,"DIS_CODE":0,"TOWNNAME":"中西區","LI":"民主里","LIN":"10鄰","STREET":"友愛街","SECT":" ","MAREA":" ","LANE":" ","ALLEY":" ","HOUSE_NO":"３６３號十一樓之１１","E_COORD97":167368.14999999999,"N_COORD97":2543680.0499999998,"ADDRESS":"友愛街３６３號十一樓之１１","OBJECTID":548937},"geometry":{"x":167368.15000000037,"y":2543680.0500000026}},{"attributes":{"ID":548965,"DIS_CODE":0,"TOWNNAME":"中西區","LI":"民主里","LIN":"10鄰","STREET":"友愛街","SECT":" ","MAREA":" ","LANE":" ","ALLEY":" ","HOUSE_NO":"３６３號十一樓之１２","E_COORD97":167368.14999999999,"N_COORD97":2543680.0499999998,"ADDRESS":"友愛街３６３號十一樓之１２","OBJECTID":548938},"geometry":{"x":167368.15000000037,"y":2543680.0500000026}},{"attributes":{"ID":548966,"DIS_CODE":0,"TOWNNAME":"中西區","LI":"民主里","LIN":"10鄰","STREET":"友愛街","SECT":" ","MAREA":" ","LANE":" ","ALLEY":" ","HOUSE_NO":"３６３號十一樓之１３","E_COORD97":167368.14999999999,"N_COORD97":2543680.0499999998,"ADDRESS":"友愛街３６３號十一樓之１３","OBJECTID":548939},"geometry":{"x":167368.15000000037,"y":2543680.0500000026}},{"attributes":{"ID":548967,"DIS_CODE":0,"TOWNNAME":"中西區","LI":"民主里","LIN":"10鄰","STREET":"友愛街","SECT":" ","MAREA":" ","LANE":" ","ALLEY":" ","HOUSE_NO":"３６３號十一樓之１５","E_COORD97":167368.14999999999,"N_COORD97":2543680.0499999998,"ADDRESS":"友愛街３６３號十一樓之１５","OBJECTID":548940},"geometry":{"x":167368.15000000037,"y":2543680.0500000026}},{"attributes":{"ID":548968,"DIS_CODE":0,"TOWNNAME":"中西區","LI":"民主里","LIN":"10鄰","STREET":"友愛街","SECT":" ","MAREA":" ","LANE":" ","ALLEY":" ","HOUSE_NO":"３６３號十一樓之１６","E_COORD97":167368.14999999999,"N_COORD97":2543680.0499999998,"ADDRESS":"友愛街３６３號十一樓之１６","OBJECTID":548941},"geometry":{"x":167368.15000000037,"y":2543680.0500000026}},{"attributes":{"ID":548969,"DIS_CODE":0,"TOWNNAME":"中西區","LI":"民主里","LIN":"10鄰","STREET":"友愛街","SECT":" ","MAREA":" ","LANE":" ","ALLEY":" ","HOUSE_NO":"３６３號十一樓之２","E_COORD97":167368.14999999999,"N_COORD97":2543680.0499999998,"ADDRESS":"友愛街３６３號十一樓之２","OBJECTID":548942},"geometry":{"x":167368.15000000037,"y":2543680.0500000026}},{"attributes":{"ID":548970,"DIS_CODE":0,"TOWNNAME":"中西區","LI":"民主里","LIN":"10鄰","STREET":"友愛街","SECT":" ","MAREA":" ","LANE":" ","ALLEY":" ","HOUSE_NO":"３６３號十一樓之３","E_COORD97":167368.14999999999,"N_COORD97":2543680.0499999998,"ADDRESS":"友愛街３６３號十一樓之３","OBJECTID":548943},"geometry":{"x":167368.15000000037,"y":2543680.0500000026}},{"attributes":{"ID":548971,"DIS_CODE":0,"TOWNNAME":"中西區","LI":"民主里","LIN":"10鄰","STREET":"友愛街","SECT":" ","MAREA":" ","LANE":" ","ALLEY":" ","HOUSE_NO":"３６３號十一樓之５","E_COORD97":167368.14999999999,"N_COORD97":2543680.0499999998,"ADDRESS":"友愛街３６３號十一樓之５","OBJECTID":548944},"geometry":{"x":167368.15000000037,"y":2543680.0500000026}},{"attributes":{"ID":548972,"DIS_CODE":0,"TOWNNAME":"麻豆區","LI":"新建里","LIN":"10鄰","STREET":"麻學路","SECT":"一段","MAREA":" ","LANE":" ","ALLEY":" ","HOUSE_NO":"５號八樓","E_COORD97":172246.32999999999,"N_COORD97":2565016.3900000001,"ADDRESS":"麻學路一段５號八樓","OBJECTID":548945},"geometry":{"x":172246.33000000101,"y":2565016.3900000025}},{"attributes":{"ID":548973,"DIS_CODE":0,"TOWNNAME":"中西區","LI":"民主里","LIN":"10鄰","STREET":"友愛街","SECT":" ","MAREA":" ","LANE":" ","ALLEY":" ","HOUSE_NO":"３６３號十一樓之６","E_COORD97":167368.14999999999,"N_COORD97":2543680.0499999998,"ADDRESS":"友愛街３６３號十一樓之６","OBJECTID":548946},"geometry":{"x":167368.15000000037,"y":2543680.0500000026}},{"attributes":{"ID":548974,"DIS_CODE":0,"TOWNNAME":"中西區","LI":"民主里","LIN":"10鄰","STREET":"友愛街","SECT":" ","MAREA":" ","LANE":" ","ALLEY":" ","HOUSE_NO":"３６３號十一樓之７","E_COORD97":167368.14999999999,"N_COORD97":2543680.0499999998,"ADDRESS":"友愛街３６３號十一樓之７","OBJECTID":548947},"geometry":{"x":167368.15000000037,"y":2543680.0500000026}},{"attributes":{"ID":548975,"DIS_CODE":0,"TOWNNAME":"中西區","LI":"民主里","LIN":"10鄰","STREET":"友愛街","SECT":" ","MAREA":" ","LANE":" ","ALLEY":" ","HOUSE_NO":"３６３號十一樓之８","E_COORD97":167368.14999999999,"N_COORD97":2543680.0499999998,"ADDRESS":"友愛街３６３號十一樓之８","OBJECTID":548948},"geometry":{"x":167368.15000000037,"y":2543680.0500000026}},{"attributes":{"ID":548976,"DIS_CODE":0,"TOWNNAME":"中西區","LI":"民主里","LIN":"10鄰","STREET":"友愛街","SECT":" ","MAREA":" ","LANE":" ","ALLEY":" ","HOUSE_NO":"３６３號十一樓之９","E_COORD97":167368.14999999999,"N_COORD97":2543680.0499999998,"ADDRESS":"友愛街３６３號十一樓之９","OBJECTID":548949},"geometry":{"x":167368.15000000037,"y":2543680.0500000026}},{"attributes":{"ID":548977,"DIS_CODE":0,"TOWNNAME":"中西區","LI":"民主里","LIN":"10鄰","STREET":"友愛街","SECT":" ","MAREA":" ","LANE":" ","ALLEY":" ","HOUSE_NO":"３６３號十樓之１","E_COORD97":167368.14999999999,"N_COORD97":2543680.0499999998,"ADDRESS":"友愛街３６３號十樓之１","OBJECTID":548950},"geometry":{"x":167368.15000000037,"y":2543680.0500000026}},{"attributes":{"ID":548978,"DIS_CODE":0,"TOWNNAME":"東區","LI":"崇成里","LIN":"10鄰","STREET":"崇德十四街","SECT":" ","MAREA":" ","LANE":" ","ALLEY":" ","HOUSE_NO":"３號","E_COORD97":170829.07000000001,"N_COORD97":2541257.6099999999,"ADDRESS":"崇德十四街３號","OBJECTID":548951},"geometry":{"x":170829.07000000123,"y":2541257.6100000013}},{"attributes":{"ID":548979,"DIS_CODE":0,"TOWNNAME":"中西區","LI":"民主里","LIN":"10鄰","STREET":"友愛街","SECT":" ","MAREA":" ","LANE":" ","ALLEY":" ","HOUSE_NO":"３６３號十樓之１０","E_COORD97":167368.14999999999,"N_COORD97":2543680.0499999998,"ADDRESS":"友愛街３６３號十樓之１０","OBJECTID":548952},"geometry":{"x":167368.15000000037,"y":2543680.0500000026}},{"attributes":{"ID":548980,"DIS_CODE":0,"TOWNNAME":"中西區","LI":"民主里","LIN":"10鄰","STREET":"友愛街","SECT":" ","MAREA":" ","LANE":" ","ALLEY":" ","HOUSE_NO":"３６３號十樓之１１","E_COORD97":167368.14999999999,"N_COORD97":2543680.0499999998,"ADDRESS":"友愛街３６３號十樓之１１","OBJECTID":548953},"geometry":{"x":167368.15000000037,"y":2543680.0500000026}},{"attributes":{"ID":548981,"DIS_CODE":0,"TOWNNAME":"中西區","LI":"民主里","LIN":"10鄰","STREET":"友愛街","SECT":" ","MAREA":" ","LANE":" ","ALLEY":" ","HOUSE_NO":"３６３號十樓之１２","E_COORD97":167368.14999999999,"N_COORD97":2543680.0499999998,"ADDRESS":"友愛街３６３號十樓之１２","OBJECTID":548954},"geometry":{"x":167368.15000000037,"y":2543680.0500000026}},{"attributes":{"ID":548982,"DIS_CODE":0,"TOWNNAME":"中西區","LI":"民主里","LIN":"10鄰","STREET":"友愛街","SECT":" ","MAREA":" ","LANE":" ","ALLEY":" ","HOUSE_NO":"３６３號十樓之１３","E_COORD97":167368.14999999999,"N_COORD97":2543680.0499999998,"ADDRESS":"友愛街３６３號十樓之１３","OBJECTID":548955},"geometry":{"x":167368.15000000037,"y":2543680.0500000026}},{"attributes":{"ID":548983,"DIS_CODE":0,"TOWNNAME":"中西區","LI":"民主里","LIN":"10鄰","STREET":"友愛街","SECT":" ","MAREA":" ","LANE":" ","ALLEY":" ","HOUSE_NO":"３６３號十樓之１４","E_COORD97":167368.14999999999,"N_COORD97":2543680.0499999998,"ADDRESS":"友愛街３６３號十樓之１４","OBJECTID":548956},"geometry":{"x":167368.15000000037,"y":2543680.0500000026}},{"attributes":{"ID":548984,"DIS_CODE":0,"TOWNNAME":"中西區","LI":"民主里","LIN":"10鄰","STREET":"友愛街","SECT":" ","MAREA":" ","LANE":" ","ALLEY":" ","HOUSE_NO":"３６３號十樓之１５","E_COORD97":167368.14999999999,"N_COORD97":2543680.0499999998,"ADDRESS":"友愛街３６３號十樓之１５","OBJECTID":548957},"geometry":{"x":167368.15000000037,"y":2543680.0500000026}},{"attributes":{"ID":548985,"DIS_CODE":0,"TOWNNAME":"中西區","LI":"民主里","LIN":"10鄰","STREET":"友愛街","SECT":" ","MAREA":" ","LANE":" ","ALLEY":" ","HOUSE_NO":"３６３號十樓之１６","E_COORD97":167368.14999999999,"N_COORD97":2543680.0499999998,"ADDRESS":"友愛街３６３號十樓之１６","OBJECTID":548958},"geometry":{"x":167368.15000000037,"y":2543680.0500000026}},{"attributes":{"ID":548986,"DIS_CODE":0,"TOWNNAME":"中西區","LI":"民主里","LIN":"10鄰","STREET":"友愛街","SECT":" ","MAREA":" ","LANE":" ","ALLEY":" ","HOUSE_NO":"３６３號十樓之１７","E_COORD97":167368.14999999999,"N_COORD97":2543680.0499999998,"ADDRESS":"友愛街３６３號十樓之１７","OBJECTID":548959},"geometry":{"x":167368.15000000037,"y":2543680.0500000026}},{"attributes":{"ID":548987,"DIS_CODE":0,"TOWNNAME":"中西區","LI":"民主里","LIN":"10鄰","STREET":"友愛街","SECT":" ","MAREA":" ","LANE":" ","ALLEY":" ","HOUSE_NO":"３６３號十樓之２","E_COORD97":167368.14999999999,"N_COORD97":2543680.0499999998,"ADDRESS":"友愛街３６３號十樓之２","OBJECTID":548960},"geometry":{"x":167368.15000000037,"y":2543680.0500000026}},{"attributes":{"ID":548988,"DIS_CODE":0,"TOWNNAME":"中西區","LI":"民主里","LIN":"10鄰","STREET":"友愛街","SECT":" ","MAREA":" ","LANE":" ","ALLEY":" ","HOUSE_NO":"３６３號十樓之３","E_COORD97":167368.14999999999,"N_COORD97":2543680.0499999998,"ADDRESS":"友愛街３６３號十樓之３","OBJECTID":548961},"geometry":{"x":167368.15000000037,"y":2543680.0500000026}},{"attributes":{"ID":548989,"DIS_CODE":0,"TOWNNAME":"中西區","LI":"民主里","LIN":"10鄰","STREET":"友愛街","SECT":" ","MAREA":" ","LANE":" ","ALLEY":" ","HOUSE_NO":"３６３號十樓之５","E_COORD97":167368.14999999999,"N_COORD97":2543680.0499999998,"ADDRESS":"友愛街３６３號十樓之５","OBJECTID":548962},"geometry":{"x":167368.15000000037,"y":2543680.0500000026}},{"attributes":{"ID":548990,"DIS_CODE":0,"TOWNNAME":"中西區","LI":"民主里","LIN":"10鄰","STREET":"友愛街","SECT":" ","MAREA":" ","LANE":" ","ALLEY":" ","HOUSE_NO":"３６３號十樓之６","E_COORD97":167368.14999999999,"N_COORD97":2543680.0499999998,"ADDRESS":"友愛街３６３號十樓之６","OBJECTID":548963},"geometry":{"x":167368.15000000037,"y":2543680.0500000026}},{"attributes":{"ID":548991,"DIS_CODE":0,"TOWNNAME":"中西區","LI":"民主里","LIN":"10鄰","STREET":"友愛街","SECT":" ","MAREA":" ","LANE":" ","ALLEY":" ","HOUSE_NO":"３６３號十樓之７","E_COORD97":167368.14999999999,"N_COORD97":2543680.0499999998,"ADDRESS":"友愛街３６３號十樓之７","OBJECTID":548964},"geometry":{"x":167368.15000000037,"y":2543680.0500000026}},{"attributes":{"ID":548992,"DIS_CODE":0,"TOWNNAME":"歸仁區","LI":"八甲里","LIN":"10鄰","STREET":"大明街","SECT":" ","MAREA":" ","LANE":" ","ALLEY":" ","HOUSE_NO":"３號五樓之１","E_COORD97":177727.14999999999,"N_COORD97":2541923.6200000001,"ADDRESS":"大明街３號五樓之１","OBJECTID":548965},"geometry":{"x":177727.15000000037,"y":2541923.6200000029}},{"attributes":{"ID":548993,"DIS_CODE":0,"TOWNNAME":"中西區","LI":"民主里","LIN":"10鄰","STREET":"友愛街","SECT":" ","MAREA":" ","LANE":" ","ALLEY":" ","HOUSE_NO":"３６３號十樓之８","E_COORD97":167368.14999999999,"N_COORD97":2543680.0499999998,"ADDRESS":"友愛街３６３號十樓之８","OBJECTID":548966},"geometry":{"x":167368.15000000037,"y":2543680.0500000026}},{"attributes":{"ID":548994,"DIS_CODE":0,"TOWNNAME":"中西區","LI":"民主里","LIN":"10鄰","STREET":"友愛街","SECT":" ","MAREA":" ","LANE":" ","ALLEY":" ","HOUSE_NO":"３６３號十樓之９","E_COORD97":167368.14999999999,"N_COORD97":2543680.0499999998,"ADDRESS":"友愛街３６３號十樓之９","OBJECTID":548967},"geometry":{"x":167368.15000000037,"y":2543680.0500000026}},{"attributes":{"ID":548995,"DIS_CODE":0,"TOWNNAME":"中西區","LI":"民主里","LIN":"10鄰","STREET":"友愛街","SECT":" ","MAREA":" ","LANE":" ","ALLEY":" ","HOUSE_NO":"３６３號三樓","E_COORD97":167368.14999999999,"N_COORD97":2543680.0499999998,"ADDRESS":"友愛街３６３號三樓","OBJECTID":548968},"geometry":{"x":167368.15000000037,"y":2543680.0500000026}},{"attributes":{"ID":548996,"DIS_CODE":0,"TOWNNAME":"中西區","LI":"民主里","LIN":"10鄰","STREET":"友愛街","SECT":" ","MAREA":" ","LANE":" ","ALLEY":" ","HOUSE_NO":"３６３號五樓之１","E_COORD97":167368.14999999999,"N_COORD97":2543680.0499999998,"ADDRESS":"友愛街３６３號五樓之１","OBJECTID":548969},"geometry":{"x":167368.15000000037,"y":2543680.0500000026}},{"attributes":{"ID":548997,"DIS_CODE":0,"TOWNNAME":"中西區","LI":"民主里","LIN":"10鄰","STREET":"友愛街","SECT":" ","MAREA":" ","LANE":" ","ALLEY":" ","HOUSE_NO":"３６３號五樓之１０","E_COORD97":167368.14999999999,"N_COORD97":2543680.0499999998,"ADDRESS":"友愛街３６３號五樓之１０","OBJECTID":548970},"geometry":{"x":167368.15000000037,"y":2543680.0500000026}},{"attributes":{"ID":548998,"DIS_CODE":0,"TOWNNAME":"中西區","LI":"民主里","LIN":"10鄰","STREET":"友愛街","SECT":" ","MAREA":" ","LANE":" ","ALLEY":" ","HOUSE_NO":"３６３號五樓之１１","E_COORD97":167368.14999999999,"N_COORD97":2543680.0499999998,"ADDRESS":"友愛街３６３號五樓之１１","OBJECTID":548971},"geometry":{"x":167368.15000000037,"y":2543680.0500000026}},{"attributes":{"ID":548999,"DIS_CODE":0,"TOWNNAME":"中西區","LI":"民主里","LIN":"10鄰","STREET":"友愛街","SECT":" ","MAREA":" ","LANE":" ","ALLEY":" ","HOUSE_NO":"３６３號五樓之１２","E_COORD97":167368.14999999999,"N_COORD97":2543680.0499999998,"ADDRESS":"友愛街３６３號五樓之１２","OBJECTID":548972},"geometry":{"x":167368.15000000037,"y":2543680.0500000026}},{"attributes":{"ID":549000,"DIS_CODE":0,"TOWNNAME":"中西區","LI":"民主里","LIN":"10鄰","STREET":"友愛街","SECT":" ","MAREA":" ","LANE":" ","ALLEY":" ","HOUSE_NO":"３６３號五樓之１３","E_COORD97":167368.14999999999,"N_COORD97":2543680.0499999998,"ADDRESS":"友愛街３６３號五樓之１３","OBJECTID":548973},"geometry":{"x":167368.15000000037,"y":2543680.0500000026}},{"attributes":{"ID":549001,"DIS_CODE":0,"TOWNNAME":"中西區","LI":"民主里","LIN":"10鄰","STREET":"友愛街","SECT":" ","MAREA":" ","LANE":" ","ALLEY":" ","HOUSE_NO":"３６３號五樓之１４","E_COORD97":167368.14999999999,"N_COORD97":2543680.0499999998,"ADDRESS":"友愛街３６３號五樓之１４","OBJECTID":548974},"geometry":{"x":167368.15000000037,"y":2543680.0500000026}},{"attributes":{"ID":549002,"DIS_CODE":0,"TOWNNAME":"中西區","LI":"民主里","LIN":"10鄰","STREET":"友愛街","SECT":" ","MAREA":" ","LANE":" ","ALLEY":" ","HOUSE_NO":"３６３號五樓之１５","E_COORD97":167368.14999999999,"N_COORD97":2543680.0499999998,"ADDRESS":"友愛街３６３號五樓之１５","OBJECTID":548975},"geometry":{"x":167368.15000000037,"y":2543680.0500000026}},{"attributes":{"ID":549003,"DIS_CODE":0,"TOWNNAME":"中西區","LI":"民主里","LIN":"10鄰","STREET":"友愛街","SECT":" ","MAREA":" ","LANE":" ","ALLEY":" ","HOUSE_NO":"３６３號五樓之１６","E_COORD97":167368.14999999999,"N_COORD97":2543680.0499999998,"ADDRESS":"友愛街３６３號五樓之１６","OBJECTID":548976},"geometry":{"x":167368.15000000037,"y":2543680.0500000026}},{"attributes":{"ID":549004,"DIS_CODE":0,"TOWNNAME":"中西區","LI":"民主里","LIN":"10鄰","STREET":"友愛街","SECT":" ","MAREA":" ","LANE":" ","ALLEY":" ","HOUSE_NO":"３６３號五樓之１７","E_COORD97":167368.14999999999,"N_COORD97":2543680.0499999998,"ADDRESS":"友愛街３６３號五樓之１７","OBJECTID":548977},"geometry":{"x":167368.15000000037,"y":2543680.0500000026}},{"attributes":{"ID":549005,"DIS_CODE":0,"TOWNNAME":"中西區","LI":"民主里","LIN":"10鄰","STREET":"友愛街","SECT":" ","MAREA":" ","LANE":" ","ALLEY":" ","HOUSE_NO":"３６３號五樓之２","E_COORD97":167368.14999999999,"N_COORD97":2543680.0499999998,"ADDRESS":"友愛街３６３號五樓之２","OBJECTID":548978},"geometry":{"x":167368.15000000037,"y":2543680.0500000026}},{"attributes":{"ID":549006,"DIS_CODE":0,"TOWNNAME":"中西區","LI":"民主里","LIN":"10鄰","STREET":"友愛街","SECT":" ","MAREA":" ","LANE":" ","ALLEY":" ","HOUSE_NO":"３６３號五樓之３","E_COORD97":167368.14999999999,"N_COORD97":2543680.0499999998,"ADDRESS":"友愛街３６３號五樓之３","OBJECTID":548979},"geometry":{"x":167368.15000000037,"y":2543680.0500000026}},{"attributes":{"ID":549007,"DIS_CODE":0,"TOWNNAME":"中西區","LI":"民主里","LIN":"10鄰","STREET":"友愛街","SECT":" ","MAREA":" ","LANE":" ","ALLEY":" ","HOUSE_NO":"３６３號五樓之５","E_COORD97":167368.14999999999,"N_COORD97":2543680.0499999998,"ADDRESS":"友愛街３６３號五樓之５","OBJECTID":548980},"geometry":{"x":167368.15000000037,"y":2543680.0500000026}},{"attributes":{"ID":549008,"DIS_CODE":0,"TOWNNAME":"中西區","LI":"民主里","LIN":"10鄰","STREET":"友愛街","SECT":" ","MAREA":" ","LANE":" ","ALLEY":" ","HOUSE_NO":"３６３號五樓之６","E_COORD97":167368.14999999999,"N_COORD97":2543680.0499999998,"ADDRESS":"友愛街３６３號五樓之６","OBJECTID":548981},"geometry":{"x":167368.15000000037,"y":2543680.0500000026}},{"attributes":{"ID":549009,"DIS_CODE":0,"TOWNNAME":"中西區","LI":"民主里","LIN":"10鄰","STREET":"友愛街","SECT":" ","MAREA":" ","LANE":" ","ALLEY":" ","HOUSE_NO":"３６３號五樓之７","E_COORD97":167368.14999999999,"N_COORD97":2543680.0499999998,"ADDRESS":"友愛街３６３號五樓之７","OBJECTID":548982},"geometry":{"x":167368.15000000037,"y":2543680.0500000026}},{"attributes":{"ID":549010,"DIS_CODE":0,"TOWNNAME":"中西區","LI":"民主里","LIN":"10鄰","STREET":"友愛街","SECT":" ","MAREA":" ","LANE":" ","ALLEY":" ","HOUSE_NO":"３６３號五樓之８","E_COORD97":167368.14999999999,"N_COORD97":2543680.0499999998,"ADDRESS":"友愛街３６３號五樓之８","OBJECTID":548983},"geometry":{"x":167368.15000000037,"y":2543680.0500000026}},{"attributes":{"ID":549011,"DIS_CODE":0,"TOWNNAME":"中西區","LI":"民主里","LIN":"10鄰","STREET":"友愛街","SECT":" ","MAREA":" ","LANE":" ","ALLEY":" ","HOUSE_NO":"３６３號五樓之９","E_COORD97":167368.14999999999,"N_COORD97":2543680.0499999998,"ADDRESS":"友愛街３６３號五樓之９","OBJECTID":548984},"geometry":{"x":167368.15000000037,"y":2543680.0500000026}},{"attributes":{"ID":549012,"DIS_CODE":0,"TOWNNAME":"中西區","LI":"民主里","LIN":"10鄰","STREET":"友愛街","SECT":" ","MAREA":" ","LANE":" ","ALLEY":" ","HOUSE_NO":"３６３號六樓之１","E_COORD97":167368.14999999999,"N_COORD97":2543680.0499999998,"ADDRESS":"友愛街３６３號六樓之１","OBJECTID":548985},"geometry":{"x":167368.15000000037,"y":2543680.0500000026}},{"attributes":{"ID":549013,"DIS_CODE":0,"TOWNNAME":"中西區","LI":"民主里","LIN":"10鄰","STREET":"友愛街","SECT":" ","MAREA":" ","LANE":" ","ALLEY":" ","HOUSE_NO":"３６３號六樓之１０","E_COORD97":167368.14999999999,"N_COORD97":2543680.0499999998,"ADDRESS":"友愛街３６３號六樓之１０","OBJECTID":548986},"geometry":{"x":167368.15000000037,"y":2543680.0500000026}},{"attributes":{"ID":549014,"DIS_CODE":0,"TOWNNAME":"中西區","LI":"民主里","LIN":"10鄰","STREET":"友愛街","SECT":" ","MAREA":" ","LANE":" ","ALLEY":" ","HOUSE_NO":"３６３號六樓之１１","E_COORD97":167368.14999999999,"N_COORD97":2543680.0499999998,"ADDRESS":"友愛街３６３號六樓之１１","OBJECTID":548987},"geometry":{"x":167368.15000000037,"y":2543680.0500000026}},{"attributes":{"ID":549015,"DIS_CODE":0,"TOWNNAME":"中西區","LI":"民主里","LIN":"10鄰","STREET":"友愛街","SECT":" ","MAREA":" ","LANE":" ","ALLEY":" ","HOUSE_NO":"３６３號六樓之１２","E_COORD97":167368.14999999999,"N_COORD97":2543680.0499999998,"ADDRESS":"友愛街３６３號六樓之１２","OBJECTID":548988},"geometry":{"x":167368.15000000037,"y":2543680.0500000026}},{"attributes":{"ID":549016,"DIS_CODE":0,"TOWNNAME":"中西區","LI":"民主里","LIN":"10鄰","STREET":"友愛街","SECT":" ","MAREA":" ","LANE":" ","ALLEY":" ","HOUSE_NO":"３６３號六樓之１３","E_COORD97":167368.14999999999,"N_COORD97":2543680.0499999998,"ADDRESS":"友愛街３６３號六樓之１３","OBJECTID":548989},"geometry":{"x":167368.15000000037,"y":2543680.0500000026}},{"attributes":{"ID":549017,"DIS_CODE":0,"TOWNNAME":"中西區","LI":"民主里","LIN":"10鄰","STREET":"友愛街","SECT":" ","MAREA":" ","LANE":" ","ALLEY":" ","HOUSE_NO":"３６３號六樓之１４","E_COORD97":167368.14999999999,"N_COORD97":2543680.0499999998,"ADDRESS":"友愛街３６３號六樓之１４","OBJECTID":548990},"geometry":{"x":167368.15000000037,"y":2543680.0500000026}},{"attributes":{"ID":549018,"DIS_CODE":0,"TOWNNAME":"中西區","LI":"民主里","LIN":"10鄰","STREET":"友愛街","SECT":" ","MAREA":" ","LANE":" ","ALLEY":" ","HOUSE_NO":"３６３號六樓之１５","E_COORD97":167368.14999999999,"N_COORD97":2543680.0499999998,"ADDRESS":"友愛街３６３號六樓之１５","OBJECTID":548991},"geometry":{"x":167368.15000000037,"y":2543680.0500000026}},{"attributes":{"ID":549019,"DIS_CODE":0,"TOWNNAME":"中西區","LI":"民主里","LIN":"10鄰","STREET":"友愛街","SECT":" ","MAREA":" ","LANE":" ","ALLEY":" ","HOUSE_NO":"３６３號六樓之１６","E_COORD97":167368.14999999999,"N_COORD97":2543680.0499999998,"ADDRESS":"友愛街３６３號六樓之１６","OBJECTID":548992},"geometry":{"x":167368.15000000037,"y":2543680.0500000026}},{"attributes":{"ID":549020,"DIS_CODE":0,"TOWNNAME":"中西區","LI":"民主里","LIN":"10鄰","STREET":"友愛街","SECT":" ","MAREA":" ","LANE":" ","ALLEY":" ","HOUSE_NO":"３６３號六樓之１７","E_COORD97":167368.14999999999,"N_COORD97":2543680.0499999998,"ADDRESS":"友愛街３６３號六樓之１７","OBJECTID":548993},"geometry":{"x":167368.15000000037,"y":2543680.0500000026}},{"attributes":{"ID":549021,"DIS_CODE":0,"TOWNNAME":"中西區","LI":"民主里","LIN":"10鄰","STREET":"友愛街","SECT":" ","MAREA":" ","LANE":" ","ALLEY":" ","HOUSE_NO":"３６３號六樓之２","E_COORD97":167368.14999999999,"N_COORD97":2543680.0499999998,"ADDRESS":"友愛街３６３號六樓之２","OBJECTID":548994},"geometry":{"x":167368.15000000037,"y":2543680.0500000026}},{"attributes":{"ID":549022,"DIS_CODE":0,"TOWNNAME":"中西區","LI":"民主里","LIN":"10鄰","STREET":"友愛街","SECT":" ","MAREA":" ","LANE":" ","ALLEY":" ","HOUSE_NO":"３６３號六樓之３","E_COORD97":167368.14999999999,"N_COORD97":2543680.0499999998,"ADDRESS":"友愛街３６３號六樓之３","OBJECTID":548995},"geometry":{"x":167368.15000000037,"y":2543680.0500000026}},{"attributes":{"ID":549023,"DIS_CODE":0,"TOWNNAME":"中西區","LI":"民主里","LIN":"10鄰","STREET":"友愛街","SECT":" ","MAREA":" ","LANE":" ","ALLEY":" ","HOUSE_NO":"３６３號六樓之５","E_COORD97":167368.14999999999,"N_COORD97":2543680.0499999998,"ADDRESS":"友愛街３６３號六樓之５","OBJECTID":548996},"geometry":{"x":167368.15000000037,"y":2543680.0500000026}},{"attributes":{"ID":549024,"DIS_CODE":0,"TOWNNAME":"中西區","LI":"民主里","LIN":"10鄰","STREET":"友愛街","SECT":" ","MAREA":" ","LANE":" ","ALLEY":" ","HOUSE_NO":"３６３號六樓之６","E_COORD97":167368.14999999999,"N_COORD97":2543680.0499999998,"ADDRESS":"友愛街３６３號六樓之６","OBJECTID":548997},"geometry":{"x":167368.15000000037,"y":2543680.0500000026}},{"attributes":{"ID":549025,"DIS_CODE":0,"TOWNNAME":"中西區","LI":"民主里","LIN":"10鄰","STREET":"友愛街","SECT":" ","MAREA":" ","LANE":" ","ALLEY":" ","HOUSE_NO":"３６３號六樓之７","E_COORD97":167368.14999999999,"N_COORD97":2543680.0499999998,"ADDRESS":"友愛街３６３號六樓之７","OBJECTID":548998},"geometry":{"x":167368.15000000037,"y":2543680.0500000026}},{"attributes":{"ID":549026,"DIS_CODE":0,"TOWNNAME":"中西區","LI":"民主里","LIN":"10鄰","STREET":"友愛街","SECT":" ","MAREA":" ","LANE":" ","ALLEY":" ","HOUSE_NO":"３６３號六樓之８","E_COORD97":167368.14999999999,"N_COORD97":2543680.0499999998,"ADDRESS":"友愛街３６３號六樓之８","OBJECTID":548999},"geometry":{"x":167368.15000000037,"y":2543680.0500000026}},{"attributes":{"ID":549027,"DIS_CODE":0,"TOWNNAME":"中西區","LI":"民主里","LIN":"10鄰","STREET":"友愛街","SECT":" ","MAREA":" ","LANE":" ","ALLEY":" ","HOUSE_NO":"３６３號六樓之９","E_COORD97":167368.14999999999,"N_COORD97":2543680.0499999998,"ADDRESS":"友愛街３６３號六樓之９","OBJECTID":549000},"geometry":{"x":167368.15000000037,"y":2543680.0500000026}}]}