{"displayFieldName":"TOWNNAME","fieldAliases":{"ID":"ID","DIS_CODE":"DIS_CODE","TOWNNAME":"TOWNNAME","LI":"LI","LIN":"LIN","STREET":"STREET","SECT":"SECT","MAREA":"MAREA","LANE":"LANE","ALLEY":"ALLEY","HOUSE_NO":"HOUSE_NO","E_COORD97":"E_COORD97","N_COORD97":"N_COORD97","ADDRESS":"ADDRESS","OBJECTID":"OBJECTID"},"geometryType":"esriGeometryPoint","spatialReference":{"wkid":102443,"latestWkid":3826},"fields":[{"name":"ID","type":"esriFieldTypeDouble","alias":"ID"},{"name":"DIS_CODE","type":"esriFieldTypeInteger","alias":"DIS_CODE"},{"name":"TOWNNAME","type":"esriFieldTypeString","alias":"TOWNNAME","length":8},{"name":"LI","type":"esriFieldTypeString","alias":"LI","length":8},{"name":"LIN","type":"esriFieldTypeString","alias":"LIN","length":12},{"name":"STREET","type":"esriFieldTypeString","alias":"STREET","length":20},{"name":"SECT","type":"esriFieldTypeString","alias":"SECT","length":8},{"name":"MAREA","type":"esriFieldTypeString","alias":"MAREA","length":12},{"name":"LANE","type":"esriFieldTypeString","alias":"LANE","length":10},{"name":"ALLEY","type":"esriFieldTypeString","alias":"ALLEY","length":10},{"name":"HOUSE_NO","type":"esriFieldTypeString","alias":"HOUSE_NO","length":20},{"name":"E_COORD97","type":"esriFieldTypeDouble","alias":"E_COORD97"},{"name":"N_COORD97","type":"esriFieldTypeDouble","alias":"N_COORD97"},{"name":"ADDRESS","type":"esriFieldTypeString","alias":"ADDRESS","length":50},{"name":"OBJECTID","type":"esriFieldTypeOID","alias":"OBJECTID"}],"features":[{"attributes":{"ID":555228,"DIS_CODE":0,"TOWNNAME":"北區","LI":"成德里","LIN":"21鄰","STREET":"北安路","SECT":"一段","MAREA":" ","LANE":" ","ALLEY":" ","HOUSE_NO":"２８１號","E_COORD97":168648.51000000001,"N_COORD97":2546667.7400000002,"ADDRESS":"北安路一段２８１號","OBJECTID":555201},"geometry":{"x":168648.50999999978,"y":2546667.7400000021}},{"attributes":{"ID":555229,"DIS_CODE":0,"TOWNNAME":"北區","LI":"成德里","LIN":"21鄰","STREET":"北安路","SECT":"一段","MAREA":" ","LANE":" ","ALLEY":" ","HOUSE_NO":"２８３號","E_COORD97":168645.34,"N_COORD97":2546673.6600000001,"ADDRESS":"北安路一段２８３號","OBJECTID":555202},"geometry":{"x":168645.34000000078,"y":2546673.6600000001}},{"attributes":{"ID":555230,"DIS_CODE":0,"TOWNNAME":"北區","LI":"成德里","LIN":"21鄰","STREET":"北安路","SECT":"一段","MAREA":" ","LANE":" ","ALLEY":" ","HOUSE_NO":"２８５號","E_COORD97":168643.01000000001,"N_COORD97":2546678.3199999998,"ADDRESS":"北安路一段２８５號","OBJECTID":555203},"geometry":{"x":168643.00999999978,"y":2546678.3200000022}},{"attributes":{"ID":555231,"DIS_CODE":0,"TOWNNAME":"北區","LI":"成德里","LIN":"21鄰","STREET":"北安路","SECT":"一段","MAREA":" ","LANE":" ","ALLEY":" ","HOUSE_NO":"２８７號","E_COORD97":168638.82000000001,"N_COORD97":2546684.7799999998,"ADDRESS":"北安路一段２８７號","OBJECTID":555204},"geometry":{"x":168638.82000000123,"y":2546684.7800000012}},{"attributes":{"ID":555232,"DIS_CODE":0,"TOWNNAME":"北區","LI":"成德里","LIN":"21鄰","STREET":"北安路","SECT":"一段","MAREA":" ","LANE":" ","ALLEY":" ","HOUSE_NO":"２８９號","E_COORD97":168636.45000000001,"N_COORD97":2546689.1800000002,"ADDRESS":"北安路一段２８９號","OBJECTID":555205},"geometry":{"x":168636.45000000112,"y":2546689.1800000016}},{"attributes":{"ID":555233,"DIS_CODE":0,"TOWNNAME":"北區","LI":"成德里","LIN":"21鄰","STREET":"北安路","SECT":"一段","MAREA":" ","LANE":" ","ALLEY":" ","HOUSE_NO":"２９１號","E_COORD97":168634.41,"N_COORD97":2546693.5800000001,"ADDRESS":"北安路一段２９１號","OBJECTID":555206},"geometry":{"x":168634.41000000201,"y":2546693.5800000019}},{"attributes":{"ID":555234,"DIS_CODE":0,"TOWNNAME":"北區","LI":"成德里","LIN":"21鄰","STREET":"北安路","SECT":"一段","MAREA":" ","LANE":" ","ALLEY":" ","HOUSE_NO":"３４７之１號","E_COORD97":168580.25,"N_COORD97":2546817.6800000002,"ADDRESS":"北安路一段３４７之１號","OBJECTID":555207},"geometry":{"x":168580.25000000093,"y":2546817.6800000016}},{"attributes":{"ID":555235,"DIS_CODE":0,"TOWNNAME":"北區","LI":"成德里","LIN":"21鄰","STREET":"育成路","SECT":" ","MAREA":" ","LANE":" ","ALLEY":" ","HOUSE_NO":"２２０號","E_COORD97":168672.89999999999,"N_COORD97":2546571.96,"ADDRESS":"育成路２２０號","OBJECTID":555208},"geometry":{"x":168672.9000000013,"y":2546571.9600000028}},{"attributes":{"ID":555236,"DIS_CODE":0,"TOWNNAME":"北區","LI":"成德里","LIN":"21鄰","STREET":"育成路","SECT":" ","MAREA":" ","LANE":" ","ALLEY":" ","HOUSE_NO":"２１８號","E_COORD97":168675.60000000001,"N_COORD97":2546568.3100000001,"ADDRESS":"育成路２１８號","OBJECTID":555209},"geometry":{"x":168675.60000000056,"y":2546568.3100000005}},{"attributes":{"ID":555237,"DIS_CODE":0,"TOWNNAME":"北區","LI":"成德里","LIN":"21鄰","STREET":"育成路","SECT":" ","MAREA":" ","LANE":" ","ALLEY":" ","HOUSE_NO":"２２２號","E_COORD97":168670.04000000001,"N_COORD97":2546575.9300000002,"ADDRESS":"育成路２２２號","OBJECTID":555210},"geometry":{"x":168670.04000000004,"y":2546575.9299999997}},{"attributes":{"ID":555238,"DIS_CODE":0,"TOWNNAME":"北區","LI":"成德里","LIN":"21鄰","STREET":"育成路","SECT":" ","MAREA":" ","LANE":" ","ALLEY":" ","HOUSE_NO":"２２４號","E_COORD97":168667.03,"N_COORD97":2546579.7400000002,"ADDRESS":"育成路２２４號","OBJECTID":555211},"geometry":{"x":168667.03000000026,"y":2546579.7400000021}},{"attributes":{"ID":555239,"DIS_CODE":0,"TOWNNAME":"北區","LI":"成德里","LIN":"21鄰","STREET":"育成路","SECT":" ","MAREA":" ","LANE":" ","ALLEY":" ","HOUSE_NO":"２２６號","E_COORD97":168663.37,"N_COORD97":2546583.71,"ADDRESS":"育成路２２６號","OBJECTID":555212},"geometry":{"x":168663.37000000011,"y":2546583.7100000046}},{"attributes":{"ID":555240,"DIS_CODE":0,"TOWNNAME":"北區","LI":"成德里","LIN":"21鄰","STREET":"育成路","SECT":" ","MAREA":" ","LANE":" ","ALLEY":" ","HOUSE_NO":"２３０號","E_COORD97":168655.12,"N_COORD97":2546592.4399999999,"ADDRESS":"育成路２３０號","OBJECTID":555213},"geometry":{"x":168655.12000000197,"y":2546592.4399999995}},{"attributes":{"ID":555241,"DIS_CODE":0,"TOWNNAME":"北區","LI":"成德里","LIN":"21鄰","STREET":"育成路","SECT":" ","MAREA":" ","LANE":" ","ALLEY":" ","HOUSE_NO":"２３２號","E_COORD97":168651.79000000001,"N_COORD97":2546596.73,"ADDRESS":"育成路２３２號","OBJECTID":555214},"geometry":{"x":168651.79000000004,"y":2546596.7300000042}},{"attributes":{"ID":555242,"DIS_CODE":0,"TOWNNAME":"北區","LI":"成德里","LIN":"21鄰","STREET":"育成路","SECT":" ","MAREA":" ","LANE":" ","ALLEY":" ","HOUSE_NO":"２３４號","E_COORD97":168648.92999999999,"N_COORD97":2546601.1699999999,"ADDRESS":"育成路２３４號","OBJECTID":555215},"geometry":{"x":168648.9299999997,"y":2546601.1700000018}},{"attributes":{"ID":555243,"DIS_CODE":0,"TOWNNAME":"北區","LI":"成德里","LIN":"21鄰","STREET":"育成路","SECT":" ","MAREA":" ","LANE":" ","ALLEY":" ","HOUSE_NO":"２３６號","E_COORD97":168645.59,"N_COORD97":2546605.1400000001,"ADDRESS":"育成路２３６號","OBJECTID":555216},"geometry":{"x":168645.59000000078,"y":2546605.1400000025}},{"attributes":{"ID":555244,"DIS_CODE":0,"TOWNNAME":"北區","LI":"成德里","LIN":"21鄰","STREET":"育成路","SECT":" ","MAREA":" ","LANE":" ","ALLEY":" ","HOUSE_NO":"２３８號","E_COORD97":168642.10000000001,"N_COORD97":2546608.9500000002,"ADDRESS":"育成路２３８號","OBJECTID":555217},"geometry":{"x":168642.09999999963,"y":2546608.9500000011}},{"attributes":{"ID":555245,"DIS_CODE":0,"TOWNNAME":"南區","LI":"建南里","LIN":"21鄰","STREET":"中華南路","SECT":"二段","MAREA":" ","LANE":" ","ALLEY":" ","HOUSE_NO":"２５號","E_COORD97":167417.39000000001,"N_COORD97":2540304.2799999998,"ADDRESS":"中華南路二段２５號","OBJECTID":555218},"geometry":{"x":167417.3900000006,"y":2540304.2799999993}},{"attributes":{"ID":555246,"DIS_CODE":0,"TOWNNAME":"中西區","LI":"開山里","LIN":"21鄰","STREET":"開山路","SECT":" ","MAREA":" ","LANE":" ","ALLEY":" ","HOUSE_NO":"２４５號七樓","E_COORD97":169029.07000000001,"N_COORD97":2542963.6699999999,"ADDRESS":"開山路２４５號七樓","OBJECTID":555219},"geometry":{"x":169029.07000000123,"y":2542963.6699999999}},{"attributes":{"ID":555247,"DIS_CODE":0,"TOWNNAME":"中西區","LI":"開山里","LIN":"21鄰","STREET":"開山路","SECT":" ","MAREA":" ","LANE":" ","ALLEY":" ","HOUSE_NO":"２４５號九樓之１","E_COORD97":169029.07000000001,"N_COORD97":2542963.6699999999,"ADDRESS":"開山路２４５號九樓之１","OBJECTID":555220},"geometry":{"x":169029.07000000123,"y":2542963.6699999999}},{"attributes":{"ID":555248,"DIS_CODE":0,"TOWNNAME":"中西區","LI":"開山里","LIN":"21鄰","STREET":"開山路","SECT":" ","MAREA":" ","LANE":" ","ALLEY":" ","HOUSE_NO":"２４５號九樓之２","E_COORD97":169029.07000000001,"N_COORD97":2542963.6699999999,"ADDRESS":"開山路２４５號九樓之２","OBJECTID":555221},"geometry":{"x":169029.07000000123,"y":2542963.6699999999}},{"attributes":{"ID":555249,"DIS_CODE":0,"TOWNNAME":"中西區","LI":"開山里","LIN":"21鄰","STREET":"開山路","SECT":" ","MAREA":" ","LANE":" ","ALLEY":" ","HOUSE_NO":"２４５號九樓之３","E_COORD97":169029.07000000001,"N_COORD97":2542963.6699999999,"ADDRESS":"開山路２４５號九樓之３","OBJECTID":555222},"geometry":{"x":169029.07000000123,"y":2542963.6699999999}},{"attributes":{"ID":555250,"DIS_CODE":0,"TOWNNAME":"中西區","LI":"開山里","LIN":"21鄰","STREET":"開山路","SECT":" ","MAREA":" ","LANE":" ","ALLEY":" ","HOUSE_NO":"２４５號二樓","E_COORD97":169029.07000000001,"N_COORD97":2542963.6699999999,"ADDRESS":"開山路２４５號二樓","OBJECTID":555223},"geometry":{"x":169029.07000000123,"y":2542963.6699999999}},{"attributes":{"ID":555251,"DIS_CODE":0,"TOWNNAME":"中西區","LI":"開山里","LIN":"21鄰","STREET":"開山路","SECT":" ","MAREA":" ","LANE":" ","ALLEY":" ","HOUSE_NO":"２４５號八樓之１","E_COORD97":169029.07000000001,"N_COORD97":2542963.6699999999,"ADDRESS":"開山路２４５號八樓之１","OBJECTID":555224},"geometry":{"x":169029.07000000123,"y":2542963.6699999999}},{"attributes":{"ID":555252,"DIS_CODE":0,"TOWNNAME":"中西區","LI":"開山里","LIN":"21鄰","STREET":"開山路","SECT":" ","MAREA":" ","LANE":" ","ALLEY":" ","HOUSE_NO":"２４５號八樓之２","E_COORD97":169029.07000000001,"N_COORD97":2542963.6699999999,"ADDRESS":"開山路２４５號八樓之２","OBJECTID":555225},"geometry":{"x":169029.07000000123,"y":2542963.6699999999}},{"attributes":{"ID":555253,"DIS_CODE":0,"TOWNNAME":"中西區","LI":"開山里","LIN":"21鄰","STREET":"開山路","SECT":" ","MAREA":" ","LANE":" ","ALLEY":" ","HOUSE_NO":"２４５號十樓之１","E_COORD97":169029.07000000001,"N_COORD97":2542963.6699999999,"ADDRESS":"開山路２４５號十樓之１","OBJECTID":555226},"geometry":{"x":169029.07000000123,"y":2542963.6699999999}},{"attributes":{"ID":555254,"DIS_CODE":0,"TOWNNAME":"中西區","LI":"開山里","LIN":"21鄰","STREET":"開山路","SECT":" ","MAREA":" ","LANE":" ","ALLEY":" ","HOUSE_NO":"２４５號十樓之２","E_COORD97":169029.07000000001,"N_COORD97":2542963.6699999999,"ADDRESS":"開山路２４５號十樓之２","OBJECTID":555227},"geometry":{"x":169029.07000000123,"y":2542963.6699999999}},{"attributes":{"ID":555255,"DIS_CODE":0,"TOWNNAME":"中西區","LI":"開山里","LIN":"21鄰","STREET":"開山路","SECT":" ","MAREA":" ","LANE":" ","ALLEY":" ","HOUSE_NO":"２４５號十樓之３","E_COORD97":169029.07000000001,"N_COORD97":2542963.6699999999,"ADDRESS":"開山路２４５號十樓之３","OBJECTID":555228},"geometry":{"x":169029.07000000123,"y":2542963.6699999999}},{"attributes":{"ID":555256,"DIS_CODE":0,"TOWNNAME":"中西區","LI":"開山里","LIN":"21鄰","STREET":"開山路","SECT":" ","MAREA":" ","LANE":" ","ALLEY":" ","HOUSE_NO":"２４５號三樓之１","E_COORD97":169029.07000000001,"N_COORD97":2542963.6699999999,"ADDRESS":"開山路２４５號三樓之１","OBJECTID":555229},"geometry":{"x":169029.07000000123,"y":2542963.6699999999}},{"attributes":{"ID":555257,"DIS_CODE":0,"TOWNNAME":"中西區","LI":"開山里","LIN":"21鄰","STREET":"開山路","SECT":" ","MAREA":" ","LANE":" ","ALLEY":" ","HOUSE_NO":"２４５號三樓之２","E_COORD97":169029.07000000001,"N_COORD97":2542963.6699999999,"ADDRESS":"開山路２４５號三樓之２","OBJECTID":555230},"geometry":{"x":169029.07000000123,"y":2542963.6699999999}},{"attributes":{"ID":555258,"DIS_CODE":0,"TOWNNAME":"中西區","LI":"開山里","LIN":"21鄰","STREET":"開山路","SECT":" ","MAREA":" ","LANE":" ","ALLEY":" ","HOUSE_NO":"２４５號五樓之１","E_COORD97":169029.07000000001,"N_COORD97":2542963.6699999999,"ADDRESS":"開山路２４５號五樓之１","OBJECTID":555231},"geometry":{"x":169029.07000000123,"y":2542963.6699999999}},{"attributes":{"ID":555259,"DIS_CODE":0,"TOWNNAME":"中西區","LI":"開山里","LIN":"21鄰","STREET":"開山路","SECT":" ","MAREA":" ","LANE":" ","ALLEY":" ","HOUSE_NO":"２４５號五樓之２","E_COORD97":169029.07000000001,"N_COORD97":2542963.6699999999,"ADDRESS":"開山路２４５號五樓之２","OBJECTID":555232},"geometry":{"x":169029.07000000123,"y":2542963.6699999999}},{"attributes":{"ID":555260,"DIS_CODE":0,"TOWNNAME":"中西區","LI":"開山里","LIN":"21鄰","STREET":"開山路","SECT":" ","MAREA":" ","LANE":" ","ALLEY":" ","HOUSE_NO":"２４５號六樓之１","E_COORD97":169029.07000000001,"N_COORD97":2542963.6699999999,"ADDRESS":"開山路２４５號六樓之１","OBJECTID":555233},"geometry":{"x":169029.07000000123,"y":2542963.6699999999}},{"attributes":{"ID":555261,"DIS_CODE":0,"TOWNNAME":"中西區","LI":"開山里","LIN":"21鄰","STREET":"開山路","SECT":" ","MAREA":" ","LANE":" ","ALLEY":" ","HOUSE_NO":"２４５號六樓之２","E_COORD97":169029.07000000001,"N_COORD97":2542963.6699999999,"ADDRESS":"開山路２４５號六樓之２","OBJECTID":555234},"geometry":{"x":169029.07000000123,"y":2542963.6699999999}},{"attributes":{"ID":555262,"DIS_CODE":0,"TOWNNAME":"中西區","LI":"開山里","LIN":"21鄰","STREET":"開山路","SECT":" ","MAREA":" ","LANE":" ","ALLEY":" ","HOUSE_NO":"２４５號四樓之１","E_COORD97":169029.07000000001,"N_COORD97":2542963.6699999999,"ADDRESS":"開山路２４５號四樓之１","OBJECTID":555235},"geometry":{"x":169029.07000000123,"y":2542963.6699999999}},{"attributes":{"ID":555263,"DIS_CODE":0,"TOWNNAME":"中西區","LI":"開山里","LIN":"21鄰","STREET":"開山路","SECT":" ","MAREA":" ","LANE":" ","ALLEY":" ","HOUSE_NO":"２４５號四樓之２","E_COORD97":169029.07000000001,"N_COORD97":2542963.6699999999,"ADDRESS":"開山路２４５號四樓之２","OBJECTID":555236},"geometry":{"x":169029.07000000123,"y":2542963.6699999999}},{"attributes":{"ID":555264,"DIS_CODE":0,"TOWNNAME":"東區","LI":"東明里","LIN":"21鄰","STREET":"東安路","SECT":" ","MAREA":" ","LANE":" ","ALLEY":" ","HOUSE_NO":"５０號四樓之１５","E_COORD97":170696.03,"N_COORD97":2543616.6800000002,"ADDRESS":"東安路５０號四樓之１５","OBJECTID":555237},"geometry":{"x":170696.03000000026,"y":2543616.6800000016}},{"attributes":{"ID":555265,"DIS_CODE":0,"TOWNNAME":"永康區","LI":"勝利里","LIN":"21鄰","STREET":"勝利街","SECT":" ","MAREA":" ","LANE":" ","ALLEY":" ","HOUSE_NO":"１５２號一樓之６","E_COORD97":171383.85000000001,"N_COORD97":2545055.8599999999,"ADDRESS":"勝利街１５２號一樓之６","OBJECTID":555238},"geometry":{"x":171383.8499999987,"y":2545055.8600000013}},{"attributes":{"ID":555266,"DIS_CODE":0,"TOWNNAME":"永康區","LI":"勝利里","LIN":"21鄰","STREET":"勝利街","SECT":" ","MAREA":" ","LANE":" ","ALLEY":" ","HOUSE_NO":"１５２號一樓之３","E_COORD97":171383.84,"N_COORD97":2545055.8599999999,"ADDRESS":"勝利街１５２號一樓之３","OBJECTID":555239},"geometry":{"x":171383.83999999985,"y":2545055.8600000013}},{"attributes":{"ID":555267,"DIS_CODE":0,"TOWNNAME":"永康區","LI":"勝利里","LIN":"21鄰","STREET":"勝利街","SECT":" ","MAREA":" ","LANE":" ","ALLEY":" ","HOUSE_NO":"１５２號三樓之３","E_COORD97":171383.84,"N_COORD97":2545055.8599999999,"ADDRESS":"勝利街１５２號三樓之３","OBJECTID":555240},"geometry":{"x":171383.83999999985,"y":2545055.8600000013}},{"attributes":{"ID":555268,"DIS_CODE":0,"TOWNNAME":"永康區","LI":"勝利里","LIN":"21鄰","STREET":"勝利街","SECT":" ","MAREA":" ","LANE":" ","ALLEY":" ","HOUSE_NO":"１５２號五樓之５","E_COORD97":171383.89999999999,"N_COORD97":2545055.8599999999,"ADDRESS":"勝利街１５２號五樓之５","OBJECTID":555241},"geometry":{"x":171383.90000000037,"y":2545055.8600000013}},{"attributes":{"ID":555269,"DIS_CODE":0,"TOWNNAME":"永康區","LI":"勝利里","LIN":"21鄰","STREET":"勝利街","SECT":" ","MAREA":" ","LANE":" ","ALLEY":" ","HOUSE_NO":"１５２號一樓之２","E_COORD97":171383.88,"N_COORD97":2545055.8599999999,"ADDRESS":"勝利街１５２號一樓之２","OBJECTID":555242},"geometry":{"x":171383.87999999896,"y":2545055.8600000013}},{"attributes":{"ID":555270,"DIS_CODE":0,"TOWNNAME":"永康區","LI":"勝利里","LIN":"21鄰","STREET":"勝利街","SECT":" ","MAREA":" ","LANE":" ","ALLEY":" ","HOUSE_NO":"１５２號三樓之２","E_COORD97":171383.88,"N_COORD97":2545055.8599999999,"ADDRESS":"勝利街１５２號三樓之２","OBJECTID":555243},"geometry":{"x":171383.87999999896,"y":2545055.8600000013}},{"attributes":{"ID":555271,"DIS_CODE":0,"TOWNNAME":"永康區","LI":"勝利里","LIN":"21鄰","STREET":"勝利街","SECT":" ","MAREA":" ","LANE":" ","ALLEY":" ","HOUSE_NO":"１５３號四樓之４","E_COORD97":171360.92999999999,"N_COORD97":2545016.46,"ADDRESS":"勝利街１５３號四樓之４","OBJECTID":555244},"geometry":{"x":171360.9299999997,"y":2545016.4600000028}},{"attributes":{"ID":555272,"DIS_CODE":0,"TOWNNAME":"永康區","LI":"勝利里","LIN":"21鄰","STREET":"勝利街","SECT":" ","MAREA":" ","LANE":" ","ALLEY":" ","HOUSE_NO":"１５２號一樓之５","E_COORD97":171383.89999999999,"N_COORD97":2545055.8599999999,"ADDRESS":"勝利街１５２號一樓之５","OBJECTID":555245},"geometry":{"x":171383.90000000037,"y":2545055.8600000013}},{"attributes":{"ID":555273,"DIS_CODE":0,"TOWNNAME":"永康區","LI":"勝利里","LIN":"21鄰","STREET":"勝利街","SECT":" ","MAREA":" ","LANE":" ","ALLEY":" ","HOUSE_NO":"１５３號四樓之８","E_COORD97":171361.20000000001,"N_COORD97":2545015.29,"ADDRESS":"勝利街１５３號四樓之８","OBJECTID":555246},"geometry":{"x":171361.20000000019,"y":2545015.290000001}},{"attributes":{"ID":555274,"DIS_CODE":0,"TOWNNAME":"永康區","LI":"勝利里","LIN":"21鄰","STREET":"勝利街","SECT":" ","MAREA":" ","LANE":" ","ALLEY":" ","HOUSE_NO":"１５２號五樓之９","E_COORD97":171383.82999999999,"N_COORD97":2545055.8599999999,"ADDRESS":"勝利街１５２號五樓之９","OBJECTID":555247},"geometry":{"x":171383.83000000007,"y":2545055.8600000013}},{"attributes":{"ID":555275,"DIS_CODE":0,"TOWNNAME":"永康區","LI":"勝利里","LIN":"21鄰","STREET":"勝利街","SECT":" ","MAREA":" ","LANE":" ","ALLEY":" ","HOUSE_NO":"１５３號五樓之６","E_COORD97":171361.16,"N_COORD97":2545015.29,"ADDRESS":"勝利街１５３號五樓之６","OBJECTID":555248},"geometry":{"x":171361.16000000108,"y":2545015.290000001}},{"attributes":{"ID":555276,"DIS_CODE":0,"TOWNNAME":"永康區","LI":"勝利里","LIN":"21鄰","STREET":"勝利街","SECT":" ","MAREA":" ","LANE":" ","ALLEY":" ","HOUSE_NO":"１５２號四樓之１０","E_COORD97":171385.04999999999,"N_COORD97":2545055.8599999999,"ADDRESS":"勝利街１５２號四樓之１０","OBJECTID":555249},"geometry":{"x":171385.05000000075,"y":2545055.8600000013}},{"attributes":{"ID":555277,"DIS_CODE":0,"TOWNNAME":"永康區","LI":"勝利里","LIN":"21鄰","STREET":"勝利街","SECT":" ","MAREA":" ","LANE":" ","ALLEY":" ","HOUSE_NO":"１５２號四樓之２","E_COORD97":171383.88,"N_COORD97":2545055.8599999999,"ADDRESS":"勝利街１５２號四樓之２","OBJECTID":555250},"geometry":{"x":171383.87999999896,"y":2545055.8600000013}},{"attributes":{"ID":555278,"DIS_CODE":0,"TOWNNAME":"永康區","LI":"勝利里","LIN":"21鄰","STREET":"勝利街","SECT":" ","MAREA":" ","LANE":" ","ALLEY":" ","HOUSE_NO":"１５２號二樓之８","E_COORD97":171383.89000000001,"N_COORD97":2545055.8599999999,"ADDRESS":"勝利街１５２號二樓之８","OBJECTID":555251},"geometry":{"x":171383.8900000006,"y":2545055.8600000013}},{"attributes":{"ID":555279,"DIS_CODE":0,"TOWNNAME":"永康區","LI":"勝利里","LIN":"21鄰","STREET":"勝利街","SECT":" ","MAREA":" ","LANE":" ","ALLEY":" ","HOUSE_NO":"１５２號二樓之４","E_COORD97":171383.76999999999,"N_COORD97":2545055.8599999999,"ADDRESS":"勝利街１５２號二樓之４","OBJECTID":555252},"geometry":{"x":171383.76999999955,"y":2545055.8600000013}},{"attributes":{"ID":555280,"DIS_CODE":0,"TOWNNAME":"安南區","LI":"溪北里","LIN":"21鄰","STREET":"郡安路","SECT":"四段","MAREA":" ","LANE":" ","ALLEY":" ","HOUSE_NO":"７６號之１８六樓","E_COORD97":169123.79000000001,"N_COORD97":2547568.4500000002,"ADDRESS":"郡安路四段７６號之１８六樓","OBJECTID":555253},"geometry":{"x":169123.79000000097,"y":2547568.4499999993}},{"attributes":{"ID":555281,"DIS_CODE":0,"TOWNNAME":"安南區","LI":"溪北里","LIN":"21鄰","STREET":"郡安路","SECT":"四段","MAREA":" ","LANE":" ","ALLEY":" ","HOUSE_NO":"７６號之１９七樓","E_COORD97":169122.97,"N_COORD97":2547560.7799999998,"ADDRESS":"郡安路四段７６號之１９七樓","OBJECTID":555254},"geometry":{"x":169122.96999999974,"y":2547560.7799999993}},{"attributes":{"ID":555282,"DIS_CODE":0,"TOWNNAME":"安南區","LI":"溪北里","LIN":"21鄰","STREET":"郡安路","SECT":"四段","MAREA":" ","LANE":" ","ALLEY":" ","HOUSE_NO":"７６號之１９五樓","E_COORD97":169122.97,"N_COORD97":2547560.7799999998,"ADDRESS":"郡安路四段７６號之１９五樓","OBJECTID":555255},"geometry":{"x":169122.96999999974,"y":2547560.7799999993}},{"attributes":{"ID":555283,"DIS_CODE":0,"TOWNNAME":"安南區","LI":"溪北里","LIN":"21鄰","STREET":"郡安路","SECT":"四段","MAREA":" ","LANE":" ","ALLEY":" ","HOUSE_NO":"７６號之２０七樓","E_COORD97":169123.57999999999,"N_COORD97":2547556.48,"ADDRESS":"郡安路四段７６號之２０七樓","OBJECTID":555256},"geometry":{"x":169123.58000000101,"y":2547556.4800000004}},{"attributes":{"ID":555284,"DIS_CODE":0,"TOWNNAME":"永康區","LI":"勝利里","LIN":"21鄰","STREET":"勝利街","SECT":" ","MAREA":" ","LANE":" ","ALLEY":" ","HOUSE_NO":"１５２號二樓之３","E_COORD97":171383.84,"N_COORD97":2545055.8599999999,"ADDRESS":"勝利街１５２號二樓之３","OBJECTID":555257},"geometry":{"x":171383.83999999985,"y":2545055.8600000013}},{"attributes":{"ID":555285,"DIS_CODE":0,"TOWNNAME":"新化區","LI":"武安里","LIN":"13鄰","STREET":"健康路","SECT":" ","MAREA":" ","LANE":" ","ALLEY":" ","HOUSE_NO":"２６號","E_COORD97":178921.28,"N_COORD97":2548030.2599999998,"ADDRESS":"健康路２６號","OBJECTID":555258},"geometry":{"x":178921.28000000026,"y":2548030.2600000016}},{"attributes":{"ID":555286,"DIS_CODE":0,"TOWNNAME":"永康區","LI":"勝利里","LIN":"21鄰","STREET":"勝利街","SECT":" ","MAREA":" ","LANE":" ","ALLEY":" ","HOUSE_NO":"１５３號四樓之９","E_COORD97":171360.98999999999,"N_COORD97":2545016.46,"ADDRESS":"勝利街１５３號四樓之９","OBJECTID":555259},"geometry":{"x":171360.99000000022,"y":2545016.4600000028}},{"attributes":{"ID":555287,"DIS_CODE":0,"TOWNNAME":"永康區","LI":"勝利里","LIN":"21鄰","STREET":"勝利街","SECT":" ","MAREA":" ","LANE":" ","ALLEY":" ","HOUSE_NO":"１５２號三樓之５","E_COORD97":171383.89999999999,"N_COORD97":2545055.8599999999,"ADDRESS":"勝利街１５２號三樓之５","OBJECTID":555260},"geometry":{"x":171383.90000000037,"y":2545055.8600000013}},{"attributes":{"ID":555288,"DIS_CODE":0,"TOWNNAME":"永康區","LI":"勝利里","LIN":"21鄰","STREET":"勝利街","SECT":" ","MAREA":" ","LANE":" ","ALLEY":" ","HOUSE_NO":"１５２號五樓之１","E_COORD97":171383.75,"N_COORD97":2545055.8599999999,"ADDRESS":"勝利街１５２號五樓之１","OBJECTID":555261},"geometry":{"x":171383.75000000093,"y":2545055.8600000013}},{"attributes":{"ID":555289,"DIS_CODE":0,"TOWNNAME":"永康區","LI":"勝利里","LIN":"21鄰","STREET":"勝利街","SECT":" ","MAREA":" ","LANE":" ","ALLEY":" ","HOUSE_NO":"１５２號二樓之７","E_COORD97":171383.82000000001,"N_COORD97":2545055.8599999999,"ADDRESS":"勝利街１５２號二樓之７","OBJECTID":555262},"geometry":{"x":171383.82000000123,"y":2545055.8600000013}},{"attributes":{"ID":555290,"DIS_CODE":0,"TOWNNAME":"永康區","LI":"勝利里","LIN":"21鄰","STREET":"勝利街","SECT":" ","MAREA":" ","LANE":" ","ALLEY":" ","HOUSE_NO":"１５２號三樓之９","E_COORD97":171383.82999999999,"N_COORD97":2545055.8599999999,"ADDRESS":"勝利街１５２號三樓之９","OBJECTID":555263},"geometry":{"x":171383.83000000007,"y":2545055.8600000013}},{"attributes":{"ID":555291,"DIS_CODE":0,"TOWNNAME":"永康區","LI":"勝利里","LIN":"21鄰","STREET":"勝利街","SECT":" ","MAREA":" ","LANE":" ","ALLEY":" ","HOUSE_NO":"１５２號三樓之８","E_COORD97":171383.89000000001,"N_COORD97":2545055.8599999999,"ADDRESS":"勝利街１５２號三樓之８","OBJECTID":555264},"geometry":{"x":171383.8900000006,"y":2545055.8600000013}},{"attributes":{"ID":555292,"DIS_CODE":0,"TOWNNAME":"永康區","LI":"勝利里","LIN":"21鄰","STREET":"勝利街","SECT":" ","MAREA":" ","LANE":" ","ALLEY":" ","HOUSE_NO":"１５２號五樓之２","E_COORD97":171383.88,"N_COORD97":2545055.8599999999,"ADDRESS":"勝利街１５２號五樓之２","OBJECTID":555265},"geometry":{"x":171383.87999999896,"y":2545055.8600000013}},{"attributes":{"ID":555293,"DIS_CODE":0,"TOWNNAME":"永康區","LI":"勝利里","LIN":"21鄰","STREET":"勝利街","SECT":" ","MAREA":" ","LANE":" ","ALLEY":" ","HOUSE_NO":"１５２號三樓之７","E_COORD97":171383.82000000001,"N_COORD97":2545055.8599999999,"ADDRESS":"勝利街１５２號三樓之７","OBJECTID":555266},"geometry":{"x":171383.82000000123,"y":2545055.8600000013}},{"attributes":{"ID":555294,"DIS_CODE":0,"TOWNNAME":"永康區","LI":"勝利里","LIN":"21鄰","STREET":"勝利街","SECT":" ","MAREA":" ","LANE":" ","ALLEY":" ","HOUSE_NO":"１５３號五樓之７","E_COORD97":171360.98000000001,"N_COORD97":2545016.46,"ADDRESS":"勝利街１５３號五樓之７","OBJECTID":555267},"geometry":{"x":171360.98000000138,"y":2545016.4600000028}},{"attributes":{"ID":555295,"DIS_CODE":0,"TOWNNAME":"永康區","LI":"勝利里","LIN":"21鄰","STREET":"勝利街","SECT":" ","MAREA":" ","LANE":" ","ALLEY":" ","HOUSE_NO":"１５２號三樓之４","E_COORD97":171383.76999999999,"N_COORD97":2545055.8599999999,"ADDRESS":"勝利街１５２號三樓之４","OBJECTID":555268},"geometry":{"x":171383.76999999955,"y":2545055.8600000013}},{"attributes":{"ID":555296,"DIS_CODE":0,"TOWNNAME":"中西區","LI":"藥王里","LIN":"21鄰","STREET":"西和路","SECT":" ","MAREA":" ","LANE":" ","ALLEY":" ","HOUSE_NO":"１１２號九樓之１０","E_COORD97":166907.98000000001,"N_COORD97":2544592.0299999998,"ADDRESS":"西和路１１２號九樓之１０","OBJECTID":555269},"geometry":{"x":166907.98000000045,"y":2544592.0299999993}},{"attributes":{"ID":555297,"DIS_CODE":0,"TOWNNAME":"中西區","LI":"藥王里","LIN":"21鄰","STREET":"西和路","SECT":" ","MAREA":" ","LANE":" ","ALLEY":" ","HOUSE_NO":"１１２號九樓之２","E_COORD97":166907.98000000001,"N_COORD97":2544592.0299999998,"ADDRESS":"西和路１１２號九樓之２","OBJECTID":555270},"geometry":{"x":166907.98000000045,"y":2544592.0299999993}},{"attributes":{"ID":555298,"DIS_CODE":0,"TOWNNAME":"中西區","LI":"藥王里","LIN":"21鄰","STREET":"西和路","SECT":" ","MAREA":" ","LANE":" ","ALLEY":" ","HOUSE_NO":"１１２號九樓之３","E_COORD97":166907.98000000001,"N_COORD97":2544592.0299999998,"ADDRESS":"西和路１１２號九樓之３","OBJECTID":555271},"geometry":{"x":166907.98000000045,"y":2544592.0299999993}},{"attributes":{"ID":555299,"DIS_CODE":0,"TOWNNAME":"中西區","LI":"藥王里","LIN":"21鄰","STREET":"西和路","SECT":" ","MAREA":" ","LANE":" ","ALLEY":" ","HOUSE_NO":"１１２號九樓之５","E_COORD97":166907.98000000001,"N_COORD97":2544592.0299999998,"ADDRESS":"西和路１１２號九樓之５","OBJECTID":555272},"geometry":{"x":166907.98000000045,"y":2544592.0299999993}},{"attributes":{"ID":555300,"DIS_CODE":0,"TOWNNAME":"中西區","LI":"藥王里","LIN":"21鄰","STREET":"西和路","SECT":" ","MAREA":" ","LANE":" ","ALLEY":" ","HOUSE_NO":"１１２號九樓之６","E_COORD97":166907.98000000001,"N_COORD97":2544592.0299999998,"ADDRESS":"西和路１１２號九樓之６","OBJECTID":555273},"geometry":{"x":166907.98000000045,"y":2544592.0299999993}},{"attributes":{"ID":555301,"DIS_CODE":0,"TOWNNAME":"中西區","LI":"藥王里","LIN":"21鄰","STREET":"西和路","SECT":" ","MAREA":" ","LANE":" ","ALLEY":" ","HOUSE_NO":"１１２號九樓之７","E_COORD97":166907.98000000001,"N_COORD97":2544592.0299999998,"ADDRESS":"西和路１１２號九樓之７","OBJECTID":555274},"geometry":{"x":166907.98000000045,"y":2544592.0299999993}},{"attributes":{"ID":555302,"DIS_CODE":0,"TOWNNAME":"中西區","LI":"藥王里","LIN":"21鄰","STREET":"西和路","SECT":" ","MAREA":" ","LANE":" ","ALLEY":" ","HOUSE_NO":"１１２號九樓之８","E_COORD97":166907.98000000001,"N_COORD97":2544592.0299999998,"ADDRESS":"西和路１１２號九樓之８","OBJECTID":555275},"geometry":{"x":166907.98000000045,"y":2544592.0299999993}},{"attributes":{"ID":555303,"DIS_CODE":0,"TOWNNAME":"中西區","LI":"藥王里","LIN":"21鄰","STREET":"西和路","SECT":" ","MAREA":" ","LANE":" ","ALLEY":" ","HOUSE_NO":"１１２號九樓之９","E_COORD97":166907.98000000001,"N_COORD97":2544592.0299999998,"ADDRESS":"西和路１１２號九樓之９","OBJECTID":555276},"geometry":{"x":166907.98000000045,"y":2544592.0299999993}},{"attributes":{"ID":555304,"DIS_CODE":0,"TOWNNAME":"中西區","LI":"藥王里","LIN":"21鄰","STREET":"西和路","SECT":" ","MAREA":" ","LANE":" ","ALLEY":" ","HOUSE_NO":"１１２號八樓之１","E_COORD97":166907.98000000001,"N_COORD97":2544592.0299999998,"ADDRESS":"西和路１１２號八樓之１","OBJECTID":555277},"geometry":{"x":166907.98000000045,"y":2544592.0299999993}},{"attributes":{"ID":555305,"DIS_CODE":0,"TOWNNAME":"中西區","LI":"藥王里","LIN":"21鄰","STREET":"西和路","SECT":" ","MAREA":" ","LANE":" ","ALLEY":" ","HOUSE_NO":"１１２號八樓之１０","E_COORD97":166907.98000000001,"N_COORD97":2544592.0299999998,"ADDRESS":"西和路１１２號八樓之１０","OBJECTID":555278},"geometry":{"x":166907.98000000045,"y":2544592.0299999993}},{"attributes":{"ID":555306,"DIS_CODE":0,"TOWNNAME":"中西區","LI":"藥王里","LIN":"21鄰","STREET":"西和路","SECT":" ","MAREA":" ","LANE":" ","ALLEY":" ","HOUSE_NO":"１１２號八樓之２","E_COORD97":166907.98000000001,"N_COORD97":2544592.0299999998,"ADDRESS":"西和路１１２號八樓之２","OBJECTID":555279},"geometry":{"x":166907.98000000045,"y":2544592.0299999993}},{"attributes":{"ID":555307,"DIS_CODE":0,"TOWNNAME":"中西區","LI":"藥王里","LIN":"21鄰","STREET":"西和路","SECT":" ","MAREA":" ","LANE":" ","ALLEY":" ","HOUSE_NO":"１１２號八樓之３","E_COORD97":166907.98000000001,"N_COORD97":2544592.0299999998,"ADDRESS":"西和路１１２號八樓之３","OBJECTID":555280},"geometry":{"x":166907.98000000045,"y":2544592.0299999993}},{"attributes":{"ID":555308,"DIS_CODE":0,"TOWNNAME":"中西區","LI":"藥王里","LIN":"21鄰","STREET":"西和路","SECT":" ","MAREA":" ","LANE":" ","ALLEY":" ","HOUSE_NO":"１１２號八樓之５","E_COORD97":166907.98000000001,"N_COORD97":2544592.0299999998,"ADDRESS":"西和路１１２號八樓之５","OBJECTID":555281},"geometry":{"x":166907.98000000045,"y":2544592.0299999993}},{"attributes":{"ID":555309,"DIS_CODE":0,"TOWNNAME":"中西區","LI":"藥王里","LIN":"21鄰","STREET":"西和路","SECT":" ","MAREA":" ","LANE":" ","ALLEY":" ","HOUSE_NO":"１１２號八樓之６","E_COORD97":166907.98000000001,"N_COORD97":2544592.0299999998,"ADDRESS":"西和路１１２號八樓之６","OBJECTID":555282},"geometry":{"x":166907.98000000045,"y":2544592.0299999993}},{"attributes":{"ID":555310,"DIS_CODE":0,"TOWNNAME":"中西區","LI":"藥王里","LIN":"21鄰","STREET":"西和路","SECT":" ","MAREA":" ","LANE":" ","ALLEY":" ","HOUSE_NO":"１１２號八樓之７","E_COORD97":166907.98000000001,"N_COORD97":2544592.0299999998,"ADDRESS":"西和路１１２號八樓之７","OBJECTID":555283},"geometry":{"x":166907.98000000045,"y":2544592.0299999993}},{"attributes":{"ID":555311,"DIS_CODE":0,"TOWNNAME":"中西區","LI":"藥王里","LIN":"21鄰","STREET":"西和路","SECT":" ","MAREA":" ","LANE":" ","ALLEY":" ","HOUSE_NO":"１１２號八樓之８","E_COORD97":166907.98000000001,"N_COORD97":2544592.0299999998,"ADDRESS":"西和路１１２號八樓之８","OBJECTID":555284},"geometry":{"x":166907.98000000045,"y":2544592.0299999993}},{"attributes":{"ID":555312,"DIS_CODE":0,"TOWNNAME":"中西區","LI":"藥王里","LIN":"21鄰","STREET":"西和路","SECT":" ","MAREA":" ","LANE":" ","ALLEY":" ","HOUSE_NO":"１１２號八樓之９","E_COORD97":166907.98000000001,"N_COORD97":2544592.0299999998,"ADDRESS":"西和路１１２號八樓之９","OBJECTID":555285},"geometry":{"x":166907.98000000045,"y":2544592.0299999993}},{"attributes":{"ID":555313,"DIS_CODE":0,"TOWNNAME":"中西區","LI":"藥王里","LIN":"21鄰","STREET":"西和路","SECT":" ","MAREA":" ","LANE":" ","ALLEY":" ","HOUSE_NO":"１１２號十一樓之１","E_COORD97":166907.98000000001,"N_COORD97":2544592.0299999998,"ADDRESS":"西和路１１２號十一樓之１","OBJECTID":555286},"geometry":{"x":166907.98000000045,"y":2544592.0299999993}},{"attributes":{"ID":555314,"DIS_CODE":0,"TOWNNAME":"中西區","LI":"藥王里","LIN":"21鄰","STREET":"西和路","SECT":" ","MAREA":" ","LANE":" ","ALLEY":" ","HOUSE_NO":"１１２號十一樓之１０","E_COORD97":166907.98000000001,"N_COORD97":2544592.0299999998,"ADDRESS":"西和路１１２號十一樓之１０","OBJECTID":555287},"geometry":{"x":166907.98000000045,"y":2544592.0299999993}},{"attributes":{"ID":555315,"DIS_CODE":0,"TOWNNAME":"中西區","LI":"藥王里","LIN":"21鄰","STREET":"西和路","SECT":" ","MAREA":" ","LANE":" ","ALLEY":" ","HOUSE_NO":"１１２號十一樓之２","E_COORD97":166907.98000000001,"N_COORD97":2544592.0299999998,"ADDRESS":"西和路１１２號十一樓之２","OBJECTID":555288},"geometry":{"x":166907.98000000045,"y":2544592.0299999993}},{"attributes":{"ID":555316,"DIS_CODE":0,"TOWNNAME":"中西區","LI":"藥王里","LIN":"21鄰","STREET":"西和路","SECT":" ","MAREA":" ","LANE":" ","ALLEY":" ","HOUSE_NO":"１１２號十一樓之３","E_COORD97":166907.98000000001,"N_COORD97":2544592.0299999998,"ADDRESS":"西和路１１２號十一樓之３","OBJECTID":555289},"geometry":{"x":166907.98000000045,"y":2544592.0299999993}},{"attributes":{"ID":555317,"DIS_CODE":0,"TOWNNAME":"中西區","LI":"藥王里","LIN":"21鄰","STREET":"西和路","SECT":" ","MAREA":" ","LANE":" ","ALLEY":" ","HOUSE_NO":"１１２號十一樓之５","E_COORD97":166907.98000000001,"N_COORD97":2544592.0299999998,"ADDRESS":"西和路１１２號十一樓之５","OBJECTID":555290},"geometry":{"x":166907.98000000045,"y":2544592.0299999993}},{"attributes":{"ID":555318,"DIS_CODE":0,"TOWNNAME":"中西區","LI":"藥王里","LIN":"21鄰","STREET":"西和路","SECT":" ","MAREA":" ","LANE":" ","ALLEY":" ","HOUSE_NO":"１１２號十一樓之６","E_COORD97":166907.98000000001,"N_COORD97":2544592.0299999998,"ADDRESS":"西和路１１２號十一樓之６","OBJECTID":555291},"geometry":{"x":166907.98000000045,"y":2544592.0299999993}},{"attributes":{"ID":555319,"DIS_CODE":0,"TOWNNAME":"中西區","LI":"藥王里","LIN":"21鄰","STREET":"西和路","SECT":" ","MAREA":" ","LANE":" ","ALLEY":" ","HOUSE_NO":"１１２號十一樓之７","E_COORD97":166907.98000000001,"N_COORD97":2544592.0299999998,"ADDRESS":"西和路１１２號十一樓之７","OBJECTID":555292},"geometry":{"x":166907.98000000045,"y":2544592.0299999993}},{"attributes":{"ID":555320,"DIS_CODE":0,"TOWNNAME":"中西區","LI":"藥王里","LIN":"21鄰","STREET":"西和路","SECT":" ","MAREA":" ","LANE":" ","ALLEY":" ","HOUSE_NO":"１１２號十一樓之８","E_COORD97":166907.98000000001,"N_COORD97":2544592.0299999998,"ADDRESS":"西和路１１２號十一樓之８","OBJECTID":555293},"geometry":{"x":166907.98000000045,"y":2544592.0299999993}},{"attributes":{"ID":555321,"DIS_CODE":0,"TOWNNAME":"中西區","LI":"藥王里","LIN":"21鄰","STREET":"西和路","SECT":" ","MAREA":" ","LANE":" ","ALLEY":" ","HOUSE_NO":"１１２號十一樓之９","E_COORD97":166907.98000000001,"N_COORD97":2544592.0299999998,"ADDRESS":"西和路１１２號十一樓之９","OBJECTID":555294},"geometry":{"x":166907.98000000045,"y":2544592.0299999993}},{"attributes":{"ID":555322,"DIS_CODE":0,"TOWNNAME":"中西區","LI":"藥王里","LIN":"21鄰","STREET":"西和路","SECT":" ","MAREA":" ","LANE":" ","ALLEY":" ","HOUSE_NO":"１１２號十二樓之１","E_COORD97":166907.98000000001,"N_COORD97":2544592.0299999998,"ADDRESS":"西和路１１２號十二樓之１","OBJECTID":555295},"geometry":{"x":166907.98000000045,"y":2544592.0299999993}},{"attributes":{"ID":555323,"DIS_CODE":0,"TOWNNAME":"中西區","LI":"藥王里","LIN":"21鄰","STREET":"西和路","SECT":" ","MAREA":" ","LANE":" ","ALLEY":" ","HOUSE_NO":"１１２號十二樓之１０","E_COORD97":166907.98000000001,"N_COORD97":2544592.0299999998,"ADDRESS":"西和路１１２號十二樓之１０","OBJECTID":555296},"geometry":{"x":166907.98000000045,"y":2544592.0299999993}},{"attributes":{"ID":555324,"DIS_CODE":0,"TOWNNAME":"中西區","LI":"藥王里","LIN":"21鄰","STREET":"西和路","SECT":" ","MAREA":" ","LANE":" ","ALLEY":" ","HOUSE_NO":"１１２號十二樓之２","E_COORD97":166907.98000000001,"N_COORD97":2544592.0299999998,"ADDRESS":"西和路１１２號十二樓之２","OBJECTID":555297},"geometry":{"x":166907.98000000045,"y":2544592.0299999993}},{"attributes":{"ID":555325,"DIS_CODE":0,"TOWNNAME":"中西區","LI":"藥王里","LIN":"21鄰","STREET":"西和路","SECT":" ","MAREA":" ","LANE":" ","ALLEY":" ","HOUSE_NO":"１１２號十二樓之３","E_COORD97":166907.98000000001,"N_COORD97":2544592.0299999998,"ADDRESS":"西和路１１２號十二樓之３","OBJECTID":555298},"geometry":{"x":166907.98000000045,"y":2544592.0299999993}},{"attributes":{"ID":555326,"DIS_CODE":0,"TOWNNAME":"中西區","LI":"藥王里","LIN":"21鄰","STREET":"西和路","SECT":" ","MAREA":" ","LANE":" ","ALLEY":" ","HOUSE_NO":"１１２號十二樓之５","E_COORD97":166907.98000000001,"N_COORD97":2544592.0299999998,"ADDRESS":"西和路１１２號十二樓之５","OBJECTID":555299},"geometry":{"x":166907.98000000045,"y":2544592.0299999993}},{"attributes":{"ID":555327,"DIS_CODE":0,"TOWNNAME":"中西區","LI":"藥王里","LIN":"21鄰","STREET":"西和路","SECT":" ","MAREA":" ","LANE":" ","ALLEY":" ","HOUSE_NO":"１１２號十二樓之６","E_COORD97":166907.98000000001,"N_COORD97":2544592.0299999998,"ADDRESS":"西和路１１２號十二樓之６","OBJECTID":555300},"geometry":{"x":166907.98000000045,"y":2544592.0299999993}},{"attributes":{"ID":555328,"DIS_CODE":0,"TOWNNAME":"中西區","LI":"藥王里","LIN":"21鄰","STREET":"西和路","SECT":" ","MAREA":" ","LANE":" ","ALLEY":" ","HOUSE_NO":"１１２號十二樓之７","E_COORD97":166907.98000000001,"N_COORD97":2544592.0299999998,"ADDRESS":"西和路１１２號十二樓之７","OBJECTID":555301},"geometry":{"x":166907.98000000045,"y":2544592.0299999993}},{"attributes":{"ID":555329,"DIS_CODE":0,"TOWNNAME":"中西區","LI":"藥王里","LIN":"21鄰","STREET":"西和路","SECT":" ","MAREA":" ","LANE":" ","ALLEY":" ","HOUSE_NO":"１１２號十二樓之８","E_COORD97":166907.98000000001,"N_COORD97":2544592.0299999998,"ADDRESS":"西和路１１２號十二樓之８","OBJECTID":555302},"geometry":{"x":166907.98000000045,"y":2544592.0299999993}},{"attributes":{"ID":555330,"DIS_CODE":0,"TOWNNAME":"中西區","LI":"藥王里","LIN":"21鄰","STREET":"西和路","SECT":" ","MAREA":" ","LANE":" ","ALLEY":" ","HOUSE_NO":"１１２號十二樓之９","E_COORD97":166907.98000000001,"N_COORD97":2544592.0299999998,"ADDRESS":"西和路１１２號十二樓之９","OBJECTID":555303},"geometry":{"x":166907.98000000045,"y":2544592.0299999993}},{"attributes":{"ID":555331,"DIS_CODE":0,"TOWNNAME":"中西區","LI":"藥王里","LIN":"21鄰","STREET":"西和路","SECT":" ","MAREA":" ","LANE":" ","ALLEY":" ","HOUSE_NO":"１１２號十三樓之１","E_COORD97":166907.98000000001,"N_COORD97":2544592.0299999998,"ADDRESS":"西和路１１２號十三樓之１","OBJECTID":555304},"geometry":{"x":166907.98000000045,"y":2544592.0299999993}},{"attributes":{"ID":555332,"DIS_CODE":0,"TOWNNAME":"中西區","LI":"藥王里","LIN":"21鄰","STREET":"西和路","SECT":" ","MAREA":" ","LANE":" ","ALLEY":" ","HOUSE_NO":"１１２號十三樓之１０","E_COORD97":166907.98000000001,"N_COORD97":2544592.0299999998,"ADDRESS":"西和路１１２號十三樓之１０","OBJECTID":555305},"geometry":{"x":166907.98000000045,"y":2544592.0299999993}},{"attributes":{"ID":555333,"DIS_CODE":0,"TOWNNAME":"中西區","LI":"藥王里","LIN":"21鄰","STREET":"西和路","SECT":" ","MAREA":" ","LANE":" ","ALLEY":" ","HOUSE_NO":"１１２號十三樓之２","E_COORD97":166907.98000000001,"N_COORD97":2544592.0299999998,"ADDRESS":"西和路１１２號十三樓之２","OBJECTID":555306},"geometry":{"x":166907.98000000045,"y":2544592.0299999993}},{"attributes":{"ID":555334,"DIS_CODE":0,"TOWNNAME":"中西區","LI":"藥王里","LIN":"21鄰","STREET":"西和路","SECT":" ","MAREA":" ","LANE":" ","ALLEY":" ","HOUSE_NO":"１１２號十三樓之３","E_COORD97":166907.98000000001,"N_COORD97":2544592.0299999998,"ADDRESS":"西和路１１２號十三樓之３","OBJECTID":555307},"geometry":{"x":166907.98000000045,"y":2544592.0299999993}},{"attributes":{"ID":555335,"DIS_CODE":0,"TOWNNAME":"中西區","LI":"藥王里","LIN":"21鄰","STREET":"西和路","SECT":" ","MAREA":" ","LANE":" ","ALLEY":" ","HOUSE_NO":"１１２號十三樓之５","E_COORD97":166907.98000000001,"N_COORD97":2544592.0299999998,"ADDRESS":"西和路１１２號十三樓之５","OBJECTID":555308},"geometry":{"x":166907.98000000045,"y":2544592.0299999993}},{"attributes":{"ID":555336,"DIS_CODE":0,"TOWNNAME":"中西區","LI":"藥王里","LIN":"21鄰","STREET":"西和路","SECT":" ","MAREA":" ","LANE":" ","ALLEY":" ","HOUSE_NO":"１１２號十三樓之６","E_COORD97":166907.98000000001,"N_COORD97":2544592.0299999998,"ADDRESS":"西和路１１２號十三樓之６","OBJECTID":555309},"geometry":{"x":166907.98000000045,"y":2544592.0299999993}},{"attributes":{"ID":555337,"DIS_CODE":0,"TOWNNAME":"中西區","LI":"藥王里","LIN":"21鄰","STREET":"西和路","SECT":" ","MAREA":" ","LANE":" ","ALLEY":" ","HOUSE_NO":"１１２號十三樓之７","E_COORD97":166907.98000000001,"N_COORD97":2544592.0299999998,"ADDRESS":"西和路１１２號十三樓之７","OBJECTID":555310},"geometry":{"x":166907.98000000045,"y":2544592.0299999993}},{"attributes":{"ID":555338,"DIS_CODE":0,"TOWNNAME":"中西區","LI":"藥王里","LIN":"21鄰","STREET":"西和路","SECT":" ","MAREA":" ","LANE":" ","ALLEY":" ","HOUSE_NO":"１１２號十三樓之８","E_COORD97":166907.98000000001,"N_COORD97":2544592.0299999998,"ADDRESS":"西和路１１２號十三樓之８","OBJECTID":555311},"geometry":{"x":166907.98000000045,"y":2544592.0299999993}},{"attributes":{"ID":555339,"DIS_CODE":0,"TOWNNAME":"中西區","LI":"藥王里","LIN":"21鄰","STREET":"西和路","SECT":" ","MAREA":" ","LANE":" ","ALLEY":" ","HOUSE_NO":"１１２號十三樓之９","E_COORD97":166907.98000000001,"N_COORD97":2544592.0299999998,"ADDRESS":"西和路１１２號十三樓之９","OBJECTID":555312},"geometry":{"x":166907.98000000045,"y":2544592.0299999993}},{"attributes":{"ID":555340,"DIS_CODE":0,"TOWNNAME":"中西區","LI":"藥王里","LIN":"21鄰","STREET":"西和路","SECT":" ","MAREA":" ","LANE":" ","ALLEY":" ","HOUSE_NO":"１１２號十四樓之１","E_COORD97":166907.98000000001,"N_COORD97":2544592.0299999998,"ADDRESS":"西和路１１２號十四樓之１","OBJECTID":555313},"geometry":{"x":166907.98000000045,"y":2544592.0299999993}},{"attributes":{"ID":555341,"DIS_CODE":0,"TOWNNAME":"中西區","LI":"藥王里","LIN":"21鄰","STREET":"西和路","SECT":" ","MAREA":" ","LANE":" ","ALLEY":" ","HOUSE_NO":"１１２號十四樓之１０","E_COORD97":166907.98000000001,"N_COORD97":2544592.0299999998,"ADDRESS":"西和路１１２號十四樓之１０","OBJECTID":555314},"geometry":{"x":166907.98000000045,"y":2544592.0299999993}},{"attributes":{"ID":555342,"DIS_CODE":0,"TOWNNAME":"中西區","LI":"藥王里","LIN":"21鄰","STREET":"西和路","SECT":" ","MAREA":" ","LANE":" ","ALLEY":" ","HOUSE_NO":"１１２號十四樓之２","E_COORD97":166907.98000000001,"N_COORD97":2544592.0299999998,"ADDRESS":"西和路１１２號十四樓之２","OBJECTID":555315},"geometry":{"x":166907.98000000045,"y":2544592.0299999993}},{"attributes":{"ID":555343,"DIS_CODE":0,"TOWNNAME":"中西區","LI":"藥王里","LIN":"21鄰","STREET":"西和路","SECT":" ","MAREA":" ","LANE":" ","ALLEY":" ","HOUSE_NO":"１１２號十四樓之３","E_COORD97":166907.98000000001,"N_COORD97":2544592.0299999998,"ADDRESS":"西和路１１２號十四樓之３","OBJECTID":555316},"geometry":{"x":166907.98000000045,"y":2544592.0299999993}},{"attributes":{"ID":555344,"DIS_CODE":0,"TOWNNAME":"中西區","LI":"藥王里","LIN":"21鄰","STREET":"西和路","SECT":" ","MAREA":" ","LANE":" ","ALLEY":" ","HOUSE_NO":"１１２號十四樓之５","E_COORD97":166907.98000000001,"N_COORD97":2544592.0299999998,"ADDRESS":"西和路１１２號十四樓之５","OBJECTID":555317},"geometry":{"x":166907.98000000045,"y":2544592.0299999993}},{"attributes":{"ID":555345,"DIS_CODE":0,"TOWNNAME":"中西區","LI":"藥王里","LIN":"21鄰","STREET":"西和路","SECT":" ","MAREA":" ","LANE":" ","ALLEY":" ","HOUSE_NO":"１１２號十四樓之６","E_COORD97":166907.98000000001,"N_COORD97":2544592.0299999998,"ADDRESS":"西和路１１２號十四樓之６","OBJECTID":555318},"geometry":{"x":166907.98000000045,"y":2544592.0299999993}},{"attributes":{"ID":555346,"DIS_CODE":0,"TOWNNAME":"中西區","LI":"藥王里","LIN":"21鄰","STREET":"西和路","SECT":" ","MAREA":" ","LANE":" ","ALLEY":" ","HOUSE_NO":"１１２號十四樓之７","E_COORD97":166907.98000000001,"N_COORD97":2544592.0299999998,"ADDRESS":"西和路１１２號十四樓之７","OBJECTID":555319},"geometry":{"x":166907.98000000045,"y":2544592.0299999993}},{"attributes":{"ID":555347,"DIS_CODE":0,"TOWNNAME":"中西區","LI":"藥王里","LIN":"21鄰","STREET":"西和路","SECT":" ","MAREA":" ","LANE":" ","ALLEY":" ","HOUSE_NO":"１１２號十四樓之８","E_COORD97":166907.98000000001,"N_COORD97":2544592.0299999998,"ADDRESS":"西和路１１２號十四樓之８","OBJECTID":555320},"geometry":{"x":166907.98000000045,"y":2544592.0299999993}},{"attributes":{"ID":555348,"DIS_CODE":0,"TOWNNAME":"中西區","LI":"藥王里","LIN":"21鄰","STREET":"西和路","SECT":" ","MAREA":" ","LANE":" ","ALLEY":" ","HOUSE_NO":"１１２號十四樓之９","E_COORD97":166907.98000000001,"N_COORD97":2544592.0299999998,"ADDRESS":"西和路１１２號十四樓之９","OBJECTID":555321},"geometry":{"x":166907.98000000045,"y":2544592.0299999993}},{"attributes":{"ID":555349,"DIS_CODE":0,"TOWNNAME":"中西區","LI":"藥王里","LIN":"21鄰","STREET":"西和路","SECT":" ","MAREA":" ","LANE":" ","ALLEY":" ","HOUSE_NO":"１１２號十樓之１","E_COORD97":166907.98000000001,"N_COORD97":2544592.0299999998,"ADDRESS":"西和路１１２號十樓之１","OBJECTID":555322},"geometry":{"x":166907.98000000045,"y":2544592.0299999993}},{"attributes":{"ID":555350,"DIS_CODE":0,"TOWNNAME":"中西區","LI":"藥王里","LIN":"21鄰","STREET":"西和路","SECT":" ","MAREA":" ","LANE":" ","ALLEY":" ","HOUSE_NO":"１１２號十樓之１０","E_COORD97":166907.98000000001,"N_COORD97":2544592.0299999998,"ADDRESS":"西和路１１２號十樓之１０","OBJECTID":555323},"geometry":{"x":166907.98000000045,"y":2544592.0299999993}},{"attributes":{"ID":555351,"DIS_CODE":0,"TOWNNAME":"中西區","LI":"藥王里","LIN":"21鄰","STREET":"西和路","SECT":" ","MAREA":" ","LANE":" ","ALLEY":" ","HOUSE_NO":"１１２號十樓之２","E_COORD97":166907.98000000001,"N_COORD97":2544592.0299999998,"ADDRESS":"西和路１１２號十樓之２","OBJECTID":555324},"geometry":{"x":166907.98000000045,"y":2544592.0299999993}},{"attributes":{"ID":555352,"DIS_CODE":0,"TOWNNAME":"中西區","LI":"藥王里","LIN":"21鄰","STREET":"西和路","SECT":" ","MAREA":" ","LANE":" ","ALLEY":" ","HOUSE_NO":"１１２號十樓之３","E_COORD97":166907.98000000001,"N_COORD97":2544592.0299999998,"ADDRESS":"西和路１１２號十樓之３","OBJECTID":555325},"geometry":{"x":166907.98000000045,"y":2544592.0299999993}},{"attributes":{"ID":555353,"DIS_CODE":0,"TOWNNAME":"中西區","LI":"藥王里","LIN":"21鄰","STREET":"西和路","SECT":" ","MAREA":" ","LANE":" ","ALLEY":" ","HOUSE_NO":"１１２號十樓之５","E_COORD97":166907.98000000001,"N_COORD97":2544592.0299999998,"ADDRESS":"西和路１１２號十樓之５","OBJECTID":555326},"geometry":{"x":166907.98000000045,"y":2544592.0299999993}},{"attributes":{"ID":555354,"DIS_CODE":0,"TOWNNAME":"中西區","LI":"藥王里","LIN":"21鄰","STREET":"西和路","SECT":" ","MAREA":" ","LANE":" ","ALLEY":" ","HOUSE_NO":"１１２號十樓之６","E_COORD97":166907.98000000001,"N_COORD97":2544592.0299999998,"ADDRESS":"西和路１１２號十樓之６","OBJECTID":555327},"geometry":{"x":166907.98000000045,"y":2544592.0299999993}},{"attributes":{"ID":555355,"DIS_CODE":0,"TOWNNAME":"中西區","LI":"藥王里","LIN":"21鄰","STREET":"西和路","SECT":" ","MAREA":" ","LANE":" ","ALLEY":" ","HOUSE_NO":"１１２號十樓之７","E_COORD97":166907.98000000001,"N_COORD97":2544592.0299999998,"ADDRESS":"西和路１１２號十樓之７","OBJECTID":555328},"geometry":{"x":166907.98000000045,"y":2544592.0299999993}},{"attributes":{"ID":555356,"DIS_CODE":0,"TOWNNAME":"中西區","LI":"藥王里","LIN":"21鄰","STREET":"西和路","SECT":" ","MAREA":" ","LANE":" ","ALLEY":" ","HOUSE_NO":"１１２號十樓之８","E_COORD97":166907.98000000001,"N_COORD97":2544592.0299999998,"ADDRESS":"西和路１１２號十樓之８","OBJECTID":555329},"geometry":{"x":166907.98000000045,"y":2544592.0299999993}},{"attributes":{"ID":555357,"DIS_CODE":0,"TOWNNAME":"中西區","LI":"藥王里","LIN":"21鄰","STREET":"西和路","SECT":" ","MAREA":" ","LANE":" ","ALLEY":" ","HOUSE_NO":"１１２號十樓之９","E_COORD97":166907.98000000001,"N_COORD97":2544592.0299999998,"ADDRESS":"西和路１１２號十樓之９","OBJECTID":555330},"geometry":{"x":166907.98000000045,"y":2544592.0299999993}},{"attributes":{"ID":555358,"DIS_CODE":0,"TOWNNAME":"中西區","LI":"藥王里","LIN":"21鄰","STREET":"西和路","SECT":" ","MAREA":" ","LANE":" ","ALLEY":" ","HOUSE_NO":"１１２號三樓之１","E_COORD97":166907.98000000001,"N_COORD97":2544592.0299999998,"ADDRESS":"西和路１１２號三樓之１","OBJECTID":555331},"geometry":{"x":166907.98000000045,"y":2544592.0299999993}},{"attributes":{"ID":555359,"DIS_CODE":0,"TOWNNAME":"中西區","LI":"藥王里","LIN":"21鄰","STREET":"西和路","SECT":" ","MAREA":" ","LANE":" ","ALLEY":" ","HOUSE_NO":"１１２號三樓之１０","E_COORD97":166907.98000000001,"N_COORD97":2544592.0299999998,"ADDRESS":"西和路１１２號三樓之１０","OBJECTID":555332},"geometry":{"x":166907.98000000045,"y":2544592.0299999993}},{"attributes":{"ID":555360,"DIS_CODE":0,"TOWNNAME":"中西區","LI":"藥王里","LIN":"21鄰","STREET":"西和路","SECT":" ","MAREA":" ","LANE":" ","ALLEY":" ","HOUSE_NO":"１１２號三樓之２","E_COORD97":166907.98000000001,"N_COORD97":2544592.0299999998,"ADDRESS":"西和路１１２號三樓之２","OBJECTID":555333},"geometry":{"x":166907.98000000045,"y":2544592.0299999993}},{"attributes":{"ID":555361,"DIS_CODE":0,"TOWNNAME":"新化區","LI":"東榮里","LIN":"33鄰","STREET":"護安街","SECT":" ","MAREA":" ","LANE":" ","ALLEY":" ","HOUSE_NO":"６７號","E_COORD97":179202.78,"N_COORD97":2548371.2599999998,"ADDRESS":"護安街６７號","OBJECTID":555334},"geometry":{"x":179202.78000000026,"y":2548371.2599999998}},{"attributes":{"ID":555362,"DIS_CODE":0,"TOWNNAME":"中西區","LI":"藥王里","LIN":"21鄰","STREET":"西和路","SECT":" ","MAREA":" ","LANE":" ","ALLEY":" ","HOUSE_NO":"１１２號三樓之３","E_COORD97":166907.98000000001,"N_COORD97":2544592.0299999998,"ADDRESS":"西和路１１２號三樓之３","OBJECTID":555335},"geometry":{"x":166907.98000000045,"y":2544592.0299999993}},{"attributes":{"ID":555363,"DIS_CODE":0,"TOWNNAME":"中西區","LI":"藥王里","LIN":"21鄰","STREET":"西和路","SECT":" ","MAREA":" ","LANE":" ","ALLEY":" ","HOUSE_NO":"１１２號三樓之５","E_COORD97":166907.98000000001,"N_COORD97":2544592.0299999998,"ADDRESS":"西和路１１２號三樓之５","OBJECTID":555336},"geometry":{"x":166907.98000000045,"y":2544592.0299999993}},{"attributes":{"ID":555364,"DIS_CODE":0,"TOWNNAME":"中西區","LI":"藥王里","LIN":"21鄰","STREET":"西和路","SECT":" ","MAREA":" ","LANE":" ","ALLEY":" ","HOUSE_NO":"１１２號三樓之６","E_COORD97":166907.98000000001,"N_COORD97":2544592.0299999998,"ADDRESS":"西和路１１２號三樓之６","OBJECTID":555337},"geometry":{"x":166907.98000000045,"y":2544592.0299999993}},{"attributes":{"ID":555365,"DIS_CODE":0,"TOWNNAME":"中西區","LI":"藥王里","LIN":"21鄰","STREET":"西和路","SECT":" ","MAREA":" ","LANE":" ","ALLEY":" ","HOUSE_NO":"１１２號三樓之７","E_COORD97":166907.98000000001,"N_COORD97":2544592.0299999998,"ADDRESS":"西和路１１２號三樓之７","OBJECTID":555338},"geometry":{"x":166907.98000000045,"y":2544592.0299999993}},{"attributes":{"ID":555366,"DIS_CODE":0,"TOWNNAME":"新化區","LI":"豐榮里","LIN":"1鄰","STREET":"中山路","SECT":" ","MAREA":" ","LANE":" ","ALLEY":" ","HOUSE_NO":"５９５號之２","E_COORD97":178292.76000000001,"N_COORD97":2548440.2599999998,"ADDRESS":"中山路５９５號之２","OBJECTID":555339},"geometry":{"x":178292.76000000071,"y":2548440.2600000016}},{"attributes":{"ID":555367,"DIS_CODE":0,"TOWNNAME":"中西區","LI":"藥王里","LIN":"21鄰","STREET":"西和路","SECT":" ","MAREA":" ","LANE":" ","ALLEY":" ","HOUSE_NO":"１１２號三樓之８","E_COORD97":166907.98000000001,"N_COORD97":2544592.0299999998,"ADDRESS":"西和路１１２號三樓之８","OBJECTID":555340},"geometry":{"x":166907.98000000045,"y":2544592.0299999993}},{"attributes":{"ID":555368,"DIS_CODE":0,"TOWNNAME":"中西區","LI":"藥王里","LIN":"21鄰","STREET":"西和路","SECT":" ","MAREA":" ","LANE":" ","ALLEY":" ","HOUSE_NO":"１１２號三樓之９","E_COORD97":166907.98000000001,"N_COORD97":2544592.0299999998,"ADDRESS":"西和路１１２號三樓之９","OBJECTID":555341},"geometry":{"x":166907.98000000045,"y":2544592.0299999993}},{"attributes":{"ID":555369,"DIS_CODE":0,"TOWNNAME":"中西區","LI":"藥王里","LIN":"21鄰","STREET":"西和路","SECT":" ","MAREA":" ","LANE":" ","ALLEY":" ","HOUSE_NO":"１１２號五樓之１","E_COORD97":166907.98000000001,"N_COORD97":2544592.0299999998,"ADDRESS":"西和路１１２號五樓之１","OBJECTID":555342},"geometry":{"x":166907.98000000045,"y":2544592.0299999993}},{"attributes":{"ID":555370,"DIS_CODE":0,"TOWNNAME":"中西區","LI":"藥王里","LIN":"21鄰","STREET":"西和路","SECT":" ","MAREA":" ","LANE":" ","ALLEY":" ","HOUSE_NO":"１１２號五樓之１０","E_COORD97":166907.98000000001,"N_COORD97":2544592.0299999998,"ADDRESS":"西和路１１２號五樓之１０","OBJECTID":555343},"geometry":{"x":166907.98000000045,"y":2544592.0299999993}},{"attributes":{"ID":555371,"DIS_CODE":0,"TOWNNAME":"中西區","LI":"藥王里","LIN":"21鄰","STREET":"西和路","SECT":" ","MAREA":" ","LANE":" ","ALLEY":" ","HOUSE_NO":"１１２號五樓之２","E_COORD97":166907.98000000001,"N_COORD97":2544592.0299999998,"ADDRESS":"西和路１１２號五樓之２","OBJECTID":555344},"geometry":{"x":166907.98000000045,"y":2544592.0299999993}},{"attributes":{"ID":555372,"DIS_CODE":0,"TOWNNAME":"中西區","LI":"藥王里","LIN":"21鄰","STREET":"西和路","SECT":" ","MAREA":" ","LANE":" ","ALLEY":" ","HOUSE_NO":"１１２號五樓之３","E_COORD97":166907.98000000001,"N_COORD97":2544592.0299999998,"ADDRESS":"西和路１１２號五樓之３","OBJECTID":555345},"geometry":{"x":166907.98000000045,"y":2544592.0299999993}},{"attributes":{"ID":555373,"DIS_CODE":0,"TOWNNAME":"中西區","LI":"藥王里","LIN":"21鄰","STREET":"西和路","SECT":" ","MAREA":" ","LANE":" ","ALLEY":" ","HOUSE_NO":"１１２號五樓之５","E_COORD97":166907.98000000001,"N_COORD97":2544592.0299999998,"ADDRESS":"西和路１１２號五樓之５","OBJECTID":555346},"geometry":{"x":166907.98000000045,"y":2544592.0299999993}},{"attributes":{"ID":555374,"DIS_CODE":0,"TOWNNAME":"中西區","LI":"藥王里","LIN":"21鄰","STREET":"西和路","SECT":" ","MAREA":" ","LANE":" ","ALLEY":" ","HOUSE_NO":"１１２號五樓之６","E_COORD97":166907.98000000001,"N_COORD97":2544592.0299999998,"ADDRESS":"西和路１１２號五樓之６","OBJECTID":555347},"geometry":{"x":166907.98000000045,"y":2544592.0299999993}},{"attributes":{"ID":555375,"DIS_CODE":0,"TOWNNAME":"中西區","LI":"藥王里","LIN":"21鄰","STREET":"西和路","SECT":" ","MAREA":" ","LANE":" ","ALLEY":" ","HOUSE_NO":"１１２號五樓之７","E_COORD97":166907.98000000001,"N_COORD97":2544592.0299999998,"ADDRESS":"西和路１１２號五樓之７","OBJECTID":555348},"geometry":{"x":166907.98000000045,"y":2544592.0299999993}},{"attributes":{"ID":555376,"DIS_CODE":0,"TOWNNAME":"中西區","LI":"藥王里","LIN":"21鄰","STREET":"西和路","SECT":" ","MAREA":" ","LANE":" ","ALLEY":" ","HOUSE_NO":"１１２號五樓之８","E_COORD97":166907.98000000001,"N_COORD97":2544592.0299999998,"ADDRESS":"西和路１１２號五樓之８","OBJECTID":555349},"geometry":{"x":166907.98000000045,"y":2544592.0299999993}},{"attributes":{"ID":555377,"DIS_CODE":0,"TOWNNAME":"中西區","LI":"藥王里","LIN":"21鄰","STREET":"西和路","SECT":" ","MAREA":" ","LANE":" ","ALLEY":" ","HOUSE_NO":"１１２號五樓之９","E_COORD97":166907.98000000001,"N_COORD97":2544592.0299999998,"ADDRESS":"西和路１１２號五樓之９","OBJECTID":555350},"geometry":{"x":166907.98000000045,"y":2544592.0299999993}},{"attributes":{"ID":555378,"DIS_CODE":0,"TOWNNAME":"中西區","LI":"藥王里","LIN":"21鄰","STREET":"西和路","SECT":" ","MAREA":" ","LANE":" ","ALLEY":" ","HOUSE_NO":"１１２號六樓之１","E_COORD97":166907.98000000001,"N_COORD97":2544592.0299999998,"ADDRESS":"西和路１１２號六樓之１","OBJECTID":555351},"geometry":{"x":166907.98000000045,"y":2544592.0299999993}},{"attributes":{"ID":555379,"DIS_CODE":0,"TOWNNAME":"中西區","LI":"藥王里","LIN":"21鄰","STREET":"西和路","SECT":" ","MAREA":" ","LANE":" ","ALLEY":" ","HOUSE_NO":"１１２號六樓之１０","E_COORD97":166907.98000000001,"N_COORD97":2544592.0299999998,"ADDRESS":"西和路１１２號六樓之１０","OBJECTID":555352},"geometry":{"x":166907.98000000045,"y":2544592.0299999993}},{"attributes":{"ID":555380,"DIS_CODE":0,"TOWNNAME":"中西區","LI":"藥王里","LIN":"21鄰","STREET":"西和路","SECT":" ","MAREA":" ","LANE":" ","ALLEY":" ","HOUSE_NO":"１１２號六樓之２","E_COORD97":166907.98000000001,"N_COORD97":2544592.0299999998,"ADDRESS":"西和路１１２號六樓之２","OBJECTID":555353},"geometry":{"x":166907.98000000045,"y":2544592.0299999993}},{"attributes":{"ID":555381,"DIS_CODE":0,"TOWNNAME":"中西區","LI":"藥王里","LIN":"21鄰","STREET":"西和路","SECT":" ","MAREA":" ","LANE":" ","ALLEY":" ","HOUSE_NO":"１１２號六樓之３","E_COORD97":166907.98000000001,"N_COORD97":2544592.0299999998,"ADDRESS":"西和路１１２號六樓之３","OBJECTID":555354},"geometry":{"x":166907.98000000045,"y":2544592.0299999993}},{"attributes":{"ID":555382,"DIS_CODE":0,"TOWNNAME":"中西區","LI":"藥王里","LIN":"21鄰","STREET":"西和路","SECT":" ","MAREA":" ","LANE":" ","ALLEY":" ","HOUSE_NO":"１１２號六樓之５","E_COORD97":166907.98000000001,"N_COORD97":2544592.0299999998,"ADDRESS":"西和路１１２號六樓之５","OBJECTID":555355},"geometry":{"x":166907.98000000045,"y":2544592.0299999993}},{"attributes":{"ID":555383,"DIS_CODE":0,"TOWNNAME":"中西區","LI":"藥王里","LIN":"21鄰","STREET":"西和路","SECT":" ","MAREA":" ","LANE":" ","ALLEY":" ","HOUSE_NO":"１１２號六樓之６","E_COORD97":166907.98000000001,"N_COORD97":2544592.0299999998,"ADDRESS":"西和路１１２號六樓之６","OBJECTID":555356},"geometry":{"x":166907.98000000045,"y":2544592.0299999993}},{"attributes":{"ID":555384,"DIS_CODE":0,"TOWNNAME":"中西區","LI":"藥王里","LIN":"21鄰","STREET":"西和路","SECT":" ","MAREA":" ","LANE":" ","ALLEY":" ","HOUSE_NO":"１１２號六樓之７","E_COORD97":166907.98000000001,"N_COORD97":2544592.0299999998,"ADDRESS":"西和路１１２號六樓之７","OBJECTID":555357},"geometry":{"x":166907.98000000045,"y":2544592.0299999993}},{"attributes":{"ID":555385,"DIS_CODE":0,"TOWNNAME":"中西區","LI":"藥王里","LIN":"21鄰","STREET":"西和路","SECT":" ","MAREA":" ","LANE":" ","ALLEY":" ","HOUSE_NO":"１１２號六樓之８","E_COORD97":166907.98000000001,"N_COORD97":2544592.0299999998,"ADDRESS":"西和路１１２號六樓之８","OBJECTID":555358},"geometry":{"x":166907.98000000045,"y":2544592.0299999993}},{"attributes":{"ID":555386,"DIS_CODE":0,"TOWNNAME":"中西區","LI":"藥王里","LIN":"21鄰","STREET":"西和路","SECT":" ","MAREA":" ","LANE":" ","ALLEY":" ","HOUSE_NO":"１１２號六樓之９","E_COORD97":166907.98000000001,"N_COORD97":2544592.0299999998,"ADDRESS":"西和路１１２號六樓之９","OBJECTID":555359},"geometry":{"x":166907.98000000045,"y":2544592.0299999993}},{"attributes":{"ID":555387,"DIS_CODE":0,"TOWNNAME":"中西區","LI":"藥王里","LIN":"21鄰","STREET":"西和路","SECT":" ","MAREA":" ","LANE":" ","ALLEY":" ","HOUSE_NO":"１１２號四樓之１","E_COORD97":166907.98000000001,"N_COORD97":2544592.0299999998,"ADDRESS":"西和路１１２號四樓之１","OBJECTID":555360},"geometry":{"x":166907.98000000045,"y":2544592.0299999993}},{"attributes":{"ID":555388,"DIS_CODE":0,"TOWNNAME":"中西區","LI":"藥王里","LIN":"21鄰","STREET":"西和路","SECT":" ","MAREA":" ","LANE":" ","ALLEY":" ","HOUSE_NO":"１１２號四樓之１０","E_COORD97":166907.98000000001,"N_COORD97":2544592.0299999998,"ADDRESS":"西和路１１２號四樓之１０","OBJECTID":555361},"geometry":{"x":166907.98000000045,"y":2544592.0299999993}},{"attributes":{"ID":555389,"DIS_CODE":0,"TOWNNAME":"中西區","LI":"藥王里","LIN":"21鄰","STREET":"西和路","SECT":" ","MAREA":" ","LANE":" ","ALLEY":" ","HOUSE_NO":"１１２號四樓之２","E_COORD97":166907.98000000001,"N_COORD97":2544592.0299999998,"ADDRESS":"西和路１１２號四樓之２","OBJECTID":555362},"geometry":{"x":166907.98000000045,"y":2544592.0299999993}},{"attributes":{"ID":555390,"DIS_CODE":0,"TOWNNAME":"中西區","LI":"藥王里","LIN":"21鄰","STREET":"西和路","SECT":" ","MAREA":" ","LANE":" ","ALLEY":" ","HOUSE_NO":"１１２號四樓之３","E_COORD97":166907.98000000001,"N_COORD97":2544592.0299999998,"ADDRESS":"西和路１１２號四樓之３","OBJECTID":555363},"geometry":{"x":166907.98000000045,"y":2544592.0299999993}},{"attributes":{"ID":555391,"DIS_CODE":0,"TOWNNAME":"中西區","LI":"藥王里","LIN":"21鄰","STREET":"西和路","SECT":" ","MAREA":" ","LANE":" ","ALLEY":" ","HOUSE_NO":"１１２號四樓之５","E_COORD97":166907.98000000001,"N_COORD97":2544592.0299999998,"ADDRESS":"西和路１１２號四樓之５","OBJECTID":555364},"geometry":{"x":166907.98000000045,"y":2544592.0299999993}},{"attributes":{"ID":555392,"DIS_CODE":0,"TOWNNAME":"中西區","LI":"藥王里","LIN":"21鄰","STREET":"西和路","SECT":" ","MAREA":" ","LANE":" ","ALLEY":" ","HOUSE_NO":"１１２號四樓之６","E_COORD97":166907.98000000001,"N_COORD97":2544592.0299999998,"ADDRESS":"西和路１１２號四樓之６","OBJECTID":555365},"geometry":{"x":166907.98000000045,"y":2544592.0299999993}},{"attributes":{"ID":555393,"DIS_CODE":0,"TOWNNAME":"中西區","LI":"藥王里","LIN":"21鄰","STREET":"西和路","SECT":" ","MAREA":" ","LANE":" ","ALLEY":" ","HOUSE_NO":"１１２號四樓之７","E_COORD97":166907.98000000001,"N_COORD97":2544592.0299999998,"ADDRESS":"西和路１１２號四樓之７","OBJECTID":555366},"geometry":{"x":166907.98000000045,"y":2544592.0299999993}},{"attributes":{"ID":555394,"DIS_CODE":0,"TOWNNAME":"中西區","LI":"藥王里","LIN":"21鄰","STREET":"西和路","SECT":" ","MAREA":" ","LANE":" ","ALLEY":" ","HOUSE_NO":"１１２號四樓之８","E_COORD97":166907.98000000001,"N_COORD97":2544592.0299999998,"ADDRESS":"西和路１１２號四樓之８","OBJECTID":555367},"geometry":{"x":166907.98000000045,"y":2544592.0299999993}},{"attributes":{"ID":555395,"DIS_CODE":0,"TOWNNAME":"中西區","LI":"藥王里","LIN":"21鄰","STREET":"西和路","SECT":" ","MAREA":" ","LANE":" ","ALLEY":" ","HOUSE_NO":"１１２號四樓之９","E_COORD97":166907.98000000001,"N_COORD97":2544592.0299999998,"ADDRESS":"西和路１１２號四樓之９","OBJECTID":555368},"geometry":{"x":166907.98000000045,"y":2544592.0299999993}},{"attributes":{"ID":555396,"DIS_CODE":0,"TOWNNAME":"新化區","LI":"武安里","LIN":"14鄰","STREET":"健康路","SECT":" ","MAREA":" ","LANE":" ","ALLEY":" ","HOUSE_NO":"１０８號","E_COORD97":178813.13,"N_COORD97":2548166.2599999998,"ADDRESS":"健康路１０８號","OBJECTID":555369},"geometry":{"x":178813.13000000082,"y":2548166.2600000016}},{"attributes":{"ID":555397,"DIS_CODE":0,"TOWNNAME":"新化區","LI":"武安里","LIN":"14鄰","STREET":"健康路","SECT":" ","MAREA":" ","LANE":" ","ALLEY":" ","HOUSE_NO":"６２號","E_COORD97":178868.78,"N_COORD97":2548096.2599999998,"ADDRESS":"健康路６２號","OBJECTID":555370},"geometry":{"x":178868.78000000026,"y":2548096.2599999998}},{"attributes":{"ID":555398,"DIS_CODE":0,"TOWNNAME":"新化區","LI":"清水里","LIN":"8鄰","STREET":"民權街","SECT":" ","MAREA":" ","LANE":" ","ALLEY":" ","HOUSE_NO":"７９號","E_COORD97":178726.26000000001,"N_COORD97":2548616.25,"ADDRESS":"民權街７９號","OBJECTID":555371},"geometry":{"x":178726.25999999978,"y":2548616.2499999981}},{"attributes":{"ID":555399,"DIS_CODE":0,"TOWNNAME":"新化區","LI":"武安里","LIN":"4鄰","STREET":"和平街","SECT":" ","MAREA":" ","LANE":" ","ALLEY":" ","HOUSE_NO":"６２號","E_COORD97":179065.17000000001,"N_COORD97":2548159.25,"ADDRESS":"和平街６２號","OBJECTID":555372},"geometry":{"x":179065.17000000086,"y":2548159.2500000019}},{"attributes":{"ID":555400,"DIS_CODE":0,"TOWNNAME":"新化區","LI":"武安里","LIN":"14鄰","STREET":"健康路","SECT":" ","MAREA":" ","LANE":" ","ALLEY":" ","HOUSE_NO":"８１號","E_COORD97":178822.28,"N_COORD97":2548124.2599999998,"ADDRESS":"健康路８１號","OBJECTID":555373},"geometry":{"x":178822.28000000119,"y":2548124.2599999998}},{"attributes":{"ID":555401,"DIS_CODE":0,"TOWNNAME":"新化區","LI":"東榮里","LIN":"30鄰","STREET":"信義路","SECT":" ","MAREA":" ","LANE":" ","ALLEY":" ","HOUSE_NO":"１７１號之２","E_COORD97":179257.88,"N_COORD97":2548341.2599999998,"ADDRESS":"信義路１７１號之２","OBJECTID":555374},"geometry":{"x":179257.87999999989,"y":2548341.2599999998}},{"attributes":{"ID":555402,"DIS_CODE":0,"TOWNNAME":"安南區","LI":"溪北里","LIN":"21鄰","STREET":"郡安路","SECT":"四段","MAREA":" ","LANE":" ","ALLEY":" ","HOUSE_NO":"７６號之１７六樓","E_COORD97":169123.88,"N_COORD97":2547576.3599999999,"ADDRESS":"郡安路四段７６號之１７六樓","OBJECTID":555375},"geometry":{"x":169123.87999999989,"y":2547576.3599999994}},{"attributes":{"ID":555403,"DIS_CODE":0,"TOWNNAME":"安南區","LI":"溪北里","LIN":"21鄰","STREET":"郡安路","SECT":"四段","MAREA":" ","LANE":" ","ALLEY":" ","HOUSE_NO":"７６號之１７七樓","E_COORD97":169123.88,"N_COORD97":2547576.3599999999,"ADDRESS":"郡安路四段７６號之１７七樓","OBJECTID":555376},"geometry":{"x":169123.87999999989,"y":2547576.3599999994}},{"attributes":{"ID":555404,"DIS_CODE":0,"TOWNNAME":"安南區","LI":"溪北里","LIN":"21鄰","STREET":"郡安路","SECT":"四段","MAREA":" ","LANE":" ","ALLEY":" ","HOUSE_NO":"７６號之１８四樓","E_COORD97":169123.79000000001,"N_COORD97":2547568.4500000002,"ADDRESS":"郡安路四段７６號之１８四樓","OBJECTID":555377},"geometry":{"x":169123.79000000097,"y":2547568.4499999993}},{"attributes":{"ID":555405,"DIS_CODE":0,"TOWNNAME":"安南區","LI":"溪北里","LIN":"21鄰","STREET":"郡安路","SECT":"四段","MAREA":" ","LANE":" ","ALLEY":" ","HOUSE_NO":"７６號之１８五樓","E_COORD97":169123.79000000001,"N_COORD97":2547568.4500000002,"ADDRESS":"郡安路四段７６號之１８五樓","OBJECTID":555378},"geometry":{"x":169123.79000000097,"y":2547568.4499999993}},{"attributes":{"ID":555406,"DIS_CODE":0,"TOWNNAME":"永康區","LI":"勝利里","LIN":"21鄰","STREET":"勝利街","SECT":" ","MAREA":" ","LANE":" ","ALLEY":" ","HOUSE_NO":"１５３號五樓之２","E_COORD97":171361.19,"N_COORD97":2545015.29,"ADDRESS":"勝利街１５３號五樓之２","OBJECTID":555379},"geometry":{"x":171361.19000000134,"y":2545015.290000001}},{"attributes":{"ID":555407,"DIS_CODE":0,"TOWNNAME":"永康區","LI":"勝利里","LIN":"21鄰","STREET":"勝利街","SECT":" ","MAREA":" ","LANE":" ","ALLEY":" ","HOUSE_NO":"１５３號五樓之５","E_COORD97":171361.20999999999,"N_COORD97":2545015.29,"ADDRESS":"勝利街１５３號五樓之５","OBJECTID":555380},"geometry":{"x":171361.20999999996,"y":2545015.290000001}},{"attributes":{"ID":555408,"DIS_CODE":0,"TOWNNAME":"新化區","LI":"東榮里","LIN":"25鄰","STREET":"光明路","SECT":" ","MAREA":" ","LANE":" ","ALLEY":" ","HOUSE_NO":"９２號","E_COORD97":179159.87,"N_COORD97":2548060.25,"ADDRESS":"光明路９２號","OBJECTID":555381},"geometry":{"x":179159.87000000011,"y":2548060.2499999981}},{"attributes":{"ID":555409,"DIS_CODE":0,"TOWNNAME":"新化區","LI":"豐榮里","LIN":"13鄰","STREET":"民治路","SECT":" ","MAREA":" ","LANE":" ","ALLEY":" ","HOUSE_NO":"７０號","E_COORD97":178745.56,"N_COORD97":2548090.25,"ADDRESS":"民治路７０號","OBJECTID":555382},"geometry":{"x":178745.55999999959,"y":2548090.25}},{"attributes":{"ID":555410,"DIS_CODE":0,"TOWNNAME":"永康區","LI":"勝利里","LIN":"21鄰","STREET":"勝利街","SECT":" ","MAREA":" ","LANE":" ","ALLEY":" ","HOUSE_NO":"１５３號五樓之８","E_COORD97":171361.20000000001,"N_COORD97":2545015.29,"ADDRESS":"勝利街１５３號五樓之８","OBJECTID":555383},"geometry":{"x":171361.20000000019,"y":2545015.290000001}},{"attributes":{"ID":555411,"DIS_CODE":0,"TOWNNAME":"永康區","LI":"勝利里","LIN":"21鄰","STREET":"勝利街","SECT":" ","MAREA":" ","LANE":" ","ALLEY":" ","HOUSE_NO":"１５３號五樓之９","E_COORD97":171360.98999999999,"N_COORD97":2545016.46,"ADDRESS":"勝利街１５３號五樓之９","OBJECTID":555384},"geometry":{"x":171360.99000000022,"y":2545016.4600000028}},{"attributes":{"ID":555412,"DIS_CODE":0,"TOWNNAME":"新化區","LI":"豐榮里","LIN":"13鄰","STREET":"健康路","SECT":" ","MAREA":" ","LANE":" ","ALLEY":" ","HOUSE_NO":"１０７號","E_COORD97":178793.42999999999,"N_COORD97":2548192.2599999998,"ADDRESS":"健康路１０７號","OBJECTID":555385},"geometry":{"x":178793.43000000063,"y":2548192.2599999979}},{"attributes":{"ID":555413,"DIS_CODE":0,"TOWNNAME":"永康區","LI":"勝利里","LIN":"21鄰","STREET":"勝利街","SECT":" ","MAREA":" ","LANE":" ","ALLEY":" ","HOUSE_NO":"１５２號四樓之３","E_COORD97":171383.84,"N_COORD97":2545055.8599999999,"ADDRESS":"勝利街１５２號四樓之３","OBJECTID":555386},"geometry":{"x":171383.83999999985,"y":2545055.8600000013}},{"attributes":{"ID":555414,"DIS_CODE":0,"TOWNNAME":"新化區","LI":"豐榮里","LIN":"13鄰","STREET":"民治路","SECT":" ","MAREA":" ","LANE":" ","ALLEY":" ","HOUSE_NO":"３號","E_COORD97":178729.01000000001,"N_COORD97":2547973.25,"ADDRESS":"民治路３號","OBJECTID":555387},"geometry":{"x":178729.01000000071,"y":2547973.2500000019}},{"attributes":{"ID":555415,"DIS_CODE":0,"TOWNNAME":"新化區","LI":"東榮里","LIN":"30鄰","STREET":"信義路","SECT":" ","MAREA":" ","LANE":" ","ALLEY":" ","HOUSE_NO":"１７３號之３","E_COORD97":179252.78,"N_COORD97":2548326.2599999998,"ADDRESS":"信義路１７３號之３","OBJECTID":555388},"geometry":{"x":179252.78000000119,"y":2548326.2600000016}},{"attributes":{"ID":555416,"DIS_CODE":0,"TOWNNAME":"新化區","LI":"東榮里","LIN":"23鄰","STREET":"光明路","SECT":" ","MAREA":" ","LANE":" ","ALLEY":" ","HOUSE_NO":"２７號","E_COORD97":179337.07000000001,"N_COORD97":2548060.25,"ADDRESS":"光明路２７號","OBJECTID":555389},"geometry":{"x":179337.07000000216,"y":2548060.2499999981}},{"attributes":{"ID":555417,"DIS_CODE":0,"TOWNNAME":"新化區","LI":"武安里","LIN":"4鄰","STREET":"和平街","SECT":" ","MAREA":" ","LANE":" ","ALLEY":" ","HOUSE_NO":"６４號","E_COORD97":179059.57000000001,"N_COORD97":2548159.25,"ADDRESS":"和平街６４號","OBJECTID":555390},"geometry":{"x":179059.57000000123,"y":2548159.2500000019}},{"attributes":{"ID":555418,"DIS_CODE":0,"TOWNNAME":"新化區","LI":"護國里","LIN":"5鄰","STREET":"護安街","SECT":" ","MAREA":" ","LANE":" ","ALLEY":" ","HOUSE_NO":"５８號","E_COORD97":179207.28,"N_COORD97":2548394.2599999998,"ADDRESS":"護安街５８號","OBJECTID":555391},"geometry":{"x":179207.28000000119,"y":2548394.2599999998}},{"attributes":{"ID":555419,"DIS_CODE":0,"TOWNNAME":"新化區","LI":"護國里","LIN":"5鄰","STREET":"信義路","SECT":" ","MAREA":" ","LANE":" ","ALLEY":" ","HOUSE_NO":"１７８號","E_COORD97":179233.53,"N_COORD97":2548361.25,"ADDRESS":"信義路１７８號","OBJECTID":555392},"geometry":{"x":179233.53000000026,"y":2548361.25}},{"attributes":{"ID":555420,"DIS_CODE":0,"TOWNNAME":"新化區","LI":"清水里","LIN":"8鄰","STREET":"忠孝路","SECT":" ","MAREA":" ","LANE":" ","ALLEY":" ","HOUSE_NO":"１３１號","E_COORD97":178704.12,"N_COORD97":2548635.25,"ADDRESS":"忠孝路１３１號","OBJECTID":555393},"geometry":{"x":178704.12000000197,"y":2548635.25}},{"attributes":{"ID":555421,"DIS_CODE":0,"TOWNNAME":"新化區","LI":"清水里","LIN":"7鄰","STREET":"忠孝路","SECT":" ","MAREA":" ","LANE":" ","ALLEY":" ","HOUSE_NO":"１５９號","E_COORD97":178622.62,"N_COORD97":2548613.25,"ADDRESS":"忠孝路１５９號","OBJECTID":555394},"geometry":{"x":178622.62000000011,"y":2548613.2500000037}},{"attributes":{"ID":555422,"DIS_CODE":0,"TOWNNAME":"東區","LI":"仁和里","LIN":"21鄰","STREET":"仁東街","SECT":" ","MAREA":" ","LANE":" ","ALLEY":" ","HOUSE_NO":"６３號七樓之２","E_COORD97":171617.73999999999,"N_COORD97":2541208.4100000001,"ADDRESS":"仁東街６３號七樓之２","OBJECTID":555395},"geometry":{"x":171617.74000000115,"y":2541208.410000002}},{"attributes":{"ID":555423,"DIS_CODE":0,"TOWNNAME":"東區","LI":"仁和里","LIN":"21鄰","STREET":"仁東街","SECT":" ","MAREA":" ","LANE":" ","ALLEY":" ","HOUSE_NO":"６３號七樓之２１","E_COORD97":171617.73999999999,"N_COORD97":2541208.4100000001,"ADDRESS":"仁東街６３號七樓之２１","OBJECTID":555396},"geometry":{"x":171617.74000000115,"y":2541208.410000002}},{"attributes":{"ID":555424,"DIS_CODE":0,"TOWNNAME":"東區","LI":"仁和里","LIN":"21鄰","STREET":"仁東街","SECT":" ","MAREA":" ","LANE":" ","ALLEY":" ","HOUSE_NO":"６３號七樓之２２","E_COORD97":171617.73999999999,"N_COORD97":2541208.4100000001,"ADDRESS":"仁東街６３號七樓之２２","OBJECTID":555397},"geometry":{"x":171617.74000000115,"y":2541208.410000002}},{"attributes":{"ID":555425,"DIS_CODE":0,"TOWNNAME":"東區","LI":"仁和里","LIN":"21鄰","STREET":"仁東街","SECT":" ","MAREA":" ","LANE":" ","ALLEY":" ","HOUSE_NO":"６３號七樓之２３","E_COORD97":171617.73999999999,"N_COORD97":2541208.4100000001,"ADDRESS":"仁東街６３號七樓之２３","OBJECTID":555398},"geometry":{"x":171617.74000000115,"y":2541208.410000002}},{"attributes":{"ID":555426,"DIS_CODE":0,"TOWNNAME":"東區","LI":"仁和里","LIN":"21鄰","STREET":"仁東街","SECT":" ","MAREA":" ","LANE":" ","ALLEY":" ","HOUSE_NO":"６３號七樓之２４","E_COORD97":171617.73999999999,"N_COORD97":2541208.4100000001,"ADDRESS":"仁東街６３號七樓之２４","OBJECTID":555399},"geometry":{"x":171617.74000000115,"y":2541208.410000002}},{"attributes":{"ID":555427,"DIS_CODE":0,"TOWNNAME":"東區","LI":"仁和里","LIN":"21鄰","STREET":"仁東街","SECT":" ","MAREA":" ","LANE":" ","ALLEY":" ","HOUSE_NO":"６３號七樓之２５","E_COORD97":171617.73999999999,"N_COORD97":2541208.4100000001,"ADDRESS":"仁東街６３號七樓之２５","OBJECTID":555400},"geometry":{"x":171617.74000000115,"y":2541208.410000002}}]}