{"displayFieldName":"TOWNNAME","fieldAliases":{"ID":"ID","DIS_CODE":"DIS_CODE","TOWNNAME":"TOWNNAME","LI":"LI","LIN":"LIN","STREET":"STREET","SECT":"SECT","MAREA":"MAREA","LANE":"LANE","ALLEY":"ALLEY","HOUSE_NO":"HOUSE_NO","E_COORD97":"E_COORD97","N_COORD97":"N_COORD97","ADDRESS":"ADDRESS","OBJECTID":"OBJECTID"},"geometryType":"esriGeometryPoint","spatialReference":{"wkid":102443,"latestWkid":3826},"fields":[{"name":"ID","type":"esriFieldTypeDouble","alias":"ID"},{"name":"DIS_CODE","type":"esriFieldTypeInteger","alias":"DIS_CODE"},{"name":"TOWNNAME","type":"esriFieldTypeString","alias":"TOWNNAME","length":8},{"name":"LI","type":"esriFieldTypeString","alias":"LI","length":8},{"name":"LIN","type":"esriFieldTypeString","alias":"LIN","length":12},{"name":"STREET","type":"esriFieldTypeString","alias":"STREET","length":20},{"name":"SECT","type":"esriFieldTypeString","alias":"SECT","length":8},{"name":"MAREA","type":"esriFieldTypeString","alias":"MAREA","length":12},{"name":"LANE","type":"esriFieldTypeString","alias":"LANE","length":10},{"name":"ALLEY","type":"esriFieldTypeString","alias":"ALLEY","length":10},{"name":"HOUSE_NO","type":"esriFieldTypeString","alias":"HOUSE_NO","length":20},{"name":"E_COORD97","type":"esriFieldTypeDouble","alias":"E_COORD97"},{"name":"N_COORD97","type":"esriFieldTypeDouble","alias":"N_COORD97"},{"name":"ADDRESS","type":"esriFieldTypeString","alias":"ADDRESS","length":50},{"name":"OBJECTID","type":"esriFieldTypeOID","alias":"OBJECTID"}],"features":[{"attributes":{"ID":295209,"DIS_CODE":0,"TOWNNAME":"下營區","LI":"大埤里","LIN":"4鄰","STREET":" ","SECT":" ","MAREA":"大埤寮","LANE":" ","ALLEY":" ","HOUSE_NO":"３４號之４","E_COORD97":173195.17000000001,"N_COORD97":2569991.23,"ADDRESS":"大埤寮３４號之４","OBJECTID":295201},"geometry":{"x":173195.16999999993,"y":2569991.2300000023}},{"attributes":{"ID":295210,"DIS_CODE":0,"TOWNNAME":"下營區","LI":"大埤里","LIN":"4鄰","STREET":" ","SECT":" ","MAREA":"大埤寮","LANE":" ","ALLEY":" ","HOUSE_NO":"３４號之８","E_COORD97":173223.92000000001,"N_COORD97":2569982.0800000001,"ADDRESS":"大埤寮３４號之８","OBJECTID":295202},"geometry":{"x":173223.91999999993,"y":2569982.0800000019}},{"attributes":{"ID":295211,"DIS_CODE":0,"TOWNNAME":"佳里區","LI":"東寧里","LIN":"17鄰","STREET":"和平街","SECT":" ","MAREA":" ","LANE":"３９巷","ALLEY":" ","HOUSE_NO":"３號","E_COORD97":166002.26999999999,"N_COORD97":2562488,"ADDRESS":"和平街３９巷３號","OBJECTID":295203},"geometry":{"x":166002.27000000142,"y":2562487.9999999981}},{"attributes":{"ID":295212,"DIS_CODE":0,"TOWNNAME":"佳里區","LI":"東寧里","LIN":"17鄰","STREET":"和平街","SECT":" ","MAREA":" ","LANE":"３９巷","ALLEY":" ","HOUSE_NO":"５號","E_COORD97":166002.70999999999,"N_COORD97":2562484.04,"ADDRESS":"和平街３９巷５號","OBJECTID":295204},"geometry":{"x":166002.70999999996,"y":2562484.040000001}},{"attributes":{"ID":295213,"DIS_CODE":0,"TOWNNAME":"佳里區","LI":"東寧里","LIN":"17鄰","STREET":"和平街","SECT":" ","MAREA":" ","LANE":"３９巷","ALLEY":" ","HOUSE_NO":"７號","E_COORD97":166003.32999999999,"N_COORD97":2562480.0800000001,"ADDRESS":"和平街３９巷７號","OBJECTID":295205},"geometry":{"x":166003.33000000007,"y":2562480.0800000001}},{"attributes":{"ID":295214,"DIS_CODE":0,"TOWNNAME":"佳里區","LI":"東寧里","LIN":"17鄰","STREET":"和平街","SECT":" ","MAREA":" ","LANE":"３９巷","ALLEY":" ","HOUSE_NO":"８號","E_COORD97":165967.72,"N_COORD97":2562467.9300000002,"ADDRESS":"和平街３９巷８號","OBJECTID":295206},"geometry":{"x":165967.72000000067,"y":2562467.9299999978}},{"attributes":{"ID":295215,"DIS_CODE":0,"TOWNNAME":"佳里區","LI":"東寧里","LIN":"17鄰","STREET":"和平街","SECT":" ","MAREA":" ","LANE":"３９巷","ALLEY":" ","HOUSE_NO":"９號","E_COORD97":166003.35999999999,"N_COORD97":2562476.02,"ADDRESS":"和平街３９巷９號","OBJECTID":295207},"geometry":{"x":166003.36000000034,"y":2562476.0199999996}},{"attributes":{"ID":295216,"DIS_CODE":0,"TOWNNAME":"下營區","LI":"大埤里","LIN":"4鄰","STREET":" ","SECT":" ","MAREA":"大埤寮","LANE":" ","ALLEY":" ","HOUSE_NO":"３４號","E_COORD97":173142.70999999999,"N_COORD97":2569895.8900000001,"ADDRESS":"大埤寮３４號","OBJECTID":295208},"geometry":{"x":173142.70999999996,"y":2569895.8900000025}},{"attributes":{"ID":295217,"DIS_CODE":0,"TOWNNAME":"下營區","LI":"大埤里","LIN":"4鄰","STREET":" ","SECT":" ","MAREA":"大埤寮","LANE":" ","ALLEY":" ","HOUSE_NO":"３５號之１","E_COORD97":173185.85000000001,"N_COORD97":2569937.7599999998,"ADDRESS":"大埤寮３５號之１","OBJECTID":295209},"geometry":{"x":173185.85000000149,"y":2569937.7599999998}},{"attributes":{"ID":295218,"DIS_CODE":0,"TOWNNAME":"中西區","LI":"普濟里","LIN":"17鄰","STREET":"國華街","SECT":"三段","MAREA":" ","LANE":"２６９巷","ALLEY":" ","HOUSE_NO":"１０號","E_COORD97":167927.20000000001,"N_COORD97":2544488.23,"ADDRESS":"國華街三段２６９巷１０號","OBJECTID":295210},"geometry":{"x":167927.20000000019,"y":2544488.2300000023}},{"attributes":{"ID":295219,"DIS_CODE":0,"TOWNNAME":"中西區","LI":"普濟里","LIN":"17鄰","STREET":"國華街","SECT":"三段","MAREA":" ","LANE":"２６９巷","ALLEY":" ","HOUSE_NO":"１２號","E_COORD97":167921.04999999999,"N_COORD97":2544491.3999999999,"ADDRESS":"國華街三段２６９巷１２號","OBJECTID":295211},"geometry":{"x":167921.04999999981,"y":2544491.4000000022}},{"attributes":{"ID":295220,"DIS_CODE":0,"TOWNNAME":"中西區","LI":"普濟里","LIN":"17鄰","STREET":"國華街","SECT":"三段","MAREA":" ","LANE":"２６９巷","ALLEY":" ","HOUSE_NO":"１４號","E_COORD97":167920.20999999999,"N_COORD97":2544497.5499999998,"ADDRESS":"國華街三段２６９巷１４號","OBJECTID":295212},"geometry":{"x":167920.21000000183,"y":2544497.5500000026}},{"attributes":{"ID":295221,"DIS_CODE":0,"TOWNNAME":"中西區","LI":"普濟里","LIN":"17鄰","STREET":"國華街","SECT":"三段","MAREA":" ","LANE":"２６９巷","ALLEY":" ","HOUSE_NO":"１６號","E_COORD97":167926.35999999999,"N_COORD97":2544502,"ADDRESS":"國華街三段２６９巷１６號","OBJECTID":295213},"geometry":{"x":167926.3600000022,"y":2544502}},{"attributes":{"ID":295222,"DIS_CODE":0,"TOWNNAME":"中西區","LI":"普濟里","LIN":"17鄰","STREET":"國華街","SECT":"三段","MAREA":" ","LANE":"２６９巷","ALLEY":" ","HOUSE_NO":"１８號","E_COORD97":167939.07999999999,"N_COORD97":2544515.0299999998,"ADDRESS":"國華街三段２６９巷１８號","OBJECTID":295214},"geometry":{"x":167939.08000000007,"y":2544515.0300000031}},{"attributes":{"ID":295223,"DIS_CODE":0,"TOWNNAME":"中西區","LI":"普濟里","LIN":"17鄰","STREET":"國華街","SECT":"三段","MAREA":" ","LANE":"２６９巷","ALLEY":" ","HOUSE_NO":"２０之１號","E_COORD97":167927.20000000001,"N_COORD97":2544514.5,"ADDRESS":"國華街三段２６９巷２０之１號","OBJECTID":295215},"geometry":{"x":167927.20000000019,"y":2544514.5}},{"attributes":{"ID":295224,"DIS_CODE":0,"TOWNNAME":"下營區","LI":"新興里","LIN":"17鄰","STREET":"中山路","SECT":"一段","MAREA":" ","LANE":"３１２巷","ALLEY":" ","HOUSE_NO":"１號","E_COORD97":175097.82999999999,"N_COORD97":2570730.1600000001,"ADDRESS":"中山路一段３１２巷１號","OBJECTID":295216},"geometry":{"x":175097.83000000101,"y":2570730.160000002}},{"attributes":{"ID":295225,"DIS_CODE":0,"TOWNNAME":"下營區","LI":"新興里","LIN":"4鄰","STREET":"中山路","SECT":"一段","MAREA":" ","LANE":"４１３巷","ALLEY":" ","HOUSE_NO":"３１號","E_COORD97":175449.92000000001,"N_COORD97":2571181.2599999998,"ADDRESS":"中山路一段４１３巷３１號","OBJECTID":295217},"geometry":{"x":175449.91999999993,"y":2571181.2599999998}},{"attributes":{"ID":295226,"DIS_CODE":0,"TOWNNAME":"中西區","LI":"普濟里","LIN":"17鄰","STREET":"國華街","SECT":"三段","MAREA":" ","LANE":"２６９巷","ALLEY":" ","HOUSE_NO":"２０號","E_COORD97":167916.28,"N_COORD97":2544507.2999999998,"ADDRESS":"國華街三段２６９巷２０號","OBJECTID":295218},"geometry":{"x":167916.28000000026,"y":2544507.3000000007}},{"attributes":{"ID":295227,"DIS_CODE":0,"TOWNNAME":"中西區","LI":"普濟里","LIN":"17鄰","STREET":"國華街","SECT":"三段","MAREA":" ","LANE":"２６９巷","ALLEY":" ","HOUSE_NO":"２３號","E_COORD97":167911.25,"N_COORD97":2544490.2000000002,"ADDRESS":"國華街三段２６９巷２３號","OBJECTID":295219},"geometry":{"x":167911.25,"y":2544490.200000003}},{"attributes":{"ID":295228,"DIS_CODE":0,"TOWNNAME":"中西區","LI":"普濟里","LIN":"17鄰","STREET":"國華街","SECT":"三段","MAREA":" ","LANE":"２６９巷","ALLEY":" ","HOUSE_NO":"２５號","E_COORD97":167907.57999999999,"N_COORD97":2544501.2200000002,"ADDRESS":"國華街三段２６９巷２５號","OBJECTID":295220},"geometry":{"x":167907.57999999914,"y":2544501.2200000007}},{"attributes":{"ID":295229,"DIS_CODE":0,"TOWNNAME":"中西區","LI":"普濟里","LIN":"17鄰","STREET":"國華街","SECT":"三段","MAREA":" ","LANE":"２６９巷","ALLEY":" ","HOUSE_NO":"２９號","E_COORD97":167905.67000000001,"N_COORD97":2544506.3500000001,"ADDRESS":"國華街三段２６９巷２９號","OBJECTID":295221},"geometry":{"x":167905.67000000086,"y":2544506.3500000034}},{"attributes":{"ID":295230,"DIS_CODE":0,"TOWNNAME":"下營區","LI":"營前里","LIN":"17鄰","STREET":"文明街","SECT":" ","MAREA":" ","LANE":"４５巷","ALLEY":" ","HOUSE_NO":"１２號","E_COORD97":174728.491664,"N_COORD97":2570275.2834100001,"ADDRESS":"文明街４５巷１２號","OBJECTID":295222},"geometry":{"x":174728.49166399986,"y":2570275.2834070008}},{"attributes":{"ID":295231,"DIS_CODE":0,"TOWNNAME":"下營區","LI":"營前里","LIN":"17鄰","STREET":"文明街","SECT":" ","MAREA":" ","LANE":"４５巷","ALLEY":" ","HOUSE_NO":"６號","E_COORD97":174734.23999999999,"N_COORD97":2570301.8900000001,"ADDRESS":"文明街４５巷６號","OBJECTID":295223},"geometry":{"x":174734.24000000022,"y":2570301.8900000025}},{"attributes":{"ID":295232,"DIS_CODE":0,"TOWNNAME":"安南區","LI":"顯宮里","LIN":"1鄰","STREET":"顯宮二街","SECT":" ","MAREA":" ","LANE":" ","ALLEY":" ","HOUSE_NO":"３８號","E_COORD97":160528.51863999999,"N_COORD97":2548659.4823400001,"ADDRESS":"顯宮二街３８號","OBJECTID":295224},"geometry":{"x":160528.5186400013,"y":2548659.4823369998}},{"attributes":{"ID":295233,"DIS_CODE":0,"TOWNNAME":"下營區","LI":"後街里","LIN":"17鄰","STREET":"和平街","SECT":" ","MAREA":" ","LANE":"４７巷","ALLEY":" ","HOUSE_NO":"１０號","E_COORD97":174652.12,"N_COORD97":2570835.04,"ADDRESS":"和平街４７巷１０號","OBJECTID":295225},"geometry":{"x":174652.12000000011,"y":2570835.040000001}},{"attributes":{"ID":295234,"DIS_CODE":0,"TOWNNAME":"安平區","LI":"建平里","LIN":"14鄰","STREET":"建平十三街","SECT":" ","MAREA":" ","LANE":" ","ALLEY":" ","HOUSE_NO":"４１號","E_COORD97":166226.39999999999,"N_COORD97":2543993.6099999999,"ADDRESS":"建平十三街４１號","OBJECTID":295226},"geometry":{"x":166226.4000000013,"y":2543993.6100000013}},{"attributes":{"ID":295235,"DIS_CODE":0,"TOWNNAME":"安平區","LI":"建平里","LIN":"14鄰","STREET":"建平十三街","SECT":" ","MAREA":" ","LANE":" ","ALLEY":" ","HOUSE_NO":"４３號","E_COORD97":166222.22,"N_COORD97":2543994.3199999998,"ADDRESS":"建平十三街４３號","OBJECTID":295227},"geometry":{"x":166222.22000000067,"y":2543994.3200000003}},{"attributes":{"ID":295236,"DIS_CODE":0,"TOWNNAME":"下營區","LI":"仁里里","LIN":"1鄰","STREET":"中山路","SECT":"二段","MAREA":" ","LANE":"１２２巷","ALLEY":" ","HOUSE_NO":"９號","E_COORD97":174508.38,"N_COORD97":2569894.8399999999,"ADDRESS":"中山路二段１２２巷９號","OBJECTID":295228},"geometry":{"x":174508.38000000082,"y":2569894.8400000017}},{"attributes":{"ID":295237,"DIS_CODE":0,"TOWNNAME":"下營區","LI":"後街里","LIN":"17鄰","STREET":"和平街","SECT":" ","MAREA":" ","LANE":"４７巷","ALLEY":" ","HOUSE_NO":"２號","E_COORD97":174672.06,"N_COORD97":2570806.25,"ADDRESS":"和平街４７巷２號","OBJECTID":295229},"geometry":{"x":174672.05999999959,"y":2570806.25}},{"attributes":{"ID":295238,"DIS_CODE":0,"TOWNNAME":"中西區","LI":"大涼里","LIN":"17鄰","STREET":"府前一街","SECT":" ","MAREA":" ","LANE":"１０３巷","ALLEY":" ","HOUSE_NO":"１０號","E_COORD97":166719.13,"N_COORD97":2543949.23,"ADDRESS":"府前一街１０３巷１０號","OBJECTID":295230},"geometry":{"x":166719.13000000082,"y":2543949.2300000023}},{"attributes":{"ID":295239,"DIS_CODE":0,"TOWNNAME":"中西區","LI":"大涼里","LIN":"17鄰","STREET":"府前一街","SECT":" ","MAREA":" ","LANE":"１０３巷","ALLEY":" ","HOUSE_NO":"１２號","E_COORD97":166714.48999999999,"N_COORD97":2543948.29,"ADDRESS":"府前一街１０３巷１２號","OBJECTID":295231},"geometry":{"x":166714.49000000022,"y":2543948.290000001}},{"attributes":{"ID":295240,"DIS_CODE":0,"TOWNNAME":"中西區","LI":"大涼里","LIN":"17鄰","STREET":"府前一街","SECT":" ","MAREA":" ","LANE":"１０３巷","ALLEY":" ","HOUSE_NO":"１４號","E_COORD97":166710.45000000001,"N_COORD97":2543946.3999999999,"ADDRESS":"府前一街１０３巷１４號","OBJECTID":295232},"geometry":{"x":166710.45000000112,"y":2543946.4000000004}},{"attributes":{"ID":295241,"DIS_CODE":0,"TOWNNAME":"中西區","LI":"大涼里","LIN":"17鄰","STREET":"府前一街","SECT":" ","MAREA":" ","LANE":"１０３巷","ALLEY":" ","HOUSE_NO":"１６號","E_COORD97":166705.89000000001,"N_COORD97":2543945.7999999998,"ADDRESS":"府前一街１０３巷１６號","OBJECTID":295233},"geometry":{"x":166705.88999999966,"y":2543945.8000000026}},{"attributes":{"ID":295242,"DIS_CODE":0,"TOWNNAME":"中西區","LI":"大涼里","LIN":"17鄰","STREET":"府前一街","SECT":" ","MAREA":" ","LANE":"１０３巷","ALLEY":" ","HOUSE_NO":"２０號","E_COORD97":166704.01000000001,"N_COORD97":2543965.04,"ADDRESS":"府前一街１０３巷２０號","OBJECTID":295234},"geometry":{"x":166704.00999999978,"y":2543965.0399999991}},{"attributes":{"ID":295243,"DIS_CODE":0,"TOWNNAME":"中西區","LI":"大涼里","LIN":"17鄰","STREET":"府前一街","SECT":" ","MAREA":" ","LANE":"１０３巷","ALLEY":" ","HOUSE_NO":"２２號","E_COORD97":166678.64000000001,"N_COORD97":2543958.02,"ADDRESS":"府前一街１０３巷２２號","OBJECTID":295235},"geometry":{"x":166678.6400000006,"y":2543958.0199999996}},{"attributes":{"ID":295244,"DIS_CODE":0,"TOWNNAME":"安平區","LI":"建平里","LIN":"14鄰","STREET":"建平十三街","SECT":" ","MAREA":" ","LANE":" ","ALLEY":" ","HOUSE_NO":"４８號","E_COORD97":166197.20999999999,"N_COORD97":2544023.7400000002,"ADDRESS":"建平十三街４８號","OBJECTID":295236},"geometry":{"x":166197.20999999996,"y":2544023.7400000021}},{"attributes":{"ID":295245,"DIS_CODE":0,"TOWNNAME":"安平區","LI":"建平里","LIN":"14鄰","STREET":"建平十三街","SECT":" ","MAREA":" ","LANE":" ","ALLEY":" ","HOUSE_NO":"５０號","E_COORD97":166191.84,"N_COORD97":2544024.9399999999,"ADDRESS":"建平十三街５０號","OBJECTID":295237},"geometry":{"x":166191.84000000171,"y":2544024.9400000013}},{"attributes":{"ID":295246,"DIS_CODE":0,"TOWNNAME":"永康區","LI":"北灣里","LIN":"17鄰","STREET":"信義二街","SECT":" ","MAREA":" ","LANE":"１６０巷","ALLEY":" ","HOUSE_NO":"７號","E_COORD97":174833.07000000001,"N_COORD97":2545756.2799999998,"ADDRESS":"信義二街１６０巷７號","OBJECTID":295238},"geometry":{"x":174833.07000000123,"y":2545756.2799999993}},{"attributes":{"ID":295247,"DIS_CODE":0,"TOWNNAME":"永康區","LI":"埔園里","LIN":"17鄰","STREET":"龍埔街","SECT":" ","MAREA":" ","LANE":"５６２巷","ALLEY":" ","HOUSE_NO":"２４號","E_COORD97":173454.45999999999,"N_COORD97":2548460.2400000002,"ADDRESS":"龍埔街５６２巷２４號","OBJECTID":295239},"geometry":{"x":173454.45999999996,"y":2548460.2400000002}},{"attributes":{"ID":295248,"DIS_CODE":0,"TOWNNAME":"永康區","LI":"龍潭里","LIN":"17鄰","STREET":"龍潭街","SECT":" ","MAREA":" ","LANE":"１９３巷","ALLEY":" ","HOUSE_NO":"６號","E_COORD97":174907.20000000001,"N_COORD97":2548372.3300000001,"ADDRESS":"龍潭街１９３巷６號","OBJECTID":295240},"geometry":{"x":174907.20000000112,"y":2548372.3300000019}},{"attributes":{"ID":295249,"DIS_CODE":0,"TOWNNAME":"永康區","LI":"埔園里","LIN":"17鄰","STREET":"中山路","SECT":" ","MAREA":" ","LANE":"３８３巷","ALLEY":" ","HOUSE_NO":"３號","E_COORD97":173481.95000000001,"N_COORD97":2548509.25,"ADDRESS":"中山路３８３巷３號","OBJECTID":295241},"geometry":{"x":173481.95000000019,"y":2548509.2500000019}},{"attributes":{"ID":295250,"DIS_CODE":0,"TOWNNAME":"永康區","LI":"崑山里","LIN":"17鄰","STREET":"大灣路","SECT":" ","MAREA":" ","LANE":"９４２巷","ALLEY":" ","HOUSE_NO":"５１號","E_COORD97":173630.04000000001,"N_COORD97":2544535.9900000002,"ADDRESS":"大灣路９４２巷５１號","OBJECTID":295242},"geometry":{"x":173630.04000000097,"y":2544535.9900000002}},{"attributes":{"ID":295251,"DIS_CODE":0,"TOWNNAME":"東區","LI":"崇明里","LIN":"17鄰","STREET":"中華東路","SECT":"三段","MAREA":" ","LANE":"３５７巷","ALLEY":" ","HOUSE_NO":"１００號","E_COORD97":170506.94,"N_COORD97":2541394.3500000001,"ADDRESS":"中華東路三段３５７巷１００號","OBJECTID":295243},"geometry":{"x":170506.94000000041,"y":2541394.3500000015}},{"attributes":{"ID":295252,"DIS_CODE":0,"TOWNNAME":"東區","LI":"崇明里","LIN":"17鄰","STREET":"中華東路","SECT":"三段","MAREA":" ","LANE":"３５７巷","ALLEY":" ","HOUSE_NO":"１０２號","E_COORD97":170510.20000000001,"N_COORD97":2541390.3300000001,"ADDRESS":"中華東路三段３５７巷１０２號","OBJECTID":295244},"geometry":{"x":170510.20000000019,"y":2541390.3300000001}},{"attributes":{"ID":295253,"DIS_CODE":0,"TOWNNAME":"東區","LI":"崇明里","LIN":"17鄰","STREET":"中華東路","SECT":"三段","MAREA":" ","LANE":"３５７巷","ALLEY":" ","HOUSE_NO":"１０４號","E_COORD97":170512.88,"N_COORD97":2541386.3799999999,"ADDRESS":"中華東路三段３５７巷１０４號","OBJECTID":295245},"geometry":{"x":170512.88000000082,"y":2541386.3800000027}},{"attributes":{"ID":295254,"DIS_CODE":0,"TOWNNAME":"東區","LI":"崇明里","LIN":"17鄰","STREET":"中華東路","SECT":"三段","MAREA":" ","LANE":"３５７巷","ALLEY":" ","HOUSE_NO":"１０６號","E_COORD97":170516.70000000001,"N_COORD97":2541383.4199999999,"ADDRESS":"中華東路三段３５７巷１０６號","OBJECTID":295246},"geometry":{"x":170516.70000000112,"y":2541383.4199999981}},{"attributes":{"ID":295255,"DIS_CODE":0,"TOWNNAME":"東區","LI":"崇明里","LIN":"17鄰","STREET":"中華東路","SECT":"三段","MAREA":" ","LANE":"３５７巷","ALLEY":" ","HOUSE_NO":"１０８號","E_COORD97":170519.10000000001,"N_COORD97":2541380.5800000001,"ADDRESS":"中華東路三段３５７巷１０８號","OBJECTID":295247},"geometry":{"x":170519.09999999963,"y":2541380.5800000019}},{"attributes":{"ID":295256,"DIS_CODE":0,"TOWNNAME":"東區","LI":"崇明里","LIN":"17鄰","STREET":"中華東路","SECT":"三段","MAREA":" ","LANE":"３５７巷","ALLEY":" ","HOUSE_NO":"１１０號","E_COORD97":170523.04999999999,"N_COORD97":2541377.0600000001,"ADDRESS":"中華東路三段３５７巷１１０號","OBJECTID":295248},"geometry":{"x":170523.04999999981,"y":2541377.0600000024}},{"attributes":{"ID":295257,"DIS_CODE":0,"TOWNNAME":"東區","LI":"崇明里","LIN":"17鄰","STREET":"中華東路","SECT":"三段","MAREA":" ","LANE":"３５７巷","ALLEY":" ","HOUSE_NO":"１１２號","E_COORD97":170525.73999999999,"N_COORD97":2541373.8199999998,"ADDRESS":"中華東路三段３５７巷１１２號","OBJECTID":295249},"geometry":{"x":170525.73999999929,"y":2541373.8200000003}},{"attributes":{"ID":295258,"DIS_CODE":0,"TOWNNAME":"東區","LI":"崇明里","LIN":"17鄰","STREET":"中華東路","SECT":"三段","MAREA":" ","LANE":"３５７巷","ALLEY":" ","HOUSE_NO":"１１４號","E_COORD97":170528.98000000001,"N_COORD97":2541370.8500000001,"ADDRESS":"中華東路三段３５７巷１１４號","OBJECTID":295250},"geometry":{"x":170528.98000000045,"y":2541370.8500000015}},{"attributes":{"ID":295259,"DIS_CODE":0,"TOWNNAME":"東區","LI":"崇明里","LIN":"17鄰","STREET":"中華東路","SECT":"三段","MAREA":" ","LANE":"３５７巷","ALLEY":" ","HOUSE_NO":"１１６號","E_COORD97":170530.82000000001,"N_COORD97":2541366.7599999998,"ADDRESS":"中華東路三段３５７巷１１６號","OBJECTID":295251},"geometry":{"x":170530.82000000123,"y":2541366.7599999998}},{"attributes":{"ID":295260,"DIS_CODE":0,"TOWNNAME":"東區","LI":"崇明里","LIN":"17鄰","STREET":"中華東路","SECT":"三段","MAREA":" ","LANE":"３５７巷","ALLEY":" ","HOUSE_NO":"１１８號","E_COORD97":170532.94,"N_COORD97":2541363.0899999999,"ADDRESS":"中華東路三段３５７巷１１８號","OBJECTID":295252},"geometry":{"x":170532.94000000041,"y":2541363.0900000017}},{"attributes":{"ID":295261,"DIS_CODE":0,"TOWNNAME":"東區","LI":"崇明里","LIN":"17鄰","STREET":"中華東路","SECT":"三段","MAREA":" ","LANE":"３５７巷","ALLEY":" ","HOUSE_NO":"１２０號","E_COORD97":170536.47,"N_COORD97":2541360.6899999999,"ADDRESS":"中華東路三段３５７巷１２０號","OBJECTID":295253},"geometry":{"x":170536.47000000067,"y":2541360.6899999976}},{"attributes":{"ID":295262,"DIS_CODE":0,"TOWNNAME":"東區","LI":"崇明里","LIN":"17鄰","STREET":"中華東路","SECT":"三段","MAREA":" ","LANE":"３５７巷","ALLEY":" ","HOUSE_NO":"１２２號","E_COORD97":170539.14999999999,"N_COORD97":2541357.1600000001,"ADDRESS":"中華東路三段３５７巷１２２號","OBJECTID":295254},"geometry":{"x":170539.1500000013,"y":2541357.1600000001}},{"attributes":{"ID":295263,"DIS_CODE":0,"TOWNNAME":"東區","LI":"崇明里","LIN":"17鄰","STREET":"中華東路","SECT":"三段","MAREA":" ","LANE":"３５７巷","ALLEY":" ","HOUSE_NO":"１２４號","E_COORD97":170540.28,"N_COORD97":2541352.2200000002,"ADDRESS":"中華東路三段３５７巷１２４號","OBJECTID":295255},"geometry":{"x":170540.28000000026,"y":2541352.2200000025}},{"attributes":{"ID":295264,"DIS_CODE":0,"TOWNNAME":"東區","LI":"崇明里","LIN":"17鄰","STREET":"中華東路","SECT":"三段","MAREA":" ","LANE":"３５７巷","ALLEY":" ","HOUSE_NO":"１２５號","E_COORD97":170520.60999999999,"N_COORD97":2541418.02,"ADDRESS":"中華東路三段３５７巷１２５號","OBJECTID":295256},"geometry":{"x":170520.61000000127,"y":2541418.0200000014}},{"attributes":{"ID":295265,"DIS_CODE":0,"TOWNNAME":"東區","LI":"崇明里","LIN":"17鄰","STREET":"中華東路","SECT":"三段","MAREA":" ","LANE":"３５７巷","ALLEY":" ","HOUSE_NO":"１２７號","E_COORD97":170527.17999999999,"N_COORD97":2541412.5699999998,"ADDRESS":"中華東路三段３５７巷１２７號","OBJECTID":295257},"geometry":{"x":170527.1799999997,"y":2541412.5700000003}},{"attributes":{"ID":295266,"DIS_CODE":0,"TOWNNAME":"東區","LI":"崇明里","LIN":"17鄰","STREET":"中華東路","SECT":"三段","MAREA":" ","LANE":"３５７巷","ALLEY":" ","HOUSE_NO":"１２９號","E_COORD97":170530.70999999999,"N_COORD97":2541409.1800000002,"ADDRESS":"中華東路三段３５７巷１２９號","OBJECTID":295258},"geometry":{"x":170530.70999999996,"y":2541409.1800000016}},{"attributes":{"ID":295267,"DIS_CODE":0,"TOWNNAME":"下營區","LI":"下營里","LIN":"20鄰","STREET":"中山路","SECT":"二段","MAREA":" ","LANE":" ","ALLEY":" ","HOUSE_NO":"５號","E_COORD97":174391.82999999999,"N_COORD97":2570444.9500000002,"ADDRESS":"中山路二段５號","OBJECTID":295259},"geometry":{"x":174391.83000000194,"y":2570444.950000003}},{"attributes":{"ID":295268,"DIS_CODE":0,"TOWNNAME":"東區","LI":"崇明里","LIN":"17鄰","STREET":"中華東路","SECT":"三段","MAREA":" ","LANE":"３５７巷","ALLEY":" ","HOUSE_NO":"１３１號","E_COORD97":170534.53,"N_COORD97":2541405.9399999999,"ADDRESS":"中華東路三段３５７巷１３１號","OBJECTID":295260},"geometry":{"x":170534.53000000119,"y":2541405.9399999995}},{"attributes":{"ID":295269,"DIS_CODE":0,"TOWNNAME":"東區","LI":"崇明里","LIN":"17鄰","STREET":"中華東路","SECT":"三段","MAREA":" ","LANE":"３５７巷","ALLEY":" ","HOUSE_NO":"１３５號","E_COORD97":170538.62,"N_COORD97":2541402.9700000002,"ADDRESS":"中華東路三段３５７巷１３５號","OBJECTID":295261},"geometry":{"x":170538.62000000104,"y":2541402.9700000007}},{"attributes":{"ID":295270,"DIS_CODE":0,"TOWNNAME":"東區","LI":"崇明里","LIN":"17鄰","STREET":"中華東路","SECT":"三段","MAREA":" ","LANE":"３５７巷","ALLEY":" ","HOUSE_NO":"１３７號","E_COORD97":170541.59,"N_COORD97":2541399.1600000001,"ADDRESS":"中華東路三段３５７巷１３７號","OBJECTID":295262},"geometry":{"x":170541.58999999892,"y":2541399.1600000039}},{"attributes":{"ID":295271,"DIS_CODE":0,"TOWNNAME":"下營區","LI":"開化里","LIN":"18鄰","STREET":" ","SECT":" ","MAREA":"中營","LANE":" ","ALLEY":" ","HOUSE_NO":"１９３號","E_COORD97":175738.26000000001,"N_COORD97":2567923.6099999999,"ADDRESS":"中營１９３號","OBJECTID":295263},"geometry":{"x":175738.26000000071,"y":2567923.6099999994}},{"attributes":{"ID":295272,"DIS_CODE":0,"TOWNNAME":"下營區","LI":"營前里","LIN":"20鄰","STREET":"中正南路","SECT":" ","MAREA":" ","LANE":"１８０巷","ALLEY":" ","HOUSE_NO":"１１號","E_COORD97":174646.72,"N_COORD97":2570054.9100000001,"ADDRESS":"中正南路１８０巷１１號","OBJECTID":295264},"geometry":{"x":174646.72000000067,"y":2570054.9100000001}},{"attributes":{"ID":295273,"DIS_CODE":0,"TOWNNAME":"下營區","LI":"下營里","LIN":"13鄰","STREET":"中正北路","SECT":" ","MAREA":" ","LANE":"４０巷","ALLEY":" ","HOUSE_NO":"２號","E_COORD97":174553,"N_COORD97":2570613.6299999999,"ADDRESS":"中正北路４０巷２號","OBJECTID":295265},"geometry":{"x":174553,"y":2570613.6300000008}},{"attributes":{"ID":295274,"DIS_CODE":0,"TOWNNAME":"下營區","LI":"營前里","LIN":"26鄰","STREET":"中正南路","SECT":" ","MAREA":" ","LANE":"２０５巷","ALLEY":" ","HOUSE_NO":"１１號之１","E_COORD97":174839.07000000001,"N_COORD97":2570045.2799999998,"ADDRESS":"中正南路２０５巷１１號之１","OBJECTID":295266},"geometry":{"x":174839.0700000003,"y":2570045.2799999993}},{"attributes":{"ID":295275,"DIS_CODE":0,"TOWNNAME":"下營區","LI":"營前里","LIN":"26鄰","STREET":"中正南路","SECT":" ","MAREA":" ","LANE":"２０５巷","ALLEY":" ","HOUSE_NO":"１１號之２","E_COORD97":174843.29999999999,"N_COORD97":2570046.7000000002,"ADDRESS":"中正南路２０５巷１１號之２","OBJECTID":295267},"geometry":{"x":174843.30000000075,"y":2570046.700000003}},{"attributes":{"ID":295276,"DIS_CODE":0,"TOWNNAME":"下營區","LI":"營前里","LIN":"26鄰","STREET":"中正南路","SECT":" ","MAREA":" ","LANE":"２０５巷","ALLEY":" ","HOUSE_NO":"１１號之３","E_COORD97":174846.85000000001,"N_COORD97":2570047.7999999998,"ADDRESS":"中正南路２０５巷１１號之３","OBJECTID":295268},"geometry":{"x":174846.84999999963,"y":2570047.8000000045}},{"attributes":{"ID":295277,"DIS_CODE":0,"TOWNNAME":"東區","LI":"崇明里","LIN":"17鄰","STREET":"中華東路","SECT":"三段","MAREA":" ","LANE":"３５７巷","ALLEY":" ","HOUSE_NO":"８４號","E_COORD97":170479.54000000001,"N_COORD97":2541420.8799999999,"ADDRESS":"中華東路三段３５７巷８４號","OBJECTID":295269},"geometry":{"x":170479.5400000019,"y":2541420.8800000008}},{"attributes":{"ID":295278,"DIS_CODE":0,"TOWNNAME":"東區","LI":"崇明里","LIN":"17鄰","STREET":"中華東路","SECT":"三段","MAREA":" ","LANE":"３５７巷","ALLEY":" ","HOUSE_NO":"８６號","E_COORD97":170482.79000000001,"N_COORD97":2541417.0699999998,"ADDRESS":"中華東路三段３５７巷８６號","OBJECTID":295270},"geometry":{"x":170482.79000000004,"y":2541417.070000004}},{"attributes":{"ID":295279,"DIS_CODE":0,"TOWNNAME":"東區","LI":"崇明里","LIN":"17鄰","STREET":"中華東路","SECT":"三段","MAREA":" ","LANE":"３５７巷","ALLEY":" ","HOUSE_NO":"８８號","E_COORD97":170485.76000000001,"N_COORD97":2541413.54,"ADDRESS":"中華東路三段３５７巷８８號","OBJECTID":295271},"geometry":{"x":170485.75999999978,"y":2541413.540000001}},{"attributes":{"ID":295280,"DIS_CODE":0,"TOWNNAME":"東區","LI":"崇信里","LIN":"17鄰","STREET":"崇善路","SECT":" ","MAREA":" ","LANE":"２０５巷","ALLEY":" ","HOUSE_NO":"２號之１","E_COORD97":170530.63,"N_COORD97":2542254.23,"ADDRESS":"崇善路２０５巷２號之１","OBJECTID":295272},"geometry":{"x":170530.62999999989,"y":2542254.2300000023}},{"attributes":{"ID":295281,"DIS_CODE":0,"TOWNNAME":"佳里區","LI":"安西里","LIN":"17鄰","STREET":"長安街","SECT":" ","MAREA":" ","LANE":"１４７巷","ALLEY":" ","HOUSE_NO":"１８號","E_COORD97":165366.54999999999,"N_COORD97":2562652.75,"ADDRESS":"長安街１４７巷１８號","OBJECTID":295273},"geometry":{"x":165366.55000000168,"y":2562652.7500000037}},{"attributes":{"ID":295282,"DIS_CODE":0,"TOWNNAME":"佳里區","LI":"安西里","LIN":"17鄰","STREET":"長安街","SECT":" ","MAREA":" ","LANE":"１４７巷","ALLEY":" ","HOUSE_NO":"１９號","E_COORD97":165361.78,"N_COORD97":2562637.8799999999,"ADDRESS":"長安街１４７巷１９號","OBJECTID":295274},"geometry":{"x":165361.78000000026,"y":2562637.8800000008}},{"attributes":{"ID":295283,"DIS_CODE":0,"TOWNNAME":"佳里區","LI":"安西里","LIN":"17鄰","STREET":"長安街","SECT":" ","MAREA":" ","LANE":"１４７巷","ALLEY":" ","HOUSE_NO":"１號","E_COORD97":165407.73000000001,"N_COORD97":2562640.77,"ADDRESS":"長安街１４７巷１號","OBJECTID":295275},"geometry":{"x":165407.73000000045,"y":2562640.7699999996}},{"attributes":{"ID":295284,"DIS_CODE":0,"TOWNNAME":"佳里區","LI":"安西里","LIN":"17鄰","STREET":"長安街","SECT":" ","MAREA":" ","LANE":"１４７巷","ALLEY":" ","HOUSE_NO":"２０號","E_COORD97":165361.64999999999,"N_COORD97":2562652.75,"ADDRESS":"長安街１４７巷２０號","OBJECTID":295276},"geometry":{"x":165361.6500000013,"y":2562652.7500000037}},{"attributes":{"ID":295285,"DIS_CODE":0,"TOWNNAME":"佳里區","LI":"安西里","LIN":"17鄰","STREET":"長安街","SECT":" ","MAREA":" ","LANE":"１４７巷","ALLEY":" ","HOUSE_NO":"２１號","E_COORD97":165356.76999999999,"N_COORD97":2562637.5099999998,"ADDRESS":"長安街１４７巷２１號","OBJECTID":295277},"geometry":{"x":165356.77000000048,"y":2562637.5100000016}},{"attributes":{"ID":295286,"DIS_CODE":0,"TOWNNAME":"安平區","LI":"建平里","LIN":"14鄰","STREET":"建平十三街","SECT":" ","MAREA":" ","LANE":" ","ALLEY":" ","HOUSE_NO":"５１號","E_COORD97":166199.28,"N_COORD97":2543998.1400000001,"ADDRESS":"建平十三街５１號","OBJECTID":295278},"geometry":{"x":166199.28000000026,"y":2543998.1400000025}},{"attributes":{"ID":295287,"DIS_CODE":0,"TOWNNAME":"安平區","LI":"建平里","LIN":"14鄰","STREET":"建平十三街","SECT":" ","MAREA":" ","LANE":" ","ALLEY":" ","HOUSE_NO":"５２號","E_COORD97":166186.34,"N_COORD97":2544025.4100000001,"ADDRESS":"建平十三街５２號","OBJECTID":295279},"geometry":{"x":166186.33999999985,"y":2544025.410000002}},{"attributes":{"ID":295288,"DIS_CODE":0,"TOWNNAME":"安平區","LI":"建平里","LIN":"14鄰","STREET":"建平十三街","SECT":" ","MAREA":" ","LANE":" ","ALLEY":" ","HOUSE_NO":"５３號","E_COORD97":166178.60999999999,"N_COORD97":2544000.8900000001,"ADDRESS":"建平十三街５３號","OBJECTID":295280},"geometry":{"x":166178.6099999994,"y":2544000.8900000006}},{"attributes":{"ID":295289,"DIS_CODE":0,"TOWNNAME":"安平區","LI":"建平里","LIN":"14鄰","STREET":"建平十三街","SECT":" ","MAREA":" ","LANE":" ","ALLEY":" ","HOUSE_NO":"５４號","E_COORD97":166181.32000000001,"N_COORD97":2544026.25,"ADDRESS":"建平十三街５４號","OBJECTID":295281},"geometry":{"x":166181.32000000123,"y":2544026.2500000019}},{"attributes":{"ID":295290,"DIS_CODE":0,"TOWNNAME":"安平區","LI":"建平里","LIN":"14鄰","STREET":"建平十三街","SECT":" ","MAREA":" ","LANE":" ","ALLEY":" ","HOUSE_NO":"５５號","E_COORD97":166174.07000000001,"N_COORD97":2544001.0099999998,"ADDRESS":"建平十三街５５號","OBJECTID":295282},"geometry":{"x":166174.07000000123,"y":2544001.0100000016}},{"attributes":{"ID":295291,"DIS_CODE":0,"TOWNNAME":"安平區","LI":"建平里","LIN":"14鄰","STREET":"建平十三街","SECT":" ","MAREA":" ","LANE":" ","ALLEY":" ","HOUSE_NO":"５６號","E_COORD97":166175.94,"N_COORD97":2544027.0899999999,"ADDRESS":"建平十三街５６號","OBJECTID":295283},"geometry":{"x":166175.94000000041,"y":2544027.0900000036}},{"attributes":{"ID":295292,"DIS_CODE":0,"TOWNNAME":"佳里區","LI":"安西里","LIN":"17鄰","STREET":"長安街","SECT":" ","MAREA":" ","LANE":"１４７巷","ALLEY":" ","HOUSE_NO":"２２號","E_COORD97":165356.66,"N_COORD97":2562652.0899999999,"ADDRESS":"長安街１４７巷２２號","OBJECTID":295284},"geometry":{"x":165356.66000000108,"y":2562652.0899999999}},{"attributes":{"ID":295293,"DIS_CODE":0,"TOWNNAME":"佳里區","LI":"安西里","LIN":"17鄰","STREET":"長安街","SECT":" ","MAREA":" ","LANE":"１４７巷","ALLEY":" ","HOUSE_NO":"２３號","E_COORD97":165351.35999999999,"N_COORD97":2562637.2799999998,"ADDRESS":"長安街１４７巷２３號","OBJECTID":295285},"geometry":{"x":165351.3599999994,"y":2562637.2799999993}},{"attributes":{"ID":295294,"DIS_CODE":0,"TOWNNAME":"佳里區","LI":"安西里","LIN":"17鄰","STREET":"長安街","SECT":" ","MAREA":" ","LANE":"１４７巷","ALLEY":" ","HOUSE_NO":"２４號","E_COORD97":165351.70000000001,"N_COORD97":2562651.6499999999,"ADDRESS":"長安街１４７巷２４號","OBJECTID":295286},"geometry":{"x":165351.70000000019,"y":2562651.6500000022}},{"attributes":{"ID":295295,"DIS_CODE":0,"TOWNNAME":"佳里區","LI":"安西里","LIN":"17鄰","STREET":"長安街","SECT":" ","MAREA":" ","LANE":"１４７巷","ALLEY":" ","HOUSE_NO":"２號","E_COORD97":165404.85999999999,"N_COORD97":2562655.54,"ADDRESS":"長安街１４７巷２號","OBJECTID":295287},"geometry":{"x":165404.86000000034,"y":2562655.5399999991}},{"attributes":{"ID":295296,"DIS_CODE":0,"TOWNNAME":"佳里區","LI":"安西里","LIN":"17鄰","STREET":"長安街","SECT":" ","MAREA":" ","LANE":"１４７巷","ALLEY":" ","HOUSE_NO":"３號","E_COORD97":165402.19,"N_COORD97":2562640.6899999999,"ADDRESS":"長安街１４７巷３號","OBJECTID":295288},"geometry":{"x":165402.19000000134,"y":2562640.6899999995}},{"attributes":{"ID":295297,"DIS_CODE":0,"TOWNNAME":"佳里區","LI":"安西里","LIN":"17鄰","STREET":"長安街","SECT":" ","MAREA":" ","LANE":"１４７巷","ALLEY":" ","HOUSE_NO":"５號","E_COORD97":165397.85999999999,"N_COORD97":2562640.3399999999,"ADDRESS":"長安街１４７巷５號","OBJECTID":295289},"geometry":{"x":165397.86000000127,"y":2562640.3399999999}},{"attributes":{"ID":295298,"DIS_CODE":0,"TOWNNAME":"佳里區","LI":"安西里","LIN":"17鄰","STREET":"長安街","SECT":" ","MAREA":" ","LANE":"１４７巷","ALLEY":" ","HOUSE_NO":"６號","E_COORD97":165394.60000000001,"N_COORD97":2562654.8300000001,"ADDRESS":"長安街１４７巷６號","OBJECTID":295290},"geometry":{"x":165394.59999999963,"y":2562654.8300000001}},{"attributes":{"ID":295299,"DIS_CODE":0,"TOWNNAME":"佳里區","LI":"安西里","LIN":"17鄰","STREET":"長安街","SECT":" ","MAREA":" ","LANE":"１４７巷","ALLEY":" ","HOUSE_NO":"７號","E_COORD97":165392.76999999999,"N_COORD97":2562639.7999999998,"ADDRESS":"長安街１４７巷７號","OBJECTID":295291},"geometry":{"x":165392.76999999955,"y":2562639.8000000045}},{"attributes":{"ID":295300,"DIS_CODE":0,"TOWNNAME":"佳里區","LI":"安西里","LIN":"17鄰","STREET":"長安街","SECT":" ","MAREA":" ","LANE":"１４７巷","ALLEY":" ","HOUSE_NO":"９號","E_COORD97":165387.37,"N_COORD97":2562639.3500000001,"ADDRESS":"長安街１４７巷９號","OBJECTID":295292},"geometry":{"x":165387.37000000104,"y":2562639.3500000015}},{"attributes":{"ID":295301,"DIS_CODE":0,"TOWNNAME":"佳里區","LI":"建南里","LIN":"17鄰","STREET":"建南街","SECT":" ","MAREA":" ","LANE":"１０７巷","ALLEY":" ","HOUSE_NO":"１０號","E_COORD97":165638.64000000001,"N_COORD97":2562025.2599999998,"ADDRESS":"建南街１０７巷１０號","OBJECTID":295293},"geometry":{"x":165638.64000000153,"y":2562025.2600000035}},{"attributes":{"ID":295302,"DIS_CODE":0,"TOWNNAME":"柳營區","LI":"東昇里","LIN":"13鄰","STREET":"康樂街","SECT":" ","MAREA":" ","LANE":"６７巷","ALLEY":" ","HOUSE_NO":"１０號","E_COORD97":180361.98000000001,"N_COORD97":2575099.02,"ADDRESS":"康樂街６７巷１０號","OBJECTID":295294},"geometry":{"x":180361.98000000138,"y":2575099.0199999996}},{"attributes":{"ID":295303,"DIS_CODE":0,"TOWNNAME":"柳營區","LI":"東昇里","LIN":"13鄰","STREET":"康樂街","SECT":" ","MAREA":" ","LANE":"６７巷","ALLEY":" ","HOUSE_NO":"２號","E_COORD97":180361.63,"N_COORD97":2575111.6899999999,"ADDRESS":"康樂街６７巷２號","OBJECTID":295295},"geometry":{"x":180361.62999999896,"y":2575111.6899999995}},{"attributes":{"ID":295304,"DIS_CODE":0,"TOWNNAME":"柳營區","LI":"東昇里","LIN":"13鄰","STREET":"康樂街","SECT":" ","MAREA":" ","LANE":"６７巷","ALLEY":" ","HOUSE_NO":"６號","E_COORD97":180361.89000000001,"N_COORD97":2575107.4100000001,"ADDRESS":"康樂街６７巷６號","OBJECTID":295296},"geometry":{"x":180361.8900000006,"y":2575107.4100000001}},{"attributes":{"ID":295305,"DIS_CODE":0,"TOWNNAME":"柳營區","LI":"東昇里","LIN":"13鄰","STREET":"康樂街","SECT":" ","MAREA":" ","LANE":"６７巷","ALLEY":" ","HOUSE_NO":"８號","E_COORD97":180361.79999999999,"N_COORD97":2575103.4300000002,"ADDRESS":"康樂街６７巷８號","OBJECTID":295297},"geometry":{"x":180361.79999999981,"y":2575103.4299999997}},{"attributes":{"ID":295306,"DIS_CODE":0,"TOWNNAME":"佳里區","LI":"建南里","LIN":"17鄰","STREET":"建南街","SECT":" ","MAREA":" ","LANE":"７９巷","ALLEY":" ","HOUSE_NO":"１０號","E_COORD97":165601.98999999999,"N_COORD97":2561964.6499999999,"ADDRESS":"建南街７９巷１０號","OBJECTID":295298},"geometry":{"x":165601.99000000115,"y":2561964.6500000004}},{"attributes":{"ID":295307,"DIS_CODE":0,"TOWNNAME":"佳里區","LI":"建南里","LIN":"17鄰","STREET":"建南街","SECT":" ","MAREA":" ","LANE":"７９巷","ALLEY":" ","HOUSE_NO":"１１號","E_COORD97":165591.69,"N_COORD97":2561951.1899999999,"ADDRESS":"建南街７９巷１１號","OBJECTID":295299},"geometry":{"x":165591.69000000227,"y":2561951.1900000013}},{"attributes":{"ID":295308,"DIS_CODE":0,"TOWNNAME":"佳里區","LI":"建南里","LIN":"17鄰","STREET":"建南街","SECT":" ","MAREA":" ","LANE":"７９巷","ALLEY":" ","HOUSE_NO":"１２號","E_COORD97":165596.44,"N_COORD97":2561964.7799999998,"ADDRESS":"建南街７９巷１２號","OBJECTID":295300},"geometry":{"x":165596.44000000041,"y":2561964.7800000012}},{"attributes":{"ID":295309,"DIS_CODE":0,"TOWNNAME":"下營區","LI":"中營里","LIN":"4鄰","STREET":" ","SECT":" ","MAREA":"中營","LANE":" ","ALLEY":" ","HOUSE_NO":"１０００號","E_COORD97":175920.69,"N_COORD97":2568602.7799999998,"ADDRESS":"中營１０００號","OBJECTID":295301},"geometry":{"x":175920.69000000134,"y":2568602.7800000012}},{"attributes":{"ID":295310,"DIS_CODE":0,"TOWNNAME":"下營區","LI":"中營里","LIN":"4鄰","STREET":" ","SECT":" ","MAREA":"中營","LANE":" ","ALLEY":" ","HOUSE_NO":"１００１號","E_COORD97":175921.19,"N_COORD97":2568525.71,"ADDRESS":"中營１００１號","OBJECTID":295302},"geometry":{"x":175921.19000000134,"y":2568525.7100000009}},{"attributes":{"ID":295311,"DIS_CODE":0,"TOWNNAME":"下營區","LI":"中營里","LIN":"4鄰","STREET":" ","SECT":" ","MAREA":"中營","LANE":" ","ALLEY":" ","HOUSE_NO":"１００２號","E_COORD97":175925.85000000001,"N_COORD97":2568547.2000000002,"ADDRESS":"中營１００２號","OBJECTID":295303},"geometry":{"x":175925.85000000056,"y":2568547.1999999993}},{"attributes":{"ID":295312,"DIS_CODE":0,"TOWNNAME":"下營區","LI":"中營里","LIN":"4鄰","STREET":" ","SECT":" ","MAREA":"中營","LANE":" ","ALLEY":" ","HOUSE_NO":"１００３號","E_COORD97":175922.26999999999,"N_COORD97":2568563.8199999998,"ADDRESS":"中營１００３號","OBJECTID":295304},"geometry":{"x":175922.26999999955,"y":2568563.8200000003}},{"attributes":{"ID":295313,"DIS_CODE":0,"TOWNNAME":"下營區","LI":"中營里","LIN":"4鄰","STREET":" ","SECT":" ","MAREA":"中營","LANE":" ","ALLEY":" ","HOUSE_NO":"１００４號","E_COORD97":175922.12,"N_COORD97":2568567.9500000002,"ADDRESS":"中營１００４號","OBJECTID":295305},"geometry":{"x":175922.12000000011,"y":2568567.9500000011}},{"attributes":{"ID":295314,"DIS_CODE":0,"TOWNNAME":"下營區","LI":"中營里","LIN":"4鄰","STREET":" ","SECT":" ","MAREA":"中營","LANE":" ","ALLEY":" ","HOUSE_NO":"１００６號","E_COORD97":175929.63,"N_COORD97":2568603.9900000002,"ADDRESS":"中營１００６號","OBJECTID":295306},"geometry":{"x":175929.63000000082,"y":2568603.9900000002}},{"attributes":{"ID":295315,"DIS_CODE":0,"TOWNNAME":"佳里區","LI":"建南里","LIN":"17鄰","STREET":"建南街","SECT":" ","MAREA":" ","LANE":"７９巷","ALLEY":" ","HOUSE_NO":"１６號","E_COORD97":165591.07000000001,"N_COORD97":2561964.3799999999,"ADDRESS":"建南街７９巷１６號","OBJECTID":295307},"geometry":{"x":165591.07000000123,"y":2561964.379999999}},{"attributes":{"ID":295316,"DIS_CODE":0,"TOWNNAME":"仁德區","LI":"土庫里","LIN":"13鄰","STREET":"土庫路","SECT":" ","MAREA":" ","LANE":" ","ALLEY":" ","HOUSE_NO":"２５７號","E_COORD97":174097.29000000001,"N_COORD97":2542683.75,"ADDRESS":"土庫路２５７號","OBJECTID":295308},"geometry":{"x":174097.29000000097,"y":2542683.7500000019}},{"attributes":{"ID":295317,"DIS_CODE":0,"TOWNNAME":"仁德區","LI":"土庫里","LIN":"4鄰","STREET":"土庫三街","SECT":" ","MAREA":" ","LANE":" ","ALLEY":" ","HOUSE_NO":"３４號","E_COORD97":174160.88,"N_COORD97":2543066.7400000002,"ADDRESS":"土庫三街３４號","OBJECTID":295309},"geometry":{"x":174160.88000000082,"y":2543066.7400000039}},{"attributes":{"ID":295318,"DIS_CODE":0,"TOWNNAME":"下營區","LI":"中營里","LIN":"4鄰","STREET":" ","SECT":" ","MAREA":"中營","LANE":" ","ALLEY":" ","HOUSE_NO":"９９９號","E_COORD97":175944.17000000001,"N_COORD97":2568528.9399999999,"ADDRESS":"中營９９９號","OBJECTID":295310},"geometry":{"x":175944.17000000086,"y":2568528.9399999995}},{"attributes":{"ID":295319,"DIS_CODE":0,"TOWNNAME":"下營區","LI":"開化里","LIN":"1鄰","STREET":" ","SECT":" ","MAREA":"中營","LANE":" ","ALLEY":" ","HOUSE_NO":"９號之１","E_COORD97":175465.63,"N_COORD97":2568410.1600000001,"ADDRESS":"中營９號之１","OBJECTID":295311},"geometry":{"x":175465.62999999989,"y":2568410.1599999983}},{"attributes":{"ID":295320,"DIS_CODE":0,"TOWNNAME":"下營區","LI":"開化里","LIN":"1鄰","STREET":" ","SECT":" ","MAREA":"中營","LANE":" ","ALLEY":" ","HOUSE_NO":"９號之２","E_COORD97":175470.51999999999,"N_COORD97":2568411.0099999998,"ADDRESS":"中營９號之２","OBJECTID":295312},"geometry":{"x":175470.52000000048,"y":2568411.0100000035}},{"attributes":{"ID":295321,"DIS_CODE":0,"TOWNNAME":"下營區","LI":"甲中里","LIN":"4鄰","STREET":" ","SECT":" ","MAREA":"中庄子","LANE":" ","ALLEY":" ","HOUSE_NO":"２３號","E_COORD97":175360.5,"N_COORD97":2572351.4199999999,"ADDRESS":"中庄子２３號","OBJECTID":295313},"geometry":{"x":175360.50000000093,"y":2572351.4200000037}},{"attributes":{"ID":295322,"DIS_CODE":0,"TOWNNAME":"下營區","LI":"甲中里","LIN":"4鄰","STREET":" ","SECT":" ","MAREA":"中庄子","LANE":" ","ALLEY":" ","HOUSE_NO":"２６號","E_COORD97":175340.85999999999,"N_COORD97":2572312.2599999998,"ADDRESS":"中庄子２６號","OBJECTID":295314},"geometry":{"x":175340.86000000034,"y":2572312.2600000016}},{"attributes":{"ID":295323,"DIS_CODE":0,"TOWNNAME":"下營區","LI":"甲中里","LIN":"4鄰","STREET":" ","SECT":" ","MAREA":"中庄子","LANE":" ","ALLEY":" ","HOUSE_NO":"２７號","E_COORD97":175370.51999999999,"N_COORD97":2572304.54,"ADDRESS":"中庄子２７號","OBJECTID":295315},"geometry":{"x":175370.52000000048,"y":2572304.5399999991}},{"attributes":{"ID":295324,"DIS_CODE":0,"TOWNNAME":"下營區","LI":"甲中里","LIN":"4鄰","STREET":" ","SECT":" ","MAREA":"中庄子","LANE":" ","ALLEY":" ","HOUSE_NO":"２９號","E_COORD97":175386.64999999999,"N_COORD97":2572304.04,"ADDRESS":"中庄子２９號","OBJECTID":295316},"geometry":{"x":175386.64999999944,"y":2572304.0399999991}},{"attributes":{"ID":295325,"DIS_CODE":0,"TOWNNAME":"佳里區","LI":"建南里","LIN":"17鄰","STREET":"建南街","SECT":" ","MAREA":" ","LANE":"７９巷","ALLEY":" ","HOUSE_NO":"１號","E_COORD97":165619.37,"N_COORD97":2561951.6800000002,"ADDRESS":"建南街７９巷１號","OBJECTID":295317},"geometry":{"x":165619.37000000104,"y":2561951.6800000016}},{"attributes":{"ID":295326,"DIS_CODE":0,"TOWNNAME":"佳里區","LI":"建南里","LIN":"17鄰","STREET":"建南街","SECT":" ","MAREA":" ","LANE":"７９巷","ALLEY":" ","HOUSE_NO":"２號","E_COORD97":165618.09,"N_COORD97":2561964.9700000002,"ADDRESS":"建南街７９巷２號","OBJECTID":295318},"geometry":{"x":165618.08999999985,"y":2561964.9700000025}},{"attributes":{"ID":295327,"DIS_CODE":0,"TOWNNAME":"佳里區","LI":"建南里","LIN":"17鄰","STREET":"建南街","SECT":" ","MAREA":" ","LANE":"７９巷","ALLEY":" ","HOUSE_NO":"３號","E_COORD97":165613.97,"N_COORD97":2561951.4100000001,"ADDRESS":"建南街７９巷３號","OBJECTID":295319},"geometry":{"x":165613.96999999974,"y":2561951.410000002}},{"attributes":{"ID":295328,"DIS_CODE":0,"TOWNNAME":"下營區","LI":"甲中里","LIN":"4鄰","STREET":" ","SECT":" ","MAREA":"中庄子","LANE":" ","ALLEY":" ","HOUSE_NO":"３０號之１","E_COORD97":175415.87,"N_COORD97":2572317.1899999999,"ADDRESS":"中庄子３０號之１","OBJECTID":295320},"geometry":{"x":175415.87000000104,"y":2572317.1899999995}},{"attributes":{"ID":295329,"DIS_CODE":0,"TOWNNAME":"佳里區","LI":"建南里","LIN":"17鄰","STREET":"建南街","SECT":" ","MAREA":" ","LANE":"７９巷","ALLEY":" ","HOUSE_NO":"５號","E_COORD97":165608.35000000001,"N_COORD97":2561951.3799999999,"ADDRESS":"建南街７９巷５號","OBJECTID":295321},"geometry":{"x":165608.3499999987,"y":2561951.379999999}},{"attributes":{"ID":295330,"DIS_CODE":0,"TOWNNAME":"下營區","LI":"仁里里","LIN":"23鄰","STREET":"仁中街","SECT":" ","MAREA":" ","LANE":"４８巷","ALLEY":" ","HOUSE_NO":"１１號","E_COORD97":174488.32999999999,"N_COORD97":2569861.2599999998,"ADDRESS":"仁中街４８巷１１號","OBJECTID":295322},"geometry":{"x":174488.32999999914,"y":2569861.2600000016}},{"attributes":{"ID":295331,"DIS_CODE":0,"TOWNNAME":"下營區","LI":"仁里里","LIN":"23鄰","STREET":"仁中街","SECT":" ","MAREA":" ","LANE":"４８巷","ALLEY":" ","HOUSE_NO":"１２號","E_COORD97":174509.69,"N_COORD97":2569848.3300000001,"ADDRESS":"仁中街４８巷１２號","OBJECTID":295323},"geometry":{"x":174509.69000000041,"y":2569848.3300000001}},{"attributes":{"ID":295332,"DIS_CODE":0,"TOWNNAME":"安南區","LI":"顯宮里","LIN":"1鄰","STREET":"顯宮二街","SECT":" ","MAREA":" ","LANE":" ","ALLEY":" ","HOUSE_NO":"５６號","E_COORD97":160514.96553399999,"N_COORD97":2548685.9406599998,"ADDRESS":"顯宮二街５６號","OBJECTID":295324},"geometry":{"x":160514.96553400066,"y":2548685.9406559989}},{"attributes":{"ID":295333,"DIS_CODE":0,"TOWNNAME":"佳里區","LI":"建南里","LIN":"17鄰","STREET":"建南街","SECT":" ","MAREA":" ","LANE":"７９巷","ALLEY":" ","HOUSE_NO":"６號","E_COORD97":165612.79000000001,"N_COORD97":2561964.6800000002,"ADDRESS":"建南街７９巷６號","OBJECTID":295325},"geometry":{"x":165612.79000000097,"y":2561964.6800000034}},{"attributes":{"ID":295334,"DIS_CODE":0,"TOWNNAME":"佳里區","LI":"建南里","LIN":"17鄰","STREET":"建南街","SECT":" ","MAREA":" ","LANE":"７９巷","ALLEY":" ","HOUSE_NO":"７號","E_COORD97":165602.95000000001,"N_COORD97":2561951.3700000001,"ADDRESS":"建南街７９巷７號","OBJECTID":295326},"geometry":{"x":165602.95000000019,"y":2561951.3700000048}},{"attributes":{"ID":295335,"DIS_CODE":0,"TOWNNAME":"佳里區","LI":"建南里","LIN":"17鄰","STREET":"建南街","SECT":" ","MAREA":" ","LANE":"７９巷","ALLEY":" ","HOUSE_NO":"８號","E_COORD97":165607.22,"N_COORD97":2561964.4500000002,"ADDRESS":"建南街７９巷８號","OBJECTID":295327},"geometry":{"x":165607.21999999974,"y":2561964.4499999993}},{"attributes":{"ID":295336,"DIS_CODE":0,"TOWNNAME":"官田區","LI":"渡頭里","LIN":"26鄰","STREET":" ","SECT":" ","MAREA":"三塊厝","LANE":" ","ALLEY":" ","HOUSE_NO":"１０號之５","E_COORD97":182558.35999999999,"N_COORD97":2562382.8199999998,"ADDRESS":"三塊厝１０號之５","OBJECTID":295328},"geometry":{"x":182558.36000000127,"y":2562382.8200000022}},{"attributes":{"ID":295337,"DIS_CODE":0,"TOWNNAME":"佳里區","LI":"建南里","LIN":"17鄰","STREET":"建南街","SECT":" ","MAREA":" ","LANE":"７９巷","ALLEY":" ","HOUSE_NO":"９號","E_COORD97":165597.20999999999,"N_COORD97":2561951.27,"ADDRESS":"建南街７９巷９號","OBJECTID":295329},"geometry":{"x":165597.20999999996,"y":2561951.2700000014}},{"attributes":{"ID":295338,"DIS_CODE":0,"TOWNNAME":"安南區","LI":"溪墘里","LIN":"17鄰","STREET":"海佃路","SECT":"一段","MAREA":" ","LANE":"３５２巷","ALLEY":" ","HOUSE_NO":"３之１號","E_COORD97":167122.26999999999,"N_COORD97":2547566.4399999999,"ADDRESS":"海佃路一段３５２巷３之１號","OBJECTID":295330},"geometry":{"x":167122.26999999955,"y":2547566.4399999995}},{"attributes":{"ID":295339,"DIS_CODE":0,"TOWNNAME":"安南區","LI":"溪墘里","LIN":"17鄰","STREET":"海佃路","SECT":"一段","MAREA":" ","LANE":"３５２巷","ALLEY":" ","HOUSE_NO":"５號","E_COORD97":167126.38,"N_COORD97":2547567.0699999998,"ADDRESS":"海佃路一段３５２巷５號","OBJECTID":295331},"geometry":{"x":167126.38000000082,"y":2547567.070000004}},{"attributes":{"ID":295340,"DIS_CODE":0,"TOWNNAME":"安南區","LI":"溪墘里","LIN":"17鄰","STREET":"海佃路","SECT":"一段","MAREA":" ","LANE":"３５２巷","ALLEY":" ","HOUSE_NO":"８號","E_COORD97":167140.22,"N_COORD97":2547570.6200000001,"ADDRESS":"海佃路一段３５２巷８號","OBJECTID":295332},"geometry":{"x":167140.2200000016,"y":2547570.6199999992}},{"attributes":{"ID":295341,"DIS_CODE":0,"TOWNNAME":"安南區","LI":"溪墘里","LIN":"17鄰","STREET":"海佃路","SECT":"一段","MAREA":" ","LANE":"３５２巷","ALLEY":" ","HOUSE_NO":"９號","E_COORD97":167144.26999999999,"N_COORD97":2547571.2599999998,"ADDRESS":"海佃路一段３５２巷９號","OBJECTID":295333},"geometry":{"x":167144.26999999955,"y":2547571.2599999998}},{"attributes":{"ID":295342,"DIS_CODE":0,"TOWNNAME":"安南區","LI":"海佃里","LIN":"17鄰","STREET":"海佃路","SECT":"一段","MAREA":" ","LANE":"１５７巷","ALLEY":" ","HOUSE_NO":"１９號","E_COORD97":167044.10000000001,"N_COORD97":2547103.0099999998,"ADDRESS":"海佃路一段１５７巷１９號","OBJECTID":295334},"geometry":{"x":167044.09999999963,"y":2547103.0100000016}},{"attributes":{"ID":295343,"DIS_CODE":0,"TOWNNAME":"官田區","LI":"南\u25A0里","LIN":"13鄰","STREET":" ","SECT":" ","MAREA":"三結義","LANE":" ","ALLEY":" ","HOUSE_NO":"４１號之３","E_COORD97":179439.95999999999,"N_COORD97":2567681.7000000002,"ADDRESS":"三結義４１號之３","OBJECTID":295335},"geometry":{"x":179439.95999999996,"y":2567681.7000000011}},{"attributes":{"ID":295344,"DIS_CODE":0,"TOWNNAME":"官田區","LI":"南\u25A0里","LIN":"13鄰","STREET":" ","SECT":" ","MAREA":"三結義","LANE":" ","ALLEY":" ","HOUSE_NO":"４２號之１","E_COORD97":179912.76000000001,"N_COORD97":2567861.71,"ADDRESS":"三結義４２號之１","OBJECTID":295336},"geometry":{"x":179912.75999999978,"y":2567861.7100000046}},{"attributes":{"ID":295345,"DIS_CODE":0,"TOWNNAME":"安南區","LI":"海佃里","LIN":"17鄰","STREET":"海佃路","SECT":"一段","MAREA":" ","LANE":"１５７巷","ALLEY":" ","HOUSE_NO":"２０號","E_COORD97":167040.10999999999,"N_COORD97":2547102.3399999999,"ADDRESS":"海佃路一段１５７巷２０號","OBJECTID":295337},"geometry":{"x":167040.11000000127,"y":2547102.3399999999}},{"attributes":{"ID":295346,"DIS_CODE":0,"TOWNNAME":"安南區","LI":"海佃里","LIN":"17鄰","STREET":"海佃路","SECT":"一段","MAREA":" ","LANE":"１５７巷","ALLEY":" ","HOUSE_NO":"２１號","E_COORD97":167036.12,"N_COORD97":2547101.6800000002,"ADDRESS":"海佃路一段１５７巷２１號","OBJECTID":295338},"geometry":{"x":167036.12000000197,"y":2547101.6800000016}},{"attributes":{"ID":295347,"DIS_CODE":0,"TOWNNAME":"安南區","LI":"海佃里","LIN":"17鄰","STREET":"海佃路","SECT":"一段","MAREA":" ","LANE":"１５７巷","ALLEY":" ","HOUSE_NO":"２２號","E_COORD97":167032.13,"N_COORD97":2547102.3399999999,"ADDRESS":"海佃路一段１５７巷２２號","OBJECTID":295339},"geometry":{"x":167032.12999999989,"y":2547102.3399999999}},{"attributes":{"ID":295348,"DIS_CODE":0,"TOWNNAME":"安南區","LI":"海佃里","LIN":"17鄰","STREET":"海佃路","SECT":"一段","MAREA":" ","LANE":"１５７巷","ALLEY":" ","HOUSE_NO":"２３號","E_COORD97":167028.14000000001,"N_COORD97":2547102.3399999999,"ADDRESS":"海佃路一段１５７巷２３號","OBJECTID":295340},"geometry":{"x":167028.13999999966,"y":2547102.3399999999}},{"attributes":{"ID":295349,"DIS_CODE":0,"TOWNNAME":"安南區","LI":"海佃里","LIN":"17鄰","STREET":"海佃路","SECT":"一段","MAREA":" ","LANE":"１５７巷","ALLEY":" ","HOUSE_NO":"２５號","E_COORD97":167020.16,"N_COORD97":2547100.3500000001,"ADDRESS":"海佃路一段１５７巷２５號","OBJECTID":295341},"geometry":{"x":167020.16000000015,"y":2547100.3500000015}},{"attributes":{"ID":295350,"DIS_CODE":0,"TOWNNAME":"安南區","LI":"海佃里","LIN":"17鄰","STREET":"海佃路","SECT":"一段","MAREA":" ","LANE":"１５７巷","ALLEY":" ","HOUSE_NO":"２６號","E_COORD97":167015.5,"N_COORD97":2547099.02,"ADDRESS":"海佃路一段１５７巷２６號","OBJECTID":295342},"geometry":{"x":167015.50000000093,"y":2547099.0200000014}},{"attributes":{"ID":295351,"DIS_CODE":0,"TOWNNAME":"安平區","LI":"建平里","LIN":"14鄰","STREET":"建平十三街","SECT":" ","MAREA":" ","LANE":" ","ALLEY":" ","HOUSE_NO":"５７號","E_COORD97":166170.12,"N_COORD97":2544001.0099999998,"ADDRESS":"建平十三街５７號","OBJECTID":295343},"geometry":{"x":166170.12000000104,"y":2544001.0100000016}},{"attributes":{"ID":295352,"DIS_CODE":0,"TOWNNAME":"安平區","LI":"建平里","LIN":"14鄰","STREET":"建平十三街","SECT":" ","MAREA":" ","LANE":" ","ALLEY":" ","HOUSE_NO":"５８號","E_COORD97":166170.69,"N_COORD97":2544026.8500000001,"ADDRESS":"建平十三街５８號","OBJECTID":295344},"geometry":{"x":166170.69000000041,"y":2544026.8499999996}},{"attributes":{"ID":295353,"DIS_CODE":0,"TOWNNAME":"永康區","LI":"東灣里","LIN":"26鄰","STREET":"大灣一街","SECT":" ","MAREA":" ","LANE":"２２０巷","ALLEY":" ","HOUSE_NO":"９號","E_COORD97":174908.89999999999,"N_COORD97":2544568,"ADDRESS":"大灣一街２２０巷９號","OBJECTID":295345},"geometry":{"x":174908.9000000013,"y":2544568.0000000019}},{"attributes":{"ID":295354,"DIS_CODE":0,"TOWNNAME":"永康區","LI":"南灣里","LIN":"26鄰","STREET":"立興街","SECT":" ","MAREA":" ","LANE":"７４巷","ALLEY":" ","HOUSE_NO":"２３號","E_COORD97":174484.32999999999,"N_COORD97":2544827.29,"ADDRESS":"立興街７４巷２３號","OBJECTID":295346},"geometry":{"x":174484.33000000007,"y":2544827.2899999991}},{"attributes":{"ID":295355,"DIS_CODE":0,"TOWNNAME":"永康區","LI":"尚頂里","LIN":"32鄰","STREET":"中正南路","SECT":" ","MAREA":" ","LANE":"２３５巷","ALLEY":" ","HOUSE_NO":"４號","E_COORD97":170050.26999999999,"N_COORD97":2547395.4900000002,"ADDRESS":"中正南路２３５巷４號","OBJECTID":295347},"geometry":{"x":170050.27000000142,"y":2547395.4900000021}},{"attributes":{"ID":295356,"DIS_CODE":0,"TOWNNAME":"永康區","LI":"尚頂里","LIN":"13鄰","STREET":"正南一街","SECT":" ","MAREA":" ","LANE":"１０５巷","ALLEY":" ","HOUSE_NO":"３２號","E_COORD97":171049.42000000001,"N_COORD97":2547145.75,"ADDRESS":"正南一街１０５巷３２號","OBJECTID":295348},"geometry":{"x":171049.41999999993,"y":2547145.7500000019}},{"attributes":{"ID":295357,"DIS_CODE":0,"TOWNNAME":"永康區","LI":"西灣里","LIN":"38鄰","STREET":"國光八街","SECT":" ","MAREA":" ","LANE":"１２９巷","ALLEY":" ","HOUSE_NO":"１３號","E_COORD97":174164.70000000001,"N_COORD97":2545639.9900000002,"ADDRESS":"國光八街１２９巷１３號","OBJECTID":295349},"geometry":{"x":174164.70000000112,"y":2545639.9900000021}},{"attributes":{"ID":295358,"DIS_CODE":0,"TOWNNAME":"永康區","LI":"西灣里","LIN":"25鄰","STREET":"國光七街","SECT":" ","MAREA":" ","LANE":"２０巷","ALLEY":" ","HOUSE_NO":"３５號","E_COORD97":174317.13,"N_COORD97":2545589.6499999999,"ADDRESS":"國光七街２０巷３５號","OBJECTID":295350},"geometry":{"x":174317.13000000082,"y":2545589.6500000004}},{"attributes":{"ID":295359,"DIS_CODE":0,"TOWNNAME":"永康區","LI":"東橋里","LIN":"20鄰","STREET":"中山南路","SECT":" ","MAREA":" ","LANE":"３６５巷","ALLEY":" ","HOUSE_NO":"３號之６","E_COORD97":172779.5,"N_COORD97":2547073.5499999998,"ADDRESS":"中山南路３６５巷３號之６","OBJECTID":295351},"geometry":{"x":172779.5,"y":2547073.5500000026}},{"attributes":{"ID":295360,"DIS_CODE":0,"TOWNNAME":"永康區","LI":"西灣里","LIN":"25鄰","STREET":"國光七街","SECT":" ","MAREA":" ","LANE":"２０巷","ALLEY":" ","HOUSE_NO":"３６號","E_COORD97":174337.16,"N_COORD97":2545617.7599999998,"ADDRESS":"國光七街２０巷３６號","OBJECTID":295352},"geometry":{"x":174337.16000000201,"y":2545617.7599999998}},{"attributes":{"ID":295361,"DIS_CODE":0,"TOWNNAME":"永康區","LI":"東灣里","LIN":"26鄰","STREET":"民族路","SECT":" ","MAREA":" ","LANE":"３巷","ALLEY":" ","HOUSE_NO":"２７號","E_COORD97":175404.17000000001,"N_COORD97":2544460.1699999999,"ADDRESS":"民族路３巷２７號","OBJECTID":295353},"geometry":{"x":175404.16999999993,"y":2544460.1699999981}},{"attributes":{"ID":295362,"DIS_CODE":0,"TOWNNAME":"北區","LI":"振興里","LIN":"17鄰","STREET":"長榮路","SECT":"四段","MAREA":" ","LANE":"７６巷","ALLEY":" ","HOUSE_NO":"１２號","E_COORD97":170361.26999999999,"N_COORD97":2545018.1699999999,"ADDRESS":"長榮路四段７６巷１２號","OBJECTID":295354},"geometry":{"x":170361.27000000048,"y":2545018.1699999999}},{"attributes":{"ID":295363,"DIS_CODE":0,"TOWNNAME":"北區","LI":"振興里","LIN":"17鄰","STREET":"長榮路","SECT":"四段","MAREA":" ","LANE":"７６巷","ALLEY":" ","HOUSE_NO":"１４號","E_COORD97":170365.20000000001,"N_COORD97":2545020.1299999999,"ADDRESS":"長榮路四段７６巷１４號","OBJECTID":295355},"geometry":{"x":170365.20000000112,"y":2545020.1300000008}},{"attributes":{"ID":295364,"DIS_CODE":0,"TOWNNAME":"北區","LI":"振興里","LIN":"17鄰","STREET":"長榮路","SECT":"四段","MAREA":" ","LANE":"７６巷","ALLEY":" ","HOUSE_NO":"１６號","E_COORD97":170369.23000000001,"N_COORD97":2545021.77,"ADDRESS":"長榮路四段７６巷１６號","OBJECTID":295356},"geometry":{"x":170369.23000000138,"y":2545021.7699999996}},{"attributes":{"ID":295365,"DIS_CODE":0,"TOWNNAME":"北區","LI":"振興里","LIN":"17鄰","STREET":"長榮路","SECT":"四段","MAREA":" ","LANE":"７６巷","ALLEY":" ","HOUSE_NO":"１８號","E_COORD97":170376.87,"N_COORD97":2545026.7799999998,"ADDRESS":"長榮路四段７６巷１８號","OBJECTID":295357},"geometry":{"x":170376.87000000011,"y":2545026.7800000012}},{"attributes":{"ID":295366,"DIS_CODE":0,"TOWNNAME":"安南區","LI":"顯宮里","LIN":"1鄰","STREET":"顯宮二街","SECT":" ","MAREA":" ","LANE":" ","ALLEY":" ","HOUSE_NO":"６２號","E_COORD97":160511.25960600001,"N_COORD97":2548692.0789899998,"ADDRESS":"顯宮二街６２號","OBJECTID":295358},"geometry":{"x":160511.25960600004,"y":2548692.0789860003}},{"attributes":{"ID":295367,"DIS_CODE":0,"TOWNNAME":"北區","LI":"振興里","LIN":"17鄰","STREET":"長榮路","SECT":"四段","MAREA":" ","LANE":"７６巷","ALLEY":" ","HOUSE_NO":"２０號","E_COORD97":170381.45000000001,"N_COORD97":2545028.4199999999,"ADDRESS":"長榮路四段７６巷２０號","OBJECTID":295359},"geometry":{"x":170381.45000000019,"y":2545028.4200000037}},{"attributes":{"ID":295368,"DIS_CODE":0,"TOWNNAME":"安平區","LI":"建平里","LIN":"14鄰","STREET":"建平十三街","SECT":" ","MAREA":" ","LANE":" ","ALLEY":" ","HOUSE_NO":"８１號","E_COORD97":166122.41,"N_COORD97":2544007.96,"ADDRESS":"建平十三街８１號","OBJECTID":295360},"geometry":{"x":166122.41000000108,"y":2544007.9600000009}},{"attributes":{"ID":295369,"DIS_CODE":0,"TOWNNAME":"安平區","LI":"建平里","LIN":"14鄰","STREET":"建平十三街","SECT":" ","MAREA":" ","LANE":" ","ALLEY":" ","HOUSE_NO":"８３號","E_COORD97":166118.63,"N_COORD97":2544008.7000000002,"ADDRESS":"建平十三街８３號","OBJECTID":295361},"geometry":{"x":166118.62999999896,"y":2544008.700000003}},{"attributes":{"ID":295370,"DIS_CODE":0,"TOWNNAME":"安平區","LI":"建平里","LIN":"14鄰","STREET":"建平十三街","SECT":" ","MAREA":" ","LANE":" ","ALLEY":" ","HOUSE_NO":"８５號","E_COORD97":166114.42000000001,"N_COORD97":2544009.54,"ADDRESS":"建平十三街８５號","OBJECTID":295362},"geometry":{"x":166114.41999999993,"y":2544009.5400000028}},{"attributes":{"ID":295371,"DIS_CODE":0,"TOWNNAME":"安平區","LI":"建平里","LIN":"14鄰","STREET":"建平十三街","SECT":" ","MAREA":" ","LANE":" ","ALLEY":" ","HOUSE_NO":"８７號","E_COORD97":166110.64000000001,"N_COORD97":2544009.54,"ADDRESS":"建平十三街８７號","OBJECTID":295363},"geometry":{"x":166110.6400000006,"y":2544009.5400000028}},{"attributes":{"ID":295372,"DIS_CODE":0,"TOWNNAME":"安平區","LI":"建平里","LIN":"14鄰","STREET":"建平十三街","SECT":" ","MAREA":" ","LANE":" ","ALLEY":" ","HOUSE_NO":"８８號","E_COORD97":166066.20000000001,"N_COORD97":2544038.9399999999,"ADDRESS":"建平十三街８８號","OBJECTID":295364},"geometry":{"x":166066.20000000112,"y":2544038.9400000013}},{"attributes":{"ID":295373,"DIS_CODE":0,"TOWNNAME":"安平區","LI":"建平里","LIN":"14鄰","STREET":"建平十三街","SECT":" ","MAREA":" ","LANE":" ","ALLEY":" ","HOUSE_NO":"９８號","E_COORD97":166035.39000000001,"N_COORD97":2544043.3599999999,"ADDRESS":"建平十三街９８號","OBJECTID":295365},"geometry":{"x":166035.39000000153,"y":2544043.3599999994}},{"attributes":{"ID":295374,"DIS_CODE":0,"TOWNNAME":"南區","LI":"大忠里","LIN":"14鄰","STREET":"公英五街","SECT":" ","MAREA":" ","LANE":" ","ALLEY":" ","HOUSE_NO":"１０號","E_COORD97":169379.79999999999,"N_COORD97":2541130.02,"ADDRESS":"公英五街１０號","OBJECTID":295366},"geometry":{"x":169379.80000000075,"y":2541130.0199999996}},{"attributes":{"ID":295375,"DIS_CODE":0,"TOWNNAME":"南區","LI":"大忠里","LIN":"14鄰","STREET":"公英五街","SECT":" ","MAREA":" ","LANE":" ","ALLEY":" ","HOUSE_NO":"１１號","E_COORD97":169403.57000000001,"N_COORD97":2541117.73,"ADDRESS":"公英五街１１號","OBJECTID":295367},"geometry":{"x":169403.57000000123,"y":2541117.7300000042}},{"attributes":{"ID":295376,"DIS_CODE":0,"TOWNNAME":"南區","LI":"大忠里","LIN":"14鄰","STREET":"公英五街","SECT":" ","MAREA":" ","LANE":" ","ALLEY":" ","HOUSE_NO":"１２號","E_COORD97":169376.04000000001,"N_COORD97":2541129.71,"ADDRESS":"公英五街１２號","OBJECTID":295368},"geometry":{"x":169376.0400000019,"y":2541129.7100000028}},{"attributes":{"ID":295377,"DIS_CODE":0,"TOWNNAME":"南區","LI":"大忠里","LIN":"14鄰","STREET":"公英五街","SECT":" ","MAREA":" ","LANE":" ","ALLEY":" ","HOUSE_NO":"１３號","E_COORD97":169398.17999999999,"N_COORD97":2541116.8300000001,"ADDRESS":"公英五街１３號","OBJECTID":295369},"geometry":{"x":169398.1799999997,"y":2541116.8300000019}},{"attributes":{"ID":295378,"DIS_CODE":0,"TOWNNAME":"永康區","LI":"東灣里","LIN":"18鄰","STREET":"大灣三街","SECT":" ","MAREA":" ","LANE":"２１巷","ALLEY":" ","HOUSE_NO":"１３號","E_COORD97":175010.32999999999,"N_COORD97":2544851.0800000001,"ADDRESS":"大灣三街２１巷１３號","OBJECTID":295370},"geometry":{"x":175010.33000000007,"y":2544851.0800000038}},{"attributes":{"ID":295379,"DIS_CODE":0,"TOWNNAME":"永康區","LI":"尚頂里","LIN":"26鄰","STREET":"南台街","SECT":" ","MAREA":" ","LANE":"５４巷","ALLEY":" ","HOUSE_NO":"８號之７","E_COORD97":170396.03,"N_COORD97":2547008.48,"ADDRESS":"南台街５４巷８號之７","OBJECTID":295371},"geometry":{"x":170396.03000000026,"y":2547008.4800000042}},{"attributes":{"ID":295380,"DIS_CODE":0,"TOWNNAME":"永康區","LI":"東橋里","LIN":"25鄰","STREET":"中正路","SECT":" ","MAREA":" ","LANE":"３５４巷","ALLEY":" ","HOUSE_NO":"４４號","E_COORD97":172890.67999999999,"N_COORD97":2548172.5,"ADDRESS":"中正路３５４巷４４號","OBJECTID":295372},"geometry":{"x":172890.68000000063,"y":2548172.5}},{"attributes":{"ID":295381,"DIS_CODE":0,"TOWNNAME":"永康區","LI":"西灣里","LIN":"38鄰","STREET":"國光八街","SECT":" ","MAREA":" ","LANE":"１２９巷","ALLEY":" ","HOUSE_NO":"１７號","E_COORD97":174164.64999999999,"N_COORD97":2545630.9900000002,"ADDRESS":"國光八街１２９巷１７號","OBJECTID":295373},"geometry":{"x":174164.6500000013,"y":2545630.9900000002}},{"attributes":{"ID":295382,"DIS_CODE":0,"TOWNNAME":"永康區","LI":"西灣里","LIN":"39鄰","STREET":"永華路","SECT":" ","MAREA":" ","LANE":"２１２巷","ALLEY":" ","HOUSE_NO":"３７號","E_COORD97":174199.51999999999,"N_COORD97":2545471.9900000002,"ADDRESS":"永華路２１２巷３７號","OBJECTID":295374},"geometry":{"x":174199.51999999955,"y":2545471.9899999984}},{"attributes":{"ID":295383,"DIS_CODE":0,"TOWNNAME":"永康區","LI":"西灣里","LIN":"50鄰","STREET":"永華路","SECT":" ","MAREA":" ","LANE":"２７３巷","ALLEY":" ","HOUSE_NO":"２６號","E_COORD97":173957.72,"N_COORD97":2545807.6000000001,"ADDRESS":"永華路２７３巷２６號","OBJECTID":295375},"geometry":{"x":173957.71999999974,"y":2545807.6000000015}},{"attributes":{"ID":295384,"DIS_CODE":0,"TOWNNAME":"永康區","LI":"尚頂里","LIN":"20鄰","STREET":"中華路","SECT":" ","MAREA":" ","LANE":"９１２巷","ALLEY":" ","HOUSE_NO":"３９號","E_COORD97":170540.26000000001,"N_COORD97":2546754.2599999998,"ADDRESS":"中華路９１２巷３９號","OBJECTID":295376},"geometry":{"x":170540.25999999978,"y":2546754.2599999998}},{"attributes":{"ID":295385,"DIS_CODE":0,"TOWNNAME":"永康區","LI":"西灣里","LIN":"25鄰","STREET":"國光七街","SECT":" ","MAREA":" ","LANE":"２０巷","ALLEY":" ","HOUSE_NO":"３９號","E_COORD97":174314.82000000001,"N_COORD97":2545581.8999999999,"ADDRESS":"國光七街２０巷３９號","OBJECTID":295377},"geometry":{"x":174314.82000000123,"y":2545581.9000000022}},{"attributes":{"ID":295386,"DIS_CODE":0,"TOWNNAME":"永康區","LI":"尚頂里","LIN":"4鄰","STREET":"正南一街","SECT":" ","MAREA":" ","LANE":"１９０巷","ALLEY":" ","HOUSE_NO":"１０號","E_COORD97":170666.53,"N_COORD97":2547493.9700000002,"ADDRESS":"正南一街１９０巷１０號","OBJECTID":295378},"geometry":{"x":170666.53000000119,"y":2547493.9700000025}},{"attributes":{"ID":295387,"DIS_CODE":0,"TOWNNAME":"永康區","LI":"尚頂里","LIN":"20鄰","STREET":"中華路","SECT":" ","MAREA":" ","LANE":"９１２巷","ALLEY":" ","HOUSE_NO":"５７號","E_COORD97":170559.97,"N_COORD97":2546775.25,"ADDRESS":"中華路９１２巷５７號","OBJECTID":295379},"geometry":{"x":170559.97000000067,"y":2546775.25}},{"attributes":{"ID":295388,"DIS_CODE":0,"TOWNNAME":"永康區","LI":"南灣里","LIN":"38鄰","STREET":"南灣街","SECT":" ","MAREA":" ","LANE":"１００巷","ALLEY":" ","HOUSE_NO":"８號","E_COORD97":174427.37,"N_COORD97":2545006.2400000002,"ADDRESS":"南灣街１００巷８號","OBJECTID":295380},"geometry":{"x":174427.37000000104,"y":2545006.2400000039}},{"attributes":{"ID":295389,"DIS_CODE":0,"TOWNNAME":"永康區","LI":"西灣里","LIN":"25鄰","STREET":"國光七街","SECT":" ","MAREA":" ","LANE":"２０巷","ALLEY":" ","HOUSE_NO":"８號","E_COORD97":174321.45999999999,"N_COORD97":2545560.75,"ADDRESS":"國光七街２０巷８號","OBJECTID":295381},"geometry":{"x":174321.46000000089,"y":2545560.75}},{"attributes":{"ID":295390,"DIS_CODE":0,"TOWNNAME":"永康區","LI":"西灣里","LIN":"39鄰","STREET":"永華路","SECT":" ","MAREA":" ","LANE":"２１２巷","ALLEY":" ","HOUSE_NO":"８號","E_COORD97":174144.09,"N_COORD97":2545467.4900000002,"ADDRESS":"永華路２１２巷８號","OBJECTID":295382},"geometry":{"x":174144.09000000171,"y":2545467.4900000002}},{"attributes":{"ID":295391,"DIS_CODE":0,"TOWNNAME":"北區","LI":"振興里","LIN":"17鄰","STREET":"長榮路","SECT":"四段","MAREA":" ","LANE":"７６巷","ALLEY":" ","HOUSE_NO":"２２號","E_COORD97":170385.16,"N_COORD97":2545030.8100000001,"ADDRESS":"長榮路四段７６巷２２號","OBJECTID":295383},"geometry":{"x":170385.16000000015,"y":2545030.8100000024}},{"attributes":{"ID":295392,"DIS_CODE":0,"TOWNNAME":"南區","LI":"大忠里","LIN":"14鄰","STREET":"公英五街","SECT":" ","MAREA":" ","LANE":" ","ALLEY":" ","HOUSE_NO":"１４號","E_COORD97":169367.10000000001,"N_COORD97":2541127.9900000002,"ADDRESS":"公英五街１４號","OBJECTID":295384},"geometry":{"x":169367.10000000056,"y":2541127.9900000002}},{"attributes":{"ID":295393,"DIS_CODE":0,"TOWNNAME":"南區","LI":"大忠里","LIN":"14鄰","STREET":"公英五街","SECT":" ","MAREA":" ","LANE":" ","ALLEY":" ","HOUSE_NO":"１５號","E_COORD97":169394.79999999999,"N_COORD97":2541116.1600000001,"ADDRESS":"公英五街１５號","OBJECTID":295385},"geometry":{"x":169394.80000000075,"y":2541116.1600000001}},{"attributes":{"ID":295394,"DIS_CODE":0,"TOWNNAME":"南區","LI":"大忠里","LIN":"14鄰","STREET":"公英五街","SECT":" ","MAREA":" ","LANE":" ","ALLEY":" ","HOUSE_NO":"１６號","E_COORD97":169363.48999999999,"N_COORD97":2541127.21,"ADDRESS":"公英五街１６號","OBJECTID":295386},"geometry":{"x":169363.49000000115,"y":2541127.2100000009}},{"attributes":{"ID":295395,"DIS_CODE":0,"TOWNNAME":"南區","LI":"大忠里","LIN":"14鄰","STREET":"公英五街","SECT":" ","MAREA":" ","LANE":" ","ALLEY":" ","HOUSE_NO":"１７號","E_COORD97":169391.66,"N_COORD97":2541114.5899999999,"ADDRESS":"公英五街１７號","OBJECTID":295387},"geometry":{"x":169391.66000000015,"y":2541114.5900000036}},{"attributes":{"ID":295396,"DIS_CODE":0,"TOWNNAME":"南區","LI":"大忠里","LIN":"14鄰","STREET":"公英五街","SECT":" ","MAREA":" ","LANE":" ","ALLEY":" ","HOUSE_NO":"１８號","E_COORD97":169360.04000000001,"N_COORD97":2541126.5800000001,"ADDRESS":"公英五街１８號","OBJECTID":295388},"geometry":{"x":169360.04000000004,"y":2541126.5800000019}},{"attributes":{"ID":295397,"DIS_CODE":0,"TOWNNAME":"南區","LI":"大忠里","LIN":"14鄰","STREET":"公英五街","SECT":" ","MAREA":" ","LANE":" ","ALLEY":" ","HOUSE_NO":"２１號","E_COORD97":169381.32000000001,"N_COORD97":2541112.7999999998,"ADDRESS":"公英五街２１號","OBJECTID":295389},"geometry":{"x":169381.32000000123,"y":2541112.8000000007}},{"attributes":{"ID":295398,"DIS_CODE":0,"TOWNNAME":"南區","LI":"大忠里","LIN":"14鄰","STREET":"公英五街","SECT":" ","MAREA":" ","LANE":" ","ALLEY":" ","HOUSE_NO":"２２號","E_COORD97":169352.82000000001,"N_COORD97":2541125.3300000001,"ADDRESS":"公英五街２２號","OBJECTID":295390},"geometry":{"x":169352.82000000123,"y":2541125.3300000001}},{"attributes":{"ID":295399,"DIS_CODE":0,"TOWNNAME":"南區","LI":"大忠里","LIN":"14鄰","STREET":"公英五街","SECT":" ","MAREA":" ","LANE":" ","ALLEY":" ","HOUSE_NO":"２３號","E_COORD97":169374.57999999999,"N_COORD97":2541111.6800000002,"ADDRESS":"公英五街２３號","OBJECTID":295391},"geometry":{"x":169374.58000000101,"y":2541111.6800000016}},{"attributes":{"ID":295400,"DIS_CODE":0,"TOWNNAME":"南區","LI":"大忠里","LIN":"14鄰","STREET":"公英五街","SECT":" ","MAREA":" ","LANE":" ","ALLEY":" ","HOUSE_NO":"２４號","E_COORD97":169349.06,"N_COORD97":2541124.71,"ADDRESS":"公英五街２４號","OBJECTID":295392},"geometry":{"x":169349.06000000052,"y":2541124.7100000009}},{"attributes":{"ID":295401,"DIS_CODE":0,"TOWNNAME":"南區","LI":"大忠里","LIN":"14鄰","STREET":"公英五街","SECT":" ","MAREA":" ","LANE":" ","ALLEY":" ","HOUSE_NO":"２５號","E_COORD97":169367.60999999999,"N_COORD97":2541110.7799999998,"ADDRESS":"公英五街２５號","OBJECTID":295393},"geometry":{"x":169367.61000000127,"y":2541110.7800000012}},{"attributes":{"ID":295402,"DIS_CODE":0,"TOWNNAME":"南區","LI":"大忠里","LIN":"14鄰","STREET":"公英五街","SECT":" ","MAREA":" ","LANE":" ","ALLEY":" ","HOUSE_NO":"２６號","E_COORD97":169345.60999999999,"N_COORD97":2541124.2400000002,"ADDRESS":"公英五街２６號","OBJECTID":295394},"geometry":{"x":169345.61000000127,"y":2541124.2400000039}},{"attributes":{"ID":295403,"DIS_CODE":0,"TOWNNAME":"南區","LI":"大忠里","LIN":"14鄰","STREET":"公英五街","SECT":" ","MAREA":" ","LANE":" ","ALLEY":" ","HOUSE_NO":"２７號","E_COORD97":169360.87,"N_COORD97":2541109.21,"ADDRESS":"公英五街２７號","OBJECTID":295395},"geometry":{"x":169360.87000000104,"y":2541109.2100000028}},{"attributes":{"ID":295404,"DIS_CODE":0,"TOWNNAME":"南區","LI":"大忠里","LIN":"14鄰","STREET":"公英五街","SECT":" ","MAREA":" ","LANE":" ","ALLEY":" ","HOUSE_NO":"２８號","E_COORD97":169342.32000000001,"N_COORD97":2541123.77,"ADDRESS":"公英五街２８號","OBJECTID":295396},"geometry":{"x":169342.32000000123,"y":2541123.7700000014}},{"attributes":{"ID":295405,"DIS_CODE":0,"TOWNNAME":"南區","LI":"大忠里","LIN":"14鄰","STREET":"公英五街","SECT":" ","MAREA":" ","LANE":" ","ALLEY":" ","HOUSE_NO":"２９號","E_COORD97":169353.67000000001,"N_COORD97":2541107.8700000001,"ADDRESS":"公英五街２９號","OBJECTID":295397},"geometry":{"x":169353.67000000086,"y":2541107.8700000029}},{"attributes":{"ID":295406,"DIS_CODE":0,"TOWNNAME":"永康區","LI":"西灣里","LIN":"32鄰","STREET":"國光八街","SECT":" ","MAREA":" ","LANE":"９０巷","ALLEY":" ","HOUSE_NO":"１０號","E_COORD97":174200.29000000001,"N_COORD97":2545800.5,"ADDRESS":"國光八街９０巷１０號","OBJECTID":295398},"geometry":{"x":174200.29000000004,"y":2545800.5}},{"attributes":{"ID":295407,"DIS_CODE":0,"TOWNNAME":"永康區","LI":"尚頂里","LIN":"4鄰","STREET":"正南一街","SECT":" ","MAREA":" ","LANE":"１９０巷","ALLEY":" ","HOUSE_NO":"２９號","E_COORD97":170733.60999999999,"N_COORD97":2547469.2000000002,"ADDRESS":"正南一街１９０巷２９號","OBJECTID":295399},"geometry":{"x":170733.6100000022,"y":2547469.1999999993}},{"attributes":{"ID":295408,"DIS_CODE":0,"TOWNNAME":"永康區","LI":"尚頂里","LIN":"26鄰","STREET":"南台街","SECT":" ","MAREA":" ","LANE":"５４巷","ALLEY":" ","HOUSE_NO":"６號之７","E_COORD97":170392.81,"N_COORD97":2546995.29,"ADDRESS":"南台街５４巷６號之７","OBJECTID":295400},"geometry":{"x":170392.81000000052,"y":2546995.290000001}}]}