{"displayFieldName":"TOWNNAME","fieldAliases":{"ID":"ID","DIS_CODE":"DIS_CODE","TOWNNAME":"TOWNNAME","LI":"LI","LIN":"LIN","STREET":"STREET","SECT":"SECT","MAREA":"MAREA","LANE":"LANE","ALLEY":"ALLEY","HOUSE_NO":"HOUSE_NO","E_COORD97":"E_COORD97","N_COORD97":"N_COORD97","ADDRESS":"ADDRESS","OBJECTID":"OBJECTID"},"geometryType":"esriGeometryPoint","spatialReference":{"wkid":102443,"latestWkid":3826},"fields":[{"name":"ID","type":"esriFieldTypeDouble","alias":"ID"},{"name":"DIS_CODE","type":"esriFieldTypeInteger","alias":"DIS_CODE"},{"name":"TOWNNAME","type":"esriFieldTypeString","alias":"TOWNNAME","length":8},{"name":"LI","type":"esriFieldTypeString","alias":"LI","length":8},{"name":"LIN","type":"esriFieldTypeString","alias":"LIN","length":12},{"name":"STREET","type":"esriFieldTypeString","alias":"STREET","length":20},{"name":"SECT","type":"esriFieldTypeString","alias":"SECT","length":8},{"name":"MAREA","type":"esriFieldTypeString","alias":"MAREA","length":12},{"name":"LANE","type":"esriFieldTypeString","alias":"LANE","length":10},{"name":"ALLEY","type":"esriFieldTypeString","alias":"ALLEY","length":10},{"name":"HOUSE_NO","type":"esriFieldTypeString","alias":"HOUSE_NO","length":20},{"name":"E_COORD97","type":"esriFieldTypeDouble","alias":"E_COORD97"},{"name":"N_COORD97","type":"esriFieldTypeDouble","alias":"N_COORD97"},{"name":"ADDRESS","type":"esriFieldTypeString","alias":"ADDRESS","length":50},{"name":"OBJECTID","type":"esriFieldTypeOID","alias":"OBJECTID"}],"features":[{"attributes":{"ID":177002,"DIS_CODE":0,"TOWNNAME":"南區","LI":"白雪里","LIN":" ","STREET":"鹽埕路","SECT":" ","MAREA":" ","LANE":"１０３巷","ALLEY":"５８弄","HOUSE_NO":"７號","E_COORD97":166694.73000000001,"N_COORD97":2540689.6899999999,"ADDRESS":"鹽埕路１０３巷５８弄７號","OBJECTID":177001},"geometry":{"x":166694.73000000045,"y":2540689.6900000032}},{"attributes":{"ID":177003,"DIS_CODE":0,"TOWNNAME":"南區","LI":"白雪里","LIN":" ","STREET":"鹽埕路","SECT":" ","MAREA":" ","LANE":"１０３巷","ALLEY":"５８弄","HOUSE_NO":"９號","E_COORD97":166691.29999999999,"N_COORD97":2540691.0099999998,"ADDRESS":"鹽埕路１０３巷５８弄９號","OBJECTID":177002},"geometry":{"x":166691.30000000075,"y":2540691.0099999979}},{"attributes":{"ID":177004,"DIS_CODE":0,"TOWNNAME":"南區","LI":"白雪里","LIN":" ","STREET":"鹽埕路","SECT":" ","MAREA":" ","LANE":"１０３巷","ALLEY":"５８弄","HOUSE_NO":"１１號","E_COORD97":166687.35000000001,"N_COORD97":2540691.5299999998,"ADDRESS":"鹽埕路１０３巷５８弄１１號","OBJECTID":177003},"geometry":{"x":166687.35000000056,"y":2540691.5300000012}},{"attributes":{"ID":177005,"DIS_CODE":0,"TOWNNAME":"南區","LI":"白雪里","LIN":" ","STREET":"鹽埕路","SECT":" ","MAREA":" ","LANE":"１０３巷","ALLEY":"５８弄","HOUSE_NO":"１３號","E_COORD97":166684.19,"N_COORD97":2540692.3199999998,"ADDRESS":"鹽埕路１０３巷５８弄１３號","OBJECTID":177004},"geometry":{"x":166684.19000000134,"y":2540692.3200000003}},{"attributes":{"ID":177006,"DIS_CODE":0,"TOWNNAME":"南區","LI":"白雪里","LIN":" ","STREET":"鹽埕路","SECT":" ","MAREA":" ","LANE":"１０３巷","ALLEY":"５８弄","HOUSE_NO":"１５號","E_COORD97":166679.45000000001,"N_COORD97":2540691.0099999998,"ADDRESS":"鹽埕路１０３巷５８弄１５號","OBJECTID":177005},"geometry":{"x":166679.45000000019,"y":2540691.0099999979}},{"attributes":{"ID":177007,"DIS_CODE":0,"TOWNNAME":"南區","LI":"白雪里","LIN":" ","STREET":"鹽埕路","SECT":" ","MAREA":" ","LANE":"１０３巷","ALLEY":"５８弄","HOUSE_NO":"１７號","E_COORD97":166676.01999999999,"N_COORD97":2540691.5299999998,"ADDRESS":"鹽埕路１０３巷５８弄１７號","OBJECTID":177006},"geometry":{"x":166676.01999999955,"y":2540691.5300000012}},{"attributes":{"ID":177008,"DIS_CODE":0,"TOWNNAME":"南區","LI":"白雪里","LIN":" ","STREET":"鹽埕路","SECT":" ","MAREA":" ","LANE":"１０３巷","ALLEY":"５８弄","HOUSE_NO":"１９號","E_COORD97":166672.32999999999,"N_COORD97":2540691.7999999998,"ADDRESS":"鹽埕路１０３巷５８弄１９號","OBJECTID":177007},"geometry":{"x":166672.33000000101,"y":2540691.8000000026}},{"attributes":{"ID":177009,"DIS_CODE":0,"TOWNNAME":"南區","LI":"白雪里","LIN":" ","STREET":"鹽埕路","SECT":" ","MAREA":" ","LANE":"１０３巷","ALLEY":"５８弄","HOUSE_NO":"２１號","E_COORD97":166672.72,"N_COORD97":2540681.8799999999,"ADDRESS":"鹽埕路１０３巷５８弄２１號","OBJECTID":177008},"geometry":{"x":166672.72000000067,"y":2540681.8800000008}},{"attributes":{"ID":177010,"DIS_CODE":0,"TOWNNAME":"南區","LI":"白雪里","LIN":" ","STREET":"鹽埕路","SECT":" ","MAREA":" ","LANE":"１０３巷","ALLEY":"５８弄","HOUSE_NO":"２３號","E_COORD97":166673.54000000001,"N_COORD97":2540678.1699999999,"ADDRESS":"鹽埕路１０３巷５８弄２３號","OBJECTID":177009},"geometry":{"x":166673.54000000004,"y":2540678.1700000018}},{"attributes":{"ID":177011,"DIS_CODE":0,"TOWNNAME":"南區","LI":"白雪里","LIN":" ","STREET":"鹽埕路","SECT":" ","MAREA":" ","LANE":"１０３巷","ALLEY":"５８弄","HOUSE_NO":"２５號","E_COORD97":166673.54000000001,"N_COORD97":2540674.0600000001,"ADDRESS":"鹽埕路１０３巷５８弄２５號","OBJECTID":177010},"geometry":{"x":166673.54000000004,"y":2540674.0600000005}},{"attributes":{"ID":177012,"DIS_CODE":0,"TOWNNAME":"南區","LI":"白雪里","LIN":" ","STREET":"鹽埕路","SECT":" ","MAREA":" ","LANE":"１０３巷","ALLEY":"８２弄","HOUSE_NO":"１號","E_COORD97":166802.20000000001,"N_COORD97":2540829.1400000001,"ADDRESS":"鹽埕路１０３巷８２弄１號","OBJECTID":177011},"geometry":{"x":166802.20000000112,"y":2540829.1400000006}},{"attributes":{"ID":177013,"DIS_CODE":0,"TOWNNAME":"南區","LI":"白雪里","LIN":" ","STREET":"鹽埕路","SECT":" ","MAREA":" ","LANE":"１０３巷","ALLEY":"８２弄","HOUSE_NO":"２號","E_COORD97":166702.29999999999,"N_COORD97":2540659.4199999999,"ADDRESS":"鹽埕路１０３巷８２弄２號","OBJECTID":177012},"geometry":{"x":166702.30000000168,"y":2540659.4200000018}},{"attributes":{"ID":177014,"DIS_CODE":0,"TOWNNAME":"南區","LI":"白雪里","LIN":" ","STREET":"鹽埕路","SECT":" ","MAREA":" ","LANE":"１０３巷","ALLEY":"８２弄","HOUSE_NO":"２號之１","E_COORD97":166706.76999999999,"N_COORD97":2540660.48,"ADDRESS":"鹽埕路１０３巷８２弄２號之１","OBJECTID":177013},"geometry":{"x":166706.76999999955,"y":2540660.4800000004}},{"attributes":{"ID":177015,"DIS_CODE":0,"TOWNNAME":"南區","LI":"白雪里","LIN":" ","STREET":"鹽埕路","SECT":" ","MAREA":" ","LANE":"１０３巷","ALLEY":"８２弄","HOUSE_NO":"４號","E_COORD97":166696.26000000001,"N_COORD97":2540659.3300000001,"ADDRESS":"鹽埕路１０３巷８２弄４號","OBJECTID":177014},"geometry":{"x":166696.26000000071,"y":2540659.3300000019}},{"attributes":{"ID":177016,"DIS_CODE":0,"TOWNNAME":"南區","LI":"白雪里","LIN":" ","STREET":"鹽埕路","SECT":" ","MAREA":" ","LANE":"１０３巷","ALLEY":"８２弄","HOUSE_NO":"６號","E_COORD97":166692.89000000001,"N_COORD97":2540659.2400000002,"ADDRESS":"鹽埕路１０３巷８２弄６號","OBJECTID":177015},"geometry":{"x":166692.88999999966,"y":2540659.2400000002}},{"attributes":{"ID":177017,"DIS_CODE":0,"TOWNNAME":"南區","LI":"白雪里","LIN":" ","STREET":"鹽埕路","SECT":" ","MAREA":" ","LANE":"１０３巷","ALLEY":"８２弄","HOUSE_NO":"８號","E_COORD97":166689.17000000001,"N_COORD97":2540658.29,"ADDRESS":"鹽埕路１０３巷８２弄８號","OBJECTID":177016},"geometry":{"x":166689.16999999993,"y":2540658.2900000028}},{"attributes":{"ID":177018,"DIS_CODE":0,"TOWNNAME":"南區","LI":"白雪里","LIN":" ","STREET":"鹽埕路","SECT":" ","MAREA":" ","LANE":"１０３巷","ALLEY":"８２弄","HOUSE_NO":"１０號","E_COORD97":166684.92999999999,"N_COORD97":2540658.0800000001,"ADDRESS":"鹽埕路１０３巷８２弄１０號","OBJECTID":177017},"geometry":{"x":166684.93000000063,"y":2540658.0800000019}},{"attributes":{"ID":177019,"DIS_CODE":0,"TOWNNAME":"南區","LI":"白雪里","LIN":" ","STREET":"鹽埕路","SECT":" ","MAREA":" ","LANE":"１０３巷","ALLEY":"８２弄","HOUSE_NO":"１２號","E_COORD97":166680.95000000001,"N_COORD97":2540658.1699999999,"ADDRESS":"鹽埕路１０３巷８２弄１２號","OBJECTID":177018},"geometry":{"x":166680.95000000019,"y":2540658.1699999999}},{"attributes":{"ID":177020,"DIS_CODE":0,"TOWNNAME":"南區","LI":"白雪里","LIN":" ","STREET":"鹽埕路","SECT":" ","MAREA":" ","LANE":"１０３巷","ALLEY":"８２弄","HOUSE_NO":"１４號","E_COORD97":166677.57999999999,"N_COORD97":2540658.1800000002,"ADDRESS":"鹽埕路１０３巷８２弄１４號","OBJECTID":177019},"geometry":{"x":166677.58000000101,"y":2540658.1799999997}},{"attributes":{"ID":177021,"DIS_CODE":0,"TOWNNAME":"南區","LI":"白雪里","LIN":" ","STREET":"鹽埕路","SECT":" ","MAREA":" ","LANE":"１０３巷","ALLEY":"８２弄","HOUSE_NO":"１６號","E_COORD97":166673.67000000001,"N_COORD97":2540658.8300000001,"ADDRESS":"鹽埕路１０３巷８２弄１６號","OBJECTID":177020},"geometry":{"x":166673.67000000086,"y":2540658.8300000038}},{"attributes":{"ID":177022,"DIS_CODE":0,"TOWNNAME":"南區","LI":"白雪里","LIN":" ","STREET":"鹽埕路","SECT":" ","MAREA":" ","LANE":"１０３巷","ALLEY":"８２弄","HOUSE_NO":"１８號","E_COORD97":166669.54000000001,"N_COORD97":2540661,"ADDRESS":"鹽埕路１０３巷８２弄１８號","OBJECTID":177021},"geometry":{"x":166669.54000000097,"y":2540661.0000000037}},{"attributes":{"ID":177023,"DIS_CODE":0,"TOWNNAME":"南區","LI":"光明里","LIN":"32鄰","STREET":"新興路","SECT":" ","MAREA":" ","LANE":"５３３巷","ALLEY":"３４弄","HOUSE_NO":"１０號","E_COORD97":166612.20000000001,"N_COORD97":2541521.7999999998,"ADDRESS":"新興路５３３巷３４弄１０號","OBJECTID":177022},"geometry":{"x":166612.20000000112,"y":2541521.8000000026}},{"attributes":{"ID":177024,"DIS_CODE":0,"TOWNNAME":"南區","LI":"光明里","LIN":"32鄰","STREET":"新興路","SECT":" ","MAREA":" ","LANE":"５３３巷","ALLEY":"３４弄","HOUSE_NO":"１２號","E_COORD97":166604.19,"N_COORD97":2541521.9700000002,"ADDRESS":"新興路５３３巷３４弄１２號","OBJECTID":177023},"geometry":{"x":166604.19000000134,"y":2541521.9700000007}},{"attributes":{"ID":177025,"DIS_CODE":0,"TOWNNAME":"南區","LI":"光明里","LIN":" ","STREET":"鹽埕路","SECT":" ","MAREA":" ","LANE":"２９１巷","ALLEY":"３２弄","HOUSE_NO":"６１號","E_COORD97":166582.48999999999,"N_COORD97":2541232.5499999998,"ADDRESS":"鹽埕路２９１巷３２弄６１號","OBJECTID":177024},"geometry":{"x":166582.49000000022,"y":2541232.5500000026}},{"attributes":{"ID":177026,"DIS_CODE":0,"TOWNNAME":"南區","LI":"光明里","LIN":" ","STREET":"鹽埕路","SECT":" ","MAREA":" ","LANE":"２９１巷","ALLEY":"３２弄","HOUSE_NO":"５７號","E_COORD97":166585.89000000001,"N_COORD97":2541240.3399999999,"ADDRESS":"鹽埕路２９１巷３２弄５７號","OBJECTID":177025},"geometry":{"x":166585.88999999966,"y":2541240.3399999999}},{"attributes":{"ID":177027,"DIS_CODE":0,"TOWNNAME":"南區","LI":"光明里","LIN":" ","STREET":"鹽埕路","SECT":" ","MAREA":" ","LANE":"２９１巷","ALLEY":"３２弄","HOUSE_NO":"５３號","E_COORD97":166585.12,"N_COORD97":2541250.6600000001,"ADDRESS":"鹽埕路２９１巷３２弄５３號","OBJECTID":177026},"geometry":{"x":166585.11999999918,"y":2541250.660000002}},{"attributes":{"ID":177028,"DIS_CODE":0,"TOWNNAME":"安平區","LI":"金城里","LIN":"10鄰","STREET":"世平一街","SECT":" ","MAREA":" ","LANE":" ","ALLEY":" ","HOUSE_NO":"２３號","E_COORD97":162976.54999999999,"N_COORD97":2544017.5699999998,"ADDRESS":"世平一街２３號","OBJECTID":177027},"geometry":{"x":162976.55000000075,"y":2544017.570000004}},{"attributes":{"ID":177029,"DIS_CODE":0,"TOWNNAME":"東區","LI":"復興里","LIN":"11鄰","STREET":"裕忠路","SECT":" ","MAREA":" ","LANE":" ","ALLEY":" ","HOUSE_NO":"４８０號","E_COORD97":172243.72,"N_COORD97":2542274.6699999999,"ADDRESS":"裕忠路４８０號","OBJECTID":177028},"geometry":{"x":172243.71999999974,"y":2542274.6700000018}},{"attributes":{"ID":177030,"DIS_CODE":0,"TOWNNAME":"東區","LI":"復興里","LIN":"11鄰","STREET":"裕忠路","SECT":" ","MAREA":" ","LANE":" ","ALLEY":" ","HOUSE_NO":"４８２號","E_COORD97":172243.85999999999,"N_COORD97":2542269.73,"ADDRESS":"裕忠路４８２號","OBJECTID":177029},"geometry":{"x":172243.86000000034,"y":2542269.7300000004}},{"attributes":{"ID":177031,"DIS_CODE":0,"TOWNNAME":"東區","LI":"裕聖里","LIN":"13鄰","STREET":"裕信三街","SECT":" ","MAREA":" ","LANE":" ","ALLEY":" ","HOUSE_NO":"１０１號","E_COORD97":172841.20000000001,"N_COORD97":2542367.2799999998,"ADDRESS":"裕信三街１０１號","OBJECTID":177030},"geometry":{"x":172841.20000000019,"y":2542367.2800000031}},{"attributes":{"ID":177032,"DIS_CODE":0,"TOWNNAME":"東區","LI":"裕聖里","LIN":"13鄰","STREET":"裕信三街","SECT":" ","MAREA":" ","LANE":" ","ALLEY":" ","HOUSE_NO":"１０３號","E_COORD97":172840.12,"N_COORD97":2542360.6899999999,"ADDRESS":"裕信三街１０３號","OBJECTID":177031},"geometry":{"x":172840.12000000011,"y":2542360.6899999995}},{"attributes":{"ID":177033,"DIS_CODE":0,"TOWNNAME":"東區","LI":"裕聖里","LIN":"13鄰","STREET":"裕信三街","SECT":" ","MAREA":" ","LANE":" ","ALLEY":" ","HOUSE_NO":"１０５號","E_COORD97":172839.97,"N_COORD97":2542355.9500000002,"ADDRESS":"裕信三街１０５號","OBJECTID":177032},"geometry":{"x":172839.97000000067,"y":2542355.950000003}},{"attributes":{"ID":177034,"DIS_CODE":0,"TOWNNAME":"東區","LI":"裕聖里","LIN":"13鄰","STREET":"裕信三街","SECT":" ","MAREA":" ","LANE":" ","ALLEY":" ","HOUSE_NO":"１０７號","E_COORD97":172839.67000000001,"N_COORD97":2542351.2000000002,"ADDRESS":"裕信三街１０７號","OBJECTID":177033},"geometry":{"x":172839.66999999993,"y":2542351.2000000011}},{"attributes":{"ID":177035,"DIS_CODE":0,"TOWNNAME":"東區","LI":"裕聖里","LIN":"13鄰","STREET":"裕信三街","SECT":" ","MAREA":" ","LANE":" ","ALLEY":" ","HOUSE_NO":"１０９號","E_COORD97":172839.82000000001,"N_COORD97":2542347.3799999999,"ADDRESS":"裕信三街１０９號","OBJECTID":177034},"geometry":{"x":172839.82000000123,"y":2542347.3800000008}},{"attributes":{"ID":177036,"DIS_CODE":0,"TOWNNAME":"東區","LI":"裕聖里","LIN":"13鄰","STREET":"裕信三街","SECT":" ","MAREA":" ","LANE":" ","ALLEY":" ","HOUSE_NO":"１１１號","E_COORD97":172839.67000000001,"N_COORD97":2542342.6299999999,"ADDRESS":"裕信三街１１１號","OBJECTID":177035},"geometry":{"x":172839.66999999993,"y":2542342.629999999}},{"attributes":{"ID":177037,"DIS_CODE":0,"TOWNNAME":"東區","LI":"裕聖里","LIN":"14鄰","STREET":"裕信三街","SECT":" ","MAREA":" ","LANE":" ","ALLEY":" ","HOUSE_NO":"８８號","E_COORD97":172819.76000000001,"N_COORD97":2542430.3500000001,"ADDRESS":"裕信三街８８號","OBJECTID":177036},"geometry":{"x":172819.75999999978,"y":2542430.3499999996}},{"attributes":{"ID":177038,"DIS_CODE":0,"TOWNNAME":"東區","LI":"裕聖里","LIN":"14鄰","STREET":"裕信三街","SECT":" ","MAREA":" ","LANE":" ","ALLEY":" ","HOUSE_NO":"１００號","E_COORD97":172820.38,"N_COORD97":2542415.3399999999,"ADDRESS":"裕信三街１００號","OBJECTID":177037},"geometry":{"x":172820.38000000082,"y":2542415.3400000017}},{"attributes":{"ID":177039,"DIS_CODE":0,"TOWNNAME":"東區","LI":"裕聖里","LIN":"14鄰","STREET":"裕信三街","SECT":" ","MAREA":" ","LANE":" ","ALLEY":" ","HOUSE_NO":"１０２號","E_COORD97":172820.38,"N_COORD97":2542411.8199999998,"ADDRESS":"裕信三街１０２號","OBJECTID":177038},"geometry":{"x":172820.38000000082,"y":2542411.8199999984}},{"attributes":{"ID":177040,"DIS_CODE":0,"TOWNNAME":"東區","LI":"裕聖里","LIN":"14鄰","STREET":"裕信三街","SECT":" ","MAREA":" ","LANE":" ","ALLEY":" ","HOUSE_NO":"１０６號","E_COORD97":172820.84,"N_COORD97":2542407.6899999999,"ADDRESS":"裕信三街１０６號","OBJECTID":177039},"geometry":{"x":172820.84000000078,"y":2542407.6899999995}},{"attributes":{"ID":177041,"DIS_CODE":0,"TOWNNAME":"東區","LI":"裕聖里","LIN":"14鄰","STREET":"裕信三街","SECT":" ","MAREA":" ","LANE":" ","ALLEY":" ","HOUSE_NO":"１０８號","E_COORD97":172820.53,"N_COORD97":2542402.3300000001,"ADDRESS":"裕信三街１０８號","OBJECTID":177040},"geometry":{"x":172820.53000000026,"y":2542402.3300000019}},{"attributes":{"ID":177042,"DIS_CODE":0,"TOWNNAME":"東區","LI":"裕聖里","LIN":"14鄰","STREET":"裕信三街","SECT":" ","MAREA":" ","LANE":" ","ALLEY":" ","HOUSE_NO":"１１０號","E_COORD97":172820.38,"N_COORD97":2542398.0499999998,"ADDRESS":"裕信三街１１０號","OBJECTID":177041},"geometry":{"x":172820.38000000082,"y":2542398.0500000026}},{"attributes":{"ID":177043,"DIS_CODE":0,"TOWNNAME":"東區","LI":"裕聖里","LIN":"14鄰","STREET":"裕信三街","SECT":" ","MAREA":" ","LANE":" ","ALLEY":" ","HOUSE_NO":"１１２號","E_COORD97":172820.84,"N_COORD97":2542394.0699999998,"ADDRESS":"裕信三街１１２號","OBJECTID":177042},"geometry":{"x":172820.84000000078,"y":2542394.0700000022}},{"attributes":{"ID":177044,"DIS_CODE":0,"TOWNNAME":"東區","LI":"裕聖里","LIN":"8鄰","STREET":"裕東一街","SECT":" ","MAREA":" ","LANE":" ","ALLEY":" ","HOUSE_NO":"２５號","E_COORD97":172740.09,"N_COORD97":2542020.9300000002,"ADDRESS":"裕東一街２５號","OBJECTID":177043},"geometry":{"x":172740.08999999985,"y":2542020.9300000034}},{"attributes":{"ID":177045,"DIS_CODE":0,"TOWNNAME":"南區","LI":"光明里","LIN":" ","STREET":"鹽埕路","SECT":" ","MAREA":" ","LANE":"２９１巷","ALLEY":"３２弄","HOUSE_NO":"５１號","E_COORD97":166593.47,"N_COORD97":2541259.8399999999,"ADDRESS":"鹽埕路２９１巷３２弄５１號","OBJECTID":177044},"geometry":{"x":166593.47000000067,"y":2541259.8400000017}},{"attributes":{"ID":177046,"DIS_CODE":0,"TOWNNAME":"南區","LI":"光明里","LIN":" ","STREET":"鹽埕路","SECT":" ","MAREA":" ","LANE":"２９１巷","ALLEY":"３２弄","HOUSE_NO":"４９號","E_COORD97":166595.23000000001,"N_COORD97":2541269.8300000001,"ADDRESS":"鹽埕路２９１巷３２弄４９號","OBJECTID":177045},"geometry":{"x":166595.23000000138,"y":2541269.8300000019}},{"attributes":{"ID":177047,"DIS_CODE":0,"TOWNNAME":"南區","LI":"光明里","LIN":" ","STREET":"鹽埕路","SECT":" ","MAREA":" ","LANE":"２９１巷","ALLEY":"３２弄","HOUSE_NO":"４３號","E_COORD97":166619.22,"N_COORD97":2541278.8500000001,"ADDRESS":"鹽埕路２９１巷３２弄４３號","OBJECTID":177046},"geometry":{"x":166619.21999999974,"y":2541278.8500000034}},{"attributes":{"ID":177048,"DIS_CODE":0,"TOWNNAME":"南區","LI":"光明里","LIN":" ","STREET":"鹽埕路","SECT":" ","MAREA":" ","LANE":"２９１巷","ALLEY":"３２弄","HOUSE_NO":"４５號","E_COORD97":166610.92999999999,"N_COORD97":2541273.4500000002,"ADDRESS":"鹽埕路２９１巷３２弄４５號","OBJECTID":177047},"geometry":{"x":166610.9299999997,"y":2541273.4499999993}},{"attributes":{"ID":177049,"DIS_CODE":0,"TOWNNAME":"南區","LI":"光明里","LIN":" ","STREET":"鹽埕路","SECT":" ","MAREA":" ","LANE":"２９１巷","ALLEY":"３２弄","HOUSE_NO":"３１號","E_COORD97":166623.37,"N_COORD97":2541315.0600000001,"ADDRESS":"鹽埕路２９１巷３２弄３１號","OBJECTID":177048},"geometry":{"x":166623.37000000011,"y":2541315.0600000005}},{"attributes":{"ID":177050,"DIS_CODE":0,"TOWNNAME":"南區","LI":"光明里","LIN":" ","STREET":"鹽埕路","SECT":" ","MAREA":" ","LANE":"２９１巷","ALLEY":"３２弄","HOUSE_NO":"２７號","E_COORD97":166632.04000000001,"N_COORD97":2541330.6600000001,"ADDRESS":"鹽埕路２９１巷３２弄２７號","OBJECTID":177049},"geometry":{"x":166632.04000000097,"y":2541330.6600000001}},{"attributes":{"ID":177051,"DIS_CODE":0,"TOWNNAME":"南區","LI":"光明里","LIN":" ","STREET":"鹽埕路","SECT":" ","MAREA":" ","LANE":"２９１巷","ALLEY":"３２弄","HOUSE_NO":"２７號之１","E_COORD97":166632.92000000001,"N_COORD97":2541336.0600000001,"ADDRESS":"鹽埕路２９１巷３２弄２７號之１","OBJECTID":177050},"geometry":{"x":166632.92000000086,"y":2541336.0600000042}},{"attributes":{"ID":177052,"DIS_CODE":0,"TOWNNAME":"南區","LI":"光明里","LIN":"8鄰","STREET":"新興路","SECT":" ","MAREA":" ","LANE":"５３３巷","ALLEY":"４３弄","HOUSE_NO":"１號","E_COORD97":166689.44,"N_COORD97":2541545.02,"ADDRESS":"新興路５３３巷４３弄１號","OBJECTID":177051},"geometry":{"x":166689.44000000041,"y":2541545.0199999977}},{"attributes":{"ID":177053,"DIS_CODE":0,"TOWNNAME":"南區","LI":"光明里","LIN":"8鄰","STREET":"新興路","SECT":" ","MAREA":" ","LANE":"５３３巷","ALLEY":"４３弄","HOUSE_NO":"２號","E_COORD97":166690.07999999999,"N_COORD97":2541521.5499999998,"ADDRESS":"新興路５３３巷４３弄２號","OBJECTID":177052},"geometry":{"x":166690.08000000007,"y":2541521.5500000007}},{"attributes":{"ID":177054,"DIS_CODE":0,"TOWNNAME":"南區","LI":"光明里","LIN":"9鄰","STREET":"新興路","SECT":" ","MAREA":" ","LANE":"５３３巷","ALLEY":"６１弄","HOUSE_NO":"１號","E_COORD97":166690.41,"N_COORD97":2541505.5899999999,"ADDRESS":"新興路５３３巷６１弄１號","OBJECTID":177053},"geometry":{"x":166690.41000000108,"y":2541505.5900000017}},{"attributes":{"ID":177055,"DIS_CODE":0,"TOWNNAME":"安平區","LI":"文平里","LIN":"10鄰","STREET":"永華路","SECT":"二段","MAREA":" ","LANE":" ","ALLEY":" ","HOUSE_NO":"３４９號","E_COORD97":166040.14999999999,"N_COORD97":2543357.27,"ADDRESS":"永華路二段３４９號","OBJECTID":177054},"geometry":{"x":166040.1500000013,"y":2543357.2699999977}},{"attributes":{"ID":177056,"DIS_CODE":0,"TOWNNAME":"安平區","LI":"怡平里","LIN":"10鄰","STREET":"建平十二街","SECT":" ","MAREA":" ","LANE":" ","ALLEY":" ","HOUSE_NO":"１７０號","E_COORD97":165742.32999999999,"N_COORD97":2544033.25,"ADDRESS":"建平十二街１７０號","OBJECTID":177055},"geometry":{"x":165742.33000000007,"y":2544033.2500000019}},{"attributes":{"ID":177057,"DIS_CODE":0,"TOWNNAME":"安平區","LI":"怡平里","LIN":"10鄰","STREET":"建平十二街","SECT":" ","MAREA":" ","LANE":" ","ALLEY":" ","HOUSE_NO":"１７２號","E_COORD97":165738.20999999999,"N_COORD97":2544033.5800000001,"ADDRESS":"建平十二街１７２號","OBJECTID":177056},"geometry":{"x":165738.20999999996,"y":2544033.5800000001}},{"attributes":{"ID":177058,"DIS_CODE":0,"TOWNNAME":"安平區","LI":"金城里","LIN":"10鄰","STREET":"世平一街","SECT":" ","MAREA":" ","LANE":" ","ALLEY":" ","HOUSE_NO":"２１號","E_COORD97":162980.87,"N_COORD97":2544018.8900000001,"ADDRESS":"世平一街２１號","OBJECTID":177057},"geometry":{"x":162980.87000000011,"y":2544018.8900000043}},{"attributes":{"ID":177059,"DIS_CODE":0,"TOWNNAME":"安平區","LI":"金城里","LIN":"10鄰","STREET":"世平一街","SECT":" ","MAREA":" ","LANE":" ","ALLEY":" ","HOUSE_NO":"１之１號","E_COORD97":163030.01999999999,"N_COORD97":2544039.3700000001,"ADDRESS":"世平一街１之１號","OBJECTID":177058},"geometry":{"x":163030.01999999955,"y":2544039.370000001}},{"attributes":{"ID":177060,"DIS_CODE":0,"TOWNNAME":"安平區","LI":"怡平里","LIN":"10鄰","STREET":"建平十二街","SECT":" ","MAREA":" ","LANE":" ","ALLEY":" ","HOUSE_NO":"１７６號","E_COORD97":165734.35999999999,"N_COORD97":2544034.0099999998,"ADDRESS":"建平十二街１７６號","OBJECTID":177059},"geometry":{"x":165734.36000000034,"y":2544034.0100000035}},{"attributes":{"ID":177061,"DIS_CODE":0,"TOWNNAME":"安平區","LI":"怡平里","LIN":"10鄰","STREET":"建平十二街","SECT":" ","MAREA":" ","LANE":" ","ALLEY":" ","HOUSE_NO":"１７８號","E_COORD97":165730.53,"N_COORD97":2544034.1099999999,"ADDRESS":"建平十二街１７８號","OBJECTID":177060},"geometry":{"x":165730.53000000119,"y":2544034.1100000013}},{"attributes":{"ID":177062,"DIS_CODE":0,"TOWNNAME":"安平區","LI":"怡平里","LIN":"10鄰","STREET":"建平十二街","SECT":" ","MAREA":" ","LANE":" ","ALLEY":" ","HOUSE_NO":"１８０號","E_COORD97":165726.60000000001,"N_COORD97":2544034.8599999999,"ADDRESS":"建平十二街１８０號","OBJECTID":177061},"geometry":{"x":165726.59999999963,"y":2544034.8600000031}},{"attributes":{"ID":177063,"DIS_CODE":0,"TOWNNAME":"安平區","LI":"怡平里","LIN":"10鄰","STREET":"建平十二街","SECT":" ","MAREA":" ","LANE":" ","ALLEY":" ","HOUSE_NO":"１８２號","E_COORD97":165722.87,"N_COORD97":2544035.3900000001,"ADDRESS":"建平十二街１８２號","OBJECTID":177062},"geometry":{"x":165722.87000000104,"y":2544035.3900000006}},{"attributes":{"ID":177064,"DIS_CODE":0,"TOWNNAME":"安平區","LI":"平通里","LIN":"10鄰","STREET":"育平九街","SECT":" ","MAREA":" ","LANE":" ","ALLEY":" ","HOUSE_NO":"２４８之１號","E_COORD97":164887.88,"N_COORD97":2544028.4100000001,"ADDRESS":"育平九街２４８之１號","OBJECTID":177063},"geometry":{"x":164887.87999999989,"y":2544028.4100000039}},{"attributes":{"ID":177065,"DIS_CODE":0,"TOWNNAME":"新營區","LI":"土庫里","LIN":"10鄰","STREET":" ","SECT":" ","MAREA":"土庫","LANE":" ","ALLEY":" ","HOUSE_NO":"８４號","E_COORD97":183127.98000000001,"N_COORD97":2579748.7599999998,"ADDRESS":"土庫８４號","OBJECTID":177064},"geometry":{"x":183127.98000000045,"y":2579748.7599999998}},{"attributes":{"ID":177066,"DIS_CODE":0,"TOWNNAME":"南區","LI":"光明里","LIN":"9鄰","STREET":"新興路","SECT":" ","MAREA":" ","LANE":"５３３巷","ALLEY":"６１弄","HOUSE_NO":"２號","E_COORD97":166676.45999999999,"N_COORD97":2541480.8399999999,"ADDRESS":"新興路５３３巷６１弄２號","OBJECTID":177065},"geometry":{"x":166676.46000000089,"y":2541480.8399999999}},{"attributes":{"ID":177067,"DIS_CODE":0,"TOWNNAME":"新營區","LI":"姑爺里","LIN":"10鄰","STREET":" ","SECT":" ","MAREA":"挖仔","LANE":" ","ALLEY":" ","HOUSE_NO":"３６之１８號","E_COORD97":173926.39000000001,"N_COORD97":2575293.6299999999,"ADDRESS":"挖仔３６之１８號","OBJECTID":177066},"geometry":{"x":173926.38999999873,"y":2575293.629999999}},{"attributes":{"ID":177068,"DIS_CODE":0,"TOWNNAME":"新營區","LI":"土庫里","LIN":"10鄰","STREET":" ","SECT":" ","MAREA":"土庫","LANE":" ","ALLEY":" ","HOUSE_NO":"８８號","E_COORD97":183187.23000000001,"N_COORD97":2579732.9900000002,"ADDRESS":"土庫８８號","OBJECTID":177067},"geometry":{"x":183187.23000000045,"y":2579732.9900000021}},{"attributes":{"ID":177069,"DIS_CODE":0,"TOWNNAME":"南區","LI":"光明里","LIN":"9鄰","STREET":"新興路","SECT":" ","MAREA":" ","LANE":"５３３巷","ALLEY":"６１弄","HOUSE_NO":"３號","E_COORD97":166694.16,"N_COORD97":2541506.3399999999,"ADDRESS":"新興路５３３巷６１弄３號","OBJECTID":177068},"geometry":{"x":166694.16000000108,"y":2541506.3400000036}},{"attributes":{"ID":177070,"DIS_CODE":0,"TOWNNAME":"南區","LI":"光明里","LIN":"9鄰","STREET":"新興路","SECT":" ","MAREA":" ","LANE":"５３３巷","ALLEY":"６１弄","HOUSE_NO":"４號","E_COORD97":166681.17999999999,"N_COORD97":2541480.7400000002,"ADDRESS":"新興路５３３巷６１弄４號","OBJECTID":177069},"geometry":{"x":166681.18000000063,"y":2541480.7400000021}},{"attributes":{"ID":177071,"DIS_CODE":0,"TOWNNAME":"新營區","LI":"土庫里","LIN":"10鄰","STREET":" ","SECT":" ","MAREA":"土庫","LANE":" ","ALLEY":" ","HOUSE_NO":"８３號","E_COORD97":183099.29999999999,"N_COORD97":2579740.0299999998,"ADDRESS":"土庫８３號","OBJECTID":177070},"geometry":{"x":183099.29999999981,"y":2579740.0299999993}},{"attributes":{"ID":177072,"DIS_CODE":0,"TOWNNAME":"南區","LI":"光明里","LIN":"9鄰","STREET":"新興路","SECT":" ","MAREA":" ","LANE":"５３３巷","ALLEY":"６１弄","HOUSE_NO":"５號","E_COORD97":166698.34,"N_COORD97":2541506.23,"ADDRESS":"新興路５３３巷６１弄５號","OBJECTID":177071},"geometry":{"x":166698.33999999985,"y":2541506.2300000004}},{"attributes":{"ID":177073,"DIS_CODE":0,"TOWNNAME":"新營區","LI":"護鎮里","LIN":"10鄰","STREET":" ","SECT":" ","MAREA":"後鎮","LANE":" ","ALLEY":" ","HOUSE_NO":"１６８號","E_COORD97":179212.17999999999,"N_COORD97":2580265.6600000001,"ADDRESS":"後鎮１６８號","OBJECTID":177072},"geometry":{"x":179212.18000000063,"y":2580265.6600000001}},{"attributes":{"ID":177074,"DIS_CODE":0,"TOWNNAME":"南區","LI":"光明里","LIN":"9鄰","STREET":"新興路","SECT":" ","MAREA":" ","LANE":"５３３巷","ALLEY":"６１弄","HOUSE_NO":"６號","E_COORD97":166685.37,"N_COORD97":2541482.02,"ADDRESS":"新興路５３３巷６１弄６號","OBJECTID":177073},"geometry":{"x":166685.37000000197,"y":2541482.0200000014}},{"attributes":{"ID":177075,"DIS_CODE":0,"TOWNNAME":"南區","LI":"光明里","LIN":"9鄰","STREET":"新興路","SECT":" ","MAREA":" ","LANE":"５３３巷","ALLEY":"６１弄","HOUSE_NO":"７號","E_COORD97":166702.63,"N_COORD97":2541506.6600000001,"ADDRESS":"新興路５３３巷６１弄７號","OBJECTID":177074},"geometry":{"x":166702.63000000082,"y":2541506.6600000001}},{"attributes":{"ID":177076,"DIS_CODE":0,"TOWNNAME":"南區","LI":"光明里","LIN":"9鄰","STREET":"新興路","SECT":" ","MAREA":" ","LANE":"５３３巷","ALLEY":"６１弄","HOUSE_NO":"８號","E_COORD97":166689.87,"N_COORD97":2541480.3100000001,"ADDRESS":"新興路５３３巷６１弄８號","OBJECTID":177075},"geometry":{"x":166689.87000000011,"y":2541480.3100000024}},{"attributes":{"ID":177077,"DIS_CODE":0,"TOWNNAME":"南區","LI":"光明里","LIN":"9鄰","STREET":"新興路","SECT":" ","MAREA":" ","LANE":"５３３巷","ALLEY":"６１弄","HOUSE_NO":"９號","E_COORD97":166706.92000000001,"N_COORD97":2541506.5499999998,"ADDRESS":"新興路５３３巷６１弄９號","OBJECTID":177076},"geometry":{"x":166706.92000000086,"y":2541506.5500000026}},{"attributes":{"ID":177078,"DIS_CODE":0,"TOWNNAME":"南區","LI":"光明里","LIN":"9鄰","STREET":"新興路","SECT":" ","MAREA":" ","LANE":"５３３巷","ALLEY":"６１弄","HOUSE_NO":"１０號","E_COORD97":166693.84,"N_COORD97":2541482.4500000002,"ADDRESS":"新興路５３３巷６１弄１０號","OBJECTID":177077},"geometry":{"x":166693.84000000078,"y":2541482.4500000011}},{"attributes":{"ID":177079,"DIS_CODE":0,"TOWNNAME":"南區","LI":"光明里","LIN":"9鄰","STREET":"新興路","SECT":" ","MAREA":" ","LANE":"５３３巷","ALLEY":"６１弄","HOUSE_NO":"１１號","E_COORD97":166711.10000000001,"N_COORD97":2541507.6200000001,"ADDRESS":"新興路５３３巷６１弄１１號","OBJECTID":177078},"geometry":{"x":166711.10000000056,"y":2541507.620000001}},{"attributes":{"ID":177080,"DIS_CODE":0,"TOWNNAME":"南區","LI":"新興里","LIN":"10鄰","STREET":"夏林路","SECT":" ","MAREA":" ","LANE":" ","ALLEY":" ","HOUSE_NO":"１６５號","E_COORD97":167501.72,"N_COORD97":2542309.1600000001,"ADDRESS":"夏林路１６５號","OBJECTID":177079},"geometry":{"x":167501.72000000067,"y":2542309.160000002}},{"attributes":{"ID":177081,"DIS_CODE":0,"TOWNNAME":"南區","LI":"新興里","LIN":"10鄰","STREET":"夏林路","SECT":" ","MAREA":" ","LANE":" ","ALLEY":" ","HOUSE_NO":"１６７號","E_COORD97":167501.39000000001,"N_COORD97":2542302.1600000001,"ADDRESS":"夏林路１６７號","OBJECTID":177080},"geometry":{"x":167501.38999999966,"y":2542302.160000002}},{"attributes":{"ID":177082,"DIS_CODE":0,"TOWNNAME":"南區","LI":"新興里","LIN":"10鄰","STREET":"夏林路","SECT":" ","MAREA":" ","LANE":" ","ALLEY":" ","HOUSE_NO":"１６９號","E_COORD97":167501.26999999999,"N_COORD97":2542295.6200000001,"ADDRESS":"夏林路１６９號","OBJECTID":177081},"geometry":{"x":167501.27000000048,"y":2542295.6200000048}},{"attributes":{"ID":177083,"DIS_CODE":0,"TOWNNAME":"東區","LI":"文聖里","LIN":"19鄰","STREET":"裕信二街","SECT":" ","MAREA":" ","LANE":" ","ALLEY":" ","HOUSE_NO":"１９號","E_COORD97":172699.29000000001,"N_COORD97":2542765.1299999999,"ADDRESS":"裕信二街１９號","OBJECTID":177082},"geometry":{"x":172699.29000000097,"y":2542765.1300000008}},{"attributes":{"ID":177084,"DIS_CODE":0,"TOWNNAME":"東區","LI":"關聖里","LIN":"19鄰","STREET":"裕信路","SECT":" ","MAREA":" ","LANE":" ","ALLEY":" ","HOUSE_NO":"２１６之１２號","E_COORD97":172533.67999999999,"N_COORD97":2542975.1000000001,"ADDRESS":"裕信路２１６之１２號","OBJECTID":177083},"geometry":{"x":172533.6799999997,"y":2542975.0999999996}},{"attributes":{"ID":177085,"DIS_CODE":0,"TOWNNAME":"東區","LI":"關聖里","LIN":"19鄰","STREET":"裕信路","SECT":" ","MAREA":" ","LANE":" ","ALLEY":" ","HOUSE_NO":"２１６之１５號","E_COORD97":172524.17999999999,"N_COORD97":2542975.4300000002,"ADDRESS":"裕信路２１６之１５號","OBJECTID":177084},"geometry":{"x":172524.1799999997,"y":2542975.4299999997}},{"attributes":{"ID":177086,"DIS_CODE":0,"TOWNNAME":"東區","LI":"關聖里","LIN":"19鄰","STREET":"裕信路","SECT":" ","MAREA":" ","LANE":" ","ALLEY":" ","HOUSE_NO":"２１６之１３號","E_COORD97":172528.92999999999,"N_COORD97":2542975.2599999998,"ADDRESS":"裕信路２１６之１３號","OBJECTID":177085},"geometry":{"x":172528.9299999997,"y":2542975.2600000016}},{"attributes":{"ID":177087,"DIS_CODE":0,"TOWNNAME":"東區","LI":"關聖里","LIN":"19鄰","STREET":"裕信路","SECT":" ","MAREA":" ","LANE":" ","ALLEY":" ","HOUSE_NO":"２１６之１號","E_COORD97":172584.76000000001,"N_COORD97":2542974.1200000001,"ADDRESS":"裕信路２１６之１號","OBJECTID":177086},"geometry":{"x":172584.75999999885,"y":2542974.1200000029}},{"attributes":{"ID":177088,"DIS_CODE":0,"TOWNNAME":"東區","LI":"關聖里","LIN":"19鄰","STREET":"裕信路","SECT":" ","MAREA":" ","LANE":" ","ALLEY":" ","HOUSE_NO":"２１６之２號","E_COORD97":172580.17999999999,"N_COORD97":2542974.2799999998,"ADDRESS":"裕信路２１６之２號","OBJECTID":177087},"geometry":{"x":172580.17999999877,"y":2542974.2800000031}},{"attributes":{"ID":177089,"DIS_CODE":0,"TOWNNAME":"南區","LI":"光明里","LIN":"9鄰","STREET":"新興路","SECT":" ","MAREA":" ","LANE":"５３３巷","ALLEY":"６１弄","HOUSE_NO":"１２號","E_COORD97":166697.81,"N_COORD97":2541480.9500000002,"ADDRESS":"新興路５３３巷６１弄１２號","OBJECTID":177088},"geometry":{"x":166697.81000000052,"y":2541480.950000003}},{"attributes":{"ID":177090,"DIS_CODE":0,"TOWNNAME":"南區","LI":"光明里","LIN":"9鄰","STREET":"新興路","SECT":" ","MAREA":" ","LANE":"５３３巷","ALLEY":"６１弄","HOUSE_NO":"１４號","E_COORD97":166701.88,"N_COORD97":2541482.5600000001,"ADDRESS":"新興路５３３巷６１弄１４號","OBJECTID":177089},"geometry":{"x":166701.88000000175,"y":2541482.5600000024}},{"attributes":{"ID":177091,"DIS_CODE":0,"TOWNNAME":"南區","LI":"光明里","LIN":"9鄰","STREET":"新興路","SECT":" ","MAREA":" ","LANE":"５３３巷","ALLEY":"６１弄","HOUSE_NO":"１６號","E_COORD97":166705.95999999999,"N_COORD97":2541481.27,"ADDRESS":"新興路５３３巷６１弄１６號","OBJECTID":177090},"geometry":{"x":166705.95999999996,"y":2541481.2699999996}},{"attributes":{"ID":177092,"DIS_CODE":0,"TOWNNAME":"南區","LI":"光明里","LIN":"9鄰","STREET":"新興路","SECT":" ","MAREA":" ","LANE":"５３３巷","ALLEY":"６１弄","HOUSE_NO":"１８號","E_COORD97":166710.35000000001,"N_COORD97":2541482.6600000001,"ADDRESS":"新興路５３３巷６１弄１８號","OBJECTID":177091},"geometry":{"x":166710.35000000149,"y":2541482.6600000001}},{"attributes":{"ID":177093,"DIS_CODE":0,"TOWNNAME":"南區","LI":"光明里","LIN":"9鄰","STREET":"新興路","SECT":" ","MAREA":" ","LANE":"５３３巷","ALLEY":"６３弄","HOUSE_NO":"１號","E_COORD97":166677.32000000001,"N_COORD97":2541461.4500000002,"ADDRESS":"新興路５３３巷６３弄１號","OBJECTID":177092},"geometry":{"x":166677.32000000216,"y":2541461.4500000011}},{"attributes":{"ID":177094,"DIS_CODE":0,"TOWNNAME":"東山區","LI":"高原里","LIN":"11鄰","STREET":" ","SECT":" ","MAREA":"高原","LANE":" ","ALLEY":" ","HOUSE_NO":"９７號","E_COORD97":199735.73000000001,"N_COORD97":2575921.5099999998,"ADDRESS":"高原９７號","OBJECTID":177093},"geometry":{"x":199735.73000000045,"y":2575921.5100000016}},{"attributes":{"ID":177095,"DIS_CODE":0,"TOWNNAME":"南區","LI":"光明里","LIN":"9鄰","STREET":"新興路","SECT":" ","MAREA":" ","LANE":"５３３巷","ALLEY":"６３弄","HOUSE_NO":"２號","E_COORD97":166679.76000000001,"N_COORD97":2541434.1600000001,"ADDRESS":"新興路５３３巷６３弄２號","OBJECTID":177094},"geometry":{"x":166679.75999999978,"y":2541434.160000002}},{"attributes":{"ID":177096,"DIS_CODE":0,"TOWNNAME":"南區","LI":"光明里","LIN":" ","STREET":"鹽埕路","SECT":" ","MAREA":" ","LANE":"２９１巷","ALLEY":"１４弄","HOUSE_NO":"６３號","E_COORD97":166761.56,"N_COORD97":2541425.2400000002,"ADDRESS":"鹽埕路２９１巷１４弄６３號","OBJECTID":177095},"geometry":{"x":166761.56000000052,"y":2541425.2400000002}},{"attributes":{"ID":177097,"DIS_CODE":0,"TOWNNAME":"南區","LI":"光明里","LIN":" ","STREET":"鹽埕路","SECT":" ","MAREA":" ","LANE":"２９１巷","ALLEY":"１４弄","HOUSE_NO":"６５號","E_COORD97":166756.98000000001,"N_COORD97":2541426.54,"ADDRESS":"鹽埕路２９１巷１４弄６５號","OBJECTID":177096},"geometry":{"x":166756.98000000045,"y":2541426.540000001}},{"attributes":{"ID":177098,"DIS_CODE":0,"TOWNNAME":"南區","LI":"光明里","LIN":" ","STREET":"鹽埕路","SECT":" ","MAREA":" ","LANE":"２９１巷","ALLEY":"１４弄","HOUSE_NO":"６７號","E_COORD97":166753.06,"N_COORD97":2541427.46,"ADDRESS":"鹽埕路２９１巷１４弄６７號","OBJECTID":177097},"geometry":{"x":166753.06000000052,"y":2541427.4600000009}},{"attributes":{"ID":177099,"DIS_CODE":0,"TOWNNAME":"南區","LI":"光明里","LIN":" ","STREET":"鹽埕路","SECT":" ","MAREA":" ","LANE":"２９１巷","ALLEY":"１４弄","HOUSE_NO":"６９號","E_COORD97":166748.48999999999,"N_COORD97":2541428.7599999998,"ADDRESS":"鹽埕路２９１巷１４弄６９號","OBJECTID":177098},"geometry":{"x":166748.49000000022,"y":2541428.7600000035}},{"attributes":{"ID":177100,"DIS_CODE":0,"TOWNNAME":"南區","LI":"光明里","LIN":" ","STREET":"鹽埕路","SECT":" ","MAREA":" ","LANE":"２９１巷","ALLEY":"１４弄","HOUSE_NO":"７１號","E_COORD97":166743.92000000001,"N_COORD97":2541429.6800000002,"ADDRESS":"鹽埕路２９１巷１４弄７１號","OBJECTID":177099},"geometry":{"x":166743.91999999899,"y":2541429.6800000016}},{"attributes":{"ID":177101,"DIS_CODE":0,"TOWNNAME":"南區","LI":"光明里","LIN":" ","STREET":"鹽埕路","SECT":" ","MAREA":" ","LANE":"２９１巷","ALLEY":"１４弄","HOUSE_NO":"９１號","E_COORD97":166747.45000000001,"N_COORD97":2541453.2999999998,"ADDRESS":"鹽埕路２９１巷１４弄９１號","OBJECTID":177100},"geometry":{"x":166747.45000000205,"y":2541453.3000000045}},{"attributes":{"ID":177102,"DIS_CODE":0,"TOWNNAME":"南區","LI":"光明里","LIN":" ","STREET":"鹽埕路","SECT":" ","MAREA":" ","LANE":"２９１巷","ALLEY":"１４弄","HOUSE_NO":"９３號","E_COORD97":166750.97,"N_COORD97":2541451.2200000002,"ADDRESS":"鹽埕路２９１巷１４弄９３號","OBJECTID":177101},"geometry":{"x":166750.97000000067,"y":2541451.2200000025}},{"attributes":{"ID":177103,"DIS_CODE":0,"TOWNNAME":"南區","LI":"光明里","LIN":" ","STREET":"鹽埕路","SECT":" ","MAREA":" ","LANE":"２９１巷","ALLEY":"１４弄","HOUSE_NO":"１０３號","E_COORD97":166773.17999999999,"N_COORD97":2541444.4300000002,"ADDRESS":"鹽埕路２９１巷１４弄１０３號","OBJECTID":177102},"geometry":{"x":166773.18000000063,"y":2541444.4300000034}},{"attributes":{"ID":177104,"DIS_CODE":0,"TOWNNAME":"南區","LI":"光明里","LIN":" ","STREET":"鹽埕路","SECT":" ","MAREA":" ","LANE":"２９１巷","ALLEY":"１４弄","HOUSE_NO":"１０５號","E_COORD97":166781.42000000001,"N_COORD97":2541439.21,"ADDRESS":"鹽埕路２９１巷１４弄１０５號","OBJECTID":177103},"geometry":{"x":166781.42000000179,"y":2541439.2100000009}},{"attributes":{"ID":177105,"DIS_CODE":0,"TOWNNAME":"南區","LI":"光明里","LIN":" ","STREET":"鹽埕路","SECT":" ","MAREA":" ","LANE":"２９１巷","ALLEY":"１４弄","HOUSE_NO":"１０７號","E_COORD97":166783.10999999999,"N_COORD97":2541443.7799999998,"ADDRESS":"鹽埕路２９１巷１４弄１０７號","OBJECTID":177104},"geometry":{"x":166783.11000000034,"y":2541443.7799999993}},{"attributes":{"ID":177106,"DIS_CODE":0,"TOWNNAME":"南區","LI":"光明里","LIN":" ","STREET":"鹽埕路","SECT":" ","MAREA":" ","LANE":"２９１巷","ALLEY":"１４弄","HOUSE_NO":"１０９號","E_COORD97":166784.29000000001,"N_COORD97":2541448.8700000001,"ADDRESS":"鹽埕路２９１巷１４弄１０９號","OBJECTID":177105},"geometry":{"x":166784.29000000097,"y":2541448.870000001}},{"attributes":{"ID":177107,"DIS_CODE":0,"TOWNNAME":"南區","LI":"光明里","LIN":" ","STREET":"鹽埕路","SECT":" ","MAREA":" ","LANE":"２９１巷","ALLEY":"１４弄","HOUSE_NO":"１２９號","E_COORD97":166753.45999999999,"N_COORD97":2541469.8799999999,"ADDRESS":"鹽埕路２９１巷１４弄１２９號","OBJECTID":177106},"geometry":{"x":166753.45999999996,"y":2541469.879999999}},{"attributes":{"ID":177108,"DIS_CODE":0,"TOWNNAME":"南區","LI":"光明里","LIN":" ","STREET":"鹽埕路","SECT":" ","MAREA":" ","LANE":"２９１巷","ALLEY":"１４弄","HOUSE_NO":"１３１號","E_COORD97":166748.75,"N_COORD97":2541471.3199999998,"ADDRESS":"鹽埕路２９１巷１４弄１３１號","OBJECTID":177107},"geometry":{"x":166748.75000000186,"y":2541471.3200000003}},{"attributes":{"ID":177109,"DIS_CODE":0,"TOWNNAME":"安平區","LI":"怡平里","LIN":"10鄰","STREET":"永華六街","SECT":" ","MAREA":" ","LANE":" ","ALLEY":" ","HOUSE_NO":"１９６號之２","E_COORD97":165675.17000000001,"N_COORD97":2544070.5899999999,"ADDRESS":"永華六街１９６號之２","OBJECTID":177108},"geometry":{"x":165675.17000000086,"y":2544070.5899999999}},{"attributes":{"ID":177110,"DIS_CODE":0,"TOWNNAME":"南區","LI":"光明里","LIN":" ","STREET":"鹽埕路","SECT":" ","MAREA":" ","LANE":"２９１巷","ALLEY":"１４弄","HOUSE_NO":"１３３號","E_COORD97":166744.57000000001,"N_COORD97":2541473.6699999999,"ADDRESS":"鹽埕路２９１巷１４弄１３３號","OBJECTID":177109},"geometry":{"x":166744.5700000003,"y":2541473.6700000037}},{"attributes":{"ID":177111,"DIS_CODE":0,"TOWNNAME":"南區","LI":"光明里","LIN":" ","STREET":"鹽埕路","SECT":" ","MAREA":" ","LANE":"２９１巷","ALLEY":"１４弄","HOUSE_NO":"１３５號","E_COORD97":166740.51999999999,"N_COORD97":2541475.4900000002,"ADDRESS":"鹽埕路２９１巷１４弄１３５號","OBJECTID":177110},"geometry":{"x":166740.51999999955,"y":2541475.4900000021}},{"attributes":{"ID":177112,"DIS_CODE":0,"TOWNNAME":"南區","LI":"光明里","LIN":" ","STREET":"鹽埕路","SECT":" ","MAREA":" ","LANE":"２９１巷","ALLEY":"１４弄","HOUSE_NO":"１３７號","E_COORD97":166736.34,"N_COORD97":2541477.5800000001,"ADDRESS":"鹽埕路２９１巷１４弄１３７號","OBJECTID":177111},"geometry":{"x":166736.34000000078,"y":2541477.5800000038}},{"attributes":{"ID":177113,"DIS_CODE":0,"TOWNNAME":"南區","LI":"光明里","LIN":" ","STREET":"鹽埕路","SECT":" ","MAREA":" ","LANE":"２９１巷","ALLEY":"１４弄","HOUSE_NO":"１３９號","E_COORD97":166727.59,"N_COORD97":2541480.3199999998,"ADDRESS":"鹽埕路２９１巷１４弄１３９號","OBJECTID":177112},"geometry":{"x":166727.59000000171,"y":2541480.3200000022}},{"attributes":{"ID":177114,"DIS_CODE":0,"TOWNNAME":"南區","LI":"光明里","LIN":" ","STREET":"鹽埕路","SECT":" ","MAREA":" ","LANE":"２９１巷","ALLEY":"１４弄","HOUSE_NO":"１４３號","E_COORD97":166725.48000000001,"N_COORD97":2541506.6899999999,"ADDRESS":"鹽埕路２９１巷１４弄１４３號","OBJECTID":177113},"geometry":{"x":166725.48000000231,"y":2541506.6900000032}},{"attributes":{"ID":177115,"DIS_CODE":0,"TOWNNAME":"南區","LI":"光明里","LIN":" ","STREET":"鹽埕路","SECT":" ","MAREA":" ","LANE":"２９１巷","ALLEY":"１４弄","HOUSE_NO":"１４７號","E_COORD97":166735.62,"N_COORD97":2541502.0899999999,"ADDRESS":"鹽埕路２９１巷１４弄１４７號","OBJECTID":177114},"geometry":{"x":166735.62000000011,"y":2541502.0900000017}},{"attributes":{"ID":177116,"DIS_CODE":0,"TOWNNAME":"南區","LI":"光明里","LIN":" ","STREET":"鹽埕路","SECT":" ","MAREA":" ","LANE":"２９１巷","ALLEY":"１４弄","HOUSE_NO":"１５１號","E_COORD97":166743.38,"N_COORD97":2541498.1400000001,"ADDRESS":"鹽埕路２９１巷１４弄１５１號","OBJECTID":177115},"geometry":{"x":166743.38000000082,"y":2541498.1400000043}},{"attributes":{"ID":177117,"DIS_CODE":0,"TOWNNAME":"南區","LI":"光明里","LIN":" ","STREET":"鹽埕路","SECT":" ","MAREA":" ","LANE":"２９１巷","ALLEY":"１４弄","HOUSE_NO":"１５３號","E_COORD97":166748.38,"N_COORD97":2541496.6899999999,"ADDRESS":"鹽埕路２９１巷１４弄１５３號","OBJECTID":177116},"geometry":{"x":166748.38000000082,"y":2541496.6900000032}},{"attributes":{"ID":177118,"DIS_CODE":0,"TOWNNAME":"南區","LI":"光明里","LIN":" ","STREET":"鹽埕路","SECT":" ","MAREA":" ","LANE":"２９１巷","ALLEY":"１４弄","HOUSE_NO":"１５７號","E_COORD97":166756.94,"N_COORD97":2541493.7999999998,"ADDRESS":"鹽埕路２９１巷１４弄１５７號","OBJECTID":177117},"geometry":{"x":166756.94000000134,"y":2541493.8000000045}},{"attributes":{"ID":177119,"DIS_CODE":0,"TOWNNAME":"南區","LI":"光明里","LIN":" ","STREET":"鹽埕路","SECT":" ","MAREA":" ","LANE":"２９１巷","ALLEY":"１４弄","HOUSE_NO":"１５９號","E_COORD97":166761.35000000001,"N_COORD97":2541492.0600000001,"ADDRESS":"鹽埕路２９１巷１４弄１５９號","OBJECTID":177118},"geometry":{"x":166761.35000000056,"y":2541492.0600000024}},{"attributes":{"ID":177120,"DIS_CODE":0,"TOWNNAME":"南區","LI":"光明里","LIN":" ","STREET":"鹽埕路","SECT":" ","MAREA":" ","LANE":"２９１巷","ALLEY":"１４弄","HOUSE_NO":"５１號","E_COORD97":166768.48000000001,"N_COORD97":2541405.5299999998,"ADDRESS":"鹽埕路２９１巷１４弄５１號","OBJECTID":177119},"geometry":{"x":166768.48000000138,"y":2541405.5299999993}},{"attributes":{"ID":177121,"DIS_CODE":0,"TOWNNAME":"南區","LI":"光明里","LIN":" ","STREET":"鹽埕路","SECT":" ","MAREA":" ","LANE":"２９１巷","ALLEY":"１４弄","HOUSE_NO":"５３號","E_COORD97":166770.31,"N_COORD97":2541410.1000000001,"ADDRESS":"鹽埕路２９１巷１４弄５３號","OBJECTID":177120},"geometry":{"x":166770.31000000052,"y":2541410.1000000015}},{"attributes":{"ID":177122,"DIS_CODE":0,"TOWNNAME":"南區","LI":"光明里","LIN":" ","STREET":"鹽埕路","SECT":" ","MAREA":" ","LANE":"２９１巷","ALLEY":"１４弄","HOUSE_NO":"５７號","E_COORD97":166773.45000000001,"N_COORD97":2541419.4900000002,"ADDRESS":"鹽埕路２９１巷１４弄５７號","OBJECTID":177121},"geometry":{"x":166773.45000000112,"y":2541419.4900000002}},{"attributes":{"ID":177123,"DIS_CODE":0,"TOWNNAME":"南區","LI":"光明里","LIN":" ","STREET":"鹽埕路","SECT":" ","MAREA":" ","LANE":"２９１巷","ALLEY":"１４弄","HOUSE_NO":"５９號","E_COORD97":166774.23000000001,"N_COORD97":2541423.9300000002,"ADDRESS":"鹽埕路２９１巷１４弄５９號","OBJECTID":177122},"geometry":{"x":166774.23000000045,"y":2541423.9300000034}},{"attributes":{"ID":177124,"DIS_CODE":0,"TOWNNAME":"歸仁區","LI":"新厝里","LIN":"3鄰","STREET":"中正一街","SECT":" ","MAREA":" ","LANE":" ","ALLEY":" ","HOUSE_NO":"７２號","E_COORD97":177782.19080000001,"N_COORD97":2540685.51669,"ADDRESS":"中正一街７２號","OBJECTID":177123},"geometry":{"x":177782.19080000091,"y":2540685.5166940019}},{"attributes":{"ID":177125,"DIS_CODE":0,"TOWNNAME":"南區","LI":"光明里","LIN":" ","STREET":"鹽埕路","SECT":" ","MAREA":" ","LANE":"２９１巷","ALLEY":"１４弄","HOUSE_NO":"６１號","E_COORD97":166775.79999999999,"N_COORD97":2541428.3700000001,"ADDRESS":"鹽埕路２９１巷１４弄６１號","OBJECTID":177124},"geometry":{"x":166775.80000000075,"y":2541428.370000001}},{"attributes":{"ID":177126,"DIS_CODE":0,"TOWNNAME":"南區","LI":"光明里","LIN":" ","STREET":"鹽埕路","SECT":" ","MAREA":" ","LANE":"２９１巷","ALLEY":"１４弄","HOUSE_NO":"６２號","E_COORD97":166799.97,"N_COORD97":2541402.25,"ADDRESS":"鹽埕路２９１巷１４弄６２號","OBJECTID":177125},"geometry":{"x":166799.97000000067,"y":2541402.2500000019}},{"attributes":{"ID":177127,"DIS_CODE":0,"TOWNNAME":"南區","LI":"光明里","LIN":" ","STREET":"鹽埕路","SECT":" ","MAREA":" ","LANE":"２９１巷","ALLEY":"１４弄","HOUSE_NO":"６４號","E_COORD97":166803.63,"N_COORD97":2541400.5600000001,"ADDRESS":"鹽埕路２９１巷１４弄６４號","OBJECTID":177126},"geometry":{"x":166803.63000000175,"y":2541400.5600000024}},{"attributes":{"ID":177128,"DIS_CODE":0,"TOWNNAME":"南區","LI":"光明里","LIN":" ","STREET":"鹽埕路","SECT":" ","MAREA":" ","LANE":"２９１巷","ALLEY":"１４弄","HOUSE_NO":"６６號","E_COORD97":166807.94,"N_COORD97":2541401.73,"ADDRESS":"鹽埕路２９１巷１４弄６６號","OBJECTID":177127},"geometry":{"x":166807.94000000134,"y":2541401.7300000004}},{"attributes":{"ID":177129,"DIS_CODE":0,"TOWNNAME":"歸仁區","LI":"新厝里","LIN":"10鄰","STREET":"公園十街","SECT":" ","MAREA":" ","LANE":" ","ALLEY":" ","HOUSE_NO":"４６號","E_COORD97":177689.14999999999,"N_COORD97":2540544.9300000002,"ADDRESS":"公園十街４６號","OBJECTID":177128},"geometry":{"x":177689.1500000013,"y":2540544.9299999997}},{"attributes":{"ID":177130,"DIS_CODE":0,"TOWNNAME":"歸仁區","LI":"南興里","LIN":"10鄰","STREET":"文化十六街","SECT":" ","MAREA":" ","LANE":" ","ALLEY":" ","HOUSE_NO":"４１號","E_COORD97":176023.39000000001,"N_COORD97":2541294.3300000001,"ADDRESS":"文化十六街４１號","OBJECTID":177129},"geometry":{"x":176023.39000000153,"y":2541294.3300000019}},{"attributes":{"ID":177131,"DIS_CODE":0,"TOWNNAME":"南區","LI":"光明里","LIN":" ","STREET":"鹽埕路","SECT":" ","MAREA":" ","LANE":"２９１巷","ALLEY":"１４弄","HOUSE_NO":"６８號","E_COORD97":166811.34,"N_COORD97":2541398.3399999999,"ADDRESS":"鹽埕路２９１巷１４弄６８號","OBJECTID":177130},"geometry":{"x":166811.34000000078,"y":2541398.3400000017}},{"attributes":{"ID":177132,"DIS_CODE":0,"TOWNNAME":"南區","LI":"光明里","LIN":" ","STREET":"鹽埕路","SECT":" ","MAREA":" ","LANE":"２９１巷","ALLEY":"１４弄","HOUSE_NO":"７０號","E_COORD97":166815,"N_COORD97":2541396.6400000001,"ADDRESS":"鹽埕路２９１巷１４弄７０號","OBJECTID":177131},"geometry":{"x":166815.00000000093,"y":2541396.6400000043}},{"attributes":{"ID":177133,"DIS_CODE":0,"TOWNNAME":"南區","LI":"光明里","LIN":" ","STREET":"鹽埕路","SECT":" ","MAREA":" ","LANE":"２９１巷","ALLEY":"１４弄","HOUSE_NO":"７２號","E_COORD97":166819.57000000001,"N_COORD97":2541396.6400000001,"ADDRESS":"鹽埕路２９１巷１４弄７２號","OBJECTID":177132},"geometry":{"x":166819.56999999937,"y":2541396.6400000043}},{"attributes":{"ID":177134,"DIS_CODE":0,"TOWNNAME":"南區","LI":"光明里","LIN":" ","STREET":"鹽埕路","SECT":" ","MAREA":" ","LANE":"２９１巷","ALLEY":"１４弄","HOUSE_NO":"７４號","E_COORD97":166823.23000000001,"N_COORD97":2541394.8100000001,"ADDRESS":"鹽埕路２９１巷１４弄７４號","OBJECTID":177133},"geometry":{"x":166823.23000000045,"y":2541394.8100000005}},{"attributes":{"ID":177135,"DIS_CODE":0,"TOWNNAME":"南區","LI":"光明里","LIN":" ","STREET":"鹽埕路","SECT":" ","MAREA":" ","LANE":"２９１巷","ALLEY":"１４弄","HOUSE_NO":"５６號","E_COORD97":166790.69,"N_COORD97":2541402.1200000001,"ADDRESS":"鹽埕路２９１巷１４弄５６號","OBJECTID":177134},"geometry":{"x":166790.69000000134,"y":2541402.120000001}},{"attributes":{"ID":177136,"DIS_CODE":0,"TOWNNAME":"南區","LI":"光明里","LIN":" ","STREET":"鹽埕路","SECT":" ","MAREA":" ","LANE":"２９１巷","ALLEY":"１４弄","HOUSE_NO":"５８號","E_COORD97":166791.73999999999,"N_COORD97":2541406.2999999998,"ADDRESS":"鹽埕路２９１巷１４弄５８號","OBJECTID":177135},"geometry":{"x":166791.74000000115,"y":2541406.3000000026}},{"attributes":{"ID":177137,"DIS_CODE":0,"TOWNNAME":"南區","LI":"光明里","LIN":" ","STREET":"鹽埕路","SECT":" ","MAREA":" ","LANE":"２９１巷","ALLEY":"１４弄","HOUSE_NO":"６０號","E_COORD97":166792.39000000001,"N_COORD97":2541410.0899999999,"ADDRESS":"鹽埕路２９１巷１４弄６０號","OBJECTID":177136},"geometry":{"x":166792.38999999966,"y":2541410.0900000017}},{"attributes":{"ID":177138,"DIS_CODE":0,"TOWNNAME":"南區","LI":"光明里","LIN":" ","STREET":"鹽埕路","SECT":" ","MAREA":" ","LANE":"２９１巷","ALLEY":"１４弄","HOUSE_NO":"１號","E_COORD97":166755.25,"N_COORD97":2541371.9199999999,"ADDRESS":"鹽埕路２９１巷１４弄１號","OBJECTID":177137},"geometry":{"x":166755.25,"y":2541371.9199999999}},{"attributes":{"ID":177139,"DIS_CODE":0,"TOWNNAME":"南區","LI":"光明里","LIN":" ","STREET":"鹽埕路","SECT":" ","MAREA":" ","LANE":"２９１巷","ALLEY":"１４弄","HOUSE_NO":"３號","E_COORD97":166758.04000000001,"N_COORD97":2541376.25,"ADDRESS":"鹽埕路２９１巷１４弄３號","OBJECTID":177138},"geometry":{"x":166758.04000000004,"y":2541376.2500000019}},{"attributes":{"ID":177140,"DIS_CODE":0,"TOWNNAME":"南區","LI":"光明里","LIN":" ","STREET":"鹽埕路","SECT":" ","MAREA":" ","LANE":"２９１巷","ALLEY":"１４弄","HOUSE_NO":"５號","E_COORD97":166760.14999999999,"N_COORD97":2541379.8999999999,"ADDRESS":"鹽埕路２９１巷１４弄５號","OBJECTID":177139},"geometry":{"x":166760.1500000013,"y":2541379.9000000004}},{"attributes":{"ID":177141,"DIS_CODE":0,"TOWNNAME":"南區","LI":"光明里","LIN":" ","STREET":"鹽埕路","SECT":" ","MAREA":" ","LANE":"２９１巷","ALLEY":"１４弄","HOUSE_NO":"６號","E_COORD97":166773.44,"N_COORD97":2541355.3999999999,"ADDRESS":"鹽埕路２９１巷１４弄６號","OBJECTID":177140},"geometry":{"x":166773.44000000134,"y":2541355.4000000004}},{"attributes":{"ID":177142,"DIS_CODE":0,"TOWNNAME":"南區","LI":"光明里","LIN":" ","STREET":"鹽埕路","SECT":" ","MAREA":" ","LANE":"２９１巷","ALLEY":"１４弄","HOUSE_NO":"８號","E_COORD97":166774.88,"N_COORD97":2541359.7200000002,"ADDRESS":"鹽埕路２９１巷１４弄８號","OBJECTID":177141},"geometry":{"x":166774.88000000175,"y":2541359.7200000025}},{"attributes":{"ID":177143,"DIS_CODE":0,"TOWNNAME":"南區","LI":"光明里","LIN":" ","STREET":"鹽埕路","SECT":" ","MAREA":" ","LANE":"２９１巷","ALLEY":"１４弄","HOUSE_NO":"１０號","E_COORD97":166775.85000000001,"N_COORD97":2541362.9900000002,"ADDRESS":"鹽埕路２９１巷１４弄１０號","OBJECTID":177142},"geometry":{"x":166775.84999999963,"y":2541362.9900000039}},{"attributes":{"ID":177144,"DIS_CODE":0,"TOWNNAME":"歸仁區","LI":"看西里","LIN":"10鄰","STREET":"仁愛南街","SECT":" ","MAREA":" ","LANE":" ","ALLEY":" ","HOUSE_NO":"２０５號","E_COORD97":178286.689472,"N_COORD97":2540210.3484800002,"ADDRESS":"仁愛南街２０５號","OBJECTID":177143},"geometry":{"x":178286.68947200011,"y":2540210.348476002}},{"attributes":{"ID":177145,"DIS_CODE":0,"TOWNNAME":"南區","LI":"光明里","LIN":" ","STREET":"鹽埕路","SECT":" ","MAREA":" ","LANE":"２９１巷","ALLEY":"１４弄","HOUSE_NO":"１２號","E_COORD97":166776.89999999999,"N_COORD97":2541367.1200000001,"ADDRESS":"鹽埕路２９１巷１４弄１２號","OBJECTID":177144},"geometry":{"x":166776.90000000224,"y":2541367.1200000029}},{"attributes":{"ID":177146,"DIS_CODE":0,"TOWNNAME":"歸仁區","LI":"南興里","LIN":"10鄰","STREET":"文化十六街","SECT":" ","MAREA":" ","LANE":" ","ALLEY":" ","HOUSE_NO":"４５號","E_COORD97":176023.39000000001,"N_COORD97":2541303.3300000001,"ADDRESS":"文化十六街４５號","OBJECTID":177145},"geometry":{"x":176023.39000000153,"y":2541303.3300000019}},{"attributes":{"ID":177147,"DIS_CODE":0,"TOWNNAME":"玉井區","LI":"玉井里","LIN":"10鄰","STREET":"富強街","SECT":" ","MAREA":" ","LANE":" ","ALLEY":" ","HOUSE_NO":"６５號","E_COORD97":194779.62,"N_COORD97":2558231.25,"ADDRESS":"富強街６５號","OBJECTID":177146},"geometry":{"x":194779.62000000197,"y":2558231.25}},{"attributes":{"ID":177148,"DIS_CODE":0,"TOWNNAME":"玉井區","LI":"三和里","LIN":"10鄰","STREET":" ","SECT":" ","MAREA":"三和","LANE":" ","ALLEY":" ","HOUSE_NO":"１１７之１號","E_COORD97":195983.38,"N_COORD97":2555011.2999999998,"ADDRESS":"三和１１７之１號","OBJECTID":177147},"geometry":{"x":195983.38000000082,"y":2555011.3000000045}},{"attributes":{"ID":177149,"DIS_CODE":0,"TOWNNAME":"玉井區","LI":"竹圍里","LIN":"10鄰","STREET":"武成街","SECT":" ","MAREA":" ","LANE":" ","ALLEY":" ","HOUSE_NO":"１０５號","E_COORD97":196127.95000000001,"N_COORD97":2559022.1600000001,"ADDRESS":"武成街１０５號","OBJECTID":177148},"geometry":{"x":196127.95000000019,"y":2559022.1599999983}},{"attributes":{"ID":177150,"DIS_CODE":0,"TOWNNAME":"玉井區","LI":"望明里","LIN":"10鄰","STREET":" ","SECT":" ","MAREA":"望明","LANE":" ","ALLEY":" ","HOUSE_NO":"１０３之５號","E_COORD97":192974.88,"N_COORD97":2555229.2999999998,"ADDRESS":"望明１０３之５號","OBJECTID":177149},"geometry":{"x":192974.87999999989,"y":2555229.3000000026}},{"attributes":{"ID":177151,"DIS_CODE":0,"TOWNNAME":"南區","LI":"光明里","LIN":" ","STREET":"鹽埕路","SECT":" ","MAREA":" ","LANE":"２９１巷","ALLEY":"１４弄","HOUSE_NO":"１４號","E_COORD97":166777.76999999999,"N_COORD97":2541370.48,"ADDRESS":"鹽埕路２９１巷１４弄１４號","OBJECTID":177150},"geometry":{"x":166777.76999999955,"y":2541370.4800000023}},{"attributes":{"ID":177152,"DIS_CODE":0,"TOWNNAME":"玉井區","LI":"望明里","LIN":"10鄰","STREET":" ","SECT":" ","MAREA":"望明","LANE":" ","ALLEY":" ","HOUSE_NO":"１０８號","E_COORD97":192946.09,"N_COORD97":2555306.2400000002,"ADDRESS":"望明１０８號","OBJECTID":177151},"geometry":{"x":192946.09000000078,"y":2555306.2400000039}},{"attributes":{"ID":177153,"DIS_CODE":0,"TOWNNAME":"玉井區","LI":"中正里","LIN":"10鄰","STREET":"中正路","SECT":" ","MAREA":" ","LANE":" ","ALLEY":" ","HOUSE_NO":"６４１號","E_COORD97":195776.26000000001,"N_COORD97":2558929.2400000002,"ADDRESS":"中正路６４１號","OBJECTID":177152},"geometry":{"x":195776.25999999978,"y":2558929.2400000002}},{"attributes":{"ID":177154,"DIS_CODE":0,"TOWNNAME":"玉井區","LI":"望明里","LIN":"10鄰","STREET":" ","SECT":" ","MAREA":"望明","LANE":" ","ALLEY":" ","HOUSE_NO":"１００之１號","E_COORD97":192993.17999999999,"N_COORD97":2555266.29,"ADDRESS":"望明１００之１號","OBJECTID":177153},"geometry":{"x":192993.1799999997,"y":2555266.2899999991}},{"attributes":{"ID":177155,"DIS_CODE":0,"TOWNNAME":"玉井區","LI":"望明里","LIN":"10鄰","STREET":" ","SECT":" ","MAREA":"望明","LANE":" ","ALLEY":" ","HOUSE_NO":"１０２之２號","E_COORD97":192982.59,"N_COORD97":2555262.29,"ADDRESS":"望明１０２之２號","OBJECTID":177154},"geometry":{"x":192982.59000000171,"y":2555262.2899999991}},{"attributes":{"ID":177156,"DIS_CODE":0,"TOWNNAME":"玉井區","LI":"玉井里","LIN":"10鄰","STREET":"民生路","SECT":" ","MAREA":" ","LANE":" ","ALLEY":" ","HOUSE_NO":"２１號","E_COORD97":194755.23999999999,"N_COORD97":2558241.29,"ADDRESS":"民生路２１號","OBJECTID":177155},"geometry":{"x":194755.24000000209,"y":2558241.290000001}},{"attributes":{"ID":177157,"DIS_CODE":0,"TOWNNAME":"玉井區","LI":"望明里","LIN":"10鄰","STREET":" ","SECT":" ","MAREA":"望明","LANE":" ","ALLEY":" ","HOUSE_NO":"１１１之５號","E_COORD97":193228.17999999999,"N_COORD97":2555595.29,"ADDRESS":"望明１１１之５號","OBJECTID":177156},"geometry":{"x":193228.18000000063,"y":2555595.2899999991}},{"attributes":{"ID":177158,"DIS_CODE":0,"TOWNNAME":"玉井區","LI":"望明里","LIN":"10鄰","STREET":" ","SECT":" ","MAREA":"望明","LANE":" ","ALLEY":" ","HOUSE_NO":"１１０號","E_COORD97":193006.98000000001,"N_COORD97":2555359.25,"ADDRESS":"望明１１０號","OBJECTID":177157},"geometry":{"x":193006.98000000045,"y":2555359.25}},{"attributes":{"ID":177159,"DIS_CODE":0,"TOWNNAME":"玉井區","LI":"豐里里","LIN":"10鄰","STREET":" ","SECT":" ","MAREA":"豐里","LANE":" ","ALLEY":" ","HOUSE_NO":"１０２號","E_COORD97":193066.20999999999,"N_COORD97":2560245.2400000002,"ADDRESS":"豐里１０２號","OBJECTID":177158},"geometry":{"x":193066.20999999996,"y":2560245.2400000002}},{"attributes":{"ID":177160,"DIS_CODE":0,"TOWNNAME":"玉井區","LI":"豐里里","LIN":"10鄰","STREET":" ","SECT":" ","MAREA":"豐里","LANE":" ","ALLEY":" ","HOUSE_NO":"９６號之１","E_COORD97":192992.70000000001,"N_COORD97":2560211.2999999998,"ADDRESS":"豐里９６號之１","OBJECTID":177159},"geometry":{"x":192992.70000000112,"y":2560211.3000000007}},{"attributes":{"ID":177161,"DIS_CODE":0,"TOWNNAME":"南區","LI":"光明里","LIN":" ","STREET":"鹽埕路","SECT":" ","MAREA":" ","LANE":"２９１巷","ALLEY":"１４弄","HOUSE_NO":"１６號","E_COORD97":166779.39999999999,"N_COORD97":2541374.3300000001,"ADDRESS":"鹽埕路２９１巷１４弄１６號","OBJECTID":177160},"geometry":{"x":166779.40000000037,"y":2541374.3300000038}},{"attributes":{"ID":177162,"DIS_CODE":0,"TOWNNAME":"南區","LI":"光明里","LIN":" ","STREET":"鹽埕路","SECT":" ","MAREA":" ","LANE":"２９１巷","ALLEY":"１４弄","HOUSE_NO":"１８號","E_COORD97":166781.04000000001,"N_COORD97":2541378.1699999999,"ADDRESS":"鹽埕路２９１巷１４弄１８號","OBJECTID":177161},"geometry":{"x":166781.04000000097,"y":2541378.1699999999}},{"attributes":{"ID":177163,"DIS_CODE":0,"TOWNNAME":"南區","LI":"光明里","LIN":" ","STREET":"鹽埕路","SECT":" ","MAREA":" ","LANE":"２９１巷","ALLEY":"１４弄","HOUSE_NO":"２０號","E_COORD97":166782,"N_COORD97":2541382.2999999998,"ADDRESS":"鹽埕路２９１巷１４弄２０號","OBJECTID":177162},"geometry":{"x":166782,"y":2541382.3000000026}},{"attributes":{"ID":177164,"DIS_CODE":0,"TOWNNAME":"南區","LI":"光明里","LIN":" ","STREET":"鹽埕路","SECT":" ","MAREA":" ","LANE":"２９１巷","ALLEY":"１４弄","HOUSE_NO":"２２號","E_COORD97":166790.07999999999,"N_COORD97":2541374.4199999999,"ADDRESS":"鹽埕路２９１巷１４弄２２號","OBJECTID":177163},"geometry":{"x":166790.08000000007,"y":2541374.4200000018}},{"attributes":{"ID":177165,"DIS_CODE":0,"TOWNNAME":"南區","LI":"光明里","LIN":" ","STREET":"鹽埕路","SECT":" ","MAREA":" ","LANE":"２９１巷","ALLEY":"１４弄","HOUSE_NO":"２４號","E_COORD97":166794.5,"N_COORD97":2541372.79,"ADDRESS":"鹽埕路２９１巷１４弄２４號","OBJECTID":177164},"geometry":{"x":166794.50000000186,"y":2541372.7899999991}},{"attributes":{"ID":177166,"DIS_CODE":0,"TOWNNAME":"玉井區","LI":"層林里","LIN":"10鄰","STREET":" ","SECT":" ","MAREA":"層林","LANE":" ","ALLEY":" ","HOUSE_NO":"１１３之３號","E_COORD97":191572.51000000001,"N_COORD97":2552921.29,"ADDRESS":"層林１１３之３號","OBJECTID":177165},"geometry":{"x":191572.50999999978,"y":2552921.2900000028}},{"attributes":{"ID":177167,"DIS_CODE":0,"TOWNNAME":"玉井區","LI":"層林里","LIN":"10鄰","STREET":" ","SECT":" ","MAREA":"層林","LANE":" ","ALLEY":" ","HOUSE_NO":"１１６號","E_COORD97":191623.20999999999,"N_COORD97":2553050.25,"ADDRESS":"層林１１６號","OBJECTID":177166},"geometry":{"x":191623.21000000089,"y":2553050.25}},{"attributes":{"ID":177168,"DIS_CODE":0,"TOWNNAME":"玉井區","LI":"望明里","LIN":"10鄰","STREET":" ","SECT":" ","MAREA":"望明","LANE":" ","ALLEY":" ","HOUSE_NO":"１０８之１號","E_COORD97":192958.17999999999,"N_COORD97":2555282.29,"ADDRESS":"望明１０８之１號","OBJECTID":177167},"geometry":{"x":192958.18000000156,"y":2555282.290000001}},{"attributes":{"ID":177169,"DIS_CODE":0,"TOWNNAME":"玉井區","LI":"豐里里","LIN":"10鄰","STREET":" ","SECT":" ","MAREA":"豐里","LANE":" ","ALLEY":" ","HOUSE_NO":"９６號之３","E_COORD97":193003.29999999999,"N_COORD97":2560226.2999999998,"ADDRESS":"豐里９６號之３","OBJECTID":177168},"geometry":{"x":193003.30000000168,"y":2560226.3000000026}},{"attributes":{"ID":177170,"DIS_CODE":0,"TOWNNAME":"玉井區","LI":"層林里","LIN":"10鄰","STREET":" ","SECT":" ","MAREA":"層林","LANE":" ","ALLEY":" ","HOUSE_NO":"１０９之１號","E_COORD97":191580.62,"N_COORD97":2552842.2999999998,"ADDRESS":"層林１０９之１號","OBJECTID":177169},"geometry":{"x":191580.62000000011,"y":2552842.3000000026}},{"attributes":{"ID":177171,"DIS_CODE":0,"TOWNNAME":"玉井區","LI":"望明里","LIN":"10鄰","STREET":" ","SECT":" ","MAREA":"望明","LANE":" ","ALLEY":" ","HOUSE_NO":"１０７號","E_COORD97":192922.19,"N_COORD97":2555259.25,"ADDRESS":"望明１０７號","OBJECTID":177170},"geometry":{"x":192922.19000000134,"y":2555259.2500000019}},{"attributes":{"ID":177172,"DIS_CODE":0,"TOWNNAME":"玉井區","LI":"望明里","LIN":"10鄰","STREET":" ","SECT":" ","MAREA":"望明","LANE":" ","ALLEY":" ","HOUSE_NO":"１０１之３號","E_COORD97":192927.98000000001,"N_COORD97":2555194.29,"ADDRESS":"望明１０１之３號","OBJECTID":177171},"geometry":{"x":192927.97999999952,"y":2555194.290000001}},{"attributes":{"ID":177173,"DIS_CODE":0,"TOWNNAME":"玉井區","LI":"豐里里","LIN":"10鄰","STREET":" ","SECT":" ","MAREA":"豐里","LANE":" ","ALLEY":" ","HOUSE_NO":"９７號之１","E_COORD97":193045.09,"N_COORD97":2560236.29,"ADDRESS":"豐里９７號之１","OBJECTID":177172},"geometry":{"x":193045.08999999985,"y":2560236.2899999991}},{"attributes":{"ID":177174,"DIS_CODE":0,"TOWNNAME":"南區","LI":"光明里","LIN":" ","STREET":"鹽埕路","SECT":" ","MAREA":" ","LANE":"２９１巷","ALLEY":"１４弄","HOUSE_NO":"２６號","E_COORD97":166798.16,"N_COORD97":2541371.54,"ADDRESS":"鹽埕路２９１巷１４弄２６號","OBJECTID":177173},"geometry":{"x":166798.16000000015,"y":2541371.5399999972}},{"attributes":{"ID":177175,"DIS_CODE":0,"TOWNNAME":"南區","LI":"光明里","LIN":" ","STREET":"鹽埕路","SECT":" ","MAREA":" ","LANE":"２９１巷","ALLEY":"１４弄","HOUSE_NO":"２８號","E_COORD97":166801.72,"N_COORD97":2541370.3900000001,"ADDRESS":"鹽埕路２９１巷１４弄２８號","OBJECTID":177174},"geometry":{"x":166801.72000000067,"y":2541370.3900000006}},{"attributes":{"ID":177176,"DIS_CODE":0,"TOWNNAME":"玉井區","LI":"豐里里","LIN":"10鄰","STREET":" ","SECT":" ","MAREA":"豐里","LANE":" ","ALLEY":" ","HOUSE_NO":"９６之２號","E_COORD97":192963.45999999999,"N_COORD97":2560205.2999999998,"ADDRESS":"豐里９６之２號","OBJECTID":177175},"geometry":{"x":192963.46000000089,"y":2560205.3000000045}},{"attributes":{"ID":177177,"DIS_CODE":0,"TOWNNAME":"南區","LI":"光明里","LIN":" ","STREET":"鹽埕路","SECT":" ","MAREA":" ","LANE":"２９１巷","ALLEY":"１４弄","HOUSE_NO":"３０號","E_COORD97":166805.47,"N_COORD97":2541369.23,"ADDRESS":"鹽埕路２９１巷１４弄３０號","OBJECTID":177176},"geometry":{"x":166805.46999999974,"y":2541369.2300000023}},{"attributes":{"ID":177178,"DIS_CODE":0,"TOWNNAME":"玉井區","LI":"竹圍里","LIN":"10鄰","STREET":"武成街","SECT":" ","MAREA":" ","LANE":" ","ALLEY":" ","HOUSE_NO":"１０３號","E_COORD97":196123.70999999999,"N_COORD97":2559021.3199999998,"ADDRESS":"武成街１０３號","OBJECTID":177177},"geometry":{"x":196123.71000000089,"y":2559021.320000004}},{"attributes":{"ID":177179,"DIS_CODE":0,"TOWNNAME":"玉井區","LI":"豐里里","LIN":"10鄰","STREET":" ","SECT":" ","MAREA":"豐里","LANE":" ","ALLEY":" ","HOUSE_NO":"９５號之３","E_COORD97":192934.59,"N_COORD97":2560126.2999999998,"ADDRESS":"豐里９５號之３","OBJECTID":177178},"geometry":{"x":192934.58999999985,"y":2560126.3000000007}},{"attributes":{"ID":177180,"DIS_CODE":0,"TOWNNAME":"玉井區","LI":"望明里","LIN":"10鄰","STREET":" ","SECT":" ","MAREA":"望明","LANE":" ","ALLEY":" ","HOUSE_NO":"１０３之２號","E_COORD97":192947.38,"N_COORD97":2555217.2999999998,"ADDRESS":"望明１０３之２號","OBJECTID":177179},"geometry":{"x":192947.38000000082,"y":2555217.3000000007}},{"attributes":{"ID":177181,"DIS_CODE":0,"TOWNNAME":"玉井區","LI":"層林里","LIN":"10鄰","STREET":" ","SECT":" ","MAREA":"層林","LANE":" ","ALLEY":" ","HOUSE_NO":"１１５之１號","E_COORD97":191578.12,"N_COORD97":2552981.29,"ADDRESS":"層林１１５之１號","OBJECTID":177180},"geometry":{"x":191578.12000000104,"y":2552981.2899999991}},{"attributes":{"ID":177182,"DIS_CODE":0,"TOWNNAME":"玉井區","LI":"望明里","LIN":"10鄰","STREET":" ","SECT":" ","MAREA":"望明","LANE":" ","ALLEY":" ","HOUSE_NO":"１１０之１號","E_COORD97":192983.79000000001,"N_COORD97":2555309.29,"ADDRESS":"望明１１０之１號","OBJECTID":177181},"geometry":{"x":192983.79000000097,"y":2555309.290000001}},{"attributes":{"ID":177183,"DIS_CODE":0,"TOWNNAME":"學甲區","LI":"宅港里","LIN":"10鄰","STREET":" ","SECT":" ","MAREA":"宅子港","LANE":" ","ALLEY":" ","HOUSE_NO":"１１９號之１","E_COORD97":168300.89000000001,"N_COORD97":2573239.7400000002,"ADDRESS":"宅子港１１９號之１","OBJECTID":177182},"geometry":{"x":168300.8900000006,"y":2573239.7400000002}},{"attributes":{"ID":177184,"DIS_CODE":0,"TOWNNAME":"學甲區","LI":"宅港里","LIN":"10鄰","STREET":" ","SECT":" ","MAREA":"宅子港","LANE":" ","ALLEY":" ","HOUSE_NO":"１２０號","E_COORD97":168318.76999999999,"N_COORD97":2573208.4900000002,"ADDRESS":"宅子港１２０號","OBJECTID":177183},"geometry":{"x":168318.76999999955,"y":2573208.4900000002}},{"attributes":{"ID":177185,"DIS_CODE":0,"TOWNNAME":"學甲區","LI":"宅港里","LIN":"10鄰","STREET":" ","SECT":" ","MAREA":"宅子港","LANE":" ","ALLEY":" ","HOUSE_NO":"１２１號","E_COORD97":168324.20999999999,"N_COORD97":2573195.2200000002,"ADDRESS":"宅子港１２１號","OBJECTID":177184},"geometry":{"x":168324.21000000089,"y":2573195.2200000025}},{"attributes":{"ID":177186,"DIS_CODE":0,"TOWNNAME":"學甲區","LI":"宅港里","LIN":"10鄰","STREET":" ","SECT":" ","MAREA":"宅子港","LANE":" ","ALLEY":" ","HOUSE_NO":"１２２號","E_COORD97":168334.89999999999,"N_COORD97":2573204.4199999999,"ADDRESS":"宅子港１２２號","OBJECTID":177185},"geometry":{"x":168334.9000000013,"y":2573204.4199999999}},{"attributes":{"ID":177187,"DIS_CODE":0,"TOWNNAME":"學甲區","LI":"宅港里","LIN":"10鄰","STREET":" ","SECT":" ","MAREA":"宅子港","LANE":" ","ALLEY":" ","HOUSE_NO":"１２３號","E_COORD97":168352.56,"N_COORD97":2573207.0099999998,"ADDRESS":"宅子港１２３號","OBJECTID":177186},"geometry":{"x":168352.55999999959,"y":2573207.0099999998}},{"attributes":{"ID":177188,"DIS_CODE":0,"TOWNNAME":"學甲區","LI":"宅港里","LIN":"10鄰","STREET":" ","SECT":" ","MAREA":"宅子港","LANE":" ","ALLEY":" ","HOUSE_NO":"１２４號之１","E_COORD97":168355.32999999999,"N_COORD97":2573156.0299999998,"ADDRESS":"宅子港１２４號之１","OBJECTID":177187},"geometry":{"x":168355.33000000194,"y":2573156.0299999993}},{"attributes":{"ID":177189,"DIS_CODE":0,"TOWNNAME":"學甲區","LI":"宅港里","LIN":"10鄰","STREET":" ","SECT":" ","MAREA":"宅子港","LANE":" ","ALLEY":" ","HOUSE_NO":"１２４號","E_COORD97":168340.23000000001,"N_COORD97":2573183.96,"ADDRESS":"宅子港１２４號","OBJECTID":177188},"geometry":{"x":168340.23000000045,"y":2573183.9600000028}},{"attributes":{"ID":177190,"DIS_CODE":0,"TOWNNAME":"學甲區","LI":"宅港里","LIN":"10鄰","STREET":" ","SECT":" ","MAREA":"宅子港","LANE":" ","ALLEY":" ","HOUSE_NO":"１２５號","E_COORD97":168350.91,"N_COORD97":2573153.52,"ADDRESS":"宅子港１２５號","OBJECTID":177189},"geometry":{"x":168350.91000000015,"y":2573153.5199999977}},{"attributes":{"ID":177191,"DIS_CODE":0,"TOWNNAME":"學甲區","LI":"宅港里","LIN":"10鄰","STREET":" ","SECT":" ","MAREA":"宅子港","LANE":" ","ALLEY":" ","HOUSE_NO":"１２６號","E_COORD97":168318.73999999999,"N_COORD97":2573159.6699999999,"ADDRESS":"宅子港１２６號","OBJECTID":177190},"geometry":{"x":168318.74000000209,"y":2573159.6699999981}},{"attributes":{"ID":177192,"DIS_CODE":0,"TOWNNAME":"學甲區","LI":"宅港里","LIN":"10鄰","STREET":" ","SECT":" ","MAREA":"宅子港","LANE":" ","ALLEY":" ","HOUSE_NO":"１２７號","E_COORD97":168300.57000000001,"N_COORD97":2573177.4199999999,"ADDRESS":"宅子港１２７號","OBJECTID":177191},"geometry":{"x":168300.5700000003,"y":2573177.4199999999}},{"attributes":{"ID":177193,"DIS_CODE":0,"TOWNNAME":"學甲區","LI":"豐和里","LIN":"10鄰","STREET":" ","SECT":" ","MAREA":"美豐","LANE":" ","ALLEY":" ","HOUSE_NO":"７３號","E_COORD97":168148.37,"N_COORD97":2568596.6800000002,"ADDRESS":"美豐７３號","OBJECTID":177192},"geometry":{"x":168148.37000000104,"y":2568596.6800000016}},{"attributes":{"ID":177194,"DIS_CODE":0,"TOWNNAME":"學甲區","LI":"豐和里","LIN":"10鄰","STREET":" ","SECT":" ","MAREA":"美豐","LANE":" ","ALLEY":" ","HOUSE_NO":"７４號","E_COORD97":168143.57999999999,"N_COORD97":2568612.29,"ADDRESS":"美豐７４號","OBJECTID":177193},"geometry":{"x":168143.58000000101,"y":2568612.290000001}},{"attributes":{"ID":177195,"DIS_CODE":0,"TOWNNAME":"南區","LI":"光明里","LIN":" ","STREET":"鹽埕路","SECT":" ","MAREA":" ","LANE":"２９１巷","ALLEY":"１４弄","HOUSE_NO":"３２號","E_COORD97":166809.31,"N_COORD97":2541367.4100000001,"ADDRESS":"鹽埕路２９１巷１４弄３２號","OBJECTID":177194},"geometry":{"x":166809.31000000052,"y":2541367.410000002}},{"attributes":{"ID":177196,"DIS_CODE":0,"TOWNNAME":"南區","LI":"光明里","LIN":" ","STREET":"鹽埕路","SECT":" ","MAREA":" ","LANE":"２９１巷","ALLEY":"１４弄","HOUSE_NO":"３４號","E_COORD97":166820.07999999999,"N_COORD97":2541382.7799999998,"ADDRESS":"鹽埕路２９１巷１４弄３４號","OBJECTID":177195},"geometry":{"x":166820.08000000101,"y":2541382.7799999993}},{"attributes":{"ID":177197,"DIS_CODE":0,"TOWNNAME":"南區","LI":"光明里","LIN":" ","STREET":"鹽埕路","SECT":" ","MAREA":" ","LANE":"２９１巷","ALLEY":"１４弄","HOUSE_NO":"３６號","E_COORD97":166814.60000000001,"N_COORD97":2541383.6400000001,"ADDRESS":"鹽埕路２９１巷１４弄３６號","OBJECTID":177196},"geometry":{"x":166814.59999999963,"y":2541383.6400000025}},{"attributes":{"ID":177198,"DIS_CODE":0,"TOWNNAME":"南區","LI":"光明里","LIN":" ","STREET":"鹽埕路","SECT":" ","MAREA":" ","LANE":"２９１巷","ALLEY":"１４弄","HOUSE_NO":"３８號","E_COORD97":166810.76000000001,"N_COORD97":2541384.5099999998,"ADDRESS":"鹽埕路２９１巷１４弄３８號","OBJECTID":177197},"geometry":{"x":166810.75999999978,"y":2541384.5100000016}},{"attributes":{"ID":177199,"DIS_CODE":0,"TOWNNAME":"南區","LI":"光明里","LIN":" ","STREET":"鹽埕路","SECT":" ","MAREA":" ","LANE":"２９１巷","ALLEY":"１４弄","HOUSE_NO":"４０號","E_COORD97":166806.72,"N_COORD97":2541385.6600000001,"ADDRESS":"鹽埕路２９１巷１４弄４０號","OBJECTID":177198},"geometry":{"x":166806.72000000067,"y":2541385.6600000039}},{"attributes":{"ID":177200,"DIS_CODE":0,"TOWNNAME":"南區","LI":"光明里","LIN":" ","STREET":"鹽埕路","SECT":" ","MAREA":" ","LANE":"２９１巷","ALLEY":"１４弄","HOUSE_NO":"４２號","E_COORD97":166804.31,"N_COORD97":2541388.2599999998,"ADDRESS":"鹽埕路２９１巷１４弄４２號","OBJECTID":177199},"geometry":{"x":166804.31000000052,"y":2541388.2600000016}},{"attributes":{"ID":177201,"DIS_CODE":0,"TOWNNAME":"南區","LI":"光明里","LIN":" ","STREET":"鹽埕路","SECT":" ","MAREA":" ","LANE":"２９１巷","ALLEY":"１４弄","HOUSE_NO":"４６號","E_COORD97":166799.60000000001,"N_COORD97":2541388.1600000001,"ADDRESS":"鹽埕路２９１巷１４弄４６號","OBJECTID":177200},"geometry":{"x":166799.59999999963,"y":2541388.1600000001}}]}