{"displayFieldName":"TOWNNAME","fieldAliases":{"ID":"ID","DIS_CODE":"DIS_CODE","TOWNNAME":"TOWNNAME","LI":"LI","LIN":"LIN","STREET":"STREET","SECT":"SECT","MAREA":"MAREA","LANE":"LANE","ALLEY":"ALLEY","HOUSE_NO":"HOUSE_NO","E_COORD97":"E_COORD97","N_COORD97":"N_COORD97","ADDRESS":"ADDRESS","OBJECTID":"OBJECTID"},"geometryType":"esriGeometryPoint","spatialReference":{"wkid":102443,"latestWkid":3826},"fields":[{"name":"ID","type":"esriFieldTypeDouble","alias":"ID"},{"name":"DIS_CODE","type":"esriFieldTypeInteger","alias":"DIS_CODE"},{"name":"TOWNNAME","type":"esriFieldTypeString","alias":"TOWNNAME","length":8},{"name":"LI","type":"esriFieldTypeString","alias":"LI","length":8},{"name":"LIN","type":"esriFieldTypeString","alias":"LIN","length":12},{"name":"STREET","type":"esriFieldTypeString","alias":"STREET","length":20},{"name":"SECT","type":"esriFieldTypeString","alias":"SECT","length":8},{"name":"MAREA","type":"esriFieldTypeString","alias":"MAREA","length":12},{"name":"LANE","type":"esriFieldTypeString","alias":"LANE","length":10},{"name":"ALLEY","type":"esriFieldTypeString","alias":"ALLEY","length":10},{"name":"HOUSE_NO","type":"esriFieldTypeString","alias":"HOUSE_NO","length":20},{"name":"E_COORD97","type":"esriFieldTypeDouble","alias":"E_COORD97"},{"name":"N_COORD97","type":"esriFieldTypeDouble","alias":"N_COORD97"},{"name":"ADDRESS","type":"esriFieldTypeString","alias":"ADDRESS","length":50},{"name":"OBJECTID","type":"esriFieldTypeOID","alias":"OBJECTID"}],"features":[{"attributes":{"ID":604428,"DIS_CODE":0,"TOWNNAME":"安南區","LI":"鳳凰里","LIN":"22鄰","STREET":"安中路","SECT":"一段","MAREA":" ","LANE":" ","ALLEY":" ","HOUSE_NO":"８４０號四樓","E_COORD97":167440.67999999999,"N_COORD97":2549389.8999999999,"ADDRESS":"安中路一段８４０號四樓","OBJECTID":604401},"geometry":{"x":167440.68000000063,"y":2549389.9000000022}},{"attributes":{"ID":604429,"DIS_CODE":0,"TOWNNAME":"安南區","LI":"鳳凰里","LIN":"22鄰","STREET":"安中路","SECT":"一段","MAREA":" ","LANE":" ","ALLEY":" ","HOUSE_NO":"８４０號五樓","E_COORD97":167440.67999999999,"N_COORD97":2549389.8999999999,"ADDRESS":"安中路一段８４０號五樓","OBJECTID":604402},"geometry":{"x":167440.68000000063,"y":2549389.9000000022}},{"attributes":{"ID":604430,"DIS_CODE":0,"TOWNNAME":"安南區","LI":"鳳凰里","LIN":"22鄰","STREET":"安中路","SECT":"一段","MAREA":" ","LANE":" ","ALLEY":" ","HOUSE_NO":"８４０號六樓","E_COORD97":167440.67999999999,"N_COORD97":2549389.8999999999,"ADDRESS":"安中路一段８４０號六樓","OBJECTID":604403},"geometry":{"x":167440.68000000063,"y":2549389.9000000022}},{"attributes":{"ID":604431,"DIS_CODE":0,"TOWNNAME":"安南區","LI":"鳳凰里","LIN":"22鄰","STREET":"安中路","SECT":"一段","MAREA":" ","LANE":" ","ALLEY":" ","HOUSE_NO":"８４０號七樓","E_COORD97":167440.67999999999,"N_COORD97":2549389.8999999999,"ADDRESS":"安中路一段８４０號七樓","OBJECTID":604404},"geometry":{"x":167440.68000000063,"y":2549389.9000000022}},{"attributes":{"ID":604432,"DIS_CODE":0,"TOWNNAME":"安南區","LI":"鳳凰里","LIN":"22鄰","STREET":"安中路","SECT":"一段","MAREA":" ","LANE":" ","ALLEY":" ","HOUSE_NO":"８４０號八樓","E_COORD97":167440.67999999999,"N_COORD97":2549389.8999999999,"ADDRESS":"安中路一段８４０號八樓","OBJECTID":604405},"geometry":{"x":167440.68000000063,"y":2549389.9000000022}},{"attributes":{"ID":604433,"DIS_CODE":0,"TOWNNAME":"安南區","LI":"鳳凰里","LIN":"22鄰","STREET":"安中路","SECT":"一段","MAREA":" ","LANE":" ","ALLEY":" ","HOUSE_NO":"８４０號九樓","E_COORD97":167440.67999999999,"N_COORD97":2549389.8999999999,"ADDRESS":"安中路一段８４０號九樓","OBJECTID":604406},"geometry":{"x":167440.68000000063,"y":2549389.9000000022}},{"attributes":{"ID":604434,"DIS_CODE":0,"TOWNNAME":"安南區","LI":"鳳凰里","LIN":"22鄰","STREET":"安中路","SECT":"一段","MAREA":" ","LANE":" ","ALLEY":" ","HOUSE_NO":"８４０號十樓","E_COORD97":167440.67999999999,"N_COORD97":2549389.8999999999,"ADDRESS":"安中路一段８４０號十樓","OBJECTID":604407},"geometry":{"x":167440.68000000063,"y":2549389.9000000022}},{"attributes":{"ID":604435,"DIS_CODE":0,"TOWNNAME":"安南區","LI":"鳳凰里","LIN":"22鄰","STREET":"安中路","SECT":"一段","MAREA":" ","LANE":" ","ALLEY":" ","HOUSE_NO":"８４０號十一樓","E_COORD97":167440.67999999999,"N_COORD97":2549389.8999999999,"ADDRESS":"安中路一段８４０號十一樓","OBJECTID":604408},"geometry":{"x":167440.68000000063,"y":2549389.9000000022}},{"attributes":{"ID":604436,"DIS_CODE":0,"TOWNNAME":"安南區","LI":"鳳凰里","LIN":"22鄰","STREET":"安中路","SECT":"一段","MAREA":" ","LANE":" ","ALLEY":" ","HOUSE_NO":"８４０號十二樓","E_COORD97":167440.67999999999,"N_COORD97":2549389.8999999999,"ADDRESS":"安中路一段８４０號十二樓","OBJECTID":604409},"geometry":{"x":167440.68000000063,"y":2549389.9000000022}},{"attributes":{"ID":604437,"DIS_CODE":0,"TOWNNAME":"安南區","LI":"鳳凰里","LIN":"22鄰","STREET":"安中路","SECT":"一段","MAREA":" ","LANE":" ","ALLEY":" ","HOUSE_NO":"８４０號十三樓","E_COORD97":167440.67999999999,"N_COORD97":2549389.8999999999,"ADDRESS":"安中路一段８４０號十三樓","OBJECTID":604410},"geometry":{"x":167440.68000000063,"y":2549389.9000000022}},{"attributes":{"ID":604438,"DIS_CODE":0,"TOWNNAME":"安南區","LI":"鳳凰里","LIN":"22鄰","STREET":"安中路","SECT":"一段","MAREA":" ","LANE":" ","ALLEY":" ","HOUSE_NO":"８４０號十四樓","E_COORD97":167440.67999999999,"N_COORD97":2549389.8999999999,"ADDRESS":"安中路一段８４０號十四樓","OBJECTID":604411},"geometry":{"x":167440.68000000063,"y":2549389.9000000022}},{"attributes":{"ID":604439,"DIS_CODE":0,"TOWNNAME":"安南區","LI":"鳳凰里","LIN":"22鄰","STREET":"安中路","SECT":"一段","MAREA":" ","LANE":" ","ALLEY":" ","HOUSE_NO":"８４０號十五樓","E_COORD97":167440.67999999999,"N_COORD97":2549389.8999999999,"ADDRESS":"安中路一段８４０號十五樓","OBJECTID":604412},"geometry":{"x":167440.68000000063,"y":2549389.9000000022}},{"attributes":{"ID":604440,"DIS_CODE":0,"TOWNNAME":"安南區","LI":"鳳凰里","LIN":"22鄰","STREET":"安中路","SECT":"一段","MAREA":" ","LANE":" ","ALLEY":" ","HOUSE_NO":"８４０號十六樓","E_COORD97":167440.67999999999,"N_COORD97":2549389.8999999999,"ADDRESS":"安中路一段８４０號十六樓","OBJECTID":604413},"geometry":{"x":167440.68000000063,"y":2549389.9000000022}},{"attributes":{"ID":604441,"DIS_CODE":0,"TOWNNAME":"安南區","LI":"鳳凰里","LIN":"22鄰","STREET":"安中路","SECT":"一段","MAREA":" ","LANE":" ","ALLEY":" ","HOUSE_NO":"８４０號二樓","E_COORD97":167440.67999999999,"N_COORD97":2549389.8999999999,"ADDRESS":"安中路一段８４０號二樓","OBJECTID":604414},"geometry":{"x":167440.68000000063,"y":2549389.9000000022}},{"attributes":{"ID":604442,"DIS_CODE":0,"TOWNNAME":"安南區","LI":"鳳凰里","LIN":"22鄰","STREET":"安中路","SECT":"一段","MAREA":" ","LANE":" ","ALLEY":" ","HOUSE_NO":"８４０號三樓","E_COORD97":167440.67999999999,"N_COORD97":2549389.8999999999,"ADDRESS":"安中路一段８４０號三樓","OBJECTID":604415},"geometry":{"x":167440.68000000063,"y":2549389.9000000022}},{"attributes":{"ID":604443,"DIS_CODE":0,"TOWNNAME":"安南區","LI":"溪北里","LIN":"22鄰","STREET":"敬安街","SECT":" ","MAREA":" ","LANE":" ","ALLEY":" ","HOUSE_NO":"１７號七樓","E_COORD97":169158.35000000001,"N_COORD97":2547528.1600000001,"ADDRESS":"敬安街１７號七樓","OBJECTID":604416},"geometry":{"x":169158.35000000056,"y":2547528.1600000001}},{"attributes":{"ID":604444,"DIS_CODE":0,"TOWNNAME":"東區","LI":"中西里","LIN":"22鄰","STREET":"長榮路","SECT":"二段","MAREA":" ","LANE":" ","ALLEY":" ","HOUSE_NO":"１０６號二樓","E_COORD97":170014.82000000001,"N_COORD97":2543281.4900000002,"ADDRESS":"長榮路二段１０６號二樓","OBJECTID":604417},"geometry":{"x":170014.8200000003,"y":2543281.4900000002}},{"attributes":{"ID":604445,"DIS_CODE":0,"TOWNNAME":"東區","LI":"中西里","LIN":"22鄰","STREET":"長榮路","SECT":"二段","MAREA":" ","LANE":" ","ALLEY":" ","HOUSE_NO":"１０６號三樓","E_COORD97":170014.82000000001,"N_COORD97":2543281.4900000002,"ADDRESS":"長榮路二段１０６號三樓","OBJECTID":604418},"geometry":{"x":170014.8200000003,"y":2543281.4900000002}},{"attributes":{"ID":604446,"DIS_CODE":0,"TOWNNAME":"東區","LI":"中西里","LIN":"22鄰","STREET":"長榮路","SECT":"二段","MAREA":" ","LANE":" ","ALLEY":" ","HOUSE_NO":"１０６號四樓","E_COORD97":170014.82000000001,"N_COORD97":2543281.4900000002,"ADDRESS":"長榮路二段１０６號四樓","OBJECTID":604419},"geometry":{"x":170014.8200000003,"y":2543281.4900000002}},{"attributes":{"ID":604447,"DIS_CODE":0,"TOWNNAME":"東區","LI":"中西里","LIN":"22鄰","STREET":"長榮路","SECT":"二段","MAREA":" ","LANE":" ","ALLEY":" ","HOUSE_NO":"１０６號四樓之１","E_COORD97":170014.82000000001,"N_COORD97":2543281.4900000002,"ADDRESS":"長榮路二段１０６號四樓之１","OBJECTID":604420},"geometry":{"x":170014.8200000003,"y":2543281.4900000002}},{"attributes":{"ID":604448,"DIS_CODE":0,"TOWNNAME":"東區","LI":"中西里","LIN":"22鄰","STREET":"長榮路","SECT":"二段","MAREA":" ","LANE":" ","ALLEY":" ","HOUSE_NO":"１０６號四樓之２","E_COORD97":170014.82000000001,"N_COORD97":2543281.4900000002,"ADDRESS":"長榮路二段１０６號四樓之２","OBJECTID":604421},"geometry":{"x":170014.8200000003,"y":2543281.4900000002}},{"attributes":{"ID":604449,"DIS_CODE":0,"TOWNNAME":"東區","LI":"中西里","LIN":"22鄰","STREET":"長榮路","SECT":"二段","MAREA":" ","LANE":" ","ALLEY":" ","HOUSE_NO":"１０６號四樓之３","E_COORD97":170014.82000000001,"N_COORD97":2543281.4900000002,"ADDRESS":"長榮路二段１０６號四樓之３","OBJECTID":604422},"geometry":{"x":170014.8200000003,"y":2543281.4900000002}},{"attributes":{"ID":604450,"DIS_CODE":0,"TOWNNAME":"東區","LI":"中西里","LIN":"22鄰","STREET":"長榮路","SECT":"二段","MAREA":" ","LANE":" ","ALLEY":" ","HOUSE_NO":"１０６號四樓之４","E_COORD97":170014.82000000001,"N_COORD97":2543281.4900000002,"ADDRESS":"長榮路二段１０６號四樓之４","OBJECTID":604423},"geometry":{"x":170014.8200000003,"y":2543281.4900000002}},{"attributes":{"ID":604451,"DIS_CODE":0,"TOWNNAME":"東區","LI":"中西里","LIN":"22鄰","STREET":"長榮路","SECT":"二段","MAREA":" ","LANE":" ","ALLEY":" ","HOUSE_NO":"１０６號四樓之５","E_COORD97":170014.82000000001,"N_COORD97":2543281.4900000002,"ADDRESS":"長榮路二段１０６號四樓之５","OBJECTID":604424},"geometry":{"x":170014.8200000003,"y":2543281.4900000002}},{"attributes":{"ID":604452,"DIS_CODE":0,"TOWNNAME":"東區","LI":"中西里","LIN":"22鄰","STREET":"長榮路","SECT":"二段","MAREA":" ","LANE":" ","ALLEY":" ","HOUSE_NO":"１０６號四樓之６","E_COORD97":170014.82000000001,"N_COORD97":2543281.4900000002,"ADDRESS":"長榮路二段１０６號四樓之６","OBJECTID":604425},"geometry":{"x":170014.8200000003,"y":2543281.4900000002}},{"attributes":{"ID":604453,"DIS_CODE":0,"TOWNNAME":"東區","LI":"中西里","LIN":"22鄰","STREET":"長榮路","SECT":"二段","MAREA":" ","LANE":" ","ALLEY":" ","HOUSE_NO":"１０６號四樓之７","E_COORD97":170014.82000000001,"N_COORD97":2543281.4900000002,"ADDRESS":"長榮路二段１０６號四樓之７","OBJECTID":604426},"geometry":{"x":170014.8200000003,"y":2543281.4900000002}},{"attributes":{"ID":604454,"DIS_CODE":0,"TOWNNAME":"東區","LI":"中西里","LIN":"22鄰","STREET":"長榮路","SECT":"二段","MAREA":" ","LANE":" ","ALLEY":" ","HOUSE_NO":"１０６號四樓之８","E_COORD97":170014.82000000001,"N_COORD97":2543281.4900000002,"ADDRESS":"長榮路二段１０６號四樓之８","OBJECTID":604427},"geometry":{"x":170014.8200000003,"y":2543281.4900000002}},{"attributes":{"ID":604455,"DIS_CODE":0,"TOWNNAME":"東區","LI":"中西里","LIN":"22鄰","STREET":"長榮路","SECT":"二段","MAREA":" ","LANE":" ","ALLEY":" ","HOUSE_NO":"１０６號五樓","E_COORD97":170014.82000000001,"N_COORD97":2543281.4900000002,"ADDRESS":"長榮路二段１０６號五樓","OBJECTID":604428},"geometry":{"x":170014.8200000003,"y":2543281.4900000002}},{"attributes":{"ID":604456,"DIS_CODE":0,"TOWNNAME":"東區","LI":"中西里","LIN":"22鄰","STREET":"長榮路","SECT":"二段","MAREA":" ","LANE":" ","ALLEY":" ","HOUSE_NO":"１０６號五樓之１","E_COORD97":170014.82000000001,"N_COORD97":2543281.4900000002,"ADDRESS":"長榮路二段１０６號五樓之１","OBJECTID":604429},"geometry":{"x":170014.8200000003,"y":2543281.4900000002}},{"attributes":{"ID":604457,"DIS_CODE":0,"TOWNNAME":"東區","LI":"中西里","LIN":"22鄰","STREET":"長榮路","SECT":"二段","MAREA":" ","LANE":" ","ALLEY":" ","HOUSE_NO":"１０６號五樓之２","E_COORD97":170014.82000000001,"N_COORD97":2543281.4900000002,"ADDRESS":"長榮路二段１０６號五樓之２","OBJECTID":604430},"geometry":{"x":170014.8200000003,"y":2543281.4900000002}},{"attributes":{"ID":604458,"DIS_CODE":0,"TOWNNAME":"東區","LI":"中西里","LIN":"22鄰","STREET":"長榮路","SECT":"二段","MAREA":" ","LANE":" ","ALLEY":" ","HOUSE_NO":"１０６號五樓之３","E_COORD97":170014.82000000001,"N_COORD97":2543281.4900000002,"ADDRESS":"長榮路二段１０６號五樓之３","OBJECTID":604431},"geometry":{"x":170014.8200000003,"y":2543281.4900000002}},{"attributes":{"ID":604459,"DIS_CODE":0,"TOWNNAME":"東區","LI":"中西里","LIN":"22鄰","STREET":"長榮路","SECT":"二段","MAREA":" ","LANE":" ","ALLEY":" ","HOUSE_NO":"１０６號五樓之４","E_COORD97":170014.82000000001,"N_COORD97":2543281.4900000002,"ADDRESS":"長榮路二段１０６號五樓之４","OBJECTID":604432},"geometry":{"x":170014.8200000003,"y":2543281.4900000002}},{"attributes":{"ID":604460,"DIS_CODE":0,"TOWNNAME":"安南區","LI":"幸福里","LIN":"18鄰","STREET":"府安路","SECT":"六段","MAREA":" ","LANE":" ","ALLEY":" ","HOUSE_NO":"１１號","E_COORD97":167128.17000000001,"N_COORD97":2546728.3199999998,"ADDRESS":"府安路六段１１號","OBJECTID":604433},"geometry":{"x":167128.16999999993,"y":2546728.3200000022}},{"attributes":{"ID":604461,"DIS_CODE":0,"TOWNNAME":"安南區","LI":"布袋里","LIN":"1鄰","STREET":"工明南一路","SECT":" ","MAREA":" ","LANE":" ","ALLEY":" ","HOUSE_NO":"２３號","E_COORD97":168950.09,"N_COORD97":2551054.1899999999,"ADDRESS":"工明南一路２３號","OBJECTID":604434},"geometry":{"x":168950.09000000078,"y":2551054.1900000032}},{"attributes":{"ID":604462,"DIS_CODE":0,"TOWNNAME":"安南區","LI":"布袋里","LIN":"1鄰","STREET":"工明南一路","SECT":" ","MAREA":" ","LANE":" ","ALLEY":" ","HOUSE_NO":"３１號","E_COORD97":168925.32000000001,"N_COORD97":2551059.8999999999,"ADDRESS":"工明南一路３１號","OBJECTID":604435},"geometry":{"x":168925.32000000123,"y":2551059.9000000004}},{"attributes":{"ID":604463,"DIS_CODE":0,"TOWNNAME":"安南區","LI":"布袋里","LIN":"1鄰","STREET":"工明南一路","SECT":" ","MAREA":" ","LANE":" ","ALLEY":" ","HOUSE_NO":"２６號","E_COORD97":168965.95999999999,"N_COORD97":2551074.1299999999,"ADDRESS":"工明南一路２６號","OBJECTID":604436},"geometry":{"x":168965.95999999996,"y":2551074.1300000027}},{"attributes":{"ID":604464,"DIS_CODE":0,"TOWNNAME":"安南區","LI":"布袋里","LIN":"1鄰","STREET":"工明南一路","SECT":" ","MAREA":" ","LANE":" ","ALLEY":" ","HOUSE_NO":"１２５號","E_COORD97":168456.31,"N_COORD97":2551195.1600000001,"ADDRESS":"工明南一路１２５號","OBJECTID":604437},"geometry":{"x":168456.30999999959,"y":2551195.160000002}},{"attributes":{"ID":604465,"DIS_CODE":0,"TOWNNAME":"安南區","LI":"布袋里","LIN":"1鄰","STREET":"工明南一路","SECT":" ","MAREA":" ","LANE":" ","ALLEY":" ","HOUSE_NO":"１０９號","E_COORD97":168561.85000000001,"N_COORD97":2551164.5499999998,"ADDRESS":"工明南一路１０９號","OBJECTID":604438},"geometry":{"x":168561.85000000056,"y":2551164.5500000007}},{"attributes":{"ID":604466,"DIS_CODE":0,"TOWNNAME":"安南區","LI":"布袋里","LIN":"1鄰","STREET":"工明五路","SECT":" ","MAREA":" ","LANE":" ","ALLEY":" ","HOUSE_NO":"１０６號","E_COORD97":168440.57000000001,"N_COORD97":2551191.73,"ADDRESS":"工明五路１０６號","OBJECTID":604439},"geometry":{"x":168440.57000000123,"y":2551191.7300000023}},{"attributes":{"ID":604467,"DIS_CODE":0,"TOWNNAME":"安南區","LI":"布袋里","LIN":"1鄰","STREET":"工明五路","SECT":" ","MAREA":" ","LANE":" ","ALLEY":" ","HOUSE_NO":"１０５號","E_COORD97":168415.42000000001,"N_COORD97":2551253.46,"ADDRESS":"工明五路１０５號","OBJECTID":604440},"geometry":{"x":168415.41999999899,"y":2551253.4600000009}},{"attributes":{"ID":604468,"DIS_CODE":0,"TOWNNAME":"安南區","LI":"布袋里","LIN":"1鄰","STREET":"工明五路","SECT":" ","MAREA":" ","LANE":" ","ALLEY":" ","HOUSE_NO":"１０９號","E_COORD97":168416.17999999999,"N_COORD97":2551260.4399999999,"ADDRESS":"工明五路１０９號","OBJECTID":604441},"geometry":{"x":168416.1799999997,"y":2551260.4400000013}},{"attributes":{"ID":604469,"DIS_CODE":0,"TOWNNAME":"安南區","LI":"布袋里","LIN":"1鄰","STREET":"工明五路","SECT":" ","MAREA":" ","LANE":" ","ALLEY":" ","HOUSE_NO":"１２０號","E_COORD97":168456.31,"N_COORD97":2551273.52,"ADDRESS":"工明五路１２０號","OBJECTID":604442},"geometry":{"x":168456.30999999959,"y":2551273.5200000014}},{"attributes":{"ID":604470,"DIS_CODE":0,"TOWNNAME":"安南區","LI":"布袋里","LIN":"1鄰","STREET":"工明五路","SECT":" ","MAREA":" ","LANE":" ","ALLEY":" ","HOUSE_NO":"１２８號","E_COORD97":168459.48999999999,"N_COORD97":2551284.4399999999,"ADDRESS":"工明五路１２８號","OBJECTID":604443},"geometry":{"x":168459.49000000209,"y":2551284.4400000013}},{"attributes":{"ID":604471,"DIS_CODE":0,"TOWNNAME":"安南區","LI":"布袋里","LIN":"1鄰","STREET":"工明五路","SECT":" ","MAREA":" ","LANE":" ","ALLEY":" ","HOUSE_NO":"１３０號","E_COORD97":168461.51999999999,"N_COORD97":2551298.54,"ADDRESS":"工明五路１３０號","OBJECTID":604444},"geometry":{"x":168461.51999999955,"y":2551298.5399999972}},{"attributes":{"ID":604472,"DIS_CODE":0,"TOWNNAME":"安南區","LI":"布袋里","LIN":"1鄰","STREET":"工明五路","SECT":" ","MAREA":" ","LANE":" ","ALLEY":" ","HOUSE_NO":"１３６號","E_COORD97":168471.54999999999,"N_COORD97":2551342.7400000002,"ADDRESS":"工明五路１３６號","OBJECTID":604445},"geometry":{"x":168471.54999999981,"y":2551342.7400000039}},{"attributes":{"ID":604473,"DIS_CODE":0,"TOWNNAME":"安南區","LI":"布袋里","LIN":"1鄰","STREET":"工明三路","SECT":" ","MAREA":" ","LANE":" ","ALLEY":" ","HOUSE_NO":"８之１號","E_COORD97":168512.45000000001,"N_COORD97":2551007.5800000001,"ADDRESS":"工明三路８之１號","OBJECTID":604446},"geometry":{"x":168512.45000000112,"y":2551007.5800000001}},{"attributes":{"ID":604474,"DIS_CODE":0,"TOWNNAME":"安南區","LI":"布袋里","LIN":"1鄰","STREET":"工明三路","SECT":" ","MAREA":" ","LANE":" ","ALLEY":" ","HOUSE_NO":"８之２號","E_COORD97":168510.03,"N_COORD97":2550997.7999999998,"ADDRESS":"工明三路８之２號","OBJECTID":604447},"geometry":{"x":168510.03000000212,"y":2550997.8000000026}},{"attributes":{"ID":604475,"DIS_CODE":0,"TOWNNAME":"白河區","LI":"永安里","LIN":"6鄰","STREET":"中正路","SECT":" ","MAREA":" ","LANE":" ","ALLEY":" ","HOUSE_NO":"９５號","E_COORD97":189916.06,"N_COORD97":2583100.5299999998,"ADDRESS":"中正路９５號","OBJECTID":604448},"geometry":{"x":189916.06000000145,"y":2583100.5299999993}},{"attributes":{"ID":604476,"DIS_CODE":0,"TOWNNAME":"東區","LI":"中西里","LIN":"22鄰","STREET":"長榮路","SECT":"二段","MAREA":" ","LANE":" ","ALLEY":" ","HOUSE_NO":"１０６號五樓之６","E_COORD97":170014.82000000001,"N_COORD97":2543281.4900000002,"ADDRESS":"長榮路二段１０６號五樓之６","OBJECTID":604449},"geometry":{"x":170014.8200000003,"y":2543281.4900000002}},{"attributes":{"ID":604477,"DIS_CODE":0,"TOWNNAME":"東區","LI":"中西里","LIN":"22鄰","STREET":"長榮路","SECT":"二段","MAREA":" ","LANE":" ","ALLEY":" ","HOUSE_NO":"１０６號五樓之７","E_COORD97":170014.82000000001,"N_COORD97":2543281.4900000002,"ADDRESS":"長榮路二段１０６號五樓之７","OBJECTID":604450},"geometry":{"x":170014.8200000003,"y":2543281.4900000002}},{"attributes":{"ID":604478,"DIS_CODE":0,"TOWNNAME":"安南區","LI":"梅花里","LIN":"1鄰","STREET":"安中路","SECT":"一段","MAREA":" ","LANE":" ","ALLEY":" ","HOUSE_NO":"６１３號","E_COORD97":167819.48999999999,"N_COORD97":2549091.9700000002,"ADDRESS":"安中路一段６１３號","OBJECTID":604451},"geometry":{"x":167819.49000000022,"y":2549091.9700000025}},{"attributes":{"ID":604479,"DIS_CODE":0,"TOWNNAME":"安南區","LI":"布袋里","LIN":"1鄰","STREET":"工明二路","SECT":" ","MAREA":" ","LANE":" ","ALLEY":" ","HOUSE_NO":"１８號","E_COORD97":168751.38,"N_COORD97":2551005.0600000001,"ADDRESS":"工明二路１８號","OBJECTID":604452},"geometry":{"x":168751.38000000175,"y":2551005.0600000042}},{"attributes":{"ID":604480,"DIS_CODE":0,"TOWNNAME":"東區","LI":"中西里","LIN":"22鄰","STREET":"長榮路","SECT":"二段","MAREA":" ","LANE":" ","ALLEY":" ","HOUSE_NO":"１０６號五樓之８","E_COORD97":170014.82000000001,"N_COORD97":2543281.4900000002,"ADDRESS":"長榮路二段１０６號五樓之８","OBJECTID":604453},"geometry":{"x":170014.8200000003,"y":2543281.4900000002}},{"attributes":{"ID":604481,"DIS_CODE":0,"TOWNNAME":"東區","LI":"中西里","LIN":"22鄰","STREET":"長榮路","SECT":"二段","MAREA":" ","LANE":" ","ALLEY":" ","HOUSE_NO":"１０６號五樓之９","E_COORD97":170014.82000000001,"N_COORD97":2543281.4900000002,"ADDRESS":"長榮路二段１０６號五樓之９","OBJECTID":604454},"geometry":{"x":170014.8200000003,"y":2543281.4900000002}},{"attributes":{"ID":604482,"DIS_CODE":0,"TOWNNAME":"東區","LI":"中西里","LIN":"22鄰","STREET":"長榮路","SECT":"二段","MAREA":" ","LANE":" ","ALLEY":" ","HOUSE_NO":"１０６號六樓","E_COORD97":170014.82000000001,"N_COORD97":2543281.4900000002,"ADDRESS":"長榮路二段１０６號六樓","OBJECTID":604455},"geometry":{"x":170014.8200000003,"y":2543281.4900000002}},{"attributes":{"ID":604483,"DIS_CODE":0,"TOWNNAME":"東區","LI":"中西里","LIN":"22鄰","STREET":"長榮路","SECT":"二段","MAREA":" ","LANE":" ","ALLEY":" ","HOUSE_NO":"１０６號六樓之１","E_COORD97":170014.82000000001,"N_COORD97":2543281.4900000002,"ADDRESS":"長榮路二段１０６號六樓之１","OBJECTID":604456},"geometry":{"x":170014.8200000003,"y":2543281.4900000002}},{"attributes":{"ID":604484,"DIS_CODE":0,"TOWNNAME":"東區","LI":"中西里","LIN":"22鄰","STREET":"長榮路","SECT":"二段","MAREA":" ","LANE":" ","ALLEY":" ","HOUSE_NO":"１０６號六樓之２","E_COORD97":170014.82000000001,"N_COORD97":2543281.4900000002,"ADDRESS":"長榮路二段１０６號六樓之２","OBJECTID":604457},"geometry":{"x":170014.8200000003,"y":2543281.4900000002}},{"attributes":{"ID":604485,"DIS_CODE":0,"TOWNNAME":"東區","LI":"中西里","LIN":"22鄰","STREET":"長榮路","SECT":"二段","MAREA":" ","LANE":" ","ALLEY":" ","HOUSE_NO":"１０６號六樓之３","E_COORD97":170014.82000000001,"N_COORD97":2543281.4900000002,"ADDRESS":"長榮路二段１０６號六樓之３","OBJECTID":604458},"geometry":{"x":170014.8200000003,"y":2543281.4900000002}},{"attributes":{"ID":604486,"DIS_CODE":0,"TOWNNAME":"東區","LI":"中西里","LIN":"22鄰","STREET":"長榮路","SECT":"二段","MAREA":" ","LANE":" ","ALLEY":" ","HOUSE_NO":"１０６號六樓之４","E_COORD97":170014.82000000001,"N_COORD97":2543281.4900000002,"ADDRESS":"長榮路二段１０６號六樓之４","OBJECTID":604459},"geometry":{"x":170014.8200000003,"y":2543281.4900000002}},{"attributes":{"ID":604487,"DIS_CODE":0,"TOWNNAME":"東區","LI":"中西里","LIN":"22鄰","STREET":"長榮路","SECT":"二段","MAREA":" ","LANE":" ","ALLEY":" ","HOUSE_NO":"１０６號六樓之５","E_COORD97":170014.82000000001,"N_COORD97":2543281.4900000002,"ADDRESS":"長榮路二段１０６號六樓之５","OBJECTID":604460},"geometry":{"x":170014.8200000003,"y":2543281.4900000002}},{"attributes":{"ID":604488,"DIS_CODE":0,"TOWNNAME":"東區","LI":"中西里","LIN":"22鄰","STREET":"長榮路","SECT":"二段","MAREA":" ","LANE":" ","ALLEY":" ","HOUSE_NO":"１０６號六樓之６","E_COORD97":170014.82000000001,"N_COORD97":2543281.4900000002,"ADDRESS":"長榮路二段１０６號六樓之６","OBJECTID":604461},"geometry":{"x":170014.8200000003,"y":2543281.4900000002}},{"attributes":{"ID":604489,"DIS_CODE":0,"TOWNNAME":"東區","LI":"中西里","LIN":"22鄰","STREET":"長榮路","SECT":"二段","MAREA":" ","LANE":" ","ALLEY":" ","HOUSE_NO":"１０６號六樓之７","E_COORD97":170014.82000000001,"N_COORD97":2543281.4900000002,"ADDRESS":"長榮路二段１０６號六樓之７","OBJECTID":604462},"geometry":{"x":170014.8200000003,"y":2543281.4900000002}},{"attributes":{"ID":604490,"DIS_CODE":0,"TOWNNAME":"東區","LI":"中西里","LIN":"22鄰","STREET":"長榮路","SECT":"二段","MAREA":" ","LANE":" ","ALLEY":" ","HOUSE_NO":"１０６號六樓之８","E_COORD97":170014.82000000001,"N_COORD97":2543281.4900000002,"ADDRESS":"長榮路二段１０６號六樓之８","OBJECTID":604463},"geometry":{"x":170014.8200000003,"y":2543281.4900000002}},{"attributes":{"ID":604491,"DIS_CODE":0,"TOWNNAME":"東區","LI":"中西里","LIN":"22鄰","STREET":"長榮路","SECT":"二段","MAREA":" ","LANE":" ","ALLEY":" ","HOUSE_NO":"１０６號七樓","E_COORD97":170014.82000000001,"N_COORD97":2543281.4900000002,"ADDRESS":"長榮路二段１０６號七樓","OBJECTID":604464},"geometry":{"x":170014.8200000003,"y":2543281.4900000002}},{"attributes":{"ID":604492,"DIS_CODE":0,"TOWNNAME":"東區","LI":"中西里","LIN":"22鄰","STREET":"長榮路","SECT":"二段","MAREA":" ","LANE":" ","ALLEY":" ","HOUSE_NO":"１０６號七樓之２","E_COORD97":170014.82000000001,"N_COORD97":2543281.4900000002,"ADDRESS":"長榮路二段１０６號七樓之２","OBJECTID":604465},"geometry":{"x":170014.8200000003,"y":2543281.4900000002}},{"attributes":{"ID":604493,"DIS_CODE":0,"TOWNNAME":"東區","LI":"中西里","LIN":"22鄰","STREET":"長榮路","SECT":"二段","MAREA":" ","LANE":" ","ALLEY":" ","HOUSE_NO":"１０６號七樓之３","E_COORD97":170014.82000000001,"N_COORD97":2543281.4900000002,"ADDRESS":"長榮路二段１０６號七樓之３","OBJECTID":604466},"geometry":{"x":170014.8200000003,"y":2543281.4900000002}},{"attributes":{"ID":604494,"DIS_CODE":0,"TOWNNAME":"東區","LI":"中西里","LIN":"22鄰","STREET":"長榮路","SECT":"二段","MAREA":" ","LANE":" ","ALLEY":" ","HOUSE_NO":"１０６號七樓之４","E_COORD97":170014.82000000001,"N_COORD97":2543281.4900000002,"ADDRESS":"長榮路二段１０６號七樓之４","OBJECTID":604467},"geometry":{"x":170014.8200000003,"y":2543281.4900000002}},{"attributes":{"ID":604495,"DIS_CODE":0,"TOWNNAME":"東區","LI":"中西里","LIN":"22鄰","STREET":"長榮路","SECT":"二段","MAREA":" ","LANE":" ","ALLEY":" ","HOUSE_NO":"１０６號七樓之５","E_COORD97":170014.82000000001,"N_COORD97":2543281.4900000002,"ADDRESS":"長榮路二段１０６號七樓之５","OBJECTID":604468},"geometry":{"x":170014.8200000003,"y":2543281.4900000002}},{"attributes":{"ID":604496,"DIS_CODE":0,"TOWNNAME":"東區","LI":"中西里","LIN":"22鄰","STREET":"長榮路","SECT":"二段","MAREA":" ","LANE":" ","ALLEY":" ","HOUSE_NO":"１０６號七樓之６","E_COORD97":170014.82000000001,"N_COORD97":2543281.4900000002,"ADDRESS":"長榮路二段１０６號七樓之６","OBJECTID":604469},"geometry":{"x":170014.8200000003,"y":2543281.4900000002}},{"attributes":{"ID":604497,"DIS_CODE":0,"TOWNNAME":"東區","LI":"中西里","LIN":"22鄰","STREET":"長榮路","SECT":"二段","MAREA":" ","LANE":" ","ALLEY":" ","HOUSE_NO":"１０６號七樓之７","E_COORD97":170014.82000000001,"N_COORD97":2543281.4900000002,"ADDRESS":"長榮路二段１０６號七樓之７","OBJECTID":604470},"geometry":{"x":170014.8200000003,"y":2543281.4900000002}},{"attributes":{"ID":604498,"DIS_CODE":0,"TOWNNAME":"東區","LI":"中西里","LIN":"22鄰","STREET":"長榮路","SECT":"二段","MAREA":" ","LANE":" ","ALLEY":" ","HOUSE_NO":"１０６號七樓之８","E_COORD97":170014.82000000001,"N_COORD97":2543281.4900000002,"ADDRESS":"長榮路二段１０６號七樓之８","OBJECTID":604471},"geometry":{"x":170014.8200000003,"y":2543281.4900000002}},{"attributes":{"ID":604499,"DIS_CODE":0,"TOWNNAME":"東區","LI":"中西里","LIN":"22鄰","STREET":"長榮路","SECT":"二段","MAREA":" ","LANE":" ","ALLEY":" ","HOUSE_NO":"１０６號七樓之９","E_COORD97":170014.82000000001,"N_COORD97":2543281.4900000002,"ADDRESS":"長榮路二段１０６號七樓之９","OBJECTID":604472},"geometry":{"x":170014.8200000003,"y":2543281.4900000002}},{"attributes":{"ID":604500,"DIS_CODE":0,"TOWNNAME":"東區","LI":"中西里","LIN":"22鄰","STREET":"長榮路","SECT":"二段","MAREA":" ","LANE":" ","ALLEY":" ","HOUSE_NO":"１０６號八樓","E_COORD97":170014.82000000001,"N_COORD97":2543281.4900000002,"ADDRESS":"長榮路二段１０６號八樓","OBJECTID":604473},"geometry":{"x":170014.8200000003,"y":2543281.4900000002}},{"attributes":{"ID":604501,"DIS_CODE":0,"TOWNNAME":"東區","LI":"中西里","LIN":"22鄰","STREET":"長榮路","SECT":"二段","MAREA":" ","LANE":" ","ALLEY":" ","HOUSE_NO":"１０６號八樓之１","E_COORD97":170014.82000000001,"N_COORD97":2543281.4900000002,"ADDRESS":"長榮路二段１０６號八樓之１","OBJECTID":604474},"geometry":{"x":170014.8200000003,"y":2543281.4900000002}},{"attributes":{"ID":604502,"DIS_CODE":0,"TOWNNAME":"東區","LI":"中西里","LIN":"22鄰","STREET":"長榮路","SECT":"二段","MAREA":" ","LANE":" ","ALLEY":" ","HOUSE_NO":"１０６號八樓之２","E_COORD97":170014.82000000001,"N_COORD97":2543281.4900000002,"ADDRESS":"長榮路二段１０６號八樓之２","OBJECTID":604475},"geometry":{"x":170014.8200000003,"y":2543281.4900000002}},{"attributes":{"ID":604503,"DIS_CODE":0,"TOWNNAME":"東區","LI":"中西里","LIN":"22鄰","STREET":"長榮路","SECT":"二段","MAREA":" ","LANE":" ","ALLEY":" ","HOUSE_NO":"１０６號八樓之３","E_COORD97":170014.82000000001,"N_COORD97":2543281.4900000002,"ADDRESS":"長榮路二段１０６號八樓之３","OBJECTID":604476},"geometry":{"x":170014.8200000003,"y":2543281.4900000002}},{"attributes":{"ID":604504,"DIS_CODE":0,"TOWNNAME":"東區","LI":"中西里","LIN":"22鄰","STREET":"長榮路","SECT":"二段","MAREA":" ","LANE":" ","ALLEY":" ","HOUSE_NO":"１０６號八樓之４","E_COORD97":170014.82000000001,"N_COORD97":2543281.4900000002,"ADDRESS":"長榮路二段１０６號八樓之４","OBJECTID":604477},"geometry":{"x":170014.8200000003,"y":2543281.4900000002}},{"attributes":{"ID":604505,"DIS_CODE":0,"TOWNNAME":"東區","LI":"中西里","LIN":"22鄰","STREET":"長榮路","SECT":"二段","MAREA":" ","LANE":" ","ALLEY":" ","HOUSE_NO":"１０６號八樓之５","E_COORD97":170014.82000000001,"N_COORD97":2543281.4900000002,"ADDRESS":"長榮路二段１０６號八樓之５","OBJECTID":604478},"geometry":{"x":170014.8200000003,"y":2543281.4900000002}},{"attributes":{"ID":604506,"DIS_CODE":0,"TOWNNAME":"東區","LI":"中西里","LIN":"22鄰","STREET":"長榮路","SECT":"二段","MAREA":" ","LANE":" ","ALLEY":" ","HOUSE_NO":"１０６號八樓之６","E_COORD97":170014.82000000001,"N_COORD97":2543281.4900000002,"ADDRESS":"長榮路二段１０６號八樓之６","OBJECTID":604479},"geometry":{"x":170014.8200000003,"y":2543281.4900000002}},{"attributes":{"ID":604507,"DIS_CODE":0,"TOWNNAME":"東區","LI":"中西里","LIN":"22鄰","STREET":"長榮路","SECT":"二段","MAREA":" ","LANE":" ","ALLEY":" ","HOUSE_NO":"１０６號八樓之７","E_COORD97":170014.82000000001,"N_COORD97":2543281.4900000002,"ADDRESS":"長榮路二段１０６號八樓之７","OBJECTID":604480},"geometry":{"x":170014.8200000003,"y":2543281.4900000002}},{"attributes":{"ID":604508,"DIS_CODE":0,"TOWNNAME":"東區","LI":"中西里","LIN":"22鄰","STREET":"長榮路","SECT":"二段","MAREA":" ","LANE":" ","ALLEY":" ","HOUSE_NO":"１０６號八樓之８","E_COORD97":170014.82000000001,"N_COORD97":2543281.4900000002,"ADDRESS":"長榮路二段１０６號八樓之８","OBJECTID":604481},"geometry":{"x":170014.8200000003,"y":2543281.4900000002}},{"attributes":{"ID":604509,"DIS_CODE":0,"TOWNNAME":"東區","LI":"中西里","LIN":"22鄰","STREET":"長榮路","SECT":"二段","MAREA":" ","LANE":" ","ALLEY":" ","HOUSE_NO":"１０６號九樓","E_COORD97":170014.82000000001,"N_COORD97":2543281.4900000002,"ADDRESS":"長榮路二段１０６號九樓","OBJECTID":604482},"geometry":{"x":170014.8200000003,"y":2543281.4900000002}},{"attributes":{"ID":604510,"DIS_CODE":0,"TOWNNAME":"東區","LI":"中西里","LIN":"22鄰","STREET":"長榮路","SECT":"二段","MAREA":" ","LANE":" ","ALLEY":" ","HOUSE_NO":"１０６號九樓之１","E_COORD97":170014.82000000001,"N_COORD97":2543281.4900000002,"ADDRESS":"長榮路二段１０６號九樓之１","OBJECTID":604483},"geometry":{"x":170014.8200000003,"y":2543281.4900000002}},{"attributes":{"ID":604511,"DIS_CODE":0,"TOWNNAME":"東區","LI":"中西里","LIN":"22鄰","STREET":"長榮路","SECT":"二段","MAREA":" ","LANE":" ","ALLEY":" ","HOUSE_NO":"１０６號九樓之２","E_COORD97":170014.82000000001,"N_COORD97":2543281.4900000002,"ADDRESS":"長榮路二段１０６號九樓之２","OBJECTID":604484},"geometry":{"x":170014.8200000003,"y":2543281.4900000002}},{"attributes":{"ID":604512,"DIS_CODE":0,"TOWNNAME":"東區","LI":"中西里","LIN":"22鄰","STREET":"長榮路","SECT":"二段","MAREA":" ","LANE":" ","ALLEY":" ","HOUSE_NO":"１０６號九樓之３","E_COORD97":170014.82000000001,"N_COORD97":2543281.4900000002,"ADDRESS":"長榮路二段１０６號九樓之３","OBJECTID":604485},"geometry":{"x":170014.8200000003,"y":2543281.4900000002}},{"attributes":{"ID":604513,"DIS_CODE":0,"TOWNNAME":"東區","LI":"中西里","LIN":"22鄰","STREET":"長榮路","SECT":"二段","MAREA":" ","LANE":" ","ALLEY":" ","HOUSE_NO":"１０６號九樓之４","E_COORD97":170014.82000000001,"N_COORD97":2543281.4900000002,"ADDRESS":"長榮路二段１０６號九樓之４","OBJECTID":604486},"geometry":{"x":170014.8200000003,"y":2543281.4900000002}},{"attributes":{"ID":604514,"DIS_CODE":0,"TOWNNAME":"東區","LI":"中西里","LIN":"22鄰","STREET":"長榮路","SECT":"二段","MAREA":" ","LANE":" ","ALLEY":" ","HOUSE_NO":"１０６號九樓之５","E_COORD97":170014.82000000001,"N_COORD97":2543281.4900000002,"ADDRESS":"長榮路二段１０６號九樓之５","OBJECTID":604487},"geometry":{"x":170014.8200000003,"y":2543281.4900000002}},{"attributes":{"ID":604515,"DIS_CODE":0,"TOWNNAME":"東區","LI":"中西里","LIN":"22鄰","STREET":"長榮路","SECT":"二段","MAREA":" ","LANE":" ","ALLEY":" ","HOUSE_NO":"１０６號九樓之６","E_COORD97":170014.82000000001,"N_COORD97":2543281.4900000002,"ADDRESS":"長榮路二段１０６號九樓之６","OBJECTID":604488},"geometry":{"x":170014.8200000003,"y":2543281.4900000002}},{"attributes":{"ID":604516,"DIS_CODE":0,"TOWNNAME":"東區","LI":"中西里","LIN":"22鄰","STREET":"長榮路","SECT":"二段","MAREA":" ","LANE":" ","ALLEY":" ","HOUSE_NO":"１０６號九樓之７","E_COORD97":170014.82000000001,"N_COORD97":2543281.4900000002,"ADDRESS":"長榮路二段１０６號九樓之７","OBJECTID":604489},"geometry":{"x":170014.8200000003,"y":2543281.4900000002}},{"attributes":{"ID":604517,"DIS_CODE":0,"TOWNNAME":"東區","LI":"中西里","LIN":"22鄰","STREET":"長榮路","SECT":"二段","MAREA":" ","LANE":" ","ALLEY":" ","HOUSE_NO":"１０６號九樓之８","E_COORD97":170014.82000000001,"N_COORD97":2543281.4900000002,"ADDRESS":"長榮路二段１０６號九樓之８","OBJECTID":604490},"geometry":{"x":170014.8200000003,"y":2543281.4900000002}},{"attributes":{"ID":604518,"DIS_CODE":0,"TOWNNAME":"東區","LI":"中西里","LIN":"22鄰","STREET":"長榮路","SECT":"二段","MAREA":" ","LANE":" ","ALLEY":" ","HOUSE_NO":"１０６號九樓之９","E_COORD97":170014.82000000001,"N_COORD97":2543281.4900000002,"ADDRESS":"長榮路二段１０６號九樓之９","OBJECTID":604491},"geometry":{"x":170014.8200000003,"y":2543281.4900000002}},{"attributes":{"ID":604519,"DIS_CODE":0,"TOWNNAME":"永康區","LI":"龍潭里","LIN":"22鄰","STREET":"龍安街","SECT":" ","MAREA":" ","LANE":" ","ALLEY":" ","HOUSE_NO":"２５３號四樓之３","E_COORD97":174768.26999999999,"N_COORD97":2548600.5499999998,"ADDRESS":"龍安街２５３號四樓之３","OBJECTID":604492},"geometry":{"x":174768.27000000048,"y":2548600.5500000007}},{"attributes":{"ID":604520,"DIS_CODE":0,"TOWNNAME":"永康區","LI":"龍潭里","LIN":"22鄰","STREET":"龍安街","SECT":" ","MAREA":" ","LANE":" ","ALLEY":" ","HOUSE_NO":"２５３號六樓之２","E_COORD97":174768.31,"N_COORD97":2548600.5499999998,"ADDRESS":"龍安街２５３號六樓之２","OBJECTID":604493},"geometry":{"x":174768.31000000052,"y":2548600.5500000007}},{"attributes":{"ID":604521,"DIS_CODE":0,"TOWNNAME":"永康區","LI":"龍潭里","LIN":"22鄰","STREET":"龍安街","SECT":" ","MAREA":" ","LANE":" ","ALLEY":" ","HOUSE_NO":"２５１號三樓之２","E_COORD97":174751.31,"N_COORD97":2548624.6400000001,"ADDRESS":"龍安街２５１號三樓之２","OBJECTID":604494},"geometry":{"x":174751.31000000052,"y":2548624.6400000043}},{"attributes":{"ID":604522,"DIS_CODE":0,"TOWNNAME":"東區","LI":"莊敬里","LIN":"22鄰","STREET":"莊敬路","SECT":" ","MAREA":" ","LANE":" ","ALLEY":" ","HOUSE_NO":"１１８號七樓之３","E_COORD97":171388.28,"N_COORD97":2544007.0699999998,"ADDRESS":"莊敬路１１８號七樓之３","OBJECTID":604495},"geometry":{"x":171388.28000000026,"y":2544007.070000004}},{"attributes":{"ID":604523,"DIS_CODE":0,"TOWNNAME":"東區","LI":"莊敬里","LIN":"22鄰","STREET":"莊敬路","SECT":" ","MAREA":" ","LANE":" ","ALLEY":" ","HOUSE_NO":"１１８號七樓","E_COORD97":171388.28,"N_COORD97":2544007.0699999998,"ADDRESS":"莊敬路１１８號七樓","OBJECTID":604496},"geometry":{"x":171388.28000000026,"y":2544007.070000004}},{"attributes":{"ID":604524,"DIS_CODE":0,"TOWNNAME":"東區","LI":"莊敬里","LIN":"22鄰","STREET":"莊敬路","SECT":" ","MAREA":" ","LANE":" ","ALLEY":" ","HOUSE_NO":"１１８號七樓之１","E_COORD97":171388.28,"N_COORD97":2544007.0699999998,"ADDRESS":"莊敬路１１８號七樓之１","OBJECTID":604497},"geometry":{"x":171388.28000000026,"y":2544007.070000004}},{"attributes":{"ID":604525,"DIS_CODE":0,"TOWNNAME":"東區","LI":"莊敬里","LIN":"22鄰","STREET":"莊敬路","SECT":" ","MAREA":" ","LANE":" ","ALLEY":" ","HOUSE_NO":"１１８號七樓之４","E_COORD97":171388.28,"N_COORD97":2544007.0699999998,"ADDRESS":"莊敬路１１８號七樓之４","OBJECTID":604498},"geometry":{"x":171388.28000000026,"y":2544007.070000004}},{"attributes":{"ID":604526,"DIS_CODE":0,"TOWNNAME":"東區","LI":"莊敬里","LIN":"22鄰","STREET":"莊敬路","SECT":" ","MAREA":" ","LANE":" ","ALLEY":" ","HOUSE_NO":"１１８號七樓之５","E_COORD97":171388.28,"N_COORD97":2544007.0699999998,"ADDRESS":"莊敬路１１８號七樓之５","OBJECTID":604499},"geometry":{"x":171388.28000000026,"y":2544007.070000004}},{"attributes":{"ID":604527,"DIS_CODE":0,"TOWNNAME":"東區","LI":"莊敬里","LIN":"22鄰","STREET":"莊敬路","SECT":" ","MAREA":" ","LANE":" ","ALLEY":" ","HOUSE_NO":"１１８號九樓","E_COORD97":171388.28,"N_COORD97":2544007.0699999998,"ADDRESS":"莊敬路１１８號九樓","OBJECTID":604500},"geometry":{"x":171388.28000000026,"y":2544007.070000004}},{"attributes":{"ID":604528,"DIS_CODE":0,"TOWNNAME":"東區","LI":"莊敬里","LIN":"22鄰","STREET":"莊敬路","SECT":" ","MAREA":" ","LANE":" ","ALLEY":" ","HOUSE_NO":"１１８號九樓之１","E_COORD97":171388.28,"N_COORD97":2544007.0699999998,"ADDRESS":"莊敬路１１８號九樓之１","OBJECTID":604501},"geometry":{"x":171388.28000000026,"y":2544007.070000004}},{"attributes":{"ID":604529,"DIS_CODE":0,"TOWNNAME":"東區","LI":"莊敬里","LIN":"22鄰","STREET":"莊敬路","SECT":" ","MAREA":" ","LANE":" ","ALLEY":" ","HOUSE_NO":"１１８號九樓之３","E_COORD97":171388.28,"N_COORD97":2544007.0699999998,"ADDRESS":"莊敬路１１８號九樓之３","OBJECTID":604502},"geometry":{"x":171388.28000000026,"y":2544007.070000004}},{"attributes":{"ID":604530,"DIS_CODE":0,"TOWNNAME":"東區","LI":"莊敬里","LIN":"22鄰","STREET":"莊敬路","SECT":" ","MAREA":" ","LANE":" ","ALLEY":" ","HOUSE_NO":"１１８號九樓之４","E_COORD97":171388.28,"N_COORD97":2544007.0699999998,"ADDRESS":"莊敬路１１８號九樓之４","OBJECTID":604503},"geometry":{"x":171388.28000000026,"y":2544007.070000004}},{"attributes":{"ID":604531,"DIS_CODE":0,"TOWNNAME":"東區","LI":"莊敬里","LIN":"22鄰","STREET":"莊敬路","SECT":" ","MAREA":" ","LANE":" ","ALLEY":" ","HOUSE_NO":"１１８號九樓之５","E_COORD97":171388.28,"N_COORD97":2544007.0699999998,"ADDRESS":"莊敬路１１８號九樓之５","OBJECTID":604504},"geometry":{"x":171388.28000000026,"y":2544007.070000004}},{"attributes":{"ID":604532,"DIS_CODE":0,"TOWNNAME":"東區","LI":"莊敬里","LIN":"22鄰","STREET":"莊敬路","SECT":" ","MAREA":" ","LANE":" ","ALLEY":" ","HOUSE_NO":"１１８號八樓","E_COORD97":171388.28,"N_COORD97":2544007.0699999998,"ADDRESS":"莊敬路１１８號八樓","OBJECTID":604505},"geometry":{"x":171388.28000000026,"y":2544007.070000004}},{"attributes":{"ID":604533,"DIS_CODE":0,"TOWNNAME":"東區","LI":"莊敬里","LIN":"22鄰","STREET":"莊敬路","SECT":" ","MAREA":" ","LANE":" ","ALLEY":" ","HOUSE_NO":"１１８號八樓之１","E_COORD97":171388.28,"N_COORD97":2544007.0699999998,"ADDRESS":"莊敬路１１８號八樓之１","OBJECTID":604506},"geometry":{"x":171388.28000000026,"y":2544007.070000004}},{"attributes":{"ID":604534,"DIS_CODE":0,"TOWNNAME":"東區","LI":"莊敬里","LIN":"22鄰","STREET":"莊敬路","SECT":" ","MAREA":" ","LANE":" ","ALLEY":" ","HOUSE_NO":"１１８號八樓之２","E_COORD97":171388.28,"N_COORD97":2544007.0699999998,"ADDRESS":"莊敬路１１８號八樓之２","OBJECTID":604507},"geometry":{"x":171388.28000000026,"y":2544007.070000004}},{"attributes":{"ID":604535,"DIS_CODE":0,"TOWNNAME":"東區","LI":"莊敬里","LIN":"22鄰","STREET":"莊敬路","SECT":" ","MAREA":" ","LANE":" ","ALLEY":" ","HOUSE_NO":"１１８號八樓之３","E_COORD97":171388.28,"N_COORD97":2544007.0699999998,"ADDRESS":"莊敬路１１８號八樓之３","OBJECTID":604508},"geometry":{"x":171388.28000000026,"y":2544007.070000004}},{"attributes":{"ID":604536,"DIS_CODE":0,"TOWNNAME":"東區","LI":"莊敬里","LIN":"22鄰","STREET":"莊敬路","SECT":" ","MAREA":" ","LANE":" ","ALLEY":" ","HOUSE_NO":"１１８號八樓之４","E_COORD97":171388.28,"N_COORD97":2544007.0699999998,"ADDRESS":"莊敬路１１８號八樓之４","OBJECTID":604509},"geometry":{"x":171388.28000000026,"y":2544007.070000004}},{"attributes":{"ID":604537,"DIS_CODE":0,"TOWNNAME":"東區","LI":"莊敬里","LIN":"22鄰","STREET":"莊敬路","SECT":" ","MAREA":" ","LANE":" ","ALLEY":" ","HOUSE_NO":"１１８號八樓之５","E_COORD97":171388.28,"N_COORD97":2544007.0699999998,"ADDRESS":"莊敬路１１８號八樓之５","OBJECTID":604510},"geometry":{"x":171388.28000000026,"y":2544007.070000004}},{"attributes":{"ID":604538,"DIS_CODE":0,"TOWNNAME":"東區","LI":"莊敬里","LIN":"22鄰","STREET":"莊敬路","SECT":" ","MAREA":" ","LANE":" ","ALLEY":" ","HOUSE_NO":"１１８號十一樓","E_COORD97":171388.28,"N_COORD97":2544007.0699999998,"ADDRESS":"莊敬路１１８號十一樓","OBJECTID":604511},"geometry":{"x":171388.28000000026,"y":2544007.070000004}},{"attributes":{"ID":604539,"DIS_CODE":0,"TOWNNAME":"東區","LI":"莊敬里","LIN":"22鄰","STREET":"莊敬路","SECT":" ","MAREA":" ","LANE":" ","ALLEY":" ","HOUSE_NO":"１１８號十一樓之２","E_COORD97":171388.28,"N_COORD97":2544007.0699999998,"ADDRESS":"莊敬路１１８號十一樓之２","OBJECTID":604512},"geometry":{"x":171388.28000000026,"y":2544007.070000004}},{"attributes":{"ID":604540,"DIS_CODE":0,"TOWNNAME":"東區","LI":"莊敬里","LIN":"22鄰","STREET":"莊敬路","SECT":" ","MAREA":" ","LANE":" ","ALLEY":" ","HOUSE_NO":"１１８號十一樓之３","E_COORD97":171388.28,"N_COORD97":2544007.0699999998,"ADDRESS":"莊敬路１１８號十一樓之３","OBJECTID":604513},"geometry":{"x":171388.28000000026,"y":2544007.070000004}},{"attributes":{"ID":604541,"DIS_CODE":0,"TOWNNAME":"東區","LI":"莊敬里","LIN":"22鄰","STREET":"莊敬路","SECT":" ","MAREA":" ","LANE":" ","ALLEY":" ","HOUSE_NO":"１１８號十一樓之４","E_COORD97":171388.28,"N_COORD97":2544007.0699999998,"ADDRESS":"莊敬路１１８號十一樓之４","OBJECTID":604514},"geometry":{"x":171388.28000000026,"y":2544007.070000004}},{"attributes":{"ID":604542,"DIS_CODE":0,"TOWNNAME":"東區","LI":"莊敬里","LIN":"22鄰","STREET":"莊敬路","SECT":" ","MAREA":" ","LANE":" ","ALLEY":" ","HOUSE_NO":"１１８號十一樓之５","E_COORD97":171388.28,"N_COORD97":2544007.0699999998,"ADDRESS":"莊敬路１１８號十一樓之５","OBJECTID":604515},"geometry":{"x":171388.28000000026,"y":2544007.070000004}},{"attributes":{"ID":604543,"DIS_CODE":0,"TOWNNAME":"東區","LI":"莊敬里","LIN":"22鄰","STREET":"莊敬路","SECT":" ","MAREA":" ","LANE":" ","ALLEY":" ","HOUSE_NO":"１１８號十七樓之１","E_COORD97":171388.28,"N_COORD97":2544007.0699999998,"ADDRESS":"莊敬路１１８號十七樓之１","OBJECTID":604516},"geometry":{"x":171388.28000000026,"y":2544007.070000004}},{"attributes":{"ID":604544,"DIS_CODE":0,"TOWNNAME":"東區","LI":"莊敬里","LIN":"22鄰","STREET":"莊敬路","SECT":" ","MAREA":" ","LANE":" ","ALLEY":" ","HOUSE_NO":"１１８號十七樓之２","E_COORD97":171388.28,"N_COORD97":2544007.0699999998,"ADDRESS":"莊敬路１１８號十七樓之２","OBJECTID":604517},"geometry":{"x":171388.28000000026,"y":2544007.070000004}},{"attributes":{"ID":604545,"DIS_CODE":0,"TOWNNAME":"東區","LI":"莊敬里","LIN":"22鄰","STREET":"莊敬路","SECT":" ","MAREA":" ","LANE":" ","ALLEY":" ","HOUSE_NO":"１１８號十七樓之３","E_COORD97":171388.28,"N_COORD97":2544007.0699999998,"ADDRESS":"莊敬路１１８號十七樓之３","OBJECTID":604518},"geometry":{"x":171388.28000000026,"y":2544007.070000004}},{"attributes":{"ID":604546,"DIS_CODE":0,"TOWNNAME":"東區","LI":"莊敬里","LIN":"22鄰","STREET":"莊敬路","SECT":" ","MAREA":" ","LANE":" ","ALLEY":" ","HOUSE_NO":"１１８號十七樓之４","E_COORD97":171388.28,"N_COORD97":2544007.0699999998,"ADDRESS":"莊敬路１１８號十七樓之４","OBJECTID":604519},"geometry":{"x":171388.28000000026,"y":2544007.070000004}},{"attributes":{"ID":604547,"DIS_CODE":0,"TOWNNAME":"東區","LI":"莊敬里","LIN":"22鄰","STREET":"莊敬路","SECT":" ","MAREA":" ","LANE":" ","ALLEY":" ","HOUSE_NO":"１１８號十七樓之５","E_COORD97":171388.28,"N_COORD97":2544007.0699999998,"ADDRESS":"莊敬路１１８號十七樓之５","OBJECTID":604520},"geometry":{"x":171388.28000000026,"y":2544007.070000004}},{"attributes":{"ID":604548,"DIS_CODE":0,"TOWNNAME":"東區","LI":"莊敬里","LIN":"22鄰","STREET":"莊敬路","SECT":" ","MAREA":" ","LANE":" ","ALLEY":" ","HOUSE_NO":"１１８號十二樓","E_COORD97":171388.28,"N_COORD97":2544007.0699999998,"ADDRESS":"莊敬路１１８號十二樓","OBJECTID":604521},"geometry":{"x":171388.28000000026,"y":2544007.070000004}},{"attributes":{"ID":604549,"DIS_CODE":0,"TOWNNAME":"東區","LI":"莊敬里","LIN":"22鄰","STREET":"莊敬路","SECT":" ","MAREA":" ","LANE":" ","ALLEY":" ","HOUSE_NO":"１１８號十二樓之３","E_COORD97":171388.28,"N_COORD97":2544007.0699999998,"ADDRESS":"莊敬路１１８號十二樓之３","OBJECTID":604522},"geometry":{"x":171388.28000000026,"y":2544007.070000004}},{"attributes":{"ID":604550,"DIS_CODE":0,"TOWNNAME":"東區","LI":"莊敬里","LIN":"22鄰","STREET":"莊敬路","SECT":" ","MAREA":" ","LANE":" ","ALLEY":" ","HOUSE_NO":"１１８號十三樓之１","E_COORD97":171388.28,"N_COORD97":2544007.0699999998,"ADDRESS":"莊敬路１１８號十三樓之１","OBJECTID":604523},"geometry":{"x":171388.28000000026,"y":2544007.070000004}},{"attributes":{"ID":604551,"DIS_CODE":0,"TOWNNAME":"東區","LI":"莊敬里","LIN":"22鄰","STREET":"莊敬路","SECT":" ","MAREA":" ","LANE":" ","ALLEY":" ","HOUSE_NO":"１１８號十三樓之２","E_COORD97":171388.28,"N_COORD97":2544007.0699999998,"ADDRESS":"莊敬路１１８號十三樓之２","OBJECTID":604524},"geometry":{"x":171388.28000000026,"y":2544007.070000004}},{"attributes":{"ID":604552,"DIS_CODE":0,"TOWNNAME":"東區","LI":"莊敬里","LIN":"22鄰","STREET":"莊敬路","SECT":" ","MAREA":" ","LANE":" ","ALLEY":" ","HOUSE_NO":"１１８號十三樓之３","E_COORD97":171388.28,"N_COORD97":2544007.0699999998,"ADDRESS":"莊敬路１１８號十三樓之３","OBJECTID":604525},"geometry":{"x":171388.28000000026,"y":2544007.070000004}},{"attributes":{"ID":604553,"DIS_CODE":0,"TOWNNAME":"東區","LI":"莊敬里","LIN":"22鄰","STREET":"莊敬路","SECT":" ","MAREA":" ","LANE":" ","ALLEY":" ","HOUSE_NO":"１１８號十三樓之４","E_COORD97":171388.28,"N_COORD97":2544007.0699999998,"ADDRESS":"莊敬路１１８號十三樓之４","OBJECTID":604526},"geometry":{"x":171388.28000000026,"y":2544007.070000004}},{"attributes":{"ID":604554,"DIS_CODE":0,"TOWNNAME":"東區","LI":"莊敬里","LIN":"22鄰","STREET":"莊敬路","SECT":" ","MAREA":" ","LANE":" ","ALLEY":" ","HOUSE_NO":"１１８號十五樓","E_COORD97":171388.28,"N_COORD97":2544007.0699999998,"ADDRESS":"莊敬路１１８號十五樓","OBJECTID":604527},"geometry":{"x":171388.28000000026,"y":2544007.070000004}},{"attributes":{"ID":604555,"DIS_CODE":0,"TOWNNAME":"東區","LI":"莊敬里","LIN":"22鄰","STREET":"莊敬路","SECT":" ","MAREA":" ","LANE":" ","ALLEY":" ","HOUSE_NO":"１１８號十五樓之１","E_COORD97":171388.28,"N_COORD97":2544007.0699999998,"ADDRESS":"莊敬路１１８號十五樓之１","OBJECTID":604528},"geometry":{"x":171388.28000000026,"y":2544007.070000004}},{"attributes":{"ID":604556,"DIS_CODE":0,"TOWNNAME":"安南區","LI":"\u25A0田里","LIN":"7鄰","STREET":"\u25A0田路","SECT":" ","MAREA":" ","LANE":" ","ALLEY":" ","HOUSE_NO":"１０號","E_COORD97":162696.29000000001,"N_COORD97":2548414.6299999999,"ADDRESS":"\u25A0田路１０號","OBJECTID":604529},"geometry":{"x":162696.29000000004,"y":2548414.629999999}},{"attributes":{"ID":604557,"DIS_CODE":0,"TOWNNAME":"安南區","LI":"\u25A0田里","LIN":"7鄰","STREET":"本田路","SECT":"二段","MAREA":" ","LANE":" ","ALLEY":" ","HOUSE_NO":"３８１號","E_COORD97":163007.56,"N_COORD97":2548555.4399999999,"ADDRESS":"本田路二段３８１號","OBJECTID":604530},"geometry":{"x":163007.55999999959,"y":2548555.4399999995}},{"attributes":{"ID":604558,"DIS_CODE":0,"TOWNNAME":"安南區","LI":"新順里","LIN":"10鄰","STREET":"安和路","SECT":"二段","MAREA":" ","LANE":" ","ALLEY":" ","HOUSE_NO":"２８２號之１","E_COORD97":169682.39999999999,"N_COORD97":2549148.0699999998,"ADDRESS":"安和路二段２８２號之１","OBJECTID":604531},"geometry":{"x":169682.40000000224,"y":2549148.0700000022}},{"attributes":{"ID":604559,"DIS_CODE":0,"TOWNNAME":"安南區","LI":"新順里","LIN":"10鄰","STREET":"安和路","SECT":"二段","MAREA":" ","LANE":" ","ALLEY":" ","HOUSE_NO":"２８４號之２","E_COORD97":169689.13,"N_COORD97":2549166.6200000001,"ADDRESS":"安和路二段２８４號之２","OBJECTID":604532},"geometry":{"x":169689.13000000082,"y":2549166.620000001}},{"attributes":{"ID":604560,"DIS_CODE":0,"TOWNNAME":"安南區","LI":"新順里","LIN":"10鄰","STREET":"安和路","SECT":"二段","MAREA":" ","LANE":" ","ALLEY":" ","HOUSE_NO":"２８２號之２","E_COORD97":169682.78,"N_COORD97":2549150.4900000002,"ADDRESS":"安和路二段２８２號之２","OBJECTID":604533},"geometry":{"x":169682.78000000026,"y":2549150.4900000002}},{"attributes":{"ID":604561,"DIS_CODE":0,"TOWNNAME":"安南區","LI":"新順里","LIN":"10鄰","STREET":"安和路","SECT":"二段","MAREA":" ","LANE":" ","ALLEY":" ","HOUSE_NO":"２８４號之１","E_COORD97":169688.48999999999,"N_COORD97":2549163.0600000001,"ADDRESS":"安和路二段２８４號之１","OBJECTID":604534},"geometry":{"x":169688.49000000209,"y":2549163.0600000005}},{"attributes":{"ID":604562,"DIS_CODE":0,"TOWNNAME":"安南區","LI":"佃西里","LIN":"9鄰","STREET":"公學路","SECT":"四段","MAREA":" ","LANE":" ","ALLEY":" ","HOUSE_NO":"３５０號","E_COORD97":165226.63,"N_COORD97":2551752.1200000001,"ADDRESS":"公學路四段３５０號","OBJECTID":604535},"geometry":{"x":165226.62999999989,"y":2551752.1200000029}},{"attributes":{"ID":604563,"DIS_CODE":0,"TOWNNAME":"安南區","LI":"佃西里","LIN":"9鄰","STREET":"公學路","SECT":"四段","MAREA":" ","LANE":" ","ALLEY":" ","HOUSE_NO":"３５２號","E_COORD97":165223.70000000001,"N_COORD97":2551747.04,"ADDRESS":"公學路四段３５２號","OBJECTID":604536},"geometry":{"x":165223.70000000112,"y":2551747.040000001}},{"attributes":{"ID":604564,"DIS_CODE":0,"TOWNNAME":"安南區","LI":"新順里","LIN":"16鄰","STREET":"頂安街","SECT":" ","MAREA":" ","LANE":" ","ALLEY":" ","HOUSE_NO":"３８號","E_COORD97":169614.92999999999,"N_COORD97":2549348.04,"ADDRESS":"頂安街３８號","OBJECTID":604537},"geometry":{"x":169614.9299999997,"y":2549348.0399999991}},{"attributes":{"ID":604565,"DIS_CODE":0,"TOWNNAME":"安南區","LI":"新順里","LIN":"16鄰","STREET":"頂安街","SECT":" ","MAREA":" ","LANE":" ","ALLEY":" ","HOUSE_NO":"６６號","E_COORD97":169560.35000000001,"N_COORD97":2549359.5299999998,"ADDRESS":"頂安街６６號","OBJECTID":604538},"geometry":{"x":169560.35000000056,"y":2549359.5299999975}},{"attributes":{"ID":604566,"DIS_CODE":0,"TOWNNAME":"安南區","LI":"新順里","LIN":"16鄰","STREET":"頂安街","SECT":" ","MAREA":" ","LANE":" ","ALLEY":" ","HOUSE_NO":"６２號","E_COORD97":169563.85999999999,"N_COORD97":2549356.98,"ADDRESS":"頂安街６２號","OBJECTID":604539},"geometry":{"x":169563.8599999994,"y":2549356.9800000004}},{"attributes":{"ID":604567,"DIS_CODE":0,"TOWNNAME":"安南區","LI":"新順里","LIN":"16鄰","STREET":"頂安街","SECT":" ","MAREA":" ","LANE":" ","ALLEY":" ","HOUSE_NO":"２８號","E_COORD97":169634.72,"N_COORD97":2549341.02,"ADDRESS":"頂安街２８號","OBJECTID":604540},"geometry":{"x":169634.71999999974,"y":2549341.0200000014}},{"attributes":{"ID":604568,"DIS_CODE":0,"TOWNNAME":"安南區","LI":"新順里","LIN":"16鄰","STREET":"頂安街","SECT":" ","MAREA":" ","LANE":" ","ALLEY":" ","HOUSE_NO":"３０號","E_COORD97":169631.01999999999,"N_COORD97":2549343.0600000001,"ADDRESS":"頂安街３０號","OBJECTID":604541},"geometry":{"x":169631.01999999955,"y":2549343.0600000005}},{"attributes":{"ID":604569,"DIS_CODE":0,"TOWNNAME":"安南區","LI":"新順里","LIN":"16鄰","STREET":"頂安街","SECT":" ","MAREA":" ","LANE":" ","ALLEY":" ","HOUSE_NO":"３２號","E_COORD97":169627.06,"N_COORD97":2549343.5699999998,"ADDRESS":"頂安街３２號","OBJECTID":604542},"geometry":{"x":169627.06000000052,"y":2549343.570000004}},{"attributes":{"ID":604570,"DIS_CODE":0,"TOWNNAME":"安南區","LI":"新順里","LIN":"22鄰","STREET":"育安一街","SECT":" ","MAREA":" ","LANE":" ","ALLEY":" ","HOUSE_NO":"５０號","E_COORD97":169295.94,"N_COORD97":2549803.02,"ADDRESS":"育安一街５０號","OBJECTID":604543},"geometry":{"x":169295.94000000134,"y":2549803.0199999996}},{"attributes":{"ID":604571,"DIS_CODE":0,"TOWNNAME":"東區","LI":"莊敬里","LIN":"22鄰","STREET":"莊敬路","SECT":" ","MAREA":" ","LANE":" ","ALLEY":" ","HOUSE_NO":"１１８號十五樓之２","E_COORD97":171388.28,"N_COORD97":2544007.0699999998,"ADDRESS":"莊敬路１１８號十五樓之２","OBJECTID":604544},"geometry":{"x":171388.28000000026,"y":2544007.070000004}},{"attributes":{"ID":604572,"DIS_CODE":0,"TOWNNAME":"東區","LI":"莊敬里","LIN":"22鄰","STREET":"莊敬路","SECT":" ","MAREA":" ","LANE":" ","ALLEY":" ","HOUSE_NO":"１１８號十五樓之３","E_COORD97":171388.28,"N_COORD97":2544007.0699999998,"ADDRESS":"莊敬路１１８號十五樓之３","OBJECTID":604545},"geometry":{"x":171388.28000000026,"y":2544007.070000004}},{"attributes":{"ID":604573,"DIS_CODE":0,"TOWNNAME":"東區","LI":"莊敬里","LIN":"22鄰","STREET":"莊敬路","SECT":" ","MAREA":" ","LANE":" ","ALLEY":" ","HOUSE_NO":"１１８號十五樓之４","E_COORD97":171388.28,"N_COORD97":2544007.0699999998,"ADDRESS":"莊敬路１１８號十五樓之４","OBJECTID":604546},"geometry":{"x":171388.28000000026,"y":2544007.070000004}},{"attributes":{"ID":604574,"DIS_CODE":0,"TOWNNAME":"東區","LI":"莊敬里","LIN":"22鄰","STREET":"莊敬路","SECT":" ","MAREA":" ","LANE":" ","ALLEY":" ","HOUSE_NO":"１１８號十五樓之５","E_COORD97":171388.28,"N_COORD97":2544007.0699999998,"ADDRESS":"莊敬路１１８號十五樓之５","OBJECTID":604547},"geometry":{"x":171388.28000000026,"y":2544007.070000004}},{"attributes":{"ID":604575,"DIS_CODE":0,"TOWNNAME":"東區","LI":"莊敬里","LIN":"22鄰","STREET":"莊敬路","SECT":" ","MAREA":" ","LANE":" ","ALLEY":" ","HOUSE_NO":"１１８號十六樓","E_COORD97":171388.28,"N_COORD97":2544007.0699999998,"ADDRESS":"莊敬路１１８號十六樓","OBJECTID":604548},"geometry":{"x":171388.28000000026,"y":2544007.070000004}},{"attributes":{"ID":604576,"DIS_CODE":0,"TOWNNAME":"東區","LI":"莊敬里","LIN":"22鄰","STREET":"莊敬路","SECT":" ","MAREA":" ","LANE":" ","ALLEY":" ","HOUSE_NO":"１１８號十六樓之１","E_COORD97":171388.28,"N_COORD97":2544007.0699999998,"ADDRESS":"莊敬路１１８號十六樓之１","OBJECTID":604549},"geometry":{"x":171388.28000000026,"y":2544007.070000004}},{"attributes":{"ID":604577,"DIS_CODE":0,"TOWNNAME":"東區","LI":"莊敬里","LIN":"22鄰","STREET":"莊敬路","SECT":" ","MAREA":" ","LANE":" ","ALLEY":" ","HOUSE_NO":"１１８號十六樓之３","E_COORD97":171388.28,"N_COORD97":2544007.0699999998,"ADDRESS":"莊敬路１１８號十六樓之３","OBJECTID":604550},"geometry":{"x":171388.28000000026,"y":2544007.070000004}},{"attributes":{"ID":604578,"DIS_CODE":0,"TOWNNAME":"東區","LI":"莊敬里","LIN":"22鄰","STREET":"莊敬路","SECT":" ","MAREA":" ","LANE":" ","ALLEY":" ","HOUSE_NO":"１１８號十六樓之４","E_COORD97":171388.28,"N_COORD97":2544007.0699999998,"ADDRESS":"莊敬路１１８號十六樓之４","OBJECTID":604551},"geometry":{"x":171388.28000000026,"y":2544007.070000004}},{"attributes":{"ID":604579,"DIS_CODE":0,"TOWNNAME":"東區","LI":"莊敬里","LIN":"22鄰","STREET":"莊敬路","SECT":" ","MAREA":" ","LANE":" ","ALLEY":" ","HOUSE_NO":"１１８號十四樓","E_COORD97":171388.28,"N_COORD97":2544007.0699999998,"ADDRESS":"莊敬路１１８號十四樓","OBJECTID":604552},"geometry":{"x":171388.28000000026,"y":2544007.070000004}},{"attributes":{"ID":604580,"DIS_CODE":0,"TOWNNAME":"東區","LI":"莊敬里","LIN":"22鄰","STREET":"莊敬路","SECT":" ","MAREA":" ","LANE":" ","ALLEY":" ","HOUSE_NO":"１１８號十四樓之１","E_COORD97":171388.28,"N_COORD97":2544007.0699999998,"ADDRESS":"莊敬路１１８號十四樓之１","OBJECTID":604553},"geometry":{"x":171388.28000000026,"y":2544007.070000004}},{"attributes":{"ID":604581,"DIS_CODE":0,"TOWNNAME":"東區","LI":"莊敬里","LIN":"22鄰","STREET":"莊敬路","SECT":" ","MAREA":" ","LANE":" ","ALLEY":" ","HOUSE_NO":"１１８號十四樓之３","E_COORD97":171388.28,"N_COORD97":2544007.0699999998,"ADDRESS":"莊敬路１１８號十四樓之３","OBJECTID":604554},"geometry":{"x":171388.28000000026,"y":2544007.070000004}},{"attributes":{"ID":604582,"DIS_CODE":0,"TOWNNAME":"東區","LI":"莊敬里","LIN":"22鄰","STREET":"莊敬路","SECT":" ","MAREA":" ","LANE":" ","ALLEY":" ","HOUSE_NO":"１１８號十四樓之５","E_COORD97":171388.28,"N_COORD97":2544007.0699999998,"ADDRESS":"莊敬路１１８號十四樓之５","OBJECTID":604555},"geometry":{"x":171388.28000000026,"y":2544007.070000004}},{"attributes":{"ID":604583,"DIS_CODE":0,"TOWNNAME":"東區","LI":"莊敬里","LIN":"22鄰","STREET":"莊敬路","SECT":" ","MAREA":" ","LANE":" ","ALLEY":" ","HOUSE_NO":"１１８號十樓","E_COORD97":171388.28,"N_COORD97":2544007.0699999998,"ADDRESS":"莊敬路１１８號十樓","OBJECTID":604556},"geometry":{"x":171388.28000000026,"y":2544007.070000004}},{"attributes":{"ID":604584,"DIS_CODE":0,"TOWNNAME":"東區","LI":"莊敬里","LIN":"22鄰","STREET":"莊敬路","SECT":" ","MAREA":" ","LANE":" ","ALLEY":" ","HOUSE_NO":"１１８號十樓之１","E_COORD97":171388.28,"N_COORD97":2544007.0699999998,"ADDRESS":"莊敬路１１８號十樓之１","OBJECTID":604557},"geometry":{"x":171388.28000000026,"y":2544007.070000004}},{"attributes":{"ID":604585,"DIS_CODE":0,"TOWNNAME":"東區","LI":"莊敬里","LIN":"22鄰","STREET":"莊敬路","SECT":" ","MAREA":" ","LANE":" ","ALLEY":" ","HOUSE_NO":"１１８號十樓之３","E_COORD97":171388.28,"N_COORD97":2544007.0699999998,"ADDRESS":"莊敬路１１８號十樓之３","OBJECTID":604558},"geometry":{"x":171388.28000000026,"y":2544007.070000004}},{"attributes":{"ID":604586,"DIS_CODE":0,"TOWNNAME":"東區","LI":"莊敬里","LIN":"22鄰","STREET":"莊敬路","SECT":" ","MAREA":" ","LANE":" ","ALLEY":" ","HOUSE_NO":"１１８號十樓之４","E_COORD97":171388.28,"N_COORD97":2544007.0699999998,"ADDRESS":"莊敬路１１８號十樓之４","OBJECTID":604559},"geometry":{"x":171388.28000000026,"y":2544007.070000004}},{"attributes":{"ID":604587,"DIS_CODE":0,"TOWNNAME":"東區","LI":"莊敬里","LIN":"22鄰","STREET":"莊敬路","SECT":" ","MAREA":" ","LANE":" ","ALLEY":" ","HOUSE_NO":"１１８號十樓之５","E_COORD97":171388.28,"N_COORD97":2544007.0699999998,"ADDRESS":"莊敬路１１８號十樓之５","OBJECTID":604560},"geometry":{"x":171388.28000000026,"y":2544007.070000004}},{"attributes":{"ID":604588,"DIS_CODE":0,"TOWNNAME":"東區","LI":"莊敬里","LIN":"22鄰","STREET":"莊敬路","SECT":" ","MAREA":" ","LANE":" ","ALLEY":" ","HOUSE_NO":"１１８號三樓之１","E_COORD97":171388.28,"N_COORD97":2544007.0699999998,"ADDRESS":"莊敬路１１８號三樓之１","OBJECTID":604561},"geometry":{"x":171388.28000000026,"y":2544007.070000004}},{"attributes":{"ID":604589,"DIS_CODE":0,"TOWNNAME":"東區","LI":"莊敬里","LIN":"22鄰","STREET":"莊敬路","SECT":" ","MAREA":" ","LANE":" ","ALLEY":" ","HOUSE_NO":"１１８號三樓之５","E_COORD97":171388.28,"N_COORD97":2544007.0699999998,"ADDRESS":"莊敬路１１８號三樓之５","OBJECTID":604562},"geometry":{"x":171388.28000000026,"y":2544007.070000004}},{"attributes":{"ID":604590,"DIS_CODE":0,"TOWNNAME":"東區","LI":"莊敬里","LIN":"22鄰","STREET":"莊敬路","SECT":" ","MAREA":" ","LANE":" ","ALLEY":" ","HOUSE_NO":"１１８號五樓","E_COORD97":171388.28,"N_COORD97":2544007.0699999998,"ADDRESS":"莊敬路１１８號五樓","OBJECTID":604563},"geometry":{"x":171388.28000000026,"y":2544007.070000004}},{"attributes":{"ID":604591,"DIS_CODE":0,"TOWNNAME":"東區","LI":"莊敬里","LIN":"22鄰","STREET":"莊敬路","SECT":" ","MAREA":" ","LANE":" ","ALLEY":" ","HOUSE_NO":"１１８號五樓之１","E_COORD97":171388.28,"N_COORD97":2544007.0699999998,"ADDRESS":"莊敬路１１８號五樓之１","OBJECTID":604564},"geometry":{"x":171388.28000000026,"y":2544007.070000004}},{"attributes":{"ID":604592,"DIS_CODE":0,"TOWNNAME":"東區","LI":"莊敬里","LIN":"22鄰","STREET":"莊敬路","SECT":" ","MAREA":" ","LANE":" ","ALLEY":" ","HOUSE_NO":"１１８號五樓之２","E_COORD97":171388.28,"N_COORD97":2544007.0699999998,"ADDRESS":"莊敬路１１８號五樓之２","OBJECTID":604565},"geometry":{"x":171388.28000000026,"y":2544007.070000004}},{"attributes":{"ID":604593,"DIS_CODE":0,"TOWNNAME":"東區","LI":"莊敬里","LIN":"22鄰","STREET":"莊敬路","SECT":" ","MAREA":" ","LANE":" ","ALLEY":" ","HOUSE_NO":"１１８號五樓之３","E_COORD97":171388.28,"N_COORD97":2544007.0699999998,"ADDRESS":"莊敬路１１８號五樓之３","OBJECTID":604566},"geometry":{"x":171388.28000000026,"y":2544007.070000004}},{"attributes":{"ID":604594,"DIS_CODE":0,"TOWNNAME":"東區","LI":"莊敬里","LIN":"22鄰","STREET":"莊敬路","SECT":" ","MAREA":" ","LANE":" ","ALLEY":" ","HOUSE_NO":"１１８號五樓之４","E_COORD97":171388.28,"N_COORD97":2544007.0699999998,"ADDRESS":"莊敬路１１８號五樓之４","OBJECTID":604567},"geometry":{"x":171388.28000000026,"y":2544007.070000004}},{"attributes":{"ID":604595,"DIS_CODE":0,"TOWNNAME":"東區","LI":"莊敬里","LIN":"22鄰","STREET":"莊敬路","SECT":" ","MAREA":" ","LANE":" ","ALLEY":" ","HOUSE_NO":"１１８號五樓之５","E_COORD97":171388.28,"N_COORD97":2544007.0699999998,"ADDRESS":"莊敬路１１８號五樓之５","OBJECTID":604568},"geometry":{"x":171388.28000000026,"y":2544007.070000004}},{"attributes":{"ID":604596,"DIS_CODE":0,"TOWNNAME":"東區","LI":"莊敬里","LIN":"22鄰","STREET":"莊敬路","SECT":" ","MAREA":" ","LANE":" ","ALLEY":" ","HOUSE_NO":"１１８號六樓","E_COORD97":171388.28,"N_COORD97":2544007.0699999998,"ADDRESS":"莊敬路１１８號六樓","OBJECTID":604569},"geometry":{"x":171388.28000000026,"y":2544007.070000004}},{"attributes":{"ID":604597,"DIS_CODE":0,"TOWNNAME":"東區","LI":"莊敬里","LIN":"22鄰","STREET":"莊敬路","SECT":" ","MAREA":" ","LANE":" ","ALLEY":" ","HOUSE_NO":"１１８號六樓之１","E_COORD97":171388.28,"N_COORD97":2544007.0699999998,"ADDRESS":"莊敬路１１８號六樓之１","OBJECTID":604570},"geometry":{"x":171388.28000000026,"y":2544007.070000004}},{"attributes":{"ID":604598,"DIS_CODE":0,"TOWNNAME":"東區","LI":"莊敬里","LIN":"22鄰","STREET":"莊敬路","SECT":" ","MAREA":" ","LANE":" ","ALLEY":" ","HOUSE_NO":"１１８號六樓之２","E_COORD97":171388.28,"N_COORD97":2544007.0699999998,"ADDRESS":"莊敬路１１８號六樓之２","OBJECTID":604571},"geometry":{"x":171388.28000000026,"y":2544007.070000004}},{"attributes":{"ID":604599,"DIS_CODE":0,"TOWNNAME":"東區","LI":"莊敬里","LIN":"22鄰","STREET":"莊敬路","SECT":" ","MAREA":" ","LANE":" ","ALLEY":" ","HOUSE_NO":"１１８號六樓之３","E_COORD97":171388.28,"N_COORD97":2544007.0699999998,"ADDRESS":"莊敬路１１８號六樓之３","OBJECTID":604572},"geometry":{"x":171388.28000000026,"y":2544007.070000004}},{"attributes":{"ID":604600,"DIS_CODE":0,"TOWNNAME":"東區","LI":"莊敬里","LIN":"22鄰","STREET":"莊敬路","SECT":" ","MAREA":" ","LANE":" ","ALLEY":" ","HOUSE_NO":"１１８號六樓之５","E_COORD97":171388.28,"N_COORD97":2544007.0699999998,"ADDRESS":"莊敬路１１８號六樓之５","OBJECTID":604573},"geometry":{"x":171388.28000000026,"y":2544007.070000004}},{"attributes":{"ID":604601,"DIS_CODE":0,"TOWNNAME":"東區","LI":"莊敬里","LIN":"22鄰","STREET":"莊敬路","SECT":" ","MAREA":" ","LANE":" ","ALLEY":" ","HOUSE_NO":"１１８號十二樓之１","E_COORD97":171388.28,"N_COORD97":2544007.0699999998,"ADDRESS":"莊敬路１１８號十二樓之１","OBJECTID":604574},"geometry":{"x":171388.28000000026,"y":2544007.070000004}},{"attributes":{"ID":604602,"DIS_CODE":0,"TOWNNAME":"東區","LI":"莊敬里","LIN":"22鄰","STREET":"莊敬路","SECT":" ","MAREA":" ","LANE":" ","ALLEY":" ","HOUSE_NO":"１１８號十三樓之５","E_COORD97":171388.28,"N_COORD97":2544007.0699999998,"ADDRESS":"莊敬路１１８號十三樓之５","OBJECTID":604575},"geometry":{"x":171388.28000000026,"y":2544007.070000004}},{"attributes":{"ID":604603,"DIS_CODE":0,"TOWNNAME":"東區","LI":"莊敬里","LIN":"22鄰","STREET":"莊敬路","SECT":" ","MAREA":" ","LANE":" ","ALLEY":" ","HOUSE_NO":"１１８號三樓","E_COORD97":171388.28,"N_COORD97":2544007.0699999998,"ADDRESS":"莊敬路１１８號三樓","OBJECTID":604576},"geometry":{"x":171388.28000000026,"y":2544007.070000004}},{"attributes":{"ID":604604,"DIS_CODE":0,"TOWNNAME":"東區","LI":"莊敬里","LIN":"22鄰","STREET":"莊敬路","SECT":" ","MAREA":" ","LANE":" ","ALLEY":" ","HOUSE_NO":"１１８號三樓之２","E_COORD97":171388.28,"N_COORD97":2544007.0699999998,"ADDRESS":"莊敬路１１８號三樓之２","OBJECTID":604577},"geometry":{"x":171388.28000000026,"y":2544007.070000004}},{"attributes":{"ID":604605,"DIS_CODE":0,"TOWNNAME":"東區","LI":"莊敬里","LIN":"22鄰","STREET":"莊敬路","SECT":" ","MAREA":" ","LANE":" ","ALLEY":" ","HOUSE_NO":"１１８號三樓之３","E_COORD97":171388.28,"N_COORD97":2544007.0699999998,"ADDRESS":"莊敬路１１８號三樓之３","OBJECTID":604578},"geometry":{"x":171388.28000000026,"y":2544007.070000004}},{"attributes":{"ID":604606,"DIS_CODE":0,"TOWNNAME":"東區","LI":"莊敬里","LIN":"22鄰","STREET":"莊敬路","SECT":" ","MAREA":" ","LANE":" ","ALLEY":" ","HOUSE_NO":"１１８號三樓之４","E_COORD97":171388.28,"N_COORD97":2544007.0699999998,"ADDRESS":"莊敬路１１８號三樓之４","OBJECTID":604579},"geometry":{"x":171388.28000000026,"y":2544007.070000004}},{"attributes":{"ID":604607,"DIS_CODE":0,"TOWNNAME":"東區","LI":"莊敬里","LIN":"22鄰","STREET":"莊敬路","SECT":" ","MAREA":" ","LANE":" ","ALLEY":" ","HOUSE_NO":"１１８號七樓之２","E_COORD97":171388.28,"N_COORD97":2544007.0699999998,"ADDRESS":"莊敬路１１８號七樓之２","OBJECTID":604580},"geometry":{"x":171388.28000000026,"y":2544007.070000004}},{"attributes":{"ID":604608,"DIS_CODE":0,"TOWNNAME":"東區","LI":"莊敬里","LIN":"22鄰","STREET":"莊敬路","SECT":" ","MAREA":" ","LANE":" ","ALLEY":" ","HOUSE_NO":"１１８號九樓之２","E_COORD97":171388.28,"N_COORD97":2544007.0699999998,"ADDRESS":"莊敬路１１８號九樓之２","OBJECTID":604581},"geometry":{"x":171388.28000000026,"y":2544007.070000004}},{"attributes":{"ID":604609,"DIS_CODE":0,"TOWNNAME":"東區","LI":"莊敬里","LIN":"22鄰","STREET":"莊敬路","SECT":" ","MAREA":" ","LANE":" ","ALLEY":" ","HOUSE_NO":"１１８號十樓之２","E_COORD97":171388.28,"N_COORD97":2544007.0699999998,"ADDRESS":"莊敬路１１８號十樓之２","OBJECTID":604582},"geometry":{"x":171388.28000000026,"y":2544007.070000004}},{"attributes":{"ID":604610,"DIS_CODE":0,"TOWNNAME":"東區","LI":"莊敬里","LIN":"22鄰","STREET":"莊敬路","SECT":" ","MAREA":" ","LANE":" ","ALLEY":" ","HOUSE_NO":"１１８號十一樓之１","E_COORD97":171388.28,"N_COORD97":2544007.0699999998,"ADDRESS":"莊敬路１１８號十一樓之１","OBJECTID":604583},"geometry":{"x":171388.28000000026,"y":2544007.070000004}},{"attributes":{"ID":604611,"DIS_CODE":0,"TOWNNAME":"東區","LI":"莊敬里","LIN":"22鄰","STREET":"莊敬路","SECT":" ","MAREA":" ","LANE":" ","ALLEY":" ","HOUSE_NO":"１１８號十二樓之２","E_COORD97":171388.28,"N_COORD97":2544007.0699999998,"ADDRESS":"莊敬路１１８號十二樓之２","OBJECTID":604584},"geometry":{"x":171388.28000000026,"y":2544007.070000004}},{"attributes":{"ID":604612,"DIS_CODE":0,"TOWNNAME":"東區","LI":"莊敬里","LIN":"22鄰","STREET":"莊敬路","SECT":" ","MAREA":" ","LANE":" ","ALLEY":" ","HOUSE_NO":"１１８號十二樓之５","E_COORD97":171388.28,"N_COORD97":2544007.0699999998,"ADDRESS":"莊敬路１１８號十二樓之５","OBJECTID":604585},"geometry":{"x":171388.28000000026,"y":2544007.070000004}},{"attributes":{"ID":604613,"DIS_CODE":0,"TOWNNAME":"東區","LI":"莊敬里","LIN":"22鄰","STREET":"莊敬路","SECT":" ","MAREA":" ","LANE":" ","ALLEY":" ","HOUSE_NO":"１１８號十三樓","E_COORD97":171388.28,"N_COORD97":2544007.0699999998,"ADDRESS":"莊敬路１１８號十三樓","OBJECTID":604586},"geometry":{"x":171388.28000000026,"y":2544007.070000004}},{"attributes":{"ID":604614,"DIS_CODE":0,"TOWNNAME":"東區","LI":"莊敬里","LIN":"22鄰","STREET":"莊敬路","SECT":" ","MAREA":" ","LANE":" ","ALLEY":" ","HOUSE_NO":"１１８號十四樓之２","E_COORD97":171388.28,"N_COORD97":2544007.0699999998,"ADDRESS":"莊敬路１１８號十四樓之２","OBJECTID":604587},"geometry":{"x":171388.28000000026,"y":2544007.070000004}},{"attributes":{"ID":604615,"DIS_CODE":0,"TOWNNAME":"東區","LI":"莊敬里","LIN":"22鄰","STREET":"莊敬路","SECT":" ","MAREA":" ","LANE":" ","ALLEY":" ","HOUSE_NO":"１１８號十四樓之６","E_COORD97":171388.28,"N_COORD97":2544007.0699999998,"ADDRESS":"莊敬路１１８號十四樓之６","OBJECTID":604588},"geometry":{"x":171388.28000000026,"y":2544007.070000004}},{"attributes":{"ID":604616,"DIS_CODE":0,"TOWNNAME":"東區","LI":"莊敬里","LIN":"22鄰","STREET":"莊敬路","SECT":" ","MAREA":" ","LANE":" ","ALLEY":" ","HOUSE_NO":"１１８號十六樓之２","E_COORD97":171388.28,"N_COORD97":2544007.0699999998,"ADDRESS":"莊敬路１１８號十六樓之２","OBJECTID":604589},"geometry":{"x":171388.28000000026,"y":2544007.070000004}},{"attributes":{"ID":604617,"DIS_CODE":0,"TOWNNAME":"東區","LI":"莊敬里","LIN":"22鄰","STREET":"莊敬路","SECT":" ","MAREA":" ","LANE":" ","ALLEY":" ","HOUSE_NO":"１１８號十六樓之５","E_COORD97":171388.28,"N_COORD97":2544007.0699999998,"ADDRESS":"莊敬路１１８號十六樓之５","OBJECTID":604590},"geometry":{"x":171388.28000000026,"y":2544007.070000004}},{"attributes":{"ID":604618,"DIS_CODE":0,"TOWNNAME":"東區","LI":"莊敬里","LIN":"22鄰","STREET":"莊敬路","SECT":" ","MAREA":" ","LANE":" ","ALLEY":" ","HOUSE_NO":"１１８號十七樓","E_COORD97":171388.28,"N_COORD97":2544007.0699999998,"ADDRESS":"莊敬路１１８號十七樓","OBJECTID":604591},"geometry":{"x":171388.28000000026,"y":2544007.070000004}},{"attributes":{"ID":604619,"DIS_CODE":0,"TOWNNAME":"永康區","LI":"復華里","LIN":"22鄰","STREET":"復華七街","SECT":" ","MAREA":" ","LANE":" ","ALLEY":" ","HOUSE_NO":"１０５號","E_COORD97":172822.67999999999,"N_COORD97":2546144.54,"ADDRESS":"復華七街１０５號","OBJECTID":604592},"geometry":{"x":172822.68000000156,"y":2546144.5399999991}},{"attributes":{"ID":604620,"DIS_CODE":0,"TOWNNAME":"永康區","LI":"復華里","LIN":"22鄰","STREET":"復華七街","SECT":" ","MAREA":" ","LANE":" ","ALLEY":" ","HOUSE_NO":"７７號","E_COORD97":172771.57000000001,"N_COORD97":2546093.2999999998,"ADDRESS":"復華七街７７號","OBJECTID":604593},"geometry":{"x":172771.57000000216,"y":2546093.3000000007}},{"attributes":{"ID":604621,"DIS_CODE":0,"TOWNNAME":"永康區","LI":"復華里","LIN":"22鄰","STREET":"復華七街","SECT":" ","MAREA":" ","LANE":" ","ALLEY":" ","HOUSE_NO":"８７號","E_COORD97":172788.95000000001,"N_COORD97":2546111.9500000002,"ADDRESS":"復華七街８７號","OBJECTID":604594},"geometry":{"x":172788.95000000019,"y":2546111.9499999993}},{"attributes":{"ID":604622,"DIS_CODE":0,"TOWNNAME":"永康區","LI":"復華里","LIN":"22鄰","STREET":"復華七街","SECT":" ","MAREA":" ","LANE":" ","ALLEY":" ","HOUSE_NO":"１１３號","E_COORD97":172835.88,"N_COORD97":2546159.04,"ADDRESS":"復華七街１１３號","OBJECTID":604595},"geometry":{"x":172835.88000000082,"y":2546159.0400000028}},{"attributes":{"ID":604623,"DIS_CODE":0,"TOWNNAME":"永康區","LI":"復華里","LIN":"22鄰","STREET":"復華七街","SECT":" ","MAREA":" ","LANE":" ","ALLEY":" ","HOUSE_NO":"８９號","E_COORD97":172792.66,"N_COORD97":2546115.4500000002,"ADDRESS":"復華七街８９號","OBJECTID":604596},"geometry":{"x":172792.65999999922,"y":2546115.4499999974}},{"attributes":{"ID":604624,"DIS_CODE":0,"TOWNNAME":"永康區","LI":"復華里","LIN":"22鄰","STREET":"復華七街","SECT":" ","MAREA":" ","LANE":" ","ALLEY":" ","HOUSE_NO":"８５號","E_COORD97":172785.25,"N_COORD97":2546108.2000000002,"ADDRESS":"復華七街８５號","OBJECTID":604597},"geometry":{"x":172785.25000000186,"y":2546108.2000000011}},{"attributes":{"ID":604625,"DIS_CODE":0,"TOWNNAME":"永康區","LI":"龍潭里","LIN":"22鄰","STREET":"龍橋街","SECT":" ","MAREA":" ","LANE":" ","ALLEY":" ","HOUSE_NO":"８０號","E_COORD97":174710.82000000001,"N_COORD97":2548513.8500000001,"ADDRESS":"龍橋街８０號","OBJECTID":604598},"geometry":{"x":174710.82000000216,"y":2548513.8500000034}},{"attributes":{"ID":604626,"DIS_CODE":0,"TOWNNAME":"永康區","LI":"大灣里","LIN":"22鄰","STREET":"民族路","SECT":" ","MAREA":" ","LANE":" ","ALLEY":" ","HOUSE_NO":"２８０號","E_COORD97":174999.60000000001,"N_COORD97":2545222.9900000002,"ADDRESS":"民族路２８０號","OBJECTID":604599},"geometry":{"x":174999.59999999963,"y":2545222.9900000021}},{"attributes":{"ID":604627,"DIS_CODE":0,"TOWNNAME":"永康區","LI":"大橋里","LIN":"22鄰","STREET":"大橋一街","SECT":" ","MAREA":" ","LANE":" ","ALLEY":" ","HOUSE_NO":"１７１號","E_COORD97":171109.28,"N_COORD97":2546546,"ADDRESS":"大橋一街１７１號","OBJECTID":604600},"geometry":{"x":171109.28000000119,"y":2546546}}]}