{"displayFieldName":"TOWNNAME","fieldAliases":{"ID":"ID","DIS_CODE":"DIS_CODE","TOWNNAME":"TOWNNAME","LI":"LI","LIN":"LIN","STREET":"STREET","SECT":"SECT","MAREA":"MAREA","LANE":"LANE","ALLEY":"ALLEY","HOUSE_NO":"HOUSE_NO","E_COORD97":"E_COORD97","N_COORD97":"N_COORD97","ADDRESS":"ADDRESS","OBJECTID":"OBJECTID"},"geometryType":"esriGeometryPoint","spatialReference":{"wkid":102443,"latestWkid":3826},"fields":[{"name":"ID","type":"esriFieldTypeDouble","alias":"ID"},{"name":"DIS_CODE","type":"esriFieldTypeInteger","alias":"DIS_CODE"},{"name":"TOWNNAME","type":"esriFieldTypeString","alias":"TOWNNAME","length":8},{"name":"LI","type":"esriFieldTypeString","alias":"LI","length":8},{"name":"LIN","type":"esriFieldTypeString","alias":"LIN","length":12},{"name":"STREET","type":"esriFieldTypeString","alias":"STREET","length":20},{"name":"SECT","type":"esriFieldTypeString","alias":"SECT","length":8},{"name":"MAREA","type":"esriFieldTypeString","alias":"MAREA","length":12},{"name":"LANE","type":"esriFieldTypeString","alias":"LANE","length":10},{"name":"ALLEY","type":"esriFieldTypeString","alias":"ALLEY","length":10},{"name":"HOUSE_NO","type":"esriFieldTypeString","alias":"HOUSE_NO","length":20},{"name":"E_COORD97","type":"esriFieldTypeDouble","alias":"E_COORD97"},{"name":"N_COORD97","type":"esriFieldTypeDouble","alias":"N_COORD97"},{"name":"ADDRESS","type":"esriFieldTypeString","alias":"ADDRESS","length":50},{"name":"OBJECTID","type":"esriFieldTypeOID","alias":"OBJECTID"}],"features":[{"attributes":{"ID":389825,"DIS_CODE":0,"TOWNNAME":"善化區","LI":"光文里","LIN":"29鄰","STREET":"中正路","SECT":" ","MAREA":" ","LANE":"６４０巷","ALLEY":" ","HOUSE_NO":"１９號","E_COORD97":177735.07999999999,"N_COORD97":2559493.75,"ADDRESS":"中正路６４０巷１９號","OBJECTID":389801},"geometry":{"x":177735.08000000101,"y":2559493.7500000019}},{"attributes":{"ID":389826,"DIS_CODE":0,"TOWNNAME":"仁德區","LI":"上崙里","LIN":"29鄰","STREET":"中正路","SECT":"一段","MAREA":" ","LANE":"６５６巷","ALLEY":" ","HOUSE_NO":"４５號","E_COORD97":172984.82999999999,"N_COORD97":2537428.04,"ADDRESS":"中正路一段６５６巷４５號","OBJECTID":389802},"geometry":{"x":172984.83000000194,"y":2537428.0399999991}},{"attributes":{"ID":389827,"DIS_CODE":0,"TOWNNAME":"仁德區","LI":"上崙里","LIN":"29鄰","STREET":"中正路","SECT":"一段","MAREA":" ","LANE":"６５６巷","ALLEY":" ","HOUSE_NO":"３７號","E_COORD97":172986.29999999999,"N_COORD97":2537437.79,"ADDRESS":"中正路一段６５６巷３７號","OBJECTID":389803},"geometry":{"x":172986.29999999888,"y":2537437.790000001}},{"attributes":{"ID":389828,"DIS_CODE":0,"TOWNNAME":"仁德區","LI":"上崙里","LIN":"29鄰","STREET":"中正路","SECT":"一段","MAREA":" ","LANE":"６５６巷","ALLEY":" ","HOUSE_NO":"１１號","E_COORD97":172928.17999999999,"N_COORD97":2537471.0099999998,"ADDRESS":"中正路一段６５６巷１１號","OBJECTID":389804},"geometry":{"x":172928.18000000063,"y":2537471.0100000016}},{"attributes":{"ID":389829,"DIS_CODE":0,"TOWNNAME":"仁德區","LI":"上崙里","LIN":"29鄰","STREET":"中正路","SECT":"一段","MAREA":" ","LANE":"６５６巷","ALLEY":" ","HOUSE_NO":"９號","E_COORD97":172921.48999999999,"N_COORD97":2537474.7599999998,"ADDRESS":"中正路一段６５６巷９號","OBJECTID":389805},"geometry":{"x":172921.49000000115,"y":2537474.7599999998}},{"attributes":{"ID":389830,"DIS_CODE":0,"TOWNNAME":"仁德區","LI":"上崙里","LIN":"29鄰","STREET":"中正路","SECT":"一段","MAREA":" ","LANE":"６５６巷","ALLEY":" ","HOUSE_NO":"１３號","E_COORD97":172930.92999999999,"N_COORD97":2537467.5099999998,"ADDRESS":"中正路一段６５６巷１３號","OBJECTID":389806},"geometry":{"x":172930.9299999997,"y":2537467.5100000016}},{"attributes":{"ID":389831,"DIS_CODE":0,"TOWNNAME":"仁德區","LI":"上崙里","LIN":"29鄰","STREET":"中正路","SECT":"一段","MAREA":" ","LANE":"４４５巷","ALLEY":" ","HOUSE_NO":"３０１號","E_COORD97":172398.89999999999,"N_COORD97":2537180.27,"ADDRESS":"中正路一段４４５巷３０１號","OBJECTID":389807},"geometry":{"x":172398.9000000013,"y":2537180.2700000033}},{"attributes":{"ID":389832,"DIS_CODE":0,"TOWNNAME":"安南區","LI":"溪頂里","LIN":"29鄰","STREET":"北安路","SECT":"二段","MAREA":" ","LANE":"６０巷","ALLEY":" ","HOUSE_NO":"５０號","E_COORD97":168661.51000000001,"N_COORD97":2547514.3100000001,"ADDRESS":"北安路二段６０巷５０號","OBJECTID":389808},"geometry":{"x":168661.50999999978,"y":2547514.3100000005}},{"attributes":{"ID":389833,"DIS_CODE":0,"TOWNNAME":"安南區","LI":"溪頂里","LIN":"29鄰","STREET":"北安路","SECT":"二段","MAREA":" ","LANE":"６０巷","ALLEY":" ","HOUSE_NO":"５２號","E_COORD97":168667.12,"N_COORD97":2547515.25,"ADDRESS":"北安路二段６０巷５２號","OBJECTID":389809},"geometry":{"x":168667.12000000104,"y":2547515.2500000019}},{"attributes":{"ID":389834,"DIS_CODE":0,"TOWNNAME":"安南區","LI":"溪頂里","LIN":"29鄰","STREET":"北安路","SECT":"二段","MAREA":" ","LANE":"６０巷","ALLEY":" ","HOUSE_NO":"５６號","E_COORD97":168674.85000000001,"N_COORD97":2547515.48,"ADDRESS":"北安路二段６０巷５６號","OBJECTID":389810},"geometry":{"x":168674.84999999963,"y":2547515.4800000004}},{"attributes":{"ID":389835,"DIS_CODE":0,"TOWNNAME":"安南區","LI":"溪頂里","LIN":"29鄰","STREET":"北安路","SECT":"二段","MAREA":" ","LANE":"６０巷","ALLEY":" ","HOUSE_NO":"５８號","E_COORD97":168681.17000000001,"N_COORD97":2547516.6499999999,"ADDRESS":"北安路二段６０巷５８號","OBJECTID":389811},"geometry":{"x":168681.16999999993,"y":2547516.6500000022}},{"attributes":{"ID":389836,"DIS_CODE":0,"TOWNNAME":"安南區","LI":"溪頂里","LIN":"29鄰","STREET":"北安路","SECT":"二段","MAREA":" ","LANE":"６０巷","ALLEY":" ","HOUSE_NO":"６０號","E_COORD97":168687.26000000001,"N_COORD97":2547517.3500000001,"ADDRESS":"北安路二段６０巷６０號","OBJECTID":389812},"geometry":{"x":168687.25999999978,"y":2547517.3500000015}},{"attributes":{"ID":389837,"DIS_CODE":0,"TOWNNAME":"官田區","LI":"隆本里","LIN":"29鄰","STREET":"中山路","SECT":"二段","MAREA":" ","LANE":"５８巷","ALLEY":" ","HOUSE_NO":"１０號","E_COORD97":179056.85000000001,"N_COORD97":2566015.2999999998,"ADDRESS":"中山路二段５８巷１０號","OBJECTID":389813},"geometry":{"x":179056.85000000056,"y":2566015.3000000007}},{"attributes":{"ID":389838,"DIS_CODE":0,"TOWNNAME":"官田區","LI":"隆本里","LIN":"29鄰","STREET":"中山路","SECT":"二段","MAREA":" ","LANE":"５８巷","ALLEY":" ","HOUSE_NO":"１２號","E_COORD97":179057.57000000001,"N_COORD97":2566019.48,"ADDRESS":"中山路二段５８巷１２號","OBJECTID":389814},"geometry":{"x":179057.57000000123,"y":2566019.4800000023}},{"attributes":{"ID":389839,"DIS_CODE":0,"TOWNNAME":"官田區","LI":"隆本里","LIN":"29鄰","STREET":"中山路","SECT":"二段","MAREA":" ","LANE":"５８巷","ALLEY":" ","HOUSE_NO":"１６號","E_COORD97":179058.20000000001,"N_COORD97":2566023.7400000002,"ADDRESS":"中山路二段５８巷１６號","OBJECTID":389815},"geometry":{"x":179058.20000000112,"y":2566023.7400000021}},{"attributes":{"ID":389840,"DIS_CODE":0,"TOWNNAME":"官田區","LI":"隆本里","LIN":"29鄰","STREET":"中山路","SECT":"二段","MAREA":" ","LANE":"５８巷","ALLEY":" ","HOUSE_NO":"１８號","E_COORD97":179059.16,"N_COORD97":2566028.1000000001,"ADDRESS":"中山路二段５８巷１８號","OBJECTID":389816},"geometry":{"x":179059.16000000015,"y":2566028.1000000015}},{"attributes":{"ID":389841,"DIS_CODE":0,"TOWNNAME":"官田區","LI":"隆本里","LIN":"29鄰","STREET":"中山路","SECT":"二段","MAREA":" ","LANE":"５８巷","ALLEY":" ","HOUSE_NO":"２０號","E_COORD97":179059.57999999999,"N_COORD97":2566032.8100000001,"ADDRESS":"中山路二段５８巷２０號","OBJECTID":389817},"geometry":{"x":179059.58000000007,"y":2566032.8099999987}},{"attributes":{"ID":389842,"DIS_CODE":0,"TOWNNAME":"官田區","LI":"隆本里","LIN":"29鄰","STREET":"中山路","SECT":"二段","MAREA":" ","LANE":"５８巷","ALLEY":" ","HOUSE_NO":"２２號","E_COORD97":179062.20999999999,"N_COORD97":2566036.7799999998,"ADDRESS":"中山路二段５８巷２２號","OBJECTID":389818},"geometry":{"x":179062.20999999996,"y":2566036.7800000012}},{"attributes":{"ID":389843,"DIS_CODE":0,"TOWNNAME":"新營區","LI":"新東里","LIN":"22鄰","STREET":"東明街","SECT":" ","MAREA":" ","LANE":"８０巷","ALLEY":" ","HOUSE_NO":"３５號","E_COORD97":180907.85999999999,"N_COORD97":2579796.7400000002,"ADDRESS":"東明街８０巷３５號","OBJECTID":389819},"geometry":{"x":180907.86000000034,"y":2579796.7400000002}},{"attributes":{"ID":389844,"DIS_CODE":0,"TOWNNAME":"永康區","LI":"埔園里","LIN":"29鄰","STREET":"龍埔街","SECT":" ","MAREA":" ","LANE":"２９１巷","ALLEY":" ","HOUSE_NO":"２號之７","E_COORD97":173941.09,"N_COORD97":2548277.5499999998,"ADDRESS":"龍埔街２９１巷２號之７","OBJECTID":389820},"geometry":{"x":173941.09000000078,"y":2548277.5500000026}},{"attributes":{"ID":389845,"DIS_CODE":0,"TOWNNAME":"永康區","LI":"西勢里","LIN":"29鄰","STREET":"西勢路","SECT":" ","MAREA":" ","LANE":"１５８巷","ALLEY":" ","HOUSE_NO":"２７號","E_COORD97":175937.98999999999,"N_COORD97":2546831.6699999999,"ADDRESS":"西勢路１５８巷２７號","OBJECTID":389821},"geometry":{"x":175937.99000000022,"y":2546831.6700000018}},{"attributes":{"ID":389846,"DIS_CODE":0,"TOWNNAME":"永康區","LI":"西勢里","LIN":"29鄰","STREET":"西勢路","SECT":" ","MAREA":" ","LANE":"１５８巷","ALLEY":" ","HOUSE_NO":"５號","E_COORD97":175908.95999999999,"N_COORD97":2546800.5299999998,"ADDRESS":"西勢路１５８巷５號","OBJECTID":389822},"geometry":{"x":175908.95999999996,"y":2546800.5300000012}},{"attributes":{"ID":389847,"DIS_CODE":0,"TOWNNAME":"永康區","LI":"西勢里","LIN":"29鄰","STREET":"西勢路","SECT":" ","MAREA":" ","LANE":"１５８巷","ALLEY":" ","HOUSE_NO":"７號","E_COORD97":175904.95000000001,"N_COORD97":2546802.0299999998,"ADDRESS":"西勢路１５８巷７號","OBJECTID":389823},"geometry":{"x":175904.95000000205,"y":2546802.0299999993}},{"attributes":{"ID":389848,"DIS_CODE":0,"TOWNNAME":"永康區","LI":"西勢里","LIN":"29鄰","STREET":"西勢路","SECT":" ","MAREA":" ","LANE":"１５８巷","ALLEY":" ","HOUSE_NO":"１號","E_COORD97":175927.92000000001,"N_COORD97":2546790.0299999998,"ADDRESS":"西勢路１５８巷１號","OBJECTID":389824},"geometry":{"x":175927.91999999993,"y":2546790.0300000031}},{"attributes":{"ID":389849,"DIS_CODE":0,"TOWNNAME":"永康區","LI":"西勢里","LIN":"29鄰","STREET":"西勢路","SECT":" ","MAREA":" ","LANE":"１５８巷","ALLEY":" ","HOUSE_NO":"９號","E_COORD97":175909.29000000001,"N_COORD97":2546810.9500000002,"ADDRESS":"西勢路１５８巷９號","OBJECTID":389825},"geometry":{"x":175909.2900000019,"y":2546810.950000003}},{"attributes":{"ID":389850,"DIS_CODE":0,"TOWNNAME":"永康區","LI":"西勢里","LIN":"29鄰","STREET":"西勢路","SECT":" ","MAREA":" ","LANE":"１５８巷","ALLEY":" ","HOUSE_NO":"２０號","E_COORD97":175954.75,"N_COORD97":2546859.1200000001,"ADDRESS":"西勢路１５８巷２０號","OBJECTID":389826},"geometry":{"x":175954.75,"y":2546859.1200000048}},{"attributes":{"ID":389851,"DIS_CODE":0,"TOWNNAME":"永康區","LI":"西勢里","LIN":"29鄰","STREET":"西勢路","SECT":" ","MAREA":" ","LANE":"１５８巷","ALLEY":" ","HOUSE_NO":"２號","E_COORD97":175942.26999999999,"N_COORD97":2546798.9300000002,"ADDRESS":"西勢路１５８巷２號","OBJECTID":389827},"geometry":{"x":175942.26999999955,"y":2546798.9300000016}},{"attributes":{"ID":389852,"DIS_CODE":0,"TOWNNAME":"永康區","LI":"西勢里","LIN":"29鄰","STREET":"西勢路","SECT":" ","MAREA":" ","LANE":"１５８巷","ALLEY":" ","HOUSE_NO":"１７號","E_COORD97":175933.14000000001,"N_COORD97":2546812.4100000001,"ADDRESS":"西勢路１５８巷１７號","OBJECTID":389828},"geometry":{"x":175933.13999999966,"y":2546812.410000002}},{"attributes":{"ID":389853,"DIS_CODE":0,"TOWNNAME":"永康區","LI":"西勢里","LIN":"29鄰","STREET":"西勢路","SECT":" ","MAREA":" ","LANE":"１５８巷","ALLEY":" ","HOUSE_NO":"３７號","E_COORD97":175931.92000000001,"N_COORD97":2546854.2599999998,"ADDRESS":"西勢路１５８巷３７號","OBJECTID":389829},"geometry":{"x":175931.92000000179,"y":2546854.2600000016}},{"attributes":{"ID":389854,"DIS_CODE":0,"TOWNNAME":"永康區","LI":"西勢里","LIN":"29鄰","STREET":"西勢路","SECT":" ","MAREA":" ","LANE":"１５８巷","ALLEY":" ","HOUSE_NO":"１９號","E_COORD97":175934.14000000001,"N_COORD97":2546816.1600000001,"ADDRESS":"西勢路１５８巷１９號","OBJECTID":389830},"geometry":{"x":175934.1400000006,"y":2546816.1600000001}},{"attributes":{"ID":389855,"DIS_CODE":0,"TOWNNAME":"永康區","LI":"西勢里","LIN":"29鄰","STREET":"西勢路","SECT":" ","MAREA":" ","LANE":"１５８巷","ALLEY":" ","HOUSE_NO":"３１號","E_COORD97":175940,"N_COORD97":2546839.4199999999,"ADDRESS":"西勢路１５８巷３１號","OBJECTID":389831},"geometry":{"x":175940.00000000186,"y":2546839.4200000018}},{"attributes":{"ID":389856,"DIS_CODE":0,"TOWNNAME":"永康區","LI":"西勢里","LIN":"29鄰","STREET":"西勢路","SECT":" ","MAREA":" ","LANE":"１５８巷","ALLEY":" ","HOUSE_NO":"２９號","E_COORD97":175938.98000000001,"N_COORD97":2546835.4199999999,"ADDRESS":"西勢路１５８巷２９號","OBJECTID":389832},"geometry":{"x":175938.98000000231,"y":2546835.4200000037}},{"attributes":{"ID":389857,"DIS_CODE":0,"TOWNNAME":"永康區","LI":"西勢里","LIN":"29鄰","STREET":"西勢路","SECT":" ","MAREA":" ","LANE":"１５８巷","ALLEY":" ","HOUSE_NO":"２１號","E_COORD97":175934.94,"N_COORD97":2546819.9199999999,"ADDRESS":"西勢路１５８巷２１號","OBJECTID":389833},"geometry":{"x":175934.94000000041,"y":2546819.9200000018}},{"attributes":{"ID":389858,"DIS_CODE":0,"TOWNNAME":"永康區","LI":"西勢里","LIN":"29鄰","STREET":"西勢路","SECT":" ","MAREA":" ","LANE":"１５８巷","ALLEY":" ","HOUSE_NO":"３號","E_COORD97":175928.70999999999,"N_COORD97":2546794.5299999998,"ADDRESS":"西勢路１５８巷３號","OBJECTID":389834},"geometry":{"x":175928.71000000089,"y":2546794.5300000012}},{"attributes":{"ID":389859,"DIS_CODE":0,"TOWNNAME":"西港區","LI":"慶安里","LIN":"29鄰","STREET":"慶安路","SECT":" ","MAREA":" ","LANE":"１７１巷","ALLEY":" ","HOUSE_NO":"１１號","E_COORD97":167964.70000000001,"N_COORD97":2557826.3799999999,"ADDRESS":"慶安路１７１巷１１號","OBJECTID":389835},"geometry":{"x":167964.70000000205,"y":2557826.3800000027}},{"attributes":{"ID":389860,"DIS_CODE":0,"TOWNNAME":"西港區","LI":"慶安里","LIN":"29鄰","STREET":"慶安路","SECT":" ","MAREA":" ","LANE":"１７１巷","ALLEY":" ","HOUSE_NO":"２３號","E_COORD97":167967.48999999999,"N_COORD97":2557793.3900000001,"ADDRESS":"慶安路１７１巷２３號","OBJECTID":389836},"geometry":{"x":167967.49000000022,"y":2557793.3900000006}},{"attributes":{"ID":389861,"DIS_CODE":0,"TOWNNAME":"西港區","LI":"慶安里","LIN":"29鄰","STREET":"慶安路","SECT":" ","MAREA":" ","LANE":"１７１巷","ALLEY":" ","HOUSE_NO":"２５號","E_COORD97":167967.69,"N_COORD97":2557788.3599999999,"ADDRESS":"慶安路１７１巷２５號","OBJECTID":389837},"geometry":{"x":167967.69000000041,"y":2557788.3599999994}},{"attributes":{"ID":389862,"DIS_CODE":0,"TOWNNAME":"西港區","LI":"慶安里","LIN":"29鄰","STREET":"慶安路","SECT":" ","MAREA":" ","LANE":"１７１巷","ALLEY":" ","HOUSE_NO":"２７號","E_COORD97":167969.10999999999,"N_COORD97":2557777.1699999999,"ADDRESS":"慶安路１７１巷２７號","OBJECTID":389838},"geometry":{"x":167969.11000000127,"y":2557777.1699999999}},{"attributes":{"ID":389863,"DIS_CODE":0,"TOWNNAME":"西港區","LI":"慶安里","LIN":"29鄰","STREET":"慶安路","SECT":" ","MAREA":" ","LANE":"１７１巷","ALLEY":" ","HOUSE_NO":"３號","E_COORD97":167963.85000000001,"N_COORD97":2557843.6600000001,"ADDRESS":"慶安路１７１巷３號","OBJECTID":389839},"geometry":{"x":167963.85000000056,"y":2557843.660000002}},{"attributes":{"ID":389864,"DIS_CODE":0,"TOWNNAME":"西港區","LI":"慶安里","LIN":"29鄰","STREET":"慶安路","SECT":" ","MAREA":" ","LANE":"１７１巷","ALLEY":" ","HOUSE_NO":"５號","E_COORD97":167964.20999999999,"N_COORD97":2557839.29,"ADDRESS":"慶安路１７１巷５號","OBJECTID":389840},"geometry":{"x":167964.20999999903,"y":2557839.2899999991}},{"attributes":{"ID":389865,"DIS_CODE":0,"TOWNNAME":"西港區","LI":"慶安里","LIN":"29鄰","STREET":"慶安路","SECT":" ","MAREA":" ","LANE":"１７１巷","ALLEY":" ","HOUSE_NO":"７號","E_COORD97":167964.20999999999,"N_COORD97":2557835.1600000001,"ADDRESS":"慶安路１７１巷７號","OBJECTID":389841},"geometry":{"x":167964.20999999903,"y":2557835.1600000001}},{"attributes":{"ID":389866,"DIS_CODE":0,"TOWNNAME":"西港區","LI":"慶安里","LIN":"29鄰","STREET":"慶安路","SECT":" ","MAREA":" ","LANE":"１７１巷","ALLEY":" ","HOUSE_NO":"９號","E_COORD97":167964.57000000001,"N_COORD97":2557830.8500000001,"ADDRESS":"慶安路１７１巷９號","OBJECTID":389842},"geometry":{"x":167964.57000000123,"y":2557830.8500000015}},{"attributes":{"ID":389867,"DIS_CODE":0,"TOWNNAME":"善化區","LI":"光文里","LIN":"29鄰","STREET":"中正路","SECT":" ","MAREA":" ","LANE":"６４０巷","ALLEY":" ","HOUSE_NO":"１１號","E_COORD97":177716.28,"N_COORD97":2559485.25,"ADDRESS":"中正路６４０巷１１號","OBJECTID":389843},"geometry":{"x":177716.28000000026,"y":2559485.25}},{"attributes":{"ID":389868,"DIS_CODE":0,"TOWNNAME":"善化區","LI":"光文里","LIN":"29鄰","STREET":"中正路","SECT":" ","MAREA":" ","LANE":"６４０巷","ALLEY":" ","HOUSE_NO":"５號","E_COORD97":177687.01000000001,"N_COORD97":2559485.25,"ADDRESS":"中正路６４０巷５號","OBJECTID":389844},"geometry":{"x":177687.00999999978,"y":2559485.25}},{"attributes":{"ID":389869,"DIS_CODE":0,"TOWNNAME":"善化區","LI":"光文里","LIN":"29鄰","STREET":"中正路","SECT":" ","MAREA":" ","LANE":"６９６巷","ALLEY":" ","HOUSE_NO":"２號","E_COORD97":177725.17000000001,"N_COORD97":2559668,"ADDRESS":"中正路６９６巷２號","OBJECTID":389845},"geometry":{"x":177725.16999999993,"y":2559668.0000000019}},{"attributes":{"ID":389870,"DIS_CODE":0,"TOWNNAME":"仁德區","LI":"上崙里","LIN":"29鄰","STREET":"中正路","SECT":"一段","MAREA":" ","LANE":"６５６巷","ALLEY":" ","HOUSE_NO":"４３號","E_COORD97":172989.94,"N_COORD97":2537427.54,"ADDRESS":"中正路一段６５６巷４３號","OBJECTID":389846},"geometry":{"x":172989.94000000134,"y":2537427.5399999991}},{"attributes":{"ID":389871,"DIS_CODE":0,"TOWNNAME":"仁德區","LI":"上崙里","LIN":"29鄰","STREET":"中正路","SECT":"一段","MAREA":" ","LANE":"６５６巷","ALLEY":" ","HOUSE_NO":"７號","E_COORD97":172918.82999999999,"N_COORD97":2537477.7599999998,"ADDRESS":"中正路一段６５６巷７號","OBJECTID":389847},"geometry":{"x":172918.83000000101,"y":2537477.7599999998}},{"attributes":{"ID":389872,"DIS_CODE":0,"TOWNNAME":"永康區","LI":"\u25A0行里","LIN":"29鄰","STREET":"竹林街","SECT":" ","MAREA":" ","LANE":"２４巷","ALLEY":" ","HOUSE_NO":"１４號","E_COORD97":172688.81,"N_COORD97":2548912.1299999999,"ADDRESS":"竹林街２４巷１４號","OBJECTID":389848},"geometry":{"x":172688.80999999959,"y":2548912.1300000008}},{"attributes":{"ID":389873,"DIS_CODE":0,"TOWNNAME":"善化區","LI":"光文里","LIN":"29鄰","STREET":"中正路","SECT":" ","MAREA":" ","LANE":"６４０巷","ALLEY":" ","HOUSE_NO":"１號","E_COORD97":177675.92000000001,"N_COORD97":2559488.25,"ADDRESS":"中正路６４０巷１號","OBJECTID":389849},"geometry":{"x":177675.91999999993,"y":2559488.25}},{"attributes":{"ID":389874,"DIS_CODE":0,"TOWNNAME":"善化區","LI":"光文里","LIN":"29鄰","STREET":"中正路","SECT":" ","MAREA":" ","LANE":"６４０巷","ALLEY":" ","HOUSE_NO":"２１號","E_COORD97":177739.32999999999,"N_COORD97":2559493.5,"ADDRESS":"中正路６４０巷２１號","OBJECTID":389850},"geometry":{"x":177739.33000000007,"y":2559493.5}},{"attributes":{"ID":389875,"DIS_CODE":0,"TOWNNAME":"善化區","LI":"光文里","LIN":"29鄰","STREET":"中正路","SECT":" ","MAREA":" ","LANE":"６７６巷","ALLEY":" ","HOUSE_NO":"９號","E_COORD97":177677.29000000001,"N_COORD97":2559574.75,"ADDRESS":"中正路６７６巷９號","OBJECTID":389851},"geometry":{"x":177677.2900000019,"y":2559574.7500000019}},{"attributes":{"ID":389876,"DIS_CODE":0,"TOWNNAME":"善化區","LI":"光文里","LIN":"29鄰","STREET":"中正路","SECT":" ","MAREA":" ","LANE":"６４０巷","ALLEY":" ","HOUSE_NO":"１７號","E_COORD97":177729.87,"N_COORD97":2559485.25,"ADDRESS":"中正路６４０巷１７號","OBJECTID":389852},"geometry":{"x":177729.87000000104,"y":2559485.25}},{"attributes":{"ID":389877,"DIS_CODE":0,"TOWNNAME":"善化區","LI":"光文里","LIN":"29鄰","STREET":"中正路","SECT":" ","MAREA":" ","LANE":"６９６巷","ALLEY":" ","HOUSE_NO":"６號","E_COORD97":177777.98000000001,"N_COORD97":2559676,"ADDRESS":"中正路６９６巷６號","OBJECTID":389853},"geometry":{"x":177777.98000000045,"y":2559676}},{"attributes":{"ID":389878,"DIS_CODE":0,"TOWNNAME":"善化區","LI":"光文里","LIN":"29鄰","STREET":"中正路","SECT":" ","MAREA":" ","LANE":"６４０巷","ALLEY":" ","HOUSE_NO":"９號","E_COORD97":177706.64000000001,"N_COORD97":2559485.25,"ADDRESS":"中正路６４０巷９號","OBJECTID":389854},"geometry":{"x":177706.63999999873,"y":2559485.25}},{"attributes":{"ID":389879,"DIS_CODE":0,"TOWNNAME":"善化區","LI":"光文里","LIN":"29鄰","STREET":"中正路","SECT":" ","MAREA":" ","LANE":"６４０巷","ALLEY":" ","HOUSE_NO":"２７號","E_COORD97":177752.97,"N_COORD97":2559489,"ADDRESS":"中正路６４０巷２７號","OBJECTID":389855},"geometry":{"x":177752.96999999974,"y":2559489.0000000019}},{"attributes":{"ID":389880,"DIS_CODE":0,"TOWNNAME":"東區","LI":"崇誨里","LIN":"29鄰","STREET":"林森路","SECT":"二段","MAREA":" ","LANE":"１９２巷","ALLEY":" ","HOUSE_NO":"１０２號","E_COORD97":170763.29000000001,"N_COORD97":2543347.48,"ADDRESS":"林森路二段１９２巷１０２號","OBJECTID":389856},"geometry":{"x":170763.29000000097,"y":2543347.4800000023}},{"attributes":{"ID":389881,"DIS_CODE":0,"TOWNNAME":"東區","LI":"崇誨里","LIN":"29鄰","STREET":"林森路","SECT":"二段","MAREA":" ","LANE":"１９２巷","ALLEY":" ","HOUSE_NO":"１０４號之２","E_COORD97":170768.45000000001,"N_COORD97":2543348.6200000001,"ADDRESS":"林森路二段１９２巷１０４號之２","OBJECTID":389857},"geometry":{"x":170768.45000000205,"y":2543348.620000001}},{"attributes":{"ID":389882,"DIS_CODE":0,"TOWNNAME":"東區","LI":"崇誨里","LIN":"29鄰","STREET":"林森路","SECT":"二段","MAREA":" ","LANE":"１９２巷","ALLEY":" ","HOUSE_NO":"１１０號","E_COORD97":170785.62,"N_COORD97":2543349.2000000002,"ADDRESS":"林森路二段１９２巷１１０號","OBJECTID":389858},"geometry":{"x":170785.62000000011,"y":2543349.1999999993}},{"attributes":{"ID":389883,"DIS_CODE":0,"TOWNNAME":"東區","LI":"崇誨里","LIN":"29鄰","STREET":"林森路","SECT":"二段","MAREA":" ","LANE":"１９２巷","ALLEY":" ","HOUSE_NO":"１１４號","E_COORD97":170792.20000000001,"N_COORD97":2543351.3399999999,"ADDRESS":"林森路二段１９２巷１１４號","OBJECTID":389859},"geometry":{"x":170792.20000000205,"y":2543351.3400000017}},{"attributes":{"ID":389884,"DIS_CODE":0,"TOWNNAME":"東區","LI":"崇誨里","LIN":"29鄰","STREET":"林森路","SECT":"二段","MAREA":" ","LANE":"１９２巷","ALLEY":" ","HOUSE_NO":"１１６號","E_COORD97":170796.20999999999,"N_COORD97":2543353.3500000001,"ADDRESS":"林森路二段１９２巷１１６號","OBJECTID":389860},"geometry":{"x":170796.20999999996,"y":2543353.3499999978}},{"attributes":{"ID":389885,"DIS_CODE":0,"TOWNNAME":"東區","LI":"崇誨里","LIN":"29鄰","STREET":"林森路","SECT":"二段","MAREA":" ","LANE":"１９２巷","ALLEY":" ","HOUSE_NO":"９４號之１","E_COORD97":170769.60999999999,"N_COORD97":2543316.98,"ADDRESS":"林森路二段１９２巷９４號之１","OBJECTID":389861},"geometry":{"x":170769.61000000127,"y":2543316.9800000023}},{"attributes":{"ID":389886,"DIS_CODE":0,"TOWNNAME":"東區","LI":"崇誨里","LIN":"29鄰","STREET":"林森路","SECT":"二段","MAREA":" ","LANE":"１９２巷","ALLEY":" ","HOUSE_NO":"９８號","E_COORD97":170778.13,"N_COORD97":2543323.8799999999,"ADDRESS":"林森路二段１９２巷９８號","OBJECTID":389862},"geometry":{"x":170778.12999999989,"y":2543323.879999999}},{"attributes":{"ID":389887,"DIS_CODE":0,"TOWNNAME":"東區","LI":"崇誨里","LIN":"29鄰","STREET":"林森路","SECT":"二段","MAREA":" ","LANE":"１９２巷","ALLEY":" ","HOUSE_NO":"１００號","E_COORD97":170775.85999999999,"N_COORD97":2543329.46,"ADDRESS":"林森路二段１９２巷１００號","OBJECTID":389863},"geometry":{"x":170775.86000000034,"y":2543329.4600000009}},{"attributes":{"ID":389888,"DIS_CODE":0,"TOWNNAME":"東區","LI":"崇誨里","LIN":"29鄰","STREET":"林森路","SECT":"二段","MAREA":" ","LANE":"１９２巷","ALLEY":" ","HOUSE_NO":"１０８號","E_COORD97":170779.60999999999,"N_COORD97":2543351.2000000002,"ADDRESS":"林森路二段１９２巷１０８號","OBJECTID":389864},"geometry":{"x":170779.61000000127,"y":2543351.2000000011}},{"attributes":{"ID":389889,"DIS_CODE":0,"TOWNNAME":"東區","LI":"崇誨里","LIN":"29鄰","STREET":"林森路","SECT":"二段","MAREA":" ","LANE":"１９２巷","ALLEY":" ","HOUSE_NO":"１１２號","E_COORD97":170788.91,"N_COORD97":2543349.9100000001,"ADDRESS":"林森路二段１９２巷１１２號","OBJECTID":389865},"geometry":{"x":170788.91000000015,"y":2543349.9100000001}},{"attributes":{"ID":389890,"DIS_CODE":0,"TOWNNAME":"東區","LI":"崇誨里","LIN":"29鄰","STREET":"林森路","SECT":"二段","MAREA":" ","LANE":"１９２巷","ALLEY":" ","HOUSE_NO":"１０６號之１","E_COORD97":170774.60000000001,"N_COORD97":2543350.2000000002,"ADDRESS":"林森路二段１９２巷１０６號之１","OBJECTID":389866},"geometry":{"x":170774.59999999963,"y":2543350.1999999993}},{"attributes":{"ID":389891,"DIS_CODE":0,"TOWNNAME":"永康區","LI":"西灣里","LIN":"29鄰","STREET":"公園路","SECT":" ","MAREA":" ","LANE":"６３巷","ALLEY":" ","HOUSE_NO":"３６號","E_COORD97":174352.98000000001,"N_COORD97":2545884.2400000002,"ADDRESS":"公園路６３巷３６號","OBJECTID":389867},"geometry":{"x":174352.98000000138,"y":2545884.2400000039}},{"attributes":{"ID":389892,"DIS_CODE":0,"TOWNNAME":"永康區","LI":"西灣里","LIN":"29鄰","STREET":"公園路","SECT":" ","MAREA":" ","LANE":"６３巷","ALLEY":" ","HOUSE_NO":"５４號","E_COORD97":174356.67999999999,"N_COORD97":2545842.7400000002,"ADDRESS":"公園路６３巷５４號","OBJECTID":389868},"geometry":{"x":174356.6799999997,"y":2545842.7400000002}},{"attributes":{"ID":389893,"DIS_CODE":0,"TOWNNAME":"永康區","LI":"西灣里","LIN":"29鄰","STREET":"公園路","SECT":" ","MAREA":" ","LANE":"６３巷","ALLEY":" ","HOUSE_NO":"４０號","E_COORD97":174350.17999999999,"N_COORD97":2545871.2400000002,"ADDRESS":"公園路６３巷４０號","OBJECTID":389869},"geometry":{"x":174350.18000000156,"y":2545871.2400000021}},{"attributes":{"ID":389894,"DIS_CODE":0,"TOWNNAME":"永康區","LI":"西灣里","LIN":"29鄰","STREET":"公園路","SECT":" ","MAREA":" ","LANE":"６３巷","ALLEY":" ","HOUSE_NO":"７２號","E_COORD97":174347.35999999999,"N_COORD97":2545804.25,"ADDRESS":"公園路６３巷７２號","OBJECTID":389870},"geometry":{"x":174347.36000000034,"y":2545804.25}},{"attributes":{"ID":389895,"DIS_CODE":0,"TOWNNAME":"永康區","LI":"西灣里","LIN":"29鄰","STREET":"公園路","SECT":" ","MAREA":" ","LANE":"６３巷","ALLEY":" ","HOUSE_NO":"４８號","E_COORD97":174356.51000000001,"N_COORD97":2545857.9900000002,"ADDRESS":"公園路６３巷４８號","OBJECTID":389871},"geometry":{"x":174356.51000000071,"y":2545857.9900000002}},{"attributes":{"ID":389896,"DIS_CODE":0,"TOWNNAME":"永康區","LI":"尚頂里","LIN":"29鄰","STREET":"南台街","SECT":" ","MAREA":" ","LANE":"８９巷","ALLEY":" ","HOUSE_NO":"１３號","E_COORD97":170210.13,"N_COORD97":2546972.75,"ADDRESS":"南台街８９巷１３號","OBJECTID":389872},"geometry":{"x":170210.12999999989,"y":2546972.7500000019}},{"attributes":{"ID":389897,"DIS_CODE":0,"TOWNNAME":"永康區","LI":"尚頂里","LIN":"29鄰","STREET":"南台街","SECT":" ","MAREA":" ","LANE":"８９巷","ALLEY":" ","HOUSE_NO":"１１號","E_COORD97":170194.17000000001,"N_COORD97":2546941.25,"ADDRESS":"南台街８９巷１１號","OBJECTID":389873},"geometry":{"x":170194.17000000086,"y":2546941.25}},{"attributes":{"ID":389898,"DIS_CODE":0,"TOWNNAME":"永康區","LI":"尚頂里","LIN":"29鄰","STREET":"南台街","SECT":" ","MAREA":" ","LANE":"７５巷","ALLEY":" ","HOUSE_NO":"８號","E_COORD97":170234.48000000001,"N_COORD97":2546947.75,"ADDRESS":"南台街７５巷８號","OBJECTID":389874},"geometry":{"x":170234.47999999952,"y":2546947.75}},{"attributes":{"ID":389899,"DIS_CODE":0,"TOWNNAME":"永康區","LI":"尚頂里","LIN":"29鄰","STREET":"南台街","SECT":" ","MAREA":" ","LANE":"８９巷","ALLEY":" ","HOUSE_NO":"１５號之１","E_COORD97":170210.76000000001,"N_COORD97":2546936.2999999998,"ADDRESS":"南台街８９巷１５號之１","OBJECTID":389875},"geometry":{"x":170210.76000000071,"y":2546936.3000000026}},{"attributes":{"ID":389900,"DIS_CODE":0,"TOWNNAME":"永康區","LI":"西灣里","LIN":"29鄰","STREET":"公園路","SECT":" ","MAREA":" ","LANE":"６３巷","ALLEY":" ","HOUSE_NO":"６６號","E_COORD97":174349.23000000001,"N_COORD97":2545817.75,"ADDRESS":"公園路６３巷６６號","OBJECTID":389876},"geometry":{"x":174349.23000000138,"y":2545817.7500000019}},{"attributes":{"ID":389901,"DIS_CODE":0,"TOWNNAME":"永康區","LI":"西灣里","LIN":"29鄰","STREET":"公園路","SECT":" ","MAREA":" ","LANE":"６３巷","ALLEY":" ","HOUSE_NO":"３８號","E_COORD97":174350.47,"N_COORD97":2545878.2400000002,"ADDRESS":"公園路６３巷３８號","OBJECTID":389877},"geometry":{"x":174350.47000000067,"y":2545878.2400000021}},{"attributes":{"ID":389902,"DIS_CODE":0,"TOWNNAME":"永康區","LI":"西灣里","LIN":"29鄰","STREET":"公園路","SECT":" ","MAREA":" ","LANE":"６３巷","ALLEY":" ","HOUSE_NO":"７６號","E_COORD97":174346.82000000001,"N_COORD97":2545795,"ADDRESS":"公園路６３巷７６號","OBJECTID":389878},"geometry":{"x":174346.82000000123,"y":2545795.0000000019}},{"attributes":{"ID":389903,"DIS_CODE":0,"TOWNNAME":"永康區","LI":"尚頂里","LIN":"29鄰","STREET":"南台街","SECT":" ","MAREA":" ","LANE":"８９巷","ALLEY":" ","HOUSE_NO":"１３號之１","E_COORD97":170213.25,"N_COORD97":2546957.0499999998,"ADDRESS":"南台街８９巷１３號之１","OBJECTID":389879},"geometry":{"x":170213.25,"y":2546957.0500000007}},{"attributes":{"ID":389904,"DIS_CODE":0,"TOWNNAME":"永康區","LI":"\u25A0行里","LIN":"29鄰","STREET":"竹林街","SECT":" ","MAREA":" ","LANE":"２４巷","ALLEY":" ","HOUSE_NO":"７號之５","E_COORD97":172715.39000000001,"N_COORD97":2548934.6099999999,"ADDRESS":"竹林街２４巷７號之５","OBJECTID":389880},"geometry":{"x":172715.38999999966,"y":2548934.6099999994}},{"attributes":{"ID":389905,"DIS_CODE":0,"TOWNNAME":"永康區","LI":"\u25A0行里","LIN":"29鄰","STREET":"竹林街","SECT":" ","MAREA":" ","LANE":"２４巷","ALLEY":" ","HOUSE_NO":"７號之４","E_COORD97":172719.57000000001,"N_COORD97":2548934.8599999999,"ADDRESS":"竹林街２４巷７號之４","OBJECTID":389881},"geometry":{"x":172719.57000000123,"y":2548934.8600000013}},{"attributes":{"ID":389906,"DIS_CODE":0,"TOWNNAME":"永康區","LI":"\u25A0行里","LIN":"29鄰","STREET":"竹林街","SECT":" ","MAREA":" ","LANE":"２４巷","ALLEY":" ","HOUSE_NO":"７號之９","E_COORD97":172698.98000000001,"N_COORD97":2548931.3599999999,"ADDRESS":"竹林街２４巷７號之９","OBJECTID":389882},"geometry":{"x":172698.98000000045,"y":2548931.3600000013}},{"attributes":{"ID":389907,"DIS_CODE":0,"TOWNNAME":"永康區","LI":"\u25A0行里","LIN":"29鄰","STREET":"竹林街","SECT":" ","MAREA":" ","LANE":"２４巷","ALLEY":" ","HOUSE_NO":"１２號","E_COORD97":172631.64999999999,"N_COORD97":2548911,"ADDRESS":"竹林街２４巷１２號","OBJECTID":389883},"geometry":{"x":172631.65000000037,"y":2548911.0000000019}},{"attributes":{"ID":389908,"DIS_CODE":0,"TOWNNAME":"永康區","LI":"\u25A0行里","LIN":"29鄰","STREET":"竹林街","SECT":" ","MAREA":" ","LANE":"２４巷","ALLEY":" ","HOUSE_NO":"１５號","E_COORD97":172695.01999999999,"N_COORD97":2548913.6299999999,"ADDRESS":"竹林街２４巷１５號","OBJECTID":389884},"geometry":{"x":172695.02000000048,"y":2548913.629999999}},{"attributes":{"ID":389909,"DIS_CODE":0,"TOWNNAME":"永康區","LI":"\u25A0行里","LIN":"29鄰","STREET":"竹林街","SECT":" ","MAREA":" ","LANE":"２４巷","ALLEY":" ","HOUSE_NO":"４號","E_COORD97":172743.16,"N_COORD97":2548937.25,"ADDRESS":"竹林街２４巷４號","OBJECTID":389885},"geometry":{"x":172743.16000000015,"y":2548937.25}},{"attributes":{"ID":389910,"DIS_CODE":0,"TOWNNAME":"永康區","LI":"\u25A0行里","LIN":"29鄰","STREET":"中正五街","SECT":" ","MAREA":" ","LANE":"５３巷","ALLEY":" ","HOUSE_NO":"１０號","E_COORD97":172691.29000000001,"N_COORD97":2548547.4900000002,"ADDRESS":"中正五街５３巷１０號","OBJECTID":389886},"geometry":{"x":172691.29000000004,"y":2548547.4900000039}},{"attributes":{"ID":389911,"DIS_CODE":0,"TOWNNAME":"永康區","LI":"\u25A0行里","LIN":"29鄰","STREET":"中正五街","SECT":" ","MAREA":" ","LANE":"５３巷","ALLEY":" ","HOUSE_NO":"１８號","E_COORD97":172692.13,"N_COORD97":2548581.75,"ADDRESS":"中正五街５３巷１８號","OBJECTID":389887},"geometry":{"x":172692.12999999989,"y":2548581.75}},{"attributes":{"ID":389912,"DIS_CODE":0,"TOWNNAME":"永康區","LI":"\u25A0行里","LIN":"29鄰","STREET":"竹林街","SECT":" ","MAREA":" ","LANE":"２４巷","ALLEY":" ","HOUSE_NO":"１１號","E_COORD97":172669.72,"N_COORD97":2548908,"ADDRESS":"竹林街２４巷１１號","OBJECTID":389888},"geometry":{"x":172669.71999999974,"y":2548908.0000000019}},{"attributes":{"ID":389913,"DIS_CODE":0,"TOWNNAME":"安南區","LI":"州北里","LIN":"29鄰","STREET":"安昌街","SECT":" ","MAREA":" ","LANE":"５５巷","ALLEY":" ","HOUSE_NO":"１５號","E_COORD97":169855.44,"N_COORD97":2552102.21,"ADDRESS":"安昌街５５巷１５號","OBJECTID":389889},"geometry":{"x":169855.44000000134,"y":2552102.2100000009}},{"attributes":{"ID":389914,"DIS_CODE":0,"TOWNNAME":"安南區","LI":"州北里","LIN":"29鄰","STREET":"安昌街","SECT":" ","MAREA":" ","LANE":"５５巷","ALLEY":" ","HOUSE_NO":"１７號","E_COORD97":169854.79999999999,"N_COORD97":2552108.1400000001,"ADDRESS":"安昌街５５巷１７號","OBJECTID":389890},"geometry":{"x":169854.79999999981,"y":2552108.1400000025}},{"attributes":{"ID":389915,"DIS_CODE":0,"TOWNNAME":"安南區","LI":"州北里","LIN":"29鄰","STREET":"安昌街","SECT":" ","MAREA":" ","LANE":"５５巷","ALLEY":" ","HOUSE_NO":"１９號","E_COORD97":169855.23999999999,"N_COORD97":2552113.6299999999,"ADDRESS":"安昌街５５巷１９號","OBJECTID":389891},"geometry":{"x":169855.24000000115,"y":2552113.629999999}},{"attributes":{"ID":389916,"DIS_CODE":0,"TOWNNAME":"安南區","LI":"州北里","LIN":"29鄰","STREET":"安昌街","SECT":" ","MAREA":" ","LANE":"５５巷","ALLEY":" ","HOUSE_NO":"２１號","E_COORD97":169855.16,"N_COORD97":2552118.6099999999,"ADDRESS":"安昌街５５巷２１號","OBJECTID":389892},"geometry":{"x":169855.16000000108,"y":2552118.6099999994}},{"attributes":{"ID":389917,"DIS_CODE":0,"TOWNNAME":"安南區","LI":"州北里","LIN":"29鄰","STREET":"安昌街","SECT":" ","MAREA":" ","LANE":"５５巷","ALLEY":" ","HOUSE_NO":"２３號","E_COORD97":169854.51999999999,"N_COORD97":2552124.6299999999,"ADDRESS":"安昌街５５巷２３號","OBJECTID":389893},"geometry":{"x":169854.51999999955,"y":2552124.629999999}},{"attributes":{"ID":389918,"DIS_CODE":0,"TOWNNAME":"安南區","LI":"州北里","LIN":"29鄰","STREET":"安昌街","SECT":" ","MAREA":" ","LANE":"５５巷","ALLEY":" ","HOUSE_NO":"２５號","E_COORD97":169854.95999999999,"N_COORD97":2552130,"ADDRESS":"安昌街５５巷２５號","OBJECTID":389894},"geometry":{"x":169854.96000000089,"y":2552130}},{"attributes":{"ID":389919,"DIS_CODE":0,"TOWNNAME":"安南區","LI":"州北里","LIN":"29鄰","STREET":"安昌街","SECT":" ","MAREA":" ","LANE":"５５巷","ALLEY":" ","HOUSE_NO":"２７號","E_COORD97":169854.88,"N_COORD97":2552134.9399999999,"ADDRESS":"安昌街５５巷２７號","OBJECTID":389895},"geometry":{"x":169854.88000000175,"y":2552134.9400000013}},{"attributes":{"ID":389920,"DIS_CODE":0,"TOWNNAME":"六甲區","LI":"二甲里","LIN":"9鄰","STREET":"中山路","SECT":" ","MAREA":" ","LANE":"２７７巷","ALLEY":" ","HOUSE_NO":"３９號","E_COORD97":182989.78443699999,"N_COORD97":2570027.38797,"ADDRESS":"中山路２７７巷３９號","OBJECTID":389896},"geometry":{"x":182989.78443699982,"y":2570027.3879669998}},{"attributes":{"ID":389921,"DIS_CODE":0,"TOWNNAME":"安南區","LI":"州北里","LIN":"29鄰","STREET":"安昌街","SECT":" ","MAREA":" ","LANE":"５５巷","ALLEY":" ","HOUSE_NO":"２９號","E_COORD97":169854.79000000001,"N_COORD97":2552139.8900000001,"ADDRESS":"安昌街５５巷２９號","OBJECTID":389897},"geometry":{"x":169854.79000000097,"y":2552139.8900000025}},{"attributes":{"ID":389922,"DIS_CODE":0,"TOWNNAME":"安南區","LI":"州北里","LIN":"29鄰","STREET":"安昌街","SECT":" ","MAREA":" ","LANE":"５５巷","ALLEY":" ","HOUSE_NO":"３１號","E_COORD97":169854.70999999999,"N_COORD97":2552144.8399999999,"ADDRESS":"安昌街５５巷３１號","OBJECTID":389898},"geometry":{"x":169854.71000000089,"y":2552144.8399999999}},{"attributes":{"ID":389923,"DIS_CODE":0,"TOWNNAME":"安南區","LI":"州北里","LIN":"29鄰","STREET":"安昌街","SECT":" ","MAREA":" ","LANE":"５５巷","ALLEY":" ","HOUSE_NO":"３３號","E_COORD97":169854.07000000001,"N_COORD97":2552150.7599999998,"ADDRESS":"安昌街５５巷３３號","OBJECTID":389899},"geometry":{"x":169854.07000000216,"y":2552150.7599999998}},{"attributes":{"ID":389924,"DIS_CODE":0,"TOWNNAME":"安南區","LI":"州北里","LIN":"29鄰","STREET":"安昌街","SECT":" ","MAREA":" ","LANE":"５５巷","ALLEY":" ","HOUSE_NO":"３５號","E_COORD97":169854.51000000001,"N_COORD97":2552156.1600000001,"ADDRESS":"安昌街５５巷３５號","OBJECTID":389900},"geometry":{"x":169854.51000000071,"y":2552156.1600000001}},{"attributes":{"ID":389925,"DIS_CODE":0,"TOWNNAME":"安南區","LI":"州北里","LIN":"29鄰","STREET":"安昌街","SECT":" ","MAREA":" ","LANE":"５５巷","ALLEY":" ","HOUSE_NO":"３７號","E_COORD97":169854.42999999999,"N_COORD97":2552161.1099999999,"ADDRESS":"安昌街５５巷３７號","OBJECTID":389901},"geometry":{"x":169854.43000000156,"y":2552161.1100000013}},{"attributes":{"ID":389926,"DIS_CODE":0,"TOWNNAME":"安南區","LI":"州北里","LIN":"29鄰","STREET":"安昌街","SECT":" ","MAREA":" ","LANE":"５５巷","ALLEY":" ","HOUSE_NO":"３９號","E_COORD97":169854.34,"N_COORD97":2552166.0600000001,"ADDRESS":"安昌街５５巷３９號","OBJECTID":389902},"geometry":{"x":169854.33999999985,"y":2552166.0600000024}},{"attributes":{"ID":389927,"DIS_CODE":0,"TOWNNAME":"安南區","LI":"州北里","LIN":"29鄰","STREET":"安昌街","SECT":" ","MAREA":" ","LANE":"５５巷","ALLEY":" ","HOUSE_NO":"４１號","E_COORD97":169853.70999999999,"N_COORD97":2552171.98,"ADDRESS":"安昌街５５巷４１號","OBJECTID":389903},"geometry":{"x":169853.70999999996,"y":2552171.9800000042}},{"attributes":{"ID":389928,"DIS_CODE":0,"TOWNNAME":"安南區","LI":"州北里","LIN":"29鄰","STREET":"安昌街","SECT":" ","MAREA":" ","LANE":"５５巷","ALLEY":" ","HOUSE_NO":"４３號","E_COORD97":169854.14999999999,"N_COORD97":2552177.5899999999,"ADDRESS":"安昌街５５巷４３號","OBJECTID":389904},"geometry":{"x":169854.1500000013,"y":2552177.5900000036}},{"attributes":{"ID":389929,"DIS_CODE":0,"TOWNNAME":"安南區","LI":"州北里","LIN":"29鄰","STREET":"安昌街","SECT":" ","MAREA":" ","LANE":"５５巷","ALLEY":" ","HOUSE_NO":"４５號","E_COORD97":169854.45999999999,"N_COORD97":2552184.8199999998,"ADDRESS":"安昌街５５巷４５號","OBJECTID":389905},"geometry":{"x":169854.46000000183,"y":2552184.8200000003}},{"attributes":{"ID":389930,"DIS_CODE":0,"TOWNNAME":"東區","LI":"中西里","LIN":"29鄰","STREET":"東寧路","SECT":" ","MAREA":" ","LANE":"１３４巷","ALLEY":" ","HOUSE_NO":"１６號","E_COORD97":170334.67000000001,"N_COORD97":2543434.8300000001,"ADDRESS":"東寧路１３４巷１６號","OBJECTID":389906},"geometry":{"x":170334.67000000086,"y":2543434.8300000001}},{"attributes":{"ID":389931,"DIS_CODE":0,"TOWNNAME":"仁德區","LI":"仁義里","LIN":"18鄰","STREET":"正義三街","SECT":" ","MAREA":" ","LANE":"２８６巷","ALLEY":" ","HOUSE_NO":"４２號","E_COORD97":173990.35999999999,"N_COORD97":2541456.75,"ADDRESS":"正義三街２８６巷４２號","OBJECTID":389907},"geometry":{"x":173990.36000000127,"y":2541456.7500000019}},{"attributes":{"ID":389932,"DIS_CODE":0,"TOWNNAME":"仁德區","LI":"仁義里","LIN":"52鄰","STREET":"仁義三街","SECT":" ","MAREA":" ","LANE":"３４巷","ALLEY":" ","HOUSE_NO":"２２號","E_COORD97":173491.03,"N_COORD97":2541081.5099999998,"ADDRESS":"仁義三街３４巷２２號","OBJECTID":389908},"geometry":{"x":173491.03000000119,"y":2541081.5100000016}},{"attributes":{"ID":389933,"DIS_CODE":0,"TOWNNAME":"東區","LI":"中西里","LIN":"29鄰","STREET":"東寧路","SECT":" ","MAREA":" ","LANE":"１３４巷","ALLEY":" ","HOUSE_NO":"１８號","E_COORD97":170337.62,"N_COORD97":2543430.6099999999,"ADDRESS":"東寧路１３４巷１８號","OBJECTID":389909},"geometry":{"x":170337.62000000011,"y":2543430.6100000013}},{"attributes":{"ID":389934,"DIS_CODE":0,"TOWNNAME":"東區","LI":"中西里","LIN":"29鄰","STREET":"東寧路","SECT":" ","MAREA":" ","LANE":"１３４巷","ALLEY":" ","HOUSE_NO":"２７號","E_COORD97":170325.73000000001,"N_COORD97":2543485.3300000001,"ADDRESS":"東寧路１３４巷２７號","OBJECTID":389910},"geometry":{"x":170325.73000000045,"y":2543485.3300000001}},{"attributes":{"ID":389935,"DIS_CODE":0,"TOWNNAME":"東區","LI":"中西里","LIN":"29鄰","STREET":"東寧路","SECT":" ","MAREA":" ","LANE":"１３４巷","ALLEY":" ","HOUSE_NO":"２９號","E_COORD97":170327.98999999999,"N_COORD97":2543481.0099999998,"ADDRESS":"東寧路１３４巷２９號","OBJECTID":389911},"geometry":{"x":170327.99000000115,"y":2543481.0099999998}},{"attributes":{"ID":389936,"DIS_CODE":0,"TOWNNAME":"東區","LI":"中西里","LIN":"29鄰","STREET":"東寧路","SECT":" ","MAREA":" ","LANE":"１３４巷","ALLEY":" ","HOUSE_NO":"３１號","E_COORD97":170330.04999999999,"N_COORD97":2543476.79,"ADDRESS":"東寧路１３４巷３１號","OBJECTID":389912},"geometry":{"x":170330.05000000168,"y":2543476.790000001}},{"attributes":{"ID":389937,"DIS_CODE":0,"TOWNNAME":"東區","LI":"中西里","LIN":"29鄰","STREET":"東寧路","SECT":" ","MAREA":" ","LANE":"１３４巷","ALLEY":" ","HOUSE_NO":"３３號","E_COORD97":170336.14999999999,"N_COORD97":2543466.73,"ADDRESS":"東寧路１３４巷３３號","OBJECTID":389913},"geometry":{"x":170336.15000000037,"y":2543466.7300000004}},{"attributes":{"ID":389938,"DIS_CODE":0,"TOWNNAME":"東區","LI":"中西里","LIN":"29鄰","STREET":"東寧路","SECT":" ","MAREA":" ","LANE":"１３４巷","ALLEY":" ","HOUSE_NO":"３７號","E_COORD97":170340.67000000001,"N_COORD97":2543449.8399999999,"ADDRESS":"東寧路１３４巷３７號","OBJECTID":389914},"geometry":{"x":170340.66999999993,"y":2543449.8400000017}},{"attributes":{"ID":389939,"DIS_CODE":0,"TOWNNAME":"東區","LI":"中西里","LIN":"29鄰","STREET":"東寧路","SECT":" ","MAREA":" ","LANE":"１３４巷","ALLEY":" ","HOUSE_NO":"４１號","E_COORD97":170352.76000000001,"N_COORD97":2543431.4900000002,"ADDRESS":"東寧路１３４巷４１號","OBJECTID":389915},"geometry":{"x":170352.76000000071,"y":2543431.4900000039}},{"attributes":{"ID":389940,"DIS_CODE":0,"TOWNNAME":"東區","LI":"中西里","LIN":"29鄰","STREET":"東寧路","SECT":" ","MAREA":" ","LANE":"１３４巷","ALLEY":" ","HOUSE_NO":"４７號","E_COORD97":170353.35000000001,"N_COORD97":2543471.9100000001,"ADDRESS":"東寧路１３４巷４７號","OBJECTID":389916},"geometry":{"x":170353.35000000149,"y":2543471.9100000001}},{"attributes":{"ID":389941,"DIS_CODE":0,"TOWNNAME":"東區","LI":"中西里","LIN":"29鄰","STREET":"東寧路","SECT":" ","MAREA":" ","LANE":"１３４巷","ALLEY":" ","HOUSE_NO":"４９號","E_COORD97":170351.57999999999,"N_COORD97":2543478.0899999999,"ADDRESS":"東寧路１３４巷４９號","OBJECTID":389917},"geometry":{"x":170351.58000000007,"y":2543478.0900000017}},{"attributes":{"ID":389942,"DIS_CODE":0,"TOWNNAME":"東區","LI":"中西里","LIN":"29鄰","STREET":"東寧路","SECT":" ","MAREA":" ","LANE":"１３４巷","ALLEY":" ","HOUSE_NO":"５１號","E_COORD97":170347.95000000001,"N_COORD97":2543484.8700000001,"ADDRESS":"東寧路１３４巷５１號","OBJECTID":389918},"geometry":{"x":170347.94999999925,"y":2543484.8700000029}},{"attributes":{"ID":389943,"DIS_CODE":0,"TOWNNAME":"東區","LI":"中西里","LIN":"29鄰","STREET":"東寧路","SECT":" ","MAREA":" ","LANE":"１３４巷","ALLEY":" ","HOUSE_NO":"５３號","E_COORD97":170346.07999999999,"N_COORD97":2543491.0600000001,"ADDRESS":"東寧路１３４巷５３號","OBJECTID":389919},"geometry":{"x":170346.08000000101,"y":2543491.0600000005}},{"attributes":{"ID":389944,"DIS_CODE":0,"TOWNNAME":"東區","LI":"中西里","LIN":"29鄰","STREET":"東寧路","SECT":" ","MAREA":" ","LANE":"１３４巷","ALLEY":" ","HOUSE_NO":"６１號","E_COORD97":170362.98999999999,"N_COORD97":2543467.3199999998,"ADDRESS":"東寧路１３４巷６１號","OBJECTID":389920},"geometry":{"x":170362.98999999929,"y":2543467.3200000022}},{"attributes":{"ID":389945,"DIS_CODE":0,"TOWNNAME":"東區","LI":"中西里","LIN":"29鄰","STREET":"東寧路","SECT":" ","MAREA":" ","LANE":"１３４巷","ALLEY":" ","HOUSE_NO":"６１號之１","E_COORD97":170366.92000000001,"N_COORD97":2543461.8199999998,"ADDRESS":"東寧路１３４巷６１號之１","OBJECTID":389921},"geometry":{"x":170366.92000000086,"y":2543461.8200000003}},{"attributes":{"ID":389946,"DIS_CODE":0,"TOWNNAME":"東區","LI":"中西里","LIN":"29鄰","STREET":"東寧路","SECT":" ","MAREA":" ","LANE":"１３４巷","ALLEY":" ","HOUSE_NO":"６１號之３","E_COORD97":170370.76000000001,"N_COORD97":2543451.21,"ADDRESS":"東寧路１３４巷６１號之３","OBJECTID":389922},"geometry":{"x":170370.75999999978,"y":2543451.2100000028}},{"attributes":{"ID":389947,"DIS_CODE":0,"TOWNNAME":"東區","LI":"中西里","LIN":"29鄰","STREET":"東寧路","SECT":" ","MAREA":" ","LANE":"１３４巷","ALLEY":" ","HOUSE_NO":"８號","E_COORD97":170326.57000000001,"N_COORD97":2543460.3700000001,"ADDRESS":"東寧路１３４巷８號","OBJECTID":389923},"geometry":{"x":170326.5700000003,"y":2543460.3700000029}},{"attributes":{"ID":389948,"DIS_CODE":0,"TOWNNAME":"東區","LI":"中西里","LIN":"29鄰","STREET":"東寧路","SECT":" ","MAREA":" ","LANE":"１３４巷","ALLEY":" ","HOUSE_NO":"５５號","E_COORD97":170358.95999999999,"N_COORD97":2543491.1299999999,"ADDRESS":"東寧路１３４巷５５號","OBJECTID":389924},"geometry":{"x":170358.95999999996,"y":2543491.1300000008}},{"attributes":{"ID":389949,"DIS_CODE":0,"TOWNNAME":"東區","LI":"中西里","LIN":"29鄰","STREET":"東寧路","SECT":" ","MAREA":" ","LANE":"１３４巷","ALLEY":" ","HOUSE_NO":"５７號","E_COORD97":170360.82999999999,"N_COORD97":2543479.7400000002,"ADDRESS":"東寧路１３４巷５７號","OBJECTID":389925},"geometry":{"x":170360.83000000101,"y":2543479.7400000002}},{"attributes":{"ID":389950,"DIS_CODE":0,"TOWNNAME":"東區","LI":"中西里","LIN":"29鄰","STREET":"東寧路","SECT":" ","MAREA":" ","LANE":"１３４巷","ALLEY":" ","HOUSE_NO":"６５號","E_COORD97":170374.88,"N_COORD97":2543445.2799999998,"ADDRESS":"東寧路１３４巷６５號","OBJECTID":389926},"geometry":{"x":170374.87999999989,"y":2543445.2800000031}},{"attributes":{"ID":389951,"DIS_CODE":0,"TOWNNAME":"新營區","LI":"大宏里","LIN":"29鄰","STREET":"新東街","SECT":" ","MAREA":" ","LANE":"４１巷","ALLEY":" ","HOUSE_NO":"２號","E_COORD97":180798.25,"N_COORD97":2578731.7599999998,"ADDRESS":"新東街４１巷２號","OBJECTID":389927},"geometry":{"x":180798.25,"y":2578731.7599999998}},{"attributes":{"ID":389952,"DIS_CODE":0,"TOWNNAME":"東區","LI":"中西里","LIN":"29鄰","STREET":"東寧路","SECT":" ","MAREA":" ","LANE":"１３４巷","ALLEY":" ","HOUSE_NO":"６１號之２","E_COORD97":170368.59,"N_COORD97":2543456.5099999998,"ADDRESS":"東寧路１３４巷６１號之２","OBJECTID":389928},"geometry":{"x":170368.58999999985,"y":2543456.5099999998}},{"attributes":{"ID":389953,"DIS_CODE":0,"TOWNNAME":"東區","LI":"中西里","LIN":"29鄰","STREET":"東寧路","SECT":" ","MAREA":" ","LANE":"１３４巷","ALLEY":" ","HOUSE_NO":"５９號","E_COORD97":170360.42999999999,"N_COORD97":2543473.1099999999,"ADDRESS":"東寧路１３４巷５９號","OBJECTID":389929},"geometry":{"x":170360.4299999997,"y":2543473.1099999994}},{"attributes":{"ID":389954,"DIS_CODE":0,"TOWNNAME":"東區","LI":"中西里","LIN":"29鄰","STREET":"東寧路","SECT":" ","MAREA":" ","LANE":"１３４巷","ALLEY":" ","HOUSE_NO":"６號","E_COORD97":170317.95999999999,"N_COORD97":2543466.9199999999,"ADDRESS":"東寧路１３４巷６號","OBJECTID":389930},"geometry":{"x":170317.96000000089,"y":2543466.9200000018}},{"attributes":{"ID":389955,"DIS_CODE":0,"TOWNNAME":"仁德區","LI":"仁義里","LIN":"3鄰","STREET":"仁義二街","SECT":" ","MAREA":" ","LANE":"７０巷","ALLEY":" ","HOUSE_NO":"１號","E_COORD97":173889.39000000001,"N_COORD97":2541166.52,"ADDRESS":"仁義二街７０巷１號","OBJECTID":389931},"geometry":{"x":173889.3900000006,"y":2541166.5200000014}},{"attributes":{"ID":389956,"DIS_CODE":0,"TOWNNAME":"永康區","LI":"\u25A0行里","LIN":"29鄰","STREET":"竹林街","SECT":" ","MAREA":" ","LANE":"２４巷","ALLEY":" ","HOUSE_NO":"７之３號","E_COORD97":172723.72,"N_COORD97":2548935.1099999999,"ADDRESS":"竹林街２４巷７之３號","OBJECTID":389932},"geometry":{"x":172723.71999999974,"y":2548935.1099999994}},{"attributes":{"ID":389957,"DIS_CODE":0,"TOWNNAME":"永康區","LI":"\u25A0洲里","LIN":"29鄰","STREET":"洲尾街","SECT":" ","MAREA":" ","LANE":"１５４巷","ALLEY":" ","HOUSE_NO":"９號","E_COORD97":171128.16,"N_COORD97":2549120.1699999999,"ADDRESS":"洲尾街１５４巷９號","OBJECTID":389933},"geometry":{"x":171128.16000000201,"y":2549120.1700000018}},{"attributes":{"ID":389958,"DIS_CODE":0,"TOWNNAME":"安南區","LI":"\u25A0南里","LIN":"29鄰","STREET":"安昌街","SECT":" ","MAREA":" ","LANE":"３００巷","ALLEY":" ","HOUSE_NO":"１５號","E_COORD97":170200.45000000001,"N_COORD97":2552786.8599999999,"ADDRESS":"安昌街３００巷１５號","OBJECTID":389934},"geometry":{"x":170200.45000000019,"y":2552786.8600000013}},{"attributes":{"ID":389959,"DIS_CODE":0,"TOWNNAME":"安南區","LI":"\u25A0南里","LIN":"29鄰","STREET":"安昌街","SECT":" ","MAREA":" ","LANE":"３００巷","ALLEY":" ","HOUSE_NO":"２１號","E_COORD97":170210.48000000001,"N_COORD97":2552774.73,"ADDRESS":"安昌街３００巷２１號","OBJECTID":389935},"geometry":{"x":170210.48000000045,"y":2552774.7300000023}},{"attributes":{"ID":389960,"DIS_CODE":0,"TOWNNAME":"安南區","LI":"\u25A0南里","LIN":"29鄰","STREET":"安昌街","SECT":" ","MAREA":" ","LANE":"３００巷","ALLEY":" ","HOUSE_NO":"２３號","E_COORD97":170217.60000000001,"N_COORD97":2552772.8599999999,"ADDRESS":"安昌街３００巷２３號","OBJECTID":389936},"geometry":{"x":170217.60000000149,"y":2552772.8600000013}},{"attributes":{"ID":389961,"DIS_CODE":0,"TOWNNAME":"永康區","LI":"\u25A0行里","LIN":"29鄰","STREET":"竹林街","SECT":" ","MAREA":" ","LANE":"２４巷","ALLEY":" ","HOUSE_NO":"７號之７","E_COORD97":172707.23999999999,"N_COORD97":2548932.1099999999,"ADDRESS":"竹林街２４巷７號之７","OBJECTID":389937},"geometry":{"x":172707.24000000022,"y":2548932.1100000031}},{"attributes":{"ID":389962,"DIS_CODE":0,"TOWNNAME":"永康區","LI":"\u25A0行里","LIN":"29鄰","STREET":"竹林街","SECT":" ","MAREA":" ","LANE":"２４巷","ALLEY":" ","HOUSE_NO":"１６號","E_COORD97":172701.60999999999,"N_COORD97":2548914.8799999999,"ADDRESS":"竹林街２４巷１６號","OBJECTID":389938},"geometry":{"x":172701.61000000034,"y":2548914.879999999}},{"attributes":{"ID":389963,"DIS_CODE":0,"TOWNNAME":"永康區","LI":"\u25A0洲里","LIN":"29鄰","STREET":"洲尾街","SECT":" ","MAREA":" ","LANE":"１５４巷","ALLEY":" ","HOUSE_NO":"７號","E_COORD97":171122.51000000001,"N_COORD97":2549120.1699999999,"ADDRESS":"洲尾街１５４巷７號","OBJECTID":389939},"geometry":{"x":171122.51000000071,"y":2549120.1700000018}},{"attributes":{"ID":389964,"DIS_CODE":0,"TOWNNAME":"永康區","LI":"\u25A0行里","LIN":"29鄰","STREET":"竹林街","SECT":" ","MAREA":" ","LANE":"１４巷","ALLEY":" ","HOUSE_NO":"３之２號","E_COORD97":172745.03,"N_COORD97":2548983.54,"ADDRESS":"竹林街１４巷３之２號","OBJECTID":389940},"geometry":{"x":172745.03000000119,"y":2548983.540000001}},{"attributes":{"ID":389965,"DIS_CODE":0,"TOWNNAME":"永康區","LI":"\u25A0行里","LIN":"29鄰","STREET":"竹林街","SECT":" ","MAREA":" ","LANE":"１４巷","ALLEY":" ","HOUSE_NO":"１３號","E_COORD97":172736.42000000001,"N_COORD97":2548962.4900000002,"ADDRESS":"竹林街１４巷１３號","OBJECTID":389941},"geometry":{"x":172736.41999999899,"y":2548962.4900000021}},{"attributes":{"ID":389966,"DIS_CODE":0,"TOWNNAME":"永康區","LI":"\u25A0行里","LIN":"29鄰","STREET":"竹林街","SECT":" ","MAREA":" ","LANE":"１４巷","ALLEY":" ","HOUSE_NO":"５號","E_COORD97":172721.89999999999,"N_COORD97":2548984.2400000002,"ADDRESS":"竹林街１４巷５號","OBJECTID":389942},"geometry":{"x":172721.90000000224,"y":2548984.2400000021}},{"attributes":{"ID":389967,"DIS_CODE":0,"TOWNNAME":"永康區","LI":"成功里","LIN":"29鄰","STREET":"中華路","SECT":" ","MAREA":" ","LANE":"１３４巷","ALLEY":" ","HOUSE_NO":"６７號","E_COORD97":171759.97,"N_COORD97":2544821.9100000001,"ADDRESS":"中華路１３４巷６７號","OBJECTID":389943},"geometry":{"x":171759.97000000067,"y":2544821.9100000039}},{"attributes":{"ID":389968,"DIS_CODE":0,"TOWNNAME":"新營區","LI":"忠政里","LIN":"29鄰","STREET":"府西路","SECT":" ","MAREA":" ","LANE":"８７巷","ALLEY":" ","HOUSE_NO":"１８號","E_COORD97":179748.16,"N_COORD97":2579208.48,"ADDRESS":"府西路８７巷１８號","OBJECTID":389944},"geometry":{"x":179748.16000000201,"y":2579208.4800000023}},{"attributes":{"ID":389969,"DIS_CODE":0,"TOWNNAME":"歸仁區","LI":"許厝里","LIN":"29鄰","STREET":"中山路","SECT":"一段","MAREA":" ","LANE":"５１５巷","ALLEY":" ","HOUSE_NO":"６號","E_COORD97":177955.85999999999,"N_COORD97":2540693.54,"ADDRESS":"中山路一段５１５巷６號","OBJECTID":389945},"geometry":{"x":177955.86000000127,"y":2540693.5399999972}},{"attributes":{"ID":389970,"DIS_CODE":0,"TOWNNAME":"歸仁區","LI":"許厝里","LIN":"29鄰","STREET":"中山路","SECT":"一段","MAREA":" ","LANE":"５１５巷","ALLEY":" ","HOUSE_NO":"１１號","E_COORD97":177966.31,"N_COORD97":2540680.54,"ADDRESS":"中山路一段５１５巷１１號","OBJECTID":389946},"geometry":{"x":177966.30999999959,"y":2540680.540000001}},{"attributes":{"ID":389971,"DIS_CODE":0,"TOWNNAME":"玉井區","LI":"玉田里","LIN":"29鄰","STREET":"仁愛街","SECT":" ","MAREA":" ","LANE":"１５０巷","ALLEY":" ","HOUSE_NO":"４６號","E_COORD97":195478.03,"N_COORD97":2557789.27,"ADDRESS":"仁愛街１５０巷４６號","OBJECTID":389947},"geometry":{"x":195478.03000000026,"y":2557789.2699999996}},{"attributes":{"ID":389972,"DIS_CODE":0,"TOWNNAME":"北區","LI":"成德里","LIN":"29鄰","STREET":"育德路","SECT":" ","MAREA":" ","LANE":"１８７巷","ALLEY":" ","HOUSE_NO":"１７號","E_COORD97":168541.64999999999,"N_COORD97":2545641.27,"ADDRESS":"育德路１８７巷１７號","OBJECTID":389948},"geometry":{"x":168541.65000000224,"y":2545641.2699999996}},{"attributes":{"ID":389973,"DIS_CODE":0,"TOWNNAME":"北區","LI":"成德里","LIN":"29鄰","STREET":"育德路","SECT":" ","MAREA":" ","LANE":"１８７巷","ALLEY":" ","HOUSE_NO":"１５號","E_COORD97":168548.32000000001,"N_COORD97":2545640.3199999998,"ADDRESS":"育德路１８７巷１５號","OBJECTID":389949},"geometry":{"x":168548.3200000003,"y":2545640.3200000022}},{"attributes":{"ID":389974,"DIS_CODE":0,"TOWNNAME":"北區","LI":"成德里","LIN":"29鄰","STREET":"育德路","SECT":" ","MAREA":" ","LANE":"１９９巷","ALLEY":" ","HOUSE_NO":"１號","E_COORD97":168605.14999999999,"N_COORD97":2545669.8500000001,"ADDRESS":"育德路１９９巷１號","OBJECTID":389950},"geometry":{"x":168605.15000000037,"y":2545669.8500000015}},{"attributes":{"ID":389975,"DIS_CODE":0,"TOWNNAME":"北區","LI":"成德里","LIN":"29鄰","STREET":"育德路","SECT":" ","MAREA":" ","LANE":"１８７巷","ALLEY":" ","HOUSE_NO":"１號","E_COORD97":168594.98999999999,"N_COORD97":2545633.9700000002,"ADDRESS":"育德路１８７巷１號","OBJECTID":389951},"geometry":{"x":168594.99000000209,"y":2545633.9700000007}},{"attributes":{"ID":389976,"DIS_CODE":0,"TOWNNAME":"新營區","LI":"王公里","LIN":"29鄰","STREET":"長榮路","SECT":"一段","MAREA":" ","LANE":"５１５巷","ALLEY":" ","HOUSE_NO":"４９號","E_COORD97":180312.10999999999,"N_COORD97":2579705.27,"ADDRESS":"長榮路一段５１５巷４９號","OBJECTID":389952},"geometry":{"x":180312.11000000127,"y":2579705.2699999996}},{"attributes":{"ID":389977,"DIS_CODE":0,"TOWNNAME":"新營區","LI":"民榮里","LIN":"29鄰","STREET":"太子路","SECT":" ","MAREA":" ","LANE":"４４巷","ALLEY":" ","HOUSE_NO":"３之１號","E_COORD97":178266.23000000001,"N_COORD97":2578112.6200000001,"ADDRESS":"太子路４４巷３之１號","OBJECTID":389953},"geometry":{"x":178266.23000000045,"y":2578112.6200000029}},{"attributes":{"ID":389978,"DIS_CODE":0,"TOWNNAME":"新營區","LI":"忠政里","LIN":"29鄰","STREET":"中正路","SECT":" ","MAREA":" ","LANE":"３９巷","ALLEY":" ","HOUSE_NO":"１３５號之１１","E_COORD97":179708.34,"N_COORD97":2579321.7000000002,"ADDRESS":"中正路３９巷１３５號之１１","OBJECTID":389954},"geometry":{"x":179708.34000000078,"y":2579321.6999999993}},{"attributes":{"ID":389979,"DIS_CODE":0,"TOWNNAME":"南區","LI":"金華里","LIN":"29鄰","STREET":"新孝路","SECT":" ","MAREA":" ","LANE":"１０２巷","ALLEY":" ","HOUSE_NO":"３４號","E_COORD97":166674.17000000001,"N_COORD97":2542208.2200000002,"ADDRESS":"新孝路１０２巷３４號","OBJECTID":389955},"geometry":{"x":166674.16999999993,"y":2542208.2200000007}},{"attributes":{"ID":389980,"DIS_CODE":0,"TOWNNAME":"南區","LI":"金華里","LIN":"29鄰","STREET":"新孝路","SECT":" ","MAREA":" ","LANE":"１０２巷","ALLEY":" ","HOUSE_NO":"３５號","E_COORD97":166676.76000000001,"N_COORD97":2542212.2599999998,"ADDRESS":"新孝路１０２巷３５號","OBJECTID":389956},"geometry":{"x":166676.75999999978,"y":2542212.2600000016}},{"attributes":{"ID":389981,"DIS_CODE":0,"TOWNNAME":"新營區","LI":"忠政里","LIN":"29鄰","STREET":"中正路","SECT":" ","MAREA":" ","LANE":"３９巷","ALLEY":" ","HOUSE_NO":"９２號","E_COORD97":179759.62,"N_COORD97":2579258.2599999998,"ADDRESS":"中正路３９巷９２號","OBJECTID":389957},"geometry":{"x":179759.62000000011,"y":2579258.2599999979}},{"attributes":{"ID":389982,"DIS_CODE":0,"TOWNNAME":"新營區","LI":"忠政里","LIN":"29鄰","STREET":"府西路","SECT":" ","MAREA":" ","LANE":"８７巷","ALLEY":" ","HOUSE_NO":"１３號","E_COORD97":179752.20000000001,"N_COORD97":2579197.3799999999,"ADDRESS":"府西路８７巷１３號","OBJECTID":389958},"geometry":{"x":179752.20000000019,"y":2579197.3800000008}},{"attributes":{"ID":389983,"DIS_CODE":0,"TOWNNAME":"新營區","LI":"忠政里","LIN":"29鄰","STREET":"中正路","SECT":" ","MAREA":" ","LANE":"３９巷","ALLEY":" ","HOUSE_NO":"１０６號","E_COORD97":179747.47,"N_COORD97":2579229.5299999998,"ADDRESS":"中正路３９巷１０６號","OBJECTID":389959},"geometry":{"x":179747.47000000067,"y":2579229.5300000012}},{"attributes":{"ID":389984,"DIS_CODE":0,"TOWNNAME":"新營區","LI":"新北里","LIN":"29鄰","STREET":"新北二街","SECT":" ","MAREA":" ","LANE":"９巷","ALLEY":" ","HOUSE_NO":"１５號","E_COORD97":178834.09,"N_COORD97":2578848.48,"ADDRESS":"新北二街９巷１５號","OBJECTID":389960},"geometry":{"x":178834.08999999985,"y":2578848.4800000023}},{"attributes":{"ID":389985,"DIS_CODE":0,"TOWNNAME":"南區","LI":"府南里","LIN":"29鄰","STREET":"西門路","SECT":"一段","MAREA":" ","LANE":"１３１巷","ALLEY":" ","HOUSE_NO":"２５號","E_COORD97":167713.59,"N_COORD97":2541617.8100000001,"ADDRESS":"西門路一段１３１巷２５號","OBJECTID":389961},"geometry":{"x":167713.58999999985,"y":2541617.8100000005}},{"attributes":{"ID":389986,"DIS_CODE":0,"TOWNNAME":"南區","LI":"府南里","LIN":"29鄰","STREET":"西門路","SECT":"一段","MAREA":" ","LANE":"１７３巷","ALLEY":" ","HOUSE_NO":"３５號","E_COORD97":167675.25,"N_COORD97":2541612.29,"ADDRESS":"西門路一段１７３巷３５號","OBJECTID":389962},"geometry":{"x":167675.25,"y":2541612.290000001}},{"attributes":{"ID":389987,"DIS_CODE":0,"TOWNNAME":"南區","LI":"府南里","LIN":"29鄰","STREET":"西門路","SECT":"一段","MAREA":" ","LANE":"１７３巷","ALLEY":" ","HOUSE_NO":"１１號","E_COORD97":167697.17999999999,"N_COORD97":2541653.5699999998,"ADDRESS":"西門路一段１７３巷１１號","OBJECTID":389963},"geometry":{"x":167697.18000000063,"y":2541653.5700000003}},{"attributes":{"ID":389988,"DIS_CODE":0,"TOWNNAME":"北區","LI":"大港里","LIN":"29鄰","STREET":"賢北街","SECT":" ","MAREA":" ","LANE":"１９５巷","ALLEY":" ","HOUSE_NO":"１７號","E_COORD97":166165.87,"N_COORD97":2545565.75,"ADDRESS":"賢北街１９５巷１７號","OBJECTID":389964},"geometry":{"x":166165.87000000011,"y":2545565.7500000019}},{"attributes":{"ID":389989,"DIS_CODE":0,"TOWNNAME":"北區","LI":"大港里","LIN":"29鄰","STREET":"賢北街","SECT":" ","MAREA":" ","LANE":"１９５巷","ALLEY":" ","HOUSE_NO":"１９號","E_COORD97":166162.70000000001,"N_COORD97":2545564.48,"ADDRESS":"賢北街１９５巷１９號","OBJECTID":389965},"geometry":{"x":166162.70000000205,"y":2545564.4800000023}},{"attributes":{"ID":389990,"DIS_CODE":0,"TOWNNAME":"北區","LI":"大港里","LIN":"29鄰","STREET":"賢北街","SECT":" ","MAREA":" ","LANE":"１９５巷","ALLEY":" ","HOUSE_NO":"２１號","E_COORD97":166159.20000000001,"N_COORD97":2545563.21,"ADDRESS":"賢北街１９５巷２１號","OBJECTID":389966},"geometry":{"x":166159.19999999925,"y":2545563.2100000046}},{"attributes":{"ID":389991,"DIS_CODE":0,"TOWNNAME":"北區","LI":"大港里","LIN":"29鄰","STREET":"賢北街","SECT":" ","MAREA":" ","LANE":"１９５巷","ALLEY":" ","HOUSE_NO":"２３號","E_COORD97":166156.19,"N_COORD97":2545561.9399999999,"ADDRESS":"賢北街１９５巷２３號","OBJECTID":389967},"geometry":{"x":166156.19000000227,"y":2545561.9399999995}},{"attributes":{"ID":389992,"DIS_CODE":0,"TOWNNAME":"北區","LI":"大港里","LIN":"29鄰","STREET":"賢北街","SECT":" ","MAREA":" ","LANE":"１９５巷","ALLEY":" ","HOUSE_NO":"２５號","E_COORD97":166152.85000000001,"N_COORD97":2545560.2000000002,"ADDRESS":"賢北街１９５巷２５號","OBJECTID":389968},"geometry":{"x":166152.85000000056,"y":2545560.1999999993}},{"attributes":{"ID":389993,"DIS_CODE":0,"TOWNNAME":"北區","LI":"大港里","LIN":"29鄰","STREET":"賢北街","SECT":" ","MAREA":" ","LANE":"１９５巷","ALLEY":" ","HOUSE_NO":"２７號","E_COORD97":166149.51999999999,"N_COORD97":2545558.29,"ADDRESS":"賢北街１９５巷２７號","OBJECTID":389969},"geometry":{"x":166149.51999999862,"y":2545558.290000001}},{"attributes":{"ID":389994,"DIS_CODE":0,"TOWNNAME":"北區","LI":"大豐里","LIN":"29鄰","STREET":"和緯路","SECT":"四段","MAREA":" ","LANE":"１１７巷","ALLEY":" ","HOUSE_NO":"４５號","E_COORD97":167076.85999999999,"N_COORD97":2545362.2200000002,"ADDRESS":"和緯路四段１１７巷４５號","OBJECTID":389970},"geometry":{"x":167076.86000000034,"y":2545362.2200000007}},{"attributes":{"ID":389995,"DIS_CODE":0,"TOWNNAME":"北區","LI":"大豐里","LIN":"29鄰","STREET":"和緯路","SECT":"四段","MAREA":" ","LANE":"１１７巷","ALLEY":" ","HOUSE_NO":"４７號","E_COORD97":167075.35999999999,"N_COORD97":2545358.1699999999,"ADDRESS":"和緯路四段１１７巷４７號","OBJECTID":389971},"geometry":{"x":167075.3599999994,"y":2545358.1699999999}},{"attributes":{"ID":389996,"DIS_CODE":0,"TOWNNAME":"北區","LI":"大豐里","LIN":"29鄰","STREET":"和緯路","SECT":"四段","MAREA":" ","LANE":"１１７巷","ALLEY":" ","HOUSE_NO":"４９號","E_COORD97":167075.01000000001,"N_COORD97":2545353.98,"ADDRESS":"和緯路四段１１７巷４９號","OBJECTID":389972},"geometry":{"x":167075.00999999978,"y":2545353.9800000042}},{"attributes":{"ID":389997,"DIS_CODE":0,"TOWNNAME":"北區","LI":"大豐里","LIN":"29鄰","STREET":"和緯路","SECT":"四段","MAREA":" ","LANE":"１１７巷","ALLEY":" ","HOUSE_NO":"５１號","E_COORD97":167073.87,"N_COORD97":2545350.2200000002,"ADDRESS":"和緯路四段１１７巷５１號","OBJECTID":389973},"geometry":{"x":167073.87000000104,"y":2545350.2200000025}},{"attributes":{"ID":389998,"DIS_CODE":0,"TOWNNAME":"北區","LI":"大豐里","LIN":"29鄰","STREET":"和緯路","SECT":"四段","MAREA":" ","LANE":"１１７巷","ALLEY":" ","HOUSE_NO":"５３號","E_COORD97":167073.59,"N_COORD97":2545346,"ADDRESS":"和緯路四段１１７巷５３號","OBJECTID":389974},"geometry":{"x":167073.59000000078,"y":2545346}},{"attributes":{"ID":389999,"DIS_CODE":0,"TOWNNAME":"北區","LI":"大豐里","LIN":"29鄰","STREET":"和緯路","SECT":"四段","MAREA":" ","LANE":"１１７巷","ALLEY":" ","HOUSE_NO":"５７號","E_COORD97":167072.23999999999,"N_COORD97":2545338.3300000001,"ADDRESS":"和緯路四段１１７巷５７號","OBJECTID":389975},"geometry":{"x":167072.24000000022,"y":2545338.3300000019}},{"attributes":{"ID":390000,"DIS_CODE":0,"TOWNNAME":"新營區","LI":"民生里","LIN":"29鄰","STREET":"民治路","SECT":" ","MAREA":" ","LANE":"２２５巷","ALLEY":" ","HOUSE_NO":"１９號","E_COORD97":178842.07999999999,"N_COORD97":2578383.3199999998,"ADDRESS":"民治路２２５巷１９號","OBJECTID":389976},"geometry":{"x":178842.08000000101,"y":2578383.3200000003}},{"attributes":{"ID":390001,"DIS_CODE":0,"TOWNNAME":"新營區","LI":"忠政里","LIN":"29鄰","STREET":"中正路","SECT":" ","MAREA":" ","LANE":"３９巷","ALLEY":" ","HOUSE_NO":"１７１號之４","E_COORD97":179725.45999999999,"N_COORD97":2579309.4300000002,"ADDRESS":"中正路３９巷１７１號之４","OBJECTID":389977},"geometry":{"x":179725.45999999903,"y":2579309.4300000016}},{"attributes":{"ID":390002,"DIS_CODE":0,"TOWNNAME":"新營區","LI":"新南里","LIN":"29鄰","STREET":"明清三街","SECT":" ","MAREA":" ","LANE":"２９巷","ALLEY":" ","HOUSE_NO":"５３號","E_COORD97":178126.92999999999,"N_COORD97":2578767.7400000002,"ADDRESS":"明清三街２９巷５３號","OBJECTID":389978},"geometry":{"x":178126.93000000156,"y":2578767.7400000021}},{"attributes":{"ID":390003,"DIS_CODE":0,"TOWNNAME":"新營區","LI":"新南里","LIN":"29鄰","STREET":"明清三街","SECT":" ","MAREA":" ","LANE":"２９巷","ALLEY":" ","HOUSE_NO":"４９號","E_COORD97":178136.19,"N_COORD97":2578767.7000000002,"ADDRESS":"明清三街２９巷４９號","OBJECTID":389979},"geometry":{"x":178136.19000000227,"y":2578767.7000000011}},{"attributes":{"ID":390004,"DIS_CODE":0,"TOWNNAME":"新營區","LI":"忠政里","LIN":"29鄰","STREET":"中正路","SECT":" ","MAREA":" ","LANE":"３９巷","ALLEY":" ","HOUSE_NO":"１５７號","E_COORD97":179736.48000000001,"N_COORD97":2579284.9500000002,"ADDRESS":"中正路３９巷１５７號","OBJECTID":389980},"geometry":{"x":179736.48000000138,"y":2579284.9500000011}},{"attributes":{"ID":390005,"DIS_CODE":0,"TOWNNAME":"新營區","LI":"南興里","LIN":"29鄰","STREET":"建業路","SECT":" ","MAREA":" ","LANE":"１３７巷","ALLEY":" ","HOUSE_NO":"８號","E_COORD97":178427.25,"N_COORD97":2577451.73,"ADDRESS":"建業路１３７巷８號","OBJECTID":389981},"geometry":{"x":178427.25000000093,"y":2577451.7300000004}},{"attributes":{"ID":390006,"DIS_CODE":0,"TOWNNAME":"佳里區","LI":"六安里","LIN":"29鄰","STREET":"進學路","SECT":" ","MAREA":" ","LANE":"２３６巷","ALLEY":" ","HOUSE_NO":"２號","E_COORD97":165662.16,"N_COORD97":2562726.1600000001,"ADDRESS":"進學路２３６巷２號","OBJECTID":389982},"geometry":{"x":165662.16000000015,"y":2562726.160000002}},{"attributes":{"ID":390007,"DIS_CODE":0,"TOWNNAME":"佳里區","LI":"六安里","LIN":"29鄰","STREET":"進學路","SECT":" ","MAREA":" ","LANE":"２３６巷","ALLEY":" ","HOUSE_NO":"４號","E_COORD97":165658.14999999999,"N_COORD97":2562732.0499999998,"ADDRESS":"進學路２３６巷４號","OBJECTID":389983},"geometry":{"x":165658.15000000224,"y":2562732.0500000007}},{"attributes":{"ID":390008,"DIS_CODE":0,"TOWNNAME":"佳里區","LI":"六安里","LIN":"29鄰","STREET":"進學路","SECT":" ","MAREA":" ","LANE":"２３６巷","ALLEY":" ","HOUSE_NO":"６號","E_COORD97":165657.57999999999,"N_COORD97":2562743.9199999999,"ADDRESS":"進學路２３６巷６號","OBJECTID":389984},"geometry":{"x":165657.58000000007,"y":2562743.9200000018}},{"attributes":{"ID":390009,"DIS_CODE":0,"TOWNNAME":"南區","LI":"府南里","LIN":"29鄰","STREET":"西門路","SECT":"一段","MAREA":" ","LANE":"１７３巷","ALLEY":" ","HOUSE_NO":"２０號","E_COORD97":167684.10000000001,"N_COORD97":2541661.52,"ADDRESS":"西門路一段１７３巷２０號","OBJECTID":389985},"geometry":{"x":167684.10000000056,"y":2541661.5200000014}},{"attributes":{"ID":390010,"DIS_CODE":0,"TOWNNAME":"仁德區","LI":"仁義里","LIN":"17鄰","STREET":"正義路","SECT":" ","MAREA":" ","LANE":"２０５巷","ALLEY":" ","HOUSE_NO":"４７號","E_COORD97":174110.98000000001,"N_COORD97":2541451.52,"ADDRESS":"正義路２０５巷４７號","OBJECTID":389986},"geometry":{"x":174110.98000000045,"y":2541451.5200000014}},{"attributes":{"ID":390011,"DIS_CODE":0,"TOWNNAME":"仁德區","LI":"上崙里","LIN":"29鄰","STREET":"中正路","SECT":"一段","MAREA":" ","LANE":"６５６巷","ALLEY":" ","HOUSE_NO":"２９號","E_COORD97":172966.84,"N_COORD97":2537439.54,"ADDRESS":"中正路一段６５６巷２９號","OBJECTID":389987},"geometry":{"x":172966.83999999985,"y":2537439.540000001}},{"attributes":{"ID":390012,"DIS_CODE":0,"TOWNNAME":"東區","LI":"東光里","LIN":"29鄰","STREET":"東寧路","SECT":" ","MAREA":" ","LANE":"２０１巷","ALLEY":" ","HOUSE_NO":"１５３號","E_COORD97":170675.37,"N_COORD97":2543889.02,"ADDRESS":"東寧路２０１巷１５３號","OBJECTID":389988},"geometry":{"x":170675.37000000011,"y":2543889.0200000014}},{"attributes":{"ID":390013,"DIS_CODE":0,"TOWNNAME":"東區","LI":"富強里","LIN":"29鄰","STREET":"東門路","SECT":"二段","MAREA":" ","LANE":"３６５巷","ALLEY":" ","HOUSE_NO":"１３號","E_COORD97":170859.04999999999,"N_COORD97":2542595.0800000001,"ADDRESS":"東門路二段３６５巷１３號","OBJECTID":389989},"geometry":{"x":170859.05000000168,"y":2542595.0800000001}},{"attributes":{"ID":390014,"DIS_CODE":0,"TOWNNAME":"東區","LI":"富強里","LIN":"29鄰","STREET":"東門路","SECT":"二段","MAREA":" ","LANE":"３６５巷","ALLEY":" ","HOUSE_NO":"１５號","E_COORD97":170865.31,"N_COORD97":2542602.1000000001,"ADDRESS":"東門路二段３６５巷１５號","OBJECTID":389990},"geometry":{"x":170865.30999999866,"y":2542602.0999999996}},{"attributes":{"ID":390015,"DIS_CODE":0,"TOWNNAME":"永康區","LI":"正強里","LIN":"32鄰","STREET":"四維街","SECT":" ","MAREA":" ","LANE":"２９巷","ALLEY":" ","HOUSE_NO":"５號","E_COORD97":173390.06,"N_COORD97":2547999.5,"ADDRESS":"四維街２９巷５號","OBJECTID":389991},"geometry":{"x":173390.06000000052,"y":2547999.5}},{"attributes":{"ID":390016,"DIS_CODE":0,"TOWNNAME":"東區","LI":"富強里","LIN":"29鄰","STREET":"東門路","SECT":"二段","MAREA":" ","LANE":"３６５巷","ALLEY":" ","HOUSE_NO":"１７號","E_COORD97":170873.56,"N_COORD97":2542611.7200000002,"ADDRESS":"東門路二段３６５巷１７號","OBJECTID":389992},"geometry":{"x":170873.55999999959,"y":2542611.7200000007}},{"attributes":{"ID":390017,"DIS_CODE":0,"TOWNNAME":"永康區","LI":"埔園里","LIN":"29鄰","STREET":"龍埔街","SECT":" ","MAREA":" ","LANE":"３０３巷","ALLEY":" ","HOUSE_NO":"１５號","E_COORD97":173912.79000000001,"N_COORD97":2548244.7400000002,"ADDRESS":"龍埔街３０３巷１５號","OBJECTID":389993},"geometry":{"x":173912.79000000097,"y":2548244.7400000021}},{"attributes":{"ID":390018,"DIS_CODE":0,"TOWNNAME":"永康區","LI":"埔園里","LIN":"29鄰","STREET":"龍埔街","SECT":" ","MAREA":" ","LANE":"２９１巷","ALLEY":" ","HOUSE_NO":"２號之６","E_COORD97":173942.04999999999,"N_COORD97":2548283.7999999998,"ADDRESS":"龍埔街２９１巷２號之６","OBJECTID":389994},"geometry":{"x":173942.04999999981,"y":2548283.8000000007}},{"attributes":{"ID":390019,"DIS_CODE":0,"TOWNNAME":"善化區","LI":"光文里","LIN":"29鄰","STREET":"中正路","SECT":" ","MAREA":" ","LANE":"６４０巷","ALLEY":" ","HOUSE_NO":"１３號","E_COORD97":177720.72,"N_COORD97":2559485.25,"ADDRESS":"中正路６４０巷１３號","OBJECTID":389995},"geometry":{"x":177720.71999999974,"y":2559485.25}},{"attributes":{"ID":390020,"DIS_CODE":0,"TOWNNAME":"仁德區","LI":"土庫里","LIN":"5鄰","STREET":"土庫六街","SECT":" ","MAREA":" ","LANE":"７５巷","ALLEY":" ","HOUSE_NO":"７８號","E_COORD97":174099.26999999999,"N_COORD97":2543155.5,"ADDRESS":"土庫六街７５巷７８號","OBJECTID":389996},"geometry":{"x":174099.26999999955,"y":2543155.5}},{"attributes":{"ID":390021,"DIS_CODE":0,"TOWNNAME":"東區","LI":"東明里","LIN":"29鄰","STREET":"東寧路","SECT":" ","MAREA":" ","LANE":"２０１巷","ALLEY":" ","HOUSE_NO":"７號","E_COORD97":170598.29000000001,"N_COORD97":2543522.8300000001,"ADDRESS":"東寧路２０１巷７號","OBJECTID":389997},"geometry":{"x":170598.2900000019,"y":2543522.8300000001}},{"attributes":{"ID":390022,"DIS_CODE":0,"TOWNNAME":"安南區","LI":"溪頂里","LIN":"29鄰","STREET":"北安路","SECT":"二段","MAREA":" ","LANE":"６０巷","ALLEY":" ","HOUSE_NO":"１６號","E_COORD97":168570.64999999999,"N_COORD97":2547503.5299999998,"ADDRESS":"北安路二段６０巷１６號","OBJECTID":389998},"geometry":{"x":168570.6500000013,"y":2547503.5300000012}},{"attributes":{"ID":390023,"DIS_CODE":0,"TOWNNAME":"安南區","LI":"溪頂里","LIN":"29鄰","STREET":"北安路","SECT":"二段","MAREA":" ","LANE":"６０巷","ALLEY":" ","HOUSE_NO":"１８號","E_COORD97":168576.13,"N_COORD97":2547504.3700000001,"ADDRESS":"北安路二段６０巷１８號","OBJECTID":389999},"geometry":{"x":168576.12999999989,"y":2547504.370000001}},{"attributes":{"ID":390024,"DIS_CODE":0,"TOWNNAME":"安南區","LI":"溪頂里","LIN":"29鄰","STREET":"北安路","SECT":"二段","MAREA":" ","LANE":"６０巷","ALLEY":" ","HOUSE_NO":"２０號","E_COORD97":168581.32999999999,"N_COORD97":2547504.79,"ADDRESS":"北安路二段６０巷２０號","OBJECTID":390000},"geometry":{"x":168581.33000000101,"y":2547504.790000001}}]}