{"displayFieldName":"TOWNNAME","fieldAliases":{"ID":"ID","DIS_CODE":"DIS_CODE","TOWNNAME":"TOWNNAME","LI":"LI","LIN":"LIN","STREET":"STREET","SECT":"SECT","MAREA":"MAREA","LANE":"LANE","ALLEY":"ALLEY","HOUSE_NO":"HOUSE_NO","E_COORD97":"E_COORD97","N_COORD97":"N_COORD97","ADDRESS":"ADDRESS","OBJECTID":"OBJECTID"},"geometryType":"esriGeometryPoint","spatialReference":{"wkid":102443,"latestWkid":3826},"fields":[{"name":"ID","type":"esriFieldTypeDouble","alias":"ID"},{"name":"DIS_CODE","type":"esriFieldTypeInteger","alias":"DIS_CODE"},{"name":"TOWNNAME","type":"esriFieldTypeString","alias":"TOWNNAME","length":8},{"name":"LI","type":"esriFieldTypeString","alias":"LI","length":8},{"name":"LIN","type":"esriFieldTypeString","alias":"LIN","length":12},{"name":"STREET","type":"esriFieldTypeString","alias":"STREET","length":20},{"name":"SECT","type":"esriFieldTypeString","alias":"SECT","length":8},{"name":"MAREA","type":"esriFieldTypeString","alias":"MAREA","length":12},{"name":"LANE","type":"esriFieldTypeString","alias":"LANE","length":10},{"name":"ALLEY","type":"esriFieldTypeString","alias":"ALLEY","length":10},{"name":"HOUSE_NO","type":"esriFieldTypeString","alias":"HOUSE_NO","length":20},{"name":"E_COORD97","type":"esriFieldTypeDouble","alias":"E_COORD97"},{"name":"N_COORD97","type":"esriFieldTypeDouble","alias":"N_COORD97"},{"name":"ADDRESS","type":"esriFieldTypeString","alias":"ADDRESS","length":50},{"name":"OBJECTID","type":"esriFieldTypeOID","alias":"OBJECTID"}],"features":[{"attributes":{"ID":87201,"DIS_CODE":0,"TOWNNAME":"南區","LI":"南華里","LIN":"10鄰","STREET":"中華南路","SECT":"二段","MAREA":" ","LANE":"４００巷","ALLEY":"２弄","HOUSE_NO":"２５號","E_COORD97":166535.45999999999,"N_COORD97":2540333.52,"ADDRESS":"中華南路二段４００巷２弄２５號","OBJECTID":87201},"geometry":{"x":166535.46000000089,"y":2540333.5199999996}},{"attributes":{"ID":87202,"DIS_CODE":0,"TOWNNAME":"南區","LI":"南華里","LIN":"10鄰","STREET":"中華南路","SECT":"二段","MAREA":" ","LANE":"４００巷","ALLEY":"２弄","HOUSE_NO":"２７號","E_COORD97":166545.64999999999,"N_COORD97":2540334.1099999999,"ADDRESS":"中華南路二段４００巷２弄２７號","OBJECTID":87202},"geometry":{"x":166545.65000000037,"y":2540334.1100000031}},{"attributes":{"ID":87203,"DIS_CODE":0,"TOWNNAME":"南區","LI":"南華里","LIN":"10鄰","STREET":"中華南路","SECT":"二段","MAREA":" ","LANE":"４００巷","ALLEY":"４弄","HOUSE_NO":"１８號","E_COORD97":166502.31,"N_COORD97":2540353.8900000001,"ADDRESS":"中華南路二段４００巷４弄１８號","OBJECTID":87203},"geometry":{"x":166502.31000000052,"y":2540353.8900000043}},{"attributes":{"ID":87204,"DIS_CODE":0,"TOWNNAME":"南區","LI":"南華里","LIN":"10鄰","STREET":"中華南路","SECT":"二段","MAREA":" ","LANE":"４００巷","ALLEY":"４弄","HOUSE_NO":"２０號","E_COORD97":166510.75,"N_COORD97":2540353.6499999999,"ADDRESS":"中華南路二段４００巷４弄２０號","OBJECTID":87204},"geometry":{"x":166510.75,"y":2540353.6500000004}},{"attributes":{"ID":87205,"DIS_CODE":0,"TOWNNAME":"南區","LI":"南華里","LIN":"10鄰","STREET":"中華南路","SECT":"二段","MAREA":" ","LANE":"４００巷","ALLEY":"４弄","HOUSE_NO":"２２號","E_COORD97":166518.82999999999,"N_COORD97":2540354.1200000001,"ADDRESS":"中華南路二段４００巷４弄２２號","OBJECTID":87205},"geometry":{"x":166518.83000000007,"y":2540354.1200000029}},{"attributes":{"ID":87206,"DIS_CODE":0,"TOWNNAME":"南區","LI":"南華里","LIN":"10鄰","STREET":"中華南路","SECT":"二段","MAREA":" ","LANE":"４００巷","ALLEY":"４弄","HOUSE_NO":"２４號","E_COORD97":166527.38,"N_COORD97":2540354.2400000002,"ADDRESS":"中華南路二段４００巷４弄２４號","OBJECTID":87206},"geometry":{"x":166527.38000000175,"y":2540354.2399999984}},{"attributes":{"ID":87207,"DIS_CODE":0,"TOWNNAME":"南區","LI":"南華里","LIN":"10鄰","STREET":"中華南路","SECT":"二段","MAREA":" ","LANE":"４００巷","ALLEY":"４弄","HOUSE_NO":"２６號","E_COORD97":166535.57999999999,"N_COORD97":2540353.4199999999,"ADDRESS":"中華南路二段４００巷４弄２６號","OBJECTID":87207},"geometry":{"x":166535.58000000007,"y":2540353.4200000018}},{"attributes":{"ID":87208,"DIS_CODE":0,"TOWNNAME":"南區","LI":"南華里","LIN":"10鄰","STREET":"中華南路","SECT":"二段","MAREA":" ","LANE":"４００巷","ALLEY":"４弄","HOUSE_NO":"２８號","E_COORD97":166544.48000000001,"N_COORD97":2540354.2400000002,"ADDRESS":"中華南路二段４００巷４弄２８號","OBJECTID":87208},"geometry":{"x":166544.48000000138,"y":2540354.2399999984}},{"attributes":{"ID":87209,"DIS_CODE":0,"TOWNNAME":"北區","LI":"力行里","LIN":"10鄰","STREET":"開南街","SECT":" ","MAREA":" ","LANE":"２７５巷","ALLEY":"１８弄","HOUSE_NO":"１０號","E_COORD97":171007.10999999999,"N_COORD97":2545171.02,"ADDRESS":"開南街２７５巷１８弄１０號","OBJECTID":87209},"geometry":{"x":171007.11000000127,"y":2545171.0200000014}},{"attributes":{"ID":87210,"DIS_CODE":0,"TOWNNAME":"北區","LI":"力行里","LIN":"10鄰","STREET":"開南街","SECT":" ","MAREA":" ","LANE":"２７５巷","ALLEY":"１８弄","HOUSE_NO":"１１號","E_COORD97":171011.35000000001,"N_COORD97":2545179.73,"ADDRESS":"開南街２７５巷１８弄１１號","OBJECTID":87210},"geometry":{"x":171011.35000000056,"y":2545179.7300000023}},{"attributes":{"ID":87211,"DIS_CODE":0,"TOWNNAME":"北區","LI":"力行里","LIN":"10鄰","STREET":"開南街","SECT":" ","MAREA":" ","LANE":"２７５巷","ALLEY":"１８弄","HOUSE_NO":"１２號","E_COORD97":171011.09,"N_COORD97":2545171.77,"ADDRESS":"開南街２７５巷１８弄１２號","OBJECTID":87211},"geometry":{"x":171011.08999999985,"y":2545171.7700000014}},{"attributes":{"ID":87212,"DIS_CODE":0,"TOWNNAME":"安平區","LI":"平安里","LIN":"10鄰","STREET":"安平路","SECT":" ","MAREA":" ","LANE":"４４６巷","ALLEY":"１７弄","HOUSE_NO":"１０號","E_COORD97":165243.04999999999,"N_COORD97":2544376.6899999999,"ADDRESS":"安平路４４６巷１７弄１０號","OBJECTID":87212},"geometry":{"x":165243.05000000075,"y":2544376.6900000013}},{"attributes":{"ID":87213,"DIS_CODE":0,"TOWNNAME":"安平區","LI":"平安里","LIN":"10鄰","STREET":"安平路","SECT":" ","MAREA":" ","LANE":"４４６巷","ALLEY":"１７弄","HOUSE_NO":"１１號","E_COORD97":165258.62,"N_COORD97":2544361.8900000001,"ADDRESS":"安平路４４６巷１７弄１１號","OBJECTID":87213},"geometry":{"x":165258.62000000104,"y":2544361.8900000025}},{"attributes":{"ID":87214,"DIS_CODE":0,"TOWNNAME":"安平區","LI":"平安里","LIN":"10鄰","STREET":"安平路","SECT":" ","MAREA":" ","LANE":"４４６巷","ALLEY":"１７弄","HOUSE_NO":"１２號","E_COORD97":165238.89999999999,"N_COORD97":2544377.54,"ADDRESS":"安平路４４６巷１７弄１２號","OBJECTID":87214},"geometry":{"x":165238.90000000037,"y":2544377.5399999991}},{"attributes":{"ID":87215,"DIS_CODE":0,"TOWNNAME":"安平區","LI":"平安里","LIN":"10鄰","STREET":"安平路","SECT":" ","MAREA":" ","LANE":"４４６巷","ALLEY":"１７弄","HOUSE_NO":"１３號","E_COORD97":165254.39999999999,"N_COORD97":2544363.1200000001,"ADDRESS":"安平路４４６巷１７弄１３號","OBJECTID":87215},"geometry":{"x":165254.40000000037,"y":2544363.120000001}},{"attributes":{"ID":87216,"DIS_CODE":0,"TOWNNAME":"安平區","LI":"平安里","LIN":"10鄰","STREET":"安平路","SECT":" ","MAREA":" ","LANE":"４４６巷","ALLEY":"１７弄","HOUSE_NO":"１５號","E_COORD97":165250.01000000001,"N_COORD97":2544363.4700000002,"ADDRESS":"安平路４４６巷１７弄１５號","OBJECTID":87216},"geometry":{"x":165250.01000000071,"y":2544363.4700000007}},{"attributes":{"ID":87217,"DIS_CODE":0,"TOWNNAME":"安平區","LI":"平安里","LIN":"10鄰","STREET":"安平路","SECT":" ","MAREA":" ","LANE":"４４６巷","ALLEY":"１７弄","HOUSE_NO":"１７號","E_COORD97":165245.79000000001,"N_COORD97":2544364.52,"ADDRESS":"安平路４４６巷１７弄１７號","OBJECTID":87217},"geometry":{"x":165245.79000000004,"y":2544364.5199999996}},{"attributes":{"ID":87218,"DIS_CODE":0,"TOWNNAME":"安平區","LI":"平安里","LIN":"10鄰","STREET":"安平路","SECT":" ","MAREA":" ","LANE":"４４６巷","ALLEY":"１７弄","HOUSE_NO":"１９號","E_COORD97":165241.39999999999,"N_COORD97":2544365.23,"ADDRESS":"安平路４４６巷１７弄１９號","OBJECTID":87218},"geometry":{"x":165241.4000000013,"y":2544365.2300000004}},{"attributes":{"ID":87219,"DIS_CODE":0,"TOWNNAME":"安平區","LI":"平安里","LIN":"10鄰","STREET":"安平路","SECT":" ","MAREA":" ","LANE":"４４６巷","ALLEY":"１７弄","HOUSE_NO":"１號","E_COORD97":165276.73000000001,"N_COORD97":2544358.8999999999,"ADDRESS":"安平路４４６巷１７弄１號","OBJECTID":87219},"geometry":{"x":165276.73000000138,"y":2544358.9000000022}},{"attributes":{"ID":87220,"DIS_CODE":0,"TOWNNAME":"安平區","LI":"平安里","LIN":"10鄰","STREET":"安平路","SECT":" ","MAREA":" ","LANE":"４４６巷","ALLEY":"１７弄","HOUSE_NO":"２１號","E_COORD97":165236.29999999999,"N_COORD97":2544366.46,"ADDRESS":"安平路４４６巷１７弄２１號","OBJECTID":87220},"geometry":{"x":165236.30000000075,"y":2544366.4600000009}},{"attributes":{"ID":87221,"DIS_CODE":0,"TOWNNAME":"安平區","LI":"平安里","LIN":"10鄰","STREET":"安平路","SECT":" ","MAREA":" ","LANE":"４４６巷","ALLEY":"１７弄","HOUSE_NO":"２３號","E_COORD97":165231.73000000001,"N_COORD97":2544367.1600000001,"ADDRESS":"安平路４４６巷１７弄２３號","OBJECTID":87221},"geometry":{"x":165231.73000000045,"y":2544367.160000002}},{"attributes":{"ID":87222,"DIS_CODE":0,"TOWNNAME":"安平區","LI":"平安里","LIN":"10鄰","STREET":"安平路","SECT":" ","MAREA":" ","LANE":"４４６巷","ALLEY":"１７弄","HOUSE_NO":"２５號","E_COORD97":165227.81,"N_COORD97":2544368.3799999999,"ADDRESS":"安平路４４６巷１７弄２５號","OBJECTID":87222},"geometry":{"x":165227.81000000052,"y":2544368.379999999}},{"attributes":{"ID":87223,"DIS_CODE":0,"TOWNNAME":"安平區","LI":"平安里","LIN":"10鄰","STREET":"安平路","SECT":" ","MAREA":" ","LANE":"４４６巷","ALLEY":"１７弄","HOUSE_NO":"２８號","E_COORD97":165207.69,"N_COORD97":2544383.7599999998,"ADDRESS":"安平路４４６巷１７弄２８號","OBJECTID":87223},"geometry":{"x":165207.69000000134,"y":2544383.7599999998}},{"attributes":{"ID":87224,"DIS_CODE":0,"TOWNNAME":"安平區","LI":"平安里","LIN":"10鄰","STREET":"安平路","SECT":" ","MAREA":" ","LANE":"４４６巷","ALLEY":"１７弄","HOUSE_NO":"３０號","E_COORD97":165204.03,"N_COORD97":2544384.4900000002,"ADDRESS":"安平路４４６巷１７弄３０號","OBJECTID":87224},"geometry":{"x":165204.03000000026,"y":2544384.4900000021}},{"attributes":{"ID":87225,"DIS_CODE":0,"TOWNNAME":"安平區","LI":"平安里","LIN":"10鄰","STREET":"安平路","SECT":" ","MAREA":" ","LANE":"４４６巷","ALLEY":"１７弄","HOUSE_NO":"３６號","E_COORD97":165194.45999999999,"N_COORD97":2544386.23,"ADDRESS":"安平路４４６巷１７弄３６號","OBJECTID":87225},"geometry":{"x":165194.46000000183,"y":2544386.2300000023}},{"attributes":{"ID":87226,"DIS_CODE":0,"TOWNNAME":"安平區","LI":"平安里","LIN":"10鄰","STREET":"安平路","SECT":" ","MAREA":" ","LANE":"４４６巷","ALLEY":"１７弄","HOUSE_NO":"３８號","E_COORD97":165191.48999999999,"N_COORD97":2544387.1099999999,"ADDRESS":"安平路４４６巷１７弄３８號","OBJECTID":87226},"geometry":{"x":165191.49000000115,"y":2544387.1100000013}},{"attributes":{"ID":87227,"DIS_CODE":0,"TOWNNAME":"安平區","LI":"平安里","LIN":"10鄰","STREET":"安平路","SECT":" ","MAREA":" ","LANE":"４４６巷","ALLEY":"１７弄","HOUSE_NO":"３號","E_COORD97":165273.20999999999,"N_COORD97":2544359.0699999998,"ADDRESS":"安平路４４６巷１７弄３號","OBJECTID":87227},"geometry":{"x":165273.21000000089,"y":2544359.0700000003}},{"attributes":{"ID":87228,"DIS_CODE":0,"TOWNNAME":"歸仁區","LI":"歸南里","LIN":"10鄰","STREET":"民生九街","SECT":" ","MAREA":" ","LANE":"１３３巷","ALLEY":"１０弄","HOUSE_NO":"７號","E_COORD97":176268.91,"N_COORD97":2540030.25,"ADDRESS":"民生九街１３３巷１０弄７號","OBJECTID":87228},"geometry":{"x":176268.91000000015,"y":2540030.2500000019}},{"attributes":{"ID":87229,"DIS_CODE":0,"TOWNNAME":"歸仁區","LI":"媽廟里","LIN":"10鄰","STREET":"中正北路","SECT":"三段","MAREA":" ","LANE":"２０５巷","ALLEY":"１２弄","HOUSE_NO":"１７號","E_COORD97":177555.35999999999,"N_COORD97":2543909.7200000002,"ADDRESS":"中正北路三段２０５巷１２弄１７號","OBJECTID":87229},"geometry":{"x":177555.36000000127,"y":2543909.7200000025}},{"attributes":{"ID":87230,"DIS_CODE":0,"TOWNNAME":"南區","LI":"喜東里","LIN":"10鄰","STREET":"明興路","SECT":" ","MAREA":" ","LANE":"６１９巷","ALLEY":"３６３弄","HOUSE_NO":"３８號","E_COORD97":166868.76999999999,"N_COORD97":2538073.8700000001,"ADDRESS":"明興路６１９巷３６３弄３８號","OBJECTID":87230},"geometry":{"x":166868.77000000048,"y":2538073.8700000029}},{"attributes":{"ID":87231,"DIS_CODE":0,"TOWNNAME":"南區","LI":"省躬里","LIN":"10鄰","STREET":"灣裡路","SECT":" ","MAREA":" ","LANE":"６２巷","ALLEY":"１４弄","HOUSE_NO":"２號之３","E_COORD97":165728.42999999999,"N_COORD97":2537198.9199999999,"ADDRESS":"灣裡路６２巷１４弄２號之３","OBJECTID":87231},"geometry":{"x":165728.43000000156,"y":2537198.9199999999}},{"attributes":{"ID":87232,"DIS_CODE":0,"TOWNNAME":"南區","LI":"省躬里","LIN":"10鄰","STREET":"灣裡路","SECT":" ","MAREA":" ","LANE":"６２巷","ALLEY":"１４弄","HOUSE_NO":"５號","E_COORD97":165756.17999999999,"N_COORD97":2537193.3799999999,"ADDRESS":"灣裡路６２巷１４弄５號","OBJECTID":87232},"geometry":{"x":165756.18000000063,"y":2537193.3800000008}},{"attributes":{"ID":87233,"DIS_CODE":0,"TOWNNAME":"南區","LI":"省躬里","LIN":"10鄰","STREET":"灣裡路","SECT":" ","MAREA":" ","LANE":"６２巷","ALLEY":"１４弄","HOUSE_NO":"５號之１","E_COORD97":165755.45999999999,"N_COORD97":2537197.48,"ADDRESS":"灣裡路６２巷１４弄５號之１","OBJECTID":87233},"geometry":{"x":165755.46000000183,"y":2537197.4800000023}},{"attributes":{"ID":87234,"DIS_CODE":0,"TOWNNAME":"南區","LI":"省躬里","LIN":"10鄰","STREET":"灣裡路","SECT":" ","MAREA":" ","LANE":"６２巷","ALLEY":"１４弄","HOUSE_NO":"５號之２","E_COORD97":165754.48999999999,"N_COORD97":2537201.8100000001,"ADDRESS":"灣裡路６２巷１４弄５號之２","OBJECTID":87234},"geometry":{"x":165754.49000000115,"y":2537201.8100000024}},{"attributes":{"ID":87235,"DIS_CODE":0,"TOWNNAME":"南區","LI":"省躬里","LIN":"10鄰","STREET":"灣裡路","SECT":" ","MAREA":" ","LANE":"６２巷","ALLEY":"１４弄","HOUSE_NO":"５號之３","E_COORD97":165753.28,"N_COORD97":2537205.9100000001,"ADDRESS":"灣裡路６２巷１４弄５號之３","OBJECTID":87235},"geometry":{"x":165753.28000000026,"y":2537205.9100000001}},{"attributes":{"ID":87236,"DIS_CODE":0,"TOWNNAME":"南區","LI":"省躬里","LIN":"10鄰","STREET":"灣裡路","SECT":" ","MAREA":" ","LANE":"６２巷","ALLEY":"１４弄","HOUSE_NO":"５號之４","E_COORD97":165752.56,"N_COORD97":2537210.25,"ADDRESS":"灣裡路６２巷１４弄５號之４","OBJECTID":87236},"geometry":{"x":165752.55999999959,"y":2537210.25}},{"attributes":{"ID":87237,"DIS_CODE":0,"TOWNNAME":"南區","LI":"省躬里","LIN":"10鄰","STREET":"灣裡路","SECT":" ","MAREA":" ","LANE":"６２巷","ALLEY":"１４弄","HOUSE_NO":"５號之５","E_COORD97":165751.10999999999,"N_COORD97":2537215.5499999998,"ADDRESS":"灣裡路６２巷１４弄５號之５","OBJECTID":87237},"geometry":{"x":165751.11000000034,"y":2537215.5500000007}},{"attributes":{"ID":87238,"DIS_CODE":0,"TOWNNAME":"安平區","LI":"金城里","LIN":"10鄰","STREET":"同平路","SECT":" ","MAREA":" ","LANE":"１５６巷","ALLEY":"１０弄","HOUSE_NO":"３號","E_COORD97":163075.29000000001,"N_COORD97":2544032,"ADDRESS":"同平路１５６巷１０弄３號","OBJECTID":87238},"geometry":{"x":163075.29000000097,"y":2544032.0000000019}},{"attributes":{"ID":87239,"DIS_CODE":0,"TOWNNAME":"山上區","LI":"明和里","LIN":"20鄰","STREET":" ","SECT":" ","MAREA":"明和","LANE":" ","ALLEY":" ","HOUSE_NO":"７５號之６","E_COORD97":182049.13,"N_COORD97":2555821.2999999998,"ADDRESS":"明和７５號之６","OBJECTID":87239},"geometry":{"x":182049.13000000082,"y":2555821.2999999989}},{"attributes":{"ID":87240,"DIS_CODE":0,"TOWNNAME":"七股區","LI":"頂山里","LIN":"12鄰","STREET":" ","SECT":" ","MAREA":"頂山","LANE":" ","ALLEY":" ","HOUSE_NO":"１１７號","E_COORD97":158918.69,"N_COORD97":2564507.5600000001,"ADDRESS":"頂山１１７號","OBJECTID":87240},"geometry":{"x":158918.69000000041,"y":2564507.5600000005}},{"attributes":{"ID":87241,"DIS_CODE":0,"TOWNNAME":"七股區","LI":"頂山里","LIN":"12鄰","STREET":" ","SECT":" ","MAREA":"頂山","LANE":" ","ALLEY":" ","HOUSE_NO":"１１８號","E_COORD97":158897.32999999999,"N_COORD97":2564525.5,"ADDRESS":"頂山１１８號","OBJECTID":87241},"geometry":{"x":158897.33000000007,"y":2564525.5}},{"attributes":{"ID":87242,"DIS_CODE":0,"TOWNNAME":"南區","LI":"省躬里","LIN":"10鄰","STREET":"灣裡路","SECT":" ","MAREA":" ","LANE":"６２巷","ALLEY":"３８弄","HOUSE_NO":"１４號","E_COORD97":165711.70000000001,"N_COORD97":2537189.7200000002,"ADDRESS":"灣裡路６２巷３８弄１４號","OBJECTID":87242},"geometry":{"x":165711.70000000205,"y":2537189.7200000025}},{"attributes":{"ID":87243,"DIS_CODE":0,"TOWNNAME":"七股區","LI":"樹林里","LIN":"12鄰","STREET":" ","SECT":" ","MAREA":"樹林","LANE":" ","ALLEY":" ","HOUSE_NO":"１０８號之１","E_COORD97":163896.04999999999,"N_COORD97":2556896.0299999998,"ADDRESS":"樹林１０８號之１","OBJECTID":87243},"geometry":{"x":163896.04999999981,"y":2556896.0299999993}},{"attributes":{"ID":87244,"DIS_CODE":0,"TOWNNAME":"南區","LI":"省躬里","LIN":"10鄰","STREET":"灣裡路","SECT":" ","MAREA":" ","LANE":"６２巷","ALLEY":"３８弄","HOUSE_NO":"１６號","E_COORD97":165711.72,"N_COORD97":2537194.8900000001,"ADDRESS":"灣裡路６２巷３８弄１６號","OBJECTID":87244},"geometry":{"x":165711.72000000067,"y":2537194.8900000025}},{"attributes":{"ID":87245,"DIS_CODE":0,"TOWNNAME":"南區","LI":"省躬里","LIN":"10鄰","STREET":"灣裡路","SECT":" ","MAREA":" ","LANE":"６２巷","ALLEY":"３８弄","HOUSE_NO":"１號","E_COORD97":165688.85999999999,"N_COORD97":2537168.0800000001,"ADDRESS":"灣裡路６２巷３８弄１號","OBJECTID":87245},"geometry":{"x":165688.8600000022,"y":2537168.0800000001}},{"attributes":{"ID":87246,"DIS_CODE":0,"TOWNNAME":"北區","LI":"成功里","LIN":"10鄰","STREET":"北成路","SECT":" ","MAREA":" ","LANE":"２０巷","ALLEY":"１弄","HOUSE_NO":"４號","E_COORD97":169177.41,"N_COORD97":2546594.7599999998,"ADDRESS":"北成路２０巷１弄４號","OBJECTID":87246},"geometry":{"x":169177.41000000108,"y":2546594.7599999998}},{"attributes":{"ID":87247,"DIS_CODE":0,"TOWNNAME":"北區","LI":"成功里","LIN":"10鄰","STREET":"北成路","SECT":" ","MAREA":" ","LANE":"２０巷","ALLEY":"１弄","HOUSE_NO":"５號","E_COORD97":169164.84,"N_COORD97":2546614.02,"ADDRESS":"北成路２０巷１弄５號","OBJECTID":87247},"geometry":{"x":169164.83999999985,"y":2546614.0200000033}},{"attributes":{"ID":87248,"DIS_CODE":0,"TOWNNAME":"北區","LI":"成功里","LIN":"10鄰","STREET":"北成路","SECT":" ","MAREA":" ","LANE":"２０巷","ALLEY":"１弄","HOUSE_NO":"６號","E_COORD97":169181,"N_COORD97":2546599.2400000002,"ADDRESS":"北成路２０巷１弄６號","OBJECTID":87248},"geometry":{"x":169181,"y":2546599.2400000002}},{"attributes":{"ID":87249,"DIS_CODE":0,"TOWNNAME":"北區","LI":"成功里","LIN":"10鄰","STREET":"北成路","SECT":" ","MAREA":" ","LANE":"２０巷","ALLEY":"１弄","HOUSE_NO":"７號","E_COORD97":169167.98999999999,"N_COORD97":2546617.79,"ADDRESS":"北成路２０巷１弄７號","OBJECTID":87249},"geometry":{"x":169167.99000000209,"y":2546617.7899999991}},{"attributes":{"ID":87250,"DIS_CODE":0,"TOWNNAME":"北區","LI":"成功里","LIN":"10鄰","STREET":"北成路","SECT":" ","MAREA":" ","LANE":"２０巷","ALLEY":"１弄","HOUSE_NO":"８號","E_COORD97":169185.92999999999,"N_COORD97":2546604.1699999999,"ADDRESS":"北成路２０巷１弄８號","OBJECTID":87250},"geometry":{"x":169185.9299999997,"y":2546604.1700000018}},{"attributes":{"ID":87251,"DIS_CODE":0,"TOWNNAME":"北區","LI":"成功里","LIN":"10鄰","STREET":"北成路","SECT":" ","MAREA":" ","LANE":"２０巷","ALLEY":"１弄","HOUSE_NO":"９號","E_COORD97":169173.82000000001,"N_COORD97":2546623.1699999999,"ADDRESS":"北成路２０巷１弄９號","OBJECTID":87251},"geometry":{"x":169173.8200000003,"y":2546623.1699999981}},{"attributes":{"ID":87252,"DIS_CODE":0,"TOWNNAME":"北區","LI":"公園里","LIN":"10鄰","STREET":"成功路","SECT":" ","MAREA":" ","LANE":"２２巷","ALLEY":"１８弄","HOUSE_NO":"１１２號","E_COORD97":168970.35999999999,"N_COORD97":2544358.0699999998,"ADDRESS":"成功路２２巷１８弄１１２號","OBJECTID":87252},"geometry":{"x":168970.36000000034,"y":2544358.0700000003}},{"attributes":{"ID":87253,"DIS_CODE":0,"TOWNNAME":"北區","LI":"公園里","LIN":"10鄰","STREET":"成功路","SECT":" ","MAREA":" ","LANE":"２２巷","ALLEY":"１８弄","HOUSE_NO":"１１４號","E_COORD97":168975.48999999999,"N_COORD97":2544359.5,"ADDRESS":"成功路２２巷１８弄１１４號","OBJECTID":87253},"geometry":{"x":168975.49000000115,"y":2544359.5}},{"attributes":{"ID":87254,"DIS_CODE":0,"TOWNNAME":"北區","LI":"公園里","LIN":"10鄰","STREET":"成功路","SECT":" ","MAREA":" ","LANE":"２２巷","ALLEY":"１８弄","HOUSE_NO":"１１６號","E_COORD97":168996.97,"N_COORD97":2544353.6800000002,"ADDRESS":"成功路２２巷１８弄１１６號","OBJECTID":87254},"geometry":{"x":168996.97000000067,"y":2544353.6799999997}},{"attributes":{"ID":87255,"DIS_CODE":0,"TOWNNAME":"北區","LI":"公園里","LIN":"10鄰","STREET":"成功路","SECT":" ","MAREA":" ","LANE":"２２巷","ALLEY":"１８弄","HOUSE_NO":"１１８號","E_COORD97":168998.12,"N_COORD97":2544357.2400000002,"ADDRESS":"成功路２２巷１８弄１１８號","OBJECTID":87255},"geometry":{"x":168998.12000000104,"y":2544357.2400000002}},{"attributes":{"ID":87256,"DIS_CODE":0,"TOWNNAME":"北區","LI":"公園里","LIN":"10鄰","STREET":"成功路","SECT":" ","MAREA":" ","LANE":"２２巷","ALLEY":"１８弄","HOUSE_NO":"８２號","E_COORD97":168975.45999999999,"N_COORD97":2544342.8999999999,"ADDRESS":"成功路２２巷１８弄８２號","OBJECTID":87256},"geometry":{"x":168975.46000000089,"y":2544342.9000000004}},{"attributes":{"ID":87257,"DIS_CODE":0,"TOWNNAME":"北區","LI":"公園里","LIN":"10鄰","STREET":"成功路","SECT":" ","MAREA":" ","LANE":"２２巷","ALLEY":"１８弄","HOUSE_NO":"８４號","E_COORD97":168979.60000000001,"N_COORD97":2544343.8999999999,"ADDRESS":"成功路２２巷１８弄８４號","OBJECTID":87257},"geometry":{"x":168979.59999999963,"y":2544343.9000000041}},{"attributes":{"ID":87258,"DIS_CODE":0,"TOWNNAME":"北門區","LI":"三光里","LIN":"12鄰","STREET":" ","SECT":" ","MAREA":"三寮灣","LANE":" ","ALLEY":" ","HOUSE_NO":"２２６號","E_COORD97":159005.42999999999,"N_COORD97":2570128,"ADDRESS":"三寮灣２２６號","OBJECTID":87258},"geometry":{"x":159005.43000000063,"y":2570128.0000000019}},{"attributes":{"ID":87259,"DIS_CODE":0,"TOWNNAME":"北區","LI":"公園里","LIN":"10鄰","STREET":"成功路","SECT":" ","MAREA":" ","LANE":"２２巷","ALLEY":"１８弄","HOUSE_NO":"８６號","E_COORD97":168984.31,"N_COORD97":2544345.04,"ADDRESS":"成功路２２巷１８弄８６號","OBJECTID":87259},"geometry":{"x":168984.31000000052,"y":2544345.0400000028}},{"attributes":{"ID":87260,"DIS_CODE":0,"TOWNNAME":"北區","LI":"公園里","LIN":"10鄰","STREET":"成功路","SECT":" ","MAREA":" ","LANE":"２２巷","ALLEY":"１８弄","HOUSE_NO":"８８號","E_COORD97":168988.87,"N_COORD97":2544346.46,"ADDRESS":"成功路２２巷１８弄８８號","OBJECTID":87260},"geometry":{"x":168988.86999999918,"y":2544346.4600000009}},{"attributes":{"ID":87261,"DIS_CODE":0,"TOWNNAME":"北區","LI":"公園里","LIN":"10鄰","STREET":"成功路","SECT":" ","MAREA":" ","LANE":"２２巷","ALLEY":"１８弄","HOUSE_NO":"９０號","E_COORD97":168992.72,"N_COORD97":2544348.0299999998,"ADDRESS":"成功路２２巷１８弄９０號","OBJECTID":87261},"geometry":{"x":168992.71999999974,"y":2544348.0299999993}},{"attributes":{"ID":87262,"DIS_CODE":0,"TOWNNAME":"北區","LI":"公園里","LIN":"10鄰","STREET":"成功路","SECT":" ","MAREA":" ","LANE":"２２巷","ALLEY":"１８弄","HOUSE_NO":"９２號","E_COORD97":168998.01999999999,"N_COORD97":2544349.4399999999,"ADDRESS":"成功路２２巷１８弄９２號","OBJECTID":87262},"geometry":{"x":168998.02000000048,"y":2544349.4399999976}},{"attributes":{"ID":87263,"DIS_CODE":0,"TOWNNAME":"七股區","LI":"頂山里","LIN":"12鄰","STREET":" ","SECT":" ","MAREA":"頂山","LANE":" ","ALLEY":" ","HOUSE_NO":"１２０號","E_COORD97":158870.32000000001,"N_COORD97":2564553.7400000002,"ADDRESS":"頂山１２０號","OBJECTID":87263},"geometry":{"x":158870.3200000003,"y":2564553.7400000002}},{"attributes":{"ID":87264,"DIS_CODE":0,"TOWNNAME":"七股區","LI":"頂山里","LIN":"12鄰","STREET":" ","SECT":" ","MAREA":"頂山","LANE":" ","ALLEY":" ","HOUSE_NO":"１２２號","E_COORD97":158914.19,"N_COORD97":2564545.6899999999,"ADDRESS":"頂山１２２號","OBJECTID":87264},"geometry":{"x":158914.19000000041,"y":2564545.6900000013}},{"attributes":{"ID":87265,"DIS_CODE":0,"TOWNNAME":"七股區","LI":"頂山里","LIN":"12鄰","STREET":" ","SECT":" ","MAREA":"頂山","LANE":" ","ALLEY":" ","HOUSE_NO":"１２３號","E_COORD97":158926.47,"N_COORD97":2564544.75,"ADDRESS":"頂山１２３號","OBJECTID":87265},"geometry":{"x":158926.46999999974,"y":2564544.7500000037}},{"attributes":{"ID":87266,"DIS_CODE":0,"TOWNNAME":"七股區","LI":"後港里","LIN":"12鄰","STREET":" ","SECT":" ","MAREA":"港西","LANE":" ","ALLEY":" ","HOUSE_NO":"２２號之１","E_COORD97":162382.39000000001,"N_COORD97":2565029.0600000001,"ADDRESS":"港西２２號之１","OBJECTID":87266},"geometry":{"x":162382.3900000006,"y":2565029.0600000024}},{"attributes":{"ID":87267,"DIS_CODE":0,"TOWNNAME":"北區","LI":"公園里","LIN":"10鄰","STREET":"成功路","SECT":" ","MAREA":" ","LANE":"２２巷","ALLEY":"１８弄","HOUSE_NO":"９４號","E_COORD97":168991.57999999999,"N_COORD97":2544351.5899999999,"ADDRESS":"成功路２２巷１８弄９４號","OBJECTID":87267},"geometry":{"x":168991.58000000101,"y":2544351.5899999999}},{"attributes":{"ID":87268,"DIS_CODE":0,"TOWNNAME":"七股區","LI":"後港里","LIN":"12鄰","STREET":" ","SECT":" ","MAREA":"港西","LANE":" ","ALLEY":" ","HOUSE_NO":"２２號","E_COORD97":162392.67000000001,"N_COORD97":2565021.6699999999,"ADDRESS":"港西２２號","OBJECTID":87268},"geometry":{"x":162392.67000000086,"y":2565021.6699999999}},{"attributes":{"ID":87269,"DIS_CODE":0,"TOWNNAME":"七股區","LI":"後港里","LIN":"12鄰","STREET":" ","SECT":" ","MAREA":"港西","LANE":" ","ALLEY":" ","HOUSE_NO":"２３號","E_COORD97":162376.75,"N_COORD97":2565002.1200000001,"ADDRESS":"港西２３號","OBJECTID":87269},"geometry":{"x":162376.75000000186,"y":2565002.1200000029}},{"attributes":{"ID":87270,"DIS_CODE":0,"TOWNNAME":"七股區","LI":"後港里","LIN":"12鄰","STREET":" ","SECT":" ","MAREA":"港西","LANE":" ","ALLEY":" ","HOUSE_NO":"２５號之１","E_COORD97":162371.60000000001,"N_COORD97":2565045.9500000002,"ADDRESS":"港西２５號之１","OBJECTID":87270},"geometry":{"x":162371.59999999963,"y":2565045.9499999993}},{"attributes":{"ID":87271,"DIS_CODE":0,"TOWNNAME":"七股區","LI":"義合里","LIN":"12鄰","STREET":" ","SECT":" ","MAREA":"義合","LANE":" ","ALLEY":" ","HOUSE_NO":"１０８號","E_COORD97":161075.25,"N_COORD97":2555865.04,"ADDRESS":"義合１０８號","OBJECTID":87271},"geometry":{"x":161075.25000000093,"y":2555865.0399999991}},{"attributes":{"ID":87272,"DIS_CODE":0,"TOWNNAME":"七股區","LI":"樹林里","LIN":"12鄰","STREET":" ","SECT":" ","MAREA":"樹林","LANE":" ","ALLEY":" ","HOUSE_NO":"１０８號","E_COORD97":163899.94,"N_COORD97":2556895.5800000001,"ADDRESS":"樹林１０８號","OBJECTID":87272},"geometry":{"x":163899.94000000227,"y":2556895.5800000001}},{"attributes":{"ID":87273,"DIS_CODE":0,"TOWNNAME":"七股區","LI":"樹林里","LIN":"12鄰","STREET":" ","SECT":" ","MAREA":"樹林","LANE":" ","ALLEY":" ","HOUSE_NO":"１０８號之１０","E_COORD97":163881.13,"N_COORD97":2556855.8599999999,"ADDRESS":"樹林１０８號之１０","OBJECTID":87273},"geometry":{"x":163881.13000000175,"y":2556855.8599999994}},{"attributes":{"ID":87274,"DIS_CODE":0,"TOWNNAME":"七股區","LI":"樹林里","LIN":"12鄰","STREET":" ","SECT":" ","MAREA":"樹林","LANE":" ","ALLEY":" ","HOUSE_NO":"１０８號之１１","E_COORD97":163881.20000000001,"N_COORD97":2556863.29,"ADDRESS":"樹林１０８號之１１","OBJECTID":87274},"geometry":{"x":163881.20000000112,"y":2556863.2899999991}},{"attributes":{"ID":87275,"DIS_CODE":0,"TOWNNAME":"七股區","LI":"樹林里","LIN":"12鄰","STREET":" ","SECT":" ","MAREA":"樹林","LANE":" ","ALLEY":" ","HOUSE_NO":"１０８號之１２","E_COORD97":163881.14000000001,"N_COORD97":2556870.3300000001,"ADDRESS":"樹林１０８號之１２","OBJECTID":87275},"geometry":{"x":163881.1400000006,"y":2556870.3300000001}},{"attributes":{"ID":87276,"DIS_CODE":0,"TOWNNAME":"七股區","LI":"樹林里","LIN":"12鄰","STREET":" ","SECT":" ","MAREA":"樹林","LANE":" ","ALLEY":" ","HOUSE_NO":"１０８號之１３","E_COORD97":163881.14999999999,"N_COORD97":2556878.5299999998,"ADDRESS":"樹林１０８號之１３","OBJECTID":87276},"geometry":{"x":163881.15000000037,"y":2556878.5299999993}},{"attributes":{"ID":87277,"DIS_CODE":0,"TOWNNAME":"七股區","LI":"樹林里","LIN":"12鄰","STREET":" ","SECT":" ","MAREA":"樹林","LANE":" ","ALLEY":" ","HOUSE_NO":"１０８號之１５","E_COORD97":163881.22,"N_COORD97":2556885.9199999999,"ADDRESS":"樹林１０８號之１５","OBJECTID":87277},"geometry":{"x":163881.21999999974,"y":2556885.9200000018}},{"attributes":{"ID":87278,"DIS_CODE":0,"TOWNNAME":"七股區","LI":"樹林里","LIN":"12鄰","STREET":" ","SECT":" ","MAREA":"樹林","LANE":" ","ALLEY":" ","HOUSE_NO":"１０８號之２","E_COORD97":163894.78,"N_COORD97":2556883.7000000002,"ADDRESS":"樹林１０８號之２","OBJECTID":87278},"geometry":{"x":163894.78000000119,"y":2556883.6999999993}},{"attributes":{"ID":87279,"DIS_CODE":0,"TOWNNAME":"七股區","LI":"樹林里","LIN":"12鄰","STREET":" ","SECT":" ","MAREA":"樹林","LANE":" ","ALLEY":" ","HOUSE_NO":"１０８號之３","E_COORD97":163894.56,"N_COORD97":2556877.3100000001,"ADDRESS":"樹林１０８號之３","OBJECTID":87279},"geometry":{"x":163894.55999999959,"y":2556877.3100000024}},{"attributes":{"ID":87280,"DIS_CODE":0,"TOWNNAME":"北區","LI":"公園里","LIN":"10鄰","STREET":"成功路","SECT":" ","MAREA":" ","LANE":"２２巷","ALLEY":"１８弄","HOUSE_NO":"９６號","E_COORD97":168987.59,"N_COORD97":2544350.7400000002,"ADDRESS":"成功路２２巷１８弄９６號","OBJECTID":87280},"geometry":{"x":168987.59000000078,"y":2544350.7400000002}},{"attributes":{"ID":87281,"DIS_CODE":0,"TOWNNAME":"北區","LI":"公園里","LIN":"10鄰","STREET":"成功路","SECT":" ","MAREA":" ","LANE":"２２巷","ALLEY":"１８弄","HOUSE_NO":"９８號","E_COORD97":168983.73999999999,"N_COORD97":2544349.6000000001,"ADDRESS":"成功路２２巷１８弄９８號","OBJECTID":87281},"geometry":{"x":168983.74000000115,"y":2544349.6000000015}},{"attributes":{"ID":87282,"DIS_CODE":0,"TOWNNAME":"南區","LI":"興農里","LIN":"10鄰","STREET":"灣裡路","SECT":" ","MAREA":" ","LANE":"２６３巷","ALLEY":"５２弄","HOUSE_NO":"５號之２","E_COORD97":166349.67999999999,"N_COORD97":2536289.1400000001,"ADDRESS":"灣裡路２６３巷５２弄５號之２","OBJECTID":87282},"geometry":{"x":166349.6799999997,"y":2536289.1400000006}},{"attributes":{"ID":87283,"DIS_CODE":0,"TOWNNAME":"南區","LI":"省躬里","LIN":"10鄰","STREET":"灣裡路","SECT":" ","MAREA":" ","LANE":"６２巷","ALLEY":"１４弄","HOUSE_NO":"１０之１號","E_COORD97":165744.12,"N_COORD97":2537247.1600000001,"ADDRESS":"灣裡路６２巷１４弄１０之１號","OBJECTID":87283},"geometry":{"x":165744.12000000011,"y":2537247.160000002}},{"attributes":{"ID":87284,"DIS_CODE":0,"TOWNNAME":"南區","LI":"喜東里","LIN":"10鄰","STREET":"明興路","SECT":" ","MAREA":" ","LANE":"６１９巷","ALLEY":"４９９弄","HOUSE_NO":"５６號","E_COORD97":167420.64999999999,"N_COORD97":2538076.02,"ADDRESS":"明興路６１９巷４９９弄５６號","OBJECTID":87284},"geometry":{"x":167420.65000000037,"y":2538076.0199999996}},{"attributes":{"ID":87285,"DIS_CODE":0,"TOWNNAME":"安南區","LI":"海東里","LIN":"20鄰","STREET":"海佃路","SECT":"二段","MAREA":" ","LANE":" ","ALLEY":" ","HOUSE_NO":"２３５號","E_COORD97":166805.59,"N_COORD97":2548542.1099999999,"ADDRESS":"海佃路二段２３５號","OBJECTID":87285},"geometry":{"x":166805.59000000171,"y":2548542.1100000031}},{"attributes":{"ID":87286,"DIS_CODE":0,"TOWNNAME":"安南區","LI":"海東里","LIN":"20鄰","STREET":"海佃路","SECT":"二段","MAREA":" ","LANE":" ","ALLEY":" ","HOUSE_NO":"２４１號","E_COORD97":166843.17000000001,"N_COORD97":2548531.1299999999,"ADDRESS":"海佃路二段２４１號","OBJECTID":87286},"geometry":{"x":166843.17000000086,"y":2548531.129999999}},{"attributes":{"ID":87287,"DIS_CODE":0,"TOWNNAME":"七股區","LI":"樹林里","LIN":"12鄰","STREET":" ","SECT":" ","MAREA":"樹林","LANE":" ","ALLEY":" ","HOUSE_NO":"１０８號之５","E_COORD97":163894.54999999999,"N_COORD97":2556869.29,"ADDRESS":"樹林１０８號之５","OBJECTID":87287},"geometry":{"x":163894.54999999981,"y":2556869.2899999991}},{"attributes":{"ID":87288,"DIS_CODE":0,"TOWNNAME":"七股區","LI":"樹林里","LIN":"12鄰","STREET":" ","SECT":" ","MAREA":"樹林","LANE":" ","ALLEY":" ","HOUSE_NO":"１０８號之６","E_COORD97":163894.39999999999,"N_COORD97":2556862.1699999999,"ADDRESS":"樹林１０８號之６","OBJECTID":87288},"geometry":{"x":163894.40000000037,"y":2556862.1699999981}},{"attributes":{"ID":87289,"DIS_CODE":0,"TOWNNAME":"七股區","LI":"樹林里","LIN":"12鄰","STREET":" ","SECT":" ","MAREA":"樹林","LANE":" ","ALLEY":" ","HOUSE_NO":"１０８號之７","E_COORD97":163894.38,"N_COORD97":2556855.8199999998,"ADDRESS":"樹林１０８號之７","OBJECTID":87289},"geometry":{"x":163894.37999999989,"y":2556855.8200000022}},{"attributes":{"ID":87290,"DIS_CODE":0,"TOWNNAME":"七股區","LI":"樹林里","LIN":"12鄰","STREET":" ","SECT":" ","MAREA":"樹林","LANE":" ","ALLEY":" ","HOUSE_NO":"１０８號之８","E_COORD97":163894.32000000001,"N_COORD97":2556848.6600000001,"ADDRESS":"樹林１０８號之８","OBJECTID":87290},"geometry":{"x":163894.32000000123,"y":2556848.6600000001}},{"attributes":{"ID":87291,"DIS_CODE":0,"TOWNNAME":"七股區","LI":"樹林里","LIN":"12鄰","STREET":" ","SECT":" ","MAREA":"樹林","LANE":" ","ALLEY":" ","HOUSE_NO":"１０８號之９","E_COORD97":163881.20000000001,"N_COORD97":2556847.9399999999,"ADDRESS":"樹林１０８號之９","OBJECTID":87291},"geometry":{"x":163881.20000000112,"y":2556847.9400000013}},{"attributes":{"ID":87292,"DIS_CODE":0,"TOWNNAME":"七股區","LI":"樹林里","LIN":"12鄰","STREET":" ","SECT":" ","MAREA":"樹林","LANE":" ","ALLEY":" ","HOUSE_NO":"１０９號之１","E_COORD97":163875.70000000001,"N_COORD97":2556891.2599999998,"ADDRESS":"樹林１０９號之１","OBJECTID":87292},"geometry":{"x":163875.70000000019,"y":2556891.2599999998}},{"attributes":{"ID":87293,"DIS_CODE":0,"TOWNNAME":"七股區","LI":"樹林里","LIN":"12鄰","STREET":" ","SECT":" ","MAREA":"樹林","LANE":" ","ALLEY":" ","HOUSE_NO":"１０９號之２","E_COORD97":163870.73999999999,"N_COORD97":2556860.23,"ADDRESS":"樹林１０９號之２","OBJECTID":87293},"geometry":{"x":163870.74000000115,"y":2556860.2300000023}},{"attributes":{"ID":87294,"DIS_CODE":0,"TOWNNAME":"七股區","LI":"樹林里","LIN":"12鄰","STREET":" ","SECT":" ","MAREA":"樹林","LANE":" ","ALLEY":" ","HOUSE_NO":"１０９號之６","E_COORD97":163858.78,"N_COORD97":2556814.23,"ADDRESS":"樹林１０９號之６","OBJECTID":87294},"geometry":{"x":163858.78000000119,"y":2556814.2300000004}},{"attributes":{"ID":87295,"DIS_CODE":0,"TOWNNAME":"七股區","LI":"樹林里","LIN":"12鄰","STREET":" ","SECT":" ","MAREA":"樹林","LANE":" ","ALLEY":" ","HOUSE_NO":"１１１號之１","E_COORD97":163905.31,"N_COORD97":2556913.1699999999,"ADDRESS":"樹林１１１號之１","OBJECTID":87295},"geometry":{"x":163905.31000000052,"y":2556913.1700000037}},{"attributes":{"ID":87296,"DIS_CODE":0,"TOWNNAME":"七股區","LI":"樹林里","LIN":"12鄰","STREET":" ","SECT":" ","MAREA":"樹林","LANE":" ","ALLEY":" ","HOUSE_NO":"１１１號之２","E_COORD97":163902.06,"N_COORD97":2556923.6099999999,"ADDRESS":"樹林１１１號之２","OBJECTID":87296},"geometry":{"x":163902.06000000052,"y":2556923.6100000013}},{"attributes":{"ID":87297,"DIS_CODE":0,"TOWNNAME":"七股區","LI":"樹林里","LIN":"12鄰","STREET":" ","SECT":" ","MAREA":"樹林","LANE":" ","ALLEY":" ","HOUSE_NO":"１１１號之３","E_COORD97":163901.87,"N_COORD97":2556927.2200000002,"ADDRESS":"樹林１１１號之３","OBJECTID":87297},"geometry":{"x":163901.87000000197,"y":2556927.2200000044}},{"attributes":{"ID":87298,"DIS_CODE":0,"TOWNNAME":"安南區","LI":"海東里","LIN":"20鄰","STREET":"海佃路","SECT":"二段","MAREA":" ","LANE":" ","ALLEY":" ","HOUSE_NO":"２６３號","E_COORD97":166828.57000000001,"N_COORD97":2548582.9399999999,"ADDRESS":"海佃路二段２６３號","OBJECTID":87298},"geometry":{"x":166828.57000000123,"y":2548582.9399999995}},{"attributes":{"ID":87299,"DIS_CODE":0,"TOWNNAME":"安平區","LI":"怡平里","LIN":"10鄰","STREET":"建平十二街","SECT":" ","MAREA":" ","LANE":"１４８巷","ALLEY":"２１弄","HOUSE_NO":"１號","E_COORD97":165764.70000000001,"N_COORD97":2544067.48,"ADDRESS":"建平十二街１４８巷２１弄１號","OBJECTID":87299},"geometry":{"x":165764.70000000112,"y":2544067.4800000004}},{"attributes":{"ID":87300,"DIS_CODE":0,"TOWNNAME":"新化區","LI":"協興里","LIN":"10鄰","STREET":"正新路","SECT":" ","MAREA":" ","LANE":"３４１巷","ALLEY":"６６弄","HOUSE_NO":"１號","E_COORD97":178395.07000000001,"N_COORD97":2548828.25,"ADDRESS":"正新路３４１巷６６弄１號","OBJECTID":87300},"geometry":{"x":178395.07000000123,"y":2548828.2500000019}},{"attributes":{"ID":87301,"DIS_CODE":0,"TOWNNAME":"新化區","LI":"協興里","LIN":"10鄰","STREET":"正新路","SECT":" ","MAREA":" ","LANE":"３４１巷","ALLEY":"６６弄","HOUSE_NO":"８號","E_COORD97":178404.87,"N_COORD97":2548844.25,"ADDRESS":"正新路３４１巷６６弄８號","OBJECTID":87301},"geometry":{"x":178404.87000000104,"y":2548844.2500000019}},{"attributes":{"ID":87302,"DIS_CODE":0,"TOWNNAME":"新化區","LI":"協興里","LIN":"10鄰","STREET":"正新路","SECT":" ","MAREA":" ","LANE":"３４１巷","ALLEY":"６６弄","HOUSE_NO":"３號","E_COORD97":178394.26999999999,"N_COORD97":2548834.25,"ADDRESS":"正新路３４１巷６６弄３號","OBJECTID":87302},"geometry":{"x":178394.27000000048,"y":2548834.2500000019}},{"attributes":{"ID":87303,"DIS_CODE":0,"TOWNNAME":"永康區","LI":"安康里","LIN":"10鄰","STREET":"中山南路","SECT":" ","MAREA":" ","LANE":"１２３巷","ALLEY":"２１弄","HOUSE_NO":"２０號","E_COORD97":170913.07000000001,"N_COORD97":2545973.9900000002,"ADDRESS":"中山南路１２３巷２１弄２０號","OBJECTID":87303},"geometry":{"x":170913.0700000003,"y":2545973.9900000039}},{"attributes":{"ID":87304,"DIS_CODE":0,"TOWNNAME":"永康區","LI":"甲頂里","LIN":"10鄰","STREET":"中正南路","SECT":" ","MAREA":" ","LANE":"５２巷","ALLEY":"６４弄","HOUSE_NO":"１２號","E_COORD97":169940.07000000001,"N_COORD97":2546760.0600000001,"ADDRESS":"中正南路５２巷６４弄１２號","OBJECTID":87304},"geometry":{"x":169940.0700000003,"y":2546760.0600000005}},{"attributes":{"ID":87305,"DIS_CODE":0,"TOWNNAME":"南區","LI":"郡南里","LIN":"20鄰","STREET":"中華南路","SECT":"二段","MAREA":" ","LANE":" ","ALLEY":" ","HOUSE_NO":"９２號","E_COORD97":167292.32000000001,"N_COORD97":2540316.04,"ADDRESS":"中華南路二段９２號","OBJECTID":87305},"geometry":{"x":167292.3200000003,"y":2540316.0399999991}},{"attributes":{"ID":87306,"DIS_CODE":0,"TOWNNAME":"南區","LI":"郡南里","LIN":"20鄰","STREET":"中華南路","SECT":"二段","MAREA":" ","LANE":" ","ALLEY":" ","HOUSE_NO":"９４號","E_COORD97":167288.59,"N_COORD97":2540316.04,"ADDRESS":"中華南路二段９４號","OBJECTID":87306},"geometry":{"x":167288.59000000171,"y":2540316.0399999991}},{"attributes":{"ID":87307,"DIS_CODE":0,"TOWNNAME":"中西區","LI":"中正里","LIN":"4鄰","STREET":"正興街","SECT":" ","MAREA":" ","LANE":" ","ALLEY":" ","HOUSE_NO":"５４號","E_COORD97":167759.82999999999,"N_COORD97":2543878.6099999999,"ADDRESS":"正興街５４號","OBJECTID":87307},"geometry":{"x":167759.83000000007,"y":2543878.6100000013}},{"attributes":{"ID":87308,"DIS_CODE":0,"TOWNNAME":"山上區","LI":"南洲里","LIN":"20鄰","STREET":" ","SECT":" ","MAREA":"南洲","LANE":" ","ALLEY":" ","HOUSE_NO":"３７４號","E_COORD97":183749.54000000001,"N_COORD97":2555834.25,"ADDRESS":"南洲３７４號","OBJECTID":87308},"geometry":{"x":183749.5400000019,"y":2555834.25}},{"attributes":{"ID":87309,"DIS_CODE":0,"TOWNNAME":"山上區","LI":"明和里","LIN":"20鄰","STREET":" ","SECT":" ","MAREA":"明和","LANE":" ","ALLEY":" ","HOUSE_NO":"６５號","E_COORD97":183216.89000000001,"N_COORD97":2556069.25,"ADDRESS":"明和６５號","OBJECTID":87309},"geometry":{"x":183216.8900000006,"y":2556069.2500000019}},{"attributes":{"ID":87310,"DIS_CODE":0,"TOWNNAME":"山上區","LI":"南洲里","LIN":"20鄰","STREET":" ","SECT":" ","MAREA":"南洲","LANE":" ","ALLEY":" ","HOUSE_NO":"３２７號","E_COORD97":183620.04000000001,"N_COORD97":2555927.25,"ADDRESS":"南洲３２７號","OBJECTID":87310},"geometry":{"x":183620.04000000004,"y":2555927.2500000019}},{"attributes":{"ID":87311,"DIS_CODE":0,"TOWNNAME":"山上區","LI":"明和里","LIN":"20鄰","STREET":" ","SECT":" ","MAREA":"明和","LANE":" ","ALLEY":" ","HOUSE_NO":"６７之９號","E_COORD97":183358.09,"N_COORD97":2555841.2999999998,"ADDRESS":"明和６７之９號","OBJECTID":87311},"geometry":{"x":183358.09000000078,"y":2555841.3000000007}},{"attributes":{"ID":87312,"DIS_CODE":0,"TOWNNAME":"山上區","LI":"明和里","LIN":"20鄰","STREET":" ","SECT":" ","MAREA":"明和","LANE":" ","ALLEY":" ","HOUSE_NO":"７５號之２","E_COORD97":182269.66,"N_COORD97":2555877.2999999998,"ADDRESS":"明和７５號之２","OBJECTID":87312},"geometry":{"x":182269.66000000108,"y":2555877.3000000026}},{"attributes":{"ID":87313,"DIS_CODE":0,"TOWNNAME":"山上區","LI":"明和里","LIN":"20鄰","STREET":" ","SECT":" ","MAREA":"明和","LANE":" ","ALLEY":" ","HOUSE_NO":"７５之９號","E_COORD97":182665.19,"N_COORD97":2555943.2999999998,"ADDRESS":"明和７５之９號","OBJECTID":87313},"geometry":{"x":182665.19000000041,"y":2555943.2999999989}},{"attributes":{"ID":87314,"DIS_CODE":0,"TOWNNAME":"南區","LI":"郡南里","LIN":"20鄰","STREET":"中華南路","SECT":"二段","MAREA":" ","LANE":" ","ALLEY":" ","HOUSE_NO":"９６號","E_COORD97":167285.06,"N_COORD97":2540315.0600000001,"ADDRESS":"中華南路二段９６號","OBJECTID":87314},"geometry":{"x":167285.05999999866,"y":2540315.0599999987}},{"attributes":{"ID":87315,"DIS_CODE":0,"TOWNNAME":"南區","LI":"郡南里","LIN":"20鄰","STREET":"中華南路","SECT":"二段","MAREA":" ","LANE":" ","ALLEY":" ","HOUSE_NO":"９８號","E_COORD97":167279.17000000001,"N_COORD97":2540315.0600000001,"ADDRESS":"中華南路二段９８號","OBJECTID":87315},"geometry":{"x":167279.16999999993,"y":2540315.0599999987}},{"attributes":{"ID":87316,"DIS_CODE":0,"TOWNNAME":"南區","LI":"郡南里","LIN":"20鄰","STREET":"中華南路","SECT":"二段","MAREA":" ","LANE":" ","ALLEY":" ","HOUSE_NO":"１０８號","E_COORD97":167220.66,"N_COORD97":2540303.4900000002,"ADDRESS":"中華南路二段１０８號","OBJECTID":87316},"geometry":{"x":167220.66000000201,"y":2540303.4900000021}},{"attributes":{"ID":87317,"DIS_CODE":0,"TOWNNAME":"仁德區","LI":"一甲里","LIN":"20鄰","STREET":"太乙七街","SECT":" ","MAREA":" ","LANE":" ","ALLEY":" ","HOUSE_NO":"２１號","E_COORD97":173141.70999999999,"N_COORD97":2542406.7599999998,"ADDRESS":"太乙七街２１號","OBJECTID":87317},"geometry":{"x":173141.71000000089,"y":2542406.7599999998}},{"attributes":{"ID":87318,"DIS_CODE":0,"TOWNNAME":"北區","LI":"華興里","LIN":"8鄰","STREET":"南園街","SECT":" ","MAREA":" ","LANE":" ","ALLEY":" ","HOUSE_NO":"１３０號之２","E_COORD97":170620.29999999999,"N_COORD97":2545294.4700000002,"ADDRESS":"南園街１３０號之２","OBJECTID":87318},"geometry":{"x":170620.30000000075,"y":2545294.4700000025}},{"attributes":{"ID":87319,"DIS_CODE":0,"TOWNNAME":"山上區","LI":"南洲里","LIN":"20鄰","STREET":" ","SECT":" ","MAREA":"南洲","LANE":" ","ALLEY":" ","HOUSE_NO":"３３５號之１","E_COORD97":183706.07999999999,"N_COORD97":2555818.5099999998,"ADDRESS":"南洲３３５號之１","OBJECTID":87319},"geometry":{"x":183706.08000000007,"y":2555818.5099999998}},{"attributes":{"ID":87320,"DIS_CODE":0,"TOWNNAME":"山上區","LI":"南洲里","LIN":"20鄰","STREET":" ","SECT":" ","MAREA":"南洲","LANE":" ","ALLEY":" ","HOUSE_NO":"３０７號之２","E_COORD97":183726.01000000001,"N_COORD97":2555800.2999999998,"ADDRESS":"南洲３０７號之２","OBJECTID":87320},"geometry":{"x":183726.01000000071,"y":2555800.3000000007}},{"attributes":{"ID":87321,"DIS_CODE":0,"TOWNNAME":"山上區","LI":"明和里","LIN":"20鄰","STREET":" ","SECT":" ","MAREA":"明和","LANE":" ","ALLEY":" ","HOUSE_NO":"６７之１３號","E_COORD97":183373.44,"N_COORD97":2555829.2999999998,"ADDRESS":"明和６７之１３號","OBJECTID":87321},"geometry":{"x":183373.44000000041,"y":2555829.3000000026}},{"attributes":{"ID":87322,"DIS_CODE":0,"TOWNNAME":"山上區","LI":"明和里","LIN":"20鄰","STREET":" ","SECT":" ","MAREA":"明和","LANE":" ","ALLEY":" ","HOUSE_NO":"６７之１５號","E_COORD97":183378.94,"N_COORD97":2555825.2999999998,"ADDRESS":"明和６７之１５號","OBJECTID":87322},"geometry":{"x":183378.94000000041,"y":2555825.3000000026}},{"attributes":{"ID":87323,"DIS_CODE":0,"TOWNNAME":"山上區","LI":"明和里","LIN":"20鄰","STREET":" ","SECT":" ","MAREA":"明和","LANE":" ","ALLEY":" ","HOUSE_NO":"６９號","E_COORD97":183192.39000000001,"N_COORD97":2556038.25,"ADDRESS":"明和６９號","OBJECTID":87323},"geometry":{"x":183192.39000000153,"y":2556038.2500000037}},{"attributes":{"ID":87324,"DIS_CODE":0,"TOWNNAME":"山上區","LI":"明和里","LIN":"20鄰","STREET":" ","SECT":" ","MAREA":"明和","LANE":" ","ALLEY":" ","HOUSE_NO":"６７之１６號","E_COORD97":183357.14000000001,"N_COORD97":2555818.2999999998,"ADDRESS":"明和６７之１６號","OBJECTID":87324},"geometry":{"x":183357.1400000006,"y":2555818.3000000045}},{"attributes":{"ID":87325,"DIS_CODE":0,"TOWNNAME":"山上區","LI":"明和里","LIN":"20鄰","STREET":" ","SECT":" ","MAREA":"明和","LANE":" ","ALLEY":" ","HOUSE_NO":"６２之５號","E_COORD97":183238.29000000001,"N_COORD97":2556076.2999999998,"ADDRESS":"明和６２之５號","OBJECTID":87325},"geometry":{"x":183238.29000000097,"y":2556076.3000000026}},{"attributes":{"ID":87326,"DIS_CODE":0,"TOWNNAME":"永康區","LI":"光復里","LIN":"10鄰","STREET":"復興路","SECT":" ","MAREA":" ","LANE":"３５６巷","ALLEY":"８０弄","HOUSE_NO":"５４號","E_COORD97":172464.87,"N_COORD97":2544537.52,"ADDRESS":"復興路３５６巷８０弄５４號","OBJECTID":87326},"geometry":{"x":172464.87000000104,"y":2544537.5199999996}},{"attributes":{"ID":87327,"DIS_CODE":0,"TOWNNAME":"永康區","LI":"安康里","LIN":"10鄰","STREET":"中山南路","SECT":" ","MAREA":" ","LANE":"１２３巷","ALLEY":"２１弄","HOUSE_NO":"６號","E_COORD97":170933.16,"N_COORD97":2545992.75,"ADDRESS":"中山南路１２３巷２１弄６號","OBJECTID":87327},"geometry":{"x":170933.16000000201,"y":2545992.7500000019}},{"attributes":{"ID":87328,"DIS_CODE":0,"TOWNNAME":"永康區","LI":"光復里","LIN":"10鄰","STREET":"復興路","SECT":" ","MAREA":" ","LANE":"３５６巷","ALLEY":"８０弄","HOUSE_NO":"７６號","E_COORD97":172469.62,"N_COORD97":2544553.5299999998,"ADDRESS":"復興路３５６巷８０弄７６號","OBJECTID":87328},"geometry":{"x":172469.62000000104,"y":2544553.5300000012}},{"attributes":{"ID":87329,"DIS_CODE":0,"TOWNNAME":"西港區","LI":"慶安里","LIN":"8鄰","STREET":"新興街","SECT":" ","MAREA":" ","LANE":"１０７巷","ALLEY":"１０弄","HOUSE_NO":"１４號","E_COORD97":168161.16,"N_COORD97":2558238.0499999998,"ADDRESS":"新興街１０７巷１０弄１４號","OBJECTID":87329},"geometry":{"x":168161.16000000015,"y":2558238.0500000026}},{"attributes":{"ID":87330,"DIS_CODE":0,"TOWNNAME":"西港區","LI":"慶安里","LIN":"8鄰","STREET":"新興街","SECT":" ","MAREA":" ","LANE":"１０７巷","ALLEY":"１０弄","HOUSE_NO":"１５號","E_COORD97":168143.51000000001,"N_COORD97":2558241.4500000002,"ADDRESS":"新興街１０７巷１０弄１５號","OBJECTID":87330},"geometry":{"x":168143.51000000164,"y":2558241.4499999993}},{"attributes":{"ID":87331,"DIS_CODE":0,"TOWNNAME":"西港區","LI":"慶安里","LIN":"8鄰","STREET":"新興街","SECT":" ","MAREA":" ","LANE":"１０７巷","ALLEY":"１０弄","HOUSE_NO":"１６號","E_COORD97":168160.82999999999,"N_COORD97":2558242.5699999998,"ADDRESS":"新興街１０７巷１０弄１６號","OBJECTID":87331},"geometry":{"x":168160.83000000101,"y":2558242.5700000003}},{"attributes":{"ID":87332,"DIS_CODE":0,"TOWNNAME":"七股區","LI":"樹林里","LIN":"12鄰","STREET":" ","SECT":" ","MAREA":"樹林","LANE":" ","ALLEY":" ","HOUSE_NO":"１１１號之４","E_COORD97":163902.56,"N_COORD97":2556932.2599999998,"ADDRESS":"樹林１１１號之４","OBJECTID":87332},"geometry":{"x":163902.55999999959,"y":2556932.2599999998}},{"attributes":{"ID":87333,"DIS_CODE":0,"TOWNNAME":"七股區","LI":"樹林里","LIN":"12鄰","STREET":" ","SECT":" ","MAREA":"樹林","LANE":" ","ALLEY":" ","HOUSE_NO":"１１１號之５","E_COORD97":163901.79000000001,"N_COORD97":2556937.7799999998,"ADDRESS":"樹林１１１號之５","OBJECTID":87333},"geometry":{"x":163901.79000000004,"y":2556937.7799999993}},{"attributes":{"ID":87334,"DIS_CODE":0,"TOWNNAME":"七股區","LI":"樹林里","LIN":"12鄰","STREET":" ","SECT":" ","MAREA":"樹林","LANE":" ","ALLEY":" ","HOUSE_NO":"１１１號之６","E_COORD97":163902.19,"N_COORD97":2556941.6899999999,"ADDRESS":"樹林１１１號之６","OBJECTID":87334},"geometry":{"x":163902.19000000134,"y":2556941.6899999995}},{"attributes":{"ID":87335,"DIS_CODE":0,"TOWNNAME":"七股區","LI":"樹林里","LIN":"12鄰","STREET":" ","SECT":" ","MAREA":"樹林","LANE":" ","ALLEY":" ","HOUSE_NO":"１１１號之７","E_COORD97":163902.35999999999,"N_COORD97":2556946.21,"ADDRESS":"樹林１１１號之７","OBJECTID":87335},"geometry":{"x":163902.36000000127,"y":2556946.2100000009}},{"attributes":{"ID":87336,"DIS_CODE":0,"TOWNNAME":"七股區","LI":"樹林里","LIN":"12鄰","STREET":" ","SECT":" ","MAREA":"樹林","LANE":" ","ALLEY":" ","HOUSE_NO":"１１２號之１","E_COORD97":163887.39999999999,"N_COORD97":2556915.7999999998,"ADDRESS":"樹林１１２號之１","OBJECTID":87336},"geometry":{"x":163887.4000000013,"y":2556915.8000000007}},{"attributes":{"ID":87337,"DIS_CODE":0,"TOWNNAME":"七股區","LI":"樹林里","LIN":"12鄰","STREET":" ","SECT":" ","MAREA":"樹林","LANE":" ","ALLEY":" ","HOUSE_NO":"１１２號之２","E_COORD97":163878.89999999999,"N_COORD97":2556927.3700000001,"ADDRESS":"樹林１１２號之２","OBJECTID":87337},"geometry":{"x":163878.9000000013,"y":2556927.3700000029}},{"attributes":{"ID":87338,"DIS_CODE":0,"TOWNNAME":"七股區","LI":"樹林里","LIN":"12鄰","STREET":" ","SECT":" ","MAREA":"樹林","LANE":" ","ALLEY":" ","HOUSE_NO":"１１２號","E_COORD97":163892.14000000001,"N_COORD97":2556915.7400000002,"ADDRESS":"樹林１１２號","OBJECTID":87338},"geometry":{"x":163892.13999999966,"y":2556915.7400000002}},{"attributes":{"ID":87339,"DIS_CODE":0,"TOWNNAME":"七股區","LI":"樹林里","LIN":"12鄰","STREET":" ","SECT":" ","MAREA":"樹林","LANE":" ","ALLEY":" ","HOUSE_NO":"１１４號之１","E_COORD97":163857.98999999999,"N_COORD97":2556889.5299999998,"ADDRESS":"樹林１１４號之１","OBJECTID":87339},"geometry":{"x":163857.99000000022,"y":2556889.5299999993}},{"attributes":{"ID":87340,"DIS_CODE":0,"TOWNNAME":"七股區","LI":"樹林里","LIN":"12鄰","STREET":" ","SECT":" ","MAREA":"樹林","LANE":" ","ALLEY":" ","HOUSE_NO":"１１４號之３","E_COORD97":163845.85000000001,"N_COORD97":2556889.4100000001,"ADDRESS":"樹林１１４號之３","OBJECTID":87340},"geometry":{"x":163845.85000000056,"y":2556889.410000002}},{"attributes":{"ID":87341,"DIS_CODE":0,"TOWNNAME":"七股區","LI":"樹林里","LIN":"12鄰","STREET":" ","SECT":" ","MAREA":"樹林","LANE":" ","ALLEY":" ","HOUSE_NO":"１１５號","E_COORD97":163838.22,"N_COORD97":2556946.54,"ADDRESS":"樹林１１５號","OBJECTID":87341},"geometry":{"x":163838.22000000067,"y":2556946.5399999991}},{"attributes":{"ID":87342,"DIS_CODE":0,"TOWNNAME":"七股區","LI":"樹林里","LIN":"12鄰","STREET":" ","SECT":" ","MAREA":"樹林","LANE":" ","ALLEY":" ","HOUSE_NO":"１１６號之１","E_COORD97":163839.39000000001,"N_COORD97":2556917.8300000001,"ADDRESS":"樹林１１６號之１","OBJECTID":87342},"geometry":{"x":163839.38999999966,"y":2556917.8300000001}},{"attributes":{"ID":87343,"DIS_CODE":0,"TOWNNAME":"七股區","LI":"樹林里","LIN":"12鄰","STREET":" ","SECT":" ","MAREA":"樹林","LANE":" ","ALLEY":" ","HOUSE_NO":"１１６號之２","E_COORD97":163830.67999999999,"N_COORD97":2556928.5099999998,"ADDRESS":"樹林１１６號之２","OBJECTID":87343},"geometry":{"x":163830.6799999997,"y":2556928.5100000016}},{"attributes":{"ID":87344,"DIS_CODE":0,"TOWNNAME":"七股區","LI":"樹林里","LIN":"12鄰","STREET":" ","SECT":" ","MAREA":"樹林","LANE":" ","ALLEY":" ","HOUSE_NO":"１１６號之３","E_COORD97":163824.79000000001,"N_COORD97":2556929.48,"ADDRESS":"樹林１１６號之３","OBJECTID":87344},"geometry":{"x":163824.79000000097,"y":2556929.4800000023}},{"attributes":{"ID":87345,"DIS_CODE":0,"TOWNNAME":"善化區","LI":"坐駕里","LIN":"20鄰","STREET":" ","SECT":" ","MAREA":"坐駕","LANE":" ","ALLEY":" ","HOUSE_NO":"６２號","E_COORD97":178289.31,"N_COORD97":2558371,"ADDRESS":"坐駕６２號","OBJECTID":87345},"geometry":{"x":178289.31000000052,"y":2558371}},{"attributes":{"ID":87346,"DIS_CODE":0,"TOWNNAME":"七股區","LI":"樹林里","LIN":"12鄰","STREET":" ","SECT":" ","MAREA":"樹林","LANE":" ","ALLEY":" ","HOUSE_NO":"１１６號之６","E_COORD97":163833.62,"N_COORD97":2556891.0099999998,"ADDRESS":"樹林１１６號之６","OBJECTID":87346},"geometry":{"x":163833.62000000011,"y":2556891.0100000016}},{"attributes":{"ID":87347,"DIS_CODE":0,"TOWNNAME":"七股區","LI":"樹林里","LIN":"12鄰","STREET":" ","SECT":" ","MAREA":"樹林","LANE":" ","ALLEY":" ","HOUSE_NO":"１１６號","E_COORD97":163844.82999999999,"N_COORD97":2556917.3199999998,"ADDRESS":"樹林１１６號","OBJECTID":87347},"geometry":{"x":163844.83000000101,"y":2556917.3200000022}},{"attributes":{"ID":87348,"DIS_CODE":0,"TOWNNAME":"七股區","LI":"篤加里","LIN":"12鄰","STREET":" ","SECT":" ","MAREA":"篤加","LANE":" ","ALLEY":" ","HOUSE_NO":"１０２號","E_COORD97":160686.19,"N_COORD97":2562522.3700000001,"ADDRESS":"篤加１０２號","OBJECTID":87348},"geometry":{"x":160686.19000000134,"y":2562522.3700000029}},{"attributes":{"ID":87349,"DIS_CODE":0,"TOWNNAME":"七股區","LI":"篤加里","LIN":"12鄰","STREET":" ","SECT":" ","MAREA":"篤加","LANE":" ","ALLEY":" ","HOUSE_NO":"１０３號","E_COORD97":160662.42000000001,"N_COORD97":2562515.8999999999,"ADDRESS":"篤加１０３號","OBJECTID":87349},"geometry":{"x":160662.42000000086,"y":2562515.9000000004}},{"attributes":{"ID":87350,"DIS_CODE":0,"TOWNNAME":"七股區","LI":"龍山里","LIN":"12鄰","STREET":" ","SECT":" ","MAREA":"龍山","LANE":" ","ALLEY":" ","HOUSE_NO":"１０３號","E_COORD97":159318.48999999999,"N_COORD97":2559906.5299999998,"ADDRESS":"龍山１０３號","OBJECTID":87350},"geometry":{"x":159318.49000000022,"y":2559906.5299999993}},{"attributes":{"ID":87351,"DIS_CODE":0,"TOWNNAME":"七股區","LI":"龍山里","LIN":"12鄰","STREET":" ","SECT":" ","MAREA":"龍山","LANE":" ","ALLEY":" ","HOUSE_NO":"１２８號之１","E_COORD97":159275.76999999999,"N_COORD97":2559951.29,"ADDRESS":"龍山１２８號之１","OBJECTID":87351},"geometry":{"x":159275.77000000142,"y":2559951.2899999991}},{"attributes":{"ID":87352,"DIS_CODE":0,"TOWNNAME":"七股區","LI":"龍山里","LIN":"12鄰","STREET":" ","SECT":" ","MAREA":"龍山","LANE":" ","ALLEY":" ","HOUSE_NO":"１２８號","E_COORD97":159279.89000000001,"N_COORD97":2559950.6200000001,"ADDRESS":"龍山１２８號","OBJECTID":87352},"geometry":{"x":159279.88999999966,"y":2559950.6200000029}},{"attributes":{"ID":87353,"DIS_CODE":0,"TOWNNAME":"七股區","LI":"龍山里","LIN":"12鄰","STREET":" ","SECT":" ","MAREA":"龍山","LANE":" ","ALLEY":" ","HOUSE_NO":"１２９號之１","E_COORD97":159292.88,"N_COORD97":2559946.6899999999,"ADDRESS":"龍山１２９號之１","OBJECTID":87353},"geometry":{"x":159292.88000000082,"y":2559946.6899999995}},{"attributes":{"ID":87354,"DIS_CODE":0,"TOWNNAME":"七股區","LI":"龍山里","LIN":"12鄰","STREET":" ","SECT":" ","MAREA":"龍山","LANE":" ","ALLEY":" ","HOUSE_NO":"１２９號","E_COORD97":159299.04000000001,"N_COORD97":2559943.9100000001,"ADDRESS":"龍山１２９號","OBJECTID":87354},"geometry":{"x":159299.04000000004,"y":2559943.910000002}},{"attributes":{"ID":87355,"DIS_CODE":0,"TOWNNAME":"七股區","LI":"龍山里","LIN":"12鄰","STREET":" ","SECT":" ","MAREA":"龍山","LANE":" ","ALLEY":" ","HOUSE_NO":"１３０號","E_COORD97":159315.04999999999,"N_COORD97":2559936.2799999998,"ADDRESS":"龍山１３０號","OBJECTID":87355},"geometry":{"x":159315.05000000075,"y":2559936.2800000031}},{"attributes":{"ID":87356,"DIS_CODE":0,"TOWNNAME":"七股區","LI":"龍山里","LIN":"12鄰","STREET":" ","SECT":" ","MAREA":"龍山","LANE":" ","ALLEY":" ","HOUSE_NO":"１３１號","E_COORD97":159327.76999999999,"N_COORD97":2559930.0099999998,"ADDRESS":"龍山１３１號","OBJECTID":87356},"geometry":{"x":159327.76999999955,"y":2559930.0099999998}},{"attributes":{"ID":87357,"DIS_CODE":0,"TOWNNAME":"白河區","LI":"仙草里","LIN":"12鄰","STREET":" ","SECT":" ","MAREA":"白水溪","LANE":" ","ALLEY":" ","HOUSE_NO":"２４號","E_COORD97":197097.35999999999,"N_COORD97":2583462.0899999999,"ADDRESS":"白水溪２４號","OBJECTID":87357},"geometry":{"x":197097.3600000022,"y":2583462.0899999999}},{"attributes":{"ID":87358,"DIS_CODE":0,"TOWNNAME":"白河區","LI":"仙草里","LIN":"12鄰","STREET":" ","SECT":" ","MAREA":"白水溪","LANE":" ","ALLEY":" ","HOUSE_NO":"２５號","E_COORD97":197127.95000000001,"N_COORD97":2583472.48,"ADDRESS":"白水溪２５號","OBJECTID":87358},"geometry":{"x":197127.95000000019,"y":2583472.4800000023}},{"attributes":{"ID":87359,"DIS_CODE":0,"TOWNNAME":"白河區","LI":"仙草里","LIN":"12鄰","STREET":" ","SECT":" ","MAREA":"白水溪","LANE":" ","ALLEY":" ","HOUSE_NO":"２６之３號","E_COORD97":197170.66,"N_COORD97":2583517.2200000002,"ADDRESS":"白水溪２６之３號","OBJECTID":87359},"geometry":{"x":197170.66000000015,"y":2583517.2200000007}},{"attributes":{"ID":87360,"DIS_CODE":0,"TOWNNAME":"學甲區","LI":"秀昌里","LIN":"10鄰","STREET":" ","SECT":" ","MAREA":"一秀","LANE":" ","ALLEY":" ","HOUSE_NO":"９６號","E_COORD97":165911.19,"N_COORD97":2571053.79,"ADDRESS":"一秀９６號","OBJECTID":87360},"geometry":{"x":165911.19000000134,"y":2571053.790000001}},{"attributes":{"ID":87361,"DIS_CODE":0,"TOWNNAME":"白河區","LI":"仙草里","LIN":"12鄰","STREET":" ","SECT":" ","MAREA":"白水溪","LANE":" ","ALLEY":" ","HOUSE_NO":"２６之４號","E_COORD97":197229.79000000001,"N_COORD97":2583539.9900000002,"ADDRESS":"白水溪２６之４號","OBJECTID":87361},"geometry":{"x":197229.79000000097,"y":2583539.9900000021}},{"attributes":{"ID":87362,"DIS_CODE":0,"TOWNNAME":"白河區","LI":"仙草里","LIN":"12鄰","STREET":" ","SECT":" ","MAREA":"白水溪","LANE":" ","ALLEY":" ","HOUSE_NO":"２６號","E_COORD97":197223.25,"N_COORD97":2583385.5499999998,"ADDRESS":"白水溪２６號","OBJECTID":87362},"geometry":{"x":197223.25000000093,"y":2583385.5500000007}},{"attributes":{"ID":87363,"DIS_CODE":0,"TOWNNAME":"白河區","LI":"仙草里","LIN":"12鄰","STREET":" ","SECT":" ","MAREA":"白水溪","LANE":" ","ALLEY":" ","HOUSE_NO":"２７號","E_COORD97":197152.10999999999,"N_COORD97":2583470.52,"ADDRESS":"白水溪２７號","OBJECTID":87363},"geometry":{"x":197152.11000000127,"y":2583470.5199999977}},{"attributes":{"ID":87364,"DIS_CODE":0,"TOWNNAME":"白河區","LI":"仙草里","LIN":"12鄰","STREET":" ","SECT":" ","MAREA":"白水溪","LANE":" ","ALLEY":" ","HOUSE_NO":"２８號","E_COORD97":197140.39999999999,"N_COORD97":2583490.6099999999,"ADDRESS":"白水溪２８號","OBJECTID":87364},"geometry":{"x":197140.40000000037,"y":2583490.6100000013}},{"attributes":{"ID":87365,"DIS_CODE":0,"TOWNNAME":"白河區","LI":"竹門里","LIN":"12鄰","STREET":" ","SECT":" ","MAREA":"竹圍子","LANE":" ","ALLEY":" ","HOUSE_NO":"１０號","E_COORD97":192566.03,"N_COORD97":2586225.3100000001,"ADDRESS":"竹圍子１０號","OBJECTID":87365},"geometry":{"x":192566.03000000026,"y":2586225.3100000005}},{"attributes":{"ID":87366,"DIS_CODE":0,"TOWNNAME":"白河區","LI":"竹門里","LIN":"12鄰","STREET":" ","SECT":" ","MAREA":"竹圍子","LANE":" ","ALLEY":" ","HOUSE_NO":"１１號","E_COORD97":192616.10000000001,"N_COORD97":2586184.1200000001,"ADDRESS":"竹圍子１１號","OBJECTID":87366},"geometry":{"x":192616.0999999987,"y":2586184.1200000048}},{"attributes":{"ID":87367,"DIS_CODE":0,"TOWNNAME":"白河區","LI":"竹門里","LIN":"12鄰","STREET":" ","SECT":" ","MAREA":"竹圍子","LANE":" ","ALLEY":" ","HOUSE_NO":"１２號","E_COORD97":192646.35000000001,"N_COORD97":2586301.3599999999,"ADDRESS":"竹圍子１２號","OBJECTID":87367},"geometry":{"x":192646.34999999963,"y":2586301.3599999994}},{"attributes":{"ID":87368,"DIS_CODE":0,"TOWNNAME":"白河區","LI":"竹門里","LIN":"12鄰","STREET":" ","SECT":" ","MAREA":"竹圍子","LANE":" ","ALLEY":" ","HOUSE_NO":"１之１號","E_COORD97":192627.17999999999,"N_COORD97":2586123.3500000001,"ADDRESS":"竹圍子１之１號","OBJECTID":87368},"geometry":{"x":192627.1799999997,"y":2586123.3500000034}},{"attributes":{"ID":87369,"DIS_CODE":0,"TOWNNAME":"白河區","LI":"竹門里","LIN":"12鄰","STREET":" ","SECT":" ","MAREA":"竹圍子","LANE":" ","ALLEY":" ","HOUSE_NO":"１之３號","E_COORD97":192608.64000000001,"N_COORD97":2586094.6000000001,"ADDRESS":"竹圍子１之３號","OBJECTID":87369},"geometry":{"x":192608.63999999966,"y":2586094.6000000034}},{"attributes":{"ID":87370,"DIS_CODE":0,"TOWNNAME":"白河區","LI":"竹門里","LIN":"12鄰","STREET":" ","SECT":" ","MAREA":"竹圍子","LANE":" ","ALLEY":" ","HOUSE_NO":"１之４號","E_COORD97":192574.76000000001,"N_COORD97":2586099.9500000002,"ADDRESS":"竹圍子１之４號","OBJECTID":87370},"geometry":{"x":192574.76000000071,"y":2586099.9500000011}},{"attributes":{"ID":87371,"DIS_CODE":0,"TOWNNAME":"白河區","LI":"竹門里","LIN":"12鄰","STREET":" ","SECT":" ","MAREA":"竹圍子","LANE":" ","ALLEY":" ","HOUSE_NO":"２號","E_COORD97":192631.76999999999,"N_COORD97":2586168,"ADDRESS":"竹圍子２號","OBJECTID":87371},"geometry":{"x":192631.76999999862,"y":2586168.0000000019}},{"attributes":{"ID":87372,"DIS_CODE":0,"TOWNNAME":"白河區","LI":"竹門里","LIN":"12鄰","STREET":" ","SECT":" ","MAREA":"竹圍子","LANE":" ","ALLEY":" ","HOUSE_NO":"３之２號","E_COORD97":192670.64000000001,"N_COORD97":2586144.1000000001,"ADDRESS":"竹圍子３之２號","OBJECTID":87372},"geometry":{"x":192670.6400000006,"y":2586144.0999999996}},{"attributes":{"ID":87373,"DIS_CODE":0,"TOWNNAME":"白河區","LI":"竹門里","LIN":"12鄰","STREET":" ","SECT":" ","MAREA":"竹圍子","LANE":" ","ALLEY":" ","HOUSE_NO":"３號","E_COORD97":192647.10999999999,"N_COORD97":2586176.5899999999,"ADDRESS":"竹圍子３號","OBJECTID":87373},"geometry":{"x":192647.11000000034,"y":2586176.5900000017}},{"attributes":{"ID":87374,"DIS_CODE":0,"TOWNNAME":"佳里區","LI":"營頂里","LIN":"10鄰","STREET":" ","SECT":" ","MAREA":"營頂","LANE":" ","ALLEY":" ","HOUSE_NO":"１０４號","E_COORD97":167308.13,"N_COORD97":2566894.25,"ADDRESS":"營頂１０４號","OBJECTID":87374},"geometry":{"x":167308.12999999989,"y":2566894.2500000037}},{"attributes":{"ID":87375,"DIS_CODE":0,"TOWNNAME":"山上區","LI":"明和里","LIN":"13鄰","STREET":" ","SECT":" ","MAREA":"明和","LANE":" ","ALLEY":" ","HOUSE_NO":"１８０號","E_COORD97":183376.84,"N_COORD97":2556285.25,"ADDRESS":"明和１８０號","OBJECTID":87375},"geometry":{"x":183376.84000000078,"y":2556285.25}},{"attributes":{"ID":87376,"DIS_CODE":0,"TOWNNAME":"善化區","LI":"嘉南里","LIN":"12鄰","STREET":" ","SECT":" ","MAREA":"茄拔","LANE":" ","ALLEY":" ","HOUSE_NO":"３１２號","E_COORD97":180919.62,"N_COORD97":2559609.0099999998,"ADDRESS":"茄拔３１２號","OBJECTID":87376},"geometry":{"x":180919.61999999918,"y":2559609.0099999998}},{"attributes":{"ID":87377,"DIS_CODE":0,"TOWNNAME":"善化區","LI":"嘉南里","LIN":"12鄰","STREET":" ","SECT":" ","MAREA":"茄拔","LANE":" ","ALLEY":" ","HOUSE_NO":"３１０號之１","E_COORD97":180815.14000000001,"N_COORD97":2559615.77,"ADDRESS":"茄拔３１０號之１","OBJECTID":87377},"geometry":{"x":180815.13999999966,"y":2559615.7700000014}},{"attributes":{"ID":87378,"DIS_CODE":0,"TOWNNAME":"善化區","LI":"嘉南里","LIN":"12鄰","STREET":" ","SECT":" ","MAREA":"茄拔","LANE":" ","ALLEY":" ","HOUSE_NO":"３１０號","E_COORD97":180865.29000000001,"N_COORD97":2559606.0099999998,"ADDRESS":"茄拔３１０號","OBJECTID":87378},"geometry":{"x":180865.29000000004,"y":2559606.0100000035}},{"attributes":{"ID":87379,"DIS_CODE":0,"TOWNNAME":"善化區","LI":"嘉北里","LIN":"12鄰","STREET":" ","SECT":" ","MAREA":"茄拔","LANE":" ","ALLEY":" ","HOUSE_NO":"２７１號之５","E_COORD97":180792.72,"N_COORD97":2559872.98,"ADDRESS":"茄拔２７１號之５","OBJECTID":87379},"geometry":{"x":180792.71999999974,"y":2559872.9800000023}},{"attributes":{"ID":87380,"DIS_CODE":0,"TOWNNAME":"善化區","LI":"嘉北里","LIN":"12鄰","STREET":" ","SECT":" ","MAREA":"茄拔","LANE":" ","ALLEY":" ","HOUSE_NO":"２７１號之６","E_COORD97":180786.17999999999,"N_COORD97":2559872.9199999999,"ADDRESS":"茄拔２７１號之６","OBJECTID":87380},"geometry":{"x":180786.1799999997,"y":2559872.9200000018}},{"attributes":{"ID":87381,"DIS_CODE":0,"TOWNNAME":"善化區","LI":"嘉北里","LIN":"12鄰","STREET":" ","SECT":" ","MAREA":"茄拔","LANE":" ","ALLEY":" ","HOUSE_NO":"２７１號之７","E_COORD97":180780.17000000001,"N_COORD97":2559872.4100000001,"ADDRESS":"茄拔２７１號之７","OBJECTID":87381},"geometry":{"x":180780.17000000179,"y":2559872.410000002}},{"attributes":{"ID":87382,"DIS_CODE":0,"TOWNNAME":"善化區","LI":"嘉北里","LIN":"12鄰","STREET":" ","SECT":" ","MAREA":"茄拔","LANE":" ","ALLEY":" ","HOUSE_NO":"２７１號之８","E_COORD97":180773.88,"N_COORD97":2559872.0099999998,"ADDRESS":"茄拔２７１號之８","OBJECTID":87382},"geometry":{"x":180773.88000000082,"y":2559872.0100000016}},{"attributes":{"ID":87383,"DIS_CODE":0,"TOWNNAME":"善化區","LI":"嘉北里","LIN":"12鄰","STREET":" ","SECT":" ","MAREA":"茄拔","LANE":" ","ALLEY":" ","HOUSE_NO":"２７１號之９","E_COORD97":180768.10000000001,"N_COORD97":2559871.8900000001,"ADDRESS":"茄拔２７１號之９","OBJECTID":87383},"geometry":{"x":180768.09999999963,"y":2559871.8900000006}},{"attributes":{"ID":87384,"DIS_CODE":0,"TOWNNAME":"善化區","LI":"嘉北里","LIN":"12鄰","STREET":" ","SECT":" ","MAREA":"茄拔","LANE":" ","ALLEY":" ","HOUSE_NO":"２７１號之１０","E_COORD97":180812.78,"N_COORD97":2559863.6000000001,"ADDRESS":"茄拔２７１號之１０","OBJECTID":87384},"geometry":{"x":180812.78000000119,"y":2559863.6000000015}},{"attributes":{"ID":87385,"DIS_CODE":0,"TOWNNAME":"善化區","LI":"嘉北里","LIN":"12鄰","STREET":" ","SECT":" ","MAREA":"茄拔","LANE":" ","ALLEY":" ","HOUSE_NO":"２７１號之１１","E_COORD97":180805.82999999999,"N_COORD97":2559863.4500000002,"ADDRESS":"茄拔２７１號之１１","OBJECTID":87385},"geometry":{"x":180805.83000000007,"y":2559863.4499999974}},{"attributes":{"ID":87386,"DIS_CODE":0,"TOWNNAME":"善化區","LI":"嘉北里","LIN":"12鄰","STREET":" ","SECT":" ","MAREA":"茄拔","LANE":" ","ALLEY":" ","HOUSE_NO":"２７１號之１３","E_COORD97":180793.67999999999,"N_COORD97":2559863.1600000001,"ADDRESS":"茄拔２７１號之１３","OBJECTID":87386},"geometry":{"x":180793.68000000063,"y":2559863.1600000039}},{"attributes":{"ID":87387,"DIS_CODE":0,"TOWNNAME":"善化區","LI":"嘉南里","LIN":"12鄰","STREET":" ","SECT":" ","MAREA":"茄拔","LANE":" ","ALLEY":" ","HOUSE_NO":"３５３號之２","E_COORD97":180705.35999999999,"N_COORD97":2559102.8199999998,"ADDRESS":"茄拔３５３號之２","OBJECTID":87387},"geometry":{"x":180705.36000000127,"y":2559102.820000004}},{"attributes":{"ID":87388,"DIS_CODE":0,"TOWNNAME":"善化區","LI":"胡厝里","LIN":"12鄰","STREET":" ","SECT":" ","MAREA":"百二甲","LANE":" ","ALLEY":" ","HOUSE_NO":"２２號之７","E_COORD97":175143.06,"N_COORD97":2559800.1299999999,"ADDRESS":"百二甲２２號之７","OBJECTID":87388},"geometry":{"x":175143.06000000052,"y":2559800.129999999}},{"attributes":{"ID":87389,"DIS_CODE":0,"TOWNNAME":"善化區","LI":"胡厝里","LIN":"12鄰","STREET":" ","SECT":" ","MAREA":"百二甲","LANE":" ","ALLEY":" ","HOUSE_NO":"２２號之９","E_COORD97":175158.67000000001,"N_COORD97":2559821.5,"ADDRESS":"百二甲２２號之９","OBJECTID":87389},"geometry":{"x":175158.66999999993,"y":2559821.5000000019}},{"attributes":{"ID":87390,"DIS_CODE":0,"TOWNNAME":"善化區","LI":"嘉北里","LIN":"12鄰","STREET":" ","SECT":" ","MAREA":"茄拔","LANE":" ","ALLEY":" ","HOUSE_NO":"２７１之１９號","E_COORD97":180853.42999999999,"N_COORD97":2559887.3799999999,"ADDRESS":"茄拔２７１之１９號","OBJECTID":87390},"geometry":{"x":180853.43000000063,"y":2559887.3799999971}},{"attributes":{"ID":87391,"DIS_CODE":0,"TOWNNAME":"善化區","LI":"嘉北里","LIN":"12鄰","STREET":" ","SECT":" ","MAREA":"茄拔","LANE":" ","ALLEY":" ","HOUSE_NO":"２７１之２０號","E_COORD97":180863.81,"N_COORD97":2559899.9399999999,"ADDRESS":"茄拔２７１之２０號","OBJECTID":87391},"geometry":{"x":180863.81000000052,"y":2559899.9399999995}},{"attributes":{"ID":87392,"DIS_CODE":0,"TOWNNAME":"善化區","LI":"嘉北里","LIN":"12鄰","STREET":" ","SECT":" ","MAREA":"茄拔","LANE":" ","ALLEY":" ","HOUSE_NO":"２７１之２１號","E_COORD97":180848.91,"N_COORD97":2559901.4500000002,"ADDRESS":"茄拔２７１之２１號","OBJECTID":87392},"geometry":{"x":180848.91000000108,"y":2559901.4500000011}},{"attributes":{"ID":87393,"DIS_CODE":0,"TOWNNAME":"善化區","LI":"嘉北里","LIN":"12鄰","STREET":" ","SECT":" ","MAREA":"茄拔","LANE":" ","ALLEY":" ","HOUSE_NO":"２７１之２２號","E_COORD97":180839.06,"N_COORD97":2559903.3500000001,"ADDRESS":"茄拔２７１之２２號","OBJECTID":87393},"geometry":{"x":180839.06000000052,"y":2559903.3500000015}},{"attributes":{"ID":87394,"DIS_CODE":0,"TOWNNAME":"善化區","LI":"嘉北里","LIN":"12鄰","STREET":" ","SECT":" ","MAREA":"茄拔","LANE":" ","ALLEY":" ","HOUSE_NO":"２７１之２３號","E_COORD97":180828.73999999999,"N_COORD97":2559905.8700000001,"ADDRESS":"茄拔２７１之２３號","OBJECTID":87394},"geometry":{"x":180828.74000000022,"y":2559905.870000001}},{"attributes":{"ID":87395,"DIS_CODE":0,"TOWNNAME":"善化區","LI":"嘉北里","LIN":"12鄰","STREET":" ","SECT":" ","MAREA":"茄拔","LANE":" ","ALLEY":" ","HOUSE_NO":"２７１之２５號","E_COORD97":180819.79000000001,"N_COORD97":2559908.0499999998,"ADDRESS":"茄拔２７１之２５號","OBJECTID":87395},"geometry":{"x":180819.79000000004,"y":2559908.0500000007}},{"attributes":{"ID":87396,"DIS_CODE":0,"TOWNNAME":"善化區","LI":"嘉北里","LIN":"12鄰","STREET":" ","SECT":" ","MAREA":"茄拔","LANE":" ","ALLEY":" ","HOUSE_NO":"２７１之２６號","E_COORD97":180809.16,"N_COORD97":2559913.3500000001,"ADDRESS":"茄拔２７１之２６號","OBJECTID":87396},"geometry":{"x":180809.16000000015,"y":2559913.3500000015}},{"attributes":{"ID":87397,"DIS_CODE":0,"TOWNNAME":"善化區","LI":"嘉北里","LIN":"12鄰","STREET":" ","SECT":" ","MAREA":"茄拔","LANE":" ","ALLEY":" ","HOUSE_NO":"２７１之２７號","E_COORD97":180865.09,"N_COORD97":2559917.0299999998,"ADDRESS":"茄拔２７１之２７號","OBJECTID":87397},"geometry":{"x":180865.08999999985,"y":2559917.0299999993}},{"attributes":{"ID":87398,"DIS_CODE":0,"TOWNNAME":"善化區","LI":"嘉北里","LIN":"12鄰","STREET":" ","SECT":" ","MAREA":"茄拔","LANE":" ","ALLEY":" ","HOUSE_NO":"２７１之２８號","E_COORD97":180854.67999999999,"N_COORD97":2559919.5899999999,"ADDRESS":"茄拔２７１之２８號","OBJECTID":87398},"geometry":{"x":180854.68000000063,"y":2559919.5899999999}},{"attributes":{"ID":87399,"DIS_CODE":0,"TOWNNAME":"善化區","LI":"嘉北里","LIN":"12鄰","STREET":" ","SECT":" ","MAREA":"茄拔","LANE":" ","ALLEY":" ","HOUSE_NO":"２７１之２９號","E_COORD97":180844.79999999999,"N_COORD97":2559922.0299999998,"ADDRESS":"茄拔２７１之２９號","OBJECTID":87399},"geometry":{"x":180844.79999999981,"y":2559922.0300000012}},{"attributes":{"ID":87400,"DIS_CODE":0,"TOWNNAME":"善化區","LI":"嘉北里","LIN":"12鄰","STREET":" ","SECT":" ","MAREA":"茄拔","LANE":" ","ALLEY":" ","HOUSE_NO":"２７１之３０號","E_COORD97":180832.45999999999,"N_COORD97":2559922.9399999999,"ADDRESS":"茄拔２７１之３０號","OBJECTID":87400},"geometry":{"x":180832.46000000183,"y":2559922.9400000013}}]}